2017-12-31 17:56:35 1514760995.977359: {"class":"VERSION","release":"3.16","rev":"3.16-4","proto_major":3,"proto_minor":11}
2017-12-31 17:56:35 1514760995.977756: {"class":"DEVICES","devices":[{"class":"DEVICE","path":"/dev/ttyUSB0","driver":"SiRF","activated":"2017-12-31T22:56:35.487Z","flags":1,"native":1,"bps":4800,"parity":"N","stopbits":1,"cycle":1.00}]}
2017-12-31 17:56:35 1514760995.977858: {"class":"WATCH","enable":true,"json":false,"nmea":true,"raw":0,"scaled":false,"timing":false,"split24":false,"pps":false}
2017-12-31 17:56:36 1514760996.706168: $GPGSV,3,1,11,22,27,217,43,23,48,309,42,09,15,312,40,03,36,240,46*77
2017-12-31 17:56:36 1514760996.706319: $GPGSV,3,2,11,16,74,192,42,29,08,034,09,14,20,130,26,31,32,070,43*7F
2017-12-31 17:56:36 1514760996.706383: $GPGSV,3,3,11,27,17,156,26,26,68,055,48,135,22,240,43*7C
2017-12-31 17:56:36 1514760996.819802: $GPZDA,225637.00,31,12,2017,00,00*64
2017-12-31 17:56:36 1514760996.819924: $GPGGA,225637,3946.9567,N,08404.9865,W,2,10,0.80,306.72,M,-33.324,M,,*7A
2017-12-31 17:56:36 1514760996.819989: $GPRMC,225637,A,3946.9567,N,08404.9865,W,0.0000,0.000,311217,,*30
2017-12-31 17:56:36 1514760996.820049: $GPGSA,A,3,22,23,9,3,16,14,31,27,26,135,,,1.7,0.8,1.3*03
2017-12-31 17:56:37 1514760997.555104: $GPZDA,225638.00,31,12,2017,00,00*6B
2017-12-31 17:56:37 1514760997.555262: $GPGGA,225638,3946.9567,N,08404.9865,W,2,10,0.60,306.72,M,-33.324,M,,*7B
2017-12-31 17:56:37 1514760997.555328: $GPRMC,225638,A,3946.9567,N,08404.9865,W,0.0000,0.000,311217,,*3F
2017-12-31 17:56:37 1514760997.555389: $GPGSA,A,3,22,23,9,3,16,14,31,27,26,135,,,1.7,0.6,1.3*0D
2017-12-31 17:56:37 1514760997.555447: $GPGBS,225638,2.22,M,3.43,M,7.66,M*37
2017-12-31 17:56:38 1514760998.346108: $GPZDA,225639.00,31,12,2017,00,00*6A
2017-12-31 17:56:38 1514760998.346270: $GPGGA,225639,3946.9567,N,08404.9865,W,2,10,0.60,306.72,M,-33.324,M,,*7A
2017-12-31 17:56:38 1514760998.346335: $GPRMC,225639,A,3946.9567,N,08404.9865,W,0.0000,0.000,311217,,*3E
2017-12-31 17:56:38 1514760998.346396: $GPGSA,A,3,22,23,9,3,16,14,31,27,26,135,,,1.7,0.6,1.3*0D
2017-12-31 17:56:38 1514760998.346454: $GPGBS,225639,2.22,M,3.43,M,7.66,M*36
2017-12-31 17:56:39 1514760999.680245: $GPGSV,3,1,11,22,27,217,42,23,49,309,40,09,15,312,41,03,36,240,46*74
2017-12-31 17:56:39 1514760999.680406: $GPGSV,3,2,11,16,74,192,42,29,08,034,28,14,20,130,32,31,32,070,43*79
2017-12-31 17:56:39 1514760999.680471: $GPGSV,3,3,11,27,17,156,24,26,67,055,48,135,22,240,44*76
2017-12-31 17:56:39 1514760999.793945: $GPZDA,225640.00,31,12,2017,00,00*64
2017-12-31 17:56:39 1514760999.794074: $GPGGA,225640,3946.9567,N,08404.9865,W,2,11,0.60,306.72,M,-33.324,M,,*75
2017-12-31 17:56:39 1514760999.794140: $GPRMC,225640,A,3946.9567,N,08404.9865,W,0.0000,0.000,311217,,*30
2017-12-31 17:56:39 1514760999.794201: $GPGSA,A,3,22,23,9,3,16,29,14,31,27,26,135,,1.7,0.6,1.3*06
2017-12-31 17:56:40 1514761000.419006: $GPZDA,225641.00,31,12,2017,00,00*65
2017-12-31 17:56:40 1514761000.419192: $GPGGA,225641,3946.9567,N,08404.9865,W,2,11,0.60,306.72,M,-33.324,M,,*74
2017-12-31 17:56:40 1514761000.419264: $GPRMC,225641,A,3946.9567,N,08404.9865,W,0.1567,189.200,311217,,*36
2017-12-31 17:56:40 1514761000.419325: $GPGSA,A,3,22,23,9,3,16,29,14,31,27,26,135,,1.7,0.6,1.3*06
2017-12-31 17:56:41 1514761001.369806: $GPZDA,225642.00,31,12,2017,00,00*66
2017-12-31 17:56:42 1514761002.077432: $GPGGA,225642,3946.9567,N,08404.9865,W,2,11,0.60,306.72,M,-33.324,M,,*77
2017-12-31 17:56:42 1514761002.077630: $GPRMC,225642,A,3946.9567,N,08404.9865,W,0.0000,0.000,311217,,*32
2017-12-31 17:56:42 1514761002.077713: $GPGSA,A,3,22,23,9,3,16,29,14,31,27,26,135,,1.7,0.6,1.3*06
2017-12-31 17:56:42 1514761002.681780: $GPGSV,3,1,11,22,27,217,43,23,49,309,41,09,15,312,41,03,36,240,46*74
2017-12-31 17:56:42 1514761002.681928: $GPGSV,3,2,11,16,74,192,41,29,08,034,28,14,20,130,29,31,32,070,43*70
2017-12-31 17:56:42 1514761002.681994: $GPGSV,3,3,11,27,17,156,25,26,67,055,48,135,22,240,44*77
2017-12-31 17:56:42 1514761002.795379: $GPZDA,225643.00,31,12,2017,00,00*67
2017-12-31 17:56:42 1514761002.795526: $GPGGA,225643,3946.9567,N,08404.9865,W,2,11,0.60,306.72,M,-33.324,M,,*76
2017-12-31 17:56:42 1514761002.795660: $GPRMC,225643,A,3946.9567,N,08404.9865,W,0.0000,0.000,311217,,*33
2017-12-31 17:56:42 1514761002.795723: $GPGSA,A,3,22,23,9,3,16,29,14,31,27,26,135,,1.7,0.6,1.3*06
2017-12-31 17:56:43 1514761003.340044: $GPZDA,225644.00,31,12,2017,00,00*60
2017-12-31 17:56:43 1514761003.340202: $GPGGA,225644,3946.9567,N,08404.9865,W,2,11,0.60,306.72,M,-33.324,M,,*71
2017-12-31 17:56:43 1514761003.340268: $GPRMC,225644,A,3946.9567,N,08404.9865,W,0.0000,0.000,311217,,*34
2017-12-31 17:56:43 1514761003.340329: $GPGSA,A,3,22,23,9,3,16,29,14,31,27,26,135,,1.7,0.6,1.3*06
2017-12-31 17:56:44 1514761004.338474: $GPZDA,225645.00,31,12,2017,00,00*61
2017-12-31 17:56:44 1514761004.338653: $GPGGA,225645,3946.9567,N,08404.9865,W,2,11,0.60,306.72,M,-33.324,M,,*70
2017-12-31 17:56:44 1514761004.338720: $GPRMC,225645,A,3946.9567,N,08404.9865,W,0.0000,0.000,311217,,*35
2017-12-31 17:56:44 1514761004.338781: $GPGSA,A,3,22,23,9,3,16,29,14,31,27,26,135,,1.7,0.6,1.3*06
2017-12-31 17:56:45 1514761005.707133: $GPGSV,3,1,11,22,27,217,43,23,49,309,41,09,15,312,41,03,36,240,46*74
2017-12-31 17:56:45 1514761005.707306: $GPGSV,3,2,11,16,74,192,42,29,08,034,29,14,20,130,25,31,32,070,43*7E
2017-12-31 17:56:45 1514761005.707373: $GPGSV,3,3,11,27,17,156,28,26,67,055,48,135,22,240,44*7A
2017-12-31 17:56:45 1514761005.820774: $GPZDA,225646.00,31,12,2017,00,00*62
2017-12-31 17:56:45 1514761005.820905: $GPGGA,225646,3946.9567,N,08404.9865,W,2,11,0.60,306.72,M,-33.324,M,,*73
2017-12-31 17:56:45 1514761005.820971: $GPRMC,225646,A,3946.9567,N,08404.9865,W,0.0000,0.000,311217,,*36
2017-12-31 17:56:45 1514761005.821031: $GPGSA,A,3,22,23,9,3,16,29,14,31,27,26,135,,1.7,0.6,1.3*06
