2018-01-11 19:48:07 1515718087.070424: {"class":"VERSION","release":"3.16","rev":"3.16-4","proto_major":3,"proto_minor":11}
2018-01-11 19:48:07 1515718087.070816: {"class":"DEVICES","devices":[{"class":"DEVICE","path":"/dev/ttyUSB0","driver":"SiRF","subtype":"9\u0006GSD4e_4.1.2-P1_RPATCH.05-F-GPS-4R-1510281 11/03/2015 307","activated":"2018-01-12T00:48:06.547Z","flags":1,"native":1,"bps":4800,"parity":"N","stopbits":1,"cycle":1.00}]}
2018-01-11 19:48:07 1515718087.070929: {"class":"WATCH","enable":true,"json":false,"nmea":true,"raw":0,"scaled":false,"timing":false,"split24":false,"pps":false}
2018-01-11 19:48:07 1515718087.742127: $GPGSV,3,1,12,07,46,310,43,08,65,156,44,09,54,244,43,16,31,054,48*74
2018-01-11 19:48:07 1515718087.742292: $GPGSV,3,2,12,23,39,193,48,27,55,064,50,30,20,301,33,11,11,171,33*71
2018-01-11 19:48:07 1515718087.742358: $GPGSV,3,3,12,26,05,066,00,28,07,250,26,21,01,030,00,138,38,213,45*44
2018-01-11 19:48:07 1515718087.855731: $GPZDA,004808.00,12,01,2018,00,00*6B
2018-01-11 19:48:07 1515718087.855849: $GPGGA,004808,3946.9562,N,08404.9818,W,1,10,0.80,309.44,M,-33.324,M,,*7F
2018-01-11 19:48:07 1515718087.855911: $GPRMC,004808,A,3946.9562,N,08404.9818,W,0.0000,0.000,120118,,*30
2018-01-11 19:48:07 1515718087.855971: $GPGSA,A,3,7,8,9,16,23,27,30,11,28,138,,,4.0,0.8,3.5*3E
2018-01-11 19:48:08 1515718088.406636: $GPZDA,004809.00,12,01,2018,00,00*6A
2018-01-11 19:48:08 1515718088.406806: $GPGGA,004809,3946.9566,N,08404.9818,W,1,10,0.80,310.08,M,-33.324,M,,*7A
2018-01-11 19:48:08 1515718088.406873: $GPRMC,004809,A,3946.9566,N,08404.9818,W,0.0000,0.000,120118,,*35
2018-01-11 19:48:08 1515718088.406934: $GPGSA,A,3,7,8,9,16,23,27,30,11,28,138,,,4.0,0.8,3.5*3E
2018-01-11 19:48:09 1515718089.408639: $GPZDA,004810.00,12,01,2018,00,00*62
2018-01-11 19:48:09 1515718089.408804: $GPGGA,004810,3946.9577,N,08404.9834,W,2,10,1.20,315.42,M,-33.324,M,,*7F
2018-01-11 19:48:09 1515718089.408870: $GPRMC,004810,A,3946.9577,N,08404.9834,W,0.0000,0.000,120118,,*33
2018-01-11 19:48:09 1515718089.408930: $GPGSA,A,3,7,8,9,16,23,27,30,11,28,138,,,4.0,1.2,3.5*35
2018-01-11 19:48:09 1515718089.408987: $GPGBS,004810,3.65,M,6.21,M,20.10,M*05
2018-01-11 19:48:10 1515718090.744823: $GPGSV,3,1,12,07,46,310,43,08,65,156,44,09,54,244,43,16,31,054,48*74
2018-01-11 19:48:10 1515718090.744988: $GPGSV,3,2,12,23,39,193,48,27,55,064,50,30,20,301,33,11,11,171,33*71
2018-01-11 19:48:10 1515718090.745054: $GPGSV,3,3,12,26,05,066,06,28,07,250,26,21,01,030,00,138,38,213,45*42
2018-01-11 19:48:10 1515718090.858441: $GPZDA,004811.00,12,01,2018,00,00*63
2018-01-11 19:48:10 1515718090.858566: $GPGGA,004811,3946.9577,N,08404.9834,W,2,10,0.80,315.42,M,-33.324,M,,*75
2018-01-11 19:48:10 1515718090.858630: $GPRMC,004811,A,3946.9577,N,08404.9834,W,0.0000,0.000,120118,,*32
2018-01-11 19:48:10 1515718090.858689: $GPGSA,A,3,7,8,9,16,23,27,30,11,28,138,,,4.0,0.8,3.5*3E
2018-01-11 19:48:11 1515718091.413118: $GPZDA,004812.00,12,01,2018,00,00*60
2018-01-11 19:48:11 1515718091.413279: $GPGGA,004812,3946.9577,N,08404.9834,W,2,10,0.80,315.42,M,-33.324,M,,*76
2018-01-11 19:48:11 1515718091.413344: $GPRMC,004812,A,3946.9577,N,08404.9834,W,0.0000,0.000,120118,,*31
2018-01-11 19:48:11 1515718091.413404: $GPGSA,A,3,7,8,9,16,23,27,30,11,28,138,,,4.0,0.8,3.5*3E
2018-01-11 19:48:12 1515718092.408956: $GPZDA,004813.00,12,01,2018,00,00*61
2018-01-11 19:48:12 1515718092.409196: $GPGGA,004813,3946.9577,N,08404.9834,W,2,10,0.80,315.42,M,-33.324,M,,*77
2018-01-11 19:48:12 1515718092.409265: $GPRMC,004813,A,3946.9577,N,08404.9834,W,0.0000,0.000,120118,,*30
2018-01-11 19:48:12 1515718092.409325: $GPGSA,A,3,7,8,9,16,23,27,30,11,28,138,,,4.0,0.8,3.5*3E
2018-01-11 19:48:13 1515718093.748172: $GPGSV,3,1,12,07,46,310,44,08,65,156,44,09,54,244,43,16,31,054,48*73
2018-01-11 19:48:13 1515718093.748339: $GPGSV,3,2,12,23,39,193,48,27,55,064,50,30,20,301,33,11,11,171,32*70
2018-01-11 19:48:13 1515718093.748404: $GPGSV,3,3,12,26,05,066,16,28,07,250,26,21,01,030,00,138,38,213,45*43
2018-01-11 19:48:13 1515718093.861770: $GPZDA,004814.00,12,01,2018,00,00*66
2018-01-11 19:48:13 1515718093.861893: $GPGGA,004814,3946.9577,N,08404.9834,W,2,11,0.80,315.42,M,-33.324,M,,*71
2018-01-11 19:48:13 1515718093.862012: $GPRMC,004814,A,3946.9577,N,08404.9834,W,0.0000,0.000,120118,,*37
2018-01-11 19:48:13 1515718093.862073: $GPGSA,A,3,7,8,9,16,23,27,30,11,26,28,138,,4.0,0.8,3.5*3A
2018-01-11 19:48:14 1515718094.406433: $GPZDA,004815.00,12,01,2018,00,00*67
2018-01-11 19:48:14 1515718094.406583: $GPGGA,004815,3946.9577,N,08404.9834,W,2,11,0.80,315.42,M,-33.324,M,,*70
2018-01-11 19:48:14 1515718094.406648: $GPRMC,004815,A,3946.9577,N,08404.9834,W,0.0000,0.000,120118,,*36
2018-01-11 19:48:14 1515718094.406709: $GPGSA,A,3,7,8,9,16,23,27,30,11,26,28,138,,4.0,0.8,3.5*3A
2018-01-11 19:48:15 1515718095.411784: $GPZDA,004816.00,12,01,2018,00,00*64
2018-01-11 19:48:15 1515718095.411952: $GPGGA,004816,3946.9577,N,08404.9834,W,2,11,0.80,315.42,M,-33.324,M,,*73
2018-01-11 19:48:15 1515718095.412018: $GPRMC,004816,A,3946.9577,N,08404.9834,W,0.0000,0.000,120118,,*35
2018-01-11 19:48:15 1515718095.412078: $GPGSA,A,3,7,8,9,16,23,27,30,11,26,28,138,,4.0,0.8,3.5*3A
