2017-11-15 19:45:46 1510793146.634297: {"class":"VERSION","release":"3.17","rev":"3.17","proto_major":3,"proto_minor":12}
2017-11-15 19:45:46 1510793146.634812: {"class":"DEVICES","devices":[{"class":"DEVICE","path":"/dev/ttyUSB0","driver":"SiRF","subtype":"9\u0006GSD4e_4.1.2-P1_RPATCH.05-F-GPS-4R-1510281 11/03/2015 307","activated":"2017-11-16T00:45:46.545Z","flags":1,"native":1,"bps":4800,"parity":"N","stopbits":1,"cycle":1.00}]}
2017-11-15 19:45:46 1510793146.634943: {"class":"WATCH","enable":true,"json":false,"nmea":true,"raw":0,"scaled":false,"timing":false,"split24":false,"pps":false}
2017-11-15 19:45:47 1510793147.330221: $GPZDA,004546.00,16,11,2017,00,00*66
2017-11-15 19:45:47 1510793147.330384: $GPGGA,004546,3946.9734,N,08404.9510,W,1,08,1.40,352.40,M,-33.324,M,,*72
2017-11-15 19:45:47 1510793147.330445: $GPRMC,004546,A,3946.9734,N,08404.9510,W,0.0000,0.000,161117,,*39
2017-11-15 19:45:47 1510793147.330503: $GPGSA,A,3,32,16,22,26,14,31,23,3,,,,,3.4,1.4,2.9*0C
2017-11-15 19:45:48 1510793148.682314: $GPGSV,3,1,12,32,30,114,16,16,30,190,25,22,50,259,20,26,61,169,20*74
2017-11-15 19:45:48 1510793148.682485: $GPGSV,3,2,12,14,49,102,22,31,62,034,11,29,12,064,11,23,16,303,06*7B
2017-11-15 19:45:48 1510793148.682546: $GPGSV,3,3,12,03,43,291,15,25,11,039,00,01,01,247,00,135,23,238,00*43
2017-11-15 19:45:48 1510793148.795594: $GPZDA,004547.00,16,11,2017,00,00*67
2017-11-15 19:45:48 1510793148.795792: $GPGGA,004547,3946.9734,N,08404.9510,W,1,08,1.40,352.40,M,-33.324,M,,*73
2017-11-15 19:45:48 1510793148.795858: $GPRMC,004547,A,3946.9734,N,08404.9510,W,0.0000,0.000,161117,,*38
2017-11-15 19:45:48 1510793148.795914: $GPGSA,A,3,32,16,22,26,14,31,23,3,,,,,3.4,1.4,2.9*0C
2017-11-15 19:45:49 1510793149.346794: $GPZDA,004548.00,16,11,2017,00,00*68
2017-11-15 19:45:49 1510793149.346950: $GPGGA,004548,3946.9734,N,08404.9510,W,1,08,1.40,352.40,M,-33.324,M,,*7C
2017-11-15 19:45:49 1510793149.347010: $GPRMC,004548,A,3946.9734,N,08404.9510,W,0.4844,93.794,161117,,*0B
2017-11-15 19:45:49 1510793149.347065: $GPGSA,A,3,32,16,22,26,14,31,23,3,,,,,3.4,1.4,2.9*0C
2017-11-15 19:45:50 1510793150.328904: $GPZDA,004549.00,16,11,2017,00,00*69
2017-11-15 19:45:50 1510793150.329067: $GPGGA,004549,3946.9734,N,08404.9510,W,1,08,1.20,352.40,M,-33.324,M,,*7B
2017-11-15 19:45:50 1510793150.329128: $GPRMC,004549,A,3946.9734,N,08404.9510,W,0.2422,93.794,161117,,*00
2017-11-15 19:45:50 1510793150.329183: $GPGSA,A,3,32,16,22,26,14,31,23,3,,,,,3.4,1.2,2.9*0A
2017-11-15 19:45:51 1510793151.681505: $GPGSV,3,1,12,32,30,114,16,16,30,190,25,22,50,259,20,26,61,169,20*74
2017-11-15 19:45:51 1510793151.681711: $GPGSV,3,2,12,14,49,102,22,31,62,034,12,29,12,064,00,23,16,303,07*79
2017-11-15 19:45:51 1510793151.681772: $GPGSV,3,3,12,03,43,291,15,25,11,039,00,01,01,247,00,135,23,238,00*43
2017-11-15 19:45:51 1510793151.794993: $GPZDA,004550.00,16,11,2017,00,00*61
2017-11-15 19:45:51 1510793151.795156: $GPGGA,004550,3946.9734,N,08404.9510,W,1,08,1.40,352.40,M,-33.324,M,,*75
2017-11-15 19:45:51 1510793151.795217: $GPRMC,004550,A,3946.9734,N,08404.9510,W,0.3155,129.994,161117,,*32
2017-11-15 19:45:51 1510793151.795273: $GPGSA,A,3,32,16,22,26,14,31,23,3,,,,,3.4,1.4,2.9*0C
2017-11-15 19:45:52 1510793152.329510: $GPZDA,004551.00,16,11,2017,00,00*60
2017-11-15 19:45:52 1510793152.329675: $GPGGA,004551,3946.9726,N,08404.9504,W,1,08,1.40,352.60,M,-33.324,M,,*70
2017-11-15 19:45:52 1510793152.329739: $GPRMC,004551,A,3946.9726,N,08404.9504,W,0.0000,0.000,161117,,*39
2017-11-15 19:45:52 1510793152.329794: $GPGSA,A,3,32,16,22,26,14,31,23,3,,,,,3.4,1.4,2.9*0C
2017-11-15 19:45:53 1510793153.345581: $GPZDA,004552.00,16,11,2017,00,00*63
2017-11-15 19:45:53 1510793153.345750: $GPGGA,004552,3946.9727,N,08404.9511,W,1,08,1.40,352.52,M,-33.324,M,,*77
2017-11-15 19:45:53 1510793153.345813: $GPRMC,004552,A,3946.9727,N,08404.9511,W,1.0253,293.297,161117,,*3E
2017-11-15 19:45:53 1510793153.345869: $GPGSA,A,3,32,16,22,26,14,31,23,3,,,,,3.4,1.4,2.9*0C
2017-11-15 19:45:54 1510793154.664729: $GPGSV,3,1,12,32,30,114,17,16,30,190,25,22,50,259,20,26,61,169,20*75
2017-11-15 19:45:54 1510793154.664900: $GPGSV,3,2,12,14,49,102,22,31,62,034,12,29,12,064,00,23,16,303,08*76
2017-11-15 19:45:54 1510793154.665013: $GPGSV,3,3,12,03,43,291,15,25,11,039,00,01,01,247,00,135,23,238,00*43
2017-11-15 19:45:54 1510793154.776870: $GPZDA,004553.00,16,11,2017,00,00*62
2017-11-15 19:45:54 1510793154.777048: $GPGGA,004553,3946.9727,N,08404.9511,W,1,08,1.40,352.52,M,-33.324,M,,*76
2017-11-15 19:45:54 1510793154.777109: $GPRMC,004553,A,3946.9727,N,08404.9511,W,0.7267,273.794,161117,,*36
2017-11-15 19:45:54 1510793154.777164: $GPGSA,A,3,32,16,22,26,14,31,23,3,,,,,3.4,1.4,2.9*0C
2017-11-15 19:45:55 1510793155.346947: $GPZDA,004554.00,16,11,2017,00,00*65
2017-11-15 19:45:55 1510793155.347108: $GPGGA,004554,3946.9727,N,08404.9511,W,1,08,1.20,352.52,M,-33.324,M,,*77
2017-11-15 19:45:55 1510793155.347170: $GPRMC,004554,A,3946.9727,N,08404.9511,W,0.2422,273.794,161117,,*33
2017-11-15 19:45:55 1510793155.347226: $GPGSA,A,3,32,16,22,26,14,31,23,3,,,,,3.4,1.2,2.9*0A
