2017-11-16 13:32:41 1510857161.287400: {"class":"VERSION","release":"3.17","rev":"3.17","proto_major":3,"proto_minor":12}
2017-11-16 13:32:41 1510857161.287824: {"class":"DEVICES","devices":[{"class":"DEVICE","path":"/dev/ttyUSB0","driver":"SiRF","subtype":"9\u0006GSD4e_4.1.2-P1_RPATCH.05-F-GPS-4R-1510281 11/03/2015 307","activated":"2017-11-16T18:32:41.282Z","flags":1,"native":1,"bps":4800,"parity":"N","stopbits":1,"cycle":1.00}]}
2017-11-16 13:32:41 1510857161.287935: {"class":"WATCH","enable":true,"json":false,"nmea":true,"raw":0,"scaled":false,"timing":false,"split24":false,"pps":false}
2017-11-16 13:32:42 1510857162.594965: $GPGSV,3,1,12,10,27,286,41,13,24,045,44,15,56,049,51,18,58,306,46*7D
2017-11-16 13:32:42 1510857162.595136: $GPGSV,3,2,12,20,47,078,48,21,78,244,46,24,38,135,44,27,18,309,36*7C
2017-11-16 13:32:42 1510857162.595197: $GPGSV,3,3,12,29,05,187,25,32,05,228,21,05,01,090,00,138,38,213,46*4C
2017-11-16 13:32:42 1510857162.707254: $GPZDA,183241.00,16,11,2017,00,00*68
2017-11-16 13:32:42 1510857162.707409: $GPGGA,183241,3946.9615,N,08404.9839,W,2,11,0.80,305.44,M,-33.324,M,,*78
2017-11-16 13:32:42 1510857162.707468: $GPRMC,183241,A,3946.9615,N,08404.9839,W,0.0000,0.000,161117,,*33
2017-11-16 13:32:42 1510857162.707523: $GPGSA,A,3,10,13,15,18,20,21,24,27,29,32,138,,1.6,0.8,1.3*03
2017-11-16 13:32:43 1510857163.281661: $GPZDA,183242.00,16,11,2017,00,00*6B
2017-11-16 13:32:43 1510857163.281833: $GPGGA,183242,3946.9611,N,08404.9839,W,2,11,0.80,304.80,M,-33.324,M,,*76
2017-11-16 13:32:43 1510857163.281895: $GPRMC,183242,A,3946.9611,N,08404.9839,W,0.0000,0.000,161117,,*34
2017-11-16 13:32:43 1510857163.281950: $GPGSA,A,3,10,13,15,18,20,21,24,27,29,32,138,,1.6,0.8,1.3*03
2017-11-16 13:32:44 1510857164.283988: $GPZDA,183243.00,16,11,2017,00,00*6A
2017-11-16 13:32:44 1510857164.284150: $GPGGA,183243,3946.9611,N,08404.9839,W,2,11,0.80,304.80,M,-33.324,M,,*77
2017-11-16 13:32:44 1510857164.284210: $GPRMC,183243,A,3946.9611,N,08404.9839,W,0.0000,0.000,161117,,*35
2017-11-16 13:32:44 1510857164.284266: $GPGSA,A,3,10,13,15,18,20,21,24,27,29,32,138,,1.6,0.8,1.3*03
2017-11-16 13:32:45 1510857165.595185: $GPGSV,3,1,12,10,27,286,42,13,24,045,44,15,56,049,51,18,58,306,47*7F
2017-11-16 13:32:45 1510857165.595351: $GPGSV,3,2,12,20,47,078,48,21,78,244,46,24,38,135,44,27,18,309,36*7C
2017-11-16 13:32:45 1510857165.595410: $GPGSV,3,3,12,29,05,187,25,32,05,228,23,05,01,090,00,138,38,213,46*4E
2017-11-16 13:32:45 1510857165.708638: $GPZDA,183244.00,16,11,2017,00,00*6D
2017-11-16 13:32:45 1510857165.708858: $GPGGA,183244,3946.9611,N,08404.9839,W,2,11,0.80,304.80,M,-33.324,M,,*70
2017-11-16 13:32:45 1510857165.708922: $GPRMC,183244,A,3946.9611,N,08404.9839,W,0.0000,0.000,161117,,*32
2017-11-16 13:32:45 1510857165.708977: $GPGSA,A,3,10,13,15,18,20,21,24,27,29,32,138,,1.6,0.8,1.3*03
2017-11-16 13:32:46 1510857166.258067: $GPZDA,183245.00,16,11,2017,00,00*6C
2017-11-16 13:32:46 1510857166.258234: $GPGGA,183245,3946.9611,N,08404.9839,W,2,11,0.80,304.80,M,-33.324,M,,*71
2017-11-16 13:32:46 1510857166.258295: $GPRMC,183245,A,3946.9611,N,08404.9839,W,0.0000,0.000,161117,,*33
2017-11-16 13:32:46 1510857166.258351: $GPGSA,A,3,10,13,15,18,20,21,24,27,29,32,138,,1.6,0.8,1.3*03
2017-11-16 13:32:47 1510857167.289172: $GPZDA,183246.00,16,11,2017,00,00*6F
2017-11-16 13:32:47 1510857167.289334: $GPGGA,183246,3946.9611,N,08404.9839,W,2,11,0.80,304.80,M,-33.324,M,,*72
2017-11-16 13:32:47 1510857167.289394: $GPRMC,183246,A,3946.9611,N,08404.9839,W,0.0000,0.000,161117,,*30
2017-11-16 13:32:47 1510857167.289450: $GPGSA,A,3,10,13,15,18,20,21,24,27,29,32,138,,1.6,0.8,1.3*03
2017-11-16 13:32:48 1510857168.593426: $GPGSV,3,1,12,10,27,286,44,13,24,045,44,15,56,049,51,18,58,306,47*79
2017-11-16 13:32:48 1510857168.593601: $GPGSV,3,2,12,20,47,078,49,21,78,244,47,24,38,135,44,27,18,309,37*7D
2017-11-16 13:32:48 1510857168.593661: $GPGSV,3,3,12,29,05,187,24,32,05,228,23,05,01,090,00,138,38,213,45*4C
2017-11-16 13:32:48 1510857168.706804: $GPZDA,183247.00,16,11,2017,00,00*6E
2017-11-16 13:32:48 1510857168.706966: $GPGGA,183247,3946.9611,N,08404.9839,W,2,11,0.80,304.80,M,-33.324,M,,*73
2017-11-16 13:32:48 1510857168.707083: $GPRMC,183247,A,3946.9611,N,08404.9839,W,0.0000,0.000,161117,,*31
2017-11-16 13:32:48 1510857168.707142: $GPGSA,A,3,10,13,15,18,20,21,24,27,29,32,138,,1.6,0.8,1.3*03
2017-11-16 13:32:49 1510857169.281774: $GPZDA,183248.00,16,11,2017,00,00*61
2017-11-16 13:32:49 1510857169.281929: $GPGGA,183248,3946.9611,N,08404.9839,W,2,11,0.80,304.80,M,-33.324,M,,*7C
2017-11-16 13:32:49 1510857169.281991: $GPRMC,183248,A,3946.9611,N,08404.9839,W,0.0000,0.000,161117,,*3E
2017-11-16 13:32:49 1510857169.282047: $GPGSA,A,3,10,13,15,18,20,21,24,27,29,32,138,,1.6,0.8,1.3*03
2017-11-16 13:32:50 1510857170.260556: $GPZDA,183249.00,16,11,2017,00,00*60
2017-11-16 13:32:50 1510857170.260719: $GPGGA,183249,3946.9611,N,08404.9839,W,2,11,0.80,304.80,M,-33.324,M,,*7D
2017-11-16 13:32:50 1510857170.260778: $GPRMC,183249,A,3946.9611,N,08404.9839,W,0.0000,0.000,161117,,*3F
2017-11-16 13:32:50 1510857170.260834: $GPGSA,A,3,10,13,15,18,20,21,24,27,29,32,138,,1.6,0.8,1.3*03
2017-11-16 13:32:51 1510857171.593716: $GPGSV,3,1,12,10,27,286,45,13,24,045,44,15,56,049,51,18,58,306,47*78
2017-11-16 13:32:51 1510857171.593885: $GPGSV,3,2,12,20,47,078,48,21,78,244,47,24,38,135,45,27,18,309,37*7D
2017-11-16 13:32:51 1510857171.593944: $GPGSV,3,3,12,29,05,187,24,32,05,228,24,05,01,090,00,138,38,213,45*4B
2017-11-16 13:32:51 1510857171.707307: $GPZDA,183250.00,16,11,2017,00,00*68
2017-11-16 13:32:51 1510857171.707462: $GPGGA,183250,3946.9611,N,08404.9839,W,2,11,0.80,304.80,M,-33.324,M,,*75
2017-11-16 13:32:51 1510857171.707523: $GPRMC,183250,A,3946.9611,N,08404.9839,W,0.0000,0.000,161117,,*37
2017-11-16 13:32:51 1510857171.707578: $GPGSA,A,3,10,13,15,18,20,21,24,27,29,32,138,,1.6,0.8,1.3*03
2017-11-16 13:32:52 1510857172.257848: $GPZDA,183251.00,16,11,2017,00,00*69
2017-11-16 13:32:52 1510857172.258008: $GPGGA,183251,3946.9611,N,08404.9839,W,2,11,0.80,304.80,M,-33.324,M,,*74
2017-11-16 13:32:52 1510857172.258067: $GPRMC,183251,A,3946.9611,N,08404.9839,W,0.0000,0.000,161117,,*36
2017-11-16 13:32:52 1510857172.258123: $GPGSA,A,3,10,13,15,18,20,21,24,27,29,32,138,,1.6,0.8,1.3*03
2017-11-16 13:32:53 1510857173.258977: $GPZDA,183252.00,16,11,2017,00,00*6A
2017-11-16 13:32:53 1510857173.259138: $GPGGA,183252,3946.9611,N,08404.9839,W,2,11,0.80,304.80,M,-33.324,M,,*77
2017-11-16 13:32:53 1510857173.259199: $GPRMC,183252,A,3946.9611,N,08404.9839,W,0.0000,0.000,161117,,*35
2017-11-16 13:32:53 1510857173.259254: $GPGSA,A,3,10,13,15,18,20,21,24,27,29,32,138,,1.6,0.8,1.3*03
2017-11-16 13:32:54 1510857174.594393: $GPGSV,3,1,12,10,27,286,45,13,24,045,44,15,56,049,51,18,58,306,46*79
2017-11-16 13:32:54 1510857174.594568: $GPGSV,3,2,12,20,47,078,48,21,78,244,47,24,38,135,45,27,18,309,37*7D
2017-11-16 13:32:54 1510857174.594628: $GPGSV,3,3,12,29,05,187,24,32,05,228,25,05,01,090,00,138,38,213,45*4A
2017-11-16 13:32:54 1510857174.707693: $GPZDA,183253.00,16,11,2017,00,00*6B
2017-11-16 13:32:54 1510857174.707859: $GPGGA,183253,3946.9611,N,08404.9839,W,2,11,0.80,304.80,M,-33.324,M,,*76
2017-11-16 13:32:54 1510857174.707919: $GPRMC,183253,A,3946.9611,N,08404.9839,W,0.0000,0.000,161117,,*34
2017-11-16 13:32:54 1510857174.707975: $GPGSA,A,3,10,13,15,18,20,21,24,27,29,32,138,,1.6,0.8,1.3*03
2017-11-16 13:32:55 1510857175.333268: $GPZDA,183254.00,16,11,2017,00,00*6C
2017-11-16 13:32:55 1510857175.333434: $GPGGA,183254,3946.9611,N,08404.9839,W,2,11,0.80,304.80,M,-33.324,M,,*71
2017-11-16 13:32:55 1510857175.333495: $GPRMC,183254,A,3946.9611,N,08404.9839,W,0.0000,0.000,161117,,*33
2017-11-16 13:32:55 1510857175.333550: $GPGSA,A,3,10,13,15,18,20,21,24,27,29,32,138,,1.6,0.8,1.3*03
2017-11-16 13:32:56 1510857176.280191: $GPZDA,183255.00,16,11,2017,00,00*6D
2017-11-16 13:32:56 1510857176.280393: $GPGGA,183255,3946.9611,N,08404.9839,W,2,11,0.80,304.80,M,-33.324,M,,*70
2017-11-16 13:32:56 1510857176.280459: $GPRMC,183255,A,3946.9611,N,08404.9839,W,0.0000,0.000,161117,,*32
2017-11-16 13:32:56 1510857176.280515: $GPGSA,A,3,10,13,15,18,20,21,24,27,29,32,138,,1.6,0.8,1.3*03
2017-11-16 13:32:57 1510857177.594634: $GPGSV,3,1,11,10,28,288,44,13,23,045,44,15,55,049,51,18,59,307,46*7E
2017-11-16 13:32:57 1510857177.594797: $GPGSV,3,2,11,20,46,079,48,21,78,237,47,24,39,133,45,27,18,307,37*73
2017-11-16 13:32:57 1510857177.594857: $GPGSV,3,3,11,29,04,187,23,32,06,228,25,138,38,213,44*70
2017-11-16 13:32:57 1510857177.708258: $GPZDA,183256.00,16,11,2017,00,00*6E
2017-11-16 13:32:57 1510857177.708414: $GPGGA,183256,3946.9611,N,08404.9839,W,2,11,0.80,304.80,M,-33.324,M,,*73
2017-11-16 13:32:57 1510857177.708474: $GPRMC,183256,A,3946.9611,N,08404.9839,W,0.0000,0.000,161117,,*31
2017-11-16 13:32:57 1510857177.708530: $GPGSA,A,3,10,13,15,18,20,21,24,27,29,32,138,,1.6,0.8,1.3*03
2017-11-16 13:32:58 1510857178.259132: $GPZDA,183257.00,16,11,2017,00,00*6F
2017-11-16 13:32:58 1510857178.259299: $GPGGA,183257,3946.9611,N,08404.9839,W,2,11,0.80,304.80,M,-33.324,M,,*72
2017-11-16 13:32:58 1510857178.259359: $GPRMC,183257,A,3946.9611,N,08404.9839,W,0.0000,0.000,161117,,*30
2017-11-16 13:32:58 1510857178.259415: $GPGSA,A,3,10,13,15,18,20,21,24,27,29,32,138,,1.6,0.8,1.3*03
2017-11-16 13:32:59 1510857179.259593: $GPZDA,183258.00,16,11,2017,00,00*60
2017-11-16 13:32:59 1510857179.259756: $GPGGA,183258,3946.9611,N,08404.9839,W,2,11,0.80,304.80,M,-33.324,M,,*7D
2017-11-16 13:32:59 1510857179.259818: $GPRMC,183258,A,3946.9611,N,08404.9839,W,0.0000,0.000,161117,,*3F
2017-11-16 13:32:59 1510857179.259874: $GPGSA,A,3,10,13,15,18,20,21,24,27,29,32,138,,1.6,0.8,1.3*03
2017-11-16 13:33:00 1510857180.609841: $GPGSV,3,1,11,10,28,288,43,13,23,045,44,15,55,049,51,18,59,307,46*79
2017-11-16 13:33:00 1510857180.610010: $GPGSV,3,2,11,20,46,079,48,21,78,237,47,24,39,133,44,27,18,307,38*7D
2017-11-16 13:33:00 1510857180.610071: $GPGSV,3,3,11,29,04,187,23,32,06,228,25,138,38,213,44*70
2017-11-16 13:33:00 1510857180.723475: $GPZDA,183259.00,16,11,2017,00,00*61
2017-11-16 13:33:00 1510857180.723632: $GPGGA,183259,3946.9611,N,08404.9839,W,2,11,0.80,304.80,M,-33.324,M,,*7C
2017-11-16 13:33:00 1510857180.723692: $GPRMC,183259,A,3946.9611,N,08404.9839,W,0.0000,0.000,161117,,*3E
2017-11-16 13:33:00 1510857180.723748: $GPGSA,A,3,10,13,15,18,20,21,24,27,29,32,138,,1.6,0.8,1.3*03
2017-11-16 13:33:01 1510857181.281572: $GPZDA,183300.00,16,11,2017,00,00*6C
2017-11-16 13:33:01 1510857181.281752: $GPGGA,183300,3946.9611,N,08404.9839,W,2,11,0.80,304.80,M,-33.324,M,,*71
2017-11-16 13:33:01 1510857181.281815: $GPRMC,183300,A,3946.9611,N,08404.9839,W,0.0000,0.000,161117,,*33
2017-11-16 13:33:01 1510857181.281870: $GPGSA,A,3,10,13,15,18,20,21,24,27,29,32,138,,1.6,0.8,1.3*03
2017-11-16 13:33:02 1510857182.281471: $GPZDA,183301.00,16,11,2017,00,00*6D
2017-11-16 13:33:02 1510857182.281636: $GPGGA,183301,3946.9611,N,08404.9839,W,2,11,0.80,304.80,M,-33.324,M,,*70
2017-11-16 13:33:02 1510857182.281697: $GPRMC,183301,A,3946.9611,N,08404.9839,W,0.0000,0.000,161117,,*32
2017-11-16 13:33:02 1510857182.281752: $GPGSA,A,3,10,13,15,18,20,21,24,27,29,32,138,,1.6,0.8,1.3*03
2017-11-16 13:33:03 1510857183.595658: $GPGSV,3,1,11,10,28,288,43,13,23,045,44,15,55,049,51,18,59,307,46*79
2017-11-16 13:33:03 1510857183.595862: $GPGSV,3,2,11,20,46,079,48,21,78,237,46,24,39,133,44,27,18,307,38*7C
2017-11-16 13:33:03 1510857183.595926: $GPGSV,3,3,11,29,04,187,23,32,06,228,25,138,38,213,44*70
2017-11-16 13:33:03 1510857183.709327: $GPZDA,183302.00,16,11,2017,00,00*6E
2017-11-16 13:33:03 1510857183.709480: $GPGGA,183302,3946.9611,N,08404.9839,W,2,11,0.80,304.80,M,-33.324,M,,*73
2017-11-16 13:33:03 1510857183.709541: $GPRMC,183302,A,3946.9611,N,08404.9839,W,0.0000,0.000,161117,,*31
2017-11-16 13:33:03 1510857183.709597: $GPGSA,A,3,10,13,15,18,20,21,24,27,29,32,138,,1.6,0.8,1.3*03
2017-11-16 13:33:04 1510857184.258944: $GPZDA,183303.00,16,11,2017,00,00*6F
2017-11-16 13:33:04 1510857184.259118: $GPGGA,183303,3946.9611,N,08404.9839,W,2,11,0.80,304.80,M,-33.324,M,,*72
2017-11-16 13:33:04 1510857184.259179: $GPRMC,183303,A,3946.9611,N,08404.9839,W,0.0000,0.000,161117,,*30
2017-11-16 13:33:04 1510857184.259235: $GPGSA,A,3,10,13,15,18,20,21,24,27,29,32,138,,1.6,0.8,1.3*03
2017-11-16 13:33:05 1510857185.257576: $GPZDA,183304.00,16,11,2017,00,00*68
2017-11-16 13:33:05 1510857185.257742: $GPGGA,183304,3946.9611,N,08404.9839,W,2,11,0.80,304.80,M,-33.324,M,,*75
2017-11-16 13:33:05 1510857185.257822: $GPRMC,183304,A,3946.9611,N,08404.9839,W,0.0000,0.000,161117,,*37
2017-11-16 13:33:05 1510857185.257879: $GPGSA,A,3,10,13,15,18,20,21,24,27,29,32,138,,1.6,0.8,1.3*03
2017-11-16 13:33:06 1510857186.615788: $GPGSV,3,1,11,10,28,288,42,13,23,045,44,15,55,049,51,18,59,307,46*78
2017-11-16 13:33:06 1510857186.615976: $GPGSV,3,2,11,20,46,079,48,21,78,237,46,24,39,133,45,27,18,307,38*7D
2017-11-16 13:33:06 1510857186.616038: $GPGSV,3,3,11,29,04,187,21,32,06,228,24,138,38,213,45*72
2017-11-16 13:33:06 1510857186.729140: $GPZDA,183305.00,16,11,2017,00,00*69
2017-11-16 13:33:06 1510857186.729299: $GPGGA,183305,3946.9611,N,08404.9839,W,2,11,0.80,304.80,M,-33.324,M,,*74
2017-11-16 13:33:06 1510857186.729360: $GPRMC,183305,A,3946.9611,N,08404.9839,W,0.0000,0.000,161117,,*36
2017-11-16 13:33:06 1510857186.729416: $GPGSA,A,3,10,13,15,18,20,21,24,27,29,32,138,,1.6,0.8,1.3*03
2017-11-16 13:33:07 1510857187.253740: $GPZDA,183306.00,16,11,2017,00,00*6A
2017-11-16 13:33:07 1510857187.253916: $GPGGA,183306,3946.9611,N,08404.9839,W,2,11,0.80,304.80,M,-33.324,M,,*77
2017-11-16 13:33:07 1510857187.253979: $GPRMC,183306,A,3946.9611,N,08404.9839,W,0.0000,0.000,161117,,*35
2017-11-16 13:33:07 1510857187.254034: $GPGSA,A,3,10,13,15,18,20,21,24,27,29,32,138,,1.6,0.8,1.3*03
2017-11-16 13:33:08 1510857188.252055: $GPZDA,183307.00,16,11,2017,00,00*6B
2017-11-16 13:33:08 1510857188.252219: $GPGGA,183307,3946.9611,N,08404.9839,W,2,11,0.80,304.80,M,-33.324,M,,*76
2017-11-16 13:33:08 1510857188.252281: $GPRMC,183307,A,3946.9611,N,08404.9839,W,0.0000,0.000,161117,,*34
2017-11-16 13:33:08 1510857188.252337: $GPGSA,A,3,10,13,15,18,20,21,24,27,29,32,138,,1.6,0.8,1.3*03
2017-11-16 13:33:09 1510857189.592776: $GPGSV,3,1,11,10,28,288,42,13,23,045,44,15,55,049,51,18,59,307,46*78
2017-11-16 13:33:09 1510857189.592949: $GPGSV,3,2,11,20,46,079,48,21,78,237,46,24,39,133,44,27,18,307,38*7C
2017-11-16 13:33:09 1510857189.593009: $GPGSV,3,3,11,29,04,187,22,32,06,228,18,138,38,213,44*7F
2017-11-16 13:33:09 1510857189.706125: $GPZDA,183308.00,16,11,2017,00,00*64
2017-11-16 13:33:09 1510857189.706292: $GPGGA,183308,3946.9611,N,08404.9839,W,2,11,0.80,304.80,M,-33.324,M,,*79
2017-11-16 13:33:09 1510857189.706354: $GPRMC,183308,A,3946.9611,N,08404.9839,W,0.0000,0.000,161117,,*3B
2017-11-16 13:33:09 1510857189.706410: $GPGSA,A,3,10,13,15,18,20,21,24,27,29,32,138,,1.6,0.8,1.3*03
2017-11-16 13:33:10 1510857190.331509: $GPZDA,183309.00,16,11,2017,00,00*65
2017-11-16 13:33:10 1510857190.331711: $GPGGA,183309,3946.9611,N,08404.9839,W,2,11,0.80,304.80,M,-33.324,M,,*78
2017-11-16 13:33:10 1510857190.331773: $GPRMC,183309,A,3946.9611,N,08404.9839,W,0.0000,0.000,161117,,*3A
2017-11-16 13:33:10 1510857190.331830: $GPGSA,A,3,10,13,15,18,20,21,24,27,29,32,138,,1.6,0.8,1.3*03
2017-11-16 13:33:11 1510857191.257290: $GPZDA,183310.00,16,11,2017,00,00*6D
2017-11-16 13:33:11 1510857191.257490: $GPGGA,183310,3946.9611,N,08404.9839,W,2,11,0.80,304.80,M,-33.324,M,,*70
2017-11-16 13:33:11 1510857191.257554: $GPRMC,183310,A,3946.9611,N,08404.9839,W,0.0000,0.000,161117,,*32
2017-11-16 13:33:11 1510857191.257626: $GPGSA,A,3,10,13,15,18,20,21,24,27,29,32,138,,1.6,0.8,1.3*03
