2017-11-16 14:46:48 1510861608.079765: {"class":"VERSION","release":"3.17","rev":"3.17","proto_major":3,"proto_minor":12}
2017-11-16 14:46:48 1510861608.080413: {"class":"DEVICES","devices":[{"class":"DEVICE","path":"/dev/ttyUSB0","driver":"SiRF","subtype":"9\u0006GSD4e_4.1.2-P1_RPATCH.05-F-GPS-4R-1510281 11/03/2015 307","activated":"2017-11-16T19:46:47.633Z","flags":1,"native":1,"bps":4800,"parity":"N","stopbits":1,"cycle":1.00}]}
2017-11-16 14:46:48 1510861608.080549: {"class":"WATCH","enable":true,"json":false,"nmea":true,"raw":0,"scaled":false,"timing":false,"split24":false,"pps":false}
2017-11-16 14:46:48 1510861608.867579: $GPGSV,3,1,11,08,08,309,30,10,53,313,50,15,25,058,49,18,77,027,44*7E
2017-11-16 14:46:48 1510861608.867775: $GPGSV,3,2,11,21,48,183,48,20,22,106,45,24,53,084,49,27,15,274,42*72
2017-11-16 14:46:48 1510861608.867837: $GPGSV,3,3,11,32,32,249,47,14,16,241,41,138,38,213,44*74
2017-11-16 14:46:48 1510861608.983613: $GPZDA,194647.00,16,11,2017,00,00*6C
2017-11-16 14:46:48 1510861608.983791: $GPGGA,194647,3946.9564,N,08404.9842,W,2,11,0.80,302.74,M,-33.324,M,,*71
2017-11-16 14:46:48 1510861608.983858: $GPRMC,194647,A,3946.9564,N,08404.9842,W,0.0000,0.000,161117,,*3E
2017-11-16 14:46:48 1510861608.983916: $GPGSA,A,3,8,10,15,18,21,20,24,27,32,14,138,,1.6,0.8,1.3*37
2017-11-16 14:46:49 1510861609.606226: $GPZDA,194648.00,16,11,2017,00,00*63
2017-11-16 14:46:49 1510861609.606404: $GPGGA,194648,3946.9564,N,08404.9842,W,2,11,0.80,302.74,M,-33.324,M,,*7E
2017-11-16 14:46:49 1510861609.606468: $GPRMC,194648,A,3946.9564,N,08404.9842,W,0.0000,0.000,161117,,*31
2017-11-16 14:46:49 1510861609.606524: $GPGSA,A,3,8,10,15,18,21,20,24,27,32,14,138,,1.6,0.8,1.3*37
2017-11-16 14:46:50 1510861610.530876: $GPZDA,194649.00,16,11,2017,00,00*62
2017-11-16 14:46:50 1510861610.531061: $GPGGA,194649,3946.9564,N,08404.9842,W,2,11,0.80,302.74,M,-33.324,M,,*7F
2017-11-16 14:46:50 1510861610.531124: $GPRMC,194649,A,3946.9564,N,08404.9842,W,0.0000,0.000,161117,,*30
2017-11-16 14:46:50 1510861610.531181: $GPGSA,A,3,8,10,15,18,21,20,24,27,32,14,138,,1.6,0.8,1.3*37
2017-11-16 14:46:51 1510861611.866617: $GPGSV,3,1,11,08,08,309,30,10,53,313,50,15,25,058,49,18,77,027,45*7F
2017-11-16 14:46:51 1510861611.866788: $GPGSV,3,2,11,21,48,183,48,20,22,106,44,24,53,084,49,27,15,274,42*73
2017-11-16 14:46:51 1510861611.866850: $GPGSV,3,3,11,32,32,249,47,14,16,241,41,138,38,213,43*73
2017-11-16 14:46:51 1510861611.980345: $GPZDA,194650.00,16,11,2017,00,00*6A
2017-11-16 14:46:51 1510861611.980524: $GPGGA,194650,3946.9564,N,08404.9842,W,2,11,0.80,302.74,M,-33.324,M,,*77
2017-11-16 14:46:51 1510861611.980624: $GPRMC,194650,A,3946.9564,N,08404.9842,W,0.0000,0.000,161117,,*38
2017-11-16 14:46:51 1510861611.980682: $GPGSA,A,3,8,10,15,18,21,20,24,27,32,14,138,,1.6,0.8,1.3*37
2017-11-16 14:46:52 1510861612.493430: $GPZDA,194651.00,16,11,2017,00,00*6B
2017-11-16 14:46:52 1510861612.493610: $GPGGA,194651,3946.9564,N,08404.9842,W,2,11,0.80,302.74,M,-33.324,M,,*76
2017-11-16 14:46:52 1510861612.493676: $GPRMC,194651,A,3946.9564,N,08404.9842,W,0.0000,0.000,161117,,*39
2017-11-16 14:46:52 1510861612.493734: $GPGSA,A,3,8,10,15,18,21,20,24,27,32,14,138,,1.6,0.8,1.3*37
2017-11-16 14:46:53 1510861613.530439: $GPZDA,194652.00,16,11,2017,00,00*68
2017-11-16 14:46:53 1510861613.530615: $GPGGA,194652,3946.9564,N,08404.9842,W,2,11,0.80,302.74,M,-33.324,M,,*75
2017-11-16 14:46:53 1510861613.530676: $GPRMC,194652,A,3946.9564,N,08404.9842,W,0.0000,0.000,161117,,*3A
2017-11-16 14:46:53 1510861613.530732: $GPGSA,A,3,8,10,15,18,21,20,24,27,32,14,138,,1.6,0.8,1.3*37
2017-11-16 14:46:54 1510861614.860772: $GPGSV,3,1,11,08,08,309,32,10,53,313,50,15,25,058,49,18,77,027,44*7C
2017-11-16 14:46:54 1510861614.860956: $GPGSV,3,2,11,21,48,183,48,20,22,106,44,24,53,084,48,27,15,274,43*73
2017-11-16 14:46:54 1510861614.861016: $GPGSV,3,3,11,32,32,249,47,14,16,241,41,138,38,213,43*73
2017-11-16 14:46:54 1510861614.973949: $GPZDA,194653.00,16,11,2017,00,00*69
2017-11-16 14:46:54 1510861614.974111: $GPGGA,194653,3946.9564,N,08404.9842,W,2,11,0.80,302.74,M,-33.324,M,,*74
2017-11-16 14:46:54 1510861614.974223: $GPRMC,194653,A,3946.9564,N,08404.9842,W,0.0000,0.000,161117,,*3B
2017-11-16 14:46:54 1510861614.974280: $GPGSA,A,3,8,10,15,18,21,20,24,27,32,14,138,,1.6,0.8,1.3*37
2017-11-16 14:46:55 1510861615.492967: $GPZDA,194654.00,16,11,2017,00,00*6E
2017-11-16 14:46:55 1510861615.493140: $GPGGA,194654,3946.9564,N,08404.9842,W,2,11,0.80,302.74,M,-33.324,M,,*73
2017-11-16 14:46:55 1510861615.493201: $GPRMC,194654,A,3946.9564,N,08404.9842,W,0.0000,0.000,161117,,*3C
2017-11-16 14:46:55 1510861615.493256: $GPGSA,A,3,8,10,15,18,21,20,24,27,32,14,138,,1.6,0.8,1.3*37
2017-11-16 14:46:56 1510861616.493738: $GPZDA,194655.00,16,11,2017,00,00*6F
2017-11-16 14:46:56 1510861616.493897: $GPGGA,194655,3946.9564,N,08404.9842,W,2,11,0.80,302.74,M,-33.324,M,,*72
2017-11-16 14:46:56 1510861616.493958: $GPRMC,194655,A,3946.9564,N,08404.9842,W,0.0000,0.000,161117,,*3D
2017-11-16 14:46:56 1510861616.494014: $GPGSA,A,3,8,10,15,18,21,20,24,27,32,14,138,,1.6,0.8,1.3*37
2017-11-16 14:46:57 1510861617.828923: $GPGSV,3,1,11,08,08,309,34,10,53,313,50,15,25,058,48,18,77,027,44*7B
2017-11-16 14:46:57 1510861617.829093: $GPGSV,3,2,11,21,48,183,48,20,22,106,44,24,53,084,48,27,15,274,43*73
2017-11-16 14:46:57 1510861617.829153: $GPGSV,3,3,11,32,32,249,47,14,16,241,42,138,38,213,44*77
2017-11-16 14:46:57 1510861617.942237: $GPZDA,194656.00,16,11,2017,00,00*6C
2017-11-16 14:46:57 1510861617.942408: $GPGGA,194656,3946.9564,N,08404.9842,W,2,11,0.80,302.74,M,-33.324,M,,*71
2017-11-16 14:46:57 1510861617.942470: $GPRMC,194656,A,3946.9564,N,08404.9842,W,0.0000,0.000,161117,,*3E
2017-11-16 14:46:57 1510861617.942526: $GPGSA,A,3,8,10,15,18,21,20,24,27,32,14,138,,1.6,0.8,1.3*37
