2017-12-29 11:51:34 1514566294.098672: {"class":"VERSION","release":"3.16","rev":"3.16-4","proto_major":3,"proto_minor":11}
2017-12-29 11:51:34 1514566294.099029: {"class":"DEVICES","devices":[{"class":"DEVICE","path":"/dev/ttyUSB0","driver":"SiRF","subtype":"9\u0006GSD4e_4.1.2-P1_RPATCH.05-F-GPS-4R-1510281 11/03/2015 307","activated":"2017-12-29T16:51:33.564Z","flags":1,"native":1,"bps":4800,"parity":"N","stopbits":1,"cycle":1.00}]}
2017-12-29 11:51:34 1514566294.099145: {"class":"WATCH","enable":true,"json":false,"nmea":true,"raw":0,"scaled":false,"timing":false,"split24":false,"pps":false}
2017-12-29 11:51:34 1514566294.427060: $GPZDA,165135.00,29,12,2017,00,00*6F
2017-12-29 11:51:34 1514566294.427227: $GPGGA,165135,3946.9604,N,08404.9845,W,2,11,0.80,314.12,M,-33.324,M,,*78
2017-12-29 11:51:34 1514566294.427311: $GPRMC,165135,A,3946.9604,N,08404.9845,W,0.0000,0.000,291217,,*3F
2017-12-29 11:51:34 1514566294.427373: $GPGSA,A,3,8,10,15,18,20,21,24,27,32,14,138,,1.7,0.8,1.3*36
2017-12-29 11:51:35 1514566295.763960: $GPGSV,3,1,11,08,08,310,36,10,54,313,46,15,24,058,44,18,77,033,45*78
2017-12-29 11:51:35 1514566295.764137: $GPGSV,3,2,11,20,23,106,49,21,47,183,47,24,53,082,50,27,15,274,28*7D
2017-12-29 11:51:35 1514566295.764202: $GPGSV,3,3,11,32,34,249,36,14,15,241,38,138,38,213,44*79
2017-12-29 11:51:35 1514566295.877301: $GPZDA,165136.00,29,12,2017,00,00*6C
2017-12-29 11:51:35 1514566295.877435: $GPGGA,165136,3946.9604,N,08404.9845,W,2,11,0.80,314.12,M,-33.324,M,,*7B
2017-12-29 11:51:35 1514566295.877516: $GPRMC,165136,A,3946.9604,N,08404.9845,W,0.0000,0.000,291217,,*3C
2017-12-29 11:51:35 1514566295.877577: $GPGSA,A,3,8,10,15,18,20,21,24,27,32,14,138,,1.7,0.8,1.3*36
2017-12-29 11:51:36 1514566296.502938: $GPZDA,165137.00,29,12,2017,00,00*6D
2017-12-29 11:51:36 1514566296.503108: $GPGGA,165137,3946.9604,N,08404.9845,W,2,11,0.80,314.12,M,-33.324,M,,*7A
2017-12-29 11:51:36 1514566296.503175: $GPRMC,165137,A,3946.9604,N,08404.9845,W,0.0000,0.000,291217,,*3D
2017-12-29 11:51:36 1514566296.503235: $GPGSA,A,3,8,10,15,18,20,21,24,27,32,14,138,,1.7,0.8,1.3*36
2017-12-29 11:51:37 1514566297.429061: $GPZDA,165138.00,29,12,2017,00,00*62
2017-12-29 11:51:37 1514566297.429229: $GPGGA,165138,3946.9604,N,08404.9845,W,2,11,0.80,314.12,M,-33.324,M,,*75
2017-12-29 11:51:37 1514566297.429295: $GPRMC,165138,A,3946.9604,N,08404.9845,W,0.0000,0.000,291217,,*32
2017-12-29 11:51:37 1514566297.429356: $GPGSA,A,3,8,10,15,18,20,21,24,27,32,14,138,,1.7,0.8,1.3*36
2017-12-29 11:51:38 1514566298.763168: $GPGSV,3,1,11,08,08,310,37,10,54,313,45,15,24,058,44,18,77,033,45*7A
2017-12-29 11:51:38 1514566298.763368: $GPGSV,3,2,11,20,23,106,49,21,47,183,47,24,53,082,50,27,15,274,29*7C
2017-12-29 11:51:38 1514566298.763452: $GPGSV,3,3,11,32,34,249,37,14,15,241,38,138,38,213,45*79
2017-12-29 11:51:38 1514566298.876831: $GPZDA,165139.00,29,12,2017,00,00*63
2017-12-29 11:51:38 1514566298.876980: $GPGGA,165139,3946.9604,N,08404.9845,W,2,11,0.80,314.12,M,-33.324,M,,*74
2017-12-29 11:51:38 1514566298.877047: $GPRMC,165139,A,3946.9604,N,08404.9845,W,0.0000,0.000,291217,,*33
2017-12-29 11:51:38 1514566298.877108: $GPGSA,A,3,8,10,15,18,20,21,24,27,32,14,138,,1.7,0.8,1.3*36
2017-12-29 11:51:39 1514566299.411257: $GPZDA,165140.00,29,12,2017,00,00*6D
2017-12-29 11:51:39 1514566299.411417: $GPGGA,165140,3946.9604,N,08404.9845,W,2,11,0.80,314.12,M,-33.324,M,,*7A
2017-12-29 11:51:39 1514566299.411485: $GPRMC,165140,A,3946.9604,N,08404.9845,W,0.0000,0.000,291217,,*3D
2017-12-29 11:51:39 1514566299.411547: $GPGSA,A,3,8,10,15,18,20,21,24,27,32,14,138,,1.7,0.8,1.3*36
2017-12-29 11:51:40 1514566300.407333: $GPZDA,165141.00,29,12,2017,00,00*6C
2017-12-29 11:51:40 1514566300.407507: $GPGGA,165141,3946.9604,N,08404.9838,W,2,11,0.80,314.20,M,-33.324,M,,*70
2017-12-29 11:51:40 1514566300.407573: $GPRMC,165141,A,3946.9604,N,08404.9838,W,0.0000,0.000,291217,,*36
2017-12-29 11:51:40 1514566300.407634: $GPGSA,A,3,8,10,15,18,20,21,24,27,32,14,138,,1.7,0.8,1.3*36
2017-12-29 11:51:41 1514566301.748514: $GPGSV,3,1,11,08,08,310,36,10,54,313,45,15,24,058,44,18,77,033,45*7B
2017-12-29 11:51:41 1514566301.748747: $GPGSV,3,2,11,20,23,106,49,21,47,183,47,24,53,082,50,27,15,274,30*74
2017-12-29 11:51:41 1514566301.748816: $GPGSV,3,3,11,32,34,249,37,14,15,241,38,138,38,213,44*78
2017-12-29 11:51:41 1514566301.862326: $GPZDA,165142.00,29,12,2017,00,00*6F
2017-12-29 11:51:41 1514566301.862494: $GPGGA,165142,3946.9604,N,08404.9838,W,2,11,0.80,314.20,M,-33.324,M,,*73
2017-12-29 11:51:41 1514566301.862559: $GPRMC,165142,A,3946.9604,N,08404.9838,W,0.0000,0.000,291217,,*35
2017-12-29 11:51:41 1514566301.862620: $GPGSA,A,3,8,10,15,18,20,21,24,27,32,14,138,,1.7,0.8,1.3*36
2017-12-29 11:51:42 1514566302.429025: $GPZDA,165143.00,29,12,2017,00,00*6E
2017-12-29 11:51:42 1514566302.429199: $GPGGA,165143,3946.9604,N,08404.9838,W,2,11,0.80,314.20,M,-33.324,M,,*72
2017-12-29 11:51:42 1514566302.429267: $GPRMC,165143,A,3946.9604,N,08404.9838,W,0.0000,0.000,291217,,*34
2017-12-29 11:51:42 1514566302.429328: $GPGSA,A,3,8,10,15,18,20,21,24,27,32,14,138,,1.7,0.8,1.3*36
2017-12-29 11:51:43 1514566303.428613: $GPZDA,165144.00,29,12,2017,00,00*69
2017-12-29 11:51:43 1514566303.428787: $GPGGA,165144,3946.9604,N,08404.9838,W,2,11,0.80,314.20,M,-33.324,M,,*75
2017-12-29 11:51:43 1514566303.428854: $GPRMC,165144,A,3946.9604,N,08404.9838,W,0.0000,0.000,291217,,*33
2017-12-29 11:51:43 1514566303.428916: $GPGSA,A,3,8,10,15,18,20,21,24,27,32,14,138,,1.7,0.8,1.3*36
2017-12-29 11:51:44 1514566304.748137: $GPGSV,3,1,11,08,08,310,35,10,54,313,45,15,24,058,45,18,77,033,46*7A
2017-12-29 11:51:44 1514566304.748329: $GPGSV,3,2,11,20,23,106,49,21,47,183,47,24,53,082,50,27,15,274,30*74
2017-12-29 11:51:44 1514566304.748398: $GPGSV,3,3,11,32,34,249,37,14,15,241,38,138,38,213,45*79
2017-12-29 11:51:44 1514566304.861636: $GPZDA,165145.00,29,12,2017,00,00*68
2017-12-29 11:51:44 1514566304.861821: $GPGGA,165145,3946.9604,N,08404.9838,W,2,11,0.80,314.20,M,-33.324,M,,*74
2017-12-29 11:51:44 1514566304.861889: $GPRMC,165145,A,3946.9604,N,08404.9838,W,0.0000,0.000,291217,,*32
2017-12-29 11:51:44 1514566304.861953: $GPGSA,A,3,8,10,15,18,20,21,24,27,32,14,138,,1.7,0.8,1.3*36
2017-12-29 11:51:45 1514566305.429093: $GPZDA,165146.00,29,12,2017,00,00*6B
2017-12-29 11:51:45 1514566305.429266: $GPGGA,165146,3946.9600,N,08404.9839,W,2,11,0.80,314.96,M,-33.324,M,,*7F
2017-12-29 11:51:45 1514566305.429334: $GPRMC,165146,A,3946.9600,N,08404.9839,W,0.0000,0.000,291217,,*34
2017-12-29 11:51:45 1514566305.429398: $GPGSA,A,3,8,10,15,18,20,21,24,27,32,14,138,,1.7,0.8,1.3*36
2017-12-29 11:51:46 1514566306.411864: $GPZDA,165147.00,29,12,2017,00,00*6A
2017-12-29 11:51:46 1514566306.412032: $GPGGA,165147,3946.9600,N,08404.9839,W,2,11,0.80,314.96,M,-33.324,M,,*7E
2017-12-29 11:51:46 1514566306.412101: $GPRMC,165147,A,3946.9600,N,08404.9839,W,0.0000,0.000,291217,,*35
2017-12-29 11:51:46 1514566306.412164: $GPGSA,A,3,8,10,15,18,20,21,24,27,32,14,138,,1.7,0.8,1.3*36
2017-12-29 11:51:47 1514566307.747291: $GPGSV,3,1,11,08,08,310,34,10,54,313,44,15,24,058,45,18,77,033,46*7A
2017-12-29 11:51:47 1514566307.747450: $GPGSV,3,2,11,20,23,106,49,21,47,183,47,24,53,082,50,27,15,274,36*72
2017-12-29 11:51:47 1514566307.747517: $GPGSV,3,3,11,32,34,249,37,14,15,241,37,138,38,213,44*77
2017-12-29 11:51:47 1514566307.860931: $GPZDA,165148.00,29,12,2017,00,00*65
2017-12-29 11:51:47 1514566307.861137: $GPGGA,165148,3946.9600,N,08404.9839,W,2,11,0.80,314.96,M,-33.324,M,,*71
2017-12-29 11:51:47 1514566307.861208: $GPRMC,165148,A,3946.9600,N,08404.9839,W,0.0000,0.000,291217,,*3A
2017-12-29 11:51:47 1514566307.861272: $GPGSA,A,3,8,10,15,18,20,21,24,27,32,14,138,,1.7,0.8,1.3*36
2017-12-29 11:51:48 1514566308.430507: $GPZDA,165149.00,29,12,2017,00,00*64
2017-12-29 11:51:48 1514566308.430695: $GPGGA,165149,3946.9600,N,08404.9839,W,2,11,0.80,314.96,M,-33.324,M,,*70
2017-12-29 11:51:48 1514566308.430765: $GPRMC,165149,A,3946.9600,N,08404.9839,W,0.0000,0.000,291217,,*3B
2017-12-29 11:51:48 1514566308.430829: $GPGSA,A,3,8,10,15,18,20,21,24,27,32,14,138,,1.7,0.8,1.3*36
