2017-11-16 13:18:50 1510856330.109185: {"class":"VERSION","release":"3.17","rev":"3.17","proto_major":3,"proto_minor":12}
2017-11-16 13:18:50 1510856330.109620: {"class":"DEVICES","devices":[{"class":"DEVICE","path":"/dev/ttyUSB0","driver":"SiRF","subtype":"9\u0006GSD4e_4.1.2-P1_RPATCH.05-F-GPS-4R-1510281 11/03/2015 307","activated":"2017-11-16T18:18:49.608Z","flags":1,"native":1,"bps":4800,"parity":"N","stopbits":1,"cycle":1.00}]}
2017-11-16 13:18:50 1510856330.109737: {"class":"WATCH","enable":true,"json":false,"nmea":true,"raw":0,"scaled":false,"timing":false,"split24":false,"pps":false}
2017-11-16 13:18:50 1510856330.292525: $GPZDA,181849.00,16,11,2017,00,00*68
2017-11-16 13:18:50 1510856330.292683: $GPGGA,181849,3946.9590,N,08404.9845,W,2,11,0.80,300.12,M,-33.324,M,,*7B
2017-11-16 13:18:50 1510856330.292744: $GPRMC,181849,A,3946.9590,N,08404.9845,W,0.0000,0.000,161117,,*36
2017-11-16 13:18:50 1510856330.292800: $GPGSA,A,3,10,13,15,18,20,21,24,27,5,29,138,,1.6,0.8,1.3*37
2017-11-16 13:18:51 1510856331.630836: $GPGSV,3,1,11,10,22,282,43,13,30,045,46,15,62,052,50,18,53,298,46*7B
2017-11-16 13:18:51 1510856331.631006: $GPGSV,3,2,11,20,52,070,47,21,77,276,46,24,32,139,40,27,16,313,42*76
2017-11-16 13:18:51 1510856331.631067: $GPGSV,3,3,11,05,05,087,16,29,10,189,28,138,38,213,46*72
2017-11-16 13:18:51 1510856331.744058: $GPZDA,181850.00,16,11,2017,00,00*60
2017-11-16 13:18:51 1510856331.744210: $GPGGA,181850,3946.9590,N,08404.9845,W,2,11,0.80,300.12,M,-33.324,M,,*73
2017-11-16 13:18:51 1510856331.744271: $GPRMC,181850,A,3946.9590,N,08404.9845,W,0.0000,0.000,161117,,*3E
2017-11-16 13:18:51 1510856331.744328: $GPGSA,A,3,10,13,15,18,20,21,24,27,5,29,138,,1.6,0.8,1.3*37
2017-11-16 13:18:52 1510856332.292476: $GPZDA,181851.00,16,11,2017,00,00*61
2017-11-16 13:18:52 1510856332.292648: $GPGGA,181851,3946.9590,N,08404.9845,W,2,11,0.80,300.12,M,-33.324,M,,*72
2017-11-16 13:18:52 1510856332.292711: $GPRMC,181851,A,3946.9590,N,08404.9845,W,0.0000,0.000,161117,,*3F
2017-11-16 13:18:52 1510856332.292768: $GPGSA,A,3,10,13,15,18,20,21,24,27,5,29,138,,1.6,0.8,1.3*37
2017-11-16 13:18:53 1510856333.293354: $GPZDA,181852.00,16,11,2017,00,00*62
2017-11-16 13:18:53 1510856333.293517: $GPGGA,181852,3946.9590,N,08404.9845,W,2,11,0.80,300.12,M,-33.324,M,,*71
2017-11-16 13:18:53 1510856333.293581: $GPRMC,181852,A,3946.9590,N,08404.9845,W,0.0000,0.000,161117,,*3C
2017-11-16 13:18:53 1510856333.293637: $GPGSA,A,3,10,13,15,18,20,21,24,27,5,29,138,,1.6,0.8,1.3*37
2017-11-16 13:18:54 1510856334.629029: $GPGSV,3,1,11,10,22,282,43,13,30,045,46,15,62,052,50,18,53,298,46*7B
2017-11-16 13:18:54 1510856334.629180: $GPGSV,3,2,11,20,52,070,47,21,77,276,46,24,32,139,41,27,16,313,42*77
2017-11-16 13:18:54 1510856334.629240: $GPGSV,3,3,11,05,05,087,16,29,10,189,29,138,38,213,45*70
2017-11-16 13:18:54 1510856334.741209: $GPZDA,181853.00,16,11,2017,00,00*63
2017-11-16 13:18:54 1510856334.741373: $GPGGA,181853,3946.9590,N,08404.9845,W,2,11,0.80,300.12,M,-33.324,M,,*70
2017-11-16 13:18:54 1510856334.741434: $GPRMC,181853,A,3946.9590,N,08404.9845,W,0.0000,0.000,161117,,*3D
2017-11-16 13:18:54 1510856334.741491: $GPGSA,A,3,10,13,15,18,20,21,24,27,5,29,138,,1.6,0.8,1.3*37
2017-11-16 13:18:55 1510856335.368633: $GPZDA,181854.00,16,11,2017,00,00*64
2017-11-16 13:18:55 1510856335.368803: $GPGGA,181854,3946.9590,N,08404.9845,W,2,11,0.80,300.12,M,-33.324,M,,*77
2017-11-16 13:18:55 1510856335.368865: $GPRMC,181854,A,3946.9590,N,08404.9845,W,0.0000,0.000,161117,,*3A
2017-11-16 13:18:55 1510856335.368921: $GPGSA,A,3,10,13,15,18,20,21,24,27,5,29,138,,1.6,0.8,1.3*37
2017-11-16 13:18:56 1510856336.291385: $GPZDA,181855.00,16,11,2017,00,00*65
2017-11-16 13:18:56 1510856336.291544: $GPGGA,181855,3946.9590,N,08404.9845,W,2,11,0.80,300.12,M,-33.324,M,,*76
2017-11-16 13:18:56 1510856336.291605: $GPRMC,181855,A,3946.9590,N,08404.9845,W,0.0000,0.000,161117,,*3B
2017-11-16 13:18:56 1510856336.291662: $GPGSA,A,3,10,13,15,18,20,21,24,27,5,29,138,,1.6,0.8,1.3*37
2017-11-16 13:18:57 1510856337.627954: $GPGSV,3,1,11,10,22,282,43,13,30,045,46,15,62,052,50,18,53,298,46*7B
2017-11-16 13:18:57 1510856337.628206: $GPGSV,3,2,11,20,52,070,46,21,77,276,46,24,32,139,41,27,16,313,42*76
2017-11-16 13:18:57 1510856337.628269: $GPGSV,3,3,11,05,05,087,17,29,10,189,29,138,38,213,45*71
2017-11-16 13:18:57 1510856337.741326: $GPZDA,181856.00,16,11,2017,00,00*66
2017-11-16 13:18:57 1510856337.741496: $GPGGA,181856,3946.9590,N,08404.9845,W,2,11,0.80,300.12,M,-33.324,M,,*75
2017-11-16 13:18:57 1510856337.741558: $GPRMC,181856,A,3946.9590,N,08404.9845,W,0.0000,0.000,161117,,*38
2017-11-16 13:18:57 1510856337.741614: $GPGSA,A,3,10,13,15,18,20,21,24,27,5,29,138,,1.6,0.8,1.3*37
2017-11-16 13:18:58 1510856338.310915: $GPZDA,181857.00,16,11,2017,00,00*67
2017-11-16 13:18:58 1510856338.311076: $GPGGA,181857,3946.9590,N,08404.9845,W,2,11,0.80,300.12,M,-33.324,M,,*74
2017-11-16 13:18:58 1510856338.311137: $GPRMC,181857,A,3946.9590,N,08404.9845,W,0.0000,0.000,161117,,*39
2017-11-16 13:18:58 1510856338.311192: $GPGSA,A,3,10,13,15,18,20,21,24,27,5,29,138,,1.6,0.8,1.3*37
2017-11-16 13:18:59 1510856339.310498: $GPZDA,181858.00,16,11,2017,00,00*68
2017-11-16 13:18:59 1510856339.310657: $GPGGA,181858,3946.9590,N,08404.9845,W,2,11,0.80,300.12,M,-33.324,M,,*7B
2017-11-16 13:18:59 1510856339.310719: $GPRMC,181858,A,3946.9590,N,08404.9845,W,0.0000,0.000,161117,,*36
2017-11-16 13:18:59 1510856339.310775: $GPGSA,A,3,10,13,15,18,20,21,24,27,5,29,138,,1.6,0.8,1.3*37
