2017-12-01 17:37:41 1512167861.397292: {"class":"VERSION","release":"3.16","rev":"3.16-4","proto_major":3,"proto_minor":11}
2017-12-01 17:37:41 1512167861.397695: {"class":"DEVICES","devices":[{"class":"DEVICE","path":"/dev/ttyUSB0","driver":"SiRF","subtype":"9\u0006GSD4e_4.1.2-P1_RPATCH.05-F-GPS-4R-1510281 11/03/2015 307","activated":"2017-12-01T22:37:41.381Z","flags":1,"native":1,"bps":4800,"parity":"N","stopbits":1,"cycle":1.00}]}
2017-12-01 17:37:41 1512167861.397812: {"class":"WATCH","enable":true,"json":false,"nmea":true,"raw":0,"scaled":false,"timing":false,"split24":false,"pps":false}
2017-12-01 17:37:42 1512167862.718870: $GPGSV,3,1,12,01,17,270,43,03,25,313,45,10,17,157,43,14,68,052,42*70
2017-12-01 17:37:42 1512167862.719085: $GPGSV,3,2,12,22,42,298,48,25,33,052,43,26,31,177,44,31,80,312,46*7A
2017-12-01 17:37:42 1512167862.719153: $GPGSV,3,3,12,32,51,085,45,12,03,030,26,16,03,190,24,138,38,213,46*4D
2017-12-01 17:37:42 1512167862.832344: $GPZDA,223743.00,01,12,2017,00,00*63
2017-12-01 17:37:42 1512167862.832480: $GPGGA,223743,3946.9721,N,08404.9856,W,2,12,1.00,300.58,M,-33.325,M,,*7A
2017-12-01 17:37:42 1512167862.832546: $GPRMC,223743,A,3946.9721,N,08404.9856,W,0.0000,0.000,011217,,*37
2017-12-01 17:37:42 1512167862.832606: $GPGSA,A,3,1,3,10,14,22,25,26,31,32,12,16,138,2.0,1.0,1.5*0D
2017-12-01 17:37:43 1512167863.385654: $GPZDA,223744.00,01,12,2017,00,00*64
2017-12-01 17:37:43 1512167863.385831: $GPGGA,223744,3946.9721,N,08404.9856,W,2,12,1.00,300.58,M,-33.325,M,,*7D
2017-12-01 17:37:43 1512167863.385919: $GPRMC,223744,A,3946.9721,N,08404.9856,W,0.0000,0.000,011217,,*30
2017-12-01 17:37:43 1512167863.385983: $GPGSA,A,3,1,3,10,14,22,25,26,31,32,12,16,138,2.0,1.0,1.5*0D
2017-12-01 17:37:44 1512167864.384105: $GPZDA,223745.00,01,12,2017,00,00*65
2017-12-01 17:37:44 1512167864.384278: $GPGGA,223745,3946.9721,N,08404.9856,W,2,12,1.00,300.58,M,-33.325,M,,*7C
2017-12-01 17:37:44 1512167864.384346: $GPRMC,223745,A,3946.9721,N,08404.9856,W,0.0000,0.000,011217,,*31
2017-12-01 17:37:44 1512167864.384407: $GPGSA,A,3,1,3,10,14,22,25,26,31,32,12,16,138,2.0,1.0,1.5*0D
2017-12-01 17:37:45 1512167865.740970: $GPGSV,3,1,12,01,17,270,43,03,25,313,45,10,17,157,44,14,68,052,41*74
2017-12-01 17:37:45 1512167865.741170: $GPGSV,3,2,12,22,42,298,48,25,33,052,42,26,31,177,43,31,80,312,46*7C
2017-12-01 17:37:45 1512167865.741237: $GPGSV,3,3,12,32,51,085,44,12,03,030,25,16,03,190,24,138,38,213,45*4C
2017-12-01 17:37:45 1512167865.854366: $GPZDA,223746.00,01,12,2017,00,00*66
2017-12-01 17:37:45 1512167865.854533: $GPGGA,223746,3946.9721,N,08404.9856,W,2,12,1.00,300.58,M,-33.325,M,,*7F
2017-12-01 17:37:45 1512167865.854599: $GPRMC,223746,A,3946.9721,N,08404.9856,W,0.0000,0.000,011217,,*32
2017-12-01 17:37:45 1512167865.854660: $GPGSA,A,3,1,3,10,14,22,25,26,31,32,12,16,138,2.0,1.0,1.5*0D
2017-12-01 17:37:46 1512167866.382791: $GPZDA,223747.00,01,12,2017,00,00*67
2017-12-01 17:37:46 1512167866.382987: $GPGGA,223747,3946.9721,N,08404.9856,W,2,12,1.00,300.58,M,-33.325,M,,*7E
2017-12-01 17:37:46 1512167866.383072: $GPRMC,223747,A,3946.9721,N,08404.9856,W,0.0000,0.000,011217,,*33
2017-12-01 17:37:46 1512167866.383134: $GPGSA,A,3,1,3,10,14,22,25,26,31,32,12,16,138,2.0,1.0,1.5*0D
2017-12-01 17:37:47 1512167867.405679: $GPZDA,223748.00,01,12,2017,00,00*68
2017-12-01 17:37:47 1512167867.405879: $GPGGA,223748,3946.9721,N,08404.9856,W,2,12,1.00,300.58,M,-33.325,M,,*71
2017-12-01 17:37:47 1512167867.405949: $GPRMC,223748,A,3946.9721,N,08404.9856,W,0.0000,0.000,011217,,*3C
2017-12-01 17:37:47 1512167867.406028: $GPGSA,A,3,1,3,10,14,22,25,26,31,32,12,16,138,2.0,1.0,1.5*0D
2017-12-01 17:37:48 1512167868.736307: $GPGSV,3,1,12,01,17,270,44,03,25,313,45,10,17,157,43,14,68,052,40*75
2017-12-01 17:37:48 1512167868.736489: $GPGSV,3,2,12,22,42,298,48,25,33,052,42,26,31,177,44,31,80,312,46*7B
2017-12-01 17:37:48 1512167868.736556: $GPGSV,3,3,12,32,51,085,44,12,03,030,18,16,03,190,24,138,38,213,45*42
2017-12-01 17:37:48 1512167868.849692: $GPZDA,223749.00,01,12,2017,00,00*69
2017-12-01 17:37:48 1512167868.849855: $GPGGA,223749,3946.9721,N,08404.9856,W,2,12,1.00,300.58,M,-33.325,M,,*70
2017-12-01 17:37:48 1512167868.849996: $GPRMC,223749,A,3946.9721,N,08404.9856,W,0.0000,0.000,011217,,*3D
2017-12-01 17:37:48 1512167868.850060: $GPGSA,A,3,1,3,10,14,22,25,26,31,32,12,16,138,2.0,1.0,1.5*0D
2017-12-01 17:37:49 1512167869.406812: $GPZDA,223750.00,01,12,2017,00,00*61
2017-12-01 17:37:49 1512167869.407018: $GPGGA,223750,3946.9721,N,08404.9856,W,2,12,1.00,300.58,M,-33.325,M,,*78
2017-12-01 17:37:49 1512167869.407086: $GPRMC,223750,A,3946.9721,N,08404.9856,W,0.0000,0.000,011217,,*35
2017-12-01 17:37:49 1512167869.407147: $GPGSA,A,3,1,3,10,14,22,25,26,31,32,12,16,138,2.0,1.0,1.5*0D
2017-12-01 17:37:50 1512167870.405237: $GPZDA,223751.00,01,12,2017,00,00*60
2017-12-01 17:37:50 1512167870.405408: $GPGGA,223751,3946.9721,N,08404.9856,W,2,12,1.00,300.58,M,-33.325,M,,*79
2017-12-01 17:37:50 1512167870.405476: $GPRMC,223751,A,3946.9721,N,08404.9856,W,0.0000,0.000,011217,,*34
2017-12-01 17:37:50 1512167870.405537: $GPGSA,A,3,1,3,10,14,22,25,26,31,32,12,16,138,2.0,1.0,1.5*0D
2017-12-01 17:37:51 1512167871.719666: $GPGSV,3,1,12,01,17,270,44,03,25,313,45,10,17,157,44,14,68,052,41*73
2017-12-01 17:37:51 1512167871.719872: $GPGSV,3,2,12,22,42,298,48,25,33,052,42,26,31,177,44,31,80,312,46*7B
2017-12-01 17:37:51 1512167871.719967: $GPGSV,3,3,12,32,51,085,44,12,03,030,19,16,03,190,24,138,38,213,46*40
2017-12-01 17:37:51 1512167871.833163: $GPZDA,223752.00,01,12,2017,00,00*63
2017-12-01 17:37:51 1512167871.833330: $GPGGA,223752,3946.9721,N,08404.9856,W,2,12,1.00,300.58,M,-33.325,M,,*7A
2017-12-01 17:37:51 1512167871.833396: $GPRMC,223752,A,3946.9721,N,08404.9856,W,0.0000,0.000,011217,,*37
2017-12-01 17:37:51 1512167871.833458: $GPGSA,A,3,1,3,10,14,22,25,26,31,32,12,16,138,2.0,1.0,1.5*0D
2017-12-01 17:37:52 1512167872.458402: $GPZDA,223753.00,01,12,2017,00,00*62
2017-12-01 17:37:52 1512167872.458577: $GPGGA,223753,3946.9721,N,08404.9856,W,2,12,1.00,300.58,M,-33.325,M,,*7B
2017-12-01 17:37:52 1512167872.458644: $GPRMC,223753,A,3946.9721,N,08404.9856,W,0.0000,0.000,011217,,*36
2017-12-01 17:37:52 1512167872.458706: $GPGSA,A,3,1,3,10,14,22,25,26,31,32,12,16,138,2.0,1.0,1.5*0D
2017-12-01 17:37:53 1512167873.383310: $GPZDA,223754.00,01,12,2017,00,00*65
2017-12-01 17:37:53 1512167873.383504: $GPGGA,223754,3946.9721,N,08404.9856,W,2,12,1.00,300.58,M,-33.325,M,,*7C
2017-12-01 17:37:53 1512167873.383573: $GPRMC,223754,A,3946.9721,N,08404.9856,W,0.0000,0.000,011217,,*31
2017-12-01 17:37:53 1512167873.383636: $GPGSA,A,3,1,3,10,14,22,25,26,31,32,12,16,138,2.0,1.0,1.5*0D
2017-12-01 17:37:54 1512167874.739983: $GPGSV,3,1,12,01,17,270,44,03,25,313,44,10,17,157,44,14,68,052,42*71
2017-12-01 17:37:54 1512167874.740163: $GPGSV,3,2,12,22,42,298,48,25,33,052,42,26,31,177,43,31,80,312,46*7C
2017-12-01 17:37:54 1512167874.740228: $GPGSV,3,3,12,32,51,085,44,12,03,030,12,16,03,190,25,138,38,213,46*4A
2017-12-01 17:37:54 1512167874.853351: $GPZDA,223755.00,01,12,2017,00,00*64
2017-12-01 17:37:54 1512167874.853519: $GPGGA,223755,3946.9721,N,08404.9856,W,2,12,1.00,300.58,M,-33.325,M,,*7D
2017-12-01 17:37:54 1512167874.853585: $GPRMC,223755,A,3946.9721,N,08404.9856,W,0.0000,0.000,011217,,*30
2017-12-01 17:37:54 1512167874.853647: $GPGSA,A,3,1,3,10,14,22,25,26,31,32,12,16,138,2.0,1.0,1.5*0D
2017-12-01 17:37:55 1512167875.385511: $GPZDA,223756.00,01,12,2017,00,00*67
2017-12-01 17:37:55 1512167875.385690: $GPGGA,223756,3946.9721,N,08404.9856,W,2,12,1.00,300.58,M,-33.325,M,,*7E
2017-12-01 17:37:55 1512167875.385784: $GPRMC,223756,A,3946.9721,N,08404.9856,W,0.0000,0.000,011217,,*33
2017-12-01 17:37:55 1512167875.385847: $GPGSA,A,3,1,3,10,14,22,25,26,31,32,12,16,138,2.0,1.0,1.5*0D
2017-12-01 17:37:56 1512167876.400119: $GPZDA,223757.00,01,12,2017,00,00*66
2017-12-01 17:37:56 1512167876.400288: $GPGGA,223757,3946.9721,N,08404.9856,W,2,12,1.00,300.58,M,-33.325,M,,*7F
2017-12-01 17:37:56 1512167876.400355: $GPRMC,223757,A,3946.9721,N,08404.9856,W,0.0000,0.000,011217,,*32
2017-12-01 17:37:56 1512167876.400417: $GPGSA,A,3,1,3,10,14,22,25,26,31,32,12,16,138,2.0,1.0,1.5*0D
2017-12-01 17:37:57 1512167877.741698: $GPGSV,3,1,12,01,17,270,44,03,25,313,44,10,17,157,44,14,68,052,42*71
2017-12-01 17:37:57 1512167877.741914: $GPGSV,3,2,12,22,42,298,48,25,33,052,42,26,31,177,43,31,80,312,46*7C
2017-12-01 17:37:57 1512167877.741982: $GPGSV,3,3,12,32,51,085,45,12,03,030,13,16,03,190,25,138,38,213,46*4A
2017-12-01 17:37:57 1512167877.855398: $GPZDA,223758.00,01,12,2017,00,00*69
2017-12-01 17:37:57 1512167877.855556: $GPGGA,223758,3946.9721,N,08404.9856,W,2,12,1.00,300.58,M,-33.325,M,,*70
2017-12-01 17:37:57 1512167877.857091: $GPRMC,223758,A,3946.9721,N,08404.9856,W,0.0000,0.000,011217,,*3D
2017-12-01 17:37:57 1512167877.857179: $GPGSA,A,3,1,3,10,14,22,25,26,31,32,12,16,138,2.0,1.0,1.5*0D
2017-12-01 17:37:58 1512167878.406322: $GPZDA,223759.00,01,12,2017,00,00*68
2017-12-01 17:37:58 1512167878.406515: $GPGGA,223759,3946.9721,N,08404.9856,W,2,12,1.00,300.58,M,-33.325,M,,*71
2017-12-01 17:37:58 1512167878.406584: $GPRMC,223759,A,3946.9721,N,08404.9856,W,0.0000,0.000,011217,,*3C
2017-12-01 17:37:58 1512167878.406646: $GPGSA,A,3,1,3,10,14,22,25,26,31,32,12,16,138,2.0,1.0,1.5*0D
2017-12-01 17:37:59 1512167879.406919: $GPZDA,223800.00,01,12,2017,00,00*6B
2017-12-01 17:37:59 1512167879.407090: $GPGGA,223800,3946.9721,N,08404.9856,W,2,12,1.00,300.58,M,-33.325,M,,*72
2017-12-01 17:37:59 1512167879.407159: $GPRMC,223800,A,3946.9721,N,08404.9856,W,0.0000,0.000,011217,,*3F
2017-12-01 17:37:59 1512167879.407222: $GPGSA,A,3,1,3,10,14,22,25,26,31,32,12,16,138,2.0,1.0,1.5*0D
2017-12-01 17:38:00 1512167880.744901: $GPGSV,3,1,12,01,17,270,44,03,25,313,44,10,17,157,43,14,68,052,42*76
2017-12-01 17:38:00 1512167880.745065: $GPGSV,3,2,12,22,42,298,48,25,33,052,42,26,31,177,43,31,80,312,46*7C
2017-12-01 17:38:00 1512167880.745132: $GPGSV,3,3,12,32,51,085,45,12,03,030,22,16,03,190,25,138,38,213,46*48
2017-12-01 17:38:00 1512167880.858308: $GPZDA,223801.00,01,12,2017,00,00*6A
2017-12-01 17:38:00 1512167880.858484: $GPGGA,223801,3946.9721,N,08404.9856,W,2,12,1.00,300.58,M,-33.325,M,,*73
2017-12-01 17:38:00 1512167880.858552: $GPRMC,223801,A,3946.9721,N,08404.9856,W,0.0000,0.000,011217,,*3E
2017-12-01 17:38:00 1512167880.858614: $GPGSA,A,3,1,3,10,14,22,25,26,31,32,12,16,138,2.0,1.0,1.5*0D
2017-12-01 17:38:01 1512167881.406613: $GPZDA,223802.00,01,12,2017,00,00*69
2017-12-01 17:38:01 1512167881.406792: $GPGGA,223802,3946.9721,N,08404.9856,W,2,12,1.00,300.58,M,-33.325,M,,*70
2017-12-01 17:38:01 1512167881.406860: $GPRMC,223802,A,3946.9721,N,08404.9856,W,0.0000,0.000,011217,,*3D
2017-12-01 17:38:01 1512167881.406922: $GPGSA,A,3,1,3,10,14,22,25,26,31,32,12,16,138,2.0,1.0,1.5*0D
