2017-11-16 14:14:47 1510859687.246807: {"class":"VERSION","release":"3.17","rev":"3.17","proto_major":3,"proto_minor":12}
2017-11-16 14:14:47 1510859687.247310: {"class":"DEVICES","devices":[{"class":"DEVICE","path":"/dev/ttyUSB0","driver":"SiRF","subtype":"9\u0006GSD4e_4.1.2-P1_RPATCH.05-F-GPS-4R-1510281 11/03/2015 307","activated":"2017-11-16T19:14:46.687Z","flags":1,"native":1,"bps":4800,"parity":"N","stopbits":1,"cycle":1.00}]}
2017-11-16 14:14:47 1510859687.247421: {"class":"WATCH","enable":true,"json":false,"nmea":true,"raw":0,"scaled":false,"timing":false,"split24":false,"pps":false}
2017-11-16 14:14:47 1510859687.545289: $GPZDA,191446.00,16,11,2017,00,00*6A
2017-11-16 14:14:47 1510859687.545453: $GPGGA,191446,3946.9554,N,08404.9851,W,2,11,0.80,304.96,M,-33.324,M,,*7C
2017-11-16 14:14:47 1510859687.545514: $GPRMC,191446,A,3946.9554,N,08404.9851,W,0.0000,0.000,161117,,*39
2017-11-16 14:14:47 1510859687.545570: $GPGSA,A,3,8,10,13,15,18,21,20,24,27,32,138,,1.6,0.8,1.3*30
2017-11-16 14:14:48 1510859688.883365: $GPGSV,3,1,12,08,06,321,39,10,42,301,40,13,07,049,30,15,37,052,51*75
2017-11-16 14:14:48 1510859688.883514: $GPGSV,3,2,12,18,71,337,47,21,63,190,47,20,32,096,47,24,51,109,47*7B
2017-11-16 14:14:48 1510859688.883574: $GPGSV,3,3,12,27,19,288,39,32,21,238,46,14,05,232,00,138,38,213,44*44
2017-11-16 14:14:48 1510859688.996727: $GPZDA,191447.00,16,11,2017,00,00*6B
2017-11-16 14:14:48 1510859688.996893: $GPGGA,191447,3946.9554,N,08404.9851,W,2,11,0.80,304.96,M,-33.324,M,,*7D
2017-11-16 14:14:48 1510859688.996954: $GPRMC,191447,A,3946.9554,N,08404.9851,W,0.0000,0.000,161117,,*38
2017-11-16 14:14:48 1510859688.997011: $GPGSA,A,3,8,10,13,15,18,21,20,24,27,32,138,,1.6,0.8,1.3*30
2017-11-16 14:14:49 1510859689.622083: $GPZDA,191448.00,16,11,2017,00,00*64
2017-11-16 14:14:49 1510859689.622244: $GPGGA,191448,3946.9554,N,08404.9851,W,2,11,0.80,304.96,M,-33.324,M,,*72
2017-11-16 14:14:49 1510859689.622306: $GPRMC,191448,A,3946.9554,N,08404.9851,W,0.0000,0.000,161117,,*37
2017-11-16 14:14:49 1510859689.622363: $GPGSA,A,3,8,10,13,15,18,21,20,24,27,32,138,,1.6,0.8,1.3*30
2017-11-16 14:14:50 1510859690.516577: $GPZDA,191449.00,16,11,2017,00,00*65
2017-11-16 14:14:50 1510859690.516745: $GPGGA,191449,3946.9554,N,08404.9851,W,2,11,0.80,304.96,M,-33.324,M,,*73
2017-11-16 14:14:50 1510859690.516808: $GPRMC,191449,A,3946.9554,N,08404.9851,W,0.0000,0.000,161117,,*36
2017-11-16 14:14:50 1510859690.516865: $GPGSA,A,3,8,10,13,15,18,21,20,24,27,32,138,,1.6,0.8,1.3*30
2017-11-16 14:14:51 1510859691.859742: $GPGSV,3,1,12,08,06,321,33,10,42,301,41,13,07,049,30,15,37,052,51*7E
2017-11-16 14:14:51 1510859691.859909: $GPGSV,3,2,12,18,71,337,47,21,63,190,47,20,32,096,47,24,51,109,47*7B
2017-11-16 14:14:51 1510859691.859970: $GPGSV,3,3,12,27,19,288,39,32,21,238,46,14,05,232,00,138,38,213,44*44
2017-11-16 14:14:51 1510859691.973092: $GPZDA,191450.00,16,11,2017,00,00*6D
2017-11-16 14:14:51 1510859691.973258: $GPGGA,191450,3946.9554,N,08404.9851,W,2,11,0.80,304.96,M,-33.324,M,,*7B
2017-11-16 14:14:51 1510859691.973321: $GPRMC,191450,A,3946.9554,N,08404.9851,W,0.0000,0.000,161117,,*3E
2017-11-16 14:14:51 1510859691.973378: $GPGSA,A,3,8,10,13,15,18,21,20,24,27,32,138,,1.6,0.8,1.3*30
2017-11-16 14:14:52 1510859692.516432: $GPZDA,191451.00,16,11,2017,00,00*6C
2017-11-16 14:14:52 1510859692.516586: $GPGGA,191451,3946.9554,N,08404.9851,W,2,11,0.80,304.96,M,-33.324,M,,*7A
2017-11-16 14:14:52 1510859692.516648: $GPRMC,191451,A,3946.9554,N,08404.9851,W,0.0000,0.000,161117,,*3F
2017-11-16 14:14:52 1510859692.516705: $GPGSA,A,3,8,10,13,15,18,21,20,24,27,32,138,,1.6,0.8,1.3*30
2017-11-16 14:14:53 1510859693.545902: $GPZDA,191452.00,16,11,2017,00,00*6F
2017-11-16 14:14:53 1510859693.546056: $GPGGA,191452,3946.9554,N,08404.9851,W,2,11,0.80,304.96,M,-33.324,M,,*79
2017-11-16 14:14:53 1510859693.546116: $GPRMC,191452,A,3946.9554,N,08404.9851,W,0.0000,0.000,161117,,*3C
2017-11-16 14:14:53 1510859693.546173: $GPGSA,A,3,8,10,13,15,18,21,20,24,27,32,138,,1.6,0.8,1.3*30
2017-11-16 14:14:54 1510859694.855138: $GPGSV,3,1,12,08,06,321,00,10,42,301,41,13,07,049,30,15,37,052,51*7E
2017-11-16 14:14:54 1510859694.855438: $GPGSV,3,2,12,18,71,337,47,21,63,190,47,20,32,096,47,24,51,109,47*7B
2017-11-16 14:14:54 1510859694.855509: $GPGSV,3,3,12,27,19,288,39,32,21,238,46,14,05,232,00,138,38,213,44*44
2017-11-16 14:14:54 1510859694.968133: $GPZDA,191453.00,16,11,2017,00,00*6E
2017-11-16 14:14:54 1510859694.968298: $GPGGA,191453,3946.9554,N,08404.9851,W,2,10,1.00,304.96,M,-33.324,M,,*70
2017-11-16 14:14:54 1510859694.968358: $GPRMC,191453,A,3946.9554,N,08404.9851,W,0.0000,0.000,161117,,*3D
2017-11-16 14:14:54 1510859694.968415: $GPGSA,A,3,10,13,15,18,21,20,24,27,32,138,,,1.6,1.0,1.3*01
2017-11-16 14:14:55 1510859695.515272: $GPZDA,191454.00,16,11,2017,00,00*69
2017-11-16 14:14:55 1510859695.515439: $GPGGA,191454,3946.9554,N,08404.9851,W,2,10,0.80,304.96,M,-33.324,M,,*7E
2017-11-16 14:14:55 1510859695.515503: $GPRMC,191454,A,3946.9554,N,08404.9851,W,0.0000,0.000,161117,,*3A
2017-11-16 14:14:55 1510859695.515559: $GPGSA,A,3,10,13,15,18,21,20,24,27,32,138,,,1.6,0.8,1.3*08
2017-11-16 14:14:56 1510859696.547493: $GPZDA,191455.00,16,11,2017,00,00*68
2017-11-16 14:14:56 1510859696.547672: $GPGGA,191455,3946.9554,N,08404.9851,W,2,10,0.80,304.96,M,-33.324,M,,*7F
2017-11-16 14:14:56 1510859696.547734: $GPRMC,191455,A,3946.9554,N,08404.9851,W,0.0000,0.000,161117,,*3B
2017-11-16 14:14:56 1510859696.547793: $GPGSA,A,3,10,13,15,18,21,20,24,27,32,138,,,1.6,0.8,1.3*08
2017-11-16 14:14:57 1510859697.881750: $GPGSV,3,1,12,08,06,321,30,10,42,301,42,13,07,049,30,15,37,052,51*7E
2017-11-16 14:14:57 1510859697.881920: $GPGSV,3,2,12,18,71,337,47,21,63,190,47,20,32,096,47,24,51,109,47*7B
2017-11-16 14:14:57 1510859697.882000: $GPGSV,3,3,12,27,19,288,38,32,21,238,46,14,05,232,00,138,38,213,45*44
2017-11-16 14:14:57 1510859697.995006: $GPZDA,191456.00,16,11,2017,00,00*6B
2017-11-16 14:14:57 1510859697.995184: $GPGGA,191456,3946.9554,N,08404.9851,W,2,11,0.80,304.96,M,-33.324,M,,*7D
2017-11-16 14:14:57 1510859697.995245: $GPRMC,191456,A,3946.9554,N,08404.9851,W,0.0000,0.000,161117,,*38
2017-11-16 14:14:57 1510859697.995302: $GPGSA,A,3,8,10,13,15,18,21,20,24,27,32,138,,1.6,0.8,1.3*30
2017-11-16 14:14:58 1510859698.514666: $GPZDA,191457.00,16,11,2017,00,00*6A
2017-11-16 14:14:58 1510859698.514828: $GPGGA,191457,3946.9557,N,08404.9851,W,2,11,0.80,304.19,M,-33.324,M,,*78
2017-11-16 14:14:58 1510859698.514893: $GPRMC,191457,A,3946.9557,N,08404.9851,W,0.0000,0.000,161117,,*3A
2017-11-16 14:14:58 1510859698.514950: $GPGSA,A,3,8,10,13,15,18,21,20,24,27,32,138,,1.6,0.8,1.3*30
2017-11-16 14:14:59 1510859699.544938: $GPZDA,191458.00,16,11,2017,00,00*65
2017-11-16 14:14:59 1510859699.545097: $GPGGA,191458,3946.9557,N,08404.9851,W,2,11,0.80,304.19,M,-33.324,M,,*77
2017-11-16 14:14:59 1510859699.545160: $GPRMC,191458,A,3946.9557,N,08404.9851,W,0.0000,0.000,161117,,*35
2017-11-16 14:14:59 1510859699.545215: $GPGSA,A,3,8,10,13,15,18,21,20,24,27,32,138,,1.6,0.8,1.3*30
2017-11-16 14:15:00 1510859700.851898: $GPGSV,3,1,12,08,06,321,36,10,42,301,42,13,07,049,30,15,37,052,51*78
2017-11-16 14:15:00 1510859700.852070: $GPGSV,3,2,12,18,71,337,47,21,63,190,47,20,32,096,47,24,51,109,47*7B
2017-11-16 14:15:00 1510859700.852131: $GPGSV,3,3,12,27,19,288,38,32,21,238,45,14,05,232,00,138,38,213,44*46
2017-11-16 14:15:00 1510859700.966134: $GPZDA,191459.00,16,11,2017,00,00*64
2017-11-16 14:15:00 1510859700.966275: $GPGGA,191459,3946.9557,N,08404.9851,W,2,11,0.80,304.19,M,-33.324,M,,*76
2017-11-16 14:15:00 1510859700.966338: $GPRMC,191459,A,3946.9557,N,08404.9851,W,0.0000,0.000,161117,,*34
2017-11-16 14:15:00 1510859700.966394: $GPGSA,A,3,8,10,13,15,18,21,20,24,27,32,138,,1.6,0.8,1.3*30
2017-11-16 14:15:01 1510859701.509773: $GPZDA,191500.00,16,11,2017,00,00*69
2017-11-16 14:15:01 1510859701.509945: $GPGGA,191500,3946.9557,N,08404.9851,W,2,11,0.80,304.19,M,-33.324,M,,*7B
2017-11-16 14:15:01 1510859701.510010: $GPRMC,191500,A,3946.9557,N,08404.9851,W,0.0000,0.000,161117,,*39
2017-11-16 14:15:01 1510859701.510067: $GPGSA,A,3,8,10,13,15,18,21,20,24,27,32,138,,1.6,0.8,1.3*30
