2017-12-01 11:55:47 1512147347.997376: {"class":"VERSION","release":"3.16","rev":"3.16-4","proto_major":3,"proto_minor":11}
2017-12-01 11:55:47 1512147347.997773: {"class":"DEVICES","devices":[{"class":"DEVICE","path":"/dev/ttyUSB0","driver":"SiRF","subtype":"9\u0006GSD4e_4.1.2-P1_RPATCH.05-F-GPS-4R-1510281 11/03/2015 307","activated":"2017-12-01T16:55:47.474Z","flags":1,"native":1,"bps":4800,"parity":"N","stopbits":1,"cycle":1.00}]}
2017-12-01 11:55:47 1512147347.997890: {"class":"WATCH","enable":true,"json":false,"nmea":true,"raw":0,"scaled":false,"timing":false,"split24":false,"pps":false}
2017-12-01 11:55:48 1512147348.329350: $GPZDA,165549.00,01,12,2017,00,00*6A
2017-12-01 11:55:48 1512147348.329532: $GPGGA,165549,3946.9587,N,08404.9843,W,2,11,0.80,294.50,M,-33.324,M,,*76
2017-12-01 11:55:48 1512147348.329600: $GPRMC,165549,A,3946.9587,N,08404.9843,W,0.0000,0.000,011217,,*34
2017-12-01 11:55:48 1512147348.329663: $GPGSA,A,3,13,15,18,20,21,24,27,29,5,10,138,,2.0,0.8,1.5*34
2017-12-01 11:55:49 1512147349.675107: $GPGSV,3,1,12,13,38,048,45,15,71,060,45,18,47,291,45,20,59,058,43*7C
2017-12-01 11:55:49 1512147349.675302: $GPGSV,3,2,12,21,72,300,45,24,25,145,46,27,12,321,39,29,19,193,45*79
2017-12-01 11:55:49 1512147349.675370: $GPGSV,3,3,12,05,10,081,21,10,17,276,39,04,08,132,00,138,38,213,46*45
2017-12-01 11:55:49 1512147349.788450: $GPZDA,165550.00,01,12,2017,00,00*62
2017-12-01 11:55:49 1512147349.788628: $GPGGA,165550,3946.9587,N,08404.9843,W,2,11,0.80,294.50,M,-33.324,M,,*7E
2017-12-01 11:55:49 1512147349.788695: $GPRMC,165550,A,3946.9587,N,08404.9843,W,0.0000,0.000,011217,,*3C
2017-12-01 11:55:49 1512147349.788758: $GPGSA,A,3,13,15,18,20,21,24,27,29,5,10,138,,2.0,0.8,1.5*34
2017-12-01 11:55:50 1512147350.415092: $GPZDA,165551.00,01,12,2017,00,00*63
2017-12-01 11:55:50 1512147350.415278: $GPGGA,165551,3946.9587,N,08404.9843,W,2,11,0.80,294.50,M,-33.324,M,,*7F
2017-12-01 11:55:50 1512147350.415346: $GPRMC,165551,A,3946.9587,N,08404.9843,W,0.0000,0.000,011217,,*3D
2017-12-01 11:55:50 1512147350.415409: $GPGSA,A,3,13,15,18,20,21,24,27,29,5,10,138,,2.0,0.8,1.5*34
2017-12-01 11:55:51 1512147351.338454: $GPZDA,165552.00,01,12,2017,00,00*60
2017-12-01 11:55:51 1512147351.338634: $GPGGA,165552,3946.9587,N,08404.9843,W,2,11,0.80,294.50,M,-33.324,M,,*7C
2017-12-01 11:55:51 1512147351.338702: $GPRMC,165552,A,3946.9587,N,08404.9843,W,0.0000,0.000,011217,,*3E
2017-12-01 11:55:51 1512147351.338769: $GPGSA,A,3,13,15,18,20,21,24,27,29,5,10,138,,2.0,0.8,1.5*34
2017-12-01 11:55:52 1512147352.670457: $GPGSV,3,1,12,13,38,048,45,15,71,060,45,18,47,291,45,20,59,058,43*7C
2017-12-01 11:55:52 1512147352.670641: $GPGSV,3,2,12,21,72,300,45,24,25,145,46,27,12,321,39,29,19,193,45*79
2017-12-01 11:55:52 1512147352.670707: $GPGSV,3,3,12,05,10,081,21,10,17,276,39,04,08,132,00,138,38,213,46*45
2017-12-01 11:55:52 1512147352.784019: $GPZDA,165553.00,01,12,2017,00,00*61
2017-12-01 11:55:52 1512147352.784243: $GPGGA,165553,3946.9587,N,08404.9843,W,2,11,0.80,294.50,M,-33.324,M,,*7D
2017-12-01 11:55:52 1512147352.784322: $GPRMC,165553,A,3946.9587,N,08404.9843,W,0.0000,0.000,011217,,*3F
2017-12-01 11:55:52 1512147352.784421: $GPGSA,A,3,13,15,18,20,21,24,27,29,5,10,138,,2.0,0.8,1.5*34
2017-12-01 11:55:53 1512147353.342367: $GPZDA,165554.00,01,12,2017,00,00*66
2017-12-01 11:55:53 1512147353.342536: $GPGGA,165554,3946.9587,N,08404.9843,W,2,11,0.80,294.50,M,-33.324,M,,*7A
2017-12-01 11:55:53 1512147353.342605: $GPRMC,165554,A,3946.9587,N,08404.9843,W,0.0000,0.000,011217,,*38
2017-12-01 11:55:53 1512147353.342666: $GPGSA,A,3,13,15,18,20,21,24,27,29,5,10,138,,2.0,0.8,1.5*34
2017-12-01 11:55:54 1512147354.336805: $GPZDA,165555.00,01,12,2017,00,00*67
2017-12-01 11:55:54 1512147354.336984: $GPGGA,165555,3946.9587,N,08404.9843,W,2,11,0.80,294.50,M,-33.324,M,,*7B
2017-12-01 11:55:54 1512147354.337066: $GPRMC,165555,A,3946.9587,N,08404.9843,W,0.0000,0.000,011217,,*39
2017-12-01 11:55:54 1512147354.337131: $GPGSA,A,3,13,15,18,20,21,24,27,29,5,10,138,,2.0,0.8,1.5*34
2017-12-01 11:55:55 1512147355.672044: $GPGSV,3,1,12,13,38,048,44,15,71,060,45,18,47,291,44,20,59,058,43*7C
2017-12-01 11:55:55 1512147355.672281: $GPGSV,3,2,12,21,72,300,45,24,25,145,46,27,12,321,40,29,19,193,44*76
2017-12-01 11:55:55 1512147355.672351: $GPGSV,3,3,12,05,10,081,13,10,17,276,40,04,08,132,00,138,38,213,46*4A
2017-12-01 11:55:55 1512147355.785410: $GPZDA,165556.00,01,12,2017,00,00*64
2017-12-01 11:55:55 1512147355.785587: $GPGGA,165556,3946.9587,N,08404.9843,W,2,11,0.80,294.50,M,-33.324,M,,*78
2017-12-01 11:55:55 1512147355.785653: $GPRMC,165556,A,3946.9587,N,08404.9843,W,0.0000,0.000,011217,,*3A
2017-12-01 11:55:55 1512147355.785716: $GPGSA,A,3,13,15,18,20,21,24,27,29,5,10,138,,2.0,0.8,1.5*34
2017-12-01 11:55:56 1512147356.330302: $GPZDA,165557.00,01,12,2017,00,00*65
2017-12-01 11:55:56 1512147356.330479: $GPGGA,165557,3946.9587,N,08404.9843,W,2,11,0.80,294.50,M,-33.324,M,,*79
2017-12-01 11:55:56 1512147356.330546: $GPRMC,165557,A,3946.9587,N,08404.9843,W,0.0000,0.000,011217,,*3B
2017-12-01 11:55:56 1512147356.330608: $GPGSA,A,3,13,15,18,20,21,24,27,29,5,10,138,,2.0,0.8,1.5*34
2017-12-01 11:55:57 1512147357.336260: $GPZDA,165558.00,01,12,2017,00,00*6A
2017-12-01 11:55:57 1512147357.336432: $GPGGA,165558,3946.9587,N,08404.9843,W,2,11,0.80,294.50,M,-33.324,M,,*76
2017-12-01 11:55:57 1512147357.336499: $GPRMC,165558,A,3946.9587,N,08404.9843,W,0.0000,0.000,011217,,*34
2017-12-01 11:55:57 1512147357.336561: $GPGSA,A,3,13,15,18,20,21,24,27,29,5,10,138,,2.0,0.8,1.5*34
