2017-12-01 11:51:00 1512147060.655180: {"class":"VERSION","release":"3.16","rev":"3.16-4","proto_major":3,"proto_minor":11}
2017-12-01 11:51:00 1512147060.655581: {"class":"DEVICES","devices":[{"class":"DEVICE","path":"/dev/ttyUSB0","driver":"SiRF","subtype":"9\u0006GSD4e_4.1.2-P1_RPATCH.05-F-GPS-4R-1510281 11/03/2015 307","activated":"2017-12-01T16:51:00.568Z","flags":1,"native":1,"bps":4800,"parity":"N","stopbits":1,"cycle":1.00}]}
2017-12-01 11:51:00 1512147060.655735: {"class":"WATCH","enable":true,"json":false,"nmea":true,"raw":0,"scaled":false,"timing":false,"split24":false,"pps":false}
2017-12-01 11:51:01 1512147061.406647: $GPZDA,165102.00,01,12,2017,00,00*61
2017-12-01 11:51:01 1512147061.406824: $GPGGA,165102,3946.9584,N,08404.9843,W,2,11,0.80,295.27,M,-33.324,M,,*7F
2017-12-01 11:51:01 1512147061.406893: $GPRMC,165102,A,3946.9584,N,08404.9843,W,0.0000,0.000,011217,,*3C
2017-12-01 11:51:01 1512147061.406957: $GPGSA,A,3,10,13,15,18,20,21,24,27,29,5,138,,2.0,0.8,1.5*34
2017-12-01 11:51:02 1512147062.742351: $GPGSV,3,1,12,10,15,274,38,13,40,048,46,15,72,063,46,18,46,288,45*71
2017-12-01 11:51:02 1512147062.742531: $GPGSV,3,2,12,20,60,055,43,21,70,301,47,24,23,147,44,27,10,322,40*7B
2017-12-01 11:51:02 1512147062.742598: $GPGSV,3,3,12,29,21,193,45,05,11,079,24,04,10,132,00,138,38,213,46*43
2017-12-01 11:51:02 1512147062.856540: $GPZDA,165103.00,01,12,2017,00,00*60
2017-12-01 11:51:02 1512147062.856714: $GPGGA,165103,3946.9587,N,08404.9843,W,2,11,0.80,294.50,M,-33.324,M,,*7C
2017-12-01 11:51:02 1512147062.856780: $GPRMC,165103,A,3946.9587,N,08404.9843,W,0.0000,0.000,011217,,*3E
2017-12-01 11:51:02 1512147062.856845: $GPGSA,A,3,10,13,15,18,20,21,24,27,29,5,138,,2.0,0.8,1.5*34
2017-12-01 11:51:03 1512147063.405362: $GPZDA,165104.00,01,12,2017,00,00*67
2017-12-01 11:51:03 1512147063.405533: $GPGGA,165104,3946.9587,N,08404.9843,W,2,11,0.80,294.50,M,-33.324,M,,*7B
2017-12-01 11:51:03 1512147063.405600: $GPRMC,165104,A,3946.9587,N,08404.9843,W,0.0000,0.000,011217,,*39
2017-12-01 11:51:03 1512147063.405662: $GPGSA,A,3,10,13,15,18,20,21,24,27,29,5,138,,2.0,0.8,1.5*34
2017-12-01 11:51:04 1512147064.404887: $GPZDA,165105.00,01,12,2017,00,00*66
2017-12-01 11:51:04 1512147064.405057: $GPGGA,165105,3946.9587,N,08404.9843,W,2,11,0.80,294.50,M,-33.324,M,,*7A
2017-12-01 11:51:04 1512147064.405123: $GPRMC,165105,A,3946.9587,N,08404.9843,W,0.2422,93.794,011217,,*0E
2017-12-01 11:51:04 1512147064.405186: $GPGSA,A,3,10,13,15,18,20,21,24,27,29,5,138,,2.0,0.8,1.5*34
2017-12-01 11:51:04 1512147064.405244: $GPGBS,165105,2.67,M,3.86,M,8.82,M*34
2017-12-01 11:51:05 1512147065.741298: $GPGSV,3,1,12,10,15,274,36,13,40,048,45,15,72,063,45,18,46,288,45*7F
2017-12-01 11:51:05 1512147065.741580: $GPGSV,3,2,12,20,60,055,43,21,70,301,46,24,23,147,43,27,10,322,40*7D
2017-12-01 11:51:05 1512147065.741652: $GPGSV,3,3,12,29,21,193,44,05,11,079,23,04,10,132,00,138,38,213,47*44
2017-12-01 11:51:05 1512147065.852767: $GPZDA,165106.00,01,12,2017,00,00*65
2017-12-01 11:51:05 1512147065.852938: $GPGGA,165106,3946.9582,N,08404.9842,W,2,11,0.80,292.46,M,-33.324,M,,*7C
2017-12-01 11:51:05 1512147065.853004: $GPRMC,165106,A,3946.9582,N,08404.9842,W,0.1567,9.200,011217,,*31
2017-12-01 11:51:05 1512147065.853065: $GPGSA,A,3,10,13,15,18,20,21,24,27,29,5,138,,2.0,0.8,1.5*34
2017-12-01 11:51:06 1512147066.479699: $GPZDA,165107.00,01,12,2017,00,00*64
2017-12-01 11:51:06 1512147066.479868: $GPGGA,165107,3946.9582,N,08404.9842,W,2,11,0.80,292.46,M,-33.324,M,,*7D
2017-12-01 11:51:06 1512147066.479936: $GPRMC,165107,A,3946.9582,N,08404.9842,W,0.0000,0.000,011217,,*3E
2017-12-01 11:51:06 1512147066.479996: $GPGSA,A,3,10,13,15,18,20,21,24,27,29,5,138,,2.0,0.8,1.5*34
2017-12-01 11:51:07 1512147067.406812: $GPZDA,165108.00,01,12,2017,00,00*6B
2017-12-01 11:51:07 1512147067.406983: $GPGGA,165108,3946.9582,N,08404.9842,W,2,11,0.80,292.46,M,-33.324,M,,*72
2017-12-01 11:51:07 1512147067.407051: $GPRMC,165108,A,3946.9582,N,08404.9842,W,0.0000,0.000,011217,,*31
2017-12-01 11:51:07 1512147067.407111: $GPGSA,A,3,10,13,15,18,20,21,24,27,29,5,138,,2.0,0.8,1.5*34
2017-12-01 11:51:08 1512147068.742264: $GPGSV,3,1,12,10,15,274,36,13,40,048,46,15,72,063,45,18,46,288,45*7C
2017-12-01 11:51:08 1512147068.742447: $GPGSV,3,2,12,20,60,055,43,21,70,301,46,24,23,147,43,27,10,322,40*7D
2017-12-01 11:51:08 1512147068.742516: $GPGSV,3,3,12,29,21,193,44,05,11,079,25,04,10,132,00,138,38,213,47*42
2017-12-01 11:51:08 1512147068.855897: $GPZDA,165109.00,01,12,2017,00,00*6A
2017-12-01 11:51:08 1512147068.856056: $GPGGA,165109,3946.9582,N,08404.9842,W,2,11,0.80,292.46,M,-33.324,M,,*73
2017-12-01 11:51:08 1512147068.856123: $GPRMC,165109,A,3946.9582,N,08404.9842,W,0.0000,0.000,011217,,*30
2017-12-01 11:51:08 1512147068.856184: $GPGSA,A,3,10,13,15,18,20,21,24,27,29,5,138,,2.0,0.8,1.5*34
2017-12-01 11:51:09 1512147069.405522: $GPZDA,165110.00,01,12,2017,00,00*62
2017-12-01 11:51:09 1512147069.405694: $GPGGA,165110,3946.9582,N,08404.9842,W,2,11,0.80,292.46,M,-33.324,M,,*7B
2017-12-01 11:51:09 1512147069.405761: $GPRMC,165110,A,3946.9582,N,08404.9842,W,0.0000,0.000,011217,,*38
2017-12-01 11:51:09 1512147069.405821: $GPGSA,A,3,10,13,15,18,20,21,24,27,29,5,138,,2.0,0.8,1.5*34
2017-12-01 11:51:10 1512147070.406463: $GPZDA,165111.00,01,12,2017,00,00*63
2017-12-01 11:51:10 1512147070.406634: $GPGGA,165111,3946.9582,N,08404.9842,W,2,11,0.80,292.46,M,-33.324,M,,*7A
2017-12-01 11:51:10 1512147070.406702: $GPRMC,165111,A,3946.9582,N,08404.9842,W,0.0000,0.000,011217,,*39
2017-12-01 11:51:10 1512147070.406763: $GPGSA,A,3,10,13,15,18,20,21,24,27,29,5,138,,2.0,0.8,1.5*34
