2018-01-11 20:08:46 1515719326.943856: {"class":"VERSION","release":"3.16","rev":"3.16-4","proto_major":3,"proto_minor":11}
2018-01-11 20:08:46 1515719326.944187: {"class":"DEVICES","devices":[{"class":"DEVICE","path":"/dev/ttyUSB0","driver":"SiRF","subtype":"9\u0006GSD4e_4.1.2-P1_RPATCH.05-F-GPS-4R-1510281 11/03/2015 307","activated":"2018-01-12T01:08:46.504Z","flags":1,"native":1,"bps":4800,"parity":"N","stopbits":1,"cycle":1.00}]}
2018-01-11 20:08:46 1515719326.944297: {"class":"WATCH","enable":true,"json":false,"nmea":true,"raw":0,"scaled":false,"timing":false,"split24":false,"pps":false}
2018-01-11 20:08:47 1515719327.698584: $GPGSV,3,1,10,07,55,315,43,08,73,135,46,09,48,231,42,11,19,168,46*72
2018-01-11 20:08:47 1515719327.698751: $GPGSV,3,2,10,16,24,060,46,23,30,190,47,27,48,054,49,28,13,258,37*73
2018-01-11 20:08:47 1515719327.698817: $GPGSV,3,3,10,30,28,306,33,138,38,213,45*44
2018-01-11 20:08:47 1515719327.811966: $GPZDA,010848.00,12,01,2018,00,00*6A
2018-01-11 20:08:47 1515719327.812086: $GPGGA,010848,3946.9581,N,08404.9862,W,2,10,0.80,303.66,M,-33.324,M,,*77
2018-01-11 20:08:47 1515719327.812150: $GPRMC,010848,A,3946.9581,N,08404.9862,W,0.0000,0.000,120118,,*31
2018-01-11 20:08:47 1515719327.812210: $GPGSA,A,3,7,8,9,11,16,23,27,28,30,138,,,4.0,0.8,3.5*3E
2018-01-11 20:08:48 1515719328.362869: $GPZDA,010849.00,12,01,2018,00,00*6B
2018-01-11 20:08:48 1515719328.363036: $GPGGA,010849,3946.9581,N,08404.9862,W,2,10,0.80,303.66,M,-33.324,M,,*76
2018-01-11 20:08:48 1515719328.363103: $GPRMC,010849,A,3946.9581,N,08404.9862,W,0.0000,0.000,120118,,*30
2018-01-11 20:08:48 1515719328.363163: $GPGSA,A,3,7,8,9,11,16,23,27,28,30,138,,,4.0,0.8,3.5*3E
2018-01-11 20:08:49 1515719329.364959: $GPZDA,010850.00,12,01,2018,00,00*63
2018-01-11 20:08:49 1515719329.365122: $GPGGA,010850,3946.9581,N,08404.9862,W,2,10,0.80,303.66,M,-33.324,M,,*7E
2018-01-11 20:08:49 1515719329.365188: $GPRMC,010850,A,3946.9581,N,08404.9862,W,0.0000,0.000,120118,,*38
2018-01-11 20:08:49 1515719329.365248: $GPGSA,A,3,7,8,9,11,16,23,27,28,30,138,,,4.0,0.8,3.5*3E
2018-01-11 20:08:50 1515719330.698954: $GPGSV,3,1,10,07,55,315,43,08,73,135,46,09,48,231,42,11,19,168,46*72
2018-01-11 20:08:50 1515719330.699167: $GPGSV,3,2,10,16,24,060,46,23,30,190,47,27,48,054,48,28,13,258,38*7D
2018-01-11 20:08:50 1515719330.699233: $GPGSV,3,3,10,30,28,306,33,138,38,213,45*44
2018-01-11 20:08:50 1515719330.812296: $GPZDA,010851.00,12,01,2018,00,00*62
2018-01-11 20:08:50 1515719330.812412: $GPGGA,010851,3946.9581,N,08404.9862,W,2,10,0.80,303.66,M,-33.324,M,,*7F
2018-01-11 20:08:50 1515719330.812476: $GPRMC,010851,A,3946.9581,N,08404.9862,W,0.0000,0.000,120118,,*39
2018-01-11 20:08:50 1515719330.812536: $GPGSA,A,3,7,8,9,11,16,23,27,28,30,138,,,4.0,0.8,3.5*3E
2018-01-11 20:08:51 1515719331.361950: $GPZDA,010852.00,12,01,2018,00,00*61
2018-01-11 20:08:51 1515719331.362114: $GPGGA,010852,3946.9581,N,08404.9862,W,2,10,0.80,303.66,M,-33.324,M,,*7C
2018-01-11 20:08:51 1515719331.362180: $GPRMC,010852,A,3946.9581,N,08404.9862,W,0.0000,0.000,120118,,*3A
2018-01-11 20:08:51 1515719331.362240: $GPGSA,A,3,7,8,9,11,16,23,27,28,30,138,,,4.0,0.8,3.5*3E
2018-01-11 20:08:52 1515719332.362816: $GPZDA,010853.00,12,01,2018,00,00*60
2018-01-11 20:08:52 1515719332.362983: $GPGGA,010853,3946.9581,N,08404.9862,W,2,10,0.80,303.66,M,-33.324,M,,*7D
2018-01-11 20:08:52 1515719332.363049: $GPRMC,010853,A,3946.9581,N,08404.9862,W,0.0000,0.000,120118,,*3B
2018-01-11 20:08:52 1515719332.363109: $GPGSA,A,3,7,8,9,11,16,23,27,28,30,138,,,4.0,0.8,3.5*3E
2018-01-11 20:08:53 1515719333.699791: $GPGSV,3,1,10,07,55,315,43,08,73,135,46,09,48,231,42,11,19,168,47*73
2018-01-11 20:08:53 1515719333.699958: $GPGSV,3,2,10,16,24,060,46,23,30,190,47,27,48,054,48,28,13,258,39*7C
2018-01-11 20:08:53 1515719333.700024: $GPGSV,3,3,10,30,28,306,34,138,38,213,45*43
2018-01-11 20:08:53 1515719333.813145: $GPZDA,010854.00,12,01,2018,00,00*67
2018-01-11 20:08:53 1515719333.813270: $GPGGA,010854,3946.9581,N,08404.9862,W,2,10,0.80,303.66,M,-33.324,M,,*7A
2018-01-11 20:08:53 1515719333.813334: $GPRMC,010854,A,3946.9581,N,08404.9862,W,0.0000,0.000,120118,,*3C
2018-01-11 20:08:53 1515719333.813447: $GPGSA,A,3,7,8,9,11,16,23,27,28,30,138,,,4.0,0.8,3.5*3E
2018-01-11 20:08:54 1515719334.364047: $GPZDA,010855.00,12,01,2018,00,00*66
2018-01-11 20:08:54 1515719334.364204: $GPGGA,010855,3946.9581,N,08404.9862,W,2,10,0.80,303.66,M,-33.324,M,,*7B
2018-01-11 20:08:54 1515719334.364270: $GPRMC,010855,A,3946.9581,N,08404.9862,W,0.0000,0.000,120118,,*3D
2018-01-11 20:08:54 1515719334.364329: $GPGSA,A,3,7,8,9,11,16,23,27,28,30,138,,,4.0,0.8,3.5*3E
2018-01-11 20:08:55 1515719335.363170: $GPZDA,010856.00,12,01,2018,00,00*65
2018-01-11 20:08:55 1515719335.363328: $GPGGA,010856,3946.9581,N,08404.9862,W,2,10,0.80,303.66,M,-33.324,M,,*78
2018-01-11 20:08:55 1515719335.363393: $GPRMC,010856,A,3946.9581,N,08404.9862,W,0.0000,0.000,120118,,*3E
2018-01-11 20:08:55 1515719335.363453: $GPGSA,A,3,7,8,9,11,16,23,27,28,30,138,,,4.0,0.8,3.5*3E
2018-01-11 20:08:56 1515719336.698918: $GPGSV,3,1,10,07,55,315,44,08,73,135,46,09,48,231,42,11,19,168,47*74
2018-01-11 20:08:56 1515719336.699196: $GPGSV,3,2,10,16,24,060,46,23,30,190,47,27,48,054,48,28,13,258,39*7C
2018-01-11 20:08:56 1515719336.699284: $GPGSV,3,3,10,30,28,306,34,138,38,213,45*43
2018-01-11 20:08:56 1515719336.811136: $GPZDA,010857.00,12,01,2018,00,00*64
2018-01-11 20:08:56 1515719336.811291: $GPGGA,010857,3946.9581,N,08404.9862,W,2,10,0.80,303.66,M,-33.324,M,,*79
2018-01-11 20:08:56 1515719336.811356: $GPRMC,010857,A,3946.9581,N,08404.9862,W,0.0000,0.000,120118,,*3F
2018-01-11 20:08:56 1515719336.811417: $GPGSA,A,3,7,8,9,11,16,23,27,28,30,138,,,4.0,0.8,3.5*3E
2018-01-11 20:08:57 1515719337.363359: $GPZDA,010858.00,12,01,2018,00,00*6B
2018-01-11 20:08:57 1515719337.363531: $GPGGA,010858,3946.9581,N,08404.9862,W,2,10,0.80,303.66,M,-33.324,M,,*76
2018-01-11 20:08:57 1515719337.363596: $GPRMC,010858,A,3946.9581,N,08404.9862,W,0.0000,0.000,120118,,*30
2018-01-11 20:08:57 1515719337.363656: $GPGSA,A,3,7,8,9,11,16,23,27,28,30,138,,,4.0,0.8,3.5*3E
