2017-12-01 17:02:36 1512165756.686977: {"class":"VERSION","release":"3.16","rev":"3.16-4","proto_major":3,"proto_minor":11}
2017-12-01 17:02:36 1512165756.687369: {"class":"DEVICES","devices":[{"class":"DEVICE","path":"/dev/ttyUSB0","driver":"SiRF","subtype":"9\u0006GSD4e_4.1.2-P1_RPATCH.05-F-GPS-4R-1510281 11/03/2015 307","activated":"2017-12-01T22:02:36.413Z","flags":1,"native":1,"bps":4800,"parity":"N","stopbits":1,"cycle":1.00}]}
2017-12-01 17:02:36 1512165756.687485: {"class":"WATCH","enable":true,"json":false,"nmea":true,"raw":0,"scaled":false,"timing":false,"split24":false,"pps":false}
2017-12-01 17:02:37 1512165757.016218: $GPZDA,220237.67,01,12,2017,00,00*67
2017-12-01 17:02:37 1512165757.016387: $GPGGA,220237,3946.9688,N,08404.9697,W,1,12,1.40,314.21,M,-33.324,M,,*73
2017-12-01 17:02:37 1512165757.016453: $GPRMC,220237,A,3946.9688,N,08404.9697,W,0.2172,85.764,011217,,*0D
2017-12-01 17:02:37 1512165757.016515: $GPGSA,A,3,1,3,10,18,14,22,26,31,32,12,25,138,2.0,1.4,1.5*07
2017-12-01 17:02:38 1512165758.120055: $GPZDA,220238.36,01,12,2017,00,00*6C
2017-12-01 17:02:38 1512165758.120225: $GPGGA,220238,3946.9688,N,08404.9697,W,1,12,1.40,314.21,M,-33.324,M,,*7C
2017-12-01 17:02:38 1512165758.120293: $GPRMC,220238,A,3946.9688,N,08404.9697,W,0.2959,54.767,011217,,*0C
2017-12-01 17:02:38 1512165758.120353: $GPGSA,A,3,1,3,10,18,14,22,26,31,32,12,25,138,2.0,1.4,1.5*07
2017-12-01 17:02:38 1512165758.120413: $GPGBS,220238,10.70,M,15.43,M,35.28,M*0E
2017-12-01 17:02:39 1512165759.285157: $GPGSV,3,1,12,01,21,285,44,03,12,316,42,10,32,154,38,11,03,270,38*71
2017-12-01 17:02:39 1512165759.285309: $GPGSV,3,2,12,14,70,006,45,22,31,309,47,26,15,180,34,31,71,246,49*72
2017-12-01 17:02:39 1512165759.285376: $GPGSV,3,3,12,32,62,061,48,25,40,070,32,12,14,037,02,138,38,213,00*40
2017-12-01 17:02:39 1512165759.398517: $GPZDA,220239.00,01,12,2017,00,00*68
2017-12-01 17:02:39 1512165759.398721: $GPGGA,220239,3946.9689,N,08404.9704,W,1,10,1.00,314.13,M,-33.324,M,,*70
2017-12-01 17:02:39 1512165759.398789: $GPRMC,220239,A,3946.9689,N,08404.9704,W,0.1567,189.200,011217,,*30
2017-12-01 17:02:39 1512165759.398851: $GPGSA,A,3,1,3,10,11,14,22,26,31,32,25,,,2.0,1.0,1.5*33
2017-12-01 17:02:39 1512165759.850717: $GPZDA,220240.00,01,12,2017,00,00*66
2017-12-01 17:02:39 1512165759.850890: $GPGGA,220240,3946.9684,N,08404.9704,W,1,10,0.80,313.49,M,-33.324,M,,*72
2017-12-01 17:02:39 1512165759.850958: $GPRMC,220240,A,3946.9684,N,08404.9704,W,0.3006,242.539,011217,,*3A
2017-12-01 17:02:39 1512165759.851019: $GPGSA,A,3,1,3,10,11,14,22,26,31,32,25,,,2.0,0.8,1.5*3A
2017-12-01 17:02:40 1512165760.410347: $GPZDA,220241.00,01,12,2017,00,00*67
2017-12-01 17:02:40 1512165760.410523: $GPGGA,220241,3946.9685,N,08404.9711,W,1,10,0.80,313.41,M,-33.324,M,,*7E
2017-12-01 17:02:40 1512165760.410612: $GPRMC,220241,A,3946.9685,N,08404.9711,W,0.3423,184.197,011217,,*34
2017-12-01 17:02:40 1512165760.410691: $GPGSA,A,3,1,3,10,11,14,22,26,31,32,25,,,2.0,0.8,1.5*3A
2017-12-01 17:02:41 1512165761.746758: $GPGSV,3,1,12,01,21,285,44,03,12,316,42,10,32,154,37,11,03,270,40*71
2017-12-01 17:02:41 1512165761.746941: $GPGSV,3,2,12,14,70,006,45,22,31,309,47,26,15,180,33,31,71,246,49*75
2017-12-01 17:02:41 1512165761.747009: $GPGSV,3,3,12,32,62,061,48,25,40,070,32,12,14,037,30,138,38,213,38*4A
2017-12-01 17:02:41 1512165761.860330: $GPZDA,220242.00,01,12,2017,00,00*64
2017-12-01 17:02:41 1512165761.860504: $GPGGA,220242,3946.9678,N,08404.9719,W,1,12,0.80,313.46,M,-33.324,M,,*72
2017-12-01 17:02:41 1512165761.860592: $GPRMC,220242,A,3946.9678,N,08404.9719,W,0.0000,0.000,011217,,*39
2017-12-01 17:02:41 1512165761.860654: $GPGSA,A,3,1,3,10,11,14,22,26,31,32,25,12,138,2.0,0.8,1.5*03
2017-12-01 17:02:42 1512165762.411033: $GPZDA,220243.00,01,12,2017,00,00*65
2017-12-01 17:02:42 1512165762.411186: $GPGGA,220243,3946.9673,N,08404.9719,W,1,12,0.80,312.82,M,-33.324,M,,*71
2017-12-01 17:02:42 1512165762.411252: $GPRMC,220243,A,3946.9673,N,08404.9719,W,0.0000,0.000,011217,,*33
2017-12-01 17:02:42 1512165762.411313: $GPGSA,A,3,1,3,10,11,14,22,26,31,32,25,12,138,2.0,0.8,1.5*03
2017-12-01 17:02:43 1512165763.410535: $GPZDA,220244.00,01,12,2017,00,00*62
2017-12-01 17:02:43 1512165763.410722: $GPGGA,220244,3946.9674,N,08404.9726,W,1,12,0.80,312.74,M,-33.324,M,,*74
2017-12-01 17:02:43 1512165763.410790: $GPRMC,220244,A,3946.9674,N,08404.9726,W,0.0000,0.000,011217,,*3F
2017-12-01 17:02:43 1512165763.410852: $GPGSA,A,3,1,3,10,11,14,22,26,31,32,25,12,138,2.0,0.8,1.5*03
2017-12-01 17:02:43 1512165763.410911: $GPGBS,220244,10.70,M,15.43,M,35.28,M*05
2017-12-01 17:02:44 1512165764.746255: $GPGSV,3,1,12,01,21,285,43,03,12,316,42,10,32,154,37,11,03,270,39*78
2017-12-01 17:02:44 1512165764.746440: $GPGSV,3,2,12,14,70,006,45,22,31,309,48,26,15,180,33,31,71,246,49*7A
2017-12-01 17:02:44 1512165764.746526: $GPGSV,3,3,12,32,62,061,48,25,40,070,31,12,14,037,29,138,38,213,39*40
2017-12-01 17:02:44 1512165764.859724: $GPZDA,220245.00,01,12,2017,00,00*63
2017-12-01 17:02:44 1512165764.859898: $GPGGA,220245,3946.9674,N,08404.9726,W,1,12,0.80,312.74,M,-33.324,M,,*75
2017-12-01 17:02:44 1512165764.859966: $GPRMC,220245,A,3946.9674,N,08404.9726,W,0.0000,0.000,011217,,*3E
2017-12-01 17:02:44 1512165764.860027: $GPGSA,A,3,1,3,10,11,14,22,26,31,32,25,12,138,2.0,0.8,1.5*03
2017-12-01 17:02:45 1512165765.413482: $GPZDA,220246.00,01,12,2017,00,00*60
2017-12-01 17:02:45 1512165765.413689: $GPGGA,220246,3946.9644,N,08404.9769,W,2,12,1.20,309.95,M,-33.324,M,,*73
2017-12-01 17:02:45 1512165765.413758: $GPRMC,220246,A,3946.9644,N,08404.9769,W,0.0000,0.000,011217,,*35
2017-12-01 17:02:45 1512165765.413820: $GPGSA,A,3,1,3,10,11,14,22,26,31,32,25,12,138,2.0,1.2,1.5*08
2017-12-01 17:02:46 1512165766.413459: $GPZDA,220247.00,01,12,2017,00,00*61
2017-12-01 17:02:46 1512165766.413667: $GPGGA,220247,3946.9646,N,08404.9753,W,2,12,1.00,307.94,M,-33.324,M,,*74
2017-12-01 17:02:46 1512165766.413737: $GPRMC,220247,A,3946.9646,N,08404.9753,W,0.1867,180.000,011217,,*3E
2017-12-01 17:02:46 1512165766.413799: $GPGSA,A,3,1,3,10,11,14,22,26,31,32,25,12,138,2.0,1.0,1.5*0A
2017-12-01 17:02:47 1512165767.749096: $GPGSV,3,1,12,01,21,285,42,03,12,316,42,10,32,154,37,11,03,270,39*79
2017-12-01 17:02:47 1512165767.749279: $GPGSV,3,2,12,14,70,006,45,22,31,309,48,26,15,180,32,31,71,246,49*7B
2017-12-01 17:02:47 1512165767.749346: $GPGSV,3,3,12,32,62,061,47,25,40,070,27,12,14,037,29,138,38,213,39*48
2017-12-01 17:02:47 1512165767.861297: $GPZDA,220248.00,01,12,2017,00,00*6E
2017-12-01 17:02:47 1512165767.861566: $GPGGA,220248,3946.9646,N,08404.9753,W,2,12,0.80,307.94,M,-33.324,M,,*72
2017-12-01 17:02:47 1512165767.861660: $GPRMC,220248,A,3946.9646,N,08404.9753,W,0.0000,0.000,011217,,*30
2017-12-01 17:02:47 1512165767.861724: $GPGSA,A,3,1,3,10,11,14,22,26,31,32,25,12,138,2.0,0.8,1.5*03
2017-12-01 17:02:48 1512165768.413395: $GPZDA,220249.00,01,12,2017,00,00*6F
2017-12-01 17:02:48 1512165768.413591: $GPGGA,220249,3946.9644,N,08404.9745,W,2,12,0.80,305.21,M,-33.324,M,,*7A
2017-12-01 17:02:48 1512165768.413677: $GPRMC,220249,A,3946.9644,N,08404.9745,W,0.0000,0.000,011217,,*34
2017-12-01 17:02:48 1512165768.413740: $GPGSA,A,3,1,3,10,11,14,22,26,31,32,25,12,138,2.0,0.8,1.5*03
2017-12-01 17:02:49 1512165769.414251: $GPZDA,220250.00,01,12,2017,00,00*67
2017-12-01 17:02:49 1512165769.414426: $GPGGA,220250,3946.9644,N,08404.9745,W,2,12,0.80,305.21,M,-33.324,M,,*72
2017-12-01 17:02:49 1512165769.414514: $GPRMC,220250,A,3946.9644,N,08404.9745,W,0.0000,0.000,011217,,*3C
2017-12-01 17:02:49 1512165769.414578: $GPGSA,A,3,1,3,10,11,14,22,26,31,32,25,12,138,2.0,0.8,1.5*03
2017-12-01 17:02:50 1512165770.748971: $GPGSV,3,1,12,01,21,285,42,03,12,316,43,10,32,154,36,11,03,270,40*77
2017-12-01 17:02:50 1512165770.749156: $GPGSV,3,2,12,14,70,006,45,22,31,309,47,26,15,180,33,31,71,246,49*75
2017-12-01 17:02:50 1512165770.749223: $GPGSV,3,3,12,32,62,061,47,25,40,070,26,12,14,037,28,138,38,213,38*49
2017-12-01 17:02:50 1512165770.862242: $GPZDA,220251.00,01,12,2017,00,00*66
2017-12-01 17:02:50 1512165770.862416: $GPGGA,220251,3946.9644,N,08404.9745,W,2,12,0.80,305.21,M,-33.324,M,,*73
2017-12-01 17:02:50 1512165770.862504: $GPRMC,220251,A,3946.9644,N,08404.9745,W,0.0000,0.000,011217,,*3D
2017-12-01 17:02:50 1512165770.862632: $GPGSA,A,3,1,3,10,11,14,22,26,31,32,25,12,138,2.0,0.8,1.5*03
2017-12-01 17:02:51 1512165771.487459: $GPZDA,220252.00,01,12,2017,00,00*65
2017-12-01 17:02:51 1512165771.487672: $GPGGA,220252,3946.9644,N,08404.9745,W,2,12,0.80,305.21,M,-33.324,M,,*70
2017-12-01 17:02:51 1512165771.487741: $GPRMC,220252,A,3946.9644,N,08404.9745,W,0.0000,0.000,011217,,*3E
2017-12-01 17:02:51 1512165771.487804: $GPGSA,A,3,1,3,10,11,14,22,26,31,32,25,12,138,2.0,0.8,1.5*03
2017-12-01 17:02:52 1512165772.412401: $GPZDA,220253.00,01,12,2017,00,00*64
2017-12-01 17:02:52 1512165772.412591: $GPGGA,220253,3946.9644,N,08404.9745,W,2,12,0.80,305.21,M,-33.324,M,,*71
2017-12-01 17:02:52 1512165772.412677: $GPRMC,220253,A,3946.9644,N,08404.9745,W,0.0000,0.000,011217,,*3F
2017-12-01 17:02:52 1512165772.412739: $GPGSA,A,3,1,3,10,11,14,22,26,31,32,25,12,138,2.0,0.8,1.5*03
2017-12-01 17:02:53 1512165773.749063: $GPGSV,3,1,12,01,21,285,42,03,12,316,43,10,32,154,36,11,03,270,40*77
2017-12-01 17:02:53 1512165773.749249: $GPGSV,3,2,12,14,70,006,45,22,31,309,48,26,15,180,33,31,71,246,49*7A
2017-12-01 17:02:53 1512165773.749315: $GPGSV,3,3,12,32,62,061,47,25,40,070,26,12,14,037,28,138,38,213,40*46
2017-12-01 17:02:53 1512165773.862754: $GPZDA,220254.00,01,12,2017,00,00*63
2017-12-01 17:02:53 1512165773.862867: $GPGGA,220254,3946.9644,N,08404.9745,W,2,12,0.80,305.21,M,-33.324,M,,*76
2017-12-01 17:02:53 1512165773.862932: $GPRMC,220254,A,3946.9644,N,08404.9745,W,0.0000,0.000,011217,,*38
2017-12-01 17:02:53 1512165773.862993: $GPGSA,A,3,1,3,10,11,14,22,26,31,32,25,12,138,2.0,0.8,1.5*03
2017-12-01 17:02:54 1512165774.414119: $GPZDA,220255.00,01,12,2017,00,00*62
2017-12-01 17:02:54 1512165774.414536: $GPGGA,220255,3946.9644,N,08404.9745,W,2,12,0.80,305.21,M,-33.324,M,,*77
2017-12-01 17:02:54 1512165774.414679: $GPRMC,220255,A,3946.9644,N,08404.9745,W,0.0000,0.000,011217,,*39
2017-12-01 17:02:54 1512165774.414799: $GPGSA,A,3,1,3,10,11,14,22,26,31,32,25,12,138,2.0,0.8,1.5*03
2017-12-01 17:02:55 1512165775.414311: $GPZDA,220256.00,01,12,2017,00,00*61
2017-12-01 17:02:55 1512165775.414483: $GPGGA,220256,3946.9644,N,08404.9745,W,2,12,0.80,305.21,M,-33.324,M,,*74
2017-12-01 17:02:55 1512165775.414553: $GPRMC,220256,A,3946.9644,N,08404.9745,W,0.0000,0.000,011217,,*3A
2017-12-01 17:02:55 1512165775.414618: $GPGSA,A,3,1,3,10,11,14,22,26,31,32,25,12,138,2.0,0.8,1.5*03
2017-12-01 17:02:55 1512165775.414677: $GPGBS,220256,2.67,M,3.86,M,8.82,M*33
