2017-12-01 18:15:16 1512170116.614919: {"class":"VERSION","release":"3.16","rev":"3.16-4","proto_major":3,"proto_minor":11}
2017-12-01 18:15:16 1512170116.615313: {"class":"DEVICES","devices":[{"class":"DEVICE","path":"/dev/ttyUSB0","driver":"SiRF","subtype":"9\u0006GSD4e_4.1.2-P1_RPATCH.05-F-GPS-4R-1510281 11/03/2015 307","activated":"2017-12-01T23:15:16.486Z","flags":1,"native":1,"bps":4800,"parity":"N","stopbits":1,"cycle":1.00}]}
2017-12-01 18:15:16 1512170116.615434: {"class":"WATCH","enable":true,"json":false,"nmea":true,"raw":0,"scaled":false,"timing":false,"split24":false,"pps":false}
2017-12-01 18:15:17 1512170117.681776: $GPGSV,3,1,12,01,08,256,31,03,38,303,46,14,58,085,43,16,19,189,44*75
2017-12-01 18:15:17 1512170117.682007: $GPGSV,3,2,12,22,50,277,46,23,08,298,43,25,21,042,38,26,49,174,45*70
2017-12-01 18:15:17 1512170117.682078: $GPGSV,3,3,12,31,70,019,47,32,39,105,42,29,09,076,15,138,38,213,46*49
2017-12-01 18:15:17 1512170117.795231: $GPZDA,231518.00,01,12,2017,00,00*6C
2017-12-01 18:15:17 1512170117.795402: $GPGGA,231518,3946.9729,N,08404.9844,W,2,12,0.80,294.15,M,-33.325,M,,*72
2017-12-01 18:15:17 1512170117.795469: $GPRMC,231518,A,3946.9729,N,08404.9844,W,0.0000,0.000,011217,,*33
2017-12-01 18:15:17 1512170117.795534: $GPGSA,A,3,1,3,14,16,22,23,25,26,31,32,29,138,2.0,0.8,1.5*0C
2017-12-01 18:15:18 1512170118.420572: $GPZDA,231519.00,01,12,2017,00,00*6D
2017-12-01 18:15:18 1512170118.420750: $GPGGA,231519,3946.9729,N,08404.9844,W,2,12,0.80,294.15,M,-33.325,M,,*73
2017-12-01 18:15:18 1512170118.420817: $GPRMC,231519,A,3946.9729,N,08404.9844,W,0.0000,0.000,011217,,*32
2017-12-01 18:15:18 1512170118.420899: $GPGSA,A,3,1,3,14,16,22,23,25,26,31,32,29,138,2.0,0.8,1.5*0C
2017-12-01 18:15:19 1512170119.347817: $GPZDA,231520.00,01,12,2017,00,00*67
2017-12-01 18:15:19 1512170119.347993: $GPGGA,231520,3946.9729,N,08404.9844,W,2,12,0.80,294.15,M,-33.325,M,,*79
2017-12-01 18:15:19 1512170119.348060: $GPRMC,231520,A,3946.9729,N,08404.9844,W,0.0000,0.000,011217,,*38
2017-12-01 18:15:19 1512170119.348123: $GPGSA,A,3,1,3,14,16,22,23,25,26,31,32,29,138,2.0,0.8,1.5*0C
2017-12-01 18:15:20 1512170120.680849: $GPGSV,3,1,12,01,08,256,32,03,38,303,47,14,58,085,43,16,19,189,44*77
2017-12-01 18:15:20 1512170120.681029: $GPGSV,3,2,12,22,50,277,46,23,08,298,43,25,21,042,38,26,49,174,45*70
2017-12-01 18:15:20 1512170120.681099: $GPGSV,3,3,12,31,70,019,47,32,39,105,43,29,09,076,17,138,38,213,46*4A
2017-12-01 18:15:20 1512170120.794496: $GPZDA,231521.00,01,12,2017,00,00*66
2017-12-01 18:15:20 1512170120.794649: $GPGGA,231521,3946.9729,N,08404.9844,W,2,12,0.80,294.15,M,-33.325,M,,*78
2017-12-01 18:15:20 1512170120.794717: $GPRMC,231521,A,3946.9729,N,08404.9844,W,0.0000,0.000,011217,,*39
2017-12-01 18:15:20 1512170120.794778: $GPGSA,A,3,1,3,14,16,22,23,25,26,31,32,29,138,2.0,0.8,1.5*0C
2017-12-01 18:15:21 1512170121.377993: $GPZDA,231522.00,01,12,2017,00,00*65
2017-12-01 18:15:21 1512170121.378157: $GPGGA,231522,3946.9729,N,08404.9844,W,2,12,0.80,294.15,M,-33.325,M,,*7B
2017-12-01 18:15:21 1512170121.378225: $GPRMC,231522,A,3946.9729,N,08404.9844,W,0.0000,0.000,011217,,*3A
2017-12-01 18:15:21 1512170121.378287: $GPGSA,A,3,1,3,14,16,22,23,25,26,31,32,29,138,2.0,0.8,1.5*0C
2017-12-01 18:15:22 1512170122.347493: $GPZDA,231523.00,01,12,2017,00,00*64
2017-12-01 18:15:22 1512170122.347668: $GPGGA,231523,3946.9729,N,08404.9844,W,2,12,0.80,294.15,M,-33.325,M,,*7A
2017-12-01 18:15:22 1512170122.347737: $GPRMC,231523,A,3946.9729,N,08404.9844,W,0.0000,0.000,011217,,*3B
2017-12-01 18:15:22 1512170122.347798: $GPGSA,A,3,1,3,14,16,22,23,25,26,31,32,29,138,2.0,0.8,1.5*0C
2017-12-01 18:15:23 1512170123.713739: $GPGSV,3,1,12,01,08,256,32,03,38,303,47,14,58,085,43,16,19,189,44*77
2017-12-01 18:15:23 1512170123.713937: $GPGSV,3,2,12,22,50,277,46,23,08,298,43,25,21,042,39,26,49,174,45*71
2017-12-01 18:15:23 1512170123.714004: $GPGSV,3,3,12,31,70,019,46,32,39,105,42,29,09,076,14,138,38,213,46*49
2017-12-01 18:15:23 1512170123.827493: $GPZDA,231524.00,01,12,2017,00,00*63
2017-12-01 18:15:23 1512170123.827670: $GPGGA,231524,3946.9729,N,08404.9844,W,2,12,0.80,294.15,M,-33.325,M,,*7D
2017-12-01 18:15:23 1512170123.827789: $GPRMC,231524,A,3946.9729,N,08404.9844,W,0.0000,0.000,011217,,*3C
2017-12-01 18:15:23 1512170123.827872: $GPGSA,A,3,1,3,14,16,22,23,25,26,31,32,29,138,2.0,0.8,1.5*0C
2017-12-01 18:15:24 1512170124.375787: $GPZDA,231525.00,01,12,2017,00,00*62
2017-12-01 18:15:24 1512170124.375960: $GPGGA,231525,3946.9729,N,08404.9844,W,2,12,0.80,294.15,M,-33.325,M,,*7C
2017-12-01 18:15:24 1512170124.376026: $GPRMC,231525,A,3946.9729,N,08404.9844,W,0.0000,0.000,011217,,*3D
2017-12-01 18:15:24 1512170124.376088: $GPGSA,A,3,1,3,14,16,22,23,25,26,31,32,29,138,2.0,0.8,1.5*0C
2017-12-01 18:15:25 1512170125.380258: $GPZDA,231526.00,01,12,2017,00,00*61
2017-12-01 18:15:25 1512170125.380434: $GPGGA,231526,3946.9729,N,08404.9844,W,2,12,0.80,294.15,M,-33.325,M,,*7F
2017-12-01 18:15:25 1512170125.380501: $GPRMC,231526,A,3946.9729,N,08404.9844,W,0.0000,0.000,011217,,*3E
2017-12-01 18:15:25 1512170125.380567: $GPGSA,A,3,1,3,14,16,22,23,25,26,31,32,29,138,2.0,0.8,1.5*0C
2017-12-01 18:15:26 1512170126.714522: $GPGSV,3,1,12,01,08,256,32,03,38,303,47,14,58,085,43,16,19,189,44*77
2017-12-01 18:15:26 1512170126.714717: $GPGSV,3,2,12,22,50,277,46,23,08,298,43,25,21,042,39,26,49,174,46*72
2017-12-01 18:15:26 1512170126.714787: $GPGSV,3,3,12,31,70,019,46,32,39,105,42,29,09,076,04,138,38,213,46*48
2017-12-01 18:15:26 1512170126.827893: $GPZDA,231527.00,01,12,2017,00,00*60
2017-12-01 18:15:26 1512170126.828054: $GPGGA,231527,3946.9729,N,08404.9844,W,2,12,0.80,294.15,M,-33.325,M,,*7E
2017-12-01 18:15:26 1512170126.828121: $GPRMC,231527,A,3946.9729,N,08404.9844,W,0.0000,0.000,011217,,*3F
2017-12-01 18:15:26 1512170126.828183: $GPGSA,A,3,1,3,14,16,22,23,25,26,31,32,29,138,2.0,0.8,1.5*0C
2017-12-01 18:15:27 1512170127.347884: $GPZDA,231528.00,01,12,2017,00,00*6F
2017-12-01 18:15:27 1512170127.348067: $GPGGA,231528,3946.9729,N,08404.9844,W,2,12,0.80,294.15,M,-33.325,M,,*71
2017-12-01 18:15:27 1512170127.348134: $GPRMC,231528,A,3946.9729,N,08404.9844,W,0.0000,0.000,011217,,*30
2017-12-01 18:15:27 1512170127.348196: $GPGSA,A,3,1,3,14,16,22,23,25,26,31,32,29,138,2.0,0.8,1.5*0C
2017-12-01 18:15:28 1512170128.376948: $GPZDA,231529.00,01,12,2017,00,00*6E
2017-12-01 18:15:28 1512170128.377121: $GPGGA,231529,3946.9729,N,08404.9844,W,2,12,0.60,294.15,M,-33.325,M,,*7E
2017-12-01 18:15:28 1512170128.377189: $GPRMC,231529,A,3946.9729,N,08404.9844,W,0.0000,0.000,011217,,*31
2017-12-01 18:15:28 1512170128.377249: $GPGSA,A,3,1,3,14,16,22,23,25,26,31,32,29,138,2.0,0.6,1.5*02
2017-12-01 18:15:29 1512170129.713706: $GPGSV,3,1,12,01,08,256,32,03,38,303,47,14,58,085,43,16,19,189,44*77
2017-12-01 18:15:29 1512170129.713900: $GPGSV,3,2,12,22,50,277,46,23,08,298,43,25,21,042,39,26,49,174,46*72
2017-12-01 18:15:29 1512170129.713967: $GPGSV,3,3,12,31,70,019,47,32,39,105,42,29,09,076,17,138,38,213,46*4B
2017-12-01 18:15:29 1512170129.827241: $GPZDA,231530.00,01,12,2017,00,00*66
2017-12-01 18:15:29 1512170129.827411: $GPGGA,231530,3946.9729,N,08404.9844,W,2,12,0.60,294.15,M,-33.325,M,,*76
2017-12-01 18:15:29 1512170129.827476: $GPRMC,231530,A,3946.9729,N,08404.9844,W,0.0000,0.000,011217,,*39
2017-12-01 18:15:29 1512170129.827537: $GPGSA,A,3,1,3,14,16,22,23,25,26,31,32,29,138,2.0,0.6,1.5*02
2017-12-01 18:15:30 1512170130.378127: $GPZDA,231531.00,01,12,2017,00,00*67
2017-12-01 18:15:30 1512170130.378295: $GPGGA,231531,3946.9729,N,08404.9844,W,2,12,0.80,294.15,M,-33.325,M,,*79
2017-12-01 18:15:30 1512170130.378362: $GPRMC,231531,A,3946.9729,N,08404.9844,W,0.0000,0.000,011217,,*38
2017-12-01 18:15:30 1512170130.378423: $GPGSA,A,3,1,3,14,16,22,23,25,26,31,32,29,138,2.0,0.8,1.5*0C
2017-12-01 18:15:31 1512170131.349004: $GPZDA,231532.00,01,12,2017,00,00*64
2017-12-01 18:15:31 1512170131.349165: $GPGGA,231532,3946.9729,N,08404.9844,W,2,12,0.80,294.15,M,-33.325,M,,*7A
2017-12-01 18:15:31 1512170131.349233: $GPRMC,231532,A,3946.9729,N,08404.9844,W,0.0000,0.000,011217,,*3B
2017-12-01 18:15:31 1512170131.349294: $GPGSA,A,3,1,3,14,16,22,23,25,26,31,32,29,138,2.0,0.8,1.5*0C
2017-12-01 18:15:32 1512170132.709409: $GPGSV,3,1,12,01,08,256,38,03,38,303,47,14,58,085,43,16,19,189,44*7D
2017-12-01 18:15:32 1512170132.709603: $GPGSV,3,2,12,22,50,277,46,23,08,298,43,25,21,042,38,26,49,174,46*73
2017-12-01 18:15:32 1512170132.709670: $GPGSV,3,3,12,31,70,019,47,32,39,105,42,10,01,159,21,138,38,213,46*40
2017-12-01 18:15:32 1512170132.822781: $GPZDA,231533.00,01,12,2017,00,00*65
2017-12-01 18:15:32 1512170132.822919: $GPGGA,231533,3946.9729,N,08404.9844,W,2,12,0.80,294.15,M,-33.325,M,,*7B
2017-12-01 18:15:32 1512170132.822984: $GPRMC,231533,A,3946.9729,N,08404.9844,W,0.0000,0.000,011217,,*3A
2017-12-01 18:15:32 1512170132.823044: $GPGSA,A,3,1,3,14,16,22,23,25,26,31,32,10,138,2.0,0.8,1.5*06
2017-12-01 18:15:33 1512170133.448233: $GPZDA,231534.00,01,12,2017,00,00*62
2017-12-01 18:15:33 1512170133.448400: $GPGGA,231534,3946.9729,N,08404.9844,W,2,12,0.80,294.15,M,-33.325,M,,*7C
2017-12-01 18:15:33 1512170133.448468: $GPRMC,231534,A,3946.9729,N,08404.9844,W,0.0000,0.000,011217,,*3D
2017-12-01 18:15:33 1512170133.448529: $GPGSA,A,3,1,3,14,16,22,23,25,26,31,32,10,138,2.0,0.8,1.5*06
2017-12-01 18:15:34 1512170134.376492: $GPZDA,231535.00,01,12,2017,00,00*63
2017-12-01 18:15:34 1512170134.376670: $GPGGA,231535,3946.9729,N,08404.9844,W,2,12,0.80,294.15,M,-33.325,M,,*7D
2017-12-01 18:15:34 1512170134.376738: $GPRMC,231535,A,3946.9729,N,08404.9844,W,0.0000,0.000,011217,,*3C
2017-12-01 18:15:34 1512170134.376798: $GPGSA,A,3,1,3,14,16,22,23,25,26,31,32,10,138,2.0,0.8,1.5*06
2017-12-01 18:15:35 1512170135.713459: $GPGSV,3,1,12,01,08,256,38,03,38,303,47,14,58,085,43,16,19,189,44*7D
2017-12-01 18:15:35 1512170135.713637: $GPGSV,3,2,12,22,50,277,46,23,08,298,43,25,21,042,38,26,49,174,46*73
2017-12-01 18:15:35 1512170135.713704: $GPGSV,3,3,12,31,70,019,47,32,39,105,41,10,01,159,22,138,38,213,46*40
2017-12-01 18:15:35 1512170135.825604: $GPZDA,231536.00,01,12,2017,00,00*60
2017-12-01 18:15:35 1512170135.825756: $GPGGA,231536,3946.9729,N,08404.9844,W,2,12,0.80,294.15,M,-33.325,M,,*7E
2017-12-01 18:15:35 1512170135.825821: $GPRMC,231536,A,3946.9729,N,08404.9844,W,0.0000,0.000,011217,,*3F
2017-12-01 18:15:35 1512170135.825881: $GPGSA,A,3,1,3,14,16,22,23,25,26,31,32,10,138,2.0,0.8,1.5*06
2017-12-01 18:15:36 1512170136.376462: $GPZDA,231537.00,01,12,2017,00,00*61
2017-12-01 18:15:36 1512170136.376618: $GPGGA,231537,3946.9729,N,08404.9844,W,2,12,0.80,294.15,M,-33.325,M,,*7F
2017-12-01 18:15:36 1512170136.376683: $GPRMC,231537,A,3946.9729,N,08404.9844,W,0.0000,0.000,011217,,*3E
2017-12-01 18:15:36 1512170136.376742: $GPGSA,A,3,1,3,14,16,22,23,25,26,31,32,10,138,2.0,0.8,1.5*06
