2017-12-14 12:10:37 1513271437.286912: {"class":"VERSION","release":"3.16","rev":"3.16-4","proto_major":3,"proto_minor":11}
2017-12-14 12:10:37 1513271437.287312: {"class":"DEVICES","devices":[{"class":"DEVICE","path":"/dev/ttyUSB0","driver":"SiRF","subtype":"9\u0006GSD4e_4.1.2-P1_RPATCH.05-F-GPS-4R-1510281 11/03/2015 307","activated":"2017-12-14T17:10:37.180Z","flags":1,"native":1,"bps":4800,"parity":"N","stopbits":1,"cycle":1.00}]}
2017-12-14 12:10:37 1513271437.287461: {"class":"WATCH","enable":true,"json":false,"nmea":true,"raw":0,"scaled":false,"timing":false,"split24":false,"pps":false}
2017-12-14 12:10:38 1513271438.471398: $GPRMC,171039,V,18000.0000,N,00000.0000,W,0.0000,0.000,141217,,*1C
2017-12-14 12:10:38 1513271438.471556: $GPGSA,A,1,24,21,10,15,18,20,27,32,,,,,,,,*3D
2017-12-14 12:10:39 1513271439.439177: $GPRMC,171040,V,3946.9511,N,08404.9420,W,1.4583,352.451,141217,,*27
2017-12-14 12:10:39 1513271439.439328: $GPGSA,A,1,24,21,10,15,18,20,27,32,,,,,,,,*3D
2017-12-14 12:10:40 1513271440.863945: $GPGSV,3,1,12,24,49,115,31,10,39,298,20,15,40,051,20,18,69,330,17*78
2017-12-14 12:10:40 1513271440.864121: $GPGSV,3,2,12,21,66,190,23,20,36,093,00,27,19,292,00,32,18,235,00*74
2017-12-14 12:10:40 1513271440.864189: $GPGSV,3,3,12,13,10,048,00,08,05,325,00,14,01,231,00,138,38,213,00*49
2017-12-14 12:10:40 1513271440.976306: $GPRMC,171041,V,3946.9511,N,08404.9420,W,1.4583,352.451,141217,,*26
2017-12-14 12:10:40 1513271440.976479: $GPGSA,A,1,24,10,15,18,21,,,,,,,,,,,*3B
2017-12-14 12:10:41 1513271441.231450: $GPRMC,171041,V,3946.9519,N,08404.9433,W,1.2439,2.308,141217,,*27
2017-12-14 12:10:41 1513271441.231623: $GPGSA,A,1,24,10,15,18,21,,,,,,,,,,,*3B
2017-12-14 12:10:41 1513271441.486571: $GPRMC,171042,V,3946.9523,N,08404.9433,W,1.2439,2.308,141217,,*2D
2017-12-14 12:10:41 1513271441.486761: $GPGSA,A,1,24,10,15,18,21,,,,,,,,,,,*3B
2017-12-14 12:10:42 1513271442.524661: $GPGSV,3,1,12,24,49,115,31,10,39,298,20,15,40,051,19,27,19,292,03*75
2017-12-14 12:10:42 1513271442.524999: $GPGSV,3,2,12,21,66,190,23,18,69,330,00,20,36,093,00,32,18,235,00*76
2017-12-14 12:10:42 1513271442.525147: $GPGSV,3,3,12,13,10,048,00,08,05,325,00,14,01,231,00,138,38,213,00*49
2017-12-14 12:10:42 1513271442.636936: $GPRMC,171043,V,3946.9527,N,08404.9433,W,1.2439,2.308,141217,,*28
2017-12-14 12:10:42 1513271442.637107: $GPGSA,A,1,24,10,15,21,,,,,,,,,,,,*32
2017-12-14 12:10:43 1513271443.188298: $GPRMC,171044,V,3946.9531,N,08404.9433,W,1.2439,2.308,141217,,*28
2017-12-14 12:10:43 1513271443.188476: $GPGSA,A,1,24,10,15,21,,,,,,,,,,,,*32
2017-12-14 12:10:44 1513271444.189534: $GPRMC,171045,V,3946.9535,N,08404.9433,W,1.2439,2.308,141217,,*2D
2017-12-14 12:10:44 1513271444.189705: $GPGSA,A,1,24,10,15,21,,,,,,,,,,,,*32
2017-12-14 12:10:45 1513271445.526790: $GPGSV,3,1,12,24,49,115,31,10,39,298,20,15,40,051,19,18,69,330,05*71
2017-12-14 12:10:45 1513271445.526983: $GPGSV,3,2,12,21,66,190,23,20,36,093,00,27,19,292,00,32,18,235,00*74
2017-12-14 12:10:45 1513271445.527049: $GPGSV,3,3,12,13,10,048,00,08,05,325,00,14,01,231,00,138,38,213,00*49
2017-12-14 12:10:45 1513271445.639123: $GPRMC,171046,V,3946.9535,N,08404.9433,W,1.2439,2.308,141217,,*2E
2017-12-14 12:10:45 1513271445.639251: $GPGSA,A,1,24,10,15,21,,,,,,,,,,,,*32
2017-12-14 12:10:46 1513271446.191790: $GPRMC,171047,V,3946.9539,N,08404.9433,W,1.2439,2.308,141217,,*23
2017-12-14 12:10:46 1513271446.191949: $GPGSA,A,1,24,10,15,21,,,,,,,,,,,,*32
2017-12-14 12:10:47 1513271447.196214: $GPZDA,171048.06,14,12,2017,00,00*69
2017-12-14 12:10:47 1513271447.196406: $GPGGA,171048,3946.9546,N,08404.9412,W,1,04,1.60,348.86,M,-33.324,M,,*71
2017-12-14 12:10:47 1513271447.196472: $GPRMC,171048,A,3946.9546,N,08404.9412,W,1.7494,26.302,141217,,*0E
2017-12-14 12:10:47 1513271447.196532: $GPGSA,A,3,24,10,15,21,,,,,,,,,6.6,1.6,6.2*31
2017-12-14 12:10:47 1513271447.196588: $GPGBS,171048,24.66,M,21.80,M,143.40,M*3A
2017-12-14 12:10:48 1513271448.528678: $GPGSV,3,1,12,24,49,115,31,10,39,298,20,15,40,051,19,18,69,330,17*72
2017-12-14 12:10:48 1513271448.724482: $GPGSV,3,2,12,21,66,190,24,32,18,235,11,20,36,093,00,27,19,292,00*73
2017-12-14 12:10:48 1513271448.724646: $GPGSV,3,3,12,13,10,048,00,08,05,325,00,14,01,231,00,138,38,213,00*49
2017-12-14 12:10:48 1513271448.724770: $GPZDA,171049.06,14,12,2017,00,00*68
2017-12-14 12:10:48 1513271448.724828: $GPGGA,171049,3946.9546,N,08404.9405,W,1,06,1.80,348.94,M,-33.324,M,,*79
2017-12-14 12:10:48 1513271448.724907: $GPRMC,171049,A,3946.9546,N,08404.9405,W,1.2824,35.796,141217,,*00
2017-12-14 12:10:48 1513271448.724999: $GPGSA,A,3,24,10,15,18,21,32,,,,,,,6.6,1.8,6.2*37
2017-12-14 12:10:49 1513271449.193808: $GPZDA,171050.00,14,12,2017,00,00*66
2017-12-14 12:10:49 1513271449.194000: $GPGGA,171050,3946.9550,N,08404.9398,W,1,06,1.80,349.66,M,-33.324,M,,*79
2017-12-14 12:10:49 1513271449.194067: $GPRMC,171050,A,3946.9550,N,08404.9398,W,1.1294,43.342,141217,,*02
2017-12-14 12:10:49 1513271449.194127: $GPGSA,A,3,24,10,15,18,21,32,,,,,,,6.6,1.8,6.2*37
2017-12-14 12:10:50 1513271450.194867: $GPZDA,171051.00,14,12,2017,00,00*67
2017-12-14 12:10:50 1513271450.195042: $GPGGA,171051,3946.9562,N,08404.9380,W,1,06,1.60,345.36,M,-33.324,M,,*77
2017-12-14 12:10:50 1513271450.195108: $GPRMC,171051,A,3946.9562,N,08404.9380,W,1.5879,23.519,141217,,*08
2017-12-14 12:10:50 1513271450.195169: $GPGSA,A,3,24,10,15,18,21,32,,,,,,,6.6,1.6,6.2*39
2017-12-14 12:10:51 1513271451.531050: $GPGSV,3,1,12,24,49,115,31,10,39,298,20,15,40,051,19,18,69,330,18*7D
2017-12-14 12:10:51 1513271451.531224: $GPGSV,3,2,12,21,66,190,24,32,18,235,11,27,19,292,13,20,36,093,00*71
2017-12-14 12:10:51 1513271451.531307: $GPGSV,3,3,12,13,10,048,00,08,05,325,00,14,01,231,00,138,38,213,00*49
2017-12-14 12:10:51 1513271451.644678: $GPZDA,171052.00,14,12,2017,00,00*64
2017-12-14 12:10:51 1513271451.644831: $GPGGA,171052,3946.9562,N,08404.9374,W,1,07,1.60,346.84,M,-33.324,M,,*74
2017-12-14 12:10:51 1513271451.644914: $GPRMC,171052,A,3946.9562,N,08404.9374,W,1.4367,25.065,141217,,*0D
2017-12-14 12:10:51 1513271451.644975: $GPGSA,A,3,24,10,15,18,21,32,27,,,,,,6.6,1.6,6.2*3C
2017-12-14 12:10:52 1513271452.195730: $GPZDA,171053.00,14,12,2017,00,00*65
2017-12-14 12:10:52 1513271452.196036: $GPGGA,171053,3946.9566,N,08404.9366,W,1,07,1.60,346.16,M,-33.324,M,,*79
2017-12-14 12:10:52 1513271452.196148: $GPRMC,171053,A,3946.9566,N,08404.9366,W,1.7087,49.986,141217,,*0B
2017-12-14 12:10:52 1513271452.196268: $GPGSA,A,3,24,10,15,18,21,32,27,,,,,,6.6,1.6,6.2*3C
2017-12-14 12:10:53 1513271453.195472: $GPZDA,171054.00,14,12,2017,00,00*62
2017-12-14 12:10:53 1513271453.197220: $GPGGA,171054,3946.9569,N,08404.9359,W,1,07,1.60,345.47,M,-33.324,M,,*7A
2017-12-14 12:10:53 1513271453.197319: $GPRMC,171054,A,3946.9569,N,08404.9359,W,1.8311,35.640,141217,,*02
2017-12-14 12:10:53 1513271453.197382: $GPGSA,A,3,24,10,15,18,21,32,27,,,,,,6.6,1.6,6.2*3C
2017-12-14 12:10:54 1513271454.531740: $GPGSV,3,1,12,24,49,115,31,10,39,298,20,15,40,051,18,18,69,330,18*7C
2017-12-14 12:10:54 1513271454.531931: $GPGSV,3,2,12,21,66,190,24,32,18,235,11,27,19,292,13,20,36,093,00*71
2017-12-14 12:10:54 1513271454.531998: $GPGSV,3,3,12,13,10,048,00,08,05,325,00,14,01,231,00,138,38,213,00*49
2017-12-14 12:10:54 1513271454.645211: $GPZDA,171055.00,14,12,2017,00,00*63
2017-12-14 12:10:54 1513271454.645380: $GPGGA,171055,3946.9565,N,08404.9352,W,1,07,1.60,346.32,M,-33.324,M,,*7D
2017-12-14 12:10:54 1513271454.645445: $GPRMC,171055,A,3946.9565,N,08404.9352,W,1.4243,32.974,141217,,*01
2017-12-14 12:10:54 1513271454.645506: $GPGSA,A,3,24,10,15,18,21,32,27,,,,,,6.6,1.6,6.2*3C
2017-12-14 12:10:55 1513271455.196615: $GPZDA,171056.00,14,12,2017,00,00*60
2017-12-14 12:10:55 1513271455.196783: $GPGGA,171056,3946.9560,N,08404.9338,W,1,07,1.60,345.84,M,-33.324,M,,*79
2017-12-14 12:10:55 1513271455.196849: $GPRMC,171056,A,3946.9560,N,08404.9338,W,1.4434,11.663,141217,,*05
2017-12-14 12:10:55 1513271455.196927: $GPGSA,A,3,24,10,15,18,21,32,27,,,,,,6.6,1.6,6.2*3C
2017-12-14 12:10:56 1513271456.197249: $GPZDA,171057.00,14,12,2017,00,00*61
2017-12-14 12:10:56 1513271456.197427: $GPGGA,171057,3946.9559,N,08404.9338,W,1,07,1.60,344.43,M,-33.324,M,,*78
2017-12-14 12:10:56 1513271456.197544: $GPRMC,171057,A,3946.9559,N,08404.9338,W,1.0886,1.319,141217,,*36
2017-12-14 12:10:56 1513271456.197605: $GPGSA,A,3,24,10,15,18,21,32,27,,,,,,6.6,1.6,6.2*3C
2017-12-14 12:10:56 1513271456.197662: $GPGBS,171057,24.66,M,21.80,M,143.40,M*34
