2017-11-15 19:02:40 1510790560.186598: {"class":"VERSION","release":"3.17","rev":"3.17","proto_major":3,"proto_minor":12}
2017-11-15 19:02:40 1510790560.187137: {"class":"DEVICES","devices":[{"class":"DEVICE","path":"/dev/ttyUSB0","driver":"SiRF","subtype":"9\u0006GSD4e_4.1.2-P1_RPATCH.05-F-GPS-4R-1510281 11/03/2015 307","activated":"2017-11-16T00:02:40.170Z","flags":1,"native":1,"bps":4800,"parity":"N","stopbits":1,"cycle":1.00}]}
2017-11-15 19:02:40 1510790560.187256: {"class":"WATCH","enable":true,"json":false,"nmea":true,"raw":0,"scaled":false,"timing":false,"split24":false,"pps":false}
2017-11-15 19:02:40 1510790560.347568: $GPZDA,000239.00,16,11,2017,00,00*6D
2017-11-15 19:02:40 1510790560.347730: $GPGGA,000239,3946.9626,N,08404.9500,W,1,09,0.80,304.54,M,-33.324,M,,*70
2017-11-15 19:02:40 1510790560.347793: $GPRMC,000239,A,3946.9626,N,08404.9500,W,0.2422,273.794,161117,,*3B
2017-11-15 19:02:40 1510790560.347849: $GPGSA,A,3,32,14,3,26,31,16,22,25,29,,,,3.4,0.8,2.9*0C
2017-11-15 19:02:41 1510790561.347578: $GPZDA,000240.00,16,11,2017,00,00*63
2017-11-15 19:02:41 1510790561.347752: $GPGGA,000240,3946.9626,N,08404.9500,W,1,09,0.80,304.54,M,-33.324,M,,*7E
2017-11-15 19:02:41 1510790561.347818: $GPRMC,000240,A,3946.9626,N,08404.9500,W,0.2422,93.794,161117,,*09
2017-11-15 19:02:41 1510790561.347879: $GPGSA,A,3,32,14,3,26,31,16,22,25,29,,,,3.4,0.8,2.9*0C
2017-11-15 19:02:42 1510790562.682080: $GPGSV,3,1,11,32,46,096,21,14,63,072,26,03,31,309,22,26,39,175,12*70
2017-11-15 19:02:42 1510790562.682256: $GPGSV,3,2,11,31,77,352,25,16,10,190,12,22,47,289,21,25,27,046,10*76
2017-11-15 19:02:42 1510790562.682316: $GPGSV,3,3,11,29,06,082,12,01,12,262,08,10,09,159,00*44
2017-11-15 19:02:42 1510790562.795378: $GPZDA,000241.00,16,11,2017,00,00*62
2017-11-15 19:02:42 1510790562.795528: $GPGGA,000241,3946.9626,N,08404.9499,W,1,09,0.80,303.13,M,-33.324,M,,*7A
2017-11-15 19:02:42 1510790562.795591: $GPRMC,000241,A,3946.9626,N,08404.9499,W,0.4179,148.778,161117,,*31
2017-11-15 19:02:42 1510790562.795647: $GPGSA,A,3,32,14,3,26,31,16,22,25,29,,,,3.4,0.8,2.9*0C
2017-11-15 19:02:43 1510790563.347576: $GPZDA,000242.00,16,11,2017,00,00*61
2017-11-15 19:02:43 1510790563.347749: $GPGGA,000242,3946.9626,N,08404.9499,W,1,09,0.80,303.13,M,-33.324,M,,*79
2017-11-15 19:02:43 1510790563.347814: $GPRMC,000242,A,3946.9626,N,08404.9499,W,0.3155,129.994,161117,,*30
2017-11-15 19:02:43 1510790563.347874: $GPGSA,A,3,32,14,3,26,31,16,22,25,29,,,,3.4,0.8,2.9*0C
2017-11-15 19:02:44 1510790564.348433: $GPZDA,000243.00,16,11,2017,00,00*60
2017-11-15 19:02:44 1510790564.348604: $GPGGA,000243,3946.9626,N,08404.9499,W,1,09,0.80,303.13,M,-33.324,M,,*78
2017-11-15 19:02:44 1510790564.348668: $GPRMC,000243,A,3946.9626,N,08404.9499,W,0.5912,129.173,161117,,*3D
2017-11-15 19:02:44 1510790564.348726: $GPGSA,A,3,32,14,3,26,31,16,22,25,29,,,,3.4,0.8,2.9*0C
2017-11-15 19:02:45 1510790565.684299: $GPGSV,3,1,11,32,46,096,21,14,63,072,26,03,31,309,22,26,39,175,12*70
2017-11-15 19:02:45 1510790565.684473: $GPGSV,3,2,11,31,77,352,25,16,10,190,12,22,47,289,21,25,27,046,09*7E
2017-11-15 19:02:45 1510790565.684532: $GPGSV,3,3,11,29,06,082,04,01,12,262,10,10,09,159,00*4A
2017-11-15 19:02:45 1510790565.797665: $GPZDA,000244.00,16,11,2017,00,00*67
2017-11-15 19:02:45 1510790565.797829: $GPGGA,000244,3946.9626,N,08404.9499,W,1,09,0.80,303.13,M,-33.324,M,,*7F
2017-11-15 19:02:45 1510790565.797894: $GPRMC,000244,A,3946.9626,N,08404.9499,W,0.8011,119.090,161117,,*32
2017-11-15 19:02:45 1510790565.797951: $GPGSA,A,3,32,14,3,26,31,16,22,25,1,,,,3.4,0.8,2.9*36
2017-11-15 19:02:46 1510790566.423136: $GPZDA,000245.00,16,11,2017,00,00*66
2017-11-15 19:02:46 1510790566.423305: $GPGGA,000245,3946.9621,N,08404.9492,W,1,09,0.80,302.57,M,-33.324,M,,*73
2017-11-15 19:02:46 1510790566.423366: $GPRMC,000245,A,3946.9621,N,08404.9492,W,0.9066,129.458,161117,,*3D
2017-11-15 19:02:46 1510790566.423422: $GPGSA,A,3,32,14,3,26,31,16,22,25,1,,,,3.4,0.8,2.9*36
2017-11-15 19:02:47 1510790567.347836: $GPZDA,000246.00,16,11,2017,00,00*65
2017-11-15 19:02:47 1510790567.348024: $GPGGA,000246,3946.9621,N,08404.9492,W,1,09,0.80,302.57,M,-33.324,M,,*70
2017-11-15 19:02:47 1510790567.348149: $GPRMC,000246,A,3946.9621,N,08404.9492,W,0.7238,140.710,161117,,*39
2017-11-15 19:02:47 1510790567.348209: $GPGSA,A,3,32,14,3,26,31,16,22,25,1,,,,3.4,0.8,2.9*36
2017-11-15 19:02:48 1510790568.667233: $GPGSV,3,1,11,32,46,096,20,14,63,072,26,03,31,309,22,26,39,175,12*71
2017-11-15 19:02:48 1510790568.667404: $GPGSV,3,2,11,31,77,352,25,16,10,190,10,22,47,289,21,25,27,046,08*7D
2017-11-15 19:02:48 1510790568.667464: $GPGSV,3,3,11,29,06,082,04,01,12,262,10,10,09,159,00*4A
2017-11-15 19:02:48 1510790568.780796: $GPZDA,000247.00,16,11,2017,00,00*64
2017-11-15 19:02:48 1510790568.780988: $GPGGA,000247,3946.9618,N,08404.9493,W,1,09,0.80,303.34,M,-33.324,M,,*7E
2017-11-15 19:02:48 1510790568.781050: $GPRMC,000247,A,3946.9618,N,08404.9493,W,0.8359,148.778,161117,,*3C
2017-11-15 19:02:48 1510790568.781107: $GPGSA,A,3,32,14,3,26,31,16,22,25,1,,,,3.4,0.8,2.9*36
2017-11-15 19:02:49 1510790569.859071: $GPZDA,000248.00,16,11,2017,00,00*6B
2017-11-15 19:02:49 1510790569.859230: $GPGGA,000248,3946.9613,N,08404.9493,W,1,09,1.40,302.70,M,-33.324,M,,*76
2017-11-15 19:02:49 1510790569.859290: $GPRMC,000248,A,3946.9613,N,08404.9493,W,0.5287,182.716,161117,,*39
2017-11-15 19:02:49 1510790569.859347: $GPGSA,A,3,32,14,3,26,31,16,22,25,1,,,,3.4,1.4,2.9*3B
