2018-01-11 20:10:01 1515719401.970841: {"class":"VERSION","release":"3.16","rev":"3.16-4","proto_major":3,"proto_minor":11}
2018-01-11 20:10:01 1515719401.971191: {"class":"DEVICES","devices":[{"class":"DEVICE","path":"/dev/ttyUSB0","driver":"SiRF","subtype":"9\u0006GSD4e_4.1.2-P1_RPATCH.05-F-GPS-4R-1510281 11/03/2015 307","activated":"2018-01-12T01:10:01.516Z","flags":1,"native":1,"bps":4800,"parity":"N","stopbits":1,"cycle":1.00}]}
2018-01-11 20:10:01 1515719401.971306: {"class":"WATCH","enable":true,"json":false,"nmea":true,"raw":0,"scaled":false,"timing":false,"split24":false,"pps":false}
2018-01-11 20:10:02 1515719402.354969: $GPZDA,011003.00,12,01,2018,00,00*6C
2018-01-11 20:10:02 1515719402.355136: $GPGGA,011003,3946.9581,N,08404.9839,W,2,10,0.80,298.92,M,-33.324,M,,*77
2018-01-11 20:10:02 1515719402.355202: $GPRMC,011003,A,3946.9581,N,08404.9839,W,0.0000,0.000,120118,,*39
2018-01-11 20:10:02 1515719402.355262: $GPGSA,A,3,7,8,9,11,16,23,27,28,30,138,,,4.0,0.8,3.5*3E
2018-01-11 20:10:02 1515719402.355319: $GPGBS,011003,3.65,M,6.21,M,20.10,M*0B
2018-01-11 20:10:03 1515719403.688522: $GPGSV,3,1,10,07,55,315,13,08,73,133,14,09,48,229,13,11,20,168,14*76
2018-01-11 20:10:03 1515719403.688682: $GPGSV,3,2,10,16,23,060,14,23,29,190,14,27,48,054,15,28,14,258,11*77
2018-01-11 20:10:03 1515719403.688748: $GPGSV,3,3,10,30,29,306,08,138,38,213,16*4B
2018-01-11 20:10:03 1515719403.801919: $GPZDA,011004.00,12,01,2018,00,00*6B
2018-01-11 20:10:03 1515719403.802062: $GPGGA,011004,3946.9581,N,08404.9839,W,2,10,0.80,298.92,M,-33.324,M,,*70
2018-01-11 20:10:03 1515719403.802127: $GPRMC,011004,A,3946.9581,N,08404.9839,W,0.2422,93.794,120118,,*08
2018-01-11 20:10:03 1515719403.802187: $GPGSA,A,3,7,8,9,11,16,23,27,28,30,138,,,4.0,0.8,3.5*3E
2018-01-11 20:10:04 1515719404.351534: $GPZDA,011005.00,12,01,2018,00,00*6A
2018-01-11 20:10:04 1515719404.351694: $GPGGA,011005,3946.9581,N,08404.9839,W,2,10,0.80,298.92,M,-33.324,M,,*71
2018-01-11 20:10:04 1515719404.351759: $GPRMC,011005,A,3946.9581,N,08404.9839,W,0.0000,0.000,120118,,*3F
2018-01-11 20:10:04 1515719404.351820: $GPGSA,A,3,7,8,9,11,16,23,27,28,30,138,,,4.0,0.8,3.5*3E
2018-01-11 20:10:05 1515719405.351177: $GPZDA,011006.00,12,01,2018,00,00*69
2018-01-11 20:10:05 1515719405.351336: $GPGGA,011006,3946.9582,N,08404.9839,W,2,10,0.80,300.33,M,-33.324,M,,*7A
2018-01-11 20:10:05 1515719405.351402: $GPRMC,011006,A,3946.9582,N,08404.9839,W,0.0000,0.000,120118,,*3F
2018-01-11 20:10:05 1515719405.351463: $GPGSA,A,3,7,8,9,11,16,23,27,28,30,138,,,4.0,0.8,3.5*3E
2018-01-11 20:10:06 1515719406.686894: $GPGSV,3,1,10,07,55,315,43,08,73,133,45,09,48,229,42,11,20,168,47*75
2018-01-11 20:10:06 1515719406.687046: $GPGSV,3,2,10,16,23,060,46,23,29,190,47,27,48,054,49,28,14,258,39*75
2018-01-11 20:10:06 1515719406.687111: $GPGSV,3,3,10,30,29,306,29,138,38,213,45*4E
2018-01-11 20:10:06 1515719406.800260: $GPZDA,011007.00,12,01,2018,00,00*68
2018-01-11 20:10:06 1515719406.800386: $GPGGA,011007,3946.9582,N,08404.9839,W,2,10,0.80,300.33,M,-33.324,M,,*7B
2018-01-11 20:10:06 1515719406.800450: $GPRMC,011007,A,3946.9582,N,08404.9839,W,0.0000,0.000,120118,,*3E
2018-01-11 20:10:06 1515719406.800510: $GPGSA,A,3,7,8,9,11,16,23,27,28,30,138,,,4.0,0.8,3.5*3E
2018-01-11 20:10:07 1515719407.354022: $GPZDA,011008.00,12,01,2018,00,00*67
2018-01-11 20:10:07 1515719407.354172: $GPGGA,011008,3946.9582,N,08404.9839,W,2,10,1.00,300.33,M,-33.324,M,,*7D
2018-01-11 20:10:07 1515719407.354235: $GPRMC,011008,A,3946.9582,N,08404.9839,W,0.0000,0.000,120118,,*31
2018-01-11 20:10:07 1515719407.354296: $GPGSA,A,3,7,8,9,11,16,23,27,28,30,138,,,4.0,1.0,3.5*37
2018-01-11 20:10:08 1515719408.354065: $GPZDA,011009.00,12,01,2018,00,00*66
2018-01-11 20:10:08 1515719408.354230: $GPGGA,011009,3946.9582,N,08404.9839,W,2,10,0.80,300.33,M,-33.324,M,,*75
2018-01-11 20:10:08 1515719408.354295: $GPRMC,011009,A,3946.9582,N,08404.9839,W,0.0000,0.000,120118,,*30
2018-01-11 20:10:08 1515719408.354356: $GPGSA,A,3,7,8,9,11,16,23,27,28,30,138,,,4.0,0.8,3.5*3E
2018-01-11 20:10:09 1515719409.688487: $GPGSV,3,1,10,07,55,315,44,08,73,133,45,09,48,229,42,11,20,168,47*72
2018-01-11 20:10:09 1515719409.688704: $GPGSV,3,2,10,16,23,060,46,23,29,190,46,27,48,054,49,28,14,258,39*74
2018-01-11 20:10:09 1515719409.688772: $GPGSV,3,3,10,30,29,306,29,138,38,213,45*4E
2018-01-11 20:10:09 1515719409.801944: $GPZDA,011010.00,12,01,2018,00,00*6E
2018-01-11 20:10:09 1515719409.802068: $GPGGA,011010,3946.9582,N,08404.9839,W,2,10,0.80,300.33,M,-33.324,M,,*7D
2018-01-11 20:10:09 1515719409.802133: $GPRMC,011010,A,3946.9582,N,08404.9839,W,0.0000,0.000,120118,,*38
2018-01-11 20:10:09 1515719409.802193: $GPGSA,A,3,7,8,9,11,16,23,27,28,30,138,,,4.0,0.8,3.5*3E
2018-01-11 20:10:10 1515719410.352799: $GPZDA,011011.00,12,01,2018,00,00*6F
2018-01-11 20:10:10 1515719410.352959: $GPGGA,011011,3946.9581,N,08404.9839,W,2,10,0.80,298.92,M,-33.324,M,,*74
2018-01-11 20:10:10 1515719410.353024: $GPRMC,011011,A,3946.9581,N,08404.9839,W,0.0000,0.000,120118,,*3A
2018-01-11 20:10:10 1515719410.353085: $GPGSA,A,3,7,8,9,11,16,23,27,28,30,138,,,4.0,0.8,3.5*3E
2018-01-11 20:10:11 1515719411.354971: $GPZDA,011012.00,12,01,2018,00,00*6C
2018-01-11 20:10:11 1515719411.355146: $GPGGA,011012,3946.9581,N,08404.9839,W,2,10,0.80,298.92,M,-33.324,M,,*77
2018-01-11 20:10:11 1515719411.355214: $GPRMC,011012,A,3946.9581,N,08404.9839,W,0.0000,0.000,120118,,*39
2018-01-11 20:10:11 1515719411.355274: $GPGSA,A,3,7,8,9,11,16,23,27,28,30,138,,,4.0,0.8,3.5*3E
2018-01-11 20:10:12 1515719412.688105: $GPGSV,3,1,10,07,55,315,44,08,73,133,46,09,48,229,42,11,20,168,47*71
2018-01-11 20:10:12 1515719412.688259: $GPGSV,3,2,10,16,23,060,46,23,29,190,46,27,48,054,49,28,14,258,39*74
2018-01-11 20:10:12 1515719412.688326: $GPGSV,3,3,10,30,29,306,14,138,38,213,45*40
2018-01-11 20:10:12 1515719412.801816: $GPZDA,011013.00,12,01,2018,00,00*6D
2018-01-11 20:10:12 1515719412.801938: $GPGGA,011013,3946.9581,N,08404.9839,W,2,10,0.80,298.92,M,-33.324,M,,*76
2018-01-11 20:10:12 1515719412.802001: $GPRMC,011013,A,3946.9581,N,08404.9839,W,0.0000,0.000,120118,,*38
2018-01-11 20:10:12 1515719412.802061: $GPGSA,A,3,7,8,9,11,16,23,27,28,30,138,,,4.0,0.8,3.5*3E
