2017-11-16 16:46:28 1510868788.311699: {"class":"VERSION","release":"3.17","rev":"3.17","proto_major":3,"proto_minor":12}
2017-11-16 16:46:28 1510868788.312171: {"class":"DEVICES","devices":[{"class":"DEVICE","path":"/dev/ttyUSB0","driver":"SiRF","subtype":"9\u0006GSD4e_4.1.2-P1_RPATCH.05-F-GPS-4R-1510281 11/03/2015 307","activated":"2017-11-16T21:46:28.262Z","flags":1,"native":1,"bps":4800,"parity":"N","stopbits":1,"cycle":1.00}]}
2017-11-16 16:46:28 1510868788.312301: {"class":"WATCH","enable":true,"json":false,"nmea":true,"raw":0,"scaled":false,"timing":false,"split24":false,"pps":false}
2017-11-16 16:46:28 1510868788.439376: $GPZDA,214627.00,16,11,2017,00,00*61
2017-11-16 16:46:28 1510868788.439541: $GPGGA,214627,3946.9580,N,08404.9815,W,2,12,0.80,307.02,M,-33.324,M,,*73
2017-11-16 16:46:28 1510868788.439603: $GPRMC,214627,A,3946.9580,N,08404.9815,W,0.0000,0.000,161117,,*3B
2017-11-16 16:46:28 1510868788.439659: $GPGSA,A,3,1,10,11,12,14,18,24,25,31,32,22,138,1.6,0.8,1.3*38
2017-11-16 16:46:29 1510868789.780198: $GPGSV,3,1,12,01,14,318,39,10,70,132,49,11,11,301,33,12,25,072,47*77
2017-11-16 16:46:29 1510868789.780359: $GPGSV,3,2,12,14,55,292,45,18,38,135,44,24,14,045,45,25,29,114,42*7E
2017-11-16 16:46:29 1510868789.780419: $GPGSV,3,3,12,31,34,211,46,32,68,328,51,22,02,310,33,138,38,213,44*4C
2017-11-16 16:46:29 1510868789.893514: $GPZDA,214628.00,16,11,2017,00,00*6E
2017-11-16 16:46:29 1510868789.893674: $GPGGA,214628,3946.9580,N,08404.9815,W,2,12,0.80,307.02,M,-33.324,M,,*7C
2017-11-16 16:46:29 1510868789.893735: $GPRMC,214628,A,3946.9580,N,08404.9815,W,0.0000,0.000,161117,,*34
2017-11-16 16:46:29 1510868789.893791: $GPGSA,A,3,1,10,11,12,14,18,24,25,31,32,22,138,1.6,0.8,1.3*38
2017-11-16 16:46:30 1510868790.445917: $GPZDA,214629.00,16,11,2017,00,00*6F
2017-11-16 16:46:30 1510868790.446098: $GPGGA,214629,3946.9580,N,08404.9815,W,2,12,0.80,307.02,M,-33.324,M,,*7D
2017-11-16 16:46:30 1510868790.446161: $GPRMC,214629,A,3946.9580,N,08404.9815,W,0.0000,0.000,161117,,*35
2017-11-16 16:46:30 1510868790.446235: $GPGSA,A,3,1,10,11,12,14,18,24,25,31,32,22,138,1.6,0.8,1.3*38
2017-11-16 16:46:31 1510868791.446299: $GPZDA,214630.00,16,11,2017,00,00*67
2017-11-16 16:46:31 1510868791.446476: $GPGGA,214630,3946.9580,N,08404.9815,W,2,12,0.80,307.02,M,-33.324,M,,*75
2017-11-16 16:46:31 1510868791.446538: $GPRMC,214630,A,3946.9580,N,08404.9815,W,0.0000,0.000,161117,,*3D
2017-11-16 16:46:31 1510868791.446594: $GPGSA,A,3,1,10,11,12,14,18,24,25,31,32,22,138,1.6,0.8,1.3*38
2017-11-16 16:46:32 1510868792.780531: $GPGSV,3,1,12,01,14,318,39,10,70,132,49,11,11,301,34,12,25,072,47*70
2017-11-16 16:46:32 1510868792.780693: $GPGSV,3,2,12,14,55,292,45,18,38,135,44,24,14,045,45,25,29,114,42*7E
2017-11-16 16:46:32 1510868792.780753: $GPGSV,3,3,12,31,34,211,46,32,68,328,51,22,02,310,32,138,38,213,44*4D
2017-11-16 16:46:32 1510868792.893939: $GPZDA,214631.00,16,11,2017,00,00*66
2017-11-16 16:46:32 1510868792.894352: $GPGGA,214631,3946.9580,N,08404.9815,W,2,12,0.80,307.02,M,-33.324,M,,*74
2017-11-16 16:46:32 1510868792.894474: $GPRMC,214631,A,3946.9580,N,08404.9815,W,0.0000,0.000,161117,,*3C
2017-11-16 16:46:32 1510868792.894572: $GPGSA,A,3,1,10,11,12,14,18,24,25,31,32,22,138,1.6,0.8,1.3*38
2017-11-16 16:46:33 1510868793.443478: $GPZDA,214632.00,16,11,2017,00,00*65
2017-11-16 16:46:33 1510868793.443645: $GPGGA,214632,3946.9580,N,08404.9815,W,2,12,0.80,307.02,M,-33.324,M,,*77
2017-11-16 16:46:33 1510868793.443726: $GPRMC,214632,A,3946.9580,N,08404.9815,W,0.0000,0.000,161117,,*3F
2017-11-16 16:46:33 1510868793.443783: $GPGSA,A,3,1,10,11,12,14,18,24,25,31,32,22,138,1.6,0.8,1.3*38
2017-11-16 16:46:34 1510868794.444338: $GPZDA,214633.00,16,11,2017,00,00*64
2017-11-16 16:46:34 1510868794.444537: $GPGGA,214633,3946.9580,N,08404.9815,W,2,12,0.80,307.02,M,-33.324,M,,*76
2017-11-16 16:46:34 1510868794.444602: $GPRMC,214633,A,3946.9580,N,08404.9815,W,0.0000,0.000,161117,,*3E
2017-11-16 16:46:34 1510868794.444659: $GPGSA,A,3,1,10,11,12,14,18,24,25,31,32,22,138,1.6,0.8,1.3*38
2017-11-16 16:46:35 1510868795.781431: $GPGSV,3,1,12,01,14,318,39,10,70,132,49,11,11,301,34,12,25,072,46*71
2017-11-16 16:46:35 1510868795.781684: $GPGSV,3,2,12,14,55,292,45,18,38,135,44,24,14,045,45,25,29,114,42*7E
2017-11-16 16:46:35 1510868795.781749: $GPGSV,3,3,12,31,34,211,45,32,68,328,51,22,02,310,32,138,38,213,44*4E
2017-11-16 16:46:35 1510868795.894982: $GPZDA,214634.00,16,11,2017,00,00*63
2017-11-16 16:46:35 1510868795.895182: $GPGGA,214634,3946.9580,N,08404.9815,W,2,12,0.80,307.02,M,-33.324,M,,*71
2017-11-16 16:46:35 1510868795.895275: $GPRMC,214634,A,3946.9580,N,08404.9815,W,0.0000,0.000,161117,,*39
2017-11-16 16:46:35 1510868795.895334: $GPGSA,A,3,1,10,11,12,14,18,24,25,31,32,22,138,1.6,0.8,1.3*38
2017-11-16 16:46:36 1510868796.520535: $GPZDA,214635.00,16,11,2017,00,00*62
2017-11-16 16:46:36 1510868796.520706: $GPGGA,214635,3946.9580,N,08404.9815,W,2,12,0.80,307.02,M,-33.324,M,,*70
2017-11-16 16:46:36 1510868796.520789: $GPRMC,214635,A,3946.9580,N,08404.9815,W,0.0000,0.000,161117,,*38
2017-11-16 16:46:36 1510868796.520847: $GPGSA,A,3,1,10,11,12,14,18,24,25,31,32,22,138,1.6,0.8,1.3*38
2017-11-16 16:46:37 1510868797.443539: $GPZDA,214636.00,16,11,2017,00,00*61
2017-11-16 16:46:37 1510868797.443709: $GPGGA,214636,3946.9580,N,08404.9815,W,2,12,0.80,307.02,M,-33.324,M,,*73
2017-11-16 16:46:37 1510868797.443770: $GPRMC,214636,A,3946.9580,N,08404.9815,W,0.0000,0.000,161117,,*3B
2017-11-16 16:46:37 1510868797.443827: $GPGSA,A,3,1,10,11,12,14,18,24,25,31,32,22,138,1.6,0.8,1.3*38
