2017-12-31 18:50:12 1514764212.608962: {"class":"VERSION","release":"3.16","rev":"3.16-4","proto_major":3,"proto_minor":11}
2017-12-31 18:50:12 1514764212.609330: {"class":"DEVICES","devices":[{"class":"DEVICE","path":"/dev/ttyUSB0","driver":"SiRF","activated":"2017-12-31T23:50:12.233Z","flags":1,"native":1,"bps":4800,"parity":"N","stopbits":1,"cycle":1.00}]}
2017-12-31 18:50:12 1514764212.609429: {"class":"WATCH","enable":true,"json":false,"nmea":true,"raw":0,"scaled":false,"timing":false,"split24":false,"pps":false}
2017-12-31 18:50:12 1514764212.683137: $GPGSV,3,1,11,22,08,204,24,23,68,282,40,09,36,310,44,03,18,220,38*7F
2017-12-31 18:50:12 1514764212.683315: $GPGSV,3,2,11,16,77,036,44,08,16,175,35,31,16,088,29,27,39,144,40*74
2017-12-31 18:50:12 1514764212.683381: $GPGSV,3,3,11,07,10,285,48,26,45,048,44,135,22,240,43*73
2017-12-31 18:50:12 1514764212.796793: $GPZDA,235013.00,31,12,2017,00,00*65
2017-12-31 18:50:12 1514764212.796954: $GPGGA,235013,3946.9574,N,08404.9844,W,2,11,0.80,306.83,M,-33.324,M,,*75
2017-12-31 18:50:12 1514764212.797048: $GPRMC,235013,A,3946.9574,N,08404.9844,W,0.0000,0.000,311217,,*30
2017-12-31 18:50:12 1514764212.797166: $GPGSA,A,3,22,23,9,3,16,8,31,27,7,26,135,,1.7,0.8,1.3*09
2017-12-31 18:50:13 1514764213.347694: $GPZDA,235014.00,31,12,2017,00,00*62
2017-12-31 18:50:13 1514764213.347860: $GPGGA,235014,3946.9574,N,08404.9844,W,2,11,0.80,306.83,M,-33.324,M,,*72
2017-12-31 18:50:13 1514764213.347927: $GPRMC,235014,A,3946.9574,N,08404.9844,W,0.0000,0.000,311217,,*37
2017-12-31 18:50:13 1514764213.348006: $GPGSA,A,3,22,23,9,3,16,8,31,27,7,26,135,,1.7,0.8,1.3*09
2017-12-31 18:50:14 1514764214.353579: $GPZDA,235015.00,31,12,2017,00,00*63
2017-12-31 18:50:14 1514764214.353740: $GPGGA,235015,3946.9574,N,08404.9844,W,2,11,0.80,306.83,M,-33.324,M,,*73
2017-12-31 18:50:14 1514764214.353807: $GPRMC,235015,A,3946.9574,N,08404.9844,W,0.0000,0.000,311217,,*36
2017-12-31 18:50:14 1514764214.353893: $GPGSA,A,3,22,23,9,3,16,8,31,27,7,26,135,,1.7,0.8,1.3*09
2017-12-31 18:50:15 1514764215.688510: $GPGSV,3,1,11,22,08,204,23,23,68,282,40,09,36,310,44,03,18,220,39*79
2017-12-31 18:50:15 1514764215.688687: $GPGSV,3,2,11,16,77,036,43,08,16,175,35,31,16,088,30,27,39,144,41*7A
2017-12-31 18:50:15 1514764215.688753: $GPGSV,3,3,11,07,10,285,48,26,45,048,44,135,22,240,42*72
2017-12-31 18:50:15 1514764215.802170: $GPZDA,235016.00,31,12,2017,00,00*60
2017-12-31 18:50:15 1514764215.802308: $GPGGA,235016,3946.9574,N,08404.9844,W,2,11,0.80,306.83,M,-33.324,M,,*70
2017-12-31 18:50:15 1514764215.802373: $GPRMC,235016,A,3946.9574,N,08404.9844,W,0.0000,0.000,311217,,*35
2017-12-31 18:50:15 1514764215.802434: $GPGSA,A,3,22,23,9,3,16,8,31,27,7,26,135,,1.7,0.8,1.3*09
2017-12-31 18:50:16 1514764216.353048: $GPZDA,235017.00,31,12,2017,00,00*61
2017-12-31 18:50:16 1514764216.353219: $GPGGA,235017,3946.9574,N,08404.9844,W,2,11,0.80,306.83,M,-33.324,M,,*71
2017-12-31 18:50:16 1514764216.353286: $GPRMC,235017,A,3946.9574,N,08404.9844,W,0.0000,0.000,311217,,*34
2017-12-31 18:50:16 1514764216.353347: $GPGSA,A,3,22,23,9,3,16,8,31,27,7,26,135,,1.7,0.8,1.3*09
2017-12-31 18:50:17 1514764217.352392: $GPZDA,235018.00,31,12,2017,00,00*6E
2017-12-31 18:50:17 1514764217.352555: $GPGGA,235018,3946.9574,N,08404.9844,W,2,11,0.80,306.83,M,-33.324,M,,*7E
2017-12-31 18:50:17 1514764217.352622: $GPRMC,235018,A,3946.9574,N,08404.9844,W,0.0000,0.000,311217,,*3B
2017-12-31 18:50:17 1514764217.352682: $GPGSA,A,3,22,23,9,3,16,8,31,27,7,26,135,,1.7,0.8,1.3*09
2017-12-31 18:50:18 1514764218.689348: $GPGSV,3,1,11,22,08,204,24,23,68,282,39,09,36,310,43,03,18,220,39*77
2017-12-31 18:50:18 1514764218.689528: $GPGSV,3,2,11,16,77,036,44,08,16,175,35,31,16,088,29,27,39,144,40*74
2017-12-31 18:50:18 1514764218.689594: $GPGSV,3,3,11,07,10,285,49,26,45,048,44,135,22,240,43*72
2017-12-31 18:50:18 1514764218.802983: $GPZDA,235019.00,31,12,2017,00,00*6F
2017-12-31 18:50:18 1514764218.803126: $GPGGA,235019,3946.9574,N,08404.9844,W,2,11,0.80,306.83,M,-33.324,M,,*7F
2017-12-31 18:50:18 1514764218.803192: $GPRMC,235019,A,3946.9574,N,08404.9844,W,0.0000,0.000,311217,,*3A
2017-12-31 18:50:18 1514764218.803306: $GPGSA,A,3,22,23,9,3,16,8,31,27,7,26,135,,1.7,0.8,1.3*09
2017-12-31 18:50:19 1514764219.353604: $GPZDA,235020.00,31,12,2017,00,00*65
2017-12-31 18:50:19 1514764219.353769: $GPGGA,235020,3946.9574,N,08404.9844,W,2,11,0.80,306.83,M,-33.324,M,,*75
2017-12-31 18:50:19 1514764219.353862: $GPRMC,235020,A,3946.9574,N,08404.9844,W,0.0000,0.000,311217,,*30
2017-12-31 18:50:19 1514764219.353943: $GPGSA,A,3,22,23,9,3,16,8,31,27,7,26,135,,1.7,0.8,1.3*09
2017-12-31 18:50:20 1514764220.352735: $GPZDA,235021.00,31,12,2017,00,00*64
2017-12-31 18:50:20 1514764220.352953: $GPGGA,235021,3946.9574,N,08404.9844,W,2,11,0.80,306.83,M,-33.324,M,,*74
2017-12-31 18:50:20 1514764220.353022: $GPRMC,235021,A,3946.9574,N,08404.9844,W,0.0000,0.000,311217,,*31
2017-12-31 18:50:20 1514764220.353082: $GPGSA,A,3,22,23,9,3,16,8,31,27,7,26,135,,1.7,0.8,1.3*09
2017-12-31 18:50:21 1514764221.688448: $GPGSV,3,1,11,22,08,204,24,23,68,282,39,09,36,310,43,03,18,220,38*76
2017-12-31 18:50:21 1514764221.688638: $GPGSV,3,2,11,16,77,036,43,08,16,175,36,31,16,088,29,27,39,144,41*71
2017-12-31 18:50:21 1514764221.688705: $GPGSV,3,3,11,07,10,285,49,26,45,048,44,135,22,240,44*75
2017-12-31 18:50:21 1514764221.801826: $GPZDA,235022.00,31,12,2017,00,00*67
2017-12-31 18:50:21 1514764221.801997: $GPGGA,235022,3946.9574,N,08404.9844,W,2,11,0.80,306.83,M,-33.324,M,,*77
2017-12-31 18:50:21 1514764221.802065: $GPRMC,235022,A,3946.9574,N,08404.9844,W,0.0000,0.000,311217,,*32
2017-12-31 18:50:21 1514764221.802126: $GPGSA,A,3,22,23,9,3,16,8,31,27,7,26,135,,1.7,0.8,1.3*09
2017-12-31 18:50:22 1514764222.352698: $GPZDA,235023.00,31,12,2017,00,00*66
2017-12-31 18:50:22 1514764222.352878: $GPGGA,235023,3946.9574,N,08404.9844,W,2,11,0.80,306.83,M,-33.324,M,,*76
2017-12-31 18:50:22 1514764222.352966: $GPRMC,235023,A,3946.9574,N,08404.9844,W,0.0000,0.000,311217,,*33
2017-12-31 18:50:22 1514764222.353027: $GPGSA,A,3,22,23,9,3,16,8,31,27,7,26,135,,1.7,0.8,1.3*09
