2018-01-11 20:14:47 1515719687.316489: {"class":"VERSION","release":"3.16","rev":"3.16-4","proto_major":3,"proto_minor":11}
2018-01-11 20:14:47 1515719687.316825: {"class":"DEVICES","devices":[{"class":"DEVICE","path":"/dev/ttyUSB0","driver":"SiRF","subtype":"9\u0006GSD4e_4.1.2-P1_RPATCH.05-F-GPS-4R-1510281 11/03/2015 307","activated":"2018-01-12T01:14:47.234Z","flags":1,"native":1,"bps":4800,"parity":"N","stopbits":1,"cycle":1.00}]}
2018-01-11 20:14:47 1515719687.316939: {"class":"WATCH","enable":true,"json":false,"nmea":true,"raw":0,"scaled":false,"timing":false,"split24":false,"pps":false}
2018-01-11 20:14:47 1515719687.684127: $GPGSV,3,1,10,07,57,315,41,08,74,124,46,09,46,228,42,11,21,166,46*76
2018-01-11 20:14:47 1515719687.684310: $GPGSV,3,2,10,16,22,061,44,23,27,189,48,27,46,052,50,28,15,259,37*70
2018-01-11 20:14:47 1515719687.684375: $GPGSV,3,3,10,30,30,306,32,138,38,213,45*4C
2018-01-11 20:14:47 1515719687.797455: $GPZDA,011448.00,12,01,2018,00,00*67
2018-01-11 20:14:47 1515719687.797578: $GPGGA,011448,3946.9603,N,08404.9849,W,2,10,0.80,295.58,M,-33.324,M,,*79
2018-01-11 20:14:47 1515719687.797641: $GPRMC,011448,A,3946.9603,N,08404.9849,W,0.0000,0.000,120118,,*3C
2018-01-11 20:14:47 1515719687.797701: $GPGSA,A,3,7,8,9,11,16,23,27,28,30,138,,,4.0,0.8,3.5*3E
2018-01-11 20:14:48 1515719688.348621: $GPZDA,011449.00,12,01,2018,00,00*66
2018-01-11 20:14:48 1515719688.348783: $GPGGA,011449,3946.9603,N,08404.9849,W,2,10,0.80,295.58,M,-33.324,M,,*78
2018-01-11 20:14:48 1515719688.348847: $GPRMC,011449,A,3946.9603,N,08404.9849,W,0.0000,0.000,120118,,*3D
2018-01-11 20:14:48 1515719688.348907: $GPGSA,A,3,7,8,9,11,16,23,27,28,30,138,,,4.0,0.8,3.5*3E
2018-01-11 20:14:49 1515719689.349541: $GPZDA,011450.00,12,01,2018,00,00*6E
2018-01-11 20:14:49 1515719689.349710: $GPGGA,011450,3946.9603,N,08404.9862,W,2,10,0.80,294.02,M,-33.324,M,,*77
2018-01-11 20:14:49 1515719689.349776: $GPRMC,011450,A,3946.9603,N,08404.9862,W,0.2422,273.794,120118,,*36
2018-01-11 20:14:49 1515719689.349837: $GPGSA,A,3,7,8,9,11,16,23,27,28,30,138,,,4.0,0.8,3.5*3E
2018-01-11 20:14:50 1515719690.683718: $GPGSV,3,1,10,07,57,315,40,08,74,124,46,09,46,228,42,11,21,166,46*77
2018-01-11 20:14:50 1515719690.683879: $GPGSV,3,2,10,16,22,061,44,23,27,189,48,27,46,052,50,28,15,259,37*70
2018-01-11 20:14:50 1515719690.683944: $GPGSV,3,3,10,30,30,306,33,138,38,213,45*4D
2018-01-11 20:14:50 1515719690.796260: $GPZDA,011451.00,12,01,2018,00,00*6F
2018-01-11 20:14:50 1515719690.796404: $GPGGA,011451,3946.9603,N,08404.9862,W,2,10,0.80,294.02,M,-33.324,M,,*76
2018-01-11 20:14:50 1515719690.796469: $GPRMC,011451,A,3946.9603,N,08404.9862,W,0.0000,0.000,120118,,*3D
2018-01-11 20:14:50 1515719690.796529: $GPGSA,A,3,7,8,9,11,16,23,27,28,30,138,,,4.0,0.8,3.5*3E
2018-01-11 20:14:51 1515719691.349443: $GPZDA,011452.00,12,01,2018,00,00*6C
2018-01-11 20:14:51 1515719691.353510: $GPGGA,011452,3946.9603,N,08404.9862,W,2,10,0.80,294.02,M,-33.324,M,,*75
2018-01-11 20:14:51 1515719691.353610: $GPRMC,011452,A,3946.9603,N,08404.9862,W,0.0000,0.000,120118,,*3E
2018-01-11 20:14:51 1515719691.353674: $GPGSA,A,3,7,8,9,11,16,23,27,28,30,138,,,4.0,0.8,3.5*3E
2018-01-11 20:14:52 1515719692.349708: $GPZDA,011453.00,12,01,2018,00,00*6D
2018-01-11 20:14:52 1515719692.349876: $GPGGA,011453,3946.9603,N,08404.9862,W,2,10,0.80,294.02,M,-33.324,M,,*74
2018-01-11 20:14:52 1515719692.349943: $GPRMC,011453,A,3946.9603,N,08404.9862,W,0.0000,0.000,120118,,*3F
2018-01-11 20:14:52 1515719692.350003: $GPGSA,A,3,7,8,9,11,16,23,27,28,30,138,,,4.0,0.8,3.5*3E
2018-01-11 20:14:53 1515719693.685315: $GPGSV,3,1,10,07,57,315,41,08,74,124,46,09,46,228,41,11,21,166,46*75
2018-01-11 20:14:53 1515719693.685479: $GPGSV,3,2,10,16,22,061,44,23,27,189,48,27,46,052,50,28,15,259,37*70
2018-01-11 20:14:53 1515719693.685543: $GPGSV,3,3,10,30,30,306,33,138,38,213,44*4C
2018-01-11 20:14:53 1515719693.798663: $GPZDA,011454.00,12,01,2018,00,00*6A
2018-01-11 20:14:53 1515719693.798778: $GPGGA,011454,3946.9603,N,08404.9862,W,2,10,0.80,294.02,M,-33.324,M,,*73
2018-01-11 20:14:53 1515719693.798841: $GPRMC,011454,A,3946.9603,N,08404.9862,W,0.0000,0.000,120118,,*38
2018-01-11 20:14:53 1515719693.798955: $GPGSA,A,3,7,8,9,11,16,23,27,28,30,138,,,4.0,0.8,3.5*3E
2018-01-11 20:14:54 1515719694.343457: $GPZDA,011455.00,12,01,2018,00,00*6B
2018-01-11 20:14:54 1515719694.343619: $GPGGA,011455,3946.9603,N,08404.9862,W,2,10,0.80,294.02,M,-33.324,M,,*72
2018-01-11 20:14:54 1515719694.343683: $GPRMC,011455,A,3946.9603,N,08404.9862,W,0.0000,0.000,120118,,*39
2018-01-11 20:14:54 1515719694.343743: $GPGSA,A,3,7,8,9,11,16,23,27,28,30,138,,,4.0,0.8,3.5*3E
2018-01-11 20:14:55 1515719695.349332: $GPZDA,011456.00,12,01,2018,00,00*68
2018-01-11 20:14:55 1515719695.349503: $GPGGA,011456,3946.9603,N,08404.9862,W,2,10,0.80,294.02,M,-33.324,M,,*71
2018-01-11 20:14:55 1515719695.349570: $GPRMC,011456,A,3946.9603,N,08404.9862,W,0.0000,0.000,120118,,*3A
2018-01-11 20:14:55 1515719695.349630: $GPGSA,A,3,7,8,9,11,16,23,27,28,30,138,,,4.0,0.8,3.5*3E
2018-01-11 20:14:56 1515719696.679938: $GPGSV,3,1,10,07,57,315,41,08,74,124,46,09,46,228,41,11,21,166,46*75
2018-01-11 20:14:56 1515719696.680129: $GPGSV,3,2,10,16,22,061,44,23,27,189,48,27,46,052,50,28,15,259,37*70
2018-01-11 20:14:56 1515719696.680195: $GPGSV,3,3,10,30,30,306,33,138,38,213,45*4D
2018-01-11 20:14:56 1515719696.793380: $GPZDA,011457.00,12,01,2018,00,00*69
2018-01-11 20:14:56 1515719696.793504: $GPGGA,011457,3946.9603,N,08404.9862,W,2,10,0.80,294.02,M,-33.324,M,,*70
2018-01-11 20:14:56 1515719696.793568: $GPRMC,011457,A,3946.9603,N,08404.9862,W,0.0000,0.000,120118,,*3B
2018-01-11 20:14:56 1515719696.793628: $GPGSA,A,3,7,8,9,11,16,23,27,28,30,138,,,4.0,0.8,3.5*3E
2018-01-11 20:14:57 1515719697.418678: $GPZDA,011458.00,12,01,2018,00,00*66
2018-01-11 20:14:57 1515719697.418853: $GPGGA,011458,3946.9603,N,08404.9862,W,2,10,0.80,294.02,M,-33.324,M,,*7F
2018-01-11 20:14:57 1515719697.418919: $GPRMC,011458,A,3946.9603,N,08404.9862,W,0.0000,0.000,120118,,*34
2018-01-11 20:14:57 1515719697.418981: $GPGSA,A,3,7,8,9,11,16,23,27,28,30,138,,,4.0,0.8,3.5*3E
2018-01-11 20:14:58 1515719698.348530: $GPZDA,011459.00,12,01,2018,00,00*67
2018-01-11 20:14:58 1515719698.348694: $GPGGA,011459,3946.9603,N,08404.9862,W,2,10,0.80,294.02,M,-33.324,M,,*7E
2018-01-11 20:14:58 1515719698.348760: $GPRMC,011459,A,3946.9603,N,08404.9862,W,0.0000,0.000,120118,,*35
2018-01-11 20:14:58 1515719698.348820: $GPGSA,A,3,7,8,9,11,16,23,27,28,30,138,,,4.0,0.8,3.5*3E
