2017-11-16 14:45:09 1510861509.437860: {"class":"VERSION","release":"3.17","rev":"3.17","proto_major":3,"proto_minor":12}
2017-11-16 14:45:09 1510861509.438341: {"class":"DEVICES","devices":[{"class":"DEVICE","path":"/dev/ttyUSB0","driver":"SiRF","subtype":"9\u0006GSD4e_4.1.2-P1_RPATCH.05-F-GPS-4R-1510281 11/03/2015 307","activated":"2017-11-16T19:45:09.419Z","flags":1,"native":1,"bps":4800,"parity":"N","stopbits":1,"cycle":1.00}]}
2017-11-16 14:45:09 1510861509.438455: {"class":"WATCH","enable":true,"json":false,"nmea":true,"raw":0,"scaled":false,"timing":false,"split24":false,"pps":false}
2017-11-16 14:45:09 1510861509.868833: $GPGSV,3,1,11,08,08,310,40,10,52,312,51,15,26,057,51,18,77,021,45*72
2017-11-16 14:45:09 1510861509.868990: $GPGSV,3,2,11,21,49,183,48,20,23,106,45,24,53,087,48,27,15,276,44*74
2017-11-16 14:45:09 1510861509.869049: $GPGSV,3,3,11,32,31,247,48,14,15,240,38,138,38,213,44*7A
2017-11-16 14:45:09 1510861509.983160: $GPZDA,194508.00,16,11,2017,00,00*64
2017-11-16 14:45:09 1510861509.983343: $GPGGA,194508,3946.9564,N,08404.9842,W,2,11,0.80,302.74,M,-33.324,M,,*79
2017-11-16 14:45:09 1510861509.983426: $GPRMC,194508,A,3946.9564,N,08404.9842,W,0.0000,0.000,161117,,*36
2017-11-16 14:45:09 1510861509.983485: $GPGSA,A,3,8,10,15,18,21,20,24,27,32,14,138,,1.6,0.8,1.3*37
2017-11-16 14:45:10 1510861510.534570: $GPZDA,194509.00,16,11,2017,00,00*65
2017-11-16 14:45:10 1510861510.534761: $GPGGA,194509,3946.9564,N,08404.9842,W,2,11,0.80,302.74,M,-33.324,M,,*78
2017-11-16 14:45:10 1510861510.534824: $GPRMC,194509,A,3946.9564,N,08404.9842,W,0.0000,0.000,161117,,*37
2017-11-16 14:45:10 1510861510.534900: $GPGSA,A,3,8,10,15,18,21,20,24,27,32,14,138,,1.6,0.8,1.3*37
2017-11-16 14:45:11 1510861511.532561: $GPZDA,194510.00,16,11,2017,00,00*6D
2017-11-16 14:45:11 1510861511.532739: $GPGGA,194510,3946.9564,N,08404.9842,W,2,11,0.80,302.74,M,-33.324,M,,*70
2017-11-16 14:45:11 1510861511.532801: $GPRMC,194510,A,3946.9564,N,08404.9842,W,0.0000,0.000,161117,,*3F
2017-11-16 14:45:11 1510861511.532859: $GPGSA,A,3,8,10,15,18,21,20,24,27,32,14,138,,1.6,0.8,1.3*37
2017-11-16 14:45:12 1510861512.871061: $GPGSV,3,1,11,08,08,310,39,10,52,312,51,15,26,057,51,18,77,021,45*7C
2017-11-16 14:45:12 1510861512.871232: $GPGSV,3,2,11,21,49,183,47,20,23,106,45,24,53,087,49,27,15,276,44*7A
2017-11-16 14:45:12 1510861512.871298: $GPGSV,3,3,11,32,31,247,49,14,15,240,38,138,38,213,44*7B
2017-11-16 14:45:12 1510861512.984452: $GPZDA,194511.00,16,11,2017,00,00*6C
2017-11-16 14:45:12 1510861512.984618: $GPGGA,194511,3946.9564,N,08404.9842,W,2,11,0.80,302.74,M,-33.324,M,,*71
2017-11-16 14:45:12 1510861512.984680: $GPRMC,194511,A,3946.9564,N,08404.9842,W,0.0000,0.000,161117,,*3E
2017-11-16 14:45:12 1510861512.984735: $GPGSA,A,3,8,10,15,18,21,20,24,27,32,14,138,,1.6,0.8,1.3*37
2017-11-16 14:45:13 1510861513.489965: $GPZDA,194512.00,16,11,2017,00,00*6F
2017-11-16 14:45:13 1510861513.490146: $GPGGA,194512,3946.9564,N,08404.9842,W,2,11,0.80,302.74,M,-33.324,M,,*72
2017-11-16 14:45:13 1510861513.490210: $GPRMC,194512,A,3946.9564,N,08404.9842,W,0.0000,0.000,161117,,*3D
2017-11-16 14:45:13 1510861513.490268: $GPGSA,A,3,8,10,15,18,21,20,24,27,32,14,138,,1.6,0.8,1.3*37
2017-11-16 14:45:14 1510861514.495430: $GPZDA,194513.00,16,11,2017,00,00*6E
2017-11-16 14:45:14 1510861514.495640: $GPGGA,194513,3946.9564,N,08404.9842,W,2,11,0.80,302.74,M,-33.324,M,,*73
2017-11-16 14:45:14 1510861514.495704: $GPRMC,194513,A,3946.9564,N,08404.9842,W,0.0000,0.000,161117,,*3C
2017-11-16 14:45:14 1510861514.495760: $GPGSA,A,3,8,10,15,18,21,20,24,27,32,14,138,,1.6,0.8,1.3*37
2017-11-16 14:45:15 1510861515.831119: $GPGSV,3,1,11,08,08,310,38,10,52,312,51,15,26,057,51,18,77,021,44*7C
2017-11-16 14:45:15 1510861515.831306: $GPGSV,3,2,11,21,49,183,48,20,23,106,44,24,53,087,48,27,15,276,44*75
2017-11-16 14:45:15 1510861515.831366: $GPGSV,3,3,11,32,31,247,48,14,15,240,38,138,38,213,43*7D
2017-11-16 14:45:15 1510861515.944674: $GPZDA,194514.00,16,11,2017,00,00*69
2017-11-16 14:45:15 1510861515.944850: $GPGGA,194514,3946.9564,N,08404.9842,W,2,11,0.80,302.74,M,-33.324,M,,*74
2017-11-16 14:45:15 1510861515.944968: $GPRMC,194514,A,3946.9564,N,08404.9842,W,0.0000,0.000,161117,,*3B
2017-11-16 14:45:15 1510861515.945027: $GPGSA,A,3,8,10,15,18,21,20,24,27,32,14,138,,1.6,0.8,1.3*37
2017-11-16 14:45:16 1510861516.496072: $GPZDA,194515.00,16,11,2017,00,00*68
2017-11-16 14:45:16 1510861516.496260: $GPGGA,194515,3946.9564,N,08404.9842,W,2,11,0.80,302.74,M,-33.324,M,,*75
2017-11-16 14:45:16 1510861516.496322: $GPRMC,194515,A,3946.9564,N,08404.9842,W,0.0000,0.000,161117,,*3A
2017-11-16 14:45:16 1510861516.496409: $GPGSA,A,3,8,10,15,18,21,20,24,27,32,14,138,,1.6,0.8,1.3*37
2017-11-16 14:45:17 1510861517.494856: $GPZDA,194516.00,16,11,2017,00,00*6B
2017-11-16 14:45:17 1510861517.495018: $GPGGA,194516,3946.9564,N,08404.9842,W,2,11,0.80,302.74,M,-33.324,M,,*76
2017-11-16 14:45:17 1510861517.495079: $GPRMC,194516,A,3946.9564,N,08404.9842,W,0.0000,0.000,161117,,*39
2017-11-16 14:45:17 1510861517.495134: $GPGSA,A,3,8,10,15,18,21,20,24,27,32,14,138,,1.6,0.8,1.3*37
2017-11-16 14:45:18 1510861518.833098: $GPGSV,3,1,11,08,08,310,37,10,52,312,50,15,26,057,51,18,77,021,44*72
2017-11-16 14:45:18 1510861518.833316: $GPGSV,3,2,11,21,49,183,48,20,23,106,44,24,53,087,47,27,15,276,44*7A
2017-11-16 14:45:18 1510861518.833378: $GPGSV,3,3,11,32,31,247,48,14,15,240,38,138,38,213,44*7A
2017-11-16 14:45:18 1510861518.945340: $GPZDA,194517.00,16,11,2017,00,00*6A
2017-11-16 14:45:18 1510861518.945517: $GPGGA,194517,3946.9564,N,08404.9842,W,2,11,0.80,302.74,M,-33.324,M,,*77
2017-11-16 14:45:18 1510861518.945579: $GPRMC,194517,A,3946.9564,N,08404.9842,W,0.0000,0.000,161117,,*38
2017-11-16 14:45:18 1510861518.945651: $GPGSA,A,3,8,10,15,18,21,20,24,27,32,14,138,,1.6,0.8,1.3*37
