2017-11-16 15:16:32 1510863392.912004: {"class":"VERSION","release":"3.17","rev":"3.17","proto_major":3,"proto_minor":12}
2017-11-16 15:16:32 1510863392.912382: {"class":"DEVICES","devices":[{"class":"DEVICE","path":"/dev/ttyUSB0","driver":"SiRF","subtype":"9\u0006GSD4e_4.1.2-P1_RPATCH.05-F-GPS-4R-1510281 11/03/2015 307","activated":"2017-11-16T20:16:32.537Z","flags":1,"native":1,"bps":4800,"parity":"N","stopbits":1,"cycle":1.00}]}
2017-11-16 15:16:32 1510863392.912521: {"class":"WATCH","enable":true,"json":false,"nmea":true,"raw":0,"scaled":false,"timing":false,"split24":false,"pps":false}
2017-11-16 15:16:33 1510863393.378399: $GPZDA,201632.00,16,11,2017,00,00*61
2017-11-16 15:16:33 1510863393.378519: $GPGGA,201632,3946.9576,N,08404.9855,W,2,12,0.80,303.10,M,-33.324,M,,*79
2017-11-16 15:16:33 1510863393.378550: $GPRMC,201632,A,3946.9576,N,08404.9855,W,0.0000,0.000,161117,,*36
2017-11-16 15:16:33 1510863393.378578: $GPGSA,A,3,8,10,14,15,18,20,21,24,27,32,12,138,1.6,0.8,1.3*34
2017-11-16 15:16:34 1510863394.730856: $GPGSV,3,1,12,08,07,297,38,10,66,325,51,14,26,250,46,15,14,064,40*72
2017-11-16 15:16:34 1510863394.731036: $GPGSV,3,2,12,18,73,084,46,20,11,115,31,21,33,180,45,24,47,063,49*7B
2017-11-16 15:16:34 1510863394.731097: $GPGSV,3,3,12,27,08,262,39,32,43,261,48,12,07,109,25,138,38,213,44*4E
2017-11-16 15:16:34 1510863394.844135: $GPZDA,201633.00,16,11,2017,00,00*60
2017-11-16 15:16:34 1510863394.844340: $GPGGA,201633,3946.9576,N,08404.9855,W,2,12,0.80,303.10,M,-33.324,M,,*78
2017-11-16 15:16:34 1510863394.844402: $GPRMC,201633,A,3946.9576,N,08404.9855,W,0.0000,0.000,161117,,*37
2017-11-16 15:16:34 1510863394.844458: $GPGSA,A,3,8,10,14,15,18,20,21,24,27,32,12,138,1.6,0.8,1.3*34
2017-11-16 15:16:35 1510863395.396221: $GPZDA,201634.00,16,11,2017,00,00*67
2017-11-16 15:16:35 1510863395.396382: $GPGGA,201634,3946.9576,N,08404.9855,W,2,12,0.80,303.10,M,-33.324,M,,*7F
2017-11-16 15:16:35 1510863395.396443: $GPRMC,201634,A,3946.9576,N,08404.9855,W,0.0000,0.000,161117,,*30
2017-11-16 15:16:35 1510863395.396498: $GPGSA,A,3,8,10,14,15,18,20,21,24,27,32,12,138,1.6,0.8,1.3*34
2017-11-16 15:16:36 1510863396.396978: $GPZDA,201635.00,16,11,2017,00,00*66
2017-11-16 15:16:36 1510863396.397174: $GPGGA,201635,3946.9576,N,08404.9855,W,2,12,0.80,303.10,M,-33.324,M,,*7E
2017-11-16 15:16:36 1510863396.397241: $GPRMC,201635,A,3946.9576,N,08404.9855,W,0.0000,0.000,161117,,*31
2017-11-16 15:16:36 1510863396.397298: $GPGSA,A,3,8,10,14,15,18,20,21,24,27,32,12,138,1.6,0.8,1.3*34
2017-11-16 15:16:37 1510863397.734983: $GPGSV,3,1,12,08,07,297,38,10,66,325,51,14,26,250,46,15,14,064,40*72
2017-11-16 15:16:37 1510863397.735166: $GPGSV,3,2,12,18,73,084,46,20,11,115,31,21,33,180,45,24,47,063,49*7B
2017-11-16 15:16:37 1510863397.735232: $GPGSV,3,3,12,27,08,262,38,32,43,261,48,12,07,109,25,138,38,213,44*4F
2017-11-16 15:16:37 1510863397.848147: $GPZDA,201636.00,16,11,2017,00,00*65
2017-11-16 15:16:37 1510863397.848325: $GPGGA,201636,3946.9576,N,08404.9855,W,2,12,0.80,303.10,M,-33.324,M,,*7D
2017-11-16 15:16:37 1510863397.848387: $GPRMC,201636,A,3946.9576,N,08404.9855,W,0.0000,0.000,161117,,*32
2017-11-16 15:16:37 1510863397.848443: $GPGSA,A,3,8,10,14,15,18,20,21,24,27,32,12,138,1.6,0.8,1.3*34
2017-11-16 15:16:38 1510863398.377758: $GPZDA,201637.00,16,11,2017,00,00*64
2017-11-16 15:16:38 1510863398.377951: $GPGGA,201637,3946.9576,N,08404.9855,W,2,12,0.80,303.10,M,-33.324,M,,*7C
2017-11-16 15:16:38 1510863398.378012: $GPRMC,201637,A,3946.9576,N,08404.9855,W,0.0000,0.000,161117,,*33
2017-11-16 15:16:38 1510863398.378069: $GPGSA,A,3,8,10,14,15,18,20,21,24,27,32,12,138,1.6,0.8,1.3*34
2017-11-16 15:16:39 1510863399.371144: $GPZDA,201638.00,16,11,2017,00,00*6B
2017-11-16 15:16:39 1510863399.371315: $GPGGA,201638,3946.9576,N,08404.9855,W,2,12,0.80,303.10,M,-33.324,M,,*73
2017-11-16 15:16:39 1510863399.371377: $GPRMC,201638,A,3946.9576,N,08404.9855,W,0.0000,0.000,161117,,*3C
2017-11-16 15:16:39 1510863399.371433: $GPGSA,A,3,8,10,14,15,18,20,21,24,27,32,12,138,1.6,0.8,1.3*34
2017-11-16 15:16:40 1510863400.715683: $GPGSV,3,1,12,08,07,297,38,10,66,325,51,14,26,250,46,15,14,064,40*72
2017-11-16 15:16:40 1510863400.715966: $GPGSV,3,2,12,18,73,084,46,20,11,115,31,21,33,180,45,24,47,063,49*7B
2017-11-16 15:16:40 1510863400.716038: $GPGSV,3,3,12,27,08,262,39,32,43,261,48,12,07,109,26,138,38,213,45*4C
2017-11-16 15:16:40 1510863400.827859: $GPZDA,201639.00,16,11,2017,00,00*6A
2017-11-16 15:16:40 1510863400.828017: $GPGGA,201639,3946.9576,N,08404.9855,W,2,12,0.80,303.10,M,-33.324,M,,*72
2017-11-16 15:16:40 1510863400.828078: $GPRMC,201639,A,3946.9576,N,08404.9855,W,0.0000,0.000,161117,,*3D
2017-11-16 15:16:40 1510863400.828133: $GPGSA,A,3,8,10,14,15,18,20,21,24,27,32,12,138,1.6,0.8,1.3*34
2017-11-16 15:16:41 1510863401.454285: $GPZDA,201640.00,16,11,2017,00,00*64
2017-11-16 15:16:41 1510863401.454462: $GPGGA,201640,3946.9576,N,08404.9855,W,2,12,0.80,303.10,M,-33.324,M,,*7C
2017-11-16 15:16:41 1510863401.454524: $GPRMC,201640,A,3946.9576,N,08404.9855,W,0.0000,0.000,161117,,*33
2017-11-16 15:16:41 1510863401.454599: $GPGSA,A,3,8,10,14,15,18,20,21,24,27,32,12,138,1.6,0.8,1.3*34
2017-11-16 15:16:42 1510863402.379047: $GPZDA,201641.00,16,11,2017,00,00*65
2017-11-16 15:16:42 1510863402.379206: $GPGGA,201641,3946.9576,N,08404.9855,W,2,12,0.80,303.10,M,-33.324,M,,*7D
2017-11-16 15:16:42 1510863402.379268: $GPRMC,201641,A,3946.9576,N,08404.9855,W,0.0000,0.000,161117,,*32
2017-11-16 15:16:42 1510863402.379324: $GPGSA,A,3,8,10,14,15,18,20,21,24,27,32,12,138,1.6,0.8,1.3*34
