2017-12-29 11:37:19 1514565439.626601: {"class":"VERSION","release":"3.16","rev":"3.16-4","proto_major":3,"proto_minor":11}
2017-12-29 11:37:19 1514565439.626939: {"class":"DEVICES","devices":[{"class":"DEVICE","path":"/dev/ttyUSB0","driver":"SiRF","subtype":"9\u0006GSD4e_4.1.2-P1_RPATCH.05-F-GPS-4R-1510281 11/03/2015 307","activated":"2017-12-29T16:37:19.246Z","flags":1,"native":1,"bps":4800,"parity":"N","stopbits":1,"cycle":1.00}]}
2017-12-29 11:37:19 1514565439.627054: {"class":"WATCH","enable":true,"json":false,"nmea":true,"raw":0,"scaled":false,"timing":false,"split24":false,"pps":false}
2017-12-29 11:37:19 1514565439.694587: $GPGSV,3,1,11,08,07,315,41,10,49,309,46,15,29,055,48,18,76,006,45*7E
2017-12-29 11:37:19 1514565439.694736: $GPGSV,3,2,11,20,28,102,48,21,54,184,46,24,53,094,51,32,29,244,39*79
2017-12-29 11:37:19 1514565439.694801: $GPGSV,3,3,11,27,17,280,38,14,10,237,00,138,38,213,45*79
2017-12-29 11:37:19 1514565439.808651: $GPZDA,163720.00,29,12,2017,00,00*6B
2017-12-29 11:37:19 1514565439.808836: $GPGGA,163720,3946.9602,N,08404.9882,W,2,10,1.00,305.22,M,-33.324,M,,*7A
2017-12-29 11:37:19 1514565439.808904: $GPRMC,163720,A,3946.9602,N,08404.9882,W,0.0000,0.000,291217,,*36
2017-12-29 11:37:19 1514565439.808965: $GPGSA,A,3,8,10,15,18,20,21,24,32,27,138,,,1.7,1.0,1.3*3A
2017-12-29 11:37:20 1514565440.373835: $GPZDA,163721.00,29,12,2017,00,00*6A
2017-12-29 11:37:20 1514565440.374003: $GPGGA,163721,3946.9602,N,08404.9882,W,2,10,1.00,305.22,M,-33.324,M,,*7B
2017-12-29 11:37:20 1514565440.374070: $GPRMC,163721,A,3946.9602,N,08404.9882,W,0.0000,0.000,291217,,*37
2017-12-29 11:37:20 1514565440.374131: $GPGSA,A,3,8,10,15,18,20,21,24,32,27,138,,,1.7,1.0,1.3*3A
2017-12-29 11:37:21 1514565441.358448: $GPZDA,163722.00,29,12,2017,00,00*69
2017-12-29 11:37:21 1514565441.358610: $GPGGA,163722,3946.9602,N,08404.9882,W,2,10,1.20,305.22,M,-33.324,M,,*7A
2017-12-29 11:37:21 1514565441.358676: $GPRMC,163722,A,3946.9602,N,08404.9882,W,0.0000,0.000,291217,,*34
2017-12-29 11:37:21 1514565441.358737: $GPGSA,A,3,8,10,15,18,20,21,24,32,27,138,,,1.7,1.2,1.3*38
2017-12-29 11:37:23 1514565443.068264: $GPGSV,3,1,11,08,07,315,41,10,49,309,46,15,29,055,48,18,76,006,45*7E
2017-12-29 11:37:23 1514565443.068441: $GPGSV,3,2,11,20,28,102,48,21,54,184,46,24,53,094,51,32,29,244,39*79
2017-12-29 11:37:23 1514565443.068507: $GPGSV,3,3,11,27,17,280,38,14,10,237,24,138,38,213,45*7F
2017-12-29 11:37:23 1514565443.181785: $GPZDA,163723.00,29,12,2017,00,00*68
2017-12-29 11:37:23 1514565443.181952: $GPGGA,163723,3946.9602,N,08404.9882,W,2,11,1.20,305.22,M,-33.324,M,,*7A
2017-12-29 11:37:23 1514565443.182018: $GPRMC,163723,A,3946.9602,N,08404.9882,W,0.0000,0.000,291217,,*35
2017-12-29 11:37:23 1514565443.182079: $GPGSA,A,3,8,10,15,18,20,21,24,32,27,14,138,,1.7,1.2,1.3*3D
2017-12-29 11:37:23 1514565443.794041: $GPZDA,163724.00,29,12,2017,00,00*6F
2017-12-29 11:37:23 1514565443.794217: $GPGGA,163724,3946.9599,N,08404.9883,W,2,11,1.20,305.98,M,-33.324,M,,*7C
2017-12-29 11:37:23 1514565443.794304: $GPRMC,163724,A,3946.9599,N,08404.9883,W,0.0000,0.000,291217,,*32
2017-12-29 11:37:23 1514565443.794367: $GPGSA,A,3,8,10,15,18,20,21,24,32,27,14,138,,1.7,1.2,1.3*3D
2017-12-29 11:37:23 1514565443.794426: $GPGBS,163724,2.73,M,2.59,M,7.72,M*31
2017-12-29 11:37:24 1514565444.357226: $GPZDA,163725.00,29,12,2017,00,00*6E
2017-12-29 11:37:24 1514565444.357394: $GPGGA,163725,3946.9598,N,08404.9876,W,2,11,1.00,306.06,M,-33.324,M,,*70
2017-12-29 11:37:24 1514565444.357460: $GPRMC,163725,A,3946.9598,N,08404.9876,W,0.0000,0.000,291217,,*38
2017-12-29 11:37:24 1514565444.357520: $GPGSA,A,3,8,10,15,18,20,21,24,32,27,14,138,,1.7,1.0,1.3*3F
2017-12-29 11:37:24 1514565444.357578: $GPGBS,163725,2.73,M,2.59,M,7.72,M*30
2017-12-29 11:37:25 1514565445.694113: $GPGSV,3,1,11,08,07,315,42,10,49,309,46,15,29,055,48,18,76,007,45*7C
2017-12-29 11:37:25 1514565445.694292: $GPGSV,3,2,11,20,27,103,49,21,53,184,46,24,53,094,51,32,29,244,40*7F
2017-12-29 11:37:25 1514565445.694358: $GPGSV,3,3,11,27,17,280,39,14,11,237,26,138,38,213,46*7E
2017-12-29 11:37:25 1514565445.807702: $GPZDA,163726.00,29,12,2017,00,00*6D
2017-12-29 11:37:25 1514565445.807926: $GPGGA,163726,3946.9598,N,08404.9876,W,2,11,1.00,306.06,M,-33.324,M,,*73
2017-12-29 11:37:25 1514565445.807994: $GPRMC,163726,A,3946.9598,N,08404.9876,W,0.0000,0.000,291217,,*3B
2017-12-29 11:37:25 1514565445.808056: $GPGSA,A,3,8,10,15,18,20,21,24,32,27,14,138,,1.7,1.0,1.3*3F
2017-12-29 11:37:26 1514565446.357290: $GPZDA,163727.00,29,12,2017,00,00*6C
2017-12-29 11:37:26 1514565446.357456: $GPGGA,163727,3946.9602,N,08404.9876,W,2,11,1.00,306.70,M,-33.324,M,,*73
2017-12-29 11:37:26 1514565446.357522: $GPRMC,163727,A,3946.9602,N,08404.9876,W,0.0000,0.000,291217,,*3A
2017-12-29 11:37:26 1514565446.357583: $GPGSA,A,3,8,10,15,18,20,21,24,32,27,14,138,,1.7,1.0,1.3*3F
2017-12-29 11:37:27 1514565447.356580: $GPZDA,163728.00,29,12,2017,00,00*63
2017-12-29 11:37:27 1514565447.356743: $GPGGA,163728,3946.9602,N,08404.9876,W,2,11,1.00,306.70,M,-33.324,M,,*7C
2017-12-29 11:37:27 1514565447.356809: $GPRMC,163728,A,3946.9602,N,08404.9876,W,0.0000,0.000,291217,,*35
2017-12-29 11:37:27 1514565447.356869: $GPGSA,A,3,8,10,15,18,20,21,24,32,27,14,138,,1.7,1.0,1.3*3F
2017-12-29 11:37:28 1514565448.692006: $GPGSV,3,1,11,08,07,315,42,10,49,309,46,15,29,055,48,18,76,007,45*7C
2017-12-29 11:37:28 1514565448.692191: $GPGSV,3,2,11,20,27,103,48,21,53,184,46,24,53,094,51,32,29,244,40*7E
2017-12-29 11:37:28 1514565448.692258: $GPGSV,3,3,11,27,17,280,39,14,11,237,00,138,38,213,45*79
2017-12-29 11:37:28 1514565448.805447: $GPZDA,163729.00,29,12,2017,00,00*62
2017-12-29 11:37:28 1514565448.805895: $GPGGA,163729,3946.9602,N,08404.9876,W,2,10,1.00,306.70,M,-33.324,M,,*7C
2017-12-29 11:37:28 1514565448.805989: $GPRMC,163729,A,3946.9602,N,08404.9876,W,0.0000,0.000,291217,,*34
2017-12-29 11:37:28 1514565448.806051: $GPGSA,A,3,8,10,15,18,20,21,24,32,27,138,,,1.7,1.0,1.3*3A
2017-12-29 11:37:29 1514565449.356328: $GPZDA,163730.00,29,12,2017,00,00*6A
2017-12-29 11:37:29 1514565449.356495: $GPGGA,163730,3946.9602,N,08404.9876,W,2,10,1.00,306.70,M,-33.324,M,,*74
2017-12-29 11:37:29 1514565449.356560: $GPRMC,163730,A,3946.9602,N,08404.9876,W,0.0000,0.000,291217,,*3C
2017-12-29 11:37:29 1514565449.356620: $GPGSA,A,3,8,10,15,18,20,21,24,32,27,138,,,1.7,1.0,1.3*3A
2017-12-29 11:37:30 1514565450.358001: $GPZDA,163731.00,29,12,2017,00,00*6B
2017-12-29 11:37:30 1514565450.358199: $GPGGA,163731,3946.9599,N,08404.9877,W,2,10,1.00,307.47,M,-33.324,M,,*70
2017-12-29 11:37:30 1514565450.358283: $GPRMC,163731,A,3946.9599,N,08404.9877,W,0.0000,0.000,291217,,*3D
2017-12-29 11:37:30 1514565450.358344: $GPGSA,A,3,8,10,15,18,20,21,24,32,27,138,,,1.7,1.0,1.3*3A
2017-12-29 11:37:31 1514565451.695511: $GPGSV,3,1,11,08,07,315,42,10,49,309,46,15,29,055,48,18,76,007,45*7C
2017-12-29 11:37:31 1514565451.695722: $GPGSV,3,2,11,20,27,103,48,21,53,184,46,24,53,094,51,32,29,244,39*70
2017-12-29 11:37:31 1514565451.695788: $GPGSV,3,3,11,27,17,280,39,14,11,237,17,138,38,213,45*7F
2017-12-29 11:37:31 1514565451.808815: $GPZDA,163732.00,29,12,2017,00,00*68
2017-12-29 11:37:31 1514565451.808997: $GPGGA,163732,3946.9599,N,08404.9877,W,2,11,1.00,307.47,M,-33.324,M,,*72
2017-12-29 11:37:31 1514565451.809063: $GPRMC,163732,A,3946.9599,N,08404.9877,W,0.0000,0.000,291217,,*3E
2017-12-29 11:37:31 1514565451.809123: $GPGSA,A,3,8,10,15,18,20,21,24,32,27,14,138,,1.7,1.0,1.3*3F
2017-12-29 11:37:32 1514565452.434267: $GPZDA,163733.00,29,12,2017,00,00*69
2017-12-29 11:37:32 1514565452.434433: $GPGGA,163733,3946.9599,N,08404.9870,W,2,11,1.00,307.55,M,-33.324,M,,*77
2017-12-29 11:37:32 1514565452.434500: $GPRMC,163733,A,3946.9599,N,08404.9870,W,0.0000,0.000,291217,,*38
2017-12-29 11:37:32 1514565452.434560: $GPGSA,A,3,8,10,15,18,20,21,24,32,27,14,138,,1.7,1.0,1.3*3F
2017-12-29 11:37:33 1514565453.350107: $GPZDA,163734.00,29,12,2017,00,00*6E
2017-12-29 11:37:33 1514565453.350275: $GPGGA,163734,3946.9599,N,08404.9870,W,2,11,1.00,307.55,M,-33.324,M,,*70
2017-12-29 11:37:33 1514565453.350340: $GPRMC,163734,A,3946.9599,N,08404.9870,W,0.0000,0.000,291217,,*3F
2017-12-29 11:37:33 1514565453.350400: $GPGSA,A,3,8,10,15,18,20,21,24,32,27,14,138,,1.7,1.0,1.3*3F
