2017-11-16 17:02:00 1510869720.182549: {"class":"VERSION","release":"3.17","rev":"3.17","proto_major":3,"proto_minor":12}
2017-11-16 17:02:00 1510869720.182993: {"class":"DEVICES","devices":[{"class":"DEVICE","path":"/dev/ttyUSB0","driver":"SiRF","subtype":"9\u0006GSD4e_4.1.2-P1_RPATCH.05-F-GPS-4R-1510281 11/03/2015 307","activated":"2017-11-16T22:01:59.537Z","flags":1,"native":1,"bps":4800,"parity":"N","stopbits":1,"cycle":1.00}]}
2017-11-16 17:02:00 1510869720.183111: {"class":"WATCH","enable":true,"json":false,"nmea":true,"raw":0,"scaled":false,"timing":false,"split24":false,"pps":false}
2017-11-16 17:02:00 1510869720.733935: $GPGSV,3,1,12,01,17,313,43,10,62,139,48,11,11,294,36,12,25,064,50*72
2017-11-16 17:02:00 1510869720.734106: $GPGSV,3,2,12,14,59,303,46,18,31,138,42,25,34,108,46,31,41,216,47*7D
2017-11-16 17:02:00 1510869720.734166: $GPGSV,3,3,12,32,69,346,51,22,08,312,31,24,08,046,00,138,38,213,45*47
2017-11-16 17:02:00 1510869720.847578: $GPZDA,220159.00,16,11,2017,00,00*68
2017-11-16 17:02:00 1510869720.847743: $GPGGA,220159,3946.9602,N,08404.9823,W,2,11,1.00,311.55,M,-33.324,M,,*79
2017-11-16 17:02:00 1510869720.847805: $GPRMC,220159,A,3946.9602,N,08404.9823,W,0.0000,0.000,161117,,*3E
2017-11-16 17:02:00 1510869720.847876: $GPGSA,A,3,1,10,11,12,14,18,25,31,32,22,138,,1.6,1.0,1.3*37
2017-11-16 17:02:01 1510869721.472741: $GPZDA,220200.00,16,11,2017,00,00*67
2017-11-16 17:02:01 1510869721.472921: $GPGGA,220200,3946.9602,N,08404.9823,W,2,11,1.00,311.55,M,-33.324,M,,*76
2017-11-16 17:02:01 1510869721.472982: $GPRMC,220200,A,3946.9602,N,08404.9823,W,0.0000,0.000,161117,,*31
2017-11-16 17:02:01 1510869721.473037: $GPGSA,A,3,1,10,11,12,14,18,25,31,32,22,138,,1.6,1.0,1.3*37
2017-11-16 17:02:02 1510869722.397240: $GPZDA,220201.00,16,11,2017,00,00*66
2017-11-16 17:02:02 1510869722.397401: $GPGGA,220201,3946.9602,N,08404.9823,W,2,11,0.80,311.55,M,-33.324,M,,*7E
2017-11-16 17:02:02 1510869722.397462: $GPRMC,220201,A,3946.9602,N,08404.9823,W,0.0000,0.000,161117,,*30
2017-11-16 17:02:02 1510869722.397518: $GPGSA,A,3,1,10,11,12,14,18,25,31,32,22,138,,1.6,0.8,1.3*3E
2017-11-16 17:02:03 1510869723.731776: $GPGSV,3,1,12,01,17,313,42,10,62,139,48,11,11,294,36,12,25,064,50*73
2017-11-16 17:02:03 1510869723.731945: $GPGSV,3,2,12,14,59,303,46,18,31,138,42,25,34,108,46,31,41,216,47*7D
2017-11-16 17:02:03 1510869723.732005: $GPGSV,3,3,12,32,69,346,51,22,08,312,29,24,08,046,24,138,38,213,45*48
2017-11-16 17:02:03 1510869723.845117: $GPZDA,220202.00,16,11,2017,00,00*65
2017-11-16 17:02:03 1510869723.845423: $GPGGA,220202,3946.9602,N,08404.9823,W,2,12,0.80,311.55,M,-33.324,M,,*7E
2017-11-16 17:02:03 1510869723.845542: $GPRMC,220202,A,3946.9602,N,08404.9823,W,0.0000,0.000,161117,,*33
2017-11-16 17:02:03 1510869723.845656: $GPGSA,A,3,1,10,11,12,14,18,25,31,32,22,24,138,1.6,0.8,1.3*38
2017-11-16 17:02:04 1510869724.394701: $GPZDA,220203.00,16,11,2017,00,00*64
2017-11-16 17:02:04 1510869724.394867: $GPGGA,220203,3946.9602,N,08404.9823,W,2,12,0.80,311.55,M,-33.324,M,,*7F
2017-11-16 17:02:04 1510869724.394928: $GPRMC,220203,A,3946.9602,N,08404.9823,W,0.0000,0.000,161117,,*32
2017-11-16 17:02:04 1510869724.394984: $GPGSA,A,3,1,10,11,12,14,18,25,31,32,22,24,138,1.6,0.8,1.3*38
2017-11-16 17:02:05 1510869725.398175: $GPZDA,220204.00,16,11,2017,00,00*63
2017-11-16 17:02:05 1510869725.398350: $GPGGA,220204,3946.9602,N,08404.9823,W,2,12,1.00,311.55,M,-33.324,M,,*71
2017-11-16 17:02:05 1510869725.398411: $GPRMC,220204,A,3946.9602,N,08404.9823,W,0.0000,0.000,161117,,*35
2017-11-16 17:02:05 1510869725.398467: $GPGSA,A,3,1,10,11,12,14,18,25,31,32,22,24,138,1.6,1.0,1.3*31
2017-11-16 17:02:06 1510869726.734620: $GPGSV,3,1,12,01,17,313,42,10,62,139,48,11,11,294,38,12,25,064,50*7D
2017-11-16 17:02:06 1510869726.734786: $GPGSV,3,2,12,14,59,303,46,18,31,138,41,25,34,108,46,31,41,216,47*7E
2017-11-16 17:02:06 1510869726.734845: $GPGSV,3,3,12,32,69,346,51,22,08,312,30,24,08,046,00,138,38,213,44*47
2017-11-16 17:02:06 1510869726.848278: $GPZDA,220205.00,16,11,2017,00,00*62
2017-11-16 17:02:06 1510869726.848434: $GPGGA,220205,3946.9602,N,08404.9823,W,2,11,1.00,311.55,M,-33.324,M,,*73
2017-11-16 17:02:06 1510869726.848544: $GPRMC,220205,A,3946.9602,N,08404.9823,W,0.0000,0.000,161117,,*34
2017-11-16 17:02:06 1510869726.848601: $GPGSA,A,3,1,10,11,12,14,18,25,31,32,22,138,,1.6,1.0,1.3*37
2017-11-16 17:02:07 1510869727.397867: $GPZDA,220206.00,16,11,2017,00,00*61
2017-11-16 17:02:07 1510869727.398027: $GPGGA,220206,3946.9602,N,08404.9823,W,2,11,1.00,311.55,M,-33.324,M,,*70
2017-11-16 17:02:07 1510869727.398088: $GPRMC,220206,A,3946.9602,N,08404.9823,W,0.0000,0.000,161117,,*37
2017-11-16 17:02:07 1510869727.398145: $GPGSA,A,3,1,10,11,12,14,18,25,31,32,22,138,,1.6,1.0,1.3*37
2017-11-16 17:02:08 1510869728.396781: $GPZDA,220207.00,16,11,2017,00,00*60
2017-11-16 17:02:08 1510869728.399480: $GPGGA,220207,3946.9602,N,08404.9823,W,2,11,1.00,311.55,M,-33.324,M,,*71
2017-11-16 17:02:08 1510869728.399575: $GPRMC,220207,A,3946.9602,N,08404.9823,W,0.0000,0.000,161117,,*36
2017-11-16 17:02:08 1510869728.399634: $GPGSA,A,3,1,10,11,12,14,18,25,31,32,22,138,,1.6,1.0,1.3*37
2017-11-16 17:02:09 1510869729.747972: $GPGSV,3,1,12,01,17,313,41,10,62,139,48,11,11,294,38,12,25,064,50*7E
2017-11-16 17:02:09 1510869729.748147: $GPGSV,3,2,12,14,59,303,46,18,31,138,42,25,34,108,46,31,41,216,47*7D
2017-11-16 17:02:09 1510869729.748207: $GPGSV,3,3,12,32,69,346,51,22,08,312,31,24,08,046,12,138,38,213,44*45
2017-11-16 17:02:09 1510869729.861278: $GPZDA,220208.00,16,11,2017,00,00*6F
2017-11-16 17:02:09 1510869729.861437: $GPGGA,220208,3946.9602,N,08404.9823,W,2,12,0.80,311.55,M,-33.324,M,,*74
2017-11-16 17:02:09 1510869729.861499: $GPRMC,220208,A,3946.9602,N,08404.9823,W,0.0000,0.000,161117,,*39
2017-11-16 17:02:09 1510869729.861555: $GPGSA,A,3,1,10,11,12,14,18,25,31,32,22,24,138,1.6,0.8,1.3*38
