2017-12-01 14:31:22 1512156682.486966: {"class":"VERSION","release":"3.16","rev":"3.16-4","proto_major":3,"proto_minor":11}
2017-12-01 14:31:22 1512156682.487485: {"class":"DEVICES","devices":[{"class":"DEVICE","path":"/dev/ttyUSB0","driver":"SiRF","subtype":"9\u0006GSD4e_4.1.2-P1_RPATCH.05-F-GPS-4R-1510281 11/03/2015 307","activated":"2017-12-01T19:31:22.475Z","flags":1,"native":1,"bps":4800,"parity":"N","stopbits":1,"cycle":1.00}]}
2017-12-01 14:31:22 1512156682.487615: {"class":"WATCH","enable":true,"json":false,"nmea":true,"raw":0,"scaled":false,"timing":false,"split24":false,"pps":false}
2017-12-01 14:31:23 1512156683.364709: $GPZDA,193124.00,01,12,2017,00,00*6C
2017-12-01 14:31:23 1512156683.364879: $GPGGA,193124,3946.9538,N,08404.9849,W,2,12,1.00,311.67,M,-33.324,M,,*7C
2017-12-01 14:31:23 1512156683.364945: $GPRMC,193124,A,3946.9538,N,08404.9849,W,0.0000,0.000,011217,,*3C
2017-12-01 14:31:23 1512156683.365027: $GPGSA,A,3,8,10,14,15,18,21,24,32,20,25,12,138,2.0,1.0,1.5*3C
2017-12-01 14:31:24 1512156684.696695: $GPGSV,3,1,12,08,05,291,23,10,72,336,47,14,31,256,43,27,05,258,11*71
2017-12-01 14:31:26 1512156686.079130: $GPGSV,3,2,12,18,68,100,46,21,25,178,45,24,43,055,50,32,48,268,46*73
2017-12-01 14:31:26 1512156686.079286: $GPGSV,3,3,12,20,06,120,24,25,05,139,23,12,11,105,32,138,38,213,46*46
2017-12-01 14:31:26 1512156686.079387: $GPZDA,193125.00,01,12,2017,00,00*6D
2017-12-01 14:31:26 1512156686.079446: $GPGGA,193125,3946.9538,N,08404.9849,W,2,12,1.00,311.67,M,-33.324,M,,*7D
2017-12-01 14:31:26 1512156686.079509: $GPRMC,193125,A,3946.9538,N,08404.9849,W,0.0000,0.000,011217,,*3D
2017-12-01 14:31:26 1512156686.079569: $GPGSA,A,3,8,10,14,27,18,21,24,32,20,25,12,138,2.0,1.0,1.5*3D
2017-12-01 14:31:26 1512156686.079630: $GPZDA,193126.00,01,12,2017,00,00*6E
2017-12-01 14:31:26 1512156686.079684: $GPGGA,193126,3946.9538,N,08404.9849,W,2,12,1.00,311.67,M,-33.324,M,,*7E
2017-12-01 14:31:26 1512156686.079745: $GPRMC,193126,A,3946.9538,N,08404.9849,W,0.0000,0.000,011217,,*3E
2017-12-01 14:31:26 1512156686.079804: $GPGSA,A,3,8,10,14,27,18,21,24,32,20,25,12,138,2.0,1.0,1.5*3D
2017-12-01 14:31:26 1512156686.352586: $GPZDA,193127.00,01,12,2017,00,00*6F
2017-12-01 14:31:26 1512156686.352761: $GPGGA,193127,3946.9538,N,08404.9849,W,2,12,1.00,311.67,M,-33.324,M,,*7F
2017-12-01 14:31:26 1512156686.352828: $GPRMC,193127,A,3946.9538,N,08404.9849,W,0.0000,0.000,011217,,*3F
2017-12-01 14:31:26 1512156686.352889: $GPGSA,A,3,8,10,14,27,18,21,24,32,20,25,12,138,2.0,1.0,1.5*3D
2017-12-01 14:31:27 1512156687.697163: $GPGSV,3,1,12,08,05,291,16,10,72,336,47,14,31,256,42,27,05,258,15*72
2017-12-01 14:31:27 1512156687.697344: $GPGSV,3,2,12,18,68,100,46,21,25,178,46,24,43,055,50,32,48,268,46*70
2017-12-01 14:31:27 1512156687.697411: $GPGSV,3,3,12,20,06,120,24,25,05,139,23,12,11,105,31,138,38,213,47*44
2017-12-01 14:31:27 1512156687.810537: $GPZDA,193128.00,01,12,2017,00,00*60
2017-12-01 14:31:27 1512156687.810708: $GPGGA,193128,3946.9538,N,08404.9849,W,2,12,1.00,311.67,M,-33.324,M,,*70
2017-12-01 14:31:27 1512156687.810774: $GPRMC,193128,A,3946.9538,N,08404.9849,W,0.0000,0.000,011217,,*30
2017-12-01 14:31:27 1512156687.810835: $GPGSA,A,3,8,10,14,27,18,21,24,32,20,25,12,138,2.0,1.0,1.5*3D
2017-12-01 14:31:28 1512156688.361511: $GPZDA,193129.00,01,12,2017,00,00*61
2017-12-01 14:31:28 1512156688.361681: $GPGGA,193129,3946.9538,N,08404.9849,W,2,12,1.00,311.67,M,-33.324,M,,*71
2017-12-01 14:31:28 1512156688.361747: $GPRMC,193129,A,3946.9538,N,08404.9849,W,0.0000,0.000,011217,,*31
2017-12-01 14:31:28 1512156688.361808: $GPGSA,A,3,8,10,14,27,18,21,24,32,20,25,12,138,2.0,1.0,1.5*3D
2017-12-01 14:31:29 1512156689.362289: $GPZDA,193130.00,01,12,2017,00,00*69
2017-12-01 14:31:29 1512156689.362458: $GPGGA,193130,3946.9538,N,08404.9849,W,2,12,1.00,311.67,M,-33.324,M,,*79
2017-12-01 14:31:29 1512156689.362523: $GPRMC,193130,A,3946.9538,N,08404.9849,W,0.0000,0.000,011217,,*39
2017-12-01 14:31:29 1512156689.362583: $GPGSA,A,3,8,10,14,27,18,21,24,32,20,25,12,138,2.0,1.0,1.5*3D
2017-12-01 14:31:30 1512156690.694911: $GPGSV,3,1,12,08,05,291,20,10,72,336,47,14,31,256,42,27,05,258,07*74
2017-12-01 14:31:30 1512156690.695174: $GPGSV,3,2,12,18,68,100,45,21,25,178,45,24,43,055,49,32,48,268,46*78
2017-12-01 14:31:30 1512156690.695244: $GPGSV,3,3,12,20,06,120,24,25,05,139,24,12,11,105,31,138,38,213,47*43
2017-12-01 14:31:30 1512156690.808372: $GPZDA,193131.00,01,12,2017,00,00*68
2017-12-01 14:31:30 1512156690.808508: $GPGGA,193131,3946.9538,N,08404.9849,W,2,11,1.00,311.67,M,-33.324,M,,*7B
2017-12-01 14:31:30 1512156690.808573: $GPRMC,193131,A,3946.9538,N,08404.9849,W,0.0000,0.000,011217,,*38
2017-12-01 14:31:30 1512156690.808633: $GPGSA,A,3,8,10,14,18,21,24,32,20,25,12,138,,2.0,1.0,1.5*38
2017-12-01 14:31:31 1512156691.364261: $GPZDA,193132.00,01,12,2017,00,00*6B
2017-12-01 14:31:31 1512156691.364429: $GPGGA,193132,3946.9538,N,08404.9849,W,2,11,1.00,311.67,M,-33.324,M,,*78
2017-12-01 14:31:31 1512156691.364496: $GPRMC,193132,A,3946.9538,N,08404.9849,W,0.0000,0.000,011217,,*3B
2017-12-01 14:31:31 1512156691.364557: $GPGSA,A,3,8,10,14,18,21,24,32,20,25,12,138,,2.0,1.0,1.5*38
2017-12-01 14:31:32 1512156692.355127: $GPZDA,193133.00,01,12,2017,00,00*6A
2017-12-01 14:31:32 1512156692.355282: $GPGGA,193133,3946.9538,N,08404.9849,W,2,11,1.00,311.67,M,-33.324,M,,*79
2017-12-01 14:31:32 1512156692.355348: $GPRMC,193133,A,3946.9538,N,08404.9849,W,0.0000,0.000,011217,,*3A
2017-12-01 14:31:32 1512156692.355408: $GPGSA,A,3,8,10,14,18,21,24,32,20,25,12,138,,2.0,1.0,1.5*38
2017-12-01 14:31:33 1512156693.697053: $GPGSV,3,1,12,08,05,291,24,10,72,336,47,14,31,256,42,15,09,067,16*73
2017-12-01 14:31:33 1512156693.697244: $GPGSV,3,2,12,18,68,100,45,21,25,178,45,24,43,055,49,32,48,268,46*78
2017-12-01 14:31:33 1512156693.697311: $GPGSV,3,3,12,20,06,120,24,25,05,139,24,12,11,105,31,138,38,213,46*42
2017-12-01 14:31:33 1512156693.810491: $GPZDA,193134.00,01,12,2017,00,00*6D
2017-12-01 14:31:33 1512156693.810659: $GPGGA,193134,3946.9538,N,08404.9849,W,2,11,1.00,311.67,M,-33.324,M,,*7E
2017-12-01 14:31:33 1512156693.810725: $GPRMC,193134,A,3946.9538,N,08404.9849,W,0.0000,0.000,011217,,*3D
2017-12-01 14:31:33 1512156693.810785: $GPGSA,A,3,8,10,14,18,21,24,32,20,25,12,138,,2.0,1.0,1.5*38
2017-12-01 14:31:34 1512156694.362706: $GPZDA,193135.00,01,12,2017,00,00*6C
2017-12-01 14:31:34 1512156694.362879: $GPGGA,193135,3946.9538,N,08404.9849,W,2,11,1.00,311.67,M,-33.324,M,,*7F
2017-12-01 14:31:34 1512156694.362946: $GPRMC,193135,A,3946.9538,N,08404.9849,W,0.0000,0.000,011217,,*3C
2017-12-01 14:31:34 1512156694.363029: $GPGSA,A,3,8,10,14,18,21,24,32,20,25,12,138,,2.0,1.0,1.5*38
2017-12-01 14:31:35 1512156695.361776: $GPZDA,193136.00,01,12,2017,00,00*6F
2017-12-01 14:31:35 1512156695.366044: $GPGGA,193136,3946.9538,N,08404.9849,W,2,11,1.00,311.67,M,-33.324,M,,*7C
2017-12-01 14:31:35 1512156695.366170: $GPRMC,193136,A,3946.9538,N,08404.9849,W,0.0000,0.000,011217,,*3F
2017-12-01 14:31:35 1512156695.366238: $GPGSA,A,3,8,10,14,18,21,24,32,20,25,12,138,,2.0,1.0,1.5*38
2017-12-01 14:31:36 1512156696.696169: $GPGSV,3,1,12,08,05,291,30,10,72,336,47,14,31,256,42,15,09,067,17*77
2017-12-01 14:31:36 1512156696.696352: $GPGSV,3,2,12,18,68,100,45,21,25,178,45,24,43,055,49,32,48,268,46*78
2017-12-01 14:31:36 1512156696.696422: $GPGSV,3,3,12,20,06,120,24,25,05,139,21,12,11,105,31,138,38,213,47*46
2017-12-01 14:31:36 1512156696.809812: $GPZDA,193137.00,01,12,2017,00,00*6E
2017-12-01 14:31:36 1512156696.810035: $GPGGA,193137,3946.9538,N,08404.9849,W,2,12,1.00,311.67,M,-33.324,M,,*7E
2017-12-01 14:31:36 1512156696.810130: $GPRMC,193137,A,3946.9538,N,08404.9849,W,0.0000,0.000,011217,,*3E
2017-12-01 14:31:36 1512156696.810195: $GPGSA,A,3,8,10,14,15,18,21,24,32,20,25,12,138,2.0,1.0,1.5*3C
2017-12-01 14:31:37 1512156697.397998: $GPZDA,193138.00,01,12,2017,00,00*61
2017-12-01 14:31:37 1512156697.398194: $GPGGA,193138,3946.9538,N,08404.9849,W,2,12,1.00,311.67,M,-33.324,M,,*71
2017-12-01 14:31:37 1512156697.398263: $GPRMC,193138,A,3946.9538,N,08404.9849,W,0.0000,0.000,011217,,*31
2017-12-01 14:31:37 1512156697.398327: $GPGSA,A,3,8,10,14,15,18,21,24,32,20,25,12,138,2.0,1.0,1.5*3C
2017-12-01 14:31:38 1512156698.360117: $GPZDA,193139.00,01,12,2017,00,00*60
2017-12-01 14:31:38 1512156698.360289: $GPGGA,193139,3946.9538,N,08404.9849,W,2,12,1.00,311.67,M,-33.324,M,,*70
2017-12-01 14:31:38 1512156698.360356: $GPRMC,193139,A,3946.9538,N,08404.9849,W,0.0000,0.000,011217,,*30
2017-12-01 14:31:38 1512156698.360416: $GPGSA,A,3,8,10,14,15,18,21,24,32,20,25,12,138,2.0,1.0,1.5*3C
2017-12-01 14:31:39 1512156699.734635: $GPGSV,3,1,12,08,05,291,31,10,72,336,47,14,31,256,42,27,05,258,11*73
2017-12-01 14:31:39 1512156699.734835: $GPGSV,3,2,12,18,68,100,45,21,25,178,45,24,43,055,49,32,48,268,45*7B
2017-12-01 14:31:39 1512156699.734902: $GPGSV,3,3,12,20,06,120,25,25,05,139,19,12,11,105,31,138,38,213,48*43
2017-12-01 14:31:39 1512156699.848028: $GPZDA,193140.00,01,12,2017,00,00*6E
2017-12-01 14:31:39 1512156699.848225: $GPGGA,193140,3946.9541,N,08404.9849,W,2,12,1.00,310.90,M,-33.324,M,,*79
2017-12-01 14:31:39 1512156699.848291: $GPRMC,193140,A,3946.9541,N,08404.9849,W,0.0000,0.000,011217,,*30
2017-12-01 14:31:39 1512156699.848352: $GPGSA,A,3,8,10,14,27,18,21,24,32,20,25,12,138,2.0,1.0,1.5*3D
2017-12-01 14:31:40 1512156700.473806: $GPZDA,193141.00,01,12,2017,00,00*6F
2017-12-01 14:31:40 1512156700.474036: $GPGGA,193141,3946.9541,N,08404.9849,W,2,12,1.00,310.90,M,-33.324,M,,*78
2017-12-01 14:31:40 1512156700.474125: $GPRMC,193141,A,3946.9541,N,08404.9849,W,0.0000,0.000,011217,,*31
2017-12-01 14:31:40 1512156700.474188: $GPGSA,A,3,8,10,14,27,18,21,24,32,20,25,12,138,2.0,1.0,1.5*3D
2017-12-01 14:31:41 1512156701.398319: $GPZDA,193142.00,01,12,2017,00,00*6C
2017-12-01 14:31:41 1512156701.398492: $GPGGA,193142,3946.9541,N,08404.9849,W,2,12,1.00,310.90,M,-33.324,M,,*7B
2017-12-01 14:31:41 1512156701.398558: $GPRMC,193142,A,3946.9541,N,08404.9849,W,0.0000,0.000,011217,,*32
2017-12-01 14:31:41 1512156701.398619: $GPGSA,A,3,8,10,14,27,18,21,24,32,20,25,12,138,2.0,1.0,1.5*3D
2017-12-01 14:31:42 1512156702.691276: $GPGSV,3,1,12,08,05,291,30,10,72,336,47,14,31,256,42,27,05,258,22*72
2017-12-01 14:31:42 1512156702.691500: $GPGSV,3,2,12,18,68,100,45,21,25,178,45,24,43,055,49,32,48,268,45*7B
2017-12-01 14:31:42 1512156702.691569: $GPGSV,3,3,12,20,06,120,25,25,05,139,18,12,11,105,31,138,38,213,47*4D
2017-12-01 14:31:42 1512156702.804655: $GPZDA,193143.00,01,12,2017,00,00*6D
2017-12-01 14:31:42 1512156702.804801: $GPGGA,193143,3946.9541,N,08404.9849,W,2,12,1.00,310.90,M,-33.324,M,,*7A
2017-12-01 14:31:42 1512156702.804867: $GPRMC,193143,A,3946.9541,N,08404.9849,W,0.0000,0.000,011217,,*33
2017-12-01 14:31:42 1512156702.804927: $GPGSA,A,3,8,10,14,27,18,21,24,32,20,25,12,138,2.0,1.0,1.5*3D
2017-12-01 14:31:43 1512156703.403148: $GPZDA,193144.00,01,12,2017,00,00*6A
2017-12-01 14:31:43 1512156703.403316: $GPGGA,193144,3946.9541,N,08404.9849,W,2,12,1.00,310.90,M,-33.324,M,,*7D
2017-12-01 14:31:43 1512156703.403384: $GPRMC,193144,A,3946.9541,N,08404.9849,W,0.0000,0.000,011217,,*34
2017-12-01 14:31:43 1512156703.403445: $GPGSA,A,3,8,10,14,27,18,21,24,32,20,25,12,138,2.0,1.0,1.5*3D
2017-12-01 14:31:44 1512156704.362918: $GPZDA,193145.00,01,12,2017,00,00*6B
2017-12-01 14:31:44 1512156704.363118: $GPGGA,193145,3946.9541,N,08404.9849,W,2,12,1.00,310.90,M,-33.324,M,,*7C
2017-12-01 14:31:44 1512156704.363186: $GPRMC,193145,A,3946.9541,N,08404.9849,W,0.0000,0.000,011217,,*35
2017-12-01 14:31:44 1512156704.363248: $GPGSA,A,3,8,10,14,27,18,21,24,32,20,25,12,138,2.0,1.0,1.5*3D
2017-12-01 14:31:45 1512156705.732867: $GPGSV,3,1,12,08,05,291,30,10,72,336,47,14,31,256,42,27,05,258,22*72
2017-12-01 14:31:45 1512156705.733118: $GPGSV,3,2,12,18,68,100,45,21,25,178,46,24,43,055,49,32,48,268,45*78
2017-12-01 14:31:45 1512156705.733210: $GPGSV,3,3,12,20,06,120,24,25,05,139,17,12,11,105,31,138,38,213,46*42
2017-12-01 14:31:45 1512156705.846632: $GPZDA,193146.00,01,12,2017,00,00*68
2017-12-01 14:31:45 1512156705.846802: $GPGGA,193146,3946.9541,N,08404.9849,W,2,12,1.00,310.90,M,-33.324,M,,*7F
2017-12-01 14:31:45 1512156705.846868: $GPRMC,193146,A,3946.9541,N,08404.9849,W,0.0000,0.000,011217,,*36
2017-12-01 14:31:45 1512156705.846949: $GPGSA,A,3,8,10,14,27,18,21,24,32,20,25,12,138,2.0,1.0,1.5*3D
2017-12-01 14:31:46 1512156706.359662: $GPZDA,193147.00,01,12,2017,00,00*69
2017-12-01 14:31:46 1512156706.359835: $GPGGA,193147,3946.9541,N,08404.9849,W,2,12,1.00,310.90,M,-33.324,M,,*7E
2017-12-01 14:31:46 1512156706.359903: $GPRMC,193147,A,3946.9541,N,08404.9849,W,0.0000,0.000,011217,,*37
2017-12-01 14:31:46 1512156706.359994: $GPGSA,A,3,8,10,14,27,18,21,24,32,20,25,12,138,2.0,1.0,1.5*3D
2017-12-01 14:31:47 1512156707.360447: $GPZDA,193148.00,01,12,2017,00,00*66
2017-12-01 14:31:47 1512156707.360614: $GPGGA,193148,3946.9541,N,08404.9849,W,2,12,1.00,310.90,M,-33.324,M,,*71
2017-12-01 14:31:47 1512156707.360680: $GPRMC,193148,A,3946.9541,N,08404.9849,W,0.0000,0.000,011217,,*38
2017-12-01 14:31:47 1512156707.360741: $GPGSA,A,3,8,10,14,27,18,21,24,32,20,25,12,138,2.0,1.0,1.5*3D
