2017-12-29 11:09:46 1514563786.017062: {"class":"VERSION","release":"3.16","rev":"3.16-4","proto_major":3,"proto_minor":11}
2017-12-29 11:09:46 1514563786.017398: {"class":"DEVICES","devices":[{"class":"DEVICE","path":"/dev/ttyUSB0","driver":"SiRF","subtype":"9\u0006GSD4e_4.1.2-P1_RPATCH.05-F-GPS-4R-1510281 11/03/2015 307","activated":"2017-12-29T16:09:45.549Z","flags":1,"native":1,"bps":4800,"parity":"N","stopbits":1,"cycle":1.00}]}
2017-12-29 11:09:46 1514563786.017511: {"class":"WATCH","enable":true,"json":false,"nmea":true,"raw":0,"scaled":false,"timing":false,"split24":false,"pps":false}
2017-12-29 11:09:46 1514563786.734991: $GPGSV,3,1,12,08,04,325,25,10,39,298,41,15,40,051,48,18,69,331,42*73
2017-12-29 11:09:46 1514563786.735148: $GPGSV,3,2,12,20,37,093,48,21,67,193,45,24,49,115,46,27,19,292,33*7B
2017-12-29 11:09:46 1514563786.735214: $GPGSV,3,3,12,32,19,235,37,13,10,048,28,14,01,231,16,138,38,213,45*45
2017-12-29 11:09:46 1514563786.848330: $GPZDA,160947.00,29,12,2017,00,00*67
2017-12-29 11:09:46 1514563786.848457: $GPGGA,160947,3946.9581,N,08404.9856,W,2,11,1.00,305.14,M,-33.324,M,,*73
2017-12-29 11:09:46 1514563786.848521: $GPRMC,160947,A,3946.9581,N,08404.9856,W,0.0000,0.000,291217,,*3B
2017-12-29 11:09:46 1514563786.848609: $GPGSA,A,3,8,10,15,18,20,21,24,27,32,13,138,,1.7,1.0,1.3*38
2017-12-29 11:09:47 1514563787.473746: $GPZDA,160948.00,29,12,2017,00,00*68
2017-12-29 11:09:47 1514563787.473907: $GPGGA,160948,3946.9581,N,08404.9856,W,2,11,1.20,305.14,M,-33.324,M,,*7E
2017-12-29 11:09:47 1514563787.473973: $GPRMC,160948,A,3946.9581,N,08404.9856,W,0.0000,0.000,291217,,*34
2017-12-29 11:09:47 1514563787.474034: $GPGSA,A,3,8,10,15,18,20,21,24,27,32,13,138,,1.7,1.2,1.3*3A
2017-12-29 11:09:48 1514563788.398360: $GPZDA,160949.00,29,12,2017,00,00*69
2017-12-29 11:09:48 1514563788.398515: $GPGGA,160949,3946.9581,N,08404.9856,W,2,11,1.20,305.14,M,-33.324,M,,*7F
2017-12-29 11:09:48 1514563788.398601: $GPRMC,160949,A,3946.9581,N,08404.9856,W,0.0000,0.000,291217,,*35
2017-12-29 11:09:48 1514563788.398664: $GPGSA,A,3,8,10,15,18,20,21,24,27,32,13,138,,1.7,1.2,1.3*3A
2017-12-29 11:09:49 1514563789.735356: $GPGSV,3,1,12,08,04,325,25,10,39,298,42,15,40,051,49,18,69,331,41*72
2017-12-29 11:09:49 1514563789.735501: $GPGSV,3,2,12,20,37,093,48,21,67,193,45,24,49,115,46,27,19,292,33*7B
2017-12-29 11:09:49 1514563789.735584: $GPGSV,3,3,12,32,19,235,37,13,10,048,27,14,01,231,00,138,38,213,45*4D
2017-12-29 11:09:49 1514563789.848706: $GPZDA,160950.00,29,12,2017,00,00*61
2017-12-29 11:09:49 1514563789.848813: $GPGGA,160950,3946.9585,N,08404.9862,W,2,11,1.20,304.30,M,-33.324,M,,*73
2017-12-29 11:09:49 1514563789.848878: $GPRMC,160950,A,3946.9585,N,08404.9862,W,0.0000,0.000,291217,,*3E
2017-12-29 11:09:49 1514563789.848938: $GPGSA,A,3,8,10,15,18,20,21,24,27,32,13,138,,1.7,1.2,1.3*3A
2017-12-29 11:09:50 1514563790.399610: $GPZDA,160951.00,29,12,2017,00,00*60
2017-12-29 11:09:50 1514563790.399783: $GPGGA,160951,3946.9585,N,08404.9862,W,2,11,1.20,304.30,M,-33.324,M,,*72
2017-12-29 11:09:50 1514563790.399849: $GPRMC,160951,A,3946.9585,N,08404.9862,W,0.4179,328.778,291217,,*35
2017-12-29 11:09:50 1514563790.399911: $GPGSA,A,3,8,10,15,18,20,21,24,27,32,13,138,,1.7,1.2,1.3*3A
2017-12-29 11:09:51 1514563791.397997: $GPZDA,160952.00,29,12,2017,00,00*63
2017-12-29 11:09:51 1514563791.398160: $GPGGA,160952,3946.9584,N,08404.9868,W,2,11,1.20,301.41,M,-33.324,M,,*79
2017-12-29 11:09:51 1514563791.398226: $GPRMC,160952,A,3946.9584,N,08404.9868,W,0.4315,214.066,291217,,*33
2017-12-29 11:09:51 1514563791.398287: $GPGSA,A,3,8,10,15,18,20,21,24,27,32,13,138,,1.7,1.2,1.3*3A
2017-12-29 11:09:52 1514563792.730739: $GPGSV,3,1,12,08,04,325,25,10,39,298,42,15,40,051,48,18,69,331,41*73
2017-12-29 11:09:52 1514563792.730916: $GPGSV,3,2,12,20,37,093,47,21,67,193,45,24,49,115,46,27,19,292,33*74
2017-12-29 11:09:52 1514563792.730981: $GPGSV,3,3,12,32,19,235,36,13,10,048,27,14,01,231,00,138,38,213,46*4F
2017-12-29 11:09:52 1514563792.844067: $GPZDA,160953.00,29,12,2017,00,00*62
2017-12-29 11:09:52 1514563792.844188: $GPGGA,160953,3946.9588,N,08404.9868,W,2,11,1.20,302.05,M,-33.324,M,,*77
2017-12-29 11:09:52 1514563792.844321: $GPRMC,160953,A,3946.9588,N,08404.9868,W,0.0000,0.000,291217,,*3A
2017-12-29 11:09:52 1514563792.844385: $GPGSA,A,3,8,10,15,18,20,21,24,27,32,13,138,,1.7,1.2,1.3*3A
2017-12-29 11:09:53 1514563793.396221: $GPZDA,160954.00,29,12,2017,00,00*65
2017-12-29 11:09:53 1514563793.396377: $GPGGA,160954,3946.9584,N,08404.9868,W,2,11,1.20,301.41,M,-33.324,M,,*7F
2017-12-29 11:09:53 1514563793.396443: $GPRMC,160954,A,3946.9584,N,08404.9868,W,0.0000,0.000,291217,,*31
2017-12-29 11:09:53 1514563793.396504: $GPGSA,A,3,8,10,15,18,20,21,24,27,32,13,138,,1.7,1.2,1.3*3A
2017-12-29 11:09:54 1514563794.398333: $GPZDA,160955.00,29,12,2017,00,00*64
2017-12-29 11:09:54 1514563794.398501: $GPGGA,160955,3946.9584,N,08404.9868,W,2,11,1.20,301.41,M,-33.324,M,,*7E
2017-12-29 11:09:54 1514563794.398593: $GPRMC,160955,A,3946.9584,N,08404.9868,W,0.0000,0.000,291217,,*30
2017-12-29 11:09:54 1514563794.398670: $GPGSA,A,3,8,10,15,18,20,21,24,27,32,13,138,,1.7,1.2,1.3*3A
2017-12-29 11:09:55 1514563795.735346: $GPGSV,3,1,12,08,04,325,24,10,39,298,42,15,40,051,48,18,69,331,41*72
2017-12-29 11:09:55 1514563795.735533: $GPGSV,3,2,12,20,37,093,47,21,67,193,44,24,49,115,46,27,19,292,34*72
2017-12-29 11:09:55 1514563795.735602: $GPGSV,3,3,12,32,19,235,36,13,10,048,27,14,01,231,00,138,38,213,46*4F
2017-12-29 11:09:55 1514563795.847417: $GPZDA,160956.00,29,12,2017,00,00*67
2017-12-29 11:09:55 1514563795.847564: $GPGGA,160956,3946.9584,N,08404.9868,W,2,11,1.20,301.41,M,-33.324,M,,*7D
2017-12-29 11:09:55 1514563795.847631: $GPRMC,160956,A,3946.9584,N,08404.9868,W,0.0000,0.000,291217,,*33
2017-12-29 11:09:55 1514563795.847709: $GPGSA,A,3,8,10,15,18,20,21,24,27,32,13,138,,1.7,1.2,1.3*3A
2017-12-29 11:09:56 1514563796.398493: $GPZDA,160957.00,29,12,2017,00,00*66
2017-12-29 11:09:56 1514563796.398692: $GPGGA,160957,3946.9584,N,08404.9875,W,2,11,1.20,301.33,M,-33.324,M,,*75
2017-12-29 11:09:56 1514563796.398759: $GPRMC,160957,A,3946.9584,N,08404.9875,W,0.0000,0.000,291217,,*3E
2017-12-29 11:09:56 1514563796.398820: $GPGSA,A,3,8,10,15,18,20,21,24,27,32,13,138,,1.7,1.2,1.3*3A
2017-12-29 11:09:57 1514563797.396199: $GPZDA,160958.00,29,12,2017,00,00*69
2017-12-29 11:09:57 1514563797.396367: $GPGGA,160958,3946.9584,N,08404.9875,W,2,11,1.20,301.33,M,-33.324,M,,*7A
2017-12-29 11:09:57 1514563797.396434: $GPRMC,160958,A,3946.9584,N,08404.9875,W,0.0000,0.000,291217,,*31
2017-12-29 11:09:57 1514563797.396494: $GPGSA,A,3,8,10,15,18,20,21,24,27,32,13,138,,1.7,1.2,1.3*3A
2017-12-29 11:09:58 1514563798.734456: $GPGSV,3,1,12,08,04,325,24,10,39,298,42,15,40,051,48,18,69,331,41*72
2017-12-29 11:09:58 1514563798.734652: $GPGSV,3,2,12,20,37,093,47,21,67,193,44,24,49,115,47,27,19,292,34*73
2017-12-29 11:09:58 1514563798.734719: $GPGSV,3,3,12,32,19,235,35,13,10,048,27,14,01,231,00,138,38,213,45*4F
2017-12-29 11:09:58 1514563798.847806: $GPZDA,160959.00,29,12,2017,00,00*68
2017-12-29 11:09:58 1514563798.847944: $GPGGA,160959,3946.9584,N,08404.9875,W,2,11,1.20,301.33,M,-33.324,M,,*7B
2017-12-29 11:09:58 1514563798.848008: $GPRMC,160959,A,3946.9584,N,08404.9875,W,0.0000,0.000,291217,,*30
2017-12-29 11:09:58 1514563798.848069: $GPGSA,A,3,8,10,15,18,20,21,24,27,32,13,138,,1.7,1.2,1.3*3A
2017-12-29 11:09:59 1514563799.396363: $GPZDA,161000.00,29,12,2017,00,00*6C
2017-12-29 11:09:59 1514563799.396536: $GPGGA,161000,3946.9584,N,08404.9875,W,2,11,1.20,301.33,M,-33.324,M,,*7F
2017-12-29 11:09:59 1514563799.396602: $GPRMC,161000,A,3946.9584,N,08404.9875,W,0.0000,0.000,291217,,*34
2017-12-29 11:09:59 1514563799.396663: $GPGSA,A,3,8,10,15,18,20,21,24,27,32,13,138,,1.7,1.2,1.3*3A
2017-12-29 11:10:00 1514563800.397399: $GPZDA,161001.00,29,12,2017,00,00*6D
2017-12-29 11:10:00 1514563800.397561: $GPGGA,161001,3946.9584,N,08404.9875,W,2,11,1.20,301.33,M,-33.324,M,,*7E
2017-12-29 11:10:00 1514563800.397626: $GPRMC,161001,A,3946.9584,N,08404.9875,W,0.0000,0.000,291217,,*35
2017-12-29 11:10:00 1514563800.397686: $GPGSA,A,3,8,10,15,18,20,21,24,27,32,13,138,,1.7,1.2,1.3*3A
2017-12-29 11:10:01 1514563801.735353: $GPGSV,3,1,12,08,04,325,22,10,39,298,43,15,40,051,48,18,69,331,42*76
2017-12-29 11:10:01 1514563801.735545: $GPGSV,3,2,12,20,37,093,48,21,67,193,44,24,49,115,47,27,19,292,35*7D
2017-12-29 11:10:01 1514563801.735612: $GPGSV,3,3,12,32,19,235,35,13,10,048,27,14,01,231,00,138,38,213,45*4F
2017-12-29 11:10:01 1514563801.848938: $GPZDA,161002.00,29,12,2017,00,00*6E
2017-12-29 11:10:01 1514563801.849061: $GPGGA,161002,3946.9584,N,08404.9875,W,2,11,1.20,301.33,M,-33.324,M,,*7D
2017-12-29 11:10:01 1514563801.849126: $GPRMC,161002,A,3946.9584,N,08404.9875,W,0.0000,0.000,291217,,*36
2017-12-29 11:10:01 1514563801.849187: $GPGSA,A,3,8,10,15,18,20,21,24,27,32,13,138,,1.7,1.2,1.3*3A
2017-12-29 11:10:02 1514563802.474373: $GPZDA,161003.00,29,12,2017,00,00*6F
2017-12-29 11:10:02 1514563802.474535: $GPGGA,161003,3946.9584,N,08404.9868,W,2,11,1.20,301.41,M,-33.324,M,,*75
2017-12-29 11:10:02 1514563802.474601: $GPRMC,161003,A,3946.9584,N,08404.9868,W,0.2422,273.794,291217,,*31
2017-12-29 11:10:02 1514563802.474663: $GPGSA,A,3,8,10,15,18,20,21,24,27,32,13,138,,1.7,1.2,1.3*3A
2017-12-29 11:10:03 1514563803.398977: $GPZDA,161004.00,29,12,2017,00,00*68
2017-12-29 11:10:03 1514563803.399134: $GPGGA,161004,3946.9584,N,08404.9868,W,2,11,1.20,301.41,M,-33.324,M,,*72
2017-12-29 11:10:03 1514563803.399200: $GPRMC,161004,A,3946.9584,N,08404.9868,W,0.3006,62.539,291217,,*02
2017-12-29 11:10:03 1514563803.399260: $GPGSA,A,3,8,10,15,18,20,21,24,27,32,13,138,,1.7,1.2,1.3*3A
2017-12-29 11:10:04 1514563804.733192: $GPGSV,3,1,12,08,04,325,19,10,39,298,43,15,40,051,48,18,69,331,41*7D
2017-12-29 11:10:04 1514563804.733364: $GPGSV,3,2,12,20,37,093,48,21,67,193,44,24,49,115,46,27,19,292,35*7C
2017-12-29 11:10:04 1514563804.733430: $GPGSV,3,3,12,32,19,235,35,13,10,048,27,14,01,231,00,138,38,213,45*4F
2017-12-29 11:10:04 1514563804.846557: $GPZDA,161005.00,29,12,2017,00,00*69
2017-12-29 11:10:04 1514563804.846698: $GPGGA,161005,3946.9585,N,08404.9869,W,2,11,1.20,302.82,M,-33.324,M,,*7F
2017-12-29 11:10:04 1514563804.846765: $GPRMC,161005,A,3946.9585,N,08404.9869,W,0.3006,62.539,291217,,*03
2017-12-29 11:10:04 1514563804.846825: $GPGSA,A,3,8,10,15,18,20,21,24,27,32,13,138,,1.7,1.2,1.3*3A
2017-12-29 11:10:05 1514563805.398796: $GPZDA,161006.00,29,12,2017,00,00*6A
2017-12-29 11:10:05 1514563805.398961: $GPGGA,161006,3946.9585,N,08404.9869,W,2,11,1.20,302.82,M,-33.324,M,,*7C
2017-12-29 11:10:05 1514563805.399028: $GPRMC,161006,A,3946.9585,N,08404.9869,W,0.4207,39.346,291217,,*04
2017-12-29 11:10:05 1514563805.399089: $GPGSA,A,3,8,10,15,18,20,21,24,27,32,13,138,,1.7,1.2,1.3*3A
2017-12-29 11:10:06 1514563806.398387: $GPZDA,161007.00,29,12,2017,00,00*6B
2017-12-29 11:10:06 1514563806.398550: $GPGGA,161007,3946.9581,N,08404.9862,W,2,11,1.20,303.66,M,-33.324,M,,*79
2017-12-29 11:10:06 1514563806.398616: $GPRMC,161007,A,3946.9581,N,08404.9862,W,0.5287,182.716,291217,,*33
2017-12-29 11:10:06 1514563806.398678: $GPGSA,A,3,8,10,15,18,20,21,24,27,32,13,138,,1.7,1.2,1.3*3A
2017-12-29 11:10:07 1514563807.734834: $GPGSV,3,1,12,08,04,325,19,10,39,298,43,15,40,051,48,18,69,331,41*7D
2017-12-29 11:10:07 1514563807.735016: $GPGSV,3,2,12,20,37,093,47,21,67,193,44,24,49,115,46,27,19,292,36*70
2017-12-29 11:10:07 1514563807.735083: $GPGSV,3,3,12,32,19,235,34,13,10,048,27,14,01,231,00,138,38,213,44*4F
2017-12-29 11:10:07 1514563807.848246: $GPZDA,161008.00,29,12,2017,00,00*64
2017-12-29 11:10:07 1514563807.848388: $GPGGA,161008,3946.9581,N,08404.9862,W,2,11,1.20,303.66,M,-33.324,M,,*76
2017-12-29 11:10:07 1514563807.848454: $GPRMC,161008,A,3946.9581,N,08404.9862,W,0.0000,0.000,291217,,*3F
2017-12-29 11:10:07 1514563807.848515: $GPGSA,A,3,8,10,15,18,20,21,24,27,32,13,138,,1.7,1.2,1.3*3A
2017-12-29 11:10:08 1514563808.399127: $GPZDA,161009.00,29,12,2017,00,00*65
2017-12-29 11:10:08 1514563808.399300: $GPGGA,161009,3946.9581,N,08404.9862,W,2,11,1.20,303.66,M,-33.324,M,,*77
2017-12-29 11:10:08 1514563808.399367: $GPRMC,161009,A,3946.9581,N,08404.9862,W,0.0000,0.000,291217,,*3E
2017-12-29 11:10:08 1514563808.399428: $GPGSA,A,3,8,10,15,18,20,21,24,27,32,13,138,,1.7,1.2,1.3*3A
2017-12-29 11:10:09 1514563809.398737: $GPZDA,161010.00,29,12,2017,00,00*6D
2017-12-29 11:10:09 1514563809.398905: $GPGGA,161010,3946.9581,N,08404.9862,W,2,11,1.20,303.66,M,-33.324,M,,*7F
2017-12-29 11:10:09 1514563809.398988: $GPRMC,161010,A,3946.9581,N,08404.9862,W,0.0000,0.000,291217,,*36
2017-12-29 11:10:09 1514563809.399050: $GPGSA,A,3,8,10,15,18,20,21,24,27,32,13,138,,1.7,1.2,1.3*3A
2017-12-29 11:10:10 1514563810.753226: $GPGSV,3,1,12,08,04,325,19,10,39,298,43,15,40,051,48,18,69,331,42*7E
2017-12-29 11:10:10 1514563810.753411: $GPGSV,3,2,12,20,37,093,47,21,67,193,44,24,49,115,47,27,19,292,36*71
2017-12-29 11:10:10 1514563810.753558: $GPGSV,3,3,12,32,19,235,34,13,10,048,26,14,01,231,01,138,38,213,44*4F
2017-12-29 11:10:10 1514563810.866827: $GPZDA,161011.00,29,12,2017,00,00*6C
2017-12-29 11:10:10 1514563810.866967: $GPGGA,161011,3946.9581,N,08404.9862,W,2,11,1.20,303.66,M,-33.324,M,,*7E
2017-12-29 11:10:10 1514563810.867032: $GPRMC,161011,A,3946.9581,N,08404.9862,W,0.0000,0.000,291217,,*37
2017-12-29 11:10:10 1514563810.867092: $GPGSA,A,3,8,10,15,18,20,21,24,27,32,13,138,,1.7,1.2,1.3*3A
