2017-11-16 14:44:41 1510861481.177551: {"class":"VERSION","release":"3.17","rev":"3.17","proto_major":3,"proto_minor":12}
2017-11-16 14:44:41 1510861481.178061: {"class":"DEVICES","devices":[{"class":"DEVICE","path":"/dev/ttyUSB0","driver":"SiRF","subtype":"9\u0006GSD4e_4.1.2-P1_RPATCH.05-F-GPS-4R-1510281 11/03/2015 307","activated":"2017-11-16T19:44:40.674Z","flags":1,"native":1,"bps":4800,"parity":"N","stopbits":1,"cycle":1.00}]}
2017-11-16 14:44:41 1510861481.178177: {"class":"WATCH","enable":true,"json":false,"nmea":true,"raw":0,"scaled":false,"timing":false,"split24":false,"pps":false}
2017-11-16 14:44:41 1510861481.498060: $GPZDA,194440.00,16,11,2017,00,00*69
2017-11-16 14:44:41 1510861481.498233: $GPGGA,194440,3946.9564,N,08404.9842,W,2,11,0.80,302.74,M,-33.324,M,,*74
2017-11-16 14:44:41 1510861481.498294: $GPRMC,194440,A,3946.9564,N,08404.9842,W,0.0000,0.000,161117,,*3B
2017-11-16 14:44:41 1510861481.498351: $GPGSA,A,3,8,10,15,18,21,20,24,27,32,14,138,,1.6,0.8,1.3*37
2017-11-16 14:44:42 1510861482.835110: $GPGSV,3,1,11,08,08,310,29,10,52,312,50,15,26,057,51,18,77,021,44*7D
2017-11-16 14:44:42 1510861482.835282: $GPGSV,3,2,11,21,49,183,47,20,23,106,45,24,53,087,49,27,15,276,44*7A
2017-11-16 14:44:42 1510861482.835342: $GPGSV,3,3,11,32,31,247,48,14,15,240,40,138,38,213,44*75
2017-11-16 14:44:42 1510861482.948349: $GPZDA,194441.00,16,11,2017,00,00*68
2017-11-16 14:44:42 1510861482.948511: $GPGGA,194441,3946.9564,N,08404.9842,W,2,11,0.80,302.74,M,-33.324,M,,*75
2017-11-16 14:44:42 1510861482.948571: $GPRMC,194441,A,3946.9564,N,08404.9842,W,0.0000,0.000,161117,,*3A
2017-11-16 14:44:42 1510861482.948627: $GPGSA,A,3,8,10,15,18,21,20,24,27,32,14,138,,1.6,0.8,1.3*37
2017-11-16 14:44:43 1510861483.531812: $GPZDA,194442.00,16,11,2017,00,00*6B
2017-11-16 14:44:43 1510861483.531977: $GPGGA,194442,3946.9564,N,08404.9842,W,2,11,0.80,302.74,M,-33.324,M,,*76
2017-11-16 14:44:43 1510861483.532041: $GPRMC,194442,A,3946.9564,N,08404.9842,W,0.0000,0.000,161117,,*39
2017-11-16 14:44:43 1510861483.532097: $GPGSA,A,3,8,10,15,18,21,20,24,27,32,14,138,,1.6,0.8,1.3*37
2017-11-16 14:44:44 1510861484.492052: $GPZDA,194443.00,16,11,2017,00,00*6A
2017-11-16 14:44:44 1510861484.492216: $GPGGA,194443,3946.9564,N,08404.9842,W,2,11,0.80,302.74,M,-33.324,M,,*77
2017-11-16 14:44:44 1510861484.492276: $GPRMC,194443,A,3946.9564,N,08404.9842,W,0.0000,0.000,161117,,*38
2017-11-16 14:44:44 1510861484.492332: $GPGSA,A,3,8,10,15,18,21,20,24,27,32,14,138,,1.6,0.8,1.3*37
2017-11-16 14:44:45 1510861485.871548: $GPGSV,3,1,11,08,08,310,26,10,52,312,50,15,26,057,51,18,77,021,44*72
2017-11-16 14:44:45 1510861485.871721: $GPGSV,3,2,11,21,49,183,47,20,23,106,45,24,53,087,49,27,15,276,44*7A
2017-11-16 14:44:45 1510861485.871782: $GPGSV,3,3,11,32,31,247,48,14,15,240,40,138,38,213,42*73
2017-11-16 14:44:45 1510861485.984876: $GPZDA,194444.00,16,11,2017,00,00*6D
2017-11-16 14:44:45 1510861485.985057: $GPGGA,194444,3946.9564,N,08404.9842,W,2,11,0.80,302.74,M,-33.324,M,,*70
2017-11-16 14:44:45 1510861485.985119: $GPRMC,194444,A,3946.9564,N,08404.9842,W,0.0000,0.000,161117,,*3F
2017-11-16 14:44:45 1510861485.985175: $GPGSA,A,3,8,10,15,18,21,20,24,27,32,14,138,,1.6,0.8,1.3*37
2017-11-16 14:44:46 1510861486.535674: $GPZDA,194445.00,16,11,2017,00,00*6C
2017-11-16 14:44:46 1510861486.535847: $GPGGA,194445,3946.9564,N,08404.9842,W,2,11,0.80,302.74,M,-33.324,M,,*71
2017-11-16 14:44:46 1510861486.535909: $GPRMC,194445,A,3946.9564,N,08404.9842,W,0.0000,0.000,161117,,*3E
2017-11-16 14:44:46 1510861486.535965: $GPGSA,A,3,8,10,15,18,21,20,24,27,32,14,138,,1.6,0.8,1.3*37
2017-11-16 14:44:47 1510861487.496521: $GPZDA,194446.00,16,11,2017,00,00*6F
2017-11-16 14:44:47 1510861487.496691: $GPGGA,194446,3946.9564,N,08404.9842,W,2,11,0.80,302.74,M,-33.324,M,,*72
2017-11-16 14:44:47 1510861487.496752: $GPRMC,194446,A,3946.9564,N,08404.9842,W,0.0000,0.000,161117,,*3D
2017-11-16 14:44:47 1510861487.496808: $GPGSA,A,3,8,10,15,18,21,20,24,27,32,14,138,,1.6,0.8,1.3*37
2017-11-16 14:44:48 1510861488.833488: $GPGSV,3,1,11,08,08,310,34,10,52,312,50,15,26,057,51,18,77,021,44*71
2017-11-16 14:44:48 1510861488.833717: $GPGSV,3,2,11,21,49,183,47,20,23,106,45,24,53,087,48,27,15,276,43*7C
2017-11-16 14:44:48 1510861488.833779: $GPGSV,3,3,11,32,31,247,48,14,15,240,40,138,38,213,43*72
2017-11-16 14:44:48 1510861488.946788: $GPZDA,194447.00,16,11,2017,00,00*6E
2017-11-16 14:44:48 1510861488.946956: $GPGGA,194447,3946.9564,N,08404.9842,W,2,11,0.80,302.74,M,-33.324,M,,*73
2017-11-16 14:44:48 1510861488.947018: $GPRMC,194447,A,3946.9564,N,08404.9842,W,0.0000,0.000,161117,,*3C
2017-11-16 14:44:48 1510861488.947075: $GPGSA,A,3,8,10,15,18,21,20,24,27,32,14,138,,1.6,0.8,1.3*37
2017-11-16 14:44:49 1510861489.572520: $GPZDA,194448.00,16,11,2017,00,00*61
2017-11-16 14:44:49 1510861489.572699: $GPGGA,194448,3946.9564,N,08404.9842,W,2,11,0.80,302.74,M,-33.324,M,,*7C
2017-11-16 14:44:49 1510861489.572761: $GPRMC,194448,A,3946.9564,N,08404.9842,W,0.0000,0.000,161117,,*33
2017-11-16 14:44:49 1510861489.572816: $GPGSA,A,3,8,10,15,18,21,20,24,27,32,14,138,,1.6,0.8,1.3*37
2017-11-16 14:44:50 1510861490.496846: $GPZDA,194449.00,16,11,2017,00,00*60
2017-11-16 14:44:50 1510861490.497011: $GPGGA,194449,3946.9564,N,08404.9842,W,2,11,0.80,302.74,M,-33.324,M,,*7D
2017-11-16 14:44:50 1510861490.497073: $GPRMC,194449,A,3946.9564,N,08404.9842,W,0.0000,0.000,161117,,*32
2017-11-16 14:44:50 1510861490.497129: $GPGSA,A,3,8,10,15,18,21,20,24,27,32,14,138,,1.6,0.8,1.3*37
