2017-12-01 16:06:32 1512162392.067334: {"class":"VERSION","release":"3.16","rev":"3.16-4","proto_major":3,"proto_minor":11}
2017-12-01 16:06:32 1512162392.067701: {"class":"DEVICES","devices":[{"class":"DEVICE","path":"/dev/ttyUSB0","driver":"SiRF","subtype":"9\u0006GSD4e_4.1.2-P1_RPATCH.05-F-GPS-4R-1510281 11/03/2015 307","activated":"2017-12-01T21:06:31.943Z","flags":1,"native":1,"bps":4800,"parity":"N","stopbits":1,"cycle":1.00}]}
2017-12-01 16:06:32 1512162392.067814: {"class":"WATCH","enable":true,"json":false,"nmea":true,"raw":0,"scaled":false,"timing":false,"split24":false,"pps":false}
2017-12-01 16:06:32 1512162392.367565: $GPZDA,210633.00,01,12,2017,00,00*65
2017-12-01 16:06:32 1512162392.367741: $GPGGA,210633,3946.9570,N,08404.9818,W,2,12,0.80,310.72,M,-33.324,M,,*71
2017-12-01 16:06:32 1512162392.367807: $GPRMC,210633,A,3946.9570,N,08404.9818,W,0.0000,0.000,011217,,*3D
2017-12-01 16:06:32 1512162392.367868: $GPGSA,A,3,1,10,12,14,18,25,31,32,11,22,24,138,2.0,0.8,1.5*3B
2017-12-01 16:06:33 1512162393.374214: $GPZDA,210634.00,01,12,2017,00,00*62
2017-12-01 16:06:33 1512162393.374387: $GPGGA,210634,3946.9570,N,08404.9818,W,2,12,0.80,310.72,M,-33.324,M,,*76
2017-12-01 16:06:33 1512162393.374454: $GPRMC,210634,A,3946.9570,N,08404.9818,W,0.0000,0.000,011217,,*3A
2017-12-01 16:06:33 1512162393.374514: $GPGSA,A,3,1,10,12,14,18,25,31,32,11,22,24,138,2.0,0.8,1.5*3B
2017-12-01 16:06:34 1512162394.709882: $GPGSV,3,1,12,01,18,310,38,10,60,141,48,12,25,061,42,14,60,306,45*74
2017-12-01 16:06:34 1512162394.710080: $GPGSV,3,2,12,18,28,139,43,25,35,105,48,31,45,217,49,32,70,355,47*71
2017-12-01 16:06:34 1512162394.710147: $GPGSV,3,3,12,11,10,292,37,22,10,312,37,24,06,046,29,138,38,213,46*49
2017-12-01 16:06:34 1512162394.823264: $GPZDA,210635.00,01,12,2017,00,00*63
2017-12-01 16:06:34 1512162394.823406: $GPGGA,210635,3946.9570,N,08404.9818,W,2,12,0.80,310.72,M,-33.324,M,,*77
2017-12-01 16:06:34 1512162394.823472: $GPRMC,210635,A,3946.9570,N,08404.9818,W,0.0000,0.000,011217,,*3B
2017-12-01 16:06:34 1512162394.823532: $GPGSA,A,3,1,10,12,14,18,25,31,32,11,22,24,138,2.0,0.8,1.5*3B
2017-12-01 16:06:35 1512162395.372892: $GPZDA,210636.00,01,12,2017,00,00*60
2017-12-01 16:06:35 1512162395.373086: $GPGGA,210636,3946.9570,N,08404.9818,W,2,12,0.80,310.72,M,-33.324,M,,*74
2017-12-01 16:06:35 1512162395.373171: $GPRMC,210636,A,3946.9570,N,08404.9818,W,0.0000,0.000,011217,,*38
2017-12-01 16:06:35 1512162395.373234: $GPGSA,A,3,1,10,12,14,18,25,31,32,11,22,24,138,2.0,0.8,1.5*3B
2017-12-01 16:06:36 1512162396.373769: $GPZDA,210637.00,01,12,2017,00,00*61
2017-12-01 16:06:36 1512162396.373958: $GPGGA,210637,3946.9570,N,08404.9818,W,2,12,0.80,310.72,M,-33.324,M,,*75
2017-12-01 16:06:36 1512162396.374043: $GPRMC,210637,A,3946.9570,N,08404.9818,W,0.0000,0.000,011217,,*39
2017-12-01 16:06:36 1512162396.374106: $GPGSA,A,3,1,10,12,14,18,25,31,32,11,22,24,138,2.0,0.8,1.5*3B
2017-12-01 16:06:37 1512162397.689494: $GPGSV,3,1,12,01,18,310,37,10,60,141,48,12,25,061,42,14,60,306,45*7B
2017-12-01 16:06:37 1512162397.689676: $GPGSV,3,2,12,18,28,139,42,25,35,105,48,31,45,217,49,32,70,355,46*71
2017-12-01 16:06:37 1512162397.689743: $GPGSV,3,3,12,11,10,292,36,22,10,312,36,24,06,046,29,138,38,213,45*4A
2017-12-01 16:06:37 1512162397.802892: $GPZDA,210638.00,01,12,2017,00,00*6E
2017-12-01 16:06:37 1512162397.803074: $GPGGA,210638,3946.9570,N,08404.9818,W,2,12,0.80,310.72,M,-33.324,M,,*7A
2017-12-01 16:06:37 1512162397.803158: $GPRMC,210638,A,3946.9570,N,08404.9818,W,0.0000,0.000,011217,,*36
2017-12-01 16:06:37 1512162397.803221: $GPGSA,A,3,1,10,12,14,18,25,31,32,11,22,24,138,2.0,0.8,1.5*3B
2017-12-01 16:06:38 1512162398.429592: $GPZDA,210639.00,01,12,2017,00,00*6F
2017-12-01 16:06:38 1512162398.429765: $GPGGA,210639,3946.9570,N,08404.9818,W,2,12,0.80,310.72,M,-33.324,M,,*7B
2017-12-01 16:06:38 1512162398.429831: $GPRMC,210639,A,3946.9570,N,08404.9818,W,0.0000,0.000,011217,,*37
2017-12-01 16:06:38 1512162398.429892: $GPGSA,A,3,1,10,12,14,18,25,31,32,11,22,24,138,2.0,0.8,1.5*3B
2017-12-01 16:06:39 1512162399.356684: $GPZDA,210640.00,01,12,2017,00,00*61
2017-12-01 16:06:39 1512162399.356897: $GPGGA,210640,3946.9570,N,08404.9818,W,2,12,0.80,310.72,M,-33.324,M,,*75
2017-12-01 16:06:39 1512162399.356966: $GPRMC,210640,A,3946.9570,N,08404.9818,W,0.0000,0.000,011217,,*39
2017-12-01 16:06:39 1512162399.357048: $GPGSA,A,3,1,10,12,14,18,25,31,32,11,22,24,138,2.0,0.8,1.5*3B
2017-12-01 16:06:40 1512162400.692353: $GPGSV,3,1,12,01,18,310,36,10,60,141,48,12,25,061,43,14,60,306,44*7A
2017-12-01 16:06:40 1512162400.692532: $GPGSV,3,2,12,18,28,139,43,25,35,105,48,31,45,217,49,32,70,355,47*71
2017-12-01 16:06:40 1512162400.692598: $GPGSV,3,3,12,11,10,292,36,22,10,312,37,24,06,046,29,138,38,213,46*48
2017-12-01 16:06:40 1512162400.806145: $GPZDA,210641.00,01,12,2017,00,00*60
2017-12-01 16:06:40 1512162400.806314: $GPGGA,210641,3946.9570,N,08404.9818,W,2,12,0.80,310.72,M,-33.324,M,,*74
2017-12-01 16:06:40 1512162400.806381: $GPRMC,210641,A,3946.9570,N,08404.9818,W,0.0000,0.000,011217,,*38
2017-12-01 16:06:40 1512162400.806443: $GPGSA,A,3,1,10,12,14,18,25,31,32,11,22,24,138,2.0,0.8,1.5*3B
2017-12-01 16:06:41 1512162401.356675: $GPZDA,210642.00,01,12,2017,00,00*63
2017-12-01 16:06:41 1512162401.356866: $GPGGA,210642,3946.9570,N,08404.9818,W,2,12,0.80,310.72,M,-33.324,M,,*77
2017-12-01 16:06:41 1512162401.356953: $GPRMC,210642,A,3946.9570,N,08404.9818,W,0.0000,0.000,011217,,*3B
2017-12-01 16:06:41 1512162401.357017: $GPGSA,A,3,1,10,12,14,18,25,31,32,11,22,24,138,2.0,0.8,1.5*3B
2017-12-01 16:06:42 1512162402.357820: $GPZDA,210643.00,01,12,2017,00,00*62
2017-12-01 16:06:42 1512162402.357989: $GPGGA,210643,3946.9570,N,08404.9818,W,2,12,0.80,310.72,M,-33.324,M,,*76
2017-12-01 16:06:42 1512162402.358055: $GPRMC,210643,A,3946.9570,N,08404.9818,W,0.0000,0.000,011217,,*3A
2017-12-01 16:06:42 1512162402.358116: $GPGSA,A,3,1,10,12,14,18,25,31,32,11,22,24,138,2.0,0.8,1.5*3B
2017-12-01 16:06:43 1512162403.692737: $GPGSV,3,1,12,01,18,310,35,10,60,141,48,12,25,061,44,14,60,306,45*7F
2017-12-01 16:06:43 1512162403.692920: $GPGSV,3,2,12,18,28,139,43,25,35,105,48,31,45,217,49,32,70,355,47*71
2017-12-01 16:06:43 1512162403.692986: $GPGSV,3,3,12,11,10,292,36,22,10,312,36,24,06,046,30,138,38,213,45*42
2017-12-01 16:06:43 1512162403.806231: $GPZDA,210644.00,01,12,2017,00,00*65
2017-12-01 16:06:43 1512162403.806402: $GPGGA,210644,3946.9570,N,08404.9818,W,2,12,0.80,310.72,M,-33.324,M,,*71
2017-12-01 16:06:43 1512162403.806468: $GPRMC,210644,A,3946.9570,N,08404.9818,W,0.0000,0.000,011217,,*3D
2017-12-01 16:06:43 1512162403.806529: $GPGSA,A,3,1,10,12,14,18,25,31,32,11,22,24,138,2.0,0.8,1.5*3B
2017-12-01 16:06:44 1512162404.355799: $GPZDA,210645.00,01,12,2017,00,00*64
2017-12-01 16:06:44 1512162404.355971: $GPGGA,210645,3946.9570,N,08404.9818,W,2,12,0.80,310.72,M,-33.324,M,,*70
2017-12-01 16:06:44 1512162404.356038: $GPRMC,210645,A,3946.9570,N,08404.9818,W,0.0000,0.000,011217,,*3C
2017-12-01 16:06:44 1512162404.356100: $GPGSA,A,3,1,10,12,14,18,25,31,32,11,22,24,138,2.0,0.8,1.5*3B
2017-12-01 16:06:45 1512162405.358103: $GPZDA,210646.00,01,12,2017,00,00*67
2017-12-01 16:06:45 1512162405.358280: $GPGGA,210646,3946.9570,N,08404.9818,W,2,12,0.80,310.72,M,-33.324,M,,*73
2017-12-01 16:06:45 1512162405.358347: $GPRMC,210646,A,3946.9570,N,08404.9818,W,0.0000,0.000,011217,,*3F
2017-12-01 16:06:45 1512162405.358408: $GPGSA,A,3,1,10,12,14,18,25,31,32,11,22,24,138,2.0,0.8,1.5*3B
2017-12-01 16:06:46 1512162406.693586: $GPGSV,3,1,12,01,18,310,34,10,60,141,48,12,25,061,44,14,60,306,44*7F
2017-12-01 16:06:46 1512162406.693766: $GPGSV,3,2,12,18,28,139,43,25,35,105,48,31,45,217,49,32,70,355,47*71
2017-12-01 16:06:46 1512162406.693832: $GPGSV,3,3,12,11,10,292,38,22,10,312,37,24,06,046,30,138,38,213,46*4E
2017-12-01 16:06:46 1512162406.806961: $GPZDA,210647.00,01,12,2017,00,00*66
2017-12-01 16:06:46 1512162406.807150: $GPGGA,210647,3946.9570,N,08404.9818,W,2,12,0.80,310.72,M,-33.324,M,,*72
2017-12-01 16:06:46 1512162406.807217: $GPRMC,210647,A,3946.9570,N,08404.9818,W,0.0000,0.000,011217,,*3E
2017-12-01 16:06:46 1512162406.807278: $GPGSA,A,3,1,10,12,14,18,25,31,32,11,22,24,138,2.0,0.8,1.5*3B
2017-12-01 16:06:47 1512162407.356857: $GPZDA,210648.00,01,12,2017,00,00*69
2017-12-01 16:06:47 1512162407.357042: $GPGGA,210648,3946.9574,N,08404.9818,W,2,12,0.80,311.36,M,-33.324,M,,*78
2017-12-01 16:06:47 1512162407.357110: $GPRMC,210648,A,3946.9574,N,08404.9818,W,0.0000,0.000,011217,,*35
2017-12-01 16:06:47 1512162407.357171: $GPGSA,A,3,1,10,12,14,18,25,31,32,11,22,24,138,2.0,0.8,1.5*3B
2017-12-01 16:06:48 1512162408.357084: $GPZDA,210649.00,01,12,2017,00,00*68
2017-12-01 16:06:48 1512162408.357259: $GPGGA,210649,3946.9574,N,08404.9818,W,2,12,0.80,311.36,M,-33.324,M,,*79
2017-12-01 16:06:48 1512162408.357324: $GPRMC,210649,A,3946.9574,N,08404.9818,W,0.0000,0.000,011217,,*34
2017-12-01 16:06:48 1512162408.357386: $GPGSA,A,3,1,10,12,14,18,25,31,32,11,22,24,138,2.0,0.8,1.5*3B
2017-12-01 16:06:49 1512162409.695223: $GPGSV,3,1,12,01,18,310,30,10,60,141,48,12,25,061,44,14,60,306,45*7A
2017-12-01 16:06:49 1512162409.695405: $GPGSV,3,2,12,18,28,139,43,25,35,105,48,31,45,217,49,32,70,355,47*71
2017-12-01 16:06:49 1512162409.695472: $GPGSV,3,3,12,11,10,292,38,22,10,312,38,24,06,046,30,138,38,213,45*42
2017-12-01 16:06:49 1512162409.809984: $GPZDA,210650.00,01,12,2017,00,00*60
2017-12-01 16:06:49 1512162409.810171: $GPGGA,210650,3946.9574,N,08404.9818,W,2,12,0.80,311.36,M,-33.324,M,,*71
2017-12-01 16:06:49 1512162409.810238: $GPRMC,210650,A,3946.9574,N,08404.9818,W,0.0000,0.000,011217,,*3C
2017-12-01 16:06:49 1512162409.810300: $GPGSA,A,3,1,10,12,14,18,25,31,32,11,22,24,138,2.0,0.8,1.5*3B
2017-12-01 16:06:50 1512162410.358325: $GPZDA,210651.00,01,12,2017,00,00*61
2017-12-01 16:06:50 1512162410.358492: $GPGGA,210651,3946.9574,N,08404.9818,W,2,12,0.80,311.36,M,-33.324,M,,*70
2017-12-01 16:06:50 1512162410.358559: $GPRMC,210651,A,3946.9574,N,08404.9818,W,0.0000,0.000,011217,,*3D
2017-12-01 16:06:50 1512162410.358620: $GPGSA,A,3,1,10,12,14,18,25,31,32,11,22,24,138,2.0,0.8,1.5*3B
2017-12-01 16:06:51 1512162411.356874: $GPZDA,210652.00,01,12,2017,00,00*62
2017-12-01 16:06:51 1512162411.357036: $GPGGA,210652,3946.9574,N,08404.9818,W,2,12,0.80,311.36,M,-33.324,M,,*73
2017-12-01 16:06:51 1512162411.357102: $GPRMC,210652,A,3946.9574,N,08404.9818,W,0.0000,0.000,011217,,*3E
2017-12-01 16:06:51 1512162411.357163: $GPGSA,A,3,1,10,12,14,18,25,31,32,11,22,24,138,2.0,0.8,1.5*3B
