2017-12-01 16:12:16 1512162736.396839: {"class":"VERSION","release":"3.16","rev":"3.16-4","proto_major":3,"proto_minor":11}
2017-12-01 16:12:16 1512162736.397267: {"class":"DEVICES","devices":[{"class":"DEVICE","path":"/dev/ttyUSB0","driver":"SiRF","subtype":"9\u0006GSD4e_4.1.2-P1_RPATCH.05-F-GPS-4R-1510281 11/03/2015 307","activated":"2017-12-01T21:12:16.298Z","flags":1,"native":1,"bps":4800,"parity":"N","stopbits":1,"cycle":1.00}]}
2017-12-01 16:12:16 1512162736.397395: {"class":"WATCH","enable":true,"json":false,"nmea":true,"raw":0,"scaled":false,"timing":false,"split24":false,"pps":false}
2017-12-01 16:12:16 1512162736.748201: $GPGSV,3,1,12,01,19,309,10,10,57,144,48,11,10,289,33,12,24,058,46*7C
2017-12-01 16:12:16 1512162736.748386: $GPGSV,3,2,12,14,62,310,45,18,26,141,44,22,12,312,29,25,37,102,49*75
2017-12-01 16:12:16 1512162736.748452: $GPGSV,3,3,12,31,48,219,49,32,70,004,47,24,04,048,00,138,38,213,46*4F
2017-12-01 16:12:16 1512162736.861651: $GPZDA,211217.00,01,12,2017,00,00*66
2017-12-01 16:12:16 1512162736.861824: $GPGGA,211217,3946.9553,N,08404.9825,W,2,11,0.80,320.92,M,-33.324,M,,*73
2017-12-01 16:12:16 1512162736.861892: $GPRMC,211217,A,3946.9553,N,08404.9825,W,0.0000,0.000,011217,,*31
2017-12-01 16:12:16 1512162736.861953: $GPGSA,A,3,1,10,11,12,14,18,22,25,31,32,138,,2.0,0.8,1.5*3D
2017-12-01 16:12:17 1512162737.409976: $GPZDA,211218.00,01,12,2017,00,00*69
2017-12-01 16:12:17 1512162737.410145: $GPGGA,211218,3946.9553,N,08404.9825,W,2,11,0.80,320.92,M,-33.324,M,,*7C
2017-12-01 16:12:17 1512162737.410211: $GPRMC,211218,A,3946.9553,N,08404.9825,W,0.0000,0.000,011217,,*3E
2017-12-01 16:12:17 1512162737.410272: $GPGSA,A,3,1,10,11,12,14,18,22,25,31,32,138,,2.0,0.8,1.5*3D
2017-12-01 16:12:18 1512162738.409623: $GPZDA,211219.00,01,12,2017,00,00*68
2017-12-01 16:12:18 1512162738.409810: $GPGGA,211219,3946.9556,N,08404.9824,W,2,11,0.80,320.16,M,-33.324,M,,*75
2017-12-01 16:12:18 1512162738.409877: $GPRMC,211219,A,3946.9556,N,08404.9824,W,0.1567,9.200,011217,,*35
2017-12-01 16:12:18 1512162738.409938: $GPGSA,A,3,1,10,11,12,14,18,22,25,31,32,138,,2.0,0.8,1.5*3D
2017-12-01 16:12:19 1512162739.747897: $GPGSV,3,1,12,01,19,309,25,10,57,144,48,11,10,289,32,12,24,058,45*78
2017-12-01 16:12:19 1512162739.748084: $GPGSV,3,2,12,14,62,310,45,18,26,141,45,22,12,312,30,25,37,102,48*7D
2017-12-01 16:12:19 1512162739.748151: $GPGSV,3,3,12,31,48,219,48,32,70,004,47,24,04,048,00,138,38,213,46*4E
2017-12-01 16:12:19 1512162739.861170: $GPZDA,211220.00,01,12,2017,00,00*62
2017-12-01 16:12:19 1512162739.861328: $GPGGA,211220,3946.9556,N,08404.9824,W,2,11,0.80,320.16,M,-33.324,M,,*7F
2017-12-01 16:12:19 1512162739.861453: $GPRMC,211220,A,3946.9556,N,08404.9824,W,0.0000,0.000,011217,,*31
2017-12-01 16:12:19 1512162739.861517: $GPGSA,A,3,1,10,11,12,14,18,22,25,31,32,138,,2.0,0.8,1.5*3D
2017-12-01 16:12:20 1512162740.486595: $GPZDA,211221.00,01,12,2017,00,00*63
2017-12-01 16:12:20 1512162740.486771: $GPGGA,211221,3946.9556,N,08404.9824,W,2,11,0.80,320.16,M,-33.324,M,,*7E
2017-12-01 16:12:20 1512162740.486837: $GPRMC,211221,A,3946.9556,N,08404.9824,W,0.0000,0.000,011217,,*30
2017-12-01 16:12:20 1512162740.486898: $GPGSA,A,3,1,10,11,12,14,18,22,25,31,32,138,,2.0,0.8,1.5*3D
2017-12-01 16:12:21 1512162741.412569: $GPZDA,211222.00,01,12,2017,00,00*60
2017-12-01 16:12:21 1512162741.412744: $GPGGA,211222,3946.9556,N,08404.9824,W,2,11,0.80,320.16,M,-33.324,M,,*7D
2017-12-01 16:12:21 1512162741.412811: $GPRMC,211222,A,3946.9556,N,08404.9824,W,0.0000,0.000,011217,,*33
2017-12-01 16:12:21 1512162741.412873: $GPGSA,A,3,1,10,11,12,14,18,22,25,31,32,138,,2.0,0.8,1.5*3D
2017-12-01 16:12:22 1512162742.748174: $GPGSV,3,1,12,01,19,309,21,10,57,144,48,11,10,289,32,12,24,058,46*7F
2017-12-01 16:12:22 1512162742.748355: $GPGSV,3,2,12,14,62,310,45,18,26,141,44,22,12,312,30,25,37,102,48*7C
2017-12-01 16:12:22 1512162742.748421: $GPGSV,3,3,12,31,48,219,49,32,70,004,47,24,04,048,00,138,38,213,46*4F
2017-12-01 16:12:22 1512162742.861541: $GPZDA,211223.00,01,12,2017,00,00*61
2017-12-01 16:12:22 1512162742.861670: $GPGGA,211223,3946.9556,N,08404.9824,W,2,11,0.80,320.16,M,-33.324,M,,*7C
2017-12-01 16:12:22 1512162742.861811: $GPRMC,211223,A,3946.9556,N,08404.9824,W,0.0000,0.000,011217,,*32
2017-12-01 16:12:22 1512162742.861875: $GPGSA,A,3,1,10,11,12,14,18,22,25,31,32,138,,2.0,0.8,1.5*3D
2017-12-01 16:12:23 1512162743.416509: $GPZDA,211224.00,01,12,2017,00,00*66
2017-12-01 16:12:23 1512162743.419218: $GPGGA,211224,3946.9556,N,08404.9824,W,2,11,0.80,320.16,M,-33.324,M,,*7B
2017-12-01 16:12:23 1512162743.419338: $GPRMC,211224,A,3946.9556,N,08404.9824,W,0.0000,0.000,011217,,*35
2017-12-01 16:12:23 1512162743.419403: $GPGSA,A,3,1,10,11,12,14,18,22,25,31,32,138,,2.0,0.8,1.5*3D
2017-12-01 16:12:24 1512162744.413347: $GPZDA,211225.00,01,12,2017,00,00*67
2017-12-01 16:12:24 1512162744.413517: $GPGGA,211225,3946.9556,N,08404.9824,W,2,11,0.80,320.16,M,-33.324,M,,*7A
2017-12-01 16:12:24 1512162744.413583: $GPRMC,211225,A,3946.9556,N,08404.9824,W,0.0000,0.000,011217,,*34
2017-12-01 16:12:24 1512162744.413645: $GPGSA,A,3,1,10,11,12,14,18,22,25,31,32,138,,2.0,0.8,1.5*3D
2017-12-01 16:12:26 1512162746.263049: $GPGSV,3,1,12,01,19,309,16,10,56,144,48,11,10,289,31,12,24,058,46*79
2017-12-01 16:12:26 1512162746.263233: $GPGSV,3,2,12,14,62,312,45,18,25,141,44,22,12,312,36,25,37,100,48*79
2017-12-01 16:12:26 1512162746.263300: $GPGSV,3,3,12,31,48,219,48,32,70,006,47,24,04,048,00,138,38,213,46*4C
2017-12-01 16:12:26 1512162746.376451: $GPZDA,211226.00,01,12,2017,00,00*64
2017-12-01 16:12:26 1512162746.376624: $GPGGA,211226,3946.9559,N,08404.9824,W,2,11,0.80,319.40,M,-33.324,M,,*7F
2017-12-01 16:12:26 1512162746.376692: $GPRMC,211226,A,3946.9559,N,08404.9824,W,0.2422,273.794,011217,,*32
2017-12-01 16:12:26 1512162746.376754: $GPGSA,A,3,1,10,11,12,14,18,22,25,31,32,138,,2.0,0.8,1.5*3D
2017-12-01 16:12:26 1512162746.828594: $GPZDA,211227.00,01,12,2017,00,00*65
2017-12-01 16:12:26 1512162746.828770: $GPGGA,211227,3946.9559,N,08404.9824,W,2,11,0.80,319.40,M,-33.324,M,,*7E
2017-12-01 16:12:26 1512162746.828836: $GPRMC,211227,A,3946.9559,N,08404.9824,W,0.0000,0.000,011217,,*39
2017-12-01 16:12:26 1512162746.828897: $GPGSA,A,3,1,10,11,12,14,18,22,25,31,32,138,,2.0,0.8,1.5*3D
2017-12-01 16:12:27 1512162747.413473: $GPZDA,211228.00,01,12,2017,00,00*6A
2017-12-01 16:12:27 1512162747.413664: $GPGGA,211228,3946.9559,N,08404.9824,W,2,11,0.80,319.40,M,-33.324,M,,*71
2017-12-01 16:12:27 1512162747.413734: $GPRMC,211228,A,3946.9559,N,08404.9824,W,0.0000,0.000,011217,,*36
2017-12-01 16:12:27 1512162747.413795: $GPGSA,A,3,1,10,11,12,14,18,22,25,31,32,138,,2.0,0.8,1.5*3D
2017-12-01 16:12:28 1512162748.748918: $GPGSV,3,1,12,01,19,309,23,10,56,144,48,11,10,289,32,12,24,058,46*7C
2017-12-01 16:12:28 1512162748.753430: $GPGSV,3,2,12,14,62,312,45,18,25,141,45,22,12,312,35,25,37,100,48*7B
2017-12-01 16:12:28 1512162748.753546: $GPGSV,3,3,12,31,48,219,49,32,70,006,47,24,04,048,00,138,38,213,46*4D
2017-12-01 16:12:28 1512162748.862387: $GPZDA,211229.00,01,12,2017,00,00*6B
2017-12-01 16:12:28 1512162748.862557: $GPGGA,211229,3946.9559,N,08404.9824,W,2,11,0.80,319.40,M,-33.324,M,,*70
2017-12-01 16:12:28 1512162748.862623: $GPRMC,211229,A,3946.9559,N,08404.9824,W,0.0000,0.000,011217,,*37
2017-12-01 16:12:28 1512162748.862684: $GPGSA,A,3,1,10,11,12,14,18,22,25,31,32,138,,2.0,0.8,1.5*3D
2017-12-01 16:12:29 1512162749.411971: $GPZDA,211230.00,01,12,2017,00,00*63
2017-12-01 16:12:29 1512162749.412144: $GPGGA,211230,3946.9559,N,08404.9824,W,2,11,0.80,319.40,M,-33.324,M,,*78
2017-12-01 16:12:29 1512162749.412211: $GPRMC,211230,A,3946.9559,N,08404.9824,W,0.0000,0.000,011217,,*3F
2017-12-01 16:12:29 1512162749.412271: $GPGSA,A,3,1,10,11,12,14,18,22,25,31,32,138,,2.0,0.8,1.5*3D
2017-12-01 16:12:30 1512162750.412657: $GPZDA,211231.00,01,12,2017,00,00*62
2017-12-01 16:12:30 1512162750.412834: $GPGGA,211231,3946.9559,N,08404.9824,W,2,11,0.80,319.40,M,-33.324,M,,*79
2017-12-01 16:12:30 1512162750.412903: $GPRMC,211231,A,3946.9559,N,08404.9824,W,0.0000,0.000,011217,,*3E
2017-12-01 16:12:30 1512162750.412963: $GPGSA,A,3,1,10,11,12,14,18,22,25,31,32,138,,2.0,0.8,1.5*3D
2017-12-01 16:12:31 1512162751.748044: $GPGSV,3,1,12,01,19,309,27,10,56,144,48,11,10,289,32,12,24,058,45*7B
2017-12-01 16:12:31 1512162751.748277: $GPGSV,3,2,12,14,62,312,45,18,25,141,44,22,12,312,35,25,37,100,48*7A
2017-12-01 16:12:31 1512162751.748347: $GPGSV,3,3,12,31,48,219,49,32,70,006,47,24,04,048,00,138,38,213,47*4C
2017-12-01 16:12:31 1512162751.861530: $GPZDA,211232.00,01,12,2017,00,00*61
2017-12-01 16:12:31 1512162751.861704: $GPGGA,211232,3946.9559,N,08404.9824,W,2,11,0.80,319.40,M,-33.324,M,,*7A
2017-12-01 16:12:31 1512162751.861771: $GPRMC,211232,A,3946.9559,N,08404.9824,W,0.0000,0.000,011217,,*3D
2017-12-01 16:12:31 1512162751.861832: $GPGSA,A,3,1,10,11,12,14,18,22,25,31,32,138,,2.0,0.8,1.5*3D
2017-12-01 16:12:32 1512162752.412450: $GPZDA,211233.00,01,12,2017,00,00*60
2017-12-01 16:12:32 1512162752.412623: $GPGGA,211233,3946.9559,N,08404.9824,W,2,11,0.80,319.40,M,-33.324,M,,*7B
2017-12-01 16:12:32 1512162752.412690: $GPRMC,211233,A,3946.9559,N,08404.9824,W,0.0000,0.000,011217,,*3C
2017-12-01 16:12:32 1512162752.412751: $GPGSA,A,3,1,10,11,12,14,18,22,25,31,32,138,,2.0,0.8,1.5*3D
2017-12-01 16:12:33 1512162753.410628: $GPZDA,211234.00,01,12,2017,00,00*67
2017-12-01 16:12:33 1512162753.410812: $GPGGA,211234,3946.9559,N,08404.9824,W,2,11,0.80,319.40,M,-33.324,M,,*7C
2017-12-01 16:12:33 1512162753.410881: $GPRMC,211234,A,3946.9559,N,08404.9824,W,0.0000,0.000,011217,,*3B
2017-12-01 16:12:33 1512162753.410942: $GPGSA,A,3,1,10,11,12,14,18,22,25,31,32,138,,2.0,0.8,1.5*3D
2017-12-01 16:12:34 1512162754.750193: $GPGSV,3,1,12,01,19,309,29,10,56,144,49,11,10,289,32,12,24,058,45*74
2017-12-01 16:12:34 1512162754.750364: $GPGSV,3,2,12,14,62,312,45,18,25,141,44,22,12,312,36,25,37,100,48*79
2017-12-01 16:12:34 1512162754.750430: $GPGSV,3,3,12,31,48,219,49,32,70,006,47,24,04,048,01,138,38,213,46*4C
2017-12-01 16:12:34 1512162754.863554: $GPZDA,211235.00,01,12,2017,00,00*66
2017-12-01 16:12:34 1512162754.863729: $GPGGA,211235,3946.9559,N,08404.9824,W,2,11,0.80,319.40,M,-33.324,M,,*7D
2017-12-01 16:12:34 1512162754.863796: $GPRMC,211235,A,3946.9559,N,08404.9824,W,0.0000,0.000,011217,,*3A
2017-12-01 16:12:34 1512162754.863856: $GPGSA,A,3,1,10,11,12,14,18,22,25,31,32,138,,2.0,0.8,1.5*3D
2017-12-01 16:12:35 1512162755.488893: $GPZDA,211236.00,01,12,2017,00,00*65
2017-12-01 16:12:35 1512162755.489071: $GPGGA,211236,3946.9559,N,08404.9824,W,2,11,0.80,319.40,M,-33.324,M,,*7E
2017-12-01 16:12:35 1512162755.489137: $GPRMC,211236,A,3946.9559,N,08404.9824,W,0.0000,0.000,011217,,*39
2017-12-01 16:12:35 1512162755.489199: $GPGSA,A,3,1,10,11,12,14,18,22,25,31,32,138,,2.0,0.8,1.5*3D
