2017-11-16 14:07:26 1510859246.348410: {"class":"VERSION","release":"3.17","rev":"3.17","proto_major":3,"proto_minor":12}
2017-11-16 14:07:26 1510859246.348878: {"class":"DEVICES","devices":[{"class":"DEVICE","path":"/dev/ttyUSB0","driver":"SiRF","subtype":"9\u0006GSD4e_4.1.2-P1_RPATCH.05-F-GPS-4R-1510281 11/03/2015 307","activated":"2017-11-16T19:07:25.704Z","flags":1,"native":1,"bps":4800,"parity":"N","stopbits":1,"cycle":1.00}]}
2017-11-16 14:07:26 1510859246.348991: {"class":"WATCH","enable":true,"json":false,"nmea":true,"raw":0,"scaled":false,"timing":false,"split24":false,"pps":false}
2017-11-16 14:07:26 1510859246.533333: $GPZDA,190725.00,16,11,2017,00,00*6D
2017-11-16 14:07:26 1510859246.533510: $GPGGA,190725,3946.9570,N,08404.9844,W,2,11,0.80,306.19,M,-33.324,M,,*7C
2017-11-16 14:07:26 1510859246.533571: $GPRMC,190725,A,3946.9570,N,08404.9844,W,0.0000,0.000,161117,,*3C
2017-11-16 14:07:26 1510859246.533627: $GPGSA,A,3,10,13,15,18,20,21,24,32,8,27,138,,1.6,0.8,1.3*30
2017-11-16 14:07:27 1510859247.897886: $GPGSV,3,1,12,10,39,298,43,13,10,048,31,15,40,051,50,18,69,330,48*71
2017-11-16 14:07:27 1510859247.898057: $GPGSV,3,2,12,20,35,093,46,21,67,193,47,24,49,115,48,32,18,235,46*71
2017-11-16 14:07:27 1510859247.898118: $GPGSV,3,3,12,08,05,324,32,27,19,292,39,14,02,231,00,138,38,213,45*4A
2017-11-16 14:07:28 1510859248.011225: $GPZDA,190726.00,16,11,2017,00,00*6E
2017-11-16 14:07:28 1510859248.011419: $GPGGA,190726,3946.9570,N,08404.9844,W,2,11,0.80,306.19,M,-33.324,M,,*7F
2017-11-16 14:07:28 1510859248.011481: $GPRMC,190726,A,3946.9570,N,08404.9844,W,0.0000,0.000,161117,,*3F
2017-11-16 14:07:28 1510859248.011537: $GPGSA,A,3,10,13,15,18,20,21,24,32,8,27,138,,1.6,0.8,1.3*30
2017-11-16 14:07:28 1510859248.534697: $GPZDA,190727.00,16,11,2017,00,00*6F
2017-11-16 14:07:28 1510859248.535136: $GPGGA,190727,3946.9570,N,08404.9844,W,2,11,0.80,306.19,M,-33.324,M,,*7E
2017-11-16 14:07:28 1510859248.535221: $GPRMC,190727,A,3946.9570,N,08404.9844,W,0.0000,0.000,161117,,*3E
2017-11-16 14:07:28 1510859248.535309: $GPGSA,A,3,10,13,15,18,20,21,24,32,8,27,138,,1.6,0.8,1.3*30
2017-11-16 14:07:29 1510859249.533662: $GPZDA,190728.00,16,11,2017,00,00*60
2017-11-16 14:07:29 1510859249.533804: $GPGGA,190728,3946.9570,N,08404.9844,W,2,11,0.80,306.19,M,-33.324,M,,*71
2017-11-16 14:07:29 1510859249.533865: $GPRMC,190728,A,3946.9570,N,08404.9844,W,0.0000,0.000,161117,,*31
2017-11-16 14:07:29 1510859249.533920: $GPGSA,A,3,10,13,15,18,20,21,24,32,8,27,138,,1.6,0.8,1.3*30
2017-11-16 14:07:30 1510859250.870741: $GPGSV,3,1,12,10,39,298,44,13,10,048,31,15,40,051,51,18,69,330,48*77
2017-11-16 14:07:30 1510859250.870909: $GPGSV,3,2,12,20,35,093,46,21,67,193,47,24,49,115,48,32,18,235,46*71
2017-11-16 14:07:30 1510859250.870968: $GPGSV,3,3,12,08,05,324,32,27,19,292,40,14,02,231,00,138,38,213,45*44
2017-11-16 14:07:30 1510859250.984212: $GPZDA,190729.00,16,11,2017,00,00*61
2017-11-16 14:07:30 1510859250.984367: $GPGGA,190729,3946.9570,N,08404.9844,W,2,11,0.80,306.19,M,-33.324,M,,*70
2017-11-16 14:07:30 1510859250.984428: $GPRMC,190729,A,3946.9570,N,08404.9844,W,0.0000,0.000,161117,,*30
2017-11-16 14:07:30 1510859250.984483: $GPGSA,A,3,10,13,15,18,20,21,24,32,8,27,138,,1.6,0.8,1.3*30
2017-11-16 14:07:31 1510859251.563600: $GPZDA,190730.00,16,11,2017,00,00*69
2017-11-16 14:07:31 1510859251.563764: $GPGGA,190730,3946.9570,N,08404.9844,W,2,11,0.80,306.19,M,-33.324,M,,*78
2017-11-16 14:07:31 1510859251.563827: $GPRMC,190730,A,3946.9570,N,08404.9844,W,0.0000,0.000,161117,,*38
2017-11-16 14:07:31 1510859251.563883: $GPGSA,A,3,10,13,15,18,20,21,24,32,8,27,138,,1.6,0.8,1.3*30
2017-11-16 14:07:32 1510859252.555714: $GPZDA,190731.00,16,11,2017,00,00*68
2017-11-16 14:07:32 1510859252.555874: $GPGGA,190731,3946.9570,N,08404.9844,W,2,11,0.80,306.19,M,-33.324,M,,*79
2017-11-16 14:07:32 1510859252.555935: $GPRMC,190731,A,3946.9570,N,08404.9844,W,0.0000,0.000,161117,,*39
2017-11-16 14:07:32 1510859252.555991: $GPGSA,A,3,10,13,15,18,20,21,24,32,8,27,138,,1.6,0.8,1.3*30
2017-11-16 14:07:33 1510859253.870226: $GPGSV,3,1,12,10,39,298,44,13,10,048,31,15,40,051,51,18,69,330,49*76
2017-11-16 14:07:33 1510859253.870531: $GPGSV,3,2,12,20,35,093,46,21,67,193,47,24,49,115,48,32,18,235,46*71
2017-11-16 14:07:33 1510859253.870595: $GPGSV,3,3,12,08,05,324,26,27,19,292,40,14,02,231,00,138,38,213,44*40
2017-11-16 14:07:33 1510859253.983559: $GPZDA,190732.00,16,11,2017,00,00*6B
2017-11-16 14:07:33 1510859253.983724: $GPGGA,190732,3946.9570,N,08404.9844,W,2,11,0.80,306.19,M,-33.324,M,,*7A
2017-11-16 14:07:33 1510859253.983785: $GPRMC,190732,A,3946.9570,N,08404.9844,W,0.0000,0.000,161117,,*3A
2017-11-16 14:07:33 1510859253.983841: $GPGSA,A,3,10,13,15,18,20,21,24,32,8,27,138,,1.6,0.8,1.3*30
2017-11-16 14:07:34 1510859254.609101: $GPZDA,190733.00,16,11,2017,00,00*6A
2017-11-16 14:07:34 1510859254.609306: $GPGGA,190733,3946.9570,N,08404.9844,W,2,11,0.80,306.19,M,-33.324,M,,*7B
2017-11-16 14:07:34 1510859254.609368: $GPRMC,190733,A,3946.9570,N,08404.9844,W,0.0000,0.000,161117,,*3B
2017-11-16 14:07:34 1510859254.609423: $GPGSA,A,3,10,13,15,18,20,21,24,32,8,27,138,,1.6,0.8,1.3*30
2017-11-16 14:07:35 1510859255.562283: $GPZDA,190734.00,16,11,2017,00,00*6D
2017-11-16 14:07:35 1510859255.562459: $GPGGA,190734,3946.9570,N,08404.9844,W,2,11,0.80,306.19,M,-33.324,M,,*7C
2017-11-16 14:07:35 1510859255.562543: $GPRMC,190734,A,3946.9570,N,08404.9844,W,0.0000,0.000,161117,,*3C
2017-11-16 14:07:35 1510859255.562601: $GPGSA,A,3,10,13,15,18,20,21,24,32,8,27,138,,1.6,0.8,1.3*30
