2017-11-16 17:06:42 1510870002.291209: {"class":"VERSION","release":"3.17","rev":"3.17","proto_major":3,"proto_minor":12}
2017-11-16 17:06:42 1510870002.291714: {"class":"DEVICES","devices":[{"class":"DEVICE","path":"/dev/ttyUSB0","driver":"SiRF","subtype":"9\u0006GSD4e_4.1.2-P1_RPATCH.05-F-GPS-4R-1510281 11/03/2015 307","activated":"2017-11-16T22:06:42.237Z","flags":1,"native":1,"bps":4800,"parity":"N","stopbits":1,"cycle":1.00}]}
2017-11-16 17:06:42 1510870002.291825: {"class":"WATCH","enable":true,"json":false,"nmea":true,"raw":0,"scaled":false,"timing":false,"split24":false,"pps":false}
2017-11-16 17:06:42 1510870002.750970: $GPGSV,3,1,12,01,18,312,40,10,60,141,47,11,10,292,43,12,25,061,49*75
2017-11-16 17:06:42 1510870002.751137: $GPGSV,3,2,12,14,60,306,46,18,29,139,44,22,09,312,34,24,06,046,34*7D
2017-11-16 17:06:42 1510870002.751198: $GPGSV,3,3,12,25,35,105,47,31,43,217,47,32,70,354,49,138,38,213,44*46
2017-11-16 17:06:42 1510870002.864354: $GPZDA,220641.00,16,11,2017,00,00*66
2017-11-16 17:06:42 1510870002.864532: $GPGGA,220641,3946.9579,N,08404.9818,W,2,12,0.80,312.00,M,-33.324,M,,*79
2017-11-16 17:06:42 1510870002.864593: $GPRMC,220641,A,3946.9579,N,08404.9818,W,0.0000,0.000,161117,,*37
2017-11-16 17:06:42 1510870002.864648: $GPGSA,A,3,1,10,11,12,14,18,22,24,25,31,32,138,1.6,0.8,1.3*38
2017-11-16 17:06:43 1510870003.413975: $GPZDA,220642.00,16,11,2017,00,00*65
2017-11-16 17:06:43 1510870003.414136: $GPGGA,220642,3946.9579,N,08404.9818,W,2,12,0.80,312.00,M,-33.324,M,,*7A
2017-11-16 17:06:43 1510870003.414196: $GPRMC,220642,A,3946.9579,N,08404.9818,W,0.0000,0.000,161117,,*34
2017-11-16 17:06:43 1510870003.414271: $GPGSA,A,3,1,10,11,12,14,18,22,24,25,31,32,138,1.6,0.8,1.3*38
2017-11-16 17:06:44 1510870004.408593: $GPZDA,220643.00,16,11,2017,00,00*64
2017-11-16 17:06:44 1510870004.408751: $GPGGA,220643,3946.9579,N,08404.9818,W,2,12,0.80,312.00,M,-33.324,M,,*7B
2017-11-16 17:06:44 1510870004.408812: $GPRMC,220643,A,3946.9579,N,08404.9818,W,0.0000,0.000,161117,,*35
2017-11-16 17:06:44 1510870004.408867: $GPGSA,A,3,1,10,11,12,14,18,22,24,25,31,32,138,1.6,0.8,1.3*38
2017-11-16 17:06:45 1510870005.742972: $GPGSV,3,1,12,01,18,312,41,10,60,141,47,11,10,292,43,12,25,061,49*74
2017-11-16 17:06:45 1510870005.743152: $GPGSV,3,2,12,14,60,306,46,18,29,139,44,22,09,312,35,24,06,046,35*7D
2017-11-16 17:06:45 1510870005.743213: $GPGSV,3,3,12,25,35,105,47,31,43,217,48,32,70,354,49,138,38,213,45*48
2017-11-16 17:06:45 1510870005.856637: $GPZDA,220644.00,16,11,2017,00,00*63
2017-11-16 17:06:45 1510870005.856938: $GPGGA,220644,3946.9579,N,08404.9818,W,2,12,0.80,312.00,M,-33.324,M,,*7C
2017-11-16 17:06:45 1510870005.857041: $GPRMC,220644,A,3946.9579,N,08404.9818,W,0.0000,0.000,161117,,*32
2017-11-16 17:06:45 1510870005.857155: $GPGSA,A,3,1,10,11,12,14,18,22,24,25,31,32,138,1.6,0.8,1.3*38
2017-11-16 17:06:46 1510870006.483128: $GPZDA,220645.00,16,11,2017,00,00*62
2017-11-16 17:06:46 1510870006.483317: $GPGGA,220645,3946.9579,N,08404.9818,W,2,12,0.80,312.00,M,-33.324,M,,*7D
2017-11-16 17:06:46 1510870006.483395: $GPRMC,220645,A,3946.9579,N,08404.9818,W,0.0000,0.000,161117,,*33
2017-11-16 17:06:46 1510870006.483452: $GPGSA,A,3,1,10,11,12,14,18,22,24,25,31,32,138,1.6,0.8,1.3*38
2017-11-16 17:06:47 1510870007.413792: $GPZDA,220646.00,16,11,2017,00,00*61
2017-11-16 17:06:47 1510870007.413955: $GPGGA,220646,3946.9579,N,08404.9818,W,2,12,0.80,312.00,M,-33.324,M,,*7E
2017-11-16 17:06:47 1510870007.414016: $GPRMC,220646,A,3946.9579,N,08404.9818,W,0.0000,0.000,161117,,*30
2017-11-16 17:06:47 1510870007.414072: $GPGSA,A,3,1,10,11,12,14,18,22,24,25,31,32,138,1.6,0.8,1.3*38
2017-11-16 17:06:48 1510870008.750874: $GPGSV,3,1,12,01,18,312,41,10,60,141,47,11,10,292,43,12,25,061,49*74
2017-11-16 17:06:48 1510870008.751051: $GPGSV,3,2,12,14,60,306,46,18,29,139,44,22,09,312,35,24,06,046,35*7D
2017-11-16 17:06:48 1510870008.751113: $GPGSV,3,3,12,25,35,105,47,31,43,217,47,32,70,354,50,138,38,213,44*4E
2017-11-16 17:06:48 1510870008.864149: $GPZDA,220647.00,16,11,2017,00,00*60
2017-11-16 17:06:48 1510870008.864312: $GPGGA,220647,3946.9575,N,08404.9819,W,2,12,0.80,312.77,M,-33.324,M,,*72
2017-11-16 17:06:48 1510870008.864425: $GPRMC,220647,A,3946.9575,N,08404.9819,W,0.0000,0.000,161117,,*3C
2017-11-16 17:06:48 1510870008.864483: $GPGSA,A,3,1,10,11,12,14,18,22,24,25,31,32,138,1.6,0.8,1.3*38
2017-11-16 17:06:49 1510870009.415006: $GPZDA,220648.00,16,11,2017,00,00*6F
2017-11-16 17:06:49 1510870009.415281: $GPGGA,220648,3946.9575,N,08404.9819,W,2,12,0.80,312.77,M,-33.324,M,,*7D
2017-11-16 17:06:49 1510870009.415342: $GPRMC,220648,A,3946.9575,N,08404.9819,W,0.0000,0.000,161117,,*33
2017-11-16 17:06:49 1510870009.415399: $GPGSA,A,3,1,10,11,12,14,18,22,24,25,31,32,138,1.6,0.8,1.3*38
2017-11-16 17:06:50 1510870010.413378: $GPZDA,220649.00,16,11,2017,00,00*6E
2017-11-16 17:06:50 1510870010.413540: $GPGGA,220649,3946.9575,N,08404.9819,W,2,12,0.80,312.77,M,-33.324,M,,*7C
2017-11-16 17:06:50 1510870010.413601: $GPRMC,220649,A,3946.9575,N,08404.9819,W,0.0000,0.000,161117,,*32
2017-11-16 17:06:50 1510870010.413657: $GPGSA,A,3,1,10,11,12,14,18,22,24,25,31,32,138,1.6,0.8,1.3*38
2017-11-16 17:06:51 1510870011.732514: $GPGSV,3,1,12,01,18,312,41,10,60,141,47,11,10,292,42,12,25,061,49*75
2017-11-16 17:06:51 1510870011.732678: $GPGSV,3,2,12,14,60,306,46,18,29,139,44,22,09,312,30,24,06,046,35*78
2017-11-16 17:06:51 1510870011.732737: $GPGSV,3,3,12,25,35,105,47,31,43,217,48,32,70,354,50,138,38,213,44*41
2017-11-16 17:06:51 1510870011.845908: $GPZDA,220650.00,16,11,2017,00,00*66
2017-11-16 17:06:51 1510870011.846076: $GPGGA,220650,3946.9575,N,08404.9819,W,2,12,0.80,312.77,M,-33.324,M,,*74
2017-11-16 17:06:51 1510870011.846137: $GPRMC,220650,A,3946.9575,N,08404.9819,W,0.0000,0.000,161117,,*3A
2017-11-16 17:06:51 1510870011.846210: $GPGSA,A,3,1,10,11,12,14,18,22,24,25,31,32,138,1.6,0.8,1.3*38
