2017-12-01 11:58:12 1512147492.546782: {"class":"VERSION","release":"3.16","rev":"3.16-4","proto_major":3,"proto_minor":11}
2017-12-01 11:58:12 1512147492.547195: {"class":"DEVICES","devices":[{"class":"DEVICE","path":"/dev/ttyUSB0","driver":"SiRF","subtype":"9\u0006GSD4e_4.1.2-P1_RPATCH.05-F-GPS-4R-1510281 11/03/2015 307","activated":"2017-12-01T16:58:12.484Z","flags":1,"native":1,"bps":4800,"parity":"N","stopbits":1,"cycle":1.00}]}
2017-12-01 11:58:12 1512147492.547323: {"class":"WATCH","enable":true,"json":false,"nmea":true,"raw":0,"scaled":false,"timing":false,"split24":false,"pps":false}
2017-12-01 11:58:13 1512147493.323452: $GPZDA,165814.00,01,12,2017,00,00*6F
2017-12-01 11:58:13 1512147493.323633: $GPGGA,165814,3946.9582,N,08404.9829,W,2,11,0.80,294.02,M,-33.324,M,,*7D
2017-12-01 11:58:13 1512147493.323698: $GPRMC,165814,A,3946.9582,N,08404.9829,W,0.0000,0.000,011217,,*38
2017-12-01 11:58:13 1512147493.323759: $GPGSA,A,3,10,13,15,18,20,21,24,27,29,5,138,,2.0,0.8,1.5*34
2017-12-01 11:58:14 1512147494.661727: $GPGSV,3,1,12,10,17,277,39,13,37,046,44,15,69,058,45,18,48,291,45*7A
2017-12-01 11:58:14 1512147494.661886: $GPGSV,3,2,12,20,58,061,44,21,73,297,45,24,26,144,46,27,12,319,41*70
2017-12-01 11:58:14 1512147494.661951: $GPGSV,3,3,12,29,18,192,44,04,07,133,00,05,09,081,31,138,38,213,46*44
2017-12-01 11:58:14 1512147494.775080: $GPZDA,165815.00,01,12,2017,00,00*6E
2017-12-01 11:58:14 1512147494.775254: $GPGGA,165815,3946.9582,N,08404.9829,W,2,11,0.80,294.02,M,-33.324,M,,*7C
2017-12-01 11:58:14 1512147494.775318: $GPRMC,165815,A,3946.9582,N,08404.9829,W,0.0000,0.000,011217,,*39
2017-12-01 11:58:14 1512147494.775380: $GPGSA,A,3,10,13,15,18,20,21,24,27,29,5,138,,2.0,0.8,1.5*34
2017-12-01 11:58:15 1512147495.323432: $GPZDA,165816.00,01,12,2017,00,00*6D
2017-12-01 11:58:15 1512147495.323615: $GPGGA,165816,3946.9582,N,08404.9829,W,2,11,0.80,294.02,M,-33.324,M,,*7F
2017-12-01 11:58:15 1512147495.323682: $GPRMC,165816,A,3946.9582,N,08404.9829,W,0.0000,0.000,011217,,*3A
2017-12-01 11:58:15 1512147495.323742: $GPGSA,A,3,10,13,15,18,20,21,24,27,29,5,138,,2.0,0.8,1.5*34
2017-12-01 11:58:16 1512147496.322950: $GPZDA,165817.00,01,12,2017,00,00*6C
2017-12-01 11:58:16 1512147496.323124: $GPGGA,165817,3946.9582,N,08404.9829,W,2,11,0.80,294.02,M,-33.324,M,,*7E
2017-12-01 11:58:16 1512147496.323190: $GPRMC,165817,A,3946.9582,N,08404.9829,W,0.0000,0.000,011217,,*3B
2017-12-01 11:58:16 1512147496.323250: $GPGSA,A,3,10,13,15,18,20,21,24,27,29,5,138,,2.0,0.8,1.5*34
2017-12-01 11:58:16 1512147496.323308: $GPGBS,165817,2.67,M,3.86,M,8.82,M*3E
2017-12-01 11:58:17 1512147497.658673: $GPGSV,3,1,12,10,17,277,39,13,37,046,44,15,69,058,45,18,48,291,45*7A
2017-12-01 11:58:17 1512147497.658855: $GPGSV,3,2,12,20,58,061,44,21,73,297,45,24,26,144,46,27,12,319,41*70
2017-12-01 11:58:17 1512147497.658922: $GPGSV,3,3,12,29,18,192,44,04,07,133,00,05,09,081,31,138,38,213,46*44
2017-12-01 11:58:17 1512147497.772212: $GPZDA,165818.00,01,12,2017,00,00*63
2017-12-01 11:58:17 1512147497.772392: $GPGGA,165818,3946.9582,N,08404.9829,W,2,11,0.80,294.02,M,-33.324,M,,*71
2017-12-01 11:58:17 1512147497.772458: $GPRMC,165818,A,3946.9582,N,08404.9829,W,0.0000,0.000,011217,,*34
2017-12-01 11:58:17 1512147497.772518: $GPGSA,A,3,10,13,15,18,20,21,24,27,29,5,138,,2.0,0.8,1.5*34
2017-12-01 11:58:18 1512147498.397488: $GPZDA,165819.00,01,12,2017,00,00*62
2017-12-01 11:58:18 1512147498.397659: $GPGGA,165819,3946.9582,N,08404.9829,W,2,11,0.80,294.02,M,-33.324,M,,*70
2017-12-01 11:58:18 1512147498.397725: $GPRMC,165819,A,3946.9582,N,08404.9829,W,0.0000,0.000,011217,,*35
2017-12-01 11:58:18 1512147498.397786: $GPGSA,A,3,10,13,15,18,20,21,24,27,29,5,138,,2.0,0.8,1.5*34
2017-12-01 11:58:19 1512147499.325156: $GPZDA,165820.00,01,12,2017,00,00*68
2017-12-01 11:58:19 1512147499.325349: $GPGGA,165820,3946.9590,N,08404.9828,W,2,11,0.80,293.90,M,-33.324,M,,*74
2017-12-01 11:58:19 1512147499.325416: $GPRMC,165820,A,3946.9590,N,08404.9828,W,0.2422,93.794,011217,,*0B
2017-12-01 11:58:19 1512147499.325479: $GPGSA,A,3,10,13,15,18,20,21,24,27,29,5,138,,2.0,0.8,1.5*34
2017-12-01 11:58:20 1512147500.657792: $GPGSV,3,1,12,10,17,277,39,13,37,046,44,15,69,058,45,18,48,291,45*7A
2017-12-01 11:58:20 1512147500.657990: $GPGSV,3,2,12,20,58,061,44,21,73,297,44,24,26,144,46,27,12,319,42*72
2017-12-01 11:58:20 1512147500.658055: $GPGSV,3,3,12,29,18,192,43,04,07,133,00,05,09,081,31,138,38,213,47*42
2017-12-01 11:58:20 1512147500.771122: $GPZDA,165821.00,01,12,2017,00,00*69
2017-12-01 11:58:20 1512147500.771290: $GPGGA,165821,3946.9590,N,08404.9828,W,2,11,0.80,293.90,M,-33.324,M,,*75
2017-12-01 11:58:20 1512147500.771399: $GPRMC,165821,A,3946.9590,N,08404.9828,W,0.0000,0.000,011217,,*3C
2017-12-01 11:58:20 1512147500.771469: $GPGSA,A,3,10,13,15,18,20,21,24,27,29,5,138,,2.0,0.8,1.5*34
2017-12-01 11:58:21 1512147501.323263: $GPZDA,165822.00,01,12,2017,00,00*6A
2017-12-01 11:58:21 1512147501.323439: $GPGGA,165822,3946.9590,N,08404.9828,W,2,11,0.80,293.90,M,-33.324,M,,*76
2017-12-01 11:58:21 1512147501.323505: $GPRMC,165822,A,3946.9590,N,08404.9828,W,0.0000,0.000,011217,,*3F
2017-12-01 11:58:21 1512147501.323566: $GPGSA,A,3,10,13,15,18,20,21,24,27,29,5,138,,2.0,0.8,1.5*34
2017-12-01 11:58:22 1512147502.321681: $GPZDA,165823.00,01,12,2017,00,00*6B
2017-12-01 11:58:22 1512147502.321851: $GPGGA,165823,3946.9590,N,08404.9828,W,2,11,0.80,293.90,M,-33.324,M,,*77
2017-12-01 11:58:22 1512147502.321917: $GPRMC,165823,A,3946.9590,N,08404.9828,W,0.0000,0.000,011217,,*3E
2017-12-01 11:58:22 1512147502.321977: $GPGSA,A,3,10,13,15,18,20,21,24,27,29,5,138,,2.0,0.8,1.5*34
