2017-12-14 12:11:01 1513271461.334577: {"class":"VERSION","release":"3.16","rev":"3.16-4","proto_major":3,"proto_minor":11}
2017-12-14 12:11:01 1513271461.334972: {"class":"DEVICES","devices":[{"class":"DEVICE","path":"/dev/ttyUSB0","driver":"SiRF","subtype":"9\u0006GSD4e_4.1.2-P1_RPATCH.05-F-GPS-4R-1510281 11/03/2015 307","activated":"2017-12-14T17:11:01.304Z","flags":1,"native":1,"bps":4800,"parity":"N","stopbits":1,"cycle":1.00}]}
2017-12-14 12:11:01 1513271461.335097: {"class":"WATCH","enable":true,"json":false,"nmea":true,"raw":0,"scaled":false,"timing":false,"split24":false,"pps":false}
2017-12-14 12:11:01 1513271461.696399: $GPZDA,171102.00,14,12,2017,00,00*60
2017-12-14 12:11:01 1513271461.696553: $GPGGA,171102,3946.9566,N,08404.9342,W,1,06,1.60,341.42,M,-33.324,M,,*7D
2017-12-14 12:11:01 1513271461.696618: $GPRMC,171102,A,3946.9566,N,08404.9342,W,0.7787,264.511,141217,,*31
2017-12-14 12:11:01 1513271461.696705: $GPGSA,A,3,24,10,15,18,21,32,,,,,,,6.6,1.6,6.2*39
2017-12-14 12:11:02 1513271462.194777: $GPZDA,171103.00,14,12,2017,00,00*61
2017-12-14 12:11:02 1513271462.194965: $GPGGA,171103,3946.9562,N,08404.9349,W,1,06,1.60,340.70,M,-33.324,M,,*73
2017-12-14 12:11:02 1513271462.195032: $GPRMC,171103,A,3946.9562,N,08404.9349,W,1.0017,233.019,141217,,*38
2017-12-14 12:11:02 1513271462.195093: $GPGSA,A,3,24,10,15,18,21,32,,,,,,,6.6,1.6,6.2*39
2017-12-14 12:11:03 1513271463.532289: $GPGSV,3,1,12,24,49,115,31,10,39,298,20,15,40,051,18,18,69,331,15*70
2017-12-14 12:11:03 1513271463.532453: $GPGSV,3,2,12,21,66,190,24,32,19,235,11,20,36,093,05,27,19,292,00*77
2017-12-14 12:11:03 1513271463.532518: $GPGSV,3,3,12,13,10,048,00,08,05,325,00,14,01,231,00,138,38,213,00*49
2017-12-14 12:11:03 1513271463.645694: $GPZDA,171104.00,14,12,2017,00,00*66
2017-12-14 12:11:03 1513271463.645872: $GPGGA,171104,3946.9562,N,08404.9349,W,1,06,1.60,340.70,M,-33.324,M,,*74
2017-12-14 12:11:03 1513271463.645958: $GPRMC,171104,A,3946.9562,N,08404.9349,W,0.6012,242.540,141217,,*32
2017-12-14 12:11:03 1513271463.646020: $GPGSA,A,3,24,10,15,18,21,32,,,,,,,6.6,1.6,6.2*39
2017-12-14 12:11:04 1513271464.197046: $GPZDA,171105.00,14,12,2017,00,00*67
2017-12-14 12:11:04 1513271464.197228: $GPGGA,171105,3946.9563,N,08404.9350,W,1,06,1.60,342.10,M,-33.324,M,,*78
2017-12-14 12:11:04 1513271464.197294: $GPRMC,171105,A,3946.9563,N,08404.9350,W,0.4137,224.855,141217,,*37
2017-12-14 12:11:04 1513271464.197355: $GPGSA,A,3,24,10,15,18,21,32,,,,,,,6.6,1.6,6.2*39
2017-12-14 12:11:05 1513271465.189873: $GPRMC,171106,V,3946.9563,N,08404.9350,W,0.4137,224.855,141217,,*23
2017-12-14 12:11:05 1513271465.190075: $GPGSA,A,1,24,10,15,18,21,32,,,,,,,,,,*3A
2017-12-14 12:11:06 1513271466.527361: $GPGSV,3,1,12,24,49,115,31,10,39,298,20,15,40,051,18,18,69,331,07*73
2017-12-14 12:11:06 1513271466.527551: $GPGSV,3,2,12,21,66,190,25,32,19,235,10,20,36,093,09,14,01,231,10*7A
2017-12-14 12:11:06 1513271466.527617: $GPGSV,3,3,12,27,19,292,00,13,10,048,00,08,05,325,00,138,38,213,00*49
2017-12-14 12:11:06 1513271466.639463: $GPRMC,171107,V,3946.9563,N,08404.9350,W,0.4137,224.855,141217,,*22
2017-12-14 12:11:06 1513271466.639632: $GPGSA,A,1,24,10,15,18,21,,,,,,,,,,,*3B
2017-12-14 12:11:07 1513271467.189137: $GPRMC,171108,V,3946.9559,N,08404.9351,W,0.4137,224.855,141217,,*25
2017-12-14 12:11:07 1513271467.189313: $GPGSA,A,1,24,10,15,18,21,,,,,,,,,,,*3B
2017-12-14 12:11:08 1513271468.189289: $GPRMC,171109,V,3946.9559,N,08404.9351,W,0.4137,224.855,141217,,*24
2017-12-14 12:11:08 1513271468.189458: $GPGSA,A,1,24,10,15,18,21,,,,,,,,,,,*3B
2017-12-14 12:11:09 1513271469.532740: $GPGSV,3,1,12,24,49,115,31,10,39,298,20,15,40,051,17,18,69,331,10*7A
2017-12-14 12:11:09 1513271469.532938: $GPGSV,3,2,12,21,66,190,25,32,19,235,11,20,36,093,10,27,19,292,02*70
2017-12-14 12:11:09 1513271469.533005: $GPGSV,3,3,12,13,10,048,00,08,05,325,00,14,01,231,00,138,38,213,00*49
2017-12-14 12:11:09 1513271469.646114: $GPZDA,171110.06,14,12,2017,00,00*65
2017-12-14 12:11:09 1513271469.646265: $GPGGA,171110,3946.9563,N,08404.9350,W,1,06,2.00,342.10,M,-33.324,M,,*79
2017-12-14 12:11:09 1513271469.646329: $GPRMC,171110,A,3946.9563,N,08404.9350,W,0.3775,149.507,141217,,*36
2017-12-14 12:11:09 1513271469.646444: $GPGSA,A,3,24,10,15,18,21,20,,,,,,,6.6,2.0,6.2*3F
2017-12-14 12:11:09 1513271469.646503: $GPGBS,171110,24.66,M,21.80,M,143.40,M*36
2017-12-14 12:11:10 1513271470.198759: $GPZDA,171111.06,14,12,2017,00,00*64
2017-12-14 12:11:10 1513271470.198947: $GPGGA,171111,3946.9558,N,08404.9356,W,1,06,1.40,339.98,M,-33.324,M,,*7D
2017-12-14 12:11:10 1513271470.199013: $GPRMC,171111,A,3946.9558,N,08404.9356,W,0.7278,203.637,141217,,*38
2017-12-14 12:11:10 1513271470.199093: $GPGSA,A,3,24,10,15,18,21,20,,,,,,,6.6,1.4,6.2*38
2017-12-14 12:11:10 1513271470.199151: $GPGBS,171111,24.66,M,21.80,M,143.40,M*37
2017-12-14 12:11:11 1513271471.198875: $GPZDA,171112.00,14,12,2017,00,00*61
2017-12-14 12:11:11 1513271471.199043: $GPGGA,171112,3946.9554,N,08404.9363,W,1,06,1.40,339.26,M,-33.324,M,,*71
2017-12-14 12:11:11 1513271471.199109: $GPRMC,171112,A,3946.9554,N,08404.9363,W,0.5230,256.444,141217,,*39
2017-12-14 12:11:11 1513271471.199170: $GPGSA,A,3,24,10,15,18,21,20,,,,,,,6.6,1.4,6.2*38
2017-12-14 12:11:11 1513271471.199226: $GPGBS,171112,24.66,M,21.80,M,143.40,M*34
2017-12-14 12:11:12 1513271472.532103: $GPGSV,3,1,12,24,49,115,31,10,39,298,20,15,40,051,17,18,69,331,12*78
2017-12-14 12:11:12 1513271472.532288: $GPGSV,3,2,12,21,66,190,25,32,19,235,11,20,36,093,12,27,19,292,12*73
2017-12-14 12:11:12 1513271472.532354: $GPGSV,3,3,12,13,10,048,00,08,05,325,00,14,01,231,00,138,38,213,00*49
2017-12-14 12:11:12 1513271472.645673: $GPZDA,171113.00,14,12,2017,00,00*60
2017-12-14 12:11:12 1513271472.645853: $GPGGA,171113,3946.9554,N,08404.9363,W,1,07,1.60,339.26,M,-33.324,M,,*73
2017-12-14 12:11:12 1513271472.645935: $GPRMC,171113,A,3946.9554,N,08404.9363,W,0.4207,219.347,141217,,*32
2017-12-14 12:11:12 1513271472.645997: $GPGSA,A,3,24,10,15,18,21,32,20,,,,,,6.6,1.6,6.2*3B
2017-12-14 12:11:13 1513271473.196883: $GPZDA,171114.00,14,12,2017,00,00*67
2017-12-14 12:11:13 1513271473.197051: $GPGGA,171114,3946.9551,N,08404.9364,W,1,07,1.60,340.03,M,-33.324,M,,*7F
2017-12-14 12:11:13 1513271473.197116: $GPRMC,171114,A,3946.9551,N,08404.9364,W,1.0534,170.904,141217,,*34
2017-12-14 12:11:13 1513271473.197176: $GPGSA,A,3,24,10,15,18,21,32,20,,,,,,6.6,1.6,6.2*3B
2017-12-14 12:11:14 1513271474.197744: $GPZDA,171115.00,14,12,2017,00,00*66
2017-12-14 12:11:14 1513271474.198032: $GPGGA,171115,3946.9551,N,08404.9371,W,1,07,1.60,339.95,M,-33.324,M,,*7B
2017-12-14 12:11:14 1513271474.198101: $GPRMC,171115,A,3946.9551,N,08404.9371,W,0.7246,164.668,141217,,*35
2017-12-14 12:11:14 1513271474.198238: $GPGSA,A,3,24,10,15,18,21,32,20,,,,,,6.6,1.6,6.2*3B
2017-12-14 12:11:15 1513271475.533217: $GPGSV,3,1,12,24,49,115,31,10,39,298,20,15,40,051,17,18,69,331,12*78
2017-12-14 12:11:15 1513271475.533392: $GPGSV,3,2,12,21,66,190,25,32,19,235,10,20,36,093,14,27,19,292,10*76
2017-12-14 12:11:15 1513271475.533457: $GPGSV,3,3,12,13,10,048,00,08,05,325,00,14,01,231,00,138,38,213,00*49
2017-12-14 12:11:15 1513271475.646593: $GPZDA,171116.00,14,12,2017,00,00*65
2017-12-14 12:11:15 1513271475.646820: $GPGGA,171116,3946.9544,N,08404.9373,W,1,07,1.60,341.48,M,-33.324,M,,*71
2017-12-14 12:11:15 1513271475.646888: $GPRMC,171116,A,3946.9544,N,08404.9373,W,0.8695,168.958,141217,,*35
2017-12-14 12:11:15 1513271475.646950: $GPGSA,A,3,24,10,15,18,21,32,20,,,,,,6.6,1.6,6.2*3B
2017-12-14 12:11:16 1513271476.199230: $GPZDA,171117.00,14,12,2017,00,00*64
2017-12-14 12:11:16 1513271476.199403: $GPGGA,171117,3946.9548,N,08404.9379,W,1,07,1.40,340.63,M,-33.324,M,,*7C
2017-12-14 12:11:16 1513271476.199470: $GPRMC,171117,A,3946.9548,N,08404.9379,W,0.5516,128.233,141217,,*35
2017-12-14 12:11:16 1513271476.199531: $GPGSA,A,3,24,10,15,18,21,32,20,,,,,,6.6,1.4,6.2*39
2017-12-14 12:11:17 1513271477.200103: $GPZDA,171118.00,14,12,2017,00,00*6B
2017-12-14 12:11:17 1513271477.200297: $GPGGA,171118,3946.9549,N,08404.9379,W,1,07,1.40,342.04,M,-33.324,M,,*71
2017-12-14 12:11:17 1513271477.200363: $GPRMC,171118,A,3946.9549,N,08404.9379,W,0.4600,109.641,141217,,*3C
2017-12-14 12:11:17 1513271477.200475: $GPGSA,A,3,24,10,15,18,21,32,20,,,,,,6.6,1.4,6.2*39
2017-12-14 12:11:18 1513271478.536321: $GPGSV,3,1,12,24,49,115,30,10,39,298,20,15,40,051,16,18,69,331,12*78
2017-12-14 12:11:18 1513271478.536469: $GPGSV,3,2,12,21,66,190,25,32,19,235,08,20,36,093,14,27,19,292,10*7F
2017-12-14 12:11:18 1513271478.536532: $GPGSV,3,3,12,13,10,048,00,08,05,325,00,14,01,231,00,138,38,213,00*49
2017-12-14 12:11:18 1513271478.649840: $GPZDA,171119.00,14,12,2017,00,00*6A
2017-12-14 12:11:18 1513271478.650026: $GPGGA,171119,3946.9546,N,08404.9380,W,1,08,1.40,342.80,M,-33.324,M,,*7A
2017-12-14 12:11:18 1513271478.650095: $GPRMC,171119,A,3946.9546,N,08404.9380,W,0.7002,91.310,141217,,*02
2017-12-14 12:11:18 1513271478.650157: $GPGSA,A,3,24,10,15,18,21,32,20,27,,,,,6.6,1.4,6.2*3C
2017-12-14 12:11:19 1513271479.201111: $GPZDA,171120.00,14,12,2017,00,00*60
2017-12-14 12:11:19 1513271479.201301: $GPGGA,171120,3946.9546,N,08404.9387,W,1,08,1.40,342.72,M,-33.324,M,,*7A
2017-12-14 12:11:19 1513271479.201368: $GPRMC,171120,A,3946.9546,N,08404.9387,W,0.7205,76.295,141217,,*0F
2017-12-14 12:11:19 1513271479.201430: $GPGSA,A,3,24,10,15,18,21,32,20,27,,,,,6.6,1.4,6.2*3C
2017-12-14 12:11:20 1513271480.198991: $GPZDA,171121.00,14,12,2017,00,00*61
2017-12-14 12:11:20 1513271480.199158: $GPGGA,171121,3946.9553,N,08404.9386,W,1,08,2.00,342.60,M,-33.324,M,,*7A
2017-12-14 12:11:20 1513271480.199223: $GPRMC,171121,A,3946.9553,N,08404.9386,W,0.8629,34.066,141217,,*06
2017-12-14 12:11:20 1513271480.199284: $GPGSA,A,3,24,10,15,18,21,32,20,27,,,,,6.6,2.0,6.2*3B
