2018-01-12 03:02:42 1515744162.154521: {"class":"VERSION","release":"3.16","rev":"3.16-4","proto_major":3,"proto_minor":11}
2018-01-12 03:02:42 1515744162.154883: {"class":"DEVICES","devices":[{"class":"DEVICE","path":"/dev/ttyUSB0","driver":"SiRF","subtype":"9\u0006GSD4e_4.1.2-P1_RPATCH.05-F-GPS-4R-1510281 11/03/2015 307","activated":"2018-01-12T08:02:42.007Z","flags":1,"native":1,"bps":4800,"parity":"N","stopbits":1,"cycle":1.00}]}
2018-01-12 03:02:42 1515744162.154998: {"class":"WATCH","enable":true,"json":false,"nmea":true,"raw":0,"scaled":false,"timing":false,"split24":false,"pps":false}
2018-01-12 03:02:42 1515744162.413891: $GPZDA,080243.00,12,01,2018,00,00*62
2018-01-12 03:02:42 1515744162.414065: $GPGGA,080243,3946.9727,N,08404.9838,W,2,10,0.80,307.07,M,-33.325,M,,*7C
2018-01-12 03:02:42 1515744162.414130: $GPRMC,080243,A,3946.9727,N,08404.9838,W,0.0000,0.000,120118,,*38
2018-01-12 03:02:42 1515744162.414235: $GPGSA,A,3,2,12,17,19,24,25,3,5,9,138,,,2.4,0.8,2.1*04
2018-01-12 03:02:43 1515744163.413630: $GPZDA,080244.00,12,01,2018,00,00*65
2018-01-12 03:02:43 1515744163.413853: $GPGGA,080244,3946.9727,N,08404.9838,W,2,10,0.80,307.07,M,-33.325,M,,*7B
2018-01-12 03:02:43 1515744163.413922: $GPRMC,080244,A,3946.9727,N,08404.9838,W,0.0000,0.000,120118,,*3F
2018-01-12 03:02:43 1515744163.413983: $GPGSA,A,3,2,12,17,19,24,25,3,5,9,138,,,2.4,0.8,2.1*04
2018-01-12 03:02:44 1515744164.744887: $GPGSV,3,1,11,02,56,264,48,12,42,307,51,17,41,091,43,19,59,073,42*79
2018-01-12 03:02:44 1515744164.745070: $GPGSV,3,2,11,24,11,256,23,25,07,322,35,03,05,034,21,05,13,193,29*7E
2018-01-12 03:02:44 1515744164.745135: $GPGSV,3,3,11,09,07,100,21,23,06,067,03,138,38,213,38*7A
2018-01-12 03:02:44 1515744164.858321: $GPZDA,080245.00,12,01,2018,00,00*64
2018-01-12 03:02:44 1515744164.858489: $GPGGA,080245,3946.9727,N,08404.9838,W,2,10,0.80,307.07,M,-33.325,M,,*7A
2018-01-12 03:02:44 1515744164.858650: $GPRMC,080245,A,3946.9727,N,08404.9838,W,0.0000,0.000,120118,,*3E
2018-01-12 03:02:44 1515744164.858714: $GPGSA,A,3,2,12,17,19,24,25,3,5,9,138,,,2.4,0.8,2.1*04
2018-01-12 03:02:45 1515744165.412907: $GPZDA,080246.00,12,01,2018,00,00*67
2018-01-12 03:02:45 1515744165.413082: $GPGGA,080246,3946.9727,N,08404.9838,W,2,10,0.80,307.07,M,-33.325,M,,*79
2018-01-12 03:02:45 1515744165.413147: $GPRMC,080246,A,3946.9727,N,08404.9838,W,0.0000,0.000,120118,,*3D
2018-01-12 03:02:45 1515744165.413208: $GPGSA,A,3,2,12,17,19,24,25,3,5,9,138,,,2.4,0.8,2.1*04
2018-01-12 03:02:46 1515744166.411441: $GPZDA,080247.00,12,01,2018,00,00*66
2018-01-12 03:02:46 1515744166.411609: $GPGGA,080247,3946.9727,N,08404.9838,W,2,10,0.80,307.07,M,-33.325,M,,*78
2018-01-12 03:02:46 1515744166.411675: $GPRMC,080247,A,3946.9727,N,08404.9838,W,0.0000,0.000,120118,,*3C
2018-01-12 03:02:46 1515744166.411736: $GPGSA,A,3,2,12,17,19,24,25,3,5,9,138,,,2.4,0.8,2.1*04
2018-01-12 03:02:47 1515744167.749600: $GPGSV,3,1,11,02,56,264,47,12,42,307,51,17,41,091,43,19,59,073,42*76
2018-01-12 03:02:47 1515744167.749825: $GPGSV,3,2,11,24,11,256,23,25,07,322,35,03,05,034,21,05,13,193,30*76
2018-01-12 03:02:47 1515744167.749893: $GPGSV,3,3,11,09,07,100,21,28,03,153,20,138,38,213,40*7C
2018-01-12 03:02:47 1515744167.863008: $GPZDA,080248.00,12,01,2018,00,00*69
2018-01-12 03:02:47 1515744167.863168: $GPGGA,080248,3946.9727,N,08404.9838,W,2,10,0.80,307.07,M,-33.325,M,,*77
2018-01-12 03:02:47 1515744167.863234: $GPRMC,080248,A,3946.9727,N,08404.9838,W,0.0000,0.000,120118,,*33
2018-01-12 03:02:47 1515744167.863295: $GPGSA,A,3,2,12,17,19,24,25,3,5,9,138,,,2.4,0.8,2.1*04
2018-01-12 03:02:48 1515744168.488229: $GPZDA,080249.00,12,01,2018,00,00*68
2018-01-12 03:02:48 1515744168.488391: $GPGGA,080249,3946.9727,N,08404.9838,W,2,10,0.80,307.07,M,-33.325,M,,*76
2018-01-12 03:02:48 1515744168.488456: $GPRMC,080249,A,3946.9727,N,08404.9838,W,0.0000,0.000,120118,,*32
2018-01-12 03:02:48 1515744168.488517: $GPGSA,A,3,2,12,17,19,24,25,3,5,9,138,,,2.4,0.8,2.1*04
2018-01-12 03:02:49 1515744169.416610: $GPZDA,080250.00,12,01,2018,00,00*60
2018-01-12 03:02:49 1515744169.416795: $GPGGA,080250,3946.9727,N,08404.9838,W,2,10,0.80,307.07,M,-33.325,M,,*7E
2018-01-12 03:02:49 1515744169.416916: $GPRMC,080250,A,3946.9727,N,08404.9838,W,0.0000,0.000,120118,,*3A
2018-01-12 03:02:49 1515744169.416979: $GPGSA,A,3,2,12,17,19,24,25,3,5,9,138,,,2.4,0.8,2.1*04
2018-01-12 03:02:50 1515744170.742666: $GPGSV,3,1,11,02,56,264,47,12,42,307,51,17,41,091,43,19,59,073,43*77
2018-01-12 03:02:50 1515744170.742933: $GPGSV,3,2,11,24,11,256,31,25,07,322,33,03,05,034,29,05,13,193,30*7B
2018-01-12 03:02:50 1515744170.743007: $GPGSV,3,3,11,09,07,100,20,23,06,067,00,138,38,213,34*74
2018-01-12 03:02:50 1515744170.855917: $GPZDA,080251.00,12,01,2018,00,00*61
2018-01-12 03:02:50 1515744170.856085: $GPGGA,080251,3946.9727,N,08404.9838,W,2,10,0.80,307.07,M,-33.325,M,,*7F
2018-01-12 03:02:50 1515744170.856151: $GPRMC,080251,A,3946.9727,N,08404.9838,W,0.0000,0.000,120118,,*3B
2018-01-12 03:02:50 1515744170.856212: $GPGSA,A,3,2,12,17,19,24,25,3,5,9,138,,,2.4,0.8,2.1*04
2018-01-12 03:02:51 1515744171.411697: $GPZDA,080252.00,12,01,2018,00,00*62
2018-01-12 03:02:51 1515744171.411870: $GPGGA,080252,3946.9724,N,08404.9845,W,2,10,0.80,306.35,M,-33.325,M,,*75
2018-01-12 03:02:51 1515744171.411935: $GPRMC,080252,A,3946.9724,N,08404.9845,W,0.0000,0.000,120118,,*31
2018-01-12 03:02:51 1515744171.411995: $GPGSA,A,3,2,12,17,19,24,25,3,5,9,138,,,2.4,0.8,2.1*04
2018-01-12 03:02:52 1515744172.413833: $GPZDA,080253.00,12,01,2018,00,00*63
2018-01-12 03:02:52 1515744172.414030: $GPGGA,080253,3946.9724,N,08404.9845,W,2,10,0.80,306.35,M,-33.325,M,,*74
2018-01-12 03:02:52 1515744172.416427: $GPRMC,080253,A,3946.9724,N,08404.9845,W,0.0000,0.000,120118,,*30
2018-01-12 03:02:52 1515744172.416522: $GPGSA,A,3,2,12,17,19,24,25,3,5,9,138,,,2.4,0.8,2.1*04
2018-01-12 03:02:53 1515744173.754108: $GPGSV,3,1,11,02,56,264,47,12,42,307,51,17,41,091,43,19,59,073,43*77
2018-01-12 03:02:53 1515744173.754328: $GPGSV,3,2,11,24,11,256,25,25,07,322,34,03,05,034,21,05,13,193,30*71
2018-01-12 03:02:53 1515744173.754483: $GPGSV,3,3,11,09,07,100,21,23,06,067,02,138,38,213,37*74
2018-01-12 03:02:53 1515744173.867678: $GPZDA,080254.00,12,01,2018,00,00*64
2018-01-12 03:02:53 1515744173.867857: $GPGGA,080254,3946.9724,N,08404.9845,W,2,10,0.80,306.35,M,-33.325,M,,*73
2018-01-12 03:02:53 1515744173.867923: $GPRMC,080254,A,3946.9724,N,08404.9845,W,0.0000,0.000,120118,,*37
2018-01-12 03:02:53 1515744173.867984: $GPGSA,A,3,2,12,17,19,24,25,3,5,9,138,,,2.4,0.8,2.1*04
2018-01-12 03:02:54 1515744174.413567: $GPZDA,080255.00,12,01,2018,00,00*65
2018-01-12 03:02:54 1515744174.413738: $GPGGA,080255,3946.9724,N,08404.9845,W,2,10,0.80,306.35,M,-33.325,M,,*72
2018-01-12 03:02:54 1515744174.413804: $GPRMC,080255,A,3946.9724,N,08404.9845,W,0.0000,0.000,120118,,*36
2018-01-12 03:02:54 1515744174.413865: $GPGSA,A,3,2,12,17,19,24,25,3,5,9,138,,,2.4,0.8,2.1*04
2018-01-12 03:02:55 1515744175.413076: $GPZDA,080256.00,12,01,2018,00,00*66
2018-01-12 03:02:55 1515744175.413245: $GPGGA,080256,3946.9724,N,08404.9845,W,2,10,0.80,306.35,M,-33.325,M,,*71
2018-01-12 03:02:55 1515744175.413312: $GPRMC,080256,A,3946.9724,N,08404.9845,W,0.0000,0.000,120118,,*35
2018-01-12 03:02:55 1515744175.413373: $GPGSA,A,3,2,12,17,19,24,25,3,5,9,138,,,2.4,0.8,2.1*04
2018-01-12 03:02:56 1515744176.766371: $GPGSV,3,1,11,02,56,264,47,12,42,307,51,17,41,091,43,19,59,073,43*77
2018-01-12 03:02:56 1515744176.766547: $GPGSV,3,2,11,24,11,256,25,25,07,322,34,03,05,034,23,05,13,193,30*73
2018-01-12 03:02:56 1515744176.766612: $GPGSV,3,3,11,09,07,100,18,23,06,067,00,138,38,213,39*72
2018-01-12 03:02:56 1515744176.879762: $GPZDA,080257.00,12,01,2018,00,00*67
2018-01-12 03:02:56 1515744176.879942: $GPGGA,080257,3946.9723,N,08404.9838,W,2,10,0.80,306.43,M,-33.325,M,,*7C
2018-01-12 03:02:56 1515744176.880009: $GPRMC,080257,A,3946.9723,N,08404.9838,W,0.0000,0.000,120118,,*39
2018-01-12 03:02:56 1515744176.880071: $GPGSA,A,3,2,12,17,19,24,25,3,5,9,138,,,2.4,0.8,2.1*04
2018-01-12 03:02:57 1515744177.413105: $GPZDA,080258.00,12,01,2018,00,00*68
2018-01-12 03:02:57 1515744177.413311: $GPGGA,080258,3946.9723,N,08404.9838,W,2,10,0.80,306.43,M,-33.325,M,,*73
2018-01-12 03:02:57 1515744177.413443: $GPRMC,080258,A,3946.9723,N,08404.9838,W,0.0000,0.000,120118,,*36
2018-01-12 03:02:57 1515744177.413507: $GPGSA,A,3,2,12,17,19,24,25,3,5,9,138,,,2.4,0.8,2.1*04
2018-01-12 03:02:58 1515744178.418496: $GPZDA,080259.00,12,01,2018,00,00*69
2018-01-12 03:02:58 1515744178.418668: $GPGGA,080259,3946.9719,N,08404.9838,W,2,10,0.80,305.79,M,-33.325,M,,*71
2018-01-12 03:02:58 1515744178.418755: $GPRMC,080259,A,3946.9719,N,08404.9838,W,0.0000,0.000,120118,,*3E
2018-01-12 03:02:58 1515744178.418816: $GPGSA,A,3,2,12,17,19,24,25,3,5,9,138,,,2.4,0.8,2.1*04
2018-01-12 03:02:59 1515744179.752932: $GPGSV,3,1,11,02,56,264,47,12,42,307,51,17,41,091,42,19,59,073,43*76
2018-01-12 03:02:59 1515744179.753108: $GPGSV,3,2,11,24,11,256,25,25,07,322,34,03,05,034,24,05,13,193,30*74
2018-01-12 03:02:59 1515744179.753173: $GPGSV,3,3,11,09,07,100,19,23,06,067,18,138,38,213,39*7A
2018-01-12 03:02:59 1515744179.865144: $GPZDA,080300.00,12,01,2018,00,00*64
2018-01-12 03:02:59 1515744179.865309: $GPGGA,080300,3946.9719,N,08404.9838,W,2,11,0.60,305.79,M,-33.325,M,,*73
2018-01-12 03:02:59 1515744179.865375: $GPRMC,080300,A,3946.9719,N,08404.9838,W,0.0000,0.000,120118,,*33
2018-01-12 03:02:59 1515744179.865436: $GPGSA,A,3,2,12,17,19,24,25,3,5,9,23,138,,2.4,0.6,2.1*0B
2018-01-12 03:03:00 1515744180.427360: $GPZDA,080301.00,12,01,2018,00,00*65
2018-01-12 03:03:00 1515744180.427519: $GPGGA,080301,3946.9719,N,08404.9838,W,2,11,0.80,305.79,M,-33.325,M,,*7C
2018-01-12 03:03:00 1515744180.427585: $GPRMC,080301,A,3946.9719,N,08404.9838,W,0.0000,0.000,120118,,*32
2018-01-12 03:03:00 1515744180.427646: $GPGSA,A,3,2,12,17,19,24,25,3,5,9,23,138,,2.4,0.8,2.1*05
2018-01-12 03:03:01 1515744181.429344: $GPZDA,080302.00,12,01,2018,00,00*66
2018-01-12 03:03:01 1515744181.429518: $GPGGA,080302,3946.9719,N,08404.9838,W,2,11,0.80,305.79,M,-33.325,M,,*7F
2018-01-12 03:03:01 1515744181.429585: $GPRMC,080302,A,3946.9719,N,08404.9838,W,0.0000,0.000,120118,,*31
2018-01-12 03:03:01 1515744181.429646: $GPGSA,A,3,2,12,17,19,24,25,3,5,9,23,138,,2.4,0.8,2.1*05
