2017-12-01 16:43:25 1512164605.417387: {"class":"VERSION","release":"3.16","rev":"3.16-4","proto_major":3,"proto_minor":11}
2017-12-01 16:43:25 1512164605.417791: {"class":"DEVICES","devices":[{"class":"DEVICE","path":"/dev/ttyUSB0","driver":"SiRF","subtype":"9\u0006GSD4e_4.1.2-P1_RPATCH.05-F-GPS-4R-1510281 11/03/2015 307","activated":"2017-12-01T21:43:25.389Z","flags":1,"native":1,"bps":4800,"parity":"N","stopbits":1,"cycle":1.00}]}
2017-12-01 16:43:25 1512164605.417910: {"class":"WATCH","enable":true,"json":false,"nmea":true,"raw":0,"scaled":false,"timing":false,"split24":false,"pps":false}
2017-12-01 16:43:26 1512164606.725186: $GPGSV,3,1,12,01,22,294,42,10,42,151,43,14,68,342,44,22,24,312,44*7D
2017-12-01 16:43:26 1512164606.725367: $GPGSV,3,2,12,31,62,231,50,32,66,043,49,11,06,277,36,25,40,082,21*78
2017-12-01 16:43:26 1512164606.725433: $GPGSV,3,3,12,26,07,181,27,18,12,145,17,12,19,045,30,138,38,213,34*47
2017-12-01 16:43:26 1512164606.838556: $GPZDA,214327.00,01,12,2017,00,00*61
2017-12-01 16:43:26 1512164606.838720: $GPGGA,214327,3946.9639,N,08404.9755,W,2,12,0.80,309.47,M,-33.324,M,,*73
2017-12-01 16:43:26 1512164606.838787: $GPRMC,214327,A,3946.9639,N,08404.9755,W,0.0000,0.000,011217,,*31
2017-12-01 16:43:26 1512164606.838867: $GPGSA,A,3,1,10,14,22,31,32,11,25,26,18,12,138,2.0,0.8,1.5*39
2017-12-01 16:43:27 1512164607.388238: $GPZDA,214328.00,01,12,2017,00,00*6E
2017-12-01 16:43:27 1512164607.388418: $GPGGA,214328,3946.9639,N,08404.9755,W,2,12,0.80,309.47,M,-33.324,M,,*7C
2017-12-01 16:43:27 1512164607.388504: $GPRMC,214328,A,3946.9639,N,08404.9755,W,0.0000,0.000,011217,,*3E
2017-12-01 16:43:27 1512164607.388567: $GPGSA,A,3,1,10,14,22,31,32,11,25,26,18,12,138,2.0,0.8,1.5*39
2017-12-01 16:43:28 1512164608.394119: $GPZDA,214329.00,01,12,2017,00,00*6F
2017-12-01 16:43:28 1512164608.394308: $GPGGA,214329,3946.9639,N,08404.9755,W,2,12,0.80,309.47,M,-33.324,M,,*7D
2017-12-01 16:43:28 1512164608.394376: $GPRMC,214329,A,3946.9639,N,08404.9755,W,0.0000,0.000,011217,,*3F
2017-12-01 16:43:28 1512164608.394438: $GPGSA,A,3,1,10,14,22,31,32,11,25,26,18,12,138,2.0,0.8,1.5*39
2017-12-01 16:43:29 1512164609.731044: $GPGSV,3,1,12,01,22,294,42,10,42,151,43,14,68,342,45,22,24,312,44*7C
2017-12-01 16:43:29 1512164609.731222: $GPGSV,3,2,12,31,62,231,50,32,66,043,49,11,06,277,36,25,40,082,18*72
2017-12-01 16:43:29 1512164609.731289: $GPGSV,3,3,12,26,07,181,27,18,12,145,17,12,19,045,30,138,38,213,38*4B
2017-12-01 16:43:29 1512164609.844773: $GPZDA,214330.00,01,12,2017,00,00*67
2017-12-01 16:43:29 1512164609.844965: $GPGGA,214330,3946.9639,N,08404.9755,W,2,12,0.80,309.47,M,-33.324,M,,*75
2017-12-01 16:43:29 1512164609.845032: $GPRMC,214330,A,3946.9639,N,08404.9755,W,0.0000,0.000,011217,,*37
2017-12-01 16:43:29 1512164609.845111: $GPGSA,A,3,1,10,14,22,31,32,11,25,26,18,12,138,2.0,0.8,1.5*39
2017-12-01 16:43:30 1512164610.469828: $GPZDA,214331.00,01,12,2017,00,00*66
2017-12-01 16:43:30 1512164610.470017: $GPGGA,214331,3946.9639,N,08404.9755,W,2,12,0.80,309.47,M,-33.324,M,,*74
2017-12-01 16:43:30 1512164610.470105: $GPRMC,214331,A,3946.9639,N,08404.9755,W,0.0000,0.000,011217,,*36
2017-12-01 16:43:30 1512164610.470168: $GPGSA,A,3,1,10,14,22,31,32,11,25,26,18,12,138,2.0,0.8,1.5*39
2017-12-01 16:43:31 1512164611.923378: $GPZDA,214332.00,01,12,2017,00,00*65
2017-12-01 16:43:31 1512164611.923552: $GPGGA,214332,3946.9639,N,08404.9754,W,2,12,0.80,308.07,M,-33.324,M,,*73
2017-12-01 16:43:31 1512164611.923619: $GPRMC,214332,A,3946.9639,N,08404.9754,W,0.2422,93.794,011217,,*02
2017-12-01 16:43:31 1512164611.923681: $GPGSA,A,3,1,10,14,22,31,32,11,25,26,18,12,138,2.0,0.8,1.5*39
2017-12-01 16:43:32 1512164612.725399: $GPGSV,3,1,12,01,22,294,42,10,41,151,42,14,68,342,44,22,24,312,44*7F
2017-12-01 16:43:32 1512164612.725573: $GPGSV,3,2,12,31,62,231,50,32,66,043,49,11,06,277,36,03,05,316,31*72
2017-12-01 16:43:32 1512164612.725641: $GPGSV,3,3,12,26,08,181,27,18,12,145,17,12,19,045,29,138,38,213,40*43
2017-12-01 16:43:32 1512164612.839286: $GPZDA,214333.00,01,12,2017,00,00*64
2017-12-01 16:43:32 1512164612.839453: $GPGGA,214333,3946.9639,N,08404.9754,W,2,12,0.80,308.07,M,-33.324,M,,*72
2017-12-01 16:43:32 1512164612.839571: $GPRMC,214333,A,3946.9639,N,08404.9754,W,0.0000,0.000,011217,,*35
2017-12-01 16:43:32 1512164612.839634: $GPGSA,A,3,1,10,14,22,31,32,11,3,26,18,12,138,2.0,0.8,1.5*0D
2017-12-01 16:43:33 1512164613.397179: $GPZDA,214334.00,01,12,2017,00,00*63
2017-12-01 16:43:33 1512164613.397349: $GPGGA,214334,3946.9639,N,08404.9754,W,2,12,0.80,308.07,M,-33.324,M,,*75
2017-12-01 16:43:33 1512164613.397435: $GPRMC,214334,A,3946.9639,N,08404.9754,W,0.0000,0.000,011217,,*32
2017-12-01 16:43:33 1512164613.397497: $GPGSA,A,3,1,10,14,22,31,32,11,3,26,18,12,138,2.0,0.8,1.5*0D
2017-12-01 16:43:34 1512164614.395951: $GPZDA,214335.00,01,12,2017,00,00*62
2017-12-01 16:43:34 1512164614.396122: $GPGGA,214335,3946.9639,N,08404.9754,W,2,12,0.80,308.07,M,-33.324,M,,*74
2017-12-01 16:43:34 1512164614.396189: $GPRMC,214335,A,3946.9639,N,08404.9754,W,0.0000,0.000,011217,,*33
2017-12-01 16:43:34 1512164614.396250: $GPGSA,A,3,1,10,14,22,31,32,11,3,26,18,12,138,2.0,0.8,1.5*0D
2017-12-01 16:43:35 1512164615.730756: $GPGSV,3,1,12,01,22,294,41,10,41,151,42,14,68,342,44,22,24,312,44*7C
2017-12-01 16:43:35 1512164615.730940: $GPGSV,3,2,12,31,62,231,50,32,66,043,49,11,06,277,35,03,05,316,31*71
2017-12-01 16:43:35 1512164615.731022: $GPGSV,3,3,12,26,08,181,27,18,12,145,18,12,19,045,29,138,38,213,40*4C
2017-12-01 16:43:35 1512164615.844177: $GPZDA,214336.00,01,12,2017,00,00*61
2017-12-01 16:43:35 1512164615.844330: $GPGGA,214336,3946.9639,N,08404.9754,W,2,12,0.80,308.07,M,-33.324,M,,*77
2017-12-01 16:43:35 1512164615.844397: $GPRMC,214336,A,3946.9639,N,08404.9754,W,0.0000,0.000,011217,,*30
2017-12-01 16:43:35 1512164615.844459: $GPGSA,A,3,1,10,14,22,31,32,11,3,26,18,12,138,2.0,0.8,1.5*0D
2017-12-01 16:43:36 1512164616.394245: $GPZDA,214337.00,01,12,2017,00,00*60
2017-12-01 16:43:36 1512164616.394414: $GPGGA,214337,3946.9639,N,08404.9754,W,2,12,0.80,308.07,M,-33.324,M,,*76
2017-12-01 16:43:36 1512164616.394480: $GPRMC,214337,A,3946.9639,N,08404.9754,W,0.0000,0.000,011217,,*31
2017-12-01 16:43:36 1512164616.394541: $GPGSA,A,3,1,10,14,22,31,32,11,3,26,18,12,138,2.0,0.8,1.5*0D
2017-12-01 16:43:37 1512164617.397516: $GPZDA,214338.00,01,12,2017,00,00*6F
2017-12-01 16:43:37 1512164617.397691: $GPGGA,214338,3946.9639,N,08404.9754,W,2,12,0.80,308.07,M,-33.324,M,,*79
2017-12-01 16:43:37 1512164617.397759: $GPRMC,214338,A,3946.9639,N,08404.9754,W,0.0000,0.000,011217,,*3E
2017-12-01 16:43:37 1512164617.397820: $GPGSA,A,3,1,10,14,22,31,32,11,3,26,18,12,138,2.0,0.8,1.5*0D
2017-12-01 16:43:38 1512164618.731654: $GPGSV,3,1,12,01,22,294,40,10,41,151,42,14,68,342,44,22,24,312,43*7A
2017-12-01 16:43:38 1512164618.731854: $GPGSV,3,2,12,31,62,231,49,32,66,043,48,11,06,277,36,03,05,316,31*7B
2017-12-01 16:43:38 1512164618.731923: $GPGSV,3,3,12,26,08,181,27,18,12,145,18,12,19,045,29,138,38,213,38*43
2017-12-01 16:43:38 1512164618.845077: $GPZDA,214339.00,01,12,2017,00,00*6E
2017-12-01 16:43:38 1512164618.845249: $GPGGA,214339,3946.9639,N,08404.9754,W,2,12,0.80,308.07,M,-33.324,M,,*78
2017-12-01 16:43:38 1512164618.845316: $GPRMC,214339,A,3946.9639,N,08404.9754,W,0.0000,0.000,011217,,*3F
2017-12-01 16:43:38 1512164618.845377: $GPGSA,A,3,1,10,14,22,31,32,11,3,26,18,12,138,2.0,0.8,1.5*0D
2017-12-01 16:43:39 1512164619.394635: $GPZDA,214340.00,01,12,2017,00,00*60
2017-12-01 16:43:39 1512164619.394838: $GPGGA,214340,3946.9639,N,08404.9754,W,2,12,0.80,308.07,M,-33.324,M,,*76
2017-12-01 16:43:39 1512164619.394905: $GPRMC,214340,A,3946.9639,N,08404.9754,W,0.0000,0.000,011217,,*31
2017-12-01 16:43:39 1512164619.394966: $GPGSA,A,3,1,10,14,22,31,32,11,3,26,18,12,138,2.0,0.8,1.5*0D
2017-12-01 16:43:40 1512164620.395043: $GPZDA,214341.00,01,12,2017,00,00*61
2017-12-01 16:43:40 1512164620.395336: $GPGGA,214341,3946.9639,N,08404.9754,W,2,12,0.80,308.07,M,-33.324,M,,*77
2017-12-01 16:43:40 1512164620.395463: $GPRMC,214341,A,3946.9639,N,08404.9754,W,0.0000,0.000,011217,,*30
2017-12-01 16:43:40 1512164620.395583: $GPGSA,A,3,1,10,14,22,31,32,11,3,26,18,12,138,2.0,0.8,1.5*0D
2017-12-01 16:43:41 1512164621.732139: $GPGSV,3,1,12,01,22,294,39,10,41,151,42,14,68,342,44,22,24,312,43*74
2017-12-01 16:43:41 1512164621.732317: $GPGSV,3,2,12,31,62,231,50,32,66,043,49,11,06,277,37,03,05,316,31*73
2017-12-01 16:43:41 1512164621.732385: $GPGSV,3,3,12,26,08,181,27,18,12,145,17,12,19,045,29,138,38,213,40*43
2017-12-01 16:43:41 1512164621.845456: $GPZDA,214342.00,01,12,2017,00,00*62
2017-12-01 16:43:41 1512164621.845627: $GPGGA,214342,3946.9639,N,08404.9754,W,2,12,0.80,308.07,M,-33.324,M,,*74
2017-12-01 16:43:41 1512164621.845713: $GPRMC,214342,A,3946.9639,N,08404.9754,W,0.0000,0.000,011217,,*33
2017-12-01 16:43:41 1512164621.845790: $GPGSA,A,3,1,10,14,22,31,32,11,3,26,18,12,138,2.0,0.8,1.5*0D
2017-12-01 16:43:42 1512164622.397954: $GPZDA,214343.00,01,12,2017,00,00*63
2017-12-01 16:43:42 1512164622.398114: $GPGGA,214343,3946.9639,N,08404.9754,W,2,12,0.80,308.07,M,-33.324,M,,*75
2017-12-01 16:43:42 1512164622.398181: $GPRMC,214343,A,3946.9639,N,08404.9754,W,0.0000,0.000,011217,,*32
2017-12-01 16:43:42 1512164622.398242: $GPGSA,A,3,1,10,14,22,31,32,11,3,26,18,12,138,2.0,0.8,1.5*0D
2017-12-01 16:43:43 1512164623.395902: $GPZDA,214344.00,01,12,2017,00,00*64
2017-12-01 16:43:43 1512164623.396086: $GPGGA,214344,3946.9639,N,08404.9754,W,2,12,0.80,308.07,M,-33.324,M,,*72
2017-12-01 16:43:43 1512164623.396153: $GPRMC,214344,A,3946.9639,N,08404.9754,W,0.0000,0.000,011217,,*35
2017-12-01 16:43:43 1512164623.396214: $GPGSA,A,3,1,10,14,22,31,32,11,3,26,18,12,138,2.0,0.8,1.5*0D
2017-12-01 16:43:44 1512164624.725333: $GPGSV,3,1,12,01,22,294,39,10,41,151,42,14,68,342,44,22,24,312,43*74
2017-12-01 16:43:44 1512164624.725493: $GPGSV,3,2,12,31,62,231,49,32,66,043,49,11,06,277,36,25,41,082,18*7B
2017-12-01 16:43:44 1512164624.725560: $GPGSV,3,3,12,26,08,181,23,18,12,145,17,12,19,045,29,138,38,213,41*46
2017-12-01 16:43:44 1512164624.837455: $GPZDA,214345.00,01,12,2017,00,00*65
2017-12-01 16:43:44 1512164624.837593: $GPGGA,214345,3946.9639,N,08404.9754,W,2,12,0.80,308.07,M,-33.324,M,,*73
2017-12-01 16:43:44 1512164624.837663: $GPRMC,214345,A,3946.9639,N,08404.9754,W,0.0000,0.000,011217,,*34
2017-12-01 16:43:44 1512164624.837725: $GPGSA,A,3,1,10,14,22,31,32,11,25,26,18,12,138,2.0,0.8,1.5*39
