2017-12-29 11:29:13 1514564953.758021: {"class":"VERSION","release":"3.16","rev":"3.16-4","proto_major":3,"proto_minor":11}
2017-12-29 11:29:13 1514564953.758366: {"class":"DEVICES","devices":[{"class":"DEVICE","path":"/dev/ttyUSB0","driver":"SiRF","subtype":"9\u0006GSD4e_4.1.2-P1_RPATCH.05-F-GPS-4R-1510281 11/03/2015 307","activated":"2017-12-29T16:29:13.718Z","flags":1,"native":1,"bps":4800,"parity":"N","stopbits":1,"cycle":1.00}]}
2017-12-29 11:29:13 1514564953.758481: {"class":"WATCH","enable":true,"json":false,"nmea":true,"raw":0,"scaled":false,"timing":false,"split24":false,"pps":false}
2017-12-29 11:29:13 1514564953.831521: $GPZDA,162914.00,29,12,2017,00,00*63
2017-12-29 11:29:13 1514564953.831668: $GPGGA,162914,3946.9584,N,08404.9817,W,1,11,1.00,323.31,M,-33.324,M,,*77
2017-12-29 11:29:13 1514564953.831733: $GPRMC,162914,A,3946.9584,N,08404.9817,W,1.7007,124.595,291217,,*30
2017-12-29 11:29:13 1514564953.831793: $GPGSA,A,3,8,10,15,18,20,21,24,27,32,13,138,,1.7,1.0,1.3*38
2017-12-29 11:29:14 1514564954.397354: $GPZDA,162915.00,29,12,2017,00,00*62
2017-12-29 11:29:14 1514564954.397554: $GPGGA,162915,3946.9580,N,08404.9810,W,1,11,1.00,324.16,M,-33.324,M,,*77
2017-12-29 11:29:14 1514564954.397641: $GPRMC,162915,A,3946.9580,N,08404.9810,W,1.3084,135.524,291217,,*37
2017-12-29 11:29:14 1514564954.397706: $GPGSA,A,3,8,10,15,18,20,21,24,27,32,13,138,,1.7,1.0,1.3*38
2017-12-29 11:29:15 1514564955.398916: $GPZDA,162916.00,29,12,2017,00,00*61
2017-12-29 11:29:15 1514564955.399079: $GPGGA,162916,3946.9580,N,08404.9810,W,1,11,1.00,324.16,M,-33.324,M,,*74
2017-12-29 11:29:15 1514564955.399145: $GPRMC,162916,A,3946.9580,N,08404.9810,W,0.5306,114.352,291217,,*3E
2017-12-29 11:29:15 1514564955.399205: $GPGSA,A,3,8,10,15,18,20,21,24,27,32,13,138,,1.7,1.0,1.3*38
2017-12-29 11:29:16 1514564956.713356: $GPGSV,3,1,12,08,07,319,36,10,45,304,42,15,33,054,45,18,74,351,40*75
2017-12-29 11:29:16 1514564956.713540: $GPGSV,3,2,12,20,31,099,47,21,58,186,42,24,52,102,45,27,18,285,30*7C
2017-12-29 11:29:16 1514564956.713605: $GPGSV,3,3,12,32,25,241,35,14,07,235,17,13,04,049,00,138,38,213,45*46
2017-12-29 11:29:16 1514564956.826704: $GPZDA,162917.00,29,12,2017,00,00*60
2017-12-29 11:29:16 1514564956.826881: $GPGGA,162917,3946.9580,N,08404.9810,W,1,10,1.00,324.16,M,-33.324,M,,*74
2017-12-29 11:29:16 1514564956.826949: $GPRMC,162917,A,3946.9580,N,08404.9810,W,0.0000,0.000,291217,,*3F
2017-12-29 11:29:16 1514564956.827009: $GPGSA,A,3,8,10,15,18,20,21,24,27,32,138,,,1.7,1.0,1.3*3A
2017-12-29 11:29:17 1514564957.383964: $GPZDA,162918.00,29,12,2017,00,00*6F
2017-12-29 11:29:17 1514564957.384134: $GPGGA,162918,3946.9580,N,08404.9810,W,1,10,0.80,324.16,M,-33.324,M,,*72
2017-12-29 11:29:17 1514564957.384201: $GPRMC,162918,A,3946.9580,N,08404.9810,W,0.0000,0.000,291217,,*30
2017-12-29 11:29:17 1514564957.384262: $GPGSA,A,3,8,10,15,18,20,21,24,27,32,138,,,1.7,0.8,1.3*33
2017-12-29 11:29:18 1514564958.380891: $GPZDA,162919.00,29,12,2017,00,00*6E
2017-12-29 11:29:18 1514564958.381127: $GPGGA,162919,3946.9580,N,08404.9810,W,1,10,1.00,324.16,M,-33.324,M,,*7A
2017-12-29 11:29:18 1514564958.381204: $GPRMC,162919,A,3946.9580,N,08404.9810,W,0.0000,0.000,291217,,*31
2017-12-29 11:29:18 1514564958.381268: $GPGSA,A,3,8,10,15,18,20,21,24,27,32,138,,,1.7,1.0,1.3*3A
2017-12-29 11:29:19 1514564959.720366: $GPGSV,3,1,12,08,07,319,37,10,45,304,41,15,33,054,45,18,74,351,40*77
2017-12-29 11:29:20 1514564960.487903: $GPGSV,3,2,12,20,31,099,47,21,58,186,42,24,52,102,46,27,18,285,26*78
2017-12-29 11:29:20 1514564960.488055: $GPGSV,3,3,12,32,25,241,35,14,07,235,02,13,04,049,00,138,38,213,46*41
2017-12-29 11:29:20 1514564960.488163: $GPZDA,162920.00,29,12,2017,00,00*64
2017-12-29 11:29:20 1514564960.488224: $GPGGA,162920,3946.9580,N,08404.9803,W,1,10,1.00,324.24,M,-33.324,M,,*73
2017-12-29 11:29:20 1514564960.488287: $GPRMC,162920,A,3946.9580,N,08404.9803,W,0.0000,0.000,291217,,*39
2017-12-29 11:29:20 1514564960.488349: $GPGSA,A,3,8,10,15,18,20,21,24,27,32,138,,,1.7,1.0,1.3*3A
2017-12-29 11:29:20 1514564960.488409: $GPZDA,162921.00,29,12,2017,00,00*65
2017-12-29 11:29:20 1514564960.488513: $GPGGA,162921,3946.9580,N,08404.9803,W,1,10,1.00,324.24,M,-33.324,M,,*72
2017-12-29 11:29:20 1514564960.488577: $GPRMC,162921,A,3946.9580,N,08404.9803,W,0.0000,0.000,291217,,*38
2017-12-29 11:29:20 1514564960.488637: $GPGSA,A,3,8,10,15,18,20,21,24,27,32,138,,,1.7,1.0,1.3*3A
2017-12-29 11:29:21 1514564961.381248: $GPZDA,162922.00,29,12,2017,00,00*66
2017-12-29 11:29:21 1514564961.381413: $GPGGA,162922,3946.9580,N,08404.9803,W,1,10,0.80,324.24,M,-33.324,M,,*78
2017-12-29 11:29:21 1514564961.381479: $GPRMC,162922,A,3946.9580,N,08404.9803,W,0.0000,0.000,291217,,*3B
2017-12-29 11:29:21 1514564961.381540: $GPGSA,A,3,8,10,15,18,20,21,24,27,32,138,,,1.7,0.8,1.3*33
2017-12-29 11:29:22 1514564962.715660: $GPGSV,3,1,12,08,07,319,37,10,45,304,41,15,33,054,44,18,74,351,40*76
2017-12-29 11:29:22 1514564962.715825: $GPGSV,3,2,12,20,31,099,47,21,58,186,42,24,52,102,46,27,18,285,08*74
2017-12-29 11:29:22 1514564962.715891: $GPGSV,3,3,12,32,25,241,35,14,07,235,00,13,04,049,00,138,38,213,45*40
2017-12-29 11:29:22 1514564962.829324: $GPZDA,162923.00,29,12,2017,00,00*67
2017-12-29 11:29:22 1514564962.829491: $GPGGA,162923,3946.9580,N,08404.9803,W,1,09,1.00,324.24,M,-33.324,M,,*78
2017-12-29 11:29:22 1514564962.829557: $GPRMC,162923,A,3946.9580,N,08404.9803,W,0.0000,0.000,291217,,*3A
2017-12-29 11:29:22 1514564962.829617: $GPGSA,A,3,8,10,15,18,20,21,24,32,138,,,,1.7,1.0,1.3*3F
2017-12-29 11:29:23 1514564963.381206: $GPZDA,162924.00,29,12,2017,00,00*60
2017-12-29 11:29:23 1514564963.381378: $GPGGA,162924,3946.9580,N,08404.9803,W,1,09,1.00,324.24,M,-33.324,M,,*7F
2017-12-29 11:29:23 1514564963.381445: $GPRMC,162924,A,3946.9580,N,08404.9803,W,0.0000,0.000,291217,,*3D
2017-12-29 11:29:23 1514564963.381505: $GPGSA,A,3,8,10,15,18,20,21,24,32,138,,,,1.7,1.0,1.3*3F
2017-12-29 11:29:24 1514564964.380888: $GPZDA,162925.00,29,12,2017,00,00*61
2017-12-29 11:29:24 1514564964.381101: $GPGGA,162925,3946.9580,N,08404.9803,W,1,09,1.00,324.24,M,-33.324,M,,*7E
2017-12-29 11:29:24 1514564964.381178: $GPRMC,162925,A,3946.9580,N,08404.9803,W,0.0000,0.000,291217,,*3C
2017-12-29 11:29:24 1514564964.381240: $GPGSA,A,3,8,10,15,18,20,21,24,32,138,,,,1.7,1.0,1.3*3F
2017-12-29 11:29:25 1514564965.717176: $GPGSV,3,1,12,08,07,319,38,10,45,304,41,15,33,054,43,18,74,351,41*7F
2017-12-29 11:29:25 1514564965.717359: $GPGSV,3,2,12,20,31,099,46,21,58,186,42,24,52,102,46,27,18,285,27*78
2017-12-29 11:29:25 1514564965.717426: $GPGSV,3,3,12,32,25,241,35,14,07,235,00,13,04,049,00,138,38,213,45*40
2017-12-29 11:29:25 1514564965.830561: $GPZDA,162926.00,29,12,2017,00,00*62
2017-12-29 11:29:25 1514564965.830739: $GPGGA,162926,3946.9580,N,08404.9803,W,1,10,1.00,324.24,M,-33.324,M,,*75
2017-12-29 11:29:25 1514564965.830805: $GPRMC,162926,A,3946.9580,N,08404.9803,W,0.0000,0.000,291217,,*3F
2017-12-29 11:29:25 1514564965.830866: $GPGSA,A,3,8,10,15,18,20,21,24,27,32,138,,,1.7,1.0,1.3*3A
2017-12-29 11:29:26 1514564966.378908: $GPZDA,162927.00,29,12,2017,00,00*63
2017-12-29 11:29:26 1514564966.379063: $GPGGA,162927,3946.9580,N,08404.9803,W,1,10,1.00,324.24,M,-33.324,M,,*74
2017-12-29 11:29:26 1514564966.379128: $GPRMC,162927,A,3946.9580,N,08404.9803,W,0.0000,0.000,291217,,*3E
2017-12-29 11:29:26 1514564966.379189: $GPGSA,A,3,8,10,15,18,20,21,24,27,32,138,,,1.7,1.0,1.3*3A
2017-12-29 11:29:27 1514564967.381016: $GPZDA,162928.00,29,12,2017,00,00*6C
2017-12-29 11:29:27 1514564967.381249: $GPGGA,162928,3946.9580,N,08404.9803,W,1,10,1.00,324.24,M,-33.324,M,,*7B
2017-12-29 11:29:27 1514564967.381333: $GPRMC,162928,A,3946.9580,N,08404.9803,W,0.0000,0.000,291217,,*31
2017-12-29 11:29:27 1514564967.381394: $GPGSA,A,3,8,10,15,18,20,21,24,27,32,138,,,1.7,1.0,1.3*3A
2017-12-29 11:29:28 1514564968.716696: $GPGSV,3,1,12,08,07,319,38,10,45,304,41,15,33,054,43,18,74,351,40*7E
2017-12-29 11:29:28 1514564968.716872: $GPGSV,3,2,12,20,31,099,46,21,58,186,42,24,52,102,46,27,18,285,29*76
2017-12-29 11:29:28 1514564968.716937: $GPGSV,3,3,12,32,25,241,36,14,07,235,00,13,04,049,00,138,38,213,45*43
