2017-11-16 17:10:55 1510870255.242616: {"class":"VERSION","release":"3.17","rev":"3.17","proto_major":3,"proto_minor":12}
2017-11-16 17:10:55 1510870255.243069: {"class":"DEVICES","devices":[{"class":"DEVICE","path":"/dev/ttyUSB0","driver":"SiRF","subtype":"9\u0006GSD4e_4.1.2-P1_RPATCH.05-F-GPS-4R-1510281 11/03/2015 307","activated":"2017-11-16T22:10:55.239Z","flags":1,"native":1,"bps":4800,"parity":"N","stopbits":1,"cycle":1.00}]}
2017-11-16 17:10:55 1510870255.243188: {"class":"WATCH","enable":true,"json":false,"nmea":true,"raw":0,"scaled":false,"timing":false,"split24":false,"pps":false}
2017-11-16 17:10:55 1510870255.415756: $GPZDA,221054.00,16,11,2017,00,00*65
2017-11-16 17:10:55 1510870255.415931: $GPGGA,221054,3946.9568,N,08404.9826,W,2,12,0.80,312.81,M,-33.324,M,,*7E
2017-11-16 17:10:55 1510870255.415994: $GPRMC,221054,A,3946.9568,N,08404.9826,W,0.0000,0.000,161117,,*39
2017-11-16 17:10:55 1510870255.416050: $GPGSA,A,3,1,10,24,12,14,18,22,11,25,31,32,138,1.6,0.8,1.3*38
2017-11-16 17:10:56 1510870256.399846: $GPZDA,221055.00,16,11,2017,00,00*64
2017-11-16 17:10:56 1510870256.400021: $GPGGA,221055,3946.9568,N,08404.9826,W,2,12,0.80,312.81,M,-33.324,M,,*7F
2017-11-16 17:10:56 1510870256.400085: $GPRMC,221055,A,3946.9568,N,08404.9826,W,0.0000,0.000,161117,,*38
2017-11-16 17:10:56 1510870256.400141: $GPGSA,A,3,1,10,24,12,14,18,22,11,25,31,32,138,1.6,0.8,1.3*38
2017-11-16 17:10:57 1510870257.751915: $GPGSV,3,1,12,01,19,310,43,10,59,142,47,24,05,046,29,12,25,060,50*70
2017-11-16 17:10:57 1510870257.752086: $GPGSV,3,2,12,14,61,309,46,18,28,141,45,22,11,312,39,11,10,291,30*75
2017-11-16 17:10:57 1510870257.752147: $GPGSV,3,3,12,25,36,103,47,31,45,217,49,32,70,358,49,138,38,213,44*47
2017-11-16 17:10:57 1510870257.865260: $GPZDA,221056.00,16,11,2017,00,00*67
2017-11-16 17:10:57 1510870257.865436: $GPGGA,221056,3946.9568,N,08404.9826,W,2,12,0.80,312.81,M,-33.324,M,,*7C
2017-11-16 17:10:57 1510870257.865497: $GPRMC,221056,A,3946.9568,N,08404.9826,W,0.0000,0.000,161117,,*3B
2017-11-16 17:10:57 1510870257.865555: $GPGSA,A,3,1,10,24,12,14,18,22,11,25,31,32,138,1.6,0.8,1.3*38
2017-11-16 17:10:58 1510870258.414828: $GPZDA,221057.00,16,11,2017,00,00*66
2017-11-16 17:10:58 1510870258.414996: $GPGGA,221057,3946.9568,N,08404.9826,W,2,12,0.80,312.81,M,-33.324,M,,*7D
2017-11-16 17:10:58 1510870258.415116: $GPRMC,221057,A,3946.9568,N,08404.9826,W,0.0000,0.000,161117,,*3A
2017-11-16 17:10:58 1510870258.415175: $GPGSA,A,3,1,10,24,12,14,18,22,11,25,31,32,138,1.6,0.8,1.3*38
2017-11-16 17:10:59 1510870259.415736: $GPZDA,221058.00,16,11,2017,00,00*69
2017-11-16 17:10:59 1510870259.415916: $GPGGA,221058,3946.9568,N,08404.9826,W,2,12,0.80,312.81,M,-33.324,M,,*72
2017-11-16 17:10:59 1510870259.415995: $GPRMC,221058,A,3946.9568,N,08404.9826,W,0.0000,0.000,161117,,*35
2017-11-16 17:10:59 1510870259.416055: $GPGSA,A,3,1,10,24,12,14,18,22,11,25,31,32,138,1.6,0.8,1.3*38
2017-11-16 17:11:00 1510870260.752790: $GPGSV,3,1,12,01,19,310,42,10,59,142,47,24,05,046,29,12,25,060,50*71
2017-11-16 17:11:00 1510870260.752964: $GPGSV,3,2,12,14,61,309,46,18,28,141,45,22,11,312,40,11,10,291,31*7A
2017-11-16 17:11:00 1510870260.753025: $GPGSV,3,3,12,25,36,103,47,31,45,217,49,32,70,358,49,138,38,213,43*40
2017-11-16 17:11:00 1510870260.866144: $GPZDA,221059.00,16,11,2017,00,00*68
2017-11-16 17:11:00 1510870260.866328: $GPGGA,221059,3946.9568,N,08404.9826,W,2,12,0.80,312.81,M,-33.324,M,,*73
2017-11-16 17:11:00 1510870260.866391: $GPRMC,221059,A,3946.9568,N,08404.9826,W,0.0000,0.000,161117,,*34
2017-11-16 17:11:00 1510870260.866455: $GPGSA,A,3,1,10,24,12,14,18,22,11,25,31,32,138,1.6,0.8,1.3*38
2017-11-16 17:11:01 1510870261.491441: $GPZDA,221100.00,16,11,2017,00,00*65
2017-11-16 17:11:01 1510870261.491611: $GPGGA,221100,3946.9568,N,08404.9826,W,2,12,0.80,312.81,M,-33.324,M,,*7E
2017-11-16 17:11:01 1510870261.491675: $GPRMC,221100,A,3946.9568,N,08404.9826,W,0.0000,0.000,161117,,*39
2017-11-16 17:11:01 1510870261.491735: $GPGSA,A,3,1,10,24,12,14,18,22,11,25,31,32,138,1.6,0.8,1.3*38
2017-11-16 17:11:02 1510870262.398856: $GPZDA,221101.00,16,11,2017,00,00*64
2017-11-16 17:11:02 1510870262.399102: $GPGGA,221101,3946.9568,N,08404.9826,W,2,12,0.80,312.81,M,-33.324,M,,*7F
2017-11-16 17:11:02 1510870262.399173: $GPRMC,221101,A,3946.9568,N,08404.9826,W,0.0000,0.000,161117,,*38
2017-11-16 17:11:02 1510870262.399232: $GPGSA,A,3,1,10,24,12,14,18,22,11,25,31,32,138,1.6,0.8,1.3*38
2017-11-16 17:11:03 1510870263.761890: $GPGSV,3,1,12,01,19,310,42,10,59,142,47,24,05,046,00,12,25,060,50*7A
2017-11-16 17:11:03 1510870263.762062: $GPGSV,3,2,12,14,61,309,46,18,28,141,45,22,11,312,40,11,10,291,31*7A
2017-11-16 17:11:03 1510870263.762122: $GPGSV,3,3,12,25,36,103,46,31,45,217,48,32,70,358,49,138,38,213,43*40
2017-11-16 17:11:03 1510870263.875222: $GPZDA,221102.00,16,11,2017,00,00*67
2017-11-16 17:11:03 1510870263.875388: $GPGGA,221102,3946.9568,N,08404.9826,W,2,11,0.80,312.81,M,-33.324,M,,*7F
2017-11-16 17:11:03 1510870263.875451: $GPRMC,221102,A,3946.9568,N,08404.9826,W,0.0000,0.000,161117,,*3B
2017-11-16 17:11:03 1510870263.875526: $GPGSA,A,3,1,10,12,14,18,22,11,25,31,32,138,,1.6,0.8,1.3*3E
2017-11-16 17:11:04 1510870264.416091: $GPZDA,221103.00,16,11,2017,00,00*66
2017-11-16 17:11:04 1510870264.416275: $GPGGA,221103,3946.9568,N,08404.9826,W,2,11,0.80,312.81,M,-33.324,M,,*7E
2017-11-16 17:11:04 1510870264.416359: $GPRMC,221103,A,3946.9568,N,08404.9826,W,0.0000,0.000,161117,,*3A
2017-11-16 17:11:04 1510870264.416419: $GPGSA,A,3,1,10,12,14,18,22,11,25,31,32,138,,1.6,0.8,1.3*3E
