2017-11-16 14:23:57 1510860237.147838: {"class":"VERSION","release":"3.17","rev":"3.17","proto_major":3,"proto_minor":12}
2017-11-16 14:23:57 1510860237.148291: {"class":"DEVICES","devices":[{"class":"DEVICE","path":"/dev/ttyUSB0","driver":"SiRF","subtype":"9\u0006GSD4e_4.1.2-P1_RPATCH.05-F-GPS-4R-1510281 11/03/2015 307","activated":"2017-11-16T19:23:56.643Z","flags":1,"native":1,"bps":4800,"parity":"N","stopbits":1,"cycle":1.00}]}
2017-11-16 14:23:57 1510860237.148404: {"class":"WATCH","enable":true,"json":false,"nmea":true,"raw":0,"scaled":false,"timing":false,"split24":false,"pps":false}
2017-11-16 14:23:57 1510860237.838399: $GPGSV,3,1,12,08,07,318,37,10,44,304,47,13,05,049,00,15,34,054,50*71
2017-11-16 14:23:57 1510860237.838555: $GPGSV,3,2,12,18,73,346,46,21,60,187,45,20,30,099,46,24,52,103,48*73
2017-11-16 14:23:57 1510860237.838615: $GPGSV,3,3,12,27,18,285,41,32,23,241,44,14,07,234,35,138,38,213,44*4B
2017-11-16 14:23:57 1510860237.951727: $GPZDA,192356.00,16,11,2017,00,00*6F
2017-11-16 14:23:57 1510860237.951887: $GPGGA,192356,3946.9565,N,08404.9850,W,2,11,0.80,304.07,M,-33.324,M,,*72
2017-11-16 14:23:57 1510860237.951947: $GPRMC,192356,A,3946.9565,N,08404.9850,W,0.0000,0.000,161117,,*3F
2017-11-16 14:23:57 1510860237.952003: $GPGSA,A,3,8,10,15,18,21,20,24,27,32,14,138,,1.6,0.8,1.3*37
2017-11-16 14:23:58 1510860238.507715: $GPZDA,192357.00,16,11,2017,00,00*6E
2017-11-16 14:23:58 1510860238.560080: $GPGGA,192357,3946.9565,N,08404.9850,W,2,11,0.80,304.07,M,-33.324,M,,*73
2017-11-16 14:23:58 1510860238.560225: $GPRMC,192357,A,3946.9565,N,08404.9850,W,0.0000,0.000,161117,,*3E
2017-11-16 14:23:58 1510860238.560363: $GPGSA,A,3,8,10,15,18,21,20,24,27,32,14,138,,1.6,0.8,1.3*37
2017-11-16 14:23:59 1510860239.503133: $GPZDA,192358.00,16,11,2017,00,00*61
2017-11-16 14:23:59 1510860239.503339: $GPGGA,192358,3946.9565,N,08404.9850,W,2,11,0.80,304.07,M,-33.324,M,,*7C
2017-11-16 14:23:59 1510860239.503401: $GPRMC,192358,A,3946.9565,N,08404.9850,W,0.0000,0.000,161117,,*31
2017-11-16 14:23:59 1510860239.503457: $GPGSA,A,3,8,10,15,18,21,20,24,27,32,14,138,,1.6,0.8,1.3*37
2017-11-16 14:24:00 1510860240.868771: $GPGSV,3,1,12,08,07,318,37,10,44,304,47,13,05,049,18,15,34,054,49*70
2017-11-16 14:24:00 1510860240.868917: $GPGSV,3,2,12,18,73,346,46,21,60,187,46,20,30,099,46,24,52,103,48*70
2017-11-16 14:24:00 1510860240.868978: $GPGSV,3,3,12,27,18,285,41,32,23,241,44,14,07,234,36,138,38,213,45*49
2017-11-16 14:24:00 1510860240.982127: $GPZDA,192359.00,16,11,2017,00,00*60
2017-11-16 14:24:00 1510860240.982310: $GPGGA,192359,3946.9565,N,08404.9850,W,2,12,0.80,304.07,M,-33.324,M,,*7E
2017-11-16 14:24:00 1510860240.982374: $GPRMC,192359,A,3946.9565,N,08404.9850,W,0.0000,0.000,161117,,*30
2017-11-16 14:24:00 1510860240.982430: $GPGSA,A,3,8,10,13,15,18,21,20,24,27,32,14,138,1.6,0.8,1.3*35
2017-11-16 14:24:01 1510860241.533086: $GPZDA,192400.00,16,11,2017,00,00*6B
2017-11-16 14:24:01 1510860241.533260: $GPGGA,192400,3946.9565,N,08404.9850,W,2,12,0.80,304.07,M,-33.324,M,,*75
2017-11-16 14:24:01 1510860241.533322: $GPRMC,192400,A,3946.9565,N,08404.9850,W,0.0000,0.000,161117,,*3B
2017-11-16 14:24:01 1510860241.533378: $GPGSA,A,3,8,10,13,15,18,21,20,24,27,32,14,138,1.6,0.8,1.3*35
2017-11-16 14:24:02 1510860242.526393: $GPZDA,192401.00,16,11,2017,00,00*6A
2017-11-16 14:24:02 1510860242.526561: $GPGGA,192401,3946.9565,N,08404.9850,W,2,12,0.80,304.07,M,-33.324,M,,*74
2017-11-16 14:24:02 1510860242.526622: $GPRMC,192401,A,3946.9565,N,08404.9850,W,0.0000,0.000,161117,,*3A
2017-11-16 14:24:02 1510860242.526678: $GPGSA,A,3,8,10,13,15,18,21,20,24,27,32,14,138,1.6,0.8,1.3*35
2017-11-16 14:24:03 1510860243.837158: $GPGSV,3,1,12,08,07,318,37,10,44,304,47,13,05,049,20,15,34,054,49*7B
2017-11-16 14:24:03 1510860243.837352: $GPGSV,3,2,12,18,73,346,46,21,60,187,46,20,30,099,46,24,52,103,48*70
2017-11-16 14:24:03 1510860243.837412: $GPGSV,3,3,12,27,18,285,41,32,23,241,44,14,07,234,36,138,38,213,45*49
2017-11-16 14:24:03 1510860243.950749: $GPZDA,192402.00,16,11,2017,00,00*69
2017-11-16 14:24:03 1510860243.950918: $GPGGA,192402,3946.9565,N,08404.9850,W,2,12,0.80,304.07,M,-33.324,M,,*77
2017-11-16 14:24:03 1510860243.951028: $GPRMC,192402,A,3946.9565,N,08404.9850,W,0.0000,0.000,161117,,*39
2017-11-16 14:24:03 1510860243.951115: $GPGSA,A,3,8,10,13,15,18,21,20,24,27,32,14,138,1.6,0.8,1.3*35
2017-11-16 14:24:04 1510860244.575446: $GPZDA,192403.00,16,11,2017,00,00*68
2017-11-16 14:24:04 1510860244.575555: $GPGGA,192403,3946.9565,N,08404.9850,W,2,12,0.80,304.07,M,-33.324,M,,*76
2017-11-16 14:24:04 1510860244.575586: $GPRMC,192403,A,3946.9565,N,08404.9850,W,0.0000,0.000,161117,,*38
2017-11-16 14:24:04 1510860244.575615: $GPGSA,A,3,8,10,13,15,18,21,20,24,27,32,14,138,1.6,0.8,1.3*35
2017-11-16 14:24:05 1510860245.533143: $GPZDA,192404.00,16,11,2017,00,00*6F
2017-11-16 14:24:05 1510860245.533307: $GPGGA,192404,3946.9565,N,08404.9850,W,2,12,0.80,304.07,M,-33.324,M,,*71
2017-11-16 14:24:05 1510860245.533369: $GPRMC,192404,A,3946.9565,N,08404.9850,W,0.0000,0.000,161117,,*3F
2017-11-16 14:24:05 1510860245.533426: $GPGSA,A,3,8,10,13,15,18,21,20,24,27,32,14,138,1.6,0.8,1.3*35
2017-11-16 14:24:06 1510860246.832623: $GPGSV,3,1,12,08,07,318,38,10,44,304,47,13,05,049,21,15,34,054,50*7D
2017-11-16 14:24:06 1510860246.832792: $GPGSV,3,2,12,18,73,346,46,21,60,187,46,20,30,099,46,24,52,103,48*70
2017-11-16 14:24:06 1510860246.832852: $GPGSV,3,3,12,27,18,285,41,32,23,241,44,14,07,234,36,138,38,213,45*49
2017-11-16 14:24:06 1510860246.946298: $GPZDA,192405.00,16,11,2017,00,00*6E
2017-11-16 14:24:06 1510860246.946457: $GPGGA,192405,3946.9565,N,08404.9850,W,2,12,0.80,304.07,M,-33.324,M,,*70
2017-11-16 14:24:06 1510860246.946518: $GPRMC,192405,A,3946.9565,N,08404.9850,W,0.0000,0.000,161117,,*3E
2017-11-16 14:24:06 1510860246.946574: $GPGSA,A,3,8,10,13,15,18,21,20,24,27,32,14,138,1.6,0.8,1.3*35
2017-11-16 14:24:07 1510860247.502193: $GPZDA,192406.00,16,11,2017,00,00*6D
2017-11-16 14:24:07 1510860247.502364: $GPGGA,192406,3946.9565,N,08404.9850,W,2,12,0.80,304.07,M,-33.324,M,,*73
2017-11-16 14:24:07 1510860247.502425: $GPRMC,192406,A,3946.9565,N,08404.9850,W,0.0000,0.000,161117,,*3D
2017-11-16 14:24:07 1510860247.502482: $GPGSA,A,3,8,10,13,15,18,21,20,24,27,32,14,138,1.6,0.8,1.3*35
2017-11-16 14:24:08 1510860248.495466: $GPZDA,192407.00,16,11,2017,00,00*6C
2017-11-16 14:24:08 1510860248.495629: $GPGGA,192407,3946.9565,N,08404.9850,W,2,12,0.80,304.07,M,-33.324,M,,*72
2017-11-16 14:24:08 1510860248.495689: $GPRMC,192407,A,3946.9565,N,08404.9850,W,0.0000,0.000,161117,,*3C
2017-11-16 14:24:08 1510860248.495745: $GPGSA,A,3,8,10,13,15,18,21,20,24,27,32,14,138,1.6,0.8,1.3*35
2017-11-16 14:24:09 1510860249.837910: $GPGSV,3,1,12,08,07,318,37,10,44,304,46,13,05,049,00,15,34,054,50*70
2017-11-16 14:24:10 1510860250.095314: $GPGSV,3,2,12,18,73,346,47,21,60,187,46,20,30,099,46,24,52,103,48*71
2017-11-16 14:24:10 1510860250.095460: $GPGSV,3,3,12,27,18,285,40,32,23,241,44,14,07,234,36,138,38,213,44*49
2017-11-16 14:24:10 1510860250.095556: $GPZDA,192408.00,16,11,2017,00,00*63
2017-11-16 14:24:10 1510860250.095610: $GPGGA,192408,3946.9565,N,08404.9850,W,2,11,0.80,304.07,M,-33.324,M,,*7E
2017-11-16 14:24:10 1510860250.095667: $GPRMC,192408,A,3946.9565,N,08404.9850,W,0.0000,0.000,161117,,*33
2017-11-16 14:24:10 1510860250.095723: $GPGSA,A,3,8,10,15,18,21,20,24,27,32,14,138,,1.6,0.8,1.3*37
2017-11-16 14:24:10 1510860250.537197: $GPZDA,192409.00,16,11,2017,00,00*62
2017-11-16 14:24:10 1510860250.537376: $GPGGA,192409,3946.9565,N,08404.9850,W,2,11,0.80,304.07,M,-33.324,M,,*7F
2017-11-16 14:24:10 1510860250.537438: $GPRMC,192409,A,3946.9565,N,08404.9850,W,0.0000,0.000,161117,,*32
2017-11-16 14:24:10 1510860250.537494: $GPGSA,A,3,8,10,15,18,21,20,24,27,32,14,138,,1.6,0.8,1.3*37
2017-11-16 14:24:11 1510860251.501803: $GPZDA,192410.00,16,11,2017,00,00*6A
2017-11-16 14:24:11 1510860251.501965: $GPGGA,192410,3946.9565,N,08404.9850,W,2,11,0.80,304.07,M,-33.324,M,,*77
2017-11-16 14:24:11 1510860251.502024: $GPRMC,192410,A,3946.9565,N,08404.9850,W,0.0000,0.000,161117,,*3A
2017-11-16 14:24:11 1510860251.502081: $GPGSA,A,3,8,10,15,18,21,20,24,27,32,14,138,,1.6,0.8,1.3*37
2017-11-16 14:24:12 1510860252.865035: $GPGSV,3,1,12,08,07,318,36,10,44,304,46,13,05,049,21,15,34,054,50*72
2017-11-16 14:24:12 1510860252.865186: $GPGSV,3,2,12,18,73,346,47,21,60,187,46,20,30,099,45,24,52,103,48*72
2017-11-16 14:24:12 1510860252.865246: $GPGSV,3,3,12,27,18,285,40,32,23,241,43,14,07,234,36,138,38,213,44*4E
2017-11-16 14:24:12 1510860252.978327: $GPZDA,192411.00,16,11,2017,00,00*6B
2017-11-16 14:24:12 1510860252.978530: $GPGGA,192411,3946.9565,N,08404.9850,W,2,12,0.80,304.07,M,-33.324,M,,*75
2017-11-16 14:24:12 1510860252.978593: $GPRMC,192411,A,3946.9565,N,08404.9850,W,0.0000,0.000,161117,,*3B
2017-11-16 14:24:12 1510860252.978649: $GPGSA,A,3,8,10,13,15,18,21,20,24,27,32,14,138,1.6,0.8,1.3*35
2017-11-16 14:24:13 1510860253.527158: $GPZDA,192412.00,16,11,2017,00,00*68
2017-11-16 14:24:13 1510860253.527329: $GPGGA,192412,3946.9565,N,08404.9850,W,2,12,0.80,304.07,M,-33.324,M,,*76
2017-11-16 14:24:13 1510860253.527390: $GPRMC,192412,A,3946.9565,N,08404.9850,W,0.0000,0.000,161117,,*38
2017-11-16 14:24:13 1510860253.527447: $GPGSA,A,3,8,10,13,15,18,21,20,24,27,32,14,138,1.6,0.8,1.3*35
2017-11-16 14:24:14 1510860254.500919: $GPZDA,192413.00,16,11,2017,00,00*69
2017-11-16 14:24:14 1510860254.501098: $GPGGA,192413,3946.9565,N,08404.9850,W,2,12,0.80,304.07,M,-33.324,M,,*77
2017-11-16 14:24:14 1510860254.501160: $GPRMC,192413,A,3946.9565,N,08404.9850,W,0.0000,0.000,161117,,*39
2017-11-16 14:24:14 1510860254.501216: $GPGSA,A,3,8,10,13,15,18,21,20,24,27,32,14,138,1.6,0.8,1.3*35
2017-11-16 14:24:15 1510860255.836739: $GPGSV,3,1,12,08,07,318,35,10,44,304,46,13,05,049,21,15,34,054,50*71
2017-11-16 14:24:15 1510860255.836906: $GPGSV,3,2,12,18,73,346,47,21,60,187,46,20,30,099,46,24,52,103,48*71
2017-11-16 14:24:15 1510860255.836967: $GPGSV,3,3,12,27,18,285,39,32,23,241,44,14,07,234,35,138,38,213,44*44
2017-11-16 14:24:15 1510860255.950388: $GPZDA,192414.00,16,11,2017,00,00*6E
2017-11-16 14:24:15 1510860255.950548: $GPGGA,192414,3946.9565,N,08404.9850,W,2,12,0.80,304.07,M,-33.324,M,,*70
2017-11-16 14:24:15 1510860255.950609: $GPRMC,192414,A,3946.9565,N,08404.9850,W,0.0000,0.000,161117,,*3E
2017-11-16 14:24:15 1510860255.950665: $GPGSA,A,3,8,10,13,15,18,21,20,24,27,32,14,138,1.6,0.8,1.3*35
2017-11-16 14:24:16 1510860256.501337: $GPZDA,192415.00,16,11,2017,00,00*6F
2017-11-16 14:24:16 1510860256.501485: $GPGGA,192415,3946.9569,N,08404.9849,W,2,12,0.80,303.30,M,-33.324,M,,*76
2017-11-16 14:24:16 1510860256.501546: $GPRMC,192415,A,3946.9569,N,08404.9849,W,0.0000,0.000,161117,,*3B
2017-11-16 14:24:16 1510860256.501602: $GPGSA,A,3,8,10,13,15,18,21,20,24,27,32,14,138,1.6,0.8,1.3*35
2017-11-16 14:24:17 1510860257.501747: $GPZDA,192416.00,16,11,2017,00,00*6C
2017-11-16 14:24:17 1510860257.501926: $GPGGA,192416,3946.9569,N,08404.9849,W,2,12,0.80,303.30,M,-33.324,M,,*75
2017-11-16 14:24:17 1510860257.501987: $GPRMC,192416,A,3946.9569,N,08404.9849,W,0.0000,0.000,161117,,*38
2017-11-16 14:24:17 1510860257.502042: $GPGSA,A,3,8,10,13,15,18,21,20,24,27,32,14,138,1.6,0.8,1.3*35
2017-11-16 14:24:18 1510860258.838863: $GPGSV,3,1,12,08,07,318,34,10,44,304,46,13,05,049,18,15,34,054,50*7A
2017-11-16 14:24:18 1510860258.839033: $GPGSV,3,2,12,18,73,346,47,21,60,187,46,20,30,099,45,24,52,103,48*72
2017-11-16 14:24:18 1510860258.839093: $GPGSV,3,3,12,27,18,285,38,32,23,241,44,14,07,234,36,138,38,213,44*46
2017-11-16 14:24:18 1510860258.952598: $GPZDA,192417.00,16,11,2017,00,00*6D
2017-11-16 14:24:18 1510860258.952756: $GPGGA,192417,3946.9569,N,08404.9849,W,2,12,0.80,303.30,M,-33.324,M,,*74
2017-11-16 14:24:18 1510860258.952816: $GPRMC,192417,A,3946.9569,N,08404.9849,W,0.0000,0.000,161117,,*39
2017-11-16 14:24:18 1510860258.952873: $GPGSA,A,3,8,10,13,15,18,21,20,24,27,32,14,138,1.6,0.8,1.3*35
2017-11-16 14:24:19 1510860259.577493: $GPZDA,192418.00,16,11,2017,00,00*62
2017-11-16 14:24:19 1510860259.579501: $GPGGA,192418,3946.9569,N,08404.9849,W,2,12,0.80,303.30,M,-33.324,M,,*7B
2017-11-16 14:24:19 1510860259.579590: $GPRMC,192418,A,3946.9569,N,08404.9849,W,0.0000,0.000,161117,,*36
2017-11-16 14:24:19 1510860259.579648: $GPGSA,A,3,8,10,13,15,18,21,20,24,27,32,14,138,1.6,0.8,1.3*35
2017-11-16 14:24:20 1510860260.495860: $GPZDA,192419.00,16,11,2017,00,00*63
2017-11-16 14:24:20 1510860260.496018: $GPGGA,192419,3946.9569,N,08404.9849,W,2,12,0.80,303.30,M,-33.324,M,,*7A
2017-11-16 14:24:20 1510860260.496078: $GPRMC,192419,A,3946.9569,N,08404.9849,W,0.0000,0.000,161117,,*37
2017-11-16 14:24:20 1510860260.496135: $GPGSA,A,3,8,10,13,15,18,21,20,24,27,32,14,138,1.6,0.8,1.3*35
2017-11-16 14:24:21 1510860261.869194: $GPGSV,3,1,12,08,07,318,30,10,44,304,46,13,05,049,18,15,34,054,50*7E
2017-11-16 14:24:21 1510860261.869381: $GPGSV,3,2,12,18,73,346,47,21,60,187,45,20,30,099,45,24,52,103,47*7E
2017-11-16 14:24:21 1510860261.869441: $GPGSV,3,3,12,27,18,285,37,32,23,241,44,14,07,234,35,138,38,213,44*4A
2017-11-16 14:24:21 1510860261.982565: $GPZDA,192420.00,16,11,2017,00,00*69
2017-11-16 14:24:21 1510860261.982726: $GPGGA,192420,3946.9569,N,08404.9849,W,2,12,0.80,303.30,M,-33.324,M,,*70
2017-11-16 14:24:21 1510860261.982786: $GPRMC,192420,A,3946.9569,N,08404.9849,W,0.0000,0.000,161117,,*3D
2017-11-16 14:24:21 1510860261.982842: $GPGSA,A,3,8,10,13,15,18,21,20,24,27,32,14,138,1.6,0.8,1.3*35
2017-11-16 14:24:22 1510860262.533393: $GPZDA,192421.00,16,11,2017,00,00*68
2017-11-16 14:24:22 1510860262.533559: $GPGGA,192421,3946.9569,N,08404.9849,W,2,12,0.80,303.30,M,-33.324,M,,*71
2017-11-16 14:24:22 1510860262.533620: $GPRMC,192421,A,3946.9569,N,08404.9849,W,0.0000,0.000,161117,,*3C
2017-11-16 14:24:22 1510860262.533677: $GPGSA,A,3,8,10,13,15,18,21,20,24,27,32,14,138,1.6,0.8,1.3*35
2017-11-16 14:24:23 1510860263.533157: $GPZDA,192422.00,16,11,2017,00,00*6B
2017-11-16 14:24:23 1510860263.533341: $GPGGA,192422,3946.9569,N,08404.9849,W,2,12,1.00,303.30,M,-33.324,M,,*7B
2017-11-16 14:24:23 1510860263.533402: $GPRMC,192422,A,3946.9569,N,08404.9849,W,0.0000,0.000,161117,,*3F
2017-11-16 14:24:23 1510860263.533459: $GPGSA,A,3,8,10,13,15,18,21,20,24,27,32,14,138,1.6,1.0,1.3*3C
2017-11-16 14:24:24 1510860264.839664: $GPGSV,3,1,12,08,07,318,12,10,44,304,47,13,05,049,18,15,34,054,51*7E
2017-11-16 14:24:24 1510860264.847297: $GPGSV,3,2,12,18,73,346,47,21,60,187,45,20,30,099,45,24,52,103,47*7E
2017-11-16 14:24:24 1510860264.847398: $GPGSV,3,3,12,27,18,285,37,32,23,241,44,14,07,234,35,138,38,213,44*4A
2017-11-16 14:24:24 1510860264.953146: $GPZDA,192423.00,16,11,2017,00,00*6A
2017-11-16 14:24:24 1510860264.953322: $GPGGA,192423,3946.9569,N,08404.9849,W,2,12,0.80,303.30,M,-33.324,M,,*73
2017-11-16 14:24:24 1510860264.953384: $GPRMC,192423,A,3946.9569,N,08404.9849,W,0.0000,0.000,161117,,*3E
2017-11-16 14:24:24 1510860264.953439: $GPGSA,A,3,8,10,13,15,18,21,20,24,27,32,14,138,1.6,0.8,1.3*35
2017-11-16 14:24:25 1510860265.502594: $GPZDA,192424.00,16,11,2017,00,00*6D
2017-11-16 14:24:25 1510860265.502757: $GPGGA,192424,3946.9569,N,08404.9849,W,2,12,0.80,303.30,M,-33.324,M,,*74
2017-11-16 14:24:25 1510860265.502817: $GPRMC,192424,A,3946.9569,N,08404.9849,W,0.0000,0.000,161117,,*39
2017-11-16 14:24:25 1510860265.502873: $GPGSA,A,3,8,10,13,15,18,21,20,24,27,32,14,138,1.6,0.8,1.3*35
2017-11-16 14:24:26 1510860266.503494: $GPZDA,192425.00,16,11,2017,00,00*6C
2017-11-16 14:24:26 1510860266.503650: $GPGGA,192425,3946.9569,N,08404.9849,W,2,12,0.80,303.30,M,-33.324,M,,*75
2017-11-16 14:24:26 1510860266.503712: $GPRMC,192425,A,3946.9569,N,08404.9849,W,0.0000,0.000,161117,,*38
2017-11-16 14:24:26 1510860266.503768: $GPGSA,A,3,8,10,13,15,18,21,20,24,27,32,14,138,1.6,0.8,1.3*35
