2017-12-14 12:09:47 1513271387.606581: {"class":"VERSION","release":"3.16","rev":"3.16-4","proto_major":3,"proto_minor":11}
2017-12-14 12:09:47 1513271387.606998: {"class":"DEVICES","devices":[{"class":"DEVICE","path":"/dev/ttyUSB0","driver":"SiRF","subtype":"9\u0006GSD4e_4.1.2-P1_RPATCH.05-F-GPS-4R-1510281 11/03/2015 307","activated":"2017-12-14T17:09:47.571Z","flags":1,"native":1,"bps":4800,"parity":"N","stopbits":1,"cycle":1.00}]}
2017-12-14 12:09:47 1513271387.607131: {"class":"WATCH","enable":true,"json":false,"nmea":true,"raw":0,"scaled":false,"timing":false,"split24":false,"pps":false}
2017-12-14 12:09:47 1513271387.684804: $GPZDA,170948.00,14,12,2017,00,00*67
2017-12-14 12:09:47 1513271387.684990: $GPGGA,170948,3946.9495,N,08404.9441,W,1,07,2.00,343.04,M,-33.324,M,,*77
2017-12-14 12:09:47 1513271387.685172: $GPRMC,170948,A,3946.9495,N,08404.9441,W,0.4844,273.794,141217,,*35
2017-12-14 12:09:47 1513271387.685234: $GPGSA,A,3,24,21,10,15,18,20,8,,,,,,6.6,2.0,6.2*07
2017-12-14 12:09:48 1513271388.238660: $GPZDA,170949.00,14,12,2017,00,00*66
2017-12-14 12:09:48 1513271388.238816: $GPGGA,170949,3946.9492,N,08404.9442,W,1,07,1.80,343.80,M,-33.324,M,,*75
2017-12-14 12:09:48 1513271388.238883: $GPRMC,170949,A,3946.9492,N,08404.9442,W,0.3423,184.197,141217,,*34
2017-12-14 12:09:48 1513271388.238964: $GPGSA,A,3,24,21,10,15,18,20,8,,,,,,6.6,1.8,6.2*0C
2017-12-14 12:09:49 1513271389.237531: $GPZDA,170950.00,14,12,2017,00,00*6E
2017-12-14 12:09:49 1513271389.237696: $GPGGA,170950,3946.9484,N,08404.9442,W,1,07,1.80,343.93,M,-33.324,M,,*78
2017-12-14 12:09:49 1513271389.237761: $GPRMC,170950,A,3946.9484,N,08404.9442,W,0.3423,184.197,141217,,*3B
2017-12-14 12:09:49 1513271389.237822: $GPGSA,A,3,24,21,10,15,18,20,8,,,,,,6.6,1.8,6.2*0C
2017-12-14 12:09:50 1513271390.577499: $GPGSV,3,1,12,24,49,117,30,21,67,192,24,10,38,298,23,15,41,051,21*77
2017-12-14 12:09:50 1513271390.577661: $GPGSV,3,2,12,18,69,330,16,20,37,093,17,08,04,325,11,27,19,294,12*79
2017-12-14 12:09:50 1513271390.577726: $GPGSV,3,3,12,32,18,235,12,14,01,231,14,13,11,048,00,138,38,213,00*4B
2017-12-14 12:09:50 1513271390.691083: $GPZDA,170951.00,14,12,2017,00,00*6F
2017-12-14 12:09:50 1513271390.691295: $GPGGA,170951,3946.9484,N,08404.9442,W,1,09,1.20,343.93,M,-33.324,M,,*7D
2017-12-14 12:09:50 1513271390.691367: $GPRMC,170951,A,3946.9484,N,08404.9442,W,0.7278,203.636,141217,,*36
2017-12-14 12:09:50 1513271390.691447: $GPGSA,A,3,24,21,10,15,18,20,8,27,32,,,,6.6,1.2,6.2*02
2017-12-14 12:09:51 1513271391.241080: $GPZDA,170952.00,14,12,2017,00,00*6C
2017-12-14 12:09:51 1513271391.241247: $GPGGA,170952,3946.9481,N,08404.9443,W,1,09,1.20,344.69,M,-33.324,M,,*78
2017-12-14 12:09:51 1513271391.241312: $GPRMC,170952,A,3946.9481,N,08404.9443,W,0.3423,184.197,141217,,*3D
2017-12-14 12:09:51 1513271391.241373: $GPGSA,A,3,24,21,10,15,18,20,8,27,32,,,,6.6,1.2,6.2*02
2017-12-14 12:09:52 1513271392.240649: $GPZDA,170953.00,14,12,2017,00,00*6D
2017-12-14 12:09:52 1513271392.240820: $GPGGA,170953,3946.9485,N,08404.9443,W,1,09,1.20,345.33,M,-33.324,M,,*73
2017-12-14 12:09:52 1513271392.240885: $GPRMC,170953,A,3946.9485,N,08404.9443,W,0.5857,158.291,141217,,*35
2017-12-14 12:09:52 1513271392.240968: $GPGSA,A,3,24,21,10,15,18,20,8,27,32,,,,6.6,1.2,6.2*02
2017-12-14 12:09:53 1513271393.577132: $GPGSV,3,1,12,24,49,117,30,21,67,192,24,10,38,298,23,15,41,051,22*74
2017-12-14 12:09:53 1513271393.577352: $GPGSV,3,2,12,18,69,330,15,20,37,093,17,08,04,325,11,27,19,294,12*7A
2017-12-14 12:09:53 1513271393.577456: $GPGSV,3,3,12,32,18,235,12,14,01,231,13,13,11,048,00,138,38,213,00*4C
2017-12-14 12:09:53 1513271393.689140: $GPZDA,170954.00,14,12,2017,00,00*6A
2017-12-14 12:09:53 1513271393.689297: $GPGGA,170954,3946.9485,N,08404.9436,W,1,10,1.20,345.41,M,-33.324,M,,*7B
2017-12-14 12:09:53 1513271393.689364: $GPRMC,170954,A,3946.9485,N,08404.9436,W,0.7576,81.915,141217,,*0E
2017-12-14 12:09:53 1513271393.689424: $GPGSA,A,3,24,21,10,15,18,20,8,27,32,14,,,6.6,1.2,6.2*07
2017-12-14 12:09:54 1513271394.256964: $GPZDA,170955.00,14,12,2017,00,00*6B
2017-12-14 12:09:54 1513271394.257133: $GPGGA,170955,3946.9481,N,08404.9437,W,1,10,1.20,346.17,M,-33.324,M,,*7F
2017-12-14 12:09:54 1513271394.257250: $GPRMC,170955,A,3946.9481,N,08404.9437,W,0.0000,0.000,141217,,*3D
2017-12-14 12:09:54 1513271394.257313: $GPGSA,A,3,24,21,10,15,18,20,8,27,32,14,,,6.6,1.2,6.2*07
2017-12-14 12:09:55 1513271395.240528: $GPZDA,170956.00,14,12,2017,00,00*68
2017-12-14 12:09:55 1513271395.240716: $GPGGA,170956,3946.9482,N,08404.9438,W,1,10,1.20,347.58,M,-33.324,M,,*7A
2017-12-14 12:09:55 1513271395.240786: $GPRMC,170956,A,3946.9482,N,08404.9438,W,0.3423,184.197,141217,,*36
2017-12-14 12:09:55 1513271395.240849: $GPGSA,A,3,24,21,10,15,18,20,8,27,32,14,,,6.6,1.2,6.2*07
2017-12-14 12:09:56 1513271396.591737: $GPGSV,3,1,12,24,49,117,30,21,67,192,24,10,38,298,22,15,41,051,22*75
2017-12-14 12:09:56 1513271396.591922: $GPGSV,3,2,12,18,69,330,12,20,37,093,16,08,04,325,11,27,19,294,12*7C
2017-12-14 12:09:56 1513271396.591991: $GPGSV,3,3,12,32,18,235,12,14,01,231,12,13,11,048,00,138,38,213,00*4D
2017-12-14 12:09:56 1513271396.705084: $GPZDA,170957.00,14,12,2017,00,00*69
2017-12-14 12:09:56 1513271396.705255: $GPGGA,170957,3946.9485,N,08404.9437,W,1,10,1.20,346.81,M,-33.324,M,,*76
2017-12-14 12:09:56 1513271396.705324: $GPRMC,170957,A,3946.9485,N,08404.9437,W,0.3423,184.197,141217,,*3F
2017-12-14 12:09:56 1513271396.705387: $GPGSA,A,3,24,21,10,15,18,20,8,27,32,14,,,6.6,1.2,6.2*07
2017-12-14 12:09:57 1513271397.240971: $GPZDA,170958.00,14,12,2017,00,00*66
2017-12-14 12:09:57 1513271397.241144: $GPGGA,170958,3946.9489,N,08404.9430,W,1,10,1.20,347.53,M,-33.324,M,,*7C
2017-12-14 12:09:57 1513271397.241216: $GPRMC,170958,A,3946.9489,N,08404.9430,W,0.0000,0.000,141217,,*3F
2017-12-14 12:09:57 1513271397.241279: $GPGSA,A,3,24,21,10,15,18,20,8,27,32,14,,,6.6,1.2,6.2*07
2017-12-14 12:09:58 1513271398.254843: $GPZDA,170959.00,14,12,2017,00,00*67
2017-12-14 12:09:58 1513271398.255034: $GPGGA,170959,3946.9489,N,08404.9430,W,1,10,1.40,347.53,M,-33.324,M,,*7B
2017-12-14 12:09:58 1513271398.255103: $GPRMC,170959,A,3946.9489,N,08404.9430,W,0.5857,158.291,141217,,*37
2017-12-14 12:09:58 1513271398.255167: $GPGSA,A,3,24,21,10,15,18,20,8,27,32,14,,,6.6,1.4,6.2*01
2017-12-14 12:09:59 1513271399.591102: $GPGSV,3,1,12,24,49,117,30,21,67,192,24,10,38,298,22,15,41,051,22*75
2017-12-14 12:09:59 1513271399.591282: $GPGSV,3,2,12,18,69,330,08,20,37,093,16,08,04,325,12,27,19,294,12*74
2017-12-14 12:09:59 1513271399.591351: $GPGSV,3,3,12,32,18,235,12,14,01,231,11,13,11,048,00,138,38,213,00*4E
2017-12-14 12:09:59 1513271399.703269: $GPZDA,171000.00,14,12,2017,00,00*63
2017-12-14 12:09:59 1513271399.703445: $GPGGA,171000,3946.9489,N,08404.9430,W,1,10,1.40,347.53,M,-33.324,M,,*7F
2017-12-14 12:09:59 1513271399.703516: $GPRMC,171000,A,3946.9489,N,08404.9430,W,0.0000,0.000,141217,,*3A
2017-12-14 12:09:59 1513271399.703579: $GPGSA,A,3,24,21,10,15,18,20,8,27,32,14,,,6.6,1.4,6.2*01
2017-12-14 12:10:00 1513271400.254912: $GPZDA,171001.00,14,12,2017,00,00*62
2017-12-14 12:10:00 1513271400.255082: $GPGGA,171001,3946.9492,N,08404.9429,W,1,10,1.40,346.77,M,-33.324,M,,*7B
2017-12-14 12:10:00 1513271400.255150: $GPRMC,171001,A,3946.9492,N,08404.9429,W,0.3423,184.197,141217,,*3D
2017-12-14 12:10:00 1513271400.255214: $GPGSA,A,3,24,21,10,15,18,20,8,27,32,14,,,6.6,1.4,6.2*01
2017-12-14 12:10:01 1513271401.256257: $GPZDA,171002.00,14,12,2017,00,00*61
2017-12-14 12:10:01 1513271401.256427: $GPGGA,171002,3946.9492,N,08404.9429,W,1,10,1.20,346.77,M,-33.324,M,,*7E
2017-12-14 12:10:01 1513271401.256497: $GPRMC,171002,A,3946.9492,N,08404.9429,W,0.3155,129.994,141217,,*36
2017-12-14 12:10:01 1513271401.256560: $GPGSA,A,3,24,21,10,15,18,20,8,27,32,14,,,6.6,1.2,6.2*07
2017-12-14 12:10:02 1513271402.591714: $GPGSV,3,1,12,24,49,117,30,21,67,192,24,10,38,298,22,15,41,051,22*75
2017-12-14 12:10:02 1513271402.591895: $GPGSV,3,2,12,18,69,330,12,20,37,093,16,08,04,325,12,27,19,294,12*7F
2017-12-14 12:10:02 1513271402.591964: $GPGSV,3,3,12,32,18,235,12,13,11,048,00,14,01,231,00,138,38,213,00*4E
2017-12-14 12:10:02 1513271402.705147: $GPZDA,171003.00,14,12,2017,00,00*60
2017-12-14 12:10:02 1513271402.705370: $GPGGA,171003,3946.9489,N,08404.9423,W,1,09,1.20,347.61,M,-33.324,M,,*71
2017-12-14 12:10:02 1513271402.705438: $GPRMC,171003,A,3946.9489,N,08404.9423,W,0.5912,129.173,141217,,*3B
2017-12-14 12:10:02 1513271402.705498: $GPGSA,A,3,24,21,10,15,18,20,8,27,32,,,,6.6,1.2,6.2*02
2017-12-14 12:10:03 1513271403.255221: $GPZDA,171004.00,14,12,2017,00,00*67
2017-12-14 12:10:03 1513271403.255403: $GPGGA,171004,3946.9492,N,08404.9422,W,1,09,1.20,346.85,M,-33.324,M,,*76
2017-12-14 12:10:03 1513271403.255489: $GPRMC,171004,A,3946.9492,N,08404.9422,W,0.7267,93.795,141217,,*02
2017-12-14 12:10:03 1513271403.255552: $GPGSA,A,3,24,21,10,15,18,20,8,27,32,,,,6.6,1.2,6.2*02
2017-12-14 12:10:04 1513271404.256604: $GPZDA,171005.00,14,12,2017,00,00*66
2017-12-14 12:10:04 1513271404.256774: $GPGGA,171005,3946.9492,N,08404.9415,W,1,09,1.20,346.93,M,-33.324,M,,*74
2017-12-14 12:10:04 1513271404.256840: $GPRMC,171005,A,3946.9492,N,08404.9415,W,1.2562,109.606,141217,,*38
2017-12-14 12:10:04 1513271404.256901: $GPGSA,A,3,24,21,10,15,18,20,8,27,32,,,,6.6,1.2,6.2*02
2017-12-14 12:10:05 1513271405.576581: $GPGSV,3,1,12,24,49,117,30,21,67,192,24,10,38,298,21,15,41,051,22*76
2017-12-14 12:10:05 1513271405.576758: $GPGSV,3,2,12,18,69,330,12,20,37,093,16,08,04,325,13,27,19,294,12*7E
2017-12-14 12:10:05 1513271405.576824: $GPGSV,3,3,12,32,18,235,12,13,11,048,00,14,01,231,00,120,07,103,00*49
2017-12-14 12:10:05 1513271405.690418: $GPZDA,171006.00,14,12,2017,00,00*65
2017-12-14 12:10:05 1513271405.690582: $GPGGA,171006,3946.9499,N,08404.9408,W,1,09,1.20,346.88,M,-33.324,M,,*7A
2017-12-14 12:10:05 1513271405.690649: $GPRMC,171006,A,3946.9499,N,08404.9408,W,0.8054,68.645,141217,,*06
2017-12-14 12:10:05 1513271405.690710: $GPGSA,A,3,24,21,10,15,18,20,8,27,32,,,,6.6,1.2,6.2*02
2017-12-14 12:10:06 1513271406.257569: $GPZDA,171007.00,14,12,2017,00,00*64
2017-12-14 12:10:06 1513271406.257735: $GPGGA,171007,3946.9499,N,08404.9408,W,1,09,1.20,346.88,M,-33.324,M,,*7B
2017-12-14 12:10:06 1513271406.257801: $GPRMC,171007,A,3946.9499,N,08404.9408,W,1.0298,74.382,141217,,*0F
2017-12-14 12:10:06 1513271406.257861: $GPGSA,A,3,24,21,10,15,18,20,8,27,32,,,,6.6,1.2,6.2*02
2017-12-14 12:10:07 1513271407.242241: $GPZDA,171008.00,14,12,2017,00,00*6B
2017-12-14 12:10:07 1513271407.242413: $GPGGA,171008,3946.9502,N,08404.9400,W,1,09,1.20,346.20,M,-33.324,M,,*7D
2017-12-14 12:10:07 1513271407.242480: $GPRMC,171008,A,3946.9502,N,08404.9400,W,1.5526,75.076,141217,,*05
2017-12-14 12:10:07 1513271407.242541: $GPGSA,A,3,24,21,10,15,18,20,8,27,32,,,,6.6,1.2,6.2*02
