2017-12-01 14:46:37 1512157597.546674: {"class":"VERSION","release":"3.16","rev":"3.16-4","proto_major":3,"proto_minor":11}
2017-12-01 14:46:37 1512157597.547069: {"class":"DEVICES","devices":[{"class":"DEVICE","path":"/dev/ttyUSB0","driver":"SiRF","subtype":"9\u0006GSD4e_4.1.2-P1_RPATCH.05-F-GPS-4R-1510281 11/03/2015 307","activated":"2017-12-01T19:46:37.527Z","flags":1,"native":1,"bps":4800,"parity":"N","stopbits":1,"cycle":1.00}]}
2017-12-01 14:46:37 1512157597.547191: {"class":"WATCH","enable":true,"json":false,"nmea":true,"raw":0,"scaled":false,"timing":false,"split24":false,"pps":false}
2017-12-01 14:46:38 1512157598.754341: $GPGSV,3,1,12,10,78,352,47,12,15,099,43,14,36,262,44,18,62,112,48*74
2017-12-01 14:46:38 1512157598.754523: $GPGSV,3,2,12,21,18,177,43,24,37,051,47,32,54,279,46,25,10,135,31*7F
2017-12-01 14:46:38 1512157598.754591: $GPGSV,3,3,12,15,04,072,25,11,03,322,27,31,09,204,33,138,38,213,47*42
2017-12-01 14:46:38 1512157598.867875: $GPZDA,194639.00,01,12,2017,00,00*60
2017-12-01 14:46:38 1512157598.868048: $GPGGA,194639,3946.9583,N,08404.9843,W,2,12,1.20,293.86,M,-33.324,M,,*7C
2017-12-01 14:46:38 1512157598.868115: $GPRMC,194639,A,3946.9583,N,08404.9843,W,0.0000,0.000,011217,,*3A
2017-12-01 14:46:38 1512157598.868176: $GPGSA,A,3,10,12,14,18,21,24,32,25,15,11,31,138,2.0,1.2,1.5*06
2017-12-01 14:46:39 1512157599.493120: $GPZDA,194640.00,01,12,2017,00,00*6E
2017-12-01 14:46:39 1512157599.493294: $GPGGA,194640,3946.9587,N,08404.9843,W,2,12,1.20,294.50,M,-33.324,M,,*7A
2017-12-01 14:46:39 1512157599.493360: $GPRMC,194640,A,3946.9587,N,08404.9843,W,0.0000,0.000,011217,,*30
2017-12-01 14:46:39 1512157599.493421: $GPGSA,A,3,10,12,14,18,21,24,32,25,15,11,31,138,2.0,1.2,1.5*06
2017-12-01 14:46:40 1512157600.470199: $GPZDA,194641.00,01,12,2017,00,00*6F
2017-12-01 14:46:40 1512157600.470381: $GPGGA,194641,3946.9587,N,08404.9843,W,2,12,1.20,294.50,M,-33.324,M,,*7B
2017-12-01 14:46:40 1512157600.470449: $GPRMC,194641,A,3946.9587,N,08404.9843,W,0.0000,0.000,011217,,*31
2017-12-01 14:46:40 1512157600.470509: $GPGSA,A,3,10,12,14,18,21,24,32,25,15,11,31,138,2.0,1.2,1.5*06
2017-12-01 14:46:41 1512157601.794709: $GPGSV,3,1,12,10,78,352,47,12,15,099,42,14,36,262,43,18,62,112,48*72
2017-12-01 14:46:41 1512157601.794893: $GPGSV,3,2,12,21,18,177,42,24,37,051,47,32,54,279,46,25,10,135,30*7F
2017-12-01 14:46:41 1512157601.794959: $GPGSV,3,3,12,15,04,072,24,11,03,322,23,31,09,204,32,138,38,213,47*46
2017-12-01 14:46:41 1512157601.908393: $GPZDA,194642.00,01,12,2017,00,00*6C
2017-12-01 14:46:41 1512157601.908527: $GPGGA,194642,3946.9587,N,08404.9843,W,2,12,1.20,294.50,M,-33.324,M,,*78
2017-12-01 14:46:41 1512157601.908593: $GPRMC,194642,A,3946.9587,N,08404.9843,W,0.0000,0.000,011217,,*32
2017-12-01 14:46:41 1512157601.908654: $GPGSA,A,3,10,12,14,18,21,24,32,25,15,11,31,138,2.0,1.2,1.5*06
2017-12-01 14:46:42 1512157602.460303: $GPZDA,194643.00,01,12,2017,00,00*6D
2017-12-01 14:46:42 1512157602.460479: $GPGGA,194643,3946.9587,N,08404.9843,W,2,12,1.20,294.50,M,-33.324,M,,*79
2017-12-01 14:46:42 1512157602.460547: $GPRMC,194643,A,3946.9587,N,08404.9843,W,0.0000,0.000,011217,,*33
2017-12-01 14:46:42 1512157602.460609: $GPGSA,A,3,10,12,14,18,21,24,32,25,15,11,31,138,2.0,1.2,1.5*06
2017-12-01 14:46:43 1512157603.413954: $GPZDA,194644.00,01,12,2017,00,00*6A
2017-12-01 14:46:43 1512157603.414128: $GPGGA,194644,3946.9587,N,08404.9843,W,2,12,1.20,294.50,M,-33.324,M,,*7E
2017-12-01 14:46:43 1512157603.414195: $GPRMC,194644,A,3946.9587,N,08404.9843,W,0.0000,0.000,011217,,*34
2017-12-01 14:46:43 1512157603.414256: $GPGSA,A,3,10,12,14,18,21,24,32,25,15,11,31,138,2.0,1.2,1.5*06
2017-12-01 14:46:44 1512157604.788827: $GPGSV,3,1,12,10,78,352,47,12,15,099,43,14,36,262,43,18,62,112,48*73
2017-12-01 14:46:44 1512157604.789016: $GPGSV,3,2,12,21,18,177,42,24,37,051,47,32,54,279,46,25,10,135,31*7E
2017-12-01 14:46:44 1512157604.789083: $GPGSV,3,3,12,15,04,072,24,11,03,322,22,31,09,204,25,138,38,213,47*41
2017-12-01 14:46:44 1512157604.902293: $GPZDA,194645.00,01,12,2017,00,00*6B
2017-12-01 14:46:44 1512157604.902466: $GPGGA,194645,3946.9587,N,08404.9843,W,2,12,1.20,294.50,M,-33.324,M,,*7F
2017-12-01 14:46:44 1512157604.902587: $GPRMC,194645,A,3946.9587,N,08404.9843,W,0.0000,0.000,011217,,*35
2017-12-01 14:46:44 1512157604.902651: $GPGSA,A,3,10,12,14,18,21,24,32,25,15,11,31,138,2.0,1.2,1.5*06
2017-12-01 14:46:45 1512157605.419468: $GPZDA,194646.00,01,12,2017,00,00*68
2017-12-01 14:46:45 1512157605.419645: $GPGGA,194646,3946.9587,N,08404.9843,W,2,12,1.20,294.50,M,-33.324,M,,*7C
2017-12-01 14:46:45 1512157605.419714: $GPRMC,194646,A,3946.9587,N,08404.9843,W,0.0000,0.000,011217,,*36
2017-12-01 14:46:45 1512157605.419776: $GPGSA,A,3,10,12,14,18,21,24,32,25,15,11,31,138,2.0,1.2,1.5*06
2017-12-01 14:46:46 1512157606.419211: $GPZDA,194647.00,01,12,2017,00,00*69
2017-12-01 14:46:46 1512157606.419377: $GPGGA,194647,3946.9587,N,08404.9843,W,2,12,1.20,294.50,M,-33.324,M,,*7D
2017-12-01 14:46:46 1512157606.419444: $GPRMC,194647,A,3946.9587,N,08404.9843,W,0.0000,0.000,011217,,*37
2017-12-01 14:46:46 1512157606.419505: $GPGSA,A,3,10,12,14,18,21,24,32,25,15,11,31,138,2.0,1.2,1.5*06
2017-12-01 14:46:47 1512157607.806051: $GPGSV,3,1,12,10,78,352,47,12,15,099,43,14,36,262,43,18,62,112,48*73
2017-12-01 14:46:47 1512157607.806229: $GPGSV,3,2,12,21,18,177,42,24,37,051,46,32,54,279,46,25,10,135,31*7F
2017-12-01 14:46:47 1512157607.806296: $GPGSV,3,3,12,15,04,072,24,11,03,322,21,31,09,204,30,138,38,213,47*46
2017-12-01 14:46:47 1512157607.919666: $GPZDA,194648.00,01,12,2017,00,00*66
2017-12-01 14:46:47 1512157607.919833: $GPGGA,194648,3946.9587,N,08404.9843,W,2,12,1.20,294.50,M,-33.324,M,,*72
2017-12-01 14:46:47 1512157607.919900: $GPRMC,194648,A,3946.9587,N,08404.9843,W,0.0000,0.000,011217,,*38
2017-12-01 14:46:47 1512157607.919961: $GPGSA,A,3,10,12,14,18,21,24,32,25,15,11,31,138,2.0,1.2,1.5*06
2017-12-01 14:46:48 1512157608.421609: $GPZDA,194649.00,01,12,2017,00,00*67
2017-12-01 14:46:48 1512157608.421780: $GPGGA,194649,3946.9587,N,08404.9843,W,2,12,1.20,294.50,M,-33.324,M,,*73
2017-12-01 14:46:48 1512157608.421847: $GPRMC,194649,A,3946.9587,N,08404.9843,W,0.0000,0.000,011217,,*39
2017-12-01 14:46:48 1512157608.421908: $GPGSA,A,3,10,12,14,18,21,24,32,25,15,11,31,138,2.0,1.2,1.5*06
2017-12-01 14:46:49 1512157609.419635: $GPZDA,194650.00,01,12,2017,00,00*6F
2017-12-01 14:46:49 1512157609.419814: $GPGGA,194650,3946.9587,N,08404.9843,W,2,12,1.20,294.50,M,-33.324,M,,*7B
2017-12-01 14:46:49 1512157609.419904: $GPRMC,194650,A,3946.9587,N,08404.9843,W,0.0000,0.000,011217,,*31
2017-12-01 14:46:49 1512157609.419967: $GPGSA,A,3,10,12,14,18,21,24,32,25,15,11,31,138,2.0,1.2,1.5*06
2017-12-01 14:46:50 1512157610.753820: $GPGSV,3,1,12,10,78,352,47,12,15,099,43,14,36,262,43,18,62,112,48*73
2017-12-01 14:46:50 1512157610.754005: $GPGSV,3,2,12,21,18,177,42,24,37,051,46,32,54,279,46,25,10,135,30*7E
2017-12-01 14:46:50 1512157610.754071: $GPGSV,3,3,12,15,04,072,24,11,03,322,23,31,09,204,30,138,38,213,46*45
2017-12-01 14:46:50 1512157610.867415: $GPZDA,194651.00,01,12,2017,00,00*6E
2017-12-01 14:46:50 1512157610.867543: $GPGGA,194651,3946.9584,N,08404.9843,W,2,12,1.20,295.27,M,-33.324,M,,*78
2017-12-01 14:46:50 1512157610.867607: $GPRMC,194651,A,3946.9584,N,08404.9843,W,0.0000,0.000,011217,,*33
2017-12-01 14:46:50 1512157610.867668: $GPGSA,A,3,10,12,14,18,21,24,32,25,15,11,31,138,2.0,1.2,1.5*06
2017-12-01 14:46:51 1512157611.459330: $GPZDA,194652.00,01,12,2017,00,00*6D
2017-12-01 14:46:51 1512157611.459501: $GPGGA,194652,3946.9584,N,08404.9843,W,2,12,1.20,295.27,M,-33.324,M,,*7B
2017-12-01 14:46:51 1512157611.459569: $GPRMC,194652,A,3946.9584,N,08404.9843,W,0.0000,0.000,011217,,*30
2017-12-01 14:46:51 1512157611.459630: $GPGSA,A,3,10,12,14,18,21,24,32,25,15,11,31,138,2.0,1.2,1.5*06
2017-12-01 14:46:52 1512157612.421725: $GPZDA,194653.00,01,12,2017,00,00*6C
2017-12-01 14:46:52 1512157612.421898: $GPGGA,194653,3946.9584,N,08404.9843,W,2,12,1.20,295.27,M,-33.324,M,,*7A
2017-12-01 14:46:52 1512157612.421966: $GPRMC,194653,A,3946.9584,N,08404.9843,W,0.0000,0.000,011217,,*31
2017-12-01 14:46:52 1512157612.422027: $GPGSA,A,3,10,12,14,18,21,24,32,25,15,11,31,138,2.0,1.2,1.5*06
2017-12-01 14:46:53 1512157613.794860: $GPGSV,3,1,12,10,78,352,47,12,15,099,43,14,36,262,43,18,62,112,48*73
2017-12-01 14:46:53 1512157613.795102: $GPGSV,3,2,12,21,18,177,42,24,37,051,46,32,54,279,46,25,10,135,31*7F
2017-12-01 14:46:53 1512157613.795174: $GPGSV,3,3,12,15,04,072,24,11,03,322,30,31,09,204,29,138,38,213,47*4E
2017-12-01 14:46:53 1512157613.908040: $GPZDA,194654.00,01,12,2017,00,00*6B
2017-12-01 14:46:53 1512157613.908218: $GPGGA,194654,3946.9584,N,08404.9843,W,2,12,1.20,295.27,M,-33.324,M,,*7D
2017-12-01 14:46:53 1512157613.908285: $GPRMC,194654,A,3946.9584,N,08404.9843,W,0.0000,0.000,011217,,*36
2017-12-01 14:46:53 1512157613.908346: $GPGSA,A,3,10,12,14,18,21,24,32,25,15,11,31,138,2.0,1.2,1.5*06
2017-12-01 14:46:54 1512157614.533466: $GPZDA,194655.00,01,12,2017,00,00*6A
2017-12-01 14:46:54 1512157614.533651: $GPGGA,194655,3946.9584,N,08404.9843,W,2,12,1.20,295.27,M,-33.324,M,,*7C
2017-12-01 14:46:54 1512157614.533721: $GPRMC,194655,A,3946.9584,N,08404.9843,W,0.0000,0.000,011217,,*37
2017-12-01 14:46:54 1512157614.533783: $GPGSA,A,3,10,12,14,18,21,24,32,25,15,11,31,138,2.0,1.2,1.5*06
2017-12-01 14:46:55 1512157615.460547: $GPZDA,194656.00,01,12,2017,00,00*69
2017-12-01 14:46:55 1512157615.460719: $GPGGA,194656,3946.9584,N,08404.9843,W,2,12,1.20,295.27,M,-33.324,M,,*7F
2017-12-01 14:46:55 1512157615.460786: $GPRMC,194656,A,3946.9584,N,08404.9843,W,0.0000,0.000,011217,,*34
2017-12-01 14:46:55 1512157615.460847: $GPGSA,A,3,10,12,14,18,21,24,32,25,15,11,31,138,2.0,1.2,1.5*06
2017-12-01 14:46:56 1512157616.756403: $GPGSV,3,1,12,10,78,352,46,12,15,099,43,14,36,262,43,18,62,112,48*72
2017-12-01 14:46:56 1512157616.756590: $GPGSV,3,2,12,21,18,177,42,24,37,051,46,32,54,279,46,25,10,135,31*7F
2017-12-01 14:46:56 1512157616.756658: $GPGSV,3,3,12,15,04,072,20,11,03,322,32,31,09,204,29,138,38,213,47*48
2017-12-01 14:46:56 1512157616.870153: $GPZDA,194657.00,01,12,2017,00,00*68
2017-12-01 14:46:56 1512157616.870311: $GPGGA,194657,3946.9584,N,08404.9843,W,2,12,1.20,295.27,M,-33.324,M,,*7E
2017-12-01 14:46:56 1512157616.870376: $GPRMC,194657,A,3946.9584,N,08404.9843,W,0.0000,0.000,011217,,*35
2017-12-01 14:46:56 1512157616.870437: $GPGSA,A,3,10,12,14,18,21,24,32,25,15,11,31,138,2.0,1.2,1.5*06
2017-12-01 14:46:57 1512157617.419409: $GPZDA,194658.00,01,12,2017,00,00*67
2017-12-01 14:46:57 1512157617.419571: $GPGGA,194658,3946.9584,N,08404.9843,W,2,12,1.20,295.27,M,-33.324,M,,*71
2017-12-01 14:46:57 1512157617.419638: $GPRMC,194658,A,3946.9584,N,08404.9843,W,0.0000,0.000,011217,,*3A
2017-12-01 14:46:57 1512157617.419699: $GPGSA,A,3,10,12,14,18,21,24,32,25,15,11,31,138,2.0,1.2,1.5*06
2017-12-01 14:46:58 1512157618.417690: $GPZDA,194659.00,01,12,2017,00,00*66
2017-12-01 14:46:58 1512157618.417875: $GPGGA,194659,3946.9584,N,08404.9843,W,2,12,1.20,295.27,M,-33.324,M,,*70
2017-12-01 14:46:58 1512157618.417944: $GPRMC,194659,A,3946.9584,N,08404.9843,W,0.0000,0.000,011217,,*3B
2017-12-01 14:46:58 1512157618.418023: $GPGSA,A,3,10,12,14,18,21,24,32,25,15,11,31,138,2.0,1.2,1.5*06
2017-12-01 14:46:59 1512157619.754172: $GPGSV,3,1,12,10,78,352,46,12,15,099,43,14,36,262,43,18,62,112,48*72
2017-12-01 14:46:59 1512157619.757000: $GPGSV,3,2,12,21,18,177,42,24,37,051,47,32,54,279,45,25,10,135,31*7D
2017-12-01 14:46:59 1512157619.757098: $GPGSV,3,3,12,08,02,285,29,11,03,322,32,31,09,204,00,138,38,213,47*4A
2017-12-01 14:46:59 1512157619.867691: $GPZDA,194700.00,01,12,2017,00,00*6B
2017-12-01 14:46:59 1512157619.867882: $GPGGA,194700,3946.9584,N,08404.9843,W,2,11,1.20,295.27,M,-33.324,M,,*7E
2017-12-01 14:46:59 1512157619.867977: $GPRMC,194700,A,3946.9584,N,08404.9843,W,0.0000,0.000,011217,,*36
2017-12-01 14:46:59 1512157619.868040: $GPGSA,A,3,10,12,14,18,21,24,32,25,8,11,138,,2.0,1.2,1.5*38
2017-12-01 14:47:00 1512157620.413505: $GPZDA,194701.00,01,12,2017,00,00*6A
2017-12-01 14:47:00 1512157620.413682: $GPGGA,194701,3946.9584,N,08404.9843,W,2,11,1.20,295.27,M,-33.324,M,,*7F
2017-12-01 14:47:00 1512157620.413749: $GPRMC,194701,A,3946.9584,N,08404.9843,W,0.0000,0.000,011217,,*37
2017-12-01 14:47:00 1512157620.413882: $GPGSA,A,3,10,12,14,18,21,24,32,25,8,11,138,,2.0,1.2,1.5*38
2017-12-01 14:47:01 1512157621.421994: $GPZDA,194702.00,01,12,2017,00,00*69
2017-12-01 14:47:01 1512157621.422190: $GPGGA,194702,3946.9584,N,08404.9843,W,2,11,1.20,295.27,M,-33.324,M,,*7C
2017-12-01 14:47:01 1512157621.422261: $GPRMC,194702,A,3946.9584,N,08404.9843,W,0.0000,0.000,011217,,*34
2017-12-01 14:47:01 1512157621.422322: $GPGSA,A,3,10,12,14,18,21,24,32,25,8,11,138,,2.0,1.2,1.5*38
