2017-11-15 19:22:56 1510791776.223914: {"class":"VERSION","release":"3.17","rev":"3.17","proto_major":3,"proto_minor":12}
2017-11-15 19:22:56 1510791776.224397: {"class":"DEVICES","devices":[{"class":"DEVICE","path":"/dev/ttyUSB0","driver":"SiRF","subtype":"9\u0006GSD4e_4.1.2-P1_RPATCH.05-F-GPS-4R-1510281 11/03/2015 307","activated":"2017-11-16T00:22:56.218Z","flags":1,"native":1,"bps":4800,"parity":"N","stopbits":1,"cycle":1.00}]}
2017-11-15 19:22:56 1510791776.224517: {"class":"WATCH","enable":true,"json":false,"nmea":true,"raw":0,"scaled":false,"timing":false,"split24":false,"pps":false}
2017-11-15 19:22:56 1510791776.331216: $GPZDA,002255.00,16,11,2017,00,00*65
2017-11-15 19:22:56 1510791776.331365: $GPGGA,002255,3946.9612,N,08404.9417,W,1,06,1.60,293.53,M,-33.324,M,,*70
2017-11-15 19:22:56 1510791776.331426: $GPRMC,002255,A,3946.9612,N,08404.9417,W,0.9988,104.546,161117,,*3B
2017-11-15 19:22:56 1510791776.331482: $GPGSA,A,3,32,22,26,29,3,1,,,,,,,3.4,1.6,2.9*35
2017-11-15 19:22:57 1510791777.667091: $GPGSV,3,1,11,32,39,105,22,14,58,087,19,22,50,276,16,26,49,174,23*70
2017-11-15 19:22:57 1510791777.667277: $GPGSV,3,2,11,31,71,018,17,29,09,075,05,16,18,190,11,03,37,303,19*7F
2017-11-15 19:22:57 1510791777.667337: $GPGSV,3,3,11,01,08,255,08,25,20,042,00,23,08,298,00*43
2017-11-15 19:22:57 1510791777.780351: $GPZDA,002256.00,16,11,2017,00,00*66
2017-11-15 19:22:57 1510791777.780507: $GPGGA,002256,3946.9609,N,08404.9411,W,1,07,1.40,294.38,M,-33.324,M,,*76
2017-11-15 19:22:57 1510791777.780584: $GPRMC,002256,A,3946.9609,N,08404.9411,W,1.4775,101.039,161117,,*3C
2017-11-15 19:22:57 1510791777.780641: $GPGSA,A,3,32,14,22,26,31,3,1,,,,,,3.4,1.4,2.9*3B
2017-11-15 19:22:58 1510791778.347545: $GPZDA,002257.00,16,11,2017,00,00*67
2017-11-15 19:22:58 1510791778.347724: $GPGGA,002257,3946.9605,N,08404.9411,W,1,07,1.40,293.74,M,-33.324,M,,*74
2017-11-15 19:22:58 1510791778.347787: $GPRMC,002257,A,3946.9605,N,08404.9411,W,1.2562,109.606,161117,,*31
2017-11-15 19:22:58 1510791778.347843: $GPGSA,A,3,32,14,22,26,31,3,1,,,,,,3.4,1.4,2.9*3B
2017-11-15 19:22:59 1510791779.347139: $GPZDA,002258.00,16,11,2017,00,00*68
2017-11-15 19:22:59 1510791779.347304: $GPGGA,002258,3946.9604,N,08404.9404,W,1,07,1.40,293.82,M,-33.324,M,,*77
2017-11-15 19:22:59 1510791779.347382: $GPRMC,002258,A,3946.9604,N,08404.9404,W,0.9689,93.795,161117,,*0E
2017-11-15 19:22:59 1510791779.347439: $GPGSA,A,3,32,14,22,26,31,3,1,,,,,,3.4,1.4,2.9*3B
2017-11-15 19:23:00 1510791780.682887: $GPGSV,3,1,11,32,39,105,22,14,58,087,18,22,50,276,16,26,49,174,23*71
2017-11-15 19:23:00 1510791780.683057: $GPGSV,3,2,11,31,71,018,16,29,09,075,04,16,18,190,10,03,37,303,19*7E
2017-11-15 19:23:00 1510791780.683117: $GPGSV,3,3,11,01,08,255,06,25,20,042,00,23,08,298,00*4D
2017-11-15 19:23:00 1510791780.796192: $GPZDA,002259.00,16,11,2017,00,00*69
2017-11-15 19:23:00 1510791780.796357: $GPGGA,002259,3946.9604,N,08404.9404,W,1,08,1.40,293.82,M,-33.324,M,,*79
2017-11-15 19:23:00 1510791780.796417: $GPRMC,002259,A,3946.9604,N,08404.9404,W,1.2111,93.795,161117,,*03
2017-11-15 19:23:00 1510791780.796473: $GPGSA,A,3,32,14,22,26,31,16,3,1,,,,,3.4,1.4,2.9*3C
2017-11-15 19:23:01 1510791781.422055: $GPZDA,002300.00,16,11,2017,00,00*64
2017-11-15 19:23:01 1510791781.422234: $GPGGA,002300,3946.9604,N,08404.9397,W,1,08,1.00,293.90,M,-33.324,M,,*7E
2017-11-15 19:23:01 1510791781.422296: $GPRMC,002300,A,3946.9604,N,08404.9397,W,1.1124,122.165,161117,,*34
2017-11-15 19:23:01 1510791781.422374: $GPGSA,A,3,32,14,22,26,31,16,3,1,,,,,3.4,1.0,2.9*38
2017-11-15 19:23:02 1510791782.346199: $GPZDA,002301.00,16,11,2017,00,00*65
2017-11-15 19:23:02 1510791782.346364: $GPGGA,002301,3946.9600,N,08404.9397,W,1,08,1.00,293.26,M,-33.324,M,,*76
2017-11-15 19:23:02 1510791782.346425: $GPRMC,002301,A,3946.9600,N,08404.9397,W,1.3084,135.525,161117,,*3E
2017-11-15 19:23:02 1510791782.346481: $GPGSA,A,3,32,14,22,26,31,16,3,1,,,,,3.4,1.0,2.9*38
2017-11-15 19:23:03 1510791783.683239: $GPGSV,3,1,11,32,39,105,22,14,58,087,19,22,50,276,16,26,49,174,24*77
2017-11-15 19:23:03 1510791783.683421: $GPGSV,3,2,11,31,71,018,18,29,09,075,14,16,18,190,11,03,37,303,19*70
2017-11-15 19:23:03 1510791783.683533: $GPGSV,3,3,11,01,08,255,04,25,20,042,00,23,08,298,00*4F
2017-11-15 19:23:03 1510791783.796600: $GPZDA,002302.00,16,11,2017,00,00*66
2017-11-15 19:23:03 1510791783.796826: $GPGGA,002302,3946.9596,N,08404.9398,W,1,08,1.00,294.02,M,-33.324,M,,*77
2017-11-15 19:23:03 1510791783.796896: $GPRMC,002302,A,3946.9596,N,08404.9398,W,1.1391,143.662,161117,,*3A
2017-11-15 19:23:03 1510791783.796953: $GPGSA,A,3,32,14,22,26,31,29,16,3,,,,,3.4,1.0,2.9*02
2017-11-15 19:23:04 1510791784.346168: $GPZDA,002303.00,16,11,2017,00,00*67
2017-11-15 19:23:04 1510791784.346331: $GPGGA,002303,3946.9596,N,08404.9398,W,1,08,1.00,294.02,M,-33.324,M,,*76
2017-11-15 19:23:04 1510791784.346392: $GPRMC,002303,A,3946.9596,N,08404.9398,W,0.7246,164.668,161117,,*38
2017-11-15 19:23:04 1510791784.346448: $GPGSA,A,3,32,14,22,26,31,29,16,3,,,,,3.4,1.0,2.9*02
2017-11-15 19:23:05 1510791785.329690: $GPZDA,002304.00,16,11,2017,00,00*60
2017-11-15 19:23:05 1510791785.329886: $GPGGA,002304,3946.9592,N,08404.9398,W,1,08,1.00,293.38,M,-33.324,M,,*7B
2017-11-15 19:23:05 1510791785.329949: $GPRMC,002304,A,3946.9592,N,08404.9398,W,0.7278,203.636,161117,,*3F
2017-11-15 19:23:05 1510791785.330005: $GPGSA,A,3,32,14,22,26,31,29,16,3,,,,,3.4,1.0,2.9*02
