2017-12-31 17:09:36 1514758176.513835: {"class":"VERSION","release":"3.16","rev":"3.16-4","proto_major":3,"proto_minor":11}
2017-12-31 17:09:36 1514758176.514179: {"class":"DEVICES","devices":[{"class":"DEVICE","path":"/dev/ttyUSB0","driver":"SiRF","activated":"2017-12-31T22:09:36.229Z","flags":1,"native":1,"bps":4800,"parity":"N","stopbits":1,"cycle":1.00}]}
2017-12-31 17:09:36 1514758176.514277: {"class":"WATCH","enable":true,"json":false,"nmea":true,"raw":0,"scaled":false,"timing":false,"split24":false,"pps":false}
2017-12-31 17:09:36 1514758176.679015: $GPGSV,3,1,10,22,43,237,43,23,29,307,40,03,46,268,39,16,48,190,44*72
2017-12-31 17:09:36 1514758176.679172: $GPGSV,3,2,10,29,14,052,27,31,48,052,51,14,39,115,36,32,17,123,40*74
2017-12-31 17:09:36 1514758176.679237: $GPGSV,3,3,10,26,75,136,48,135,22,240,42*41
2017-12-31 17:09:36 1514758176.792381: $GPZDA,220937.00,31,12,2017,00,00*6E
2017-12-31 17:09:36 1514758176.792525: $GPGGA,220937,3946.9583,N,08404.9854,W,2,10,0.80,301.57,M,-33.324,M,,*78
2017-12-31 17:09:36 1514758176.792589: $GPRMC,220937,A,3946.9583,N,08404.9854,W,0.0000,0.000,311217,,*32
2017-12-31 17:09:36 1514758176.792649: $GPGSA,A,3,22,23,3,16,29,31,14,32,26,135,,,1.7,0.8,1.3*35
2017-12-31 17:09:37 1514758177.363325: $GPZDA,220938.00,31,12,2017,00,00*61
2017-12-31 17:09:37 1514758177.363490: $GPGGA,220938,3946.9583,N,08404.9854,W,2,10,0.80,301.57,M,-33.324,M,,*77
2017-12-31 17:09:37 1514758177.363556: $GPRMC,220938,A,3946.9583,N,08404.9854,W,0.0000,0.000,311217,,*3D
2017-12-31 17:09:37 1514758177.363616: $GPGSA,A,3,22,23,3,16,29,31,14,32,26,135,,,1.7,0.8,1.3*35
2017-12-31 17:09:38 1514758178.336929: $GPZDA,220939.00,31,12,2017,00,00*60
2017-12-31 17:09:38 1514758178.337149: $GPGGA,220939,3946.9583,N,08404.9854,W,2,10,0.80,301.57,M,-33.324,M,,*76
2017-12-31 17:09:38 1514758178.337224: $GPRMC,220939,A,3946.9583,N,08404.9854,W,0.0000,0.000,311217,,*3C
2017-12-31 17:09:38 1514758178.337286: $GPGSA,A,3,22,23,3,16,29,31,14,32,26,135,,,1.7,0.8,1.3*35
2017-12-31 17:09:39 1514758179.679839: $GPGSV,3,1,10,22,43,237,43,23,29,307,39,03,46,268,38,16,48,190,44*7D
2017-12-31 17:09:39 1514758179.679987: $GPGSV,3,2,10,29,14,052,28,31,48,052,51,14,39,115,36,32,17,123,40*7B
2017-12-31 17:09:39 1514758179.680052: $GPGSV,3,3,10,26,75,136,48,135,22,240,42*41
2017-12-31 17:09:39 1514758179.793172: $GPZDA,220940.00,31,12,2017,00,00*6E
2017-12-31 17:09:39 1514758179.793291: $GPGGA,220940,3946.9583,N,08404.9854,W,2,10,0.80,301.57,M,-33.324,M,,*78
2017-12-31 17:09:39 1514758179.793356: $GPRMC,220940,A,3946.9583,N,08404.9854,W,0.0000,0.000,311217,,*32
2017-12-31 17:09:39 1514758179.793416: $GPGSA,A,3,22,23,3,16,29,31,14,32,26,135,,,1.7,0.8,1.3*35
2017-12-31 17:09:40 1514758180.418891: $GPZDA,220941.00,31,12,2017,00,00*6F
2017-12-31 17:09:40 1514758180.419050: $GPGGA,220941,3946.9583,N,08404.9854,W,2,10,0.80,301.57,M,-33.324,M,,*79
2017-12-31 17:09:40 1514758180.419115: $GPRMC,220941,A,3946.9583,N,08404.9854,W,0.0000,0.000,311217,,*33
2017-12-31 17:09:40 1514758180.419176: $GPGSA,A,3,22,23,3,16,29,31,14,32,26,135,,,1.7,0.8,1.3*35
2017-12-31 17:09:41 1514758181.360985: $GPZDA,220942.00,31,12,2017,00,00*6C
2017-12-31 17:09:41 1514758181.361145: $GPGGA,220942,3946.9583,N,08404.9854,W,2,10,0.80,301.57,M,-33.324,M,,*7A
2017-12-31 17:09:41 1514758181.361211: $GPRMC,220942,A,3946.9583,N,08404.9854,W,0.0000,0.000,311217,,*30
2017-12-31 17:09:41 1514758181.361272: $GPGSA,A,3,22,23,3,16,29,31,14,32,26,135,,,1.7,0.8,1.3*35
2017-12-31 17:09:42 1514758182.681469: $GPGSV,3,1,10,22,43,237,43,23,29,307,40,03,46,268,39,16,48,190,43*75
2017-12-31 17:09:42 1514758182.681651: $GPGSV,3,2,10,29,14,052,27,31,48,052,51,14,39,115,36,32,17,123,40*74
2017-12-31 17:09:42 1514758182.681719: $GPGSV,3,3,10,26,75,136,47,135,22,240,42*4E
2017-12-31 17:09:42 1514758182.795114: $GPZDA,220943.00,31,12,2017,00,00*6D
2017-12-31 17:09:42 1514758182.795242: $GPGGA,220943,3946.9583,N,08404.9854,W,2,10,0.80,301.57,M,-33.324,M,,*7B
2017-12-31 17:09:42 1514758182.795307: $GPRMC,220943,A,3946.9583,N,08404.9854,W,0.0000,0.000,311217,,*31
2017-12-31 17:09:42 1514758182.795368: $GPGSA,A,3,22,23,3,16,29,31,14,32,26,135,,,1.7,0.8,1.3*35
2017-12-31 17:09:43 1514758183.338518: $GPZDA,220944.00,31,12,2017,00,00*6A
2017-12-31 17:09:43 1514758183.338667: $GPGGA,220944,3946.9583,N,08404.9854,W,2,10,0.80,301.57,M,-33.324,M,,*7C
2017-12-31 17:09:43 1514758183.338733: $GPRMC,220944,A,3946.9583,N,08404.9854,W,0.0000,0.000,311217,,*36
2017-12-31 17:09:43 1514758183.338794: $GPGSA,A,3,22,23,3,16,29,31,14,32,26,135,,,1.7,0.8,1.3*35
2017-12-31 17:09:44 1514758184.345525: $GPZDA,220945.00,31,12,2017,00,00*6B
2017-12-31 17:09:44 1514758184.345705: $GPGGA,220945,3946.9583,N,08404.9854,W,2,10,0.80,301.57,M,-33.324,M,,*7D
2017-12-31 17:09:44 1514758184.345776: $GPRMC,220945,A,3946.9583,N,08404.9854,W,0.0000,0.000,311217,,*37
2017-12-31 17:09:44 1514758184.345839: $GPGSA,A,3,22,23,3,16,29,31,14,32,26,135,,,1.7,0.8,1.3*35
2017-12-31 17:09:45 1514758185.681804: $GPGSV,3,1,10,22,43,237,43,23,29,307,41,03,46,268,39,16,48,190,43*74
2017-12-31 17:09:45 1514758185.681981: $GPGSV,3,2,10,29,14,052,27,31,48,052,51,14,39,115,36,32,17,123,41*75
2017-12-31 17:09:45 1514758185.682047: $GPGSV,3,3,10,26,75,136,47,135,22,240,42*4E
2017-12-31 17:09:45 1514758185.795139: $GPZDA,220946.00,31,12,2017,00,00*68
2017-12-31 17:09:45 1514758185.795264: $GPGGA,220946,3946.9583,N,08404.9854,W,2,10,0.80,301.57,M,-33.324,M,,*7E
2017-12-31 17:09:45 1514758185.795330: $GPRMC,220946,A,3946.9583,N,08404.9854,W,0.0000,0.000,311217,,*34
2017-12-31 17:09:45 1514758185.795390: $GPGSA,A,3,22,23,3,16,29,31,14,32,26,135,,,1.7,0.8,1.3*35
2017-12-31 17:09:46 1514758186.345135: $GPZDA,220947.00,31,12,2017,00,00*69
2017-12-31 17:09:46 1514758186.345290: $GPGGA,220947,3946.9583,N,08404.9854,W,2,10,0.80,301.57,M,-33.324,M,,*7F
2017-12-31 17:09:46 1514758186.345356: $GPRMC,220947,A,3946.9583,N,08404.9854,W,0.0000,0.000,311217,,*35
2017-12-31 17:09:46 1514758186.345416: $GPGSA,A,3,22,23,3,16,29,31,14,32,26,135,,,1.7,0.8,1.3*35
