2017-12-01 12:25:34 1512149134.196742: {"class":"VERSION","release":"3.16","rev":"3.16-4","proto_major":3,"proto_minor":11}
2017-12-01 12:25:34 1512149134.197137: {"class":"DEVICES","devices":[{"class":"DEVICE","path":"/dev/ttyUSB0","driver":"SiRF","subtype":"9\u0006GSD4e_4.1.2-P1_RPATCH.05-F-GPS-4R-1510281 11/03/2015 307","activated":"2017-12-01T17:25:34.164Z","flags":1,"native":1,"bps":4800,"parity":"N","stopbits":1,"cycle":1.00}]}
2017-12-01 12:25:34 1512149134.197256: {"class":"WATCH","enable":true,"json":false,"nmea":true,"raw":0,"scaled":false,"timing":false,"split24":false,"pps":false}
2017-12-01 12:25:34 1512149134.342130: $GPZDA,172535.00,01,12,2017,00,00*67
2017-12-01 12:25:34 1512149134.342302: $GPGGA,172535,3946.9582,N,08404.9839,W,2,11,0.80,300.33,M,-33.324,M,,*7A
2017-12-01 12:25:34 1512149134.342369: $GPRMC,172535,A,3946.9582,N,08404.9839,W,0.0000,0.000,011217,,*31
2017-12-01 12:25:34 1512149134.342446: $GPGSA,A,3,10,13,15,18,20,21,24,27,5,29,138,,2.0,0.8,1.5*34
2017-12-01 12:25:35 1512149135.340828: $GPZDA,172536.00,01,12,2017,00,00*64
2017-12-01 12:25:35 1512149135.341001: $GPGGA,172536,3946.9582,N,08404.9839,W,2,11,0.80,300.33,M,-33.324,M,,*79
2017-12-01 12:25:35 1512149135.341067: $GPRMC,172536,A,3946.9582,N,08404.9839,W,0.0000,0.000,011217,,*32
2017-12-01 12:25:35 1512149135.341128: $GPGSA,A,3,10,13,15,18,20,21,24,27,5,29,138,,2.0,0.8,1.5*34
2017-12-01 12:25:36 1512149136.676311: $GPGSV,3,1,12,10,26,285,37,13,26,045,43,15,58,051,47,18,57,304,45*75
2017-12-01 12:25:36 1512149136.676491: $GPGSV,3,2,12,20,49,075,46,21,79,250,42,24,36,136,47,27,17,310,41*78
2017-12-01 12:25:36 1512149136.676558: $GPGSV,3,3,12,05,01,090,22,29,07,189,30,32,04,226,00,138,38,213,45*4B
2017-12-01 12:25:36 1512149136.789934: $GPZDA,172537.00,01,12,2017,00,00*65
2017-12-01 12:25:36 1512149136.790104: $GPGGA,172537,3946.9582,N,08404.9839,W,2,11,0.80,300.33,M,-33.324,M,,*78
2017-12-01 12:25:36 1512149136.790169: $GPRMC,172537,A,3946.9582,N,08404.9839,W,0.0000,0.000,011217,,*33
2017-12-01 12:25:36 1512149136.790230: $GPGSA,A,3,10,13,15,18,20,21,24,27,5,29,138,,2.0,0.8,1.5*34
2017-12-01 12:25:37 1512149137.416619: $GPZDA,172538.00,01,12,2017,00,00*6A
2017-12-01 12:25:37 1512149137.416790: $GPGGA,172538,3946.9582,N,08404.9839,W,2,11,0.80,300.33,M,-33.324,M,,*77
2017-12-01 12:25:37 1512149137.416856: $GPRMC,172538,A,3946.9582,N,08404.9839,W,0.0000,0.000,011217,,*3C
2017-12-01 12:25:37 1512149137.416918: $GPGSA,A,3,10,13,15,18,20,21,24,27,5,29,138,,2.0,0.8,1.5*34
2017-12-01 12:25:38 1512149138.342679: $GPZDA,172539.00,01,12,2017,00,00*6B
2017-12-01 12:25:38 1512149138.342872: $GPGGA,172539,3946.9582,N,08404.9839,W,2,11,0.80,300.33,M,-33.324,M,,*76
2017-12-01 12:25:38 1512149138.342940: $GPRMC,172539,A,3946.9582,N,08404.9839,W,0.0000,0.000,011217,,*3D
2017-12-01 12:25:38 1512149138.343001: $GPGSA,A,3,10,13,15,18,20,21,24,27,5,29,138,,2.0,0.8,1.5*34
2017-12-01 12:25:39 1512149139.676593: $GPGSV,3,1,12,10,26,285,38,13,26,045,43,15,58,051,47,18,57,304,45*7A
2017-12-01 12:25:39 1512149139.676772: $GPGSV,3,2,12,20,49,075,46,21,79,250,42,24,36,136,47,27,17,310,41*78
2017-12-01 12:25:39 1512149139.676837: $GPGSV,3,3,12,05,01,090,22,29,07,189,30,32,04,226,14,138,38,213,45*4E
2017-12-01 12:25:39 1512149139.790207: $GPZDA,172540.00,01,12,2017,00,00*65
2017-12-01 12:25:39 1512149139.790374: $GPGGA,172540,3946.9582,N,08404.9839,W,2,11,0.80,300.33,M,-33.324,M,,*78
2017-12-01 12:25:39 1512149139.790440: $GPRMC,172540,A,3946.9582,N,08404.9839,W,0.0000,0.000,011217,,*33
2017-12-01 12:25:39 1512149139.790501: $GPGSA,A,3,10,13,15,18,20,21,24,27,5,29,138,,2.0,0.8,1.5*34
2017-12-01 12:25:40 1512149140.358338: $GPZDA,172541.00,01,12,2017,00,00*64
2017-12-01 12:25:40 1512149140.358518: $GPGGA,172541,3946.9582,N,08404.9839,W,2,11,0.80,300.33,M,-33.324,M,,*79
2017-12-01 12:25:40 1512149140.358585: $GPRMC,172541,A,3946.9582,N,08404.9839,W,0.0000,0.000,011217,,*32
2017-12-01 12:25:40 1512149140.358647: $GPGSA,A,3,10,13,15,18,20,21,24,27,5,29,138,,2.0,0.8,1.5*34
2017-12-01 12:25:41 1512149141.357964: $GPZDA,172542.00,01,12,2017,00,00*67
2017-12-01 12:25:41 1512149141.358195: $GPGGA,172542,3946.9582,N,08404.9839,W,2,11,0.80,300.33,M,-33.324,M,,*7A
2017-12-01 12:25:41 1512149141.358265: $GPRMC,172542,A,3946.9582,N,08404.9839,W,0.0000,0.000,011217,,*31
2017-12-01 12:25:41 1512149141.358327: $GPGSA,A,3,10,13,15,18,20,21,24,27,5,29,138,,2.0,0.8,1.5*34
2017-12-01 12:25:42 1512149142.676943: $GPGSV,3,1,12,10,26,285,38,13,26,045,43,15,58,051,47,18,57,304,45*7A
2017-12-01 12:25:42 1512149142.677126: $GPGSV,3,2,12,20,49,075,46,21,79,250,42,24,36,136,47,27,17,310,41*78
2017-12-01 12:25:42 1512149142.677192: $GPGSV,3,3,12,05,01,090,22,29,07,189,30,32,04,226,23,138,38,213,47*48
2017-12-01 12:25:42 1512149142.790542: $GPZDA,172543.00,01,12,2017,00,00*66
2017-12-01 12:25:42 1512149142.790667: $GPGGA,172543,3946.9582,N,08404.9839,W,2,12,0.80,300.33,M,-33.324,M,,*78
2017-12-01 12:25:42 1512149142.790731: $GPRMC,172543,A,3946.9582,N,08404.9839,W,0.0000,0.000,011217,,*30
2017-12-01 12:25:42 1512149142.790792: $GPGSA,A,3,10,13,15,18,20,21,24,27,5,29,32,138,2.0,0.8,1.5*35
2017-12-01 12:25:43 1512149143.336536: $GPZDA,172544.00,01,12,2017,00,00*61
2017-12-01 12:25:43 1512149143.336736: $GPGGA,172544,3946.9586,N,08404.9839,W,2,12,0.80,300.97,M,-33.324,M,,*75
2017-12-01 12:25:43 1512149143.336805: $GPRMC,172544,A,3946.9586,N,08404.9839,W,0.0000,0.000,011217,,*33
2017-12-01 12:25:43 1512149143.336866: $GPGSA,A,3,10,13,15,18,20,21,24,27,5,29,32,138,2.0,0.8,1.5*35
