2017-12-01 14:36:18 1512156978.404584: {"class":"VERSION","release":"3.16","rev":"3.16-4","proto_major":3,"proto_minor":11}
2017-12-01 14:36:18 1512156978.405241: {"class":"DEVICES","devices":[{"class":"DEVICE","path":"/dev/ttyUSB0","driver":"SiRF","subtype":"9\u0006GSD4e_4.1.2-P1_RPATCH.05-F-GPS-4R-1510281 11/03/2015 307","activated":"2017-12-01T19:36:18.220Z","flags":1,"native":1,"bps":4800,"parity":"N","stopbits":1,"cycle":1.00}]}
2017-12-01 14:36:18 1512156978.405377: {"class":"WATCH","enable":true,"json":false,"nmea":true,"raw":0,"scaled":false,"timing":false,"split24":false,"pps":false}
2017-12-01 14:36:18 1512156978.669926: $GPGSV,3,1,12,10,74,340,47,12,13,102,37,14,33,258,41,18,66,105,46*78
2017-12-01 14:36:18 1512156978.670115: $GPGSV,3,2,12,21,23,178,45,24,40,054,48,32,50,273,43,25,07,138,23*77
2017-12-01 14:36:18 1512156978.670181: $GPGSV,3,3,12,20,04,121,22,08,04,289,34,31,04,204,27,138,38,213,47*41
2017-12-01 14:36:18 1512156978.783360: $GPZDA,193619.00,01,12,2017,00,00*65
2017-12-01 14:36:18 1512156978.783536: $GPGGA,193619,3946.9577,N,08404.9872,W,2,12,1.20,295.08,M,-33.324,M,,*70
2017-12-01 14:36:18 1512156978.783603: $GPRMC,193619,A,3946.9577,N,08404.9872,W,0.0000,0.000,011217,,*36
2017-12-01 14:36:18 1512156978.783663: $GPGSA,A,3,10,12,14,18,21,24,32,25,20,8,31,138,2.0,1.2,1.5*38
2017-12-01 14:36:19 1512156979.408437: $GPZDA,193620.00,01,12,2017,00,00*6F
2017-12-01 14:36:19 1512156979.408632: $GPGGA,193620,3946.9599,N,08404.9882,W,2,12,1.20,291.74,M,-33.324,M,,*7A
2017-12-01 14:36:19 1512156979.408700: $GPRMC,193620,A,3946.9599,N,08404.9882,W,0.0000,0.000,011217,,*33
2017-12-01 14:36:19 1512156979.408761: $GPGSA,A,3,10,12,14,18,21,24,32,25,20,8,31,138,2.0,1.2,1.5*38
2017-12-01 14:36:20 1512156980.331772: $GPZDA,193621.00,01,12,2017,00,00*6E
2017-12-01 14:36:20 1512156980.331940: $GPGGA,193621,3946.9599,N,08404.9882,W,2,12,1.00,291.74,M,-33.324,M,,*79
2017-12-01 14:36:20 1512156980.332005: $GPRMC,193621,A,3946.9599,N,08404.9882,W,0.0000,0.000,011217,,*32
2017-12-01 14:36:20 1512156980.332066: $GPGSA,A,3,10,12,14,18,21,24,32,25,20,8,31,138,2.0,1.0,1.5*3A
2017-12-01 14:36:21 1512156981.670040: $GPGSV,3,1,12,10,74,340,48,12,13,102,36,14,33,258,40,18,66,105,46*77
2017-12-01 14:36:21 1512156981.670222: $GPGSV,3,2,12,21,23,178,45,24,40,054,48,32,50,273,43,25,07,138,23*77
2017-12-01 14:36:21 1512156981.670289: $GPGSV,3,3,12,20,04,121,22,15,07,069,24,31,04,204,27,138,38,213,47*43
2017-12-01 14:36:21 1512156981.783763: $GPZDA,193622.00,01,12,2017,00,00*6D
2017-12-01 14:36:21 1512156981.783906: $GPGGA,193622,3946.9599,N,08404.9882,W,2,11,1.20,291.74,M,-33.324,M,,*7B
2017-12-01 14:36:21 1512156981.783972: $GPRMC,193622,A,3946.9599,N,08404.9882,W,0.0000,0.000,011217,,*31
2017-12-01 14:36:21 1512156981.784033: $GPGSA,A,3,10,12,14,18,21,24,32,25,20,31,138,,2.0,1.2,1.5*00
2017-12-01 14:36:22 1512156982.334930: $GPZDA,193623.00,01,12,2017,00,00*6C
2017-12-01 14:36:22 1512156982.335231: $GPGGA,193623,3946.9599,N,08404.9882,W,2,11,1.00,291.74,M,-33.324,M,,*78
2017-12-01 14:36:22 1512156982.335400: $GPRMC,193623,A,3946.9599,N,08404.9882,W,0.0000,0.000,011217,,*30
2017-12-01 14:36:22 1512156982.335575: $GPGSA,A,3,10,12,14,18,21,24,32,25,20,31,138,,2.0,1.0,1.5*02
2017-12-01 14:36:23 1512156983.332650: $GPZDA,193624.00,01,12,2017,00,00*6B
2017-12-01 14:36:23 1512156983.332822: $GPGGA,193624,3946.9599,N,08404.9882,W,2,11,1.00,291.74,M,-33.324,M,,*7F
2017-12-01 14:36:23 1512156983.332888: $GPRMC,193624,A,3946.9599,N,08404.9882,W,0.0000,0.000,011217,,*37
2017-12-01 14:36:23 1512156983.332949: $GPGSA,A,3,10,12,14,18,21,24,32,25,20,31,138,,2.0,1.0,1.5*02
2017-12-01 14:36:24 1512156984.672922: $GPGSV,3,1,12,10,74,340,47,12,13,102,36,14,33,258,40,18,66,105,46*78
2017-12-01 14:36:24 1512156984.673118: $GPGSV,3,2,12,21,23,178,45,24,40,054,48,32,50,273,43,25,07,138,23*77
2017-12-01 14:36:24 1512156984.673185: $GPGSV,3,3,12,20,04,121,21,15,07,069,02,31,04,204,27,138,38,213,47*44
2017-12-01 14:36:24 1512156984.786234: $GPZDA,193625.00,01,12,2017,00,00*6A
2017-12-01 14:36:24 1512156984.786436: $GPGGA,193625,3946.9599,N,08404.9882,W,2,11,1.20,291.74,M,-33.324,M,,*7C
2017-12-01 14:36:24 1512156984.786572: $GPRMC,193625,A,3946.9599,N,08404.9882,W,0.0000,0.000,011217,,*36
2017-12-01 14:36:24 1512156984.786635: $GPGSA,A,3,10,12,14,18,21,24,32,25,20,31,138,,2.0,1.2,1.5*00
2017-12-01 14:36:25 1512156985.344613: $GPZDA,193626.00,01,12,2017,00,00*69
2017-12-01 14:36:25 1512156985.344787: $GPGGA,193626,3946.9599,N,08404.9882,W,2,11,1.20,291.74,M,-33.324,M,,*7F
2017-12-01 14:36:25 1512156985.344854: $GPRMC,193626,A,3946.9599,N,08404.9882,W,0.0000,0.000,011217,,*35
2017-12-01 14:36:25 1512156985.344915: $GPGSA,A,3,10,12,14,18,21,24,32,25,20,31,138,,2.0,1.2,1.5*00
2017-12-01 14:36:26 1512156986.334310: $GPZDA,193627.00,01,12,2017,00,00*68
2017-12-01 14:36:26 1512156986.334513: $GPGGA,193627,3946.9599,N,08404.9882,W,2,11,1.20,291.74,M,-33.324,M,,*7E
2017-12-01 14:36:26 1512156986.334581: $GPRMC,193627,A,3946.9599,N,08404.9882,W,0.0000,0.000,011217,,*34
2017-12-01 14:36:26 1512156986.334644: $GPGSA,A,3,10,12,14,18,21,24,32,25,20,31,138,,2.0,1.2,1.5*00
2017-12-01 14:36:27 1512156987.671258: $GPGSV,3,1,12,10,74,340,47,12,13,102,36,14,33,258,40,18,66,105,46*78
2017-12-01 14:36:27 1512156987.671486: $GPGSV,3,2,12,21,23,178,45,24,40,054,47,32,50,273,44,25,07,138,23*7F
2017-12-01 14:36:27 1512156987.671556: $GPGSV,3,3,12,20,04,121,21,15,07,069,14,31,04,204,27,138,38,213,47*43
2017-12-01 14:36:27 1512156987.784603: $GPZDA,193628.00,01,12,2017,00,00*67
2017-12-01 14:36:27 1512156987.784743: $GPGGA,193628,3946.9599,N,08404.9882,W,2,12,1.00,291.74,M,-33.324,M,,*70
2017-12-01 14:36:27 1512156987.784809: $GPRMC,193628,A,3946.9599,N,08404.9882,W,0.0000,0.000,011217,,*3B
2017-12-01 14:36:27 1512156987.784871: $GPGSA,A,3,10,12,14,18,21,24,32,25,20,15,31,138,2.0,1.0,1.5*06
2017-12-01 14:36:28 1512156988.333308: $GPZDA,193629.00,01,12,2017,00,00*66
2017-12-01 14:36:28 1512156988.333480: $GPGGA,193629,3946.9599,N,08404.9882,W,2,12,1.40,291.74,M,-33.324,M,,*75
2017-12-01 14:36:28 1512156988.333547: $GPRMC,193629,A,3946.9599,N,08404.9882,W,0.0000,0.000,011217,,*3A
2017-12-01 14:36:28 1512156988.333607: $GPGSA,A,3,10,12,14,18,21,24,32,25,20,15,31,138,2.0,1.4,1.5*02
2017-12-01 14:36:29 1512156989.333546: $GPZDA,193630.00,01,12,2017,00,00*6E
2017-12-01 14:36:29 1512156989.333725: $GPGGA,193630,3946.9599,N,08404.9882,W,2,12,1.40,291.74,M,-33.324,M,,*7D
2017-12-01 14:36:29 1512156989.333793: $GPRMC,193630,A,3946.9599,N,08404.9882,W,0.0000,0.000,011217,,*32
2017-12-01 14:36:29 1512156989.333853: $GPGSA,A,3,10,12,14,18,21,24,32,25,20,15,31,138,2.0,1.4,1.5*02
2017-12-01 14:36:30 1512156990.671762: $GPGSV,3,1,12,10,74,340,47,12,13,102,36,14,33,258,41,18,66,105,46*79
2017-12-01 14:36:30 1512156990.671965: $GPGSV,3,2,12,21,23,178,44,24,40,054,47,32,50,273,44,25,07,138,23*7E
2017-12-01 14:36:30 1512156990.672035: $GPGSV,3,3,12,20,04,121,21,15,07,069,04,31,04,204,22,138,38,213,46*46
2017-12-01 14:36:30 1512156990.785059: $GPZDA,193631.00,01,12,2017,00,00*6F
2017-12-01 14:36:30 1512156990.785242: $GPGGA,193631,3946.9599,N,08404.9882,W,2,11,1.40,291.74,M,-33.324,M,,*7F
2017-12-01 14:36:30 1512156990.785314: $GPRMC,193631,A,3946.9599,N,08404.9882,W,0.0000,0.000,011217,,*33
2017-12-01 14:36:30 1512156990.785378: $GPGSA,A,3,10,12,14,18,21,24,32,25,20,31,138,,2.0,1.4,1.5*06
2017-12-01 14:36:31 1512156991.334676: $GPZDA,193632.00,01,12,2017,00,00*6C
2017-12-01 14:36:31 1512156991.334866: $GPGGA,193632,3946.9599,N,08404.9882,W,2,11,1.40,291.74,M,-33.324,M,,*7C
2017-12-01 14:36:31 1512156991.338626: $GPRMC,193632,A,3946.9599,N,08404.9882,W,0.0000,0.000,011217,,*30
2017-12-01 14:36:31 1512156991.338714: $GPGSA,A,3,10,12,14,18,21,24,32,25,20,31,138,,2.0,1.4,1.5*06
2017-12-01 14:36:32 1512156992.336798: $GPZDA,193633.00,01,12,2017,00,00*6D
2017-12-01 14:36:32 1512156992.336992: $GPGGA,193633,3946.9599,N,08404.9882,W,2,11,1.40,291.74,M,-33.324,M,,*7D
2017-12-01 14:36:32 1512156992.337062: $GPRMC,193633,A,3946.9599,N,08404.9882,W,0.0000,0.000,011217,,*31
2017-12-01 14:36:32 1512156992.337126: $GPGSA,A,3,10,12,14,18,21,24,32,25,20,31,138,,2.0,1.4,1.5*06
2017-12-01 14:36:33 1512156993.675060: $GPGSV,3,1,12,10,74,340,48,12,13,102,36,14,33,258,40,18,66,105,46*77
2017-12-01 14:36:33 1512156993.675242: $GPGSV,3,2,12,21,23,178,44,24,40,054,47,32,50,273,45,25,07,138,23*7F
2017-12-01 14:36:33 1512156993.675309: $GPGSV,3,3,12,20,04,121,22,15,07,069,02,31,04,204,24,138,38,213,46*45
2017-12-01 14:36:33 1512156993.788801: $GPZDA,193634.00,01,12,2017,00,00*6A
2017-12-01 14:36:33 1512156993.788940: $GPGGA,193634,3946.9599,N,08404.9875,W,2,11,1.40,291.82,M,-33.324,M,,*7B
2017-12-01 14:36:33 1512156993.789024: $GPRMC,193634,A,3946.9599,N,08404.9875,W,0.0000,0.000,011217,,*3E
2017-12-01 14:36:33 1512156993.789086: $GPGSA,A,3,10,12,14,18,21,24,32,25,20,31,138,,2.0,1.4,1.5*06
2017-12-01 14:36:34 1512156994.414143: $GPZDA,193635.00,01,12,2017,00,00*6B
2017-12-01 14:36:34 1512156994.414314: $GPGGA,193635,3946.9599,N,08404.9875,W,2,11,1.20,291.82,M,-33.324,M,,*7C
2017-12-01 14:36:34 1512156994.414380: $GPRMC,193635,A,3946.9599,N,08404.9875,W,0.0000,0.000,011217,,*3F
2017-12-01 14:36:34 1512156994.414442: $GPGSA,A,3,10,12,14,18,21,24,32,25,20,31,138,,2.0,1.2,1.5*00
2017-12-01 14:36:35 1512156995.332326: $GPZDA,193636.00,01,12,2017,00,00*68
2017-12-01 14:36:35 1512156995.332503: $GPGGA,193636,3946.9599,N,08404.9875,W,2,11,1.40,291.82,M,-33.324,M,,*79
2017-12-01 14:36:35 1512156995.332569: $GPRMC,193636,A,3946.9599,N,08404.9875,W,0.0000,0.000,011217,,*3C
2017-12-01 14:36:35 1512156995.332630: $GPGSA,A,3,10,12,14,18,21,24,32,25,20,31,138,,2.0,1.4,1.5*06
2017-12-01 14:36:36 1512156996.670493: $GPGSV,3,1,12,10,74,340,48,12,13,102,36,14,33,258,40,18,66,105,46*77
2017-12-01 14:36:36 1512156996.670702: $GPGSV,3,2,12,21,23,178,44,24,40,054,47,32,50,273,45,25,07,138,23*7F
2017-12-01 14:36:36 1512156996.670790: $GPGSV,3,3,12,20,04,121,22,15,07,069,12,31,04,204,30,138,38,213,47*40
2017-12-01 14:36:36 1512156996.783865: $GPZDA,193637.00,01,12,2017,00,00*69
2017-12-01 14:36:36 1512156996.784034: $GPGGA,193637,3946.9599,N,08404.9875,W,2,11,1.40,291.82,M,-33.324,M,,*78
2017-12-01 14:36:36 1512156996.784099: $GPRMC,193637,A,3946.9599,N,08404.9875,W,0.0000,0.000,011217,,*3D
2017-12-01 14:36:36 1512156996.784160: $GPGSA,A,3,10,12,14,18,21,24,32,25,20,31,138,,2.0,1.4,1.5*06
2017-12-01 14:36:37 1512156997.335918: $GPZDA,193638.00,01,12,2017,00,00*66
2017-12-01 14:36:37 1512156997.336091: $GPGGA,193638,3946.9599,N,08404.9875,W,2,11,1.40,291.82,M,-33.324,M,,*77
2017-12-01 14:36:37 1512156997.336156: $GPRMC,193638,A,3946.9599,N,08404.9875,W,0.0000,0.000,011217,,*32
2017-12-01 14:36:37 1512156997.336217: $GPGSA,A,3,10,12,14,18,21,24,32,25,20,31,138,,2.0,1.4,1.5*06
2017-12-01 14:36:38 1512156998.334334: $GPZDA,193639.00,01,12,2017,00,00*67
2017-12-01 14:36:38 1512156998.334518: $GPGGA,193639,3946.9599,N,08404.9875,W,2,11,1.40,291.82,M,-33.324,M,,*76
2017-12-01 14:36:38 1512156998.334587: $GPRMC,193639,A,3946.9599,N,08404.9875,W,0.0000,0.000,011217,,*33
2017-12-01 14:36:38 1512156998.334648: $GPGSA,A,3,10,12,14,18,21,24,32,25,20,31,138,,2.0,1.4,1.5*06
2017-12-01 14:36:39 1512156999.668361: $GPGSV,3,1,12,10,74,340,47,12,13,102,36,14,33,258,40,18,66,105,46*78
2017-12-01 14:36:39 1512156999.668542: $GPGSV,3,2,12,21,23,178,44,24,40,054,48,32,50,273,45,25,07,138,23*70
2017-12-01 14:36:39 1512156999.668610: $GPGSV,3,3,12,20,04,121,22,08,04,289,31,31,04,204,24,138,38,213,48*48
2017-12-01 14:36:39 1512156999.782065: $GPZDA,193640.00,01,12,2017,00,00*69
2017-12-01 14:36:39 1512156999.782236: $GPGGA,193640,3946.9599,N,08404.9875,W,2,12,1.40,291.82,M,-33.324,M,,*7B
2017-12-01 14:36:39 1512156999.782304: $GPRMC,193640,A,3946.9599,N,08404.9875,W,0.0000,0.000,011217,,*3D
2017-12-01 14:36:39 1512156999.782365: $GPGSA,A,3,10,12,14,18,21,24,32,25,20,8,31,138,2.0,1.4,1.5*3E
2017-12-01 14:36:40 1512157000.333813: $GPZDA,193641.00,01,12,2017,00,00*68
2017-12-01 14:36:40 1512157000.333987: $GPGGA,193641,3946.9599,N,08404.9875,W,2,12,1.40,291.82,M,-33.324,M,,*7A
2017-12-01 14:36:40 1512157000.334053: $GPRMC,193641,A,3946.9599,N,08404.9875,W,0.0000,0.000,011217,,*3C
2017-12-01 14:36:40 1512157000.334114: $GPGSA,A,3,10,12,14,18,21,24,32,25,20,8,31,138,2.0,1.4,1.5*3E
2017-12-01 14:36:41 1512157001.371245: $GPZDA,193642.00,01,12,2017,00,00*6B
2017-12-01 14:36:41 1512157001.371462: $GPGGA,193642,3946.9599,N,08404.9875,W,2,12,1.40,291.82,M,-33.324,M,,*79
2017-12-01 14:36:41 1512157001.371536: $GPRMC,193642,A,3946.9599,N,08404.9875,W,0.0000,0.000,011217,,*3F
2017-12-01 14:36:41 1512157001.371600: $GPGSA,A,3,10,12,14,18,21,24,32,25,20,8,31,138,2.0,1.4,1.5*3E
2017-12-01 14:36:42 1512157002.707953: $GPGSV,3,1,12,10,74,340,47,12,13,102,35,14,33,258,41,18,66,105,46*7A
2017-12-01 14:36:42 1512157002.843314: $GPGSV,3,2,12,21,23,178,44,24,40,054,48,32,50,273,45,25,07,138,23*70
2017-12-01 14:36:42 1512157002.843463: $GPGSV,3,3,12,20,04,121,23,15,07,069,16,31,04,204,24,138,38,213,47*40
2017-12-01 14:36:42 1512157002.843568: $GPZDA,193643.00,01,12,2017,00,00*6A
2017-12-01 14:36:42 1512157002.843632: $GPGGA,193643,3946.9599,N,08404.9875,W,2,12,1.20,291.82,M,-33.324,M,,*7E
2017-12-01 14:36:42 1512157002.843701: $GPRMC,193643,A,3946.9599,N,08404.9875,W,0.0000,0.000,011217,,*3E
2017-12-01 14:36:42 1512157002.843765: $GPGSA,A,3,10,12,14,18,21,24,32,25,20,15,31,138,2.0,1.2,1.5*04
2017-12-01 14:36:43 1512157003.374684: $GPZDA,193644.00,01,12,2017,00,00*6D
2017-12-01 14:36:43 1512157003.374864: $GPGGA,193644,3946.9595,N,08404.9875,W,2,12,1.20,291.18,M,-33.324,M,,*76
2017-12-01 14:36:43 1512157003.374937: $GPRMC,193644,A,3946.9595,N,08404.9875,W,0.0000,0.000,011217,,*35
2017-12-01 14:36:43 1512157003.375001: $GPGSA,A,3,10,12,14,18,21,24,32,25,20,15,31,138,2.0,1.2,1.5*04
