2017-12-14 11:52:07 1513270327.713944: {"class":"VERSION","release":"3.16","rev":"3.16-4","proto_major":3,"proto_minor":11}
2017-12-14 11:52:07 1513270327.714312: {"class":"DEVICES","devices":[{"class":"DEVICE","path":"/dev/ttyUSB0","driver":"SiRF","subtype":"9\u0006GSD4e_4.1.2-P1_RPATCH.05-F-GPS-4R-1510281 11/03/2015 307","activated":"2017-12-14T16:52:07.535Z","flags":1,"native":1,"bps":4800,"parity":"N","stopbits":1,"cycle":1.00}]}
2017-12-14 11:52:07 1513270327.714429: {"class":"WATCH","enable":true,"json":false,"nmea":true,"raw":0,"scaled":false,"timing":false,"split24":false,"pps":false}
2017-12-14 11:52:08 1513270328.572241: $GPGSV,3,1,11,15,48,049,24,24,43,127,27,20,43,085,22,10,32,292,20*7B
2017-12-14 11:52:08 1513270328.572395: $GPGSV,3,2,11,18,63,316,00,27,19,301,12,21,74,205,13,13,18,046,00*70
2017-12-14 11:52:08 1513270328.572460: $GPGSV,3,3,11,32,11,231,00,08,01,331,00,120,07,103,00*76
2017-12-14 11:52:08 1513270328.685666: $GPZDA,165209.00,14,12,2017,00,00*6D
2017-12-14 11:52:08 1513270328.685854: $GPGGA,165209,3946.9465,N,08404.9460,W,1,06,2.20,359.03,M,-33.324,M,,*7E
2017-12-14 11:52:08 1513270328.685922: $GPRMC,165209,A,3946.9465,N,08404.9460,W,0.9988,284.546,141217,,*3A
2017-12-14 11:52:08 1513270328.685984: $GPGSA,A,3,15,24,20,10,27,21,,,,,,,6.6,2.2,6.2*31
2017-12-14 11:52:09 1513270329.234856: $GPZDA,165210.00,14,12,2017,00,00*65
2017-12-14 11:52:09 1513270329.235134: $GPGGA,165210,3946.9465,N,08404.9460,W,1,06,2.20,359.03,M,-33.324,M,,*76
2017-12-14 11:52:09 1513270329.235259: $GPRMC,165210,A,3946.9465,N,08404.9460,W,0.7576,261.915,141217,,*30
2017-12-14 11:52:09 1513270329.235401: $GPGSA,A,3,15,24,20,10,27,21,,,,,,,6.6,2.2,6.2*31
2017-12-14 11:52:10 1513270330.236821: $GPZDA,165211.00,14,12,2017,00,00*64
2017-12-14 11:52:10 1513270330.237008: $GPGGA,165211,3946.9461,N,08404.9460,W,1,06,2.20,358.39,M,-33.324,M,,*7B
2017-12-14 11:52:10 1513270330.237164: $GPRMC,165211,A,3946.9461,N,08404.9460,W,0.5230,256.444,141217,,*3F
2017-12-14 11:52:10 1513270330.237228: $GPGSA,A,3,15,24,20,10,27,21,,,,,,,6.6,2.2,6.2*31
2017-12-14 11:52:11 1513270331.554710: $GPGSV,3,1,11,15,48,049,24,24,43,127,27,20,43,085,22,10,32,292,20*7B
2017-12-14 11:52:11 1513270331.554903: $GPGSV,3,2,11,18,63,316,00,27,19,301,11,21,74,205,13,13,18,046,00*73
2017-12-14 11:52:11 1513270331.554968: $GPGSV,3,3,11,32,11,231,00,08,01,331,00,120,07,103,00*76
2017-12-14 11:52:11 1513270331.668219: $GPZDA,165212.00,14,12,2017,00,00*67
2017-12-14 11:52:11 1513270331.668380: $GPGGA,165212,3946.9461,N,08404.9460,W,1,06,2.20,358.39,M,-33.324,M,,*78
2017-12-14 11:52:11 1513270331.668445: $GPRMC,165212,A,3946.9461,N,08404.9460,W,0.2422,273.794,141217,,*37
2017-12-14 11:52:11 1513270331.668505: $GPGSA,A,3,15,24,20,10,27,21,,,,,,,6.6,2.2,6.2*31
2017-12-14 11:52:12 1513270332.219353: $GPZDA,165213.00,14,12,2017,00,00*66
2017-12-14 11:52:12 1513270332.219509: $GPGGA,165213,3946.9457,N,08404.9460,W,1,06,2.20,357.75,M,-33.324,M,,*7B
2017-12-14 11:52:12 1513270332.219575: $GPRMC,165213,A,3946.9457,N,08404.9460,W,0.6846,184.197,141217,,*37
2017-12-14 11:52:12 1513270332.219661: $GPGSA,A,3,15,24,20,10,27,21,,,,,,,6.6,2.2,6.2*31
2017-12-14 11:52:13 1513270333.217968: $GPZDA,165214.00,14,12,2017,00,00*61
2017-12-14 11:52:13 1513270333.218165: $GPGGA,165214,3946.9454,N,08404.9460,W,1,06,2.20,358.51,M,-33.324,M,,*76
2017-12-14 11:52:13 1513270333.218232: $GPRMC,165214,A,3946.9454,N,08404.9460,W,0.7278,203.636,141217,,*35
2017-12-14 11:52:13 1513270333.218292: $GPGSA,A,3,15,24,20,10,27,21,,,,,,,6.6,2.2,6.2*31
2017-12-14 11:52:14 1513270334.555199: $GPGSV,3,1,11,15,48,049,23,24,43,127,26,20,43,085,21,10,32,292,20*7E
2017-12-14 11:52:14 1513270334.555357: $GPGSV,3,2,11,18,63,316,14,27,19,301,11,21,74,205,13,13,18,046,00*76
2017-12-14 11:52:14 1513270334.555422: $GPGSV,3,3,11,32,11,231,00,08,01,331,00,120,07,103,00*76
2017-12-14 11:52:14 1513270334.668575: $GPZDA,165215.00,14,12,2017,00,00*60
2017-12-14 11:52:14 1513270334.668774: $GPGGA,165215,3946.9454,N,08404.9467,W,1,06,2.20,358.43,M,-33.324,M,,*73
2017-12-14 11:52:14 1513270334.668841: $GPRMC,165215,A,3946.9454,N,08404.9467,W,0.4207,219.347,141217,,*30
2017-12-14 11:52:14 1513270334.668976: $GPGSA,A,3,15,24,20,10,27,21,,,,,,,6.6,2.2,6.2*31
2017-12-14 11:52:15 1513270335.220565: $GPZDA,165216.00,14,12,2017,00,00*63
2017-12-14 11:52:15 1513270335.220785: $GPGGA,165216,3946.9454,N,08404.9460,W,1,06,2.20,358.51,M,-33.324,M,,*74
2017-12-14 11:52:15 1513270335.220852: $GPRMC,165216,A,3946.9454,N,08404.9460,W,0.2422,93.794,141217,,*09
2017-12-14 11:52:15 1513270335.220913: $GPGSA,A,3,15,24,20,10,27,21,,,,,,,6.6,2.2,6.2*31
2017-12-14 11:52:16 1513270336.400845: $GPZDA,165217.00,14,12,2017,00,00*62
2017-12-14 11:52:16 1513270336.401015: $GPGGA,165217,3946.9454,N,08404.9460,W,1,06,2.20,358.51,M,-33.324,M,,*75
2017-12-14 11:52:16 1513270336.401082: $GPRMC,165217,A,3946.9454,N,08404.9460,W,0.8054,68.645,141217,,*0E
2017-12-14 11:52:16 1513270336.401142: $GPGSA,A,3,15,24,20,10,27,21,,,,,,,6.6,2.2,6.2*31
2017-12-14 11:52:17 1513270337.734075: $GPGSV,3,1,11,15,48,049,21,24,43,127,26,20,43,085,21,10,32,292,20*7C
2017-12-14 11:52:17 1513270337.734264: $GPGSV,3,2,11,18,63,316,00,27,19,301,00,21,74,205,13,13,18,046,00*73
2017-12-14 11:52:17 1513270337.734330: $GPGSV,3,3,11,32,11,231,00,08,01,331,00,120,07,103,00*76
2017-12-14 11:52:17 1513270337.847635: $GPZDA,165218.00,14,12,2017,00,00*6D
2017-12-14 11:52:17 1513270337.847813: $GPGGA,165218,3946.9457,N,08404.9453,W,1,05,1.80,357.83,M,-33.324,M,,*73
2017-12-14 11:52:17 1513270337.847880: $GPRMC,165218,A,3946.9457,N,08404.9453,W,1.0298,74.382,141217,,*0A
2017-12-14 11:52:17 1513270337.847940: $GPGSA,A,3,15,24,20,10,21,,,,,,,,6.6,1.8,6.2*3D
2017-12-14 11:52:18 1513270338.472845: $GPZDA,165219.00,14,12,2017,00,00*6C
2017-12-14 11:52:18 1513270338.477450: $GPGGA,165219,3946.9457,N,08404.9453,W,1,05,1.80,357.83,M,-33.324,M,,*72
2017-12-14 11:52:18 1513270338.477561: $GPRMC,165219,A,3946.9457,N,08404.9453,W,0.5951,58.684,141217,,*0C
2017-12-14 11:52:18 1513270338.477644: $GPGSA,A,3,15,24,20,10,21,,,,,,,,6.6,1.8,6.2*3D
2017-12-14 11:52:19 1513270339.400015: $GPZDA,165220.00,14,12,2017,00,00*66
2017-12-14 11:52:19 1513270339.400193: $GPGGA,165220,3946.9457,N,08404.9453,W,1,05,1.80,357.83,M,-33.324,M,,*78
2017-12-14 11:52:19 1513270339.400259: $GPRMC,165220,A,3946.9457,N,08404.9453,W,0.5951,58.684,141217,,*06
2017-12-14 11:52:19 1513270339.400361: $GPGSA,A,3,15,24,20,10,21,,,,,,,,6.6,1.8,6.2*3D
2017-12-14 11:52:20 1513270340.735816: $GPGSV,3,1,11,15,48,049,19,24,43,127,26,20,43,085,21,10,32,292,20*77
2017-12-14 11:52:20 1513270340.736009: $GPGSV,3,2,11,18,63,316,00,27,19,301,00,21,74,205,12,13,18,046,00*72
2017-12-14 11:52:20 1513270340.736074: $GPGSV,3,3,11,32,11,231,00,08,01,331,00,120,07,103,00*76
2017-12-14 11:52:20 1513270340.849047: $GPZDA,165221.00,14,12,2017,00,00*67
2017-12-14 11:52:20 1513270340.849213: $GPGGA,165221,3946.9461,N,08404.9453,W,1,05,1.80,358.47,M,-33.324,M,,*7B
2017-12-14 11:52:20 1513270340.849277: $GPRMC,165221,A,3946.9461,N,08404.9453,W,0.6846,4.197,141217,,*3A
2017-12-14 11:52:20 1513270340.849338: $GPGSA,A,3,15,24,20,10,21,,,,,,,,6.6,1.8,6.2*3D
2017-12-14 11:52:21 1513270341.399986: $GPZDA,165222.00,14,12,2017,00,00*64
2017-12-14 11:52:21 1513270341.400155: $GPGGA,165222,3946.9461,N,08404.9453,W,1,05,1.80,358.47,M,-33.324,M,,*78
2017-12-14 11:52:21 1513270341.400220: $GPRMC,165222,A,3946.9461,N,08404.9453,W,0.7238,320.710,141217,,*37
2017-12-14 11:52:21 1513270341.400280: $GPGSA,A,3,15,24,20,10,21,,,,,,,,6.6,1.8,6.2*3D
2017-12-14 11:52:22 1513270342.400872: $GPZDA,165223.00,14,12,2017,00,00*65
2017-12-14 11:52:22 1513270342.401044: $GPGGA,165223,3946.9464,N,08404.9452,W,1,05,1.80,357.70,M,-33.324,M,,*76
2017-12-14 11:52:22 1513270342.401111: $GPRMC,165223,A,3946.9464,N,08404.9452,W,1.1124,302.165,141217,,*3F
2017-12-14 11:52:22 1513270342.401171: $GPGSA,A,3,15,24,20,10,21,,,,,,,,6.6,1.8,6.2*3D
2017-12-14 11:52:23 1513270343.736056: $GPGSV,3,1,11,15,48,049,18,24,43,127,25,20,43,085,21,10,32,292,20*75
2017-12-14 11:52:23 1513270343.736230: $GPGSV,3,2,11,18,63,316,15,27,19,301,00,21,74,205,13,13,18,046,00*77
2017-12-14 11:52:23 1513270343.736363: $GPGSV,3,3,11,32,11,231,00,08,01,331,00,138,38,213,00*71
2017-12-14 11:52:23 1513270343.849401: $GPZDA,165224.00,14,12,2017,00,00*62
2017-12-14 11:52:23 1513270343.849562: $GPGGA,165224,3946.9469,N,08404.9452,W,1,05,1.80,358.34,M,-33.324,M,,*73
2017-12-14 11:52:23 1513270343.849628: $GPRMC,165224,A,3946.9469,N,08404.9452,W,0.7238,320.710,141217,,*38
2017-12-14 11:52:23 1513270343.849688: $GPGSA,A,3,15,24,20,10,21,,,,,,,,6.6,1.8,6.2*3D
2017-12-14 11:52:24 1513270344.401545: $GPZDA,165225.00,14,12,2017,00,00*63
2017-12-14 11:52:24 1513270344.401702: $GPGGA,165225,3946.9469,N,08404.9452,W,1,05,1.80,358.34,M,-33.324,M,,*72
2017-12-14 11:52:24 1513270344.401766: $GPRMC,165225,A,3946.9469,N,08404.9452,W,0.4844,273.794,141217,,*30
2017-12-14 11:52:24 1513270344.401827: $GPGSA,A,3,15,24,20,10,21,,,,,,,,6.6,1.8,6.2*3D
2017-12-14 11:52:25 1513270345.398677: $GPZDA,165226.00,14,12,2017,00,00*60
2017-12-14 11:52:25 1513270345.398852: $GPGGA,165226,3946.9469,N,08404.9452,W,1,05,1.80,358.34,M,-33.324,M,,*71
2017-12-14 11:52:25 1513270345.398918: $GPRMC,165226,A,3946.9469,N,08404.9452,W,0.2422,273.794,141217,,*39
2017-12-14 11:52:25 1513270345.398979: $GPGSA,A,3,15,24,20,10,21,,,,,,,,6.6,1.8,6.2*3D
2017-12-14 11:52:26 1513270346.735625: $GPGSV,3,1,11,15,48,049,18,24,43,127,25,20,43,085,21,10,32,292,20*75
2017-12-14 11:52:26 1513270346.735814: $GPGSV,3,2,11,18,63,316,00,27,19,301,00,21,74,205,13,13,18,046,00*73
2017-12-14 11:52:26 1513270346.735881: $GPGSV,3,3,11,32,11,231,00,08,01,331,00,138,38,213,00*71
2017-12-14 11:52:26 1513270346.849054: $GPZDA,165227.00,14,12,2017,00,00*61
2017-12-14 11:52:26 1513270346.849224: $GPGGA,165227,3946.9469,N,08404.9452,W,1,05,1.80,358.34,M,-33.324,M,,*70
2017-12-14 11:52:26 1513270346.849290: $GPRMC,165227,A,3946.9469,N,08404.9452,W,0.2422,273.794,141217,,*38
2017-12-14 11:52:26 1513270346.849351: $GPGSA,A,3,15,24,20,10,21,,,,,,,,6.6,1.8,6.2*3D
2017-12-14 11:52:27 1513270347.400296: $GPZDA,165228.00,14,12,2017,00,00*6E
2017-12-14 11:52:27 1513270347.400461: $GPGGA,165228,3946.9469,N,08404.9459,W,1,05,1.80,358.26,M,-33.324,M,,*77
2017-12-14 11:52:27 1513270347.400528: $GPRMC,165228,A,3946.9469,N,08404.9459,W,0.5306,294.353,141217,,*3C
2017-12-14 11:52:27 1513270347.400588: $GPGSA,A,3,15,24,20,10,21,,,,,,,,6.6,1.8,6.2*3D
