2017-12-01 14:00:50 1512154850.237415: {"class":"VERSION","release":"3.16","rev":"3.16-4","proto_major":3,"proto_minor":11}
2017-12-01 14:00:50 1512154850.237783: {"class":"DEVICES","devices":[{"class":"DEVICE","path":"/dev/ttyUSB0","driver":"SiRF","subtype":"9\u0006GSD4e_4.1.2-P1_RPATCH.05-F-GPS-4R-1510281 11/03/2015 307","activated":"2017-12-01T19:00:50.224Z","flags":1,"native":1,"bps":4800,"parity":"N","stopbits":1,"cycle":1.00}]}
2017-12-01 14:00:50 1512154850.237978: {"class":"WATCH","enable":true,"json":false,"nmea":true,"raw":0,"scaled":false,"timing":false,"split24":false,"pps":false}
2017-12-01 14:00:50 1512154850.337287: $GPZDA,190051.00,01,12,2017,00,00*6C
2017-12-01 14:00:50 1512154850.337450: $GPGGA,190051,3946.9564,N,08404.9822,W,2,12,0.80,304.38,M,-33.324,M,,*7F
2017-12-01 14:00:50 1512154850.337535: $GPRMC,190051,A,3946.9564,N,08404.9822,W,0.0000,0.000,011217,,*38
2017-12-01 14:00:50 1512154850.337598: $GPGSA,A,3,10,14,15,18,20,21,24,27,32,8,12,138,2.0,0.8,1.5*37
2017-12-01 14:00:51 1512154851.703087: $GPGSV,3,1,12,10,60,319,50,14,21,246,40,15,19,061,39,18,76,060,42*7A
2017-12-01 14:00:51 1512154851.703289: $GPGSV,3,2,12,20,17,112,43,21,40,181,46,24,51,072,48,27,12,268,42*70
2017-12-01 14:00:51 1512154851.703361: $GPGSV,3,3,12,32,38,255,43,08,08,303,31,12,03,115,24,138,38,213,47*46
2017-12-01 14:00:51 1512154851.816598: $GPZDA,190052.00,01,12,2017,00,00*6F
2017-12-01 14:00:51 1512154851.816783: $GPGGA,190052,3946.9564,N,08404.9822,W,2,12,0.80,304.38,M,-33.324,M,,*7C
2017-12-01 14:00:51 1512154851.816857: $GPRMC,190052,A,3946.9564,N,08404.9822,W,0.0000,0.000,011217,,*3B
2017-12-01 14:00:51 1512154851.816922: $GPGSA,A,3,10,14,15,18,20,21,24,27,32,8,12,138,2.0,0.8,1.5*37
2017-12-01 14:00:52 1512154852.441910: $GPZDA,190053.00,01,12,2017,00,00*6E
2017-12-01 14:00:52 1512154852.442083: $GPGGA,190053,3946.9564,N,08404.9822,W,2,12,0.80,304.38,M,-33.324,M,,*7D
2017-12-01 14:00:52 1512154852.442151: $GPRMC,190053,A,3946.9564,N,08404.9822,W,0.0000,0.000,011217,,*3A
2017-12-01 14:00:52 1512154852.442216: $GPGSA,A,3,10,14,15,18,20,21,24,27,32,8,12,138,2.0,0.8,1.5*37
2017-12-01 14:00:53 1512154853.337731: $GPZDA,190054.00,01,12,2017,00,00*69
2017-12-01 14:00:53 1512154853.337906: $GPGGA,190054,3946.9564,N,08404.9822,W,2,12,0.80,304.38,M,-33.324,M,,*7A
2017-12-01 14:00:53 1512154853.337976: $GPRMC,190054,A,3946.9564,N,08404.9822,W,0.0000,0.000,011217,,*3D
2017-12-01 14:00:53 1512154853.338040: $GPGSA,A,3,10,14,15,18,20,21,24,27,32,8,12,138,2.0,0.8,1.5*37
2017-12-01 14:00:54 1512154854.670944: $GPGSV,3,1,12,10,60,319,50,14,21,246,39,15,19,061,39,18,76,060,42*74
2017-12-01 14:00:54 1512154854.671126: $GPGSV,3,2,12,20,17,112,43,21,40,181,46,24,51,072,48,27,12,268,42*70
2017-12-01 14:00:54 1512154854.671196: $GPGSV,3,3,12,32,38,255,43,08,08,303,32,12,03,115,24,138,38,213,47*45
2017-12-01 14:00:54 1512154854.784328: $GPZDA,190055.00,01,12,2017,00,00*68
2017-12-01 14:00:54 1512154854.784502: $GPGGA,190055,3946.9564,N,08404.9822,W,2,12,0.80,304.38,M,-33.324,M,,*7B
2017-12-01 14:00:54 1512154854.784570: $GPRMC,190055,A,3946.9564,N,08404.9822,W,0.0000,0.000,011217,,*3C
2017-12-01 14:00:54 1512154854.784634: $GPGSA,A,3,10,14,15,18,20,21,24,27,32,8,12,138,2.0,0.8,1.5*37
2017-12-01 14:00:55 1512154855.340453: $GPZDA,190056.00,01,12,2017,00,00*6B
2017-12-01 14:00:55 1512154855.340629: $GPGGA,190056,3946.9564,N,08404.9822,W,2,12,0.80,304.38,M,-33.324,M,,*78
2017-12-01 14:00:55 1512154855.340699: $GPRMC,190056,A,3946.9564,N,08404.9822,W,0.0000,0.000,011217,,*3F
2017-12-01 14:00:55 1512154855.340763: $GPGSA,A,3,10,14,15,18,20,21,24,27,32,8,12,138,2.0,0.8,1.5*37
2017-12-01 14:00:56 1512154856.339850: $GPZDA,190057.00,01,12,2017,00,00*6A
2017-12-01 14:00:56 1512154856.340040: $GPGGA,190057,3946.9564,N,08404.9822,W,2,12,0.80,304.38,M,-33.324,M,,*79
2017-12-01 14:00:56 1512154856.340110: $GPRMC,190057,A,3946.9564,N,08404.9822,W,0.0000,0.000,011217,,*3E
2017-12-01 14:00:56 1512154856.340175: $GPGSA,A,3,10,14,15,18,20,21,24,27,32,8,12,138,2.0,0.8,1.5*37
2017-12-01 14:00:57 1512154857.701393: $GPGSV,3,1,12,10,60,319,50,14,21,246,39,15,19,061,39,18,76,060,42*74
2017-12-01 14:00:57 1512154857.701635: $GPGSV,3,2,12,20,17,112,44,21,40,181,45,24,51,072,48,27,12,268,42*74
2017-12-01 14:00:57 1512154857.701707: $GPGSV,3,3,12,32,38,255,43,08,08,303,33,12,03,115,24,138,38,213,46*45
2017-12-01 14:00:57 1512154857.814787: $GPZDA,190058.00,01,12,2017,00,00*65
2017-12-01 14:00:57 1512154857.814948: $GPGGA,190058,3946.9564,N,08404.9822,W,2,12,0.80,304.38,M,-33.324,M,,*76
2017-12-01 14:00:57 1512154857.815015: $GPRMC,190058,A,3946.9564,N,08404.9822,W,0.0000,0.000,011217,,*31
2017-12-01 14:00:57 1512154857.815076: $GPGSA,A,3,10,14,15,18,20,21,24,27,32,8,12,138,2.0,0.8,1.5*37
2017-12-01 14:00:58 1512154858.338483: $GPZDA,190059.00,01,12,2017,00,00*64
2017-12-01 14:00:58 1512154858.338642: $GPGGA,190059,3946.9564,N,08404.9822,W,2,12,0.80,304.38,M,-33.324,M,,*77
2017-12-01 14:00:58 1512154858.338710: $GPRMC,190059,A,3946.9564,N,08404.9822,W,0.0000,0.000,011217,,*30
2017-12-01 14:00:58 1512154858.338771: $GPGSA,A,3,10,14,15,18,20,21,24,27,32,8,12,138,2.0,0.8,1.5*37
2017-12-01 14:00:59 1512154859.367963: $GPZDA,190100.00,01,12,2017,00,00*69
2017-12-01 14:00:59 1512154859.368135: $GPGGA,190100,3946.9560,N,08404.9823,W,2,12,0.80,305.15,M,-33.324,M,,*71
2017-12-01 14:00:59 1512154859.368202: $GPRMC,190100,A,3946.9560,N,08404.9823,W,0.0000,0.000,011217,,*38
2017-12-01 14:00:59 1512154859.368263: $GPGSA,A,3,10,14,15,18,20,21,24,27,32,8,12,138,2.0,0.8,1.5*37
2017-12-01 14:01:00 1512154860.673822: $GPGSV,3,1,12,10,60,319,50,14,21,246,39,15,19,061,40,18,76,060,43*7B
2017-12-01 14:01:00 1512154860.674003: $GPGSV,3,2,12,20,17,112,44,21,40,181,45,24,51,072,48,27,12,268,42*74
2017-12-01 14:01:00 1512154860.674070: $GPGSV,3,3,12,32,38,255,43,08,08,303,32,12,03,115,24,138,38,213,47*45
2017-12-01 14:01:00 1512154860.787212: $GPZDA,190101.00,01,12,2017,00,00*68
2017-12-01 14:01:00 1512154860.787389: $GPGGA,190101,3946.9560,N,08404.9823,W,2,12,0.80,305.15,M,-33.324,M,,*70
2017-12-01 14:01:00 1512154860.787456: $GPRMC,190101,A,3946.9560,N,08404.9823,W,0.0000,0.000,011217,,*39
2017-12-01 14:01:00 1512154860.787517: $GPGSA,A,3,10,14,15,18,20,21,24,27,32,8,12,138,2.0,0.8,1.5*37
2017-12-01 14:01:01 1512154861.338931: $GPZDA,190102.00,01,12,2017,00,00*6B
2017-12-01 14:01:01 1512154861.339108: $GPGGA,190102,3946.9560,N,08404.9823,W,2,12,0.80,305.15,M,-33.324,M,,*73
2017-12-01 14:01:01 1512154861.339175: $GPRMC,190102,A,3946.9560,N,08404.9823,W,0.0000,0.000,011217,,*3A
2017-12-01 14:01:01 1512154861.339236: $GPGSA,A,3,10,14,15,18,20,21,24,27,32,8,12,138,2.0,0.8,1.5*37
2017-12-01 14:01:02 1512154862.366810: $GPZDA,190103.00,01,12,2017,00,00*6A
2017-12-01 14:01:02 1512154862.366991: $GPGGA,190103,3946.9560,N,08404.9816,W,2,12,0.80,305.23,M,-33.324,M,,*71
2017-12-01 14:01:02 1512154862.367058: $GPRMC,190103,A,3946.9560,N,08404.9816,W,0.0000,0.000,011217,,*3D
2017-12-01 14:01:02 1512154862.367118: $GPGSA,A,3,10,14,15,18,20,21,24,27,32,8,12,138,2.0,0.8,1.5*37
2017-12-01 14:01:03 1512154863.675025: $GPGSV,3,1,12,10,60,319,50,14,21,246,40,15,19,061,40,18,76,060,43*75
2017-12-01 14:01:03 1512154863.675208: $GPGSV,3,2,12,20,17,112,44,21,40,181,45,24,51,072,48,27,12,268,42*74
2017-12-01 14:01:03 1512154863.675275: $GPGSV,3,3,12,32,38,255,43,08,08,303,33,12,03,115,24,138,38,213,47*44
2017-12-01 14:01:03 1512154863.788522: $GPZDA,190104.00,01,12,2017,00,00*6D
2017-12-01 14:01:03 1512154863.788699: $GPGGA,190104,3946.9560,N,08404.9816,W,2,12,0.80,305.23,M,-33.324,M,,*76
2017-12-01 14:01:03 1512154863.788767: $GPRMC,190104,A,3946.9560,N,08404.9816,W,0.0000,0.000,011217,,*3A
2017-12-01 14:01:03 1512154863.788828: $GPGSA,A,3,10,14,15,18,20,21,24,27,32,8,12,138,2.0,0.8,1.5*37
2017-12-01 14:01:04 1512154864.368099: $GPZDA,190105.00,01,12,2017,00,00*6C
2017-12-01 14:01:04 1512154864.368290: $GPGGA,190105,3946.9560,N,08404.9816,W,2,12,0.80,305.23,M,-33.324,M,,*77
2017-12-01 14:01:04 1512154864.368360: $GPRMC,190105,A,3946.9560,N,08404.9816,W,0.0000,0.000,011217,,*3B
2017-12-01 14:01:04 1512154864.368423: $GPGSA,A,3,10,14,15,18,20,21,24,27,32,8,12,138,2.0,0.8,1.5*37
