2017-12-31 16:41:47 1514756507.098099: {"class":"VERSION","release":"3.16","rev":"3.16-4","proto_major":3,"proto_minor":11}
2017-12-31 16:41:47 1514756507.098450: {"class":"DEVICES","devices":[{"class":"DEVICE","path":"/dev/ttyUSB0","driver":"SiRF","activated":"2017-12-31T21:41:46.487Z","flags":1,"native":1,"bps":4800,"parity":"N","stopbits":1,"cycle":1.00}]}
2017-12-31 16:41:47 1514756507.098547: {"class":"WATCH","enable":true,"json":false,"nmea":true,"raw":0,"scaled":false,"timing":false,"split24":false,"pps":false}
2017-12-31 16:41:47 1514756507.347796: $GPZDA,214148.00,31,12,2017,00,00*69
2017-12-31 16:41:47 1514756507.347954: $GPGGA,214148,3946.9579,N,08404.9841,W,2,11,0.80,302.49,M,-33.324,M,,*73
2017-12-31 16:41:47 1514756507.348019: $GPRMC,214148,A,3946.9579,N,08404.9841,W,0.0000,0.000,311217,,*34
2017-12-31 16:41:47 1514756507.348079: $GPGSA,A,3,22,23,25,3,16,29,31,14,32,26,135,,1.7,0.8,1.3*32
2017-12-31 16:41:48 1514756508.689330: $GPGSV,3,1,12,22,49,255,43,23,19,304,38,25,11,039,36,03,45,286,30*70
2017-12-31 16:41:48 1514756508.689476: $GPGSV,3,2,12,16,34,189,47,29,13,066,31,01,01,246,00,31,58,040,51*7C
2017-12-31 16:41:48 1514756508.689541: $GPGSV,3,3,12,14,49,103,47,32,27,115,34,26,64,163,42,135,22,240,43*47
2017-12-31 16:41:48 1514756508.802673: $GPZDA,214149.00,31,12,2017,00,00*68
2017-12-31 16:41:48 1514756508.802817: $GPGGA,214149,3946.9579,N,08404.9841,W,2,11,0.80,302.49,M,-33.324,M,,*72
2017-12-31 16:41:48 1514756508.802881: $GPRMC,214149,A,3946.9579,N,08404.9841,W,0.0000,0.000,311217,,*35
2017-12-31 16:41:48 1514756508.802941: $GPGSA,A,3,22,23,25,3,16,29,31,14,32,26,135,,1.7,0.8,1.3*32
2017-12-31 16:41:49 1514756509.338559: $GPZDA,214150.00,31,12,2017,00,00*60
2017-12-31 16:41:49 1514756509.338741: $GPGGA,214150,3946.9579,N,08404.9841,W,2,11,0.80,302.49,M,-33.324,M,,*7A
2017-12-31 16:41:49 1514756509.338807: $GPRMC,214150,A,3946.9579,N,08404.9841,W,0.0000,0.000,311217,,*3D
2017-12-31 16:41:49 1514756509.338868: $GPGSA,A,3,22,23,25,3,16,29,31,14,32,26,135,,1.7,0.8,1.3*32
2017-12-31 16:41:50 1514756510.355156: $GPZDA,214151.00,31,12,2017,00,00*61
2017-12-31 16:41:50 1514756510.355325: $GPGGA,214151,3946.9579,N,08404.9841,W,2,11,0.80,302.49,M,-33.324,M,,*7B
2017-12-31 16:41:50 1514756510.355393: $GPRMC,214151,A,3946.9579,N,08404.9841,W,0.0000,0.000,311217,,*3C
2017-12-31 16:41:50 1514756510.355454: $GPGSA,A,3,22,23,25,3,16,29,31,14,32,26,135,,1.7,0.8,1.3*32
2017-12-31 16:41:51 1514756511.698449: $GPGSV,3,1,12,22,49,255,43,23,19,304,34,25,11,039,36,03,45,286,38*74
2017-12-31 16:41:51 1514756511.698618: $GPGSV,3,2,12,16,34,189,47,29,13,066,31,01,01,246,00,31,58,040,51*7C
2017-12-31 16:41:51 1514756511.698685: $GPGSV,3,3,12,14,49,103,47,32,27,115,38,26,64,163,42,135,22,240,42*4A
2017-12-31 16:41:51 1514756511.811744: $GPZDA,214152.00,31,12,2017,00,00*62
2017-12-31 16:41:51 1514756511.811865: $GPGGA,214152,3946.9579,N,08404.9841,W,2,11,0.80,302.49,M,-33.324,M,,*78
2017-12-31 16:41:51 1514756511.811929: $GPRMC,214152,A,3946.9579,N,08404.9841,W,0.0000,0.000,311217,,*3F
2017-12-31 16:41:51 1514756511.811988: $GPGSA,A,3,22,23,25,3,16,29,31,14,32,26,135,,1.7,0.8,1.3*32
2017-12-31 16:41:52 1514756512.348912: $GPZDA,214153.00,31,12,2017,00,00*63
2017-12-31 16:41:52 1514756512.349067: $GPGGA,214153,3946.9579,N,08404.9841,W,2,11,0.80,302.49,M,-33.324,M,,*79
2017-12-31 16:41:52 1514756512.349132: $GPRMC,214153,A,3946.9579,N,08404.9841,W,0.0000,0.000,311217,,*3E
2017-12-31 16:41:52 1514756512.349193: $GPGSA,A,3,22,23,25,3,16,29,31,14,32,26,135,,1.7,0.8,1.3*32
2017-12-31 16:41:53 1514756513.362333: $GPZDA,214154.00,31,12,2017,00,00*64
2017-12-31 16:41:53 1514756513.362484: $GPGGA,214154,3946.9579,N,08404.9841,W,2,11,0.80,302.49,M,-33.324,M,,*7E
2017-12-31 16:41:53 1514756513.362550: $GPRMC,214154,A,3946.9579,N,08404.9841,W,0.0000,0.000,311217,,*39
2017-12-31 16:41:53 1514756513.362612: $GPGSA,A,3,22,23,25,3,16,29,31,14,32,26,135,,1.7,0.8,1.3*32
2017-12-31 16:41:54 1514756514.681750: $GPGSV,3,1,12,22,49,255,43,23,19,304,36,25,11,039,36,03,45,286,37*79
2017-12-31 16:41:54 1514756514.681899: $GPGSV,3,2,12,16,34,189,46,29,13,066,25,01,01,246,00,31,58,040,51*78
2017-12-31 16:41:54 1514756514.681998: $GPGSV,3,3,12,14,49,103,47,32,27,115,38,26,64,163,42,135,22,240,44*4C
2017-12-31 16:41:54 1514756514.795061: $GPZDA,214155.00,31,12,2017,00,00*65
2017-12-31 16:41:54 1514756514.795209: $GPGGA,214155,3946.9579,N,08404.9841,W,2,11,0.80,302.49,M,-33.324,M,,*7F
2017-12-31 16:41:54 1514756514.795274: $GPRMC,214155,A,3946.9579,N,08404.9841,W,0.0000,0.000,311217,,*38
2017-12-31 16:41:54 1514756514.795334: $GPGSA,A,3,22,23,25,3,16,29,31,14,32,26,135,,1.7,0.8,1.3*32
2017-12-31 16:41:55 1514756515.420436: $GPZDA,214156.00,31,12,2017,00,00*66
2017-12-31 16:41:55 1514756515.420606: $GPGGA,214156,3946.9579,N,08404.9841,W,2,11,0.80,302.49,M,-33.324,M,,*7C
2017-12-31 16:41:55 1514756515.420671: $GPRMC,214156,A,3946.9579,N,08404.9841,W,0.0000,0.000,311217,,*3B
2017-12-31 16:41:55 1514756515.420732: $GPGSA,A,3,22,23,25,3,16,29,31,14,32,26,135,,1.7,0.8,1.3*32
2017-12-31 16:41:56 1514756516.337678: $GPZDA,214157.00,31,12,2017,00,00*67
2017-12-31 16:41:56 1514756516.337851: $GPGGA,214157,3946.9579,N,08404.9841,W,2,11,0.80,302.49,M,-33.324,M,,*7D
2017-12-31 16:41:56 1514756516.337917: $GPRMC,214157,A,3946.9579,N,08404.9841,W,0.0000,0.000,311217,,*3A
2017-12-31 16:41:56 1514756516.337978: $GPGSA,A,3,22,23,25,3,16,29,31,14,32,26,135,,1.7,0.8,1.3*32
