2017-12-29 10:39:23 1514561963.927292: {"class":"VERSION","release":"3.16","rev":"3.16-4","proto_major":3,"proto_minor":11}
2017-12-29 10:39:23 1514561963.927650: {"class":"DEVICES","devices":[{"class":"DEVICE","path":"/dev/ttyUSB0","driver":"SiRF","subtype":"9\u0006GSD4e_4.1.2-P1_RPATCH.05-F-GPS-4R-1510281 11/03/2015 307","activated":"2017-12-29T15:39:23.562Z","flags":1,"native":1,"bps":4800,"parity":"N","stopbits":1,"cycle":1.00}]}
2017-12-29 10:39:23 1514561963.927763: {"class":"WATCH","enable":true,"json":false,"nmea":true,"raw":0,"scaled":false,"timing":false,"split24":false,"pps":false}
2017-12-29 10:39:24 1514561964.422817: $GPZDA,153925.00,29,12,2017,00,00*63
2017-12-29 10:39:24 1514561964.422981: $GPGGA,153925,3946.9662,N,08404.9766,W,2,11,0.80,332.45,M,-33.324,M,,*7C
2017-12-29 10:39:24 1514561964.423047: $GPRMC,153925,A,3946.9662,N,08404.9766,W,0.0000,0.000,291217,,*3D
2017-12-29 10:39:24 1514561964.423108: $GPGSA,A,3,10,13,15,18,20,21,24,27,29,32,138,,1.7,0.8,1.3*02
2017-12-29 10:39:25 1514561965.755926: $GPGSV,3,1,11,10,29,288,41,13,22,045,45,15,53,049,50,18,60,309,45*7A
2017-12-29 10:39:25 1514561965.756083: $GPGSV,3,2,11,20,47,079,49,21,78,228,47,24,39,132,49,27,18,306,37*71
2017-12-29 10:39:25 1514561965.756148: $GPGSV,3,3,11,29,04,187,34,32,08,228,35,138,38,213,45*78
2017-12-29 10:39:25 1514561965.869376: $GPZDA,153926.00,29,12,2017,00,00*60
2017-12-29 10:39:25 1514561965.869511: $GPGGA,153926,3946.9662,N,08404.9766,W,2,11,0.80,332.45,M,-33.324,M,,*7F
2017-12-29 10:39:25 1514561965.869575: $GPRMC,153926,A,3946.9662,N,08404.9766,W,0.0000,0.000,291217,,*3E
2017-12-29 10:39:25 1514561965.869635: $GPGSA,A,3,10,13,15,18,20,21,24,27,29,32,138,,1.7,0.8,1.3*02
2017-12-29 10:39:26 1514561966.494755: $GPZDA,153927.00,29,12,2017,00,00*61
2017-12-29 10:39:26 1514561966.494914: $GPGGA,153927,3946.9662,N,08404.9766,W,2,11,0.80,332.45,M,-33.324,M,,*7E
2017-12-29 10:39:26 1514561966.494981: $GPRMC,153927,A,3946.9662,N,08404.9766,W,0.0000,0.000,291217,,*3F
2017-12-29 10:39:26 1514561966.495041: $GPGSA,A,3,10,13,15,18,20,21,24,27,29,32,138,,1.7,0.8,1.3*02
2017-12-29 10:39:27 1514561967.421994: $GPZDA,153928.00,29,12,2017,00,00*6E
2017-12-29 10:39:27 1514561967.422156: $GPGGA,153928,3946.9662,N,08404.9766,W,2,11,0.80,332.45,M,-33.324,M,,*71
2017-12-29 10:39:27 1514561967.422243: $GPRMC,153928,A,3946.9662,N,08404.9766,W,0.0000,0.000,291217,,*30
2017-12-29 10:39:27 1514561967.422304: $GPGSA,A,3,10,13,15,18,20,21,24,27,29,32,138,,1.7,0.8,1.3*02
2017-12-29 10:39:28 1514561968.757557: $GPGSV,3,1,11,10,29,288,41,13,22,045,45,15,53,049,50,18,60,309,44*7B
2017-12-29 10:39:28 1514561968.757721: $GPGSV,3,2,11,20,47,079,49,21,78,228,47,24,39,132,49,27,18,306,38*7E
2017-12-29 10:39:28 1514561968.757787: $GPGSV,3,3,11,29,04,187,34,32,08,228,35,138,38,213,46*7B
2017-12-29 10:39:28 1514561968.871388: $GPZDA,153929.00,29,12,2017,00,00*6F
2017-12-29 10:39:28 1514561968.871556: $GPGGA,153929,3946.9662,N,08404.9766,W,2,11,0.80,332.45,M,-33.324,M,,*70
2017-12-29 10:39:28 1514561968.871622: $GPRMC,153929,A,3946.9662,N,08404.9766,W,0.0000,0.000,291217,,*31
2017-12-29 10:39:28 1514561968.871682: $GPGSA,A,3,10,13,15,18,20,21,24,27,29,32,138,,1.7,0.8,1.3*02
2017-12-29 10:39:29 1514561969.420940: $GPZDA,153930.00,29,12,2017,00,00*67
2017-12-29 10:39:29 1514561969.421177: $GPGGA,153930,3946.9662,N,08404.9766,W,2,11,0.80,332.45,M,-33.324,M,,*78
2017-12-29 10:39:29 1514561969.421248: $GPRMC,153930,A,3946.9662,N,08404.9766,W,0.0000,0.000,291217,,*39
2017-12-29 10:39:29 1514561969.421326: $GPGSA,A,3,10,13,15,18,20,21,24,27,29,32,138,,1.7,0.8,1.3*02
2017-12-29 10:39:30 1514561970.926913: $GPZDA,153931.00,29,12,2017,00,00*66
2017-12-29 10:39:30 1514561970.927064: $GPGGA,153931,3946.9651,N,08404.9773,W,2,11,0.80,331.86,M,-33.324,M,,*71
2017-12-29 10:39:30 1514561970.927129: $GPRMC,153931,A,3946.9651,N,08404.9773,W,0.0000,0.000,291217,,*3C
2017-12-29 10:39:30 1514561970.927212: $GPGSA,A,3,10,13,15,18,20,21,24,27,29,32,138,,1.7,0.8,1.3*02
2017-12-29 10:39:31 1514561971.887951: $GPGSV,3,1,11,10,29,288,42,13,22,045,45,15,53,049,50,18,60,310,44*70
2017-12-29 10:39:31 1514561971.888193: $GPGSV,3,2,11,20,47,079,49,21,78,228,47,24,40,132,49,27,18,306,38*70
2017-12-29 10:39:31 1514561971.888261: $GPGSV,3,3,11,29,04,187,34,32,08,229,34,138,38,213,45*78
2017-12-29 10:39:32 1514561972.000342: $GPZDA,153932.00,29,12,2017,00,00*65
2017-12-29 10:39:32 1514561972.000510: $GPGGA,153932,3946.9651,N,08404.9773,W,2,11,0.80,331.86,M,-33.324,M,,*72
2017-12-29 10:39:32 1514561972.000576: $GPRMC,153932,A,3946.9651,N,08404.9773,W,0.0000,0.000,291217,,*3F
2017-12-29 10:39:32 1514561972.000656: $GPGSA,A,3,10,13,15,18,20,21,24,27,29,32,138,,1.7,0.8,1.3*02
2017-12-29 10:39:32 1514561972.452474: $GPZDA,153933.00,29,12,2017,00,00*64
2017-12-29 10:39:32 1514561972.452637: $GPGGA,153933,3946.9651,N,08404.9773,W,2,11,0.80,331.86,M,-33.324,M,,*73
2017-12-29 10:39:32 1514561972.452704: $GPRMC,153933,A,3946.9651,N,08404.9773,W,0.0000,0.000,291217,,*3E
2017-12-29 10:39:32 1514561972.452764: $GPGSA,A,3,10,13,15,18,20,21,24,27,29,32,138,,1.7,0.8,1.3*02
2017-12-29 10:39:33 1514561973.419601: $GPZDA,153934.00,29,12,2017,00,00*63
2017-12-29 10:39:33 1514561973.419781: $GPGGA,153934,3946.9651,N,08404.9773,W,2,11,0.80,331.86,M,-33.324,M,,*74
2017-12-29 10:39:33 1514561973.419849: $GPRMC,153934,A,3946.9651,N,08404.9773,W,0.0000,0.000,291217,,*39
2017-12-29 10:39:33 1514561973.419909: $GPGSA,A,3,10,13,15,18,20,21,24,27,29,32,138,,1.7,0.8,1.3*02
