2017-12-31 16:51:55 1514757115.319929: {"class":"VERSION","release":"3.16","rev":"3.16-4","proto_major":3,"proto_minor":11}
2017-12-31 16:51:55 1514757115.320316: {"class":"DEVICES","devices":[{"class":"DEVICE","path":"/dev/ttyUSB0","driver":"SiRF","activated":"2017-12-31T21:51:55.305Z","flags":1,"native":1,"bps":4800,"parity":"N","stopbits":1,"cycle":1.00}]}
2017-12-31 16:51:55 1514757115.320493: {"class":"WATCH","enable":true,"json":false,"nmea":true,"raw":0,"scaled":false,"timing":false,"split24":false,"pps":false}
2017-12-31 16:51:55 1514757115.418361: $GPZDA,215156.00,31,12,2017,00,00*67
2017-12-31 16:51:55 1514757115.418544: $GPGGA,215156,3946.9581,N,08404.9855,W,2,11,0.80,303.74,M,-33.324,M,,*70
2017-12-31 16:51:55 1514757115.418612: $GPRMC,215156,A,3946.9581,N,08404.9855,W,0.0000,0.000,311217,,*38
2017-12-31 16:51:55 1514757115.418673: $GPGSA,A,3,22,23,25,3,16,29,31,14,32,26,135,,1.7,0.8,1.3*32
2017-12-31 16:51:56 1514757116.351698: $GPZDA,215157.00,31,12,2017,00,00*66
2017-12-31 16:51:56 1514757116.351874: $GPGGA,215157,3946.9581,N,08404.9855,W,2,11,0.80,303.74,M,-33.324,M,,*71
2017-12-31 16:51:56 1514757116.351940: $GPRMC,215157,A,3946.9581,N,08404.9855,W,0.0000,0.000,311217,,*39
2017-12-31 16:51:56 1514757116.352001: $GPGSA,A,3,22,23,25,3,16,29,31,14,32,26,135,,1.7,0.8,1.3*32
2017-12-31 16:51:57 1514757117.679954: $GPGSV,3,1,11,22,47,247,43,23,22,306,42,25,07,037,28,03,46,280,38*72
2017-12-31 16:51:57 1514757117.680145: $GPGSV,3,2,11,16,39,190,47,29,14,060,28,31,55,045,51,14,45,108,44*76
2017-12-31 16:51:57 1514757117.680213: $GPGSV,3,3,11,32,24,118,43,26,69,157,43,135,22,240,43*78
2017-12-31 16:51:57 1514757117.793287: $GPZDA,215158.00,31,12,2017,00,00*69
2017-12-31 16:51:57 1514757117.793436: $GPGGA,215158,3946.9581,N,08404.9855,W,2,11,0.80,303.74,M,-33.324,M,,*7E
2017-12-31 16:51:57 1514757117.793521: $GPRMC,215158,A,3946.9581,N,08404.9855,W,0.0000,0.000,311217,,*36
2017-12-31 16:51:57 1514757117.793583: $GPGSA,A,3,22,23,25,3,16,29,31,14,32,26,135,,1.7,0.8,1.3*32
2017-12-31 16:51:58 1514757118.344420: $GPZDA,215159.00,31,12,2017,00,00*68
2017-12-31 16:51:58 1514757118.344600: $GPGGA,215159,3946.9581,N,08404.9855,W,2,11,0.80,303.74,M,-33.324,M,,*7F
2017-12-31 16:51:58 1514757118.344666: $GPRMC,215159,A,3946.9581,N,08404.9855,W,0.0000,0.000,311217,,*37
2017-12-31 16:51:58 1514757118.344726: $GPGSA,A,3,22,23,25,3,16,29,31,14,32,26,135,,1.7,0.8,1.3*32
2017-12-31 16:51:59 1514757119.360281: $GPZDA,215200.00,31,12,2017,00,00*67
2017-12-31 16:51:59 1514757119.360469: $GPGGA,215200,3946.9581,N,08404.9855,W,2,11,0.80,303.74,M,-33.324,M,,*70
2017-12-31 16:51:59 1514757119.360554: $GPRMC,215200,A,3946.9581,N,08404.9855,W,0.0000,0.000,311217,,*38
2017-12-31 16:51:59 1514757119.360615: $GPGSA,A,3,22,23,25,3,16,29,31,14,32,26,135,,1.7,0.8,1.3*32
2017-12-31 16:52:00 1514757120.695273: $GPGSV,3,1,11,22,47,247,43,23,22,306,42,25,07,037,29,03,46,280,37*7C
2017-12-31 16:52:00 1514757120.695454: $GPGSV,3,2,11,16,39,190,47,29,14,060,28,31,55,045,51,14,45,108,44*76
2017-12-31 16:52:00 1514757120.695537: $GPGSV,3,3,11,32,24,118,44,26,69,157,43,135,22,240,43*7F
2017-12-31 16:52:00 1514757120.808889: $GPZDA,215201.00,31,12,2017,00,00*66
2017-12-31 16:52:00 1514757120.809007: $GPGGA,215201,3946.9581,N,08404.9855,W,2,11,0.80,303.74,M,-33.324,M,,*71
2017-12-31 16:52:00 1514757120.809071: $GPRMC,215201,A,3946.9581,N,08404.9855,W,0.0000,0.000,311217,,*39
2017-12-31 16:52:00 1514757120.809131: $GPGSA,A,3,22,23,25,3,16,29,31,14,32,26,135,,1.7,0.8,1.3*32
2017-12-31 16:52:01 1514757121.344775: $GPZDA,215202.00,31,12,2017,00,00*65
2017-12-31 16:52:01 1514757121.344942: $GPGGA,215202,3946.9581,N,08404.9855,W,2,11,0.80,303.74,M,-33.324,M,,*72
2017-12-31 16:52:01 1514757121.345009: $GPRMC,215202,A,3946.9581,N,08404.9855,W,0.0000,0.000,311217,,*3A
2017-12-31 16:52:01 1514757121.345070: $GPGSA,A,3,22,23,25,3,16,29,31,14,32,26,135,,1.7,0.8,1.3*32
2017-12-31 16:52:02 1514757122.344413: $GPZDA,215203.00,31,12,2017,00,00*64
2017-12-31 16:52:02 1514757122.344602: $GPGGA,215203,3946.9581,N,08404.9855,W,2,11,0.80,303.74,M,-33.324,M,,*73
2017-12-31 16:52:02 1514757122.344723: $GPRMC,215203,A,3946.9581,N,08404.9855,W,0.0000,0.000,311217,,*3B
2017-12-31 16:52:02 1514757122.344786: $GPGSA,A,3,22,23,25,3,16,29,31,14,32,26,135,,1.7,0.8,1.3*32
2017-12-31 16:52:03 1514757123.679873: $GPGSV,3,1,11,22,47,247,43,23,22,306,42,25,07,037,29,03,46,280,33*78
2017-12-31 16:52:03 1514757123.680027: $GPGSV,3,2,11,16,39,190,46,29,14,060,27,31,55,045,51,14,45,108,44*78
2017-12-31 16:52:03 1514757123.680092: $GPGSV,3,3,11,32,24,118,44,26,69,157,43,135,22,240,43*7F
2017-12-31 16:52:03 1514757123.793487: $GPZDA,215204.00,31,12,2017,00,00*63
2017-12-31 16:52:03 1514757123.793608: $GPGGA,215204,3946.9581,N,08404.9855,W,2,11,0.80,303.74,M,-33.324,M,,*74
2017-12-31 16:52:03 1514757123.793674: $GPRMC,215204,A,3946.9581,N,08404.9855,W,0.0000,0.000,311217,,*3C
2017-12-31 16:52:03 1514757123.793734: $GPGSA,A,3,22,23,25,3,16,29,31,14,32,26,135,,1.7,0.8,1.3*32
2017-12-31 16:52:04 1514757124.344537: $GPZDA,215205.00,31,12,2017,00,00*62
2017-12-31 16:52:04 1514757124.344708: $GPGGA,215205,3946.9581,N,08404.9855,W,2,11,0.80,303.74,M,-33.324,M,,*75
2017-12-31 16:52:04 1514757124.344774: $GPRMC,215205,A,3946.9581,N,08404.9855,W,0.0000,0.000,311217,,*3D
2017-12-31 16:52:04 1514757124.344835: $GPGSA,A,3,22,23,25,3,16,29,31,14,32,26,135,,1.7,0.8,1.3*32
