2017-12-31 16:45:43 1514756743.226339: {"class":"VERSION","release":"3.16","rev":"3.16-4","proto_major":3,"proto_minor":11}
2017-12-31 16:45:43 1514756743.226692: {"class":"DEVICES","devices":[{"class":"DEVICE","path":"/dev/ttyUSB0","driver":"SiRF","activated":"2017-12-31T21:45:43.185Z","flags":1,"native":1,"bps":4800,"parity":"N","stopbits":1,"cycle":1.00}]}
2017-12-31 16:45:43 1514756743.226796: {"class":"WATCH","enable":true,"json":false,"nmea":true,"raw":0,"scaled":false,"timing":false,"split24":false,"pps":false}
2017-12-31 16:45:43 1514756743.363698: $GPZDA,214544.00,31,12,2017,00,00*61
2017-12-31 16:45:43 1514756743.363882: $GPGGA,214544,3946.9576,N,08404.9848,W,2,11,0.80,303.18,M,-33.324,M,,*78
2017-12-31 16:45:43 1514756743.363949: $GPRMC,214544,A,3946.9576,N,08404.9848,W,0.0000,0.000,311217,,*3A
2017-12-31 16:45:43 1514756743.364010: $GPGSA,A,3,22,23,25,3,16,29,31,14,32,26,135,,1.7,0.8,1.3*32
2017-12-31 16:45:44 1514756744.363029: $GPZDA,214545.00,31,12,2017,00,00*60
2017-12-31 16:45:44 1514756744.363201: $GPGGA,214545,3946.9576,N,08404.9848,W,2,11,0.80,303.18,M,-33.324,M,,*79
2017-12-31 16:45:44 1514756744.363269: $GPRMC,214545,A,3946.9576,N,08404.9848,W,0.0000,0.000,311217,,*3B
2017-12-31 16:45:44 1514756744.363331: $GPGSA,A,3,22,23,25,3,16,29,31,14,32,26,135,,1.7,0.8,1.3*32
2017-12-31 16:45:45 1514756745.680644: $GPGSV,3,1,11,22,49,253,44,23,20,304,42,25,09,039,33,03,45,285,35*7F
2017-12-31 16:45:45 1514756745.680849: $GPGSV,3,2,11,16,35,189,48,29,13,064,26,31,57,042,52,14,48,105,46*74
2017-12-31 16:45:45 1514756745.680937: $GPGSV,3,3,11,32,26,115,42,26,66,162,41,135,22,240,43*7D
2017-12-31 16:45:45 1514756745.794104: $GPZDA,214546.00,31,12,2017,00,00*63
2017-12-31 16:45:45 1514756745.794255: $GPGGA,214546,3946.9576,N,08404.9848,W,2,11,0.80,303.18,M,-33.324,M,,*7A
2017-12-31 16:45:45 1514756745.794321: $GPRMC,214546,A,3946.9576,N,08404.9848,W,0.0000,0.000,311217,,*38
2017-12-31 16:45:45 1514756745.794382: $GPGSA,A,3,22,23,25,3,16,29,31,14,32,26,135,,1.7,0.8,1.3*32
2017-12-31 16:45:46 1514756746.346215: $GPZDA,214547.00,31,12,2017,00,00*62
2017-12-31 16:45:46 1514756746.346388: $GPGGA,214547,3946.9576,N,08404.9848,W,2,11,0.80,303.18,M,-33.324,M,,*7B
2017-12-31 16:45:46 1514756746.346453: $GPRMC,214547,A,3946.9576,N,08404.9848,W,0.0000,0.000,311217,,*39
2017-12-31 16:45:46 1514756746.346512: $GPGSA,A,3,22,23,25,3,16,29,31,14,32,26,135,,1.7,0.8,1.3*32
2017-12-31 16:45:47 1514756747.345808: $GPZDA,214548.00,31,12,2017,00,00*6D
2017-12-31 16:45:47 1514756747.345980: $GPGGA,214548,3946.9576,N,08404.9848,W,2,11,0.80,303.18,M,-33.324,M,,*74
2017-12-31 16:45:47 1514756747.346046: $GPRMC,214548,A,3946.9576,N,08404.9848,W,0.0000,0.000,311217,,*36
2017-12-31 16:45:47 1514756747.346106: $GPGSA,A,3,22,23,25,3,16,29,31,14,32,26,135,,1.7,0.8,1.3*32
2017-12-31 16:45:48 1514756748.690261: $GPGSV,3,1,11,22,49,253,43,23,20,304,42,25,09,039,33,03,45,285,27*7B
2017-12-31 16:45:48 1514756748.690430: $GPGSV,3,2,11,16,35,189,48,29,13,064,20,31,57,042,52,14,48,105,46*72
2017-12-31 16:45:48 1514756748.690495: $GPGSV,3,3,11,32,26,115,43,26,66,162,41,135,22,240,44*7B
2017-12-31 16:45:48 1514756748.803969: $GPZDA,214549.00,31,12,2017,00,00*6C
2017-12-31 16:45:48 1514756748.804115: $GPGGA,214549,3946.9576,N,08404.9848,W,2,11,0.80,303.18,M,-33.324,M,,*75
2017-12-31 16:45:48 1514756748.804181: $GPRMC,214549,A,3946.9576,N,08404.9848,W,0.0000,0.000,311217,,*37
2017-12-31 16:45:48 1514756748.804241: $GPGSA,A,3,22,23,25,3,16,29,31,14,32,26,135,,1.7,0.8,1.3*32
2017-12-31 16:45:49 1514756749.347006: $GPZDA,214550.00,31,12,2017,00,00*64
2017-12-31 16:45:49 1514756749.347240: $GPGGA,214550,3946.9576,N,08404.9848,W,2,11,0.80,303.18,M,-33.324,M,,*7D
2017-12-31 16:45:49 1514756749.347308: $GPRMC,214550,A,3946.9576,N,08404.9848,W,0.0000,0.000,311217,,*3F
2017-12-31 16:45:49 1514756749.347368: $GPGSA,A,3,22,23,25,3,16,29,31,14,32,26,135,,1.7,0.8,1.3*32
2017-12-31 16:45:50 1514756750.338620: $GPZDA,214551.00,31,12,2017,00,00*65
2017-12-31 16:45:50 1514756750.338805: $GPGGA,214551,3946.9576,N,08404.9848,W,2,11,0.80,303.18,M,-33.324,M,,*7C
2017-12-31 16:45:50 1514756750.338932: $GPRMC,214551,A,3946.9576,N,08404.9848,W,0.0000,0.000,311217,,*3E
2017-12-31 16:45:50 1514756750.338995: $GPGSA,A,3,22,23,25,3,16,29,31,14,32,26,135,,1.7,0.8,1.3*32
2017-12-31 16:45:51 1514756751.681894: $GPGSV,3,1,11,22,49,253,44,23,20,304,42,25,09,039,33,03,45,285,36*7C
2017-12-31 16:45:51 1514756751.682056: $GPGSV,3,2,11,16,35,189,48,29,13,064,22,31,57,042,51,14,48,105,46*73
2017-12-31 16:45:51 1514756751.682121: $GPGSV,3,3,11,32,26,115,42,26,66,162,42,135,22,240,44*79
2017-12-31 16:45:51 1514756751.794280: $GPZDA,214552.00,31,12,2017,00,00*66
2017-12-31 16:45:51 1514756751.794410: $GPGGA,214552,3946.9576,N,08404.9848,W,2,11,0.80,303.18,M,-33.324,M,,*7F
2017-12-31 16:45:51 1514756751.794475: $GPRMC,214552,A,3946.9576,N,08404.9848,W,0.0000,0.000,311217,,*3D
2017-12-31 16:45:51 1514756751.794535: $GPGSA,A,3,22,23,25,3,16,29,31,14,32,26,135,,1.7,0.8,1.3*32
2017-12-31 16:45:52 1514756752.361440: $GPZDA,214553.00,31,12,2017,00,00*67
2017-12-31 16:45:52 1514756752.361621: $GPGGA,214553,3946.9576,N,08404.9848,W,2,11,0.80,303.18,M,-33.324,M,,*7E
2017-12-31 16:45:52 1514756752.361688: $GPRMC,214553,A,3946.9576,N,08404.9848,W,0.0000,0.000,311217,,*3C
2017-12-31 16:45:52 1514756752.361766: $GPGSA,A,3,22,23,25,3,16,29,31,14,32,26,135,,1.7,0.8,1.3*32
