2018-01-12 20:12:28 1515805948.043068: {"class":"VERSION","release":"3.16","rev":"3.16-4","proto_major":3,"proto_minor":11}
2018-01-12 20:12:28 1515805948.043541: {"class":"DEVICES","devices":[{"class":"DEVICE","path":"/dev/ttyUSB0","driver":"SiRF","subtype":"9\u0006GSD4e_4.1.2-P1_RPATCH.05-F-GPS-4R-1510281 11/03/2015 307","activated":"2018-01-13T01:12:27.341Z","flags":1,"native":1,"bps":4800,"parity":"N","stopbits":1,"cycle":1.00}]}
2018-01-12 20:12:28 1515805948.043661: {"class":"WATCH","enable":true,"json":false,"nmea":true,"raw":0,"scaled":false,"timing":false,"split24":false,"pps":false}
2018-01-12 20:12:28 1515805948.536230: $GPGSV,3,1,11,07,58,315,26,08,75,121,17,09,46,226,18,27,45,051,17*7E
2018-01-12 20:12:28 1515805948.536417: $GPGSV,3,2,11,01,01,162,14,30,31,307,00,23,26,189,00,11,22,166,00*79
2018-01-12 20:12:28 1515805948.536485: $GPGSV,3,3,11,16,21,061,00,28,16,261,00,138,38,213,00*73
2018-01-12 20:12:28 1515805948.649929: $GPZDA,011229.00,13,01,2018,00,00*67
2018-01-12 20:12:28 1515805948.650081: $GPGGA,011229,3946.9624,N,08404.9570,W,1,05,2.00,291.03,M,-33.324,M,,*7D
2018-01-12 20:12:28 1515805948.650148: $GPRMC,011229,A,3946.9624,N,08404.9570,W,0.7069,291.282,130118,,*34
2018-01-12 20:12:28 1515805948.650209: $GPGSA,A,3,7,8,9,27,1,,,,,,,,4.8,2.0,4.6*3C
2018-01-12 20:12:29 1515805949.201736: $GPZDA,011230.00,13,01,2018,00,00*6F
2018-01-12 20:12:29 1515805949.201917: $GPGGA,011230,3946.9625,N,08404.9571,W,1,05,2.00,293.83,M,-33.324,M,,*7F
2018-01-12 20:12:29 1515805949.201984: $GPRMC,011230,A,3946.9625,N,08404.9571,W,1.1082,305.660,130118,,*3A
2018-01-12 20:12:29 1515805949.202046: $GPGSA,A,3,7,8,9,27,1,,,,,,,,4.8,2.0,4.6*3C
2018-01-12 20:12:30 1515805950.200807: $GPZDA,011231.00,13,01,2018,00,00*6E
2018-01-12 20:12:30 1515805950.200986: $GPGGA,011231,3946.9630,N,08404.9578,W,1,05,2.00,294.40,M,-33.324,M,,*7B
2018-01-12 20:12:30 1515805950.201053: $GPRMC,011231,A,3946.9630,N,08404.9578,W,1.4230,306.620,130118,,*3F
2018-01-12 20:12:30 1515805950.201114: $GPGSA,A,3,7,8,9,27,1,,,,,,,,4.8,2.0,4.6*3C
2018-01-12 20:12:31 1515805951.539289: $GPGSV,3,1,11,07,58,315,26,08,75,121,16,09,46,226,18,27,45,051,16*7E
2018-01-12 20:12:31 1515805951.539473: $GPGSV,3,2,11,01,01,162,13,30,31,307,00,23,26,189,00,11,22,166,00*7E
2018-01-12 20:12:31 1515805951.539540: $GPGSV,3,3,11,16,21,061,00,28,16,261,00,138,38,213,00*73
2018-01-12 20:12:31 1515805951.651805: $GPZDA,011232.00,13,01,2018,00,00*6D
2018-01-12 20:12:31 1515805951.652053: $GPGGA,011232,3946.9630,N,08404.9592,W,1,05,2.00,294.24,M,-33.324,M,,*7E
2018-01-12 20:12:31 1515805951.652125: $GPRMC,011232,A,3946.9630,N,08404.9592,W,2.2623,292.915,130118,,*3E
2018-01-12 20:12:31 1515805951.652187: $GPGSA,A,3,7,8,9,27,1,,,,,,,,4.8,2.0,4.6*3C
2018-01-12 20:12:32 1515805952.203567: $GPZDA,011233.00,13,01,2018,00,00*6C
2018-01-12 20:12:32 1515805952.207391: $GPGGA,011233,3946.9631,N,08404.9593,W,1,05,2.00,295.64,M,-33.324,M,,*7A
2018-01-12 20:12:32 1515805952.207619: $GPRMC,011233,A,3946.9631,N,08404.9593,W,1.9744,307.071,130118,,*31
2018-01-12 20:12:32 1515805952.207749: $GPGSA,A,3,7,8,9,27,1,,,,,,,,4.8,2.0,4.6*3C
2018-01-12 20:12:33 1515805953.202871: $GPZDA,011234.00,13,01,2018,00,00*6B
2018-01-12 20:12:33 1515805953.203068: $GPGGA,011234,3946.9628,N,08404.9594,W,1,05,2.00,296.41,M,-33.324,M,,*76
2018-01-12 20:12:33 1515805953.203219: $GPRMC,011234,A,3946.9628,N,08404.9594,W,1.7320,292.474,130118,,*3D
2018-01-12 20:12:33 1515805953.203291: $GPGSA,A,3,7,8,9,27,1,,,,,,,,4.8,2.0,4.6*3C
2018-01-12 20:12:33 1515805953.203348: $GPGBS,011234,14.24,M,16.36,M,105.11,M*3E
2018-01-12 20:12:34 1515805954.538529: $GPGSV,3,1,11,07,58,315,26,08,75,121,16,09,46,226,18,27,45,051,16*7E
2018-01-12 20:12:34 1515805954.538700: $GPGSV,3,2,11,01,01,162,12,30,31,307,00,23,26,189,00,11,22,166,00*7F
2018-01-12 20:12:34 1515805954.538765: $GPGSV,3,3,11,16,21,061,00,28,16,261,00,138,38,213,00*73
2018-01-12 20:12:34 1515805954.652406: $GPZDA,011235.00,13,01,2018,00,00*6A
2018-01-12 20:12:34 1515805954.652607: $GPGGA,011235,3946.9624,N,08404.9594,W,1,05,2.00,297.17,M,-33.324,M,,*79
2018-01-12 20:12:34 1515805954.652770: $GPRMC,011235,A,3946.9624,N,08404.9594,W,1.4343,288.678,130118,,*33
2018-01-12 20:12:34 1515805954.652941: $GPGSA,A,3,7,8,9,27,1,,,,,,,,4.8,2.0,4.6*3C
2018-01-12 20:12:35 1515805955.204078: $GPZDA,011236.00,13,01,2018,00,00*69
2018-01-12 20:12:35 1515805955.204250: $GPGGA,011236,3946.9625,N,08404.9588,W,1,05,2.00,298.65,M,-33.324,M,,*7C
2018-01-12 20:12:35 1515805955.204316: $GPRMC,011236,A,3946.9625,N,08404.9588,W,0.9741,296.017,130118,,*36
2018-01-12 20:12:35 1515805955.204393: $GPGSA,A,3,7,8,9,27,1,,,,,,,,4.8,2.0,4.6*3C
2018-01-12 20:12:36 1515805956.203796: $GPZDA,011237.00,13,01,2018,00,00*68
2018-01-12 20:12:36 1515805956.203982: $GPGGA,011237,3946.9622,N,08404.9590,W,1,05,2.00,300.82,M,-33.324,M,,*7A
2018-01-12 20:12:36 1515805956.204049: $GPRMC,011237,A,3946.9622,N,08404.9590,W,1.6695,286.542,130118,,*3B
2018-01-12 20:12:36 1515805956.204132: $GPGSA,A,3,7,8,9,27,1,,,,,,,,4.8,2.0,4.6*3C
2018-01-12 20:12:37 1515805957.539682: $GPGSV,3,1,11,07,58,315,26,08,75,121,15,09,46,226,19,27,45,051,16*7C
2018-01-12 20:12:37 1515805957.539878: $GPGSV,3,2,11,01,01,162,12,28,16,261,04,30,31,307,00,23,26,189,00*72
2018-01-12 20:12:37 1515805957.539946: $GPGSV,3,3,11,11,22,166,00,16,21,061,00,138,38,213,00*7A
2018-01-12 20:12:37 1515805957.653557: $GPZDA,011238.00,13,01,2018,00,00*67
2018-01-12 20:12:37 1515805957.653758: $GPGGA,011238,3946.9618,N,08404.9590,W,1,04,2.00,301.59,M,-33.324,M,,*7A
2018-01-12 20:12:37 1515805957.653831: $GPRMC,011238,A,3946.9618,N,08404.9590,W,2.1964,288.424,130118,,*37
2018-01-12 20:12:37 1515805957.653897: $GPGSA,A,3,7,8,9,27,,,,,,,,,4.8,2.0,4.6*0D
2018-01-12 20:12:38 1515805958.195914: $GPRMC,011239,V,3946.9620,N,08404.9598,W,2.1964,288.424,130118,,*22
2018-01-12 20:12:38 1515805958.196117: $GPGSA,A,1,7,8,9,27,,,,,,,,,,,,*01
2018-01-12 20:12:39 1515805959.196775: $GPRMC,011240,V,3946.9621,N,08404.9606,W,2.1964,288.424,130118,,*29
2018-01-12 20:12:39 1515805959.196965: $GPGSA,A,1,7,8,9,27,,,,,,,,,,,,*01
2018-01-12 20:12:40 1515805960.540260: $GPGSV,3,1,11,07,58,315,26,08,75,121,09,09,46,226,19,27,45,051,15*72
2018-01-12 20:12:40 1515805960.540445: $GPGSV,3,2,11,01,01,162,09,28,16,261,12,30,31,307,00,23,26,189,00*7F
2018-01-12 20:12:40 1515805960.540512: $GPGSV,3,3,11,11,22,166,00,16,21,061,00,138,38,213,00*7A
2018-01-12 20:12:40 1515805960.653758: $GPZDA,011241.07,13,01,2018,00,00*6E
2018-01-12 20:12:40 1515805960.653957: $GPGGA,011241,3946.9617,N,08404.9600,W,1,05,2.00,306.48,M,-33.324,M,,*77
2018-01-12 20:12:40 1515805960.654029: $GPRMC,011241,A,3946.9617,N,08404.9600,W,1.3838,306.173,130118,,*35
2018-01-12 20:12:40 1515805960.654095: $GPGSA,A,3,7,8,9,27,28,,,,,,,,4.8,2.0,4.6*07
2018-01-12 20:12:40 1515805960.654153: $GPGBS,011241,14.24,M,16.36,M,105.11,M*3C
2018-01-12 20:12:41 1515805961.201775: $GPZDA,011242.07,13,01,2018,00,00*6D
2018-01-12 20:12:41 1515805961.201960: $GPGGA,011242,3946.9619,N,08404.9602,W,1,05,2.00,309.29,M,-33.324,M,,*70
2018-01-12 20:12:41 1515805961.202027: $GPRMC,011242,A,3946.9619,N,08404.9602,W,1.0086,321.078,130118,,*3B
2018-01-12 20:12:41 1515805961.202089: $GPGSA,A,3,7,8,9,27,28,,,,,,,,4.8,2.0,4.6*07
2018-01-12 20:12:41 1515805961.202145: $GPGBS,011242,14.24,M,16.36,M,105.11,M*3F
2018-01-12 20:12:42 1515805962.202725: $GPZDA,011243.00,13,01,2018,00,00*6B
2018-01-12 20:12:42 1515805962.202911: $GPGGA,011243,3946.9609,N,08404.9611,W,1,05,2.00,311.51,M,-33.324,M,,*74
2018-01-12 20:12:42 1515805962.202983: $GPRMC,011243,A,3946.9609,N,08404.9611,W,0.9115,313.725,130118,,*34
2018-01-12 20:12:42 1515805962.203044: $GPGSA,A,3,7,8,9,27,28,,,,,,,,4.8,2.0,4.6*07
2018-01-12 20:12:42 1515805962.203102: $GPGBS,011243,14.24,M,16.36,M,105.11,M*3E
2018-01-12 20:12:43 1515805963.537618: $GPGSV,3,1,11,07,58,315,26,08,75,121,12,09,46,226,20,27,45,051,12*75
2018-01-12 20:12:43 1515805963.537808: $GPGSV,3,2,11,01,01,162,13,30,31,307,00,23,26,189,00,11,22,166,00*7E
2018-01-12 20:12:43 1515805963.537878: $GPGSV,3,3,11,16,21,061,00,28,16,261,00,138,38,213,00*73
2018-01-12 20:12:43 1515805963.651028: $GPZDA,011244.00,13,01,2018,00,00*6C
2018-01-12 20:12:43 1515805963.651232: $GPGGA,011244,3946.9608,N,08404.9603,W,1,05,2.00,310.18,M,-33.324,M,,*7D
2018-01-12 20:12:43 1515805963.651303: $GPRMC,011244,A,3946.9608,N,08404.9603,W,0.5855,345.126,130118,,*36
2018-01-12 20:12:43 1515805963.651364: $GPGSA,A,3,7,8,9,27,1,,,,,,,,4.8,2.0,4.6*3C
2018-01-12 20:12:44 1515805964.202090: $GPZDA,011245.00,13,01,2018,00,00*6D
2018-01-12 20:12:44 1515805964.202261: $GPGGA,011245,3946.9599,N,08404.9596,W,1,05,2.00,308.98,M,-33.324,M,,*79
2018-01-12 20:12:44 1515805964.202329: $GPRMC,011245,A,3946.9599,N,08404.9596,W,0.1987,27.384,130118,,*04
2018-01-12 20:12:44 1515805964.202390: $GPGSA,A,3,7,8,9,27,1,,,,,,,,4.8,2.0,4.6*3C
2018-01-12 20:12:45 1515805965.202219: $GPZDA,011246.00,13,01,2018,00,00*6E
2018-01-12 20:12:45 1515805965.202670: $GPGGA,011246,3946.9594,N,08404.9582,W,1,05,2.00,308.50,M,-33.324,M,,*76
2018-01-12 20:12:45 1515805965.202760: $GPRMC,011246,A,3946.9594,N,08404.9582,W,0.0920,96.430,130118,,*01
2018-01-12 20:12:45 1515805965.202860: $GPGSA,A,3,7,8,9,27,1,,,,,,,,4.8,2.0,4.6*3C
2018-01-12 20:12:46 1515805966.537079: $GPGSV,3,1,11,07,58,315,26,08,75,121,14,09,46,226,20,27,45,051,13*72
2018-01-12 20:12:46 1515805966.537251: $GPGSV,3,2,11,01,01,162,09,30,31,307,00,23,26,189,00,11,22,166,00*75
2018-01-12 20:12:46 1515805966.537318: $GPGSV,3,3,11,16,21,061,00,28,16,261,00,138,38,213,00*73
2018-01-12 20:12:46 1515805966.650747: $GPZDA,011247.00,13,01,2018,00,00*6F
2018-01-12 20:12:46 1515805966.650928: $GPGGA,011247,3946.9590,N,08404.9575,W,1,04,2.00,307.94,M,-33.324,M,,*7D
2018-01-12 20:12:46 1515805966.650994: $GPRMC,011247,A,3946.9590,N,08404.9575,W,0.8463,96.136,130118,,*0D
2018-01-12 20:12:46 1515805966.651057: $GPGSA,A,3,7,8,9,27,,,,,,,,,4.8,2.0,4.6*0D
2018-01-12 20:12:47 1515805967.201930: $GPZDA,011248.00,13,01,2018,00,00*60
2018-01-12 20:12:47 1515805967.202103: $GPGGA,011248,3946.9586,N,08404.9562,W,1,04,2.00,308.86,M,-33.324,M,,*7F
2018-01-12 20:12:47 1515805967.202171: $GPRMC,011248,A,3946.9586,N,08404.9562,W,0.3804,70.286,130118,,*05
2018-01-12 20:12:47 1515805967.202232: $GPGSA,A,3,7,8,9,27,,,,,,,,,4.8,2.0,4.6*0D
