2017-12-31 17:56:06 1514760966.458431: {"class":"VERSION","release":"3.16","rev":"3.16-4","proto_major":3,"proto_minor":11}
2017-12-31 17:56:06 1514760966.458792: {"class":"DEVICES","devices":[{"class":"DEVICE","path":"/dev/ttyUSB0","driver":"SiRF","activated":"2017-12-31T22:56:06.233Z","flags":1,"native":1,"bps":4800,"parity":"N","stopbits":1,"cycle":1.00}]}
2017-12-31 17:56:06 1514760966.458892: {"class":"WATCH","enable":true,"json":false,"nmea":true,"raw":0,"scaled":false,"timing":false,"split24":false,"pps":false}
2017-12-31 17:56:06 1514760966.683186: $GPGSV,3,1,11,22,27,217,43,23,48,309,42,09,15,312,42,03,36,240,46*75
2017-12-31 17:56:06 1514760966.683353: $GPGSV,3,2,11,16,74,192,42,29,08,034,33,14,20,130,26,31,32,070,41*74
2017-12-31 17:56:06 1514760966.683419: $GPGSV,3,3,11,27,17,156,28,26,68,055,49,135,22,240,44*74
2017-12-31 17:56:06 1514760966.797063: $GPZDA,225607.00,31,12,2017,00,00*67
2017-12-31 17:56:06 1514760966.797259: $GPGGA,225607,3946.9567,N,08404.9858,W,2,11,0.60,306.80,M,-33.324,M,,*75
2017-12-31 17:56:06 1514760966.797326: $GPRMC,225607,A,3946.9567,N,08404.9858,W,0.0000,0.000,311217,,*3D
2017-12-31 17:56:06 1514760966.797386: $GPGSA,A,3,22,23,9,3,16,29,14,31,27,26,135,,1.7,0.6,1.3*06
2017-12-31 17:56:07 1514760967.523319: $GPZDA,225608.00,31,12,2017,00,00*68
2017-12-31 17:56:07 1514760967.523487: $GPGGA,225608,3946.9567,N,08404.9858,W,2,11,0.60,306.80,M,-33.324,M,,*7A
2017-12-31 17:56:07 1514760967.523553: $GPRMC,225608,A,3946.9567,N,08404.9858,W,0.0000,0.000,311217,,*32
2017-12-31 17:56:07 1514760967.523614: $GPGSA,A,3,22,23,9,3,16,29,14,31,27,26,135,,1.7,0.6,1.3*06
2017-12-31 17:56:07 1514760967.523672: $GPGBS,225608,2.22,M,3.43,M,7.66,M*34
2017-12-31 17:56:08 1514760968.345488: $GPZDA,225609.00,31,12,2017,00,00*69
2017-12-31 17:56:08 1514760968.345644: $GPGGA,225609,3946.9567,N,08404.9858,W,2,11,0.60,306.80,M,-33.324,M,,*7B
2017-12-31 17:56:08 1514760968.345710: $GPRMC,225609,A,3946.9567,N,08404.9858,W,0.0000,0.000,311217,,*33
2017-12-31 17:56:08 1514760968.345771: $GPGSA,A,3,22,23,9,3,16,29,14,31,27,26,135,,1.7,0.6,1.3*06
2017-12-31 17:56:08 1514760968.345829: $GPGBS,225609,2.22,M,3.43,M,7.66,M*35
2017-12-31 17:56:09 1514760969.707190: $GPGSV,3,1,11,22,27,217,42,23,48,309,42,09,15,312,42,03,36,240,46*74
2017-12-31 17:56:09 1514760969.707351: $GPGSV,3,2,11,16,74,192,42,29,08,034,34,14,20,130,29,31,32,070,43*7E
2017-12-31 17:56:09 1514760969.707415: $GPGSV,3,3,11,27,17,156,21,26,68,055,49,135,22,240,44*7D
2017-12-31 17:56:09 1514760969.819653: $GPZDA,225610.00,31,12,2017,00,00*61
2017-12-31 17:56:09 1514760969.819812: $GPGGA,225610,3946.9567,N,08404.9865,W,2,11,0.60,306.72,M,-33.324,M,,*70
2017-12-31 17:56:09 1514760969.819876: $GPRMC,225610,A,3946.9567,N,08404.9865,W,0.0000,0.000,311217,,*35
2017-12-31 17:56:09 1514760969.819936: $GPGSA,A,3,22,23,9,3,16,29,14,31,27,26,135,,1.7,0.6,1.3*06
2017-12-31 17:56:10 1514760970.446075: $GPZDA,225611.00,31,12,2017,00,00*60
2017-12-31 17:56:10 1514760970.446221: $GPGGA,225611,3946.9567,N,08404.9865,W,2,11,0.60,306.72,M,-33.324,M,,*71
2017-12-31 17:56:10 1514760970.446286: $GPRMC,225611,A,3946.9567,N,08404.9865,W,0.0000,0.000,311217,,*34
2017-12-31 17:56:10 1514760970.446346: $GPGSA,A,3,22,23,9,3,16,29,14,31,27,26,135,,1.7,0.6,1.3*06
2017-12-31 17:56:11 1514760971.345539: $GPZDA,225612.00,31,12,2017,00,00*63
2017-12-31 17:56:11 1514760971.345706: $GPGGA,225612,3946.9567,N,08404.9865,W,2,11,0.60,306.72,M,-33.324,M,,*72
2017-12-31 17:56:11 1514760971.345774: $GPRMC,225612,A,3946.9567,N,08404.9865,W,0.0000,0.000,311217,,*37
2017-12-31 17:56:11 1514760971.345835: $GPGSA,A,3,22,23,9,3,16,29,14,31,27,26,135,,1.7,0.6,1.3*06
2017-12-31 17:56:12 1514760972.675023: $GPGSV,3,1,11,22,27,217,42,23,48,309,42,09,15,312,42,03,36,240,46*74
2017-12-31 17:56:12 1514760972.675214: $GPGSV,3,2,11,16,74,192,42,29,08,034,34,14,20,130,27,31,32,070,42*71
2017-12-31 17:56:12 1514760972.675281: $GPGSV,3,3,11,27,17,156,28,26,68,055,50,135,22,240,43*7B
2017-12-31 17:56:12 1514760972.787434: $GPZDA,225613.00,31,12,2017,00,00*62
2017-12-31 17:56:12 1514760972.787586: $GPGGA,225613,3946.9567,N,08404.9865,W,2,11,0.60,306.72,M,-33.324,M,,*73
2017-12-31 17:56:12 1514760972.787697: $GPRMC,225613,A,3946.9567,N,08404.9865,W,0.0000,0.000,311217,,*36
2017-12-31 17:56:12 1514760972.787759: $GPGSA,A,3,22,23,9,3,16,29,14,31,27,26,135,,1.7,0.6,1.3*06
2017-12-31 17:56:13 1514760973.521520: $GPZDA,225614.00,31,12,2017,00,00*65
2017-12-31 17:56:13 1514760973.521705: $GPGGA,225614,3946.9567,N,08404.9865,W,2,11,0.60,306.72,M,-33.324,M,,*74
2017-12-31 17:56:13 1514760973.521771: $GPRMC,225614,A,3946.9567,N,08404.9865,W,0.0000,0.000,311217,,*31
2017-12-31 17:56:13 1514760973.521831: $GPGSA,A,3,22,23,9,3,16,29,14,31,27,26,135,,1.7,0.6,1.3*06
2017-12-31 17:56:13 1514760973.521889: $GPGBS,225614,2.22,M,3.43,M,7.66,M*39
2017-12-31 17:56:14 1514760974.346126: $GPZDA,225615.00,31,12,2017,00,00*64
2017-12-31 17:56:14 1514760974.346278: $GPGGA,225615,3946.9567,N,08404.9865,W,2,11,0.60,306.72,M,-33.324,M,,*75
2017-12-31 17:56:14 1514760974.346343: $GPRMC,225615,A,3946.9567,N,08404.9865,W,0.0000,0.000,311217,,*30
2017-12-31 17:56:14 1514760974.346404: $GPGSA,A,3,22,23,9,3,16,29,14,31,27,26,135,,1.7,0.6,1.3*06
2017-12-31 17:56:14 1514760974.346462: $GPGBS,225615,2.22,M,3.43,M,7.66,M*38
2017-12-31 17:56:15 1514760975.681085: $GPGSV,3,1,11,22,27,217,43,23,48,309,42,09,15,312,42,03,36,240,46*75
2017-12-31 17:56:15 1514760975.681237: $GPGSV,3,2,11,16,74,192,43,29,08,034,34,14,20,130,27,31,32,070,42*70
2017-12-31 17:56:15 1514760975.681303: $GPGSV,3,3,11,27,17,156,29,26,68,055,49,135,22,240,44*75
2017-12-31 17:56:15 1514760975.794677: $GPZDA,225616.00,31,12,2017,00,00*67
2017-12-31 17:56:15 1514760975.794821: $GPGGA,225616,3946.9567,N,08404.9865,W,2,11,0.60,306.72,M,-33.324,M,,*76
2017-12-31 17:56:15 1514760975.794886: $GPRMC,225616,A,3946.9567,N,08404.9865,W,0.0000,0.000,311217,,*33
2017-12-31 17:56:15 1514760975.794947: $GPGSA,A,3,22,23,9,3,16,29,14,31,27,26,135,,1.7,0.6,1.3*06
2017-12-31 17:56:16 1514760976.371561: $GPZDA,225617.00,31,12,2017,00,00*66
2017-12-31 17:56:16 1514760976.371735: $GPGGA,225617,3946.9567,N,08404.9865,W,2,11,0.60,306.72,M,-33.324,M,,*77
2017-12-31 17:56:16 1514760976.371816: $GPRMC,225617,A,3946.9567,N,08404.9865,W,0.0000,0.000,311217,,*32
2017-12-31 17:56:16 1514760976.371877: $GPGSA,A,3,22,23,9,3,16,29,14,31,27,26,135,,1.7,0.6,1.3*06
