2017-12-01 13:17:51 1512152271.986786: {"class":"VERSION","release":"3.16","rev":"3.16-4","proto_major":3,"proto_minor":11}
2017-12-01 13:17:51 1512152271.987226: {"class":"DEVICES","devices":[{"class":"DEVICE","path":"/dev/ttyUSB0","driver":"SiRF","subtype":"9\u0006GSD4e_4.1.2-P1_RPATCH.05-F-GPS-4R-1510281 11/03/2015 307","activated":"2017-12-01T18:17:51.893Z","flags":1,"native":1,"bps":4800,"parity":"N","stopbits":1,"cycle":1.00}]}
2017-12-01 13:17:51 1512152271.987356: {"class":"WATCH","enable":true,"json":false,"nmea":true,"raw":0,"scaled":false,"timing":false,"split24":false,"pps":false}
2017-12-01 13:17:52 1512152272.005761: $GPZDA,181752.70,01,12,2017,00,00*6F
2017-12-01 13:17:52 1512152272.005890: $GPGGA,181752,3946.9523,N,08404.9852,W,1,11,1.00,327.57,M,-33.324,M,,*7E
2017-12-01 13:17:52 1512152272.005955: $GPRMC,181752,A,3946.9523,N,08404.9852,W,0.5230,76.443,011217,,*0E
2017-12-01 13:17:52 1512152272.006015: $GPGSA,A,3,8,10,15,18,20,21,24,27,32,13,138,,2.0,1.0,1.5*3A
2017-12-01 13:17:53 1512152273.088475: $GPZDA,181753.38,01,12,2017,00,00*62
2017-12-01 13:17:53 1512152273.088649: $GPGGA,181753,3946.9538,N,08404.9847,W,1,11,1.00,320.94,M,-33.324,M,,*79
2017-12-01 13:17:53 1512152273.088716: $GPRMC,181753,A,3946.9538,N,08404.9847,W,0.1567,189.200,011217,,*30
2017-12-01 13:17:53 1512152273.088777: $GPGSA,A,3,8,10,15,18,20,21,24,27,32,13,138,,2.0,1.0,1.5*3A
2017-12-01 13:17:53 1512152273.088835: $GPGBS,181753,10.70,M,15.43,M,35.28,M*0E
2017-12-01 13:17:54 1512152274.229820: $GPGSV,3,1,12,08,07,319,40,10,44,303,45,15,35,054,47,18,73,345,43*70
2017-12-01 13:17:54 1512152274.229997: $GPGSV,3,2,12,20,31,097,47,21,60,187,46,24,52,105,46,27,18,286,33*78
2017-12-01 13:17:54 1512152274.230062: $GPGSV,3,3,12,32,23,240,42,13,05,049,08,14,06,234,00,138,38,213,00*4F
2017-12-01 13:17:54 1512152274.343224: $GPZDA,181754.00,01,12,2017,00,00*6E
2017-12-01 13:17:54 1512152274.343357: $GPGGA,181754,3946.9542,N,08404.9847,W,1,09,1.00,320.17,M,-33.324,M,,*71
2017-12-01 13:17:54 1512152274.343420: $GPRMC,181754,A,3946.9542,N,08404.9847,W,0.1867,0.000,011217,,*35
2017-12-01 13:17:54 1512152274.343479: $GPGSA,A,3,8,10,15,18,20,21,24,27,32,,,,2.0,1.0,1.5*02
2017-12-01 13:17:54 1512152274.795627: $GPZDA,181755.00,01,12,2017,00,00*6F
2017-12-01 13:17:54 1512152274.795794: $GPGGA,181755,3946.9545,N,08404.9846,W,1,09,0.80,319.41,M,-33.324,M,,*76
2017-12-01 13:17:54 1512152274.795859: $GPRMC,181755,A,3946.9545,N,08404.9846,W,0.1867,0.000,011217,,*32
2017-12-01 13:17:54 1512152274.795920: $GPGSA,A,3,8,10,15,18,20,21,24,27,32,,,,2.0,0.8,1.5*0B
2017-12-01 13:17:55 1512152275.398922: $GPZDA,181756.00,01,12,2017,00,00*6C
2017-12-01 13:17:55 1512152275.399085: $GPGGA,181756,3946.9545,N,08404.9846,W,1,09,0.80,319.41,M,-33.324,M,,*75
2017-12-01 13:17:55 1512152275.399152: $GPRMC,181756,A,3946.9545,N,08404.9846,W,0.0000,0.000,011217,,*39
2017-12-01 13:17:55 1512152275.399212: $GPGSA,A,3,8,10,15,18,20,21,24,27,32,,,,2.0,0.8,1.5*0B
2017-12-01 13:17:56 1512152276.732668: $GPGSV,3,1,12,08,07,319,40,10,44,303,45,15,35,054,48,18,73,345,43*7F
2017-12-01 13:17:56 1512152276.732851: $GPGSV,3,2,12,20,31,097,46,21,60,187,45,24,52,105,46,27,18,286,36*7F
2017-12-01 13:17:56 1512152276.732938: $GPGSV,3,3,12,32,23,240,42,13,05,049,27,14,06,234,00,138,38,213,47*41
2017-12-01 13:17:56 1512152276.846297: $GPZDA,181757.00,01,12,2017,00,00*6D
2017-12-01 13:17:56 1512152276.846456: $GPGGA,181757,3946.9545,N,08404.9852,W,1,11,0.80,317.92,M,-33.324,M,,*78
2017-12-01 13:17:56 1512152276.846521: $GPRMC,181757,A,3946.9545,N,08404.9852,W,0.0000,0.000,011217,,*3D
2017-12-01 13:17:56 1512152276.846582: $GPGSA,A,3,8,10,15,18,20,21,24,27,32,13,138,,2.0,0.8,1.5*33
2017-12-01 13:17:57 1512152277.399669: $GPZDA,181758.00,01,12,2017,00,00*62
2017-12-01 13:17:57 1512152277.399837: $GPGGA,181758,3946.9548,N,08404.9852,W,1,11,0.80,317.16,M,-33.324,M,,*76
2017-12-01 13:17:57 1512152277.399903: $GPRMC,181758,A,3946.9548,N,08404.9852,W,0.0000,0.000,011217,,*3F
2017-12-01 13:17:57 1512152277.399964: $GPGSA,A,3,8,10,15,18,20,21,24,27,32,13,138,,2.0,0.8,1.5*33
2017-12-01 13:17:58 1512152278.396675: $GPZDA,181759.00,01,12,2017,00,00*63
2017-12-01 13:17:58 1512152278.396838: $GPGGA,181759,3946.9548,N,08404.9852,W,1,11,0.80,317.16,M,-33.324,M,,*77
2017-12-01 13:17:58 1512152278.396905: $GPRMC,181759,A,3946.9548,N,08404.9852,W,0.0000,0.000,011217,,*3E
2017-12-01 13:17:58 1512152278.396966: $GPGSA,A,3,8,10,15,18,20,21,24,27,32,13,138,,2.0,0.8,1.5*33
2017-12-01 13:17:58 1512152278.397024: $GPGBS,181759,10.70,M,15.43,M,35.28,M*04
2017-12-01 13:17:59 1512152279.734611: $GPGSV,3,1,12,08,07,319,40,10,44,303,45,15,35,054,48,18,73,345,43*7F
2017-12-01 13:17:59 1512152279.734795: $GPGSV,3,2,12,20,31,097,46,21,60,187,45,24,52,105,47,27,18,286,36*7E
2017-12-01 13:17:59 1512152279.734882: $GPGSV,3,3,12,32,23,240,42,13,05,049,27,14,06,234,00,138,38,213,48*4E
2017-12-01 13:17:59 1512152279.847987: $GPZDA,181800.00,01,12,2017,00,00*60
2017-12-01 13:17:59 1512152279.848181: $GPGGA,181800,3946.9560,N,08404.9846,W,2,11,1.20,309.89,M,-33.324,M,,*7A
2017-12-01 13:17:59 1512152279.848251: $GPRMC,181800,A,3946.9560,N,08404.9846,W,0.0000,0.000,011217,,*32
2017-12-01 13:17:59 1512152279.848312: $GPGSA,A,3,8,10,15,18,20,21,24,27,32,13,138,,2.0,1.2,1.5*38
2017-12-01 13:18:00 1512152280.398886: $GPZDA,181801.00,01,12,2017,00,00*61
2017-12-01 13:18:00 1512152280.399063: $GPGGA,181801,3946.9570,N,08404.9851,W,2,11,1.20,306.11,M,-33.324,M,,*72
2017-12-01 13:18:00 1512152280.399132: $GPRMC,181801,A,3946.9570,N,08404.9851,W,0.0000,0.000,011217,,*34
2017-12-01 13:18:00 1512152280.399193: $GPGSA,A,3,8,10,15,18,20,21,24,27,32,13,138,,2.0,1.2,1.5*38
2017-12-01 13:18:01 1512152281.402049: $GPZDA,181802.00,01,12,2017,00,00*62
2017-12-01 13:18:01 1512152281.402211: $GPGGA,181802,3946.9570,N,08404.9851,W,2,11,1.20,306.11,M,-33.324,M,,*71
2017-12-01 13:18:01 1512152281.402278: $GPRMC,181802,A,3946.9570,N,08404.9851,W,0.0000,0.000,011217,,*37
2017-12-01 13:18:01 1512152281.402338: $GPGSA,A,3,8,10,15,18,20,21,24,27,32,13,138,,2.0,1.2,1.5*38
