2017-11-15 19:20:06 1510791606.874664: {"class":"VERSION","release":"3.17","rev":"3.17","proto_major":3,"proto_minor":12}
2017-11-15 19:20:06 1510791606.875200: {"class":"DEVICES","devices":[{"class":"DEVICE","path":"/dev/ttyUSB0","driver":"SiRF","subtype":"9\u0006GSD4e_4.1.2-P1_RPATCH.05-F-GPS-4R-1510281 11/03/2015 307","activated":"2017-11-16T00:20:06.816Z","flags":1,"native":1,"bps":4800,"parity":"N","stopbits":1,"cycle":1.00}]}
2017-11-15 19:20:06 1510791606.875319: {"class":"WATCH","enable":true,"json":false,"nmea":true,"raw":0,"scaled":false,"timing":false,"split24":false,"pps":false}
2017-11-15 19:20:07 1510791607.331747: $GPZDA,002006.00,16,11,2017,00,00*61
2017-11-15 19:20:07 1510791607.331918: $GPGGA,002006,3946.9639,N,08404.9521,W,1,08,1.20,281.30,M,-33.324,M,,*75
2017-11-15 19:20:07 1510791607.331985: $GPRMC,002006,A,3946.9639,N,08404.9521,W,0.5951,238.684,161117,,*3B
2017-11-15 19:20:07 1510791607.332042: $GPGSA,A,3,32,14,22,26,31,29,3,23,,,,,3.4,1.2,2.9*06
2017-11-15 19:20:08 1510791608.346291: $GPZDA,002007.00,16,11,2017,00,00*60
2017-11-15 19:20:08 1510791608.346459: $GPGGA,002007,3946.9639,N,08404.9521,W,1,08,1.20,281.30,M,-33.324,M,,*74
2017-11-15 19:20:08 1510791608.346522: $GPRMC,002007,A,3946.9639,N,08404.9521,W,1.0018,230.691,161117,,*36
2017-11-15 19:20:08 1510791608.346578: $GPGSA,A,3,32,14,22,26,31,29,3,23,,,,,3.4,1.2,2.9*06
2017-11-15 19:20:09 1510791609.683215: $GPGSV,3,1,11,32,39,103,26,14,58,085,20,22,50,277,19,26,48,174,25*73
2017-11-15 19:20:09 1510791609.683396: $GPGSV,3,2,11,31,71,016,24,29,09,075,16,03,37,304,11,25,21,042,00*78
2017-11-15 19:20:09 1510791609.683478: $GPGSV,3,3,11,16,18,190,00,23,08,298,10,01,08,256,00*4C
2017-11-15 19:20:09 1510791609.796500: $GPZDA,002008.00,16,11,2017,00,00*6F
2017-11-15 19:20:09 1510791609.796658: $GPGGA,002008,3946.9640,N,08404.9528,W,1,08,1.40,281.22,M,-33.324,M,,*79
2017-11-15 19:20:09 1510791609.796808: $GPRMC,002008,A,3946.9640,N,08404.9528,W,0.5951,238.684,161117,,*32
2017-11-15 19:20:09 1510791609.796881: $GPGSA,A,3,32,14,22,26,31,29,3,23,,,,,3.4,1.4,2.9*00
2017-11-15 19:20:10 1510791610.331403: $GPZDA,002009.00,16,11,2017,00,00*6E
2017-11-15 19:20:10 1510791610.331565: $GPGGA,002009,3946.9640,N,08404.9528,W,1,08,1.20,281.22,M,-33.324,M,,*7E
2017-11-15 19:20:10 1510791610.331627: $GPRMC,002009,A,3946.9640,N,08404.9528,W,0.4844,273.794,161117,,*38
2017-11-15 19:20:10 1510791610.331682: $GPGSA,A,3,32,14,22,26,31,29,3,23,,,,,3.4,1.2,2.9*06
2017-11-15 19:20:11 1510791611.345279: $GPZDA,002010.00,16,11,2017,00,00*66
2017-11-15 19:20:11 1510791611.345448: $GPGGA,002010,3946.9640,N,08404.9528,W,1,08,1.20,281.22,M,-33.324,M,,*76
2017-11-15 19:20:11 1510791611.345511: $GPRMC,002010,A,3946.9640,N,08404.9528,W,0.3006,242.539,161117,,*3E
2017-11-15 19:20:11 1510791611.345567: $GPGSA,A,3,32,14,22,26,31,29,3,23,,,,,3.4,1.2,2.9*06
2017-11-15 19:20:12 1510791612.666045: $GPGSV,3,1,11,32,39,103,26,14,58,085,21,22,50,277,19,26,48,174,25*72
2017-11-15 19:20:12 1510791612.666217: $GPGSV,3,2,11,31,71,016,24,29,09,075,16,03,37,304,00,25,21,042,00*78
2017-11-15 19:20:12 1510791612.666277: $GPGSV,3,3,11,16,18,190,00,23,08,298,10,01,08,256,00*4C
2017-11-15 19:20:12 1510791612.779342: $GPZDA,002011.00,16,11,2017,00,00*67
2017-11-15 19:20:12 1510791612.779525: $GPGGA,002011,3946.9640,N,08404.9528,W,1,07,1.20,281.22,M,-33.324,M,,*78
2017-11-15 19:20:12 1510791612.779589: $GPRMC,002011,A,3946.9640,N,08404.9528,W,0.3155,309.994,161117,,*3D
2017-11-15 19:20:12 1510791612.779645: $GPGSA,A,3,32,14,22,26,31,29,23,,,,,,3.4,1.2,2.9*35
2017-11-15 19:20:13 1510791613.346782: $GPZDA,002012.00,16,11,2017,00,00*64
2017-11-15 19:20:13 1510791613.346960: $GPGGA,002012,3946.9640,N,08404.9528,W,1,07,1.20,281.22,M,-33.324,M,,*7B
2017-11-15 19:20:13 1510791613.347021: $GPRMC,002012,A,3946.9640,N,08404.9528,W,0.4844,273.794,161117,,*32
2017-11-15 19:20:13 1510791613.347077: $GPGSA,A,3,32,14,22,26,31,29,23,,,,,,3.4,1.2,2.9*35
2017-11-15 19:20:14 1510791614.346116: $GPZDA,002013.00,16,11,2017,00,00*65
2017-11-15 19:20:14 1510791614.346290: $GPGGA,002013,3946.9637,N,08404.9536,W,1,07,1.20,281.90,M,-33.324,M,,*7C
2017-11-15 19:20:14 1510791614.346421: $GPRMC,002013,A,3946.9637,N,08404.9536,W,0.7576,261.915,161117,,*37
2017-11-15 19:20:14 1510791614.346482: $GPGSA,A,3,32,14,22,26,31,29,23,,,,,,3.4,1.2,2.9*35
2017-11-15 19:20:15 1510791615.665622: $GPGSV,3,1,11,32,39,103,26,14,58,085,22,22,50,277,19,26,48,174,25*71
2017-11-15 19:20:15 1510791615.665794: $GPGSV,3,2,11,31,71,016,24,29,09,075,16,03,37,304,00,25,21,042,00*78
2017-11-15 19:20:15 1510791615.665858: $GPGSV,3,3,11,16,18,190,00,23,08,298,04,01,08,256,00*49
2017-11-15 19:20:15 1510791615.779006: $GPZDA,002014.00,16,11,2017,00,00*62
2017-11-15 19:20:15 1510791615.779220: $GPGGA,002014,3946.9637,N,08404.9536,W,1,06,1.60,281.90,M,-33.324,M,,*7E
2017-11-15 19:20:15 1510791615.779289: $GPRMC,002014,A,3946.9637,N,08404.9536,W,0.8054,248.645,161117,,*3B
2017-11-15 19:20:15 1510791615.779350: $GPGSA,A,3,32,14,22,26,31,29,,,,,,,3.4,1.6,2.9*30
2017-11-15 19:20:16 1510791616.404335: $GPZDA,002015.00,16,11,2017,00,00*63
2017-11-15 19:20:16 1510791616.404501: $GPGGA,002015,3946.9637,N,08404.9543,W,1,06,1.60,281.83,M,-33.324,M,,*7F
2017-11-15 19:20:16 1510791616.404584: $GPRMC,002015,A,3946.9637,N,08404.9543,W,1.0018,230.691,161117,,*3F
2017-11-15 19:20:16 1510791616.404643: $GPGSA,A,3,32,14,22,26,31,29,,,,,,,3.4,1.6,2.9*30
