2017-12-31 17:50:39 1514760639.347874: {"class":"VERSION","release":"3.16","rev":"3.16-4","proto_major":3,"proto_minor":11}
2017-12-31 17:50:39 1514760639.348335: {"class":"DEVICES","devices":[{"class":"DEVICE","path":"/dev/ttyUSB0","driver":"SiRF","activated":"2017-12-31T22:50:39.232Z","flags":1,"native":1,"bps":4800,"parity":"N","stopbits":1,"cycle":1.00}]}
2017-12-31 17:50:39 1514760639.348456: {"class":"WATCH","enable":true,"json":false,"nmea":true,"raw":0,"scaled":false,"timing":false,"split24":false,"pps":false}
2017-12-31 17:50:39 1514760639.681590: $GPGSV,3,1,12,22,29,220,45,23,46,309,46,09,13,312,41,03,38,243,45*7B
2017-12-31 17:50:39 1514760639.681740: $GPGSV,3,2,12,16,71,192,43,29,09,036,34,14,22,129,32,31,34,069,42*75
2017-12-31 17:50:39 1514760639.681806: $GPGSV,3,3,12,27,15,157,27,32,01,133,00,26,70,060,47,135,22,240,44*4B
2017-12-31 17:50:39 1514760639.794973: $GPZDA,225040.00,31,12,2017,00,00*62
2017-12-31 17:50:39 1514760639.795128: $GPGGA,225040,3946.9567,N,08404.9864,W,2,11,0.60,305.31,M,-33.324,M,,*76
2017-12-31 17:50:39 1514760639.795193: $GPRMC,225040,A,3946.9567,N,08404.9864,W,0.0000,0.000,311217,,*37
2017-12-31 17:50:39 1514760639.795254: $GPGSA,A,3,22,23,9,3,16,29,14,31,27,26,135,,1.7,0.6,1.3*06
2017-12-31 17:50:40 1514760640.420340: $GPZDA,225041.00,31,12,2017,00,00*63
2017-12-31 17:50:40 1514760640.420537: $GPGGA,225041,3946.9567,N,08404.9864,W,2,11,0.60,305.31,M,-33.324,M,,*77
2017-12-31 17:50:40 1514760640.420606: $GPRMC,225041,A,3946.9567,N,08404.9864,W,0.0000,0.000,311217,,*36
2017-12-31 17:50:40 1514760640.420667: $GPGSA,A,3,22,23,9,3,16,29,14,31,27,26,135,,1.7,0.6,1.3*06
2017-12-31 17:50:41 1514760641.346206: $GPZDA,225042.00,31,12,2017,00,00*60
2017-12-31 17:50:41 1514760641.346411: $GPGGA,225042,3946.9567,N,08404.9864,W,2,11,0.60,305.31,M,-33.324,M,,*74
2017-12-31 17:50:41 1514760641.346480: $GPRMC,225042,A,3946.9567,N,08404.9864,W,0.0000,0.000,311217,,*35
2017-12-31 17:50:41 1514760641.346574: $GPGSA,A,3,22,23,9,3,16,29,14,31,27,26,135,,1.7,0.6,1.3*06
2017-12-31 17:50:42 1514760642.706951: $GPGSV,3,1,12,22,29,220,45,23,46,309,46,09,13,312,40,03,38,243,45*7A
2017-12-31 17:50:42 1514760642.707197: $GPGSV,3,2,12,16,71,192,43,29,09,036,34,14,22,129,32,31,34,069,41*76
2017-12-31 17:50:42 1514760642.707272: $GPGSV,3,3,12,27,15,157,26,32,01,133,00,26,70,060,48,135,22,240,44*45
2017-12-31 17:50:42 1514760642.820308: $GPZDA,225043.00,31,12,2017,00,00*61
2017-12-31 17:50:42 1514760642.820466: $GPGGA,225043,3946.9567,N,08404.9864,W,2,11,0.60,305.31,M,-33.324,M,,*75
2017-12-31 17:50:42 1514760642.820549: $GPRMC,225043,A,3946.9567,N,08404.9864,W,0.0000,0.000,311217,,*34
2017-12-31 17:50:42 1514760642.820611: $GPGSA,A,3,22,23,9,3,16,29,14,31,27,26,135,,1.7,0.6,1.3*06
2017-12-31 17:50:43 1514760643.566213: $GPZDA,225044.00,31,12,2017,00,00*66
2017-12-31 17:50:43 1514760643.566399: $GPGGA,225044,3946.9567,N,08404.9864,W,2,11,0.60,305.31,M,-33.324,M,,*72
2017-12-31 17:50:43 1514760643.566467: $GPRMC,225044,A,3946.9567,N,08404.9864,W,0.0000,0.000,311217,,*33
2017-12-31 17:50:43 1514760643.566547: $GPGSA,A,3,22,23,9,3,16,29,14,31,27,26,135,,1.7,0.6,1.3*06
2017-12-31 17:50:43 1514760643.566607: $GPGBS,225044,2.22,M,3.43,M,7.66,M*3A
2017-12-31 17:50:44 1514760644.363287: $GPZDA,225045.00,31,12,2017,00,00*67
2017-12-31 17:50:44 1514760644.363505: $GPGGA,225045,3946.9567,N,08404.9864,W,2,11,0.60,305.31,M,-33.324,M,,*73
2017-12-31 17:50:44 1514760644.363576: $GPRMC,225045,A,3946.9567,N,08404.9864,W,0.0000,0.000,311217,,*32
2017-12-31 17:50:44 1514760644.363639: $GPGSA,A,3,22,23,9,3,16,29,14,31,27,26,135,,1.7,0.6,1.3*06
2017-12-31 17:50:44 1514760644.363697: $GPGBS,225045,2.22,M,3.43,M,7.66,M*3B
2017-12-31 17:50:45 1514760645.681145: $GPGSV,3,1,12,22,29,220,45,23,46,309,46,09,13,312,41,03,37,243,45*74
2017-12-31 17:50:45 1514760645.681302: $GPGSV,3,2,12,16,71,192,43,29,09,036,34,14,22,129,32,31,34,069,41*76
2017-12-31 17:50:45 1514760645.681389: $GPGSV,3,3,12,27,15,157,26,32,01,133,00,26,70,058,47,135,22,240,44*41
2017-12-31 17:50:45 1514760645.794651: $GPZDA,225046.00,31,12,2017,00,00*64
2017-12-31 17:50:45 1514760645.794850: $GPGGA,225046,3946.9567,N,08404.9864,W,2,11,0.60,305.31,M,-33.324,M,,*70
2017-12-31 17:50:45 1514760645.794918: $GPRMC,225046,A,3946.9567,N,08404.9864,W,0.0000,0.000,311217,,*31
2017-12-31 17:50:45 1514760645.794979: $GPGSA,A,3,22,23,9,3,16,29,14,31,27,26,135,,1.7,0.6,1.3*06
2017-12-31 17:50:46 1514760646.346795: $GPZDA,225047.00,31,12,2017,00,00*65
2017-12-31 17:50:46 1514760646.346959: $GPGGA,225047,3946.9567,N,08404.9864,W,2,11,0.60,305.31,M,-33.324,M,,*71
2017-12-31 17:50:46 1514760646.347025: $GPRMC,225047,A,3946.9567,N,08404.9864,W,0.0000,0.000,311217,,*30
2017-12-31 17:50:46 1514760646.347087: $GPGSA,A,3,22,23,9,3,16,29,14,31,27,26,135,,1.7,0.6,1.3*06
2017-12-31 17:50:47 1514760647.346168: $GPZDA,225048.00,31,12,2017,00,00*6A
2017-12-31 17:50:47 1514760647.346403: $GPGGA,225048,3946.9567,N,08404.9864,W,2,11,0.60,305.31,M,-33.324,M,,*7E
2017-12-31 17:50:47 1514760647.346504: $GPRMC,225048,A,3946.9567,N,08404.9864,W,0.0000,0.000,311217,,*3F
2017-12-31 17:50:47 1514760647.346567: $GPGSA,A,3,22,23,9,3,16,29,14,31,27,26,135,,1.7,0.6,1.3*06
2017-12-31 17:50:48 1514760648.680648: $GPGSV,3,1,11,22,29,220,45,23,46,309,45,09,13,312,42,03,37,243,45*77
2017-12-31 17:50:48 1514760648.680820: $GPGSV,3,2,11,16,71,192,44,29,09,036,34,31,34,069,42,27,15,157,27*78
2017-12-31 17:50:48 1514760648.680886: $GPGSV,3,3,11,14,22,129,00,26,70,058,47,135,22,240,44*7A
2017-12-31 17:50:48 1514760648.794260: $GPZDA,225049.00,31,12,2017,00,00*6B
2017-12-31 17:50:48 1514760648.794478: $GPGGA,225049,3946.9567,N,08404.9864,W,2,10,0.80,305.31,M,-33.324,M,,*70
2017-12-31 17:50:48 1514760648.794547: $GPRMC,225049,A,3946.9567,N,08404.9864,W,0.0000,0.000,311217,,*3E
2017-12-31 17:50:48 1514760648.794608: $GPGSA,A,3,22,23,9,3,16,29,31,27,26,135,,,1.7,0.8,1.3*0D
