2017-12-31 16:56:24 1514757384.595576: {"class":"VERSION","release":"3.16","rev":"3.16-4","proto_major":3,"proto_minor":11}
2017-12-31 16:56:24 1514757384.595924: {"class":"DEVICES","devices":[{"class":"DEVICE","path":"/dev/ttyUSB0","driver":"SiRF","activated":"2017-12-31T21:56:24.246Z","flags":1,"native":1,"bps":4800,"parity":"N","stopbits":1,"cycle":1.00}]}
2017-12-31 16:56:24 1514757384.596022: {"class":"WATCH","enable":true,"json":false,"nmea":true,"raw":0,"scaled":false,"timing":false,"split24":false,"pps":false}
2017-12-31 16:56:24 1514757384.696173: $GPGSV,3,1,11,22,47,246,36,23,24,306,28,25,05,037,08,03,46,277,37*7C
2017-12-31 16:56:24 1514757384.696353: $GPGSV,3,2,11,16,41,190,41,29,14,060,26,31,53,046,48,14,44,109,35*7A
2017-12-31 16:56:24 1514757384.696418: $GPGSV,3,3,11,32,22,120,39,26,70,154,39,135,22,240,40*7D
2017-12-31 16:56:24 1514757384.809544: $GPZDA,215625.00,31,12,2017,00,00*64
2017-12-31 16:56:24 1514757384.809695: $GPGGA,215625,3946.9584,N,08404.9862,W,2,11,1.00,302.90,M,-33.324,M,,*70
2017-12-31 16:56:24 1514757384.809761: $GPRMC,215625,A,3946.9584,N,08404.9862,W,0.0000,0.000,311217,,*3A
2017-12-31 16:56:24 1514757384.809820: $GPGSA,A,3,22,23,25,3,16,29,31,14,32,26,135,,1.7,1.0,1.3*3B
2017-12-31 16:56:25 1514757385.434928: $GPZDA,215626.00,31,12,2017,00,00*67
2017-12-31 16:56:25 1514757385.435097: $GPGGA,215626,3946.9584,N,08404.9862,W,2,11,1.00,302.90,M,-33.324,M,,*73
2017-12-31 16:56:25 1514757385.435163: $GPRMC,215626,A,3946.9584,N,08404.9862,W,0.0000,0.000,311217,,*39
2017-12-31 16:56:25 1514757385.435223: $GPGSA,A,3,22,23,25,3,16,29,31,14,32,26,135,,1.7,1.0,1.3*3B
2017-12-31 16:56:26 1514757386.344560: $GPZDA,215627.00,31,12,2017,00,00*66
2017-12-31 16:56:26 1514757386.344728: $GPGGA,215627,3946.9584,N,08404.9862,W,2,11,0.80,302.90,M,-33.324,M,,*7B
2017-12-31 16:56:26 1514757386.344795: $GPRMC,215627,A,3946.9584,N,08404.9862,W,0.0000,0.000,311217,,*38
2017-12-31 16:56:26 1514757386.344854: $GPGSA,A,3,22,23,25,3,16,29,31,14,32,26,135,,1.7,0.8,1.3*32
2017-12-31 16:56:27 1514757387.679015: $GPGSV,3,1,11,22,47,246,40,23,24,306,35,25,05,037,09,03,46,277,39*7E
2017-12-31 16:56:27 1514757387.679192: $GPGSV,3,2,11,16,41,190,45,29,14,060,27,31,53,046,49,14,44,109,40*7C
2017-12-31 16:56:27 1514757387.679257: $GPGSV,3,3,11,32,22,120,43,26,70,154,43,135,22,240,43*7E
2017-12-31 16:56:27 1514757387.792365: $GPZDA,215628.00,31,12,2017,00,00*69
2017-12-31 16:56:27 1514757387.792493: $GPGGA,215628,3946.9584,N,08404.9862,W,2,11,0.80,302.90,M,-33.324,M,,*74
2017-12-31 16:56:27 1514757387.792557: $GPRMC,215628,A,3946.9584,N,08404.9862,W,0.0000,0.000,311217,,*37
2017-12-31 16:56:27 1514757387.792618: $GPGSA,A,3,22,23,25,3,16,29,31,14,32,26,135,,1.7,0.8,1.3*32
2017-12-31 16:56:28 1514757388.359533: $GPZDA,215629.00,31,12,2017,00,00*68
2017-12-31 16:56:28 1514757388.359695: $GPGGA,215629,3946.9584,N,08404.9862,W,2,11,0.80,302.90,M,-33.324,M,,*75
2017-12-31 16:56:28 1514757388.359762: $GPRMC,215629,A,3946.9584,N,08404.9862,W,0.0000,0.000,311217,,*36
2017-12-31 16:56:28 1514757388.359822: $GPGSA,A,3,22,23,25,3,16,29,31,14,32,26,135,,1.7,0.8,1.3*32
2017-12-31 16:56:29 1514757389.360394: $GPZDA,215630.00,31,12,2017,00,00*60
2017-12-31 16:56:29 1514757389.360554: $GPGGA,215630,3946.9584,N,08404.9862,W,2,11,0.80,302.90,M,-33.324,M,,*7D
2017-12-31 16:56:29 1514757389.360620: $GPRMC,215630,A,3946.9584,N,08404.9862,W,0.0000,0.000,311217,,*3E
2017-12-31 16:56:29 1514757389.360680: $GPGSA,A,3,22,23,25,3,16,29,31,14,32,26,135,,1.7,0.8,1.3*32
2017-12-31 16:56:30 1514757390.688110: $GPGSV,3,1,11,22,47,246,40,23,24,306,38,25,05,037,13,03,46,277,39*78
2017-12-31 16:56:30 1514757390.688290: $GPGSV,3,2,11,16,41,190,46,29,14,060,28,31,53,046,50,14,44,109,40*78
2017-12-31 16:56:30 1514757390.688354: $GPGSV,3,3,11,32,22,120,43,26,70,154,44,135,22,240,43*79
2017-12-31 16:56:30 1514757390.801446: $GPZDA,215631.00,31,12,2017,00,00*61
2017-12-31 16:56:30 1514757390.801579: $GPGGA,215631,3946.9584,N,08404.9862,W,2,11,0.80,302.90,M,-33.324,M,,*7C
2017-12-31 16:56:30 1514757390.801643: $GPRMC,215631,A,3946.9584,N,08404.9862,W,0.0000,0.000,311217,,*3F
2017-12-31 16:56:30 1514757390.801756: $GPGSA,A,3,22,23,25,3,16,29,31,14,32,26,135,,1.7,0.8,1.3*32
2017-12-31 16:56:31 1514757391.344877: $GPZDA,215632.00,31,12,2017,00,00*62
2017-12-31 16:56:31 1514757391.345053: $GPGGA,215632,3946.9584,N,08404.9862,W,2,11,0.80,302.90,M,-33.324,M,,*7F
2017-12-31 16:56:31 1514757391.345119: $GPRMC,215632,A,3946.9584,N,08404.9862,W,0.0000,0.000,311217,,*3C
2017-12-31 16:56:31 1514757391.345180: $GPGSA,A,3,22,23,25,3,16,29,31,14,32,26,135,,1.7,0.8,1.3*32
2017-12-31 16:56:32 1514757392.343230: $GPZDA,215633.00,31,12,2017,00,00*63
2017-12-31 16:56:32 1514757392.343400: $GPGGA,215633,3946.9584,N,08404.9862,W,2,11,0.80,302.90,M,-33.324,M,,*7E
2017-12-31 16:56:32 1514757392.343467: $GPRMC,215633,A,3946.9584,N,08404.9862,W,0.0000,0.000,311217,,*3D
2017-12-31 16:56:32 1514757392.343528: $GPGSA,A,3,22,23,25,3,16,29,31,14,32,26,135,,1.7,0.8,1.3*32
2017-12-31 16:56:33 1514757393.678950: $GPGSV,3,1,11,22,47,246,41,23,24,306,37,25,05,037,13,03,46,277,39*76
2017-12-31 16:56:33 1514757393.679127: $GPGSV,3,2,11,16,41,190,46,29,14,060,23,31,53,046,51,14,44,109,40*72
2017-12-31 16:56:33 1514757393.679194: $GPGSV,3,3,11,32,22,120,44,26,70,154,44,135,22,240,42*7F
2017-12-31 16:56:33 1514757393.792300: $GPZDA,215634.00,31,12,2017,00,00*64
2017-12-31 16:56:33 1514757393.792438: $GPGGA,215634,3946.9584,N,08404.9862,W,2,11,0.80,302.90,M,-33.324,M,,*79
2017-12-31 16:56:33 1514757393.792502: $GPRMC,215634,A,3946.9584,N,08404.9862,W,0.0000,0.000,311217,,*3A
2017-12-31 16:56:33 1514757393.792562: $GPGSA,A,3,22,23,25,3,16,29,31,14,32,26,135,,1.7,0.8,1.3*32
2017-12-31 16:56:34 1514757394.360717: $GPZDA,215635.00,31,12,2017,00,00*65
2017-12-31 16:56:34 1514757394.360899: $GPGGA,215635,3946.9584,N,08404.9862,W,2,11,0.80,302.90,M,-33.324,M,,*78
2017-12-31 16:56:34 1514757394.360988: $GPRMC,215635,A,3946.9584,N,08404.9862,W,0.0000,0.000,311217,,*3B
2017-12-31 16:56:34 1514757394.361052: $GPGSA,A,3,22,23,25,3,16,29,31,14,32,26,135,,1.7,0.8,1.3*32
