2017-12-01 13:45:51 1512153951.317241: {"class":"VERSION","release":"3.16","rev":"3.16-4","proto_major":3,"proto_minor":11}
2017-12-01 13:45:51 1512153951.317608: {"class":"DEVICES","devices":[{"class":"DEVICE","path":"/dev/ttyUSB0","driver":"SiRF","subtype":"9\u0006GSD4e_4.1.2-P1_RPATCH.05-F-GPS-4R-1510281 11/03/2015 307","activated":"2017-12-01T18:45:51.219Z","flags":1,"native":1,"bps":4800,"parity":"N","stopbits":1,"cycle":1.00}]}
2017-12-01 13:45:51 1512153951.317720: {"class":"WATCH","enable":true,"json":false,"nmea":true,"raw":0,"scaled":false,"timing":false,"split24":false,"pps":false}
2017-12-01 13:45:51 1512153951.361573: $GPZDA,184552.00,01,12,2017,00,00*6F
2017-12-01 13:45:51 1512153951.361748: $GPGGA,184552,3946.9555,N,08404.9835,W,2,11,0.80,301.54,M,-33.324,M,,*74
2017-12-01 13:45:51 1512153951.361815: $GPRMC,184552,A,3946.9555,N,08404.9835,W,0.0000,0.000,011217,,*3F
2017-12-01 13:45:51 1512153951.361877: $GPGSA,A,3,10,14,15,18,20,21,24,27,32,8,138,,2.0,0.8,1.5*34
2017-12-01 13:45:52 1512153952.693066: $GPGSV,3,1,11,10,54,313,48,14,16,241,34,15,24,058,45,18,77,031,43*76
2017-12-01 13:45:52 1512153952.693253: $GPGSV,3,2,11,20,22,108,46,21,47,181,44,24,53,082,47,27,15,274,42*76
2017-12-01 13:45:52 1512153952.693318: $GPGSV,3,3,11,32,33,249,43,08,08,309,20,138,38,213,46*7B
2017-12-01 13:45:52 1512153952.807357: $GPZDA,184553.00,01,12,2017,00,00*6E
2017-12-01 13:45:52 1512153952.807530: $GPGGA,184553,3946.9555,N,08404.9835,W,2,11,0.80,301.54,M,-33.324,M,,*75
2017-12-01 13:45:52 1512153952.807596: $GPRMC,184553,A,3946.9555,N,08404.9835,W,0.0000,0.000,011217,,*3E
2017-12-01 13:45:52 1512153952.807657: $GPGSA,A,3,10,14,15,18,20,21,24,27,32,8,138,,2.0,0.8,1.5*34
2017-12-01 13:45:53 1512153953.431861: $GPZDA,184554.00,01,12,2017,00,00*69
2017-12-01 13:45:53 1512153953.432042: $GPGGA,184554,3946.9555,N,08404.9835,W,2,11,0.80,301.54,M,-33.324,M,,*72
2017-12-01 13:45:53 1512153953.432109: $GPRMC,184554,A,3946.9555,N,08404.9835,W,0.0000,0.000,011217,,*39
2017-12-01 13:45:53 1512153953.432170: $GPGSA,A,3,10,14,15,18,20,21,24,27,32,8,138,,2.0,0.8,1.5*34
2017-12-01 13:45:54 1512153954.331459: $GPZDA,184555.00,01,12,2017,00,00*68
2017-12-01 13:45:54 1512153954.331633: $GPGGA,184555,3946.9555,N,08404.9835,W,2,11,0.80,301.54,M,-33.324,M,,*73
2017-12-01 13:45:54 1512153954.331700: $GPRMC,184555,A,3946.9555,N,08404.9835,W,0.0000,0.000,011217,,*38
2017-12-01 13:45:54 1512153954.331761: $GPGSA,A,3,10,14,15,18,20,21,24,27,32,8,138,,2.0,0.8,1.5*34
2017-12-01 13:45:55 1512153955.669679: $GPGSV,3,1,11,10,54,313,48,14,16,241,34,15,24,058,45,18,77,031,43*76
2017-12-01 13:45:55 1512153955.669860: $GPGSV,3,2,11,20,22,108,46,21,47,181,44,24,53,082,47,27,15,274,41*75
2017-12-01 13:45:55 1512153955.669928: $GPGSV,3,3,11,32,33,249,43,08,08,309,28,138,38,213,46*73
2017-12-01 13:45:55 1512153955.783248: $GPZDA,184556.00,01,12,2017,00,00*6B
2017-12-01 13:45:55 1512153955.783420: $GPGGA,184556,3946.9555,N,08404.9835,W,2,11,0.80,301.54,M,-33.324,M,,*70
2017-12-01 13:45:55 1512153955.783486: $GPRMC,184556,A,3946.9555,N,08404.9835,W,0.0000,0.000,011217,,*3B
2017-12-01 13:45:55 1512153955.783546: $GPGSA,A,3,10,14,15,18,20,21,24,27,32,8,138,,2.0,0.8,1.5*34
2017-12-01 13:45:56 1512153956.327698: $GPZDA,184557.00,01,12,2017,00,00*6A
2017-12-01 13:45:56 1512153956.327872: $GPGGA,184557,3946.9555,N,08404.9835,W,2,11,0.80,301.54,M,-33.324,M,,*71
2017-12-01 13:45:56 1512153956.327938: $GPRMC,184557,A,3946.9555,N,08404.9835,W,0.0000,0.000,011217,,*3A
2017-12-01 13:45:56 1512153956.327999: $GPGSA,A,3,10,14,15,18,20,21,24,27,32,8,138,,2.0,0.8,1.5*34
2017-12-01 13:45:57 1512153957.331070: $GPZDA,184558.00,01,12,2017,00,00*65
2017-12-01 13:45:57 1512153957.331252: $GPGGA,184558,3946.9555,N,08404.9835,W,2,11,0.80,301.54,M,-33.324,M,,*7E
2017-12-01 13:45:57 1512153957.331318: $GPRMC,184558,A,3946.9555,N,08404.9835,W,0.0000,0.000,011217,,*35
2017-12-01 13:45:57 1512153957.331454: $GPGSA,A,3,10,14,15,18,20,21,24,27,32,8,138,,2.0,0.8,1.5*34
2017-12-01 13:45:58 1512153958.692554: $GPGSV,3,1,11,10,54,313,48,14,16,241,35,15,24,058,45,18,77,031,43*77
2017-12-01 13:45:58 1512153958.692815: $GPGSV,3,2,11,20,22,108,46,21,47,181,44,24,53,082,47,27,15,274,41*75
2017-12-01 13:45:58 1512153958.692887: $GPGSV,3,3,11,32,33,249,42,08,08,309,22,138,38,213,46*78
2017-12-01 13:45:58 1512153958.805907: $GPZDA,184559.00,01,12,2017,00,00*64
2017-12-01 13:45:58 1512153958.806054: $GPGGA,184559,3946.9555,N,08404.9835,W,2,11,0.80,301.54,M,-33.324,M,,*7F
2017-12-01 13:45:58 1512153958.806121: $GPRMC,184559,A,3946.9555,N,08404.9835,W,0.0000,0.000,011217,,*34
2017-12-01 13:45:58 1512153958.806182: $GPGSA,A,3,10,14,15,18,20,21,24,27,32,8,138,,2.0,0.8,1.5*34
2017-12-01 13:45:59 1512153959.358667: $GPZDA,184600.00,01,12,2017,00,00*6B
2017-12-01 13:45:59 1512153959.358839: $GPGGA,184600,3946.9555,N,08404.9835,W,2,11,0.80,301.54,M,-33.324,M,,*70
2017-12-01 13:45:59 1512153959.358906: $GPRMC,184600,A,3946.9555,N,08404.9835,W,0.0000,0.000,011217,,*3B
2017-12-01 13:45:59 1512153959.358968: $GPGSA,A,3,10,14,15,18,20,21,24,27,32,8,138,,2.0,0.8,1.5*34
2017-12-01 13:46:00 1512153960.333483: $GPZDA,184601.00,01,12,2017,00,00*6A
2017-12-01 13:46:00 1512153960.333656: $GPGGA,184601,3946.9555,N,08404.9835,W,2,11,0.80,301.54,M,-33.324,M,,*71
2017-12-01 13:46:00 1512153960.333724: $GPRMC,184601,A,3946.9555,N,08404.9835,W,0.0000,0.000,011217,,*3A
2017-12-01 13:46:00 1512153960.333785: $GPGSA,A,3,10,14,15,18,20,21,24,27,32,8,138,,2.0,0.8,1.5*34
