2018-01-12 04:10:29 1515748229.093730: {"class":"VERSION","release":"3.16","rev":"3.16-4","proto_major":3,"proto_minor":11}
2018-01-12 04:10:29 1515748229.094094: {"class":"DEVICES","devices":[{"class":"DEVICE","path":"/dev/ttyUSB0","driver":"SiRF","subtype":"9\u0006GSD4e_4.1.2-P1_RPATCH.05-F-GPS-4R-1510281 11/03/2015 307","activated":"2018-01-12T09:10:28.967Z","flags":1,"native":1,"bps":4800,"parity":"N","stopbits":1,"cycle":1.00}]}
2018-01-12 04:10:29 1515748229.094271: {"class":"WATCH","enable":true,"json":false,"nmea":true,"raw":0,"scaled":false,"timing":false,"split24":false,"pps":false}
2018-01-12 04:10:29 1515748229.370459: $GPZDA,091030.00,12,01,2018,00,00*64
2018-01-12 04:10:29 1515748229.370633: $GPGGA,091030,3946.9653,N,08404.9734,W,2,09,1.00,300.19,M,-33.324,M,,*73
2018-01-12 04:10:29 1515748229.370699: $GPRMC,091030,A,3946.9653,N,08404.9734,W,0.1867,0.000,120118,,*37
2018-01-12 04:10:29 1515748229.370760: $GPGSA,A,3,2,5,6,12,25,29,17,19,138,,,,2.4,1.0,2.1*3C
2018-01-12 04:10:30 1515748230.367852: $GPZDA,091031.00,12,01,2018,00,00*65
2018-01-12 04:10:30 1515748230.368050: $GPGGA,091031,3946.9652,N,08404.9728,W,2,09,1.00,300.27,M,-33.324,M,,*73
2018-01-12 04:10:30 1515748230.368118: $GPRMC,091031,A,3946.9652,N,08404.9728,W,0.1867,0.000,120118,,*3A
2018-01-12 04:10:30 1515748230.368180: $GPGSA,A,3,2,5,6,12,25,29,17,19,138,,,,2.4,1.0,2.1*3C
2018-01-12 04:10:31 1515748231.728444: $GPGSV,3,1,12,02,71,330,44,05,44,198,49,06,51,049,46,12,53,261,46*7B
2018-01-12 04:10:31 1515748231.728648: $GPGSV,3,2,12,25,30,306,42,29,07,304,46,09,19,072,02,17,18,117,29*70
2018-01-12 04:10:31 1515748231.728713: $GPGSV,3,3,12,19,36,111,22,23,07,040,00,04,51,277,00,138,38,213,48*4B
2018-01-12 04:10:31 1515748231.842042: $GPZDA,091032.00,12,01,2018,00,00*66
2018-01-12 04:10:31 1515748231.842211: $GPGGA,091032,3946.9652,N,08404.9728,W,2,09,1.00,300.27,M,-33.324,M,,*70
2018-01-12 04:10:31 1515748231.842276: $GPRMC,091032,A,3946.9652,N,08404.9728,W,0.0000,0.000,120118,,*31
2018-01-12 04:10:31 1515748231.842337: $GPGSA,A,3,2,5,6,12,25,29,17,19,138,,,,2.4,1.0,2.1*3C
2018-01-12 04:10:32 1515748232.372858: $GPZDA,091033.00,12,01,2018,00,00*67
2018-01-12 04:10:32 1515748232.373029: $GPGGA,091033,3946.9652,N,08404.9728,W,2,09,1.00,300.27,M,-33.324,M,,*71
2018-01-12 04:10:32 1515748232.373099: $GPRMC,091033,A,3946.9652,N,08404.9728,W,0.0000,0.000,120118,,*30
2018-01-12 04:10:32 1515748232.373162: $GPGSA,A,3,2,5,6,12,25,29,17,19,138,,,,2.4,1.0,2.1*3C
2018-01-12 04:10:33 1515748233.372152: $GPZDA,091034.00,12,01,2018,00,00*60
2018-01-12 04:10:33 1515748233.372339: $GPGGA,091034,3946.9652,N,08404.9728,W,2,09,1.00,300.27,M,-33.324,M,,*76
2018-01-12 04:10:33 1515748233.372409: $GPRMC,091034,A,3946.9652,N,08404.9728,W,0.0000,0.000,120118,,*37
2018-01-12 04:10:33 1515748233.372473: $GPGSA,A,3,2,5,6,12,25,29,17,19,138,,,,2.4,1.0,2.1*3C
2018-01-12 04:10:34 1515748234.728811: $GPGSV,3,1,12,02,71,330,44,05,44,198,49,06,51,049,46,12,53,261,46*7B
2018-01-12 04:10:34 1515748234.728979: $GPGSV,3,2,12,25,30,306,43,29,07,304,47,09,19,072,16,17,18,117,30*7D
2018-01-12 04:10:34 1515748234.729047: $GPGSV,3,3,12,19,36,111,18,23,07,040,00,04,51,277,00,138,38,213,48*42
2018-01-12 04:10:34 1515748234.842339: $GPZDA,091035.00,12,01,2018,00,00*61
2018-01-12 04:10:34 1515748234.842511: $GPGGA,091035,3946.9652,N,08404.9728,W,2,10,1.00,300.27,M,-33.324,M,,*7F
2018-01-12 04:10:34 1515748234.842580: $GPRMC,091035,A,3946.9652,N,08404.9728,W,0.0000,0.000,120118,,*36
2018-01-12 04:10:34 1515748234.842644: $GPGSA,A,3,2,5,6,12,25,29,9,17,19,138,,,2.4,1.0,2.1*05
2018-01-12 04:10:35 1515748235.388391: $GPZDA,091036.00,12,01,2018,00,00*62
2018-01-12 04:10:35 1515748235.388537: $GPGGA,091036,3946.9652,N,08404.9728,W,2,10,1.00,300.27,M,-33.324,M,,*7C
2018-01-12 04:10:35 1515748235.388605: $GPRMC,091036,A,3946.9652,N,08404.9728,W,0.0000,0.000,120118,,*35
2018-01-12 04:10:35 1515748235.388669: $GPGSA,A,3,2,5,6,12,25,29,9,17,19,138,,,2.4,1.0,2.1*05
2018-01-12 04:10:36 1515748236.373050: $GPZDA,091037.00,12,01,2018,00,00*63
2018-01-12 04:10:36 1515748236.373224: $GPGGA,091037,3946.9652,N,08404.9728,W,2,10,1.00,300.27,M,-33.324,M,,*7D
2018-01-12 04:10:36 1515748236.373348: $GPRMC,091037,A,3946.9652,N,08404.9728,W,0.0000,0.000,120118,,*34
2018-01-12 04:10:36 1515748236.373411: $GPGSA,A,3,2,5,6,12,25,29,9,17,19,138,,,2.4,1.0,2.1*05
2018-01-12 04:10:37 1515748237.727172: $GPGSV,3,1,12,02,71,330,44,05,44,198,49,06,51,049,47,12,53,261,46*7A
2018-01-12 04:10:37 1515748237.727380: $GPGSV,3,2,12,25,30,306,43,29,07,304,47,09,19,072,14,17,18,117,30*7F
2018-01-12 04:10:37 1515748237.727451: $GPGSV,3,3,12,19,36,111,15,23,07,040,00,04,51,277,00,138,38,213,48*4F
2018-01-12 04:10:37 1515748237.840873: $GPZDA,091038.00,12,01,2018,00,00*6C
2018-01-12 04:10:37 1515748237.841046: $GPGGA,091038,3946.9657,N,08404.9728,W,2,10,1.00,300.91,M,-33.324,M,,*7A
2018-01-12 04:10:37 1515748237.841115: $GPRMC,091038,A,3946.9657,N,08404.9728,W,0.0000,0.000,120118,,*3E
2018-01-12 04:10:37 1515748237.841179: $GPGSA,A,3,2,5,6,12,25,29,9,17,19,138,,,2.4,1.0,2.1*05
2018-01-12 04:10:38 1515748238.466396: $GPZDA,091039.00,12,01,2018,00,00*6D
2018-01-12 04:10:38 1515748238.466606: $GPGGA,091039,3946.9657,N,08404.9728,W,2,10,1.00,300.91,M,-33.324,M,,*7B
2018-01-12 04:10:38 1515748238.466699: $GPRMC,091039,A,3946.9657,N,08404.9728,W,0.0000,0.000,120118,,*3F
2018-01-12 04:10:38 1515748238.466784: $GPGSA,A,3,2,5,6,12,25,29,9,17,19,138,,,2.4,1.0,2.1*05
2018-01-12 04:10:39 1515748239.373468: $GPZDA,091040.00,12,01,2018,00,00*63
2018-01-12 04:10:39 1515748239.373659: $GPGGA,091040,3946.9657,N,08404.9728,W,2,10,1.00,300.91,M,-33.324,M,,*75
2018-01-12 04:10:39 1515748239.373746: $GPRMC,091040,A,3946.9657,N,08404.9728,W,0.0000,0.000,120118,,*31
2018-01-12 04:10:39 1515748239.373811: $GPGSA,A,3,2,5,6,12,25,29,9,17,19,138,,,2.4,1.0,2.1*05
2018-01-12 04:10:40 1515748240.723774: $GPGSV,3,1,12,02,71,330,44,05,44,198,50,06,51,049,47,12,53,261,46*72
2018-01-12 04:10:40 1515748240.723942: $GPGSV,3,2,12,25,30,306,43,29,07,304,47,09,19,072,13,17,18,117,30*78
2018-01-12 04:10:40 1515748240.724012: $GPGSV,3,3,12,19,36,111,15,23,07,040,00,04,51,277,00,138,38,213,47*40
2018-01-12 04:10:40 1515748240.837177: $GPZDA,091041.00,12,01,2018,00,00*62
2018-01-12 04:10:40 1515748240.837355: $GPGGA,091041,3946.9657,N,08404.9728,W,2,10,1.00,300.91,M,-33.324,M,,*74
2018-01-12 04:10:40 1515748240.837426: $GPRMC,091041,A,3946.9657,N,08404.9728,W,0.0000,0.000,120118,,*30
2018-01-12 04:10:40 1515748240.837491: $GPGSA,A,3,2,5,6,12,25,29,9,17,19,138,,,2.4,1.0,2.1*05
2018-01-12 04:10:41 1515748241.388078: $GPZDA,091042.00,12,01,2018,00,00*61
2018-01-12 04:10:41 1515748241.388235: $GPGGA,091042,3946.9657,N,08404.9728,W,2,10,1.00,300.91,M,-33.324,M,,*77
2018-01-12 04:10:41 1515748241.388306: $GPRMC,091042,A,3946.9657,N,08404.9728,W,0.0000,0.000,120118,,*33
2018-01-12 04:10:41 1515748241.388370: $GPGSA,A,3,2,5,6,12,25,29,9,17,19,138,,,2.4,1.0,2.1*05
2018-01-12 04:10:42 1515748242.392907: $GPZDA,091043.00,12,01,2018,00,00*60
2018-01-12 04:10:42 1515748242.393080: $GPGGA,091043,3946.9658,N,08404.9735,W,2,10,1.00,302.23,M,-33.324,M,,*7E
2018-01-12 04:10:42 1515748242.393150: $GPRMC,091043,A,3946.9658,N,08404.9735,W,0.1867,0.000,120118,,*39
2018-01-12 04:10:42 1515748242.393214: $GPGSA,A,3,2,5,6,12,25,29,9,17,19,138,,,2.4,1.0,2.1*05
2018-01-12 04:10:43 1515748243.729129: $GPGSV,3,1,12,02,71,330,43,05,44,198,49,06,51,049,47,12,53,261,46*7D
2018-01-12 04:10:43 1515748243.729291: $GPGSV,3,2,12,25,30,306,42,29,07,304,47,09,19,072,02,17,18,117,30*79
2018-01-12 04:10:43 1515748243.729359: $GPGSV,3,3,12,19,36,111,16,23,07,040,00,04,51,277,00,138,38,213,46*42
2018-01-12 04:10:43 1515748243.842962: $GPZDA,091044.00,12,01,2018,00,00*67
2018-01-12 04:10:43 1515748243.843135: $GPGGA,091044,3946.9658,N,08404.9735,W,2,09,1.00,302.23,M,-33.324,M,,*71
2018-01-12 04:10:43 1515748243.843205: $GPRMC,091044,A,3946.9658,N,08404.9735,W,0.0000,0.000,120118,,*36
2018-01-12 04:10:43 1515748243.843269: $GPGSA,A,3,2,5,6,12,25,29,17,19,138,,,,2.4,1.0,2.1*3C
2018-01-12 04:10:44 1515748244.366498: $GPZDA,091045.00,12,01,2018,00,00*66
2018-01-12 04:10:44 1515748244.366732: $GPGGA,091045,3946.9658,N,08404.9735,W,2,09,1.00,302.23,M,-33.324,M,,*70
2018-01-12 04:10:44 1515748244.366863: $GPRMC,091045,A,3946.9658,N,08404.9735,W,0.0000,0.000,120118,,*37
2018-01-12 04:10:44 1515748244.366942: $GPGSA,A,3,2,5,6,12,25,29,17,19,138,,,,2.4,1.0,2.1*3C
2018-01-12 04:10:45 1515748245.390756: $GPZDA,091046.00,12,01,2018,00,00*65
2018-01-12 04:10:45 1515748245.390921: $GPGGA,091046,3946.9658,N,08404.9735,W,2,09,1.00,302.23,M,-33.324,M,,*73
2018-01-12 04:10:45 1515748245.390988: $GPRMC,091046,A,3946.9658,N,08404.9735,W,0.0000,0.000,120118,,*34
2018-01-12 04:10:45 1515748245.391049: $GPGSA,A,3,2,5,6,12,25,29,17,19,138,,,,2.4,1.0,2.1*3C
2018-01-12 04:10:46 1515748246.713756: $GPGSV,3,1,12,02,71,330,43,05,44,198,50,06,51,049,48,12,53,261,46*7A
2018-01-12 04:10:46 1515748246.713938: $GPGSV,3,2,12,25,30,306,43,29,07,304,47,09,19,072,19,17,18,117,30*72
2018-01-12 04:10:46 1515748246.714004: $GPGSV,3,3,12,19,36,111,20,23,07,040,00,04,51,277,00,138,38,213,47*46
2018-01-12 04:10:46 1515748246.827237: $GPZDA,091047.00,12,01,2018,00,00*64
2018-01-12 04:10:46 1515748246.827426: $GPGGA,091047,3946.9658,N,08404.9735,W,2,10,1.00,302.23,M,-33.324,M,,*7A
2018-01-12 04:10:46 1515748246.827493: $GPRMC,091047,A,3946.9658,N,08404.9735,W,0.0000,0.000,120118,,*35
2018-01-12 04:10:46 1515748246.827579: $GPGSA,A,3,2,5,6,12,25,29,9,17,19,138,,,2.4,1.0,2.1*05
2018-01-12 04:10:47 1515748247.395761: $GPZDA,091048.00,12,01,2018,00,00*6B
2018-01-12 04:10:47 1515748247.395945: $GPGGA,091048,3946.9658,N,08404.9735,W,2,10,1.00,302.23,M,-33.324,M,,*75
2018-01-12 04:10:47 1515748247.396012: $GPRMC,091048,A,3946.9658,N,08404.9735,W,0.0000,0.000,120118,,*3A
2018-01-12 04:10:47 1515748247.396074: $GPGSA,A,3,2,5,6,12,25,29,9,17,19,138,,,2.4,1.0,2.1*05
2018-01-12 04:10:48 1515748248.393652: $GPZDA,091049.00,12,01,2018,00,00*6A
2018-01-12 04:10:48 1515748248.393841: $GPGGA,091049,3946.9658,N,08404.9735,W,2,10,1.00,302.23,M,-33.324,M,,*74
2018-01-12 04:10:48 1515748248.393909: $GPRMC,091049,A,3946.9658,N,08404.9735,W,0.0000,0.000,120118,,*3B
2018-01-12 04:10:48 1515748248.393970: $GPGSA,A,3,2,5,6,12,25,29,9,17,19,138,,,2.4,1.0,2.1*05
