2017-12-01 13:18:20 1512152300.386622: {"class":"VERSION","release":"3.16","rev":"3.16-4","proto_major":3,"proto_minor":11}
2017-12-01 13:18:20 1512152300.387171: {"class":"DEVICES","devices":[{"class":"DEVICE","path":"/dev/ttyUSB0","driver":"SiRF","subtype":"9\u0006GSD4e_4.1.2-P1_RPATCH.05-F-GPS-4R-1510281 11/03/2015 307","activated":"2017-12-01T18:18:20.284Z","flags":1,"native":1,"bps":4800,"parity":"N","stopbits":1,"cycle":1.00}]}
2017-12-01 13:18:20 1512152300.387308: {"class":"WATCH","enable":true,"json":false,"nmea":true,"raw":0,"scaled":false,"timing":false,"split24":false,"pps":false}
2017-12-01 13:18:20 1512152300.733521: $GPGSV,3,1,12,08,07,319,43,10,44,303,46,15,35,054,48,18,73,345,43*7F
2017-12-01 13:18:20 1512152300.733705: $GPGSV,3,2,12,20,31,097,46,21,60,187,46,24,52,105,47,14,06,234,00*7E
2017-12-01 13:18:20 1512152300.733772: $GPGSV,3,3,12,32,23,240,41,13,05,049,27,27,18,286,25,138,38,213,46*42
2017-12-01 13:18:20 1512152300.847160: $GPZDA,181821.00,01,12,2017,00,00*63
2017-12-01 13:18:20 1512152300.847285: $GPGGA,181821,3946.9581,N,08404.9856,W,2,11,1.00,305.14,M,-33.324,M,,*7D
2017-12-01 13:18:20 1512152300.847350: $GPRMC,181821,A,3946.9581,N,08404.9856,W,0.0000,0.000,011217,,*3F
2017-12-01 13:18:20 1512152300.847409: $GPGSA,A,3,8,10,15,18,20,21,24,32,13,27,138,,2.0,1.0,1.5*3A
2017-12-01 13:18:21 1512152301.472400: $GPZDA,181822.00,01,12,2017,00,00*60
2017-12-01 13:18:21 1512152301.472580: $GPGGA,181822,3946.9581,N,08404.9856,W,2,11,1.00,305.14,M,-33.324,M,,*7E
2017-12-01 13:18:21 1512152301.472649: $GPRMC,181822,A,3946.9581,N,08404.9856,W,0.0000,0.000,011217,,*3C
2017-12-01 13:18:21 1512152301.472711: $GPGSA,A,3,8,10,15,18,20,21,24,32,13,27,138,,2.0,1.0,1.5*3A
2017-12-01 13:18:22 1512152302.403189: $GPZDA,181823.00,01,12,2017,00,00*61
2017-12-01 13:18:22 1512152302.403369: $GPGGA,181823,3946.9581,N,08404.9856,W,2,11,1.00,305.14,M,-33.324,M,,*7F
2017-12-01 13:18:22 1512152302.403436: $GPRMC,181823,A,3946.9581,N,08404.9856,W,0.0000,0.000,011217,,*3D
2017-12-01 13:18:22 1512152302.403498: $GPGSA,A,3,8,10,15,18,20,21,24,32,13,27,138,,2.0,1.0,1.5*3A
2017-12-01 13:18:23 1512152303.737725: $GPGSV,3,1,12,08,07,319,43,10,44,303,46,15,35,054,48,18,73,345,43*7F
2017-12-01 13:18:23 1512152303.737902: $GPGSV,3,2,12,20,31,097,46,21,60,187,46,24,52,105,47,14,06,234,00*7E
2017-12-01 13:18:23 1512152303.737970: $GPGSV,3,3,12,32,23,240,41,13,05,049,27,27,18,286,26,138,38,213,46*41
2017-12-01 13:18:23 1512152303.851335: $GPZDA,181824.00,01,12,2017,00,00*66
2017-12-01 13:18:23 1512152303.851554: $GPGGA,181824,3946.9581,N,08404.9856,W,2,11,1.00,305.14,M,-33.324,M,,*78
2017-12-01 13:18:23 1512152303.851618: $GPRMC,181824,A,3946.9581,N,08404.9856,W,0.0000,0.000,011217,,*3A
2017-12-01 13:18:23 1512152303.851679: $GPGSA,A,3,8,10,15,18,20,21,24,32,13,27,138,,2.0,1.0,1.5*3A
2017-12-01 13:18:24 1512152304.920144: $GPZDA,181825.00,01,12,2017,00,00*67
2017-12-01 13:18:24 1512152304.920325: $GPGGA,181825,3946.9581,N,08404.9855,W,2,11,1.00,303.74,M,-33.324,M,,*7A
2017-12-01 13:18:24 1512152304.920393: $GPRMC,181825,A,3946.9581,N,08404.9855,W,0.0000,0.000,011217,,*38
2017-12-01 13:18:24 1512152304.920454: $GPGSA,A,3,8,10,15,18,20,21,24,32,13,27,138,,2.0,1.0,1.5*3A
2017-12-01 13:18:25 1512152305.403489: $GPZDA,181826.00,01,12,2017,00,00*64
2017-12-01 13:18:25 1512152305.403663: $GPGGA,181826,3946.9581,N,08404.9855,W,2,11,1.00,303.74,M,-33.324,M,,*79
2017-12-01 13:18:25 1512152305.403729: $GPRMC,181826,A,3946.9581,N,08404.9855,W,0.0000,0.000,011217,,*3B
2017-12-01 13:18:25 1512152305.403789: $GPGSA,A,3,8,10,15,18,20,21,24,32,13,27,138,,2.0,1.0,1.5*3A
2017-12-01 13:18:26 1512152306.739990: $GPGSV,3,1,12,08,07,319,43,10,44,303,46,15,34,054,47,18,73,345,43*71
2017-12-01 13:18:26 1512152306.740170: $GPGSV,3,2,12,20,31,099,46,21,60,187,45,24,52,105,47,14,06,234,03*70
2017-12-01 13:18:26 1512152306.740238: $GPGSV,3,3,12,32,23,240,40,13,05,049,26,27,18,286,27,138,38,213,46*40
2017-12-01 13:18:26 1512152306.853307: $GPZDA,181827.00,01,12,2017,00,00*65
2017-12-01 13:18:26 1512152306.853453: $GPGGA,181827,3946.9581,N,08404.9855,W,2,11,1.00,303.74,M,-33.324,M,,*78
2017-12-01 13:18:26 1512152306.853569: $GPRMC,181827,A,3946.9581,N,08404.9855,W,0.0000,0.000,011217,,*3A
2017-12-01 13:18:26 1512152306.853632: $GPGSA,A,3,8,10,15,18,20,21,24,32,13,27,138,,2.0,1.0,1.5*3A
2017-12-01 13:18:27 1512152307.402927: $GPZDA,181828.00,01,12,2017,00,00*6A
2017-12-01 13:18:27 1512152307.403104: $GPGGA,181828,3946.9581,N,08404.9855,W,2,11,0.80,303.74,M,-33.324,M,,*7E
2017-12-01 13:18:27 1512152307.403171: $GPRMC,181828,A,3946.9581,N,08404.9855,W,0.0000,0.000,011217,,*35
2017-12-01 13:18:27 1512152307.403232: $GPGSA,A,3,8,10,15,18,20,21,24,32,13,27,138,,2.0,0.8,1.5*33
2017-12-01 13:18:28 1512152308.403886: $GPZDA,181829.00,01,12,2017,00,00*6B
2017-12-01 13:18:28 1512152308.404058: $GPGGA,181829,3946.9581,N,08404.9855,W,2,11,0.80,303.74,M,-33.324,M,,*7F
2017-12-01 13:18:28 1512152308.404124: $GPRMC,181829,A,3946.9581,N,08404.9855,W,0.0000,0.000,011217,,*34
2017-12-01 13:18:28 1512152308.404185: $GPGSA,A,3,8,10,15,18,20,21,24,32,13,27,138,,2.0,0.8,1.5*33
2017-12-01 13:18:29 1512152309.739663: $GPGSV,3,1,12,08,07,319,44,10,44,303,46,15,34,054,48,18,73,345,43*79
2017-12-01 13:18:29 1512152309.901648: $GPGSV,3,2,12,20,31,099,46,21,60,187,46,24,52,105,47,14,06,234,00*70
2017-12-01 13:18:29 1512152309.901788: $GPGSV,3,3,12,32,23,240,40,13,05,049,26,27,18,286,34,138,38,213,47*43
2017-12-01 13:18:29 1512152309.901888: $GPZDA,181830.00,01,12,2017,00,00*63
2017-12-01 13:18:29 1512152309.901947: $GPGGA,181830,3946.9581,N,08404.9855,W,2,11,1.00,303.74,M,-33.324,M,,*7E
2017-12-01 13:18:29 1512152309.902008: $GPRMC,181830,A,3946.9581,N,08404.9855,W,0.0000,0.000,011217,,*3C
2017-12-01 13:18:29 1512152309.902067: $GPGSA,A,3,8,10,15,18,20,21,24,32,13,27,138,,2.0,1.0,1.5*3A
