2017-12-14 12:33:46 1513272826.753591: {"class":"VERSION","release":"3.16","rev":"3.16-4","proto_major":3,"proto_minor":11}
2017-12-14 12:33:46 1513272826.754040: {"class":"DEVICES","devices":[{"class":"DEVICE","path":"/dev/ttyUSB0","driver":"SiRF","subtype":"9\u0006GSD4e_4.1.2-P1_RPATCH.05-F-GPS-4R-1510281 11/03/2015 307","activated":"2017-12-14T17:33:46.657Z","flags":1,"native":1,"bps":4800,"parity":"N","stopbits":1,"cycle":1.00}]}
2017-12-14 12:33:46 1513272826.754188: {"class":"WATCH","enable":true,"json":false,"nmea":true,"raw":0,"scaled":false,"timing":false,"split24":false,"pps":false}
2017-12-14 12:33:48 1513272828.379973: $GPRMC,173349,V,18000.0000,N,00000.0000,W,0.0000,0.000,141217,,*1A
2017-12-14 12:33:48 1513272828.380145: $GPGSA,A,1,21,20,27,24,10,18,8,,,,,,,,,*00
2017-12-14 12:33:49 1513272829.346487: $GPRMC,173350,V,3946.9515,N,08404.9383,W,0.0000,0.000,141217,,*22
2017-12-14 12:33:49 1513272829.346657: $GPGSA,A,1,21,20,27,24,10,18,8,,,,,,,,,*00
2017-12-14 12:33:49 1513272829.938750: $GPGSV,3,1,11,24,53,097,13,10,47,307,03,18,75,358,10,20,28,102,10*7C
2017-12-14 12:33:49 1513272829.938947: $GPGSV,3,2,11,21,55,184,04,15,31,055,00,32,27,243,00,27,17,282,00*7E
2017-12-14 12:33:49 1513272829.939012: $GPGSV,3,3,11,14,09,235,00,08,07,316,00,13,02,051,00*4E
2017-12-14 12:33:50 1513272830.051193: $GPRMC,173350,V,3946.9529,N,08404.9417,W,0.4989,147.677,141217,,*2F
2017-12-14 12:33:50 1513272830.051375: $GPGSA,A,1,24,10,18,20,21,,,,,,,,,,,*3D
2017-12-14 12:33:50 1513272830.757449: $GPRMC,173351,V,3946.9528,N,08404.9443,W,0.7698,198.298,141217,,*25
2017-12-14 12:33:50 1513272830.757618: $GPGSA,A,1,24,10,18,20,21,,,,,,,,,,,*3D
2017-12-14 12:33:51 1513272831.012597: $GPRMC,173351,V,3946.9521,N,08404.9451,W,2.3543,165.870,141217,,*22
2017-12-14 12:33:51 1513272831.012782: $GPGSA,A,1,24,10,18,20,21,,,,,,,,,,,*3D
2017-12-14 12:33:51 1513272831.778090: $GPGSV,3,1,12,24,53,097,26,10,47,307,16,18,75,358,19,20,28,102,20*77
2017-12-14 12:33:51 1513272831.778285: $GPGSV,3,2,12,21,55,184,22,27,17,282,13,08,07,316,03,15,31,055,00*72
2017-12-14 12:33:51 1513272831.778371: $GPGSV,3,3,12,32,27,243,00,14,09,235,00,13,02,051,00,138,38,213,00*46
2017-12-14 12:33:51 1513272831.890444: $GPRMC,173352,V,3946.9501,N,08404.9458,W,3.9793,177.006,141217,,*24
2017-12-14 12:33:51 1513272831.890586: $GPGSA,A,1,24,10,18,20,21,27,,,,,,,,,,*38
2017-12-14 12:33:52 1513272832.203105: $GPRMC,173353,V,3946.9493,N,08404.9458,W,3.7955,183.784,141217,,*23
2017-12-14 12:33:52 1513272832.203268: $GPGSA,A,1,24,10,18,20,21,27,,,,,,,,,,*38
2017-12-14 12:33:53 1513272833.203224: $GPRMC,173354,V,3946.9478,N,08404.9460,W,3.6696,191.137,141217,,*26
2017-12-14 12:33:53 1513272833.203381: $GPGSA,A,1,24,10,18,20,21,27,,,,,,,,,,*38
2017-12-14 12:33:54 1513272834.539106: $GPGSV,3,1,12,24,53,097,26,10,47,307,17,18,75,358,19,20,28,102,19*7C
2017-12-14 12:33:54 1513272834.539264: $GPGSV,3,2,12,21,55,184,22,27,17,282,15,15,31,055,00,32,27,243,00*7D
2017-12-14 12:33:54 1513272834.539331: $GPGSV,3,3,12,14,09,235,00,08,07,316,00,13,02,051,00,138,38,213,00*4C
2017-12-14 12:33:54 1513272834.651459: $GPRMC,173355,V,3946.9478,N,08404.9460,W,2.0996,176.821,141217,,*28
2017-12-14 12:33:54 1513272834.651627: $GPGSA,A,1,24,10,18,20,21,27,,,,,,,,,,*38
2017-12-14 12:33:55 1513272835.202851: $GPRMC,173356,V,3946.9478,N,08404.9460,W,0.8359,148.778,141217,,*26
2017-12-14 12:33:55 1513272835.203026: $GPGSA,A,1,24,10,18,20,21,27,,,,,,,,,,*38
2017-12-14 12:33:56 1513272836.206295: $GPRMC,173357,V,3946.9478,N,08404.9460,W,0.4600,109.641,141217,,*2C
2017-12-14 12:33:56 1513272836.206610: $GPGSA,A,1,24,10,18,20,21,27,,,,,,,,,,*38
2017-12-14 12:33:57 1513272837.540984: $GPGSV,3,1,12,24,53,097,26,10,47,307,17,18,75,358,19,20,28,102,19*7C
2017-12-14 12:33:57 1513272837.541176: $GPGSV,3,2,12,21,55,184,22,27,17,282,15,15,31,055,15,13,02,051,12*7F
2017-12-14 12:33:57 1513272837.541242: $GPGSV,3,3,12,32,27,243,00,14,09,235,00,08,07,316,00,138,38,213,00*49
2017-12-14 12:33:57 1513272837.653297: $GPRMC,173358,V,3946.9478,N,08404.9460,W,0.1324,202.232,141217,,*2D
2017-12-14 12:33:57 1513272837.653425: $GPGSA,A,1,24,10,18,20,21,27,15,13,,,,,,,,*3E
2017-12-14 12:33:58 1513272838.202247: $GPRMC,173359,V,3946.9485,N,08404.9452,W,0.5774,27.515,141217,,*1D
2017-12-14 12:33:58 1513272838.202400: $GPGSA,A,1,24,10,18,20,21,27,15,13,,,,,,,,*3E
2017-12-14 12:33:59 1513272839.201093: $GPRMC,173400,V,3946.9488,N,08404.9451,W,0.7153,2.007,141217,,*28
2017-12-14 12:33:59 1513272839.201248: $GPGSA,A,1,24,10,18,20,21,27,15,13,,,,,,,,*3E
2017-12-14 12:34:00 1513272840.539580: $GPGSV,3,1,12,24,53,097,26,10,47,307,17,18,75,358,19,20,28,102,19*7C
2017-12-14 12:34:00 1513272840.539792: $GPGSV,3,2,12,21,55,184,22,27,17,282,15,15,31,055,00,32,27,243,00*7D
2017-12-14 12:34:00 1513272840.539859: $GPGSV,3,3,12,14,09,235,00,08,07,316,00,13,02,051,00,138,38,213,00*4C
2017-12-14 12:34:00 1513272840.651948: $GPRMC,173401,V,3946.9496,N,08404.9451,W,1.5738,12.547,141217,,*1E
2017-12-14 12:34:00 1513272840.652161: $GPGSA,A,1,24,10,18,20,21,27,,,,,,,,,,*38
2017-12-14 12:34:01 1513272841.202834: $GPRMC,173402,V,3946.9503,N,08404.9450,W,1.4753,22.246,141217,,*18
2017-12-14 12:34:01 1513272841.203009: $GPGSA,A,1,24,10,18,20,21,27,,,,,,,,,,*38
2017-12-14 12:34:02 1513272842.202948: $GPRMC,173403,V,3946.9511,N,08404.9442,W,1.8815,26.016,141217,,*1B
2017-12-14 12:34:02 1513272842.203129: $GPGSA,A,1,24,10,18,20,21,27,,,,,,,,,,*38
2017-12-14 12:34:03 1513272843.540206: $GPGSV,3,1,12,24,53,097,26,10,47,307,17,18,75,358,19,20,28,102,18*7D
2017-12-14 12:34:03 1513272843.540384: $GPGSV,3,2,12,21,55,184,22,27,17,282,16,15,31,055,00,32,27,243,00*7E
2017-12-14 12:34:03 1513272843.540450: $GPGSV,3,3,12,14,09,235,00,08,07,316,00,13,02,051,00,138,38,213,00*4C
2017-12-14 12:34:03 1513272843.652506: $GPRMC,173404,V,3946.9518,N,08404.9441,W,1.9400,10.150,141217,,*19
2017-12-14 12:34:03 1513272843.652617: $GPGSA,A,1,24,10,18,20,21,27,,,,,,,,,,*38
2017-12-14 12:34:04 1513272844.208971: $GPZDA,173405.00,14,12,2017,00,00*60
2017-12-14 12:34:04 1513272844.209138: $GPGGA,173405,3946.9526,N,08404.9441,W,1,06,7.40,334.68,M,-33.324,M,,*73
2017-12-14 12:34:04 1513272844.209204: $GPRMC,173405,A,3946.9526,N,08404.9441,W,2.0663,357.465,141217,,*3C
2017-12-14 12:34:04 1513272844.209266: $GPGSA,A,3,24,10,18,20,21,27,,,,,,,6.6,7.4,6.2*3F
2017-12-14 12:34:04 1513272844.209323: $GPGBS,173405,24.66,M,21.80,M,143.40,M*35
2017-12-14 12:34:05 1513272845.207597: $GPZDA,173406.00,14,12,2017,00,00*63
2017-12-14 12:34:05 1513272845.207779: $GPGGA,173406,3946.9537,N,08404.9439,W,1,06,7.40,333.79,M,-33.324,M,,*78
2017-12-14 12:34:05 1513272845.207847: $GPRMC,173406,A,3946.9537,N,08404.9439,W,1.8676,4.616,141217,,*3C
2017-12-14 12:34:05 1513272845.207909: $GPGSA,A,3,24,10,18,20,21,27,,,,,,,6.6,7.4,6.2*3F
2017-12-14 12:34:05 1513272845.207966: $GPGBS,173406,24.66,M,21.80,M,143.40,M*36
2017-12-14 12:34:06 1513272846.540693: $GPGSV,3,1,12,24,53,097,26,10,47,307,18,18,75,358,19,20,28,102,18*72
2017-12-14 12:34:06 1513272846.540859: $GPGSV,3,2,12,21,55,184,22,27,17,282,16,15,31,055,13,32,27,243,00*7C
2017-12-14 12:34:06 1513272846.540924: $GPGSV,3,3,12,14,09,235,00,08,07,316,00,13,02,051,00,138,38,213,00*4C
2017-12-14 12:34:06 1513272846.654075: $GPZDA,173407.00,14,12,2017,00,00*62
2017-12-14 12:34:06 1513272846.654246: $GPGGA,173407,3946.9540,N,08404.9439,W,1,07,7.40,333.02,M,-33.324,M,,*74
2017-12-14 12:34:06 1513272846.654313: $GPRMC,173407,A,3946.9540,N,08404.9439,W,1.5555,3.694,141217,,*3F
2017-12-14 12:34:06 1513272846.654374: $GPGSA,A,3,24,10,18,20,21,27,15,,,,,,6.6,7.4,6.2*3B
