2017-11-16 15:20:17 1510863617.496218: {"class":"VERSION","release":"3.17","rev":"3.17","proto_major":3,"proto_minor":12}
2017-11-16 15:20:17 1510863617.496699: {"class":"DEVICES","devices":[{"class":"DEVICE","path":"/dev/ttyUSB0","driver":"SiRF","subtype":"9\u0006GSD4e_4.1.2-P1_RPATCH.05-F-GPS-4R-1510281 11/03/2015 307","activated":"2017-11-16T20:20:17.490Z","flags":1,"native":1,"bps":4800,"parity":"N","stopbits":1,"cycle":1.00}]}
2017-11-16 15:20:17 1510863617.496825: {"class":"WATCH","enable":true,"json":false,"nmea":true,"raw":0,"scaled":false,"timing":false,"split24":false,"pps":false}
2017-11-16 15:20:18 1510863618.373156: $GPZDA,202017.00,16,11,2017,00,00*63
2017-11-16 15:20:18 1510863618.373335: $GPGGA,202017,3946.9578,N,08404.9857,W,2,12,0.80,305.91,M,-33.324,M,,*78
2017-11-16 15:20:18 1510863618.373398: $GPRMC,202017,A,3946.9578,N,08404.9857,W,0.0000,0.000,161117,,*38
2017-11-16 15:20:18 1510863618.373454: $GPGSA,A,3,8,10,14,15,18,20,21,24,27,32,12,138,1.6,0.8,1.3*34
2017-11-16 15:20:19 1510863619.726282: $GPGSV,3,1,12,08,06,295,30,10,67,327,51,14,27,252,46,15,13,064,37*7E
2017-11-16 15:20:19 1510863619.726463: $GPGSV,3,2,12,18,72,087,46,20,10,117,23,21,32,180,46,24,46,061,50*70
2017-11-16 15:20:19 1510863619.726524: $GPGSV,3,3,12,27,08,262,34,32,44,262,48,12,08,109,32,138,38,213,45*4F
2017-11-16 15:20:19 1510863619.839648: $GPZDA,202018.00,16,11,2017,00,00*6C
2017-11-16 15:20:19 1510863619.839817: $GPGGA,202018,3946.9578,N,08404.9857,W,2,12,0.80,305.91,M,-33.324,M,,*77
2017-11-16 15:20:19 1510863619.839879: $GPRMC,202018,A,3946.9578,N,08404.9857,W,0.0000,0.000,161117,,*37
2017-11-16 15:20:19 1510863619.839936: $GPGSA,A,3,8,10,14,15,18,20,21,24,27,32,12,138,1.6,0.8,1.3*34
2017-11-16 15:20:20 1510863620.384279: $GPZDA,202019.00,16,11,2017,00,00*6D
2017-11-16 15:20:20 1510863620.384442: $GPGGA,202019,3946.9578,N,08404.9857,W,2,12,0.80,305.91,M,-33.324,M,,*76
2017-11-16 15:20:20 1510863620.384521: $GPRMC,202019,A,3946.9578,N,08404.9857,W,0.0000,0.000,161117,,*36
2017-11-16 15:20:20 1510863620.384578: $GPGSA,A,3,8,10,14,15,18,20,21,24,27,32,12,138,1.6,0.8,1.3*34
2017-11-16 15:20:21 1510863621.368311: $GPZDA,202020.00,16,11,2017,00,00*67
2017-11-16 15:20:21 1510863621.368506: $GPGGA,202020,3946.9578,N,08404.9857,W,2,12,0.80,305.91,M,-33.324,M,,*7C
2017-11-16 15:20:21 1510863621.368568: $GPRMC,202020,A,3946.9578,N,08404.9857,W,0.0000,0.000,161117,,*3C
2017-11-16 15:20:21 1510863621.368640: $GPGSA,A,3,8,10,14,15,18,20,21,24,27,32,12,138,1.6,0.8,1.3*34
2017-11-16 15:20:22 1510863622.708999: $GPGSV,3,1,12,08,06,295,31,10,67,327,51,14,27,252,46,15,13,064,36*7E
2017-11-16 15:20:22 1510863622.709115: $GPGSV,3,2,12,18,72,087,46,20,10,117,23,21,32,180,45,24,46,061,50*73
2017-11-16 15:20:22 1510863622.709145: $GPGSV,3,3,12,27,08,262,34,32,44,262,48,12,08,109,32,138,38,213,44*4E
2017-11-16 15:20:22 1510863622.821403: $GPZDA,202021.00,16,11,2017,00,00*66
2017-11-16 15:20:22 1510863622.821576: $GPGGA,202021,3946.9578,N,08404.9857,W,2,12,0.80,305.91,M,-33.324,M,,*7D
2017-11-16 15:20:22 1510863622.821640: $GPRMC,202021,A,3946.9578,N,08404.9857,W,0.0000,0.000,161117,,*3D
2017-11-16 15:20:22 1510863622.821696: $GPGSA,A,3,8,10,14,15,18,20,21,24,27,32,12,138,1.6,0.8,1.3*34
2017-11-16 15:20:23 1510863623.389928: $GPZDA,202022.00,16,11,2017,00,00*65
2017-11-16 15:20:23 1510863623.390090: $GPGGA,202022,3946.9578,N,08404.9857,W,2,12,0.80,305.91,M,-33.324,M,,*7E
2017-11-16 15:20:23 1510863623.390152: $GPRMC,202022,A,3946.9578,N,08404.9857,W,0.0000,0.000,161117,,*3E
2017-11-16 15:20:23 1510863623.390209: $GPGSA,A,3,8,10,14,15,18,20,21,24,27,32,12,138,1.6,0.8,1.3*34
2017-11-16 15:20:24 1510863624.392500: $GPZDA,202023.00,16,11,2017,00,00*64
2017-11-16 15:20:24 1510863624.392612: $GPGGA,202023,3946.9574,N,08404.9858,W,2,12,0.80,306.67,M,-33.324,M,,*76
2017-11-16 15:20:24 1510863624.392643: $GPRMC,202023,A,3946.9574,N,08404.9858,W,0.0000,0.000,161117,,*3C
2017-11-16 15:20:24 1510863624.392671: $GPGSA,A,3,8,10,14,15,18,20,21,24,27,32,12,138,1.6,0.8,1.3*34
2017-11-16 15:20:25 1510863625.726154: $GPGSV,3,1,12,08,06,295,31,10,67,327,51,14,27,252,46,15,13,064,36*7E
2017-11-16 15:20:25 1510863625.726297: $GPGSV,3,2,12,18,72,087,47,20,10,117,24,21,32,180,45,24,46,061,50*75
2017-11-16 15:20:25 1510863625.726340: $GPGSV,3,3,12,27,08,262,34,32,44,262,48,12,08,109,32,138,38,213,45*4F
2017-11-16 15:20:25 1510863625.839055: $GPZDA,202024.00,16,11,2017,00,00*63
2017-11-16 15:20:25 1510863625.839162: $GPGGA,202024,3946.9574,N,08404.9858,W,2,12,0.80,306.67,M,-33.324,M,,*71
2017-11-16 15:20:25 1510863625.839193: $GPRMC,202024,A,3946.9574,N,08404.9858,W,0.0000,0.000,161117,,*3B
2017-11-16 15:20:25 1510863625.839231: $GPGSA,A,3,8,10,14,15,18,20,21,24,27,32,12,138,1.6,0.8,1.3*34
2017-11-16 15:20:26 1510863626.466266: $GPZDA,202025.00,16,11,2017,00,00*62
2017-11-16 15:20:26 1510863626.466454: $GPGGA,202025,3946.9574,N,08404.9858,W,2,12,0.80,306.67,M,-33.324,M,,*70
2017-11-16 15:20:26 1510863626.466540: $GPRMC,202025,A,3946.9574,N,08404.9858,W,0.0000,0.000,161117,,*3A
2017-11-16 15:20:26 1510863626.466600: $GPGSA,A,3,8,10,14,15,18,20,21,24,27,32,12,138,1.6,0.8,1.3*34
2017-11-16 15:20:27 1510863627.372101: $GPZDA,202026.00,16,11,2017,00,00*61
2017-11-16 15:20:27 1510863627.372268: $GPGGA,202026,3946.9574,N,08404.9858,W,2,12,0.80,306.67,M,-33.324,M,,*73
2017-11-16 15:20:27 1510863627.372333: $GPRMC,202026,A,3946.9574,N,08404.9858,W,0.0000,0.000,161117,,*39
2017-11-16 15:20:27 1510863627.372389: $GPGSA,A,3,8,10,14,15,18,20,21,24,27,32,12,138,1.6,0.8,1.3*34
