2018-01-11 20:08:10 1515719290.430346: {"class":"VERSION","release":"3.16","rev":"3.16-4","proto_major":3,"proto_minor":11}
2018-01-11 20:08:10 1515719290.430698: {"class":"DEVICES","devices":[{"class":"DEVICE","path":"/dev/ttyUSB0","driver":"SiRF","subtype":"9\u0006GSD4e_4.1.2-P1_RPATCH.05-F-GPS-4R-1510281 11/03/2015 307","activated":"2018-01-12T01:08:10.392Z","flags":1,"native":1,"bps":4800,"parity":"N","stopbits":1,"cycle":1.00}]}
2018-01-11 20:08:10 1515719290.430812: {"class":"WATCH","enable":true,"json":false,"nmea":true,"raw":0,"scaled":false,"timing":false,"split24":false,"pps":false}
2018-01-11 20:08:10 1515719290.571109: $GPZDA,010811.26,12,01,2018,00,00*62
2018-01-11 20:08:10 1515719290.571278: $GPGGA,010811,3946.9590,N,08404.9830,W,1,10,1.00,309.55,M,-33.324,M,,*7C
2018-01-11 20:08:10 1515719290.571344: $GPRMC,010811,A,3946.9590,N,08404.9830,W,0.5306,294.352,120118,,*31
2018-01-11 20:08:10 1515719290.571405: $GPGSA,A,3,7,8,9,11,16,23,27,28,30,138,,,4.0,1.0,3.5*37
2018-01-11 20:08:11 1515719291.942108: $GPGSV,3,1,10,07,54,313,32,08,73,135,36,09,48,231,34,11,19,168,37*73
2018-01-11 20:08:11 1515719291.942289: $GPGSV,3,2,10,16,24,060,36,23,30,190,37,27,48,054,39,28,13,258,27*75
2018-01-11 20:08:11 1515719291.942355: $GPGSV,3,3,10,30,28,306,12,138,38,213,00*46
2018-01-11 20:08:12 1515719292.055708: $GPZDA,010811.95,12,01,2018,00,00*6A
2018-01-11 20:08:12 1515719292.055844: $GPGGA,010811,3946.9586,N,08404.9837,W,1,08,1.00,308.83,M,-33.324,M,,*7F
2018-01-11 20:08:12 1515719292.055909: $GPRMC,010811,A,3946.9586,N,08404.9837,W,0.2422,273.794,120118,,*30
2018-01-11 20:08:12 1515719292.055970: $GPGSA,A,3,7,8,9,11,16,23,27,28,,,,,4.0,1.0,3.5*0E
2018-01-11 20:08:12 1515719292.815996: $GPZDA,010813.00,12,01,2018,00,00*64
2018-01-11 20:08:12 1515719292.816196: $GPGGA,010813,3946.9586,N,08404.9837,W,1,08,0.80,308.83,M,-33.324,M,,*74
2018-01-11 20:08:12 1515719292.816282: $GPRMC,010813,A,3946.9586,N,08404.9837,W,0.1567,189.200,120118,,*3F
2018-01-11 20:08:12 1515719292.816345: $GPGSA,A,3,7,8,9,11,16,23,27,28,,,,,4.0,0.8,3.5*07
2018-01-11 20:08:12 1515719292.816402: $GPGBS,010813,14.62,M,24.83,M,80.38,M*0A
2018-01-11 20:08:13 1515719293.188621: $GPZDA,010814.00,12,01,2018,00,00*63
2018-01-11 20:08:13 1515719293.188782: $GPGGA,010814,3946.9589,N,08404.9836,W,1,08,0.80,308.07,M,-33.324,M,,*71
2018-01-11 20:08:13 1515719293.188848: $GPRMC,010814,A,3946.9589,N,08404.9836,W,0.1867,0.000,120118,,*39
2018-01-11 20:08:13 1515719293.188909: $GPGSA,A,3,7,8,9,11,16,23,27,28,,,,,4.0,0.8,3.5*07
2018-01-11 20:08:13 1515719293.188966: $GPGBS,010814,14.62,M,24.83,M,80.38,M*0D
2018-01-11 20:08:14 1515719294.695277: $GPGSV,3,1,10,07,54,313,42,08,73,135,46,09,48,231,43,11,19,168,48*7B
2018-01-11 20:08:14 1515719294.695438: $GPGSV,3,2,10,16,24,060,46,23,30,190,47,27,48,054,50,28,13,258,35*79
2018-01-11 20:08:14 1515719294.695503: $GPGSV,3,3,10,30,28,306,33,138,38,213,46*47
2018-01-11 20:08:14 1515719294.808709: $GPZDA,010815.00,12,01,2018,00,00*62
2018-01-11 20:08:14 1515719294.808869: $GPGGA,010815,3946.9585,N,08404.9843,W,1,10,0.80,307.35,M,-33.324,M,,*79
2018-01-11 20:08:14 1515719294.808935: $GPRMC,010815,A,3946.9585,N,08404.9843,W,0.0000,0.000,120118,,*3E
2018-01-11 20:08:14 1515719294.808995: $GPGSA,A,3,7,8,9,11,16,23,27,28,30,138,,,4.0,0.8,3.5*3E
2018-01-11 20:08:15 1515719295.434355: $GPZDA,010816.00,12,01,2018,00,00*61
2018-01-11 20:08:15 1515719295.434517: $GPGGA,010816,3946.9592,N,08404.9868,W,2,10,2.40,302.69,M,-33.324,M,,*74
2018-01-11 20:08:15 1515719295.434584: $GPRMC,010816,A,3946.9592,N,08404.9868,W,0.0000,0.000,120118,,*32
2018-01-11 20:08:15 1515719295.434645: $GPGSA,A,3,7,8,9,11,16,23,27,28,30,138,,,4.0,2.4,3.5*30
2018-01-11 20:08:16 1515719296.361397: $GPZDA,010817.00,12,01,2018,00,00*60
2018-01-11 20:08:16 1515719296.361549: $GPGGA,010817,3946.9592,N,08404.9868,W,2,10,1.40,302.69,M,-33.324,M,,*76
2018-01-11 20:08:16 1515719296.361615: $GPRMC,010817,A,3946.9592,N,08404.9868,W,0.0000,0.000,120118,,*33
2018-01-11 20:08:16 1515719296.361692: $GPGSA,A,3,7,8,9,11,16,23,27,28,30,138,,,4.0,1.4,3.5*33
2018-01-11 20:08:16 1515719296.361804: $GPGBS,010817,3.65,M,6.21,M,20.10,M*07
2018-01-11 20:08:17 1515719297.696758: $GPGSV,3,1,10,07,54,313,42,08,73,135,46,09,48,231,43,11,19,168,48*7B
2018-01-11 20:08:17 1515719297.696943: $GPGSV,3,2,10,16,24,060,47,23,30,190,47,27,48,054,50,28,13,258,36*7B
2018-01-11 20:08:17 1515719297.697009: $GPGSV,3,3,10,30,28,306,34,138,38,213,46*40
2018-01-11 20:08:17 1515719297.810535: $GPZDA,010818.00,12,01,2018,00,00*6F
2018-01-11 20:08:17 1515719297.810704: $GPGGA,010818,3946.9592,N,08404.9868,W,2,10,0.80,302.69,M,-33.324,M,,*74
2018-01-11 20:08:17 1515719297.810772: $GPRMC,010818,A,3946.9592,N,08404.9868,W,0.0000,0.000,120118,,*3C
2018-01-11 20:08:17 1515719297.810833: $GPGSA,A,3,7,8,9,11,16,23,27,28,30,138,,,4.0,0.8,3.5*3E
2018-01-11 20:08:18 1515719298.361369: $GPZDA,010819.00,12,01,2018,00,00*6E
2018-01-11 20:08:18 1515719298.361526: $GPGGA,010819,3946.9592,N,08404.9868,W,2,10,0.80,302.69,M,-33.324,M,,*75
2018-01-11 20:08:18 1515719298.361592: $GPRMC,010819,A,3946.9592,N,08404.9868,W,0.0000,0.000,120118,,*3D
2018-01-11 20:08:18 1515719298.361652: $GPGSA,A,3,7,8,9,11,16,23,27,28,30,138,,,4.0,0.8,3.5*3E
2018-01-11 20:08:19 1515719299.362244: $GPZDA,010820.00,12,01,2018,00,00*64
2018-01-11 20:08:19 1515719299.362399: $GPGGA,010820,3946.9593,N,08404.9875,W,2,10,0.80,302.61,M,-33.324,M,,*7A
2018-01-11 20:08:19 1515719299.362465: $GPRMC,010820,A,3946.9593,N,08404.9875,W,0.0000,0.000,120118,,*3A
2018-01-11 20:08:19 1515719299.362526: $GPGSA,A,3,7,8,9,11,16,23,27,28,30,138,,,4.0,0.8,3.5*3E
2018-01-11 20:08:20 1515719300.695873: $GPGSV,3,1,10,07,54,313,43,08,73,135,46,09,48,231,43,11,19,168,48*7A
2018-01-11 20:08:20 1515719300.696055: $GPGSV,3,2,10,16,24,060,47,23,30,190,47,27,48,054,50,28,13,258,36*7B
2018-01-11 20:08:20 1515719300.696122: $GPGSV,3,3,10,30,28,306,33,138,38,213,46*47
2018-01-11 20:08:20 1515719300.809614: $GPZDA,010821.00,12,01,2018,00,00*65
2018-01-11 20:08:20 1515719300.809731: $GPGGA,010821,3946.9593,N,08404.9875,W,2,10,0.80,302.61,M,-33.324,M,,*7B
2018-01-11 20:08:20 1515719300.809794: $GPRMC,010821,A,3946.9593,N,08404.9875,W,0.0000,0.000,120118,,*3B
2018-01-11 20:08:20 1515719300.809854: $GPGSA,A,3,7,8,9,11,16,23,27,28,30,138,,,4.0,0.8,3.5*3E
2018-01-11 20:08:21 1515719301.361658: $GPZDA,010822.00,12,01,2018,00,00*66
2018-01-11 20:08:21 1515719301.361809: $GPGGA,010822,3946.9593,N,08404.9875,W,2,10,0.80,302.61,M,-33.324,M,,*78
2018-01-11 20:08:21 1515719301.361874: $GPRMC,010822,A,3946.9593,N,08404.9875,W,0.0000,0.000,120118,,*38
2018-01-11 20:08:21 1515719301.361933: $GPGSA,A,3,7,8,9,11,16,23,27,28,30,138,,,4.0,0.8,3.5*3E
