2017-12-01 15:55:31 1512161731.196908: {"class":"VERSION","release":"3.16","rev":"3.16-4","proto_major":3,"proto_minor":11}
2017-12-01 15:55:31 1512161731.197338: {"class":"DEVICES","devices":[{"class":"DEVICE","path":"/dev/ttyUSB0","driver":"SiRF","subtype":"9\u0006GSD4e_4.1.2-P1_RPATCH.05-F-GPS-4R-1510281 11/03/2015 307","activated":"2017-12-01T20:55:31.148Z","flags":1,"native":1,"bps":4800,"parity":"N","stopbits":1,"cycle":1.00}]}
2017-12-01 15:55:31 1512161731.197466: {"class":"WATCH","enable":true,"json":false,"nmea":true,"raw":0,"scaled":false,"timing":false,"split24":false,"pps":false}
2017-12-01 15:55:32 1512161732.088411: $GPZDA,205532.36,01,12,2017,00,00*66
2017-12-01 15:55:32 1512161732.088608: $GPGGA,205532,3946.9601,N,08404.9809,W,1,12,1.00,311.71,M,-33.324,M,,*7A
2017-12-01 15:55:32 1512161732.088679: $GPRMC,205532,A,3946.9601,N,08404.9809,W,0.2710,100.223,011217,,*38
2017-12-01 15:55:32 1512161732.088742: $GPGSA,A,3,1,10,11,12,14,18,22,25,31,32,24,138,2.0,1.0,1.5*32
2017-12-01 15:55:32 1512161732.088802: $GPGBS,205532,10.70,M,15.43,M,35.28,M*04
2017-12-01 15:55:33 1512161733.231048: $GPGSV,3,1,12,01,16,315,39,10,64,138,48,11,11,297,37,12,25,066,39*70
2017-12-01 15:55:33 1512161733.231228: $GPGSV,3,2,12,14,58,298,44,18,33,138,46,25,33,109,46,31,40,214,48*71
2017-12-01 15:55:33 1512161733.231294: $GPGSV,3,3,12,32,69,343,49,22,06,312,03,24,10,046,10,138,38,213,25*4A
2017-12-01 15:55:33 1512161733.344369: $GPZDA,205533.00,01,12,2017,00,00*62
2017-12-01 15:55:33 1512161733.344544: $GPGGA,205533,3946.9600,N,08404.9821,W,1,10,1.00,307.34,M,-33.324,M,,*74
2017-12-01 15:55:33 1512161733.344612: $GPRMC,205533,A,3946.9600,N,08404.9821,W,0.1867,180.000,011217,,*35
2017-12-01 15:55:33 1512161733.344673: $GPGSA,A,3,1,10,11,12,14,18,25,31,32,138,,,2.0,1.0,1.5*34
2017-12-01 15:55:33 1512161733.797099: $GPZDA,205534.00,01,12,2017,00,00*65
2017-12-01 15:55:33 1512161733.797274: $GPGGA,205534,3946.9597,N,08404.9816,W,1,10,0.80,310.99,M,-33.324,M,,*72
2017-12-01 15:55:33 1512161733.797340: $GPRMC,205534,A,3946.9597,N,08404.9816,W,0.1567,9.200,011217,,*34
2017-12-01 15:55:33 1512161733.797401: $GPGSA,A,3,1,10,11,12,14,18,25,31,32,138,,,2.0,0.8,1.5*3D
2017-12-01 15:55:34 1512161734.396590: $GPZDA,205535.00,01,12,2017,00,00*64
2017-12-01 15:55:34 1512161734.396761: $GPGGA,205535,3946.9592,N,08404.9821,W,1,10,0.80,307.46,M,-33.324,M,,*76
2017-12-01 15:55:34 1512161734.396827: $GPRMC,205535,A,3946.9592,N,08404.9821,W,0.3006,62.539,011217,,*04
2017-12-01 15:55:34 1512161734.396887: $GPGSA,A,3,1,10,11,12,14,18,25,31,32,138,,,2.0,0.8,1.5*3D
2017-12-01 15:55:35 1512161735.732715: $GPGSV,3,1,12,01,16,315,38,10,64,138,47,11,11,297,38,12,25,066,39*71
2017-12-01 15:55:35 1512161735.732906: $GPGSV,3,2,12,14,58,298,44,18,33,138,45,25,33,109,45,31,40,214,48*71
2017-12-01 15:55:35 1512161735.732976: $GPGSV,3,3,12,32,69,343,48,22,06,312,35,24,10,046,30,138,38,213,46*49
2017-12-01 15:55:35 1512161735.846381: $GPZDA,205536.00,01,12,2017,00,00*67
2017-12-01 15:55:35 1512161735.846554: $GPGGA,205536,3946.9585,N,08404.9836,W,1,12,0.80,307.43,M,-33.324,M,,*72
2017-12-01 15:55:35 1512161735.846624: $GPRMC,205536,A,3946.9585,N,08404.9836,W,0.3006,62.539,011217,,*07
2017-12-01 15:55:35 1512161735.846688: $GPGSA,A,3,1,10,11,12,14,18,25,31,32,22,24,138,2.0,0.8,1.5*3B
2017-12-01 15:55:36 1512161736.398492: $GPZDA,205537.00,01,12,2017,00,00*66
2017-12-01 15:55:36 1512161736.398643: $GPGGA,205537,3946.9585,N,08404.9836,W,1,12,0.80,307.43,M,-33.324,M,,*73
2017-12-01 15:55:36 1512161736.398712: $GPRMC,205537,A,3946.9585,N,08404.9836,W,0.0000,0.000,011217,,*38
2017-12-01 15:55:36 1512161736.398776: $GPGSA,A,3,1,10,11,12,14,18,25,31,32,22,24,138,2.0,0.8,1.5*3B
2017-12-01 15:55:37 1512161737.397794: $GPZDA,205538.00,01,12,2017,00,00*69
2017-12-01 15:55:37 1512161737.398002: $GPGGA,205538,3946.9577,N,08404.9849,W,1,12,0.80,304.58,M,-33.324,M,,*70
2017-12-01 15:55:37 1512161737.398075: $GPRMC,205538,A,3946.9577,N,08404.9849,W,0.0000,0.000,011217,,*32
2017-12-01 15:55:37 1512161737.398140: $GPGSA,A,3,1,10,11,12,14,18,25,31,32,22,24,138,2.0,0.8,1.5*3B
2017-12-01 15:55:37 1512161737.398257: $GPGBS,205538,10.70,M,15.43,M,35.28,M*0E
2017-12-01 15:55:38 1512161738.733389: $GPGSV,3,1,12,01,16,315,38,10,64,138,47,11,11,297,39,12,25,066,40*7E
2017-12-01 15:55:38 1512161738.733575: $GPGSV,3,2,12,14,58,298,44,18,33,138,45,25,33,109,45,31,40,214,48*71
2017-12-01 15:55:38 1512161738.733641: $GPGSV,3,3,12,32,69,343,48,22,06,312,34,24,10,046,29,138,38,213,46*40
2017-12-01 15:55:38 1512161738.847046: $GPZDA,205539.00,01,12,2017,00,00*68
2017-12-01 15:55:38 1512161738.847227: $GPGGA,205539,3946.9577,N,08404.9849,W,1,12,0.80,304.58,M,-33.324,M,,*71
2017-12-01 15:55:38 1512161738.847294: $GPRMC,205539,A,3946.9577,N,08404.9849,W,0.0000,0.000,011217,,*33
2017-12-01 15:55:38 1512161738.847354: $GPGSA,A,3,1,10,11,12,14,18,25,31,32,22,24,138,2.0,0.8,1.5*3B
2017-12-01 15:55:39 1512161739.399182: $GPZDA,205540.00,01,12,2017,00,00*66
2017-12-01 15:55:39 1512161739.399352: $GPGGA,205540,3946.9577,N,08404.9849,W,1,12,0.80,304.58,M,-33.324,M,,*7F
2017-12-01 15:55:39 1512161739.399419: $GPRMC,205540,A,3946.9577,N,08404.9849,W,0.0000,0.000,011217,,*3D
2017-12-01 15:55:39 1512161739.399498: $GPGSA,A,3,1,10,11,12,14,18,25,31,32,22,24,138,2.0,0.8,1.5*3B
2017-12-01 15:55:40 1512161740.399566: $GPZDA,205541.00,01,12,2017,00,00*67
2017-12-01 15:55:40 1512161740.399738: $GPGGA,205541,3946.9573,N,08404.9850,W,2,12,1.20,305.35,M,-33.324,M,,*70
2017-12-01 15:55:40 1512161740.399806: $GPRMC,205541,A,3946.9573,N,08404.9850,W,0.0000,0.000,011217,,*30
2017-12-01 15:55:40 1512161740.399867: $GPGSA,A,3,1,10,11,12,14,18,25,31,32,22,24,138,2.0,1.2,1.5*30
2017-12-01 15:55:41 1512161741.735027: $GPGSV,3,1,12,01,16,315,39,10,64,138,48,11,11,297,38,12,25,066,41*70
2017-12-01 15:55:41 1512161741.735206: $GPGSV,3,2,12,14,58,298,44,18,33,138,46,25,33,109,45,31,40,214,48*72
2017-12-01 15:55:41 1512161741.735271: $GPGSV,3,3,12,32,69,343,48,22,06,312,34,24,10,046,29,138,38,213,45*43
2017-12-01 15:55:41 1512161741.848421: $GPZDA,205542.00,01,12,2017,00,00*64
2017-12-01 15:55:41 1512161741.848596: $GPGGA,205542,3946.9573,N,08404.9850,W,2,12,0.80,305.35,M,-33.324,M,,*78
2017-12-01 15:55:41 1512161741.848664: $GPRMC,205542,A,3946.9573,N,08404.9850,W,0.0000,0.000,011217,,*33
2017-12-01 15:55:41 1512161741.848725: $GPGSA,A,3,1,10,11,12,14,18,25,31,32,22,24,138,2.0,0.8,1.5*3B
2017-12-01 15:55:42 1512161742.396813: $GPZDA,205543.00,01,12,2017,00,00*65
2017-12-01 15:55:42 1512161742.396997: $GPGGA,205543,3946.9578,N,08404.9850,W,2,12,0.80,305.99,M,-33.324,M,,*74
2017-12-01 15:55:42 1512161742.397083: $GPRMC,205543,A,3946.9578,N,08404.9850,W,0.0000,0.000,011217,,*39
2017-12-01 15:55:42 1512161742.397147: $GPGSA,A,3,1,10,11,12,14,18,25,31,32,22,24,138,2.0,0.8,1.5*3B
2017-12-01 15:55:43 1512161743.400358: $GPZDA,205544.00,01,12,2017,00,00*62
2017-12-01 15:55:43 1512161743.400536: $GPGGA,205544,3946.9578,N,08404.9850,W,2,12,0.80,305.99,M,-33.324,M,,*73
2017-12-01 15:55:43 1512161743.400602: $GPRMC,205544,A,3946.9578,N,08404.9850,W,0.0000,0.000,011217,,*3E
2017-12-01 15:55:43 1512161743.400663: $GPGSA,A,3,1,10,11,12,14,18,25,31,32,22,24,138,2.0,0.8,1.5*3B
2017-12-01 15:55:44 1512161744.735943: $GPGSV,3,1,12,01,16,315,40,10,64,138,48,11,11,297,38,12,25,066,40*7F
2017-12-01 15:55:44 1512161744.736122: $GPGSV,3,2,12,14,58,298,44,18,33,138,46,25,33,109,45,31,40,214,48*72
2017-12-01 15:55:44 1512161744.736189: $GPGSV,3,3,12,32,69,343,48,22,06,312,34,24,10,046,29,138,38,213,46*40
2017-12-01 15:55:44 1512161744.849569: $GPZDA,205545.00,01,12,2017,00,00*63
2017-12-01 15:55:44 1512161744.849739: $GPGGA,205545,3946.9578,N,08404.9850,W,2,12,0.80,305.99,M,-33.324,M,,*72
2017-12-01 15:55:44 1512161744.849805: $GPRMC,205545,A,3946.9578,N,08404.9850,W,0.0000,0.000,011217,,*3F
2017-12-01 15:55:44 1512161744.849865: $GPGSA,A,3,1,10,11,12,14,18,25,31,32,22,24,138,2.0,0.8,1.5*3B
2017-12-01 15:55:45 1512161745.474633: $GPZDA,205546.00,01,12,2017,00,00*60
2017-12-01 15:55:45 1512161745.474813: $GPGGA,205546,3946.9578,N,08404.9850,W,2,12,0.80,305.99,M,-33.324,M,,*71
2017-12-01 15:55:45 1512161745.474881: $GPRMC,205546,A,3946.9578,N,08404.9850,W,0.0000,0.000,011217,,*3C
2017-12-01 15:55:45 1512161745.474995: $GPGSA,A,3,1,10,11,12,14,18,25,31,32,22,24,138,2.0,0.8,1.5*3B
2017-12-01 15:55:46 1512161746.399528: $GPZDA,205547.00,01,12,2017,00,00*61
2017-12-01 15:55:46 1512161746.399703: $GPGGA,205547,3946.9578,N,08404.9850,W,2,12,0.80,305.99,M,-33.324,M,,*70
2017-12-01 15:55:46 1512161746.399770: $GPRMC,205547,A,3946.9578,N,08404.9850,W,0.0000,0.000,011217,,*3D
2017-12-01 15:55:46 1512161746.399830: $GPGSA,A,3,1,10,11,12,14,18,25,31,32,22,24,138,2.0,0.8,1.5*3B
2017-12-01 15:55:47 1512161747.736227: $GPGSV,3,1,12,01,16,315,41,10,64,138,48,11,11,297,38,12,25,066,41*7F
2017-12-01 15:55:47 1512161747.736432: $GPGSV,3,2,12,14,58,298,44,18,33,138,46,25,33,109,45,31,40,214,49*73
2017-12-01 15:55:47 1512161747.736520: $GPGSV,3,3,12,32,69,343,48,22,06,312,39,24,10,046,29,138,38,213,46*4D
2017-12-01 15:55:47 1512161747.849861: $GPZDA,205548.00,01,12,2017,00,00*6E
2017-12-01 15:55:47 1512161747.850025: $GPGGA,205548,3946.9578,N,08404.9850,W,2,12,0.80,305.99,M,-33.324,M,,*7F
2017-12-01 15:55:47 1512161747.850092: $GPRMC,205548,A,3946.9578,N,08404.9850,W,0.0000,0.000,011217,,*32
2017-12-01 15:55:47 1512161747.850153: $GPGSA,A,3,1,10,11,12,14,18,25,31,32,22,24,138,2.0,0.8,1.5*3B
2017-12-01 15:55:48 1512161748.399579: $GPZDA,205549.00,01,12,2017,00,00*6F
2017-12-01 15:55:48 1512161748.399750: $GPGGA,205549,3946.9573,N,08404.9849,W,2,12,0.80,303.94,M,-33.324,M,,*76
2017-12-01 15:55:48 1512161748.399816: $GPRMC,205549,A,3946.9573,N,08404.9849,W,0.0000,0.000,011217,,*30
2017-12-01 15:55:48 1512161748.399877: $GPGSA,A,3,1,10,11,12,14,18,25,31,32,22,24,138,2.0,0.8,1.5*3B
2017-12-01 15:55:49 1512161749.399006: $GPZDA,205550.00,01,12,2017,00,00*67
2017-12-01 15:55:49 1512161749.399180: $GPGGA,205550,3946.9573,N,08404.9849,W,2,12,0.80,303.94,M,-33.324,M,,*7E
2017-12-01 15:55:49 1512161749.399246: $GPRMC,205550,A,3946.9573,N,08404.9849,W,0.0000,0.000,011217,,*38
2017-12-01 15:55:49 1512161749.399307: $GPGSA,A,3,1,10,11,12,14,18,25,31,32,22,24,138,2.0,0.8,1.5*3B
2017-12-01 15:55:49 1512161749.399366: $GPGBS,205550,2.67,M,3.86,M,8.82,M*35
2017-12-01 15:55:50 1512161750.734014: $GPGSV,3,1,12,01,16,315,41,10,64,138,48,11,11,297,37,12,25,066,41*70
2017-12-01 15:55:50 1512161750.734320: $GPGSV,3,2,12,14,58,298,44,18,33,138,46,25,33,109,46,31,40,214,48*71
2017-12-01 15:55:50 1512161750.734394: $GPGSV,3,3,12,32,69,343,47,22,06,312,37,24,10,046,30,138,38,213,45*47
2017-12-01 15:55:50 1512161750.847616: $GPZDA,205551.00,01,12,2017,00,00*66
2017-12-01 15:55:50 1512161750.847790: $GPGGA,205551,3946.9573,N,08404.9849,W,2,12,0.80,303.94,M,-33.324,M,,*7F
2017-12-01 15:55:50 1512161750.847856: $GPRMC,205551,A,3946.9573,N,08404.9849,W,0.0000,0.000,011217,,*39
2017-12-01 15:55:50 1512161750.847934: $GPGSA,A,3,1,10,11,12,14,18,25,31,32,22,24,138,2.0,0.8,1.5*3B
