2017-11-15 19:42:28 1510792948.975214: {"class":"VERSION","release":"3.17","rev":"3.17","proto_major":3,"proto_minor":12}
2017-11-15 19:42:28 1510792948.975809: {"class":"DEVICES","devices":[{"class":"DEVICE","path":"/dev/ttyUSB0","driver":"SiRF","subtype":"9\u0006GSD4e_4.1.2-P1_RPATCH.05-F-GPS-4R-1510281 11/03/2015 307","activated":"2017-11-16T00:42:28.470Z","flags":1,"native":1,"bps":4800,"parity":"N","stopbits":1,"cycle":1.00}]}
2017-11-15 19:42:28 1510792948.975940: {"class":"WATCH","enable":true,"json":false,"nmea":true,"raw":0,"scaled":false,"timing":false,"split24":false,"pps":false}
2017-11-15 19:42:29 1510792949.346192: $GPZDA,004228.00,16,11,2017,00,00*69
2017-11-15 19:42:29 1510792949.346359: $GPGGA,004228,3946.9602,N,08404.9452,W,1,08,1.20,316.14,M,-33.324,M,,*79
2017-11-15 19:42:29 1510792949.346422: $GPRMC,004228,A,3946.9602,N,08404.9452,W,0.4179,148.778,161117,,*3B
2017-11-15 19:42:29 1510792949.346478: $GPGSA,A,3,16,22,26,14,31,29,23,3,,,,,3.4,1.2,2.9*00
2017-11-15 19:42:30 1510792950.681997: $GPGSV,3,1,12,32,31,112,08,16,28,190,24,22,50,261,12,26,59,169,24*71
2017-11-15 19:42:30 1510792950.682157: $GPGSV,3,2,12,14,51,100,19,31,63,033,17,29,12,066,07,23,15,303,17*7E
2017-11-15 19:42:30 1510792950.682217: $GPGSV,3,3,12,03,42,292,16,25,12,039,00,01,02,249,00,135,23,238,00*4C
2017-11-15 19:42:30 1510792950.795504: $GPZDA,004229.00,16,11,2017,00,00*68
2017-11-15 19:42:30 1510792950.795699: $GPGGA,004229,3946.9603,N,08404.9459,W,1,09,1.20,316.06,M,-33.324,M,,*70
2017-11-15 19:42:30 1510792950.795760: $GPRMC,004229,A,3946.9603,N,08404.9459,W,0.7246,164.668,161117,,*32
2017-11-15 19:42:30 1510792950.795817: $GPGSA,A,3,32,16,22,26,14,31,29,23,3,,,,3.4,1.2,2.9*01
2017-11-15 19:42:31 1510792951.421143: $GPZDA,004230.00,16,11,2017,00,00*60
2017-11-15 19:42:31 1510792951.421290: $GPGGA,004230,3946.9607,N,08404.9459,W,1,09,1.00,316.70,M,-33.324,M,,*7F
2017-11-15 19:42:31 1510792951.421350: $GPRMC,004230,A,3946.9607,N,08404.9459,W,0.7246,164.668,161117,,*3E
2017-11-15 19:42:31 1510792951.421405: $GPGSA,A,3,32,16,22,26,14,31,29,23,3,,,,3.4,1.0,2.9*03
2017-11-15 19:42:32 1510792952.330319: $GPZDA,004231.00,16,11,2017,00,00*61
2017-11-15 19:42:32 1510792952.330487: $GPGGA,004231,3946.9607,N,08404.9459,W,1,09,1.20,316.70,M,-33.324,M,,*7C
2017-11-15 19:42:32 1510792952.330590: $GPRMC,004231,A,3946.9607,N,08404.9459,W,0.1567,189.201,161117,,*35
2017-11-15 19:42:32 1510792952.330665: $GPGSA,A,3,32,16,22,26,14,31,29,23,3,,,,3.4,1.2,2.9*01
2017-11-15 19:42:33 1510792953.682364: $GPGSV,3,1,12,32,31,112,08,16,28,190,24,22,50,261,12,26,59,169,24*71
2017-11-15 19:42:33 1510792953.734653: $GPGSV,3,2,12,14,51,100,20,31,63,033,17,29,12,066,09,23,15,303,17*7A
2017-11-15 19:42:33 1510792953.734948: $GPGSV,3,3,12,03,42,292,17,25,12,039,00,01,02,249,00,135,23,238,00*4D
2017-11-15 19:42:33 1510792953.795677: $GPZDA,004232.00,16,11,2017,00,00*62
2017-11-15 19:42:33 1510792953.795815: $GPGGA,004232,3946.9607,N,08404.9459,W,1,09,1.00,316.70,M,-33.324,M,,*7D
2017-11-15 19:42:33 1510792953.795878: $GPRMC,004232,A,3946.9607,N,08404.9459,W,0.0000,0.000,161117,,*30
2017-11-15 19:42:33 1510792953.795937: $GPGSA,A,3,32,16,22,26,14,31,29,23,3,,,,3.4,1.0,2.9*03
2017-11-15 19:42:34 1510792954.330580: $GPZDA,004233.00,16,11,2017,00,00*63
2017-11-15 19:42:34 1510792954.330758: $GPGGA,004233,3946.9611,N,08404.9459,W,1,09,0.80,317.34,M,-33.324,M,,*73
2017-11-15 19:42:34 1510792954.330822: $GPRMC,004233,A,3946.9611,N,08404.9459,W,0.2422,93.794,161117,,*00
2017-11-15 19:42:34 1510792954.330881: $GPGSA,A,3,32,16,22,26,14,31,29,23,3,,,,3.4,0.8,2.9*0A
2017-11-15 19:42:35 1510792955.347769: $GPZDA,004234.00,16,11,2017,00,00*64
2017-11-15 19:42:35 1510792955.347924: $GPGGA,004234,3946.9607,N,08404.9460,W,1,09,0.80,318.10,M,-33.324,M,,*70
2017-11-15 19:42:35 1510792955.347987: $GPRMC,004234,A,3946.9607,N,08404.9460,W,0.4844,93.794,161117,,*00
2017-11-15 19:42:35 1510792955.348045: $GPGSA,A,3,32,16,22,26,14,31,29,23,3,,,,3.4,0.8,2.9*0A
2017-11-15 19:42:36 1510792956.666471: $GPGSV,3,1,12,32,31,112,10,16,28,190,24,22,50,261,11,26,59,169,24*7B
2017-11-15 19:42:36 1510792956.666776: $GPGSV,3,2,12,14,51,100,20,31,63,033,16,29,12,066,11,23,15,303,17*72
2017-11-15 19:42:36 1510792956.666850: $GPGSV,3,3,12,03,42,292,17,25,12,039,00,01,02,249,00,120,07,103,00*44
2017-11-15 19:42:36 1510792956.779856: $GPZDA,004235.00,16,11,2017,00,00*65
2017-11-15 19:42:36 1510792956.780042: $GPGGA,004235,3946.9612,N,08404.9467,W,1,09,0.80,318.66,M,-33.324,M,,*73
2017-11-15 19:42:36 1510792956.780104: $GPRMC,004235,A,3946.9612,N,08404.9467,W,0.2422,93.794,161117,,*08
2017-11-15 19:42:36 1510792956.780160: $GPGSA,A,3,32,16,22,26,14,31,29,23,3,,,,3.4,0.8,2.9*0A
2017-11-15 19:42:37 1510792957.347344: $GPZDA,004236.00,16,11,2017,00,00*66
2017-11-15 19:42:37 1510792957.347525: $GPGGA,004236,3946.9612,N,08404.9467,W,1,09,0.80,318.66,M,-33.324,M,,*70
2017-11-15 19:42:37 1510792957.347587: $GPRMC,004236,A,3946.9612,N,08404.9467,W,0.0000,0.000,161117,,*3D
2017-11-15 19:42:37 1510792957.347660: $GPGSA,A,3,32,16,22,26,14,31,29,23,3,,,,3.4,0.8,2.9*0A
2017-11-15 19:42:38 1510792958.346664: $GPZDA,004237.00,16,11,2017,00,00*67
2017-11-15 19:42:38 1510792958.347034: $GPGGA,004237,3946.9616,N,08404.9467,W,1,09,0.80,319.30,M,-33.324,M,,*77
2017-11-15 19:42:38 1510792958.347158: $GPRMC,004237,A,3946.9616,N,08404.9467,W,0.3423,4.197,161117,,*35
2017-11-15 19:42:38 1510792958.347250: $GPGSA,A,3,32,16,22,26,14,31,29,23,3,,,,3.4,0.8,2.9*0A
