2017-12-01 18:11:12 1512169872.196860: {"class":"VERSION","release":"3.16","rev":"3.16-4","proto_major":3,"proto_minor":11}
2017-12-01 18:11:12 1512169872.197224: {"class":"DEVICES","devices":[{"class":"DEVICE","path":"/dev/ttyUSB0","driver":"SiRF","subtype":"9\u0006GSD4e_4.1.2-P1_RPATCH.05-F-GPS-4R-1510281 11/03/2015 307","activated":"2017-12-01T23:11:12.130Z","flags":1,"native":1,"bps":4800,"parity":"N","stopbits":1,"cycle":1.00}]}
2017-12-01 18:11:12 1512169872.197338: {"class":"WATCH","enable":true,"json":false,"nmea":true,"raw":0,"scaled":false,"timing":false,"split24":false,"pps":false}
2017-12-01 18:11:13 1512169873.197382: $GPZDA,231113.44,01,12,2017,00,00*63
2017-12-01 18:11:13 1512169873.197553: $GPGGA,231113,3946.9752,N,08404.9814,W,1,11,0.80,281.25,M,-33.325,M,,*73
2017-12-01 18:11:13 1512169873.197619: $GPRMC,231113,A,3946.9752,N,08404.9814,W,0.3423,4.197,011217,,*38
2017-12-01 18:11:13 1512169873.197681: $GPGSA,A,3,3,14,16,22,23,25,26,31,32,1,138,,2.0,0.8,1.5*07
2017-12-01 18:11:13 1512169873.197739: $GPGBS,231113,10.70,M,15.43,M,35.28,M*04
2017-12-01 18:11:14 1512169874.362556: $GPGSV,3,1,12,03,37,304,47,14,59,084,43,16,18,189,41,22,50,279,46*79
2017-12-01 18:11:14 1512169874.362722: $GPGSV,3,2,12,23,07,298,43,25,22,042,39,26,47,174,47,31,71,016,46*75
2017-12-01 18:11:14 1512169874.362788: $GPGSV,3,3,12,32,40,103,43,01,09,256,31,29,09,076,04,138,38,213,00*47
2017-12-01 18:11:14 1512169874.476194: $GPZDA,231114.00,01,12,2017,00,00*64
2017-12-01 18:11:14 1512169874.476334: $GPGGA,231114,3946.9749,N,08404.9815,W,1,10,0.80,282.01,M,-33.325,M,,*7B
2017-12-01 18:11:14 1512169874.476400: $GPRMC,231114,A,3946.9749,N,08404.9815,W,0.0000,0.000,011217,,*39
2017-12-01 18:11:14 1512169874.476460: $GPGSA,A,3,3,14,16,22,23,25,26,31,32,1,,,2.0,0.8,1.5*3D
2017-12-01 18:11:14 1512169874.928393: $GPZDA,231115.00,01,12,2017,00,00*65
2017-12-01 18:11:14 1512169874.928553: $GPGGA,231115,3946.9749,N,08404.9815,W,1,10,0.80,283.42,M,-33.325,M,,*7C
2017-12-01 18:11:14 1512169874.928619: $GPRMC,231115,A,3946.9749,N,08404.9815,W,0.1867,180.000,011217,,*39
2017-12-01 18:11:14 1512169874.928681: $GPGSA,A,3,3,14,16,22,23,25,26,31,32,1,,,2.0,0.8,1.5*3D
2017-12-01 18:11:15 1512169875.390562: $GPZDA,231116.00,01,12,2017,00,00*66
2017-12-01 18:11:15 1512169875.390738: $GPGGA,231116,3946.9746,N,08404.9816,W,1,10,0.80,284.18,M,-33.325,M,,*7B
2017-12-01 18:11:15 1512169875.390807: $GPRMC,231116,A,3946.9746,N,08404.9816,W,0.0000,0.000,011217,,*37
2017-12-01 18:11:15 1512169875.390868: $GPGSA,A,3,3,14,16,22,23,25,26,31,32,1,,,2.0,0.8,1.5*3D
2017-12-01 18:11:16 1512169876.719118: $GPGSV,3,1,12,03,37,304,47,14,59,084,43,16,18,189,41,22,50,279,46*79
2017-12-01 18:11:16 1512169876.719296: $GPGSV,3,2,12,23,07,298,44,25,22,042,38,26,47,174,46,31,71,016,47*73
2017-12-01 18:11:16 1512169876.719363: $GPGSV,3,3,12,32,40,103,43,01,09,256,30,29,09,076,00,138,38,213,46*40
2017-12-01 18:11:16 1512169876.832502: $GPZDA,231117.00,01,12,2017,00,00*67
2017-12-01 18:11:16 1512169876.832658: $GPGGA,231117,3946.9747,N,08404.9817,W,1,11,0.80,285.59,M,-33.325,M,,*7F
2017-12-01 18:11:16 1512169876.832722: $GPRMC,231117,A,3946.9747,N,08404.9817,W,0.0000,0.000,011217,,*36
2017-12-01 18:11:16 1512169876.832782: $GPGSA,A,3,3,14,16,22,23,25,26,31,32,1,138,,2.0,0.8,1.5*07
2017-12-01 18:11:17 1512169877.385819: $GPZDA,231118.00,01,12,2017,00,00*68
2017-12-01 18:11:17 1512169877.389023: $GPGGA,231118,3946.9745,N,08404.9823,W,2,11,1.00,296.95,M,-33.325,M,,*7D
2017-12-01 18:11:17 1512169877.389129: $GPRMC,231118,A,3946.9745,N,08404.9823,W,0.0000,0.000,011217,,*3C
2017-12-01 18:11:17 1512169877.389193: $GPGSA,A,3,3,14,16,22,23,25,26,31,32,1,138,,2.0,1.0,1.5*0E
2017-12-01 18:11:18 1512169878.384087: $GPZDA,231119.00,01,12,2017,00,00*69
2017-12-01 18:11:18 1512169878.384258: $GPGGA,231119,3946.9745,N,08404.9823,W,2,11,1.00,296.95,M,-33.325,M,,*7C
2017-12-01 18:11:18 1512169878.384325: $GPRMC,231119,A,3946.9745,N,08404.9823,W,0.0000,0.000,011217,,*3D
2017-12-01 18:11:18 1512169878.384386: $GPGSA,A,3,3,14,16,22,23,25,26,31,32,1,138,,2.0,1.0,1.5*0E
2017-12-01 18:11:18 1512169878.384498: $GPGBS,231119,2.67,M,3.86,M,8.82,M*3B
2017-12-01 18:11:19 1512169879.726145: $GPGSV,3,1,12,03,37,304,47,14,59,084,42,16,18,189,42,22,50,279,46*7B
2017-12-01 18:11:19 1512169879.726325: $GPGSV,3,2,12,23,07,298,44,25,22,042,39,26,47,174,47,31,71,016,46*72
2017-12-01 18:11:19 1512169879.726392: $GPGSV,3,3,12,32,40,103,36,01,09,256,37,29,09,076,12,138,38,213,46*46
2017-12-01 18:11:19 1512169879.839509: $GPZDA,231120.00,01,12,2017,00,00*63
2017-12-01 18:11:19 1512169879.839695: $GPGGA,231120,3946.9745,N,08404.9823,W,2,11,1.00,296.95,M,-33.325,M,,*76
2017-12-01 18:11:19 1512169879.839762: $GPRMC,231120,A,3946.9745,N,08404.9823,W,0.0000,0.000,011217,,*37
2017-12-01 18:11:19 1512169879.839823: $GPGSA,A,3,3,14,16,22,23,25,26,31,32,1,138,,2.0,1.0,1.5*0E
2017-12-01 18:11:20 1512169880.392865: $GPZDA,231121.00,01,12,2017,00,00*62
2017-12-01 18:11:20 1512169880.393037: $GPGGA,231121,3946.9745,N,08404.9823,W,2,11,1.00,296.95,M,-33.325,M,,*77
2017-12-01 18:11:20 1512169880.393104: $GPRMC,231121,A,3946.9745,N,08404.9823,W,0.3423,4.197,011217,,*3B
2017-12-01 18:11:20 1512169880.393164: $GPGSA,A,3,3,14,16,22,23,25,26,31,32,1,138,,2.0,1.0,1.5*0E
2017-12-01 18:11:21 1512169881.385707: $GPZDA,231122.00,01,12,2017,00,00*61
2017-12-01 18:11:21 1512169881.385877: $GPGGA,231122,3946.9745,N,08404.9823,W,2,11,0.80,296.95,M,-33.325,M,,*7D
2017-12-01 18:11:21 1512169881.385943: $GPRMC,231122,A,3946.9745,N,08404.9823,W,0.0000,0.000,011217,,*35
2017-12-01 18:11:21 1512169881.386003: $GPGSA,A,3,3,14,16,22,23,25,26,31,32,1,138,,2.0,0.8,1.5*07
2017-12-01 18:11:22 1512169882.722666: $GPGSV,3,1,12,03,37,304,47,14,59,084,43,16,18,189,42,22,50,279,47*7B
2017-12-01 18:11:22 1512169882.722846: $GPGSV,3,2,12,23,07,298,44,25,22,042,39,26,47,174,47,31,71,016,47*73
2017-12-01 18:11:22 1512169882.722912: $GPGSV,3,3,12,32,40,103,39,01,09,256,37,29,09,076,30,138,38,213,46*49
2017-12-01 18:11:22 1512169882.836093: $GPZDA,231123.00,01,12,2017,00,00*60
2017-12-01 18:11:22 1512169882.836237: $GPGGA,231123,3946.9745,N,08404.9823,W,2,12,0.60,296.95,M,-33.325,M,,*71
2017-12-01 18:11:22 1512169882.836303: $GPRMC,231123,A,3946.9745,N,08404.9823,W,0.0000,0.000,011217,,*34
2017-12-01 18:11:22 1512169882.836363: $GPGSA,A,3,3,14,16,22,23,25,26,31,32,1,29,138,2.0,0.6,1.5*02
2017-12-01 18:11:23 1512169883.386946: $GPZDA,231124.00,01,12,2017,00,00*67
2017-12-01 18:11:23 1512169883.387123: $GPGGA,231124,3946.9745,N,08404.9823,W,2,12,0.60,296.95,M,-33.325,M,,*76
2017-12-01 18:11:23 1512169883.387190: $GPRMC,231124,A,3946.9745,N,08404.9823,W,0.0000,0.000,011217,,*33
2017-12-01 18:11:23 1512169883.387251: $GPGSA,A,3,3,14,16,22,23,25,26,31,32,1,29,138,2.0,0.6,1.5*02
2017-12-01 18:11:24 1512169884.384455: $GPZDA,231125.00,01,12,2017,00,00*66
2017-12-01 18:11:24 1512169884.384638: $GPGGA,231125,3946.9741,N,08404.9824,W,2,12,0.60,297.71,M,-33.325,M,,*7F
2017-12-01 18:11:24 1512169884.384706: $GPRMC,231125,A,3946.9741,N,08404.9824,W,0.0000,0.000,011217,,*31
2017-12-01 18:11:24 1512169884.384767: $GPGSA,A,3,3,14,16,22,23,25,26,31,32,1,29,138,2.0,0.6,1.5*02
2017-12-01 18:11:25 1512169885.732324: $GPGSV,3,1,12,03,37,304,47,14,59,084,43,16,18,189,42,22,50,279,47*7B
2017-12-01 18:11:25 1512169885.732523: $GPGSV,3,2,12,23,07,298,44,25,22,042,39,26,47,174,47,31,71,016,47*73
2017-12-01 18:11:25 1512169885.732608: $GPGSV,3,3,12,32,40,103,40,01,09,256,36,29,09,076,29,138,38,213,46*4E
2017-12-01 18:11:25 1512169885.846123: $GPZDA,231126.00,01,12,2017,00,00*65
2017-12-01 18:11:25 1512169885.846291: $GPGGA,231126,3946.9741,N,08404.9824,W,2,12,0.60,297.71,M,-33.325,M,,*7C
2017-12-01 18:11:25 1512169885.846358: $GPRMC,231126,A,3946.9741,N,08404.9824,W,0.0000,0.000,011217,,*32
2017-12-01 18:11:25 1512169885.846441: $GPGSA,A,3,3,14,16,22,23,25,26,31,32,1,29,138,2.0,0.6,1.5*02
2017-12-01 18:11:26 1512169886.471073: $GPZDA,231127.00,01,12,2017,00,00*64
2017-12-01 18:11:26 1512169886.471249: $GPGGA,231127,3946.9741,N,08404.9824,W,2,12,0.60,297.71,M,-33.325,M,,*7D
2017-12-01 18:11:26 1512169886.471317: $GPRMC,231127,A,3946.9741,N,08404.9824,W,0.0000,0.000,011217,,*33
2017-12-01 18:11:26 1512169886.471562: $GPGSA,A,3,3,14,16,22,23,25,26,31,32,1,29,138,2.0,0.6,1.5*02
2017-12-01 18:11:27 1512169887.390888: $GPZDA,231128.00,01,12,2017,00,00*6B
2017-12-01 18:11:27 1512169887.391100: $GPGGA,231128,3946.9741,N,08404.9824,W,2,12,0.60,297.71,M,-33.325,M,,*72
2017-12-01 18:11:27 1512169887.391177: $GPRMC,231128,A,3946.9741,N,08404.9824,W,0.0000,0.000,011217,,*3C
2017-12-01 18:11:27 1512169887.391239: $GPGSA,A,3,3,14,16,22,23,25,26,31,32,1,29,138,2.0,0.6,1.5*02
2017-12-01 18:11:28 1512169888.721441: $GPGSV,3,1,12,03,37,304,47,14,59,084,43,16,18,189,42,22,50,279,47*7B
2017-12-01 18:11:28 1512169888.721639: $GPGSV,3,2,12,23,07,298,44,25,22,042,39,26,47,174,47,31,71,016,47*73
2017-12-01 18:11:28 1512169888.721705: $GPGSV,3,3,12,32,40,103,41,01,09,256,28,29,09,076,29,138,38,213,47*41
2017-12-01 18:11:28 1512169888.834765: $GPZDA,231129.00,01,12,2017,00,00*6A
2017-12-01 18:11:28 1512169888.834938: $GPGGA,231129,3946.9741,N,08404.9824,W,2,12,0.60,297.71,M,-33.325,M,,*73
2017-12-01 18:11:28 1512169888.835006: $GPRMC,231129,A,3946.9741,N,08404.9824,W,0.0000,0.000,011217,,*3D
2017-12-01 18:11:28 1512169888.835067: $GPGSA,A,3,3,14,16,22,23,25,26,31,32,1,29,138,2.0,0.6,1.5*02
2017-12-01 18:11:29 1512169889.386920: $GPZDA,231130.00,01,12,2017,00,00*62
2017-12-01 18:11:29 1512169889.387093: $GPGGA,231130,3946.9741,N,08404.9824,W,2,12,0.60,297.71,M,-33.325,M,,*7B
2017-12-01 18:11:29 1512169889.387159: $GPRMC,231130,A,3946.9741,N,08404.9824,W,0.0000,0.000,011217,,*35
2017-12-01 18:11:29 1512169889.387221: $GPGSA,A,3,3,14,16,22,23,25,26,31,32,1,29,138,2.0,0.6,1.5*02
2017-12-01 18:11:30 1512169890.386353: $GPZDA,231131.00,01,12,2017,00,00*63
2017-12-01 18:11:30 1512169890.386545: $GPGGA,231131,3946.9741,N,08404.9824,W,2,12,0.60,297.71,M,-33.325,M,,*7A
2017-12-01 18:11:30 1512169890.386614: $GPRMC,231131,A,3946.9741,N,08404.9824,W,0.0000,0.000,011217,,*34
2017-12-01 18:11:30 1512169890.386674: $GPGSA,A,3,3,14,16,22,23,25,26,31,32,1,29,138,2.0,0.6,1.5*02
2017-12-01 18:11:30 1512169890.386732: $GPGBS,231131,2.67,M,3.86,M,8.82,M*31
2017-12-01 18:11:31 1512169891.724035: $GPGSV,3,1,12,03,37,304,47,14,59,084,43,16,18,189,42,22,50,279,48*74
2017-12-01 18:11:31 1512169891.724219: $GPGSV,3,2,12,23,07,298,44,25,22,042,39,26,47,174,47,31,71,016,47*73
2017-12-01 18:11:31 1512169891.724288: $GPGSV,3,3,12,32,40,103,41,01,09,256,36,29,09,076,30,138,38,213,46*47
2017-12-01 18:11:31 1512169891.838040: $GPZDA,231132.00,01,12,2017,00,00*60
2017-12-01 18:11:31 1512169891.838208: $GPGGA,231132,3946.9741,N,08404.9824,W,2,12,0.60,297.71,M,-33.325,M,,*79
2017-12-01 18:11:31 1512169891.838274: $GPRMC,231132,A,3946.9741,N,08404.9824,W,0.0000,0.000,011217,,*37
2017-12-01 18:11:31 1512169891.838381: $GPGSA,A,3,3,14,16,22,23,25,26,31,32,1,29,138,2.0,0.6,1.5*02
