2017-12-01 18:00:08 1512169208.917247: {"class":"VERSION","release":"3.16","rev":"3.16-4","proto_major":3,"proto_minor":11}
2017-12-01 18:00:08 1512169208.917669: {"class":"DEVICES","devices":[{"class":"DEVICE","path":"/dev/ttyUSB0","driver":"SiRF","subtype":"9\u0006GSD4e_4.1.2-P1_RPATCH.05-F-GPS-4R-1510281 11/03/2015 307","activated":"2017-12-01T23:00:08.725Z","flags":1,"native":1,"bps":4800,"parity":"N","stopbits":1,"cycle":1.00}]}
2017-12-01 18:00:08 1512169208.917796: {"class":"WATCH","enable":true,"json":false,"nmea":true,"raw":0,"scaled":false,"timing":false,"split24":false,"pps":false}
2017-12-01 18:00:09 1512169209.408709: $GPZDA,230010.00,01,12,2017,00,00*60
2017-12-01 18:00:09 1512169209.408881: $GPGGA,230010,3946.9720,N,08404.9835,W,2,12,0.80,300.81,M,-33.325,M,,*70
2017-12-01 18:00:09 1512169209.408948: $GPRMC,230010,A,3946.9720,N,08404.9835,W,0.0000,0.000,011217,,*30
2017-12-01 18:00:09 1512169209.409011: $GPGSA,A,3,1,3,10,14,16,22,29,25,26,31,32,138,2.0,0.8,1.5*0C
2017-12-01 18:00:10 1512169210.746561: $GPGSV,3,1,12,01,12,261,41,03,33,309,48,10,07,159,35,14,62,075,44*71
2017-12-01 18:00:10 1512169210.746743: $GPGSV,3,2,12,16,12,189,41,22,48,286,46,29,07,081,20,25,26,045,42*7B
2017-12-01 18:00:10 1512169210.746811: $GPGSV,3,3,12,26,42,175,46,31,75,003,47,32,44,097,43,138,38,213,45*41
2017-12-01 18:00:10 1512169210.858657: $GPZDA,230011.00,01,12,2017,00,00*61
2017-12-01 18:00:10 1512169210.858826: $GPGGA,230011,3946.9720,N,08404.9835,W,2,12,0.80,300.81,M,-33.325,M,,*71
2017-12-01 18:00:10 1512169210.858895: $GPRMC,230011,A,3946.9720,N,08404.9835,W,0.0000,0.000,011217,,*31
2017-12-01 18:00:10 1512169210.858958: $GPGSA,A,3,1,3,10,14,16,22,29,25,26,31,32,138,2.0,0.8,1.5*0C
2017-12-01 18:00:11 1512169211.412226: $GPZDA,230012.00,01,12,2017,00,00*62
2017-12-01 18:00:11 1512169211.412403: $GPGGA,230012,3946.9720,N,08404.9835,W,2,12,0.80,300.81,M,-33.325,M,,*72
2017-12-01 18:00:11 1512169211.412474: $GPRMC,230012,A,3946.9720,N,08404.9835,W,0.0000,0.000,011217,,*32
2017-12-01 18:00:11 1512169211.412536: $GPGSA,A,3,1,3,10,14,16,22,29,25,26,31,32,138,2.0,0.8,1.5*0C
2017-12-01 18:00:12 1512169212.412895: $GPZDA,230013.00,01,12,2017,00,00*63
2017-12-01 18:00:12 1512169212.413073: $GPGGA,230013,3946.9720,N,08404.9835,W,2,12,0.80,300.81,M,-33.325,M,,*73
2017-12-01 18:00:12 1512169212.413140: $GPRMC,230013,A,3946.9720,N,08404.9835,W,0.0000,0.000,011217,,*33
2017-12-01 18:00:12 1512169212.413203: $GPGSA,A,3,1,3,10,14,16,22,29,25,26,31,32,138,2.0,0.8,1.5*0C
2017-12-01 18:00:13 1512169213.744865: $GPGSV,3,1,12,01,12,261,41,03,33,309,48,10,07,159,35,14,62,075,44*71
2017-12-01 18:00:13 1512169213.745046: $GPGSV,3,2,12,16,12,189,41,22,48,286,46,29,07,081,20,25,26,045,42*7B
2017-12-01 18:00:13 1512169213.745113: $GPGSV,3,3,12,26,42,175,45,31,75,003,47,32,44,097,44,138,38,213,45*45
2017-12-01 18:00:13 1512169213.858239: $GPZDA,230014.00,01,12,2017,00,00*64
2017-12-01 18:00:13 1512169213.858428: $GPGGA,230014,3946.9720,N,08404.9835,W,2,12,0.80,300.81,M,-33.325,M,,*74
2017-12-01 18:00:13 1512169213.858494: $GPRMC,230014,A,3946.9720,N,08404.9835,W,0.0000,0.000,011217,,*34
2017-12-01 18:00:13 1512169213.858558: $GPGSA,A,3,1,3,10,14,16,22,29,25,26,31,32,138,2.0,0.8,1.5*0C
2017-12-01 18:00:14 1512169214.483615: $GPZDA,230015.00,01,12,2017,00,00*65
2017-12-01 18:00:14 1512169214.483787: $GPGGA,230015,3946.9720,N,08404.9835,W,2,12,0.80,300.81,M,-33.325,M,,*75
2017-12-01 18:00:14 1512169214.483855: $GPRMC,230015,A,3946.9720,N,08404.9835,W,0.0000,0.000,011217,,*35
2017-12-01 18:00:14 1512169214.483918: $GPGSA,A,3,1,3,10,14,16,22,29,25,26,31,32,138,2.0,0.8,1.5*0C
2017-12-01 18:00:15 1512169215.412104: $GPZDA,230016.00,01,12,2017,00,00*66
2017-12-01 18:00:15 1512169215.412280: $GPGGA,230016,3946.9720,N,08404.9835,W,2,12,0.80,300.81,M,-33.325,M,,*76
2017-12-01 18:00:15 1512169215.412349: $GPRMC,230016,A,3946.9720,N,08404.9835,W,0.0000,0.000,011217,,*36
2017-12-01 18:00:15 1512169215.412416: $GPGSA,A,3,1,3,10,14,16,22,29,25,26,31,32,138,2.0,0.8,1.5*0C
2017-12-01 18:00:16 1512169216.747790: $GPGSV,3,1,12,01,12,261,41,03,33,309,48,10,07,159,35,14,62,075,44*71
2017-12-01 18:00:16 1512169216.748014: $GPGSV,3,2,12,16,12,189,41,22,48,286,46,29,07,081,23,25,26,045,42*78
2017-12-01 18:00:16 1512169216.748084: $GPGSV,3,3,12,26,42,175,46,31,75,003,46,32,44,097,44,138,38,213,46*44
2017-12-01 18:00:16 1512169216.861447: $GPZDA,230017.00,01,12,2017,00,00*67
2017-12-01 18:00:16 1512169216.861615: $GPGGA,230017,3946.9720,N,08404.9835,W,2,12,0.80,300.81,M,-33.325,M,,*77
2017-12-01 18:00:16 1512169216.861683: $GPRMC,230017,A,3946.9720,N,08404.9835,W,0.0000,0.000,011217,,*37
2017-12-01 18:00:16 1512169216.861745: $GPGSA,A,3,1,3,10,14,16,22,29,25,26,31,32,138,2.0,0.8,1.5*0C
2017-12-01 18:00:17 1512169217.410711: $GPZDA,230018.00,01,12,2017,00,00*68
2017-12-01 18:00:17 1512169217.410896: $GPGGA,230018,3946.9720,N,08404.9835,W,2,12,0.80,300.81,M,-33.325,M,,*78
2017-12-01 18:00:17 1512169217.410964: $GPRMC,230018,A,3946.9720,N,08404.9835,W,0.0000,0.000,011217,,*38
2017-12-01 18:00:17 1512169217.411027: $GPGSA,A,3,1,3,10,14,16,22,29,25,26,31,32,138,2.0,0.8,1.5*0C
2017-12-01 18:00:18 1512169218.411630: $GPZDA,230019.00,01,12,2017,00,00*69
2017-12-01 18:00:18 1512169218.411805: $GPGGA,230019,3946.9724,N,08404.9834,W,2,12,0.80,300.05,M,-33.325,M,,*70
2017-12-01 18:00:18 1512169218.411874: $GPRMC,230019,A,3946.9724,N,08404.9834,W,0.1567,9.200,011217,,*32
2017-12-01 18:00:18 1512169218.411935: $GPGSA,A,3,1,3,10,14,16,22,29,25,26,31,32,138,2.0,0.8,1.5*0C
2017-12-01 18:00:19 1512169219.748042: $GPGSV,3,1,12,01,12,261,41,03,33,309,48,10,07,159,35,14,62,075,44*71
2017-12-01 18:00:19 1512169219.748235: $GPGSV,3,2,12,16,12,189,41,22,48,286,46,29,07,081,27,25,26,045,42*7C
2017-12-01 18:00:19 1512169219.748303: $GPGSV,3,3,12,26,42,175,46,31,75,003,47,32,44,097,44,138,38,213,46*45
2017-12-01 18:00:19 1512169219.861786: $GPZDA,230020.00,01,12,2017,00,00*63
2017-12-01 18:00:19 1512169219.861977: $GPGGA,230020,3946.9724,N,08404.9834,W,2,12,0.80,300.05,M,-33.325,M,,*7A
2017-12-01 18:00:19 1512169219.862047: $GPRMC,230020,A,3946.9724,N,08404.9834,W,0.0000,0.000,011217,,*36
2017-12-01 18:00:19 1512169219.862111: $GPGSA,A,3,1,3,10,14,16,22,29,25,26,31,32,138,2.0,0.8,1.5*0C
2017-12-01 18:00:20 1512169220.409830: $GPZDA,230021.00,01,12,2017,00,00*62
2017-12-01 18:00:20 1512169220.410002: $GPGGA,230021,3946.9724,N,08404.9834,W,2,12,0.80,300.05,M,-33.325,M,,*7B
2017-12-01 18:00:20 1512169220.410069: $GPRMC,230021,A,3946.9724,N,08404.9834,W,0.0000,0.000,011217,,*37
2017-12-01 18:00:20 1512169220.410130: $GPGSA,A,3,1,3,10,14,16,22,29,25,26,31,32,138,2.0,0.8,1.5*0C
2017-12-01 18:00:21 1512169221.410629: $GPZDA,230022.00,01,12,2017,00,00*61
2017-12-01 18:00:21 1512169221.410792: $GPGGA,230022,3946.9724,N,08404.9834,W,2,12,0.80,300.05,M,-33.325,M,,*78
2017-12-01 18:00:21 1512169221.410858: $GPRMC,230022,A,3946.9724,N,08404.9834,W,0.0000,0.000,011217,,*34
2017-12-01 18:00:21 1512169221.410921: $GPGSA,A,3,1,3,10,14,16,22,29,25,26,31,32,138,2.0,0.8,1.5*0C
2017-12-01 18:00:22 1512169222.746416: $GPGSV,3,1,12,01,12,261,41,03,33,309,47,10,07,159,35,14,62,075,44*7E
2017-12-01 18:00:22 1512169222.746574: $GPGSV,3,2,12,16,12,189,41,22,48,286,46,29,07,081,27,25,26,045,42*7C
2017-12-01 18:00:22 1512169222.746641: $GPGSV,3,3,12,26,42,175,46,31,75,003,47,32,44,097,43,138,38,213,46*42
2017-12-01 18:00:22 1512169222.859809: $GPZDA,230023.00,01,12,2017,00,00*60
2017-12-01 18:00:22 1512169222.859978: $GPGGA,230023,3946.9724,N,08404.9834,W,2,12,0.80,300.05,M,-33.325,M,,*79
2017-12-01 18:00:22 1512169222.860045: $GPRMC,230023,A,3946.9724,N,08404.9834,W,0.0000,0.000,011217,,*35
2017-12-01 18:00:22 1512169222.860106: $GPGSA,A,3,1,3,10,14,16,22,29,25,26,31,32,138,2.0,0.8,1.5*0C
2017-12-01 18:00:23 1512169223.411912: $GPZDA,230024.00,01,12,2017,00,00*67
2017-12-01 18:00:23 1512169223.412104: $GPGGA,230024,3946.9724,N,08404.9834,W,2,12,0.80,300.05,M,-33.325,M,,*7E
2017-12-01 18:00:23 1512169223.412197: $GPRMC,230024,A,3946.9724,N,08404.9834,W,0.0000,0.000,011217,,*32
2017-12-01 18:00:23 1512169223.412266: $GPGSA,A,3,1,3,10,14,16,22,29,25,26,31,32,138,2.0,0.8,1.5*0C
2017-12-01 18:00:24 1512169224.412778: $GPZDA,230025.00,01,12,2017,00,00*66
2017-12-01 18:00:24 1512169224.412970: $GPGGA,230025,3946.9728,N,08404.9834,W,2,12,0.80,300.69,M,-33.325,M,,*79
2017-12-01 18:00:24 1512169224.413041: $GPRMC,230025,A,3946.9728,N,08404.9834,W,0.0000,0.000,011217,,*3F
2017-12-01 18:00:24 1512169224.413104: $GPGSA,A,3,1,3,10,14,16,22,29,25,26,31,32,138,2.0,0.8,1.5*0C
2017-12-01 18:00:25 1512169225.746703: $GPGSV,3,1,12,01,12,261,40,03,33,309,47,10,07,159,34,14,62,075,43*79
2017-12-01 18:00:25 1512169225.746900: $GPGSV,3,2,12,16,12,189,41,22,48,286,46,29,07,081,27,25,26,045,42*7C
2017-12-01 18:00:25 1512169225.746970: $GPGSV,3,3,12,26,42,175,46,31,75,003,47,32,44,097,44,138,38,213,46*45
2017-12-01 18:00:25 1512169225.860046: $GPZDA,230026.00,01,12,2017,00,00*65
2017-12-01 18:00:25 1512169225.860187: $GPGGA,230026,3946.9725,N,08404.9835,W,2,12,0.80,301.45,M,-33.325,M,,*79
2017-12-01 18:00:25 1512169225.860262: $GPRMC,230026,A,3946.9725,N,08404.9835,W,0.0000,0.000,011217,,*30
2017-12-01 18:00:25 1512169225.860325: $GPGSA,A,3,1,3,10,14,16,22,29,25,26,31,32,138,2.0,0.8,1.5*0C
2017-12-01 18:00:26 1512169226.409689: $GPZDA,230027.00,01,12,2017,00,00*64
2017-12-01 18:00:26 1512169226.409865: $GPGGA,230027,3946.9720,N,08404.9835,W,2,12,0.80,300.81,M,-33.325,M,,*74
2017-12-01 18:00:26 1512169226.409935: $GPRMC,230027,A,3946.9720,N,08404.9835,W,0.0000,0.000,011217,,*34
2017-12-01 18:00:26 1512169226.410001: $GPGSA,A,3,1,3,10,14,16,22,29,25,26,31,32,138,2.0,0.8,1.5*0C
2017-12-01 18:00:27 1512169227.412235: $GPZDA,230028.00,01,12,2017,00,00*6B
2017-12-01 18:00:27 1512169227.412410: $GPGGA,230028,3946.9720,N,08404.9835,W,2,12,0.80,300.81,M,-33.325,M,,*7B
2017-12-01 18:00:27 1512169227.412480: $GPRMC,230028,A,3946.9720,N,08404.9835,W,0.0000,0.000,011217,,*3B
2017-12-01 18:00:27 1512169227.412543: $GPGSA,A,3,1,3,10,14,16,22,29,25,26,31,32,138,2.0,0.8,1.5*0C
2017-12-01 18:00:28 1512169228.747538: $GPGSV,3,1,12,01,12,261,40,03,33,309,47,10,07,159,34,14,62,075,44*7E
2017-12-01 18:00:28 1512169228.747719: $GPGSV,3,2,12,16,12,189,41,22,48,286,46,29,07,081,28,25,26,045,42*73
2017-12-01 18:00:28 1512169228.747791: $GPGSV,3,3,12,26,42,175,46,31,75,003,48,32,44,097,43,138,38,213,46*4D
2017-12-01 18:00:28 1512169228.860931: $GPZDA,230029.00,01,12,2017,00,00*6A
2017-12-01 18:00:28 1512169228.861113: $GPGGA,230029,3946.9720,N,08404.9835,W,2,12,0.80,300.81,M,-33.325,M,,*7A
2017-12-01 18:00:28 1512169228.861184: $GPRMC,230029,A,3946.9720,N,08404.9835,W,0.0000,0.000,011217,,*3A
2017-12-01 18:00:28 1512169228.861251: $GPGSA,A,3,1,3,10,14,16,22,29,25,26,31,32,138,2.0,0.8,1.5*0C
