2017-12-01 16:58:55 1512165535.137386: {"class":"VERSION","release":"3.16","rev":"3.16-4","proto_major":3,"proto_minor":11}
2017-12-01 16:58:55 1512165535.137765: {"class":"DEVICES","devices":[{"class":"DEVICE","path":"/dev/ttyUSB0","driver":"SiRF","subtype":"9\u0006GSD4e_4.1.2-P1_RPATCH.05-F-GPS-4R-1510281 11/03/2015 307","activated":"2017-12-01T21:58:54.554Z","flags":1,"native":1,"bps":4800,"parity":"N","stopbits":1,"cycle":1.00}]}
2017-12-01 16:58:55 1512165535.137878: {"class":"WATCH","enable":true,"json":false,"nmea":true,"raw":0,"scaled":false,"timing":false,"split24":false,"pps":false}
2017-12-01 16:58:55 1512165535.421842: $GPZDA,215856.00,01,12,2017,00,00*6D
2017-12-01 16:58:55 1512165535.422013: $GPGGA,215856,3946.9636,N,08404.9771,W,2,11,0.60,300.81,M,-33.324,M,,*78
2017-12-01 16:58:55 1512165535.422080: $GPRMC,215856,A,3946.9636,N,08404.9771,W,0.0000,0.000,011217,,*34
2017-12-01 16:58:55 1512165535.422141: $GPGSA,A,3,1,3,10,12,22,26,31,32,18,25,138,,2.0,0.6,1.5*01
2017-12-01 16:58:56 1512165536.739827: $GPGSV,3,1,11,01,22,288,41,03,10,316,40,10,35,153,38,12,16,039,26*7E
2017-12-01 16:58:56 1512165536.740012: $GPGSV,3,2,11,22,29,309,44,26,13,180,36,31,69,241,47,32,63,058,50*76
2017-12-01 16:58:56 1512165536.740078: $GPGSV,3,3,11,18,06,147,22,25,40,073,21,138,38,213,36*74
2017-12-01 16:58:56 1512165536.853326: $GPZDA,215857.00,01,12,2017,00,00*6C
2017-12-01 16:58:56 1512165536.853472: $GPGGA,215857,3946.9636,N,08404.9771,W,2,11,0.60,300.81,M,-33.324,M,,*79
2017-12-01 16:58:56 1512165536.853537: $GPRMC,215857,A,3946.9636,N,08404.9771,W,0.0000,0.000,011217,,*35
2017-12-01 16:58:56 1512165536.853597: $GPGSA,A,3,1,3,10,12,22,26,31,32,18,25,138,,2.0,0.6,1.5*01
2017-12-01 16:58:57 1512165537.478769: $GPZDA,215858.00,01,12,2017,00,00*63
2017-12-01 16:58:57 1512165537.478940: $GPGGA,215858,3946.9636,N,08404.9771,W,2,11,0.60,300.81,M,-33.324,M,,*76
2017-12-01 16:58:57 1512165537.479006: $GPRMC,215858,A,3946.9636,N,08404.9771,W,0.0000,0.000,011217,,*3A
2017-12-01 16:58:57 1512165537.479067: $GPGSA,A,3,1,3,10,12,22,26,31,32,18,25,138,,2.0,0.6,1.5*01
2017-12-01 16:58:58 1512165538.419610: $GPZDA,215859.00,01,12,2017,00,00*62
2017-12-01 16:58:58 1512165538.419780: $GPGGA,215859,3946.9636,N,08404.9771,W,2,11,0.60,300.81,M,-33.324,M,,*77
2017-12-01 16:58:58 1512165538.419845: $GPRMC,215859,A,3946.9636,N,08404.9771,W,0.0000,0.000,011217,,*3B
2017-12-01 16:58:58 1512165538.419906: $GPGSA,A,3,1,3,10,12,22,26,31,32,18,25,138,,2.0,0.6,1.5*01
2017-12-01 16:58:59 1512165539.756297: $GPGSV,3,1,11,01,22,288,41,03,10,316,40,10,35,153,38,12,16,039,26*7E
2017-12-01 16:58:59 1512165539.756473: $GPGSV,3,2,11,22,29,309,44,26,13,180,35,31,69,241,47,32,63,058,50*75
2017-12-01 16:58:59 1512165539.756540: $GPGSV,3,3,11,18,06,147,22,25,40,073,21,138,38,213,39*7B
2017-12-01 16:58:59 1512165539.869806: $GPZDA,215900.00,01,12,2017,00,00*6F
2017-12-01 16:58:59 1512165539.869981: $GPGGA,215900,3946.9636,N,08404.9771,W,2,11,0.60,300.81,M,-33.324,M,,*7A
2017-12-01 16:58:59 1512165539.870047: $GPRMC,215900,A,3946.9636,N,08404.9771,W,0.0000,0.000,011217,,*36
2017-12-01 16:58:59 1512165539.870108: $GPGSA,A,3,1,3,10,12,22,26,31,32,18,25,138,,2.0,0.6,1.5*01
2017-12-01 16:59:00 1512165540.415602: $GPZDA,215901.00,01,12,2017,00,00*6E
2017-12-01 16:59:00 1512165540.415776: $GPGGA,215901,3946.9636,N,08404.9771,W,2,11,0.60,300.81,M,-33.324,M,,*7B
2017-12-01 16:59:00 1512165540.415843: $GPRMC,215901,A,3946.9636,N,08404.9771,W,0.0000,0.000,011217,,*37
2017-12-01 16:59:00 1512165540.415904: $GPGSA,A,3,1,3,10,12,22,26,31,32,18,25,138,,2.0,0.6,1.5*01
2017-12-01 16:59:01 1512165541.422840: $GPZDA,215902.00,01,12,2017,00,00*6D
2017-12-01 16:59:01 1512165541.423012: $GPGGA,215902,3946.9636,N,08404.9771,W,2,11,0.60,300.81,M,-33.324,M,,*78
2017-12-01 16:59:01 1512165541.423079: $GPRMC,215902,A,3946.9636,N,08404.9771,W,0.0000,0.000,011217,,*34
2017-12-01 16:59:01 1512165541.423140: $GPGSA,A,3,1,3,10,12,22,26,31,32,18,25,138,,2.0,0.6,1.5*01
2017-12-01 16:59:02 1512165542.739129: $GPGSV,3,1,11,01,22,288,41,03,10,316,41,10,35,153,38,12,16,039,26*7F
2017-12-01 16:59:02 1512165542.739365: $GPGSV,3,2,11,22,29,309,44,26,13,180,35,31,69,241,47,32,63,058,50*75
2017-12-01 16:59:02 1512165542.739434: $GPGSV,3,3,11,18,06,147,22,25,40,073,21,138,38,213,40*75
2017-12-01 16:59:02 1512165542.852802: $GPZDA,215903.00,01,12,2017,00,00*6C
2017-12-01 16:59:02 1512165542.852952: $GPGGA,215903,3946.9636,N,08404.9771,W,2,11,0.60,300.81,M,-33.324,M,,*79
2017-12-01 16:59:02 1512165542.853035: $GPRMC,215903,A,3946.9636,N,08404.9771,W,0.0000,0.000,011217,,*35
2017-12-01 16:59:02 1512165542.853098: $GPGSA,A,3,1,3,10,12,22,26,31,32,18,25,138,,2.0,0.6,1.5*01
2017-12-01 16:59:03 1512165543.403721: $GPZDA,215904.00,01,12,2017,00,00*6B
2017-12-01 16:59:03 1512165543.403893: $GPGGA,215904,3946.9636,N,08404.9771,W,2,11,0.60,300.81,M,-33.324,M,,*7E
2017-12-01 16:59:03 1512165543.403960: $GPRMC,215904,A,3946.9636,N,08404.9771,W,0.0000,0.000,011217,,*32
2017-12-01 16:59:03 1512165543.404021: $GPGSA,A,3,1,3,10,12,22,26,31,32,18,25,138,,2.0,0.6,1.5*01
2017-12-01 16:59:04 1512165544.404587: $GPZDA,215905.00,01,12,2017,00,00*6A
2017-12-01 16:59:04 1512165544.404825: $GPGGA,215905,3946.9636,N,08404.9771,W,2,11,0.60,300.81,M,-33.324,M,,*7F
2017-12-01 16:59:04 1512165544.404914: $GPRMC,215905,A,3946.9636,N,08404.9771,W,0.0000,0.000,011217,,*33
2017-12-01 16:59:04 1512165544.404979: $GPGSA,A,3,1,3,10,12,22,26,31,32,18,25,138,,2.0,0.6,1.5*01
2017-12-01 16:59:05 1512165545.740051: $GPGSV,3,1,11,01,22,288,41,03,10,316,41,10,35,153,38,12,16,039,26*7F
2017-12-01 16:59:05 1512165545.740231: $GPGSV,3,2,11,22,29,309,44,26,13,180,30,31,69,241,47,32,63,058,49*78
2017-12-01 16:59:05 1512165545.740299: $GPGSV,3,3,11,18,06,147,22,25,40,073,22,138,38,213,40*76
2017-12-01 16:59:05 1512165545.853820: $GPZDA,215906.00,01,12,2017,00,00*69
2017-12-01 16:59:05 1512165545.853989: $GPGGA,215906,3946.9636,N,08404.9771,W,2,11,0.60,300.81,M,-33.324,M,,*7C
2017-12-01 16:59:05 1512165545.854055: $GPRMC,215906,A,3946.9636,N,08404.9771,W,0.0000,0.000,011217,,*30
2017-12-01 16:59:05 1512165545.854116: $GPGSA,A,3,1,3,10,12,22,26,31,32,18,25,138,,2.0,0.6,1.5*01
2017-12-01 16:59:06 1512165546.403032: $GPZDA,215907.00,01,12,2017,00,00*68
2017-12-01 16:59:06 1512165546.403210: $GPGGA,215907,3946.9636,N,08404.9771,W,2,11,0.60,300.81,M,-33.324,M,,*7D
2017-12-01 16:59:06 1512165546.403278: $GPRMC,215907,A,3946.9636,N,08404.9771,W,0.0000,0.000,011217,,*31
2017-12-01 16:59:06 1512165546.403341: $GPGSA,A,3,1,3,10,12,22,26,31,32,18,25,138,,2.0,0.6,1.5*01
2017-12-01 16:59:07 1512165547.404910: $GPZDA,215908.00,01,12,2017,00,00*67
2017-12-01 16:59:07 1512165547.405080: $GPGGA,215908,3946.9636,N,08404.9771,W,2,11,0.60,300.81,M,-33.324,M,,*72
2017-12-01 16:59:07 1512165547.405147: $GPRMC,215908,A,3946.9636,N,08404.9771,W,0.0000,0.000,011217,,*3E
2017-12-01 16:59:07 1512165547.405208: $GPGSA,A,3,1,3,10,12,22,26,31,32,18,25,138,,2.0,0.6,1.5*01
2017-12-01 16:59:08 1512165548.734113: $GPGSV,3,1,11,01,22,288,41,03,10,316,41,10,35,153,38,12,16,039,25*7C
2017-12-01 16:59:08 1512165548.734298: $GPGSV,3,2,11,22,29,309,44,26,13,180,32,31,69,241,47,32,63,058,49*7A
2017-12-01 16:59:08 1512165548.734365: $GPGSV,3,3,11,18,06,147,23,25,40,073,23,138,38,213,38*79
2017-12-01 16:59:08 1512165548.847441: $GPZDA,215909.00,01,12,2017,00,00*66
2017-12-01 16:59:08 1512165548.847577: $GPGGA,215909,3946.9636,N,08404.9771,W,2,11,0.60,300.81,M,-33.324,M,,*73
2017-12-01 16:59:08 1512165548.847643: $GPRMC,215909,A,3946.9636,N,08404.9771,W,0.0000,0.000,011217,,*3F
2017-12-01 16:59:08 1512165548.847704: $GPGSA,A,3,1,3,10,12,22,26,31,32,18,25,138,,2.0,0.6,1.5*01
2017-12-01 16:59:09 1512165549.404885: $GPZDA,215910.00,01,12,2017,00,00*6E
2017-12-01 16:59:09 1512165549.405073: $GPGGA,215910,3946.9636,N,08404.9771,W,2,11,0.60,300.81,M,-33.324,M,,*7B
2017-12-01 16:59:09 1512165549.405142: $GPRMC,215910,A,3946.9636,N,08404.9771,W,0.0000,0.000,011217,,*37
2017-12-01 16:59:09 1512165549.405203: $GPGSA,A,3,1,3,10,12,22,26,31,32,18,25,138,,2.0,0.6,1.5*01
2017-12-01 16:59:10 1512165550.403344: $GPZDA,215911.00,01,12,2017,00,00*6F
2017-12-01 16:59:10 1512165550.403520: $GPGGA,215911,3946.9636,N,08404.9771,W,2,11,0.60,300.81,M,-33.324,M,,*7A
2017-12-01 16:59:10 1512165550.403636: $GPRMC,215911,A,3946.9636,N,08404.9771,W,0.0000,0.000,011217,,*36
2017-12-01 16:59:10 1512165550.403699: $GPGSA,A,3,1,3,10,12,22,26,31,32,18,25,138,,2.0,0.6,1.5*01
2017-12-01 16:59:11 1512165551.740038: $GPGSV,3,1,11,01,22,288,41,03,10,316,41,10,35,153,37,12,16,039,19*7C
2017-12-01 16:59:11 1512165551.740222: $GPGSV,3,2,11,22,29,309,44,26,13,180,32,31,69,241,47,32,63,058,49*7A
2017-12-01 16:59:11 1512165551.740289: $GPGSV,3,3,11,18,06,147,23,25,40,073,24,138,38,213,40*71
2017-12-01 16:59:11 1512165551.852554: $GPZDA,215912.00,01,12,2017,00,00*6C
2017-12-01 16:59:11 1512165551.852716: $GPGGA,215912,3946.9636,N,08404.9771,W,2,11,0.60,300.81,M,-33.324,M,,*79
2017-12-01 16:59:11 1512165551.852782: $GPRMC,215912,A,3946.9636,N,08404.9771,W,0.0000,0.000,011217,,*35
2017-12-01 16:59:11 1512165551.852843: $GPGSA,A,3,1,3,10,12,22,26,31,32,18,25,138,,2.0,0.6,1.5*01
2017-12-01 16:59:12 1512165552.478998: $GPZDA,215913.00,01,12,2017,00,00*6D
2017-12-01 16:59:12 1512165552.479170: $GPGGA,215913,3946.9636,N,08404.9771,W,2,11,0.60,300.81,M,-33.324,M,,*78
2017-12-01 16:59:12 1512165552.479237: $GPRMC,215913,A,3946.9636,N,08404.9771,W,0.0000,0.000,011217,,*34
2017-12-01 16:59:12 1512165552.479298: $GPGSA,A,3,1,3,10,12,22,26,31,32,18,25,138,,2.0,0.6,1.5*01
2017-12-01 16:59:13 1512165553.407508: $GPZDA,215914.00,01,12,2017,00,00*6A
2017-12-01 16:59:13 1512165553.407683: $GPGGA,215914,3946.9636,N,08404.9771,W,2,11,0.60,300.81,M,-33.324,M,,*7F
2017-12-01 16:59:13 1512165553.407750: $GPRMC,215914,A,3946.9636,N,08404.9771,W,0.0000,0.000,011217,,*33
2017-12-01 16:59:13 1512165553.407812: $GPGSA,A,3,1,3,10,12,22,26,31,32,18,25,138,,2.0,0.6,1.5*01
2017-12-01 16:59:14 1512165554.739148: $GPGSV,3,1,11,01,22,288,41,03,10,316,41,10,35,153,37,12,16,039,16*73
2017-12-01 16:59:14 1512165554.739338: $GPGSV,3,2,11,22,29,309,45,26,13,180,33,31,69,241,47,32,63,058,49*7A
2017-12-01 16:59:14 1512165554.739425: $GPGSV,3,3,11,18,06,147,23,25,40,073,25,138,38,213,41*71
2017-12-01 16:59:14 1512165554.852525: $GPZDA,215915.00,01,12,2017,00,00*6B
2017-12-01 16:59:14 1512165554.852702: $GPGGA,215915,3946.9636,N,08404.9771,W,2,11,0.60,300.81,M,-33.324,M,,*7E
2017-12-01 16:59:14 1512165554.852775: $GPRMC,215915,A,3946.9636,N,08404.9771,W,0.0000,0.000,011217,,*32
2017-12-01 16:59:14 1512165554.852836: $GPGSA,A,3,1,3,10,12,22,26,31,32,18,25,138,,2.0,0.6,1.5*01
