2017-11-16 14:55:44 1510862144.785925: {"class":"VERSION","release":"3.17","rev":"3.17","proto_major":3,"proto_minor":12}
2017-11-16 14:55:44 1510862144.786384: {"class":"DEVICES","devices":[{"class":"DEVICE","path":"/dev/ttyUSB0","driver":"SiRF","subtype":"9\u0006GSD4e_4.1.2-P1_RPATCH.05-F-GPS-4R-1510281 11/03/2015 307","activated":"2017-11-16T19:55:44.671Z","flags":1,"native":1,"bps":4800,"parity":"N","stopbits":1,"cycle":1.00}]}
2017-11-16 14:55:44 1510862144.786499: {"class":"WATCH","enable":true,"json":false,"nmea":true,"raw":0,"scaled":false,"timing":false,"split24":false,"pps":false}
2017-11-16 14:55:45 1510862145.866765: $GPGSV,3,1,12,08,08,304,34,10,57,316,50,12,01,117,00,15,21,060,49*73
2017-11-16 14:55:45 1510862145.866936: $GPGSV,3,2,12,18,77,048,45,21,43,181,45,20,18,109,44,24,52,076,48*7D
2017-11-16 14:55:45 1510862145.866997: $GPGSV,3,3,12,27,13,271,44,32,36,252,47,14,19,244,45,138,38,213,44*44
2017-11-16 14:55:45 1510862145.980076: $GPZDA,195544.00,16,11,2017,00,00*6D
2017-11-16 14:55:45 1510862145.980327: $GPGGA,195544,3946.9575,N,08404.9848,W,2,11,0.80,301.77,M,-33.324,M,,*7A
2017-11-16 14:55:45 1510862145.980401: $GPRMC,195544,A,3946.9575,N,08404.9848,W,0.0000,0.000,161117,,*35
2017-11-16 14:55:45 1510862145.980460: $GPGSA,A,3,8,10,15,18,21,20,24,27,32,14,138,,1.6,0.8,1.3*37
2017-11-16 14:55:46 1510862146.531090: $GPZDA,195545.00,16,11,2017,00,00*6C
2017-11-16 14:55:46 1510862146.531267: $GPGGA,195545,3946.9575,N,08404.9848,W,2,11,0.80,301.77,M,-33.324,M,,*7B
2017-11-16 14:55:46 1510862146.531330: $GPRMC,195545,A,3946.9575,N,08404.9848,W,0.0000,0.000,161117,,*34
2017-11-16 14:55:46 1510862146.531387: $GPGSA,A,3,8,10,15,18,21,20,24,27,32,14,138,,1.6,0.8,1.3*37
2017-11-16 14:55:47 1510862147.530784: $GPZDA,195546.00,16,11,2017,00,00*6F
2017-11-16 14:55:47 1510862147.530963: $GPGGA,195546,3946.9575,N,08404.9848,W,2,11,0.80,301.77,M,-33.324,M,,*78
2017-11-16 14:55:47 1510862147.531029: $GPRMC,195546,A,3946.9575,N,08404.9848,W,0.0000,0.000,161117,,*37
2017-11-16 14:55:47 1510862147.531089: $GPGSA,A,3,8,10,15,18,21,20,24,27,32,14,138,,1.6,0.8,1.3*37
2017-11-16 14:55:48 1510862148.829077: $GPGSV,3,1,12,08,08,304,30,10,57,316,50,12,01,117,00,15,21,060,50*7F
2017-11-16 14:55:48 1510862148.829239: $GPGSV,3,2,12,18,77,048,45,21,43,181,45,20,18,109,44,24,52,076,49*7C
2017-11-16 14:55:48 1510862148.829303: $GPGSV,3,3,12,27,13,271,43,32,36,252,47,14,19,244,45,138,38,213,44*43
2017-11-16 14:55:48 1510862148.942555: $GPZDA,195547.00,16,11,2017,00,00*6E
2017-11-16 14:55:48 1510862148.942727: $GPGGA,195547,3946.9575,N,08404.9848,W,2,11,0.80,301.77,M,-33.324,M,,*79
2017-11-16 14:55:48 1510862148.942792: $GPRMC,195547,A,3946.9575,N,08404.9848,W,0.0000,0.000,161117,,*36
2017-11-16 14:55:48 1510862148.942852: $GPGSA,A,3,8,10,15,18,21,20,24,27,32,14,138,,1.6,0.8,1.3*37
2017-11-16 14:55:49 1510862149.567856: $GPZDA,195548.00,16,11,2017,00,00*61
2017-11-16 14:55:49 1510862149.568022: $GPGGA,195548,3946.9575,N,08404.9848,W,2,11,0.80,301.77,M,-33.324,M,,*76
2017-11-16 14:55:49 1510862149.568089: $GPRMC,195548,A,3946.9575,N,08404.9848,W,0.0000,0.000,161117,,*39
2017-11-16 14:55:49 1510862149.568148: $GPGSA,A,3,8,10,15,18,21,20,24,27,32,14,138,,1.6,0.8,1.3*37
2017-11-16 14:55:50 1510862150.530094: $GPZDA,195549.00,16,11,2017,00,00*60
2017-11-16 14:55:50 1510862150.530272: $GPGGA,195549,3946.9575,N,08404.9848,W,2,11,0.80,301.77,M,-33.324,M,,*77
2017-11-16 14:55:50 1510862150.530402: $GPRMC,195549,A,3946.9575,N,08404.9848,W,0.0000,0.000,161117,,*38
2017-11-16 14:55:50 1510862150.530464: $GPGSA,A,3,8,10,15,18,21,20,24,27,32,14,138,,1.6,0.8,1.3*37
2017-11-16 14:55:51 1510862151.865634: $GPGSV,3,1,12,08,08,304,30,10,57,316,50,12,01,117,00,15,21,060,50*7F
2017-11-16 14:55:51 1510862151.865810: $GPGSV,3,2,12,18,77,048,45,21,43,181,45,20,18,109,44,24,52,076,48*7D
2017-11-16 14:55:51 1510862151.865875: $GPGSV,3,3,12,27,13,271,43,32,36,252,47,14,19,244,45,138,38,213,43*44
2017-11-16 14:55:51 1510862151.978827: $GPZDA,195550.00,16,11,2017,00,00*68
2017-11-16 14:55:51 1510862151.979016: $GPGGA,195550,3946.9575,N,08404.9848,W,2,11,0.80,301.77,M,-33.324,M,,*7F
2017-11-16 14:55:51 1510862151.979136: $GPRMC,195550,A,3946.9575,N,08404.9848,W,0.0000,0.000,161117,,*30
2017-11-16 14:55:51 1510862151.979196: $GPGSA,A,3,8,10,15,18,21,20,24,27,32,14,138,,1.6,0.8,1.3*37
2017-11-16 14:55:52 1510862152.531300: $GPZDA,195551.00,16,11,2017,00,00*69
2017-11-16 14:55:52 1510862152.531462: $GPGGA,195551,3946.9575,N,08404.9848,W,2,11,0.80,301.77,M,-33.324,M,,*7E
2017-11-16 14:55:52 1510862152.531522: $GPRMC,195551,A,3946.9575,N,08404.9848,W,0.0000,0.000,161117,,*31
2017-11-16 14:55:52 1510862152.531580: $GPGSA,A,3,8,10,15,18,21,20,24,27,32,14,138,,1.6,0.8,1.3*37
2017-11-16 14:55:53 1510862153.493417: $GPZDA,195552.00,16,11,2017,00,00*6A
2017-11-16 14:55:53 1510862153.493577: $GPGGA,195552,3946.9575,N,08404.9848,W,2,11,0.80,301.77,M,-33.324,M,,*7D
2017-11-16 14:55:53 1510862153.493642: $GPRMC,195552,A,3946.9575,N,08404.9848,W,0.0000,0.000,161117,,*32
2017-11-16 14:55:53 1510862153.493700: $GPGSA,A,3,8,10,15,18,21,20,24,27,32,14,138,,1.6,0.8,1.3*37
