2017-12-31 18:53:01 1514764381.040860: {"class":"VERSION","release":"3.16","rev":"3.16-4","proto_major":3,"proto_minor":11}
2017-12-31 18:53:01 1514764381.041202: {"class":"DEVICES","devices":[{"class":"DEVICE","path":"/dev/ttyUSB0","driver":"SiRF","activated":"2017-12-31T23:53:00.936Z","flags":1,"native":1,"bps":4800,"parity":"N","stopbits":1,"cycle":1.00}]}
2017-12-31 18:53:01 1514764381.041432: {"class":"WATCH","enable":true,"json":false,"nmea":true,"raw":0,"scaled":false,"timing":false,"split24":false,"pps":false}
2017-12-31 18:53:01 1514764381.354224: $GPZDA,235302.00,31,12,2017,00,00*66
2017-12-31 18:53:01 1514764381.354416: $GPGGA,235302,3946.9578,N,08404.9810,W,2,11,0.80,310.68,M,-33.324,M,,*79
2017-12-31 18:53:01 1514764381.354484: $GPRMC,235302,A,3946.9578,N,08404.9810,W,0.0000,0.000,311217,,*3E
2017-12-31 18:53:01 1514764381.354562: $GPGSA,A,3,22,23,9,3,16,8,31,27,7,26,135,,1.7,0.8,1.3*09
2017-12-31 18:53:02 1514764382.354040: $GPZDA,235303.00,31,12,2017,00,00*67
2017-12-31 18:53:02 1514764382.354212: $GPGGA,235303,3946.9578,N,08404.9810,W,2,11,0.80,310.68,M,-33.324,M,,*78
2017-12-31 18:53:02 1514764382.354278: $GPRMC,235303,A,3946.9578,N,08404.9810,W,0.0000,0.000,311217,,*3F
2017-12-31 18:53:02 1514764382.354340: $GPGSA,A,3,22,23,9,3,16,8,31,27,7,26,135,,1.7,0.8,1.3*09
2017-12-31 18:53:03 1514764383.688068: $GPGSV,3,1,11,22,07,204,25,23,69,279,41,09,37,309,38,03,17,220,32*72
2017-12-31 18:53:03 1514764383.688216: $GPGSV,3,2,11,16,76,036,43,08,17,175,41,31,15,090,28,27,40,142,42*71
2017-12-31 18:53:03 1514764383.688282: $GPGSV,3,3,11,07,11,285,46,26,43,048,45,135,22,240,45*7D
2017-12-31 18:53:03 1514764383.801835: $GPZDA,235304.00,31,12,2017,00,00*60
2017-12-31 18:53:03 1514764383.801993: $GPGGA,235304,3946.9578,N,08404.9810,W,2,11,0.80,310.68,M,-33.324,M,,*7F
2017-12-31 18:53:03 1514764383.802059: $GPRMC,235304,A,3946.9578,N,08404.9810,W,0.0000,0.000,311217,,*38
2017-12-31 18:53:03 1514764383.802120: $GPGSA,A,3,22,23,9,3,16,8,31,27,7,26,135,,1.7,0.8,1.3*09
2017-12-31 18:53:04 1514764384.352644: $GPZDA,235305.00,31,12,2017,00,00*61
2017-12-31 18:53:04 1514764384.352806: $GPGGA,235305,3946.9578,N,08404.9810,W,2,11,0.80,310.68,M,-33.324,M,,*7E
2017-12-31 18:53:04 1514764384.352872: $GPRMC,235305,A,3946.9578,N,08404.9810,W,0.0000,0.000,311217,,*39
2017-12-31 18:53:04 1514764384.352933: $GPGSA,A,3,22,23,9,3,16,8,31,27,7,26,135,,1.7,0.8,1.3*09
2017-12-31 18:53:05 1514764385.353158: $GPZDA,235306.00,31,12,2017,00,00*62
2017-12-31 18:53:05 1514764385.353333: $GPGGA,235306,3946.9578,N,08404.9810,W,2,11,0.80,310.68,M,-33.324,M,,*7D
2017-12-31 18:53:05 1514764385.353399: $GPRMC,235306,A,3946.9578,N,08404.9810,W,0.0000,0.000,311217,,*3A
2017-12-31 18:53:05 1514764385.353460: $GPGSA,A,3,22,23,9,3,16,8,31,27,7,26,135,,1.7,0.8,1.3*09
2017-12-31 18:53:06 1514764386.682233: $GPGSV,3,1,11,22,07,204,25,23,69,279,40,09,37,309,39,03,17,220,32*72
2017-12-31 18:53:06 1514764386.682416: $GPGSV,3,2,11,16,76,036,43,08,17,175,40,31,15,090,28,27,40,142,42*70
2017-12-31 18:53:06 1514764386.682483: $GPGSV,3,3,11,07,11,285,46,26,43,048,45,135,22,240,44*7C
2017-12-31 18:53:06 1514764386.795827: $GPZDA,235307.00,31,12,2017,00,00*63
2017-12-31 18:53:06 1514764386.795961: $GPGGA,235307,3946.9578,N,08404.9810,W,2,11,0.80,310.68,M,-33.324,M,,*7C
2017-12-31 18:53:06 1514764386.796027: $GPRMC,235307,A,3946.9578,N,08404.9810,W,0.0000,0.000,311217,,*3B
2017-12-31 18:53:06 1514764386.796087: $GPGSA,A,3,22,23,9,3,16,8,31,27,7,26,135,,1.7,0.8,1.3*09
2017-12-31 18:53:07 1514764387.352920: $GPZDA,235308.00,31,12,2017,00,00*6C
2017-12-31 18:53:07 1514764387.353090: $GPGGA,235308,3946.9578,N,08404.9810,W,2,11,0.80,310.68,M,-33.324,M,,*73
2017-12-31 18:53:07 1514764387.353156: $GPRMC,235308,A,3946.9578,N,08404.9810,W,0.0000,0.000,311217,,*34
2017-12-31 18:53:07 1514764387.353217: $GPGSA,A,3,22,23,9,3,16,8,31,27,7,26,135,,1.7,0.8,1.3*09
2017-12-31 18:53:08 1514764388.346272: $GPZDA,235309.00,31,12,2017,00,00*6D
2017-12-31 18:53:08 1514764388.346442: $GPGGA,235309,3946.9578,N,08404.9810,W,2,11,0.80,310.68,M,-33.324,M,,*72
2017-12-31 18:53:08 1514764388.346564: $GPRMC,235309,A,3946.9578,N,08404.9810,W,0.0000,0.000,311217,,*35
2017-12-31 18:53:08 1514764388.346627: $GPGSA,A,3,22,23,9,3,16,8,31,27,7,26,135,,1.7,0.8,1.3*09
2017-12-31 18:53:09 1514764389.688016: $GPGSV,3,1,11,22,07,204,26,23,69,279,40,09,37,309,39,03,17,220,32*71
2017-12-31 18:53:09 1514764389.688198: $GPGSV,3,2,11,16,76,036,44,08,17,175,40,31,15,090,29,27,40,142,42*76
2017-12-31 18:53:09 1514764389.688265: $GPGSV,3,3,11,07,11,285,46,26,43,048,45,135,22,240,43*7B
2017-12-31 18:53:09 1514764389.801605: $GPZDA,235310.00,31,12,2017,00,00*65
2017-12-31 18:53:09 1514764389.801727: $GPGGA,235310,3946.9578,N,08404.9810,W,2,11,0.80,310.68,M,-33.324,M,,*7A
2017-12-31 18:53:09 1514764389.801792: $GPRMC,235310,A,3946.9578,N,08404.9810,W,0.0000,0.000,311217,,*3D
2017-12-31 18:53:09 1514764389.801853: $GPGSA,A,3,22,23,9,3,16,8,31,27,7,26,135,,1.7,0.8,1.3*09
2017-12-31 18:53:10 1514764390.427026: $GPZDA,235311.00,31,12,2017,00,00*64
2017-12-31 18:53:10 1514764390.427245: $GPGGA,235311,3946.9578,N,08404.9810,W,2,11,0.80,310.68,M,-33.324,M,,*7B
2017-12-31 18:53:10 1514764390.427313: $GPRMC,235311,A,3946.9578,N,08404.9810,W,0.0000,0.000,311217,,*3C
2017-12-31 18:53:10 1514764390.427374: $GPGSA,A,3,22,23,9,3,16,8,31,27,7,26,135,,1.7,0.8,1.3*09
