2017-12-01 16:12:40 1512162760.366858: {"class":"VERSION","release":"3.16","rev":"3.16-4","proto_major":3,"proto_minor":11}
2017-12-01 16:12:40 1512162760.367357: {"class":"DEVICES","devices":[{"class":"DEVICE","path":"/dev/ttyUSB0","driver":"SiRF","subtype":"9\u0006GSD4e_4.1.2-P1_RPATCH.05-F-GPS-4R-1510281 11/03/2015 307","activated":"2017-12-01T21:12:40.299Z","flags":1,"native":1,"bps":4800,"parity":"N","stopbits":1,"cycle":1.00}]}
2017-12-01 16:12:40 1512162760.367491: {"class":"WATCH","enable":true,"json":false,"nmea":true,"raw":0,"scaled":false,"timing":false,"split24":false,"pps":false}
2017-12-01 16:12:40 1512162760.747094: $GPGSV,3,1,12,01,19,309,34,10,56,144,48,11,10,289,32,12,24,058,44*78
2017-12-01 16:12:40 1512162760.747281: $GPGSV,3,2,12,14,62,312,45,18,25,141,44,22,12,312,37,25,37,100,48*78
2017-12-01 16:12:40 1512162760.747348: $GPGSV,3,3,12,31,48,219,49,32,70,006,47,24,04,048,15,138,38,213,46*49
2017-12-01 16:12:40 1512162760.860741: $GPZDA,211241.00,01,12,2017,00,00*65
2017-12-01 16:12:40 1512162760.860912: $GPGGA,211241,3946.9559,N,08404.9824,W,2,11,0.80,319.40,M,-33.324,M,,*7E
2017-12-01 16:12:40 1512162760.860979: $GPRMC,211241,A,3946.9559,N,08404.9824,W,0.0000,0.000,011217,,*39
2017-12-01 16:12:40 1512162760.861041: $GPGSA,A,3,1,10,11,12,14,18,22,25,31,32,138,,2.0,0.8,1.5*3D
2017-12-01 16:12:41 1512162761.411696: $GPZDA,211242.00,01,12,2017,00,00*66
2017-12-01 16:12:41 1512162761.411876: $GPGGA,211242,3946.9559,N,08404.9824,W,2,11,0.80,319.40,M,-33.324,M,,*7D
2017-12-01 16:12:41 1512162761.411946: $GPRMC,211242,A,3946.9559,N,08404.9824,W,0.0000,0.000,011217,,*3A
2017-12-01 16:12:41 1512162761.412011: $GPGSA,A,3,1,10,11,12,14,18,22,25,31,32,138,,2.0,0.8,1.5*3D
2017-12-01 16:12:42 1512162762.411009: $GPZDA,211243.00,01,12,2017,00,00*67
2017-12-01 16:12:42 1512162762.411187: $GPGGA,211243,3946.9559,N,08404.9824,W,2,11,0.80,319.40,M,-33.324,M,,*7C
2017-12-01 16:12:42 1512162762.411256: $GPRMC,211243,A,3946.9559,N,08404.9824,W,0.0000,0.000,011217,,*3B
2017-12-01 16:12:42 1512162762.411317: $GPGSA,A,3,1,10,11,12,14,18,22,25,31,32,138,,2.0,0.8,1.5*3D
2017-12-01 16:12:43 1512162763.764360: $GPGSV,3,1,12,01,19,309,34,10,56,144,48,11,10,289,33,12,24,058,44*79
2017-12-01 16:12:43 1512162763.764557: $GPGSV,3,2,12,14,62,312,45,18,25,141,44,22,12,312,37,25,37,100,48*78
2017-12-01 16:12:43 1512162763.764627: $GPGSV,3,3,12,31,48,219,49,32,70,006,47,24,04,048,00,138,38,213,46*4D
2017-12-01 16:12:43 1512162763.877742: $GPZDA,211244.00,01,12,2017,00,00*60
2017-12-01 16:12:43 1512162763.877917: $GPGGA,211244,3946.9559,N,08404.9824,W,2,11,0.80,319.40,M,-33.324,M,,*7B
2017-12-01 16:12:43 1512162763.877984: $GPRMC,211244,A,3946.9559,N,08404.9824,W,0.0000,0.000,011217,,*3C
2017-12-01 16:12:43 1512162763.878047: $GPGSA,A,3,1,10,11,12,14,18,22,25,31,32,138,,2.0,0.8,1.5*3D
2017-12-01 16:12:44 1512162764.426221: $GPZDA,211245.00,01,12,2017,00,00*61
2017-12-01 16:12:44 1512162764.426407: $GPGGA,211245,3946.9559,N,08404.9824,W,2,11,0.80,319.40,M,-33.324,M,,*7A
2017-12-01 16:12:44 1512162764.426493: $GPRMC,211245,A,3946.9559,N,08404.9824,W,0.0000,0.000,011217,,*3D
2017-12-01 16:12:44 1512162764.426577: $GPGSA,A,3,1,10,11,12,14,18,22,25,31,32,138,,2.0,0.8,1.5*3D
2017-12-01 16:12:45 1512162765.427898: $GPZDA,211246.00,01,12,2017,00,00*62
2017-12-01 16:12:45 1512162765.428070: $GPGGA,211246,3946.9559,N,08404.9824,W,2,11,0.80,319.40,M,-33.324,M,,*79
2017-12-01 16:12:45 1512162765.428155: $GPRMC,211246,A,3946.9559,N,08404.9824,W,0.0000,0.000,011217,,*3E
2017-12-01 16:12:45 1512162765.428218: $GPGSA,A,3,1,10,11,12,14,18,22,25,31,32,138,,2.0,0.8,1.5*3D
2017-12-01 16:12:46 1512162766.763340: $GPGSV,3,1,12,01,19,309,34,10,56,144,48,11,10,289,33,12,24,058,44*79
2017-12-01 16:12:46 1512162766.763524: $GPGSV,3,2,12,14,62,312,45,18,25,141,44,22,12,312,37,25,37,100,47*77
2017-12-01 16:12:46 1512162766.763592: $GPGSV,3,3,12,31,48,219,49,32,70,006,47,24,04,048,11,138,38,213,46*4D
2017-12-01 16:12:46 1512162766.875522: $GPZDA,211247.00,01,12,2017,00,00*63
2017-12-01 16:12:46 1512162766.875700: $GPGGA,211247,3946.9559,N,08404.9824,W,2,11,0.80,319.40,M,-33.324,M,,*78
2017-12-01 16:12:46 1512162766.875816: $GPRMC,211247,A,3946.9559,N,08404.9824,W,0.0000,0.000,011217,,*3F
2017-12-01 16:12:46 1512162766.875879: $GPGSA,A,3,1,10,11,12,14,18,22,25,31,32,138,,2.0,0.8,1.5*3D
2017-12-01 16:12:47 1512162767.427639: $GPZDA,211248.00,01,12,2017,00,00*6C
2017-12-01 16:12:47 1512162767.427822: $GPGGA,211248,3946.9559,N,08404.9824,W,2,11,0.80,319.40,M,-33.324,M,,*77
2017-12-01 16:12:47 1512162767.427890: $GPRMC,211248,A,3946.9559,N,08404.9824,W,0.0000,0.000,011217,,*30
2017-12-01 16:12:47 1512162767.427951: $GPGSA,A,3,1,10,11,12,14,18,22,25,31,32,138,,2.0,0.8,1.5*3D
2017-12-01 16:12:48 1512162768.412321: $GPZDA,211249.00,01,12,2017,00,00*6D
2017-12-01 16:12:48 1512162768.412489: $GPGGA,211249,3946.9559,N,08404.9824,W,2,11,0.80,319.40,M,-33.324,M,,*76
2017-12-01 16:12:48 1512162768.412555: $GPRMC,211249,A,3946.9559,N,08404.9824,W,0.0000,0.000,011217,,*31
2017-12-01 16:12:48 1512162768.412617: $GPGSA,A,3,1,10,11,12,14,18,22,25,31,32,138,,2.0,0.8,1.5*3D
2017-12-01 16:12:49 1512162769.746773: $GPGSV,3,1,12,01,19,309,35,10,56,144,49,11,10,289,33,12,24,058,44*79
2017-12-01 16:12:49 1512162769.746946: $GPGSV,3,2,12,14,62,312,45,18,25,141,44,22,12,312,38,25,37,100,48*77
2017-12-01 16:12:49 1512162769.747012: $GPGSV,3,3,12,31,48,219,48,32,70,006,47,24,04,048,00,138,38,213,46*4C
2017-12-01 16:12:49 1512162769.860431: $GPZDA,211250.00,01,12,2017,00,00*65
2017-12-01 16:12:49 1512162769.860599: $GPGGA,211250,3946.9559,N,08404.9824,W,2,11,0.80,319.40,M,-33.324,M,,*7E
2017-12-01 16:12:49 1512162769.860666: $GPRMC,211250,A,3946.9559,N,08404.9824,W,0.0000,0.000,011217,,*39
2017-12-01 16:12:49 1512162769.860726: $GPGSA,A,3,1,10,11,12,14,18,22,25,31,32,138,,2.0,0.8,1.5*3D
2017-12-01 16:12:50 1512162770.485498: $GPZDA,211251.00,01,12,2017,00,00*64
2017-12-01 16:12:50 1512162770.485677: $GPGGA,211251,3946.9559,N,08404.9824,W,2,11,0.80,319.40,M,-33.324,M,,*7F
2017-12-01 16:12:50 1512162770.485745: $GPRMC,211251,A,3946.9559,N,08404.9824,W,0.0000,0.000,011217,,*38
2017-12-01 16:12:50 1512162770.485806: $GPGSA,A,3,1,10,11,12,14,18,22,25,31,32,138,,2.0,0.8,1.5*3D
2017-12-01 16:12:51 1512162771.413833: $GPZDA,211252.00,01,12,2017,00,00*67
2017-12-01 16:12:51 1512162771.414006: $GPGGA,211252,3946.9559,N,08404.9824,W,2,11,0.80,319.40,M,-33.324,M,,*7C
2017-12-01 16:12:51 1512162771.414072: $GPRMC,211252,A,3946.9559,N,08404.9824,W,0.0000,0.000,011217,,*3B
2017-12-01 16:12:51 1512162771.414133: $GPGSA,A,3,1,10,11,12,14,18,22,25,31,32,138,,2.0,0.8,1.5*3D
2017-12-01 16:12:52 1512162772.763361: $GPGSV,3,1,12,01,19,309,35,10,56,144,48,11,10,289,34,12,24,058,44*7F
2017-12-01 16:12:52 1512162772.763543: $GPGSV,3,2,12,14,62,312,45,18,25,141,44,22,12,312,38,25,37,100,48*77
2017-12-01 16:12:52 1512162772.763608: $GPGSV,3,3,12,31,48,219,49,32,70,006,47,24,04,048,17,138,38,213,46*4B
2017-12-01 16:12:52 1512162772.876742: $GPZDA,211253.00,01,12,2017,00,00*66
2017-12-01 16:12:52 1512162772.876895: $GPGGA,211253,3946.9559,N,08404.9824,W,2,11,0.80,319.40,M,-33.324,M,,*7D
2017-12-01 16:12:52 1512162772.876961: $GPRMC,211253,A,3946.9559,N,08404.9824,W,0.0000,0.000,011217,,*3A
2017-12-01 16:12:52 1512162772.877022: $GPGSA,A,3,1,10,11,12,14,18,22,25,31,32,138,,2.0,0.8,1.5*3D
2017-12-01 16:12:53 1512162773.427959: $GPZDA,211254.00,01,12,2017,00,00*61
2017-12-01 16:12:53 1512162773.428127: $GPGGA,211254,3946.9559,N,08404.9824,W,2,11,0.80,319.40,M,-33.324,M,,*7A
2017-12-01 16:12:53 1512162773.428194: $GPRMC,211254,A,3946.9559,N,08404.9824,W,0.0000,0.000,011217,,*3D
2017-12-01 16:12:53 1512162773.428255: $GPGSA,A,3,1,10,11,12,14,18,22,25,31,32,138,,2.0,0.8,1.5*3D
2017-12-01 16:12:54 1512162774.426297: $GPZDA,211255.00,01,12,2017,00,00*60
2017-12-01 16:12:54 1512162774.426453: $GPGGA,211255,3946.9559,N,08404.9824,W,2,11,0.80,319.40,M,-33.324,M,,*7B
2017-12-01 16:12:54 1512162774.426520: $GPRMC,211255,A,3946.9559,N,08404.9824,W,0.0000,0.000,011217,,*3C
2017-12-01 16:12:54 1512162774.426581: $GPGSA,A,3,1,10,11,12,14,18,22,25,31,32,138,,2.0,0.8,1.5*3D
2017-12-01 16:12:55 1512162775.748815: $GPGSV,3,1,12,01,19,309,36,10,56,144,48,11,10,289,34,12,24,058,44*7C
2017-12-01 16:12:55 1512162775.749009: $GPGSV,3,2,12,14,62,312,45,18,25,141,44,22,12,312,38,25,37,100,48*77
2017-12-01 16:12:55 1512162775.749076: $GPGSV,3,3,12,31,48,219,49,32,70,006,46,24,04,048,12,138,38,213,47*4E
2017-12-01 16:12:55 1512162775.862233: $GPZDA,211256.00,01,12,2017,00,00*63
2017-12-01 16:12:55 1512162775.862405: $GPGGA,211256,3946.9559,N,08404.9824,W,2,12,0.80,319.40,M,-33.324,M,,*7B
2017-12-01 16:12:55 1512162775.862473: $GPRMC,211256,A,3946.9559,N,08404.9824,W,0.0000,0.000,011217,,*3F
2017-12-01 16:12:55 1512162775.862534: $GPGSA,A,3,1,10,11,12,14,18,22,25,31,32,24,138,2.0,0.8,1.5*3B
2017-12-01 16:12:56 1512162776.428290: $GPZDA,211257.00,01,12,2017,00,00*62
2017-12-01 16:12:56 1512162776.428462: $GPGGA,211257,3946.9559,N,08404.9824,W,2,12,0.80,319.40,M,-33.324,M,,*7A
2017-12-01 16:12:56 1512162776.428529: $GPRMC,211257,A,3946.9559,N,08404.9824,W,0.0000,0.000,011217,,*3E
2017-12-01 16:12:56 1512162776.428591: $GPGSA,A,3,1,10,11,12,14,18,22,25,31,32,24,138,2.0,0.8,1.5*3B
2017-12-01 16:12:57 1512162777.426530: $GPZDA,211258.00,01,12,2017,00,00*6D
2017-12-01 16:12:57 1512162777.426710: $GPGGA,211258,3946.9563,N,08404.9823,W,2,12,0.80,318.63,M,-33.324,M,,*7B
2017-12-01 16:12:57 1512162777.426775: $GPRMC,211258,A,3946.9563,N,08404.9823,W,0.0000,0.000,011217,,*3F
2017-12-01 16:12:57 1512162777.426837: $GPGSA,A,3,1,10,11,12,14,18,22,25,31,32,24,138,2.0,0.8,1.5*3B
2017-12-01 16:12:58 1512162778.747256: $GPGSV,3,1,12,01,19,309,36,10,56,144,49,11,10,289,34,12,24,058,44*7D
2017-12-01 16:12:58 1512162778.747439: $GPGSV,3,2,12,14,62,312,45,18,25,141,44,22,12,312,38,25,37,100,48*77
2017-12-01 16:12:58 1512162778.747506: $GPGSV,3,3,12,31,48,219,49,32,70,006,46,24,04,048,20,138,38,213,46*4E
2017-12-01 16:12:58 1512162778.859367: $GPZDA,211259.00,01,12,2017,00,00*6C
2017-12-01 16:12:58 1512162778.859534: $GPGGA,211259,3946.9563,N,08404.9823,W,2,12,0.80,318.63,M,-33.324,M,,*7A
2017-12-01 16:12:58 1512162778.859601: $GPRMC,211259,A,3946.9563,N,08404.9823,W,0.0000,0.000,011217,,*3E
2017-12-01 16:12:58 1512162778.859661: $GPGSA,A,3,1,10,11,12,14,18,22,25,31,32,24,138,2.0,0.8,1.5*3B
2017-12-01 16:12:59 1512162779.411450: $GPZDA,211300.00,01,12,2017,00,00*61
2017-12-01 16:12:59 1512162779.411633: $GPGGA,211300,3946.9563,N,08404.9823,W,2,12,0.80,318.63,M,-33.324,M,,*77
2017-12-01 16:12:59 1512162779.411701: $GPRMC,211300,A,3946.9563,N,08404.9823,W,0.0000,0.000,011217,,*33
2017-12-01 16:12:59 1512162779.411763: $GPGSA,A,3,1,10,11,12,14,18,22,25,31,32,24,138,2.0,0.8,1.5*3B
