2017-11-16 13:33:49 1510857229.426367: {"class":"VERSION","release":"3.17","rev":"3.17","proto_major":3,"proto_minor":12}
2017-11-16 13:33:49 1510857229.426897: {"class":"DEVICES","devices":[{"class":"DEVICE","path":"/dev/ttyUSB0","driver":"SiRF","subtype":"9\u0006GSD4e_4.1.2-P1_RPATCH.05-F-GPS-4R-1510281 11/03/2015 307","activated":"2017-11-16T18:33:49.420Z","flags":1,"native":1,"bps":4800,"parity":"N","stopbits":1,"cycle":1.00}]}
2017-11-16 13:33:49 1510857229.427022: {"class":"WATCH","enable":true,"json":false,"nmea":true,"raw":0,"scaled":false,"timing":false,"split24":false,"pps":false}
2017-11-16 13:33:50 1510857230.256584: $GPZDA,183349.00,16,11,2017,00,00*61
2017-11-16 13:33:50 1510857230.256752: $GPGGA,183349,3946.9611,N,08404.9839,W,2,11,0.80,304.80,M,-33.324,M,,*7C
2017-11-16 13:33:50 1510857230.256814: $GPRMC,183349,A,3946.9611,N,08404.9839,W,0.0000,0.000,161117,,*3E
2017-11-16 13:33:50 1510857230.256870: $GPGSA,A,3,10,13,15,18,20,21,24,27,29,32,138,,1.6,0.8,1.3*03
2017-11-16 13:33:51 1510857231.613501: $GPGSV,3,1,11,10,28,288,42,13,23,045,45,15,55,049,50,18,59,307,46*78
2017-11-16 13:33:51 1510857231.613649: $GPGSV,3,2,11,20,46,079,48,21,78,237,46,24,39,133,45,27,18,307,39*7C
2017-11-16 13:33:51 1510857231.613709: $GPGSV,3,3,11,29,04,187,27,32,06,228,34,138,38,213,45*75
2017-11-16 13:33:51 1510857231.727054: $GPZDA,183350.00,16,11,2017,00,00*69
2017-11-16 13:33:51 1510857231.727210: $GPGGA,183350,3946.9611,N,08404.9839,W,2,11,0.80,304.80,M,-33.324,M,,*74
2017-11-16 13:33:51 1510857231.727271: $GPRMC,183350,A,3946.9611,N,08404.9839,W,0.0000,0.000,161117,,*36
2017-11-16 13:33:51 1510857231.727327: $GPGSA,A,3,10,13,15,18,20,21,24,27,29,32,138,,1.6,0.8,1.3*03
2017-11-16 13:33:52 1510857232.277682: $GPZDA,183351.00,16,11,2017,00,00*68
2017-11-16 13:33:52 1510857232.277851: $GPGGA,183351,3946.9611,N,08404.9839,W,2,11,0.80,304.80,M,-33.324,M,,*75
2017-11-16 13:33:52 1510857232.277912: $GPRMC,183351,A,3946.9611,N,08404.9839,W,0.0000,0.000,161117,,*37
2017-11-16 13:33:52 1510857232.277967: $GPGSA,A,3,10,13,15,18,20,21,24,27,29,32,138,,1.6,0.8,1.3*03
2017-11-16 13:33:53 1510857233.278658: $GPZDA,183352.00,16,11,2017,00,00*6B
2017-11-16 13:33:53 1510857233.278840: $GPGGA,183352,3946.9611,N,08404.9839,W,2,11,0.80,304.80,M,-33.324,M,,*76
2017-11-16 13:33:53 1510857233.278901: $GPRMC,183352,A,3946.9611,N,08404.9839,W,0.0000,0.000,161117,,*34
2017-11-16 13:33:53 1510857233.278957: $GPGSA,A,3,10,13,15,18,20,21,24,27,29,32,138,,1.6,0.8,1.3*03
2017-11-16 13:33:54 1510857234.593017: $GPGSV,3,1,11,10,28,288,44,13,23,045,45,15,55,049,50,18,59,307,46*7E
2017-11-16 13:33:54 1510857234.593201: $GPGSV,3,2,11,20,46,079,48,21,78,237,46,24,39,133,44,27,18,307,39*7D
2017-11-16 13:33:54 1510857234.593262: $GPGSV,3,3,11,29,04,187,28,32,06,228,34,138,38,213,45*7A
2017-11-16 13:33:54 1510857234.706611: $GPZDA,183353.00,16,11,2017,00,00*6A
2017-11-16 13:33:54 1510857234.706756: $GPGGA,183353,3946.9611,N,08404.9839,W,2,11,0.80,304.80,M,-33.324,M,,*77
2017-11-16 13:33:54 1510857234.706816: $GPRMC,183353,A,3946.9611,N,08404.9839,W,0.0000,0.000,161117,,*35
2017-11-16 13:33:54 1510857234.706872: $GPGSA,A,3,10,13,15,18,20,21,24,27,29,32,138,,1.6,0.8,1.3*03
2017-11-16 13:33:55 1510857235.331967: $GPZDA,183354.00,16,11,2017,00,00*6D
2017-11-16 13:33:55 1510857235.332123: $GPGGA,183354,3946.9611,N,08404.9839,W,2,11,0.80,304.80,M,-33.324,M,,*70
2017-11-16 13:33:55 1510857235.332184: $GPRMC,183354,A,3946.9611,N,08404.9839,W,0.0000,0.000,161117,,*32
2017-11-16 13:33:55 1510857235.332239: $GPGSA,A,3,10,13,15,18,20,21,24,27,29,32,138,,1.6,0.8,1.3*03
2017-11-16 13:33:56 1510857236.250037: $GPZDA,183355.00,16,11,2017,00,00*6C
2017-11-16 13:33:56 1510857236.250193: $GPGGA,183355,3946.9611,N,08404.9839,W,2,11,0.80,304.80,M,-33.324,M,,*71
2017-11-16 13:33:56 1510857236.250255: $GPRMC,183355,A,3946.9611,N,08404.9839,W,0.0000,0.000,161117,,*33
2017-11-16 13:33:56 1510857236.250374: $GPGSA,A,3,10,13,15,18,20,21,24,27,29,32,138,,1.6,0.8,1.3*03
2017-11-16 13:33:57 1510857237.615778: $GPGSV,3,1,11,10,28,288,44,13,23,045,45,15,55,049,50,18,59,307,46*7E
2017-11-16 13:33:57 1510857237.616000: $GPGSV,3,2,11,20,46,079,48,21,78,237,46,24,39,133,45,27,18,307,39*7C
2017-11-16 13:33:57 1510857237.616062: $GPGSV,3,3,11,29,04,187,27,32,06,228,33,138,38,213,44*73
2017-11-16 13:33:57 1510857237.729249: $GPZDA,183356.00,16,11,2017,00,00*6F
2017-11-16 13:33:57 1510857237.729428: $GPGGA,183356,3946.9611,N,08404.9839,W,2,11,0.80,304.80,M,-33.324,M,,*72
2017-11-16 13:33:57 1510857237.729488: $GPRMC,183356,A,3946.9611,N,08404.9839,W,0.0000,0.000,161117,,*30
2017-11-16 13:33:57 1510857237.729544: $GPGSA,A,3,10,13,15,18,20,21,24,27,29,32,138,,1.6,0.8,1.3*03
2017-11-16 13:33:58 1510857238.257654: $GPZDA,183357.00,16,11,2017,00,00*6E
2017-11-16 13:33:58 1510857238.257812: $GPGGA,183357,3946.9611,N,08404.9839,W,2,11,0.80,304.80,M,-33.324,M,,*73
2017-11-16 13:33:58 1510857238.257873: $GPRMC,183357,A,3946.9611,N,08404.9839,W,0.0000,0.000,161117,,*31
2017-11-16 13:33:58 1510857238.257929: $GPGSA,A,3,10,13,15,18,20,21,24,27,29,32,138,,1.6,0.8,1.3*03
2017-11-16 13:33:59 1510857239.258503: $GPZDA,183358.00,16,11,2017,00,00*61
2017-11-16 13:33:59 1510857239.261130: $GPGGA,183358,3946.9611,N,08404.9839,W,2,11,0.80,304.80,M,-33.324,M,,*7C
2017-11-16 13:33:59 1510857239.261266: $GPRMC,183358,A,3946.9611,N,08404.9839,W,0.0000,0.000,161117,,*3E
2017-11-16 13:33:59 1510857239.261343: $GPGSA,A,3,10,13,15,18,20,21,24,27,29,32,138,,1.6,0.8,1.3*03
2017-11-16 13:34:00 1510857240.590940: $GPGSV,3,1,11,10,28,288,45,13,23,045,45,15,55,049,50,18,59,307,45*7C
2017-11-16 13:34:00 1510857240.591129: $GPGSV,3,2,11,20,46,079,48,21,78,237,46,24,39,133,45,27,18,307,39*7C
2017-11-16 13:34:00 1510857240.591190: $GPGSV,3,3,11,29,04,187,27,32,06,228,32,138,38,213,44*72
2017-11-16 13:34:00 1510857240.704503: $GPZDA,183359.00,16,11,2017,00,00*60
2017-11-16 13:34:00 1510857240.704642: $GPGGA,183359,3946.9611,N,08404.9839,W,2,11,0.80,304.80,M,-33.324,M,,*7D
2017-11-16 13:34:00 1510857240.704703: $GPRMC,183359,A,3946.9611,N,08404.9839,W,0.0000,0.000,161117,,*3F
2017-11-16 13:34:00 1510857240.704759: $GPGSA,A,3,10,13,15,18,20,21,24,27,29,32,138,,1.6,0.8,1.3*03
2017-11-16 13:34:01 1510857241.257861: $GPZDA,183400.00,16,11,2017,00,00*6B
2017-11-16 13:34:01 1510857241.258021: $GPGGA,183400,3946.9611,N,08404.9839,W,2,11,0.80,304.80,M,-33.324,M,,*76
2017-11-16 13:34:01 1510857241.258107: $GPRMC,183400,A,3946.9611,N,08404.9839,W,0.0000,0.000,161117,,*34
2017-11-16 13:34:01 1510857241.258165: $GPGSA,A,3,10,13,15,18,20,21,24,27,29,32,138,,1.6,0.8,1.3*03
2017-11-16 13:34:02 1510857242.256331: $GPZDA,183401.00,16,11,2017,00,00*6A
2017-11-16 13:34:02 1510857242.256492: $GPGGA,183401,3946.9611,N,08404.9839,W,2,11,0.80,304.80,M,-33.324,M,,*77
2017-11-16 13:34:02 1510857242.256554: $GPRMC,183401,A,3946.9611,N,08404.9839,W,0.0000,0.000,161117,,*35
2017-11-16 13:34:02 1510857242.256610: $GPGSA,A,3,10,13,15,18,20,21,24,27,29,32,138,,1.6,0.8,1.3*03
2017-11-16 13:34:03 1510857243.591880: $GPGSV,3,1,11,10,28,288,44,13,23,045,44,15,55,049,51,18,59,307,45*7D
2017-11-16 13:34:03 1510857243.592050: $GPGSV,3,2,11,20,46,079,48,21,78,237,46,24,39,133,45,27,18,307,39*7C
2017-11-16 13:34:03 1510857243.592129: $GPGSV,3,3,11,29,04,187,27,32,06,228,32,138,38,213,44*72
2017-11-16 13:34:03 1510857243.705628: $GPZDA,183402.00,16,11,2017,00,00*69
2017-11-16 13:34:03 1510857243.705787: $GPGGA,183402,3946.9611,N,08404.9839,W,2,11,0.80,304.80,M,-33.324,M,,*74
2017-11-16 13:34:03 1510857243.705849: $GPRMC,183402,A,3946.9611,N,08404.9839,W,0.0000,0.000,161117,,*36
2017-11-16 13:34:03 1510857243.705905: $GPGSA,A,3,10,13,15,18,20,21,24,27,29,32,138,,1.6,0.8,1.3*03
2017-11-16 13:34:04 1510857244.256456: $GPZDA,183403.00,16,11,2017,00,00*68
2017-11-16 13:34:04 1510857244.256630: $GPGGA,183403,3946.9611,N,08404.9839,W,2,11,0.80,304.80,M,-33.324,M,,*75
2017-11-16 13:34:04 1510857244.256711: $GPRMC,183403,A,3946.9611,N,08404.9839,W,0.0000,0.000,161117,,*37
2017-11-16 13:34:04 1510857244.256770: $GPGSA,A,3,10,13,15,18,20,21,24,27,29,32,138,,1.6,0.8,1.3*03
2017-11-16 13:34:05 1510857245.255195: $GPZDA,183404.00,16,11,2017,00,00*6F
2017-11-16 13:34:05 1510857245.255450: $GPGGA,183404,3946.9611,N,08404.9839,W,2,11,0.80,304.80,M,-33.324,M,,*72
2017-11-16 13:34:05 1510857245.255515: $GPRMC,183404,A,3946.9611,N,08404.9839,W,0.0000,0.000,161117,,*30
2017-11-16 13:34:05 1510857245.255571: $GPGSA,A,3,10,13,15,18,20,21,24,27,29,32,138,,1.6,0.8,1.3*03
2017-11-16 13:34:06 1510857246.585775: $GPGSV,3,1,11,10,28,288,43,13,23,045,45,15,55,049,51,18,59,307,45*7B
2017-11-16 13:34:06 1510857246.585994: $GPGSV,3,2,11,20,46,079,47,21,78,237,46,24,39,133,45,27,18,307,39*73
2017-11-16 13:34:06 1510857246.586056: $GPGSV,3,3,11,29,04,187,27,32,06,228,31,138,38,213,43*76
2017-11-16 13:34:06 1510857246.699145: $GPZDA,183405.00,16,11,2017,00,00*6E
2017-11-16 13:34:06 1510857246.699311: $GPGGA,183405,3946.9611,N,08404.9839,W,2,11,0.80,304.80,M,-33.324,M,,*73
2017-11-16 13:34:06 1510857246.699372: $GPRMC,183405,A,3946.9611,N,08404.9839,W,0.0000,0.000,161117,,*31
2017-11-16 13:34:06 1510857246.699428: $GPGSA,A,3,10,13,15,18,20,21,24,27,29,32,138,,1.6,0.8,1.3*03
2017-11-16 13:34:07 1510857247.255693: $GPZDA,183406.00,16,11,2017,00,00*6D
2017-11-16 13:34:07 1510857247.255883: $GPGGA,183406,3946.9611,N,08404.9839,W,2,11,0.80,304.80,M,-33.324,M,,*70
2017-11-16 13:34:07 1510857247.255973: $GPRMC,183406,A,3946.9611,N,08404.9839,W,0.0000,0.000,161117,,*32
2017-11-16 13:34:07 1510857247.256045: $GPGSA,A,3,10,13,15,18,20,21,24,27,29,32,138,,1.6,0.8,1.3*03
2017-11-16 13:34:08 1510857248.254539: $GPZDA,183407.00,16,11,2017,00,00*6C
2017-11-16 13:34:08 1510857248.254687: $GPGGA,183407,3946.9611,N,08404.9839,W,2,11,0.80,304.80,M,-33.324,M,,*71
2017-11-16 13:34:08 1510857248.254770: $GPRMC,183407,A,3946.9611,N,08404.9839,W,0.0000,0.000,161117,,*33
2017-11-16 13:34:08 1510857248.254828: $GPGSA,A,3,10,13,15,18,20,21,24,27,29,32,138,,1.6,0.8,1.3*03
2017-11-16 13:34:09 1510857249.591522: $GPGSV,3,1,11,10,28,288,42,13,23,045,45,15,55,049,51,18,59,307,45*7A
2017-11-16 13:34:09 1510857249.591721: $GPGSV,3,2,11,20,46,079,47,21,78,237,46,24,39,133,45,27,18,307,40*7D
2017-11-16 13:34:09 1510857249.591783: $GPGSV,3,3,11,29,04,187,27,32,06,228,31,138,38,213,44*71
2017-11-16 13:34:09 1510857249.704868: $GPZDA,183408.00,16,11,2017,00,00*63
2017-11-16 13:34:09 1510857249.705026: $GPGGA,183408,3946.9611,N,08404.9839,W,2,11,0.80,304.80,M,-33.324,M,,*7E
2017-11-16 13:34:09 1510857249.705087: $GPRMC,183408,A,3946.9611,N,08404.9839,W,0.0000,0.000,161117,,*3C
2017-11-16 13:34:09 1510857249.705143: $GPGSA,A,3,10,13,15,18,20,21,24,27,29,32,138,,1.6,0.8,1.3*03
2017-11-16 13:34:10 1510857250.330176: $GPZDA,183409.00,16,11,2017,00,00*62
2017-11-16 13:34:10 1510857250.330387: $GPGGA,183409,3946.9611,N,08404.9839,W,2,11,0.80,304.80,M,-33.324,M,,*7F
2017-11-16 13:34:10 1510857250.330452: $GPRMC,183409,A,3946.9611,N,08404.9839,W,0.0000,0.000,161117,,*3D
2017-11-16 13:34:10 1510857250.330508: $GPGSA,A,3,10,13,15,18,20,21,24,27,29,32,138,,1.6,0.8,1.3*03
2017-11-16 13:34:11 1510857251.276400: $GPZDA,183410.00,16,11,2017,00,00*6A
2017-11-16 13:34:11 1510857251.276695: $GPGGA,183410,3946.9611,N,08404.9839,W,2,11,0.80,304.80,M,-33.324,M,,*77
2017-11-16 13:34:11 1510857251.276817: $GPRMC,183410,A,3946.9611,N,08404.9839,W,0.0000,0.000,161117,,*35
2017-11-16 13:34:11 1510857251.276945: $GPGSA,A,3,10,13,15,18,20,21,24,27,29,32,138,,1.6,0.8,1.3*03
2017-11-16 13:34:12 1510857252.606754: $GPGSV,3,1,11,10,28,288,42,13,23,045,45,15,55,049,51,18,59,307,45*7A
2017-11-16 13:34:12 1510857252.606920: $GPGSV,3,2,11,20,46,079,48,21,78,237,46,24,39,133,45,27,18,307,39*7C
2017-11-16 13:34:12 1510857252.606981: $GPGSV,3,3,11,29,04,187,28,32,06,228,30,138,38,213,45*7E
2017-11-16 13:34:12 1510857252.720098: $GPZDA,183411.00,16,11,2017,00,00*6B
2017-11-16 13:34:12 1510857252.720256: $GPGGA,183411,3946.9611,N,08404.9839,W,2,11,0.80,304.80,M,-33.324,M,,*76
2017-11-16 13:34:12 1510857252.720378: $GPRMC,183411,A,3946.9611,N,08404.9839,W,0.0000,0.000,161117,,*34
2017-11-16 13:34:12 1510857252.720436: $GPGSA,A,3,10,13,15,18,20,21,24,27,29,32,138,,1.6,0.8,1.3*03
2017-11-16 13:34:13 1510857253.255939: $GPZDA,183412.00,16,11,2017,00,00*68
2017-11-16 13:34:13 1510857253.256143: $GPGGA,183412,3946.9611,N,08404.9839,W,2,11,0.80,304.80,M,-33.324,M,,*75
2017-11-16 13:34:13 1510857253.256206: $GPRMC,183412,A,3946.9611,N,08404.9839,W,0.0000,0.000,161117,,*37
2017-11-16 13:34:13 1510857253.256262: $GPGSA,A,3,10,13,15,18,20,21,24,27,29,32,138,,1.6,0.8,1.3*03
2017-11-16 13:34:14 1510857254.278026: $GPZDA,183413.00,16,11,2017,00,00*69
2017-11-16 13:34:14 1510857254.278205: $GPGGA,183413,3946.9611,N,08404.9839,W,2,11,0.80,304.80,M,-33.324,M,,*74
2017-11-16 13:34:14 1510857254.278266: $GPRMC,183413,A,3946.9611,N,08404.9839,W,0.0000,0.000,161117,,*36
2017-11-16 13:34:14 1510857254.278322: $GPGSA,A,3,10,13,15,18,20,21,24,27,29,32,138,,1.6,0.8,1.3*03
2017-11-16 13:34:15 1510857255.590842: $GPGSV,3,1,11,10,28,288,42,13,23,045,45,15,55,049,51,18,59,307,45*7A
2017-11-16 13:34:15 1510857255.591012: $GPGSV,3,2,11,20,46,079,48,21,78,237,46,24,39,133,45,27,18,307,40*72
2017-11-16 13:34:15 1510857255.591072: $GPGSV,3,3,11,29,04,187,29,32,06,228,30,138,38,213,45*7F
2017-11-16 13:34:15 1510857255.704335: $GPZDA,183414.00,16,11,2017,00,00*6E
2017-11-16 13:34:15 1510857255.704492: $GPGGA,183414,3946.9611,N,08404.9839,W,2,11,0.80,304.80,M,-33.324,M,,*73
2017-11-16 13:34:15 1510857255.704556: $GPRMC,183414,A,3946.9611,N,08404.9839,W,0.0000,0.000,161117,,*31
2017-11-16 13:34:15 1510857255.704614: $GPGSA,A,3,10,13,15,18,20,21,24,27,29,32,138,,1.6,0.8,1.3*03
2017-11-16 13:34:16 1510857256.253620: $GPZDA,183415.00,16,11,2017,00,00*6F
2017-11-16 13:34:16 1510857256.253782: $GPGGA,183415,3946.9611,N,08404.9839,W,2,11,0.80,304.80,M,-33.324,M,,*72
2017-11-16 13:34:16 1510857256.253845: $GPRMC,183415,A,3946.9611,N,08404.9839,W,0.0000,0.000,161117,,*30
2017-11-16 13:34:16 1510857256.253900: $GPGSA,A,3,10,13,15,18,20,21,24,27,29,32,138,,1.6,0.8,1.3*03
2017-11-16 13:34:17 1510857257.276978: $GPZDA,183416.00,16,11,2017,00,00*6C
2017-11-16 13:34:17 1510857257.277146: $GPGGA,183416,3946.9611,N,08404.9839,W,2,11,0.80,304.80,M,-33.324,M,,*71
2017-11-16 13:34:17 1510857257.277208: $GPRMC,183416,A,3946.9611,N,08404.9839,W,0.0000,0.000,161117,,*33
2017-11-16 13:34:17 1510857257.277263: $GPGSA,A,3,10,13,15,18,20,21,24,27,29,32,138,,1.6,0.8,1.3*03
2017-11-16 13:34:18 1510857258.615377: $GPGSV,3,1,11,10,28,288,42,13,23,045,45,15,55,049,51,18,59,307,45*7A
2017-11-16 13:34:18 1510857258.615529: $GPGSV,3,2,11,20,46,079,48,21,78,237,46,24,39,133,45,27,18,307,40*72
2017-11-16 13:34:18 1510857258.615593: $GPGSV,3,3,11,29,04,187,29,32,06,228,24,138,38,213,44*7B
2017-11-16 13:34:18 1510857258.726002: $GPZDA,183417.00,16,11,2017,00,00*6D
2017-11-16 13:34:18 1510857258.726166: $GPGGA,183417,3946.9611,N,08404.9839,W,2,11,0.80,304.80,M,-33.324,M,,*70
2017-11-16 13:34:18 1510857258.726228: $GPRMC,183417,A,3946.9611,N,08404.9839,W,0.0000,0.000,161117,,*32
2017-11-16 13:34:18 1510857258.726287: $GPGSA,A,3,10,13,15,18,20,21,24,27,29,32,138,,1.6,0.8,1.3*03
2017-11-16 13:34:19 1510857259.278107: $GPZDA,183418.00,16,11,2017,00,00*62
2017-11-16 13:34:19 1510857259.278292: $GPGGA,183418,3946.9611,N,08404.9839,W,2,11,0.80,304.80,M,-33.324,M,,*7F
2017-11-16 13:34:19 1510857259.278361: $GPRMC,183418,A,3946.9611,N,08404.9839,W,0.0000,0.000,161117,,*3D
2017-11-16 13:34:19 1510857259.278420: $GPGSA,A,3,10,13,15,18,20,21,24,27,29,32,138,,1.6,0.8,1.3*03
