2017-11-16 14:41:09 1510861269.686555: {"class":"VERSION","release":"3.17","rev":"3.17","proto_major":3,"proto_minor":12}
2017-11-16 14:41:09 1510861269.686991: {"class":"DEVICES","devices":[{"class":"DEVICE","path":"/dev/ttyUSB0","driver":"SiRF","subtype":"9\u0006GSD4e_4.1.2-P1_RPATCH.05-F-GPS-4R-1510281 11/03/2015 307","activated":"2017-11-16T19:41:09.431Z","flags":1,"native":1,"bps":4800,"parity":"N","stopbits":1,"cycle":1.00}]}
2017-11-16 14:41:09 1510861269.687100: {"class":"WATCH","enable":true,"json":false,"nmea":true,"raw":0,"scaled":false,"timing":false,"split24":false,"pps":false}
2017-11-16 14:41:09 1510861269.879552: $GPGSV,3,1,11,08,08,312,43,10,51,310,51,15,27,057,51,18,77,015,44*75
2017-11-16 14:41:09 1510861269.879749: $GPGSV,3,2,11,21,51,184,47,20,24,105,47,24,53,088,48,27,16,277,42*78
2017-11-16 14:41:09 1510861269.879809: $GPGSV,3,3,11,32,30,247,47,14,14,238,44,138,38,213,44*71
2017-11-16 14:41:09 1510861269.992840: $GPZDA,194108.00,16,11,2017,00,00*60
2017-11-16 14:41:09 1510861269.993006: $GPGGA,194108,3946.9564,N,08404.9842,W,2,11,0.80,302.74,M,-33.324,M,,*7D
2017-11-16 14:41:09 1510861269.993068: $GPRMC,194108,A,3946.9564,N,08404.9842,W,0.0000,0.000,161117,,*32
2017-11-16 14:41:09 1510861269.993127: $GPGSA,A,3,8,10,15,18,21,20,24,27,32,14,138,,1.6,0.8,1.3*37
2017-11-16 14:41:10 1510861270.510186: $GPZDA,194109.00,16,11,2017,00,00*61
2017-11-16 14:41:10 1510861270.510428: $GPGGA,194109,3946.9564,N,08404.9842,W,2,11,0.80,302.74,M,-33.324,M,,*7C
2017-11-16 14:41:10 1510861270.510500: $GPRMC,194109,A,3946.9564,N,08404.9842,W,0.0000,0.000,161117,,*33
2017-11-16 14:41:10 1510861270.510558: $GPGSA,A,3,8,10,15,18,21,20,24,27,32,14,138,,1.6,0.8,1.3*37
2017-11-16 14:41:11 1510861271.509733: $GPZDA,194110.00,16,11,2017,00,00*69
2017-11-16 14:41:11 1510861271.509893: $GPGGA,194110,3946.9564,N,08404.9842,W,2,11,0.80,302.74,M,-33.324,M,,*74
2017-11-16 14:41:11 1510861271.509956: $GPRMC,194110,A,3946.9564,N,08404.9842,W,0.0000,0.000,161117,,*3B
2017-11-16 14:41:11 1510861271.510012: $GPGSA,A,3,8,10,15,18,21,20,24,27,32,14,138,,1.6,0.8,1.3*37
2017-11-16 14:41:12 1510861272.846325: $GPGSV,3,1,11,08,08,312,43,10,51,310,51,15,27,057,51,18,77,015,44*75
2017-11-16 14:41:12 1510861272.846505: $GPGSV,3,2,11,21,51,184,47,20,24,105,46,24,53,088,49,27,16,277,42*78
2017-11-16 14:41:12 1510861272.846589: $GPGSV,3,3,11,32,30,247,47,14,14,238,43,138,38,213,44*76
2017-11-16 14:41:12 1510861272.959740: $GPZDA,194111.00,16,11,2017,00,00*68
2017-11-16 14:41:12 1510861272.959903: $GPGGA,194111,3946.9564,N,08404.9842,W,2,11,0.80,302.74,M,-33.324,M,,*75
2017-11-16 14:41:12 1510861272.959964: $GPRMC,194111,A,3946.9564,N,08404.9842,W,0.0000,0.000,161117,,*3A
2017-11-16 14:41:12 1510861272.960021: $GPGSA,A,3,8,10,15,18,21,20,24,27,32,14,138,,1.6,0.8,1.3*37
2017-11-16 14:41:13 1510861273.504340: $GPZDA,194112.00,16,11,2017,00,00*6B
2017-11-16 14:41:13 1510861273.504522: $GPGGA,194112,3946.9564,N,08404.9842,W,2,11,0.80,302.74,M,-33.324,M,,*76
2017-11-16 14:41:13 1510861273.504585: $GPRMC,194112,A,3946.9564,N,08404.9842,W,0.0000,0.000,161117,,*39
2017-11-16 14:41:13 1510861273.504641: $GPGSA,A,3,8,10,15,18,21,20,24,27,32,14,138,,1.6,0.8,1.3*37
2017-11-16 14:41:14 1510861274.543262: $GPZDA,194113.00,16,11,2017,00,00*6A
2017-11-16 14:41:14 1510861274.543432: $GPGGA,194113,3946.9564,N,08404.9842,W,2,11,0.80,302.74,M,-33.324,M,,*77
2017-11-16 14:41:14 1510861274.543493: $GPRMC,194113,A,3946.9564,N,08404.9842,W,0.0000,0.000,161117,,*38
2017-11-16 14:41:14 1510861274.543549: $GPGSA,A,3,8,10,15,18,21,20,24,27,32,14,138,,1.6,0.8,1.3*37
2017-11-16 14:41:15 1510861275.879055: $GPGSV,3,1,11,08,08,312,43,10,51,310,51,15,27,057,51,18,77,015,44*75
2017-11-16 14:41:15 1510861275.879237: $GPGSV,3,2,11,21,51,184,47,20,24,105,46,24,53,088,48,27,16,277,42*79
2017-11-16 14:41:15 1510861275.879298: $GPGSV,3,3,11,32,30,247,47,14,14,238,43,138,38,213,43*71
2017-11-16 14:41:15 1510861275.992224: $GPZDA,194114.00,16,11,2017,00,00*6D
2017-11-16 14:41:15 1510861275.992392: $GPGGA,194114,3946.9564,N,08404.9842,W,2,11,0.80,302.74,M,-33.324,M,,*70
2017-11-16 14:41:15 1510861275.992523: $GPRMC,194114,A,3946.9564,N,08404.9842,W,0.0000,0.000,161117,,*3F
2017-11-16 14:41:15 1510861275.992582: $GPGSA,A,3,8,10,15,18,21,20,24,27,32,14,138,,1.6,0.8,1.3*37
2017-11-16 14:41:16 1510861276.509573: $GPZDA,194115.00,16,11,2017,00,00*6C
2017-11-16 14:41:16 1510861276.509720: $GPGGA,194115,3946.9564,N,08404.9842,W,2,11,0.80,302.74,M,-33.324,M,,*71
2017-11-16 14:41:16 1510861276.509781: $GPRMC,194115,A,3946.9564,N,08404.9842,W,0.0000,0.000,161117,,*3E
2017-11-16 14:41:16 1510861276.509837: $GPGSA,A,3,8,10,15,18,21,20,24,27,32,14,138,,1.6,0.8,1.3*37
2017-11-16 14:41:17 1510861277.543861: $GPZDA,194116.00,16,11,2017,00,00*6F
2017-11-16 14:41:17 1510861277.544015: $GPGGA,194116,3946.9564,N,08404.9842,W,2,11,0.80,302.74,M,-33.324,M,,*72
2017-11-16 14:41:17 1510861277.544077: $GPRMC,194116,A,3946.9564,N,08404.9842,W,0.0000,0.000,161117,,*3D
2017-11-16 14:41:17 1510861277.544132: $GPGSA,A,3,8,10,15,18,21,20,24,27,32,14,138,,1.6,0.8,1.3*37
2017-11-16 14:41:18 1510861278.845837: $GPGSV,3,1,11,08,08,312,42,10,51,310,50,15,27,057,50,18,77,015,44*74
2017-11-16 14:41:18 1510861278.846006: $GPGSV,3,2,11,21,51,184,47,20,24,105,46,24,53,088,47,27,16,277,42*76
2017-11-16 14:41:18 1510861278.846069: $GPGSV,3,3,11,32,30,247,47,14,14,238,43,138,38,213,44*76
2017-11-16 14:41:18 1510861278.959110: $GPZDA,194117.00,16,11,2017,00,00*6E
2017-11-16 14:41:18 1510861278.959276: $GPGGA,194117,3946.9564,N,08404.9842,W,2,11,0.80,302.74,M,-33.324,M,,*73
2017-11-16 14:41:18 1510861278.959339: $GPRMC,194117,A,3946.9564,N,08404.9842,W,0.0000,0.000,161117,,*3C
2017-11-16 14:41:18 1510861278.959395: $GPGSA,A,3,8,10,15,18,21,20,24,27,32,14,138,,1.6,0.8,1.3*37
2017-11-16 14:41:19 1510861279.584444: $GPZDA,194118.00,16,11,2017,00,00*61
2017-11-16 14:41:19 1510861279.584613: $GPGGA,194118,3946.9564,N,08404.9842,W,2,11,0.80,302.74,M,-33.324,M,,*7C
2017-11-16 14:41:19 1510861279.584678: $GPRMC,194118,A,3946.9564,N,08404.9842,W,0.0000,0.000,161117,,*33
2017-11-16 14:41:19 1510861279.584734: $GPGSA,A,3,8,10,15,18,21,20,24,27,32,14,138,,1.6,0.8,1.3*37
