2017-11-16 15:10:02 1510863002.326715: {"class":"VERSION","release":"3.17","rev":"3.17","proto_major":3,"proto_minor":12}
2017-11-16 15:10:02 1510863002.327207: {"class":"DEVICES","devices":[{"class":"DEVICE","path":"/dev/ttyUSB0","driver":"SiRF","subtype":"9\u0006GSD4e_4.1.2-P1_RPATCH.05-F-GPS-4R-1510281 11/03/2015 307","activated":"2017-11-16T20:10:02.276Z","flags":1,"native":1,"bps":4800,"parity":"N","stopbits":1,"cycle":1.00}]}
2017-11-16 15:10:02 1510863002.327325: {"class":"WATCH","enable":true,"json":false,"nmea":true,"raw":0,"scaled":false,"timing":false,"split24":false,"pps":false}
2017-11-16 15:10:02 1510863002.390242: $GPZDA,201001.00,16,11,2017,00,00*67
2017-11-16 15:10:02 1510863002.390466: $GPGGA,201001,3946.9582,N,08404.9846,W,2,12,0.80,300.25,M,-33.324,M,,*73
2017-11-16 15:10:02 1510863002.390530: $GPRMC,201001,A,3946.9582,N,08404.9846,W,0.0000,0.000,161117,,*39
2017-11-16 15:10:02 1510863002.390586: $GPGSA,A,3,8,10,14,15,18,20,21,24,27,32,12,138,1.6,0.8,1.3*34
2017-11-16 15:10:03 1510863003.389383: $GPZDA,201002.00,16,11,2017,00,00*64
2017-11-16 15:10:03 1510863003.389564: $GPGGA,201002,3946.9582,N,08404.9846,W,2,12,0.80,300.25,M,-33.324,M,,*70
2017-11-16 15:10:03 1510863003.389625: $GPRMC,201002,A,3946.9582,N,08404.9846,W,0.0000,0.000,161117,,*3A
2017-11-16 15:10:03 1510863003.389681: $GPGSA,A,3,8,10,14,15,18,20,21,24,27,32,12,138,1.6,0.8,1.3*34
2017-11-16 15:10:04 1510863004.721433: $GPGSV,3,1,12,08,07,300,34,10,63,322,51,14,24,249,45,15,16,063,38*70
2017-11-16 15:10:04 1510863004.721599: $GPGSV,3,2,12,18,75,073,46,20,13,114,34,21,36,181,45,24,49,067,49*7D
2017-11-16 15:10:04 1510863004.721660: $GPGSV,3,3,12,27,10,265,45,32,41,258,47,12,05,112,22,138,38,213,44*43
2017-11-16 15:10:04 1510863004.833527: $GPZDA,201003.00,16,11,2017,00,00*65
2017-11-16 15:10:04 1510863004.833702: $GPGGA,201003,3946.9582,N,08404.9846,W,2,12,0.80,300.25,M,-33.324,M,,*71
2017-11-16 15:10:04 1510863004.833764: $GPRMC,201003,A,3946.9582,N,08404.9846,W,0.0000,0.000,161117,,*3B
2017-11-16 15:10:04 1510863004.833820: $GPGSA,A,3,8,10,14,15,18,20,21,24,27,32,12,138,1.6,0.8,1.3*34
2017-11-16 15:10:05 1510863005.390577: $GPZDA,201004.00,16,11,2017,00,00*62
2017-11-16 15:10:05 1510863005.390742: $GPGGA,201004,3946.9582,N,08404.9846,W,2,12,0.80,300.25,M,-33.324,M,,*76
2017-11-16 15:10:05 1510863005.390803: $GPRMC,201004,A,3946.9582,N,08404.9846,W,0.0000,0.000,161117,,*3C
2017-11-16 15:10:05 1510863005.390859: $GPGSA,A,3,8,10,14,15,18,20,21,24,27,32,12,138,1.6,0.8,1.3*34
2017-11-16 15:10:06 1510863006.389937: $GPZDA,201005.00,16,11,2017,00,00*63
2017-11-16 15:10:06 1510863006.390106: $GPGGA,201005,3946.9582,N,08404.9846,W,2,12,0.80,300.25,M,-33.324,M,,*77
2017-11-16 15:10:06 1510863006.390167: $GPRMC,201005,A,3946.9582,N,08404.9846,W,0.0000,0.000,161117,,*3D
2017-11-16 15:10:06 1510863006.390223: $GPGSA,A,3,8,10,14,15,18,20,21,24,27,32,12,138,1.6,0.8,1.3*34
2017-11-16 15:10:07 1510863007.726958: $GPGSV,3,1,12,08,07,300,34,10,63,322,51,14,24,249,45,15,16,063,38*70
2017-11-16 15:10:07 1510863007.727131: $GPGSV,3,2,12,18,75,073,47,20,13,114,34,21,36,181,44,24,49,067,49*7D
2017-11-16 15:10:07 1510863007.727193: $GPGSV,3,3,12,27,10,265,45,32,41,258,46,12,05,112,22,138,38,213,43*45
2017-11-16 15:10:07 1510863007.839997: $GPZDA,201006.00,16,11,2017,00,00*60
2017-11-16 15:10:07 1510863007.840160: $GPGGA,201006,3946.9582,N,08404.9846,W,2,12,0.80,300.25,M,-33.324,M,,*74
2017-11-16 15:10:07 1510863007.840222: $GPRMC,201006,A,3946.9582,N,08404.9846,W,0.0000,0.000,161117,,*3E
2017-11-16 15:10:07 1510863007.840388: $GPGSA,A,3,8,10,14,15,18,20,21,24,27,32,12,138,1.6,0.8,1.3*34
2017-11-16 15:10:08 1510863008.391467: $GPZDA,201007.00,16,11,2017,00,00*61
2017-11-16 15:10:08 1510863008.391642: $GPGGA,201007,3946.9582,N,08404.9846,W,2,12,0.80,300.25,M,-33.324,M,,*75
2017-11-16 15:10:08 1510863008.391706: $GPRMC,201007,A,3946.9582,N,08404.9846,W,0.0000,0.000,161117,,*3F
2017-11-16 15:10:08 1510863008.391763: $GPGSA,A,3,8,10,14,15,18,20,21,24,27,32,12,138,1.6,0.8,1.3*34
2017-11-16 15:10:09 1510863009.391437: $GPZDA,201008.00,16,11,2017,00,00*6E
2017-11-16 15:10:09 1510863009.391707: $GPGGA,201008,3946.9582,N,08404.9846,W,2,12,0.80,300.25,M,-33.324,M,,*7A
2017-11-16 15:10:09 1510863009.391776: $GPRMC,201008,A,3946.9582,N,08404.9846,W,0.0000,0.000,161117,,*30
2017-11-16 15:10:09 1510863009.391833: $GPGSA,A,3,8,10,14,15,18,20,21,24,27,32,12,138,1.6,0.8,1.3*34
2017-11-16 15:10:10 1510863010.726116: $GPGSV,3,1,12,08,07,300,33,10,63,322,50,14,24,249,46,15,16,063,38*75
2017-11-16 15:10:10 1510863010.726284: $GPGSV,3,2,12,18,75,073,47,20,13,114,34,21,36,181,44,24,49,067,49*7D
2017-11-16 15:10:10 1510863010.726343: $GPGSV,3,3,12,27,10,265,45,32,41,258,46,12,05,112,23,138,38,213,44*43
2017-11-16 15:10:10 1510863010.838167: $GPZDA,201009.00,16,11,2017,00,00*6F
2017-11-16 15:10:10 1510863010.838333: $GPGGA,201009,3946.9582,N,08404.9846,W,2,12,0.80,300.25,M,-33.324,M,,*7B
2017-11-16 15:10:10 1510863010.838394: $GPRMC,201009,A,3946.9582,N,08404.9846,W,0.0000,0.000,161117,,*31
2017-11-16 15:10:10 1510863010.838449: $GPGSA,A,3,8,10,14,15,18,20,21,24,27,32,12,138,1.6,0.8,1.3*34
2017-11-16 15:10:11 1510863011.464728: $GPZDA,201010.00,16,11,2017,00,00*67
2017-11-16 15:10:11 1510863011.464926: $GPGGA,201010,3946.9582,N,08404.9846,W,2,12,0.80,300.25,M,-33.324,M,,*73
2017-11-16 15:10:11 1510863011.464988: $GPRMC,201010,A,3946.9582,N,08404.9846,W,0.0000,0.000,161117,,*39
2017-11-16 15:10:11 1510863011.465044: $GPGSA,A,3,8,10,14,15,18,20,21,24,27,32,12,138,1.6,0.8,1.3*34
