2018-01-12 03:02:03 1515744123.700339: {"class":"VERSION","release":"3.16","rev":"3.16-4","proto_major":3,"proto_minor":11}
2018-01-12 03:02:03 1515744123.700695: {"class":"DEVICES","devices":[{"class":"DEVICE","path":"/dev/ttyUSB0","driver":"SiRF","subtype":"9\u0006GSD4e_4.1.2-P1_RPATCH.05-F-GPS-4R-1510281 11/03/2015 307","activated":"2018-01-12T08:02:03.408Z","flags":1,"native":1,"bps":4800,"parity":"N","stopbits":1,"cycle":1.00}]}
2018-01-12 03:02:03 1515744123.700807: {"class":"WATCH","enable":true,"json":false,"nmea":true,"raw":0,"scaled":false,"timing":false,"split24":false,"pps":false}
2018-01-12 03:02:04 1515744124.009837: $GPZDA,080204.70,12,01,2018,00,00*66
2018-01-12 03:02:04 1515744124.010024: $GPGGA,080204,3946.9718,N,08404.9803,W,1,11,1.40,307.59,M,-33.325,M,,*7F
2018-01-12 03:02:04 1515744124.010091: $GPRMC,080204,A,3946.9718,N,08404.9803,W,1.0892,169.869,120118,,*34
2018-01-12 03:02:04 1515744124.010171: $GPGSA,A,3,2,6,3,12,17,19,24,25,5,9,138,,2.4,1.4,2.1*3F
2018-01-12 03:02:04 1515744124.010230: $GPGBS,080204,11.98,M,14.47,M,47.88,M*04
2018-01-12 03:02:05 1515744125.137629: $GPZDA,080205.38,12,01,2018,00,00*6B
2018-01-12 03:02:05 1515744125.141810: $GPGGA,080205,3946.9718,N,08404.9803,W,1,11,1.40,307.59,M,-33.325,M,,*7E
2018-01-12 03:02:05 1515744125.141906: $GPRMC,080205,A,3946.9718,N,08404.9803,W,0.1867,180.000,120118,,*3F
2018-01-12 03:02:05 1515744125.141987: $GPGSA,A,3,2,6,3,12,17,19,24,25,5,9,138,,2.4,1.4,2.1*3F
2018-01-12 03:02:06 1515744126.325160: $GPGSV,3,1,11,02,56,264,47,12,42,307,51,17,41,091,43,19,59,073,42*76
2018-01-12 03:02:06 1515744126.325312: $GPGSV,3,2,11,24,11,256,37,25,07,322,36,03,05,034,03,05,13,193,03*70
2018-01-12 03:02:06 1515744126.325377: $GPGSV,3,3,11,09,07,100,00,23,06,067,00,138,38,213,00*71
2018-01-12 03:02:06 1515744126.438536: $GPZDA,080206.00,12,01,2018,00,00*63
2018-01-12 03:02:06 1515744126.438698: $GPGGA,080206,3946.9722,N,08404.9803,W,1,06,1.40,308.23,M,-33.325,M,,*70
2018-01-12 03:02:06 1515744126.438765: $GPRMC,080206,A,3946.9722,N,08404.9803,W,0.5287,182.716,120118,,*37
2018-01-12 03:02:06 1515744126.438827: $GPGSA,A,3,2,12,17,19,24,25,,,,,,,2.4,1.4,2.1*0C
2018-01-12 03:02:06 1515744126.890936: $GPZDA,080207.00,12,01,2018,00,00*62
2018-01-12 03:02:06 1515744126.891125: $GPGGA,080207,3946.9727,N,08404.9810,W,1,06,0.80,308.79,M,-33.325,M,,*74
2018-01-12 03:02:06 1515744126.891193: $GPRMC,080207,A,3946.9727,N,08404.9810,W,0.0000,0.000,120118,,*32
2018-01-12 03:02:06 1515744126.891270: $GPGSA,A,3,2,12,17,19,24,25,,,,,,,2.4,0.8,2.1*01
2018-01-12 03:02:07 1515744127.409283: $GPZDA,080208.00,12,01,2018,00,00*6D
2018-01-12 03:02:07 1515744127.409426: $GPGGA,080208,3946.9727,N,08404.9810,W,1,06,0.80,308.79,M,-33.325,M,,*7B
2018-01-12 03:02:07 1515744127.409491: $GPRMC,080208,A,3946.9727,N,08404.9810,W,0.0000,0.000,120118,,*3D
2018-01-12 03:02:07 1515744127.409552: $GPGSA,A,3,2,12,17,19,24,25,,,,,,,2.4,0.8,2.1*01
2018-01-12 03:02:08 1515744128.744270: $GPGSV,3,1,11,02,56,264,48,12,42,307,51,17,41,091,43,19,59,073,42*79
2018-01-12 03:02:08 1515744128.744442: $GPGSV,3,2,11,24,11,256,37,25,07,322,36,03,05,034,26,05,13,193,27*71
2018-01-12 03:02:08 1515744128.744507: $GPGSV,3,3,11,09,07,100,00,23,06,067,00,138,38,213,39*7B
2018-01-12 03:02:08 1515744128.857902: $GPZDA,080209.00,12,01,2018,00,00*6C
2018-01-12 03:02:08 1515744128.858056: $GPGGA,080209,3946.9731,N,08404.9817,W,1,09,0.80,309.35,M,-33.325,M,,*7C
2018-01-12 03:02:08 1515744128.858138: $GPRMC,080209,A,3946.9731,N,08404.9817,W,0.0000,0.000,120118,,*3C
2018-01-12 03:02:08 1515744128.858200: $GPGSA,A,3,2,12,17,19,24,25,3,5,138,,,,2.4,0.8,2.1*3D
2018-01-12 03:02:09 1515744129.405036: $GPZDA,080210.00,12,01,2018,00,00*64
2018-01-12 03:02:09 1515744129.405199: $GPGGA,080210,3946.9731,N,08404.9817,W,1,09,0.80,309.35,M,-33.325,M,,*74
2018-01-12 03:02:09 1515744129.405265: $GPRMC,080210,A,3946.9731,N,08404.9817,W,0.0000,0.000,120118,,*34
2018-01-12 03:02:09 1515744129.405326: $GPGSA,A,3,2,12,17,19,24,25,3,5,138,,,,2.4,0.8,2.1*3D
