2017-12-01 15:25:19 1512159919.677081: {"class":"VERSION","release":"3.16","rev":"3.16-4","proto_major":3,"proto_minor":11}
2017-12-01 15:25:19 1512159919.677502: {"class":"DEVICES","devices":[{"class":"DEVICE","path":"/dev/ttyUSB0","driver":"SiRF","subtype":"9\u0006GSD4e_4.1.2-P1_RPATCH.05-F-GPS-4R-1510281 11/03/2015 307","activated":"2017-12-01T20:25:19.566Z","flags":1,"native":1,"bps":4800,"parity":"N","stopbits":1,"cycle":1.00}]}
2017-12-01 15:25:19 1512159919.677616: {"class":"WATCH","enable":true,"json":false,"nmea":true,"raw":0,"scaled":false,"timing":false,"split24":false,"pps":false}
2017-12-01 15:25:20 1512159920.777864: $GPGSV,3,1,12,01,08,324,43,10,79,111,47,11,09,309,35,12,23,082,45*72
2017-12-01 15:25:20 1512159920.778059: $GPGSV,3,2,12,14,48,280,42,18,46,129,48,24,22,045,43,25,23,123,44*75
2017-12-01 15:25:20 1512159920.778127: $GPGSV,3,3,12,31,25,208,46,32,64,307,48,21,02,174,00,138,38,213,46*4C
2017-12-01 15:25:20 1512159920.891243: $GPZDA,202521.00,01,12,2017,00,00*66
2017-12-01 15:25:20 1512159920.891456: $GPGGA,202521,3946.9563,N,08404.9848,W,2,11,0.80,299.86,M,-33.324,M,,*7D
2017-12-01 15:25:20 1512159920.891526: $GPRMC,202521,A,3946.9563,N,08404.9848,W,0.0000,0.000,011217,,*39
2017-12-01 15:25:20 1512159920.891588: $GPGSA,A,3,1,10,11,12,14,18,24,25,31,32,138,,2.0,0.8,1.5*3B
2017-12-01 15:25:21 1512159921.441038: $GPZDA,202522.00,01,12,2017,00,00*65
2017-12-01 15:25:21 1512159921.441240: $GPGGA,202522,3946.9563,N,08404.9848,W,2,11,0.80,299.86,M,-33.324,M,,*7E
2017-12-01 15:25:21 1512159921.441310: $GPRMC,202522,A,3946.9563,N,08404.9848,W,0.0000,0.000,011217,,*3A
2017-12-01 15:25:21 1512159921.441442: $GPGSA,A,3,1,10,11,12,14,18,24,25,31,32,138,,2.0,0.8,1.5*3B
2017-12-01 15:25:22 1512159922.441265: $GPZDA,202523.00,01,12,2017,00,00*64
2017-12-01 15:25:22 1512159922.441488: $GPGGA,202523,3946.9563,N,08404.9848,W,2,11,0.80,299.86,M,-33.324,M,,*7F
2017-12-01 15:25:22 1512159922.441557: $GPRMC,202523,A,3946.9563,N,08404.9848,W,0.0000,0.000,011217,,*3B
2017-12-01 15:25:22 1512159922.441618: $GPGSA,A,3,1,10,11,12,14,18,24,25,31,32,138,,2.0,0.8,1.5*3B
2017-12-01 15:25:23 1512159923.778280: $GPGSV,3,1,12,01,08,324,42,10,79,111,47,11,09,309,35,12,23,082,45*73
2017-12-01 15:25:23 1512159923.778466: $GPGSV,3,2,12,14,48,280,42,18,46,129,48,24,22,045,43,25,23,123,44*75
2017-12-01 15:25:23 1512159923.778533: $GPGSV,3,3,12,31,25,208,46,32,64,307,49,21,02,174,00,138,38,213,45*4E
2017-12-01 15:25:23 1512159923.891759: $GPZDA,202524.00,01,12,2017,00,00*63
2017-12-01 15:25:23 1512159923.891962: $GPGGA,202524,3946.9563,N,08404.9848,W,2,11,0.80,299.86,M,-33.324,M,,*78
2017-12-01 15:25:23 1512159923.892032: $GPRMC,202524,A,3946.9563,N,08404.9848,W,0.0000,0.000,011217,,*3C
2017-12-01 15:25:23 1512159923.892093: $GPGSA,A,3,1,10,11,12,14,18,24,25,31,32,138,,2.0,0.8,1.5*3B
2017-12-01 15:25:24 1512159924.436237: $GPZDA,202525.00,01,12,2017,00,00*62
2017-12-01 15:25:24 1512159924.436431: $GPGGA,202525,3946.9563,N,08404.9848,W,2,11,0.80,299.86,M,-33.324,M,,*79
2017-12-01 15:25:24 1512159924.436501: $GPRMC,202525,A,3946.9563,N,08404.9848,W,0.0000,0.000,011217,,*3D
2017-12-01 15:25:24 1512159924.436563: $GPGSA,A,3,1,10,11,12,14,18,24,25,31,32,138,,2.0,0.8,1.5*3B
2017-12-01 15:25:25 1512159925.424817: $GPZDA,202526.00,01,12,2017,00,00*61
2017-12-01 15:25:25 1512159925.424988: $GPGGA,202526,3946.9566,N,08404.9847,W,2,11,0.80,299.09,M,-33.324,M,,*77
2017-12-01 15:25:25 1512159925.425055: $GPRMC,202526,A,3946.9566,N,08404.9847,W,0.0000,0.000,011217,,*34
2017-12-01 15:25:25 1512159925.425116: $GPGSA,A,3,1,10,11,12,14,18,24,25,31,32,138,,2.0,0.8,1.5*3B
2017-12-01 15:25:26 1512159926.761727: $GPGSV,3,1,12,01,08,324,42,10,79,111,47,11,09,309,35,12,23,082,45*73
2017-12-01 15:25:26 1512159926.761902: $GPGSV,3,2,12,14,48,280,43,18,46,129,48,24,22,045,43,25,23,123,44*74
2017-12-01 15:25:26 1512159926.761969: $GPGSV,3,3,12,31,25,208,46,32,64,307,48,21,02,174,00,138,38,213,46*4C
2017-12-01 15:25:26 1512159926.875317: $GPZDA,202527.00,01,12,2017,00,00*60
2017-12-01 15:25:26 1512159926.875485: $GPGGA,202527,3946.9566,N,08404.9847,W,2,11,0.80,299.09,M,-33.324,M,,*76
2017-12-01 15:25:26 1512159926.875602: $GPRMC,202527,A,3946.9566,N,08404.9847,W,0.0000,0.000,011217,,*35
2017-12-01 15:25:26 1512159926.875665: $GPGSA,A,3,1,10,11,12,14,18,24,25,31,32,138,,2.0,0.8,1.5*3B
2017-12-01 15:25:27 1512159927.500702: $GPZDA,202528.00,01,12,2017,00,00*6F
2017-12-01 15:25:27 1512159927.500885: $GPGGA,202528,3946.9566,N,08404.9847,W,2,11,0.80,299.09,M,-33.324,M,,*79
2017-12-01 15:25:27 1512159927.500953: $GPRMC,202528,A,3946.9566,N,08404.9847,W,0.0000,0.000,011217,,*3A
2017-12-01 15:25:27 1512159927.501015: $GPGSA,A,3,1,10,11,12,14,18,24,25,31,32,138,,2.0,0.8,1.5*3B
2017-12-01 15:25:28 1512159928.424007: $GPZDA,202529.00,01,12,2017,00,00*6E
2017-12-01 15:25:28 1512159928.424177: $GPGGA,202529,3946.9566,N,08404.9847,W,2,11,0.80,299.09,M,-33.324,M,,*78
2017-12-01 15:25:28 1512159928.424243: $GPRMC,202529,A,3946.9566,N,08404.9847,W,0.0000,0.000,011217,,*3B
2017-12-01 15:25:28 1512159928.424304: $GPGSA,A,3,1,10,11,12,14,18,24,25,31,32,138,,2.0,0.8,1.5*3B
2017-12-01 15:25:29 1512159929.759475: $GPGSV,3,1,12,01,08,324,42,10,79,111,47,11,09,309,35,12,23,082,45*73
2017-12-01 15:25:29 1512159929.759658: $GPGSV,3,2,12,14,48,280,43,18,46,129,48,24,22,045,43,25,23,123,44*74
2017-12-01 15:25:29 1512159929.759725: $GPGSV,3,3,12,31,25,208,46,32,64,307,48,21,02,174,00,138,38,213,45*4F
2017-12-01 15:25:29 1512159929.873325: $GPZDA,202530.00,01,12,2017,00,00*66
2017-12-01 15:25:29 1512159929.873500: $GPGGA,202530,3946.9566,N,08404.9847,W,2,11,0.80,299.09,M,-33.324,M,,*70
2017-12-01 15:25:29 1512159929.873568: $GPRMC,202530,A,3946.9566,N,08404.9847,W,0.0000,0.000,011217,,*33
2017-12-01 15:25:29 1512159929.873630: $GPGSA,A,3,1,10,11,12,14,18,24,25,31,32,138,,2.0,0.8,1.5*3B
2017-12-01 15:25:30 1512159930.426246: $GPZDA,202531.00,01,12,2017,00,00*67
2017-12-01 15:25:30 1512159930.426418: $GPGGA,202531,3946.9566,N,08404.9847,W,2,11,0.80,299.09,M,-33.324,M,,*71
2017-12-01 15:25:30 1512159930.426486: $GPRMC,202531,A,3946.9566,N,08404.9847,W,0.0000,0.000,011217,,*32
2017-12-01 15:25:30 1512159930.426547: $GPGSA,A,3,1,10,11,12,14,18,24,25,31,32,138,,2.0,0.8,1.5*3B
2017-12-01 15:25:31 1512159931.424813: $GPZDA,202532.00,01,12,2017,00,00*64
2017-12-01 15:25:31 1512159931.425014: $GPGGA,202532,3946.9566,N,08404.9847,W,2,11,0.80,299.09,M,-33.324,M,,*72
2017-12-01 15:25:31 1512159931.425081: $GPRMC,202532,A,3946.9566,N,08404.9847,W,0.0000,0.000,011217,,*31
2017-12-01 15:25:31 1512159931.425142: $GPGSA,A,3,1,10,11,12,14,18,24,25,31,32,138,,2.0,0.8,1.5*3B
2017-12-01 15:25:32 1512159932.753590: $GPGSV,3,1,12,01,08,324,41,10,79,111,47,11,09,309,36,12,23,082,45*73
2017-12-01 15:25:32 1512159932.753797: $GPGSV,3,2,12,14,48,280,42,18,46,129,48,24,22,045,43,25,23,123,44*75
2017-12-01 15:25:32 1512159932.753866: $GPGSV,3,3,12,31,25,208,46,32,64,307,48,21,02,174,00,138,38,213,46*4C
2017-12-01 15:25:32 1512159932.866962: $GPZDA,202533.00,01,12,2017,00,00*65
2017-12-01 15:25:32 1512159932.867138: $GPGGA,202533,3946.9566,N,08404.9847,W,2,11,0.80,299.09,M,-33.324,M,,*73
2017-12-01 15:25:32 1512159932.867204: $GPRMC,202533,A,3946.9566,N,08404.9847,W,0.0000,0.000,011217,,*30
2017-12-01 15:25:32 1512159932.867265: $GPGSA,A,3,1,10,11,12,14,18,24,25,31,32,138,,2.0,0.8,1.5*3B
2017-12-01 15:25:33 1512159933.424081: $GPZDA,202534.00,01,12,2017,00,00*62
2017-12-01 15:25:33 1512159933.424253: $GPGGA,202534,3946.9566,N,08404.9847,W,2,11,0.80,299.09,M,-33.324,M,,*74
2017-12-01 15:25:33 1512159933.424320: $GPRMC,202534,A,3946.9566,N,08404.9847,W,0.0000,0.000,011217,,*37
2017-12-01 15:25:33 1512159933.424382: $GPGSA,A,3,1,10,11,12,14,18,24,25,31,32,138,,2.0,0.8,1.5*3B
2017-12-01 15:25:34 1512159934.426257: $GPZDA,202535.00,01,12,2017,00,00*63
2017-12-01 15:25:34 1512159934.426431: $GPGGA,202535,3946.9566,N,08404.9847,W,2,11,0.80,299.09,M,-33.324,M,,*75
2017-12-01 15:25:34 1512159934.426497: $GPRMC,202535,A,3946.9566,N,08404.9847,W,0.0000,0.000,011217,,*36
2017-12-01 15:25:34 1512159934.426558: $GPGSA,A,3,1,10,11,12,14,18,24,25,31,32,138,,2.0,0.8,1.5*3B
2017-12-01 15:25:35 1512159935.760701: $GPGSV,3,1,12,01,08,324,42,10,79,111,47,11,09,309,37,12,23,082,45*71
2017-12-01 15:25:35 1512159935.760969: $GPGSV,3,2,12,14,48,280,42,18,46,129,48,24,22,045,44,25,23,123,44*72
2017-12-01 15:25:35 1512159935.761039: $GPGSV,3,3,12,31,25,208,46,32,64,307,48,21,02,174,00,138,38,213,47*4D
2017-12-01 15:25:35 1512159935.875384: $GPZDA,202536.00,01,12,2017,00,00*60
2017-12-01 15:25:35 1512159935.875583: $GPGGA,202536,3946.9566,N,08404.9847,W,2,11,0.80,299.09,M,-33.324,M,,*76
2017-12-01 15:25:35 1512159935.875651: $GPRMC,202536,A,3946.9566,N,08404.9847,W,0.0000,0.000,011217,,*35
2017-12-01 15:25:35 1512159935.875714: $GPGSA,A,3,1,10,11,12,14,18,24,25,31,32,138,,2.0,0.8,1.5*3B
2017-12-01 15:25:36 1512159936.425052: $GPZDA,202537.00,01,12,2017,00,00*61
2017-12-01 15:25:36 1512159936.425220: $GPGGA,202537,3946.9566,N,08404.9847,W,2,11,0.80,299.09,M,-33.324,M,,*77
2017-12-01 15:25:36 1512159936.425286: $GPRMC,202537,A,3946.9566,N,08404.9847,W,0.0000,0.000,011217,,*34
2017-12-01 15:25:36 1512159936.425347: $GPGSA,A,3,1,10,11,12,14,18,24,25,31,32,138,,2.0,0.8,1.5*3B
2017-12-01 15:25:37 1512159937.417855: $GPZDA,202538.00,01,12,2017,00,00*6E
2017-12-01 15:25:37 1512159937.418020: $GPGGA,202538,3946.9566,N,08404.9847,W,2,11,0.80,299.09,M,-33.324,M,,*78
2017-12-01 15:25:37 1512159937.418087: $GPRMC,202538,A,3946.9566,N,08404.9847,W,0.0000,0.000,011217,,*3B
2017-12-01 15:25:37 1512159937.418149: $GPGSA,A,3,1,10,11,12,14,18,24,25,31,32,138,,2.0,0.8,1.5*3B
2017-12-01 15:25:38 1512159938.756047: $GPGSV,3,1,12,01,08,324,42,10,79,111,47,11,09,309,38,12,23,082,45*7E
2017-12-01 15:25:38 1512159938.756226: $GPGSV,3,2,12,14,48,280,42,18,46,129,48,24,22,045,44,25,23,123,44*72
2017-12-01 15:25:38 1512159938.756291: $GPGSV,3,3,12,31,25,208,46,32,64,307,49,21,02,174,00,138,38,213,46*4D
2017-12-01 15:25:38 1512159938.869477: $GPZDA,202539.00,01,12,2017,00,00*6F
2017-12-01 15:25:38 1512159938.869645: $GPGGA,202539,3946.9566,N,08404.9847,W,2,11,0.80,299.09,M,-33.324,M,,*79
2017-12-01 15:25:38 1512159938.869711: $GPRMC,202539,A,3946.9566,N,08404.9847,W,0.0000,0.000,011217,,*3A
2017-12-01 15:25:38 1512159938.869772: $GPGSA,A,3,1,10,11,12,14,18,24,25,31,32,138,,2.0,0.8,1.5*3B
2017-12-01 15:25:39 1512159939.425400: $GPZDA,202540.00,01,12,2017,00,00*61
2017-12-01 15:25:39 1512159939.425573: $GPGGA,202540,3946.9566,N,08404.9847,W,2,11,0.80,299.09,M,-33.324,M,,*77
2017-12-01 15:25:39 1512159939.425640: $GPRMC,202540,A,3946.9566,N,08404.9847,W,0.0000,0.000,011217,,*34
2017-12-01 15:25:39 1512159939.425701: $GPGSA,A,3,1,10,11,12,14,18,24,25,31,32,138,,2.0,0.8,1.5*3B
