2018-01-12 04:57:55 1515751075.674858: {"class":"VERSION","release":"3.16","rev":"3.16-4","proto_major":3,"proto_minor":11}
2018-01-12 04:57:55 1515751075.675255: {"class":"DEVICES","devices":[{"class":"DEVICE","path":"/dev/ttyUSB0","driver":"SiRF","subtype":"9\u0006GSD4e_4.1.2-P1_RPATCH.05-F-GPS-4R-1510281 11/03/2015 307","activated":"2018-01-12T09:57:55.536Z","flags":1,"native":1,"bps":4800,"parity":"N","stopbits":1,"cycle":1.00}]}
2018-01-12 04:57:55 1515751075.675369: {"class":"WATCH","enable":true,"json":false,"nmea":true,"raw":0,"scaled":false,"timing":false,"split24":false,"pps":false}
2018-01-12 04:57:56 1515751076.392883: $GPZDA,095757.00,12,01,2018,00,00*66
2018-01-12 04:57:56 1515751076.393052: $GPGGA,095757,3946.9613,N,08404.9653,W,2,09,1.00,274.67,M,-33.324,M,,*7E
2018-01-12 04:57:56 1515751076.393118: $GPRMC,095757,A,3946.9613,N,08404.9653,W,0.0000,0.000,120118,,*39
2018-01-12 04:57:56 1515751076.393179: $GPGSA,A,3,2,5,12,25,29,6,9,20,138,,,,2.4,1.0,2.1*09
2018-01-12 04:57:57 1515751077.729560: $GPGSV,3,1,12,02,67,030,45,05,68,202,49,12,41,231,51,25,36,282,40*73
2018-01-12 04:57:57 1515751077.729766: $GPGSV,3,2,12,29,25,312,48,06,35,067,26,09,18,051,27,13,02,165,08*75
2018-01-12 04:57:57 1515751077.729833: $GPGSV,3,3,12,20,14,223,36,19,19,126,00,04,65,312,00,138,38,213,48*44
2018-01-12 04:57:57 1515751077.843135: $GPZDA,095758.00,12,01,2018,00,00*69
2018-01-12 04:57:57 1515751077.843297: $GPGGA,095758,3946.9613,N,08404.9653,W,2,10,1.00,274.67,M,-33.324,M,,*79
2018-01-12 04:57:57 1515751077.843363: $GPRMC,095758,A,3946.9613,N,08404.9653,W,0.0000,0.000,120118,,*36
2018-01-12 04:57:57 1515751077.843424: $GPGSA,A,3,2,5,12,25,29,6,9,13,20,138,,,2.4,1.0,2.1*0B
2018-01-12 04:57:58 1515751078.468673: $GPZDA,095759.00,12,01,2018,00,00*68
2018-01-12 04:57:58 1515751078.468861: $GPGGA,095759,3946.9610,N,08404.9654,W,2,10,1.00,275.44,M,-33.324,M,,*7C
2018-01-12 04:57:58 1515751078.468948: $GPRMC,095759,A,3946.9610,N,08404.9654,W,0.0000,0.000,120118,,*33
2018-01-12 04:57:58 1515751078.469011: $GPGSA,A,3,2,5,12,25,29,6,9,13,20,138,,,2.4,1.0,2.1*0B
2018-01-12 04:57:59 1515751079.393129: $GPZDA,095800.00,12,01,2018,00,00*6B
2018-01-12 04:57:59 1515751079.393290: $GPGGA,095800,3946.9610,N,08404.9654,W,2,10,1.00,275.44,M,-33.324,M,,*7F
2018-01-12 04:57:59 1515751079.393356: $GPRMC,095800,A,3946.9610,N,08404.9654,W,0.0000,0.000,120118,,*30
2018-01-12 04:57:59 1515751079.393416: $GPGSA,A,3,2,5,12,25,29,6,9,13,20,138,,,2.4,1.0,2.1*0B
2018-01-12 04:58:00 1515751080.726256: $GPGSV,3,1,12,02,67,030,45,05,68,202,50,12,41,231,51,25,36,282,40*7B
2018-01-12 04:58:00 1515751080.726453: $GPGSV,3,2,12,29,25,312,47,06,35,067,26,09,18,051,27,13,02,165,06*74
2018-01-12 04:58:00 1515751080.726520: $GPGSV,3,3,12,20,14,223,38,19,19,126,00,04,65,312,00,138,38,213,47*45
2018-01-12 04:58:00 1515751080.839730: $GPZDA,095801.00,12,01,2018,00,00*6A
2018-01-12 04:58:00 1515751080.839905: $GPGGA,095801,3946.9610,N,08404.9654,W,2,09,1.00,275.44,M,-33.324,M,,*76
2018-01-12 04:58:00 1515751080.839971: $GPRMC,095801,A,3946.9610,N,08404.9654,W,0.0000,0.000,120118,,*31
2018-01-12 04:58:00 1515751080.840031: $GPGSA,A,3,2,5,12,25,29,6,9,20,138,,,,2.4,1.0,2.1*09
2018-01-12 04:58:01 1515751081.390343: $GPZDA,095802.00,12,01,2018,00,00*69
2018-01-12 04:58:01 1515751081.390520: $GPGGA,095802,3946.9610,N,08404.9654,W,2,09,1.00,275.44,M,-33.324,M,,*75
2018-01-12 04:58:01 1515751081.390589: $GPRMC,095802,A,3946.9610,N,08404.9654,W,0.0000,0.000,120118,,*32
2018-01-12 04:58:01 1515751081.390649: $GPGSA,A,3,2,5,12,25,29,6,9,20,138,,,,2.4,1.0,2.1*09
2018-01-12 04:58:02 1515751082.391704: $GPZDA,095803.00,12,01,2018,00,00*68
2018-01-12 04:58:02 1515751082.391874: $GPGGA,095803,3946.9610,N,08404.9654,W,2,09,1.00,275.44,M,-33.324,M,,*74
2018-01-12 04:58:02 1515751082.391940: $GPRMC,095803,A,3946.9610,N,08404.9654,W,0.0000,0.000,120118,,*33
2018-01-12 04:58:02 1515751082.392001: $GPGSA,A,3,2,5,12,25,29,6,9,20,138,,,,2.4,1.0,2.1*09
2018-01-12 04:58:03 1515751083.726542: $GPGSV,3,1,12,02,67,030,45,05,68,202,50,12,41,231,51,25,36,282,40*7B
2018-01-12 04:58:03 1515751083.726793: $GPGSV,3,2,12,29,25,312,47,06,35,067,25,09,18,051,27,13,02,165,08*79
2018-01-12 04:58:03 1515751083.726861: $GPGSV,3,3,12,20,14,223,38,19,19,126,00,04,65,312,00,138,38,213,47*45
2018-01-12 04:58:03 1515751083.840247: $GPZDA,095804.00,12,01,2018,00,00*6F
2018-01-12 04:58:03 1515751083.840418: $GPGGA,095804,3946.9610,N,08404.9654,W,2,10,1.00,275.44,M,-33.324,M,,*7B
2018-01-12 04:58:03 1515751083.840484: $GPRMC,095804,A,3946.9610,N,08404.9654,W,0.0000,0.000,120118,,*34
2018-01-12 04:58:03 1515751083.840545: $GPGSA,A,3,2,5,12,25,29,6,9,13,20,138,,,2.4,1.0,2.1*0B
2018-01-12 04:58:04 1515751084.389791: $GPZDA,095805.00,12,01,2018,00,00*6E
2018-01-12 04:58:04 1515751084.389961: $GPGGA,095805,3946.9610,N,08404.9654,W,2,10,1.00,275.44,M,-33.324,M,,*7A
2018-01-12 04:58:04 1515751084.390027: $GPRMC,095805,A,3946.9610,N,08404.9654,W,0.0000,0.000,120118,,*35
2018-01-12 04:58:04 1515751084.390087: $GPGSA,A,3,2,5,12,25,29,6,9,13,20,138,,,2.4,1.0,2.1*0B
2018-01-12 04:58:05 1515751085.389405: $GPZDA,095806.00,12,01,2018,00,00*6D
2018-01-12 04:58:05 1515751085.389576: $GPGGA,095806,3946.9610,N,08404.9654,W,2,10,1.00,275.44,M,-33.324,M,,*79
2018-01-12 04:58:05 1515751085.389642: $GPRMC,095806,A,3946.9610,N,08404.9654,W,0.0000,0.000,120118,,*36
2018-01-12 04:58:05 1515751085.389703: $GPGSA,A,3,2,5,12,25,29,6,9,13,20,138,,,2.4,1.0,2.1*0B
2018-01-12 04:58:06 1515751086.728579: $GPGSV,3,1,12,02,67,030,45,05,68,202,50,12,41,231,51,25,36,282,41*7A
2018-01-12 04:58:06 1515751086.728774: $GPGSV,3,2,12,29,25,312,47,06,35,067,25,09,18,051,26,13,02,165,12*73
2018-01-12 04:58:06 1515751086.728839: $GPGSV,3,3,12,20,14,223,38,19,19,126,00,04,65,312,00,138,38,213,47*45
2018-01-12 04:58:06 1515751086.841959: $GPZDA,095807.00,12,01,2018,00,00*6C
2018-01-12 04:58:06 1515751086.842148: $GPGGA,095807,3946.9610,N,08404.9661,W,2,10,1.00,275.36,M,-33.324,M,,*7B
2018-01-12 04:58:06 1515751086.842213: $GPRMC,095807,A,3946.9610,N,08404.9661,W,0.0000,0.000,120118,,*31
2018-01-12 04:58:06 1515751086.842273: $GPGSA,A,3,2,5,12,25,29,6,9,13,20,138,,,2.4,1.0,2.1*0B
2018-01-12 04:58:07 1515751087.391907: $GPZDA,095808.00,12,01,2018,00,00*63
2018-01-12 04:58:07 1515751087.392077: $GPGGA,095808,3946.9610,N,08404.9661,W,2,10,1.00,275.36,M,-33.324,M,,*74
2018-01-12 04:58:07 1515751087.392142: $GPRMC,095808,A,3946.9610,N,08404.9661,W,0.0000,0.000,120118,,*3E
2018-01-12 04:58:07 1515751087.392203: $GPGSA,A,3,2,5,12,25,29,6,9,13,20,138,,,2.4,1.0,2.1*0B
2018-01-12 04:58:08 1515751088.391963: $GPZDA,095809.00,12,01,2018,00,00*62
2018-01-12 04:58:08 1515751088.392140: $GPGGA,095809,3946.9610,N,08404.9661,W,2,10,1.00,275.36,M,-33.324,M,,*75
2018-01-12 04:58:08 1515751088.392207: $GPRMC,095809,A,3946.9610,N,08404.9661,W,0.0000,0.000,120118,,*3F
2018-01-12 04:58:08 1515751088.392268: $GPGSA,A,3,2,5,12,25,29,6,9,13,20,138,,,2.4,1.0,2.1*0B
2018-01-12 04:58:09 1515751089.728907: $GPGSV,3,1,12,02,67,030,45,05,68,202,50,12,41,231,51,25,36,282,41*7A
2018-01-12 04:58:09 1515751089.729087: $GPGSV,3,2,12,29,25,312,47,06,35,067,25,09,18,051,20,13,02,165,17*70
2018-01-12 04:58:09 1515751089.729152: $GPGSV,3,3,12,20,14,223,38,19,19,126,00,04,65,312,00,138,38,213,47*45
2018-01-12 04:58:09 1515751089.842547: $GPZDA,095810.00,12,01,2018,00,00*6A
2018-01-12 04:58:09 1515751089.842708: $GPGGA,095810,3946.9610,N,08404.9661,W,2,10,1.00,275.36,M,-33.324,M,,*7D
2018-01-12 04:58:09 1515751089.842772: $GPRMC,095810,A,3946.9610,N,08404.9661,W,0.0000,0.000,120118,,*37
2018-01-12 04:58:09 1515751089.842833: $GPGSA,A,3,2,5,12,25,29,6,9,13,20,138,,,2.4,1.0,2.1*0B
2018-01-12 04:58:10 1515751090.392310: $GPZDA,095811.00,12,01,2018,00,00*6B
2018-01-12 04:58:10 1515751090.392475: $GPGGA,095811,3946.9614,N,08404.9661,W,2,10,1.00,276.00,M,-33.324,M,,*7E
2018-01-12 04:58:10 1515751090.392541: $GPRMC,095811,A,3946.9614,N,08404.9661,W,0.0000,0.000,120118,,*32
2018-01-12 04:58:10 1515751090.392601: $GPGSA,A,3,2,5,12,25,29,6,9,13,20,138,,,2.4,1.0,2.1*0B
2018-01-12 04:58:11 1515751091.396977: $GPZDA,095812.00,12,01,2018,00,00*68
2018-01-12 04:58:11 1515751091.397141: $GPGGA,095812,3946.9614,N,08404.9661,W,2,10,1.00,276.00,M,-33.324,M,,*7D
2018-01-12 04:58:11 1515751091.397260: $GPRMC,095812,A,3946.9614,N,08404.9661,W,0.0000,0.000,120118,,*31
2018-01-12 04:58:11 1515751091.397323: $GPGSA,A,3,2,5,12,25,29,6,9,13,20,138,,,2.4,1.0,2.1*0B
2018-01-12 04:58:12 1515751092.728606: $GPGSV,3,1,12,02,67,030,45,05,68,202,50,12,41,231,51,25,36,282,41*7A
2018-01-12 04:58:12 1515751092.728791: $GPGSV,3,2,12,29,25,312,47,06,35,067,25,09,18,051,20,13,02,165,18*7F
2018-01-12 04:58:12 1515751092.728857: $GPGSV,3,3,12,20,14,223,37,19,19,126,00,04,65,312,00,138,38,213,47*4A
2018-01-12 04:58:12 1515751092.842170: $GPZDA,095813.00,12,01,2018,00,00*69
2018-01-12 04:58:12 1515751092.842343: $GPGGA,095813,3946.9614,N,08404.9661,W,2,10,1.00,276.00,M,-33.324,M,,*7C
2018-01-12 04:58:12 1515751092.842410: $GPRMC,095813,A,3946.9614,N,08404.9661,W,0.0000,0.000,120118,,*30
2018-01-12 04:58:12 1515751092.842471: $GPGSA,A,3,2,5,12,25,29,6,9,13,20,138,,,2.4,1.0,2.1*0B
2018-01-12 04:58:13 1515751093.468854: $GPZDA,095814.00,12,01,2018,00,00*6E
2018-01-12 04:58:13 1515751093.469023: $GPGGA,095814,3946.9614,N,08404.9661,W,2,10,1.00,276.00,M,-33.324,M,,*7B
2018-01-12 04:58:13 1515751093.469089: $GPRMC,095814,A,3946.9614,N,08404.9661,W,0.0000,0.000,120118,,*37
2018-01-12 04:58:13 1515751093.469150: $GPGSA,A,3,2,5,12,25,29,6,9,13,20,138,,,2.4,1.0,2.1*0B
2018-01-12 04:58:14 1515751094.392213: $GPZDA,095815.00,12,01,2018,00,00*6F
2018-01-12 04:58:14 1515751094.538918: $GPGGA,095815,3946.9614,N,08404.9661,W,2,10,1.00,276.00,M,-33.324,M,,*7A
2018-01-12 04:58:14 1515751094.539080: $GPRMC,095815,A,3946.9614,N,08404.9661,W,0.0000,0.000,120118,,*36
2018-01-12 04:58:14 1515751094.539145: $GPGSA,A,3,2,5,12,25,29,6,9,13,20,138,,,2.4,1.0,2.1*0B
2018-01-12 04:58:15 1515751095.735181: $GPGSV,3,1,12,02,67,030,45,05,68,202,49,12,41,231,51,25,36,282,41*72
2018-01-12 04:58:15 1515751095.735363: $GPGSV,3,2,12,29,25,312,47,06,35,067,25,09,18,051,21,13,02,165,17*71
2018-01-12 04:58:15 1515751095.735428: $GPGSV,3,3,12,20,14,223,38,17,01,130,00,19,19,126,00,138,38,213,46*46
