2017-12-01 11:40:10 1512146410.886886: {"class":"VERSION","release":"3.16","rev":"3.16-4","proto_major":3,"proto_minor":11}
2017-12-01 11:40:10 1512146410.887291: {"class":"DEVICES","devices":[{"class":"DEVICE","path":"/dev/ttyUSB0","driver":"SiRF","subtype":"9\u0006GSD4e_4.1.2-P1_RPATCH.05-F-GPS-4R-1510281 11/03/2015 307","activated":"2017-12-01T16:40:10.560Z","flags":1,"native":1,"bps":4800,"parity":"N","stopbits":1,"cycle":1.00}]}
2017-12-01 11:40:10 1512146410.887417: {"class":"WATCH","enable":true,"json":false,"nmea":true,"raw":0,"scaled":false,"timing":false,"split24":false,"pps":false}
2017-12-01 11:40:11 1512146411.402547: $GPZDA,164012.00,01,12,2017,00,00*60
2017-12-01 11:40:11 1512146411.402720: $GPGGA,164012,3946.9561,N,08404.9830,W,2,11,0.80,305.07,M,-33.324,M,,*7B
2017-12-01 11:40:11 1512146411.402787: $GPRMC,164012,A,3946.9561,N,08404.9830,W,0.0000,0.000,011217,,*32
2017-12-01 11:40:11 1512146411.402848: $GPGSA,A,3,5,10,13,15,18,20,21,24,29,27,138,,2.0,0.8,1.5*34
2017-12-01 11:40:12 1512146412.754468: $GPGSV,3,1,12,05,15,076,34,10,12,271,42,13,45,051,46,15,77,079,47*73
2017-12-01 11:40:12 1512146412.754661: $GPGSV,3,2,12,18,42,283,44,20,64,048,41,21,65,307,46,24,19,150,41*7D
2017-12-01 11:40:12 1512146412.754728: $GPGSV,3,3,12,04,14,129,00,29,26,195,43,27,07,325,43,138,38,213,46*46
2017-12-01 11:40:12 1512146412.867815: $GPZDA,164013.00,01,12,2017,00,00*61
2017-12-01 11:40:12 1512146412.867988: $GPGGA,164013,3946.9561,N,08404.9830,W,2,11,0.80,305.07,M,-33.324,M,,*7A
2017-12-01 11:40:12 1512146412.868055: $GPRMC,164013,A,3946.9561,N,08404.9830,W,0.0000,0.000,011217,,*33
2017-12-01 11:40:12 1512146412.868116: $GPGSA,A,3,5,10,13,15,18,20,21,24,29,27,138,,2.0,0.8,1.5*34
2017-12-01 11:40:13 1512146413.495097: $GPZDA,164014.00,01,12,2017,00,00*66
2017-12-01 11:40:13 1512146413.495299: $GPGGA,164014,3946.9561,N,08404.9830,W,2,11,0.80,305.07,M,-33.324,M,,*7D
2017-12-01 11:40:13 1512146413.495365: $GPRMC,164014,A,3946.9561,N,08404.9830,W,0.0000,0.000,011217,,*34
2017-12-01 11:40:13 1512146413.495426: $GPGSA,A,3,5,10,13,15,18,20,21,24,29,27,138,,2.0,0.8,1.5*34
2017-12-01 11:40:14 1512146414.409076: $GPZDA,164015.00,01,12,2017,00,00*67
2017-12-01 11:40:14 1512146414.409270: $GPGGA,164015,3946.9561,N,08404.9830,W,2,11,0.80,305.07,M,-33.324,M,,*7C
2017-12-01 11:40:14 1512146414.409338: $GPRMC,164015,A,3946.9561,N,08404.9830,W,0.0000,0.000,011217,,*35
2017-12-01 11:40:14 1512146414.409400: $GPGSA,A,3,5,10,13,15,18,20,21,24,29,27,138,,2.0,0.8,1.5*34
2017-12-01 11:40:15 1512146415.756049: $GPGSV,3,1,12,05,15,076,34,10,12,271,41,13,45,051,46,15,77,079,47*70
2017-12-01 11:40:15 1512146415.756247: $GPGSV,3,2,12,18,42,283,44,20,64,048,42,21,65,307,46,24,19,150,42*7D
2017-12-01 11:40:15 1512146415.756314: $GPGSV,3,3,12,04,14,129,00,29,26,195,43,27,07,325,43,138,38,213,46*46
2017-12-01 11:40:15 1512146415.868172: $GPZDA,164016.00,01,12,2017,00,00*64
2017-12-01 11:40:15 1512146415.868348: $GPGGA,164016,3946.9561,N,08404.9830,W,2,11,0.80,305.07,M,-33.324,M,,*7F
2017-12-01 11:40:15 1512146415.868415: $GPRMC,164016,A,3946.9561,N,08404.9830,W,0.0000,0.000,011217,,*36
2017-12-01 11:40:15 1512146415.868476: $GPGSA,A,3,5,10,13,15,18,20,21,24,29,27,138,,2.0,0.8,1.5*34
2017-12-01 11:40:16 1512146416.401753: $GPZDA,164017.00,01,12,2017,00,00*65
2017-12-01 11:40:16 1512146416.401940: $GPGGA,164017,3946.9561,N,08404.9830,W,2,11,0.80,305.07,M,-33.324,M,,*7E
2017-12-01 11:40:16 1512146416.402008: $GPRMC,164017,A,3946.9561,N,08404.9830,W,0.0000,0.000,011217,,*37
2017-12-01 11:40:16 1512146416.402070: $GPGSA,A,3,5,10,13,15,18,20,21,24,29,27,138,,2.0,0.8,1.5*34
2017-12-01 11:40:17 1512146417.402576: $GPZDA,164018.00,01,12,2017,00,00*6A
2017-12-01 11:40:17 1512146417.402764: $GPGGA,164018,3946.9561,N,08404.9830,W,2,11,0.80,305.07,M,-33.324,M,,*71
2017-12-01 11:40:17 1512146417.402832: $GPRMC,164018,A,3946.9561,N,08404.9830,W,0.0000,0.000,011217,,*38
2017-12-01 11:40:17 1512146417.402893: $GPGSA,A,3,5,10,13,15,18,20,21,24,29,27,138,,2.0,0.8,1.5*34
2017-12-01 11:40:18 1512146418.756483: $GPGSV,3,1,12,05,15,076,34,10,12,271,41,13,45,051,46,15,77,079,47*70
2017-12-01 11:40:18 1512146418.756712: $GPGSV,3,2,12,18,42,283,44,20,64,048,42,21,65,307,45,24,19,150,41*7D
2017-12-01 11:40:18 1512146418.756781: $GPGSV,3,3,12,04,14,129,00,29,26,195,43,27,07,325,43,138,38,213,46*46
2017-12-01 11:40:18 1512146418.870001: $GPZDA,164019.00,01,12,2017,00,00*6B
2017-12-01 11:40:18 1512146418.870220: $GPGGA,164019,3946.9561,N,08404.9830,W,2,11,0.80,305.07,M,-33.324,M,,*70
2017-12-01 11:40:18 1512146418.870296: $GPRMC,164019,A,3946.9561,N,08404.9830,W,0.0000,0.000,011217,,*39
2017-12-01 11:40:18 1512146418.870358: $GPGSA,A,3,5,10,13,15,18,20,21,24,29,27,138,,2.0,0.8,1.5*34
2017-12-01 11:40:19 1512146419.403222: $GPZDA,164020.00,01,12,2017,00,00*61
2017-12-01 11:40:19 1512146419.403393: $GPGGA,164020,3946.9561,N,08404.9830,W,2,11,0.80,305.07,M,-33.324,M,,*7A
2017-12-01 11:40:19 1512146419.403460: $GPRMC,164020,A,3946.9561,N,08404.9830,W,0.0000,0.000,011217,,*33
2017-12-01 11:40:19 1512146419.403520: $GPGSA,A,3,5,10,13,15,18,20,21,24,29,27,138,,2.0,0.8,1.5*34
2017-12-01 11:40:20 1512146420.412932: $GPZDA,164021.00,01,12,2017,00,00*60
2017-12-01 11:40:20 1512146420.413122: $GPGGA,164021,3946.9561,N,08404.9830,W,2,11,0.80,305.07,M,-33.324,M,,*7B
2017-12-01 11:40:20 1512146420.413189: $GPRMC,164021,A,3946.9561,N,08404.9830,W,0.0000,0.000,011217,,*32
2017-12-01 11:40:20 1512146420.413251: $GPGSA,A,3,5,10,13,15,18,20,21,24,29,27,138,,2.0,0.8,1.5*34
