2017-12-29 10:50:23 1514562623.730773: {"class":"VERSION","release":"3.16","rev":"3.16-4","proto_major":3,"proto_minor":11}
2017-12-29 10:50:23 1514562623.731140: {"class":"DEVICES","devices":[{"class":"DEVICE","path":"/dev/ttyUSB0","driver":"SiRF","subtype":"9\u0006GSD4e_4.1.2-P1_RPATCH.05-F-GPS-4R-1510281 11/03/2015 307","activated":"2017-12-29T15:50:23.586Z","flags":1,"native":1,"bps":4800,"parity":"N","stopbits":1,"cycle":1.00}]}
2017-12-29 10:50:23 1514562623.731270: {"class":"WATCH","enable":true,"json":false,"nmea":true,"raw":0,"scaled":false,"timing":false,"split24":false,"pps":false}
2017-12-29 10:50:24 1514562624.785470: $GPGSV,3,1,12,10,32,292,40,13,18,046,44,15,48,049,50,18,63,316,45*75
2017-12-29 10:50:24 1514562624.785646: $GPGSV,3,2,12,20,44,084,50,21,75,210,47,24,43,127,50,27,19,301,40*7A
2017-12-29 10:50:24 1514562624.785711: $GPGSV,3,3,12,32,12,231,29,29,01,186,05,08,01,331,00,138,38,213,45*4B
2017-12-29 10:50:24 1514562624.899212: $GPZDA,155025.00,29,12,2017,00,00*6C
2017-12-29 10:50:24 1514562624.899379: $GPGGA,155025,3946.9584,N,08404.9834,W,2,10,0.80,304.62,M,-33.324,M,,*71
2017-12-29 10:50:24 1514562624.899446: $GPRMC,155025,A,3946.9584,N,08404.9834,W,0.0000,0.000,291217,,*31
2017-12-29 10:50:24 1514562624.899508: $GPGSA,A,3,10,13,15,18,20,21,24,27,32,138,,,1.7,0.8,1.3*09
2017-12-29 10:50:25 1514562625.448764: $GPZDA,155026.00,29,12,2017,00,00*6F
2017-12-29 10:50:25 1514562625.448917: $GPGGA,155026,3946.9584,N,08404.9834,W,2,10,0.80,304.62,M,-33.324,M,,*72
2017-12-29 10:50:25 1514562625.448981: $GPRMC,155026,A,3946.9584,N,08404.9834,W,0.0000,0.000,291217,,*32
2017-12-29 10:50:25 1514562625.449043: $GPGSA,A,3,10,13,15,18,20,21,24,27,32,138,,,1.7,0.8,1.3*09
2017-12-29 10:50:26 1514562626.452598: $GPZDA,155027.00,29,12,2017,00,00*6E
2017-12-29 10:50:26 1514562626.452775: $GPGGA,155027,3946.9584,N,08404.9834,W,2,10,0.80,304.62,M,-33.324,M,,*73
2017-12-29 10:50:26 1514562626.452846: $GPRMC,155027,A,3946.9584,N,08404.9834,W,0.0000,0.000,291217,,*33
2017-12-29 10:50:26 1514562626.452911: $GPGSA,A,3,10,13,15,18,20,21,24,27,32,138,,,1.7,0.8,1.3*09
2017-12-29 10:50:27 1514562627.738347: $GPGSV,3,1,12,10,32,292,40,13,18,046,44,15,48,049,49,18,63,316,45*7D
2017-12-29 10:50:27 1514562627.738526: $GPGSV,3,2,12,20,44,084,50,21,75,210,47,24,43,127,50,27,19,301,39*74
2017-12-29 10:50:27 1514562627.738595: $GPGSV,3,3,12,32,12,231,30,29,01,186,23,08,01,331,00,138,38,213,44*46
2017-12-29 10:50:27 1514562627.852096: $GPZDA,155028.00,29,12,2017,00,00*61
2017-12-29 10:50:27 1514562627.852287: $GPGGA,155028,3946.9588,N,08404.9834,W,2,11,0.80,305.26,M,-33.324,M,,*70
2017-12-29 10:50:27 1514562627.852382: $GPRMC,155028,A,3946.9588,N,08404.9834,W,0.0000,0.000,291217,,*30
2017-12-29 10:50:27 1514562627.852449: $GPGSA,A,3,10,13,15,18,20,21,24,27,32,29,138,,1.7,0.8,1.3*02
2017-12-29 10:50:28 1514562628.439153: $GPZDA,155029.00,29,12,2017,00,00*60
2017-12-29 10:50:28 1514562628.439320: $GPGGA,155029,3946.9588,N,08404.9834,W,2,11,0.80,305.26,M,-33.324,M,,*71
2017-12-29 10:50:28 1514562628.439392: $GPRMC,155029,A,3946.9588,N,08404.9834,W,0.0000,0.000,291217,,*31
2017-12-29 10:50:28 1514562628.439456: $GPGSA,A,3,10,13,15,18,20,21,24,27,32,29,138,,1.7,0.8,1.3*02
2017-12-29 10:50:29 1514562629.447552: $GPZDA,155030.00,29,12,2017,00,00*68
2017-12-29 10:50:29 1514562629.447719: $GPGGA,155030,3946.9588,N,08404.9834,W,2,11,0.80,305.26,M,-33.324,M,,*79
2017-12-29 10:50:29 1514562629.447792: $GPRMC,155030,A,3946.9588,N,08404.9834,W,0.0000,0.000,291217,,*39
2017-12-29 10:50:29 1514562629.447855: $GPGSA,A,3,10,13,15,18,20,21,24,27,32,29,138,,1.7,0.8,1.3*02
2017-12-29 10:50:30 1514562630.745445: $GPGSV,3,1,12,10,32,292,40,13,18,046,44,15,48,049,50,18,63,316,45*75
2017-12-29 10:50:30 1514562630.745620: $GPGSV,3,2,12,20,44,084,50,21,75,210,46,24,43,127,50,27,19,301,38*74
2017-12-29 10:50:30 1514562630.745689: $GPGSV,3,3,12,32,12,231,30,29,01,186,24,08,01,331,00,138,38,213,46*43
2017-12-29 10:50:30 1514562630.859104: $GPZDA,155031.00,29,12,2017,00,00*69
2017-12-29 10:50:30 1514562630.859251: $GPGGA,155031,3946.9588,N,08404.9834,W,2,11,0.80,305.26,M,-33.324,M,,*78
2017-12-29 10:50:30 1514562630.859379: $GPRMC,155031,A,3946.9588,N,08404.9834,W,0.0000,0.000,291217,,*38
2017-12-29 10:50:30 1514562630.859442: $GPGSA,A,3,10,13,15,18,20,21,24,27,32,29,138,,1.7,0.8,1.3*02
2017-12-29 10:50:31 1514562631.484505: $GPZDA,155032.00,29,12,2017,00,00*6A
2017-12-29 10:50:31 1514562631.484674: $GPGGA,155032,3946.9588,N,08404.9834,W,2,11,0.80,305.26,M,-33.324,M,,*7B
2017-12-29 10:50:31 1514562631.484744: $GPRMC,155032,A,3946.9588,N,08404.9834,W,0.0000,0.000,291217,,*3B
2017-12-29 10:50:31 1514562631.484807: $GPGSA,A,3,10,13,15,18,20,21,24,27,32,29,138,,1.7,0.8,1.3*02
2017-12-29 10:50:32 1514562632.407879: $GPZDA,155033.00,29,12,2017,00,00*6B
2017-12-29 10:50:32 1514562632.408041: $GPGGA,155033,3946.9588,N,08404.9834,W,2,11,0.80,305.26,M,-33.324,M,,*7A
2017-12-29 10:50:32 1514562632.408111: $GPRMC,155033,A,3946.9588,N,08404.9834,W,0.0000,0.000,291217,,*3A
2017-12-29 10:50:32 1514562632.408175: $GPGSA,A,3,10,13,15,18,20,21,24,27,32,29,138,,1.7,0.8,1.3*02
2017-12-29 10:50:33 1514562633.783329: $GPGSV,3,1,12,10,32,292,41,13,18,046,44,15,48,049,50,18,63,316,45*74
2017-12-29 10:50:33 1514562633.783512: $GPGSV,3,2,12,20,44,084,50,21,75,210,47,24,43,127,50,27,19,301,38*75
2017-12-29 10:50:33 1514562633.783580: $GPGSV,3,3,12,32,12,231,29,29,01,186,23,08,01,331,20,138,38,213,45*4D
2017-12-29 10:50:33 1514562633.896988: $GPZDA,155034.00,29,12,2017,00,00*6C
2017-12-29 10:50:33 1514562633.897159: $GPGGA,155034,3946.9588,N,08404.9834,W,2,12,0.80,305.26,M,-33.324,M,,*7E
2017-12-29 10:50:33 1514562633.897229: $GPRMC,155034,A,3946.9588,N,08404.9834,W,0.0000,0.000,291217,,*3D
2017-12-29 10:50:33 1514562633.897293: $GPGSA,A,3,10,13,15,18,20,21,24,27,32,29,8,138,1.7,0.8,1.3*3A
2017-12-29 10:50:34 1514562634.447837: $GPZDA,155035.00,29,12,2017,00,00*6D
2017-12-29 10:50:34 1514562634.447987: $GPGGA,155035,3946.9588,N,08404.9834,W,2,12,0.80,305.26,M,-33.324,M,,*7F
2017-12-29 10:50:34 1514562634.448055: $GPRMC,155035,A,3946.9588,N,08404.9834,W,0.0000,0.000,291217,,*3C
2017-12-29 10:50:34 1514562634.448119: $GPGSA,A,3,10,13,15,18,20,21,24,27,32,29,8,138,1.7,0.8,1.3*3A
2017-12-29 10:50:35 1514562635.408748: $GPZDA,155036.00,29,12,2017,00,00*6E
2017-12-29 10:50:35 1514562635.408911: $GPGGA,155036,3946.9587,N,08404.9827,W,2,12,0.80,305.34,M,-33.324,M,,*72
2017-12-29 10:50:35 1514562635.408981: $GPRMC,155036,A,3946.9587,N,08404.9827,W,0.0000,0.000,291217,,*32
2017-12-29 10:50:35 1514562635.409044: $GPGSA,A,3,10,13,15,18,20,21,24,27,32,29,8,138,1.7,0.8,1.3*3A
2017-12-29 10:50:36 1514562636.784916: $GPGSV,3,1,12,10,32,292,42,13,18,046,44,15,48,049,50,18,63,316,45*77
2017-12-29 10:50:36 1514562636.785102: $GPGSV,3,2,12,20,44,084,50,21,75,210,47,24,43,127,50,27,19,301,37*7A
2017-12-29 10:50:36 1514562636.785171: $GPGSV,3,3,12,32,12,231,29,29,01,186,23,08,01,331,27,138,38,213,45*4A
2017-12-29 10:50:36 1514562636.897347: $GPZDA,155037.00,29,12,2017,00,00*6F
2017-12-29 10:50:36 1514562636.897516: $GPGGA,155037,3946.9587,N,08404.9827,W,2,12,0.80,305.34,M,-33.324,M,,*73
2017-12-29 10:50:36 1514562636.897585: $GPRMC,155037,A,3946.9587,N,08404.9827,W,0.0000,0.000,291217,,*33
2017-12-29 10:50:36 1514562636.897649: $GPGSA,A,3,10,13,15,18,20,21,24,27,32,29,8,138,1.7,0.8,1.3*3A
2017-12-29 10:50:37 1514562637.409436: $GPZDA,155038.00,29,12,2017,00,00*60
2017-12-29 10:50:37 1514562637.409586: $GPGGA,155038,3946.9587,N,08404.9827,W,2,12,0.80,305.34,M,-33.324,M,,*7C
2017-12-29 10:50:37 1514562637.409654: $GPRMC,155038,A,3946.9587,N,08404.9827,W,0.0000,0.000,291217,,*3C
2017-12-29 10:50:37 1514562637.409719: $GPGSA,A,3,10,13,15,18,20,21,24,27,32,29,8,138,1.7,0.8,1.3*3A
2017-12-29 10:50:38 1514562638.410361: $GPZDA,155039.00,29,12,2017,00,00*61
2017-12-29 10:50:38 1514562638.410523: $GPGGA,155039,3946.9587,N,08404.9827,W,2,12,0.80,305.34,M,-33.324,M,,*7D
2017-12-29 10:50:38 1514562638.410593: $GPRMC,155039,A,3946.9587,N,08404.9827,W,0.0000,0.000,291217,,*3D
2017-12-29 10:50:38 1514562638.410657: $GPGSA,A,3,10,13,15,18,20,21,24,27,32,29,8,138,1.7,0.8,1.3*3A
