2017-11-15 19:53:32 1510793612.621128: {"class":"VERSION","release":"3.17","rev":"3.17","proto_major":3,"proto_minor":12}
2017-11-15 19:53:32 1510793612.621679: {"class":"DEVICES","devices":[{"class":"DEVICE","path":"/dev/ttyUSB0","driver":"SiRF","subtype":"9\u0006GSD4e_4.1.2-P1_RPATCH.05-F-GPS-4R-1510281 11/03/2015 307","activated":"2017-11-16T00:53:32.469Z","flags":1,"native":1,"bps":4800,"parity":"N","stopbits":1,"cycle":1.00}]}
2017-11-15 19:53:32 1510793612.621795: {"class":"WATCH","enable":true,"json":false,"nmea":true,"raw":0,"scaled":false,"timing":false,"split24":false,"pps":false}
2017-11-15 19:53:33 1510793613.663308: $GPGSV,3,1,11,03,44,288,00,16,33,190,23,31,59,039,20,26,64,166,20*77
2017-11-15 19:53:33 1510793613.663501: $GPGSV,3,2,11,14,47,105,15,22,49,255,18,32,28,115,00,23,19,304,19*70
2017-11-15 19:53:33 1510793613.663578: $GPGSV,3,3,11,29,13,061,00,25,09,037,00,120,07,103,00*7B
2017-11-15 19:53:33 1510793613.776780: $GPZDA,005332.00,16,11,2017,00,00*62
2017-11-15 19:53:33 1510793613.776936: $GPGGA,005332,3946.9458,N,08404.9616,W,1,06,1.20,285.58,M,-33.324,M,,*70
2017-11-15 19:53:33 1510793613.776996: $GPRMC,005332,A,3946.9458,N,08404.9616,W,1.2381,172.270,161117,,*39
2017-11-15 19:53:33 1510793613.777051: $GPGSA,A,3,16,31,26,14,22,23,,,,,,,3.4,1.2,2.9*38
2017-11-15 19:53:34 1510793614.328885: $GPZDA,005333.00,16,11,2017,00,00*63
2017-11-15 19:53:34 1510793614.329064: $GPGGA,005333,3946.9458,N,08404.9616,W,1,06,1.20,285.58,M,-33.324,M,,*71
2017-11-15 19:53:34 1510793614.329125: $GPRMC,005333,A,3946.9458,N,08404.9616,W,1.0567,197.447,161117,,*3D
2017-11-15 19:53:34 1510793614.329181: $GPGSA,A,3,16,31,26,14,22,23,,,,,,,3.4,1.2,2.9*38
2017-11-15 19:53:35 1510793615.345936: $GPZDA,005334.00,16,11,2017,00,00*64
2017-11-15 19:53:35 1510793615.346086: $GPGGA,005334,3946.9454,N,08404.9616,W,1,06,1.20,284.94,M,-33.324,M,,*7B
2017-11-15 19:53:35 1510793615.346146: $GPRMC,005334,A,3946.9454,N,08404.9616,W,0.8709,183.298,161117,,*34
2017-11-15 19:53:35 1510793615.346202: $GPGSA,A,3,16,31,26,14,22,23,,,,,,,3.4,1.2,2.9*38
2017-11-15 19:53:36 1510793616.664930: $GPGSV,3,1,11,03,44,288,00,16,33,190,23,31,59,039,20,26,64,166,20*77
2017-11-15 19:53:36 1510793616.665101: $GPGSV,3,2,11,14,47,105,16,22,49,255,18,32,28,115,00,23,19,304,19*73
2017-11-15 19:53:36 1510793616.665162: $GPGSV,3,3,11,29,13,061,00,25,09,037,00,120,07,103,00*7B
2017-11-15 19:53:36 1510793616.778298: $GPZDA,005335.00,16,11,2017,00,00*65
2017-11-15 19:53:36 1510793616.778459: $GPGGA,005335,3946.9454,N,08404.9616,W,1,06,1.20,284.94,M,-33.324,M,,*7A
2017-11-15 19:53:36 1510793616.778535: $GPRMC,005335,A,3946.9454,N,08404.9616,W,0.3155,129.994,161117,,*36
2017-11-15 19:53:36 1510793616.778592: $GPGSA,A,3,16,31,26,14,22,23,,,,,,,3.4,1.2,2.9*38
2017-11-15 19:53:37 1510793617.329183: $GPZDA,005336.00,16,11,2017,00,00*66
2017-11-15 19:53:37 1510793617.329343: $GPGGA,005336,3946.9454,N,08404.9616,W,1,06,1.20,284.94,M,-33.324,M,,*79
2017-11-15 19:53:37 1510793617.329427: $GPRMC,005336,A,3946.9454,N,08404.9616,W,0.5774,207.515,161117,,*3C
2017-11-15 19:53:37 1510793617.329484: $GPGSA,A,3,16,31,26,14,22,23,,,,,,,3.4,1.2,2.9*38
2017-11-15 19:53:38 1510793618.345038: $GPZDA,005337.00,16,11,2017,00,00*67
2017-11-15 19:53:38 1510793618.345198: $GPGGA,005337,3946.9451,N,08404.9617,W,1,06,1.20,285.71,M,-33.324,M,,*76
2017-11-15 19:53:38 1510793618.345258: $GPRMC,005337,A,3946.9451,N,08404.9617,W,0.9019,198.875,161117,,*37
2017-11-15 19:53:38 1510793618.345313: $GPGSA,A,3,16,31,26,14,22,23,,,,,,,3.4,1.2,2.9*38
2017-11-15 19:53:39 1510793619.664535: $GPGSV,3,1,10,03,44,288,00,16,33,190,24,31,59,039,21,26,64,166,19*7A
2017-11-15 19:53:39 1510793619.664706: $GPGSV,3,2,10,14,47,105,15,22,49,255,18,32,28,115,00,23,19,304,19*71
2017-11-15 19:53:39 1510793619.664765: $GPGSV,3,3,10,29,13,061,00,25,09,037,00*7C
2017-11-15 19:53:39 1510793619.777952: $GPZDA,005338.00,16,11,2017,00,00*68
2017-11-15 19:53:39 1510793619.778154: $GPGGA,005338,3946.9451,N,08404.9617,W,1,06,1.20,285.71,M,-33.324,M,,*79
2017-11-15 19:53:39 1510793619.780692: $GPRMC,005338,A,3946.9451,N,08404.9617,W,1.1385,209.379,161117,,*3B
2017-11-15 19:53:39 1510793619.780815: $GPGSA,A,3,16,31,26,14,22,23,,,,,,,3.4,1.2,2.9*38
2017-11-15 19:53:40 1510793620.345473: $GPZDA,005339.00,16,11,2017,00,00*69
2017-11-15 19:53:40 1510793620.345660: $GPGGA,005339,3946.9451,N,08404.9624,W,1,06,1.20,285.63,M,-33.324,M,,*7B
2017-11-15 19:53:40 1510793620.345720: $GPRMC,005339,A,3946.9451,N,08404.9624,W,1.2621,219.347,161117,,*3E
2017-11-15 19:53:40 1510793620.345775: $GPGSA,A,3,16,31,26,14,22,23,,,,,,,3.4,1.2,2.9*38
2017-11-15 19:53:41 1510793621.330829: $GPZDA,005340.00,16,11,2017,00,00*67
2017-11-15 19:53:41 1510793621.330991: $GPGGA,005340,3946.9451,N,08404.9624,W,1,06,1.20,285.63,M,-33.324,M,,*75
2017-11-15 19:53:41 1510793621.331051: $GPRMC,005340,A,3946.9451,N,08404.9624,W,1.0018,230.691,161117,,*3B
2017-11-15 19:53:41 1510793621.331106: $GPGSA,A,3,16,31,26,14,22,23,,,,,,,3.4,1.2,2.9*38
