2017-12-01 16:04:28 1512162268.746732: {"class":"VERSION","release":"3.16","rev":"3.16-4","proto_major":3,"proto_minor":11}
2017-12-01 16:04:28 1512162268.747148: {"class":"DEVICES","devices":[{"class":"DEVICE","path":"/dev/ttyUSB0","driver":"SiRF","subtype":"9\u0006GSD4e_4.1.2-P1_RPATCH.05-F-GPS-4R-1510281 11/03/2015 307","activated":"2017-12-01T21:04:28.581Z","flags":1,"native":1,"bps":4800,"parity":"N","stopbits":1,"cycle":1.00}]}
2017-12-01 16:04:28 1512162268.747271: {"class":"WATCH","enable":true,"json":false,"nmea":true,"raw":0,"scaled":false,"timing":false,"split24":false,"pps":false}
2017-12-01 16:04:29 1512162269.775458: $GPGSV,3,1,12,10,61,141,48,11,10,294,36,12,25,061,42,14,60,304,44*7C
2017-12-01 16:04:29 1512162269.775620: $GPGSV,3,2,12,18,29,139,42,22,09,312,37,25,35,106,48,31,44,216,49*79
2017-12-01 16:04:29 1512162269.775685: $GPGSV,3,3,12,32,70,354,47,01,18,312,35,24,07,046,24,138,38,213,46*45
2017-12-01 16:04:29 1512162269.888832: $GPZDA,210430.00,01,12,2017,00,00*64
2017-12-01 16:04:29 1512162269.888990: $GPGGA,210430,3946.9572,N,08404.9826,W,2,12,0.80,313.45,M,-33.324,M,,*78
2017-12-01 16:04:29 1512162269.889055: $GPRMC,210430,A,3946.9572,N,08404.9826,W,0.0000,0.000,011217,,*33
2017-12-01 16:04:29 1512162269.889115: $GPGSA,A,3,10,11,12,14,18,22,25,31,32,1,24,138,2.0,0.8,1.5*3B
2017-12-01 16:04:30 1512162270.514200: $GPZDA,210431.00,01,12,2017,00,00*65
2017-12-01 16:04:30 1512162270.514376: $GPGGA,210431,3946.9572,N,08404.9826,W,2,12,0.80,313.45,M,-33.324,M,,*79
2017-12-01 16:04:30 1512162270.514445: $GPRMC,210431,A,3946.9572,N,08404.9826,W,0.0000,0.000,011217,,*32
2017-12-01 16:04:30 1512162270.514506: $GPGSA,A,3,10,11,12,14,18,22,25,31,32,1,24,138,2.0,0.8,1.5*3B
2017-12-01 16:04:31 1512162271.441764: $GPZDA,210432.00,01,12,2017,00,00*66
2017-12-01 16:04:31 1512162271.441935: $GPGGA,210432,3946.9572,N,08404.9826,W,2,12,0.80,313.45,M,-33.324,M,,*7A
2017-12-01 16:04:31 1512162271.442002: $GPRMC,210432,A,3946.9572,N,08404.9826,W,0.0000,0.000,011217,,*31
2017-12-01 16:04:31 1512162271.442064: $GPGSA,A,3,10,11,12,14,18,22,25,31,32,1,24,138,2.0,0.8,1.5*3B
2017-12-01 16:04:32 1512162272.777068: $GPGSV,3,1,12,10,61,141,48,11,10,294,36,12,25,061,42,14,60,304,44*7C
2017-12-01 16:04:32 1512162272.777246: $GPGSV,3,2,12,18,29,139,42,22,09,312,37,25,35,106,48,31,44,216,48*78
2017-12-01 16:04:32 1512162272.777314: $GPGSV,3,3,12,32,70,354,47,01,18,312,28,24,07,046,24,138,38,213,46*49
2017-12-01 16:04:32 1512162272.891157: $GPZDA,210433.00,01,12,2017,00,00*67
2017-12-01 16:04:32 1512162272.891416: $GPGGA,210433,3946.9572,N,08404.9826,W,2,12,0.80,313.45,M,-33.324,M,,*7B
2017-12-01 16:04:32 1512162272.891531: $GPRMC,210433,A,3946.9572,N,08404.9826,W,0.0000,0.000,011217,,*30
2017-12-01 16:04:32 1512162272.891595: $GPGSA,A,3,10,11,12,14,18,22,25,31,32,1,24,138,2.0,0.8,1.5*3B
2017-12-01 16:04:33 1512162273.458036: $GPZDA,210434.00,01,12,2017,00,00*60
2017-12-01 16:04:33 1512162273.458204: $GPGGA,210434,3946.9572,N,08404.9826,W,2,12,0.80,313.45,M,-33.324,M,,*7C
2017-12-01 16:04:33 1512162273.458270: $GPRMC,210434,A,3946.9572,N,08404.9826,W,0.0000,0.000,011217,,*37
2017-12-01 16:04:33 1512162273.458332: $GPGSA,A,3,10,11,12,14,18,22,25,31,32,1,24,138,2.0,0.8,1.5*3B
2017-12-01 16:04:34 1512162274.457316: $GPZDA,210435.00,01,12,2017,00,00*61
2017-12-01 16:04:34 1512162274.457502: $GPGGA,210435,3946.9572,N,08404.9826,W,2,12,0.80,313.45,M,-33.324,M,,*7D
2017-12-01 16:04:34 1512162274.457570: $GPRMC,210435,A,3946.9572,N,08404.9826,W,0.0000,0.000,011217,,*36
2017-12-01 16:04:34 1512162274.457648: $GPGSA,A,3,10,11,12,14,18,22,25,31,32,1,24,138,2.0,0.8,1.5*3B
2017-12-01 16:04:35 1512162275.793775: $GPGSV,3,1,12,10,61,141,48,11,10,294,30,12,25,061,42,14,60,304,44*7A
2017-12-01 16:04:35 1512162275.793980: $GPGSV,3,2,12,18,29,139,42,22,09,312,36,25,35,106,48,31,44,216,49*78
2017-12-01 16:04:35 1512162275.794047: $GPGSV,3,3,12,32,70,354,47,01,18,312,28,24,07,046,24,138,38,213,46*49
2017-12-01 16:04:35 1512162275.907107: $GPZDA,210436.00,01,12,2017,00,00*62
2017-12-01 16:04:35 1512162275.907278: $GPGGA,210436,3946.9572,N,08404.9826,W,2,12,0.80,313.45,M,-33.324,M,,*7E
2017-12-01 16:04:35 1512162275.907394: $GPRMC,210436,A,3946.9572,N,08404.9826,W,0.0000,0.000,011217,,*35
2017-12-01 16:04:35 1512162275.907457: $GPGSA,A,3,10,11,12,14,18,22,25,31,32,1,24,138,2.0,0.8,1.5*3B
2017-12-01 16:04:36 1512162276.454199: $GPZDA,210437.00,01,12,2017,00,00*63
2017-12-01 16:04:36 1512162276.454369: $GPGGA,210437,3946.9572,N,08404.9826,W,2,12,0.80,313.45,M,-33.324,M,,*7F
2017-12-01 16:04:36 1512162276.454435: $GPRMC,210437,A,3946.9572,N,08404.9826,W,0.0000,0.000,011217,,*34
2017-12-01 16:04:36 1512162276.454534: $GPGSA,A,3,10,11,12,14,18,22,25,31,32,1,24,138,2.0,0.8,1.5*3B
2017-12-01 16:04:37 1512162277.457625: $GPZDA,210438.00,01,12,2017,00,00*6C
2017-12-01 16:04:37 1512162277.457796: $GPGGA,210438,3946.9572,N,08404.9826,W,2,12,0.80,313.45,M,-33.324,M,,*70
2017-12-01 16:04:37 1512162277.457862: $GPRMC,210438,A,3946.9572,N,08404.9826,W,0.0000,0.000,011217,,*3B
2017-12-01 16:04:37 1512162277.457922: $GPGSA,A,3,10,11,12,14,18,22,25,31,32,1,24,138,2.0,0.8,1.5*3B
2017-12-01 16:04:38 1512162278.777551: $GPGSV,3,1,12,10,61,141,48,11,10,294,31,12,25,061,43,14,60,304,44*7A
2017-12-01 16:04:38 1512162278.947396: $GPGSV,3,2,12,18,29,139,43,22,09,312,36,25,35,106,48,31,44,216,48*78
2017-12-01 16:04:38 1512162278.947578: $GPGSV,3,3,12,32,70,354,47,01,18,312,28,24,07,046,24,138,38,213,45*4A
2017-12-01 16:04:38 1512162278.947698: $GPZDA,210439.00,01,12,2017,00,00*6D
2017-12-01 16:04:38 1512162278.947757: $GPGGA,210439,3946.9572,N,08404.9826,W,2,12,0.80,313.45,M,-33.324,M,,*71
2017-12-01 16:04:38 1512162278.947819: $GPRMC,210439,A,3946.9572,N,08404.9826,W,0.0000,0.000,011217,,*3A
2017-12-01 16:04:38 1512162278.947879: $GPGSA,A,3,10,11,12,14,18,22,25,31,32,1,24,138,2.0,0.8,1.5*3B
2017-12-01 16:04:39 1512162279.442699: $GPZDA,210440.00,01,12,2017,00,00*63
2017-12-01 16:04:39 1512162279.442863: $GPGGA,210440,3946.9572,N,08404.9826,W,2,12,0.80,313.45,M,-33.324,M,,*7F
2017-12-01 16:04:39 1512162279.442930: $GPRMC,210440,A,3946.9572,N,08404.9826,W,0.0000,0.000,011217,,*34
2017-12-01 16:04:39 1512162279.442991: $GPGSA,A,3,10,11,12,14,18,22,25,31,32,1,24,138,2.0,0.8,1.5*3B
2017-12-01 16:04:40 1512162280.441723: $GPZDA,210441.00,01,12,2017,00,00*62
2017-12-01 16:04:40 1512162280.441899: $GPGGA,210441,3946.9572,N,08404.9826,W,2,12,0.80,313.45,M,-33.324,M,,*7E
2017-12-01 16:04:40 1512162280.441968: $GPRMC,210441,A,3946.9572,N,08404.9826,W,0.0000,0.000,011217,,*35
2017-12-01 16:04:40 1512162280.442029: $GPGSA,A,3,10,11,12,14,18,22,25,31,32,1,24,138,2.0,0.8,1.5*3B
2017-12-01 16:04:41 1512162281.793666: $GPGSV,3,1,12,10,61,141,48,11,10,294,17,12,25,061,43,14,60,304,45*7F
2017-12-01 16:04:41 1512162281.793826: $GPGSV,3,2,12,18,29,139,43,22,09,312,35,25,35,106,48,31,44,216,49*7A
2017-12-01 16:04:41 1512162281.793893: $GPGSV,3,3,12,32,70,354,47,01,18,312,28,24,07,046,25,138,38,213,46*48
2017-12-01 16:04:41 1512162281.907158: $GPZDA,210442.00,01,12,2017,00,00*61
2017-12-01 16:04:41 1512162281.907332: $GPGGA,210442,3946.9572,N,08404.9826,W,2,12,0.80,313.45,M,-33.324,M,,*7D
2017-12-01 16:04:41 1512162281.907398: $GPRMC,210442,A,3946.9572,N,08404.9826,W,0.0000,0.000,011217,,*36
2017-12-01 16:04:41 1512162281.907480: $GPGSA,A,3,10,11,12,14,18,22,25,31,32,1,24,138,2.0,0.8,1.5*3B
2017-12-01 16:04:42 1512162282.441793: $GPZDA,210443.00,01,12,2017,00,00*60
2017-12-01 16:04:42 1512162282.442038: $GPGGA,210443,3946.9572,N,08404.9826,W,2,12,0.80,313.45,M,-33.324,M,,*7C
2017-12-01 16:04:42 1512162282.442167: $GPRMC,210443,A,3946.9572,N,08404.9826,W,0.0000,0.000,011217,,*37
2017-12-01 16:04:42 1512162282.442287: $GPGSA,A,3,10,11,12,14,18,22,25,31,32,1,24,138,2.0,0.8,1.5*3B
2017-12-01 16:04:43 1512162283.457825: $GPZDA,210444.00,01,12,2017,00,00*67
2017-12-01 16:04:43 1512162283.457996: $GPGGA,210444,3946.9572,N,08404.9826,W,2,12,0.80,313.45,M,-33.324,M,,*7B
2017-12-01 16:04:43 1512162283.458063: $GPRMC,210444,A,3946.9572,N,08404.9826,W,0.0000,0.000,011217,,*30
2017-12-01 16:04:43 1512162283.458126: $GPGSA,A,3,10,11,12,14,18,22,25,31,32,1,24,138,2.0,0.8,1.5*3B
2017-12-01 16:04:44 1512162284.788272: $GPGSV,3,1,12,10,61,141,48,11,10,294,29,12,25,061,43,14,60,304,45*72
2017-12-01 16:04:44 1512162284.788472: $GPGSV,3,2,12,18,29,139,43,22,09,312,35,25,35,106,48,31,44,216,50*72
2017-12-01 16:04:44 1512162284.788542: $GPGSV,3,3,12,32,70,354,47,01,18,312,35,24,07,046,24,138,38,213,46*45
2017-12-01 16:04:44 1512162284.901962: $GPZDA,210445.00,01,12,2017,00,00*66
2017-12-01 16:04:44 1512162284.902140: $GPGGA,210445,3946.9572,N,08404.9826,W,2,12,0.80,313.45,M,-33.324,M,,*7A
2017-12-01 16:04:44 1512162284.902208: $GPRMC,210445,A,3946.9572,N,08404.9826,W,0.0000,0.000,011217,,*31
2017-12-01 16:04:44 1512162284.902403: $GPGSA,A,3,10,11,12,14,18,22,25,31,32,1,24,138,2.0,0.8,1.5*3B
2017-12-01 16:04:45 1512162285.527040: $GPZDA,210446.00,01,12,2017,00,00*65
2017-12-01 16:04:45 1512162285.527217: $GPGGA,210446,3946.9568,N,08404.9826,W,2,12,0.80,312.81,M,-33.324,M,,*7B
2017-12-01 16:04:45 1512162285.527287: $GPRMC,210446,A,3946.9568,N,08404.9826,W,0.0000,0.000,011217,,*39
2017-12-01 16:04:45 1512162285.527349: $GPGSA,A,3,10,11,12,14,18,22,25,31,32,1,24,138,2.0,0.8,1.5*3B
2017-12-01 16:04:46 1512162286.440649: $GPZDA,210447.00,01,12,2017,00,00*64
2017-12-01 16:04:46 1512162286.440830: $GPGGA,210447,3946.9568,N,08404.9826,W,2,12,0.80,312.81,M,-33.324,M,,*7A
2017-12-01 16:04:46 1512162286.440901: $GPRMC,210447,A,3946.9568,N,08404.9826,W,0.0000,0.000,011217,,*38
2017-12-01 16:04:46 1512162286.440965: $GPGSA,A,3,10,11,12,14,18,22,25,31,32,1,24,138,2.0,0.8,1.5*3B
2017-12-01 16:04:47 1512162287.793625: $GPGSV,3,1,12,10,61,141,49,11,10,294,28,12,25,061,43,14,60,304,45*72
2017-12-01 16:04:47 1512162287.793809: $GPGSV,3,2,12,18,29,139,43,22,09,312,36,25,35,106,49,31,44,216,49*78
2017-12-01 16:04:47 1512162287.793878: $GPGSV,3,3,12,32,70,354,46,01,18,312,33,24,07,046,24,138,38,213,45*41
2017-12-01 16:04:47 1512162287.907033: $GPZDA,210448.00,01,12,2017,00,00*6B
2017-12-01 16:04:47 1512162287.907198: $GPGGA,210448,3946.9568,N,08404.9826,W,2,12,0.80,312.81,M,-33.324,M,,*75
2017-12-01 16:04:47 1512162287.907268: $GPRMC,210448,A,3946.9568,N,08404.9826,W,0.0000,0.000,011217,,*37
2017-12-01 16:04:47 1512162287.907332: $GPGSA,A,3,10,11,12,14,18,22,25,31,32,1,24,138,2.0,0.8,1.5*3B
2017-12-01 16:04:48 1512162288.459155: $GPZDA,210449.00,01,12,2017,00,00*6A
2017-12-01 16:04:48 1512162288.459341: $GPGGA,210449,3946.9568,N,08404.9826,W,2,12,0.80,312.81,M,-33.324,M,,*74
2017-12-01 16:04:48 1512162288.459413: $GPRMC,210449,A,3946.9568,N,08404.9826,W,0.0000,0.000,011217,,*36
2017-12-01 16:04:48 1512162288.459508: $GPGSA,A,3,10,11,12,14,18,22,25,31,32,1,24,138,2.0,0.8,1.5*3B
