2017-12-29 14:51:55 1514577115.966453: {"class":"VERSION","release":"3.16","rev":"3.16-4","proto_major":3,"proto_minor":11}
2017-12-29 14:51:55 1514577115.966774: {"class":"DEVICES","devices":[{"class":"DEVICE","path":"/dev/ttyUSB0","driver":"SiRF","subtype":"9\u0006GSD4e_4.1.2-P1_RPATCH.05-F-GPS-4R-1510281 11/03/2015 307","activated":"2017-12-29T19:51:55.480Z","flags":1,"native":1,"bps":4800,"parity":"N","stopbits":1,"cycle":1.00}]}
2017-12-29 14:51:55 1514577115.966886: {"class":"WATCH","enable":true,"json":false,"nmea":true,"raw":0,"scaled":false,"timing":false,"split24":false,"pps":false}
2017-12-29 14:51:56 1514577116.334457: $GPZDA,195157.00,29,12,2017,00,00*64
2017-12-29 14:51:56 1514577116.334624: $GPGGA,195157,3946.9590,N,08404.9793,W,2,12,0.80,306.37,M,-33.324,M,,*7E
2017-12-29 14:51:56 1514577116.334692: $GPRMC,195157,A,3946.9590,N,08404.9793,W,0.0000,0.000,291217,,*3E
2017-12-29 14:51:56 1514577116.334753: $GPGSA,A,3,1,3,10,12,14,22,25,31,32,18,26,138,1.7,0.8,1.3*08
2017-12-29 14:51:57 1514577117.672392: $GPGSV,3,1,12,01,22,294,38,03,07,316,35,10,40,151,48,12,19,043,43*7C
2017-12-29 14:51:57 1514577117.672545: $GPGSV,3,2,12,14,68,343,43,22,25,310,42,25,41,081,51,31,65,232,46*7F
2017-12-29 14:51:57 1514577117.672610: $GPGSV,3,3,12,32,65,048,50,18,11,145,29,26,09,180,29,138,38,213,42*4B
2017-12-29 14:51:57 1514577117.785993: $GPZDA,195158.00,29,12,2017,00,00*6B
2017-12-29 14:51:57 1514577117.786121: $GPGGA,195158,3946.9590,N,08404.9793,W,2,12,0.80,306.37,M,-33.324,M,,*71
2017-12-29 14:51:57 1514577117.786189: $GPRMC,195158,A,3946.9590,N,08404.9793,W,0.0000,0.000,291217,,*31
2017-12-29 14:51:57 1514577117.786250: $GPGSA,A,3,1,3,10,12,14,22,25,31,32,18,26,138,1.7,0.8,1.3*08
2017-12-29 14:51:58 1514577118.411470: $GPZDA,195159.00,29,12,2017,00,00*6A
2017-12-29 14:51:58 1514577118.411641: $GPGGA,195159,3946.9590,N,08404.9793,W,2,12,0.80,306.37,M,-33.324,M,,*70
2017-12-29 14:51:58 1514577118.411708: $GPRMC,195159,A,3946.9590,N,08404.9793,W,0.0000,0.000,291217,,*30
2017-12-29 14:51:58 1514577118.411770: $GPGSA,A,3,1,3,10,12,14,22,25,31,32,18,26,138,1.7,0.8,1.3*08
2017-12-29 14:51:59 1514577119.337274: $GPZDA,195200.00,29,12,2017,00,00*65
2017-12-29 14:51:59 1514577119.337431: $GPGGA,195200,3946.9590,N,08404.9793,W,2,12,0.80,306.37,M,-33.324,M,,*7F
2017-12-29 14:51:59 1514577119.337499: $GPRMC,195200,A,3946.9590,N,08404.9793,W,0.0000,0.000,291217,,*3F
2017-12-29 14:51:59 1514577119.337560: $GPGSA,A,3,1,3,10,12,14,22,25,31,32,18,26,138,1.7,0.8,1.3*08
2017-12-29 14:52:00 1514577120.671563: $GPGSV,3,1,12,01,22,294,38,03,07,316,33,10,40,151,48,12,19,043,43*7A
2017-12-29 14:52:00 1514577120.671754: $GPGSV,3,2,12,14,68,343,43,22,25,310,42,25,41,081,51,31,65,232,45*7C
2017-12-29 14:52:00 1514577120.671822: $GPGSV,3,3,12,32,65,048,50,18,11,145,28,26,09,180,29,138,38,213,44*4C
2017-12-29 14:52:00 1514577120.785115: $GPZDA,195201.00,29,12,2017,00,00*64
2017-12-29 14:52:00 1514577120.785251: $GPGGA,195201,3946.9590,N,08404.9793,W,2,12,0.80,306.37,M,-33.324,M,,*7E
2017-12-29 14:52:00 1514577120.785318: $GPRMC,195201,A,3946.9590,N,08404.9793,W,0.0000,0.000,291217,,*3E
2017-12-29 14:52:00 1514577120.785380: $GPGSA,A,3,1,3,10,12,14,22,25,31,32,18,26,138,1.7,0.8,1.3*08
2017-12-29 14:52:01 1514577121.338519: $GPZDA,195202.00,29,12,2017,00,00*67
2017-12-29 14:52:01 1514577121.338679: $GPGGA,195202,3946.9590,N,08404.9793,W,2,12,0.80,306.37,M,-33.324,M,,*7D
2017-12-29 14:52:01 1514577121.338748: $GPRMC,195202,A,3946.9590,N,08404.9793,W,0.0000,0.000,291217,,*3D
2017-12-29 14:52:01 1514577121.338809: $GPGSA,A,3,1,3,10,12,14,22,25,31,32,18,26,138,1.7,0.8,1.3*08
2017-12-29 14:52:02 1514577122.338148: $GPZDA,195203.00,29,12,2017,00,00*66
2017-12-29 14:52:02 1514577122.338307: $GPGGA,195203,3946.9590,N,08404.9793,W,2,12,0.80,306.37,M,-33.324,M,,*7C
2017-12-29 14:52:02 1514577122.338375: $GPRMC,195203,A,3946.9590,N,08404.9793,W,0.0000,0.000,291217,,*3C
2017-12-29 14:52:02 1514577122.338436: $GPGSA,A,3,1,3,10,12,14,22,25,31,32,18,26,138,1.7,0.8,1.3*08
2017-12-29 14:52:03 1514577123.673093: $GPGSV,3,1,12,01,22,294,39,03,07,316,34,10,40,151,48,12,19,043,42*7D
2017-12-29 14:52:03 1514577123.673310: $GPGSV,3,2,12,14,68,343,43,22,25,310,43,25,41,081,51,31,65,232,45*7D
2017-12-29 14:52:03 1514577123.673381: $GPGSV,3,3,12,32,65,048,50,18,11,145,28,26,09,180,28,138,38,213,42*4B
2017-12-29 14:52:03 1514577123.786704: $GPZDA,195204.00,29,12,2017,00,00*61
2017-12-29 14:52:03 1514577123.786843: $GPGGA,195204,3946.9590,N,08404.9793,W,2,12,0.80,306.37,M,-33.324,M,,*7B
2017-12-29 14:52:03 1514577123.786911: $GPRMC,195204,A,3946.9590,N,08404.9793,W,0.0000,0.000,291217,,*3B
2017-12-29 14:52:03 1514577123.786975: $GPGSA,A,3,1,3,10,12,14,22,25,31,32,18,26,138,1.7,0.8,1.3*08
2017-12-29 14:52:04 1514577124.336349: $GPZDA,195205.00,29,12,2017,00,00*60
2017-12-29 14:52:04 1514577124.336519: $GPGGA,195205,3946.9590,N,08404.9793,W,2,12,0.80,306.37,M,-33.324,M,,*7A
2017-12-29 14:52:04 1514577124.336587: $GPRMC,195205,A,3946.9590,N,08404.9793,W,0.0000,0.000,291217,,*3A
2017-12-29 14:52:04 1514577124.336649: $GPGSA,A,3,1,3,10,12,14,22,25,31,32,18,26,138,1.7,0.8,1.3*08
2017-12-29 14:52:05 1514577125.337218: $GPZDA,195206.00,29,12,2017,00,00*63
2017-12-29 14:52:05 1514577125.337388: $GPGGA,195206,3946.9590,N,08404.9793,W,2,12,0.80,306.37,M,-33.324,M,,*79
2017-12-29 14:52:05 1514577125.337457: $GPRMC,195206,A,3946.9590,N,08404.9793,W,0.0000,0.000,291217,,*39
2017-12-29 14:52:05 1514577125.337519: $GPGSA,A,3,1,3,10,12,14,22,25,31,32,18,26,138,1.7,0.8,1.3*08
