2017-12-01 12:20:30 1512148830.306866: {"class":"VERSION","release":"3.16","rev":"3.16-4","proto_major":3,"proto_minor":11}
2017-12-01 12:20:30 1512148830.307278: {"class":"DEVICES","devices":[{"class":"DEVICE","path":"/dev/ttyUSB0","driver":"SiRF","subtype":"9\u0006GSD4e_4.1.2-P1_RPATCH.05-F-GPS-4R-1510281 11/03/2015 307","activated":"2017-12-01T17:20:30.230Z","flags":1,"native":1,"bps":4800,"parity":"N","stopbits":1,"cycle":1.00}]}
2017-12-01 12:20:30 1512148830.307399: {"class":"WATCH","enable":true,"json":false,"nmea":true,"raw":0,"scaled":false,"timing":false,"split24":false,"pps":false}
2017-12-01 12:20:30 1512148830.343321: $GPZDA,172031.00,01,12,2017,00,00*66
2017-12-01 12:20:30 1512148830.343464: $GPGGA,172031,3946.9573,N,08404.9839,W,2,11,0.80,297.64,M,-33.324,M,,*78
2017-12-01 12:20:30 1512148830.343529: $GPRMC,172031,A,3946.9573,N,08404.9839,W,0.0000,0.000,011217,,*3E
2017-12-01 12:20:30 1512148830.343590: $GPGSA,A,3,10,13,15,18,20,21,24,27,5,29,138,,2.0,0.8,1.5*34
2017-12-01 12:20:31 1512148831.685334: $GPGSV,3,1,12,10,24,283,37,13,28,045,45,15,60,051,46,18,55,301,45*74
2017-12-01 12:20:31 1512148831.685495: $GPGSV,3,2,12,20,51,073,45,21,79,262,42,24,34,138,48,27,17,312,34*76
2017-12-01 12:20:31 1512148831.685562: $GPGSV,3,3,12,05,03,088,19,29,09,189,24,32,02,226,00,138,38,213,46*46
2017-12-01 12:20:31 1512148831.798759: $GPZDA,172032.00,01,12,2017,00,00*65
2017-12-01 12:20:31 1512148831.798932: $GPGGA,172032,3946.9573,N,08404.9839,W,2,11,0.80,297.64,M,-33.324,M,,*7B
2017-12-01 12:20:31 1512148831.798998: $GPRMC,172032,A,3946.9573,N,08404.9839,W,0.0000,0.000,011217,,*3D
2017-12-01 12:20:31 1512148831.799059: $GPGSA,A,3,10,13,15,18,20,21,24,27,5,29,138,,2.0,0.8,1.5*34
2017-12-01 12:20:32 1512148832.425323: $GPZDA,172033.00,01,12,2017,00,00*64
2017-12-01 12:20:32 1512148832.425492: $GPGGA,172033,3946.9573,N,08404.9839,W,2,11,0.80,297.64,M,-33.324,M,,*7A
2017-12-01 12:20:32 1512148832.425559: $GPRMC,172033,A,3946.9573,N,08404.9839,W,0.0000,0.000,011217,,*3C
2017-12-01 12:20:32 1512148832.425620: $GPGSA,A,3,10,13,15,18,20,21,24,27,5,29,138,,2.0,0.8,1.5*34
2017-12-01 12:20:33 1512148833.347436: $GPZDA,172034.00,01,12,2017,00,00*63
2017-12-01 12:20:33 1512148833.347606: $GPGGA,172034,3946.9573,N,08404.9839,W,2,11,0.80,297.64,M,-33.324,M,,*7D
2017-12-01 12:20:33 1512148833.347672: $GPRMC,172034,A,3946.9573,N,08404.9839,W,0.0000,0.000,011217,,*3B
2017-12-01 12:20:33 1512148833.347733: $GPGSA,A,3,10,13,15,18,20,21,24,27,5,29,138,,2.0,0.8,1.5*34
2017-12-01 12:20:34 1512148834.683205: $GPGSV,3,1,12,10,24,283,38,13,28,045,45,15,60,051,47,18,55,301,45*7A
2017-12-01 12:20:34 1512148834.683387: $GPGSV,3,2,12,20,51,073,45,21,79,262,42,24,34,138,48,27,17,312,34*76
2017-12-01 12:20:34 1512148834.683454: $GPGSV,3,3,12,05,03,088,20,29,09,189,20,32,02,226,00,138,38,213,46*48
2017-12-01 12:20:34 1512148834.796564: $GPZDA,172035.00,01,12,2017,00,00*62
2017-12-01 12:20:34 1512148834.796717: $GPGGA,172035,3946.9573,N,08404.9839,W,2,11,0.80,297.64,M,-33.324,M,,*7C
2017-12-01 12:20:34 1512148834.796783: $GPRMC,172035,A,3946.9573,N,08404.9839,W,0.0000,0.000,011217,,*3A
2017-12-01 12:20:34 1512148834.796844: $GPGSA,A,3,10,13,15,18,20,21,24,27,5,29,138,,2.0,0.8,1.5*34
2017-12-01 12:20:35 1512148835.349926: $GPZDA,172036.00,01,12,2017,00,00*61
2017-12-01 12:20:35 1512148835.350097: $GPGGA,172036,3946.9573,N,08404.9839,W,2,11,0.80,297.64,M,-33.324,M,,*7F
2017-12-01 12:20:35 1512148835.350164: $GPRMC,172036,A,3946.9573,N,08404.9839,W,0.0000,0.000,011217,,*39
2017-12-01 12:20:35 1512148835.350224: $GPGSA,A,3,10,13,15,18,20,21,24,27,5,29,138,,2.0,0.8,1.5*34
2017-12-01 12:20:36 1512148836.344601: $GPZDA,172037.00,01,12,2017,00,00*60
2017-12-01 12:20:36 1512148836.344777: $GPGGA,172037,3946.9573,N,08404.9839,W,2,11,1.20,297.64,M,-33.324,M,,*75
2017-12-01 12:20:36 1512148836.344844: $GPRMC,172037,A,3946.9573,N,08404.9839,W,0.0000,0.000,011217,,*38
2017-12-01 12:20:36 1512148836.344906: $GPGSA,A,3,10,13,15,18,20,21,24,27,5,29,138,,2.0,1.2,1.5*3F
2017-12-01 12:20:37 1512148837.683528: $GPGSV,3,1,12,10,24,283,39,13,28,045,45,15,60,051,47,18,55,301,45*7B
2017-12-01 12:20:37 1512148837.683762: $GPGSV,3,2,12,20,51,073,45,21,79,262,42,24,34,138,48,27,17,312,35*77
2017-12-01 12:20:37 1512148837.683831: $GPGSV,3,3,12,05,03,088,20,29,09,189,00,32,02,226,00,138,38,213,46*4A
2017-12-01 12:20:37 1512148837.796876: $GPZDA,172038.00,01,12,2017,00,00*6F
2017-12-01 12:20:37 1512148837.797005: $GPGGA,172038,3946.9573,N,08404.9839,W,2,10,1.20,297.64,M,-33.324,M,,*7B
2017-12-01 12:20:37 1512148837.797069: $GPRMC,172038,A,3946.9573,N,08404.9839,W,0.0000,0.000,011217,,*37
2017-12-01 12:20:37 1512148837.797130: $GPGSA,A,3,10,13,15,18,20,21,24,27,5,138,,,2.0,1.2,1.5*34
2017-12-01 12:20:38 1512148838.356569: $GPZDA,172039.00,01,12,2017,00,00*6E
2017-12-01 12:20:38 1512148838.356741: $GPGGA,172039,3946.9573,N,08404.9839,W,2,10,1.20,297.64,M,-33.324,M,,*7A
2017-12-01 12:20:38 1512148838.356808: $GPRMC,172039,A,3946.9573,N,08404.9839,W,0.0000,0.000,011217,,*36
2017-12-01 12:20:38 1512148838.356868: $GPGSA,A,3,10,13,15,18,20,21,24,27,5,138,,,2.0,1.2,1.5*34
2017-12-01 12:20:39 1512148839.348758: $GPZDA,172040.00,01,12,2017,00,00*60
2017-12-01 12:20:39 1512148839.348958: $GPGGA,172040,3946.9573,N,08404.9839,W,2,10,0.80,297.64,M,-33.324,M,,*7F
2017-12-01 12:20:39 1512148839.349025: $GPRMC,172040,A,3946.9573,N,08404.9839,W,0.0000,0.000,011217,,*38
2017-12-01 12:20:39 1512148839.349086: $GPGSA,A,3,10,13,15,18,20,21,24,27,5,138,,,2.0,0.8,1.5*3F
