2018-01-11 19:58:14 1515718694.775547: {"class":"VERSION","release":"3.16","rev":"3.16-4","proto_major":3,"proto_minor":11}
2018-01-11 19:58:14 1515718694.775892: {"class":"DEVICES","devices":[{"class":"DEVICE","path":"/dev/ttyUSB0","driver":"SiRF","subtype":"9\u0006GSD4e_4.1.2-P1_RPATCH.05-F-GPS-4R-1510281 11/03/2015 307","activated":"2018-01-12T00:58:14.712Z","flags":1,"native":1,"bps":4800,"parity":"N","stopbits":1,"cycle":1.00}]}
2018-01-11 19:58:14 1515718694.776007: {"class":"WATCH","enable":true,"json":false,"nmea":true,"raw":0,"scaled":false,"timing":false,"split24":false,"pps":false}
2018-01-11 19:58:14 1515718694.825821: $GPZDA,005815.00,12,01,2018,00,00*66
2018-01-11 19:58:14 1515718694.826000: $GPGGA,005815,3946.9565,N,08404.9804,W,2,10,0.80,310.24,M,-33.324,M,,*75
2018-01-11 19:58:14 1515718694.826066: $GPRMC,005815,A,3946.9565,N,08404.9804,W,0.0000,0.000,120118,,*37
2018-01-11 19:58:14 1515718694.826129: $GPGSA,A,3,7,8,9,11,16,23,27,28,30,138,,,4.0,0.8,3.5*3E
2018-01-11 19:58:15 1515718695.451149: $GPZDA,005816.00,12,01,2018,00,00*65
2018-01-11 19:58:15 1515718695.451294: $GPGGA,005816,3946.9565,N,08404.9804,W,2,10,0.80,310.24,M,-33.324,M,,*76
2018-01-11 19:58:15 1515718695.451362: $GPRMC,005816,A,3946.9565,N,08404.9804,W,0.0000,0.000,120118,,*34
2018-01-11 19:58:15 1515718695.451423: $GPGSA,A,3,7,8,9,11,16,23,27,28,30,138,,,4.0,0.8,3.5*3E
2018-01-11 19:58:16 1515718696.377033: $GPZDA,005817.00,12,01,2018,00,00*64
2018-01-11 19:58:16 1515718696.377197: $GPGGA,005817,3946.9565,N,08404.9804,W,2,10,0.80,310.24,M,-33.324,M,,*77
2018-01-11 19:58:16 1515718696.377268: $GPRMC,005817,A,3946.9565,N,08404.9804,W,0.0000,0.000,120118,,*35
2018-01-11 19:58:16 1515718696.377330: $GPGSA,A,3,7,8,9,11,16,23,27,28,30,138,,,4.0,0.8,3.5*3E
2018-01-11 19:58:17 1515718697.711523: $GPGSV,3,1,11,07,50,312,43,08,69,147,46,09,52,237,44,11,15,169,39*71
2018-01-11 19:58:17 1515718697.711709: $GPGSV,3,2,11,16,27,057,46,23,35,192,48,27,52,058,51,28,10,255,29*72
2018-01-11 19:58:17 1515718697.711776: $GPGSV,3,3,11,30,24,304,38,26,02,069,00,138,38,213,46*7A
2018-01-11 19:58:17 1515718697.825151: $GPZDA,005818.00,12,01,2018,00,00*6B
2018-01-11 19:58:17 1515718697.825324: $GPGGA,005818,3946.9565,N,08404.9804,W,2,10,0.80,310.24,M,-33.324,M,,*78
2018-01-11 19:58:17 1515718697.825390: $GPRMC,005818,A,3946.9565,N,08404.9804,W,0.0000,0.000,120118,,*3A
2018-01-11 19:58:17 1515718697.825451: $GPGSA,A,3,7,8,9,11,16,23,27,28,30,138,,,4.0,0.8,3.5*3E
2018-01-11 19:58:18 1515718698.372256: $GPZDA,005819.00,12,01,2018,00,00*6A
2018-01-11 19:58:18 1515718698.372401: $GPGGA,005819,3946.9565,N,08404.9804,W,2,10,0.80,310.24,M,-33.324,M,,*79
2018-01-11 19:58:18 1515718698.372469: $GPRMC,005819,A,3946.9565,N,08404.9804,W,0.0000,0.000,120118,,*3B
2018-01-11 19:58:18 1515718698.372529: $GPGSA,A,3,7,8,9,11,16,23,27,28,30,138,,,4.0,0.8,3.5*3E
2018-01-11 19:58:19 1515718699.383151: $GPZDA,005820.00,12,01,2018,00,00*60
2018-01-11 19:58:19 1515718699.383321: $GPGGA,005820,3946.9565,N,08404.9804,W,2,10,0.80,310.24,M,-33.324,M,,*73
2018-01-11 19:58:19 1515718699.383387: $GPRMC,005820,A,3946.9565,N,08404.9804,W,0.0000,0.000,120118,,*31
2018-01-11 19:58:19 1515718699.383449: $GPGSA,A,3,7,8,9,11,16,23,27,28,30,138,,,4.0,0.8,3.5*3E
2018-01-11 19:58:20 1515718700.708106: $GPGSV,3,1,11,07,50,312,43,08,69,147,46,09,52,237,43,11,15,169,39*76
2018-01-11 19:58:20 1515718700.708268: $GPGSV,3,2,11,16,27,057,46,23,35,192,47,27,52,058,51,28,10,255,29*7D
2018-01-11 19:58:20 1515718700.708336: $GPGSV,3,3,11,30,24,304,38,26,02,069,00,138,38,213,45*79
2018-01-11 19:58:20 1515718700.821743: $GPZDA,005821.00,12,01,2018,00,00*61
2018-01-11 19:58:20 1515718700.821894: $GPGGA,005821,3946.9565,N,08404.9804,W,2,10,0.80,310.24,M,-33.324,M,,*72
2018-01-11 19:58:20 1515718700.821960: $GPRMC,005821,A,3946.9565,N,08404.9804,W,0.0000,0.000,120118,,*30
2018-01-11 19:58:20 1515718700.822019: $GPGSA,A,3,7,8,9,11,16,23,27,28,30,138,,,4.0,0.8,3.5*3E
2018-01-11 19:58:21 1515718701.375120: $GPZDA,005822.00,12,01,2018,00,00*62
2018-01-11 19:58:21 1515718701.375288: $GPGGA,005822,3946.9565,N,08404.9804,W,2,10,0.80,310.24,M,-33.324,M,,*71
2018-01-11 19:58:21 1515718701.375405: $GPRMC,005822,A,3946.9565,N,08404.9804,W,0.0000,0.000,120118,,*33
2018-01-11 19:58:21 1515718701.375472: $GPGSA,A,3,7,8,9,11,16,23,27,28,30,138,,,4.0,0.8,3.5*3E
2018-01-11 19:58:22 1515718702.375999: $GPZDA,005823.00,12,01,2018,00,00*63
2018-01-11 19:58:22 1515718702.376165: $GPGGA,005823,3946.9565,N,08404.9804,W,2,10,0.80,310.24,M,-33.324,M,,*70
2018-01-11 19:58:22 1515718702.376232: $GPRMC,005823,A,3946.9565,N,08404.9804,W,0.0000,0.000,120118,,*32
2018-01-11 19:58:22 1515718702.376294: $GPGSA,A,3,7,8,9,11,16,23,27,28,30,138,,,4.0,0.8,3.5*3E
2018-01-11 19:58:23 1515718703.711458: $GPGSV,3,1,11,07,50,312,42,08,69,147,46,09,52,237,43,11,15,169,39*77
2018-01-11 19:58:23 1515718703.711621: $GPGSV,3,2,11,16,27,057,46,23,35,192,47,27,52,058,51,28,10,255,29*7D
2018-01-11 19:58:23 1515718703.711689: $GPGSV,3,3,11,30,24,304,38,26,02,069,00,138,38,213,45*79
2018-01-11 19:58:23 1515718703.825089: $GPZDA,005824.00,12,01,2018,00,00*64
2018-01-11 19:58:23 1515718703.825240: $GPGGA,005824,3946.9565,N,08404.9804,W,2,10,0.80,310.24,M,-33.324,M,,*77
2018-01-11 19:58:23 1515718703.825306: $GPRMC,005824,A,3946.9565,N,08404.9804,W,0.0000,0.000,120118,,*35
2018-01-11 19:58:23 1515718703.825366: $GPGSA,A,3,7,8,9,11,16,23,27,28,30,138,,,4.0,0.8,3.5*3E
2018-01-11 19:58:24 1515718704.377214: $GPZDA,005825.00,12,01,2018,00,00*65
2018-01-11 19:58:24 1515718704.377381: $GPGGA,005825,3946.9565,N,08404.9804,W,2,10,0.80,310.24,M,-33.324,M,,*76
2018-01-11 19:58:24 1515718704.377451: $GPRMC,005825,A,3946.9565,N,08404.9804,W,0.0000,0.000,120118,,*34
2018-01-11 19:58:24 1515718704.377516: $GPGSA,A,3,7,8,9,11,16,23,27,28,30,138,,,4.0,0.8,3.5*3E
