2017-12-31 17:00:26 1514757626.487575: {"class":"VERSION","release":"3.16","rev":"3.16-4","proto_major":3,"proto_minor":11}
2017-12-31 17:00:26 1514757626.489130: {"class":"DEVICES","devices":[{"class":"DEVICE","path":"/dev/ttyUSB0","driver":"SiRF","activated":"2017-12-31T22:00:26.476Z","flags":1,"native":1,"bps":4800,"parity":"N","stopbits":1,"cycle":1.00}]}
2017-12-31 17:00:26 1514757626.489244: {"class":"WATCH","enable":true,"json":false,"nmea":true,"raw":0,"scaled":false,"timing":false,"split24":false,"pps":false}
2017-12-31 17:00:27 1514757627.680438: $GPGSV,3,1,11,22,45,243,40,23,26,307,42,25,03,037,21,03,46,274,41*7A
2017-12-31 17:00:27 1514757627.680618: $GPGSV,3,2,11,16,44,190,44,29,14,057,00,31,51,049,50,14,42,112,39*7E
2017-12-31 17:00:27 1514757627.680684: $GPGSV,3,3,11,32,20,121,44,26,73,148,46,135,22,240,42*70
2017-12-31 17:00:27 1514757627.794025: $GPZDA,220028.00,31,12,2017,00,00*69
2017-12-31 17:00:27 1514757627.794163: $GPGGA,220028,3946.9584,N,08404.9855,W,2,10,1.00,302.98,M,-33.324,M,,*70
2017-12-31 17:00:27 1514757627.794228: $GPRMC,220028,A,3946.9584,N,08404.9855,W,0.0000,0.000,311217,,*33
2017-12-31 17:00:27 1514757627.794288: $GPGSA,A,3,22,23,25,3,16,31,14,32,26,135,,,1.7,1.0,1.3*30
2017-12-31 17:00:28 1514757628.344998: $GPZDA,220029.00,31,12,2017,00,00*68
2017-12-31 17:00:28 1514757628.345170: $GPGGA,220029,3946.9584,N,08404.9855,W,2,10,1.00,302.98,M,-33.324,M,,*71
2017-12-31 17:00:28 1514757628.345236: $GPRMC,220029,A,3946.9584,N,08404.9855,W,0.0000,0.000,311217,,*32
2017-12-31 17:00:28 1514757628.345296: $GPGSA,A,3,22,23,25,3,16,31,14,32,26,135,,,1.7,1.0,1.3*30
2017-12-31 17:00:29 1514757629.343360: $GPZDA,220030.00,31,12,2017,00,00*60
2017-12-31 17:00:29 1514757629.343524: $GPGGA,220030,3946.9584,N,08404.9855,W,2,10,1.00,302.98,M,-33.324,M,,*79
2017-12-31 17:00:29 1514757629.343590: $GPRMC,220030,A,3946.9584,N,08404.9855,W,0.0000,0.000,311217,,*3A
2017-12-31 17:00:29 1514757629.343651: $GPGSA,A,3,22,23,25,3,16,31,14,32,26,135,,,1.7,1.0,1.3*30
2017-12-31 17:00:30 1514757630.672082: $GPGSV,3,1,11,22,45,243,40,23,26,307,42,25,03,037,21,03,46,274,41*7A
2017-12-31 17:00:30 1514757630.672275: $GPGSV,3,2,11,16,44,190,44,29,14,057,00,31,51,049,50,14,42,112,39*7E
2017-12-31 17:00:30 1514757630.672343: $GPGSV,3,3,11,32,20,121,44,26,73,148,46,135,22,240,42*70
2017-12-31 17:00:30 1514757630.785614: $GPZDA,220031.00,31,12,2017,00,00*61
2017-12-31 17:00:30 1514757630.785764: $GPGGA,220031,3946.9584,N,08404.9855,W,2,10,1.00,302.98,M,-33.324,M,,*78
2017-12-31 17:00:30 1514757630.785829: $GPRMC,220031,A,3946.9584,N,08404.9855,W,0.0000,0.000,311217,,*3B
2017-12-31 17:00:30 1514757630.785890: $GPGSA,A,3,22,23,25,3,16,31,14,32,26,135,,,1.7,1.0,1.3*30
2017-12-31 17:00:31 1514757631.345275: $GPZDA,220032.00,31,12,2017,00,00*62
2017-12-31 17:00:31 1514757631.345445: $GPGGA,220032,3946.9584,N,08404.9855,W,2,10,1.00,302.98,M,-33.324,M,,*7B
2017-12-31 17:00:31 1514757631.345512: $GPRMC,220032,A,3946.9584,N,08404.9855,W,0.0000,0.000,311217,,*38
2017-12-31 17:00:31 1514757631.345573: $GPGSA,A,3,22,23,25,3,16,31,14,32,26,135,,,1.7,1.0,1.3*30
2017-12-31 17:00:32 1514757632.344875: $GPZDA,220033.00,31,12,2017,00,00*63
2017-12-31 17:00:32 1514757632.345087: $GPGGA,220033,3946.9584,N,08404.9855,W,2,10,1.00,302.98,M,-33.324,M,,*7A
2017-12-31 17:00:32 1514757632.345156: $GPRMC,220033,A,3946.9584,N,08404.9855,W,0.0000,0.000,311217,,*39
2017-12-31 17:00:32 1514757632.345217: $GPGSA,A,3,22,23,25,3,16,31,14,32,26,135,,,1.7,1.0,1.3*30
2017-12-31 17:00:33 1514757633.695347: $GPGSV,3,1,11,22,45,243,40,23,26,307,42,25,03,037,21,03,46,274,40*7B
2017-12-31 17:00:33 1514757633.695497: $GPGSV,3,2,11,16,44,190,44,29,14,057,00,31,51,049,51,14,42,112,39*7F
2017-12-31 17:00:33 1514757633.695562: $GPGSV,3,3,11,32,20,121,43,26,73,148,46,135,22,240,42*77
2017-12-31 17:00:33 1514757633.808677: $GPZDA,220034.00,31,12,2017,00,00*64
2017-12-31 17:00:33 1514757633.808802: $GPGGA,220034,3946.9584,N,08404.9855,W,2,10,1.00,302.98,M,-33.324,M,,*7D
2017-12-31 17:00:33 1514757633.808866: $GPRMC,220034,A,3946.9584,N,08404.9855,W,0.0000,0.000,311217,,*3E
2017-12-31 17:00:33 1514757633.809002: $GPGSA,A,3,22,23,25,3,16,31,14,32,26,135,,,1.7,1.0,1.3*30
2017-12-31 17:00:34 1514757634.344621: $GPZDA,220035.00,31,12,2017,00,00*65
2017-12-31 17:00:34 1514757634.344777: $GPGGA,220035,3946.9584,N,08404.9855,W,2,10,1.00,302.98,M,-33.324,M,,*7C
2017-12-31 17:00:34 1514757634.344843: $GPRMC,220035,A,3946.9584,N,08404.9855,W,0.0000,0.000,311217,,*3F
2017-12-31 17:00:34 1514757634.344929: $GPGSA,A,3,22,23,25,3,16,31,14,32,26,135,,,1.7,1.0,1.3*30
2017-12-31 17:00:35 1514757635.344973: $GPZDA,220036.00,31,12,2017,00,00*66
2017-12-31 17:00:35 1514757635.345154: $GPGGA,220036,3946.9584,N,08404.9855,W,2,10,1.00,302.98,M,-33.324,M,,*7F
2017-12-31 17:00:35 1514757635.345221: $GPRMC,220036,A,3946.9584,N,08404.9855,W,0.0000,0.000,311217,,*3C
2017-12-31 17:00:35 1514757635.345281: $GPGSA,A,3,22,23,25,3,16,31,14,32,26,135,,,1.7,1.0,1.3*30
