2017-11-16 14:19:52 1510859992.879039: {"class":"VERSION","release":"3.17","rev":"3.17","proto_major":3,"proto_minor":12}
2017-11-16 14:19:52 1510859992.879525: {"class":"DEVICES","devices":[{"class":"DEVICE","path":"/dev/ttyUSB0","driver":"SiRF","subtype":"9\u0006GSD4e_4.1.2-P1_RPATCH.05-F-GPS-4R-1510281 11/03/2015 307","activated":"2017-11-16T19:19:52.675Z","flags":1,"native":1,"bps":4800,"parity":"N","stopbits":1,"cycle":1.00}]}
2017-11-16 14:19:52 1510859992.879741: {"class":"WATCH","enable":true,"json":false,"nmea":true,"raw":0,"scaled":false,"timing":false,"split24":false,"pps":false}
2017-11-16 14:19:53 1510859993.503120: $GPZDA,191952.00,16,11,2017,00,00*62
2017-11-16 14:19:53 1510859993.503304: $GPGGA,191952,3946.9562,N,08404.9858,W,2,12,0.80,304.75,M,-33.324,M,,*76
2017-11-16 14:19:53 1510859993.503366: $GPRMC,191952,A,3946.9562,N,08404.9858,W,0.0000,0.000,161117,,*3D
2017-11-16 14:19:53 1510859993.503422: $GPGSA,A,3,8,10,13,15,18,21,20,24,27,32,14,138,1.6,0.8,1.3*35
2017-11-16 14:19:54 1510859994.839621: $GPGSV,3,1,12,08,07,319,29,10,43,303,46,13,06,049,18,15,35,052,50*73
2017-11-16 14:19:54 1510859994.839806: $GPGSV,3,2,12,18,72,342,46,21,61,189,46,20,31,097,46,24,52,106,48*70
2017-11-16 14:19:54 1510859994.839868: $GPGSV,3,3,12,27,19,286,40,32,22,240,46,14,06,234,27,138,38,213,44*48
2017-11-16 14:19:54 1510859994.953010: $GPZDA,191953.00,16,11,2017,00,00*63
2017-11-16 14:19:54 1510859994.953178: $GPGGA,191953,3946.9562,N,08404.9858,W,2,12,0.80,304.75,M,-33.324,M,,*77
2017-11-16 14:19:54 1510859994.953239: $GPRMC,191953,A,3946.9562,N,08404.9858,W,0.0000,0.000,161117,,*3C
2017-11-16 14:19:54 1510859994.953296: $GPGSA,A,3,8,10,13,15,18,21,20,24,27,32,14,138,1.6,0.8,1.3*35
2017-11-16 14:19:55 1510859995.502540: $GPZDA,191954.00,16,11,2017,00,00*64
2017-11-16 14:19:55 1510859995.502707: $GPGGA,191954,3946.9562,N,08404.9858,W,2,12,0.80,304.75,M,-33.324,M,,*70
2017-11-16 14:19:55 1510859995.502769: $GPRMC,191954,A,3946.9562,N,08404.9858,W,0.0000,0.000,161117,,*3B
2017-11-16 14:19:55 1510859995.502827: $GPGSA,A,3,8,10,13,15,18,21,20,24,27,32,14,138,1.6,0.8,1.3*35
2017-11-16 14:19:56 1510859996.497122: $GPZDA,191955.00,16,11,2017,00,00*65
2017-11-16 14:19:56 1510859996.497284: $GPGGA,191955,3946.9562,N,08404.9858,W,2,12,0.80,304.75,M,-33.324,M,,*71
2017-11-16 14:19:56 1510859996.497344: $GPRMC,191955,A,3946.9562,N,08404.9858,W,0.0000,0.000,161117,,*3A
2017-11-16 14:19:56 1510859996.497401: $GPGSA,A,3,8,10,13,15,18,21,20,24,27,32,14,138,1.6,0.8,1.3*35
2017-11-16 14:19:57 1510859997.870355: $GPGSV,3,1,12,08,07,319,23,10,43,303,46,13,06,049,18,15,35,052,49*71
2017-11-16 14:19:57 1510859997.870526: $GPGSV,3,2,12,18,72,342,46,21,61,189,46,20,31,097,45,24,52,106,48*73
2017-11-16 14:19:57 1510859997.870588: $GPGSV,3,3,12,27,19,286,40,32,22,240,46,14,06,234,27,138,38,213,44*48
2017-11-16 14:19:57 1510859997.983597: $GPZDA,191956.00,16,11,2017,00,00*66
2017-11-16 14:19:57 1510859997.983769: $GPGGA,191956,3946.9562,N,08404.9858,W,2,12,0.80,304.75,M,-33.324,M,,*72
2017-11-16 14:19:57 1510859997.983833: $GPRMC,191956,A,3946.9562,N,08404.9858,W,0.0000,0.000,161117,,*39
2017-11-16 14:19:57 1510859997.983889: $GPGSA,A,3,8,10,13,15,18,21,20,24,27,32,14,138,1.6,0.8,1.3*35
2017-11-16 14:19:58 1510859998.502007: $GPZDA,191957.00,16,11,2017,00,00*67
2017-11-16 14:19:58 1510859998.502161: $GPGGA,191957,3946.9562,N,08404.9858,W,2,12,0.80,304.75,M,-33.324,M,,*73
2017-11-16 14:19:58 1510859998.502223: $GPRMC,191957,A,3946.9562,N,08404.9858,W,0.0000,0.000,161117,,*38
2017-11-16 14:19:58 1510859998.502278: $GPGSA,A,3,8,10,13,15,18,21,20,24,27,32,14,138,1.6,0.8,1.3*35
2017-11-16 14:19:59 1510859999.533610: $GPZDA,191958.00,16,11,2017,00,00*68
2017-11-16 14:19:59 1510859999.533775: $GPGGA,191958,3946.9562,N,08404.9858,W,2,12,0.80,304.75,M,-33.324,M,,*7C
2017-11-16 14:19:59 1510859999.533837: $GPRMC,191958,A,3946.9562,N,08404.9858,W,0.0000,0.000,161117,,*37
2017-11-16 14:19:59 1510859999.533892: $GPGSA,A,3,8,10,13,15,18,21,20,24,27,32,14,138,1.6,0.8,1.3*35
2017-11-16 14:20:00 1510860000.840717: $GPGSV,3,1,12,08,07,319,25,10,43,303,46,13,06,049,19,15,35,052,50*7E
2017-11-16 14:20:00 1510860000.840913: $GPGSV,3,2,12,18,72,342,46,21,61,189,46,20,31,097,45,24,52,106,48*73
2017-11-16 14:20:00 1510860000.840973: $GPGSV,3,3,12,27,19,286,40,32,22,240,46,14,06,234,27,138,38,213,44*48
2017-11-16 14:20:00 1510860000.954495: $GPZDA,191959.00,16,11,2017,00,00*69
2017-11-16 14:20:00 1510860000.954668: $GPGGA,191959,3946.9562,N,08404.9858,W,2,12,0.80,304.75,M,-33.324,M,,*7D
2017-11-16 14:20:00 1510860000.954730: $GPRMC,191959,A,3946.9562,N,08404.9858,W,0.0000,0.000,161117,,*36
2017-11-16 14:20:00 1510860000.954790: $GPGSA,A,3,8,10,13,15,18,21,20,24,27,32,14,138,1.6,0.8,1.3*35
2017-11-16 14:20:01 1510860001.535183: $GPZDA,192000.00,16,11,2017,00,00*6F
2017-11-16 14:20:01 1510860001.535341: $GPGGA,192000,3946.9562,N,08404.9858,W,2,12,0.80,304.75,M,-33.324,M,,*7B
2017-11-16 14:20:01 1510860001.535402: $GPRMC,192000,A,3946.9562,N,08404.9858,W,0.0000,0.000,161117,,*30
2017-11-16 14:20:01 1510860001.535458: $GPGSA,A,3,8,10,13,15,18,21,20,24,27,32,14,138,1.6,0.8,1.3*35
2017-11-16 14:20:02 1510860002.497249: $GPZDA,192001.00,16,11,2017,00,00*6E
2017-11-16 14:20:03 1510860003.114961: $GPGGA,192001,3946.9565,N,08404.9857,W,2,12,0.80,303.99,M,-33.324,M,,*77
2017-11-16 14:20:03 1510860003.115102: $GPRMC,192001,A,3946.9565,N,08404.9857,W,0.0000,0.000,161117,,*39
2017-11-16 14:20:03 1510860003.115162: $GPGSA,A,3,8,10,13,15,18,21,20,24,27,32,14,138,1.6,0.8,1.3*35
2017-11-16 14:20:03 1510860003.870180: $GPGSV,3,1,12,08,07,319,34,10,43,303,46,13,06,049,19,15,35,052,50*7E
2017-11-16 14:20:03 1510860003.870390: $GPGSV,3,2,12,18,72,342,47,21,61,189,46,20,31,097,46,24,52,106,48*71
2017-11-16 14:20:03 1510860003.870452: $GPGSV,3,3,12,27,19,286,40,32,22,240,45,14,06,234,28,138,38,213,44*44
2017-11-16 14:20:03 1510860003.983532: $GPZDA,192002.00,16,11,2017,00,00*6D
2017-11-16 14:20:03 1510860003.983703: $GPGGA,192002,3946.9565,N,08404.9857,W,2,12,0.80,303.99,M,-33.324,M,,*74
2017-11-16 14:20:03 1510860003.983766: $GPRMC,192002,A,3946.9565,N,08404.9857,W,0.0000,0.000,161117,,*3A
2017-11-16 14:20:03 1510860003.983822: $GPGSA,A,3,8,10,13,15,18,21,20,24,27,32,14,138,1.6,0.8,1.3*35
2017-11-16 14:20:04 1510860004.608838: $GPZDA,192003.00,16,11,2017,00,00*6C
2017-11-16 14:20:04 1510860004.609002: $GPGGA,192003,3946.9565,N,08404.9857,W,2,12,0.80,303.99,M,-33.324,M,,*75
2017-11-16 14:20:04 1510860004.609062: $GPRMC,192003,A,3946.9565,N,08404.9857,W,0.0000,0.000,161117,,*3B
2017-11-16 14:20:04 1510860004.609118: $GPGSA,A,3,8,10,13,15,18,21,20,24,27,32,14,138,1.6,0.8,1.3*35
2017-11-16 14:20:05 1510860005.503407: $GPZDA,192004.00,16,11,2017,00,00*6B
2017-11-16 14:20:05 1510860005.503569: $GPGGA,192004,3946.9565,N,08404.9857,W,2,12,0.80,303.99,M,-33.324,M,,*72
2017-11-16 14:20:05 1510860005.503629: $GPRMC,192004,A,3946.9565,N,08404.9857,W,0.0000,0.000,161117,,*3C
2017-11-16 14:20:05 1510860005.503685: $GPGSA,A,3,8,10,13,15,18,21,20,24,27,32,14,138,1.6,0.8,1.3*35
2017-11-16 14:20:06 1510860006.871822: $GPGSV,3,1,12,08,07,319,34,10,43,303,46,13,06,049,19,15,35,052,50*7E
2017-11-16 14:20:06 1510860006.872003: $GPGSV,3,2,12,18,72,342,46,21,61,189,46,20,31,097,46,24,52,106,48*70
2017-11-16 14:20:06 1510860006.872063: $GPGSV,3,3,12,27,19,286,40,32,22,240,46,14,06,234,28,138,38,213,44*47
2017-11-16 14:20:06 1510860006.985055: $GPZDA,192005.00,16,11,2017,00,00*6A
2017-11-16 14:20:06 1510860006.985218: $GPGGA,192005,3946.9565,N,08404.9857,W,2,12,0.80,303.99,M,-33.324,M,,*73
2017-11-16 14:20:06 1510860006.985278: $GPRMC,192005,A,3946.9565,N,08404.9857,W,0.0000,0.000,161117,,*3D
2017-11-16 14:20:06 1510860006.985334: $GPGSA,A,3,8,10,13,15,18,21,20,24,27,32,14,138,1.6,0.8,1.3*35
2017-11-16 14:20:07 1510860007.528751: $GPZDA,192006.00,16,11,2017,00,00*69
2017-11-16 14:20:07 1510860007.528969: $GPGGA,192006,3946.9565,N,08404.9857,W,2,12,0.80,303.99,M,-33.324,M,,*70
2017-11-16 14:20:07 1510860007.529051: $GPRMC,192006,A,3946.9565,N,08404.9857,W,0.0000,0.000,161117,,*3E
2017-11-16 14:20:07 1510860007.529110: $GPGSA,A,3,8,10,13,15,18,21,20,24,27,32,14,138,1.6,0.8,1.3*35
