2017-12-01 15:56:19 1512161779.407246: {"class":"VERSION","release":"3.16","rev":"3.16-4","proto_major":3,"proto_minor":11}
2017-12-01 15:56:19 1512161779.407696: {"class":"DEVICES","devices":[{"class":"DEVICE","path":"/dev/ttyUSB0","driver":"SiRF","subtype":"9\u0006GSD4e_4.1.2-P1_RPATCH.05-F-GPS-4R-1510281 11/03/2015 307","activated":"2017-12-01T20:56:19.401Z","flags":1,"native":1,"bps":4800,"parity":"N","stopbits":1,"cycle":1.00}]}
2017-12-01 15:56:19 1512161779.407812: {"class":"WATCH","enable":true,"json":false,"nmea":true,"raw":0,"scaled":false,"timing":false,"split24":false,"pps":false}
2017-12-01 15:56:20 1512161780.739722: $GPGSV,3,1,12,01,16,315,34,10,64,138,48,11,11,297,28,12,25,066,41*7C
2017-12-01 15:56:20 1512161780.739905: $GPGSV,3,2,12,14,58,298,44,18,33,138,46,25,33,109,46,31,40,214,48*71
2017-12-01 15:56:20 1512161780.739972: $GPGSV,3,3,12,32,69,343,48,22,06,312,40,24,10,046,31,138,38,213,46*4A
2017-12-01 15:56:20 1512161780.853103: $GPZDA,205621.00,01,12,2017,00,00*62
2017-12-01 15:56:20 1512161780.853254: $GPGGA,205621,3946.9570,N,08404.9857,W,2,12,0.80,304.63,M,-33.324,M,,*78
2017-12-01 15:56:20 1512161780.853320: $GPRMC,205621,A,3946.9570,N,08404.9857,W,0.0000,0.000,011217,,*31
2017-12-01 15:56:20 1512161780.853403: $GPGSA,A,3,1,10,11,12,14,18,25,31,32,22,24,138,2.0,0.8,1.5*3B
2017-12-01 15:56:21 1512161781.404382: $GPZDA,205622.00,01,12,2017,00,00*61
2017-12-01 15:56:21 1512161781.404578: $GPGGA,205622,3946.9570,N,08404.9857,W,2,12,0.80,304.63,M,-33.324,M,,*7B
2017-12-01 15:56:21 1512161781.404647: $GPRMC,205622,A,3946.9570,N,08404.9857,W,0.0000,0.000,011217,,*32
2017-12-01 15:56:21 1512161781.404708: $GPGSA,A,3,1,10,11,12,14,18,25,31,32,22,24,138,2.0,0.8,1.5*3B
2017-12-01 15:56:22 1512161782.402624: $GPZDA,205623.00,01,12,2017,00,00*60
2017-12-01 15:56:22 1512161782.402792: $GPGGA,205623,3946.9570,N,08404.9857,W,2,12,0.80,304.63,M,-33.324,M,,*7A
2017-12-01 15:56:22 1512161782.402858: $GPRMC,205623,A,3946.9570,N,08404.9857,W,0.0000,0.000,011217,,*33
2017-12-01 15:56:22 1512161782.402919: $GPGSA,A,3,1,10,11,12,14,18,25,31,32,22,24,138,2.0,0.8,1.5*3B
2017-12-01 15:56:23 1512161783.755587: $GPGSV,3,1,12,01,16,315,34,10,64,138,48,11,11,297,25,12,25,066,40*70
2017-12-01 15:56:23 1512161783.755768: $GPGSV,3,2,12,14,58,298,43,18,33,138,46,25,33,109,46,31,40,214,48*76
2017-12-01 15:56:23 1512161783.755835: $GPGSV,3,3,12,32,69,343,48,22,06,312,39,24,10,046,31,138,38,213,45*47
2017-12-01 15:56:23 1512161783.868977: $GPZDA,205624.00,01,12,2017,00,00*67
2017-12-01 15:56:23 1512161783.869152: $GPGGA,205624,3946.9570,N,08404.9857,W,2,12,0.80,304.63,M,-33.324,M,,*7D
2017-12-01 15:56:23 1512161783.869219: $GPRMC,205624,A,3946.9570,N,08404.9857,W,0.0000,0.000,011217,,*34
2017-12-01 15:56:23 1512161783.869280: $GPGSA,A,3,1,10,11,12,14,18,25,31,32,22,24,138,2.0,0.8,1.5*3B
2017-12-01 15:56:24 1512161784.421142: $GPZDA,205625.00,01,12,2017,00,00*66
2017-12-01 15:56:24 1512161784.421318: $GPGGA,205625,3946.9570,N,08404.9857,W,2,12,0.80,304.63,M,-33.324,M,,*7C
2017-12-01 15:56:24 1512161784.421466: $GPRMC,205625,A,3946.9570,N,08404.9857,W,0.0000,0.000,011217,,*35
2017-12-01 15:56:24 1512161784.421548: $GPGSA,A,3,1,10,11,12,14,18,25,31,32,22,24,138,2.0,0.8,1.5*3B
2017-12-01 15:56:25 1512161785.421943: $GPZDA,205626.00,01,12,2017,00,00*65
2017-12-01 15:56:25 1512161785.422129: $GPGGA,205626,3946.9570,N,08404.9857,W,2,12,0.80,304.63,M,-33.324,M,,*7F
2017-12-01 15:56:25 1512161785.422218: $GPRMC,205626,A,3946.9570,N,08404.9857,W,0.0000,0.000,011217,,*36
2017-12-01 15:56:25 1512161785.422282: $GPGSA,A,3,1,10,11,12,14,18,25,31,32,22,24,138,2.0,0.8,1.5*3B
2017-12-01 15:56:26 1512161786.754928: $GPGSV,3,1,12,01,16,315,35,10,64,138,47,11,11,297,21,12,25,066,40*7A
2017-12-01 15:56:26 1512161786.755107: $GPGSV,3,2,12,14,58,298,43,18,33,138,46,25,33,109,45,31,40,214,48*75
2017-12-01 15:56:26 1512161786.755173: $GPGSV,3,3,12,32,69,343,47,22,06,312,40,24,10,046,30,138,38,213,46*44
2017-12-01 15:56:26 1512161786.868625: $GPZDA,205627.00,01,12,2017,00,00*64
2017-12-01 15:56:26 1512161786.868777: $GPGGA,205627,3946.9570,N,08404.9857,W,2,12,0.80,304.63,M,-33.324,M,,*7E
2017-12-01 15:56:26 1512161786.868893: $GPRMC,205627,A,3946.9570,N,08404.9857,W,0.0000,0.000,011217,,*37
2017-12-01 15:56:26 1512161786.868956: $GPGSA,A,3,1,10,11,12,14,18,25,31,32,22,24,138,2.0,0.8,1.5*3B
2017-12-01 15:56:27 1512161787.422170: $GPZDA,205628.00,01,12,2017,00,00*6B
2017-12-01 15:56:27 1512161787.422360: $GPGGA,205628,3946.9570,N,08404.9857,W,2,12,0.80,304.63,M,-33.324,M,,*71
2017-12-01 15:56:27 1512161787.422448: $GPRMC,205628,A,3946.9570,N,08404.9857,W,0.0000,0.000,011217,,*38
2017-12-01 15:56:27 1512161787.422528: $GPGSA,A,3,1,10,11,12,14,18,25,31,32,22,24,138,2.0,0.8,1.5*3B
2017-12-01 15:56:28 1512161788.405111: $GPZDA,205629.00,01,12,2017,00,00*6A
2017-12-01 15:56:28 1512161788.405285: $GPGGA,205629,3946.9570,N,08404.9857,W,2,12,0.80,304.63,M,-33.324,M,,*70
2017-12-01 15:56:28 1512161788.405374: $GPRMC,205629,A,3946.9570,N,08404.9857,W,0.0000,0.000,011217,,*39
2017-12-01 15:56:28 1512161788.405437: $GPGSA,A,3,1,10,11,12,14,18,25,31,32,22,24,138,2.0,0.8,1.5*3B
2017-12-01 15:56:29 1512161789.739438: $GPGSV,3,1,12,01,16,315,35,10,64,138,47,11,11,297,12,12,25,066,40*7A
2017-12-01 15:56:29 1512161789.739642: $GPGSV,3,2,12,14,58,298,43,18,33,138,46,25,33,109,45,31,40,214,48*75
2017-12-01 15:56:29 1512161789.739708: $GPGSV,3,3,12,32,69,343,47,22,06,312,40,24,10,046,30,138,38,213,45*47
2017-12-01 15:56:29 1512161789.852864: $GPZDA,205630.00,01,12,2017,00,00*62
2017-12-01 15:56:29 1512161789.853035: $GPGGA,205630,3946.9570,N,08404.9857,W,2,12,0.80,304.63,M,-33.324,M,,*78
2017-12-01 15:56:29 1512161789.853102: $GPRMC,205630,A,3946.9570,N,08404.9857,W,0.0000,0.000,011217,,*31
2017-12-01 15:56:29 1512161789.853163: $GPGSA,A,3,1,10,11,12,14,18,25,31,32,22,24,138,2.0,0.8,1.5*3B
2017-12-01 15:56:30 1512161790.478637: $GPZDA,205631.00,01,12,2017,00,00*63
2017-12-01 15:56:30 1512161790.478870: $GPGGA,205631,3946.9570,N,08404.9857,W,2,12,0.80,304.63,M,-33.324,M,,*79
2017-12-01 15:56:30 1512161790.478959: $GPRMC,205631,A,3946.9570,N,08404.9857,W,0.0000,0.000,011217,,*30
2017-12-01 15:56:30 1512161790.479022: $GPGSA,A,3,1,10,11,12,14,18,25,31,32,22,24,138,2.0,0.8,1.5*3B
2017-12-01 15:56:31 1512161791.421783: $GPZDA,205632.00,01,12,2017,00,00*60
2017-12-01 15:56:31 1512161791.421969: $GPGGA,205632,3946.9570,N,08404.9857,W,2,12,0.80,304.63,M,-33.324,M,,*7A
2017-12-01 15:56:31 1512161791.422037: $GPRMC,205632,A,3946.9570,N,08404.9857,W,0.0000,0.000,011217,,*33
2017-12-01 15:56:31 1512161791.422098: $GPGSA,A,3,1,10,11,12,14,18,25,31,32,22,24,138,2.0,0.8,1.5*3B
2017-12-01 15:56:32 1512161792.739810: $GPGSV,3,1,12,01,16,315,36,10,64,138,48,11,11,297,26,12,25,066,40*71
2017-12-01 15:56:32 1512161792.739989: $GPGSV,3,2,12,14,58,298,43,18,33,138,46,25,33,109,45,31,40,214,48*75
2017-12-01 15:56:32 1512161792.740055: $GPGSV,3,3,12,32,69,343,47,22,06,312,40,24,10,046,30,138,38,213,46*44
2017-12-01 15:56:32 1512161792.853556: $GPZDA,205633.00,01,12,2017,00,00*61
2017-12-01 15:56:32 1512161792.853726: $GPGGA,205633,3946.9570,N,08404.9857,W,2,12,0.80,304.63,M,-33.324,M,,*7B
2017-12-01 15:56:32 1512161792.853792: $GPRMC,205633,A,3946.9570,N,08404.9857,W,0.0000,0.000,011217,,*32
2017-12-01 15:56:32 1512161792.853854: $GPGSA,A,3,1,10,11,12,14,18,25,31,32,22,24,138,2.0,0.8,1.5*3B
2017-12-01 15:56:33 1512161793.420709: $GPZDA,205634.00,01,12,2017,00,00*66
2017-12-01 15:56:33 1512161793.420884: $GPGGA,205634,3946.9570,N,08404.9857,W,2,12,0.80,304.63,M,-33.324,M,,*7C
2017-12-01 15:56:33 1512161793.420952: $GPRMC,205634,A,3946.9570,N,08404.9857,W,0.0000,0.000,011217,,*35
2017-12-01 15:56:33 1512161793.421013: $GPGSA,A,3,1,10,11,12,14,18,25,31,32,22,24,138,2.0,0.8,1.5*3B
2017-12-01 15:56:34 1512161794.419944: $GPZDA,205635.00,01,12,2017,00,00*67
2017-12-01 15:56:34 1512161794.420124: $GPGGA,205635,3946.9570,N,08404.9857,W,2,12,0.80,304.63,M,-33.324,M,,*7D
2017-12-01 15:56:34 1512161794.420190: $GPRMC,205635,A,3946.9570,N,08404.9857,W,0.0000,0.000,011217,,*34
2017-12-01 15:56:34 1512161794.420251: $GPGSA,A,3,1,10,11,12,14,18,25,31,32,22,24,138,2.0,0.8,1.5*3B
2017-12-01 15:56:35 1512161795.756540: $GPGSV,3,1,12,01,16,315,37,10,64,138,48,11,11,297,04,12,25,066,39*7E
2017-12-01 15:56:35 1512161795.756724: $GPGSV,3,2,12,14,58,298,43,18,33,138,46,25,33,109,45,31,40,214,49*74
2017-12-01 15:56:35 1512161795.756806: $GPGSV,3,3,12,32,69,343,47,22,06,312,42,24,10,046,30,138,38,213,46*46
2017-12-01 15:56:35 1512161795.869973: $GPZDA,205636.00,01,12,2017,00,00*64
2017-12-01 15:56:35 1512161795.870171: $GPGGA,205636,3946.9570,N,08404.9857,W,2,11,0.80,304.63,M,-33.324,M,,*7D
2017-12-01 15:56:35 1512161795.870244: $GPRMC,205636,A,3946.9570,N,08404.9857,W,0.0000,0.000,011217,,*37
2017-12-01 15:56:35 1512161795.870309: $GPGSA,A,3,1,10,12,14,18,25,31,32,22,24,138,,2.0,0.8,1.5*3B
2017-12-01 15:56:36 1512161796.399583: $GPZDA,205637.00,01,12,2017,00,00*65
2017-12-01 15:56:36 1512161796.399777: $GPGGA,205637,3946.9570,N,08404.9857,W,2,11,0.80,304.63,M,-33.324,M,,*7C
2017-12-01 15:56:36 1512161796.399849: $GPRMC,205637,A,3946.9570,N,08404.9857,W,0.0000,0.000,011217,,*36
2017-12-01 15:56:36 1512161796.399913: $GPGSA,A,3,1,10,12,14,18,25,31,32,22,24,138,,2.0,0.8,1.5*3B
2017-12-01 15:56:37 1512161797.421842: $GPZDA,205638.00,01,12,2017,00,00*6A
2017-12-01 15:56:37 1512161797.422021: $GPGGA,205638,3946.9570,N,08404.9857,W,2,11,0.80,304.63,M,-33.324,M,,*73
2017-12-01 15:56:37 1512161797.422090: $GPRMC,205638,A,3946.9570,N,08404.9857,W,0.0000,0.000,011217,,*39
2017-12-01 15:56:37 1512161797.422155: $GPGSA,A,3,1,10,12,14,18,25,31,32,22,24,138,,2.0,0.8,1.5*3B
2017-12-01 15:56:38 1512161798.754910: $GPGSV,3,1,12,01,16,315,38,10,64,138,48,11,11,297,28,12,25,066,39*7F
2017-12-01 15:56:38 1512161798.755095: $GPGSV,3,2,12,14,58,298,44,18,33,138,46,25,33,109,45,31,40,214,48*72
2017-12-01 15:56:38 1512161798.755163: $GPGSV,3,3,12,32,69,343,47,22,06,312,42,24,10,046,30,138,38,213,45*45
2017-12-01 15:56:38 1512161798.870021: $GPZDA,205639.00,01,12,2017,00,00*6B
2017-12-01 15:56:38 1512161798.870352: $GPGGA,205639,3946.9570,N,08404.9857,W,2,12,0.80,304.63,M,-33.324,M,,*71
2017-12-01 15:56:38 1512161798.870486: $GPRMC,205639,A,3946.9570,N,08404.9857,W,0.0000,0.000,011217,,*38
2017-12-01 15:56:38 1512161798.870640: $GPGSA,A,3,1,10,11,12,14,18,25,31,32,22,24,138,2.0,0.8,1.5*3B
