2017-11-16 15:26:29 1510863989.925802: {"class":"VERSION","release":"3.17","rev":"3.17","proto_major":3,"proto_minor":12}
2017-11-16 15:26:29 1510863989.926319: {"class":"DEVICES","devices":[{"class":"DEVICE","path":"/dev/ttyUSB0","driver":"SiRF","subtype":"9\u0006GSD4e_4.1.2-P1_RPATCH.05-F-GPS-4R-1510281 11/03/2015 307","activated":"2017-11-16T20:26:29.512Z","flags":1,"native":1,"bps":4800,"parity":"N","stopbits":1,"cycle":1.00}]}
2017-11-16 15:26:29 1510863989.926438: {"class":"WATCH","enable":true,"json":false,"nmea":true,"raw":0,"scaled":false,"timing":false,"split24":false,"pps":false}
2017-11-16 15:26:30 1510863990.366939: $GPZDA,202629.00,16,11,2017,00,00*68
2017-11-16 15:26:30 1510863990.367105: $GPGGA,202629,3946.9572,N,08404.9866,W,2,12,0.80,308.76,M,-33.324,M,,*7F
2017-11-16 15:26:30 1510863990.367168: $GPRMC,202629,A,3946.9572,N,08404.9866,W,0.0000,0.000,161117,,*3B
2017-11-16 15:26:30 1510863990.367224: $GPGSA,A,3,8,10,14,15,18,20,21,24,27,32,12,138,1.6,0.8,1.3*34
2017-11-16 15:26:31 1510863991.704723: $GPGSV,3,1,12,08,06,292,35,10,69,331,51,14,29,253,47,15,11,066,28*75
2017-11-16 15:26:31 1510863991.704911: $GPGSV,3,2,12,18,71,094,48,20,08,118,31,21,29,180,44,24,45,058,50*7B
2017-11-16 15:26:31 1510863991.704971: $GPGSV,3,3,12,27,06,259,28,32,46,265,48,12,09,106,23,138,38,213,44*4E
2017-11-16 15:26:31 1510863991.817998: $GPZDA,202630.00,16,11,2017,00,00*60
2017-11-16 15:26:31 1510863991.818159: $GPGGA,202630,3946.9572,N,08404.9866,W,2,12,0.80,308.76,M,-33.324,M,,*77
2017-11-16 15:26:31 1510863991.818218: $GPRMC,202630,A,3946.9572,N,08404.9866,W,0.0000,0.000,161117,,*33
2017-11-16 15:26:31 1510863991.818274: $GPGSA,A,3,8,10,14,15,18,20,21,24,27,32,12,138,1.6,0.8,1.3*34
2017-11-16 15:26:32 1510863992.385528: $GPZDA,202631.00,16,11,2017,00,00*61
2017-11-16 15:26:32 1510863992.385732: $GPGGA,202631,3946.9572,N,08404.9866,W,2,12,0.80,308.76,M,-33.324,M,,*76
2017-11-16 15:26:32 1510863992.385795: $GPRMC,202631,A,3946.9572,N,08404.9866,W,0.0000,0.000,161117,,*32
2017-11-16 15:26:32 1510863992.385851: $GPGSA,A,3,8,10,14,15,18,20,21,24,27,32,12,138,1.6,0.8,1.3*34
2017-11-16 15:26:33 1510863993.384972: $GPZDA,202632.00,16,11,2017,00,00*62
2017-11-16 15:26:33 1510863993.385164: $GPGGA,202632,3946.9572,N,08404.9866,W,2,12,0.80,308.76,M,-33.324,M,,*75
2017-11-16 15:26:33 1510863993.385227: $GPRMC,202632,A,3946.9572,N,08404.9866,W,0.0000,0.000,161117,,*31
2017-11-16 15:26:33 1510863993.385283: $GPGSA,A,3,8,10,14,15,18,20,21,24,27,32,12,138,1.6,0.8,1.3*34
2017-11-16 15:26:34 1510863994.703116: $GPGSV,3,1,12,08,06,292,35,10,69,331,51,14,29,253,46,15,11,066,28*74
2017-11-16 15:26:34 1510863994.774576: $GPGSV,3,2,12,18,71,094,48,20,08,118,30,21,29,180,44,24,45,058,50*7A
2017-11-16 15:26:34 1510863994.774742: $GPGSV,3,3,12,27,06,259,27,32,46,265,48,12,09,106,18,138,38,213,44*49
2017-11-16 15:26:34 1510863994.816309: $GPZDA,202633.00,16,11,2017,00,00*63
2017-11-16 15:26:34 1510863994.816427: $GPGGA,202633,3946.9572,N,08404.9866,W,2,12,0.80,308.76,M,-33.324,M,,*74
2017-11-16 15:26:34 1510863994.816488: $GPRMC,202633,A,3946.9572,N,08404.9866,W,0.0000,0.000,161117,,*30
2017-11-16 15:26:34 1510863994.816569: $GPGSA,A,3,8,10,14,15,18,20,21,24,27,32,12,138,1.6,0.8,1.3*34
2017-11-16 15:26:35 1510863995.367329: $GPZDA,202634.00,16,11,2017,00,00*64
2017-11-16 15:26:35 1510863995.367493: $GPGGA,202634,3946.9572,N,08404.9866,W,2,12,0.80,308.76,M,-33.324,M,,*73
2017-11-16 15:26:35 1510863995.367574: $GPRMC,202634,A,3946.9572,N,08404.9866,W,0.0000,0.000,161117,,*37
2017-11-16 15:26:35 1510863995.367631: $GPGSA,A,3,8,10,14,15,18,20,21,24,27,32,12,138,1.6,0.8,1.3*34
2017-11-16 15:26:36 1510863996.385085: $GPZDA,202635.00,16,11,2017,00,00*65
2017-11-16 15:26:36 1510863996.385269: $GPGGA,202635,3946.9572,N,08404.9866,W,2,12,0.80,308.76,M,-33.324,M,,*72
2017-11-16 15:26:36 1510863996.385330: $GPRMC,202635,A,3946.9572,N,08404.9866,W,0.0000,0.000,161117,,*36
2017-11-16 15:26:36 1510863996.385386: $GPGSA,A,3,8,10,14,15,18,20,21,24,27,32,12,138,1.6,0.8,1.3*34
2017-11-16 15:26:37 1510863997.704628: $GPGSV,3,1,12,08,06,292,35,10,69,331,51,14,29,253,46,15,11,066,29*75
2017-11-16 15:26:37 1510863997.704847: $GPGSV,3,2,12,18,71,094,48,20,08,118,30,21,29,180,44,24,45,058,50*7A
2017-11-16 15:26:37 1510863997.704911: $GPGSV,3,3,12,27,06,259,20,32,46,265,48,12,09,106,18,138,38,213,45*4F
2017-11-16 15:26:37 1510863997.817903: $GPZDA,202636.00,16,11,2017,00,00*66
2017-11-16 15:26:37 1510863997.818069: $GPGGA,202636,3946.9572,N,08404.9866,W,2,12,0.80,308.76,M,-33.324,M,,*71
2017-11-16 15:26:37 1510863997.818131: $GPRMC,202636,A,3946.9572,N,08404.9866,W,0.0000,0.000,161117,,*35
2017-11-16 15:26:37 1510863997.818188: $GPGSA,A,3,8,10,14,15,18,20,21,24,27,32,12,138,1.6,0.8,1.3*34
2017-11-16 15:26:38 1510863998.378746: $GPZDA,202637.00,16,11,2017,00,00*67
2017-11-16 15:26:38 1510863998.378927: $GPGGA,202637,3946.9572,N,08404.9866,W,2,12,0.80,308.76,M,-33.324,M,,*70
2017-11-16 15:26:38 1510863998.378992: $GPRMC,202637,A,3946.9572,N,08404.9866,W,0.0000,0.000,161117,,*34
2017-11-16 15:26:38 1510863998.379052: $GPGSA,A,3,8,10,14,15,18,20,21,24,27,32,12,138,1.6,0.8,1.3*34
2017-11-16 15:26:39 1510863999.362385: $GPZDA,202638.00,16,11,2017,00,00*68
2017-11-16 15:26:39 1510863999.362599: $GPGGA,202638,3946.9572,N,08404.9866,W,2,12,0.80,308.76,M,-33.324,M,,*7F
2017-11-16 15:26:39 1510863999.362664: $GPRMC,202638,A,3946.9572,N,08404.9866,W,0.0000,0.000,161117,,*3B
2017-11-16 15:26:39 1510863999.362724: $GPGSA,A,3,8,10,14,15,18,20,21,24,27,32,12,138,1.6,0.8,1.3*34
