2017-11-15 19:11:09 1510791069.552410: {"class":"VERSION","release":"3.17","rev":"3.17","proto_major":3,"proto_minor":12}
2017-11-15 19:11:09 1510791069.552882: {"class":"DEVICES","devices":[{"class":"DEVICE","path":"/dev/ttyUSB0","driver":"SiRF","subtype":"9\u0006GSD4e_4.1.2-P1_RPATCH.05-F-GPS-4R-1510281 11/03/2015 307","activated":"2017-11-16T00:11:09.232Z","flags":1,"native":1,"bps":4800,"parity":"N","stopbits":1,"cycle":1.00}]}
2017-11-15 19:11:09 1510791069.552998: {"class":"WATCH","enable":true,"json":false,"nmea":true,"raw":0,"scaled":false,"timing":false,"split24":false,"pps":false}
2017-11-15 19:11:09 1510791069.682203: $GPGSV,3,1,12,32,43,099,20,14,61,079,24,25,24,043,00,26,43,175,11*70
2017-11-15 19:11:09 1510791069.682392: $GPGSV,3,2,12,31,74,006,26,16,14,190,18,22,49,283,04,03,34,307,17*7D
2017-11-15 19:11:09 1510791069.682454: $GPGSV,3,3,12,01,10,259,00,29,07,079,00,10,05,159,00,120,07,103,00*49
2017-11-15 19:11:09 1510791069.795496: $GPZDA,001108.00,16,11,2017,00,00*6D
2017-11-15 19:11:09 1510791069.795715: $GPGGA,001108,3946.9628,N,08404.9401,W,1,06,1.60,304.12,M,-33.324,M,,*7C
2017-11-15 19:11:09 1510791069.795776: $GPRMC,001108,A,3946.9628,N,08404.9401,W,0.8011,299.090,161117,,*3C
2017-11-15 19:11:09 1510791069.795833: $GPGSA,A,3,32,14,26,31,16,3,,,,,,,3.4,1.6,2.9*0F
2017-11-15 19:11:10 1510791070.345163: $GPZDA,001109.00,16,11,2017,00,00*6C
2017-11-15 19:11:10 1510791070.345330: $GPGGA,001109,3946.9629,N,08404.9408,W,1,06,1.60,304.04,M,-33.324,M,,*72
2017-11-15 19:11:10 1510791070.345416: $GPRMC,001109,A,3946.9629,N,08404.9408,W,0.3155,309.994,161117,,*3A
2017-11-15 19:11:10 1510791070.345474: $GPGSA,A,3,32,14,26,31,16,3,,,,,,,3.4,1.6,2.9*0F
2017-11-15 19:11:11 1510791071.345572: $GPZDA,001110.00,16,11,2017,00,00*64
2017-11-15 19:11:11 1510791071.345737: $GPGGA,001110,3946.9633,N,08404.9408,W,1,06,1.60,304.68,M,-33.324,M,,*7B
2017-11-15 19:11:11 1510791071.345798: $GPRMC,001110,A,3946.9633,N,08404.9408,W,0.5774,27.515,161117,,*00
2017-11-15 19:11:11 1510791071.345852: $GPGSA,A,3,32,14,26,31,16,3,,,,,,,3.4,1.6,2.9*0F
2017-11-15 19:11:12 1510791072.681316: $GPGSV,3,1,12,32,43,099,20,14,61,079,24,22,49,283,00,26,43,175,12*71
2017-11-15 19:11:12 1510791072.681522: $GPGSV,3,2,12,31,74,006,26,16,14,190,19,25,24,043,00,03,34,307,17*7A
2017-11-15 19:11:12 1510791072.681583: $GPGSV,3,3,12,01,10,259,00,29,07,079,00,10,05,159,00,120,07,103,00*49
2017-11-15 19:11:12 1510791072.794673: $GPZDA,001111.00,16,11,2017,00,00*65
2017-11-15 19:11:12 1510791072.794834: $GPGGA,001111,3946.9633,N,08404.9408,W,1,06,1.60,304.68,M,-33.324,M,,*7A
2017-11-15 19:11:12 1510791072.794894: $GPRMC,001111,A,3946.9633,N,08404.9408,W,0.5306,114.353,161117,,*35
2017-11-15 19:11:12 1510791072.794950: $GPGSA,A,3,32,14,26,31,16,3,,,,,,,3.4,1.6,2.9*0F
2017-11-15 19:11:13 1510791073.346835: $GPZDA,001112.00,16,11,2017,00,00*66
2017-11-15 19:11:13 1510791073.347043: $GPGGA,001112,3946.9633,N,08404.9408,W,1,06,1.60,304.68,M,-33.324,M,,*79
2017-11-15 19:11:13 1510791073.347107: $GPRMC,001112,A,3946.9633,N,08404.9408,W,0.7238,140.710,161117,,*3A
2017-11-15 19:11:13 1510791073.347164: $GPGSA,A,3,32,14,26,31,16,3,,,,,,,3.4,1.6,2.9*0F
2017-11-15 19:11:14 1510791074.345147: $GPZDA,001113.00,16,11,2017,00,00*67
2017-11-15 19:11:14 1510791074.345314: $GPGGA,001113,3946.9633,N,08404.9415,W,1,06,1.60,304.60,M,-33.324,M,,*7C
2017-11-15 19:11:14 1510791074.345400: $GPRMC,001113,A,3946.9633,N,08404.9415,W,0.5857,158.291,161117,,*33
2017-11-15 19:11:14 1510791074.345458: $GPGSA,A,3,32,14,26,31,16,3,,,,,,,3.4,1.6,2.9*0F
2017-11-15 19:11:15 1510791075.664672: $GPGSV,3,1,12,32,43,099,21,14,61,079,24,23,05,297,12,26,43,175,12*7F
2017-11-15 19:11:15 1510791075.664845: $GPGSV,3,2,12,31,74,006,26,16,14,190,18,22,49,283,00,03,34,307,18*76
2017-11-15 19:11:15 1510791075.664905: $GPGSV,3,3,12,25,24,043,00,01,10,259,00,29,07,079,00,120,07,103,00*46
2017-11-15 19:11:15 1510791075.778054: $GPZDA,001114.00,16,11,2017,00,00*60
2017-11-15 19:11:15 1510791075.778214: $GPGGA,001114,3946.9633,N,08404.9415,W,1,06,1.60,304.60,M,-33.324,M,,*7B
2017-11-15 19:11:15 1510791075.778274: $GPRMC,001114,A,3946.9633,N,08404.9415,W,0.5912,129.173,161117,,*3D
2017-11-15 19:11:15 1510791075.778411: $GPGSA,A,3,32,14,26,31,16,3,,,,,,,3.4,1.6,2.9*0F
2017-11-15 19:11:16 1510791076.403600: $GPZDA,001115.00,16,11,2017,00,00*61
2017-11-15 19:11:16 1510791076.403766: $GPGGA,001115,3946.9633,N,08404.9415,W,1,06,1.60,304.60,M,-33.324,M,,*7A
2017-11-15 19:11:16 1510791076.403828: $GPRMC,001115,A,3946.9633,N,08404.9415,W,0.4179,148.779,161117,,*33
2017-11-15 19:11:16 1510791076.403885: $GPGSA,A,3,32,14,26,31,16,3,,,,,,,3.4,1.6,2.9*0F
2017-11-15 19:11:17 1510791077.328316: $GPZDA,001116.00,16,11,2017,00,00*62
2017-11-15 19:11:17 1510791077.328510: $GPGGA,001116,3946.9633,N,08404.9422,W,1,06,1.60,304.52,M,-33.324,M,,*7C
2017-11-15 19:11:17 1510791077.328571: $GPRMC,001116,A,3946.9633,N,08404.9422,W,0.4207,219.347,161117,,*30
2017-11-15 19:11:17 1510791077.328627: $GPGSA,A,3,32,14,26,31,16,3,,,,,,,3.4,1.6,2.9*0F
2017-11-15 19:11:18 1510791078.665050: $GPGSV,3,1,12,32,43,099,21,14,61,079,24,23,05,297,11,26,43,175,11*7F
2017-11-15 19:11:18 1510791078.665220: $GPGSV,3,2,12,31,74,006,26,16,14,190,18,22,49,283,00,03,34,307,17*79
2017-11-15 19:11:18 1510791078.665295: $GPGSV,3,3,12,25,24,043,00,01,10,259,00,29,07,079,00,120,07,103,00*46
2017-11-15 19:11:18 1510791078.778391: $GPZDA,001117.00,16,11,2017,00,00*63
2017-11-15 19:11:18 1510791078.778583: $GPGGA,001117,3946.9633,N,08404.9422,W,1,07,1.60,304.52,M,-33.324,M,,*7C
2017-11-15 19:11:18 1510791078.778645: $GPRMC,001117,A,3946.9633,N,08404.9422,W,0.2422,273.795,161117,,*31
2017-11-15 19:11:18 1510791078.778701: $GPGSA,A,3,32,14,23,26,31,16,3,,,,,,3.4,1.6,2.9*0E
2017-11-15 19:11:19 1510791079.345519: $GPZDA,001118.00,16,11,2017,00,00*6C
2017-11-15 19:11:19 1510791079.345678: $GPGGA,001118,3946.9634,N,08404.9429,W,1,07,1.60,304.44,M,-33.324,M,,*78
2017-11-15 19:11:19 1510791079.345756: $GPRMC,001118,A,3946.9634,N,08404.9429,W,0.3423,4.197,161117,,*34
2017-11-15 19:11:19 1510791079.345813: $GPGSA,A,3,32,14,23,26,31,16,3,,,,,,3.4,1.6,2.9*0E
