2018-01-11 20:22:15 1515720135.523711: {"class":"VERSION","release":"3.16","rev":"3.16-4","proto_major":3,"proto_minor":11}
2018-01-11 20:22:15 1515720135.524048: {"class":"DEVICES","devices":[{"class":"DEVICE","path":"/dev/ttyUSB0","driver":"SiRF","subtype":"9\u0006GSD4e_4.1.2-P1_RPATCH.05-F-GPS-4R-1510281 11/03/2015 307","activated":"2018-01-12T01:22:15.509Z","flags":1,"native":1,"bps":4800,"parity":"N","stopbits":1,"cycle":1.00}]}
2018-01-11 20:22:15 1515720135.524162: {"class":"WATCH","enable":true,"json":false,"nmea":true,"raw":0,"scaled":false,"timing":false,"split24":false,"pps":false}
2018-01-11 20:22:16 1515720136.728955: $GPGSV,3,1,11,07,60,316,40,08,75,112,45,09,44,223,42,11,24,166,44*78
2018-01-11 20:22:16 1515720136.729163: $GPGSV,3,2,11,16,19,063,38,23,24,189,49,27,43,049,50,28,17,262,32*72
2018-01-11 20:22:16 1515720136.729230: $GPGSV,3,3,11,30,33,307,36,01,02,162,21,138,38,213,45*7E
2018-01-11 20:22:16 1515720136.842585: $GPZDA,012217.00,12,01,2018,00,00*68
2018-01-11 20:22:16 1515720136.842716: $GPGGA,012217,3946.9594,N,08404.9835,W,2,11,0.80,294.46,M,-33.324,M,,*7F
2018-01-11 20:22:16 1515720136.842781: $GPRMC,012217,A,3946.9594,N,08404.9835,W,0.0000,0.000,120118,,*35
2018-01-11 20:22:16 1515720136.842841: $GPGSA,A,3,7,8,9,11,16,23,27,28,30,1,138,,4.0,0.8,3.5*0F
2018-01-11 20:22:17 1515720137.409578: $GPZDA,012218.00,12,01,2018,00,00*67
2018-01-11 20:22:17 1515720137.409745: $GPGGA,012218,3946.9594,N,08404.9835,W,2,11,0.80,294.46,M,-33.324,M,,*70
2018-01-11 20:22:17 1515720137.409814: $GPRMC,012218,A,3946.9594,N,08404.9835,W,0.0000,0.000,120118,,*3A
2018-01-11 20:22:17 1515720137.409875: $GPGSA,A,3,7,8,9,11,16,23,27,28,30,1,138,,4.0,0.8,3.5*0F
2018-01-11 20:22:18 1515720138.410694: $GPZDA,012219.00,12,01,2018,00,00*66
2018-01-11 20:22:18 1515720138.410855: $GPGGA,012219,3946.9595,N,08404.9842,W,2,11,0.80,294.38,M,-33.324,M,,*79
2018-01-11 20:22:18 1515720138.410923: $GPRMC,012219,A,3946.9595,N,08404.9842,W,0.0000,0.000,120118,,*3A
2018-01-11 20:22:18 1515720138.410983: $GPGSA,A,3,7,8,9,11,16,23,27,28,30,1,138,,4.0,0.8,3.5*0F
2018-01-11 20:22:19 1515720139.723572: $GPGSV,3,1,11,07,60,316,41,08,75,112,45,09,44,223,42,11,24,166,44*79
2018-01-11 20:22:19 1515720139.723765: $GPGSV,3,2,11,16,19,063,38,23,24,189,49,27,43,049,50,28,17,262,32*72
2018-01-11 20:22:19 1515720139.723852: $GPGSV,3,3,11,30,33,307,36,01,02,162,21,138,38,213,45*7E
2018-01-11 20:22:19 1515720139.837242: $GPZDA,012220.00,12,01,2018,00,00*6C
2018-01-11 20:22:19 1515720139.837379: $GPGGA,012220,3946.9595,N,08404.9842,W,2,11,0.80,294.38,M,-33.324,M,,*73
2018-01-11 20:22:19 1515720139.837444: $GPRMC,012220,A,3946.9595,N,08404.9842,W,0.0000,0.000,120118,,*30
2018-01-11 20:22:19 1515720139.837504: $GPGSA,A,3,7,8,9,11,16,23,27,28,30,1,138,,4.0,0.8,3.5*0F
2018-01-11 20:22:20 1515720140.388065: $GPZDA,012221.00,12,01,2018,00,00*6D
2018-01-11 20:22:20 1515720140.388205: $GPGGA,012221,3946.9595,N,08404.9842,W,2,11,0.80,294.38,M,-33.324,M,,*72
2018-01-11 20:22:20 1515720140.388270: $GPRMC,012221,A,3946.9595,N,08404.9842,W,0.0000,0.000,120118,,*31
2018-01-11 20:22:20 1515720140.388330: $GPGSA,A,3,7,8,9,11,16,23,27,28,30,1,138,,4.0,0.8,3.5*0F
2018-01-11 20:22:21 1515720141.392230: $GPZDA,012222.00,12,01,2018,00,00*6E
2018-01-11 20:22:21 1515720141.392386: $GPGGA,012222,3946.9595,N,08404.9842,W,2,11,0.80,294.38,M,-33.324,M,,*71
2018-01-11 20:22:21 1515720141.392451: $GPRMC,012222,A,3946.9595,N,08404.9842,W,0.0000,0.000,120118,,*32
2018-01-11 20:22:21 1515720141.392512: $GPGSA,A,3,7,8,9,11,16,23,27,28,30,1,138,,4.0,0.8,3.5*0F
2018-01-11 20:22:22 1515720142.727685: $GPGSV,3,1,11,07,60,316,41,08,75,112,45,09,44,223,42,11,24,166,44*79
2018-01-11 20:22:22 1515720142.727867: $GPGSV,3,2,11,16,19,063,39,23,24,189,49,27,43,049,50,28,17,262,33*72
2018-01-11 20:22:22 1515720142.727932: $GPGSV,3,3,11,30,33,307,36,01,02,162,20,138,38,213,44*7E
2018-01-11 20:22:22 1515720142.841304: $GPZDA,012223.00,12,01,2018,00,00*6F
2018-01-11 20:22:22 1515720142.841443: $GPGGA,012223,3946.9595,N,08404.9842,W,2,11,0.80,294.38,M,-33.324,M,,*70
2018-01-11 20:22:22 1515720142.841508: $GPRMC,012223,A,3946.9595,N,08404.9842,W,0.0000,0.000,120118,,*33
2018-01-11 20:22:22 1515720142.841614: $GPGSA,A,3,7,8,9,11,16,23,27,28,30,1,138,,4.0,0.8,3.5*0F
2018-01-11 20:22:23 1515720143.393441: $GPZDA,012224.00,12,01,2018,00,00*68
2018-01-11 20:22:23 1515720143.393585: $GPGGA,012224,3946.9595,N,08404.9842,W,2,11,0.80,294.38,M,-33.324,M,,*77
2018-01-11 20:22:23 1515720143.393650: $GPRMC,012224,A,3946.9595,N,08404.9842,W,0.0000,0.000,120118,,*34
2018-01-11 20:22:23 1515720143.393711: $GPGSA,A,3,7,8,9,11,16,23,27,28,30,1,138,,4.0,0.8,3.5*0F
2018-01-11 20:22:24 1515720144.394175: $GPZDA,012225.00,12,01,2018,00,00*69
2018-01-11 20:22:24 1515720144.394347: $GPGGA,012225,3946.9595,N,08404.9842,W,2,11,0.80,294.38,M,-33.324,M,,*76
2018-01-11 20:22:24 1515720144.394414: $GPRMC,012225,A,3946.9595,N,08404.9842,W,0.0000,0.000,120118,,*35
2018-01-11 20:22:24 1515720144.394475: $GPGSA,A,3,7,8,9,11,16,23,27,28,30,1,138,,4.0,0.8,3.5*0F
2018-01-11 20:22:25 1515720145.727269: $GPGSV,3,1,11,07,60,316,42,08,75,112,44,09,44,223,42,11,24,166,44*7B
2018-01-11 20:22:25 1515720145.727452: $GPGSV,3,2,11,16,19,063,40,23,24,189,49,27,43,049,50,28,17,262,33*7C
2018-01-11 20:22:25 1515720145.727518: $GPGSV,3,3,11,30,33,307,36,01,02,162,20,138,38,213,45*7F
2018-01-11 20:22:25 1515720145.841021: $GPZDA,012226.00,12,01,2018,00,00*6A
2018-01-11 20:22:25 1515720145.841153: $GPGGA,012226,3946.9595,N,08404.9842,W,2,11,0.80,294.38,M,-33.324,M,,*75
2018-01-11 20:22:25 1515720145.841218: $GPRMC,012226,A,3946.9595,N,08404.9842,W,0.0000,0.000,120118,,*36
2018-01-11 20:22:25 1515720145.841279: $GPGSA,A,3,7,8,9,11,16,23,27,28,30,1,138,,4.0,0.8,3.5*0F
2018-01-11 20:22:26 1515720146.467379: $GPZDA,012227.00,12,01,2018,00,00*6B
2018-01-11 20:22:26 1515720146.467526: $GPGGA,012227,3946.9595,N,08404.9842,W,2,11,0.80,294.38,M,-33.324,M,,*74
2018-01-11 20:22:26 1515720146.467592: $GPRMC,012227,A,3946.9595,N,08404.9842,W,0.0000,0.000,120118,,*37
2018-01-11 20:22:26 1515720146.467653: $GPGSA,A,3,7,8,9,11,16,23,27,28,30,1,138,,4.0,0.8,3.5*0F
2018-01-11 20:22:27 1515720147.393489: $GPZDA,012228.00,12,01,2018,00,00*64
2018-01-11 20:22:27 1515720147.393675: $GPGGA,012228,3946.9595,N,08404.9842,W,2,11,0.80,294.38,M,-33.324,M,,*7B
2018-01-11 20:22:27 1515720147.393760: $GPRMC,012228,A,3946.9595,N,08404.9842,W,0.0000,0.000,120118,,*38
2018-01-11 20:22:27 1515720147.393821: $GPGSA,A,3,7,8,9,11,16,23,27,28,30,1,138,,4.0,0.8,3.5*0F
