2017-12-01 16:34:52 1512164092.507416: {"class":"VERSION","release":"3.16","rev":"3.16-4","proto_major":3,"proto_minor":11}
2017-12-01 16:34:52 1512164092.507793: {"class":"DEVICES","devices":[{"class":"DEVICE","path":"/dev/ttyUSB0","driver":"SiRF","subtype":"9\u0006GSD4e_4.1.2-P1_RPATCH.05-F-GPS-4R-1510281 11/03/2015 307","activated":"2017-12-01T21:34:52.455Z","flags":1,"native":1,"bps":4800,"parity":"N","stopbits":1,"cycle":1.00}]}
2017-12-01 16:34:52 1512164092.507905: {"class":"WATCH","enable":true,"json":false,"nmea":true,"raw":0,"scaled":false,"timing":false,"split24":false,"pps":false}
2017-12-01 16:34:52 1512164092.633042: $GPZDA,213453.29,01,12,2017,00,00*69
2017-12-01 16:34:52 1512164092.633211: $GPGGA,213453,3946.9627,N,08404.9707,W,1,12,1.80,296.67,M,-33.324,M,,*7F
2017-12-01 16:34:52 1512164092.633277: $GPRMC,213453,A,3946.9627,N,08404.9707,W,0.3026,105.365,011217,,*39
2017-12-01 16:34:52 1512164092.633340: $GPGSA,A,3,1,10,14,22,26,31,32,11,12,25,18,138,2.0,1.8,1.5*38
2017-12-01 16:34:54 1512164094.072811: $GPGSV,3,1,12,01,22,298,35,10,45,148,36,14,67,333,36,22,21,312,35*73
2017-12-01 16:34:54 1512164094.072971: $GPGSV,3,2,12,26,04,183,26,31,58,226,40,32,68,034,40,25,40,087,00*78
2017-12-01 16:34:54 1512164094.073036: $GPGSV,3,3,12,12,21,048,00,18,16,144,00,11,08,280,00,138,38,213,00*4A
2017-12-01 16:34:54 1512164094.186206: $GPZDA,213453.97,01,12,2017,00,00*6C
2017-12-01 16:34:54 1512164094.186358: $GPGGA,213453,3946.9627,N,08404.9707,W,1,07,1.80,296.67,M,-33.324,M,,*7B
2017-12-01 16:34:54 1512164094.186423: $GPRMC,213453,A,3946.9627,N,08404.9707,W,0.2202,173.469,011217,,*36
2017-12-01 16:34:54 1512164094.186484: $GPGSA,A,3,1,10,14,22,26,31,32,,,,,,2.0,1.8,1.5*0F
2017-12-01 16:34:55 1512164095.016497: $GPZDA,213455.00,01,12,2017,00,00*64
2017-12-01 16:34:55 1512164095.016680: $GPGGA,213455,3946.9627,N,08404.9707,W,1,07,1.00,296.67,M,-33.324,M,,*75
2017-12-01 16:34:55 1512164095.016751: $GPRMC,213455,A,3946.9627,N,08404.9707,W,0.3026,105.365,011217,,*3F
2017-12-01 16:34:55 1512164095.016814: $GPGSA,A,3,1,10,14,22,26,31,32,,,,,,2.0,1.0,1.5*07
2017-12-01 16:34:55 1512164095.016874: $GPGBS,213455,10.70,M,15.43,M,35.28,M*03
2017-12-01 16:34:55 1512164095.467668: $GPZDA,213456.00,01,12,2017,00,00*67
2017-12-01 16:34:55 1512164095.467852: $GPGGA,213456,3946.9630,N,08404.9713,W,1,07,1.20,295.82,M,-33.324,M,,*7F
2017-12-01 16:34:55 1512164095.467920: $GPRMC,213456,A,3946.9630,N,08404.9713,W,0.3106,69.940,011217,,*0A
2017-12-01 16:34:55 1512164095.467983: $GPGSA,A,3,1,10,14,22,26,31,32,,,,,,2.0,1.2,1.5*05
2017-12-01 16:34:55 1512164095.468041: $GPGBS,213456,10.70,M,15.43,M,35.28,M*00
2017-12-01 16:34:56 1512164096.760559: $GPGSV,3,1,12,01,22,298,44,10,45,148,45,14,67,333,44,22,21,312,44*72
2017-12-01 16:34:56 1512164096.760764: $GPGSV,3,2,12,26,04,183,34,31,58,228,50,32,68,034,49,11,08,280,27*76
2017-12-01 16:34:56 1512164096.760836: $GPGSV,3,3,12,12,21,048,00,18,16,144,19,25,40,087,26,138,38,213,00*48
2017-12-01 16:34:56 1512164096.874157: $GPZDA,213457.00,01,12,2017,00,00*66
2017-12-01 16:34:56 1512164096.874306: $GPGGA,213457,3946.9630,N,08404.9713,W,1,09,1.20,295.82,M,-33.324,M,,*70
2017-12-01 16:34:56 1512164096.874374: $GPRMC,213457,A,3946.9630,N,08404.9713,W,0.0407,142.012,011217,,*3A
2017-12-01 16:34:56 1512164096.874435: $GPGSA,A,3,1,10,14,22,26,31,32,11,25,,,,2.0,1.2,1.5*02
2017-12-01 16:34:57 1512164097.499277: $GPZDA,213458.00,01,12,2017,00,00*69
2017-12-01 16:34:57 1512164097.499449: $GPGGA,213458,3946.9630,N,08404.9713,W,1,09,1.00,295.82,M,-33.324,M,,*7D
2017-12-01 16:34:57 1512164097.499516: $GPRMC,213458,A,3946.9630,N,08404.9713,W,0.0000,0.000,011217,,*32
2017-12-01 16:34:57 1512164097.499578: $GPGSA,A,3,1,10,14,22,26,31,32,11,25,,,,2.0,1.0,1.5*00
2017-12-01 16:34:58 1512164098.427820: $GPZDA,213459.00,01,12,2017,00,00*68
2017-12-01 16:34:58 1512164098.427996: $GPGGA,213459,3946.9634,N,08404.9713,W,1,09,0.80,296.46,M,-33.324,M,,*7A
2017-12-01 16:34:58 1512164098.428063: $GPRMC,213459,A,3946.9634,N,08404.9713,W,0.0000,0.000,011217,,*37
2017-12-01 16:34:58 1512164098.428125: $GPGSA,A,3,1,10,14,22,26,31,32,11,25,,,,2.0,0.8,1.5*09
2017-12-01 16:34:58 1512164098.428235: $GPGBS,213459,10.70,M,15.43,M,35.28,M*0F
2017-12-01 16:34:59 1512164099.763295: $GPGSV,3,1,12,01,22,298,44,10,45,148,45,14,67,333,44,22,21,312,43*75
2017-12-01 16:34:59 1512164099.763480: $GPGSV,3,2,12,26,04,183,33,31,58,228,50,32,68,034,49,11,08,280,22*74
2017-12-01 16:34:59 1512164099.763547: $GPGSV,3,3,12,12,21,048,21,18,16,144,20,25,40,087,27,138,38,213,40*44
2017-12-01 16:34:59 1512164099.876948: $GPZDA,213500.00,01,12,2017,00,00*65
2017-12-01 16:34:59 1512164099.877131: $GPGGA,213500,3946.9634,N,08404.9713,W,1,12,0.80,296.46,M,-33.324,M,,*7D
2017-12-01 16:34:59 1512164099.877221: $GPRMC,213500,A,3946.9634,N,08404.9713,W,0.0000,0.000,011217,,*3A
2017-12-01 16:34:59 1512164099.877285: $GPGSA,A,3,1,10,14,22,26,31,32,11,12,18,25,138,2.0,0.8,1.5*39
2017-12-01 16:35:00 1512164100.427794: $GPZDA,213501.00,01,12,2017,00,00*64
2017-12-01 16:35:00 1512164100.427980: $GPGGA,213501,3946.9635,N,08404.9720,W,1,12,0.80,296.38,M,-33.324,M,,*74
2017-12-01 16:35:00 1512164100.428047: $GPRMC,213501,A,3946.9635,N,08404.9720,W,0.0000,0.000,011217,,*3A
2017-12-01 16:35:00 1512164100.428109: $GPGSA,A,3,1,10,14,22,26,31,32,11,12,18,25,138,2.0,0.8,1.5*39
2017-12-01 16:35:01 1512164101.426312: $GPZDA,213502.00,01,12,2017,00,00*67
2017-12-01 16:35:01 1512164101.426488: $GPGGA,213502,3946.9635,N,08404.9720,W,1,12,1.00,296.38,M,-33.324,M,,*7E
2017-12-01 16:35:01 1512164101.426556: $GPRMC,213502,A,3946.9635,N,08404.9720,W,0.0000,0.000,011217,,*39
2017-12-01 16:35:01 1512164101.426619: $GPGSA,A,3,1,10,14,22,26,31,32,11,12,18,25,138,2.0,1.0,1.5*30
2017-12-01 16:35:02 1512164102.761150: $GPGSV,3,1,12,01,22,298,44,10,45,148,44,14,67,333,43,22,21,312,44*74
2017-12-01 16:35:02 1512164102.761332: $GPGSV,3,2,12,26,04,183,34,31,58,228,50,32,68,034,49,11,08,280,25*74
2017-12-01 16:35:02 1512164102.761470: $GPGSV,3,3,12,12,21,048,25,18,16,144,00,25,40,087,27,138,38,213,40*42
2017-12-01 16:35:02 1512164102.874806: $GPZDA,213503.00,01,12,2017,00,00*66
2017-12-01 16:35:02 1512164102.874984: $GPGGA,213503,3946.9631,N,08404.9721,W,1,11,1.00,297.15,M,-33.324,M,,*77
2017-12-01 16:35:02 1512164102.875052: $GPRMC,213503,A,3946.9631,N,08404.9721,W,0.0000,0.000,011217,,*3D
2017-12-01 16:35:02 1512164102.875113: $GPGSA,A,3,1,10,14,22,26,31,32,11,12,25,138,,2.0,1.0,1.5*39
2017-12-01 16:35:03 1512164103.425821: $GPZDA,213504.00,01,12,2017,00,00*61
2017-12-01 16:35:03 1512164103.425996: $GPGGA,213504,3946.9631,N,08404.9721,W,1,11,1.00,297.15,M,-33.324,M,,*70
2017-12-01 16:35:03 1512164103.426066: $GPRMC,213504,A,3946.9631,N,08404.9721,W,0.4207,39.347,011217,,*01
2017-12-01 16:35:03 1512164103.426128: $GPGSA,A,3,1,10,14,22,26,31,32,11,12,25,138,,2.0,1.0,1.5*39
2017-12-01 16:35:04 1512164104.424172: $GPZDA,213505.00,01,12,2017,00,00*60
2017-12-01 16:35:04 1512164104.424343: $GPGGA,213505,3946.9631,N,08404.9721,W,1,11,1.00,297.15,M,-33.324,M,,*71
2017-12-01 16:35:04 1512164104.424409: $GPRMC,213505,A,3946.9631,N,08404.9721,W,0.5951,58.684,011217,,*04
2017-12-01 16:35:04 1512164104.424472: $GPGSA,A,3,1,10,14,22,26,31,32,11,12,25,138,,2.0,1.0,1.5*39
2017-12-01 16:35:05 1512164105.760773: $GPGSV,3,1,12,01,22,298,43,10,45,148,43,14,67,333,43,22,21,312,43*73
2017-12-01 16:35:05 1512164105.760963: $GPGSV,3,2,12,26,04,183,34,31,58,228,49,32,68,034,47,11,08,280,24*73
2017-12-01 16:35:05 1512164105.761030: $GPGSV,3,3,12,12,21,048,28,18,16,144,00,25,40,087,27,138,38,213,37*4F
2017-12-01 16:35:05 1512164105.874117: $GPZDA,213506.00,01,12,2017,00,00*63
2017-12-01 16:35:05 1512164105.874272: $GPGGA,213506,3946.9636,N,08404.9721,W,1,11,1.00,297.79,M,-33.324,M,,*7F
2017-12-01 16:35:05 1512164105.874340: $GPRMC,213506,A,3946.9636,N,08404.9721,W,0.0000,0.000,011217,,*3F
2017-12-01 16:35:05 1512164105.874401: $GPGSA,A,3,1,10,14,22,26,31,32,11,12,25,138,,2.0,1.0,1.5*39
2017-12-01 16:35:06 1512164106.426283: $GPZDA,213507.00,01,12,2017,00,00*62
2017-12-01 16:35:06 1512164106.426458: $GPGGA,213507,3946.9636,N,08404.9728,W,1,11,1.00,297.71,M,-33.324,M,,*7F
2017-12-01 16:35:06 1512164106.426576: $GPRMC,213507,A,3946.9636,N,08404.9728,W,0.0000,0.000,011217,,*37
2017-12-01 16:35:06 1512164106.426641: $GPGSA,A,3,1,10,14,22,26,31,32,11,12,25,138,,2.0,1.0,1.5*39
2017-12-01 16:35:07 1512164107.427867: $GPZDA,213508.00,01,12,2017,00,00*6D
2017-12-01 16:35:07 1512164107.428048: $GPGGA,213508,3946.9636,N,08404.9728,W,1,11,1.00,297.71,M,-33.324,M,,*70
2017-12-01 16:35:07 1512164107.428116: $GPRMC,213508,A,3946.9636,N,08404.9728,W,0.0000,0.000,011217,,*38
2017-12-01 16:35:07 1512164107.428179: $GPGSA,A,3,1,10,14,22,26,31,32,11,12,25,138,,2.0,1.0,1.5*39
2017-12-01 16:35:08 1512164108.761262: $GPGSV,3,1,12,01,22,298,43,10,45,148,44,14,67,333,42,22,21,312,44*72
2017-12-01 16:35:08 1512164108.761486: $GPGSV,3,2,12,26,04,183,34,31,58,228,50,32,68,034,47,11,08,280,25*7A
2017-12-01 16:35:08 1512164108.761556: $GPGSV,3,3,12,12,21,048,27,18,16,144,00,25,40,087,29,138,38,213,40*4E
2017-12-01 16:35:08 1512164108.874558: $GPZDA,213509.00,01,12,2017,00,00*6C
2017-12-01 16:35:08 1512164108.874728: $GPGGA,213509,3946.9632,N,08404.9728,W,1,11,1.00,298.47,M,-33.324,M,,*7F
2017-12-01 16:35:08 1512164108.874794: $GPRMC,213509,A,3946.9632,N,08404.9728,W,0.0000,0.000,011217,,*3D
2017-12-01 16:35:08 1512164108.874855: $GPGSA,A,3,1,10,14,22,26,31,32,11,12,25,138,,2.0,1.0,1.5*39
2017-12-01 16:35:09 1512164109.428257: $GPZDA,213510.00,01,12,2017,00,00*64
2017-12-01 16:35:09 1512164109.428430: $GPGGA,213510,3946.9632,N,08404.9728,W,1,11,1.00,298.47,M,-33.324,M,,*77
2017-12-01 16:35:09 1512164109.428502: $GPRMC,213510,A,3946.9632,N,08404.9728,W,0.0000,0.000,011217,,*35
2017-12-01 16:35:09 1512164109.428567: $GPGSA,A,3,1,10,14,22,26,31,32,11,12,25,138,,2.0,1.0,1.5*39
2017-12-01 16:35:10 1512164110.428673: $GPZDA,213511.00,01,12,2017,00,00*65
2017-12-01 16:35:10 1512164110.428857: $GPGGA,213511,3946.9631,N,08404.9751,W,2,11,1.20,301.81,M,-33.324,M,,*71
2017-12-01 16:35:10 1512164110.428929: $GPRMC,213511,A,3946.9631,N,08404.9751,W,0.0000,0.000,011217,,*39
2017-12-01 16:35:10 1512164110.428994: $GPGSA,A,3,1,10,14,22,26,31,32,11,12,25,138,,2.0,1.2,1.5*3B
2017-12-01 16:35:10 1512164110.429055: $GPGBS,213511,2.67,M,3.86,M,8.82,M*37
2017-12-01 16:35:11 1512164111.764369: $GPGSV,3,1,12,01,22,298,43,10,45,148,44,14,67,333,43,22,21,312,44*73
2017-12-01 16:35:11 1512164111.764532: $GPGSV,3,2,12,26,04,183,33,31,58,228,50,32,68,034,48,11,08,280,25*72
2017-12-01 16:35:11 1512164111.764601: $GPGSV,3,3,12,12,21,048,27,18,16,144,00,25,40,087,29,138,38,213,41*4F
2017-12-01 16:35:11 1512164111.877704: $GPZDA,213512.00,01,12,2017,00,00*66
2017-12-01 16:35:11 1512164111.877842: $GPGGA,213512,3946.9636,N,08404.9751,W,2,11,1.00,302.45,M,-33.324,M,,*7C
2017-12-01 16:35:11 1512164111.877913: $GPRMC,213512,A,3946.9636,N,08404.9751,W,0.0000,0.000,011217,,*3D
2017-12-01 16:35:11 1512164111.877977: $GPGSA,A,3,1,10,14,22,26,31,32,11,12,25,138,,2.0,1.0,1.5*39
