2017-11-16 13:15:31 1510856131.617581: {"class":"VERSION","release":"3.17","rev":"3.17","proto_major":3,"proto_minor":12}
2017-11-16 13:15:31 1510856131.618115: {"class":"DEVICES","devices":[{"class":"DEVICE","path":"/dev/ttyUSB0","driver":"SiRF","subtype":"9\u0006GSD4e_4.1.2-P1_RPATCH.05-F-GPS-4R-1510281 11/03/2015 307","activated":"2017-11-16T18:15:31.445Z","flags":1,"native":1,"bps":4800,"parity":"N","stopbits":1,"cycle":1.00}]}
2017-11-16 13:15:31 1510856131.618251: {"class":"WATCH","enable":true,"json":false,"nmea":true,"raw":0,"scaled":false,"timing":false,"split24":false,"pps":false}
2017-11-16 13:15:32 1510856132.293446: $GPZDA,181531.00,16,11,2017,00,00*6A
2017-11-16 13:15:32 1510856132.293610: $GPGGA,181531,3946.9585,N,08404.9845,W,2,10,1.00,298.08,M,-33.324,M,,*7E
2017-11-16 13:15:32 1510856132.293672: $GPRMC,181531,A,3946.9585,N,08404.9845,W,0.0000,0.000,161117,,*30
2017-11-16 13:15:32 1510856132.293728: $GPGSA,A,3,10,13,15,18,20,21,24,27,5,138,,,1.6,1.0,1.3*35
2017-11-16 13:15:33 1510856133.635356: $GPGSV,3,1,12,10,22,280,43,13,31,045,47,15,64,052,51,18,52,297,45*70
2017-11-16 13:15:33 1510856133.635523: $GPGSV,3,2,12,20,53,069,46,21,76,282,46,24,31,141,44,27,15,315,41*79
2017-11-16 13:15:33 1510856133.635583: $GPGSV,3,3,12,05,06,085,17,29,12,190,00,04,02,135,00,138,38,213,46*40
2017-11-16 13:15:33 1510856133.748985: $GPZDA,181532.00,16,11,2017,00,00*69
2017-11-16 13:15:33 1510856133.749147: $GPGGA,181532,3946.9585,N,08404.9845,W,2,10,1.00,298.08,M,-33.324,M,,*7D
2017-11-16 13:15:33 1510856133.749207: $GPRMC,181532,A,3946.9585,N,08404.9845,W,0.0000,0.000,161117,,*33
2017-11-16 13:15:33 1510856133.749263: $GPGSA,A,3,10,13,15,18,20,21,24,27,5,138,,,1.6,1.0,1.3*35
2017-11-16 13:15:34 1510856134.323585: $GPZDA,181533.00,16,11,2017,00,00*68
2017-11-16 13:15:34 1510856134.323756: $GPGGA,181533,3946.9585,N,08404.9845,W,2,10,0.80,298.08,M,-33.324,M,,*75
2017-11-16 13:15:34 1510856134.323834: $GPRMC,181533,A,3946.9585,N,08404.9845,W,0.0000,0.000,161117,,*32
2017-11-16 13:15:34 1510856134.323891: $GPGSA,A,3,10,13,15,18,20,21,24,27,5,138,,,1.6,0.8,1.3*3C
2017-11-16 13:15:35 1510856135.299886: $GPZDA,181534.00,16,11,2017,00,00*6F
2017-11-16 13:15:35 1510856135.300054: $GPGGA,181534,3946.9585,N,08404.9845,W,2,10,0.80,298.08,M,-33.324,M,,*72
2017-11-16 13:15:35 1510856135.300117: $GPRMC,181534,A,3946.9585,N,08404.9845,W,0.0000,0.000,161117,,*35
2017-11-16 13:15:35 1510856135.300174: $GPGSA,A,3,10,13,15,18,20,21,24,27,5,138,,,1.6,0.8,1.3*3C
2017-11-16 13:15:36 1510856136.639404: $GPGSV,3,1,12,10,22,280,44,13,31,045,47,15,64,052,51,18,52,297,44*76
2017-11-16 13:15:36 1510856136.639592: $GPGSV,3,2,12,20,53,069,46,21,76,282,46,24,31,141,44,27,15,315,42*7A
2017-11-16 13:15:36 1510856136.639682: $GPGSV,3,3,12,05,06,085,22,29,12,190,28,04,02,135,00,138,38,213,44*4E
2017-11-16 13:15:36 1510856136.753159: $GPZDA,181535.00,16,11,2017,00,00*6E
2017-11-16 13:15:36 1510856136.753320: $GPGGA,181535,3946.9585,N,08404.9845,W,2,11,0.80,298.08,M,-33.324,M,,*72
2017-11-16 13:15:36 1510856136.753382: $GPRMC,181535,A,3946.9585,N,08404.9845,W,0.0000,0.000,161117,,*34
2017-11-16 13:15:36 1510856136.753437: $GPGSA,A,3,10,13,15,18,20,21,24,27,5,29,138,,1.6,0.8,1.3*37
2017-11-16 13:15:37 1510856137.325217: $GPZDA,181536.00,16,11,2017,00,00*6D
2017-11-16 13:15:37 1510856137.325376: $GPGGA,181536,3946.9585,N,08404.9845,W,2,11,0.80,298.08,M,-33.324,M,,*71
2017-11-16 13:15:37 1510856137.325436: $GPRMC,181536,A,3946.9585,N,08404.9845,W,0.0000,0.000,161117,,*37
2017-11-16 13:15:37 1510856137.325514: $GPGSA,A,3,10,13,15,18,20,21,24,27,5,29,138,,1.6,0.8,1.3*37
2017-11-16 13:15:38 1510856138.300735: $GPZDA,181537.00,16,11,2017,00,00*6C
2017-11-16 13:15:38 1510856138.301025: $GPGGA,181537,3946.9585,N,08404.9845,W,2,11,1.00,298.08,M,-33.324,M,,*79
2017-11-16 13:15:38 1510856138.301127: $GPRMC,181537,A,3946.9585,N,08404.9845,W,0.0000,0.000,161117,,*36
2017-11-16 13:15:38 1510856138.301240: $GPGSA,A,3,10,13,15,18,20,21,24,27,5,29,138,,1.6,1.0,1.3*3E
2017-11-16 13:15:39 1510856139.658808: $GPGSV,3,1,12,10,22,280,43,13,31,045,47,15,64,052,51,18,52,297,44*71
2017-11-16 13:15:39 1510856139.659029: $GPGSV,3,2,12,20,53,069,46,21,76,282,46,24,31,141,44,27,15,315,43*7B
2017-11-16 13:15:39 1510856139.659093: $GPGSV,3,3,12,05,06,085,21,29,12,190,08,04,02,135,00,138,38,213,44*4F
2017-11-16 13:15:39 1510856139.772321: $GPZDA,181538.00,16,11,2017,00,00*63
2017-11-16 13:15:39 1510856139.772528: $GPGGA,181538,3946.9585,N,08404.9845,W,2,10,1.00,298.08,M,-33.324,M,,*77
2017-11-16 13:15:39 1510856139.772593: $GPRMC,181538,A,3946.9585,N,08404.9845,W,0.0000,0.000,161117,,*39
2017-11-16 13:15:39 1510856139.772650: $GPGSA,A,3,10,13,15,18,20,21,24,27,5,138,,,1.6,1.0,1.3*35
2017-11-16 13:15:40 1510856140.397532: $GPZDA,181539.00,16,11,2017,00,00*62
2017-11-16 13:15:40 1510856140.397699: $GPGGA,181539,3946.9585,N,08404.9845,W,2,10,0.80,298.08,M,-33.324,M,,*7F
2017-11-16 13:15:40 1510856140.397760: $GPRMC,181539,A,3946.9585,N,08404.9845,W,0.0000,0.000,161117,,*38
2017-11-16 13:15:40 1510856140.397816: $GPGSA,A,3,10,13,15,18,20,21,24,27,5,138,,,1.6,0.8,1.3*3C
2017-11-16 13:15:41 1510856141.300874: $GPZDA,181540.00,16,11,2017,00,00*6C
2017-11-16 13:15:41 1510856141.301041: $GPGGA,181540,3946.9585,N,08404.9845,W,2,10,1.00,298.08,M,-33.324,M,,*78
2017-11-16 13:15:41 1510856141.301102: $GPRMC,181540,A,3946.9585,N,08404.9845,W,0.0000,0.000,161117,,*36
2017-11-16 13:15:41 1510856141.301159: $GPGSA,A,3,10,13,15,18,20,21,24,27,5,138,,,1.6,1.0,1.3*35
