2017-12-29 10:42:43 1514562163.565679: {"class":"VERSION","release":"3.16","rev":"3.16-4","proto_major":3,"proto_minor":11}
2017-12-29 10:42:43 1514562163.566039: {"class":"DEVICES","devices":[{"class":"DEVICE","path":"/dev/ttyUSB0","driver":"SiRF","subtype":"9\u0006GSD4e_4.1.2-P1_RPATCH.05-F-GPS-4R-1510281 11/03/2015 307","activated":"2017-12-29T15:42:43.556Z","flags":1,"native":1,"bps":4800,"parity":"N","stopbits":1,"cycle":1.00}]}
2017-12-29 10:42:43 1514562163.566156: {"class":"WATCH","enable":true,"json":false,"nmea":true,"raw":0,"scaled":false,"timing":false,"split24":false,"pps":false}
2017-12-29 10:42:44 1514562164.786332: $GPGSV,3,1,11,10,30,289,44,13,21,045,44,15,52,049,51,18,61,312,43*79
2017-12-29 10:42:44 1514562164.786496: $GPGSV,3,2,11,20,46,081,49,21,77,222,47,24,40,130,48,27,19,306,36*7F
2017-12-29 10:42:44 1514562164.786563: $GPGSV,3,3,11,32,09,229,27,29,03,187,39,138,38,213,45*71
2017-12-29 10:42:44 1514562164.899845: $GPZDA,154245.00,29,12,2017,00,00*69
2017-12-29 10:42:44 1514562164.900017: $GPGGA,154245,3946.9592,N,08404.9852,W,2,11,0.80,287.20,M,-33.324,M,,*7E
2017-12-29 10:42:44 1514562164.900083: $GPRMC,154245,A,3946.9592,N,08404.9852,W,0.0000,0.000,291217,,*33
2017-12-29 10:42:44 1514562164.900146: $GPGSA,A,3,10,13,15,18,20,21,24,27,32,29,138,,1.7,0.8,1.3*02
2017-12-29 10:42:45 1514562165.448161: $GPZDA,154246.00,29,12,2017,00,00*6A
2017-12-29 10:42:45 1514562165.448320: $GPGGA,154246,3946.9592,N,08404.9852,W,2,11,0.80,287.20,M,-33.324,M,,*7D
2017-12-29 10:42:45 1514562165.448389: $GPRMC,154246,A,3946.9592,N,08404.9852,W,0.0000,0.000,291217,,*30
2017-12-29 10:42:45 1514562165.448450: $GPGSA,A,3,10,13,15,18,20,21,24,27,32,29,138,,1.7,0.8,1.3*02
2017-12-29 10:42:46 1514562166.449052: $GPZDA,154247.00,29,12,2017,00,00*6B
2017-12-29 10:42:46 1514562166.449213: $GPGGA,154247,3946.9592,N,08404.9852,W,2,11,0.80,287.20,M,-33.324,M,,*7C
2017-12-29 10:42:46 1514562166.449283: $GPRMC,154247,A,3946.9592,N,08404.9852,W,0.0000,0.000,291217,,*31
2017-12-29 10:42:46 1514562166.449344: $GPGSA,A,3,10,13,15,18,20,21,24,27,32,29,138,,1.7,0.8,1.3*02
2017-12-29 10:42:47 1514562167.784726: $GPGSV,3,1,11,10,30,289,43,13,21,045,44,15,52,049,51,18,61,312,43*7E
2017-12-29 10:42:47 1514562167.784902: $GPGSV,3,2,11,20,46,081,49,21,77,222,47,24,40,130,48,27,19,306,37*7E
2017-12-29 10:42:47 1514562167.784967: $GPGSV,3,3,11,32,09,229,27,29,03,187,39,138,38,213,45*71
2017-12-29 10:42:47 1514562167.898124: $GPZDA,154248.00,29,12,2017,00,00*64
2017-12-29 10:42:47 1514562167.898266: $GPGGA,154248,3946.9592,N,08404.9852,W,2,11,0.80,287.20,M,-33.324,M,,*73
2017-12-29 10:42:47 1514562167.898332: $GPRMC,154248,A,3946.9592,N,08404.9852,W,0.0000,0.000,291217,,*3E
2017-12-29 10:42:47 1514562167.898394: $GPGSA,A,3,10,13,15,18,20,21,24,27,32,29,138,,1.7,0.8,1.3*02
2017-12-29 10:42:48 1514562168.523504: $GPZDA,154249.00,29,12,2017,00,00*65
2017-12-29 10:42:48 1514562168.523656: $GPGGA,154249,3946.9588,N,08404.9853,W,2,11,0.80,287.96,M,-33.324,M,,*75
2017-12-29 10:42:48 1514562168.523724: $GPRMC,154249,A,3946.9588,N,08404.9853,W,0.0000,0.000,291217,,*35
2017-12-29 10:42:48 1514562168.523788: $GPGSA,A,3,10,13,15,18,20,21,24,27,32,29,138,,1.7,0.8,1.3*02
2017-12-29 10:42:49 1514562169.450633: $GPZDA,154250.00,29,12,2017,00,00*6D
2017-12-29 10:42:49 1514562169.450795: $GPGGA,154250,3946.9588,N,08404.9853,W,2,11,0.80,287.96,M,-33.324,M,,*7D
2017-12-29 10:42:49 1514562169.450864: $GPRMC,154250,A,3946.9588,N,08404.9853,W,0.0000,0.000,291217,,*3D
2017-12-29 10:42:49 1514562169.450924: $GPGSA,A,3,10,13,15,18,20,21,24,27,32,29,138,,1.7,0.8,1.3*02
2017-12-29 10:42:50 1514562170.785032: $GPGSV,3,1,11,10,30,289,43,13,21,045,44,15,52,049,51,18,61,312,43*7E
2017-12-29 10:42:50 1514562170.785209: $GPGSV,3,2,11,20,46,081,49,21,77,222,47,24,40,130,48,27,19,306,37*7E
2017-12-29 10:42:50 1514562170.785274: $GPGSV,3,3,11,32,09,229,27,29,03,187,39,138,38,213,45*71
2017-12-29 10:42:50 1514562170.898668: $GPZDA,154251.00,29,12,2017,00,00*6C
2017-12-29 10:42:50 1514562170.898799: $GPGGA,154251,3946.9588,N,08404.9853,W,2,11,0.80,287.96,M,-33.324,M,,*7C
2017-12-29 10:42:50 1514562170.898919: $GPRMC,154251,A,3946.9588,N,08404.9853,W,0.0000,0.000,291217,,*3C
2017-12-29 10:42:50 1514562170.898983: $GPGSA,A,3,10,13,15,18,20,21,24,27,32,29,138,,1.7,0.8,1.3*02
2017-12-29 10:42:51 1514562171.413252: $GPZDA,154252.00,29,12,2017,00,00*6F
2017-12-29 10:42:51 1514562171.413382: $GPGGA,154252,3946.9588,N,08404.9853,W,2,11,0.80,287.96,M,-33.324,M,,*7F
2017-12-29 10:42:51 1514562171.413446: $GPRMC,154252,A,3946.9588,N,08404.9853,W,0.0000,0.000,291217,,*3F
2017-12-29 10:42:51 1514562171.413508: $GPGSA,A,3,10,13,15,18,20,21,24,27,32,29,138,,1.7,0.8,1.3*02
2017-12-29 10:42:52 1514562172.450533: $GPZDA,154253.00,29,12,2017,00,00*6E
2017-12-29 10:42:52 1514562172.454270: $GPGGA,154253,3946.9588,N,08404.9853,W,2,11,0.80,287.96,M,-33.324,M,,*7E
2017-12-29 10:42:52 1514562172.454389: $GPRMC,154253,A,3946.9588,N,08404.9853,W,0.0000,0.000,291217,,*3E
2017-12-29 10:42:52 1514562172.454454: $GPGSA,A,3,10,13,15,18,20,21,24,27,32,29,138,,1.7,0.8,1.3*02
