2017-12-29 10:58:16 1514563096.546948: {"class":"VERSION","release":"3.16","rev":"3.16-4","proto_major":3,"proto_minor":11}
2017-12-29 10:58:16 1514563096.547293: {"class":"DEVICES","devices":[{"class":"DEVICE","path":"/dev/ttyUSB0","driver":"SiRF","subtype":"9\u0006GSD4e_4.1.2-P1_RPATCH.05-F-GPS-4R-1510281 11/03/2015 307","activated":"2017-12-29T15:58:16.540Z","flags":1,"native":1,"bps":4800,"parity":"N","stopbits":1,"cycle":1.00}]}
2017-12-29 10:58:16 1514563096.547412: {"class":"WATCH","enable":true,"json":false,"nmea":true,"raw":0,"scaled":false,"timing":false,"split24":false,"pps":false}
2017-12-29 10:58:17 1514563097.399753: $GPZDA,155818.00,29,12,2017,00,00*6A
2017-12-29 10:58:17 1514563097.399918: $GPGGA,155818,3946.9594,N,08404.9839,W,2,11,1.00,300.84,M,-33.324,M,,*7F
2017-12-29 10:58:17 1514563097.399986: $GPRMC,155818,A,3946.9594,N,08404.9839,W,0.0000,0.000,291217,,*3B
2017-12-29 10:58:17 1514563097.400048: $GPGSA,A,3,10,13,15,18,20,21,24,27,32,8,138,,1.7,1.0,1.3*38
2017-12-29 10:58:18 1514563098.738742: $GPGSV,3,1,11,10,35,295,43,13,15,046,40,15,45,051,50,18,66,321,44*78
2017-12-29 10:58:18 1514563098.738905: $GPGSV,3,2,11,20,41,087,50,21,72,201,46,24,46,123,50,27,19,298,41*78
2017-12-29 10:58:18 1514563098.738972: $GPGSV,3,3,11,32,14,232,33,08,02,330,25,138,38,213,44*72
2017-12-29 10:58:18 1514563098.851120: $GPZDA,155819.00,29,12,2017,00,00*6B
2017-12-29 10:58:18 1514563098.851250: $GPGGA,155819,3946.9594,N,08404.9839,W,2,11,1.00,300.84,M,-33.324,M,,*7E
2017-12-29 10:58:18 1514563098.851315: $GPRMC,155819,A,3946.9594,N,08404.9839,W,0.0000,0.000,291217,,*3A
2017-12-29 10:58:18 1514563098.851378: $GPGSA,A,3,10,13,15,18,20,21,24,27,32,8,138,,1.7,1.0,1.3*38
2017-12-29 10:58:19 1514563099.402005: $GPZDA,155820.00,29,12,2017,00,00*61
2017-12-29 10:58:19 1514563099.402155: $GPGGA,155820,3946.9594,N,08404.9839,W,2,11,1.00,300.84,M,-33.324,M,,*74
2017-12-29 10:58:19 1514563099.402220: $GPRMC,155820,A,3946.9594,N,08404.9839,W,0.0000,0.000,291217,,*30
2017-12-29 10:58:19 1514563099.402281: $GPGSA,A,3,10,13,15,18,20,21,24,27,32,8,138,,1.7,1.0,1.3*38
2017-12-29 10:58:20 1514563100.400365: $GPZDA,155821.00,29,12,2017,00,00*60
2017-12-29 10:58:20 1514563100.400530: $GPGGA,155821,3946.9594,N,08404.9839,W,2,11,1.00,300.84,M,-33.324,M,,*75
2017-12-29 10:58:20 1514563100.400596: $GPRMC,155821,A,3946.9594,N,08404.9839,W,0.0000,0.000,291217,,*31
2017-12-29 10:58:20 1514563100.400658: $GPGSA,A,3,10,13,15,18,20,21,24,27,32,8,138,,1.7,1.0,1.3*38
2017-12-29 10:58:21 1514563101.768352: $GPGSV,3,1,11,10,35,295,43,13,15,046,39,15,45,051,50,18,66,321,44*76
2017-12-29 10:58:21 1514563101.768545: $GPGSV,3,2,11,20,41,087,50,21,72,201,47,24,46,123,49,27,19,298,41*71
2017-12-29 10:58:21 1514563101.768613: $GPGSV,3,3,11,32,14,232,33,08,02,330,30,138,38,213,44*76
2017-12-29 10:58:21 1514563101.882030: $GPZDA,155822.00,29,12,2017,00,00*63
2017-12-29 10:58:21 1514563101.882172: $GPGGA,155822,3946.9594,N,08404.9839,W,2,11,1.00,300.84,M,-33.324,M,,*76
2017-12-29 10:58:21 1514563101.882238: $GPRMC,155822,A,3946.9594,N,08404.9839,W,0.0000,0.000,291217,,*32
2017-12-29 10:58:21 1514563101.882299: $GPGSA,A,3,10,13,15,18,20,21,24,27,32,8,138,,1.7,1.0,1.3*38
2017-12-29 10:58:22 1514563102.439057: $GPZDA,155823.00,29,12,2017,00,00*62
2017-12-29 10:58:22 1514563102.439198: $GPGGA,155823,3946.9594,N,08404.9839,W,2,11,1.00,300.84,M,-33.324,M,,*77
2017-12-29 10:58:22 1514563102.439264: $GPRMC,155823,A,3946.9594,N,08404.9839,W,0.0000,0.000,291217,,*33
2017-12-29 10:58:22 1514563102.439329: $GPGSA,A,3,10,13,15,18,20,21,24,27,32,8,138,,1.7,1.0,1.3*38
2017-12-29 10:58:23 1514563103.439490: $GPZDA,155824.00,29,12,2017,00,00*65
2017-12-29 10:58:23 1514563103.439650: $GPGGA,155824,3946.9594,N,08404.9839,W,2,11,1.00,300.84,M,-33.324,M,,*70
2017-12-29 10:58:23 1514563103.439716: $GPRMC,155824,A,3946.9594,N,08404.9839,W,0.0000,0.000,291217,,*34
2017-12-29 10:58:23 1514563103.439778: $GPGSA,A,3,10,13,15,18,20,21,24,27,32,8,138,,1.7,1.0,1.3*38
2017-12-29 10:58:24 1514563104.774968: $GPGSV,3,1,11,10,35,295,43,13,15,046,39,15,45,051,50,18,66,321,44*76
2017-12-29 10:58:24 1514563104.775200: $GPGSV,3,2,11,20,41,087,50,21,72,201,46,24,46,123,49,27,19,298,41*70
2017-12-29 10:58:24 1514563104.775269: $GPGSV,3,3,11,32,14,232,32,08,02,330,31,138,38,213,46*74
2017-12-29 10:58:24 1514563104.888566: $GPZDA,155825.00,29,12,2017,00,00*64
2017-12-29 10:58:24 1514563104.888697: $GPGGA,155825,3946.9594,N,08404.9839,W,2,11,1.00,300.84,M,-33.324,M,,*71
2017-12-29 10:58:24 1514563104.888763: $GPRMC,155825,A,3946.9594,N,08404.9839,W,0.0000,0.000,291217,,*35
2017-12-29 10:58:24 1514563104.888822: $GPGSA,A,3,10,13,15,18,20,21,24,27,32,8,138,,1.7,1.0,1.3*38
2017-12-29 10:58:25 1514563105.439423: $GPZDA,155826.00,29,12,2017,00,00*67
2017-12-29 10:58:25 1514563105.439570: $GPGGA,155826,3946.9594,N,08404.9839,W,2,11,1.00,300.84,M,-33.324,M,,*72
2017-12-29 10:58:25 1514563105.439637: $GPRMC,155826,A,3946.9594,N,08404.9839,W,0.0000,0.000,291217,,*36
2017-12-29 10:58:25 1514563105.439697: $GPGSA,A,3,10,13,15,18,20,21,24,27,32,8,138,,1.7,1.0,1.3*38
2017-12-29 10:58:26 1514563106.401659: $GPZDA,155827.00,29,12,2017,00,00*66
2017-12-29 10:58:26 1514563106.401823: $GPGGA,155827,3946.9594,N,08404.9839,W,2,11,1.00,300.84,M,-33.324,M,,*73
2017-12-29 10:58:26 1514563106.401890: $GPRMC,155827,A,3946.9594,N,08404.9839,W,0.0000,0.000,291217,,*37
2017-12-29 10:58:26 1514563106.401950: $GPGSA,A,3,10,13,15,18,20,21,24,27,32,8,138,,1.7,1.0,1.3*38
2017-12-29 10:58:27 1514563107.774576: $GPGSV,3,1,11,10,35,295,43,13,15,046,39,15,45,051,50,18,66,321,44*76
2017-12-29 10:58:27 1514563107.774755: $GPGSV,3,2,11,20,41,087,50,21,72,201,46,24,46,123,49,27,19,298,41*70
2017-12-29 10:58:27 1514563107.774822: $GPGSV,3,3,11,32,14,232,32,08,02,330,32,138,38,213,44*75
2017-12-29 10:58:27 1514563107.888185: $GPZDA,155828.00,29,12,2017,00,00*69
2017-12-29 10:58:27 1514563107.888329: $GPGGA,155828,3946.9594,N,08404.9839,W,2,11,1.00,300.84,M,-33.324,M,,*7C
2017-12-29 10:58:27 1514563107.888398: $GPRMC,155828,A,3946.9594,N,08404.9839,W,0.0000,0.000,291217,,*38
2017-12-29 10:58:27 1514563107.888459: $GPGSA,A,3,10,13,15,18,20,21,24,27,32,8,138,,1.7,1.0,1.3*38
2017-12-29 10:58:28 1514563108.514778: $GPZDA,155829.00,29,12,2017,00,00*68
2017-12-29 10:58:28 1514563108.514924: $GPGGA,155829,3946.9594,N,08404.9839,W,2,11,1.00,300.84,M,-33.324,M,,*7D
2017-12-29 10:58:28 1514563108.514989: $GPRMC,155829,A,3946.9594,N,08404.9839,W,0.0000,0.000,291217,,*39
2017-12-29 10:58:28 1514563108.515050: $GPGSA,A,3,10,13,15,18,20,21,24,27,32,8,138,,1.7,1.0,1.3*38
2017-12-29 10:58:29 1514563109.438210: $GPZDA,155830.00,29,12,2017,00,00*60
2017-12-29 10:58:29 1514563109.438386: $GPGGA,155830,3946.9594,N,08404.9839,W,2,11,1.00,300.84,M,-33.324,M,,*75
2017-12-29 10:58:29 1514563109.438452: $GPRMC,155830,A,3946.9594,N,08404.9839,W,0.0000,0.000,291217,,*31
2017-12-29 10:58:29 1514563109.438514: $GPGSA,A,3,10,13,15,18,20,21,24,27,32,8,138,,1.7,1.0,1.3*38
2017-12-29 10:58:30 1514563110.776292: $GPGSV,3,1,11,10,35,295,43,13,15,046,39,15,45,051,50,18,66,321,44*76
2017-12-29 10:58:30 1514563110.776471: $GPGSV,3,2,11,20,41,087,50,21,72,201,46,24,46,123,50,27,19,298,40*79
2017-12-29 10:58:30 1514563110.776537: $GPGSV,3,3,11,32,14,232,31,08,02,330,32,138,38,213,44*76
2017-12-29 10:58:30 1514563110.889929: $GPZDA,155831.00,29,12,2017,00,00*61
2017-12-29 10:58:30 1514563110.890067: $GPGGA,155831,3946.9594,N,08404.9839,W,2,11,1.00,300.84,M,-33.324,M,,*74
2017-12-29 10:58:30 1514563110.890133: $GPRMC,155831,A,3946.9594,N,08404.9839,W,0.0000,0.000,291217,,*30
2017-12-29 10:58:30 1514563110.890193: $GPGSA,A,3,10,13,15,18,20,21,24,27,32,8,138,,1.7,1.0,1.3*38
2017-12-29 10:58:31 1514563111.402096: $GPZDA,155832.00,29,12,2017,00,00*62
2017-12-29 10:58:31 1514563111.402264: $GPGGA,155832,3946.9594,N,08404.9839,W,2,11,1.00,300.84,M,-33.324,M,,*77
2017-12-29 10:58:31 1514563111.402331: $GPRMC,155832,A,3946.9594,N,08404.9839,W,0.0000,0.000,291217,,*33
2017-12-29 10:58:31 1514563111.402409: $GPGSA,A,3,10,13,15,18,20,21,24,27,32,8,138,,1.7,1.0,1.3*38
2017-12-29 10:58:32 1514563112.437998: $GPZDA,155833.00,29,12,2017,00,00*63
2017-12-29 10:58:32 1514563112.438207: $GPGGA,155833,3946.9594,N,08404.9839,W,2,11,1.00,300.84,M,-33.324,M,,*76
2017-12-29 10:58:32 1514563112.438298: $GPRMC,155833,A,3946.9594,N,08404.9839,W,0.0000,0.000,291217,,*32
2017-12-29 10:58:32 1514563112.438359: $GPGSA,A,3,10,13,15,18,20,21,24,27,32,8,138,,1.7,1.0,1.3*38
2017-12-29 10:58:33 1514563113.736667: $GPGSV,3,1,11,10,35,295,44,13,15,046,39,15,45,051,50,18,66,321,44*71
2017-12-29 10:58:33 1514563113.736842: $GPGSV,3,2,11,20,41,087,50,21,72,201,46,24,46,123,50,27,19,298,40*79
2017-12-29 10:58:33 1514563113.736906: $GPGSV,3,3,11,32,14,232,31,08,02,330,31,138,38,213,44*75
2017-12-29 10:58:33 1514563113.850338: $GPZDA,155834.00,29,12,2017,00,00*64
2017-12-29 10:58:33 1514563113.850496: $GPGGA,155834,3946.9594,N,08404.9839,W,2,11,1.00,300.84,M,-33.324,M,,*71
2017-12-29 10:58:33 1514563113.850562: $GPRMC,155834,A,3946.9594,N,08404.9839,W,0.0000,0.000,291217,,*35
2017-12-29 10:58:33 1514563113.850622: $GPGSA,A,3,10,13,15,18,20,21,24,27,32,8,138,,1.7,1.0,1.3*38
2017-12-29 10:58:34 1514563114.439944: $GPZDA,155835.00,29,12,2017,00,00*65
2017-12-29 10:58:34 1514563114.440117: $GPGGA,155835,3946.9594,N,08404.9839,W,2,11,1.00,300.84,M,-33.324,M,,*70
2017-12-29 10:58:34 1514563114.440185: $GPRMC,155835,A,3946.9594,N,08404.9839,W,0.0000,0.000,291217,,*34
2017-12-29 10:58:34 1514563114.440268: $GPGSA,A,3,10,13,15,18,20,21,24,27,32,8,138,,1.7,1.0,1.3*38
2017-12-29 10:58:35 1514563115.439590: $GPZDA,155836.00,29,12,2017,00,00*66
2017-12-29 10:58:35 1514563115.439742: $GPGGA,155836,3946.9594,N,08404.9839,W,2,11,1.00,300.84,M,-33.324,M,,*73
2017-12-29 10:58:35 1514563115.439807: $GPRMC,155836,A,3946.9594,N,08404.9839,W,0.0000,0.000,291217,,*37
2017-12-29 10:58:35 1514563115.439867: $GPGSA,A,3,10,13,15,18,20,21,24,27,32,8,138,,1.7,1.0,1.3*38
