2017-12-01 14:06:39 1512155199.906764: {"class":"VERSION","release":"3.16","rev":"3.16-4","proto_major":3,"proto_minor":11}
2017-12-01 14:06:39 1512155199.907183: {"class":"DEVICES","devices":[{"class":"DEVICE","path":"/dev/ttyUSB0","driver":"SiRF","subtype":"9\u0006GSD4e_4.1.2-P1_RPATCH.05-F-GPS-4R-1510281 11/03/2015 307","activated":"2017-12-01T19:06:39.641Z","flags":1,"native":1,"bps":4800,"parity":"N","stopbits":1,"cycle":1.00}]}
2017-12-01 14:06:39 1512155199.907306: {"class":"WATCH","enable":true,"json":false,"nmea":true,"raw":0,"scaled":false,"timing":false,"split24":false,"pps":false}
2017-12-01 14:06:40 1512155200.662111: $GPGSV,3,1,12,10,62,322,49,14,23,247,40,15,17,063,35,18,75,072,43*7A
2017-12-01 14:06:40 1512155200.662290: $GPGSV,3,2,12,21,36,180,44,24,49,067,47,27,10,265,42,32,40,258,43*73
2017-12-01 14:06:40 1512155200.662356: $GPGSV,3,3,12,20,15,114,32,08,07,300,28,12,04,112,23,138,38,213,47*49
2017-12-01 14:06:40 1512155200.775810: $GPZDA,190641.00,01,12,2017,00,00*6B
2017-12-01 14:06:40 1512155200.775969: $GPGGA,190641,3946.9568,N,08404.9831,W,2,12,5.00,295.68,M,-33.324,M,,*77
2017-12-01 14:06:40 1512155200.776035: $GPRMC,190641,A,3946.9568,N,08404.9831,W,0.0000,0.000,011217,,*31
2017-12-01 14:06:40 1512155200.776097: $GPGSA,A,3,10,14,15,18,21,24,27,32,20,8,12,138,2.0,5.0,1.5*3A
2017-12-01 14:06:41 1512155201.329072: $GPZDA,190642.00,01,12,2017,00,00*68
2017-12-01 14:06:41 1512155201.329262: $GPGGA,190642,3946.9564,N,08404.9832,W,2,12,0.80,296.44,M,-33.324,M,,*7B
2017-12-01 14:06:41 1512155201.329330: $GPRMC,190642,A,3946.9564,N,08404.9832,W,0.0000,0.000,011217,,*3D
2017-12-01 14:06:41 1512155201.329391: $GPGSA,A,3,10,14,15,18,21,24,27,32,20,8,12,138,2.0,0.8,1.5*37
2017-12-01 14:06:42 1512155202.328695: $GPZDA,190643.00,01,12,2017,00,00*69
2017-12-01 14:06:42 1512155202.328886: $GPGGA,190643,3946.9564,N,08404.9832,W,2,12,0.80,296.44,M,-33.324,M,,*7A
2017-12-01 14:06:42 1512155202.328956: $GPRMC,190643,A,3946.9564,N,08404.9832,W,0.0000,0.000,011217,,*3C
2017-12-01 14:06:42 1512155202.329017: $GPGSA,A,3,10,14,15,18,21,24,27,32,20,8,12,138,2.0,0.8,1.5*37
2017-12-01 14:06:43 1512155203.665506: $GPGSV,3,1,12,10,62,322,50,14,23,247,40,15,17,063,35,18,75,072,43*72
2017-12-01 14:06:43 1512155203.665676: $GPGSV,3,2,12,21,36,180,44,24,49,067,47,27,10,265,42,32,40,258,43*73
2017-12-01 14:06:43 1512155203.665743: $GPGSV,3,3,12,20,15,114,32,08,07,300,30,12,04,112,23,138,38,213,46*41
2017-12-01 14:06:43 1512155203.778968: $GPZDA,190644.00,01,12,2017,00,00*6E
2017-12-01 14:06:43 1512155203.779162: $GPGGA,190644,3946.9564,N,08404.9832,W,2,12,0.80,296.44,M,-33.324,M,,*7D
2017-12-01 14:06:43 1512155203.779234: $GPRMC,190644,A,3946.9564,N,08404.9832,W,0.0000,0.000,011217,,*3B
2017-12-01 14:06:43 1512155203.779296: $GPGSA,A,3,10,14,15,18,21,24,27,32,20,8,12,138,2.0,0.8,1.5*37
2017-12-01 14:06:44 1512155204.326078: $GPZDA,190645.00,01,12,2017,00,00*6F
2017-12-01 14:06:44 1512155204.326268: $GPGGA,190645,3946.9564,N,08404.9832,W,2,12,0.80,296.44,M,-33.324,M,,*7C
2017-12-01 14:06:44 1512155204.326336: $GPRMC,190645,A,3946.9564,N,08404.9832,W,0.0000,0.000,011217,,*3A
2017-12-01 14:06:44 1512155204.326397: $GPGSA,A,3,10,14,15,18,21,24,27,32,20,8,12,138,2.0,0.8,1.5*37
2017-12-01 14:06:45 1512155205.329348: $GPZDA,190646.00,01,12,2017,00,00*6C
2017-12-01 14:06:45 1512155205.329559: $GPGGA,190646,3946.9565,N,08404.9832,W,2,12,0.80,297.84,M,-33.324,M,,*73
2017-12-01 14:06:45 1512155205.329629: $GPRMC,190646,A,3946.9565,N,08404.9832,W,0.0000,0.000,011217,,*38
2017-12-01 14:06:45 1512155205.329691: $GPGSA,A,3,10,14,15,18,21,24,27,32,20,8,12,138,2.0,0.8,1.5*37
2017-12-01 14:06:46 1512155206.664545: $GPGSV,3,1,12,10,62,322,49,14,23,247,40,15,17,063,35,18,75,072,43*7A
2017-12-01 14:06:46 1512155206.664748: $GPGSV,3,2,12,21,36,180,44,24,49,067,47,27,10,265,42,32,40,258,43*73
2017-12-01 14:06:46 1512155206.664817: $GPGSV,3,3,12,20,15,114,32,08,07,300,33,12,04,112,23,138,38,213,46*42
2017-12-01 14:06:46 1512155206.778096: $GPZDA,190647.00,01,12,2017,00,00*6D
2017-12-01 14:06:46 1512155206.778250: $GPGGA,190647,3946.9565,N,08404.9832,W,2,12,0.80,297.84,M,-33.324,M,,*72
2017-12-01 14:06:46 1512155206.778377: $GPRMC,190647,A,3946.9565,N,08404.9832,W,0.0000,0.000,011217,,*39
2017-12-01 14:06:46 1512155206.778442: $GPGSA,A,3,10,14,15,18,21,24,27,32,20,8,12,138,2.0,0.8,1.5*37
2017-12-01 14:06:47 1512155207.327535: $GPZDA,190648.00,01,12,2017,00,00*62
2017-12-01 14:06:47 1512155207.327718: $GPGGA,190648,3946.9565,N,08404.9832,W,2,12,0.80,297.84,M,-33.324,M,,*7D
2017-12-01 14:06:47 1512155207.327786: $GPRMC,190648,A,3946.9565,N,08404.9832,W,0.0000,0.000,011217,,*36
2017-12-01 14:06:47 1512155207.327847: $GPGSA,A,3,10,14,15,18,21,24,27,32,20,8,12,138,2.0,0.8,1.5*37
2017-12-01 14:06:48 1512155208.327159: $GPZDA,190649.00,01,12,2017,00,00*63
2017-12-01 14:06:48 1512155208.327332: $GPGGA,190649,3946.9565,N,08404.9832,W,2,12,0.80,297.84,M,-33.324,M,,*7C
2017-12-01 14:06:48 1512155208.327398: $GPRMC,190649,A,3946.9565,N,08404.9832,W,0.0000,0.000,011217,,*37
2017-12-01 14:06:48 1512155208.327459: $GPGSA,A,3,10,14,15,18,21,24,27,32,20,8,12,138,2.0,0.8,1.5*37
2017-12-01 14:06:49 1512155209.666669: $GPGSV,3,1,12,10,62,322,49,14,23,247,40,15,17,063,35,18,75,072,42*7B
2017-12-01 14:06:49 1512155209.666853: $GPGSV,3,2,12,21,36,180,44,24,49,067,48,27,10,265,43,32,40,258,43*7D
2017-12-01 14:06:49 1512155209.666920: $GPGSV,3,3,12,20,15,114,32,08,07,300,33,12,04,112,23,138,38,213,46*42
2017-12-01 14:06:49 1512155209.779963: $GPZDA,190650.00,01,12,2017,00,00*6B
2017-12-01 14:06:49 1512155209.780096: $GPGGA,190650,3946.9569,N,08404.9832,W,2,12,0.80,298.48,M,-33.324,M,,*77
2017-12-01 14:06:49 1512155209.780162: $GPRMC,190650,A,3946.9569,N,08404.9832,W,0.0000,0.000,011217,,*33
2017-12-01 14:06:49 1512155209.780223: $GPGSA,A,3,10,14,15,18,21,24,27,32,20,8,12,138,2.0,0.8,1.5*37
2017-12-01 14:06:50 1512155210.405396: $GPZDA,190651.00,01,12,2017,00,00*6A
2017-12-01 14:06:50 1512155210.405562: $GPGGA,190651,3946.9569,N,08404.9832,W,2,12,0.80,298.48,M,-33.324,M,,*76
2017-12-01 14:06:50 1512155210.405631: $GPRMC,190651,A,3946.9569,N,08404.9832,W,0.0000,0.000,011217,,*32
2017-12-01 14:06:50 1512155210.405693: $GPGSA,A,3,10,14,15,18,21,24,27,32,20,8,12,138,2.0,0.8,1.5*37
2017-12-01 14:06:51 1512155211.327503: $GPZDA,190652.00,01,12,2017,00,00*69
2017-12-01 14:06:51 1512155211.327686: $GPGGA,190652,3946.9569,N,08404.9832,W,2,12,0.80,298.48,M,-33.324,M,,*75
2017-12-01 14:06:51 1512155211.327754: $GPRMC,190652,A,3946.9569,N,08404.9832,W,0.0000,0.000,011217,,*31
2017-12-01 14:06:51 1512155211.327816: $GPGSA,A,3,10,14,15,18,21,24,27,32,20,8,12,138,2.0,0.8,1.5*37
2017-12-01 14:06:52 1512155212.663279: $GPGSV,3,1,12,10,62,322,49,14,23,247,40,15,17,063,35,18,75,072,43*7A
2017-12-01 14:06:52 1512155212.663462: $GPGSV,3,2,12,21,36,180,44,24,49,067,48,27,10,265,43,32,40,258,43*7D
2017-12-01 14:06:52 1512155212.663529: $GPGSV,3,3,12,20,15,114,32,08,07,300,34,12,04,112,23,138,38,213,47*44
2017-12-01 14:06:52 1512155212.776885: $GPZDA,190653.00,01,12,2017,00,00*68
2017-12-01 14:06:52 1512155212.777076: $GPGGA,190653,3946.9566,N,08404.9833,W,2,12,0.80,299.25,M,-33.324,M,,*70
2017-12-01 14:06:52 1512155212.777146: $GPRMC,190653,A,3946.9566,N,08404.9833,W,0.0000,0.000,011217,,*3E
2017-12-01 14:06:52 1512155212.777208: $GPGSA,A,3,10,14,15,18,21,24,27,32,20,8,12,138,2.0,0.8,1.5*37
2017-12-01 14:06:53 1512155213.328797: $GPZDA,190654.00,01,12,2017,00,00*6F
2017-12-01 14:06:53 1512155213.328976: $GPGGA,190654,3946.9566,N,08404.9833,W,2,12,0.80,299.25,M,-33.324,M,,*77
2017-12-01 14:06:53 1512155213.329044: $GPRMC,190654,A,3946.9566,N,08404.9833,W,0.0000,0.000,011217,,*39
2017-12-01 14:06:53 1512155213.329106: $GPGSA,A,3,10,14,15,18,21,24,27,32,20,8,12,138,2.0,0.8,1.5*37
2017-12-01 14:06:54 1512155214.327338: $GPZDA,190655.00,01,12,2017,00,00*6E
2017-12-01 14:06:54 1512155214.327509: $GPGGA,190655,3946.9566,N,08404.9833,W,2,12,0.80,299.25,M,-33.324,M,,*76
2017-12-01 14:06:54 1512155214.327576: $GPRMC,190655,A,3946.9566,N,08404.9833,W,0.0000,0.000,011217,,*38
2017-12-01 14:06:54 1512155214.327638: $GPGSA,A,3,10,14,15,18,21,24,27,32,20,8,12,138,2.0,0.8,1.5*37
