2017-12-29 11:11:44 1514563904.936679: {"class":"VERSION","release":"3.16","rev":"3.16-4","proto_major":3,"proto_minor":11}
2017-12-29 11:11:44 1514563904.937020: {"class":"DEVICES","devices":[{"class":"DEVICE","path":"/dev/ttyUSB0","driver":"SiRF","subtype":"9\u0006GSD4e_4.1.2-P1_RPATCH.05-F-GPS-4R-1510281 11/03/2015 307","activated":"2017-12-29T16:11:44.892Z","flags":1,"native":1,"bps":4800,"parity":"N","stopbits":1,"cycle":1.00}]}
2017-12-29 11:11:44 1514563904.937134: {"class":"WATCH","enable":true,"json":false,"nmea":true,"raw":0,"scaled":false,"timing":false,"split24":false,"pps":false}
2017-12-29 11:11:45 1514563905.480156: $GPZDA,161146.00,29,12,2017,00,00*6F
2017-12-29 11:11:45 1514563905.480307: $GPGGA,161146,3946.9594,N,08404.9879,W,2,11,1.20,297.56,M,-33.324,M,,*7C
2017-12-29 11:11:45 1514563905.480372: $GPRMC,161146,A,3946.9594,N,08404.9879,W,0.0000,0.000,291217,,*3A
2017-12-29 11:11:45 1514563905.480433: $GPGSA,A,3,8,10,15,18,20,21,24,27,32,13,138,,1.7,1.2,1.3*3A
2017-12-29 11:11:46 1514563906.401080: $GPZDA,161147.00,29,12,2017,00,00*6E
2017-12-29 11:11:46 1514563906.401249: $GPGGA,161147,3946.9594,N,08404.9879,W,2,11,1.20,297.56,M,-33.324,M,,*7D
2017-12-29 11:11:46 1514563906.401316: $GPRMC,161147,A,3946.9594,N,08404.9879,W,0.0000,0.000,291217,,*3B
2017-12-29 11:11:46 1514563906.401377: $GPGSA,A,3,8,10,15,18,20,21,24,27,32,13,138,,1.7,1.2,1.3*3A
2017-12-29 11:11:47 1514563907.741767: $GPGSV,3,1,12,08,05,325,24,10,40,300,41,15,39,052,48,18,70,333,42*7A
2017-12-29 11:11:47 1514563907.741924: $GPGSV,3,2,12,20,36,093,48,21,66,192,44,24,49,114,46,27,19,292,28*70
2017-12-29 11:11:47 1514563907.741991: $GPGSV,3,3,12,32,20,237,34,13,10,048,23,14,01,231,00,138,38,213,45*42
2017-12-29 11:11:47 1514563907.855294: $GPZDA,161148.00,29,12,2017,00,00*61
2017-12-29 11:11:47 1514563907.855456: $GPGGA,161148,3946.9594,N,08404.9879,W,2,11,1.20,297.56,M,-33.324,M,,*72
2017-12-29 11:11:47 1514563907.855521: $GPRMC,161148,A,3946.9594,N,08404.9879,W,0.0000,0.000,291217,,*34
2017-12-29 11:11:47 1514563907.855582: $GPGSA,A,3,8,10,15,18,20,21,24,27,32,13,138,,1.7,1.2,1.3*3A
2017-12-29 11:11:48 1514563908.404759: $GPZDA,161149.00,29,12,2017,00,00*60
2017-12-29 11:11:48 1514563908.404912: $GPGGA,161149,3946.9594,N,08404.9879,W,2,11,1.20,297.56,M,-33.324,M,,*73
2017-12-29 11:11:48 1514563908.404977: $GPRMC,161149,A,3946.9594,N,08404.9879,W,0.0000,0.000,291217,,*35
2017-12-29 11:11:48 1514563908.405037: $GPGSA,A,3,8,10,15,18,20,21,24,27,32,13,138,,1.7,1.2,1.3*3A
2017-12-29 11:11:49 1514563909.406908: $GPZDA,161150.00,29,12,2017,00,00*68
2017-12-29 11:11:49 1514563909.407082: $GPGGA,161150,3946.9594,N,08404.9878,W,2,11,1.20,296.15,M,-33.324,M,,*7C
2017-12-29 11:11:49 1514563909.407148: $GPRMC,161150,A,3946.9594,N,08404.9878,W,0.3423,4.196,291217,,*30
2017-12-29 11:11:49 1514563909.407210: $GPGSA,A,3,8,10,15,18,20,21,24,27,32,13,138,,1.7,1.2,1.3*3A
2017-12-29 11:11:50 1514563910.744629: $GPGSV,3,1,12,08,05,325,23,10,40,300,41,15,39,052,48,18,70,333,42*7D
2017-12-29 11:11:50 1514563910.744775: $GPGSV,3,2,12,20,36,093,48,21,66,192,44,24,49,114,46,27,19,292,29*71
2017-12-29 11:11:50 1514563910.744842: $GPGSV,3,3,12,32,20,237,34,13,10,048,22,14,01,231,02,138,38,213,46*42
2017-12-29 11:11:50 1514563910.858020: $GPZDA,161151.00,29,12,2017,00,00*69
2017-12-29 11:11:50 1514563910.858182: $GPGGA,161151,3946.9594,N,08404.9878,W,2,11,1.20,296.15,M,-33.324,M,,*7D
2017-12-29 11:11:50 1514563910.858247: $GPRMC,161151,A,3946.9594,N,08404.9878,W,0.0000,0.000,291217,,*3D
2017-12-29 11:11:50 1514563910.858307: $GPGSA,A,3,8,10,15,18,20,21,24,27,32,13,138,,1.7,1.2,1.3*3A
2017-12-29 11:11:51 1514563911.405165: $GPZDA,161152.00,29,12,2017,00,00*6A
2017-12-29 11:11:51 1514563911.405346: $GPGGA,161152,3946.9594,N,08404.9878,W,2,11,1.20,296.15,M,-33.324,M,,*7E
2017-12-29 11:11:51 1514563911.405413: $GPRMC,161152,A,3946.9594,N,08404.9878,W,0.0000,0.000,291217,,*3E
2017-12-29 11:11:51 1514563911.405475: $GPGSA,A,3,8,10,15,18,20,21,24,27,32,13,138,,1.7,1.2,1.3*3A
2017-12-29 11:11:52 1514563912.404742: $GPZDA,161153.00,29,12,2017,00,00*6B
2017-12-29 11:11:52 1514563912.404960: $GPGGA,161153,3946.9594,N,08404.9878,W,2,11,1.20,296.15,M,-33.324,M,,*7F
2017-12-29 11:11:52 1514563912.405028: $GPRMC,161153,A,3946.9594,N,08404.9878,W,0.0000,0.000,291217,,*3F
2017-12-29 11:11:52 1514563912.405089: $GPGSA,A,3,8,10,15,18,20,21,24,27,32,13,138,,1.7,1.2,1.3*3A
2017-12-29 11:11:53 1514563913.741741: $GPGSV,3,1,12,08,05,325,19,10,40,300,42,15,39,052,48,18,70,333,42*77
2017-12-29 11:11:53 1514563913.741912: $GPGSV,3,2,12,20,36,093,47,21,66,192,44,24,49,114,46,27,19,292,34*72
2017-12-29 11:11:53 1514563913.741979: $GPGSV,3,3,12,32,20,237,34,13,10,048,22,14,01,231,00,138,38,213,46*40
2017-12-29 11:11:53 1514563913.855095: $GPZDA,161154.00,29,12,2017,00,00*6C
2017-12-29 11:11:53 1514563913.855251: $GPGGA,161154,3946.9594,N,08404.9878,W,2,11,1.20,296.15,M,-33.324,M,,*78
2017-12-29 11:11:53 1514563913.855316: $GPRMC,161154,A,3946.9594,N,08404.9878,W,0.0000,0.000,291217,,*38
2017-12-29 11:11:53 1514563913.855377: $GPGSA,A,3,8,10,15,18,20,21,24,27,32,13,138,,1.7,1.2,1.3*3A
2017-12-29 11:11:54 1514563914.405965: $GPZDA,161155.00,29,12,2017,00,00*6D
2017-12-29 11:11:54 1514563914.406140: $GPGGA,161155,3946.9594,N,08404.9878,W,2,11,1.20,296.15,M,-33.324,M,,*79
2017-12-29 11:11:54 1514563914.406229: $GPRMC,161155,A,3946.9594,N,08404.9878,W,0.0000,0.000,291217,,*39
2017-12-29 11:11:54 1514563914.406292: $GPGSA,A,3,8,10,15,18,20,21,24,27,32,13,138,,1.7,1.2,1.3*3A
2017-12-29 11:11:55 1514563915.405084: $GPZDA,161156.00,29,12,2017,00,00*6E
2017-12-29 11:11:55 1514563915.405239: $GPGGA,161156,3946.9594,N,08404.9878,W,2,11,1.20,296.15,M,-33.324,M,,*7A
2017-12-29 11:11:55 1514563915.405303: $GPRMC,161156,A,3946.9594,N,08404.9878,W,0.0000,0.000,291217,,*3A
2017-12-29 11:11:55 1514563915.405365: $GPGSA,A,3,8,10,15,18,20,21,24,27,32,13,138,,1.7,1.2,1.3*3A
2017-12-29 11:11:56 1514563916.740928: $GPGSV,3,1,12,08,05,325,21,10,40,300,42,15,39,052,48,18,70,333,42*7C
2017-12-29 11:11:56 1514563916.741134: $GPGSV,3,2,12,20,36,093,48,21,66,192,44,24,49,114,46,27,19,292,34*7D
2017-12-29 11:11:56 1514563916.741204: $GPGSV,3,3,12,32,20,237,33,13,10,048,22,14,01,231,00,138,38,213,45*44
2017-12-29 11:11:56 1514563916.854573: $GPZDA,161157.00,29,12,2017,00,00*6F
2017-12-29 11:11:56 1514563916.854735: $GPGGA,161157,3946.9594,N,08404.9878,W,2,11,1.20,296.15,M,-33.324,M,,*7B
2017-12-29 11:11:56 1514563916.854802: $GPRMC,161157,A,3946.9594,N,08404.9878,W,0.0000,0.000,291217,,*3B
2017-12-29 11:11:56 1514563916.854863: $GPGSA,A,3,8,10,15,18,20,21,24,27,32,13,138,,1.7,1.2,1.3*3A
2017-12-29 11:11:57 1514563917.400389: $GPZDA,161158.00,29,12,2017,00,00*60
2017-12-29 11:11:57 1514563917.400555: $GPGGA,161158,3946.9594,N,08404.9878,W,2,11,1.20,296.15,M,-33.324,M,,*74
2017-12-29 11:11:57 1514563917.400621: $GPRMC,161158,A,3946.9594,N,08404.9878,W,0.0000,0.000,291217,,*34
2017-12-29 11:11:57 1514563917.400682: $GPGSA,A,3,8,10,15,18,20,21,24,27,32,13,138,,1.7,1.2,1.3*3A
2017-12-29 11:11:58 1514563918.400005: $GPZDA,161159.00,29,12,2017,00,00*61
2017-12-29 11:11:58 1514563918.400176: $GPGGA,161159,3946.9594,N,08404.9878,W,2,11,1.20,296.15,M,-33.324,M,,*75
2017-12-29 11:11:58 1514563918.400242: $GPRMC,161159,A,3946.9594,N,08404.9878,W,0.0000,0.000,291217,,*35
2017-12-29 11:11:58 1514563918.400303: $GPGSA,A,3,8,10,15,18,20,21,24,27,32,13,138,,1.7,1.2,1.3*3A
2017-12-29 11:11:59 1514563919.735502: $GPGSV,3,1,12,08,05,325,26,10,40,300,43,15,39,052,48,18,70,333,42*7A
2017-12-29 11:11:59 1514563919.735682: $GPGSV,3,2,12,20,36,093,48,21,66,192,44,24,49,114,46,27,19,292,34*7D
2017-12-29 11:11:59 1514563919.735748: $GPGSV,3,3,12,32,20,237,33,13,10,048,22,14,01,231,00,138,38,213,45*44
2017-12-29 11:11:59 1514563919.849127: $GPZDA,161200.00,29,12,2017,00,00*6E
2017-12-29 11:11:59 1514563919.849292: $GPGGA,161200,3946.9594,N,08404.9878,W,2,11,1.20,296.15,M,-33.324,M,,*7A
2017-12-29 11:11:59 1514563919.849357: $GPRMC,161200,A,3946.9594,N,08404.9878,W,0.0000,0.000,291217,,*3A
2017-12-29 11:11:59 1514563919.849418: $GPGSA,A,3,8,10,15,18,20,21,24,27,32,13,138,,1.7,1.2,1.3*3A
2017-12-29 11:12:00 1514563920.475750: $GPZDA,161201.00,29,12,2017,00,00*6F
2017-12-29 11:12:00 1514563920.475967: $GPGGA,161201,3946.9594,N,08404.9878,W,2,11,1.20,296.15,M,-33.324,M,,*7B
2017-12-29 11:12:00 1514563920.476036: $GPRMC,161201,A,3946.9594,N,08404.9878,W,0.0000,0.000,291217,,*3B
2017-12-29 11:12:00 1514563920.476097: $GPGSA,A,3,8,10,15,18,20,21,24,27,32,13,138,,1.7,1.2,1.3*3A
2017-12-29 11:12:01 1514563921.406626: $GPZDA,161202.00,29,12,2017,00,00*6C
2017-12-29 11:12:01 1514563921.406784: $GPGGA,161202,3946.9594,N,08404.9878,W,2,11,1.20,296.15,M,-33.324,M,,*78
2017-12-29 11:12:01 1514563921.406850: $GPRMC,161202,A,3946.9594,N,08404.9878,W,0.0000,0.000,291217,,*38
2017-12-29 11:12:01 1514563921.406910: $GPGSA,A,3,8,10,15,18,20,21,24,27,32,13,138,,1.7,1.2,1.3*3A
2017-12-29 11:12:02 1514563922.742108: $GPGSV,3,1,12,08,05,325,28,10,40,300,44,15,39,052,48,18,70,333,43*72
2017-12-29 11:12:02 1514563922.742259: $GPGSV,3,2,12,20,36,093,48,21,66,192,44,24,49,114,46,27,19,292,34*7D
2017-12-29 11:12:02 1514563922.742323: $GPGSV,3,3,12,32,20,237,33,13,10,048,22,14,01,231,00,138,38,213,45*44
2017-12-29 11:12:02 1514563922.855743: $GPZDA,161203.00,29,12,2017,00,00*6D
2017-12-29 11:12:02 1514563922.855903: $GPGGA,161203,3946.9594,N,08404.9878,W,2,11,1.20,296.15,M,-33.324,M,,*79
2017-12-29 11:12:02 1514563922.855969: $GPRMC,161203,A,3946.9594,N,08404.9878,W,0.0000,0.000,291217,,*39
2017-12-29 11:12:02 1514563922.856029: $GPGSA,A,3,8,10,15,18,20,21,24,27,32,13,138,,1.7,1.2,1.3*3A
2017-12-29 11:12:03 1514563923.399110: $GPZDA,161204.00,29,12,2017,00,00*6A
2017-12-29 11:12:03 1514563923.399266: $GPGGA,161204,3946.9594,N,08404.9878,W,2,11,1.20,296.15,M,-33.324,M,,*7E
2017-12-29 11:12:03 1514563923.399332: $GPRMC,161204,A,3946.9594,N,08404.9878,W,0.0000,0.000,291217,,*3E
2017-12-29 11:12:03 1514563923.399393: $GPGSA,A,3,8,10,15,18,20,21,24,27,32,13,138,,1.7,1.2,1.3*3A
2017-12-29 11:12:04 1514563924.399984: $GPZDA,161205.00,29,12,2017,00,00*6B
2017-12-29 11:12:04 1514563924.400144: $GPGGA,161205,3946.9594,N,08404.9878,W,2,11,1.20,296.15,M,-33.324,M,,*7F
2017-12-29 11:12:04 1514563924.400211: $GPRMC,161205,A,3946.9594,N,08404.9878,W,0.0000,0.000,291217,,*3F
2017-12-29 11:12:04 1514563924.400272: $GPGSA,A,3,8,10,15,18,20,21,24,27,32,13,138,,1.7,1.2,1.3*3A
2017-12-29 11:12:05 1514563925.736238: $GPGSV,3,1,12,08,05,325,28,10,40,300,44,15,39,052,48,18,70,333,42*73
2017-12-29 11:12:05 1514563925.736422: $GPGSV,3,2,12,20,36,093,48,21,66,192,44,24,49,114,46,27,19,292,34*7D
2017-12-29 11:12:05 1514563925.736490: $GPGSV,3,3,12,32,20,237,34,13,10,048,23,14,01,231,00,138,38,213,44*43
2017-12-29 11:12:05 1514563925.849868: $GPZDA,161206.00,29,12,2017,00,00*68
2017-12-29 11:12:05 1514563925.850036: $GPGGA,161206,3946.9594,N,08404.9878,W,2,11,1.20,296.15,M,-33.324,M,,*7C
2017-12-29 11:12:05 1514563925.850101: $GPRMC,161206,A,3946.9594,N,08404.9878,W,0.0000,0.000,291217,,*3C
2017-12-29 11:12:05 1514563925.850162: $GPGSA,A,3,8,10,15,18,20,21,24,27,32,13,138,,1.7,1.2,1.3*3A
2017-12-29 11:12:06 1514563926.410645: $GPZDA,161207.00,29,12,2017,00,00*69
2017-12-29 11:12:06 1514563926.410804: $GPGGA,161207,3946.9594,N,08404.9878,W,2,11,1.20,296.15,M,-33.324,M,,*7D
2017-12-29 11:12:06 1514563926.410869: $GPRMC,161207,A,3946.9594,N,08404.9878,W,0.0000,0.000,291217,,*3D
2017-12-29 11:12:06 1514563926.410930: $GPGSA,A,3,8,10,15,18,20,21,24,27,32,13,138,,1.7,1.2,1.3*3A
2017-12-29 11:12:07 1514563927.406411: $GPZDA,161208.00,29,12,2017,00,00*66
2017-12-29 11:12:07 1514563927.406584: $GPGGA,161208,3946.9594,N,08404.9878,W,2,11,1.20,296.15,M,-33.324,M,,*72
2017-12-29 11:12:07 1514563927.406652: $GPRMC,161208,A,3946.9594,N,08404.9878,W,0.0000,0.000,291217,,*32
2017-12-29 11:12:07 1514563927.406713: $GPGSA,A,3,8,10,15,18,20,21,24,27,32,13,138,,1.7,1.2,1.3*3A
2017-12-29 11:12:08 1514563928.757110: $GPGSV,3,1,12,08,05,325,29,10,40,300,44,15,39,052,48,18,70,333,42*72
2017-12-29 11:12:08 1514563928.757276: $GPGSV,3,2,12,20,36,093,47,21,66,192,44,24,49,114,46,27,19,292,34*72
2017-12-29 11:12:08 1514563928.757343: $GPGSV,3,3,12,32,20,237,34,13,10,048,23,14,01,231,00,138,38,213,44*43
2017-12-29 11:12:08 1514563928.870508: $GPZDA,161209.00,29,12,2017,00,00*67
2017-12-29 11:12:08 1514563928.870672: $GPGGA,161209,3946.9594,N,08404.9878,W,2,11,1.20,296.15,M,-33.324,M,,*73
2017-12-29 11:12:08 1514563928.870737: $GPRMC,161209,A,3946.9594,N,08404.9878,W,0.0000,0.000,291217,,*33
2017-12-29 11:12:08 1514563928.870799: $GPGSA,A,3,8,10,15,18,20,21,24,27,32,13,138,,1.7,1.2,1.3*3A
2017-12-29 11:12:09 1514563929.422910: $GPZDA,161210.00,29,12,2017,00,00*6F
2017-12-29 11:12:09 1514563929.423067: $GPGGA,161210,3946.9594,N,08404.9878,W,2,11,1.20,296.15,M,-33.324,M,,*7B
2017-12-29 11:12:09 1514563929.423153: $GPRMC,161210,A,3946.9594,N,08404.9878,W,0.0000,0.000,291217,,*3B
2017-12-29 11:12:09 1514563929.423215: $GPGSA,A,3,8,10,15,18,20,21,24,27,32,13,138,,1.7,1.2,1.3*3A
