2017-12-29 10:48:27 1514562507.046871: {"class":"VERSION","release":"3.16","rev":"3.16-4","proto_major":3,"proto_minor":11}
2017-12-29 10:48:27 1514562507.047229: {"class":"DEVICES","devices":[{"class":"DEVICE","path":"/dev/ttyUSB0","driver":"SiRF","subtype":"9\u0006GSD4e_4.1.2-P1_RPATCH.05-F-GPS-4R-1510281 11/03/2015 307","activated":"2017-12-29T15:48:26.538Z","flags":1,"native":1,"bps":4800,"parity":"N","stopbits":1,"cycle":1.00}]}
2017-12-29 10:48:27 1514562507.047343: {"class":"WATCH","enable":true,"json":false,"nmea":true,"raw":0,"scaled":false,"timing":false,"split24":false,"pps":false}
2017-12-29 10:48:27 1514562507.733220: $GPGSV,3,1,11,10,32,291,43,13,19,046,43,15,49,049,50,18,63,315,44*73
2017-12-29 10:48:27 1514562507.733378: $GPGSV,3,2,11,20,44,084,50,21,76,211,47,24,43,127,51,27,19,303,40*78
2017-12-29 10:48:27 1514562507.733444: $GPGSV,3,3,11,32,11,231,30,29,01,186,32,138,38,213,45*7F
2017-12-29 10:48:27 1514562507.846605: $GPZDA,154828.00,29,12,2017,00,00*68
2017-12-29 10:48:27 1514562507.846753: $GPGGA,154828,3946.9603,N,08404.9833,W,2,11,0.80,305.01,M,-33.324,M,,*7B
2017-12-29 10:48:27 1514562507.846842: $GPRMC,154828,A,3946.9603,N,08404.9833,W,0.0000,0.000,291217,,*3E
2017-12-29 10:48:27 1514562507.846904: $GPGSA,A,3,10,13,15,18,20,21,24,27,32,29,138,,1.7,0.8,1.3*02
2017-12-29 10:48:28 1514562508.396495: $GPZDA,154829.00,29,12,2017,00,00*69
2017-12-29 10:48:28 1514562508.396673: $GPGGA,154829,3946.9603,N,08404.9833,W,2,11,0.80,305.01,M,-33.324,M,,*7A
2017-12-29 10:48:28 1514562508.396738: $GPRMC,154829,A,3946.9603,N,08404.9833,W,0.0000,0.000,291217,,*3F
2017-12-29 10:48:28 1514562508.396823: $GPGSA,A,3,10,13,15,18,20,21,24,27,32,29,138,,1.7,0.8,1.3*02
2017-12-29 10:48:29 1514562509.396855: $GPZDA,154830.00,29,12,2017,00,00*61
2017-12-29 10:48:29 1514562509.397027: $GPGGA,154830,3946.9603,N,08404.9833,W,2,11,0.80,305.01,M,-33.324,M,,*72
2017-12-29 10:48:29 1514562509.397093: $GPRMC,154830,A,3946.9603,N,08404.9833,W,0.0000,0.000,291217,,*37
2017-12-29 10:48:29 1514562509.397154: $GPGSA,A,3,10,13,15,18,20,21,24,27,32,29,138,,1.7,0.8,1.3*02
2017-12-29 10:48:30 1514562510.731161: $GPGSV,3,1,11,10,32,291,42,13,19,046,43,15,49,049,50,18,63,315,44*72
2017-12-29 10:48:30 1514562510.731317: $GPGSV,3,2,11,20,44,084,50,21,76,211,48,24,43,127,51,27,19,303,40*77
2017-12-29 10:48:30 1514562510.731386: $GPGSV,3,3,11,32,11,231,31,29,01,186,32,138,38,213,45*7E
2017-12-29 10:48:30 1514562510.844463: $GPZDA,154831.00,29,12,2017,00,00*60
2017-12-29 10:48:30 1514562510.844604: $GPGGA,154831,3946.9603,N,08404.9833,W,2,11,0.80,305.01,M,-33.324,M,,*73
2017-12-29 10:48:30 1514562510.844669: $GPRMC,154831,A,3946.9603,N,08404.9833,W,0.0000,0.000,291217,,*36
2017-12-29 10:48:30 1514562510.844729: $GPGSA,A,3,10,13,15,18,20,21,24,27,32,29,138,,1.7,0.8,1.3*02
2017-12-29 10:48:31 1514562511.396589: $GPZDA,154832.00,29,12,2017,00,00*63
2017-12-29 10:48:31 1514562511.396750: $GPGGA,154832,3946.9603,N,08404.9833,W,2,11,0.80,305.01,M,-33.324,M,,*70
2017-12-29 10:48:31 1514562511.396844: $GPRMC,154832,A,3946.9603,N,08404.9833,W,0.0000,0.000,291217,,*35
2017-12-29 10:48:31 1514562511.396925: $GPGSA,A,3,10,13,15,18,20,21,24,27,32,29,138,,1.7,0.8,1.3*02
2017-12-29 10:48:32 1514562512.396211: $GPZDA,154833.00,29,12,2017,00,00*62
2017-12-29 10:48:32 1514562512.396369: $GPGGA,154833,3946.9603,N,08404.9833,W,2,11,0.80,305.01,M,-33.324,M,,*71
2017-12-29 10:48:32 1514562512.396436: $GPRMC,154833,A,3946.9603,N,08404.9833,W,0.0000,0.000,291217,,*34
2017-12-29 10:48:32 1514562512.396496: $GPGSA,A,3,10,13,15,18,20,21,24,27,32,29,138,,1.7,0.8,1.3*02
2017-12-29 10:48:33 1514562513.730700: $GPGSV,3,1,11,10,32,291,42,13,19,046,43,15,49,049,50,18,63,315,44*72
2017-12-29 10:48:33 1514562513.730887: $GPGSV,3,2,11,20,44,084,50,21,76,211,47,24,43,127,51,27,19,303,40*78
2017-12-29 10:48:33 1514562513.730989: $GPGSV,3,3,11,32,11,231,31,29,01,186,32,138,38,213,46*7D
2017-12-29 10:48:33 1514562513.844334: $GPZDA,154834.00,29,12,2017,00,00*65
2017-12-29 10:48:33 1514562513.844474: $GPGGA,154834,3946.9603,N,08404.9833,W,2,11,0.80,305.01,M,-33.324,M,,*76
2017-12-29 10:48:33 1514562513.844592: $GPRMC,154834,A,3946.9603,N,08404.9833,W,0.0000,0.000,291217,,*33
2017-12-29 10:48:33 1514562513.844654: $GPGSA,A,3,10,13,15,18,20,21,24,27,32,29,138,,1.7,0.8,1.3*02
2017-12-29 10:48:34 1514562514.469712: $GPZDA,154835.00,29,12,2017,00,00*64
2017-12-29 10:48:34 1514562514.469920: $GPGGA,154835,3946.9603,N,08404.9833,W,2,11,0.80,305.01,M,-33.324,M,,*77
2017-12-29 10:48:34 1514562514.469988: $GPRMC,154835,A,3946.9603,N,08404.9833,W,0.0000,0.000,291217,,*32
2017-12-29 10:48:34 1514562514.470048: $GPGSA,A,3,10,13,15,18,20,21,24,27,32,29,138,,1.7,0.8,1.3*02
2017-12-29 10:48:35 1514562515.399326: $GPZDA,154836.00,29,12,2017,00,00*67
2017-12-29 10:48:35 1514562515.399488: $GPGGA,154836,3946.9603,N,08404.9833,W,2,11,0.80,305.01,M,-33.324,M,,*74
2017-12-29 10:48:35 1514562515.399555: $GPRMC,154836,A,3946.9603,N,08404.9833,W,0.0000,0.000,291217,,*31
2017-12-29 10:48:35 1514562515.399616: $GPGSA,A,3,10,13,15,18,20,21,24,27,32,29,138,,1.7,0.8,1.3*02
2017-12-29 10:48:36 1514562516.736069: $GPGSV,3,1,11,10,32,291,42,13,19,046,43,15,49,049,50,18,63,315,44*72
2017-12-29 10:48:36 1514562516.736238: $GPGSV,3,2,11,20,44,084,50,21,76,211,47,24,43,127,51,27,19,303,40*78
2017-12-29 10:48:36 1514562516.736304: $GPGSV,3,3,11,32,11,231,31,29,01,186,32,138,38,213,45*7E
2017-12-29 10:48:36 1514562516.849673: $GPZDA,154837.00,29,12,2017,00,00*66
2017-12-29 10:48:36 1514562516.849829: $GPGGA,154837,3946.9603,N,08404.9833,W,2,11,0.80,305.01,M,-33.324,M,,*75
2017-12-29 10:48:36 1514562516.849912: $GPRMC,154837,A,3946.9603,N,08404.9833,W,0.0000,0.000,291217,,*30
2017-12-29 10:48:36 1514562516.849974: $GPGSA,A,3,10,13,15,18,20,21,24,27,32,29,138,,1.7,0.8,1.3*02
2017-12-29 10:48:37 1514562517.399327: $GPZDA,154838.00,29,12,2017,00,00*69
2017-12-29 10:48:37 1514562517.399493: $GPGGA,154838,3946.9603,N,08404.9833,W,2,11,0.80,305.01,M,-33.324,M,,*7A
2017-12-29 10:48:37 1514562517.399559: $GPRMC,154838,A,3946.9603,N,08404.9833,W,0.0000,0.000,291217,,*3F
2017-12-29 10:48:37 1514562517.399619: $GPGSA,A,3,10,13,15,18,20,21,24,27,32,29,138,,1.7,0.8,1.3*02
2017-12-29 10:48:38 1514562518.402754: $GPZDA,154839.00,29,12,2017,00,00*68
2017-12-29 10:48:38 1514562518.402934: $GPGGA,154839,3946.9603,N,08404.9833,W,2,11,0.80,305.01,M,-33.324,M,,*7B
2017-12-29 10:48:38 1514562518.403000: $GPRMC,154839,A,3946.9603,N,08404.9833,W,0.0000,0.000,291217,,*3E
2017-12-29 10:48:38 1514562518.403060: $GPGSA,A,3,10,13,15,18,20,21,24,27,32,29,138,,1.7,0.8,1.3*02
2017-12-29 10:48:39 1514562519.736475: $GPGSV,3,1,11,10,32,291,42,13,19,046,43,15,49,049,50,18,63,315,44*72
2017-12-29 10:48:39 1514562519.736636: $GPGSV,3,2,11,20,44,084,50,21,76,211,47,24,43,127,51,27,19,303,40*78
2017-12-29 10:48:39 1514562519.736701: $GPGSV,3,3,11,32,11,231,31,29,01,186,31,138,38,213,45*7D
2017-12-29 10:48:39 1514562519.850119: $GPZDA,154840.00,29,12,2017,00,00*66
2017-12-29 10:48:39 1514562519.850246: $GPGGA,154840,3946.9603,N,08404.9833,W,2,11,0.80,305.01,M,-33.324,M,,*75
2017-12-29 10:48:39 1514562519.850312: $GPRMC,154840,A,3946.9603,N,08404.9833,W,0.0000,0.000,291217,,*30
2017-12-29 10:48:39 1514562519.850372: $GPGSA,A,3,10,13,15,18,20,21,24,27,32,29,138,,1.7,0.8,1.3*02
2017-12-29 10:48:40 1514562520.399437: $GPZDA,154841.00,29,12,2017,00,00*67
2017-12-29 10:48:40 1514562520.399602: $GPGGA,154841,3946.9603,N,08404.9833,W,2,11,0.80,305.01,M,-33.324,M,,*74
2017-12-29 10:48:40 1514562520.399668: $GPRMC,154841,A,3946.9603,N,08404.9833,W,0.0000,0.000,291217,,*31
2017-12-29 10:48:40 1514562520.399753: $GPGSA,A,3,10,13,15,18,20,21,24,27,32,29,138,,1.7,0.8,1.3*02
2017-12-29 10:48:41 1514562521.398110: $GPZDA,154842.00,29,12,2017,00,00*64
2017-12-29 10:48:41 1514562521.398269: $GPGGA,154842,3946.9603,N,08404.9833,W,2,11,0.80,305.01,M,-33.324,M,,*77
2017-12-29 10:48:41 1514562521.398335: $GPRMC,154842,A,3946.9603,N,08404.9833,W,0.0000,0.000,291217,,*32
2017-12-29 10:48:41 1514562521.398395: $GPGSA,A,3,10,13,15,18,20,21,24,27,32,29,138,,1.7,0.8,1.3*02
