2017-11-16 14:49:09 1510861749.333543: {"class":"VERSION","release":"3.17","rev":"3.17","proto_major":3,"proto_minor":12}
2017-11-16 14:49:09 1510861749.334037: {"class":"DEVICES","devices":[{"class":"DEVICE","path":"/dev/ttyUSB0","driver":"SiRF","subtype":"9\u0006GSD4e_4.1.2-P1_RPATCH.05-F-GPS-4R-1510281 11/03/2015 307","activated":"2017-11-16T19:49:09.312Z","flags":1,"native":1,"bps":4800,"parity":"N","stopbits":1,"cycle":1.00}]}
2017-11-16 14:49:09 1510861749.334198: {"class":"WATCH","enable":true,"json":false,"nmea":true,"raw":0,"scaled":false,"timing":false,"split24":false,"pps":false}
2017-11-16 14:49:09 1510861749.825699: $GPGSV,3,1,11,08,08,307,34,10,55,313,50,15,24,058,49,18,77,033,44*76
2017-11-16 14:49:09 1510861749.825866: $GPGSV,3,2,11,21,46,183,48,20,21,108,43,24,53,081,49,27,14,273,41*77
2017-11-16 14:49:09 1510861749.825927: $GPGSV,3,3,11,32,33,250,46,14,17,241,42,138,38,213,44*7E
2017-11-16 14:49:09 1510861749.939035: $GPZDA,194908.00,16,11,2017,00,00*68
2017-11-16 14:49:09 1510861749.939192: $GPGGA,194908,3946.9568,N,08404.9842,W,2,11,0.80,303.38,M,-33.324,M,,*70
2017-11-16 14:49:09 1510861749.939254: $GPRMC,194908,A,3946.9568,N,08404.9842,W,0.0000,0.000,161117,,*36
2017-11-16 14:49:09 1510861749.939310: $GPGSA,A,3,8,10,15,18,21,20,24,27,32,14,138,,1.6,0.8,1.3*37
2017-11-16 14:49:10 1510861750.489880: $GPZDA,194909.00,16,11,2017,00,00*69
2017-11-16 14:49:10 1510861750.490044: $GPGGA,194909,3946.9572,N,08404.9841,W,2,11,0.80,302.62,M,-33.324,M,,*77
2017-11-16 14:49:10 1510861750.490106: $GPRMC,194909,A,3946.9572,N,08404.9841,W,0.0000,0.000,161117,,*3F
2017-11-16 14:49:10 1510861750.490180: $GPGSA,A,3,8,10,15,18,21,20,24,27,32,14,138,,1.6,0.8,1.3*37
2017-11-16 14:49:11 1510861751.527138: $GPZDA,194910.00,16,11,2017,00,00*61
2017-11-16 14:49:11 1510861751.527302: $GPGGA,194910,3946.9572,N,08404.9841,W,2,11,0.80,302.62,M,-33.324,M,,*7F
2017-11-16 14:49:11 1510861751.527365: $GPRMC,194910,A,3946.9572,N,08404.9841,W,0.0000,0.000,161117,,*37
2017-11-16 14:49:11 1510861751.527421: $GPGSA,A,3,8,10,15,18,21,20,24,27,32,14,138,,1.6,0.8,1.3*37
2017-11-16 14:49:12 1510861752.827687: $GPGSV,3,1,11,08,08,307,34,10,55,313,50,15,24,058,50,18,77,033,45*7F
2017-11-16 14:49:12 1510861752.827857: $GPGSV,3,2,11,21,46,183,48,20,21,108,43,24,53,081,49,27,14,273,41*77
2017-11-16 14:49:12 1510861752.827919: $GPGSV,3,3,11,32,33,250,46,14,17,241,42,138,38,213,44*7E
2017-11-16 14:49:12 1510861752.941036: $GPZDA,194911.00,16,11,2017,00,00*60
2017-11-16 14:49:12 1510861752.941197: $GPGGA,194911,3946.9572,N,08404.9841,W,2,11,0.80,302.62,M,-33.324,M,,*7E
2017-11-16 14:49:12 1510861752.941257: $GPRMC,194911,A,3946.9572,N,08404.9841,W,0.0000,0.000,161117,,*36
2017-11-16 14:49:12 1510861752.941312: $GPGSA,A,3,8,10,15,18,21,20,24,27,32,14,138,,1.6,0.8,1.3*37
2017-11-16 14:49:13 1510861753.490735: $GPZDA,194912.00,16,11,2017,00,00*63
2017-11-16 14:49:13 1510861753.491071: $GPGGA,194912,3946.9572,N,08404.9841,W,2,11,0.80,302.62,M,-33.324,M,,*7D
2017-11-16 14:49:13 1510861753.491188: $GPRMC,194912,A,3946.9572,N,08404.9841,W,0.0000,0.000,161117,,*35
2017-11-16 14:49:13 1510861753.491322: $GPGSA,A,3,8,10,15,18,21,20,24,27,32,14,138,,1.6,0.8,1.3*37
2017-11-16 14:49:14 1510861754.491143: $GPZDA,194913.00,16,11,2017,00,00*62
2017-11-16 14:49:14 1510861754.491312: $GPGGA,194913,3946.9572,N,08404.9841,W,2,11,0.80,302.62,M,-33.324,M,,*7C
2017-11-16 14:49:14 1510861754.491373: $GPRMC,194913,A,3946.9572,N,08404.9841,W,0.0000,0.000,161117,,*34
2017-11-16 14:49:14 1510861754.491428: $GPGSA,A,3,8,10,15,18,21,20,24,27,32,14,138,,1.6,0.8,1.3*37
2017-11-16 14:49:15 1510861755.826815: $GPGSV,3,1,11,08,08,307,29,10,55,313,50,15,24,058,49,18,77,033,45*7B
2017-11-16 14:49:15 1510861755.827010: $GPGSV,3,2,11,21,46,183,48,20,21,108,43,24,53,081,49,27,14,273,40*76
2017-11-16 14:49:15 1510861755.827070: $GPGSV,3,3,11,32,33,250,46,14,17,241,43,138,38,213,43*78
2017-11-16 14:49:15 1510861755.940120: $GPZDA,194914.00,16,11,2017,00,00*65
2017-11-16 14:49:15 1510861755.940322: $GPGGA,194914,3946.9572,N,08404.9841,W,2,11,0.80,302.62,M,-33.324,M,,*7B
2017-11-16 14:49:15 1510861755.940578: $GPRMC,194914,A,3946.9572,N,08404.9841,W,0.0000,0.000,161117,,*33
2017-11-16 14:49:15 1510861755.940671: $GPGSA,A,3,8,10,15,18,21,20,24,27,32,14,138,,1.6,0.8,1.3*37
2017-11-16 14:49:16 1510861756.491018: $GPZDA,194915.00,16,11,2017,00,00*64
2017-11-16 14:49:16 1510861756.491193: $GPGGA,194915,3946.9572,N,08404.9841,W,2,11,0.80,302.62,M,-33.324,M,,*7A
2017-11-16 14:49:16 1510861756.491274: $GPRMC,194915,A,3946.9572,N,08404.9841,W,0.0000,0.000,161117,,*32
2017-11-16 14:49:16 1510861756.491333: $GPGSA,A,3,8,10,15,18,21,20,24,27,32,14,138,,1.6,0.8,1.3*37
2017-11-16 14:49:17 1510861757.490621: $GPZDA,194916.00,16,11,2017,00,00*67
2017-11-16 14:49:17 1510861757.490816: $GPGGA,194916,3946.9572,N,08404.9841,W,2,11,0.80,302.62,M,-33.324,M,,*79
2017-11-16 14:49:17 1510861757.490905: $GPRMC,194916,A,3946.9572,N,08404.9841,W,0.0000,0.000,161117,,*31
2017-11-16 14:49:17 1510861757.490964: $GPGSA,A,3,8,10,15,18,21,20,24,27,32,14,138,,1.6,0.8,1.3*37
2017-11-16 14:49:18 1510861758.821320: $GPGSV,3,1,11,08,08,307,25,10,55,313,50,15,24,058,49,18,77,033,45*77
2017-11-16 14:49:18 1510861758.821489: $GPGSV,3,2,11,21,46,183,47,20,21,108,42,24,53,081,49,27,14,273,39*76
2017-11-16 14:49:18 1510861758.821550: $GPGSV,3,3,11,32,33,250,46,14,17,241,43,138,38,213,44*7F
2017-11-16 14:49:18 1510861758.934636: $GPZDA,194917.00,16,11,2017,00,00*66
2017-11-16 14:49:18 1510861758.934816: $GPGGA,194917,3946.9572,N,08404.9841,W,2,11,0.80,302.62,M,-33.324,M,,*78
2017-11-16 14:49:18 1510861758.934895: $GPRMC,194917,A,3946.9572,N,08404.9841,W,0.0000,0.000,161117,,*30
2017-11-16 14:49:18 1510861758.934952: $GPGSA,A,3,8,10,15,18,21,20,24,27,32,14,138,,1.6,0.8,1.3*37
