2017-12-01 18:00:57 1512169257.057035: {"class":"VERSION","release":"3.16","rev":"3.16-4","proto_major":3,"proto_minor":11}
2017-12-01 18:00:57 1512169257.057584: {"class":"DEVICES","devices":[{"class":"DEVICE","path":"/dev/ttyUSB0","driver":"SiRF","subtype":"9\u0006GSD4e_4.1.2-P1_RPATCH.05-F-GPS-4R-1510281 11/03/2015 307","activated":"2017-12-01T23:00:56.553Z","flags":1,"native":1,"bps":4800,"parity":"N","stopbits":1,"cycle":1.00}]}
2017-12-01 18:00:57 1512169257.057747: {"class":"WATCH","enable":true,"json":false,"nmea":true,"raw":0,"scaled":false,"timing":false,"split24":false,"pps":false}
2017-12-01 18:00:57 1512169257.439040: $GPZDA,230058.00,01,12,2017,00,00*6C
2017-12-01 18:00:57 1512169257.439212: $GPGGA,230058,3946.9728,N,08404.9841,W,2,12,0.80,300.61,M,-33.325,M,,*79
2017-12-01 18:00:57 1512169257.439280: $GPRMC,230058,A,3946.9728,N,08404.9841,W,0.0000,0.000,011217,,*37
2017-12-01 18:00:57 1512169257.439342: $GPGSA,A,3,1,3,10,14,16,22,29,25,26,31,32,138,2.0,0.8,1.5*0C
2017-12-01 18:00:58 1512169258.746869: $GPGSV,3,1,12,01,11,261,39,03,33,307,47,10,07,159,34,14,62,075,43*7A
2017-12-01 18:00:58 1512169258.747043: $GPGSV,3,2,12,16,13,189,40,22,48,286,46,29,07,081,25,25,25,045,42*7D
2017-12-01 18:00:58 1512169258.747109: $GPGSV,3,3,12,26,42,175,46,31,75,004,47,32,43,099,44,138,38,213,46*4B
2017-12-01 18:00:58 1512169258.860262: $GPZDA,230059.00,01,12,2017,00,00*6D
2017-12-01 18:00:58 1512169258.860455: $GPGGA,230059,3946.9728,N,08404.9841,W,2,12,0.80,300.61,M,-33.325,M,,*78
2017-12-01 18:00:58 1512169258.860524: $GPRMC,230059,A,3946.9728,N,08404.9841,W,0.0000,0.000,011217,,*36
2017-12-01 18:00:58 1512169258.860586: $GPGSA,A,3,1,3,10,14,16,22,29,25,26,31,32,138,2.0,0.8,1.5*0C
2017-12-01 18:00:59 1512169259.485603: $GPZDA,230100.00,01,12,2017,00,00*60
2017-12-01 18:00:59 1512169259.485805: $GPGGA,230100,3946.9728,N,08404.9841,W,2,12,0.80,300.61,M,-33.325,M,,*75
2017-12-01 18:00:59 1512169259.485873: $GPRMC,230100,A,3946.9728,N,08404.9841,W,0.0000,0.000,011217,,*3B
2017-12-01 18:00:59 1512169259.485934: $GPGSA,A,3,1,3,10,14,16,22,29,25,26,31,32,138,2.0,0.8,1.5*0C
2017-12-01 18:01:00 1512169260.439263: $GPZDA,230101.00,01,12,2017,00,00*61
2017-12-01 18:01:00 1512169260.439451: $GPGGA,230101,3946.9728,N,08404.9841,W,2,12,0.80,300.61,M,-33.325,M,,*74
2017-12-01 18:01:00 1512169260.439518: $GPRMC,230101,A,3946.9728,N,08404.9841,W,0.0000,0.000,011217,,*3A
2017-12-01 18:01:00 1512169260.439578: $GPGSA,A,3,1,3,10,14,16,22,29,25,26,31,32,138,2.0,0.8,1.5*0C
2017-12-01 18:01:01 1512169261.776096: $GPGSV,3,1,12,01,11,261,39,03,33,307,47,10,07,159,35,14,62,075,43*7B
2017-12-01 18:01:01 1512169261.776285: $GPGSV,3,2,12,16,13,189,40,22,48,286,46,29,07,081,26,25,25,045,42*7E
2017-12-01 18:01:01 1512169261.776352: $GPGSV,3,3,12,26,42,175,45,31,75,004,47,32,43,099,44,138,38,213,46*48
2017-12-01 18:01:01 1512169261.889599: $GPZDA,230102.00,01,12,2017,00,00*62
2017-12-01 18:01:01 1512169261.889783: $GPGGA,230102,3946.9728,N,08404.9841,W,2,12,0.80,300.61,M,-33.325,M,,*77
2017-12-01 18:01:01 1512169261.889851: $GPRMC,230102,A,3946.9728,N,08404.9841,W,0.0000,0.000,011217,,*39
2017-12-01 18:01:01 1512169261.889912: $GPGSA,A,3,1,3,10,14,16,22,29,25,26,31,32,138,2.0,0.8,1.5*0C
2017-12-01 18:01:02 1512169262.410667: $GPZDA,230103.00,01,12,2017,00,00*63
2017-12-01 18:01:02 1512169262.410857: $GPGGA,230103,3946.9728,N,08404.9841,W,2,12,0.80,300.61,M,-33.325,M,,*76
2017-12-01 18:01:02 1512169262.410925: $GPRMC,230103,A,3946.9728,N,08404.9841,W,0.0000,0.000,011217,,*38
2017-12-01 18:01:02 1512169262.410986: $GPGSA,A,3,1,3,10,14,16,22,29,25,26,31,32,138,2.0,0.8,1.5*0C
2017-12-01 18:01:03 1512169263.440102: $GPZDA,230104.00,01,12,2017,00,00*64
2017-12-01 18:01:03 1512169263.440274: $GPGGA,230104,3946.9728,N,08404.9841,W,2,12,0.80,300.61,M,-33.325,M,,*71
2017-12-01 18:01:03 1512169263.440340: $GPRMC,230104,A,3946.9728,N,08404.9841,W,0.0000,0.000,011217,,*3F
2017-12-01 18:01:03 1512169263.440402: $GPGSA,A,3,1,3,10,14,16,22,29,25,26,31,32,138,2.0,0.8,1.5*0C
2017-12-01 18:01:04 1512169264.747542: $GPGSV,3,1,12,01,11,261,39,03,33,307,47,10,07,159,35,14,62,075,42*7A
2017-12-01 18:01:04 1512169264.747821: $GPGSV,3,2,12,16,13,189,40,22,48,286,46,29,07,081,26,25,25,045,43*7F
2017-12-01 18:01:04 1512169264.747892: $GPGSV,3,3,12,26,42,175,46,31,75,004,47,32,43,099,44,138,38,213,46*4B
2017-12-01 18:01:04 1512169264.860932: $GPZDA,230105.00,01,12,2017,00,00*65
2017-12-01 18:01:04 1512169264.861101: $GPGGA,230105,3946.9728,N,08404.9841,W,2,12,0.80,300.61,M,-33.325,M,,*70
2017-12-01 18:01:04 1512169264.861168: $GPRMC,230105,A,3946.9728,N,08404.9841,W,0.0000,0.000,011217,,*3E
2017-12-01 18:01:04 1512169264.861229: $GPGSA,A,3,1,3,10,14,16,22,29,25,26,31,32,138,2.0,0.8,1.5*0C
2017-12-01 18:01:05 1512169265.410542: $GPZDA,230106.00,01,12,2017,00,00*66
2017-12-01 18:01:05 1512169265.410738: $GPGGA,230106,3946.9728,N,08404.9841,W,2,12,0.80,300.61,M,-33.325,M,,*73
2017-12-01 18:01:05 1512169265.410806: $GPRMC,230106,A,3946.9728,N,08404.9841,W,0.0000,0.000,011217,,*3D
2017-12-01 18:01:05 1512169265.410868: $GPGSA,A,3,1,3,10,14,16,22,29,25,26,31,32,138,2.0,0.8,1.5*0C
2017-12-01 18:01:06 1512169266.410159: $GPZDA,230107.00,01,12,2017,00,00*67
2017-12-01 18:01:06 1512169266.414308: $GPGGA,230107,3946.9728,N,08404.9841,W,2,12,0.80,300.61,M,-33.325,M,,*72
2017-12-01 18:01:06 1512169266.414424: $GPRMC,230107,A,3946.9728,N,08404.9841,W,0.0000,0.000,011217,,*3C
2017-12-01 18:01:06 1512169266.414489: $GPGSA,A,3,1,3,10,14,16,22,29,25,26,31,32,138,2.0,0.8,1.5*0C
2017-12-01 18:01:07 1512169267.748429: $GPGSV,3,1,12,01,11,261,39,03,33,307,47,10,07,159,35,14,62,075,43*7B
2017-12-01 18:01:07 1512169267.748626: $GPGSV,3,2,12,16,13,189,40,22,48,286,46,29,07,081,26,25,25,045,42*7E
2017-12-01 18:01:07 1512169267.748711: $GPGSV,3,3,12,26,42,175,46,31,75,004,48,32,43,099,44,138,38,213,46*44
2017-12-01 18:01:07 1512169267.861828: $GPZDA,230108.00,01,12,2017,00,00*68
2017-12-01 18:01:07 1512169267.861997: $GPGGA,230108,3946.9728,N,08404.9841,W,2,12,0.80,300.61,M,-33.325,M,,*7D
2017-12-01 18:01:07 1512169267.862065: $GPRMC,230108,A,3946.9728,N,08404.9841,W,0.0000,0.000,011217,,*33
2017-12-01 18:01:07 1512169267.862127: $GPGSA,A,3,1,3,10,14,16,22,29,25,26,31,32,138,2.0,0.8,1.5*0C
2017-12-01 18:01:08 1512169268.409219: $GPZDA,230109.00,01,12,2017,00,00*69
2017-12-01 18:01:08 1512169268.409388: $GPGGA,230109,3946.9728,N,08404.9841,W,2,12,0.80,300.61,M,-33.325,M,,*7C
2017-12-01 18:01:08 1512169268.409454: $GPRMC,230109,A,3946.9728,N,08404.9841,W,0.0000,0.000,011217,,*32
2017-12-01 18:01:08 1512169268.409515: $GPGSA,A,3,1,3,10,14,16,22,29,25,26,31,32,138,2.0,0.8,1.5*0C
2017-12-01 18:01:09 1512169269.410747: $GPZDA,230110.00,01,12,2017,00,00*61
2017-12-01 18:01:09 1512169269.410919: $GPGGA,230110,3946.9728,N,08404.9841,W,2,12,0.80,300.61,M,-33.325,M,,*74
2017-12-01 18:01:09 1512169269.410987: $GPRMC,230110,A,3946.9728,N,08404.9841,W,0.0000,0.000,011217,,*3A
2017-12-01 18:01:09 1512169269.411047: $GPGSA,A,3,1,3,10,14,16,22,29,25,26,31,32,138,2.0,0.8,1.5*0C
2017-12-01 18:01:10 1512169270.746288: $GPGSV,3,1,12,01,11,261,38,03,33,307,47,10,07,159,35,14,62,075,43*7A
2017-12-01 18:01:10 1512169270.746482: $GPGSV,3,2,12,16,13,189,40,22,48,286,46,29,07,081,26,25,25,045,43*7F
2017-12-01 18:01:10 1512169270.746576: $GPGSV,3,3,12,26,42,175,46,31,75,004,48,32,43,099,44,138,38,213,46*44
2017-12-01 18:01:10 1512169270.860301: $GPZDA,230111.00,01,12,2017,00,00*60
2017-12-01 18:01:10 1512169270.860521: $GPGGA,230111,3946.9728,N,08404.9841,W,2,12,0.80,300.61,M,-33.325,M,,*75
2017-12-01 18:01:10 1512169270.860597: $GPRMC,230111,A,3946.9728,N,08404.9841,W,0.0000,0.000,011217,,*3B
2017-12-01 18:01:10 1512169270.860697: $GPGSA,A,3,1,3,10,14,16,22,29,25,26,31,32,138,2.0,0.8,1.5*0C
2017-12-01 18:01:11 1512169271.411840: $GPZDA,230112.00,01,12,2017,00,00*63
2017-12-01 18:01:11 1512169271.419800: $GPGGA,230112,3946.9728,N,08404.9841,W,2,12,0.80,300.61,M,-33.325,M,,*76
2017-12-01 18:01:11 1512169271.419913: $GPRMC,230112,A,3946.9728,N,08404.9841,W,0.0000,0.000,011217,,*38
2017-12-01 18:01:11 1512169271.419980: $GPGSA,A,3,1,3,10,14,16,22,29,25,26,31,32,138,2.0,0.8,1.5*0C
2017-12-01 18:01:12 1512169272.412984: $GPZDA,230113.00,01,12,2017,00,00*62
2017-12-01 18:01:12 1512169272.413154: $GPGGA,230113,3946.9728,N,08404.9841,W,2,12,0.80,300.61,M,-33.325,M,,*77
2017-12-01 18:01:12 1512169272.413221: $GPRMC,230113,A,3946.9728,N,08404.9841,W,0.0000,0.000,011217,,*39
2017-12-01 18:01:12 1512169272.413282: $GPGSA,A,3,1,3,10,14,16,22,29,25,26,31,32,138,2.0,0.8,1.5*0C
2017-12-01 18:01:13 1512169273.747068: $GPGSV,3,1,12,01,11,261,37,03,33,307,47,10,07,159,35,14,62,075,43*75
2017-12-01 18:01:13 1512169273.747218: $GPGSV,3,2,12,16,13,189,40,22,48,286,46,23,04,295,43,25,25,045,42*73
2017-12-01 18:01:13 1512169273.747283: $GPGSV,3,3,12,26,42,175,46,31,75,004,47,32,43,099,45,138,38,213,46*4A
2017-12-01 18:01:13 1512169273.860713: $GPZDA,230114.00,01,12,2017,00,00*65
2017-12-01 18:01:13 1512169273.860884: $GPGGA,230114,3946.9728,N,08404.9841,W,2,12,0.80,300.61,M,-33.325,M,,*70
2017-12-01 18:01:13 1512169273.860950: $GPRMC,230114,A,3946.9728,N,08404.9841,W,0.0000,0.000,011217,,*3E
2017-12-01 18:01:13 1512169273.861011: $GPGSA,A,3,1,3,10,14,16,22,23,25,26,31,32,138,2.0,0.8,1.5*06
2017-12-01 18:01:14 1512169274.486173: $GPZDA,230115.00,01,12,2017,00,00*64
2017-12-01 18:01:14 1512169274.486348: $GPGGA,230115,3946.9728,N,08404.9841,W,2,12,0.80,300.61,M,-33.325,M,,*71
2017-12-01 18:01:14 1512169274.486416: $GPRMC,230115,A,3946.9728,N,08404.9841,W,0.0000,0.000,011217,,*3F
2017-12-01 18:01:14 1512169274.486505: $GPGSA,A,3,1,3,10,14,16,22,23,25,26,31,32,138,2.0,0.8,1.5*06
2017-12-01 18:01:15 1512169275.412103: $GPZDA,230116.00,01,12,2017,00,00*67
2017-12-01 18:01:15 1512169275.412275: $GPGGA,230116,3946.9728,N,08404.9841,W,2,12,0.80,300.61,M,-33.325,M,,*72
2017-12-01 18:01:15 1512169275.412342: $GPRMC,230116,A,3946.9728,N,08404.9841,W,0.0000,0.000,011217,,*3C
2017-12-01 18:01:15 1512169275.412404: $GPGSA,A,3,1,3,10,14,16,22,23,25,26,31,32,138,2.0,0.8,1.5*06
2017-12-01 18:01:16 1512169276.748693: $GPGSV,3,1,12,01,11,261,37,03,33,307,46,10,07,159,35,14,62,075,43*74
2017-12-01 18:01:16 1512169276.748876: $GPGSV,3,2,12,16,13,189,41,22,48,286,46,29,07,081,24,25,25,045,42*7D
2017-12-01 18:01:16 1512169276.748943: $GPGSV,3,3,12,26,42,175,46,31,75,004,48,32,43,099,44,138,38,213,46*44
2017-12-01 18:01:16 1512169276.861134: $GPZDA,230117.00,01,12,2017,00,00*66
2017-12-01 18:01:16 1512169276.861303: $GPGGA,230117,3946.9728,N,08404.9841,W,2,12,0.80,300.61,M,-33.325,M,,*73
2017-12-01 18:01:16 1512169276.861434: $GPRMC,230117,A,3946.9728,N,08404.9841,W,0.0000,0.000,011217,,*3D
2017-12-01 18:01:16 1512169276.861498: $GPGSA,A,3,1,3,10,14,16,22,29,25,26,31,32,138,2.0,0.8,1.5*0C
