2018-01-11 21:03:59 1515722639.698144: {"class":"VERSION","release":"3.16","rev":"3.16-4","proto_major":3,"proto_minor":11}
2018-01-11 21:03:59 1515722639.698548: {"class":"DEVICES","devices":[{"class":"DEVICE","path":"/dev/ttyUSB0","driver":"SiRF","subtype":"9\u0006GSD4e_4.1.2-P1_RPATCH.05-F-GPS-4R-1510281 11/03/2015 307","activated":"2018-01-12T02:03:59.517Z","flags":1,"native":1,"bps":4800,"parity":"N","stopbits":1,"cycle":1.00}]}
2018-01-11 21:03:59 1515722639.698665: {"class":"WATCH","enable":true,"json":false,"nmea":true,"raw":0,"scaled":false,"timing":false,"split24":false,"pps":false}
2018-01-11 21:04:00 1515722640.125398: $GPZDA,020400.82,12,01,2018,00,00*63
2018-01-11 21:04:00 1515722640.125601: $GPGGA,020400,3946.9556,N,08404.9829,W,1,12,1.00,303.03,M,-33.324,M,,*7A
2018-01-11 21:04:00 1515722640.125670: $GPRMC,020400,A,3946.9556,N,08404.9829,W,0.1567,189.200,120118,,*30
2018-01-11 21:04:00 1515722640.125734: $GPGSA,A,3,1,7,8,9,11,23,27,28,30,13,16,138,4.0,1.0,3.5*04
2018-01-11 21:04:00 1515722640.125795: $GPGBS,020400,14.62,M,24.83,M,80.38,M*07
2018-01-11 21:04:01 1515722641.207015: $GPZDA,020401.50,12,01,2018,00,00*6D
2018-01-11 21:04:01 1515722641.207185: $GPGGA,020401,3946.9578,N,08404.9853,W,1,12,1.00,299.53,M,-33.324,M,,*7D
2018-01-11 21:04:01 1515722641.207254: $GPRMC,020401,A,3946.9578,N,08404.9853,W,0.2758,128.233,120118,,*36
2018-01-11 21:04:01 1515722641.207338: $GPGSA,A,3,1,7,8,9,11,23,27,28,30,13,16,138,4.0,1.0,3.5*04
2018-01-11 21:04:02 1515722642.349788: $GPGSV,3,1,12,01,18,151,45,07,80,307,44,08,65,054,48,09,27,210,44*76
2018-01-11 21:04:02 1515722642.349946: $GPGSV,3,2,12,11,42,156,46,23,06,181,34,27,26,045,50,28,30,277,36*7E
2018-01-11 21:04:02 1515722642.350013: $GPGSV,3,3,12,30,51,309,43,13,02,328,05,16,06,076,04,138,38,213,21*4A
2018-01-11 21:04:02 1515722642.463199: $GPZDA,020402.00,12,01,2018,00,00*6B
2018-01-11 21:04:02 1515722642.463359: $GPGGA,020402,3946.9578,N,08404.9853,W,1,10,1.00,299.53,M,-33.324,M,,*7C
2018-01-11 21:04:02 1515722642.463445: $GPRMC,020402,A,3946.9578,N,08404.9853,W,0.0000,0.000,120118,,*34
2018-01-11 21:04:02 1515722642.463509: $GPGSA,A,3,1,7,8,9,11,23,27,28,30,138,,,4.0,1.0,3.5*01
2018-01-11 21:04:02 1515722642.915467: $GPZDA,020403.00,12,01,2018,00,00*6A
2018-01-11 21:04:02 1515722642.915633: $GPGGA,020403,3946.9582,N,08404.9859,W,1,10,0.80,298.68,M,-33.324,M,,*72
2018-01-11 21:04:02 1515722642.915703: $GPRMC,020403,A,3946.9582,N,08404.9859,W,0.0000,0.000,120118,,*3A
2018-01-11 21:04:02 1515722642.915766: $GPGSA,A,3,1,7,8,9,11,23,27,28,30,138,,,4.0,0.8,3.5*08
2018-01-11 21:04:03 1515722643.416259: $GPZDA,020404.00,12,01,2018,00,00*6D
2018-01-11 21:04:03 1515722643.416442: $GPGGA,020404,3946.9586,N,08404.9859,W,1,10,0.80,299.32,M,-33.324,M,,*7F
2018-01-11 21:04:03 1515722643.416512: $GPRMC,020404,A,3946.9586,N,08404.9859,W,0.0000,0.000,120118,,*39
2018-01-11 21:04:03 1515722643.416575: $GPGSA,A,3,1,7,8,9,11,23,27,28,30,138,,,4.0,0.8,3.5*08
2018-01-11 21:04:04 1515722644.751110: $GPGSV,3,1,12,01,18,151,13,07,80,307,13,08,65,054,14,09,27,210,13*7C
2018-01-11 21:04:04 1515722644.751309: $GPGSV,3,2,12,11,42,156,14,23,06,181,10,27,26,045,15,28,30,277,10*7A
2018-01-11 21:04:04 1515722644.751378: $GPGSV,3,3,12,30,51,309,13,13,02,328,08,16,06,076,06,138,38,213,16*44
2018-01-11 21:04:04 1515722644.864817: $GPZDA,020405.00,12,01,2018,00,00*6C
2018-01-11 21:04:04 1515722644.864956: $GPGGA,020405,3946.9586,N,08404.9859,W,1,12,0.80,299.32,M,-33.324,M,,*7C
2018-01-11 21:04:04 1515722644.865025: $GPRMC,020405,A,3946.9586,N,08404.9859,W,0.2422,273.794,120118,,*32
2018-01-11 21:04:04 1515722644.865088: $GPGSA,A,3,1,7,8,9,11,23,27,28,30,13,16,138,4.0,0.8,3.5*0D
2018-01-11 21:04:05 1515722645.415768: $GPZDA,020406.00,12,01,2018,00,00*6F
2018-01-11 21:04:05 1515722645.415946: $GPGGA,020406,3946.9586,N,08404.9859,W,1,12,0.80,299.32,M,-33.324,M,,*7F
2018-01-11 21:04:05 1515722645.416016: $GPRMC,020406,A,3946.9586,N,08404.9859,W,0.0000,0.000,120118,,*3B
2018-01-11 21:04:05 1515722645.416079: $GPGSA,A,3,1,7,8,9,11,23,27,28,30,13,16,138,4.0,0.8,3.5*0D
2018-01-11 21:04:06 1515722646.415252: $GPZDA,020407.00,12,01,2018,00,00*6E
2018-01-11 21:04:06 1515722646.415454: $GPGGA,020407,3946.9587,N,08404.9866,W,1,12,0.80,299.24,M,-33.324,M,,*74
2018-01-11 21:04:06 1515722646.415521: $GPRMC,020407,A,3946.9587,N,08404.9866,W,0.1867,0.000,120118,,*3F
2018-01-11 21:04:06 1515722646.415582: $GPGSA,A,3,1,7,8,9,11,23,27,28,30,13,16,138,4.0,0.8,3.5*0D
2018-01-11 21:04:06 1515722646.415640: $GPGBS,020407,14.62,M,24.83,M,80.38,M*00
