2017-12-01 13:12:07 1512151927.897404: {"class":"VERSION","release":"3.16","rev":"3.16-4","proto_major":3,"proto_minor":11}
2017-12-01 13:12:07 1512151927.897774: {"class":"DEVICES","devices":[{"class":"DEVICE","path":"/dev/ttyUSB0","driver":"SiRF","subtype":"9\u0006GSD4e_4.1.2-P1_RPATCH.05-F-GPS-4R-1510281 11/03/2015 307","activated":"2017-12-01T18:12:07.892Z","flags":1,"native":1,"bps":4800,"parity":"N","stopbits":1,"cycle":1.00}]}
2017-12-01 13:12:07 1512151927.897885: {"class":"WATCH","enable":true,"json":false,"nmea":true,"raw":0,"scaled":false,"timing":false,"split24":false,"pps":false}
2017-12-01 13:12:08 1512151928.856991: $GPZDA,181209.15,01,12,2017,00,00*67
2017-12-01 13:12:08 1512151928.857185: $GPGGA,181209,3946.9596,N,08404.9852,W,1,12,1.00,287.84,M,-33.324,M,,*7D
2017-12-01 13:12:08 1512151928.857255: $GPRMC,181209,A,3946.9596,N,08404.9852,W,0.3155,129.994,011217,,*31
2017-12-01 13:12:08 1512151928.857319: $GPGSA,A,3,8,10,15,18,20,21,24,32,13,27,14,138,2.0,1.0,1.5*3F
2017-12-01 13:12:08 1512151928.857379: $GPGBS,181209,10.70,M,15.43,M,35.28,M*04
2017-12-01 13:12:09 1512151929.802638: $GPGSV,3,1,12,08,06,322,35,10,42,301,45,15,37,052,48,18,71,337,45*75
2017-12-01 13:12:09 1512151929.802822: $GPGSV,3,2,12,20,33,096,47,21,63,189,44,24,51,109,46,27,19,289,36*70
2017-12-01 13:12:09 1512151929.802891: $GPGSV,3,3,12,32,21,238,43,13,07,048,12,14,04,232,00,138,38,213,40*4B
2017-12-01 13:12:09 1512151929.915959: $GPZDA,181210.00,01,12,2017,00,00*6B
2017-12-01 13:12:09 1512151929.916116: $GPGGA,181210,3946.9592,N,08404.9853,W,1,11,0.80,288.60,M,-33.324,M,,*7F
2017-12-01 13:12:09 1512151929.916183: $GPRMC,181210,A,3946.9592,N,08404.9853,W,0.1567,9.200,011217,,*3E
2017-12-01 13:12:09 1512151929.916245: $GPGSA,A,3,8,10,15,18,20,21,24,27,32,13,138,,2.0,0.8,1.5*33
2017-12-01 13:12:10 1512151930.199875: $GPZDA,181211.00,01,12,2017,00,00*6A
2017-12-01 13:12:10 1512151930.200052: $GPGGA,181211,3946.9589,N,08404.9854,W,1,11,0.80,289.37,M,-33.324,M,,*70
2017-12-01 13:12:10 1512151930.200120: $GPRMC,181211,A,3946.9589,N,08404.9854,W,0.0000,0.000,011217,,*3C
2017-12-01 13:12:10 1512151930.200182: $GPGSA,A,3,8,10,15,18,20,21,24,27,32,13,138,,2.0,0.8,1.5*33
2017-12-01 13:12:11 1512151931.202490: $GPZDA,181212.00,01,12,2017,00,00*69
2017-12-01 13:12:11 1512151931.202678: $GPGGA,181212,3946.9586,N,08404.9854,W,1,11,0.80,290.13,M,-33.324,M,,*72
2017-12-01 13:12:11 1512151931.202748: $GPRMC,181212,A,3946.9586,N,08404.9854,W,0.0000,0.000,011217,,*30
2017-12-01 13:12:11 1512151931.202810: $GPGSA,A,3,8,10,15,18,20,21,24,27,32,13,138,,2.0,0.8,1.5*33
2017-12-01 13:12:12 1512151932.538206: $GPGSV,3,1,12,08,06,322,35,10,42,301,45,15,37,052,48,18,71,337,44*74
2017-12-01 13:12:12 1512151932.538384: $GPGSV,3,2,12,20,33,096,47,21,63,189,44,24,51,109,47,27,19,289,38*7F
2017-12-01 13:12:12 1512151932.538451: $GPGSV,3,3,12,32,21,238,43,13,07,048,23,14,04,232,00,138,38,213,47*4E
2017-12-01 13:12:12 1512151932.651869: $GPZDA,181213.00,01,12,2017,00,00*68
2017-12-01 13:12:12 1512151932.657911: $GPGGA,181213,3946.9582,N,08404.9855,W,1,11,0.80,290.90,M,-33.324,M,,*7D
2017-12-01 13:12:12 1512151932.658014: $GPRMC,181213,A,3946.9582,N,08404.9855,W,0.0000,0.000,011217,,*34
2017-12-01 13:12:12 1512151932.658080: $GPGSA,A,3,8,10,15,18,20,21,24,27,32,13,138,,2.0,0.8,1.5*33
2017-12-01 13:12:13 1512151933.202009: $GPZDA,181214.00,01,12,2017,00,00*6F
2017-12-01 13:12:13 1512151933.202174: $GPGGA,181214,3946.9582,N,08404.9855,W,1,11,0.80,290.90,M,-33.324,M,,*7A
2017-12-01 13:12:13 1512151933.202241: $GPRMC,181214,A,3946.9582,N,08404.9855,W,0.0000,0.000,011217,,*33
2017-12-01 13:12:13 1512151933.202321: $GPGSA,A,3,8,10,15,18,20,21,24,27,32,13,138,,2.0,0.8,1.5*33
2017-12-01 13:12:14 1512151934.203021: $GPZDA,181215.00,01,12,2017,00,00*6E
2017-12-01 13:12:14 1512151934.203197: $GPGGA,181215,3946.9579,N,08404.9856,W,1,11,0.80,291.66,M,-33.324,M,,*74
2017-12-01 13:12:14 1512151934.203265: $GPRMC,181215,A,3946.9579,N,08404.9856,W,0.0000,0.000,011217,,*35
2017-12-01 13:12:14 1512151934.203326: $GPGSA,A,3,8,10,15,18,20,21,24,27,32,13,138,,2.0,0.8,1.5*33
2017-12-01 13:12:14 1512151934.203436: $GPGBS,181215,10.70,M,15.43,M,35.28,M*09
2017-12-01 13:12:15 1512151935.539213: $GPGSV,3,1,12,08,06,322,36,10,42,301,45,15,37,052,48,18,71,337,45*76
2017-12-01 13:12:15 1512151935.539393: $GPGSV,3,2,12,20,33,096,47,21,63,189,44,24,51,109,47,27,19,289,39*7E
2017-12-01 13:12:15 1512151935.539460: $GPGSV,3,3,12,32,21,238,43,13,07,048,22,14,04,232,00,138,38,213,47*4F
2017-12-01 13:12:15 1512151935.652678: $GPZDA,181216.00,01,12,2017,00,00*6D
2017-12-01 13:12:15 1512151935.652823: $GPGGA,181216,3946.9579,N,08404.9856,W,1,11,0.80,291.66,M,-33.324,M,,*77
2017-12-01 13:12:15 1512151935.652888: $GPRMC,181216,A,3946.9579,N,08404.9856,W,0.0000,0.000,011217,,*36
2017-12-01 13:12:15 1512151935.652949: $GPGSA,A,3,8,10,15,18,20,21,24,27,32,13,138,,2.0,0.8,1.5*33
2017-12-01 13:12:16 1512151936.190673: $GPZDA,181217.00,01,12,2017,00,00*6C
2017-12-01 13:12:16 1512151936.190839: $GPGGA,181217,3946.9555,N,08404.9861,W,2,11,1.40,297.01,M,-33.324,M,,*75
2017-12-01 13:12:16 1512151936.190906: $GPRMC,181217,A,3946.9555,N,08404.9861,W,0.0000,0.000,011217,,*3D
2017-12-01 13:12:16 1512151936.190968: $GPGSA,A,3,8,10,15,18,20,21,24,27,32,13,138,,2.0,1.4,1.5*3E
2017-12-01 13:12:17 1512151937.202341: $GPZDA,181218.00,01,12,2017,00,00*63
2017-12-01 13:12:17 1512151937.202515: $GPGGA,181218,3946.9555,N,08404.9861,W,2,11,0.80,297.01,M,-33.324,M,,*77
2017-12-01 13:12:17 1512151937.202583: $GPRMC,181218,A,3946.9555,N,08404.9861,W,0.0000,0.000,011217,,*32
2017-12-01 13:12:17 1512151937.202643: $GPGSA,A,3,8,10,15,18,20,21,24,27,32,13,138,,2.0,0.8,1.5*33
