2017-11-15 19:00:18 1510790418.916948: {"class":"VERSION","release":"3.17","rev":"3.17","proto_major":3,"proto_minor":12}
2017-11-15 19:00:18 1510790418.917587: {"class":"DEVICES","devices":[{"class":"DEVICE","path":"/dev/ttyUSB0","driver":"SiRF","subtype":"9\u0006GSD4e_4.1.2-P1_RPATCH.05-F-GPS-4R-1510281 11/03/2015 307","activated":"2017-11-16T00:00:18.892Z","flags":1,"native":1,"bps":4800,"parity":"N","stopbits":1,"cycle":1.00}]}
2017-11-15 19:00:18 1510790418.917714: {"class":"WATCH","enable":true,"json":false,"nmea":true,"raw":0,"scaled":false,"timing":false,"split24":false,"pps":false}
2017-11-15 19:00:19 1510790419.328227: $GPZDA,000018.00,16,11,2017,00,00*6C
2017-11-15 19:00:19 1510790419.333040: $GPGGA,000018,3946.9535,N,08404.9572,W,1,10,2.80,306.08,M,-33.324,M,,*74
2017-11-15 19:00:19 1510790419.333128: $GPRMC,000018,A,3946.9535,N,08404.9572,W,1.7820,199.971,161117,,*36
2017-11-15 19:00:19 1510790419.333198: $GPGSA,A,3,16,14,3,32,31,26,22,25,29,1,,,3.4,2.8,2.9*3F
2017-11-15 19:00:20 1510790420.327896: $GPZDA,000019.00,16,11,2017,00,00*6D
2017-11-15 19:00:20 1510790420.328060: $GPGGA,000019,3946.9531,N,08404.9573,W,1,10,2.80,306.85,M,-33.324,M,,*75
2017-11-15 19:00:20 1510790420.328122: $GPRMC,000019,A,3946.9531,N,08404.9573,W,1.7157,208.752,161117,,*3F
2017-11-15 19:00:20 1510790420.328178: $GPGSA,A,3,16,14,3,32,31,26,22,25,29,1,,,3.4,2.8,2.9*3F
2017-11-15 19:00:21 1510790421.663239: $GPGSV,3,1,12,16,09,190,15,14,63,070,12,03,31,310,16,32,46,094,19*7C
2017-11-15 19:00:21 1510790421.663433: $GPGSV,3,2,12,31,77,349,26,26,38,177,19,22,47,289,23,25,27,046,11*74
2017-11-15 19:00:21 1510790421.663495: $GPGSV,3,3,12,29,05,082,16,10,09,159,00,01,13,262,12,135,23,238,00*45
2017-11-15 19:00:21 1510790421.777231: $GPZDA,000020.00,16,11,2017,00,00*67
2017-11-15 19:00:21 1510790421.777570: $GPGGA,000020,3946.9524,N,08404.9573,W,1,10,2.80,306.97,M,-33.324,M,,*78
2017-11-15 19:00:21 1510790421.777813: $GPRMC,000020,A,3946.9524,N,08404.9573,W,1.5545,212.064,161117,,*3D
2017-11-15 19:00:21 1510790421.777904: $GPGSA,A,3,16,14,3,32,31,26,22,25,29,1,,,3.4,2.8,2.9*3F
2017-11-15 19:00:22 1510790422.327428: $GPZDA,000021.00,16,11,2017,00,00*66
2017-11-15 19:00:22 1510790422.327604: $GPGGA,000021,3946.9524,N,08404.9580,W,1,10,2.80,306.89,M,-33.324,M,,*7A
2017-11-15 19:00:22 1510790422.327666: $GPRMC,000021,A,3946.9524,N,08404.9580,W,1.4167,227.342,161117,,*34
2017-11-15 19:00:22 1510790422.327722: $GPGSA,A,3,16,14,3,32,31,26,22,25,29,1,,,3.4,2.8,2.9*3F
2017-11-15 19:00:23 1510790423.328235: $GPZDA,000022.00,16,11,2017,00,00*65
2017-11-15 19:00:23 1510790423.328437: $GPGGA,000022,3946.9524,N,08404.9580,W,1,10,2.80,306.89,M,-33.324,M,,*79
2017-11-15 19:00:23 1510790423.328526: $GPRMC,000022,A,3946.9524,N,08404.9580,W,0.2422,273.794,161117,,*3A
2017-11-15 19:00:23 1510790423.328584: $GPGSA,A,3,16,14,3,32,31,26,22,25,29,1,,,3.4,2.8,2.9*3F
2017-11-15 19:00:24 1510790424.662729: $GPGSV,3,1,12,16,09,190,15,14,63,070,12,03,31,310,15,32,46,094,19*7F
2017-11-15 19:00:24 1510790424.664248: $GPGSV,3,2,12,31,77,349,26,26,38,177,19,22,47,289,22,25,27,046,11*75
2017-11-15 19:00:24 1510790424.664328: $GPGSV,3,3,12,29,05,082,15,10,09,159,00,01,13,262,12,120,07,103,00*4F
2017-11-15 19:00:24 1510790424.776079: $GPZDA,000023.00,16,11,2017,00,00*64
2017-11-15 19:00:24 1510790424.776242: $GPGGA,000023,3946.9524,N,08404.9580,W,1,10,2.80,306.89,M,-33.324,M,,*78
2017-11-15 19:00:24 1510790424.776303: $GPRMC,000023,A,3946.9524,N,08404.9580,W,0.3423,184.197,161117,,*35
2017-11-15 19:00:24 1510790424.776383: $GPGSA,A,3,16,14,3,32,31,26,22,25,29,1,,,3.4,2.8,2.9*3F
2017-11-15 19:00:25 1510790425.328212: $GPZDA,000024.00,16,11,2017,00,00*63
2017-11-15 19:00:25 1510790425.328401: $GPGGA,000024,3946.9520,N,08404.9580,W,1,10,2.80,306.25,M,-33.324,M,,*7D
2017-11-15 19:00:25 1510790425.328465: $GPRMC,000024,A,3946.9520,N,08404.9580,W,0.5287,182.716,161117,,*31
2017-11-15 19:00:25 1510790425.328549: $GPGSA,A,3,16,14,3,32,31,26,22,25,29,1,,,3.4,2.8,2.9*3F
2017-11-15 19:00:26 1510790426.327377: $GPZDA,000025.00,16,11,2017,00,00*62
2017-11-15 19:00:26 1510790426.327564: $GPGGA,000025,3946.9517,N,08404.9581,W,1,10,2.80,307.02,M,-33.324,M,,*7D
2017-11-15 19:00:26 1510790426.327676: $GPRMC,000025,A,3946.9517,N,08404.9581,W,0.5857,158.291,161117,,*3F
2017-11-15 19:00:26 1510790426.327735: $GPGSA,A,3,16,14,3,32,31,26,22,25,29,1,,,3.4,2.8,2.9*3F
2017-11-15 19:00:27 1510790427.664372: $GPGSV,3,1,12,16,09,190,15,14,63,070,12,03,31,310,15,32,46,094,18*7E
2017-11-15 19:00:27 1510790427.664569: $GPGSV,3,2,12,31,77,349,26,26,38,177,19,22,47,289,22,25,27,046,11*75
2017-11-15 19:00:27 1510790427.664632: $GPGSV,3,3,12,29,05,082,15,10,09,159,00,01,13,262,12,120,07,103,00*4F
2017-11-15 19:00:27 1510790427.777830: $GPZDA,000026.00,16,11,2017,00,00*61
2017-11-15 19:00:27 1510790427.777989: $GPGGA,000026,3946.9517,N,08404.9581,W,1,10,2.80,307.02,M,-33.324,M,,*7E
2017-11-15 19:00:27 1510790427.778050: $GPRMC,000026,A,3946.9517,N,08404.9581,W,0.5951,238.684,161117,,*3E
2017-11-15 19:00:27 1510790427.778106: $GPGSA,A,3,16,14,3,32,31,26,22,25,29,1,,,3.4,2.8,2.9*3F
2017-11-15 19:00:28 1510790428.327391: $GPZDA,000027.00,16,11,2017,00,00*60
2017-11-15 19:00:28 1510790428.327569: $GPGGA,000027,3946.9517,N,08404.9581,W,1,10,2.80,307.02,M,-33.324,M,,*7F
2017-11-15 19:00:28 1510790428.327630: $GPRMC,000027,A,3946.9517,N,08404.9581,W,0.9959,264.784,161117,,*33
2017-11-15 19:00:28 1510790428.327686: $GPGSA,A,3,16,14,3,32,31,26,22,25,29,1,,,3.4,2.8,2.9*3F
