2017-11-16 14:33:37 1510860817.787126: {"class":"VERSION","release":"3.17","rev":"3.17","proto_major":3,"proto_minor":12}
2017-11-16 14:33:37 1510860817.787618: {"class":"DEVICES","devices":[{"class":"DEVICE","path":"/dev/ttyUSB0","driver":"SiRF","subtype":"9\u0006GSD4e_4.1.2-P1_RPATCH.05-F-GPS-4R-1510281 11/03/2015 307","activated":"2017-11-16T19:33:37.692Z","flags":1,"native":1,"bps":4800,"parity":"N","stopbits":1,"cycle":1.00}]}
2017-11-16 14:33:37 1510860817.787745: {"class":"WATCH","enable":true,"json":false,"nmea":true,"raw":0,"scaled":false,"timing":false,"split24":false,"pps":false}
2017-11-16 14:33:38 1510860818.510415: $GPZDA,193337.00,16,11,2017,00,00*69
2017-11-16 14:33:38 1510860818.510589: $GPGGA,193337,3946.9564,N,08404.9849,W,2,11,0.80,302.66,M,-33.324,M,,*7C
2017-11-16 14:33:38 1510860818.510653: $GPRMC,193337,A,3946.9564,N,08404.9849,W,0.0000,0.000,161117,,*30
2017-11-16 14:33:38 1510860818.510712: $GPGSA,A,3,8,10,15,18,21,20,24,27,32,14,138,,1.6,0.8,1.3*37
2017-11-16 14:33:39 1510860819.886873: $GPGSV,3,1,11,08,08,313,39,10,49,309,49,15,29,055,51,18,76,003,46*79
2017-11-16 14:33:39 1510860819.887057: $GPGSV,3,2,11,21,54,184,46,20,26,103,46,24,53,094,51,27,17,280,41*76
2017-11-16 14:33:39 1510860819.887121: $GPGSV,3,3,11,32,28,244,48,14,11,237,40,138,38,213,44*7A
2017-11-16 14:33:40 1510860820.000237: $GPZDA,193338.00,16,11,2017,00,00*66
2017-11-16 14:33:40 1510860820.000487: $GPGGA,193338,3946.9564,N,08404.9849,W,2,11,0.80,302.66,M,-33.324,M,,*73
2017-11-16 14:33:40 1510860820.000553: $GPRMC,193338,A,3946.9564,N,08404.9849,W,0.0000,0.000,161117,,*3F
2017-11-16 14:33:40 1510860820.000611: $GPGSA,A,3,8,10,15,18,21,20,24,27,32,14,138,,1.6,0.8,1.3*37
2017-11-16 14:33:40 1510860820.516048: $GPZDA,193339.00,16,11,2017,00,00*67
2017-11-16 14:33:40 1510860820.516219: $GPGGA,193339,3946.9564,N,08404.9849,W,2,11,0.80,302.66,M,-33.324,M,,*72
2017-11-16 14:33:40 1510860820.516283: $GPRMC,193339,A,3946.9564,N,08404.9849,W,0.0000,0.000,161117,,*3E
2017-11-16 14:33:40 1510860820.516339: $GPGSA,A,3,8,10,15,18,21,20,24,27,32,14,138,,1.6,0.8,1.3*37
2017-11-16 14:33:41 1510860821.552234: $GPZDA,193340.00,16,11,2017,00,00*69
2017-11-16 14:33:41 1510860821.552397: $GPGGA,193340,3946.9564,N,08404.9849,W,2,11,0.80,302.66,M,-33.324,M,,*7C
2017-11-16 14:33:41 1510860821.552459: $GPRMC,193340,A,3946.9564,N,08404.9849,W,0.0000,0.000,161117,,*30
2017-11-16 14:33:41 1510860821.552516: $GPGSA,A,3,8,10,15,18,21,20,24,27,32,14,138,,1.6,0.8,1.3*37
2017-11-16 14:33:42 1510860822.882803: $GPGSV,3,1,11,08,08,313,38,10,49,309,49,15,29,055,51,18,76,003,46*78
2017-11-16 14:33:42 1510860822.882976: $GPGSV,3,2,11,21,54,184,46,20,26,103,46,24,53,094,51,27,17,280,41*76
2017-11-16 14:33:42 1510860822.883038: $GPGSV,3,3,11,32,28,244,48,14,11,237,40,138,38,213,45*7B
2017-11-16 14:33:42 1510860822.996180: $GPZDA,193341.00,16,11,2017,00,00*68
2017-11-16 14:33:42 1510860822.996355: $GPGGA,193341,3946.9564,N,08404.9849,W,2,11,0.80,302.66,M,-33.324,M,,*7D
2017-11-16 14:33:42 1510860822.996417: $GPRMC,193341,A,3946.9564,N,08404.9849,W,0.0000,0.000,161117,,*31
2017-11-16 14:33:42 1510860822.996474: $GPGSA,A,3,8,10,15,18,21,20,24,27,32,14,138,,1.6,0.8,1.3*37
2017-11-16 14:33:43 1510860823.517019: $GPZDA,193342.00,16,11,2017,00,00*6B
2017-11-16 14:33:43 1510860823.517193: $GPGGA,193342,3946.9564,N,08404.9849,W,2,11,0.80,302.66,M,-33.324,M,,*7E
2017-11-16 14:33:43 1510860823.517260: $GPRMC,193342,A,3946.9564,N,08404.9849,W,0.0000,0.000,161117,,*32
2017-11-16 14:33:43 1510860823.517316: $GPGSA,A,3,8,10,15,18,21,20,24,27,32,14,138,,1.6,0.8,1.3*37
2017-11-16 14:33:44 1510860824.512513: $GPZDA,193343.00,16,11,2017,00,00*6A
2017-11-16 14:33:44 1510860824.512701: $GPGGA,193343,3946.9564,N,08404.9849,W,2,11,0.80,302.66,M,-33.324,M,,*7F
2017-11-16 14:33:44 1510860824.512768: $GPRMC,193343,A,3946.9564,N,08404.9849,W,0.0000,0.000,161117,,*33
2017-11-16 14:33:44 1510860824.512829: $GPGSA,A,3,8,10,15,18,21,20,24,27,32,14,138,,1.6,0.8,1.3*37
2017-11-16 14:33:45 1510860825.888275: $GPGSV,3,1,11,08,08,313,31,10,49,309,49,15,29,055,51,18,76,003,46*71
2017-11-16 14:33:45 1510860825.888502: $GPGSV,3,2,11,21,54,184,46,20,26,103,46,24,53,094,51,27,17,280,42*75
2017-11-16 14:33:45 1510860825.888566: $GPGSV,3,3,11,32,28,244,48,14,11,237,40,138,38,213,44*7A
2017-11-16 14:33:46 1510860826.001641: $GPZDA,193344.00,16,11,2017,00,00*6D
2017-11-16 14:33:46 1510860826.003321: $GPGGA,193344,3946.9564,N,08404.9849,W,2,11,0.80,302.66,M,-33.324,M,,*78
2017-11-16 14:33:46 1510860826.003413: $GPRMC,193344,A,3946.9564,N,08404.9849,W,0.0000,0.000,161117,,*34
2017-11-16 14:33:46 1510860826.003473: $GPGSA,A,3,8,10,15,18,21,20,24,27,32,14,138,,1.6,0.8,1.3*37
2017-11-16 14:33:46 1510860826.517584: $GPZDA,193345.00,16,11,2017,00,00*6C
2017-11-16 14:33:46 1510860826.517746: $GPGGA,193345,3946.9564,N,08404.9849,W,2,11,0.80,302.66,M,-33.324,M,,*79
2017-11-16 14:33:46 1510860826.517808: $GPRMC,193345,A,3946.9564,N,08404.9849,W,0.0000,0.000,161117,,*35
2017-11-16 14:33:46 1510860826.517865: $GPGSA,A,3,8,10,15,18,21,20,24,27,32,14,138,,1.6,0.8,1.3*37
2017-11-16 14:33:47 1510860827.552571: $GPZDA,193346.00,16,11,2017,00,00*6F
2017-11-16 14:33:47 1510860827.552734: $GPGGA,193346,3946.9564,N,08404.9849,W,2,11,0.80,302.66,M,-33.324,M,,*7A
2017-11-16 14:33:47 1510860827.552795: $GPRMC,193346,A,3946.9564,N,08404.9849,W,0.0000,0.000,161117,,*36
2017-11-16 14:33:47 1510860827.552851: $GPGSA,A,3,8,10,15,18,21,20,24,27,32,14,138,,1.6,0.8,1.3*37
2017-11-16 14:33:48 1510860828.884282: $GPGSV,3,1,11,08,08,313,33,10,49,309,49,15,29,055,51,18,76,003,46*73
2017-11-16 14:33:48 1510860828.884463: $GPGSV,3,2,11,21,54,184,46,20,26,103,46,24,53,094,50,27,17,280,42*74
2017-11-16 14:33:48 1510860828.884524: $GPGSV,3,3,11,32,28,244,48,14,11,237,40,138,38,213,43*7D
2017-11-16 14:33:48 1510860828.997932: $GPZDA,193347.00,16,11,2017,00,00*6E
2017-11-16 14:33:48 1510860828.998084: $GPGGA,193347,3946.9564,N,08404.9849,W,2,11,0.80,302.66,M,-33.324,M,,*7B
2017-11-16 14:33:48 1510860828.998144: $GPRMC,193347,A,3946.9564,N,08404.9849,W,0.0000,0.000,161117,,*37
2017-11-16 14:33:48 1510860828.998201: $GPGSA,A,3,8,10,15,18,21,20,24,27,32,14,138,,1.6,0.8,1.3*37
2017-11-16 14:33:49 1510860829.623090: $GPZDA,193348.00,16,11,2017,00,00*61
2017-11-16 14:33:49 1510860829.623255: $GPGGA,193348,3946.9564,N,08404.9849,W,2,11,0.80,302.66,M,-33.324,M,,*74
2017-11-16 14:33:49 1510860829.623319: $GPRMC,193348,A,3946.9564,N,08404.9849,W,0.0000,0.000,161117,,*38
2017-11-16 14:33:49 1510860829.623379: $GPGSA,A,3,8,10,15,18,21,20,24,27,32,14,138,,1.6,0.8,1.3*37
2017-11-16 14:33:50 1510860830.518049: $GPZDA,193349.00,16,11,2017,00,00*60
2017-11-16 14:33:50 1510860830.518213: $GPGGA,193349,3946.9564,N,08404.9849,W,2,11,0.80,302.66,M,-33.324,M,,*75
2017-11-16 14:33:50 1510860830.518273: $GPRMC,193349,A,3946.9564,N,08404.9849,W,0.0000,0.000,161117,,*39
2017-11-16 14:33:50 1510860830.518331: $GPGSA,A,3,8,10,15,18,21,20,24,27,32,14,138,,1.6,0.8,1.3*37
2017-11-16 14:33:51 1510860831.853563: $GPGSV,3,1,11,08,08,313,32,10,49,309,49,15,29,055,51,18,76,003,45*71
2017-11-16 14:33:51 1510860831.853731: $GPGSV,3,2,11,21,54,184,46,20,26,103,46,24,53,094,50,27,17,280,42*74
2017-11-16 14:33:51 1510860831.853793: $GPGSV,3,3,11,32,28,244,48,14,11,237,39,138,38,213,42*72
2017-11-16 14:33:51 1510860831.966907: $GPZDA,193350.00,16,11,2017,00,00*68
2017-11-16 14:33:51 1510860831.967044: $GPGGA,193350,3946.9564,N,08404.9849,W,2,11,0.80,302.66,M,-33.324,M,,*7D
2017-11-16 14:33:51 1510860831.967105: $GPRMC,193350,A,3946.9564,N,08404.9849,W,0.0000,0.000,161117,,*31
2017-11-16 14:33:51 1510860831.967162: $GPGSA,A,3,8,10,15,18,21,20,24,27,32,14,138,,1.6,0.8,1.3*37
2017-11-16 14:33:52 1510860832.554166: $GPZDA,193351.00,16,11,2017,00,00*69
2017-11-16 14:33:52 1510860832.554336: $GPGGA,193351,3946.9564,N,08404.9849,W,2,11,0.80,302.66,M,-33.324,M,,*7C
2017-11-16 14:33:52 1510860832.554400: $GPRMC,193351,A,3946.9564,N,08404.9849,W,0.0000,0.000,161117,,*30
2017-11-16 14:33:52 1510860832.554461: $GPGSA,A,3,8,10,15,18,21,20,24,27,32,14,138,,1.6,0.8,1.3*37
2017-11-16 14:33:53 1510860833.555410: $GPZDA,193352.00,16,11,2017,00,00*6A
2017-11-16 14:33:53 1510860833.555655: $GPGGA,193352,3946.9564,N,08404.9849,W,2,11,0.80,302.66,M,-33.324,M,,*7F
2017-11-16 14:33:53 1510860833.555720: $GPRMC,193352,A,3946.9564,N,08404.9849,W,0.0000,0.000,161117,,*33
2017-11-16 14:33:53 1510860833.555776: $GPGSA,A,3,8,10,15,18,21,20,24,27,32,14,138,,1.6,0.8,1.3*37
2017-11-16 14:33:54 1510860834.855362: $GPGSV,3,1,11,08,08,313,32,10,49,309,49,15,29,055,50,18,76,003,45*70
2017-11-16 14:33:54 1510860834.855533: $GPGSV,3,2,11,21,54,184,45,20,26,103,46,24,53,094,50,27,17,280,42*77
2017-11-16 14:33:54 1510860834.855593: $GPGSV,3,3,11,32,28,244,48,14,11,237,39,138,38,213,44*74
2017-11-16 14:33:54 1510860834.968961: $GPZDA,193353.00,16,11,2017,00,00*6B
2017-11-16 14:33:54 1510860834.969137: $GPGGA,193353,3946.9564,N,08404.9849,W,2,11,0.80,302.66,M,-33.324,M,,*7E
2017-11-16 14:33:54 1510860834.969198: $GPRMC,193353,A,3946.9564,N,08404.9849,W,0.0000,0.000,161117,,*32
2017-11-16 14:33:54 1510860834.969254: $GPGSA,A,3,8,10,15,18,21,20,24,27,32,14,138,,1.6,0.8,1.3*37
2017-11-16 14:33:55 1510860835.518346: $GPZDA,193354.00,16,11,2017,00,00*6C
2017-11-16 14:33:55 1510860835.518532: $GPGGA,193354,3946.9564,N,08404.9849,W,2,11,0.80,302.66,M,-33.324,M,,*79
2017-11-16 14:33:55 1510860835.518594: $GPRMC,193354,A,3946.9564,N,08404.9849,W,0.0000,0.000,161117,,*35
2017-11-16 14:33:55 1510860835.518666: $GPGSA,A,3,8,10,15,18,21,20,24,27,32,14,138,,1.6,0.8,1.3*37
2017-11-16 14:33:56 1510860836.511769: $GPZDA,193355.00,16,11,2017,00,00*6D
2017-11-16 14:33:56 1510860836.511949: $GPGGA,193355,3946.9564,N,08404.9849,W,2,11,0.80,302.66,M,-33.324,M,,*78
2017-11-16 14:33:56 1510860836.512031: $GPRMC,193355,A,3946.9564,N,08404.9849,W,0.0000,0.000,161117,,*34
2017-11-16 14:33:56 1510860836.512090: $GPGSA,A,3,8,10,15,18,21,20,24,27,32,14,138,,1.6,0.8,1.3*37
2017-11-16 14:33:57 1510860837.853849: $GPGSV,3,1,11,08,08,313,32,10,49,309,49,15,29,055,50,18,76,003,45*70
2017-11-16 14:33:57 1510860837.854016: $GPGSV,3,2,11,21,54,184,45,20,26,103,46,24,53,094,50,27,17,280,42*77
2017-11-16 14:33:57 1510860837.854076: $GPGSV,3,3,11,32,28,244,48,14,11,237,39,138,38,213,44*74
2017-11-16 14:33:57 1510860837.967188: $GPZDA,193356.00,16,11,2017,00,00*6E
2017-11-16 14:33:57 1510860837.967370: $GPGGA,193356,3946.9564,N,08404.9849,W,2,11,0.80,302.66,M,-33.324,M,,*7B
2017-11-16 14:33:57 1510860837.967431: $GPRMC,193356,A,3946.9564,N,08404.9849,W,0.0000,0.000,161117,,*37
2017-11-16 14:33:57 1510860837.967487: $GPGSA,A,3,8,10,15,18,21,20,24,27,32,14,138,,1.6,0.8,1.3*37
2017-11-16 14:33:58 1510860838.517999: $GPZDA,193357.00,16,11,2017,00,00*6F
2017-11-16 14:33:58 1510860838.518151: $GPGGA,193357,3946.9564,N,08404.9849,W,2,11,0.80,302.66,M,-33.324,M,,*7A
2017-11-16 14:33:58 1510860838.518213: $GPRMC,193357,A,3946.9564,N,08404.9849,W,0.0000,0.000,161117,,*36
2017-11-16 14:33:58 1510860838.518289: $GPGSA,A,3,8,10,15,18,21,20,24,27,32,14,138,,1.6,0.8,1.3*37
2017-11-16 14:33:59 1510860839.519669: $GPZDA,193358.00,16,11,2017,00,00*60
2017-11-16 14:33:59 1510860839.519855: $GPGGA,193358,3946.9564,N,08404.9849,W,2,11,0.80,302.66,M,-33.324,M,,*75
2017-11-16 14:33:59 1510860839.519918: $GPRMC,193358,A,3946.9564,N,08404.9849,W,0.0000,0.000,161117,,*39
2017-11-16 14:33:59 1510860839.519974: $GPGSA,A,3,8,10,15,18,21,20,24,27,32,14,138,,1.6,0.8,1.3*37
2017-11-16 14:34:00 1510860840.855488: $GPGSV,3,1,11,08,08,313,32,10,49,309,49,15,29,055,51,18,76,003,45*71
2017-11-16 14:34:00 1510860840.855632: $GPGSV,3,2,11,21,54,184,45,20,26,103,46,24,53,094,49,27,17,280,42*7F
2017-11-16 14:34:00 1510860840.855711: $GPGSV,3,3,11,32,28,244,47,14,11,237,39,138,38,213,43*7C
2017-11-16 14:34:00 1510860840.968833: $GPZDA,193359.00,16,11,2017,00,00*61
2017-11-16 14:34:00 1510860840.968998: $GPGGA,193359,3946.9564,N,08404.9849,W,2,11,0.80,302.66,M,-33.324,M,,*74
2017-11-16 14:34:00 1510860840.969061: $GPRMC,193359,A,3946.9564,N,08404.9849,W,0.0000,0.000,161117,,*38
2017-11-16 14:34:00 1510860840.969117: $GPGSA,A,3,8,10,15,18,21,20,24,27,32,14,138,,1.6,0.8,1.3*37
2017-11-16 14:34:01 1510860841.518932: $GPZDA,193400.00,16,11,2017,00,00*6A
2017-11-16 14:34:01 1510860841.519213: $GPGGA,193400,3946.9564,N,08404.9849,W,2,11,0.80,302.66,M,-33.324,M,,*7F
2017-11-16 14:34:01 1510860841.519281: $GPRMC,193400,A,3946.9564,N,08404.9849,W,0.0000,0.000,161117,,*33
2017-11-16 14:34:01 1510860841.519338: $GPGSA,A,3,8,10,15,18,21,20,24,27,32,14,138,,1.6,0.8,1.3*37
2017-11-16 14:34:02 1510860842.519547: $GPZDA,193401.00,16,11,2017,00,00*6B
2017-11-16 14:34:02 1510860842.519726: $GPGGA,193401,3946.9564,N,08404.9849,W,2,11,0.80,302.66,M,-33.324,M,,*7E
2017-11-16 14:34:02 1510860842.519789: $GPRMC,193401,A,3946.9564,N,08404.9849,W,0.0000,0.000,161117,,*32
2017-11-16 14:34:02 1510860842.519861: $GPGSA,A,3,8,10,15,18,21,20,24,27,32,14,138,,1.6,0.8,1.3*37
2017-11-16 14:34:03 1510860843.855224: $GPGSV,3,1,11,08,08,313,32,10,49,309,49,15,29,055,51,18,76,003,45*71
2017-11-16 14:34:03 1510860843.855390: $GPGSV,3,2,11,21,54,184,45,20,26,103,46,24,53,094,49,27,17,280,42*7F
2017-11-16 14:34:03 1510860843.855450: $GPGSV,3,3,11,32,28,244,48,14,11,237,40,138,38,213,45*7B
2017-11-16 14:34:03 1510860843.968809: $GPZDA,193402.00,16,11,2017,00,00*68
2017-11-16 14:34:03 1510860843.968976: $GPGGA,193402,3946.9564,N,08404.9849,W,2,11,0.80,302.66,M,-33.324,M,,*7D
2017-11-16 14:34:03 1510860843.969037: $GPRMC,193402,A,3946.9564,N,08404.9849,W,0.0000,0.000,161117,,*31
2017-11-16 14:34:03 1510860843.969093: $GPGSA,A,3,8,10,15,18,21,20,24,27,32,14,138,,1.6,0.8,1.3*37
2017-11-16 14:34:04 1510860844.593952: $GPZDA,193403.00,16,11,2017,00,00*69
2017-11-16 14:34:04 1510860844.594119: $GPGGA,193403,3946.9564,N,08404.9849,W,2,11,0.80,302.66,M,-33.324,M,,*7C
2017-11-16 14:34:04 1510860844.594182: $GPRMC,193403,A,3946.9564,N,08404.9849,W,0.0000,0.000,161117,,*30
2017-11-16 14:34:04 1510860844.594239: $GPGSA,A,3,8,10,15,18,21,20,24,27,32,14,138,,1.6,0.8,1.3*37
2017-11-16 14:34:05 1510860845.520243: $GPZDA,193404.00,16,11,2017,00,00*6E
2017-11-16 14:34:05 1510860845.520459: $GPGGA,193404,3946.9564,N,08404.9849,W,2,11,0.80,302.66,M,-33.324,M,,*7B
2017-11-16 14:34:05 1510860845.520522: $GPRMC,193404,A,3946.9564,N,08404.9849,W,0.0000,0.000,161117,,*37
2017-11-16 14:34:05 1510860845.520578: $GPGSA,A,3,8,10,15,18,21,20,24,27,32,14,138,,1.6,0.8,1.3*37
2017-11-16 14:34:06 1510860846.855936: $GPGSV,3,1,11,08,08,313,32,10,49,309,49,15,29,055,51,18,76,003,46*72
2017-11-16 14:34:06 1510860846.856130: $GPGSV,3,2,11,21,54,184,45,20,26,103,46,24,53,094,49,27,17,280,42*7F
2017-11-16 14:34:06 1510860846.856193: $GPGSV,3,3,11,32,28,244,48,14,11,237,39,138,38,213,45*75
2017-11-16 14:34:06 1510860846.969502: $GPZDA,193405.00,16,11,2017,00,00*6F
2017-11-16 14:34:06 1510860846.969659: $GPGGA,193405,3946.9564,N,08404.9849,W,2,11,0.80,302.66,M,-33.324,M,,*7A
2017-11-16 14:34:06 1510860846.969719: $GPRMC,193405,A,3946.9564,N,08404.9849,W,0.0000,0.000,161117,,*36
2017-11-16 14:34:06 1510860846.969776: $GPGSA,A,3,8,10,15,18,21,20,24,27,32,14,138,,1.6,0.8,1.3*37
2017-11-16 14:34:07 1510860847.519152: $GPZDA,193406.00,16,11,2017,00,00*6C
2017-11-16 14:34:07 1510860847.519310: $GPGGA,193406,3946.9564,N,08404.9849,W,2,11,0.80,302.66,M,-33.324,M,,*79
2017-11-16 14:34:07 1510860847.519371: $GPRMC,193406,A,3946.9564,N,08404.9849,W,0.0000,0.000,161117,,*35
2017-11-16 14:34:07 1510860847.519427: $GPGSA,A,3,8,10,15,18,21,20,24,27,32,14,138,,1.6,0.8,1.3*37
2017-11-16 14:34:08 1510860848.520010: $GPZDA,193407.00,16,11,2017,00,00*6D
2017-11-16 14:34:08 1510860848.520171: $GPGGA,193407,3946.9564,N,08404.9849,W,2,11,0.80,302.66,M,-33.324,M,,*78
2017-11-16 14:34:08 1510860848.520232: $GPRMC,193407,A,3946.9564,N,08404.9849,W,0.0000,0.000,161117,,*34
2017-11-16 14:34:08 1510860848.520399: $GPGSA,A,3,8,10,15,18,21,20,24,27,32,14,138,,1.6,0.8,1.3*37
