2017-11-15 18:26:04 1510788364.325537: {"class":"VERSION","release":"3.17","rev":"3.17","proto_major":3,"proto_minor":12}
2017-11-15 18:26:04 1510788364.325989: {"class":"DEVICES","devices":[{"class":"DEVICE","path":"/dev/ttyUSB0","driver":"SiRF","subtype":"9\u0006GSD4e_4.1.2-P1_RPATCH.05-F-GPS-4R-1510281 11/03/2015 307","activated":"2017-11-15T23:26:04.247Z","flags":1,"native":1,"bps":4800,"parity":"N","stopbits":1,"cycle":1.00}]}
2017-11-15 18:26:04 1510788364.326137: {"class":"WATCH","enable":true,"json":false,"nmea":true,"raw":0,"scaled":false,"timing":false,"split24":false,"pps":false}
2017-11-15 18:26:04 1510788364.360938: $GPZDA,232603.00,15,11,2017,00,00*60
2017-11-15 18:26:04 1510788364.361125: $GPGGA,232603,3946.9575,N,08404.9512,W,1,07,5.20,292.49,M,-33.324,M,,*7B
2017-11-15 18:26:04 1510788364.361187: $GPRMC,232603,A,3946.9575,N,08404.9512,W,0.3423,4.197,151117,,*37
2017-11-15 18:26:04 1510788364.361258: $GPGSA,A,3,10,25,1,31,32,14,22,,,,,,3.4,5.2,2.9*08
2017-11-15 18:26:05 1510788365.360538: $GPZDA,232604.00,15,11,2017,00,00*67
2017-11-15 18:26:05 1510788365.360700: $GPGGA,232604,3946.9575,N,08404.9512,W,1,07,5.20,292.49,M,-33.324,M,,*7C
2017-11-15 18:26:05 1510788365.360762: $GPRMC,232604,A,3946.9575,N,08404.9512,W,0.8011,299.090,151117,,*3E
2017-11-15 18:26:05 1510788365.360818: $GPGSA,A,3,10,25,1,31,32,14,22,,,,,,3.4,5.2,2.9*08
2017-11-15 18:26:06 1510788366.664539: $GPGSV,3,1,10,10,25,156,11,26,22,178,07,25,37,060,24,01,20,277,18*78
2017-11-15 18:26:06 1510788366.664712: $GPGSV,3,2,10,31,76,265,19,32,57,073,22,14,70,030,24,22,37,304,10*71
2017-11-15 18:26:06 1510788366.664772: $GPGSV,3,3,10,03,18,316,13,12,09,034,00*79
2017-11-15 18:26:06 1510788366.778084: $GPZDA,232605.00,15,11,2017,00,00*66
2017-11-15 18:26:06 1510788366.778265: $GPGGA,232605,3946.9578,N,08404.9511,W,1,08,5.20,291.72,M,-33.324,M,,*77
2017-11-15 18:26:06 1510788366.778329: $GPRMC,232605,A,3946.9578,N,08404.9511,W,1.0002,334.331,151117,,*34
2017-11-15 18:26:06 1510788366.778389: $GPGSA,A,3,10,26,25,1,31,32,14,22,,,,,3.4,5.2,2.9*0C
2017-11-15 18:26:07 1510788367.330092: $GPZDA,232606.00,15,11,2017,00,00*65
2017-11-15 18:26:07 1510788367.330268: $GPGGA,232606,3946.9583,N,08404.9518,W,1,08,5.20,292.28,M,-33.324,M,,*75
2017-11-15 18:26:07 1510788367.330330: $GPRMC,232606,A,3946.9583,N,08404.9518,W,1.4168,332.696,151117,,*3D
2017-11-15 18:26:07 1510788367.330389: $GPGSA,A,3,10,26,25,1,31,32,14,22,,,,,3.4,5.2,2.9*0C
2017-11-15 18:26:08 1510788368.359652: $GPZDA,232607.00,15,11,2017,00,00*64
2017-11-15 18:26:08 1510788368.359814: $GPGGA,232607,3946.9586,N,08404.9517,W,1,08,5.20,291.52,M,-33.324,M,,*70
2017-11-15 18:26:08 1510788368.359876: $GPRMC,232607,A,3946.9586,N,08404.9517,W,1.4868,344.064,151117,,*35
2017-11-15 18:26:08 1510788368.359932: $GPGSA,A,3,10,26,25,1,31,32,14,22,,,,,3.4,5.2,2.9*0C
2017-11-15 18:26:09 1510788369.696925: $GPGSV,3,1,10,10,25,156,11,26,22,178,08,25,37,060,24,01,20,277,18*77
2017-11-15 18:26:09 1510788369.697095: $GPGSV,3,2,10,31,76,265,19,32,57,073,22,14,70,030,24,22,37,304,11*70
2017-11-15 18:26:09 1510788369.697159: $GPGSV,3,3,10,03,18,316,00,12,09,034,00*7B
2017-11-15 18:26:09 1510788369.809972: $GPZDA,232608.00,15,11,2017,00,00*6B
2017-11-15 18:26:09 1510788369.810149: $GPGGA,232608,3946.9586,N,08404.9517,W,1,08,1.20,291.52,M,-33.324,M,,*7B
2017-11-15 18:26:09 1510788369.810216: $GPRMC,232608,A,3946.9586,N,08404.9517,W,0.3423,4.197,151117,,*35
2017-11-15 18:26:09 1510788369.810272: $GPGSA,A,3,10,26,25,1,31,32,14,22,,,,,3.4,1.2,2.9*08
2017-11-15 18:26:10 1510788370.359628: $GPZDA,232609.00,15,11,2017,00,00*6A
2017-11-15 18:26:10 1510788370.359811: $GPGGA,232609,3946.9591,N,08404.9517,W,1,08,1.20,292.16,M,-33.324,M,,*7F
2017-11-15 18:26:10 1510788370.359876: $GPRMC,232609,A,3946.9591,N,08404.9517,W,1.0002,334.331,151117,,*39
2017-11-15 18:26:10 1510788370.359934: $GPGSA,A,3,10,26,25,1,31,32,14,22,,,,,3.4,1.2,2.9*08
2017-11-15 18:26:11 1510788371.359939: $GPZDA,232610.00,15,11,2017,00,00*62
2017-11-15 18:26:11 1510788371.360121: $GPGGA,232610,3946.9591,N,08404.9517,W,1,08,1.20,292.16,M,-33.324,M,,*77
2017-11-15 18:26:11 1510788371.360241: $GPRMC,232610,A,3946.9591,N,08404.9517,W,1.0354,317.462,151117,,*31
2017-11-15 18:26:11 1510788371.360300: $GPGSA,A,3,10,26,25,1,31,32,14,22,,,,,3.4,1.2,2.9*08
2017-11-15 18:26:12 1510788372.695766: $GPGSV,3,1,10,10,25,156,12,26,22,178,09,25,37,060,24,01,20,277,18*75
2017-11-15 18:26:12 1510788372.695939: $GPGSV,3,2,10,31,76,265,19,32,57,073,22,14,70,030,24,03,18,316,16*7A
2017-11-15 18:26:12 1510788372.695999: $GPGSV,3,3,10,22,37,304,00,12,09,034,00*76
2017-11-15 18:26:12 1510788372.809088: $GPZDA,232611.00,15,11,2017,00,00*63
2017-11-15 18:26:12 1510788372.809256: $GPGGA,232611,3946.9591,N,08404.9517,W,1,07,1.20,292.16,M,-33.324,M,,*79
2017-11-15 18:26:12 1510788372.809318: $GPRMC,232611,A,3946.9591,N,08404.9517,W,0.7246,344.668,151117,,*3A
2017-11-15 18:26:12 1510788372.809375: $GPGSA,A,3,10,26,25,1,31,32,14,,,,,,3.4,1.2,2.9*08
2017-11-15 18:26:13 1510788373.358714: $GPZDA,232612.00,15,11,2017,00,00*60
2017-11-15 18:26:13 1510788373.358881: $GPGGA,232612,3946.9594,N,08404.9523,W,1,07,1.20,291.31,M,-33.324,M,,*7E
2017-11-15 18:26:13 1510788373.358944: $GPRMC,232612,A,3946.9594,N,08404.9523,W,0.5857,338.291,151117,,*3A
2017-11-15 18:26:13 1510788373.359001: $GPGSA,A,3,10,26,25,1,31,32,14,,,,,,3.4,1.2,2.9*08
