2017-12-29 14:43:38 1514576618.624854: {"class":"VERSION","release":"3.16","rev":"3.16-4","proto_major":3,"proto_minor":11}
2017-12-29 14:43:38 1514576618.625352: {"class":"DEVICES","devices":[{"class":"DEVICE","path":"/dev/ttyUSB0","driver":"SiRF","subtype":"9\u0006GSD4e_4.1.2-P1_RPATCH.05-F-GPS-4R-1510281 11/03/2015 307","activated":"2017-12-29T19:43:38.562Z","flags":1,"native":1,"bps":4800,"parity":"N","stopbits":1,"cycle":1.00}]}
2017-12-29 14:43:38 1514576618.625485: {"class":"WATCH","enable":true,"json":false,"nmea":true,"raw":0,"scaled":false,"timing":false,"split24":false,"pps":false}
2017-12-29 14:43:39 1514576619.423965: $GPZDA,194340.00,29,12,2017,00,00*61
2017-12-29 14:43:39 1514576619.424141: $GPGGA,194340,3946.9597,N,08404.9818,W,2,12,0.80,301.72,M,-33.324,M,,*76
2017-12-29 14:43:39 1514576619.424209: $GPRMC,194340,A,3946.9597,N,08404.9818,W,0.0000,0.000,291217,,*30
2017-12-29 14:43:39 1514576619.424270: $GPGSA,A,3,1,10,11,12,14,18,22,25,31,32,26,138,1.7,0.8,1.3*3B
2017-12-29 14:43:40 1514576620.759395: $GPGSV,3,1,12,01,22,297,37,10,44,150,51,11,07,280,37,12,21,046,45*7A
2017-12-29 14:43:40 1514576620.759553: $GPGSV,3,2,12,14,67,333,43,18,14,145,44,22,22,312,43,25,40,087,51*78
2017-12-29 14:43:40 1514576620.759618: $GPGSV,3,3,12,31,61,228,47,32,67,039,50,26,06,181,23,138,38,213,43*46
2017-12-29 14:43:40 1514576620.873086: $GPZDA,194341.00,29,12,2017,00,00*60
2017-12-29 14:43:40 1514576620.873225: $GPGGA,194341,3946.9597,N,08404.9818,W,2,12,0.80,301.72,M,-33.324,M,,*77
2017-12-29 14:43:40 1514576620.873290: $GPRMC,194341,A,3946.9597,N,08404.9818,W,0.0000,0.000,291217,,*31
2017-12-29 14:43:40 1514576620.873368: $GPGSA,A,3,1,10,11,12,14,18,22,25,31,32,26,138,1.7,0.8,1.3*3B
2017-12-29 14:43:41 1514576621.498441: $GPZDA,194342.00,29,12,2017,00,00*63
2017-12-29 14:43:41 1514576621.498603: $GPGGA,194342,3946.9597,N,08404.9818,W,2,12,0.80,301.72,M,-33.324,M,,*74
2017-12-29 14:43:41 1514576621.498670: $GPRMC,194342,A,3946.9597,N,08404.9818,W,0.0000,0.000,291217,,*32
2017-12-29 14:43:41 1514576621.498748: $GPGSA,A,3,1,10,11,12,14,18,22,25,31,32,26,138,1.7,0.8,1.3*3B
2017-12-29 14:43:42 1514576622.381907: $GPZDA,194343.00,29,12,2017,00,00*62
2017-12-29 14:43:42 1514576622.382074: $GPGGA,194343,3946.9597,N,08404.9818,W,2,12,0.80,301.72,M,-33.324,M,,*75
2017-12-29 14:43:42 1514576622.382139: $GPRMC,194343,A,3946.9597,N,08404.9818,W,0.0000,0.000,291217,,*33
2017-12-29 14:43:42 1514576622.382199: $GPGSA,A,3,1,10,11,12,14,18,22,25,31,32,26,138,1.7,0.8,1.3*3B
2017-12-29 14:43:43 1514576623.724731: $GPGSV,3,1,12,01,22,297,38,10,44,150,51,11,07,280,36,12,21,046,45*74
2017-12-29 14:43:43 1514576623.829213: $GPGSV,3,2,12,14,67,333,43,18,14,145,44,22,22,312,43,25,40,087,51*78
2017-12-29 14:43:43 1514576623.829339: $GPGSV,3,3,12,31,61,228,47,32,67,039,50,26,06,181,22,138,38,213,43*47
2017-12-29 14:43:43 1514576623.838127: $GPZDA,194344.00,29,12,2017,00,00*65
2017-12-29 14:43:43 1514576623.838277: $GPGGA,194344,3946.9597,N,08404.9818,W,2,12,0.80,301.72,M,-33.324,M,,*72
2017-12-29 14:43:43 1514576623.838346: $GPRMC,194344,A,3946.9597,N,08404.9818,W,0.0000,0.000,291217,,*34
2017-12-29 14:43:43 1514576623.838408: $GPGSA,A,3,1,10,11,12,14,18,22,25,31,32,26,138,1.7,0.8,1.3*3B
2017-12-29 14:43:44 1514576624.422751: $GPZDA,194345.00,29,12,2017,00,00*64
2017-12-29 14:43:44 1514576624.422910: $GPGGA,194345,3946.9597,N,08404.9818,W,2,12,0.80,301.72,M,-33.324,M,,*73
2017-12-29 14:43:44 1514576624.422994: $GPRMC,194345,A,3946.9597,N,08404.9818,W,0.0000,0.000,291217,,*35
2017-12-29 14:43:44 1514576624.423058: $GPGSA,A,3,1,10,11,12,14,18,22,25,31,32,26,138,1.7,0.8,1.3*3B
2017-12-29 14:43:45 1514576625.387652: $GPZDA,194346.00,29,12,2017,00,00*67
2017-12-29 14:43:45 1514576625.387838: $GPGGA,194346,3946.9593,N,08404.9818,W,2,12,0.80,302.48,M,-33.324,M,,*7E
2017-12-29 14:43:45 1514576625.387909: $GPRMC,194346,A,3946.9593,N,08404.9818,W,0.0000,0.000,291217,,*32
2017-12-29 14:43:45 1514576625.387972: $GPGSA,A,3,1,10,11,12,14,18,22,25,31,32,26,138,1.7,0.8,1.3*3B
2017-12-29 14:43:46 1514576626.757580: $GPGSV,3,1,12,01,22,297,38,10,44,150,51,11,07,280,36,12,21,046,45*74
2017-12-29 14:43:46 1514576626.757785: $GPGSV,3,2,12,14,67,333,43,18,14,145,44,22,22,312,42,25,40,087,51*79
2017-12-29 14:43:46 1514576626.757853: $GPGSV,3,3,12,31,61,228,47,32,67,039,50,26,06,181,21,138,38,213,44*43
2017-12-29 14:43:46 1514576626.870906: $GPZDA,194347.00,29,12,2017,00,00*66
2017-12-29 14:43:46 1514576626.871152: $GPGGA,194347,3946.9593,N,08404.9818,W,2,12,0.80,302.48,M,-33.324,M,,*7F
2017-12-29 14:43:46 1514576626.871226: $GPRMC,194347,A,3946.9593,N,08404.9818,W,0.0000,0.000,291217,,*33
2017-12-29 14:43:46 1514576626.871287: $GPGSA,A,3,1,10,11,12,14,18,22,25,31,32,26,138,1.7,0.8,1.3*3B
2017-12-29 14:43:47 1514576627.423054: $GPZDA,194348.00,29,12,2017,00,00*69
2017-12-29 14:43:47 1514576627.423199: $GPGGA,194348,3946.9593,N,08404.9818,W,2,12,0.80,302.48,M,-33.324,M,,*70
2017-12-29 14:43:47 1514576627.423262: $GPRMC,194348,A,3946.9593,N,08404.9818,W,0.0000,0.000,291217,,*3C
2017-12-29 14:43:47 1514576627.423322: $GPGSA,A,3,1,10,11,12,14,18,22,25,31,32,26,138,1.7,0.8,1.3*3B
2017-12-29 14:43:48 1514576628.417776: $GPZDA,194349.00,29,12,2017,00,00*68
2017-12-29 14:43:48 1514576628.417950: $GPGGA,194349,3946.9593,N,08404.9818,W,2,12,0.80,302.48,M,-33.324,M,,*71
2017-12-29 14:43:48 1514576628.418017: $GPRMC,194349,A,3946.9593,N,08404.9818,W,0.0000,0.000,291217,,*3D
2017-12-29 14:43:48 1514576628.418078: $GPGSA,A,3,1,10,11,12,14,18,22,25,31,32,26,138,1.7,0.8,1.3*3B
