2017-12-31 18:54:58 1514764498.688591: {"class":"VERSION","release":"3.16","rev":"3.16-4","proto_major":3,"proto_minor":11}
2017-12-31 18:54:58 1514764498.689013: {"class":"DEVICES","devices":[{"class":"DEVICE","path":"/dev/ttyUSB0","driver":"SiRF","activated":"2017-12-31T23:54:58.531Z","flags":1,"native":1,"bps":4800,"parity":"N","stopbits":1,"cycle":1.00}]}
2017-12-31 18:54:58 1514764498.689110: {"class":"WATCH","enable":true,"json":false,"nmea":true,"raw":0,"scaled":false,"timing":false,"split24":false,"pps":false}
2017-12-31 18:54:59 1514764499.352357: $GPZDA,235500.00,31,12,2017,00,00*62
2017-12-31 18:54:59 1514764499.352554: $GPGGA,235500,3946.9578,N,08404.9811,W,2,11,0.80,312.08,M,-33.324,M,,*78
2017-12-31 18:54:59 1514764499.352623: $GPRMC,235500,A,3946.9578,N,08404.9811,W,0.0000,0.000,311217,,*3B
2017-12-31 18:54:59 1514764499.352684: $GPGSA,A,3,22,23,9,3,16,8,31,27,7,26,135,,1.7,0.8,1.3*09
2017-12-31 18:55:00 1514764500.718447: $GPGSV,3,1,11,22,06,202,25,23,69,274,38,09,38,309,34,03,16,219,29*74
2017-12-31 18:55:00 1514764500.718641: $GPGSV,3,2,11,16,74,036,44,08,18,175,42,31,15,090,35,27,42,141,42*75
2017-12-31 18:55:00 1514764500.718707: $GPGSV,3,3,11,07,12,286,47,26,42,048,47,135,22,240,43*79
2017-12-31 18:55:00 1514764500.832061: $GPZDA,235501.00,31,12,2017,00,00*63
2017-12-31 18:55:00 1514764500.832210: $GPGGA,235501,3946.9578,N,08404.9811,W,2,11,0.80,312.08,M,-33.324,M,,*79
2017-12-31 18:55:00 1514764500.832277: $GPRMC,235501,A,3946.9578,N,08404.9811,W,0.0000,0.000,311217,,*3A
2017-12-31 18:55:00 1514764500.832338: $GPGSA,A,3,22,23,9,3,16,8,31,27,7,26,135,,1.7,0.8,1.3*09
2017-12-31 18:55:01 1514764501.383037: $GPZDA,235502.00,31,12,2017,00,00*60
2017-12-31 18:55:01 1514764501.383191: $GPGGA,235502,3946.9578,N,08404.9811,W,2,11,0.80,312.08,M,-33.324,M,,*7A
2017-12-31 18:55:01 1514764501.383259: $GPRMC,235502,A,3946.9578,N,08404.9811,W,0.0000,0.000,311217,,*39
2017-12-31 18:55:01 1514764501.383320: $GPGSA,A,3,22,23,9,3,16,8,31,27,7,26,135,,1.7,0.8,1.3*09
2017-12-31 18:55:02 1514764502.391420: $GPZDA,235503.00,31,12,2017,00,00*61
2017-12-31 18:55:02 1514764502.391582: $GPGGA,235503,3946.9578,N,08404.9811,W,2,11,0.80,312.08,M,-33.324,M,,*7B
2017-12-31 18:55:02 1514764502.391651: $GPRMC,235503,A,3946.9578,N,08404.9811,W,0.0000,0.000,311217,,*38
2017-12-31 18:55:02 1514764502.391712: $GPGSA,A,3,22,23,9,3,16,8,31,27,7,26,135,,1.7,0.8,1.3*09
2017-12-31 18:55:03 1514764503.726861: $GPGSV,3,1,11,22,06,202,25,23,69,274,37,09,38,309,34,03,16,219,29*7B
2017-12-31 18:55:03 1514764503.727039: $GPGSV,3,2,11,16,74,036,44,08,18,175,42,31,15,090,35,27,42,141,41*76
2017-12-31 18:55:03 1514764503.727182: $GPGSV,3,3,11,07,12,286,46,26,42,048,47,135,22,240,44*7F
2017-12-31 18:55:03 1514764503.839242: $GPZDA,235504.00,31,12,2017,00,00*66
2017-12-31 18:55:03 1514764503.839400: $GPGGA,235504,3946.9578,N,08404.9811,W,2,11,0.80,312.08,M,-33.324,M,,*7C
2017-12-31 18:55:03 1514764503.839470: $GPRMC,235504,A,3946.9578,N,08404.9811,W,0.0000,0.000,311217,,*3F
2017-12-31 18:55:03 1514764503.839531: $GPGSA,A,3,22,23,9,3,16,8,31,27,7,26,135,,1.7,0.8,1.3*09
2017-12-31 18:55:04 1514764504.390120: $GPZDA,235505.00,31,12,2017,00,00*67
2017-12-31 18:55:04 1514764504.390283: $GPGGA,235505,3946.9578,N,08404.9811,W,2,11,0.80,312.08,M,-33.324,M,,*7D
2017-12-31 18:55:04 1514764504.390351: $GPRMC,235505,A,3946.9578,N,08404.9811,W,0.0000,0.000,311217,,*3E
2017-12-31 18:55:04 1514764504.390414: $GPGSA,A,3,22,23,9,3,16,8,31,27,7,26,135,,1.7,0.8,1.3*09
2017-12-31 18:55:05 1514764505.351773: $GPZDA,235506.00,31,12,2017,00,00*64
2017-12-31 18:55:05 1514764505.351940: $GPGGA,235506,3946.9578,N,08404.9811,W,2,11,0.80,312.08,M,-33.324,M,,*7E
2017-12-31 18:55:05 1514764505.352008: $GPRMC,235506,A,3946.9578,N,08404.9811,W,0.0000,0.000,311217,,*3D
2017-12-31 18:55:05 1514764505.352071: $GPGSA,A,3,22,23,9,3,16,8,31,27,7,26,135,,1.7,0.8,1.3*09
2017-12-31 18:55:06 1514764506.688487: $GPGSV,3,1,11,22,06,202,25,23,69,274,37,09,38,309,34,03,16,219,27*75
2017-12-31 18:55:06 1514764506.688664: $GPGSV,3,2,11,16,74,036,44,08,18,175,42,31,15,090,34,27,42,141,41*77
2017-12-31 18:55:06 1514764506.688777: $GPGSV,3,3,11,07,12,286,46,26,42,048,47,135,22,240,44*7F
2017-12-31 18:55:06 1514764506.801768: $GPZDA,235507.00,31,12,2017,00,00*65
2017-12-31 18:55:06 1514764506.801944: $GPGGA,235507,3946.9578,N,08404.9811,W,2,11,0.80,312.08,M,-33.324,M,,*7F
2017-12-31 18:55:06 1514764506.802011: $GPRMC,235507,A,3946.9578,N,08404.9811,W,0.0000,0.000,311217,,*3C
2017-12-31 18:55:06 1514764506.802073: $GPGSA,A,3,22,23,9,3,16,8,31,27,7,26,135,,1.7,0.8,1.3*09
2017-12-31 18:55:07 1514764507.352848: $GPZDA,235508.00,31,12,2017,00,00*6A
2017-12-31 18:55:07 1514764507.353011: $GPGGA,235508,3946.9578,N,08404.9811,W,2,11,0.80,312.08,M,-33.324,M,,*70
2017-12-31 18:55:07 1514764507.353081: $GPRMC,235508,A,3946.9578,N,08404.9811,W,0.0000,0.000,311217,,*33
2017-12-31 18:55:07 1514764507.353143: $GPGSA,A,3,22,23,9,3,16,8,31,27,7,26,135,,1.7,0.8,1.3*09
2017-12-31 18:55:08 1514764508.382512: $GPZDA,235509.00,31,12,2017,00,00*6B
2017-12-31 18:55:08 1514764508.382679: $GPGGA,235509,3946.9578,N,08404.9811,W,2,11,0.80,312.08,M,-33.324,M,,*71
2017-12-31 18:55:08 1514764508.382746: $GPRMC,235509,A,3946.9578,N,08404.9811,W,0.0000,0.000,311217,,*32
2017-12-31 18:55:08 1514764508.382808: $GPGSA,A,3,22,23,9,3,16,8,31,27,7,26,135,,1.7,0.8,1.3*09
