2017-11-16 16:50:15 1510869015.571942: {"class":"VERSION","release":"3.17","rev":"3.17","proto_major":3,"proto_minor":12}
2017-11-16 16:50:15 1510869015.572499: {"class":"DEVICES","devices":[{"class":"DEVICE","path":"/dev/ttyUSB0","driver":"SiRF","subtype":"9\u0006GSD4e_4.1.2-P1_RPATCH.05-F-GPS-4R-1510281 11/03/2015 307","activated":"2017-11-16T21:50:15.500Z","flags":1,"native":1,"bps":4800,"parity":"N","stopbits":1,"cycle":1.00}]}
2017-11-16 16:50:15 1510869015.572611: {"class":"WATCH","enable":true,"json":false,"nmea":true,"raw":0,"scaled":false,"timing":false,"split24":false,"pps":false}
2017-11-16 16:50:16 1510869016.445400: $GPZDA,215015.00,16,11,2017,00,00*67
2017-11-16 16:50:16 1510869016.445559: $GPGGA,215015,3946.9581,N,08404.9830,W,2,12,0.80,308.27,M,-33.324,M,,*7B
2017-11-16 16:50:16 1510869016.445620: $GPRMC,215015,A,3946.9581,N,08404.9830,W,0.0000,0.000,161117,,*3B
2017-11-16 16:50:16 1510869016.445699: $GPGSA,A,3,1,10,11,12,14,18,24,25,31,32,22,138,1.6,0.8,1.3*38
2017-11-16 16:50:17 1510869017.781025: $GPGSV,3,1,12,01,14,318,34,10,68,133,49,11,11,300,22,12,25,070,46*70
2017-11-16 16:50:17 1510869017.781209: $GPGSV,3,2,12,14,56,294,46,18,36,136,42,24,13,045,42,25,30,112,41*7E
2017-11-16 16:50:17 1510869017.781269: $GPGSV,3,3,12,31,35,213,47,32,68,331,50,22,03,310,31,138,38,213,45*45
2017-11-16 16:50:17 1510869017.894196: $GPZDA,215016.00,16,11,2017,00,00*64
2017-11-16 16:50:17 1510869017.894405: $GPGGA,215016,3946.9581,N,08404.9830,W,2,12,0.80,308.27,M,-33.324,M,,*78
2017-11-16 16:50:17 1510869017.894468: $GPRMC,215016,A,3946.9581,N,08404.9830,W,0.0000,0.000,161117,,*38
2017-11-16 16:50:17 1510869017.894524: $GPGSA,A,3,1,10,11,12,14,18,24,25,31,32,22,138,1.6,0.8,1.3*38
2017-11-16 16:50:18 1510869018.462657: $GPZDA,215017.00,16,11,2017,00,00*65
2017-11-16 16:50:18 1510869018.462843: $GPGGA,215017,3946.9581,N,08404.9830,W,2,12,0.80,308.27,M,-33.324,M,,*79
2017-11-16 16:50:18 1510869018.462907: $GPRMC,215017,A,3946.9581,N,08404.9830,W,0.0000,0.000,161117,,*39
2017-11-16 16:50:18 1510869018.462963: $GPGSA,A,3,1,10,11,12,14,18,24,25,31,32,22,138,1.6,0.8,1.3*38
2017-11-16 16:50:19 1510869019.463509: $GPZDA,215018.00,16,11,2017,00,00*6A
2017-11-16 16:50:19 1510869019.463715: $GPGGA,215018,3946.9581,N,08404.9830,W,2,12,0.80,308.27,M,-33.324,M,,*76
2017-11-16 16:50:19 1510869019.463777: $GPRMC,215018,A,3946.9581,N,08404.9830,W,0.0000,0.000,161117,,*36
2017-11-16 16:50:19 1510869019.463834: $GPGSA,A,3,1,10,11,12,14,18,24,25,31,32,22,138,1.6,0.8,1.3*38
2017-11-16 16:50:20 1510869020.776774: $GPGSV,3,1,12,01,14,318,34,10,68,133,49,11,11,300,09,12,25,070,47*78
2017-11-16 16:50:20 1510869020.776943: $GPGSV,3,2,12,14,56,294,46,18,36,136,42,24,13,045,42,25,30,112,41*7E
2017-11-16 16:50:20 1510869020.777004: $GPGSV,3,3,12,31,35,213,47,32,68,331,50,22,03,310,26,138,38,213,45*43
2017-11-16 16:50:20 1510869020.890019: $GPZDA,215019.00,16,11,2017,00,00*6B
2017-11-16 16:50:20 1510869020.890227: $GPGGA,215019,3946.9581,N,08404.9830,W,2,12,0.80,308.27,M,-33.324,M,,*77
2017-11-16 16:50:20 1510869020.890288: $GPRMC,215019,A,3946.9581,N,08404.9830,W,0.0000,0.000,161117,,*37
2017-11-16 16:50:20 1510869020.890343: $GPGSA,A,3,1,10,11,12,14,18,24,25,31,32,22,138,1.6,0.8,1.3*38
2017-11-16 16:50:21 1510869021.515484: $GPZDA,215020.00,16,11,2017,00,00*61
2017-11-16 16:50:21 1510869021.515694: $GPGGA,215020,3946.9581,N,08404.9830,W,2,12,0.80,308.27,M,-33.324,M,,*7D
2017-11-16 16:50:21 1510869021.515755: $GPRMC,215020,A,3946.9581,N,08404.9830,W,0.0000,0.000,161117,,*3D
2017-11-16 16:50:21 1510869021.515812: $GPGSA,A,3,1,10,11,12,14,18,24,25,31,32,22,138,1.6,0.8,1.3*38
2017-11-16 16:50:22 1510869022.461401: $GPZDA,215021.00,16,11,2017,00,00*60
2017-11-16 16:50:22 1510869022.461578: $GPGGA,215021,3946.9581,N,08404.9830,W,2,12,0.80,308.27,M,-33.324,M,,*7C
2017-11-16 16:50:22 1510869022.461655: $GPRMC,215021,A,3946.9581,N,08404.9830,W,0.0000,0.000,161117,,*3C
2017-11-16 16:50:22 1510869022.461713: $GPGSA,A,3,1,10,11,12,14,18,24,25,31,32,22,138,1.6,0.8,1.3*38
2017-11-16 16:50:23 1510869023.782082: $GPGSV,3,1,12,01,14,318,35,10,68,133,49,11,11,300,16,12,25,070,47*77
2017-11-16 16:50:23 1510869023.782299: $GPGSV,3,2,12,14,56,294,46,18,36,136,42,24,13,045,42,25,30,112,42*7D
2017-11-16 16:50:23 1510869023.782362: $GPGSV,3,3,12,31,35,213,47,32,68,331,50,22,03,310,27,138,38,213,44*43
2017-11-16 16:50:23 1510869023.895406: $GPZDA,215022.00,16,11,2017,00,00*63
2017-11-16 16:50:23 1510869023.895583: $GPGGA,215022,3946.9581,N,08404.9830,W,2,12,0.80,308.27,M,-33.324,M,,*7F
2017-11-16 16:50:23 1510869023.895661: $GPRMC,215022,A,3946.9581,N,08404.9830,W,0.0000,0.000,161117,,*3F
2017-11-16 16:50:23 1510869023.895718: $GPGSA,A,3,1,10,11,12,14,18,24,25,31,32,22,138,1.6,0.8,1.3*38
2017-11-16 16:50:24 1510869024.464006: $GPZDA,215023.00,16,11,2017,00,00*62
2017-11-16 16:50:24 1510869024.464157: $GPGGA,215023,3946.9581,N,08404.9830,W,2,12,0.80,308.27,M,-33.324,M,,*7E
2017-11-16 16:50:24 1510869024.464219: $GPRMC,215023,A,3946.9581,N,08404.9830,W,0.0000,0.000,161117,,*3E
2017-11-16 16:50:24 1510869024.464274: $GPGSA,A,3,1,10,11,12,14,18,24,25,31,32,22,138,1.6,0.8,1.3*38
2017-11-16 16:50:25 1510869025.444879: $GPZDA,215024.00,16,11,2017,00,00*65
2017-11-16 16:50:25 1510869025.445086: $GPGGA,215024,3946.9581,N,08404.9830,W,2,12,0.80,308.27,M,-33.324,M,,*79
2017-11-16 16:50:25 1510869025.445156: $GPRMC,215024,A,3946.9581,N,08404.9830,W,0.0000,0.000,161117,,*39
2017-11-16 16:50:25 1510869025.445212: $GPGSA,A,3,1,10,11,12,14,18,24,25,31,32,22,138,1.6,0.8,1.3*38
