2017-12-01 18:06:42 1512169602.056704: {"class":"VERSION","release":"3.16","rev":"3.16-4","proto_major":3,"proto_minor":11}
2017-12-01 18:06:42 1512169602.057114: {"class":"DEVICES","devices":[{"class":"DEVICE","path":"/dev/ttyUSB0","driver":"SiRF","subtype":"9\u0006GSD4e_4.1.2-P1_RPATCH.05-F-GPS-4R-1510281 11/03/2015 307","activated":"2017-12-01T23:06:41.679Z","flags":1,"native":1,"bps":4800,"parity":"N","stopbits":1,"cycle":1.00}]}
2017-12-01 18:06:42 1512169602.057235: {"class":"WATCH","enable":true,"json":false,"nmea":true,"raw":0,"scaled":false,"timing":false,"split24":false,"pps":false}
2017-12-01 18:06:42 1512169602.364029: $GPZDA,230643.00,01,12,2017,00,00*60
2017-12-01 18:06:42 1512169602.364206: $GPGGA,230643,3946.9739,N,08404.9839,W,2,11,0.80,298.32,M,-33.325,M,,*7F
2017-12-01 18:06:42 1512169602.364273: $GPRMC,230643,A,3946.9739,N,08404.9839,W,0.0000,0.000,011217,,*34
2017-12-01 18:06:42 1512169602.364335: $GPGSA,A,3,3,14,16,22,23,25,26,31,32,1,138,,2.0,0.8,1.5*07
2017-12-01 18:06:43 1512169603.700749: $GPGSV,3,1,12,03,35,306,46,14,60,079,44,16,15,189,44,22,49,282,46*73
2017-12-01 18:06:43 1512169603.700908: $GPGSV,3,2,12,23,06,297,40,25,24,043,43,26,45,174,46,31,73,010,47*74
2017-12-01 18:06:43 1512169603.700975: $GPGSV,3,3,12,32,41,100,42,01,10,258,31,10,04,159,11,138,38,213,46*4F
2017-12-01 18:06:43 1512169603.814550: $GPZDA,230644.00,01,12,2017,00,00*67
2017-12-01 18:06:43 1512169603.814726: $GPGGA,230644,3946.9739,N,08404.9839,W,2,12,0.80,298.32,M,-33.325,M,,*7B
2017-12-01 18:06:43 1512169603.814793: $GPRMC,230644,A,3946.9739,N,08404.9839,W,0.0000,0.000,011217,,*33
2017-12-01 18:06:43 1512169603.814854: $GPGSA,A,3,3,14,16,22,23,25,26,31,32,1,10,138,2.0,0.8,1.5*06
2017-12-01 18:06:44 1512169604.361325: $GPZDA,230645.00,01,12,2017,00,00*66
2017-12-01 18:06:44 1512169604.361541: $GPGGA,230645,3946.9739,N,08404.9839,W,2,12,0.80,298.32,M,-33.325,M,,*7A
2017-12-01 18:06:44 1512169604.361608: $GPRMC,230645,A,3946.9739,N,08404.9839,W,0.0000,0.000,011217,,*32
2017-12-01 18:06:44 1512169604.361670: $GPGSA,A,3,3,14,16,22,23,25,26,31,32,1,10,138,2.0,0.8,1.5*06
2017-12-01 18:06:45 1512169605.374634: $GPZDA,230646.00,01,12,2017,00,00*65
2017-12-01 18:06:45 1512169605.374817: $GPGGA,230646,3946.9739,N,08404.9839,W,2,12,0.80,298.32,M,-33.325,M,,*79
2017-12-01 18:06:45 1512169605.374889: $GPRMC,230646,A,3946.9739,N,08404.9839,W,0.0000,0.000,011217,,*31
2017-12-01 18:06:45 1512169605.374953: $GPGSA,A,3,3,14,16,22,23,25,26,31,32,1,10,138,2.0,0.8,1.5*06
2017-12-01 18:06:46 1512169606.700337: $GPGSV,3,1,12,03,35,306,46,14,60,079,43,16,15,189,43,22,49,282,46*73
2017-12-01 18:06:46 1512169606.700525: $GPGSV,3,2,12,23,06,297,40,25,24,043,43,26,45,174,45,31,73,010,47*77
2017-12-01 18:06:46 1512169606.700596: $GPGSV,3,3,12,32,41,100,43,01,10,258,30,10,04,159,24,138,38,213,45*4A
2017-12-01 18:06:46 1512169606.813780: $GPZDA,230647.00,01,12,2017,00,00*64
2017-12-01 18:06:46 1512169606.813958: $GPGGA,230647,3946.9739,N,08404.9839,W,2,12,0.80,298.32,M,-33.325,M,,*78
2017-12-01 18:06:46 1512169606.814050: $GPRMC,230647,A,3946.9739,N,08404.9839,W,0.0000,0.000,011217,,*30
2017-12-01 18:06:46 1512169606.814116: $GPGSA,A,3,3,14,16,22,23,25,26,31,32,1,10,138,2.0,0.8,1.5*06
2017-12-01 18:06:47 1512169607.439137: $GPZDA,230648.00,01,12,2017,00,00*6B
2017-12-01 18:06:47 1512169607.439307: $GPGGA,230648,3946.9739,N,08404.9839,W,2,12,0.80,298.32,M,-33.325,M,,*77
2017-12-01 18:06:47 1512169607.439377: $GPRMC,230648,A,3946.9739,N,08404.9839,W,0.0000,0.000,011217,,*3F
2017-12-01 18:06:47 1512169607.439441: $GPGSA,A,3,3,14,16,22,23,25,26,31,32,1,10,138,2.0,0.8,1.5*06
2017-12-01 18:06:48 1512169608.374184: $GPZDA,230649.00,01,12,2017,00,00*6A
2017-12-01 18:06:48 1512169608.374356: $GPGGA,230649,3946.9739,N,08404.9839,W,2,12,0.80,298.32,M,-33.325,M,,*76
2017-12-01 18:06:48 1512169608.374426: $GPRMC,230649,A,3946.9739,N,08404.9839,W,0.0000,0.000,011217,,*3E
2017-12-01 18:06:48 1512169608.374489: $GPGSA,A,3,3,14,16,22,23,25,26,31,32,1,10,138,2.0,0.8,1.5*06
2017-12-01 18:06:50 1512169610.228298: $GPGSV,3,1,12,03,35,306,46,14,60,081,43,16,16,189,43,22,49,282,47*76
2017-12-01 18:06:50 1512169610.228530: $GPGSV,3,2,12,23,06,297,41,25,23,043,43,26,45,174,46,31,73,012,46*71
2017-12-01 18:06:50 1512169610.228600: $GPGSV,3,3,12,32,41,100,42,01,10,258,30,29,08,079,00,138,38,213,46*4B
2017-12-01 18:06:50 1512169610.341774: $GPZDA,230650.00,01,12,2017,00,00*62
2017-12-01 18:06:50 1512169610.341961: $GPGGA,230650,3946.9739,N,08404.9846,W,2,11,0.80,298.24,M,-33.325,M,,*72
2017-12-01 18:06:50 1512169610.342031: $GPRMC,230650,A,3946.9739,N,08404.9846,W,0.0000,0.000,011217,,*3E
2017-12-01 18:06:50 1512169610.342108: $GPGSA,A,3,3,14,16,22,23,25,26,31,32,1,138,,2.0,0.8,1.5*07
2017-12-01 18:06:50 1512169610.792655: $GPZDA,230651.00,01,12,2017,00,00*63
2017-12-01 18:06:50 1512169610.792829: $GPGGA,230651,3946.9739,N,08404.9846,W,2,11,0.80,298.24,M,-33.325,M,,*73
2017-12-01 18:06:50 1512169610.792895: $GPRMC,230651,A,3946.9739,N,08404.9846,W,0.0000,0.000,011217,,*3F
2017-12-01 18:06:50 1512169610.792979: $GPGSA,A,3,3,14,16,22,23,25,26,31,32,1,138,,2.0,0.8,1.5*07
2017-12-01 18:06:51 1512169611.363446: $GPZDA,230652.00,01,12,2017,00,00*60
2017-12-01 18:06:51 1512169611.366139: $GPGGA,230652,3946.9739,N,08404.9846,W,2,11,0.80,298.24,M,-33.325,M,,*70
2017-12-01 18:06:51 1512169611.366252: $GPRMC,230652,A,3946.9739,N,08404.9846,W,0.0000,0.000,011217,,*3C
2017-12-01 18:06:51 1512169611.366317: $GPGSA,A,3,3,14,16,22,23,25,26,31,32,1,138,,2.0,0.8,1.5*07
2017-12-01 18:06:52 1512169612.699873: $GPGSV,3,1,12,03,35,306,46,14,60,081,43,16,16,189,43,22,49,282,47*76
2017-12-01 18:06:52 1512169612.700055: $GPGSV,3,2,12,23,06,297,41,25,23,043,43,26,45,174,46,31,73,012,46*71
2017-12-01 18:06:52 1512169612.700122: $GPGSV,3,3,12,32,41,100,42,01,10,258,30,10,04,159,24,138,38,213,46*48
2017-12-01 18:06:52 1512169612.813298: $GPZDA,230653.00,01,12,2017,00,00*61
2017-12-01 18:06:52 1512169612.813476: $GPGGA,230653,3946.9735,N,08404.9846,W,2,11,0.80,297.60,M,-33.325,M,,*72
2017-12-01 18:06:52 1512169612.813543: $GPRMC,230653,A,3946.9735,N,08404.9846,W,0.0000,0.000,011217,,*31
2017-12-01 18:06:52 1512169612.813605: $GPGSA,A,3,3,14,16,22,23,25,26,31,32,1,138,,2.0,0.8,1.5*07
2017-12-01 18:06:53 1512169613.366906: $GPZDA,230654.00,01,12,2017,00,00*66
2017-12-01 18:06:53 1512169613.367108: $GPGGA,230654,3946.9735,N,08404.9846,W,2,11,0.80,297.60,M,-33.325,M,,*75
2017-12-01 18:06:53 1512169613.367178: $GPRMC,230654,A,3946.9735,N,08404.9846,W,0.0000,0.000,011217,,*36
2017-12-01 18:06:53 1512169613.367240: $GPGSA,A,3,3,14,16,22,23,25,26,31,32,1,138,,2.0,0.8,1.5*07
2017-12-01 18:06:54 1512169614.365046: $GPZDA,230655.00,01,12,2017,00,00*67
2017-12-01 18:06:54 1512169614.365230: $GPGGA,230655,3946.9735,N,08404.9846,W,2,11,0.80,297.60,M,-33.325,M,,*74
2017-12-01 18:06:54 1512169614.365298: $GPRMC,230655,A,3946.9735,N,08404.9846,W,0.0000,0.000,011217,,*37
2017-12-01 18:06:54 1512169614.365359: $GPGSA,A,3,3,14,16,22,23,25,26,31,32,1,138,,2.0,0.8,1.5*07
2017-12-01 18:06:55 1512169615.705808: $GPGSV,3,1,12,03,35,306,46,14,60,081,43,16,16,189,43,22,49,282,46*77
2017-12-01 18:06:55 1512169615.706011: $GPGSV,3,2,12,23,06,297,41,25,23,043,43,26,45,174,46,31,73,012,47*70
2017-12-01 18:06:55 1512169615.706079: $GPGSV,3,3,12,32,41,100,43,01,10,258,30,29,08,079,10,138,38,213,46*4B
2017-12-01 18:06:55 1512169615.819216: $GPZDA,230656.00,01,12,2017,00,00*64
2017-12-01 18:06:55 1512169615.819386: $GPGGA,230656,3946.9735,N,08404.9846,W,2,11,0.80,297.60,M,-33.325,M,,*77
2017-12-01 18:06:55 1512169615.819453: $GPRMC,230656,A,3946.9735,N,08404.9846,W,0.0000,0.000,011217,,*34
2017-12-01 18:06:55 1512169615.819515: $GPGSA,A,3,3,14,16,22,23,25,26,31,32,1,138,,2.0,0.8,1.5*07
2017-12-01 18:06:56 1512169616.363758: $GPZDA,230657.00,01,12,2017,00,00*65
2017-12-01 18:06:56 1512169616.365364: $GPGGA,230657,3946.9739,N,08404.9846,W,2,11,0.60,298.24,M,-33.325,M,,*7B
2017-12-01 18:06:56 1512169616.365469: $GPRMC,230657,A,3946.9739,N,08404.9846,W,0.0000,0.000,011217,,*39
2017-12-01 18:06:56 1512169616.365533: $GPGSA,A,3,3,14,16,22,23,25,26,31,32,1,138,,2.0,0.6,1.5*09
2017-12-01 18:06:57 1512169617.364127: $GPZDA,230658.00,01,12,2017,00,00*6A
2017-12-01 18:06:57 1512169617.364350: $GPGGA,230658,3946.9739,N,08404.9846,W,2,11,0.60,298.24,M,-33.325,M,,*74
2017-12-01 18:06:57 1512169617.364417: $GPRMC,230658,A,3946.9739,N,08404.9846,W,0.0000,0.000,011217,,*36
2017-12-01 18:06:57 1512169617.364479: $GPGSA,A,3,3,14,16,22,23,25,26,31,32,1,138,,2.0,0.6,1.5*09
2017-12-01 18:06:58 1512169618.699824: $GPGSV,3,1,12,03,35,306,46,14,60,081,43,16,16,189,43,22,49,282,46*77
2017-12-01 18:06:58 1512169618.700040: $GPGSV,3,2,12,23,06,297,41,25,23,043,43,26,45,174,46,31,73,012,47*70
2017-12-01 18:06:58 1512169618.700108: $GPGSV,3,3,12,32,41,100,43,01,10,258,30,29,08,079,23,138,38,213,46*4B
2017-12-01 18:06:58 1512169618.813460: $GPZDA,230659.00,01,12,2017,00,00*6B
2017-12-01 18:06:58 1512169618.813628: $GPGGA,230659,3946.9735,N,08404.9846,W,2,12,0.60,297.60,M,-33.325,M,,*75
2017-12-01 18:06:58 1512169618.813695: $GPRMC,230659,A,3946.9735,N,08404.9846,W,0.0000,0.000,011217,,*3B
2017-12-01 18:06:58 1512169618.813757: $GPGSA,A,3,3,14,16,22,23,25,26,31,32,1,29,138,2.0,0.6,1.5*02
2017-12-01 18:06:59 1512169619.362934: $GPZDA,230700.00,01,12,2017,00,00*66
2017-12-01 18:06:59 1512169619.363113: $GPGGA,230700,3946.9735,N,08404.9846,W,2,12,0.60,297.60,M,-33.325,M,,*78
2017-12-01 18:06:59 1512169619.363183: $GPRMC,230700,A,3946.9735,N,08404.9846,W,0.0000,0.000,011217,,*36
2017-12-01 18:06:59 1512169619.363245: $GPGSA,A,3,3,14,16,22,23,25,26,31,32,1,29,138,2.0,0.6,1.5*02
2017-12-01 18:07:00 1512169620.362804: $GPZDA,230701.00,01,12,2017,00,00*67
2017-12-01 18:07:00 1512169620.362981: $GPGGA,230701,3946.9735,N,08404.9846,W,2,12,0.60,297.60,M,-33.325,M,,*79
2017-12-01 18:07:00 1512169620.363049: $GPRMC,230701,A,3946.9735,N,08404.9846,W,0.0000,0.000,011217,,*37
2017-12-01 18:07:00 1512169620.363111: $GPGSA,A,3,3,14,16,22,23,25,26,31,32,1,29,138,2.0,0.6,1.5*02
2017-12-01 18:07:01 1512169621.701962: $GPGSV,3,1,12,03,35,306,46,14,60,081,43,16,16,189,43,22,49,282,47*76
2017-12-01 18:07:01 1512169621.702216: $GPGSV,3,2,12,23,06,297,41,25,23,043,43,26,45,174,46,31,73,012,47*70
2017-12-01 18:07:01 1512169621.702310: $GPGSV,3,3,12,32,41,100,43,01,10,258,30,29,08,079,23,138,38,213,46*4B
2017-12-01 18:07:01 1512169621.814084: $GPZDA,230702.00,01,12,2017,00,00*64
2017-12-01 18:07:01 1512169621.814257: $GPGGA,230702,3946.9735,N,08404.9846,W,2,12,0.60,297.60,M,-33.325,M,,*7A
2017-12-01 18:07:01 1512169621.814326: $GPRMC,230702,A,3946.9735,N,08404.9846,W,0.0000,0.000,011217,,*34
2017-12-01 18:07:01 1512169621.814390: $GPGSA,A,3,3,14,16,22,23,25,26,31,32,1,29,138,2.0,0.6,1.5*02
