2017-11-16 17:29:19 1510871359.250454: {"class":"VERSION","release":"3.17","rev":"3.17","proto_major":3,"proto_minor":12}
2017-11-16 17:29:19 1510871359.250940: {"class":"DEVICES","devices":[{"class":"DEVICE","path":"/dev/ttyUSB0","driver":"SiRF","subtype":"9\u0006GSD4e_4.1.2-P1_RPATCH.05-F-GPS-4R-1510281 11/03/2015 307","activated":"2017-11-16T22:29:19.224Z","flags":1,"native":1,"bps":4800,"parity":"N","stopbits":1,"cycle":1.00}]}
2017-11-16 17:29:19 1510871359.251057: {"class":"WATCH","enable":true,"json":false,"nmea":true,"raw":0,"scaled":false,"timing":false,"split24":false,"pps":false}
2017-11-16 17:29:19 1510871359.401131: $GPZDA,222918.00,16,11,2017,00,00*67
2017-11-16 17:29:19 1510871359.401314: $GPGGA,222918,3946.9573,N,08404.9836,W,2,11,0.80,305.51,M,-33.324,M,,*7F
2017-11-16 17:29:19 1510871359.401376: $GPRMC,222918,A,3946.9573,N,08404.9836,W,0.0000,0.000,161117,,*30
2017-11-16 17:29:19 1510871359.401432: $GPGSA,A,3,1,10,22,12,14,18,11,25,31,32,138,,1.6,0.8,1.3*3E
2017-11-16 17:29:20 1510871360.401989: $GPZDA,222919.00,16,11,2017,00,00*66
2017-11-16 17:29:20 1510871360.402172: $GPGGA,222919,3946.9573,N,08404.9836,W,2,11,0.80,305.51,M,-33.324,M,,*7E
2017-11-16 17:29:20 1510871360.402234: $GPRMC,222919,A,3946.9573,N,08404.9836,W,0.0000,0.000,161117,,*31
2017-11-16 17:29:20 1510871360.402290: $GPGSA,A,3,1,10,22,12,14,18,11,25,31,32,138,,1.6,0.8,1.3*3E
2017-11-16 17:29:21 1510871361.737303: $GPGSV,3,1,11,01,21,303,38,10,50,147,49,22,17,312,40,12,23,051,50*78
2017-11-16 17:29:21 1510871361.737474: $GPGSV,3,2,11,14,65,324,48,18,20,144,39,11,09,283,36,25,39,093,49*78
2017-11-16 17:29:21 1510871361.737536: $GPGSV,3,3,11,31,53,223,48,32,69,022,50,138,38,213,45*79
2017-11-16 17:29:21 1510871361.850967: $GPZDA,222920.00,16,11,2017,00,00*6C
2017-11-16 17:29:21 1510871361.851108: $GPGGA,222920,3946.9573,N,08404.9836,W,2,11,0.80,305.51,M,-33.324,M,,*74
2017-11-16 17:29:21 1510871361.851169: $GPRMC,222920,A,3946.9573,N,08404.9836,W,0.0000,0.000,161117,,*3B
2017-11-16 17:29:21 1510871361.851242: $GPGSA,A,3,1,10,22,12,14,18,11,25,31,32,138,,1.6,0.8,1.3*3E
2017-11-16 17:29:22 1510871362.401905: $GPZDA,222921.00,16,11,2017,00,00*6D
2017-11-16 17:29:22 1510871362.402068: $GPGGA,222921,3946.9573,N,08404.9836,W,2,11,0.80,305.51,M,-33.324,M,,*75
2017-11-16 17:29:22 1510871362.402130: $GPRMC,222921,A,3946.9573,N,08404.9836,W,0.0000,0.000,161117,,*3A
2017-11-16 17:29:22 1510871362.402186: $GPGSA,A,3,1,10,22,12,14,18,11,25,31,32,138,,1.6,0.8,1.3*3E
2017-11-16 17:29:23 1510871363.430195: $GPZDA,222922.00,16,11,2017,00,00*6E
2017-11-16 17:29:23 1510871363.430347: $GPGGA,222922,3946.9573,N,08404.9836,W,2,11,0.80,305.51,M,-33.324,M,,*76
2017-11-16 17:29:23 1510871363.430407: $GPRMC,222922,A,3946.9573,N,08404.9836,W,0.0000,0.000,161117,,*39
2017-11-16 17:29:23 1510871363.430463: $GPGSA,A,3,1,10,22,12,14,18,11,25,31,32,138,,1.6,0.8,1.3*3E
2017-11-16 17:29:24 1510871364.758157: $GPGSV,3,1,11,01,21,303,39,10,50,147,49,22,17,312,40,12,23,051,50*79
2017-11-16 17:29:24 1510871364.758300: $GPGSV,3,2,11,14,65,324,48,18,20,144,38,11,09,283,36,25,39,093,49*79
2017-11-16 17:29:24 1510871364.758360: $GPGSV,3,3,11,31,53,223,49,32,69,022,50,138,38,213,44*79
2017-11-16 17:29:24 1510871364.871469: $GPZDA,222923.00,16,11,2017,00,00*6F
2017-11-16 17:29:24 1510871364.871631: $GPGGA,222923,3946.9573,N,08404.9836,W,2,11,0.80,305.51,M,-33.324,M,,*77
2017-11-16 17:29:24 1510871364.871692: $GPRMC,222923,A,3946.9573,N,08404.9836,W,0.0000,0.000,161117,,*38
2017-11-16 17:29:24 1510871364.871748: $GPGSA,A,3,1,10,22,12,14,18,11,25,31,32,138,,1.6,0.8,1.3*3E
2017-11-16 17:29:25 1510871365.402454: $GPZDA,222924.00,16,11,2017,00,00*68
2017-11-16 17:29:25 1510871365.402636: $GPGGA,222924,3946.9573,N,08404.9836,W,2,11,0.80,305.51,M,-33.324,M,,*70
2017-11-16 17:29:25 1510871365.402698: $GPRMC,222924,A,3946.9573,N,08404.9836,W,0.0000,0.000,161117,,*3F
2017-11-16 17:29:25 1510871365.402754: $GPGSA,A,3,1,10,22,12,14,18,11,25,31,32,138,,1.6,0.8,1.3*3E
2017-11-16 17:29:26 1510871366.401623: $GPZDA,222925.00,16,11,2017,00,00*69
2017-11-16 17:29:26 1510871366.403306: $GPGGA,222925,3946.9573,N,08404.9836,W,2,11,0.80,305.51,M,-33.324,M,,*71
2017-11-16 17:29:26 1510871366.403457: $GPRMC,222925,A,3946.9573,N,08404.9836,W,0.0000,0.000,161117,,*3E
2017-11-16 17:29:26 1510871366.403534: $GPGSA,A,3,1,10,22,12,14,18,11,25,31,32,138,,1.6,0.8,1.3*3E
2017-11-16 17:29:27 1510871367.731146: $GPGSV,3,1,11,01,21,303,39,10,50,147,49,22,17,312,41,12,23,051,50*78
2017-11-16 17:29:27 1510871367.731316: $GPGSV,3,2,11,14,65,324,47,18,20,144,39,11,09,283,36,25,39,093,48*76
2017-11-16 17:29:27 1510871367.731377: $GPGSV,3,3,11,31,53,223,49,32,69,022,50,138,38,213,44*79
2017-11-16 17:29:27 1510871367.844499: $GPZDA,222926.00,16,11,2017,00,00*6A
2017-11-16 17:29:27 1510871367.844680: $GPGGA,222926,3946.9573,N,08404.9836,W,2,11,0.80,305.51,M,-33.324,M,,*72
2017-11-16 17:29:27 1510871367.844741: $GPRMC,222926,A,3946.9573,N,08404.9836,W,0.0000,0.000,161117,,*3D
2017-11-16 17:29:27 1510871367.844797: $GPGSA,A,3,1,10,22,12,14,18,11,25,31,32,138,,1.6,0.8,1.3*3E
2017-11-16 17:29:28 1510871368.401620: $GPZDA,222927.00,16,11,2017,00,00*6B
2017-11-16 17:29:28 1510871368.401784: $GPGGA,222927,3946.9573,N,08404.9836,W,2,11,0.80,305.51,M,-33.324,M,,*73
2017-11-16 17:29:28 1510871368.401846: $GPRMC,222927,A,3946.9573,N,08404.9836,W,0.0000,0.000,161117,,*3C
2017-11-16 17:29:28 1510871368.401900: $GPGSA,A,3,1,10,22,12,14,18,11,25,31,32,138,,1.6,0.8,1.3*3E
