2017-11-15 19:22:27 1510791747.993351: {"class":"VERSION","release":"3.17","rev":"3.17","proto_major":3,"proto_minor":12}
2017-11-15 19:22:27 1510791747.993823: {"class":"DEVICES","devices":[{"class":"DEVICE","path":"/dev/ttyUSB0","driver":"SiRF","subtype":"9\u0006GSD4e_4.1.2-P1_RPATCH.05-F-GPS-4R-1510281 11/03/2015 307","activated":"2017-11-16T00:22:27.920Z","flags":1,"native":1,"bps":4800,"parity":"N","stopbits":1,"cycle":1.00}]}
2017-11-15 19:22:27 1510791747.993949: {"class":"WATCH","enable":true,"json":false,"nmea":true,"raw":0,"scaled":false,"timing":false,"split24":false,"pps":false}
2017-11-15 19:22:28 1510791748.330491: $GPZDA,002227.00,16,11,2017,00,00*60
2017-11-15 19:22:28 1510791748.330669: $GPGGA,002227,3946.9586,N,08404.9440,W,1,08,1.00,291.63,M,-33.324,M,,*70
2017-11-15 19:22:28 1510791748.330731: $GPRMC,002227,A,3946.9586,N,08404.9440,W,0.5951,58.684,161117,,*0F
2017-11-15 19:22:28 1510791748.330787: $GPGSA,A,3,32,14,22,26,31,29,3,1,,,,,3.4,1.0,2.9*34
2017-11-15 19:22:29 1510791749.330154: $GPZDA,002228.00,16,11,2017,00,00*6F
2017-11-15 19:22:29 1510791749.330374: $GPGGA,002228,3946.9586,N,08404.9440,W,1,08,1.20,291.63,M,-33.324,M,,*7D
2017-11-15 19:22:29 1510791749.330436: $GPRMC,002228,A,3946.9586,N,08404.9440,W,0.1867,0.000,161117,,*37
2017-11-15 19:22:29 1510791749.330492: $GPGSA,A,3,32,14,22,26,31,29,3,1,,,,,3.4,1.2,2.9*36
2017-11-15 19:22:30 1510791750.667197: $GPGSV,3,1,11,32,39,105,21,14,58,087,15,22,50,276,19,26,49,174,22*71
2017-11-15 19:22:30 1510791750.667348: $GPGSV,3,2,11,31,71,018,18,29,09,075,16,16,18,190,16,03,37,303,20*7F
2017-11-15 19:22:30 1510791750.667423: $GPGSV,3,3,11,01,08,255,08,25,20,042,00,23,08,298,00*43
2017-11-15 19:22:30 1510791750.781110: $GPZDA,002229.00,16,11,2017,00,00*6E
2017-11-15 19:22:30 1510791750.781340: $GPGGA,002229,3946.9586,N,08404.9440,W,1,09,1.20,291.63,M,-33.324,M,,*7D
2017-11-15 19:22:30 1510791750.781403: $GPRMC,002229,A,3946.9586,N,08404.9440,W,0.4207,219.347,161117,,*35
2017-11-15 19:22:30 1510791750.781473: $GPGSA,A,3,32,14,22,26,31,29,16,3,1,,,,3.4,1.2,2.9*31
2017-11-15 19:22:31 1510791751.405873: $GPZDA,002230.00,16,11,2017,00,00*66
2017-11-15 19:22:31 1510791751.406038: $GPGGA,002230,3946.9586,N,08404.9440,W,1,09,1.20,291.63,M,-33.324,M,,*75
2017-11-15 19:22:31 1510791751.406099: $GPRMC,002230,A,3946.9586,N,08404.9440,W,0.0000,0.000,161117,,*36
2017-11-15 19:22:31 1510791751.406154: $GPGSA,A,3,32,14,22,26,31,29,16,3,1,,,,3.4,1.2,2.9*31
2017-11-15 19:22:32 1510791752.330914: $GPZDA,002231.00,16,11,2017,00,00*67
2017-11-15 19:22:32 1510791752.331073: $GPGGA,002231,3946.9590,N,08404.9447,W,1,09,1.20,292.19,M,-33.324,M,,*7A
2017-11-15 19:22:32 1510791752.331133: $GPRMC,002231,A,3946.9590,N,08404.9447,W,0.3423,4.197,161117,,*3A
2017-11-15 19:22:32 1510791752.331209: $GPGSA,A,3,32,14,22,26,31,29,16,3,1,,,,3.4,1.2,2.9*31
2017-11-15 19:22:33 1510791753.666364: $GPGSV,3,1,11,32,39,105,22,14,58,087,15,22,50,276,19,26,49,174,22*72
2017-11-15 19:22:33 1510791753.666542: $GPGSV,3,2,11,31,71,018,18,29,09,075,16,25,20,042,00,03,37,303,19*77
2017-11-15 19:22:33 1510791753.666606: $GPGSV,3,3,11,01,08,255,10,16,18,190,00,23,08,298,00*4F
2017-11-15 19:22:33 1510791753.779987: $GPZDA,002232.00,16,11,2017,00,00*64
2017-11-15 19:22:33 1510791753.780128: $GPGGA,002232,3946.9590,N,08404.9447,W,1,08,1.00,292.19,M,-33.324,M,,*7A
2017-11-15 19:22:33 1510791753.780211: $GPRMC,002232,A,3946.9590,N,08404.9447,W,0.4179,328.778,161117,,*3E
2017-11-15 19:22:33 1510791753.780272: $GPGSA,A,3,32,14,22,26,31,29,3,1,,,,,3.4,1.0,2.9*34
2017-11-15 19:22:34 1510791754.330868: $GPZDA,002233.00,16,11,2017,00,00*65
2017-11-15 19:22:34 1510791754.331019: $GPGGA,002233,3946.9590,N,08404.9447,W,1,08,1.20,292.19,M,-33.324,M,,*79
2017-11-15 19:22:34 1510791754.331083: $GPRMC,002233,A,3946.9590,N,08404.9447,W,0.3423,4.197,161117,,*38
2017-11-15 19:22:34 1510791754.331141: $GPGSA,A,3,32,14,22,26,31,29,3,1,,,,,3.4,1.2,2.9*36
2017-11-15 19:22:35 1510791755.332217: $GPZDA,002234.00,16,11,2017,00,00*62
2017-11-15 19:22:35 1510791755.332565: $GPGGA,002234,3946.9590,N,08404.9447,W,1,08,1.20,292.19,M,-33.324,M,,*7E
2017-11-15 19:22:35 1510791755.501573: $GPRMC,002234,A,3946.9590,N,08404.9447,W,0.0000,0.000,161117,,*32
2017-11-15 19:22:35 1510791755.501763: $GPGSA,A,3,32,14,22,26,31,29,3,1,,,,,3.4,1.2,2.9*36
2017-11-15 19:22:36 1510791756.665459: $GPGSV,3,1,11,32,39,105,22,14,58,087,15,22,50,276,18,26,49,174,22*73
2017-11-15 19:22:36 1510791756.665631: $GPGSV,3,2,11,31,71,018,18,29,09,075,16,25,20,042,00,03,37,303,19*77
2017-11-15 19:22:36 1510791756.665692: $GPGSV,3,3,11,01,08,255,11,16,18,190,00,23,08,298,00*4E
2017-11-15 19:22:36 1510791756.779109: $GPZDA,002235.00,16,11,2017,00,00*63
2017-11-15 19:22:36 1510791756.779303: $GPGGA,002235,3946.9590,N,08404.9447,W,1,08,1.00,292.19,M,-33.324,M,,*7D
2017-11-15 19:22:36 1510791756.779365: $GPRMC,002235,A,3946.9590,N,08404.9447,W,0.1867,180.000,161117,,*32
2017-11-15 19:22:36 1510791756.779422: $GPGSA,A,3,32,14,22,26,31,29,3,1,,,,,3.4,1.0,2.9*34
2017-11-15 19:22:37 1510791757.344947: $GPZDA,002236.00,16,11,2017,00,00*60
2017-11-15 19:22:37 1510791757.345106: $GPGGA,002236,3946.9590,N,08404.9447,W,1,08,1.00,292.19,M,-33.324,M,,*7E
2017-11-15 19:22:37 1510791757.345228: $GPRMC,002236,A,3946.9590,N,08404.9447,W,0.2422,93.794,161117,,*06
2017-11-15 19:22:37 1510791757.345303: $GPGSA,A,3,32,14,22,26,31,29,3,1,,,,,3.4,1.0,2.9*34
