2017-11-15 19:39:11 1510792751.412076: {"class":"VERSION","release":"3.17","rev":"3.17","proto_major":3,"proto_minor":12}
2017-11-15 19:39:11 1510792751.412776: {"class":"DEVICES","devices":[{"class":"DEVICE","path":"/dev/ttyUSB0","driver":"SiRF","subtype":"9\u0006GSD4e_4.1.2-P1_RPATCH.05-F-GPS-4R-1510281 11/03/2015 307","activated":"2017-11-16T00:39:11.367Z","flags":1,"native":1,"bps":4800,"parity":"N","stopbits":1,"cycle":1.00}]}
2017-11-15 19:39:11 1510792751.412902: {"class":"WATCH","enable":true,"json":false,"nmea":true,"raw":0,"scaled":false,"timing":false,"split24":false,"pps":false}
2017-11-15 19:39:12 1510792752.681785: $GPGSV,3,1,12,32,32,111,23,16,27,190,11,22,50,264,04,26,58,171,16*7A
2017-11-15 19:39:12 1510792752.681941: $GPGSV,3,2,12,14,52,097,04,31,64,031,25,03,42,294,18,23,14,303,00*71
2017-11-15 19:39:12 1510792752.681998: $GPGSV,3,3,12,25,13,039,00,29,12,067,00,01,03,249,00,120,07,103,00*47
2017-11-15 19:39:12 1510792752.795078: $GPZDA,003911.00,16,11,2017,00,00*6F
2017-11-15 19:39:12 1510792752.795222: $GPGGA,003911,3946.9565,N,08404.9607,W,1,05,1.40,285.24,M,-33.324,M,,*7C
2017-11-15 19:39:12 1510792752.795280: $GPRMC,003911,A,3946.9565,N,08404.9607,W,0.8054,248.645,161117,,*33
2017-11-15 19:39:12 1510792752.795335: $GPGSA,A,3,32,16,26,31,3,,,,,,,,3.4,1.4,2.9*08
2017-11-15 19:39:13 1510792753.345976: $GPZDA,003912.00,16,11,2017,00,00*6C
2017-11-15 19:39:13 1510792753.346131: $GPGGA,003912,3946.9565,N,08404.9607,W,1,05,1.40,285.24,M,-33.324,M,,*7F
2017-11-15 19:39:13 1510792753.346190: $GPRMC,003912,A,3946.9565,N,08404.9607,W,1.0018,230.691,161117,,*37
2017-11-15 19:39:13 1510792753.346245: $GPGSA,A,3,32,16,26,31,3,,,,,,,,3.4,1.4,2.9*08
2017-11-15 19:39:14 1510792754.348405: $GPZDA,003913.00,16,11,2017,00,00*6D
2017-11-15 19:39:14 1510792754.348573: $GPGGA,003913,3946.9565,N,08404.9607,W,1,05,1.40,285.24,M,-33.324,M,,*7E
2017-11-15 19:39:14 1510792754.348642: $GPRMC,003913,A,3946.9565,N,08404.9607,W,0.7576,261.914,161117,,*3B
2017-11-15 19:39:14 1510792754.348706: $GPGSA,A,3,32,16,26,31,3,,,,,,,,3.4,1.4,2.9*08
2017-11-15 19:39:15 1510792755.666388: $GPGSV,3,1,12,32,32,111,23,16,27,190,12,22,50,264,04,26,58,171,18*77
2017-11-15 19:39:15 1510792755.666581: $GPGSV,3,2,12,14,52,097,04,31,64,031,26,03,42,294,18,01,03,249,05*7E
2017-11-15 19:39:15 1510792755.666645: $GPGSV,3,3,12,23,14,303,00,25,13,039,00,29,12,067,00,120,07,103,00*4E
2017-11-15 19:39:15 1510792755.779723: $GPZDA,003914.00,16,11,2017,00,00*6A
2017-11-15 19:39:15 1510792755.779931: $GPGGA,003914,3946.9566,N,08404.9614,W,1,05,1.40,285.17,M,-33.324,M,,*78
2017-11-15 19:39:15 1510792755.779994: $GPRMC,003914,A,3946.9566,N,08404.9614,W,0.2422,273.794,161117,,*3D
2017-11-15 19:39:15 1510792755.780053: $GPGSA,A,3,32,16,26,31,3,,,,,,,,3.4,1.4,2.9*08
2017-11-15 19:39:16 1510792756.405064: $GPZDA,003915.00,16,11,2017,00,00*6B
2017-11-15 19:39:16 1510792756.405274: $GPGGA,003915,3946.9562,N,08404.9615,W,1,05,1.40,285.93,M,-33.324,M,,*70
2017-11-15 19:39:16 1510792756.405340: $GPRMC,003915,A,3946.9562,N,08404.9615,W,0.5230,256.443,161117,,*35
2017-11-15 19:39:16 1510792756.405399: $GPGSA,A,3,32,16,26,31,3,,,,,,,,3.4,1.4,2.9*08
2017-11-15 19:39:17 1510792757.347296: $GPZDA,003916.00,16,11,2017,00,00*68
2017-11-15 19:39:17 1510792757.351324: $GPGGA,003916,3946.9562,N,08404.9615,W,1,05,1.40,285.93,M,-33.324,M,,*73
2017-11-15 19:39:17 1510792757.351432: $GPRMC,003916,A,3946.9562,N,08404.9615,W,0.4207,219.347,161117,,*3B
2017-11-15 19:39:17 1510792757.351492: $GPGSA,A,3,32,16,26,31,3,,,,,,,,3.4,1.4,2.9*08
2017-11-15 19:39:18 1510792758.666809: $GPGSV,3,1,12,32,32,111,23,16,27,190,11,22,50,264,11,26,58,171,18*70
2017-11-15 19:39:18 1510792758.666985: $GPGSV,3,2,12,14,52,097,04,31,64,031,26,03,42,294,18,01,03,249,04*7F
2017-11-15 19:39:18 1510792758.667048: $GPGSV,3,3,12,23,14,303,00,25,13,039,00,29,12,067,00,120,07,103,00*4E
2017-11-15 19:39:18 1510792758.778830: $GPZDA,003917.00,16,11,2017,00,00*69
2017-11-15 19:39:18 1510792758.778966: $GPGGA,003917,3946.9570,N,08404.9614,W,1,06,1.40,285.81,M,-33.324,M,,*70
2017-11-15 19:39:18 1510792758.779028: $GPRMC,003917,A,3946.9570,N,08404.9614,W,0.4207,39.347,161117,,*08
2017-11-15 19:39:18 1510792758.779136: $GPGSA,A,3,32,16,22,26,31,3,,,,,,,3.4,1.4,2.9*08
2017-11-15 19:39:19 1510792759.347272: $GPZDA,003918.00,16,11,2017,00,00*66
2017-11-15 19:39:19 1510792759.347436: $GPGGA,003918,3946.9570,N,08404.9614,W,1,06,1.40,285.81,M,-33.324,M,,*7F
2017-11-15 19:39:19 1510792759.347496: $GPRMC,003918,A,3946.9570,N,08404.9614,W,0.7278,23.636,161117,,*04
2017-11-15 19:39:19 1510792759.347552: $GPGSA,A,3,32,16,22,26,31,3,,,,,,,3.4,1.4,2.9*08
2017-11-15 19:39:20 1510792760.346926: $GPZDA,003919.00,16,11,2017,00,00*67
2017-11-15 19:39:20 1510792760.347118: $GPGGA,003919,3946.9574,N,08404.9607,W,1,06,1.40,286.52,M,-33.324,M,,*75
2017-11-15 19:39:20 1510792760.347179: $GPRMC,003919,A,3946.9574,N,08404.9607,W,1.2132,3.551,161117,,*3A
2017-11-15 19:39:20 1510792760.347234: $GPGSA,A,3,32,16,22,26,31,3,,,,,,,3.4,1.4,2.9*08
