2017-12-31 18:47:45 1514764065.540743: {"class":"VERSION","release":"3.16","rev":"3.16-4","proto_major":3,"proto_minor":11}
2017-12-31 18:47:45 1514764065.541085: {"class":"DEVICES","devices":[{"class":"DEVICE","path":"/dev/ttyUSB0","driver":"SiRF","activated":"2017-12-31T23:47:45.277Z","flags":1,"native":1,"bps":4800,"parity":"N","stopbits":1,"cycle":1.00}]}
2017-12-31 18:47:45 1514764065.541185: {"class":"WATCH","enable":true,"json":false,"nmea":true,"raw":0,"scaled":false,"timing":false,"split24":false,"pps":false}
2017-12-31 18:47:45 1514764065.726702: $GPGSV,3,1,12,22,09,205,00,23,67,285,41,09,35,310,41,03,19,222,39*77
2017-12-31 18:47:45 1514764065.726880: $GPGSV,3,2,12,16,79,036,43,08,14,175,35,14,01,139,00,31,17,087,32*7D
2017-12-31 18:47:45 1514764065.726945: $GPGSV,3,3,12,27,38,144,42,07,09,283,43,26,46,048,43,135,22,240,43*48
2017-12-31 18:47:45 1514764065.840132: $GPZDA,234746.00,31,12,2017,00,00*63
2017-12-31 18:47:45 1514764065.840261: $GPGGA,234746,3946.9581,N,08404.9862,W,2,10,0.80,303.66,M,-33.324,M,,*72
2017-12-31 18:47:45 1514764065.840325: $GPRMC,234746,A,3946.9581,N,08404.9862,W,0.0000,0.000,311217,,*38
2017-12-31 18:47:45 1514764065.840385: $GPGSA,A,3,23,9,3,16,8,31,27,7,26,135,,,1.7,0.8,1.3*09
2017-12-31 18:47:46 1514764066.353479: $GPZDA,234747.00,31,12,2017,00,00*62
2017-12-31 18:47:46 1514764066.353648: $GPGGA,234747,3946.9581,N,08404.9862,W,2,10,0.80,303.66,M,-33.324,M,,*73
2017-12-31 18:47:46 1514764066.353714: $GPRMC,234747,A,3946.9581,N,08404.9862,W,0.0000,0.000,311217,,*39
2017-12-31 18:47:46 1514764066.353775: $GPGSA,A,3,23,9,3,16,8,31,27,7,26,135,,,1.7,0.8,1.3*09
2017-12-31 18:47:47 1514764067.354321: $GPZDA,234748.00,31,12,2017,00,00*6D
2017-12-31 18:47:47 1514764067.354502: $GPGGA,234748,3946.9581,N,08404.9862,W,2,10,0.80,303.66,M,-33.324,M,,*7C
2017-12-31 18:47:47 1514764067.354570: $GPRMC,234748,A,3946.9581,N,08404.9862,W,0.0000,0.000,311217,,*36
2017-12-31 18:47:47 1514764067.354631: $GPGSA,A,3,23,9,3,16,8,31,27,7,26,135,,,1.7,0.8,1.3*09
2017-12-31 18:47:48 1514764068.718827: $GPGSV,3,1,12,22,09,205,20,23,67,285,42,09,35,310,40,03,19,222,39*77
2017-12-31 18:47:48 1514764068.718969: $GPGSV,3,2,12,16,79,036,43,08,14,175,35,14,01,139,00,31,17,087,30*7F
2017-12-31 18:47:48 1514764068.719035: $GPGSV,3,3,12,27,38,144,42,07,09,283,44,26,46,048,44,135,22,240,43*48
2017-12-31 18:47:48 1514764068.832143: $GPZDA,234749.00,31,12,2017,00,00*6C
2017-12-31 18:47:48 1514764068.832293: $GPGGA,234749,3946.9581,N,08404.9862,W,2,10,0.80,303.66,M,-33.324,M,,*7D
2017-12-31 18:47:48 1514764068.832359: $GPRMC,234749,A,3946.9581,N,08404.9862,W,0.0000,0.000,311217,,*37
2017-12-31 18:47:48 1514764068.832419: $GPGSA,A,3,23,9,3,16,8,31,27,7,26,135,,,1.7,0.8,1.3*09
2017-12-31 18:47:49 1514764069.355535: $GPZDA,234750.00,31,12,2017,00,00*64
2017-12-31 18:47:49 1514764069.355705: $GPGGA,234750,3946.9581,N,08404.9862,W,2,10,0.80,303.66,M,-33.324,M,,*75
2017-12-31 18:47:49 1514764069.355772: $GPRMC,234750,A,3946.9581,N,08404.9862,W,0.0000,0.000,311217,,*3F
2017-12-31 18:47:49 1514764069.355832: $GPGSA,A,3,23,9,3,16,8,31,27,7,26,135,,,1.7,0.8,1.3*09
2017-12-31 18:47:50 1514764070.392252: $GPZDA,234751.00,31,12,2017,00,00*65
2017-12-31 18:47:50 1514764070.392432: $GPGGA,234751,3946.9581,N,08404.9862,W,2,10,0.80,303.66,M,-33.324,M,,*74
2017-12-31 18:47:50 1514764070.392501: $GPRMC,234751,A,3946.9581,N,08404.9862,W,0.0000,0.000,311217,,*3E
2017-12-31 18:47:50 1514764070.392563: $GPGSA,A,3,23,9,3,16,8,31,27,7,26,135,,,1.7,0.8,1.3*09
2017-12-31 18:47:51 1514764071.727922: $GPGSV,3,1,12,22,09,205,19,23,67,285,41,09,35,310,41,03,19,222,39*7F
2017-12-31 18:47:51 1514764071.728094: $GPGSV,3,2,12,16,79,036,43,08,14,175,35,14,01,139,00,31,17,087,29*77
2017-12-31 18:47:51 1514764071.728160: $GPGSV,3,3,12,27,38,144,41,07,09,283,44,26,46,048,43,135,22,240,44*4B
2017-12-31 18:47:51 1514764071.841400: $GPZDA,234752.00,31,12,2017,00,00*66
2017-12-31 18:47:51 1514764071.841555: $GPGGA,234752,3946.9581,N,08404.9862,W,2,11,0.80,303.66,M,-33.324,M,,*76
2017-12-31 18:47:51 1514764071.841622: $GPRMC,234752,A,3946.9581,N,08404.9862,W,0.0000,0.000,311217,,*3D
2017-12-31 18:47:51 1514764071.841737: $GPGSA,A,3,22,23,9,3,16,8,31,27,7,26,135,,1.7,0.8,1.3*09
2017-12-31 18:47:52 1514764072.353490: $GPZDA,234753.00,31,12,2017,00,00*67
2017-12-31 18:47:52 1514764072.353659: $GPGGA,234753,3946.9581,N,08404.9862,W,2,11,0.80,303.66,M,-33.324,M,,*77
2017-12-31 18:47:52 1514764072.353726: $GPRMC,234753,A,3946.9581,N,08404.9862,W,0.0000,0.000,311217,,*3C
2017-12-31 18:47:52 1514764072.353786: $GPGSA,A,3,22,23,9,3,16,8,31,27,7,26,135,,1.7,0.8,1.3*09
2017-12-31 18:47:53 1514764073.353256: $GPZDA,234754.00,31,12,2017,00,00*60
2017-12-31 18:47:53 1514764073.353427: $GPGGA,234754,3946.9581,N,08404.9862,W,2,11,0.80,303.66,M,-33.324,M,,*70
2017-12-31 18:47:53 1514764073.353493: $GPRMC,234754,A,3946.9581,N,08404.9862,W,0.0000,0.000,311217,,*3B
2017-12-31 18:47:53 1514764073.353553: $GPGSA,A,3,22,23,9,3,16,8,31,27,7,26,135,,1.7,0.8,1.3*09
2017-12-31 18:47:54 1514764074.688696: $GPGSV,3,1,12,22,09,205,27,23,67,285,40,09,35,310,41,03,19,222,38*72
2017-12-31 18:47:54 1514764074.688876: $GPGSV,3,2,12,16,79,036,43,08,14,175,35,14,01,139,00,31,17,087,25*7B
2017-12-31 18:47:54 1514764074.688942: $GPGSV,3,3,12,27,38,144,41,07,09,283,45,26,46,048,43,135,22,240,44*4A
2017-12-31 18:47:54 1514764074.802178: $GPZDA,234755.00,31,12,2017,00,00*61
2017-12-31 18:47:54 1514764074.802344: $GPGGA,234755,3946.9581,N,08404.9862,W,2,11,0.80,303.66,M,-33.324,M,,*71
2017-12-31 18:47:54 1514764074.802411: $GPRMC,234755,A,3946.9581,N,08404.9862,W,0.0000,0.000,311217,,*3A
2017-12-31 18:47:54 1514764074.802471: $GPGSA,A,3,22,23,9,3,16,8,31,27,7,26,135,,1.7,0.8,1.3*09
2017-12-31 18:47:55 1514764075.427521: $GPZDA,234756.00,31,12,2017,00,00*62
2017-12-31 18:47:55 1514764075.427698: $GPGGA,234756,3946.9581,N,08404.9862,W,2,11,0.80,303.66,M,-33.324,M,,*72
2017-12-31 18:47:55 1514764075.427766: $GPRMC,234756,A,3946.9581,N,08404.9862,W,0.0000,0.000,311217,,*39
2017-12-31 18:47:55 1514764075.427827: $GPGSA,A,3,22,23,9,3,16,8,31,27,7,26,135,,1.7,0.8,1.3*09
