2017-12-29 11:37:00 1514565420.566600: {"class":"VERSION","release":"3.16","rev":"3.16-4","proto_major":3,"proto_minor":11}
2017-12-29 11:37:00 1514565420.566959: {"class":"DEVICES","devices":[{"class":"DEVICE","path":"/dev/ttyUSB0","driver":"SiRF","subtype":"9\u0006GSD4e_4.1.2-P1_RPATCH.05-F-GPS-4R-1510281 11/03/2015 307","activated":"2017-12-29T16:37:00.513Z","flags":1,"native":1,"bps":4800,"parity":"N","stopbits":1,"cycle":1.00}]}
2017-12-29 11:37:00 1514565420.567077: {"class":"WATCH","enable":true,"json":false,"nmea":true,"raw":0,"scaled":false,"timing":false,"split24":false,"pps":false}
2017-12-29 11:37:01 1514565421.692270: $GPGSV,3,1,11,08,07,315,40,10,49,309,45,15,29,055,48,18,76,006,45*7C
2017-12-29 11:37:01 1514565421.692427: $GPGSV,3,2,11,20,28,102,49,21,54,184,45,24,53,094,51,32,29,244,40*75
2017-12-29 11:37:01 1514565421.692493: $GPGSV,3,3,11,27,17,280,37,14,10,237,00,138,38,213,45*76
2017-12-29 11:37:01 1514565421.805877: $GPZDA,163702.00,29,12,2017,00,00*6B
2017-12-29 11:37:01 1514565421.806004: $GPGGA,163702,3946.9609,N,08404.9900,W,2,10,1.00,300.64,M,-33.324,M,,*7D
2017-12-29 11:37:01 1514565421.806068: $GPRMC,163702,A,3946.9609,N,08404.9900,W,0.0000,0.000,291217,,*36
2017-12-29 11:37:01 1514565421.806129: $GPGSA,A,3,8,10,15,18,20,21,24,32,27,138,,,1.7,1.0,1.3*3A
2017-12-29 11:37:02 1514565422.431211: $GPZDA,163703.00,29,12,2017,00,00*6A
2017-12-29 11:37:02 1514565422.431386: $GPGGA,163703,3946.9605,N,08404.9901,W,2,10,1.00,301.41,M,-33.324,M,,*77
2017-12-29 11:37:02 1514565422.431453: $GPRMC,163703,A,3946.9605,N,08404.9901,W,0.0000,0.000,291217,,*3A
2017-12-29 11:37:02 1514565422.431514: $GPGSA,A,3,8,10,15,18,20,21,24,32,27,138,,,1.7,1.0,1.3*3A
2017-12-29 11:37:03 1514565423.368476: $GPZDA,163704.00,29,12,2017,00,00*6D
2017-12-29 11:37:03 1514565423.368652: $GPGGA,163704,3946.9605,N,08404.9901,W,2,10,1.00,301.41,M,-33.324,M,,*70
2017-12-29 11:37:03 1514565423.368718: $GPRMC,163704,A,3946.9605,N,08404.9901,W,0.0000,0.000,291217,,*3D
2017-12-29 11:37:03 1514565423.368783: $GPGSA,A,3,8,10,15,18,20,21,24,32,27,138,,,1.7,1.0,1.3*3A
2017-12-29 11:37:04 1514565424.707721: $GPGSV,3,1,11,08,07,315,40,10,49,309,45,15,29,055,48,18,76,006,45*7C
2017-12-29 11:37:07 1514565427.150384: $GPGSV,3,2,11,20,28,102,49,21,54,184,46,24,53,094,51,32,29,244,40*76
2017-12-29 11:37:07 1514565427.150564: $GPGSV,3,3,11,27,17,280,38,14,10,237,00,138,38,213,46*7A
2017-12-29 11:37:07 1514565427.150677: $GPZDA,163705.00,29,12,2017,00,00*6C
2017-12-29 11:37:07 1514565427.150737: $GPGGA,163705,3946.9605,N,08404.9894,W,2,10,1.00,301.49,M,-33.324,M,,*74
2017-12-29 11:37:07 1514565427.150803: $GPRMC,163705,A,3946.9605,N,08404.9894,W,0.0000,0.000,291217,,*31
2017-12-29 11:37:07 1514565427.150863: $GPGSA,A,3,8,10,15,18,20,21,24,32,27,138,,,1.7,1.0,1.3*3A
2017-12-29 11:37:07 1514565427.150922: $GPZDA,163706.00,29,12,2017,00,00*6F
2017-12-29 11:37:07 1514565427.150975: $GPGGA,163706,3946.9605,N,08404.9894,W,2,10,1.00,301.49,M,-33.324,M,,*77
2017-12-29 11:37:07 1514565427.151094: $GPRMC,163706,A,3946.9605,N,08404.9894,W,0.0000,0.000,291217,,*32
2017-12-29 11:37:07 1514565427.151165: $GPGSA,A,3,8,10,15,18,20,21,24,32,27,138,,,1.7,1.0,1.3*3A
2017-12-29 11:37:07 1514565427.151224: $GPZDA,163707.00,29,12,2017,00,00*6E
2017-12-29 11:37:07 1514565427.151279: $GPGGA,163707,3946.9605,N,08404.9894,W,2,10,1.00,301.49,M,-33.324,M,,*76
2017-12-29 11:37:07 1514565427.151338: $GPRMC,163707,A,3946.9605,N,08404.9894,W,0.0000,0.000,291217,,*33
2017-12-29 11:37:07 1514565427.151397: $GPGSA,A,3,8,10,15,18,20,21,24,32,27,138,,,1.7,1.0,1.3*3A
2017-12-29 11:37:07 1514565427.694375: $GPGSV,3,1,11,08,07,315,40,10,49,309,45,15,29,055,48,18,76,006,45*7C
2017-12-29 11:37:07 1514565427.694563: $GPGSV,3,2,11,20,28,102,49,21,54,184,46,24,53,094,51,32,29,244,40*76
2017-12-29 11:37:07 1514565427.694630: $GPGSV,3,3,11,27,17,280,38,14,10,237,24,138,38,213,46*7C
2017-12-29 11:37:07 1514565427.808465: $GPZDA,163708.00,29,12,2017,00,00*61
2017-12-29 11:37:07 1514565427.808655: $GPGGA,163708,3946.9605,N,08404.9894,W,2,11,1.00,301.49,M,-33.324,M,,*78
2017-12-29 11:37:07 1514565427.808797: $GPRMC,163708,A,3946.9605,N,08404.9894,W,0.0000,0.000,291217,,*3C
2017-12-29 11:37:07 1514565427.808860: $GPGSA,A,3,8,10,15,18,20,21,24,32,27,14,138,,1.7,1.0,1.3*3F
2017-12-29 11:37:08 1514565428.373914: $GPZDA,163709.00,29,12,2017,00,00*60
2017-12-29 11:37:08 1514565428.374079: $GPGGA,163709,3946.9605,N,08404.9894,W,2,11,1.00,301.49,M,-33.324,M,,*79
2017-12-29 11:37:08 1514565428.374146: $GPRMC,163709,A,3946.9605,N,08404.9894,W,0.0000,0.000,291217,,*3D
2017-12-29 11:37:08 1514565428.374208: $GPGSA,A,3,8,10,15,18,20,21,24,32,27,14,138,,1.7,1.0,1.3*3F
2017-12-29 11:37:09 1514565429.368545: $GPZDA,163710.00,29,12,2017,00,00*68
2017-12-29 11:37:09 1514565429.368717: $GPGGA,163710,3946.9605,N,08404.9894,W,2,11,1.00,301.49,M,-33.324,M,,*71
2017-12-29 11:37:09 1514565429.368783: $GPRMC,163710,A,3946.9605,N,08404.9894,W,0.0000,0.000,291217,,*35
2017-12-29 11:37:09 1514565429.368844: $GPGSA,A,3,8,10,15,18,20,21,24,32,27,14,138,,1.7,1.0,1.3*3F
2017-12-29 11:37:10 1514565430.694056: $GPGSV,3,1,11,08,07,315,40,10,49,309,45,15,29,055,48,18,76,006,45*7C
2017-12-29 11:37:10 1514565430.694237: $GPGSV,3,2,11,20,28,102,49,21,54,184,46,24,53,094,51,32,29,244,41*77
2017-12-29 11:37:10 1514565430.694304: $GPGSV,3,3,11,27,17,280,38,14,10,237,28,138,38,213,45*73
2017-12-29 11:37:10 1514565430.807502: $GPZDA,163711.00,29,12,2017,00,00*69
2017-12-29 11:37:10 1514565430.807657: $GPGGA,163711,3946.9609,N,08404.9894,W,2,11,1.00,302.13,M,-33.324,M,,*70
2017-12-29 11:37:10 1514565430.807723: $GPRMC,163711,A,3946.9609,N,08404.9894,W,0.0000,0.000,291217,,*38
2017-12-29 11:37:10 1514565430.807783: $GPGSA,A,3,8,10,15,18,20,21,24,32,27,14,138,,1.7,1.0,1.3*3F
2017-12-29 11:37:11 1514565431.375818: $GPZDA,163712.00,29,12,2017,00,00*6A
2017-12-29 11:37:11 1514565431.375974: $GPGGA,163712,3946.9609,N,08404.9894,W,2,11,1.00,302.13,M,-33.324,M,,*73
2017-12-29 11:37:11 1514565431.376038: $GPRMC,163712,A,3946.9609,N,08404.9894,W,0.0000,0.000,291217,,*3B
2017-12-29 11:37:11 1514565431.376098: $GPGSA,A,3,8,10,15,18,20,21,24,32,27,14,138,,1.7,1.0,1.3*3F
2017-12-29 11:37:12 1514565432.357668: $GPZDA,163713.00,29,12,2017,00,00*6B
2017-12-29 11:37:12 1514565432.380840: $GPGGA,163713,3946.9606,N,08404.9895,W,2,11,1.00,302.89,M,-33.324,M,,*7F
2017-12-29 11:37:12 1514565432.380978: $GPRMC,163713,A,3946.9606,N,08404.9895,W,0.0000,0.000,291217,,*34
2017-12-29 11:37:12 1514565432.381111: $GPGSA,A,3,8,10,15,18,20,21,24,32,27,14,138,,1.7,1.0,1.3*3F
2017-12-29 11:37:13 1514565433.694555: $GPGSV,3,1,11,08,07,315,40,10,49,309,45,15,29,055,48,18,76,006,45*7C
2017-12-29 11:37:13 1514565433.694738: $GPGSV,3,2,11,20,28,102,48,21,54,184,46,24,53,094,51,32,29,244,40*77
2017-12-29 11:37:13 1514565433.694805: $GPGSV,3,3,11,27,17,280,38,14,10,237,28,138,38,213,45*73
2017-12-29 11:37:13 1514565433.808355: $GPZDA,163714.00,29,12,2017,00,00*6C
2017-12-29 11:37:13 1514565433.808521: $GPGGA,163714,3946.9605,N,08404.9888,W,2,11,1.00,302.97,M,-33.324,M,,*78
2017-12-29 11:37:13 1514565433.808605: $GPRMC,163714,A,3946.9605,N,08404.9888,W,0.0000,0.000,291217,,*3C
2017-12-29 11:37:13 1514565433.808666: $GPGSA,A,3,8,10,15,18,20,21,24,32,27,14,138,,1.7,1.0,1.3*3F
2017-12-29 11:37:14 1514565434.375418: $GPZDA,163715.00,29,12,2017,00,00*6D
2017-12-29 11:37:14 1514565434.375595: $GPGGA,163715,3946.9605,N,08404.9888,W,2,11,1.00,302.97,M,-33.324,M,,*79
2017-12-29 11:37:14 1514565434.375661: $GPRMC,163715,A,3946.9605,N,08404.9888,W,0.0000,0.000,291217,,*3D
2017-12-29 11:37:14 1514565434.375722: $GPGSA,A,3,8,10,15,18,20,21,24,32,27,14,138,,1.7,1.0,1.3*3F
2017-12-29 11:37:15 1514565435.375220: $GPZDA,163716.00,29,12,2017,00,00*6E
2017-12-29 11:37:15 1514565435.375404: $GPGGA,163716,3946.9605,N,08404.9888,W,2,11,1.00,302.97,M,-33.324,M,,*7A
2017-12-29 11:37:15 1514565435.375470: $GPRMC,163716,A,3946.9605,N,08404.9888,W,0.0000,0.000,291217,,*3E
2017-12-29 11:37:15 1514565435.375531: $GPGSA,A,3,8,10,15,18,20,21,24,32,27,14,138,,1.7,1.0,1.3*3F
