2017-11-16 15:52:18 1510865538.845706: {"class":"VERSION","release":"3.17","rev":"3.17","proto_major":3,"proto_minor":12}
2017-11-16 15:52:18 1510865538.846174: {"class":"DEVICES","devices":[{"class":"DEVICE","path":"/dev/ttyUSB0","driver":"SiRF","subtype":"9\u0006GSD4e_4.1.2-P1_RPATCH.05-F-GPS-4R-1510281 11/03/2015 307","activated":"2017-11-16T20:52:18.509Z","flags":1,"native":1,"bps":4800,"parity":"N","stopbits":1,"cycle":1.00}]}
2017-11-16 15:52:18 1510865538.846297: {"class":"WATCH","enable":true,"json":false,"nmea":true,"raw":0,"scaled":false,"timing":false,"split24":false,"pps":false}
2017-11-16 15:52:19 1510865539.720781: $GPGSV,3,1,12,11,03,322,24,10,79,355,50,14,37,264,45,15,03,072,25*72
2017-11-16 15:52:19 1510865539.720968: $GPGSV,3,2,12,18,62,112,49,25,11,135,31,21,18,177,40,24,36,051,50*76
2017-11-16 15:52:19 1510865539.721034: $GPGSV,3,3,12,31,09,204,30,32,54,279,46,12,16,097,41,138,38,213,44*44
2017-11-16 15:52:19 1510865539.834814: $GPZDA,205218.00,16,11,2017,00,00*69
2017-11-16 15:52:19 1510865539.835090: $GPGGA,205218,3946.9582,N,08404.9844,W,2,12,1.20,308.11,M,-33.324,M,,*7B
2017-11-16 15:52:19 1510865539.835167: $GPRMC,205218,A,3946.9582,N,08404.9844,W,0.0000,0.000,161117,,*35
2017-11-16 15:52:19 1510865539.835226: $GPGSA,A,3,11,10,14,15,18,25,21,24,31,32,12,138,1.6,1.2,1.3*05
2017-11-16 15:52:20 1510865540.361261: $GPZDA,205219.00,16,11,2017,00,00*68
2017-11-16 15:52:20 1510865540.361429: $GPGGA,205219,3946.9582,N,08404.9844,W,2,12,1.20,308.11,M,-33.324,M,,*7A
2017-11-16 15:52:20 1510865540.361491: $GPRMC,205219,A,3946.9582,N,08404.9844,W,0.0000,0.000,161117,,*34
2017-11-16 15:52:20 1510865540.361547: $GPGSA,A,3,11,10,14,15,18,25,21,24,31,32,12,138,1.6,1.2,1.3*05
2017-11-16 15:52:21 1510865541.367817: $GPZDA,205220.00,16,11,2017,00,00*62
2017-11-16 15:52:21 1510865541.367985: $GPGGA,205220,3946.9582,N,08404.9844,W,2,12,1.20,308.11,M,-33.324,M,,*70
2017-11-16 15:52:21 1510865541.368046: $GPRMC,205220,A,3946.9582,N,08404.9844,W,0.0000,0.000,161117,,*3E
2017-11-16 15:52:21 1510865541.368102: $GPGSA,A,3,11,10,14,15,18,25,21,24,31,32,12,138,1.6,1.2,1.3*05
2017-11-16 15:52:22 1510865542.718596: $GPGSV,3,1,12,11,03,322,28,10,79,355,50,14,37,264,45,08,02,283,26*7C
2017-11-16 15:52:22 1510865542.718769: $GPGSV,3,2,12,18,62,112,49,25,11,135,31,21,18,177,39,24,36,051,50*78
2017-11-16 15:52:22 1510865542.718829: $GPGSV,3,3,12,31,09,204,00,32,54,279,46,12,16,097,41,138,38,213,44*47
2017-11-16 15:52:22 1510865542.830721: $GPZDA,205221.00,16,11,2017,00,00*63
2017-11-16 15:52:22 1510865542.830873: $GPGGA,205221,3946.9582,N,08404.9844,W,2,11,1.20,308.11,M,-33.324,M,,*72
2017-11-16 15:52:22 1510865542.830934: $GPRMC,205221,A,3946.9582,N,08404.9844,W,0.0000,0.000,161117,,*3F
2017-11-16 15:52:22 1510865542.830989: $GPGSA,A,3,11,10,14,8,18,25,21,24,32,12,138,,1.6,1.2,1.3*3B
2017-11-16 15:52:23 1510865543.367848: $GPZDA,205222.00,16,11,2017,00,00*60
2017-11-16 15:52:23 1510865543.368016: $GPGGA,205222,3946.9582,N,08404.9844,W,2,11,1.20,308.11,M,-33.324,M,,*71
2017-11-16 15:52:23 1510865543.368078: $GPRMC,205222,A,3946.9582,N,08404.9844,W,0.0000,0.000,161117,,*3C
2017-11-16 15:52:23 1510865543.368134: $GPGSA,A,3,11,10,14,8,18,25,21,24,32,12,138,,1.6,1.2,1.3*3B
2017-11-16 15:52:24 1510865544.368716: $GPZDA,205223.00,16,11,2017,00,00*61
2017-11-16 15:52:24 1510865544.368882: $GPGGA,205223,3946.9582,N,08404.9844,W,2,11,1.20,308.11,M,-33.324,M,,*70
2017-11-16 15:52:24 1510865544.368943: $GPRMC,205223,A,3946.9582,N,08404.9844,W,0.0000,0.000,161117,,*3D
2017-11-16 15:52:24 1510865544.368999: $GPGSA,A,3,11,10,14,8,18,25,21,24,32,12,138,,1.6,1.2,1.3*3B
2017-11-16 15:52:25 1510865545.705717: $GPGSV,3,1,12,11,03,322,29,10,79,355,50,14,37,264,45,08,02,283,27*7C
2017-11-16 15:52:25 1510865545.705888: $GPGSV,3,2,12,18,62,112,49,25,11,135,31,21,18,177,39,24,36,051,50*78
2017-11-16 15:52:25 1510865545.705948: $GPGSV,3,3,12,31,09,204,24,32,54,279,46,12,16,097,41,138,38,213,44*41
2017-11-16 15:52:25 1510865545.819238: $GPZDA,205224.00,16,11,2017,00,00*66
2017-11-16 15:52:25 1510865545.819390: $GPGGA,205224,3946.9582,N,08404.9844,W,2,12,1.20,308.11,M,-33.324,M,,*74
2017-11-16 15:52:25 1510865545.819500: $GPRMC,205224,A,3946.9582,N,08404.9844,W,0.0000,0.000,161117,,*3A
2017-11-16 15:52:25 1510865545.819557: $GPGSA,A,3,11,10,14,8,18,25,21,24,31,32,12,138,1.6,1.2,1.3*39
2017-11-16 15:52:26 1510865546.616349: $GPZDA,205225.00,16,11,2017,00,00*67
2017-11-16 15:52:26 1510865546.616514: $GPGGA,205225,3946.9582,N,08404.9844,W,2,12,1.20,308.11,M,-33.324,M,,*75
2017-11-16 15:52:26 1510865546.616576: $GPRMC,205225,A,3946.9582,N,08404.9844,W,0.0000,0.000,161117,,*3B
2017-11-16 15:52:26 1510865546.616631: $GPGSA,A,3,11,10,14,8,18,25,21,24,31,32,12,138,1.6,1.2,1.3*39
2017-11-16 15:52:26 1510865546.616686: $GPGBS,205225,2.12,M,3.10,M,7.47,M*3B
2017-11-16 15:52:27 1510865547.382192: $GPZDA,205226.00,16,11,2017,00,00*64
2017-11-16 15:52:27 1510865547.382359: $GPGGA,205226,3946.9582,N,08404.9844,W,2,12,1.20,308.11,M,-33.324,M,,*76
2017-11-16 15:52:27 1510865547.382420: $GPRMC,205226,A,3946.9582,N,08404.9844,W,0.0000,0.000,161117,,*38
2017-11-16 15:52:27 1510865547.382476: $GPGSA,A,3,11,10,14,8,18,25,21,24,31,32,12,138,1.6,1.2,1.3*39
2017-11-16 15:52:27 1510865547.382530: $GPGBS,205226,2.12,M,3.10,M,7.47,M*38
2017-11-16 15:52:28 1510865548.705583: $GPGSV,3,1,12,11,04,321,35,10,80,001,50,14,38,264,45,15,03,073,00*7B
2017-11-16 15:52:28 1510865548.705754: $GPGSV,3,2,12,18,60,115,48,25,12,133,31,21,16,177,39,24,35,049,50*7D
2017-11-16 15:52:28 1510865548.705815: $GPGSV,3,3,12,31,10,205,24,32,55,280,46,12,17,096,41,138,38,213,44*4F
