2017-11-16 17:28:08 1510871288.592774: {"class":"VERSION","release":"3.17","rev":"3.17","proto_major":3,"proto_minor":12}
2017-11-16 17:28:08 1510871288.593292: {"class":"DEVICES","devices":[{"class":"DEVICE","path":"/dev/ttyUSB0","driver":"SiRF","subtype":"9\u0006GSD4e_4.1.2-P1_RPATCH.05-F-GPS-4R-1510281 11/03/2015 307","activated":"2017-11-16T22:28:08.542Z","flags":1,"native":1,"bps":4800,"parity":"N","stopbits":1,"cycle":1.00}]}
2017-11-16 17:28:08 1510871288.593422: {"class":"WATCH","enable":true,"json":false,"nmea":true,"raw":0,"scaled":false,"timing":false,"split24":false,"pps":false}
2017-11-16 17:28:09 1510871289.737920: $GPGSV,3,1,11,01,21,303,41,10,50,147,49,22,17,312,42,12,23,051,51*75
2017-11-16 17:28:09 1510871289.738091: $GPGSV,3,2,11,14,65,324,48,18,20,144,36,11,09,283,40,25,39,093,47*78
2017-11-16 17:28:09 1510871289.738155: $GPGSV,3,3,11,31,53,223,48,32,69,022,49,138,38,213,44*70
2017-11-16 17:28:09 1510871289.851287: $GPZDA,222808.00,16,11,2017,00,00*67
2017-11-16 17:28:09 1510871289.851445: $GPGGA,222808,3946.9573,N,08404.9830,W,2,11,0.80,306.99,M,-33.324,M,,*7E
2017-11-16 17:28:09 1510871289.851506: $GPRMC,222808,A,3946.9573,N,08404.9830,W,0.0000,0.000,161117,,*36
2017-11-16 17:28:09 1510871289.851562: $GPGSA,A,3,1,10,22,12,14,18,11,25,31,32,138,,1.6,0.8,1.3*3E
2017-11-16 17:28:10 1510871290.395986: $GPZDA,222809.00,16,11,2017,00,00*66
2017-11-16 17:28:10 1510871290.396155: $GPGGA,222809,3946.9573,N,08404.9830,W,2,11,0.80,306.99,M,-33.324,M,,*7F
2017-11-16 17:28:10 1510871290.396216: $GPRMC,222809,A,3946.9573,N,08404.9830,W,0.0000,0.000,161117,,*37
2017-11-16 17:28:10 1510871290.396273: $GPGSA,A,3,1,10,22,12,14,18,11,25,31,32,138,,1.6,0.8,1.3*3E
2017-11-16 17:28:11 1510871291.402779: $GPZDA,222810.00,16,11,2017,00,00*6E
2017-11-16 17:28:11 1510871291.402942: $GPGGA,222810,3946.9573,N,08404.9830,W,2,11,0.80,306.99,M,-33.324,M,,*77
2017-11-16 17:28:11 1510871291.403006: $GPRMC,222810,A,3946.9573,N,08404.9830,W,0.0000,0.000,161117,,*3F
2017-11-16 17:28:11 1510871291.403064: $GPGSA,A,3,1,10,22,12,14,18,11,25,31,32,138,,1.6,0.8,1.3*3E
2017-11-16 17:28:12 1510871292.738564: $GPGSV,3,1,11,01,21,303,41,10,50,147,49,22,17,312,42,12,23,051,51*75
2017-11-16 17:28:12 1510871292.738749: $GPGSV,3,2,11,14,65,324,48,18,20,144,36,11,09,283,40,25,39,093,48*77
2017-11-16 17:28:12 1510871292.738830: $GPGSV,3,3,11,31,53,223,48,32,69,022,49,138,38,213,45*71
2017-11-16 17:28:12 1510871292.851623: $GPZDA,222811.00,16,11,2017,00,00*6F
2017-11-16 17:28:12 1510871292.851775: $GPGGA,222811,3946.9573,N,08404.9830,W,2,11,0.80,306.99,M,-33.324,M,,*76
2017-11-16 17:28:12 1510871292.851836: $GPRMC,222811,A,3946.9573,N,08404.9830,W,0.0000,0.000,161117,,*3E
2017-11-16 17:28:12 1510871292.851894: $GPGSA,A,3,1,10,22,12,14,18,11,25,31,32,138,,1.6,0.8,1.3*3E
2017-11-16 17:28:13 1510871293.402854: $GPZDA,222812.00,16,11,2017,00,00*6C
2017-11-16 17:28:13 1510871293.403019: $GPGGA,222812,3946.9573,N,08404.9830,W,2,11,0.80,306.99,M,-33.324,M,,*75
2017-11-16 17:28:13 1510871293.403080: $GPRMC,222812,A,3946.9573,N,08404.9830,W,0.0000,0.000,161117,,*3D
2017-11-16 17:28:13 1510871293.403140: $GPGSA,A,3,1,10,22,12,14,18,11,25,31,32,138,,1.6,0.8,1.3*3E
2017-11-16 17:28:14 1510871294.395911: $GPZDA,222813.00,16,11,2017,00,00*6D
2017-11-16 17:28:14 1510871294.396068: $GPGGA,222813,3946.9573,N,08404.9830,W,2,11,0.80,306.99,M,-33.324,M,,*74
2017-11-16 17:28:14 1510871294.396131: $GPRMC,222813,A,3946.9573,N,08404.9830,W,0.0000,0.000,161117,,*3C
2017-11-16 17:28:14 1510871294.396187: $GPGSA,A,3,1,10,22,12,14,18,11,25,31,32,138,,1.6,0.8,1.3*3E
2017-11-16 17:28:15 1510871295.737814: $GPGSV,3,1,11,01,21,303,41,10,50,147,50,22,17,312,42,12,23,051,51*7D
2017-11-16 17:28:15 1510871295.737991: $GPGSV,3,2,11,14,65,324,48,18,20,144,36,11,09,283,40,25,39,093,48*77
2017-11-16 17:28:15 1510871295.738055: $GPGSV,3,3,11,31,53,223,49,32,69,022,49,138,38,213,45*70
2017-11-16 17:28:15 1510871295.851224: $GPZDA,222814.00,16,11,2017,00,00*6A
2017-11-16 17:28:15 1510871295.851388: $GPGGA,222814,3946.9573,N,08404.9830,W,2,11,0.80,306.99,M,-33.324,M,,*73
2017-11-16 17:28:15 1510871295.851507: $GPRMC,222814,A,3946.9573,N,08404.9830,W,0.0000,0.000,161117,,*3B
2017-11-16 17:28:15 1510871295.851565: $GPGSA,A,3,1,10,22,12,14,18,11,25,31,32,138,,1.6,0.8,1.3*3E
2017-11-16 17:28:16 1510871296.476809: $GPZDA,222815.00,16,11,2017,00,00*6B
2017-11-16 17:28:16 1510871296.476983: $GPGGA,222815,3946.9573,N,08404.9830,W,2,11,0.80,306.99,M,-33.324,M,,*72
2017-11-16 17:28:16 1510871296.477050: $GPRMC,222815,A,3946.9573,N,08404.9830,W,0.0000,0.000,161117,,*3A
2017-11-16 17:28:16 1510871296.477109: $GPGSA,A,3,1,10,22,12,14,18,11,25,31,32,138,,1.6,0.8,1.3*3E
2017-11-16 17:28:17 1510871297.402498: $GPZDA,222816.00,16,11,2017,00,00*68
2017-11-16 17:28:17 1510871297.402663: $GPGGA,222816,3946.9573,N,08404.9830,W,2,11,0.80,306.99,M,-33.324,M,,*71
2017-11-16 17:28:17 1510871297.402725: $GPRMC,222816,A,3946.9573,N,08404.9830,W,0.0000,0.000,161117,,*39
2017-11-16 17:28:17 1510871297.402780: $GPGSA,A,3,1,10,22,12,14,18,11,25,31,32,138,,1.6,0.8,1.3*3E
