2017-12-01 14:42:12 1512157332.736778: {"class":"VERSION","release":"3.16","rev":"3.16-4","proto_major":3,"proto_minor":11}
2017-12-01 14:42:12 1512157332.737171: {"class":"DEVICES","devices":[{"class":"DEVICE","path":"/dev/ttyUSB0","driver":"SiRF","subtype":"9\u0006GSD4e_4.1.2-P1_RPATCH.05-F-GPS-4R-1510281 11/03/2015 307","activated":"2017-12-01T19:42:12.712Z","flags":1,"native":1,"bps":4800,"parity":"N","stopbits":1,"cycle":1.00}]}
2017-12-01 14:42:12 1512157332.737291: {"class":"WATCH","enable":true,"json":false,"nmea":true,"raw":0,"scaled":false,"timing":false,"split24":false,"pps":false}
2017-12-01 14:42:12 1512157332.825274: $GPZDA,194213.00,01,12,2017,00,00*6C
2017-12-01 14:42:12 1512157332.825449: $GPGGA,194213,3946.9574,N,08404.9842,W,2,12,1.20,291.18,M,-33.324,M,,*7C
2017-12-01 14:42:12 1512157332.825517: $GPRMC,194213,A,3946.9574,N,08404.9842,W,0.0000,0.000,011217,,*3F
2017-12-01 14:42:12 1512157332.825578: $GPGSA,A,3,8,10,12,14,18,21,24,32,15,25,31,138,2.0,1.2,1.5*3E
2017-12-01 14:42:13 1512157333.450631: $GPZDA,194214.00,01,12,2017,00,00*6B
2017-12-01 14:42:13 1512157333.450812: $GPGGA,194214,3946.9578,N,08404.9842,W,2,12,1.20,291.82,M,-33.324,M,,*74
2017-12-01 14:42:13 1512157333.450881: $GPRMC,194214,A,3946.9578,N,08404.9842,W,0.0000,0.000,011217,,*34
2017-12-01 14:42:13 1512157333.450943: $GPGSA,A,3,8,10,12,14,18,21,24,32,15,25,31,138,2.0,1.2,1.5*3E
2017-12-01 14:42:14 1512157334.376767: $GPZDA,194215.00,01,12,2017,00,00*6A
2017-12-01 14:42:14 1512157334.376940: $GPGGA,194215,3946.9578,N,08404.9842,W,2,12,1.20,291.82,M,-33.324,M,,*75
2017-12-01 14:42:14 1512157334.377007: $GPRMC,194215,A,3946.9578,N,08404.9842,W,0.0000,0.000,011217,,*35
2017-12-01 14:42:14 1512157334.377068: $GPGSA,A,3,8,10,12,14,18,21,24,32,15,25,31,138,2.0,1.2,1.5*3E
2017-12-01 14:42:15 1512157335.714743: $GPGSV,3,1,12,08,03,286,31,10,77,346,48,12,14,100,35,14,35,261,44*76
2017-12-01 14:42:15 1512157335.714926: $GPGSV,3,2,12,18,64,109,46,21,20,177,46,24,38,052,46,32,52,276,44*75
2017-12-01 14:42:15 1512157335.714994: $GPGSV,3,3,12,15,05,070,24,25,09,136,29,31,07,204,31,138,38,213,47*48
2017-12-01 14:42:15 1512157335.827993: $GPZDA,194216.00,01,12,2017,00,00*69
2017-12-01 14:42:15 1512157335.828164: $GPGGA,194216,3946.9578,N,08404.9842,W,2,12,1.00,291.82,M,-33.324,M,,*74
2017-12-01 14:42:15 1512157335.828231: $GPRMC,194216,A,3946.9578,N,08404.9842,W,0.0000,0.000,011217,,*36
2017-12-01 14:42:15 1512157335.828292: $GPGSA,A,3,8,10,12,14,18,21,24,32,15,25,31,138,2.0,1.0,1.5*3C
2017-12-01 14:42:16 1512157336.379355: $GPZDA,194217.00,01,12,2017,00,00*68
2017-12-01 14:42:16 1512157336.379523: $GPGGA,194217,3946.9578,N,08404.9842,W,2,12,1.00,291.82,M,-33.324,M,,*75
2017-12-01 14:42:16 1512157336.379610: $GPRMC,194217,A,3946.9578,N,08404.9842,W,0.0000,0.000,011217,,*37
2017-12-01 14:42:16 1512157336.379673: $GPGSA,A,3,8,10,12,14,18,21,24,32,15,25,31,138,2.0,1.0,1.5*3C
2017-12-01 14:42:17 1512157337.376155: $GPZDA,194218.00,01,12,2017,00,00*67
2017-12-01 14:42:17 1512157337.376347: $GPGGA,194218,3946.9578,N,08404.9842,W,2,12,1.00,291.82,M,-33.324,M,,*7A
2017-12-01 14:42:17 1512157337.376414: $GPRMC,194218,A,3946.9578,N,08404.9842,W,0.0000,0.000,011217,,*38
2017-12-01 14:42:17 1512157337.376475: $GPGSA,A,3,8,10,12,14,18,21,24,32,15,25,31,138,2.0,1.0,1.5*3C
2017-12-01 14:42:18 1512157338.712732: $GPGSV,3,1,12,08,03,286,31,10,77,346,48,12,14,100,35,14,35,261,44*76
2017-12-01 14:42:18 1512157338.712928: $GPGSV,3,2,12,18,64,109,46,21,20,177,46,24,38,052,46,32,52,276,44*75
2017-12-01 14:42:18 1512157338.712994: $GPGSV,3,3,12,15,05,070,24,25,09,136,29,31,07,204,31,138,38,213,47*48
2017-12-01 14:42:18 1512157338.826044: $GPZDA,194219.00,01,12,2017,00,00*66
2017-12-01 14:42:18 1512157338.826212: $GPGGA,194219,3946.9578,N,08404.9842,W,2,12,1.00,291.82,M,-33.324,M,,*7B
2017-12-01 14:42:18 1512157338.826279: $GPRMC,194219,A,3946.9578,N,08404.9842,W,0.0000,0.000,011217,,*39
2017-12-01 14:42:18 1512157338.826339: $GPGSA,A,3,8,10,12,14,18,21,24,32,15,25,31,138,2.0,1.0,1.5*3C
2017-12-01 14:42:19 1512157339.380693: $GPZDA,194220.00,01,12,2017,00,00*6C
2017-12-01 14:42:19 1512157339.380921: $GPGGA,194220,3946.9588,N,08404.9846,W,2,12,1.00,288.04,M,-33.324,M,,*7C
2017-12-01 14:42:19 1512157339.380991: $GPRMC,194220,A,3946.9588,N,08404.9846,W,0.0000,0.000,011217,,*38
2017-12-01 14:42:19 1512157339.381052: $GPGSA,A,3,8,10,12,14,18,21,24,32,15,25,31,138,2.0,1.0,1.5*3C
2017-12-01 14:42:20 1512157340.379065: $GPZDA,194221.00,01,12,2017,00,00*6D
2017-12-01 14:42:20 1512157340.379268: $GPGGA,194221,3946.9588,N,08404.9846,W,2,12,1.00,288.04,M,-33.324,M,,*7D
2017-12-01 14:42:20 1512157340.379337: $GPRMC,194221,A,3946.9588,N,08404.9846,W,0.0000,0.000,011217,,*39
2017-12-01 14:42:20 1512157340.379399: $GPGSA,A,3,8,10,12,14,18,21,24,32,15,25,31,138,2.0,1.0,1.5*3C
2017-12-01 14:42:21 1512157341.712224: $GPGSV,3,1,12,08,03,286,31,10,77,346,48,12,14,100,35,14,35,261,44*76
2017-12-01 14:42:21 1512157341.712413: $GPGSV,3,2,12,18,64,109,46,21,20,177,46,24,38,052,46,32,52,276,44*75
2017-12-01 14:42:21 1512157341.712480: $GPGSV,3,3,12,15,05,070,23,25,09,136,28,31,07,204,32,138,38,213,47*4D
2017-12-01 14:42:21 1512157341.825770: $GPZDA,194222.00,01,12,2017,00,00*6E
2017-12-01 14:42:21 1512157341.825937: $GPGGA,194222,3946.9588,N,08404.9846,W,2,12,1.00,288.04,M,-33.324,M,,*7E
2017-12-01 14:42:21 1512157341.826003: $GPRMC,194222,A,3946.9588,N,08404.9846,W,0.0000,0.000,011217,,*3A
2017-12-01 14:42:21 1512157341.826064: $GPGSA,A,3,8,10,12,14,18,21,24,32,15,25,31,138,2.0,1.0,1.5*3C
2017-12-01 14:42:22 1512157342.376590: $GPZDA,194223.00,01,12,2017,00,00*6F
2017-12-01 14:42:22 1512157342.376766: $GPGGA,194223,3946.9588,N,08404.9846,W,2,12,1.00,288.04,M,-33.324,M,,*7F
2017-12-01 14:42:22 1512157342.376832: $GPRMC,194223,A,3946.9588,N,08404.9846,W,0.0000,0.000,011217,,*3B
2017-12-01 14:42:22 1512157342.376893: $GPGSA,A,3,8,10,12,14,18,21,24,32,15,25,31,138,2.0,1.0,1.5*3C
2017-12-01 14:42:23 1512157343.378156: $GPZDA,194224.00,01,12,2017,00,00*68
2017-12-01 14:42:23 1512157343.378332: $GPGGA,194224,3946.9588,N,08404.9846,W,2,12,1.00,288.04,M,-33.324,M,,*78
2017-12-01 14:42:23 1512157343.378399: $GPRMC,194224,A,3946.9588,N,08404.9846,W,0.0000,0.000,011217,,*3C
2017-12-01 14:42:23 1512157343.378459: $GPGSA,A,3,8,10,12,14,18,21,24,32,15,25,31,138,2.0,1.0,1.5*3C
2017-12-01 14:42:24 1512157344.715177: $GPGSV,3,1,12,08,03,286,30,10,77,346,48,12,14,100,35,14,35,261,44*77
2017-12-01 14:42:24 1512157344.715334: $GPGSV,3,2,12,18,64,109,46,21,20,177,45,24,38,052,45,32,52,276,44*75
2017-12-01 14:42:24 1512157344.715399: $GPGSV,3,3,12,15,05,070,23,25,09,136,28,31,07,204,32,138,38,213,47*4D
2017-12-01 14:42:24 1512157344.828600: $GPZDA,194225.00,01,12,2017,00,00*69
2017-12-01 14:42:24 1512157344.828788: $GPGGA,194225,3946.9588,N,08404.9846,W,2,12,1.00,288.04,M,-33.324,M,,*79
2017-12-01 14:42:24 1512157344.828854: $GPRMC,194225,A,3946.9588,N,08404.9846,W,0.0000,0.000,011217,,*3D
2017-12-01 14:42:24 1512157344.828915: $GPGSA,A,3,8,10,12,14,18,21,24,32,15,25,31,138,2.0,1.0,1.5*3C
2017-12-01 14:42:25 1512157345.375628: $GPZDA,194226.00,01,12,2017,00,00*6A
2017-12-01 14:42:25 1512157345.375862: $GPGGA,194226,3946.9592,N,08404.9846,W,2,12,1.00,288.68,M,-33.324,M,,*7B
2017-12-01 14:42:25 1512157345.375971: $GPRMC,194226,A,3946.9592,N,08404.9846,W,0.0000,0.000,011217,,*35
2017-12-01 14:42:25 1512157345.376038: $GPGSA,A,3,8,10,12,14,18,21,24,32,15,25,31,138,2.0,1.0,1.5*3C
2017-12-01 14:42:26 1512157346.374371: $GPZDA,194227.00,01,12,2017,00,00*6B
2017-12-01 14:42:26 1512157346.374738: $GPGGA,194227,3946.9592,N,08404.9846,W,2,12,1.00,288.68,M,-33.324,M,,*7A
2017-12-01 14:42:26 1512157346.374810: $GPRMC,194227,A,3946.9592,N,08404.9846,W,0.0000,0.000,011217,,*34
2017-12-01 14:42:26 1512157346.374874: $GPGSA,A,3,8,10,12,14,18,21,24,32,15,25,31,138,2.0,1.0,1.5*3C
2017-12-01 14:42:27 1512157347.714800: $GPGSV,3,1,12,08,03,286,30,10,77,346,48,12,14,100,36,14,35,261,43*73
2017-12-01 14:42:27 1512157347.715132: $GPGSV,3,2,12,18,64,109,47,21,20,177,46,24,38,052,45,32,52,276,44*77
2017-12-01 14:42:27 1512157347.715260: $GPGSV,3,3,12,15,05,070,22,25,09,136,28,31,07,204,33,138,38,213,46*4C
2017-12-01 14:42:27 1512157347.827135: $GPZDA,194228.00,01,12,2017,00,00*64
2017-12-01 14:42:27 1512157347.827303: $GPGGA,194228,3946.9592,N,08404.9846,W,2,12,1.00,288.68,M,-33.324,M,,*75
2017-12-01 14:42:27 1512157347.827370: $GPRMC,194228,A,3946.9592,N,08404.9846,W,0.0000,0.000,011217,,*3B
2017-12-01 14:42:27 1512157347.827431: $GPGSA,A,3,8,10,12,14,18,21,24,32,15,25,31,138,2.0,1.0,1.5*3C
2017-12-01 14:42:28 1512157348.453768: $GPZDA,194229.00,01,12,2017,00,00*65
2017-12-01 14:42:28 1512157348.453938: $GPGGA,194229,3946.9592,N,08404.9846,W,2,12,1.00,288.68,M,-33.324,M,,*74
2017-12-01 14:42:28 1512157348.454006: $GPRMC,194229,A,3946.9592,N,08404.9846,W,0.0000,0.000,011217,,*3A
2017-12-01 14:42:28 1512157348.454067: $GPGSA,A,3,8,10,12,14,18,21,24,32,15,25,31,138,2.0,1.0,1.5*3C
2017-12-01 14:42:29 1512157349.378140: $GPZDA,194230.00,01,12,2017,00,00*6D
2017-12-01 14:42:29 1512157349.378303: $GPGGA,194230,3946.9592,N,08404.9846,W,2,12,1.00,288.68,M,-33.324,M,,*7C
2017-12-01 14:42:29 1512157349.378371: $GPRMC,194230,A,3946.9592,N,08404.9846,W,0.0000,0.000,011217,,*32
2017-12-01 14:42:29 1512157349.378432: $GPGSA,A,3,8,10,12,14,18,21,24,32,15,25,31,138,2.0,1.0,1.5*3C
2017-12-01 14:42:30 1512157350.712682: $GPGSV,3,1,12,08,03,286,30,10,77,346,48,12,14,100,36,14,35,261,43*73
2017-12-01 14:42:30 1512157350.712863: $GPGSV,3,2,12,18,64,109,46,21,20,177,46,24,38,052,46,32,52,276,44*75
2017-12-01 14:42:30 1512157350.712929: $GPGSV,3,3,12,15,05,070,22,25,09,136,27,31,07,204,34,138,38,213,47*45
2017-12-01 14:42:30 1512157350.826355: $GPZDA,194231.00,01,12,2017,00,00*6C
2017-12-01 14:42:30 1512157350.826550: $GPGGA,194231,3946.9592,N,08404.9846,W,2,12,1.00,288.68,M,-33.324,M,,*7D
2017-12-01 14:42:30 1512157350.826618: $GPRMC,194231,A,3946.9592,N,08404.9846,W,0.0000,0.000,011217,,*33
2017-12-01 14:42:30 1512157350.826698: $GPGSA,A,3,8,10,12,14,18,21,24,32,15,25,31,138,2.0,1.0,1.5*3C
2017-12-01 14:42:31 1512157351.376908: $GPZDA,194232.00,01,12,2017,00,00*6F
2017-12-01 14:42:31 1512157351.377085: $GPGGA,194232,3946.9592,N,08404.9846,W,2,12,1.00,288.68,M,-33.324,M,,*7E
2017-12-01 14:42:31 1512157351.377154: $GPRMC,194232,A,3946.9592,N,08404.9846,W,0.0000,0.000,011217,,*30
2017-12-01 14:42:31 1512157351.377215: $GPGSA,A,3,8,10,12,14,18,21,24,32,15,25,31,138,2.0,1.0,1.5*3C
2017-12-01 14:42:32 1512157352.379094: $GPZDA,194233.00,01,12,2017,00,00*6E
2017-12-01 14:42:32 1512157352.379265: $GPGGA,194233,3946.9592,N,08404.9846,W,2,12,1.00,288.68,M,-33.324,M,,*7F
2017-12-01 14:42:32 1512157352.379331: $GPRMC,194233,A,3946.9592,N,08404.9846,W,0.0000,0.000,011217,,*31
2017-12-01 14:42:32 1512157352.379392: $GPGSA,A,3,8,10,12,14,18,21,24,32,15,25,31,138,2.0,1.0,1.5*3C
2017-12-01 14:42:33 1512157353.713241: $GPGSV,3,1,12,08,03,286,30,10,77,346,46,12,14,100,36,14,35,261,44*7A
2017-12-01 14:42:33 1512157353.713425: $GPGSV,3,2,12,18,64,109,46,21,20,177,46,24,38,052,46,32,52,276,44*75
2017-12-01 14:42:33 1512157353.713558: $GPGSV,3,3,12,15,05,070,21,25,09,136,27,31,07,204,34,138,38,213,48*49
2017-12-01 14:42:33 1512157353.826801: $GPZDA,194234.00,01,12,2017,00,00*69
2017-12-01 14:42:33 1512157353.826971: $GPGGA,194234,3946.9592,N,08404.9846,W,2,12,1.00,288.68,M,-33.324,M,,*78
2017-12-01 14:42:33 1512157353.827038: $GPRMC,194234,A,3946.9592,N,08404.9846,W,0.0000,0.000,011217,,*36
2017-12-01 14:42:33 1512157353.827099: $GPGSA,A,3,8,10,12,14,18,21,24,32,15,25,31,138,2.0,1.0,1.5*3C
2017-12-01 14:42:34 1512157354.377623: $GPZDA,194235.00,01,12,2017,00,00*68
2017-12-01 14:42:34 1512157354.377807: $GPGGA,194235,3946.9592,N,08404.9846,W,2,12,1.00,288.68,M,-33.324,M,,*79
2017-12-01 14:42:34 1512157354.377874: $GPRMC,194235,A,3946.9592,N,08404.9846,W,0.0000,0.000,011217,,*37
2017-12-01 14:42:34 1512157354.377936: $GPGSA,A,3,8,10,12,14,18,21,24,32,15,25,31,138,2.0,1.0,1.5*3C
2017-12-01 14:42:35 1512157355.415616: $GPZDA,194236.00,01,12,2017,00,00*6B
2017-12-01 14:42:35 1512157355.415797: $GPGGA,194236,3946.9592,N,08404.9846,W,2,12,1.00,288.68,M,-33.324,M,,*7A
2017-12-01 14:42:35 1512157355.415866: $GPRMC,194236,A,3946.9592,N,08404.9846,W,0.0000,0.000,011217,,*34
2017-12-01 14:42:35 1512157355.415974: $GPGSA,A,3,8,10,12,14,18,21,24,32,15,25,31,138,2.0,1.0,1.5*3C
2017-12-01 14:42:36 1512157356.750067: $GPGSV,3,1,12,08,03,286,30,10,77,346,46,12,14,100,37,14,35,261,44*7B
2017-12-01 14:42:36 1512157356.750249: $GPGSV,3,2,12,18,64,109,46,21,20,177,46,24,38,052,47,32,52,276,44*74
2017-12-01 14:42:36 1512157356.750334: $GPGSV,3,3,12,15,05,070,21,25,09,136,24,31,07,204,35,138,38,213,47*44
2017-12-01 14:42:36 1512157356.863752: $GPZDA,194237.00,01,12,2017,00,00*6A
2017-12-01 14:42:36 1512157356.863922: $GPGGA,194237,3946.9589,N,08404.9847,W,2,12,1.00,289.45,M,-33.324,M,,*7E
2017-12-01 14:42:36 1512157356.863990: $GPRMC,194237,A,3946.9589,N,08404.9847,W,0.0000,0.000,011217,,*3E
2017-12-01 14:42:36 1512157356.864051: $GPGSA,A,3,8,10,12,14,18,21,24,32,15,25,31,138,2.0,1.0,1.5*3C
2017-12-01 14:42:37 1512157357.414542: $GPZDA,194238.00,01,12,2017,00,00*65
2017-12-01 14:42:37 1512157357.414744: $GPGGA,194238,3946.9589,N,08404.9847,W,2,12,1.00,289.45,M,-33.324,M,,*71
2017-12-01 14:42:37 1512157357.414814: $GPRMC,194238,A,3946.9589,N,08404.9847,W,0.0000,0.000,011217,,*31
2017-12-01 14:42:37 1512157357.414875: $GPGSA,A,3,8,10,12,14,18,21,24,32,15,25,31,138,2.0,1.0,1.5*3C
