2017-11-16 14:50:48 1510861848.357179: {"class":"VERSION","release":"3.17","rev":"3.17","proto_major":3,"proto_minor":12}
2017-11-16 14:50:48 1510861848.360674: {"class":"DEVICES","devices":[{"class":"DEVICE","path":"/dev/ttyUSB0","driver":"SiRF","subtype":"9\u0006GSD4e_4.1.2-P1_RPATCH.05-F-GPS-4R-1510281 11/03/2015 307","activated":"2017-11-16T19:50:48.313Z","flags":1,"native":1,"bps":4800,"parity":"N","stopbits":1,"cycle":1.00}]}
2017-11-16 14:50:48 1510861848.360898: {"class":"WATCH","enable":true,"json":false,"nmea":true,"raw":0,"scaled":false,"timing":false,"split24":false,"pps":false}
2017-11-16 14:50:48 1510861848.827358: $GPGSV,3,1,11,08,08,307,34,10,55,313,50,15,24,058,50,18,77,033,45*7F
2017-11-16 14:50:48 1510861848.827537: $GPGSV,3,2,11,21,46,183,46,20,21,108,41,24,53,081,48,27,14,273,44*7F
2017-11-16 14:50:48 1510861848.827597: $GPGSV,3,3,11,32,33,250,46,14,17,241,43,138,38,213,44*7F
2017-11-16 14:50:48 1510861848.940714: $GPZDA,195047.00,16,11,2017,00,00*6B
2017-11-16 14:50:48 1510861848.940891: $GPGGA,195047,3946.9572,N,08404.9841,W,2,11,0.80,302.62,M,-33.324,M,,*75
2017-11-16 14:50:48 1510861848.940955: $GPRMC,195047,A,3946.9572,N,08404.9841,W,0.0000,0.000,161117,,*3D
2017-11-16 14:50:48 1510861848.941013: $GPGSA,A,3,8,10,15,18,21,20,24,27,32,14,138,,1.6,0.8,1.3*37
2017-11-16 14:50:49 1510861849.566166: $GPZDA,195048.00,16,11,2017,00,00*64
2017-11-16 14:50:49 1510861849.566347: $GPGGA,195048,3946.9572,N,08404.9841,W,2,11,0.80,302.62,M,-33.324,M,,*7A
2017-11-16 14:50:49 1510861849.566416: $GPRMC,195048,A,3946.9572,N,08404.9841,W,0.0000,0.000,161117,,*32
2017-11-16 14:50:49 1510861849.566474: $GPGSA,A,3,8,10,15,18,21,20,24,27,32,14,138,,1.6,0.8,1.3*37
2017-11-16 14:50:50 1510861850.489362: $GPZDA,195049.00,16,11,2017,00,00*65
2017-11-16 14:50:50 1510861850.489536: $GPGGA,195049,3946.9572,N,08404.9841,W,2,11,0.80,302.62,M,-33.324,M,,*7B
2017-11-16 14:50:50 1510861850.489599: $GPRMC,195049,A,3946.9572,N,08404.9841,W,0.0000,0.000,161117,,*33
2017-11-16 14:50:50 1510861850.489655: $GPGSA,A,3,8,10,15,18,21,20,24,27,32,14,138,,1.6,0.8,1.3*37
2017-11-16 14:50:51 1510861851.825184: $GPGSV,3,1,11,08,08,307,35,10,55,313,50,15,24,058,51,18,77,033,45*7F
2017-11-16 14:50:51 1510861851.825358: $GPGSV,3,2,11,21,46,183,46,20,21,108,41,24,53,081,49,27,14,273,44*7E
2017-11-16 14:50:51 1510861851.825422: $GPGSV,3,3,11,32,33,250,47,14,17,241,43,138,38,213,43*79
2017-11-16 14:50:51 1510861851.938478: $GPZDA,195050.00,16,11,2017,00,00*6D
2017-11-16 14:50:51 1510861851.938638: $GPGGA,195050,3946.9572,N,08404.9841,W,2,11,0.80,302.62,M,-33.324,M,,*73
2017-11-16 14:50:51 1510861851.938699: $GPRMC,195050,A,3946.9572,N,08404.9841,W,0.0000,0.000,161117,,*3B
2017-11-16 14:50:51 1510861851.938755: $GPGSA,A,3,8,10,15,18,21,20,24,27,32,14,138,,1.6,0.8,1.3*37
2017-11-16 14:50:52 1510861852.489371: $GPZDA,195051.00,16,11,2017,00,00*6C
2017-11-16 14:50:52 1510861852.489547: $GPGGA,195051,3946.9572,N,08404.9841,W,2,11,0.80,302.62,M,-33.324,M,,*72
2017-11-16 14:50:52 1510861852.489609: $GPRMC,195051,A,3946.9572,N,08404.9841,W,0.0000,0.000,161117,,*3A
2017-11-16 14:50:52 1510861852.489665: $GPGSA,A,3,8,10,15,18,21,20,24,27,32,14,138,,1.6,0.8,1.3*37
2017-11-16 14:50:53 1510861853.526483: $GPZDA,195052.00,16,11,2017,00,00*6F
2017-11-16 14:50:53 1510861853.526666: $GPGGA,195052,3946.9572,N,08404.9841,W,2,11,0.80,302.62,M,-33.324,M,,*71
2017-11-16 14:50:53 1510861853.526728: $GPRMC,195052,A,3946.9572,N,08404.9841,W,0.0000,0.000,161117,,*39
2017-11-16 14:50:53 1510861853.526784: $GPGSA,A,3,8,10,15,18,21,20,24,27,32,14,138,,1.6,0.8,1.3*37
2017-11-16 14:50:54 1510861854.820725: $GPGSV,3,1,11,08,08,307,36,10,55,313,50,15,24,058,50,18,77,033,45*7D
2017-11-16 14:50:54 1510861854.820905: $GPGSV,3,2,11,21,46,183,46,20,21,108,41,24,53,081,48,27,14,273,44*7F
2017-11-16 14:50:54 1510861854.820970: $GPGSV,3,3,11,32,33,250,47,14,17,241,43,138,38,213,43*79
2017-11-16 14:50:54 1510861854.933953: $GPZDA,195053.00,16,11,2017,00,00*6E
2017-11-16 14:50:54 1510861854.934113: $GPGGA,195053,3946.9572,N,08404.9841,W,2,11,0.80,302.62,M,-33.324,M,,*70
2017-11-16 14:50:54 1510861854.934228: $GPRMC,195053,A,3946.9572,N,08404.9841,W,0.0000,0.000,161117,,*38
2017-11-16 14:50:54 1510861854.934287: $GPGSA,A,3,8,10,15,18,21,20,24,27,32,14,138,,1.6,0.8,1.3*37
2017-11-16 14:50:55 1510861855.488655: $GPZDA,195054.00,16,11,2017,00,00*69
2017-11-16 14:50:55 1510861855.488823: $GPGGA,195054,3946.9572,N,08404.9841,W,2,11,0.80,302.62,M,-33.324,M,,*77
2017-11-16 14:50:55 1510861855.488886: $GPRMC,195054,A,3946.9572,N,08404.9841,W,0.0000,0.000,161117,,*3F
2017-11-16 14:50:55 1510861855.488944: $GPGSA,A,3,8,10,15,18,21,20,24,27,32,14,138,,1.6,0.8,1.3*37
2017-11-16 14:50:56 1510861856.483278: $GPZDA,195055.00,16,11,2017,00,00*68
2017-11-16 14:50:56 1510861856.483450: $GPGGA,195055,3946.9572,N,08404.9841,W,2,11,0.80,302.62,M,-33.324,M,,*76
2017-11-16 14:50:56 1510861856.483512: $GPRMC,195055,A,3946.9572,N,08404.9841,W,0.0000,0.000,161117,,*3E
2017-11-16 14:50:56 1510861856.483570: $GPGSA,A,3,8,10,15,18,21,20,24,27,32,14,138,,1.6,0.8,1.3*37
2017-11-16 14:50:57 1510861857.825321: $GPGSV,3,1,11,08,08,307,37,10,55,313,50,15,24,058,50,18,77,033,45*7C
2017-11-16 14:50:57 1510861857.825490: $GPGSV,3,2,11,21,46,183,46,20,21,108,41,24,53,081,48,27,14,273,44*7F
2017-11-16 14:50:57 1510861857.825552: $GPGSV,3,3,11,32,33,250,47,14,17,241,43,138,38,213,44*7E
2017-11-16 14:50:57 1510861857.938614: $GPZDA,195056.00,16,11,2017,00,00*6B
2017-11-16 14:50:57 1510861857.938781: $GPGGA,195056,3946.9572,N,08404.9841,W,2,11,0.80,302.62,M,-33.324,M,,*75
2017-11-16 14:50:57 1510861857.938843: $GPRMC,195056,A,3946.9572,N,08404.9841,W,0.0000,0.000,161117,,*3D
2017-11-16 14:50:57 1510861857.938899: $GPGSA,A,3,8,10,15,18,21,20,24,27,32,14,138,,1.6,0.8,1.3*37
