2017-12-29 11:28:35 1514564915.598356: {"class":"VERSION","release":"3.16","rev":"3.16-4","proto_major":3,"proto_minor":11}
2017-12-29 11:28:35 1514564915.598693: {"class":"DEVICES","devices":[{"class":"DEVICE","path":"/dev/ttyUSB0","driver":"SiRF","subtype":"9\u0006GSD4e_4.1.2-P1_RPATCH.05-F-GPS-4R-1510281 11/03/2015 307","activated":"2017-12-29T16:28:35.574Z","flags":1,"native":1,"bps":4800,"parity":"N","stopbits":1,"cycle":1.00}]}
2017-12-29 11:28:35 1514564915.598808: {"class":"WATCH","enable":true,"json":false,"nmea":true,"raw":0,"scaled":false,"timing":false,"split24":false,"pps":false}
2017-12-29 11:28:36 1514564916.381554: $GPZDA,162837.00,29,12,2017,00,00*63
2017-12-29 11:28:36 1514564916.381761: $GPGGA,162837,3946.9580,N,08404.9824,W,1,10,1.00,322.59,M,-33.324,M,,*7D
2017-12-29 11:28:36 1514564916.381830: $GPRMC,162837,A,3946.9580,N,08404.9824,W,0.0000,0.000,291217,,*3B
2017-12-29 11:28:36 1514564916.381921: $GPGSA,A,3,8,10,15,18,20,21,24,27,32,138,,,1.7,1.0,1.3*3A
2017-12-29 11:28:37 1514564917.718489: $GPGSV,3,1,12,08,07,319,31,10,45,304,42,15,33,054,45,18,74,351,40*72
2017-12-29 11:28:37 1514564917.718666: $GPGSV,3,2,12,20,31,099,47,21,58,186,42,24,52,102,46,27,18,285,40*78
2017-12-29 11:28:37 1514564917.718755: $GPGSV,3,3,12,32,25,241,35,14,07,235,09,13,04,049,00,138,38,213,45*49
2017-12-29 11:28:37 1514564917.832365: $GPZDA,162838.00,29,12,2017,00,00*6C
2017-12-29 11:28:37 1514564917.832521: $GPGGA,162838,3946.9580,N,08404.9824,W,1,10,1.00,322.59,M,-33.324,M,,*72
2017-12-29 11:28:37 1514564917.832587: $GPRMC,162838,A,3946.9580,N,08404.9824,W,0.0000,0.000,291217,,*34
2017-12-29 11:28:37 1514564917.832647: $GPGSA,A,3,8,10,15,18,20,21,24,27,32,138,,,1.7,1.0,1.3*3A
2017-12-29 11:28:38 1514564918.382747: $GPZDA,162839.00,29,12,2017,00,00*6D
2017-12-29 11:28:38 1514564918.382919: $GPGGA,162839,3946.9577,N,08404.9824,W,1,10,1.00,323.36,M,-33.324,M,,*73
2017-12-29 11:28:38 1514564918.382985: $GPRMC,162839,A,3946.9577,N,08404.9824,W,0.4207,219.346,291217,,*37
2017-12-29 11:28:38 1514564918.383046: $GPGSA,A,3,8,10,15,18,20,21,24,27,32,138,,,1.7,1.0,1.3*3A
2017-12-29 11:28:39 1514564919.376373: $GPZDA,162840.00,29,12,2017,00,00*63
2017-12-29 11:28:39 1514564919.376543: $GPGGA,162840,3946.9580,N,08404.9824,W,1,10,1.00,322.59,M,-33.324,M,,*7D
2017-12-29 11:28:39 1514564919.376610: $GPRMC,162840,A,3946.9580,N,08404.9824,W,0.0000,0.000,291217,,*3B
2017-12-29 11:28:39 1514564919.376671: $GPGSA,A,3,8,10,15,18,20,21,24,27,32,138,,,1.7,1.0,1.3*3A
2017-12-29 11:28:40 1514564920.717494: $GPGSV,3,1,12,08,07,319,32,10,45,304,42,15,33,054,45,18,74,351,40*71
2017-12-29 11:28:40 1514564920.717674: $GPGSV,3,2,12,20,31,099,47,21,58,186,42,24,52,102,46,27,18,285,40*78
2017-12-29 11:28:40 1514564920.717739: $GPGSV,3,3,12,32,25,241,35,14,07,235,00,13,04,049,00,138,38,213,45*40
2017-12-29 11:28:40 1514564920.830786: $GPZDA,162841.00,29,12,2017,00,00*62
2017-12-29 11:28:40 1514564920.830929: $GPGGA,162841,3946.9577,N,08404.9824,W,1,10,1.00,323.36,M,-33.324,M,,*7C
2017-12-29 11:28:40 1514564920.830995: $GPRMC,162841,A,3946.9577,N,08404.9824,W,0.2422,273.794,291217,,*38
2017-12-29 11:28:40 1514564920.831116: $GPGSA,A,3,8,10,15,18,20,21,24,27,32,138,,,1.7,1.0,1.3*3A
2017-12-29 11:28:41 1514564921.384146: $GPZDA,162842.00,29,12,2017,00,00*61
2017-12-29 11:28:41 1514564921.384326: $GPGGA,162842,3946.9577,N,08404.9824,W,1,10,1.00,323.36,M,-33.324,M,,*7F
2017-12-29 11:28:41 1514564921.385714: $GPRMC,162842,A,3946.9577,N,08404.9824,W,0.0000,0.000,291217,,*31
2017-12-29 11:28:41 1514564921.385802: $GPGSA,A,3,8,10,15,18,20,21,24,27,32,138,,,1.7,1.0,1.3*3A
2017-12-29 11:28:42 1514564922.382511: $GPZDA,162843.00,29,12,2017,00,00*60
2017-12-29 11:28:42 1514564922.382690: $GPGGA,162843,3946.9580,N,08404.9824,W,1,10,0.80,322.59,M,-33.324,M,,*77
2017-12-29 11:28:42 1514564922.382756: $GPRMC,162843,A,3946.9580,N,08404.9824,W,0.0000,0.000,291217,,*38
2017-12-29 11:28:42 1514564922.382837: $GPGSA,A,3,8,10,15,18,20,21,24,27,32,138,,,1.7,0.8,1.3*33
2017-12-29 11:28:43 1514564923.718244: $GPGSV,3,1,12,08,07,319,32,10,45,304,42,15,33,054,45,18,74,351,39*7F
2017-12-29 11:28:43 1514564923.718479: $GPGSV,3,2,12,20,31,099,47,21,58,186,42,24,52,102,46,27,18,285,39*76
2017-12-29 11:28:43 1514564923.718551: $GPGSV,3,3,12,32,25,241,35,14,07,235,21,13,04,049,00,138,38,213,46*40
2017-12-29 11:28:43 1514564923.831616: $GPZDA,162844.00,29,12,2017,00,00*67
2017-12-29 11:28:43 1514564923.831788: $GPGGA,162844,3946.9580,N,08404.9824,W,1,10,1.00,322.59,M,-33.324,M,,*79
2017-12-29 11:28:43 1514564923.831874: $GPRMC,162844,A,3946.9580,N,08404.9824,W,0.0000,0.000,291217,,*3F
2017-12-29 11:28:43 1514564923.831936: $GPGSA,A,3,8,10,15,18,20,21,24,27,32,138,,,1.7,1.0,1.3*3A
2017-12-29 11:28:44 1514564924.381209: $GPZDA,162845.00,29,12,2017,00,00*66
2017-12-29 11:28:44 1514564924.381395: $GPGGA,162845,3946.9580,N,08404.9824,W,1,10,1.00,322.59,M,-33.324,M,,*78
2017-12-29 11:28:44 1514564924.381467: $GPRMC,162845,A,3946.9580,N,08404.9824,W,0.0000,0.000,291217,,*3E
2017-12-29 11:28:44 1514564924.381531: $GPGSA,A,3,8,10,15,18,20,21,24,27,32,138,,,1.7,1.0,1.3*3A
2017-12-29 11:28:45 1514564925.396497: $GPZDA,162846.00,29,12,2017,00,00*65
2017-12-29 11:28:45 1514564925.396685: $GPGGA,162846,3946.9580,N,08404.9824,W,1,10,1.00,322.59,M,-33.324,M,,*7B
2017-12-29 11:28:45 1514564925.396753: $GPRMC,162846,A,3946.9580,N,08404.9824,W,0.0000,0.000,291217,,*3D
2017-12-29 11:28:45 1514564925.396816: $GPGSA,A,3,8,10,15,18,20,21,24,27,32,138,,,1.7,1.0,1.3*3A
2017-12-29 11:28:46 1514564926.732209: $GPGSV,3,1,12,08,07,319,32,10,45,304,42,15,33,054,45,18,74,351,40*71
2017-12-29 11:28:46 1514564926.732394: $GPGSV,3,2,12,20,31,099,47,21,58,186,42,24,52,102,46,27,18,285,39*76
2017-12-29 11:28:46 1514564926.732463: $GPGSV,3,3,12,32,25,241,35,14,07,235,00,13,04,049,00,138,38,213,45*40
2017-12-29 11:28:46 1514564926.845696: $GPZDA,162847.00,29,12,2017,00,00*64
2017-12-29 11:28:46 1514564926.845893: $GPGGA,162847,3946.9580,N,08404.9824,W,1,10,1.00,322.59,M,-33.324,M,,*7A
2017-12-29 11:28:46 1514564926.845961: $GPRMC,162847,A,3946.9580,N,08404.9824,W,0.0000,0.000,291217,,*3C
2017-12-29 11:28:46 1514564926.846024: $GPGSA,A,3,8,10,15,18,20,21,24,27,32,138,,,1.7,1.0,1.3*3A
2017-12-29 11:28:47 1514564927.398191: $GPZDA,162848.00,29,12,2017,00,00*6B
2017-12-29 11:28:47 1514564927.398387: $GPGGA,162848,3946.9584,N,08404.9824,W,1,10,1.00,323.23,M,-33.324,M,,*7D
2017-12-29 11:28:47 1514564927.398456: $GPRMC,162848,A,3946.9584,N,08404.9824,W,0.0000,0.000,291217,,*37
2017-12-29 11:28:47 1514564927.398526: $GPGSA,A,3,8,10,15,18,20,21,24,27,32,138,,,1.7,1.0,1.3*3A
2017-12-29 11:28:48 1514564928.381031: $GPZDA,162849.00,29,12,2017,00,00*6A
2017-12-29 11:28:48 1514564928.381265: $GPGGA,162849,3946.9584,N,08404.9824,W,1,10,1.00,323.23,M,-33.324,M,,*7C
2017-12-29 11:28:48 1514564928.381333: $GPRMC,162849,A,3946.9584,N,08404.9824,W,0.0000,0.000,291217,,*36
2017-12-29 11:28:48 1514564928.381396: $GPGSA,A,3,8,10,15,18,20,21,24,27,32,138,,,1.7,1.0,1.3*3A
2017-12-29 11:28:49 1514564929.716721: $GPGSV,3,1,12,08,07,319,32,10,45,304,42,15,33,054,45,18,74,351,40*71
2017-12-29 11:28:49 1514564929.716902: $GPGSV,3,2,12,20,31,099,47,21,58,186,42,24,52,102,46,27,18,285,39*76
2017-12-29 11:28:49 1514564929.716970: $GPGSV,3,3,12,32,25,241,35,14,07,235,00,13,04,049,00,138,38,213,45*40
2017-12-29 11:28:49 1514564929.830226: $GPZDA,162850.00,29,12,2017,00,00*62
2017-12-29 11:28:49 1514564929.830421: $GPGGA,162850,3946.9584,N,08404.9824,W,1,10,1.00,323.23,M,-33.324,M,,*74
2017-12-29 11:28:49 1514564929.830489: $GPRMC,162850,A,3946.9584,N,08404.9824,W,0.0000,0.000,291217,,*3E
2017-12-29 11:28:49 1514564929.830553: $GPGSA,A,3,8,10,15,18,20,21,24,27,32,138,,,1.7,1.0,1.3*3A
2017-12-29 11:28:50 1514564930.455436: $GPZDA,162851.00,29,12,2017,00,00*63
2017-12-29 11:28:50 1514564930.455607: $GPGGA,162851,3946.9584,N,08404.9824,W,1,10,1.00,323.23,M,-33.324,M,,*75
2017-12-29 11:28:50 1514564930.455675: $GPRMC,162851,A,3946.9584,N,08404.9824,W,0.0000,0.000,291217,,*3F
2017-12-29 11:28:50 1514564930.455737: $GPGSA,A,3,8,10,15,18,20,21,24,27,32,138,,,1.7,1.0,1.3*3A
