2017-11-15 19:04:19 1510790659.773872: {"class":"VERSION","release":"3.17","rev":"3.17","proto_major":3,"proto_minor":12}
2017-11-15 19:04:19 1510790659.774316: {"class":"DEVICES","devices":[{"class":"DEVICE","path":"/dev/ttyUSB0","driver":"SiRF","subtype":"9\u0006GSD4e_4.1.2-P1_RPATCH.05-F-GPS-4R-1510281 11/03/2015 307","activated":"2017-11-16T00:04:19.488Z","flags":1,"native":1,"bps":4800,"parity":"N","stopbits":1,"cycle":1.00}]}
2017-11-15 19:04:19 1510790659.774435: {"class":"WATCH","enable":true,"json":false,"nmea":true,"raw":0,"scaled":false,"timing":false,"split24":false,"pps":false}
2017-11-15 19:04:20 1510790660.348021: $GPZDA,000419.00,16,11,2017,00,00*69
2017-11-15 19:04:20 1510790660.348183: $GPGGA,000419,3946.9711,N,08404.9438,W,1,08,1.40,295.17,M,-33.324,M,,*79
2017-11-15 19:04:20 1510790660.348244: $GPRMC,000419,A,3946.9711,N,08404.9438,W,0.5306,114.352,161117,,*3A
2017-11-15 19:04:20 1510790660.348300: $GPGSA,A,3,32,14,3,26,31,16,22,1,,,,,3.4,1.4,2.9*3C
2017-11-15 19:04:21 1510790661.682933: $GPGSV,3,1,12,32,45,096,22,14,63,073,20,03,32,309,20,26,40,175,16*7F
2017-11-15 19:04:21 1510790661.683104: $GPGSV,3,2,12,31,76,355,30,16,11,190,18,22,47,288,16,23,03,295,04*70
2017-11-15 19:04:21 1510790661.683163: $GPGSV,3,3,12,25,26,045,00,01,12,262,08,10,08,159,00,120,07,103,00*46
2017-11-15 19:04:21 1510790661.796357: $GPZDA,000420.00,16,11,2017,00,00*63
2017-11-15 19:04:21 1510790661.796568: $GPGGA,000420,3946.9711,N,08404.9438,W,1,08,1.40,295.17,M,-33.324,M,,*73
2017-11-15 19:04:21 1510790661.796629: $GPRMC,000420,A,3946.9711,N,08404.9438,W,0.0000,0.000,161117,,*30
2017-11-15 19:04:21 1510790661.796685: $GPGSA,A,3,32,14,3,26,31,16,22,1,,,,,3.4,1.4,2.9*3C
2017-11-15 19:04:22 1510790662.347275: $GPZDA,000421.00,16,11,2017,00,00*62
2017-11-15 19:04:22 1510790662.347440: $GPGGA,000421,3946.9711,N,08404.9438,W,1,08,1.40,295.17,M,-33.324,M,,*72
2017-11-15 19:04:22 1510790662.347500: $GPRMC,000421,A,3946.9711,N,08404.9438,W,0.4844,273.795,161117,,*30
2017-11-15 19:04:22 1510790662.347555: $GPGSA,A,3,32,14,3,26,31,16,22,1,,,,,3.4,1.4,2.9*3C
2017-11-15 19:04:23 1510790663.346926: $GPZDA,000422.00,16,11,2017,00,00*61
2017-11-15 19:04:23 1510790663.347090: $GPGGA,000422,3946.9711,N,08404.9445,W,1,08,1.40,295.09,M,-33.324,M,,*74
2017-11-15 19:04:23 1510790663.347166: $GPRMC,000422,A,3946.9711,N,08404.9445,W,0.5306,294.352,161117,,*33
2017-11-15 19:04:23 1510790663.347223: $GPGSA,A,3,32,14,3,26,31,16,22,1,,,,,3.4,1.4,2.9*3C
2017-11-15 19:04:24 1510790664.681542: $GPGSV,3,1,11,32,45,096,22,14,63,073,20,03,32,309,20,26,40,175,16*7C
2017-11-15 19:04:24 1510790664.681732: $GPGSV,3,2,11,31,76,355,30,16,11,190,18,22,47,288,16,25,26,045,00*79
2017-11-15 19:04:24 1510790664.681793: $GPGSV,3,3,11,10,08,159,00,01,12,262,04,29,06,081,00*49
2017-11-15 19:04:24 1510790664.794497: $GPZDA,000423.00,16,11,2017,00,00*60
2017-11-15 19:04:24 1510790664.794681: $GPGGA,000423,3946.9711,N,08404.9445,W,1,07,1.40,295.09,M,-33.324,M,,*7A
2017-11-15 19:04:24 1510790664.794742: $GPRMC,000423,A,3946.9711,N,08404.9445,W,0.5287,2.716,161117,,*33
2017-11-15 19:04:24 1510790664.794797: $GPGSA,A,3,32,14,3,26,31,16,22,,,,,,3.4,1.4,2.9*0D
2017-11-15 19:04:25 1510790665.345444: $GPZDA,000424.00,16,11,2017,00,00*67
2017-11-15 19:04:25 1510790665.345627: $GPGGA,000424,3946.9714,N,08404.9444,W,1,07,1.40,294.33,M,-33.324,M,,*71
2017-11-15 19:04:25 1510790665.345692: $GPRMC,000424,A,3946.9714,N,08404.9444,W,0.3423,4.197,161117,,*37
2017-11-15 19:04:25 1510790665.345751: $GPGSA,A,3,32,14,3,26,31,16,22,,,,,,3.4,1.4,2.9*0D
2017-11-15 19:04:26 1510790666.345956: $GPZDA,000425.00,16,11,2017,00,00*66
2017-11-15 19:04:26 1510790666.346156: $GPGGA,000425,3946.9714,N,08404.9444,W,1,07,1.40,294.33,M,-33.324,M,,*70
2017-11-15 19:04:26 1510790666.346221: $GPRMC,000425,A,3946.9714,N,08404.9444,W,0.4179,328.778,161117,,*31
2017-11-15 19:04:26 1510790666.346304: $GPGSA,A,3,32,14,3,26,31,16,22,,,,,,3.4,1.4,2.9*0D
2017-11-15 19:04:27 1510790667.681694: $GPGSV,3,1,11,32,45,096,22,14,63,073,19,03,32,309,20,26,40,175,16*76
2017-11-15 19:04:27 1510790667.681869: $GPGSV,3,2,11,31,76,355,29,16,11,190,18,22,47,288,15,25,26,045,00*72
2017-11-15 19:04:27 1510790667.681985: $GPGSV,3,3,11,10,08,159,00,01,12,262,08,29,06,081,00*45
2017-11-15 19:04:27 1510790667.795326: $GPZDA,000426.00,16,11,2017,00,00*65
2017-11-15 19:04:27 1510790667.795537: $GPGGA,000426,3946.9714,N,08404.9444,W,1,08,1.40,294.33,M,-33.324,M,,*7C
2017-11-15 19:04:27 1510790667.795625: $GPRMC,000426,A,3946.9714,N,08404.9444,W,0.4844,93.795,161117,,*05
2017-11-15 19:04:27 1510790667.795708: $GPGSA,A,3,32,14,3,26,31,16,22,1,,,,,3.4,1.4,2.9*3C
2017-11-15 19:04:28 1510790668.345951: $GPZDA,000427.00,16,11,2017,00,00*64
2017-11-15 19:04:28 1510790668.346112: $GPGGA,000427,3946.9710,N,08404.9437,W,1,08,1.40,293.77,M,-33.324,M,,*7A
2017-11-15 19:04:28 1510790668.346173: $GPRMC,000427,A,3946.9710,N,08404.9437,W,1.1124,122.165,161117,,*3D
2017-11-15 19:04:28 1510790668.346247: $GPGSA,A,3,32,14,3,26,31,16,22,1,,,,,3.4,1.4,2.9*3C
2017-11-15 19:04:29 1510790669.346671: $GPZDA,000428.00,16,11,2017,00,00*6B
2017-11-15 19:04:29 1510790669.346882: $GPGGA,000428,3946.9710,N,08404.9437,W,1,08,1.40,293.77,M,-33.324,M,,*75
2017-11-15 19:04:29 1510790669.346943: $GPRMC,000428,A,3946.9710,N,08404.9437,W,0.8359,148.778,161117,,*34
2017-11-15 19:04:29 1510790669.347000: $GPGSA,A,3,32,14,3,26,31,16,22,1,,,,,3.4,1.4,2.9*3C
