2017-12-29 10:49:45 1514562585.706976: {"class":"VERSION","release":"3.16","rev":"3.16-4","proto_major":3,"proto_minor":11}
2017-12-29 10:49:45 1514562585.707331: {"class":"DEVICES","devices":[{"class":"DEVICE","path":"/dev/ttyUSB0","driver":"SiRF","subtype":"9\u0006GSD4e_4.1.2-P1_RPATCH.05-F-GPS-4R-1510281 11/03/2015 307","activated":"2017-12-29T15:49:45.291Z","flags":1,"native":1,"bps":4800,"parity":"N","stopbits":1,"cycle":1.00}]}
2017-12-29 10:49:45 1514562585.707460: {"class":"WATCH","enable":true,"json":false,"nmea":true,"raw":0,"scaled":false,"timing":false,"split24":false,"pps":false}
2017-12-29 10:49:45 1514562585.740744: $GPGSV,3,1,12,10,32,292,43,13,18,046,44,15,48,049,50,18,63,316,44*77
2017-12-29 10:49:45 1514562585.740856: $GPGSV,3,2,12,20,44,084,49,21,75,210,47,24,43,127,50,27,19,301,38*7D
2017-12-29 10:49:45 1514562585.740919: $GPGSV,3,3,12,32,12,231,23,29,01,186,00,08,01,331,00,138,38,213,44*45
2017-12-29 10:49:45 1514562585.854391: $GPZDA,154946.00,29,12,2017,00,00*61
2017-12-29 10:49:45 1514562585.854585: $GPGGA,154946,3946.9584,N,08404.9834,W,2,10,0.80,304.62,M,-33.324,M,,*7C
2017-12-29 10:49:45 1514562585.854653: $GPRMC,154946,A,3946.9584,N,08404.9834,W,0.0000,0.000,291217,,*3C
2017-12-29 10:49:45 1514562585.854715: $GPGSA,A,3,10,13,15,18,20,21,24,27,32,138,,,1.7,0.8,1.3*09
2017-12-29 10:49:46 1514562586.479608: $GPZDA,154947.00,29,12,2017,00,00*60
2017-12-29 10:49:46 1514562586.479789: $GPGGA,154947,3946.9584,N,08404.9834,W,2,10,0.80,304.62,M,-33.324,M,,*7D
2017-12-29 10:49:46 1514562586.479860: $GPRMC,154947,A,3946.9584,N,08404.9834,W,0.0000,0.000,291217,,*3D
2017-12-29 10:49:46 1514562586.479921: $GPGSA,A,3,10,13,15,18,20,21,24,27,32,138,,,1.7,0.8,1.3*09
2017-12-29 10:49:47 1514562587.400493: $GPZDA,154948.00,29,12,2017,00,00*6F
2017-12-29 10:49:47 1514562587.400656: $GPGGA,154948,3946.9584,N,08404.9834,W,2,10,0.80,304.62,M,-33.324,M,,*72
2017-12-29 10:49:47 1514562587.400725: $GPRMC,154948,A,3946.9584,N,08404.9834,W,0.0000,0.000,291217,,*32
2017-12-29 10:49:47 1514562587.400786: $GPGSA,A,3,10,13,15,18,20,21,24,27,32,138,,,1.7,0.8,1.3*09
2017-12-29 10:49:48 1514562588.748625: $GPGSV,3,1,12,10,32,292,42,13,18,046,44,15,48,049,50,18,63,316,44*76
2017-12-29 10:49:48 1514562588.748825: $GPGSV,3,2,12,20,44,084,49,21,75,210,47,24,43,127,50,27,19,301,39*7C
2017-12-29 10:49:48 1514562588.748896: $GPGSV,3,3,12,32,12,231,25,29,01,186,08,08,01,331,00,138,38,213,44*4B
2017-12-29 10:49:48 1514562588.862190: $GPZDA,154949.00,29,12,2017,00,00*6E
2017-12-29 10:49:48 1514562588.862368: $GPGGA,154949,3946.9580,N,08404.9834,W,2,10,0.80,303.98,M,-33.324,M,,*75
2017-12-29 10:49:48 1514562588.862439: $GPRMC,154949,A,3946.9580,N,08404.9834,W,0.0000,0.000,291217,,*37
2017-12-29 10:49:48 1514562588.862504: $GPGSA,A,3,10,13,15,18,20,21,24,27,32,138,,,1.7,0.8,1.3*09
2017-12-29 10:49:49 1514562589.416681: $GPZDA,154950.00,29,12,2017,00,00*66
2017-12-29 10:49:49 1514562589.416822: $GPGGA,154950,3946.9580,N,08404.9834,W,2,10,0.80,303.98,M,-33.324,M,,*7D
2017-12-29 10:49:49 1514562589.416890: $GPRMC,154950,A,3946.9580,N,08404.9834,W,0.0000,0.000,291217,,*3F
2017-12-29 10:49:49 1514562589.416954: $GPGSA,A,3,10,13,15,18,20,21,24,27,32,138,,,1.7,0.8,1.3*09
2017-12-29 10:49:50 1514562590.408919: $GPZDA,154951.00,29,12,2017,00,00*67
2017-12-29 10:49:50 1514562590.409088: $GPGGA,154951,3946.9580,N,08404.9834,W,2,10,0.80,303.98,M,-33.324,M,,*7C
2017-12-29 10:49:50 1514562590.409159: $GPRMC,154951,A,3946.9580,N,08404.9834,W,0.0000,0.000,291217,,*3E
2017-12-29 10:49:50 1514562590.409222: $GPGSA,A,3,10,13,15,18,20,21,24,27,32,138,,,1.7,0.8,1.3*09
2017-12-29 10:49:51 1514562591.745208: $GPGSV,3,1,12,10,32,292,42,13,18,046,44,15,48,049,50,18,63,316,44*76
2017-12-29 10:49:51 1514562591.745386: $GPGSV,3,2,12,20,44,084,49,21,75,210,47,24,43,127,50,27,19,301,40*72
2017-12-29 10:49:51 1514562591.745460: $GPGSV,3,3,12,32,12,231,32,29,01,186,00,08,01,331,00,138,38,213,46*47
2017-12-29 10:49:51 1514562591.858618: $GPZDA,154952.00,29,12,2017,00,00*64
2017-12-29 10:49:51 1514562591.858800: $GPGGA,154952,3946.9580,N,08404.9834,W,2,10,0.80,303.98,M,-33.324,M,,*7F
2017-12-29 10:49:51 1514562591.858923: $GPRMC,154952,A,3946.9580,N,08404.9834,W,0.0000,0.000,291217,,*3D
2017-12-29 10:49:51 1514562591.858985: $GPGSA,A,3,10,13,15,18,20,21,24,27,32,138,,,1.7,0.8,1.3*09
2017-12-29 10:49:52 1514562592.410709: $GPZDA,154953.00,29,12,2017,00,00*65
2017-12-29 10:49:52 1514562592.410864: $GPGGA,154953,3946.9580,N,08404.9834,W,2,10,0.80,303.98,M,-33.324,M,,*7E
2017-12-29 10:49:52 1514562592.410931: $GPRMC,154953,A,3946.9580,N,08404.9834,W,0.0000,0.000,291217,,*3C
2017-12-29 10:49:52 1514562592.410991: $GPGSA,A,3,10,13,15,18,20,21,24,27,32,138,,,1.7,0.8,1.3*09
2017-12-29 10:49:53 1514562593.407875: $GPZDA,154954.00,29,12,2017,00,00*62
2017-12-29 10:49:53 1514562593.408048: $GPGGA,154954,3946.9580,N,08404.9834,W,2,10,0.80,303.98,M,-33.324,M,,*79
2017-12-29 10:49:53 1514562593.408115: $GPRMC,154954,A,3946.9580,N,08404.9834,W,0.0000,0.000,291217,,*3B
2017-12-29 10:49:53 1514562593.408177: $GPGSA,A,3,10,13,15,18,20,21,24,27,32,138,,,1.7,0.8,1.3*09
2017-12-29 10:49:54 1514562594.744827: $GPGSV,3,1,12,10,32,292,42,13,18,046,44,15,48,049,50,18,63,316,43*71
2017-12-29 10:49:54 1514562594.745016: $GPGSV,3,2,12,20,44,084,50,21,75,210,47,24,43,127,50,27,19,301,41*7B
2017-12-29 10:49:54 1514562594.745088: $GPGSV,3,3,12,32,12,231,29,29,01,186,00,08,01,331,00,138,38,213,45*4E
2017-12-29 10:49:54 1514562594.858213: $GPZDA,154955.00,29,12,2017,00,00*63
2017-12-29 10:49:54 1514562594.858383: $GPGGA,154955,3946.9580,N,08404.9834,W,2,10,0.80,303.98,M,-33.324,M,,*78
2017-12-29 10:49:54 1514562594.858455: $GPRMC,154955,A,3946.9580,N,08404.9834,W,0.0000,0.000,291217,,*3A
2017-12-29 10:49:54 1514562594.858521: $GPGSA,A,3,10,13,15,18,20,21,24,27,32,138,,,1.7,0.8,1.3*09
2017-12-29 10:49:55 1514562595.409422: $GPZDA,154956.00,29,12,2017,00,00*60
2017-12-29 10:49:55 1514562595.409593: $GPGGA,154956,3946.9580,N,08404.9834,W,2,10,0.80,303.98,M,-33.324,M,,*7B
2017-12-29 10:49:55 1514562595.409663: $GPRMC,154956,A,3946.9580,N,08404.9834,W,0.0000,0.000,291217,,*39
2017-12-29 10:49:55 1514562595.409726: $GPGSA,A,3,10,13,15,18,20,21,24,27,32,138,,,1.7,0.8,1.3*09
2017-12-29 10:49:56 1514562596.409777: $GPZDA,154957.00,29,12,2017,00,00*61
2017-12-29 10:49:56 1514562596.409941: $GPGGA,154957,3946.9580,N,08404.9834,W,2,10,0.80,303.98,M,-33.324,M,,*7A
2017-12-29 10:49:56 1514562596.410012: $GPRMC,154957,A,3946.9580,N,08404.9834,W,0.0000,0.000,291217,,*38
2017-12-29 10:49:56 1514562596.410075: $GPGSA,A,3,10,13,15,18,20,21,24,27,32,138,,,1.7,0.8,1.3*09
2017-12-29 10:49:57 1514562597.741470: $GPGSV,3,1,12,10,32,292,42,13,18,046,44,15,48,049,50,18,63,316,43*71
2017-12-29 10:49:57 1514562597.741650: $GPGSV,3,2,12,20,44,084,50,21,75,210,47,24,43,127,50,27,19,301,41*7B
2017-12-29 10:49:57 1514562597.741718: $GPGSV,3,3,12,32,12,231,29,29,01,186,02,08,01,331,00,138,38,213,45*4C
2017-12-29 10:49:57 1514562597.855140: $GPZDA,154958.00,29,12,2017,00,00*6E
2017-12-29 10:49:57 1514562597.855312: $GPGGA,154958,3946.9584,N,08404.9834,W,2,10,0.80,304.62,M,-33.324,M,,*73
2017-12-29 10:49:57 1514562597.855383: $GPRMC,154958,A,3946.9584,N,08404.9834,W,0.0000,0.000,291217,,*33
2017-12-29 10:49:57 1514562597.855448: $GPGSA,A,3,10,13,15,18,20,21,24,27,32,138,,,1.7,0.8,1.3*09
2017-12-29 10:49:58 1514562598.408523: $GPZDA,154959.00,29,12,2017,00,00*6F
2017-12-29 10:49:58 1514562598.408685: $GPGGA,154959,3946.9584,N,08404.9834,W,2,10,0.80,304.62,M,-33.324,M,,*72
2017-12-29 10:49:58 1514562598.408756: $GPRMC,154959,A,3946.9584,N,08404.9834,W,0.0000,0.000,291217,,*32
2017-12-29 10:49:58 1514562598.408819: $GPGSA,A,3,10,13,15,18,20,21,24,27,32,138,,,1.7,0.8,1.3*09
2017-12-29 10:49:59 1514562599.408129: $GPZDA,155000.00,29,12,2017,00,00*6B
2017-12-29 10:49:59 1514562599.408302: $GPGGA,155000,3946.9584,N,08404.9834,W,2,10,0.80,304.62,M,-33.324,M,,*76
2017-12-29 10:49:59 1514562599.408373: $GPRMC,155000,A,3946.9584,N,08404.9834,W,0.0000,0.000,291217,,*36
2017-12-29 10:49:59 1514562599.408438: $GPGSA,A,3,10,13,15,18,20,21,24,27,32,138,,,1.7,0.8,1.3*09
