2017-12-31 18:39:45 1514763585.278031: {"class":"VERSION","release":"3.16","rev":"3.16-4","proto_major":3,"proto_minor":11}
2017-12-31 18:39:45 1514763585.278640: {"class":"DEVICES","devices":[{"class":"DEVICE","path":"/dev/ttyUSB0","driver":"SiRF","activated":"2017-12-31T23:39:45.240Z","flags":1,"native":1,"bps":4800,"parity":"N","stopbits":1,"cycle":1.00}]}
2017-12-31 18:39:45 1514763585.278749: {"class":"WATCH","enable":true,"json":false,"nmea":true,"raw":0,"scaled":false,"timing":false,"split24":false,"pps":false}
2017-12-31 18:39:45 1514763585.688453: $GPGSV,3,1,12,22,11,205,28,23,65,291,38,09,32,310,38,03,21,223,35*72
2017-12-31 18:39:45 1514763585.688628: $GPGSV,3,2,12,16,82,039,37,08,12,177,29,14,03,139,17,31,19,085,34*72
2017-12-31 18:39:45 1514763585.688693: $GPGSV,3,3,12,27,35,145,40,07,07,282,38,26,48,046,42,135,22,240,41*46
2017-12-31 18:39:45 1514763585.801975: $GPZDA,233946.00,31,12,2017,00,00*6A
2017-12-31 18:39:45 1514763585.802114: $GPGGA,233946,3946.9578,N,08404.9844,W,2,12,0.80,307.47,M,-33.324,M,,*7C
2017-12-31 18:39:45 1514763585.802178: $GPRMC,233946,A,3946.9578,N,08404.9844,W,0.0000,0.000,311217,,*33
2017-12-31 18:39:45 1514763585.802239: $GPGSA,A,3,22,23,9,3,16,8,14,31,27,7,26,135,1.7,0.8,1.3*0C
2017-12-31 18:39:46 1514763586.352780: $GPZDA,233947.00,31,12,2017,00,00*6B
2017-12-31 18:39:46 1514763586.352949: $GPGGA,233947,3946.9581,N,08404.9843,W,2,12,0.80,306.71,M,-33.324,M,,*78
2017-12-31 18:39:46 1514763586.353014: $GPRMC,233947,A,3946.9581,N,08404.9843,W,0.0000,0.000,311217,,*33
2017-12-31 18:39:46 1514763586.353075: $GPGSA,A,3,22,23,9,3,16,8,14,31,27,7,26,135,1.7,0.8,1.3*0C
2017-12-31 18:39:47 1514763587.352356: $GPZDA,233948.00,31,12,2017,00,00*64
2017-12-31 18:39:47 1514763587.352530: $GPGGA,233948,3946.9581,N,08404.9843,W,2,12,0.80,306.71,M,-33.324,M,,*77
2017-12-31 18:39:47 1514763587.352596: $GPRMC,233948,A,3946.9581,N,08404.9843,W,0.0000,0.000,311217,,*3C
2017-12-31 18:39:47 1514763587.352657: $GPGSA,A,3,22,23,9,3,16,8,14,31,27,7,26,135,1.7,0.8,1.3*0C
2017-12-31 18:39:48 1514763588.681758: $GPGSV,3,1,12,22,11,205,29,23,65,291,40,09,32,310,41,03,21,223,36*71
2017-12-31 18:39:48 1514763588.854949: $GPGSV,3,2,12,16,82,039,40,08,12,177,29,14,03,139,18,31,19,085,37*7E
2017-12-31 18:39:48 1514763588.855101: $GPGSV,3,3,12,27,35,145,40,07,07,282,41,26,48,046,44,135,22,240,43*4C
2017-12-31 18:39:48 1514763588.855201: $GPZDA,233949.00,31,12,2017,00,00*65
2017-12-31 18:39:48 1514763588.855259: $GPGGA,233949,3946.9581,N,08404.9843,W,2,12,0.80,306.71,M,-33.324,M,,*76
2017-12-31 18:39:48 1514763588.855321: $GPRMC,233949,A,3946.9581,N,08404.9843,W,0.0000,0.000,311217,,*3D
2017-12-31 18:39:48 1514763588.855380: $GPGSA,A,3,22,23,9,3,16,8,14,31,27,7,26,135,1.7,0.8,1.3*0C
2017-12-31 18:39:49 1514763589.388648: $GPZDA,233950.00,31,12,2017,00,00*6D
2017-12-31 18:39:49 1514763589.388808: $GPGGA,233950,3946.9581,N,08404.9843,W,2,12,0.80,306.71,M,-33.324,M,,*7E
2017-12-31 18:39:49 1514763589.388873: $GPRMC,233950,A,3946.9581,N,08404.9843,W,0.0000,0.000,311217,,*35
2017-12-31 18:39:49 1514763589.388934: $GPGSA,A,3,22,23,9,3,16,8,14,31,27,7,26,135,1.7,0.8,1.3*0C
2017-12-31 18:39:50 1514763590.353980: $GPZDA,233951.00,31,12,2017,00,00*6C
2017-12-31 18:39:50 1514763590.354151: $GPGGA,233951,3946.9581,N,08404.9843,W,2,12,0.80,306.71,M,-33.324,M,,*7F
2017-12-31 18:39:50 1514763590.354218: $GPRMC,233951,A,3946.9581,N,08404.9843,W,0.0000,0.000,311217,,*34
2017-12-31 18:39:50 1514763590.354279: $GPGSA,A,3,22,23,9,3,16,8,14,31,27,7,26,135,1.7,0.8,1.3*0C
2017-12-31 18:39:51 1514763591.688379: $GPGSV,3,1,12,22,11,205,29,23,65,291,40,09,32,310,41,03,21,223,36*71
2017-12-31 18:39:51 1514763591.688542: $GPGSV,3,2,12,16,82,039,41,08,12,177,29,14,03,139,18,31,19,085,38*70
2017-12-31 18:39:51 1514763591.688608: $GPGSV,3,3,12,27,35,145,40,07,07,282,41,26,48,046,44,135,22,240,44*4B
2017-12-31 18:39:51 1514763591.801705: $GPZDA,233952.00,31,12,2017,00,00*6F
2017-12-31 18:39:51 1514763591.801842: $GPGGA,233952,3946.9581,N,08404.9843,W,2,12,0.80,306.71,M,-33.324,M,,*7C
2017-12-31 18:39:51 1514763591.801908: $GPRMC,233952,A,3946.9581,N,08404.9843,W,0.0000,0.000,311217,,*37
2017-12-31 18:39:51 1514763591.802023: $GPGSA,A,3,22,23,9,3,16,8,14,31,27,7,26,135,1.7,0.8,1.3*0C
2017-12-31 18:39:52 1514763592.352927: $GPZDA,233953.00,31,12,2017,00,00*6E
2017-12-31 18:39:52 1514763592.353094: $GPGGA,233953,3946.9585,N,08404.9843,W,2,12,0.80,307.35,M,-33.324,M,,*78
2017-12-31 18:39:52 1514763592.353159: $GPRMC,233953,A,3946.9585,N,08404.9843,W,0.0000,0.000,311217,,*32
2017-12-31 18:39:52 1514763592.353220: $GPGSA,A,3,22,23,9,3,16,8,14,31,27,7,26,135,1.7,0.8,1.3*0C
2017-12-31 18:39:53 1514763593.352682: $GPZDA,233954.00,31,12,2017,00,00*69
2017-12-31 18:39:53 1514763593.352862: $GPGGA,233954,3946.9585,N,08404.9843,W,2,12,0.80,307.35,M,-33.324,M,,*7F
2017-12-31 18:39:53 1514763593.352929: $GPRMC,233954,A,3946.9585,N,08404.9843,W,0.0000,0.000,311217,,*35
2017-12-31 18:39:53 1514763593.352990: $GPGSA,A,3,22,23,9,3,16,8,14,31,27,7,26,135,1.7,0.8,1.3*0C
2017-12-31 18:39:54 1514763594.689226: $GPGSV,3,1,12,22,11,205,29,23,65,291,39,09,32,310,41,03,21,223,37*7E
2017-12-31 18:39:54 1514763594.689382: $GPGSV,3,2,12,16,82,039,42,08,12,177,29,14,03,139,17,31,19,085,39*7D
2017-12-31 18:39:54 1514763594.689447: $GPGSV,3,3,12,27,35,145,41,07,07,282,42,26,48,046,44,135,22,240,44*49
2017-12-31 18:39:54 1514763594.802934: $GPZDA,233955.00,31,12,2017,00,00*68
2017-12-31 18:39:54 1514763594.803078: $GPGGA,233955,3946.9585,N,08404.9843,W,2,12,0.80,307.35,M,-33.324,M,,*7E
2017-12-31 18:39:54 1514763594.803159: $GPRMC,233955,A,3946.9585,N,08404.9843,W,0.0000,0.000,311217,,*34
2017-12-31 18:39:54 1514763594.803221: $GPGSA,A,3,22,23,9,3,16,8,14,31,27,7,26,135,1.7,0.8,1.3*0C
