2017-12-29 11:45:06 1514565906.418140: {"class":"VERSION","release":"3.16","rev":"3.16-4","proto_major":3,"proto_minor":11}
2017-12-29 11:45:06 1514565906.418571: {"class":"DEVICES","devices":[{"class":"DEVICE","path":"/dev/ttyUSB0","driver":"SiRF","subtype":"9\u0006GSD4e_4.1.2-P1_RPATCH.05-F-GPS-4R-1510281 11/03/2015 307","activated":"2017-12-29T16:45:06.379Z","flags":1,"native":1,"bps":4800,"parity":"N","stopbits":1,"cycle":1.00}]}
2017-12-29 11:45:06 1514565906.418709: {"class":"WATCH","enable":true,"json":false,"nmea":true,"raw":0,"scaled":false,"timing":false,"split24":false,"pps":false}
2017-12-29 11:45:07 1514565907.700766: $GPGSV,3,1,11,10,52,312,47,14,13,240,29,15,26,057,46,18,77,021,45*7F
2017-12-29 11:45:07 1514565907.700967: $GPGSV,3,2,11,20,25,105,48,21,50,183,46,24,53,087,51,27,16,277,38*7B
2017-12-29 11:45:07 1514565907.701079: $GPGSV,3,3,11,32,32,247,36,08,08,312,36,138,38,213,45*78
2017-12-29 11:45:07 1514565907.814255: $GPZDA,164508.00,29,12,2017,00,00*64
2017-12-29 11:45:07 1514565907.814420: $GPGGA,164508,3946.9599,N,08404.9864,W,2,11,0.80,309.03,M,-33.324,M,,*7B
2017-12-29 11:45:07 1514565907.814486: $GPRMC,164508,A,3946.9599,N,08404.9864,W,0.0000,0.000,291217,,*30
2017-12-29 11:45:07 1514565907.814547: $GPGSA,A,3,10,14,15,18,20,21,24,27,32,8,138,,1.7,0.8,1.3*36
2017-12-29 11:45:08 1514565908.439520: $GPZDA,164509.00,29,12,2017,00,00*65
2017-12-29 11:45:08 1514565908.439711: $GPGGA,164509,3946.9599,N,08404.9857,W,2,11,0.80,309.11,M,-33.324,M,,*79
2017-12-29 11:45:08 1514565908.439779: $GPRMC,164509,A,3946.9599,N,08404.9857,W,0.0000,0.000,291217,,*31
2017-12-29 11:45:08 1514565908.439858: $GPGSA,A,3,10,14,15,18,20,21,24,27,32,8,138,,1.7,0.8,1.3*36
2017-12-29 11:45:09 1514565909.377964: $GPZDA,164510.00,29,12,2017,00,00*6D
2017-12-29 11:45:09 1514565909.378134: $GPGGA,164510,3946.9599,N,08404.9857,W,2,11,0.80,309.11,M,-33.324,M,,*71
2017-12-29 11:45:09 1514565909.378202: $GPRMC,164510,A,3946.9599,N,08404.9857,W,0.0000,0.000,291217,,*39
2017-12-29 11:45:09 1514565909.378263: $GPGSA,A,3,10,14,15,18,20,21,24,27,32,8,138,,1.7,0.8,1.3*36
2017-12-29 11:45:10 1514565910.716211: $GPGSV,3,1,11,10,52,312,46,14,13,240,30,15,26,057,46,18,77,021,44*77
2017-12-29 11:45:10 1514565910.716396: $GPGSV,3,2,11,20,25,105,48,21,50,183,46,24,53,087,51,27,16,277,38*7B
2017-12-29 11:45:10 1514565910.716463: $GPGSV,3,3,11,32,32,247,37,08,08,312,36,138,38,213,46*7A
2017-12-29 11:45:10 1514565910.829496: $GPZDA,164511.00,29,12,2017,00,00*6C
2017-12-29 11:45:10 1514565910.829656: $GPGGA,164511,3946.9599,N,08404.9857,W,2,11,0.80,309.11,M,-33.324,M,,*70
2017-12-29 11:45:10 1514565910.829723: $GPRMC,164511,A,3946.9599,N,08404.9857,W,0.0000,0.000,291217,,*38
2017-12-29 11:45:10 1514565910.829785: $GPGSA,A,3,10,14,15,18,20,21,24,27,32,8,138,,1.7,0.8,1.3*36
2017-12-29 11:45:11 1514565911.364152: $GPZDA,164512.00,29,12,2017,00,00*6F
2017-12-29 11:45:11 1514565911.364319: $GPGGA,164512,3946.9599,N,08404.9857,W,2,11,0.80,309.11,M,-33.324,M,,*73
2017-12-29 11:45:11 1514565911.364385: $GPRMC,164512,A,3946.9599,N,08404.9857,W,0.0000,0.000,291217,,*3B
2017-12-29 11:45:11 1514565911.364446: $GPGSA,A,3,10,14,15,18,20,21,24,27,32,8,138,,1.7,0.8,1.3*36
2017-12-29 11:45:12 1514565912.380398: $GPZDA,164513.00,29,12,2017,00,00*6E
2017-12-29 11:45:12 1514565912.380566: $GPGGA,164513,3946.9599,N,08404.9857,W,2,11,0.80,309.11,M,-33.324,M,,*72
2017-12-29 11:45:12 1514565912.380633: $GPRMC,164513,A,3946.9599,N,08404.9857,W,0.0000,0.000,291217,,*3A
2017-12-29 11:45:12 1514565912.380694: $GPGSA,A,3,10,14,15,18,20,21,24,27,32,8,138,,1.7,0.8,1.3*36
2017-12-29 11:45:13 1514565913.701502: $GPGSV,3,1,11,10,52,312,46,14,13,240,30,15,26,057,46,18,77,021,45*76
2017-12-29 11:45:13 1514565913.701684: $GPGSV,3,2,11,20,25,105,48,21,50,183,46,24,53,087,51,27,16,277,38*7B
2017-12-29 11:45:13 1514565913.701749: $GPGSV,3,3,11,32,32,247,38,08,08,312,36,138,38,213,45*76
2017-12-29 11:45:13 1514565913.814839: $GPZDA,164514.00,29,12,2017,00,00*69
2017-12-29 11:45:13 1514565913.814986: $GPGGA,164514,3946.9599,N,08404.9857,W,2,11,0.80,309.11,M,-33.324,M,,*75
2017-12-29 11:45:13 1514565913.815104: $GPRMC,164514,A,3946.9599,N,08404.9857,W,0.0000,0.000,291217,,*3D
2017-12-29 11:45:13 1514565913.815167: $GPGSA,A,3,10,14,15,18,20,21,24,27,32,8,138,,1.7,0.8,1.3*36
2017-12-29 11:45:14 1514565914.380750: $GPZDA,164515.00,29,12,2017,00,00*68
2017-12-29 11:45:14 1514565914.380921: $GPGGA,164515,3946.9599,N,08404.9857,W,2,11,0.80,309.11,M,-33.324,M,,*74
2017-12-29 11:45:14 1514565914.380987: $GPRMC,164515,A,3946.9599,N,08404.9857,W,0.0000,0.000,291217,,*3C
2017-12-29 11:45:14 1514565914.381123: $GPGSA,A,3,10,14,15,18,20,21,24,27,32,8,138,,1.7,0.8,1.3*36
2017-12-29 11:45:15 1514565915.379054: $GPZDA,164516.00,29,12,2017,00,00*6B
2017-12-29 11:45:15 1514565915.379225: $GPGGA,164516,3946.9595,N,08404.9858,W,2,11,0.80,309.87,M,-33.324,M,,*7B
2017-12-29 11:45:15 1514565915.379293: $GPRMC,164516,A,3946.9595,N,08404.9858,W,0.0000,0.000,291217,,*3C
2017-12-29 11:45:15 1514565915.379354: $GPGSA,A,3,10,14,15,18,20,21,24,27,32,8,138,,1.7,0.8,1.3*36
2017-12-29 11:45:16 1514565916.699891: $GPGSV,3,1,11,10,52,312,46,14,13,240,30,15,26,057,46,18,77,021,45*76
2017-12-29 11:45:16 1514565916.700069: $GPGSV,3,2,11,20,25,105,48,21,50,183,47,24,53,087,51,27,16,277,37*75
2017-12-29 11:45:16 1514565916.700135: $GPGSV,3,3,11,32,32,247,38,08,08,312,36,138,38,213,45*76
2017-12-29 11:45:16 1514565916.813275: $GPZDA,164517.00,29,12,2017,00,00*6A
2017-12-29 11:45:16 1514565916.813426: $GPGGA,164517,3946.9595,N,08404.9858,W,2,11,0.80,309.87,M,-33.324,M,,*7A
2017-12-29 11:45:16 1514565916.813492: $GPRMC,164517,A,3946.9595,N,08404.9858,W,0.0000,0.000,291217,,*3D
2017-12-29 11:45:16 1514565916.813554: $GPGSA,A,3,10,14,15,18,20,21,24,27,32,8,138,,1.7,0.8,1.3*36
2017-12-29 11:45:17 1514565917.377805: $GPZDA,164518.00,29,12,2017,00,00*65
2017-12-29 11:45:17 1514565917.378019: $GPGGA,164518,3946.9595,N,08404.9858,W,2,11,0.80,309.87,M,-33.324,M,,*75
2017-12-29 11:45:17 1514565917.378105: $GPRMC,164518,A,3946.9595,N,08404.9858,W,0.0000,0.000,291217,,*32
2017-12-29 11:45:17 1514565917.378169: $GPGSA,A,3,10,14,15,18,20,21,24,27,32,8,138,,1.7,0.8,1.3*36
2017-12-29 11:45:18 1514565918.364508: $GPZDA,164519.00,29,12,2017,00,00*64
2017-12-29 11:45:18 1514565918.364705: $GPGGA,164519,3946.9595,N,08404.9858,W,2,11,0.80,309.87,M,-33.324,M,,*74
2017-12-29 11:45:18 1514565918.364801: $GPRMC,164519,A,3946.9595,N,08404.9858,W,0.0000,0.000,291217,,*33
2017-12-29 11:45:18 1514565918.364863: $GPGSA,A,3,10,14,15,18,20,21,24,27,32,8,138,,1.7,0.8,1.3*36
2017-12-29 11:45:20 1514565920.206545: $GPGSV,3,1,11,10,52,312,45,14,13,240,31,15,26,057,47,18,77,022,45*76
2017-12-29 11:45:20 1514565920.206753: $GPGSV,3,2,11,20,25,105,48,21,49,183,47,24,53,087,51,27,16,277,31*7B
2017-12-29 11:45:20 1514565920.206820: $GPGSV,3,3,11,32,32,247,37,08,08,312,36,138,38,213,44*78
2017-12-29 11:45:20 1514565920.320018: $GPZDA,164520.00,29,12,2017,00,00*6E
2017-12-29 11:45:20 1514565920.320185: $GPGGA,164520,3946.9595,N,08404.9858,W,2,11,0.80,309.87,M,-33.324,M,,*7E
2017-12-29 11:45:20 1514565920.320251: $GPRMC,164520,A,3946.9595,N,08404.9858,W,0.0000,0.000,291217,,*39
2017-12-29 11:45:20 1514565920.320312: $GPGSA,A,3,10,14,15,18,20,21,24,27,32,8,138,,1.7,0.8,1.3*36
2017-12-29 11:45:20 1514565920.770841: $GPZDA,164521.00,29,12,2017,00,00*6F
2017-12-29 11:45:20 1514565920.771009: $GPGGA,164521,3946.9595,N,08404.9858,W,2,11,0.80,309.87,M,-33.324,M,,*7F
2017-12-29 11:45:20 1514565920.771157: $GPRMC,164521,A,3946.9595,N,08404.9858,W,0.0000,0.000,291217,,*38
2017-12-29 11:45:20 1514565920.771221: $GPGSA,A,3,10,14,15,18,20,21,24,27,32,8,138,,1.7,0.8,1.3*36
2017-12-29 11:45:21 1514565921.380436: $GPZDA,164522.00,29,12,2017,00,00*6C
2017-12-29 11:45:21 1514565921.380626: $GPGGA,164522,3946.9595,N,08404.9858,W,2,11,0.80,309.87,M,-33.324,M,,*7C
2017-12-29 11:45:21 1514565921.380720: $GPRMC,164522,A,3946.9595,N,08404.9858,W,0.0000,0.000,291217,,*3B
2017-12-29 11:45:21 1514565921.380783: $GPGSA,A,3,10,14,15,18,20,21,24,27,32,8,138,,1.7,0.8,1.3*36
