2017-12-01 13:46:35 1512153995.136974: {"class":"VERSION","release":"3.16","rev":"3.16-4","proto_major":3,"proto_minor":11}
2017-12-01 13:46:35 1512153995.137376: {"class":"DEVICES","devices":[{"class":"DEVICE","path":"/dev/ttyUSB0","driver":"SiRF","subtype":"9\u0006GSD4e_4.1.2-P1_RPATCH.05-F-GPS-4R-1510281 11/03/2015 307","activated":"2017-12-01T18:46:34.549Z","flags":1,"native":1,"bps":4800,"parity":"N","stopbits":1,"cycle":1.00}]}
2017-12-01 13:46:35 1512153995.137499: {"class":"WATCH","enable":true,"json":false,"nmea":true,"raw":0,"scaled":false,"timing":false,"split24":false,"pps":false}
2017-12-01 13:46:35 1512153995.743024: $GPGSV,3,1,11,08,08,309,29,10,54,313,49,14,16,241,40,15,24,058,44*78
2017-12-01 13:46:35 1512153995.743208: $GPGSV,3,2,11,18,77,033,43,20,21,108,46,21,46,181,43,24,53,082,47*7B
2017-12-01 13:46:35 1512153995.743274: $GPGSV,3,3,11,27,14,274,33,32,33,250,42,138,38,213,48*75
2017-12-01 13:46:35 1512153995.856839: $GPZDA,184636.00,01,12,2017,00,00*6E
2017-12-01 13:46:35 1512153995.857027: $GPGGA,184636,3946.9580,N,08404.9844,W,2,11,1.20,296.03,M,-33.324,M,,*7D
2017-12-01 13:46:35 1512153995.857094: $GPRMC,184636,A,3946.9580,N,08404.9844,W,0.0000,0.000,011217,,*30
2017-12-01 13:46:35 1512153995.857154: $GPGSA,A,3,8,10,14,15,18,20,21,24,27,32,138,,2.0,1.2,1.5*3F
2017-12-01 13:46:36 1512153996.481922: $GPZDA,184637.00,01,12,2017,00,00*6F
2017-12-01 13:46:36 1512153996.482109: $GPGGA,184637,3946.9580,N,08404.9844,W,2,11,1.20,296.03,M,-33.324,M,,*7C
2017-12-01 13:46:36 1512153996.482179: $GPRMC,184637,A,3946.9580,N,08404.9844,W,0.0000,0.000,011217,,*31
2017-12-01 13:46:36 1512153996.482241: $GPGSA,A,3,8,10,14,15,18,20,21,24,27,32,138,,2.0,1.2,1.5*3F
2017-12-01 13:46:37 1512153997.410269: $GPZDA,184638.00,01,12,2017,00,00*60
2017-12-01 13:46:37 1512153997.410447: $GPGGA,184638,3946.9580,N,08404.9844,W,2,11,1.20,296.03,M,-33.324,M,,*73
2017-12-01 13:46:37 1512153997.410517: $GPRMC,184638,A,3946.9580,N,08404.9844,W,0.0000,0.000,011217,,*3E
2017-12-01 13:46:37 1512153997.410578: $GPGSA,A,3,8,10,14,15,18,20,21,24,27,32,138,,2.0,1.2,1.5*3F
2017-12-01 13:46:38 1512153998.745873: $GPGSV,3,1,11,08,08,309,28,10,54,313,49,14,16,241,40,15,24,058,45*78
2017-12-01 13:46:38 1512153998.746073: $GPGSV,3,2,11,18,77,033,43,20,21,108,46,21,46,181,44,24,53,082,47*7C
2017-12-01 13:46:38 1512153998.746142: $GPGSV,3,3,11,27,14,274,33,32,33,250,41,138,38,213,46*78
2017-12-01 13:46:38 1512153998.859517: $GPZDA,184639.00,01,12,2017,00,00*61
2017-12-01 13:46:38 1512153998.859704: $GPGGA,184639,3946.9580,N,08404.9844,W,2,11,1.20,296.03,M,-33.324,M,,*72
2017-12-01 13:46:38 1512153998.859773: $GPRMC,184639,A,3946.9580,N,08404.9844,W,0.0000,0.000,011217,,*3F
2017-12-01 13:46:38 1512153998.859835: $GPGSA,A,3,8,10,14,15,18,20,21,24,27,32,138,,2.0,1.2,1.5*3F
2017-12-01 13:46:39 1512153999.409238: $GPZDA,184640.00,01,12,2017,00,00*6F
2017-12-01 13:46:39 1512153999.409407: $GPGGA,184640,3946.9580,N,08404.9844,W,2,11,0.80,296.03,M,-33.324,M,,*77
2017-12-01 13:46:39 1512153999.409475: $GPRMC,184640,A,3946.9580,N,08404.9844,W,0.0000,0.000,011217,,*31
2017-12-01 13:46:39 1512153999.409535: $GPGSA,A,3,8,10,14,15,18,20,21,24,27,32,138,,2.0,0.8,1.5*34
2017-12-01 13:46:40 1512154000.409992: $GPZDA,184641.00,01,12,2017,00,00*6E
2017-12-01 13:46:40 1512154000.410164: $GPGGA,184641,3946.9580,N,08404.9844,W,2,11,0.80,296.03,M,-33.324,M,,*76
2017-12-01 13:46:40 1512154000.410230: $GPRMC,184641,A,3946.9580,N,08404.9844,W,0.0000,0.000,011217,,*30
2017-12-01 13:46:40 1512154000.410292: $GPGSA,A,3,8,10,14,15,18,20,21,24,27,32,138,,2.0,0.8,1.5*34
2017-12-01 13:46:40 1512154000.410350: $GPGBS,184641,2.67,M,3.86,M,8.82,M*3C
2017-12-01 13:46:41 1512154001.746113: $GPGSV,3,1,11,08,08,309,00,10,54,313,49,14,16,241,40,15,24,058,45*72
2017-12-01 13:46:41 1512154001.746304: $GPGSV,3,2,11,18,77,033,43,20,21,108,46,21,46,181,43,24,53,082,48*74
2017-12-01 13:46:41 1512154001.746408: $GPGSV,3,3,11,27,14,274,33,32,33,250,42,138,38,213,46*7B
2017-12-01 13:46:41 1512154001.859492: $GPZDA,184642.00,01,12,2017,00,00*6D
2017-12-01 13:46:41 1512154001.859658: $GPGGA,184642,3946.9580,N,08404.9844,W,2,10,1.00,296.03,M,-33.324,M,,*7D
2017-12-01 13:46:41 1512154001.859775: $GPRMC,184642,A,3946.9580,N,08404.9844,W,0.0000,0.000,011217,,*33
2017-12-01 13:46:41 1512154001.859837: $GPGSA,A,3,10,14,15,18,20,21,24,27,32,138,,,2.0,1.0,1.5*05
2017-12-01 13:46:42 1512154002.411685: $GPZDA,184643.00,01,12,2017,00,00*6C
2017-12-01 13:46:42 1512154002.411874: $GPGGA,184643,3946.9580,N,08404.9844,W,2,10,1.00,296.03,M,-33.324,M,,*7C
2017-12-01 13:46:42 1512154002.411943: $GPRMC,184643,A,3946.9580,N,08404.9844,W,0.0000,0.000,011217,,*32
2017-12-01 13:46:42 1512154002.412005: $GPGSA,A,3,10,14,15,18,20,21,24,27,32,138,,,2.0,1.0,1.5*05
2017-12-01 13:46:43 1512154003.410017: $GPZDA,184644.00,01,12,2017,00,00*6B
2017-12-01 13:46:43 1512154003.410195: $GPGGA,184644,3946.9580,N,08404.9844,W,2,10,1.00,296.03,M,-33.324,M,,*7B
2017-12-01 13:46:43 1512154003.410262: $GPRMC,184644,A,3946.9580,N,08404.9844,W,0.0000,0.000,011217,,*35
2017-12-01 13:46:43 1512154003.410323: $GPGSA,A,3,10,14,15,18,20,21,24,27,32,138,,,2.0,1.0,1.5*05
2017-12-01 13:46:44 1512154004.743253: $GPGSV,3,1,11,08,08,309,19,10,54,313,49,14,16,241,40,15,24,058,45*7A
2017-12-01 13:46:44 1512154004.743440: $GPGSV,3,2,11,18,77,033,43,20,21,108,46,21,46,181,43,24,53,082,48*74
2017-12-01 13:46:44 1512154004.743507: $GPGSV,3,3,11,27,14,274,33,32,33,250,42,138,38,213,46*7B
2017-12-01 13:46:44 1512154004.856643: $GPZDA,184645.00,01,12,2017,00,00*6A
2017-12-01 13:46:44 1512154004.856818: $GPGGA,184645,3946.9580,N,08404.9844,W,2,11,0.80,296.03,M,-33.324,M,,*72
2017-12-01 13:46:44 1512154004.856885: $GPRMC,184645,A,3946.9580,N,08404.9844,W,0.0000,0.000,011217,,*34
2017-12-01 13:46:44 1512154004.856947: $GPGSA,A,3,8,10,14,15,18,20,21,24,27,32,138,,2.0,0.8,1.5*34
