2017-12-29 11:31:50 1514565110.467596: {"class":"VERSION","release":"3.16","rev":"3.16-4","proto_major":3,"proto_minor":11}
2017-12-29 11:31:50 1514565110.467939: {"class":"DEVICES","devices":[{"class":"DEVICE","path":"/dev/ttyUSB0","driver":"SiRF","subtype":"9\u0006GSD4e_4.1.2-P1_RPATCH.05-F-GPS-4R-1510281 11/03/2015 307","activated":"2017-12-29T16:31:50.414Z","flags":1,"native":1,"bps":4800,"parity":"N","stopbits":1,"cycle":1.00}]}
2017-12-29 11:31:50 1514565110.468051: {"class":"WATCH","enable":true,"json":false,"nmea":true,"raw":0,"scaled":false,"timing":false,"split24":false,"pps":false}
2017-12-29 11:31:51 1514565111.374999: $GPZDA,163152.00,29,12,2017,00,00*68
2017-12-29 11:31:51 1514565111.375170: $GPGGA,163152,3946.9600,N,08404.9885,W,2,12,1.00,308.79,M,-33.324,M,,*7D
2017-12-29 11:31:51 1514565111.375234: $GPRMC,163152,A,3946.9600,N,08404.9885,W,0.0000,0.000,291217,,*30
2017-12-29 11:31:51 1514565111.375294: $GPGSA,A,3,8,10,15,18,20,21,24,27,32,13,14,138,1.7,1.0,1.3*3D
2017-12-29 11:31:52 1514565112.713010: $GPGSV,3,1,12,08,07,318,26,10,47,306,47,15,31,054,49,18,75,357,45*7C
2017-12-29 11:31:52 1514565112.713187: $GPGSV,3,2,12,20,30,100,50,21,56,186,46,24,53,099,50,27,18,283,36*76
2017-12-29 11:31:52 1514565112.713254: $GPGSV,3,3,12,32,27,243,39,13,02,051,14,14,08,235,32,138,38,213,45*48
2017-12-29 11:31:52 1514565112.826664: $GPZDA,163153.00,29,12,2017,00,00*69
2017-12-29 11:31:52 1514565112.826841: $GPGGA,163153,3946.9600,N,08404.9885,W,2,12,1.00,308.79,M,-33.324,M,,*7C
2017-12-29 11:31:52 1514565112.826913: $GPRMC,163153,A,3946.9600,N,08404.9885,W,0.0000,0.000,291217,,*31
2017-12-29 11:31:52 1514565112.826990: $GPGSA,A,3,8,10,15,18,20,21,24,27,32,13,14,138,1.7,1.0,1.3*3D
2017-12-29 11:31:53 1514565113.377553: $GPZDA,163154.00,29,12,2017,00,00*6E
2017-12-29 11:31:53 1514565113.377721: $GPGGA,163154,3946.9600,N,08404.9885,W,2,12,1.00,308.79,M,-33.324,M,,*7B
2017-12-29 11:31:53 1514565113.377805: $GPRMC,163154,A,3946.9600,N,08404.9885,W,0.0000,0.000,291217,,*36
2017-12-29 11:31:53 1514565113.377891: $GPGSA,A,3,8,10,15,18,20,21,24,27,32,13,14,138,1.7,1.0,1.3*3D
2017-12-29 11:31:54 1514565114.376888: $GPZDA,163155.00,29,12,2017,00,00*6F
2017-12-29 11:31:54 1514565114.377062: $GPGGA,163155,3946.9600,N,08404.9885,W,2,12,1.00,308.79,M,-33.324,M,,*7A
2017-12-29 11:31:54 1514565114.377129: $GPRMC,163155,A,3946.9600,N,08404.9885,W,0.0000,0.000,291217,,*37
2017-12-29 11:31:54 1514565114.377190: $GPGSA,A,3,8,10,15,18,20,21,24,27,32,13,14,138,1.7,1.0,1.3*3D
2017-12-29 11:31:55 1514565115.713771: $GPGSV,3,1,12,08,07,318,29,10,47,306,47,15,31,054,49,18,75,357,45*73
2017-12-29 11:31:55 1514565115.714192: $GPGSV,3,2,12,20,30,100,50,21,56,186,46,24,53,099,50,27,18,283,37*77
2017-12-29 11:31:55 1514565115.717000: $GPGSV,3,3,12,32,27,243,39,13,02,051,14,14,08,235,32,138,38,213,45*48
2017-12-29 11:31:55 1514565115.827213: $GPZDA,163156.00,29,12,2017,00,00*6C
2017-12-29 11:31:55 1514565115.827389: $GPGGA,163156,3946.9600,N,08404.9885,W,2,12,1.00,308.79,M,-33.324,M,,*79
2017-12-29 11:31:55 1514565115.827454: $GPRMC,163156,A,3946.9600,N,08404.9885,W,0.0000,0.000,291217,,*34
2017-12-29 11:31:55 1514565115.827517: $GPGSA,A,3,8,10,15,18,20,21,24,27,32,13,14,138,1.7,1.0,1.3*3D
2017-12-29 11:31:56 1514565116.452524: $GPZDA,163157.00,29,12,2017,00,00*6D
2017-12-29 11:31:56 1514565116.452694: $GPGGA,163157,3946.9600,N,08404.9885,W,2,12,1.00,308.79,M,-33.324,M,,*78
2017-12-29 11:31:56 1514565116.452762: $GPRMC,163157,A,3946.9600,N,08404.9885,W,0.0000,0.000,291217,,*35
2017-12-29 11:31:56 1514565116.452826: $GPGSA,A,3,8,10,15,18,20,21,24,27,32,13,14,138,1.7,1.0,1.3*3D
2017-12-29 11:31:57 1514565117.374548: $GPZDA,163158.00,29,12,2017,00,00*62
2017-12-29 11:31:57 1514565117.374710: $GPGGA,163158,3946.9600,N,08404.9885,W,2,12,1.00,308.79,M,-33.324,M,,*77
2017-12-29 11:31:57 1514565117.374780: $GPRMC,163158,A,3946.9600,N,08404.9885,W,0.0000,0.000,291217,,*3A
2017-12-29 11:31:57 1514565117.374841: $GPGSA,A,3,8,10,15,18,20,21,24,27,32,13,14,138,1.7,1.0,1.3*3D
2017-12-29 11:31:58 1514565118.711537: $GPGSV,3,1,12,08,07,318,27,10,47,306,46,15,31,054,49,18,75,357,45*7C
2017-12-29 11:31:58 1514565118.711775: $GPGSV,3,2,12,20,30,100,50,21,56,186,46,24,53,099,50,27,18,283,38*78
2017-12-29 11:31:58 1514565118.711850: $GPGSV,3,3,12,32,27,243,40,13,02,051,12,14,08,235,31,138,38,213,46*40
2017-12-29 11:31:58 1514565118.824897: $GPZDA,163159.00,29,12,2017,00,00*63
2017-12-29 11:31:58 1514565118.825068: $GPGGA,163159,3946.9600,N,08404.9885,W,2,12,1.00,308.79,M,-33.324,M,,*76
2017-12-29 11:31:58 1514565118.825136: $GPRMC,163159,A,3946.9600,N,08404.9885,W,0.0000,0.000,291217,,*3B
2017-12-29 11:31:58 1514565118.825214: $GPGSA,A,3,8,10,15,18,20,21,24,27,32,13,14,138,1.7,1.0,1.3*3D
2017-12-29 11:31:59 1514565119.377126: $GPZDA,163200.00,29,12,2017,00,00*6C
2017-12-29 11:31:59 1514565119.377276: $GPGGA,163200,3946.9600,N,08404.9885,W,2,12,1.00,308.79,M,-33.324,M,,*79
2017-12-29 11:31:59 1514565119.377342: $GPRMC,163200,A,3946.9600,N,08404.9885,W,0.0000,0.000,291217,,*34
2017-12-29 11:31:59 1514565119.377403: $GPGSA,A,3,8,10,15,18,20,21,24,27,32,13,14,138,1.7,1.0,1.3*3D
2017-12-29 11:32:01 1514565121.250721: $GPZDA,163201.00,29,12,2017,00,00*6D
2017-12-29 11:32:01 1514565121.250902: $GPGGA,163201,3946.9596,N,08404.9878,W,2,12,1.00,308.23,M,-33.324,M,,*79
2017-12-29 11:32:01 1514565121.250968: $GPRMC,163201,A,3946.9596,N,08404.9878,W,0.1567,9.200,291217,,*35
2017-12-29 11:32:01 1514565121.251029: $GPGSA,A,3,8,10,15,18,20,21,24,27,32,13,14,138,1.7,1.0,1.3*3D
2017-12-29 11:32:01 1514565121.251177: $GPGBS,163201,2.73,M,2.59,M,7.72,M*33
2017-12-29 11:32:02 1514565122.730317: $GPGSV,3,1,12,08,07,316,26,10,47,306,46,15,31,055,49,18,75,358,45*7D
2017-12-29 11:32:02 1514565122.730497: $GPGSV,3,2,12,20,29,100,50,21,56,186,46,24,53,099,50,27,18,282,39*70
2017-12-29 11:32:02 1514565122.730563: $GPGSV,3,3,12,32,27,243,40,13,02,051,04,14,09,235,31,138,38,213,45*45
2017-12-29 11:32:02 1514565122.844165: $GPZDA,163202.00,29,12,2017,00,00*6E
2017-12-29 11:32:02 1514565122.844462: $GPGGA,163202,3946.9596,N,08404.9878,W,2,11,0.80,308.23,M,-33.324,M,,*70
2017-12-29 11:32:02 1514565122.844616: $GPRMC,163202,A,3946.9596,N,08404.9878,W,0.0000,0.000,291217,,*38
2017-12-29 11:32:02 1514565122.844783: $GPGSA,A,3,8,10,15,18,20,21,24,27,32,14,138,,1.7,0.8,1.3*36
2017-12-29 11:32:03 1514565123.295003: $GPZDA,163203.00,29,12,2017,00,00*6F
2017-12-29 11:32:03 1514565123.295171: $GPGGA,163203,3946.9596,N,08404.9878,W,2,11,0.80,308.23,M,-33.324,M,,*71
2017-12-29 11:32:03 1514565123.295239: $GPRMC,163203,A,3946.9596,N,08404.9878,W,0.0000,0.000,291217,,*39
2017-12-29 11:32:03 1514565123.295300: $GPGSA,A,3,8,10,15,18,20,21,24,27,32,14,138,,1.7,0.8,1.3*36
2017-12-29 11:32:03 1514565123.746739: $GPZDA,163204.00,29,12,2017,00,00*68
2017-12-29 11:32:03 1514565123.746918: $GPGGA,163204,3946.9596,N,08404.9878,W,2,11,1.00,308.23,M,-33.324,M,,*7F
2017-12-29 11:32:03 1514565123.746984: $GPRMC,163204,A,3946.9596,N,08404.9878,W,0.0000,0.000,291217,,*3E
2017-12-29 11:32:03 1514565123.747044: $GPGSA,A,3,8,10,15,18,20,21,24,27,32,14,138,,1.7,1.0,1.3*3F
2017-12-29 11:32:04 1514565124.727582: $GPGSV,3,1,12,08,07,316,34,10,47,306,46,15,31,055,49,18,75,358,45*7E
2017-12-29 11:32:04 1514565124.727796: $GPGSV,3,2,12,20,29,100,50,21,56,186,46,24,53,099,50,27,18,282,40*7E
2017-12-29 11:32:04 1514565124.727862: $GPGSV,3,3,12,32,27,243,40,13,02,051,04,14,09,235,27,138,38,213,45*42
2017-12-29 11:32:04 1514565124.841173: $GPZDA,163205.00,29,12,2017,00,00*69
2017-12-29 11:32:04 1514565124.841349: $GPGGA,163205,3946.9596,N,08404.9878,W,2,11,0.80,308.23,M,-33.324,M,,*77
2017-12-29 11:32:04 1514565124.841417: $GPRMC,163205,A,3946.9596,N,08404.9878,W,0.0000,0.000,291217,,*3F
2017-12-29 11:32:04 1514565124.841478: $GPGSA,A,3,8,10,15,18,20,21,24,27,32,14,138,,1.7,0.8,1.3*36
2017-12-29 11:32:05 1514565125.395430: $GPZDA,163206.00,29,12,2017,00,00*6A
2017-12-29 11:32:05 1514565125.395591: $GPGGA,163206,3946.9596,N,08404.9878,W,2,11,0.80,308.23,M,-33.324,M,,*74
2017-12-29 11:32:05 1514565125.395657: $GPRMC,163206,A,3946.9596,N,08404.9878,W,0.0000,0.000,291217,,*3C
2017-12-29 11:32:05 1514565125.395718: $GPGSA,A,3,8,10,15,18,20,21,24,27,32,14,138,,1.7,0.8,1.3*36
