2017-11-16 15:33:42 1510864422.778946: {"class":"VERSION","release":"3.17","rev":"3.17","proto_major":3,"proto_minor":12}
2017-11-16 15:33:42 1510864422.779367: {"class":"DEVICES","devices":[{"class":"DEVICE","path":"/dev/ttyUSB0","driver":"SiRF","subtype":"9\u0006GSD4e_4.1.2-P1_RPATCH.05-F-GPS-4R-1510281 11/03/2015 307","activated":"2017-11-16T20:33:42.507Z","flags":1,"native":1,"bps":4800,"parity":"N","stopbits":1,"cycle":1.00}]}
2017-11-16 15:33:42 1510864422.779475: {"class":"WATCH","enable":true,"json":false,"nmea":true,"raw":0,"scaled":false,"timing":false,"split24":false,"pps":false}
2017-11-16 15:33:43 1510864423.703649: $GPGSV,3,1,12,08,05,291,33,10,72,336,51,14,31,256,44,15,09,067,29*78
2017-11-16 15:33:43 1510864423.703820: $GPGSV,3,2,12,18,68,099,47,20,06,120,23,21,26,178,44,24,43,057,48*7F
2017-11-16 15:33:43 1510864423.703881: $GPGSV,3,3,12,25,05,139,19,32,48,268,48,12,11,105,20,138,38,213,44*42
2017-11-16 15:33:43 1510864423.817044: $GPZDA,203342.00,16,11,2017,00,00*61
2017-11-16 15:33:43 1510864423.817201: $GPGGA,203342,3946.9568,N,08404.9860,W,2,12,0.80,309.61,M,-33.324,M,,*7C
2017-11-16 15:33:43 1510864423.817262: $GPRMC,203342,A,3946.9568,N,08404.9860,W,0.0000,0.000,161117,,*3F
2017-11-16 15:33:43 1510864423.817318: $GPGSA,A,3,8,10,14,15,18,20,21,24,25,32,12,138,1.6,0.8,1.3*36
2017-11-16 15:33:44 1510864424.366672: $GPZDA,203343.00,16,11,2017,00,00*60
2017-11-16 15:33:44 1510864424.366841: $GPGGA,203343,3946.9568,N,08404.9860,W,2,12,0.80,309.61,M,-33.324,M,,*7D
2017-11-16 15:33:44 1510864424.366903: $GPRMC,203343,A,3946.9568,N,08404.9860,W,0.0000,0.000,161117,,*3E
2017-11-16 15:33:44 1510864424.366959: $GPGSA,A,3,8,10,14,15,18,20,21,24,25,32,12,138,1.6,0.8,1.3*36
2017-11-16 15:33:45 1510864425.366284: $GPZDA,203344.00,16,11,2017,00,00*67
2017-11-16 15:33:45 1510864425.366460: $GPGGA,203344,3946.9568,N,08404.9860,W,2,12,0.80,309.61,M,-33.324,M,,*7A
2017-11-16 15:33:45 1510864425.366522: $GPRMC,203344,A,3946.9568,N,08404.9860,W,0.0000,0.000,161117,,*39
2017-11-16 15:33:45 1510864425.366578: $GPGSA,A,3,8,10,14,15,18,20,21,24,25,32,12,138,1.6,0.8,1.3*36
2017-11-16 15:33:46 1510864426.701473: $GPGSV,3,1,12,08,05,291,34,10,72,336,51,14,31,256,44,15,09,067,29*7F
2017-11-16 15:33:47 1510864427.649046: $GPGSV,3,2,12,18,68,099,47,20,06,120,19,21,26,178,44,24,43,057,48*76
2017-11-16 15:33:47 1510864427.649191: $GPGSV,3,3,12,25,05,139,19,32,48,268,48,12,11,105,19,138,38,213,45*49
2017-11-16 15:33:47 1510864427.649291: $GPZDA,203345.00,16,11,2017,00,00*66
2017-11-16 15:33:47 1510864427.649357: $GPGGA,203345,3946.9568,N,08404.9860,W,2,12,0.80,309.61,M,-33.324,M,,*7B
2017-11-16 15:33:47 1510864427.649416: $GPRMC,203345,A,3946.9568,N,08404.9860,W,0.0000,0.000,161117,,*38
2017-11-16 15:33:47 1510864427.649488: $GPGSA,A,3,8,10,14,15,18,20,21,24,25,32,12,138,1.6,0.8,1.3*36
2017-11-16 15:33:47 1510864427.649543: $GPZDA,203346.00,16,11,2017,00,00*65
2017-11-16 15:33:47 1510864427.649592: $GPGGA,203346,3946.9568,N,08404.9860,W,2,12,0.80,309.61,M,-33.324,M,,*78
2017-11-16 15:33:47 1510864427.649666: $GPRMC,203346,A,3946.9568,N,08404.9860,W,0.0000,0.000,161117,,*3B
2017-11-16 15:33:47 1510864427.649738: $GPGSA,A,3,8,10,14,15,18,20,21,24,25,32,12,138,1.6,0.8,1.3*36
2017-11-16 15:33:48 1510864428.366543: $GPZDA,203347.00,16,11,2017,00,00*64
2017-11-16 15:33:48 1510864428.366739: $GPGGA,203347,3946.9568,N,08404.9860,W,2,12,0.80,309.61,M,-33.324,M,,*79
2017-11-16 15:33:48 1510864428.366802: $GPRMC,203347,A,3946.9568,N,08404.9860,W,0.0000,0.000,161117,,*3A
2017-11-16 15:33:48 1510864428.366875: $GPGSA,A,3,8,10,14,15,18,20,21,24,25,32,12,138,1.6,0.8,1.3*36
2017-11-16 15:33:49 1510864429.719980: $GPGSV,3,1,12,08,05,291,34,10,72,336,51,14,31,256,44,15,09,067,30*77
2017-11-16 15:33:49 1510864429.720152: $GPGSV,3,2,12,18,68,099,47,20,06,120,19,21,26,178,43,24,43,057,48*71
2017-11-16 15:33:49 1510864429.720215: $GPGSV,3,3,12,25,05,139,19,32,48,268,48,12,11,105,18,138,38,213,44*49
2017-11-16 15:33:49 1510864429.833138: $GPZDA,203348.00,16,11,2017,00,00*6B
2017-11-16 15:33:49 1510864429.833328: $GPGGA,203348,3946.9568,N,08404.9860,W,2,12,0.80,309.61,M,-33.324,M,,*76
2017-11-16 15:33:49 1510864429.833443: $GPRMC,203348,A,3946.9568,N,08404.9860,W,0.0000,0.000,161117,,*35
2017-11-16 15:33:49 1510864429.833501: $GPGSA,A,3,8,10,14,15,18,20,21,24,25,32,12,138,1.6,0.8,1.3*36
2017-11-16 15:33:50 1510864430.381804: $GPZDA,203349.00,16,11,2017,00,00*6A
2017-11-16 15:33:50 1510864430.381981: $GPGGA,203349,3946.9568,N,08404.9860,W,2,12,0.80,309.61,M,-33.324,M,,*77
2017-11-16 15:33:50 1510864430.382043: $GPRMC,203349,A,3946.9568,N,08404.9860,W,0.0000,0.000,161117,,*34
2017-11-16 15:33:50 1510864430.382119: $GPGSA,A,3,8,10,14,15,18,20,21,24,25,32,12,138,1.6,0.8,1.3*36
2017-11-16 15:33:51 1510864431.365889: $GPZDA,203350.00,16,11,2017,00,00*62
2017-11-16 15:33:51 1510864431.366067: $GPGGA,203350,3946.9568,N,08404.9860,W,2,12,0.80,309.61,M,-33.324,M,,*7F
2017-11-16 15:33:51 1510864431.366130: $GPRMC,203350,A,3946.9568,N,08404.9860,W,0.0000,0.000,161117,,*3C
2017-11-16 15:33:51 1510864431.366186: $GPGSA,A,3,8,10,14,15,18,20,21,24,25,32,12,138,1.6,0.8,1.3*36
2017-11-16 15:33:52 1510864432.701403: $GPGSV,3,1,12,08,05,291,34,10,72,336,51,14,31,256,45,15,09,067,30*76
2017-11-16 15:33:52 1510864432.701601: $GPGSV,3,2,12,18,68,099,48,20,06,120,18,21,26,178,43,24,43,057,48*7F
2017-11-16 15:33:52 1510864432.701687: $GPGSV,3,3,12,25,05,139,19,32,48,268,47,12,11,105,18,138,38,213,44*46
2017-11-16 15:33:52 1510864432.814956: $GPZDA,203351.00,16,11,2017,00,00*63
2017-11-16 15:33:52 1510864432.815118: $GPGGA,203351,3946.9568,N,08404.9860,W,2,12,0.80,309.61,M,-33.324,M,,*7E
2017-11-16 15:33:52 1510864432.815181: $GPRMC,203351,A,3946.9568,N,08404.9860,W,0.0000,0.000,161117,,*3D
2017-11-16 15:33:52 1510864432.815240: $GPGSA,A,3,8,10,14,15,18,20,21,24,25,32,12,138,1.6,0.8,1.3*36
2017-11-16 15:33:53 1510864433.382061: $GPZDA,203352.00,16,11,2017,00,00*60
2017-11-16 15:33:53 1510864433.382217: $GPGGA,203352,3946.9568,N,08404.9860,W,2,12,0.80,309.61,M,-33.324,M,,*7D
2017-11-16 15:33:53 1510864433.382281: $GPRMC,203352,A,3946.9568,N,08404.9860,W,0.0000,0.000,161117,,*3E
2017-11-16 15:33:53 1510864433.382340: $GPGSA,A,3,8,10,14,15,18,20,21,24,25,32,12,138,1.6,0.8,1.3*36
