2017-11-16 13:27:28 1510856848.066744: {"class":"VERSION","release":"3.17","rev":"3.17","proto_major":3,"proto_minor":12}
2017-11-16 13:27:28 1510856848.067266: {"class":"DEVICES","devices":[{"class":"DEVICE","path":"/dev/ttyUSB0","driver":"SiRF","subtype":"9\u0006GSD4e_4.1.2-P1_RPATCH.05-F-GPS-4R-1510281 11/03/2015 307","activated":"2017-11-16T18:27:27.860Z","flags":1,"native":1,"bps":4800,"parity":"N","stopbits":1,"cycle":1.00}]}
2017-11-16 13:27:28 1510856848.067395: {"class":"WATCH","enable":true,"json":false,"nmea":true,"raw":0,"scaled":false,"timing":false,"split24":false,"pps":false}
2017-11-16 13:27:28 1510856848.270793: $GPZDA,182727.00,16,11,2017,00,00*6C
2017-11-16 13:27:28 1510856848.270969: $GPGGA,182727,3946.9615,N,08404.9845,W,2,12,0.80,303.96,M,-33.324,M,,*7D
2017-11-16 13:27:28 1510856848.271030: $GPRMC,182727,A,3946.9615,N,08404.9845,W,0.0000,0.000,161117,,*3C
2017-11-16 13:27:28 1510856848.271086: $GPGSA,A,3,10,13,15,18,20,21,24,27,29,5,32,138,1.6,0.8,1.3*36
2017-11-16 13:27:29 1510856849.290396: $GPZDA,182728.00,16,11,2017,00,00*63
2017-11-16 13:27:29 1510856849.290560: $GPGGA,182728,3946.9615,N,08404.9845,W,2,12,0.80,303.96,M,-33.324,M,,*72
2017-11-16 13:27:29 1510856849.290620: $GPRMC,182728,A,3946.9615,N,08404.9845,W,0.0000,0.000,161117,,*33
2017-11-16 13:27:29 1510856849.290676: $GPGSA,A,3,10,13,15,18,20,21,24,27,29,5,32,138,1.6,0.8,1.3*36
2017-11-16 13:27:30 1510856850.625545: $GPGSV,3,1,12,10,26,286,42,13,26,045,45,15,57,049,51,18,57,304,47*71
2017-11-16 13:27:30 1510856850.625701: $GPGSV,3,2,12,20,48,076,49,21,79,252,46,24,36,135,42,27,17,309,41*7D
2017-11-16 13:27:30 1510856850.625761: $GPGSV,3,3,12,29,06,187,26,05,02,090,21,32,04,226,32,138,38,213,45*42
2017-11-16 13:27:30 1510856850.738852: $GPZDA,182729.00,16,11,2017,00,00*62
2017-11-16 13:27:30 1510856850.739020: $GPGGA,182729,3946.9615,N,08404.9845,W,2,12,0.80,303.96,M,-33.324,M,,*73
2017-11-16 13:27:30 1510856850.739095: $GPRMC,182729,A,3946.9615,N,08404.9845,W,0.0000,0.000,161117,,*32
2017-11-16 13:27:30 1510856850.739152: $GPGSA,A,3,10,13,15,18,20,21,24,27,29,5,32,138,1.6,0.8,1.3*36
2017-11-16 13:27:31 1510856851.291209: $GPZDA,182730.00,16,11,2017,00,00*6A
2017-11-16 13:27:31 1510856851.291366: $GPGGA,182730,3946.9615,N,08404.9845,W,2,12,0.80,303.96,M,-33.324,M,,*7B
2017-11-16 13:27:31 1510856851.291426: $GPRMC,182730,A,3946.9615,N,08404.9845,W,0.0000,0.000,161117,,*3A
2017-11-16 13:27:31 1510856851.291482: $GPGSA,A,3,10,13,15,18,20,21,24,27,29,5,32,138,1.6,0.8,1.3*36
2017-11-16 13:27:32 1510856852.270709: $GPZDA,182731.00,16,11,2017,00,00*6B
2017-11-16 13:27:32 1510856852.274254: $GPGGA,182731,3946.9615,N,08404.9845,W,2,12,0.80,303.96,M,-33.324,M,,*7A
2017-11-16 13:27:32 1510856852.274358: $GPRMC,182731,A,3946.9615,N,08404.9845,W,0.0000,0.000,161117,,*3B
2017-11-16 13:27:32 1510856852.274417: $GPGSA,A,3,10,13,15,18,20,21,24,27,29,5,32,138,1.6,0.8,1.3*36
2017-11-16 13:27:33 1510856853.607655: $GPGSV,3,1,12,10,26,286,43,13,26,045,45,15,57,049,51,18,57,304,47*70
2017-11-16 13:27:33 1510856853.607822: $GPGSV,3,2,12,20,48,076,49,21,79,252,46,24,36,135,42,27,17,309,40*7C
2017-11-16 13:27:33 1510856853.607883: $GPGSV,3,3,12,29,06,187,28,05,02,090,21,32,04,226,32,138,38,213,44*4D
2017-11-16 13:27:33 1510856853.721100: $GPZDA,182732.00,16,11,2017,00,00*68
2017-11-16 13:27:33 1510856853.721262: $GPGGA,182732,3946.9615,N,08404.9845,W,2,12,0.80,303.96,M,-33.324,M,,*79
2017-11-16 13:27:33 1510856853.721323: $GPRMC,182732,A,3946.9615,N,08404.9845,W,0.0000,0.000,161117,,*38
2017-11-16 13:27:33 1510856853.721379: $GPGSA,A,3,10,13,15,18,20,21,24,27,29,5,32,138,1.6,0.8,1.3*36
2017-11-16 13:27:34 1510856854.291080: $GPZDA,182733.00,16,11,2017,00,00*69
2017-11-16 13:27:34 1510856854.291239: $GPGGA,182733,3946.9615,N,08404.9845,W,2,12,0.80,303.96,M,-33.324,M,,*78
2017-11-16 13:27:34 1510856854.291300: $GPRMC,182733,A,3946.9615,N,08404.9845,W,0.0000,0.000,161117,,*39
2017-11-16 13:27:34 1510856854.291355: $GPGSA,A,3,10,13,15,18,20,21,24,27,29,5,32,138,1.6,0.8,1.3*36
2017-11-16 13:27:35 1510856855.273129: $GPZDA,182734.00,16,11,2017,00,00*6E
2017-11-16 13:27:35 1510856855.273376: $GPGGA,182734,3946.9615,N,08404.9845,W,2,12,0.80,303.96,M,-33.324,M,,*7F
2017-11-16 13:27:35 1510856855.273440: $GPRMC,182734,A,3946.9615,N,08404.9845,W,0.0000,0.000,161117,,*3E
2017-11-16 13:27:35 1510856855.273521: $GPGSA,A,3,10,13,15,18,20,21,24,27,29,5,32,138,1.6,0.8,1.3*36
2017-11-16 13:27:36 1510856856.605514: $GPGSV,3,1,12,10,26,286,43,13,26,045,45,15,57,049,51,18,57,304,46*71
2017-11-16 13:27:36 1510856856.605706: $GPGSV,3,2,12,20,48,076,48,21,79,252,46,24,36,135,42,27,17,309,40*7D
2017-11-16 13:27:36 1510856856.605783: $GPGSV,3,3,12,29,06,187,27,05,02,090,21,32,04,226,32,138,38,213,44*42
2017-11-16 13:27:36 1510856856.718668: $GPZDA,182735.00,16,11,2017,00,00*6F
2017-11-16 13:27:36 1510856856.718835: $GPGGA,182735,3946.9615,N,08404.9845,W,2,12,0.80,303.96,M,-33.324,M,,*7E
2017-11-16 13:27:36 1510856856.718896: $GPRMC,182735,A,3946.9615,N,08404.9845,W,0.0000,0.000,161117,,*3F
2017-11-16 13:27:36 1510856856.718952: $GPGSA,A,3,10,13,15,18,20,21,24,27,29,5,32,138,1.6,0.8,1.3*36
2017-11-16 13:27:37 1510856857.290872: $GPZDA,182736.00,16,11,2017,00,00*6C
2017-11-16 13:27:37 1510856857.293531: $GPGGA,182736,3946.9615,N,08404.9845,W,2,12,0.80,303.96,M,-33.324,M,,*7D
2017-11-16 13:27:37 1510856857.293637: $GPRMC,182736,A,3946.9615,N,08404.9845,W,0.0000,0.000,161117,,*3C
2017-11-16 13:27:37 1510856857.293697: $GPGSA,A,3,10,13,15,18,20,21,24,27,29,5,32,138,1.6,0.8,1.3*36
2017-11-16 13:27:38 1510856858.290436: $GPZDA,182737.00,16,11,2017,00,00*6D
2017-11-16 13:27:38 1510856858.290628: $GPGGA,182737,3946.9615,N,08404.9845,W,2,12,0.80,303.96,M,-33.324,M,,*7C
2017-11-16 13:27:38 1510856858.290707: $GPRMC,182737,A,3946.9615,N,08404.9845,W,0.0000,0.000,161117,,*3D
2017-11-16 13:27:38 1510856858.290765: $GPGSA,A,3,10,13,15,18,20,21,24,27,29,5,32,138,1.6,0.8,1.3*36
2017-11-16 13:27:39 1510856859.606188: $GPGSV,3,1,12,10,26,286,42,13,26,045,45,15,57,049,51,18,57,304,46*70
2017-11-16 13:27:39 1510856859.606331: $GPGSV,3,2,12,20,48,076,48,21,79,252,46,24,36,135,42,27,17,309,40*7D
2017-11-16 13:27:39 1510856859.606391: $GPGSV,3,3,12,29,06,187,27,05,02,090,21,32,04,226,32,138,38,213,44*42
2017-11-16 13:27:39 1510856859.719887: $GPZDA,182738.00,16,11,2017,00,00*62
2017-11-16 13:27:39 1510856859.720047: $GPGGA,182738,3946.9615,N,08404.9845,W,2,12,0.80,303.96,M,-33.324,M,,*73
2017-11-16 13:27:39 1510856859.720107: $GPRMC,182738,A,3946.9615,N,08404.9845,W,0.0000,0.000,161117,,*32
2017-11-16 13:27:39 1510856859.720163: $GPGSA,A,3,10,13,15,18,20,21,24,27,29,5,32,138,1.6,0.8,1.3*36
2017-11-16 13:27:40 1510856860.345133: $GPZDA,182739.00,16,11,2017,00,00*63
2017-11-16 13:27:40 1510856860.345430: $GPGGA,182739,3946.9615,N,08404.9845,W,2,12,0.80,303.96,M,-33.324,M,,*72
2017-11-16 13:27:40 1510856860.345555: $GPRMC,182739,A,3946.9615,N,08404.9845,W,0.0000,0.000,161117,,*33
2017-11-16 13:27:40 1510856860.345709: $GPGSA,A,3,10,13,15,18,20,21,24,27,29,5,32,138,1.6,0.8,1.3*36
2017-11-16 13:27:41 1510856861.270622: $GPZDA,182740.00,16,11,2017,00,00*6D
2017-11-16 13:27:41 1510856861.270784: $GPGGA,182740,3946.9615,N,08404.9845,W,2,12,0.80,303.96,M,-33.324,M,,*7C
2017-11-16 13:27:41 1510856861.270845: $GPRMC,182740,A,3946.9615,N,08404.9845,W,0.0000,0.000,161117,,*3D
2017-11-16 13:27:41 1510856861.270901: $GPGSA,A,3,10,13,15,18,20,21,24,27,29,5,32,138,1.6,0.8,1.3*36
2017-11-16 13:27:42 1510856862.620174: $GPGSV,3,1,12,10,26,286,42,13,26,045,45,15,57,049,51,18,57,304,46*70
2017-11-16 13:27:42 1510856862.624042: $GPGSV,3,2,12,20,48,076,48,21,79,252,46,24,36,135,43,27,17,309,40*7C
2017-11-16 13:27:42 1510856862.624138: $GPGSV,3,3,12,29,06,187,27,05,02,090,22,32,04,226,32,138,38,213,45*40
2017-11-16 13:27:42 1510856862.735272: $GPZDA,182741.00,16,11,2017,00,00*6C
2017-11-16 13:27:42 1510856862.735493: $GPGGA,182741,3946.9615,N,08404.9845,W,2,12,0.80,303.96,M,-33.324,M,,*7D
2017-11-16 13:27:42 1510856862.735560: $GPRMC,182741,A,3946.9615,N,08404.9845,W,0.0000,0.000,161117,,*3C
2017-11-16 13:27:42 1510856862.735617: $GPGSA,A,3,10,13,15,18,20,21,24,27,29,5,32,138,1.6,0.8,1.3*36
