2017-12-01 15:31:01 1512160261.607444: {"class":"VERSION","release":"3.16","rev":"3.16-4","proto_major":3,"proto_minor":11}
2017-12-01 15:31:01 1512160261.607869: {"class":"DEVICES","devices":[{"class":"DEVICE","path":"/dev/ttyUSB0","driver":"SiRF","subtype":"9\u0006GSD4e_4.1.2-P1_RPATCH.05-F-GPS-4R-1510281 11/03/2015 307","activated":"2017-12-01T20:31:01.597Z","flags":1,"native":1,"bps":4800,"parity":"N","stopbits":1,"cycle":1.00}]}
2017-12-01 15:31:01 1512160261.607982: {"class":"WATCH","enable":true,"json":false,"nmea":true,"raw":0,"scaled":false,"timing":false,"split24":false,"pps":false}
2017-12-01 15:31:02 1512160262.769960: $GPGSV,3,1,11,01,10,322,34,10,76,120,48,11,10,307,21,12,24,078,44*7C
2017-12-01 15:31:02 1512160262.770142: $GPGSV,3,2,11,14,50,283,43,18,43,130,47,24,19,045,44,25,25,120,46*77
2017-12-01 15:31:02 1512160262.770250: $GPGSV,3,3,11,31,28,210,47,32,65,313,49,138,38,213,46*7C
2017-12-01 15:31:02 1512160262.883450: $GPZDA,203103.00,01,12,2017,00,00*63
2017-12-01 15:31:02 1512160262.883634: $GPGGA,203103,3946.9584,N,08404.9857,W,2,11,0.80,293.71,M,-33.324,M,,*7D
2017-12-01 15:31:02 1512160262.883700: $GPRMC,203103,A,3946.9584,N,08404.9857,W,0.0000,0.000,011217,,*3B
2017-12-01 15:31:02 1512160262.883761: $GPGSA,A,3,1,10,11,12,14,18,24,25,31,32,138,,2.0,0.8,1.5*3B
2017-12-01 15:31:03 1512160263.434721: $GPZDA,203104.00,01,12,2017,00,00*64
2017-12-01 15:31:03 1512160263.435042: $GPGGA,203104,3946.9584,N,08404.9857,W,2,11,0.80,293.71,M,-33.324,M,,*7A
2017-12-01 15:31:03 1512160263.435170: $GPRMC,203104,A,3946.9584,N,08404.9857,W,0.0000,0.000,011217,,*3C
2017-12-01 15:31:03 1512160263.435296: $GPGSA,A,3,1,10,11,12,14,18,24,25,31,32,138,,2.0,0.8,1.5*3B
2017-12-01 15:31:04 1512160264.433880: $GPZDA,203105.00,01,12,2017,00,00*65
2017-12-01 15:31:04 1512160264.434049: $GPGGA,203105,3946.9584,N,08404.9857,W,2,11,0.80,293.71,M,-33.324,M,,*7B
2017-12-01 15:31:04 1512160264.434114: $GPRMC,203105,A,3946.9584,N,08404.9857,W,0.0000,0.000,011217,,*3D
2017-12-01 15:31:04 1512160264.434175: $GPGSA,A,3,1,10,11,12,14,18,24,25,31,32,138,,2.0,0.8,1.5*3B
2017-12-01 15:31:05 1512160265.770835: $GPGSV,3,1,11,01,10,322,35,10,76,120,47,11,10,307,29,12,24,078,44*7A
2017-12-01 15:31:05 1512160265.771015: $GPGSV,3,2,11,14,50,283,42,18,43,130,47,24,19,045,44,25,25,120,46*76
2017-12-01 15:31:05 1512160265.771081: $GPGSV,3,3,11,31,28,210,47,32,65,313,49,138,38,213,45*7F
2017-12-01 15:31:05 1512160265.884285: $GPZDA,203106.00,01,12,2017,00,00*66
2017-12-01 15:31:05 1512160265.884478: $GPGGA,203106,3946.9584,N,08404.9857,W,2,11,0.80,293.71,M,-33.324,M,,*78
2017-12-01 15:31:05 1512160265.884563: $GPRMC,203106,A,3946.9584,N,08404.9857,W,0.0000,0.000,011217,,*3E
2017-12-01 15:31:05 1512160265.884625: $GPGSA,A,3,1,10,11,12,14,18,24,25,31,32,138,,2.0,0.8,1.5*3B
2017-12-01 15:31:06 1512160266.435657: $GPZDA,203107.00,01,12,2017,00,00*67
2017-12-01 15:31:06 1512160266.435870: $GPGGA,203107,3946.9584,N,08404.9857,W,2,11,0.80,293.71,M,-33.324,M,,*79
2017-12-01 15:31:06 1512160266.435960: $GPRMC,203107,A,3946.9584,N,08404.9857,W,0.0000,0.000,011217,,*3F
2017-12-01 15:31:06 1512160266.436023: $GPGSA,A,3,1,10,11,12,14,18,24,25,31,32,138,,2.0,0.8,1.5*3B
2017-12-01 15:31:07 1512160267.434309: $GPZDA,203108.00,01,12,2017,00,00*68
2017-12-01 15:31:07 1512160267.434526: $GPGGA,203108,3946.9584,N,08404.9857,W,2,11,0.80,293.71,M,-33.324,M,,*76
2017-12-01 15:31:07 1512160267.434596: $GPRMC,203108,A,3946.9584,N,08404.9857,W,0.0000,0.000,011217,,*30
2017-12-01 15:31:07 1512160267.434657: $GPGSA,A,3,1,10,11,12,14,18,24,25,31,32,138,,2.0,0.8,1.5*3B
2017-12-01 15:31:08 1512160268.764933: $GPGSV,3,1,11,01,10,322,35,10,76,120,47,11,10,307,30,12,24,078,44*72
2017-12-01 15:31:08 1512160268.765119: $GPGSV,3,2,11,14,50,283,42,18,43,130,47,24,19,045,44,25,25,120,46*76
2017-12-01 15:31:08 1512160268.765186: $GPGSV,3,3,11,31,28,210,47,32,65,313,49,138,38,213,46*7C
2017-12-01 15:31:08 1512160268.878329: $GPZDA,203109.00,01,12,2017,00,00*69
2017-12-01 15:31:08 1512160268.878493: $GPGGA,203109,3946.9584,N,08404.9857,W,2,11,0.80,293.71,M,-33.324,M,,*77
2017-12-01 15:31:08 1512160268.878608: $GPRMC,203109,A,3946.9584,N,08404.9857,W,0.0000,0.000,011217,,*31
2017-12-01 15:31:08 1512160268.878671: $GPGSA,A,3,1,10,11,12,14,18,24,25,31,32,138,,2.0,0.8,1.5*3B
2017-12-01 15:31:09 1512160269.435441: $GPZDA,203110.00,01,12,2017,00,00*61
2017-12-01 15:31:09 1512160269.435614: $GPGGA,203110,3946.9584,N,08404.9857,W,2,11,0.80,293.71,M,-33.324,M,,*7F
2017-12-01 15:31:09 1512160269.435681: $GPRMC,203110,A,3946.9584,N,08404.9857,W,0.0000,0.000,011217,,*39
2017-12-01 15:31:09 1512160269.435762: $GPGSA,A,3,1,10,11,12,14,18,24,25,31,32,138,,2.0,0.8,1.5*3B
2017-12-01 15:31:10 1512160270.434003: $GPZDA,203111.00,01,12,2017,00,00*60
2017-12-01 15:31:10 1512160270.434165: $GPGGA,203111,3946.9584,N,08404.9857,W,2,11,0.80,293.71,M,-33.324,M,,*7E
2017-12-01 15:31:10 1512160270.434233: $GPRMC,203111,A,3946.9584,N,08404.9857,W,0.0000,0.000,011217,,*38
2017-12-01 15:31:10 1512160270.434294: $GPGSA,A,3,1,10,11,12,14,18,24,25,31,32,138,,2.0,0.8,1.5*3B
2017-12-01 15:31:11 1512160271.768444: $GPGSV,3,1,11,01,10,322,37,10,76,120,47,11,10,307,35,12,24,078,43*72
2017-12-01 15:31:11 1512160271.768631: $GPGSV,3,2,11,14,50,283,42,18,43,130,47,24,19,045,45,25,25,120,46*77
2017-12-01 15:31:11 1512160271.768699: $GPGSV,3,3,11,31,28,210,47,32,65,313,49,138,38,213,45*7F
2017-12-01 15:31:11 1512160271.881849: $GPZDA,203112.00,01,12,2017,00,00*63
2017-12-01 15:31:11 1512160271.882013: $GPGGA,203112,3946.9584,N,08404.9857,W,2,11,0.80,293.71,M,-33.324,M,,*7D
2017-12-01 15:31:11 1512160271.882078: $GPRMC,203112,A,3946.9584,N,08404.9857,W,0.0000,0.000,011217,,*3B
2017-12-01 15:31:11 1512160271.882139: $GPGSA,A,3,1,10,11,12,14,18,24,25,31,32,138,,2.0,0.8,1.5*3B
2017-12-01 15:31:12 1512160272.507804: $GPZDA,203113.00,01,12,2017,00,00*62
2017-12-01 15:31:12 1512160272.507967: $GPGGA,203113,3946.9580,N,08404.9857,W,2,11,0.80,294.47,M,-33.324,M,,*7A
2017-12-01 15:31:12 1512160272.508033: $GPRMC,203113,A,3946.9580,N,08404.9857,W,0.0000,0.000,011217,,*3E
2017-12-01 15:31:12 1512160272.508094: $GPGSA,A,3,1,10,11,12,14,18,24,25,31,32,138,,2.0,0.8,1.5*3B
2017-12-01 15:31:13 1512160273.435575: $GPZDA,203114.00,01,12,2017,00,00*65
2017-12-01 15:31:13 1512160273.435770: $GPGGA,203114,3946.9580,N,08404.9857,W,2,11,0.80,294.47,M,-33.324,M,,*7D
2017-12-01 15:31:13 1512160273.435837: $GPRMC,203114,A,3946.9580,N,08404.9857,W,0.0000,0.000,011217,,*39
2017-12-01 15:31:13 1512160273.435899: $GPGSA,A,3,1,10,11,12,14,18,24,25,31,32,138,,2.0,0.8,1.5*3B
2017-12-01 15:31:14 1512160274.762559: $GPGSV,3,1,11,01,10,322,38,10,76,120,47,11,10,307,36,12,24,078,44*79
2017-12-01 15:31:14 1512160274.762740: $GPGSV,3,2,11,14,50,283,42,18,43,130,47,24,19,045,45,25,25,120,46*77
2017-12-01 15:31:14 1512160274.762807: $GPGSV,3,3,11,31,28,210,47,32,65,313,48,138,38,213,46*7D
2017-12-01 15:31:14 1512160274.876051: $GPZDA,203115.00,01,12,2017,00,00*64
2017-12-01 15:31:14 1512160274.876228: $GPGGA,203115,3946.9580,N,08404.9857,W,2,11,0.80,294.47,M,-33.324,M,,*7C
2017-12-01 15:31:14 1512160274.876296: $GPRMC,203115,A,3946.9580,N,08404.9857,W,0.0000,0.000,011217,,*38
2017-12-01 15:31:14 1512160274.876375: $GPGSA,A,3,1,10,11,12,14,18,24,25,31,32,138,,2.0,0.8,1.5*3B
2017-12-01 15:31:15 1512160275.435001: $GPZDA,203116.00,01,12,2017,00,00*67
2017-12-01 15:31:15 1512160275.435168: $GPGGA,203116,3946.9580,N,08404.9857,W,2,11,0.80,294.47,M,-33.324,M,,*7F
2017-12-01 15:31:15 1512160275.435235: $GPRMC,203116,A,3946.9580,N,08404.9857,W,0.0000,0.000,011217,,*3B
2017-12-01 15:31:15 1512160275.435296: $GPGSA,A,3,1,10,11,12,14,18,24,25,31,32,138,,2.0,0.8,1.5*3B
2017-12-01 15:31:16 1512160276.434432: $GPZDA,203117.00,01,12,2017,00,00*66
2017-12-01 15:31:16 1512160276.434627: $GPGGA,203117,3946.9580,N,08404.9857,W,2,11,0.80,294.47,M,-33.324,M,,*7E
2017-12-01 15:31:16 1512160276.434695: $GPRMC,203117,A,3946.9580,N,08404.9857,W,0.0000,0.000,011217,,*3A
2017-12-01 15:31:16 1512160276.434757: $GPGSA,A,3,1,10,11,12,14,18,24,25,31,32,138,,2.0,0.8,1.5*3B
2017-12-01 15:31:17 1512160277.775547: $GPGSV,3,1,11,01,10,322,41,10,76,120,47,11,10,307,36,12,24,078,44*77
2017-12-01 15:31:17 1512160277.775848: $GPGSV,3,2,11,14,50,283,42,18,43,130,47,24,19,045,45,25,25,120,46*77
2017-12-01 15:31:17 1512160277.775935: $GPGSV,3,3,11,31,28,210,47,32,65,313,48,138,38,213,46*7D
2017-12-01 15:31:17 1512160277.888816: $GPZDA,203118.00,01,12,2017,00,00*69
2017-12-01 15:31:17 1512160277.888987: $GPGGA,203118,3946.9580,N,08404.9857,W,2,11,0.80,294.47,M,-33.324,M,,*71
2017-12-01 15:31:17 1512160277.889053: $GPRMC,203118,A,3946.9580,N,08404.9857,W,0.0000,0.000,011217,,*35
2017-12-01 15:31:17 1512160277.889114: $GPGSA,A,3,1,10,11,12,14,18,24,25,31,32,138,,2.0,0.8,1.5*3B
2017-12-01 15:31:18 1512160278.429760: $GPZDA,203119.00,01,12,2017,00,00*68
2017-12-01 15:31:18 1512160278.429933: $GPGGA,203119,3946.9580,N,08404.9857,W,2,11,0.80,294.47,M,-33.324,M,,*70
2017-12-01 15:31:18 1512160278.430000: $GPRMC,203119,A,3946.9580,N,08404.9857,W,0.0000,0.000,011217,,*34
2017-12-01 15:31:18 1512160278.430060: $GPGSA,A,3,1,10,11,12,14,18,24,25,31,32,138,,2.0,0.8,1.5*3B
2017-12-01 15:31:19 1512160279.433059: $GPZDA,203120.00,01,12,2017,00,00*62
2017-12-01 15:31:19 1512160279.433228: $GPGGA,203120,3946.9580,N,08404.9857,W,2,11,0.80,294.47,M,-33.324,M,,*7A
2017-12-01 15:31:19 1512160279.433295: $GPRMC,203120,A,3946.9580,N,08404.9857,W,0.0000,0.000,011217,,*3E
2017-12-01 15:31:19 1512160279.433376: $GPGSA,A,3,1,10,11,12,14,18,24,25,31,32,138,,2.0,0.8,1.5*3B
2017-12-01 15:31:20 1512160280.770028: $GPGSV,3,1,11,01,10,322,42,10,76,120,48,11,10,307,36,12,24,078,44*7B
2017-12-01 15:31:20 1512160280.770207: $GPGSV,3,2,11,14,50,283,42,18,43,130,47,24,19,045,44,25,25,120,46*76
2017-12-01 15:31:20 1512160280.770274: $GPGSV,3,3,11,31,28,210,47,32,65,313,48,138,38,213,45*7E
2017-12-01 15:31:20 1512160280.883428: $GPZDA,203121.00,01,12,2017,00,00*63
2017-12-01 15:31:20 1512160280.883586: $GPGGA,203121,3946.9580,N,08404.9857,W,2,11,0.80,294.47,M,-33.324,M,,*7B
2017-12-01 15:31:20 1512160280.883652: $GPRMC,203121,A,3946.9580,N,08404.9857,W,0.0000,0.000,011217,,*3F
2017-12-01 15:31:20 1512160280.883712: $GPGSA,A,3,1,10,11,12,14,18,24,25,31,32,138,,2.0,0.8,1.5*3B
2017-12-01 15:31:21 1512160281.434290: $GPZDA,203122.00,01,12,2017,00,00*60
2017-12-01 15:31:21 1512160281.434504: $GPGGA,203122,3946.9580,N,08404.9857,W,2,11,0.80,294.47,M,-33.324,M,,*78
2017-12-01 15:31:21 1512160281.434570: $GPRMC,203122,A,3946.9580,N,08404.9857,W,0.0000,0.000,011217,,*3C
2017-12-01 15:31:21 1512160281.434631: $GPGSA,A,3,1,10,11,12,14,18,24,25,31,32,138,,2.0,0.8,1.5*3B
