2017-12-01 11:50:46 1512147046.677157: {"class":"VERSION","release":"3.16","rev":"3.16-4","proto_major":3,"proto_minor":11}
2017-12-01 11:50:46 1512147046.677691: {"class":"DEVICES","devices":[{"class":"DEVICE","path":"/dev/ttyUSB0","driver":"SiRF","subtype":"9\u0006GSD4e_4.1.2-P1_RPATCH.05-F-GPS-4R-1510281 11/03/2015 307","activated":"2017-12-01T16:50:46.653Z","flags":1,"native":1,"bps":4800,"parity":"N","stopbits":1,"cycle":1.00}]}
2017-12-01 11:50:46 1512147046.677875: {"class":"WATCH","enable":true,"json":false,"nmea":true,"raw":0,"scaled":false,"timing":false,"split24":false,"pps":false}
2017-12-01 11:50:47 1512147047.884147: $GPGSV,3,1,12,10,15,274,28,13,40,048,38,15,72,063,37,18,46,288,35*78
2017-12-01 11:50:47 1512147047.884330: $GPGSV,3,2,12,20,60,055,34,21,70,301,37,24,23,147,36,27,10,322,33*7D
2017-12-01 11:50:47 1512147047.884396: $GPGSV,3,3,12,29,21,193,36,05,11,079,00,04,10,132,00,138,38,213,00*43
2017-12-01 11:50:47 1512147047.997811: $GPZDA,165047.99,01,12,2017,00,00*61
2017-12-01 11:50:47 1512147047.997975: $GPGGA,165047,3946.9576,N,08404.9862,W,1,09,0.80,301.62,M,-33.324,M,,*76
2017-12-01 11:50:47 1512147047.998040: $GPRMC,165047,A,3946.9576,N,08404.9862,W,0.2365,125.883,011217,,*35
2017-12-01 11:50:47 1512147047.998102: $GPGSA,A,3,10,13,15,18,20,21,24,27,29,,,,2.0,0.8,1.5*3B
2017-12-01 11:50:48 1512147048.804127: $GPZDA,165049.00,01,12,2017,00,00*6F
2017-12-01 11:50:48 1512147048.804296: $GPGGA,165049,3946.9576,N,08404.9862,W,1,09,0.80,301.62,M,-33.324,M,,*78
2017-12-01 11:50:48 1512147048.804362: $GPRMC,165049,A,3946.9576,N,08404.9862,W,0.0407,322.014,011217,,*39
2017-12-01 11:50:48 1512147048.804423: $GPGSA,A,3,10,13,15,18,20,21,24,27,29,,,,2.0,0.8,1.5*3B
2017-12-01 11:50:48 1512147048.804480: $GPGBS,165049,10.70,M,15.43,M,35.28,M*08
2017-12-01 11:50:49 1512147049.406294: $GPZDA,165050.00,01,12,2017,00,00*67
2017-12-01 11:50:49 1512147049.406478: $GPGGA,165050,3946.9579,N,08404.9854,W,1,09,0.80,300.93,M,-33.324,M,,*75
2017-12-01 11:50:49 1512147049.406561: $GPRMC,165050,A,3946.9579,N,08404.9854,W,0.0407,322.014,011217,,*3B
2017-12-01 11:50:49 1512147049.406657: $GPGSA,A,3,10,13,15,18,20,21,24,27,29,,,,2.0,0.8,1.5*3B
2017-12-01 11:50:49 1512147049.406718: $GPGBS,165050,10.70,M,15.43,M,35.28,M*00
2017-12-01 11:50:50 1512147050.741931: $GPGSV,3,1,12,10,15,274,37,13,40,048,46,15,72,063,46,18,46,288,45*7E
2017-12-01 11:50:50 1512147050.742110: $GPGSV,3,2,12,20,60,055,43,21,70,301,46,24,23,147,44,27,10,322,42*78
2017-12-01 11:50:50 1512147050.742176: $GPGSV,3,3,12,29,21,193,45,05,11,079,21,04,10,132,00,138,38,213,47*47
2017-12-01 11:50:50 1512147050.854111: $GPZDA,165051.00,01,12,2017,00,00*66
2017-12-01 11:50:50 1512147050.854292: $GPGGA,165051,3946.9575,N,08404.9854,W,1,11,0.80,300.29,M,-33.324,M,,*70
2017-12-01 11:50:50 1512147050.854359: $GPRMC,165051,A,3946.9575,N,08404.9854,W,0.0000,0.000,011217,,*33
2017-12-01 11:50:50 1512147050.854427: $GPGSA,A,3,10,13,15,18,20,21,24,27,29,5,138,,2.0,0.8,1.5*34
2017-12-01 11:50:51 1512147051.480657: $GPZDA,165052.00,01,12,2017,00,00*65
2017-12-01 11:50:51 1512147051.480856: $GPGGA,165052,3946.9578,N,08404.9853,W,1,11,0.80,299.53,M,-33.324,M,,*75
2017-12-01 11:50:51 1512147051.480947: $GPRMC,165052,A,3946.9578,N,08404.9853,W,0.0000,0.000,011217,,*3A
2017-12-01 11:50:51 1512147051.481013: $GPGSA,A,3,10,13,15,18,20,21,24,27,29,5,138,,2.0,0.8,1.5*34
2017-12-01 11:50:52 1512147052.406371: $GPZDA,165053.00,01,12,2017,00,00*64
2017-12-01 11:50:52 1512147052.406561: $GPGGA,165053,3946.9584,N,08404.9843,W,2,11,1.00,295.27,M,-33.324,M,,*73
2017-12-01 11:50:52 1512147052.406631: $GPRMC,165053,A,3946.9584,N,08404.9843,W,0.0000,0.000,011217,,*39
2017-12-01 11:50:52 1512147052.406692: $GPGSA,A,3,10,13,15,18,20,21,24,27,29,5,138,,2.0,1.0,1.5*3D
2017-12-01 11:50:52 1512147052.406750: $GPGBS,165053,2.67,M,3.86,M,8.82,M*36
2017-12-01 11:50:53 1512147053.743336: $GPGSV,3,1,12,10,15,274,38,13,40,048,46,15,72,063,46,18,46,288,44*70
2017-12-01 11:50:53 1512147053.743531: $GPGSV,3,2,12,20,60,055,43,21,70,301,46,24,23,147,44,27,10,322,42*78
2017-12-01 11:50:53 1512147053.743599: $GPGSV,3,3,12,29,21,193,45,05,11,079,22,04,10,132,00,138,38,213,46*45
2017-12-01 11:50:53 1512147053.856747: $GPZDA,165054.00,01,12,2017,00,00*63
2017-12-01 11:50:53 1512147053.856918: $GPGGA,165054,3946.9584,N,08404.9843,W,2,11,0.80,295.27,M,-33.324,M,,*7D
2017-12-01 11:50:53 1512147053.856984: $GPRMC,165054,A,3946.9584,N,08404.9843,W,0.0000,0.000,011217,,*3E
2017-12-01 11:50:53 1512147053.857047: $GPGSA,A,3,10,13,15,18,20,21,24,27,29,5,138,,2.0,0.8,1.5*34
2017-12-01 11:50:54 1512147054.409042: $GPZDA,165055.00,01,12,2017,00,00*62
2017-12-01 11:50:54 1512147054.409242: $GPGGA,165055,3946.9584,N,08404.9843,W,2,11,0.80,295.27,M,-33.324,M,,*7C
2017-12-01 11:50:54 1512147054.409311: $GPRMC,165055,A,3946.9584,N,08404.9843,W,0.0000,0.000,011217,,*3F
2017-12-01 11:50:54 1512147054.409373: $GPGSA,A,3,10,13,15,18,20,21,24,27,29,5,138,,2.0,0.8,1.5*34
2017-12-01 11:50:55 1512147055.407288: $GPZDA,165056.00,01,12,2017,00,00*61
2017-12-01 11:50:55 1512147055.407469: $GPGGA,165056,3946.9584,N,08404.9843,W,2,11,0.80,295.27,M,-33.324,M,,*7F
2017-12-01 11:50:55 1512147055.407543: $GPRMC,165056,A,3946.9584,N,08404.9843,W,0.0000,0.000,011217,,*3C
2017-12-01 11:50:55 1512147055.407607: $GPGSA,A,3,10,13,15,18,20,21,24,27,29,5,138,,2.0,0.8,1.5*34
