2017-12-31 18:56:32 1514764592.479517: {"class":"VERSION","release":"3.16","rev":"3.16-4","proto_major":3,"proto_minor":11}
2017-12-31 18:56:32 1514764592.479982: {"class":"DEVICES","devices":[{"class":"DEVICE","path":"/dev/ttyUSB0","driver":"SiRF","activated":"2017-12-31T23:56:32.468Z","flags":1,"native":1,"bps":4800,"parity":"N","stopbits":1,"cycle":1.00}]}
2017-12-31 18:56:32 1514764592.480084: {"class":"WATCH","enable":true,"json":false,"nmea":true,"raw":0,"scaled":false,"timing":false,"split24":false,"pps":false}
2017-12-31 18:56:33 1514764593.688548: $GPGSV,3,1,11,22,06,202,24,23,69,274,37,09,38,309,32,03,16,219,33*77
2017-12-31 18:56:33 1514764593.688757: $GPGSV,3,2,11,16,74,036,44,08,18,175,43,31,15,090,32,27,42,141,40*71
2017-12-31 18:56:33 1514764593.688823: $GPGSV,3,3,11,07,12,286,47,26,42,048,46,135,22,240,44*7F
2017-12-31 18:56:33 1514764593.802266: $GPZDA,235634.00,31,12,2017,00,00*66
2017-12-31 18:56:33 1514764593.802436: $GPGGA,235634,3946.9579,N,08404.9825,W,2,11,0.80,311.92,M,-33.324,M,,*7A
2017-12-31 18:56:33 1514764593.802502: $GPRMC,235634,A,3946.9579,N,08404.9825,W,0.0000,0.000,311217,,*39
2017-12-31 18:56:33 1514764593.802586: $GPGSA,A,3,22,23,9,3,16,8,31,27,7,26,135,,1.7,0.8,1.3*09
2017-12-31 18:56:34 1514764594.392783: $GPZDA,235635.00,31,12,2017,00,00*67
2017-12-31 18:56:34 1514764594.392960: $GPGGA,235635,3946.9579,N,08404.9825,W,2,11,0.80,311.92,M,-33.324,M,,*7B
2017-12-31 18:56:34 1514764594.393027: $GPRMC,235635,A,3946.9579,N,08404.9825,W,0.0000,0.000,311217,,*38
2017-12-31 18:56:34 1514764594.393088: $GPGSA,A,3,22,23,9,3,16,8,31,27,7,26,135,,1.7,0.8,1.3*09
2017-12-31 18:56:35 1514764595.390954: $GPZDA,235636.00,31,12,2017,00,00*64
2017-12-31 18:56:35 1514764595.391123: $GPGGA,235636,3946.9579,N,08404.9825,W,2,11,0.80,311.92,M,-33.324,M,,*78
2017-12-31 18:56:35 1514764595.391190: $GPRMC,235636,A,3946.9579,N,08404.9825,W,0.0000,0.000,311217,,*3B
2017-12-31 18:56:35 1514764595.391251: $GPGSA,A,3,22,23,9,3,16,8,31,27,7,26,135,,1.7,0.8,1.3*09
2017-12-31 18:56:36 1514764596.681372: $GPGSV,3,1,11,22,06,202,23,23,69,274,37,09,38,309,38,03,16,219,33*7A
2017-12-31 18:56:36 1514764596.681572: $GPGSV,3,2,11,16,74,036,44,08,18,175,43,31,15,090,32,27,42,141,40*71
2017-12-31 18:56:36 1514764596.681640: $GPGSV,3,3,11,07,12,286,47,26,42,048,46,135,22,240,43*78
2017-12-31 18:56:36 1514764596.795105: $GPZDA,235637.00,31,12,2017,00,00*65
2017-12-31 18:56:36 1514764596.795283: $GPGGA,235637,3946.9579,N,08404.9825,W,2,11,0.80,311.92,M,-33.324,M,,*79
2017-12-31 18:56:36 1514764596.795351: $GPRMC,235637,A,3946.9579,N,08404.9825,W,0.0000,0.000,311217,,*3A
2017-12-31 18:56:36 1514764596.795413: $GPGSA,A,3,22,23,9,3,16,8,31,27,7,26,135,,1.7,0.8,1.3*09
2017-12-31 18:56:37 1514764597.383405: $GPZDA,235638.00,31,12,2017,00,00*6A
2017-12-31 18:56:37 1514764597.383589: $GPGGA,235638,3946.9579,N,08404.9825,W,2,11,0.80,311.92,M,-33.324,M,,*76
2017-12-31 18:56:37 1514764597.383656: $GPRMC,235638,A,3946.9579,N,08404.9825,W,0.0000,0.000,311217,,*35
2017-12-31 18:56:37 1514764597.383736: $GPGSA,A,3,22,23,9,3,16,8,31,27,7,26,135,,1.7,0.8,1.3*09
2017-12-31 18:56:38 1514764598.391795: $GPZDA,235639.00,31,12,2017,00,00*6B
2017-12-31 18:56:38 1514764598.391961: $GPGGA,235639,3946.9579,N,08404.9825,W,2,11,0.80,311.92,M,-33.324,M,,*77
2017-12-31 18:56:38 1514764598.392027: $GPRMC,235639,A,3946.9579,N,08404.9825,W,0.0000,0.000,311217,,*34
2017-12-31 18:56:38 1514764598.392088: $GPGSA,A,3,22,23,9,3,16,8,31,27,7,26,135,,1.7,0.8,1.3*09
2017-12-31 18:56:39 1514764599.727260: $GPGSV,3,1,11,22,06,202,23,23,69,274,38,09,38,309,35,03,16,219,34*7F
2017-12-31 18:56:39 1514764599.727438: $GPGSV,3,2,11,16,74,036,45,08,18,175,43,31,15,090,32,27,42,141,40*70
2017-12-31 18:56:39 1514764599.727503: $GPGSV,3,3,11,07,12,286,47,26,42,048,46,135,22,240,43*78
2017-12-31 18:56:39 1514764599.840971: $GPZDA,235640.00,31,12,2017,00,00*65
2017-12-31 18:56:39 1514764599.841125: $GPGGA,235640,3946.9579,N,08404.9825,W,2,11,0.80,311.92,M,-33.324,M,,*79
2017-12-31 18:56:39 1514764599.841190: $GPRMC,235640,A,3946.9579,N,08404.9825,W,0.0000,0.000,311217,,*3A
2017-12-31 18:56:39 1514764599.841305: $GPGSA,A,3,22,23,9,3,16,8,31,27,7,26,135,,1.7,0.8,1.3*09
2017-12-31 18:56:40 1514764600.466246: $GPZDA,235641.00,31,12,2017,00,00*64
2017-12-31 18:56:40 1514764600.466408: $GPGGA,235641,3946.9579,N,08404.9825,W,2,11,0.80,311.92,M,-33.324,M,,*78
2017-12-31 18:56:40 1514764600.466474: $GPRMC,235641,A,3946.9579,N,08404.9825,W,0.0000,0.000,311217,,*3B
2017-12-31 18:56:40 1514764600.466558: $GPGSA,A,3,22,23,9,3,16,8,31,27,7,26,135,,1.7,0.8,1.3*09
2017-12-31 18:56:41 1514764601.392156: $GPZDA,235642.00,31,12,2017,00,00*67
2017-12-31 18:56:41 1514764601.392320: $GPGGA,235642,3946.9579,N,08404.9825,W,2,11,0.80,311.92,M,-33.324,M,,*7B
2017-12-31 18:56:41 1514764601.392386: $GPRMC,235642,A,3946.9579,N,08404.9825,W,0.0000,0.000,311217,,*38
2017-12-31 18:56:41 1514764601.392446: $GPGSA,A,3,22,23,9,3,16,8,31,27,7,26,135,,1.7,0.8,1.3*09
