2017-12-29 11:49:57 1514566197.306073: {"class":"VERSION","release":"3.16","rev":"3.16-4","proto_major":3,"proto_minor":11}
2017-12-29 11:49:57 1514566197.306476: {"class":"DEVICES","devices":[{"class":"DEVICE","path":"/dev/ttyUSB0","driver":"SiRF","subtype":"9\u0006GSD4e_4.1.2-P1_RPATCH.05-F-GPS-4R-1510281 11/03/2015 307","activated":"2017-12-29T16:49:57.287Z","flags":1,"native":1,"bps":4800,"parity":"N","stopbits":1,"cycle":1.00}]}
2017-12-29 11:49:57 1514566197.306598: {"class":"WATCH","enable":true,"json":false,"nmea":true,"raw":0,"scaled":false,"timing":false,"split24":false,"pps":false}
2017-12-29 11:49:57 1514566197.401162: $GPZDA,164958.00,29,12,2017,00,00*6D
2017-12-29 11:49:57 1514566197.401326: $GPGGA,164958,3946.9627,N,08404.9860,W,2,11,0.80,319.97,M,-33.324,M,,*7C
2017-12-29 11:49:57 1514566197.401391: $GPRMC,164958,A,3946.9627,N,08404.9860,W,0.0000,0.000,291217,,*3B
2017-12-29 11:49:57 1514566197.401451: $GPGSA,A,3,10,14,15,18,20,21,24,32,27,8,138,,1.7,0.8,1.3*36
2017-12-29 11:49:58 1514566198.741507: $GPGSV,3,1,11,10,53,313,45,14,15,240,36,15,24,058,45,18,77,030,45*7B
2017-12-29 11:49:58 1514566198.741688: $GPGSV,3,2,11,20,23,106,49,21,48,183,47,24,53,084,51,32,33,249,35*77
2017-12-29 11:49:58 1514566198.741754: $GPGSV,3,3,11,27,15,276,34,08,08,310,32,138,38,213,44*7E
2017-12-29 11:49:58 1514566198.854908: $GPZDA,164959.00,29,12,2017,00,00*6C
2017-12-29 11:49:58 1514566198.855088: $GPGGA,164959,3946.9627,N,08404.9860,W,2,11,0.80,319.97,M,-33.324,M,,*7D
2017-12-29 11:49:58 1514566198.855155: $GPRMC,164959,A,3946.9627,N,08404.9860,W,0.0000,0.000,291217,,*3A
2017-12-29 11:49:58 1514566198.855215: $GPGSA,A,3,10,14,15,18,20,21,24,32,27,8,138,,1.7,0.8,1.3*36
2017-12-29 11:49:59 1514566199.480241: $GPZDA,165000.00,29,12,2017,00,00*68
2017-12-29 11:49:59 1514566199.480411: $GPGGA,165000,3946.9627,N,08404.9860,W,2,11,0.80,319.97,M,-33.324,M,,*79
2017-12-29 11:49:59 1514566199.480478: $GPRMC,165000,A,3946.9627,N,08404.9860,W,0.0000,0.000,291217,,*3E
2017-12-29 11:49:59 1514566199.480539: $GPGSA,A,3,10,14,15,18,20,21,24,32,27,8,138,,1.7,0.8,1.3*36
2017-12-29 11:50:00 1514566200.406382: $GPZDA,165001.00,29,12,2017,00,00*69
2017-12-29 11:50:00 1514566200.406553: $GPGGA,165001,3946.9627,N,08404.9860,W,2,11,0.80,319.97,M,-33.324,M,,*78
2017-12-29 11:50:00 1514566200.406620: $GPRMC,165001,A,3946.9627,N,08404.9860,W,0.0000,0.000,291217,,*3F
2017-12-29 11:50:00 1514566200.406680: $GPGSA,A,3,10,14,15,18,20,21,24,32,27,8,138,,1.7,0.8,1.3*36
2017-12-29 11:50:01 1514566201.741828: $GPGSV,3,1,11,10,53,313,45,14,15,240,36,15,24,058,45,18,77,030,45*7B
2017-12-29 11:50:01 1514566201.742005: $GPGSV,3,2,11,20,23,106,49,21,48,183,47,24,53,084,51,32,33,249,35*77
2017-12-29 11:50:01 1514566201.742072: $GPGSV,3,3,11,27,15,276,34,08,08,310,33,138,38,213,45*7E
2017-12-29 11:50:01 1514566201.855267: $GPZDA,165002.00,29,12,2017,00,00*6A
2017-12-29 11:50:01 1514566201.855433: $GPGGA,165002,3946.9627,N,08404.9860,W,2,11,0.80,319.97,M,-33.324,M,,*7B
2017-12-29 11:50:01 1514566201.855499: $GPRMC,165002,A,3946.9627,N,08404.9860,W,0.0000,0.000,291217,,*3C
2017-12-29 11:50:01 1514566201.855559: $GPGSA,A,3,10,14,15,18,20,21,24,32,27,8,138,,1.7,0.8,1.3*36
2017-12-29 11:50:02 1514566202.388999: $GPZDA,165003.02,29,12,2017,00,00*69
2017-12-29 11:50:02 1514566202.389167: $GPGGA,165003,3946.9627,N,08404.9860,W,2,11,0.80,319.97,M,-33.324,M,,*7A
2017-12-29 11:50:02 1514566202.389233: $GPRMC,165003,A,3946.9627,N,08404.9860,W,0.1867,0.000,291217,,*35
2017-12-29 11:50:02 1514566202.389294: $GPGSA,A,3,10,14,15,18,20,21,24,32,27,8,138,,1.7,0.8,1.3*36
2017-12-29 11:50:03 1514566203.383473: $GPZDA,165004.02,29,12,2017,00,00*6E
2017-12-29 11:50:03 1514566203.383639: $GPGGA,165004,3946.9627,N,08404.9860,W,2,11,0.80,319.97,M,-33.324,M,,*7D
2017-12-29 11:50:03 1514566203.383705: $GPRMC,165004,A,3946.9627,N,08404.9860,W,0.3423,4.196,291217,,*36
2017-12-29 11:50:03 1514566203.383765: $GPGSA,A,3,10,14,15,18,20,21,24,32,27,8,138,,1.7,0.8,1.3*36
2017-12-29 11:50:04 1514566204.719741: $GPGSV,3,1,11,10,53,313,45,14,15,240,36,15,24,058,45,18,77,030,45*7B
2017-12-29 11:50:04 1514566204.719949: $GPGSV,3,2,11,20,23,106,49,21,48,183,47,24,53,084,51,32,33,249,35*77
2017-12-29 11:50:04 1514566204.720018: $GPGSV,3,3,11,27,15,276,35,08,08,310,32,138,38,213,44*7F
2017-12-29 11:50:04 1514566204.833449: $GPZDA,165005.02,29,12,2017,00,00*6F
2017-12-29 11:50:04 1514566204.833628: $GPGGA,165005,3946.9623,N,08404.9854,W,2,11,0.80,320.81,M,-33.324,M,,*72
2017-12-29 11:50:04 1514566204.833694: $GPRMC,165005,A,3946.9623,N,08404.9854,W,0.0000,0.000,291217,,*38
2017-12-29 11:50:04 1514566204.833755: $GPGSA,A,3,10,14,15,18,20,21,24,32,27,8,138,,1.7,0.8,1.3*36
2017-12-29 11:50:05 1514566205.400470: $GPZDA,165006.00,29,12,2017,00,00*6E
2017-12-29 11:50:05 1514566205.400641: $GPGGA,165006,3946.9623,N,08404.9854,W,2,11,0.80,320.81,M,-33.324,M,,*71
2017-12-29 11:50:05 1514566205.400709: $GPRMC,165006,A,3946.9623,N,08404.9854,W,0.0000,0.000,291217,,*3B
2017-12-29 11:50:05 1514566205.400769: $GPGSA,A,3,10,14,15,18,20,21,24,32,27,8,138,,1.7,0.8,1.3*36
2017-12-29 11:50:06 1514566206.406517: $GPZDA,165007.00,29,12,2017,00,00*6F
2017-12-29 11:50:06 1514566206.406701: $GPGGA,165007,3946.9614,N,08404.9840,W,2,11,0.80,319.69,M,-33.324,M,,*7D
2017-12-29 11:50:06 1514566206.406768: $GPRMC,165007,A,3946.9614,N,08404.9840,W,0.2422,93.794,291217,,*0D
2017-12-29 11:50:06 1514566206.406829: $GPGSA,A,3,10,14,15,18,20,21,24,32,27,8,138,,1.7,0.8,1.3*36
2017-12-29 11:50:07 1514566207.724303: $GPGSV,3,1,11,10,53,313,46,14,15,240,35,15,24,058,46,18,77,030,46*7B
2017-12-29 11:50:07 1514566207.724488: $GPGSV,3,2,11,20,23,106,49,21,48,183,47,24,53,084,51,32,33,249,36*74
2017-12-29 11:50:07 1514566207.724553: $GPGSV,3,3,11,27,15,276,35,08,08,310,32,138,38,213,44*7F
2017-12-29 11:50:07 1514566207.837704: $GPZDA,165008.00,29,12,2017,00,00*60
2017-12-29 11:50:07 1514566207.837873: $GPGGA,165008,3946.9614,N,08404.9840,W,2,11,0.80,319.69,M,-33.324,M,,*72
2017-12-29 11:50:07 1514566207.837940: $GPRMC,165008,A,3946.9614,N,08404.9840,W,0.0000,0.000,291217,,*34
2017-12-29 11:50:07 1514566207.838000: $GPGSA,A,3,10,14,15,18,20,21,24,32,27,8,138,,1.7,0.8,1.3*36
2017-12-29 11:50:08 1514566208.406044: $GPZDA,165009.00,29,12,2017,00,00*61
2017-12-29 11:50:08 1514566208.406221: $GPGGA,165009,3946.9614,N,08404.9840,W,2,11,0.80,319.69,M,-33.324,M,,*73
2017-12-29 11:50:08 1514566208.406288: $GPRMC,165009,A,3946.9614,N,08404.9840,W,0.0000,0.000,291217,,*35
2017-12-29 11:50:08 1514566208.406349: $GPGSA,A,3,10,14,15,18,20,21,24,32,27,8,138,,1.7,0.8,1.3*36
2017-12-29 11:50:09 1514566209.390366: $GPZDA,165010.00,29,12,2017,00,00*69
2017-12-29 11:50:09 1514566209.390523: $GPGGA,165010,3946.9614,N,08404.9833,W,2,11,0.80,319.77,M,-33.324,M,,*70
2017-12-29 11:50:09 1514566209.390588: $GPRMC,165010,A,3946.9614,N,08404.9833,W,0.0000,0.000,291217,,*39
2017-12-29 11:50:09 1514566209.390648: $GPGSA,A,3,10,14,15,18,20,21,24,32,27,8,138,,1.7,0.8,1.3*36
2017-12-29 11:50:10 1514566210.720869: $GPGSV,3,1,11,10,53,313,46,14,15,240,35,15,24,058,46,18,77,030,46*7B
2017-12-29 11:50:10 1514566210.721098: $GPGSV,3,2,11,20,23,106,48,21,48,183,47,24,53,084,51,32,33,249,36*75
2017-12-29 11:50:10 1514566210.721174: $GPGSV,3,3,11,27,15,276,35,08,08,310,32,138,38,213,44*7F
2017-12-29 11:50:10 1514566210.833360: $GPZDA,165011.00,29,12,2017,00,00*68
2017-12-29 11:50:10 1514566210.833515: $GPGGA,165011,3946.9614,N,08404.9833,W,2,11,0.80,319.77,M,-33.324,M,,*71
2017-12-29 11:50:10 1514566210.833578: $GPRMC,165011,A,3946.9614,N,08404.9833,W,0.0000,0.000,291217,,*38
2017-12-29 11:50:10 1514566210.833638: $GPGSA,A,3,10,14,15,18,20,21,24,32,27,8,138,,1.7,0.8,1.3*36
2017-12-29 11:50:11 1514566211.405127: $GPZDA,165012.00,29,12,2017,00,00*6B
2017-12-29 11:50:11 1514566211.405285: $GPGGA,165012,3946.9614,N,08404.9833,W,2,11,0.80,319.77,M,-33.324,M,,*72
2017-12-29 11:50:11 1514566211.405350: $GPRMC,165012,A,3946.9614,N,08404.9833,W,0.0000,0.000,291217,,*3B
2017-12-29 11:50:11 1514566211.405410: $GPGSA,A,3,10,14,15,18,20,21,24,32,27,8,138,,1.7,0.8,1.3*36
