2017-11-16 14:42:48 1510861368.439537: {"class":"VERSION","release":"3.17","rev":"3.17","proto_major":3,"proto_minor":12}
2017-11-16 14:42:48 1510861368.440254: {"class":"DEVICES","devices":[{"class":"DEVICE","path":"/dev/ttyUSB0","driver":"SiRF","subtype":"9\u0006GSD4e_4.1.2-P1_RPATCH.05-F-GPS-4R-1510281 11/03/2015 307","activated":"2017-11-16T19:42:48.425Z","flags":1,"native":1,"bps":4800,"parity":"N","stopbits":1,"cycle":1.00}]}
2017-11-16 14:42:48 1510861368.440449: {"class":"WATCH","enable":true,"json":false,"nmea":true,"raw":0,"scaled":false,"timing":false,"split24":false,"pps":false}
2017-11-16 14:42:48 1510861368.875032: $GPGSV,3,1,11,08,08,310,29,10,52,312,50,15,26,057,51,18,77,021,44*7D
2017-11-16 14:42:48 1510861368.875204: $GPGSV,3,2,11,21,49,183,47,20,23,106,46,24,53,087,48,27,15,276,42*7E
2017-11-16 14:42:48 1510861368.875264: $GPGSV,3,3,11,32,31,247,47,14,15,240,42,138,38,213,44*78
2017-11-16 14:42:48 1510861368.988404: $GPZDA,194247.00,16,11,2017,00,00*68
2017-11-16 14:42:48 1510861368.988585: $GPGGA,194247,3946.9564,N,08404.9842,W,2,11,0.80,302.74,M,-33.324,M,,*75
2017-11-16 14:42:48 1510861368.988648: $GPRMC,194247,A,3946.9564,N,08404.9842,W,0.0000,0.000,161117,,*3A
2017-11-16 14:42:48 1510861368.988721: $GPGSA,A,3,8,10,15,18,21,20,24,27,32,14,138,,1.6,0.8,1.3*37
2017-11-16 14:42:49 1510861369.613711: $GPZDA,194248.00,16,11,2017,00,00*67
2017-11-16 14:42:49 1510861369.613871: $GPGGA,194248,3946.9564,N,08404.9842,W,2,11,0.80,302.74,M,-33.324,M,,*7A
2017-11-16 14:42:49 1510861369.613932: $GPRMC,194248,A,3946.9564,N,08404.9842,W,0.0000,0.000,161117,,*35
2017-11-16 14:42:49 1510861369.613988: $GPGSA,A,3,8,10,15,18,21,20,24,27,32,14,138,,1.6,0.8,1.3*37
2017-11-16 14:42:50 1510861370.503280: $GPZDA,194249.00,16,11,2017,00,00*66
2017-11-16 14:42:50 1510861370.503441: $GPGGA,194249,3946.9564,N,08404.9842,W,2,11,0.80,302.74,M,-33.324,M,,*7B
2017-11-16 14:42:50 1510861370.503525: $GPRMC,194249,A,3946.9564,N,08404.9842,W,0.0000,0.000,161117,,*34
2017-11-16 14:42:50 1510861370.503582: $GPGSA,A,3,8,10,15,18,21,20,24,27,32,14,138,,1.6,0.8,1.3*37
2017-11-16 14:42:51 1510861371.838949: $GPGSV,3,1,11,08,08,310,31,10,52,312,50,15,26,057,51,18,77,021,44*74
2017-11-16 14:42:51 1510861371.839121: $GPGSV,3,2,11,21,49,183,47,20,23,106,46,24,53,087,49,27,15,276,42*7F
2017-11-16 14:42:51 1510861371.839182: $GPGSV,3,3,11,32,31,247,48,14,15,240,42,138,38,213,44*77
2017-11-16 14:42:51 1510861371.952327: $GPZDA,194250.00,16,11,2017,00,00*6E
2017-11-16 14:42:51 1510861371.952574: $GPGGA,194250,3946.9564,N,08404.9842,W,2,11,0.80,302.74,M,-33.324,M,,*73
2017-11-16 14:42:51 1510861371.952636: $GPRMC,194250,A,3946.9564,N,08404.9842,W,0.0000,0.000,161117,,*3C
2017-11-16 14:42:51 1510861371.952692: $GPGSA,A,3,8,10,15,18,21,20,24,27,32,14,138,,1.6,0.8,1.3*37
2017-11-16 14:42:52 1510861372.503204: $GPZDA,194251.00,16,11,2017,00,00*6F
2017-11-16 14:42:52 1510861372.503404: $GPGGA,194251,3946.9564,N,08404.9842,W,2,11,0.80,302.74,M,-33.324,M,,*72
2017-11-16 14:42:52 1510861372.503486: $GPRMC,194251,A,3946.9564,N,08404.9842,W,0.0000,0.000,161117,,*3D
2017-11-16 14:42:52 1510861372.503544: $GPGSA,A,3,8,10,15,18,21,20,24,27,32,14,138,,1.6,0.8,1.3*37
2017-11-16 14:42:53 1510861373.502684: $GPZDA,194252.00,16,11,2017,00,00*6C
2017-11-16 14:42:53 1510861373.502859: $GPGGA,194252,3946.9564,N,08404.9842,W,2,11,0.80,302.74,M,-33.324,M,,*71
2017-11-16 14:42:53 1510861373.502920: $GPRMC,194252,A,3946.9564,N,08404.9842,W,0.0000,0.000,161117,,*3E
2017-11-16 14:42:53 1510861373.502976: $GPGSA,A,3,8,10,15,18,21,20,24,27,32,14,138,,1.6,0.8,1.3*37
2017-11-16 14:42:54 1510861374.867963: $GPGSV,3,1,11,08,08,310,32,10,52,312,50,15,26,057,51,18,77,021,44*77
2017-11-16 14:42:54 1510861374.868150: $GPGSV,3,2,11,21,49,183,47,20,23,106,45,24,53,087,48,27,15,276,42*7D
2017-11-16 14:42:54 1510861374.868247: $GPGSV,3,3,11,32,31,247,47,14,15,240,41,138,38,213,43*7C
2017-11-16 14:42:54 1510861374.981342: $GPZDA,194253.00,16,11,2017,00,00*6D
2017-11-16 14:42:54 1510861374.981635: $GPGGA,194253,3946.9564,N,08404.9842,W,2,11,0.80,302.74,M,-33.324,M,,*70
2017-11-16 14:42:54 1510861374.981873: $GPRMC,194253,A,3946.9564,N,08404.9842,W,0.0000,0.000,161117,,*3F
2017-11-16 14:42:54 1510861374.981986: $GPGSA,A,3,8,10,15,18,21,20,24,27,32,14,138,,1.6,0.8,1.3*37
2017-11-16 14:42:55 1510861375.537156: $GPZDA,194254.00,16,11,2017,00,00*6A
2017-11-16 14:42:55 1510861375.537391: $GPGGA,194254,3946.9564,N,08404.9842,W,2,11,0.80,302.74,M,-33.324,M,,*77
2017-11-16 14:42:55 1510861375.537463: $GPRMC,194254,A,3946.9564,N,08404.9842,W,0.0000,0.000,161117,,*38
2017-11-16 14:42:55 1510861375.537520: $GPGSA,A,3,8,10,15,18,21,20,24,27,32,14,138,,1.6,0.8,1.3*37
2017-11-16 14:42:56 1510861376.501691: $GPZDA,194255.00,16,11,2017,00,00*6B
2017-11-16 14:42:56 1510861376.501859: $GPGGA,194255,3946.9564,N,08404.9842,W,2,11,0.80,302.74,M,-33.324,M,,*76
2017-11-16 14:42:56 1510861376.501922: $GPRMC,194255,A,3946.9564,N,08404.9842,W,0.0000,0.000,161117,,*39
2017-11-16 14:42:56 1510861376.501977: $GPGSA,A,3,8,10,15,18,21,20,24,27,32,14,138,,1.6,0.8,1.3*37
2017-11-16 14:42:57 1510861377.838686: $GPGSV,3,1,11,08,08,310,37,10,52,312,50,15,26,057,51,18,77,021,44*72
2017-11-16 14:42:57 1510861377.838853: $GPGSV,3,2,11,21,49,183,47,20,23,106,46,24,53,087,48,27,15,276,42*7E
2017-11-16 14:42:57 1510861377.838913: $GPGSV,3,3,11,32,31,247,47,14,15,240,41,138,38,213,44*7B
2017-11-16 14:42:57 1510861377.953428: $GPZDA,194256.00,16,11,2017,00,00*68
2017-11-16 14:42:57 1510861377.953682: $GPGGA,194256,3946.9564,N,08404.9842,W,2,11,0.80,302.74,M,-33.324,M,,*75
2017-11-16 14:42:57 1510861377.953747: $GPRMC,194256,A,3946.9564,N,08404.9842,W,0.0000,0.000,161117,,*3A
2017-11-16 14:42:57 1510861377.953803: $GPGSA,A,3,8,10,15,18,21,20,24,27,32,14,138,,1.6,0.8,1.3*37
