2017-12-29 11:53:31 1514566411.369689: {"class":"VERSION","release":"3.16","rev":"3.16-4","proto_major":3,"proto_minor":11}
2017-12-29 11:53:31 1514566411.370034: {"class":"DEVICES","devices":[{"class":"DEVICE","path":"/dev/ttyUSB0","driver":"SiRF","subtype":"9\u0006GSD4e_4.1.2-P1_RPATCH.05-F-GPS-4R-1510281 11/03/2015 307","activated":"2017-12-29T16:53:31.346Z","flags":1,"native":1,"bps":4800,"parity":"N","stopbits":1,"cycle":1.00}]}
2017-12-29 11:53:31 1514566411.370151: {"class":"WATCH","enable":true,"json":false,"nmea":true,"raw":0,"scaled":false,"timing":false,"split24":false,"pps":false}
2017-12-29 11:53:31 1514566411.459413: $GPZDA,165332.00,29,12,2017,00,00*6A
2017-12-29 11:53:31 1514566411.459565: $GPGGA,165332,3946.9624,N,08404.9868,W,2,11,0.80,320.65,M,-33.324,M,,*77
2017-12-29 11:53:31 1514566411.459630: $GPRMC,165332,A,3946.9624,N,08404.9868,W,0.0000,0.000,291217,,*37
2017-12-29 11:53:31 1514566411.459690: $GPGSA,A,3,8,10,14,15,18,20,21,24,27,32,138,,1.7,0.8,1.3*36
2017-12-29 11:53:32 1514566412.442801: $GPZDA,165333.00,29,12,2017,00,00*6B
2017-12-29 11:53:32 1514566412.442960: $GPGGA,165333,3946.9624,N,08404.9868,W,2,11,0.80,320.65,M,-33.324,M,,*76
2017-12-29 11:53:32 1514566412.443027: $GPRMC,165333,A,3946.9624,N,08404.9868,W,0.0000,0.000,291217,,*36
2017-12-29 11:53:32 1514566412.443087: $GPGSA,A,3,8,10,14,15,18,20,21,24,27,32,138,,1.7,0.8,1.3*36
2017-12-29 11:53:33 1514566413.790497: $GPGSV,3,1,11,08,08,309,35,10,55,313,46,14,16,241,33,15,23,058,47*7B
2017-12-29 11:53:33 1514566413.790675: $GPGSV,3,2,11,18,77,037,44,20,22,108,48,21,46,183,47,24,53,082,50*75
2017-12-29 11:53:33 1514566413.790741: $GPGSV,3,3,11,27,14,274,38,32,34,250,35,138,38,213,44*75
2017-12-29 11:53:33 1514566413.903835: $GPZDA,165334.00,29,12,2017,00,00*6C
2017-12-29 11:53:33 1514566413.903989: $GPGGA,165334,3946.9624,N,08404.9868,W,2,11,0.80,320.65,M,-33.324,M,,*71
2017-12-29 11:53:33 1514566413.904054: $GPRMC,165334,A,3946.9624,N,08404.9868,W,0.0000,0.000,291217,,*31
2017-12-29 11:53:33 1514566413.904133: $GPGSA,A,3,8,10,14,15,18,20,21,24,27,32,138,,1.7,0.8,1.3*36
2017-12-29 11:53:34 1514566414.454801: $GPZDA,165335.00,29,12,2017,00,00*6D
2017-12-29 11:53:34 1514566414.454987: $GPGGA,165335,3946.9621,N,08404.9869,W,2,11,0.80,321.42,M,-33.324,M,,*70
2017-12-29 11:53:34 1514566414.455054: $GPRMC,165335,A,3946.9621,N,08404.9869,W,0.0000,0.000,291217,,*34
2017-12-29 11:53:34 1514566414.455114: $GPGSA,A,3,8,10,14,15,18,20,21,24,27,32,138,,1.7,0.8,1.3*36
2017-12-29 11:53:35 1514566415.443126: $GPZDA,165336.00,29,12,2017,00,00*6E
2017-12-29 11:53:35 1514566415.443300: $GPGGA,165336,3946.9621,N,08404.9869,W,2,11,0.80,321.42,M,-33.324,M,,*73
2017-12-29 11:53:35 1514566415.443385: $GPRMC,165336,A,3946.9621,N,08404.9869,W,0.0000,0.000,291217,,*37
2017-12-29 11:53:35 1514566415.443447: $GPGSA,A,3,8,10,14,15,18,20,21,24,27,32,138,,1.7,0.8,1.3*36
2017-12-29 11:53:36 1514566416.778838: $GPGSV,3,1,11,08,08,309,31,10,55,313,45,14,16,241,31,15,23,058,47*7E
2017-12-29 11:53:36 1514566416.779023: $GPGSV,3,2,11,18,77,037,44,20,22,108,49,21,46,183,47,24,53,082,50*74
2017-12-29 11:53:36 1514566416.779089: $GPGSV,3,3,11,27,14,274,38,32,34,250,35,138,38,213,45*74
2017-12-29 11:53:36 1514566416.892589: $GPZDA,165337.00,29,12,2017,00,00*6F
2017-12-29 11:53:36 1514566416.892734: $GPGGA,165337,3946.9621,N,08404.9869,W,2,11,0.80,321.42,M,-33.324,M,,*72
2017-12-29 11:53:36 1514566416.892799: $GPRMC,165337,A,3946.9621,N,08404.9869,W,0.0000,0.000,291217,,*36
2017-12-29 11:53:36 1514566416.892859: $GPGSA,A,3,8,10,14,15,18,20,21,24,27,32,138,,1.7,0.8,1.3*36
2017-12-29 11:53:37 1514566417.444723: $GPZDA,165338.00,29,12,2017,00,00*60
2017-12-29 11:53:37 1514566417.444884: $GPGGA,165338,3946.9621,N,08404.9869,W,2,11,0.80,321.42,M,-33.324,M,,*7D
2017-12-29 11:53:37 1514566417.444969: $GPRMC,165338,A,3946.9621,N,08404.9869,W,0.0000,0.000,291217,,*39
2017-12-29 11:53:37 1514566417.445030: $GPGSA,A,3,8,10,14,15,18,20,21,24,27,32,138,,1.7,0.8,1.3*36
2017-12-29 11:53:38 1514566418.443465: $GPZDA,165339.00,29,12,2017,00,00*61
2017-12-29 11:53:38 1514566418.443621: $GPGGA,165339,3946.9621,N,08404.9869,W,2,11,0.80,321.42,M,-33.324,M,,*7C
2017-12-29 11:53:38 1514566418.443736: $GPRMC,165339,A,3946.9621,N,08404.9869,W,0.0000,0.000,291217,,*38
2017-12-29 11:53:38 1514566418.443799: $GPGSA,A,3,8,10,14,15,18,20,21,24,27,32,138,,1.7,0.8,1.3*36
2017-12-29 11:53:39 1514566419.772923: $GPGSV,3,1,11,08,08,309,28,10,55,313,45,14,16,241,31,15,23,058,47*76
2017-12-29 11:53:39 1514566419.773105: $GPGSV,3,2,11,18,77,037,44,20,22,108,49,21,46,183,47,24,53,082,50*74
2017-12-29 11:53:39 1514566419.773171: $GPGSV,3,3,11,27,14,274,38,32,34,250,35,138,38,213,44*75
2017-12-29 11:53:39 1514566419.886552: $GPZDA,165340.00,29,12,2017,00,00*6F
2017-12-29 11:53:39 1514566419.886699: $GPGGA,165340,3946.9621,N,08404.9869,W,2,11,0.80,321.42,M,-33.324,M,,*72
2017-12-29 11:53:39 1514566419.886764: $GPRMC,165340,A,3946.9621,N,08404.9869,W,0.0000,0.000,291217,,*36
2017-12-29 11:53:39 1514566419.886824: $GPGSA,A,3,8,10,14,15,18,20,21,24,27,32,138,,1.7,0.8,1.3*36
2017-12-29 11:53:40 1514566420.437472: $GPZDA,165341.00,29,12,2017,00,00*6E
2017-12-29 11:53:40 1514566420.437637: $GPGGA,165341,3946.9621,N,08404.9869,W,2,11,0.80,321.42,M,-33.324,M,,*73
2017-12-29 11:53:40 1514566420.437703: $GPRMC,165341,A,3946.9621,N,08404.9869,W,0.0000,0.000,291217,,*37
2017-12-29 11:53:40 1514566420.437763: $GPGSA,A,3,8,10,14,15,18,20,21,24,27,32,138,,1.7,0.8,1.3*36
2017-12-29 11:53:41 1514566421.443313: $GPZDA,165342.00,29,12,2017,00,00*6D
2017-12-29 11:53:41 1514566421.443486: $GPGGA,165342,3946.9621,N,08404.9869,W,2,11,0.80,321.42,M,-33.324,M,,*70
2017-12-29 11:53:41 1514566421.443553: $GPRMC,165342,A,3946.9621,N,08404.9869,W,0.0000,0.000,291217,,*34
2017-12-29 11:53:41 1514566421.443614: $GPGSA,A,3,8,10,14,15,18,20,21,24,27,32,138,,1.7,0.8,1.3*36
2017-12-29 11:53:42 1514566422.781350: $GPGSV,3,1,11,08,08,309,28,10,55,313,45,14,16,241,31,15,23,058,47*76
2017-12-29 11:53:42 1514566422.781528: $GPGSV,3,2,11,18,77,037,45,20,22,108,48,21,46,183,47,24,53,082,50*74
2017-12-29 11:53:42 1514566422.781594: $GPGSV,3,3,11,27,14,274,38,32,34,250,35,138,38,213,45*74
2017-12-29 11:53:42 1514566422.894792: $GPZDA,165343.00,29,12,2017,00,00*6C
2017-12-29 11:53:42 1514566422.894977: $GPGGA,165343,3946.9621,N,08404.9869,W,2,11,0.80,321.42,M,-33.324,M,,*71
2017-12-29 11:53:42 1514566422.895043: $GPRMC,165343,A,3946.9621,N,08404.9869,W,0.0000,0.000,291217,,*35
2017-12-29 11:53:42 1514566422.895104: $GPGSA,A,3,8,10,14,15,18,20,21,24,27,32,138,,1.7,0.8,1.3*36
2017-12-29 11:53:43 1514566423.520400: $GPZDA,165344.00,29,12,2017,00,00*6B
2017-12-29 11:53:43 1514566423.520569: $GPGGA,165344,3946.9621,N,08404.9869,W,2,11,0.80,321.42,M,-33.324,M,,*76
2017-12-29 11:53:43 1514566423.520635: $GPRMC,165344,A,3946.9621,N,08404.9869,W,0.0000,0.000,291217,,*32
2017-12-29 11:53:43 1514566423.520697: $GPGSA,A,3,8,10,14,15,18,20,21,24,27,32,138,,1.7,0.8,1.3*36
2017-12-29 11:53:44 1514566424.442532: $GPZDA,165345.00,29,12,2017,00,00*6A
2017-12-29 11:53:44 1514566424.442689: $GPGGA,165345,3946.9621,N,08404.9869,W,2,11,0.80,321.42,M,-33.324,M,,*77
2017-12-29 11:53:44 1514566424.442754: $GPRMC,165345,A,3946.9621,N,08404.9869,W,0.0000,0.000,291217,,*33
2017-12-29 11:53:44 1514566424.442819: $GPGSA,A,3,8,10,14,15,18,20,21,24,27,32,138,,1.7,0.8,1.3*36
2017-12-29 11:53:45 1514566425.779179: $GPGSV,3,1,11,08,08,309,27,10,55,313,45,14,16,241,31,15,23,058,47*79
2017-12-29 11:53:45 1514566425.779341: $GPGSV,3,2,11,18,77,037,44,20,22,108,48,21,46,183,47,24,53,082,50*75
2017-12-29 11:53:45 1514566425.779409: $GPGSV,3,3,11,27,14,274,37,32,34,250,35,138,38,213,44*7A
2017-12-29 11:53:45 1514566425.892884: $GPZDA,165346.00,29,12,2017,00,00*69
2017-12-29 11:53:45 1514566425.893054: $GPGGA,165346,3946.9621,N,08404.9869,W,2,11,0.80,321.42,M,-33.324,M,,*74
2017-12-29 11:53:45 1514566425.893120: $GPRMC,165346,A,3946.9621,N,08404.9869,W,0.0000,0.000,291217,,*30
2017-12-29 11:53:45 1514566425.893181: $GPGSA,A,3,8,10,14,15,18,20,21,24,27,32,138,,1.7,0.8,1.3*36
