2017-12-01 16:13:04 1512162784.457089: {"class":"VERSION","release":"3.16","rev":"3.16-4","proto_major":3,"proto_minor":11}
2017-12-01 16:13:04 1512162784.457588: {"class":"DEVICES","devices":[{"class":"DEVICE","path":"/dev/ttyUSB0","driver":"SiRF","subtype":"9\u0006GSD4e_4.1.2-P1_RPATCH.05-F-GPS-4R-1510281 11/03/2015 307","activated":"2017-12-01T21:13:04.315Z","flags":1,"native":1,"bps":4800,"parity":"N","stopbits":1,"cycle":1.00}]}
2017-12-01 16:13:04 1512162784.457708: {"class":"WATCH","enable":true,"json":false,"nmea":true,"raw":0,"scaled":false,"timing":false,"split24":false,"pps":false}
2017-12-01 16:13:04 1512162784.763372: $GPGSV,3,1,12,01,19,309,34,10,56,144,49,11,10,289,34,12,24,058,44*7F
2017-12-01 16:13:04 1512162784.763559: $GPGSV,3,2,12,14,62,312,45,18,25,141,44,22,12,312,38,25,37,100,48*77
2017-12-01 16:13:04 1512162784.763625: $GPGSV,3,3,12,31,48,219,49,32,70,006,47,24,04,048,16,138,38,213,46*4A
2017-12-01 16:13:04 1512162784.877192: $GPZDA,211305.00,01,12,2017,00,00*64
2017-12-01 16:13:04 1512162784.877329: $GPGGA,211305,3946.9563,N,08404.9823,W,2,12,0.80,318.63,M,-33.324,M,,*72
2017-12-01 16:13:04 1512162784.877394: $GPRMC,211305,A,3946.9563,N,08404.9823,W,0.0000,0.000,011217,,*36
2017-12-01 16:13:04 1512162784.877454: $GPGSA,A,3,1,10,11,12,14,18,22,25,31,32,24,138,2.0,0.8,1.5*3B
2017-12-01 16:13:05 1512162785.503384: $GPZDA,211306.00,01,12,2017,00,00*67
2017-12-01 16:13:05 1512162785.503542: $GPGGA,211306,3946.9563,N,08404.9823,W,2,12,0.80,318.63,M,-33.324,M,,*71
2017-12-01 16:13:05 1512162785.503609: $GPRMC,211306,A,3946.9563,N,08404.9823,W,0.0000,0.000,011217,,*35
2017-12-01 16:13:05 1512162785.503671: $GPGSA,A,3,1,10,11,12,14,18,22,25,31,32,24,138,2.0,0.8,1.5*3B
2017-12-01 16:13:06 1512162786.428272: $GPZDA,211307.00,01,12,2017,00,00*66
2017-12-01 16:13:06 1512162786.428445: $GPGGA,211307,3946.9563,N,08404.9823,W,2,12,0.80,318.63,M,-33.324,M,,*70
2017-12-01 16:13:06 1512162786.428512: $GPRMC,211307,A,3946.9563,N,08404.9823,W,0.0000,0.000,011217,,*34
2017-12-01 16:13:06 1512162786.428573: $GPGSA,A,3,1,10,11,12,14,18,22,25,31,32,24,138,2.0,0.8,1.5*3B
2017-12-01 16:13:07 1512162787.762502: $GPGSV,3,1,12,01,19,309,34,10,56,144,48,11,10,289,34,12,24,058,44*7E
2017-12-01 16:13:07 1512162787.762680: $GPGSV,3,2,12,14,62,312,45,18,25,141,44,22,12,312,37,25,37,100,48*78
2017-12-01 16:13:07 1512162787.762746: $GPGSV,3,3,12,31,48,219,49,32,70,006,47,24,04,048,13,138,38,213,46*4F
2017-12-01 16:13:07 1512162787.875922: $GPZDA,211308.00,01,12,2017,00,00*69
2017-12-01 16:13:07 1512162787.876087: $GPGGA,211308,3946.9563,N,08404.9823,W,2,12,0.80,318.63,M,-33.324,M,,*7F
2017-12-01 16:13:07 1512162787.876152: $GPRMC,211308,A,3946.9563,N,08404.9823,W,0.0000,0.000,011217,,*3B
2017-12-01 16:13:07 1512162787.876212: $GPGSA,A,3,1,10,11,12,14,18,22,25,31,32,24,138,2.0,0.8,1.5*3B
2017-12-01 16:13:08 1512162788.411834: $GPZDA,211309.00,01,12,2017,00,00*68
2017-12-01 16:13:08 1512162788.412018: $GPGGA,211309,3946.9563,N,08404.9823,W,2,12,0.80,318.63,M,-33.324,M,,*7E
2017-12-01 16:13:08 1512162788.412087: $GPRMC,211309,A,3946.9563,N,08404.9823,W,0.0000,0.000,011217,,*3A
2017-12-01 16:13:08 1512162788.412149: $GPGSA,A,3,1,10,11,12,14,18,22,25,31,32,24,138,2.0,0.8,1.5*3B
2017-12-01 16:13:09 1512162789.411717: $GPZDA,211310.00,01,12,2017,00,00*60
2017-12-01 16:13:09 1512162789.411927: $GPGGA,211310,3946.9563,N,08404.9823,W,2,12,0.80,318.63,M,-33.324,M,,*76
2017-12-01 16:13:09 1512162789.411997: $GPRMC,211310,A,3946.9563,N,08404.9823,W,0.0000,0.000,011217,,*32
2017-12-01 16:13:09 1512162789.412058: $GPGSA,A,3,1,10,11,12,14,18,22,25,31,32,24,138,2.0,0.8,1.5*3B
2017-12-01 16:13:10 1512162790.746879: $GPGSV,3,1,12,01,19,309,33,10,56,144,49,11,10,289,33,12,24,058,44*7F
2017-12-01 16:13:10 1512162790.747097: $GPGSV,3,2,12,14,62,312,45,18,25,141,44,22,12,312,37,25,37,100,48*78
2017-12-01 16:13:10 1512162790.747195: $GPGSV,3,3,12,31,48,219,49,32,70,006,47,24,04,048,17,138,38,213,46*4B
2017-12-01 16:13:10 1512162790.860010: $GPZDA,211311.00,01,12,2017,00,00*61
2017-12-01 16:13:10 1512162790.860171: $GPGGA,211311,3946.9563,N,08404.9823,W,2,12,0.80,318.63,M,-33.324,M,,*77
2017-12-01 16:13:10 1512162790.860287: $GPRMC,211311,A,3946.9563,N,08404.9823,W,0.0000,0.000,011217,,*33
2017-12-01 16:13:10 1512162790.860350: $GPGSA,A,3,1,10,11,12,14,18,22,25,31,32,24,138,2.0,0.8,1.5*3B
2017-12-01 16:13:11 1512162791.410967: $GPZDA,211312.00,01,12,2017,00,00*62
2017-12-01 16:13:11 1512162791.411135: $GPGGA,211312,3946.9563,N,08404.9823,W,2,12,0.80,318.63,M,-33.324,M,,*74
2017-12-01 16:13:11 1512162791.411201: $GPRMC,211312,A,3946.9563,N,08404.9823,W,0.0000,0.000,011217,,*30
2017-12-01 16:13:11 1512162791.411262: $GPGSA,A,3,1,10,11,12,14,18,22,25,31,32,24,138,2.0,0.8,1.5*3B
2017-12-01 16:13:12 1512162792.413031: $GPZDA,211313.00,01,12,2017,00,00*63
2017-12-01 16:13:12 1512162792.413204: $GPGGA,211313,3946.9563,N,08404.9823,W,2,12,0.80,318.63,M,-33.324,M,,*75
2017-12-01 16:13:12 1512162792.413271: $GPRMC,211313,A,3946.9563,N,08404.9823,W,0.0000,0.000,011217,,*31
2017-12-01 16:13:12 1512162792.413333: $GPGSA,A,3,1,10,11,12,14,18,22,25,31,32,24,138,2.0,0.8,1.5*3B
2017-12-01 16:13:13 1512162793.747511: $GPGSV,3,1,12,01,19,309,33,10,56,144,49,11,10,289,24,12,24,058,45*78
2017-12-01 16:13:13 1512162793.747700: $GPGSV,3,2,12,14,62,312,45,18,25,141,44,22,12,312,38,25,37,100,48*77
2017-12-01 16:13:13 1512162793.747766: $GPGSV,3,3,12,31,48,219,49,32,70,006,47,24,04,048,12,138,38,213,46*4E
2017-12-01 16:13:13 1512162793.859671: $GPZDA,211314.00,01,12,2017,00,00*64
2017-12-01 16:13:13 1512162793.859810: $GPGGA,211314,3946.9563,N,08404.9823,W,2,12,0.80,318.63,M,-33.324,M,,*72
2017-12-01 16:13:13 1512162793.859875: $GPRMC,211314,A,3946.9563,N,08404.9823,W,0.0000,0.000,011217,,*36
2017-12-01 16:13:13 1512162793.859935: $GPGSA,A,3,1,10,11,12,14,18,22,25,31,32,24,138,2.0,0.8,1.5*3B
2017-12-01 16:13:14 1512162794.410574: $GPZDA,211315.00,01,12,2017,00,00*65
2017-12-01 16:13:14 1512162794.410724: $GPGGA,211315,3946.9563,N,08404.9823,W,2,12,0.80,318.63,M,-33.324,M,,*73
2017-12-01 16:13:14 1512162794.410791: $GPRMC,211315,A,3946.9563,N,08404.9823,W,0.0000,0.000,011217,,*37
2017-12-01 16:13:14 1512162794.410851: $GPGSA,A,3,1,10,11,12,14,18,22,25,31,32,24,138,2.0,0.8,1.5*3B
2017-12-01 16:13:15 1512162795.412403: $GPZDA,211316.00,01,12,2017,00,00*66
2017-12-01 16:13:15 1512162795.412568: $GPGGA,211316,3946.9563,N,08404.9823,W,2,12,0.80,318.63,M,-33.324,M,,*70
2017-12-01 16:13:15 1512162795.412635: $GPRMC,211316,A,3946.9563,N,08404.9823,W,0.0000,0.000,011217,,*34
2017-12-01 16:13:15 1512162795.412696: $GPGSA,A,3,1,10,11,12,14,18,22,25,31,32,24,138,2.0,0.8,1.5*3B
2017-12-01 16:13:16 1512162796.747858: $GPGSV,3,1,12,01,19,309,33,10,56,144,48,11,10,289,28,12,24,058,45*75
2017-12-01 16:13:16 1512162796.748041: $GPGSV,3,2,12,14,62,312,45,18,25,141,45,22,12,312,37,25,37,100,48*79
2017-12-01 16:13:16 1512162796.748107: $GPGSV,3,3,12,31,48,219,50,32,70,006,47,24,04,048,16,138,38,213,46*42
2017-12-01 16:13:16 1512162796.861318: $GPZDA,211317.00,01,12,2017,00,00*67
2017-12-01 16:13:16 1512162796.861553: $GPGGA,211317,3946.9563,N,08404.9823,W,2,12,0.80,318.63,M,-33.324,M,,*71
2017-12-01 16:13:16 1512162796.861619: $GPRMC,211317,A,3946.9563,N,08404.9823,W,0.0000,0.000,011217,,*35
2017-12-01 16:13:16 1512162796.861681: $GPGSA,A,3,1,10,11,12,14,18,22,25,31,32,24,138,2.0,0.8,1.5*3B
2017-12-01 16:13:17 1512162797.409599: $GPZDA,211318.00,01,12,2017,00,00*68
2017-12-01 16:13:17 1512162797.409776: $GPGGA,211318,3946.9563,N,08404.9823,W,2,12,0.80,318.63,M,-33.324,M,,*7E
2017-12-01 16:13:17 1512162797.409844: $GPRMC,211318,A,3946.9563,N,08404.9823,W,0.0000,0.000,011217,,*3A
2017-12-01 16:13:17 1512162797.409905: $GPGSA,A,3,1,10,11,12,14,18,22,25,31,32,24,138,2.0,0.8,1.5*3B
2017-12-01 16:13:18 1512162798.408214: $GPZDA,211319.00,01,12,2017,00,00*69
2017-12-01 16:13:18 1512162798.408387: $GPGGA,211319,3946.9563,N,08404.9823,W,2,12,0.80,318.63,M,-33.324,M,,*7F
2017-12-01 16:13:18 1512162798.408453: $GPRMC,211319,A,3946.9563,N,08404.9823,W,0.0000,0.000,011217,,*3B
2017-12-01 16:13:18 1512162798.408515: $GPGSA,A,3,1,10,11,12,14,18,22,25,31,32,24,138,2.0,0.8,1.5*3B
2017-12-01 16:13:19 1512162799.747546: $GPGSV,3,1,12,01,19,309,34,10,56,144,48,11,10,289,30,12,24,058,45*7B
2017-12-01 16:13:19 1512162799.747730: $GPGSV,3,2,12,14,62,312,45,18,25,141,45,22,12,312,38,25,37,100,48*76
2017-12-01 16:13:19 1512162799.747798: $GPGSV,3,3,12,31,48,219,50,32,70,006,46,24,04,048,00,138,38,213,47*45
2017-12-01 16:13:19 1512162799.860867: $GPZDA,211320.00,01,12,2017,00,00*63
2017-12-01 16:13:19 1512162799.861044: $GPGGA,211320,3946.9563,N,08404.9823,W,2,11,0.80,318.63,M,-33.324,M,,*76
2017-12-01 16:13:19 1512162799.861111: $GPRMC,211320,A,3946.9563,N,08404.9823,W,0.0000,0.000,011217,,*31
2017-12-01 16:13:19 1512162799.861171: $GPGSA,A,3,1,10,11,12,14,18,22,25,31,32,138,,2.0,0.8,1.5*3D
2017-12-01 16:13:20 1512162800.486261: $GPZDA,211321.00,01,12,2017,00,00*62
2017-12-01 16:13:20 1512162800.486432: $GPGGA,211321,3946.9563,N,08404.9823,W,2,11,0.80,318.63,M,-33.324,M,,*77
2017-12-01 16:13:20 1512162800.486499: $GPRMC,211321,A,3946.9563,N,08404.9823,W,0.0000,0.000,011217,,*30
2017-12-01 16:13:20 1512162800.486560: $GPGSA,A,3,1,10,11,12,14,18,22,25,31,32,138,,2.0,0.8,1.5*3D
2017-12-01 16:13:21 1512162801.410818: $GPZDA,211322.00,01,12,2017,00,00*61
2017-12-01 16:13:21 1512162801.410990: $GPGGA,211322,3946.9563,N,08404.9823,W,2,11,0.80,318.63,M,-33.324,M,,*74
2017-12-01 16:13:21 1512162801.411058: $GPRMC,211322,A,3946.9563,N,08404.9823,W,0.0000,0.000,011217,,*33
2017-12-01 16:13:21 1512162801.411119: $GPGSA,A,3,1,10,11,12,14,18,22,25,31,32,138,,2.0,0.8,1.5*3D
2017-12-01 16:13:22 1512162802.746561: $GPGSV,3,1,12,01,19,309,34,10,56,144,48,11,10,289,30,12,24,058,45*7B
2017-12-01 16:13:22 1512162802.746742: $GPGSV,3,2,12,14,62,312,45,18,25,141,44,22,12,312,38,25,37,100,48*77
2017-12-01 16:13:22 1512162802.746807: $GPGSV,3,3,12,31,48,219,50,32,70,006,46,24,04,048,13,138,38,213,46*46
2017-12-01 16:13:22 1512162802.859951: $GPZDA,211323.00,01,12,2017,00,00*60
2017-12-01 16:13:22 1512162802.860088: $GPGGA,211323,3946.9566,N,08404.9822,W,2,11,0.80,317.87,M,-33.324,M,,*74
2017-12-01 16:13:22 1512162802.860152: $GPRMC,211323,A,3946.9566,N,08404.9822,W,0.0000,0.000,011217,,*36
2017-12-01 16:13:22 1512162802.860211: $GPGSA,A,3,1,10,11,12,14,18,22,25,31,32,138,,2.0,0.8,1.5*3D
2017-12-01 16:13:23 1512162803.412167: $GPZDA,211324.00,01,12,2017,00,00*67
2017-12-01 16:13:23 1512162803.412344: $GPGGA,211324,3946.9566,N,08404.9822,W,2,11,0.80,317.87,M,-33.324,M,,*73
2017-12-01 16:13:23 1512162803.412414: $GPRMC,211324,A,3946.9566,N,08404.9822,W,0.0000,0.000,011217,,*31
2017-12-01 16:13:23 1512162803.412475: $GPGSA,A,3,1,10,11,12,14,18,22,25,31,32,138,,2.0,0.8,1.5*3D
2017-12-01 16:13:24 1512162804.410688: $GPZDA,211325.00,01,12,2017,00,00*66
2017-12-01 16:13:24 1512162804.410857: $GPGGA,211325,3946.9566,N,08404.9822,W,2,11,0.80,317.87,M,-33.324,M,,*72
2017-12-01 16:13:24 1512162804.410924: $GPRMC,211325,A,3946.9566,N,08404.9822,W,0.0000,0.000,011217,,*30
2017-12-01 16:13:24 1512162804.410985: $GPGSA,A,3,1,10,11,12,14,18,22,25,31,32,138,,2.0,0.8,1.5*3D
