2017-12-31 16:54:38 1514757278.026433: {"class":"VERSION","release":"3.16","rev":"3.16-4","proto_major":3,"proto_minor":11}
2017-12-31 16:54:38 1514757278.026804: {"class":"DEVICES","devices":[{"class":"DEVICE","path":"/dev/ttyUSB0","driver":"SiRF","activated":"2017-12-31T21:54:37.485Z","flags":1,"native":1,"bps":4800,"parity":"N","stopbits":1,"cycle":1.00}]}
2017-12-31 16:54:38 1514757278.026904: {"class":"WATCH","enable":true,"json":false,"nmea":true,"raw":0,"scaled":false,"timing":false,"split24":false,"pps":false}
2017-12-31 16:54:38 1514757278.352556: $GPZDA,215439.00,31,12,2017,00,00*6B
2017-12-31 16:54:38 1514757278.352726: $GPGGA,215439,3946.9581,N,08404.9855,W,2,11,0.80,303.74,M,-33.324,M,,*7C
2017-12-31 16:54:38 1514757278.352794: $GPRMC,215439,A,3946.9581,N,08404.9855,W,0.0000,0.000,311217,,*34
2017-12-31 16:54:38 1514757278.352856: $GPGSA,A,3,22,23,25,3,16,29,31,14,32,26,135,,1.7,0.8,1.3*32
2017-12-31 16:54:39 1514757279.679325: $GPGSV,3,1,11,22,47,246,42,23,24,306,42,25,05,037,20,03,46,277,38*76
2017-12-31 16:54:39 1514757279.679481: $GPGSV,3,2,11,16,41,190,45,29,14,060,14,31,53,046,51,14,44,109,42*77
2017-12-31 16:54:39 1514757279.679546: $GPGSV,3,3,11,32,22,120,45,26,70,154,43,135,22,240,42*79
2017-12-31 16:54:39 1514757279.792632: $GPZDA,215440.00,31,12,2017,00,00*65
2017-12-31 16:54:39 1514757279.792758: $GPGGA,215440,3946.9581,N,08404.9855,W,2,11,0.80,303.74,M,-33.324,M,,*72
2017-12-31 16:54:39 1514757279.792823: $GPRMC,215440,A,3946.9581,N,08404.9855,W,0.0000,0.000,311217,,*3A
2017-12-31 16:54:39 1514757279.792885: $GPGSA,A,3,22,23,25,3,16,29,31,14,32,26,135,,1.7,0.8,1.3*32
2017-12-31 16:54:40 1514757280.418090: $GPZDA,215441.00,31,12,2017,00,00*64
2017-12-31 16:54:40 1514757280.418261: $GPGGA,215441,3946.9581,N,08404.9855,W,2,11,0.80,303.74,M,-33.324,M,,*73
2017-12-31 16:54:40 1514757280.418330: $GPRMC,215441,A,3946.9581,N,08404.9855,W,0.0000,0.000,311217,,*3B
2017-12-31 16:54:40 1514757280.418491: $GPGSA,A,3,22,23,25,3,16,29,31,14,32,26,135,,1.7,0.8,1.3*32
2017-12-31 16:54:41 1514757281.360420: $GPZDA,215442.00,31,12,2017,00,00*67
2017-12-31 16:54:41 1514757281.360589: $GPGGA,215442,3946.9581,N,08404.9855,W,2,11,0.80,303.74,M,-33.324,M,,*70
2017-12-31 16:54:41 1514757281.360656: $GPRMC,215442,A,3946.9581,N,08404.9855,W,0.0000,0.000,311217,,*38
2017-12-31 16:54:41 1514757281.360721: $GPGSA,A,3,22,23,25,3,16,29,31,14,32,26,135,,1.7,0.8,1.3*32
2017-12-31 16:54:42 1514757282.695886: $GPGSV,3,1,11,22,47,246,41,23,24,306,42,25,05,037,19,03,46,277,38*7F
2017-12-31 16:54:42 1514757282.696082: $GPGSV,3,2,11,16,41,190,46,29,14,060,16,31,53,046,51,14,44,109,42*76
2017-12-31 16:54:42 1514757282.696150: $GPGSV,3,3,11,32,22,120,45,26,70,154,43,135,22,240,43*78
2017-12-31 16:54:42 1514757282.809517: $GPZDA,215443.00,31,12,2017,00,00*66
2017-12-31 16:54:42 1514757282.809694: $GPGGA,215443,3946.9581,N,08404.9855,W,2,11,0.80,303.74,M,-33.324,M,,*71
2017-12-31 16:54:42 1514757282.809761: $GPRMC,215443,A,3946.9581,N,08404.9855,W,0.0000,0.000,311217,,*39
2017-12-31 16:54:42 1514757282.809823: $GPGSA,A,3,22,23,25,3,16,29,31,14,32,26,135,,1.7,0.8,1.3*32
2017-12-31 16:54:43 1514757283.352885: $GPZDA,215444.00,31,12,2017,00,00*61
2017-12-31 16:54:43 1514757283.353048: $GPGGA,215444,3946.9581,N,08404.9855,W,2,11,0.80,303.74,M,-33.324,M,,*76
2017-12-31 16:54:43 1514757283.353114: $GPRMC,215444,A,3946.9581,N,08404.9855,W,0.0000,0.000,311217,,*3E
2017-12-31 16:54:43 1514757283.353175: $GPGSA,A,3,22,23,25,3,16,29,31,14,32,26,135,,1.7,0.8,1.3*32
2017-12-31 16:54:44 1514757284.343968: $GPZDA,215445.00,31,12,2017,00,00*60
2017-12-31 16:54:44 1514757284.344133: $GPGGA,215445,3946.9581,N,08404.9855,W,2,11,0.80,303.74,M,-33.324,M,,*77
2017-12-31 16:54:44 1514757284.344200: $GPRMC,215445,A,3946.9581,N,08404.9855,W,0.0000,0.000,311217,,*3F
2017-12-31 16:54:44 1514757284.344261: $GPGSA,A,3,22,23,25,3,16,29,31,14,32,26,135,,1.7,0.8,1.3*32
2017-12-31 16:54:45 1514757285.680055: $GPGSV,3,1,11,22,47,246,42,23,24,306,41,25,05,037,20,03,46,277,37*7A
2017-12-31 16:54:45 1514757285.680236: $GPGSV,3,2,11,16,41,190,46,29,14,060,16,31,53,046,50,14,44,109,42*77
2017-12-31 16:54:45 1514757285.680355: $GPGSV,3,3,11,32,22,120,45,26,70,154,44,135,22,240,43*7F
2017-12-31 16:54:45 1514757285.793635: $GPZDA,215446.00,31,12,2017,00,00*63
2017-12-31 16:54:45 1514757285.793778: $GPGGA,215446,3946.9581,N,08404.9855,W,2,11,0.80,303.74,M,-33.324,M,,*74
2017-12-31 16:54:45 1514757285.793844: $GPRMC,215446,A,3946.9581,N,08404.9855,W,0.0000,0.000,311217,,*3C
2017-12-31 16:54:45 1514757285.793904: $GPGSA,A,3,22,23,25,3,16,29,31,14,32,26,135,,1.7,0.8,1.3*32
2017-12-31 16:54:46 1514757286.344530: $GPZDA,215447.00,31,12,2017,00,00*62
2017-12-31 16:54:46 1514757286.344705: $GPGGA,215447,3946.9581,N,08404.9855,W,2,11,0.80,303.74,M,-33.324,M,,*75
2017-12-31 16:54:46 1514757286.344772: $GPRMC,215447,A,3946.9581,N,08404.9855,W,0.0000,0.000,311217,,*3D
2017-12-31 16:54:46 1514757286.344832: $GPGSA,A,3,22,23,25,3,16,29,31,14,32,26,135,,1.7,0.8,1.3*32
2017-12-31 16:54:47 1514757287.360411: $GPZDA,215448.00,31,12,2017,00,00*6D
2017-12-31 16:54:47 1514757287.360581: $GPGGA,215448,3946.9581,N,08404.9855,W,2,11,0.80,303.74,M,-33.324,M,,*7A
2017-12-31 16:54:47 1514757287.360647: $GPRMC,215448,A,3946.9581,N,08404.9855,W,0.0000,0.000,311217,,*32
2017-12-31 16:54:47 1514757287.360707: $GPGSA,A,3,22,23,25,3,16,29,31,14,32,26,135,,1.7,0.8,1.3*32
