2017-12-01 18:27:07 1512170827.057627: {"class":"VERSION","release":"3.16","rev":"3.16-4","proto_major":3,"proto_minor":11}
2017-12-01 18:27:07 1512170827.058019: {"class":"DEVICES","devices":[{"class":"DEVICE","path":"/dev/ttyUSB0","driver":"SiRF","subtype":"9\u0006GSD4e_4.1.2-P1_RPATCH.05-F-GPS-4R-1510281 11/03/2015 307","activated":"2017-12-01T23:27:06.512Z","flags":1,"native":1,"bps":4800,"parity":"N","stopbits":1,"cycle":1.00}]}
2017-12-01 18:27:07 1512170827.058133: {"class":"WATCH","enable":true,"json":false,"nmea":true,"raw":0,"scaled":false,"timing":false,"split24":false,"pps":false}
2017-12-01 18:27:07 1512170827.408837: $GPZDA,232708.00,01,12,2017,00,00*6C
2017-12-01 18:27:07 1512170827.409010: $GPGGA,232708,3946.9726,N,08404.9839,W,2,12,0.80,296.40,M,-33.325,M,,*75
2017-12-01 18:27:07 1512170827.409076: $GPRMC,232708,A,3946.9726,N,08404.9839,W,0.0000,0.000,011217,,*36
2017-12-01 18:27:07 1512170827.409138: $GPGSA,A,3,1,3,14,16,22,23,25,26,31,32,29,138,2.0,0.8,1.5*0C
2017-12-01 18:27:08 1512170828.705703: $GPGSV,3,1,12,01,05,252,32,03,41,298,47,14,54,093,42,16,24,189,43*70
2017-12-01 18:27:08 1512170828.705894: $GPGSV,3,2,12,22,50,268,44,23,12,301,42,25,16,040,39,26,55,171,46*7B
2017-12-01 18:27:08 1512170828.705964: $GPGSV,3,3,12,31,66,028,46,32,34,109,41,29,11,070,26,138,38,213,46*40
2017-12-01 18:27:08 1512170828.819153: $GPZDA,232709.00,01,12,2017,00,00*6D
2017-12-01 18:27:08 1512170828.819341: $GPGGA,232709,3946.9726,N,08404.9839,W,2,12,0.80,296.40,M,-33.325,M,,*74
2017-12-01 18:27:08 1512170828.819412: $GPRMC,232709,A,3946.9726,N,08404.9839,W,0.0000,0.000,011217,,*37
2017-12-01 18:27:08 1512170828.819477: $GPGSA,A,3,1,3,14,16,22,23,25,26,31,32,29,138,2.0,0.8,1.5*0C
2017-12-01 18:27:09 1512170829.444407: $GPZDA,232710.00,01,12,2017,00,00*65
2017-12-01 18:27:09 1512170829.444589: $GPGGA,232710,3946.9726,N,08404.9839,W,2,12,0.80,296.40,M,-33.325,M,,*7C
2017-12-01 18:27:09 1512170829.444661: $GPRMC,232710,A,3946.9726,N,08404.9839,W,0.0000,0.000,011217,,*3F
2017-12-01 18:27:09 1512170829.444725: $GPGSA,A,3,1,3,14,16,22,23,25,26,31,32,29,138,2.0,0.8,1.5*0C
2017-12-01 18:27:10 1512170830.407799: $GPZDA,232711.00,01,12,2017,00,00*64
2017-12-01 18:27:10 1512170830.407975: $GPGGA,232711,3946.9726,N,08404.9839,W,2,12,0.80,296.40,M,-33.325,M,,*7D
2017-12-01 18:27:10 1512170830.408047: $GPRMC,232711,A,3946.9726,N,08404.9839,W,0.0000,0.000,011217,,*3E
2017-12-01 18:27:10 1512170830.408114: $GPGSA,A,3,1,3,14,16,22,23,25,26,31,32,29,138,2.0,0.8,1.5*0C
2017-12-01 18:27:11 1512170831.743476: $GPGSV,3,1,12,01,05,252,32,03,41,298,48,14,54,093,42,16,24,189,43*7F
2017-12-01 18:27:11 1512170831.743640: $GPGSV,3,2,12,22,50,268,44,23,12,301,42,25,16,040,39,26,55,171,46*7B
2017-12-01 18:27:11 1512170831.743709: $GPGSV,3,3,12,31,66,028,46,32,34,109,42,29,11,070,27,138,38,213,45*41
2017-12-01 18:27:11 1512170831.856831: $GPZDA,232712.00,01,12,2017,00,00*67
2017-12-01 18:27:11 1512170831.857001: $GPGGA,232712,3946.9726,N,08404.9839,W,2,12,0.80,296.40,M,-33.325,M,,*7E
2017-12-01 18:27:11 1512170831.857073: $GPRMC,232712,A,3946.9726,N,08404.9839,W,0.0000,0.000,011217,,*3D
2017-12-01 18:27:11 1512170831.857141: $GPGSA,A,3,1,3,14,16,22,23,25,26,31,32,29,138,2.0,0.8,1.5*0C
2017-12-01 18:27:12 1512170832.375200: $GPZDA,232713.00,01,12,2017,00,00*66
2017-12-01 18:27:12 1512170832.375383: $GPGGA,232713,3946.9726,N,08404.9839,W,2,12,0.80,296.40,M,-33.325,M,,*7F
2017-12-01 18:27:12 1512170832.375454: $GPRMC,232713,A,3946.9726,N,08404.9839,W,0.0000,0.000,011217,,*3C
2017-12-01 18:27:12 1512170832.375520: $GPGSA,A,3,1,3,14,16,22,23,25,26,31,32,29,138,2.0,0.8,1.5*0C
2017-12-01 18:27:13 1512170833.408752: $GPZDA,232714.00,01,12,2017,00,00*61
2017-12-01 18:27:13 1512170833.408943: $GPGGA,232714,3946.9726,N,08404.9839,W,2,12,0.80,296.40,M,-33.325,M,,*78
2017-12-01 18:27:13 1512170833.409017: $GPRMC,232714,A,3946.9726,N,08404.9839,W,0.0000,0.000,011217,,*3B
2017-12-01 18:27:13 1512170833.409084: $GPGSA,A,3,1,3,14,16,22,23,25,26,31,32,29,138,2.0,0.8,1.5*0C
2017-12-01 18:27:14 1512170834.706329: $GPGSV,3,1,12,01,05,252,32,03,41,298,48,14,54,093,43,16,24,189,43*7E
2017-12-01 18:27:14 1512170834.706571: $GPGSV,3,2,12,22,50,268,44,23,12,301,43,25,16,040,39,26,55,171,47*7B
2017-12-01 18:27:14 1512170834.706643: $GPGSV,3,3,12,31,66,028,45,32,34,109,36,29,11,070,00,138,38,213,46*47
2017-12-01 18:27:14 1512170834.819734: $GPZDA,232715.00,01,12,2017,00,00*60
2017-12-01 18:27:14 1512170834.819934: $GPGGA,232715,3946.9726,N,08404.9839,W,2,11,0.80,296.40,M,-33.325,M,,*7A
2017-12-01 18:27:14 1512170834.820009: $GPRMC,232715,A,3946.9726,N,08404.9839,W,0.0000,0.000,011217,,*3A
2017-12-01 18:27:14 1512170834.820073: $GPGSA,A,3,1,3,14,16,22,23,25,26,31,32,138,,2.0,0.8,1.5*07
2017-12-01 18:27:15 1512170835.376954: $GPZDA,232716.00,01,12,2017,00,00*63
2017-12-01 18:27:15 1512170835.377133: $GPGGA,232716,3946.9726,N,08404.9839,W,2,11,0.80,296.40,M,-33.325,M,,*79
2017-12-01 18:27:15 1512170835.377200: $GPRMC,232716,A,3946.9726,N,08404.9839,W,0.0000,0.000,011217,,*39
2017-12-01 18:27:15 1512170835.377263: $GPGSA,A,3,1,3,14,16,22,23,25,26,31,32,138,,2.0,0.8,1.5*07
2017-12-01 18:27:16 1512170836.376808: $GPZDA,232717.00,01,12,2017,00,00*62
2017-12-01 18:27:16 1512170836.376982: $GPGGA,232717,3946.9726,N,08404.9839,W,2,11,0.80,296.40,M,-33.325,M,,*78
2017-12-01 18:27:16 1512170836.377052: $GPRMC,232717,A,3946.9726,N,08404.9839,W,0.0000,0.000,011217,,*38
2017-12-01 18:27:16 1512170836.377116: $GPGSA,A,3,1,3,14,16,22,23,25,26,31,32,138,,2.0,0.8,1.5*07
2017-12-01 18:27:17 1512170837.712333: $GPGSV,3,1,12,01,05,252,32,03,41,298,48,14,54,093,43,16,24,189,43*7E
2017-12-01 18:27:17 1512170837.712523: $GPGSV,3,2,12,22,50,268,44,23,12,301,43,25,16,040,39,26,55,171,47*7B
2017-12-01 18:27:17 1512170837.712591: $GPGSV,3,3,12,31,66,028,46,32,34,109,38,29,11,070,00,138,38,213,46*4A
2017-12-01 18:27:17 1512170837.824662: $GPZDA,232718.00,01,12,2017,00,00*6D
2017-12-01 18:27:17 1512170837.824833: $GPGGA,232718,3946.9726,N,08404.9839,W,2,11,0.80,296.40,M,-33.325,M,,*77
2017-12-01 18:27:17 1512170837.824899: $GPRMC,232718,A,3946.9726,N,08404.9839,W,0.0000,0.000,011217,,*37
2017-12-01 18:27:17 1512170837.824964: $GPGSA,A,3,1,3,14,16,22,23,25,26,31,32,138,,2.0,0.8,1.5*07
2017-12-01 18:27:18 1512170838.376577: $GPZDA,232719.00,01,12,2017,00,00*6C
2017-12-01 18:27:18 1512170838.376751: $GPGGA,232719,3946.9726,N,08404.9839,W,2,11,0.80,296.40,M,-33.325,M,,*76
2017-12-01 18:27:18 1512170838.376819: $GPRMC,232719,A,3946.9726,N,08404.9839,W,0.0000,0.000,011217,,*36
2017-12-01 18:27:18 1512170838.376880: $GPGSA,A,3,1,3,14,16,22,23,25,26,31,32,138,,2.0,0.8,1.5*07
2017-12-01 18:27:19 1512170839.372264: $GPZDA,232720.00,01,12,2017,00,00*66
2017-12-01 18:27:19 1512170839.372452: $GPGGA,232720,3946.9726,N,08404.9839,W,2,11,0.80,296.40,M,-33.325,M,,*7C
2017-12-01 18:27:19 1512170839.372543: $GPRMC,232720,A,3946.9726,N,08404.9839,W,0.0000,0.000,011217,,*3C
2017-12-01 18:27:19 1512170839.372610: $GPGSA,A,3,1,3,14,16,22,23,25,26,31,32,138,,2.0,0.8,1.5*07
2017-12-01 18:27:20 1512170840.715120: $GPGSV,3,1,12,01,05,252,32,03,41,298,47,14,54,093,43,16,24,189,43*71
2017-12-01 18:27:20 1512170840.715307: $GPGSV,3,2,12,22,50,268,44,23,12,301,43,25,16,040,39,26,55,171,47*7B
2017-12-01 18:27:20 1512170840.715375: $GPGSV,3,3,12,31,66,028,46,32,34,109,39,29,11,070,00,138,38,213,46*4B
2017-12-01 18:27:20 1512170840.828537: $GPZDA,232721.00,01,12,2017,00,00*67
2017-12-01 18:27:20 1512170840.828682: $GPGGA,232721,3946.9726,N,08404.9839,W,2,11,0.80,296.40,M,-33.325,M,,*7D
2017-12-01 18:27:20 1512170840.828749: $GPRMC,232721,A,3946.9726,N,08404.9839,W,0.0000,0.000,011217,,*3D
2017-12-01 18:27:20 1512170840.828810: $GPGSA,A,3,1,3,14,16,22,23,25,26,31,32,138,,2.0,0.8,1.5*07
2017-12-01 18:27:21 1512170841.374381: $GPZDA,232722.00,01,12,2017,00,00*64
2017-12-01 18:27:21 1512170841.374534: $GPGGA,232722,3946.9726,N,08404.9839,W,2,11,0.80,296.40,M,-33.325,M,,*7E
2017-12-01 18:27:21 1512170841.374601: $GPRMC,232722,A,3946.9726,N,08404.9839,W,0.0000,0.000,011217,,*3E
2017-12-01 18:27:21 1512170841.374662: $GPGSA,A,3,1,3,14,16,22,23,25,26,31,32,138,,2.0,0.8,1.5*07
2017-12-01 18:27:22 1512170842.375491: $GPZDA,232723.00,01,12,2017,00,00*65
2017-12-01 18:27:22 1512170842.375717: $GPGGA,232723,3946.9726,N,08404.9839,W,2,11,0.80,296.40,M,-33.325,M,,*7F
2017-12-01 18:27:22 1512170842.375786: $GPRMC,232723,A,3946.9726,N,08404.9839,W,0.0000,0.000,011217,,*3F
2017-12-01 18:27:22 1512170842.375846: $GPGSA,A,3,1,3,14,16,22,23,25,26,31,32,138,,2.0,0.8,1.5*07
2017-12-01 18:27:23 1512170843.712263: $GPGSV,3,1,12,01,05,252,33,03,41,298,47,14,54,093,43,16,24,189,43*70
2017-12-01 18:27:23 1512170843.714254: $GPGSV,3,2,12,22,50,268,44,23,12,301,43,25,16,040,39,26,55,171,47*7B
2017-12-01 18:27:23 1512170843.714333: $GPGSV,3,3,12,31,66,028,46,32,34,109,39,29,11,070,20,138,38,213,46*49
2017-12-01 18:27:23 1512170843.826050: $GPZDA,232724.00,01,12,2017,00,00*62
2017-12-01 18:27:23 1512170843.826240: $GPGGA,232724,3946.9726,N,08404.9839,W,2,12,0.80,296.40,M,-33.325,M,,*7B
2017-12-01 18:27:23 1512170843.826311: $GPRMC,232724,A,3946.9726,N,08404.9839,W,0.0000,0.000,011217,,*38
2017-12-01 18:27:23 1512170843.826375: $GPGSA,A,3,1,3,14,16,22,23,25,26,31,32,29,138,2.0,0.8,1.5*0C
2017-12-01 18:27:24 1512170844.451393: $GPZDA,232725.00,01,12,2017,00,00*63
2017-12-01 18:27:24 1512170844.451583: $GPGGA,232725,3946.9726,N,08404.9839,W,2,12,0.80,296.40,M,-33.325,M,,*7A
2017-12-01 18:27:24 1512170844.451653: $GPRMC,232725,A,3946.9726,N,08404.9839,W,0.0000,0.000,011217,,*39
2017-12-01 18:27:24 1512170844.451717: $GPGSA,A,3,1,3,14,16,22,23,25,26,31,32,29,138,2.0,0.8,1.5*0C
2017-12-01 18:27:25 1512170845.370965: $GPZDA,232726.00,01,12,2017,00,00*60
2017-12-01 18:27:25 1512170845.371145: $GPGGA,232726,3946.9726,N,08404.9839,W,2,12,0.80,296.40,M,-33.325,M,,*79
2017-12-01 18:27:25 1512170845.371215: $GPRMC,232726,A,3946.9726,N,08404.9839,W,0.0000,0.000,011217,,*3A
2017-12-01 18:27:25 1512170845.371279: $GPGSA,A,3,1,3,14,16,22,23,25,26,31,32,29,138,2.0,0.8,1.5*0C
2017-12-01 18:27:26 1512170846.720116: $GPGSV,3,1,12,01,05,252,33,03,41,298,47,14,54,093,43,16,24,189,43*70
2017-12-01 18:27:26 1512170846.720301: $GPGSV,3,2,12,22,50,268,44,23,12,301,43,25,16,040,40,26,55,171,47*75
2017-12-01 18:27:26 1512170846.720371: $GPGSV,3,3,12,31,66,028,46,32,34,109,39,29,11,070,04,138,38,213,46*4F
2017-12-01 18:27:26 1512170846.833431: $GPZDA,232727.00,01,12,2017,00,00*61
2017-12-01 18:27:26 1512170846.833555: $GPGGA,232727,3946.9726,N,08404.9839,W,2,11,0.80,296.40,M,-33.325,M,,*7B
2017-12-01 18:27:26 1512170846.833622: $GPRMC,232727,A,3946.9726,N,08404.9839,W,0.0000,0.000,011217,,*3B
2017-12-01 18:27:26 1512170846.833685: $GPGSA,A,3,1,3,14,16,22,23,25,26,31,32,138,,2.0,0.8,1.5*07
