2017-11-16 15:55:00 1510865700.375892: {"class":"VERSION","release":"3.17","rev":"3.17","proto_major":3,"proto_minor":12}
2017-11-16 15:55:00 1510865700.376253: {"class":"DEVICES","devices":[{"class":"DEVICE","path":"/dev/ttyUSB0","driver":"SiRF","subtype":"9\u0006GSD4e_4.1.2-P1_RPATCH.05-F-GPS-4R-1510281 11/03/2015 307","activated":"2017-11-16T20:55:00.270Z","flags":1,"native":1,"bps":4800,"parity":"N","stopbits":1,"cycle":1.00}]}
2017-11-16 15:55:00 1510865700.376343: {"class":"WATCH","enable":true,"json":false,"nmea":true,"raw":0,"scaled":false,"timing":false,"split24":false,"pps":false}
2017-11-16 15:55:00 1510865700.387317: $GPZDA,205459.00,16,11,2017,00,00*6A
2017-11-16 15:55:00 1510865700.387438: $GPGGA,205459,3946.9578,N,08404.9844,W,2,12,1.20,307.47,M,-33.324,M,,*71
2017-11-16 15:55:00 1510865700.387470: $GPRMC,205459,A,3946.9578,N,08404.9844,W,0.0000,0.000,161117,,*33
2017-11-16 15:55:00 1510865700.387499: $GPGSA,A,3,11,10,14,31,18,25,21,24,15,32,12,138,1.6,1.2,1.3*05
2017-11-16 15:55:01 1510865701.705516: $GPGSV,3,1,12,11,04,321,33,10,80,001,50,14,38,264,46,31,10,205,32*78
2017-11-16 15:55:01 1510865701.705697: $GPGSV,3,2,12,18,60,115,48,25,12,133,33,21,16,177,36,24,35,049,49*78
2017-11-16 15:55:01 1510865701.705757: $GPGSV,3,3,12,15,03,073,32,32,55,280,48,12,17,096,48,138,38,213,44*48
2017-11-16 15:55:01 1510865701.818797: $GPZDA,205500.00,16,11,2017,00,00*67
2017-11-16 15:55:01 1510865701.818939: $GPGGA,205500,3946.9581,N,08404.9843,W,2,12,1.20,306.71,M,-33.324,M,,*79
2017-11-16 15:55:01 1510865701.818998: $GPRMC,205500,A,3946.9581,N,08404.9843,W,0.0000,0.000,161117,,*3F
2017-11-16 15:55:01 1510865701.819053: $GPGSA,A,3,11,10,14,31,18,25,21,24,15,32,12,138,1.6,1.2,1.3*05
2017-11-16 15:55:02 1510865702.375693: $GPZDA,205501.00,16,11,2017,00,00*66
2017-11-16 15:55:02 1510865702.375803: $GPGGA,205501,3946.9581,N,08404.9843,W,2,12,1.20,306.71,M,-33.324,M,,*78
2017-11-16 15:55:02 1510865702.375836: $GPRMC,205501,A,3946.9581,N,08404.9843,W,0.0000,0.000,161117,,*3E
2017-11-16 15:55:02 1510865702.375864: $GPGSA,A,3,11,10,14,31,18,25,21,24,15,32,12,138,1.6,1.2,1.3*05
2017-11-16 15:55:03 1510865703.366827: $GPZDA,205502.00,16,11,2017,00,00*65
2017-11-16 15:55:03 1510865703.366996: $GPGGA,205502,3946.9581,N,08404.9843,W,2,12,1.20,306.71,M,-33.324,M,,*7B
2017-11-16 15:55:03 1510865703.367058: $GPRMC,205502,A,3946.9581,N,08404.9843,W,0.0000,0.000,161117,,*3D
2017-11-16 15:55:03 1510865703.367114: $GPGSA,A,3,11,10,14,31,18,25,21,24,15,32,12,138,1.6,1.2,1.3*05
2017-11-16 15:55:04 1510865704.696467: $GPGSV,3,1,12,11,04,321,33,10,80,001,50,14,38,264,46,31,10,205,32*78
2017-11-16 15:55:04 1510865704.696643: $GPGSV,3,2,12,18,60,115,48,25,12,133,33,21,16,177,36,24,35,049,49*78
2017-11-16 15:55:04 1510865704.696704: $GPGSV,3,3,12,15,03,073,32,32,55,280,48,12,17,096,48,138,38,213,45*49
2017-11-16 15:55:04 1510865704.810000: $GPZDA,205503.00,16,11,2017,00,00*64
2017-11-16 15:55:04 1510865704.810148: $GPGGA,205503,3946.9581,N,08404.9843,W,2,12,1.20,306.71,M,-33.324,M,,*7A
2017-11-16 15:55:04 1510865704.810209: $GPRMC,205503,A,3946.9581,N,08404.9843,W,0.0000,0.000,161117,,*3C
2017-11-16 15:55:04 1510865704.810265: $GPGSA,A,3,11,10,14,31,18,25,21,24,15,32,12,138,1.6,1.2,1.3*05
2017-11-16 15:55:05 1510865705.367619: $GPZDA,205504.00,16,11,2017,00,00*63
2017-11-16 15:55:05 1510865705.367718: $GPGGA,205504,3946.9581,N,08404.9843,W,2,12,1.20,306.71,M,-33.324,M,,*7D
2017-11-16 15:55:05 1510865705.367749: $GPRMC,205504,A,3946.9581,N,08404.9843,W,0.0000,0.000,161117,,*3B
2017-11-16 15:55:05 1510865705.367777: $GPGSA,A,3,11,10,14,31,18,25,21,24,15,32,12,138,1.6,1.2,1.3*05
2017-11-16 15:55:06 1510865706.383457: $GPZDA,205505.00,16,11,2017,00,00*62
2017-11-16 15:55:06 1510865706.383629: $GPGGA,205505,3946.9581,N,08404.9843,W,2,12,1.20,306.71,M,-33.324,M,,*7C
2017-11-16 15:55:06 1510865706.383692: $GPRMC,205505,A,3946.9581,N,08404.9843,W,0.0000,0.000,161117,,*3A
2017-11-16 15:55:06 1510865706.383749: $GPGSA,A,3,11,10,14,31,18,25,21,24,15,32,12,138,1.6,1.2,1.3*05
2017-11-16 15:55:07 1510865707.703063: $GPGSV,3,1,12,11,04,321,33,10,80,001,50,14,38,264,46,31,10,205,32*78
2017-11-16 15:55:07 1510865707.703324: $GPGSV,3,2,12,18,60,115,48,25,12,133,33,21,16,177,36,24,35,049,49*78
2017-11-16 15:55:07 1510865707.703445: $GPGSV,3,3,12,15,03,073,32,32,55,280,48,12,17,096,48,138,38,213,45*49
2017-11-16 15:55:07 1510865707.816591: $GPZDA,205506.00,16,11,2017,00,00*61
2017-11-16 15:55:07 1510865707.816791: $GPGGA,205506,3946.9585,N,08404.9843,W,2,12,1.20,307.35,M,-33.324,M,,*7A
2017-11-16 15:55:07 1510865707.816863: $GPRMC,205506,A,3946.9585,N,08404.9843,W,0.0000,0.000,161117,,*3D
2017-11-16 15:55:07 1510865707.816925: $GPGSA,A,3,11,10,14,31,18,25,21,24,15,32,12,138,1.6,1.2,1.3*05
2017-11-16 15:55:08 1510865708.359261: $GPZDA,205507.00,16,11,2017,00,00*60
2017-11-16 15:55:08 1510865708.359366: $GPGGA,205507,3946.9585,N,08404.9843,W,2,12,1.20,307.35,M,-33.324,M,,*7B
2017-11-16 15:55:08 1510865708.359412: $GPRMC,205507,A,3946.9585,N,08404.9843,W,0.0000,0.000,161117,,*3C
2017-11-16 15:55:08 1510865708.359441: $GPGSA,A,3,11,10,14,31,18,25,21,24,15,32,12,138,1.6,1.2,1.3*05
2017-11-16 15:55:09 1510865709.368069: $GPZDA,205508.00,16,11,2017,00,00*6F
2017-11-16 15:55:09 1510865709.368241: $GPGGA,205508,3946.9585,N,08404.9843,W,2,12,1.20,307.35,M,-33.324,M,,*74
2017-11-16 15:55:09 1510865709.368324: $GPRMC,205508,A,3946.9585,N,08404.9843,W,0.0000,0.000,161117,,*33
2017-11-16 15:55:09 1510865709.368406: $GPGSA,A,3,11,10,14,31,18,25,21,24,15,32,12,138,1.6,1.2,1.3*05
