2017-12-01 12:20:44 1512148844.326794: {"class":"VERSION","release":"3.16","rev":"3.16-4","proto_major":3,"proto_minor":11}
2017-12-01 12:20:44 1512148844.327292: {"class":"DEVICES","devices":[{"class":"DEVICE","path":"/dev/ttyUSB0","driver":"SiRF","subtype":"9\u0006GSD4e_4.1.2-P1_RPATCH.05-F-GPS-4R-1510281 11/03/2015 307","activated":"2017-12-01T17:20:44.252Z","flags":1,"native":1,"bps":4800,"parity":"N","stopbits":1,"cycle":1.00}]}
2017-12-01 12:20:44 1512148844.327416: {"class":"WATCH","enable":true,"json":false,"nmea":true,"raw":0,"scaled":false,"timing":false,"split24":false,"pps":false}
2017-12-01 12:20:44 1512148844.365238: $GPZDA,172045.00,01,12,2017,00,00*65
2017-12-01 12:20:44 1512148844.365375: $GPGGA,172045,3946.9573,N,08404.9839,W,2,11,0.80,297.64,M,-33.324,M,,*7B
2017-12-01 12:20:44 1512148844.365441: $GPRMC,172045,A,3946.9573,N,08404.9839,W,0.0000,0.000,011217,,*3D
2017-12-01 12:20:44 1512148844.365501: $GPGSA,A,3,10,13,15,18,20,21,24,27,5,29,138,,2.0,0.8,1.5*34
2017-12-01 12:20:45 1512148845.346144: $GPZDA,172046.00,01,12,2017,00,00*66
2017-12-01 12:20:45 1512148845.346319: $GPGGA,172046,3946.9573,N,08404.9839,W,2,11,0.80,297.64,M,-33.324,M,,*78
2017-12-01 12:20:45 1512148845.346385: $GPRMC,172046,A,3946.9573,N,08404.9839,W,0.0000,0.000,011217,,*3E
2017-12-01 12:20:45 1512148845.346446: $GPGSA,A,3,10,13,15,18,20,21,24,27,5,29,138,,2.0,0.8,1.5*34
2017-12-01 12:20:46 1512148846.701865: $GPGSV,3,1,12,10,24,283,38,13,28,045,44,15,60,051,47,18,55,301,45*7B
2017-12-01 12:20:46 1512148846.702028: $GPGSV,3,2,12,20,51,073,45,21,79,262,42,24,34,138,48,27,17,312,39*7B
2017-12-01 12:20:46 1512148846.702094: $GPGSV,3,3,12,32,02,226,01,29,09,189,24,05,03,088,00,138,38,213,46*4F
2017-12-01 12:20:46 1512148846.815251: $GPZDA,172047.00,01,12,2017,00,00*67
2017-12-01 12:20:46 1512148846.815425: $GPGGA,172047,3946.9573,N,08404.9839,W,2,10,0.80,297.64,M,-33.324,M,,*78
2017-12-01 12:20:46 1512148846.815492: $GPRMC,172047,A,3946.9573,N,08404.9839,W,0.0000,0.000,011217,,*3F
2017-12-01 12:20:46 1512148846.815554: $GPGSA,A,3,10,13,15,18,20,21,24,27,29,138,,,2.0,0.8,1.5*01
2017-12-01 12:20:47 1512148847.441940: $GPZDA,172048.00,01,12,2017,00,00*68
2017-12-01 12:20:47 1512148847.442088: $GPGGA,172048,3946.9573,N,08404.9839,W,2,10,0.80,297.64,M,-33.324,M,,*77
2017-12-01 12:20:47 1512148847.442155: $GPRMC,172048,A,3946.9573,N,08404.9839,W,0.0000,0.000,011217,,*30
2017-12-01 12:20:47 1512148847.442216: $GPGSA,A,3,10,13,15,18,20,21,24,27,29,138,,,2.0,0.8,1.5*01
2017-12-01 12:20:48 1512148848.347750: $GPZDA,172049.00,01,12,2017,00,00*69
2017-12-01 12:20:48 1512148848.347943: $GPGGA,172049,3946.9573,N,08404.9839,W,2,10,0.80,297.64,M,-33.324,M,,*76
2017-12-01 12:20:48 1512148848.348011: $GPRMC,172049,A,3946.9573,N,08404.9839,W,0.0000,0.000,011217,,*31
2017-12-01 12:20:48 1512148848.348072: $GPGSA,A,3,10,13,15,18,20,21,24,27,29,138,,,2.0,0.8,1.5*01
2017-12-01 12:20:49 1512148849.702230: $GPGSV,3,1,12,10,24,283,39,13,28,045,44,15,60,051,47,18,55,301,46*79
2017-12-01 12:20:49 1512148849.702412: $GPGSV,3,2,12,20,51,073,44,21,79,262,42,24,34,138,48,27,17,312,40*74
2017-12-01 12:20:49 1512148849.702479: $GPGSV,3,3,12,05,03,088,04,29,09,189,24,32,02,226,00,138,38,213,45*49
2017-12-01 12:20:49 1512148849.815559: $GPZDA,172050.00,01,12,2017,00,00*61
2017-12-01 12:20:49 1512148849.815719: $GPGGA,172050,3946.9573,N,08404.9839,W,2,10,0.80,297.64,M,-33.324,M,,*7E
2017-12-01 12:20:49 1512148849.815801: $GPRMC,172050,A,3946.9573,N,08404.9839,W,0.0000,0.000,011217,,*39
2017-12-01 12:20:49 1512148849.815863: $GPGSA,A,3,10,13,15,18,20,21,24,27,29,138,,,2.0,0.8,1.5*01
2017-12-01 12:20:50 1512148850.347760: $GPZDA,172051.00,01,12,2017,00,00*60
2017-12-01 12:20:50 1512148850.347959: $GPGGA,172051,3946.9573,N,08404.9839,W,2,10,0.80,297.64,M,-33.324,M,,*7F
2017-12-01 12:20:50 1512148850.348027: $GPRMC,172051,A,3946.9573,N,08404.9839,W,0.0000,0.000,011217,,*38
2017-12-01 12:20:50 1512148850.348087: $GPGSA,A,3,10,13,15,18,20,21,24,27,29,138,,,2.0,0.8,1.5*01
2017-12-01 12:20:51 1512148851.354070: $GPZDA,172052.00,01,12,2017,00,00*63
2017-12-01 12:20:51 1512148851.354302: $GPGGA,172052,3946.9573,N,08404.9839,W,2,10,0.80,297.64,M,-33.324,M,,*7C
2017-12-01 12:20:51 1512148851.354452: $GPRMC,172052,A,3946.9573,N,08404.9839,W,0.0000,0.000,011217,,*3B
2017-12-01 12:20:51 1512148851.354572: $GPGSA,A,3,10,13,15,18,20,21,24,27,29,138,,,2.0,0.8,1.5*01
2017-12-01 12:20:52 1512148852.701390: $GPGSV,3,1,12,10,24,283,39,13,28,045,44,15,60,051,47,18,55,301,45*7A
2017-12-01 12:20:52 1512148852.701573: $GPGSV,3,2,12,20,51,073,45,21,79,262,42,24,34,138,48,27,17,312,41*74
2017-12-01 12:20:52 1512148852.701660: $GPGSV,3,3,12,05,03,088,16,29,09,189,24,32,02,226,24,138,38,213,47*4E
2017-12-01 12:20:52 1512148852.814682: $GPZDA,172053.00,01,12,2017,00,00*62
2017-12-01 12:20:52 1512148852.814842: $GPGGA,172053,3946.9573,N,08404.9839,W,2,12,0.80,297.64,M,-33.324,M,,*7F
2017-12-01 12:20:52 1512148852.814909: $GPRMC,172053,A,3946.9573,N,08404.9839,W,0.0000,0.000,011217,,*3A
2017-12-01 12:20:52 1512148852.814970: $GPGSA,A,3,10,13,15,18,20,21,24,27,5,29,32,138,2.0,0.8,1.5*35
2017-12-01 12:20:53 1512148853.346818: $GPZDA,172054.00,01,12,2017,00,00*65
2017-12-01 12:20:53 1512148853.346999: $GPGGA,172054,3946.9573,N,08404.9839,W,2,12,0.80,297.64,M,-33.324,M,,*78
2017-12-01 12:20:53 1512148853.347068: $GPRMC,172054,A,3946.9573,N,08404.9839,W,0.0000,0.000,011217,,*3D
2017-12-01 12:20:53 1512148853.347129: $GPGSA,A,3,10,13,15,18,20,21,24,27,5,29,32,138,2.0,0.8,1.5*35
