2017-12-01 11:47:36 1512146856.767168: {"class":"VERSION","release":"3.16","rev":"3.16-4","proto_major":3,"proto_minor":11}
2017-12-01 11:47:36 1512146856.767627: {"class":"DEVICES","devices":[{"class":"DEVICE","path":"/dev/ttyUSB0","driver":"SiRF","subtype":"9\u0006GSD4e_4.1.2-P1_RPATCH.05-F-GPS-4R-1510281 11/03/2015 307","activated":"2017-12-01T16:47:36.754Z","flags":1,"native":1,"bps":4800,"parity":"N","stopbits":1,"cycle":1.00}]}
2017-12-01 11:47:36 1512146856.767742: {"class":"WATCH","enable":true,"json":false,"nmea":true,"raw":0,"scaled":false,"timing":false,"split24":false,"pps":false}
2017-12-01 11:47:36 1512146856.868090: $GPZDA,164737.00,01,12,2017,00,00*60
2017-12-01 11:47:36 1512146856.868290: $GPGGA,164737,3946.9582,N,08404.9845,W,2,10,0.80,298.84,M,-33.324,M,,*7B
2017-12-01 11:47:36 1512146856.868357: $GPRMC,164737,A,3946.9582,N,08404.9845,W,0.0000,0.000,011217,,*3D
2017-12-01 11:47:36 1512146856.868418: $GPGSA,A,3,13,15,18,20,21,24,27,29,10,138,,,2.0,0.8,1.5*01
2017-12-01 11:47:37 1512146857.416482: $GPZDA,164738.00,01,12,2017,00,00*6F
2017-12-01 11:47:37 1512146857.416669: $GPGGA,164738,3946.9582,N,08404.9845,W,2,10,0.80,298.84,M,-33.324,M,,*74
2017-12-01 11:47:37 1512146857.416737: $GPRMC,164738,A,3946.9582,N,08404.9845,W,0.0000,0.000,011217,,*32
2017-12-01 11:47:37 1512146857.416797: $GPGSA,A,3,13,15,18,20,21,24,27,29,10,138,,,2.0,0.8,1.5*01
2017-12-01 11:47:38 1512146858.413601: $GPZDA,164739.00,01,12,2017,00,00*6E
2017-12-01 11:47:38 1512146858.413772: $GPGGA,164739,3946.9582,N,08404.9845,W,2,10,0.80,298.84,M,-33.324,M,,*75
2017-12-01 11:47:38 1512146858.413838: $GPRMC,164739,A,3946.9582,N,08404.9845,W,0.0000,0.000,011217,,*33
2017-12-01 11:47:38 1512146858.413898: $GPGSA,A,3,13,15,18,20,21,24,27,29,10,138,,,2.0,0.8,1.5*01
2017-12-01 11:47:39 1512146859.750562: $GPGSV,3,1,12,05,13,078,07,13,42,049,46,15,74,069,46,18,44,286,46*71
2017-12-01 11:47:39 1512146859.750743: $GPGSV,3,2,12,20,61,052,43,21,68,304,46,24,21,148,42,27,09,324,42*77
2017-12-01 11:47:39 1512146859.750810: $GPGSV,3,3,12,29,23,195,44,10,14,273,39,04,11,130,00,138,38,213,46*40
2017-12-01 11:47:39 1512146859.863942: $GPZDA,164740.00,01,12,2017,00,00*60
2017-12-01 11:47:39 1512146859.864135: $GPGGA,164740,3946.9582,N,08404.9845,W,2,10,0.80,298.84,M,-33.324,M,,*7B
2017-12-01 11:47:39 1512146859.864204: $GPRMC,164740,A,3946.9582,N,08404.9845,W,0.0000,0.000,011217,,*3D
2017-12-01 11:47:39 1512146859.864283: $GPGSA,A,3,13,15,18,20,21,24,27,29,10,138,,,2.0,0.8,1.5*01
2017-12-01 11:47:40 1512146860.489327: $GPZDA,164741.00,01,12,2017,00,00*61
2017-12-01 11:47:40 1512146860.489494: $GPGGA,164741,3946.9582,N,08404.9845,W,2,10,0.80,298.84,M,-33.324,M,,*7A
2017-12-01 11:47:40 1512146860.489560: $GPRMC,164741,A,3946.9582,N,08404.9845,W,0.0000,0.000,011217,,*3C
2017-12-01 11:47:40 1512146860.489621: $GPGSA,A,3,13,15,18,20,21,24,27,29,10,138,,,2.0,0.8,1.5*01
2017-12-01 11:47:41 1512146861.412779: $GPZDA,164742.00,01,12,2017,00,00*62
2017-12-01 11:47:41 1512146861.412951: $GPGGA,164742,3946.9582,N,08404.9845,W,2,10,0.80,298.84,M,-33.324,M,,*79
2017-12-01 11:47:41 1512146861.413017: $GPRMC,164742,A,3946.9582,N,08404.9845,W,0.0000,0.000,011217,,*3F
2017-12-01 11:47:41 1512146861.413100: $GPGSA,A,3,13,15,18,20,21,24,27,29,10,138,,,2.0,0.8,1.5*01
2017-12-01 11:47:42 1512146862.746397: $GPGSV,3,1,12,05,13,078,09,13,42,049,46,15,74,069,46,18,44,286,46*7F
2017-12-01 11:47:42 1512146862.746757: $GPGSV,3,2,12,20,61,052,43,21,68,304,46,24,21,148,42,27,09,324,42*77
2017-12-01 11:47:42 1512146862.746887: $GPGSV,3,3,12,29,23,195,44,10,14,273,39,04,11,130,00,138,38,213,45*43
2017-12-01 11:47:42 1512146862.859698: $GPZDA,164743.00,01,12,2017,00,00*63
2017-12-01 11:47:42 1512146862.859866: $GPGGA,164743,3946.9582,N,08404.9845,W,2,10,0.80,298.84,M,-33.324,M,,*78
2017-12-01 11:47:42 1512146862.859932: $GPRMC,164743,A,3946.9582,N,08404.9845,W,0.0000,0.000,011217,,*3E
2017-12-01 11:47:42 1512146862.859993: $GPGSA,A,3,13,15,18,20,21,24,27,29,10,138,,,2.0,0.8,1.5*01
2017-12-01 11:47:43 1512146863.435595: $GPZDA,164744.00,01,12,2017,00,00*64
2017-12-01 11:47:43 1512146863.435814: $GPGGA,164744,3946.9582,N,08404.9845,W,2,10,0.80,298.84,M,-33.324,M,,*7F
2017-12-01 11:47:43 1512146863.435884: $GPRMC,164744,A,3946.9582,N,08404.9845,W,0.0000,0.000,011217,,*39
2017-12-01 11:47:43 1512146863.435946: $GPGSA,A,3,13,15,18,20,21,24,27,29,10,138,,,2.0,0.8,1.5*01
2017-12-01 11:47:44 1512146864.431061: $GPZDA,164745.00,01,12,2017,00,00*65
2017-12-01 11:47:44 1512146864.431249: $GPGGA,164745,3946.9577,N,08404.9845,W,2,10,0.80,298.20,M,-33.324,M,,*7A
2017-12-01 11:47:44 1512146864.431316: $GPRMC,164745,A,3946.9577,N,08404.9845,W,0.0000,0.000,011217,,*32
2017-12-01 11:47:44 1512146864.431446: $GPGSA,A,3,13,15,18,20,21,24,27,29,10,138,,,2.0,0.8,1.5*01
2017-12-01 11:47:45 1512146865.753799: $GPGSV,3,1,12,05,13,078,14,13,42,049,46,15,74,069,46,18,44,286,45*70
2017-12-01 11:47:45 1512146865.753979: $GPGSV,3,2,12,20,61,052,43,21,68,304,46,24,21,148,42,27,09,324,44*71
2017-12-01 11:47:45 1512146865.754069: $GPGSV,3,3,12,29,23,195,44,10,14,273,39,04,11,130,00,138,38,213,46*40
2017-12-01 11:47:45 1512146865.867577: $GPZDA,164746.00,01,12,2017,00,00*66
2017-12-01 11:47:45 1512146865.867746: $GPGGA,164746,3946.9577,N,08404.9845,W,2,11,0.80,298.20,M,-33.324,M,,*78
2017-12-01 11:47:45 1512146865.867812: $GPRMC,164746,A,3946.9577,N,08404.9845,W,0.0000,0.000,011217,,*31
2017-12-01 11:47:45 1512146865.867872: $GPGSA,A,3,5,13,15,18,20,21,24,27,29,10,138,,2.0,0.8,1.5*34
2017-12-01 11:47:46 1512146866.413473: $GPZDA,164747.00,01,12,2017,00,00*67
2017-12-01 11:47:46 1512146866.413623: $GPGGA,164747,3946.9577,N,08404.9845,W,2,11,0.80,298.20,M,-33.324,M,,*79
2017-12-01 11:47:46 1512146866.413689: $GPRMC,164747,A,3946.9577,N,08404.9845,W,0.0000,0.000,011217,,*30
2017-12-01 11:47:46 1512146866.413749: $GPGSA,A,3,5,13,15,18,20,21,24,27,29,10,138,,2.0,0.8,1.5*34
