2017-12-31 18:00:02 1514761202.496484: {"class":"VERSION","release":"3.16","rev":"3.16-4","proto_major":3,"proto_minor":11}
2017-12-31 18:00:02 1514761202.496832: {"class":"DEVICES","devices":[{"class":"DEVICE","path":"/dev/ttyUSB0","driver":"SiRF","activated":"2017-12-31T23:00:02.486Z","flags":1,"native":1,"bps":4800,"parity":"N","stopbits":1,"cycle":1.00}]}
2017-12-31 18:00:02 1514761202.496930: {"class":"WATCH","enable":true,"json":false,"nmea":true,"raw":0,"scaled":false,"timing":false,"split24":false,"pps":false}
2017-12-31 18:00:03 1514761203.680591: $GPGSV,3,1,11,22,26,217,44,23,50,307,44,09,16,312,38,03,35,238,44*72
2017-12-31 18:00:03 1514761203.680765: $GPGSV,3,2,11,16,76,192,44,29,07,033,37,14,19,130,33,31,31,072,36*73
2017-12-31 18:00:03 1514761203.680830: $GPGSV,3,3,11,27,18,156,28,26,66,054,49,135,22,240,44*74
2017-12-31 18:00:03 1514761203.793915: $GPZDA,230004.00,31,12,2017,00,00*66
2017-12-31 18:00:03 1514761203.794044: $GPGGA,230004,3946.9564,N,08404.9866,W,2,11,0.60,307.48,M,-33.324,M,,*7F
2017-12-31 18:00:03 1514761203.794108: $GPRMC,230004,A,3946.9564,N,08404.9866,W,0.0000,0.000,311217,,*32
2017-12-31 18:00:03 1514761203.794169: $GPGSA,A,3,22,23,9,3,16,29,14,31,27,26,135,,1.7,0.6,1.3*06
2017-12-31 18:00:04 1514761204.344832: $GPZDA,230005.00,31,12,2017,00,00*67
2017-12-31 18:00:04 1514761204.344999: $GPGGA,230005,3946.9564,N,08404.9866,W,2,11,0.60,307.48,M,-33.324,M,,*7E
2017-12-31 18:00:04 1514761204.345066: $GPRMC,230005,A,3946.9564,N,08404.9866,W,0.0000,0.000,311217,,*33
2017-12-31 18:00:04 1514761204.345127: $GPGSA,A,3,22,23,9,3,16,29,14,31,27,26,135,,1.7,0.6,1.3*06
2017-12-31 18:00:05 1514761205.345203: $GPZDA,230006.00,31,12,2017,00,00*64
2017-12-31 18:00:05 1514761205.345354: $GPGGA,230006,3946.9564,N,08404.9866,W,2,11,0.60,307.48,M,-33.324,M,,*7D
2017-12-31 18:00:05 1514761205.345421: $GPRMC,230006,A,3946.9564,N,08404.9866,W,0.0000,0.000,311217,,*30
2017-12-31 18:00:05 1514761205.345481: $GPGSA,A,3,22,23,9,3,16,29,14,31,27,26,135,,1.7,0.6,1.3*06
2017-12-31 18:00:06 1514761206.682190: $GPGSV,3,1,11,22,26,217,44,23,50,307,44,09,16,312,38,03,35,238,45*73
2017-12-31 18:00:06 1514761206.682382: $GPGSV,3,2,11,16,76,192,44,29,07,033,36,14,19,130,33,31,31,072,39*7D
2017-12-31 18:00:06 1514761206.682448: $GPGSV,3,3,11,27,18,156,32,26,66,054,49,135,22,240,43*78
2017-12-31 18:00:06 1514761206.795552: $GPZDA,230007.00,31,12,2017,00,00*65
2017-12-31 18:00:06 1514761206.795718: $GPGGA,230007,3946.9564,N,08404.9866,W,2,11,0.60,307.48,M,-33.324,M,,*7C
2017-12-31 18:00:06 1514761206.795784: $GPRMC,230007,A,3946.9564,N,08404.9866,W,0.0000,0.000,311217,,*31
2017-12-31 18:00:06 1514761206.795845: $GPGSA,A,3,22,23,9,3,16,29,14,31,27,26,135,,1.7,0.6,1.3*06
2017-12-31 18:00:07 1514761207.345198: $GPZDA,230008.00,31,12,2017,00,00*6A
2017-12-31 18:00:07 1514761207.345361: $GPGGA,230008,3946.9564,N,08404.9866,W,2,11,0.60,307.48,M,-33.324,M,,*73
2017-12-31 18:00:07 1514761207.345428: $GPRMC,230008,A,3946.9564,N,08404.9866,W,0.0000,0.000,311217,,*3E
2017-12-31 18:00:07 1514761207.345490: $GPGSA,A,3,22,23,9,3,16,29,14,31,27,26,135,,1.7,0.6,1.3*06
2017-12-31 18:00:08 1514761208.368571: $GPZDA,230009.00,31,12,2017,00,00*6B
2017-12-31 18:00:08 1514761208.368735: $GPGGA,230009,3946.9564,N,08404.9866,W,2,11,0.60,307.48,M,-33.324,M,,*72
2017-12-31 18:00:08 1514761208.368802: $GPRMC,230009,A,3946.9564,N,08404.9866,W,0.0000,0.000,311217,,*3F
2017-12-31 18:00:08 1514761208.368863: $GPGSA,A,3,22,23,9,3,16,29,14,31,27,26,135,,1.7,0.6,1.3*06
2017-12-31 18:00:09 1514761209.710514: $GPGSV,3,1,11,22,26,217,44,23,50,307,44,09,16,312,38,03,35,238,44*72
2017-12-31 18:00:09 1514761209.710694: $GPGSV,3,2,11,16,76,192,44,29,07,033,26,14,19,130,34,31,31,072,41*74
2017-12-31 18:00:09 1514761209.710761: $GPGSV,3,3,11,27,18,156,30,26,66,054,49,135,22,240,44*7D
2017-12-31 18:00:09 1514761209.823865: $GPZDA,230010.00,31,12,2017,00,00*63
2017-12-31 18:00:09 1514761209.823983: $GPGGA,230010,3946.9564,N,08404.9866,W,2,11,0.60,307.48,M,-33.324,M,,*7A
2017-12-31 18:00:09 1514761209.824048: $GPRMC,230010,A,3946.9564,N,08404.9866,W,0.0000,0.000,311217,,*37
2017-12-31 18:00:09 1514761209.824177: $GPGSA,A,3,22,23,9,3,16,29,14,31,27,26,135,,1.7,0.6,1.3*06
2017-12-31 18:00:10 1514761210.449307: $GPZDA,230011.00,31,12,2017,00,00*62
2017-12-31 18:00:10 1514761210.449471: $GPGGA,230011,3946.9564,N,08404.9866,W,2,11,0.60,307.48,M,-33.324,M,,*7B
2017-12-31 18:00:10 1514761210.449538: $GPRMC,230011,A,3946.9564,N,08404.9866,W,0.0000,0.000,311217,,*36
2017-12-31 18:00:10 1514761210.449599: $GPGSA,A,3,22,23,9,3,16,29,14,31,27,26,135,,1.7,0.6,1.3*06
2017-12-31 18:00:11 1514761211.345167: $GPZDA,230012.00,31,12,2017,00,00*61
2017-12-31 18:00:11 1514761211.345334: $GPGGA,230012,3946.9564,N,08404.9866,W,2,11,0.60,307.48,M,-33.324,M,,*78
2017-12-31 18:00:11 1514761211.345401: $GPRMC,230012,A,3946.9564,N,08404.9866,W,0.0000,0.000,311217,,*35
2017-12-31 18:00:11 1514761211.345462: $GPGSA,A,3,22,23,9,3,16,29,14,31,27,26,135,,1.7,0.6,1.3*06
