2017-11-15 18:49:21 1510789761.174291: {"class":"VERSION","release":"3.17","rev":"3.17","proto_major":3,"proto_minor":12}
2017-11-15 18:49:21 1510789761.174761: {"class":"DEVICES","devices":[{"class":"DEVICE","path":"/dev/ttyUSB0","driver":"SiRF","subtype":"9\u0006GSD4e_4.1.2-P1_RPATCH.05-F-GPS-4R-1510281 11/03/2015 307","activated":"2017-11-15T23:49:20.645Z","flags":1,"native":1,"bps":4800,"parity":"N","stopbits":1,"cycle":1.00}]}
2017-11-15 18:49:21 1510789761.174891: {"class":"WATCH","enable":true,"json":false,"nmea":true,"raw":0,"scaled":false,"timing":false,"split24":false,"pps":false}
2017-11-15 18:49:21 1510789761.701391: $GPGSV,3,1,12,16,05,190,08,14,66,060,19,03,27,313,10,32,50,088,19*7B
2017-11-15 18:49:21 1510789761.701564: $GPGSV,3,2,12,31,79,322,26,26,33,177,16,25,31,049,06,29,03,087,05*7E
2017-11-15 18:49:21 1510789761.701628: $GPGSV,3,3,12,01,15,267,00,22,44,295,25,10,14,157,00,135,23,238,00*4D
2017-11-15 18:49:21 1510789761.814894: $GPZDA,234920.00,15,11,2017,00,00*68
2017-11-15 18:49:21 1510789761.815071: $GPGGA,234920,3946.9455,N,08404.9508,W,1,06,2.00,331.63,M,-33.324,M,,*7F
2017-11-15 18:49:21 1510789761.815134: $GPRMC,234920,A,3946.9455,N,08404.9508,W,0.4844,273.794,151117,,*3A
2017-11-15 18:49:21 1510789761.815194: $GPGSA,A,3,16,14,32,31,26,22,,,,,,,3.4,2.0,2.9*39
2017-11-15 18:49:22 1510789762.329740: $GPZDA,234921.00,15,11,2017,00,00*69
2017-11-15 18:49:22 1510789762.329897: $GPGGA,234921,3946.9455,N,08404.9508,W,1,06,1.40,331.63,M,-33.324,M,,*79
2017-11-15 18:49:22 1510789762.329959: $GPRMC,234921,A,3946.9455,N,08404.9508,W,0.5287,182.716,151117,,*38
2017-11-15 18:49:22 1510789762.330015: $GPGSA,A,3,16,14,32,31,26,22,,,,,,,3.4,1.4,2.9*3E
2017-11-15 18:49:23 1510789763.329084: $GPZDA,234922.00,15,11,2017,00,00*6A
2017-11-15 18:49:23 1510789763.329218: $GPGGA,234922,3946.9455,N,08404.9508,W,1,06,1.40,331.63,M,-33.324,M,,*7A
2017-11-15 18:49:23 1510789763.329278: $GPRMC,234922,A,3946.9455,N,08404.9508,W,0.5912,129.173,151117,,*38
2017-11-15 18:49:23 1510789763.329336: $GPGSA,A,3,16,14,32,31,26,22,,,,,,,3.4,1.4,2.9*3E
2017-11-15 18:49:24 1510789764.702383: $GPGSV,3,1,12,16,05,190,06,14,66,060,19,03,27,313,10,32,50,088,19*75
2017-11-15 18:49:24 1510789764.702553: $GPGSV,3,2,12,31,79,322,27,26,33,177,16,25,31,049,04,29,03,087,05*7D
2017-11-15 18:49:24 1510789764.702615: $GPGSV,3,3,12,01,15,267,00,22,44,295,25,10,14,157,00,135,23,238,00*4D
2017-11-15 18:49:24 1510789764.815727: $GPZDA,234923.00,15,11,2017,00,00*6B
2017-11-15 18:49:24 1510789764.815879: $GPGGA,234923,3946.9455,N,08404.9508,W,1,06,1.40,331.63,M,-33.324,M,,*7B
2017-11-15 18:49:24 1510789764.815940: $GPRMC,234923,A,3946.9455,N,08404.9508,W,0.3423,184.197,151117,,*3D
2017-11-15 18:49:24 1510789764.815994: $GPGSA,A,3,14,3,32,31,26,22,,,,,,,3.4,1.4,2.9*0A
2017-11-15 18:49:25 1510789765.330321: $GPZDA,234924.00,15,11,2017,00,00*6C
2017-11-15 18:49:25 1510789765.330494: $GPGGA,234924,3946.9451,N,08404.9508,W,1,06,1.40,330.99,M,-33.324,M,,*7C
2017-11-15 18:49:25 1510789765.330556: $GPRMC,234924,A,3946.9451,N,08404.9508,W,0.9060,167.792,151117,,*39
2017-11-15 18:49:25 1510789765.330614: $GPGSA,A,3,14,3,32,31,26,22,,,,,,,3.4,1.4,2.9*0A
2017-11-15 18:49:26 1510789766.329452: $GPZDA,234925.00,15,11,2017,00,00*6D
2017-11-15 18:49:26 1510789766.329617: $GPGGA,234925,3946.9451,N,08404.9508,W,1,06,1.40,330.99,M,-33.324,M,,*7D
2017-11-15 18:49:26 1510789766.329678: $GPRMC,234925,A,3946.9451,N,08404.9508,W,0.7246,164.668,151117,,*37
2017-11-15 18:49:26 1510789766.329735: $GPGSA,A,3,14,3,32,31,26,22,,,,,,,3.4,1.4,2.9*0A
2017-11-15 18:49:27 1510789767.665248: $GPGSV,3,1,12,16,05,190,07,14,66,060,19,03,27,313,11,32,50,088,20*7F
2017-11-15 18:49:27 1510789767.665424: $GPGSV,3,2,12,31,79,322,27,26,33,177,15,25,31,049,04,29,03,087,06*7D
2017-11-15 18:49:27 1510789767.665488: $GPGSV,3,3,12,01,15,267,00,22,44,295,25,10,14,157,00,135,23,238,00*4D
2017-11-15 18:49:27 1510789767.778586: $GPZDA,234926.00,15,11,2017,00,00*6E
2017-11-15 18:49:27 1510789767.778751: $GPGGA,234926,3946.9451,N,08404.9508,W,1,07,1.40,330.99,M,-33.324,M,,*7F
2017-11-15 18:49:27 1510789767.778868: $GPRMC,234926,A,3946.9451,N,08404.9508,W,0.3423,184.197,151117,,*3C
2017-11-15 18:49:27 1510789767.778928: $GPGSA,A,3,16,14,3,32,31,26,22,,,,,,3.4,1.4,2.9*0D
2017-11-15 18:49:28 1510789768.372234: $GPZDA,234927.00,15,11,2017,00,00*6F
2017-11-15 18:49:28 1510789768.372395: $GPGGA,234927,3946.9451,N,08404.9508,W,1,07,1.40,330.99,M,-33.324,M,,*7E
2017-11-15 18:49:28 1510789768.372460: $GPRMC,234927,A,3946.9451,N,08404.9508,W,0.3423,184.197,151117,,*3D
2017-11-15 18:49:28 1510789768.372517: $GPGSA,A,3,16,14,3,32,31,26,22,,,,,,3.4,1.4,2.9*0D
2017-11-15 18:49:29 1510789769.330622: $GPZDA,234928.00,15,11,2017,00,00*60
2017-11-15 18:49:29 1510789769.330784: $GPGGA,234928,3946.9454,N,08404.9508,W,1,07,1.40,330.23,M,-33.324,M,,*75
2017-11-15 18:49:29 1510789769.330844: $GPRMC,234928,A,3946.9454,N,08404.9508,W,0.3423,184.197,151117,,*37
2017-11-15 18:49:29 1510789769.330900: $GPGSA,A,3,16,14,3,32,31,26,22,,,,,,3.4,1.4,2.9*0D
2017-11-15 18:49:30 1510789770.666208: $GPGSV,3,1,12,01,15,267,00,14,66,060,19,03,27,313,12,32,50,088,20*77
2017-11-15 18:49:30 1510789770.666378: $GPGSV,3,2,12,31,79,322,27,26,33,177,15,25,31,049,04,29,03,087,06*7D
2017-11-15 18:49:30 1510789770.666439: $GPGSV,3,3,12,10,14,157,00,22,44,295,25,16,05,190,00,135,23,238,00*41
2017-11-15 18:49:30 1510789770.779789: $GPZDA,234929.00,15,11,2017,00,00*61
2017-11-15 18:49:30 1510789770.779949: $GPGGA,234929,3946.9454,N,08404.9508,W,1,06,1.40,330.23,M,-33.324,M,,*75
2017-11-15 18:49:30 1510789770.780010: $GPRMC,234929,A,3946.9454,N,08404.9508,W,0.1567,189.201,151117,,*34
2017-11-15 18:49:30 1510789770.780065: $GPGSA,A,3,14,3,32,31,26,22,,,,,,,3.4,1.4,2.9*0A
2017-11-15 18:49:31 1510789771.404810: $GPZDA,234930.00,15,11,2017,00,00*69
2017-11-15 18:49:31 1510789771.404968: $GPGGA,234930,3946.9455,N,08404.9515,W,1,06,1.40,330.15,M,-33.324,M,,*75
2017-11-15 18:49:31 1510789771.405030: $GPRMC,234930,A,3946.9455,N,08404.9515,W,0.1567,189.201,151117,,*31
2017-11-15 18:49:31 1510789771.405105: $GPGSA,A,3,14,3,32,31,26,22,,,,,,,3.4,1.4,2.9*0A
2017-11-15 18:49:32 1510789772.365790: $GPZDA,234931.00,15,11,2017,00,00*68
2017-11-15 18:49:32 1510789772.365951: $GPGGA,234931,3946.9458,N,08404.9514,W,1,06,2.00,329.39,M,-33.324,M,,*79
2017-11-15 18:49:32 1510789772.366011: $GPRMC,234931,A,3946.9458,N,08404.9514,W,0.4179,328.778,151117,,*30
2017-11-15 18:49:32 1510789772.366068: $GPGSA,A,3,14,3,32,31,26,22,,,,,,,3.4,2.0,2.9*0D
2017-11-15 18:49:33 1510789773.664000: $GPGSV,3,1,12,25,31,049,00,14,66,060,19,03,27,313,08,32,50,088,20*72
2017-11-15 18:49:33 1510789773.664174: $GPGSV,3,2,12,31,79,322,27,26,33,177,15,01,15,267,00,29,03,087,06*77
2017-11-15 18:49:33 1510789773.664234: $GPGSV,3,3,12,10,14,157,00,22,44,295,25,16,05,190,00,135,23,238,00*41
2017-11-15 18:49:33 1510789773.777423: $GPZDA,234932.00,15,11,2017,00,00*6B
2017-11-15 18:49:33 1510789773.777602: $GPGGA,234932,3946.9458,N,08404.9514,W,1,07,2.00,329.39,M,-33.324,M,,*7B
2017-11-15 18:49:33 1510789773.777664: $GPRMC,234932,A,3946.9458,N,08404.9514,W,0.3155,309.994,151117,,*35
2017-11-15 18:49:33 1510789773.777720: $GPGSA,A,3,14,3,32,31,26,29,22,,,,,,3.4,2.0,2.9*06
2017-11-15 18:49:34 1510789774.329462: $GPZDA,234933.00,15,11,2017,00,00*6A
2017-11-15 18:49:34 1510789774.329639: $GPGGA,234933,3946.9458,N,08404.9514,W,1,07,1.40,329.39,M,-33.324,M,,*7D
2017-11-15 18:49:34 1510789774.329700: $GPRMC,234933,A,3946.9458,N,08404.9514,W,0.1867,0.000,151117,,*30
2017-11-15 18:49:34 1510789774.329756: $GPGSA,A,3,14,3,32,31,26,29,22,,,,,,3.4,1.4,2.9*01
2017-11-15 18:49:35 1510789775.328280: $GPZDA,234934.00,15,11,2017,00,00*6D
2017-11-15 18:49:35 1510789775.328458: $GPGGA,234934,3946.9462,N,08404.9513,W,1,07,1.40,328.62,M,-33.324,M,,*7B
2017-11-15 18:49:35 1510789775.328536: $GPRMC,234934,A,3946.9462,N,08404.9513,W,0.2422,273.794,151117,,*3B
2017-11-15 18:49:35 1510789775.328595: $GPGSA,A,3,14,3,32,31,26,29,22,,,,,,3.4,1.4,2.9*01
2017-11-15 18:49:36 1510789776.664454: $GPGSV,3,1,12,25,31,049,00,14,66,060,19,03,27,313,10,32,50,088,20*7B
2017-11-15 18:49:36 1510789776.664644: $GPGSV,3,2,12,31,79,322,28,26,33,177,15,01,15,267,00,29,03,087,08*76
2017-11-15 18:49:36 1510789776.664754: $GPGSV,3,3,12,10,14,157,00,22,44,295,24,16,05,190,00,135,23,238,00*40
2017-11-15 18:49:36 1510789776.778148: $GPZDA,234935.00,15,11,2017,00,00*6C
2017-11-15 18:49:36 1510789776.778308: $GPGGA,234935,3946.9466,N,08404.9513,W,1,07,1.40,329.26,M,-33.324,M,,*7F
2017-11-15 18:49:36 1510789776.778369: $GPRMC,234935,A,3946.9466,N,08404.9513,W,0.1867,0.000,151117,,*3C
2017-11-15 18:49:36 1510789776.778446: $GPGSA,A,3,14,3,32,31,26,29,22,,,,,,3.4,1.4,2.9*01
2017-11-15 18:49:37 1510789777.371219: $GPZDA,234936.00,15,11,2017,00,00*6F
2017-11-15 18:49:37 1510789777.371370: $GPGGA,234936,3946.9466,N,08404.9513,W,1,07,1.40,329.26,M,-33.324,M,,*7C
2017-11-15 18:49:37 1510789777.371435: $GPRMC,234936,A,3946.9466,N,08404.9513,W,0.0000,0.000,151117,,*37
2017-11-15 18:49:37 1510789777.371491: $GPGSA,A,3,14,3,32,31,26,29,22,,,,,,3.4,1.4,2.9*01
2017-11-15 18:49:38 1510789778.367358: $GPZDA,234937.00,15,11,2017,00,00*6E
2017-11-15 18:49:38 1510789778.367573: $GPGGA,234937,3946.9469,N,08404.9513,W,1,07,1.40,328.50,M,-33.324,M,,*72
2017-11-15 18:49:38 1510789778.367641: $GPRMC,234937,A,3946.9469,N,08404.9513,W,0.4207,39.347,151117,,*02
2017-11-15 18:49:38 1510789778.367699: $GPGSA,A,3,14,3,32,31,26,29,22,,,,,,3.4,1.4,2.9*01
2017-11-15 18:49:39 1510789779.665318: $GPGSV,3,1,12,12,01,030,14,14,66,060,20,03,27,313,12,32,50,088,21*7E
2017-11-15 18:49:39 1510789779.665491: $GPGSV,3,2,12,31,79,322,28,26,33,177,16,25,31,049,00,29,03,087,08*7B
2017-11-15 18:49:39 1510789779.665553: $GPGSV,3,3,12,01,15,267,00,22,44,295,24,10,14,157,00,135,23,238,00*4C
2017-11-15 18:49:39 1510789779.778660: $GPZDA,234938.00,15,11,2017,00,00*61
2017-11-15 18:49:39 1510789779.778823: $GPGGA,234938,3946.9469,N,08404.9513,W,1,07,1.40,328.50,M,-33.324,M,,*7D
2017-11-15 18:49:39 1510789779.778884: $GPRMC,234938,A,3946.9469,N,08404.9513,W,0.5951,58.684,151117,,*09
2017-11-15 18:49:39 1510789779.778940: $GPGSA,A,3,14,3,32,31,26,29,22,,,,,,3.4,1.4,2.9*01
2017-11-15 18:49:40 1510789780.329848: $GPZDA,234939.00,15,11,2017,00,00*60
2017-11-15 18:49:40 1510789780.330064: $GPGGA,234939,3946.9473,N,08404.9512,W,1,07,1.40,327.73,M,-33.324,M,,*78
2017-11-15 18:49:40 1510789780.330126: $GPRMC,234939,A,3946.9473,N,08404.9512,W,0.4207,39.347,151117,,*06
2017-11-15 18:49:40 1510789780.330183: $GPGSA,A,3,14,3,32,31,26,29,22,,,,,,3.4,1.4,2.9*01
2017-11-15 18:49:41 1510789781.328608: $GPZDA,234940.00,15,11,2017,00,00*6E
2017-11-15 18:49:41 1510789781.328775: $GPGGA,234940,3946.9473,N,08404.9512,W,1,07,1.40,327.73,M,-33.324,M,,*76
2017-11-15 18:49:41 1510789781.328836: $GPRMC,234940,A,3946.9473,N,08404.9512,W,0.8414,39.347,151117,,*00
2017-11-15 18:49:41 1510789781.328892: $GPGSA,A,3,14,3,32,31,26,29,22,,,,,,3.4,1.4,2.9*01
2017-11-15 18:49:42 1510789782.665699: $GPGSV,3,1,12,12,01,030,13,14,66,060,20,03,27,313,13,32,50,088,21*78
2017-11-15 18:49:42 1510789782.665868: $GPGSV,3,2,12,31,79,322,28,26,33,177,15,25,31,049,00,29,03,087,09*79
2017-11-15 18:49:42 1510789782.665929: $GPGSV,3,3,12,01,15,267,00,22,44,295,24,10,14,157,00,135,23,238,00*4C
2017-11-15 18:49:42 1510789782.779413: $GPZDA,234941.00,15,11,2017,00,00*6F
2017-11-15 18:49:42 1510789782.779577: $GPGGA,234941,3946.9480,N,08404.9511,W,1,08,1.40,327.61,M,-33.324,M,,*74
2017-11-15 18:49:42 1510789782.779637: $GPRMC,234941,A,3946.9480,N,08404.9511,W,1.2621,39.347,151117,,*01
2017-11-15 18:49:42 1510789782.779693: $GPGSA,A,3,12,14,3,32,31,26,29,22,,,,,3.4,1.4,2.9*02
2017-11-15 18:49:43 1510789783.329661: $GPZDA,234942.00,15,11,2017,00,00*6C
2017-11-15 18:49:43 1510789783.329829: $GPGGA,234942,3946.9480,N,08404.9511,W,1,08,1.40,327.61,M,-33.324,M,,*77
2017-11-15 18:49:43 1510789783.329892: $GPRMC,234942,A,3946.9480,N,08404.9511,W,0.4179,328.778,151117,,*34
2017-11-15 18:49:43 1510789783.329948: $GPGSA,A,3,12,14,3,32,31,26,29,22,,,,,3.4,1.4,2.9*02
2017-11-15 18:49:44 1510789784.328253: $GPZDA,234943.00,15,11,2017,00,00*6D
2017-11-15 18:49:44 1510789784.328563: $GPGGA,234943,3946.9476,N,08404.9511,W,1,08,1.40,326.97,M,-33.324,M,,*77
2017-11-15 18:49:44 1510789784.328678: $GPRMC,234943,A,3946.9476,N,08404.9511,W,0.3423,184.197,151117,,*32
2017-11-15 18:49:44 1510789784.328736: $GPGSA,A,3,12,14,3,32,31,26,29,22,,,,,3.4,1.4,2.9*02
2017-11-15 18:49:45 1510789785.701537: $GPGSV,3,1,12,25,31,049,00,14,66,060,20,03,27,313,13,32,50,088,20*72
2017-11-15 18:49:45 1510789785.701709: $GPGSV,3,2,12,31,79,322,28,26,33,177,15,01,15,267,00,29,03,087,08*76
2017-11-15 18:49:45 1510789785.701768: $GPGSV,3,3,12,10,14,157,00,22,44,295,24,16,05,190,00,135,23,238,00*40
2017-11-15 18:49:45 1510789785.815429: $GPZDA,234944.00,15,11,2017,00,00*6A
2017-11-15 18:49:45 1510789785.815625: $GPGGA,234944,3946.9476,N,08404.9511,W,1,07,1.40,326.97,M,-33.324,M,,*7F
2017-11-15 18:49:45 1510789785.815688: $GPRMC,234944,A,3946.9476,N,08404.9511,W,0.5287,182.716,151117,,*32
2017-11-15 18:49:45 1510789785.815757: $GPGSA,A,3,14,3,32,31,26,29,22,,,,,,3.4,1.4,2.9*01
2017-11-15 18:49:46 1510789786.440585: $GPZDA,234945.00,15,11,2017,00,00*6B
2017-11-15 18:49:46 1510789786.440746: $GPGGA,234945,3946.9480,N,08404.9510,W,1,07,1.40,326.20,M,-33.324,M,,*7A
2017-11-15 18:49:46 1510789786.440807: $GPRMC,234945,A,3946.9480,N,08404.9510,W,0.3423,184.197,151117,,*3C
2017-11-15 18:49:46 1510789786.440862: $GPGSA,A,3,14,3,32,31,26,29,22,,,,,,3.4,1.4,2.9*01
2017-11-15 18:49:47 1510789787.371094: $GPZDA,234946.00,15,11,2017,00,00*68
2017-11-15 18:49:47 1510789787.371561: $GPGGA,234946,3946.9480,N,08404.9510,W,1,07,1.40,326.20,M,-33.324,M,,*79
2017-11-15 18:49:47 1510789787.371634: $GPRMC,234946,A,3946.9480,N,08404.9510,W,0.2422,93.794,151117,,*0D
2017-11-15 18:49:47 1510789787.371690: $GPGSA,A,3,14,3,32,31,26,29,22,,,,,,3.4,1.4,2.9*01
2017-11-15 18:49:48 1510789788.671788: $GPGSV,3,1,12,12,01,030,14,14,66,060,20,03,27,313,12,32,50,088,20*7F
2017-11-15 18:49:48 1510789788.671959: $GPGSV,3,2,12,31,79,322,28,26,33,177,15,16,05,190,07,29,03,087,06*73
2017-11-15 18:49:48 1510789788.672019: $GPGSV,3,3,12,25,31,049,00,22,44,295,23,01,15,267,00,120,07,103,00*4D
2017-11-15 18:49:48 1510789788.785132: $GPZDA,234947.00,15,11,2017,00,00*69
2017-11-15 18:49:48 1510789788.785295: $GPGGA,234947,3946.9479,N,08404.9503,W,1,06,1.40,326.28,M,-33.324,M,,*75
2017-11-15 18:49:48 1510789788.785374: $GPRMC,234947,A,3946.9479,N,08404.9503,W,0.7070,48.986,151117,,*05
2017-11-15 18:49:48 1510789788.785432: $GPGSA,A,3,14,3,32,31,26,22,,,,,,,3.4,1.4,2.9*0A
2017-11-15 18:49:49 1510789789.366018: $GPZDA,234948.00,15,11,2017,00,00*66
2017-11-15 18:49:49 1510789789.366171: $GPGGA,234948,3946.9483,N,08404.9503,W,1,06,1.40,325.52,M,-33.324,M,,*71
2017-11-15 18:49:49 1510789789.366231: $GPRMC,234948,A,3946.9483,N,08404.9503,W,0.6846,4.197,151117,,*33
2017-11-15 18:49:49 1510789789.366288: $GPGSA,A,3,14,3,32,31,26,22,,,,,,,3.4,1.4,2.9*0A
2017-11-15 18:49:50 1510789790.371885: $GPZDA,234949.00,15,11,2017,00,00*67
2017-11-15 18:49:50 1510789790.372048: $GPGGA,234949,3946.9486,N,08404.9502,W,1,06,1.40,324.75,M,-33.324,M,,*70
2017-11-15 18:49:50 1510789790.372108: $GPRMC,234949,A,3946.9486,N,08404.9502,W,1.0269,4.197,151117,,*36
2017-11-15 18:49:50 1510789790.372163: $GPGSA,A,3,14,3,32,31,26,22,,,,,,,3.4,1.4,2.9*0A
