2017-12-01 18:22:39 1512170559.136760: {"class":"VERSION","release":"3.16","rev":"3.16-4","proto_major":3,"proto_minor":11}
2017-12-01 18:22:39 1512170559.137147: {"class":"DEVICES","devices":[{"class":"DEVICE","path":"/dev/ttyUSB0","driver":"SiRF","subtype":"9\u0006GSD4e_4.1.2-P1_RPATCH.05-F-GPS-4R-1510281 11/03/2015 307","activated":"2017-12-01T23:22:39.072Z","flags":1,"native":1,"bps":4800,"parity":"N","stopbits":1,"cycle":1.00}]}
2017-12-01 18:22:39 1512170559.137349: {"class":"WATCH","enable":true,"json":false,"nmea":true,"raw":0,"scaled":false,"timing":false,"split24":false,"pps":false}
2017-12-01 18:22:40 1512170560.115405: $GPZDA,232240.39,01,12,2017,00,00*6F
2017-12-01 18:22:40 1512170560.115591: $GPGGA,232240,3946.9722,N,08404.9846,W,1,11,0.80,295.68,M,-33.325,M,,*79
2017-12-01 18:22:40 1512170560.115675: $GPRMC,232240,A,3946.9722,N,08404.9846,W,0.0000,0.000,011217,,*33
2017-12-01 18:22:40 1512170560.115738: $GPGSA,A,3,1,3,14,16,22,23,25,26,31,32,138,,2.0,0.8,1.5*07
2017-12-01 18:22:40 1512170560.115889: $GPGBS,232240,10.70,M,15.43,M,35.28,M*02
2017-12-01 18:22:41 1512170561.308494: $GPGSV,3,1,12,01,06,253,35,03,40,300,47,14,55,091,44,16,23,189,44*71
2017-12-01 18:22:41 1512170561.308677: $GPGSV,3,2,12,22,50,271,44,23,11,300,41,25,18,040,39,26,53,172,46*79
2017-12-01 18:22:41 1512170561.308745: $GPGSV,3,3,12,31,67,025,47,32,36,108,43,29,11,072,06,138,38,213,39*44
2017-12-01 18:22:41 1512170561.422922: $GPZDA,232241.00,01,12,2017,00,00*64
2017-12-01 18:22:41 1512170561.423197: $GPGGA,232241,3946.9722,N,08404.9846,W,1,11,0.80,295.68,M,-33.325,M,,*78
2017-12-01 18:22:41 1512170561.423270: $GPRMC,232241,A,3946.9722,N,08404.9846,W,0.0000,0.000,011217,,*32
2017-12-01 18:22:41 1512170561.423349: $GPGSA,A,3,1,3,14,16,22,23,25,26,31,32,138,,2.0,0.8,1.5*07
2017-12-01 18:22:41 1512170561.874305: $GPZDA,232242.00,01,12,2017,00,00*67
2017-12-01 18:22:41 1512170561.874478: $GPGGA,232242,3946.9722,N,08404.9846,W,1,11,0.80,295.68,M,-33.325,M,,*7B
2017-12-01 18:22:41 1512170561.874545: $GPRMC,232242,A,3946.9722,N,08404.9846,W,0.0000,0.000,011217,,*31
2017-12-01 18:22:41 1512170561.874606: $GPGSA,A,3,1,3,14,16,22,23,25,26,31,32,138,,2.0,0.8,1.5*07
2017-12-01 18:22:42 1512170562.426111: $GPZDA,232243.00,01,12,2017,00,00*66
2017-12-01 18:22:42 1512170562.426333: $GPGGA,232243,3946.9722,N,08404.9839,W,1,11,0.80,295.76,M,-33.325,M,,*7D
2017-12-01 18:22:42 1512170562.426401: $GPRMC,232243,A,3946.9722,N,08404.9839,W,0.0000,0.000,011217,,*38
2017-12-01 18:22:42 1512170562.426462: $GPGSA,A,3,1,3,14,16,22,23,25,26,31,32,138,,2.0,0.8,1.5*07
2017-12-01 18:22:43 1512170563.766215: $GPGSV,3,1,12,01,06,253,35,03,40,300,47,14,55,091,44,16,23,189,44*71
2017-12-01 18:22:43 1512170563.766459: $GPGSV,3,2,12,22,50,271,45,23,11,300,41,25,18,040,41,26,53,172,46*77
2017-12-01 18:22:43 1512170563.766530: $GPGSV,3,3,12,31,67,025,47,32,36,108,43,29,11,072,21,138,38,213,46*49
2017-12-01 18:22:43 1512170563.873904: $GPZDA,232244.00,01,12,2017,00,00*61
2017-12-01 18:22:43 1512170563.874077: $GPGGA,232244,3946.9722,N,08404.9839,W,1,12,0.80,295.76,M,-33.325,M,,*79
2017-12-01 18:22:43 1512170563.874171: $GPRMC,232244,A,3946.9722,N,08404.9839,W,0.0000,0.000,011217,,*3F
2017-12-01 18:22:43 1512170563.874233: $GPGSA,A,3,1,3,14,16,22,23,25,26,31,32,29,138,2.0,0.8,1.5*0C
2017-12-01 18:22:44 1512170564.424715: $GPZDA,232245.00,01,12,2017,00,00*60
2017-12-01 18:22:44 1512170564.424902: $GPGGA,232245,3946.9725,N,08404.9838,W,1,12,0.80,294.99,M,-33.325,M,,*7E
2017-12-01 18:22:44 1512170564.424971: $GPRMC,232245,A,3946.9725,N,08404.9838,W,0.0000,0.000,011217,,*38
2017-12-01 18:22:44 1512170564.425032: $GPGSA,A,3,1,3,14,16,22,23,25,26,31,32,29,138,2.0,0.8,1.5*0C
2017-12-01 18:22:45 1512170565.424005: $GPZDA,232246.00,01,12,2017,00,00*63
2017-12-01 18:22:45 1512170565.424389: $GPGGA,232246,3946.9725,N,08404.9838,W,1,12,0.80,294.99,M,-33.325,M,,*7D
2017-12-01 18:22:45 1512170565.424558: $GPRMC,232246,A,3946.9725,N,08404.9838,W,0.0000,0.000,011217,,*3B
2017-12-01 18:22:45 1512170565.424658: $GPGSA,A,3,1,3,14,16,22,23,25,26,31,32,29,138,2.0,0.8,1.5*0C
2017-12-01 18:22:45 1512170565.424901: $GPGBS,232246,10.70,M,15.43,M,35.28,M*04
2017-12-01 18:22:46 1512170566.762056: $GPGSV,3,1,12,01,06,253,36,03,40,300,48,14,55,091,44,16,23,189,44*7D
2017-12-01 18:22:46 1512170566.762271: $GPGSV,3,2,12,22,50,271,45,23,11,300,41,25,18,040,41,26,53,172,46*77
2017-12-01 18:22:46 1512170566.762338: $GPGSV,3,3,12,31,67,025,46,32,36,108,34,29,11,072,21,138,38,213,46*48
2017-12-01 18:22:46 1512170566.875417: $GPZDA,232247.00,01,12,2017,00,00*62
2017-12-01 18:22:46 1512170566.875572: $GPGGA,232247,3946.9732,N,08404.9823,W,2,12,3.00,295.03,M,-33.325,M,,*7A
2017-12-01 18:22:46 1512170566.875640: $GPRMC,232247,A,3946.9732,N,08404.9823,W,0.0000,0.000,011217,,*36
2017-12-01 18:22:46 1512170566.875701: $GPGSA,A,3,1,3,14,16,22,23,25,26,31,32,29,138,2.0,3.0,1.5*07
2017-12-01 18:22:47 1512170567.426623: $GPZDA,232248.00,01,12,2017,00,00*6D
2017-12-01 18:22:47 1512170567.426792: $GPGGA,232248,3946.9732,N,08404.9823,W,2,12,0.80,295.03,M,-33.325,M,,*7E
2017-12-01 18:22:47 1512170567.426860: $GPRMC,232248,A,3946.9732,N,08404.9823,W,0.0000,0.000,011217,,*39
2017-12-01 18:22:47 1512170567.426921: $GPGSA,A,3,1,3,14,16,22,23,25,26,31,32,29,138,2.0,0.8,1.5*0C
2017-12-01 18:22:48 1512170568.429648: $GPZDA,232249.00,01,12,2017,00,00*6C
2017-12-01 18:22:48 1512170568.429820: $GPGGA,232249,3946.9732,N,08404.9816,W,2,12,0.80,295.11,M,-33.325,M,,*7A
2017-12-01 18:22:48 1512170568.429887: $GPRMC,232249,A,3946.9732,N,08404.9816,W,0.2422,93.794,011217,,*08
2017-12-01 18:22:48 1512170568.429947: $GPGSA,A,3,1,3,14,16,22,23,25,26,31,32,29,138,2.0,0.8,1.5*0C
2017-12-01 18:22:49 1512170569.761276: $GPGSV,3,1,12,01,06,253,37,03,40,300,48,14,55,091,44,16,23,189,44*7C
2017-12-01 18:22:49 1512170569.761493: $GPGSV,3,2,12,22,50,271,45,23,11,300,41,25,18,040,41,26,53,172,46*77
2017-12-01 18:22:49 1512170569.761562: $GPGSV,3,3,12,31,67,025,47,32,36,108,37,29,11,072,21,138,38,213,46*4A
2017-12-01 18:22:49 1512170569.874687: $GPZDA,232250.00,01,12,2017,00,00*64
2017-12-01 18:22:49 1512170569.874862: $GPGGA,232250,3946.9732,N,08404.9816,W,2,12,0.80,295.11,M,-33.325,M,,*72
2017-12-01 18:22:49 1512170569.874930: $GPRMC,232250,A,3946.9732,N,08404.9816,W,0.0000,0.000,011217,,*36
2017-12-01 18:22:49 1512170569.874991: $GPGSA,A,3,1,3,14,16,22,23,25,26,31,32,29,138,2.0,0.8,1.5*0C
2017-12-01 18:22:50 1512170570.430677: $GPZDA,232251.00,01,12,2017,00,00*65
2017-12-01 18:22:50 1512170570.430846: $GPGGA,232251,3946.9732,N,08404.9816,W,2,12,0.80,295.11,M,-33.325,M,,*73
2017-12-01 18:22:50 1512170570.430914: $GPRMC,232251,A,3946.9732,N,08404.9816,W,0.0000,0.000,011217,,*37
2017-12-01 18:22:50 1512170570.430975: $GPGSA,A,3,1,3,14,16,22,23,25,26,31,32,29,138,2.0,0.8,1.5*0C
2017-12-01 18:22:51 1512170571.435341: $GPZDA,232252.00,01,12,2017,00,00*66
2017-12-01 18:22:51 1512170571.435508: $GPGGA,232252,3946.9732,N,08404.9816,W,2,12,0.80,295.11,M,-33.325,M,,*70
2017-12-01 18:22:51 1512170571.435575: $GPRMC,232252,A,3946.9732,N,08404.9816,W,0.0000,0.000,011217,,*34
2017-12-01 18:22:51 1512170571.435635: $GPGSA,A,3,1,3,14,16,22,23,25,26,31,32,29,138,2.0,0.8,1.5*0C
2017-12-01 18:22:52 1512170572.767122: $GPGSV,3,1,12,01,06,253,37,03,40,300,48,14,55,091,44,16,23,189,44*7C
2017-12-01 18:22:52 1512170572.767320: $GPGSV,3,2,12,22,50,271,45,23,11,300,41,25,18,040,41,26,53,172,46*77
2017-12-01 18:22:52 1512170572.767387: $GPGSV,3,3,12,31,67,025,47,32,36,108,38,29,11,072,18,138,38,213,46*4F
2017-12-01 18:22:52 1512170572.880498: $GPZDA,232253.00,01,12,2017,00,00*67
2017-12-01 18:22:52 1512170572.880667: $GPGGA,232253,3946.9732,N,08404.9816,W,2,11,0.80,295.11,M,-33.325,M,,*72
2017-12-01 18:22:52 1512170572.880734: $GPRMC,232253,A,3946.9732,N,08404.9816,W,0.0000,0.000,011217,,*35
2017-12-01 18:22:52 1512170572.880795: $GPGSA,A,3,1,3,14,16,22,23,25,26,31,32,138,,2.0,0.8,1.5*07
2017-12-01 18:22:53 1512170573.507537: $GPZDA,232254.00,01,12,2017,00,00*60
2017-12-01 18:22:53 1512170573.507732: $GPGGA,232254,3946.9732,N,08404.9816,W,2,11,0.80,295.11,M,-33.325,M,,*75
2017-12-01 18:22:53 1512170573.507806: $GPRMC,232254,A,3946.9732,N,08404.9816,W,0.0000,0.000,011217,,*32
2017-12-01 18:22:53 1512170573.507941: $GPGSA,A,3,1,3,14,16,22,23,25,26,31,32,138,,2.0,0.8,1.5*07
2017-12-01 18:22:54 1512170574.425685: $GPZDA,232255.00,01,12,2017,00,00*61
2017-12-01 18:22:54 1512170574.425856: $GPGGA,232255,3946.9732,N,08404.9816,W,2,11,0.80,295.11,M,-33.325,M,,*74
2017-12-01 18:22:54 1512170574.425924: $GPRMC,232255,A,3946.9732,N,08404.9816,W,0.0000,0.000,011217,,*33
2017-12-01 18:22:54 1512170574.425986: $GPGSA,A,3,1,3,14,16,22,23,25,26,31,32,138,,2.0,0.8,1.5*07
2017-12-01 18:22:55 1512170575.766363: $GPGSV,3,1,12,01,06,253,36,03,40,300,48,14,55,091,44,16,23,189,44*7D
2017-12-01 18:22:55 1512170575.766545: $GPGSV,3,2,12,22,50,271,46,23,11,300,42,25,18,040,40,26,53,172,46*76
2017-12-01 18:22:55 1512170575.766614: $GPGSV,3,3,12,31,67,025,47,32,36,108,39,29,11,072,14,138,38,213,46*42
2017-12-01 18:22:55 1512170575.879869: $GPZDA,232256.00,01,12,2017,00,00*62
2017-12-01 18:22:55 1512170575.880057: $GPGGA,232256,3946.9732,N,08404.9816,W,2,12,0.80,295.11,M,-33.325,M,,*74
2017-12-01 18:22:55 1512170575.880132: $GPRMC,232256,A,3946.9732,N,08404.9816,W,0.0000,0.000,011217,,*30
2017-12-01 18:22:55 1512170575.880197: $GPGSA,A,3,1,3,14,16,22,23,25,26,31,32,29,138,2.0,0.8,1.5*0C
2017-12-01 18:22:56 1512170576.430650: $GPZDA,232257.00,01,12,2017,00,00*63
2017-12-01 18:22:56 1512170576.430820: $GPGGA,232257,3946.9732,N,08404.9816,W,2,12,0.80,295.11,M,-33.325,M,,*75
2017-12-01 18:22:56 1512170576.430887: $GPRMC,232257,A,3946.9732,N,08404.9816,W,0.0000,0.000,011217,,*31
2017-12-01 18:22:56 1512170576.430948: $GPGSA,A,3,1,3,14,16,22,23,25,26,31,32,29,138,2.0,0.8,1.5*0C
2017-12-01 18:22:57 1512170577.430455: $GPZDA,232258.00,01,12,2017,00,00*6C
2017-12-01 18:22:57 1512170577.430636: $GPGGA,232258,3946.9732,N,08404.9816,W,2,12,0.80,295.11,M,-33.325,M,,*7A
2017-12-01 18:22:57 1512170577.430704: $GPRMC,232258,A,3946.9732,N,08404.9816,W,0.0000,0.000,011217,,*3E
2017-12-01 18:22:57 1512170577.430766: $GPGSA,A,3,1,3,14,16,22,23,25,26,31,32,29,138,2.0,0.8,1.5*0C
2017-12-01 18:22:57 1512170577.430826: $GPGBS,232258,2.67,M,3.86,M,8.82,M*3E
2017-12-01 18:22:58 1512170578.766585: $GPGSV,3,1,12,01,06,253,36,03,40,300,48,14,55,091,44,16,23,189,44*7D
2017-12-01 18:22:58 1512170578.766794: $GPGSV,3,2,12,22,50,271,46,23,11,300,42,25,18,040,40,26,53,172,46*76
2017-12-01 18:22:58 1512170578.766862: $GPGSV,3,3,12,31,67,025,47,32,36,108,40,29,11,072,00,138,38,213,46*49
2017-12-01 18:22:58 1512170578.879920: $GPZDA,232259.00,01,12,2017,00,00*6D
2017-12-01 18:22:58 1512170578.880121: $GPGGA,232259,3946.9732,N,08404.9816,W,2,11,0.80,295.11,M,-33.325,M,,*78
2017-12-01 18:22:58 1512170578.880189: $GPRMC,232259,A,3946.9732,N,08404.9816,W,0.0000,0.000,011217,,*3F
2017-12-01 18:22:58 1512170578.880250: $GPGSA,A,3,1,3,14,16,22,23,25,26,31,32,138,,2.0,0.8,1.5*07
