2018-01-12 04:00:31 1515747631.783398: {"class":"VERSION","release":"3.16","rev":"3.16-4","proto_major":3,"proto_minor":11}
2018-01-12 04:00:31 1515747631.783747: {"class":"DEVICES","devices":[{"class":"DEVICE","path":"/dev/ttyUSB0","driver":"SiRF","subtype":"9\u0006GSD4e_4.1.2-P1_RPATCH.05-F-GPS-4R-1510281 11/03/2015 307","activated":"2018-01-12T09:00:31.781Z","flags":1,"native":1,"bps":4800,"parity":"N","stopbits":1,"cycle":1.00}]}
2018-01-12 04:00:31 1515747631.783864: {"class":"WATCH","enable":true,"json":false,"nmea":true,"raw":0,"scaled":false,"timing":false,"split24":false,"pps":false}
2018-01-12 04:00:32 1515747632.333185: $GPZDA,090033.00,12,01,2018,00,00*66
2018-01-12 04:00:32 1515747632.333363: $GPGGA,090033,3946.9656,N,08404.9721,W,2,10,1.00,300.99,M,-33.324,M,,*70
2018-01-12 04:00:32 1515747632.333432: $GPRMC,090033,A,3946.9656,N,08404.9721,W,0.0000,0.000,120118,,*3C
2018-01-12 04:00:32 1515747632.333495: $GPGSA,A,3,2,5,6,12,23,25,29,17,19,138,,,2.4,1.0,2.1*3D
2018-01-12 04:00:33 1515747633.327508: $GPZDA,090034.00,12,01,2018,00,00*61
2018-01-12 04:00:33 1515747633.354433: $GPGGA,090034,3946.9656,N,08404.9721,W,2,10,1.00,300.99,M,-33.324,M,,*77
2018-01-12 04:00:33 1515747633.354561: $GPRMC,090034,A,3946.9656,N,08404.9721,W,0.0000,0.000,120118,,*3B
2018-01-12 04:00:33 1515747633.354628: $GPGSA,A,3,2,5,6,12,23,25,29,17,19,138,,,2.4,1.0,2.1*3D
2018-01-12 04:00:34 1515747634.681939: $GPGSV,3,1,12,02,70,316,44,05,39,196,48,06,54,045,44,12,54,268,47*7F
2018-01-12 04:00:34 1515747634.682122: $GPGSV,3,2,12,23,08,045,26,25,27,310,41,29,04,303,45,17,22,114,07*79
2018-01-12 04:00:34 1515747634.682187: $GPGSV,3,3,12,09,18,076,00,04,47,273,00,19,40,106,15,138,38,213,48*48
2018-01-12 04:00:34 1515747634.795576: $GPZDA,090035.00,12,01,2018,00,00*60
2018-01-12 04:00:34 1515747634.795739: $GPGGA,090035,3946.9656,N,08404.9721,W,2,09,1.00,300.99,M,-33.324,M,,*7E
2018-01-12 04:00:34 1515747634.795804: $GPRMC,090035,A,3946.9656,N,08404.9721,W,0.0000,0.000,120118,,*3A
2018-01-12 04:00:34 1515747634.795866: $GPGSA,A,3,2,5,6,12,23,25,29,19,138,,,,2.4,1.0,2.1*3B
2018-01-12 04:00:35 1515747635.327812: $GPZDA,090036.00,12,01,2018,00,00*63
2018-01-12 04:00:35 1515747635.327982: $GPGGA,090036,3946.9656,N,08404.9721,W,2,09,1.00,300.99,M,-33.324,M,,*7D
2018-01-12 04:00:35 1515747635.328049: $GPRMC,090036,A,3946.9656,N,08404.9721,W,0.0000,0.000,120118,,*39
2018-01-12 04:00:35 1515747635.328110: $GPGSA,A,3,2,5,6,12,23,25,29,19,138,,,,2.4,1.0,2.1*3B
2018-01-12 04:00:36 1515747636.328206: $GPZDA,090037.00,12,01,2018,00,00*62
2018-01-12 04:00:36 1515747636.328386: $GPGGA,090037,3946.9656,N,08404.9721,W,2,09,1.00,300.99,M,-33.324,M,,*7C
2018-01-12 04:00:36 1515747636.328452: $GPRMC,090037,A,3946.9656,N,08404.9721,W,0.0000,0.000,120118,,*38
2018-01-12 04:00:36 1515747636.328516: $GPGSA,A,3,2,5,6,12,23,25,29,19,138,,,,2.4,1.0,2.1*3B
2018-01-12 04:00:37 1515747637.683586: $GPGSV,3,1,12,02,70,316,44,05,39,196,47,06,54,045,45,12,54,268,47*71
2018-01-12 04:00:37 1515747637.683770: $GPGSV,3,2,12,23,08,045,27,25,27,310,40,29,04,303,45,17,22,114,28*74
2018-01-12 04:00:37 1515747637.686319: $GPGSV,3,3,12,09,18,076,00,04,47,273,00,19,40,106,13,138,38,213,47*41
2018-01-12 04:00:37 1515747637.797215: $GPZDA,090038.00,12,01,2018,00,00*6D
2018-01-12 04:00:37 1515747637.797387: $GPGGA,090038,3946.9656,N,08404.9721,W,2,10,1.00,300.99,M,-33.324,M,,*7B
2018-01-12 04:00:37 1515747637.797452: $GPRMC,090038,A,3946.9656,N,08404.9721,W,0.0000,0.000,120118,,*37
2018-01-12 04:00:37 1515747637.797514: $GPGSA,A,3,2,5,6,12,23,25,29,17,19,138,,,2.4,1.0,2.1*3D
2018-01-12 04:00:38 1515747638.345377: $GPZDA,090039.00,12,01,2018,00,00*6C
2018-01-12 04:00:38 1515747638.345553: $GPGGA,090039,3946.9656,N,08404.9721,W,2,10,1.00,300.99,M,-33.324,M,,*7A
2018-01-12 04:00:38 1515747638.345625: $GPRMC,090039,A,3946.9656,N,08404.9721,W,0.0000,0.000,120118,,*36
2018-01-12 04:00:38 1515747638.345686: $GPGSA,A,3,2,5,6,12,23,25,29,17,19,138,,,2.4,1.0,2.1*3D
2018-01-12 04:00:39 1515747639.327509: $GPZDA,090040.00,12,01,2018,00,00*62
2018-01-12 04:00:39 1515747639.327709: $GPGGA,090040,3946.9656,N,08404.9721,W,2,10,1.00,300.99,M,-33.324,M,,*74
2018-01-12 04:00:39 1515747639.327849: $GPRMC,090040,A,3946.9656,N,08404.9721,W,0.0000,0.000,120118,,*38
2018-01-12 04:00:39 1515747639.327917: $GPGSA,A,3,2,5,6,12,23,25,29,17,19,138,,,2.4,1.0,2.1*3D
2018-01-12 04:00:40 1515747640.683177: $GPGSV,3,1,12,02,70,316,44,05,39,196,47,06,54,045,45,12,54,268,47*71
2018-01-12 04:00:40 1515747640.683362: $GPGSV,3,2,12,23,08,045,28,25,27,310,40,29,04,303,45,17,22,114,29*7A
2018-01-12 04:00:40 1515747640.683427: $GPGSV,3,3,12,09,18,076,03,04,47,273,00,19,40,106,13,138,38,213,48*4D
2018-01-12 04:00:40 1515747640.796777: $GPZDA,090041.00,12,01,2018,00,00*63
2018-01-12 04:00:40 1515747640.796915: $GPGGA,090041,3946.9656,N,08404.9721,W,2,10,1.00,300.99,M,-33.324,M,,*75
2018-01-12 04:00:40 1515747640.796980: $GPRMC,090041,A,3946.9656,N,08404.9721,W,0.0000,0.000,120118,,*39
2018-01-12 04:00:40 1515747640.797040: $GPGSA,A,3,2,5,6,12,23,25,29,17,19,138,,,2.4,1.0,2.1*3D
2018-01-12 04:00:41 1515747641.422449: $GPZDA,090042.00,12,01,2018,00,00*60
2018-01-12 04:00:41 1515747641.422651: $GPGGA,090042,3946.9656,N,08404.9721,W,2,10,1.00,300.99,M,-33.324,M,,*76
2018-01-12 04:00:41 1515747641.422731: $GPRMC,090042,A,3946.9656,N,08404.9721,W,0.0000,0.000,120118,,*3A
2018-01-12 04:00:41 1515747641.422799: $GPGSA,A,3,2,5,6,12,23,25,29,17,19,138,,,2.4,1.0,2.1*3D
2018-01-12 04:00:42 1515747642.328040: $GPZDA,090043.00,12,01,2018,00,00*61
2018-01-12 04:00:42 1515747642.328212: $GPGGA,090043,3946.9656,N,08404.9721,W,2,10,1.00,300.99,M,-33.324,M,,*77
2018-01-12 04:00:42 1515747642.328281: $GPRMC,090043,A,3946.9656,N,08404.9721,W,0.0000,0.000,120118,,*3B
2018-01-12 04:00:42 1515747642.328345: $GPGSA,A,3,2,5,6,12,23,25,29,17,19,138,,,2.4,1.0,2.1*3D
2018-01-12 04:00:43 1515747643.681026: $GPGSV,3,1,12,02,70,316,44,05,39,196,47,06,54,045,45,12,54,268,47*71
2018-01-12 04:00:43 1515747643.681208: $GPGSV,3,2,12,23,08,045,28,25,27,310,40,29,04,303,46,17,22,114,29*79
2018-01-12 04:00:43 1515747643.681277: $GPGSV,3,3,12,09,18,076,16,04,47,273,00,19,40,106,14,138,38,213,47*41
2018-01-12 04:00:43 1515747643.794521: $GPZDA,090044.00,12,01,2018,00,00*66
2018-01-12 04:00:43 1515747643.794659: $GPGGA,090044,3946.9656,N,08404.9721,W,2,11,1.00,300.99,M,-33.324,M,,*71
2018-01-12 04:00:43 1515747643.794727: $GPRMC,090044,A,3946.9656,N,08404.9721,W,0.0000,0.000,120118,,*3C
2018-01-12 04:00:43 1515747643.794788: $GPGSA,A,3,2,5,6,12,23,25,29,17,9,19,138,,2.4,1.0,2.1*04
2018-01-12 04:00:44 1515747644.344346: $GPZDA,090045.00,12,01,2018,00,00*67
2018-01-12 04:00:44 1515747644.344504: $GPGGA,090045,3946.9657,N,08404.9728,W,2,11,1.00,300.91,M,-33.324,M,,*70
2018-01-12 04:00:44 1515747644.344571: $GPRMC,090045,A,3946.9657,N,08404.9728,W,0.0000,0.000,120118,,*35
2018-01-12 04:00:44 1515747644.344631: $GPGSA,A,3,2,5,6,12,23,25,29,17,9,19,138,,2.4,1.0,2.1*04
2018-01-12 04:00:45 1515747645.348663: $GPZDA,090046.00,12,01,2018,00,00*64
2018-01-12 04:00:45 1515747645.348849: $GPGGA,090046,3946.9657,N,08404.9728,W,2,11,1.00,300.91,M,-33.324,M,,*73
2018-01-12 04:00:45 1515747645.348918: $GPRMC,090046,A,3946.9657,N,08404.9728,W,0.0000,0.000,120118,,*36
2018-01-12 04:00:45 1515747645.348981: $GPGSA,A,3,2,5,6,12,23,25,29,17,9,19,138,,2.4,1.0,2.1*04
2018-01-12 04:00:46 1515747646.683903: $GPGSV,3,1,12,02,70,316,44,05,39,196,47,06,54,045,45,12,54,268,47*71
2018-01-12 04:00:46 1515747646.684083: $GPGSV,3,2,12,23,08,045,27,25,27,310,40,29,04,303,45,17,22,114,29*75
2018-01-12 04:00:46 1515747646.684150: $GPGSV,3,3,12,09,18,076,07,04,47,273,00,19,40,106,22,138,38,213,47*44
2018-01-12 04:00:46 1515747646.797502: $GPZDA,090047.00,12,01,2018,00,00*65
2018-01-12 04:00:46 1515747646.797635: $GPGGA,090047,3946.9653,N,08404.9728,W,2,10,1.00,301.67,M,-33.324,M,,*7F
2018-01-12 04:00:46 1515747646.797701: $GPRMC,090047,A,3946.9653,N,08404.9728,W,0.0000,0.000,120118,,*33
2018-01-12 04:00:46 1515747646.797762: $GPGSA,A,3,2,5,6,12,23,25,29,17,19,138,,,2.4,1.0,2.1*3D
2018-01-12 04:00:47 1515747647.329768: $GPZDA,090048.00,12,01,2018,00,00*6A
2018-01-12 04:00:47 1515747647.329989: $GPGGA,090048,3946.9653,N,08404.9728,W,2,10,1.00,301.67,M,-33.324,M,,*70
2018-01-12 04:00:47 1515747647.330059: $GPRMC,090048,A,3946.9653,N,08404.9728,W,0.0000,0.000,120118,,*3C
2018-01-12 04:00:47 1515747647.330121: $GPGSA,A,3,2,5,6,12,23,25,29,17,19,138,,,2.4,1.0,2.1*3D
2018-01-12 04:00:48 1515747648.346902: $GPZDA,090049.00,12,01,2018,00,00*6B
2018-01-12 04:00:48 1515747648.347070: $GPGGA,090049,3946.9653,N,08404.9728,W,2,10,1.00,301.67,M,-33.324,M,,*71
2018-01-12 04:00:48 1515747648.347137: $GPRMC,090049,A,3946.9653,N,08404.9728,W,0.0000,0.000,120118,,*3D
2018-01-12 04:00:48 1515747648.347199: $GPGSA,A,3,2,5,6,12,23,25,29,17,19,138,,,2.4,1.0,2.1*3D
2018-01-12 04:00:49 1515747649.671051: $GPGSV,3,1,12,02,70,316,44,05,39,196,47,06,54,045,45,12,54,268,47*71
2018-01-12 04:00:49 1515747649.671255: $GPGSV,3,2,12,23,08,045,28,25,27,310,40,29,04,303,45,17,22,114,29*7A
2018-01-12 04:00:49 1515747649.671327: $GPGSV,3,3,12,04,47,273,02,09,18,076,10,19,40,106,21,138,38,213,47*43
2018-01-12 04:00:49 1515747649.784965: $GPZDA,090050.00,12,01,2018,00,00*63
2018-01-12 04:00:49 1515747649.785089: $GPGGA,090050,3946.9653,N,08404.9728,W,2,10,1.00,301.67,M,-33.324,M,,*79
2018-01-12 04:00:49 1515747649.785154: $GPRMC,090050,A,3946.9653,N,08404.9728,W,0.0000,0.000,120118,,*35
2018-01-12 04:00:49 1515747649.785219: $GPGSA,A,3,2,5,6,12,23,25,29,17,19,138,,,2.4,1.0,2.1*3D
2018-01-12 04:00:50 1515747650.347741: $GPZDA,090051.00,12,01,2018,00,00*62
2018-01-12 04:00:50 1515747650.347914: $GPGGA,090051,3946.9653,N,08404.9728,W,2,10,1.00,301.67,M,-33.324,M,,*78
2018-01-12 04:00:50 1515747650.347981: $GPRMC,090051,A,3946.9653,N,08404.9728,W,0.0000,0.000,120118,,*34
2018-01-12 04:00:50 1515747650.348044: $GPGSA,A,3,2,5,6,12,23,25,29,17,19,138,,,2.4,1.0,2.1*3D
2018-01-12 04:00:51 1515747651.350624: $GPZDA,090052.00,12,01,2018,00,00*61
2018-01-12 04:00:51 1515747651.350790: $GPGGA,090052,3946.9657,N,08404.9728,W,2,10,1.00,302.31,M,-33.324,M,,*7F
2018-01-12 04:00:51 1515747651.350857: $GPRMC,090052,A,3946.9657,N,08404.9728,W,0.0000,0.000,120118,,*33
2018-01-12 04:00:51 1515747651.350920: $GPGSA,A,3,2,5,6,12,23,25,29,17,19,138,,,2.4,1.0,2.1*3D
