2017-11-15 18:40:36 1510789236.043880: {"class":"VERSION","release":"3.17","rev":"3.17","proto_major":3,"proto_minor":12}
2017-11-15 18:40:36 1510789236.044330: {"class":"DEVICES","devices":[{"class":"DEVICE","path":"/dev/ttyUSB0","driver":"SiRF","subtype":"9\u0006GSD4e_4.1.2-P1_RPATCH.05-F-GPS-4R-1510281 11/03/2015 307","activated":"2017-11-15T23:40:35.645Z","flags":1,"native":1,"bps":4800,"parity":"N","stopbits":1,"cycle":1.00}]}
2017-11-15 18:40:36 1510789236.044444: {"class":"WATCH","enable":true,"json":false,"nmea":true,"raw":0,"scaled":false,"timing":false,"split24":false,"pps":false}
2017-11-15 18:40:36 1510789236.700985: $GPGSV,3,1,11,25,33,054,19,14,68,049,16,03,23,315,00,32,53,084,24*7C
2017-11-15 18:40:36 1510789236.701161: $GPGSV,3,2,11,31,79,298,20,01,17,271,00,29,01,090,17,10,18,157,15*7C
2017-11-15 18:40:36 1510789236.701221: $GPGSV,3,3,11,26,29,178,14,22,41,300,23,12,04,031,00*4F
2017-11-15 18:40:36 1510789236.814276: $GPZDA,234035.00,15,11,2017,00,00*65
2017-11-15 18:40:36 1510789236.814449: $GPGGA,234035,3946.9534,N,08404.9665,W,1,08,1.20,309.39,M,-33.324,M,,*77
2017-11-15 18:40:36 1510789236.814510: $GPRMC,234035,A,3946.9534,N,08404.9665,W,0.8054,248.645,151117,,*39
2017-11-15 18:40:36 1510789236.814566: $GPGSA,A,3,25,14,32,31,29,10,26,22,,,,,3.4,1.2,2.9*32
2017-11-15 18:40:37 1510789237.328915: $GPZDA,234036.00,15,11,2017,00,00*66
2017-11-15 18:40:37 1510789237.329088: $GPGGA,234036,3946.9534,N,08404.9665,W,1,08,1.20,309.39,M,-33.324,M,,*74
2017-11-15 18:40:37 1510789237.329149: $GPRMC,234036,A,3946.9534,N,08404.9665,W,1.2111,273.794,151117,,*34
2017-11-15 18:40:37 1510789237.329206: $GPGSA,A,3,25,14,32,31,29,10,26,22,,,,,3.4,1.2,2.9*32
2017-11-15 18:40:38 1510789238.366030: $GPZDA,234037.00,15,11,2017,00,00*67
2017-11-15 18:40:38 1510789238.366212: $GPGGA,234037,3946.9531,N,08404.9673,W,1,08,1.20,310.07,M,-33.324,M,,*72
2017-11-15 18:40:38 1510789238.366275: $GPRMC,234037,A,3946.9531,N,08404.9673,W,0.9689,273.794,151117,,*3B
2017-11-15 18:40:38 1510789238.366331: $GPGSA,A,3,25,14,32,31,29,10,26,22,,,,,3.4,1.2,2.9*32
2017-11-15 18:40:39 1510789239.700582: $GPGSV,3,1,11,25,33,054,19,14,68,049,15,03,23,315,14,32,53,084,24*7A
2017-11-15 18:40:39 1510789239.700753: $GPGSV,3,2,11,31,79,298,21,01,17,271,00,29,01,090,17,10,18,157,16*7E
2017-11-15 18:40:39 1510789239.700813: $GPGSV,3,3,11,26,29,178,14,22,41,300,23,12,04,031,00*4F
2017-11-15 18:40:39 1510789239.813908: $GPZDA,234038.00,15,11,2017,00,00*68
2017-11-15 18:40:39 1510789239.814083: $GPGGA,234038,3946.9531,N,08404.9680,W,1,08,1.20,309.99,M,-33.324,M,,*7E
2017-11-15 18:40:39 1510789239.814146: $GPRMC,234038,A,3946.9531,N,08404.9680,W,1.2111,273.794,151117,,*34
2017-11-15 18:40:39 1510789239.814202: $GPGSA,A,3,25,14,32,31,29,10,26,22,,,,,3.4,1.2,2.9*32
2017-11-15 18:40:40 1510789240.366080: $GPZDA,234039.00,15,11,2017,00,00*69
2017-11-15 18:40:40 1510789240.366264: $GPGGA,234039,3946.9531,N,08404.9680,W,1,08,1.20,309.99,M,-33.324,M,,*7F
2017-11-15 18:40:40 1510789240.366325: $GPRMC,234039,A,3946.9531,N,08404.9680,W,0.9689,273.794,151117,,*39
2017-11-15 18:40:40 1510789240.366382: $GPGSA,A,3,25,14,32,31,29,10,26,22,,,,,3.4,1.2,2.9*32
2017-11-15 18:40:41 1510789241.332156: $GPZDA,234040.00,15,11,2017,00,00*67
2017-11-15 18:40:41 1510789241.332345: $GPGGA,234040,3946.9532,N,08404.9687,W,1,08,1.00,309.92,M,-33.324,M,,*7C
2017-11-15 18:40:41 1510789241.332410: $GPRMC,234040,A,3946.9532,N,08404.9687,W,0.8054,248.645,151117,,*31
2017-11-15 18:40:41 1510789241.332466: $GPGSA,A,3,25,14,32,31,29,10,26,22,,,,,3.4,1.0,2.9*30
2017-11-15 18:40:42 1510789242.667198: $GPGSV,3,1,11,25,33,054,19,14,68,049,15,03,23,315,14,32,53,084,25*7B
2017-11-15 18:40:42 1510789242.667371: $GPGSV,3,2,11,31,79,298,21,01,17,271,04,29,01,090,17,10,18,157,15*79
2017-11-15 18:40:42 1510789242.667431: $GPGSV,3,3,11,26,29,178,13,22,41,300,23,16,01,190,04*47
2017-11-15 18:40:42 1510789242.780673: $GPZDA,234041.00,15,11,2017,00,00*66
2017-11-15 18:40:42 1510789242.780833: $GPGGA,234041,3946.9528,N,08404.9688,W,1,09,1.00,310.68,M,-33.324,M,,*75
2017-11-15 18:40:42 1510789242.780912: $GPRMC,234041,A,3946.9528,N,08404.9688,W,0.5951,238.684,151117,,*3F
2017-11-15 18:40:42 1510789242.781038: $GPGSA,A,3,25,14,3,32,31,29,10,26,22,,,,3.4,1.0,2.9*03
2017-11-15 18:40:43 1510789243.365215: $GPZDA,234042.00,15,11,2017,00,00*65
2017-11-15 18:40:43 1510789243.365368: $GPGGA,234042,3946.9528,N,08404.9688,W,1,09,1.00,310.68,M,-33.324,M,,*76
2017-11-15 18:40:43 1510789243.365428: $GPRMC,234042,A,3946.9528,N,08404.9688,W,0.4207,219.347,151117,,*3C
2017-11-15 18:40:43 1510789243.365484: $GPGSA,A,3,25,14,3,32,31,29,10,26,22,,,,3.4,1.0,2.9*03
2017-11-15 18:40:44 1510789244.331115: $GPZDA,234043.00,15,11,2017,00,00*64
2017-11-15 18:40:44 1510789244.331272: $GPGGA,234043,3946.9529,N,08404.9695,W,1,09,1.00,310.60,M,-33.324,M,,*72
2017-11-15 18:40:44 1510789244.331332: $GPRMC,234043,A,3946.9529,N,08404.9695,W,0.5951,238.684,151117,,*30
2017-11-15 18:40:44 1510789244.331388: $GPGSA,A,3,25,14,3,32,31,29,10,26,22,,,,3.4,1.0,2.9*03
2017-11-15 18:40:45 1510789245.666881: $GPGSV,3,1,11,25,33,054,19,14,68,049,15,03,23,315,14,32,53,084,25*7B
2017-11-15 18:40:45 1510789245.667071: $GPGSV,3,2,11,31,79,298,21,01,17,271,10,29,01,090,17,10,18,157,15*7C
2017-11-15 18:40:45 1510789245.667132: $GPGSV,3,3,11,26,29,178,13,22,41,300,23,12,04,031,00*48
2017-11-15 18:40:45 1510789245.780223: $GPZDA,234044.00,15,11,2017,00,00*63
2017-11-15 18:40:45 1510789245.780396: $GPGGA,234044,3946.9529,N,08404.9695,W,1,09,1.00,310.60,M,-33.324,M,,*75
2017-11-15 18:40:45 1510789245.780456: $GPRMC,234044,A,3946.9529,N,08404.9695,W,0.8054,248.645,151117,,*3C
2017-11-15 18:40:45 1510789245.780512: $GPGSA,A,3,25,14,3,32,31,29,10,26,22,,,,3.4,1.0,2.9*03
2017-11-15 18:40:46 1510789246.405556: $GPZDA,234045.00,15,11,2017,00,00*62
2017-11-15 18:40:46 1510789246.405724: $GPGGA,234045,3946.9521,N,08404.9702,W,1,09,1.00,310.65,M,-33.324,M,,*76
2017-11-15 18:40:46 1510789246.405785: $GPRMC,234045,A,3946.9521,N,08404.9702,W,0.8054,248.645,151117,,*3A
2017-11-15 18:40:46 1510789246.405867: $GPGSA,A,3,25,14,3,32,31,29,10,26,22,,,,3.4,1.0,2.9*03
2017-11-15 18:40:47 1510789247.363917: $GPZDA,234046.00,15,11,2017,00,00*61
2017-11-15 18:40:47 1510789247.364099: $GPGGA,234046,3946.9522,N,08404.9709,W,1,09,1.00,310.57,M,-33.324,M,,*7C
2017-11-15 18:40:47 1510789247.364160: $GPRMC,234046,A,3946.9522,N,08404.9709,W,1.2608,258.042,151117,,*35
2017-11-15 18:40:47 1510789247.364215: $GPGSA,A,3,25,14,3,32,31,29,10,26,22,,,,3.4,1.0,2.9*03
2017-11-15 18:40:48 1510789248.665936: $GPGSV,3,1,11,25,33,054,18,14,68,049,15,03,23,315,13,32,53,084,25*7D
2017-11-15 18:40:48 1510789248.666127: $GPGSV,3,2,11,31,79,298,22,01,17,271,04,29,01,090,17,10,18,157,15*7A
2017-11-15 18:40:48 1510789248.666187: $GPGSV,3,3,11,26,29,178,12,22,41,300,23,12,04,031,00*49
2017-11-15 18:40:48 1510789248.779685: $GPZDA,234047.00,15,11,2017,00,00*60
2017-11-15 18:40:48 1510789248.779866: $GPGGA,234047,3946.9522,N,08404.9709,W,1,09,1.20,310.57,M,-33.324,M,,*7F
2017-11-15 18:40:48 1510789248.779929: $GPRMC,234047,A,3946.9522,N,08404.9709,W,0.9959,264.784,151117,,*37
2017-11-15 18:40:48 1510789248.780001: $GPGSA,A,3,25,14,3,32,31,29,10,26,22,,,,3.4,1.2,2.9*01
2017-11-15 18:40:49 1510789249.365285: $GPZDA,234048.00,15,11,2017,00,00*6F
2017-11-15 18:40:49 1510789249.365451: $GPGGA,234048,3946.9519,N,08404.9717,W,1,09,1.20,311.25,M,-33.324,M,,*73
2017-11-15 18:40:49 1510789249.365512: $GPRMC,234048,A,3946.9519,N,08404.9717,W,1.0298,254.381,151117,,*33
2017-11-15 18:40:49 1510789249.365567: $GPGSA,A,3,25,14,3,32,31,29,10,26,22,,,,3.4,1.2,2.9*01
2017-11-15 18:40:50 1510789250.364758: $GPZDA,234049.00,15,11,2017,00,00*6E
2017-11-15 18:40:50 1510789250.364953: $GPGGA,234049,3946.9519,N,08404.9717,W,1,09,1.20,311.25,M,-33.324,M,,*72
2017-11-15 18:40:50 1510789250.365031: $GPRMC,234049,A,3946.9519,N,08404.9717,W,0.8054,248.645,151117,,*39
2017-11-15 18:40:50 1510789250.365087: $GPGSA,A,3,25,14,3,32,31,29,10,26,22,,,,3.4,1.2,2.9*01
