2017-12-01 17:41:46 1512168106.977528: {"class":"VERSION","release":"3.16","rev":"3.16-4","proto_major":3,"proto_minor":11}
2017-12-01 17:41:46 1512168106.978067: {"class":"DEVICES","devices":[{"class":"DEVICE","path":"/dev/ttyUSB0","driver":"SiRF","subtype":"9\u0006GSD4e_4.1.2-P1_RPATCH.05-F-GPS-4R-1510281 11/03/2015 307","activated":"2017-12-01T22:41:46.900Z","flags":1,"native":1,"bps":4800,"parity":"N","stopbits":1,"cycle":1.00}]}
2017-12-01 17:41:46 1512168106.978199: {"class":"WATCH","enable":true,"json":false,"nmea":true,"raw":0,"scaled":false,"timing":false,"split24":false,"pps":false}
2017-12-01 17:41:47 1512168107.013544: $GPZDA,224147.66,01,12,2017,00,00*66
2017-12-01 17:41:47 1512168107.013691: $GPGGA,224147,3946.9747,N,08404.9832,W,1,12,0.80,301.08,M,-33.325,M,,*73
2017-12-01 17:41:47 1512168107.013760: $GPRMC,224147,A,3946.9747,N,08404.9832,W,0.0814,142.012,011217,,*39
2017-12-01 17:41:47 1512168107.013824: $GPGSA,A,3,1,3,10,14,22,25,26,31,32,29,16,138,2.0,0.8,1.5*0C
2017-12-01 17:41:47 1512168107.013882: $GPGBS,224147,10.70,M,15.43,M,35.28,M*01
2017-12-01 17:41:48 1512168108.117598: $GPZDA,224148.35,01,12,2017,00,00*6F
2017-12-01 17:41:48 1512168108.117764: $GPGGA,224148,3946.9747,N,08404.9832,W,1,12,0.80,301.08,M,-33.325,M,,*7C
2017-12-01 17:41:48 1512168108.117831: $GPRMC,224148,A,3946.9747,N,08404.9832,W,0.1324,22.230,011217,,*0A
2017-12-01 17:41:48 1512168108.117894: $GPGSA,A,3,1,3,10,14,22,25,26,31,32,29,16,138,2.0,0.8,1.5*0C
2017-12-01 17:41:49 1512168109.282470: $GPGSV,3,1,12,01,16,268,43,03,27,313,47,10,15,157,44,14,67,057,43*76
2017-12-01 17:41:49 1512168109.282653: $GPGSV,3,2,12,22,44,297,48,25,32,051,44,26,33,177,44,31,79,325,46*76
2017-12-01 17:41:49 1512168109.282720: $GPGSV,3,3,12,32,50,088,46,16,05,190,08,29,03,088,09,138,38,213,00*4E
2017-12-01 17:41:49 1512168109.396083: $GPZDA,224149.00,01,12,2017,00,00*68
2017-12-01 17:41:49 1512168109.396255: $GPGGA,224149,3946.9747,N,08404.9832,W,1,09,0.80,301.08,M,-33.325,M,,*77
2017-12-01 17:41:49 1512168109.396321: $GPRMC,224149,A,3946.9747,N,08404.9832,W,0.0407,142.012,011217,,*39
2017-12-01 17:41:49 1512168109.396384: $GPGSA,A,3,1,3,10,14,22,25,26,31,32,,,,2.0,0.8,1.5*3A
2017-12-01 17:41:49 1512168109.848326: $GPZDA,224150.00,01,12,2017,00,00*60
2017-12-01 17:41:49 1512168109.848510: $GPGGA,224150,3946.9743,N,08404.9832,W,1,09,0.80,300.44,M,-33.325,M,,*72
2017-12-01 17:41:49 1512168109.848578: $GPRMC,224150,A,3946.9743,N,08404.9832,W,0.0407,142.012,011217,,*35
2017-12-01 17:41:49 1512168109.848641: $GPGSA,A,3,1,3,10,14,22,25,26,31,32,,,,2.0,0.8,1.5*3A
2017-12-01 17:41:50 1512168110.402709: $GPZDA,224151.00,01,12,2017,00,00*61
2017-12-01 17:41:50 1512168110.402885: $GPGGA,224151,3946.9743,N,08404.9832,W,1,09,0.80,300.44,M,-33.325,M,,*73
2017-12-01 17:41:50 1512168110.402952: $GPRMC,224151,A,3946.9743,N,08404.9832,W,0.0000,0.000,011217,,*33
2017-12-01 17:41:50 1512168110.403014: $GPGSA,A,3,1,3,10,14,22,25,26,31,32,,,,2.0,0.8,1.5*3A
2017-12-01 17:41:51 1512168111.739031: $GPGSV,3,1,12,01,16,268,44,03,27,313,46,10,15,157,44,14,67,057,42*71
2017-12-01 17:41:51 1512168111.739267: $GPGSV,3,2,12,22,44,297,48,25,32,051,42,26,33,177,44,31,79,325,46*70
2017-12-01 17:41:51 1512168111.742779: $GPGSV,3,3,12,32,50,088,46,16,05,190,26,29,03,088,29,138,38,213,46*42
2017-12-01 17:41:51 1512168111.852429: $GPZDA,224152.00,01,12,2017,00,00*62
2017-12-01 17:41:51 1512168111.852580: $GPGGA,224152,3946.9743,N,08404.9832,W,1,12,0.80,300.44,M,-33.325,M,,*7A
2017-12-01 17:41:51 1512168111.852646: $GPRMC,224152,A,3946.9743,N,08404.9832,W,0.0000,0.000,011217,,*30
2017-12-01 17:41:51 1512168111.852708: $GPGSA,A,3,1,3,10,14,22,25,26,31,32,16,29,138,2.0,0.8,1.5*0C
2017-12-01 17:41:52 1512168112.404679: $GPZDA,224153.00,01,12,2017,00,00*63
2017-12-01 17:41:52 1512168112.404876: $GPGGA,224153,3946.9743,N,08404.9832,W,1,12,0.80,300.44,M,-33.325,M,,*7B
2017-12-01 17:41:52 1512168112.404947: $GPRMC,224153,A,3946.9743,N,08404.9832,W,0.0000,0.000,011217,,*31
2017-12-01 17:41:52 1512168112.405008: $GPGSA,A,3,1,3,10,14,22,25,26,31,32,16,29,138,2.0,0.8,1.5*0C
2017-12-01 17:41:53 1512168113.404040: $GPZDA,224154.00,01,12,2017,00,00*64
2017-12-01 17:41:53 1512168113.404221: $GPGGA,224154,3946.9731,N,08404.9846,W,2,12,1.20,298.36,M,-33.325,M,,*77
2017-12-01 17:41:53 1512168113.404288: $GPRMC,224154,A,3946.9731,N,08404.9846,W,0.0000,0.000,011217,,*30
2017-12-01 17:41:53 1512168113.404354: $GPGSA,A,3,1,3,10,14,22,25,26,31,32,16,29,138,2.0,1.2,1.5*07
2017-12-01 17:41:53 1512168113.404413: $GPGBS,224154,2.67,M,3.86,M,8.82,M*36
2017-12-01 17:41:54 1512168114.740991: $GPGSV,3,1,12,01,16,268,44,03,27,313,46,10,15,157,43,14,67,057,42*76
2017-12-01 17:41:54 1512168114.741179: $GPGSV,3,2,12,22,44,297,48,25,32,051,43,26,33,177,44,31,79,325,46*71
2017-12-01 17:41:54 1512168114.741247: $GPGSV,3,3,12,32,50,088,46,16,05,190,26,29,03,088,30,138,38,213,46*4A
2017-12-01 17:41:54 1512168114.853086: $GPZDA,224155.00,01,12,2017,00,00*65
2017-12-01 17:41:54 1512168114.853265: $GPGGA,224155,3946.9731,N,08404.9846,W,2,12,1.20,298.36,M,-33.325,M,,*76
2017-12-01 17:41:54 1512168114.853340: $GPRMC,224155,A,3946.9731,N,08404.9846,W,0.0000,0.000,011217,,*31
2017-12-01 17:41:54 1512168114.853403: $GPGSA,A,3,1,3,10,14,22,25,26,31,32,16,29,138,2.0,1.2,1.5*07
2017-12-01 17:41:55 1512168115.405483: $GPZDA,224156.00,01,12,2017,00,00*66
2017-12-01 17:41:55 1512168115.405659: $GPGGA,224156,3946.9731,N,08404.9846,W,2,12,1.20,298.36,M,-33.325,M,,*75
2017-12-01 17:41:55 1512168115.405727: $GPRMC,224156,A,3946.9731,N,08404.9846,W,0.0000,0.000,011217,,*32
2017-12-01 17:41:55 1512168115.405789: $GPGSA,A,3,1,3,10,14,22,25,26,31,32,16,29,138,2.0,1.2,1.5*07
2017-12-01 17:41:56 1512168116.403516: $GPZDA,224157.00,01,12,2017,00,00*67
2017-12-01 17:41:56 1512168116.403684: $GPGGA,224157,3946.9731,N,08404.9846,W,2,12,1.20,298.36,M,-33.325,M,,*74
2017-12-01 17:41:56 1512168116.403752: $GPRMC,224157,A,3946.9731,N,08404.9846,W,0.0000,0.000,011217,,*33
2017-12-01 17:41:56 1512168116.403813: $GPGSA,A,3,1,3,10,14,22,25,26,31,32,16,29,138,2.0,1.2,1.5*07
2017-12-01 17:41:57 1512168117.740085: $GPGSV,3,1,12,01,16,268,44,03,27,313,46,10,15,157,43,14,67,057,42*76
2017-12-01 17:41:57 1512168117.740276: $GPGSV,3,2,12,22,44,297,48,25,32,051,42,26,33,177,45,31,79,325,46*71
2017-12-01 17:41:57 1512168117.740342: $GPGSV,3,3,12,32,50,088,46,16,05,190,27,29,03,088,30,138,38,213,46*4B
2017-12-01 17:41:57 1512168117.853404: $GPZDA,224158.00,01,12,2017,00,00*68
2017-12-01 17:41:57 1512168117.853536: $GPGGA,224158,3946.9731,N,08404.9846,W,2,12,0.80,298.36,M,-33.325,M,,*70
2017-12-01 17:41:57 1512168117.853602: $GPRMC,224158,A,3946.9731,N,08404.9846,W,0.0000,0.000,011217,,*3C
2017-12-01 17:41:57 1512168117.853663: $GPGSA,A,3,1,3,10,14,22,25,26,31,32,16,29,138,2.0,0.8,1.5*0C
2017-12-01 17:41:58 1512168118.405831: $GPZDA,224159.00,01,12,2017,00,00*69
2017-12-01 17:41:58 1512168118.406009: $GPGGA,224159,3946.9731,N,08404.9846,W,2,12,0.80,298.36,M,-33.325,M,,*71
2017-12-01 17:41:58 1512168118.406076: $GPRMC,224159,A,3946.9731,N,08404.9846,W,0.0000,0.000,011217,,*3D
2017-12-01 17:41:58 1512168118.406139: $GPGSA,A,3,1,3,10,14,22,25,26,31,32,16,29,138,2.0,0.8,1.5*0C
2017-12-01 17:41:59 1512168119.405412: $GPZDA,224200.00,01,12,2017,00,00*66
2017-12-01 17:41:59 1512168119.405590: $GPGGA,224200,3946.9731,N,08404.9846,W,2,12,0.80,298.36,M,-33.325,M,,*7E
2017-12-01 17:41:59 1512168119.405658: $GPRMC,224200,A,3946.9731,N,08404.9846,W,0.0000,0.000,011217,,*32
2017-12-01 17:41:59 1512168119.405721: $GPGSA,A,3,1,3,10,14,22,25,26,31,32,16,29,138,2.0,0.8,1.5*0C
2017-12-01 17:42:00 1512168120.742154: $GPGSV,3,1,12,01,16,268,45,03,27,313,45,10,15,157,43,14,67,057,42*74
2017-12-01 17:42:00 1512168120.742350: $GPGSV,3,2,12,22,44,297,48,25,32,051,43,26,33,177,44,31,79,325,46*71
2017-12-01 17:42:00 1512168120.742416: $GPGSV,3,3,12,32,50,088,46,16,05,190,27,29,03,088,30,138,38,213,46*4B
2017-12-01 17:42:00 1512168120.855536: $GPZDA,224201.00,01,12,2017,00,00*67
2017-12-01 17:42:00 1512168120.855709: $GPGGA,224201,3946.9731,N,08404.9846,W,2,12,0.80,298.36,M,-33.325,M,,*7F
2017-12-01 17:42:00 1512168120.855775: $GPRMC,224201,A,3946.9731,N,08404.9846,W,0.0000,0.000,011217,,*33
2017-12-01 17:42:00 1512168120.855883: $GPGSA,A,3,1,3,10,14,22,25,26,31,32,16,29,138,2.0,0.8,1.5*0C
2017-12-01 17:42:01 1512168121.480875: $GPZDA,224202.00,01,12,2017,00,00*64
2017-12-01 17:42:01 1512168121.481031: $GPGGA,224202,3946.9731,N,08404.9846,W,2,12,0.80,298.36,M,-33.325,M,,*7C
2017-12-01 17:42:01 1512168121.481098: $GPRMC,224202,A,3946.9731,N,08404.9846,W,0.0000,0.000,011217,,*30
2017-12-01 17:42:01 1512168121.481159: $GPGSA,A,3,1,3,10,14,22,25,26,31,32,16,29,138,2.0,0.8,1.5*0C
2017-12-01 17:42:02 1512168122.405508: $GPZDA,224203.00,01,12,2017,00,00*65
2017-12-01 17:42:02 1512168122.405713: $GPGGA,224203,3946.9731,N,08404.9846,W,2,12,0.80,298.36,M,-33.325,M,,*7D
2017-12-01 17:42:02 1512168122.405783: $GPRMC,224203,A,3946.9731,N,08404.9846,W,0.0000,0.000,011217,,*31
2017-12-01 17:42:02 1512168122.405845: $GPGSA,A,3,1,3,10,14,22,25,26,31,32,16,29,138,2.0,0.8,1.5*0C
2017-12-01 17:42:03 1512168123.740022: $GPGSV,3,1,12,01,16,268,13,03,27,313,13,10,15,157,13,14,67,057,12*74
2017-12-01 17:42:03 1512168123.740208: $GPGSV,3,2,12,22,44,297,14,25,32,051,12,26,33,177,13,31,79,325,14*79
2017-12-01 17:42:03 1512168123.740282: $GPGSV,3,3,12,32,50,088,14,16,05,190,08,29,03,088,09,138,38,213,16*4E
2017-12-01 17:42:03 1512168123.853606: $GPZDA,224204.00,01,12,2017,00,00*62
2017-12-01 17:42:03 1512168123.853755: $GPGGA,224204,3946.9731,N,08404.9846,W,2,12,0.80,298.36,M,-33.325,M,,*7A
2017-12-01 17:42:03 1512168123.853822: $GPRMC,224204,A,3946.9731,N,08404.9846,W,0.2422,93.794,011217,,*00
2017-12-01 17:42:03 1512168123.853884: $GPGSA,A,3,1,3,10,14,22,25,26,31,32,16,29,138,2.0,0.8,1.5*0C
2017-12-01 17:42:04 1512168124.404213: $GPZDA,224205.00,01,12,2017,00,00*63
2017-12-01 17:42:04 1512168124.404408: $GPGGA,224205,3946.9731,N,08404.9846,W,2,12,0.80,298.36,M,-33.325,M,,*7B
2017-12-01 17:42:04 1512168124.404476: $GPRMC,224205,A,3946.9731,N,08404.9846,W,0.0000,0.000,011217,,*37
2017-12-01 17:42:04 1512168124.404540: $GPGSA,A,3,1,3,10,14,22,25,26,31,32,16,29,138,2.0,0.8,1.5*0C
2017-12-01 17:42:05 1512168125.402515: $GPZDA,224206.00,01,12,2017,00,00*60
2017-12-01 17:42:05 1512168125.402696: $GPGGA,224206,3946.9730,N,08404.9838,W,2,12,0.80,295.63,M,-33.325,M,,*7D
2017-12-01 17:42:05 1512168125.402767: $GPRMC,224206,A,3946.9730,N,08404.9838,W,0.0000,0.000,011217,,*3C
2017-12-01 17:42:05 1512168125.402828: $GPGSA,A,3,1,3,10,14,22,25,26,31,32,16,29,138,2.0,0.8,1.5*0C
2017-12-01 17:42:05 1512168125.402889: $GPGBS,224206,2.67,M,3.86,M,8.82,M*32
2017-12-01 17:42:06 1512168126.738938: $GPGSV,3,1,12,01,16,268,45,03,27,313,44,10,15,157,42,14,67,057,41*77
2017-12-01 17:42:06 1512168126.739130: $GPGSV,3,2,12,22,44,297,48,25,32,051,43,26,33,177,44,31,79,325,46*71
2017-12-01 17:42:06 1512168126.739198: $GPGSV,3,3,12,32,50,088,45,16,05,190,29,29,03,088,30,138,38,213,46*46
2017-12-01 17:42:06 1512168126.852360: $GPZDA,224207.00,01,12,2017,00,00*61
2017-12-01 17:42:06 1512168126.852538: $GPGGA,224207,3946.9730,N,08404.9838,W,2,12,0.80,295.63,M,-33.325,M,,*7C
2017-12-01 17:42:06 1512168126.852607: $GPRMC,224207,A,3946.9730,N,08404.9838,W,0.0000,0.000,011217,,*3D
2017-12-01 17:42:06 1512168126.852668: $GPGSA,A,3,1,3,10,14,22,25,26,31,32,16,29,138,2.0,0.8,1.5*0C
