2017-12-01 18:07:30 1512169650.194510: {"class":"VERSION","release":"3.16","rev":"3.16-4","proto_major":3,"proto_minor":11}
2017-12-01 18:07:30 1512169650.194921: {"class":"DEVICES","devices":[{"class":"DEVICE","path":"/dev/ttyUSB0","driver":"SiRF","subtype":"9\u0006GSD4e_4.1.2-P1_RPATCH.05-F-GPS-4R-1510281 11/03/2015 307","activated":"2017-12-01T23:07:30.191Z","flags":1,"native":1,"bps":4800,"parity":"N","stopbits":1,"cycle":1.00}]}
2017-12-01 18:07:30 1512169650.195048: {"class":"WATCH","enable":true,"json":false,"nmea":true,"raw":0,"scaled":false,"timing":false,"split24":false,"pps":false}
2017-12-01 18:07:30 1512169650.367901: $GPZDA,230731.00,01,12,2017,00,00*64
2017-12-01 18:07:30 1512169650.368079: $GPGGA,230731,3946.9731,N,08404.9846,W,2,12,0.60,298.36,M,-33.325,M,,*72
2017-12-01 18:07:30 1512169650.368145: $GPRMC,230731,A,3946.9731,N,08404.9846,W,0.0000,0.000,011217,,*30
2017-12-01 18:07:30 1512169650.368206: $GPGSA,A,3,3,14,16,22,23,25,26,31,32,1,29,138,2.0,0.6,1.5*02
2017-12-01 18:07:31 1512169651.698629: $GPGSV,3,1,12,03,35,306,47,14,60,081,43,16,16,189,43,22,49,282,46*76
2017-12-01 18:07:31 1512169651.698813: $GPGSV,3,2,12,23,06,297,38,25,23,043,44,26,45,174,46,31,73,012,47*79
2017-12-01 18:07:31 1512169651.698880: $GPGSV,3,3,12,32,41,100,43,01,10,258,30,29,08,079,24,138,38,213,46*4C
2017-12-01 18:07:31 1512169651.812101: $GPZDA,230732.00,01,12,2017,00,00*67
2017-12-01 18:07:31 1512169651.812242: $GPGGA,230732,3946.9731,N,08404.9846,W,2,12,0.60,298.36,M,-33.325,M,,*71
2017-12-01 18:07:31 1512169651.812309: $GPRMC,230732,A,3946.9731,N,08404.9846,W,0.0000,0.000,011217,,*33
2017-12-01 18:07:31 1512169651.812370: $GPGSA,A,3,3,14,16,22,23,25,26,31,32,1,29,138,2.0,0.6,1.5*02
2017-12-01 18:07:32 1512169652.437356: $GPZDA,230733.00,01,12,2017,00,00*66
2017-12-01 18:07:32 1512169652.437534: $GPGGA,230733,3946.9731,N,08404.9846,W,2,12,0.60,298.36,M,-33.325,M,,*70
2017-12-01 18:07:32 1512169652.437600: $GPRMC,230733,A,3946.9731,N,08404.9846,W,0.0000,0.000,011217,,*32
2017-12-01 18:07:32 1512169652.437661: $GPGSA,A,3,3,14,16,22,23,25,26,31,32,1,29,138,2.0,0.6,1.5*02
2017-12-01 18:07:33 1512169653.395778: $GPZDA,230734.00,01,12,2017,00,00*61
2017-12-01 18:07:33 1512169653.395945: $GPGGA,230734,3946.9731,N,08404.9846,W,2,12,0.60,298.36,M,-33.325,M,,*77
2017-12-01 18:07:33 1512169653.396012: $GPRMC,230734,A,3946.9731,N,08404.9846,W,0.0000,0.000,011217,,*35
2017-12-01 18:07:33 1512169653.396073: $GPGSA,A,3,3,14,16,22,23,25,26,31,32,1,29,138,2.0,0.6,1.5*02
2017-12-01 18:07:34 1512169654.703970: $GPGSV,3,1,12,03,35,306,47,14,60,081,42,16,16,189,43,22,49,282,46*77
2017-12-01 18:07:34 1512169654.704157: $GPGSV,3,2,12,23,06,297,38,25,23,043,44,26,45,174,45,31,73,012,47*7A
2017-12-01 18:07:34 1512169654.704226: $GPGSV,3,3,12,32,41,100,44,01,10,258,20,29,08,079,24,138,38,213,46*4A
2017-12-01 18:07:34 1512169654.817322: $GPZDA,230735.00,01,12,2017,00,00*60
2017-12-01 18:07:34 1512169654.817490: $GPGGA,230735,3946.9731,N,08404.9846,W,2,12,0.60,298.36,M,-33.325,M,,*76
2017-12-01 18:07:34 1512169654.817555: $GPRMC,230735,A,3946.9731,N,08404.9846,W,0.0000,0.000,011217,,*34
2017-12-01 18:07:34 1512169654.817616: $GPGSA,A,3,3,14,16,22,23,25,26,31,32,1,29,138,2.0,0.6,1.5*02
2017-12-01 18:07:35 1512169655.395848: $GPZDA,230736.00,01,12,2017,00,00*63
2017-12-01 18:07:35 1512169655.396020: $GPGGA,230736,3946.9731,N,08404.9846,W,2,12,0.60,298.36,M,-33.325,M,,*75
2017-12-01 18:07:35 1512169655.396088: $GPRMC,230736,A,3946.9731,N,08404.9846,W,0.0000,0.000,011217,,*37
2017-12-01 18:07:35 1512169655.396149: $GPGSA,A,3,3,14,16,22,23,25,26,31,32,1,29,138,2.0,0.6,1.5*02
2017-12-01 18:07:36 1512169656.367950: $GPZDA,230737.00,01,12,2017,00,00*62
2017-12-01 18:07:36 1512169656.368122: $GPGGA,230737,3946.9731,N,08404.9846,W,2,12,0.60,298.36,M,-33.325,M,,*74
2017-12-01 18:07:36 1512169656.368190: $GPRMC,230737,A,3946.9731,N,08404.9846,W,0.0000,0.000,011217,,*36
2017-12-01 18:07:36 1512169656.368250: $GPGSA,A,3,3,14,16,22,23,25,26,31,32,1,29,138,2.0,0.6,1.5*02
2017-12-01 18:07:37 1512169657.705571: $GPGSV,3,1,12,03,35,306,47,14,60,081,42,16,16,189,43,22,49,282,46*77
2017-12-01 18:07:37 1512169657.705805: $GPGSV,3,2,12,23,06,297,38,25,23,043,44,26,45,174,46,31,73,012,47*79
2017-12-01 18:07:37 1512169657.705875: $GPGSV,3,3,12,32,41,100,44,01,10,258,23,29,08,079,24,138,38,213,46*49
2017-12-01 18:07:37 1512169657.819003: $GPZDA,230738.00,01,12,2017,00,00*6D
2017-12-01 18:07:37 1512169657.819172: $GPGGA,230738,3946.9731,N,08404.9846,W,2,12,0.60,298.36,M,-33.325,M,,*7B
2017-12-01 18:07:37 1512169657.819257: $GPRMC,230738,A,3946.9731,N,08404.9846,W,0.0000,0.000,011217,,*39
2017-12-01 18:07:37 1512169657.819319: $GPGSA,A,3,3,14,16,22,23,25,26,31,32,1,29,138,2.0,0.6,1.5*02
2017-12-01 18:07:38 1512169658.368834: $GPZDA,230739.00,01,12,2017,00,00*6C
2017-12-01 18:07:38 1512169658.369004: $GPGGA,230739,3946.9731,N,08404.9846,W,2,12,0.60,298.36,M,-33.325,M,,*7A
2017-12-01 18:07:38 1512169658.369072: $GPRMC,230739,A,3946.9731,N,08404.9846,W,0.0000,0.000,011217,,*38
2017-12-01 18:07:38 1512169658.369133: $GPGSA,A,3,3,14,16,22,23,25,26,31,32,1,29,138,2.0,0.6,1.5*02
2017-12-01 18:07:39 1512169659.366986: $GPZDA,230740.00,01,12,2017,00,00*62
2017-12-01 18:07:39 1512169659.367158: $GPGGA,230740,3946.9731,N,08404.9846,W,2,12,0.60,298.36,M,-33.325,M,,*74
2017-12-01 18:07:39 1512169659.367225: $GPRMC,230740,A,3946.9731,N,08404.9846,W,0.0000,0.000,011217,,*36
2017-12-01 18:07:39 1512169659.367286: $GPGSA,A,3,3,14,16,22,23,25,26,31,32,1,29,138,2.0,0.6,1.5*02
2017-12-01 18:07:40 1512169660.703032: $GPGSV,3,1,12,03,35,306,47,14,60,081,43,16,16,189,44,22,49,282,47*70
2017-12-01 18:07:40 1512169660.703231: $GPGSV,3,2,12,23,06,297,38,25,23,043,44,26,45,174,46,31,73,012,47*79
2017-12-01 18:07:40 1512169660.703298: $GPGSV,3,3,12,32,41,100,43,01,10,258,23,29,08,079,21,138,38,213,46*4B
2017-12-01 18:07:40 1512169660.816152: $GPZDA,230741.00,01,12,2017,00,00*63
2017-12-01 18:07:40 1512169660.816310: $GPGGA,230741,3946.9731,N,08404.9846,W,2,12,0.60,298.36,M,-33.325,M,,*75
2017-12-01 18:07:40 1512169660.816375: $GPRMC,230741,A,3946.9731,N,08404.9846,W,0.0000,0.000,011217,,*37
2017-12-01 18:07:40 1512169660.816436: $GPGSA,A,3,3,14,16,22,23,25,26,31,32,1,29,138,2.0,0.6,1.5*02
2017-12-01 18:07:41 1512169661.369809: $GPZDA,230742.00,01,12,2017,00,00*60
2017-12-01 18:07:41 1512169661.369982: $GPGGA,230742,3946.9731,N,08404.9846,W,2,12,0.80,298.36,M,-33.325,M,,*78
2017-12-01 18:07:41 1512169661.370050: $GPRMC,230742,A,3946.9731,N,08404.9846,W,0.0000,0.000,011217,,*34
2017-12-01 18:07:41 1512169661.370111: $GPGSA,A,3,3,14,16,22,23,25,26,31,32,1,29,138,2.0,0.8,1.5*0C
2017-12-01 18:07:42 1512169662.362682: $GPZDA,230743.00,01,12,2017,00,00*61
2017-12-01 18:07:42 1512169662.362853: $GPGGA,230743,3946.9731,N,08404.9846,W,2,12,0.80,298.36,M,-33.325,M,,*79
2017-12-01 18:07:42 1512169662.362918: $GPRMC,230743,A,3946.9731,N,08404.9846,W,0.0000,0.000,011217,,*35
2017-12-01 18:07:42 1512169662.362979: $GPGSA,A,3,3,14,16,22,23,25,26,31,32,1,29,138,2.0,0.8,1.5*0C
2017-12-01 18:07:43 1512169663.704221: $GPGSV,3,1,12,03,35,306,47,14,60,081,43,16,16,189,44,22,49,282,47*70
2017-12-01 18:07:43 1512169663.704407: $GPGSV,3,2,12,23,06,297,38,25,23,043,44,26,45,174,46,31,73,012,47*79
2017-12-01 18:07:43 1512169663.704473: $GPGSV,3,3,12,32,41,100,44,01,10,258,22,29,08,079,09,138,38,213,46*47
2017-12-01 18:07:43 1512169663.817835: $GPZDA,230744.00,01,12,2017,00,00*66
2017-12-01 18:07:43 1512169663.817954: $GPGGA,230744,3946.9731,N,08404.9846,W,2,12,0.60,298.36,M,-33.325,M,,*70
2017-12-01 18:07:43 1512169663.818017: $GPRMC,230744,A,3946.9731,N,08404.9846,W,0.0000,0.000,011217,,*32
2017-12-01 18:07:43 1512169663.818077: $GPGSA,A,3,3,14,16,22,23,25,26,31,32,1,29,138,2.0,0.6,1.5*02
2017-12-01 18:07:44 1512169664.367301: $GPZDA,230745.00,01,12,2017,00,00*67
2017-12-01 18:07:44 1512169664.367490: $GPGGA,230745,3946.9731,N,08404.9846,W,2,12,0.80,298.36,M,-33.325,M,,*7F
2017-12-01 18:07:44 1512169664.367557: $GPRMC,230745,A,3946.9731,N,08404.9846,W,0.0000,0.000,011217,,*33
2017-12-01 18:07:44 1512169664.367617: $GPGSA,A,3,3,14,16,22,23,25,26,31,32,1,29,138,2.0,0.8,1.5*0C
2017-12-01 18:07:45 1512169665.368083: $GPZDA,230746.00,01,12,2017,00,00*64
2017-12-01 18:07:45 1512169665.368254: $GPGGA,230746,3946.9731,N,08404.9846,W,2,12,0.80,298.36,M,-33.325,M,,*7C
2017-12-01 18:07:45 1512169665.368320: $GPRMC,230746,A,3946.9731,N,08404.9846,W,0.0000,0.000,011217,,*30
2017-12-01 18:07:45 1512169665.368380: $GPGSA,A,3,3,14,16,22,23,25,26,31,32,1,29,138,2.0,0.8,1.5*0C
2017-12-01 18:07:46 1512169666.703823: $GPGSV,3,1,12,03,35,306,46,14,60,081,43,16,16,189,44,22,49,282,47*71
2017-12-01 18:07:46 1512169666.704004: $GPGSV,3,2,12,23,06,297,40,25,23,043,44,26,45,174,46,31,73,012,47*76
2017-12-01 18:07:46 1512169666.704072: $GPGSV,3,3,12,32,41,100,44,01,10,258,22,29,08,079,15,138,38,213,46*4A
2017-12-01 18:07:46 1512169666.817254: $GPZDA,230747.00,01,12,2017,00,00*65
2017-12-01 18:07:46 1512169666.817426: $GPGGA,230747,3946.9731,N,08404.9846,W,2,12,0.60,298.36,M,-33.325,M,,*73
2017-12-01 18:07:46 1512169666.817491: $GPRMC,230747,A,3946.9731,N,08404.9846,W,0.0000,0.000,011217,,*31
2017-12-01 18:07:46 1512169666.817552: $GPGSA,A,3,3,14,16,22,23,25,26,31,32,1,29,138,2.0,0.6,1.5*02
2017-12-01 18:07:47 1512169667.442942: $GPZDA,230748.00,01,12,2017,00,00*6A
2017-12-01 18:07:47 1512169667.443082: $GPGGA,230748,3946.9731,N,08404.9846,W,2,12,0.60,298.36,M,-33.325,M,,*7C
2017-12-01 18:07:47 1512169667.443148: $GPRMC,230748,A,3946.9731,N,08404.9846,W,0.0000,0.000,011217,,*3E
2017-12-01 18:07:47 1512169667.443209: $GPGSA,A,3,3,14,16,22,23,25,26,31,32,1,29,138,2.0,0.6,1.5*02
2017-12-01 18:07:48 1512169668.361046: $GPZDA,230749.00,01,12,2017,00,00*6B
2017-12-01 18:07:48 1512169668.361218: $GPGGA,230749,3946.9731,N,08404.9846,W,2,12,0.60,298.36,M,-33.325,M,,*7D
2017-12-01 18:07:48 1512169668.361287: $GPRMC,230749,A,3946.9731,N,08404.9846,W,0.0000,0.000,011217,,*3F
2017-12-01 18:07:48 1512169668.361410: $GPGSA,A,3,3,14,16,22,23,25,26,31,32,1,29,138,2.0,0.6,1.5*02
2017-12-01 18:07:49 1512169669.705428: $GPGSV,3,1,12,03,35,306,46,14,60,081,43,16,16,189,44,22,49,282,47*71
2017-12-01 18:07:49 1512169669.705609: $GPGSV,3,2,12,23,06,297,40,25,23,043,44,26,45,174,46,31,73,012,47*76
2017-12-01 18:07:49 1512169669.705677: $GPGSV,3,3,12,32,41,100,43,01,10,258,21,29,08,079,24,138,38,213,46*4C
2017-12-01 18:07:49 1512169669.817777: $GPZDA,230750.00,01,12,2017,00,00*63
2017-12-01 18:07:49 1512169669.817960: $GPGGA,230750,3946.9731,N,08404.9846,W,2,12,0.60,298.36,M,-33.325,M,,*75
2017-12-01 18:07:49 1512169669.818051: $GPRMC,230750,A,3946.9731,N,08404.9846,W,0.0000,0.000,011217,,*37
2017-12-01 18:07:49 1512169669.818115: $GPGSA,A,3,3,14,16,22,23,25,26,31,32,1,29,138,2.0,0.6,1.5*02
