2017-12-31 18:49:28 1514764168.176983: {"class":"VERSION","release":"3.16","rev":"3.16-4","proto_major":3,"proto_minor":11}
2017-12-31 18:49:28 1514764168.177396: {"class":"DEVICES","devices":[{"class":"DEVICE","path":"/dev/ttyUSB0","driver":"SiRF","activated":"2017-12-31T23:49:28.176Z","flags":1,"native":1,"bps":4800,"parity":"N","stopbits":1,"cycle":1.00}]}
2017-12-31 18:49:28 1514764168.177505: {"class":"WATCH","enable":true,"json":false,"nmea":true,"raw":0,"scaled":false,"timing":false,"split24":false,"pps":false}
2017-12-31 18:49:28 1514764168.353042: $GPZDA,234929.00,31,12,2017,00,00*64
2017-12-31 18:49:28 1514764168.353195: $GPGGA,234929,3946.9573,N,08404.9850,W,2,11,0.80,305.35,M,-33.324,M,,*78
2017-12-31 18:49:28 1514764168.353265: $GPRMC,234929,A,3946.9573,N,08404.9850,W,0.0000,0.000,311217,,*33
2017-12-31 18:49:28 1514764168.353326: $GPGSA,A,3,22,23,9,3,16,8,31,27,7,26,135,,1.7,0.8,1.3*09
2017-12-31 18:49:29 1514764169.353636: $GPZDA,234930.00,31,12,2017,00,00*6C
2017-12-31 18:49:29 1514764169.353814: $GPGGA,234930,3946.9573,N,08404.9850,W,2,11,0.80,305.35,M,-33.324,M,,*70
2017-12-31 18:49:29 1514764169.353884: $GPRMC,234930,A,3946.9573,N,08404.9850,W,0.0000,0.000,311217,,*3B
2017-12-31 18:49:29 1514764169.353946: $GPGSA,A,3,22,23,9,3,16,8,31,27,7,26,135,,1.7,0.8,1.3*09
2017-12-31 18:49:30 1514764170.690137: $GPGSV,3,1,11,22,08,204,22,23,68,282,41,09,36,310,45,03,18,220,36*77
2017-12-31 18:49:30 1514764170.690313: $GPGSV,3,2,11,16,77,036,44,08,16,175,35,31,16,088,22,27,39,144,42*7D
2017-12-31 18:49:30 1514764170.690382: $GPGSV,3,3,11,07,10,285,28,26,45,048,46,135,22,240,43*77
2017-12-31 18:49:30 1514764170.802267: $GPZDA,234931.00,31,12,2017,00,00*6D
2017-12-31 18:49:30 1514764170.802427: $GPGGA,234931,3946.9573,N,08404.9850,W,2,11,0.80,305.35,M,-33.324,M,,*71
2017-12-31 18:49:30 1514764170.802495: $GPRMC,234931,A,3946.9573,N,08404.9850,W,0.0000,0.000,311217,,*3A
2017-12-31 18:49:30 1514764170.802555: $GPGSA,A,3,22,23,9,3,16,8,31,27,7,26,135,,1.7,0.8,1.3*09
2017-12-31 18:49:31 1514764171.348323: $GPZDA,234932.00,31,12,2017,00,00*6E
2017-12-31 18:49:31 1514764171.348501: $GPGGA,234932,3946.9573,N,08404.9850,W,2,11,0.80,305.35,M,-33.324,M,,*72
2017-12-31 18:49:31 1514764171.348570: $GPRMC,234932,A,3946.9573,N,08404.9850,W,0.0000,0.000,311217,,*39
2017-12-31 18:49:31 1514764171.348630: $GPGSA,A,3,22,23,9,3,16,8,31,27,7,26,135,,1.7,0.8,1.3*09
2017-12-31 18:49:32 1514764172.346879: $GPZDA,234933.00,31,12,2017,00,00*6F
2017-12-31 18:49:32 1514764172.347049: $GPGGA,234933,3946.9573,N,08404.9850,W,2,11,0.80,305.35,M,-33.324,M,,*73
2017-12-31 18:49:32 1514764172.347184: $GPRMC,234933,A,3946.9573,N,08404.9850,W,0.0000,0.000,311217,,*38
2017-12-31 18:49:32 1514764172.347251: $GPGSA,A,3,22,23,9,3,16,8,31,27,7,26,135,,1.7,0.8,1.3*09
2017-12-31 18:49:33 1514764173.688544: $GPGSV,3,1,11,22,08,204,22,23,68,282,40,09,36,310,45,03,18,220,35*75
2017-12-31 18:49:33 1514764173.688715: $GPGSV,3,2,11,16,77,036,44,08,16,175,35,31,16,088,22,27,39,144,41*7E
2017-12-31 18:49:33 1514764173.688780: $GPGSV,3,3,11,07,10,285,31,26,45,048,46,135,22,240,44*78
2017-12-31 18:49:33 1514764173.802195: $GPZDA,234934.00,31,12,2017,00,00*68
2017-12-31 18:49:33 1514764173.802339: $GPGGA,234934,3946.9573,N,08404.9850,W,2,11,0.80,305.35,M,-33.324,M,,*74
2017-12-31 18:49:33 1514764173.802405: $GPRMC,234934,A,3946.9573,N,08404.9850,W,0.0000,0.000,311217,,*3F
2017-12-31 18:49:33 1514764173.802466: $GPGSA,A,3,22,23,9,3,16,8,31,27,7,26,135,,1.7,0.8,1.3*09
2017-12-31 18:49:34 1514764174.354470: $GPZDA,234935.00,31,12,2017,00,00*69
2017-12-31 18:49:34 1514764174.354640: $GPGGA,234935,3946.9573,N,08404.9850,W,2,11,0.80,305.35,M,-33.324,M,,*75
2017-12-31 18:49:34 1514764174.354708: $GPRMC,234935,A,3946.9573,N,08404.9850,W,0.0000,0.000,311217,,*3E
2017-12-31 18:49:34 1514764174.354769: $GPGSA,A,3,22,23,9,3,16,8,31,27,7,26,135,,1.7,0.8,1.3*09
2017-12-31 18:49:35 1514764175.353595: $GPZDA,234936.00,31,12,2017,00,00*6A
2017-12-31 18:49:35 1514764175.353767: $GPGGA,234936,3946.9573,N,08404.9850,W,2,11,0.80,305.35,M,-33.324,M,,*76
2017-12-31 18:49:35 1514764175.353889: $GPRMC,234936,A,3946.9573,N,08404.9850,W,0.0000,0.000,311217,,*3D
2017-12-31 18:49:35 1514764175.353953: $GPGSA,A,3,22,23,9,3,16,8,31,27,7,26,135,,1.7,0.8,1.3*09
2017-12-31 18:49:36 1514764176.688857: $GPGSV,3,1,11,22,08,204,21,23,68,282,39,09,36,310,45,03,18,220,35*78
2017-12-31 18:49:36 1514764176.689019: $GPGSV,3,2,11,16,77,036,43,08,16,175,35,31,16,088,19,27,39,144,41*71
2017-12-31 18:49:36 1514764176.689085: $GPGSV,3,3,11,07,10,285,38,26,45,048,45,135,22,240,44*72
2017-12-31 18:49:36 1514764176.802562: $GPZDA,234937.00,31,12,2017,00,00*6B
2017-12-31 18:49:36 1514764176.802690: $GPGGA,234937,3946.9573,N,08404.9850,W,2,11,0.80,305.35,M,-33.324,M,,*77
2017-12-31 18:49:36 1514764176.802754: $GPRMC,234937,A,3946.9573,N,08404.9850,W,0.0000,0.000,311217,,*3C
2017-12-31 18:49:36 1514764176.802815: $GPGSA,A,3,22,23,9,3,16,8,31,27,7,26,135,,1.7,0.8,1.3*09
2017-12-31 18:49:37 1514764177.354429: $GPZDA,234938.00,31,12,2017,00,00*64
2017-12-31 18:49:37 1514764177.354600: $GPGGA,234938,3946.9573,N,08404.9850,W,2,11,0.80,305.35,M,-33.324,M,,*78
2017-12-31 18:49:37 1514764177.354666: $GPRMC,234938,A,3946.9573,N,08404.9850,W,0.0000,0.000,311217,,*33
2017-12-31 18:49:37 1514764177.354725: $GPGSA,A,3,22,23,9,3,16,8,31,27,7,26,135,,1.7,0.8,1.3*09
