2017-11-16 14:37:37 1510861057.329193: {"class":"VERSION","release":"3.17","rev":"3.17","proto_major":3,"proto_minor":12}
2017-11-16 14:37:37 1510861057.329666: {"class":"DEVICES","devices":[{"class":"DEVICE","path":"/dev/ttyUSB0","driver":"SiRF","subtype":"9\u0006GSD4e_4.1.2-P1_RPATCH.05-F-GPS-4R-1510281 11/03/2015 307","activated":"2017-11-16T19:37:37.151Z","flags":1,"native":1,"bps":4800,"parity":"N","stopbits":1,"cycle":1.00}]}
2017-11-16 14:37:37 1510861057.329818: {"class":"WATCH","enable":true,"json":false,"nmea":true,"raw":0,"scaled":false,"timing":false,"split24":false,"pps":false}
2017-11-16 14:37:37 1510861057.520613: $GPZDA,193736.00,16,11,2017,00,00*6C
2017-11-16 14:37:37 1510861057.520790: $GPGGA,193736,3946.9564,N,08404.9849,W,2,11,0.80,302.66,M,-33.324,M,,*79
2017-11-16 14:37:37 1510861057.520851: $GPRMC,193736,A,3946.9564,N,08404.9849,W,0.0000,0.000,161117,,*35
2017-11-16 14:37:37 1510861057.520908: $GPGSA,A,3,8,10,15,18,21,20,24,27,32,14,138,,1.6,0.8,1.3*37
2017-11-16 14:37:38 1510861058.520396: $GPZDA,193737.00,16,11,2017,00,00*6D
2017-11-16 14:37:38 1510861058.520570: $GPGGA,193737,3946.9564,N,08404.9849,W,2,11,0.80,302.66,M,-33.324,M,,*78
2017-11-16 14:37:38 1510861058.520631: $GPRMC,193737,A,3946.9564,N,08404.9849,W,0.0000,0.000,161117,,*34
2017-11-16 14:37:38 1510861058.520687: $GPGSA,A,3,8,10,15,18,21,20,24,27,32,14,138,,1.6,0.8,1.3*37
2017-11-16 14:37:39 1510861059.861952: $GPGSV,3,1,11,08,08,312,29,10,50,309,50,15,28,055,51,18,76,009,45*71
2017-11-16 14:37:39 1510861059.862155: $GPGSV,3,2,11,21,52,184,47,20,25,103,46,24,53,091,50,27,16,279,43*73
2017-11-16 14:37:39 1510861059.862218: $GPGSV,3,3,11,32,29,246,48,14,13,238,42,138,38,213,44*76
2017-11-16 14:37:39 1510861059.975387: $GPZDA,193738.00,16,11,2017,00,00*62
2017-11-16 14:37:39 1510861059.975567: $GPGGA,193738,3946.9564,N,08404.9849,W,2,11,0.80,302.66,M,-33.324,M,,*77
2017-11-16 14:37:39 1510861059.975628: $GPRMC,193738,A,3946.9564,N,08404.9849,W,0.0000,0.000,161117,,*3B
2017-11-16 14:37:39 1510861059.975685: $GPGSA,A,3,8,10,15,18,21,20,24,27,32,14,138,,1.6,0.8,1.3*37
2017-11-16 14:37:40 1510861060.527446: $GPZDA,193739.00,16,11,2017,00,00*63
2017-11-16 14:37:40 1510861060.527603: $GPGGA,193739,3946.9564,N,08404.9849,W,2,11,0.80,302.66,M,-33.324,M,,*76
2017-11-16 14:37:40 1510861060.527664: $GPRMC,193739,A,3946.9564,N,08404.9849,W,0.0000,0.000,161117,,*3A
2017-11-16 14:37:40 1510861060.527720: $GPGSA,A,3,8,10,15,18,21,20,24,27,32,14,138,,1.6,0.8,1.3*37
2017-11-16 14:37:41 1510861061.561199: $GPZDA,193740.00,16,11,2017,00,00*6D
2017-11-16 14:37:41 1510861061.561362: $GPGGA,193740,3946.9564,N,08404.9849,W,2,11,0.80,302.66,M,-33.324,M,,*78
2017-11-16 14:37:41 1510861061.561423: $GPRMC,193740,A,3946.9564,N,08404.9849,W,0.0000,0.000,161117,,*34
2017-11-16 14:37:41 1510861061.561481: $GPGSA,A,3,8,10,15,18,21,20,24,27,32,14,138,,1.6,0.8,1.3*37
2017-11-16 14:37:42 1510861062.859104: $GPGSV,3,1,11,08,08,312,28,10,50,309,50,15,28,055,51,18,76,009,45*70
2017-11-16 14:37:42 1510861062.859296: $GPGSV,3,2,11,21,52,184,47,20,25,103,46,24,53,091,50,27,16,279,43*73
2017-11-16 14:37:42 1510861062.859356: $GPGSV,3,3,11,32,29,246,48,14,13,238,43,138,38,213,45*76
2017-11-16 14:37:42 1510861062.972577: $GPZDA,193741.00,16,11,2017,00,00*6C
2017-11-16 14:37:42 1510861062.972742: $GPGGA,193741,3946.9564,N,08404.9849,W,2,11,0.80,302.66,M,-33.324,M,,*79
2017-11-16 14:37:42 1510861062.972803: $GPRMC,193741,A,3946.9564,N,08404.9849,W,0.0000,0.000,161117,,*35
2017-11-16 14:37:42 1510861062.972859: $GPGSA,A,3,8,10,15,18,21,20,24,27,32,14,138,,1.6,0.8,1.3*37
2017-11-16 14:37:43 1510861063.527477: $GPZDA,193742.00,16,11,2017,00,00*6F
2017-11-16 14:37:43 1510861063.527638: $GPGGA,193742,3946.9564,N,08404.9849,W,2,11,0.80,302.66,M,-33.324,M,,*7A
2017-11-16 14:37:43 1510861063.527698: $GPRMC,193742,A,3946.9564,N,08404.9849,W,0.0000,0.000,161117,,*36
2017-11-16 14:37:43 1510861063.527774: $GPGSA,A,3,8,10,15,18,21,20,24,27,32,14,138,,1.6,0.8,1.3*37
2017-11-16 14:37:44 1510861064.527893: $GPZDA,193743.00,16,11,2017,00,00*6E
2017-11-16 14:37:44 1510861064.528056: $GPGGA,193743,3946.9564,N,08404.9849,W,2,11,0.80,302.66,M,-33.324,M,,*7B
2017-11-16 14:37:44 1510861064.528168: $GPRMC,193743,A,3946.9564,N,08404.9849,W,0.0000,0.000,161117,,*37
2017-11-16 14:37:44 1510861064.528226: $GPGSA,A,3,8,10,15,18,21,20,24,27,32,14,138,,1.6,0.8,1.3*37
2017-11-16 14:37:45 1510861065.895899: $GPGSV,3,1,11,08,08,312,36,10,50,309,49,15,28,055,51,18,76,009,45*77
2017-11-16 14:37:45 1510861065.896085: $GPGSV,3,2,11,21,52,184,47,20,25,103,46,24,53,091,50,27,16,279,43*73
2017-11-16 14:37:45 1510861065.896149: $GPGSV,3,3,11,32,29,246,48,14,13,238,42,138,38,213,44*76
2017-11-16 14:37:46 1510861066.009517: $GPZDA,193744.00,16,11,2017,00,00*69
2017-11-16 14:37:46 1510861066.009677: $GPGGA,193744,3946.9564,N,08404.9849,W,2,11,0.80,302.66,M,-33.324,M,,*7C
2017-11-16 14:37:46 1510861066.009740: $GPRMC,193744,A,3946.9564,N,08404.9849,W,0.0000,0.000,161117,,*30
2017-11-16 14:37:46 1510861066.009795: $GPGSA,A,3,8,10,15,18,21,20,24,27,32,14,138,,1.6,0.8,1.3*37
2017-11-16 14:37:46 1510861066.560175: $GPZDA,193745.00,16,11,2017,00,00*68
2017-11-16 14:37:46 1510861066.560404: $GPGGA,193745,3946.9564,N,08404.9849,W,2,11,0.80,302.66,M,-33.324,M,,*7D
2017-11-16 14:37:46 1510861066.560474: $GPRMC,193745,A,3946.9564,N,08404.9849,W,0.0000,0.000,161117,,*31
2017-11-16 14:37:46 1510861066.560535: $GPGSA,A,3,8,10,15,18,21,20,24,27,32,14,138,,1.6,0.8,1.3*37
2017-11-16 14:37:47 1510861067.526104: $GPZDA,193746.00,16,11,2017,00,00*6B
2017-11-16 14:37:47 1510861067.526259: $GPGGA,193746,3946.9564,N,08404.9849,W,2,11,0.80,302.66,M,-33.324,M,,*7E
2017-11-16 14:37:47 1510861067.526321: $GPRMC,193746,A,3946.9564,N,08404.9849,W,0.0000,0.000,161117,,*32
2017-11-16 14:37:47 1510861067.526377: $GPGSA,A,3,8,10,15,18,21,20,24,27,32,14,138,,1.6,0.8,1.3*37
2017-11-16 14:37:48 1510861068.863178: $GPGSV,3,1,11,08,08,312,35,10,50,309,50,15,28,055,51,18,76,009,45*7C
2017-11-16 14:37:48 1510861068.863321: $GPGSV,3,2,11,21,52,184,47,20,25,103,46,24,53,091,50,27,16,279,43*73
2017-11-16 14:37:48 1510861068.863382: $GPGSV,3,3,11,32,29,246,48,14,13,238,42,138,38,213,43*71
2017-11-16 14:37:48 1510861068.976744: $GPZDA,193747.00,16,11,2017,00,00*6A
2017-11-16 14:37:48 1510861068.976904: $GPGGA,193747,3946.9564,N,08404.9849,W,2,11,0.80,302.66,M,-33.324,M,,*7F
2017-11-16 14:37:48 1510861068.976966: $GPRMC,193747,A,3946.9564,N,08404.9849,W,0.0000,0.000,161117,,*33
2017-11-16 14:37:48 1510861068.977021: $GPGSA,A,3,8,10,15,18,21,20,24,27,32,14,138,,1.6,0.8,1.3*37
2017-11-16 14:37:49 1510861069.601916: $GPZDA,193748.00,16,11,2017,00,00*65
2017-11-16 14:37:49 1510861069.602079: $GPGGA,193748,3946.9564,N,08404.9849,W,2,11,0.80,302.66,M,-33.324,M,,*70
2017-11-16 14:37:49 1510861069.602142: $GPRMC,193748,A,3946.9564,N,08404.9849,W,0.0000,0.000,161117,,*3C
2017-11-16 14:37:49 1510861069.602197: $GPGSA,A,3,8,10,15,18,21,20,24,27,32,14,138,,1.6,0.8,1.3*37
2017-11-16 14:37:50 1510861070.520279: $GPZDA,193749.00,16,11,2017,00,00*64
2017-11-16 14:37:50 1510861070.520519: $GPGGA,193749,3946.9564,N,08404.9849,W,2,11,0.80,302.66,M,-33.324,M,,*71
2017-11-16 14:37:50 1510861070.520583: $GPRMC,193749,A,3946.9564,N,08404.9849,W,0.0000,0.000,161117,,*3D
2017-11-16 14:37:50 1510861070.520641: $GPGSA,A,3,8,10,15,18,21,20,24,27,32,14,138,,1.6,0.8,1.3*37
2017-11-16 14:37:51 1510861071.896044: $GPGSV,3,1,11,08,08,312,35,10,50,309,50,15,28,055,50,18,76,009,45*7D
2017-11-16 14:37:51 1510861071.896231: $GPGSV,3,2,11,21,52,184,47,20,25,103,45,24,53,091,49,27,16,279,43*78
2017-11-16 14:37:51 1510861071.896293: $GPGSV,3,3,11,32,29,246,48,14,13,238,42,138,38,213,43*71
2017-11-16 14:37:52 1510861072.009402: $GPZDA,193750.00,16,11,2017,00,00*6C
2017-11-16 14:37:52 1510861072.009545: $GPGGA,193750,3946.9564,N,08404.9849,W,2,11,0.80,302.66,M,-33.324,M,,*79
2017-11-16 14:37:52 1510861072.009609: $GPRMC,193750,A,3946.9564,N,08404.9849,W,0.0000,0.000,161117,,*35
2017-11-16 14:37:52 1510861072.009664: $GPGSA,A,3,8,10,15,18,21,20,24,27,32,14,138,,1.6,0.8,1.3*37
2017-11-16 14:37:52 1510861072.561536: $GPZDA,193751.00,16,11,2017,00,00*6D
2017-11-16 14:37:52 1510861072.561785: $GPGGA,193751,3946.9564,N,08404.9849,W,2,11,0.80,302.66,M,-33.324,M,,*78
2017-11-16 14:37:52 1510861072.561852: $GPRMC,193751,A,3946.9564,N,08404.9849,W,0.0000,0.000,161117,,*34
2017-11-16 14:37:52 1510861072.561909: $GPGSA,A,3,8,10,15,18,21,20,24,27,32,14,138,,1.6,0.8,1.3*37
2017-11-16 14:37:53 1510861073.527402: $GPZDA,193752.00,16,11,2017,00,00*6E
2017-11-16 14:37:53 1510861073.527623: $GPGGA,193752,3946.9564,N,08404.9849,W,2,11,0.80,302.66,M,-33.324,M,,*7B
2017-11-16 14:37:53 1510861073.527688: $GPRMC,193752,A,3946.9564,N,08404.9849,W,0.0000,0.000,161117,,*37
2017-11-16 14:37:53 1510861073.527744: $GPGSA,A,3,8,10,15,18,21,20,24,27,32,14,138,,1.6,0.8,1.3*37
2017-11-16 14:37:54 1510861074.864031: $GPGSV,3,1,11,08,08,312,36,10,50,309,50,15,28,055,50,18,76,009,45*7E
2017-11-16 14:37:54 1510861074.864201: $GPGSV,3,2,11,21,52,184,47,20,25,103,45,24,53,091,49,27,16,279,42*79
2017-11-16 14:37:54 1510861074.864262: $GPGSV,3,3,11,32,29,246,48,14,13,238,42,138,38,213,44*76
2017-11-16 14:37:54 1510861074.977329: $GPZDA,193753.00,16,11,2017,00,00*6F
2017-11-16 14:37:54 1510861074.977535: $GPGGA,193753,3946.9564,N,08404.9849,W,2,11,0.80,302.66,M,-33.324,M,,*7A
2017-11-16 14:37:54 1510861074.977603: $GPRMC,193753,A,3946.9564,N,08404.9849,W,0.0000,0.000,161117,,*36
2017-11-16 14:37:54 1510861074.977659: $GPGSA,A,3,8,10,15,18,21,20,24,27,32,14,138,,1.6,0.8,1.3*37
2017-11-16 14:37:55 1510861075.555952: $GPZDA,193754.00,16,11,2017,00,00*68
2017-11-16 14:37:55 1510861075.556115: $GPGGA,193754,3946.9564,N,08404.9849,W,2,11,0.80,302.66,M,-33.324,M,,*7D
2017-11-16 14:37:55 1510861075.556175: $GPRMC,193754,A,3946.9564,N,08404.9849,W,0.0000,0.000,161117,,*31
2017-11-16 14:37:55 1510861075.556231: $GPGSA,A,3,8,10,15,18,21,20,24,27,32,14,138,,1.6,0.8,1.3*37
2017-11-16 14:37:56 1510861076.556861: $GPZDA,193755.00,16,11,2017,00,00*69
2017-11-16 14:37:56 1510861076.557048: $GPGGA,193755,3946.9564,N,08404.9849,W,2,11,0.80,302.66,M,-33.324,M,,*7C
2017-11-16 14:37:56 1510861076.557108: $GPRMC,193755,A,3946.9564,N,08404.9849,W,0.0000,0.000,161117,,*30
2017-11-16 14:37:56 1510861076.557164: $GPGSA,A,3,8,10,15,18,21,20,24,27,32,14,138,,1.6,0.8,1.3*37
2017-11-16 14:37:57 1510861077.863898: $GPGSV,3,1,11,08,08,312,25,10,50,309,50,15,28,055,50,18,76,009,45*7C
2017-11-16 14:37:57 1510861077.864084: $GPGSV,3,2,11,21,52,184,47,20,25,103,45,24,53,091,49,27,16,279,42*79
2017-11-16 14:37:57 1510861077.864144: $GPGSV,3,3,11,32,29,246,48,14,13,238,42,138,38,213,44*76
2017-11-16 14:37:57 1510861077.976010: $GPZDA,193756.00,16,11,2017,00,00*6A
2017-11-16 14:37:57 1510861077.976173: $GPGGA,193756,3946.9564,N,08404.9849,W,2,11,0.80,302.66,M,-33.324,M,,*7F
2017-11-16 14:37:57 1510861077.976234: $GPRMC,193756,A,3946.9564,N,08404.9849,W,0.0000,0.000,161117,,*33
2017-11-16 14:37:57 1510861077.976289: $GPGSA,A,3,8,10,15,18,21,20,24,27,32,14,138,,1.6,0.8,1.3*37
2017-11-16 14:37:58 1510861078.526909: $GPZDA,193757.00,16,11,2017,00,00*6B
2017-11-16 14:37:58 1510861078.535167: $GPGGA,193757,3946.9564,N,08404.9849,W,2,11,0.80,302.66,M,-33.324,M,,*7E
2017-11-16 14:37:58 1510861078.535270: $GPRMC,193757,A,3946.9564,N,08404.9849,W,0.0000,0.000,161117,,*32
2017-11-16 14:37:58 1510861078.535328: $GPGSA,A,3,8,10,15,18,21,20,24,27,32,14,138,,1.6,0.8,1.3*37
2017-11-16 14:37:59 1510861079.561072: $GPZDA,193758.00,16,11,2017,00,00*64
2017-11-16 14:37:59 1510861079.561353: $GPGGA,193758,3946.9564,N,08404.9849,W,2,11,0.80,302.66,M,-33.324,M,,*71
2017-11-16 14:37:59 1510861079.561469: $GPRMC,193758,A,3946.9564,N,08404.9849,W,0.0000,0.000,161117,,*3D
2017-11-16 14:37:59 1510861079.561581: $GPGSA,A,3,8,10,15,18,21,20,24,27,32,14,138,,1.6,0.8,1.3*37
2017-11-16 14:38:00 1510861080.864366: $GPGSV,3,1,11,08,08,312,27,10,50,309,49,15,28,055,50,18,76,009,44*77
2017-11-16 14:38:00 1510861080.864536: $GPGSV,3,2,11,21,52,184,47,20,25,103,45,24,53,091,48,27,16,279,42*78
2017-11-16 14:38:00 1510861080.864597: $GPGSV,3,3,11,32,29,246,48,14,13,238,42,138,38,213,43*71
2017-11-16 14:38:00 1510861080.978243: $GPZDA,193759.00,16,11,2017,00,00*65
2017-11-16 14:38:00 1510861080.978449: $GPGGA,193759,3946.9564,N,08404.9849,W,2,11,0.80,302.66,M,-33.324,M,,*70
2017-11-16 14:38:00 1510861080.978513: $GPRMC,193759,A,3946.9564,N,08404.9849,W,0.0000,0.000,161117,,*3C
2017-11-16 14:38:00 1510861080.978569: $GPGSA,A,3,8,10,15,18,21,20,24,27,32,14,138,,1.6,0.8,1.3*37
2017-11-16 14:38:01 1510861081.562336: $GPZDA,193800.00,16,11,2017,00,00*66
2017-11-16 14:38:01 1510861081.562503: $GPGGA,193800,3946.9564,N,08404.9849,W,2,11,0.80,302.66,M,-33.324,M,,*73
2017-11-16 14:38:01 1510861081.562564: $GPRMC,193800,A,3946.9564,N,08404.9849,W,0.0000,0.000,161117,,*3F
2017-11-16 14:38:01 1510861081.562620: $GPGSA,A,3,8,10,15,18,21,20,24,27,32,14,138,,1.6,0.8,1.3*37
2017-11-16 14:38:02 1510861082.563245: $GPZDA,193801.00,16,11,2017,00,00*67
2017-11-16 14:38:02 1510861082.563413: $GPGGA,193801,3946.9564,N,08404.9849,W,2,11,0.80,302.66,M,-33.324,M,,*72
2017-11-16 14:38:02 1510861082.563474: $GPRMC,193801,A,3946.9564,N,08404.9849,W,0.0000,0.000,161117,,*3E
2017-11-16 14:38:02 1510861082.563529: $GPGSA,A,3,8,10,15,18,21,20,24,27,32,14,138,,1.6,0.8,1.3*37
2017-11-16 14:38:03 1510861083.862836: $GPGSV,3,1,11,08,08,312,27,10,50,309,49,15,28,055,50,18,76,009,44*77
2017-11-16 14:38:03 1510861083.863021: $GPGSV,3,2,11,21,52,184,47,20,25,103,46,24,53,091,49,27,16,279,42*7A
2017-11-16 14:38:03 1510861083.863103: $GPGSV,3,3,11,32,29,246,48,14,13,238,43,138,38,213,45*76
2017-11-16 14:38:03 1510861083.977560: $GPZDA,193802.00,16,11,2017,00,00*64
2017-11-16 14:38:03 1510861083.977730: $GPGGA,193802,3946.9564,N,08404.9849,W,2,11,0.80,302.66,M,-33.324,M,,*71
2017-11-16 14:38:03 1510861083.977792: $GPRMC,193802,A,3946.9564,N,08404.9849,W,0.0000,0.000,161117,,*3D
2017-11-16 14:38:03 1510861083.977848: $GPGSA,A,3,8,10,15,18,21,20,24,27,32,14,138,,1.6,0.8,1.3*37
2017-11-16 14:38:04 1510861084.601778: $GPZDA,193803.00,16,11,2017,00,00*65
2017-11-16 14:38:04 1510861084.601939: $GPGGA,193803,3946.9564,N,08404.9849,W,2,11,0.80,302.66,M,-33.324,M,,*70
2017-11-16 14:38:04 1510861084.602000: $GPRMC,193803,A,3946.9564,N,08404.9849,W,0.0000,0.000,161117,,*3C
2017-11-16 14:38:04 1510861084.602057: $GPGSA,A,3,8,10,15,18,21,20,24,27,32,14,138,,1.6,0.8,1.3*37
2017-11-16 14:38:05 1510861085.527517: $GPZDA,193804.00,16,11,2017,00,00*62
2017-11-16 14:38:05 1510861085.527687: $GPGGA,193804,3946.9564,N,08404.9849,W,2,11,0.80,302.66,M,-33.324,M,,*77
2017-11-16 14:38:05 1510861085.527749: $GPRMC,193804,A,3946.9564,N,08404.9849,W,0.0000,0.000,161117,,*3B
2017-11-16 14:38:05 1510861085.527805: $GPGSA,A,3,8,10,15,18,21,20,24,27,32,14,138,,1.6,0.8,1.3*37
2017-11-16 14:38:06 1510861086.894584: $GPGSV,3,1,11,08,08,312,34,10,50,309,49,15,28,055,50,18,76,009,45*74
2017-11-16 14:38:06 1510861086.894750: $GPGSV,3,2,11,21,52,184,47,20,25,103,46,24,53,091,48,27,16,279,42*7B
2017-11-16 14:38:06 1510861086.894810: $GPGSV,3,3,11,32,29,246,48,14,13,238,42,138,38,213,45*77
2017-11-16 14:38:07 1510861087.008033: $GPZDA,193805.00,16,11,2017,00,00*63
2017-11-16 14:38:07 1510861087.008201: $GPGGA,193805,3946.9564,N,08404.9849,W,2,11,0.80,302.66,M,-33.324,M,,*76
2017-11-16 14:38:07 1510861087.008264: $GPRMC,193805,A,3946.9564,N,08404.9849,W,0.0000,0.000,161117,,*3A
2017-11-16 14:38:07 1510861087.008320: $GPGSA,A,3,8,10,15,18,21,20,24,27,32,14,138,,1.6,0.8,1.3*37
