2017-11-16 14:27:56 1510860476.670422: {"class":"VERSION","release":"3.17","rev":"3.17","proto_major":3,"proto_minor":12}
2017-11-16 14:27:56 1510860476.671090: {"class":"DEVICES","devices":[{"class":"DEVICE","path":"/dev/ttyUSB0","driver":"SiRF","subtype":"9\u0006GSD4e_4.1.2-P1_RPATCH.05-F-GPS-4R-1510281 11/03/2015 307","activated":"2017-11-16T19:27:56.651Z","flags":1,"native":1,"bps":4800,"parity":"N","stopbits":1,"cycle":1.00}]}
2017-11-16 14:27:56 1510860476.671212: {"class":"WATCH","enable":true,"json":false,"nmea":true,"raw":0,"scaled":false,"timing":false,"split24":false,"pps":false}
2017-11-16 14:27:57 1510860477.874149: $GPGSV,3,1,12,08,07,316,32,10,47,306,47,13,02,051,05,15,32,054,51*77
2017-11-16 14:27:57 1510860477.874326: $GPGSV,3,2,12,18,75,354,46,21,57,186,46,20,28,100,46,24,53,099,47*74
2017-11-16 14:27:57 1510860477.874387: $GPGSV,3,3,12,27,18,282,41,32,26,243,45,14,09,235,37,138,38,213,43*40
2017-11-16 14:27:57 1510860477.987514: $GPZDA,192756.00,16,11,2017,00,00*6B
2017-11-16 14:27:57 1510860477.987683: $GPGGA,192756,3946.9564,N,08404.9849,W,2,11,0.80,302.66,M,-33.324,M,,*7E
2017-11-16 14:27:57 1510860477.987745: $GPRMC,192756,A,3946.9564,N,08404.9849,W,0.0000,0.000,161117,,*32
2017-11-16 14:27:57 1510860477.987802: $GPGSA,A,3,8,10,15,18,21,20,24,27,32,14,138,,1.6,0.8,1.3*37
2017-11-16 14:27:58 1510860478.505937: $GPZDA,192757.00,16,11,2017,00,00*6A
2017-11-16 14:27:58 1510860478.506116: $GPGGA,192757,3946.9564,N,08404.9849,W,2,11,0.80,302.66,M,-33.324,M,,*7F
2017-11-16 14:27:58 1510860478.506178: $GPRMC,192757,A,3946.9564,N,08404.9849,W,0.0000,0.000,161117,,*33
2017-11-16 14:27:58 1510860478.506235: $GPGSA,A,3,8,10,15,18,21,20,24,27,32,14,138,,1.6,0.8,1.3*37
2017-11-16 14:27:59 1510860479.506262: $GPZDA,192758.00,16,11,2017,00,00*65
2017-11-16 14:27:59 1510860479.506428: $GPGGA,192758,3946.9564,N,08404.9849,W,2,11,0.80,302.66,M,-33.324,M,,*70
2017-11-16 14:27:59 1510860479.506493: $GPRMC,192758,A,3946.9564,N,08404.9849,W,0.0000,0.000,161117,,*3C
2017-11-16 14:27:59 1510860479.506550: $GPGSA,A,3,8,10,15,18,21,20,24,27,32,14,138,,1.6,0.8,1.3*37
2017-11-16 14:28:00 1510860480.843322: $GPGSV,3,1,12,08,07,316,30,10,47,306,47,13,02,051,07,15,32,054,51*77
2017-11-16 14:28:00 1510860480.843506: $GPGSV,3,2,12,18,75,354,46,21,57,186,45,20,28,100,46,24,53,099,48*78
2017-11-16 14:28:00 1510860480.843592: $GPGSV,3,3,12,27,18,282,41,32,26,243,46,14,09,235,37,138,38,213,44*44
2017-11-16 14:28:00 1510860480.956652: $GPZDA,192759.00,16,11,2017,00,00*64
2017-11-16 14:28:00 1510860480.956806: $GPGGA,192759,3946.9564,N,08404.9849,W,2,11,0.80,302.66,M,-33.324,M,,*71
2017-11-16 14:28:00 1510860480.956868: $GPRMC,192759,A,3946.9564,N,08404.9849,W,0.0000,0.000,161117,,*3D
2017-11-16 14:28:00 1510860480.956924: $GPGSA,A,3,8,10,15,18,21,20,24,27,32,14,138,,1.6,0.8,1.3*37
2017-11-16 14:28:01 1510860481.500007: $GPZDA,192800.00,16,11,2017,00,00*67
2017-11-16 14:28:01 1510860481.500176: $GPGGA,192800,3946.9564,N,08404.9849,W,2,11,0.80,302.66,M,-33.324,M,,*72
2017-11-16 14:28:01 1510860481.500237: $GPRMC,192800,A,3946.9564,N,08404.9849,W,0.0000,0.000,161117,,*3E
2017-11-16 14:28:01 1510860481.500375: $GPGSA,A,3,8,10,15,18,21,20,24,27,32,14,138,,1.6,0.8,1.3*37
2017-11-16 14:28:02 1510860482.500974: $GPZDA,192801.00,16,11,2017,00,00*66
2017-11-16 14:28:02 1510860482.501132: $GPGGA,192801,3946.9564,N,08404.9849,W,2,11,0.80,302.66,M,-33.324,M,,*73
2017-11-16 14:28:02 1510860482.501193: $GPRMC,192801,A,3946.9564,N,08404.9849,W,0.0000,0.000,161117,,*3F
2017-11-16 14:28:02 1510860482.501249: $GPGSA,A,3,8,10,15,18,21,20,24,27,32,14,138,,1.6,0.8,1.3*37
2017-11-16 14:28:03 1510860483.843010: $GPGSV,3,1,12,08,07,316,30,10,47,306,47,13,02,051,07,15,32,054,51*77
2017-11-16 14:28:03 1510860483.843178: $GPGSV,3,2,12,18,75,354,46,21,57,186,45,20,28,100,46,24,53,099,48*78
2017-11-16 14:28:03 1510860483.843240: $GPGSV,3,3,12,27,18,282,42,32,26,243,46,14,09,235,37,138,38,213,44*47
2017-11-16 14:28:03 1510860483.955083: $GPZDA,192802.00,16,11,2017,00,00*65
2017-11-16 14:28:03 1510860483.955248: $GPGGA,192802,3946.9564,N,08404.9849,W,2,11,0.80,302.66,M,-33.324,M,,*70
2017-11-16 14:28:03 1510860483.955360: $GPRMC,192802,A,3946.9564,N,08404.9849,W,0.0000,0.000,161117,,*3C
2017-11-16 14:28:03 1510860483.955418: $GPGSA,A,3,8,10,15,18,21,20,24,27,32,14,138,,1.6,0.8,1.3*37
2017-11-16 14:28:04 1510860484.582170: $GPZDA,192803.00,16,11,2017,00,00*64
2017-11-16 14:28:04 1510860484.582344: $GPGGA,192803,3946.9564,N,08404.9849,W,2,11,0.80,302.66,M,-33.324,M,,*71
2017-11-16 14:28:04 1510860484.582405: $GPRMC,192803,A,3946.9564,N,08404.9849,W,0.0000,0.000,161117,,*3D
2017-11-16 14:28:04 1510860484.582461: $GPGSA,A,3,8,10,15,18,21,20,24,27,32,14,138,,1.6,0.8,1.3*37
2017-11-16 14:28:05 1510860485.507602: $GPZDA,192804.00,16,11,2017,00,00*63
2017-11-16 14:28:05 1510860485.507781: $GPGGA,192804,3946.9564,N,08404.9849,W,2,11,0.80,302.66,M,-33.324,M,,*76
2017-11-16 14:28:05 1510860485.507844: $GPRMC,192804,A,3946.9564,N,08404.9849,W,0.0000,0.000,161117,,*3A
2017-11-16 14:28:05 1510860485.507901: $GPGSA,A,3,8,10,15,18,21,20,24,27,32,14,138,,1.6,0.8,1.3*37
2017-11-16 14:28:06 1510860486.843423: $GPGSV,3,1,12,08,07,316,30,10,47,306,47,13,02,051,06,15,32,054,51*76
2017-11-16 14:28:06 1510860486.843588: $GPGSV,3,2,12,18,75,354,46,21,57,186,45,20,28,100,46,24,53,099,48*78
2017-11-16 14:28:06 1510860486.843650: $GPGSV,3,3,12,27,18,282,42,32,26,243,46,14,09,235,37,138,38,213,42*41
2017-11-16 14:28:06 1510860486.956755: $GPZDA,192805.00,16,11,2017,00,00*62
2017-11-16 14:28:06 1510860486.956923: $GPGGA,192805,3946.9564,N,08404.9849,W,2,11,0.80,302.66,M,-33.324,M,,*77
2017-11-16 14:28:06 1510860486.956984: $GPRMC,192805,A,3946.9564,N,08404.9849,W,0.0000,0.000,161117,,*3B
2017-11-16 14:28:06 1510860486.957040: $GPGSA,A,3,8,10,15,18,21,20,24,27,32,14,138,,1.6,0.8,1.3*37
2017-11-16 14:28:07 1510860487.506430: $GPZDA,192806.00,16,11,2017,00,00*61
2017-11-16 14:28:07 1510860487.506610: $GPGGA,192806,3946.9564,N,08404.9849,W,2,11,0.80,302.66,M,-33.324,M,,*74
2017-11-16 14:28:07 1510860487.506672: $GPRMC,192806,A,3946.9564,N,08404.9849,W,0.0000,0.000,161117,,*38
2017-11-16 14:28:07 1510860487.506729: $GPGSA,A,3,8,10,15,18,21,20,24,27,32,14,138,,1.6,0.8,1.3*37
2017-11-16 14:28:08 1510860488.507288: $GPZDA,192807.00,16,11,2017,00,00*60
2017-11-16 14:28:08 1510860488.507463: $GPGGA,192807,3946.9564,N,08404.9849,W,2,11,0.80,302.66,M,-33.324,M,,*75
2017-11-16 14:28:08 1510860488.507524: $GPRMC,192807,A,3946.9564,N,08404.9849,W,0.0000,0.000,161117,,*39
2017-11-16 14:28:08 1510860488.507580: $GPGSA,A,3,8,10,15,18,21,20,24,27,32,14,138,,1.6,0.8,1.3*37
2017-11-16 14:28:09 1510860489.842753: $GPGSV,3,1,12,08,07,316,30,10,47,306,47,13,02,051,00,15,32,054,51*70
2017-11-16 14:28:09 1510860489.842944: $GPGSV,3,2,12,18,75,354,46,21,57,186,45,20,28,100,46,24,53,099,47*77
2017-11-16 14:28:09 1510860489.843006: $GPGSV,3,3,12,27,18,282,42,32,26,243,46,14,09,235,37,138,38,213,42*41
2017-11-16 14:28:09 1510860489.955998: $GPZDA,192808.00,16,11,2017,00,00*6F
2017-11-16 14:28:09 1510860489.956166: $GPGGA,192808,3946.9564,N,08404.9849,W,2,11,0.80,302.66,M,-33.324,M,,*7A
2017-11-16 14:28:09 1510860489.956228: $GPRMC,192808,A,3946.9564,N,08404.9849,W,0.0000,0.000,161117,,*36
2017-11-16 14:28:09 1510860489.956284: $GPGSA,A,3,8,10,15,18,21,20,24,27,32,14,138,,1.6,0.8,1.3*37
2017-11-16 14:28:10 1510860490.506836: $GPZDA,192809.00,16,11,2017,00,00*6E
2017-11-16 14:28:10 1510860490.506996: $GPGGA,192809,3946.9564,N,08404.9849,W,2,11,0.80,302.66,M,-33.324,M,,*7B
2017-11-16 14:28:10 1510860490.507058: $GPRMC,192809,A,3946.9564,N,08404.9849,W,0.0000,0.000,161117,,*37
2017-11-16 14:28:10 1510860490.507114: $GPGSA,A,3,8,10,15,18,21,20,24,27,32,14,138,,1.6,0.8,1.3*37
2017-11-16 14:28:11 1510860491.506464: $GPZDA,192810.00,16,11,2017,00,00*66
2017-11-16 14:28:11 1510860491.506697: $GPGGA,192810,3946.9564,N,08404.9849,W,2,11,0.80,302.66,M,-33.324,M,,*73
2017-11-16 14:28:11 1510860491.506758: $GPRMC,192810,A,3946.9564,N,08404.9849,W,0.0000,0.000,161117,,*3F
2017-11-16 14:28:11 1510860491.506814: $GPGSA,A,3,8,10,15,18,21,20,24,27,32,14,138,,1.6,0.8,1.3*37
2017-11-16 14:28:12 1510860492.844881: $GPGSV,3,1,12,08,07,316,30,10,47,306,47,13,02,051,00,15,32,054,51*70
2017-11-16 14:28:12 1510860492.845095: $GPGSV,3,2,12,18,75,354,46,21,57,186,45,20,28,100,46,24,53,099,47*77
2017-11-16 14:28:12 1510860492.845157: $GPGSV,3,3,12,27,18,282,42,32,26,243,46,14,09,235,37,138,38,213,43*40
2017-11-16 14:28:12 1510860492.958128: $GPZDA,192811.00,16,11,2017,00,00*67
2017-11-16 14:28:12 1510860492.958289: $GPGGA,192811,3946.9564,N,08404.9849,W,2,11,0.80,302.66,M,-33.324,M,,*72
2017-11-16 14:28:12 1510860492.958352: $GPRMC,192811,A,3946.9564,N,08404.9849,W,0.0000,0.000,161117,,*3E
2017-11-16 14:28:12 1510860492.958408: $GPGSA,A,3,8,10,15,18,21,20,24,27,32,14,138,,1.6,0.8,1.3*37
2017-11-16 14:28:13 1510860493.501565: $GPZDA,192812.00,16,11,2017,00,00*64
2017-11-16 14:28:13 1510860493.501753: $GPGGA,192812,3946.9569,N,08404.9849,W,2,11,0.80,303.30,M,-33.324,M,,*7E
2017-11-16 14:28:13 1510860493.501816: $GPRMC,192812,A,3946.9569,N,08404.9849,W,0.0000,0.000,161117,,*30
2017-11-16 14:28:13 1510860493.501878: $GPGSA,A,3,8,10,15,18,21,20,24,27,32,14,138,,1.6,0.8,1.3*37
2017-11-16 14:28:14 1510860494.531904: $GPZDA,192813.00,16,11,2017,00,00*65
2017-11-16 14:28:14 1510860494.532065: $GPGGA,192813,3946.9569,N,08404.9849,W,2,11,0.80,303.30,M,-33.324,M,,*7F
2017-11-16 14:28:14 1510860494.532127: $GPRMC,192813,A,3946.9569,N,08404.9849,W,0.0000,0.000,161117,,*31
2017-11-16 14:28:14 1510860494.532184: $GPGSA,A,3,8,10,15,18,21,20,24,27,32,14,138,,1.6,0.8,1.3*37
2017-11-16 14:28:15 1510860495.842873: $GPGSV,3,1,12,08,07,316,22,10,47,306,46,13,02,051,00,15,32,054,51*72
2017-11-16 14:28:15 1510860495.843031: $GPGSV,3,2,12,18,75,354,46,21,57,186,45,20,28,100,46,24,53,099,47*77
2017-11-16 14:28:15 1510860495.843092: $GPGSV,3,3,12,27,18,282,42,32,26,243,46,14,09,235,38,138,38,213,44*48
2017-11-16 14:28:15 1510860495.954805: $GPZDA,192814.00,16,11,2017,00,00*62
2017-11-16 14:28:15 1510860495.954960: $GPGGA,192814,3946.9569,N,08404.9849,W,2,11,0.80,303.30,M,-33.324,M,,*78
2017-11-16 14:28:15 1510860495.955021: $GPRMC,192814,A,3946.9569,N,08404.9849,W,0.0000,0.000,161117,,*36
2017-11-16 14:28:15 1510860495.955077: $GPGSA,A,3,8,10,15,18,21,20,24,27,32,14,138,,1.6,0.8,1.3*37
2017-11-16 14:28:16 1510860496.536953: $GPZDA,192815.00,16,11,2017,00,00*63
2017-11-16 14:28:16 1510860496.537108: $GPGGA,192815,3946.9569,N,08404.9849,W,2,11,0.80,303.30,M,-33.324,M,,*79
2017-11-16 14:28:16 1510860496.537170: $GPRMC,192815,A,3946.9569,N,08404.9849,W,0.0000,0.000,161117,,*37
2017-11-16 14:28:16 1510860496.537226: $GPGSA,A,3,8,10,15,18,21,20,24,27,32,14,138,,1.6,0.8,1.3*37
2017-11-16 14:28:17 1510860497.537961: $GPZDA,192816.00,16,11,2017,00,00*60
2017-11-16 14:28:17 1510860497.538125: $GPGGA,192816,3946.9569,N,08404.9849,W,2,11,0.80,303.30,M,-33.324,M,,*7A
2017-11-16 14:28:17 1510860497.538187: $GPRMC,192816,A,3946.9569,N,08404.9849,W,0.0000,0.000,161117,,*34
2017-11-16 14:28:17 1510860497.538242: $GPGSA,A,3,8,10,15,18,21,20,24,27,32,14,138,,1.6,0.8,1.3*37
2017-11-16 14:28:18 1510860498.869913: $GPGSV,3,1,12,08,07,316,24,10,47,306,46,13,02,051,00,15,32,054,51*74
2017-11-16 14:28:18 1510860498.870087: $GPGSV,3,2,12,18,75,354,45,21,57,186,45,20,28,100,46,24,53,099,47*74
2017-11-16 14:28:18 1510860498.870147: $GPGSV,3,3,12,27,18,282,42,32,26,243,46,14,09,235,38,138,38,213,43*4F
2017-11-16 14:28:18 1510860498.981934: $GPZDA,192817.00,16,11,2017,00,00*61
2017-11-16 14:28:18 1510860498.982075: $GPGGA,192817,3946.9569,N,08404.9849,W,2,11,0.80,303.30,M,-33.324,M,,*7B
2017-11-16 14:28:18 1510860498.982136: $GPRMC,192817,A,3946.9569,N,08404.9849,W,0.0000,0.000,161117,,*35
2017-11-16 14:28:18 1510860498.982193: $GPGSA,A,3,8,10,15,18,21,20,24,27,32,14,138,,1.6,0.8,1.3*37
2017-11-16 14:28:19 1510860499.608664: $GPZDA,192818.00,16,11,2017,00,00*6E
2017-11-16 14:28:19 1510860499.608833: $GPGGA,192818,3946.9569,N,08404.9849,W,2,11,0.80,303.30,M,-33.324,M,,*74
2017-11-16 14:28:19 1510860499.608897: $GPRMC,192818,A,3946.9569,N,08404.9849,W,0.0000,0.000,161117,,*3A
2017-11-16 14:28:19 1510860499.608954: $GPGSA,A,3,8,10,15,18,21,20,24,27,32,14,138,,1.6,0.8,1.3*37
2017-11-16 14:28:20 1510860500.500785: $GPZDA,192819.00,16,11,2017,00,00*6F
2017-11-16 14:28:20 1510860500.500970: $GPGGA,192819,3946.9569,N,08404.9849,W,2,11,0.80,303.30,M,-33.324,M,,*75
2017-11-16 14:28:20 1510860500.501034: $GPRMC,192819,A,3946.9569,N,08404.9849,W,0.0000,0.000,161117,,*3B
2017-11-16 14:28:20 1510860500.501091: $GPGSA,A,3,8,10,15,18,21,20,24,27,32,14,138,,1.6,0.8,1.3*37
2017-11-16 14:28:21 1510860501.842958: $GPGSV,3,1,12,08,07,316,31,10,47,306,45,13,02,051,00,15,32,054,51*73
2017-11-16 14:28:21 1510860501.843138: $GPGSV,3,2,12,18,75,354,45,21,57,186,45,20,28,100,47,24,53,099,46*74
2017-11-16 14:28:21 1510860501.843199: $GPGSV,3,3,12,27,18,282,41,32,26,243,46,14,09,235,38,138,38,213,44*4B
2017-11-16 14:28:21 1510860501.956585: $GPZDA,192820.00,16,11,2017,00,00*65
2017-11-16 14:28:21 1510860501.956749: $GPGGA,192820,3946.9569,N,08404.9849,W,2,11,0.80,303.30,M,-33.324,M,,*7F
2017-11-16 14:28:21 1510860501.956811: $GPRMC,192820,A,3946.9569,N,08404.9849,W,0.0000,0.000,161117,,*31
2017-11-16 14:28:21 1510860501.956955: $GPGSA,A,3,8,10,15,18,21,20,24,27,32,14,138,,1.6,0.8,1.3*37
2017-11-16 14:28:22 1510860502.508355: $GPZDA,192821.00,16,11,2017,00,00*64
2017-11-16 14:28:22 1510860502.508525: $GPGGA,192821,3946.9569,N,08404.9849,W,2,11,0.80,303.30,M,-33.324,M,,*7E
2017-11-16 14:28:22 1510860502.508586: $GPRMC,192821,A,3946.9569,N,08404.9849,W,0.0000,0.000,161117,,*30
2017-11-16 14:28:22 1510860502.508644: $GPGSA,A,3,8,10,15,18,21,20,24,27,32,14,138,,1.6,0.8,1.3*37
2017-11-16 14:28:23 1510860503.508312: $GPZDA,192822.00,16,11,2017,00,00*67
2017-11-16 14:28:23 1510860503.508477: $GPGGA,192822,3946.9569,N,08404.9849,W,2,11,0.80,303.30,M,-33.324,M,,*7D
2017-11-16 14:28:23 1510860503.508539: $GPRMC,192822,A,3946.9569,N,08404.9849,W,0.0000,0.000,161117,,*33
2017-11-16 14:28:23 1510860503.508596: $GPGSA,A,3,8,10,15,18,21,20,24,27,32,14,138,,1.6,0.8,1.3*37
2017-11-16 14:28:24 1510860504.870812: $GPGSV,3,1,12,08,07,316,34,10,47,306,45,13,02,051,00,15,32,054,51*76
2017-11-16 14:28:24 1510860504.870967: $GPGSV,3,2,12,18,75,354,46,21,57,186,45,20,28,100,47,24,53,099,46*77
2017-11-16 14:28:24 1510860504.871028: $GPGSV,3,3,12,27,18,282,41,32,26,243,46,14,09,235,38,138,38,213,44*4B
2017-11-16 14:28:24 1510860504.984136: $GPZDA,192823.00,16,11,2017,00,00*66
2017-11-16 14:28:24 1510860504.984295: $GPGGA,192823,3946.9569,N,08404.9849,W,2,11,0.80,303.30,M,-33.324,M,,*7C
2017-11-16 14:28:24 1510860504.984356: $GPRMC,192823,A,3946.9569,N,08404.9849,W,0.0000,0.000,161117,,*32
2017-11-16 14:28:24 1510860504.984412: $GPGSA,A,3,8,10,15,18,21,20,24,27,32,14,138,,1.6,0.8,1.3*37
2017-11-16 14:28:25 1510860505.507471: $GPZDA,192824.00,16,11,2017,00,00*61
2017-11-16 14:28:25 1510860505.507632: $GPGGA,192824,3946.9569,N,08404.9849,W,2,11,0.80,303.30,M,-33.324,M,,*7B
2017-11-16 14:28:25 1510860505.507695: $GPRMC,192824,A,3946.9569,N,08404.9849,W,0.0000,0.000,161117,,*35
2017-11-16 14:28:25 1510860505.507750: $GPGSA,A,3,8,10,15,18,21,20,24,27,32,14,138,,1.6,0.8,1.3*37
2017-11-16 14:28:26 1510860506.538749: $GPZDA,192825.00,16,11,2017,00,00*60
2017-11-16 14:28:26 1510860506.538910: $GPGGA,192825,3946.9569,N,08404.9849,W,2,11,0.80,303.30,M,-33.324,M,,*7A
2017-11-16 14:28:26 1510860506.538974: $GPRMC,192825,A,3946.9569,N,08404.9849,W,0.0000,0.000,161117,,*34
2017-11-16 14:28:26 1510860506.539033: $GPGSA,A,3,8,10,15,18,21,20,24,27,32,14,138,,1.6,0.8,1.3*37
