2017-11-16 15:36:25 1510864585.888136: {"class":"VERSION","release":"3.17","rev":"3.17","proto_major":3,"proto_minor":12}
2017-11-16 15:36:25 1510864585.888759: {"class":"DEVICES","devices":[{"class":"DEVICE","path":"/dev/ttyUSB0","driver":"SiRF","subtype":"9\u0006GSD4e_4.1.2-P1_RPATCH.05-F-GPS-4R-1510281 11/03/2015 307","activated":"2017-11-16T20:36:25.854Z","flags":1,"native":1,"bps":4800,"parity":"N","stopbits":1,"cycle":1.00}]}
2017-11-16 15:36:25 1510864585.888895: {"class":"WATCH","enable":true,"json":false,"nmea":true,"raw":0,"scaled":false,"timing":false,"split24":false,"pps":false}
2017-11-16 15:36:26 1510864586.442848: $GPZDA,203625.00,16,11,2017,00,00*65
2017-11-16 15:36:26 1510864586.443029: $GPGGA,203625,3946.9568,N,08404.9860,W,2,11,1.40,309.61,M,-33.324,M,,*76
2017-11-16 15:36:26 1510864586.443110: $GPRMC,203625,A,3946.9568,N,08404.9860,W,0.0000,0.000,161117,,*3B
2017-11-16 15:36:26 1510864586.443186: $GPGSA,A,3,8,10,14,18,20,21,24,25,32,12,138,,1.6,1.4,1.3*3F
2017-11-16 15:36:27 1510864587.374953: $GPZDA,203626.00,16,11,2017,00,00*66
2017-11-16 15:36:27 1510864587.375147: $GPGGA,203626,3946.9568,N,08404.9860,W,2,11,1.40,309.61,M,-33.324,M,,*75
2017-11-16 15:36:27 1510864587.375229: $GPRMC,203626,A,3946.9568,N,08404.9860,W,0.0000,0.000,161117,,*38
2017-11-16 15:36:27 1510864587.375287: $GPGSA,A,3,8,10,14,18,20,21,24,25,32,12,138,,1.6,1.4,1.3*3F
2017-11-16 15:36:28 1510864588.710589: $GPGSV,3,1,12,08,04,289,31,10,73,337,51,14,32,256,46,15,08,069,15*73
2017-11-16 15:36:28 1510864588.710762: $GPGSV,3,2,12,18,67,102,48,20,05,120,19,21,25,178,45,24,42,055,50*7E
2017-11-16 15:36:28 1510864588.710823: $GPGSV,3,3,12,25,06,139,22,32,49,270,47,12,12,103,38,138,38,213,45*43
2017-11-16 15:36:28 1510864588.823812: $GPZDA,203627.00,16,11,2017,00,00*67
2017-11-16 15:36:28 1510864588.823997: $GPGGA,203627,3946.9568,N,08404.9860,W,2,12,1.40,309.61,M,-33.324,M,,*77
2017-11-16 15:36:28 1510864588.824078: $GPRMC,203627,A,3946.9568,N,08404.9860,W,0.0000,0.000,161117,,*39
2017-11-16 15:36:28 1510864588.824136: $GPGSA,A,3,8,10,14,15,18,20,21,24,25,32,12,138,1.6,1.4,1.3*3B
2017-11-16 15:36:29 1510864589.366000: $GPZDA,203628.00,16,11,2017,00,00*68
2017-11-16 15:36:29 1510864589.366342: $GPGGA,203628,3946.9568,N,08404.9860,W,2,12,1.40,309.61,M,-33.324,M,,*78
2017-11-16 15:36:29 1510864589.366484: $GPRMC,203628,A,3946.9568,N,08404.9860,W,0.0000,0.000,161117,,*36
2017-11-16 15:36:29 1510864589.366582: $GPGSA,A,3,8,10,14,15,18,20,21,24,25,32,12,138,1.6,1.4,1.3*3B
2017-11-16 15:36:30 1510864590.366838: $GPZDA,203629.00,16,11,2017,00,00*69
2017-11-16 15:36:30 1510864590.367048: $GPGGA,203629,3946.9568,N,08404.9860,W,2,12,1.20,309.61,M,-33.324,M,,*7F
2017-11-16 15:36:30 1510864590.367112: $GPRMC,203629,A,3946.9568,N,08404.9860,W,0.0000,0.000,161117,,*37
2017-11-16 15:36:30 1510864590.367168: $GPGSA,A,3,8,10,14,15,18,20,21,24,25,32,12,138,1.6,1.2,1.3*3D
2017-11-16 15:36:31 1510864591.719590: $GPGSV,3,1,12,08,04,289,34,10,73,337,51,14,32,256,45,15,08,069,16*76
2017-11-16 15:36:31 1510864591.719743: $GPGSV,3,2,12,18,67,102,48,20,05,120,18,21,25,178,45,24,42,055,50*7F
2017-11-16 15:36:31 1510864591.719804: $GPGSV,3,3,12,25,06,139,04,32,49,270,47,12,12,103,39,138,38,213,44*47
2017-11-16 15:36:31 1510864591.832936: $GPZDA,203630.00,16,11,2017,00,00*61
2017-11-16 15:36:31 1510864591.833132: $GPGGA,203630,3946.9568,N,08404.9860,W,2,11,1.40,309.61,M,-33.324,M,,*72
2017-11-16 15:36:31 1510864591.833193: $GPRMC,203630,A,3946.9568,N,08404.9860,W,0.0000,0.000,161117,,*3F
2017-11-16 15:36:31 1510864591.833249: $GPGSA,A,3,8,10,14,15,18,20,21,24,32,12,138,,1.6,1.4,1.3*3C
2017-11-16 15:36:32 1510864592.367796: $GPZDA,203631.00,16,11,2017,00,00*60
2017-11-16 15:36:32 1510864592.367994: $GPGGA,203631,3946.9568,N,08404.9860,W,2,11,1.40,309.61,M,-33.324,M,,*73
2017-11-16 15:36:32 1510864592.368058: $GPRMC,203631,A,3946.9568,N,08404.9860,W,0.0000,0.000,161117,,*3E
2017-11-16 15:36:32 1510864592.368115: $GPGSA,A,3,8,10,14,15,18,20,21,24,32,12,138,,1.6,1.4,1.3*3C
2017-11-16 15:36:33 1510864593.383651: $GPZDA,203632.00,16,11,2017,00,00*63
2017-11-16 15:36:33 1510864593.383882: $GPGGA,203632,3946.9568,N,08404.9860,W,2,11,1.40,309.61,M,-33.324,M,,*70
2017-11-16 15:36:33 1510864593.383946: $GPRMC,203632,A,3946.9568,N,08404.9860,W,0.0000,0.000,161117,,*3D
2017-11-16 15:36:33 1510864593.384020: $GPGSA,A,3,8,10,14,15,18,20,21,24,32,12,138,,1.6,1.4,1.3*3C
2017-11-16 15:36:34 1510864594.694184: $GPGSV,3,1,12,08,04,289,34,10,73,337,51,14,32,256,45,15,08,069,08*79
2017-11-16 15:36:34 1510864594.694353: $GPGSV,3,2,12,18,67,102,49,20,05,120,18,21,25,178,45,24,42,055,50*7E
2017-11-16 15:36:34 1510864594.694413: $GPGSV,3,3,12,25,06,139,06,32,49,270,47,12,12,103,39,138,38,213,44*45
2017-11-16 15:36:34 1510864594.807488: $GPZDA,203633.00,16,11,2017,00,00*62
2017-11-16 15:36:34 1510864594.807637: $GPGGA,203633,3946.9568,N,08404.9860,W,2,12,1.40,309.61,M,-33.324,M,,*72
2017-11-16 15:36:34 1510864594.807698: $GPRMC,203633,A,3946.9568,N,08404.9860,W,0.0000,0.000,161117,,*3C
2017-11-16 15:36:34 1510864594.807754: $GPGSA,A,3,8,10,14,15,18,20,21,24,25,32,12,138,1.6,1.4,1.3*3B
2017-11-16 15:36:35 1510864595.364618: $GPZDA,203634.00,16,11,2017,00,00*65
2017-11-16 15:36:35 1510864595.364780: $GPGGA,203634,3946.9568,N,08404.9860,W,2,12,1.40,309.61,M,-33.324,M,,*75
2017-11-16 15:36:35 1510864595.364860: $GPRMC,203634,A,3946.9568,N,08404.9860,W,0.0000,0.000,161117,,*3B
2017-11-16 15:36:35 1510864595.364917: $GPGSA,A,3,8,10,14,15,18,20,21,24,25,32,12,138,1.6,1.4,1.3*3B
