2017-11-16 17:22:41 1510870961.171542: {"class":"VERSION","release":"3.17","rev":"3.17","proto_major":3,"proto_minor":12}
2017-11-16 17:22:41 1510870961.171985: {"class":"DEVICES","devices":[{"class":"DEVICE","path":"/dev/ttyUSB0","driver":"SiRF","subtype":"9\u0006GSD4e_4.1.2-P1_RPATCH.05-F-GPS-4R-1510281 11/03/2015 307","activated":"2017-11-16T22:22:40.716Z","flags":1,"native":1,"bps":4800,"parity":"N","stopbits":1,"cycle":1.00}]}
2017-11-16 17:22:41 1510870961.172113: {"class":"WATCH","enable":true,"json":false,"nmea":true,"raw":0,"scaled":false,"timing":false,"split24":false,"pps":false}
2017-11-16 17:22:41 1510870961.402178: $GPZDA,222240.00,16,11,2017,00,00*61
2017-11-16 17:22:41 1510870961.402344: $GPGGA,222240,3946.9574,N,08404.9830,W,2,12,0.80,308.39,M,-33.324,M,,*78
2017-11-16 17:22:41 1510870961.402405: $GPRMC,222240,A,3946.9574,N,08404.9830,W,0.0000,0.000,161117,,*37
2017-11-16 17:22:41 1510870961.402461: $GPGSA,A,3,1,10,22,12,14,18,24,11,25,31,32,138,1.6,0.8,1.3*38
2017-11-16 17:22:42 1510870962.739122: $GPGSV,3,1,12,01,20,304,37,10,53,145,49,22,15,312,40,12,23,054,50*74
2017-11-16 17:22:42 1510870962.739312: $GPGSV,3,2,12,14,64,318,47,18,22,142,40,24,01,048,04,11,09,286,40*71
2017-11-16 17:22:42 1510870962.739375: $GPGSV,3,3,12,25,38,096,48,31,51,222,49,32,69,013,48,138,38,213,44*4D
2017-11-16 17:22:42 1510870962.852763: $GPZDA,222241.00,16,11,2017,00,00*60
2017-11-16 17:22:42 1510870962.852926: $GPGGA,222241,3946.9574,N,08404.9830,W,2,11,0.80,308.39,M,-33.324,M,,*7A
2017-11-16 17:22:42 1510870962.852987: $GPRMC,222241,A,3946.9574,N,08404.9830,W,0.0000,0.000,161117,,*36
2017-11-16 17:22:42 1510870962.853043: $GPGSA,A,3,1,10,22,12,14,18,11,25,31,32,138,,1.6,0.8,1.3*3E
2017-11-16 17:22:43 1510870963.422004: $GPZDA,222242.00,16,11,2017,00,00*63
2017-11-16 17:22:43 1510870963.422188: $GPGGA,222242,3946.9574,N,08404.9830,W,2,11,0.80,308.39,M,-33.324,M,,*79
2017-11-16 17:22:43 1510870963.422252: $GPRMC,222242,A,3946.9574,N,08404.9830,W,0.0000,0.000,161117,,*35
2017-11-16 17:22:43 1510870963.422309: $GPGSA,A,3,1,10,22,12,14,18,11,25,31,32,138,,1.6,0.8,1.3*3E
2017-11-16 17:22:44 1510870964.417043: $GPZDA,222243.00,16,11,2017,00,00*62
2017-11-16 17:22:44 1510870964.417205: $GPGGA,222243,3946.9574,N,08404.9830,W,2,11,0.80,308.39,M,-33.324,M,,*78
2017-11-16 17:22:44 1510870964.417265: $GPRMC,222243,A,3946.9574,N,08404.9830,W,0.0000,0.000,161117,,*34
2017-11-16 17:22:44 1510870964.417321: $GPGSA,A,3,1,10,22,12,14,18,11,25,31,32,138,,1.6,0.8,1.3*3E
2017-11-16 17:22:45 1510870965.737488: $GPGSV,3,1,12,01,20,304,36,10,53,145,49,22,15,312,40,12,23,054,50*75
2017-11-16 17:22:45 1510870965.737682: $GPGSV,3,2,12,14,64,318,47,18,22,142,39,24,01,048,04,11,09,286,41*7E
2017-11-16 17:22:45 1510870965.737746: $GPGSV,3,3,12,25,38,096,49,31,51,222,49,32,69,013,48,138,38,213,44*4C
2017-11-16 17:22:45 1510870965.850975: $GPZDA,222244.00,16,11,2017,00,00*65
2017-11-16 17:22:45 1510870965.851123: $GPGGA,222244,3946.9574,N,08404.9830,W,2,11,0.80,308.39,M,-33.324,M,,*7F
2017-11-16 17:22:45 1510870965.851183: $GPRMC,222244,A,3946.9574,N,08404.9830,W,0.0000,0.000,161117,,*33
2017-11-16 17:22:45 1510870965.851240: $GPGSA,A,3,1,10,22,12,14,18,11,25,31,32,138,,1.6,0.8,1.3*3E
2017-11-16 17:22:46 1510870966.477618: $GPZDA,222245.00,16,11,2017,00,00*64
2017-11-16 17:22:46 1510870966.477782: $GPGGA,222245,3946.9574,N,08404.9830,W,2,11,0.80,308.39,M,-33.324,M,,*7E
2017-11-16 17:22:46 1510870966.477844: $GPRMC,222245,A,3946.9574,N,08404.9830,W,0.0000,0.000,161117,,*32
2017-11-16 17:22:46 1510870966.477903: $GPGSA,A,3,1,10,22,12,14,18,11,25,31,32,138,,1.6,0.8,1.3*3E
2017-11-16 17:22:47 1510870967.422654: $GPZDA,222246.00,16,11,2017,00,00*67
2017-11-16 17:22:47 1510870967.422839: $GPGGA,222246,3946.9574,N,08404.9830,W,2,11,0.80,308.39,M,-33.324,M,,*7D
2017-11-16 17:22:47 1510870967.422904: $GPRMC,222246,A,3946.9574,N,08404.9830,W,0.0000,0.000,161117,,*31
2017-11-16 17:22:47 1510870967.422963: $GPGSA,A,3,1,10,22,12,14,18,11,25,31,32,138,,1.6,0.8,1.3*3E
2017-11-16 17:22:48 1510870968.759006: $GPGSV,3,1,12,01,20,304,36,10,53,145,49,22,15,312,40,12,23,054,50*75
2017-11-16 17:22:48 1510870968.759224: $GPGSV,3,2,12,14,64,318,47,18,22,142,39,24,01,048,04,11,09,286,41*7E
2017-11-16 17:22:48 1510870968.759286: $GPGSV,3,3,12,25,38,096,48,31,51,222,49,32,69,013,48,138,38,213,44*4D
2017-11-16 17:22:48 1510870968.872607: $GPZDA,222247.00,16,11,2017,00,00*66
2017-11-16 17:22:48 1510870968.872768: $GPGGA,222247,3946.9574,N,08404.9830,W,2,11,0.80,308.39,M,-33.324,M,,*7C
2017-11-16 17:22:48 1510870968.872829: $GPRMC,222247,A,3946.9574,N,08404.9830,W,0.0000,0.000,161117,,*30
2017-11-16 17:22:48 1510870968.872884: $GPGSA,A,3,1,10,22,12,14,18,11,25,31,32,138,,1.6,0.8,1.3*3E
2017-11-16 17:22:49 1510870969.421940: $GPZDA,222248.00,16,11,2017,00,00*69
2017-11-16 17:22:49 1510870969.422107: $GPGGA,222248,3946.9574,N,08404.9830,W,2,11,0.80,308.39,M,-33.324,M,,*73
2017-11-16 17:22:49 1510870969.422167: $GPRMC,222248,A,3946.9574,N,08404.9830,W,0.0000,0.000,161117,,*3F
2017-11-16 17:22:49 1510870969.422223: $GPGSA,A,3,1,10,22,12,14,18,11,25,31,32,138,,1.6,0.8,1.3*3E
2017-11-16 17:22:50 1510870970.402802: $GPZDA,222249.00,16,11,2017,00,00*68
2017-11-16 17:22:50 1510870970.402973: $GPGGA,222249,3946.9574,N,08404.9830,W,2,11,0.80,308.39,M,-33.324,M,,*72
2017-11-16 17:22:50 1510870970.403033: $GPRMC,222249,A,3946.9574,N,08404.9830,W,0.0000,0.000,161117,,*3E
2017-11-16 17:22:50 1510870970.403089: $GPGSA,A,3,1,10,22,12,14,18,11,25,31,32,138,,1.6,0.8,1.3*3E
