2017-12-29 11:04:47 1514563487.085801: {"class":"VERSION","release":"3.16","rev":"3.16-4","proto_major":3,"proto_minor":11}
2017-12-29 11:04:47 1514563487.086145: {"class":"DEVICES","devices":[{"class":"DEVICE","path":"/dev/ttyUSB0","driver":"SiRF","subtype":"9\u0006GSD4e_4.1.2-P1_RPATCH.05-F-GPS-4R-1510281 11/03/2015 307","activated":"2017-12-29T16:04:46.572Z","flags":1,"native":1,"bps":4800,"parity":"N","stopbits":1,"cycle":1.00}]}
2017-12-29 11:04:47 1514563487.086265: {"class":"WATCH","enable":true,"json":false,"nmea":true,"raw":0,"scaled":false,"timing":false,"split24":false,"pps":false}
2017-12-29 11:04:47 1514563487.430533: $GPZDA,160448.00,29,12,2017,00,00*65
2017-12-29 11:04:47 1514563487.430705: $GPGGA,160448,3946.9599,N,08404.9852,W,2,11,1.20,301.32,M,-33.324,M,,*7E
2017-12-29 11:04:47 1514563487.430772: $GPRMC,160448,A,3946.9599,N,08404.9852,W,0.0000,0.000,291217,,*34
2017-12-29 11:04:47 1514563487.430833: $GPGSA,A,3,10,15,18,20,21,24,27,32,8,13,138,,1.7,1.2,1.3*3A
2017-12-29 11:04:48 1514563488.766954: $GPGSV,3,1,11,10,37,297,42,15,42,051,49,18,68,327,43,20,39,090,48*74
2017-12-29 11:04:48 1514563488.767103: $GPGSV,3,2,11,21,69,195,46,24,48,118,46,27,19,295,31,32,17,235,27*7C
2017-12-29 11:04:48 1514563488.767168: $GPGSV,3,3,11,08,04,327,19,13,12,046,31,138,38,213,44*7B
2017-12-29 11:04:48 1514563488.881837: $GPZDA,160449.00,29,12,2017,00,00*64
2017-12-29 11:04:48 1514563488.881979: $GPGGA,160449,3946.9599,N,08404.9852,W,2,11,1.20,301.32,M,-33.324,M,,*7F
2017-12-29 11:04:48 1514563488.882046: $GPRMC,160449,A,3946.9599,N,08404.9852,W,0.0000,0.000,291217,,*35
2017-12-29 11:04:48 1514563488.882113: $GPGSA,A,3,10,15,18,20,21,24,27,32,8,13,138,,1.7,1.2,1.3*3A
2017-12-29 11:04:49 1514563489.431315: $GPZDA,160450.00,29,12,2017,00,00*6C
2017-12-29 11:04:49 1514563489.431482: $GPGGA,160450,3946.9599,N,08404.9852,W,2,11,1.20,301.32,M,-33.324,M,,*77
2017-12-29 11:04:49 1514563489.431547: $GPRMC,160450,A,3946.9599,N,08404.9852,W,0.0000,0.000,291217,,*3D
2017-12-29 11:04:49 1514563489.431607: $GPGSA,A,3,10,15,18,20,21,24,27,32,8,13,138,,1.7,1.2,1.3*3A
2017-12-29 11:04:50 1514563490.430889: $GPZDA,160451.00,29,12,2017,00,00*6D
2017-12-29 11:04:50 1514563490.431105: $GPGGA,160451,3946.9595,N,08404.9853,W,2,11,1.20,302.09,M,-33.324,M,,*70
2017-12-29 11:04:50 1514563490.431179: $GPRMC,160451,A,3946.9595,N,08404.9853,W,0.0000,0.000,291217,,*31
2017-12-29 11:04:50 1514563490.431240: $GPGSA,A,3,10,15,18,20,21,24,27,32,8,13,138,,1.7,1.2,1.3*3A
2017-12-29 11:04:51 1514563491.777834: $GPGSV,3,1,11,10,37,297,42,15,42,051,49,18,68,327,43,20,39,090,48*74
2017-12-29 11:04:51 1514563491.778003: $GPGSV,3,2,11,21,69,195,46,24,48,118,46,27,19,295,32,32,17,235,28*70
2017-12-29 11:04:51 1514563491.778070: $GPGSV,3,3,11,08,04,327,18,13,12,046,31,138,38,213,45*7B
2017-12-29 11:04:51 1514563491.891277: $GPZDA,160452.00,29,12,2017,00,00*6E
2017-12-29 11:04:51 1514563491.891407: $GPGGA,160452,3946.9595,N,08404.9853,W,2,11,1.20,302.09,M,-33.324,M,,*73
2017-12-29 11:04:51 1514563491.891471: $GPRMC,160452,A,3946.9595,N,08404.9853,W,0.0000,0.000,291217,,*32
2017-12-29 11:04:51 1514563491.891531: $GPGSA,A,3,10,15,18,20,21,24,27,32,8,13,138,,1.7,1.2,1.3*3A
2017-12-29 11:04:52 1514563492.445887: $GPZDA,160453.00,29,12,2017,00,00*6F
2017-12-29 11:04:52 1514563492.446042: $GPGGA,160453,3946.9591,N,08404.9847,W,2,11,1.20,302.93,M,-33.324,M,,*70
2017-12-29 11:04:52 1514563492.446108: $GPRMC,160453,A,3946.9591,N,08404.9847,W,0.4207,219.346,291217,,*38
2017-12-29 11:04:52 1514563492.446168: $GPGSA,A,3,10,15,18,20,21,24,27,32,8,13,138,,1.7,1.2,1.3*3A
2017-12-29 11:04:53 1514563493.447525: $GPZDA,160454.00,29,12,2017,00,00*68
2017-12-29 11:04:53 1514563493.447686: $GPGGA,160454,3946.9580,N,08404.9848,W,2,11,1.20,302.41,M,-33.324,M,,*77
2017-12-29 11:04:53 1514563493.447751: $GPRMC,160454,A,3946.9580,N,08404.9848,W,0.3423,184.196,291217,,*3F
2017-12-29 11:04:53 1514563493.447812: $GPGSA,A,3,10,15,18,20,21,24,27,32,8,13,138,,1.7,1.2,1.3*3A
2017-12-29 11:04:54 1514563494.783181: $GPGSV,3,1,11,10,37,297,42,15,42,051,49,18,68,327,43,20,39,090,48*74
2017-12-29 11:04:54 1514563494.783398: $GPGSV,3,2,11,21,69,195,46,24,48,118,46,27,19,295,34,32,17,235,25*7B
2017-12-29 11:04:54 1514563494.783467: $GPGSV,3,3,11,08,04,327,10,13,12,046,31,138,38,213,46*70
2017-12-29 11:04:54 1514563494.896580: $GPZDA,160455.00,29,12,2017,00,00*69
2017-12-29 11:04:54 1514563494.896702: $GPGGA,160455,3946.9580,N,08404.9848,W,2,11,1.20,302.41,M,-33.324,M,,*76
2017-12-29 11:04:54 1514563494.896766: $GPRMC,160455,A,3946.9580,N,08404.9848,W,0.0000,0.000,291217,,*3B
2017-12-29 11:04:54 1514563494.896825: $GPGSA,A,3,10,15,18,20,21,24,27,32,8,13,138,,1.7,1.2,1.3*3A
2017-12-29 11:04:55 1514563495.447403: $GPZDA,160456.00,29,12,2017,00,00*6A
2017-12-29 11:04:55 1514563495.447576: $GPGGA,160456,3946.9580,N,08404.9848,W,2,11,1.20,302.41,M,-33.324,M,,*75
2017-12-29 11:04:55 1514563495.447645: $GPRMC,160456,A,3946.9580,N,08404.9848,W,0.0000,0.000,291217,,*38
2017-12-29 11:04:55 1514563495.447706: $GPGSA,A,3,10,15,18,20,21,24,27,32,8,13,138,,1.7,1.2,1.3*3A
2017-12-29 11:04:56 1514563496.445761: $GPZDA,160457.00,29,12,2017,00,00*6B
2017-12-29 11:04:56 1514563496.445938: $GPGGA,160457,3946.9580,N,08404.9848,W,2,11,1.20,302.41,M,-33.324,M,,*74
2017-12-29 11:04:56 1514563496.446005: $GPRMC,160457,A,3946.9580,N,08404.9848,W,0.0000,0.000,291217,,*39
2017-12-29 11:04:56 1514563496.446066: $GPGSA,A,3,10,15,18,20,21,24,27,32,8,13,138,,1.7,1.2,1.3*3A
2017-12-29 11:04:57 1514563497.766518: $GPGSV,3,1,11,10,37,297,42,15,42,051,49,18,68,327,44,20,39,090,48*73
2017-12-29 11:04:57 1514563497.766676: $GPGSV,3,2,11,21,69,195,46,24,48,118,47,27,19,295,34,32,17,235,24*7B
2017-12-29 11:04:57 1514563497.766739: $GPGSV,3,3,11,08,04,327,13,13,12,046,31,138,38,213,45*70
2017-12-29 11:04:57 1514563497.879855: $GPZDA,160458.00,29,12,2017,00,00*64
2017-12-29 11:04:57 1514563497.879984: $GPGGA,160458,3946.9580,N,08404.9848,W,2,11,1.20,302.41,M,-33.324,M,,*7B
2017-12-29 11:04:57 1514563497.880049: $GPRMC,160458,A,3946.9580,N,08404.9848,W,0.0000,0.000,291217,,*36
2017-12-29 11:04:57 1514563497.880109: $GPGSA,A,3,10,15,18,20,21,24,27,32,8,13,138,,1.7,1.2,1.3*3A
2017-12-29 11:04:58 1514563498.505521: $GPZDA,160459.00,29,12,2017,00,00*65
2017-12-29 11:04:58 1514563498.507462: $GPGGA,160459,3946.9580,N,08404.9848,W,2,11,1.20,302.41,M,-33.324,M,,*7A
2017-12-29 11:04:58 1514563498.507556: $GPRMC,160459,A,3946.9580,N,08404.9848,W,0.0000,0.000,291217,,*37
2017-12-29 11:04:58 1514563498.507619: $GPGSA,A,3,10,15,18,20,21,24,27,32,8,13,138,,1.7,1.2,1.3*3A
2017-12-29 11:04:59 1514563499.442669: $GPZDA,160500.00,29,12,2017,00,00*68
2017-12-29 11:04:59 1514563499.442842: $GPGGA,160500,3946.9580,N,08404.9848,W,2,11,1.20,302.41,M,-33.324,M,,*77
2017-12-29 11:04:59 1514563499.442908: $GPRMC,160500,A,3946.9580,N,08404.9848,W,0.0000,0.000,291217,,*3A
2017-12-29 11:04:59 1514563499.442968: $GPGSA,A,3,10,15,18,20,21,24,27,32,8,13,138,,1.7,1.2,1.3*3A
2017-12-29 11:05:00 1514563500.766890: $GPGSV,3,1,11,10,37,297,43,15,42,051,49,18,68,327,44,20,39,090,48*72
2017-12-29 11:05:00 1514563500.767046: $GPGSV,3,2,11,21,69,195,46,24,48,118,47,27,19,295,34,32,17,235,26*79
2017-12-29 11:05:00 1514563500.767110: $GPGSV,3,3,11,08,04,327,16,13,12,046,31,138,38,213,45*75
2017-12-29 11:05:00 1514563500.880479: $GPZDA,160501.00,29,12,2017,00,00*69
2017-12-29 11:05:00 1514563500.880602: $GPGGA,160501,3946.9580,N,08404.9848,W,2,11,1.20,302.41,M,-33.324,M,,*76
2017-12-29 11:05:00 1514563500.880666: $GPRMC,160501,A,3946.9580,N,08404.9848,W,0.0000,0.000,291217,,*3B
2017-12-29 11:05:00 1514563500.880725: $GPGSA,A,3,10,15,18,20,21,24,27,32,8,13,138,,1.7,1.2,1.3*3A
2017-12-29 11:05:01 1514563501.448880: $GPZDA,160502.00,29,12,2017,00,00*6A
2017-12-29 11:05:01 1514563501.449047: $GPGGA,160502,3946.9580,N,08404.9848,W,2,11,1.20,302.41,M,-33.324,M,,*75
2017-12-29 11:05:01 1514563501.449114: $GPRMC,160502,A,3946.9580,N,08404.9848,W,0.0000,0.000,291217,,*38
2017-12-29 11:05:01 1514563501.449175: $GPGSA,A,3,10,15,18,20,21,24,27,32,8,13,138,,1.7,1.2,1.3*3A
2017-12-29 11:05:02 1514563502.431003: $GPZDA,160503.00,29,12,2017,00,00*6B
2017-12-29 11:05:02 1514563502.431260: $GPGGA,160503,3946.9580,N,08404.9848,W,2,11,1.20,302.41,M,-33.324,M,,*74
2017-12-29 11:05:02 1514563502.431327: $GPRMC,160503,A,3946.9580,N,08404.9848,W,0.0000,0.000,291217,,*39
2017-12-29 11:05:02 1514563502.431388: $GPGSA,A,3,10,15,18,20,21,24,27,32,8,13,138,,1.7,1.2,1.3*3A
2017-12-29 11:05:03 1514563503.778496: $GPGSV,3,1,11,10,37,297,43,15,42,051,49,18,68,327,43,20,39,090,48*75
2017-12-29 11:05:04 1514563504.458614: $GPGSV,3,2,11,21,69,195,46,24,48,118,47,27,19,295,34,32,17,235,30*7E
2017-12-29 11:05:04 1514563504.458749: $GPGSV,3,3,11,08,04,327,24,13,12,046,31,138,38,213,44*75
2017-12-29 11:05:04 1514563504.458841: $GPZDA,160504.00,29,12,2017,00,00*6C
2017-12-29 11:05:04 1514563504.458899: $GPGGA,160504,3946.9580,N,08404.9848,W,2,11,1.20,302.41,M,-33.324,M,,*73
2017-12-29 11:05:04 1514563504.458960: $GPRMC,160504,A,3946.9580,N,08404.9848,W,0.0000,0.000,291217,,*3E
2017-12-29 11:05:04 1514563504.459019: $GPGSA,A,3,10,15,18,20,21,24,27,32,8,13,138,,1.7,1.2,1.3*3A
2017-12-29 11:05:04 1514563504.459077: $GPZDA,160505.00,29,12,2017,00,00*6D
2017-12-29 11:05:04 1514563504.459131: $GPGGA,160505,3946.9580,N,08404.9848,W,2,11,1.20,302.41,M,-33.324,M,,*72
2017-12-29 11:05:04 1514563504.459190: $GPRMC,160505,A,3946.9580,N,08404.9848,W,0.0000,0.000,291217,,*3F
2017-12-29 11:05:04 1514563504.459249: $GPGSA,A,3,10,15,18,20,21,24,27,32,8,13,138,,1.7,1.2,1.3*3A
2017-12-29 11:05:05 1514563505.426364: $GPZDA,160506.00,29,12,2017,00,00*6E
2017-12-29 11:05:05 1514563505.426532: $GPGGA,160506,3946.9580,N,08404.9848,W,2,11,1.20,302.41,M,-33.324,M,,*71
2017-12-29 11:05:05 1514563505.426597: $GPRMC,160506,A,3946.9580,N,08404.9848,W,0.0000,0.000,291217,,*3C
2017-12-29 11:05:05 1514563505.426658: $GPGSA,A,3,10,15,18,20,21,24,27,32,8,13,138,,1.7,1.2,1.3*3A
2017-12-29 11:05:06 1514563506.784373: $GPGSV,3,1,11,10,37,297,43,15,42,051,49,18,68,327,43,20,39,090,48*75
2017-12-29 11:05:06 1514563506.784547: $GPGSV,3,2,11,21,69,195,46,24,48,118,46,27,19,295,26,32,17,235,30*7C
2017-12-29 11:05:06 1514563506.784614: $GPGSV,3,3,11,08,04,327,25,13,12,046,30,138,38,213,44*75
2017-12-29 11:05:06 1514563506.897949: $GPZDA,160507.00,29,12,2017,00,00*6F
2017-12-29 11:05:06 1514563506.898065: $GPGGA,160507,3946.9580,N,08404.9848,W,2,11,1.20,302.41,M,-33.324,M,,*70
2017-12-29 11:05:06 1514563506.898128: $GPRMC,160507,A,3946.9580,N,08404.9848,W,0.0000,0.000,291217,,*3D
2017-12-29 11:05:06 1514563506.898187: $GPGSA,A,3,10,15,18,20,21,24,27,32,8,13,138,,1.7,1.2,1.3*3A
