2017-12-01 16:48:42 1512164922.993400: {"class":"VERSION","release":"3.16","rev":"3.16-4","proto_major":3,"proto_minor":11}
2017-12-01 16:48:42 1512164922.993796: {"class":"DEVICES","devices":[{"class":"DEVICE","path":"/dev/ttyUSB0","driver":"SiRF","subtype":"9\u0006GSD4e_4.1.2-P1_RPATCH.05-F-GPS-4R-1510281 11/03/2015 307","activated":"2017-12-01T21:48:42.591Z","flags":1,"native":1,"bps":4800,"parity":"N","stopbits":1,"cycle":1.00}]}
2017-12-01 16:48:42 1512164922.993914: {"class":"WATCH","enable":true,"json":false,"nmea":true,"raw":0,"scaled":false,"timing":false,"split24":false,"pps":false}
2017-12-01 16:48:43 1512164923.450065: $GPZDA,214844.00,01,12,2017,00,00*6F
2017-12-01 16:48:43 1512164923.450254: $GPGGA,214844,3946.9663,N,08404.9762,W,2,11,1.00,301.15,M,-33.324,M,,*73
2017-12-01 16:48:43 1512164923.450343: $GPRMC,214844,A,3946.9663,N,08404.9762,W,0.0000,0.000,011217,,*34
2017-12-01 16:48:43 1512164923.450407: $GPGSA,A,3,1,10,14,22,31,32,3,18,25,26,138,,2.0,1.0,1.5*00
2017-12-01 16:48:44 1512164924.782819: $GPGSV,3,1,12,01,22,292,42,10,39,151,41,14,69,348,45,22,26,310,47*7C
2017-12-01 16:48:44 1512164924.783015: $GPGSV,3,2,12,31,64,234,49,32,65,048,49,03,06,316,31,12,18,043,23*7F
2017-12-01 16:48:44 1512164924.783086: $GPGSV,3,3,12,18,10,147,20,25,41,079,21,26,09,181,26,138,38,213,35*4B
2017-12-01 16:48:44 1512164924.896291: $GPZDA,214845.00,01,12,2017,00,00*6E
2017-12-01 16:48:44 1512164924.896454: $GPGGA,214845,3946.9663,N,08404.9762,W,2,12,0.80,301.15,M,-33.324,M,,*78
2017-12-01 16:48:44 1512164924.896520: $GPRMC,214845,A,3946.9663,N,08404.9762,W,0.0000,0.000,011217,,*35
2017-12-01 16:48:44 1512164924.896584: $GPGSA,A,3,1,10,14,22,31,32,3,12,18,25,26,138,2.0,0.8,1.5*0A
2017-12-01 16:48:45 1512164925.448414: $GPZDA,214846.00,01,12,2017,00,00*6D
2017-12-01 16:48:45 1512164925.448592: $GPGGA,214846,3946.9663,N,08404.9762,W,2,12,0.80,301.15,M,-33.324,M,,*7B
2017-12-01 16:48:45 1512164925.448662: $GPRMC,214846,A,3946.9663,N,08404.9762,W,0.0000,0.000,011217,,*36
2017-12-01 16:48:45 1512164925.448727: $GPGSA,A,3,1,10,14,22,31,32,3,12,18,25,26,138,2.0,0.8,1.5*0A
2017-12-01 16:48:46 1512164926.448014: $GPZDA,214847.00,01,12,2017,00,00*6C
2017-12-01 16:48:46 1512164926.448210: $GPGGA,214847,3946.9663,N,08404.9762,W,2,12,0.80,301.15,M,-33.324,M,,*7A
2017-12-01 16:48:46 1512164926.448281: $GPRMC,214847,A,3946.9663,N,08404.9762,W,0.0000,0.000,011217,,*37
2017-12-01 16:48:46 1512164926.448346: $GPGSA,A,3,1,10,14,22,31,32,3,12,18,25,26,138,2.0,0.8,1.5*0A
2017-12-01 16:48:47 1512164927.799916: $GPGSV,3,1,12,01,22,292,42,10,39,151,40,14,69,348,45,22,26,310,47*7D
2017-12-01 16:48:47 1512164927.800143: $GPGSV,3,2,12,31,64,234,49,32,65,048,49,03,06,316,31,12,18,043,24*78
2017-12-01 16:48:47 1512164927.800232: $GPGSV,3,3,12,18,10,147,06,25,41,079,22,26,09,181,22,138,38,213,38*45
2017-12-01 16:48:47 1512164927.913310: $GPZDA,214848.00,01,12,2017,00,00*63
2017-12-01 16:48:47 1512164927.913467: $GPGGA,214848,3946.9663,N,08404.9762,W,2,12,0.80,301.15,M,-33.324,M,,*75
2017-12-01 16:48:47 1512164927.913537: $GPRMC,214848,A,3946.9663,N,08404.9762,W,0.0000,0.000,011217,,*38
2017-12-01 16:48:47 1512164927.913600: $GPGSA,A,3,1,10,14,22,31,32,3,12,18,25,26,138,2.0,0.8,1.5*0A
2017-12-01 16:48:48 1512164928.449194: $GPZDA,214849.00,01,12,2017,00,00*62
2017-12-01 16:48:48 1512164928.449421: $GPGGA,214849,3946.9663,N,08404.9762,W,2,12,0.80,301.15,M,-33.324,M,,*74
2017-12-01 16:48:48 1512164928.449520: $GPRMC,214849,A,3946.9663,N,08404.9762,W,0.0000,0.000,011217,,*39
2017-12-01 16:48:48 1512164928.449587: $GPGSA,A,3,1,10,14,22,31,32,3,12,18,25,26,138,2.0,0.8,1.5*0A
2017-12-01 16:48:49 1512164929.462137: $GPZDA,214850.00,01,12,2017,00,00*6A
2017-12-01 16:48:49 1512164929.462315: $GPGGA,214850,3946.9663,N,08404.9762,W,2,12,0.80,301.15,M,-33.324,M,,*7C
2017-12-01 16:48:49 1512164929.462383: $GPRMC,214850,A,3946.9663,N,08404.9762,W,0.0000,0.000,011217,,*31
2017-12-01 16:48:49 1512164929.462447: $GPGSA,A,3,1,10,14,22,31,32,3,12,18,25,26,138,2.0,0.8,1.5*0A
2017-12-01 16:48:50 1512164930.799025: $GPGSV,3,1,12,01,22,292,43,10,39,151,40,14,69,348,45,22,26,310,47*7C
2017-12-01 16:48:50 1512164930.799275: $GPGSV,3,2,12,31,64,234,49,32,65,048,49,03,06,316,31,12,18,043,24*78
2017-12-01 16:48:50 1512164930.799345: $GPGSV,3,3,12,18,10,147,13,25,41,079,22,26,09,181,22,138,38,213,39*40
2017-12-01 16:48:50 1512164930.912521: $GPZDA,214851.00,01,12,2017,00,00*6B
2017-12-01 16:48:50 1512164930.912711: $GPGGA,214851,3946.9663,N,08404.9762,W,2,12,0.80,301.15,M,-33.324,M,,*7D
2017-12-01 16:48:50 1512164930.912779: $GPRMC,214851,A,3946.9663,N,08404.9762,W,0.0000,0.000,011217,,*30
2017-12-01 16:48:50 1512164930.912841: $GPGSA,A,3,1,10,14,22,31,32,3,12,18,25,26,138,2.0,0.8,1.5*0A
2017-12-01 16:48:51 1512164931.463323: $GPZDA,214852.00,01,12,2017,00,00*68
2017-12-01 16:48:51 1512164931.463511: $GPGGA,214852,3946.9663,N,08404.9762,W,2,12,0.80,301.15,M,-33.324,M,,*7E
2017-12-01 16:48:51 1512164931.463579: $GPRMC,214852,A,3946.9663,N,08404.9762,W,0.0000,0.000,011217,,*33
2017-12-01 16:48:51 1512164931.463641: $GPGSA,A,3,1,10,14,22,31,32,3,12,18,25,26,138,2.0,0.8,1.5*0A
2017-12-01 16:48:52 1512164932.465592: $GPZDA,214853.00,01,12,2017,00,00*69
2017-12-01 16:48:52 1512164932.465801: $GPGGA,214853,3946.9663,N,08404.9762,W,2,12,0.80,301.15,M,-33.324,M,,*7F
2017-12-01 16:48:52 1512164932.465873: $GPRMC,214853,A,3946.9663,N,08404.9762,W,0.0000,0.000,011217,,*32
2017-12-01 16:48:52 1512164932.465952: $GPGSA,A,3,1,10,14,22,31,32,3,12,18,25,26,138,2.0,0.8,1.5*0A
2017-12-01 16:48:53 1512164933.784877: $GPGSV,3,1,12,01,22,292,42,10,39,151,39,14,69,348,45,22,26,310,47*73
2017-12-01 16:48:53 1512164933.785075: $GPGSV,3,2,12,31,64,234,49,32,65,048,49,03,06,316,31,12,18,043,24*78
2017-12-01 16:48:53 1512164933.785142: $GPGSV,3,3,12,18,10,147,13,25,41,079,23,26,09,181,21,138,38,213,39*42
2017-12-01 16:48:53 1512164933.898198: $GPZDA,214854.00,01,12,2017,00,00*6E
2017-12-01 16:48:53 1512164933.898341: $GPGGA,214854,3946.9663,N,08404.9762,W,2,12,0.80,301.15,M,-33.324,M,,*78
2017-12-01 16:48:53 1512164933.898407: $GPRMC,214854,A,3946.9663,N,08404.9762,W,0.0000,0.000,011217,,*35
2017-12-01 16:48:53 1512164933.898467: $GPGSA,A,3,1,10,14,22,31,32,3,12,18,25,26,138,2.0,0.8,1.5*0A
2017-12-01 16:48:54 1512164934.523828: $GPZDA,214855.00,01,12,2017,00,00*6F
2017-12-01 16:48:54 1512164934.524167: $GPGGA,214855,3946.9663,N,08404.9762,W,2,12,0.80,301.15,M,-33.324,M,,*79
2017-12-01 16:48:54 1512164934.524345: $GPRMC,214855,A,3946.9663,N,08404.9762,W,0.0000,0.000,011217,,*34
2017-12-01 16:48:54 1512164934.524467: $GPGSA,A,3,1,10,14,22,31,32,3,12,18,25,26,138,2.0,0.8,1.5*0A
2017-12-01 16:48:55 1512164935.447480: $GPZDA,214856.00,01,12,2017,00,00*6C
2017-12-01 16:48:55 1512164935.447650: $GPGGA,214856,3946.9663,N,08404.9762,W,2,12,0.80,301.15,M,-33.324,M,,*7A
2017-12-01 16:48:55 1512164935.447717: $GPRMC,214856,A,3946.9663,N,08404.9762,W,0.0000,0.000,011217,,*37
2017-12-01 16:48:55 1512164935.447778: $GPGSA,A,3,1,10,14,22,31,32,3,12,18,25,26,138,2.0,0.8,1.5*0A
2017-12-01 16:48:56 1512164936.800366: $GPGSV,3,1,12,01,22,292,42,10,39,151,39,14,69,348,44,22,26,310,47*72
2017-12-01 16:48:56 1512164936.800547: $GPGSV,3,2,12,31,64,234,49,32,65,048,48,03,06,316,32,12,18,043,24*7A
2017-12-01 16:48:56 1512164936.800614: $GPGSV,3,3,12,18,10,147,13,25,41,079,22,26,09,181,22,138,38,213,38*41
2017-12-01 16:48:56 1512164936.914025: $GPZDA,214857.00,01,12,2017,00,00*6D
2017-12-01 16:48:56 1512164936.914211: $GPGGA,214857,3946.9658,N,08404.9762,W,2,12,0.80,300.51,M,-33.324,M,,*72
2017-12-01 16:48:56 1512164936.914278: $GPRMC,214857,A,3946.9658,N,08404.9762,W,0.0000,0.000,011217,,*3E
2017-12-01 16:48:56 1512164936.914340: $GPGSA,A,3,1,10,14,22,31,32,3,12,18,25,26,138,2.0,0.8,1.5*0A
2017-12-01 16:48:57 1512164937.448256: $GPZDA,214858.00,01,12,2017,00,00*62
2017-12-01 16:48:57 1512164937.448429: $GPGGA,214858,3946.9658,N,08404.9762,W,2,12,0.80,300.51,M,-33.324,M,,*7D
2017-12-01 16:48:57 1512164937.448497: $GPRMC,214858,A,3946.9658,N,08404.9762,W,0.0000,0.000,011217,,*31
2017-12-01 16:48:57 1512164937.448558: $GPGSA,A,3,1,10,14,22,31,32,3,12,18,25,26,138,2.0,0.8,1.5*0A
2017-12-01 16:48:58 1512164938.465994: $GPZDA,214859.00,01,12,2017,00,00*63
2017-12-01 16:48:58 1512164938.466216: $GPGGA,214859,3946.9658,N,08404.9762,W,2,12,0.80,300.51,M,-33.324,M,,*7C
2017-12-01 16:48:58 1512164938.466285: $GPRMC,214859,A,3946.9658,N,08404.9762,W,0.0000,0.000,011217,,*30
2017-12-01 16:48:58 1512164938.466346: $GPGSA,A,3,1,10,14,22,31,32,3,12,18,25,26,138,2.0,0.8,1.5*0A
2017-12-01 16:48:59 1512164939.799365: $GPGSV,3,1,12,01,22,292,42,10,39,151,39,14,69,348,44,22,26,310,47*72
2017-12-01 16:48:59 1512164939.799547: $GPGSV,3,2,12,31,64,234,49,32,65,048,49,03,06,316,32,12,18,043,24*7B
2017-12-01 16:48:59 1512164939.799615: $GPGSV,3,3,12,18,10,147,21,25,41,079,18,26,09,181,22,138,38,213,40*46
2017-12-01 16:48:59 1512164939.913078: $GPZDA,214900.00,01,12,2017,00,00*6E
2017-12-01 16:48:59 1512164939.913232: $GPGGA,214900,3946.9658,N,08404.9762,W,2,12,0.80,300.51,M,-33.324,M,,*71
2017-12-01 16:48:59 1512164939.913299: $GPRMC,214900,A,3946.9658,N,08404.9762,W,0.0000,0.000,011217,,*3D
2017-12-01 16:48:59 1512164939.913360: $GPGSA,A,3,1,10,14,22,31,32,3,12,18,25,26,138,2.0,0.8,1.5*0A
2017-12-01 16:49:00 1512164940.466352: $GPZDA,214901.00,01,12,2017,00,00*6F
2017-12-01 16:49:00 1512164940.466521: $GPGGA,214901,3946.9658,N,08404.9762,W,2,12,0.80,300.51,M,-33.324,M,,*70
2017-12-01 16:49:00 1512164940.466588: $GPRMC,214901,A,3946.9658,N,08404.9762,W,0.0000,0.000,011217,,*3C
2017-12-01 16:49:00 1512164940.466649: $GPGSA,A,3,1,10,14,22,31,32,3,12,18,25,26,138,2.0,0.8,1.5*0A
2017-12-01 16:49:01 1512164941.448508: $GPZDA,214902.00,01,12,2017,00,00*6C
2017-12-01 16:49:01 1512164941.448667: $GPGGA,214902,3946.9658,N,08404.9762,W,2,12,0.80,300.51,M,-33.324,M,,*73
2017-12-01 16:49:01 1512164941.448735: $GPRMC,214902,A,3946.9658,N,08404.9762,W,0.0000,0.000,011217,,*3F
2017-12-01 16:49:01 1512164941.448797: $GPGSA,A,3,1,10,14,22,31,32,3,12,18,25,26,138,2.0,0.8,1.5*0A
2017-12-01 16:49:02 1512164942.801508: $GPGSV,3,1,12,01,22,292,41,10,39,151,39,14,69,348,45,22,26,310,47*70
2017-12-01 16:49:02 1512164942.801691: $GPGSV,3,2,12,31,64,234,48,32,65,048,49,03,06,316,30,12,18,043,24*78
2017-12-01 16:49:02 1512164942.801759: $GPGSV,3,3,12,18,10,147,20,11,06,276,36,26,09,181,23,138,38,213,40*43
2017-12-01 16:49:02 1512164942.915122: $GPZDA,214903.00,01,12,2017,00,00*6D
2017-12-01 16:49:02 1512164942.915279: $GPGGA,214903,3946.9658,N,08404.9762,W,2,12,0.80,300.51,M,-33.324,M,,*72
2017-12-01 16:49:02 1512164942.915346: $GPRMC,214903,A,3946.9658,N,08404.9762,W,0.0000,0.000,011217,,*3E
2017-12-01 16:49:02 1512164942.915407: $GPGSA,A,3,1,10,14,22,31,32,3,12,18,11,26,138,2.0,0.8,1.5*0D
