2018-01-11 19:43:05 1515717785.708056: {"class":"VERSION","release":"3.16","rev":"3.16-4","proto_major":3,"proto_minor":11}
2018-01-11 19:43:05 1515717785.708439: {"class":"DEVICES","devices":[{"class":"DEVICE","path":"/dev/ttyUSB0","driver":"SiRF","subtype":"9\u0006GSD4e_4.1.2-P1_RPATCH.05-F-GPS-4R-1510281 11/03/2015 307","activated":"2018-01-12T00:43:05.633Z","flags":1,"native":1,"bps":4800,"parity":"N","stopbits":1,"cycle":1.00}]}
2018-01-11 19:43:05 1515717785.708553: {"class":"WATCH","enable":true,"json":false,"nmea":true,"raw":0,"scaled":false,"timing":false,"split24":false,"pps":false}
2018-01-11 19:43:06 1515717786.417827: $GPZDA,004307.00,12,01,2018,00,00*6F
2018-01-11 19:43:06 1515717786.418029: $GPGGA,004307,3946.9609,N,08404.9855,W,2,11,0.80,306.81,M,-33.324,M,,*78
2018-01-11 19:43:06 1515717786.418098: $GPRMC,004307,A,3946.9609,N,08404.9855,W,0.0000,0.000,120118,,*33
2018-01-11 19:43:06 1515717786.418160: $GPGSA,A,3,7,8,9,11,16,23,27,30,28,26,138,,4.0,0.8,3.5*3A
2018-01-11 19:43:07 1515717787.768548: $GPGSV,3,1,12,07,44,309,40,08,62,159,46,09,55,249,42,11,09,172,32*7E
2018-01-11 19:43:07 1515717787.768727: $GPGSV,3,2,12,16,33,052,47,23,42,195,48,27,56,069,50,30,18,301,31*78
2018-01-11 19:43:07 1515717787.768793: $GPGSV,3,3,12,26,07,066,00,28,05,249,23,21,01,031,00,138,38,213,45*48
2018-01-11 19:43:07 1515717787.882271: $GPZDA,004308.00,12,01,2018,00,00*60
2018-01-11 19:43:07 1515717787.882411: $GPGGA,004308,3946.9609,N,08404.9855,W,2,10,0.80,306.81,M,-33.324,M,,*76
2018-01-11 19:43:07 1515717787.882476: $GPRMC,004308,A,3946.9609,N,08404.9855,W,0.1867,0.000,120118,,*34
2018-01-11 19:43:07 1515717787.882536: $GPGSA,A,3,7,8,9,11,16,23,27,30,28,138,,,4.0,0.8,3.5*3E
2018-01-11 19:43:08 1515717788.432782: $GPZDA,004309.00,12,01,2018,00,00*61
2018-01-11 19:43:08 1515717788.432938: $GPGGA,004309,3946.9609,N,08404.9855,W,2,10,0.80,306.81,M,-33.324,M,,*77
2018-01-11 19:43:08 1515717788.433024: $GPRMC,004309,A,3946.9609,N,08404.9855,W,0.0000,0.000,120118,,*3D
2018-01-11 19:43:08 1515717788.433087: $GPGSA,A,3,7,8,9,11,16,23,27,30,28,138,,,4.0,0.8,3.5*3E
2018-01-11 19:43:09 1515717789.426188: $GPZDA,004310.00,12,01,2018,00,00*69
2018-01-11 19:43:09 1515717789.426362: $GPGGA,004310,3946.9609,N,08404.9855,W,2,10,0.80,306.81,M,-33.324,M,,*7F
2018-01-11 19:43:09 1515717789.426429: $GPRMC,004310,A,3946.9609,N,08404.9855,W,0.0000,0.000,120118,,*35
2018-01-11 19:43:09 1515717789.426489: $GPGSA,A,3,7,8,9,11,16,23,27,30,28,138,,,4.0,0.8,3.5*3E
2018-01-11 19:43:10 1515717790.768895: $GPGSV,3,1,12,07,44,309,40,08,62,159,46,09,55,249,42,11,09,172,32*7E
2018-01-11 19:43:10 1515717790.769174: $GPGSV,3,2,12,16,33,052,47,23,42,195,48,27,56,069,50,30,18,301,30*79
2018-01-11 19:43:10 1515717790.769243: $GPGSV,3,3,12,26,07,066,00,28,05,249,24,21,01,031,00,138,38,213,44*4E
2018-01-11 19:43:10 1515717790.882290: $GPZDA,004311.00,12,01,2018,00,00*68
2018-01-11 19:43:10 1515717790.882447: $GPGGA,004311,3946.9609,N,08404.9855,W,2,10,0.80,306.81,M,-33.324,M,,*7E
2018-01-11 19:43:10 1515717790.882511: $GPRMC,004311,A,3946.9609,N,08404.9855,W,0.0000,0.000,120118,,*34
2018-01-11 19:43:10 1515717790.882571: $GPGSA,A,3,7,8,9,11,16,23,27,30,28,138,,,4.0,0.8,3.5*3E
2018-01-11 19:43:11 1515717791.417137: $GPZDA,004312.00,12,01,2018,00,00*6B
2018-01-11 19:43:11 1515717791.417284: $GPGGA,004312,3946.9609,N,08404.9855,W,2,10,0.80,306.81,M,-33.324,M,,*7D
2018-01-11 19:43:11 1515717791.417349: $GPRMC,004312,A,3946.9609,N,08404.9855,W,0.0000,0.000,120118,,*37
2018-01-11 19:43:11 1515717791.417410: $GPGSA,A,3,7,8,9,11,16,23,27,30,28,138,,,4.0,0.8,3.5*3E
2018-01-11 19:43:12 1515717792.438035: $GPZDA,004313.00,12,01,2018,00,00*6A
2018-01-11 19:43:12 1515717792.438197: $GPGGA,004313,3946.9609,N,08404.9855,W,2,10,0.80,306.81,M,-33.324,M,,*7C
2018-01-11 19:43:12 1515717792.438262: $GPRMC,004313,A,3946.9609,N,08404.9855,W,0.0000,0.000,120118,,*36
2018-01-11 19:43:12 1515717792.438323: $GPGSA,A,3,7,8,9,11,16,23,27,30,28,138,,,4.0,0.8,3.5*3E
