2017-12-14 11:56:37 1513270597.094179: {"class":"VERSION","release":"3.16","rev":"3.16-4","proto_major":3,"proto_minor":11}
2017-12-14 11:56:37 1513270597.094529: {"class":"DEVICES","devices":[{"class":"DEVICE","path":"/dev/ttyUSB0","driver":"SiRF","subtype":"9\u0006GSD4e_4.1.2-P1_RPATCH.05-F-GPS-4R-1510281 11/03/2015 307","activated":"2017-12-14T16:56:36.281Z","flags":1,"native":1,"bps":4800,"parity":"N","stopbits":1,"cycle":1.00}]}
2017-12-14 11:56:37 1513270597.094641: {"class":"WATCH","enable":true,"json":false,"nmea":true,"raw":0,"scaled":false,"timing":false,"split24":false,"pps":false}
2017-12-14 11:56:37 1513270597.143175: $GPZDA,165638.00,14,12,2017,00,00*6B
2017-12-14 11:56:37 1513270597.143329: $GPGGA,165638,3946.9620,N,08404.9396,W,1,05,1.60,344.89,M,-33.324,M,,*7F
2017-12-14 11:56:37 1513270597.143394: $GPRMC,165638,A,3946.9620,N,08404.9396,W,0.0814,142.010,141217,,*33
2017-12-14 11:56:37 1513270597.143454: $GPGSA,A,3,20,15,24,10,18,,,,,,,,6.6,1.6,6.2*39
2017-12-14 11:56:38 1513270598.477505: $GPGSV,3,1,11,20,41,087,28,15,46,049,24,24,45,124,15,10,34,294,17*7F
2017-12-14 11:56:38 1513270598.477682: $GPGSV,3,2,11,18,65,319,14,32,13,232,09,27,19,300,04,13,16,046,00*78
2017-12-14 11:56:38 1513270598.477765: $GPGSV,3,3,11,21,73,201,00,08,02,330,00,138,38,213,00*76
2017-12-14 11:56:38 1513270598.590996: $GPZDA,165639.00,14,12,2017,00,00*6A
2017-12-14 11:56:38 1513270598.591165: $GPGGA,165639,3946.9617,N,08404.9397,W,1,06,1.60,345.65,M,-33.324,M,,*7B
2017-12-14 11:56:38 1513270598.591231: $GPRMC,165639,A,3946.9617,N,08404.9397,W,0.3106,69.941,141217,,*0B
2017-12-14 11:56:38 1513270598.591292: $GPGSA,A,3,20,15,24,10,18,32,,,,,,,6.6,1.6,6.2*38
2017-12-14 11:56:39 1513270599.142513: $GPZDA,165640.00,14,12,2017,00,00*64
2017-12-14 11:56:39 1513270599.142713: $GPGGA,165640,3946.9621,N,08404.9397,W,1,06,1.60,346.29,M,-33.324,M,,*7B
2017-12-14 11:56:39 1513270599.142783: $GPRMC,165640,A,3946.9621,N,08404.9397,W,0.3133,9.201,141217,,*3F
2017-12-14 11:56:39 1513270599.142848: $GPGSA,A,3,20,15,24,10,18,32,,,,,,,6.6,1.6,6.2*38
2017-12-14 11:56:40 1513270600.139997: $GPZDA,165641.00,14,12,2017,00,00*65
2017-12-14 11:56:40 1513270600.140163: $GPGGA,165641,3946.9622,N,08404.9404,W,1,06,2.20,346.22,M,-33.324,M,,*78
2017-12-14 11:56:40 1513270600.140228: $GPRMC,165641,A,3946.9622,N,08404.9404,W,0.5516,308.233,141217,,*36
2017-12-14 11:56:40 1513270600.140289: $GPGSA,A,3,20,15,24,10,18,32,,,,,,,6.6,2.2,6.2*3F
2017-12-14 11:56:41 1513270601.477496: $GPGSV,3,1,11,20,41,087,29,15,46,049,24,24,45,124,16,10,34,294,17*7D
2017-12-14 11:56:41 1513270601.477818: $GPGSV,3,2,11,18,65,319,06,32,13,232,08,27,19,300,04,08,02,330,05*72
2017-12-14 11:56:41 1513270601.477931: $GPGSV,3,3,11,13,16,046,00,21,73,201,00,138,38,213,00*7B
2017-12-14 11:56:41 1513270601.590881: $GPZDA,165642.00,14,12,2017,00,00*66
2017-12-14 11:56:41 1513270601.591032: $GPGGA,165642,3946.9625,N,08404.9403,W,1,06,2.20,345.45,M,-33.324,M,,*79
2017-12-14 11:56:41 1513270601.591096: $GPRMC,165642,A,3946.9625,N,08404.9403,W,1.0984,323.723,141217,,*3B
2017-12-14 11:56:41 1513270601.591157: $GPGSA,A,3,20,15,24,10,18,32,,,,,,,6.6,2.2,6.2*3F
2017-12-14 11:56:42 1513270602.140991: $GPZDA,165643.00,14,12,2017,00,00*67
2017-12-14 11:56:42 1513270602.141159: $GPGGA,165643,3946.9625,N,08404.9409,W,1,06,2.20,343.97,M,-33.324,M,,*7B
2017-12-14 11:56:42 1513270602.141226: $GPRMC,165643,A,3946.9625,N,08404.9409,W,0.9543,317.075,141217,,*3C
2017-12-14 11:56:42 1513270602.141285: $GPGSA,A,3,20,15,24,10,18,32,,,,,,,6.6,2.2,6.2*3F
2017-12-14 11:56:43 1513270603.144329: $GPZDA,165644.00,14,12,2017,00,00*60
2017-12-14 11:56:43 1513270603.808483: $GPGGA,165644,3946.9628,N,08404.9415,W,1,06,1.60,341.72,M,-33.324,M,,*72
2017-12-14 11:56:43 1513270603.808639: $GPRMC,165644,A,3946.9628,N,08404.9415,W,1.0577,323.789,141217,,*37
2017-12-14 11:56:43 1513270603.808727: $GPGSA,A,3,20,15,24,10,18,32,,,,,,,6.6,1.6,6.2*38
2017-12-14 11:56:44 1513270604.480519: $GPGSV,3,1,11,20,41,087,29,15,46,049,24,24,45,124,17,10,34,294,17*7C
2017-12-14 11:56:44 1513270604.480707: $GPGSV,3,2,11,18,65,319,08,32,13,232,08,27,19,300,12,13,16,046,00*73
2017-12-14 11:56:44 1513270604.480842: $GPGSV,3,3,11,21,73,201,00,08,02,330,00,138,38,213,00*76
2017-12-14 11:56:44 1513270604.593933: $GPZDA,165645.00,14,12,2017,00,00*61
2017-12-14 11:56:44 1513270604.594058: $GPGGA,165645,3946.9631,N,08404.9420,W,1,07,1.20,339.47,M,-33.324,M,,*71
2017-12-14 11:56:44 1513270604.594121: $GPRMC,165645,A,3946.9631,N,08404.9420,W,1.1032,308.233,141217,,*30
2017-12-14 11:56:44 1513270604.594182: $GPGSA,A,3,20,15,24,10,18,32,27,,,,,,6.6,1.2,6.2*39
2017-12-14 11:56:45 1513270605.142944: $GPZDA,165646.00,14,12,2017,00,00*62
2017-12-14 11:56:45 1513270605.143109: $GPGGA,165646,3946.9632,N,08404.9422,W,1,07,1.80,342.28,M,-33.324,M,,*7C
2017-12-14 11:56:45 1513270605.143176: $GPRMC,165646,A,3946.9632,N,08404.9422,W,0.7637,297.901,141217,,*3B
2017-12-14 11:56:45 1513270605.143237: $GPGSA,A,3,20,15,24,10,18,32,27,,,,,,6.6,1.8,6.2*33
2017-12-14 11:56:46 1513270606.142995: $GPZDA,165647.00,14,12,2017,00,00*63
2017-12-14 11:56:46 1513270606.143160: $GPGGA,165647,3946.9629,N,08404.9422,W,1,07,1.80,343.04,M,-33.324,M,,*78
2017-12-14 11:56:46 1513270606.143226: $GPRMC,165647,A,3946.9629,N,08404.9422,W,0.3775,329.506,141217,,*3C
2017-12-14 11:56:46 1513270606.143286: $GPGSA,A,3,20,15,24,10,18,32,27,,,,,,6.6,1.8,6.2*33
2017-12-14 11:56:47 1513270607.481656: $GPGSV,3,1,11,20,41,087,29,15,46,049,24,24,45,124,17,10,34,294,18*73
2017-12-14 11:56:47 1513270607.481884: $GPGSV,3,2,11,18,65,319,12,32,13,232,08,27,19,300,12,13,16,046,00*78
2017-12-14 11:56:47 1513270607.481951: $GPGSV,3,3,11,21,73,201,00,08,02,330,00,138,38,213,00*76
2017-12-14 11:56:47 1513270607.595115: $GPZDA,165648.00,14,12,2017,00,00*6C
2017-12-14 11:56:47 1513270607.595281: $GPGGA,165648,3946.9629,N,08404.9422,W,1,07,1.20,343.04,M,-33.324,M,,*7D
2017-12-14 11:56:47 1513270607.595346: $GPRMC,165648,A,3946.9629,N,08404.9422,W,0.2758,308.233,141217,,*3F
2017-12-14 11:56:47 1513270607.595406: $GPGSA,A,3,20,15,24,10,18,32,27,,,,,,6.6,1.2,6.2*39
2017-12-14 11:56:48 1513270608.143495: $GPZDA,165649.00,14,12,2017,00,00*6D
2017-12-14 11:56:48 1513270608.143660: $GPGGA,165649,3946.9629,N,08404.9422,W,1,07,1.80,343.04,M,-33.324,M,,*76
2017-12-14 11:56:48 1513270608.143745: $GPRMC,165649,A,3946.9629,N,08404.9422,W,0.4179,328.778,141217,,*35
2017-12-14 11:56:48 1513270608.143806: $GPGSA,A,3,20,15,24,10,18,32,27,,,,,,6.6,1.8,6.2*33
2017-12-14 11:56:49 1513270609.160200: $GPZDA,165650.00,14,12,2017,00,00*65
2017-12-14 11:56:49 1513270609.160366: $GPGGA,165650,3946.9632,N,08404.9422,W,1,07,1.80,342.28,M,-33.324,M,,*7B
2017-12-14 11:56:49 1513270609.160432: $GPRMC,165650,A,3946.9632,N,08404.9422,W,0.4985,5.768,141217,,*31
2017-12-14 11:56:49 1513270609.160492: $GPGSA,A,3,20,15,24,10,18,32,27,,,,,,6.6,1.8,6.2*33
2017-12-14 11:56:50 1513270610.479784: $GPGSV,3,1,11,20,41,087,29,15,46,049,24,24,45,124,17,10,34,294,18*73
2017-12-14 11:56:50 1513270610.479977: $GPGSV,3,2,11,18,65,319,12,32,13,232,07,27,19,300,11,13,16,046,00*74
2017-12-14 11:56:50 1513270610.480043: $GPGSV,3,3,11,21,73,201,00,08,02,330,00,138,38,213,00*76
2017-12-14 11:56:50 1513270610.593257: $GPZDA,165651.00,14,12,2017,00,00*64
2017-12-14 11:56:50 1513270610.593399: $GPGGA,165651,3946.9632,N,08404.9422,W,1,07,1.80,342.28,M,-33.324,M,,*7A
2017-12-14 11:56:50 1513270610.593463: $GPRMC,165651,A,3946.9632,N,08404.9422,W,0.7278,23.636,141217,,*04
2017-12-14 11:56:50 1513270610.593523: $GPGSA,A,3,20,15,24,10,18,32,27,,,,,,6.6,1.8,6.2*33
2017-12-14 11:56:51 1513270611.159542: $GPZDA,165652.00,14,12,2017,00,00*67
2017-12-14 11:56:51 1513270611.159727: $GPGGA,165652,3946.9636,N,08404.9415,W,1,07,1.80,343.00,M,-33.324,M,,*72
2017-12-14 11:56:51 1513270611.159794: $GPRMC,165652,A,3946.9636,N,08404.9415,W,0.7278,23.636,141217,,*07
2017-12-14 11:56:51 1513270611.159872: $GPGSA,A,3,20,15,24,10,18,32,27,,,,,,6.6,1.8,6.2*33
2017-12-14 11:56:52 1513270612.143532: $GPZDA,165653.00,14,12,2017,00,00*66
2017-12-14 11:56:52 1513270612.143700: $GPGGA,165653,3946.9639,N,08404.9414,W,1,07,1.80,342.24,M,-33.324,M,,*7A
2017-12-14 11:56:52 1513270612.143816: $GPRMC,165653,A,3946.9639,N,08404.9414,W,1.2132,3.552,141217,,*32
2017-12-14 11:56:52 1513270612.143878: $GPGSA,A,3,20,15,24,10,18,32,27,,,,,,6.6,1.8,6.2*33
2017-12-14 11:56:53 1513270613.495449: $GPGSV,3,1,11,20,41,087,29,15,46,049,24,24,45,124,18,10,34,294,18*7C
2017-12-14 11:56:53 1513270613.495625: $GPGSV,3,2,11,18,65,319,12,32,13,232,06,27,19,300,11,13,16,046,00*75
2017-12-14 11:56:53 1513270613.495691: $GPGSV,3,3,11,21,73,201,00,08,02,330,00,138,38,213,00*76
2017-12-14 11:56:53 1513270613.608842: $GPZDA,165654.00,14,12,2017,00,00*61
2017-12-14 11:56:53 1513270613.609021: $GPGGA,165654,3946.9639,N,08404.9414,W,1,06,1.80,342.24,M,-33.324,M,,*7C
2017-12-14 11:56:53 1513270613.609088: $GPRMC,165654,A,3946.9639,N,08404.9414,W,0.8414,39.347,141217,,*04
2017-12-14 11:56:53 1513270613.609150: $GPGSA,A,3,20,15,24,10,18,27,,,,,,,6.6,1.8,6.2*32
2017-12-14 11:56:54 1513270614.159007: $GPZDA,165655.00,14,12,2017,00,00*60
2017-12-14 11:56:54 1513270614.159175: $GPGGA,165655,3946.9644,N,08404.9414,W,1,06,1.80,342.88,M,-33.324,M,,*71
2017-12-14 11:56:54 1513270614.159242: $GPRMC,165655,A,3946.9644,N,08404.9414,W,1.0018,50.691,141217,,*0F
2017-12-14 11:56:54 1513270614.159303: $GPGSA,A,3,20,15,24,10,18,27,,,,,,,6.6,1.8,6.2*32
2017-12-14 11:56:55 1513270615.631701: $GPZDA,165656.00,14,12,2017,00,00*63
2017-12-14 11:56:55 1513270615.631895: $GPGGA,165656,3946.9643,N,08404.9407,W,1,06,1.80,342.95,M,-33.324,M,,*7B
2017-12-14 11:56:55 1513270615.631964: $GPRMC,165656,A,3946.9643,N,08404.9407,W,0.5951,58.684,141217,,*05
2017-12-14 11:56:55 1513270615.632028: $GPGSA,A,3,20,15,24,10,18,27,,,,,,,6.6,1.8,6.2*32
2017-12-14 11:56:56 1513270616.494110: $GPGSV,3,1,11,20,41,087,29,15,46,049,24,24,45,124,19,10,34,294,18*7D
2017-12-14 11:56:56 1513270616.494265: $GPGSV,3,2,11,18,65,319,13,32,13,232,04,27,19,298,11,13,16,046,00*76
2017-12-14 11:56:56 1513270616.494332: $GPGSV,3,3,11,21,72,199,00,08,02,330,00,138,38,213,00*75
2017-12-14 11:56:56 1513270616.607520: $GPZDA,165657.00,14,12,2017,00,00*62
2017-12-14 11:56:56 1513270616.607706: $GPGGA,165657,3946.9643,N,08404.9407,W,1,06,1.80,342.95,M,-33.324,M,,*7A
2017-12-14 11:56:56 1513270616.607775: $GPRMC,165657,A,3946.9643,N,08404.9407,W,0.4179,148.779,141217,,*34
2017-12-14 11:56:56 1513270616.607856: $GPGSA,A,3,20,15,24,10,18,27,,,,,,,6.6,1.8,6.2*32
