2018-01-11 20:17:02 1515719822.400558: {"class":"VERSION","release":"3.16","rev":"3.16-4","proto_major":3,"proto_minor":11}
2018-01-11 20:17:02 1515719822.400901: {"class":"DEVICES","devices":[{"class":"DEVICE","path":"/dev/ttyUSB0","driver":"SiRF","subtype":"9\u0006GSD4e_4.1.2-P1_RPATCH.05-F-GPS-4R-1510281 11/03/2015 307","activated":"2018-01-12T01:17:02.367Z","flags":1,"native":1,"bps":4800,"parity":"N","stopbits":1,"cycle":1.00}]}
2018-01-11 20:17:02 1515719822.401013: {"class":"WATCH","enable":true,"json":false,"nmea":true,"raw":0,"scaled":false,"timing":false,"split24":false,"pps":false}
2018-01-11 20:17:03 1515719823.670422: $GPGSV,3,1,11,07,58,315,43,08,75,121,45,09,46,226,40,11,22,166,46*72
2018-01-11 20:17:03 1515719823.670594: $GPGSV,3,2,11,16,21,061,42,23,26,189,49,27,45,051,50,30,31,307,34*72
2018-01-11 20:17:03 1515719823.670659: $GPGSV,3,3,11,28,16,259,39,01,01,162,12,138,38,213,45*76
2018-01-11 20:17:03 1515719823.784137: $GPZDA,011704.00,12,01,2018,00,00*6C
2018-01-11 20:17:03 1515719823.784272: $GPGGA,011704,3946.9596,N,08404.9854,W,2,11,0.80,303.49,M,-33.324,M,,*7E
2018-01-11 20:17:03 1515719823.784337: $GPRMC,011704,A,3946.9596,N,08404.9854,W,0.0000,0.000,120118,,*34
2018-01-11 20:17:03 1515719823.784396: $GPGSA,A,3,7,8,9,11,16,23,27,30,28,1,138,,4.0,0.8,3.5*0F
2018-01-11 20:17:04 1515719824.409561: $GPZDA,011705.00,12,01,2018,00,00*6D
2018-01-11 20:17:04 1515719824.409725: $GPGGA,011705,3946.9596,N,08404.9854,W,2,11,0.80,303.49,M,-33.324,M,,*7F
2018-01-11 20:17:04 1515719824.409790: $GPRMC,011705,A,3946.9596,N,08404.9854,W,0.0000,0.000,120118,,*35
2018-01-11 20:17:04 1515719824.409850: $GPGSA,A,3,7,8,9,11,16,23,27,30,28,1,138,,4.0,0.8,3.5*0F
2018-01-11 20:17:05 1515719825.335331: $GPZDA,011706.00,12,01,2018,00,00*6E
2018-01-11 20:17:05 1515719825.335481: $GPGGA,011706,3946.9596,N,08404.9854,W,2,11,0.80,303.49,M,-33.324,M,,*7C
2018-01-11 20:17:05 1515719825.335545: $GPRMC,011706,A,3946.9596,N,08404.9854,W,0.0000,0.000,120118,,*36
2018-01-11 20:17:05 1515719825.335605: $GPGSA,A,3,7,8,9,11,16,23,27,30,28,1,138,,4.0,0.8,3.5*0F
2018-01-11 20:17:06 1515719826.688250: $GPGSV,3,1,11,07,58,315,43,08,75,121,45,09,46,226,40,11,22,166,46*72
2018-01-11 20:17:06 1515719826.688408: $GPGSV,3,2,11,16,21,061,42,23,26,189,49,27,45,051,50,30,31,307,34*72
2018-01-11 20:17:06 1515719826.688472: $GPGSV,3,3,11,28,16,259,39,01,01,162,00,138,38,213,45*75
2018-01-11 20:17:06 1515719826.800692: $GPZDA,011707.00,12,01,2018,00,00*6F
2018-01-11 20:17:06 1515719826.800806: $GPGGA,011707,3946.9596,N,08404.9854,W,2,10,0.80,303.49,M,-33.324,M,,*7C
2018-01-11 20:17:06 1515719826.800869: $GPRMC,011707,A,3946.9596,N,08404.9854,W,0.0000,0.000,120118,,*37
2018-01-11 20:17:06 1515719826.800928: $GPGSA,A,3,7,8,9,11,16,23,27,30,28,138,,,4.0,0.8,3.5*3E
2018-01-11 20:17:07 1515719827.352778: $GPZDA,011708.00,12,01,2018,00,00*60
2018-01-11 20:17:07 1515719827.352913: $GPGGA,011708,3946.9596,N,08404.9854,W,2,10,0.80,303.49,M,-33.324,M,,*73
2018-01-11 20:17:07 1515719827.352977: $GPRMC,011708,A,3946.9596,N,08404.9854,W,0.0000,0.000,120118,,*38
2018-01-11 20:17:07 1515719827.353036: $GPGSA,A,3,7,8,9,11,16,23,27,30,28,138,,,4.0,0.8,3.5*3E
2018-01-11 20:17:08 1515719828.331255: $GPZDA,011709.00,12,01,2018,00,00*61
2018-01-11 20:17:08 1515719828.331405: $GPGGA,011709,3946.9596,N,08404.9854,W,2,10,0.80,303.49,M,-33.324,M,,*72
2018-01-11 20:17:08 1515719828.331469: $GPRMC,011709,A,3946.9596,N,08404.9854,W,0.0000,0.000,120118,,*39
2018-01-11 20:17:08 1515719828.331528: $GPGSA,A,3,7,8,9,11,16,23,27,30,28,138,,,4.0,0.8,3.5*3E
2018-01-11 20:17:09 1515719829.687354: $GPGSV,3,1,11,07,58,315,43,08,75,121,45,09,46,226,40,11,22,166,46*72
2018-01-11 20:17:09 1515719829.687529: $GPGSV,3,2,11,16,21,061,42,23,26,189,49,27,45,051,50,30,31,307,34*72
2018-01-11 20:17:09 1515719829.687593: $GPGSV,3,3,11,28,16,259,39,01,01,162,00,138,38,213,44*74
2018-01-11 20:17:09 1515719829.801016: $GPZDA,011710.00,12,01,2018,00,00*69
2018-01-11 20:17:09 1515719829.801134: $GPGGA,011710,3946.9596,N,08404.9854,W,2,10,0.80,303.49,M,-33.324,M,,*7A
2018-01-11 20:17:09 1515719829.801198: $GPRMC,011710,A,3946.9596,N,08404.9854,W,0.0000,0.000,120118,,*31
2018-01-11 20:17:09 1515719829.801312: $GPGSA,A,3,7,8,9,11,16,23,27,30,28,138,,,4.0,0.8,3.5*3E
2018-01-11 20:17:10 1515719830.335636: $GPZDA,011711.00,12,01,2018,00,00*68
2018-01-11 20:17:10 1515719830.335773: $GPGGA,011711,3946.9596,N,08404.9854,W,2,10,0.80,303.49,M,-33.324,M,,*7B
2018-01-11 20:17:10 1515719830.335837: $GPRMC,011711,A,3946.9596,N,08404.9854,W,0.0000,0.000,120118,,*30
2018-01-11 20:17:10 1515719830.335896: $GPGSA,A,3,7,8,9,11,16,23,27,30,28,138,,,4.0,0.8,3.5*3E
2018-01-11 20:17:11 1515719831.351177: $GPZDA,011712.00,12,01,2018,00,00*6B
2018-01-11 20:17:11 1515719831.351329: $GPGGA,011712,3946.9596,N,08404.9854,W,2,10,0.80,303.49,M,-33.324,M,,*78
2018-01-11 20:17:11 1515719831.351393: $GPRMC,011712,A,3946.9596,N,08404.9854,W,0.0000,0.000,120118,,*33
2018-01-11 20:17:11 1515719831.351453: $GPGSA,A,3,7,8,9,11,16,23,27,30,28,138,,,4.0,0.8,3.5*3E
2018-01-11 20:17:12 1515719832.686916: $GPGSV,3,1,11,07,58,315,44,08,75,121,45,09,46,226,40,11,22,166,46*75
2018-01-11 20:17:12 1515719832.687087: $GPGSV,3,2,11,16,21,061,42,23,26,189,48,27,45,051,50,30,31,307,35*72
2018-01-11 20:17:12 1515719832.687150: $GPGSV,3,3,11,28,16,259,39,01,01,162,00,138,38,213,45*75
2018-01-11 20:17:12 1515719832.800268: $GPZDA,011713.00,12,01,2018,00,00*6A
2018-01-11 20:17:12 1515719832.800375: $GPGGA,011713,3946.9596,N,08404.9854,W,2,10,0.80,303.49,M,-33.324,M,,*79
2018-01-11 20:17:12 1515719832.800439: $GPRMC,011713,A,3946.9596,N,08404.9854,W,0.0000,0.000,120118,,*32
2018-01-11 20:17:12 1515719832.800498: $GPGSA,A,3,7,8,9,11,16,23,27,30,28,138,,,4.0,0.8,3.5*3E
2018-01-11 20:17:13 1515719833.352378: $GPZDA,011714.00,12,01,2018,00,00*6D
2018-01-11 20:17:13 1515719833.352525: $GPGGA,011714,3946.9596,N,08404.9854,W,2,10,0.80,303.49,M,-33.324,M,,*7E
2018-01-11 20:17:13 1515719833.352590: $GPRMC,011714,A,3946.9596,N,08404.9854,W,0.0000,0.000,120118,,*35
2018-01-11 20:17:13 1515719833.352650: $GPGSA,A,3,7,8,9,11,16,23,27,30,28,138,,,4.0,0.8,3.5*3E
