2018-01-11 19:38:00 1515717480.964475: {"class":"VERSION","release":"3.16","rev":"3.16-4","proto_major":3,"proto_minor":11}
2018-01-11 19:38:00 1515717480.964810: {"class":"DEVICES","devices":[{"class":"DEVICE","path":"/dev/ttyUSB0","driver":"SiRF","subtype":"9\u0006GSD4e_4.1.2-P1_RPATCH.05-F-GPS-4R-1510281 11/03/2015 307","activated":"2018-01-12T00:38:00.857Z","flags":1,"native":1,"bps":4800,"parity":"N","stopbits":1,"cycle":1.00}]}
2018-01-11 19:38:00 1515717480.964922: {"class":"WATCH","enable":true,"json":false,"nmea":true,"raw":0,"scaled":false,"timing":false,"split24":false,"pps":false}
2018-01-11 19:38:00 1515717480.971147: $GPZDA,003801.65,12,01,2018,00,00*66
2018-01-11 19:38:00 1515717480.971306: $GPGGA,003801,3946.9597,N,08404.9860,W,1,12,1.20,314.08,M,-33.324,M,,*79
2018-01-11 19:38:00 1515717480.971370: $GPRMC,003801,A,3946.9597,N,08404.9860,W,0.3031,219.208,120118,,*3A
2018-01-11 19:38:00 1515717480.971431: $GPGSA,A,3,7,8,9,16,23,27,30,11,21,26,28,138,4.0,1.2,3.5*32
2018-01-11 19:38:00 1515717480.971489: $GPGBS,003801,14.62,M,24.83,M,80.38,M*0B
2018-01-11 19:38:02 1515717482.051943: $GPZDA,003802.34,12,01,2018,00,00*61
2018-01-11 19:38:02 1515717482.052119: $GPGGA,003802,3946.9597,N,08404.9853,W,1,12,1.20,314.16,M,-33.324,M,,*75
2018-01-11 19:38:02 1515717482.052185: $GPRMC,003802,A,3946.9597,N,08404.9853,W,0.3554,131.360,120118,,*39
2018-01-11 19:38:02 1515717482.052246: $GPGSA,A,3,7,8,9,16,23,27,30,11,21,26,28,138,4.0,1.2,3.5*32
2018-01-11 19:38:03 1515717483.194528: $GPGSV,3,1,12,07,42,309,42,08,60,160,46,09,56,252,41,16,35,051,48*7D
2018-01-11 19:38:03 1515717483.194681: $GPGSV,3,2,12,23,44,196,46,27,57,072,50,30,17,300,37,11,08,172,06*79
2018-01-11 19:38:03 1515717483.194745: $GPGSV,3,3,12,21,02,033,05,26,09,064,08,28,04,247,00,138,38,213,00*47
2018-01-11 19:38:03 1515717483.307847: $GPZDA,003803.00,12,01,2018,00,00*67
2018-01-11 19:38:03 1515717483.308001: $GPGGA,003803,3946.9597,N,08404.9853,W,1,07,1.20,314.16,M,-33.324,M,,*70
2018-01-11 19:38:03 1515717483.308088: $GPRMC,003803,A,3946.9597,N,08404.9853,W,0.4063,176.466,120118,,*3C
2018-01-11 19:38:03 1515717483.308152: $GPGSA,A,3,7,8,9,16,23,27,30,,,,,,4.0,1.2,3.5*05
2018-01-11 19:38:03 1515717483.758797: $GPZDA,003804.00,12,01,2018,00,00*60
2018-01-11 19:38:03 1515717483.758969: $GPGGA,003804,3946.9593,N,08404.9853,W,1,07,0.80,313.52,M,-33.324,M,,*7F
2018-01-11 19:38:03 1515717483.759098: $GPRMC,003804,A,3946.9593,N,08404.9853,W,0.1975,255.900,120118,,*3B
2018-01-11 19:38:03 1515717483.759165: $GPGSA,A,3,7,8,9,16,23,27,30,,,,,,4.0,0.8,3.5*0E
2018-01-11 19:38:04 1515717484.364654: $GPZDA,003805.00,12,01,2018,00,00*61
2018-01-11 19:38:04 1515717484.364824: $GPGGA,003805,3946.9593,N,08404.9853,W,1,07,0.80,313.52,M,-33.324,M,,*7E
2018-01-11 19:38:04 1515717484.364893: $GPRMC,003805,A,3946.9593,N,08404.9853,W,0.3954,132.450,120118,,*31
2018-01-11 19:38:04 1515717484.364957: $GPGSA,A,3,7,8,9,16,23,27,30,,,,,,4.0,0.8,3.5*0E
2018-01-11 19:38:05 1515717485.701130: $GPGSV,3,1,12,07,42,309,41,08,60,160,45,09,56,252,42,16,35,051,48*7E
2018-01-11 19:38:05 1515717485.701299: $GPGSV,3,2,12,23,44,196,45,27,57,072,49,30,17,300,38,11,08,172,22*7B
2018-01-11 19:38:05 1515717485.701367: $GPGSV,3,3,12,28,04,247,00,26,09,064,26,21,02,033,00,138,38,213,46*4C
2018-01-11 19:38:05 1515717485.814476: $GPZDA,003806.00,12,01,2018,00,00*62
2018-01-11 19:38:05 1515717485.814609: $GPGGA,003806,3946.9592,N,08404.9846,W,1,10,0.80,313.60,M,-33.324,M,,*7F
2018-01-11 19:38:05 1515717485.814677: $GPRMC,003806,A,3946.9592,N,08404.9846,W,0.3554,131.360,120118,,*3C
2018-01-11 19:38:05 1515717485.814757: $GPGSA,A,3,7,8,9,16,23,27,30,11,26,138,,,4.0,0.8,3.5*30
2018-01-11 19:38:06 1515717486.365398: $GPZDA,003807.00,12,01,2018,00,00*63
2018-01-11 19:38:06 1515717486.365559: $GPGGA,003807,3946.9592,N,08404.9846,W,1,10,0.80,313.60,M,-33.324,M,,*7E
2018-01-11 19:38:06 1515717486.365628: $GPRMC,003807,A,3946.9592,N,08404.9846,W,0.0000,0.000,120118,,*3C
2018-01-11 19:38:06 1515717486.365691: $GPGSA,A,3,7,8,9,16,23,27,30,11,26,138,,,4.0,0.8,3.5*30
2018-01-11 19:38:07 1515717487.364909: $GPZDA,003808.00,12,01,2018,00,00*6C
2018-01-11 19:38:07 1515717487.365121: $GPGGA,003808,3946.9597,N,08404.9846,W,1,10,0.80,314.24,M,-33.324,M,,*73
2018-01-11 19:38:07 1515717487.365189: $GPRMC,003808,A,3946.9597,N,08404.9846,W,0.0000,0.000,120118,,*36
2018-01-11 19:38:07 1515717487.365250: $GPGSA,A,3,7,8,9,16,23,27,30,11,26,138,,,4.0,0.8,3.5*30
2018-01-11 19:38:07 1515717487.365306: $GPGBS,003808,14.62,M,24.83,M,80.38,M*02
2018-01-11 19:38:08 1515717488.703138: $GPGSV,3,1,12,07,42,309,40,08,60,160,46,09,56,252,42,16,35,051,48*7C
2018-01-11 19:38:08 1515717488.703314: $GPGSV,3,2,12,23,44,196,45,27,57,072,49,30,17,300,38,11,08,172,23*7A
2018-01-11 19:38:08 1515717488.703380: $GPGSV,3,3,12,28,04,247,15,26,09,064,26,21,02,033,05,138,38,213,46*4D
2018-01-11 19:38:08 1515717488.816445: $GPZDA,003809.00,12,01,2018,00,00*6D
2018-01-11 19:38:08 1515717488.816581: $GPGGA,003809,3946.9597,N,08404.9846,W,1,11,0.80,314.24,M,-33.324,M,,*73
2018-01-11 19:38:08 1515717488.816646: $GPRMC,003809,A,3946.9597,N,08404.9846,W,0.0000,0.000,120118,,*37
2018-01-11 19:38:08 1515717488.816706: $GPGSA,A,3,7,8,9,16,23,27,30,11,28,26,138,,4.0,0.8,3.5*3A
