2017-12-14 12:16:23 1513271783.642940: {"class":"VERSION","release":"3.16","rev":"3.16-4","proto_major":3,"proto_minor":11}
2017-12-14 12:16:23 1513271783.643298: {"class":"DEVICES","devices":[{"class":"DEVICE","path":"/dev/ttyUSB0","driver":"SiRF","subtype":"9\u0006GSD4e_4.1.2-P1_RPATCH.05-F-GPS-4R-1510281 11/03/2015 307","activated":"2017-12-14T17:16:23.358Z","flags":1,"native":1,"bps":4800,"parity":"N","stopbits":1,"cycle":1.00}]}
2017-12-14 12:16:23 1513271783.643418: {"class":"WATCH","enable":true,"json":false,"nmea":true,"raw":0,"scaled":false,"timing":false,"split24":false,"pps":false}
2017-12-14 12:16:24 1513271784.217499: $GPZDA,171625.00,14,12,2017,00,00*62
2017-12-14 12:16:24 1513271784.217684: $GPGGA,171625,3946.9614,N,08404.9366,W,1,09,1.40,391.60,M,-33.324,M,,*7F
2017-12-14 12:16:24 1513271784.217748: $GPRMC,171625,A,3946.9614,N,08404.9366,W,0.4207,39.347,141217,,*02
2017-12-14 12:16:24 1513271784.217811: $GPGSA,A,3,10,15,20,24,21,27,32,8,18,,,,6.6,1.4,6.2*04
2017-12-14 12:16:25 1513271785.555857: $GPGSV,3,1,12,10,41,300,19,15,38,052,19,20,35,094,18,24,50,112,28*7C
2017-12-14 12:16:25 1513271785.556035: $GPGSV,3,2,12,21,64,189,28,27,19,291,09,32,20,237,09,08,05,322,08*74
2017-12-14 12:16:25 1513271785.556102: $GPGSV,3,3,12,13,08,048,00,18,71,336,17,14,03,232,00,138,38,213,00*47
2017-12-14 12:16:25 1513271785.669256: $GPZDA,171626.00,14,12,2017,00,00*61
2017-12-14 12:16:25 1513271785.669425: $GPGGA,171626,3946.9617,N,08404.9365,W,1,09,1.20,389.43,M,-33.324,M,,*72
2017-12-14 12:16:25 1513271785.669494: $GPRMC,171626,A,3946.9617,N,08404.9365,W,0.7278,23.637,141217,,*03
2017-12-14 12:16:25 1513271785.669558: $GPGSA,A,3,10,15,20,24,21,27,32,8,18,,,,6.6,1.2,6.2*02
2017-12-14 12:16:26 1513271786.219358: $GPZDA,171627.00,14,12,2017,00,00*60
2017-12-14 12:16:26 1513271786.219532: $GPGGA,171627,3946.9620,N,08404.9364,W,1,09,1.20,388.67,M,-33.324,M,,*71
2017-12-14 12:16:26 1513271786.219598: $GPRMC,171627,A,3946.9620,N,08404.9364,W,0.7278,23.637,141217,,*07
2017-12-14 12:16:26 1513271786.219660: $GPGSA,A,3,10,15,20,24,21,27,32,8,18,,,,6.6,1.2,6.2*02
2017-12-14 12:16:27 1513271787.219501: $GPZDA,171628.00,14,12,2017,00,00*6F
2017-12-14 12:16:27 1513271787.219681: $GPGGA,171628,3946.9620,N,08404.9363,W,1,09,1.20,387.26,M,-33.324,M,,*73
2017-12-14 12:16:27 1513271787.219747: $GPRMC,171628,A,3946.9620,N,08404.9363,W,1.3692,4.197,141217,,*32
2017-12-14 12:16:27 1513271787.219809: $GPGSA,A,3,10,15,20,24,21,27,32,8,18,,,,6.6,1.2,6.2*02
2017-12-14 12:16:28 1513271788.555729: $GPGSV,3,1,12,10,41,300,18,15,38,052,18,20,35,094,18,24,50,112,28*7C
2017-12-14 12:16:28 1513271788.555906: $GPGSV,3,2,12,21,64,189,28,27,19,291,10,32,20,237,11,08,05,322,07*7A
2017-12-14 12:16:28 1513271788.555973: $GPGSV,3,3,12,13,08,048,00,18,71,336,16,14,03,232,00,138,38,213,00*46
2017-12-14 12:16:28 1513271788.669066: $GPZDA,171629.00,14,12,2017,00,00*6E
2017-12-14 12:16:28 1513271788.669235: $GPGGA,171629,3946.9627,N,08404.9362,W,1,09,1.20,385.73,M,-33.324,M,,*76
2017-12-14 12:16:28 1513271788.669302: $GPRMC,171629,A,3946.9627,N,08404.9362,W,1.8977,3.784,141217,,*39
2017-12-14 12:16:28 1513271788.669362: $GPGSA,A,3,10,15,20,24,21,27,32,8,18,,,,6.6,1.2,6.2*02
2017-12-14 12:16:29 1513271789.220619: $GPZDA,171630.00,14,12,2017,00,00*66
2017-12-14 12:16:29 1513271789.223356: $GPGGA,171630,3946.9638,N,08404.9361,W,1,09,1.20,384.84,M,-33.324,M,,*7A
2017-12-14 12:16:29 1513271789.223485: $GPRMC,171630,A,3946.9638,N,08404.9361,W,2.2533,10.018,141217,,*09
2017-12-14 12:16:29 1513271789.223587: $GPGSA,A,3,10,15,20,24,21,27,32,8,18,,,,6.6,1.2,6.2*02
2017-12-14 12:16:30 1513271790.235113: $GPZDA,171631.00,14,12,2017,00,00*67
2017-12-14 12:16:30 1513271790.235281: $GPGGA,171631,3946.9641,N,08404.9360,W,1,09,1.20,384.08,M,-33.324,M,,*70
2017-12-14 12:16:30 1513271790.235347: $GPRMC,171631,A,3946.9641,N,08404.9360,W,2.3556,21.815,141217,,*02
2017-12-14 12:16:30 1513271790.235428: $GPGSA,A,3,10,15,20,24,21,27,32,8,18,,,,6.6,1.2,6.2*02
2017-12-14 12:16:31 1513271791.553845: $GPGSV,3,1,12,10,41,300,18,15,38,052,18,20,35,094,17,24,50,112,28*73
2017-12-14 12:16:31 1513271791.554037: $GPGSV,3,2,12,21,64,189,28,27,19,291,10,32,20,237,11,08,05,322,06*7B
2017-12-14 12:16:31 1513271791.554104: $GPGSV,3,3,12,13,08,048,00,18,71,336,16,14,03,232,00,138,38,213,00*46
2017-12-14 12:16:31 1513271791.667282: $GPZDA,171632.00,14,12,2017,00,00*64
2017-12-14 12:16:31 1513271791.667471: $GPGGA,171632,3946.9652,N,08404.9351,W,1,08,1.20,383.27,M,-33.324,M,,*78
2017-12-14 12:16:31 1513271791.667554: $GPRMC,171632,A,3946.9652,N,08404.9351,W,2.6838,19.603,141217,,*03
2017-12-14 12:16:31 1513271791.667616: $GPGSA,A,3,10,15,20,24,21,27,32,18,,,,,6.6,1.2,6.2*3A
2017-12-14 12:16:32 1513271792.236138: $GPZDA,171633.00,14,12,2017,00,00*65
2017-12-14 12:16:32 1513271792.236310: $GPGGA,171633,3946.9655,N,08404.9351,W,1,08,1.20,382.51,M,-33.324,M,,*7E
2017-12-14 12:16:32 1513271792.236399: $GPRMC,171633,A,3946.9655,N,08404.9351,W,2.6838,19.603,141217,,*05
2017-12-14 12:16:32 1513271792.236462: $GPGSA,A,3,10,15,20,24,21,27,32,18,,,,,6.6,1.2,6.2*3A
2017-12-14 12:16:33 1513271793.218936: $GPZDA,171634.00,14,12,2017,00,00*62
2017-12-14 12:16:33 1513271793.219110: $GPGGA,171634,3946.9665,N,08404.9349,W,1,08,1.20,380.21,M,-33.324,M,,*76
2017-12-14 12:16:33 1513271793.219176: $GPRMC,171634,A,3946.9665,N,08404.9349,W,3.0831,22.245,141217,,*08
2017-12-14 12:16:33 1513271793.219236: $GPGSA,A,3,10,15,20,24,21,27,32,18,,,,,6.6,1.2,6.2*3A
2017-12-14 12:16:34 1513271794.571200: $GPGSV,3,1,12,10,41,300,18,15,38,052,18,20,35,094,17,24,50,112,28*73
2017-12-14 12:16:34 1513271794.950987: $GPGSV,3,2,12,21,64,189,28,27,19,291,09,32,20,237,10,08,05,322,07*73
2017-12-14 12:16:34 1513271794.951129: $GPGSV,3,3,12,13,08,048,00,18,71,336,16,14,03,232,00,138,38,213,00*46
2017-12-14 12:16:34 1513271794.951245: $GPZDA,171635.00,14,12,2017,00,00*63
2017-12-14 12:16:34 1513271794.951304: $GPGGA,171635,3946.9673,N,08404.9341,W,1,09,1.20,380.17,M,-33.324,M,,*7C
2017-12-14 12:16:34 1513271794.951391: $GPRMC,171635,A,3946.9673,N,08404.9341,W,3.0831,22.245,141217,,*06
2017-12-14 12:16:34 1513271794.951473: $GPGSA,A,3,10,15,20,24,21,27,32,8,18,,,,6.6,1.2,6.2*02
2017-12-14 12:16:35 1513271795.234268: $GPZDA,171636.00,14,12,2017,00,00*60
2017-12-14 12:16:35 1513271795.234466: $GPGGA,171636,3946.9679,N,08404.9332,W,1,09,1.20,378.72,M,-33.324,M,,*75
2017-12-14 12:16:35 1513271795.234551: $GPRMC,171636,A,3946.9679,N,08404.9332,W,3.3180,25.604,141217,,*0D
2017-12-14 12:16:35 1513271795.234612: $GPGSA,A,3,10,15,20,24,21,27,32,8,18,,,,6.6,1.2,6.2*02
2017-12-14 12:16:36 1513271796.235616: $GPZDA,171637.00,14,12,2017,00,00*61
2017-12-14 12:16:36 1513271796.235785: $GPGGA,171637,3946.9687,N,08404.9332,W,1,09,1.20,378.59,M,-33.324,M,,*7C
2017-12-14 12:16:36 1513271796.235850: $GPRMC,171637,A,3946.9687,N,08404.9332,W,3.2688,30.327,141217,,*03
2017-12-14 12:16:36 1513271796.235910: $GPGSA,A,3,10,15,20,24,21,27,32,8,18,,,,6.6,1.2,6.2*02
2017-12-14 12:16:37 1513271797.576820: $GPGSV,3,1,12,10,41,300,18,15,38,052,18,20,35,094,16,24,50,112,28*72
2017-12-14 12:16:37 1513271797.577004: $GPGSV,3,2,12,21,64,189,28,27,19,291,10,32,20,237,10,08,05,322,05*79
2017-12-14 12:16:37 1513271797.577070: $GPGSV,3,3,12,13,08,048,00,18,71,336,16,14,03,232,00,138,38,213,00*46
2017-12-14 12:16:37 1513271797.690523: $GPZDA,171638.00,14,12,2017,00,00*6E
2017-12-14 12:16:37 1513271797.690695: $GPGGA,171638,3946.9690,N,08404.9324,W,1,08,1.20,377.91,M,-33.324,M,,*78
2017-12-14 12:16:37 1513271797.690762: $GPRMC,171638,A,3946.9690,N,08404.9324,W,3.1681,26.404,141217,,*06
2017-12-14 12:16:37 1513271797.690822: $GPGSA,A,3,10,15,20,24,21,27,32,18,,,,,6.6,1.2,6.2*3A
2017-12-14 12:16:38 1513271798.235429: $GPZDA,171639.00,14,12,2017,00,00*6F
2017-12-14 12:16:38 1513271798.235589: $GPGGA,171639,3946.9697,N,08404.9323,W,1,08,1.20,377.78,M,-33.324,M,,*7E
2017-12-14 12:16:38 1513271798.235654: $GPRMC,171639,A,3946.9697,N,08404.9323,W,3.0831,22.245,141217,,*04
2017-12-14 12:16:38 1513271798.235715: $GPGSA,A,3,10,15,20,24,21,27,32,18,,,,,6.6,1.2,6.2*3A
2017-12-14 12:16:39 1513271799.235553: $GPZDA,171640.00,14,12,2017,00,00*61
2017-12-14 12:16:39 1513271799.235796: $GPGGA,171640,3946.9701,N,08404.9316,W,1,08,1.20,377.10,M,-33.324,M,,*76
2017-12-14 12:16:39 1513271799.235867: $GPRMC,171640,A,3946.9701,N,08404.9316,W,2.6838,19.603,141217,,*02
2017-12-14 12:16:39 1513271799.235929: $GPGSA,A,3,10,15,20,24,21,27,32,18,,,,,6.6,1.2,6.2*3A
2017-12-14 12:16:40 1513271800.571182: $GPGSV,3,1,12,10,41,300,18,15,38,052,18,20,35,094,16,24,50,112,28*72
2017-12-14 12:16:40 1513271800.571362: $GPGSV,3,2,12,21,64,189,28,27,19,291,11,32,20,237,12,08,05,322,04*7B
2017-12-14 12:16:40 1513271800.571428: $GPGSV,3,3,12,13,08,048,00,18,71,336,15,14,03,232,00,120,07,103,00*42
2017-12-14 12:16:40 1513271800.684580: $GPZDA,171641.00,14,12,2017,00,00*60
2017-12-14 12:16:40 1513271800.684755: $GPGGA,171641,3946.9701,N,08404.9316,W,1,08,1.20,377.10,M,-33.324,M,,*77
2017-12-14 12:16:40 1513271800.684821: $GPRMC,171641,A,3946.9701,N,08404.9316,W,1.9585,18.105,141217,,*04
2017-12-14 12:16:40 1513271800.684881: $GPGSA,A,3,10,15,20,24,21,27,32,18,,,,,6.6,1.2,6.2*3A
2017-12-14 12:16:41 1513271801.219749: $GPZDA,171642.00,14,12,2017,00,00*63
2017-12-14 12:16:41 1513271801.219915: $GPGGA,171642,3946.9704,N,08404.9315,W,1,08,1.20,376.33,M,-33.324,M,,*72
2017-12-14 12:16:41 1513271801.219982: $GPRMC,171642,A,3946.9704,N,08404.9315,W,1.5738,12.547,141217,,*01
2017-12-14 12:16:41 1513271801.220042: $GPGSA,A,3,10,15,20,24,21,27,32,18,,,,,6.6,1.2,6.2*3A
2017-12-14 12:16:42 1513271802.242452: $GPZDA,171643.00,14,12,2017,00,00*62
2017-12-14 12:16:42 1513271802.242636: $GPGGA,171643,3946.9700,N,08404.9322,W,1,08,1.20,375.61,M,-33.324,M,,*77
2017-12-14 12:16:42 1513271802.242703: $GPRMC,171643,A,3946.9700,N,08404.9322,W,0.6846,4.197,141217,,*3A
2017-12-14 12:16:42 1513271802.242763: $GPGSA,A,3,10,15,20,24,21,27,32,18,,,,,6.6,1.2,6.2*3A
2017-12-14 12:16:43 1513271803.554796: $GPGSV,3,1,12,10,41,300,17,15,38,052,18,20,35,094,14,24,50,112,28*7F
2017-12-14 12:16:43 1513271803.554971: $GPGSV,3,2,12,21,64,189,28,27,19,291,11,32,20,237,12,08,05,322,06*79
2017-12-14 12:16:43 1513271803.555037: $GPGSV,3,3,12,13,08,048,00,18,71,336,15,14,03,232,00,120,07,103,00*42
2017-12-14 12:16:43 1513271803.668596: $GPZDA,171644.00,14,12,2017,00,00*65
2017-12-14 12:16:43 1513271803.668909: $GPGGA,171644,3946.9696,N,08404.9322,W,1,08,1.20,374.97,M,-33.324,M,,*76
2017-12-14 12:16:43 1513271803.669032: $GPRMC,171644,A,3946.9696,N,08404.9322,W,0.4179,328.779,141217,,*3F
2017-12-14 12:16:43 1513271803.669177: $GPGSA,A,3,10,15,20,24,21,27,32,18,,,,,6.6,1.2,6.2*3A
