2017-12-31 16:49:28 1514756968.431659: {"class":"VERSION","release":"3.16","rev":"3.16-4","proto_major":3,"proto_minor":11}
2017-12-31 16:49:28 1514756968.431993: {"class":"DEVICES","devices":[{"class":"DEVICE","path":"/dev/ttyUSB0","driver":"SiRF","activated":"2017-12-31T21:49:28.399Z","flags":1,"native":1,"bps":4800,"parity":"N","stopbits":1,"cycle":1.00}]}
2017-12-31 16:49:28 1514756968.432091: {"class":"WATCH","enable":true,"json":false,"nmea":true,"raw":0,"scaled":false,"timing":false,"split24":false,"pps":false}
2017-12-31 16:49:29 1514756969.344844: $GPZDA,214930.00,31,12,2017,00,00*6E
2017-12-31 16:49:29 1514756969.345015: $GPGGA,214930,3946.9576,N,08404.9848,W,2,11,1.00,303.18,M,-33.324,M,,*7E
2017-12-31 16:49:29 1514756969.345082: $GPRMC,214930,A,3946.9576,N,08404.9848,W,0.0000,0.000,311217,,*35
2017-12-31 16:49:29 1514756969.345142: $GPGSA,A,3,22,23,25,3,16,29,31,14,32,26,135,,1.7,1.0,1.3*3B
2017-12-31 16:49:30 1514756970.681230: $GPGSV,3,1,11,22,48,250,44,23,21,306,37,25,08,037,18,03,45,282,30*78
2017-12-31 16:49:30 1514756970.681397: $GPGSV,3,2,11,16,38,189,48,29,14,061,27,31,56,043,51,14,46,106,45*77
2017-12-31 16:49:30 1514756970.681461: $GPGSV,3,3,11,32,25,117,44,26,68,159,41,135,22,240,43*7C
2017-12-31 16:49:30 1514756970.794845: $GPZDA,214931.00,31,12,2017,00,00*6F
2017-12-31 16:49:30 1514756970.794965: $GPGGA,214931,3946.9576,N,08404.9848,W,2,11,0.80,303.18,M,-33.324,M,,*76
2017-12-31 16:49:30 1514756970.795029: $GPRMC,214931,A,3946.9576,N,08404.9848,W,0.0000,0.000,311217,,*34
2017-12-31 16:49:30 1514756970.795088: $GPGSA,A,3,22,23,25,3,16,29,31,14,32,26,135,,1.7,0.8,1.3*32
2017-12-31 16:49:31 1514756971.345725: $GPZDA,214932.00,31,12,2017,00,00*6C
2017-12-31 16:49:31 1514756971.345870: $GPGGA,214932,3946.9576,N,08404.9848,W,2,11,0.80,303.18,M,-33.324,M,,*75
2017-12-31 16:49:31 1514756971.345934: $GPRMC,214932,A,3946.9576,N,08404.9848,W,0.0000,0.000,311217,,*37
2017-12-31 16:49:31 1514756971.345994: $GPGSA,A,3,22,23,25,3,16,29,31,14,32,26,135,,1.7,0.8,1.3*32
2017-12-31 16:49:32 1514756972.344129: $GPZDA,214933.00,31,12,2017,00,00*6D
2017-12-31 16:49:32 1514756972.344297: $GPGGA,214933,3946.9576,N,08404.9848,W,2,11,0.80,303.18,M,-33.324,M,,*74
2017-12-31 16:49:32 1514756972.344363: $GPRMC,214933,A,3946.9576,N,08404.9848,W,0.0000,0.000,311217,,*36
2017-12-31 16:49:32 1514756972.344424: $GPGSA,A,3,22,23,25,3,16,29,31,14,32,26,135,,1.7,0.8,1.3*32
2017-12-31 16:49:33 1514756973.680810: $GPGSV,3,1,11,22,48,250,44,23,21,306,37,25,08,037,26,03,45,282,32*77
2017-12-31 16:49:33 1514756973.680957: $GPGSV,3,2,11,16,38,189,48,29,14,061,28,31,56,043,51,14,46,106,45*78
2017-12-31 16:49:33 1514756973.681023: $GPGSV,3,3,11,32,25,117,44,26,68,159,41,135,22,240,43*7C
2017-12-31 16:49:33 1514756973.794474: $GPZDA,214934.00,31,12,2017,00,00*6A
2017-12-31 16:49:33 1514756973.794608: $GPGGA,214934,3946.9576,N,08404.9848,W,2,11,0.80,303.18,M,-33.324,M,,*73
2017-12-31 16:49:33 1514756973.794671: $GPRMC,214934,A,3946.9576,N,08404.9848,W,0.0000,0.000,311217,,*31
2017-12-31 16:49:33 1514756973.794732: $GPGSA,A,3,22,23,25,3,16,29,31,14,32,26,135,,1.7,0.8,1.3*32
2017-12-31 16:49:34 1514756974.361597: $GPZDA,214935.00,31,12,2017,00,00*6B
2017-12-31 16:49:34 1514756974.361749: $GPGGA,214935,3946.9576,N,08404.9848,W,2,11,0.80,303.18,M,-33.324,M,,*72
2017-12-31 16:49:34 1514756974.361813: $GPRMC,214935,A,3946.9576,N,08404.9848,W,0.0000,0.000,311217,,*30
2017-12-31 16:49:34 1514756974.361873: $GPGSA,A,3,22,23,25,3,16,29,31,14,32,26,135,,1.7,0.8,1.3*32
2017-12-31 16:49:35 1514756975.344160: $GPZDA,214936.00,31,12,2017,00,00*68
2017-12-31 16:49:35 1514756975.344325: $GPGGA,214936,3946.9576,N,08404.9848,W,2,11,1.00,303.18,M,-33.324,M,,*78
2017-12-31 16:49:35 1514756975.344391: $GPRMC,214936,A,3946.9576,N,08404.9848,W,0.0000,0.000,311217,,*33
2017-12-31 16:49:35 1514756975.344452: $GPGSA,A,3,22,23,25,3,16,29,31,14,32,26,135,,1.7,1.0,1.3*3B
2017-12-31 16:49:36 1514756976.683636: $GPGSV,3,1,11,22,48,250,44,23,21,306,38,25,08,037,04,03,45,282,33*79
2017-12-31 16:49:36 1514756976.683819: $GPGSV,3,2,11,16,38,189,48,29,14,061,28,31,56,043,51,14,46,106,45*78
2017-12-31 16:49:36 1514756976.683941: $GPGSV,3,3,11,32,25,117,44,26,68,159,41,135,22,240,44*7B
2017-12-31 16:49:36 1514756976.796977: $GPZDA,214937.00,31,12,2017,00,00*69
2017-12-31 16:49:36 1514756976.797161: $GPGGA,214937,3946.9576,N,08404.9848,W,2,10,1.00,303.18,M,-33.324,M,,*78
2017-12-31 16:49:36 1514756976.797233: $GPRMC,214937,A,3946.9576,N,08404.9848,W,0.0000,0.000,311217,,*32
2017-12-31 16:49:36 1514756976.797294: $GPGSA,A,3,22,23,3,16,29,31,14,32,26,135,,,1.7,1.0,1.3*3C
2017-12-31 16:49:37 1514756977.363051: $GPZDA,214938.00,31,12,2017,00,00*66
2017-12-31 16:49:37 1514756977.363200: $GPGGA,214938,3946.9576,N,08404.9848,W,2,10,0.80,303.18,M,-33.324,M,,*7E
2017-12-31 16:49:37 1514756977.363266: $GPRMC,214938,A,3946.9576,N,08404.9848,W,0.0000,0.000,311217,,*3D
2017-12-31 16:49:37 1514756977.363326: $GPGSA,A,3,22,23,3,16,29,31,14,32,26,135,,,1.7,0.8,1.3*35
2017-12-31 16:49:38 1514756978.353894: $GPZDA,214939.00,31,12,2017,00,00*67
2017-12-31 16:49:38 1514756978.354057: $GPGGA,214939,3946.9576,N,08404.9848,W,2,10,0.80,303.18,M,-33.324,M,,*7F
2017-12-31 16:49:38 1514756978.354124: $GPRMC,214939,A,3946.9576,N,08404.9848,W,0.0000,0.000,311217,,*3C
2017-12-31 16:49:38 1514756978.354185: $GPGSA,A,3,22,23,3,16,29,31,14,32,26,135,,,1.7,0.8,1.3*35
