2017-12-01 16:49:32 1512164972.837761: {"class":"VERSION","release":"3.16","rev":"3.16-4","proto_major":3,"proto_minor":11}
2017-12-01 16:49:32 1512164972.838251: {"class":"DEVICES","devices":[{"class":"DEVICE","path":"/dev/ttyUSB0","driver":"SiRF","subtype":"9\u0006GSD4e_4.1.2-P1_RPATCH.05-F-GPS-4R-1510281 11/03/2015 307","activated":"2017-12-01T21:49:32.468Z","flags":1,"native":1,"bps":4800,"parity":"N","stopbits":1,"cycle":1.00}]}
2017-12-01 16:49:32 1512164972.838368: {"class":"WATCH","enable":true,"json":false,"nmea":true,"raw":0,"scaled":false,"timing":false,"split24":false,"pps":false}
2017-12-01 16:49:33 1512164973.073677: $GPZDA,214933.73,01,12,2017,00,00*6A
2017-12-01 16:49:33 1512164973.073854: $GPGGA,214933,3946.9715,N,08404.9720,W,1,11,1.60,295.70,M,-33.325,M,,*7F
2017-12-01 16:49:33 1512164973.073922: $GPRMC,214933,A,3946.9715,N,08404.9720,W,0.8414,39.347,011217,,*00
2017-12-01 16:49:33 1512164973.073982: $GPGSA,A,3,1,10,14,22,31,32,3,11,18,25,138,,2.0,1.6,1.5*02
2017-12-01 16:49:34 1512164974.177336: $GPZDA,214934.42,01,12,2017,00,00*6F
2017-12-01 16:49:34 1512164974.177513: $GPGGA,214934,3946.9711,N,08404.9720,W,1,11,1.60,295.06,M,-33.325,M,,*7D
2017-12-01 16:49:34 1512164974.177580: $GPRMC,214934,A,3946.9711,N,08404.9720,W,0.4137,44.854,011217,,*08
2017-12-01 16:49:34 1512164974.177642: $GPGSA,A,3,1,10,14,22,31,32,3,11,18,25,138,,2.0,1.6,1.5*02
2017-12-01 16:49:34 1512164974.177701: $GPGBS,214934,10.70,M,15.43,M,35.28,M*0E
2017-12-01 16:49:35 1512164975.342436: $GPGSV,3,1,12,01,22,291,22,03,07,316,17,10,38,151,22,14,69,349,23*7F
2017-12-01 16:49:35 1512164975.342623: $GPGSV,3,2,12,22,26,310,24,31,65,235,24,32,65,051,24,11,05,274,18*75
2017-12-01 16:49:35 1512164975.342691: $GPGSV,3,3,12,25,41,078,00,12,18,042,00,26,10,181,00,138,38,213,00*47
2017-12-01 16:49:35 1512164975.455927: $GPZDA,214935.00,01,12,2017,00,00*68
2017-12-01 16:49:35 1512164975.456095: $GPGGA,214935,3946.9708,N,08404.9720,W,1,08,1.40,295.82,M,-33.325,M,,*72
2017-12-01 16:49:35 1512164975.456161: $GPRMC,214935,A,3946.9708,N,08404.9720,W,0.3106,69.940,011217,,*0F
2017-12-01 16:49:35 1512164975.456222: $GPGSA,A,3,1,3,10,14,22,31,32,11,,,,,2.0,1.4,1.5*34
2017-12-01 16:49:35 1512164975.908074: $GPZDA,214936.00,01,12,2017,00,00*6B
2017-12-01 16:49:35 1512164975.908268: $GPGGA,214936,3946.9708,N,08404.9720,W,1,08,1.40,295.82,M,-33.325,M,,*71
2017-12-01 16:49:35 1512164975.908336: $GPRMC,214936,A,3946.9708,N,08404.9720,W,0.0407,142.012,011217,,*3D
2017-12-01 16:49:35 1512164975.908398: $GPGSA,A,3,1,3,10,14,22,31,32,11,,,,,2.0,1.4,1.5*34
2017-12-01 16:49:36 1512164976.363813: $GPZDA,214937.00,01,12,2017,00,00*6A
2017-12-01 16:49:36 1512164976.363994: $GPGGA,214937,3946.9704,N,08404.9721,W,1,08,0.80,296.59,M,-33.325,M,,*75
2017-12-01 16:49:36 1512164976.364061: $GPRMC,214937,A,3946.9704,N,08404.9721,W,0.1867,180.000,011217,,*37
2017-12-01 16:49:36 1512164976.364123: $GPGSA,A,3,1,3,10,14,22,31,32,11,,,,,2.0,0.8,1.5*39
2017-12-01 16:49:37 1512164977.702799: $GPGSV,3,1,12,01,22,291,44,03,07,316,33,10,38,151,42,14,69,349,46*7C
2017-12-01 16:49:37 1512164977.702993: $GPGSV,3,2,12,22,26,310,47,31,65,235,48,32,65,051,49,11,05,274,36*7D
2017-12-01 16:49:37 1512164977.703082: $GPGSV,3,3,12,18,10,147,19,25,41,078,22,26,10,181,23,138,38,213,38*43
2017-12-01 16:49:37 1512164977.816259: $GPZDA,214938.00,01,12,2017,00,00*65
2017-12-01 16:49:37 1512164977.816428: $GPGGA,214938,3946.9701,N,08404.9722,W,1,12,0.80,297.35,M,-33.325,M,,*7C
2017-12-01 16:49:37 1512164977.816494: $GPRMC,214938,A,3946.9701,N,08404.9722,W,0.0000,0.000,011217,,*3F
2017-12-01 16:49:37 1512164977.816556: $GPGSA,A,3,1,3,10,14,22,31,32,11,18,25,26,138,2.0,0.8,1.5*09
2017-12-01 16:49:38 1512164978.367413: $GPZDA,214939.00,01,12,2017,00,00*64
2017-12-01 16:49:38 1512164978.367587: $GPGGA,214939,3946.9701,N,08404.9729,W,1,12,0.80,297.27,M,-33.325,M,,*75
2017-12-01 16:49:38 1512164978.367654: $GPRMC,214939,A,3946.9701,N,08404.9729,W,0.0000,0.000,011217,,*35
2017-12-01 16:49:38 1512164978.367715: $GPGSA,A,3,1,3,10,14,22,31,32,11,18,25,26,138,2.0,0.8,1.5*09
2017-12-01 16:49:39 1512164979.365327: $GPZDA,214940.00,01,12,2017,00,00*6A
2017-12-01 16:49:39 1512164979.365557: $GPGGA,214940,3946.9698,N,08404.9729,W,1,12,0.80,298.04,M,-33.325,M,,*74
2017-12-01 16:49:39 1512164979.365627: $GPRMC,214940,A,3946.9698,N,08404.9729,W,0.0000,0.000,011217,,*3A
2017-12-01 16:49:39 1512164979.365688: $GPGSA,A,3,1,3,10,14,22,31,32,11,18,25,26,138,2.0,0.8,1.5*09
2017-12-01 16:49:39 1512164979.365747: $GPGBS,214940,10.70,M,15.43,M,35.28,M*0D
2017-12-01 16:49:40 1512164980.702272: $GPGSV,3,1,12,01,22,291,43,03,07,316,33,10,38,151,41,14,69,349,46*78
2017-12-01 16:49:40 1512164980.702456: $GPGSV,3,2,12,22,26,310,47,31,65,235,48,32,65,051,49,11,05,274,35*7E
2017-12-01 16:49:40 1512164980.702523: $GPGSV,3,3,12,18,10,147,20,25,41,078,22,26,10,181,22,138,38,213,39*49
2017-12-01 16:49:40 1512164980.815943: $GPZDA,214941.00,01,12,2017,00,00*6B
2017-12-01 16:49:40 1512164980.816108: $GPGGA,214941,3946.9694,N,08404.9730,W,1,12,0.80,298.80,M,-33.325,M,,*7D
2017-12-01 16:49:40 1512164980.816173: $GPRMC,214941,A,3946.9694,N,08404.9730,W,0.0000,0.000,011217,,*3F
2017-12-01 16:49:40 1512164980.816233: $GPGSA,A,3,1,3,10,14,22,31,32,11,18,25,26,138,2.0,0.8,1.5*09
2017-12-01 16:49:41 1512164981.368079: $GPZDA,214942.00,01,12,2017,00,00*68
2017-12-01 16:49:41 1512164981.368260: $GPGGA,214942,3946.9691,N,08404.9731,W,1,12,0.80,299.57,M,-33.324,M,,*70
2017-12-01 16:49:41 1512164981.368328: $GPRMC,214942,A,3946.9691,N,08404.9731,W,0.0000,0.000,011217,,*38
2017-12-01 16:49:41 1512164981.368388: $GPGSA,A,3,1,3,10,14,22,31,32,11,18,25,26,138,2.0,0.8,1.5*09
2017-12-01 16:49:42 1512164982.367240: $GPZDA,214943.00,01,12,2017,00,00*69
2017-12-01 16:49:42 1512164982.367416: $GPGGA,214943,3946.9691,N,08404.9731,W,1,12,0.80,299.57,M,-33.324,M,,*71
2017-12-01 16:49:42 1512164982.367481: $GPRMC,214943,A,3946.9691,N,08404.9731,W,0.0000,0.000,011217,,*39
2017-12-01 16:49:42 1512164982.367544: $GPGSA,A,3,1,3,10,14,22,31,32,11,18,25,26,138,2.0,0.8,1.5*09
2017-12-01 16:49:43 1512164983.702696: $GPGSV,3,1,12,01,22,291,42,03,07,316,33,10,38,151,40,14,69,349,45*7B
2017-12-01 16:49:43 1512164983.702885: $GPGSV,3,2,12,22,26,310,48,31,65,235,48,32,65,051,49,11,05,274,34*70
2017-12-01 16:49:43 1512164983.702956: $GPGSV,3,3,12,18,10,147,20,25,41,078,23,26,10,181,23,138,38,213,39*49
2017-12-01 16:49:43 1512164983.816065: $GPZDA,214944.00,01,12,2017,00,00*6E
2017-12-01 16:49:43 1512164983.816360: $GPGGA,214944,3946.9687,N,08404.9732,W,1,12,0.80,300.33,M,-33.324,M,,*71
2017-12-01 16:49:43 1512164983.816486: $GPRMC,214944,A,3946.9687,N,08404.9732,W,0.0000,0.000,011217,,*3A
2017-12-01 16:49:43 1512164983.816605: $GPGSA,A,3,1,3,10,14,22,31,32,11,18,25,26,138,2.0,0.8,1.5*09
2017-12-01 16:49:44 1512164984.368125: $GPZDA,214945.00,01,12,2017,00,00*6F
2017-12-01 16:49:44 1512164984.368306: $GPGGA,214945,3946.9687,N,08404.9732,W,1,12,0.80,300.33,M,-33.324,M,,*70
2017-12-01 16:49:44 1512164984.368375: $GPRMC,214945,A,3946.9687,N,08404.9732,W,0.0000,0.000,011217,,*3B
2017-12-01 16:49:44 1512164984.368436: $GPGSA,A,3,1,3,10,14,22,31,32,11,18,25,26,138,2.0,0.8,1.5*09
2017-12-01 16:49:45 1512164985.366679: $GPZDA,214946.00,01,12,2017,00,00*6C
2017-12-01 16:49:45 1512164985.366866: $GPGGA,214946,3946.9684,N,08404.9739,W,1,12,0.80,301.02,M,-33.324,M,,*78
2017-12-01 16:49:45 1512164985.366934: $GPRMC,214946,A,3946.9684,N,08404.9739,W,0.0000,0.000,011217,,*30
2017-12-01 16:49:45 1512164985.366995: $GPGSA,A,3,1,3,10,14,22,31,32,11,18,25,26,138,2.0,0.8,1.5*09
2017-12-01 16:49:46 1512164986.702236: $GPGSV,3,1,12,01,22,291,42,03,07,316,34,10,38,151,40,14,69,349,45*7C
2017-12-01 16:49:46 1512164986.702414: $GPGSV,3,2,12,22,26,310,48,31,65,235,48,32,65,051,49,11,05,274,35*71
2017-12-01 16:49:46 1512164986.702481: $GPGSV,3,3,12,18,10,147,21,25,41,078,24,26,10,181,24,138,38,213,38*49
2017-12-01 16:49:46 1512164986.815564: $GPZDA,214947.00,01,12,2017,00,00*6D
2017-12-01 16:49:46 1512164986.815784: $GPGGA,214947,3946.9684,N,08404.9739,W,1,12,0.80,301.02,M,-33.324,M,,*79
2017-12-01 16:49:46 1512164986.815853: $GPRMC,214947,A,3946.9684,N,08404.9739,W,0.0000,0.000,011217,,*31
2017-12-01 16:49:46 1512164986.815962: $GPGSA,A,3,1,3,10,14,22,31,32,11,18,25,26,138,2.0,0.8,1.5*09
2017-12-01 16:49:47 1512164987.442327: $GPZDA,214948.00,01,12,2017,00,00*62
2017-12-01 16:49:47 1512164987.442507: $GPGGA,214948,3946.9681,N,08404.9740,W,1,12,0.80,301.78,M,-33.324,M,,*70
2017-12-01 16:49:47 1512164987.442573: $GPRMC,214948,A,3946.9681,N,08404.9740,W,0.0000,0.000,011217,,*35
2017-12-01 16:49:47 1512164987.442655: $GPGSA,A,3,1,3,10,14,22,31,32,11,18,25,26,138,2.0,0.8,1.5*09
2017-12-01 16:49:48 1512164988.365580: $GPZDA,214949.00,01,12,2017,00,00*63
2017-12-01 16:49:48 1512164988.368331: $GPGGA,214949,3946.9681,N,08404.9740,W,1,12,0.80,301.78,M,-33.324,M,,*71
2017-12-01 16:49:48 1512164988.368442: $GPRMC,214949,A,3946.9681,N,08404.9740,W,0.0000,0.000,011217,,*34
2017-12-01 16:49:48 1512164988.368506: $GPGSA,A,3,1,3,10,14,22,31,32,11,18,25,26,138,2.0,0.8,1.5*09
2017-12-01 16:49:49 1512164989.703856: $GPGSV,3,1,12,01,22,291,42,03,07,316,34,10,38,151,39,14,69,349,45*72
2017-12-01 16:49:49 1512164989.704041: $GPGSV,3,2,12,22,26,310,48,31,65,235,48,32,65,051,49,12,18,042,17*79
2017-12-01 16:49:49 1512164989.704107: $GPGSV,3,3,12,18,10,147,22,25,41,078,25,26,10,181,23,138,38,213,40*43
2017-12-01 16:49:49 1512164989.817500: $GPZDA,214950.00,01,12,2017,00,00*6B
2017-12-01 16:49:49 1512164989.817666: $GPGGA,214950,3946.9681,N,08404.9740,W,1,12,0.80,301.78,M,-33.324,M,,*79
2017-12-01 16:49:49 1512164989.817731: $GPRMC,214950,A,3946.9681,N,08404.9740,W,0.0000,0.000,011217,,*3C
2017-12-01 16:49:49 1512164989.817791: $GPGSA,A,3,1,3,10,14,22,31,32,12,18,25,26,138,2.0,0.8,1.5*0A
2017-12-01 16:49:50 1512164990.367498: $GPZDA,214951.00,01,12,2017,00,00*6A
2017-12-01 16:49:50 1512164990.367675: $GPGGA,214951,3946.9677,N,08404.9741,W,1,12,1.00,302.55,M,-33.324,M,,*75
2017-12-01 16:49:50 1512164990.367742: $GPRMC,214951,A,3946.9677,N,08404.9741,W,0.0000,0.000,011217,,*35
2017-12-01 16:49:50 1512164990.367803: $GPGSA,A,3,1,3,10,14,22,31,32,12,18,25,26,138,2.0,1.0,1.5*03
2017-12-01 16:49:51 1512164991.367845: $GPZDA,214952.00,01,12,2017,00,00*69
2017-12-01 16:49:51 1512164991.368031: $GPGGA,214952,3946.9677,N,08404.9741,W,1,12,0.80,302.55,M,-33.324,M,,*7F
2017-12-01 16:49:51 1512164991.368100: $GPRMC,214952,A,3946.9677,N,08404.9741,W,0.0000,0.000,011217,,*36
2017-12-01 16:49:51 1512164991.368161: $GPGSA,A,3,1,3,10,14,22,31,32,12,18,25,26,138,2.0,0.8,1.5*0A
2017-12-01 16:49:51 1512164991.368220: $GPGBS,214952,10.70,M,15.43,M,35.28,M*0E
2017-12-01 16:49:52 1512164992.701630: $GPGSV,3,1,12,01,22,291,41,03,07,316,34,10,38,151,39,14,69,349,45*71
2017-12-01 16:49:52 1512164992.701827: $GPGSV,3,2,12,22,26,310,48,31,65,235,47,32,65,051,49,11,05,274,35*7E
2017-12-01 16:49:52 1512164992.701896: $GPGSV,3,3,12,18,10,147,22,25,41,078,00,26,10,181,23,138,38,213,40*44
2017-12-01 16:49:52 1512164992.815025: $GPZDA,214953.00,01,12,2017,00,00*68
2017-12-01 16:49:52 1512164992.815212: $GPGGA,214953,3946.9678,N,08404.9748,W,1,11,1.20,302.47,M,-33.324,M,,*73
2017-12-01 16:49:52 1512164992.815278: $GPRMC,214953,A,3946.9678,N,08404.9748,W,0.0000,0.000,011217,,*31
2017-12-01 16:49:52 1512164992.815338: $GPGSA,A,3,1,3,10,14,22,31,32,11,18,26,138,,2.0,1.2,1.5*05
