2017-11-16 14:25:40 1510860340.310937: {"class":"VERSION","release":"3.17","rev":"3.17","proto_major":3,"proto_minor":12}
2017-11-16 14:25:40 1510860340.311411: {"class":"DEVICES","devices":[{"class":"DEVICE","path":"/dev/ttyUSB0","driver":"SiRF","subtype":"9\u0006GSD4e_4.1.2-P1_RPATCH.05-F-GPS-4R-1510281 11/03/2015 307","activated":"2017-11-16T19:25:40.092Z","flags":1,"native":1,"bps":4800,"parity":"N","stopbits":1,"cycle":1.00}]}
2017-11-16 14:25:40 1510860340.311532: {"class":"WATCH","enable":true,"json":false,"nmea":true,"raw":0,"scaled":false,"timing":false,"split24":false,"pps":false}
2017-11-16 14:25:40 1510860340.503017: $GPZDA,192539.00,16,11,2017,00,00*60
2017-11-16 14:25:40 1510860340.503176: $GPGGA,192539,3946.9569,N,08404.9849,W,2,11,0.80,303.30,M,-33.324,M,,*7A
2017-11-16 14:25:40 1510860340.503239: $GPRMC,192539,A,3946.9569,N,08404.9849,W,0.0000,0.000,161117,,*34
2017-11-16 14:25:40 1510860340.503295: $GPGSA,A,3,8,10,15,18,21,20,24,27,32,14,138,,1.6,0.8,1.3*37
2017-11-16 14:25:41 1510860341.534087: $GPZDA,192540.00,16,11,2017,00,00*6E
2017-11-16 14:25:41 1510860341.534243: $GPGGA,192540,3946.9569,N,08404.9849,W,2,11,1.00,303.30,M,-33.324,M,,*7D
2017-11-16 14:25:41 1510860341.534304: $GPRMC,192540,A,3946.9569,N,08404.9849,W,0.0000,0.000,161117,,*3A
2017-11-16 14:25:41 1510860341.534361: $GPGSA,A,3,8,10,15,18,21,20,24,27,32,14,138,,1.6,1.0,1.3*3E
2017-11-16 14:25:42 1510860342.843360: $GPGSV,3,1,12,08,07,318,40,10,46,306,48,13,03,051,03,15,33,054,51*74
2017-11-16 14:25:42 1510860342.843527: $GPGSV,3,2,12,18,74,349,46,21,58,187,45,20,29,100,46,24,52,102,48*78
2017-11-16 14:25:42 1510860342.843589: $GPGSV,3,3,12,27,18,283,42,32,25,241,46,14,08,235,18,138,38,213,44*4B
2017-11-16 14:25:42 1510860342.957127: $GPZDA,192541.00,16,11,2017,00,00*6F
2017-11-16 14:25:42 1510860342.957286: $GPGGA,192541,3946.9569,N,08404.9849,W,2,10,1.00,303.30,M,-33.324,M,,*7D
2017-11-16 14:25:42 1510860342.957348: $GPRMC,192541,A,3946.9569,N,08404.9849,W,0.0000,0.000,161117,,*3B
2017-11-16 14:25:42 1510860342.957404: $GPGSA,A,3,8,10,15,18,21,20,24,27,32,138,,,1.6,1.0,1.3*3B
2017-11-16 14:25:43 1510860343.534020: $GPZDA,192542.00,16,11,2017,00,00*6C
2017-11-16 14:25:43 1510860343.534175: $GPGGA,192542,3946.9569,N,08404.9849,W,2,10,0.80,303.30,M,-33.324,M,,*77
2017-11-16 14:25:43 1510860343.534237: $GPRMC,192542,A,3946.9569,N,08404.9849,W,0.0000,0.000,161117,,*38
2017-11-16 14:25:43 1510860343.534293: $GPGSA,A,3,8,10,15,18,21,20,24,27,32,138,,,1.6,0.8,1.3*32
2017-11-16 14:25:44 1510860344.534134: $GPZDA,192543.00,16,11,2017,00,00*6D
2017-11-16 14:25:44 1510860344.534298: $GPGGA,192543,3946.9569,N,08404.9849,W,2,10,0.80,303.30,M,-33.324,M,,*76
2017-11-16 14:25:44 1510860344.534363: $GPRMC,192543,A,3946.9569,N,08404.9849,W,0.0000,0.000,161117,,*39
2017-11-16 14:25:44 1510860344.534420: $GPGSA,A,3,8,10,15,18,21,20,24,27,32,138,,,1.6,0.8,1.3*32
2017-11-16 14:25:45 1510860345.870063: $GPGSV,3,1,12,08,07,318,40,10,46,306,48,13,03,051,00,15,33,054,50*76
2017-11-16 14:25:45 1510860345.870231: $GPGSV,3,2,12,18,74,349,46,21,58,187,45,20,29,100,46,24,52,102,48*78
2017-11-16 14:25:45 1510860345.870344: $GPGSV,3,3,12,27,18,283,42,32,25,241,46,14,08,235,30,138,38,213,44*41
2017-11-16 14:25:45 1510860345.983653: $GPZDA,192544.00,16,11,2017,00,00*6A
2017-11-16 14:25:45 1510860345.983816: $GPGGA,192544,3946.9569,N,08404.9849,W,2,11,0.80,303.30,M,-33.324,M,,*70
2017-11-16 14:25:45 1510860345.983878: $GPRMC,192544,A,3946.9569,N,08404.9849,W,0.0000,0.000,161117,,*3E
2017-11-16 14:25:45 1510860345.983934: $GPGSA,A,3,8,10,15,18,21,20,24,27,32,14,138,,1.6,0.8,1.3*37
2017-11-16 14:25:46 1510860346.504559: $GPZDA,192545.00,16,11,2017,00,00*6B
2017-11-16 14:25:46 1510860346.504722: $GPGGA,192545,3946.9569,N,08404.9849,W,2,11,0.80,303.30,M,-33.324,M,,*71
2017-11-16 14:25:46 1510860346.504787: $GPRMC,192545,A,3946.9569,N,08404.9849,W,0.0000,0.000,161117,,*3F
2017-11-16 14:25:46 1510860346.504843: $GPGSA,A,3,8,10,15,18,21,20,24,27,32,14,138,,1.6,0.8,1.3*37
2017-11-16 14:25:47 1510860347.535376: $GPZDA,192546.00,16,11,2017,00,00*68
2017-11-16 14:25:47 1510860347.535584: $GPGGA,192546,3946.9569,N,08404.9849,W,2,11,0.80,303.30,M,-33.324,M,,*72
2017-11-16 14:25:47 1510860347.535650: $GPRMC,192546,A,3946.9569,N,08404.9849,W,0.0000,0.000,161117,,*3C
2017-11-16 14:25:47 1510860347.535710: $GPGSA,A,3,8,10,15,18,21,20,24,27,32,14,138,,1.6,0.8,1.3*37
2017-11-16 14:25:48 1510860348.834717: $GPGSV,3,1,12,08,07,318,40,10,46,306,48,13,03,051,00,15,33,054,50*76
2017-11-16 14:25:48 1510860348.834886: $GPGSV,3,2,12,18,74,349,46,21,58,187,45,20,29,100,46,24,52,102,48*78
2017-11-16 14:25:48 1510860348.834947: $GPGSV,3,3,12,27,18,283,42,32,25,241,46,14,08,235,31,138,38,213,44*40
2017-11-16 14:25:48 1510860348.948298: $GPZDA,192547.00,16,11,2017,00,00*69
2017-11-16 14:25:48 1510860348.948459: $GPGGA,192547,3946.9569,N,08404.9849,W,2,11,0.80,303.30,M,-33.324,M,,*73
2017-11-16 14:25:48 1510860348.948521: $GPRMC,192547,A,3946.9569,N,08404.9849,W,0.0000,0.000,161117,,*3D
2017-11-16 14:25:48 1510860348.948577: $GPGSA,A,3,8,10,15,18,21,20,24,27,32,14,138,,1.6,0.8,1.3*37
2017-11-16 14:25:49 1510860349.573806: $GPZDA,192548.00,16,11,2017,00,00*66
2017-11-16 14:25:49 1510860349.573967: $GPGGA,192548,3946.9569,N,08404.9849,W,2,11,0.80,303.30,M,-33.324,M,,*7C
2017-11-16 14:25:49 1510860349.574029: $GPRMC,192548,A,3946.9569,N,08404.9849,W,0.0000,0.000,161117,,*32
2017-11-16 14:25:49 1510860349.574086: $GPGSA,A,3,8,10,15,18,21,20,24,27,32,14,138,,1.6,0.8,1.3*37
2017-11-16 14:25:50 1510860350.504302: $GPZDA,192549.00,16,11,2017,00,00*67
2017-11-16 14:25:50 1510860350.504474: $GPGGA,192549,3946.9569,N,08404.9849,W,2,11,0.80,303.30,M,-33.324,M,,*7D
2017-11-16 14:25:50 1510860350.504536: $GPRMC,192549,A,3946.9569,N,08404.9849,W,0.0000,0.000,161117,,*33
2017-11-16 14:25:50 1510860350.504592: $GPGSA,A,3,8,10,15,18,21,20,24,27,32,14,138,,1.6,0.8,1.3*37
2017-11-16 14:25:51 1510860351.838996: $GPGSV,3,1,12,08,07,318,39,10,46,306,48,13,03,051,00,15,33,054,50*78
2017-11-16 14:25:51 1510860351.839135: $GPGSV,3,2,12,18,74,349,46,21,58,187,45,20,29,100,46,24,52,102,48*78
2017-11-16 14:25:51 1510860351.839197: $GPGSV,3,3,12,27,18,283,42,32,25,241,46,14,08,235,31,138,38,213,42*46
2017-11-16 14:25:51 1510860351.952221: $GPZDA,192550.00,16,11,2017,00,00*6F
2017-11-16 14:25:51 1510860351.952389: $GPGGA,192550,3946.9569,N,08404.9849,W,2,11,0.80,303.30,M,-33.324,M,,*75
2017-11-16 14:25:51 1510860351.952452: $GPRMC,192550,A,3946.9569,N,08404.9849,W,0.0000,0.000,161117,,*3B
2017-11-16 14:25:51 1510860351.952508: $GPGSA,A,3,8,10,15,18,21,20,24,27,32,14,138,,1.6,0.8,1.3*37
2017-11-16 14:25:52 1510860352.534364: $GPZDA,192551.00,16,11,2017,00,00*6E
2017-11-16 14:25:52 1510860352.534534: $GPGGA,192551,3946.9569,N,08404.9849,W,2,11,0.80,303.30,M,-33.324,M,,*74
2017-11-16 14:25:52 1510860352.534598: $GPRMC,192551,A,3946.9569,N,08404.9849,W,0.0000,0.000,161117,,*3A
2017-11-16 14:25:52 1510860352.534655: $GPGSA,A,3,8,10,15,18,21,20,24,27,32,14,138,,1.6,0.8,1.3*37
2017-11-16 14:25:53 1510860353.534437: $GPZDA,192552.00,16,11,2017,00,00*6D
2017-11-16 14:25:53 1510860353.534629: $GPGGA,192552,3946.9569,N,08404.9849,W,2,11,0.80,303.30,M,-33.324,M,,*77
2017-11-16 14:25:53 1510860353.534693: $GPRMC,192552,A,3946.9569,N,08404.9849,W,0.0000,0.000,161117,,*39
2017-11-16 14:25:53 1510860353.534758: $GPGSA,A,3,8,10,15,18,21,20,24,27,32,14,138,,1.6,0.8,1.3*37
2017-11-16 14:25:54 1510860354.866868: $GPGSV,3,1,12,08,07,318,37,10,46,306,48,13,03,051,00,15,33,054,50*76
2017-11-16 14:25:54 1510860354.867043: $GPGSV,3,2,12,18,74,349,46,21,58,187,46,20,29,100,46,24,52,102,48*7B
2017-11-16 14:25:54 1510860354.867104: $GPGSV,3,3,12,27,18,283,42,32,25,241,46,14,08,235,31,138,38,213,43*47
2017-11-16 14:25:54 1510860354.980082: $GPZDA,192553.00,16,11,2017,00,00*6C
2017-11-16 14:25:54 1510860354.980193: $GPGGA,192553,3946.9569,N,08404.9849,W,2,11,0.80,303.30,M,-33.324,M,,*76
2017-11-16 14:25:54 1510860354.980254: $GPRMC,192553,A,3946.9569,N,08404.9849,W,0.0000,0.000,161117,,*38
2017-11-16 14:25:54 1510860354.980368: $GPGSA,A,3,8,10,15,18,21,20,24,27,32,14,138,,1.6,0.8,1.3*37
2017-11-16 14:25:55 1510860355.509764: $GPZDA,192554.00,16,11,2017,00,00*6B
2017-11-16 14:25:55 1510860355.509991: $GPGGA,192554,3946.9569,N,08404.9849,W,2,11,0.80,303.30,M,-33.324,M,,*71
2017-11-16 14:25:55 1510860355.510057: $GPRMC,192554,A,3946.9569,N,08404.9849,W,0.0000,0.000,161117,,*3F
2017-11-16 14:25:55 1510860355.510116: $GPGSA,A,3,8,10,15,18,21,20,24,27,32,14,138,,1.6,0.8,1.3*37
2017-11-16 14:25:56 1510860356.499415: $GPZDA,192555.00,16,11,2017,00,00*6A
2017-11-16 14:25:56 1510860356.499588: $GPGGA,192555,3946.9569,N,08404.9849,W,2,11,0.80,303.30,M,-33.324,M,,*70
2017-11-16 14:25:56 1510860356.499652: $GPRMC,192555,A,3946.9569,N,08404.9849,W,0.0000,0.000,161117,,*3E
2017-11-16 14:25:56 1510860356.499708: $GPGSA,A,3,8,10,15,18,21,20,24,27,32,14,138,,1.6,0.8,1.3*37
2017-11-16 14:25:57 1510860357.840240: $GPGSV,3,1,12,08,07,318,32,10,46,306,48,13,03,051,19,15,33,054,50*7B
2017-11-16 14:25:57 1510860357.840457: $GPGSV,3,2,12,18,74,349,46,21,58,187,46,20,29,100,46,24,52,102,48*7B
2017-11-16 14:25:57 1510860357.840519: $GPGSV,3,3,12,27,18,283,42,32,25,241,46,14,08,235,31,138,38,213,44*40
2017-11-16 14:25:57 1510860357.953465: $GPZDA,192556.00,16,11,2017,00,00*69
2017-11-16 14:25:57 1510860357.953594: $GPGGA,192556,3946.9569,N,08404.9849,W,2,12,0.80,303.30,M,-33.324,M,,*70
2017-11-16 14:25:57 1510860357.953658: $GPRMC,192556,A,3946.9569,N,08404.9849,W,0.0000,0.000,161117,,*3D
2017-11-16 14:25:57 1510860357.953714: $GPGSA,A,3,8,10,13,15,18,21,20,24,27,32,14,138,1.6,0.8,1.3*35
2017-11-16 14:25:58 1510860358.504691: $GPZDA,192557.00,16,11,2017,00,00*68
2017-11-16 14:25:58 1510860358.504872: $GPGGA,192557,3946.9569,N,08404.9849,W,2,12,0.80,303.30,M,-33.324,M,,*71
2017-11-16 14:25:58 1510860358.504936: $GPRMC,192557,A,3946.9569,N,08404.9849,W,0.0000,0.000,161117,,*3C
2017-11-16 14:25:58 1510860358.504994: $GPGSA,A,3,8,10,13,15,18,21,20,24,27,32,14,138,1.6,0.8,1.3*35
2017-11-16 14:25:59 1510860359.504315: $GPZDA,192558.00,16,11,2017,00,00*67
2017-11-16 14:25:59 1510860359.504481: $GPGGA,192558,3946.9569,N,08404.9849,W,2,12,0.80,303.30,M,-33.324,M,,*7E
2017-11-16 14:25:59 1510860359.504543: $GPRMC,192558,A,3946.9569,N,08404.9849,W,0.0000,0.000,161117,,*33
2017-11-16 14:25:59 1510860359.504599: $GPGSA,A,3,8,10,13,15,18,21,20,24,27,32,14,138,1.6,0.8,1.3*35
2017-11-16 14:26:00 1510860360.840683: $GPGSV,3,1,12,08,07,318,25,10,46,306,47,13,03,051,20,15,33,054,50*78
2017-11-16 14:26:00 1510860360.840858: $GPGSV,3,2,12,18,74,349,46,21,58,187,46,20,29,100,46,24,52,102,48*7B
2017-11-16 14:26:00 1510860360.840926: $GPGSV,3,3,12,27,18,283,42,32,25,241,45,14,08,235,32,138,38,213,44*40
2017-11-16 14:26:00 1510860360.954398: $GPZDA,192559.00,16,11,2017,00,00*66
2017-11-16 14:26:00 1510860360.954551: $GPGGA,192559,3946.9569,N,08404.9849,W,2,12,0.80,303.30,M,-33.324,M,,*7F
2017-11-16 14:26:00 1510860360.954610: $GPRMC,192559,A,3946.9569,N,08404.9849,W,0.0000,0.000,161117,,*32
2017-11-16 14:26:00 1510860360.954666: $GPGSA,A,3,8,10,13,15,18,21,20,24,27,32,14,138,1.6,0.8,1.3*35
2017-11-16 14:26:01 1510860361.536464: $GPZDA,192600.00,16,11,2017,00,00*69
2017-11-16 14:26:01 1510860361.536625: $GPGGA,192600,3946.9569,N,08404.9849,W,2,12,0.80,303.30,M,-33.324,M,,*70
2017-11-16 14:26:01 1510860361.536686: $GPRMC,192600,A,3946.9569,N,08404.9849,W,0.0000,0.000,161117,,*3D
2017-11-16 14:26:01 1510860361.536742: $GPGSA,A,3,8,10,13,15,18,21,20,24,27,32,14,138,1.6,0.8,1.3*35
2017-11-16 14:26:02 1510860362.535709: $GPZDA,192601.00,16,11,2017,00,00*68
2017-11-16 14:26:02 1510860362.535886: $GPGGA,192601,3946.9569,N,08404.9849,W,2,12,0.80,303.30,M,-33.324,M,,*71
2017-11-16 14:26:02 1510860362.535951: $GPRMC,192601,A,3946.9569,N,08404.9849,W,0.0000,0.000,161117,,*3C
2017-11-16 14:26:02 1510860362.536008: $GPGSA,A,3,8,10,13,15,18,21,20,24,27,32,14,138,1.6,0.8,1.3*35
2017-11-16 14:26:03 1510860363.871672: $GPGSV,3,1,12,08,07,318,28,10,46,306,47,13,03,051,18,15,33,054,51*7F
2017-11-16 14:26:03 1510860363.871830: $GPGSV,3,2,12,18,74,349,46,21,58,187,46,20,29,100,46,24,52,102,47*74
2017-11-16 14:26:03 1510860363.871892: $GPGSV,3,3,12,27,18,283,41,32,25,241,45,14,08,235,33,138,38,213,44*42
2017-11-16 14:26:03 1510860363.984981: $GPZDA,192602.00,16,11,2017,00,00*6B
2017-11-16 14:26:03 1510860363.985165: $GPGGA,192602,3946.9569,N,08404.9849,W,2,12,0.80,303.30,M,-33.324,M,,*72
2017-11-16 14:26:03 1510860363.985229: $GPRMC,192602,A,3946.9569,N,08404.9849,W,0.0000,0.000,161117,,*3F
2017-11-16 14:26:03 1510860363.985285: $GPGSA,A,3,8,10,13,15,18,21,20,24,27,32,14,138,1.6,0.8,1.3*35
2017-11-16 14:26:04 1510860364.610474: $GPZDA,192603.00,16,11,2017,00,00*6A
2017-11-16 14:26:04 1510860364.610619: $GPGGA,192603,3946.9569,N,08404.9849,W,2,12,0.80,303.30,M,-33.324,M,,*73
2017-11-16 14:26:04 1510860364.610682: $GPRMC,192603,A,3946.9569,N,08404.9849,W,0.0000,0.000,161117,,*3E
2017-11-16 14:26:04 1510860364.610739: $GPGSA,A,3,8,10,13,15,18,21,20,24,27,32,14,138,1.6,0.8,1.3*35
2017-11-16 14:26:05 1510860365.535043: $GPZDA,192604.00,16,11,2017,00,00*6D
2017-11-16 14:26:05 1510860365.535210: $GPGGA,192604,3946.9569,N,08404.9849,W,2,12,0.80,303.30,M,-33.324,M,,*74
2017-11-16 14:26:05 1510860365.535274: $GPRMC,192604,A,3946.9569,N,08404.9849,W,0.0000,0.000,161117,,*39
2017-11-16 14:26:05 1510860365.535332: $GPGSA,A,3,8,10,13,15,18,21,20,24,27,32,14,138,1.6,0.8,1.3*35
2017-11-16 14:26:06 1510860366.835818: $GPGSV,3,1,12,08,07,318,32,10,46,306,47,13,03,051,00,15,33,054,50*7C
2017-11-16 14:26:06 1510860366.836004: $GPGSV,3,2,12,18,74,349,46,21,58,187,46,20,29,100,46,24,52,102,47*74
2017-11-16 14:26:06 1510860366.836066: $GPGSV,3,3,12,27,18,283,41,32,25,241,46,14,08,235,34,138,38,213,44*46
2017-11-16 14:26:06 1510860366.949124: $GPZDA,192605.00,16,11,2017,00,00*6C
2017-11-16 14:26:06 1510860366.949280: $GPGGA,192605,3946.9569,N,08404.9849,W,2,11,0.80,303.30,M,-33.324,M,,*76
2017-11-16 14:26:06 1510860366.949341: $GPRMC,192605,A,3946.9569,N,08404.9849,W,0.0000,0.000,161117,,*38
2017-11-16 14:26:06 1510860366.949397: $GPGSA,A,3,8,10,15,18,21,20,24,27,32,14,138,,1.6,0.8,1.3*37
2017-11-16 14:26:07 1510860367.504128: $GPZDA,192606.00,16,11,2017,00,00*6F
2017-11-16 14:26:07 1510860367.504288: $GPGGA,192606,3946.9569,N,08404.9849,W,2,11,0.80,303.30,M,-33.324,M,,*75
2017-11-16 14:26:07 1510860367.504350: $GPRMC,192606,A,3946.9569,N,08404.9849,W,0.0000,0.000,161117,,*3B
2017-11-16 14:26:07 1510860367.504406: $GPGSA,A,3,8,10,15,18,21,20,24,27,32,14,138,,1.6,0.8,1.3*37
2017-11-16 14:26:08 1510860368.504628: $GPZDA,192607.00,16,11,2017,00,00*6E
2017-11-16 14:26:08 1510860368.504803: $GPGGA,192607,3946.9569,N,08404.9849,W,2,11,0.80,303.30,M,-33.324,M,,*74
2017-11-16 14:26:08 1510860368.504866: $GPRMC,192607,A,3946.9569,N,08404.9849,W,0.0000,0.000,161117,,*3A
2017-11-16 14:26:08 1510860368.504924: $GPGSA,A,3,8,10,15,18,21,20,24,27,32,14,138,,1.6,0.8,1.3*37
2017-11-16 14:26:09 1510860369.841319: $GPGSV,3,1,12,08,07,318,33,10,46,306,47,13,03,051,00,15,33,054,50*7D
2017-11-16 14:26:09 1510860369.841528: $GPGSV,3,2,12,18,74,349,46,21,58,187,46,20,29,100,46,24,52,102,47*74
2017-11-16 14:26:09 1510860369.841625: $GPGSV,3,3,12,27,18,283,41,32,25,241,46,14,08,235,34,138,38,213,45*47
2017-11-16 14:26:09 1510860369.954771: $GPZDA,192608.00,16,11,2017,00,00*61
2017-11-16 14:26:09 1510860369.954939: $GPGGA,192608,3946.9569,N,08404.9849,W,2,11,0.80,303.30,M,-33.324,M,,*7B
2017-11-16 14:26:09 1510860369.955004: $GPRMC,192608,A,3946.9569,N,08404.9849,W,0.0000,0.000,161117,,*35
2017-11-16 14:26:09 1510860369.955060: $GPGSA,A,3,8,10,15,18,21,20,24,27,32,14,138,,1.6,0.8,1.3*37
