2017-12-01 16:41:47 1512164507.567000: {"class":"VERSION","release":"3.16","rev":"3.16-4","proto_major":3,"proto_minor":11}
2017-12-01 16:41:47 1512164507.567396: {"class":"DEVICES","devices":[{"class":"DEVICE","path":"/dev/ttyUSB0","driver":"SiRF","subtype":"9\u0006GSD4e_4.1.2-P1_RPATCH.05-F-GPS-4R-1510281 11/03/2015 307","activated":"2017-12-01T21:41:47.527Z","flags":1,"native":1,"bps":4800,"parity":"N","stopbits":1,"cycle":1.00}]}
2017-12-01 16:41:47 1512164507.567511: {"class":"WATCH","enable":true,"json":false,"nmea":true,"raw":0,"scaled":false,"timing":false,"split24":false,"pps":false}
2017-12-01 16:41:48 1512164508.411753: $GPZDA,214149.00,01,12,2017,00,00*6B
2017-12-01 16:41:48 1512164508.411946: $GPGGA,214149,3946.9640,N,08404.9734,W,2,11,1.00,296.87,M,-33.324,M,,*71
2017-12-01 16:41:48 1512164508.412014: $GPRMC,214149,A,3946.9640,N,08404.9734,W,0.1867,0.000,011217,,*3A
2017-12-01 16:41:48 1512164508.412076: $GPGSA,A,3,1,10,14,22,31,32,11,12,25,26,138,,2.0,1.0,1.5*39
2017-12-01 16:41:49 1512164509.745906: $GPGSV,3,1,12,01,22,295,41,10,42,150,43,14,68,340,44,22,23,312,41*7E
2017-12-01 16:41:49 1512164509.746085: $GPGSV,3,2,12,31,61,231,50,32,66,042,49,11,07,277,36,12,20,045,28*7B
2017-12-01 16:41:49 1512164509.746151: $GPGSV,3,3,12,25,40,084,25,26,07,181,31,18,13,145,00,138,38,213,36*44
2017-12-01 16:41:49 1512164509.859493: $GPZDA,214150.00,01,12,2017,00,00*63
2017-12-01 16:41:49 1512164509.859672: $GPGGA,214150,3946.9640,N,08404.9734,W,2,11,1.00,296.87,M,-33.324,M,,*79
2017-12-01 16:41:49 1512164509.859741: $GPRMC,214150,A,3946.9640,N,08404.9734,W,0.0000,0.000,011217,,*3A
2017-12-01 16:41:49 1512164509.859803: $GPGSA,A,3,1,10,14,22,31,32,11,12,25,26,138,,2.0,1.0,1.5*39
2017-12-01 16:41:50 1512164510.411537: $GPZDA,214151.00,01,12,2017,00,00*62
2017-12-01 16:41:50 1512164510.411718: $GPGGA,214151,3946.9640,N,08404.9734,W,2,11,1.00,296.87,M,-33.324,M,,*78
2017-12-01 16:41:50 1512164510.411785: $GPRMC,214151,A,3946.9640,N,08404.9734,W,0.0000,0.000,011217,,*3B
2017-12-01 16:41:50 1512164510.411847: $GPGSA,A,3,1,10,14,22,31,32,11,12,25,26,138,,2.0,1.0,1.5*39
2017-12-01 16:41:51 1512164511.413837: $GPZDA,214152.00,01,12,2017,00,00*61
2017-12-01 16:41:51 1512164511.414009: $GPGGA,214152,3946.9640,N,08404.9734,W,2,11,1.00,296.87,M,-33.324,M,,*7B
2017-12-01 16:41:51 1512164511.414076: $GPRMC,214152,A,3946.9640,N,08404.9734,W,0.0000,0.000,011217,,*38
2017-12-01 16:41:51 1512164511.414137: $GPGSA,A,3,1,10,14,22,31,32,11,12,25,26,138,,2.0,1.0,1.5*39
2017-12-01 16:41:52 1512164512.749700: $GPGSV,3,1,12,01,22,295,42,10,42,150,43,14,68,340,44,22,23,312,41*7D
2017-12-01 16:41:52 1512164512.749877: $GPGSV,3,2,12,31,61,231,49,32,66,042,49,11,07,277,36,12,20,045,28*73
2017-12-01 16:41:52 1512164512.749942: $GPGSV,3,3,12,25,40,084,26,26,07,181,32,18,13,145,02,138,38,213,39*49
2017-12-01 16:41:52 1512164512.862875: $GPZDA,214153.00,01,12,2017,00,00*60
2017-12-01 16:41:52 1512164512.863042: $GPGGA,214153,3946.9640,N,08404.9734,W,2,11,1.00,296.87,M,-33.324,M,,*7A
2017-12-01 16:41:52 1512164512.863107: $GPRMC,214153,A,3946.9640,N,08404.9734,W,0.0000,0.000,011217,,*39
2017-12-01 16:41:52 1512164512.863168: $GPGSA,A,3,1,10,14,22,31,32,11,12,25,26,138,,2.0,1.0,1.5*39
2017-12-01 16:41:53 1512164513.488147: $GPZDA,214154.00,01,12,2017,00,00*67
2017-12-01 16:41:53 1512164513.488328: $GPGGA,214154,3946.9640,N,08404.9734,W,2,11,1.00,296.87,M,-33.324,M,,*7D
2017-12-01 16:41:53 1512164513.488396: $GPRMC,214154,A,3946.9640,N,08404.9734,W,0.0000,0.000,011217,,*3E
2017-12-01 16:41:53 1512164513.488458: $GPGSA,A,3,1,10,14,22,31,32,11,12,25,26,138,,2.0,1.0,1.5*39
2017-12-01 16:41:54 1512164514.413192: $GPZDA,214155.00,01,12,2017,00,00*66
2017-12-01 16:41:54 1512164514.413373: $GPGGA,214155,3946.9640,N,08404.9734,W,2,11,1.00,296.87,M,-33.324,M,,*7C
2017-12-01 16:41:54 1512164514.413442: $GPRMC,214155,A,3946.9640,N,08404.9734,W,0.0000,0.000,011217,,*3F
2017-12-01 16:41:54 1512164514.413504: $GPGSA,A,3,1,10,14,22,31,32,11,12,25,26,138,,2.0,1.0,1.5*39
2017-12-01 16:41:55 1512164515.747275: $GPGSV,3,1,12,01,22,295,42,10,42,150,43,14,68,340,44,22,23,312,41*7D
2017-12-01 16:41:55 1512164515.747509: $GPGSV,3,2,12,31,61,231,49,32,66,042,49,11,07,277,36,12,20,045,28*73
2017-12-01 16:41:55 1512164515.747577: $GPGSV,3,3,12,25,40,084,26,26,07,181,32,18,13,145,15,138,38,213,39*4F
2017-12-01 16:41:55 1512164515.860618: $GPZDA,214156.00,01,12,2017,00,00*65
2017-12-01 16:41:55 1512164515.860761: $GPGGA,214156,3946.9640,N,08404.9734,W,2,12,1.00,296.87,M,-33.324,M,,*7C
2017-12-01 16:41:55 1512164515.860826: $GPRMC,214156,A,3946.9640,N,08404.9734,W,0.0000,0.000,011217,,*3C
2017-12-01 16:41:55 1512164515.860886: $GPGSA,A,3,1,10,14,22,31,32,11,12,25,26,18,138,2.0,1.0,1.5*30
2017-12-01 16:41:56 1512164516.413303: $GPZDA,214157.00,01,12,2017,00,00*64
2017-12-01 16:41:56 1512164516.413466: $GPGGA,214157,3946.9640,N,08404.9734,W,2,12,1.00,296.87,M,-33.324,M,,*7D
2017-12-01 16:41:56 1512164516.413532: $GPRMC,214157,A,3946.9640,N,08404.9734,W,0.0000,0.000,011217,,*3D
2017-12-01 16:41:56 1512164516.413594: $GPGSA,A,3,1,10,14,22,31,32,11,12,25,26,18,138,2.0,1.0,1.5*30
2017-12-01 16:41:57 1512164517.413683: $GPZDA,214158.00,01,12,2017,00,00*6B
2017-12-01 16:41:57 1512164517.413862: $GPGGA,214158,3946.9640,N,08404.9734,W,2,12,1.00,296.87,M,-33.324,M,,*72
2017-12-01 16:41:57 1512164517.413930: $GPRMC,214158,A,3946.9640,N,08404.9734,W,0.0000,0.000,011217,,*32
2017-12-01 16:41:57 1512164517.413991: $GPGSA,A,3,1,10,14,22,31,32,11,12,25,26,18,138,2.0,1.0,1.5*30
2017-12-01 16:41:58 1512164518.750129: $GPGSV,3,1,12,01,22,295,42,10,42,150,43,14,68,340,44,22,23,312,41*7D
2017-12-01 16:41:58 1512164518.750315: $GPGSV,3,2,12,31,61,231,48,32,66,042,49,11,07,277,36,12,20,045,28*72
2017-12-01 16:41:58 1512164518.750382: $GPGSV,3,3,12,25,40,084,26,26,07,181,32,18,13,145,18,138,38,213,39*42
2017-12-01 16:41:58 1512164518.862466: $GPZDA,214159.00,01,12,2017,00,00*6A
2017-12-01 16:41:58 1512164518.862645: $GPGGA,214159,3946.9640,N,08404.9734,W,2,12,1.00,296.87,M,-33.324,M,,*73
2017-12-01 16:41:58 1512164518.862731: $GPRMC,214159,A,3946.9640,N,08404.9734,W,0.0000,0.000,011217,,*33
2017-12-01 16:41:58 1512164518.862794: $GPGSA,A,3,1,10,14,22,31,32,11,12,25,26,18,138,2.0,1.0,1.5*30
2017-12-01 16:41:59 1512164519.412432: $GPZDA,214200.00,01,12,2017,00,00*65
2017-12-01 16:41:59 1512164519.412603: $GPGGA,214200,3946.9640,N,08404.9734,W,2,12,1.00,296.87,M,-33.324,M,,*7C
2017-12-01 16:41:59 1512164519.412669: $GPRMC,214200,A,3946.9640,N,08404.9734,W,0.0000,0.000,011217,,*3C
2017-12-01 16:41:59 1512164519.412748: $GPGSA,A,3,1,10,14,22,31,32,11,12,25,26,18,138,2.0,1.0,1.5*30
2017-12-01 16:42:00 1512164520.413021: $GPZDA,214201.00,01,12,2017,00,00*64
2017-12-01 16:42:00 1512164520.413217: $GPGGA,214201,3946.9640,N,08404.9734,W,2,12,1.00,296.87,M,-33.324,M,,*7D
2017-12-01 16:42:00 1512164520.413285: $GPRMC,214201,A,3946.9640,N,08404.9734,W,0.0000,0.000,011217,,*3D
2017-12-01 16:42:00 1512164520.413391: $GPGSA,A,3,1,10,14,22,31,32,11,12,25,26,18,138,2.0,1.0,1.5*30
2017-12-01 16:42:01 1512164521.749876: $GPGSV,3,1,12,01,22,295,42,10,42,150,42,14,68,340,44,22,23,312,42*7F
2017-12-01 16:42:01 1512164521.750057: $GPGSV,3,2,12,31,61,231,48,32,66,042,48,11,07,277,37,12,20,045,28*72
2017-12-01 16:42:01 1512164521.750123: $GPGSV,3,3,12,25,40,084,26,26,07,181,32,18,13,145,19,138,38,213,38*42
2017-12-01 16:42:01 1512164521.863175: $GPZDA,214202.00,01,12,2017,00,00*67
2017-12-01 16:42:01 1512164521.863320: $GPGGA,214202,3946.9640,N,08404.9734,W,2,12,1.00,296.87,M,-33.324,M,,*7E
2017-12-01 16:42:01 1512164521.863386: $GPRMC,214202,A,3946.9640,N,08404.9734,W,0.0000,0.000,011217,,*3E
2017-12-01 16:42:01 1512164521.863447: $GPGSA,A,3,1,10,14,22,31,32,11,12,25,26,18,138,2.0,1.0,1.5*30
2017-12-01 16:42:02 1512164522.412853: $GPZDA,214203.00,01,12,2017,00,00*66
2017-12-01 16:42:02 1512164522.413025: $GPGGA,214203,3946.9640,N,08404.9734,W,2,12,1.00,296.87,M,-33.324,M,,*7F
2017-12-01 16:42:02 1512164522.413092: $GPRMC,214203,A,3946.9640,N,08404.9734,W,0.0000,0.000,011217,,*3F
2017-12-01 16:42:02 1512164522.413153: $GPGSA,A,3,1,10,14,22,31,32,11,12,25,26,18,138,2.0,1.0,1.5*30
2017-12-01 16:42:03 1512164523.412089: $GPZDA,214204.00,01,12,2017,00,00*61
2017-12-01 16:42:03 1512164523.412285: $GPGGA,214204,3946.9640,N,08404.9734,W,2,12,1.00,296.87,M,-33.324,M,,*78
2017-12-01 16:42:03 1512164523.412371: $GPRMC,214204,A,3946.9640,N,08404.9734,W,0.0000,0.000,011217,,*38
2017-12-01 16:42:03 1512164523.412432: $GPGSA,A,3,1,10,14,22,31,32,11,12,25,26,18,138,2.0,1.0,1.5*30
2017-12-01 16:42:04 1512164524.748968: $GPGSV,3,1,12,01,22,295,42,10,42,150,42,14,68,340,44,22,23,312,42*7F
2017-12-01 16:42:04 1512164524.749165: $GPGSV,3,2,12,31,61,231,49,32,66,042,49,11,07,277,36,12,20,045,28*73
2017-12-01 16:42:04 1512164524.749233: $GPGSV,3,3,12,25,40,084,27,26,07,181,32,18,13,145,19,138,38,213,40*4C
2017-12-01 16:42:04 1512164524.862454: $GPZDA,214205.00,01,12,2017,00,00*60
2017-12-01 16:42:04 1512164524.862623: $GPGGA,214205,3946.9640,N,08404.9734,W,2,12,1.00,296.87,M,-33.324,M,,*79
2017-12-01 16:42:04 1512164524.862689: $GPRMC,214205,A,3946.9640,N,08404.9734,W,0.0000,0.000,011217,,*39
2017-12-01 16:42:04 1512164524.862750: $GPGSA,A,3,1,10,14,22,31,32,11,12,25,26,18,138,2.0,1.0,1.5*30
2017-12-01 16:42:05 1512164525.413789: $GPZDA,214206.00,01,12,2017,00,00*63
2017-12-01 16:42:05 1512164525.415793: $GPGGA,214206,3946.9640,N,08404.9734,W,2,12,1.00,296.87,M,-33.324,M,,*7A
2017-12-01 16:42:05 1512164525.415894: $GPRMC,214206,A,3946.9640,N,08404.9734,W,0.0000,0.000,011217,,*3A
2017-12-01 16:42:05 1512164525.415977: $GPGSA,A,3,1,10,14,22,31,32,11,12,25,26,18,138,2.0,1.0,1.5*30
2017-12-01 16:42:06 1512164526.414731: $GPZDA,214207.00,01,12,2017,00,00*62
2017-12-01 16:42:06 1512164526.414898: $GPGGA,214207,3946.9640,N,08404.9734,W,2,12,0.80,296.87,M,-33.324,M,,*72
2017-12-01 16:42:06 1512164526.414965: $GPRMC,214207,A,3946.9640,N,08404.9734,W,0.0000,0.000,011217,,*3B
2017-12-01 16:42:06 1512164526.415025: $GPGSA,A,3,1,10,14,22,31,32,11,12,25,26,18,138,2.0,0.8,1.5*39
