2017-11-16 17:15:23 1510870523.691876: {"class":"VERSION","release":"3.17","rev":"3.17","proto_major":3,"proto_minor":12}
2017-11-16 17:15:23 1510870523.692330: {"class":"DEVICES","devices":[{"class":"DEVICE","path":"/dev/ttyUSB0","driver":"SiRF","subtype":"9\u0006GSD4e_4.1.2-P1_RPATCH.05-F-GPS-4R-1510281 11/03/2015 307","activated":"2017-11-16T22:15:23.541Z","flags":1,"native":1,"bps":4800,"parity":"N","stopbits":1,"cycle":1.00}]}
2017-11-16 17:15:23 1510870523.692447: {"class":"WATCH","enable":true,"json":false,"nmea":true,"raw":0,"scaled":false,"timing":false,"split24":false,"pps":false}
2017-11-16 17:15:24 1510870524.736699: $GPGSV,3,1,12,01,20,307,42,10,56,144,47,22,13,312,41,12,24,057,49*74
2017-11-16 17:15:24 1510870524.736873: $GPGSV,3,2,12,14,63,313,47,18,25,141,43,24,03,048,22,11,10,288,36*7B
2017-11-16 17:15:24 1510870524.736932: $GPGSV,3,3,12,25,37,100,46,31,48,219,49,32,70,006,48,138,38,213,44*4E
2017-11-16 17:15:24 1510870524.850003: $GPZDA,221523.00,16,11,2017,00,00*60
2017-11-16 17:15:24 1510870524.850168: $GPGGA,221523,3946.9568,N,08404.9826,W,2,12,0.80,312.81,M,-33.324,M,,*7B
2017-11-16 17:15:24 1510870524.850227: $GPRMC,221523,A,3946.9568,N,08404.9826,W,0.0000,0.000,161117,,*3C
2017-11-16 17:15:24 1510870524.850282: $GPGSA,A,3,1,10,22,12,14,18,24,11,25,31,32,138,1.6,0.8,1.3*38
2017-11-16 17:15:25 1510870525.400881: $GPZDA,221524.00,16,11,2017,00,00*67
2017-11-16 17:15:25 1510870525.401056: $GPGGA,221524,3946.9568,N,08404.9826,W,2,12,0.80,312.81,M,-33.324,M,,*7C
2017-11-16 17:15:25 1510870525.401136: $GPRMC,221524,A,3946.9568,N,08404.9826,W,0.0000,0.000,161117,,*3B
2017-11-16 17:15:25 1510870525.401193: $GPGSA,A,3,1,10,22,12,14,18,24,11,25,31,32,138,1.6,0.8,1.3*38
2017-11-16 17:15:26 1510870526.393881: $GPZDA,221525.00,16,11,2017,00,00*66
2017-11-16 17:15:26 1510870526.394050: $GPGGA,221525,3946.9568,N,08404.9826,W,2,12,0.80,312.81,M,-33.324,M,,*7D
2017-11-16 17:15:26 1510870526.394129: $GPRMC,221525,A,3946.9568,N,08404.9826,W,0.0000,0.000,161117,,*3A
2017-11-16 17:15:26 1510870526.394185: $GPGSA,A,3,1,10,22,12,14,18,24,11,25,31,32,138,1.6,0.8,1.3*38
2017-11-16 17:15:27 1510870527.735945: $GPGSV,3,1,12,01,20,307,43,10,56,144,47,22,13,312,41,12,24,057,49*75
2017-11-16 17:15:27 1510870527.740336: $GPGSV,3,2,12,14,63,313,47,18,25,141,42,24,03,048,00,11,10,288,35*79
2017-11-16 17:15:27 1510870527.740425: $GPGSV,3,3,12,25,37,100,47,31,48,219,49,32,70,006,48,138,38,213,44*4F
2017-11-16 17:15:27 1510870527.849260: $GPZDA,221526.00,16,11,2017,00,00*65
2017-11-16 17:15:27 1510870527.849433: $GPGGA,221526,3946.9568,N,08404.9826,W,2,11,0.80,312.81,M,-33.324,M,,*7D
2017-11-16 17:15:27 1510870527.849494: $GPRMC,221526,A,3946.9568,N,08404.9826,W,0.0000,0.000,161117,,*39
2017-11-16 17:15:27 1510870527.849550: $GPGSA,A,3,1,10,22,12,14,18,11,25,31,32,138,,1.6,0.8,1.3*3E
2017-11-16 17:15:28 1510870528.400144: $GPZDA,221527.00,16,11,2017,00,00*64
2017-11-16 17:15:28 1510870528.400312: $GPGGA,221527,3946.9568,N,08404.9826,W,2,11,0.80,312.81,M,-33.324,M,,*7C
2017-11-16 17:15:28 1510870528.400371: $GPRMC,221527,A,3946.9568,N,08404.9826,W,0.0000,0.000,161117,,*38
2017-11-16 17:15:28 1510870528.400427: $GPGSA,A,3,1,10,22,12,14,18,11,25,31,32,138,,1.6,0.8,1.3*3E
2017-11-16 17:15:29 1510870529.401024: $GPZDA,221528.00,16,11,2017,00,00*6B
2017-11-16 17:15:29 1510870529.401192: $GPGGA,221528,3946.9568,N,08404.9826,W,2,11,0.80,312.81,M,-33.324,M,,*73
2017-11-16 17:15:29 1510870529.401253: $GPRMC,221528,A,3946.9568,N,08404.9826,W,0.0000,0.000,161117,,*37
2017-11-16 17:15:29 1510870529.401308: $GPGSA,A,3,1,10,22,12,14,18,11,25,31,32,138,,1.6,0.8,1.3*3E
2017-11-16 17:15:30 1510870530.736954: $GPGSV,3,1,12,01,20,307,43,10,56,144,47,22,13,312,40,12,24,057,49*74
2017-11-16 17:15:30 1510870530.737138: $GPGSV,3,2,12,14,63,313,47,18,25,141,43,24,03,048,20,11,10,288,35*7A
2017-11-16 17:15:30 1510870530.737197: $GPGSV,3,3,12,25,37,100,46,31,48,219,49,32,70,006,48,138,38,213,43*49
2017-11-16 17:15:30 1510870530.850170: $GPZDA,221529.00,16,11,2017,00,00*6A
2017-11-16 17:15:30 1510870530.850343: $GPGGA,221529,3946.9568,N,08404.9826,W,2,11,0.80,312.81,M,-33.324,M,,*72
2017-11-16 17:15:30 1510870530.850454: $GPRMC,221529,A,3946.9568,N,08404.9826,W,0.0000,0.000,161117,,*36
2017-11-16 17:15:30 1510870530.850512: $GPGSA,A,3,1,10,22,12,14,18,11,25,31,32,138,,1.6,0.8,1.3*3E
2017-11-16 17:15:31 1510870531.475530: $GPZDA,221530.00,16,11,2017,00,00*62
2017-11-16 17:15:31 1510870531.475696: $GPGGA,221530,3946.9568,N,08404.9826,W,2,11,0.80,312.81,M,-33.324,M,,*7A
2017-11-16 17:15:31 1510870531.475756: $GPRMC,221530,A,3946.9568,N,08404.9826,W,0.0000,0.000,161117,,*3E
2017-11-16 17:15:31 1510870531.475812: $GPGSA,A,3,1,10,22,12,14,18,11,25,31,32,138,,1.6,0.8,1.3*3E
2017-11-16 17:15:32 1510870532.396551: $GPZDA,221531.00,16,11,2017,00,00*63
2017-11-16 17:15:32 1510870532.396734: $GPGGA,221531,3946.9568,N,08404.9826,W,2,11,0.80,312.81,M,-33.324,M,,*7B
2017-11-16 17:15:32 1510870532.396795: $GPRMC,221531,A,3946.9568,N,08404.9826,W,0.0000,0.000,161117,,*3F
2017-11-16 17:15:32 1510870532.396851: $GPGSA,A,3,1,10,22,12,14,18,11,25,31,32,138,,1.6,0.8,1.3*3E
