2017-12-31 17:48:10 1514760490.058683: {"class":"VERSION","release":"3.16","rev":"3.16-4","proto_major":3,"proto_minor":11}
2017-12-31 17:48:10 1514760490.059093: {"class":"DEVICES","devices":[{"class":"DEVICE","path":"/dev/ttyUSB0","driver":"SiRF","activated":"2017-12-31T22:48:09.957Z","flags":1,"native":1,"bps":4800,"parity":"N","stopbits":1,"cycle":1.00}]}
2017-12-31 17:48:10 1514760490.059191: {"class":"WATCH","enable":true,"json":false,"nmea":true,"raw":0,"scaled":false,"timing":false,"split24":false,"pps":false}
2017-12-31 17:48:10 1514760490.421557: $GPZDA,224811.00,31,12,2017,00,00*6F
2017-12-31 17:48:10 1514760490.421766: $GPGGA,224811,3946.9574,N,08404.9857,W,2,11,0.80,305.27,M,-33.324,M,,*70
2017-12-31 17:48:10 1514760490.421833: $GPRMC,224811,A,3946.9574,N,08404.9857,W,0.0000,0.000,311217,,*38
2017-12-31 17:48:10 1514760490.421894: $GPGSA,A,3,22,23,9,3,16,29,14,31,32,26,135,,1.7,0.8,1.3*0C
2017-12-31 17:48:11 1514760491.371185: $GPZDA,224812.00,31,12,2017,00,00*6C
2017-12-31 17:48:11 1514760491.371350: $GPGGA,224812,3946.9574,N,08404.9857,W,2,11,0.80,305.27,M,-33.324,M,,*73
2017-12-31 17:48:11 1514760491.371417: $GPRMC,224812,A,3946.9574,N,08404.9857,W,0.0000,0.000,311217,,*3B
2017-12-31 17:48:11 1514760491.371478: $GPGSA,A,3,22,23,9,3,16,29,14,31,32,26,135,,1.7,0.8,1.3*0C
2017-12-31 17:48:12 1514760492.700422: $GPGSV,3,1,12,22,30,220,44,23,45,309,46,09,12,312,37,03,38,244,44*77
2017-12-31 17:48:12 1514760492.700576: $GPGSV,3,2,12,16,69,192,43,29,10,037,26,14,23,127,31,31,35,067,39*79
2017-12-31 17:48:12 1514760492.700661: $GPGSV,3,3,12,32,02,132,15,27,14,159,00,26,71,061,47,135,22,240,44*47
2017-12-31 17:48:12 1514760492.814015: $GPZDA,224813.00,31,12,2017,00,00*6D
2017-12-31 17:48:12 1514760492.814148: $GPGGA,224813,3946.9574,N,08404.9857,W,2,11,0.80,305.27,M,-33.324,M,,*72
2017-12-31 17:48:12 1514760492.814213: $GPRMC,224813,A,3946.9574,N,08404.9857,W,0.0000,0.000,311217,,*3A
2017-12-31 17:48:12 1514760492.814274: $GPGSA,A,3,22,23,9,3,16,29,14,31,32,26,135,,1.7,0.8,1.3*0C
2017-12-31 17:48:13 1514760493.543676: $GPZDA,224814.00,31,12,2017,00,00*6A
2017-12-31 17:48:13 1514760493.543875: $GPGGA,224814,3946.9574,N,08404.9857,W,2,11,0.80,305.27,M,-33.324,M,,*75
2017-12-31 17:48:13 1514760493.543943: $GPRMC,224814,A,3946.9574,N,08404.9857,W,0.0000,0.000,311217,,*3D
2017-12-31 17:48:13 1514760493.544004: $GPGSA,A,3,22,23,9,3,16,29,14,31,32,26,135,,1.7,0.8,1.3*0C
2017-12-31 17:48:13 1514760493.544061: $GPGBS,224814,2.22,M,3.43,M,7.66,M*36
2017-12-31 17:48:14 1514760494.365805: $GPZDA,224815.00,31,12,2017,00,00*6B
2017-12-31 17:48:14 1514760494.365966: $GPGGA,224815,3946.9574,N,08404.9857,W,2,11,0.80,305.27,M,-33.324,M,,*74
2017-12-31 17:48:14 1514760494.366032: $GPRMC,224815,A,3946.9574,N,08404.9857,W,0.0000,0.000,311217,,*3C
2017-12-31 17:48:14 1514760494.366093: $GPGSA,A,3,22,23,9,3,16,29,14,31,32,26,135,,1.7,0.8,1.3*0C
2017-12-31 17:48:14 1514760494.366151: $GPGBS,224815,2.22,M,3.43,M,7.66,M*37
2017-12-31 17:48:15 1514760495.683377: $GPGSV,3,1,12,22,30,220,44,23,45,309,46,09,12,312,38,03,38,243,44*7F
2017-12-31 17:48:15 1514760495.683578: $GPGSV,3,2,12,16,70,192,44,29,10,037,27,14,23,129,30,31,35,067,39*78
2017-12-31 17:48:15 1514760495.683647: $GPGSV,3,3,12,32,02,132,16,27,14,157,13,26,71,061,47,135,22,240,45*49
2017-12-31 17:48:15 1514760495.796849: $GPZDA,224816.00,31,12,2017,00,00*68
2017-12-31 17:48:15 1514760495.796987: $GPGGA,224816,3946.9574,N,08404.9857,W,2,11,0.80,305.27,M,-33.324,M,,*77
2017-12-31 17:48:15 1514760495.797152: $GPRMC,224816,A,3946.9574,N,08404.9857,W,0.0000,0.000,311217,,*3F
2017-12-31 17:48:15 1514760495.797223: $GPGSA,A,3,22,23,9,3,16,29,14,31,32,26,135,,1.7,0.8,1.3*0C
2017-12-31 17:48:16 1514760496.372788: $GPZDA,224817.00,31,12,2017,00,00*69
2017-12-31 17:48:16 1514760496.372944: $GPGGA,224817,3946.9570,N,08404.9857,W,2,11,0.60,304.63,M,-33.324,M,,*7D
2017-12-31 17:48:16 1514760496.373010: $GPRMC,224817,A,3946.9570,N,08404.9857,W,0.0000,0.000,311217,,*3A
2017-12-31 17:48:16 1514760496.373071: $GPGSA,A,3,22,23,9,3,16,29,14,31,32,26,135,,1.7,0.6,1.3*02
2017-12-31 17:48:17 1514760497.347438: $GPZDA,224818.00,31,12,2017,00,00*66
2017-12-31 17:48:17 1514760497.347628: $GPGGA,224818,3946.9570,N,08404.9857,W,2,11,0.60,304.63,M,-33.324,M,,*72
2017-12-31 17:48:17 1514760497.347727: $GPRMC,224818,A,3946.9570,N,08404.9857,W,0.0000,0.000,311217,,*35
2017-12-31 17:48:17 1514760497.347789: $GPGSA,A,3,22,23,9,3,16,29,14,31,32,26,135,,1.7,0.6,1.3*02
2017-12-31 17:48:18 1514760498.707894: $GPGSV,3,1,12,22,30,220,45,23,45,309,46,09,12,312,38,03,38,243,45*7F
2017-12-31 17:48:18 1514760498.999465: $GPGSV,3,2,12,16,70,192,44,29,10,037,28,14,23,129,30,31,35,067,40*79
2017-12-31 17:48:18 1514760498.999632: $GPGSV,3,3,12,32,02,132,16,27,14,157,19,26,71,061,47,135,22,240,43*45
2017-12-31 17:48:18 1514760498.999747: $GPZDA,224819.00,31,12,2017,00,00*67
2017-12-31 17:48:18 1514760498.999806: $GPGGA,224819,3946.9570,N,08404.9857,W,2,12,0.60,304.63,M,-33.324,M,,*70
2017-12-31 17:48:18 1514760498.999867: $GPRMC,224819,A,3946.9570,N,08404.9857,W,0.0000,0.000,311217,,*34
2017-12-31 17:48:18 1514760498.999957: $GPGSA,A,3,22,23,9,3,16,29,14,31,32,27,26,135,1.7,0.6,1.3*07
2017-12-31 17:48:19 1514760499.340875: $GPZDA,224820.00,31,12,2017,00,00*6D
2017-12-31 17:48:19 1514760499.341071: $GPGGA,224820,3946.9570,N,08404.9857,W,2,12,0.80,304.63,M,-33.324,M,,*74
2017-12-31 17:48:19 1514760499.341140: $GPRMC,224820,A,3946.9570,N,08404.9857,W,0.0000,0.000,311217,,*3E
2017-12-31 17:48:19 1514760499.341202: $GPGSA,A,3,22,23,9,3,16,29,14,31,32,27,26,135,1.7,0.8,1.3*09
