2017-11-16 17:38:45 1510871925.731747: {"class":"VERSION","release":"3.17","rev":"3.17","proto_major":3,"proto_minor":12}
2017-11-16 17:38:45 1510871925.732202: {"class":"DEVICES","devices":[{"class":"DEVICE","path":"/dev/ttyUSB0","driver":"SiRF","subtype":"9\u0006GSD4e_4.1.2-P1_RPATCH.05-F-GPS-4R-1510281 11/03/2015 307","activated":"2017-11-16T22:38:45.731Z","flags":1,"native":1,"bps":4800,"parity":"N","stopbits":1,"cycle":1.00}]}
2017-11-16 17:38:45 1510871925.732329: {"class":"WATCH","enable":true,"json":false,"nmea":true,"raw":0,"scaled":false,"timing":false,"split24":false,"pps":false}
2017-11-16 17:38:45 1510871925.844054: $GPZDA,223844.00,16,11,2017,00,00*6E
2017-11-16 17:38:45 1510871925.844219: $GPGGA,223844,3946.9576,N,08404.9841,W,2,11,0.80,303.26,M,-33.324,M,,*75
2017-11-16 17:38:45 1510871925.844279: $GPRMC,223844,A,3946.9576,N,08404.9841,W,0.0000,0.000,161117,,*3C
2017-11-16 17:38:45 1510871925.844334: $GPGSA,A,3,10,22,12,14,18,26,11,25,31,32,138,,1.6,0.8,1.3*0B
2017-11-16 17:38:46 1510871926.469411: $GPZDA,223845.00,16,11,2017,00,00*6F
2017-11-16 17:38:46 1510871926.469600: $GPGGA,223845,3946.9576,N,08404.9841,W,2,11,0.80,303.26,M,-33.324,M,,*74
2017-11-16 17:38:46 1510871926.469663: $GPRMC,223845,A,3946.9576,N,08404.9841,W,0.0000,0.000,161117,,*3D
2017-11-16 17:38:46 1510871926.469718: $GPGSA,A,3,10,22,12,14,18,26,11,25,31,32,138,,1.6,0.8,1.3*0B
2017-11-16 17:38:47 1510871927.419142: $GPZDA,223846.00,16,11,2017,00,00*6C
2017-11-16 17:38:47 1510871927.419323: $GPGGA,223846,3946.9576,N,08404.9841,W,2,11,0.80,303.26,M,-33.324,M,,*77
2017-11-16 17:38:47 1510871927.419383: $GPRMC,223846,A,3946.9576,N,08404.9841,W,0.0000,0.000,161117,,*3E
2017-11-16 17:38:47 1510871927.419439: $GPGSA,A,3,10,22,12,14,18,26,11,25,31,32,138,,1.6,0.8,1.3*0B
2017-11-16 17:38:48 1510871928.732373: $GPGSV,3,1,12,01,22,298,28,10,46,148,46,22,21,312,42,12,21,048,49*78
2017-11-16 17:38:48 1510871928.732547: $GPGSV,3,2,12,14,67,333,47,18,16,145,40,26,04,183,25,11,08,280,40*7E
2017-11-16 17:38:48 1510871928.732607: $GPGSV,3,3,12,25,40,087,48,31,58,228,47,32,68,033,49,138,38,213,44*4D
2017-11-16 17:38:48 1510871928.845666: $GPZDA,223847.00,16,11,2017,00,00*6D
2017-11-16 17:38:48 1510871928.845825: $GPGGA,223847,3946.9576,N,08404.9841,W,2,12,0.80,303.26,M,-33.324,M,,*75
2017-11-16 17:38:48 1510871928.845884: $GPRMC,223847,A,3946.9576,N,08404.9841,W,0.0000,0.000,161117,,*3F
2017-11-16 17:38:48 1510871928.845940: $GPGSA,A,3,1,10,22,12,14,18,26,11,25,31,32,138,1.6,0.8,1.3*3A
2017-11-16 17:38:49 1510871929.396551: $GPZDA,223848.00,16,11,2017,00,00*62
2017-11-16 17:38:49 1510871929.396717: $GPGGA,223848,3946.9576,N,08404.9841,W,2,12,0.80,303.26,M,-33.324,M,,*7A
2017-11-16 17:38:49 1510871929.396778: $GPRMC,223848,A,3946.9576,N,08404.9841,W,0.0000,0.000,161117,,*30
2017-11-16 17:38:49 1510871929.396833: $GPGSA,A,3,1,10,22,12,14,18,26,11,25,31,32,138,1.6,0.8,1.3*3A
2017-11-16 17:38:50 1510871930.417488: $GPZDA,223849.00,16,11,2017,00,00*63
2017-11-16 17:38:50 1510871930.417672: $GPGGA,223849,3946.9576,N,08404.9841,W,2,12,0.80,303.26,M,-33.324,M,,*7B
2017-11-16 17:38:50 1510871930.417734: $GPRMC,223849,A,3946.9576,N,08404.9841,W,0.0000,0.000,161117,,*31
2017-11-16 17:38:50 1510871930.417789: $GPGSA,A,3,1,10,22,12,14,18,26,11,25,31,32,138,1.6,0.8,1.3*3A
2017-11-16 17:38:51 1510871931.732728: $GPGSV,3,1,12,01,22,298,27,10,46,148,46,22,21,312,41,12,21,048,49*74
2017-11-16 17:38:51 1510871931.732896: $GPGSV,3,2,12,14,67,333,47,18,16,145,40,03,01,316,15,11,08,280,40*71
2017-11-16 17:38:51 1510871931.732956: $GPGSV,3,3,12,25,40,087,48,31,58,228,48,32,68,033,49,138,38,213,43*45
2017-11-16 17:38:51 1510871931.846312: $GPZDA,223850.00,16,11,2017,00,00*6B
2017-11-16 17:38:51 1510871931.846479: $GPGGA,223850,3946.9576,N,08404.9841,W,2,12,0.80,303.26,M,-33.324,M,,*73
2017-11-16 17:38:51 1510871931.846540: $GPRMC,223850,A,3946.9576,N,08404.9841,W,0.0000,0.000,161117,,*39
2017-11-16 17:38:51 1510871931.846594: $GPGSA,A,3,1,10,22,12,14,18,3,11,25,31,32,138,1.6,0.8,1.3*0D
2017-11-16 17:38:52 1510871932.411844: $GPZDA,223851.00,16,11,2017,00,00*6A
2017-11-16 17:38:52 1510871932.412055: $GPGGA,223851,3946.9576,N,08404.9841,W,2,12,0.80,303.26,M,-33.324,M,,*72
2017-11-16 17:38:52 1510871932.412118: $GPRMC,223851,A,3946.9576,N,08404.9841,W,0.0000,0.000,161117,,*38
2017-11-16 17:38:52 1510871932.412174: $GPGSA,A,3,1,10,22,12,14,18,3,11,25,31,32,138,1.6,0.8,1.3*0D
2017-11-16 17:38:53 1510871933.417723: $GPZDA,223852.00,16,11,2017,00,00*69
2017-11-16 17:38:53 1510871933.417889: $GPGGA,223852,3946.9576,N,08404.9841,W,2,12,0.80,303.26,M,-33.324,M,,*71
2017-11-16 17:38:53 1510871933.417950: $GPRMC,223852,A,3946.9576,N,08404.9841,W,0.0000,0.000,161117,,*3B
2017-11-16 17:38:53 1510871933.418005: $GPGSA,A,3,1,10,22,12,14,18,3,11,25,31,32,138,1.6,0.8,1.3*0D
2017-11-16 17:38:54 1510871934.753522: $GPGSV,3,1,12,01,22,298,24,10,46,148,46,22,21,312,41,12,21,048,49*77
2017-11-16 17:38:54 1510871934.753691: $GPGSV,3,2,12,14,67,333,47,18,16,145,40,26,04,183,00,11,08,280,40*79
2017-11-16 17:38:54 1510871934.753752: $GPGSV,3,3,12,25,40,087,48,31,58,228,48,32,68,033,49,138,38,213,43*45
2017-11-16 17:38:54 1510871934.866803: $GPZDA,223853.00,16,11,2017,00,00*68
2017-11-16 17:38:54 1510871934.866972: $GPGGA,223853,3946.9576,N,08404.9841,W,2,11,0.80,303.26,M,-33.324,M,,*73
2017-11-16 17:38:54 1510871934.867033: $GPRMC,223853,A,3946.9576,N,08404.9841,W,0.0000,0.000,161117,,*3A
2017-11-16 17:38:54 1510871934.867089: $GPGSA,A,3,1,10,22,12,14,18,11,25,31,32,138,,1.6,0.8,1.3*3E
2017-11-16 17:38:55 1510871935.418931: $GPZDA,223854.00,16,11,2017,00,00*6F
2017-11-16 17:38:55 1510871935.419098: $GPGGA,223854,3946.9576,N,08404.9841,W,2,11,0.80,303.26,M,-33.324,M,,*74
2017-11-16 17:38:55 1510871935.419160: $GPRMC,223854,A,3946.9576,N,08404.9841,W,0.0000,0.000,161117,,*3D
2017-11-16 17:38:55 1510871935.419216: $GPGSA,A,3,1,10,22,12,14,18,11,25,31,32,138,,1.6,0.8,1.3*3E
