2017-11-16 16:43:10 1510868590.930347: {"class":"VERSION","release":"3.17","rev":"3.17","proto_major":3,"proto_minor":12}
2017-11-16 16:43:10 1510868590.931157: {"class":"DEVICES","devices":[{"class":"DEVICE","path":"/dev/ttyUSB0","driver":"SiRF","subtype":"9\u0006GSD4e_4.1.2-P1_RPATCH.05-F-GPS-4R-1510281 11/03/2015 307","activated":"2017-11-16T21:43:10.755Z","flags":1,"native":1,"bps":4800,"parity":"N","stopbits":1,"cycle":1.00}]}
2017-11-16 16:43:10 1510868590.931318: {"class":"WATCH","enable":true,"json":false,"nmea":true,"raw":0,"scaled":false,"timing":false,"split24":false,"pps":false}
2017-11-16 16:43:11 1510868591.776533: $GPGSV,3,1,12,01,13,319,36,10,71,129,49,11,11,303,37,12,25,073,48*7D
2017-11-16 16:43:11 1510868591.776703: $GPGSV,3,2,12,14,54,289,43,18,39,135,46,24,15,045,49,25,29,115,43*7D
2017-11-16 16:43:11 1510868591.776763: $GPGSV,3,3,12,31,33,211,44,32,67,324,51,22,01,310,30,138,38,213,45*4B
2017-11-16 16:43:11 1510868591.889832: $GPZDA,214310.00,16,11,2017,00,00*60
2017-11-16 16:43:11 1510868591.889990: $GPGGA,214310,3946.9579,N,08404.9814,W,2,12,0.80,305.62,M,-33.324,M,,*71
2017-11-16 16:43:11 1510868591.890053: $GPRMC,214310,A,3946.9579,N,08404.9814,W,0.0000,0.000,161117,,*3D
2017-11-16 16:43:11 1510868591.890128: $GPGSA,A,3,1,10,11,12,14,18,24,25,31,32,22,138,1.6,0.8,1.3*38
2017-11-16 16:43:12 1510868592.442268: $GPZDA,214311.00,16,11,2017,00,00*61
2017-11-16 16:43:12 1510868592.442427: $GPGGA,214311,3946.9579,N,08404.9814,W,2,12,0.80,305.62,M,-33.324,M,,*70
2017-11-16 16:43:12 1510868592.442488: $GPRMC,214311,A,3946.9579,N,08404.9814,W,0.0000,0.000,161117,,*3C
2017-11-16 16:43:12 1510868592.442544: $GPGSA,A,3,1,10,11,12,14,18,24,25,31,32,22,138,1.6,0.8,1.3*38
2017-11-16 16:43:13 1510868593.439387: $GPZDA,214312.00,16,11,2017,00,00*62
2017-11-16 16:43:13 1510868593.439556: $GPGGA,214312,3946.9579,N,08404.9814,W,2,12,0.80,305.62,M,-33.324,M,,*73
2017-11-16 16:43:13 1510868593.439621: $GPRMC,214312,A,3946.9579,N,08404.9814,W,0.0000,0.000,161117,,*3F
2017-11-16 16:43:13 1510868593.439679: $GPGSA,A,3,1,10,11,12,14,18,24,25,31,32,22,138,1.6,0.8,1.3*38
2017-11-16 16:43:14 1510868594.769926: $GPGSV,3,1,12,01,13,319,37,10,71,129,48,11,11,303,36,12,25,073,47*73
2017-11-16 16:43:14 1510868594.770127: $GPGSV,3,2,12,14,54,289,43,18,39,135,46,24,15,045,49,25,29,115,43*7D
2017-11-16 16:43:14 1510868594.770192: $GPGSV,3,3,12,31,33,211,44,32,67,324,51,22,01,310,30,138,38,213,45*4B
2017-11-16 16:43:14 1510868594.883520: $GPZDA,214313.00,16,11,2017,00,00*63
2017-11-16 16:43:14 1510868594.883682: $GPGGA,214313,3946.9583,N,08404.9814,W,2,12,0.80,306.26,M,-33.324,M,,*74
2017-11-16 16:43:14 1510868594.883745: $GPRMC,214313,A,3946.9583,N,08404.9814,W,0.0000,0.000,161117,,*3B
2017-11-16 16:43:14 1510868594.883804: $GPGSA,A,3,1,10,11,12,14,18,24,25,31,32,22,138,1.6,0.8,1.3*38
2017-11-16 16:43:15 1510868595.440679: $GPZDA,214314.00,16,11,2017,00,00*64
2017-11-16 16:43:15 1510868595.440837: $GPGGA,214314,3946.9583,N,08404.9814,W,2,12,0.80,306.26,M,-33.324,M,,*73
2017-11-16 16:43:15 1510868595.440901: $GPRMC,214314,A,3946.9583,N,08404.9814,W,0.0000,0.000,161117,,*3C
2017-11-16 16:43:15 1510868595.440983: $GPGSA,A,3,1,10,11,12,14,18,24,25,31,32,22,138,1.6,0.8,1.3*38
2017-11-16 16:43:16 1510868596.451037: $GPZDA,214315.00,16,11,2017,00,00*65
2017-11-16 16:43:16 1510868596.451219: $GPGGA,214315,3946.9580,N,08404.9815,W,2,12,0.80,307.02,M,-33.324,M,,*77
2017-11-16 16:43:16 1510868596.451283: $GPRMC,214315,A,3946.9580,N,08404.9815,W,0.0000,0.000,161117,,*3F
2017-11-16 16:43:16 1510868596.451342: $GPGSA,A,3,1,10,11,12,14,18,24,25,31,32,22,138,1.6,0.8,1.3*38
2017-11-16 16:43:17 1510868597.775403: $GPGSV,3,1,12,01,13,319,38,10,71,129,48,11,11,303,36,12,25,073,47*7C
2017-11-16 16:43:17 1510868597.775573: $GPGSV,3,2,12,14,54,289,43,18,39,135,46,24,15,045,49,25,29,115,43*7D
2017-11-16 16:43:17 1510868597.775637: $GPGSV,3,3,12,31,33,211,44,32,67,324,51,22,01,310,30,138,38,213,44*4A
2017-11-16 16:43:17 1510868597.888914: $GPZDA,214316.00,16,11,2017,00,00*66
2017-11-16 16:43:17 1510868597.896142: $GPGGA,214316,3946.9580,N,08404.9815,W,2,12,0.80,307.02,M,-33.324,M,,*74
2017-11-16 16:43:17 1510868597.896291: $GPRMC,214316,A,3946.9580,N,08404.9815,W,0.0000,0.000,161117,,*3C
2017-11-16 16:43:17 1510868597.896352: $GPGSA,A,3,1,10,11,12,14,18,24,25,31,32,22,138,1.6,0.8,1.3*38
2017-11-16 16:43:18 1510868598.457274: $GPZDA,214317.00,16,11,2017,00,00*67
2017-11-16 16:43:18 1510868598.457429: $GPGGA,214317,3946.9580,N,08404.9815,W,2,12,0.80,307.02,M,-33.324,M,,*75
2017-11-16 16:43:18 1510868598.457489: $GPRMC,214317,A,3946.9580,N,08404.9815,W,0.0000,0.000,161117,,*3D
2017-11-16 16:43:18 1510868598.457544: $GPGSA,A,3,1,10,11,12,14,18,24,25,31,32,22,138,1.6,0.8,1.3*38
2017-11-16 16:43:19 1510868599.457056: $GPZDA,214318.00,16,11,2017,00,00*68
2017-11-16 16:43:19 1510868599.457230: $GPGGA,214318,3946.9580,N,08404.9815,W,2,12,0.80,307.02,M,-33.324,M,,*7A
2017-11-16 16:43:19 1510868599.457292: $GPRMC,214318,A,3946.9580,N,08404.9815,W,0.0000,0.000,161117,,*32
2017-11-16 16:43:19 1510868599.457348: $GPGSA,A,3,1,10,11,12,14,18,24,25,31,32,22,138,1.6,0.8,1.3*38
2017-11-16 16:43:20 1510868600.792683: $GPGSV,3,1,12,01,13,319,40,10,71,129,49,11,11,303,35,12,25,073,47*71
2017-11-16 16:43:20 1510868600.792993: $GPGSV,3,2,12,14,54,289,43,18,39,135,46,24,15,045,49,25,29,115,44*7A
2017-11-16 16:43:20 1510868600.793124: $GPGSV,3,3,12,31,33,211,44,32,67,324,51,22,01,310,30,138,38,213,45*4B
2017-11-16 16:43:20 1510868600.906224: $GPZDA,214319.00,16,11,2017,00,00*69
2017-11-16 16:43:20 1510868600.906370: $GPGGA,214319,3946.9580,N,08404.9815,W,2,12,0.80,307.02,M,-33.324,M,,*7B
2017-11-16 16:43:20 1510868600.906429: $GPRMC,214319,A,3946.9580,N,08404.9815,W,0.0000,0.000,161117,,*33
2017-11-16 16:43:20 1510868600.906484: $GPGSA,A,3,1,10,11,12,14,18,24,25,31,32,22,138,1.6,0.8,1.3*38
