2017-12-01 14:40:43 1512157243.916991: {"class":"VERSION","release":"3.16","rev":"3.16-4","proto_major":3,"proto_minor":11}
2017-12-01 14:40:43 1512157243.917407: {"class":"DEVICES","devices":[{"class":"DEVICE","path":"/dev/ttyUSB0","driver":"SiRF","subtype":"9\u0006GSD4e_4.1.2-P1_RPATCH.05-F-GPS-4R-1510281 11/03/2015 307","activated":"2017-12-01T19:40:43.487Z","flags":1,"native":1,"bps":4800,"parity":"N","stopbits":1,"cycle":1.00}]}
2017-12-01 14:40:43 1512157243.917533: {"class":"WATCH","enable":true,"json":false,"nmea":true,"raw":0,"scaled":false,"timing":false,"split24":false,"pps":false}
2017-12-01 14:40:44 1512157244.705563: $GPGSV,3,1,12,10,76,345,47,12,14,100,37,14,35,259,44,18,64,108,46*77
2017-12-01 14:40:44 1512157244.705743: $GPGSV,3,2,12,21,21,178,46,24,39,052,47,31,06,204,29,32,52,274,45*70
2017-12-01 14:40:44 1512157244.705813: $GPGSV,3,3,12,08,03,286,34,15,06,070,24,25,08,136,26,138,38,213,46*45
2017-12-01 14:40:44 1512157244.819196: $GPZDA,194045.00,01,12,2017,00,00*6D
2017-12-01 14:40:44 1512157244.819361: $GPGGA,194045,3946.9590,N,08404.9852,W,2,12,1.00,298.64,M,-33.324,M,,*76
2017-12-01 14:40:44 1512157244.819432: $GPRMC,194045,A,3946.9590,N,08404.9852,W,0.0000,0.000,011217,,*35
2017-12-01 14:40:44 1512157244.819494: $GPGSA,A,3,10,12,14,18,21,24,31,32,8,15,25,138,2.0,1.0,1.5*3C
2017-12-01 14:40:45 1512157245.445831: $GPZDA,194046.00,01,12,2017,00,00*6E
2017-12-01 14:40:45 1512157245.446002: $GPGGA,194046,3946.9590,N,08404.9852,W,2,12,1.00,298.64,M,-33.324,M,,*75
2017-12-01 14:40:45 1512157245.446071: $GPRMC,194046,A,3946.9590,N,08404.9852,W,0.0000,0.000,011217,,*36
2017-12-01 14:40:45 1512157245.446134: $GPGSA,A,3,10,12,14,18,21,24,31,32,8,15,25,138,2.0,1.0,1.5*3C
2017-12-01 14:40:46 1512157246.345448: $GPZDA,194047.00,01,12,2017,00,00*6F
2017-12-01 14:40:46 1512157246.345621: $GPGGA,194047,3946.9590,N,08404.9852,W,2,12,1.00,298.64,M,-33.324,M,,*74
2017-12-01 14:40:46 1512157246.345689: $GPRMC,194047,A,3946.9590,N,08404.9852,W,0.0000,0.000,011217,,*37
2017-12-01 14:40:46 1512157246.345750: $GPGSA,A,3,10,12,14,18,21,24,31,32,8,15,25,138,2.0,1.0,1.5*3C
2017-12-01 14:40:47 1512157247.680960: $GPGSV,3,1,12,10,76,345,47,12,14,100,36,14,35,259,44,18,64,108,46*76
2017-12-01 14:40:47 1512157247.681159: $GPGSV,3,2,12,21,21,178,46,24,39,052,47,31,06,204,26,32,52,274,46*7C
2017-12-01 14:40:47 1512157247.681227: $GPGSV,3,3,12,08,03,286,33,15,06,070,18,25,08,136,26,138,38,213,47*4C
2017-12-01 14:40:47 1512157247.794373: $GPZDA,194048.00,01,12,2017,00,00*60
2017-12-01 14:40:47 1512157247.794561: $GPGGA,194048,3946.9590,N,08404.9852,W,2,12,1.00,298.64,M,-33.324,M,,*7B
2017-12-01 14:40:47 1512157247.794631: $GPRMC,194048,A,3946.9590,N,08404.9852,W,0.0000,0.000,011217,,*38
2017-12-01 14:40:47 1512157247.794692: $GPGSA,A,3,10,12,14,18,21,24,31,32,8,15,25,138,2.0,1.0,1.5*3C
2017-12-01 14:40:48 1512157248.347751: $GPZDA,194049.00,01,12,2017,00,00*61
2017-12-01 14:40:48 1512157248.347939: $GPGGA,194049,3946.9590,N,08404.9852,W,2,12,1.00,298.64,M,-33.324,M,,*7A
2017-12-01 14:40:48 1512157248.348008: $GPRMC,194049,A,3946.9590,N,08404.9852,W,0.0000,0.000,011217,,*39
2017-12-01 14:40:48 1512157248.348070: $GPGSA,A,3,10,12,14,18,21,24,31,32,8,15,25,138,2.0,1.0,1.5*3C
2017-12-01 14:40:49 1512157249.384981: $GPZDA,194050.00,01,12,2017,00,00*69
2017-12-01 14:40:49 1512157249.385139: $GPGGA,194050,3946.9590,N,08404.9852,W,2,12,1.00,298.64,M,-33.324,M,,*72
2017-12-01 14:40:49 1512157249.385207: $GPRMC,194050,A,3946.9590,N,08404.9852,W,0.0000,0.000,011217,,*31
2017-12-01 14:40:49 1512157249.385269: $GPGSA,A,3,10,12,14,18,21,24,31,32,8,15,25,138,2.0,1.0,1.5*3C
2017-12-01 14:40:50 1512157250.718752: $GPGSV,3,1,12,10,76,345,47,12,14,100,36,14,35,259,44,18,64,108,46*76
2017-12-01 14:40:50 1512157250.718929: $GPGSV,3,2,12,21,21,178,46,24,39,052,47,31,06,204,28,32,52,274,45*71
2017-12-01 14:40:50 1512157250.718997: $GPGSV,3,3,12,08,03,286,33,15,06,070,16,25,08,136,26,138,38,213,46*43
2017-12-01 14:40:50 1512157250.832158: $GPZDA,194051.00,01,12,2017,00,00*68
2017-12-01 14:40:50 1512157250.832332: $GPGGA,194051,3946.9590,N,08404.9852,W,2,12,1.00,298.64,M,-33.324,M,,*73
2017-12-01 14:40:50 1512157250.832454: $GPRMC,194051,A,3946.9590,N,08404.9852,W,0.0000,0.000,011217,,*30
2017-12-01 14:40:50 1512157250.832518: $GPGSA,A,3,10,12,14,18,21,24,31,32,8,15,25,138,2.0,1.0,1.5*3C
2017-12-01 14:40:51 1512157251.345516: $GPZDA,194052.00,01,12,2017,00,00*6B
2017-12-01 14:40:51 1512157251.345689: $GPGGA,194052,3946.9590,N,08404.9852,W,2,12,1.00,298.64,M,-33.324,M,,*70
2017-12-01 14:40:51 1512157251.345757: $GPRMC,194052,A,3946.9590,N,08404.9852,W,0.0000,0.000,011217,,*33
2017-12-01 14:40:51 1512157251.345821: $GPGSA,A,3,10,12,14,18,21,24,31,32,8,15,25,138,2.0,1.0,1.5*3C
2017-12-01 14:40:52 1512157252.381744: $GPZDA,194053.00,01,12,2017,00,00*6A
2017-12-01 14:40:52 1512157252.381935: $GPGGA,194053,3946.9590,N,08404.9852,W,2,12,1.00,298.64,M,-33.324,M,,*71
2017-12-01 14:40:52 1512157252.382005: $GPRMC,194053,A,3946.9590,N,08404.9852,W,0.0000,0.000,011217,,*32
2017-12-01 14:40:52 1512157252.382067: $GPGSA,A,3,10,12,14,18,21,24,31,32,8,15,25,138,2.0,1.0,1.5*3C
2017-12-01 14:40:53 1512157253.680857: $GPGSV,3,1,12,10,76,345,47,12,14,100,36,14,35,259,44,18,64,108,46*76
2017-12-01 14:40:53 1512157253.681049: $GPGSV,3,2,12,21,21,178,46,24,39,052,47,31,06,204,20,32,52,274,45*79
2017-12-01 14:40:53 1512157253.681117: $GPGSV,3,3,12,08,03,286,33,15,06,070,16,25,08,136,27,138,38,213,47*43
2017-12-01 14:40:53 1512157253.794172: $GPZDA,194054.00,01,12,2017,00,00*6D
2017-12-01 14:40:53 1512157253.794308: $GPGGA,194054,3946.9590,N,08404.9852,W,2,12,1.00,298.64,M,-33.324,M,,*76
2017-12-01 14:40:53 1512157253.794377: $GPRMC,194054,A,3946.9590,N,08404.9852,W,0.0000,0.000,011217,,*35
2017-12-01 14:40:53 1512157253.794438: $GPGSA,A,3,10,12,14,18,21,24,31,32,8,15,25,138,2.0,1.0,1.5*3C
2017-12-01 14:40:54 1512157254.338916: $GPZDA,194055.00,01,12,2017,00,00*6C
2017-12-01 14:40:54 1512157254.339107: $GPGGA,194055,3946.9590,N,08404.9852,W,2,12,1.00,298.64,M,-33.324,M,,*77
2017-12-01 14:40:54 1512157254.339176: $GPRMC,194055,A,3946.9590,N,08404.9852,W,0.0000,0.000,011217,,*34
2017-12-01 14:40:54 1512157254.339239: $GPGSA,A,3,10,12,14,18,21,24,31,32,8,15,25,138,2.0,1.0,1.5*3C
2017-12-01 14:40:55 1512157255.384493: $GPZDA,194056.00,01,12,2017,00,00*6F
2017-12-01 14:40:55 1512157255.384680: $GPGGA,194056,3946.9590,N,08404.9852,W,2,12,1.00,298.64,M,-33.324,M,,*74
2017-12-01 14:40:55 1512157255.384749: $GPRMC,194056,A,3946.9590,N,08404.9852,W,0.0000,0.000,011217,,*37
2017-12-01 14:40:55 1512157255.384813: $GPGSA,A,3,10,12,14,18,21,24,31,32,8,15,25,138,2.0,1.0,1.5*3C
2017-12-01 14:40:56 1512157256.673977: $GPGSV,3,1,12,10,76,345,47,12,14,100,37,14,35,259,44,18,64,108,46*77
2017-12-01 14:40:56 1512157256.674152: $GPGSV,3,2,12,21,21,178,46,24,39,052,46,31,06,204,20,32,52,274,46*7B
2017-12-01 14:40:56 1512157256.674218: $GPGSV,3,3,12,08,03,286,33,15,06,070,18,25,08,136,27,138,38,213,46*4C
2017-12-01 14:40:56 1512157256.787112: $GPZDA,194057.00,01,12,2017,00,00*6E
2017-12-01 14:40:56 1512157256.787305: $GPGGA,194057,3946.9590,N,08404.9852,W,2,12,1.00,298.64,M,-33.324,M,,*75
2017-12-01 14:40:56 1512157256.787371: $GPRMC,194057,A,3946.9590,N,08404.9852,W,0.0000,0.000,011217,,*36
2017-12-01 14:40:56 1512157256.787432: $GPGSA,A,3,10,12,14,18,21,24,31,32,8,15,25,138,2.0,1.0,1.5*3C
2017-12-01 14:40:57 1512157257.381784: $GPZDA,194058.00,01,12,2017,00,00*61
2017-12-01 14:40:57 1512157257.381973: $GPGGA,194058,3946.9590,N,08404.9852,W,2,12,1.00,298.64,M,-33.324,M,,*7A
2017-12-01 14:40:57 1512157257.382040: $GPRMC,194058,A,3946.9590,N,08404.9852,W,0.0000,0.000,011217,,*39
2017-12-01 14:40:57 1512157257.382102: $GPGSA,A,3,10,12,14,18,21,24,31,32,8,15,25,138,2.0,1.0,1.5*3C
2017-12-01 14:40:58 1512157258.346341: $GPZDA,194059.00,01,12,2017,00,00*60
2017-12-01 14:40:58 1512157258.346519: $GPGGA,194059,3946.9590,N,08404.9852,W,2,12,1.00,298.64,M,-33.324,M,,*7B
2017-12-01 14:40:58 1512157258.346587: $GPRMC,194059,A,3946.9590,N,08404.9852,W,0.0000,0.000,011217,,*38
2017-12-01 14:40:58 1512157258.346649: $GPGSA,A,3,10,12,14,18,21,24,31,32,8,15,25,138,2.0,1.0,1.5*3C
2017-12-01 14:40:59 1512157259.718326: $GPGSV,3,1,12,10,76,345,47,12,14,100,37,14,35,259,44,18,64,108,46*77
2017-12-01 14:40:59 1512157259.718512: $GPGSV,3,2,12,21,21,178,46,24,39,052,46,31,06,204,21,32,52,274,46*7A
2017-12-01 14:40:59 1512157259.718579: $GPGSV,3,3,12,08,03,286,32,15,06,070,23,25,08,136,27,138,38,213,46*45
2017-12-01 14:40:59 1512157259.832156: $GPZDA,194100.00,01,12,2017,00,00*6D
2017-12-01 14:40:59 1512157259.832327: $GPGGA,194100,3946.9590,N,08404.9852,W,2,12,1.00,298.64,M,-33.324,M,,*76
2017-12-01 14:40:59 1512157259.832394: $GPRMC,194100,A,3946.9590,N,08404.9852,W,0.0000,0.000,011217,,*35
2017-12-01 14:40:59 1512157259.832455: $GPGSA,A,3,10,12,14,18,21,24,31,32,8,15,25,138,2.0,1.0,1.5*3C
2017-12-01 14:41:00 1512157260.458588: $GPZDA,194101.00,01,12,2017,00,00*6C
2017-12-01 14:41:00 1512157260.458799: $GPGGA,194101,3946.9590,N,08404.9852,W,2,12,1.00,298.64,M,-33.324,M,,*77
2017-12-01 14:41:00 1512157260.458884: $GPRMC,194101,A,3946.9590,N,08404.9852,W,0.0000,0.000,011217,,*34
2017-12-01 14:41:00 1512157260.458948: $GPGSA,A,3,10,12,14,18,21,24,31,32,8,15,25,138,2.0,1.0,1.5*3C
2017-12-01 14:41:01 1512157261.373282: $GPZDA,194102.00,01,12,2017,00,00*6F
2017-12-01 14:41:01 1512157261.373449: $GPGGA,194102,3946.9590,N,08404.9852,W,2,12,1.00,298.64,M,-33.324,M,,*74
2017-12-01 14:41:01 1512157261.373516: $GPRMC,194102,A,3946.9590,N,08404.9852,W,0.0000,0.000,011217,,*37
2017-12-01 14:41:01 1512157261.373576: $GPGSA,A,3,10,12,14,18,21,24,31,32,8,15,25,138,2.0,1.0,1.5*3C
2017-12-01 14:41:02 1512157262.675039: $GPGSV,3,1,12,10,76,345,47,12,14,100,37,14,35,259,44,18,64,108,46*77
2017-12-01 14:41:02 1512157262.675205: $GPGSV,3,2,12,21,21,178,46,24,39,052,47,31,06,204,21,32,52,274,45*78
2017-12-01 14:41:02 1512157262.675271: $GPGSV,3,3,12,08,03,286,32,15,06,070,23,25,08,136,27,138,38,213,47*44
2017-12-01 14:41:02 1512157262.787810: $GPZDA,194103.00,01,12,2017,00,00*6E
2017-12-01 14:41:02 1512157262.788000: $GPGGA,194103,3946.9590,N,08404.9852,W,2,12,1.00,298.64,M,-33.324,M,,*75
2017-12-01 14:41:02 1512157262.788067: $GPRMC,194103,A,3946.9590,N,08404.9852,W,0.0000,0.000,011217,,*36
2017-12-01 14:41:02 1512157262.788128: $GPGSA,A,3,10,12,14,18,21,24,31,32,8,15,25,138,2.0,1.0,1.5*3C
2017-12-01 14:41:03 1512157263.347063: $GPZDA,194104.00,01,12,2017,00,00*69
2017-12-01 14:41:03 1512157263.347237: $GPGGA,194104,3946.9590,N,08404.9852,W,2,12,1.00,298.64,M,-33.324,M,,*72
2017-12-01 14:41:03 1512157263.347304: $GPRMC,194104,A,3946.9590,N,08404.9852,W,0.0000,0.000,011217,,*31
2017-12-01 14:41:03 1512157263.347365: $GPGSA,A,3,10,12,14,18,21,24,31,32,8,15,25,138,2.0,1.0,1.5*3C
2017-12-01 14:41:04 1512157264.344310: $GPZDA,194105.00,01,12,2017,00,00*68
2017-12-01 14:41:04 1512157264.349384: $GPGGA,194105,3946.9590,N,08404.9852,W,2,12,1.00,298.64,M,-33.324,M,,*73
2017-12-01 14:41:04 1512157264.349493: $GPRMC,194105,A,3946.9590,N,08404.9852,W,0.0000,0.000,011217,,*30
2017-12-01 14:41:04 1512157264.349558: $GPGSA,A,3,10,12,14,18,21,24,31,32,8,15,25,138,2.0,1.0,1.5*3C
2017-12-01 14:41:05 1512157265.681734: $GPGSV,3,1,12,10,76,345,46,12,14,100,37,14,35,259,44,18,64,108,46*76
2017-12-01 14:41:05 1512157265.681920: $GPGSV,3,2,12,21,21,178,46,24,39,052,48,31,06,204,26,32,52,274,45*70
2017-12-01 14:41:05 1512157265.681989: $GPGSV,3,3,12,08,03,286,32,15,06,070,23,25,08,136,27,138,38,213,48*4B
2017-12-01 14:41:05 1512157265.795077: $GPZDA,194106.00,01,12,2017,00,00*6B
2017-12-01 14:41:05 1512157265.795238: $GPGGA,194106,3946.9590,N,08404.9852,W,2,12,1.00,298.64,M,-33.324,M,,*70
2017-12-01 14:41:05 1512157265.795305: $GPRMC,194106,A,3946.9590,N,08404.9852,W,0.0000,0.000,011217,,*33
2017-12-01 14:41:05 1512157265.795366: $GPGSA,A,3,10,12,14,18,21,24,31,32,8,15,25,138,2.0,1.0,1.5*3C
2017-12-01 14:41:06 1512157266.345969: $GPZDA,194107.00,01,12,2017,00,00*6A
2017-12-01 14:41:06 1512157266.346136: $GPGGA,194107,3946.9590,N,08404.9852,W,2,12,1.00,298.64,M,-33.324,M,,*71
2017-12-01 14:41:06 1512157266.346204: $GPRMC,194107,A,3946.9590,N,08404.9852,W,0.0000,0.000,011217,,*32
2017-12-01 14:41:06 1512157266.346267: $GPGSA,A,3,10,12,14,18,21,24,31,32,8,15,25,138,2.0,1.0,1.5*3C
2017-12-01 14:41:07 1512157267.346749: $GPZDA,194108.00,01,12,2017,00,00*65
2017-12-01 14:41:07 1512157267.346917: $GPGGA,194108,3946.9590,N,08404.9852,W,2,12,1.00,298.64,M,-33.324,M,,*7E
2017-12-01 14:41:07 1512157267.346986: $GPRMC,194108,A,3946.9590,N,08404.9852,W,0.0000,0.000,011217,,*3D
2017-12-01 14:41:07 1512157267.347047: $GPGSA,A,3,10,12,14,18,21,24,31,32,8,15,25,138,2.0,1.0,1.5*3C
2017-12-01 14:41:08 1512157268.672487: $GPGSV,3,1,12,10,76,345,46,12,14,100,37,14,35,259,44,18,64,108,46*76
2017-12-01 14:41:08 1512157268.672671: $GPGSV,3,2,12,21,21,178,46,24,39,052,47,31,06,204,15,32,52,274,44*7E
2017-12-01 14:41:08 1512157268.672742: $GPGSV,3,3,12,08,03,286,32,15,06,070,15,25,08,136,26,138,38,213,46*41
2017-12-01 14:41:08 1512157268.786014: $GPZDA,194109.00,01,12,2017,00,00*64
2017-12-01 14:41:08 1512157268.786201: $GPGGA,194109,3946.9590,N,08404.9852,W,2,12,1.00,298.64,M,-33.324,M,,*7F
2017-12-01 14:41:08 1512157268.786274: $GPRMC,194109,A,3946.9590,N,08404.9852,W,0.0000,0.000,011217,,*3C
2017-12-01 14:41:08 1512157268.786341: $GPGSA,A,3,10,12,14,18,21,24,31,32,8,15,25,138,2.0,1.0,1.5*3C
