2017-11-15 19:02:25 1510790545.704133: {"class":"VERSION","release":"3.17","rev":"3.17","proto_major":3,"proto_minor":12}
2017-11-15 19:02:25 1510790545.704669: {"class":"DEVICES","devices":[{"class":"DEVICE","path":"/dev/ttyUSB0","driver":"SiRF","subtype":"9\u0006GSD4e_4.1.2-P1_RPATCH.05-F-GPS-4R-1510281 11/03/2015 307","activated":"2017-11-16T00:02:25.661Z","flags":1,"native":1,"bps":4800,"parity":"N","stopbits":1,"cycle":1.00}]}
2017-11-15 19:02:25 1510790545.704791: {"class":"WATCH","enable":true,"json":false,"nmea":true,"raw":0,"scaled":false,"timing":false,"split24":false,"pps":false}
2017-11-15 19:02:26 1510790546.345912: $GPZDA,000225.00,16,11,2017,00,00*60
2017-11-15 19:02:26 1510790546.346110: $GPGGA,000225,3946.9638,N,08404.9493,W,1,08,2.00,306.53,M,-33.324,M,,*77
2017-11-15 19:02:26 1510790546.346175: $GPRMC,000225,A,3946.9638,N,08404.9493,W,0.6846,4.197,161117,,*3F
2017-11-15 19:02:26 1510790546.346231: $GPGSA,A,3,32,14,3,31,16,22,25,29,,,,,3.4,2.0,2.9*02
2017-11-15 19:02:27 1510790547.681641: $GPGSV,3,1,11,32,46,096,21,14,63,072,26,03,31,309,21,26,39,175,04*74
2017-11-15 19:02:27 1510790547.681815: $GPGSV,3,2,11,31,77,352,25,16,10,190,08,22,47,289,22,25,27,046,12*7C
2017-11-15 19:02:27 1510790547.681875: $GPGSV,3,3,11,29,06,082,14,01,12,262,00,10,09,159,00*4A
2017-11-15 19:02:27 1510790547.793719: $GPZDA,000226.00,16,11,2017,00,00*63
2017-11-15 19:02:27 1510790547.793887: $GPGGA,000226,3946.9634,N,08404.9493,W,1,08,2.00,305.90,M,-33.324,M,,*74
2017-11-15 19:02:27 1510790547.793949: $GPRMC,000226,A,3946.9634,N,08404.9493,W,0.4179,328.778,161117,,*3D
2017-11-15 19:02:27 1510790547.794005: $GPGSA,A,3,32,14,3,31,16,22,25,29,,,,,3.4,2.0,2.9*02
2017-11-15 19:02:28 1510790548.345853: $GPZDA,000227.00,16,11,2017,00,00*62
2017-11-15 19:02:28 1510790548.346019: $GPGGA,000227,3946.9631,N,08404.9501,W,1,08,1.00,306.58,M,-33.324,M,,*7E
2017-11-15 19:02:28 1510790548.346081: $GPRMC,000227,A,3946.9631,N,08404.9501,W,0.2422,273.794,161117,,*33
2017-11-15 19:02:28 1510790548.346138: $GPGSA,A,3,32,14,3,31,16,22,25,29,,,,,3.4,1.0,2.9*01
2017-11-15 19:02:29 1510790549.346795: $GPZDA,000228.00,16,11,2017,00,00*6D
2017-11-15 19:02:29 1510790549.346973: $GPGGA,000228,3946.9627,N,08404.9501,W,1,08,2.00,305.94,M,-33.324,M,,*76
2017-11-15 19:02:29 1510790549.347034: $GPRMC,000228,A,3946.9627,N,08404.9501,W,0.2422,273.794,161117,,*3B
2017-11-15 19:02:29 1510790549.347090: $GPGSA,A,3,32,14,3,31,16,22,25,29,,,,,3.4,2.0,2.9*02
2017-11-15 19:02:30 1510790550.681246: $GPGSV,3,1,11,32,46,096,21,14,63,072,26,03,31,309,22,26,39,175,04*77
2017-11-15 19:02:30 1510790550.681418: $GPGSV,3,2,11,31,77,352,25,16,10,190,08,22,47,289,22,25,27,046,12*7C
2017-11-15 19:02:30 1510790550.681478: $GPGSV,3,3,11,29,06,082,14,01,12,262,00,10,09,159,00*4A
2017-11-15 19:02:30 1510790550.794592: $GPZDA,000229.00,16,11,2017,00,00*6C
2017-11-15 19:02:30 1510790550.794768: $GPGGA,000229,3946.9627,N,08404.9501,W,1,08,1.00,305.94,M,-33.324,M,,*74
2017-11-15 19:02:30 1510790550.794833: $GPRMC,000229,A,3946.9627,N,08404.9501,W,0.2422,93.794,161117,,*06
2017-11-15 19:02:30 1510790550.794889: $GPGSA,A,3,32,14,3,31,16,22,25,29,,,,,3.4,1.0,2.9*01
2017-11-15 19:02:31 1510790551.420056: $GPZDA,000230.00,16,11,2017,00,00*64
2017-11-15 19:02:32 1510790552.355458: $GPGGA,000230,3946.9623,N,08404.9501,W,1,08,1.00,305.30,M,-33.324,M,,*76
2017-11-15 19:02:32 1510790552.355585: $GPRMC,000230,A,3946.9623,N,08404.9501,W,0.5912,129.173,161117,,*3C
2017-11-15 19:02:32 1510790552.355645: $GPGSA,A,3,32,14,3,31,16,22,25,29,,,,,3.4,1.0,2.9*01
2017-11-15 19:02:32 1510790552.355726: $GPZDA,000231.00,16,11,2017,00,00*65
2017-11-15 19:02:32 1510790552.355778: $GPGGA,000231,3946.9622,N,08404.9494,W,1,08,1.00,305.38,M,-33.324,M,,*73
2017-11-15 19:02:32 1510790552.355834: $GPRMC,000231,A,3946.9622,N,08404.9494,W,0.5912,129.173,161117,,*31
2017-11-15 19:02:32 1510790552.355888: $GPGSA,A,3,32,14,3,31,16,22,25,29,,,,,3.4,1.0,2.9*01
2017-11-15 19:02:33 1510790553.682874: $GPGSV,3,1,11,32,46,096,21,14,63,072,26,03,31,309,22,26,39,175,11*73
2017-11-15 19:02:33 1510790553.683049: $GPGSV,3,2,11,31,77,352,25,16,10,190,09,22,47,289,22,25,27,046,11*7E
2017-11-15 19:02:33 1510790553.683158: $GPGSV,3,3,11,29,06,082,13,01,12,262,00,10,09,159,00*4D
2017-11-15 19:02:33 1510790553.796260: $GPZDA,000232.00,16,11,2017,00,00*66
2017-11-15 19:02:33 1510790553.796422: $GPGGA,000232,3946.9622,N,08404.9494,W,1,09,0.80,305.38,M,-33.324,M,,*78
2017-11-15 19:02:33 1510790553.796483: $GPRMC,000232,A,3946.9622,N,08404.9494,W,0.4844,93.794,161117,,*0E
2017-11-15 19:02:33 1510790553.796538: $GPGSA,A,3,32,14,3,26,31,16,22,25,29,,,,3.4,0.8,2.9*0C
2017-11-15 19:02:34 1510790554.346014: $GPZDA,000233.00,16,11,2017,00,00*67
2017-11-15 19:02:34 1510790554.346176: $GPGGA,000233,3946.9622,N,08404.9494,W,1,09,0.80,305.38,M,-33.324,M,,*79
2017-11-15 19:02:34 1510790554.346237: $GPRMC,000233,A,3946.9622,N,08404.9494,W,0.4844,93.794,161117,,*0F
2017-11-15 19:02:34 1510790554.346293: $GPGSA,A,3,32,14,3,26,31,16,22,25,29,,,,3.4,0.8,2.9*0C
2017-11-15 19:02:35 1510790555.350771: $GPZDA,000234.00,16,11,2017,00,00*60
2017-11-15 19:02:35 1510790555.350941: $GPGGA,000234,3946.9622,N,08404.9494,W,1,09,0.80,305.38,M,-33.324,M,,*7E
2017-11-15 19:02:35 1510790555.351004: $GPRMC,000234,A,3946.9622,N,08404.9494,W,0.2422,93.794,161117,,*02
2017-11-15 19:02:35 1510790555.351060: $GPGSA,A,3,32,14,3,26,31,16,22,25,29,,,,3.4,0.8,2.9*0C
