2018-01-12 04:18:09 1515748689.984119: {"class":"VERSION","release":"3.16","rev":"3.16-4","proto_major":3,"proto_minor":11}
2018-01-12 04:18:09 1515748689.984523: {"class":"DEVICES","devices":[{"class":"DEVICE","path":"/dev/ttyUSB0","driver":"SiRF","subtype":"9\u0006GSD4e_4.1.2-P1_RPATCH.05-F-GPS-4R-1510281 11/03/2015 307","activated":"2018-01-12T09:18:09.979Z","flags":1,"native":1,"bps":4800,"parity":"N","stopbits":1,"cycle":1.00}]}
2018-01-12 04:18:09 1515748689.984639: {"class":"WATCH","enable":true,"json":false,"nmea":true,"raw":0,"scaled":false,"timing":false,"split24":false,"pps":false}
2018-01-12 04:18:10 1515748690.408151: $GPZDA,091811.00,12,01,2018,00,00*6F
2018-01-12 04:18:10 1515748690.408313: $GPGGA,091811,3946.9653,N,08404.9728,W,2,10,1.00,301.67,M,-33.324,M,,*75
2018-01-12 04:18:10 1515748690.408378: $GPRMC,091811,A,3946.9653,N,08404.9728,W,0.0000,0.000,120118,,*39
2018-01-12 04:18:10 1515748690.408439: $GPGSA,A,3,2,5,6,12,25,29,9,23,19,138,,,2.4,1.0,2.1*02
2018-01-12 04:18:11 1515748691.413519: $GPZDA,091812.00,12,01,2018,00,00*6C
2018-01-12 04:18:11 1515748691.413697: $GPGGA,091812,3946.9653,N,08404.9728,W,2,10,0.80,301.67,M,-33.324,M,,*7F
2018-01-12 04:18:11 1515748691.413763: $GPRMC,091812,A,3946.9653,N,08404.9728,W,0.0000,0.000,120118,,*3A
2018-01-12 04:18:11 1515748691.413824: $GPGSA,A,3,2,5,6,12,25,29,9,23,19,138,,,2.4,0.8,2.1*0B
2018-01-12 04:18:12 1515748692.741765: $GPGSV,3,1,12,02,71,340,45,05,48,198,50,06,48,052,47,12,52,255,49*73
2018-01-12 04:18:12 1515748692.741961: $GPGSV,3,2,12,25,31,303,43,29,10,306,43,09,19,069,17,17,15,120,20*7A
2018-01-12 04:18:12 1515748692.742028: $GPGSV,3,3,12,23,06,039,20,19,33,114,23,04,53,282,00,138,38,213,48*4F
2018-01-12 04:18:12 1515748692.855230: $GPZDA,091813.00,12,01,2018,00,00*6D
2018-01-12 04:18:12 1515748692.855410: $GPGGA,091813,3946.9653,N,08404.9728,W,2,10,1.00,301.67,M,-33.324,M,,*77
2018-01-12 04:18:12 1515748692.855476: $GPRMC,091813,A,3946.9653,N,08404.9728,W,0.0000,0.000,120118,,*3B
2018-01-12 04:18:12 1515748692.855537: $GPGSA,A,3,2,5,6,12,25,29,9,23,19,138,,,2.4,1.0,2.1*02
2018-01-12 04:18:13 1515748693.408643: $GPZDA,091814.00,12,01,2018,00,00*6A
2018-01-12 04:18:13 1515748693.408845: $GPGGA,091814,3946.9653,N,08404.9728,W,2,10,0.80,301.67,M,-33.324,M,,*79
2018-01-12 04:18:13 1515748693.408913: $GPRMC,091814,A,3946.9653,N,08404.9728,W,0.0000,0.000,120118,,*3C
2018-01-12 04:18:13 1515748693.408975: $GPGSA,A,3,2,5,6,12,25,29,9,23,19,138,,,2.4,0.8,2.1*0B
2018-01-12 04:18:14 1515748694.408130: $GPZDA,091815.00,12,01,2018,00,00*6B
2018-01-12 04:18:14 1515748694.408313: $GPGGA,091815,3946.9653,N,08404.9728,W,2,10,0.80,301.67,M,-33.324,M,,*78
2018-01-12 04:18:14 1515748694.408379: $GPRMC,091815,A,3946.9653,N,08404.9728,W,0.0000,0.000,120118,,*3D
2018-01-12 04:18:14 1515748694.408440: $GPGSA,A,3,2,5,6,12,25,29,9,23,19,138,,,2.4,0.8,2.1*0B
2018-01-12 04:18:15 1515748695.743863: $GPGSV,3,1,12,02,71,340,45,05,48,198,50,06,48,052,47,12,52,255,49*73
2018-01-12 04:18:15 1515748695.744042: $GPGSV,3,2,12,25,31,303,43,29,10,306,43,09,19,069,18,17,15,120,20*75
2018-01-12 04:18:15 1515748695.744107: $GPGSV,3,3,12,23,06,039,24,19,33,114,23,04,53,282,00,138,38,213,47*44
2018-01-12 04:18:15 1515748695.857327: $GPZDA,091816.00,12,01,2018,00,00*68
2018-01-12 04:18:15 1515748695.857500: $GPGGA,091816,3946.9653,N,08404.9728,W,2,11,0.80,301.67,M,-33.324,M,,*7A
2018-01-12 04:18:15 1515748695.857566: $GPRMC,091816,A,3946.9653,N,08404.9728,W,0.0000,0.000,120118,,*3E
2018-01-12 04:18:15 1515748695.857627: $GPGSA,A,3,2,5,6,12,25,29,9,17,23,19,138,,2.4,0.8,2.1*0D
2018-01-12 04:18:16 1515748696.482128: $GPZDA,091817.00,12,01,2018,00,00*69
2018-01-12 04:18:16 1515748696.482302: $GPGGA,091817,3946.9653,N,08404.9728,W,2,11,0.80,301.67,M,-33.324,M,,*7B
2018-01-12 04:18:16 1515748696.482367: $GPRMC,091817,A,3946.9653,N,08404.9728,W,0.0000,0.000,120118,,*3F
2018-01-12 04:18:16 1515748696.482428: $GPGSA,A,3,2,5,6,12,25,29,9,17,23,19,138,,2.4,0.8,2.1*0D
2018-01-12 04:18:17 1515748697.409646: $GPZDA,091818.00,12,01,2018,00,00*66
2018-01-12 04:18:17 1515748697.409819: $GPGGA,091818,3946.9653,N,08404.9728,W,2,11,0.80,301.67,M,-33.324,M,,*74
2018-01-12 04:18:17 1515748697.409939: $GPRMC,091818,A,3946.9653,N,08404.9728,W,0.0000,0.000,120118,,*30
2018-01-12 04:18:17 1515748697.410002: $GPGSA,A,3,2,5,6,12,25,29,9,17,23,19,138,,2.4,0.8,2.1*0D
2018-01-12 04:18:18 1515748698.744999: $GPGSV,3,1,12,02,71,340,44,05,48,198,50,06,48,052,47,12,52,255,49*72
2018-01-12 04:18:18 1515748698.745180: $GPGSV,3,2,12,25,31,303,43,29,10,306,43,09,19,069,17,17,15,120,10*79
2018-01-12 04:18:18 1515748698.745246: $GPGSV,3,3,12,23,06,039,27,19,33,114,24,04,53,282,00,138,38,213,47*40
2018-01-12 04:18:18 1515748698.858311: $GPZDA,091819.00,12,01,2018,00,00*67
2018-01-12 04:18:18 1515748698.858446: $GPGGA,091819,3946.9653,N,08404.9728,W,2,11,0.80,301.67,M,-33.324,M,,*75
2018-01-12 04:18:18 1515748698.858511: $GPRMC,091819,A,3946.9653,N,08404.9728,W,0.0000,0.000,120118,,*31
2018-01-12 04:18:18 1515748698.858572: $GPGSA,A,3,2,5,6,12,25,29,9,17,23,19,138,,2.4,0.8,2.1*0D
2018-01-12 04:18:19 1515748699.412975: $GPZDA,091820.00,12,01,2018,00,00*6D
2018-01-12 04:18:19 1515748699.413134: $GPGGA,091820,3946.9653,N,08404.9728,W,2,11,0.80,301.67,M,-33.324,M,,*7F
2018-01-12 04:18:19 1515748699.413200: $GPRMC,091820,A,3946.9653,N,08404.9728,W,0.0000,0.000,120118,,*3B
2018-01-12 04:18:19 1515748699.413261: $GPGSA,A,3,2,5,6,12,25,29,9,17,23,19,138,,2.4,0.8,2.1*0D
2018-01-12 04:18:20 1515748700.403963: $GPZDA,091821.00,12,01,2018,00,00*6C
2018-01-12 04:18:20 1515748700.404133: $GPGGA,091821,3946.9653,N,08404.9728,W,2,11,0.80,301.67,M,-33.324,M,,*7E
2018-01-12 04:18:20 1515748700.404259: $GPRMC,091821,A,3946.9653,N,08404.9728,W,0.0000,0.000,120118,,*3A
2018-01-12 04:18:20 1515748700.404324: $GPGSA,A,3,2,5,6,12,25,29,9,17,23,19,138,,2.4,0.8,2.1*0D
2018-01-12 04:18:21 1515748701.750438: $GPGSV,3,1,12,02,71,340,44,05,48,198,50,06,48,052,46,12,52,255,49*73
2018-01-12 04:18:21 1515748701.750665: $GPGSV,3,2,12,25,31,303,43,29,10,306,43,09,19,069,16,17,15,120,12*7A
2018-01-12 04:18:21 1515748701.750736: $GPGSV,3,3,12,23,06,039,27,19,33,114,19,04,53,282,00,138,38,213,47*4E
2018-01-12 04:18:21 1515748701.864125: $GPZDA,091822.00,12,01,2018,00,00*6F
2018-01-12 04:18:21 1515748701.864321: $GPGGA,091822,3946.9653,N,08404.9728,W,2,11,0.80,301.67,M,-33.324,M,,*7D
2018-01-12 04:18:21 1515748701.864393: $GPRMC,091822,A,3946.9653,N,08404.9728,W,0.0000,0.000,120118,,*39
2018-01-12 04:18:21 1515748701.864457: $GPGSA,A,3,2,5,6,12,25,29,9,17,23,19,138,,2.4,0.8,2.1*0D
2018-01-12 04:18:22 1515748702.408813: $GPZDA,091823.00,12,01,2018,00,00*6E
2018-01-12 04:18:22 1515748702.408981: $GPGGA,091823,3946.9653,N,08404.9728,W,2,11,0.80,301.67,M,-33.324,M,,*7C
2018-01-12 04:18:22 1515748702.409050: $GPRMC,091823,A,3946.9653,N,08404.9728,W,0.0000,0.000,120118,,*38
2018-01-12 04:18:22 1515748702.409113: $GPGSA,A,3,2,5,6,12,25,29,9,17,23,19,138,,2.4,0.8,2.1*0D
2018-01-12 04:18:23 1515748703.406761: $GPZDA,091824.00,12,01,2018,00,00*69
2018-01-12 04:18:23 1515748703.406936: $GPGGA,091824,3946.9653,N,08404.9728,W,2,11,0.80,301.67,M,-33.324,M,,*7B
2018-01-12 04:18:23 1515748703.407006: $GPRMC,091824,A,3946.9653,N,08404.9728,W,0.0000,0.000,120118,,*3F
2018-01-12 04:18:23 1515748703.407070: $GPGSA,A,3,2,5,6,12,25,29,9,17,23,19,138,,2.4,0.8,2.1*0D
2018-01-12 04:18:24 1515748704.761219: $GPGSV,3,1,12,02,71,340,44,05,48,198,49,06,48,052,46,12,52,255,49*7B
2018-01-12 04:18:24 1515748704.761405: $GPGSV,3,2,12,25,31,303,42,29,10,306,43,09,19,069,00,17,15,120,20*7D
2018-01-12 04:18:24 1515748704.761473: $GPGSV,3,3,12,23,06,039,27,19,33,114,17,04,53,282,00,138,38,213,47*40
2018-01-12 04:18:24 1515748704.874661: $GPZDA,091825.00,12,01,2018,00,00*68
2018-01-12 04:18:24 1515748704.874804: $GPGGA,091825,3946.9653,N,08404.9728,W,2,10,0.80,301.67,M,-33.324,M,,*7B
2018-01-12 04:18:24 1515748704.874872: $GPRMC,091825,A,3946.9653,N,08404.9728,W,0.0000,0.000,120118,,*3E
2018-01-12 04:18:24 1515748704.874936: $GPGSA,A,3,2,5,6,12,25,29,17,23,19,138,,,2.4,0.8,2.1*34
2018-01-12 04:18:25 1515748705.408002: $GPZDA,091826.00,12,01,2018,00,00*6B
2018-01-12 04:18:25 1515748705.408232: $GPGGA,091826,3946.9653,N,08404.9728,W,2,10,0.80,301.67,M,-33.324,M,,*78
2018-01-12 04:18:25 1515748705.408300: $GPRMC,091826,A,3946.9653,N,08404.9728,W,0.0000,0.000,120118,,*3D
2018-01-12 04:18:25 1515748705.408361: $GPGSA,A,3,2,5,6,12,25,29,17,23,19,138,,,2.4,0.8,2.1*34
2018-01-12 04:18:26 1515748706.403364: $GPZDA,091827.00,12,01,2018,00,00*6A
2018-01-12 04:18:26 1515748706.403556: $GPGGA,091827,3946.9653,N,08404.9728,W,2,10,0.80,301.67,M,-33.324,M,,*79
2018-01-12 04:18:26 1515748706.403640: $GPRMC,091827,A,3946.9653,N,08404.9728,W,0.0000,0.000,120118,,*3C
2018-01-12 04:18:26 1515748706.403703: $GPGSA,A,3,2,5,6,12,25,29,17,23,19,138,,,2.4,0.8,2.1*34
2018-01-12 04:18:27 1515748707.742939: $GPGSV,3,1,12,02,71,340,44,05,48,198,49,06,48,052,46,12,52,255,49*7B
2018-01-12 04:18:27 1515748707.743116: $GPGSV,3,2,12,25,31,303,42,29,10,306,43,09,19,069,00,17,15,120,21*7C
2018-01-12 04:18:27 1515748707.743181: $GPGSV,3,3,12,23,06,039,27,19,33,114,16,04,53,282,00,138,38,213,47*41
2018-01-12 04:18:27 1515748707.856668: $GPZDA,091828.00,12,01,2018,00,00*65
2018-01-12 04:18:27 1515748707.856832: $GPGGA,091828,3946.9653,N,08404.9728,W,2,10,0.80,301.67,M,-33.324,M,,*76
2018-01-12 04:18:27 1515748707.856898: $GPRMC,091828,A,3946.9653,N,08404.9728,W,0.0000,0.000,120118,,*33
2018-01-12 04:18:27 1515748707.856959: $GPGSA,A,3,2,5,6,12,25,29,17,23,19,138,,,2.4,0.8,2.1*34
2018-01-12 04:18:28 1515748708.424667: $GPZDA,091829.00,12,01,2018,00,00*64
2018-01-12 04:18:28 1515748708.424839: $GPGGA,091829,3946.9653,N,08404.9728,W,2,10,0.80,301.67,M,-33.324,M,,*77
2018-01-12 04:18:28 1515748708.424907: $GPRMC,091829,A,3946.9653,N,08404.9728,W,0.0000,0.000,120118,,*32
2018-01-12 04:18:28 1515748708.424968: $GPGSA,A,3,2,5,6,12,25,29,17,23,19,138,,,2.4,0.8,2.1*34
2018-01-12 04:18:29 1515748709.424487: $GPZDA,091830.00,12,01,2018,00,00*6C
2018-01-12 04:18:29 1515748709.424669: $GPGGA,091830,3946.9653,N,08404.9728,W,2,10,0.80,301.67,M,-33.324,M,,*7F
2018-01-12 04:18:29 1515748709.424736: $GPRMC,091830,A,3946.9653,N,08404.9728,W,0.0000,0.000,120118,,*3A
2018-01-12 04:18:29 1515748709.424797: $GPGSA,A,3,2,5,6,12,25,29,17,23,19,138,,,2.4,0.8,2.1*34
