2017-11-15 19:34:14 1510792454.853933: {"class":"VERSION","release":"3.17","rev":"3.17","proto_major":3,"proto_minor":12}
2017-11-15 19:34:14 1510792454.854369: {"class":"DEVICES","devices":[{"class":"DEVICE","path":"/dev/ttyUSB0","driver":"SiRF","subtype":"9\u0006GSD4e_4.1.2-P1_RPATCH.05-F-GPS-4R-1510281 11/03/2015 307","activated":"2017-11-16T00:34:14.486Z","flags":1,"native":1,"bps":4800,"parity":"N","stopbits":1,"cycle":1.00}]}
2017-11-15 19:34:14 1510792454.854489: {"class":"WATCH","enable":true,"json":false,"nmea":true,"raw":0,"scaled":false,"timing":false,"split24":false,"pps":false}
2017-11-15 19:34:15 1510792455.681677: $GPGSV,3,1,11,32,35,109,20,14,54,094,22,16,24,190,19,26,55,172,11*7E
2017-11-15 19:34:15 1510792455.681847: $GPGSV,3,2,11,29,11,070,16,31,66,027,04,03,40,297,20,25,16,039,00*73
2017-11-15 19:34:15 1510792455.681911: $GPGSV,3,3,11,23,12,301,00,01,05,252,00,22,50,268,15*45
2017-11-15 19:34:15 1510792455.794999: $GPZDA,003414.00,16,11,2017,00,00*67
2017-11-15 19:34:15 1510792455.795145: $GPGGA,003414,3946.9600,N,08404.9437,W,1,07,1.00,288.57,M,-33.324,M,,*7A
2017-11-15 19:34:15 1510792455.795205: $GPRMC,003414,A,3946.9600,N,08404.9437,W,0.9959,84.784,161117,,*01
2017-11-15 19:34:15 1510792455.795262: $GPGSA,A,3,32,14,16,26,29,3,22,,,,,,3.4,1.0,2.9*00
2017-11-15 19:34:16 1510792456.420678: $GPZDA,003415.00,16,11,2017,00,00*66
2017-11-15 19:34:16 1510792456.420840: $GPGGA,003415,3946.9600,N,08404.9437,W,1,07,1.00,288.57,M,-33.324,M,,*7B
2017-11-15 19:34:16 1510792456.420904: $GPRMC,003415,A,3946.9600,N,08404.9437,W,0.7621,107.945,161117,,*37
2017-11-15 19:34:16 1510792456.420961: $GPGSA,A,3,32,14,16,26,29,3,22,,,,,,3.4,1.0,2.9*00
2017-11-15 19:34:17 1510792457.330272: $GPZDA,003416.00,16,11,2017,00,00*65
2017-11-15 19:34:17 1510792457.330437: $GPGGA,003416,3946.9600,N,08404.9437,W,1,07,1.00,288.57,M,-33.324,M,,*78
2017-11-15 19:34:17 1510792457.330501: $GPRMC,003416,A,3946.9600,N,08404.9437,W,0.4844,93.795,161117,,*05
2017-11-15 19:34:17 1510792457.330557: $GPGSA,A,3,32,14,16,26,29,3,22,,,,,,3.4,1.0,2.9*00
2017-11-15 19:34:18 1510792458.665787: $GPGSV,3,1,11,32,35,109,20,14,54,094,22,16,24,190,19,26,55,172,13*7C
2017-11-15 19:34:18 1510792458.665964: $GPGSV,3,2,11,29,11,070,15,31,66,027,06,03,40,297,20,25,16,039,00*72
2017-11-15 19:34:18 1510792458.666026: $GPGSV,3,3,11,23,12,301,00,01,05,252,00,22,50,268,15*45
2017-11-15 19:34:18 1510792458.779402: $GPZDA,003417.00,16,11,2017,00,00*64
2017-11-15 19:34:18 1510792458.779567: $GPGGA,003417,3946.9600,N,08404.9437,W,1,07,1.20,288.57,M,-33.324,M,,*7B
2017-11-15 19:34:18 1510792458.779630: $GPRMC,003417,A,3946.9600,N,08404.9437,W,0.1867,180.000,161117,,*38
2017-11-15 19:34:18 1510792458.779685: $GPGSA,A,3,32,14,16,26,29,3,22,,,,,,3.4,1.2,2.9*02
2017-11-15 19:34:19 1510792459.330124: $GPZDA,003418.00,16,11,2017,00,00*6B
2017-11-15 19:34:19 1510792459.330289: $GPGGA,003418,3946.9600,N,08404.9437,W,1,07,1.20,288.57,M,-33.324,M,,*74
2017-11-15 19:34:19 1510792459.330351: $GPRMC,003418,A,3946.9600,N,08404.9437,W,0.5951,238.684,161117,,*3D
2017-11-15 19:34:19 1510792459.330408: $GPGSA,A,3,32,14,16,26,29,3,22,,,,,,3.4,1.2,2.9*02
2017-11-15 19:34:20 1510792460.329624: $GPZDA,003419.00,16,11,2017,00,00*6A
2017-11-15 19:34:20 1510792460.329787: $GPGGA,003419,3946.9600,N,08404.9437,W,1,07,1.00,288.57,M,-33.324,M,,*77
2017-11-15 19:34:20 1510792460.329849: $GPRMC,003419,A,3946.9600,N,08404.9437,W,0.3006,242.540,161117,,*37
2017-11-15 19:34:20 1510792460.329908: $GPGSA,A,3,32,14,16,26,29,3,22,,,,,,3.4,1.0,2.9*00
2017-11-15 19:34:21 1510792461.664911: $GPGSV,3,1,11,32,35,109,21,14,54,094,22,16,24,190,16,26,55,172,12*73
2017-11-15 19:34:21 1510792461.665087: $GPGSV,3,2,11,29,11,070,15,31,66,027,06,03,40,297,20,25,16,039,00*72
2017-11-15 19:34:21 1510792461.665148: $GPGSV,3,3,11,23,12,301,00,01,05,252,00,22,50,268,15*45
2017-11-15 19:34:21 1510792461.778229: $GPZDA,003420.00,16,11,2017,00,00*60
2017-11-15 19:34:21 1510792461.778389: $GPGGA,003420,3946.9600,N,08404.9444,W,1,07,1.00,288.49,M,-33.324,M,,*76
2017-11-15 19:34:21 1510792461.778451: $GPRMC,003420,A,3946.9600,N,08404.9444,W,0.5306,294.352,161117,,*32
2017-11-15 19:34:21 1510792461.778562: $GPGSA,A,3,32,14,16,26,29,3,22,,,,,,3.4,1.0,2.9*00
2017-11-15 19:34:22 1510792462.329123: $GPZDA,003421.00,16,11,2017,00,00*61
2017-11-15 19:34:22 1510792462.329286: $GPGGA,003421,3946.9600,N,08404.9444,W,1,07,1.00,288.49,M,-33.324,M,,*77
2017-11-15 19:34:22 1510792462.329348: $GPRMC,003421,A,3946.9600,N,08404.9444,W,0.8011,299.090,161117,,*3B
2017-11-15 19:34:22 1510792462.329405: $GPGSA,A,3,32,14,16,26,29,3,22,,,,,,3.4,1.0,2.9*00
2017-11-15 19:34:23 1510792463.328846: $GPZDA,003422.00,16,11,2017,00,00*62
2017-11-15 19:34:23 1510792463.329009: $GPGGA,003422,3946.9604,N,08404.9444,W,1,07,1.00,289.13,M,-33.324,M,,*7E
2017-11-15 19:34:23 1510792463.329072: $GPRMC,003422,A,3946.9604,N,08404.9444,W,0.8359,328.778,161117,,*39
2017-11-15 19:34:23 1510792463.329129: $GPGSA,A,3,32,14,16,26,29,3,22,,,,,,3.4,1.0,2.9*00
2017-11-15 19:34:24 1510792464.664610: $GPGSV,3,1,11,32,35,109,21,14,54,094,21,16,24,190,18,26,55,172,12*7E
2017-11-15 19:34:24 1510792464.664781: $GPGSV,3,2,11,29,11,070,15,31,66,027,05,03,40,297,20,25,16,039,00*71
2017-11-15 19:34:24 1510792464.664844: $GPGSV,3,3,11,23,12,301,00,01,05,252,00,22,50,268,15*45
2017-11-15 19:34:24 1510792464.778013: $GPZDA,003423.00,16,11,2017,00,00*63
2017-11-15 19:34:24 1510792464.778173: $GPGGA,003423,3946.9605,N,08404.9451,W,1,07,1.00,289.05,M,-33.324,M,,*7D
2017-11-15 19:34:24 1510792464.778236: $GPRMC,003423,A,3946.9605,N,08404.9451,W,0.8359,328.778,161117,,*3D
2017-11-15 19:34:24 1510792464.778292: $GPGSA,A,3,32,14,16,26,29,3,22,,,,,,3.4,1.0,2.9*00
