2017-12-01 12:02:18 1512147738.976948: {"class":"VERSION","release":"3.16","rev":"3.16-4","proto_major":3,"proto_minor":11}
2017-12-01 12:02:18 1512147738.977425: {"class":"DEVICES","devices":[{"class":"DEVICE","path":"/dev/ttyUSB0","driver":"SiRF","subtype":"9\u0006GSD4e_4.1.2-P1_RPATCH.05-F-GPS-4R-1510281 11/03/2015 307","activated":"2017-12-01T17:02:18.885Z","flags":1,"native":1,"bps":4800,"parity":"N","stopbits":1,"cycle":1.00}]}
2017-12-01 12:02:18 1512147738.977550: {"class":"WATCH","enable":true,"json":false,"nmea":true,"raw":0,"scaled":false,"timing":false,"split24":false,"pps":false}
2017-12-01 12:02:18 1512147738.998368: $GPZDA,170219.69,01,12,2017,00,00*63
2017-12-01 12:02:18 1512147738.998529: $GPGGA,170219,3946.9561,N,08404.9857,W,1,11,0.80,303.35,M,-33.324,M,,*72
2017-12-01 12:02:18 1512147738.998594: $GPRMC,170219,A,3946.9561,N,08404.9857,W,0.4989,147.677,011217,,*37
2017-12-01 12:02:18 1512147738.998656: $GPGSA,A,3,13,15,18,20,21,24,27,29,10,5,138,,2.0,0.8,1.5*34
2017-12-01 12:02:18 1512147738.998715: $GPGBS,170219,10.70,M,15.43,M,35.28,M*0B
2017-12-01 12:02:19 1512147739.930778: $GPZDA,170220.37,01,12,2017,00,00*62
2017-12-01 12:02:19 1512147739.930966: $GPGGA,170220,3946.9561,N,08404.9850,W,1,11,0.80,303.43,M,-33.324,M,,*7E
2017-12-01 12:02:19 1512147739.931033: $GPRMC,170220,A,3946.9561,N,08404.9850,W,0.1324,22.230,011217,,*07
2017-12-01 12:02:19 1512147739.931095: $GPGSA,A,3,13,15,18,20,21,24,27,29,10,5,138,,2.0,0.8,1.5*34
2017-12-01 12:02:19 1512147739.931154: $GPGBS,170220,10.70,M,15.43,M,35.28,M*01
2017-12-01 12:02:21 1512147741.073178: $GPGSV,3,1,12,10,19,277,42,13,35,046,45,15,68,055,46,18,50,294,44*79
2017-12-01 12:02:21 1512147741.073355: $GPGSV,3,2,12,20,56,063,45,21,74,292,45,24,28,144,47,27,13,318,40*71
2017-12-01 12:02:21 1512147741.073437: $GPGSV,3,3,12,29,16,192,37,05,08,082,06,04,05,133,00,138,38,213,29*43
2017-12-01 12:02:21 1512147741.186920: $GPZDA,170221.00,01,12,2017,00,00*67
2017-12-01 12:02:21 1512147741.187090: $GPGGA,170221,3946.9564,N,08404.9849,W,1,10,0.80,302.66,M,-33.324,M,,*75
2017-12-01 12:02:21 1512147741.187157: $GPRMC,170221,A,3946.9564,N,08404.9849,W,0.2710,100.223,011217,,*38
2017-12-01 12:02:21 1512147741.187218: $GPGSA,A,3,10,13,15,18,20,21,24,27,29,138,,,2.0,0.8,1.5*01
2017-12-01 12:02:21 1512147741.637805: $GPZDA,170222.00,01,12,2017,00,00*64
2017-12-01 12:02:21 1512147741.637980: $GPGGA,170222,3946.9564,N,08404.9848,W,1,10,0.80,301.26,M,-33.324,M,,*70
2017-12-01 12:02:21 1512147741.638047: $GPRMC,170222,A,3946.9564,N,08404.9848,W,0.0407,142.014,011217,,*3D
2017-12-01 12:02:21 1512147741.638108: $GPGSA,A,3,10,13,15,18,20,21,24,27,29,138,,,2.0,0.8,1.5*01
2017-12-01 12:02:22 1512147742.387338: $GPZDA,170223.00,01,12,2017,00,00*65
2017-12-01 12:02:22 1512147742.387517: $GPGGA,170223,3946.9564,N,08404.9848,W,1,10,0.80,301.26,M,-33.324,M,,*71
2017-12-01 12:02:22 1512147742.387585: $GPRMC,170223,A,3946.9564,N,08404.9848,W,0.0000,0.000,011217,,*3D
2017-12-01 12:02:22 1512147742.387646: $GPGSA,A,3,10,13,15,18,20,21,24,27,29,138,,,2.0,0.8,1.5*01
2017-12-01 12:02:23 1512147743.723569: $GPGSV,3,1,12,10,19,277,42,13,35,046,44,15,68,055,46,18,50,294,45*79
2017-12-01 12:02:23 1512147743.723736: $GPGSV,3,2,12,20,56,063,46,21,74,292,45,24,28,144,46,27,13,318,40*73
2017-12-01 12:02:23 1512147743.723804: $GPGSV,3,3,12,29,16,192,37,05,08,082,14,04,05,133,00,138,38,213,46*49
2017-12-01 12:02:23 1512147743.837217: $GPZDA,170224.00,01,12,2017,00,00*62
2017-12-01 12:02:23 1512147743.837422: $GPGGA,170224,3946.9567,N,08404.9848,W,1,11,0.80,300.49,M,-33.324,M,,*7C
2017-12-01 12:02:23 1512147743.837491: $GPRMC,170224,A,3946.9567,N,08404.9848,W,0.0000,0.000,011217,,*39
2017-12-01 12:02:23 1512147743.837571: $GPGSA,A,3,10,13,15,18,20,21,24,27,29,5,138,,2.0,0.8,1.5*34
2017-12-01 12:02:24 1512147744.390574: $GPZDA,170225.00,01,12,2017,00,00*63
2017-12-01 12:02:24 1512147744.390759: $GPGGA,170225,3946.9567,N,08404.9848,W,1,11,0.80,300.49,M,-33.324,M,,*7D
2017-12-01 12:02:24 1512147744.390827: $GPRMC,170225,A,3946.9567,N,08404.9848,W,0.0000,0.000,011217,,*38
2017-12-01 12:02:24 1512147744.390955: $GPGSA,A,3,10,13,15,18,20,21,24,27,29,5,138,,2.0,0.8,1.5*34
2017-12-01 12:02:25 1512147745.387817: $GPZDA,170226.00,01,12,2017,00,00*60
2017-12-01 12:02:25 1512147745.387987: $GPGGA,170226,3946.9567,N,08404.9848,W,1,11,0.80,300.49,M,-33.324,M,,*7E
2017-12-01 12:02:25 1512147745.388054: $GPRMC,170226,A,3946.9567,N,08404.9848,W,0.0000,0.000,011217,,*3B
2017-12-01 12:02:25 1512147745.388114: $GPGSA,A,3,10,13,15,18,20,21,24,27,29,5,138,,2.0,0.8,1.5*34
2017-12-01 12:02:25 1512147745.388173: $GPGBS,170226,10.70,M,15.43,M,35.28,M*07
2017-12-01 12:02:26 1512147746.729438: $GPGSV,3,1,12,10,19,277,43,13,35,046,44,15,68,055,46,18,50,294,45*78
2017-12-01 12:02:26 1512147746.729870: $GPGSV,3,2,12,20,56,063,46,21,74,292,44,24,28,144,46,27,13,318,40*72
2017-12-01 12:02:26 1512147746.733419: $GPGSV,3,3,12,29,16,192,37,05,08,082,14,04,05,133,00,138,38,213,47*48
2017-12-01 12:02:26 1512147746.843141: $GPZDA,170227.00,01,12,2017,00,00*61
2017-12-01 12:02:26 1512147746.843325: $GPGGA,170227,3946.9571,N,08404.9847,W,1,11,0.80,299.73,M,-33.324,M,,*7F
2017-12-01 12:02:26 1512147746.843410: $GPRMC,170227,A,3946.9571,N,08404.9847,W,0.0000,0.000,011217,,*32
2017-12-01 12:02:26 1512147746.843472: $GPGSA,A,3,10,13,15,18,20,21,24,27,29,5,138,,2.0,0.8,1.5*34
2017-12-01 12:02:27 1512147747.389010: $GPZDA,170228.00,01,12,2017,00,00*6E
2017-12-01 12:02:27 1512147747.389180: $GPGGA,170228,3946.9580,N,08404.9844,W,2,11,1.20,296.03,M,-33.324,M,,*7D
2017-12-01 12:02:27 1512147747.389273: $GPRMC,170228,A,3946.9580,N,08404.9844,W,0.0000,0.000,011217,,*30
2017-12-01 12:02:27 1512147747.389350: $GPGSA,A,3,10,13,15,18,20,21,24,27,29,5,138,,2.0,1.2,1.5*3F
2017-12-01 12:02:28 1512147748.390413: $GPZDA,170229.00,01,12,2017,00,00*6F
2017-12-01 12:02:28 1512147748.390571: $GPGGA,170229,3946.9580,N,08404.9844,W,2,11,0.80,296.03,M,-33.324,M,,*77
2017-12-01 12:02:28 1512147748.390653: $GPRMC,170229,A,3946.9580,N,08404.9844,W,0.0000,0.000,011217,,*31
2017-12-01 12:02:28 1512147748.390716: $GPGSA,A,3,10,13,15,18,20,21,24,27,29,5,138,,2.0,0.8,1.5*34
