2017-11-16 17:13:30 1510870410.494118: {"class":"VERSION","release":"3.17","rev":"3.17","proto_major":3,"proto_minor":12}
2017-11-16 17:13:30 1510870410.494631: {"class":"DEVICES","devices":[{"class":"DEVICE","path":"/dev/ttyUSB0","driver":"SiRF","subtype":"9\u0006GSD4e_4.1.2-P1_RPATCH.05-F-GPS-4R-1510281 11/03/2015 307","activated":"2017-11-16T22:13:30.307Z","flags":1,"native":1,"bps":4800,"parity":"N","stopbits":1,"cycle":1.00}]}
2017-11-16 17:13:30 1510870410.494750: {"class":"WATCH","enable":true,"json":false,"nmea":true,"raw":0,"scaled":false,"timing":false,"split24":false,"pps":false}
2017-11-16 17:13:30 1510870410.757297: $GPGSV,3,1,12,01,19,309,40,10,57,142,47,24,04,046,15,12,24,058,49*79
2017-11-16 17:13:30 1510870410.757467: $GPGSV,3,2,12,14,62,310,47,18,26,141,46,22,12,312,03,11,10,289,29*79
2017-11-16 17:13:30 1510870410.757527: $GPGSV,3,3,12,25,36,102,48,31,46,219,49,32,70,001,49,138,38,213,44*4B
2017-11-16 17:13:30 1510870410.870597: $GPZDA,221329.00,16,11,2017,00,00*6C
2017-11-16 17:13:30 1510870410.870750: $GPGGA,221329,3946.9568,N,08404.9826,W,2,11,0.80,312.81,M,-33.324,M,,*74
2017-11-16 17:13:30 1510870410.870809: $GPRMC,221329,A,3946.9568,N,08404.9826,W,0.0000,0.000,161117,,*30
2017-11-16 17:13:30 1510870410.870864: $GPGSA,A,3,1,10,24,12,14,18,11,25,31,32,138,,1.6,0.8,1.3*38
2017-11-16 17:13:31 1510870411.495999: $GPZDA,221330.00,16,11,2017,00,00*64
2017-11-16 17:13:31 1510870411.496161: $GPGGA,221330,3946.9568,N,08404.9826,W,2,11,0.80,312.81,M,-33.324,M,,*7C
2017-11-16 17:13:31 1510870411.496221: $GPRMC,221330,A,3946.9568,N,08404.9826,W,0.0000,0.000,161117,,*38
2017-11-16 17:13:31 1510870411.496275: $GPGSA,A,3,1,10,24,12,14,18,11,25,31,32,138,,1.6,0.8,1.3*38
2017-11-16 17:13:32 1510870412.411772: $GPZDA,221331.00,16,11,2017,00,00*65
2017-11-16 17:13:32 1510870412.411936: $GPGGA,221331,3946.9568,N,08404.9826,W,2,11,0.80,312.81,M,-33.324,M,,*7D
2017-11-16 17:13:32 1510870412.411997: $GPRMC,221331,A,3946.9568,N,08404.9826,W,0.0000,0.000,161117,,*39
2017-11-16 17:13:32 1510870412.412052: $GPGSA,A,3,1,10,24,12,14,18,11,25,31,32,138,,1.6,0.8,1.3*38
2017-11-16 17:13:33 1510870413.737586: $GPGSV,3,1,12,01,19,309,40,10,57,142,48,24,04,046,14,12,24,058,49*77
2017-11-16 17:13:33 1510870413.737755: $GPGSV,3,2,12,14,62,310,47,18,26,141,45,22,12,312,29,11,10,289,30*7A
2017-11-16 17:13:33 1510870413.737815: $GPGSV,3,3,12,25,36,102,48,31,46,219,49,32,70,001,49,138,38,213,44*4B
2017-11-16 17:13:33 1510870413.851003: $GPZDA,221332.00,16,11,2017,00,00*66
2017-11-16 17:13:33 1510870413.851160: $GPGGA,221332,3946.9568,N,08404.9826,W,2,12,0.80,312.81,M,-33.324,M,,*7D
2017-11-16 17:13:33 1510870413.851220: $GPRMC,221332,A,3946.9568,N,08404.9826,W,0.0000,0.000,161117,,*3A
2017-11-16 17:13:33 1510870413.851276: $GPGSA,A,3,1,10,24,12,14,18,22,11,25,31,32,138,1.6,0.8,1.3*38
2017-11-16 17:13:34 1510870414.418281: $GPZDA,221333.00,16,11,2017,00,00*67
2017-11-16 17:13:34 1510870414.418448: $GPGGA,221333,3946.9568,N,08404.9826,W,2,12,0.80,312.81,M,-33.324,M,,*7C
2017-11-16 17:13:34 1510870414.418509: $GPRMC,221333,A,3946.9568,N,08404.9826,W,0.0000,0.000,161117,,*3B
2017-11-16 17:13:34 1510870414.418564: $GPGSA,A,3,1,10,24,12,14,18,22,11,25,31,32,138,1.6,0.8,1.3*38
2017-11-16 17:13:35 1510870415.427594: $GPZDA,221334.00,16,11,2017,00,00*60
2017-11-16 17:13:35 1510870415.427765: $GPGGA,221334,3946.9568,N,08404.9826,W,2,12,0.80,312.81,M,-33.324,M,,*7B
2017-11-16 17:13:35 1510870415.427826: $GPRMC,221334,A,3946.9568,N,08404.9826,W,0.0000,0.000,161117,,*3C
2017-11-16 17:13:35 1510870415.427882: $GPGSA,A,3,1,10,24,12,14,18,22,11,25,31,32,138,1.6,0.8,1.3*38
2017-11-16 17:13:36 1510870416.754370: $GPGSV,3,1,12,01,19,309,39,10,57,142,48,24,04,046,17,12,24,058,49*7A
2017-11-16 17:13:36 1510870416.754536: $GPGSV,3,2,12,14,62,310,47,18,26,141,45,22,12,312,29,11,10,289,30*7A
2017-11-16 17:13:36 1510870416.754595: $GPGSV,3,3,12,25,36,102,48,31,46,219,49,32,70,001,49,138,38,213,44*4B
2017-11-16 17:13:36 1510870416.868730: $GPZDA,221335.00,16,11,2017,00,00*61
2017-11-16 17:13:36 1510870416.868908: $GPGGA,221335,3946.9568,N,08404.9826,W,2,11,0.80,312.81,M,-33.324,M,,*79
2017-11-16 17:13:36 1510870416.869022: $GPRMC,221335,A,3946.9568,N,08404.9826,W,0.0000,0.000,161117,,*3D
2017-11-16 17:13:36 1510870416.869080: $GPGSA,A,3,1,10,12,14,18,22,11,25,31,32,138,,1.6,0.8,1.3*3E
2017-11-16 17:13:37 1510870417.418413: $GPZDA,221336.00,16,11,2017,00,00*62
2017-11-16 17:13:37 1510870417.418581: $GPGGA,221336,3946.9568,N,08404.9826,W,2,11,0.80,312.81,M,-33.324,M,,*7A
2017-11-16 17:13:37 1510870417.418643: $GPRMC,221336,A,3946.9568,N,08404.9826,W,0.0000,0.000,161117,,*3E
2017-11-16 17:13:37 1510870417.418698: $GPGSA,A,3,1,10,12,14,18,22,11,25,31,32,138,,1.6,0.8,1.3*3E
2017-11-16 17:13:38 1510870418.400720: $GPZDA,221337.00,16,11,2017,00,00*63
2017-11-16 17:13:38 1510870418.400884: $GPGGA,221337,3946.9568,N,08404.9826,W,2,11,0.80,312.81,M,-33.324,M,,*7B
2017-11-16 17:13:38 1510870418.400944: $GPRMC,221337,A,3946.9568,N,08404.9826,W,0.0000,0.000,161117,,*3F
2017-11-16 17:13:38 1510870418.401000: $GPGSA,A,3,1,10,12,14,18,22,11,25,31,32,138,,1.6,0.8,1.3*3E
2017-11-16 17:13:39 1510870419.736454: $GPGSV,3,1,12,01,19,309,39,10,57,142,48,22,12,312,00,12,24,058,49*7F
2017-11-16 17:13:39 1510870419.736626: $GPGSV,3,2,12,14,62,310,47,18,26,141,45,24,04,046,00,11,10,289,29*7A
2017-11-16 17:13:39 1510870419.736685: $GPGSV,3,3,12,25,36,102,47,31,46,219,49,32,70,001,48,138,38,213,44*45
2017-11-16 17:13:39 1510870419.849776: $GPZDA,221338.00,16,11,2017,00,00*6C
2017-11-16 17:13:39 1510870419.849939: $GPGGA,221338,3946.9568,N,08404.9826,W,2,10,0.80,312.81,M,-33.324,M,,*75
2017-11-16 17:13:39 1510870419.849999: $GPRMC,221338,A,3946.9568,N,08404.9826,W,0.0000,0.000,161117,,*30
2017-11-16 17:13:39 1510870419.850054: $GPGSA,A,3,1,10,12,14,18,11,25,31,32,138,,,1.6,0.8,1.3*3E
2017-11-16 17:13:40 1510870420.395699: $GPZDA,221339.00,16,11,2017,00,00*6D
2017-11-16 17:13:40 1510870420.395859: $GPGGA,221339,3946.9568,N,08404.9826,W,2,10,0.80,312.81,M,-33.324,M,,*74
2017-11-16 17:13:40 1510870420.395920: $GPRMC,221339,A,3946.9568,N,08404.9826,W,0.0000,0.000,161117,,*31
2017-11-16 17:13:40 1510870420.395975: $GPGSA,A,3,1,10,12,14,18,11,25,31,32,138,,,1.6,0.8,1.3*3E
