2017-12-01 14:24:46 1512156286.574366: {"class":"VERSION","release":"3.16","rev":"3.16-4","proto_major":3,"proto_minor":11}
2017-12-01 14:24:46 1512156286.574758: {"class":"DEVICES","devices":[{"class":"DEVICE","path":"/dev/ttyUSB0","driver":"SiRF","subtype":"9\u0006GSD4e_4.1.2-P1_RPATCH.05-F-GPS-4R-1510281 11/03/2015 307","activated":"2017-12-01T19:24:46.562Z","flags":1,"native":1,"bps":4800,"parity":"N","stopbits":1,"cycle":1.00}]}
2017-12-01 14:24:46 1512156286.574898: {"class":"WATCH","enable":true,"json":false,"nmea":true,"raw":0,"scaled":false,"timing":false,"split24":false,"pps":false}
2017-12-01 14:24:47 1512156287.400526: $GPZDA,192448.00,01,12,2017,00,00*62
2017-12-01 14:24:47 1512156287.400700: $GPGGA,192448,3946.9543,N,08404.9850,W,2,12,0.80,313.71,M,-33.324,M,,*7A
2017-12-01 14:24:47 1512156287.400767: $GPRMC,192448,A,3946.9543,N,08404.9850,W,0.0000,0.000,011217,,*36
2017-12-01 14:24:47 1512156287.400845: $GPGSA,A,3,8,10,14,18,21,24,32,15,12,20,27,138,2.0,0.8,1.5*37
2017-12-01 14:24:48 1512156288.735085: $GPGSV,3,1,12,08,05,294,26,10,70,331,49,14,29,253,39,18,70,096,44*75
2017-12-01 14:24:48 1512156288.735269: $GPGSV,3,2,12,21,28,178,46,24,44,058,48,32,47,267,46,15,11,067,32*7E
2017-12-01 14:24:48 1512156288.735336: $GPGSV,3,3,12,12,10,106,25,20,08,118,27,27,06,259,16,138,38,213,47*47
2017-12-01 14:24:48 1512156288.848713: $GPZDA,192449.00,01,12,2017,00,00*63
2017-12-01 14:24:48 1512156288.848886: $GPGGA,192449,3946.9552,N,08404.9847,W,2,12,0.80,310.01,M,-33.324,M,,*79
2017-12-01 14:24:48 1512156288.848952: $GPRMC,192449,A,3946.9552,N,08404.9847,W,0.0000,0.000,011217,,*31
2017-12-01 14:24:48 1512156288.849013: $GPGSA,A,3,8,10,14,18,21,24,32,15,12,20,27,138,2.0,0.8,1.5*37
2017-12-01 14:24:49 1512156289.402144: $GPZDA,192450.00,01,12,2017,00,00*6B
2017-12-01 14:24:49 1512156289.402314: $GPGGA,192450,3946.9552,N,08404.9847,W,2,12,0.80,310.01,M,-33.324,M,,*71
2017-12-01 14:24:49 1512156289.402380: $GPRMC,192450,A,3946.9552,N,08404.9847,W,0.0000,0.000,011217,,*39
2017-12-01 14:24:49 1512156289.402441: $GPGSA,A,3,8,10,14,18,21,24,32,15,12,20,27,138,2.0,0.8,1.5*37
2017-12-01 14:24:50 1512156290.401749: $GPZDA,192451.00,01,12,2017,00,00*6A
2017-12-01 14:24:50 1512156290.401934: $GPGGA,192451,3946.9552,N,08404.9847,W,2,12,0.80,310.01,M,-33.324,M,,*70
2017-12-01 14:24:50 1512156290.402003: $GPRMC,192451,A,3946.9552,N,08404.9847,W,0.0000,0.000,011217,,*38
2017-12-01 14:24:50 1512156290.402063: $GPGSA,A,3,8,10,14,18,21,24,32,15,12,20,27,138,2.0,0.8,1.5*37
2017-12-01 14:24:51 1512156291.737228: $GPGSV,3,1,12,08,05,294,22,10,70,331,49,14,29,253,38,18,70,096,44*70
2017-12-01 14:24:51 1512156291.737414: $GPGSV,3,2,12,21,28,178,46,24,44,058,49,32,47,267,46,15,11,067,32*7F
2017-12-01 14:24:51 1512156291.737481: $GPGSV,3,3,12,12,10,106,25,20,08,118,27,27,06,259,18,138,38,213,47*49
2017-12-01 14:24:51 1512156291.850637: $GPZDA,192452.00,01,12,2017,00,00*69
2017-12-01 14:24:51 1512156291.850820: $GPGGA,192452,3946.9552,N,08404.9847,W,2,12,0.80,310.01,M,-33.324,M,,*73
2017-12-01 14:24:51 1512156291.850889: $GPRMC,192452,A,3946.9552,N,08404.9847,W,0.0000,0.000,011217,,*3B
2017-12-01 14:24:51 1512156291.850951: $GPGSA,A,3,8,10,14,18,21,24,32,15,12,20,27,138,2.0,0.8,1.5*37
2017-12-01 14:24:52 1512156292.475898: $GPZDA,192453.00,01,12,2017,00,00*68
2017-12-01 14:24:52 1512156292.476076: $GPGGA,192453,3946.9552,N,08404.9847,W,2,12,1.00,310.01,M,-33.324,M,,*7B
2017-12-01 14:24:52 1512156292.476144: $GPRMC,192453,A,3946.9552,N,08404.9847,W,0.0000,0.000,011217,,*3A
2017-12-01 14:24:52 1512156292.476205: $GPGSA,A,3,8,10,14,18,21,24,32,15,12,20,27,138,2.0,1.0,1.5*3E
2017-12-01 14:24:53 1512156293.402092: $GPZDA,192454.00,01,12,2017,00,00*6F
2017-12-01 14:24:53 1512156293.402264: $GPGGA,192454,3946.9552,N,08404.9847,W,2,12,0.80,310.01,M,-33.324,M,,*75
2017-12-01 14:24:53 1512156293.402330: $GPRMC,192454,A,3946.9552,N,08404.9847,W,0.0000,0.000,011217,,*3D
2017-12-01 14:24:53 1512156293.402408: $GPGSA,A,3,8,10,14,18,21,24,32,15,12,20,27,138,2.0,0.8,1.5*37
2017-12-01 14:24:54 1512156294.739981: $GPGSV,3,1,12,08,05,294,28,10,70,331,48,14,29,253,38,18,70,096,44*7B
2017-12-01 14:24:54 1512156294.740215: $GPGSV,3,2,12,21,28,178,46,24,44,058,49,32,47,267,46,15,11,067,32*7F
2017-12-01 14:24:54 1512156294.740284: $GPGSV,3,3,12,12,10,106,25,20,08,118,27,27,06,259,24,138,38,213,46*47
2017-12-01 14:24:54 1512156294.852637: $GPZDA,192455.00,01,12,2017,00,00*6E
2017-12-01 14:24:54 1512156294.852847: $GPGGA,192455,3946.9552,N,08404.9847,W,2,12,0.80,310.01,M,-33.324,M,,*74
2017-12-01 14:24:54 1512156294.852915: $GPRMC,192455,A,3946.9552,N,08404.9847,W,0.0000,0.000,011217,,*3C
2017-12-01 14:24:54 1512156294.852976: $GPGSA,A,3,8,10,14,18,21,24,32,15,12,20,27,138,2.0,0.8,1.5*37
2017-12-01 14:24:55 1512156295.399517: $GPZDA,192456.00,01,12,2017,00,00*6D
2017-12-01 14:24:55 1512156295.399708: $GPGGA,192456,3946.9549,N,08404.9848,W,2,12,0.80,310.78,M,-33.324,M,,*7C
2017-12-01 14:24:55 1512156295.399776: $GPRMC,192456,A,3946.9549,N,08404.9848,W,0.0000,0.000,011217,,*3A
2017-12-01 14:24:55 1512156295.399856: $GPGSA,A,3,8,10,14,18,21,24,32,15,12,20,27,138,2.0,0.8,1.5*37
2017-12-01 14:24:56 1512156296.400560: $GPZDA,192457.00,01,12,2017,00,00*6C
2017-12-01 14:24:56 1512156296.400755: $GPGGA,192457,3946.9549,N,08404.9848,W,2,12,0.80,310.78,M,-33.324,M,,*7D
2017-12-01 14:24:56 1512156296.400851: $GPRMC,192457,A,3946.9549,N,08404.9848,W,0.0000,0.000,011217,,*3B
2017-12-01 14:24:56 1512156296.400915: $GPGSA,A,3,8,10,14,18,21,24,32,15,12,20,27,138,2.0,0.8,1.5*37
2017-12-01 14:24:57 1512156297.737993: $GPGSV,3,1,12,08,05,294,22,10,70,331,49,14,29,253,39,18,70,096,44*71
2017-12-01 14:24:57 1512156297.738174: $GPGSV,3,2,12,21,28,178,46,24,44,058,49,32,47,267,46,15,11,067,31*7C
2017-12-01 14:24:57 1512156297.738242: $GPGSV,3,3,12,12,10,106,26,20,08,118,26,27,06,259,04,138,38,213,47*46
2017-12-01 14:24:57 1512156297.851452: $GPZDA,192458.00,01,12,2017,00,00*63
2017-12-01 14:24:57 1512156297.851622: $GPGGA,192458,3946.9549,N,08404.9848,W,2,11,0.80,310.78,M,-33.324,M,,*71
2017-12-01 14:24:57 1512156297.851716: $GPRMC,192458,A,3946.9549,N,08404.9848,W,0.0000,0.000,011217,,*34
2017-12-01 14:24:57 1512156297.851779: $GPGSA,A,3,8,10,14,18,21,24,32,15,12,20,138,,2.0,0.8,1.5*32
2017-12-01 14:24:58 1512156298.405985: $GPZDA,192459.00,01,12,2017,00,00*62
2017-12-01 14:24:58 1512156298.406144: $GPGGA,192459,3946.9549,N,08404.9848,W,2,11,0.80,310.78,M,-33.324,M,,*70
2017-12-01 14:24:58 1512156298.406211: $GPRMC,192459,A,3946.9549,N,08404.9848,W,0.0000,0.000,011217,,*35
2017-12-01 14:24:58 1512156298.406272: $GPGSA,A,3,8,10,14,18,21,24,32,15,12,20,138,,2.0,0.8,1.5*32
2017-12-01 14:24:59 1512156299.400530: $GPZDA,192500.00,01,12,2017,00,00*6F
2017-12-01 14:24:59 1512156299.400734: $GPGGA,192500,3946.9549,N,08404.9848,W,2,11,0.80,310.78,M,-33.324,M,,*7D
2017-12-01 14:24:59 1512156299.400830: $GPRMC,192500,A,3946.9549,N,08404.9848,W,0.0000,0.000,011217,,*38
2017-12-01 14:24:59 1512156299.400893: $GPGSA,A,3,8,10,14,18,21,24,32,15,12,20,138,,2.0,0.8,1.5*32
2017-12-01 14:25:00 1512156300.740007: $GPGSV,3,1,12,08,05,294,23,10,70,331,48,14,29,253,39,18,70,096,44*71
2017-12-01 14:25:00 1512156300.740171: $GPGSV,3,2,12,21,28,178,46,24,44,058,49,32,47,267,46,15,11,067,31*7C
2017-12-01 14:25:00 1512156300.740238: $GPGSV,3,3,12,12,10,106,26,20,08,118,26,27,06,259,25,138,38,213,47*45
2017-12-01 14:25:00 1512156300.853514: $GPZDA,192501.00,01,12,2017,00,00*6E
2017-12-01 14:25:00 1512156300.853862: $GPGGA,192501,3946.9549,N,08404.9848,W,2,12,0.80,310.78,M,-33.324,M,,*7F
2017-12-01 14:25:00 1512156300.853988: $GPRMC,192501,A,3946.9549,N,08404.9848,W,0.0000,0.000,011217,,*39
2017-12-01 14:25:00 1512156300.854106: $GPGSA,A,3,8,10,14,18,21,24,32,15,12,20,27,138,2.0,0.8,1.5*37
2017-12-01 14:25:01 1512156301.403011: $GPZDA,192502.00,01,12,2017,00,00*6D
2017-12-01 14:25:01 1512156301.403202: $GPGGA,192502,3946.9549,N,08404.9848,W,2,12,0.80,310.78,M,-33.324,M,,*7C
2017-12-01 14:25:01 1512156301.403269: $GPRMC,192502,A,3946.9549,N,08404.9848,W,0.0000,0.000,011217,,*3A
2017-12-01 14:25:01 1512156301.403331: $GPGSA,A,3,8,10,14,18,21,24,32,15,12,20,27,138,2.0,0.8,1.5*37
2017-12-01 14:25:02 1512156302.400893: $GPZDA,192503.00,01,12,2017,00,00*6C
2017-12-01 14:25:02 1512156302.401068: $GPGGA,192503,3946.9549,N,08404.9848,W,2,12,0.80,310.78,M,-33.324,M,,*7D
2017-12-01 14:25:02 1512156302.401136: $GPRMC,192503,A,3946.9549,N,08404.9848,W,0.0000,0.000,011217,,*3B
2017-12-01 14:25:02 1512156302.401199: $GPGSA,A,3,8,10,14,18,21,24,32,15,12,20,27,138,2.0,0.8,1.5*37
2017-12-01 14:25:03 1512156303.737858: $GPGSV,3,1,12,08,05,294,32,10,70,331,48,14,29,253,39,18,70,096,44*71
2017-12-01 14:25:03 1512156303.738039: $GPGSV,3,2,12,21,28,178,46,24,44,058,50,32,47,267,46,15,11,067,29*7D
2017-12-01 14:25:03 1512156303.738107: $GPGSV,3,3,12,12,10,106,26,20,08,118,20,27,06,259,07,138,38,213,47*43
2017-12-01 14:25:03 1512156303.851549: $GPZDA,192504.00,01,12,2017,00,00*6B
2017-12-01 14:25:03 1512156303.851734: $GPGGA,192504,3946.9546,N,08404.9849,W,2,11,0.80,311.54,M,-33.324,M,,*78
2017-12-01 14:25:03 1512156303.851822: $GPRMC,192504,A,3946.9546,N,08404.9849,W,0.0000,0.000,011217,,*32
2017-12-01 14:25:03 1512156303.851885: $GPGSA,A,3,8,10,14,18,21,24,32,15,12,20,138,,2.0,0.8,1.5*32
2017-12-01 14:25:04 1512156304.401107: $GPZDA,192505.00,01,12,2017,00,00*6A
2017-12-01 14:25:04 1512156304.401271: $GPGGA,192505,3946.9546,N,08404.9849,W,2,11,0.80,311.54,M,-33.324,M,,*79
2017-12-01 14:25:04 1512156304.401338: $GPRMC,192505,A,3946.9546,N,08404.9849,W,0.0000,0.000,011217,,*33
2017-12-01 14:25:04 1512156304.401451: $GPGSA,A,3,8,10,14,18,21,24,32,15,12,20,138,,2.0,0.8,1.5*32
2017-12-01 14:25:05 1512156305.401816: $GPZDA,192506.00,01,12,2017,00,00*69
2017-12-01 14:25:05 1512156305.403418: $GPGGA,192506,3946.9546,N,08404.9849,W,2,11,0.80,311.54,M,-33.324,M,,*7A
2017-12-01 14:25:05 1512156305.403529: $GPRMC,192506,A,3946.9546,N,08404.9849,W,0.0000,0.000,011217,,*30
2017-12-01 14:25:05 1512156305.403592: $GPGSA,A,3,8,10,14,18,21,24,32,15,12,20,138,,2.0,0.8,1.5*32
