2017-12-31 18:55:29 1514764529.057052: {"class":"VERSION","release":"3.16","rev":"3.16-4","proto_major":3,"proto_minor":11}
2017-12-31 18:55:29 1514764529.057575: {"class":"DEVICES","devices":[{"class":"DEVICE","path":"/dev/ttyUSB0","driver":"SiRF","activated":"2017-12-31T23:55:28.493Z","flags":1,"native":1,"bps":4800,"parity":"N","stopbits":1,"cycle":1.00}]}
2017-12-31 18:55:29 1514764529.057674: {"class":"WATCH","enable":true,"json":false,"nmea":true,"raw":0,"scaled":false,"timing":false,"split24":false,"pps":false}
2017-12-31 18:55:29 1514764529.353664: $GPZDA,235530.00,31,12,2017,00,00*61
2017-12-31 18:55:29 1514764529.360287: $GPGGA,235530,3946.9579,N,08404.9818,W,2,11,1.00,312.00,M,-33.324,M,,*72
2017-12-31 18:55:29 1514764529.360396: $GPRMC,235530,A,3946.9579,N,08404.9818,W,0.0000,0.000,311217,,*30
2017-12-31 18:55:29 1514764529.360459: $GPGSA,A,3,22,23,9,3,16,8,31,27,7,26,135,,1.7,1.0,1.3*00
2017-12-31 18:55:30 1514764530.688966: $GPGSV,3,1,11,22,06,202,24,23,69,274,39,09,38,309,36,03,16,219,32*7C
2017-12-31 18:55:30 1514764530.689128: $GPGSV,3,2,11,16,74,036,44,08,18,175,43,31,15,090,25,27,42,141,41*76
2017-12-31 18:55:30 1514764530.689193: $GPGSV,3,3,11,07,12,286,35,26,42,048,48,135,22,240,42*72
2017-12-31 18:55:30 1514764530.802289: $GPZDA,235531.00,31,12,2017,00,00*60
2017-12-31 18:55:30 1514764530.802418: $GPGGA,235531,3946.9579,N,08404.9818,W,2,11,0.80,312.00,M,-33.324,M,,*7A
2017-12-31 18:55:30 1514764530.802483: $GPRMC,235531,A,3946.9579,N,08404.9818,W,0.0000,0.000,311217,,*31
2017-12-31 18:55:30 1514764530.802543: $GPGSA,A,3,22,23,9,3,16,8,31,27,7,26,135,,1.7,0.8,1.3*09
2017-12-31 18:55:31 1514764531.347401: $GPZDA,235532.00,31,12,2017,00,00*63
2017-12-31 18:55:31 1514764531.347572: $GPGGA,235532,3946.9579,N,08404.9818,W,2,11,0.80,312.00,M,-33.324,M,,*79
2017-12-31 18:55:31 1514764531.347639: $GPRMC,235532,A,3946.9579,N,08404.9818,W,0.0000,0.000,311217,,*32
2017-12-31 18:55:31 1514764531.347701: $GPGSA,A,3,22,23,9,3,16,8,31,27,7,26,135,,1.7,0.8,1.3*09
2017-12-31 18:55:32 1514764532.353289: $GPZDA,235533.00,31,12,2017,00,00*62
2017-12-31 18:55:32 1514764532.353460: $GPGGA,235533,3946.9579,N,08404.9818,W,2,11,0.80,312.00,M,-33.324,M,,*78
2017-12-31 18:55:32 1514764532.353528: $GPRMC,235533,A,3946.9579,N,08404.9818,W,0.0000,0.000,311217,,*33
2017-12-31 18:55:32 1514764532.353589: $GPGSA,A,3,22,23,9,3,16,8,31,27,7,26,135,,1.7,0.8,1.3*09
2017-12-31 18:55:33 1514764533.687601: $GPGSV,3,1,11,22,06,202,24,23,69,274,38,09,38,309,36,03,16,219,32*7D
2017-12-31 18:55:33 1514764533.687770: $GPGSV,3,2,11,16,74,036,45,08,18,175,43,31,15,090,00,27,42,141,41*70
2017-12-31 18:55:33 1514764533.687836: $GPGSV,3,3,11,07,12,286,38,26,42,048,48,135,22,240,44*79
2017-12-31 18:55:33 1514764533.800936: $GPZDA,235534.00,31,12,2017,00,00*65
2017-12-31 18:55:33 1514764533.801077: $GPGGA,235534,3946.9579,N,08404.9818,W,2,10,1.00,312.00,M,-33.324,M,,*77
2017-12-31 18:55:33 1514764533.801143: $GPRMC,235534,A,3946.9579,N,08404.9818,W,0.0000,0.000,311217,,*34
2017-12-31 18:55:33 1514764533.801204: $GPGSA,A,3,22,23,9,3,16,8,27,7,26,135,,,1.7,1.0,1.3*02
2017-12-31 18:55:34 1514764534.353173: $GPZDA,235535.00,31,12,2017,00,00*64
2017-12-31 18:55:34 1514764534.353345: $GPGGA,235535,3946.9579,N,08404.9818,W,2,10,1.00,312.00,M,-33.324,M,,*76
2017-12-31 18:55:34 1514764534.353413: $GPRMC,235535,A,3946.9579,N,08404.9818,W,0.0000,0.000,311217,,*35
2017-12-31 18:55:34 1514764534.353475: $GPGSA,A,3,22,23,9,3,16,8,27,7,26,135,,,1.7,1.0,1.3*02
2017-12-31 18:55:35 1514764535.352164: $GPZDA,235536.00,31,12,2017,00,00*67
2017-12-31 18:55:35 1514764535.352325: $GPGGA,235536,3946.9579,N,08404.9818,W,2,10,1.00,312.00,M,-33.324,M,,*75
2017-12-31 18:55:35 1514764535.352393: $GPRMC,235536,A,3946.9579,N,08404.9818,W,0.0000,0.000,311217,,*36
2017-12-31 18:55:35 1514764535.352454: $GPGSA,A,3,22,23,9,3,16,8,27,7,26,135,,,1.7,1.0,1.3*02
2017-12-31 18:55:36 1514764536.690378: $GPGSV,3,1,11,22,06,202,24,23,69,274,38,09,38,309,35,03,16,219,32*7E
2017-12-31 18:55:36 1514764536.690563: $GPGSV,3,2,11,16,74,036,44,08,18,175,43,31,15,090,07,27,42,141,41*76
2017-12-31 18:55:36 1514764536.690688: $GPGSV,3,3,11,07,12,286,37,26,42,048,48,135,22,240,44*76
2017-12-31 18:55:36 1514764536.803734: $GPZDA,235537.00,31,12,2017,00,00*66
2017-12-31 18:55:36 1514764536.803863: $GPGGA,235537,3946.9579,N,08404.9818,W,2,10,1.00,312.00,M,-33.324,M,,*74
2017-12-31 18:55:36 1514764536.803930: $GPRMC,235537,A,3946.9579,N,08404.9818,W,0.0000,0.000,311217,,*37
2017-12-31 18:55:36 1514764536.804007: $GPGSA,A,3,22,23,9,3,16,8,27,7,26,135,,,1.7,1.0,1.3*02
2017-12-31 18:55:37 1514764537.354662: $GPZDA,235538.00,31,12,2017,00,00*69
2017-12-31 18:55:37 1514764537.354847: $GPGGA,235538,3946.9579,N,08404.9818,W,2,10,0.80,312.00,M,-33.324,M,,*72
2017-12-31 18:55:37 1514764537.354918: $GPRMC,235538,A,3946.9579,N,08404.9818,W,0.0000,0.000,311217,,*38
2017-12-31 18:55:37 1514764537.354981: $GPGSA,A,3,22,23,9,3,16,8,27,7,26,135,,,1.7,0.8,1.3*0B
2017-12-31 18:55:38 1514764538.352991: $GPZDA,235539.00,31,12,2017,00,00*68
2017-12-31 18:55:38 1514764538.353168: $GPGGA,235539,3946.9579,N,08404.9818,W,2,10,1.00,312.00,M,-33.324,M,,*7A
2017-12-31 18:55:38 1514764538.353238: $GPRMC,235539,A,3946.9579,N,08404.9818,W,0.0000,0.000,311217,,*39
2017-12-31 18:55:38 1514764538.353301: $GPGSA,A,3,22,23,9,3,16,8,27,7,26,135,,,1.7,1.0,1.3*02
