2017-12-01 13:45:23 1512153923.136994: {"class":"VERSION","release":"3.16","rev":"3.16-4","proto_major":3,"proto_minor":11}
2017-12-01 13:45:23 1512153923.137612: {"class":"DEVICES","devices":[{"class":"DEVICE","path":"/dev/ttyUSB0","driver":"SiRF","subtype":"9\u0006GSD4e_4.1.2-P1_RPATCH.05-F-GPS-4R-1510281 11/03/2015 307","activated":"2017-12-01T18:45:23.092Z","flags":1,"native":1,"bps":4800,"parity":"N","stopbits":1,"cycle":1.00}]}
2017-12-01 13:45:23 1512153923.137839: {"class":"WATCH","enable":true,"json":false,"nmea":true,"raw":0,"scaled":false,"timing":false,"split24":false,"pps":false}
2017-12-01 13:45:23 1512153923.402541: $GPZDA,184524.00,01,12,2017,00,00*6E
2017-12-01 13:45:23 1512153923.402713: $GPGGA,184524,3946.9556,N,08404.9842,W,2,11,0.80,301.46,M,-33.324,M,,*75
2017-12-01 13:45:23 1512153923.402799: $GPRMC,184524,A,3946.9556,N,08404.9842,W,0.0000,0.000,011217,,*3D
2017-12-01 13:45:23 1512153923.402862: $GPGSA,A,3,10,14,15,18,20,21,24,27,32,8,138,,2.0,0.8,1.5*34
2017-12-01 13:45:24 1512153924.327043: $GPZDA,184525.00,01,12,2017,00,00*6F
2017-12-01 13:45:24 1512153924.327221: $GPGGA,184525,3946.9556,N,08404.9842,W,2,11,0.80,301.46,M,-33.324,M,,*74
2017-12-01 13:45:24 1512153924.327289: $GPRMC,184525,A,3946.9556,N,08404.9842,W,0.0000,0.000,011217,,*3C
2017-12-01 13:45:24 1512153924.327351: $GPGSA,A,3,10,14,15,18,20,21,24,27,32,8,138,,2.0,0.8,1.5*34
2017-12-01 13:45:25 1512153925.663944: $GPGSV,3,1,11,10,54,313,48,14,16,241,31,15,24,058,46,18,77,030,43*71
2017-12-01 13:45:25 1512153925.664130: $GPGSV,3,2,11,20,22,108,46,21,47,183,45,24,53,084,46,27,15,274,42*72
2017-12-01 13:45:25 1512153925.664197: $GPGSV,3,3,11,32,33,249,43,08,08,309,35,138,38,213,46*7F
2017-12-01 13:45:25 1512153925.777461: $GPZDA,184526.00,01,12,2017,00,00*6C
2017-12-01 13:45:25 1512153925.777637: $GPGGA,184526,3946.9556,N,08404.9842,W,2,11,0.80,301.46,M,-33.324,M,,*77
2017-12-01 13:45:25 1512153925.777704: $GPRMC,184526,A,3946.9556,N,08404.9842,W,0.0000,0.000,011217,,*3F
2017-12-01 13:45:25 1512153925.777765: $GPGSA,A,3,10,14,15,18,20,21,24,27,32,8,138,,2.0,0.8,1.5*34
2017-12-01 13:45:26 1512153926.328524: $GPZDA,184527.00,01,12,2017,00,00*6D
2017-12-01 13:45:26 1512153926.328694: $GPGGA,184527,3946.9556,N,08404.9842,W,2,11,0.80,301.46,M,-33.324,M,,*76
2017-12-01 13:45:26 1512153926.328761: $GPRMC,184527,A,3946.9556,N,08404.9842,W,0.0000,0.000,011217,,*3E
2017-12-01 13:45:26 1512153926.328822: $GPGSA,A,3,10,14,15,18,20,21,24,27,32,8,138,,2.0,0.8,1.5*34
2017-12-01 13:45:27 1512153927.329382: $GPZDA,184528.00,01,12,2017,00,00*62
2017-12-01 13:45:27 1512153927.329546: $GPGGA,184528,3946.9556,N,08404.9842,W,2,11,0.80,301.46,M,-33.324,M,,*79
2017-12-01 13:45:27 1512153927.329612: $GPRMC,184528,A,3946.9556,N,08404.9842,W,0.0000,0.000,011217,,*31
2017-12-01 13:45:27 1512153927.329672: $GPGSA,A,3,10,14,15,18,20,21,24,27,32,8,138,,2.0,0.8,1.5*34
2017-12-01 13:45:28 1512153928.668053: $GPGSV,3,1,11,10,54,313,49,14,16,241,03,15,24,058,46,18,77,030,43*71
2017-12-01 13:45:28 1512153928.668236: $GPGSV,3,2,11,20,22,108,46,21,47,183,45,24,53,084,47,27,15,274,42*73
2017-12-01 13:45:28 1512153928.668303: $GPGSV,3,3,11,32,33,249,43,08,08,309,33,138,38,213,46*79
2017-12-01 13:45:28 1512153928.781412: $GPZDA,184529.00,01,12,2017,00,00*63
2017-12-01 13:45:28 1512153928.781552: $GPGGA,184529,3946.9556,N,08404.9842,W,2,10,1.00,301.46,M,-33.324,M,,*70
2017-12-01 13:45:28 1512153928.781617: $GPRMC,184529,A,3946.9556,N,08404.9842,W,0.0000,0.000,011217,,*30
2017-12-01 13:45:28 1512153928.781677: $GPGSA,A,3,10,15,18,20,21,24,27,32,8,138,,,2.0,1.0,1.5*38
2017-12-01 13:45:29 1512153929.328841: $GPZDA,184530.00,01,12,2017,00,00*6B
2017-12-01 13:45:29 1512153929.329013: $GPGGA,184530,3946.9555,N,08404.9835,W,2,10,0.80,301.54,M,-33.324,M,,*71
2017-12-01 13:45:29 1512153929.329080: $GPRMC,184530,A,3946.9555,N,08404.9835,W,0.0000,0.000,011217,,*3B
2017-12-01 13:45:29 1512153929.329142: $GPGSA,A,3,10,15,18,20,21,24,27,32,8,138,,,2.0,0.8,1.5*31
2017-12-01 13:45:30 1512153930.328158: $GPZDA,184531.00,01,12,2017,00,00*6A
2017-12-01 13:45:30 1512153930.328334: $GPGGA,184531,3946.9555,N,08404.9835,W,2,10,0.80,301.54,M,-33.324,M,,*70
2017-12-01 13:45:30 1512153930.328453: $GPRMC,184531,A,3946.9555,N,08404.9835,W,0.0000,0.000,011217,,*3A
2017-12-01 13:45:30 1512153930.328515: $GPGSA,A,3,10,15,18,20,21,24,27,32,8,138,,,2.0,0.8,1.5*31
2017-12-01 13:45:32 1512153932.170291: $GPGSV,3,1,11,10,54,313,49,14,16,241,30,15,24,058,46,18,77,031,42*71
2017-12-01 13:45:32 1512153932.170488: $GPGSV,3,2,11,20,22,108,46,21,47,181,44,24,53,082,47,27,15,274,43*77
2017-12-01 13:45:32 1512153932.170555: $GPGSV,3,3,11,32,33,249,42,08,08,309,32,138,38,213,47*78
2017-12-01 13:45:32 1512153932.284028: $GPZDA,184532.00,01,12,2017,00,00*69
2017-12-01 13:45:32 1512153932.284198: $GPGGA,184532,3946.9559,N,08404.9841,W,2,11,0.80,300.70,M,-33.324,M,,*7A
2017-12-01 13:45:32 1512153932.284264: $GPRMC,184532,A,3946.9559,N,08404.9841,W,0.2422,93.794,011217,,*00
2017-12-01 13:45:32 1512153932.284325: $GPGSA,A,3,10,14,15,18,20,21,24,27,32,8,138,,2.0,0.8,1.5*34
2017-12-01 13:45:32 1512153932.734870: $GPZDA,184533.00,01,12,2017,00,00*68
2017-12-01 13:45:32 1512153932.735052: $GPGGA,184533,3946.9559,N,08404.9841,W,2,11,0.80,300.70,M,-33.324,M,,*7B
2017-12-01 13:45:32 1512153932.735118: $GPRMC,184533,A,3946.9559,N,08404.9841,W,0.0000,0.000,011217,,*37
2017-12-01 13:45:32 1512153932.735179: $GPGSA,A,3,10,14,15,18,20,21,24,27,32,8,138,,2.0,0.8,1.5*34
