2017-12-29 11:56:07 1514566567.196305: {"class":"VERSION","release":"3.16","rev":"3.16-4","proto_major":3,"proto_minor":11}
2017-12-29 11:56:07 1514566567.196650: {"class":"DEVICES","devices":[{"class":"DEVICE","path":"/dev/ttyUSB0","driver":"SiRF","subtype":"9\u0006GSD4e_4.1.2-P1_RPATCH.05-F-GPS-4R-1510281 11/03/2015 307","activated":"2017-12-29T16:56:07.003Z","flags":1,"native":1,"bps":4800,"parity":"N","stopbits":1,"cycle":1.00}]}
2017-12-29 11:56:07 1514566567.196768: {"class":"WATCH","enable":true,"json":false,"nmea":true,"raw":0,"scaled":false,"timing":false,"split24":false,"pps":false}
2017-12-29 11:56:07 1514566567.414036: $GPZDA,165608.00,29,12,2017,00,00*66
2017-12-29 11:56:07 1514566567.414220: $GPGGA,165608,3946.9617,N,08404.9836,W,2,11,0.80,325.39,M,-33.324,M,,*7C
2017-12-29 11:56:07 1514566567.414289: $GPRMC,165608,A,3946.9617,N,08404.9836,W,0.0000,0.000,291217,,*30
2017-12-29 11:56:07 1514566567.414350: $GPGSA,A,3,8,10,15,18,20,21,24,32,14,27,138,,1.7,0.8,1.3*36
2017-12-29 11:56:08 1514566568.412146: $GPZDA,165609.00,29,12,2017,00,00*67
2017-12-29 11:56:08 1514566568.412309: $GPGGA,165609,3946.9617,N,08404.9836,W,2,11,0.80,325.39,M,-33.324,M,,*7D
2017-12-29 11:56:08 1514566568.412375: $GPRMC,165609,A,3946.9617,N,08404.9836,W,0.0000,0.000,291217,,*31
2017-12-29 11:56:08 1514566568.412436: $GPGSA,A,3,8,10,15,18,20,21,24,32,14,27,138,,1.7,0.8,1.3*36
2017-12-29 11:56:09 1514566569.750148: $GPGSV,3,1,11,08,08,307,34,10,56,315,46,15,22,060,45,18,77,043,45*73
2017-12-29 11:56:09 1514566569.750317: $GPGSV,3,2,11,20,21,108,49,21,44,181,46,24,52,079,50,32,36,252,36*7A
2017-12-29 11:56:09 1514566569.750384: $GPGSV,3,3,11,14,17,243,30,27,14,273,31,138,38,213,44*79
2017-12-29 11:56:09 1514566569.862245: $GPZDA,165610.00,29,12,2017,00,00*6F
2017-12-29 11:56:09 1514566569.862418: $GPGGA,165610,3946.9617,N,08404.9836,W,2,11,0.80,325.39,M,-33.324,M,,*75
2017-12-29 11:56:09 1514566569.862490: $GPRMC,165610,A,3946.9617,N,08404.9836,W,0.0000,0.000,291217,,*39
2017-12-29 11:56:09 1514566569.862554: $GPGSA,A,3,8,10,15,18,20,21,24,32,14,27,138,,1.7,0.8,1.3*36
2017-12-29 11:56:10 1514566570.413081: $GPZDA,165611.00,29,12,2017,00,00*6E
2017-12-29 11:56:10 1514566570.413264: $GPGGA,165611,3946.9613,N,08404.9830,W,2,11,0.80,326.23,M,-33.324,M,,*7E
2017-12-29 11:56:10 1514566570.413333: $GPRMC,165611,A,3946.9613,N,08404.9830,W,0.3423,184.197,291217,,*3E
2017-12-29 11:56:10 1514566570.413399: $GPGSA,A,3,8,10,15,18,20,21,24,32,14,27,138,,1.7,0.8,1.3*36
2017-12-29 11:56:11 1514566571.414078: $GPZDA,165612.00,29,12,2017,00,00*6D
2017-12-29 11:56:11 1514566571.414267: $GPGGA,165612,3946.9613,N,08404.9830,W,2,11,0.80,326.23,M,-33.324,M,,*7D
2017-12-29 11:56:11 1514566571.414339: $GPRMC,165612,A,3946.9613,N,08404.9830,W,0.0000,0.000,291217,,*39
2017-12-29 11:56:11 1514566571.414403: $GPGSA,A,3,8,10,15,18,20,21,24,32,14,27,138,,1.7,0.8,1.3*36
2017-12-29 11:56:12 1514566572.748391: $GPGSV,3,1,11,08,08,307,34,10,56,315,45,15,22,060,44,18,77,043,45*71
2017-12-29 11:56:12 1514566572.748557: $GPGSV,3,2,11,20,21,108,49,21,44,181,46,24,52,079,50,32,36,252,36*7A
2017-12-29 11:56:12 1514566572.748647: $GPGSV,3,3,11,14,17,243,29,27,14,273,32,138,38,213,45*73
2017-12-29 11:56:12 1514566572.860663: $GPZDA,165613.00,29,12,2017,00,00*6C
2017-12-29 11:56:12 1514566572.860837: $GPGGA,165613,3946.9613,N,08404.9830,W,2,11,0.80,326.23,M,-33.324,M,,*7C
2017-12-29 11:56:12 1514566572.860904: $GPRMC,165613,A,3946.9613,N,08404.9830,W,0.0000,0.000,291217,,*38
2017-12-29 11:56:12 1514566572.860970: $GPGSA,A,3,8,10,15,18,20,21,24,32,14,27,138,,1.7,0.8,1.3*36
2017-12-29 11:56:13 1514566573.487232: $GPZDA,165614.00,29,12,2017,00,00*6B
2017-12-29 11:56:13 1514566573.487383: $GPGGA,165614,3946.9610,N,08404.9831,W,2,11,0.80,326.99,M,-33.324,M,,*78
2017-12-29 11:56:13 1514566573.487452: $GPRMC,165614,A,3946.9610,N,08404.9831,W,0.0000,0.000,291217,,*3D
2017-12-29 11:56:13 1514566573.487515: $GPGSA,A,3,8,10,15,18,20,21,24,32,14,27,138,,1.7,0.8,1.3*36
2017-12-29 11:56:14 1514566574.416320: $GPZDA,165615.00,29,12,2017,00,00*6A
2017-12-29 11:56:14 1514566574.416507: $GPGGA,165615,3946.9610,N,08404.9831,W,2,11,0.80,326.99,M,-33.324,M,,*79
2017-12-29 11:56:14 1514566574.416633: $GPRMC,165615,A,3946.9610,N,08404.9831,W,0.0000,0.000,291217,,*3C
2017-12-29 11:56:14 1514566574.416696: $GPGSA,A,3,8,10,15,18,20,21,24,32,14,27,138,,1.7,0.8,1.3*36
2017-12-29 11:56:15 1514566575.743731: $GPGSV,3,1,11,08,08,307,34,10,56,315,45,15,22,060,45,18,77,043,45*70
2017-12-29 11:56:15 1514566575.743928: $GPGSV,3,2,11,20,21,108,49,21,44,181,46,24,52,079,50,32,36,252,38*74
2017-12-29 11:56:15 1514566575.743995: $GPGSV,3,3,11,14,17,243,29,27,14,273,32,138,38,213,44*72
2017-12-29 11:56:15 1514566575.857116: $GPZDA,165616.00,29,12,2017,00,00*69
2017-12-29 11:56:15 1514566575.857282: $GPGGA,165616,3946.9610,N,08404.9831,W,2,11,0.80,326.99,M,-33.324,M,,*7A
2017-12-29 11:56:15 1514566575.857347: $GPRMC,165616,A,3946.9610,N,08404.9831,W,0.0000,0.000,291217,,*3F
2017-12-29 11:56:15 1514566575.857407: $GPGSA,A,3,8,10,15,18,20,21,24,32,14,27,138,,1.7,0.8,1.3*36
2017-12-29 11:56:16 1514566576.412994: $GPZDA,165617.00,29,12,2017,00,00*68
2017-12-29 11:56:16 1514566576.413181: $GPGGA,165617,3946.9609,N,08404.9824,W,2,11,0.80,327.07,M,-33.324,M,,*71
2017-12-29 11:56:16 1514566576.413269: $GPRMC,165617,A,3946.9609,N,08404.9824,W,0.0000,0.000,291217,,*32
2017-12-29 11:56:16 1514566576.413331: $GPGSA,A,3,8,10,15,18,20,21,24,32,14,27,138,,1.7,0.8,1.3*36
2017-12-29 11:56:17 1514566577.413853: $GPZDA,165618.00,29,12,2017,00,00*67
2017-12-29 11:56:17 1514566577.414029: $GPGGA,165618,3946.9609,N,08404.9824,W,2,11,0.80,327.07,M,-33.324,M,,*7E
2017-12-29 11:56:17 1514566577.414095: $GPRMC,165618,A,3946.9609,N,08404.9824,W,0.0000,0.000,291217,,*3D
2017-12-29 11:56:17 1514566577.414155: $GPGSA,A,3,8,10,15,18,20,21,24,32,14,27,138,,1.7,0.8,1.3*36
2017-12-29 11:56:18 1514566578.749396: $GPGSV,3,1,11,08,08,307,35,10,56,315,45,15,22,060,45,18,77,043,45*71
2017-12-29 11:56:18 1514566578.749621: $GPGSV,3,2,11,20,21,108,49,21,44,181,46,24,52,079,50,32,36,252,38*74
2017-12-29 11:56:18 1514566578.749710: $GPGSV,3,3,11,14,17,243,29,27,14,273,32,138,38,213,44*72
2017-12-29 11:56:18 1514566578.862545: $GPZDA,165619.00,29,12,2017,00,00*66
2017-12-29 11:56:18 1514566578.862714: $GPGGA,165619,3946.9609,N,08404.9824,W,2,11,0.80,327.07,M,-33.324,M,,*7F
2017-12-29 11:56:18 1514566578.862778: $GPRMC,165619,A,3946.9609,N,08404.9824,W,0.0000,0.000,291217,,*3C
2017-12-29 11:56:18 1514566578.862839: $GPGSA,A,3,8,10,15,18,20,21,24,32,14,27,138,,1.7,0.8,1.3*36
2017-12-29 11:56:19 1514566579.413347: $GPZDA,165620.00,29,12,2017,00,00*6C
2017-12-29 11:56:19 1514566579.413518: $GPGGA,165620,3946.9613,N,08404.9817,W,2,11,0.80,327.79,M,-33.324,M,,*77
2017-12-29 11:56:19 1514566579.413584: $GPRMC,165620,A,3946.9613,N,08404.9817,W,0.0000,0.000,291217,,*3D
2017-12-29 11:56:19 1514566579.413644: $GPGSA,A,3,8,10,15,18,20,21,24,32,14,27,138,,1.7,0.8,1.3*36
2017-12-29 11:56:20 1514566580.411862: $GPZDA,165621.00,29,12,2017,00,00*6D
2017-12-29 11:56:20 1514566580.412033: $GPGGA,165621,3946.9613,N,08404.9817,W,2,11,0.80,327.79,M,-33.324,M,,*76
2017-12-29 11:56:20 1514566580.412100: $GPRMC,165621,A,3946.9613,N,08404.9817,W,0.0000,0.000,291217,,*3C
2017-12-29 11:56:20 1514566580.412160: $GPGSA,A,3,8,10,15,18,20,21,24,32,14,27,138,,1.7,0.8,1.3*36
2017-12-29 11:56:21 1514566581.760332: $GPGSV,3,1,11,08,08,307,35,10,56,315,45,15,22,060,45,18,77,043,45*71
2017-12-29 11:56:21 1514566581.760531: $GPGSV,3,2,11,20,21,108,49,21,44,181,46,24,52,079,50,32,36,252,38*74
2017-12-29 11:56:21 1514566581.760596: $GPGSV,3,3,11,14,17,243,29,27,14,273,32,138,38,213,44*72
2017-12-29 11:56:21 1514566581.872543: $GPZDA,165622.00,29,12,2017,00,00*6E
2017-12-29 11:56:21 1514566581.872710: $GPGGA,165622,3946.9613,N,08404.9817,W,2,11,0.80,327.79,M,-33.324,M,,*75
2017-12-29 11:56:21 1514566581.872776: $GPRMC,165622,A,3946.9613,N,08404.9817,W,0.0000,0.000,291217,,*3F
2017-12-29 11:56:21 1514566581.872836: $GPGSA,A,3,8,10,15,18,20,21,24,32,14,27,138,,1.7,0.8,1.3*36
