2017-11-15 18:48:47 1510789727.152283: {"class":"VERSION","release":"3.17","rev":"3.17","proto_major":3,"proto_minor":12}
2017-11-15 18:48:47 1510789727.152754: {"class":"DEVICES","devices":[{"class":"DEVICE","path":"/dev/ttyUSB0","driver":"SiRF","subtype":"9\u0006GSD4e_4.1.2-P1_RPATCH.05-F-GPS-4R-1510281 11/03/2015 307","activated":"2017-11-15T23:48:46.544Z","flags":1,"native":1,"bps":4800,"parity":"N","stopbits":1,"cycle":1.00}]}
2017-11-15 18:48:47 1510789727.152873: {"class":"WATCH","enable":true,"json":false,"nmea":true,"raw":0,"scaled":false,"timing":false,"split24":false,"pps":false}
2017-11-15 18:48:47 1510789727.365886: $GPZDA,234846.00,15,11,2017,00,00*69
2017-11-15 18:48:47 1510789727.366048: $GPGGA,234846,3946.9489,N,08404.9529,W,1,06,1.20,335.11,M,-33.324,M,,*7C
2017-11-15 18:48:47 1510789727.366111: $GPRMC,234846,A,3946.9489,N,08404.9529,W,0.7621,107.945,151117,,*35
2017-11-15 18:48:47 1510789727.366167: $GPGSA,A,3,14,32,31,26,25,22,,,,,,,3.4,1.2,2.9*38
2017-11-15 18:48:48 1510789728.665458: $GPGSV,3,1,12,01,15,267,00,14,66,060,19,03,27,313,05,32,50,088,15*77
2017-11-15 18:48:48 1510789728.665633: $GPGSV,3,2,12,31,79,322,20,26,33,177,13,25,31,049,12,29,03,087,10*7C
2017-11-15 18:48:48 1510789728.665696: $GPGSV,3,3,12,10,14,157,00,22,44,295,26,16,05,190,00,138,38,213,00*4C
2017-11-15 18:48:48 1510789728.778996: $GPZDA,234847.00,15,11,2017,00,00*68
2017-11-15 18:48:48 1510789728.779119: $GPGGA,234847,3946.9488,N,08404.9522,W,1,08,1.20,335.19,M,-33.324,M,,*71
2017-11-15 18:48:48 1510789728.779177: $GPRMC,234847,A,3946.9488,N,08404.9522,W,0.5857,158.291,151117,,*3B
2017-11-15 18:48:48 1510789728.779233: $GPGSA,A,3,14,3,32,31,26,25,29,22,,,,,3.4,1.2,2.9*00
2017-11-15 18:48:49 1510789729.331148: $GPZDA,234848.00,15,11,2017,00,00*67
2017-11-15 18:48:49 1510789729.331311: $GPGGA,234848,3946.9488,N,08404.9522,W,1,08,1.20,335.19,M,-33.324,M,,*7E
2017-11-15 18:48:49 1510789729.331373: $GPRMC,234848,A,3946.9488,N,08404.9522,W,0.3423,184.197,151117,,*39
2017-11-15 18:48:49 1510789729.331428: $GPGSA,A,3,14,3,32,31,26,25,29,22,,,,,3.4,1.2,2.9*00
2017-11-15 18:48:50 1510789730.330621: $GPZDA,234849.00,15,11,2017,00,00*66
2017-11-15 18:48:50 1510789730.330786: $GPGGA,234849,3946.9484,N,08404.9515,W,1,08,1.20,334.63,M,-33.324,M,,*7B
2017-11-15 18:48:50 1510789730.330847: $GPRMC,234849,A,3946.9484,N,08404.9515,W,0.3423,184.197,151117,,*30
2017-11-15 18:48:50 1510789730.330903: $GPGSA,A,3,14,3,32,31,26,25,29,22,,,,,3.4,1.2,2.9*00
2017-11-15 18:48:51 1510789731.665800: $GPGSV,3,1,12,01,15,267,00,14,66,060,19,03,27,313,09,32,50,088,16*78
2017-11-15 18:48:51 1510789731.665975: $GPGSV,3,2,12,31,79,322,21,26,33,177,12,25,31,049,11,29,03,087,10*7F
2017-11-15 18:48:51 1510789731.666035: $GPGSV,3,3,12,10,14,157,00,22,44,295,26,16,05,190,00,138,38,213,00*4C
2017-11-15 18:48:51 1510789731.779340: $GPZDA,234850.00,15,11,2017,00,00*6E
2017-11-15 18:48:51 1510789731.779455: $GPGGA,234850,3946.9484,N,08404.9515,W,1,07,1.20,334.63,M,-33.324,M,,*7C
2017-11-15 18:48:51 1510789731.779514: $GPRMC,234850,A,3946.9484,N,08404.9515,W,0.2422,273.794,151117,,*36
2017-11-15 18:48:51 1510789731.779570: $GPGSA,A,3,14,32,31,26,25,29,22,,,,,,3.4,1.2,2.9*33
2017-11-15 18:48:52 1510789732.330269: $GPZDA,234851.00,15,11,2017,00,00*6F
2017-11-15 18:48:52 1510789732.330430: $GPGGA,234851,3946.9484,N,08404.9515,W,1,07,1.20,334.63,M,-33.324,M,,*7D
2017-11-15 18:48:52 1510789732.330492: $GPRMC,234851,A,3946.9484,N,08404.9515,W,0.7278,203.636,151117,,*35
2017-11-15 18:48:52 1510789732.330549: $GPGSA,A,3,14,32,31,26,25,29,22,,,,,,3.4,1.2,2.9*33
2017-11-15 18:48:53 1510789733.330912: $GPZDA,234852.00,15,11,2017,00,00*6C
2017-11-15 18:48:53 1510789733.331109: $GPGGA,234852,3946.9480,N,08404.9515,W,1,07,1.20,335.39,M,-33.324,M,,*74
2017-11-15 18:48:53 1510789733.331171: $GPRMC,234852,A,3946.9480,N,08404.9515,W,1.0269,184.197,151117,,*34
2017-11-15 18:48:53 1510789733.331229: $GPGSA,A,3,14,32,31,26,25,29,22,,,,,,3.4,1.2,2.9*33
2017-11-15 18:48:54 1510789734.665425: $GPGSV,3,1,12,01,15,267,00,14,66,060,19,03,27,313,04,32,50,088,16*75
2017-11-15 18:48:54 1510789734.665654: $GPGSV,3,2,12,31,79,322,22,26,33,177,11,25,31,049,11,29,03,087,10*7F
2017-11-15 18:48:54 1510789734.665720: $GPGSV,3,3,12,10,14,157,00,22,44,295,26,16,05,190,00,138,38,213,00*4C
2017-11-15 18:48:54 1510789734.778856: $GPZDA,234853.00,15,11,2017,00,00*6D
2017-11-15 18:48:54 1510789734.779002: $GPGGA,234853,3946.9476,N,08404.9508,W,1,07,1.20,334.83,M,-33.324,M,,*70
2017-11-15 18:48:54 1510789734.779060: $GPRMC,234853,A,3946.9476,N,08404.9508,W,1.2381,172.270,151117,,*36
2017-11-15 18:48:54 1510789734.779116: $GPGSA,A,3,14,32,31,26,25,29,22,,,,,,3.4,1.2,2.9*33
2017-11-15 18:48:55 1510789735.366102: $GPZDA,234854.00,15,11,2017,00,00*6A
2017-11-15 18:48:55 1510789735.366265: $GPGGA,234854,3946.9472,N,08404.9509,W,1,07,3.80,335.60,M,-33.324,M,,*76
2017-11-15 18:48:55 1510789735.366326: $GPRMC,234854,A,3946.9472,N,08404.9509,W,1.3082,161.818,151117,,*33
2017-11-15 18:48:55 1510789735.366381: $GPGSA,A,3,14,32,31,26,25,29,22,,,,,,3.4,3.8,2.9*3B
2017-11-15 18:48:56 1510789736.371617: $GPZDA,234855.00,15,11,2017,00,00*6B
2017-11-15 18:48:56 1510789736.371797: $GPGGA,234855,3946.9468,N,08404.9502,W,1,07,3.80,335.04,M,-33.324,M,,*75
2017-11-15 18:48:56 1510789736.379732: $GPRMC,234855,A,3946.9468,N,08404.9502,W,1.2381,172.270,151117,,*35
2017-11-15 18:48:56 1510789736.379817: $GPGSA,A,3,14,32,31,26,25,29,22,,,,,,3.4,3.8,2.9*3B
2017-11-15 18:48:57 1510789737.669661: $GPGSV,3,1,12,12,01,030,03,14,66,060,19,03,27,313,04,32,50,088,16*71
2017-11-15 18:48:57 1510789737.669837: $GPGSV,3,2,12,31,79,322,22,26,33,177,04,25,31,049,12,29,03,087,05*7C
2017-11-15 18:48:57 1510789737.669897: $GPGSV,3,3,12,16,05,190,18,22,44,295,26,01,15,267,00,138,38,213,00*44
2017-11-15 18:48:57 1510789737.783108: $GPZDA,234856.00,15,11,2017,00,00*68
2017-11-15 18:48:57 1510789737.783257: $GPGGA,234856,3946.9460,N,08404.9503,W,1,05,3.80,335.16,M,-33.324,M,,*7E
2017-11-15 18:48:57 1510789737.783317: $GPRMC,234856,A,3946.9460,N,08404.9503,W,1.4168,152.696,151117,,*32
2017-11-15 18:48:57 1510789737.783372: $GPGSA,A,3,14,32,31,25,22,,,,,,,,3.4,3.8,2.9*34
2017-11-15 18:48:58 1510789738.365212: $GPZDA,234857.00,15,11,2017,00,00*69
2017-11-15 18:48:58 1510789738.365376: $GPGGA,234857,3946.9460,N,08404.9496,W,1,05,3.80,335.24,M,-33.324,M,,*73
2017-11-15 18:48:58 1510789738.365437: $GPRMC,234857,A,3946.9460,N,08404.9496,W,1.4168,152.696,151117,,*3E
2017-11-15 18:48:58 1510789738.365493: $GPGSA,A,3,14,32,31,25,22,,,,,,,,3.4,3.8,2.9*34
2017-11-15 18:48:59 1510789739.364821: $GPZDA,234858.00,15,11,2017,00,00*66
2017-11-15 18:48:59 1510789739.364981: $GPGGA,234858,3946.9452,N,08404.9497,W,1,05,3.80,335.37,M,-33.324,M,,*7E
2017-11-15 18:48:59 1510789739.365042: $GPRMC,234858,A,3946.9452,N,08404.9497,W,1.7122,148.618,151117,,*31
2017-11-15 18:48:59 1510789739.365099: $GPGSA,A,3,14,32,31,25,22,,,,,,,,3.4,3.8,2.9*34
2017-11-15 18:49:00 1510789740.707996: $GPGSV,3,1,12,12,01,030,15,14,66,060,19,03,27,313,04,32,50,088,17*77
2017-11-15 18:49:00 1510789740.708137: $GPGSV,3,2,12,31,79,322,23,26,33,177,04,25,31,049,11,29,03,087,06*7D
2017-11-15 18:49:00 1510789740.708199: $GPGSV,3,3,12,01,15,267,00,22,44,295,26,10,14,157,00,138,38,213,00*40
2017-11-15 18:49:00 1510789740.821408: $GPZDA,234859.00,15,11,2017,00,00*67
2017-11-15 18:49:00 1510789740.821577: $GPGGA,234859,3946.9448,N,08404.9490,W,1,05,3.80,334.80,M,-33.324,M,,*7E
2017-11-15 18:49:00 1510789740.821640: $GPRMC,234859,A,3946.9448,N,08404.9490,W,1.4168,152.696,151117,,*3C
2017-11-15 18:49:00 1510789740.821699: $GPGSA,A,3,14,32,31,25,22,,,,,,,,3.4,3.8,2.9*34
2017-11-15 18:49:01 1510789741.446885: $GPZDA,234900.00,15,11,2017,00,00*6A
2017-11-15 18:49:01 1510789741.447062: $GPGGA,234900,3946.9444,N,08404.9490,W,1,05,3.80,335.57,M,-33.324,M,,*74
2017-11-15 18:49:01 1510789741.476782: $GPRMC,234900,A,3946.9444,N,08404.9490,W,1.3082,161.818,151117,,*37
2017-11-15 18:49:01 1510789741.476869: $GPGSA,A,3,14,32,31,25,22,,,,,,,,3.4,3.8,2.9*34
2017-11-15 18:49:02 1510789742.366333: $GPZDA,234901.00,15,11,2017,00,00*6B
2017-11-15 18:49:02 1510789742.366502: $GPGGA,234901,3946.9440,N,08404.9490,W,1,05,3.80,334.93,M,-33.324,M,,*78
2017-11-15 18:49:02 1510789742.366623: $GPRMC,234901,A,3946.9440,N,08404.9490,W,0.8709,183.298,151117,,*32
2017-11-15 18:49:02 1510789742.366686: $GPGSA,A,3,14,32,31,25,22,,,,,,,,3.4,3.8,2.9*34
2017-11-15 18:49:03 1510789743.702110: $GPGSV,3,1,12,03,27,313,00,14,66,060,19,01,15,267,00,32,50,088,17*70
2017-11-15 18:49:03 1510789743.702283: $GPGSV,3,2,12,31,79,322,24,26,33,177,04,25,31,049,10,29,03,087,07*7A
2017-11-15 18:49:03 1510789743.702344: $GPGSV,3,3,12,10,14,157,00,22,44,295,26,16,05,190,00,138,38,213,00*4C
2017-11-15 18:49:03 1510789743.815399: $GPZDA,234902.00,15,11,2017,00,00*68
2017-11-15 18:49:03 1510789743.815554: $GPGGA,234902,3946.9440,N,08404.9490,W,1,06,3.80,334.93,M,-33.324,M,,*78
2017-11-15 18:49:03 1510789743.815617: $GPRMC,234902,A,3946.9440,N,08404.9490,W,0.1867,180.000,151117,,*3F
2017-11-15 18:49:03 1510789743.815678: $GPGSA,A,3,14,32,31,25,29,22,,,,,,,3.4,3.8,2.9*3F
2017-11-15 18:49:04 1510789744.328896: $GPZDA,234903.00,15,11,2017,00,00*69
2017-11-15 18:49:04 1510789744.329046: $GPGGA,234903,3946.9440,N,08404.9490,W,1,06,3.80,334.93,M,-33.324,M,,*79
2017-11-15 18:49:04 1510789744.329107: $GPRMC,234903,A,3946.9440,N,08404.9490,W,0.0000,0.000,151117,,*3F
2017-11-15 18:49:04 1510789744.329163: $GPGSA,A,3,14,32,31,25,29,22,,,,,,,3.4,3.8,2.9*3F
2017-11-15 18:49:05 1510789745.329482: $GPZDA,234904.00,15,11,2017,00,00*6E
2017-11-15 18:49:05 1510789745.329657: $GPGGA,234904,3946.9440,N,08404.9490,W,1,06,3.80,334.93,M,-33.324,M,,*7E
2017-11-15 18:49:05 1510789745.329722: $GPRMC,234904,A,3946.9440,N,08404.9490,W,0.2422,273.794,151117,,*32
2017-11-15 18:49:05 1510789745.329782: $GPGSA,A,3,14,32,31,25,29,22,,,,,,,3.4,3.8,2.9*3F
2017-11-15 18:49:06 1510789746.707557: $GPGSV,3,1,12,03,27,313,00,14,66,060,19,01,15,267,00,32,50,088,18*7F
2017-11-15 18:49:06 1510789746.707736: $GPGSV,3,2,12,31,79,322,24,26,33,177,04,25,31,049,09,29,03,087,08*7D
2017-11-15 18:49:06 1510789746.707800: $GPGSV,3,3,12,10,14,157,00,22,44,295,26,16,05,190,00,138,38,213,00*4C
2017-11-15 18:49:06 1510789746.820757: $GPZDA,234905.00,15,11,2017,00,00*6F
2017-11-15 18:49:06 1510789746.820918: $GPGGA,234905,3946.9440,N,08404.9490,W,1,06,3.80,334.93,M,-33.324,M,,*7F
2017-11-15 18:49:06 1510789746.820981: $GPRMC,234905,A,3946.9440,N,08404.9490,W,0.3423,184.197,151117,,*3D
2017-11-15 18:49:06 1510789746.821040: $GPGSA,A,3,14,32,31,25,29,22,,,,,,,3.4,3.8,2.9*3F
2017-11-15 18:49:07 1510789747.329313: $GPZDA,234906.00,15,11,2017,00,00*6C
2017-11-15 18:49:07 1510789747.329508: $GPGGA,234906,3946.9440,N,08404.9490,W,1,06,3.80,334.93,M,-33.324,M,,*7C
2017-11-15 18:49:07 1510789747.329573: $GPRMC,234906,A,3946.9440,N,08404.9490,W,0.4179,328.778,151117,,*30
2017-11-15 18:49:07 1510789747.329632: $GPGSA,A,3,14,32,31,25,29,22,,,,,,,3.4,3.8,2.9*3F
2017-11-15 18:49:08 1510789748.366215: $GPZDA,234907.00,15,11,2017,00,00*6D
2017-11-15 18:49:08 1510789748.366379: $GPGGA,234907,3946.9444,N,08404.9490,W,1,06,1.20,334.17,M,-33.324,M,,*7D
2017-11-15 18:49:08 1510789748.366443: $GPRMC,234907,A,3946.9444,N,08404.9490,W,0.4207,39.347,151117,,*04
2017-11-15 18:49:08 1510789748.366502: $GPGSA,A,3,14,32,31,25,29,22,,,,,,,3.4,1.2,2.9*37
2017-11-15 18:49:09 1510789749.710816: $GPGSV,3,1,12,16,05,190,00,14,66,060,19,03,27,313,00,32,50,088,18*73
2017-11-15 18:49:09 1510789749.710990: $GPGSV,3,2,12,31,79,322,25,26,33,177,15,25,31,049,09,29,03,087,08*7C
2017-11-15 18:49:09 1510789749.711054: $GPGSV,3,3,12,01,15,267,00,22,44,295,26,10,14,157,00,138,38,213,00*40
2017-11-15 18:49:09 1510789749.824382: $GPZDA,234908.00,15,11,2017,00,00*62
2017-11-15 18:49:09 1510789749.824546: $GPGGA,234908,3946.9448,N,08404.9490,W,1,07,1.20,334.80,M,-33.324,M,,*71
2017-11-15 18:49:09 1510789749.824609: $GPRMC,234908,A,3946.9448,N,08404.9490,W,0.4207,39.347,151117,,*07
2017-11-15 18:49:09 1510789749.824668: $GPGSA,A,3,14,32,31,26,25,29,22,,,,,,3.4,1.2,2.9*33
2017-11-15 18:49:10 1510789750.330278: $GPZDA,234909.00,15,11,2017,00,00*63
2017-11-15 18:49:10 1510789750.330450: $GPGGA,234909,3946.9448,N,08404.9490,W,1,07,1.20,334.80,M,-33.324,M,,*70
2017-11-15 18:49:10 1510789750.330559: $GPRMC,234909,A,3946.9448,N,08404.9490,W,0.0000,0.000,151117,,*3D
2017-11-15 18:49:10 1510789750.330617: $GPGSA,A,3,14,32,31,26,25,29,22,,,,,,3.4,1.2,2.9*33
2017-11-15 18:49:11 1510789751.366887: $GPZDA,234910.00,15,11,2017,00,00*6B
2017-11-15 18:49:11 1510789751.367051: $GPGGA,234910,3946.9448,N,08404.9490,W,1,07,1.20,334.80,M,-33.324,M,,*78
2017-11-15 18:49:11 1510789751.367112: $GPRMC,234910,A,3946.9448,N,08404.9490,W,0.1567,9.201,151117,,*3A
2017-11-15 18:49:11 1510789751.367167: $GPGSA,A,3,14,32,31,26,25,29,22,,,,,,3.4,1.2,2.9*33
2017-11-15 18:49:12 1510789752.666093: $GPGSV,3,1,12,16,05,190,11,14,66,060,19,03,27,313,01,32,50,088,18*72
2017-11-15 18:49:12 1510789752.666278: $GPGSV,3,2,12,31,79,322,25,26,33,177,16,25,31,049,09,29,03,087,09*7E
2017-11-15 18:49:12 1510789752.666339: $GPGSV,3,3,12,01,15,267,00,22,44,295,26,10,14,157,00,138,38,213,00*40
2017-11-15 18:49:12 1510789752.779668: $GPZDA,234911.00,15,11,2017,00,00*6A
2017-11-15 18:49:12 1510789752.779811: $GPGGA,234911,3946.9451,N,08404.9489,W,1,07,1.20,334.04,M,-33.324,M,,*75
2017-11-15 18:49:12 1510789752.779889: $GPRMC,234911,A,3946.9451,N,08404.9489,W,0.8359,328.778,151117,,*32
2017-11-15 18:49:12 1510789752.779946: $GPGSA,A,3,14,32,31,26,25,29,22,,,,,,3.4,1.2,2.9*33
2017-11-15 18:49:13 1510789753.331512: $GPZDA,234912.00,15,11,2017,00,00*69
2017-11-15 18:49:13 1510789753.331698: $GPGGA,234912,3946.9452,N,08404.9496,W,1,07,1.20,333.96,M,-33.324,M,,*77
2017-11-15 18:49:13 1510789753.331760: $GPRMC,234912,A,3946.9452,N,08404.9496,W,0.2422,273.794,151117,,*30
2017-11-15 18:49:13 1510789753.331833: $GPGSA,A,3,14,32,31,26,25,29,22,,,,,,3.4,1.2,2.9*33
2017-11-15 18:49:14 1510789754.329986: $GPZDA,234913.00,15,11,2017,00,00*68
2017-11-15 18:49:14 1510789754.330145: $GPGGA,234913,3946.9452,N,08404.9496,W,1,07,1.20,333.96,M,-33.324,M,,*76
2017-11-15 18:49:14 1510789754.330206: $GPRMC,234913,A,3946.9452,N,08404.9496,W,0.2422,93.794,151117,,*0D
2017-11-15 18:49:14 1510789754.330281: $GPGSA,A,3,14,32,31,26,25,29,22,,,,,,3.4,1.2,2.9*33
2017-11-15 18:49:15 1510789755.665751: $GPGSV,3,1,12,16,05,190,12,14,66,060,19,03,27,313,04,32,50,088,18*74
2017-11-15 18:49:15 1510789755.665921: $GPGSV,3,2,12,31,79,322,26,26,33,177,16,25,31,049,08,29,03,087,09*7C
2017-11-15 18:49:15 1510789755.665981: $GPGSV,3,3,12,01,15,267,00,22,44,295,26,10,14,157,00,138,38,213,00*40
2017-11-15 18:49:15 1510789755.779053: $GPZDA,234914.00,15,11,2017,00,00*6F
2017-11-15 18:49:15 1510789755.779175: $GPGGA,234914,3946.9455,N,08404.9495,W,1,08,2.00,333.20,M,-33.324,M,,*76
2017-11-15 18:49:15 1510789755.779234: $GPRMC,234914,A,3946.9455,N,08404.9495,W,0.4207,39.347,151117,,*03
2017-11-15 18:49:15 1510789755.779288: $GPGSA,A,3,16,14,32,31,26,25,29,22,,,,,3.4,2.0,2.9*35
2017-11-15 18:49:16 1510789756.404376: $GPZDA,234915.00,15,11,2017,00,00*6E
2017-11-15 18:49:16 1510789756.404530: $GPGGA,234915,3946.9455,N,08404.9495,W,1,08,2.00,333.20,M,-33.324,M,,*77
2017-11-15 18:49:16 1510789756.404593: $GPRMC,234915,A,3946.9455,N,08404.9495,W,0.1867,180.000,151117,,*38
2017-11-15 18:49:16 1510789756.404649: $GPGSA,A,3,16,14,32,31,26,25,29,22,,,,,3.4,2.0,2.9*35
