2017-12-14 12:10:11 1513271411.703543: {"class":"VERSION","release":"3.16","rev":"3.16-4","proto_major":3,"proto_minor":11}
2017-12-14 12:10:11 1513271411.703960: {"class":"DEVICES","devices":[{"class":"DEVICE","path":"/dev/ttyUSB0","driver":"SiRF","subtype":"9\u0006GSD4e_4.1.2-P1_RPATCH.05-F-GPS-4R-1510281 11/03/2015 307","activated":"2017-12-14T17:10:11.593Z","flags":1,"native":1,"bps":4800,"parity":"N","stopbits":1,"cycle":1.00}]}
2017-12-14 12:10:11 1513271411.704083: {"class":"WATCH","enable":true,"json":false,"nmea":true,"raw":0,"scaled":false,"timing":false,"split24":false,"pps":false}
2017-12-14 12:10:11 1513271411.706672: $GPZDA,171012.00,14,12,2017,00,00*60
2017-12-14 12:10:11 1513271411.706778: $GPGGA,171012,3946.9504,N,08404.9392,W,1,09,1.20,344.11,M,-33.324,M,,*7C
2017-12-14 12:10:11 1513271411.706843: $GPRMC,171012,A,3946.9504,N,08404.9392,W,0.8414,39.347,141217,,*01
2017-12-14 12:10:11 1513271411.706905: $GPGSA,A,3,24,21,10,15,18,20,8,27,32,,,,6.6,1.2,6.2*02
2017-12-14 12:10:12 1513271412.242632: $GPZDA,171013.00,14,12,2017,00,00*61
2017-12-14 12:10:12 1513271412.242819: $GPGGA,171013,3946.9504,N,08404.9392,W,1,09,1.20,344.11,M,-33.324,M,,*7D
2017-12-14 12:10:12 1513271412.242887: $GPRMC,171013,A,3946.9504,N,08404.9392,W,0.3423,4.197,141217,,*3E
2017-12-14 12:10:12 1513271412.242947: $GPGSA,A,3,24,21,10,15,18,20,8,27,32,,,,6.6,1.2,6.2*02
2017-12-14 12:10:13 1513271413.253997: $GPZDA,171014.00,14,12,2017,00,00*66
2017-12-14 12:10:13 1513271413.254185: $GPGGA,171014,3946.9501,N,08404.9398,W,1,09,1.40,343.39,M,-33.324,M,,*7E
2017-12-14 12:10:13 1513271413.254257: $GPRMC,171014,A,3946.9501,N,08404.9398,W,0.0000,0.000,141217,,*3B
2017-12-14 12:10:13 1513271413.254320: $GPGSA,A,3,24,21,10,15,18,20,8,27,32,,,,6.6,1.4,6.2*04
2017-12-14 12:10:14 1513271414.590166: $GPGSV,3,1,12,24,49,117,30,21,67,192,24,10,38,298,20,15,41,051,22*77
2017-12-14 12:10:14 1513271414.590363: $GPGSV,3,2,12,18,69,330,00,20,37,093,15,08,04,325,10,27,19,294,12*7D
2017-12-14 12:10:14 1513271414.590429: $GPGSV,3,3,12,32,18,235,13,13,11,048,00,14,01,231,00,120,07,103,00*48
2017-12-14 12:10:14 1513271414.704344: $GPZDA,171015.00,14,12,2017,00,00*67
2017-12-14 12:10:14 1513271414.704516: $GPGGA,171015,3946.9508,N,08404.9391,W,1,08,1.40,343.34,M,-33.324,M,,*73
2017-12-14 12:10:14 1513271414.704584: $GPRMC,171015,A,3946.9508,N,08404.9391,W,0.5287,2.716,141217,,*30
2017-12-14 12:10:14 1513271414.704646: $GPGSA,A,3,24,21,10,15,20,8,27,32,,,,,6.6,1.4,6.2*0D
2017-12-14 12:10:15 1513271415.255271: $GPZDA,171016.00,14,12,2017,00,00*64
2017-12-14 12:10:15 1513271415.255451: $GPGGA,171016,3946.9512,N,08404.9397,W,1,08,1.40,342.50,M,-33.324,M,,*7E
2017-12-14 12:10:15 1513271415.255517: $GPRMC,171016,A,3946.9512,N,08404.9397,W,1.0269,4.197,141217,,*33
2017-12-14 12:10:15 1513271415.255577: $GPGSA,A,3,24,21,10,15,20,8,27,32,,,,,6.6,1.4,6.2*0D
2017-12-14 12:10:16 1513271416.254103: $GPZDA,171017.00,14,12,2017,00,00*65
2017-12-14 12:10:16 1513271416.254273: $GPGGA,171017,3946.9512,N,08404.9397,W,1,08,1.40,342.50,M,-33.324,M,,*7F
2017-12-14 12:10:16 1513271416.254339: $GPRMC,171017,A,3946.9512,N,08404.9397,W,0.7278,23.636,141217,,*0D
2017-12-14 12:10:16 1513271416.254418: $GPGSA,A,3,24,21,10,15,20,8,27,32,,,,,6.6,1.4,6.2*0D
2017-12-14 12:10:17 1513271417.593302: $GPGSV,3,1,12,24,49,117,30,21,67,192,24,10,38,298,20,15,41,051,21*74
2017-12-14 12:10:17 1513271417.593488: $GPGSV,3,2,12,18,69,330,01,20,37,093,14,08,04,325,12,27,19,294,11*7C
2017-12-14 12:10:17 1513271417.593555: $GPGSV,3,3,12,32,18,235,12,13,11,048,00,14,01,231,00,120,07,103,00*49
2017-12-14 12:10:17 1513271417.706697: $GPZDA,171018.00,14,12,2017,00,00*6A
2017-12-14 12:10:17 1513271417.706891: $GPGGA,171018,3946.9515,N,08404.9396,W,1,08,1.40,341.74,M,-33.324,M,,*73
2017-12-14 12:10:17 1513271417.706958: $GPRMC,171018,A,3946.9515,N,08404.9396,W,0.4207,39.347,141217,,*07
2017-12-14 12:10:17 1513271417.707019: $GPGSA,A,3,24,21,10,15,20,8,27,32,,,,,6.6,1.4,6.2*0D
2017-12-14 12:10:18 1513271418.254311: $GPZDA,171019.00,14,12,2017,00,00*6B
2017-12-14 12:10:18 1513271418.254484: $GPGGA,171019,3946.9515,N,08404.9389,W,1,08,1.60,341.81,M,-33.324,M,,*74
2017-12-14 12:10:18 1513271418.254605: $GPRMC,171019,A,3946.9515,N,08404.9389,W,1.0018,50.691,141217,,*00
2017-12-14 12:10:18 1513271418.254668: $GPGSA,A,3,24,21,10,15,20,8,27,32,,,,,6.6,1.6,6.2*0F
2017-12-14 12:10:19 1513271419.240927: $GPZDA,171020.00,14,12,2017,00,00*61
2017-12-14 12:10:19 1513271419.241109: $GPGGA,171020,3946.9515,N,08404.9389,W,1,08,1.40,341.81,M,-33.324,M,,*7C
2017-12-14 12:10:19 1513271419.241175: $GPRMC,171020,A,3946.9515,N,08404.9389,W,0.8709,3.298,141217,,*3F
2017-12-14 12:10:19 1513271419.241235: $GPGSA,A,3,24,21,10,15,20,8,27,32,,,,,6.6,1.4,6.2*0D
2017-12-14 12:10:20 1513271420.589410: $GPGSV,3,1,12,24,49,117,30,21,67,192,24,10,38,298,20,15,41,051,21*74
2017-12-14 12:10:20 1513271420.589586: $GPGSV,3,2,12,18,69,330,16,20,37,093,13,13,11,048,00,27,19,294,12*7B
2017-12-14 12:10:20 1513271420.589651: $GPGSV,3,3,12,32,18,235,13,08,04,325,00,14,01,231,00,120,07,103,00*4E
2017-12-14 12:10:20 1513271420.702816: $GPZDA,171021.00,14,12,2017,00,00*60
2017-12-14 12:10:20 1513271420.702991: $GPGGA,171021,3946.9519,N,08404.9389,W,1,08,1.60,342.45,M,-33.324,M,,*78
2017-12-14 12:10:20 1513271420.703056: $GPRMC,171021,A,3946.9519,N,08404.9389,W,0.8709,3.298,141217,,*32
2017-12-14 12:10:20 1513271420.703116: $GPGSA,A,3,24,21,10,15,18,20,27,32,,,,,6.6,1.6,6.2*3E
2017-12-14 12:10:21 1513271421.237936: $GPZDA,171022.00,14,12,2017,00,00*63
2017-12-14 12:10:21 1513271421.238115: $GPGGA,171022,3946.9522,N,08404.9389,W,1,08,1.60,341.69,M,-33.324,M,,*7E
2017-12-14 12:10:21 1513271421.238185: $GPRMC,171022,A,3946.9522,N,08404.9389,W,0.8709,3.298,141217,,*39
2017-12-14 12:10:21 1513271421.238246: $GPGSA,A,3,24,21,10,15,18,20,27,32,,,,,6.6,1.6,6.2*3E
2017-12-14 12:10:22 1513271422.255018: $GPZDA,171023.00,14,12,2017,00,00*62
2017-12-14 12:10:22 1513271422.255196: $GPGGA,171023,3946.9522,N,08404.9389,W,1,08,1.60,341.69,M,-33.324,M,,*7F
2017-12-14 12:10:22 1513271422.255262: $GPRMC,171023,A,3946.9522,N,08404.9389,W,0.9060,347.792,141217,,*3D
2017-12-14 12:10:22 1513271422.255323: $GPGSA,A,3,24,21,10,15,18,20,27,32,,,,,6.6,1.6,6.2*3E
2017-12-14 12:10:23 1513271423.589992: $GPGSV,3,1,12,24,49,117,30,21,67,192,24,10,38,298,20,15,41,051,21*74
2017-12-14 12:10:23 1513271423.590174: $GPGSV,3,2,12,18,69,330,15,20,37,093,04,13,11,048,00,27,19,294,10*7C
2017-12-14 12:10:23 1513271423.590239: $GPGSV,3,3,12,32,18,235,12,08,04,325,00,14,01,231,00,120,07,103,00*4F
2017-12-14 12:10:23 1513271423.704194: $GPZDA,171024.00,14,12,2017,00,00*65
2017-12-14 12:10:23 1513271423.704403: $GPGGA,171024,3946.9527,N,08404.9389,W,1,07,1.60,342.33,M,-33.324,M,,*7E
2017-12-14 12:10:23 1513271423.704503: $GPRMC,171024,A,3946.9527,N,08404.9389,W,0.9060,347.792,141217,,*3F
2017-12-14 12:10:23 1513271423.704571: $GPGSA,A,3,24,21,10,15,18,27,32,,,,,,6.6,1.6,6.2*3C
2017-12-14 12:10:24 1513271424.237272: $GPZDA,171025.00,14,12,2017,00,00*64
2017-12-14 12:10:24 1513271424.237441: $GPGGA,171025,3946.9531,N,08404.9396,W,1,07,1.60,342.89,M,-33.324,M,,*77
2017-12-14 12:10:24 1513271424.237507: $GPRMC,171025,A,3946.9531,N,08404.9396,W,1.5746,354.845,141217,,*3E
2017-12-14 12:10:24 1513271424.237569: $GPGSA,A,3,24,21,10,15,18,27,32,,,,,,6.6,1.6,6.2*3C
2017-12-14 12:10:25 1513271425.236166: $GPZDA,171026.00,14,12,2017,00,00*67
2017-12-14 12:10:25 1513271425.236333: $GPGGA,171026,3946.9534,N,08404.9395,W,1,07,1.60,342.13,M,-33.324,M,,*71
2017-12-14 12:10:25 1513271425.236400: $GPRMC,171026,A,3946.9534,N,08404.9395,W,1.0269,4.197,141217,,*36
2017-12-14 12:10:25 1513271425.236462: $GPGSA,A,3,24,21,10,15,18,27,32,,,,,,6.6,1.6,6.2*3C
2017-12-14 12:10:26 1513271426.572684: $GPGSV,3,1,12,24,49,117,30,21,67,192,24,10,38,298,20,15,41,051,21*74
2017-12-14 12:10:26 1513271426.572880: $GPGSV,3,2,12,18,69,330,16,20,37,093,06,13,11,048,00,27,19,294,10*7D
2017-12-14 12:10:26 1513271426.572955: $GPGSV,3,3,12,32,18,235,12,08,04,325,00,14,01,231,00,120,07,103,00*4F
2017-12-14 12:10:26 1513271426.686135: $GPZDA,171027.00,14,12,2017,00,00*66
2017-12-14 12:10:26 1513271426.686307: $GPGGA,171027,3946.9534,N,08404.9395,W,1,07,1.60,342.13,M,-33.324,M,,*70
2017-12-14 12:10:26 1513271426.686427: $GPRMC,171027,A,3946.9534,N,08404.9395,W,1.0002,334.331,141217,,*36
2017-12-14 12:10:26 1513271426.686489: $GPGSA,A,3,24,21,10,15,18,27,32,,,,,,6.6,1.6,6.2*3C
2017-12-14 12:10:27 1513271427.236630: $GPZDA,171028.00,14,12,2017,00,00*69
2017-12-14 12:10:27 1513271427.236802: $GPGGA,171028,3946.9539,N,08404.9395,W,1,07,1.60,342.77,M,-33.324,M,,*70
2017-12-14 12:10:27 1513271427.236870: $GPRMC,171028,A,3946.9539,N,08404.9395,W,0.9066,309.458,141217,,*38
2017-12-14 12:10:27 1513271427.236934: $GPGSA,A,3,24,21,10,15,18,27,32,,,,,,6.6,1.6,6.2*3C
2017-12-14 12:10:28 1513271428.236816: $GPZDA,171029.00,14,12,2017,00,00*68
2017-12-14 12:10:28 1513271428.236991: $GPGGA,171029,3946.9539,N,08404.9395,W,1,07,1.60,342.77,M,-33.324,M,,*71
2017-12-14 12:10:28 1513271428.237058: $GPRMC,171029,A,3946.9539,N,08404.9395,W,0.9066,309.458,141217,,*39
2017-12-14 12:10:28 1513271428.237118: $GPGSA,A,3,24,21,10,15,18,27,32,,,,,,6.6,1.6,6.2*3C
2017-12-14 12:10:29 1513271429.572991: $GPGSV,3,1,12,24,49,117,30,21,67,192,24,10,38,298,20,15,41,051,21*74
2017-12-14 12:10:29 1513271429.573172: $GPGSV,3,2,12,18,69,330,16,20,37,093,05,13,11,048,00,27,19,294,09*76
2017-12-14 12:10:29 1513271429.573238: $GPGSV,3,3,12,32,18,235,10,08,04,325,00,14,01,231,00,120,07,103,00*4D
2017-12-14 12:10:29 1513271429.686451: $GPZDA,171030.00,14,12,2017,00,00*60
2017-12-14 12:10:29 1513271429.686584: $GPGGA,171030,3946.9539,N,08404.9402,W,1,08,1.60,342.69,M,-33.324,M,,*70
2017-12-14 12:10:29 1513271429.686650: $GPRMC,171030,A,3946.9539,N,08404.9402,W,0.3155,309.994,141217,,*3E
2017-12-14 12:10:29 1513271429.686711: $GPGSA,A,3,24,21,10,15,18,20,27,32,,,,,6.6,1.6,6.2*3E
2017-12-14 12:10:30 1513271430.238527: $GPZDA,171031.00,14,12,2017,00,00*61
2017-12-14 12:10:30 1513271430.238739: $GPGGA,171031,3946.9535,N,08404.9396,W,1,08,1.60,343.53,M,-33.324,M,,*7F
2017-12-14 12:10:30 1513271430.238836: $GPRMC,171031,A,3946.9535,N,08404.9396,W,0.2422,93.795,141217,,*02
2017-12-14 12:10:30 1513271430.238931: $GPGSA,A,3,24,21,10,15,18,20,27,32,,,,,6.6,1.6,6.2*3E
2017-12-14 12:10:31 1513271431.238237: $GPZDA,171032.00,14,12,2017,00,00*62
2017-12-14 12:10:31 1513271431.238400: $GPGGA,171032,3946.9535,N,08404.9396,W,1,08,1.60,343.53,M,-33.324,M,,*7C
2017-12-14 12:10:31 1513271431.238467: $GPRMC,171032,A,3946.9535,N,08404.9396,W,0.5912,129.173,141217,,*36
2017-12-14 12:10:31 1513271431.238529: $GPGSA,A,3,24,21,10,15,18,20,27,32,,,,,6.6,1.6,6.2*3E
