2017-12-29 14:45:06 1514576706.082713: {"class":"VERSION","release":"3.16","rev":"3.16-4","proto_major":3,"proto_minor":11}
2017-12-29 14:45:06 1514576706.083210: {"class":"DEVICES","devices":[{"class":"DEVICE","path":"/dev/ttyUSB0","driver":"SiRF","subtype":"9\u0006GSD4e_4.1.2-P1_RPATCH.05-F-GPS-4R-1510281 11/03/2015 307","activated":"2017-12-29T19:45:05.976Z","flags":1,"native":1,"bps":4800,"parity":"N","stopbits":1,"cycle":1.00}]}
2017-12-29 14:45:06 1514576706.083330: {"class":"WATCH","enable":true,"json":false,"nmea":true,"raw":0,"scaled":false,"timing":false,"split24":false,"pps":false}
2017-12-29 14:45:06 1514576706.385746: $GPZDA,194507.00,29,12,2017,00,00*64
2017-12-29 14:45:06 1514576706.385918: $GPGGA,194507,3946.9585,N,08404.9832,W,2,12,0.80,299.64,M,-33.324,M,,*7F
2017-12-29 14:45:06 1514576706.385985: $GPRMC,194507,A,3946.9585,N,08404.9832,W,0.0000,0.000,291217,,*3E
2017-12-29 14:45:06 1514576706.386046: $GPGSA,A,3,1,26,10,11,12,14,18,22,25,31,32,138,1.7,0.8,1.3*3B
2017-12-29 14:45:07 1514576707.386644: $GPZDA,194508.00,29,12,2017,00,00*6B
2017-12-29 14:45:07 1514576707.386847: $GPGGA,194508,3946.9585,N,08404.9832,W,2,12,0.80,299.64,M,-33.324,M,,*70
2017-12-29 14:45:07 1514576707.386915: $GPRMC,194508,A,3946.9585,N,08404.9832,W,0.0000,0.000,291217,,*31
2017-12-29 14:45:07 1514576707.386977: $GPGSA,A,3,1,26,10,11,12,14,18,22,25,31,32,138,1.7,0.8,1.3*3B
2017-12-29 14:45:08 1514576708.682412: $GPGSV,3,1,12,01,22,297,38,26,07,181,23,10,43,150,50,11,07,279,32*79
2017-12-29 14:45:08 1514576708.682598: $GPGSV,3,2,12,12,20,046,46,14,67,336,41,18,13,145,41,22,23,312,38*79
2017-12-29 14:45:08 1514576708.682682: $GPGSV,3,3,12,25,41,085,50,31,62,229,46,32,66,042,49,138,38,213,42*40
2017-12-29 14:45:08 1514576708.796010: $GPZDA,194509.00,29,12,2017,00,00*6A
2017-12-29 14:45:08 1514576708.796185: $GPGGA,194509,3946.9585,N,08404.9832,W,2,12,0.80,299.64,M,-33.324,M,,*71
2017-12-29 14:45:08 1514576708.796251: $GPRMC,194509,A,3946.9585,N,08404.9832,W,0.0000,0.000,291217,,*30
2017-12-29 14:45:08 1514576708.796313: $GPGSA,A,3,1,26,10,11,12,14,18,22,25,31,32,138,1.7,0.8,1.3*3B
2017-12-29 14:45:09 1514576709.422686: $GPZDA,194510.00,29,12,2017,00,00*62
2017-12-29 14:45:09 1514576709.426562: $GPGGA,194510,3946.9585,N,08404.9832,W,2,12,0.80,299.64,M,-33.324,M,,*79
2017-12-29 14:45:09 1514576709.426680: $GPRMC,194510,A,3946.9585,N,08404.9832,W,0.0000,0.000,291217,,*38
2017-12-29 14:45:09 1514576709.426762: $GPGSA,A,3,1,26,10,11,12,14,18,22,25,31,32,138,1.7,0.8,1.3*3B
2017-12-29 14:45:10 1514576710.348498: $GPZDA,194511.00,29,12,2017,00,00*63
2017-12-29 14:45:10 1514576710.348687: $GPGGA,194511,3946.9585,N,08404.9832,W,2,12,0.80,299.64,M,-33.324,M,,*78
2017-12-29 14:45:10 1514576710.348755: $GPRMC,194511,A,3946.9585,N,08404.9832,W,0.0000,0.000,291217,,*39
2017-12-29 14:45:10 1514576710.348831: $GPGSA,A,3,1,26,10,11,12,14,18,22,25,31,32,138,1.7,0.8,1.3*3B
2017-12-29 14:45:11 1514576711.721492: $GPGSV,3,1,12,01,22,297,38,26,07,181,23,10,43,150,50,11,07,279,33*78
2017-12-29 14:45:11 1514576711.721688: $GPGSV,3,2,12,12,20,046,46,14,67,336,41,18,13,145,42,22,23,312,39*7B
2017-12-29 14:45:11 1514576711.721754: $GPGSV,3,3,12,25,41,085,51,31,62,229,46,32,66,042,50,138,38,213,43*48
2017-12-29 14:45:11 1514576711.835120: $GPZDA,194512.00,29,12,2017,00,00*60
2017-12-29 14:45:11 1514576711.835289: $GPGGA,194512,3946.9585,N,08404.9832,W,2,12,0.80,299.64,M,-33.324,M,,*7B
2017-12-29 14:45:11 1514576711.835356: $GPRMC,194512,A,3946.9585,N,08404.9832,W,0.0000,0.000,291217,,*3A
2017-12-29 14:45:11 1514576711.835416: $GPGSA,A,3,1,26,10,11,12,14,18,22,25,31,32,138,1.7,0.8,1.3*3B
2017-12-29 14:45:12 1514576712.347222: $GPZDA,194513.00,29,12,2017,00,00*61
2017-12-29 14:45:12 1514576712.347390: $GPGGA,194513,3946.9585,N,08404.9832,W,2,12,0.80,299.64,M,-33.324,M,,*7A
2017-12-29 14:45:12 1514576712.347456: $GPRMC,194513,A,3946.9585,N,08404.9832,W,0.0000,0.000,291217,,*3B
2017-12-29 14:45:12 1514576712.347538: $GPGSA,A,3,1,26,10,11,12,14,18,22,25,31,32,138,1.7,0.8,1.3*3B
2017-12-29 14:45:13 1514576713.389342: $GPZDA,194514.00,29,12,2017,00,00*66
2017-12-29 14:45:13 1514576713.389596: $GPGGA,194514,3946.9585,N,08404.9832,W,2,12,0.80,299.64,M,-33.324,M,,*7D
2017-12-29 14:45:13 1514576713.389684: $GPRMC,194514,A,3946.9585,N,08404.9832,W,0.0000,0.000,291217,,*3C
2017-12-29 14:45:13 1514576713.389746: $GPGSA,A,3,1,26,10,11,12,14,18,22,25,31,32,138,1.7,0.8,1.3*3B
2017-12-29 14:45:14 1514576714.721845: $GPGSV,3,1,12,01,22,297,38,26,07,181,24,10,43,150,50,11,07,279,33*7F
2017-12-29 14:45:14 1514576714.722002: $GPGSV,3,2,12,12,20,046,46,14,67,336,42,18,13,145,42,22,23,312,38*79
2017-12-29 14:45:14 1514576714.722066: $GPGSV,3,3,12,25,41,085,51,31,62,229,47,32,66,042,50,138,38,213,42*48
2017-12-29 14:45:14 1514576714.835492: $GPZDA,194515.00,29,12,2017,00,00*67
2017-12-29 14:45:14 1514576714.835664: $GPGGA,194515,3946.9585,N,08404.9832,W,2,12,0.80,299.64,M,-33.324,M,,*7C
2017-12-29 14:45:14 1514576714.835731: $GPRMC,194515,A,3946.9585,N,08404.9832,W,0.0000,0.000,291217,,*3D
2017-12-29 14:45:14 1514576714.835793: $GPGSA,A,3,1,26,10,11,12,14,18,22,25,31,32,138,1.7,0.8,1.3*3B
2017-12-29 14:45:15 1514576715.386433: $GPZDA,194516.00,29,12,2017,00,00*64
2017-12-29 14:45:15 1514576715.386601: $GPGGA,194516,3946.9585,N,08404.9832,W,2,12,0.80,299.64,M,-33.324,M,,*7F
2017-12-29 14:45:15 1514576715.386667: $GPRMC,194516,A,3946.9585,N,08404.9832,W,0.0000,0.000,291217,,*3E
2017-12-29 14:45:15 1514576715.386728: $GPGSA,A,3,1,26,10,11,12,14,18,22,25,31,32,138,1.7,0.8,1.3*3B
