2018-01-11 21:01:50 1515722510.396019: {"class":"VERSION","release":"3.16","rev":"3.16-4","proto_major":3,"proto_minor":11}
2018-01-11 21:01:50 1515722510.396356: {"class":"DEVICES","devices":[{"class":"DEVICE","path":"/dev/ttyUSB0","driver":"SiRF","subtype":"9\u0006GSD4e_4.1.2-P1_RPATCH.05-F-GPS-4R-1510281 11/03/2015 307","activated":"2018-01-12T02:01:50.245Z","flags":1,"native":1,"bps":4800,"parity":"N","stopbits":1,"cycle":1.00}]}
2018-01-11 21:01:50 1515722510.396467: {"class":"WATCH","enable":true,"json":false,"nmea":true,"raw":0,"scaled":false,"timing":false,"split24":false,"pps":false}
2018-01-11 21:01:50 1515722510.694798: $GPGSV,3,1,12,01,17,153,43,07,79,310,42,08,66,055,47,09,28,210,41*7C
2018-01-11 21:01:50 1515722510.694963: $GPGSV,3,2,12,11,41,157,45,27,27,045,50,28,29,276,37,30,50,310,41*7F
2018-01-11 21:01:50 1515722510.695030: $GPGSV,3,3,12,16,07,075,22,23,07,183,33,13,01,330,24,138,38,213,45*41
2018-01-11 21:01:50 1515722510.808168: $GPZDA,020151.00,12,01,2018,00,00*68
2018-01-11 21:01:50 1515722510.808310: $GPGGA,020151,3946.9594,N,08404.9841,W,2,12,0.80,292.98,M,-33.324,M,,*7A
2018-01-11 21:01:50 1515722510.808375: $GPRMC,020151,A,3946.9594,N,08404.9841,W,0.0000,0.000,120118,,*36
2018-01-11 21:01:50 1515722510.808435: $GPGSA,A,3,1,7,8,9,11,27,28,30,16,23,13,138,4.0,0.8,3.5*0D
2018-01-11 21:01:51 1515722511.360339: $GPZDA,020152.00,12,01,2018,00,00*6B
2018-01-11 21:01:51 1515722511.360489: $GPGGA,020152,3946.9590,N,08404.9842,W,2,12,0.80,293.74,M,-33.324,M,,*7D
2018-01-11 21:01:51 1515722511.360554: $GPRMC,020152,A,3946.9590,N,08404.9842,W,0.0000,0.000,120118,,*32
2018-01-11 21:01:51 1515722511.360614: $GPGSA,A,3,1,7,8,9,11,27,28,30,16,23,13,138,4.0,0.8,3.5*0D
2018-01-11 21:01:52 1515722512.360035: $GPZDA,020153.00,12,01,2018,00,00*6A
2018-01-11 21:01:52 1515722512.360203: $GPGGA,020153,3946.9590,N,08404.9842,W,2,12,0.80,293.74,M,-33.324,M,,*7C
2018-01-11 21:01:52 1515722512.360269: $GPRMC,020153,A,3946.9590,N,08404.9842,W,0.0000,0.000,120118,,*33
2018-01-11 21:01:52 1515722512.360328: $GPGSA,A,3,1,7,8,9,11,27,28,30,16,23,13,138,4.0,0.8,3.5*0D
2018-01-11 21:01:53 1515722513.695679: $GPGSV,3,1,12,01,17,153,43,07,79,310,42,08,66,055,47,09,28,210,42*7F
2018-01-11 21:01:53 1515722513.695845: $GPGSV,3,2,12,11,41,157,45,27,27,045,50,28,29,276,37,30,50,310,41*7F
2018-01-11 21:01:53 1515722513.695913: $GPGSV,3,3,12,16,07,075,22,23,07,183,34,13,01,330,24,138,38,213,45*46
2018-01-11 21:01:53 1515722513.808999: $GPZDA,020154.00,12,01,2018,00,00*6D
2018-01-11 21:01:53 1515722513.809158: $GPGGA,020154,3946.9590,N,08404.9842,W,2,12,0.80,293.74,M,-33.324,M,,*7B
2018-01-11 21:01:53 1515722513.809222: $GPRMC,020154,A,3946.9590,N,08404.9842,W,0.0000,0.000,120118,,*34
2018-01-11 21:01:53 1515722513.809282: $GPGSA,A,3,1,7,8,9,11,27,28,30,16,23,13,138,4.0,0.8,3.5*0D
2018-01-11 21:01:54 1515722514.434399: $GPZDA,020155.00,12,01,2018,00,00*6C
2018-01-11 21:01:54 1515722514.434572: $GPGGA,020155,3946.9590,N,08404.9835,W,2,12,0.80,293.82,M,-33.324,M,,*73
2018-01-11 21:01:54 1515722514.434639: $GPRMC,020155,A,3946.9590,N,08404.9835,W,0.0000,0.000,120118,,*35
2018-01-11 21:01:54 1515722514.434699: $GPGSA,A,3,1,7,8,9,11,27,28,30,16,23,13,138,4.0,0.8,3.5*0D
2018-01-11 21:01:55 1515722515.361526: $GPZDA,020156.00,12,01,2018,00,00*6F
2018-01-11 21:01:55 1515722515.361683: $GPGGA,020156,3946.9590,N,08404.9835,W,2,12,0.80,293.82,M,-33.324,M,,*70
2018-01-11 21:01:55 1515722515.361748: $GPRMC,020156,A,3946.9590,N,08404.9835,W,0.0000,0.000,120118,,*36
2018-01-11 21:01:55 1515722515.361808: $GPGSA,A,3,1,7,8,9,11,27,28,30,16,23,13,138,4.0,0.8,3.5*0D
2018-01-11 21:01:56 1515722516.694817: $GPGSV,3,1,12,01,17,153,43,07,79,310,42,08,66,055,47,09,28,210,42*7F
2018-01-11 21:01:56 1515722516.694969: $GPGSV,3,2,12,11,41,157,45,27,27,045,51,28,29,276,37,30,50,310,41*7E
2018-01-11 21:01:56 1515722516.695034: $GPGSV,3,3,12,16,07,075,22,23,07,183,34,13,01,330,24,138,38,213,45*46
2018-01-11 21:01:56 1515722516.808167: $GPZDA,020157.00,12,01,2018,00,00*6E
2018-01-11 21:01:56 1515722516.808301: $GPGGA,020157,3946.9590,N,08404.9835,W,2,12,0.80,293.82,M,-33.324,M,,*71
2018-01-11 21:01:56 1515722516.808419: $GPRMC,020157,A,3946.9590,N,08404.9835,W,0.0000,0.000,120118,,*37
2018-01-11 21:01:56 1515722516.808481: $GPGSA,A,3,1,7,8,9,11,27,28,30,16,23,13,138,4.0,0.8,3.5*0D
2018-01-11 21:01:57 1515722517.359110: $GPZDA,020158.00,12,01,2018,00,00*61
2018-01-11 21:01:57 1515722517.359279: $GPGGA,020158,3946.9590,N,08404.9835,W,2,12,0.80,293.82,M,-33.324,M,,*7E
2018-01-11 21:01:57 1515722517.359346: $GPRMC,020158,A,3946.9590,N,08404.9835,W,0.0000,0.000,120118,,*38
2018-01-11 21:01:57 1515722517.359406: $GPGSA,A,3,1,7,8,9,11,27,28,30,16,23,13,138,4.0,0.8,3.5*0D
