2017-11-16 13:20:00 1510856400.738849: {"class":"VERSION","release":"3.17","rev":"3.17","proto_major":3,"proto_minor":12}
2017-11-16 13:20:00 1510856400.739332: {"class":"DEVICES","devices":[{"class":"DEVICE","path":"/dev/ttyUSB0","driver":"SiRF","subtype":"9\u0006GSD4e_4.1.2-P1_RPATCH.05-F-GPS-4R-1510281 11/03/2015 307","activated":"2017-11-16T18:20:00.654Z","flags":1,"native":1,"bps":4800,"parity":"N","stopbits":1,"cycle":1.00}]}
2017-11-16 13:20:00 1510856400.739464: {"class":"WATCH","enable":true,"json":false,"nmea":true,"raw":0,"scaled":false,"timing":false,"split24":false,"pps":false}
2017-11-16 13:20:00 1510856400.780496: $GPZDA,181959.00,16,11,2017,00,00*68
2017-11-16 13:20:00 1510856400.780656: $GPGGA,181959,3946.9594,N,08404.9845,W,2,10,1.20,300.76,M,-33.324,M,,*77
2017-11-16 13:20:00 1510856400.780739: $GPRMC,181959,A,3946.9594,N,08404.9845,W,0.0000,0.000,161117,,*32
2017-11-16 13:20:00 1510856400.780797: $GPGSA,A,3,10,13,15,18,20,21,24,27,32,138,,,1.6,1.2,1.3*03
2017-11-16 13:20:01 1510856401.284734: $GPZDA,182000.00,16,11,2017,00,00*6E
2017-11-16 13:20:01 1510856401.284912: $GPGGA,182000,3946.9594,N,08404.9845,W,2,10,0.80,300.76,M,-33.324,M,,*7A
2017-11-16 13:20:01 1510856401.284974: $GPRMC,182000,A,3946.9594,N,08404.9845,W,0.0000,0.000,161117,,*34
2017-11-16 13:20:01 1510856401.285031: $GPGSA,A,3,10,13,15,18,20,21,24,27,32,138,,,1.6,0.8,1.3*08
2017-11-16 13:20:02 1510856402.303100: $GPZDA,182001.00,16,11,2017,00,00*6F
2017-11-16 13:20:02 1510856402.303303: $GPGGA,182001,3946.9594,N,08404.9845,W,2,10,0.80,300.76,M,-33.324,M,,*7B
2017-11-16 13:20:02 1510856402.303386: $GPRMC,182001,A,3946.9594,N,08404.9845,W,0.0000,0.000,161117,,*35
2017-11-16 13:20:02 1510856402.303444: $GPGSA,A,3,10,13,15,18,20,21,24,27,32,138,,,1.6,0.8,1.3*08
2017-11-16 13:20:03 1510856403.646294: $GPGSV,3,1,12,10,23,283,42,13,29,045,48,15,61,051,51,18,54,300,46*79
2017-11-16 13:20:03 1510856403.646465: $GPGSV,3,2,12,20,51,072,47,21,78,270,46,24,33,138,41,27,16,313,39*70
2017-11-16 13:20:03 1510856403.646526: $GPGSV,3,3,12,05,04,087,00,29,09,189,28,32,01,225,18,138,38,213,45*40
2017-11-16 13:20:03 1510856403.760026: $GPZDA,182002.00,16,11,2017,00,00*6C
2017-11-16 13:20:03 1510856403.760186: $GPGGA,182002,3946.9594,N,08404.9845,W,2,11,0.80,300.76,M,-33.324,M,,*79
2017-11-16 13:20:03 1510856403.760246: $GPRMC,182002,A,3946.9594,N,08404.9845,W,0.0000,0.000,161117,,*36
2017-11-16 13:20:03 1510856403.760402: $GPGSA,A,3,10,13,15,18,20,21,24,27,29,32,138,,1.6,0.8,1.3*03
2017-11-16 13:20:04 1510856404.291020: $GPZDA,182003.00,16,11,2017,00,00*6D
2017-11-16 13:20:04 1510856404.291176: $GPGGA,182003,3946.9594,N,08404.9845,W,2,11,0.80,300.76,M,-33.324,M,,*78
2017-11-16 13:20:04 1510856404.291237: $GPRMC,182003,A,3946.9594,N,08404.9845,W,0.0000,0.000,161117,,*37
2017-11-16 13:20:04 1510856404.291293: $GPGSA,A,3,10,13,15,18,20,21,24,27,29,32,138,,1.6,0.8,1.3*03
2017-11-16 13:20:05 1510856405.308716: $GPZDA,182004.00,16,11,2017,00,00*6A
2017-11-16 13:20:05 1510856405.308877: $GPGGA,182004,3946.9594,N,08404.9845,W,2,11,0.80,300.76,M,-33.324,M,,*7F
2017-11-16 13:20:05 1510856405.308938: $GPRMC,182004,A,3946.9594,N,08404.9845,W,0.0000,0.000,161117,,*30
2017-11-16 13:20:05 1510856405.308994: $GPGSA,A,3,10,13,15,18,20,21,24,27,29,32,138,,1.6,0.8,1.3*03
2017-11-16 13:20:06 1510856406.625359: $GPGSV,3,1,12,10,23,283,42,13,29,045,48,15,61,051,51,18,54,300,46*79
2017-11-16 13:20:06 1510856406.625562: $GPGSV,3,2,12,20,51,072,47,21,78,270,46,24,33,138,41,27,16,313,39*70
2017-11-16 13:20:06 1510856406.625625: $GPGSV,3,3,12,29,09,189,00,05,04,087,00,32,01,225,18,138,38,213,44*4B
2017-11-16 13:20:06 1510856406.738581: $GPZDA,182005.00,16,11,2017,00,00*6B
2017-11-16 13:20:06 1510856406.738748: $GPGGA,182005,3946.9594,N,08404.9845,W,2,10,1.20,300.76,M,-33.324,M,,*74
2017-11-16 13:20:06 1510856406.738828: $GPRMC,182005,A,3946.9594,N,08404.9845,W,0.0000,0.000,161117,,*31
2017-11-16 13:20:06 1510856406.738886: $GPGSA,A,3,10,13,15,18,20,21,24,27,32,138,,,1.6,1.2,1.3*03
2017-11-16 13:20:07 1510856407.308421: $GPZDA,182006.00,16,11,2017,00,00*68
2017-11-16 13:20:07 1510856407.308703: $GPGGA,182006,3946.9594,N,08404.9845,W,2,10,1.20,300.76,M,-33.324,M,,*77
2017-11-16 13:20:07 1510856407.308772: $GPRMC,182006,A,3946.9594,N,08404.9845,W,0.0000,0.000,161117,,*32
2017-11-16 13:20:07 1510856407.308830: $GPGSA,A,3,10,13,15,18,20,21,24,27,32,138,,,1.6,1.2,1.3*03
2017-11-16 13:20:08 1510856408.289258: $GPZDA,182007.00,16,11,2017,00,00*69
2017-11-16 13:20:08 1510856408.289438: $GPGGA,182007,3946.9594,N,08404.9845,W,2,10,0.80,300.76,M,-33.324,M,,*7D
2017-11-16 13:20:08 1510856408.289516: $GPRMC,182007,A,3946.9594,N,08404.9845,W,0.0000,0.000,161117,,*33
2017-11-16 13:20:08 1510856408.289592: $GPGSA,A,3,10,13,15,18,20,21,24,27,32,138,,,1.6,0.8,1.3*08
2017-11-16 13:20:09 1510856409.625993: $GPGSV,3,1,12,10,23,283,42,13,29,045,48,15,61,051,51,18,54,300,46*79
2017-11-16 13:20:09 1510856409.626166: $GPGSV,3,2,12,20,51,072,47,21,78,270,46,24,33,138,41,27,16,313,40*7E
2017-11-16 13:20:09 1510856409.626227: $GPGSV,3,3,12,05,04,087,18,29,09,189,27,32,01,225,04,138,38,213,45*4B
2017-11-16 13:20:09 1510856409.739308: $GPZDA,182008.00,16,11,2017,00,00*66
2017-11-16 13:20:09 1510856409.739490: $GPGGA,182008,3946.9594,N,08404.9845,W,2,11,0.80,300.76,M,-33.324,M,,*73
2017-11-16 13:20:09 1510856409.739571: $GPRMC,182008,A,3946.9594,N,08404.9845,W,0.0000,0.000,161117,,*3C
2017-11-16 13:20:09 1510856409.739629: $GPGSA,A,3,10,13,15,18,20,21,24,27,5,29,138,,1.6,0.8,1.3*37
2017-11-16 13:20:10 1510856410.365007: $GPZDA,182009.00,16,11,2017,00,00*67
2017-11-16 13:20:10 1510856410.365165: $GPGGA,182009,3946.9594,N,08404.9845,W,2,11,0.80,300.76,M,-33.324,M,,*72
2017-11-16 13:20:10 1510856410.365247: $GPRMC,182009,A,3946.9594,N,08404.9845,W,0.0000,0.000,161117,,*3D
2017-11-16 13:20:10 1510856410.365305: $GPGSA,A,3,10,13,15,18,20,21,24,27,5,29,138,,1.6,0.8,1.3*37
