2017-12-31 18:45:17 1514763917.480051: {"class":"VERSION","release":"3.16","rev":"3.16-4","proto_major":3,"proto_minor":11}
2017-12-31 18:45:17 1514763917.480410: {"class":"DEVICES","devices":[{"class":"DEVICE","path":"/dev/ttyUSB0","driver":"SiRF","activated":"2017-12-31T23:45:17.428Z","flags":1,"native":1,"bps":4800,"parity":"N","stopbits":1,"cycle":1.00}]}
2017-12-31 18:45:17 1514763917.480508: {"class":"WATCH","enable":true,"json":false,"nmea":true,"raw":0,"scaled":false,"timing":false,"split24":false,"pps":false}
2017-12-31 18:45:18 1514763918.719823: $GPGSV,3,1,12,22,09,205,19,23,67,285,42,09,35,310,38,03,19,222,37*7C
2017-12-31 18:45:18 1514763918.720009: $GPGSV,3,2,12,16,79,036,43,08,14,175,33,14,01,139,13,31,17,087,34*7F
2017-12-31 18:45:18 1514763918.720073: $GPGSV,3,3,12,27,38,144,41,07,09,283,44,26,46,048,45,135,22,240,44*4D
2017-12-31 18:45:18 1514763918.833505: $GPZDA,234519.00,31,12,2017,00,00*6B
2017-12-31 18:45:18 1514763918.833677: $GPGGA,234519,3946.9581,N,08404.9856,W,2,12,0.80,305.14,M,-33.324,M,,*7C
2017-12-31 18:45:18 1514763918.833743: $GPRMC,234519,A,3946.9581,N,08404.9856,W,0.0000,0.000,311217,,*37
2017-12-31 18:45:18 1514763918.833803: $GPGSA,A,3,22,23,9,3,16,8,14,31,27,7,26,135,1.7,0.8,1.3*0C
2017-12-31 18:45:19 1514763919.394344: $GPZDA,234520.00,31,12,2017,00,00*61
2017-12-31 18:45:19 1514763919.394517: $GPGGA,234520,3946.9581,N,08404.9856,W,2,12,0.80,305.14,M,-33.324,M,,*76
2017-12-31 18:45:19 1514763919.394584: $GPRMC,234520,A,3946.9581,N,08404.9856,W,0.0000,0.000,311217,,*3D
2017-12-31 18:45:19 1514763919.394644: $GPGSA,A,3,22,23,9,3,16,8,14,31,27,7,26,135,1.7,0.8,1.3*0C
2017-12-31 18:45:20 1514763920.353260: $GPZDA,234521.00,31,12,2017,00,00*60
2017-12-31 18:45:20 1514763920.353450: $GPGGA,234521,3946.9581,N,08404.9856,W,2,12,0.80,305.14,M,-33.324,M,,*77
2017-12-31 18:45:20 1514763920.353534: $GPRMC,234521,A,3946.9581,N,08404.9856,W,0.0000,0.000,311217,,*3C
2017-12-31 18:45:20 1514763920.353595: $GPGSA,A,3,22,23,9,3,16,8,14,31,27,7,26,135,1.7,0.8,1.3*0C
2017-12-31 18:45:21 1514763921.690069: $GPGSV,3,1,12,22,09,205,27,23,67,285,42,09,35,310,38,03,19,222,38*7E
2017-12-31 18:45:21 1514763921.690249: $GPGSV,3,2,12,16,79,036,42,08,14,175,33,14,01,139,13,31,17,087,28*73
2017-12-31 18:45:21 1514763921.690333: $GPGSV,3,3,12,27,38,144,41,07,09,283,44,26,46,048,45,135,22,240,44*4D
2017-12-31 18:45:21 1514763921.803602: $GPZDA,234522.00,31,12,2017,00,00*63
2017-12-31 18:45:21 1514763921.803776: $GPGGA,234522,3946.9581,N,08404.9856,W,2,12,0.80,305.14,M,-33.324,M,,*74
2017-12-31 18:45:21 1514763921.803841: $GPRMC,234522,A,3946.9581,N,08404.9856,W,0.0000,0.000,311217,,*3F
2017-12-31 18:45:21 1514763921.803902: $GPGSA,A,3,22,23,9,3,16,8,14,31,27,7,26,135,1.7,0.8,1.3*0C
2017-12-31 18:45:22 1514763922.354503: $GPZDA,234523.00,31,12,2017,00,00*62
2017-12-31 18:45:22 1514763922.354675: $GPGGA,234523,3946.9581,N,08404.9856,W,2,12,0.80,305.14,M,-33.324,M,,*75
2017-12-31 18:45:22 1514763922.354741: $GPRMC,234523,A,3946.9581,N,08404.9856,W,0.0000,0.000,311217,,*3E
2017-12-31 18:45:22 1514763922.354801: $GPGSA,A,3,22,23,9,3,16,8,14,31,27,7,26,135,1.7,0.8,1.3*0C
2017-12-31 18:45:23 1514763923.354179: $GPZDA,234524.00,31,12,2017,00,00*65
2017-12-31 18:45:23 1514763923.354403: $GPGGA,234524,3946.9581,N,08404.9856,W,2,12,0.80,305.14,M,-33.324,M,,*72
2017-12-31 18:45:23 1514763923.354490: $GPRMC,234524,A,3946.9581,N,08404.9856,W,0.0000,0.000,311217,,*39
2017-12-31 18:45:23 1514763923.354552: $GPGSA,A,3,22,23,9,3,16,8,14,31,27,7,26,135,1.7,0.8,1.3*0C
2017-12-31 18:45:24 1514763924.682218: $GPGSV,3,1,12,22,09,205,27,23,67,285,41,09,35,310,40,03,19,222,39*73
2017-12-31 18:45:24 1514763924.682414: $GPGSV,3,2,12,16,79,036,42,08,14,175,33,14,01,139,12,31,17,087,30*7B
2017-12-31 18:45:24 1514763924.682497: $GPGSV,3,3,12,27,38,144,41,07,09,283,44,26,46,048,45,135,22,240,44*4D
2017-12-31 18:45:24 1514763924.795619: $GPZDA,234525.00,31,12,2017,00,00*64
2017-12-31 18:45:24 1514763924.795793: $GPGGA,234525,3946.9581,N,08404.9856,W,2,12,0.80,305.14,M,-33.324,M,,*73
2017-12-31 18:45:24 1514763924.795860: $GPRMC,234525,A,3946.9581,N,08404.9856,W,0.0000,0.000,311217,,*38
2017-12-31 18:45:24 1514763924.795975: $GPGSA,A,3,22,23,9,3,16,8,14,31,27,7,26,135,1.7,0.8,1.3*0C
2017-12-31 18:45:25 1514763925.420897: $GPZDA,234526.00,31,12,2017,00,00*67
2017-12-31 18:45:25 1514763925.421063: $GPGGA,234526,3946.9581,N,08404.9856,W,2,12,0.80,305.14,M,-33.324,M,,*70
2017-12-31 18:45:25 1514763925.421131: $GPRMC,234526,A,3946.9581,N,08404.9856,W,0.0000,0.000,311217,,*3B
2017-12-31 18:45:25 1514763925.421191: $GPGSA,A,3,22,23,9,3,16,8,14,31,27,7,26,135,1.7,0.8,1.3*0C
2017-12-31 18:45:26 1514763926.393026: $GPZDA,234527.00,31,12,2017,00,00*66
2017-12-31 18:45:26 1514763926.393200: $GPGGA,234527,3946.9581,N,08404.9856,W,2,12,0.80,305.14,M,-33.324,M,,*71
2017-12-31 18:45:26 1514763926.393266: $GPRMC,234527,A,3946.9581,N,08404.9856,W,0.0000,0.000,311217,,*3A
2017-12-31 18:45:26 1514763926.393352: $GPGSA,A,3,22,23,9,3,16,8,14,31,27,7,26,135,1.7,0.8,1.3*0C
2017-12-31 18:45:27 1514763927.730040: $GPGSV,3,1,12,22,09,205,27,23,67,285,42,09,35,310,40,03,19,222,39*70
2017-12-31 18:45:27 1514763927.730219: $GPGSV,3,2,12,16,79,036,42,08,14,175,33,14,01,139,04,31,17,087,30*7C
2017-12-31 18:45:27 1514763927.730302: $GPGSV,3,3,12,27,38,144,41,07,09,283,45,26,46,048,46,135,22,240,42*49
2017-12-31 18:45:27 1514763927.843640: $GPZDA,234528.00,31,12,2017,00,00*69
2017-12-31 18:45:27 1514763927.843810: $GPGGA,234528,3946.9581,N,08404.9856,W,2,11,0.80,305.14,M,-33.324,M,,*7D
2017-12-31 18:45:27 1514763927.843876: $GPRMC,234528,A,3946.9581,N,08404.9856,W,0.0000,0.000,311217,,*35
2017-12-31 18:45:27 1514763927.843936: $GPGSA,A,3,22,23,9,3,16,8,31,27,7,26,135,,1.7,0.8,1.3*09
2017-12-31 18:45:28 1514763928.353688: $GPZDA,234529.00,31,12,2017,00,00*68
2017-12-31 18:45:28 1514763928.353902: $GPGGA,234529,3946.9581,N,08404.9856,W,2,11,0.80,305.14,M,-33.324,M,,*7C
2017-12-31 18:45:28 1514763928.357332: $GPRMC,234529,A,3946.9581,N,08404.9856,W,0.0000,0.000,311217,,*34
2017-12-31 18:45:28 1514763928.357444: $GPGSA,A,3,22,23,9,3,16,8,31,27,7,26,135,,1.7,0.8,1.3*09
2017-12-31 18:45:29 1514763929.354405: $GPZDA,234530.00,31,12,2017,00,00*60
2017-12-31 18:45:29 1514763929.354570: $GPGGA,234530,3946.9581,N,08404.9856,W,2,11,0.80,305.14,M,-33.324,M,,*74
2017-12-31 18:45:29 1514763929.354636: $GPRMC,234530,A,3946.9581,N,08404.9856,W,0.0000,0.000,311217,,*3C
2017-12-31 18:45:29 1514763929.354696: $GPGSA,A,3,22,23,9,3,16,8,31,27,7,26,135,,1.7,0.8,1.3*09
2017-12-31 18:45:30 1514763930.690617: $GPGSV,3,1,12,22,09,205,27,23,67,285,42,09,35,310,40,03,19,222,39*70
2017-12-31 18:45:30 1514763930.690827: $GPGSV,3,2,12,16,79,036,43,08,14,175,33,14,01,139,04,31,17,087,36*7B
2017-12-31 18:45:30 1514763930.690894: $GPGSV,3,3,12,27,38,144,41,07,09,283,46,26,46,048,46,135,22,240,43*4B
2017-12-31 18:45:30 1514763930.804163: $GPZDA,234531.00,31,12,2017,00,00*61
2017-12-31 18:45:30 1514763930.804351: $GPGGA,234531,3946.9581,N,08404.9856,W,2,11,0.80,305.14,M,-33.324,M,,*75
2017-12-31 18:45:30 1514763930.804434: $GPRMC,234531,A,3946.9581,N,08404.9856,W,0.0000,0.000,311217,,*3D
2017-12-31 18:45:30 1514763930.804495: $GPGSA,A,3,22,23,9,3,16,8,31,27,7,26,135,,1.7,0.8,1.3*09
2017-12-31 18:45:31 1514763931.355052: $GPZDA,234532.00,31,12,2017,00,00*62
2017-12-31 18:45:31 1514763931.355204: $GPGGA,234532,3946.9581,N,08404.9856,W,2,11,0.80,305.14,M,-33.324,M,,*76
2017-12-31 18:45:31 1514763931.355291: $GPRMC,234532,A,3946.9581,N,08404.9856,W,0.0000,0.000,311217,,*3E
2017-12-31 18:45:31 1514763931.355353: $GPGSA,A,3,22,23,9,3,16,8,31,27,7,26,135,,1.7,0.8,1.3*09
2017-12-31 18:45:32 1514763932.345590: $GPZDA,234533.00,31,12,2017,00,00*63
2017-12-31 18:45:32 1514763932.345758: $GPGGA,234533,3946.9581,N,08404.9856,W,2,11,0.80,305.14,M,-33.324,M,,*77
2017-12-31 18:45:32 1514763932.345825: $GPRMC,234533,A,3946.9581,N,08404.9856,W,0.0000,0.000,311217,,*3F
2017-12-31 18:45:32 1514763932.345885: $GPGSA,A,3,22,23,9,3,16,8,31,27,7,26,135,,1.7,0.8,1.3*09
2017-12-31 18:45:33 1514763933.690150: $GPGSV,3,1,12,22,09,205,27,23,67,285,41,09,35,310,40,03,19,222,38*72
2017-12-31 18:45:33 1514763933.690388: $GPGSV,3,2,12,16,79,036,43,08,14,175,32,14,01,139,04,31,17,087,35*79
2017-12-31 18:45:33 1514763933.690513: $GPGSV,3,3,12,27,38,144,40,07,09,283,45,26,46,048,46,135,22,240,44*4E
2017-12-31 18:45:33 1514763933.804037: $GPZDA,234534.00,31,12,2017,00,00*64
2017-12-31 18:45:33 1514763933.804206: $GPGGA,234534,3946.9581,N,08404.9856,W,2,11,0.80,305.14,M,-33.324,M,,*70
2017-12-31 18:45:33 1514763933.804293: $GPRMC,234534,A,3946.9581,N,08404.9856,W,0.0000,0.000,311217,,*38
2017-12-31 18:45:33 1514763933.804382: $GPGSA,A,3,22,23,9,3,16,8,31,27,7,26,135,,1.7,0.8,1.3*09
2017-12-31 18:45:34 1514763934.354769: $GPZDA,234535.00,31,12,2017,00,00*65
2017-12-31 18:45:34 1514763934.354939: $GPGGA,234535,3946.9581,N,08404.9856,W,2,11,0.80,305.14,M,-33.324,M,,*71
2017-12-31 18:45:34 1514763934.355005: $GPRMC,234535,A,3946.9581,N,08404.9856,W,0.0000,0.000,311217,,*39
2017-12-31 18:45:34 1514763934.355065: $GPGSA,A,3,22,23,9,3,16,8,31,27,7,26,135,,1.7,0.8,1.3*09
2017-12-31 18:45:35 1514763935.393400: $GPZDA,234536.00,31,12,2017,00,00*66
2017-12-31 18:45:35 1514763935.393586: $GPGGA,234536,3946.9581,N,08404.9856,W,2,11,0.80,305.14,M,-33.324,M,,*72
2017-12-31 18:45:35 1514763935.393654: $GPRMC,234536,A,3946.9581,N,08404.9856,W,0.0000,0.000,311217,,*3A
2017-12-31 18:45:35 1514763935.393715: $GPGSA,A,3,22,23,9,3,16,8,31,27,7,26,135,,1.7,0.8,1.3*09
2017-12-31 18:45:36 1514763936.729048: $GPGSV,3,1,12,22,09,205,27,23,67,285,41,09,35,310,40,03,19,222,38*72
2017-12-31 18:45:36 1514763936.729241: $GPGSV,3,2,12,16,79,036,43,08,14,175,32,14,01,139,04,31,17,087,35*79
2017-12-31 18:45:36 1514763936.729307: $GPGSV,3,3,12,27,38,144,40,07,09,283,45,26,46,048,45,135,22,240,44*4D
2017-12-31 18:45:36 1514763936.842479: $GPZDA,234537.00,31,12,2017,00,00*67
2017-12-31 18:45:36 1514763936.842644: $GPGGA,234537,3946.9581,N,08404.9856,W,2,11,0.80,305.14,M,-33.324,M,,*73
2017-12-31 18:45:36 1514763936.842709: $GPRMC,234537,A,3946.9581,N,08404.9856,W,0.0000,0.000,311217,,*3B
2017-12-31 18:45:36 1514763936.842770: $GPGSA,A,3,22,23,9,3,16,8,31,27,7,26,135,,1.7,0.8,1.3*09
2017-12-31 18:45:37 1514763937.394927: $GPZDA,234538.00,31,12,2017,00,00*68
2017-12-31 18:45:37 1514763937.395091: $GPGGA,234538,3946.9581,N,08404.9856,W,2,11,0.80,305.14,M,-33.324,M,,*7C
2017-12-31 18:45:37 1514763937.395158: $GPRMC,234538,A,3946.9581,N,08404.9856,W,0.0000,0.000,311217,,*34
2017-12-31 18:45:37 1514763937.395223: $GPGSA,A,3,22,23,9,3,16,8,31,27,7,26,135,,1.7,0.8,1.3*09
