2017-12-01 17:22:13 1512166933.216950: {"class":"VERSION","release":"3.16","rev":"3.16-4","proto_major":3,"proto_minor":11}
2017-12-01 17:22:13 1512166933.217345: {"class":"DEVICES","devices":[{"class":"DEVICE","path":"/dev/ttyUSB0","driver":"SiRF","subtype":"9\u0006GSD4e_4.1.2-P1_RPATCH.05-F-GPS-4R-1510281 11/03/2015 307","activated":"2017-12-01T22:22:13.213Z","flags":1,"native":1,"bps":4800,"parity":"N","stopbits":1,"cycle":1.00}]}
2017-12-01 17:22:13 1512166933.217466: {"class":"WATCH","enable":true,"json":false,"nmea":true,"raw":0,"scaled":false,"timing":false,"split24":false,"pps":false}
2017-12-01 17:22:14 1512166934.233654: $GPZDA,222214.32,01,12,2017,00,00*64
2017-12-01 17:22:14 1512166934.233837: $GPGGA,222214,3946.9654,N,08404.9729,W,1,11,1.00,303.08,M,-33.324,M,,*7F
2017-12-01 17:22:14 1512166934.233905: $GPRMC,222214,A,3946.9654,N,08404.9729,W,0.0000,0.000,011217,,*35
2017-12-01 17:22:14 1512166934.233967: $GPGSA,A,3,1,3,10,14,22,25,26,31,32,12,138,,2.0,1.0,1.5*0A
2017-12-01 17:22:14 1512166934.234026: $GPGBS,222214,10.70,M,15.43,M,35.28,M*02
2017-12-01 17:22:15 1512166935.353755: $GPGSV,3,1,11,01,19,276,44,03,19,316,45,10,23,156,39,14,70,033,44*75
2017-12-01 17:22:15 1512166935.353923: $GPGSV,3,2,11,22,38,304,48,25,37,060,34,26,24,178,37,31,77,273,46*74
2017-12-01 17:22:15 1512166935.353990: $GPGSV,3,3,11,32,56,076,45,12,08,033,02,138,38,213,00*73
2017-12-01 17:22:15 1512166935.465824: $GPZDA,222215.00,01,12,2017,00,00*64
2017-12-01 17:22:15 1512166935.465952: $GPGGA,222215,3946.9654,N,08404.9729,W,1,09,1.00,303.08,M,-33.324,M,,*77
2017-12-01 17:22:15 1512166935.466018: $GPRMC,222215,A,3946.9654,N,08404.9729,W,0.1567,9.200,011217,,*3A
2017-12-01 17:22:15 1512166935.466079: $GPGSA,A,3,1,3,10,14,22,25,26,31,32,,,,2.0,1.0,1.5*33
2017-12-01 17:22:15 1512166935.918270: $GPZDA,222216.00,01,12,2017,00,00*67
2017-12-01 17:22:15 1512166935.918428: $GPGGA,222216,3946.9650,N,08404.9730,W,1,09,0.80,303.84,M,-33.324,M,,*75
2017-12-01 17:22:15 1512166935.918494: $GPRMC,222216,A,3946.9650,N,08404.9730,W,0.0000,0.000,011217,,*3B
2017-12-01 17:22:15 1512166935.918555: $GPGSA,A,3,1,3,10,14,22,25,26,31,32,,,,2.0,0.8,1.5*3A
2017-12-01 17:22:16 1512166936.373902: $GPZDA,222217.00,01,12,2017,00,00*66
2017-12-01 17:22:16 1512166936.374065: $GPGGA,222217,3946.9650,N,08404.9730,W,1,09,0.80,303.84,M,-33.324,M,,*74
2017-12-01 17:22:16 1512166936.374133: $GPRMC,222217,A,3946.9650,N,08404.9730,W,0.0000,0.000,011217,,*3A
2017-12-01 17:22:16 1512166936.374193: $GPGSA,A,3,1,3,10,14,22,25,26,31,32,,,,2.0,0.8,1.5*3A
2017-12-01 17:22:17 1512166937.710367: $GPGSV,3,1,11,01,19,276,44,03,19,316,45,10,23,156,38,14,70,033,44*74
2017-12-01 17:22:17 1512166937.710548: $GPGSV,3,2,11,22,38,304,48,25,37,060,34,26,24,178,37,31,77,273,47*75
2017-12-01 17:22:17 1512166937.710615: $GPGSV,3,3,11,32,56,076,45,12,08,033,24,138,38,213,40*73
2017-12-01 17:22:17 1512166937.823987: $GPZDA,222218.00,01,12,2017,00,00*69
2017-12-01 17:22:17 1512166937.824110: $GPGGA,222218,3946.9646,N,08404.9730,W,1,10,1.00,303.20,M,-33.324,M,,*73
2017-12-01 17:22:17 1512166937.824174: $GPRMC,222218,A,3946.9646,N,08404.9730,W,0.0000,0.000,011217,,*32
2017-12-01 17:22:17 1512166937.824234: $GPGSA,A,3,1,3,10,14,22,25,26,31,32,138,,,2.0,1.0,1.5*09
2017-12-01 17:22:18 1512166938.375059: $GPZDA,222219.00,01,12,2017,00,00*68
2017-12-01 17:22:19 1512166939.342333: $GPGGA,222219,3946.9646,N,08404.9730,W,1,10,0.80,303.20,M,-33.324,M,,*7B
2017-12-01 17:22:19 1512166939.342490: $GPRMC,222219,A,3946.9646,N,08404.9730,W,0.0000,0.000,011217,,*33
2017-12-01 17:22:19 1512166939.342555: $GPGSA,A,3,1,3,10,14,22,25,26,31,32,138,,,2.0,0.8,1.5*00
2017-12-01 17:22:19 1512166939.374139: $GPZDA,222220.00,01,12,2017,00,00*62
2017-12-01 17:22:19 1512166939.374274: $GPGGA,222220,3946.9646,N,08404.9730,W,1,10,0.80,303.20,M,-33.324,M,,*71
2017-12-01 17:22:19 1512166939.374340: $GPRMC,222220,A,3946.9646,N,08404.9730,W,0.0000,0.000,011217,,*39
2017-12-01 17:22:19 1512166939.374400: $GPGSA,A,3,1,3,10,14,22,25,26,31,32,138,,,2.0,0.8,1.5*00
2017-12-01 17:22:19 1512166939.374458: $GPGBS,222220,10.70,M,15.43,M,35.28,M*05
2017-12-01 17:22:20 1512166940.708616: $GPGSV,3,1,11,01,19,276,44,03,19,316,45,10,23,156,38,14,70,033,44*74
2017-12-01 17:22:20 1512166940.708805: $GPGSV,3,2,11,22,38,304,49,25,37,060,34,26,24,178,36,31,77,273,47*75
2017-12-01 17:22:20 1512166940.708872: $GPGSV,3,3,11,32,56,076,45,12,08,033,24,138,38,213,40*73
2017-12-01 17:22:20 1512166940.822083: $GPZDA,222221.00,01,12,2017,00,00*63
2017-12-01 17:22:20 1512166940.822255: $GPGGA,222221,3946.9646,N,08404.9730,W,1,11,0.80,303.20,M,-33.324,M,,*71
2017-12-01 17:22:20 1512166940.822323: $GPRMC,222221,A,3946.9646,N,08404.9730,W,0.0000,0.000,011217,,*38
2017-12-01 17:22:20 1512166940.822402: $GPGSA,A,3,1,3,10,14,22,25,26,31,32,12,138,,2.0,0.8,1.5*03
2017-12-01 17:22:21 1512166941.375463: $GPZDA,222222.00,01,12,2017,00,00*60
2017-12-01 17:22:21 1512166941.375641: $GPGGA,222222,3946.9647,N,08404.9737,W,1,11,0.80,303.12,M,-33.324,M,,*75
2017-12-01 17:22:21 1512166941.375712: $GPRMC,222222,A,3946.9647,N,08404.9737,W,0.0000,0.000,011217,,*3D
2017-12-01 17:22:21 1512166941.375776: $GPGSA,A,3,1,3,10,14,22,25,26,31,32,12,138,,2.0,0.8,1.5*03
2017-12-01 17:22:22 1512166942.375749: $GPZDA,222223.00,01,12,2017,00,00*61
2017-12-01 17:22:22 1512166942.375934: $GPGGA,222223,3946.9646,N,08404.9736,W,2,11,1.00,301.72,M,-33.324,M,,*7A
2017-12-01 17:22:22 1512166942.376003: $GPRMC,222223,A,3946.9646,N,08404.9736,W,0.0000,0.000,011217,,*3C
2017-12-01 17:22:22 1512166942.376066: $GPGSA,A,3,1,3,10,14,22,25,26,31,32,12,138,,2.0,1.0,1.5*0A
2017-12-01 17:22:23 1512166943.711572: $GPGSV,3,1,11,01,19,276,43,03,19,316,45,10,23,156,31,14,70,033,44*7A
2017-12-01 17:22:23 1512166943.711776: $GPGSV,3,2,11,22,38,304,49,25,37,060,34,26,24,178,37,31,77,273,47*74
2017-12-01 17:22:23 1512166943.711843: $GPGSV,3,3,11,32,56,076,45,12,08,033,24,138,38,213,40*73
2017-12-01 17:22:23 1512166943.825177: $GPZDA,222224.00,01,12,2017,00,00*66
2017-12-01 17:22:23 1512166943.825320: $GPGGA,222224,3946.9646,N,08404.9736,W,2,11,0.80,301.72,M,-33.324,M,,*74
2017-12-01 17:22:23 1512166943.825388: $GPRMC,222224,A,3946.9646,N,08404.9736,W,0.0000,0.000,011217,,*3B
2017-12-01 17:22:23 1512166943.825449: $GPGSA,A,3,1,3,10,14,22,25,26,31,32,12,138,,2.0,0.8,1.5*03
2017-12-01 17:22:24 1512166944.376105: $GPZDA,222225.00,01,12,2017,00,00*67
2017-12-01 17:22:24 1512166944.376278: $GPGGA,222225,3946.9646,N,08404.9736,W,2,11,0.80,301.72,M,-33.324,M,,*75
2017-12-01 17:22:24 1512166944.376345: $GPRMC,222225,A,3946.9646,N,08404.9736,W,0.0000,0.000,011217,,*3A
2017-12-01 17:22:24 1512166944.376406: $GPGSA,A,3,1,3,10,14,22,25,26,31,32,12,138,,2.0,0.8,1.5*03
2017-12-01 17:22:25 1512166945.376970: $GPZDA,222226.00,01,12,2017,00,00*64
2017-12-01 17:22:25 1512166945.377141: $GPGGA,222226,3946.9646,N,08404.9736,W,2,11,0.80,301.72,M,-33.324,M,,*76
2017-12-01 17:22:25 1512166945.377207: $GPRMC,222226,A,3946.9646,N,08404.9736,W,0.0000,0.000,011217,,*39
2017-12-01 17:22:25 1512166945.377268: $GPGSA,A,3,1,3,10,14,22,25,26,31,32,12,138,,2.0,0.8,1.5*03
2017-12-01 17:22:26 1512166946.711149: $GPGSV,3,1,11,01,19,276,43,03,19,316,45,10,23,156,34,14,70,033,44*7F
2017-12-01 17:22:26 1512166946.711333: $GPGSV,3,2,11,22,38,304,48,25,37,060,33,26,24,178,38,31,77,273,47*7D
2017-12-01 17:22:26 1512166946.711457: $GPGSV,3,3,11,32,56,076,45,12,08,033,24,138,38,213,39*7D
2017-12-01 17:22:26 1512166946.824864: $GPZDA,222227.00,01,12,2017,00,00*65
2017-12-01 17:22:26 1512166946.825035: $GPGGA,222227,3946.9646,N,08404.9736,W,2,11,0.80,301.72,M,-33.324,M,,*77
2017-12-01 17:22:26 1512166946.825101: $GPRMC,222227,A,3946.9646,N,08404.9736,W,0.0000,0.000,011217,,*38
2017-12-01 17:22:26 1512166946.825162: $GPGSA,A,3,1,3,10,14,22,25,26,31,32,12,138,,2.0,0.8,1.5*03
2017-12-01 17:22:27 1512166947.450172: $GPZDA,222228.00,01,12,2017,00,00*6A
2017-12-01 17:22:27 1512166947.450342: $GPGGA,222228,3946.9646,N,08404.9736,W,2,11,0.80,301.72,M,-33.324,M,,*78
2017-12-01 17:22:27 1512166947.450409: $GPRMC,222228,A,3946.9646,N,08404.9736,W,0.0000,0.000,011217,,*37
2017-12-01 17:22:27 1512166947.450470: $GPGSA,A,3,1,3,10,14,22,25,26,31,32,12,138,,2.0,0.8,1.5*03
2017-12-01 17:22:28 1512166948.376067: $GPZDA,222229.00,01,12,2017,00,00*6B
2017-12-01 17:22:28 1512166948.376236: $GPGGA,222229,3946.9646,N,08404.9736,W,2,11,0.80,301.72,M,-33.324,M,,*79
2017-12-01 17:22:28 1512166948.376303: $GPRMC,222229,A,3946.9646,N,08404.9736,W,0.0000,0.000,011217,,*36
2017-12-01 17:22:28 1512166948.376364: $GPGSA,A,3,1,3,10,14,22,25,26,31,32,12,138,,2.0,0.8,1.5*03
2017-12-01 17:22:29 1512166949.712719: $GPGSV,3,1,11,01,19,276,43,03,19,316,45,10,23,156,35,14,70,033,44*7E
2017-12-01 17:22:29 1512166949.712913: $GPGSV,3,2,11,22,38,304,48,25,37,060,33,26,24,178,38,31,77,273,47*7D
2017-12-01 17:22:29 1512166949.712980: $GPGSV,3,3,11,32,56,076,46,12,08,033,24,138,38,213,40*70
2017-12-01 17:22:29 1512166949.826070: $GPZDA,222230.00,01,12,2017,00,00*63
2017-12-01 17:22:29 1512166949.826236: $GPGGA,222230,3946.9646,N,08404.9736,W,2,11,0.80,301.72,M,-33.324,M,,*71
2017-12-01 17:22:29 1512166949.826320: $GPRMC,222230,A,3946.9646,N,08404.9736,W,0.0000,0.000,011217,,*3E
2017-12-01 17:22:29 1512166949.826382: $GPGSA,A,3,1,3,10,14,22,25,26,31,32,12,138,,2.0,0.8,1.5*03
2017-12-01 17:22:30 1512166950.374770: $GPZDA,222231.00,01,12,2017,00,00*62
2017-12-01 17:22:30 1512166950.374940: $GPGGA,222231,3946.9646,N,08404.9736,W,2,11,0.80,301.72,M,-33.324,M,,*70
2017-12-01 17:22:30 1512166950.375007: $GPRMC,222231,A,3946.9646,N,08404.9736,W,0.0000,0.000,011217,,*3F
2017-12-01 17:22:30 1512166950.375068: $GPGSA,A,3,1,3,10,14,22,25,26,31,32,12,138,,2.0,0.8,1.5*03
2017-12-01 17:22:31 1512166951.376696: $GPZDA,222232.00,01,12,2017,00,00*61
2017-12-01 17:22:31 1512166951.376872: $GPGGA,222232,3946.9646,N,08404.9736,W,2,11,0.80,301.72,M,-33.324,M,,*73
2017-12-01 17:22:31 1512166951.376939: $GPRMC,222232,A,3946.9646,N,08404.9736,W,0.0000,0.000,011217,,*3C
2017-12-01 17:22:31 1512166951.376999: $GPGSA,A,3,1,3,10,14,22,25,26,31,32,12,138,,2.0,0.8,1.5*03
2017-12-01 17:22:31 1512166951.377057: $GPGBS,222232,2.67,M,3.86,M,8.82,M*33
2017-12-01 17:22:32 1512166952.710408: $GPGSV,3,1,11,01,19,276,43,03,19,316,45,10,23,156,35,14,70,033,44*7E
2017-12-01 17:22:32 1512166952.710592: $GPGSV,3,2,11,22,38,304,48,25,37,060,32,26,24,178,38,31,77,273,47*7C
2017-12-01 17:22:32 1512166952.710658: $GPGSV,3,3,11,32,56,076,45,12,08,033,24,138,38,213,41*72
2017-12-01 17:22:32 1512166952.824087: $GPZDA,222233.00,01,12,2017,00,00*60
2017-12-01 17:22:32 1512166952.824256: $GPGGA,222233,3946.9642,N,08404.9736,W,2,11,0.80,301.08,M,-33.324,M,,*7B
2017-12-01 17:22:32 1512166952.824324: $GPRMC,222233,A,3946.9642,N,08404.9736,W,0.0000,0.000,011217,,*39
2017-12-01 17:22:32 1512166952.824385: $GPGSA,A,3,1,3,10,14,22,25,26,31,32,12,138,,2.0,0.8,1.5*03
