2017-11-16 14:42:06 1510861326.257109: {"class":"VERSION","release":"3.17","rev":"3.17","proto_major":3,"proto_minor":12}
2017-11-16 14:42:06 1510861326.257635: {"class":"DEVICES","devices":[{"class":"DEVICE","path":"/dev/ttyUSB0","driver":"SiRF","subtype":"9\u0006GSD4e_4.1.2-P1_RPATCH.05-F-GPS-4R-1510281 11/03/2015 307","activated":"2017-11-16T19:42:05.680Z","flags":1,"native":1,"bps":4800,"parity":"N","stopbits":1,"cycle":1.00}]}
2017-11-16 14:42:06 1510861326.257760: {"class":"WATCH","enable":true,"json":false,"nmea":true,"raw":0,"scaled":false,"timing":false,"split24":false,"pps":false}
2017-11-16 14:42:06 1510861326.843487: $GPGSV,3,1,11,08,08,312,38,10,51,310,50,15,27,057,51,18,77,015,44*78
2017-11-16 14:42:06 1510861326.843660: $GPGSV,3,2,11,21,51,184,47,20,24,105,47,24,53,088,48,27,16,277,45*7F
2017-11-16 14:42:06 1510861326.843720: $GPGSV,3,3,11,32,30,247,48,14,14,238,43,138,38,213,44*79
2017-11-16 14:42:06 1510861326.956887: $GPZDA,194205.00,16,11,2017,00,00*6E
2017-11-16 14:42:06 1510861326.957050: $GPGGA,194205,3946.9564,N,08404.9842,W,2,11,0.80,302.74,M,-33.324,M,,*73
2017-11-16 14:42:06 1510861326.957111: $GPRMC,194205,A,3946.9564,N,08404.9842,W,0.0000,0.000,161117,,*3C
2017-11-16 14:42:06 1510861326.957166: $GPGSA,A,3,8,10,15,18,21,20,24,27,32,14,138,,1.6,0.8,1.3*37
2017-11-16 14:42:07 1510861327.505194: $GPZDA,194206.00,16,11,2017,00,00*6D
2017-11-16 14:42:07 1510861327.505355: $GPGGA,194206,3946.9564,N,08404.9842,W,2,11,0.80,302.74,M,-33.324,M,,*70
2017-11-16 14:42:07 1510861327.505417: $GPRMC,194206,A,3946.9564,N,08404.9842,W,0.0000,0.000,161117,,*3F
2017-11-16 14:42:07 1510861327.505473: $GPGSA,A,3,8,10,15,18,21,20,24,27,32,14,138,,1.6,0.8,1.3*37
2017-11-16 14:42:08 1510861328.539741: $GPZDA,194207.00,16,11,2017,00,00*6C
2017-11-16 14:42:08 1510861328.539900: $GPGGA,194207,3946.9564,N,08404.9842,W,2,11,0.80,302.74,M,-33.324,M,,*71
2017-11-16 14:42:08 1510861328.539962: $GPRMC,194207,A,3946.9564,N,08404.9842,W,0.0000,0.000,161117,,*3E
2017-11-16 14:42:08 1510861328.540018: $GPGSA,A,3,8,10,15,18,21,20,24,27,32,14,138,,1.6,0.8,1.3*37
2017-11-16 14:42:09 1510861329.876154: $GPGSV,3,1,11,08,08,312,38,10,51,310,50,15,27,057,51,18,77,015,44*78
2017-11-16 14:42:09 1510861329.876330: $GPGSV,3,2,11,21,51,184,47,20,24,105,46,24,53,088,49,27,16,277,45*7F
2017-11-16 14:42:09 1510861329.876393: $GPGSV,3,3,11,32,30,247,48,14,14,238,42,138,38,213,44*78
2017-11-16 14:42:09 1510861329.990046: $GPZDA,194208.00,16,11,2017,00,00*63
2017-11-16 14:42:09 1510861329.990246: $GPGGA,194208,3946.9564,N,08404.9842,W,2,11,0.80,302.74,M,-33.324,M,,*7E
2017-11-16 14:42:09 1510861329.990390: $GPRMC,194208,A,3946.9564,N,08404.9842,W,0.0000,0.000,161117,,*31
2017-11-16 14:42:09 1510861329.990451: $GPGSA,A,3,8,10,15,18,21,20,24,27,32,14,138,,1.6,0.8,1.3*37
2017-11-16 14:42:10 1510861330.505610: $GPZDA,194209.00,16,11,2017,00,00*62
2017-11-16 14:42:10 1510861330.505762: $GPGGA,194209,3946.9564,N,08404.9842,W,2,11,0.80,302.74,M,-33.324,M,,*7F
2017-11-16 14:42:10 1510861330.505823: $GPRMC,194209,A,3946.9564,N,08404.9842,W,0.0000,0.000,161117,,*30
2017-11-16 14:42:10 1510861330.505879: $GPGSA,A,3,8,10,15,18,21,20,24,27,32,14,138,,1.6,0.8,1.3*37
2017-11-16 14:42:11 1510861331.540197: $GPZDA,194210.00,16,11,2017,00,00*6A
2017-11-16 14:42:11 1510861331.540419: $GPGGA,194210,3946.9564,N,08404.9842,W,2,11,0.80,302.74,M,-33.324,M,,*77
2017-11-16 14:42:11 1510861331.540482: $GPRMC,194210,A,3946.9564,N,08404.9842,W,0.0000,0.000,161117,,*38
2017-11-16 14:42:11 1510861331.540539: $GPGSA,A,3,8,10,15,18,21,20,24,27,32,14,138,,1.6,0.8,1.3*37
2017-11-16 14:42:12 1510861332.836748: $GPGSV,3,1,11,08,08,312,38,10,51,310,50,15,27,057,51,18,77,015,44*78
2017-11-16 14:42:12 1510861332.836921: $GPGSV,3,2,11,21,51,184,47,20,24,105,46,24,53,088,48,27,16,277,44*7F
2017-11-16 14:42:12 1510861332.836982: $GPGSV,3,3,11,32,30,247,48,14,14,238,42,138,38,213,43*7F
2017-11-16 14:42:12 1510861332.950223: $GPZDA,194211.00,16,11,2017,00,00*6B
2017-11-16 14:42:12 1510861332.950487: $GPGGA,194211,3946.9564,N,08404.9842,W,2,11,0.80,302.74,M,-33.324,M,,*76
2017-11-16 14:42:12 1510861332.950602: $GPRMC,194211,A,3946.9564,N,08404.9842,W,0.0000,0.000,161117,,*39
2017-11-16 14:42:12 1510861332.950660: $GPGSA,A,3,8,10,15,18,21,20,24,27,32,14,138,,1.6,0.8,1.3*37
2017-11-16 14:42:13 1510861333.505274: $GPZDA,194212.00,16,11,2017,00,00*68
2017-11-16 14:42:13 1510861333.505436: $GPGGA,194212,3946.9564,N,08404.9842,W,2,11,0.80,302.74,M,-33.324,M,,*75
2017-11-16 14:42:13 1510861333.505497: $GPRMC,194212,A,3946.9564,N,08404.9842,W,0.0000,0.000,161117,,*3A
2017-11-16 14:42:13 1510861333.505552: $GPGSA,A,3,8,10,15,18,21,20,24,27,32,14,138,,1.6,0.8,1.3*37
2017-11-16 14:42:13 1510861333.505605: $GPGBS,194212,2.12,M,3.10,M,7.47,M*34
2017-11-16 14:42:14 1510861334.539423: $GPZDA,194213.00,16,11,2017,00,00*69
2017-11-16 14:42:14 1510861334.539592: $GPGGA,194213,3946.9564,N,08404.9842,W,2,11,0.80,302.74,M,-33.324,M,,*74
2017-11-16 14:42:14 1510861334.539664: $GPRMC,194213,A,3946.9564,N,08404.9842,W,0.0000,0.000,161117,,*3B
2017-11-16 14:42:14 1510861334.539726: $GPGSA,A,3,8,10,15,18,21,20,24,27,32,14,138,,1.6,0.8,1.3*37
2017-11-16 14:42:14 1510861334.539786: $GPGBS,194213,2.12,M,3.10,M,7.47,M*35
2017-11-16 14:42:15 1510861335.875042: $GPGSV,3,1,11,08,08,312,38,10,51,310,50,15,27,057,50,18,77,015,44*79
2017-11-16 14:42:15 1510861335.875213: $GPGSV,3,2,11,21,51,184,47,20,24,105,46,24,53,088,48,27,16,277,44*7F
2017-11-16 14:42:15 1510861335.875274: $GPGSV,3,3,11,32,30,247,48,14,14,238,42,138,38,213,44*78
2017-11-16 14:42:15 1510861335.988367: $GPZDA,194214.00,16,11,2017,00,00*6E
2017-11-16 14:42:15 1510861335.988535: $GPGGA,194214,3946.9564,N,08404.9842,W,2,11,0.80,302.74,M,-33.324,M,,*73
2017-11-16 14:42:15 1510861335.988602: $GPRMC,194214,A,3946.9564,N,08404.9842,W,0.0000,0.000,161117,,*3C
2017-11-16 14:42:15 1510861335.988659: $GPGSA,A,3,8,10,15,18,21,20,24,27,32,14,138,,1.6,0.8,1.3*37
