2017-11-16 15:28:08 1510864088.798836: {"class":"VERSION","release":"3.17","rev":"3.17","proto_major":3,"proto_minor":12}
2017-11-16 15:28:08 1510864088.799618: {"class":"DEVICES","devices":[{"class":"DEVICE","path":"/dev/ttyUSB0","driver":"SiRF","subtype":"9\u0006GSD4e_4.1.2-P1_RPATCH.05-F-GPS-4R-1510281 11/03/2015 307","activated":"2017-11-16T20:28:08.509Z","flags":1,"native":1,"bps":4800,"parity":"N","stopbits":1,"cycle":1.00}]}
2017-11-16 15:28:08 1510864088.799895: {"class":"WATCH","enable":true,"json":false,"nmea":true,"raw":0,"scaled":false,"timing":false,"split24":false,"pps":false}
2017-11-16 15:28:09 1510864089.367951: $GPZDA,202808.00,16,11,2017,00,00*65
2017-11-16 15:28:09 1510864089.368115: $GPGGA,202808,3946.9572,N,08404.9866,W,2,12,0.80,308.76,M,-33.324,M,,*72
2017-11-16 15:28:09 1510864089.368176: $GPRMC,202808,A,3946.9572,N,08404.9866,W,0.0000,0.000,161117,,*36
2017-11-16 15:28:09 1510864089.368232: $GPGSA,A,3,8,10,14,15,18,20,21,24,27,32,12,138,1.6,0.8,1.3*34
2017-11-16 15:28:10 1510864090.707488: $GPGSV,3,1,12,08,05,292,36,10,70,333,51,14,30,255,44,15,10,067,26*7C
2017-11-16 15:28:10 1510864090.707659: $GPGSV,3,2,12,18,70,097,47,20,07,118,24,21,28,180,44,24,44,057,51*73
2017-11-16 15:28:10 1510864090.707754: $GPGSV,3,3,12,27,05,258,36,32,47,267,48,12,10,106,30,138,38,213,44*4A
2017-11-16 15:28:10 1510864090.821110: $GPZDA,202809.00,16,11,2017,00,00*64
2017-11-16 15:28:10 1510864090.821425: $GPGGA,202809,3946.9572,N,08404.9866,W,2,12,0.80,308.76,M,-33.324,M,,*73
2017-11-16 15:28:10 1510864090.821528: $GPRMC,202809,A,3946.9572,N,08404.9866,W,0.0000,0.000,161117,,*37
2017-11-16 15:28:10 1510864090.821643: $GPGSA,A,3,8,10,14,15,18,20,21,24,27,32,12,138,1.6,0.8,1.3*34
2017-11-16 15:28:11 1510864091.446130: $GPZDA,202810.00,16,11,2017,00,00*6C
2017-11-16 15:28:11 1510864091.446296: $GPGGA,202810,3946.9572,N,08404.9866,W,2,12,0.80,308.76,M,-33.324,M,,*7B
2017-11-16 15:28:11 1510864091.446360: $GPRMC,202810,A,3946.9572,N,08404.9866,W,0.0000,0.000,161117,,*3F
2017-11-16 15:28:11 1510864091.446434: $GPGSA,A,3,8,10,14,15,18,20,21,24,27,32,12,138,1.6,0.8,1.3*34
2017-11-16 15:28:12 1510864092.367005: $GPZDA,202811.00,16,11,2017,00,00*6D
2017-11-16 15:28:12 1510864092.367172: $GPGGA,202811,3946.9572,N,08404.9866,W,2,12,0.80,308.76,M,-33.324,M,,*7A
2017-11-16 15:28:12 1510864092.367233: $GPRMC,202811,A,3946.9572,N,08404.9866,W,0.0000,0.000,161117,,*3E
2017-11-16 15:28:12 1510864092.367290: $GPGSA,A,3,8,10,14,15,18,20,21,24,27,32,12,138,1.6,0.8,1.3*34
2017-11-16 15:28:13 1510864093.721594: $GPGSV,3,1,12,08,05,292,36,10,70,333,51,14,30,255,44,15,10,067,23*79
2017-11-16 15:28:13 1510864093.721780: $GPGSV,3,2,12,18,70,097,47,20,07,118,25,21,28,180,44,24,44,057,51*72
2017-11-16 15:28:13 1510864093.721857: $GPGSV,3,3,12,27,05,258,36,32,47,267,48,12,10,106,30,138,38,213,43*4D
2017-11-16 15:28:13 1510864093.834984: $GPZDA,202812.00,16,11,2017,00,00*6E
2017-11-16 15:28:13 1510864093.835272: $GPGGA,202812,3946.9572,N,08404.9866,W,2,12,0.80,308.76,M,-33.324,M,,*79
2017-11-16 15:28:13 1510864093.835391: $GPRMC,202812,A,3946.9572,N,08404.9866,W,0.0000,0.000,161117,,*3D
2017-11-16 15:28:13 1510864093.835490: $GPGSA,A,3,8,10,14,15,18,20,21,24,27,32,12,138,1.6,0.8,1.3*34
2017-11-16 15:28:14 1510864094.377030: $GPZDA,202813.00,16,11,2017,00,00*6F
2017-11-16 15:28:14 1510864094.377211: $GPGGA,202813,3946.9572,N,08404.9866,W,2,12,0.80,308.76,M,-33.324,M,,*78
2017-11-16 15:28:14 1510864094.377272: $GPRMC,202813,A,3946.9572,N,08404.9866,W,0.0000,0.000,161117,,*3C
2017-11-16 15:28:14 1510864094.377327: $GPGSA,A,3,8,10,14,15,18,20,21,24,27,32,12,138,1.6,0.8,1.3*34
2017-11-16 15:28:15 1510864095.366607: $GPZDA,202814.00,16,11,2017,00,00*68
2017-11-16 15:28:15 1510864095.366812: $GPGGA,202814,3946.9572,N,08404.9866,W,2,12,0.80,308.76,M,-33.324,M,,*7F
2017-11-16 15:28:15 1510864095.366874: $GPRMC,202814,A,3946.9572,N,08404.9866,W,0.0000,0.000,161117,,*3B
2017-11-16 15:28:15 1510864095.366931: $GPGSA,A,3,8,10,14,15,18,20,21,24,27,32,12,138,1.6,0.8,1.3*34
2017-11-16 15:28:16 1510864096.703125: $GPGSV,3,1,12,08,05,292,36,10,70,333,51,14,30,255,44,15,10,067,22*78
2017-11-16 15:28:16 1510864096.703318: $GPGSV,3,2,12,18,70,097,47,20,07,118,24,21,28,180,43,24,44,057,51*74
2017-11-16 15:28:16 1510864096.703380: $GPGSV,3,3,12,27,05,258,36,32,47,267,48,12,10,106,30,138,38,213,44*4A
2017-11-16 15:28:16 1510864096.816593: $GPZDA,202815.00,16,11,2017,00,00*69
2017-11-16 15:28:16 1510864096.816786: $GPGGA,202815,3946.9572,N,08404.9866,W,2,12,0.80,308.76,M,-33.324,M,,*7E
2017-11-16 15:28:16 1510864096.816849: $GPRMC,202815,A,3946.9572,N,08404.9866,W,0.0000,0.000,161117,,*3A
2017-11-16 15:28:16 1510864096.816905: $GPGSA,A,3,8,10,14,15,18,20,21,24,27,32,12,138,1.6,0.8,1.3*34
2017-11-16 15:28:17 1510864097.384838: $GPZDA,202816.00,16,11,2017,00,00*6A
2017-11-16 15:28:17 1510864097.385028: $GPGGA,202816,3946.9572,N,08404.9859,W,2,12,0.80,308.84,M,-33.324,M,,*7C
2017-11-16 15:28:17 1510864097.385111: $GPRMC,202816,A,3946.9572,N,08404.9859,W,0.0000,0.000,161117,,*35
2017-11-16 15:28:17 1510864097.385169: $GPGSA,A,3,8,10,14,15,18,20,21,24,27,32,12,138,1.6,0.8,1.3*34
2017-11-16 15:28:18 1510864098.367192: $GPZDA,202817.00,16,11,2017,00,00*6B
2017-11-16 15:28:18 1510864098.367355: $GPGGA,202817,3946.9572,N,08404.9859,W,2,12,0.80,308.84,M,-33.324,M,,*7D
2017-11-16 15:28:18 1510864098.367417: $GPRMC,202817,A,3946.9572,N,08404.9859,W,0.0000,0.000,161117,,*34
2017-11-16 15:28:18 1510864098.367490: $GPGSA,A,3,8,10,14,15,18,20,21,24,27,32,12,138,1.6,0.8,1.3*34
