2017-12-14 11:49:11 1513270151.542675: {"class":"VERSION","release":"3.16","rev":"3.16-4","proto_major":3,"proto_minor":11}
2017-12-14 11:49:11 1513270151.543051: {"class":"DEVICES","devices":[{"class":"DEVICE","path":"/dev/ttyUSB0","driver":"SiRF","subtype":"9\u0006GSD4e_4.1.2-P1_RPATCH.05-F-GPS-4R-1510281 11/03/2015 307","activated":"2017-12-14T16:49:11.128Z","flags":1,"native":1,"bps":4800,"parity":"N","stopbits":1,"cycle":1.00}]}
2017-12-14 11:49:11 1513270151.543169: {"class":"WATCH","enable":true,"json":false,"nmea":true,"raw":0,"scaled":false,"timing":false,"split24":false,"pps":false}
2017-12-14 11:49:12 1513270152.418767: $GPRMC,164913,V,18000.0000,N,00000.0000,W,0.0000,0.000,141217,,*19
2017-12-14 11:49:12 1513270152.418952: $GPGSA,A,1,10,15,18,20,24,32,,,,,,,,,,*3B
2017-12-14 11:49:13 1513270153.385304: $GPRMC,164914,V,3946.9487,N,08404.9447,W,0.0000,0.000,141217,,*2B
2017-12-14 11:49:13 1513270153.385478: $GPGSA,A,1,10,15,18,20,24,32,,,,,,,,,,*3B
2017-12-14 11:49:13 1513270153.980059: $GPGSV,3,1,11,24,43,127,16,15,49,049,14,10,32,291,12,18,62,315,09*72
2017-12-14 11:49:13 1513270153.980252: $GPGSV,3,2,11,20,44,084,02,27,19,303,00,13,19,046,00,32,11,231,00*70
2017-12-14 11:49:13 1513270153.980319: $GPGSV,3,3,11,21,75,208,00,29,01,186,00,08,01,331,00*4F
2017-12-14 11:49:14 1513270154.091185: $GPRMC,164914,V,3946.9475,N,08404.9448,W,2.2048,41.430,141217,,*17
2017-12-14 11:49:14 1513270154.091358: $GPGSA,A,1,24,15,10,18,20,,,,,,,,,,,*3A
2017-12-14 11:49:14 1513270154.790057: $GPRMC,164915,V,3946.9479,N,08404.9448,W,2.9250,31.632,141217,,*1D
2017-12-14 11:49:14 1513270154.790210: $GPGSA,A,1,24,15,10,18,20,,,,,,,,,,,*3A
2017-12-14 11:49:15 1513270155.046303: $GPZDA,164915.61,14,12,2017,00,00*6D
2017-12-14 11:49:15 1513270155.046468: $GPGGA,164915,3946.9480,N,08404.9485,W,1,05,1.80,369.90,M,-33.324,M,,*7A
2017-12-14 11:49:15 1513270155.046557: $GPRMC,164915,A,3946.9480,N,08404.9485,W,3.0539,352.011,141217,,*3C
2017-12-14 11:49:15 1513270155.046621: $GPGSA,A,3,24,15,10,18,20,,,,,,,,6.6,1.8,6.2*37
2017-12-14 11:49:15 1513270155.046679: $GPGBS,164915,24.66,M,21.80,M,143.40,M*3F
2017-12-14 11:49:15 1513270155.809379: $GPGSV,3,1,12,24,43,127,27,15,49,049,24,10,32,291,20,18,62,315,19*70
2017-12-14 11:49:15 1513270155.809539: $GPGSV,3,2,12,20,44,084,16,32,11,231,15,27,19,303,00,13,19,046,00*72
2017-12-14 11:49:15 1513270155.809605: $GPGSV,3,3,12,21,75,208,00,29,01,186,00,08,01,331,00,138,38,213,00*4D
2017-12-14 11:49:15 1513270155.922806: $GPZDA,164916.00,14,12,2017,00,00*69
2017-12-14 11:49:15 1513270155.922985: $GPGGA,164916,3946.9467,N,08404.9502,W,1,06,1.80,372.80,M,-33.324,M,,*76
2017-12-14 11:49:15 1513270155.923053: $GPRMC,164916,A,3946.9467,N,08404.9502,W,1.8162,341.551,141217,,*3B
2017-12-14 11:49:15 1513270155.923115: $GPGSA,A,3,24,15,10,18,20,32,,,,,,,6.6,1.8,6.2*36
2017-12-14 11:49:16 1513270156.178305: $GPZDA,164917.00,14,12,2017,00,00*68
2017-12-14 11:49:16 1513270156.178471: $GPGGA,164917,3946.9463,N,08404.9503,W,1,06,1.80,373.56,M,-33.324,M,,*78
2017-12-14 11:49:16 1513270156.178536: $GPRMC,164917,A,3946.9463,N,08404.9503,W,0.8763,328.465,141217,,*30
2017-12-14 11:49:16 1513270156.178599: $GPGSA,A,3,24,15,10,18,20,32,,,,,,,6.6,1.8,6.2*36
2017-12-14 11:49:17 1513270157.145779: $GPZDA,164918.00,14,12,2017,00,00*67
2017-12-14 11:49:17 1513270157.145979: $GPGGA,164918,3946.9460,N,08404.9497,W,1,06,1.80,374.41,M,-33.324,M,,*79
2017-12-14 11:49:17 1513270157.146050: $GPRMC,164918,A,3946.9460,N,08404.9497,W,0.4179,328.778,141217,,*3E
2017-12-14 11:49:17 1513270157.146113: $GPGSA,A,3,24,15,10,18,20,32,,,,,,,6.6,1.8,6.2*36
2017-12-14 11:49:18 1513270158.481702: $GPGSV,3,1,12,24,43,127,27,15,49,049,24,10,32,291,20,18,62,315,20*7A
2017-12-14 11:49:18 1513270158.481868: $GPGSV,3,2,12,20,44,084,16,32,11,231,15,27,19,303,00,13,19,046,00*72
2017-12-14 11:49:18 1513270158.481941: $GPGSV,3,3,12,21,75,208,00,29,01,186,00,08,01,331,00,138,38,213,00*4D
2017-12-14 11:49:18 1513270158.595176: $GPZDA,164919.00,14,12,2017,00,00*66
2017-12-14 11:49:18 1513270158.595359: $GPGGA,164919,3946.9456,N,08404.9497,W,1,06,1.80,375.17,M,-33.324,M,,*7F
2017-12-14 11:49:18 1513270158.595484: $GPRMC,164919,A,3946.9456,N,08404.9497,W,0.5617,31.295,141217,,*09
2017-12-14 11:49:18 1513270158.595547: $GPGSA,A,3,24,15,10,18,20,32,,,,,,,6.6,1.8,6.2*36
2017-12-14 11:49:19 1513270159.146386: $GPZDA,164920.00,14,12,2017,00,00*6C
2017-12-14 11:49:19 1513270159.146574: $GPGGA,164920,3946.9460,N,08404.9497,W,1,06,1.80,375.81,M,-33.324,M,,*7F
2017-12-14 11:49:19 1513270159.146641: $GPRMC,164920,A,3946.9460,N,08404.9497,W,1.2132,3.552,141217,,*3D
2017-12-14 11:49:19 1513270159.146702: $GPGSA,A,3,24,15,10,18,20,32,,,,,,,6.6,1.8,6.2*36
2017-12-14 11:49:20 1513270160.146069: $GPZDA,164921.00,14,12,2017,00,00*6D
2017-12-14 11:49:20 1513270160.146234: $GPGGA,164921,3946.9461,N,08404.9498,W,1,06,1.80,377.22,M,-33.324,M,,*7B
2017-12-14 11:49:20 1513270160.146299: $GPRMC,164921,A,3946.9461,N,08404.9498,W,0.7278,23.636,141217,,*08
2017-12-14 11:49:20 1513270160.146360: $GPGSA,A,3,24,15,10,18,20,32,,,,,,,6.6,1.8,6.2*36
2017-12-14 11:49:21 1513270161.480988: $GPGSV,3,1,12,24,43,127,27,15,49,049,24,10,32,291,20,18,62,315,20*7A
2017-12-14 11:49:21 1513270161.481164: $GPGSV,3,2,12,20,44,084,16,32,11,231,14,27,19,303,00,13,19,046,00*73
2017-12-14 11:49:21 1513270161.481230: $GPGSV,3,3,12,21,75,208,00,29,01,186,00,08,01,331,00,138,38,213,00*4D
2017-12-14 11:49:21 1513270161.594627: $GPZDA,164922.00,14,12,2017,00,00*6E
2017-12-14 11:49:21 1513270161.594796: $GPGGA,164922,3946.9454,N,08404.9507,W,1,06,1.80,378.67,M,-33.324,M,,*77
2017-12-14 11:49:21 1513270161.594861: $GPRMC,164922,A,3946.9454,N,08404.9507,W,0.2422,273.794,141217,,*38
2017-12-14 11:49:21 1513270161.594921: $GPGSA,A,3,24,15,10,18,20,32,,,,,,,6.6,1.8,6.2*36
2017-12-14 11:49:22 1513270162.144765: $GPZDA,164923.00,14,12,2017,00,00*6F
2017-12-14 11:49:22 1513270162.144933: $GPGGA,164923,3946.9444,N,08404.9509,W,1,06,1.80,380.96,M,-33.324,M,,*70
2017-12-14 11:49:22 1513270162.145017: $GPRMC,164923,A,3946.9444,N,08404.9509,W,0.1567,189.201,141217,,*3A
2017-12-14 11:49:22 1513270162.145080: $GPGSA,A,3,24,15,10,18,20,32,,,,,,,6.6,1.8,6.2*36
2017-12-14 11:49:23 1513270163.143717: $GPZDA,164924.00,14,12,2017,00,00*68
2017-12-14 11:49:23 1513270163.143890: $GPGGA,164924,3946.9434,N,08404.9511,W,1,06,1.80,383.25,M,-33.324,M,,*72
2017-12-14 11:49:23 1513270163.143957: $GPRMC,164924,A,3946.9434,N,08404.9511,W,0.4700,189.201,141217,,*35
2017-12-14 11:49:23 1513270163.144017: $GPGSA,A,3,24,15,10,18,20,32,,,,,,,6.6,1.8,6.2*36
2017-12-14 11:49:24 1513270164.479574: $GPGSV,3,1,12,24,43,127,27,15,49,049,25,10,32,291,20,18,62,315,20*7B
2017-12-14 11:49:24 1513270164.479761: $GPGSV,3,2,12,20,44,084,16,32,11,231,14,27,19,303,00,13,19,046,00*73
2017-12-14 11:49:24 1513270164.479827: $GPGSV,3,3,12,21,75,208,00,29,01,186,00,08,01,331,00,138,38,213,00*4D
2017-12-14 11:49:24 1513270164.593148: $GPZDA,164925.00,14,12,2017,00,00*69
2017-12-14 11:49:24 1513270164.593332: $GPGGA,164925,3946.9437,N,08404.9510,W,1,06,1.80,382.49,M,-33.324,M,,*7A
2017-12-14 11:49:24 1513270164.593400: $GPRMC,164925,A,3946.9437,N,08404.9510,W,0.2422,93.794,141217,,*00
2017-12-14 11:49:24 1513270164.593461: $GPGSA,A,3,24,15,10,18,20,32,,,,,,,6.6,1.8,6.2*36
2017-12-14 11:49:25 1513270165.143900: $GPZDA,164926.00,14,12,2017,00,00*6A
2017-12-14 11:49:25 1513270165.144088: $GPGGA,164926,3946.9435,N,08404.9512,W,1,06,1.80,384.66,M,-33.324,M,,*72
2017-12-14 11:49:25 1513270165.144158: $GPRMC,164926,A,3946.9435,N,08404.9512,W,0.4179,148.778,141217,,*3B
2017-12-14 11:49:25 1513270165.144219: $GPGSA,A,3,24,15,10,18,20,32,,,,,,,6.6,1.8,6.2*36
2017-12-14 11:49:26 1513270166.144235: $GPZDA,164927.00,14,12,2017,00,00*6B
2017-12-14 11:49:26 1513270166.144407: $GPGGA,164927,3946.9438,N,08404.9511,W,1,06,1.80,383.89,M,-33.324,M,,*7B
2017-12-14 11:49:26 1513270166.144475: $GPRMC,164927,A,3946.9438,N,08404.9511,W,0.5287,182.716,141217,,*39
2017-12-14 11:49:26 1513270166.144536: $GPGSA,A,3,24,15,10,18,20,32,,,,,,,6.6,1.8,6.2*36
2017-12-14 11:49:27 1513270167.481434: $GPGSV,3,1,12,24,43,127,27,15,49,049,25,10,32,291,19,18,62,315,19*7B
2017-12-14 11:49:27 1513270167.481696: $GPGSV,3,2,12,20,44,084,16,32,11,231,14,27,19,303,00,13,19,046,00*73
2017-12-14 11:49:27 1513270167.481773: $GPGSV,3,3,12,21,75,208,00,29,01,186,00,08,01,331,00,138,38,213,00*4D
2017-12-14 11:49:27 1513270167.595100: $GPZDA,164928.00,14,12,2017,00,00*64
2017-12-14 11:49:27 1513270167.595270: $GPGGA,164928,3946.9439,N,08404.9512,W,1,06,1.80,385.30,M,-33.324,M,,*72
2017-12-14 11:49:27 1513270167.595334: $GPRMC,164928,A,3946.9439,N,08404.9512,W,0.1867,180.000,141217,,*36
2017-12-14 11:49:27 1513270167.595396: $GPGSA,A,3,24,15,10,18,20,32,,,,,,,6.6,1.8,6.2*36
2017-12-14 11:49:28 1513270168.145197: $GPZDA,164929.00,14,12,2017,00,00*65
2017-12-14 11:49:28 1513270168.145365: $GPGGA,164929,3946.9439,N,08404.9512,W,1,06,1.80,385.30,M,-33.324,M,,*73
2017-12-14 11:49:28 1513270168.145429: $GPRMC,164929,A,3946.9439,N,08404.9512,W,0.3133,9.201,141217,,*3E
2017-12-14 11:49:28 1513270168.145492: $GPGSA,A,3,24,15,10,18,20,32,,,,,,,6.6,1.8,6.2*36
2017-12-14 11:49:29 1513270169.146503: $GPZDA,164930.00,14,12,2017,00,00*6D
2017-12-14 11:49:29 1513270169.146699: $GPGGA,164930,3946.9436,N,08404.9513,W,1,06,1.80,387.46,M,-33.324,M,,*76
2017-12-14 11:49:29 1513270169.146805: $GPRMC,164930,A,3946.9436,N,08404.9513,W,0.3155,309.994,141217,,*3C
2017-12-14 11:49:29 1513270169.146903: $GPGSA,A,3,24,15,10,18,20,32,,,,,,,6.6,1.8,6.2*36
2017-12-14 11:49:30 1513270170.481909: $GPGSV,3,1,12,24,43,127,27,15,49,049,26,10,32,291,19,18,62,315,19*78
2017-12-14 11:49:30 1513270170.482133: $GPGSV,3,2,12,20,44,084,17,32,11,231,14,27,19,303,00,13,19,046,00*72
2017-12-14 11:49:30 1513270170.482208: $GPGSV,3,3,12,21,75,208,00,29,01,186,00,08,01,331,00,138,38,213,00*4D
2017-12-14 11:49:30 1513270170.595249: $GPZDA,164931.00,14,12,2017,00,00*6C
2017-12-14 11:49:30 1513270170.595381: $GPGGA,164931,3946.9437,N,08404.9514,W,1,06,1.80,388.87,M,-33.324,M,,*73
2017-12-14 11:49:30 1513270170.595446: $GPRMC,164931,A,3946.9437,N,08404.9514,W,0.5774,27.515,141217,,*02
2017-12-14 11:49:30 1513270170.595506: $GPGSA,A,3,24,15,10,18,20,32,,,,,,,6.6,1.8,6.2*36
2017-12-14 11:49:31 1513270171.145415: $GPZDA,164932.00,14,12,2017,00,00*6F
2017-12-14 11:49:31 1513270171.145585: $GPGGA,164932,3946.9441,N,08404.9521,W,1,06,1.80,389.43,M,-33.324,M,,*7E
2017-12-14 11:49:31 1513270171.145651: $GPRMC,164932,A,3946.9441,N,08404.9521,W,0.9060,347.792,141217,,*30
2017-12-14 11:49:31 1513270171.145714: $GPGSA,A,3,24,15,10,18,20,32,,,,,,,6.6,1.8,6.2*36
