2017-12-29 11:18:36 1514564316.320698: {"class":"VERSION","release":"3.16","rev":"3.16-4","proto_major":3,"proto_minor":11}
2017-12-29 11:18:36 1514564316.321160: {"class":"DEVICES","devices":[{"class":"DEVICE","path":"/dev/ttyUSB0","driver":"SiRF","subtype":"9\u0006GSD4e_4.1.2-P1_RPATCH.05-F-GPS-4R-1510281 11/03/2015 307","activated":"2017-12-29T16:18:36.272Z","flags":1,"native":1,"bps":4800,"parity":"N","stopbits":1,"cycle":1.00}]}
2017-12-29 11:18:36 1514564316.321284: {"class":"WATCH","enable":true,"json":false,"nmea":true,"raw":0,"scaled":false,"timing":false,"split24":false,"pps":false}
2017-12-29 11:18:36 1514564316.385640: $GPZDA,161837.00,29,12,2017,00,00*60
2017-12-29 11:18:36 1514564316.385810: $GPGGA,161837,3946.9555,N,08404.9826,W,1,11,1.00,309.49,M,-33.324,M,,*7D
2017-12-29 11:18:36 1514564316.385875: $GPRMC,161837,A,3946.9555,N,08404.9826,W,0.0000,0.000,291217,,*32
2017-12-29 11:18:36 1514564316.385936: $GPGSA,A,3,8,10,15,18,20,21,24,27,32,14,138,,1.7,1.0,1.3*3F
2017-12-29 11:18:37 1514564317.385185: $GPZDA,161838.00,29,12,2017,00,00*6F
2017-12-29 11:18:37 1514564317.385354: $GPGGA,161838,3946.9555,N,08404.9826,W,1,11,1.00,309.49,M,-33.324,M,,*72
2017-12-29 11:18:37 1514564317.385420: $GPRMC,161838,A,3946.9555,N,08404.9826,W,0.0000,0.000,291217,,*3D
2017-12-29 11:18:37 1514564317.385501: $GPGSA,A,3,8,10,15,18,20,21,24,27,32,14,138,,1.7,1.0,1.3*3F
2017-12-29 11:18:38 1514564318.719661: $GPGSV,3,1,12,08,05,322,35,10,42,301,42,15,37,052,45,18,71,339,41*76
2017-12-29 11:18:38 1514564318.719831: $GPGSV,3,2,12,20,34,096,48,21,63,189,44,24,51,109,45,27,19,289,35*78
2017-12-29 11:18:38 1514564318.719896: $GPGSV,3,3,12,32,22,238,37,14,03,232,19,13,07,048,00,138,38,213,44*43
2017-12-29 11:18:38 1514564318.833029: $GPZDA,161839.00,29,12,2017,00,00*6E
2017-12-29 11:18:38 1514564318.833176: $GPGGA,161839,3946.9555,N,08404.9826,W,1,11,1.00,309.49,M,-33.324,M,,*73
2017-12-29 11:18:38 1514564318.833241: $GPRMC,161839,A,3946.9555,N,08404.9826,W,0.0000,0.000,291217,,*3C
2017-12-29 11:18:38 1514564318.833301: $GPGSA,A,3,8,10,15,18,20,21,24,27,32,14,138,,1.7,1.0,1.3*3F
2017-12-29 11:18:39 1514564319.458422: $GPZDA,161840.00,29,12,2017,00,00*60
2017-12-29 11:18:39 1514564319.458627: $GPGGA,161840,3946.9555,N,08404.9826,W,1,11,1.00,309.49,M,-33.324,M,,*7D
2017-12-29 11:18:39 1514564319.458693: $GPRMC,161840,A,3946.9555,N,08404.9826,W,0.0000,0.000,291217,,*32
2017-12-29 11:18:39 1514564319.458754: $GPGSA,A,3,8,10,15,18,20,21,24,27,32,14,138,,1.7,1.0,1.3*3F
2017-12-29 11:18:40 1514564320.378049: $GPZDA,161841.00,29,12,2017,00,00*61
2017-12-29 11:18:40 1514564320.378217: $GPGGA,161841,3946.9555,N,08404.9826,W,1,11,1.00,309.49,M,-33.324,M,,*7C
2017-12-29 11:18:40 1514564320.378281: $GPRMC,161841,A,3946.9555,N,08404.9826,W,0.0000,0.000,291217,,*33
2017-12-29 11:18:40 1514564320.378342: $GPGSA,A,3,8,10,15,18,20,21,24,27,32,14,138,,1.7,1.0,1.3*3F
2017-12-29 11:18:41 1514564321.713838: $GPGSV,3,1,12,08,05,322,36,10,42,301,42,15,37,052,45,18,71,339,41*75
2017-12-29 11:18:41 1514564321.714021: $GPGSV,3,2,12,20,34,096,48,21,63,189,44,24,51,109,45,27,19,289,35*78
2017-12-29 11:18:41 1514564321.714087: $GPGSV,3,3,12,32,22,238,38,14,03,232,14,13,07,048,00,138,38,213,45*40
2017-12-29 11:18:41 1514564321.827211: $GPZDA,161842.00,29,12,2017,00,00*62
2017-12-29 11:18:41 1514564321.827348: $GPGGA,161842,3946.9555,N,08404.9826,W,1,11,1.00,309.49,M,-33.324,M,,*7F
2017-12-29 11:18:41 1514564321.827413: $GPRMC,161842,A,3946.9555,N,08404.9826,W,0.0000,0.000,291217,,*30
2017-12-29 11:18:41 1514564321.827493: $GPGSA,A,3,8,10,15,18,20,21,24,27,32,14,138,,1.7,1.0,1.3*3F
2017-12-29 11:18:42 1514564322.384408: $GPZDA,161843.00,29,12,2017,00,00*63
2017-12-29 11:18:42 1514564322.384615: $GPGGA,161843,3946.9555,N,08404.9826,W,1,11,1.00,309.49,M,-33.324,M,,*7E
2017-12-29 11:18:42 1514564322.384682: $GPRMC,161843,A,3946.9555,N,08404.9826,W,0.0000,0.000,291217,,*31
2017-12-29 11:18:42 1514564322.384742: $GPGSA,A,3,8,10,15,18,20,21,24,27,32,14,138,,1.7,1.0,1.3*3F
2017-12-29 11:18:43 1514564323.384022: $GPZDA,161844.00,29,12,2017,00,00*64
2017-12-29 11:18:43 1514564323.384238: $GPGGA,161844,3946.9558,N,08404.9825,W,1,11,1.00,308.72,M,-33.324,M,,*7E
2017-12-29 11:18:43 1514564323.384306: $GPRMC,161844,A,3946.9558,N,08404.9825,W,0.0000,0.000,291217,,*38
2017-12-29 11:18:43 1514564323.384366: $GPGSA,A,3,8,10,15,18,20,21,24,27,32,14,138,,1.7,1.0,1.3*3F
2017-12-29 11:18:44 1514564324.719179: $GPGSV,3,1,12,08,05,322,36,10,42,301,42,15,37,052,45,18,71,339,41*75
2017-12-29 11:18:44 1514564324.719333: $GPGSV,3,2,12,20,34,096,47,21,63,189,43,24,51,109,45,27,19,289,36*73
2017-12-29 11:18:44 1514564324.719397: $GPGSV,3,3,12,32,22,238,38,14,03,232,13,13,07,048,00,138,38,213,46*44
2017-12-29 11:18:44 1514564324.832612: $GPZDA,161845.00,29,12,2017,00,00*65
2017-12-29 11:18:44 1514564324.832746: $GPGGA,161845,3946.9562,N,08404.9825,W,1,11,1.00,309.36,M,-33.324,M,,*77
2017-12-29 11:18:44 1514564324.832811: $GPRMC,161845,A,3946.9562,N,08404.9825,W,0.0000,0.000,291217,,*30
2017-12-29 11:18:44 1514564324.832871: $GPGSA,A,3,8,10,15,18,20,21,24,27,32,14,138,,1.7,1.0,1.3*3F
2017-12-29 11:18:45 1514564325.392323: $GPZDA,161846.00,29,12,2017,00,00*66
2017-12-29 11:18:45 1514564325.392495: $GPGGA,161846,3946.9562,N,08404.9825,W,1,11,1.00,309.36,M,-33.324,M,,*74
2017-12-29 11:18:45 1514564325.392564: $GPRMC,161846,A,3946.9562,N,08404.9825,W,0.0000,0.000,291217,,*33
2017-12-29 11:18:45 1514564325.392624: $GPGSA,A,3,8,10,15,18,20,21,24,27,32,14,138,,1.7,1.0,1.3*3F
2017-12-29 11:18:46 1514564326.384323: $GPZDA,161847.00,29,12,2017,00,00*67
2017-12-29 11:18:46 1514564326.384494: $GPGGA,161847,3946.9562,N,08404.9825,W,1,11,1.00,309.36,M,-33.324,M,,*75
2017-12-29 11:18:46 1514564326.384564: $GPRMC,161847,A,3946.9562,N,08404.9825,W,0.0000,0.000,291217,,*32
2017-12-29 11:18:46 1514564326.384625: $GPGSA,A,3,8,10,15,18,20,21,24,27,32,14,138,,1.7,1.0,1.3*3F
2017-12-29 11:18:47 1514564327.723782: $GPGSV,3,1,12,08,05,322,36,10,42,301,42,15,37,052,45,18,71,339,41*75
2017-12-29 11:18:47 1514564327.723959: $GPGSV,3,2,12,20,34,096,47,21,63,189,43,24,51,109,45,27,19,289,37*72
2017-12-29 11:18:47 1514564327.724026: $GPGSV,3,3,12,32,22,238,37,14,03,232,10,13,07,048,00,138,38,213,44*4A
2017-12-29 11:18:47 1514564327.837195: $GPZDA,161848.00,29,12,2017,00,00*68
2017-12-29 11:18:47 1514564327.837354: $GPGGA,161848,3946.9562,N,08404.9825,W,1,11,1.00,309.36,M,-33.324,M,,*7A
2017-12-29 11:18:47 1514564327.837422: $GPRMC,161848,A,3946.9562,N,08404.9825,W,0.0000,0.000,291217,,*3D
2017-12-29 11:18:47 1514564327.837485: $GPGSA,A,3,8,10,15,18,20,21,24,27,32,14,138,,1.7,1.0,1.3*3F
2017-12-29 11:18:48 1514564328.384332: $GPZDA,161849.00,29,12,2017,00,00*69
2017-12-29 11:18:48 1514564328.384507: $GPGGA,161849,3946.9562,N,08404.9825,W,1,11,1.00,309.36,M,-33.324,M,,*7B
2017-12-29 11:18:48 1514564328.384578: $GPRMC,161849,A,3946.9562,N,08404.9825,W,0.0000,0.000,291217,,*3C
2017-12-29 11:18:48 1514564328.384639: $GPGSA,A,3,8,10,15,18,20,21,24,27,32,14,138,,1.7,1.0,1.3*3F
2017-12-29 11:18:49 1514564329.386251: $GPZDA,161850.00,29,12,2017,00,00*61
2017-12-29 11:18:49 1514564329.386419: $GPGGA,161850,3946.9562,N,08404.9825,W,1,11,1.00,309.36,M,-33.324,M,,*73
2017-12-29 11:18:49 1514564329.386488: $GPRMC,161850,A,3946.9562,N,08404.9825,W,0.0000,0.000,291217,,*34
2017-12-29 11:18:49 1514564329.386551: $GPGSA,A,3,8,10,15,18,20,21,24,27,32,14,138,,1.7,1.0,1.3*3F
2017-12-29 11:18:50 1514564330.719113: $GPGSV,3,1,12,08,05,322,36,10,42,301,43,15,37,052,46,18,71,339,42*74
2017-12-29 11:18:50 1514564330.719293: $GPGSV,3,2,12,20,34,096,48,21,63,189,43,24,51,109,45,27,19,289,36*7C
2017-12-29 11:18:50 1514564330.719359: $GPGSV,3,3,12,32,22,238,37,14,03,232,14,13,07,048,00,138,38,213,44*4E
2017-12-29 11:18:50 1514564330.832813: $GPZDA,161851.00,29,12,2017,00,00*60
2017-12-29 11:18:50 1514564330.832942: $GPGGA,161851,3946.9562,N,08404.9825,W,1,11,1.00,309.36,M,-33.324,M,,*72
2017-12-29 11:18:50 1514564330.833007: $GPRMC,161851,A,3946.9562,N,08404.9825,W,0.0000,0.000,291217,,*35
2017-12-29 11:18:50 1514564330.833069: $GPGSA,A,3,8,10,15,18,20,21,24,27,32,14,138,,1.7,1.0,1.3*3F
2017-12-29 11:18:51 1514564331.385025: $GPZDA,161852.00,29,12,2017,00,00*63
2017-12-29 11:18:51 1514564331.385266: $GPGGA,161852,3946.9562,N,08404.9825,W,1,11,1.00,309.36,M,-33.324,M,,*71
2017-12-29 11:18:51 1514564331.385336: $GPRMC,161852,A,3946.9562,N,08404.9825,W,0.0000,0.000,291217,,*36
2017-12-29 11:18:51 1514564331.385398: $GPGSA,A,3,8,10,15,18,20,21,24,27,32,14,138,,1.7,1.0,1.3*3F
2017-12-29 11:18:52 1514564332.395890: $GPZDA,161853.00,29,12,2017,00,00*62
2017-12-29 11:18:52 1514564332.398609: $GPGGA,161853,3946.9559,N,08404.9826,W,1,11,1.00,310.13,M,-33.324,M,,*74
2017-12-29 11:18:52 1514564332.398717: $GPRMC,161853,A,3946.9559,N,08404.9826,W,0.0000,0.000,291217,,*3C
2017-12-29 11:18:52 1514564332.398782: $GPGSA,A,3,8,10,15,18,20,21,24,27,32,14,138,,1.7,1.0,1.3*3F
2017-12-29 11:18:53 1514564333.718795: $GPGSV,3,1,12,08,05,322,36,10,42,301,43,15,37,052,45,18,71,339,42*77
2017-12-29 11:18:53 1514564333.718958: $GPGSV,3,2,12,20,34,096,47,21,63,189,43,24,51,109,45,27,19,289,36*73
2017-12-29 11:18:53 1514564333.719024: $GPGSV,3,3,12,32,22,238,37,14,03,232,15,13,07,048,00,138,38,213,45*4E
2017-12-29 11:18:53 1514564333.832218: $GPZDA,161854.00,29,12,2017,00,00*65
2017-12-29 11:18:53 1514564333.832366: $GPGGA,161854,3946.9559,N,08404.9826,W,1,11,1.00,310.13,M,-33.324,M,,*73
2017-12-29 11:18:53 1514564333.832453: $GPRMC,161854,A,3946.9559,N,08404.9826,W,0.0000,0.000,291217,,*3B
2017-12-29 11:18:53 1514564333.832530: $GPGSA,A,3,8,10,15,18,20,21,24,27,32,14,138,,1.7,1.0,1.3*3F
2017-12-29 11:18:54 1514564334.457546: $GPZDA,161855.00,29,12,2017,00,00*64
2017-12-29 11:18:54 1514564334.457713: $GPGGA,161855,3946.9559,N,08404.9826,W,1,11,1.00,310.13,M,-33.324,M,,*72
2017-12-29 11:18:54 1514564334.457778: $GPRMC,161855,A,3946.9559,N,08404.9826,W,0.0000,0.000,291217,,*3A
2017-12-29 11:18:54 1514564334.457838: $GPGSA,A,3,8,10,15,18,20,21,24,27,32,14,138,,1.7,1.0,1.3*3F
2017-12-29 11:18:55 1514564335.410947: $GPZDA,161856.00,29,12,2017,00,00*67
2017-12-29 11:18:55 1514564335.411210: $GPGGA,161856,3946.9559,N,08404.9826,W,1,11,1.00,310.13,M,-33.324,M,,*71
2017-12-29 11:18:55 1514564335.411283: $GPRMC,161856,A,3946.9559,N,08404.9826,W,0.0000,0.000,291217,,*39
2017-12-29 11:18:55 1514564335.411344: $GPGSA,A,3,8,10,15,18,20,21,24,27,32,14,138,,1.7,1.0,1.3*3F
2017-12-29 11:18:56 1514564336.736585: $GPGSV,3,1,12,08,05,322,36,10,42,301,43,15,37,052,45,18,71,339,41*74
2017-12-29 11:18:56 1514564336.736744: $GPGSV,3,2,12,20,34,096,47,21,63,189,43,24,51,109,45,27,19,289,35*70
2017-12-29 11:18:56 1514564336.736810: $GPGSV,3,3,12,32,22,238,36,14,03,232,17,13,07,048,00,138,38,213,44*4C
2017-12-29 11:18:56 1514564336.849987: $GPZDA,161857.00,29,12,2017,00,00*66
2017-12-29 11:18:56 1514564336.850128: $GPGGA,161857,3946.9559,N,08404.9826,W,1,11,1.00,310.13,M,-33.324,M,,*70
2017-12-29 11:18:56 1514564336.850193: $GPRMC,161857,A,3946.9559,N,08404.9826,W,0.0000,0.000,291217,,*38
2017-12-29 11:18:56 1514564336.850253: $GPGSA,A,3,8,10,15,18,20,21,24,27,32,14,138,,1.7,1.0,1.3*3F
2017-12-29 11:18:57 1514564337.400927: $GPZDA,161858.00,29,12,2017,00,00*69
2017-12-29 11:18:57 1514564337.401178: $GPGGA,161858,3946.9559,N,08404.9826,W,1,11,1.00,310.13,M,-33.324,M,,*7F
2017-12-29 11:18:57 1514564337.405999: $GPRMC,161858,A,3946.9559,N,08404.9826,W,0.0000,0.000,291217,,*37
2017-12-29 11:18:57 1514564337.406150: $GPGSA,A,3,8,10,15,18,20,21,24,27,32,14,138,,1.7,1.0,1.3*3F
2017-12-29 11:18:58 1514564338.382991: $GPZDA,161859.00,29,12,2017,00,00*68
2017-12-29 11:18:58 1514564338.383158: $GPGGA,161859,3946.9559,N,08404.9826,W,1,11,1.00,310.13,M,-33.324,M,,*7E
2017-12-29 11:18:58 1514564338.383224: $GPRMC,161859,A,3946.9559,N,08404.9826,W,0.0000,0.000,291217,,*36
2017-12-29 11:18:58 1514564338.383285: $GPGSA,A,3,8,10,15,18,20,21,24,27,32,14,138,,1.7,1.0,1.3*3F
2017-12-29 11:18:59 1514564339.735700: $GPGSV,3,1,12,08,05,322,35,10,42,301,42,15,37,052,45,18,71,339,42*75
2017-12-29 11:18:59 1514564339.735871: $GPGSV,3,2,12,20,34,096,47,21,63,189,43,24,51,109,45,27,19,289,35*70
2017-12-29 11:18:59 1514564339.735938: $GPGSV,3,3,12,32,22,238,36,13,07,048,00,14,03,232,00,138,38,213,44*4A
2017-12-29 11:18:59 1514564339.849101: $GPZDA,161900.00,29,12,2017,00,00*65
2017-12-29 11:18:59 1514564339.849243: $GPGGA,161900,3946.9559,N,08404.9826,W,1,10,1.00,310.13,M,-33.324,M,,*72
2017-12-29 11:18:59 1514564339.849309: $GPRMC,161900,A,3946.9559,N,08404.9826,W,0.0000,0.000,291217,,*3B
2017-12-29 11:18:59 1514564339.849390: $GPGSA,A,3,8,10,15,18,20,21,24,27,32,138,,,1.7,1.0,1.3*3A
2017-12-29 11:19:00 1514564340.392568: $GPZDA,161901.00,29,12,2017,00,00*64
2017-12-29 11:19:00 1514564340.392734: $GPGGA,161901,3946.9559,N,08404.9826,W,1,10,1.00,310.13,M,-33.324,M,,*73
2017-12-29 11:19:00 1514564340.392800: $GPRMC,161901,A,3946.9559,N,08404.9826,W,0.0000,0.000,291217,,*3A
2017-12-29 11:19:00 1514564340.392861: $GPGSA,A,3,8,10,15,18,20,21,24,27,32,138,,,1.7,1.0,1.3*3A
