2018-01-11 19:52:13 1515718333.610921: {"class":"VERSION","release":"3.16","rev":"3.16-4","proto_major":3,"proto_minor":11}
2018-01-11 19:52:13 1515718333.611316: {"class":"DEVICES","devices":[{"class":"DEVICE","path":"/dev/ttyUSB0","driver":"SiRF","subtype":"9\u0006GSD4e_4.1.2-P1_RPATCH.05-F-GPS-4R-1510281 11/03/2015 307","activated":"2018-01-12T00:52:13.537Z","flags":1,"native":1,"bps":4800,"parity":"N","stopbits":1,"cycle":1.00}]}
2018-01-11 19:52:13 1515718333.611431: {"class":"WATCH","enable":true,"json":false,"nmea":true,"raw":0,"scaled":false,"timing":false,"split24":false,"pps":false}
2018-01-11 19:52:14 1515718334.719783: $GPGSV,3,1,11,07,48,312,39,08,67,153,44,09,53,241,43,16,29,055,46*75
2018-01-11 19:52:14 1515718334.719939: $GPGSV,3,2,11,23,38,193,48,27,54,063,51,30,22,303,36,11,13,171,34*74
2018-01-11 19:52:14 1515718334.720004: $GPGSV,3,3,11,26,04,067,16,28,08,252,00,138,38,213,46*7B
2018-01-11 19:52:14 1515718334.831883: $GPZDA,005215.00,12,01,2018,00,00*6C
2018-01-11 19:52:14 1515718334.831994: $GPGGA,005215,3946.9610,N,08404.9878,W,2,10,0.80,298.71,M,-33.324,M,,*74
2018-01-11 19:52:14 1515718334.832056: $GPRMC,005215,A,3946.9610,N,08404.9878,W,0.0000,0.000,120118,,*37
2018-01-11 19:52:14 1515718334.832116: $GPGSA,A,3,7,8,9,16,23,27,30,11,26,138,,,4.0,0.8,3.5*30
2018-01-11 19:52:15 1515718335.386827: $GPZDA,005216.00,12,01,2018,00,00*6F
2018-01-11 19:52:15 1515718335.386992: $GPGGA,005216,3946.9610,N,08404.9878,W,2,10,0.80,298.71,M,-33.324,M,,*77
2018-01-11 19:52:15 1515718335.387058: $GPRMC,005216,A,3946.9610,N,08404.9878,W,0.0000,0.000,120118,,*34
2018-01-11 19:52:15 1515718335.387118: $GPGSA,A,3,7,8,9,16,23,27,30,11,26,138,,,4.0,0.8,3.5*30
2018-01-11 19:52:16 1515718336.396311: $GPZDA,005217.00,12,01,2018,00,00*6E
2018-01-11 19:52:16 1515718336.396467: $GPGGA,005217,3946.9610,N,08404.9878,W,2,10,0.80,298.71,M,-33.324,M,,*76
2018-01-11 19:52:16 1515718336.396532: $GPRMC,005217,A,3946.9610,N,08404.9878,W,0.0000,0.000,120118,,*35
2018-01-11 19:52:16 1515718336.396593: $GPGSA,A,3,7,8,9,16,23,27,30,11,26,138,,,4.0,0.8,3.5*30
2018-01-11 19:52:16 1515718336.396650: $GPGBS,005217,3.65,M,6.21,M,20.10,M*09
2018-01-11 19:52:17 1515718337.723751: $GPGSV,3,1,11,07,48,312,39,08,67,153,44,09,53,241,43,16,29,055,47*74
2018-01-11 19:52:17 1515718337.723946: $GPGSV,3,2,11,23,38,193,48,27,54,063,51,30,22,303,37,11,13,171,34*75
2018-01-11 19:52:17 1515718337.724012: $GPGSV,3,3,11,26,04,067,16,28,08,252,26,138,38,213,45*7C
2018-01-11 19:52:17 1515718337.837416: $GPZDA,005218.00,12,01,2018,00,00*61
2018-01-11 19:52:17 1515718337.837578: $GPGGA,005218,3946.9610,N,08404.9878,W,2,11,0.80,298.71,M,-33.324,M,,*78
2018-01-11 19:52:17 1515718337.837643: $GPRMC,005218,A,3946.9610,N,08404.9878,W,0.0000,0.000,120118,,*3A
2018-01-11 19:52:17 1515718337.837704: $GPGSA,A,3,7,8,9,16,23,27,30,11,26,28,138,,4.0,0.8,3.5*3A
2018-01-11 19:52:18 1515718338.388290: $GPZDA,005219.00,12,01,2018,00,00*60
2018-01-11 19:52:18 1515718338.388440: $GPGGA,005219,3946.9612,N,08404.9876,W,2,11,0.80,295.14,M,-33.324,M,,*7B
2018-01-11 19:52:18 1515718338.388505: $GPRMC,005219,A,3946.9612,N,08404.9876,W,0.0000,0.000,120118,,*37
2018-01-11 19:52:18 1515718338.388565: $GPGSA,A,3,7,8,9,16,23,27,30,11,26,28,138,,4.0,0.8,3.5*3A
2018-01-11 19:52:19 1515718339.387890: $GPZDA,005220.00,12,01,2018,00,00*6A
2018-01-11 19:52:19 1515718339.388057: $GPGGA,005220,3946.9612,N,08404.9876,W,2,11,0.80,295.14,M,-33.324,M,,*71
2018-01-11 19:52:19 1515718339.388124: $GPRMC,005220,A,3946.9612,N,08404.9876,W,0.0000,0.000,120118,,*3D
2018-01-11 19:52:19 1515718339.388184: $GPGSA,A,3,7,8,9,16,23,27,30,11,26,28,138,,4.0,0.8,3.5*3A
2018-01-11 19:52:20 1515718340.732067: $GPGSV,3,1,11,07,48,312,40,08,67,153,45,09,53,241,42,16,29,055,46*7B
2018-01-11 19:52:20 1515718340.732247: $GPGSV,3,2,11,23,38,193,48,27,54,063,51,30,22,303,38,11,13,171,34*7A
2018-01-11 19:52:20 1515718340.732313: $GPGSV,3,3,11,26,04,067,17,28,08,252,07,138,38,213,45*7E
2018-01-11 19:52:20 1515718340.845707: $GPZDA,005221.00,12,01,2018,00,00*6B
2018-01-11 19:52:20 1515718340.845840: $GPGGA,005221,3946.9612,N,08404.9876,W,2,10,0.80,295.14,M,-33.324,M,,*71
2018-01-11 19:52:20 1515718340.845958: $GPRMC,005221,A,3946.9612,N,08404.9876,W,0.0000,0.000,120118,,*3C
2018-01-11 19:52:20 1515718340.846020: $GPGSA,A,3,7,8,9,16,23,27,30,11,26,138,,,4.0,0.8,3.5*30
2018-01-11 19:52:21 1515718341.387830: $GPZDA,005222.00,12,01,2018,00,00*68
2018-01-11 19:52:21 1515718341.387984: $GPGGA,005222,3946.9612,N,08404.9876,W,2,10,0.80,295.14,M,-33.324,M,,*72
2018-01-11 19:52:21 1515718341.388049: $GPRMC,005222,A,3946.9612,N,08404.9876,W,0.0000,0.000,120118,,*3F
2018-01-11 19:52:21 1515718341.388109: $GPGSA,A,3,7,8,9,16,23,27,30,11,26,138,,,4.0,0.8,3.5*30
2018-01-11 19:52:22 1515718342.386999: $GPZDA,005223.00,12,01,2018,00,00*69
2018-01-11 19:52:22 1515718342.387162: $GPGGA,005223,3946.9612,N,08404.9876,W,2,10,0.80,295.14,M,-33.324,M,,*73
2018-01-11 19:52:22 1515718342.387228: $GPRMC,005223,A,3946.9612,N,08404.9876,W,0.0000,0.000,120118,,*3E
2018-01-11 19:52:22 1515718342.387289: $GPGSA,A,3,7,8,9,16,23,27,30,11,26,138,,,4.0,0.8,3.5*30
