2017-11-16 16:51:54 1510869114.110699: {"class":"VERSION","release":"3.17","rev":"3.17","proto_major":3,"proto_minor":12}
2017-11-16 16:51:54 1510869114.111112: {"class":"DEVICES","devices":[{"class":"DEVICE","path":"/dev/ttyUSB0","driver":"SiRF","subtype":"9\u0006GSD4e_4.1.2-P1_RPATCH.05-F-GPS-4R-1510281 11/03/2015 307","activated":"2017-11-16T21:51:54.034Z","flags":1,"native":1,"bps":4800,"parity":"N","stopbits":1,"cycle":1.00}]}
2017-11-16 16:51:54 1510869114.111226: {"class":"WATCH","enable":true,"json":false,"nmea":true,"raw":0,"scaled":false,"timing":false,"split24":false,"pps":false}
2017-11-16 16:51:54 1510869114.446964: $GPZDA,215153.00,16,11,2017,00,00*64
2017-11-16 16:51:54 1510869114.447148: $GPGGA,215153,3946.9581,N,08404.9830,W,2,11,0.80,308.27,M,-33.324,M,,*7B
2017-11-16 16:51:54 1510869114.447237: $GPRMC,215153,A,3946.9581,N,08404.9830,W,0.0000,0.000,161117,,*38
2017-11-16 16:51:54 1510869114.447297: $GPGSA,A,3,1,10,11,12,14,18,24,25,31,32,138,,1.6,0.8,1.3*38
2017-11-16 16:51:55 1510869115.444653: $GPZDA,215154.00,16,11,2017,00,00*63
2017-11-16 16:51:55 1510869115.444815: $GPGGA,215154,3946.9581,N,08404.9830,W,2,11,0.80,308.27,M,-33.324,M,,*7C
2017-11-16 16:51:55 1510869115.444876: $GPRMC,215154,A,3946.9581,N,08404.9830,W,0.0000,0.000,161117,,*3F
2017-11-16 16:51:55 1510869115.444932: $GPGSA,A,3,1,10,11,12,14,18,24,25,31,32,138,,1.6,0.8,1.3*38
2017-11-16 16:51:56 1510869116.775927: $GPGSV,3,1,12,01,15,316,39,10,67,135,48,11,11,298,34,12,25,069,48*7B
2017-11-16 16:51:56 1510869116.776053: $GPGSV,3,2,12,14,56,295,45,18,35,136,41,24,12,045,42,25,31,112,41*7C
2017-11-16 16:51:56 1510869116.776113: $GPGSV,3,3,12,31,37,213,46,32,68,334,51,22,04,310,00,138,38,213,44*46
2017-11-16 16:51:56 1510869116.889254: $GPZDA,215155.00,16,11,2017,00,00*62
2017-11-16 16:51:56 1510869116.889417: $GPGGA,215155,3946.9581,N,08404.9830,W,2,11,0.80,308.27,M,-33.324,M,,*7D
2017-11-16 16:51:56 1510869116.889477: $GPRMC,215155,A,3946.9581,N,08404.9830,W,0.0000,0.000,161117,,*3E
2017-11-16 16:51:56 1510869116.889532: $GPGSA,A,3,1,10,11,12,14,18,24,25,31,32,138,,1.6,0.8,1.3*38
2017-11-16 16:51:57 1510869117.444246: $GPZDA,215156.00,16,11,2017,00,00*61
2017-11-16 16:51:57 1510869117.444408: $GPGGA,215156,3946.9581,N,08404.9830,W,2,11,0.80,308.27,M,-33.324,M,,*7E
2017-11-16 16:51:57 1510869117.444469: $GPRMC,215156,A,3946.9581,N,08404.9830,W,0.0000,0.000,161117,,*3D
2017-11-16 16:51:57 1510869117.444525: $GPGSA,A,3,1,10,11,12,14,18,24,25,31,32,138,,1.6,0.8,1.3*38
2017-11-16 16:51:58 1510869118.460103: $GPZDA,215157.00,16,11,2017,00,00*60
2017-11-16 16:51:58 1510869118.460261: $GPGGA,215157,3946.9581,N,08404.9830,W,2,11,0.80,308.27,M,-33.324,M,,*7F
2017-11-16 16:51:58 1510869118.460320: $GPRMC,215157,A,3946.9581,N,08404.9830,W,0.0000,0.000,161117,,*3C
2017-11-16 16:51:58 1510869118.460375: $GPGSA,A,3,1,10,11,12,14,18,24,25,31,32,138,,1.6,0.8,1.3*38
2017-11-16 16:51:59 1510869119.780524: $GPGSV,3,1,12,01,15,316,39,10,67,135,48,11,11,298,34,12,25,069,48*7B
2017-11-16 16:51:59 1510869119.780684: $GPGSV,3,2,12,14,56,295,45,18,35,136,40,24,12,045,42,25,31,112,41*7D
2017-11-16 16:51:59 1510869119.780744: $GPGSV,3,3,12,31,37,213,46,32,68,334,51,22,04,310,00,138,38,213,44*46
2017-11-16 16:51:59 1510869119.894513: $GPZDA,215158.00,16,11,2017,00,00*6F
2017-11-16 16:51:59 1510869119.894683: $GPGGA,215158,3946.9581,N,08404.9830,W,2,11,0.80,308.27,M,-33.324,M,,*70
2017-11-16 16:51:59 1510869119.894743: $GPRMC,215158,A,3946.9581,N,08404.9830,W,0.0000,0.000,161117,,*33
2017-11-16 16:51:59 1510869119.894799: $GPGSA,A,3,1,10,11,12,14,18,24,25,31,32,138,,1.6,0.8,1.3*38
2017-11-16 16:52:00 1510869120.446402: $GPZDA,215159.00,16,11,2017,00,00*6E
2017-11-16 16:52:00 1510869120.446548: $GPGGA,215159,3946.9581,N,08404.9830,W,2,11,0.80,308.27,M,-33.324,M,,*71
2017-11-16 16:52:00 1510869120.446608: $GPRMC,215159,A,3946.9581,N,08404.9830,W,0.0000,0.000,161117,,*32
2017-11-16 16:52:00 1510869120.446664: $GPGSA,A,3,1,10,11,12,14,18,24,25,31,32,138,,1.6,0.8,1.3*38
2017-11-16 16:52:01 1510869121.460426: $GPZDA,215200.00,16,11,2017,00,00*61
2017-11-16 16:52:01 1510869121.460623: $GPGGA,215200,3946.9581,N,08404.9830,W,2,11,0.80,308.27,M,-33.324,M,,*7E
2017-11-16 16:52:01 1510869121.460685: $GPRMC,215200,A,3946.9581,N,08404.9830,W,0.0000,0.000,161117,,*3D
2017-11-16 16:52:01 1510869121.460741: $GPGSA,A,3,1,10,11,12,14,18,24,25,31,32,138,,1.6,0.8,1.3*38
2017-11-16 16:52:02 1510869122.793293: $GPGSV,3,1,12,01,15,316,40,10,67,135,48,11,11,298,34,12,25,069,48*75
2017-11-16 16:52:02 1510869122.793455: $GPGSV,3,2,12,14,56,295,45,18,35,136,40,24,12,045,42,25,31,112,41*7D
2017-11-16 16:52:02 1510869122.793515: $GPGSV,3,3,12,31,37,213,46,32,68,334,50,22,04,310,01,138,38,213,44*46
2017-11-16 16:52:02 1510869122.906617: $GPZDA,215201.00,16,11,2017,00,00*60
2017-11-16 16:52:02 1510869122.906756: $GPGGA,215201,3946.9581,N,08404.9830,W,2,11,0.80,308.27,M,-33.324,M,,*7F
2017-11-16 16:52:02 1510869122.906835: $GPRMC,215201,A,3946.9581,N,08404.9830,W,0.0000,0.000,161117,,*3C
2017-11-16 16:52:02 1510869122.906891: $GPGSA,A,3,1,10,11,12,14,18,24,25,31,32,138,,1.6,0.8,1.3*38
2017-11-16 16:52:03 1510869123.440020: $GPZDA,215202.00,16,11,2017,00,00*63
2017-11-16 16:52:03 1510869123.440187: $GPGGA,215202,3946.9581,N,08404.9830,W,2,11,0.80,308.27,M,-33.324,M,,*7C
2017-11-16 16:52:03 1510869123.440248: $GPRMC,215202,A,3946.9581,N,08404.9830,W,0.0000,0.000,161117,,*3F
2017-11-16 16:52:03 1510869123.440303: $GPGSA,A,3,1,10,11,12,14,18,24,25,31,32,138,,1.6,0.8,1.3*38
