2018-01-12 03:03:09 1515744189.431927: {"class":"VERSION","release":"3.16","rev":"3.16-4","proto_major":3,"proto_minor":11}
2018-01-12 03:03:09 1515744189.432277: {"class":"DEVICES","devices":[{"class":"DEVICE","path":"/dev/ttyUSB0","driver":"SiRF","subtype":"9\u0006GSD4e_4.1.2-P1_RPATCH.05-F-GPS-4R-1510281 11/03/2015 307","activated":"2018-01-12T08:03:09.399Z","flags":1,"native":1,"bps":4800,"parity":"N","stopbits":1,"cycle":1.00}]}
2018-01-12 03:03:09 1515744189.432394: {"class":"WATCH","enable":true,"json":false,"nmea":true,"raw":0,"scaled":false,"timing":false,"split24":false,"pps":false}
2018-01-12 03:03:09 1515744189.851595: $GPZDA,080310.00,12,01,2018,00,00*65
2018-01-12 03:03:09 1515744189.851769: $GPGGA,080310,3946.9701,N,08404.9830,W,2,11,0.80,301.91,M,-33.325,M,,*7F
2018-01-12 03:03:09 1515744189.851840: $GPRMC,080310,A,3946.9701,N,08404.9830,W,0.0000,0.000,120118,,*33
2018-01-12 03:03:09 1515744189.851904: $GPGSA,A,3,2,6,12,17,19,24,25,3,5,9,138,,2.4,0.8,2.1*32
2018-01-12 03:03:10 1515744190.415029: $GPZDA,080311.00,12,01,2018,00,00*64
2018-01-12 03:03:10 1515744190.415205: $GPGGA,080311,3946.9701,N,08404.9830,W,2,11,0.80,301.91,M,-33.325,M,,*7E
2018-01-12 03:03:10 1515744190.415274: $GPRMC,080311,A,3946.9701,N,08404.9830,W,0.0000,0.000,120118,,*32
2018-01-12 03:03:10 1515744190.415336: $GPGSA,A,3,2,6,12,17,19,24,25,3,5,9,138,,2.4,0.8,2.1*32
2018-01-12 03:03:11 1515744191.764501: $GPGSV,3,1,12,02,56,265,46,06,75,001,49,12,42,306,50,17,41,091,40*78
2018-01-12 03:03:11 1515744191.764667: $GPGSV,3,2,12,19,58,073,41,24,10,256,29,25,07,322,32,03,05,034,26*75
2018-01-12 03:03:11 1515744191.764735: $GPGSV,3,3,12,05,13,193,31,09,07,100,22,23,06,067,00,138,38,213,39*46
2018-01-12 03:03:11 1515744191.878077: $GPZDA,080312.00,12,01,2018,00,00*67
2018-01-12 03:03:11 1515744191.878211: $GPGGA,080312,3946.9701,N,08404.9830,W,2,11,0.80,301.91,M,-33.325,M,,*7D
2018-01-12 03:03:11 1515744191.878277: $GPRMC,080312,A,3946.9701,N,08404.9830,W,0.0000,0.000,120118,,*31
2018-01-12 03:03:11 1515744191.878338: $GPGSA,A,3,2,6,12,17,19,24,25,3,5,9,138,,2.4,0.8,2.1*32
2018-01-12 03:03:12 1515744192.430083: $GPZDA,080313.00,12,01,2018,00,00*66
2018-01-12 03:03:12 1515744192.430256: $GPGGA,080313,3946.9701,N,08404.9830,W,2,11,0.80,301.91,M,-33.325,M,,*7C
2018-01-12 03:03:12 1515744192.430323: $GPRMC,080313,A,3946.9701,N,08404.9830,W,0.0000,0.000,120118,,*30
2018-01-12 03:03:12 1515744192.430385: $GPGSA,A,3,2,6,12,17,19,24,25,3,5,9,138,,2.4,0.8,2.1*32
2018-01-12 03:03:13 1515744193.418280: $GPZDA,080314.00,12,01,2018,00,00*61
2018-01-12 03:03:13 1515744193.421891: $GPGGA,080314,3946.9701,N,08404.9830,W,2,11,0.80,301.91,M,-33.325,M,,*7B
2018-01-12 03:03:13 1515744193.421998: $GPRMC,080314,A,3946.9701,N,08404.9830,W,0.0000,0.000,120118,,*37
2018-01-12 03:03:13 1515744193.422064: $GPGSA,A,3,2,6,12,17,19,24,25,3,5,9,138,,2.4,0.8,2.1*32
2018-01-12 03:03:14 1515744194.764822: $GPGSV,3,1,12,02,56,265,47,06,75,001,50,12,42,306,51,17,41,091,41*71
2018-01-12 03:03:14 1515744194.764979: $GPGSV,3,2,12,19,58,073,42,24,10,256,29,25,07,322,34,03,05,034,27*71
2018-01-12 03:03:14 1515744194.765046: $GPGSV,3,3,12,05,13,193,32,09,07,100,23,23,06,067,00,138,38,213,38*45
2018-01-12 03:03:14 1515744194.878426: $GPZDA,080315.00,12,01,2018,00,00*60
2018-01-12 03:03:14 1515744194.878547: $GPGGA,080315,3946.9701,N,08404.9830,W,2,11,0.80,301.91,M,-33.325,M,,*7A
2018-01-12 03:03:14 1515744194.878611: $GPRMC,080315,A,3946.9701,N,08404.9830,W,0.0000,0.000,120118,,*36
2018-01-12 03:03:14 1515744194.878675: $GPGSA,A,3,2,6,12,17,19,24,25,3,5,9,138,,2.4,0.8,2.1*32
2018-01-12 03:03:15 1515744195.418931: $GPZDA,080316.00,12,01,2018,00,00*63
2018-01-12 03:03:15 1515744195.419117: $GPGGA,080316,3946.9701,N,08404.9830,W,2,11,0.80,301.91,M,-33.325,M,,*79
2018-01-12 03:03:15 1515744195.419188: $GPRMC,080316,A,3946.9701,N,08404.9830,W,0.0000,0.000,120118,,*35
2018-01-12 03:03:15 1515744195.419251: $GPGSA,A,3,2,6,12,17,19,24,25,3,5,9,138,,2.4,0.8,2.1*32
