2017-11-16 15:56:49 1510865809.526037: {"class":"VERSION","release":"3.17","rev":"3.17","proto_major":3,"proto_minor":12}
2017-11-16 15:56:49 1510865809.526640: {"class":"DEVICES","devices":[{"class":"DEVICE","path":"/dev/ttyUSB0","driver":"SiRF","subtype":"9\u0006GSD4e_4.1.2-P1_RPATCH.05-F-GPS-4R-1510281 11/03/2015 307","activated":"2017-11-16T20:56:49.411Z","flags":1,"native":1,"bps":4800,"parity":"N","stopbits":1,"cycle":1.00}]}
2017-11-16 15:56:49 1510865809.526755: {"class":"WATCH","enable":true,"json":false,"nmea":true,"raw":0,"scaled":false,"timing":false,"split24":false,"pps":false}
2017-11-16 15:56:50 1510865810.588372: $GPGSV,3,1,11,11,05,319,41,10,81,012,50,14,40,267,45,31,12,205,31*79
2017-11-16 15:56:50 1510865810.588524: $GPGSV,3,2,11,18,59,117,48,25,13,132,34,21,15,177,28,24,33,049,51*77
2017-11-16 15:56:50 1510865810.588584: $GPGSV,3,3,11,32,56,283,47,12,18,094,47,138,38,213,44*74
2017-11-16 15:56:50 1510865810.701839: $GPZDA,205648.00,16,11,2017,00,00*68
2017-11-16 15:56:50 1510865810.702006: $GPGGA,205648,3946.9585,N,08404.9843,W,2,11,0.80,307.35,M,-33.324,M,,*7B
2017-11-16 15:56:50 1510865810.702068: $GPRMC,205648,A,3946.9585,N,08404.9843,W,0.0000,0.000,161117,,*34
2017-11-16 15:56:50 1510865810.702123: $GPGSA,A,3,11,10,14,31,18,25,21,24,32,12,138,,1.6,0.8,1.3*0A
2017-11-16 15:56:51 1510865811.152163: $GPZDA,205649.00,16,11,2017,00,00*69
2017-11-16 15:56:51 1510865811.152283: $GPGGA,205649,3946.9585,N,08404.9843,W,2,11,0.80,307.35,M,-33.324,M,,*7A
2017-11-16 15:56:51 1510865811.152314: $GPRMC,205649,A,3946.9585,N,08404.9843,W,0.0000,0.000,161117,,*35
2017-11-16 15:56:51 1510865811.152343: $GPGSA,A,3,11,10,14,31,18,25,21,24,32,12,138,,1.6,0.8,1.3*0A
2017-11-16 15:56:51 1510865811.778135: $GPZDA,205650.00,16,11,2017,00,00*61
2017-11-16 15:56:51 1510865811.778310: $GPGGA,205650,3946.9585,N,08404.9843,W,2,11,0.80,307.35,M,-33.324,M,,*72
2017-11-16 15:56:51 1510865811.778371: $GPRMC,205650,A,3946.9585,N,08404.9843,W,0.0000,0.000,161117,,*3D
2017-11-16 15:56:51 1510865811.778428: $GPGSA,A,3,11,10,14,31,18,25,21,24,32,12,138,,1.6,0.8,1.3*0A
2017-11-16 15:56:52 1510865812.697672: $GPGSV,3,1,11,11,05,319,40,10,81,012,50,14,40,267,46,31,12,205,31*7B
2017-11-16 15:56:52 1510865812.697847: $GPGSV,3,2,11,18,59,117,48,25,13,132,34,21,15,177,28,24,33,049,51*77
2017-11-16 15:56:52 1510865812.697910: $GPGSV,3,3,11,32,56,283,48,12,18,094,47,138,38,213,45*7A
2017-11-16 15:56:52 1510865812.821856: $GPZDA,205651.00,16,11,2017,00,00*60
2017-11-16 15:56:52 1510865812.822018: $GPGGA,205651,3946.9585,N,08404.9843,W,2,11,0.80,307.35,M,-33.324,M,,*73
2017-11-16 15:56:52 1510865812.822080: $GPRMC,205651,A,3946.9585,N,08404.9843,W,0.0000,0.000,161117,,*3C
2017-11-16 15:56:52 1510865812.822164: $GPGSA,A,3,11,10,14,31,18,25,21,24,32,12,138,,1.6,0.8,1.3*0A
2017-11-16 15:56:53 1510865813.367409: $GPZDA,205652.00,16,11,2017,00,00*63
2017-11-16 15:56:53 1510865813.367516: $GPGGA,205652,3946.9585,N,08404.9843,W,2,11,0.80,307.35,M,-33.324,M,,*70
2017-11-16 15:56:53 1510865813.367547: $GPRMC,205652,A,3946.9585,N,08404.9843,W,0.0000,0.000,161117,,*3F
2017-11-16 15:56:53 1510865813.367575: $GPGSA,A,3,11,10,14,31,18,25,21,24,32,12,138,,1.6,0.8,1.3*0A
2017-11-16 15:56:54 1510865814.368003: $GPZDA,205653.00,16,11,2017,00,00*62
2017-11-16 15:56:54 1510865814.368230: $GPGGA,205653,3946.9585,N,08404.9843,W,2,11,0.80,307.35,M,-33.324,M,,*71
2017-11-16 15:56:54 1510865814.368326: $GPRMC,205653,A,3946.9585,N,08404.9843,W,0.0000,0.000,161117,,*3E
2017-11-16 15:56:54 1510865814.368385: $GPGSA,A,3,11,10,14,31,18,25,21,24,32,12,138,,1.6,0.8,1.3*0A
2017-11-16 15:56:56 1510865816.586630: $GPGSV,3,1,12,11,05,319,40,10,82,013,50,14,40,267,45,31,12,205,31*79
2017-11-16 15:56:56 1510865816.586745: $GPGSV,3,2,12,18,59,117,48,25,13,132,35,21,15,177,22,24,33,049,51*7F
2017-11-16 15:56:56 1510865816.586776: $GPGSV,3,3,12,15,01,075,19,32,56,283,48,12,18,094,47,138,38,213,44*47
2017-11-16 15:56:56 1510865816.699480: $GPZDA,205654.00,16,11,2017,00,00*65
2017-11-16 15:56:56 1510865816.699567: $GPGGA,205654,3946.9585,N,08404.9843,W,2,12,0.80,307.35,M,-33.324,M,,*75
2017-11-16 15:56:56 1510865816.699630: $GPRMC,205654,A,3946.9585,N,08404.9843,W,0.0000,0.000,161117,,*39
2017-11-16 15:56:56 1510865816.699658: $GPGSA,A,3,11,10,14,31,18,25,21,24,15,32,12,138,1.6,0.8,1.3*0E
2017-11-16 15:56:57 1510865817.325047: $GPZDA,205655.00,16,11,2017,00,00*64
2017-11-16 15:56:57 1510865817.325181: $GPGGA,205655,3946.9585,N,08404.9843,W,2,12,0.80,307.35,M,-33.324,M,,*74
2017-11-16 15:56:57 1510865817.325215: $GPRMC,205655,A,3946.9585,N,08404.9843,W,0.0000,0.000,161117,,*38
2017-11-16 15:56:57 1510865817.325260: $GPGSA,A,3,11,10,14,31,18,25,21,24,15,32,12,138,1.6,0.8,1.3*0E
2017-11-16 15:56:57 1510865817.777654: $GPZDA,205656.00,16,11,2017,00,00*67
2017-11-16 15:56:57 1510865817.780844: $GPGGA,205656,3946.9585,N,08404.9843,W,2,12,0.80,307.35,M,-33.324,M,,*77
2017-11-16 15:56:57 1510865817.780969: $GPRMC,205656,A,3946.9585,N,08404.9843,W,0.0000,0.000,161117,,*3B
2017-11-16 15:56:57 1510865817.781029: $GPGSA,A,3,11,10,14,31,18,25,21,24,15,32,12,138,1.6,0.8,1.3*0E
2017-11-16 15:56:58 1510865818.702338: $GPGSV,3,1,12,11,05,319,40,10,82,013,50,14,40,267,46,31,12,205,31*7A
2017-11-16 15:56:58 1510865818.702509: $GPGSV,3,2,12,18,59,117,48,25,13,132,35,21,15,177,25,24,33,049,51*78
2017-11-16 15:56:58 1510865818.702570: $GPGSV,3,3,12,15,01,075,19,32,56,283,48,12,18,094,47,138,38,213,44*47
2017-11-16 15:56:58 1510865818.815690: $GPZDA,205657.00,16,11,2017,00,00*66
2017-11-16 15:56:58 1510865818.815849: $GPGGA,205657,3946.9585,N,08404.9843,W,2,12,0.80,307.35,M,-33.324,M,,*76
2017-11-16 15:56:58 1510865818.815910: $GPRMC,205657,A,3946.9585,N,08404.9843,W,0.0000,0.000,161117,,*3A
2017-11-16 15:56:58 1510865818.815965: $GPGSA,A,3,11,10,14,31,18,25,21,24,15,32,12,138,1.6,0.8,1.3*0E
2017-11-16 15:56:59 1510865819.382664: $GPZDA,205658.00,16,11,2017,00,00*69
2017-11-16 15:56:59 1510865819.382827: $GPGGA,205658,3946.9585,N,08404.9843,W,2,12,0.80,307.35,M,-33.324,M,,*79
2017-11-16 15:56:59 1510865819.382888: $GPRMC,205658,A,3946.9585,N,08404.9843,W,0.0000,0.000,161117,,*35
2017-11-16 15:56:59 1510865819.382945: $GPGSA,A,3,11,10,14,31,18,25,21,24,15,32,12,138,1.6,0.8,1.3*0E
