2018-01-12 03:08:42 1515744522.383843: {"class":"VERSION","release":"3.16","rev":"3.16-4","proto_major":3,"proto_minor":11}
2018-01-12 03:08:42 1515744522.384262: {"class":"DEVICES","devices":[{"class":"DEVICE","path":"/dev/ttyUSB0","driver":"SiRF","subtype":"9\u0006GSD4e_4.1.2-P1_RPATCH.05-F-GPS-4R-1510281 11/03/2015 307","activated":"2018-01-12T08:08:42.280Z","flags":1,"native":1,"bps":4800,"parity":"N","stopbits":1,"cycle":1.00}]}
2018-01-12 03:08:42 1515744522.384394: {"class":"WATCH","enable":true,"json":false,"nmea":true,"raw":0,"scaled":false,"timing":false,"split24":false,"pps":false}
2018-01-12 03:08:42 1515744522.891404: $GPZDA,080843.58,12,01,2018,00,00*65
2018-01-12 03:08:42 1515744522.891570: $GPGGA,080843,3946.9523,N,08404.9818,W,1,12,2.60,291.60,M,-33.324,M,,*71
2018-01-12 03:08:42 1515744522.891635: $GPRMC,080843,A,3946.9523,N,08404.9818,W,0.2202,353.469,120118,,*3A
2018-01-12 03:08:42 1515744522.891699: $GPGSA,A,3,2,6,12,17,19,25,5,9,23,24,3,138,2.4,2.6,2.1*3F
2018-01-12 03:08:42 1515744522.891773: $GPGBS,080843,11.98,M,14.47,M,47.88,M*0D
2018-01-12 03:08:44 1515744524.019156: $GPZDA,080844.26,12,01,2018,00,00*6B
2018-01-12 03:08:44 1515744524.019318: $GPGGA,080844,3946.9523,N,08404.9818,W,1,12,2.60,291.60,M,-33.324,M,,*76
2018-01-12 03:08:44 1515744524.019385: $GPRMC,080844,A,3946.9523,N,08404.9818,W,0.2758,128.233,120118,,*30
2018-01-12 03:08:44 1515744524.019449: $GPGSA,A,3,2,6,12,17,19,25,5,9,23,24,3,138,2.4,2.6,2.1*3F
2018-01-12 03:08:45 1515744525.206484: $GPGSV,3,1,12,02,58,268,47,06,73,009,49,12,44,304,52,17,39,094,41*79
2018-01-12 03:08:45 1515744525.206649: $GPGSV,3,2,12,19,57,078,44,25,09,321,41,05,16,193,34,03,03,034,08*74
2018-01-12 03:08:45 1515744525.206714: $GPGSV,3,3,12,09,08,097,08,23,07,064,09,24,09,255,12,138,38,213,00*4F
2018-01-12 03:08:45 1515744525.320093: $GPZDA,080845.00,12,01,2018,00,00*6E
2018-01-12 03:08:45 1515744525.320220: $GPGGA,080845,3946.9523,N,08404.9818,W,1,07,1.00,291.60,M,-33.324,M,,*76
2018-01-12 03:08:45 1515744525.320286: $GPRMC,080845,A,3946.9523,N,08404.9818,W,0.0407,322.014,120118,,*35
2018-01-12 03:08:45 1515744525.320346: $GPGSA,A,3,2,6,12,17,19,25,5,,,,,,2.4,1.0,2.1*0D
2018-01-12 03:08:45 1515744525.772250: $GPZDA,080846.00,12,01,2018,00,00*6D
2018-01-12 03:08:45 1515744525.772415: $GPGGA,080846,3946.9527,N,08404.9818,W,1,07,0.80,292.24,M,-33.324,M,,*7B
2018-01-12 03:08:45 1515744525.772481: $GPRMC,080846,A,3946.9527,N,08404.9818,W,0.4315,34.066,120118,,*03
2018-01-12 03:08:45 1515744525.772543: $GPGSA,A,3,2,6,12,17,19,25,5,,,,,,2.4,0.8,2.1*04
2018-01-12 03:08:46 1515744526.380597: $GPZDA,080847.00,12,01,2018,00,00*6C
2018-01-12 03:08:46 1515744526.380740: $GPGGA,080847,3946.9527,N,08404.9818,W,1,07,0.80,292.24,M,-33.324,M,,*7A
2018-01-12 03:08:46 1515744526.380806: $GPRMC,080847,A,3946.9527,N,08404.9818,W,0.0000,0.000,120118,,*36
2018-01-12 03:08:46 1515744526.380866: $GPGSA,A,3,2,6,12,17,19,25,5,,,,,,2.4,0.8,2.1*04
2018-01-12 03:08:47 1515744527.719347: $GPGSV,3,1,12,02,58,268,47,06,73,009,50,12,44,304,52,17,39,094,41*71
2018-01-12 03:08:47 1515744527.719512: $GPGSV,3,2,12,19,57,078,43,25,09,321,42,05,16,193,34,03,03,034,18*71
2018-01-12 03:08:47 1515744527.719577: $GPGSV,3,3,12,09,08,097,21,23,07,064,22,24,09,255,27,138,38,213,34*4C
2018-01-12 03:08:47 1515744527.832955: $GPZDA,080848.00,12,01,2018,00,00*63
2018-01-12 03:08:47 1515744527.833085: $GPGGA,080848,3946.9527,N,08404.9825,W,1,12,0.80,292.17,M,-33.324,M,,*7F
2018-01-12 03:08:47 1515744527.833153: $GPRMC,080848,A,3946.9527,N,08404.9825,W,0.0000,0.000,120118,,*37
2018-01-12 03:08:47 1515744527.833214: $GPGSA,A,3,2,6,12,17,19,25,5,3,9,23,24,138,2.4,0.8,2.1*33
2018-01-12 03:08:48 1515744528.382600: $GPZDA,080849.00,12,01,2018,00,00*62
2018-01-12 03:08:48 1515744528.382771: $GPGGA,080849,3946.9527,N,08404.9825,W,1,12,0.80,292.17,M,-33.324,M,,*7E
2018-01-12 03:08:48 1515744528.382838: $GPRMC,080849,A,3946.9527,N,08404.9825,W,0.0000,0.000,120118,,*36
2018-01-12 03:08:48 1515744528.382900: $GPGSA,A,3,2,6,12,17,19,25,5,3,9,23,24,138,2.4,0.8,2.1*33
