2017-11-16 15:21:29 1510863689.092367: {"class":"VERSION","release":"3.17","rev":"3.17","proto_major":3,"proto_minor":12}
2017-11-16 15:21:29 1510863689.092770: {"class":"DEVICES","devices":[{"class":"DEVICE","path":"/dev/ttyUSB0","driver":"SiRF","subtype":"9\u0006GSD4e_4.1.2-P1_RPATCH.05-F-GPS-4R-1510281 11/03/2015 307","activated":"2017-11-16T20:21:28.980Z","flags":1,"native":1,"bps":4800,"parity":"N","stopbits":1,"cycle":1.00}]}
2017-11-16 15:21:29 1510863689.092884: {"class":"WATCH","enable":true,"json":false,"nmea":true,"raw":0,"scaled":false,"timing":false,"split24":false,"pps":false}
2017-11-16 15:21:29 1510863689.373597: $GPZDA,202128.00,16,11,2017,00,00*6E
2017-11-16 15:21:29 1510863689.373770: $GPGGA,202128,3946.9575,N,08404.9864,W,2,12,0.80,306.59,M,-33.324,M,,*7F
2017-11-16 15:21:29 1510863689.373832: $GPRMC,202128,A,3946.9575,N,08404.9864,W,0.0000,0.000,161117,,*38
2017-11-16 15:21:29 1510863689.373889: $GPGSA,A,3,8,10,14,15,18,20,21,24,27,32,12,138,1.6,0.8,1.3*34
2017-11-16 15:21:30 1510863690.388442: $GPZDA,202129.00,16,11,2017,00,00*6F
2017-11-16 15:21:30 1510863690.388606: $GPGGA,202129,3946.9575,N,08404.9864,W,2,12,0.80,306.59,M,-33.324,M,,*7E
2017-11-16 15:21:30 1510863690.388666: $GPRMC,202129,A,3946.9575,N,08404.9864,W,0.0000,0.000,161117,,*39
2017-11-16 15:21:30 1510863690.388722: $GPGSA,A,3,8,10,14,15,18,20,21,24,27,32,12,138,1.6,0.8,1.3*34
2017-11-16 15:21:31 1510863691.709932: $GPGSV,3,1,12,08,06,295,34,10,67,327,51,14,27,252,47,15,13,064,31*7D
2017-11-16 15:21:31 1510863691.710041: $GPGSV,3,2,12,18,72,087,46,20,10,117,31,21,32,180,44,24,46,061,50*71
2017-11-16 15:21:31 1510863691.710072: $GPGSV,3,3,12,27,08,262,40,32,44,262,48,12,08,109,28,138,38,213,44*46
2017-11-16 15:21:31 1510863691.823031: $GPZDA,202130.00,16,11,2017,00,00*67
2017-11-16 15:21:31 1510863691.823147: $GPGGA,202130,3946.9575,N,08404.9864,W,2,12,0.80,306.59,M,-33.324,M,,*76
2017-11-16 15:21:31 1510863691.823184: $GPRMC,202130,A,3946.9575,N,08404.9864,W,0.0000,0.000,161117,,*31
2017-11-16 15:21:31 1510863691.823213: $GPGSA,A,3,8,10,14,15,18,20,21,24,27,32,12,138,1.6,0.8,1.3*34
2017-11-16 15:21:32 1510863692.382471: $GPZDA,202131.00,16,11,2017,00,00*66
2017-11-16 15:21:32 1510863692.382593: $GPGGA,202131,3946.9575,N,08404.9864,W,2,12,0.80,306.59,M,-33.324,M,,*77
2017-11-16 15:21:32 1510863692.382624: $GPRMC,202131,A,3946.9575,N,08404.9864,W,0.0000,0.000,161117,,*30
2017-11-16 15:21:32 1510863692.382653: $GPGSA,A,3,8,10,14,15,18,20,21,24,27,32,12,138,1.6,0.8,1.3*34
2017-11-16 15:21:33 1510863693.389552: $GPZDA,202132.00,16,11,2017,00,00*65
2017-11-16 15:21:33 1510863693.389672: $GPGGA,202132,3946.9575,N,08404.9864,W,2,12,0.80,306.59,M,-33.324,M,,*74
2017-11-16 15:21:33 1510863693.389704: $GPRMC,202132,A,3946.9575,N,08404.9864,W,0.0000,0.000,161117,,*33
2017-11-16 15:21:33 1510863693.389732: $GPGSA,A,3,8,10,14,15,18,20,21,24,27,32,12,138,1.6,0.8,1.3*34
2017-11-16 15:21:34 1510863694.724490: $GPGSV,3,1,12,08,06,295,34,10,67,327,51,14,27,252,47,15,13,064,31*7D
2017-11-16 15:21:34 1510863694.724607: $GPGSV,3,2,12,18,72,087,46,20,10,117,31,21,32,180,44,24,46,061,50*71
2017-11-16 15:21:34 1510863694.724637: $GPGSV,3,3,12,27,08,262,40,32,44,262,47,12,08,109,28,138,38,213,44*49
2017-11-16 15:21:34 1510863694.837554: $GPZDA,202133.00,16,11,2017,00,00*64
2017-11-16 15:21:34 1510863694.837669: $GPGGA,202133,3946.9575,N,08404.9864,W,2,12,0.80,306.59,M,-33.324,M,,*75
2017-11-16 15:21:34 1510863694.837700: $GPRMC,202133,A,3946.9575,N,08404.9864,W,0.0000,0.000,161117,,*32
2017-11-16 15:21:34 1510863694.837737: $GPGSA,A,3,8,10,14,15,18,20,21,24,27,32,12,138,1.6,0.8,1.3*34
2017-11-16 15:21:35 1510863695.372040: $GPZDA,202134.00,16,11,2017,00,00*63
2017-11-16 15:21:35 1510863695.372153: $GPGGA,202134,3946.9575,N,08404.9864,W,2,12,0.80,306.59,M,-33.324,M,,*72
2017-11-16 15:21:35 1510863695.372185: $GPRMC,202134,A,3946.9575,N,08404.9864,W,0.0000,0.000,161117,,*35
2017-11-16 15:21:35 1510863695.372212: $GPGSA,A,3,8,10,14,15,18,20,21,24,27,32,12,138,1.6,0.8,1.3*34
2017-11-16 15:21:36 1510863696.388569: $GPZDA,202135.00,16,11,2017,00,00*62
2017-11-16 15:21:36 1510863696.388731: $GPGGA,202135,3946.9575,N,08404.9864,W,2,12,0.80,306.59,M,-33.324,M,,*73
2017-11-16 15:21:36 1510863696.388767: $GPRMC,202135,A,3946.9575,N,08404.9864,W,0.0000,0.000,161117,,*34
2017-11-16 15:21:36 1510863696.388796: $GPGSA,A,3,8,10,14,15,18,20,21,24,27,32,12,138,1.6,0.8,1.3*34
2017-11-16 15:21:37 1510863697.726161: $GPGSV,3,1,12,08,06,295,33,10,67,327,51,14,27,252,47,15,13,064,31*7A
2017-11-16 15:21:37 1510863697.726266: $GPGSV,3,2,12,18,72,087,47,20,10,117,31,21,32,180,43,24,46,061,50*77
2017-11-16 15:21:37 1510863697.726297: $GPGSV,3,3,12,27,08,262,40,32,44,262,47,12,08,109,29,138,38,213,44*48
2017-11-16 15:21:37 1510863697.838894: $GPZDA,202136.00,16,11,2017,00,00*61
2017-11-16 15:21:37 1510863697.839021: $GPGGA,202136,3946.9575,N,08404.9864,W,2,12,0.80,306.59,M,-33.324,M,,*70
2017-11-16 15:21:37 1510863697.839053: $GPRMC,202136,A,3946.9575,N,08404.9864,W,0.0000,0.000,161117,,*37
2017-11-16 15:21:37 1510863697.839082: $GPGSA,A,3,8,10,14,15,18,20,21,24,27,32,12,138,1.6,0.8,1.3*34
2017-11-16 15:21:38 1510863698.366066: $GPZDA,202137.00,16,11,2017,00,00*60
2017-11-16 15:21:38 1510863698.366180: $GPGGA,202137,3946.9575,N,08404.9864,W,2,12,0.80,306.59,M,-33.324,M,,*71
2017-11-16 15:21:38 1510863698.366210: $GPRMC,202137,A,3946.9575,N,08404.9864,W,0.0000,0.000,161117,,*36
2017-11-16 15:21:38 1510863698.366238: $GPGSA,A,3,8,10,14,15,18,20,21,24,27,32,12,138,1.6,0.8,1.3*34
