2017-12-01 11:33:57 1512146037.856734: {"class":"VERSION","release":"3.16","rev":"3.16-4","proto_major":3,"proto_minor":11}
2017-12-01 11:33:57 1512146037.857141: {"class":"DEVICES","devices":[{"class":"DEVICE","path":"/dev/ttyUSB0","driver":"SiRF","subtype":"9\u0006GSD4e_4.1.2-P1_RPATCH.05-F-GPS-4R-1510281 11/03/2015 307","activated":"2017-12-01T16:33:57.471Z","flags":1,"native":1,"bps":4800,"parity":"N","stopbits":1,"cycle":1.00}]}
2017-12-01 11:33:57 1512146037.857263: {"class":"WATCH","enable":true,"json":false,"nmea":true,"raw":0,"scaled":false,"timing":false,"split24":false,"pps":false}
2017-12-01 11:33:58 1512146038.665630: $GPGSV,3,1,11,10,10,268,42,13,47,052,46,15,78,090,48,18,40,282,43*79
2017-12-01 11:33:58 1512146038.665789: $GPGSV,3,2,11,20,65,042,41,21,63,309,46,24,16,151,43,29,29,196,46*7B
2017-12-01 11:33:58 1512146038.665854: $GPGSV,3,3,11,05,17,075,32,27,06,327,25,138,38,213,46*78
2017-12-01 11:33:58 1512146038.779287: $GPZDA,163359.00,01,12,2017,00,00*6B
2017-12-01 11:33:58 1512146038.779456: $GPGGA,163359,3946.9585,N,08404.9825,W,2,11,0.80,299.72,M,-33.324,M,,*78
2017-12-01 11:33:58 1512146038.779522: $GPRMC,163359,A,3946.9585,N,08404.9825,W,0.0000,0.000,011217,,*37
2017-12-01 11:33:58 1512146038.779582: $GPGSA,A,3,10,13,15,18,20,21,24,29,5,27,138,,2.0,0.8,1.5*34
2017-12-01 11:33:59 1512146039.404586: $GPZDA,163400.00,01,12,2017,00,00*60
2017-12-01 11:33:59 1512146039.404779: $GPGGA,163400,3946.9585,N,08404.9825,W,2,11,1.00,299.72,M,-33.324,M,,*7A
2017-12-01 11:33:59 1512146039.404851: $GPRMC,163400,A,3946.9585,N,08404.9825,W,0.0000,0.000,011217,,*3C
2017-12-01 11:33:59 1512146039.404911: $GPGSA,A,3,10,13,15,18,20,21,24,29,5,27,138,,2.0,1.0,1.5*3D
2017-12-01 11:34:00 1512146040.327674: $GPZDA,163401.00,01,12,2017,00,00*61
2017-12-01 11:34:00 1512146040.327859: $GPGGA,163401,3946.9585,N,08404.9825,W,2,11,0.80,299.72,M,-33.324,M,,*72
2017-12-01 11:34:00 1512146040.327928: $GPRMC,163401,A,3946.9585,N,08404.9825,W,0.0000,0.000,011217,,*3D
2017-12-01 11:34:00 1512146040.328016: $GPGSA,A,3,10,13,15,18,20,21,24,29,5,27,138,,2.0,0.8,1.5*34
2017-12-01 11:34:01 1512146041.667202: $GPGSV,3,1,12,10,10,268,41,13,47,052,46,15,78,090,48,18,40,282,44*7E
2017-12-01 11:34:01 1512146041.667384: $GPGSV,3,2,12,20,65,042,41,21,63,309,46,24,16,151,43,29,29,196,46*78
2017-12-01 11:34:01 1512146041.667449: $GPGSV,3,3,12,05,17,075,31,04,16,127,00,27,06,327,25,138,38,213,46*4F
2017-12-01 11:34:01 1512146041.780827: $GPZDA,163402.00,01,12,2017,00,00*62
2017-12-01 11:34:01 1512146041.781018: $GPGGA,163402,3946.9585,N,08404.9825,W,2,11,0.80,299.72,M,-33.324,M,,*71
2017-12-01 11:34:01 1512146041.781103: $GPRMC,163402,A,3946.9585,N,08404.9825,W,0.0000,0.000,011217,,*3E
2017-12-01 11:34:01 1512146041.781164: $GPGSA,A,3,10,13,15,18,20,21,24,29,5,27,138,,2.0,0.8,1.5*34
2017-12-01 11:34:02 1512146042.331248: $GPZDA,163403.00,01,12,2017,00,00*63
2017-12-01 11:34:02 1512146042.331755: $GPGGA,163403,3946.9585,N,08404.9825,W,2,11,0.80,299.72,M,-33.324,M,,*70
2017-12-01 11:34:02 1512146042.331833: $GPRMC,163403,A,3946.9585,N,08404.9825,W,0.0000,0.000,011217,,*3F
2017-12-01 11:34:02 1512146042.331894: $GPGSA,A,3,10,13,15,18,20,21,24,29,5,27,138,,2.0,0.8,1.5*34
2017-12-01 11:34:03 1512146043.339025: $GPZDA,163404.00,01,12,2017,00,00*64
2017-12-01 11:34:03 1512146043.339233: $GPGGA,163404,3946.9581,N,08404.9825,W,2,11,0.80,300.48,M,-33.324,M,,*7B
2017-12-01 11:34:03 1512146043.339301: $GPRMC,163404,A,3946.9581,N,08404.9825,W,0.0000,0.000,011217,,*3C
2017-12-01 11:34:03 1512146043.339361: $GPGSA,A,3,10,13,15,18,20,21,24,29,5,27,138,,2.0,0.8,1.5*34
2017-12-01 11:34:04 1512146044.665022: $GPGSV,3,1,12,10,10,268,41,13,47,052,46,15,78,090,48,18,40,282,43*79
2017-12-01 11:34:04 1512146044.665195: $GPGSV,3,2,12,20,65,042,41,21,63,309,46,24,16,151,43,29,29,196,46*78
2017-12-01 11:34:04 1512146044.665261: $GPGSV,3,3,12,05,17,075,31,04,16,127,00,27,06,327,27,138,38,213,46*4D
2017-12-01 11:34:04 1512146044.778399: $GPZDA,163405.00,01,12,2017,00,00*65
2017-12-01 11:34:04 1512146044.778577: $GPGGA,163405,3946.9581,N,08404.9825,W,2,11,0.80,300.48,M,-33.324,M,,*7A
2017-12-01 11:34:04 1512146044.778710: $GPRMC,163405,A,3946.9581,N,08404.9825,W,0.0000,0.000,011217,,*3D
2017-12-01 11:34:04 1512146044.778774: $GPGSA,A,3,10,13,15,18,20,21,24,29,5,27,138,,2.0,0.8,1.5*34
2017-12-01 11:34:05 1512146045.331090: $GPZDA,163406.00,01,12,2017,00,00*66
2017-12-01 11:34:05 1512146045.331260: $GPGGA,163406,3946.9581,N,08404.9825,W,2,11,0.80,300.48,M,-33.324,M,,*79
2017-12-01 11:34:05 1512146045.331327: $GPRMC,163406,A,3946.9581,N,08404.9825,W,0.0000,0.000,011217,,*3E
2017-12-01 11:34:05 1512146045.331487: $GPGSA,A,3,10,13,15,18,20,21,24,29,5,27,138,,2.0,0.8,1.5*34
2017-12-01 11:34:06 1512146046.334405: $GPZDA,163407.00,01,12,2017,00,00*67
2017-12-01 11:34:06 1512146046.334574: $GPGGA,163407,3946.9581,N,08404.9825,W,2,11,0.80,300.48,M,-33.324,M,,*78
2017-12-01 11:34:06 1512146046.334641: $GPRMC,163407,A,3946.9581,N,08404.9825,W,0.0000,0.000,011217,,*3F
2017-12-01 11:34:06 1512146046.334702: $GPGSA,A,3,10,13,15,18,20,21,24,29,5,27,138,,2.0,0.8,1.5*34
2017-12-01 11:34:07 1512146047.667662: $GPGSV,3,1,12,10,10,268,41,13,47,052,46,15,78,090,48,18,40,282,43*79
2017-12-01 11:34:07 1512146047.667841: $GPGSV,3,2,12,20,65,042,42,21,63,309,45,24,16,151,43,29,29,196,45*7B
2017-12-01 11:34:07 1512146047.667929: $GPGSV,3,3,12,05,17,075,31,04,16,127,00,27,06,327,34,138,38,213,46*4F
2017-12-01 11:34:07 1512146047.782263: $GPZDA,163408.00,01,12,2017,00,00*68
2017-12-01 11:34:07 1512146047.782443: $GPGGA,163408,3946.9581,N,08404.9825,W,2,11,0.80,300.48,M,-33.324,M,,*77
2017-12-01 11:34:07 1512146047.782511: $GPRMC,163408,A,3946.9581,N,08404.9825,W,0.0000,0.000,011217,,*30
2017-12-01 11:34:07 1512146047.782572: $GPGSA,A,3,10,13,15,18,20,21,24,29,5,27,138,,2.0,0.8,1.5*34
