2017-12-01 17:05:52 1512165952.284863: {"class":"VERSION","release":"3.16","rev":"3.16-4","proto_major":3,"proto_minor":11}
2017-12-01 17:05:52 1512165952.285266: {"class":"DEVICES","devices":[{"class":"DEVICE","path":"/dev/ttyUSB0","driver":"SiRF","subtype":"9\u0006GSD4e_4.1.2-P1_RPATCH.05-F-GPS-4R-1510281 11/03/2015 307","activated":"2017-12-01T22:05:52.186Z","flags":1,"native":1,"bps":4800,"parity":"N","stopbits":1,"cycle":1.00}]}
2017-12-01 17:05:52 1512165952.285385: {"class":"WATCH","enable":true,"json":false,"nmea":true,"raw":0,"scaled":false,"timing":false,"split24":false,"pps":false}
2017-12-01 17:05:53 1512165953.149929: $GPZDA,220553.38,01,12,2017,00,00*68
2017-12-01 17:05:53 1512165953.150106: $GPGGA,220553,3946.9605,N,08404.9774,W,1,11,1.40,299.90,M,-33.324,M,,*72
2017-12-01 17:05:53 1512165953.150174: $GPRMC,220553,A,3946.9605,N,08404.9774,W,0.4844,93.794,011217,,*03
2017-12-01 17:05:53 1512165953.150235: $GPGSA,A,3,1,3,10,12,14,22,25,26,31,32,138,,2.0,1.4,1.5*0E
2017-12-01 17:05:53 1512165953.150293: $GPGBS,220553,10.70,M,15.43,M,35.28,M*04
2017-12-01 17:05:54 1512165954.314849: $GPGSV,3,1,12,01,21,283,40,03,13,316,42,10,31,154,34,14,70,010,46*71
2017-12-01 17:05:54 1512165954.315028: $GPGSV,3,2,12,22,32,307,46,26,17,180,37,31,72,249,47,32,61,064,46*7E
2017-12-01 17:05:54 1512165954.315113: $GPGSV,3,3,12,12,13,037,18,18,03,148,06,25,39,069,06,138,38,213,00*42
2017-12-01 17:05:54 1512165954.428311: $GPZDA,220554.00,01,12,2017,00,00*64
2017-12-01 17:05:54 1512165954.428465: $GPGGA,220554,3946.9605,N,08404.9774,W,1,09,0.80,299.90,M,-33.324,M,,*71
2017-12-01 17:05:54 1512165954.428531: $GPRMC,220554,A,3946.9605,N,08404.9774,W,0.0000,0.000,011217,,*38
2017-12-01 17:05:54 1512165954.428592: $GPGSA,A,3,1,3,10,14,22,26,31,32,12,,,,2.0,0.8,1.5*3E
2017-12-01 17:05:54 1512165954.880378: $GPZDA,220555.00,01,12,2017,00,00*65
2017-12-01 17:05:54 1512165954.880564: $GPGGA,220555,3946.9613,N,08404.9773,W,1,09,0.80,299.78,M,-33.324,M,,*76
2017-12-01 17:05:54 1512165954.880632: $GPRMC,220555,A,3946.9613,N,08404.9773,W,0.0000,0.000,011217,,*39
2017-12-01 17:05:54 1512165954.880692: $GPGSA,A,3,1,3,10,14,22,26,31,32,12,,,,2.0,0.8,1.5*3E
2017-12-01 17:05:55 1512165955.437869: $GPZDA,220556.00,01,12,2017,00,00*66
2017-12-01 17:05:55 1512165955.438052: $GPGGA,220556,3946.9613,N,08404.9773,W,1,09,0.80,299.78,M,-33.324,M,,*75
2017-12-01 17:05:55 1512165955.438120: $GPRMC,220556,A,3946.9613,N,08404.9773,W,0.0000,0.000,011217,,*3A
2017-12-01 17:05:55 1512165955.438182: $GPGSA,A,3,1,3,10,14,22,26,31,32,12,,,,2.0,0.8,1.5*3E
2017-12-01 17:05:56 1512165956.774027: $GPGSV,3,1,12,01,21,283,40,03,13,316,42,10,31,154,33,14,70,010,46*76
2017-12-01 17:05:56 1512165956.774207: $GPGSV,3,2,12,22,32,307,46,26,17,180,36,31,72,249,48,32,61,064,47*71
2017-12-01 17:05:56 1512165956.774273: $GPGSV,3,3,12,12,13,037,29,18,03,148,19,25,39,069,20,138,38,213,40*4E
2017-12-01 17:05:56 1512165956.887367: $GPZDA,220557.00,01,12,2017,00,00*67
2017-12-01 17:05:56 1512165956.887539: $GPGGA,220557,3946.9616,N,08404.9765,W,1,12,0.80,299.09,M,-33.324,M,,*7A
2017-12-01 17:05:56 1512165956.887606: $GPRMC,220557,A,3946.9616,N,08404.9765,W,0.0000,0.000,011217,,*39
2017-12-01 17:05:56 1512165956.887666: $GPGSA,A,3,1,3,10,14,22,26,31,32,12,18,25,138,2.0,0.8,1.5*0A
2017-12-01 17:05:57 1512165957.437068: $GPZDA,220558.00,01,12,2017,00,00*68
2017-12-01 17:05:57 1512165957.437258: $GPGGA,220558,3946.9616,N,08404.9765,W,1,12,0.80,299.09,M,-33.324,M,,*75
2017-12-01 17:05:57 1512165957.437327: $GPRMC,220558,A,3946.9616,N,08404.9765,W,0.0000,0.000,011217,,*36
2017-12-01 17:05:57 1512165957.437388: $GPGSA,A,3,1,3,10,14,22,26,31,32,12,18,25,138,2.0,0.8,1.5*0A
2017-12-01 17:05:58 1512165958.436601: $GPZDA,220559.00,01,12,2017,00,00*69
2017-12-01 17:05:58 1512165958.436774: $GPGGA,220559,3946.9616,N,08404.9765,W,1,12,0.80,299.09,M,-33.324,M,,*74
2017-12-01 17:05:58 1512165958.436841: $GPRMC,220559,A,3946.9616,N,08404.9765,W,0.0000,0.000,011217,,*37
2017-12-01 17:05:58 1512165958.436902: $GPGSA,A,3,1,3,10,14,22,26,31,32,12,18,25,138,2.0,0.8,1.5*0A
2017-12-01 17:05:58 1512165958.437035: $GPGBS,220559,10.70,M,15.43,M,35.28,M*0E
2017-12-01 17:05:59 1512165959.773485: $GPGSV,3,1,12,01,21,283,40,03,13,316,42,10,31,154,33,14,70,010,46*76
2017-12-01 17:05:59 1512165959.773694: $GPGSV,3,2,12,22,32,307,46,26,17,180,36,31,72,249,48,32,61,064,47*71
2017-12-01 17:05:59 1512165959.773762: $GPGSV,3,3,12,12,13,037,29,18,03,148,19,25,39,069,20,138,38,213,40*4E
2017-12-01 17:05:59 1512165959.886788: $GPZDA,220600.00,01,12,2017,00,00*66
2017-12-01 17:05:59 1512165959.886943: $GPGGA,220600,3946.9619,N,08404.9758,W,1,12,0.80,298.41,M,-33.324,M,,*77
2017-12-01 17:05:59 1512165959.887010: $GPRMC,220600,A,3946.9619,N,08404.9758,W,0.0000,0.000,011217,,*39
2017-12-01 17:05:59 1512165959.887071: $GPGSA,A,3,1,3,10,14,22,26,31,32,12,18,25,138,2.0,0.8,1.5*0A
2017-12-01 17:06:00 1512165960.439420: $GPZDA,220601.00,01,12,2017,00,00*67
2017-12-01 17:06:00 1512165960.439605: $GPGGA,220601,3946.9619,N,08404.9758,W,1,12,0.80,298.41,M,-33.324,M,,*76
2017-12-01 17:06:00 1512165960.439672: $GPRMC,220601,A,3946.9619,N,08404.9758,W,0.0000,0.000,011217,,*38
2017-12-01 17:06:00 1512165960.439734: $GPGSA,A,3,1,3,10,14,22,26,31,32,12,18,25,138,2.0,0.8,1.5*0A
2017-12-01 17:06:01 1512165961.438247: $GPZDA,220602.00,01,12,2017,00,00*64
2017-12-01 17:06:01 1512165961.438420: $GPGGA,220602,3946.9619,N,08404.9758,W,1,12,0.80,298.41,M,-33.324,M,,*75
2017-12-01 17:06:01 1512165961.438487: $GPRMC,220602,A,3946.9619,N,08404.9758,W,0.0000,0.000,011217,,*3B
2017-12-01 17:06:01 1512165961.438553: $GPGSA,A,3,1,3,10,14,22,26,31,32,12,18,25,138,2.0,0.8,1.5*0A
2017-12-01 17:06:02 1512165962.773862: $GPGSV,3,1,12,01,21,283,39,03,13,316,42,10,31,154,26,14,70,010,46*7C
2017-12-01 17:06:02 1512165962.774046: $GPGSV,3,2,12,22,32,307,46,26,17,180,36,31,72,249,48,32,61,064,47*71
2017-12-01 17:06:02 1512165962.774115: $GPGSV,3,3,12,12,13,037,28,18,03,148,19,25,39,069,27,138,38,213,40*48
2017-12-01 17:06:02 1512165962.887221: $GPZDA,220603.00,01,12,2017,00,00*65
2017-12-01 17:06:02 1512165962.887386: $GPGGA,220603,3946.9619,N,08404.9758,W,1,12,0.80,298.41,M,-33.324,M,,*74
2017-12-01 17:06:02 1512165962.887452: $GPRMC,220603,A,3946.9619,N,08404.9758,W,0.0000,0.000,011217,,*3A
2017-12-01 17:06:02 1512165962.887514: $GPGSA,A,3,1,3,10,14,22,26,31,32,12,18,25,138,2.0,0.8,1.5*0A
2017-12-01 17:06:03 1512165963.437103: $GPZDA,220604.00,01,12,2017,00,00*62
2017-12-01 17:06:03 1512165963.437291: $GPGGA,220604,3946.9622,N,08404.9750,W,1,12,0.80,297.72,M,-33.324,M,,*7C
2017-12-01 17:06:03 1512165963.437358: $GPRMC,220604,A,3946.9622,N,08404.9750,W,0.5951,58.684,011217,,*02
2017-12-01 17:06:03 1512165963.437420: $GPGSA,A,3,1,3,10,14,22,26,31,32,12,18,25,138,2.0,0.8,1.5*0A
2017-12-01 17:06:04 1512165964.437760: $GPZDA,220605.00,01,12,2017,00,00*63
2017-12-01 17:06:04 1512165964.437934: $GPGGA,220605,3946.9622,N,08404.9750,W,1,12,0.80,297.72,M,-33.324,M,,*7D
2017-12-01 17:06:04 1512165964.438002: $GPRMC,220605,A,3946.9622,N,08404.9750,W,0.4207,219.347,011217,,*37
2017-12-01 17:06:04 1512165964.438063: $GPGSA,A,3,1,3,10,14,22,26,31,32,12,18,25,138,2.0,0.8,1.5*0A
2017-12-01 17:06:05 1512165965.772264: $GPGSV,3,1,12,01,21,283,40,03,13,316,43,10,31,154,30,14,70,010,45*77
2017-12-01 17:06:05 1512165965.772463: $GPGSV,3,2,12,22,32,307,45,26,17,180,37,31,72,249,47,32,61,064,46*7D
2017-12-01 17:06:05 1512165965.772538: $GPGSV,3,3,12,12,13,037,28,18,03,148,16,25,39,069,26,138,38,213,38*49
2017-12-01 17:06:05 1512165965.885562: $GPZDA,220606.00,01,12,2017,00,00*60
2017-12-01 17:06:05 1512165965.885707: $GPGGA,220606,3946.9618,N,08404.9750,W,1,12,0.80,297.08,M,-33.324,M,,*7A
2017-12-01 17:06:05 1512165965.885773: $GPRMC,220606,A,3946.9618,N,08404.9750,W,0.3423,184.197,011217,,*32
2017-12-01 17:06:05 1512165965.885833: $GPGSA,A,3,1,3,10,14,22,26,31,32,12,18,25,138,2.0,0.8,1.5*0A
2017-12-01 17:06:06 1512165966.510941: $GPZDA,220607.00,01,12,2017,00,00*61
2017-12-01 17:06:06 1512165966.511109: $GPGGA,220607,3946.9618,N,08404.9750,W,1,12,0.80,297.08,M,-33.324,M,,*7B
2017-12-01 17:06:06 1512165966.511195: $GPRMC,220607,A,3946.9618,N,08404.9750,W,0.0000,0.000,011217,,*37
2017-12-01 17:06:06 1512165966.511302: $GPGSA,A,3,1,3,10,14,22,26,31,32,12,18,25,138,2.0,0.8,1.5*0A
2017-12-01 17:06:07 1512165967.438099: $GPZDA,220608.00,01,12,2017,00,00*6E
2017-12-01 17:06:07 1512165967.438282: $GPGGA,220608,3946.9618,N,08404.9750,W,1,12,0.80,297.08,M,-33.324,M,,*74
2017-12-01 17:06:07 1512165967.438348: $GPRMC,220608,A,3946.9618,N,08404.9750,W,0.0000,0.000,011217,,*38
2017-12-01 17:06:07 1512165967.438409: $GPGSA,A,3,1,3,10,14,22,26,31,32,12,18,25,138,2.0,0.8,1.5*0A
2017-12-01 17:06:08 1512165968.773832: $GPGSV,3,1,12,01,21,283,40,03,13,316,43,10,31,154,31,14,70,010,45*76
2017-12-01 17:06:08 1512165968.774023: $GPGSV,3,2,12,22,32,307,45,26,17,180,36,31,72,249,48,32,61,064,46*73
2017-12-01 17:06:08 1512165968.774090: $GPGSV,3,3,12,12,13,037,29,18,03,148,16,25,39,069,26,138,38,213,40*47
2017-12-01 17:06:08 1512165968.887180: $GPZDA,220609.00,01,12,2017,00,00*6F
2017-12-01 17:06:08 1512165968.887327: $GPGGA,220609,3946.9618,N,08404.9750,W,1,12,0.80,297.08,M,-33.324,M,,*75
2017-12-01 17:06:08 1512165968.887395: $GPRMC,220609,A,3946.9618,N,08404.9750,W,0.0000,0.000,011217,,*39
2017-12-01 17:06:08 1512165968.887456: $GPGSA,A,3,1,3,10,14,22,26,31,32,12,18,25,138,2.0,0.8,1.5*0A
2017-12-01 17:06:09 1512165969.438244: $GPZDA,220610.00,01,12,2017,00,00*67
2017-12-01 17:06:09 1512165969.438430: $GPGGA,220610,3946.9617,N,08404.9743,W,1,12,0.80,297.16,M,-33.324,M,,*7F
2017-12-01 17:06:09 1512165969.438497: $GPRMC,220610,A,3946.9617,N,08404.9743,W,0.0000,0.000,011217,,*3C
2017-12-01 17:06:09 1512165969.438558: $GPGSA,A,3,1,3,10,14,22,26,31,32,12,18,25,138,2.0,0.8,1.5*0A
2017-12-01 17:06:10 1512165970.437820: $GPZDA,220611.00,01,12,2017,00,00*66
2017-12-01 17:06:10 1512165970.437995: $GPGGA,220611,3946.9612,N,08404.9735,W,2,12,1.00,295.19,M,-33.324,M,,*7D
2017-12-01 17:06:10 1512165970.438063: $GPRMC,220611,A,3946.9612,N,08404.9735,W,0.0000,0.000,011217,,*39
2017-12-01 17:06:10 1512165970.438125: $GPGSA,A,3,1,3,10,14,22,26,31,32,12,18,25,138,2.0,1.0,1.5*03
2017-12-01 17:06:10 1512165970.438185: $GPGBS,220611,2.67,M,3.86,M,8.82,M*34
2017-12-01 17:06:11 1512165971.776715: $GPGSV,3,1,12,01,21,283,40,03,13,316,43,10,31,154,32,14,70,010,46*76
2017-12-01 17:06:11 1512165971.776926: $GPGSV,3,2,12,22,32,307,46,26,17,180,37,31,72,249,48,32,61,064,47*70
2017-12-01 17:06:11 1512165971.776997: $GPGSV,3,3,12,12,13,037,30,18,03,148,16,25,39,069,27,138,38,213,40*4E
2017-12-01 17:06:11 1512165971.890135: $GPZDA,220612.00,01,12,2017,00,00*65
2017-12-01 17:06:11 1512165971.890306: $GPGGA,220612,3946.9612,N,08404.9735,W,2,12,0.80,295.19,M,-33.324,M,,*77
2017-12-01 17:06:11 1512165971.890373: $GPRMC,220612,A,3946.9612,N,08404.9735,W,0.0000,0.000,011217,,*3A
2017-12-01 17:06:11 1512165971.890433: $GPGSA,A,3,1,3,10,14,22,26,31,32,12,18,25,138,2.0,0.8,1.5*0A
