2017-11-16 17:30:45 1510871445.140714: {"class":"VERSION","release":"3.17","rev":"3.17","proto_major":3,"proto_minor":12}
2017-11-16 17:30:45 1510871445.141301: {"class":"DEVICES","devices":[{"class":"DEVICE","path":"/dev/ttyUSB0","driver":"SiRF","subtype":"9\u0006GSD4e_4.1.2-P1_RPATCH.05-F-GPS-4R-1510281 11/03/2015 307","activated":"2017-11-16T22:30:44.543Z","flags":1,"native":1,"bps":4800,"parity":"N","stopbits":1,"cycle":1.00}]}
2017-11-16 17:30:45 1510871445.141418: {"class":"WATCH","enable":true,"json":false,"nmea":true,"raw":0,"scaled":false,"timing":false,"split24":false,"pps":false}
2017-11-16 17:30:45 1510871445.737449: $GPGSV,3,1,12,01,21,301,33,10,48,148,49,22,18,312,45,12,22,051,51*7E
2017-11-16 17:30:45 1510871445.737616: $GPGSV,3,2,12,14,66,327,48,18,19,144,38,26,01,183,00,11,08,282,41*75
2017-11-16 17:30:45 1510871445.737676: $GPGSV,3,3,12,25,39,091,48,31,55,225,48,32,69,025,49,138,38,213,44*4D
2017-11-16 17:30:45 1510871445.850914: $GPZDA,223044.00,16,11,2017,00,00*66
2017-11-16 17:30:45 1510871445.851203: $GPGGA,223044,3946.9572,N,08404.9835,W,2,11,0.80,304.10,M,-33.324,M,,*78
2017-11-16 17:30:45 1510871445.851321: $GPRMC,223044,A,3946.9572,N,08404.9835,W,0.0000,0.000,161117,,*33
2017-11-16 17:30:45 1510871445.851419: $GPGSA,A,3,1,10,22,12,14,18,11,25,31,32,138,,1.6,0.8,1.3*3E
2017-11-16 17:30:46 1510871446.476269: $GPZDA,223045.00,16,11,2017,00,00*67
2017-11-16 17:30:46 1510871446.476566: $GPGGA,223045,3946.9572,N,08404.9835,W,2,11,0.80,304.10,M,-33.324,M,,*79
2017-11-16 17:30:46 1510871446.476682: $GPRMC,223045,A,3946.9572,N,08404.9835,W,0.0000,0.000,161117,,*32
2017-11-16 17:30:46 1510871446.476795: $GPGSA,A,3,1,10,22,12,14,18,11,25,31,32,138,,1.6,0.8,1.3*3E
2017-11-16 17:30:47 1510871447.402026: $GPZDA,223046.00,16,11,2017,00,00*64
2017-11-16 17:30:47 1510871447.402198: $GPGGA,223046,3946.9572,N,08404.9835,W,2,11,0.80,304.10,M,-33.324,M,,*7A
2017-11-16 17:30:47 1510871447.402259: $GPRMC,223046,A,3946.9572,N,08404.9835,W,0.0000,0.000,161117,,*31
2017-11-16 17:30:47 1510871447.402315: $GPGSA,A,3,1,10,22,12,14,18,11,25,31,32,138,,1.6,0.8,1.3*3E
2017-11-16 17:30:48 1510871448.739067: $GPGSV,3,1,12,01,21,301,34,10,48,148,49,22,18,312,45,12,22,051,51*79
2017-11-16 17:30:48 1510871448.739237: $GPGSV,3,2,12,14,66,327,48,18,19,144,38,26,01,183,00,11,08,282,42*76
2017-11-16 17:30:48 1510871448.739298: $GPGSV,3,3,12,25,39,091,48,31,55,225,49,32,69,025,49,138,38,213,44*4C
2017-11-16 17:30:48 1510871448.852377: $GPZDA,223047.00,16,11,2017,00,00*65
2017-11-16 17:30:48 1510871448.852535: $GPGGA,223047,3946.9572,N,08404.9835,W,2,11,0.80,304.10,M,-33.324,M,,*7B
2017-11-16 17:30:48 1510871448.852595: $GPRMC,223047,A,3946.9572,N,08404.9835,W,0.0000,0.000,161117,,*30
2017-11-16 17:30:48 1510871448.852651: $GPGSA,A,3,1,10,22,12,14,18,11,25,31,32,138,,1.6,0.8,1.3*3E
2017-11-16 17:30:49 1510871449.401995: $GPZDA,223048.00,16,11,2017,00,00*6A
2017-11-16 17:30:49 1510871449.402156: $GPGGA,223048,3946.9572,N,08404.9835,W,2,11,0.80,304.10,M,-33.324,M,,*74
2017-11-16 17:30:49 1510871449.402217: $GPRMC,223048,A,3946.9572,N,08404.9835,W,0.0000,0.000,161117,,*3F
2017-11-16 17:30:49 1510871449.402273: $GPGSA,A,3,1,10,22,12,14,18,11,25,31,32,138,,1.6,0.8,1.3*3E
2017-11-16 17:30:50 1510871450.401609: $GPZDA,223049.00,16,11,2017,00,00*6B
2017-11-16 17:30:50 1510871450.401768: $GPGGA,223049,3946.9572,N,08404.9835,W,2,11,0.80,304.10,M,-33.324,M,,*75
2017-11-16 17:30:50 1510871450.401851: $GPRMC,223049,A,3946.9572,N,08404.9835,W,0.0000,0.000,161117,,*3E
2017-11-16 17:30:50 1510871450.401908: $GPGSA,A,3,1,10,22,12,14,18,11,25,31,32,138,,1.6,0.8,1.3*3E
2017-11-16 17:30:51 1510871451.753178: $GPGSV,3,1,12,01,21,301,35,10,48,148,50,22,18,312,45,12,22,051,51*70
2017-11-16 17:30:51 1510871451.753347: $GPGSV,3,2,12,14,66,327,48,18,19,144,38,26,01,183,00,11,08,282,42*76
2017-11-16 17:30:51 1510871451.753407: $GPGSV,3,3,12,25,39,091,48,31,55,225,48,32,69,025,49,138,38,213,44*4D
2017-11-16 17:30:51 1510871451.866487: $GPZDA,223050.00,16,11,2017,00,00*63
2017-11-16 17:30:51 1510871451.866648: $GPGGA,223050,3946.9572,N,08404.9835,W,2,11,0.80,304.10,M,-33.324,M,,*7D
2017-11-16 17:30:51 1510871451.866758: $GPRMC,223050,A,3946.9572,N,08404.9835,W,0.0000,0.000,161117,,*36
2017-11-16 17:30:51 1510871451.866838: $GPGSA,A,3,1,10,22,12,14,18,11,25,31,32,138,,1.6,0.8,1.3*3E
2017-11-16 17:30:52 1510871452.394861: $GPZDA,223051.00,16,11,2017,00,00*62
2017-11-16 17:30:52 1510871452.395100: $GPGGA,223051,3946.9572,N,08404.9835,W,2,11,0.80,304.10,M,-33.324,M,,*7C
2017-11-16 17:30:52 1510871452.395192: $GPRMC,223051,A,3946.9572,N,08404.9835,W,0.0000,0.000,161117,,*37
2017-11-16 17:30:52 1510871452.395250: $GPGSA,A,3,1,10,22,12,14,18,11,25,31,32,138,,1.6,0.8,1.3*3E
2017-11-16 17:30:53 1510871453.402064: $GPZDA,223052.00,16,11,2017,00,00*61
2017-11-16 17:30:53 1510871453.402226: $GPGGA,223052,3946.9572,N,08404.9835,W,2,11,0.80,304.10,M,-33.324,M,,*7F
2017-11-16 17:30:53 1510871453.402287: $GPRMC,223052,A,3946.9572,N,08404.9835,W,0.0000,0.000,161117,,*34
2017-11-16 17:30:53 1510871453.402344: $GPGSA,A,3,1,10,22,12,14,18,11,25,31,32,138,,1.6,0.8,1.3*3E
2017-11-16 17:30:54 1510871454.760261: $GPGSV,3,1,12,01,21,301,36,10,48,148,49,22,18,312,45,12,22,051,51*7B
2017-11-16 17:30:54 1510871454.760446: $GPGSV,3,2,12,14,66,327,48,18,19,144,38,26,01,183,00,11,08,282,42*76
2017-11-16 17:30:54 1510871454.760507: $GPGSV,3,3,12,25,39,091,47,31,55,225,48,32,69,025,49,138,38,213,44*42
2017-11-16 17:30:54 1510871454.873585: $GPZDA,223053.00,16,11,2017,00,00*60
2017-11-16 17:30:54 1510871454.873761: $GPGGA,223053,3946.9572,N,08404.9835,W,2,11,0.80,304.10,M,-33.324,M,,*7E
2017-11-16 17:30:54 1510871454.873841: $GPRMC,223053,A,3946.9572,N,08404.9835,W,0.0000,0.000,161117,,*35
2017-11-16 17:30:54 1510871454.873898: $GPGSA,A,3,1,10,22,12,14,18,11,25,31,32,138,,1.6,0.8,1.3*3E
