2017-11-15 19:31:39 1510792299.452115: {"class":"VERSION","release":"3.17","rev":"3.17","proto_major":3,"proto_minor":12}
2017-11-15 19:31:39 1510792299.452618: {"class":"DEVICES","devices":[{"class":"DEVICE","path":"/dev/ttyUSB0","driver":"SiRF","subtype":"9\u0006GSD4e_4.1.2-P1_RPATCH.05-F-GPS-4R-1510281 11/03/2015 307","activated":"2017-11-16T00:31:39.216Z","flags":1,"native":1,"bps":4800,"parity":"N","stopbits":1,"cycle":1.00}]}
2017-11-15 19:31:39 1510792299.452741: {"class":"WATCH","enable":true,"json":false,"nmea":true,"raw":0,"scaled":false,"timing":false,"split24":false,"pps":false}
2017-11-15 19:31:39 1510792299.665692: $GPGSV,3,1,12,32,36,108,22,25,17,040,00,16,23,190,12,26,53,172,18*72
2017-11-15 19:31:39 1510792299.665861: $GPGSV,3,2,12,14,55,093,21,31,67,025,10,03,40,298,18,29,11,070,00*73
2017-11-15 19:31:39 1510792299.665920: $GPGSV,3,3,12,23,11,301,04,01,05,252,00,22,50,270,04,135,23,238,00*47
2017-11-15 19:31:39 1510792299.779233: $GPZDA,003138.00,16,11,2017,00,00*6C
2017-11-15 19:31:39 1510792299.779391: $GPGGA,003138,3946.9603,N,08404.9483,W,1,06,2.00,283.04,M,-33.324,M,,*72
2017-11-15 19:31:39 1510792299.779452: $GPRMC,003138,A,3946.9603,N,08404.9483,W,0.9988,284.546,161117,,*34
2017-11-15 19:31:39 1510792299.779510: $GPGSA,A,3,32,16,26,14,31,3,,,,,,,3.4,2.0,2.9*0A
2017-11-15 19:31:40 1510792300.344981: $GPZDA,003139.00,16,11,2017,00,00*6D
2017-11-15 19:31:40 1510792300.345133: $GPGGA,003139,3946.9603,N,08404.9483,W,1,06,2.00,283.04,M,-33.324,M,,*73
2017-11-15 19:31:40 1510792300.345194: $GPRMC,003139,A,3946.9603,N,08404.9483,W,0.7267,273.794,161117,,*34
2017-11-15 19:31:40 1510792300.345251: $GPGSA,A,3,32,16,26,14,31,3,,,,,,,3.4,2.0,2.9*0A
2017-11-15 19:31:41 1510792301.345262: $GPZDA,003140.00,16,11,2017,00,00*63
2017-11-15 19:31:41 1510792301.345426: $GPGGA,003140,3946.9604,N,08404.9490,W,1,06,2.00,282.96,M,-33.324,M,,*72
2017-11-15 19:31:41 1510792301.345487: $GPRMC,003140,A,3946.9604,N,08404.9490,W,0.9689,273.794,161117,,*35
2017-11-15 19:31:41 1510792301.345543: $GPGSA,A,3,32,16,26,14,31,3,,,,,,,3.4,2.0,2.9*0A
2017-11-15 19:31:42 1510792302.682428: $GPGSV,3,1,12,32,36,108,22,25,17,040,00,16,23,190,12,26,53,172,19*73
2017-11-15 19:31:42 1510792302.682620: $GPGSV,3,2,12,14,55,093,21,31,67,025,11,03,40,298,18,29,11,070,00*72
2017-11-15 19:31:42 1510792302.682682: $GPGSV,3,3,12,23,11,301,06,01,05,252,00,22,50,270,09,135,23,238,00*48
2017-11-15 19:31:42 1510792302.794475: $GPZDA,003141.00,16,11,2017,00,00*62
2017-11-15 19:31:42 1510792302.794640: $GPGGA,003141,3946.9604,N,08404.9490,W,1,07,2.00,282.96,M,-33.324,M,,*72
2017-11-15 19:31:42 1510792302.794702: $GPRMC,003141,A,3946.9604,N,08404.9490,W,0.4207,219.347,161117,,*3D
2017-11-15 19:31:42 1510792302.794759: $GPGSA,A,3,32,16,26,14,31,3,22,,,,,,3.4,2.0,2.9*0A
2017-11-15 19:31:43 1510792303.347933: $GPZDA,003142.00,16,11,2017,00,00*61
2017-11-15 19:31:43 1510792303.348101: $GPGGA,003142,3946.9597,N,08404.9497,W,1,07,2.00,283.00,M,-33.324,M,,*71
2017-11-15 19:31:43 1510792303.348161: $GPRMC,003142,A,3946.9597,N,08404.9497,W,0.3423,184.197,161117,,*3F
2017-11-15 19:31:43 1510792303.348219: $GPGSA,A,3,32,16,26,14,31,3,22,,,,,,3.4,2.0,2.9*0A
2017-11-15 19:31:44 1510792304.331223: $GPZDA,003143.00,16,11,2017,00,00*60
2017-11-15 19:31:44 1510792304.331462: $GPGGA,003143,3946.9597,N,08404.9497,W,1,07,2.00,283.00,M,-33.324,M,,*70
2017-11-15 19:31:44 1510792304.331524: $GPRMC,003143,A,3946.9597,N,08404.9497,W,0.4844,273.794,161117,,*3A
2017-11-15 19:31:44 1510792304.331580: $GPGSA,A,3,32,16,26,14,31,3,22,,,,,,3.4,2.0,2.9*0A
2017-11-15 19:31:45 1510792305.667087: $GPGSV,3,1,12,32,36,108,22,29,11,070,04,16,23,190,13,26,53,172,20*75
2017-11-15 19:31:45 1510792305.667259: $GPGSV,3,2,12,14,55,093,20,31,67,025,10,03,40,298,18,25,17,040,00*7B
2017-11-15 19:31:45 1510792305.667320: $GPGSV,3,3,12,23,11,301,04,01,05,252,00,22,50,270,11,135,23,238,00*43
2017-11-15 19:31:45 1510792305.780327: $GPZDA,003144.00,16,11,2017,00,00*67
2017-11-15 19:31:45 1510792305.780494: $GPGGA,003144,3946.9597,N,08404.9497,W,1,07,2.00,283.00,M,-33.324,M,,*77
2017-11-15 19:31:45 1510792305.780635: $GPRMC,003144,A,3946.9597,N,08404.9497,W,0.7267,273.794,161117,,*35
2017-11-15 19:31:45 1510792305.780698: $GPGSA,A,3,32,16,26,14,31,3,22,,,,,,3.4,2.0,2.9*0A
2017-11-15 19:31:46 1510792306.405947: $GPZDA,003145.00,16,11,2017,00,00*66
2017-11-15 19:31:46 1510792306.406156: $GPGGA,003145,3946.9597,N,08404.9504,W,1,07,2.00,282.92,M,-33.324,M,,*77
2017-11-15 19:31:46 1510792306.410117: $GPRMC,003145,A,3946.9597,N,08404.9504,W,1.0018,230.691,161117,,*30
2017-11-15 19:31:46 1510792306.410210: $GPGSA,A,3,32,16,26,14,31,3,22,,,,,,3.4,2.0,2.9*0A
2017-11-15 19:31:47 1510792307.330346: $GPZDA,003146.00,16,11,2017,00,00*65
2017-11-15 19:31:47 1510792307.330518: $GPGGA,003146,3946.9594,N,08404.9512,W,1,07,2.00,283.61,M,-33.324,M,,*7D
2017-11-15 19:31:47 1510792307.330581: $GPRMC,003146,A,3946.9594,N,08404.9512,W,1.0018,230.691,161117,,*37
2017-11-15 19:31:47 1510792307.330642: $GPGSA,A,3,32,16,26,14,31,3,22,,,,,,3.4,2.0,2.9*0A
2017-11-15 19:31:48 1510792308.666147: $GPGSV,3,1,12,32,36,108,22,29,11,070,11,16,23,190,13,26,53,172,20*71
2017-11-15 19:31:48 1510792308.666319: $GPGSV,3,2,12,14,55,093,20,31,67,025,04,03,40,298,18,25,17,040,00*7E
2017-11-15 19:31:48 1510792308.666379: $GPGSV,3,3,12,23,11,301,04,01,05,252,00,22,50,270,11,135,23,238,00*43
2017-11-15 19:31:48 1510792308.779519: $GPZDA,003147.00,16,11,2017,00,00*64
2017-11-15 19:31:48 1510792308.779683: $GPGGA,003147,3946.9590,N,08404.9512,W,1,07,2.00,282.97,M,-33.324,M,,*70
2017-11-15 19:31:48 1510792308.779741: $GPRMC,003147,A,3946.9590,N,08404.9512,W,1.0018,230.691,161117,,*32
2017-11-15 19:31:48 1510792308.779798: $GPGSA,A,3,32,29,16,26,14,3,22,,,,,,3.4,2.0,2.9*03
2017-11-15 19:31:49 1510792309.330636: $GPZDA,003148.00,16,11,2017,00,00*6B
2017-11-15 19:31:49 1510792309.330776: $GPGGA,003148,3946.9590,N,08404.9512,W,1,07,2.00,282.97,M,-33.324,M,,*7F
2017-11-15 19:31:49 1510792309.330837: $GPRMC,003148,A,3946.9590,N,08404.9512,W,0.2422,273.794,161117,,*30
2017-11-15 19:31:49 1510792309.330892: $GPGSA,A,3,32,29,16,26,14,3,22,,,,,,3.4,2.0,2.9*03
