2017-11-15 18:51:38 1510789898.244266: {"class":"VERSION","release":"3.17","rev":"3.17","proto_major":3,"proto_minor":12}
2017-11-15 18:51:38 1510789898.244688: {"class":"DEVICES","devices":[{"class":"DEVICE","path":"/dev/ttyUSB0","driver":"SiRF","subtype":"9\u0006GSD4e_4.1.2-P1_RPATCH.05-F-GPS-4R-1510281 11/03/2015 307","activated":"2017-11-15T23:51:38.216Z","flags":1,"native":1,"bps":4800,"parity":"N","stopbits":1,"cycle":1.00}]}
2017-11-15 18:51:38 1510789898.244801: {"class":"WATCH","enable":true,"json":false,"nmea":true,"raw":0,"scaled":false,"timing":false,"split24":false,"pps":false}
2017-11-15 18:51:38 1510789898.330098: $GPZDA,235137.00,15,11,2017,00,00*67
2017-11-15 18:51:38 1510789898.330277: $GPGGA,235137,3946.9639,N,08404.9460,W,1,07,1.40,311.14,M,-33.324,M,,*73
2017-11-15 18:51:38 1510789898.330342: $GPRMC,235137,A,3946.9639,N,08404.9460,W,0.0000,0.000,151117,,*32
2017-11-15 18:51:38 1510789898.330397: $GPGSA,A,3,14,3,32,31,26,1,22,,,,,,3.4,1.4,2.9*3B
2017-11-15 18:51:39 1510789899.665886: $GPGSV,3,1,11,29,04,085,04,14,65,063,25,03,28,312,13,32,49,090,14*72
2017-11-15 18:51:39 1510789899.666058: $GPGSV,3,2,11,31,79,331,27,26,35,177,18,25,30,049,00,10,13,157,00*73
2017-11-15 18:51:39 1510789899.666117: $GPGSV,3,3,11,01,15,267,17,22,45,294,14,16,06,190,00*4B
2017-11-15 18:51:39 1510789899.779316: $GPZDA,235138.00,15,11,2017,00,00*68
2017-11-15 18:51:39 1510789899.779463: $GPGGA,235138,3946.9639,N,08404.9460,W,1,07,1.40,311.14,M,-33.324,M,,*7C
2017-11-15 18:51:39 1510789899.779523: $GPRMC,235138,A,3946.9639,N,08404.9460,W,0.3423,4.197,151117,,*30
2017-11-15 18:51:39 1510789899.779579: $GPGSA,A,3,14,3,32,31,26,1,22,,,,,,3.4,1.4,2.9*3B
2017-11-15 18:51:40 1510789900.328976: $GPZDA,235139.00,15,11,2017,00,00*69
2017-11-15 18:51:40 1510789900.329140: $GPGGA,235139,3946.9643,N,08404.9467,W,1,07,1.40,311.70,M,-33.324,M,,*75
2017-11-15 18:51:40 1510789900.329204: $GPRMC,235139,A,3946.9643,N,08404.9467,W,0.6846,4.197,151117,,*31
2017-11-15 18:51:40 1510789900.329259: $GPGSA,A,3,14,3,32,31,26,1,22,,,,,,3.4,1.4,2.9*3B
2017-11-15 18:51:41 1510789901.329324: $GPZDA,235140.00,15,11,2017,00,00*67
2017-11-15 18:51:41 1510789901.329485: $GPGGA,235140,3946.9643,N,08404.9467,W,1,07,1.40,311.70,M,-33.324,M,,*7B
2017-11-15 18:51:41 1510789901.329545: $GPRMC,235140,A,3946.9643,N,08404.9467,W,0.5951,58.684,151117,,*07
2017-11-15 18:51:41 1510789901.329600: $GPGSA,A,3,14,3,32,31,26,1,22,,,,,,3.4,1.4,2.9*3B
2017-11-15 18:51:42 1510789902.665026: $GPGSV,3,1,11,29,04,085,04,14,65,063,25,03,28,312,13,32,49,090,13*75
2017-11-15 18:51:42 1510789902.665200: $GPGSV,3,2,11,31,79,331,27,26,35,177,18,25,30,049,00,10,13,157,00*73
2017-11-15 18:51:42 1510789902.665259: $GPGSV,3,3,11,01,15,267,17,22,45,294,14,16,06,190,00*4B
2017-11-15 18:51:42 1510789902.778482: $GPZDA,235141.00,15,11,2017,00,00*66
2017-11-15 18:51:42 1510789902.778750: $GPGGA,235141,3946.9643,N,08404.9467,W,1,07,1.40,311.70,M,-33.324,M,,*7A
2017-11-15 18:51:42 1510789902.778908: $GPRMC,235141,A,3946.9643,N,08404.9467,W,0.4207,39.347,151117,,*02
2017-11-15 18:51:42 1510789902.779042: $GPGSA,A,3,14,3,32,31,26,1,22,,,,,,3.4,1.4,2.9*3B
2017-11-15 18:51:43 1510789903.329473: $GPZDA,235142.00,15,11,2017,00,00*65
2017-11-15 18:51:43 1510789903.329632: $GPGGA,235142,3946.9643,N,08404.9467,W,1,07,1.40,311.70,M,-33.324,M,,*79
2017-11-15 18:51:43 1510789903.329692: $GPRMC,235142,A,3946.9643,N,08404.9467,W,0.2959,54.768,151117,,*05
2017-11-15 18:51:43 1510789903.329747: $GPGSA,A,3,14,3,32,31,26,1,22,,,,,,3.4,1.4,2.9*3B
2017-11-15 18:51:44 1510789904.330413: $GPZDA,235143.00,15,11,2017,00,00*64
2017-11-15 18:51:44 1510789904.330574: $GPGGA,235143,3946.9643,N,08404.9467,W,1,07,1.40,311.70,M,-33.324,M,,*78
2017-11-15 18:51:44 1510789904.330635: $GPRMC,235143,A,3946.9643,N,08404.9467,W,0.1567,189.201,151117,,*3D
2017-11-15 18:51:44 1510789904.330691: $GPGSA,A,3,14,3,32,31,26,1,22,,,,,,3.4,1.4,2.9*3B
2017-11-15 18:51:45 1510789905.665866: $GPGSV,3,1,11,29,04,085,05,14,65,063,25,03,28,312,12,32,49,090,14*72
2017-11-15 18:51:45 1510789905.666037: $GPGSV,3,2,11,31,79,331,27,26,35,177,18,25,30,049,00,10,13,157,00*73
2017-11-15 18:51:45 1510789905.666142: $GPGSV,3,3,11,01,15,267,17,22,45,294,13,16,06,190,00*4C
2017-11-15 18:51:45 1510789905.779203: $GPZDA,235144.00,15,11,2017,00,00*63
2017-11-15 18:51:45 1510789905.779367: $GPGGA,235144,3946.9643,N,08404.9467,W,1,07,1.40,311.70,M,-33.324,M,,*7F
2017-11-15 18:51:45 1510789905.779429: $GPRMC,235144,A,3946.9643,N,08404.9467,W,0.4207,39.347,151117,,*07
2017-11-15 18:51:45 1510789905.779484: $GPGSA,A,3,14,3,32,31,26,1,22,,,,,,3.4,1.4,2.9*3B
2017-11-15 18:51:46 1510789906.404658: $GPZDA,235145.00,15,11,2017,00,00*62
2017-11-15 18:51:46 1510789906.404973: $GPGGA,235145,3946.9647,N,08404.9467,W,1,07,1.40,312.34,M,-33.324,M,,*79
2017-11-15 18:51:46 1510789906.405036: $GPRMC,235145,A,3946.9647,N,08404.9467,W,0.7103,45.706,151117,,*0C
2017-11-15 18:51:46 1510789906.405092: $GPGSA,A,3,14,3,32,31,26,1,22,,,,,,3.4,1.4,2.9*3B
2017-11-15 18:51:47 1510789907.329538: $GPZDA,235146.00,15,11,2017,00,00*61
2017-11-15 18:51:47 1510789907.329701: $GPGGA,235146,3946.9648,N,08404.9474,W,1,07,1.40,312.27,M,-33.324,M,,*75
2017-11-15 18:51:47 1510789907.329762: $GPRMC,235146,A,3946.9648,N,08404.9474,W,0.2959,54.768,151117,,*08
2017-11-15 18:51:47 1510789907.329842: $GPGSA,A,3,14,3,32,31,26,1,22,,,,,,3.4,1.4,2.9*3B
2017-11-15 18:51:48 1510789908.666245: $GPGSV,3,1,11,29,04,085,04,14,65,063,25,03,28,312,12,32,49,090,14*73
2017-11-15 18:51:48 1510789908.666418: $GPGSV,3,2,11,31,79,331,27,26,35,177,18,25,30,049,00,10,13,157,00*73
2017-11-15 18:51:48 1510789908.666477: $GPGSV,3,3,11,01,15,267,17,22,45,294,12,16,06,190,00*4D
2017-11-15 18:51:48 1510789908.779825: $GPZDA,235147.00,15,11,2017,00,00*60
2017-11-15 18:51:48 1510789908.780000: $GPGGA,235147,3946.9648,N,08404.9474,W,1,07,1.40,312.27,M,-33.324,M,,*74
2017-11-15 18:51:48 1510789908.780062: $GPRMC,235147,A,3946.9648,N,08404.9474,W,0.3423,4.197,151117,,*3B
2017-11-15 18:51:48 1510789908.780118: $GPGSA,A,3,14,3,32,31,26,1,22,,,,,,3.4,1.4,2.9*3B
2017-11-15 18:51:49 1510789909.330486: $GPZDA,235148.00,15,11,2017,00,00*6F
2017-11-15 18:51:49 1510789909.330669: $GPGGA,235148,3946.9648,N,08404.9474,W,1,07,1.40,312.27,M,-33.324,M,,*7B
2017-11-15 18:51:49 1510789909.330732: $GPRMC,235148,A,3946.9648,N,08404.9474,W,0.5774,27.515,151117,,*0C
2017-11-15 18:51:49 1510789909.330810: $GPGSA,A,3,14,3,32,31,26,1,22,,,,,,3.4,1.4,2.9*3B
2017-11-15 18:51:50 1510789910.330312: $GPZDA,235149.00,15,11,2017,00,00*6E
2017-11-15 18:51:50 1510789910.330473: $GPGGA,235149,3946.9644,N,08404.9475,W,1,07,1.40,313.03,M,-33.324,M,,*70
2017-11-15 18:51:50 1510789910.330533: $GPRMC,235149,A,3946.9644,N,08404.9475,W,0.2422,93.794,151117,,*03
2017-11-15 18:51:50 1510789910.330588: $GPGSA,A,3,14,3,32,31,26,1,22,,,,,,3.4,1.4,2.9*3B
2017-11-15 18:51:51 1510789911.665331: $GPGSV,3,1,11,29,04,085,06,14,65,063,25,03,28,312,11,32,49,090,14*72
2017-11-15 18:51:51 1510789911.665503: $GPGSV,3,2,11,31,79,331,27,26,35,177,18,25,30,049,00,10,13,157,00*73
2017-11-15 18:51:51 1510789911.665563: $GPGSV,3,3,11,01,15,267,17,22,45,294,11,16,06,190,00*4E
2017-11-15 18:51:51 1510789911.778945: $GPZDA,235150.00,15,11,2017,00,00*66
2017-11-15 18:51:51 1510789911.779102: $GPGGA,235150,3946.9644,N,08404.9475,W,1,07,1.40,313.03,M,-33.324,M,,*78
2017-11-15 18:51:51 1510789911.779162: $GPRMC,235150,A,3946.9644,N,08404.9475,W,0.7382,79.175,151117,,*0E
2017-11-15 18:51:51 1510789911.779217: $GPGSA,A,3,14,3,32,31,26,1,22,,,,,,3.4,1.4,2.9*3B
2017-11-15 18:51:52 1510789912.329567: $GPZDA,235151.00,15,11,2017,00,00*67
2017-11-15 18:51:52 1510789912.329777: $GPGGA,235151,3946.9648,N,08404.9474,W,1,07,1.40,312.27,M,-33.324,M,,*73
2017-11-15 18:51:52 1510789912.329842: $GPRMC,235151,A,3946.9648,N,08404.9474,W,0.8905,57.384,151117,,*08
2017-11-15 18:51:52 1510789912.329915: $GPGSA,A,3,14,3,32,31,26,1,22,,,,,,3.4,1.4,2.9*3B
2017-11-15 18:51:53 1510789913.329445: $GPZDA,235152.00,15,11,2017,00,00*64
2017-11-15 18:51:53 1510789913.329612: $GPGGA,235152,3946.9652,N,08404.9474,W,1,07,1.40,312.91,M,-33.324,M,,*76
2017-11-15 18:51:53 1510789913.329674: $GPRMC,235152,A,3946.9652,N,08404.9474,W,1.0018,50.691,151117,,*0A
2017-11-15 18:51:53 1510789913.329802: $GPGSA,A,3,14,3,32,31,26,1,22,,,,,,3.4,1.4,2.9*3B
2017-11-15 18:51:54 1510789914.667585: $GPGSV,3,1,11,29,04,085,06,14,65,063,25,03,28,312,11,32,49,090,14*72
2017-11-15 18:51:54 1510789914.667778: $GPGSV,3,2,11,31,79,331,27,26,35,177,18,16,06,190,03,25,30,049,00*79
2017-11-15 18:51:54 1510789914.667839: $GPGSV,3,3,11,01,15,267,17,22,45,294,11,10,13,157,00*47
2017-11-15 18:51:54 1510789914.780839: $GPZDA,235153.00,15,11,2017,00,00*65
2017-11-15 18:51:54 1510789914.781001: $GPGGA,235153,3946.9652,N,08404.9474,W,1,07,1.40,312.91,M,-33.324,M,,*77
2017-11-15 18:51:54 1510789914.781061: $GPRMC,235153,A,3946.9652,N,08404.9474,W,0.2422,93.794,151117,,*0E
2017-11-15 18:51:54 1510789914.781117: $GPGSA,A,3,14,3,32,31,26,1,22,,,,,,3.4,1.4,2.9*3B
2017-11-15 18:51:55 1510789915.329267: $GPZDA,235154.00,15,11,2017,00,00*62
2017-11-15 18:51:55 1510789915.329431: $GPGGA,235154,3946.9648,N,08404.9475,W,1,07,1.40,313.67,M,-33.324,M,,*72
2017-11-15 18:51:55 1510789915.329492: $GPRMC,235154,A,3946.9648,N,08404.9475,W,0.1867,180.000,151117,,*34
2017-11-15 18:51:55 1510789915.329548: $GPGSA,A,3,14,3,32,31,26,1,22,,,,,,3.4,1.4,2.9*3B
2017-11-15 18:51:56 1510789916.329837: $GPZDA,235155.00,15,11,2017,00,00*63
2017-11-15 18:51:56 1510789916.330113: $GPGGA,235155,3946.9649,N,08404.9482,W,1,07,1.40,313.59,M,-33.324,M,,*77
2017-11-15 18:51:56 1510789916.330176: $GPRMC,235155,A,3946.9649,N,08404.9482,W,0.5951,238.684,151117,,*36
2017-11-15 18:51:56 1510789916.330232: $GPGSA,A,3,14,3,32,31,26,1,22,,,,,,3.4,1.4,2.9*3B
2017-11-15 18:51:57 1510789917.665432: $GPGSV,3,1,10,29,04,085,04,14,65,063,25,03,28,312,11,32,49,090,12*77
2017-11-15 18:51:57 1510789917.665607: $GPGSV,3,2,10,31,79,331,27,26,35,177,18,25,30,049,00,01,15,267,17*72
2017-11-15 18:51:57 1510789917.665668: $GPGSV,3,3,10,22,45,294,11,10,13,157,00*76
2017-11-15 18:51:57 1510789917.778833: $GPZDA,235156.00,15,11,2017,00,00*60
2017-11-15 18:51:57 1510789917.779030: $GPGGA,235156,3946.9649,N,08404.9482,W,1,07,1.40,313.59,M,-33.324,M,,*74
2017-11-15 18:51:57 1510789917.779091: $GPRMC,235156,A,3946.9649,N,08404.9482,W,0.7267,273.794,151117,,*36
2017-11-15 18:51:57 1510789917.779146: $GPGSA,A,3,14,3,32,31,26,1,22,,,,,,3.4,1.4,2.9*3B
2017-11-15 18:51:58 1510789918.330084: $GPZDA,235157.00,15,11,2017,00,00*61
2017-11-15 18:51:58 1510789918.330243: $GPGGA,235157,3946.9649,N,08404.9489,W,1,07,1.40,313.51,M,-33.324,M,,*76
2017-11-15 18:51:58 1510789918.330304: $GPRMC,235157,A,3946.9649,N,08404.9489,W,0.7267,273.794,151117,,*3C
2017-11-15 18:51:58 1510789918.330360: $GPGSA,A,3,14,3,32,31,26,1,22,,,,,,3.4,1.4,2.9*3B
2017-11-15 18:51:59 1510789919.329658: $GPZDA,235158.00,15,11,2017,00,00*6E
2017-11-15 18:51:59 1510789919.329837: $GPGGA,235158,3946.9649,N,08404.9489,W,1,07,1.40,313.51,M,-33.324,M,,*79
2017-11-15 18:51:59 1510789919.329915: $GPRMC,235158,A,3946.9649,N,08404.9489,W,0.4844,273.794,151117,,*3B
2017-11-15 18:51:59 1510789919.329972: $GPGSA,A,3,14,3,32,31,26,1,22,,,,,,3.4,1.4,2.9*3B
2017-11-15 18:52:00 1510789920.665262: $GPGSV,3,1,10,29,04,085,04,14,65,063,25,03,28,312,11,32,49,090,13*76
2017-11-15 18:52:00 1510789920.665433: $GPGSV,3,2,10,31,79,331,27,26,35,177,17,25,30,049,00,01,15,267,18*72
2017-11-15 18:52:00 1510789920.665493: $GPGSV,3,3,10,22,45,294,12,10,13,157,00*75
2017-11-15 18:52:00 1510789920.779641: $GPZDA,235159.00,15,11,2017,00,00*6F
2017-11-15 18:52:00 1510789920.780236: $GPGGA,235159,3946.9650,N,08404.9496,W,1,07,1.40,313.43,M,-33.324,M,,*7D
2017-11-15 18:52:00 1510789920.780341: $GPRMC,235159,A,3946.9650,N,08404.9496,W,0.4179,328.778,151117,,*36
2017-11-15 18:52:00 1510789920.780455: $GPGSA,A,3,14,3,32,31,26,1,22,,,,,,3.4,1.4,2.9*3B
2017-11-15 18:52:01 1510789921.403931: $GPZDA,235200.00,15,11,2017,00,00*60
2017-11-15 18:52:01 1510789921.404096: $GPGGA,235200,3946.9650,N,08404.9496,W,1,07,1.40,313.43,M,-33.324,M,,*72
2017-11-15 18:52:01 1510789921.404156: $GPRMC,235200,A,3946.9650,N,08404.9496,W,0.6831,320.632,151117,,*39
2017-11-15 18:52:01 1510789921.404261: $GPGSA,A,3,14,3,32,31,26,1,22,,,,,,3.4,1.4,2.9*3B
2017-11-15 18:52:02 1510789922.331039: $GPZDA,235201.00,15,11,2017,00,00*61
2017-11-15 18:52:02 1510789922.331225: $GPGGA,235201,3946.9650,N,08404.9496,W,1,07,1.40,313.43,M,-33.324,M,,*73
2017-11-15 18:52:02 1510789922.331288: $GPRMC,235201,A,3946.9650,N,08404.9496,W,0.8408,5.128,151117,,*38
2017-11-15 18:52:02 1510789922.331345: $GPGSA,A,3,14,3,32,31,26,1,22,,,,,,3.4,1.4,2.9*3B
2017-11-15 18:52:03 1510789923.665534: $GPGSV,3,1,11,29,04,085,04,14,65,063,25,03,28,312,12,32,49,090,14*73
2017-11-15 18:52:03 1510789923.665730: $GPGSV,3,2,11,31,79,331,27,26,35,177,17,25,30,049,00,10,13,157,00*7C
2017-11-15 18:52:03 1510789923.665791: $GPGSV,3,3,11,01,15,267,18,22,45,294,12,16,06,190,00*42
2017-11-15 18:52:03 1510789923.778995: $GPZDA,235202.00,15,11,2017,00,00*62
2017-11-15 18:52:03 1510789923.779258: $GPGGA,235202,3946.9657,N,08404.9495,W,1,07,1.40,313.31,M,-33.324,M,,*71
2017-11-15 18:52:03 1510789923.779374: $GPRMC,235202,A,3946.9657,N,08404.9495,W,1.0269,4.197,151117,,*32
2017-11-15 18:52:03 1510789923.779488: $GPGSA,A,3,14,3,32,31,26,1,22,,,,,,3.4,1.4,2.9*3B
2017-11-15 18:52:04 1510789924.329739: $GPZDA,235203.00,15,11,2017,00,00*63
2017-11-15 18:52:04 1510789924.329910: $GPGGA,235203,3946.9657,N,08404.9495,W,1,07,1.40,313.31,M,-33.324,M,,*70
2017-11-15 18:52:04 1510789924.329970: $GPRMC,235203,A,3946.9657,N,08404.9495,W,1.0567,17.448,151117,,*0F
2017-11-15 18:52:04 1510789924.330026: $GPGSA,A,3,14,3,32,31,26,1,22,,,,,,3.4,1.4,2.9*3B
2017-11-15 18:52:05 1510789925.330642: $GPZDA,235204.00,15,11,2017,00,00*64
2017-11-15 18:52:05 1510789925.330872: $GPGGA,235204,3946.9657,N,08404.9502,W,1,07,1.40,313.23,M,-33.324,M,,*7B
2017-11-15 18:52:05 1510789925.330934: $GPRMC,235204,A,3946.9657,N,08404.9502,W,0.4207,39.347,151117,,*07
2017-11-15 18:52:05 1510789925.330991: $GPGSA,A,3,14,3,32,31,26,1,22,,,,,,3.4,1.4,2.9*3B
2017-11-15 18:52:06 1510789926.665918: $GPGSV,3,1,11,29,04,085,14,14,65,063,25,03,28,312,14,32,49,090,16*76
2017-11-15 18:52:06 1510789926.666093: $GPGSV,3,2,11,31,79,331,27,26,35,177,16,25,30,049,00,10,13,157,00*7D
2017-11-15 18:52:06 1510789926.666154: $GPGSV,3,3,11,01,15,267,18,22,45,294,12,16,06,190,00*42
2017-11-15 18:52:06 1510789926.779567: $GPZDA,235205.00,15,11,2017,00,00*65
2017-11-15 18:52:06 1510789926.779915: $GPGGA,235205,3946.9657,N,08404.9502,W,1,08,1.40,313.23,M,-33.324,M,,*75
2017-11-15 18:52:06 1510789926.780033: $GPRMC,235205,A,3946.9657,N,08404.9502,W,0.4207,39.347,151117,,*06
2017-11-15 18:52:06 1510789926.780146: $GPGSA,A,3,29,14,3,32,31,26,1,22,,,,,3.4,1.4,2.9*30
2017-11-15 18:52:07 1510789927.330119: $GPZDA,235206.00,15,11,2017,00,00*66
2017-11-15 18:52:07 1510789927.330279: $GPGGA,235206,3946.9665,N,08404.9501,W,1,08,1.40,313.10,M,-33.324,M,,*74
2017-11-15 18:52:07 1510789927.330358: $GPRMC,235206,A,3946.9665,N,08404.9501,W,0.4207,39.347,151117,,*07
2017-11-15 18:52:07 1510789927.330415: $GPGSA,A,3,29,14,3,32,31,26,1,22,,,,,3.4,1.4,2.9*30
2017-11-15 18:52:08 1510789928.329998: $GPZDA,235207.00,15,11,2017,00,00*67
2017-11-15 18:52:08 1510789928.330158: $GPGGA,235207,3946.9665,N,08404.9501,W,1,08,1.40,313.10,M,-33.324,M,,*75
2017-11-15 18:52:08 1510789928.330218: $GPRMC,235207,A,3946.9665,N,08404.9501,W,0.4207,39.347,151117,,*06
2017-11-15 18:52:08 1510789928.330274: $GPGSA,A,3,29,14,3,32,31,26,1,22,,,,,3.4,1.4,2.9*30
