2018-01-12 02:55:30 1515743730.193147: {"class":"VERSION","release":"3.16","rev":"3.16-4","proto_major":3,"proto_minor":11}
2018-01-12 02:55:30 1515743730.193494: {"class":"DEVICES","devices":[{"class":"DEVICE","path":"/dev/ttyUSB0","driver":"SiRF","subtype":"9\u0006GSD4e_4.1.2-P1_RPATCH.05-F-GPS-4R-1510281 11/03/2015 307","activated":"2018-01-12T07:55:30.145Z","flags":1,"native":1,"bps":4800,"parity":"N","stopbits":1,"cycle":1.00}]}
2018-01-12 02:55:30 1515743730.193610: {"class":"WATCH","enable":true,"json":false,"nmea":true,"raw":0,"scaled":false,"timing":false,"split24":false,"pps":false}
2018-01-12 02:55:30 1515743730.753410: $GPZDA,075531.44,12,01,2018,00,00*6A
2018-01-12 02:55:30 1515743730.753572: $GPGGA,075531,3946.9635,N,08404.9836,W,1,12,2.40,315.10,M,-33.324,M,,*73
2018-01-12 02:55:30 1515743730.753637: $GPRMC,075531,A,3946.9635,N,08404.9836,W,0.9060,167.791,120118,,*3C
2018-01-12 02:55:30 1515743730.753699: $GPGSA,A,3,2,6,12,17,19,24,3,5,9,25,28,138,2.4,2.4,2.1*36
2018-01-12 02:55:32 1515743732.215581: $GPGSV,3,1,12,02,53,261,38,06,77,349,41,12,40,309,42,17,44,088,35*74
2018-01-12 02:55:32 1515743732.215769: $GPGSV,3,2,12,19,60,067,33,05,10,193,09,24,12,259,00,03,07,036,00*78
2018-01-12 02:55:32 1515743732.215834: $GPGSV,3,3,12,28,06,151,00,23,05,070,00,09,05,102,00,138,38,213,00*4E
2018-01-12 02:55:32 1515743732.328989: $GPZDA,075532.11,12,01,2018,00,00*69
2018-01-12 02:55:32 1515743732.329148: $GPGGA,075532,3946.9635,N,08404.9836,W,1,05,2.40,315.10,M,-33.324,M,,*76
2018-01-12 02:55:32 1515743732.329215: $GPRMC,075532,A,3946.9635,N,08404.9836,W,0.2758,128.233,120118,,*3E
2018-01-12 02:55:32 1515743732.329276: $GPGSA,A,3,2,6,12,17,19,,,,,,,,2.4,2.4,2.1*38
2018-01-12 02:55:32 1515743732.815515: $GPZDA,075532.33,12,01,2018,00,00*69
2018-01-12 02:55:32 1515743732.815663: $GPGGA,075532,3946.9631,N,08404.9836,W,1,05,2.40,314.46,M,-33.324,M,,*70
2018-01-12 02:55:32 1515743732.815728: $GPRMC,075532,A,3946.9631,N,08404.9836,W,0.0407,322.013,120118,,*39
2018-01-12 02:55:32 1515743732.815789: $GPGSA,A,3,2,6,12,17,19,,,,,,,,2.4,2.4,2.1*38
2018-01-12 02:55:32 1515743732.815844: $GPGBS,075532,11.98,M,14.47,M,47.88,M*0C
2018-01-12 02:55:33 1515743733.633879: $GPZDA,075533.00,12,01,2018,00,00*68
2018-01-12 02:55:33 1515743733.634044: $GPGGA,075533,3946.9627,N,08404.9836,W,1,05,1.60,313.82,M,-33.324,M,,*78
2018-01-12 02:55:33 1515743733.634111: $GPRMC,075533,A,3946.9627,N,08404.9836,W,0.0407,322.013,120118,,*3F
2018-01-12 02:55:33 1515743733.634172: $GPGSA,A,3,2,6,12,17,19,,,,,,,,2.4,1.6,2.1*39
2018-01-12 02:55:33 1515743733.634285: $GPGBS,075533,11.98,M,14.47,M,47.88,M*0D
2018-01-12 02:55:34 1515743734.406314: $GPGSV,3,1,12,02,53,261,05,06,77,349,05,12,40,309,05,17,43,088,04*7C
2018-01-12 02:55:34 1515743734.406483: $GPGSV,3,2,12,19,60,067,04,05,10,193,03,03,07,036,03,09,05,102,02*73
2018-01-12 02:55:34 1515743734.406547: $GPGSV,3,3,12,24,12,259,03,25,05,322,03,28,06,151,03,138,38,213,00*4B
2018-01-12 02:55:34 1515743734.519690: $GPZDA,075534.00,12,01,2018,00,00*6F
2018-01-12 02:55:34 1515743734.519809: $GPGGA,075534,3946.9630,N,08404.9835,W,1,11,0.80,313.06,M,-33.324,M,,*7C
2018-01-12 02:55:34 1515743734.519873: $GPRMC,075534,A,3946.9630,N,08404.9835,W,0.2172,265.764,120118,,*3D
2018-01-12 02:55:34 1515743734.519933: $GPGSA,A,3,2,6,12,17,19,5,3,9,24,25,28,,2.4,0.8,2.1*02
2018-01-12 02:55:35 1515743735.145104: $GPZDA,075535.00,12,01,2018,00,00*6E
2018-01-12 02:55:35 1515743735.145247: $GPGGA,075535,3946.9634,N,08404.9835,W,1,11,0.80,313.70,M,-33.324,M,,*78
2018-01-12 02:55:35 1515743735.145312: $GPRMC,075535,A,3946.9634,N,08404.9835,W,0.1567,9.200,120118,,*34
2018-01-12 02:55:35 1515743735.145372: $GPGSA,A,3,2,6,12,17,19,5,3,9,24,25,28,,2.4,0.8,2.1*02
2018-01-12 02:55:35 1515743735.597238: $GPZDA,075536.00,12,01,2018,00,00*6D
2018-01-12 02:55:35 1515743735.597390: $GPGGA,075536,3946.9643,N,08404.9835,W,1,11,0.80,314.98,M,-33.324,M,,*7A
2018-01-12 02:55:35 1515743735.597455: $GPRMC,075536,A,3946.9643,N,08404.9835,W,0.1867,180.000,120118,,*38
2018-01-12 02:55:35 1515743735.597515: $GPGSA,A,3,2,6,12,17,19,5,3,9,24,25,28,,2.4,0.8,2.1*02
