2017-11-15 19:08:05 1510790885.943772: {"class":"VERSION","release":"3.17","rev":"3.17","proto_major":3,"proto_minor":12}
2017-11-15 19:08:05 1510790885.944243: {"class":"DEVICES","devices":[{"class":"DEVICE","path":"/dev/ttyUSB0","driver":"SiRF","subtype":"9\u0006GSD4e_4.1.2-P1_RPATCH.05-F-GPS-4R-1510281 11/03/2015 307","activated":"2017-11-16T00:08:05.644Z","flags":1,"native":1,"bps":4800,"parity":"N","stopbits":1,"cycle":1.00}]}
2017-11-15 19:08:05 1510790885.944375: {"class":"WATCH","enable":true,"json":false,"nmea":true,"raw":0,"scaled":false,"timing":false,"split24":false,"pps":false}
2017-11-15 19:08:06 1510790886.663694: $GPGSV,3,1,11,32,44,097,25,14,62,076,21,03,33,309,00,26,42,175,21*7B
2017-11-15 19:08:06 1510790886.663866: $GPGSV,3,2,11,31,75,001,28,16,12,190,18,22,48,286,26,25,25,045,00*73
2017-11-15 19:08:06 1510790886.663926: $GPGSV,3,3,11,01,11,261,00,29,07,081,00,10,07,159,00*43
2017-11-15 19:08:06 1510790886.777867: $GPZDA,000805.00,16,11,2017,00,00*68
2017-11-15 19:08:06 1510790886.778043: $GPGGA,000805,3946.9585,N,08404.9531,W,1,06,2.00,302.80,M,-33.324,M,,*77
2017-11-15 19:08:06 1510790886.778107: $GPRMC,000805,A,3946.9585,N,08404.9531,W,0.4207,219.347,161117,,*37
2017-11-15 19:08:06 1510790886.778168: $GPGSA,A,3,32,14,26,31,16,22,,,,,,,3.4,2.0,2.9*39
2017-11-15 19:08:07 1510790887.329130: $GPZDA,000806.00,16,11,2017,00,00*6B
2017-11-15 19:08:07 1510790887.329303: $GPGGA,000806,3946.9581,N,08404.9531,W,1,06,2.00,302.16,M,-33.324,M,,*7F
2017-11-15 19:08:07 1510790887.329368: $GPRMC,000806,A,3946.9581,N,08404.9531,W,0.4179,148.778,161117,,*35
2017-11-15 19:08:07 1510790887.329425: $GPGSA,A,3,32,14,26,31,16,22,,,,,,,3.4,2.0,2.9*39
2017-11-15 19:08:08 1510790888.330520: $GPZDA,000807.00,16,11,2017,00,00*6A
2017-11-15 19:08:08 1510790888.330784: $GPGGA,000807,3946.9581,N,08404.9531,W,1,06,2.00,302.16,M,-33.324,M,,*7E
2017-11-15 19:08:08 1510790888.330852: $GPRMC,000807,A,3946.9581,N,08404.9531,W,0.2422,93.794,161117,,*0C
2017-11-15 19:08:08 1510790888.330910: $GPGSA,A,3,32,14,26,31,16,22,,,,,,,3.4,2.0,2.9*39
2017-11-15 19:08:09 1510790889.665879: $GPGSV,3,1,11,32,44,097,26,14,62,076,20,10,07,159,09,26,42,175,21*72
2017-11-15 19:08:09 1510790889.666045: $GPGSV,3,2,11,31,75,001,28,16,12,190,18,22,48,286,27,03,33,309,00*7A
2017-11-15 19:08:09 1510790889.666105: $GPGSV,3,3,11,25,25,045,00,01,11,261,00,29,07,081,00*49
2017-11-15 19:08:09 1510790889.779652: $GPZDA,000808.00,16,11,2017,00,00*65
2017-11-15 19:08:09 1510790889.779829: $GPGGA,000808,3946.9581,N,08404.9531,W,1,06,2.00,302.16,M,-33.324,M,,*71
2017-11-15 19:08:09 1510790889.779893: $GPRMC,000808,A,3946.9581,N,08404.9531,W,0.5306,114.352,161117,,*35
2017-11-15 19:08:09 1510790889.779952: $GPGSA,A,3,32,14,26,31,16,22,,,,,,,3.4,2.0,2.9*39
2017-11-15 19:08:10 1510790890.329117: $GPZDA,000809.00,16,11,2017,00,00*64
2017-11-15 19:08:10 1510790890.329295: $GPGGA,000809,3946.9581,N,08404.9531,W,1,06,2.00,302.16,M,-33.324,M,,*70
2017-11-15 19:08:10 1510790890.329361: $GPRMC,000809,A,3946.9581,N,08404.9531,W,0.7621,107.945,161117,,*38
2017-11-15 19:08:10 1510790890.329418: $GPGSA,A,3,32,14,26,31,16,22,,,,,,,3.4,2.0,2.9*39
2017-11-15 19:08:11 1510790891.329623: $GPZDA,000810.00,16,11,2017,00,00*6C
2017-11-15 19:08:11 1510790891.329797: $GPGGA,000810,3946.9580,N,08404.9524,W,1,06,2.00,302.24,M,-33.324,M,,*7C
2017-11-15 19:08:11 1510790891.329861: $GPRMC,000810,A,3946.9580,N,08404.9524,W,0.7576,81.915,161117,,*0E
2017-11-15 19:08:11 1510790891.329920: $GPGSA,A,3,32,14,26,31,16,22,,,,,,,3.4,2.0,2.9*39
2017-11-15 19:08:12 1510790892.664981: $GPGSV,3,1,11,32,44,097,26,14,62,076,20,10,07,159,11,26,42,175,21*7B
2017-11-15 19:08:12 1510790892.665153: $GPGSV,3,2,11,31,75,001,28,16,12,190,17,22,48,286,27,03,33,309,00*75
2017-11-15 19:08:12 1510790892.665214: $GPGSV,3,3,11,25,25,045,00,01,11,261,00,29,07,081,00*49
2017-11-15 19:08:12 1510790892.778736: $GPZDA,000811.00,16,11,2017,00,00*6D
2017-11-15 19:08:12 1510790892.778884: $GPGGA,000811,3946.9580,N,08404.9524,W,1,06,2.00,302.24,M,-33.324,M,,*7D
2017-11-15 19:08:12 1510790892.778946: $GPRMC,000811,A,3946.9580,N,08404.9524,W,0.2422,93.794,161117,,*0E
2017-11-15 19:08:12 1510790892.779055: $GPGSA,A,3,32,14,26,31,16,22,,,,,,,3.4,2.0,2.9*39
2017-11-15 19:08:13 1510790893.329488: $GPZDA,000812.00,16,11,2017,00,00*6E
2017-11-15 19:08:13 1510790893.329650: $GPGGA,000812,3946.9580,N,08404.9524,W,1,06,2.00,302.24,M,-33.324,M,,*7E
2017-11-15 19:08:13 1510790893.329712: $GPRMC,000812,A,3946.9580,N,08404.9524,W,0.2422,273.794,161117,,*31
2017-11-15 19:08:13 1510790893.329769: $GPGSA,A,3,32,14,26,31,16,22,,,,,,,3.4,2.0,2.9*39
2017-11-15 19:08:14 1510790894.328856: $GPZDA,000813.00,16,11,2017,00,00*6F
2017-11-15 19:08:14 1510790894.329019: $GPGGA,000813,3946.9585,N,08404.9531,W,1,06,2.00,302.80,M,-33.324,M,,*70
2017-11-15 19:08:14 1510790894.329081: $GPRMC,000813,A,3946.9585,N,08404.9531,W,0.5912,309.173,161117,,*3B
2017-11-15 19:08:14 1510790894.329138: $GPGSA,A,3,32,14,26,31,16,22,,,,,,,3.4,2.0,2.9*39
2017-11-15 19:08:15 1510790895.664774: $GPGSV,3,1,11,32,44,097,26,14,62,076,20,03,33,309,00,26,42,175,20*78
2017-11-15 19:08:15 1510790895.664974: $GPGSV,3,2,11,31,75,001,28,16,12,190,17,22,48,286,26,25,25,045,00*7C
2017-11-15 19:08:15 1510790895.665036: $GPGSV,3,3,11,01,11,261,00,29,07,081,00,10,07,159,00*43
2017-11-15 19:08:15 1510790895.776971: $GPZDA,000814.00,16,11,2017,00,00*68
2017-11-15 19:08:15 1510790895.777134: $GPGGA,000814,3946.9585,N,08404.9531,W,1,06,2.00,302.80,M,-33.324,M,,*77
2017-11-15 19:08:15 1510790895.777196: $GPRMC,000814,A,3946.9585,N,08404.9531,W,0.4179,328.778,161117,,*36
2017-11-15 19:08:15 1510790895.777255: $GPGSA,A,3,32,14,26,31,16,22,,,,,,,3.4,2.0,2.9*39
