2017-12-29 11:49:38 1514566178.261358: {"class":"VERSION","release":"3.16","rev":"3.16-4","proto_major":3,"proto_minor":11}
2017-12-29 11:49:38 1514566178.261802: {"class":"DEVICES","devices":[{"class":"DEVICE","path":"/dev/ttyUSB0","driver":"SiRF","subtype":"9\u0006GSD4e_4.1.2-P1_RPATCH.05-F-GPS-4R-1510281 11/03/2015 307","activated":"2017-12-29T16:49:38.211Z","flags":1,"native":1,"bps":4800,"parity":"N","stopbits":1,"cycle":1.00}]}
2017-12-29 11:49:38 1514566178.261917: {"class":"WATCH","enable":true,"json":false,"nmea":true,"raw":0,"scaled":false,"timing":false,"split24":false,"pps":false}
2017-12-29 11:49:38 1514566178.387990: $GPZDA,164939.00,29,12,2017,00,00*6A
2017-12-29 11:49:38 1514566178.388147: $GPGGA,164939,3946.9622,N,08404.9853,W,2,11,0.80,318.00,M,-33.324,M,,*71
2017-12-29 11:49:38 1514566178.388212: $GPRMC,164939,A,3946.9622,N,08404.9853,W,0.0000,0.000,291217,,*39
2017-12-29 11:49:38 1514566178.388273: $GPGSA,A,3,10,14,15,18,20,21,24,32,27,8,138,,1.7,0.8,1.3*36
2017-12-29 11:49:39 1514566179.382203: $GPZDA,164940.00,29,12,2017,00,00*64
2017-12-29 11:49:39 1514566179.382366: $GPGGA,164940,3946.9622,N,08404.9853,W,2,11,0.80,318.00,M,-33.324,M,,*7F
2017-12-29 11:49:39 1514566179.382432: $GPRMC,164940,A,3946.9622,N,08404.9853,W,0.0000,0.000,291217,,*37
2017-12-29 11:49:39 1514566179.382494: $GPGSA,A,3,10,14,15,18,20,21,24,32,27,8,138,,1.7,0.8,1.3*36
2017-12-29 11:49:40 1514566180.719030: $GPGSV,3,1,11,10,53,313,46,14,15,240,39,15,24,058,45,18,77,030,45*77
2017-12-29 11:49:40 1514566180.719210: $GPGSV,3,2,11,20,23,106,49,21,48,183,47,24,53,084,51,32,33,249,35*77
2017-12-29 11:49:40 1514566180.719276: $GPGSV,3,3,11,27,15,276,34,08,08,310,35,138,38,213,44*79
2017-12-29 11:49:40 1514566180.832365: $GPZDA,164941.00,29,12,2017,00,00*65
2017-12-29 11:49:40 1514566180.832501: $GPGGA,164941,3946.9622,N,08404.9853,W,2,11,0.80,318.00,M,-33.324,M,,*7E
2017-12-29 11:49:40 1514566180.832566: $GPRMC,164941,A,3946.9622,N,08404.9853,W,0.0000,0.000,291217,,*36
2017-12-29 11:49:40 1514566180.832625: $GPGSA,A,3,10,14,15,18,20,21,24,32,27,8,138,,1.7,0.8,1.3*36
2017-12-29 11:49:41 1514566181.383352: $GPZDA,164942.00,29,12,2017,00,00*66
2017-12-29 11:49:41 1514566181.383524: $GPGGA,164942,3946.9622,N,08404.9853,W,2,11,0.80,318.00,M,-33.324,M,,*7D
2017-12-29 11:49:41 1514566181.383592: $GPRMC,164942,A,3946.9622,N,08404.9853,W,0.0000,0.000,291217,,*35
2017-12-29 11:49:41 1514566181.383652: $GPGSA,A,3,10,14,15,18,20,21,24,32,27,8,138,,1.7,0.8,1.3*36
2017-12-29 11:49:42 1514566182.387908: $GPZDA,164943.00,29,12,2017,00,00*67
2017-12-29 11:49:42 1514566182.388084: $GPGGA,164943,3946.9622,N,08404.9853,W,2,11,0.80,318.00,M,-33.324,M,,*7C
2017-12-29 11:49:42 1514566182.388152: $GPRMC,164943,A,3946.9622,N,08404.9853,W,0.0000,0.000,291217,,*34
2017-12-29 11:49:42 1514566182.388212: $GPGSA,A,3,10,14,15,18,20,21,24,32,27,8,138,,1.7,0.8,1.3*36
2017-12-29 11:49:43 1514566183.724872: $GPGSV,3,1,11,10,53,313,45,14,15,240,39,15,24,058,45,18,77,030,45*74
2017-12-29 11:49:43 1514566183.725070: $GPGSV,3,2,11,20,23,106,49,21,48,183,47,24,53,084,51,32,33,249,35*77
2017-12-29 11:49:43 1514566183.725138: $GPGSV,3,3,11,27,15,276,33,08,08,310,33,138,38,213,45*79
2017-12-29 11:49:43 1514566183.839023: $GPZDA,164944.00,29,12,2017,00,00*60
2017-12-29 11:49:43 1514566183.839227: $GPGGA,164944,3946.9622,N,08404.9853,W,2,11,0.80,318.00,M,-33.324,M,,*7B
2017-12-29 11:49:43 1514566183.839296: $GPRMC,164944,A,3946.9622,N,08404.9853,W,0.0000,0.000,291217,,*33
2017-12-29 11:49:43 1514566183.839358: $GPGSA,A,3,10,14,15,18,20,21,24,32,27,8,138,,1.7,0.8,1.3*36
2017-12-29 11:49:44 1514566184.463922: $GPZDA,164945.00,29,12,2017,00,00*61
2017-12-29 11:49:44 1514566184.464100: $GPGGA,164945,3946.9622,N,08404.9853,W,2,11,0.80,318.00,M,-33.324,M,,*7A
2017-12-29 11:49:44 1514566184.464185: $GPRMC,164945,A,3946.9622,N,08404.9853,W,0.0000,0.000,291217,,*32
2017-12-29 11:49:44 1514566184.464248: $GPGSA,A,3,10,14,15,18,20,21,24,32,27,8,138,,1.7,0.8,1.3*36
2017-12-29 11:49:45 1514566185.389495: $GPZDA,164946.00,29,12,2017,00,00*62
2017-12-29 11:49:45 1514566185.389679: $GPGGA,164946,3946.9622,N,08404.9853,W,2,11,0.80,318.00,M,-33.324,M,,*79
2017-12-29 11:49:45 1514566185.389800: $GPRMC,164946,A,3946.9622,N,08404.9853,W,0.0000,0.000,291217,,*31
2017-12-29 11:49:45 1514566185.389863: $GPGSA,A,3,10,14,15,18,20,21,24,32,27,8,138,,1.7,0.8,1.3*36
2017-12-29 11:49:46 1514566186.725213: $GPGSV,3,1,11,10,53,313,45,14,15,240,39,15,24,058,45,18,77,030,45*74
2017-12-29 11:49:46 1514566186.725378: $GPGSV,3,2,11,20,23,106,49,21,48,183,47,24,53,084,51,32,33,249,36*74
2017-12-29 11:49:46 1514566186.725445: $GPGSV,3,3,11,27,15,276,33,08,08,310,30,138,38,213,45*7A
2017-12-29 11:49:46 1514566186.838676: $GPZDA,164947.00,29,12,2017,00,00*63
2017-12-29 11:49:46 1514566186.838856: $GPGGA,164947,3946.9622,N,08404.9853,W,2,11,0.80,318.00,M,-33.324,M,,*78
2017-12-29 11:49:46 1514566186.838924: $GPRMC,164947,A,3946.9622,N,08404.9853,W,0.0000,0.000,291217,,*30
2017-12-29 11:49:46 1514566186.838986: $GPGSA,A,3,10,14,15,18,20,21,24,32,27,8,138,,1.7,0.8,1.3*36
2017-12-29 11:49:47 1514566187.388220: $GPZDA,164948.00,29,12,2017,00,00*6C
2017-12-29 11:49:47 1514566187.388391: $GPGGA,164948,3946.9622,N,08404.9853,W,2,11,0.80,318.00,M,-33.324,M,,*77
2017-12-29 11:49:47 1514566187.388460: $GPRMC,164948,A,3946.9622,N,08404.9853,W,0.0000,0.000,291217,,*3F
2017-12-29 11:49:47 1514566187.388525: $GPGSA,A,3,10,14,15,18,20,21,24,32,27,8,138,,1.7,0.8,1.3*36
2017-12-29 11:49:48 1514566188.389075: $GPZDA,164949.00,29,12,2017,00,00*6D
2017-12-29 11:49:48 1514566188.389250: $GPGGA,164949,3946.9622,N,08404.9853,W,2,11,0.80,318.00,M,-33.324,M,,*76
2017-12-29 11:49:48 1514566188.389318: $GPRMC,164949,A,3946.9622,N,08404.9853,W,0.0000,0.000,291217,,*3E
2017-12-29 11:49:48 1514566188.389380: $GPGSA,A,3,10,14,15,18,20,21,24,32,27,8,138,,1.7,0.8,1.3*36
2017-12-29 11:49:49 1514566189.725566: $GPGSV,3,1,11,10,53,313,45,14,15,240,38,15,24,058,46,18,77,030,45*76
2017-12-29 11:49:49 1514566189.725763: $GPGSV,3,2,11,20,23,106,49,21,48,183,47,24,53,084,51,32,33,249,36*74
2017-12-29 11:49:49 1514566189.725831: $GPGSV,3,3,11,27,15,276,33,08,08,310,30,138,38,213,45*7A
2017-12-29 11:49:49 1514566189.838950: $GPZDA,164950.00,29,12,2017,00,00*65
2017-12-29 11:49:49 1514566189.839120: $GPGGA,164950,3946.9622,N,08404.9853,W,2,11,0.80,318.00,M,-33.324,M,,*7E
2017-12-29 11:49:49 1514566189.839185: $GPRMC,164950,A,3946.9622,N,08404.9853,W,0.3423,184.196,291217,,*33
2017-12-29 11:49:49 1514566189.839248: $GPGSA,A,3,10,14,15,18,20,21,24,32,27,8,138,,1.7,0.8,1.3*36
2017-12-29 11:49:50 1514566190.388664: $GPZDA,164951.00,29,12,2017,00,00*64
2017-12-29 11:49:50 1514566190.388851: $GPGGA,164951,3946.9618,N,08404.9853,W,2,11,0.80,318.77,M,-33.324,M,,*76
2017-12-29 11:49:50 1514566190.388919: $GPRMC,164951,A,3946.9618,N,08404.9853,W,0.0000,0.000,291217,,*3E
2017-12-29 11:49:50 1514566190.388982: $GPGSA,A,3,10,14,15,18,20,21,24,32,27,8,138,,1.7,0.8,1.3*36
2017-12-29 11:49:51 1514566191.383345: $GPZDA,164952.00,29,12,2017,00,00*67
2017-12-29 11:49:51 1514566191.383519: $GPGGA,164952,3946.9626,N,08404.9860,W,2,11,0.80,318.56,M,-33.324,M,,*7B
2017-12-29 11:49:51 1514566191.383588: $GPRMC,164952,A,3946.9626,N,08404.9860,W,0.0000,0.000,291217,,*30
2017-12-29 11:49:51 1514566191.383650: $GPGSA,A,3,10,14,15,18,20,21,24,32,27,8,138,,1.7,0.8,1.3*36
2017-12-29 11:49:52 1514566192.741479: $GPGSV,3,1,11,10,53,313,44,14,15,240,38,15,24,058,46,18,77,030,45*77
2017-12-29 11:49:52 1514566192.741660: $GPGSV,3,2,11,20,23,106,49,21,48,183,47,24,53,084,51,32,33,249,35*77
2017-12-29 11:49:52 1514566192.741730: $GPGSV,3,3,11,27,15,276,33,08,08,310,31,138,38,213,44*7A
2017-12-29 11:49:52 1514566192.855238: $GPZDA,164953.00,29,12,2017,00,00*66
2017-12-29 11:49:52 1514566192.855411: $GPGGA,164953,3946.9626,N,08404.9860,W,2,11,0.80,318.56,M,-33.324,M,,*7A
2017-12-29 11:49:52 1514566192.855481: $GPRMC,164953,A,3946.9626,N,08404.9860,W,0.0000,0.000,291217,,*31
2017-12-29 11:49:52 1514566192.855542: $GPGSA,A,3,10,14,15,18,20,21,24,32,27,8,138,,1.7,0.8,1.3*36
