2018-01-12 03:22:58 1515745378.916577: {"class":"VERSION","release":"3.16","rev":"3.16-4","proto_major":3,"proto_minor":11}
2018-01-12 03:22:58 1515745378.916913: {"class":"DEVICES","devices":[{"class":"DEVICE","path":"/dev/ttyUSB0","driver":"SiRF","subtype":"9\u0006GSD4e_4.1.2-P1_RPATCH.05-F-GPS-4R-1510281 11/03/2015 307","activated":"2018-01-12T08:22:58.482Z","flags":1,"native":1,"bps":4800,"parity":"N","stopbits":1,"cycle":1.00}]}
2018-01-12 03:22:58 1515745378.917033: {"class":"WATCH","enable":true,"json":false,"nmea":true,"raw":0,"scaled":false,"timing":false,"split24":false,"pps":false}
2018-01-12 03:22:59 1515745379.676728: $GPGSV,3,1,12,02,62,279,47,05,22,195,44,06,68,022,48,12,49,297,51*7B
2018-01-12 03:22:59 1515745379.676925: $GPGSV,3,2,12,17,35,100,47,19,52,087,39,25,15,319,42,09,12,093,27*78
2018-01-12 03:22:59 1515745379.676995: $GPGSV,3,3,12,23,08,060,20,24,05,249,25,04,34,256,00,138,38,213,38*44
2018-01-12 03:22:59 1515745379.790141: $GPZDA,082300.00,12,01,2018,00,00*66
2018-01-12 03:22:59 1515745379.790297: $GPGGA,082300,3946.9602,N,08404.9844,W,2,11,0.80,286.39,M,-33.324,M,,*70
2018-01-12 03:22:59 1515745379.790361: $GPRMC,082300,A,3946.9602,N,08404.9844,W,0.0000,0.000,120118,,*31
2018-01-12 03:22:59 1515745379.790423: $GPGSA,A,3,2,5,6,12,17,19,25,9,23,24,138,,2.4,0.8,2.1*00
2018-01-12 03:23:00 1515745380.339349: $GPZDA,082301.00,12,01,2018,00,00*67
2018-01-12 03:23:00 1515745380.339528: $GPGGA,082301,3946.9602,N,08404.9844,W,2,11,0.80,286.39,M,-33.324,M,,*71
2018-01-12 03:23:00 1515745380.339596: $GPRMC,082301,A,3946.9602,N,08404.9844,W,0.0000,0.000,120118,,*30
2018-01-12 03:23:00 1515745380.339660: $GPGSA,A,3,2,5,6,12,17,19,25,9,23,24,138,,2.4,0.8,2.1*00
2018-01-12 03:23:01 1515745381.859731: $GPZDA,082302.00,12,01,2018,00,00*64
2018-01-12 03:23:01 1515745381.859912: $GPGGA,082302,3946.9596,N,08404.9845,W,2,11,0.80,287.92,M,-33.324,M,,*7D
2018-01-12 03:23:01 1515745381.859978: $GPRMC,082302,A,3946.9596,N,08404.9845,W,0.2422,93.794,120118,,*0A
2018-01-12 03:23:01 1515745381.860043: $GPGSA,A,3,2,5,6,12,17,19,25,9,23,24,138,,2.4,0.8,2.1*00
2018-01-12 03:23:02 1515745382.680478: $GPGSV,3,1,12,02,62,279,47,05,22,195,44,06,68,022,48,12,49,297,51*7B
2018-01-12 03:23:02 1515745382.680658: $GPGSV,3,2,12,17,35,100,47,19,52,087,40,25,15,319,42,09,12,093,00*73
2018-01-12 03:23:02 1515745382.680723: $GPGSV,3,3,12,23,08,060,20,24,05,249,30,04,34,256,00,138,38,213,38*40
2018-01-12 03:23:02 1515745382.793821: $GPZDA,082303.00,12,01,2018,00,00*65
2018-01-12 03:23:02 1515745382.794374: $GPGGA,082303,3946.9596,N,08404.9845,W,2,10,0.80,287.92,M,-33.324,M,,*7D
2018-01-12 03:23:02 1515745382.803887: $GPRMC,082303,A,3946.9596,N,08404.9845,W,0.0000,0.000,120118,,*3D
2018-01-12 03:23:02 1515745382.803967: $GPGSA,A,3,2,5,6,12,17,19,25,23,24,138,,,2.4,0.8,2.1*39
2018-01-12 03:23:03 1515745383.419384: $GPZDA,082304.00,12,01,2018,00,00*62
2018-01-12 03:23:03 1515745383.419550: $GPGGA,082304,3946.9596,N,08404.9845,W,2,10,0.80,287.92,M,-33.324,M,,*7A
2018-01-12 03:23:03 1515745383.419617: $GPRMC,082304,A,3946.9596,N,08404.9845,W,0.0000,0.000,120118,,*3A
2018-01-12 03:23:03 1515745383.419678: $GPGSA,A,3,2,5,6,12,17,19,25,23,24,138,,,2.4,0.8,2.1*39
2018-01-12 03:23:04 1515745384.341487: $GPZDA,082305.00,12,01,2018,00,00*63
2018-01-12 03:23:04 1515745384.341662: $GPGGA,082305,3946.9596,N,08404.9845,W,2,10,0.80,287.92,M,-33.324,M,,*7B
2018-01-12 03:23:04 1515745384.341728: $GPRMC,082305,A,3946.9596,N,08404.9845,W,0.0000,0.000,120118,,*3B
2018-01-12 03:23:04 1515745384.341804: $GPGSA,A,3,2,5,6,12,17,19,25,23,24,138,,,2.4,0.8,2.1*39
2018-01-12 03:23:05 1515745385.678376: $GPGSV,3,1,12,02,62,279,46,05,22,195,44,06,68,022,47,12,49,297,51*75
2018-01-12 03:23:05 1515745385.678554: $GPGSV,3,2,12,17,35,100,47,19,52,087,40,25,15,319,43,09,12,093,28*78
2018-01-12 03:23:05 1515745385.678619: $GPGSV,3,3,12,23,08,060,21,24,05,249,30,04,34,256,00,138,38,213,40*4E
2018-01-12 03:23:05 1515745385.791963: $GPZDA,082306.00,12,01,2018,00,00*60
2018-01-12 03:23:05 1515745385.792133: $GPGGA,082306,3946.9596,N,08404.9845,W,2,11,0.80,287.92,M,-33.324,M,,*79
2018-01-12 03:23:05 1515745385.792253: $GPRMC,082306,A,3946.9596,N,08404.9845,W,0.0000,0.000,120118,,*38
2018-01-12 03:23:05 1515745385.792316: $GPGSA,A,3,2,5,6,12,17,19,25,9,23,24,138,,2.4,0.8,2.1*00
2018-01-12 03:23:06 1515745386.341570: $GPZDA,082307.00,12,01,2018,00,00*61
2018-01-12 03:23:06 1515745386.341739: $GPGGA,082307,3946.9596,N,08404.9845,W,2,11,0.80,287.92,M,-33.324,M,,*78
2018-01-12 03:23:06 1515745386.341805: $GPRMC,082307,A,3946.9596,N,08404.9845,W,0.0000,0.000,120118,,*39
2018-01-12 03:23:06 1515745386.341866: $GPGSA,A,3,2,5,6,12,17,19,25,9,23,24,138,,2.4,0.8,2.1*00
2018-01-12 03:23:07 1515745387.339695: $GPZDA,082308.00,12,01,2018,00,00*6E
2018-01-12 03:23:07 1515745387.339867: $GPGGA,082308,3946.9596,N,08404.9845,W,2,11,0.80,287.92,M,-33.324,M,,*77
2018-01-12 03:23:07 1515745387.339935: $GPRMC,082308,A,3946.9596,N,08404.9845,W,0.0000,0.000,120118,,*36
2018-01-12 03:23:07 1515745387.339997: $GPGSA,A,3,2,5,6,12,17,19,25,9,23,24,138,,2.4,0.8,2.1*00
2018-01-12 03:23:08 1515745388.678826: $GPGSV,3,1,12,02,62,279,46,05,22,195,43,06,68,022,48,12,49,297,51*7D
2018-01-12 03:23:08 1515745388.679033: $GPGSV,3,2,12,17,35,100,47,19,52,087,39,25,15,319,43,09,12,093,03*7F
2018-01-12 03:23:08 1515745388.679100: $GPGSV,3,3,12,23,08,060,21,24,05,249,30,04,34,256,00,138,38,213,34*4D
2018-01-12 03:23:08 1515745388.792029: $GPZDA,082309.00,12,01,2018,00,00*6F
2018-01-12 03:23:08 1515745388.792211: $GPGGA,082309,3946.9596,N,08404.9845,W,2,10,0.80,287.92,M,-33.324,M,,*77
2018-01-12 03:23:08 1515745388.792280: $GPRMC,082309,A,3946.9596,N,08404.9845,W,0.0000,0.000,120118,,*37
2018-01-12 03:23:08 1515745388.792436: $GPGSA,A,3,2,5,6,12,17,19,25,23,24,138,,,2.4,0.8,2.1*39
2018-01-12 03:23:09 1515745389.340565: $GPZDA,082310.00,12,01,2018,00,00*67
2018-01-12 03:23:09 1515745389.340738: $GPGGA,082310,3946.9596,N,08404.9845,W,2,10,0.80,287.92,M,-33.324,M,,*7F
2018-01-12 03:23:09 1515745389.340804: $GPRMC,082310,A,3946.9596,N,08404.9845,W,0.0000,0.000,120118,,*3F
2018-01-12 03:23:09 1515745389.340865: $GPGSA,A,3,2,5,6,12,17,19,25,23,24,138,,,2.4,0.8,2.1*39
2018-01-12 03:23:10 1515745390.345229: $GPZDA,082311.00,12,01,2018,00,00*66
2018-01-12 03:23:10 1515745390.345398: $GPGGA,082311,3946.9596,N,08404.9845,W,2,10,0.80,287.92,M,-33.324,M,,*7E
2018-01-12 03:23:10 1515745390.345464: $GPRMC,082311,A,3946.9596,N,08404.9845,W,0.0000,0.000,120118,,*3E
2018-01-12 03:23:10 1515745390.345524: $GPGSA,A,3,2,5,6,12,17,19,25,23,24,138,,,2.4,0.8,2.1*39
2018-01-12 03:23:11 1515745391.675806: $GPGSV,3,1,12,02,62,279,47,05,22,195,43,06,68,022,48,12,49,297,51*7C
2018-01-12 03:23:11 1515745391.675989: $GPGSV,3,2,12,17,35,100,48,19,52,087,39,25,15,319,43,09,12,093,30*70
2018-01-12 03:23:11 1515745391.676055: $GPGSV,3,3,12,23,08,060,04,24,05,249,30,04,34,256,00,138,38,213,37*49
2018-01-12 03:23:11 1515745391.789166: $GPZDA,082312.00,12,01,2018,00,00*65
2018-01-12 03:23:11 1515745391.789343: $GPGGA,082312,3946.9596,N,08404.9845,W,2,10,0.80,287.92,M,-33.324,M,,*7D
2018-01-12 03:23:11 1515745391.789411: $GPRMC,082312,A,3946.9596,N,08404.9845,W,0.0000,0.000,120118,,*3D
2018-01-12 03:23:11 1515745391.789471: $GPGSA,A,3,2,5,6,12,17,19,25,9,24,138,,,2.4,0.8,2.1*01
2018-01-12 03:23:12 1515745392.342793: $GPZDA,082313.00,12,01,2018,00,00*64
2018-01-12 03:23:12 1515745392.342971: $GPGGA,082313,3946.9596,N,08404.9845,W,2,10,0.80,287.92,M,-33.324,M,,*7C
2018-01-12 03:23:12 1515745392.343038: $GPRMC,082313,A,3946.9596,N,08404.9845,W,0.0000,0.000,120118,,*3C
2018-01-12 03:23:12 1515745392.343098: $GPGSA,A,3,2,5,6,12,17,19,25,9,24,138,,,2.4,0.8,2.1*01
2018-01-12 03:23:13 1515745393.341951: $GPZDA,082314.00,12,01,2018,00,00*63
2018-01-12 03:23:13 1515745393.342123: $GPGGA,082314,3946.9596,N,08404.9845,W,2,10,0.80,287.92,M,-33.324,M,,*7B
2018-01-12 03:23:13 1515745393.342189: $GPRMC,082314,A,3946.9596,N,08404.9845,W,0.0000,0.000,120118,,*3B
2018-01-12 03:23:13 1515745393.342251: $GPGSA,A,3,2,5,6,12,17,19,25,9,24,138,,,2.4,0.8,2.1*01
2018-01-12 03:23:14 1515745394.677425: $GPGSV,3,1,12,02,62,279,47,05,22,195,43,06,68,022,48,12,49,297,51*7C
2018-01-12 03:23:14 1515745394.677656: $GPGSV,3,2,12,17,35,100,48,19,52,087,39,25,15,319,43,09,12,093,30*70
2018-01-12 03:23:14 1515745394.677723: $GPGSV,3,3,12,23,08,060,15,24,05,249,31,04,34,256,00,138,38,213,39*46
2018-01-12 03:23:14 1515745394.791053: $GPZDA,082315.00,12,01,2018,00,00*62
2018-01-12 03:23:14 1515745394.791223: $GPGGA,082315,3946.9596,N,08404.9845,W,2,11,0.80,287.92,M,-33.324,M,,*7B
2018-01-12 03:23:14 1515745394.791289: $GPRMC,082315,A,3946.9596,N,08404.9845,W,0.0000,0.000,120118,,*3A
2018-01-12 03:23:14 1515745394.791350: $GPGSA,A,3,2,5,6,12,17,19,25,9,23,24,138,,2.4,0.8,2.1*00
2018-01-12 03:23:15 1515745395.343172: $GPZDA,082316.00,12,01,2018,00,00*61
2018-01-12 03:23:15 1515745395.343345: $GPGGA,082316,3946.9596,N,08404.9845,W,2,11,0.80,287.92,M,-33.324,M,,*78
2018-01-12 03:23:15 1515745395.343411: $GPRMC,082316,A,3946.9596,N,08404.9845,W,0.0000,0.000,120118,,*39
2018-01-12 03:23:15 1515745395.343471: $GPGSA,A,3,2,5,6,12,17,19,25,9,23,24,138,,2.4,0.8,2.1*00
2018-01-12 03:23:16 1515745396.340317: $GPZDA,082317.00,12,01,2018,00,00*60
2018-01-12 03:23:16 1515745396.340485: $GPGGA,082317,3946.9592,N,08404.9846,W,2,11,0.80,288.68,M,-33.324,M,,*74
2018-01-12 03:23:16 1515745396.340550: $GPRMC,082317,A,3946.9592,N,08404.9846,W,0.0000,0.000,120118,,*3F
2018-01-12 03:23:16 1515745396.340611: $GPGSA,A,3,2,5,6,12,17,19,25,9,23,24,138,,2.4,0.8,2.1*00
2018-01-12 03:23:17 1515745397.679685: $GPGSV,3,1,12,02,62,279,47,05,22,195,43,06,68,022,48,12,49,297,51*7C
2018-01-12 03:23:17 1515745397.679877: $GPGSV,3,2,12,17,35,100,48,19,52,087,39,25,15,319,43,09,12,093,30*70
2018-01-12 03:23:17 1515745397.679943: $GPGSV,3,3,12,23,08,060,17,24,05,249,31,04,34,256,00,138,38,213,38*45
2018-01-12 03:23:17 1515745397.793265: $GPZDA,082318.00,12,01,2018,00,00*6F
2018-01-12 03:23:17 1515745397.793516: $GPGGA,082318,3946.9592,N,08404.9846,W,2,11,0.80,288.68,M,-33.324,M,,*7B
2018-01-12 03:23:17 1515745397.793585: $GPRMC,082318,A,3946.9592,N,08404.9846,W,0.0000,0.000,120118,,*30
2018-01-12 03:23:17 1515745397.793646: $GPGSA,A,3,2,5,6,12,17,19,25,9,23,24,138,,2.4,0.8,2.1*00
2018-01-12 03:23:18 1515745398.418680: $GPZDA,082319.00,12,01,2018,00,00*6E
2018-01-12 03:23:18 1515745398.833587: $GPGGA,082319,3946.9592,N,08404.9846,W,2,11,0.80,288.68,M,-33.324,M,,*7A
2018-01-12 03:23:18 1515745398.833734: $GPRMC,082319,A,3946.9592,N,08404.9846,W,0.0000,0.000,120118,,*31
2018-01-12 03:23:18 1515745398.833802: $GPGSA,A,3,2,5,6,12,17,19,25,9,23,24,138,,2.4,0.8,2.1*00
