2017-11-15 17:32:20 1510785140.803660: {"class":"VERSION","release":"3.17","rev":"3.17","proto_major":3,"proto_minor":12}
2017-11-15 17:32:20 1510785140.804097: {"class":"DEVICES","devices":[{"class":"DEVICE","path":"/dev/ttyUSB0","driver":"SiRF","subtype":"9\u0006GSD4e_4.1.2-P1_RPATCH.05-F-GPS-4R-1510281 11/03/2015 307","activated":"2017-11-15T22:32:20.485Z","flags":1,"native":1,"bps":4800,"parity":"N","stopbits":1,"cycle":1.00}]}
2017-11-15 17:32:20 1510785140.804222: {"class":"WATCH","enable":true,"json":false,"nmea":true,"raw":0,"scaled":false,"timing":false,"split24":false,"pps":false}
2017-11-15 17:32:21 1510785141.504927: $GPGSV,3,1,11,10,50,147,19,25,39,093,25,32,69,022,21,12,23,051,14*7B
2017-11-15 17:32:21 1510785141.505097: $GPGSV,3,2,11,01,21,303,00,31,53,223,26,14,65,324,09,11,09,283,11*73
2017-11-15 17:32:21 1510785141.505156: $GPGSV,3,3,11,18,20,144,00,22,17,312,00,135,23,238,00*7A
2017-11-15 17:32:21 1510785141.618264: $GPZDA,223220.00,15,11,2017,00,00*65
2017-11-15 17:32:21 1510785141.618421: $GPGGA,223220,3946.9430,N,08404.9353,W,1,07,2.80,338.68,M,-33.324,M,,*72
2017-11-15 17:32:21 1510785141.618480: $GPRMC,223220,A,3946.9430,N,08404.9353,W,0.7246,164.668,151117,,*30
2017-11-15 17:32:21 1510785141.618535: $GPGSA,A,3,10,25,32,12,31,14,11,,,,,,3.4,2.8,2.9*37
2017-11-15 17:32:22 1510785142.147179: $GPZDA,223221.00,15,11,2017,00,00*64
2017-11-15 17:32:22 1510785142.147342: $GPGGA,223221,3946.9426,N,08404.9353,W,1,07,2.80,338.04,M,-33.324,M,,*7E
2017-11-15 17:32:22 1510785142.147401: $GPRMC,223221,A,3946.9426,N,08404.9353,W,1.3082,161.818,151117,,*35
2017-11-15 17:32:22 1510785142.147456: $GPGSA,A,3,10,25,32,12,31,14,11,,,,,,3.4,2.8,2.9*37
2017-11-15 17:32:23 1510785143.169816: $GPZDA,223222.00,15,11,2017,00,00*67
2017-11-15 17:32:23 1510785143.169995: $GPGGA,223222,3946.9422,N,08404.9346,W,1,07,2.80,338.89,M,-33.324,M,,*78
2017-11-15 17:32:23 1510785143.170056: $GPRMC,223222,A,3946.9422,N,08404.9346,W,1.8622,142.515,151117,,*30
2017-11-15 17:32:23 1510785143.170111: $GPGSA,A,3,10,25,32,12,31,14,11,,,,,,3.4,2.8,2.9*37
2017-11-15 17:32:24 1510785144.483522: $GPGSV,3,1,11,10,50,147,19,25,39,093,25,32,69,022,21,12,23,051,14*7B
2017-11-15 17:32:24 1510785144.483691: $GPGSV,3,2,11,01,21,303,00,31,53,223,26,14,65,324,08,11,09,283,11*72
2017-11-15 17:32:24 1510785144.483751: $GPGSV,3,3,11,18,20,144,00,22,17,312,00,120,07,103,00*73
2017-11-15 17:32:24 1510785144.596867: $GPZDA,223223.00,15,11,2017,00,00*66
2017-11-15 17:32:24 1510785144.597024: $GPGGA,223223,3946.9418,N,08404.9346,W,1,07,2.80,338.25,M,-33.324,M,,*76
2017-11-15 17:32:24 1510785144.597085: $GPRMC,223223,A,3946.9418,N,08404.9346,W,1.8133,129.459,151117,,*3B
2017-11-15 17:32:24 1510785144.597140: $GPGSA,A,3,10,25,32,12,31,14,11,,,,,,3.4,2.8,2.9*37
2017-11-15 17:32:25 1510785145.167005: $GPZDA,223224.00,15,11,2017,00,00*61
2017-11-15 17:32:25 1510785145.167163: $GPGGA,223224,3946.9418,N,08404.9339,W,1,07,2.80,338.33,M,-33.324,M,,*7E
2017-11-15 17:32:25 1510785145.167222: $GPRMC,223224,A,3946.9418,N,08404.9339,W,1.7180,158.672,151117,,*3E
2017-11-15 17:32:25 1510785145.167279: $GPGSA,A,3,10,25,32,12,31,14,11,,,,,,3.4,2.8,2.9*37
2017-11-15 17:32:26 1510785146.146607: $GPZDA,223225.00,15,11,2017,00,00*60
2017-11-15 17:32:26 1510785146.146863: $GPGGA,223225,3946.9415,N,08404.9347,W,1,07,2.80,339.01,M,-33.324,M,,*7B
2017-11-15 17:32:26 1510785146.146929: $GPRMC,223225,A,3946.9415,N,08404.9347,W,1.4168,152.696,151117,,*3E
2017-11-15 17:32:26 1510785146.146985: $GPGSA,A,3,10,25,32,12,31,14,11,,,,,,3.4,2.8,2.9*37
2017-11-15 17:32:27 1510785147.502883: $GPGSV,3,1,11,10,50,147,18,25,39,093,25,32,69,022,21,12,23,051,00*7F
2017-11-15 17:32:27 1510785147.503059: $GPGSV,3,2,11,01,21,303,00,31,53,223,27,14,65,324,08,18,20,144,00*79
2017-11-15 17:32:27 1510785147.503117: $GPGSV,3,3,11,22,17,312,00,11,09,283,00,120,07,103,00*79
2017-11-15 17:32:27 1510785147.616346: $GPZDA,223226.00,15,11,2017,00,00*63
2017-11-15 17:32:27 1510785147.616508: $GPGGA,223226,3946.9415,N,08404.9347,W,1,05,2.80,339.01,M,-33.324,M,,*7A
2017-11-15 17:32:27 1510785147.616567: $GPRMC,223226,A,3946.9415,N,08404.9347,W,0.9019,198.875,151117,,*33
2017-11-15 17:32:27 1510785147.616676: $GPGSA,A,3,10,25,32,31,14,,,,,,,,3.4,2.8,2.9*34
2017-11-15 17:32:28 1510785148.167660: $GPZDA,223227.00,15,11,2017,00,00*62
2017-11-15 17:32:28 1510785148.167817: $GPGGA,223227,3946.9415,N,08404.9354,W,1,05,2.80,338.93,M,-33.324,M,,*73
2017-11-15 17:32:28 1510785148.167879: $GPRMC,223227,A,3946.9415,N,08404.9354,W,0.9019,198.875,151117,,*30
2017-11-15 17:32:28 1510785148.167934: $GPGSA,A,3,10,25,32,31,14,,,,,,,,3.4,2.8,2.9*34
2017-11-15 17:32:29 1510785149.165224: $GPZDA,223228.00,15,11,2017,00,00*6D
2017-11-15 17:32:29 1510785149.165404: $GPGGA,223228,3946.9415,N,08404.9354,W,1,05,2.80,338.93,M,-33.324,M,,*7C
2017-11-15 17:32:29 1510785149.165466: $GPRMC,223228,A,3946.9415,N,08404.9354,W,1.0567,197.448,151117,,*36
2017-11-15 17:32:29 1510785149.165522: $GPGSA,A,3,10,25,32,31,14,,,,,,,,3.4,2.8,2.9*34
2017-11-15 17:32:30 1510785150.481488: $GPGSV,3,1,11,10,50,147,19,25,39,093,25,32,69,022,22,11,09,283,01*7A
2017-11-15 17:32:30 1510785150.481659: $GPGSV,3,2,11,12,23,051,00,31,53,223,27,14,65,324,08,01,21,303,00*75
2017-11-15 17:32:30 1510785150.481719: $GPGSV,3,3,11,18,20,144,00,22,17,312,00,120,07,103,00*73
2017-11-15 17:32:30 1510785150.594838: $GPZDA,223229.00,15,11,2017,00,00*6C
2017-11-15 17:32:30 1510785150.595000: $GPGGA,223229,3946.9415,N,08404.9354,W,1,05,2.80,338.93,M,-33.324,M,,*7D
2017-11-15 17:32:30 1510785150.595077: $GPRMC,223229,A,3946.9415,N,08404.9354,W,0.8709,183.298,151117,,*3A
2017-11-15 17:32:30 1510785150.595135: $GPGSA,A,3,10,25,32,31,14,,,,,,,,3.4,2.8,2.9*34
2017-11-15 17:32:31 1510785151.649302: $GPZDA,223230.00,15,11,2017,00,00*64
2017-11-15 17:32:31 1510785151.649508: $GPGGA,223230,3946.9415,N,08404.9354,W,1,05,2.80,338.93,M,-33.324,M,,*75
2017-11-15 17:32:31 1510785151.649591: $GPRMC,223230,A,3946.9415,N,08404.9354,W,0.7278,203.637,151117,,*34
2017-11-15 17:32:31 1510785151.649649: $GPGSA,A,3,10,25,32,31,14,,,,,,,,3.4,2.8,2.9*34
2017-11-15 17:32:32 1510785152.168266: $GPZDA,223231.00,15,11,2017,00,00*65
2017-11-15 17:32:32 1510785152.168425: $GPGGA,223231,3946.9415,N,08404.9354,W,1,05,2.80,338.93,M,-33.324,M,,*74
2017-11-15 17:32:32 1510785152.168485: $GPRMC,223231,A,3946.9415,N,08404.9354,W,0.6846,184.197,151117,,*32
2017-11-15 17:32:32 1510785152.168540: $GPGSA,A,3,10,25,32,31,14,,,,,,,,3.4,2.8,2.9*34
2017-11-15 17:32:33 1510785153.481712: $GPGSV,3,1,12,10,49,147,19,25,39,091,25,32,69,024,22,11,09,283,10*75
2017-11-15 17:32:33 1510785153.481884: $GPGSV,3,2,12,12,22,051,00,26,01,184,13,31,54,223,27,14,66,325,08*7A
2017-11-15 17:32:33 1510785153.481944: $GPGSV,3,3,12,01,21,301,00,18,19,144,00,22,18,312,00,120,07,103,00*45
2017-11-15 17:32:33 1510785153.595343: $GPZDA,223232.00,15,11,2017,00,00*66
2017-11-15 17:32:33 1510785153.595504: $GPGGA,223232,3946.9419,N,08404.9354,W,1,06,2.80,339.57,M,-33.324,M,,*71
2017-11-15 17:32:33 1510785153.595564: $GPRMC,223232,A,3946.9419,N,08404.9354,W,0.0000,0.000,151117,,*33
2017-11-15 17:32:33 1510785153.595618: $GPGSA,A,3,10,25,32,26,31,14,,,,,,,3.4,2.8,2.9*30
2017-11-15 17:32:34 1510785154.168351: $GPZDA,223233.00,15,11,2017,00,00*67
2017-11-15 17:32:34 1510785154.168505: $GPGGA,223233,3946.9419,N,08404.9354,W,1,06,2.80,339.57,M,-33.324,M,,*70
2017-11-15 17:32:34 1510785154.168565: $GPRMC,223233,A,3946.9419,N,08404.9354,W,0.5951,58.684,151117,,*0D
2017-11-15 17:32:34 1510785154.168630: $GPGSA,A,3,10,25,32,26,31,14,,,,,,,3.4,2.8,2.9*30
2017-11-15 17:32:35 1510785155.169245: $GPZDA,223234.00,15,11,2017,00,00*60
2017-11-15 17:32:35 1510785155.169409: $GPGGA,223234,3946.9423,N,08404.9353,W,1,06,2.80,338.81,M,-33.324,M,,*73
2017-11-15 17:32:35 1510785155.169469: $GPRMC,223234,A,3946.9423,N,08404.9353,W,0.8054,68.645,151117,,*0B
2017-11-15 17:32:35 1510785155.169524: $GPGSA,A,3,10,25,32,26,31,14,,,,,,,3.4,2.8,2.9*30
2017-11-15 17:32:36 1510785156.512245: $GPGSV,3,1,12,10,49,147,19,25,39,091,25,32,69,024,22,11,09,283,11*74
2017-11-15 17:32:36 1510785156.512415: $GPGSV,3,2,12,12,22,051,00,26,01,184,14,31,54,223,26,14,66,325,07*73
2017-11-15 17:32:36 1510785156.512523: $GPGSV,3,3,12,01,21,301,00,18,19,144,00,22,18,312,00,120,07,103,00*45
2017-11-15 17:32:36 1510785156.625562: $GPZDA,223235.00,15,11,2017,00,00*61
2017-11-15 17:32:36 1510785156.625729: $GPGGA,223235,3946.9427,N,08404.9353,W,1,07,2.80,339.45,M,-33.324,M,,*7E
2017-11-15 17:32:36 1510785156.625790: $GPRMC,223235,A,3946.9427,N,08404.9353,W,0.5951,58.684,151117,,*01
2017-11-15 17:32:36 1510785156.625845: $GPGSA,A,3,10,25,32,11,26,31,14,,,,,,3.4,2.8,2.9*30
2017-11-15 17:32:37 1510785157.175789: $GPZDA,223236.00,15,11,2017,00,00*62
2017-11-15 17:32:37 1510785157.175953: $GPGGA,223236,3946.9428,N,08404.9354,W,1,07,2.80,340.85,M,-33.324,M,,*77
2017-11-15 17:32:37 1510785157.176013: $GPRMC,223236,A,3946.9428,N,08404.9354,W,0.5230,76.444,151117,,*04
2017-11-15 17:32:37 1510785157.176068: $GPGSA,A,3,10,25,32,11,26,31,14,,,,,,3.4,2.8,2.9*30
2017-11-15 17:32:38 1510785158.169593: $GPZDA,223237.00,15,11,2017,00,00*63
2017-11-15 17:32:38 1510785158.169756: $GPGGA,223237,3946.9432,N,08404.9354,W,1,07,2.80,341.49,M,-33.324,M,,*7C
2017-11-15 17:32:38 1510785158.169816: $GPRMC,223237,A,3946.9432,N,08404.9354,W,0.8011,119.090,151117,,*37
2017-11-15 17:32:38 1510785158.169872: $GPGSA,A,3,10,25,32,11,26,31,14,,,,,,3.4,2.8,2.9*30
2017-11-15 17:32:39 1510785159.504587: $GPGSV,3,1,12,10,49,147,19,25,39,091,25,32,69,024,23,11,09,283,10*74
2017-11-15 17:32:39 1510785159.504758: $GPGSV,3,2,12,12,22,051,04,26,01,184,13,31,54,223,27,14,66,325,08*7E
2017-11-15 17:32:39 1510785159.504835: $GPGSV,3,3,12,01,21,301,00,18,19,144,00,22,18,312,00,120,07,103,00*45
2017-11-15 17:32:39 1510785159.617941: $GPZDA,223238.00,15,11,2017,00,00*6C
2017-11-15 17:32:39 1510785159.618092: $GPGGA,223238,3946.9432,N,08404.9354,W,1,07,2.80,341.49,M,-33.324,M,,*73
2017-11-15 17:32:39 1510785159.618151: $GPRMC,223238,A,3946.9432,N,08404.9354,W,0.9988,104.546,151117,,*32
2017-11-15 17:32:39 1510785159.618207: $GPGSA,A,3,10,25,32,11,26,31,14,,,,,,3.4,2.8,2.9*30
2017-11-15 17:32:40 1510785160.169671: $GPZDA,223239.00,15,11,2017,00,00*6D
2017-11-15 17:32:40 1510785160.169841: $GPGGA,223239,3946.9431,N,08404.9347,W,1,07,2.80,341.57,M,-33.324,M,,*7C
2017-11-15 17:32:40 1510785160.169900: $GPRMC,223239,A,3946.9431,N,08404.9347,W,0.9689,93.795,151117,,*0F
2017-11-15 17:32:40 1510785160.169955: $GPGSA,A,3,10,25,32,11,26,31,14,,,,,,3.4,2.8,2.9*30
2017-11-15 17:32:41 1510785161.170493: $GPZDA,223240.00,15,11,2017,00,00*63
2017-11-15 17:32:41 1510785161.170655: $GPGGA,223240,3946.9432,N,08404.9348,W,1,07,2.80,342.97,M,-33.324,M,,*71
2017-11-15 17:32:41 1510785161.170716: $GPRMC,223240,A,3946.9432,N,08404.9348,W,1.0253,113.297,151117,,*38
2017-11-15 17:32:41 1510785161.170771: $GPGSA,A,3,10,25,32,11,26,31,14,,,,,,3.4,2.8,2.9*30
2017-11-15 17:32:42 1510785162.482730: $GPGSV,3,1,12,10,49,147,18,25,39,091,26,32,69,024,23,11,09,283,09*7E
2017-11-15 17:32:42 1510785162.482923: $GPGSV,3,2,12,12,22,051,12,26,01,184,13,31,54,223,27,14,66,325,08*79
2017-11-15 17:32:42 1510785162.482984: $GPGSV,3,3,12,01,21,301,00,18,19,144,00,22,18,312,00,120,07,103,00*45
2017-11-15 17:32:42 1510785162.596110: $GPZDA,223241.00,15,11,2017,00,00*62
2017-11-15 17:32:42 1510785162.596267: $GPGGA,223241,3946.9432,N,08404.9348,W,1,08,2.80,342.97,M,-33.324,M,,*7F
2017-11-15 17:32:42 1510785162.596327: $GPRMC,223241,A,3946.9432,N,08404.9348,W,0.5912,129.173,151117,,*33
2017-11-15 17:32:42 1510785162.596382: $GPGSA,A,3,10,25,32,11,12,26,31,14,,,,,3.4,2.8,2.9*33
2017-11-15 17:32:43 1510785163.147522: $GPZDA,223242.00,15,11,2017,00,00*61
2017-11-15 17:32:43 1510785163.147683: $GPGGA,223242,3946.9432,N,08404.9348,W,1,08,2.80,342.97,M,-33.324,M,,*7C
2017-11-15 17:32:43 1510785163.147743: $GPRMC,223242,A,3946.9432,N,08404.9348,W,1.0002,154.331,151117,,*32
2017-11-15 17:32:43 1510785163.147798: $GPGSA,A,3,10,25,32,11,12,26,31,14,,,,,3.4,2.8,2.9*33
2017-11-15 17:32:44 1510785164.146372: $GPZDA,223243.00,15,11,2017,00,00*60
2017-11-15 17:32:44 1510785164.146533: $GPGGA,223243,3946.9428,N,08404.9348,W,1,08,2.80,342.33,M,-33.324,M,,*78
2017-11-15 17:32:44 1510785164.146643: $GPRMC,223243,A,3946.9428,N,08404.9348,W,0.8359,148.779,151117,,*39
2017-11-15 17:32:44 1510785164.146700: $GPGSA,A,3,10,25,32,11,12,26,31,14,,,,,3.4,2.8,2.9*33
2017-11-15 17:32:45 1510785165.482575: $GPGSV,3,1,12,10,49,147,18,25,39,091,26,32,69,024,23,11,09,283,08*7F
2017-11-15 17:32:45 1510785165.482750: $GPGSV,3,2,12,12,22,051,11,26,01,184,13,31,54,223,27,14,66,325,07*75
2017-11-15 17:32:45 1510785165.482810: $GPGSV,3,3,12,01,21,301,00,18,19,144,00,22,18,312,00,120,07,103,00*45
2017-11-15 17:32:45 1510785165.596314: $GPZDA,223244.00,15,11,2017,00,00*67
2017-11-15 17:32:45 1510785165.596474: $GPGGA,223244,3946.9432,N,08404.9348,W,1,08,2.80,342.97,M,-33.324,M,,*7A
2017-11-15 17:32:45 1510785165.596534: $GPRMC,223244,A,3946.9432,N,08404.9348,W,0.3423,184.197,151117,,*32
2017-11-15 17:32:45 1510785165.596589: $GPGSA,A,3,10,25,32,11,12,26,31,14,,,,,3.4,2.8,2.9*33
2017-11-15 17:32:46 1510785166.146885: $GPZDA,223245.00,15,11,2017,00,00*66
2017-11-15 17:32:46 1510785166.147056: $GPGGA,223245,3946.9436,N,08404.9354,W,1,08,2.80,342.13,M,-33.324,M,,*7E
2017-11-15 17:32:46 1510785166.147118: $GPRMC,223245,A,3946.9436,N,08404.9354,W,0.3423,4.197,151117,,*33
2017-11-15 17:32:46 1510785166.147173: $GPGSA,A,3,10,25,32,11,12,26,31,14,,,,,3.4,2.8,2.9*33
2017-11-15 17:32:47 1510785167.146051: $GPZDA,223246.00,15,11,2017,00,00*65
2017-11-15 17:32:47 1510785167.146214: $GPGGA,223246,3946.9436,N,08404.9354,W,1,08,2.80,342.13,M,-33.324,M,,*7D
2017-11-15 17:32:47 1510785167.146273: $GPRMC,223246,A,3946.9436,N,08404.9354,W,0.3423,4.197,151117,,*30
2017-11-15 17:32:47 1510785167.146328: $GPGSA,A,3,10,25,32,11,12,26,31,14,,,,,3.4,2.8,2.9*33
2017-11-15 17:32:48 1510785168.481984: $GPGSV,3,1,12,10,49,147,18,25,39,091,26,32,69,024,23,11,09,283,10*76
2017-11-15 17:32:48 1510785168.482125: $GPGSV,3,2,12,12,22,051,04,26,01,184,13,31,54,223,26,14,66,325,05*72
2017-11-15 17:32:48 1510785168.482183: $GPGSV,3,3,12,01,21,301,00,18,19,144,00,22,18,312,00,120,07,103,00*45
2017-11-15 17:32:48 1510785168.595582: $GPZDA,223247.00,15,11,2017,00,00*64
2017-11-15 17:32:48 1510785168.595744: $GPGGA,223247,3946.9436,N,08404.9354,W,1,07,2.80,342.13,M,-33.324,M,,*73
2017-11-15 17:32:48 1510785168.595803: $GPRMC,223247,A,3946.9436,N,08404.9354,W,0.4844,273.795,151117,,*3D
2017-11-15 17:32:48 1510785168.595858: $GPGSA,A,3,10,25,32,11,26,31,14,,,,,,3.4,2.8,2.9*30
2017-11-15 17:32:49 1510785169.146998: $GPZDA,223248.00,15,11,2017,00,00*6B
2017-11-15 17:32:49 1510785169.147160: $GPGGA,223248,3946.9440,N,08404.9354,W,1,07,2.80,342.77,M,-33.324,M,,*7F
2017-11-15 17:32:49 1510785169.147220: $GPRMC,223248,A,3946.9440,N,08404.9354,W,0.0000,0.000,151117,,*32
2017-11-15 17:32:49 1510785169.147275: $GPGSA,A,3,10,25,32,11,26,31,14,,,,,,3.4,2.8,2.9*30
2017-11-15 17:32:50 1510785170.148380: $GPZDA,223249.00,15,11,2017,00,00*6A
2017-11-15 17:32:50 1510785170.148541: $GPGGA,223249,3946.9433,N,08404.9355,W,1,07,2.80,342.90,M,-33.324,M,,*72
2017-11-15 17:32:50 1510785170.148601: $GPRMC,223249,A,3946.9433,N,08404.9355,W,0.6846,184.197,151117,,*38
2017-11-15 17:32:50 1510785170.148656: $GPGSA,A,3,10,25,32,11,26,31,14,,,,,,3.4,2.8,2.9*30
