2017-11-15 18:13:34 1510787614.204585: {"class":"VERSION","release":"3.17","rev":"3.17","proto_major":3,"proto_minor":12}
2017-11-15 18:13:34 1510787614.510100: {"class":"DEVICES","devices":[{"class":"DEVICE","path":"/dev/ttyUSB0","driver":"SiRF","subtype":"9\u0006GSD4e_4.1.2-P1_RPATCH.05-F-GPS-4R-1510281 11/03/2015 307","activated":"2017-11-15T23:13:34.154Z","flags":1,"native":1,"bps":4800,"parity":"N","stopbits":1,"cycle":1.00}]}
2017-11-15 18:13:34 1510787614.510281: {"class":"WATCH","enable":true,"json":false,"nmea":true,"raw":0,"scaled":false,"timing":false,"split24":false,"pps":false}
2017-11-15 18:13:34 1510787614.510350: $GPZDA,231333.00,15,11,2017,00,00*65
2017-11-15 18:13:34 1510787614.510399: $GPGGA,231333,3946.9584,N,08404.9554,W,1,07,1.00,306.13,M,-33.324,M,,*77
2017-11-15 18:13:34 1510787614.510455: $GPRMC,231333,A,3946.9584,N,08404.9554,W,0.5306,114.352,151117,,*33
2017-11-15 18:13:34 1510787614.510509: $GPGSA,A,3,10,22,1,26,31,32,25,,,,,,3.4,1.0,2.9*0F
2017-11-15 18:13:35 1510787615.330938: $GPZDA,231334.00,15,11,2017,00,00*62
2017-11-15 18:13:35 1510787615.331098: $GPGGA,231334,3946.9584,N,08404.9554,W,1,07,1.00,306.13,M,-33.324,M,,*70
2017-11-15 18:13:35 1510787615.331158: $GPRMC,231334,A,3946.9584,N,08404.9554,W,0.4844,93.794,151117,,*08
2017-11-15 18:13:35 1510787615.331213: $GPGSA,A,3,10,22,1,26,31,32,25,,,,,,3.4,1.0,2.9*0F
2017-11-15 18:13:36 1510787616.666427: $GPGSV,3,1,11,10,30,154,17,22,32,307,16,01,21,283,20,26,17,180,10*7E
2017-11-15 18:13:36 1510787616.666600: $GPGSV,3,2,11,31,71,249,17,32,61,064,21,25,39,067,18,18,03,148,04*74
2017-11-15 18:13:36 1510787616.666660: $GPGSV,3,3,11,03,13,316,00,14,70,013,04,12,13,037,00*4D
2017-11-15 18:13:36 1510787616.779776: $GPZDA,231335.00,15,11,2017,00,00*63
2017-11-15 18:13:36 1510787616.779946: $GPGGA,231335,3946.9587,N,08404.9553,W,1,07,1.00,305.37,M,-33.324,M,,*70
2017-11-15 18:13:36 1510787616.780009: $GPRMC,231335,A,3946.9587,N,08404.9553,W,0.3423,4.197,151117,,*3C
2017-11-15 18:13:36 1510787616.780064: $GPGSA,A,3,10,22,1,26,31,32,25,,,,,,3.4,1.0,2.9*0F
2017-11-15 18:13:37 1510787617.358349: $GPZDA,231336.00,15,11,2017,00,00*60
2017-11-15 18:13:37 1510787617.358529: $GPGGA,231336,3946.9587,N,08404.9546,W,1,07,1.00,305.45,M,-33.324,M,,*72
2017-11-15 18:13:37 1510787617.358589: $GPRMC,231336,A,3946.9587,N,08404.9546,W,0.3423,4.197,151117,,*3B
2017-11-15 18:13:37 1510787617.358644: $GPGSA,A,3,10,22,1,26,31,32,25,,,,,,3.4,1.0,2.9*0F
2017-11-15 18:13:38 1510787618.359016: $GPZDA,231337.00,15,11,2017,00,00*61
2017-11-15 18:13:38 1510787618.359180: $GPGGA,231337,3946.9587,N,08404.9546,W,1,07,1.00,305.45,M,-33.324,M,,*73
2017-11-15 18:13:38 1510787618.359241: $GPRMC,231337,A,3946.9587,N,08404.9546,W,0.5857,338.291,151117,,*3A
2017-11-15 18:13:38 1510787618.359296: $GPGSA,A,3,10,22,1,26,31,32,25,,,,,,3.4,1.0,2.9*0F
2017-11-15 18:13:39 1510787619.666043: $GPGSV,3,1,12,10,30,154,17,22,32,307,16,01,21,283,20,26,17,180,11*7C
2017-11-15 18:13:39 1510787619.666224: $GPGSV,3,2,12,31,71,249,17,32,61,064,21,25,39,067,18,18,03,148,04*77
2017-11-15 18:13:39 1510787619.666284: $GPGSV,3,3,12,03,13,316,00,14,70,013,04,12,13,037,00,138,38,213,00*4F
2017-11-15 18:13:39 1510787619.779349: $GPZDA,231338.00,15,11,2017,00,00*6E
2017-11-15 18:13:39 1510787619.779508: $GPGGA,231338,3946.9587,N,08404.9546,W,1,07,1.00,305.45,M,-33.324,M,,*7C
2017-11-15 18:13:39 1510787619.779568: $GPRMC,231338,A,3946.9587,N,08404.9546,W,0.2422,273.794,151117,,*32
2017-11-15 18:13:39 1510787619.779624: $GPGSA,A,3,10,22,1,26,31,32,25,,,,,,3.4,1.0,2.9*0F
2017-11-15 18:13:40 1510787620.330276: $GPZDA,231339.00,15,11,2017,00,00*6F
2017-11-15 18:13:40 1510787620.330441: $GPGGA,231339,3946.9587,N,08404.9553,W,1,07,1.00,305.37,M,-33.324,M,,*7C
2017-11-15 18:13:40 1510787620.330501: $GPRMC,231339,A,3946.9587,N,08404.9553,W,0.2422,273.794,151117,,*37
2017-11-15 18:13:40 1510787620.330557: $GPGSA,A,3,10,22,1,26,31,32,25,,,,,,3.4,1.0,2.9*0F
2017-11-15 18:13:41 1510787621.329354: $GPZDA,231340.00,15,11,2017,00,00*61
2017-11-15 18:13:41 1510787621.329518: $GPGGA,231340,3946.9587,N,08404.9553,W,1,07,1.00,305.37,M,-33.324,M,,*72
2017-11-15 18:13:41 1510787621.329632: $GPRMC,231340,A,3946.9587,N,08404.9553,W,0.3155,309.994,151117,,*3F
2017-11-15 18:13:41 1510787621.329690: $GPGSA,A,3,10,22,1,26,31,32,25,,,,,,3.4,1.0,2.9*0F
2017-11-15 18:13:42 1510787622.694003: $GPGSV,3,1,12,10,30,154,18,22,32,307,16,01,21,283,20,26,17,180,10*72
2017-11-15 18:13:42 1510787622.694175: $GPGSV,3,2,12,31,71,249,17,32,61,064,21,25,39,067,18,18,03,148,04*77
2017-11-15 18:13:42 1510787622.694236: $GPGSV,3,3,12,03,13,316,00,14,70,013,04,12,13,037,00,138,38,213,00*4F
2017-11-15 18:13:42 1510787622.807392: $GPZDA,231341.00,15,11,2017,00,00*60
2017-11-15 18:13:42 1510787622.807556: $GPGGA,231341,3946.9587,N,08404.9553,W,1,07,1.00,305.37,M,-33.324,M,,*73
2017-11-15 18:13:42 1510787622.807617: $GPRMC,231341,A,3946.9587,N,08404.9553,W,0.5857,338.291,151117,,*3F
2017-11-15 18:13:42 1510787622.807674: $GPGSA,A,3,10,22,1,26,31,32,25,,,,,,3.4,1.0,2.9*0F
2017-11-15 18:13:43 1510787623.330984: $GPZDA,231342.00,15,11,2017,00,00*63
2017-11-15 18:13:43 1510787623.331148: $GPGGA,231342,3946.9587,N,08404.9553,W,1,07,1.00,305.37,M,-33.324,M,,*70
2017-11-15 18:13:43 1510787623.331210: $GPRMC,231342,A,3946.9587,N,08404.9553,W,0.5306,294.352,151117,,*3A
2017-11-15 18:13:43 1510787623.331266: $GPGSA,A,3,10,22,1,26,31,32,25,,,,,,3.4,1.0,2.9*0F
2017-11-15 18:13:44 1510787624.329404: $GPZDA,231343.00,15,11,2017,00,00*62
2017-11-15 18:13:44 1510787624.329553: $GPGGA,231343,3946.9587,N,08404.9553,W,1,07,1.00,305.37,M,-33.324,M,,*71
2017-11-15 18:13:44 1510787624.329614: $GPRMC,231343,A,3946.9587,N,08404.9553,W,0.7267,273.794,151117,,*38
2017-11-15 18:13:44 1510787624.329671: $GPGSA,A,3,10,22,1,26,31,32,25,,,,,,3.4,1.0,2.9*0F
2017-11-15 18:13:45 1510787625.666093: $GPGSV,3,1,12,10,30,154,18,22,32,307,15,01,21,283,20,26,17,180,09*79
2017-11-15 18:13:45 1510787625.666271: $GPGSV,3,2,12,31,71,249,16,32,61,064,20,25,39,067,18,18,03,148,04*77
2017-11-15 18:13:45 1510787625.666333: $GPGSV,3,3,12,03,13,316,00,14,70,013,04,12,13,037,00,138,38,213,00*4F
2017-11-15 18:13:45 1510787625.779710: $GPZDA,231344.00,15,11,2017,00,00*65
2017-11-15 18:13:45 1510787625.779873: $GPGGA,231344,3946.9588,N,08404.9560,W,1,07,1.00,305.29,M,-33.324,M,,*76
2017-11-15 18:13:45 1510787625.779935: $GPRMC,231344,A,3946.9588,N,08404.9560,W,1.2357,266.543,151117,,*3A
2017-11-15 18:13:45 1510787625.779992: $GPGSA,A,3,10,22,1,26,31,32,25,,,,,,3.4,1.0,2.9*0F
2017-11-15 18:13:46 1510787626.405033: $GPZDA,231345.00,15,11,2017,00,00*64
2017-11-15 18:13:46 1510787626.405192: $GPGGA,231345,3946.9588,N,08404.9560,W,1,07,1.00,305.29,M,-33.324,M,,*77
2017-11-15 18:13:46 1510787626.405253: $GPRMC,231345,A,3946.9588,N,08404.9560,W,0.7267,273.794,151117,,*31
2017-11-15 18:13:46 1510787626.405309: $GPGSA,A,3,10,22,1,26,31,32,25,,,,,,3.4,1.0,2.9*0F
2017-11-15 18:13:47 1510787627.358553: $GPZDA,231346.00,15,11,2017,00,00*67
2017-11-15 18:13:47 1510787627.358735: $GPGGA,231346,3946.9584,N,08404.9560,W,1,07,1.00,304.65,M,-33.324,M,,*71
2017-11-15 18:13:47 1510787627.358814: $GPRMC,231346,A,3946.9584,N,08404.9560,W,0.5306,294.352,151117,,*3D
2017-11-15 18:13:47 1510787627.358871: $GPGSA,A,3,10,22,1,26,31,32,25,,,,,,3.4,1.0,2.9*0F
2017-11-15 18:13:48 1510787628.695188: $GPGSV,3,1,12,10,30,154,18,22,32,307,04,01,21,283,19,26,17,180,09*73
2017-11-15 18:13:48 1510787628.695359: $GPGSV,3,2,12,31,71,249,16,32,61,064,20,25,39,067,18,18,03,148,04*77
2017-11-15 18:13:48 1510787628.695419: $GPGSV,3,3,12,03,13,316,00,14,70,013,04,12,13,037,00,138,38,213,00*4F
2017-11-15 18:13:48 1510787628.807763: $GPZDA,231347.00,15,11,2017,00,00*66
2017-11-15 18:13:48 1510787628.807940: $GPGGA,231347,3946.9588,N,08404.9560,W,1,06,1.20,305.29,M,-33.324,M,,*76
2017-11-15 18:13:48 1510787628.808001: $GPRMC,231347,A,3946.9588,N,08404.9560,W,0.7238,320.710,151117,,*32
2017-11-15 18:13:48 1510787628.808057: $GPGSA,A,3,10,1,26,31,32,25,,,,,,,3.4,1.2,2.9*0D
2017-11-15 18:13:49 1510787629.330755: $GPZDA,231348.00,15,11,2017,00,00*69
2017-11-15 18:13:49 1510787629.330922: $GPGGA,231348,3946.9584,N,08404.9567,W,1,06,1.20,304.57,M,-33.324,M,,*7A
2017-11-15 18:13:49 1510787629.331031: $GPRMC,231348,A,3946.9584,N,08404.9567,W,0.9988,284.546,151117,,*36
2017-11-15 18:13:49 1510787629.331108: $GPGSA,A,3,10,1,26,31,32,25,,,,,,,3.4,1.2,2.9*0D
2017-11-15 18:13:50 1510787630.330233: $GPZDA,231349.00,15,11,2017,00,00*68
2017-11-15 18:13:50 1510787630.330392: $GPGGA,231349,3946.9584,N,08404.9567,W,1,06,1.20,304.57,M,-33.324,M,,*7B
2017-11-15 18:13:50 1510787630.330452: $GPRMC,231349,A,3946.9584,N,08404.9567,W,0.9959,264.784,151117,,*39
2017-11-15 18:13:50 1510787630.330508: $GPGSA,A,3,10,1,26,31,32,25,,,,,,,3.4,1.2,2.9*0D
2017-11-15 18:13:51 1510787631.666932: $GPGSV,3,1,12,10,30,154,18,22,32,307,06,01,21,283,19,26,17,180,09*71
2017-11-15 18:13:51 1510787631.667104: $GPGSV,3,2,12,31,71,249,15,32,61,064,20,25,39,067,17,18,03,148,04*7B
2017-11-15 18:13:51 1510787631.667163: $GPGSV,3,3,12,03,13,316,00,14,70,013,04,12,13,037,00,138,38,213,00*4F
2017-11-15 18:13:51 1510787631.779190: $GPZDA,231350.00,15,11,2017,00,00*60
2017-11-15 18:13:51 1510787631.779318: $GPGGA,231350,3946.9584,N,08404.9574,W,1,07,1.20,304.49,M,-33.324,M,,*7F
2017-11-15 18:13:51 1510787631.779376: $GPRMC,231350,A,3946.9584,N,08404.9574,W,0.8054,248.645,151117,,*34
2017-11-15 18:13:51 1510787631.779432: $GPGSA,A,3,10,22,1,26,31,32,25,,,,,,3.4,1.2,2.9*0D
2017-11-15 18:13:52 1510787632.357339: $GPZDA,231351.00,15,11,2017,00,00*61
2017-11-15 18:13:52 1510787632.357510: $GPGGA,231351,3946.9584,N,08404.9574,W,1,07,1.20,304.49,M,-33.324,M,,*7E
2017-11-15 18:13:52 1510787632.357573: $GPRMC,231351,A,3946.9584,N,08404.9574,W,0.7278,203.636,151117,,*3D
2017-11-15 18:13:52 1510787632.357655: $GPGSA,A,3,10,22,1,26,31,32,25,,,,,,3.4,1.2,2.9*0D
2017-11-15 18:13:53 1510787633.359442: $GPZDA,231352.00,15,11,2017,00,00*62
2017-11-15 18:13:53 1510787633.359604: $GPGGA,231352,3946.9580,N,08404.9574,W,1,07,1.20,303.85,M,-33.324,M,,*7E
2017-11-15 18:13:53 1510787633.359683: $GPRMC,231352,A,3946.9580,N,08404.9574,W,0.4207,219.347,151117,,*39
2017-11-15 18:13:53 1510787633.359741: $GPGSA,A,3,10,22,1,26,31,32,25,,,,,,3.4,1.2,2.9*0D
2017-11-15 18:13:54 1510787634.665210: $GPGSV,3,1,12,10,30,154,18,22,32,307,06,01,21,283,18,26,17,180,09*70
2017-11-15 18:13:54 1510787634.665385: $GPGSV,3,2,12,31,71,249,15,32,61,064,19,25,39,067,16,03,13,316,00*76
2017-11-15 18:13:54 1510787634.665445: $GPGSV,3,3,12,12,13,037,00,14,70,013,04,18,03,148,00,138,38,213,00*4D
2017-11-15 18:13:54 1510787634.778560: $GPZDA,231353.00,15,11,2017,00,00*63
2017-11-15 18:13:54 1510787634.778776: $GPGGA,231353,3946.9577,N,08404.9575,W,1,06,1.20,304.62,M,-33.324,M,,*79
2017-11-15 18:13:54 1510787634.778842: $GPRMC,231353,A,3946.9577,N,08404.9575,W,1.0018,230.691,151117,,*3D
2017-11-15 18:13:54 1510787634.778898: $GPGSA,A,3,10,1,26,31,32,25,,,,,,,3.4,1.2,2.9*0D
2017-11-15 18:13:55 1510787635.329749: $GPZDA,231354.00,15,11,2017,00,00*64
2017-11-15 18:13:55 1510787635.329936: $GPGGA,231354,3946.9573,N,08404.9581,W,1,06,1.20,303.90,M,-33.324,M,,*7B
2017-11-15 18:13:55 1510787635.338797: $GPRMC,231354,A,3946.9573,N,08404.9581,W,1.4167,227.342,151117,,*35
2017-11-15 18:13:55 1510787635.338884: $GPGSA,A,3,10,1,26,31,32,25,,,,,,,3.4,1.2,2.9*0D
2017-11-15 18:13:56 1510787636.328980: $GPZDA,231355.00,15,11,2017,00,00*65
2017-11-15 18:13:56 1510787636.329345: $GPGGA,231355,3946.9569,N,08404.9582,W,1,06,1.60,304.66,M,-33.324,M,,*78
2017-11-15 18:13:56 1510787636.329479: $GPRMC,231355,A,3946.9569,N,08404.9582,W,1.4167,227.342,151117,,*3C
2017-11-15 18:13:56 1510787636.329604: $GPGSA,A,3,10,1,26,31,32,25,,,,,,,3.4,1.6,2.9*09
2017-11-15 18:13:57 1510787637.691827: $GPGSV,3,1,12,10,30,154,18,22,32,307,10,01,21,283,18,26,17,180,10*7F
2017-11-15 18:13:57 1510787637.691999: $GPGSV,3,2,12,31,71,249,07,32,61,064,19,25,39,067,16,14,70,013,00*70
2017-11-15 18:13:57 1510787637.692059: $GPGSV,3,3,12,03,13,316,00,12,13,037,00,18,03,148,00,138,38,213,00*4C
2017-11-15 18:13:57 1510787637.805366: $GPZDA,231356.00,15,11,2017,00,00*66
2017-11-15 18:13:57 1510787637.805509: $GPGGA,231356,3946.9566,N,08404.9589,W,1,07,1.60,303.94,M,-33.324,M,,*74
2017-11-15 18:13:57 1510787637.805644: $GPRMC,231356,A,3946.9566,N,08404.9589,W,1.8311,215.640,151117,,*32
2017-11-15 18:13:57 1510787637.805703: $GPGSA,A,3,10,22,1,26,31,32,25,,,,,,3.4,1.6,2.9*09
2017-11-15 18:13:58 1510787638.332662: $GPZDA,231357.00,15,11,2017,00,00*67
2017-11-15 18:13:58 1510787638.332842: $GPGGA,231357,3946.9558,N,08404.9590,W,1,07,1.60,304.07,M,-33.324,M,,*7D
2017-11-15 18:13:58 1510787638.332904: $GPRMC,231357,A,3946.9558,N,08404.9590,W,2.1036,219.347,151117,,*34
2017-11-15 18:13:58 1510787638.332960: $GPGSA,A,3,10,22,1,26,31,32,25,,,,,,3.4,1.6,2.9*09
2017-11-15 18:13:59 1510787639.329652: $GPZDA,231358.00,15,11,2017,00,00*68
2017-11-15 18:13:59 1510787639.329825: $GPGGA,231358,3946.9551,N,08404.9598,W,1,07,1.60,304.11,M,-33.324,M,,*74
2017-11-15 18:13:59 1510787639.329888: $GPRMC,231358,A,3946.9551,N,08404.9598,W,2.4176,228.729,151117,,*34
2017-11-15 18:13:59 1510787639.329944: $GPGSA,A,3,10,22,1,26,31,32,25,,,,,,3.4,1.6,2.9*09
2017-11-15 18:14:00 1510787640.694008: $GPGSV,3,1,12,10,30,154,18,22,32,307,10,01,21,283,17,26,17,180,11*71
2017-11-15 18:14:00 1510787640.694189: $GPGSV,3,2,12,31,71,249,06,32,61,064,18,25,39,067,16,14,70,013,00*70
2017-11-15 18:14:00 1510787640.694250: $GPGSV,3,3,12,03,13,316,00,12,13,037,00,18,03,148,00,138,38,213,00*4C
2017-11-15 18:14:00 1510787640.807310: $GPZDA,231359.00,15,11,2017,00,00*69
2017-11-15 18:14:00 1510787640.807473: $GPGGA,231359,3946.9547,N,08404.9605,W,1,06,1.60,303.39,M,-33.324,M,,*79
2017-11-15 18:14:00 1510787640.807535: $GPRMC,231359,A,3946.9547,N,08404.9605,W,2.0037,230.691,151117,,*3E
2017-11-15 18:14:00 1510787640.807592: $GPGSA,A,3,10,22,1,26,32,25,,,,,,,3.4,1.6,2.9*0B
2017-11-15 18:14:01 1510787641.432595: $GPZDA,231400.00,15,11,2017,00,00*62
2017-11-15 18:14:01 1510787641.432758: $GPGGA,231400,3946.9544,N,08404.9605,W,1,06,1.60,304.16,M,-33.324,M,,*7B
2017-11-15 18:14:01 1510787641.432819: $GPRMC,231400,A,3946.9544,N,08404.9605,W,1.5933,233.668,151117,,*38
2017-11-15 18:14:01 1510787641.432876: $GPGSA,A,3,10,22,1,26,32,25,,,,,,,3.4,1.6,2.9*0B
2017-11-15 18:14:02 1510787642.358480: $GPZDA,231401.00,15,11,2017,00,00*63
2017-11-15 18:14:02 1510787642.358660: $GPGGA,231401,3946.9540,N,08404.9612,W,1,06,1.60,303.44,M,-33.324,M,,*78
2017-11-15 18:14:02 1510787642.358725: $GPRMC,231401,A,3946.9540,N,08404.9612,W,1.5933,233.668,151117,,*3B
2017-11-15 18:14:02 1510787642.358780: $GPGSA,A,3,10,22,1,26,32,25,,,,,,,3.4,1.6,2.9*0B
2017-11-15 18:14:03 1510787643.695532: $GPGSV,3,1,12,10,30,154,18,22,32,307,12,01,21,283,17,26,17,180,12*70
2017-11-15 18:14:03 1510787643.695711: $GPGSV,3,2,12,31,71,249,04,32,61,064,18,25,39,067,16,14,70,013,00*72
2017-11-15 18:14:03 1510787643.695771: $GPGSV,3,3,12,03,13,316,00,12,13,037,00,18,03,148,00,138,38,213,00*4C
2017-11-15 18:14:03 1510787643.808872: $GPZDA,231402.00,15,11,2017,00,00*60
2017-11-15 18:14:03 1510787643.809045: $GPGGA,231402,3946.9537,N,08404.9620,W,1,06,1.60,304.12,M,-33.324,M,,*7E
2017-11-15 18:14:03 1510787643.809107: $GPRMC,231402,A,3946.9537,N,08404.9620,W,1.4167,227.342,151117,,*39
2017-11-15 18:14:03 1510787643.809164: $GPGSA,A,3,10,22,1,26,32,25,,,,,,,3.4,1.6,2.9*0B
