2018-01-11 20:24:19 1515720259.067658: {"class":"VERSION","release":"3.16","rev":"3.16-4","proto_major":3,"proto_minor":11}
2018-01-11 20:24:19 1515720259.068001: {"class":"DEVICES","devices":[{"class":"DEVICE","path":"/dev/ttyUSB0","driver":"SiRF","subtype":"9\u0006GSD4e_4.1.2-P1_RPATCH.05-F-GPS-4R-1510281 11/03/2015 307","activated":"2018-01-12T01:24:18.857Z","flags":1,"native":1,"bps":4800,"parity":"N","stopbits":1,"cycle":1.00}]}
2018-01-11 20:24:19 1515720259.068115: {"class":"WATCH","enable":true,"json":false,"nmea":true,"raw":0,"scaled":false,"timing":false,"split24":false,"pps":false}
2018-01-11 20:24:20 1515720260.038914: $GPZDA,012420.73,12,01,2018,00,00*6E
2018-01-11 20:24:20 1515720260.039135: $GPGGA,012420,3946.9552,N,08404.9814,W,1,11,1.00,313.22,M,-33.324,M,,*72
2018-01-11 20:24:20 1515720260.039211: $GPRMC,012420,A,3946.9552,N,08404.9814,W,0.9464,309.994,120118,,*3F
2018-01-11 20:24:20 1515720260.039273: $GPGSA,A,3,7,8,9,11,16,23,27,28,30,1,138,,4.0,1.0,3.5*06
2018-01-11 20:24:20 1515720260.039332: $GPGBS,012420,14.62,M,24.83,M,80.38,M*04
2018-01-11 20:24:21 1515720261.096867: $GPZDA,012421.23,12,01,2018,00,00*6A
2018-01-11 20:24:21 1515720261.097038: $GPGGA,012421,3946.9552,N,08404.9814,W,1,11,1.00,313.22,M,-33.324,M,,*73
2018-01-11 20:24:21 1515720261.097104: $GPRMC,012421,A,3946.9552,N,08404.9814,W,0.3155,309.994,120118,,*33
2018-01-11 20:24:21 1515720261.097166: $GPGSA,A,3,7,8,9,11,16,23,27,28,30,1,138,,4.0,1.0,3.5*06
2018-01-11 20:24:22 1515720262.216682: $GPGSV,3,1,11,07,61,316,46,08,75,105,46,09,43,222,43,11,25,165,47*7C
2018-01-11 20:24:22 1515720262.216862: $GPGSV,3,2,11,16,18,064,40,23,23,187,50,27,42,049,52,30,34,307,34*75
2018-01-11 20:24:22 1515720262.216929: $GPGSV,3,3,11,28,18,262,33,01,03,160,04,138,38,213,00*7C
2018-01-11 20:24:22 1515720262.330377: $GPZDA,012422.00,12,01,2018,00,00*68
2018-01-11 20:24:22 1515720262.330511: $GPGGA,012422,3946.9552,N,08404.9807,W,1,09,0.80,313.30,M,-33.324,M,,*71
2018-01-11 20:24:22 1515720262.330576: $GPRMC,012422,A,3946.9552,N,08404.9807,W,0.2758,128.233,120118,,*3F
2018-01-11 20:24:22 1515720262.330637: $GPGSA,A,3,7,8,9,11,16,23,27,30,28,,,,4.0,0.8,3.5*04
2018-01-11 20:24:22 1515720262.781180: $GPZDA,012423.00,12,01,2018,00,00*69
2018-01-11 20:24:22 1515720262.781318: $GPGGA,012423,3946.9548,N,08404.9807,W,1,09,0.80,312.66,M,-33.324,M,,*79
2018-01-11 20:24:22 1515720262.781385: $GPRMC,012423,A,3946.9548,N,08404.9807,W,0.0000,0.000,120118,,*34
2018-01-11 20:24:22 1515720262.781444: $GPGSA,A,3,7,8,9,11,16,23,27,30,28,,,,4.0,0.8,3.5*04
2018-01-11 20:24:23 1515720263.337093: $GPZDA,012424.00,12,01,2018,00,00*6E
2018-01-11 20:24:23 1515720263.337248: $GPGGA,012424,3946.9551,N,08404.9806,W,1,09,0.80,311.89,M,-33.324,M,,*75
2018-01-11 20:24:23 1515720263.337314: $GPRMC,012424,A,3946.9551,N,08404.9806,W,0.1567,9.200,120118,,*34
2018-01-11 20:24:23 1515720263.337375: $GPGSA,A,3,7,8,9,11,16,23,27,30,28,,,,4.0,0.8,3.5*04
2018-01-11 20:24:24 1515720264.670832: $GPGSV,3,1,11,07,61,316,46,08,75,105,46,09,43,222,43,11,25,165,47*7C
2018-01-11 20:24:24 1515720264.671011: $GPGSV,3,2,11,16,18,064,40,23,23,187,49,27,42,049,52,30,34,307,35*7C
2018-01-11 20:24:24 1515720264.671076: $GPGSV,3,3,11,28,18,262,33,01,03,160,16,138,38,213,46*7D
2018-01-11 20:24:24 1515720264.784416: $GPZDA,012425.00,12,01,2018,00,00*6F
2018-01-11 20:24:24 1515720264.784520: $GPGGA,012425,3946.9555,N,08404.9812,W,1,11,0.80,311.05,M,-33.324,M,,*78
2018-01-11 20:24:24 1515720264.784582: $GPRMC,012425,A,3946.9555,N,08404.9812,W,0.0000,0.000,120118,,*3A
2018-01-11 20:24:24 1515720264.784643: $GPGSA,A,3,7,8,9,11,16,23,27,30,28,1,138,,4.0,0.8,3.5*0F
2018-01-11 20:24:25 1515720265.336568: $GPZDA,012426.00,12,01,2018,00,00*6C
2018-01-11 20:24:25 1515720265.336746: $GPGGA,012426,3946.9554,N,08404.9812,W,1,11,0.80,309.64,M,-33.324,M,,*74
2018-01-11 20:24:25 1515720265.336814: $GPRMC,012426,A,3946.9554,N,08404.9812,W,0.0000,0.000,120118,,*38
2018-01-11 20:24:25 1515720265.336876: $GPGSA,A,3,7,8,9,11,16,23,27,30,28,1,138,,4.0,0.8,3.5*0F
2018-01-11 20:24:26 1515720266.336207: $GPZDA,012427.00,12,01,2018,00,00*6D
2018-01-11 20:24:26 1515720266.336427: $GPGGA,012427,3946.9554,N,08404.9812,W,1,11,0.80,309.64,M,-33.324,M,,*75
2018-01-11 20:24:26 1515720266.336497: $GPRMC,012427,A,3946.9554,N,08404.9812,W,0.0000,0.000,120118,,*39
2018-01-11 20:24:26 1515720266.336558: $GPGSA,A,3,7,8,9,11,16,23,27,30,28,1,138,,4.0,0.8,3.5*0F
2018-01-11 20:24:26 1515720266.336617: $GPGBS,012427,14.62,M,24.83,M,80.38,M*03
2018-01-11 20:24:27 1515720267.674088: $GPGSV,3,1,11,07,61,316,46,08,75,105,46,09,43,222,43,11,25,165,47*7C
2018-01-11 20:24:27 1515720267.674253: $GPGSV,3,2,11,16,18,064,40,23,23,187,49,27,42,049,51,30,34,307,36*7C
2018-01-11 20:24:27 1515720267.674317: $GPGSV,3,3,11,28,18,262,29,01,03,160,14,138,38,213,46*74
2018-01-11 20:24:27 1515720267.787710: $GPZDA,012428.00,12,01,2018,00,00*62
2018-01-11 20:24:27 1515720267.787849: $GPGGA,012428,3946.9565,N,08404.9813,W,2,11,2.80,300.89,M,-33.324,M,,*72
2018-01-11 20:24:27 1515720267.787915: $GPRMC,012428,A,3946.9565,N,08404.9813,W,0.0000,0.000,120118,,*35
2018-01-11 20:24:27 1515720267.787976: $GPGSA,A,3,7,8,9,11,16,23,27,30,28,1,138,,4.0,2.8,3.5*0D
2018-01-11 20:24:28 1515720268.337343: $GPZDA,012429.00,12,01,2018,00,00*63
2018-01-11 20:24:28 1515720268.337511: $GPGGA,012429,3946.9565,N,08404.9813,W,2,11,1.60,300.89,M,-33.324,M,,*7E
2018-01-11 20:24:28 1515720268.337577: $GPRMC,012429,A,3946.9565,N,08404.9813,W,0.0000,0.000,120118,,*34
2018-01-11 20:24:28 1515720268.337641: $GPGSA,A,3,7,8,9,11,16,23,27,30,28,1,138,,4.0,1.6,3.5*00
2018-01-11 20:24:29 1515720269.339013: $GPZDA,012430.00,12,01,2018,00,00*6B
2018-01-11 20:24:29 1515720269.339235: $GPGGA,012430,3946.9565,N,08404.9813,W,2,11,0.80,300.89,M,-33.324,M,,*79
2018-01-11 20:24:29 1515720269.339302: $GPRMC,012430,A,3946.9565,N,08404.9813,W,0.0000,0.000,120118,,*3C
2018-01-11 20:24:29 1515720269.339364: $GPGSA,A,3,7,8,9,11,16,23,27,30,28,1,138,,4.0,0.8,3.5*0F
2018-01-11 20:24:30 1515720270.674400: $GPGSV,3,1,11,07,61,316,46,08,75,105,46,09,43,222,43,11,25,165,47*7C
2018-01-11 20:24:30 1515720270.674556: $GPGSV,3,2,11,16,18,064,40,23,23,187,49,27,42,049,51,30,34,307,36*7C
2018-01-11 20:24:30 1515720270.674626: $GPGSV,3,3,11,28,18,262,33,01,03,160,14,138,38,213,46*7F
2018-01-11 20:24:30 1515720270.788100: $GPZDA,012431.00,12,01,2018,00,00*6A
2018-01-11 20:24:30 1515720270.788225: $GPGGA,012431,3946.9565,N,08404.9813,W,2,11,0.80,300.89,M,-33.324,M,,*78
2018-01-11 20:24:30 1515720270.788289: $GPRMC,012431,A,3946.9565,N,08404.9813,W,0.0000,0.000,120118,,*3D
2018-01-11 20:24:30 1515720270.788349: $GPGSA,A,3,7,8,9,11,16,23,27,30,28,1,138,,4.0,0.8,3.5*0F
2018-01-11 20:24:31 1515720271.340325: $GPZDA,012432.00,12,01,2018,00,00*69
2018-01-11 20:24:31 1515720271.340495: $GPGGA,012432,3946.9565,N,08404.9813,W,2,11,0.80,300.89,M,-33.324,M,,*7B
2018-01-11 20:24:31 1515720271.340561: $GPRMC,012432,A,3946.9565,N,08404.9813,W,0.0000,0.000,120118,,*3E
2018-01-11 20:24:31 1515720271.340626: $GPGSA,A,3,7,8,9,11,16,23,27,30,28,1,138,,4.0,0.8,3.5*0F
