2017-12-29 14:43:53 1514576633.244609: {"class":"VERSION","release":"3.16","rev":"3.16-4","proto_major":3,"proto_minor":11}
2017-12-29 14:43:53 1514576633.244949: {"class":"DEVICES","devices":[{"class":"DEVICE","path":"/dev/ttyUSB0","driver":"SiRF","subtype":"9\u0006GSD4e_4.1.2-P1_RPATCH.05-F-GPS-4R-1510281 11/03/2015 307","activated":"2017-12-29T19:43:53.210Z","flags":1,"native":1,"bps":4800,"parity":"N","stopbits":1,"cycle":1.00}]}
2017-12-29 14:43:53 1514576633.245061: {"class":"WATCH","enable":true,"json":false,"nmea":true,"raw":0,"scaled":false,"timing":false,"split24":false,"pps":false}
2017-12-29 14:43:53 1514576633.388050: $GPZDA,194354.00,29,12,2017,00,00*64
2017-12-29 14:43:53 1514576633.388232: $GPGGA,194354,3946.9593,N,08404.9818,W,2,12,0.80,302.48,M,-33.324,M,,*7D
2017-12-29 14:43:53 1514576633.388299: $GPRMC,194354,A,3946.9593,N,08404.9818,W,0.0000,0.000,291217,,*31
2017-12-29 14:43:53 1514576633.388364: $GPGSA,A,3,1,10,11,12,14,18,22,25,31,32,26,138,1.7,0.8,1.3*3B
2017-12-29 14:43:54 1514576634.422717: $GPZDA,194355.00,29,12,2017,00,00*65
2017-12-29 14:43:54 1514576634.422883: $GPGGA,194355,3946.9593,N,08404.9811,W,2,12,0.80,302.56,M,-33.324,M,,*7A
2017-12-29 14:43:54 1514576634.422951: $GPRMC,194355,A,3946.9593,N,08404.9811,W,0.0000,0.000,291217,,*39
2017-12-29 14:43:54 1514576634.423012: $GPGSA,A,3,1,10,11,12,14,18,22,25,31,32,26,138,1.7,0.8,1.3*3B
2017-12-29 14:43:55 1514576635.759648: $GPGSV,3,1,12,01,22,297,39,10,44,150,51,11,07,280,36,12,21,046,45*75
2017-12-29 14:43:55 1514576635.759822: $GPGSV,3,2,12,14,67,333,42,18,14,145,44,22,22,312,43,25,40,087,51*79
2017-12-29 14:43:55 1514576635.759889: $GPGSV,3,3,12,31,61,228,48,32,67,039,51,26,06,181,21,138,38,213,43*4A
2017-12-29 14:43:55 1514576635.873063: $GPZDA,194356.00,29,12,2017,00,00*66
2017-12-29 14:43:55 1514576635.873197: $GPGGA,194356,3946.9593,N,08404.9811,W,2,12,0.80,302.56,M,-33.324,M,,*79
2017-12-29 14:43:55 1514576635.873261: $GPRMC,194356,A,3946.9593,N,08404.9811,W,0.0000,0.000,291217,,*3A
2017-12-29 14:43:55 1514576635.873325: $GPGSA,A,3,1,10,11,12,14,18,22,25,31,32,26,138,1.7,0.8,1.3*3B
2017-12-29 14:43:56 1514576636.498445: $GPZDA,194357.00,29,12,2017,00,00*67
2017-12-29 14:43:56 1514576636.498604: $GPGGA,194357,3946.9593,N,08404.9811,W,2,12,0.80,302.56,M,-33.324,M,,*78
2017-12-29 14:43:56 1514576636.498671: $GPRMC,194357,A,3946.9593,N,08404.9811,W,0.0000,0.000,291217,,*3B
2017-12-29 14:43:56 1514576636.498731: $GPGSA,A,3,1,10,11,12,14,18,22,25,31,32,26,138,1.7,0.8,1.3*3B
2017-12-29 14:43:57 1514576637.388135: $GPZDA,194358.00,29,12,2017,00,00*68
2017-12-29 14:43:57 1514576637.388316: $GPGGA,194358,3946.9593,N,08404.9811,W,2,12,0.80,302.56,M,-33.324,M,,*77
2017-12-29 14:43:57 1514576637.388383: $GPRMC,194358,A,3946.9593,N,08404.9811,W,0.0000,0.000,291217,,*34
2017-12-29 14:43:57 1514576637.388445: $GPGSA,A,3,1,10,11,12,14,18,22,25,31,32,26,138,1.7,0.8,1.3*3B
2017-12-29 14:43:58 1514576638.757514: $GPGSV,3,1,12,01,22,297,39,10,44,150,51,11,07,280,36,12,21,046,45*75
2017-12-29 14:43:58 1514576638.757706: $GPGSV,3,2,12,14,67,333,42,18,14,145,44,22,22,312,42,25,40,087,52*7B
2017-12-29 14:43:58 1514576638.757776: $GPGSV,3,3,12,31,61,228,47,32,67,039,51,26,06,181,20,138,38,213,43*44
2017-12-29 14:43:58 1514576638.870879: $GPZDA,194359.00,29,12,2017,00,00*69
2017-12-29 14:43:58 1514576638.871016: $GPGGA,194359,3946.9593,N,08404.9811,W,2,12,0.80,302.56,M,-33.324,M,,*76
2017-12-29 14:43:58 1514576638.871148: $GPRMC,194359,A,3946.9593,N,08404.9811,W,0.0000,0.000,291217,,*35
2017-12-29 14:43:58 1514576638.871213: $GPGSA,A,3,1,10,11,12,14,18,22,25,31,32,26,138,1.7,0.8,1.3*3B
2017-12-29 14:43:59 1514576639.424325: $GPZDA,194400.00,29,12,2017,00,00*62
2017-12-29 14:43:59 1514576639.424494: $GPGGA,194400,3946.9593,N,08404.9811,W,2,12,0.80,302.56,M,-33.324,M,,*7D
2017-12-29 14:43:59 1514576639.424560: $GPRMC,194400,A,3946.9593,N,08404.9811,W,0.0000,0.000,291217,,*3E
2017-12-29 14:43:59 1514576639.424621: $GPGSA,A,3,1,10,11,12,14,18,22,25,31,32,26,138,1.7,0.8,1.3*3B
2017-12-29 14:44:00 1514576640.425227: $GPZDA,194401.00,29,12,2017,00,00*63
2017-12-29 14:44:00 1514576640.425453: $GPGGA,194401,3946.9593,N,08404.9811,W,2,12,0.80,302.56,M,-33.324,M,,*7C
2017-12-29 14:44:00 1514576640.425525: $GPRMC,194401,A,3946.9593,N,08404.9811,W,0.0000,0.000,291217,,*3F
2017-12-29 14:44:00 1514576640.425586: $GPGSA,A,3,1,10,11,12,14,18,22,25,31,32,26,138,1.7,0.8,1.3*3B
2017-12-29 14:44:01 1514576641.759090: $GPGSV,3,1,12,01,22,297,38,10,44,150,51,11,07,280,36,12,21,046,45*74
2017-12-29 14:44:01 1514576641.759283: $GPGSV,3,2,12,14,67,333,42,18,14,145,44,22,22,312,42,25,40,087,51*78
2017-12-29 14:44:01 1514576641.759350: $GPGSV,3,3,12,31,61,228,47,32,67,039,50,26,06,181,20,138,38,213,43*45
2017-12-29 14:44:01 1514576641.872529: $GPZDA,194402.00,29,12,2017,00,00*60
2017-12-29 14:44:01 1514576641.872663: $GPGGA,194402,3946.9593,N,08404.9811,W,2,12,0.80,302.56,M,-33.324,M,,*7F
2017-12-29 14:44:01 1514576641.872731: $GPRMC,194402,A,3946.9593,N,08404.9811,W,0.0000,0.000,291217,,*3C
2017-12-29 14:44:01 1514576641.872792: $GPGSA,A,3,1,10,11,12,14,18,22,25,31,32,26,138,1.7,0.8,1.3*3B
2017-12-29 14:44:02 1514576642.388429: $GPZDA,194403.00,29,12,2017,00,00*61
2017-12-29 14:44:02 1514576642.388597: $GPGGA,194403,3946.9593,N,08404.9811,W,2,12,0.80,302.56,M,-33.324,M,,*7E
2017-12-29 14:44:02 1514576642.388665: $GPRMC,194403,A,3946.9593,N,08404.9811,W,0.0000,0.000,291217,,*3D
2017-12-29 14:44:02 1514576642.388726: $GPGSA,A,3,1,10,11,12,14,18,22,25,31,32,26,138,1.7,0.8,1.3*3B
