2017-12-14 12:39:27 1513273167.852430: {"class":"VERSION","release":"3.16","rev":"3.16-4","proto_major":3,"proto_minor":11}
2017-12-14 12:39:27 1513273167.852789: {"class":"DEVICES","devices":[{"class":"DEVICE","path":"/dev/ttyUSB0","driver":"SiRF","subtype":"9\u0006GSD4e_4.1.2-P1_RPATCH.05-F-GPS-4R-1510281 11/03/2015 307","activated":"2017-12-14T17:39:27.295Z","flags":1,"native":1,"bps":4800,"parity":"N","stopbits":1,"cycle":1.00}]}
2017-12-14 12:39:27 1513273167.852904: {"class":"WATCH","enable":true,"json":false,"nmea":true,"raw":0,"scaled":false,"timing":false,"split24":false,"pps":false}
2017-12-14 12:39:28 1513273168.153772: $GPZDA,173929.00,14,12,2017,00,00*63
2017-12-14 12:39:28 1513273168.153940: $GPGGA,173929,3946.9622,N,08404.9363,W,1,07,8.40,311.74,M,-33.324,M,,*74
2017-12-14 12:39:28 1513273168.154007: $GPRMC,173929,A,3946.9622,N,08404.9363,W,0.8011,299.090,141217,,*3B
2017-12-14 12:39:28 1513273168.154068: $GPGSA,A,3,24,10,21,18,20,32,27,,,,,,6.6,8.4,6.2*31
2017-12-14 12:39:29 1513273169.489413: $GPGSV,3,1,11,24,53,094,16,10,49,309,25,21,53,183,24,18,76,006,08*7F
2017-12-14 12:39:29 1513273169.489572: $GPGSV,3,2,11,20,27,103,18,32,29,244,05,15,29,055,06,27,17,280,12*7A
2017-12-14 12:39:29 1513273169.489637: $GPGSV,3,3,11,14,11,237,00,08,08,315,00,138,38,213,00*7C
2017-12-14 12:39:29 1513273169.602985: $GPZDA,173930.00,14,12,2017,00,00*6B
2017-12-14 12:39:29 1513273169.603209: $GPGGA,173930,3946.9622,N,08404.9363,W,1,07,5.60,311.74,M,-33.324,M,,*73
2017-12-14 12:39:29 1513273169.603275: $GPRMC,173930,A,3946.9622,N,08404.9363,W,0.2422,273.795,141217,,*3B
2017-12-14 12:39:29 1513273169.603336: $GPGSA,A,3,24,10,21,18,20,15,27,,,,,,6.6,5.6,6.2*3B
2017-12-14 12:39:30 1513273170.153387: $GPZDA,173931.00,14,12,2017,00,00*6A
2017-12-14 12:39:30 1513273170.153568: $GPGGA,173931,3946.9619,N,08404.9371,W,1,07,5.60,312.42,M,-33.324,M,,*7F
2017-12-14 12:39:30 1513273170.153636: $GPRMC,173931,A,3946.9619,N,08404.9371,W,0.2422,273.795,141217,,*31
2017-12-14 12:39:30 1513273170.153706: $GPGSA,A,3,24,10,21,18,20,15,27,,,,,,6.6,5.6,6.2*3B
2017-12-14 12:39:31 1513273171.154356: $GPZDA,173932.00,14,12,2017,00,00*69
2017-12-14 12:39:31 1513273171.154544: $GPGGA,173932,3946.9619,N,08404.9371,W,1,07,5.60,312.42,M,-33.324,M,,*7C
2017-12-14 12:39:31 1513273171.154611: $GPRMC,173932,A,3946.9619,N,08404.9371,W,0.4207,39.347,141217,,*02
2017-12-14 12:39:31 1513273171.154672: $GPGSA,A,3,24,10,21,18,20,15,27,,,,,,6.6,5.6,6.2*3B
2017-12-14 12:39:32 1513273172.489281: $GPGSV,3,1,11,24,53,094,16,10,49,309,25,21,53,183,24,18,76,006,07*70
2017-12-14 12:39:32 1513273172.489460: $GPGSV,3,2,11,20,27,103,18,32,29,244,04,15,29,055,06,27,17,280,12*7B
2017-12-14 12:39:32 1513273172.489527: $GPGSV,3,3,11,14,11,237,00,08,08,315,00,138,38,213,00*7C
2017-12-14 12:39:32 1513273172.602761: $GPZDA,173933.00,14,12,2017,00,00*68
2017-12-14 12:39:32 1513273172.602914: $GPGGA,173933,3946.9615,N,08404.9372,W,1,06,5.60,313.19,M,-33.324,M,,*7C
2017-12-14 12:39:32 1513273172.602979: $GPRMC,173933,A,3946.9615,N,08404.9372,W,0.4179,328.779,141217,,*3C
2017-12-14 12:39:32 1513273172.603040: $GPGSA,A,3,24,10,21,18,20,27,,,,,,,6.6,5.6,6.2*3F
2017-12-14 12:39:33 1513273173.154084: $GPZDA,173934.00,14,12,2017,00,00*6F
2017-12-14 12:39:33 1513273173.154249: $GPGGA,173934,3946.9615,N,08404.9372,W,1,06,5.60,313.19,M,-33.324,M,,*7B
2017-12-14 12:39:33 1513273173.154315: $GPRMC,173934,A,3946.9615,N,08404.9372,W,0.4844,273.795,141217,,*31
2017-12-14 12:39:33 1513273173.154377: $GPGSA,A,3,24,10,21,18,20,27,,,,,,,6.6,5.6,6.2*3F
2017-12-14 12:39:34 1513273174.169959: $GPZDA,173935.00,14,12,2017,00,00*6E
2017-12-14 12:39:34 1513273174.170120: $GPGGA,173935,3946.9612,N,08404.9379,W,1,06,5.60,313.87,M,-33.324,M,,*71
2017-12-14 12:39:34 1513273174.170185: $GPRMC,173935,A,3946.9612,N,08404.9379,W,0.9689,273.795,141217,,*3E
2017-12-14 12:39:34 1513273174.170246: $GPGSA,A,3,24,10,21,18,20,27,,,,,,,6.6,5.6,6.2*3F
2017-12-14 12:39:35 1513273175.489898: $GPGSV,3,1,11,24,53,094,16,10,49,309,25,21,53,183,25,18,76,006,06*70
2017-12-14 12:39:35 1513273175.490074: $GPGSV,3,2,11,20,27,103,18,32,29,244,06,15,29,055,06,27,17,280,12*79
2017-12-14 12:39:35 1513273175.490194: $GPGSV,3,3,11,14,11,237,00,08,08,315,00,138,38,213,00*7C
2017-12-14 12:39:35 1513273175.603288: $GPZDA,173936.00,14,12,2017,00,00*6D
2017-12-14 12:39:35 1513273175.603418: $GPGGA,173936,3946.9612,N,08404.9379,W,1,07,5.60,313.87,M,-33.324,M,,*73
2017-12-14 12:39:35 1513273175.603483: $GPRMC,173936,A,3946.9612,N,08404.9379,W,0.8054,248.645,141217,,*3E
2017-12-14 12:39:35 1513273175.603543: $GPGSA,A,3,24,10,21,20,32,15,27,,,,,,6.6,5.6,6.2*33
2017-12-14 12:39:36 1513273176.171156: $GPZDA,173937.00,14,12,2017,00,00*6C
2017-12-14 12:39:36 1513273176.171336: $GPGGA,173937,3946.9609,N,08404.9387,W,1,07,5.60,314.56,M,-33.324,M,,*72
2017-12-14 12:39:36 1513273176.171403: $GPRMC,173937,A,3946.9609,N,08404.9387,W,0.9929,212.499,141217,,*3A
2017-12-14 12:39:36 1513273176.171464: $GPGSA,A,3,24,10,21,20,32,15,27,,,,,,6.6,5.6,6.2*33
2017-12-14 12:39:37 1513273177.157403: $GPZDA,173938.00,14,12,2017,00,00*63
2017-12-14 12:39:37 1513273177.157571: $GPGGA,173938,3946.9602,N,08404.9388,W,1,07,5.60,314.68,M,-33.324,M,,*74
2017-12-14 12:39:37 1513273177.157639: $GPRMC,173938,A,3946.9602,N,08404.9388,W,1.2361,194.852,141217,,*3B
2017-12-14 12:39:37 1513273177.157699: $GPGSA,A,3,24,10,21,20,32,15,27,,,,,,6.6,5.6,6.2*33
2017-12-14 12:39:38 1513273178.511052: $GPGSV,3,1,11,24,53,094,16,10,49,309,25,21,53,183,25,18,76,006,04*72
2017-12-14 12:39:38 1513273178.511241: $GPGSV,3,2,11,20,27,103,18,32,29,244,11,15,29,055,09,27,17,280,12*70
2017-12-14 12:39:38 1513273178.511328: $GPGSV,3,3,11,14,11,237,11,08,08,315,00,138,38,213,00*7C
2017-12-14 12:39:38 1513273178.624422: $GPZDA,173939.00,14,12,2017,00,00*62
2017-12-14 12:39:38 1513273178.624585: $GPGGA,173939,3946.9591,N,08404.9389,W,1,07,1.40,315.57,M,-33.324,M,,*76
2017-12-14 12:39:38 1513273178.624650: $GPRMC,173939,A,3946.9591,N,08404.9389,W,2.1306,210.833,141217,,*3B
2017-12-14 12:39:38 1513273178.624710: $GPGSA,A,3,24,10,21,20,32,15,27,,,,,,6.6,1.4,6.2*35
2017-12-14 12:39:39 1513273179.174066: $GPZDA,173940.00,14,12,2017,00,00*6C
2017-12-14 12:39:39 1513273179.174238: $GPGGA,173940,3946.9583,N,08404.9397,W,1,07,1.40,315.62,M,-33.324,M,,*72
2017-12-14 12:39:39 1513273179.174304: $GPRMC,173940,A,3946.9583,N,08404.9397,W,2.1306,210.833,141217,,*39
2017-12-14 12:39:39 1513273179.174364: $GPGSA,A,3,24,10,21,20,32,15,27,,,,,,6.6,1.4,6.2*35
2017-12-14 12:39:40 1513273180.173007: $GPZDA,173941.00,14,12,2017,00,00*6D
2017-12-14 12:39:40 1513273180.173158: $GPGGA,173941,3946.9576,N,08404.9398,W,1,07,1.80,315.74,M,-33.324,M,,*7D
2017-12-14 12:39:40 1513273180.173224: $GPRMC,173941,A,3946.9576,N,08404.9398,W,2.6713,216.807,141217,,*3B
2017-12-14 12:39:40 1513273180.173284: $GPGSA,A,3,24,10,21,20,32,15,27,,,,,,6.6,1.8,6.2*39
2017-12-14 12:39:41 1513273181.506801: $GPGSV,3,1,11,24,53,094,16,10,49,309,25,21,53,183,25,18,76,006,04*72
2017-12-14 12:39:41 1513273181.506957: $GPGSV,3,2,11,20,27,103,18,32,29,244,08,15,29,055,10,27,17,280,13*71
2017-12-14 12:39:41 1513273181.507021: $GPGSV,3,3,11,14,11,237,10,08,08,315,00,138,38,213,00*7D
2017-12-14 12:39:41 1513273181.620216: $GPZDA,173942.00,14,12,2017,00,00*6E
2017-12-14 12:39:41 1513273181.620362: $GPGGA,173942,3946.9569,N,08404.9405,W,1,06,5.60,315.79,M,-33.324,M,,*75
2017-12-14 12:39:41 1513273181.620425: $GPRMC,173942,A,3946.9569,N,08404.9405,W,2.8541,209.002,141217,,*3D
2017-12-14 12:39:41 1513273181.620485: $GPGSA,A,3,24,10,21,20,15,27,,,,,,,6.6,5.6,6.2*32
2017-12-14 12:39:42 1513273182.171528: $GPZDA,173943.00,14,12,2017,00,00*6F
2017-12-14 12:39:42 1513273182.171703: $GPGGA,173943,3946.9561,N,08404.9413,W,1,06,5.60,315.83,M,-33.324,M,,*7E
2017-12-14 12:39:42 1513273182.171771: $GPRMC,173943,A,3946.9561,N,08404.9413,W,2.8541,209.002,141217,,*33
2017-12-14 12:39:42 1513273182.171832: $GPGSA,A,3,24,10,21,20,15,27,,,,,,,6.6,5.6,6.2*32
2017-12-14 12:39:43 1513273183.171894: $GPZDA,173944.00,14,12,2017,00,00*68
2017-12-14 12:39:43 1513273183.172157: $GPGGA,173944,3946.9554,N,08404.9414,W,1,06,5.60,315.96,M,-33.324,M,,*7C
2017-12-14 12:39:43 1513273183.172283: $GPRMC,173944,A,3946.9554,N,08404.9414,W,2.5474,212.234,141217,,*32
2017-12-14 12:39:43 1513273183.172347: $GPGSA,A,3,24,10,21,20,15,27,,,,,,,6.6,5.6,6.2*32
2017-12-14 12:39:44 1513273184.507359: $GPGSV,3,1,11,24,53,094,15,10,49,309,25,21,53,183,25,18,76,006,04*71
2017-12-14 12:39:44 1513273184.534547: $GPGSV,3,2,11,20,27,103,19,32,29,244,09,15,29,055,11,27,17,280,13*70
2017-12-14 12:39:44 1513273184.534656: $GPGSV,3,3,11,14,11,237,10,08,08,315,00,120,07,103,00*7A
2017-12-14 12:39:44 1513273184.621032: $GPZDA,173945.00,14,12,2017,00,00*69
2017-12-14 12:39:44 1513273184.621188: $GPGGA,173945,3946.9547,N,08404.9422,W,1,06,5.60,316.00,M,-33.324,M,,*76
2017-12-14 12:39:44 1513273184.621256: $GPRMC,173945,A,3946.9547,N,08404.9422,W,2.3556,201.815,141217,,*38
2017-12-14 12:39:44 1513273184.621320: $GPGSA,A,3,24,10,21,20,15,27,,,,,,,6.6,5.6,6.2*32
2017-12-14 12:39:45 1513273185.154660: $GPZDA,173946.00,14,12,2017,00,00*6A
2017-12-14 12:39:45 1513273185.154817: $GPGGA,173946,3946.9539,N,08404.9422,W,1,06,5.60,316.13,M,-33.324,M,,*7E
2017-12-14 12:39:45 1513273185.154886: $GPRMC,173946,A,3946.9539,N,08404.9422,W,2.2922,196.048,141217,,*31
2017-12-14 12:39:45 1513273185.154949: $GPGSA,A,3,24,10,21,20,15,27,,,,,,,6.6,5.6,6.2*32
2017-12-14 12:39:46 1513273186.172338: $GPZDA,173947.00,14,12,2017,00,00*6B
2017-12-14 12:39:46 1513273186.172518: $GPGGA,173947,3946.9528,N,08404.9424,W,1,06,5.60,317.01,M,-33.324,M,,*7B
2017-12-14 12:39:46 1513273186.172587: $GPRMC,173947,A,3946.9528,N,08404.9424,W,2.3556,201.815,141217,,*35
2017-12-14 12:39:46 1513273186.172651: $GPGSA,A,3,24,10,21,20,15,27,,,,,,,6.6,5.6,6.2*32
2017-12-14 12:39:47 1513273187.494748: $GPGSV,3,1,11,24,53,094,15,10,49,309,25,21,53,183,25,18,76,006,04*71
2017-12-14 12:39:47 1513273187.494944: $GPGSV,3,2,11,20,27,103,18,32,29,244,09,15,29,055,11,27,17,280,13*71
2017-12-14 12:39:47 1513273187.495013: $GPGSV,3,3,11,14,11,237,08,08,08,315,00,120,07,103,00*73
2017-12-14 12:39:47 1513273187.608141: $GPZDA,173948.00,14,12,2017,00,00*64
2017-12-14 12:39:47 1513273187.608311: $GPGGA,173948,3946.9524,N,08404.9424,W,1,08,1.80,316.37,M,-33.324,M,,*78
2017-12-14 12:39:47 1513273187.608378: $GPRMC,173948,A,3946.9524,N,08404.9424,W,2.1134,197.448,141217,,*3C
2017-12-14 12:39:47 1513273187.608442: $GPGSA,A,3,24,10,21,20,32,15,27,14,,,,,6.6,1.8,6.2*3C
