2017-11-16 13:17:39 1510856259.448121: {"class":"VERSION","release":"3.17","rev":"3.17","proto_major":3,"proto_minor":12}
2017-11-16 13:17:39 1510856259.448561: {"class":"DEVICES","devices":[{"class":"DEVICE","path":"/dev/ttyUSB0","driver":"SiRF","subtype":"9\u0006GSD4e_4.1.2-P1_RPATCH.05-F-GPS-4R-1510281 11/03/2015 307","activated":"2017-11-16T18:17:39.207Z","flags":1,"native":1,"bps":4800,"parity":"N","stopbits":1,"cycle":1.00}]}
2017-11-16 13:17:39 1510856259.448675: {"class":"WATCH","enable":true,"json":false,"nmea":true,"raw":0,"scaled":false,"timing":false,"split24":false,"pps":false}
2017-11-16 13:17:39 1510856259.657196: $GPGSV,3,1,11,10,22,282,42,13,30,045,48,15,62,052,51,18,53,298,46*75
2017-11-16 13:17:39 1510856259.657366: $GPGSV,3,2,11,20,52,070,47,21,77,276,46,24,32,139,41,27,16,313,42*77
2017-11-16 13:17:39 1510856259.657426: $GPGSV,3,3,11,05,05,087,23,29,10,189,28,138,38,213,45*77
2017-11-16 13:17:39 1510856259.770399: $GPZDA,181738.00,16,11,2017,00,00*61
2017-11-16 13:17:39 1510856259.770560: $GPGGA,181738,3946.9586,N,08404.9845,W,2,11,0.80,299.48,M,-33.324,M,,*7B
2017-11-16 13:17:39 1510856259.770620: $GPRMC,181738,A,3946.9586,N,08404.9845,W,0.0000,0.000,161117,,*38
2017-11-16 13:17:39 1510856259.770676: $GPGSA,A,3,10,13,15,18,20,21,24,27,5,29,138,,1.6,0.8,1.3*37
2017-11-16 13:17:40 1510856260.395637: $GPZDA,181739.00,16,11,2017,00,00*60
2017-11-16 13:17:40 1510856260.395805: $GPGGA,181739,3946.9586,N,08404.9845,W,2,11,0.80,299.48,M,-33.324,M,,*7A
2017-11-16 13:17:40 1510856260.395865: $GPRMC,181739,A,3946.9586,N,08404.9845,W,0.0000,0.000,161117,,*39
2017-11-16 13:17:40 1510856260.395921: $GPGSA,A,3,10,13,15,18,20,21,24,27,5,29,138,,1.6,0.8,1.3*37
2017-11-16 13:17:41 1510856261.319059: $GPZDA,181740.00,16,11,2017,00,00*6E
2017-11-16 13:17:41 1510856261.319213: $GPGGA,181740,3946.9586,N,08404.9845,W,2,11,0.80,299.48,M,-33.324,M,,*74
2017-11-16 13:17:41 1510856261.319274: $GPRMC,181740,A,3946.9586,N,08404.9845,W,0.0000,0.000,161117,,*37
2017-11-16 13:17:41 1510856261.319329: $GPGSA,A,3,10,13,15,18,20,21,24,27,5,29,138,,1.6,0.8,1.3*37
2017-11-16 13:17:42 1510856262.654815: $GPGSV,3,1,11,10,22,282,43,13,30,045,48,15,62,052,50,18,53,298,46*75
2017-11-16 13:17:42 1510856262.654981: $GPGSV,3,2,11,20,52,070,47,21,77,276,46,24,32,139,41,27,16,313,41*74
2017-11-16 13:17:42 1510856262.655042: $GPGSV,3,3,11,05,05,087,23,29,10,189,33,138,38,213,45*7D
2017-11-16 13:17:42 1510856262.768070: $GPZDA,181741.00,16,11,2017,00,00*6F
2017-11-16 13:17:42 1510856262.768234: $GPGGA,181741,3946.9586,N,08404.9845,W,2,11,0.80,299.48,M,-33.324,M,,*75
2017-11-16 13:17:42 1510856262.768295: $GPRMC,181741,A,3946.9586,N,08404.9845,W,0.0000,0.000,161117,,*36
2017-11-16 13:17:42 1510856262.768350: $GPGSA,A,3,10,13,15,18,20,21,24,27,5,29,138,,1.6,0.8,1.3*37
2017-11-16 13:17:43 1510856263.317973: $GPZDA,181742.00,16,11,2017,00,00*6C
2017-11-16 13:17:43 1510856263.318139: $GPGGA,181742,3946.9586,N,08404.9845,W,2,11,0.80,299.48,M,-33.324,M,,*76
2017-11-16 13:17:43 1510856263.318200: $GPRMC,181742,A,3946.9586,N,08404.9845,W,0.0000,0.000,161117,,*35
2017-11-16 13:17:43 1510856263.318256: $GPGSA,A,3,10,13,15,18,20,21,24,27,5,29,138,,1.6,0.8,1.3*37
2017-11-16 13:17:44 1510856264.296270: $GPZDA,181743.00,16,11,2017,00,00*6D
2017-11-16 13:17:44 1510856264.296433: $GPGGA,181743,3946.9586,N,08404.9845,W,2,11,0.80,299.48,M,-33.324,M,,*77
2017-11-16 13:17:44 1510856264.296494: $GPRMC,181743,A,3946.9586,N,08404.9845,W,0.0000,0.000,161117,,*34
2017-11-16 13:17:44 1510856264.296550: $GPGSA,A,3,10,13,15,18,20,21,24,27,5,29,138,,1.6,0.8,1.3*37
2017-11-16 13:17:45 1510856265.652533: $GPGSV,3,1,11,10,22,282,42,13,30,045,48,15,62,052,50,18,53,298,46*74
2017-11-16 13:17:45 1510856265.652716: $GPGSV,3,2,11,20,52,070,47,21,77,276,46,24,32,139,41,27,16,313,42*77
2017-11-16 13:17:45 1510856265.652776: $GPGSV,3,3,11,05,05,087,23,29,10,189,32,138,38,213,44*7D
2017-11-16 13:17:45 1510856265.766052: $GPZDA,181744.00,16,11,2017,00,00*6A
2017-11-16 13:17:45 1510856265.766202: $GPGGA,181744,3946.9586,N,08404.9845,W,2,11,0.80,299.48,M,-33.324,M,,*70
2017-11-16 13:17:45 1510856265.766313: $GPRMC,181744,A,3946.9586,N,08404.9845,W,0.0000,0.000,161117,,*33
2017-11-16 13:17:45 1510856265.766371: $GPGSA,A,3,10,13,15,18,20,21,24,27,5,29,138,,1.6,0.8,1.3*37
2017-11-16 13:17:46 1510856266.314116: $GPZDA,181745.00,16,11,2017,00,00*6B
2017-11-16 13:17:46 1510856266.314305: $GPGGA,181745,3946.9586,N,08404.9845,W,2,11,0.80,299.48,M,-33.324,M,,*71
2017-11-16 13:17:46 1510856266.314369: $GPRMC,181745,A,3946.9586,N,08404.9845,W,0.0000,0.000,161117,,*32
2017-11-16 13:17:46 1510856266.314426: $GPGSA,A,3,10,13,15,18,20,21,24,27,5,29,138,,1.6,0.8,1.3*37
2017-11-16 13:17:47 1510856267.297714: $GPZDA,181746.00,16,11,2017,00,00*68
2017-11-16 13:17:47 1510856267.297884: $GPGGA,181746,3946.9586,N,08404.9845,W,2,11,0.80,299.48,M,-33.324,M,,*72
2017-11-16 13:17:47 1510856267.297946: $GPRMC,181746,A,3946.9586,N,08404.9845,W,0.0000,0.000,161117,,*31
2017-11-16 13:17:47 1510856267.298002: $GPGSA,A,3,10,13,15,18,20,21,24,27,5,29,138,,1.6,0.8,1.3*37
2017-11-16 13:17:48 1510856268.624939: $GPGSV,3,1,11,10,22,282,41,13,30,045,48,15,62,052,51,18,53,298,46*76
2017-11-16 13:17:48 1510856268.625134: $GPGSV,3,2,11,20,52,070,47,21,77,276,46,24,32,139,42,27,16,313,41*77
2017-11-16 13:17:48 1510856268.625199: $GPGSV,3,3,11,05,05,087,23,29,10,189,33,138,38,213,45*7D
2017-11-16 13:17:48 1510856268.738089: $GPZDA,181747.00,16,11,2017,00,00*69
2017-11-16 13:17:48 1510856268.738296: $GPGGA,181747,3946.9586,N,08404.9845,W,2,11,0.80,299.48,M,-33.324,M,,*73
2017-11-16 13:17:48 1510856268.738377: $GPRMC,181747,A,3946.9586,N,08404.9845,W,0.0000,0.000,161117,,*30
2017-11-16 13:17:48 1510856268.738436: $GPGSA,A,3,10,13,15,18,20,21,24,27,5,29,138,,1.6,0.8,1.3*37
2017-11-16 13:17:49 1510856269.297710: $GPZDA,181748.00,16,11,2017,00,00*66
2017-11-16 13:17:49 1510856269.297868: $GPGGA,181748,3946.9586,N,08404.9845,W,2,11,0.80,299.48,M,-33.324,M,,*7C
2017-11-16 13:17:49 1510856269.297928: $GPRMC,181748,A,3946.9586,N,08404.9845,W,0.0000,0.000,161117,,*3F
2017-11-16 13:17:49 1510856269.297983: $GPGSA,A,3,10,13,15,18,20,21,24,27,5,29,138,,1.6,0.8,1.3*37
