2017-11-16 14:07:12 1510859232.286071: {"class":"VERSION","release":"3.17","rev":"3.17","proto_major":3,"proto_minor":12}
2017-11-16 14:07:12 1510859232.286515: {"class":"DEVICES","devices":[{"class":"DEVICE","path":"/dev/ttyUSB0","driver":"SiRF","subtype":"9\u0006GSD4e_4.1.2-P1_RPATCH.05-F-GPS-4R-1510281 11/03/2015 307","activated":"2017-11-16T19:07:11.711Z","flags":1,"native":1,"bps":4800,"parity":"N","stopbits":1,"cycle":1.00}]}
2017-11-16 14:07:12 1510859232.286625: {"class":"WATCH","enable":true,"json":false,"nmea":true,"raw":0,"scaled":false,"timing":false,"split24":false,"pps":false}
2017-11-16 14:07:12 1510859232.898420: $GPGSV,3,1,12,10,39,298,41,13,10,048,30,15,40,051,50,18,69,330,48*72
2017-11-16 14:07:12 1510859232.898589: $GPGSV,3,2,12,20,35,093,46,21,67,193,47,24,49,115,48,32,18,235,45*72
2017-11-16 14:07:12 1510859232.898650: $GPGSV,3,3,12,08,05,324,34,27,19,292,39,14,02,231,00,138,38,213,45*4C
2017-11-16 14:07:13 1510859233.011732: $GPZDA,190711.00,16,11,2017,00,00*6A
2017-11-16 14:07:13 1510859233.011893: $GPGGA,190711,3946.9573,N,08404.9843,W,2,11,0.80,305.43,M,-33.324,M,,*73
2017-11-16 14:07:13 1510859233.011955: $GPRMC,190711,A,3946.9573,N,08404.9843,W,0.0000,0.000,161117,,*3F
2017-11-16 14:07:13 1510859233.012011: $GPGSA,A,3,10,13,15,18,20,21,24,32,8,27,138,,1.6,0.8,1.3*30
2017-11-16 14:07:13 1510859233.561456: $GPZDA,190712.00,16,11,2017,00,00*69
2017-11-16 14:07:13 1510859233.561619: $GPGGA,190712,3946.9573,N,08404.9843,W,2,11,0.80,305.43,M,-33.324,M,,*70
2017-11-16 14:07:13 1510859233.561680: $GPRMC,190712,A,3946.9573,N,08404.9843,W,0.0000,0.000,161117,,*3C
2017-11-16 14:07:13 1510859233.561736: $GPGSA,A,3,10,13,15,18,20,21,24,32,8,27,138,,1.6,0.8,1.3*30
2017-11-16 14:07:14 1510859234.560646: $GPZDA,190713.00,16,11,2017,00,00*68
2017-11-16 14:07:14 1510859234.560825: $GPGGA,190713,3946.9573,N,08404.9843,W,2,11,0.80,305.43,M,-33.324,M,,*71
2017-11-16 14:07:14 1510859234.560889: $GPRMC,190713,A,3946.9573,N,08404.9843,W,0.0000,0.000,161117,,*3D
2017-11-16 14:07:14 1510859234.560946: $GPGSA,A,3,10,13,15,18,20,21,24,32,8,27,138,,1.6,0.8,1.3*30
2017-11-16 14:07:15 1510859235.870347: $GPGSV,3,1,12,10,39,298,41,13,10,048,30,15,40,051,50,18,69,330,48*72
2017-11-16 14:07:15 1510859235.870519: $GPGSV,3,2,12,20,35,093,46,21,67,193,47,24,49,115,47,32,18,235,45*7D
2017-11-16 14:07:15 1510859235.870579: $GPGSV,3,3,12,08,05,324,33,27,19,292,40,14,02,231,00,138,38,213,46*46
2017-11-16 14:07:15 1510859235.983621: $GPZDA,190714.00,16,11,2017,00,00*6F
2017-11-16 14:07:15 1510859235.983774: $GPGGA,190714,3946.9570,N,08404.9844,W,2,11,0.80,306.19,M,-33.324,M,,*7E
2017-11-16 14:07:15 1510859235.983835: $GPRMC,190714,A,3946.9570,N,08404.9844,W,0.0000,0.000,161117,,*3E
2017-11-16 14:07:15 1510859235.983891: $GPGSA,A,3,10,13,15,18,20,21,24,32,8,27,138,,1.6,0.8,1.3*30
2017-11-16 14:07:16 1510859236.534926: $GPZDA,190715.00,16,11,2017,00,00*6E
2017-11-16 14:07:16 1510859236.535116: $GPGGA,190715,3946.9570,N,08404.9844,W,2,11,0.80,306.19,M,-33.324,M,,*7F
2017-11-16 14:07:16 1510859236.535203: $GPRMC,190715,A,3946.9570,N,08404.9844,W,0.0000,0.000,161117,,*3F
2017-11-16 14:07:16 1510859236.535260: $GPGSA,A,3,10,13,15,18,20,21,24,32,8,27,138,,1.6,0.8,1.3*30
2017-11-16 14:07:17 1510859237.561791: $GPZDA,190716.00,16,11,2017,00,00*6D
2017-11-16 14:07:17 1510859237.561953: $GPGGA,190716,3946.9570,N,08404.9844,W,2,11,0.80,306.19,M,-33.324,M,,*7C
2017-11-16 14:07:17 1510859237.562014: $GPRMC,190716,A,3946.9570,N,08404.9844,W,0.0000,0.000,161117,,*3C
2017-11-16 14:07:17 1510859237.562070: $GPGSA,A,3,10,13,15,18,20,21,24,32,8,27,138,,1.6,0.8,1.3*30
2017-11-16 14:07:18 1510859238.868827: $GPGSV,3,1,12,10,39,298,42,13,10,048,31,15,40,051,51,18,69,330,48*71
2017-11-16 14:07:18 1510859238.868974: $GPGSV,3,2,12,20,35,093,46,21,67,193,47,24,49,115,47,32,18,235,46*7E
2017-11-16 14:07:18 1510859238.869034: $GPGSV,3,3,12,08,05,324,33,27,19,292,40,14,02,231,00,138,38,213,44*44
2017-11-16 14:07:18 1510859238.982469: $GPZDA,190717.00,16,11,2017,00,00*6C
2017-11-16 14:07:18 1510859238.982631: $GPGGA,190717,3946.9570,N,08404.9844,W,2,11,0.80,306.19,M,-33.324,M,,*7D
2017-11-16 14:07:18 1510859238.982743: $GPRMC,190717,A,3946.9570,N,08404.9844,W,0.0000,0.000,161117,,*3D
2017-11-16 14:07:18 1510859238.982800: $GPGSA,A,3,10,13,15,18,20,21,24,32,8,27,138,,1.6,0.8,1.3*30
2017-11-16 14:07:19 1510859239.607573: $GPZDA,190718.00,16,11,2017,00,00*63
2017-11-16 14:07:20 1510859240.573394: $GPGGA,190718,3946.9570,N,08404.9844,W,2,11,0.80,306.19,M,-33.324,M,,*72
2017-11-16 14:07:20 1510859240.573544: $GPRMC,190718,A,3946.9570,N,08404.9844,W,0.0000,0.000,161117,,*32
2017-11-16 14:07:20 1510859240.573604: $GPGSA,A,3,10,13,15,18,20,21,24,32,8,27,138,,1.6,0.8,1.3*30
2017-11-16 14:07:20 1510859240.573690: $GPZDA,190719.00,16,11,2017,00,00*62
2017-11-16 14:07:20 1510859240.573743: $GPGGA,190719,3946.9570,N,08404.9844,W,2,11,0.80,306.19,M,-33.324,M,,*73
2017-11-16 14:07:20 1510859240.573799: $GPRMC,190719,A,3946.9570,N,08404.9844,W,0.0000,0.000,161117,,*33
2017-11-16 14:07:20 1510859240.573853: $GPGSA,A,3,10,13,15,18,20,21,24,32,8,27,138,,1.6,0.8,1.3*30
2017-11-16 14:07:21 1510859241.871759: $GPGSV,3,1,12,10,39,298,41,13,10,048,31,15,40,051,51,18,69,330,48*72
2017-11-16 14:07:21 1510859241.871928: $GPGSV,3,2,12,20,35,093,46,21,67,193,46,24,49,115,48,32,18,235,46*70
2017-11-16 14:07:21 1510859241.871988: $GPGSV,3,3,12,08,05,324,32,27,19,292,39,14,02,231,00,138,38,213,44*4B
2017-11-16 14:07:21 1510859241.985667: $GPZDA,190720.00,16,11,2017,00,00*68
2017-11-16 14:07:21 1510859241.985835: $GPGGA,190720,3946.9570,N,08404.9844,W,2,11,0.80,306.19,M,-33.324,M,,*79
2017-11-16 14:07:21 1510859241.985896: $GPRMC,190720,A,3946.9570,N,08404.9844,W,0.0000,0.000,161117,,*39
2017-11-16 14:07:21 1510859241.985952: $GPGSA,A,3,10,13,15,18,20,21,24,32,8,27,138,,1.6,0.8,1.3*30
