2017-12-01 18:18:57 1512170337.436686: {"class":"VERSION","release":"3.16","rev":"3.16-4","proto_major":3,"proto_minor":11}
2017-12-01 18:18:57 1512170337.437083: {"class":"DEVICES","devices":[{"class":"DEVICE","path":"/dev/ttyUSB0","driver":"SiRF","subtype":"9\u0006GSD4e_4.1.2-P1_RPATCH.05-F-GPS-4R-1510281 11/03/2015 307","activated":"2017-12-01T23:18:57.407Z","flags":1,"native":1,"bps":4800,"parity":"N","stopbits":1,"cycle":1.00}]}
2017-12-01 18:18:57 1512170337.437207: {"class":"WATCH","enable":true,"json":false,"nmea":true,"raw":0,"scaled":false,"timing":false,"split24":false,"pps":false}
2017-12-01 18:18:58 1512170338.737105: $GPGSV,3,1,12,01,07,255,34,03,39,301,47,14,57,088,43,16,21,189,41*72
2017-12-01 18:18:58 1512170338.737285: $GPGSV,3,2,12,22,50,273,45,23,10,300,38,25,19,040,39,26,51,172,46*76
2017-12-01 18:18:58 1512170338.737351: $GPGSV,3,3,12,31,69,022,46,32,37,106,41,29,10,073,06,138,38,213,45*4A
2017-12-01 18:18:58 1512170338.849205: $GPZDA,231859.00,01,12,2017,00,00*64
2017-12-01 18:18:58 1512170338.849371: $GPGGA,231859,3946.9722,N,08404.9843,W,2,11,0.80,303.54,M,-33.325,M,,*7F
2017-12-01 18:18:58 1512170338.849438: $GPRMC,231859,A,3946.9722,N,08404.9843,W,0.0000,0.000,011217,,*37
2017-12-01 18:18:58 1512170338.849498: $GPGSA,A,3,1,3,14,16,22,23,25,26,31,32,138,,2.0,0.8,1.5*07
2017-12-01 18:18:59 1512170339.475930: $GPZDA,231900.00,01,12,2017,00,00*69
2017-12-01 18:18:59 1512170339.476116: $GPGGA,231900,3946.9722,N,08404.9843,W,2,11,0.60,303.54,M,-33.325,M,,*7C
2017-12-01 18:18:59 1512170339.476206: $GPRMC,231900,A,3946.9722,N,08404.9843,W,0.0000,0.000,011217,,*3A
2017-12-01 18:18:59 1512170339.476269: $GPGSA,A,3,1,3,14,16,22,23,25,26,31,32,138,,2.0,0.6,1.5*09
2017-12-01 18:19:00 1512170340.364141: $GPZDA,231901.00,01,12,2017,00,00*68
2017-12-01 18:19:00 1512170340.364317: $GPGGA,231901,3946.9722,N,08404.9843,W,2,11,0.60,303.54,M,-33.325,M,,*7D
2017-12-01 18:19:00 1512170340.364385: $GPRMC,231901,A,3946.9722,N,08404.9843,W,0.0000,0.000,011217,,*3B
2017-12-01 18:19:00 1512170340.364446: $GPGSA,A,3,1,3,14,16,22,23,25,26,31,32,138,,2.0,0.6,1.5*09
2017-12-01 18:19:01 1512170341.738607: $GPGSV,3,1,12,01,07,255,33,03,39,301,47,14,57,088,43,16,21,189,41*75
2017-12-01 18:19:01 1512170341.738789: $GPGSV,3,2,12,22,50,273,45,23,10,300,37,25,19,040,39,26,51,172,46*79
2017-12-01 18:19:01 1512170341.738857: $GPGSV,3,3,12,31,69,022,46,32,37,106,42,29,10,073,22,138,38,213,45*4F
2017-12-01 18:19:01 1512170341.852284: $GPZDA,231902.00,01,12,2017,00,00*6B
2017-12-01 18:19:01 1512170341.852452: $GPGGA,231902,3946.9722,N,08404.9843,W,2,12,0.60,303.54,M,-33.325,M,,*7D
2017-12-01 18:19:01 1512170341.852520: $GPRMC,231902,A,3946.9722,N,08404.9843,W,0.0000,0.000,011217,,*38
2017-12-01 18:19:01 1512170341.852581: $GPGSA,A,3,1,3,14,16,22,23,25,26,31,32,29,138,2.0,0.6,1.5*02
2017-12-01 18:19:02 1512170342.369190: $GPZDA,231903.00,01,12,2017,00,00*6A
2017-12-01 18:19:02 1512170342.369360: $GPGGA,231903,3946.9722,N,08404.9843,W,2,12,0.60,303.54,M,-33.325,M,,*7C
2017-12-01 18:19:02 1512170342.369426: $GPRMC,231903,A,3946.9722,N,08404.9843,W,0.0000,0.000,011217,,*39
2017-12-01 18:19:02 1512170342.369487: $GPGSA,A,3,1,3,14,16,22,23,25,26,31,32,29,138,2.0,0.6,1.5*02
2017-12-01 18:19:03 1512170343.370039: $GPZDA,231904.00,01,12,2017,00,00*6D
2017-12-01 18:19:03 1512170343.370209: $GPGGA,231904,3946.9722,N,08404.9843,W,2,12,0.60,303.54,M,-33.325,M,,*7B
2017-12-01 18:19:03 1512170343.370276: $GPRMC,231904,A,3946.9722,N,08404.9843,W,0.0000,0.000,011217,,*3E
2017-12-01 18:19:03 1512170343.370337: $GPGSA,A,3,1,3,14,16,22,23,25,26,31,32,29,138,2.0,0.6,1.5*02
2017-12-01 18:19:04 1512170344.705197: $GPGSV,3,1,12,01,07,255,33,03,39,301,47,14,57,088,43,16,21,189,41*75
2017-12-01 18:19:04 1512170344.708811: $GPGSV,3,2,12,22,50,273,45,23,10,300,36,25,19,040,40,26,51,172,47*77
2017-12-01 18:19:04 1512170344.708931: $GPGSV,3,3,12,31,69,022,46,32,37,106,37,29,10,073,23,138,38,213,46*4F
2017-12-01 18:19:04 1512170344.818818: $GPZDA,231905.00,01,12,2017,00,00*6C
2017-12-01 18:19:04 1512170344.819023: $GPGGA,231905,3946.9718,N,08404.9843,W,2,12,0.60,302.90,M,-33.325,M,,*7A
2017-12-01 18:19:04 1512170344.819141: $GPRMC,231905,A,3946.9718,N,08404.9843,W,0.0000,0.000,011217,,*36
2017-12-01 18:19:04 1512170344.819206: $GPGSA,A,3,1,3,14,16,22,23,25,26,31,32,29,138,2.0,0.6,1.5*02
2017-12-01 18:19:05 1512170345.369703: $GPZDA,231906.00,01,12,2017,00,00*6F
2017-12-01 18:19:05 1512170345.369908: $GPGGA,231906,3946.9718,N,08404.9843,W,2,12,0.60,302.90,M,-33.325,M,,*79
2017-12-01 18:19:05 1512170345.369977: $GPRMC,231906,A,3946.9718,N,08404.9843,W,0.0000,0.000,011217,,*35
2017-12-01 18:19:05 1512170345.370038: $GPGSA,A,3,1,3,14,16,22,23,25,26,31,32,29,138,2.0,0.6,1.5*02
2017-12-01 18:19:06 1512170346.369074: $GPZDA,231907.00,01,12,2017,00,00*6E
2017-12-01 18:19:06 1512170346.369270: $GPGGA,231907,3946.9718,N,08404.9843,W,2,12,0.60,302.90,M,-33.325,M,,*78
2017-12-01 18:19:06 1512170346.369338: $GPRMC,231907,A,3946.9718,N,08404.9843,W,0.0000,0.000,011217,,*34
2017-12-01 18:19:06 1512170346.369399: $GPGSA,A,3,1,3,14,16,22,23,25,26,31,32,29,138,2.0,0.6,1.5*02
2017-12-01 18:19:07 1512170347.706018: $GPGSV,3,1,12,01,07,255,33,03,39,301,47,14,57,088,43,16,21,189,42*76
2017-12-01 18:19:07 1512170347.706200: $GPGSV,3,2,12,22,50,273,45,23,10,300,36,25,19,040,40,26,51,172,47*77
2017-12-01 18:19:07 1512170347.706268: $GPGSV,3,3,12,31,69,022,46,32,37,106,39,29,10,073,23,138,38,213,45*42
2017-12-01 18:19:07 1512170347.819645: $GPZDA,231908.00,01,12,2017,00,00*61
2017-12-01 18:19:07 1512170347.819797: $GPGGA,231908,3946.9718,N,08404.9843,W,2,12,0.60,302.90,M,-33.325,M,,*77
2017-12-01 18:19:07 1512170347.819881: $GPRMC,231908,A,3946.9718,N,08404.9843,W,0.0000,0.000,011217,,*3B
2017-12-01 18:19:07 1512170347.819942: $GPGSA,A,3,1,3,14,16,22,23,25,26,31,32,29,138,2.0,0.6,1.5*02
2017-12-01 18:19:08 1512170348.364787: $GPZDA,231909.00,01,12,2017,00,00*60
2017-12-01 18:19:08 1512170348.364982: $GPGGA,231909,3946.9718,N,08404.9843,W,2,12,0.60,302.90,M,-33.325,M,,*76
2017-12-01 18:19:08 1512170348.365084: $GPRMC,231909,A,3946.9718,N,08404.9843,W,0.0000,0.000,011217,,*3A
2017-12-01 18:19:08 1512170348.365147: $GPGSA,A,3,1,3,14,16,22,23,25,26,31,32,29,138,2.0,0.6,1.5*02
2017-12-01 18:19:09 1512170349.369379: $GPZDA,231910.00,01,12,2017,00,00*68
2017-12-01 18:19:09 1512170349.369559: $GPGGA,231910,3946.9718,N,08404.9843,W,2,12,0.60,302.90,M,-33.325,M,,*7E
2017-12-01 18:19:09 1512170349.369629: $GPRMC,231910,A,3946.9718,N,08404.9843,W,0.0000,0.000,011217,,*32
2017-12-01 18:19:09 1512170349.369716: $GPGSA,A,3,1,3,14,16,22,23,25,26,31,32,29,138,2.0,0.6,1.5*02
2017-12-01 18:19:10 1512170350.705245: $GPGSV,3,1,12,01,07,255,33,03,39,301,47,14,57,088,43,16,21,189,42*76
2017-12-01 18:19:10 1512170350.705590: $GPGSV,3,2,12,22,50,273,45,23,10,300,37,25,19,040,40,26,51,172,47*76
2017-12-01 18:19:10 1512170350.705729: $GPGSV,3,3,12,31,69,022,47,32,37,106,39,29,10,073,22,138,38,213,46*41
2017-12-01 18:19:10 1512170350.817691: $GPZDA,231911.00,01,12,2017,00,00*69
2017-12-01 18:19:10 1512170350.817881: $GPGGA,231911,3946.9718,N,08404.9843,W,2,12,0.60,302.90,M,-33.325,M,,*7F
2017-12-01 18:19:10 1512170350.817949: $GPRMC,231911,A,3946.9718,N,08404.9843,W,0.0000,0.000,011217,,*33
2017-12-01 18:19:10 1512170350.818011: $GPGSA,A,3,1,3,14,16,22,23,25,26,31,32,29,138,2.0,0.6,1.5*02
2017-12-01 18:19:11 1512170351.369714: $GPZDA,231912.00,01,12,2017,00,00*6A
2017-12-01 18:19:11 1512170351.369903: $GPGGA,231912,3946.9718,N,08404.9843,W,2,12,0.60,302.90,M,-33.325,M,,*7C
2017-12-01 18:19:11 1512170351.369971: $GPRMC,231912,A,3946.9718,N,08404.9843,W,0.0000,0.000,011217,,*30
2017-12-01 18:19:11 1512170351.370032: $GPGSA,A,3,1,3,14,16,22,23,25,26,31,32,29,138,2.0,0.6,1.5*02
2017-12-01 18:19:12 1512170352.370714: $GPZDA,231913.00,01,12,2017,00,00*6B
2017-12-01 18:19:12 1512170352.370906: $GPGGA,231913,3946.9718,N,08404.9843,W,2,12,0.60,302.90,M,-33.325,M,,*7D
2017-12-01 18:19:12 1512170352.370973: $GPRMC,231913,A,3946.9718,N,08404.9843,W,0.0000,0.000,011217,,*31
2017-12-01 18:19:12 1512170352.371035: $GPGSA,A,3,1,3,14,16,22,23,25,26,31,32,29,138,2.0,0.6,1.5*02
2017-12-01 18:19:13 1512170353.707204: $GPGSV,3,1,12,01,07,255,28,03,39,301,47,14,57,088,43,16,21,189,41*7F
2017-12-01 18:19:13 1512170353.707429: $GPGSV,3,2,12,22,50,273,45,23,10,300,38,25,19,040,40,26,51,172,47*79
2017-12-01 18:19:13 1512170353.707499: $GPGSV,3,3,12,31,69,022,47,32,37,106,40,29,10,073,22,138,38,213,46*4F
2017-12-01 18:19:13 1512170353.820818: $GPZDA,231914.00,01,12,2017,00,00*6C
2017-12-01 18:19:13 1512170353.820949: $GPGGA,231914,3946.9718,N,08404.9843,W,2,12,0.60,302.90,M,-33.325,M,,*7A
2017-12-01 18:19:13 1512170353.821014: $GPRMC,231914,A,3946.9718,N,08404.9843,W,0.0000,0.000,011217,,*36
2017-12-01 18:19:13 1512170353.821075: $GPGSA,A,3,1,3,14,16,22,23,25,26,31,32,29,138,2.0,0.6,1.5*02
2017-12-01 18:19:14 1512170354.446337: $GPZDA,231915.00,01,12,2017,00,00*6D
2017-12-01 18:19:14 1512170354.446510: $GPGGA,231915,3946.9718,N,08404.9843,W,2,12,0.80,302.90,M,-33.325,M,,*75
2017-12-01 18:19:14 1512170354.446578: $GPRMC,231915,A,3946.9718,N,08404.9843,W,0.0000,0.000,011217,,*37
2017-12-01 18:19:14 1512170354.446667: $GPGSA,A,3,1,3,14,16,22,23,25,26,31,32,29,138,2.0,0.8,1.5*0C
2017-12-01 18:19:15 1512170355.368358: $GPZDA,231916.00,01,12,2017,00,00*6E
2017-12-01 18:19:15 1512170355.368529: $GPGGA,231916,3946.9718,N,08404.9843,W,2,12,0.80,302.90,M,-33.325,M,,*76
2017-12-01 18:19:15 1512170355.368619: $GPRMC,231916,A,3946.9718,N,08404.9843,W,0.0000,0.000,011217,,*34
2017-12-01 18:19:15 1512170355.368682: $GPGSA,A,3,1,3,14,16,22,23,25,26,31,32,29,138,2.0,0.8,1.5*0C
2017-12-01 18:19:16 1512170356.706269: $GPGSV,3,1,12,01,07,255,29,03,39,301,47,14,57,088,43,16,21,189,41*7E
2017-12-01 18:19:16 1512170356.706449: $GPGSV,3,2,12,22,50,273,45,23,10,300,38,25,19,040,40,26,51,172,47*79
2017-12-01 18:19:16 1512170356.706516: $GPGSV,3,3,12,31,69,022,47,32,37,106,40,29,10,073,00,138,38,213,45*4C
2017-12-01 18:19:16 1512170356.819738: $GPZDA,231917.00,01,12,2017,00,00*6F
2017-12-01 18:19:16 1512170356.819921: $GPGGA,231917,3946.9718,N,08404.9843,W,2,11,0.80,302.90,M,-33.325,M,,*74
2017-12-01 18:19:16 1512170356.819990: $GPRMC,231917,A,3946.9718,N,08404.9843,W,0.0000,0.000,011217,,*35
2017-12-01 18:19:16 1512170356.820052: $GPGSA,A,3,1,3,14,16,22,23,25,26,31,32,138,,2.0,0.8,1.5*07
2017-12-01 18:19:17 1512170357.369551: $GPZDA,231918.00,01,12,2017,00,00*60
2017-12-01 18:19:17 1512170357.369764: $GPGGA,231918,3946.9718,N,08404.9843,W,2,11,0.80,302.90,M,-33.325,M,,*7B
2017-12-01 18:19:17 1512170357.369832: $GPRMC,231918,A,3946.9718,N,08404.9843,W,0.0000,0.000,011217,,*3A
2017-12-01 18:19:17 1512170357.369893: $GPGSA,A,3,1,3,14,16,22,23,25,26,31,32,138,,2.0,0.8,1.5*07
