2017-11-15 18:32:26 1510788746.755560: {"class":"VERSION","release":"3.17","rev":"3.17","proto_major":3,"proto_minor":12}
2017-11-15 18:32:26 1510788746.756097: {"class":"DEVICES","devices":[{"class":"DEVICE","path":"/dev/ttyUSB0","driver":"SiRF","subtype":"9\u0006GSD4e_4.1.2-P1_RPATCH.05-F-GPS-4R-1510281 11/03/2015 307","activated":"2017-11-15T23:32:26.468Z","flags":1,"native":1,"bps":4800,"parity":"N","stopbits":1,"cycle":1.00}]}
2017-11-15 18:32:26 1510788746.756230: {"class":"WATCH","enable":true,"json":false,"nmea":true,"raw":0,"scaled":false,"timing":false,"split24":false,"pps":false}
2017-11-15 18:32:27 1510788747.664093: $GPGSV,3,1,11,25,36,057,22,14,69,037,14,22,39,303,12,26,25,178,10*75
2017-11-15 18:32:27 1510788747.664241: $GPGSV,3,2,11,31,77,276,25,32,56,078,14,01,19,276,07,10,22,156,00*78
2017-11-15 18:32:27 1510788747.664302: $GPGSV,3,3,11,03,20,315,10,12,07,033,00,120,07,103,00*7C
2017-11-15 18:32:27 1510788747.777867: $GPZDA,233226.00,15,11,2017,00,00*62
2017-11-15 18:32:27 1510788747.778006: $GPGGA,233226,3946.9575,N,08404.9575,W,1,08,1.20,292.54,M,-33.324,M,,*7F
2017-11-15 18:32:27 1510788747.778064: $GPRMC,233226,A,3946.9575,N,08404.9575,W,2.2905,305.776,151117,,*35
2017-11-15 18:32:27 1510788747.778119: $GPGSA,A,3,25,14,22,26,31,32,1,3,,,,,3.4,1.2,2.9*3A
2017-11-15 18:32:28 1510788748.327208: $GPZDA,233227.00,15,11,2017,00,00*63
2017-11-15 18:32:28 1510788748.327373: $GPGGA,233227,3946.9579,N,08404.9582,W,1,08,1.20,293.10,M,-33.324,M,,*7B
2017-11-15 18:32:28 1510788748.327434: $GPRMC,233227,A,3946.9579,N,08404.9582,W,2.1306,320.685,151117,,*30
2017-11-15 18:32:28 1510788748.327489: $GPGSA,A,3,25,14,22,26,31,32,1,3,,,,,3.4,1.2,2.9*3A
2017-11-15 18:32:29 1510788749.328078: $GPZDA,233228.00,15,11,2017,00,00*6C
2017-11-15 18:32:29 1510788749.328238: $GPGGA,233228,3946.9583,N,08404.9595,W,1,08,7.00,292.18,M,-33.324,M,,*7A
2017-11-15 18:32:29 1510788749.328298: $GPRMC,233228,A,3946.9583,N,08404.9595,W,2.0150,305.439,151117,,*3E
2017-11-15 18:32:29 1510788749.328354: $GPGSA,A,3,25,14,22,26,31,32,1,3,,,,,3.4,7.0,2.9*3E
2017-11-15 18:32:30 1510788750.697474: $GPGSV,3,1,11,25,36,057,22,14,69,037,15,22,39,303,12,26,25,178,12*76
2017-11-15 18:32:30 1510788750.697641: $GPGSV,3,2,11,31,77,276,25,32,56,078,04,01,19,276,06,10,22,156,00*78
2017-11-15 18:32:30 1510788750.697700: $GPGSV,3,3,11,03,20,315,10,12,07,033,00,120,07,103,00*7C
2017-11-15 18:32:30 1510788750.810810: $GPZDA,233229.00,15,11,2017,00,00*6D
2017-11-15 18:32:30 1510788750.810969: $GPGGA,233229,3946.9588,N,08404.9595,W,1,06,7.00,292.82,M,-33.324,M,,*7D
2017-11-15 18:32:30 1510788750.811030: $GPRMC,233229,A,3946.9588,N,08404.9595,W,1.7178,318.722,151117,,*3F
2017-11-15 18:32:30 1510788750.811086: $GPGSA,A,3,25,14,22,26,31,3,,,,,,,3.4,7.0,2.9*0E
2017-11-15 18:32:31 1510788751.436167: $GPZDA,233230.00,15,11,2017,00,00*65
2017-11-15 18:32:31 1510788751.436327: $GPGGA,233230,3946.9588,N,08404.9602,W,1,06,7.00,292.74,M,-33.324,M,,*71
2017-11-15 18:32:31 1510788751.436388: $GPRMC,233230,A,3946.9588,N,08404.9602,W,1.3305,297.203,151117,,*36
2017-11-15 18:32:31 1510788751.436443: $GPGSA,A,3,25,14,22,26,31,3,,,,,,,3.4,7.0,2.9*0E
2017-11-15 18:32:32 1510788752.328294: $GPZDA,233231.00,15,11,2017,00,00*64
2017-11-15 18:32:32 1510788752.328460: $GPGGA,233231,3946.9585,N,08404.9610,W,1,06,7.00,293.42,M,-33.324,M,,*7A
2017-11-15 18:32:32 1510788752.328520: $GPRMC,233231,A,3946.9585,N,08404.9610,W,1.2357,266.543,151117,,*32
2017-11-15 18:32:32 1510788752.328576: $GPGSA,A,3,25,14,22,26,31,3,,,,,,,3.4,7.0,2.9*0E
2017-11-15 18:32:33 1510788753.699042: $GPGSV,3,1,11,25,36,057,22,14,69,037,15,22,39,303,12,26,25,178,11*75
2017-11-15 18:32:33 1510788753.699210: $GPGSV,3,2,11,31,77,276,25,32,56,078,04,01,19,276,05,10,22,156,00*7B
2017-11-15 18:32:33 1510788753.699269: $GPGSV,3,3,11,03,20,315,11,12,07,033,00,120,07,103,00*7D
2017-11-15 18:32:33 1510788753.812352: $GPZDA,233232.00,15,11,2017,00,00*67
2017-11-15 18:32:33 1510788753.812527: $GPGGA,233232,3946.9585,N,08404.9617,W,1,06,7.00,293.34,M,-33.324,M,,*7F
2017-11-15 18:32:33 1510788753.812589: $GPRMC,233232,A,3946.9585,N,08404.9617,W,0.5230,256.443,151117,,*32
2017-11-15 18:32:33 1510788753.812696: $GPGSA,A,3,25,14,22,26,31,3,,,,,,,3.4,7.0,2.9*0E
2017-11-15 18:32:34 1510788754.328237: $GPZDA,233233.00,15,11,2017,00,00*66
2017-11-15 18:32:34 1510788754.328422: $GPGGA,233233,3946.9585,N,08404.9610,W,1,06,7.00,293.42,M,-33.324,M,,*78
2017-11-15 18:32:34 1510788754.328483: $GPRMC,233233,A,3946.9585,N,08404.9610,W,0.2422,93.794,151117,,*04
2017-11-15 18:32:34 1510788754.328539: $GPGSA,A,3,25,14,22,26,31,3,,,,,,,3.4,7.0,2.9*0E
2017-11-15 18:32:35 1510788755.328140: $GPRMC,233234,V,3946.9585,N,08404.9610,W,0.2422,93.794,151117,,*14
2017-11-15 18:32:35 1510788755.328319: $GPGSA,A,1,25,14,22,26,31,3,,,,,,,,,,*05
2017-11-15 18:32:36 1510788756.698236: $GPGSV,3,1,11,25,36,057,22,14,69,037,14,22,39,303,12,26,25,178,05*71
2017-11-15 18:32:36 1510788756.698408: $GPGSV,3,2,11,31,77,276,25,32,56,078,04,01,19,276,04,10,22,156,00*7A
2017-11-15 18:32:36 1510788756.698467: $GPGSV,3,3,11,03,20,315,04,12,07,033,00,120,07,103,00*79
