2017-11-16 14:10:15 1510859415.619564: {"class":"VERSION","release":"3.17","rev":"3.17","proto_major":3,"proto_minor":12}
2017-11-16 14:10:15 1510859415.620399: {"class":"DEVICES","devices":[{"class":"DEVICE","path":"/dev/ttyUSB0","driver":"SiRF","subtype":"9\u0006GSD4e_4.1.2-P1_RPATCH.05-F-GPS-4R-1510281 11/03/2015 307","activated":"2017-11-16T19:10:15.420Z","flags":1,"native":1,"bps":4800,"parity":"N","stopbits":1,"cycle":1.00}]}
2017-11-16 14:10:15 1510859415.620617: {"class":"WATCH","enable":true,"json":false,"nmea":true,"raw":0,"scaled":false,"timing":false,"split24":false,"pps":false}
2017-11-16 14:10:15 1510859415.868799: $GPGSV,3,1,12,10,40,300,43,13,09,048,35,15,39,052,51,18,70,331,48*76
2017-11-16 14:10:15 1510859415.868967: $GPGSV,3,2,12,20,34,094,47,21,66,192,46,24,50,114,48,32,19,237,46*7D
2017-11-16 14:10:15 1510859415.869028: $GPGSV,3,3,12,08,05,324,29,27,19,291,36,14,03,231,00,138,38,213,45*4D
2017-11-16 14:10:15 1510859415.982364: $GPZDA,191014.00,16,11,2017,00,00*69
2017-11-16 14:10:15 1510859415.982542: $GPGGA,191014,3946.9566,N,08404.9851,W,2,11,0.80,305.47,M,-33.324,M,,*73
2017-11-16 14:10:15 1510859415.982620: $GPRMC,191014,A,3946.9566,N,08404.9851,W,0.0000,0.000,161117,,*3B
2017-11-16 14:10:15 1510859415.982677: $GPGSA,A,3,10,13,15,18,20,21,24,32,8,27,138,,1.6,0.8,1.3*30
2017-11-16 14:10:16 1510859416.534247: $GPZDA,191015.00,16,11,2017,00,00*68
2017-11-16 14:10:16 1510859416.534425: $GPGGA,191015,3946.9566,N,08404.9851,W,2,11,0.80,305.47,M,-33.324,M,,*72
2017-11-16 14:10:16 1510859416.534511: $GPRMC,191015,A,3946.9566,N,08404.9851,W,0.0000,0.000,161117,,*3A
2017-11-16 14:10:16 1510859416.534568: $GPGSA,A,3,10,13,15,18,20,21,24,32,8,27,138,,1.6,0.8,1.3*30
2017-11-16 14:10:17 1510859417.534030: $GPZDA,191016.00,16,11,2017,00,00*6B
2017-11-16 14:10:17 1510859417.534215: $GPGGA,191016,3946.9566,N,08404.9851,W,2,11,0.80,305.47,M,-33.324,M,,*71
2017-11-16 14:10:17 1510859417.534276: $GPRMC,191016,A,3946.9566,N,08404.9851,W,0.0000,0.000,161117,,*39
2017-11-16 14:10:17 1510859417.534333: $GPGSA,A,3,10,13,15,18,20,21,24,32,8,27,138,,1.6,0.8,1.3*30
2017-11-16 14:10:18 1510859418.869687: $GPGSV,3,1,12,10,40,300,44,13,09,048,35,15,39,052,51,18,70,331,47*7E
2017-11-16 14:10:18 1510859418.869846: $GPGSV,3,2,12,20,34,094,47,21,66,192,47,24,50,114,47,32,19,237,46*73
2017-11-16 14:10:18 1510859418.869908: $GPGSV,3,3,12,08,05,324,22,27,19,291,38,14,03,231,00,138,38,213,46*4B
2017-11-16 14:10:18 1510859418.983260: $GPZDA,191017.00,16,11,2017,00,00*6A
2017-11-16 14:10:18 1510859418.983420: $GPGGA,191017,3946.9566,N,08404.9851,W,2,11,0.80,305.47,M,-33.324,M,,*70
2017-11-16 14:10:18 1510859418.983505: $GPRMC,191017,A,3946.9566,N,08404.9851,W,0.0000,0.000,161117,,*38
2017-11-16 14:10:18 1510859418.983563: $GPGSA,A,3,10,13,15,18,20,21,24,32,8,27,138,,1.6,0.8,1.3*30
2017-11-16 14:10:19 1510859419.608840: $GPZDA,191018.00,16,11,2017,00,00*65
2017-11-16 14:10:19 1510859419.609000: $GPGGA,191018,3946.9566,N,08404.9851,W,2,11,0.80,305.47,M,-33.324,M,,*7F
2017-11-16 14:10:19 1510859419.609061: $GPRMC,191018,A,3946.9566,N,08404.9851,W,0.0000,0.000,161117,,*37
2017-11-16 14:10:19 1510859419.609117: $GPGSA,A,3,10,13,15,18,20,21,24,32,8,27,138,,1.6,0.8,1.3*30
2017-11-16 14:10:20 1510859420.532480: $GPZDA,191019.00,16,11,2017,00,00*64
2017-11-16 14:10:20 1510859420.532654: $GPGGA,191019,3946.9566,N,08404.9851,W,2,11,0.80,305.47,M,-33.324,M,,*7E
2017-11-16 14:10:20 1510859420.532727: $GPRMC,191019,A,3946.9566,N,08404.9851,W,0.0000,0.000,161117,,*36
2017-11-16 14:10:20 1510859420.532784: $GPGSA,A,3,10,13,15,18,20,21,24,32,8,27,138,,1.6,0.8,1.3*30
2017-11-16 14:10:21 1510859421.870082: $GPGSV,3,1,12,10,40,300,43,13,09,048,35,15,39,052,51,18,70,331,47*79
2017-11-16 14:10:21 1510859421.870253: $GPGSV,3,2,12,20,34,094,47,21,66,192,47,24,50,114,47,32,19,237,46*73
2017-11-16 14:10:21 1510859421.870362: $GPGSV,3,3,12,08,05,324,28,27,19,291,39,14,03,231,00,138,38,213,44*42
2017-11-16 14:10:21 1510859421.983607: $GPZDA,191020.00,16,11,2017,00,00*6E
2017-11-16 14:10:21 1510859421.983787: $GPGGA,191020,3946.9566,N,08404.9851,W,2,11,0.80,305.47,M,-33.324,M,,*74
2017-11-16 14:10:21 1510859421.983936: $GPRMC,191020,A,3946.9566,N,08404.9851,W,0.0000,0.000,161117,,*3C
2017-11-16 14:10:21 1510859421.984006: $GPGSA,A,3,10,13,15,18,20,21,24,32,8,27,138,,1.6,0.8,1.3*30
2017-11-16 14:10:22 1510859422.533018: $GPZDA,191021.00,16,11,2017,00,00*6F
2017-11-16 14:10:22 1510859422.533179: $GPGGA,191021,3946.9566,N,08404.9851,W,2,11,0.80,305.47,M,-33.324,M,,*75
2017-11-16 14:10:22 1510859422.533240: $GPRMC,191021,A,3946.9566,N,08404.9851,W,0.0000,0.000,161117,,*3D
2017-11-16 14:10:22 1510859422.533297: $GPGSA,A,3,10,13,15,18,20,21,24,32,8,27,138,,1.6,0.8,1.3*30
2017-11-16 14:10:23 1510859423.533926: $GPZDA,191022.00,16,11,2017,00,00*6C
2017-11-16 14:10:23 1510859423.534102: $GPGGA,191022,3946.9566,N,08404.9851,W,2,11,0.80,305.47,M,-33.324,M,,*76
2017-11-16 14:10:23 1510859423.534164: $GPRMC,191022,A,3946.9566,N,08404.9851,W,0.0000,0.000,161117,,*3E
2017-11-16 14:10:23 1510859423.534221: $GPGSA,A,3,10,13,15,18,20,21,24,32,8,27,138,,1.6,0.8,1.3*30
2017-11-16 14:10:24 1510859424.870482: $GPGSV,3,1,12,10,40,300,42,13,09,048,35,15,39,052,51,18,70,331,47*78
2017-11-16 14:10:24 1510859424.870668: $GPGSV,3,2,12,20,34,094,47,21,66,192,46,24,50,114,48,32,19,237,46*7D
2017-11-16 14:10:24 1510859424.870729: $GPGSV,3,3,12,08,05,324,33,27,19,291,40,14,03,231,00,138,38,213,44*46
2017-11-16 14:10:24 1510859424.984035: $GPZDA,191023.00,16,11,2017,00,00*6D
2017-11-16 14:10:24 1510859424.984195: $GPGGA,191023,3946.9566,N,08404.9851,W,2,11,0.80,305.47,M,-33.324,M,,*77
2017-11-16 14:10:24 1510859424.984256: $GPRMC,191023,A,3946.9566,N,08404.9851,W,0.0000,0.000,161117,,*3F
2017-11-16 14:10:24 1510859424.984313: $GPGSA,A,3,10,13,15,18,20,21,24,32,8,27,138,,1.6,0.8,1.3*30
2017-11-16 14:10:25 1510859425.529894: $GPZDA,191024.00,16,11,2017,00,00*6A
2017-11-16 14:10:25 1510859425.530054: $GPGGA,191024,3946.9566,N,08404.9851,W,2,11,0.80,305.47,M,-33.324,M,,*70
2017-11-16 14:10:25 1510859425.530115: $GPRMC,191024,A,3946.9566,N,08404.9851,W,0.0000,0.000,161117,,*38
2017-11-16 14:10:25 1510859425.530171: $GPGSA,A,3,10,13,15,18,20,21,24,32,8,27,138,,1.6,0.8,1.3*30
