2017-11-15 18:31:16 1510788676.362127: {"class":"VERSION","release":"3.17","rev":"3.17","proto_major":3,"proto_minor":12}
2017-11-15 18:31:16 1510788676.362601: {"class":"DEVICES","devices":[{"class":"DEVICE","path":"/dev/ttyUSB0","driver":"SiRF","subtype":"9\u0006GSD4e_4.1.2-P1_RPATCH.05-F-GPS-4R-1510281 11/03/2015 307","activated":"2017-11-15T23:31:16.323Z","flags":1,"native":1,"bps":4800,"parity":"N","stopbits":1,"cycle":1.00}]}
2017-11-15 18:31:16 1510788676.362734: {"class":"WATCH","enable":true,"json":false,"nmea":true,"raw":0,"scaled":false,"timing":false,"split24":false,"pps":false}
2017-11-15 18:31:16 1510788676.435981: $GPZDA,233115.00,15,11,2017,00,00*61
2017-11-15 18:31:16 1510788676.436131: $GPGGA,233115,3946.9530,N,08404.9412,W,1,05,5.00,283.62,M,-33.324,M,,*73
2017-11-15 18:31:16 1510788676.436191: $GPRMC,233115,A,3946.9530,N,08404.9412,W,1.3954,64.414,151117,,*02
2017-11-15 18:31:16 1510788676.436248: $GPGSA,A,3,25,14,31,32,1,,,,,,,,3.4,5.0,2.9*0B
2017-11-15 18:31:17 1510788677.363154: $GPZDA,233116.00,15,11,2017,00,00*62
2017-11-15 18:31:17 1510788677.363323: $GPGGA,233116,3946.9530,N,08404.9412,W,1,05,5.00,283.62,M,-33.324,M,,*70
2017-11-15 18:31:17 1510788677.363386: $GPRMC,233116,A,3946.9530,N,08404.9412,W,1.8343,45.514,151117,,*04
2017-11-15 18:31:17 1510788677.363443: $GPGSA,A,3,25,14,31,32,1,,,,,,,,3.4,5.0,2.9*0B
2017-11-15 18:31:18 1510788678.696298: $GPGSV,3,1,11,25,36,057,18,14,69,037,10,22,39,303,00,26,25,178,04*7E
2017-11-15 18:31:18 1510788678.696470: $GPGSV,3,2,11,31,77,276,22,32,56,078,13,01,19,276,16,10,22,156,00*78
2017-11-15 18:31:18 1510788678.696530: $GPGSV,3,3,11,03,20,315,00,12,07,033,00,138,38,213,00*7A
2017-11-15 18:31:18 1510788678.810165: $GPZDA,233117.00,15,11,2017,00,00*63
2017-11-15 18:31:18 1510788678.810303: $GPGGA,233117,3946.9538,N,08404.9404,W,1,05,5.00,283.58,M,-33.324,M,,*77
2017-11-15 18:31:18 1510788678.810364: $GPRMC,233117,A,3946.9538,N,08404.9404,W,1.8640,27.140,151117,,*0D
2017-11-15 18:31:18 1510788678.810419: $GPGSA,A,3,25,14,31,32,1,,,,,,,,3.4,5.0,2.9*0B
2017-11-15 18:31:19 1510788679.362133: $GPZDA,233118.00,15,11,2017,00,00*6C
2017-11-15 18:31:19 1510788679.362296: $GPGGA,233118,3946.9545,N,08404.9403,W,1,05,5.00,283.45,M,-33.324,M,,*79
2017-11-15 18:31:19 1510788679.362359: $GPRMC,233118,A,3946.9545,N,08404.9403,W,1.7820,19.971,151117,,*0F
2017-11-15 18:31:19 1510788679.362415: $GPGSA,A,3,25,14,31,32,1,,,,,,,,3.4,5.0,2.9*0B
2017-11-15 18:31:20 1510788680.361385: $GPZDA,233119.00,15,11,2017,00,00*6D
2017-11-15 18:31:20 1510788680.361578: $GPGGA,233119,3946.9553,N,08404.9403,W,1,05,5.00,283.33,M,-33.324,M,,*7E
2017-11-15 18:31:20 1510788680.361639: $GPRMC,233119,A,3946.9553,N,08404.9403,W,1.7157,28.752,151117,,*0D
2017-11-15 18:31:20 1510788680.361694: $GPGSA,A,3,25,14,31,32,1,,,,,,,,3.4,5.0,2.9*0B
2017-11-15 18:31:21 1510788681.665405: $GPGSV,3,1,11,25,36,057,18,14,69,037,09,03,20,315,01,26,25,178,14*7A
2017-11-15 18:31:21 1510788681.665578: $GPGSV,3,2,11,31,77,276,21,32,56,078,14,01,19,276,16,22,39,303,00*75
2017-11-15 18:31:21 1510788681.665639: $GPGSV,3,3,11,10,22,156,00,12,07,033,00,138,38,213,00*7F
2017-11-15 18:31:21 1510788681.779307: $GPZDA,233120.00,15,11,2017,00,00*67
2017-11-15 18:31:21 1510788681.779476: $GPGGA,233120,3946.9557,N,08404.9403,W,1,06,1.20,283.97,M,-33.324,M,,*7B
2017-11-15 18:31:21 1510788681.779534: $GPRMC,233120,A,3946.9557,N,08404.9403,W,1.5738,12.547,151117,,*01
2017-11-15 18:31:21 1510788681.779589: $GPGSA,A,3,25,14,26,31,32,1,,,,,,,3.4,1.2,2.9*09
2017-11-15 18:31:22 1510788682.327292: $GPZDA,233121.00,15,11,2017,00,00*66
2017-11-15 18:31:22 1510788682.327456: $GPGGA,233121,3946.9565,N,08404.9409,W,1,06,1.20,283.77,M,-33.324,M,,*7F
2017-11-15 18:31:22 1510788682.327516: $GPRMC,233121,A,3946.9565,N,08404.9409,W,1.8977,3.784,151117,,*3E
2017-11-15 18:31:22 1510788682.327572: $GPGSA,A,3,25,14,26,31,32,1,,,,,,,3.4,1.2,2.9*09
2017-11-15 18:31:23 1510788683.360636: $GPZDA,233122.00,15,11,2017,00,00*65
2017-11-15 18:31:23 1510788683.360808: $GPGGA,233122,3946.9573,N,08404.9408,W,1,06,1.20,283.64,M,-33.324,M,,*78
2017-11-15 18:31:23 1510788683.360922: $GPRMC,233122,A,3946.9573,N,08404.9408,W,1.9132,356.511,151117,,*3E
2017-11-15 18:31:23 1510788683.360979: $GPGSA,A,3,25,14,26,31,32,1,,,,,,,3.4,1.2,2.9*09
2017-11-15 18:31:24 1510788684.663904: $GPGSV,3,1,11,25,36,057,19,14,69,037,10,22,39,303,12,26,25,178,13*7A
2017-11-15 18:31:24 1510788684.664077: $GPGSV,3,2,11,31,77,276,21,32,56,078,14,01,19,276,16,10,22,156,00*7C
2017-11-15 18:31:24 1510788684.664136: $GPGSV,3,3,11,03,20,315,00,12,07,033,00,138,38,213,00*7A
2017-11-15 18:31:24 1510788684.777315: $GPZDA,233123.00,15,11,2017,00,00*64
2017-11-15 18:31:24 1510788684.777478: $GPGGA,233123,3946.9585,N,08404.9414,W,1,06,1.20,284.08,M,-33.324,M,,*70
2017-11-15 18:31:24 1510788684.777539: $GPRMC,233123,A,3946.9585,N,08404.9414,W,2.0322,342.834,151117,,*3D
2017-11-15 18:31:24 1510788684.777594: $GPGSA,A,3,25,14,26,31,32,1,,,,,,,3.4,1.2,2.9*09
2017-11-15 18:31:25 1510788685.330601: $GPZDA,233124.00,15,11,2017,00,00*63
2017-11-15 18:31:25 1510788685.330786: $GPGGA,233124,3946.9593,N,08404.9421,W,1,06,1.20,283.87,M,-33.324,M,,*76
2017-11-15 18:31:25 1510788685.330848: $GPRMC,233124,A,3946.9593,N,08404.9421,W,1.8340,331.804,151117,,*33
2017-11-15 18:31:25 1510788685.330904: $GPGSA,A,3,25,14,26,31,32,1,,,,,,,3.4,1.2,2.9*09
