2017-12-01 15:44:05 1512161045.187139: {"class":"VERSION","release":"3.16","rev":"3.16-4","proto_major":3,"proto_minor":11}
2017-12-01 15:44:05 1512161045.187601: {"class":"DEVICES","devices":[{"class":"DEVICE","path":"/dev/ttyUSB0","driver":"SiRF","subtype":"9\u0006GSD4e_4.1.2-P1_RPATCH.05-F-GPS-4R-1510281 11/03/2015 307","activated":"2017-12-01T20:44:04.684Z","flags":1,"native":1,"bps":4800,"parity":"N","stopbits":1,"cycle":1.00}]}
2017-12-01 15:44:05 1512161045.187743: {"class":"WATCH","enable":true,"json":false,"nmea":true,"raw":0,"scaled":false,"timing":false,"split24":false,"pps":false}
2017-12-01 15:44:05 1512161045.369446: $GPZDA,204406.00,01,12,2017,00,00*64
2017-12-01 15:44:05 1512161045.369619: $GPGGA,204406,3946.9588,N,08404.9831,W,2,12,0.80,298.88,M,-33.324,M,,*78
2017-12-01 15:44:05 1512161045.369686: $GPRMC,204406,A,3946.9588,N,08404.9831,W,0.1567,9.200,011217,,*3E
2017-12-01 15:44:05 1512161045.369749: $GPGSA,A,3,1,10,11,12,14,18,22,24,25,31,32,138,2.0,0.8,1.5*3B
2017-12-01 15:44:06 1512161046.706443: $GPGSV,3,1,12,01,14,318,37,10,70,130,48,11,11,301,12,12,25,072,39*70
2017-12-01 15:44:06 1512161046.706633: $GPGSV,3,2,12,14,54,291,42,18,38,135,47,22,02,310,35,24,14,045,36*74
2017-12-01 15:44:06 1512161046.706702: $GPGSV,3,3,12,25,29,115,42,31,35,211,49,32,68,328,48,138,38,213,46*47
2017-12-01 15:44:06 1512161046.819833: $GPZDA,204407.00,01,12,2017,00,00*65
2017-12-01 15:44:06 1512161046.820013: $GPGGA,204407,3946.9588,N,08404.9831,W,2,12,0.80,298.88,M,-33.324,M,,*79
2017-12-01 15:44:06 1512161046.820080: $GPRMC,204407,A,3946.9588,N,08404.9831,W,0.0000,0.000,011217,,*31
2017-12-01 15:44:06 1512161046.820143: $GPGSA,A,3,1,10,11,12,14,18,22,24,25,31,32,138,2.0,0.8,1.5*3B
2017-12-01 15:44:07 1512161047.372274: $GPZDA,204408.00,01,12,2017,00,00*6A
2017-12-01 15:44:07 1512161047.372450: $GPGGA,204408,3946.9588,N,08404.9831,W,2,12,0.80,298.88,M,-33.324,M,,*76
2017-12-01 15:44:07 1512161047.372519: $GPRMC,204408,A,3946.9588,N,08404.9831,W,0.0000,0.000,011217,,*3E
2017-12-01 15:44:07 1512161047.372581: $GPGSA,A,3,1,10,11,12,14,18,22,24,25,31,32,138,2.0,0.8,1.5*3B
2017-12-01 15:44:08 1512161048.371645: $GPZDA,204409.00,01,12,2017,00,00*6B
2017-12-01 15:44:08 1512161048.371822: $GPGGA,204409,3946.9588,N,08404.9831,W,2,12,0.80,298.88,M,-33.324,M,,*77
2017-12-01 15:44:08 1512161048.371893: $GPRMC,204409,A,3946.9588,N,08404.9831,W,0.0000,0.000,011217,,*3F
2017-12-01 15:44:08 1512161048.371954: $GPGSA,A,3,1,10,11,12,14,18,22,24,25,31,32,138,2.0,0.8,1.5*3B
2017-12-01 15:44:09 1512161049.707337: $GPGSV,3,1,12,01,14,318,37,10,70,130,48,11,11,301,30,12,25,072,38*71
2017-12-01 15:44:09 1512161049.707530: $GPGSV,3,2,12,14,54,291,42,18,38,135,47,22,02,310,35,24,14,045,36*74
2017-12-01 15:44:09 1512161049.707597: $GPGSV,3,3,12,25,29,115,42,31,35,211,49,32,68,328,48,138,38,213,46*47
2017-12-01 15:44:09 1512161049.821006: $GPZDA,204410.00,01,12,2017,00,00*63
2017-12-01 15:44:09 1512161049.821146: $GPGGA,204410,3946.9588,N,08404.9831,W,2,12,0.80,298.88,M,-33.324,M,,*7F
2017-12-01 15:44:09 1512161049.821212: $GPRMC,204410,A,3946.9588,N,08404.9831,W,0.0000,0.000,011217,,*37
2017-12-01 15:44:09 1512161049.821277: $GPGSA,A,3,1,10,11,12,14,18,22,24,25,31,32,138,2.0,0.8,1.5*3B
2017-12-01 15:44:10 1512161050.446346: $GPZDA,204411.00,01,12,2017,00,00*62
2017-12-01 15:44:10 1512161050.446527: $GPGGA,204411,3946.9588,N,08404.9831,W,2,12,0.80,298.88,M,-33.324,M,,*7E
2017-12-01 15:44:10 1512161050.446597: $GPRMC,204411,A,3946.9588,N,08404.9831,W,0.0000,0.000,011217,,*36
2017-12-01 15:44:10 1512161050.446658: $GPGSA,A,3,1,10,11,12,14,18,22,24,25,31,32,138,2.0,0.8,1.5*3B
2017-12-01 15:44:11 1512161051.372253: $GPZDA,204412.00,01,12,2017,00,00*61
2017-12-01 15:44:11 1512161051.372427: $GPGGA,204412,3946.9588,N,08404.9831,W,2,12,0.80,298.88,M,-33.324,M,,*7D
2017-12-01 15:44:11 1512161051.372496: $GPRMC,204412,A,3946.9588,N,08404.9831,W,0.0000,0.000,011217,,*35
2017-12-01 15:44:11 1512161051.372558: $GPGSA,A,3,1,10,11,12,14,18,22,24,25,31,32,138,2.0,0.8,1.5*3B
2017-12-01 15:44:12 1512161052.707684: $GPGSV,3,1,12,01,14,318,37,10,70,130,47,11,11,301,39,12,25,072,39*76
2017-12-01 15:44:12 1512161052.707920: $GPGSV,3,2,12,14,54,291,42,18,38,135,48,22,02,310,34,24,14,045,36*7A
2017-12-01 15:44:12 1512161052.707990: $GPGSV,3,3,12,25,29,115,42,31,35,211,49,32,68,328,48,138,38,213,46*47
2017-12-01 15:44:12 1512161052.821102: $GPZDA,204413.00,01,12,2017,00,00*60
2017-12-01 15:44:12 1512161052.821285: $GPGGA,204413,3946.9588,N,08404.9831,W,2,12,0.80,298.88,M,-33.324,M,,*7C
2017-12-01 15:44:12 1512161052.821406: $GPRMC,204413,A,3946.9588,N,08404.9831,W,0.0000,0.000,011217,,*34
2017-12-01 15:44:12 1512161052.821477: $GPGSA,A,3,1,10,11,12,14,18,22,24,25,31,32,138,2.0,0.8,1.5*3B
2017-12-01 15:44:13 1512161053.369512: $GPZDA,204414.00,01,12,2017,00,00*67
2017-12-01 15:44:13 1512161053.369685: $GPGGA,204414,3946.9588,N,08404.9831,W,2,12,0.80,298.88,M,-33.324,M,,*7B
2017-12-01 15:44:13 1512161053.369751: $GPRMC,204414,A,3946.9588,N,08404.9831,W,0.0000,0.000,011217,,*33
2017-12-01 15:44:13 1512161053.369812: $GPGSA,A,3,1,10,11,12,14,18,22,24,25,31,32,138,2.0,0.8,1.5*3B
2017-12-01 15:44:14 1512161054.370417: $GPZDA,204415.00,01,12,2017,00,00*66
2017-12-01 15:44:14 1512161054.370601: $GPGGA,204415,3946.9588,N,08404.9831,W,2,12,0.80,298.88,M,-33.324,M,,*7A
2017-12-01 15:44:14 1512161054.370692: $GPRMC,204415,A,3946.9588,N,08404.9831,W,0.0000,0.000,011217,,*32
2017-12-01 15:44:14 1512161054.370755: $GPGSA,A,3,1,10,11,12,14,18,22,24,25,31,32,138,2.0,0.8,1.5*3B
2017-12-01 15:44:15 1512161055.708053: $GPGSV,3,1,12,01,14,318,37,10,70,130,47,11,11,301,38,12,25,072,40*79
2017-12-01 15:44:15 1512161055.708236: $GPGSV,3,2,12,14,54,291,42,18,38,135,48,22,02,310,34,24,14,045,37*7B
2017-12-01 15:44:15 1512161055.708303: $GPGSV,3,3,12,25,29,115,42,31,35,211,48,32,68,328,48,138,38,213,45*45
2017-12-01 15:44:15 1512161055.821472: $GPZDA,204416.00,01,12,2017,00,00*65
2017-12-01 15:44:15 1512161055.821605: $GPGGA,204416,3946.9588,N,08404.9831,W,2,12,0.80,298.88,M,-33.324,M,,*79
2017-12-01 15:44:15 1512161055.821669: $GPRMC,204416,A,3946.9588,N,08404.9831,W,0.0000,0.000,011217,,*31
2017-12-01 15:44:15 1512161055.821729: $GPGSA,A,3,1,10,11,12,14,18,22,24,25,31,32,138,2.0,0.8,1.5*3B
2017-12-01 15:44:16 1512161056.372378: $GPZDA,204417.00,01,12,2017,00,00*64
2017-12-01 15:44:16 1512161056.372556: $GPGGA,204417,3946.9588,N,08404.9831,W,2,12,0.80,298.88,M,-33.324,M,,*78
2017-12-01 15:44:16 1512161056.372621: $GPRMC,204417,A,3946.9588,N,08404.9831,W,0.0000,0.000,011217,,*30
2017-12-01 15:44:16 1512161056.372682: $GPGSA,A,3,1,10,11,12,14,18,22,24,25,31,32,138,2.0,0.8,1.5*3B
2017-12-01 15:44:17 1512161057.370676: $GPZDA,204418.00,01,12,2017,00,00*6B
2017-12-01 15:44:17 1512161057.370850: $GPGGA,204418,3946.9588,N,08404.9831,W,2,12,0.80,298.88,M,-33.324,M,,*77
2017-12-01 15:44:17 1512161057.370917: $GPRMC,204418,A,3946.9588,N,08404.9831,W,0.0000,0.000,011217,,*3F
2017-12-01 15:44:17 1512161057.370978: $GPGSA,A,3,1,10,11,12,14,18,22,24,25,31,32,138,2.0,0.8,1.5*3B
2017-12-01 15:44:18 1512161058.710171: $GPGSV,3,1,12,01,14,318,36,10,70,130,47,11,11,301,38,12,25,072,40*78
2017-12-01 15:44:18 1512161058.710358: $GPGSV,3,2,12,14,54,291,42,18,38,135,48,22,02,310,34,24,14,045,37*7B
2017-12-01 15:44:18 1512161058.710426: $GPGSV,3,3,12,25,29,115,41,31,35,211,49,32,68,328,48,138,38,213,46*44
2017-12-01 15:44:18 1512161058.823578: $GPZDA,204419.00,01,12,2017,00,00*6A
2017-12-01 15:44:18 1512161058.823746: $GPGGA,204419,3946.9588,N,08404.9831,W,2,12,0.80,298.88,M,-33.324,M,,*76
2017-12-01 15:44:18 1512161058.823811: $GPRMC,204419,A,3946.9588,N,08404.9831,W,0.0000,0.000,011217,,*3E
2017-12-01 15:44:18 1512161058.823872: $GPGSA,A,3,1,10,11,12,14,18,22,24,25,31,32,138,2.0,0.8,1.5*3B
2017-12-01 15:44:19 1512161059.371994: $GPZDA,204420.00,01,12,2017,00,00*60
2017-12-01 15:44:19 1512161059.372179: $GPGGA,204420,3946.9588,N,08404.9831,W,2,12,0.80,298.88,M,-33.324,M,,*7C
2017-12-01 15:44:19 1512161059.372267: $GPRMC,204420,A,3946.9588,N,08404.9831,W,0.0000,0.000,011217,,*34
2017-12-01 15:44:19 1512161059.372331: $GPGSA,A,3,1,10,11,12,14,18,22,24,25,31,32,138,2.0,0.8,1.5*3B
2017-12-01 15:44:20 1512161060.369835: $GPZDA,204421.00,01,12,2017,00,00*61
2017-12-01 15:44:20 1512161060.370006: $GPGGA,204421,3946.9588,N,08404.9831,W,2,12,0.80,298.88,M,-33.324,M,,*7D
2017-12-01 15:44:20 1512161060.370075: $GPRMC,204421,A,3946.9588,N,08404.9831,W,0.0000,0.000,011217,,*35
2017-12-01 15:44:20 1512161060.370137: $GPGSA,A,3,1,10,11,12,14,18,22,24,25,31,32,138,2.0,0.8,1.5*3B
2017-12-01 15:44:21 1512161061.709310: $GPGSV,3,1,12,01,14,318,38,10,70,130,47,11,11,301,38,12,25,072,39*78
2017-12-01 15:44:21 1512161061.709492: $GPGSV,3,2,12,14,54,291,42,18,38,135,48,22,02,310,35,24,14,045,37*7A
2017-12-01 15:44:21 1512161061.709561: $GPGSV,3,3,12,25,29,115,41,31,35,211,49,32,68,328,48,138,38,213,46*44
2017-12-01 15:44:21 1512161061.822868: $GPZDA,204422.00,01,12,2017,00,00*62
2017-12-01 15:44:21 1512161061.823039: $GPGGA,204422,3946.9588,N,08404.9831,W,2,12,0.80,298.88,M,-33.324,M,,*7E
2017-12-01 15:44:21 1512161061.823106: $GPRMC,204422,A,3946.9588,N,08404.9831,W,0.0000,0.000,011217,,*36
2017-12-01 15:44:21 1512161061.823167: $GPGSA,A,3,1,10,11,12,14,18,22,24,25,31,32,138,2.0,0.8,1.5*3B
2017-12-01 15:44:22 1512161062.374756: $GPZDA,204423.00,01,12,2017,00,00*63
2017-12-01 15:44:22 1512161062.374938: $GPGGA,204423,3946.9588,N,08404.9831,W,2,12,0.80,298.88,M,-33.324,M,,*7F
2017-12-01 15:44:22 1512161062.375006: $GPRMC,204423,A,3946.9588,N,08404.9831,W,0.0000,0.000,011217,,*37
2017-12-01 15:44:22 1512161062.375067: $GPGSA,A,3,1,10,11,12,14,18,22,24,25,31,32,138,2.0,0.8,1.5*3B
2017-12-01 15:44:23 1512161063.375668: $GPZDA,204424.00,01,12,2017,00,00*64
2017-12-01 15:44:23 1512161063.375870: $GPGGA,204424,3946.9588,N,08404.9831,W,2,12,0.80,298.88,M,-33.324,M,,*78
2017-12-01 15:44:23 1512161063.375937: $GPRMC,204424,A,3946.9588,N,08404.9831,W,0.0000,0.000,011217,,*30
2017-12-01 15:44:23 1512161063.375998: $GPGSA,A,3,1,10,11,12,14,18,22,24,25,31,32,138,2.0,0.8,1.5*3B
2017-12-01 15:44:24 1512161064.711410: $GPGSV,3,1,12,01,14,318,37,10,70,130,47,11,11,301,39,12,25,072,40*78
2017-12-01 15:44:24 1512161064.711594: $GPGSV,3,2,12,14,54,291,42,18,38,135,48,22,02,310,35,24,14,045,37*7A
2017-12-01 15:44:24 1512161064.711660: $GPGSV,3,3,12,25,29,115,41,31,35,211,48,32,68,328,48,138,38,213,45*46
2017-12-01 15:44:24 1512161064.824901: $GPZDA,204425.00,01,12,2017,00,00*65
2017-12-01 15:44:24 1512161064.825071: $GPGGA,204425,3946.9588,N,08404.9831,W,2,12,0.80,298.88,M,-33.324,M,,*79
2017-12-01 15:44:24 1512161064.825137: $GPRMC,204425,A,3946.9588,N,08404.9831,W,0.0000,0.000,011217,,*31
2017-12-01 15:44:24 1512161064.825221: $GPGSA,A,3,1,10,11,12,14,18,22,24,25,31,32,138,2.0,0.8,1.5*3B
