2017-12-01 16:04:52 1512162292.876820: {"class":"VERSION","release":"3.16","rev":"3.16-4","proto_major":3,"proto_minor":11}
2017-12-01 16:04:52 1512162292.877233: {"class":"DEVICES","devices":[{"class":"DEVICE","path":"/dev/ttyUSB0","driver":"SiRF","subtype":"9\u0006GSD4e_4.1.2-P1_RPATCH.05-F-GPS-4R-1510281 11/03/2015 307","activated":"2017-12-01T21:04:52.583Z","flags":1,"native":1,"bps":4800,"parity":"N","stopbits":1,"cycle":1.00}]}
2017-12-01 16:04:52 1512162292.877360: {"class":"WATCH","enable":true,"json":false,"nmea":true,"raw":0,"scaled":false,"timing":false,"split24":false,"pps":false}
2017-12-01 16:04:53 1512162293.777355: $GPGSV,3,1,12,10,61,141,48,11,10,294,34,12,25,061,42,14,60,304,45*7F
2017-12-01 16:04:53 1512162293.777543: $GPGSV,3,2,12,18,29,139,43,22,09,312,35,25,35,106,49,31,44,216,49*7B
2017-12-01 16:04:53 1512162293.777611: $GPGSV,3,3,12,32,70,354,47,01,18,312,29,24,07,046,24,138,38,213,46*48
2017-12-01 16:04:53 1512162293.889755: $GPZDA,210454.00,01,12,2017,00,00*66
2017-12-01 16:04:53 1512162293.889922: $GPGGA,210454,3946.9568,N,08404.9826,W,2,12,0.80,312.81,M,-33.324,M,,*78
2017-12-01 16:04:53 1512162293.889988: $GPRMC,210454,A,3946.9568,N,08404.9826,W,0.0000,0.000,011217,,*3A
2017-12-01 16:04:53 1512162293.890049: $GPGSA,A,3,10,11,12,14,18,22,25,31,32,1,24,138,2.0,0.8,1.5*3B
2017-12-01 16:04:54 1512162294.453008: $GPZDA,210455.00,01,12,2017,00,00*67
2017-12-01 16:04:54 1512162294.453184: $GPGGA,210455,3946.9571,N,08404.9826,W,2,12,0.80,312.05,M,-33.324,M,,*7D
2017-12-01 16:04:54 1512162294.453251: $GPRMC,210455,A,3946.9571,N,08404.9826,W,0.0000,0.000,011217,,*33
2017-12-01 16:04:54 1512162294.453312: $GPGSA,A,3,10,11,12,14,18,22,25,31,32,1,24,138,2.0,0.8,1.5*3B
2017-12-01 16:04:55 1512162295.458551: $GPZDA,210456.00,01,12,2017,00,00*64
2017-12-01 16:04:55 1512162295.458718: $GPGGA,210456,3946.9571,N,08404.9826,W,2,12,0.80,312.05,M,-33.324,M,,*7E
2017-12-01 16:04:55 1512162295.458784: $GPRMC,210456,A,3946.9571,N,08404.9826,W,0.0000,0.000,011217,,*30
2017-12-01 16:04:55 1512162295.458846: $GPGSA,A,3,10,11,12,14,18,22,25,31,32,1,24,138,2.0,0.8,1.5*3B
2017-12-01 16:04:56 1512162296.793986: $GPGSV,3,1,12,10,61,141,48,11,10,294,34,12,25,061,42,14,60,304,45*7F
2017-12-01 16:04:56 1512162296.794181: $GPGSV,3,2,12,18,29,139,43,22,09,312,34,25,35,106,48,31,44,216,48*7A
2017-12-01 16:04:56 1512162296.794248: $GPGSV,3,3,12,32,70,354,47,01,18,312,30,24,07,046,24,138,38,213,46*40
2017-12-01 16:04:56 1512162296.907596: $GPZDA,210457.00,01,12,2017,00,00*65
2017-12-01 16:04:56 1512162296.907766: $GPGGA,210457,3946.9571,N,08404.9826,W,2,12,0.80,312.05,M,-33.324,M,,*7F
2017-12-01 16:04:56 1512162296.907833: $GPRMC,210457,A,3946.9571,N,08404.9826,W,0.0000,0.000,011217,,*31
2017-12-01 16:04:56 1512162296.907894: $GPGSA,A,3,10,11,12,14,18,22,25,31,32,1,24,138,2.0,0.8,1.5*3B
2017-12-01 16:04:57 1512162297.457341: $GPZDA,210458.00,01,12,2017,00,00*6A
2017-12-01 16:04:57 1512162297.457514: $GPGGA,210458,3946.9571,N,08404.9826,W,2,12,0.80,312.05,M,-33.324,M,,*70
2017-12-01 16:04:57 1512162297.457579: $GPRMC,210458,A,3946.9571,N,08404.9826,W,0.0000,0.000,011217,,*3E
2017-12-01 16:04:57 1512162297.457641: $GPGSA,A,3,10,11,12,14,18,22,25,31,32,1,24,138,2.0,0.8,1.5*3B
2017-12-01 16:04:58 1512162298.458253: $GPZDA,210459.00,01,12,2017,00,00*6B
2017-12-01 16:04:58 1512162298.458416: $GPGGA,210459,3946.9571,N,08404.9826,W,2,12,0.80,312.05,M,-33.324,M,,*71
2017-12-01 16:04:58 1512162298.458483: $GPRMC,210459,A,3946.9571,N,08404.9826,W,0.0000,0.000,011217,,*3F
2017-12-01 16:04:58 1512162298.458544: $GPGSA,A,3,10,11,12,14,18,22,25,31,32,1,24,138,2.0,0.8,1.5*3B
2017-12-01 16:04:59 1512162299.777417: $GPGSV,3,1,12,10,61,141,48,11,10,294,35,12,25,061,43,14,60,304,45*7F
2017-12-01 16:04:59 1512162299.777596: $GPGSV,3,2,12,18,29,139,43,22,09,312,29,25,35,106,48,31,44,216,48*76
2017-12-01 16:04:59 1512162299.777662: $GPGSV,3,3,12,32,70,354,47,01,18,312,35,24,07,046,24,138,38,213,46*45
2017-12-01 16:04:59 1512162299.890840: $GPZDA,210500.00,01,12,2017,00,00*66
2017-12-01 16:04:59 1512162299.891019: $GPGGA,210500,3946.9571,N,08404.9826,W,2,12,0.80,312.05,M,-33.324,M,,*7C
2017-12-01 16:04:59 1512162299.891139: $GPRMC,210500,A,3946.9571,N,08404.9826,W,0.0000,0.000,011217,,*32
2017-12-01 16:04:59 1512162299.891203: $GPGSA,A,3,10,11,12,14,18,22,25,31,32,1,24,138,2.0,0.8,1.5*3B
2017-12-01 16:05:00 1512162300.517794: $GPZDA,210501.00,01,12,2017,00,00*67
2017-12-01 16:05:00 1512162300.517968: $GPGGA,210501,3946.9571,N,08404.9826,W,2,12,0.80,312.05,M,-33.324,M,,*7D
2017-12-01 16:05:00 1512162300.518036: $GPRMC,210501,A,3946.9571,N,08404.9826,W,0.0000,0.000,011217,,*33
2017-12-01 16:05:00 1512162300.518097: $GPGSA,A,3,10,11,12,14,18,22,25,31,32,1,24,138,2.0,0.8,1.5*3B
2017-12-01 16:05:01 1512162301.435937: $GPZDA,210502.00,01,12,2017,00,00*64
2017-12-01 16:05:01 1512162301.436123: $GPGGA,210502,3946.9571,N,08404.9826,W,2,12,0.80,312.05,M,-33.324,M,,*7E
2017-12-01 16:05:01 1512162301.436190: $GPRMC,210502,A,3946.9571,N,08404.9826,W,0.0000,0.000,011217,,*30
2017-12-01 16:05:01 1512162301.436252: $GPGSA,A,3,10,11,12,14,18,22,25,31,32,1,24,138,2.0,0.8,1.5*3B
2017-12-01 16:05:02 1512162302.770212: $GPGSV,3,1,12,10,61,141,48,11,10,294,35,12,25,061,44,14,60,304,45*78
2017-12-01 16:05:02 1512162302.770394: $GPGSV,3,2,12,18,29,139,43,22,09,312,30,25,35,106,48,31,44,216,48*7E
2017-12-01 16:05:02 1512162302.770460: $GPGSV,3,3,12,32,70,354,47,01,18,312,36,24,07,046,23,138,38,213,45*42
2017-12-01 16:05:02 1512162302.883546: $GPZDA,210503.00,01,12,2017,00,00*65
2017-12-01 16:05:02 1512162302.883718: $GPGGA,210503,3946.9571,N,08404.9826,W,2,12,0.80,312.05,M,-33.324,M,,*7F
2017-12-01 16:05:02 1512162302.883784: $GPRMC,210503,A,3946.9571,N,08404.9826,W,0.0000,0.000,011217,,*31
2017-12-01 16:05:02 1512162302.883845: $GPGSA,A,3,10,11,12,14,18,22,25,31,32,1,24,138,2.0,0.8,1.5*3B
2017-12-01 16:05:03 1512162303.442024: $GPZDA,210504.00,01,12,2017,00,00*62
2017-12-01 16:05:03 1512162303.442198: $GPGGA,210504,3946.9571,N,08404.9826,W,2,12,0.80,312.05,M,-33.324,M,,*78
2017-12-01 16:05:03 1512162303.442266: $GPRMC,210504,A,3946.9571,N,08404.9826,W,0.0000,0.000,011217,,*36
2017-12-01 16:05:03 1512162303.442327: $GPGSA,A,3,10,11,12,14,18,22,25,31,32,1,24,138,2.0,0.8,1.5*3B
2017-12-01 16:05:04 1512162304.441680: $GPZDA,210505.00,01,12,2017,00,00*63
2017-12-01 16:05:04 1512162304.441850: $GPGGA,210505,3946.9571,N,08404.9826,W,2,12,0.80,312.05,M,-33.324,M,,*79
2017-12-01 16:05:04 1512162304.441917: $GPRMC,210505,A,3946.9571,N,08404.9826,W,0.0000,0.000,011217,,*37
2017-12-01 16:05:04 1512162304.441978: $GPGSA,A,3,10,11,12,14,18,22,25,31,32,1,24,138,2.0,0.8,1.5*3B
2017-12-01 16:05:05 1512162305.776817: $GPGSV,3,1,12,10,61,141,48,11,10,294,35,12,25,061,43,14,60,304,45*7F
2017-12-01 16:05:05 1512162305.777001: $GPGSV,3,2,12,18,29,139,43,22,09,312,30,25,35,106,49,31,44,216,48*7F
2017-12-01 16:05:05 1512162305.777067: $GPGSV,3,3,12,32,70,354,47,01,18,312,37,24,07,046,23,138,38,213,46*40
2017-12-01 16:05:05 1512162305.890524: $GPZDA,210506.00,01,12,2017,00,00*60
2017-12-01 16:05:05 1512162305.890707: $GPGGA,210506,3946.9571,N,08404.9826,W,2,12,0.80,312.05,M,-33.324,M,,*7A
2017-12-01 16:05:05 1512162305.890773: $GPRMC,210506,A,3946.9571,N,08404.9826,W,0.0000,0.000,011217,,*34
2017-12-01 16:05:05 1512162305.890834: $GPGSA,A,3,10,11,12,14,18,22,25,31,32,1,24,138,2.0,0.8,1.5*3B
2017-12-01 16:05:06 1512162306.441108: $GPZDA,210507.00,01,12,2017,00,00*61
2017-12-01 16:05:06 1512162306.441275: $GPGGA,210507,3946.9571,N,08404.9826,W,2,12,0.80,312.05,M,-33.324,M,,*7B
2017-12-01 16:05:06 1512162306.441342: $GPRMC,210507,A,3946.9571,N,08404.9826,W,0.0000,0.000,011217,,*35
2017-12-01 16:05:06 1512162306.441511: $GPGSA,A,3,10,11,12,14,18,22,25,31,32,1,24,138,2.0,0.8,1.5*3B
2017-12-01 16:05:07 1512162307.442060: $GPZDA,210508.00,01,12,2017,00,00*6E
2017-12-01 16:05:07 1512162307.442236: $GPGGA,210508,3946.9571,N,08404.9826,W,2,12,0.80,312.05,M,-33.324,M,,*74
2017-12-01 16:05:07 1512162307.442303: $GPRMC,210508,A,3946.9571,N,08404.9826,W,0.0000,0.000,011217,,*3A
2017-12-01 16:05:07 1512162307.442388: $GPGSA,A,3,10,11,12,14,18,22,25,31,32,1,24,138,2.0,0.8,1.5*3B
2017-12-01 16:05:08 1512162308.771514: $GPGSV,3,1,12,10,61,141,47,11,10,294,36,12,25,061,43,14,60,304,45*73
2017-12-01 16:05:08 1512162308.771701: $GPGSV,3,2,12,18,29,139,44,22,09,312,31,25,35,106,49,31,44,216,49*78
2017-12-01 16:05:08 1512162308.771768: $GPGSV,3,3,12,32,70,354,47,01,18,312,38,24,07,046,21,138,38,213,46*4D
2017-12-01 16:05:08 1512162308.884865: $GPZDA,210509.00,01,12,2017,00,00*6F
2017-12-01 16:05:08 1512162308.885037: $GPGGA,210509,3946.9571,N,08404.9826,W,2,12,0.80,312.05,M,-33.324,M,,*75
2017-12-01 16:05:08 1512162308.885103: $GPRMC,210509,A,3946.9571,N,08404.9826,W,0.0000,0.000,011217,,*3B
2017-12-01 16:05:08 1512162308.885164: $GPGSA,A,3,10,11,12,14,18,22,25,31,32,1,24,138,2.0,0.8,1.5*3B
2017-12-01 16:05:09 1512162309.440733: $GPZDA,210510.00,01,12,2017,00,00*67
2017-12-01 16:05:09 1512162309.440903: $GPGGA,210510,3946.9571,N,08404.9826,W,2,12,0.80,312.05,M,-33.324,M,,*7D
2017-12-01 16:05:09 1512162309.440968: $GPRMC,210510,A,3946.9571,N,08404.9826,W,0.0000,0.000,011217,,*33
2017-12-01 16:05:09 1512162309.441029: $GPGSA,A,3,10,11,12,14,18,22,25,31,32,1,24,138,2.0,0.8,1.5*3B
2017-12-01 16:05:10 1512162310.441119: $GPZDA,210511.00,01,12,2017,00,00*66
2017-12-01 16:05:10 1512162310.441301: $GPGGA,210511,3946.9571,N,08404.9826,W,2,12,0.80,312.05,M,-33.324,M,,*7C
2017-12-01 16:05:10 1512162310.441490: $GPRMC,210511,A,3946.9571,N,08404.9826,W,0.0000,0.000,011217,,*32
2017-12-01 16:05:10 1512162310.441557: $GPGSA,A,3,10,11,12,14,18,22,25,31,32,1,24,138,2.0,0.8,1.5*3B
2017-12-01 16:05:11 1512162311.776800: $GPGSV,3,1,12,10,61,141,48,11,10,294,36,12,25,061,43,14,60,304,45*7C
2017-12-01 16:05:11 1512162311.776980: $GPGSV,3,2,12,18,29,139,43,22,09,312,32,25,35,106,49,31,44,216,49*7C
2017-12-01 16:05:11 1512162311.777047: $GPGSV,3,3,12,32,70,354,47,01,18,312,38,24,07,046,19,138,38,213,45*45
2017-12-01 16:05:11 1512162311.890334: $GPZDA,210512.00,01,12,2017,00,00*65
2017-12-01 16:05:11 1512162311.890525: $GPGGA,210512,3946.9571,N,08404.9826,W,2,12,0.80,312.05,M,-33.324,M,,*7F
2017-12-01 16:05:11 1512162311.890593: $GPRMC,210512,A,3946.9571,N,08404.9826,W,0.0000,0.000,011217,,*31
2017-12-01 16:05:11 1512162311.890655: $GPGSA,A,3,10,11,12,14,18,22,25,31,32,1,24,138,2.0,0.8,1.5*3B
2017-12-01 16:05:12 1512162312.443551: $GPZDA,210513.00,01,12,2017,00,00*64
2017-12-01 16:05:12 1512162312.443722: $GPGGA,210513,3946.9571,N,08404.9826,W,2,12,0.80,312.05,M,-33.324,M,,*7E
2017-12-01 16:05:12 1512162312.443789: $GPRMC,210513,A,3946.9571,N,08404.9826,W,0.0000,0.000,011217,,*30
2017-12-01 16:05:12 1512162312.443850: $GPGSA,A,3,10,11,12,14,18,22,25,31,32,1,24,138,2.0,0.8,1.5*3B
