2017-11-16 14:10:29 1510859429.928330: {"class":"VERSION","release":"3.17","rev":"3.17","proto_major":3,"proto_minor":12}
2017-11-16 14:10:29 1510859429.928810: {"class":"DEVICES","devices":[{"class":"DEVICE","path":"/dev/ttyUSB0","driver":"SiRF","subtype":"9\u0006GSD4e_4.1.2-P1_RPATCH.05-F-GPS-4R-1510281 11/03/2015 307","activated":"2017-11-16T19:10:29.674Z","flags":1,"native":1,"bps":4800,"parity":"N","stopbits":1,"cycle":1.00}]}
2017-11-16 14:10:29 1510859429.928923: {"class":"WATCH","enable":true,"json":false,"nmea":true,"raw":0,"scaled":false,"timing":false,"split24":false,"pps":false}
2017-11-16 14:10:30 1510859430.869320: $GPGSV,3,1,12,10,40,300,42,13,09,048,34,15,39,052,51,18,70,331,47*79
2017-11-16 14:10:30 1510859430.869491: $GPGSV,3,2,12,20,34,094,47,21,66,192,46,24,50,114,48,32,19,237,46*7D
2017-11-16 14:10:30 1510859430.869552: $GPGSV,3,3,12,08,05,324,32,27,19,291,40,14,03,231,00,138,38,213,45*46
2017-11-16 14:10:30 1510859430.982961: $GPZDA,191029.00,16,11,2017,00,00*67
2017-11-16 14:10:30 1510859430.983114: $GPGGA,191029,3946.9566,N,08404.9851,W,2,11,0.80,305.47,M,-33.324,M,,*7D
2017-11-16 14:10:30 1510859430.983174: $GPRMC,191029,A,3946.9566,N,08404.9851,W,0.0000,0.000,161117,,*35
2017-11-16 14:10:30 1510859430.983230: $GPGSA,A,3,10,13,15,18,20,21,24,32,8,27,138,,1.6,0.8,1.3*30
2017-11-16 14:10:31 1510859431.531404: $GPZDA,191030.00,16,11,2017,00,00*6F
2017-11-16 14:10:31 1510859431.539887: $GPGGA,191030,3946.9566,N,08404.9851,W,2,11,0.80,305.47,M,-33.324,M,,*75
2017-11-16 14:10:31 1510859431.539982: $GPRMC,191030,A,3946.9566,N,08404.9851,W,0.0000,0.000,161117,,*3D
2017-11-16 14:10:31 1510859431.540041: $GPGSA,A,3,10,13,15,18,20,21,24,32,8,27,138,,1.6,0.8,1.3*30
2017-11-16 14:10:32 1510859432.562273: $GPZDA,191031.00,16,11,2017,00,00*6E
2017-11-16 14:10:32 1510859432.562429: $GPGGA,191031,3946.9566,N,08404.9851,W,2,11,0.80,305.47,M,-33.324,M,,*74
2017-11-16 14:10:32 1510859432.562490: $GPRMC,191031,A,3946.9566,N,08404.9851,W,0.0000,0.000,161117,,*3C
2017-11-16 14:10:32 1510859432.562547: $GPGSA,A,3,10,13,15,18,20,21,24,32,8,27,138,,1.6,0.8,1.3*30
2017-11-16 14:10:33 1510859433.897715: $GPGSV,3,1,12,10,40,300,43,13,09,048,34,15,39,052,51,18,70,331,47*78
2017-11-16 14:10:33 1510859433.897895: $GPGSV,3,2,12,20,34,094,47,21,66,192,47,24,50,114,47,32,19,237,46*73
2017-11-16 14:10:33 1510859433.897957: $GPGSV,3,3,12,08,05,324,32,27,19,291,41,14,03,231,00,138,38,213,45*47
2017-11-16 14:10:34 1510859434.011396: $GPZDA,191032.00,16,11,2017,00,00*6D
2017-11-16 14:10:34 1510859434.011571: $GPGGA,191032,3946.9566,N,08404.9851,W,2,11,0.80,305.47,M,-33.324,M,,*77
2017-11-16 14:10:34 1510859434.011633: $GPRMC,191032,A,3946.9566,N,08404.9851,W,0.0000,0.000,161117,,*3F
2017-11-16 14:10:34 1510859434.011690: $GPGSA,A,3,10,13,15,18,20,21,24,32,8,27,138,,1.6,0.8,1.3*30
2017-11-16 14:10:34 1510859434.636343: $GPZDA,191033.00,16,11,2017,00,00*6C
2017-11-16 14:10:34 1510859434.636524: $GPGGA,191033,3946.9566,N,08404.9851,W,2,11,0.80,305.47,M,-33.324,M,,*76
2017-11-16 14:10:34 1510859434.636585: $GPRMC,191033,A,3946.9566,N,08404.9851,W,0.0000,0.000,161117,,*3E
2017-11-16 14:10:34 1510859434.636641: $GPGSA,A,3,10,13,15,18,20,21,24,32,8,27,138,,1.6,0.8,1.3*30
2017-11-16 14:10:35 1510859435.561000: $GPZDA,191034.00,16,11,2017,00,00*6B
2017-11-16 14:10:35 1510859435.561178: $GPGGA,191034,3946.9566,N,08404.9851,W,2,11,0.80,305.47,M,-33.324,M,,*71
2017-11-16 14:10:35 1510859435.561239: $GPRMC,191034,A,3946.9566,N,08404.9851,W,0.0000,0.000,161117,,*39
2017-11-16 14:10:35 1510859435.561295: $GPGSA,A,3,10,13,15,18,20,21,24,32,8,27,138,,1.6,0.8,1.3*30
2017-11-16 14:10:36 1510859436.893021: $GPGSV,3,1,12,10,40,300,43,13,09,048,34,15,39,052,51,18,70,331,47*78
2017-11-16 14:10:36 1510859436.893206: $GPGSV,3,2,12,20,34,094,46,21,66,192,47,24,50,114,48,32,19,237,46*7D
2017-11-16 14:10:36 1510859436.893268: $GPGSV,3,3,12,08,05,324,32,27,19,291,41,14,03,231,00,138,38,213,45*47
2017-11-16 14:10:37 1510859437.006338: $GPZDA,191035.00,16,11,2017,00,00*6A
2017-11-16 14:10:37 1510859437.006565: $GPGGA,191035,3946.9566,N,08404.9851,W,2,11,0.80,305.47,M,-33.324,M,,*70
2017-11-16 14:10:37 1510859437.006677: $GPRMC,191035,A,3946.9566,N,08404.9851,W,0.0000,0.000,161117,,*38
2017-11-16 14:10:37 1510859437.006735: $GPGSA,A,3,10,13,15,18,20,21,24,32,8,27,138,,1.6,0.8,1.3*30
2017-11-16 14:10:37 1510859437.533534: $GPZDA,191036.00,16,11,2017,00,00*69
2017-11-16 14:10:37 1510859437.533723: $GPGGA,191036,3946.9566,N,08404.9851,W,2,11,0.80,305.47,M,-33.324,M,,*73
2017-11-16 14:10:37 1510859437.533785: $GPRMC,191036,A,3946.9566,N,08404.9851,W,0.0000,0.000,161117,,*3B
2017-11-16 14:10:37 1510859437.533842: $GPGSA,A,3,10,13,15,18,20,21,24,32,8,27,138,,1.6,0.8,1.3*30
2017-11-16 14:10:38 1510859438.533151: $GPZDA,191037.00,16,11,2017,00,00*68
2017-11-16 14:10:38 1510859438.533316: $GPGGA,191037,3946.9566,N,08404.9851,W,2,11,0.80,305.47,M,-33.324,M,,*72
2017-11-16 14:10:38 1510859438.533378: $GPRMC,191037,A,3946.9566,N,08404.9851,W,0.0000,0.000,161117,,*3A
2017-11-16 14:10:38 1510859438.533433: $GPGSA,A,3,10,13,15,18,20,21,24,32,8,27,138,,1.6,0.8,1.3*30
2017-11-16 14:10:39 1510859439.869658: $GPGSV,3,1,12,10,40,300,42,13,09,048,34,15,39,052,51,18,70,331,47*79
2017-11-16 14:10:39 1510859439.869829: $GPGSV,3,2,12,20,34,094,46,21,66,192,47,24,50,114,48,32,19,237,46*7D
2017-11-16 14:10:39 1510859439.869890: $GPGSV,3,3,12,08,05,324,28,27,19,291,40,14,03,231,00,138,38,213,44*4C
