2018-01-11 20:13:10 1515719590.225774: {"class":"VERSION","release":"3.16","rev":"3.16-4","proto_major":3,"proto_minor":11}
2018-01-11 20:13:10 1515719590.226127: {"class":"DEVICES","devices":[{"class":"DEVICE","path":"/dev/ttyUSB0","driver":"SiRF","subtype":"9\u0006GSD4e_4.1.2-P1_RPATCH.05-F-GPS-4R-1510281 11/03/2015 307","activated":"2018-01-12T01:13:10.213Z","flags":1,"native":1,"bps":4800,"parity":"N","stopbits":1,"cycle":1.00}]}
2018-01-11 20:13:10 1515719590.226248: {"class":"WATCH","enable":true,"json":false,"nmea":true,"raw":0,"scaled":false,"timing":false,"split24":false,"pps":false}
2018-01-11 20:13:10 1515719590.726198: $GPGSV,3,1,10,07,56,315,42,08,74,127,46,09,47,228,42,11,21,168,46*78
2018-01-11 20:13:10 1515719590.726382: $GPGSV,3,2,10,16,22,061,45,23,28,189,48,27,46,052,50,28,15,259,40*7E
2018-01-11 20:13:10 1515719590.726448: $GPGSV,3,3,10,30,30,306,34,138,38,213,45*4A
2018-01-11 20:13:10 1515719590.839679: $GPZDA,011311.00,12,01,2018,00,00*6C
2018-01-11 20:13:10 1515719590.839811: $GPGGA,011311,3946.9581,N,08404.9839,W,2,10,0.80,298.92,M,-33.324,M,,*77
2018-01-11 20:13:10 1515719590.839878: $GPRMC,011311,A,3946.9581,N,08404.9839,W,0.0000,0.000,120118,,*39
2018-01-11 20:13:10 1515719590.839939: $GPGSA,A,3,7,8,9,11,16,23,27,28,30,138,,,4.0,0.8,3.5*3E
2018-01-11 20:13:11 1515719591.393385: $GPZDA,011312.00,12,01,2018,00,00*6F
2018-01-11 20:13:11 1515719591.393537: $GPGGA,011312,3946.9581,N,08404.9839,W,2,10,0.80,298.92,M,-33.324,M,,*74
2018-01-11 20:13:11 1515719591.393601: $GPRMC,011312,A,3946.9581,N,08404.9839,W,0.0000,0.000,120118,,*3A
2018-01-11 20:13:11 1515719591.393663: $GPGSA,A,3,7,8,9,11,16,23,27,28,30,138,,,4.0,0.8,3.5*3E
2018-01-11 20:13:12 1515719592.393807: $GPZDA,011313.00,12,01,2018,00,00*6E
2018-01-11 20:13:12 1515719592.393967: $GPGGA,011313,3946.9581,N,08404.9839,W,2,10,0.80,298.92,M,-33.324,M,,*75
2018-01-11 20:13:12 1515719592.394035: $GPRMC,011313,A,3946.9581,N,08404.9839,W,0.0000,0.000,120118,,*3B
2018-01-11 20:13:12 1515719592.394095: $GPGSA,A,3,7,8,9,11,16,23,27,28,30,138,,,4.0,0.8,3.5*3E
2018-01-11 20:13:13 1515719593.727056: $GPGSV,3,1,10,07,56,315,42,08,74,127,46,09,47,228,42,11,21,168,46*78
2018-01-11 20:13:13 1515719593.727233: $GPGSV,3,2,10,16,22,061,45,23,28,189,48,27,46,052,50,28,15,259,41*7F
2018-01-11 20:13:13 1515719593.727300: $GPGSV,3,3,10,30,30,306,34,138,38,213,45*4A
2018-01-11 20:13:13 1515719593.840484: $GPZDA,011314.00,12,01,2018,00,00*69
2018-01-11 20:13:13 1515719593.840603: $GPGGA,011314,3946.9578,N,08404.9839,W,2,10,0.80,299.69,M,-33.324,M,,*71
2018-01-11 20:13:13 1515719593.840668: $GPRMC,011314,A,3946.9578,N,08404.9839,W,0.0000,0.000,120118,,*3A
2018-01-11 20:13:13 1515719593.840729: $GPGSA,A,3,7,8,9,11,16,23,27,28,30,138,,,4.0,0.8,3.5*3E
2018-01-11 20:13:14 1515719594.391377: $GPZDA,011315.00,12,01,2018,00,00*68
2018-01-11 20:13:14 1515719594.391553: $GPGGA,011315,3946.9578,N,08404.9839,W,2,10,0.80,299.69,M,-33.324,M,,*70
2018-01-11 20:13:14 1515719594.391623: $GPRMC,011315,A,3946.9578,N,08404.9839,W,0.0000,0.000,120118,,*3B
2018-01-11 20:13:14 1515719594.391684: $GPGSA,A,3,7,8,9,11,16,23,27,28,30,138,,,4.0,0.8,3.5*3E
2018-01-11 20:13:15 1515719595.393337: $GPZDA,011316.00,12,01,2018,00,00*6B
2018-01-11 20:13:15 1515719595.398548: $GPGGA,011316,3946.9578,N,08404.9839,W,2,10,0.80,299.69,M,-33.324,M,,*73
2018-01-11 20:13:15 1515719595.398649: $GPRMC,011316,A,3946.9578,N,08404.9839,W,0.0000,0.000,120118,,*38
2018-01-11 20:13:15 1515719595.398714: $GPGSA,A,3,7,8,9,11,16,23,27,28,30,138,,,4.0,0.8,3.5*3E
2018-01-11 20:13:16 1515719596.728626: $GPGSV,3,1,10,07,56,315,42,08,74,127,46,09,47,228,41,11,21,168,46*7B
2018-01-11 20:13:16 1515719596.728782: $GPGSV,3,2,10,16,22,061,46,23,28,189,48,27,46,052,50,28,15,259,41*7C
2018-01-11 20:13:16 1515719596.728848: $GPGSV,3,3,10,30,30,306,35,138,38,213,44*4A
2018-01-11 20:13:16 1515719596.842260: $GPZDA,011317.00,12,01,2018,00,00*6A
2018-01-11 20:13:16 1515719596.842383: $GPGGA,011317,3946.9578,N,08404.9839,W,2,10,0.80,299.69,M,-33.324,M,,*72
2018-01-11 20:13:16 1515719596.842449: $GPRMC,011317,A,3946.9578,N,08404.9839,W,0.0000,0.000,120118,,*39
2018-01-11 20:13:16 1515719596.842564: $GPGSA,A,3,7,8,9,11,16,23,27,28,30,138,,,4.0,0.8,3.5*3E
2018-01-11 20:13:17 1515719597.391905: $GPZDA,011318.00,12,01,2018,00,00*65
2018-01-11 20:13:17 1515719597.392067: $GPGGA,011318,3946.9578,N,08404.9839,W,2,10,0.80,299.69,M,-33.324,M,,*7D
2018-01-11 20:13:17 1515719597.392135: $GPRMC,011318,A,3946.9578,N,08404.9839,W,0.0000,0.000,120118,,*36
2018-01-11 20:13:17 1515719597.392199: $GPGSA,A,3,7,8,9,11,16,23,27,28,30,138,,,4.0,0.8,3.5*3E
2018-01-11 20:13:18 1515719598.391535: $GPZDA,011319.00,12,01,2018,00,00*64
2018-01-11 20:13:18 1515719598.391701: $GPGGA,011319,3946.9578,N,08404.9840,W,2,10,0.80,301.09,M,-33.324,M,,*74
2018-01-11 20:13:18 1515719598.391766: $GPRMC,011319,A,3946.9578,N,08404.9840,W,0.0000,0.000,120118,,*39
2018-01-11 20:13:18 1515719598.391828: $GPGSA,A,3,7,8,9,11,16,23,27,28,30,138,,,4.0,0.8,3.5*3E
2018-01-11 20:13:19 1515719599.728228: $GPGSV,3,1,10,07,56,315,42,08,74,127,46,09,47,228,42,11,21,168,46*78
2018-01-11 20:13:19 1515719599.728389: $GPGSV,3,2,10,16,22,061,46,23,28,189,48,27,46,052,50,28,15,259,41*7C
2018-01-11 20:13:19 1515719599.728456: $GPGSV,3,3,10,30,30,306,35,138,38,213,45*4B
2018-01-11 20:13:19 1515719599.841840: $GPZDA,011320.00,12,01,2018,00,00*6E
2018-01-11 20:13:19 1515719599.841954: $GPGGA,011320,3946.9578,N,08404.9840,W,2,10,0.80,301.09,M,-33.324,M,,*7E
2018-01-11 20:13:19 1515719599.842016: $GPRMC,011320,A,3946.9578,N,08404.9840,W,0.0000,0.000,120118,,*33
2018-01-11 20:13:19 1515719599.842079: $GPGSA,A,3,7,8,9,11,16,23,27,28,30,138,,,4.0,0.8,3.5*3E
2018-01-11 20:13:20 1515719600.466987: $GPZDA,011321.00,12,01,2018,00,00*6F
2018-01-11 20:13:20 1515719600.472634: $GPGGA,011321,3946.9578,N,08404.9840,W,2,10,0.80,301.09,M,-33.324,M,,*7F
2018-01-11 20:13:20 1515719600.472761: $GPRMC,011321,A,3946.9578,N,08404.9840,W,0.0000,0.000,120118,,*32
2018-01-11 20:13:20 1515719600.472826: $GPGSA,A,3,7,8,9,11,16,23,27,28,30,138,,,4.0,0.8,3.5*3E
2018-01-11 20:13:21 1515719601.391705: $GPZDA,011322.00,12,01,2018,00,00*6C
2018-01-11 20:13:21 1515719601.391874: $GPGGA,011322,3946.9578,N,08404.9840,W,2,10,0.80,301.09,M,-33.324,M,,*7C
2018-01-11 20:13:21 1515719601.391941: $GPRMC,011322,A,3946.9578,N,08404.9840,W,0.0000,0.000,120118,,*31
2018-01-11 20:13:21 1515719601.392002: $GPGSA,A,3,7,8,9,11,16,23,27,28,30,138,,,4.0,0.8,3.5*3E
