2017-11-16 14:51:59 1510861919.006317: {"class":"VERSION","release":"3.17","rev":"3.17","proto_major":3,"proto_minor":12}
2017-11-16 14:51:59 1510861919.006741: {"class":"DEVICES","devices":[{"class":"DEVICE","path":"/dev/ttyUSB0","driver":"SiRF","subtype":"9\u0006GSD4e_4.1.2-P1_RPATCH.05-F-GPS-4R-1510281 11/03/2015 307","activated":"2017-11-16T19:51:58.805Z","flags":1,"native":1,"bps":4800,"parity":"N","stopbits":1,"cycle":1.00}]}
2017-11-16 14:51:59 1510861919.006850: {"class":"WATCH","enable":true,"json":false,"nmea":true,"raw":0,"scaled":false,"timing":false,"split24":false,"pps":false}
2017-11-16 14:51:59 1510861919.491393: $GPZDA,195158.00,16,11,2017,00,00*64
2017-11-16 14:51:59 1510861919.491577: $GPGGA,195158,3946.9572,N,08404.9841,W,2,11,0.80,302.62,M,-33.324,M,,*7A
2017-11-16 14:51:59 1510861919.491639: $GPRMC,195158,A,3946.9572,N,08404.9841,W,0.0000,0.000,161117,,*32
2017-11-16 14:51:59 1510861919.491696: $GPGSA,A,3,8,10,15,18,21,20,24,27,32,14,138,,1.6,0.8,1.3*37
2017-11-16 14:52:00 1510861920.827888: $GPGSV,3,1,11,08,08,306,36,10,56,315,49,15,23,058,50,18,77,039,44*7D
2017-11-16 14:52:00 1510861920.828055: $GPGSV,3,2,11,21,45,183,46,20,20,109,41,24,52,079,50,27,14,273,40*77
2017-11-16 14:52:00 1510861920.828116: $GPGSV,3,3,11,32,34,250,47,14,18,243,42,138,38,213,43*72
2017-11-16 14:52:00 1510861920.941169: $GPZDA,195159.00,16,11,2017,00,00*65
2017-11-16 14:52:00 1510861920.941328: $GPGGA,195159,3946.9572,N,08404.9841,W,2,11,0.80,302.62,M,-33.324,M,,*7B
2017-11-16 14:52:00 1510861920.941389: $GPRMC,195159,A,3946.9572,N,08404.9841,W,0.0000,0.000,161117,,*33
2017-11-16 14:52:00 1510861920.941446: $GPGSA,A,3,8,10,15,18,21,20,24,27,32,14,138,,1.6,0.8,1.3*37
2017-11-16 14:52:01 1510861921.484885: $GPZDA,195200.00,16,11,2017,00,00*6A
2017-11-16 14:52:01 1510861921.485046: $GPGGA,195200,3946.9572,N,08404.9841,W,2,11,0.80,302.62,M,-33.324,M,,*74
2017-11-16 14:52:01 1510861921.485109: $GPRMC,195200,A,3946.9572,N,08404.9841,W,0.0000,0.000,161117,,*3C
2017-11-16 14:52:01 1510861921.485165: $GPGSA,A,3,8,10,15,18,21,20,24,27,32,14,138,,1.6,0.8,1.3*37
2017-11-16 14:52:02 1510861922.486189: $GPZDA,195201.00,16,11,2017,00,00*6B
2017-11-16 14:52:02 1510861922.486350: $GPGGA,195201,3946.9572,N,08404.9841,W,2,11,0.80,302.62,M,-33.324,M,,*75
2017-11-16 14:52:02 1510861922.486412: $GPRMC,195201,A,3946.9572,N,08404.9841,W,0.0000,0.000,161117,,*3D
2017-11-16 14:52:02 1510861922.486469: $GPGSA,A,3,8,10,15,18,21,20,24,27,32,14,138,,1.6,0.8,1.3*37
2017-11-16 14:52:03 1510861923.834970: $GPGSV,3,1,11,08,08,306,35,10,56,315,49,15,23,058,50,18,77,039,44*7E
2017-11-16 14:52:03 1510861923.835139: $GPGSV,3,2,11,21,45,183,46,20,20,109,41,24,52,079,49,27,14,273,40*7F
2017-11-16 14:52:03 1510861923.835199: $GPGSV,3,3,11,32,34,250,47,14,18,243,42,138,38,213,42*73
2017-11-16 14:52:03 1510861923.948561: $GPZDA,195202.00,16,11,2017,00,00*68
2017-11-16 14:52:03 1510861923.948722: $GPGGA,195202,3946.9572,N,08404.9841,W,2,11,0.80,302.62,M,-33.324,M,,*76
2017-11-16 14:52:03 1510861923.948783: $GPRMC,195202,A,3946.9572,N,08404.9841,W,0.0000,0.000,161117,,*3E
2017-11-16 14:52:03 1510861923.948840: $GPGSA,A,3,8,10,15,18,21,20,24,27,32,14,138,,1.6,0.8,1.3*37
2017-11-16 14:52:04 1510861924.573934: $GPZDA,195203.00,16,11,2017,00,00*69
2017-11-16 14:52:04 1510861924.574117: $GPGGA,195203,3946.9572,N,08404.9841,W,2,11,0.80,302.62,M,-33.324,M,,*77
2017-11-16 14:52:04 1510861924.574199: $GPRMC,195203,A,3946.9572,N,08404.9841,W,0.0000,0.000,161117,,*3F
2017-11-16 14:52:04 1510861924.574257: $GPGSA,A,3,8,10,15,18,21,20,24,27,32,14,138,,1.6,0.8,1.3*37
2017-11-16 14:52:05 1510861925.528515: $GPZDA,195204.00,16,11,2017,00,00*6E
2017-11-16 14:52:05 1510861925.528675: $GPGGA,195204,3946.9572,N,08404.9841,W,2,11,0.80,302.62,M,-33.324,M,,*70
2017-11-16 14:52:05 1510861925.528736: $GPRMC,195204,A,3946.9572,N,08404.9841,W,0.0000,0.000,161117,,*38
2017-11-16 14:52:05 1510861925.528793: $GPGSA,A,3,8,10,15,18,21,20,24,27,32,14,138,,1.6,0.8,1.3*37
2017-11-16 14:52:06 1510861926.830317: $GPGSV,3,1,11,08,08,306,35,10,56,315,50,15,23,058,50,18,77,039,44*76
2017-11-16 14:52:06 1510861926.830539: $GPGSV,3,2,11,21,45,183,46,20,20,109,40,24,52,079,49,27,14,273,40*7E
2017-11-16 14:52:06 1510861926.830602: $GPGSV,3,3,11,32,34,250,47,14,18,243,42,138,38,213,43*72
2017-11-16 14:52:06 1510861926.943570: $GPZDA,195205.00,16,11,2017,00,00*6F
2017-11-16 14:52:06 1510861926.943744: $GPGGA,195205,3946.9572,N,08404.9841,W,2,11,0.80,302.62,M,-33.324,M,,*71
2017-11-16 14:52:06 1510861926.943807: $GPRMC,195205,A,3946.9572,N,08404.9841,W,0.0000,0.000,161117,,*39
2017-11-16 14:52:06 1510861926.943863: $GPGSA,A,3,8,10,15,18,21,20,24,27,32,14,138,,1.6,0.8,1.3*37
2017-11-16 14:52:07 1510861927.520858: $GPZDA,195206.00,16,11,2017,00,00*6C
2017-11-16 14:52:07 1510861927.521019: $GPGGA,195206,3946.9572,N,08404.9841,W,2,11,0.80,302.62,M,-33.324,M,,*72
2017-11-16 14:52:07 1510861927.521081: $GPRMC,195206,A,3946.9572,N,08404.9841,W,0.0000,0.000,161117,,*3A
2017-11-16 14:52:07 1510861927.521137: $GPGSA,A,3,8,10,15,18,21,20,24,27,32,14,138,,1.6,0.8,1.3*37
2017-11-16 14:52:08 1510861928.491884: $GPZDA,195207.00,16,11,2017,00,00*6D
2017-11-16 14:52:08 1510861928.492072: $GPGGA,195207,3946.9572,N,08404.9841,W,2,11,0.80,302.62,M,-33.324,M,,*73
2017-11-16 14:52:08 1510861928.492134: $GPRMC,195207,A,3946.9572,N,08404.9841,W,0.0000,0.000,161117,,*3B
2017-11-16 14:52:08 1510861928.492190: $GPGSA,A,3,8,10,15,18,21,20,24,27,32,14,138,,1.6,0.8,1.3*37
