2017-12-29 11:47:02 1514566022.406691: {"class":"VERSION","release":"3.16","rev":"3.16-4","proto_major":3,"proto_minor":11}
2017-12-29 11:47:02 1514566022.407064: {"class":"DEVICES","devices":[{"class":"DEVICE","path":"/dev/ttyUSB0","driver":"SiRF","subtype":"9\u0006GSD4e_4.1.2-P1_RPATCH.05-F-GPS-4R-1510281 11/03/2015 307","activated":"2017-12-29T16:47:02.240Z","flags":1,"native":1,"bps":4800,"parity":"N","stopbits":1,"cycle":1.00}]}
2017-12-29 11:47:02 1514566022.407182: {"class":"WATCH","enable":true,"json":false,"nmea":true,"raw":0,"scaled":false,"timing":false,"split24":false,"pps":false}
2017-12-29 11:47:02 1514566022.689943: $GPGSV,3,1,11,08,08,312,34,10,53,312,46,14,14,240,36,15,25,057,46*79
2017-12-29 11:47:02 1514566022.690133: $GPGSV,3,2,11,18,77,025,45,20,24,106,49,21,49,183,47,24,53,085,51*77
2017-12-29 11:47:02 1514566022.690199: $GPGSV,3,3,11,32,32,247,38,27,15,276,33,138,38,213,45*71
2017-12-29 11:47:02 1514566022.802088: $GPZDA,164703.00,29,12,2017,00,00*6D
2017-12-29 11:47:02 1514566022.802235: $GPGGA,164703,3946.9597,N,08404.9886,W,2,11,0.80,310.96,M,-33.324,M,,*74
2017-12-29 11:47:02 1514566022.802301: $GPRMC,164703,A,3946.9597,N,08404.9886,W,0.0000,0.000,291217,,*3B
2017-12-29 11:47:02 1514566022.802362: $GPGSA,A,3,8,10,14,15,18,20,21,24,32,27,138,,1.7,0.8,1.3*36
2017-12-29 11:47:03 1514566023.371740: $GPZDA,164704.00,29,12,2017,00,00*6A
2017-12-29 11:47:03 1514566023.371926: $GPGGA,164704,3946.9597,N,08404.9879,W,2,11,0.80,311.04,M,-33.324,M,,*79
2017-12-29 11:47:03 1514566023.372000: $GPRMC,164704,A,3946.9597,N,08404.9879,W,0.0000,0.000,291217,,*3C
2017-12-29 11:47:03 1514566023.372061: $GPGSA,A,3,8,10,14,15,18,20,21,24,32,27,138,,1.7,0.8,1.3*36
2017-12-29 11:47:04 1514566024.353804: $GPZDA,164705.00,29,12,2017,00,00*6B
2017-12-29 11:47:04 1514566024.353992: $GPGGA,164705,3946.9597,N,08404.9879,W,2,11,0.80,311.04,M,-33.324,M,,*78
2017-12-29 11:47:04 1514566024.354059: $GPRMC,164705,A,3946.9597,N,08404.9879,W,0.0000,0.000,291217,,*3D
2017-12-29 11:47:04 1514566024.354122: $GPGSA,A,3,8,10,14,15,18,20,21,24,32,27,138,,1.7,0.8,1.3*36
2017-12-29 11:47:05 1514566025.705288: $GPGSV,3,1,11,08,08,312,36,10,53,312,46,14,14,240,36,15,25,057,45*78
2017-12-29 11:47:05 1514566025.705471: $GPGSV,3,2,11,18,77,025,45,20,24,106,49,21,49,183,47,24,53,085,51*77
2017-12-29 11:47:05 1514566025.705537: $GPGSV,3,3,11,32,32,247,38,27,15,276,34,138,38,213,45*76
2017-12-29 11:47:05 1514566025.818887: $GPZDA,164706.00,29,12,2017,00,00*68
2017-12-29 11:47:05 1514566025.819019: $GPGGA,164706,3946.9597,N,08404.9879,W,2,11,0.80,311.04,M,-33.324,M,,*7B
2017-12-29 11:47:05 1514566025.819085: $GPRMC,164706,A,3946.9597,N,08404.9879,W,0.0000,0.000,291217,,*3E
2017-12-29 11:47:05 1514566025.819145: $GPGSA,A,3,8,10,14,15,18,20,21,24,32,27,138,,1.7,0.8,1.3*36
2017-12-29 11:47:06 1514566026.370255: $GPZDA,164707.00,29,12,2017,00,00*69
2017-12-29 11:47:06 1514566026.370425: $GPGGA,164707,3946.9597,N,08404.9879,W,2,11,0.80,311.04,M,-33.324,M,,*7A
2017-12-29 11:47:06 1514566026.370494: $GPRMC,164707,A,3946.9597,N,08404.9879,W,0.0000,0.000,291217,,*3F
2017-12-29 11:47:06 1514566026.370555: $GPGSA,A,3,8,10,14,15,18,20,21,24,32,27,138,,1.7,0.8,1.3*36
2017-12-29 11:47:07 1514566027.355390: $GPZDA,164708.00,29,12,2017,00,00*66
2017-12-29 11:47:07 1514566027.355578: $GPGGA,164708,3946.9597,N,08404.9879,W,2,11,0.80,311.04,M,-33.324,M,,*75
2017-12-29 11:47:07 1514566027.355666: $GPRMC,164708,A,3946.9597,N,08404.9879,W,0.0000,0.000,291217,,*30
2017-12-29 11:47:07 1514566027.355731: $GPGSA,A,3,8,10,14,15,18,20,21,24,32,27,138,,1.7,0.8,1.3*36
2017-12-29 11:47:08 1514566028.688638: $GPGSV,3,1,11,08,08,312,36,10,53,312,45,14,14,240,35,15,25,057,45*78
2017-12-29 11:47:08 1514566028.688790: $GPGSV,3,2,11,18,77,025,45,20,24,106,49,21,49,183,47,24,53,085,51*77
2017-12-29 11:47:08 1514566028.688859: $GPGSV,3,3,11,32,32,247,39,27,15,276,35,138,38,213,45*76
2017-12-29 11:47:08 1514566028.802245: $GPZDA,164709.00,29,12,2017,00,00*67
2017-12-29 11:47:08 1514566028.802434: $GPGGA,164709,3946.9601,N,08404.9879,W,2,11,0.80,311.68,M,-33.324,M,,*72
2017-12-29 11:47:08 1514566028.802559: $GPRMC,164709,A,3946.9601,N,08404.9879,W,0.0000,0.000,291217,,*3D
2017-12-29 11:47:08 1514566028.802643: $GPGSA,A,3,8,10,14,15,18,20,21,24,32,27,138,,1.7,0.8,1.3*36
2017-12-29 11:47:09 1514566029.346834: $GPZDA,164710.00,29,12,2017,00,00*6F
2017-12-29 11:47:09 1514566029.347075: $GPGGA,164710,3946.9601,N,08404.9879,W,2,11,0.80,311.68,M,-33.324,M,,*7A
2017-12-29 11:47:09 1514566029.347150: $GPRMC,164710,A,3946.9601,N,08404.9879,W,0.0000,0.000,291217,,*35
2017-12-29 11:47:09 1514566029.347214: $GPGSA,A,3,8,10,14,15,18,20,21,24,32,27,138,,1.7,0.8,1.3*36
2017-12-29 11:47:10 1514566030.352042: $GPZDA,164711.00,29,12,2017,00,00*6E
2017-12-29 11:47:10 1514566030.352204: $GPGGA,164711,3946.9601,N,08404.9879,W,2,11,0.80,311.68,M,-33.324,M,,*7B
2017-12-29 11:47:10 1514566030.352271: $GPRMC,164711,A,3946.9601,N,08404.9879,W,0.0000,0.000,291217,,*34
2017-12-29 11:47:10 1514566030.352332: $GPGSA,A,3,8,10,14,15,18,20,21,24,32,27,138,,1.7,0.8,1.3*36
2017-12-29 11:47:11 1514566031.688990: $GPGSV,3,1,11,08,08,312,37,10,53,312,46,14,14,240,36,15,25,057,46*7A
2017-12-29 11:47:11 1514566031.689169: $GPGSV,3,2,11,18,77,025,46,20,24,106,49,21,49,183,47,24,53,085,51*74
2017-12-29 11:47:11 1514566031.689236: $GPGSV,3,3,11,32,32,247,40,27,15,276,35,138,38,213,45*78
2017-12-29 11:47:11 1514566031.802561: $GPZDA,164712.00,29,12,2017,00,00*6D
2017-12-29 11:47:11 1514566031.802731: $GPGGA,164712,3946.9598,N,08404.9880,W,2,11,0.80,312.44,M,-33.324,M,,*70
2017-12-29 11:47:11 1514566031.802798: $GPRMC,164712,A,3946.9598,N,08404.9880,W,0.0000,0.000,291217,,*32
2017-12-29 11:47:11 1514566031.802861: $GPGSA,A,3,8,10,14,15,18,20,21,24,32,27,138,,1.7,0.8,1.3*36
2017-12-29 11:47:12 1514566032.353308: $GPZDA,164713.00,29,12,2017,00,00*6C
2017-12-29 11:47:12 1514566032.353503: $GPGGA,164713,3946.9597,N,08404.9873,W,2,11,0.80,312.52,M,-33.324,M,,*75
2017-12-29 11:47:12 1514566032.353575: $GPRMC,164713,A,3946.9597,N,08404.9873,W,0.0000,0.000,291217,,*30
2017-12-29 11:47:12 1514566032.353639: $GPGSA,A,3,8,10,14,15,18,20,21,24,32,27,138,,1.7,0.8,1.3*36
2017-12-29 11:47:13 1514566033.354205: $GPZDA,164714.00,29,12,2017,00,00*6B
2017-12-29 11:47:13 1514566033.354369: $GPGGA,164714,3946.9597,N,08404.9873,W,2,11,0.80,312.52,M,-33.324,M,,*72
2017-12-29 11:47:13 1514566033.354434: $GPRMC,164714,A,3946.9597,N,08404.9873,W,0.0000,0.000,291217,,*37
2017-12-29 11:47:13 1514566033.354495: $GPGSA,A,3,8,10,14,15,18,20,21,24,32,27,138,,1.7,0.8,1.3*36
2017-12-29 11:47:14 1514566034.688614: $GPGSV,3,1,11,08,08,312,37,10,53,312,45,14,14,240,36,15,25,057,46*79
2017-12-29 11:47:14 1514566034.688810: $GPGSV,3,2,11,18,77,025,46,20,24,106,49,21,49,183,47,24,53,085,51*74
2017-12-29 11:47:14 1514566034.688879: $GPGSV,3,3,11,32,32,247,39,27,15,276,36,138,38,213,45*75
2017-12-29 11:47:14 1514566034.802148: $GPZDA,164715.00,29,12,2017,00,00*6A
2017-12-29 11:47:14 1514566034.802319: $GPGGA,164715,3946.9597,N,08404.9873,W,2,11,0.80,312.52,M,-33.324,M,,*73
2017-12-29 11:47:14 1514566034.802385: $GPRMC,164715,A,3946.9597,N,08404.9873,W,0.0000,0.000,291217,,*36
2017-12-29 11:47:14 1514566034.802445: $GPGSA,A,3,8,10,14,15,18,20,21,24,32,27,138,,1.7,0.8,1.3*36
2017-12-29 11:47:15 1514566035.427855: $GPZDA,164716.00,29,12,2017,00,00*69
2017-12-29 11:47:15 1514566035.428049: $GPGGA,164716,3946.9597,N,08404.9873,W,2,11,0.80,312.52,M,-33.324,M,,*70
2017-12-29 11:47:15 1514566035.428116: $GPRMC,164716,A,3946.9597,N,08404.9873,W,0.0000,0.000,291217,,*35
2017-12-29 11:47:15 1514566035.428176: $GPGSA,A,3,8,10,14,15,18,20,21,24,32,27,138,,1.7,0.8,1.3*36
2017-12-29 11:47:16 1514566036.353247: $GPZDA,164717.00,29,12,2017,00,00*68
2017-12-29 11:47:16 1514566036.353406: $GPGGA,164717,3946.9597,N,08404.9873,W,2,11,0.80,312.52,M,-33.324,M,,*71
2017-12-29 11:47:16 1514566036.353472: $GPRMC,164717,A,3946.9597,N,08404.9873,W,0.0000,0.000,291217,,*34
2017-12-29 11:47:16 1514566036.353532: $GPGSA,A,3,8,10,14,15,18,20,21,24,32,27,138,,1.7,0.8,1.3*36
