2017-12-14 12:05:15 1513271115.403975: {"class":"VERSION","release":"3.16","rev":"3.16-4","proto_major":3,"proto_minor":11}
2017-12-14 12:05:15 1513271115.404369: {"class":"DEVICES","devices":[{"class":"DEVICE","path":"/dev/ttyUSB0","driver":"SiRF","subtype":"9\u0006GSD4e_4.1.2-P1_RPATCH.05-F-GPS-4R-1510281 11/03/2015 307","activated":"2017-12-14T17:05:15.322Z","flags":1,"native":1,"bps":4800,"parity":"N","stopbits":1,"cycle":1.00}]}
2017-12-14 12:05:15 1513271115.404489: {"class":"WATCH","enable":true,"json":false,"nmea":true,"raw":0,"scaled":false,"timing":false,"split24":false,"pps":false}
2017-12-14 12:05:16 1513271116.533487: $GPGSV,3,1,11,21,69,195,18,24,47,120,29,15,43,051,22,18,67,325,00*75
2017-12-14 12:05:16 1513271116.533639: $GPGSV,3,2,11,20,39,090,20,32,16,234,13,10,37,297,00,13,13,046,04*75
2017-12-14 12:05:16 1513271116.533704: $GPGSV,3,3,11,27,19,295,00,08,03,327,00,120,07,103,00*71
2017-12-14 12:05:16 1513271116.646914: $GPZDA,170517.00,14,12,2017,00,00*61
2017-12-14 12:05:16 1513271116.647081: $GPGGA,170517,3946.9585,N,08404.9321,W,1,05,3.00,343.45,M,-33.324,M,,*76
2017-12-14 12:05:16 1513271116.647147: $GPRMC,170517,A,3946.9585,N,08404.9321,W,1.3305,117.203,141217,,*30
2017-12-14 12:05:16 1513271116.647232: $GPGSA,A,3,21,24,15,20,32,,,,,,,,6.6,3.0,6.2*37
2017-12-14 12:05:17 1513271117.196819: $GPZDA,170518.00,14,12,2017,00,00*6E
2017-12-14 12:05:17 1513271117.196989: $GPGGA,170518,3946.9588,N,08404.9320,W,1,05,3.00,342.69,M,-33.324,M,,*7A
2017-12-14 12:05:17 1513271117.197055: $GPRMC,170518,A,3946.9588,N,08404.9320,W,0.9689,93.795,141217,,*0E
2017-12-14 12:05:17 1513271117.197117: $GPGSA,A,3,21,24,15,20,32,,,,,,,,6.6,3.0,6.2*37
2017-12-14 12:05:18 1513271118.181649: $GPZDA,170519.00,14,12,2017,00,00*6F
2017-12-14 12:05:18 1513271118.181837: $GPGGA,170519,3946.9584,N,08404.9320,W,1,05,3.00,342.05,M,-33.324,M,,*7D
2017-12-14 12:05:18 1513271118.181904: $GPRMC,170519,A,3946.9584,N,08404.9320,W,1.2562,109.606,141217,,*36
2017-12-14 12:05:18 1513271118.181964: $GPGSA,A,3,21,24,15,20,32,,,,,,,,6.6,3.0,6.2*37
2017-12-14 12:05:19 1513271119.534140: $GPGSV,3,1,11,21,69,195,19,24,47,120,29,15,43,051,22,18,67,325,00*74
2017-12-14 12:05:19 1513271119.534343: $GPGSV,3,2,11,20,39,090,21,32,16,234,13,10,37,297,00,27,19,295,00*71
2017-12-14 12:05:19 1513271119.534409: $GPGSV,3,3,11,13,13,046,00,08,03,327,00,120,07,103,00*70
2017-12-14 12:05:19 1513271119.647755: $GPZDA,170520.00,14,12,2017,00,00*65
2017-12-14 12:05:19 1513271119.647909: $GPGGA,170520,3946.9589,N,08404.9327,W,1,05,3.00,342.61,M,-33.324,M,,*7F
2017-12-14 12:05:19 1513271119.647974: $GPRMC,170520,A,3946.9589,N,08404.9327,W,0.4844,93.795,141217,,*01
2017-12-14 12:05:19 1513271119.648034: $GPGSA,A,3,21,24,15,20,32,,,,,,,,6.6,3.0,6.2*37
2017-12-14 12:05:20 1513271120.197898: $GPZDA,170521.00,14,12,2017,00,00*64
2017-12-14 12:05:20 1513271120.198053: $GPGGA,170521,3946.9585,N,08404.9321,W,1,05,3.00,343.45,M,-33.324,M,,*73
2017-12-14 12:05:20 1513271120.198118: $GPRMC,170521,A,3946.9585,N,08404.9321,W,0.5951,58.685,141217,,*09
2017-12-14 12:05:20 1513271120.198201: $GPGSA,A,3,21,24,15,20,32,,,,,,,,6.6,3.0,6.2*37
2017-12-14 12:05:21 1513271121.196546: $GPZDA,170522.00,14,12,2017,00,00*67
2017-12-14 12:05:21 1513271121.196709: $GPGGA,170522,3946.9585,N,08404.9328,W,1,05,3.00,343.37,M,-33.324,M,,*7C
2017-12-14 12:05:21 1513271121.196897: $GPRMC,170522,A,3946.9585,N,08404.9328,W,0.4949,112.165,141217,,*3D
2017-12-14 12:05:21 1513271121.196963: $GPGSA,A,3,21,24,15,20,32,,,,,,,,6.6,3.0,6.2*37
2017-12-14 12:05:22 1513271122.533485: $GPGSV,3,1,11,21,69,195,20,24,47,120,29,15,43,051,22,18,67,325,00*7E
2017-12-14 12:05:22 1513271122.672957: $GPGSV,3,2,11,20,39,090,20,32,16,234,13,10,37,297,00,27,19,295,00*70
2017-12-14 12:05:22 1513271122.673228: $GPGSV,3,3,11,13,13,046,00,08,03,327,00,120,07,103,00*70
2017-12-14 12:05:22 1513271122.673357: $GPZDA,170523.00,14,12,2017,00,00*66
2017-12-14 12:05:22 1513271122.673417: $GPGGA,170523,3946.9586,N,08404.9329,W,1,05,3.00,344.78,M,-33.324,M,,*73
2017-12-14 12:05:22 1513271122.673478: $GPRMC,170523,A,3946.9586,N,08404.9329,W,0.7103,45.706,141217,,*0B
2017-12-14 12:05:22 1513271122.673603: $GPGSA,A,3,21,24,15,20,32,,,,,,,,6.6,3.0,6.2*37
2017-12-14 12:05:23 1513271123.180729: $GPZDA,170524.00,14,12,2017,00,00*61
2017-12-14 12:05:23 1513271123.180900: $GPGGA,170524,3946.9594,N,08404.9322,W,1,05,3.00,346.14,M,-33.324,M,,*74
2017-12-14 12:05:23 1513271123.180965: $GPRMC,170524,A,3946.9594,N,08404.9322,W,1.5996,67.248,141217,,*0C
2017-12-14 12:05:23 1513271123.181025: $GPGSA,A,3,21,24,15,20,32,,,,,,,,6.6,3.0,6.2*37
2017-12-14 12:05:24 1513271124.197176: $GPZDA,170525.00,14,12,2017,00,00*60
2017-12-14 12:05:24 1513271124.197365: $GPGGA,170525,3946.9593,N,08404.9315,W,1,05,3.00,346.21,M,-33.324,M,,*70
2017-12-14 12:05:24 1513271124.197433: $GPRMC,170525,A,3946.9593,N,08404.9315,W,1.5371,73.680,141217,,*08
2017-12-14 12:05:24 1513271124.197493: $GPGSA,A,3,21,24,15,20,32,,,,,,,,6.6,3.0,6.2*37
2017-12-14 12:05:25 1513271125.533337: $GPGSV,3,1,11,21,69,195,20,24,47,120,29,15,43,051,23,18,67,325,18*76
2017-12-14 12:05:25 1513271125.533513: $GPGSV,3,2,11,20,39,090,20,32,16,234,12,10,37,297,00,27,19,295,00*71
2017-12-14 12:05:25 1513271125.533579: $GPGSV,3,3,11,13,13,046,00,08,03,327,00,120,07,103,00*70
2017-12-14 12:05:25 1513271125.645525: $GPZDA,170526.00,14,12,2017,00,00*63
2017-12-14 12:05:25 1513271125.645680: $GPGGA,170526,3946.9586,N,08404.9315,W,1,05,3.00,346.34,M,-33.324,M,,*73
2017-12-14 12:05:25 1513271125.645745: $GPRMC,170526,A,3946.9586,N,08404.9315,W,1.6955,93.795,141217,,*0B
2017-12-14 12:05:25 1513271125.645806: $GPGSA,A,3,21,24,15,20,32,,,,,,,,6.6,3.0,6.2*37
2017-12-14 12:05:26 1513271126.196877: $GPZDA,170527.00,14,12,2017,00,00*62
2017-12-14 12:05:26 1513271126.197199: $GPGGA,170527,3946.9590,N,08404.9308,W,1,05,3.00,347.06,M,-33.324,M,,*79
2017-12-14 12:05:26 1513271126.197328: $GPRMC,170527,A,3946.9590,N,08404.9308,W,1.7665,76.383,141217,,*04
2017-12-14 12:05:26 1513271126.197449: $GPGSA,A,3,21,24,15,20,32,,,,,,,,6.6,3.0,6.2*37
2017-12-14 12:05:27 1513271127.179302: $GPZDA,170528.00,14,12,2017,00,00*6D
2017-12-14 12:05:27 1513271127.179472: $GPGGA,170528,3946.9585,N,08404.9301,W,1,05,3.00,346.50,M,-33.324,M,,*79
2017-12-14 12:05:27 1513271127.179539: $GPRMC,170528,A,3946.9585,N,08404.9301,W,1.7321,82.397,141217,,*0D
2017-12-14 12:05:27 1513271127.179600: $GPGSA,A,3,21,24,15,20,32,,,,,,,,6.6,3.0,6.2*37
2017-12-14 12:05:28 1513271128.516454: $GPGSV,3,1,11,21,69,195,20,24,47,120,29,15,43,051,23,18,67,325,00*7F
2017-12-14 12:05:28 1513271128.516615: $GPGSV,3,2,11,20,39,090,20,32,16,234,12,10,37,297,00,27,19,295,00*71
2017-12-14 12:05:28 1513271128.516680: $GPGSV,3,3,11,13,13,046,00,08,03,327,00,120,07,103,00*70
2017-12-14 12:05:28 1513271128.630353: $GPZDA,170529.00,14,12,2017,00,00*6C
2017-12-14 12:05:28 1513271128.630520: $GPGGA,170529,3946.9586,N,08404.9315,W,1,05,3.00,346.34,M,-33.324,M,,*7C
2017-12-14 12:05:28 1513271128.630586: $GPRMC,170529,A,3946.9586,N,08404.9315,W,0.8011,119.090,141217,,*33
2017-12-14 12:05:28 1513271128.630646: $GPGSA,A,3,21,24,15,20,32,,,,,,,,6.6,3.0,6.2*37
2017-12-14 12:05:29 1513271129.180510: $GPZDA,170530.00,14,12,2017,00,00*64
2017-12-14 12:05:29 1513271129.180677: $GPGGA,170530,3946.9586,N,08404.9309,W,1,05,3.00,347.82,M,-33.324,M,,*75
2017-12-14 12:05:29 1513271129.180743: $GPRMC,170530,A,3946.9586,N,08404.9309,W,1.0742,121.428,141217,,*32
2017-12-14 12:05:29 1513271129.180804: $GPGSA,A,3,21,24,15,20,32,,,,,,,,6.6,3.0,6.2*37
2017-12-14 12:05:30 1513271130.179320: $GPZDA,170531.00,14,12,2017,00,00*65
2017-12-14 12:05:30 1513271130.179486: $GPGGA,170531,3946.9586,N,08404.9309,W,1,05,3.00,347.82,M,-33.324,M,,*74
2017-12-14 12:05:30 1513271130.179552: $GPRMC,170531,A,3946.9586,N,08404.9309,W,1.2131,84.960,141217,,*0C
2017-12-14 12:05:30 1513271130.179613: $GPGSA,A,3,21,24,15,20,32,,,,,,,,6.6,3.0,6.2*37
2017-12-14 12:05:32 1513271132.009035: $GPGSV,3,1,11,21,69,193,20,24,48,118,29,15,42,051,23,18,67,325,18*75
2017-12-14 12:05:32 1513271132.009229: $GPGSV,3,2,11,20,38,090,20,32,16,234,12,27,19,295,10,10,37,297,00*71
2017-12-14 12:05:32 1513271132.009313: $GPGSV,3,3,11,13,12,046,00,08,04,327,00,120,07,103,00*76
2017-12-14 12:05:32 1513271132.122483: $GPZDA,170532.00,14,12,2017,00,00*66
2017-12-14 12:05:32 1513271132.122667: $GPGGA,170532,3946.9590,N,08404.9302,W,1,05,3.00,348.54,M,-33.324,M,,*7F
2017-12-14 12:05:32 1513271132.122735: $GPRMC,170532,A,3946.9590,N,08404.9302,W,1.6878,62.731,141217,,*01
2017-12-14 12:05:32 1513271132.122796: $GPGSA,A,3,21,24,15,20,32,,,,,,,,6.6,3.0,6.2*37
2017-12-14 12:05:32 1513271132.550822: $GPZDA,170533.00,14,12,2017,00,00*67
2017-12-14 12:05:32 1513271132.550994: $GPGGA,170533,3946.9589,N,08404.9288,W,1,05,3.00,348.70,M,-33.324,M,,*73
2017-12-14 12:05:32 1513271132.551059: $GPRMC,170533,A,3946.9589,N,08404.9288,W,2.2989,51.216,141217,,*03
2017-12-14 12:05:32 1513271132.551142: $GPGSA,A,3,21,24,15,20,32,,,,,,,,6.6,3.0,6.2*37
2017-12-14 12:05:33 1513271133.181287: $GPZDA,170534.00,14,12,2017,00,00*60
2017-12-14 12:05:33 1513271133.181441: $GPGGA,170534,3946.9593,N,08404.9281,W,1,05,3.00,349.42,M,-33.324,M,,*76
2017-12-14 12:05:33 1513271133.181506: $GPRMC,170534,A,3946.9593,N,08404.9281,W,2.1994,65.962,141217,,*06
2017-12-14 12:05:33 1513271133.181565: $GPGSA,A,3,21,24,15,20,32,,,,,,,,6.6,3.0,6.2*37
2017-12-14 12:05:34 1513271134.517033: $GPGSV,3,1,11,21,69,193,21,24,48,118,29,15,42,051,23,10,37,297,08*70
2017-12-14 12:05:34 1513271134.517203: $GPGSV,3,2,11,20,38,090,20,32,16,234,12,27,19,295,13,18,67,325,00*77
2017-12-14 12:05:34 1513271134.517285: $GPGSV,3,3,11,13,12,046,00,08,04,327,00,120,07,103,00*76
2017-12-14 12:05:34 1513271134.629255: $GPZDA,170535.00,14,12,2017,00,00*61
2017-12-14 12:05:34 1513271134.629422: $GPGGA,170535,3946.9589,N,08404.9268,W,1,05,3.00,350.34,M,-33.324,M,,*72
2017-12-14 12:05:34 1513271134.629488: $GPRMC,170535,A,3946.9589,N,08404.9268,W,2.7044,67.141,141217,,*02
2017-12-14 12:05:34 1513271134.629548: $GPGSA,A,3,21,24,15,20,32,,,,,,,,6.6,3.0,6.2*37
2017-12-14 12:05:35 1513271135.181879: $GPZDA,170536.00,14,12,2017,00,00*62
2017-12-14 12:05:35 1513271135.182106: $GPGGA,170536,3946.9590,N,08404.9269,W,1,05,3.00,351.75,M,-33.324,M,,*7C
2017-12-14 12:05:35 1513271135.182185: $GPRMC,170536,A,3946.9590,N,08404.9269,W,2.5041,77.206,141217,,*0E
2017-12-14 12:05:35 1513271135.182250: $GPGSA,A,3,21,24,15,20,32,,,,,,,,6.6,3.0,6.2*37
