2017-11-15 19:26:14 1510791974.854224: {"class":"VERSION","release":"3.17","rev":"3.17","proto_major":3,"proto_minor":12}
2017-11-15 19:26:14 1510791974.854750: {"class":"DEVICES","devices":[{"class":"DEVICE","path":"/dev/ttyUSB0","driver":"SiRF","subtype":"9\u0006GSD4e_4.1.2-P1_RPATCH.05-F-GPS-4R-1510281 11/03/2015 307","activated":"2017-11-16T00:26:14.486Z","flags":1,"native":1,"bps":4800,"parity":"N","stopbits":1,"cycle":1.00}]}
2017-11-15 19:26:14 1510791974.854881: {"class":"WATCH","enable":true,"json":false,"nmea":true,"raw":0,"scaled":false,"timing":false,"split24":false,"pps":false}
2017-11-15 19:26:15 1510791975.664931: $GPGSV,3,1,11,32,38,105,24,31,70,021,22,16,20,190,05,26,50,174,29*75
2017-11-15 19:26:16 1510791976.402631: $GPGSV,3,2,11,14,57,088,16,29,10,073,15,22,50,274,21,03,38,301,07*78
2017-11-15 19:26:16 1510791976.402756: $GPGSV,3,3,11,23,09,300,15,25,19,040,00,01,07,255,00*49
2017-11-15 19:26:16 1510791976.402846: $GPZDA,002614.00,16,11,2017,00,00*64
2017-11-15 19:26:16 1510791976.402899: $GPGGA,002614,3946.9621,N,08404.9471,W,1,06,1.80,265.05,M,-33.324,M,,*75
2017-11-15 19:26:16 1510791976.402954: $GPRMC,002614,A,3946.9621,N,08404.9471,W,0.7238,140.710,161117,,*35
2017-11-15 19:26:16 1510791976.403009: $GPGSA,A,3,32,31,26,14,22,3,,,,,,,3.4,1.8,2.9*06
2017-11-15 19:26:16 1510791976.403682: $GPZDA,002615.00,16,11,2017,00,00*65
2017-11-15 19:26:16 1510791976.403751: $GPGGA,002615,3946.9617,N,08404.9464,W,1,06,1.60,264.49,M,-33.324,M,,*72
2017-11-15 19:26:16 1510791976.403808: $GPRMC,002615,A,3946.9617,N,08404.9464,W,0.2422,93.794,161117,,*0E
2017-11-15 19:26:16 1510791976.403863: $GPGSA,A,3,32,31,26,14,22,3,,,,,,,3.4,1.6,2.9*08
2017-11-15 19:26:17 1510791977.347094: $GPZDA,002616.00,16,11,2017,00,00*66
2017-11-15 19:26:17 1510791977.347280: $GPGGA,002616,3946.9617,N,08404.9464,W,1,06,1.60,264.49,M,-33.324,M,,*71
2017-11-15 19:26:17 1510791977.347344: $GPRMC,002616,A,3946.9617,N,08404.9464,W,0.5857,338.291,161117,,*36
2017-11-15 19:26:17 1510791977.347403: $GPGSA,A,3,32,31,26,14,22,3,,,,,,,3.4,1.6,2.9*08
2017-11-15 19:26:18 1510791978.665350: $GPGSV,3,1,11,32,38,105,24,31,70,021,22,16,20,190,17,26,50,174,29*76
2017-11-15 19:26:18 1510791978.665523: $GPGSV,3,2,11,14,57,088,16,29,10,073,14,22,50,274,22,03,38,301,04*79
2017-11-15 19:26:18 1510791978.665583: $GPGSV,3,3,11,23,09,300,14,25,19,040,00,01,07,255,00*48
2017-11-15 19:26:18 1510791978.778639: $GPZDA,002617.00,16,11,2017,00,00*67
2017-11-15 19:26:18 1510791978.778815: $GPGGA,002617,3946.9617,N,08404.9471,W,1,07,1.40,264.41,M,-33.324,M,,*7F
2017-11-15 19:26:18 1510791978.778878: $GPRMC,002617,A,3946.9617,N,08404.9471,W,0.5857,338.291,161117,,*33
2017-11-15 19:26:18 1510791978.778934: $GPGSA,A,3,32,31,26,14,29,22,23,,,,,,3.4,1.4,2.9*33
2017-11-15 19:26:19 1510791979.328259: $GPZDA,002618.00,16,11,2017,00,00*68
2017-11-15 19:26:19 1510791979.328428: $GPGGA,002618,3946.9617,N,08404.9471,W,1,07,1.40,264.41,M,-33.324,M,,*70
2017-11-15 19:26:19 1510791979.328489: $GPRMC,002618,A,3946.9617,N,08404.9471,W,0.2422,273.794,161117,,*3B
2017-11-15 19:26:19 1510791979.328545: $GPGSA,A,3,32,31,26,14,29,22,23,,,,,,3.4,1.4,2.9*33
2017-11-15 19:26:20 1510791980.329134: $GPZDA,002619.00,16,11,2017,00,00*69
2017-11-15 19:26:20 1510791980.329320: $GPGGA,002619,3946.9617,N,08404.9471,W,1,07,1.40,264.41,M,-33.324,M,,*71
2017-11-15 19:26:20 1510791980.329384: $GPRMC,002619,A,3946.9617,N,08404.9471,W,0.4179,328.778,161117,,*3A
2017-11-15 19:26:20 1510791980.329440: $GPGSA,A,3,32,31,26,14,29,22,23,,,,,,3.4,1.4,2.9*33
2017-11-15 19:26:21 1510791981.682012: $GPGSV,3,1,11,32,38,105,24,31,70,021,22,16,20,190,00,26,50,174,29*70
2017-11-15 19:26:21 1510791981.682157: $GPGSV,3,2,11,14,57,088,16,29,10,073,14,22,50,274,22,03,38,301,04*79
2017-11-15 19:26:21 1510791981.682218: $GPGSV,3,3,11,23,09,300,14,25,19,040,00,01,07,255,00*48
2017-11-15 19:26:21 1510791981.794133: $GPZDA,002620.00,16,11,2017,00,00*63
2017-11-15 19:26:21 1510791981.794313: $GPGGA,002620,3946.9617,N,08404.9471,W,1,07,1.40,264.41,M,-33.324,M,,*7B
2017-11-15 19:26:21 1510791981.794374: $GPRMC,002620,A,3946.9617,N,08404.9471,W,0.1867,0.000,161117,,*32
2017-11-15 19:26:21 1510791981.794481: $GPGSA,A,3,32,31,26,14,29,22,23,,,,,,3.4,1.4,2.9*33
2017-11-15 19:26:22 1510791982.344929: $GPZDA,002621.00,16,11,2017,00,00*62
2017-11-15 19:26:22 1510791982.345115: $GPGGA,002621,3946.9621,N,08404.9471,W,1,07,1.40,265.05,M,-33.324,M,,*7E
2017-11-15 19:26:22 1510791982.345177: $GPRMC,002621,A,3946.9621,N,08404.9471,W,0.4179,328.778,161117,,*34
2017-11-15 19:26:22 1510791982.345261: $GPGSA,A,3,32,31,26,14,29,22,23,,,,,,3.4,1.4,2.9*33
2017-11-15 19:26:23 1510791983.345803: $GPZDA,002622.00,16,11,2017,00,00*61
2017-11-15 19:26:23 1510791983.345968: $GPGGA,002622,3946.9621,N,08404.9464,W,1,07,1.40,265.13,M,-33.324,M,,*7E
2017-11-15 19:26:23 1510791983.346028: $GPRMC,002622,A,3946.9621,N,08404.9464,W,0.0000,0.000,161117,,*39
2017-11-15 19:26:23 1510791983.346102: $GPGSA,A,3,32,31,26,14,29,22,23,,,,,,3.4,1.4,2.9*33
2017-11-15 19:26:24 1510791984.682805: $GPGSV,3,1,11,32,38,105,24,31,70,021,21,16,20,190,18,26,50,174,29*7A
2017-11-15 19:26:24 1510791984.682978: $GPGSV,3,2,11,14,57,088,15,29,10,073,14,22,50,274,22,03,38,301,04*7A
2017-11-15 19:26:24 1510791984.683038: $GPGSV,3,3,11,23,09,300,14,25,19,040,00,01,07,255,00*48
2017-11-15 19:26:24 1510791984.796184: $GPZDA,002623.00,16,11,2017,00,00*60
2017-11-15 19:26:24 1510791984.796367: $GPGGA,002623,3946.9621,N,08404.9464,W,1,07,1.40,265.13,M,-33.324,M,,*7F
2017-11-15 19:26:24 1510791984.796428: $GPRMC,002623,A,3946.9621,N,08404.9464,W,0.5912,309.173,161117,,*38
2017-11-15 19:26:24 1510791984.796484: $GPGSA,A,3,32,31,26,14,29,22,23,,,,,,3.4,1.4,2.9*33
