2017-12-01 16:25:51 1512163551.696895: {"class":"VERSION","release":"3.16","rev":"3.16-4","proto_major":3,"proto_minor":11}
2017-12-01 16:25:51 1512163551.697301: {"class":"DEVICES","devices":[{"class":"DEVICE","path":"/dev/ttyUSB0","driver":"SiRF","subtype":"9\u0006GSD4e_4.1.2-P1_RPATCH.05-F-GPS-4R-1510281 11/03/2015 307","activated":"2017-12-01T21:25:51.590Z","flags":1,"native":1,"bps":4800,"parity":"N","stopbits":1,"cycle":1.00}]}
2017-12-01 16:25:51 1512163551.697423: {"class":"WATCH","enable":true,"json":false,"nmea":true,"raw":0,"scaled":false,"timing":false,"split24":false,"pps":false}
2017-12-01 16:25:52 1512163552.449519: $GPZDA,212553.00,01,12,2017,00,00*62
2017-12-01 16:25:52 1512163552.449695: $GPGGA,212553,3946.9647,N,08404.9764,W,2,10,1.20,301.40,M,-33.324,M,,*7D
2017-12-01 16:25:52 1512163552.449762: $GPRMC,212553,A,3946.9647,N,08404.9764,W,0.0000,0.000,011217,,*39
2017-12-01 16:25:52 1512163552.449823: $GPGSA,A,3,1,10,11,14,22,31,32,18,25,138,,,2.0,1.2,1.5*35
2017-12-01 16:25:53 1512163553.785931: $GPGSV,3,1,12,01,21,303,40,10,50,147,44,11,09,285,39,14,65,322,44*71
2017-12-01 16:25:53 1512163553.786086: $GPGSV,3,2,12,22,17,312,45,31,54,223,49,32,69,022,50,18,20,144,23*71
2017-12-01 16:25:53 1512163553.786152: $GPGSV,3,3,12,25,39,093,30,26,01,183,17,12,23,052,00,138,38,213,36*46
2017-12-01 16:25:53 1512163553.899664: $GPZDA,212554.00,01,12,2017,00,00*65
2017-12-01 16:25:53 1512163553.899835: $GPGGA,212554,3946.9647,N,08404.9764,W,2,11,1.20,301.40,M,-33.324,M,,*7B
2017-12-01 16:25:53 1512163553.899903: $GPRMC,212554,A,3946.9647,N,08404.9764,W,0.0000,0.000,011217,,*3E
2017-12-01 16:25:53 1512163553.899963: $GPGSA,A,3,1,10,11,14,22,31,32,18,25,26,138,,2.0,1.2,1.5*31
2017-12-01 16:25:54 1512163554.454264: $GPZDA,212555.00,01,12,2017,00,00*64
2017-12-01 16:25:54 1512163554.454436: $GPGGA,212555,3946.9647,N,08404.9764,W,2,11,1.20,301.40,M,-33.324,M,,*7A
2017-12-01 16:25:54 1512163554.454503: $GPRMC,212555,A,3946.9647,N,08404.9764,W,0.0000,0.000,011217,,*3F
2017-12-01 16:25:54 1512163554.454563: $GPGSA,A,3,1,10,11,14,22,31,32,18,25,26,138,,2.0,1.2,1.5*31
2017-12-01 16:25:55 1512163555.451436: $GPZDA,212556.00,01,12,2017,00,00*67
2017-12-01 16:25:55 1512163555.451607: $GPGGA,212556,3946.9647,N,08404.9764,W,2,11,1.20,301.40,M,-33.324,M,,*79
2017-12-01 16:25:55 1512163555.451674: $GPRMC,212556,A,3946.9647,N,08404.9764,W,0.0000,0.000,011217,,*3C
2017-12-01 16:25:55 1512163555.451734: $GPGSA,A,3,1,10,11,14,22,31,32,18,25,26,138,,2.0,1.2,1.5*31
2017-12-01 16:25:56 1512163556.801823: $GPGSV,3,1,12,01,21,303,41,10,50,147,44,11,09,285,39,14,65,322,44*70
2017-12-01 16:25:56 1512163556.802008: $GPGSV,3,2,12,22,17,312,45,31,54,223,49,32,69,022,49,18,20,144,02*7A
2017-12-01 16:25:56 1512163556.802075: $GPGSV,3,3,12,25,39,093,31,12,23,052,00,26,01,183,00,138,38,213,39*4E
2017-12-01 16:25:56 1512163556.915212: $GPZDA,212557.00,01,12,2017,00,00*66
2017-12-01 16:25:56 1512163556.915369: $GPGGA,212557,3946.9647,N,08404.9764,W,2,09,1.20,301.40,M,-33.324,M,,*71
2017-12-01 16:25:56 1512163556.915435: $GPRMC,212557,A,3946.9647,N,08404.9764,W,0.0000,0.000,011217,,*3D
2017-12-01 16:25:56 1512163556.915496: $GPGSA,A,3,1,10,11,14,22,31,32,25,138,,,,2.0,1.2,1.5*3C
2017-12-01 16:25:57 1512163557.468558: $GPZDA,212558.00,01,12,2017,00,00*69
2017-12-01 16:25:57 1512163557.468745: $GPGGA,212558,3946.9647,N,08404.9764,W,2,09,1.20,301.40,M,-33.324,M,,*7E
2017-12-01 16:25:57 1512163557.468830: $GPRMC,212558,A,3946.9647,N,08404.9764,W,0.0000,0.000,011217,,*32
2017-12-01 16:25:57 1512163557.468892: $GPGSA,A,3,1,10,11,14,22,31,32,25,138,,,,2.0,1.2,1.5*3C
2017-12-01 16:25:58 1512163558.469206: $GPZDA,212559.00,01,12,2017,00,00*68
2017-12-01 16:25:58 1512163558.469400: $GPGGA,212559,3946.9647,N,08404.9764,W,2,09,1.20,301.40,M,-33.324,M,,*7F
2017-12-01 16:25:58 1512163558.469469: $GPRMC,212559,A,3946.9647,N,08404.9764,W,0.0000,0.000,011217,,*33
2017-12-01 16:25:58 1512163558.469530: $GPGSA,A,3,1,10,11,14,22,31,32,25,138,,,,2.0,1.2,1.5*3C
2017-12-01 16:25:59 1512163559.804636: $GPGSV,3,1,12,01,21,303,41,10,50,147,44,11,09,285,39,14,65,322,44*70
2017-12-01 16:25:59 1512163559.804897: $GPGSV,3,2,12,22,17,312,44,31,54,223,49,32,69,022,49,18,20,144,20*7B
2017-12-01 16:25:59 1512163559.804966: $GPGSV,3,3,12,25,39,093,30,12,23,052,00,26,01,183,00,138,38,213,40*41
2017-12-01 16:25:59 1512163559.916824: $GPZDA,212600.00,01,12,2017,00,00*67
2017-12-01 16:25:59 1512163559.916992: $GPGGA,212600,3946.9647,N,08404.9764,W,2,10,1.20,301.40,M,-33.324,M,,*78
2017-12-01 16:25:59 1512163559.917059: $GPRMC,212600,A,3946.9647,N,08404.9764,W,0.0000,0.000,011217,,*3C
2017-12-01 16:25:59 1512163559.917120: $GPGSA,A,3,1,10,11,14,22,31,32,18,25,138,,,2.0,1.2,1.5*35
2017-12-01 16:26:00 1512163560.470573: $GPZDA,212601.00,01,12,2017,00,00*66
2017-12-01 16:26:00 1512163560.470763: $GPGGA,212601,3946.9647,N,08404.9764,W,2,10,1.20,301.40,M,-33.324,M,,*79
2017-12-01 16:26:00 1512163560.470846: $GPRMC,212601,A,3946.9647,N,08404.9764,W,0.0000,0.000,011217,,*3D
2017-12-01 16:26:00 1512163560.470909: $GPGSA,A,3,1,10,11,14,22,31,32,18,25,138,,,2.0,1.2,1.5*35
2017-12-01 16:26:01 1512163561.453984: $GPZDA,212602.00,01,12,2017,00,00*65
2017-12-01 16:26:01 1512163561.454150: $GPGGA,212602,3946.9647,N,08404.9764,W,2,10,1.20,301.40,M,-33.324,M,,*7A
2017-12-01 16:26:01 1512163561.454218: $GPRMC,212602,A,3946.9647,N,08404.9764,W,0.0000,0.000,011217,,*3E
2017-12-01 16:26:01 1512163561.454278: $GPGSA,A,3,1,10,11,14,22,31,32,18,25,138,,,2.0,1.2,1.5*35
2017-12-01 16:26:02 1512163562.788004: $GPGSV,3,1,12,01,21,303,41,10,50,147,44,11,09,285,38,14,65,322,44*71
2017-12-01 16:26:02 1512163562.788188: $GPGSV,3,2,12,22,17,312,44,31,54,223,49,32,69,022,49,12,23,052,00*76
2017-12-01 16:26:02 1512163562.788253: $GPGSV,3,3,12,25,39,093,24,18,20,144,00,26,01,183,00,138,38,213,39*45
2017-12-01 16:26:02 1512163562.901591: $GPZDA,212603.00,01,12,2017,00,00*64
2017-12-01 16:26:02 1512163562.901818: $GPGGA,212603,3946.9647,N,08404.9764,W,2,09,1.20,301.40,M,-33.324,M,,*73
2017-12-01 16:26:02 1512163562.901908: $GPRMC,212603,A,3946.9647,N,08404.9764,W,0.0000,0.000,011217,,*3F
2017-12-01 16:26:02 1512163562.901970: $GPGSA,A,3,1,10,11,14,22,31,32,25,138,,,,2.0,1.2,1.5*3C
2017-12-01 16:26:03 1512163563.527129: $GPZDA,212604.00,01,12,2017,00,00*63
2017-12-01 16:26:03 1512163563.527311: $GPGGA,212604,3946.9647,N,08404.9764,W,2,09,1.20,301.40,M,-33.324,M,,*74
2017-12-01 16:26:03 1512163563.527405: $GPRMC,212604,A,3946.9647,N,08404.9764,W,0.0000,0.000,011217,,*38
2017-12-01 16:26:03 1512163563.527469: $GPGSA,A,3,1,10,11,14,22,31,32,25,138,,,,2.0,1.2,1.5*3C
2017-12-01 16:26:04 1512163564.471797: $GPZDA,212605.00,01,12,2017,00,00*62
2017-12-01 16:26:04 1512163564.471966: $GPGGA,212605,3946.9647,N,08404.9764,W,2,09,1.20,301.40,M,-33.324,M,,*75
2017-12-01 16:26:04 1512163564.472033: $GPRMC,212605,A,3946.9647,N,08404.9764,W,0.0000,0.000,011217,,*39
2017-12-01 16:26:04 1512163564.472094: $GPGSA,A,3,1,10,11,14,22,31,32,25,138,,,,2.0,1.2,1.5*3C
2017-12-01 16:26:05 1512163565.788421: $GPGSV,3,1,12,01,21,303,41,10,50,147,44,11,09,285,38,14,65,322,44*71
2017-12-01 16:26:05 1512163565.788599: $GPGSV,3,2,12,22,17,312,44,31,54,223,49,32,69,022,49,12,23,052,00*76
2017-12-01 16:26:05 1512163565.788667: $GPGSV,3,3,12,25,39,093,19,18,20,144,00,26,01,183,00,138,38,213,38*4A
2017-12-01 16:26:05 1512163565.902267: $GPZDA,212606.00,01,12,2017,00,00*61
2017-12-01 16:26:05 1512163565.902435: $GPGGA,212606,3946.9647,N,08404.9764,W,2,09,1.20,301.40,M,-33.324,M,,*76
2017-12-01 16:26:05 1512163565.902501: $GPRMC,212606,A,3946.9647,N,08404.9764,W,0.0000,0.000,011217,,*3A
2017-12-01 16:26:05 1512163565.902564: $GPGSA,A,3,1,10,11,14,22,31,32,25,138,,,,2.0,1.2,1.5*3C
2017-12-01 16:26:06 1512163566.470482: $GPZDA,212607.00,01,12,2017,00,00*60
2017-12-01 16:26:06 1512163566.470655: $GPGGA,212607,3946.9647,N,08404.9764,W,2,09,1.80,301.40,M,-33.324,M,,*7D
2017-12-01 16:26:06 1512163566.470724: $GPRMC,212607,A,3946.9647,N,08404.9764,W,0.0000,0.000,011217,,*3B
2017-12-01 16:26:06 1512163566.470789: $GPGSA,A,3,1,10,11,14,22,31,32,25,138,,,,2.0,1.8,1.5*36
2017-12-01 16:26:07 1512163567.469750: $GPZDA,212608.00,01,12,2017,00,00*6F
2017-12-01 16:26:07 1512163567.469990: $GPGGA,212608,3946.9647,N,08404.9764,W,2,09,1.20,301.40,M,-33.324,M,,*78
2017-12-01 16:26:07 1512163567.470061: $GPRMC,212608,A,3946.9647,N,08404.9764,W,0.0000,0.000,011217,,*34
2017-12-01 16:26:07 1512163567.470123: $GPGSA,A,3,1,10,11,14,22,31,32,25,138,,,,2.0,1.2,1.5*3C
2017-12-01 16:26:08 1512163568.804946: $GPGSV,3,1,12,01,21,303,41,10,50,147,44,11,09,285,37,14,65,322,44*7E
2017-12-01 16:26:08 1512163568.805145: $GPGSV,3,2,12,22,17,312,44,31,54,223,50,32,69,022,49,25,39,093,00*7C
2017-12-01 16:26:08 1512163568.805212: $GPGSV,3,3,12,12,23,052,00,18,20,144,00,26,01,183,00,138,38,213,40*4F
2017-12-01 16:26:08 1512163568.918402: $GPZDA,212609.00,01,12,2017,00,00*6E
2017-12-01 16:26:08 1512163568.918552: $GPGGA,212609,3946.9647,N,08404.9764,W,2,08,1.80,301.40,M,-33.324,M,,*72
2017-12-01 16:26:08 1512163568.918619: $GPRMC,212609,A,3946.9647,N,08404.9764,W,0.0000,0.000,011217,,*35
2017-12-01 16:26:08 1512163568.918683: $GPGSA,A,3,1,10,11,14,22,31,32,138,,,,,2.0,1.8,1.5*31
2017-12-01 16:26:09 1512163569.458317: $GPZDA,212610.00,01,12,2017,00,00*66
2017-12-01 16:26:09 1512163569.458478: $GPGGA,212610,3946.9647,N,08404.9764,W,2,08,1.80,301.40,M,-33.324,M,,*7A
2017-12-01 16:26:09 1512163569.458545: $GPRMC,212610,A,3946.9647,N,08404.9764,W,0.0000,0.000,011217,,*3D
2017-12-01 16:26:09 1512163569.458606: $GPGSA,A,3,1,10,11,14,22,31,32,138,,,,,2.0,1.8,1.5*31
2017-12-01 16:26:10 1512163570.470431: $GPZDA,212611.00,01,12,2017,00,00*67
2017-12-01 16:26:10 1512163570.470591: $GPGGA,212611,3946.9647,N,08404.9764,W,2,08,1.20,301.40,M,-33.324,M,,*71
2017-12-01 16:26:10 1512163570.470657: $GPRMC,212611,A,3946.9647,N,08404.9764,W,0.0000,0.000,011217,,*3C
2017-12-01 16:26:10 1512163570.470718: $GPGSA,A,3,1,10,11,14,22,31,32,138,,,,,2.0,1.2,1.5*3B
