2017-12-01 17:15:40 1512166540.576616: {"class":"VERSION","release":"3.16","rev":"3.16-4","proto_major":3,"proto_minor":11}
2017-12-01 17:15:40 1512166540.577009: {"class":"DEVICES","devices":[{"class":"DEVICE","path":"/dev/ttyUSB0","driver":"SiRF","subtype":"9\u0006GSD4e_4.1.2-P1_RPATCH.05-F-GPS-4R-1510281 11/03/2015 307","activated":"2017-12-01T22:15:40.440Z","flags":1,"native":1,"bps":4800,"parity":"N","stopbits":1,"cycle":1.00}]}
2017-12-01 17:15:40 1512166540.577127: {"class":"WATCH","enable":true,"json":false,"nmea":true,"raw":0,"scaled":false,"timing":false,"split24":false,"pps":false}
2017-12-01 17:15:41 1512166541.043581: $GPZDA,221541.70,01,12,2017,00,00*66
2017-12-01 17:15:41 1512166541.043767: $GPGGA,221541,3946.9639,N,08404.9774,W,1,12,1.40,306.42,M,-33.324,M,,*74
2017-12-01 17:15:41 1512166541.043850: $GPRMC,221541,A,3946.9639,N,08404.9774,W,0.3133,9.200,011217,,*3B
2017-12-01 17:15:41 1512166541.043915: $GPGSA,A,3,1,3,10,12,14,22,26,31,32,11,25,138,2.0,1.4,1.5*0E
2017-12-01 17:15:41 1512166541.043975: $GPGBS,221541,10.70,M,15.43,M,35.28,M*06
2017-12-01 17:15:42 1512166542.461156: $GPGSV,3,1,12,01,20,279,31,03,17,316,31,10,26,156,30,14,70,024,36*73
2017-12-01 17:15:42 1512166542.461398: $GPGSV,3,2,12,22,36,306,35,26,21,178,30,31,76,261,38,32,58,072,38*78
2017-12-01 17:15:42 1512166542.461480: $GPGSV,3,3,12,25,38,063,00,12,10,034,00,11,01,265,00,138,38,213,00*47
2017-12-01 17:15:42 1512166542.574801: $GPZDA,221542.38,01,12,2017,00,00*69
2017-12-01 17:15:42 1512166542.574969: $GPGGA,221542,3946.9642,N,08404.9774,W,1,08,1.40,305.66,M,-33.324,M,,*75
2017-12-01 17:15:42 1512166542.575037: $GPRMC,221542,A,3946.9642,N,08404.9774,W,0.3006,62.539,011217,,*03
2017-12-01 17:15:42 1512166542.575119: $GPGSA,A,3,1,3,10,14,22,26,31,32,,,,,2.0,1.4,1.5*30
2017-12-01 17:15:43 1512166543.381467: $GPZDA,221543.00,01,12,2017,00,00*63
2017-12-01 17:15:43 1512166543.381644: $GPGGA,221543,3946.9642,N,08404.9774,W,1,08,1.00,305.66,M,-33.324,M,,*70
2017-12-01 17:15:43 1512166543.381713: $GPRMC,221543,A,3946.9642,N,08404.9774,W,0.0000,0.000,011217,,*3C
2017-12-01 17:15:43 1512166543.381777: $GPGSA,A,3,1,3,10,14,22,26,31,32,,,,,2.0,1.0,1.5*34
2017-12-01 17:15:43 1512166543.381836: $GPGBS,221543,10.70,M,15.43,M,35.28,M*04
2017-12-01 17:15:43 1512166543.832225: $GPZDA,221544.00,01,12,2017,00,00*64
2017-12-01 17:15:43 1512166543.832402: $GPGGA,221544,3946.9646,N,08404.9773,W,1,08,0.80,304.89,M,-33.324,M,,*7D
2017-12-01 17:15:43 1512166543.832471: $GPRMC,221544,A,3946.9646,N,08404.9773,W,0.3006,62.539,011217,,*06
2017-12-01 17:15:43 1512166543.832536: $GPGSA,A,3,1,3,10,14,22,26,31,32,,,,,2.0,0.8,1.5*3D
2017-12-01 17:15:43 1512166543.832596: $GPGBS,221544,10.70,M,15.43,M,35.28,M*03
2017-12-01 17:15:44 1512166544.772667: $GPGSV,3,1,12,01,20,279,41,03,17,316,38,10,26,156,36,14,70,025,46*7D
2017-12-01 17:15:44 1512166544.772848: $GPGSV,3,2,12,22,36,306,44,26,21,178,37,31,76,261,48,32,58,072,49*78
2017-12-01 17:15:44 1512166544.772918: $GPGSV,3,3,12,11,01,265,29,12,10,034,22,25,38,063,29,138,38,213,31*45
2017-12-01 17:15:44 1512166544.886268: $GPZDA,221545.00,01,12,2017,00,00*65
2017-12-01 17:15:44 1512166544.886413: $GPGGA,221545,3946.9649,N,08404.9772,W,1,12,0.80,304.13,M,-33.324,M,,*7A
2017-12-01 17:15:44 1512166544.886481: $GPRMC,221545,A,3946.9649,N,08404.9772,W,0.0000,0.000,011217,,*37
2017-12-01 17:15:44 1512166544.886544: $GPGSA,A,3,1,3,10,14,22,26,31,32,11,12,25,138,2.0,0.8,1.5*03
2017-12-01 17:15:45 1512166545.511439: $GPZDA,221546.00,01,12,2017,00,00*66
2017-12-01 17:15:45 1512166545.511649: $GPGGA,221546,3946.9653,N,08404.9771,W,1,12,0.80,303.37,M,-33.324,M,,*70
2017-12-01 17:15:45 1512166545.511749: $GPRMC,221546,A,3946.9653,N,08404.9771,W,0.0000,0.000,011217,,*3C
2017-12-01 17:15:45 1512166545.511836: $GPGSA,A,3,1,3,10,14,22,26,31,32,11,12,25,138,2.0,0.8,1.5*03
2017-12-01 17:15:46 1512166546.437312: $GPZDA,221547.00,01,12,2017,00,00*67
2017-12-01 17:15:46 1512166546.437498: $GPGGA,221547,3946.9648,N,08404.9771,W,1,12,0.80,302.73,M,-33.324,M,,*7A
2017-12-01 17:15:46 1512166546.437569: $GPRMC,221547,A,3946.9648,N,08404.9771,W,0.0000,0.000,011217,,*37
2017-12-01 17:15:46 1512166546.437688: $GPGSA,A,3,1,3,10,14,22,26,31,32,11,12,25,138,2.0,0.8,1.5*03
2017-12-01 17:15:47 1512166547.772897: $GPGSV,3,1,12,01,20,279,34,03,17,316,38,10,26,156,36,14,70,025,46*7F
2017-12-01 17:15:47 1512166547.773080: $GPGSV,3,2,12,22,36,306,43,26,21,178,36,31,76,261,48,32,58,072,49*7E
2017-12-01 17:15:47 1512166547.773147: $GPGSV,3,3,12,11,01,265,30,12,10,034,23,25,38,063,30,138,38,213,41*43
2017-12-01 17:15:47 1512166547.886644: $GPZDA,221548.00,01,12,2017,00,00*68
2017-12-01 17:15:47 1512166547.886826: $GPGGA,221548,3946.9668,N,08404.9759,W,2,12,1.60,296.81,M,-33.324,M,,*70
2017-12-01 17:15:47 1512166547.886893: $GPRMC,221548,A,3946.9668,N,08404.9759,W,0.0000,0.000,011217,,*30
2017-12-01 17:15:47 1512166547.886954: $GPGSA,A,3,1,3,10,14,22,26,31,32,11,12,25,138,2.0,1.6,1.5*0C
2017-12-01 17:15:48 1512166548.438757: $GPZDA,221549.00,01,12,2017,00,00*69
2017-12-01 17:15:48 1512166548.438926: $GPGGA,221549,3946.9668,N,08404.9766,W,2,12,1.60,295.33,M,-33.324,M,,*77
2017-12-01 17:15:48 1512166548.438992: $GPRMC,221549,A,3946.9668,N,08404.9766,W,0.0000,0.000,011217,,*3D
2017-12-01 17:15:48 1512166548.439053: $GPGSA,A,3,1,3,10,14,22,26,31,32,11,12,25,138,2.0,1.6,1.5*0C
2017-12-01 17:15:49 1512166549.438380: $GPZDA,221550.00,01,12,2017,00,00*61
2017-12-01 17:15:49 1512166549.438537: $GPGGA,221550,3946.9664,N,08404.9773,W,2,12,1.60,294.61,M,-33.324,M,,*71
2017-12-01 17:15:49 1512166549.438604: $GPRMC,221550,A,3946.9664,N,08404.9773,W,0.2422,273.794,011217,,*37
2017-12-01 17:15:49 1512166549.438665: $GPGSA,A,3,1,3,10,14,22,26,31,32,11,12,25,138,2.0,1.6,1.5*0C
2017-12-01 17:15:50 1512166550.773275: $GPGSV,3,1,12,01,20,279,38,03,17,316,38,10,26,156,36,14,70,025,46*73
2017-12-01 17:15:50 1512166550.773468: $GPGSV,3,2,12,22,36,306,42,26,21,178,37,31,76,261,48,32,58,072,49*7E
2017-12-01 17:15:50 1512166550.773555: $GPGSV,3,3,12,11,01,265,30,12,10,034,28,25,38,063,30,138,38,213,41*48
2017-12-01 17:15:50 1512166550.886617: $GPZDA,221551.00,01,12,2017,00,00*60
2017-12-01 17:15:50 1512166550.886771: $GPGGA,221551,3946.9663,N,08404.9772,W,2,12,1.60,293.21,M,-33.324,M,,*75
2017-12-01 17:15:50 1512166550.886837: $GPRMC,221551,A,3946.9663,N,08404.9772,W,0.2422,93.794,011217,,*0C
2017-12-01 17:15:50 1512166550.886898: $GPGSA,A,3,1,3,10,14,22,26,31,32,11,12,25,138,2.0,1.6,1.5*0C
2017-12-01 17:15:51 1512166551.437775: $GPZDA,221552.00,01,12,2017,00,00*63
2017-12-01 17:15:51 1512166551.437946: $GPGGA,221552,3946.9660,N,08404.9773,W,2,12,0.80,293.97,M,-33.324,M,,*76
2017-12-01 17:15:51 1512166551.438013: $GPRMC,221552,A,3946.9660,N,08404.9773,W,0.1867,180.000,011217,,*3A
2017-12-01 17:15:51 1512166551.438074: $GPGSA,A,3,1,3,10,14,22,26,31,32,11,12,25,138,2.0,0.8,1.5*03
2017-12-01 17:15:52 1512166552.440154: $GPZDA,221553.00,01,12,2017,00,00*62
2017-12-01 17:15:52 1512166552.440329: $GPGGA,221553,3946.9652,N,08404.9773,W,2,12,0.80,294.10,M,-33.324,M,,*7E
2017-12-01 17:15:52 1512166552.440395: $GPRMC,221553,A,3946.9652,N,08404.9773,W,0.0407,322.013,011217,,*39
2017-12-01 17:15:52 1512166552.440456: $GPGSA,A,3,1,3,10,14,22,26,31,32,11,12,25,138,2.0,0.8,1.5*03
2017-12-01 17:15:53 1512166553.775420: $GPGSV,3,1,12,01,20,279,40,03,17,316,38,10,26,156,36,14,70,025,46*7C
2017-12-01 17:15:53 1512166553.775606: $GPGSV,3,2,12,22,36,306,43,26,21,178,37,31,76,261,48,32,58,072,48*7E
2017-12-01 17:15:53 1512166553.775673: $GPGSV,3,3,12,11,01,265,31,12,10,034,28,25,38,063,31,138,38,213,39*47
2017-12-01 17:15:53 1512166553.888897: $GPZDA,221554.00,01,12,2017,00,00*65
2017-12-01 17:15:53 1512166553.889065: $GPGGA,221554,3946.9652,N,08404.9773,W,2,12,0.80,294.10,M,-33.324,M,,*79
2017-12-01 17:15:53 1512166553.889131: $GPRMC,221554,A,3946.9652,N,08404.9773,W,0.0000,0.000,011217,,*3C
2017-12-01 17:15:53 1512166553.889192: $GPGSA,A,3,1,3,10,14,22,26,31,32,11,12,25,138,2.0,0.8,1.5*03
2017-12-01 17:15:54 1512166554.439916: $GPZDA,221555.00,01,12,2017,00,00*64
2017-12-01 17:15:54 1512166554.440102: $GPGGA,221555,3946.9652,N,08404.9773,W,2,12,0.80,294.10,M,-33.324,M,,*78
2017-12-01 17:15:54 1512166554.440218: $GPRMC,221555,A,3946.9652,N,08404.9773,W,0.0000,0.000,011217,,*3D
2017-12-01 17:15:54 1512166554.440279: $GPGSA,A,3,1,3,10,14,22,26,31,32,11,12,25,138,2.0,0.8,1.5*03
2017-12-01 17:15:55 1512166555.439146: $GPZDA,221556.00,01,12,2017,00,00*67
2017-12-01 17:15:55 1512166555.439315: $GPGGA,221556,3946.9652,N,08404.9773,W,2,12,0.80,294.10,M,-33.324,M,,*7B
2017-12-01 17:15:55 1512166555.439380: $GPRMC,221556,A,3946.9652,N,08404.9773,W,0.0000,0.000,011217,,*3E
2017-12-01 17:15:55 1512166555.439441: $GPGSA,A,3,1,3,10,14,22,26,31,32,11,12,25,138,2.0,0.8,1.5*03
2017-12-01 17:15:56 1512166556.773311: $GPGSV,3,1,12,01,20,279,41,03,17,316,39,10,26,156,36,14,70,025,46*7C
2017-12-01 17:15:56 1512166556.773472: $GPGSV,3,2,12,22,36,306,43,26,21,178,37,31,76,261,48,32,58,072,49*7F
2017-12-01 17:15:56 1512166556.773559: $GPGSV,3,3,12,11,01,265,32,12,10,034,29,25,38,063,32,138,38,213,41*49
2017-12-01 17:15:56 1512166556.886997: $GPZDA,221557.00,01,12,2017,00,00*66
2017-12-01 17:15:56 1512166556.887165: $GPGGA,221557,3946.9652,N,08404.9773,W,2,12,0.80,294.10,M,-33.324,M,,*7A
2017-12-01 17:15:56 1512166556.887231: $GPRMC,221557,A,3946.9652,N,08404.9773,W,0.0000,0.000,011217,,*3F
2017-12-01 17:15:56 1512166556.887292: $GPGSA,A,3,1,3,10,14,22,26,31,32,11,12,25,138,2.0,0.8,1.5*03
2017-12-01 17:15:57 1512166557.439135: $GPZDA,221558.00,01,12,2017,00,00*69
2017-12-01 17:15:57 1512166557.439308: $GPGGA,221558,3946.9652,N,08404.9773,W,2,12,0.80,294.10,M,-33.324,M,,*75
2017-12-01 17:15:57 1512166557.439375: $GPRMC,221558,A,3946.9652,N,08404.9773,W,0.0000,0.000,011217,,*30
2017-12-01 17:15:57 1512166557.439435: $GPGSA,A,3,1,3,10,14,22,26,31,32,11,12,25,138,2.0,0.8,1.5*03
2017-12-01 17:15:58 1512166558.438482: $GPZDA,221559.00,01,12,2017,00,00*68
2017-12-01 17:15:58 1512166558.438673: $GPGGA,221559,3946.9652,N,08404.9773,W,2,12,0.80,294.10,M,-33.324,M,,*74
2017-12-01 17:15:58 1512166558.438742: $GPRMC,221559,A,3946.9652,N,08404.9773,W,0.0000,0.000,011217,,*31
2017-12-01 17:15:58 1512166558.438803: $GPGSA,A,3,1,3,10,14,22,26,31,32,11,12,25,138,2.0,0.8,1.5*03
2017-12-01 17:15:59 1512166559.774035: $GPGSV,3,1,12,01,20,279,41,03,17,316,39,10,26,156,37,14,70,025,46*7D
2017-12-01 17:15:59 1512166559.774218: $GPGSV,3,2,12,22,36,306,44,26,21,178,37,31,76,261,48,32,58,072,49*78
2017-12-01 17:15:59 1512166559.774285: $GPGSV,3,3,12,11,01,265,32,12,10,034,29,25,38,063,32,138,38,213,42*4A
2017-12-01 17:15:59 1512166559.887735: $GPZDA,221600.00,01,12,2017,00,00*67
2017-12-01 17:15:59 1512166559.887898: $GPGGA,221600,3946.9652,N,08404.9773,W,2,12,0.80,294.10,M,-33.324,M,,*7B
2017-12-01 17:15:59 1512166559.887964: $GPRMC,221600,A,3946.9652,N,08404.9773,W,0.0000,0.000,011217,,*3E
2017-12-01 17:15:59 1512166559.888026: $GPGSA,A,3,1,3,10,14,22,26,31,32,11,12,25,138,2.0,0.8,1.5*03
2017-12-01 17:16:00 1512166560.513067: $GPZDA,221601.00,01,12,2017,00,00*66
2017-12-01 17:16:00 1512166560.513235: $GPGGA,221601,3946.9652,N,08404.9773,W,2,12,0.80,294.10,M,-33.324,M,,*7A
2017-12-01 17:16:00 1512166560.513302: $GPRMC,221601,A,3946.9652,N,08404.9773,W,0.0000,0.000,011217,,*3F
2017-12-01 17:16:00 1512166560.513363: $GPGSA,A,3,1,3,10,14,22,26,31,32,11,12,25,138,2.0,0.8,1.5*03
