2017-12-14 12:19:46 1513271986.063438: {"class":"VERSION","release":"3.16","rev":"3.16-4","proto_major":3,"proto_minor":11}
2017-12-14 12:19:46 1513271986.063840: {"class":"DEVICES","devices":[{"class":"DEVICE","path":"/dev/ttyUSB0","driver":"SiRF","subtype":"9\u0006GSD4e_4.1.2-P1_RPATCH.05-F-GPS-4R-1510281 11/03/2015 307","activated":"2017-12-14T17:19:45.338Z","flags":1,"native":1,"bps":4800,"parity":"N","stopbits":1,"cycle":1.00}]}
2017-12-14 12:19:46 1513271986.063971: {"class":"WATCH","enable":true,"json":false,"nmea":true,"raw":0,"scaled":false,"timing":false,"split24":false,"pps":false}
2017-12-14 12:19:46 1513271986.197833: $GPZDA,171947.00,14,12,2017,00,00*69
2017-12-14 12:19:46 1513271986.198009: $GPGGA,171947,3946.9455,N,08404.9322,W,1,08,1.80,312.94,M,-33.324,M,,*7E
2017-12-14 12:19:46 1513271986.198077: $GPRMC,171947,A,3946.9455,N,08404.9322,W,0.8359,148.779,141217,,*36
2017-12-14 12:19:46 1513271986.198137: $GPGSA,A,3,15,20,24,32,21,14,27,18,,,,,6.6,1.8,6.2*34
2017-12-14 12:19:47 1513271987.533581: $GPGSV,3,1,12,15,37,052,24,20,33,096,19,24,51,109,30,32,22,238,18*74
2017-12-14 12:19:47 1513271987.533737: $GPGSV,3,2,12,21,62,187,27,14,04,232,14,27,19,289,10,10,42,301,11*7A
2017-12-14 12:19:47 1513271987.533802: $GPGSV,3,3,12,18,72,339,20,13,07,049,00,08,06,322,00,138,38,213,00*49
2017-12-14 12:19:47 1513271987.646952: $GPZDA,171948.00,14,12,2017,00,00*66
2017-12-14 12:19:47 1513271987.647118: $GPGGA,171948,3946.9463,N,08404.9322,W,1,09,1.80,314.22,M,-33.324,M,,*7E
2017-12-14 12:19:47 1513271987.647183: $GPRMC,171948,A,3946.9463,N,08404.9322,W,0.7238,140.710,141217,,*32
2017-12-14 12:19:47 1513271987.647243: $GPGSA,A,3,15,20,24,32,21,14,27,10,18,,,,6.6,1.8,6.2*35
2017-12-14 12:19:48 1513271988.198335: $GPZDA,171949.00,14,12,2017,00,00*67
2017-12-14 12:19:48 1513271988.198493: $GPGGA,171949,3946.9464,N,08404.9323,W,1,09,1.80,315.63,M,-33.324,M,,*7D
2017-12-14 12:19:48 1513271988.198576: $GPRMC,171949,A,3946.9464,N,08404.9323,W,0.4207,219.347,141217,,*33
2017-12-14 12:19:48 1513271988.198638: $GPGSA,A,3,15,20,24,32,21,14,27,10,18,,,,6.6,1.8,6.2*35
2017-12-14 12:19:49 1513271989.198436: $GPZDA,171950.00,14,12,2017,00,00*6F
2017-12-14 12:19:49 1513271989.198627: $GPGGA,171950,3946.9464,N,08404.9330,W,1,09,1.80,315.55,M,-33.324,M,,*72
2017-12-14 12:19:49 1513271989.198710: $GPRMC,171950,A,3946.9464,N,08404.9330,W,0.8414,219.347,141217,,*31
2017-12-14 12:19:49 1513271989.198772: $GPGSA,A,3,15,20,24,32,21,14,27,10,18,,,,6.6,1.8,6.2*35
2017-12-14 12:19:50 1513271990.533378: $GPGSV,3,1,12,15,37,052,24,20,33,096,19,24,51,109,30,32,22,238,18*74
2017-12-14 12:19:50 1513271990.533574: $GPGSV,3,2,12,21,62,187,26,13,07,049,00,27,19,289,10,10,42,301,04*70
2017-12-14 12:19:50 1513271990.533641: $GPGSV,3,3,12,18,72,339,21,08,06,322,00,14,04,232,00,138,38,213,00*42
2017-12-14 12:19:50 1513271990.646837: $GPZDA,171951.00,14,12,2017,00,00*6E
2017-12-14 12:19:50 1513271990.646985: $GPGGA,171951,3946.9464,N,08404.9330,W,1,07,1.80,315.55,M,-33.324,M,,*7D
2017-12-14 12:19:50 1513271990.647052: $GPRMC,171951,A,3946.9464,N,08404.9330,W,0.4844,273.795,141217,,*32
2017-12-14 12:19:50 1513271990.647112: $GPGSA,A,3,15,20,24,32,21,27,18,,,,,,6.6,1.8,6.2*31
2017-12-14 12:19:51 1513271991.196926: $GPZDA,171952.00,14,12,2017,00,00*6D
2017-12-14 12:19:51 1513271991.197093: $GPGGA,171952,3946.9464,N,08404.9330,W,1,07,1.80,315.55,M,-33.324,M,,*7E
2017-12-14 12:19:51 1513271991.197158: $GPRMC,171952,A,3946.9464,N,08404.9330,W,0.5951,238.685,141217,,*3A
2017-12-14 12:19:51 1513271991.197219: $GPGSA,A,3,15,20,24,32,21,27,18,,,,,,6.6,1.8,6.2*31
2017-12-14 12:19:52 1513271992.214095: $GPZDA,171953.00,14,12,2017,00,00*6C
2017-12-14 12:19:52 1513271992.214265: $GPGGA,171953,3946.9461,N,08404.9337,W,1,07,1.80,316.23,M,-33.324,M,,*7F
2017-12-14 12:19:52 1513271992.214332: $GPRMC,171953,A,3946.9461,N,08404.9337,W,0.4844,273.795,141217,,*32
2017-12-14 12:19:52 1513271992.214393: $GPGSA,A,3,15,20,24,32,21,27,18,,,,,,6.6,1.8,6.2*31
2017-12-14 12:19:53 1513271993.533992: $GPGSV,3,1,12,15,37,052,25,20,33,096,19,24,51,109,30,32,22,238,18*75
2017-12-14 12:19:53 1513271993.534234: $GPGSV,3,2,12,21,62,187,25,13,07,049,00,27,19,289,09,10,42,301,06*79
2017-12-14 12:19:53 1513271993.534303: $GPGSV,3,3,12,18,72,339,21,08,06,322,00,14,04,232,00,138,38,213,00*42
2017-12-14 12:19:53 1513271993.647467: $GPZDA,171954.00,14,12,2017,00,00*6B
2017-12-14 12:19:53 1513271993.647650: $GPGGA,171954,3946.9469,N,08404.9337,W,1,08,1.80,316.11,M,-33.324,M,,*7E
2017-12-14 12:19:53 1513271993.647732: $GPRMC,171954,A,3946.9469,N,08404.9337,W,0.6846,4.197,141217,,*3B
2017-12-14 12:19:53 1513271993.647793: $GPGSA,A,3,15,20,24,32,21,27,10,18,,,,,6.6,1.8,6.2*30
2017-12-14 12:19:54 1513271994.214217: $GPZDA,171955.00,14,12,2017,00,00*6A
2017-12-14 12:19:54 1513271994.214382: $GPGGA,171955,3946.9469,N,08404.9337,W,1,08,1.80,316.11,M,-33.324,M,,*7F
2017-12-14 12:19:54 1513271994.214448: $GPRMC,171955,A,3946.9469,N,08404.9337,W,0.7278,23.637,141217,,*04
2017-12-14 12:19:54 1513271994.214508: $GPGSA,A,3,15,20,24,32,21,27,10,18,,,,,6.6,1.8,6.2*30
2017-12-14 12:19:55 1513271995.199104: $GPZDA,171956.00,14,12,2017,00,00*69
2017-12-14 12:19:55 1513271995.199275: $GPGGA,171956,3946.9473,N,08404.9337,W,1,08,1.80,316.75,M,-33.324,M,,*75
2017-12-14 12:19:55 1513271995.199341: $GPRMC,171956,A,3946.9473,N,08404.9337,W,0.6846,4.197,141217,,*32
2017-12-14 12:19:55 1513271995.199401: $GPGSA,A,3,15,20,24,32,21,27,10,18,,,,,6.6,1.8,6.2*30
2017-12-14 12:19:56 1513271996.548937: $GPGSV,3,1,12,15,37,052,25,20,33,096,20,24,51,109,30,32,22,238,18*7F
2017-12-14 12:19:56 1513271996.549109: $GPGSV,3,2,12,21,62,187,24,10,42,301,16,27,19,289,07,13,07,049,00*77
2017-12-14 12:19:56 1513271996.549174: $GPGSV,3,3,12,18,72,339,22,08,06,322,00,14,04,232,00,138,38,213,00*41
2017-12-14 12:19:56 1513271996.662352: $GPZDA,171957.00,14,12,2017,00,00*68
2017-12-14 12:19:56 1513271996.662491: $GPGGA,171957,3946.9473,N,08404.9337,W,1,07,1.80,316.75,M,-33.324,M,,*7B
2017-12-14 12:19:56 1513271996.662577: $GPRMC,171957,A,3946.9473,N,08404.9337,W,0.6846,4.197,141217,,*33
2017-12-14 12:19:56 1513271996.662637: $GPGSA,A,3,15,20,24,32,21,27,18,,,,,,6.6,1.8,6.2*31
2017-12-14 12:19:57 1513271997.212025: $GPZDA,171958.00,14,12,2017,00,00*67
2017-12-14 12:19:57 1513271997.212235: $GPGGA,171958,3946.9477,N,08404.9337,W,1,07,1.80,317.39,M,-33.324,M,,*79
2017-12-14 12:19:57 1513271997.212302: $GPRMC,171958,A,3946.9477,N,08404.9337,W,0.4207,39.347,141217,,*04
2017-12-14 12:19:57 1513271997.212362: $GPGSA,A,3,15,20,24,32,21,27,18,,,,,,6.6,1.8,6.2*31
2017-12-14 12:19:58 1513271998.215872: $GPZDA,171959.00,14,12,2017,00,00*66
2017-12-14 12:19:58 1513271998.216040: $GPGGA,171959,3946.9477,N,08404.9330,W,1,07,1.40,317.47,M,-33.324,M,,*7A
2017-12-14 12:19:58 1513271998.216106: $GPRMC,171959,A,3946.9477,N,08404.9330,W,0.8054,68.645,141217,,*09
2017-12-14 12:19:58 1513271998.216166: $GPGSA,A,3,15,20,24,32,21,27,18,,,,,,6.6,1.4,6.2*3D
2017-12-14 12:19:59 1513271999.550777: $GPGSV,3,1,12,15,37,052,25,20,33,096,20,24,51,109,30,32,22,238,18*7F
2017-12-14 12:19:59 1513271999.550968: $GPGSV,3,2,12,21,62,187,20,10,42,301,16,27,19,289,07,13,07,049,00*73
2017-12-14 12:19:59 1513271999.551035: $GPGSV,3,3,12,18,72,339,22,08,06,322,00,14,04,232,00,138,38,213,00*41
2017-12-14 12:19:59 1513271999.664452: $GPZDA,172000.00,14,12,2017,00,00*60
2017-12-14 12:19:59 1513271999.664607: $GPGGA,172000,3946.9481,N,08404.9330,W,1,08,1.40,318.11,M,-33.324,M,,*76
2017-12-14 12:19:59 1513271999.664672: $GPRMC,172000,A,3946.9481,N,08404.9330,W,0.4207,39.347,141217,,*0D
2017-12-14 12:19:59 1513271999.664733: $GPGSA,A,3,15,20,24,32,21,10,27,18,,,,,6.6,1.4,6.2*3C
2017-12-14 12:20:00 1513272000.214559: $GPZDA,172001.00,14,12,2017,00,00*61
2017-12-14 12:20:00 1513272000.214719: $GPGGA,172001,3946.9481,N,08404.9337,W,1,08,1.40,318.03,M,-33.324,M,,*73
2017-12-14 12:20:00 1513272000.214786: $GPRMC,172001,A,3946.9481,N,08404.9337,W,0.1867,0.000,141217,,*38
2017-12-14 12:20:00 1513272000.214846: $GPGSA,A,3,15,20,24,32,21,10,27,18,,,,,6.6,1.4,6.2*3C
2017-12-14 12:20:01 1513272001.214835: $GPZDA,172002.00,14,12,2017,00,00*62
2017-12-14 12:20:01 1513272001.215015: $GPGGA,172002,3946.9481,N,08404.9330,W,1,08,1.40,318.11,M,-33.324,M,,*74
2017-12-14 12:20:01 1513272001.215133: $GPRMC,172002,A,3946.9481,N,08404.9330,W,0.4844,93.795,141217,,*09
2017-12-14 12:20:01 1513272001.215195: $GPGSA,A,3,15,20,24,32,21,10,27,18,,,,,6.6,1.4,6.2*3C
2017-12-14 12:20:02 1513272002.551330: $GPGSV,3,1,12,15,37,052,25,20,33,096,19,24,51,109,29,32,22,238,18*7D
2017-12-14 12:20:02 1513272002.551503: $GPGSV,3,2,12,21,62,187,20,10,42,301,16,27,19,289,07,13,07,049,00*73
2017-12-14 12:20:02 1513272002.551569: $GPGSV,3,3,12,18,72,339,22,08,06,322,00,14,04,232,00,120,07,103,00*46
2017-12-14 12:20:02 1513272002.664708: $GPZDA,172003.00,14,12,2017,00,00*63
2017-12-14 12:20:02 1513272002.664881: $GPGGA,172003,3946.9485,N,08404.9330,W,1,08,1.40,318.75,M,-33.324,M,,*73
2017-12-14 12:20:02 1513272002.664964: $GPRMC,172003,A,3946.9485,N,08404.9330,W,0.4844,93.795,141217,,*0C
2017-12-14 12:20:02 1513272002.665026: $GPGSA,A,3,15,20,24,32,21,10,27,18,,,,,6.6,1.4,6.2*3C
2017-12-14 12:20:03 1513272003.198640: $GPZDA,172004.00,14,12,2017,00,00*64
2017-12-14 12:20:03 1513272003.198810: $GPGGA,172004,3946.9482,N,08404.9330,W,1,08,1.40,319.51,M,-33.324,M,,*74
2017-12-14 12:20:03 1513272003.198876: $GPRMC,172004,A,3946.9482,N,08404.9330,W,0.5306,114.353,141217,,*30
2017-12-14 12:20:03 1513272003.198936: $GPGSA,A,3,15,20,24,32,21,10,27,18,,,,,6.6,1.4,6.2*3C
2017-12-14 12:20:04 1513272004.214976: $GPZDA,172005.00,14,12,2017,00,00*65
2017-12-14 12:20:04 1513272004.215149: $GPGGA,172005,3946.9482,N,08404.9330,W,1,08,1.40,319.51,M,-33.324,M,,*75
2017-12-14 12:20:04 1513272004.215214: $GPRMC,172005,A,3946.9482,N,08404.9330,W,0.8011,119.090,141217,,*38
2017-12-14 12:20:04 1513272004.215275: $GPGSA,A,3,15,20,24,32,21,10,27,18,,,,,6.6,1.4,6.2*3C
2017-12-14 12:20:05 1513272005.535000: $GPGSV,3,1,12,15,37,052,25,20,33,096,19,24,51,109,29,32,22,238,17*72
2017-12-14 12:20:05 1513272005.535177: $GPGSV,3,2,12,21,62,187,20,10,42,301,16,27,19,289,05,13,07,049,00*71
2017-12-14 12:20:05 1513272005.535244: $GPGSV,3,3,12,18,72,339,22,08,06,322,00,14,04,232,00,120,07,103,00*46
2017-12-14 12:20:05 1513272005.648614: $GPZDA,172006.00,14,12,2017,00,00*66
2017-12-14 12:20:05 1513272005.648769: $GPGGA,172006,3946.9482,N,08404.9330,W,1,07,1.40,319.51,M,-33.324,M,,*79
2017-12-14 12:20:05 1513272005.648835: $GPRMC,172006,A,3946.9482,N,08404.9330,W,0.4844,93.795,141217,,*0E
2017-12-14 12:20:05 1513272005.648896: $GPGSA,A,3,15,20,24,32,21,10,18,,,,,,6.6,1.4,6.2*39
