2017-12-01 11:38:58 1512146338.696991: {"class":"VERSION","release":"3.16","rev":"3.16-4","proto_major":3,"proto_minor":11}
2017-12-01 11:38:58 1512146338.697507: {"class":"DEVICES","devices":[{"class":"DEVICE","path":"/dev/ttyUSB0","driver":"SiRF","subtype":"9\u0006GSD4e_4.1.2-P1_RPATCH.05-F-GPS-4R-1510281 11/03/2015 307","activated":"2017-12-01T16:38:58.681Z","flags":1,"native":1,"bps":4800,"parity":"N","stopbits":1,"cycle":1.00}]}
2017-12-01 11:38:58 1512146338.697656: {"class":"WATCH","enable":true,"json":false,"nmea":true,"raw":0,"scaled":false,"timing":false,"split24":false,"pps":false}
2017-12-01 11:38:58 1512146338.795037: $GPZDA,163859.00,01,12,2017,00,00*60
2017-12-01 11:38:58 1512146338.795208: $GPGGA,163859,3946.9554,N,08404.9845,W,2,11,0.80,306.44,M,-33.324,M,,*7B
2017-12-01 11:38:58 1512146338.795274: $GPRMC,163859,A,3946.9554,N,08404.9845,W,0.0000,0.000,011217,,*36
2017-12-01 11:38:58 1512146338.795335: $GPGSA,A,3,5,10,13,15,18,20,21,24,27,29,138,,2.0,0.8,1.5*34
2017-12-01 11:38:59 1512146339.348653: $GPZDA,163900.00,01,12,2017,00,00*6D
2017-12-01 11:38:59 1512146339.348843: $GPGGA,163900,3946.9554,N,08404.9845,W,2,11,0.80,306.44,M,-33.324,M,,*76
2017-12-01 11:38:59 1512146339.348911: $GPRMC,163900,A,3946.9554,N,08404.9845,W,0.0000,0.000,011217,,*3B
2017-12-01 11:38:59 1512146339.348972: $GPGSA,A,3,5,10,13,15,18,20,21,24,27,29,138,,2.0,0.8,1.5*34
2017-12-01 11:39:00 1512146340.342087: $GPZDA,163901.00,01,12,2017,00,00*6C
2017-12-01 11:39:00 1512146340.342260: $GPGGA,163901,3946.9551,N,08404.9846,W,2,11,0.80,307.20,M,-33.324,M,,*72
2017-12-01 11:39:00 1512146340.342326: $GPRMC,163901,A,3946.9551,N,08404.9846,W,0.0000,0.000,011217,,*3C
2017-12-01 11:39:00 1512146340.342388: $GPGSA,A,3,5,10,13,15,18,20,21,24,27,29,138,,2.0,0.8,1.5*34
2017-12-01 11:39:01 1512146341.700027: $GPGSV,3,1,12,05,15,076,34,10,12,270,44,13,45,051,46,15,77,079,47*74
2017-12-01 11:39:01 1512146341.700207: $GPGSV,3,2,12,18,42,283,45,20,64,046,42,21,65,307,46,24,18,150,42*73
2017-12-01 11:39:01 1512146341.700273: $GPGSV,3,3,12,27,07,325,39,29,26,195,43,04,14,129,00,138,38,213,45*48
2017-12-01 11:39:01 1512146341.813642: $GPZDA,163902.00,01,12,2017,00,00*6F
2017-12-01 11:39:01 1512146341.813820: $GPGGA,163902,3946.9551,N,08404.9846,W,2,11,0.80,307.20,M,-33.324,M,,*71
2017-12-01 11:39:01 1512146341.813887: $GPRMC,163902,A,3946.9551,N,08404.9846,W,0.0000,0.000,011217,,*3F
2017-12-01 11:39:01 1512146341.813948: $GPGSA,A,3,5,10,13,15,18,20,21,24,27,29,138,,2.0,0.8,1.5*34
2017-12-01 11:39:02 1512146342.438925: $GPZDA,163903.00,01,12,2017,00,00*6E
2017-12-01 11:39:02 1512146342.442896: $GPGGA,163903,3946.9551,N,08404.9839,W,2,11,0.80,307.28,M,-33.324,M,,*70
2017-12-01 11:39:02 1512146342.443017: $GPRMC,163903,A,3946.9551,N,08404.9839,W,0.0000,0.000,011217,,*36
2017-12-01 11:39:02 1512146342.443083: $GPGSA,A,3,5,10,13,15,18,20,21,24,27,29,138,,2.0,0.8,1.5*34
2017-12-01 11:39:03 1512146343.348894: $GPZDA,163904.00,01,12,2017,00,00*69
2017-12-01 11:39:03 1512146343.349063: $GPGGA,163904,3946.9555,N,08404.9839,W,2,11,0.80,307.92,M,-33.324,M,,*72
2017-12-01 11:39:03 1512146343.349129: $GPRMC,163904,A,3946.9555,N,08404.9839,W,0.0000,0.000,011217,,*35
2017-12-01 11:39:03 1512146343.349191: $GPGSA,A,3,5,10,13,15,18,20,21,24,27,29,138,,2.0,0.8,1.5*34
2017-12-01 11:39:04 1512146344.699228: $GPGSV,3,1,12,05,15,076,33,10,12,270,45,13,45,051,46,15,77,079,47*72
2017-12-01 11:39:04 1512146344.699379: $GPGSV,3,2,12,18,42,283,45,20,64,046,42,21,65,307,46,24,18,150,42*73
2017-12-01 11:39:04 1512146344.699444: $GPGSV,3,3,12,27,07,325,39,29,26,195,44,04,14,129,00,138,38,213,45*4F
2017-12-01 11:39:04 1512146344.812610: $GPZDA,163905.00,01,12,2017,00,00*68
2017-12-01 11:39:04 1512146344.812805: $GPGGA,163905,3946.9555,N,08404.9839,W,2,11,0.80,307.92,M,-33.324,M,,*73
2017-12-01 11:39:04 1512146344.812873: $GPRMC,163905,A,3946.9555,N,08404.9839,W,0.0000,0.000,011217,,*34
2017-12-01 11:39:04 1512146344.812935: $GPGSA,A,3,5,10,13,15,18,20,21,24,27,29,138,,2.0,0.8,1.5*34
2017-12-01 11:39:05 1512146345.364084: $GPZDA,163906.00,01,12,2017,00,00*6B
2017-12-01 11:39:05 1512146345.364391: $GPGGA,163906,3946.9555,N,08404.9839,W,2,11,0.80,307.92,M,-33.324,M,,*70
2017-12-01 11:39:05 1512146345.364516: $GPRMC,163906,A,3946.9555,N,08404.9839,W,0.0000,0.000,011217,,*37
2017-12-01 11:39:05 1512146345.364645: $GPGSA,A,3,5,10,13,15,18,20,21,24,27,29,138,,2.0,0.8,1.5*34
2017-12-01 11:39:06 1512146346.349323: $GPZDA,163907.00,01,12,2017,00,00*6A
2017-12-01 11:39:06 1512146346.349492: $GPGGA,163907,3946.9555,N,08404.9839,W,2,11,0.80,307.92,M,-33.324,M,,*71
2017-12-01 11:39:06 1512146346.349579: $GPRMC,163907,A,3946.9555,N,08404.9839,W,0.0000,0.000,011217,,*36
2017-12-01 11:39:06 1512146346.349642: $GPGSA,A,3,5,10,13,15,18,20,21,24,27,29,138,,2.0,0.8,1.5*34
2017-12-01 11:39:07 1512146347.683211: $GPGSV,3,1,12,05,15,076,33,10,12,270,45,13,45,051,46,15,77,079,47*72
2017-12-01 11:39:07 1512146347.683404: $GPGSV,3,2,12,18,42,283,45,20,64,046,42,21,65,307,46,24,18,150,41*70
2017-12-01 11:39:07 1512146347.683471: $GPGSV,3,3,12,27,07,325,40,29,26,195,43,04,14,129,00,138,38,213,46*45
2017-12-01 11:39:07 1512146347.796704: $GPZDA,163908.00,01,12,2017,00,00*65
2017-12-01 11:39:07 1512146347.796877: $GPGGA,163908,3946.9555,N,08404.9839,W,2,11,0.80,307.92,M,-33.324,M,,*7E
2017-12-01 11:39:07 1512146347.796943: $GPRMC,163908,A,3946.9555,N,08404.9839,W,0.0000,0.000,011217,,*39
2017-12-01 11:39:07 1512146347.797004: $GPGSA,A,3,5,10,13,15,18,20,21,24,27,29,138,,2.0,0.8,1.5*34
2017-12-01 11:39:08 1512146348.351306: $GPZDA,163909.00,01,12,2017,00,00*64
2017-12-01 11:39:08 1512146348.351557: $GPGGA,163909,3946.9555,N,08404.9839,W,2,11,0.80,307.92,M,-33.324,M,,*7F
2017-12-01 11:39:08 1512146348.351626: $GPRMC,163909,A,3946.9555,N,08404.9839,W,0.0000,0.000,011217,,*38
2017-12-01 11:39:08 1512146348.351705: $GPGSA,A,3,5,10,13,15,18,20,21,24,27,29,138,,2.0,0.8,1.5*34
