2017-11-16 13:16:57 1510856217.186984: {"class":"VERSION","release":"3.17","rev":"3.17","proto_major":3,"proto_minor":12}
2017-11-16 13:16:57 1510856217.187454: {"class":"DEVICES","devices":[{"class":"DEVICE","path":"/dev/ttyUSB0","driver":"SiRF","subtype":"9\u0006GSD4e_4.1.2-P1_RPATCH.05-F-GPS-4R-1510281 11/03/2015 307","activated":"2017-11-16T18:16:57.185Z","flags":1,"native":1,"bps":4800,"parity":"N","stopbits":1,"cycle":1.00}]}
2017-11-16 13:16:57 1510856217.187568: {"class":"WATCH","enable":true,"json":false,"nmea":true,"raw":0,"scaled":false,"timing":false,"split24":false,"pps":false}
2017-11-16 13:16:57 1510856217.633056: $GPGSV,3,1,11,10,22,282,43,13,30,045,48,15,62,052,51,18,53,298,45*77
2017-11-16 13:16:57 1510856217.633228: $GPGSV,3,2,11,20,52,070,45,21,77,276,47,24,32,139,40,27,16,313,43*74
2017-11-16 13:16:57 1510856217.633289: $GPGSV,3,3,11,05,05,087,21,29,10,189,34,138,38,213,45*78
2017-11-16 13:16:57 1510856217.746324: $GPZDA,181656.00,16,11,2017,00,00*68
2017-11-16 13:16:57 1510856217.746491: $GPGGA,181656,3946.9589,N,08404.9845,W,2,11,0.80,298.72,M,-33.324,M,,*75
2017-11-16 13:16:57 1510856217.746553: $GPRMC,181656,A,3946.9589,N,08404.9845,W,0.0000,0.000,161117,,*3E
2017-11-16 13:16:57 1510856217.746614: $GPGSA,A,3,10,13,15,18,20,21,24,27,5,29,138,,1.6,0.8,1.3*37
2017-11-16 13:16:58 1510856218.297209: $GPZDA,181657.00,16,11,2017,00,00*69
2017-11-16 13:16:58 1510856218.297381: $GPGGA,181657,3946.9589,N,08404.9845,W,2,11,0.80,298.72,M,-33.324,M,,*74
2017-11-16 13:16:58 1510856218.297446: $GPRMC,181657,A,3946.9589,N,08404.9845,W,0.0000,0.000,161117,,*3F
2017-11-16 13:16:58 1510856218.297503: $GPGSA,A,3,10,13,15,18,20,21,24,27,5,29,138,,1.6,0.8,1.3*37
2017-11-16 13:16:59 1510856219.300573: $GPZDA,181658.00,16,11,2017,00,00*66
2017-11-16 13:16:59 1510856219.300756: $GPGGA,181658,3946.9589,N,08404.9845,W,2,11,0.80,298.72,M,-33.324,M,,*7B
2017-11-16 13:16:59 1510856219.300821: $GPRMC,181658,A,3946.9589,N,08404.9845,W,0.0000,0.000,161117,,*30
2017-11-16 13:16:59 1510856219.300881: $GPGSA,A,3,10,13,15,18,20,21,24,27,5,29,138,,1.6,0.8,1.3*37
2017-11-16 13:17:00 1510856220.637016: $GPGSV,3,1,11,10,22,282,44,13,30,045,47,15,62,052,51,18,53,298,45*7F
2017-11-16 13:17:00 1510856220.637192: $GPGSV,3,2,11,20,52,070,46,21,77,276,47,24,32,139,40,27,16,313,42*76
2017-11-16 13:17:00 1510856220.637254: $GPGSV,3,3,11,05,05,087,20,29,10,189,34,138,38,213,45*79
2017-11-16 13:17:00 1510856220.750349: $GPZDA,181659.00,16,11,2017,00,00*67
2017-11-16 13:17:00 1510856220.750531: $GPGGA,181659,3946.9589,N,08404.9845,W,2,11,0.80,298.72,M,-33.324,M,,*7A
2017-11-16 13:17:00 1510856220.750599: $GPRMC,181659,A,3946.9589,N,08404.9845,W,0.0000,0.000,161117,,*31
2017-11-16 13:17:00 1510856220.750655: $GPGSA,A,3,10,13,15,18,20,21,24,27,5,29,138,,1.6,0.8,1.3*37
2017-11-16 13:17:01 1510856221.298720: $GPZDA,181700.00,16,11,2017,00,00*6A
2017-11-16 13:17:01 1510856221.298888: $GPGGA,181700,3946.9589,N,08404.9845,W,2,11,0.80,298.72,M,-33.324,M,,*77
2017-11-16 13:17:01 1510856221.298951: $GPRMC,181700,A,3946.9589,N,08404.9845,W,0.0000,0.000,161117,,*3C
2017-11-16 13:17:01 1510856221.299008: $GPGSA,A,3,10,13,15,18,20,21,24,27,5,29,138,,1.6,0.8,1.3*37
2017-11-16 13:17:02 1510856222.296385: $GPZDA,181701.00,16,11,2017,00,00*6B
2017-11-16 13:17:02 1510856222.296500: $GPGGA,181701,3946.9589,N,08404.9845,W,2,11,0.80,298.72,M,-33.324,M,,*76
2017-11-16 13:17:02 1510856222.296532: $GPRMC,181701,A,3946.9589,N,08404.9845,W,0.0000,0.000,161117,,*3D
2017-11-16 13:17:02 1510856222.296561: $GPGSA,A,3,10,13,15,18,20,21,24,27,5,29,138,,1.6,0.8,1.3*37
2017-11-16 13:17:03 1510856223.634021: $GPGSV,3,1,11,10,22,282,43,13,30,045,47,15,62,052,51,18,53,298,45*78
2017-11-16 13:17:03 1510856223.634193: $GPGSV,3,2,11,20,52,070,46,21,77,276,47,24,32,139,40,27,16,313,42*76
2017-11-16 13:17:03 1510856223.634252: $GPGSV,3,3,11,05,05,087,20,29,10,189,33,138,38,213,44*7F
2017-11-16 13:17:03 1510856223.747276: $GPZDA,181702.00,16,11,2017,00,00*68
2017-11-16 13:17:03 1510856223.747435: $GPGGA,181702,3946.9589,N,08404.9845,W,2,11,0.80,298.72,M,-33.324,M,,*75
2017-11-16 13:17:03 1510856223.747560: $GPRMC,181702,A,3946.9589,N,08404.9845,W,0.0000,0.000,161117,,*3E
2017-11-16 13:17:03 1510856223.747618: $GPGSA,A,3,10,13,15,18,20,21,24,27,5,29,138,,1.6,0.8,1.3*37
2017-11-16 13:17:04 1510856224.298292: $GPZDA,181703.00,16,11,2017,00,00*69
2017-11-16 13:17:04 1510856224.298477: $GPGGA,181703,3946.9589,N,08404.9845,W,2,11,0.80,298.72,M,-33.324,M,,*74
2017-11-16 13:17:04 1510856224.298542: $GPRMC,181703,A,3946.9589,N,08404.9845,W,0.0000,0.000,161117,,*3F
2017-11-16 13:17:04 1510856224.298598: $GPGSA,A,3,10,13,15,18,20,21,24,27,5,29,138,,1.6,0.8,1.3*37
2017-11-16 13:17:05 1510856225.303967: $GPZDA,181704.00,16,11,2017,00,00*6E
2017-11-16 13:17:05 1510856225.304129: $GPGGA,181704,3946.9589,N,08404.9845,W,2,11,0.80,298.72,M,-33.324,M,,*73
2017-11-16 13:17:05 1510856225.304191: $GPRMC,181704,A,3946.9589,N,08404.9845,W,0.0000,0.000,161117,,*38
2017-11-16 13:17:05 1510856225.304252: $GPGSA,A,3,10,13,15,18,20,21,24,27,5,29,138,,1.6,0.8,1.3*37
2017-11-16 13:17:06 1510856226.633112: $GPGSV,3,1,11,10,22,282,43,13,30,045,47,15,62,052,51,18,53,298,45*78
2017-11-16 13:17:06 1510856226.633288: $GPGSV,3,2,11,20,52,070,46,21,77,276,47,24,32,139,40,27,16,313,42*76
2017-11-16 13:17:06 1510856226.633349: $GPGSV,3,3,11,05,05,087,20,29,10,189,33,138,38,213,45*7E
2017-11-16 13:17:06 1510856226.746809: $GPZDA,181705.00,16,11,2017,00,00*6F
2017-11-16 13:17:06 1510856226.746980: $GPGGA,181705,3946.9589,N,08404.9845,W,2,11,0.80,298.72,M,-33.324,M,,*72
2017-11-16 13:17:06 1510856226.747043: $GPRMC,181705,A,3946.9589,N,08404.9845,W,0.0000,0.000,161117,,*39
2017-11-16 13:17:06 1510856226.747101: $GPGSA,A,3,10,13,15,18,20,21,24,27,5,29,138,,1.6,0.8,1.3*37
