2017-11-16 13:27:47 1510856867.178657: {"class":"VERSION","release":"3.17","rev":"3.17","proto_major":3,"proto_minor":12}
2017-11-16 13:27:47 1510856867.179314: {"class":"DEVICES","devices":[{"class":"DEVICE","path":"/dev/ttyUSB0","driver":"SiRF","subtype":"9\u0006GSD4e_4.1.2-P1_RPATCH.05-F-GPS-4R-1510281 11/03/2015 307","activated":"2017-11-16T18:27:47.157Z","flags":1,"native":1,"bps":4800,"parity":"N","stopbits":1,"cycle":1.00}]}
2017-11-16 13:27:47 1510856867.179441: {"class":"WATCH","enable":true,"json":false,"nmea":true,"raw":0,"scaled":false,"timing":false,"split24":false,"pps":false}
2017-11-16 13:27:47 1510856867.270402: $GPZDA,182746.00,16,11,2017,00,00*6B
2017-11-16 13:27:47 1510856867.270578: $GPGGA,182746,3946.9615,N,08404.9845,W,2,12,0.80,303.96,M,-33.324,M,,*7A
2017-11-16 13:27:47 1510856867.270641: $GPRMC,182746,A,3946.9615,N,08404.9845,W,0.0000,0.000,161117,,*3B
2017-11-16 13:27:47 1510856867.270697: $GPGSA,A,3,10,13,15,18,20,21,24,27,29,5,32,138,1.6,0.8,1.3*36
2017-11-16 13:27:48 1510856868.599882: $GPGSV,3,1,12,10,26,286,42,13,26,045,45,15,57,049,51,18,57,304,46*70
2017-11-16 13:27:48 1510856868.600055: $GPGSV,3,2,12,20,48,076,48,21,79,252,46,24,36,135,43,27,17,309,41*7D
2017-11-16 13:27:48 1510856868.600115: $GPGSV,3,3,12,29,06,187,28,05,02,090,22,32,04,226,27,138,38,213,45*4B
2017-11-16 13:27:48 1510856868.713173: $GPZDA,182747.00,16,11,2017,00,00*6A
2017-11-16 13:27:48 1510856868.713350: $GPGGA,182747,3946.9615,N,08404.9845,W,2,12,0.80,303.96,M,-33.324,M,,*7B
2017-11-16 13:27:48 1510856868.713410: $GPRMC,182747,A,3946.9615,N,08404.9845,W,0.0000,0.000,161117,,*3A
2017-11-16 13:27:48 1510856868.713466: $GPGSA,A,3,10,13,15,18,20,21,24,27,29,5,32,138,1.6,0.8,1.3*36
2017-11-16 13:27:49 1510856869.291520: $GPZDA,182748.00,16,11,2017,00,00*65
2017-11-16 13:27:49 1510856869.291688: $GPGGA,182748,3946.9615,N,08404.9845,W,2,12,0.80,303.96,M,-33.324,M,,*74
2017-11-16 13:27:49 1510856869.291751: $GPRMC,182748,A,3946.9615,N,08404.9845,W,0.0000,0.000,161117,,*35
2017-11-16 13:27:49 1510856869.291807: $GPGSA,A,3,10,13,15,18,20,21,24,27,29,5,32,138,1.6,0.8,1.3*36
2017-11-16 13:27:50 1510856870.270604: $GPZDA,182749.00,16,11,2017,00,00*64
2017-11-16 13:27:50 1510856870.270766: $GPGGA,182749,3946.9615,N,08404.9845,W,2,12,0.80,303.96,M,-33.324,M,,*75
2017-11-16 13:27:50 1510856870.270827: $GPRMC,182749,A,3946.9615,N,08404.9845,W,0.0000,0.000,161117,,*34
2017-11-16 13:27:50 1510856870.270883: $GPGSA,A,3,10,13,15,18,20,21,24,27,29,5,32,138,1.6,0.8,1.3*36
2017-11-16 13:27:51 1510856871.625021: $GPGSV,3,1,12,10,26,286,43,13,26,045,45,15,57,049,51,18,57,304,46*71
2017-11-16 13:27:51 1510856871.625212: $GPGSV,3,2,12,20,48,076,48,21,79,252,46,24,36,135,42,27,17,309,41*7C
2017-11-16 13:27:51 1510856871.625292: $GPGSV,3,3,12,29,06,187,28,05,02,090,22,32,04,226,27,138,38,213,45*4B
2017-11-16 13:27:51 1510856871.738305: $GPZDA,182750.00,16,11,2017,00,00*6C
2017-11-16 13:27:51 1510856871.738486: $GPGGA,182750,3946.9615,N,08404.9845,W,2,12,0.80,303.96,M,-33.324,M,,*7D
2017-11-16 13:27:51 1510856871.738549: $GPRMC,182750,A,3946.9615,N,08404.9845,W,0.0000,0.000,161117,,*3C
2017-11-16 13:27:51 1510856871.738604: $GPGSA,A,3,10,13,15,18,20,21,24,27,29,5,32,138,1.6,0.8,1.3*36
2017-11-16 13:27:52 1510856872.269280: $GPZDA,182751.00,16,11,2017,00,00*6D
2017-11-16 13:27:52 1510856872.269445: $GPGGA,182751,3946.9615,N,08404.9845,W,2,12,0.80,303.96,M,-33.324,M,,*7C
2017-11-16 13:27:52 1510856872.269508: $GPRMC,182751,A,3946.9615,N,08404.9845,W,0.0000,0.000,161117,,*3D
2017-11-16 13:27:52 1510856872.269565: $GPGSA,A,3,10,13,15,18,20,21,24,27,29,5,32,138,1.6,0.8,1.3*36
2017-11-16 13:27:53 1510856873.290336: $GPZDA,182752.00,16,11,2017,00,00*6E
2017-11-16 13:27:53 1510856873.290548: $GPGGA,182752,3946.9615,N,08404.9845,W,2,12,0.80,303.96,M,-33.324,M,,*7F
2017-11-16 13:27:53 1510856873.290616: $GPRMC,182752,A,3946.9615,N,08404.9845,W,0.0000,0.000,161117,,*3E
2017-11-16 13:27:53 1510856873.290673: $GPGSA,A,3,10,13,15,18,20,21,24,27,29,5,32,138,1.6,0.8,1.3*36
2017-11-16 13:27:54 1510856874.605771: $GPGSV,3,1,12,10,26,286,43,13,26,045,45,15,57,049,51,18,57,304,46*71
2017-11-16 13:27:54 1510856874.605980: $GPGSV,3,2,12,20,48,076,48,21,79,252,46,24,36,135,42,27,17,309,42*7F
2017-11-16 13:27:54 1510856874.606045: $GPGSV,3,3,12,29,06,187,28,05,02,090,22,32,04,226,26,138,38,213,44*4B
2017-11-16 13:27:54 1510856874.719121: $GPZDA,182753.00,16,11,2017,00,00*6F
2017-11-16 13:27:54 1510856874.719288: $GPGGA,182753,3946.9615,N,08404.9845,W,2,12,0.80,303.96,M,-33.324,M,,*7E
2017-11-16 13:27:54 1510856874.719350: $GPRMC,182753,A,3946.9615,N,08404.9845,W,0.0000,0.000,161117,,*3F
2017-11-16 13:27:54 1510856874.719408: $GPGSA,A,3,10,13,15,18,20,21,24,27,29,5,32,138,1.6,0.8,1.3*36
2017-11-16 13:27:55 1510856875.346363: $GPZDA,182754.00,16,11,2017,00,00*68
2017-11-16 13:27:55 1510856875.346527: $GPGGA,182754,3946.9615,N,08404.9845,W,2,12,0.80,303.96,M,-33.324,M,,*79
2017-11-16 13:27:55 1510856875.346608: $GPRMC,182754,A,3946.9615,N,08404.9845,W,0.0000,0.000,161117,,*38
2017-11-16 13:27:55 1510856875.346666: $GPGSA,A,3,10,13,15,18,20,21,24,27,29,5,32,138,1.6,0.8,1.3*36
2017-11-16 13:27:56 1510856876.264397: $GPZDA,182755.00,16,11,2017,00,00*69
2017-11-16 13:27:56 1510856876.264564: $GPGGA,182755,3946.9615,N,08404.9845,W,2,12,0.80,303.96,M,-33.324,M,,*78
2017-11-16 13:27:56 1510856876.264625: $GPRMC,182755,A,3946.9615,N,08404.9845,W,0.0000,0.000,161117,,*39
2017-11-16 13:27:56 1510856876.264682: $GPGSA,A,3,10,13,15,18,20,21,24,27,29,5,32,138,1.6,0.8,1.3*36
2017-11-16 13:27:57 1510856877.626258: $GPGSV,3,1,12,10,26,286,42,13,26,045,45,15,57,049,51,18,57,304,46*70
2017-11-16 13:27:57 1510856877.626425: $GPGSV,3,2,12,20,48,076,48,21,79,252,46,24,36,135,42,27,17,309,42*7F
2017-11-16 13:27:57 1510856877.626489: $GPGSV,3,3,12,29,06,187,28,05,02,090,22,32,04,226,26,138,38,213,44*4B
2017-11-16 13:27:57 1510856877.739372: $GPZDA,182756.00,16,11,2017,00,00*6A
2017-11-16 13:27:57 1510856877.739532: $GPGGA,182756,3946.9615,N,08404.9845,W,2,12,0.80,303.96,M,-33.324,M,,*7B
2017-11-16 13:27:57 1510856877.739594: $GPRMC,182756,A,3946.9615,N,08404.9845,W,0.0000,0.000,161117,,*3A
2017-11-16 13:27:57 1510856877.739654: $GPGSA,A,3,10,13,15,18,20,21,24,27,29,5,32,138,1.6,0.8,1.3*36
2017-11-16 13:27:58 1510856878.271591: $GPZDA,182757.00,16,11,2017,00,00*6B
2017-11-16 13:27:58 1510856878.271756: $GPGGA,182757,3946.9615,N,08404.9845,W,2,12,0.80,303.96,M,-33.324,M,,*7A
2017-11-16 13:27:58 1510856878.271817: $GPRMC,182757,A,3946.9615,N,08404.9845,W,0.0000,0.000,161117,,*3B
2017-11-16 13:27:58 1510856878.271873: $GPGSA,A,3,10,13,15,18,20,21,24,27,29,5,32,138,1.6,0.8,1.3*36
2017-11-16 13:27:59 1510856879.269747: $GPZDA,182758.00,16,11,2017,00,00*64
2017-11-16 13:27:59 1510856879.269909: $GPGGA,182758,3946.9615,N,08404.9845,W,2,12,0.80,303.96,M,-33.324,M,,*75
2017-11-16 13:27:59 1510856879.269970: $GPRMC,182758,A,3946.9615,N,08404.9845,W,0.0000,0.000,161117,,*34
2017-11-16 13:27:59 1510856879.270026: $GPGSA,A,3,10,13,15,18,20,21,24,27,29,5,32,138,1.6,0.8,1.3*36
2017-11-16 13:28:00 1510856880.625000: $GPGSV,3,1,12,10,26,286,42,13,26,045,45,15,57,049,51,18,57,304,46*70
2017-11-16 13:28:00 1510856880.625168: $GPGSV,3,2,12,20,48,076,48,21,79,252,46,24,36,135,43,27,17,309,42*7E
2017-11-16 13:28:00 1510856880.625228: $GPGSV,3,3,12,29,06,187,28,05,02,090,22,32,04,226,25,138,38,213,45*49
2017-11-16 13:28:00 1510856880.738298: $GPZDA,182759.00,16,11,2017,00,00*65
2017-11-16 13:28:00 1510856880.738482: $GPGGA,182759,3946.9615,N,08404.9845,W,2,12,0.80,303.96,M,-33.324,M,,*74
2017-11-16 13:28:00 1510856880.738545: $GPRMC,182759,A,3946.9615,N,08404.9845,W,0.0000,0.000,161117,,*35
2017-11-16 13:28:00 1510856880.738617: $GPGSA,A,3,10,13,15,18,20,21,24,27,29,5,32,138,1.6,0.8,1.3*36
2017-11-16 13:28:01 1510856881.272050: $GPZDA,182800.00,16,11,2017,00,00*66
2017-11-16 13:28:01 1510856881.272319: $GPGGA,182800,3946.9615,N,08404.9845,W,2,12,0.80,303.96,M,-33.324,M,,*77
2017-11-16 13:28:01 1510856881.272459: $GPRMC,182800,A,3946.9615,N,08404.9845,W,0.0000,0.000,161117,,*36
2017-11-16 13:28:01 1510856881.272557: $GPGSA,A,3,10,13,15,18,20,21,24,27,29,5,32,138,1.6,0.8,1.3*36
