2017-12-01 13:08:58 1512151738.476739: {"class":"VERSION","release":"3.16","rev":"3.16-4","proto_major":3,"proto_minor":11}
2017-12-01 13:08:58 1512151738.477160: {"class":"DEVICES","devices":[{"class":"DEVICE","path":"/dev/ttyUSB0","driver":"SiRF","subtype":"9\u0006GSD4e_4.1.2-P1_RPATCH.05-F-GPS-4R-1510281 11/03/2015 307","activated":"2017-12-01T18:08:58.431Z","flags":1,"native":1,"bps":4800,"parity":"N","stopbits":1,"cycle":1.00}]}
2017-12-01 13:08:58 1512151738.477289: {"class":"WATCH","enable":true,"json":false,"nmea":true,"raw":0,"scaled":false,"timing":false,"split24":false,"pps":false}
2017-12-01 13:08:59 1512151739.730026: $GPGSV,3,1,12,10,40,300,44,15,39,052,48,18,70,333,45,20,35,094,46*7C
2017-12-01 13:08:59 1512151739.730205: $GPGSV,3,2,12,21,65,190,45,24,50,112,47,27,19,291,36,32,19,237,41*78
2017-12-01 13:08:59 1512151739.730273: $GPGSV,3,3,12,08,05,324,37,13,09,048,21,14,03,231,00,138,38,213,46*47
2017-12-01 13:08:59 1512151739.843678: $GPZDA,180900.00,01,12,2017,00,00*60
2017-12-01 13:08:59 1512151739.843843: $GPGGA,180900,3946.9571,N,08404.9854,W,2,11,0.80,299.65,M,-33.324,M,,*78
2017-12-01 13:08:59 1512151739.843909: $GPRMC,180900,A,3946.9571,N,08404.9854,W,0.0000,0.000,011217,,*31
2017-12-01 13:08:59 1512151739.843970: $GPGSA,A,3,10,15,18,20,21,24,27,32,8,13,138,,2.0,0.8,1.5*33
2017-12-01 13:09:00 1512151740.389515: $GPZDA,180901.00,01,12,2017,00,00*61
2017-12-01 13:09:00 1512151740.389684: $GPGGA,180901,3946.9571,N,08404.9854,W,2,11,0.80,299.65,M,-33.324,M,,*79
2017-12-01 13:09:00 1512151740.389750: $GPRMC,180901,A,3946.9571,N,08404.9854,W,0.0000,0.000,011217,,*30
2017-12-01 13:09:00 1512151740.389811: $GPGSA,A,3,10,15,18,20,21,24,27,32,8,13,138,,2.0,0.8,1.5*33
2017-12-01 13:09:01 1512151741.395443: $GPZDA,180902.00,01,12,2017,00,00*62
2017-12-01 13:09:01 1512151741.395610: $GPGGA,180902,3946.9571,N,08404.9854,W,2,11,0.80,299.65,M,-33.324,M,,*7A
2017-12-01 13:09:01 1512151741.395676: $GPRMC,180902,A,3946.9571,N,08404.9854,W,0.0000,0.000,011217,,*33
2017-12-01 13:09:01 1512151741.395737: $GPGSA,A,3,10,15,18,20,21,24,27,32,8,13,138,,2.0,0.8,1.5*33
2017-12-01 13:09:02 1512151742.729582: $GPGSV,3,1,12,10,40,300,44,15,39,052,48,18,70,333,45,20,35,094,46*7C
2017-12-01 13:09:02 1512151742.729741: $GPGSV,3,2,12,21,65,190,45,24,50,112,47,27,19,291,36,32,19,237,42*7B
2017-12-01 13:09:02 1512151742.729807: $GPGSV,3,3,12,08,05,324,37,13,09,048,21,14,03,231,00,138,38,213,46*47
2017-12-01 13:09:02 1512151742.842953: $GPZDA,180903.00,01,12,2017,00,00*63
2017-12-01 13:09:02 1512151742.843129: $GPGGA,180903,3946.9571,N,08404.9854,W,2,11,0.80,299.65,M,-33.324,M,,*7B
2017-12-01 13:09:02 1512151742.843196: $GPRMC,180903,A,3946.9571,N,08404.9854,W,0.0000,0.000,011217,,*32
2017-12-01 13:09:02 1512151742.843257: $GPGSA,A,3,10,15,18,20,21,24,27,32,8,13,138,,2.0,0.8,1.5*33
2017-12-01 13:09:03 1512151743.468351: $GPZDA,180904.00,01,12,2017,00,00*64
2017-12-01 13:09:03 1512151743.468570: $GPGGA,180904,3946.9571,N,08404.9854,W,2,11,0.80,299.65,M,-33.324,M,,*7C
2017-12-01 13:09:03 1512151743.468666: $GPRMC,180904,A,3946.9571,N,08404.9854,W,0.0000,0.000,011217,,*35
2017-12-01 13:09:03 1512151743.468731: $GPGSA,A,3,10,15,18,20,21,24,27,32,8,13,138,,2.0,0.8,1.5*33
2017-12-01 13:09:04 1512151744.393041: $GPZDA,180905.00,01,12,2017,00,00*65
2017-12-01 13:09:04 1512151744.393206: $GPGGA,180905,3946.9571,N,08404.9854,W,2,11,0.80,299.65,M,-33.324,M,,*7D
2017-12-01 13:09:04 1512151744.393273: $GPRMC,180905,A,3946.9571,N,08404.9854,W,0.0000,0.000,011217,,*34
2017-12-01 13:09:04 1512151744.393334: $GPGSA,A,3,10,15,18,20,21,24,27,32,8,13,138,,2.0,0.8,1.5*33
2017-12-01 13:09:05 1512151745.728725: $GPGSV,3,1,12,10,40,300,44,15,39,052,47,18,70,333,45,20,35,094,46*73
2017-12-01 13:09:05 1512151745.728909: $GPGSV,3,2,12,21,65,190,45,24,50,112,47,27,19,291,36,32,19,237,41*78
2017-12-01 13:09:05 1512151745.728975: $GPGSV,3,3,12,08,05,324,36,13,09,048,22,14,03,231,00,138,38,213,47*44
2017-12-01 13:09:05 1512151745.842822: $GPZDA,180906.00,01,12,2017,00,00*66
2017-12-01 13:09:05 1512151745.843002: $GPGGA,180906,3946.9571,N,08404.9854,W,2,11,0.80,299.65,M,-33.324,M,,*7E
2017-12-01 13:09:05 1512151745.843125: $GPRMC,180906,A,3946.9571,N,08404.9854,W,0.0000,0.000,011217,,*37
2017-12-01 13:09:05 1512151745.843187: $GPGSA,A,3,10,15,18,20,21,24,27,32,8,13,138,,2.0,0.8,1.5*33
2017-12-01 13:09:06 1512151746.395454: $GPZDA,180907.00,01,12,2017,00,00*67
2017-12-01 13:09:06 1512151746.395628: $GPGGA,180907,3946.9571,N,08404.9854,W,2,11,0.80,299.65,M,-33.324,M,,*7F
2017-12-01 13:09:06 1512151746.395694: $GPRMC,180907,A,3946.9571,N,08404.9854,W,0.0000,0.000,011217,,*36
2017-12-01 13:09:06 1512151746.395755: $GPGSA,A,3,10,15,18,20,21,24,27,32,8,13,138,,2.0,0.8,1.5*33
2017-12-01 13:09:07 1512151747.395062: $GPZDA,180908.00,01,12,2017,00,00*68
2017-12-01 13:09:07 1512151747.395229: $GPGGA,180908,3946.9571,N,08404.9854,W,2,11,0.80,299.65,M,-33.324,M,,*70
2017-12-01 13:09:07 1512151747.395296: $GPRMC,180908,A,3946.9571,N,08404.9854,W,0.0000,0.000,011217,,*39
2017-12-01 13:09:07 1512151747.395357: $GPGSA,A,3,10,15,18,20,21,24,27,32,8,13,138,,2.0,0.8,1.5*33
