2017-12-31 17:10:34 1514758234.326464: {"class":"VERSION","release":"3.16","rev":"3.16-4","proto_major":3,"proto_minor":11}
2017-12-31 17:10:34 1514758234.326811: {"class":"DEVICES","devices":[{"class":"DEVICE","path":"/dev/ttyUSB0","driver":"SiRF","activated":"2017-12-31T22:10:34.231Z","flags":1,"native":1,"bps":4800,"parity":"N","stopbits":1,"cycle":1.00}]}
2017-12-31 17:10:34 1514758234.326909: {"class":"WATCH","enable":true,"json":false,"nmea":true,"raw":0,"scaled":false,"timing":false,"split24":false,"pps":false}
2017-12-31 17:10:34 1514758234.343860: $GPZDA,221035.00,31,12,2017,00,00*64
2017-12-31 17:10:34 1514758234.343980: $GPGGA,221035,3946.9583,N,08404.9854,W,2,10,0.80,301.57,M,-33.324,M,,*72
2017-12-31 17:10:34 1514758234.344043: $GPRMC,221035,A,3946.9583,N,08404.9854,W,0.0000,0.000,311217,,*38
2017-12-31 17:10:34 1514758234.344104: $GPGSA,A,3,22,23,3,16,29,31,14,32,26,135,,,1.7,0.8,1.3*35
2017-12-31 17:10:35 1514758235.344243: $GPZDA,221036.00,31,12,2017,00,00*67
2017-12-31 17:10:35 1514758235.344421: $GPGGA,221036,3946.9583,N,08404.9854,W,2,10,0.80,301.57,M,-33.324,M,,*71
2017-12-31 17:10:35 1514758235.344489: $GPRMC,221036,A,3946.9583,N,08404.9854,W,0.0000,0.000,311217,,*3B
2017-12-31 17:10:35 1514758235.344550: $GPGSA,A,3,22,23,3,16,29,31,14,32,26,135,,,1.7,0.8,1.3*35
2017-12-31 17:10:36 1514758236.672523: $GPGSV,3,1,10,22,43,237,43,23,29,307,40,03,46,268,39,16,48,190,42*74
2017-12-31 17:10:36 1514758236.672711: $GPGSV,3,2,10,29,14,052,34,31,48,052,51,14,39,115,36,32,17,123,40*76
2017-12-31 17:10:36 1514758236.672780: $GPGSV,3,3,10,26,75,136,47,135,22,240,42*4E
2017-12-31 17:10:36 1514758236.785950: $GPZDA,221037.00,31,12,2017,00,00*66
2017-12-31 17:10:36 1514758236.786114: $GPGGA,221037,3946.9583,N,08404.9854,W,2,10,0.80,301.57,M,-33.324,M,,*70
2017-12-31 17:10:36 1514758236.786181: $GPRMC,221037,A,3946.9583,N,08404.9854,W,0.0000,0.000,311217,,*3A
2017-12-31 17:10:36 1514758236.786243: $GPGSA,A,3,22,23,3,16,29,31,14,32,26,135,,,1.7,0.8,1.3*35
2017-12-31 17:10:37 1514758237.345474: $GPZDA,221038.00,31,12,2017,00,00*69
2017-12-31 17:10:37 1514758237.345644: $GPGGA,221038,3946.9583,N,08404.9854,W,2,10,0.80,301.57,M,-33.324,M,,*7F
2017-12-31 17:10:37 1514758237.345709: $GPRMC,221038,A,3946.9583,N,08404.9854,W,0.0000,0.000,311217,,*35
2017-12-31 17:10:37 1514758237.345770: $GPGSA,A,3,22,23,3,16,29,31,14,32,26,135,,,1.7,0.8,1.3*35
2017-12-31 17:10:38 1514758238.352638: $GPZDA,221039.00,31,12,2017,00,00*68
2017-12-31 17:10:38 1514758238.352810: $GPGGA,221039,3946.9583,N,08404.9854,W,2,10,0.80,301.57,M,-33.324,M,,*7E
2017-12-31 17:10:38 1514758238.352875: $GPRMC,221039,A,3946.9583,N,08404.9854,W,0.0000,0.000,311217,,*34
2017-12-31 17:10:38 1514758238.352936: $GPGSA,A,3,22,23,3,16,29,31,14,32,26,135,,,1.7,0.8,1.3*35
2017-12-31 17:10:39 1514758239.683329: $GPGSV,3,1,10,22,43,237,43,23,29,307,41,03,46,268,39,16,48,190,43*74
2017-12-31 17:10:39 1514758239.683495: $GPGSV,3,2,10,29,14,052,35,31,48,052,51,14,39,115,36,32,17,123,40*77
2017-12-31 17:10:39 1514758239.683561: $GPGSV,3,3,10,26,75,136,47,135,22,240,42*4E
2017-12-31 17:10:39 1514758239.796740: $GPZDA,221040.00,31,12,2017,00,00*66
2017-12-31 17:10:39 1514758239.796870: $GPGGA,221040,3946.9583,N,08404.9854,W,2,10,0.80,301.57,M,-33.324,M,,*70
2017-12-31 17:10:39 1514758239.796934: $GPRMC,221040,A,3946.9583,N,08404.9854,W,0.0000,0.000,311217,,*3A
2017-12-31 17:10:39 1514758239.796994: $GPGSA,A,3,22,23,3,16,29,31,14,32,26,135,,,1.7,0.8,1.3*35
2017-12-31 17:10:40 1514758240.423388: $GPZDA,221041.00,31,12,2017,00,00*67
2017-12-31 17:10:40 1514758240.423568: $GPGGA,221041,3946.9583,N,08404.9854,W,2,10,0.80,301.57,M,-33.324,M,,*71
2017-12-31 17:10:40 1514758240.423635: $GPRMC,221041,A,3946.9583,N,08404.9854,W,0.0000,0.000,311217,,*3B
2017-12-31 17:10:40 1514758240.423696: $GPGSA,A,3,22,23,3,16,29,31,14,32,26,135,,,1.7,0.8,1.3*35
2017-12-31 17:10:41 1514758241.344200: $GPZDA,221042.00,31,12,2017,00,00*64
2017-12-31 17:10:41 1514758241.344371: $GPGGA,221042,3946.9583,N,08404.9854,W,2,10,0.80,301.57,M,-33.324,M,,*72
2017-12-31 17:10:41 1514758241.344438: $GPRMC,221042,A,3946.9583,N,08404.9854,W,0.0000,0.000,311217,,*38
2017-12-31 17:10:41 1514758241.344553: $GPGSA,A,3,22,23,3,16,29,31,14,32,26,135,,,1.7,0.8,1.3*35
2017-12-31 17:10:42 1514758242.672397: $GPGSV,3,1,10,22,43,237,43,23,29,307,40,03,46,268,39,16,48,190,42*74
2017-12-31 17:10:42 1514758242.672566: $GPGSV,3,2,10,29,14,052,36,31,48,052,51,14,39,115,36,32,17,123,40*74
2017-12-31 17:10:42 1514758242.672631: $GPGSV,3,3,10,26,75,136,47,135,22,240,42*4E
2017-12-31 17:10:42 1514758242.785799: $GPZDA,221043.00,31,12,2017,00,00*65
2017-12-31 17:10:42 1514758242.785973: $GPGGA,221043,3946.9583,N,08404.9854,W,2,10,0.80,301.57,M,-33.324,M,,*73
2017-12-31 17:10:42 1514758242.786040: $GPRMC,221043,A,3946.9583,N,08404.9854,W,0.0000,0.000,311217,,*39
2017-12-31 17:10:42 1514758242.786101: $GPGSA,A,3,22,23,3,16,29,31,14,32,26,135,,,1.7,0.8,1.3*35
2017-12-31 17:10:43 1514758243.353154: $GPZDA,221044.00,31,12,2017,00,00*62
2017-12-31 17:10:43 1514758243.353322: $GPGGA,221044,3946.9583,N,08404.9854,W,2,10,0.80,301.57,M,-33.324,M,,*74
2017-12-31 17:10:43 1514758243.353388: $GPRMC,221044,A,3946.9583,N,08404.9854,W,0.0000,0.000,311217,,*3E
2017-12-31 17:10:43 1514758243.353450: $GPGSA,A,3,22,23,3,16,29,31,14,32,26,135,,,1.7,0.8,1.3*35
