2017-12-01 13:43:55 1512153835.646736: {"class":"VERSION","release":"3.16","rev":"3.16-4","proto_major":3,"proto_minor":11}
2017-12-01 13:43:55 1512153835.647162: {"class":"DEVICES","devices":[{"class":"DEVICE","path":"/dev/ttyUSB0","driver":"SiRF","subtype":"9\u0006GSD4e_4.1.2-P1_RPATCH.05-F-GPS-4R-1510281 11/03/2015 307","activated":"2017-12-01T18:43:55.590Z","flags":1,"native":1,"bps":4800,"parity":"N","stopbits":1,"cycle":1.00}]}
2017-12-01 13:43:55 1512153835.647289: {"class":"WATCH","enable":true,"json":false,"nmea":true,"raw":0,"scaled":false,"timing":false,"split24":false,"pps":false}
2017-12-01 13:43:56 1512153836.371148: $GPZDA,184357.00,01,12,2017,00,00*6C
2017-12-01 13:43:56 1512153836.371433: $GPGGA,184357,3946.9593,N,08404.9857,W,2,11,0.80,296.39,M,-33.324,M,,*7D
2017-12-01 13:43:56 1512153836.371521: $GPRMC,184357,A,3946.9593,N,08404.9857,W,0.0000,0.000,011217,,*32
2017-12-01 13:43:56 1512153836.371586: $GPGSA,A,3,8,10,14,15,18,20,21,24,27,32,138,,2.0,0.8,1.5*34
2017-12-01 13:43:57 1512153837.709047: $GPGSV,3,1,11,08,08,310,36,10,53,313,48,14,15,240,38,15,25,058,46*76
2017-12-01 13:43:57 1512153837.709231: $GPGSV,3,2,11,18,77,027,42,20,22,106,47,21,48,183,45,24,53,084,47*7F
2017-12-01 13:43:57 1512153837.709298: $GPGSV,3,3,11,27,15,276,36,32,32,249,43,138,38,213,46*75
2017-12-01 13:43:57 1512153837.822436: $GPZDA,184358.00,01,12,2017,00,00*63
2017-12-01 13:43:57 1512153837.822620: $GPGGA,184358,3946.9593,N,08404.9857,W,2,11,0.80,296.39,M,-33.324,M,,*72
2017-12-01 13:43:57 1512153837.822694: $GPRMC,184358,A,3946.9593,N,08404.9857,W,0.0000,0.000,011217,,*3D
2017-12-01 13:43:57 1512153837.822757: $GPGSA,A,3,8,10,14,15,18,20,21,24,27,32,138,,2.0,0.8,1.5*34
2017-12-01 13:43:58 1512153838.373271: $GPZDA,184359.00,01,12,2017,00,00*62
2017-12-01 13:43:58 1512153838.373449: $GPGGA,184359,3946.9593,N,08404.9857,W,2,11,0.80,296.39,M,-33.324,M,,*73
2017-12-01 13:43:58 1512153838.373517: $GPRMC,184359,A,3946.9593,N,08404.9857,W,0.0000,0.000,011217,,*3C
2017-12-01 13:43:58 1512153838.373581: $GPGSA,A,3,8,10,14,15,18,20,21,24,27,32,138,,2.0,0.8,1.5*34
2017-12-01 13:43:59 1512153839.371713: $GPZDA,184400.00,01,12,2017,00,00*69
2017-12-01 13:43:59 1512153839.371892: $GPGGA,184400,3946.9593,N,08404.9857,W,2,11,0.80,296.39,M,-33.324,M,,*78
2017-12-01 13:43:59 1512153839.371962: $GPRMC,184400,A,3946.9593,N,08404.9857,W,0.0000,0.000,011217,,*37
2017-12-01 13:43:59 1512153839.372023: $GPGSA,A,3,8,10,14,15,18,20,21,24,27,32,138,,2.0,0.8,1.5*34
2017-12-01 13:44:01 1512153841.210750: $GPGSV,3,1,11,08,08,309,37,10,53,313,48,14,15,241,38,15,25,058,46*7E
2017-12-01 13:44:01 1512153841.210934: $GPGSV,3,2,11,18,77,028,42,20,22,106,47,21,47,183,45,24,53,084,47*7F
2017-12-01 13:44:01 1512153841.211000: $GPGSV,3,3,11,27,15,274,36,32,33,249,43,138,38,213,46*76
2017-12-01 13:44:01 1512153841.324279: $GPZDA,184401.00,01,12,2017,00,00*68
2017-12-01 13:44:01 1512153841.324491: $GPGGA,184401,3946.9590,N,08404.9859,W,2,11,0.80,298.56,M,-33.324,M,,*73
2017-12-01 13:44:01 1512153841.324561: $GPRMC,184401,A,3946.9590,N,08404.9859,W,0.0000,0.000,011217,,*3B
2017-12-01 13:44:01 1512153841.324629: $GPGSA,A,3,8,10,14,15,18,20,21,24,27,32,138,,2.0,0.8,1.5*34
2017-12-01 13:44:01 1512153841.775004: $GPZDA,184402.00,01,12,2017,00,00*6B
2017-12-01 13:44:01 1512153841.775185: $GPGGA,184402,3946.9590,N,08404.9859,W,2,11,0.80,298.56,M,-33.324,M,,*70
2017-12-01 13:44:01 1512153841.775253: $GPRMC,184402,A,3946.9590,N,08404.9859,W,0.0000,0.000,011217,,*38
2017-12-01 13:44:01 1512153841.775316: $GPGSA,A,3,8,10,14,15,18,20,21,24,27,32,138,,2.0,0.8,1.5*34
2017-12-01 13:44:02 1512153842.371084: $GPZDA,184403.00,01,12,2017,00,00*6A
2017-12-01 13:44:02 1512153842.371265: $GPGGA,184403,3946.9590,N,08404.9859,W,2,11,0.80,298.56,M,-33.324,M,,*71
2017-12-01 13:44:02 1512153842.371335: $GPRMC,184403,A,3946.9590,N,08404.9859,W,0.0000,0.000,011217,,*39
2017-12-01 13:44:02 1512153842.371486: $GPGSA,A,3,8,10,14,15,18,20,21,24,27,32,138,,2.0,0.8,1.5*34
2017-12-01 13:44:03 1512153843.711703: $GPGSV,3,1,11,08,08,309,38,10,53,313,48,14,15,241,38,15,25,058,47*70
2017-12-01 13:44:03 1512153843.711915: $GPGSV,3,2,11,18,77,028,42,20,22,106,47,21,47,183,45,24,53,084,48*70
2017-12-01 13:44:03 1512153843.711989: $GPGSV,3,3,11,27,15,274,37,32,33,249,43,138,38,213,47*76
2017-12-01 13:44:03 1512153843.825013: $GPZDA,184404.00,01,12,2017,00,00*6D
2017-12-01 13:44:03 1512153843.825198: $GPGGA,184404,3946.9590,N,08404.9859,W,2,11,0.80,298.56,M,-33.324,M,,*76
2017-12-01 13:44:03 1512153843.825265: $GPRMC,184404,A,3946.9590,N,08404.9859,W,0.0000,0.000,011217,,*3E
2017-12-01 13:44:03 1512153843.825328: $GPGSA,A,3,8,10,14,15,18,20,21,24,27,32,138,,2.0,0.8,1.5*34
2017-12-01 13:44:04 1512153844.375896: $GPZDA,184405.00,01,12,2017,00,00*6C
2017-12-01 13:44:04 1512153844.376087: $GPGGA,184405,3946.9590,N,08404.9859,W,2,11,0.80,298.56,M,-33.324,M,,*77
2017-12-01 13:44:04 1512153844.376156: $GPRMC,184405,A,3946.9590,N,08404.9859,W,0.0000,0.000,011217,,*3F
2017-12-01 13:44:04 1512153844.376219: $GPGSA,A,3,8,10,14,15,18,20,21,24,27,32,138,,2.0,0.8,1.5*34
2017-12-01 13:44:05 1512153845.376495: $GPZDA,184406.00,01,12,2017,00,00*6F
2017-12-01 13:44:05 1512153845.376675: $GPGGA,184406,3946.9590,N,08404.9859,W,2,11,0.80,298.56,M,-33.324,M,,*74
2017-12-01 13:44:05 1512153845.376742: $GPRMC,184406,A,3946.9590,N,08404.9859,W,0.0000,0.000,011217,,*3C
2017-12-01 13:44:05 1512153845.376805: $GPGSA,A,3,8,10,14,15,18,20,21,24,27,32,138,,2.0,0.8,1.5*34
