2018-01-11 19:49:13 1515718153.420715: {"class":"VERSION","release":"3.16","rev":"3.16-4","proto_major":3,"proto_minor":11}
2018-01-11 19:49:13 1515718153.421123: {"class":"DEVICES","devices":[{"class":"DEVICE","path":"/dev/ttyUSB0","driver":"SiRF","subtype":"9\u0006GSD4e_4.1.2-P1_RPATCH.05-F-GPS-4R-1510281 11/03/2015 307","activated":"2018-01-12T00:49:13.329Z","flags":1,"native":1,"bps":4800,"parity":"N","stopbits":1,"cycle":1.00}]}
2018-01-11 19:49:13 1515718153.421240: {"class":"WATCH","enable":true,"json":false,"nmea":true,"raw":0,"scaled":false,"timing":false,"split24":false,"pps":false}
2018-01-11 19:49:14 1515718154.102813: $GPZDA,004914.39,12,01,2018,00,00*6D
2018-01-11 19:49:14 1515718154.102982: $GPGGA,004914,3946.9596,N,08404.9851,W,1,11,0.80,311.36,M,-33.324,M,,*78
2018-01-11 19:49:14 1515718154.103049: $GPRMC,004914,A,3946.9596,N,08404.9851,W,0.3133,9.200,120118,,*33
2018-01-11 19:49:14 1515718154.103110: $GPGSA,A,3,7,8,9,16,23,27,30,11,26,28,138,,4.0,0.8,3.5*3A
2018-01-11 19:49:14 1515718154.103169: $GPGBS,004914,14.62,M,24.83,M,80.38,M*09
2018-01-11 19:49:15 1515718155.245131: $GPGSV,3,1,11,07,46,310,40,08,65,154,45,09,54,243,44,11,12,171,32*7A
2018-01-11 19:49:15 1515718155.245296: $GPGSV,3,2,11,16,30,054,47,23,39,193,49,27,55,064,50,30,21,303,31*73
2018-01-11 19:49:15 1515718155.245362: $GPGSV,3,3,11,28,07,252,08,26,05,067,00,138,38,213,00*78
2018-01-11 19:49:15 1515718155.358486: $GPZDA,004915.00,12,01,2018,00,00*66
2018-01-11 19:49:15 1515718155.358640: $GPGGA,004915,3946.9599,N,08404.9851,W,1,08,0.80,310.59,M,-33.324,M,,*76
2018-01-11 19:49:15 1515718155.358708: $GPRMC,004915,A,3946.9599,N,08404.9851,W,0.1567,9.200,120118,,*3A
2018-01-11 19:49:15 1515718155.358769: $GPGSA,A,3,7,8,9,11,16,23,27,30,,,,,4.0,0.8,3.5*0E
2018-01-11 19:49:15 1515718155.809660: $GPZDA,004916.00,12,01,2018,00,00*65
2018-01-11 19:49:15 1515718155.809843: $GPGGA,004916,3946.9595,N,08404.9851,W,1,08,0.80,309.95,M,-33.324,M,,*71
2018-01-11 19:49:15 1515718155.809911: $GPRMC,004916,A,3946.9595,N,08404.9851,W,0.2202,173.469,120118,,*37
2018-01-11 19:49:15 1515718155.809973: $GPGSA,A,3,7,8,9,11,16,23,27,30,,,,,4.0,0.8,3.5*0E
2018-01-11 19:49:16 1515718156.414228: $GPZDA,004917.00,12,01,2018,00,00*64
2018-01-11 19:49:16 1515718156.414388: $GPGGA,004917,3946.9598,N,08404.9850,W,1,08,0.80,309.19,M,-33.324,M,,*78
2018-01-11 19:49:16 1515718156.414454: $GPRMC,004917,A,3946.9598,N,08404.9850,W,0.0000,0.000,120118,,*36
2018-01-11 19:49:16 1515718156.414516: $GPGSA,A,3,7,8,9,11,16,23,27,30,,,,,4.0,0.8,3.5*0E
2018-01-11 19:49:17 1515718157.749292: $GPGSV,3,1,11,07,46,310,40,08,65,154,45,09,54,243,44,11,12,171,33*7B
2018-01-11 19:49:17 1515718157.749466: $GPGSV,3,2,11,16,30,054,47,23,39,193,50,27,55,064,50,30,21,303,31*7B
2018-01-11 19:49:17 1515718157.749533: $GPGSV,3,3,11,28,07,252,30,26,05,067,23,138,38,213,34*75
2018-01-11 19:49:17 1515718157.862601: $GPZDA,004918.00,12,01,2018,00,00*6B
2018-01-11 19:49:17 1515718157.862743: $GPGGA,004918,3946.9598,N,08404.9850,W,1,11,0.80,309.19,M,-33.324,M,,*7F
2018-01-11 19:49:17 1515718157.862809: $GPRMC,004918,A,3946.9598,N,08404.9850,W,0.0000,0.000,120118,,*39
2018-01-11 19:49:17 1515718157.862887: $GPGSA,A,3,7,8,9,11,16,23,27,30,28,26,138,,4.0,0.8,3.5*3A
2018-01-11 19:49:18 1515718158.418526: $GPZDA,004919.00,12,01,2018,00,00*6A
2018-01-11 19:49:18 1515718158.418688: $GPGGA,004919,3946.9598,N,08404.9849,W,1,11,0.80,307.78,M,-33.324,M,,*7F
2018-01-11 19:49:18 1515718158.418776: $GPRMC,004919,A,3946.9598,N,08404.9849,W,0.0000,0.000,120118,,*30
2018-01-11 19:49:18 1515718158.418838: $GPGSA,A,3,7,8,9,11,16,23,27,30,28,26,138,,4.0,0.8,3.5*3A
2018-01-11 19:49:19 1515718159.413083: $GPZDA,004920.00,12,01,2018,00,00*60
2018-01-11 19:49:19 1515718159.413246: $GPGGA,004920,3946.9598,N,08404.9849,W,1,11,0.80,307.78,M,-33.324,M,,*75
2018-01-11 19:49:19 1515718159.413312: $GPRMC,004920,A,3946.9598,N,08404.9849,W,0.0000,0.000,120118,,*3A
2018-01-11 19:49:19 1515718159.413373: $GPGSA,A,3,7,8,9,11,16,23,27,30,28,26,138,,4.0,0.8,3.5*3A
2018-01-11 19:49:19 1515718159.413449: $GPGBS,004920,14.62,M,24.83,M,80.38,M*0E
2018-01-11 19:49:20 1515718160.751184: $GPGSV,3,1,11,07,46,310,41,08,65,154,45,09,54,243,44,11,12,171,33*7A
2018-01-11 19:49:20 1515718160.751369: $GPGSV,3,2,11,16,30,054,47,23,39,193,50,27,55,064,51,30,21,303,32*79
2018-01-11 19:49:20 1515718160.751436: $GPGSV,3,3,11,28,07,252,29,26,05,067,20,138,38,213,46*7B
2018-01-11 19:49:20 1515718160.864850: $GPZDA,004921.00,12,01,2018,00,00*61
2018-01-11 19:49:20 1515718160.864975: $GPGGA,004921,3946.9597,N,08404.9848,W,1,11,0.80,306.38,M,-33.324,M,,*7F
2018-01-11 19:49:20 1515718160.865039: $GPRMC,004921,A,3946.9597,N,08404.9848,W,0.0000,0.000,120118,,*35
2018-01-11 19:49:20 1515718160.865100: $GPGSA,A,3,7,8,9,11,16,23,27,30,28,26,138,,4.0,0.8,3.5*3A
2018-01-11 19:49:21 1515718161.415477: $GPZDA,004922.00,12,01,2018,00,00*62
2018-01-11 19:49:21 1515718161.415632: $GPGGA,004922,3946.9597,N,08404.9844,W,2,11,2.80,298.59,M,-33.324,M,,*70
2018-01-11 19:49:21 1515718161.415701: $GPRMC,004922,A,3946.9597,N,08404.9844,W,0.0000,0.000,120118,,*3A
2018-01-11 19:49:21 1515718161.415761: $GPGSA,A,3,7,8,9,11,16,23,27,30,28,26,138,,4.0,2.8,3.5*38
2018-01-11 19:49:22 1515718162.418668: $GPZDA,004923.00,12,01,2018,00,00*63
2018-01-11 19:49:22 1515718162.418840: $GPGGA,004923,3946.9597,N,08404.9844,W,2,11,1.20,298.59,M,-33.324,M,,*78
2018-01-11 19:49:22 1515718162.418907: $GPRMC,004923,A,3946.9597,N,08404.9844,W,0.0000,0.000,120118,,*3B
2018-01-11 19:49:22 1515718162.418969: $GPGSA,A,3,7,8,9,11,16,23,27,30,28,26,138,,4.0,1.2,3.5*31
