2017-12-01 17:31:57 1512167517.646772: {"class":"VERSION","release":"3.16","rev":"3.16-4","proto_major":3,"proto_minor":11}
2017-12-01 17:31:57 1512167517.647266: {"class":"DEVICES","devices":[{"class":"DEVICE","path":"/dev/ttyUSB0","driver":"SiRF","subtype":"9\u0006GSD4e_4.1.2-P1_RPATCH.05-F-GPS-4R-1510281 11/03/2015 307","activated":"2017-12-01T22:31:57.365Z","flags":1,"native":1,"bps":4800,"parity":"N","stopbits":1,"cycle":1.00}]}
2017-12-01 17:31:57 1512167517.647393: {"class":"WATCH","enable":true,"json":false,"nmea":true,"raw":0,"scaled":false,"timing":false,"split24":false,"pps":false}
2017-12-01 17:31:57 1512167517.968046: $GPZDA,223158.62,01,12,2017,00,00*6B
2017-12-01 17:31:57 1512167517.968214: $GPGGA,223158,3946.9766,N,08404.9820,W,1,11,1.00,293.76,M,-33.325,M,,*73
2017-12-01 17:31:57 1512167517.968281: $GPRMC,223158,A,3946.9766,N,08404.9820,W,0.2172,85.764,011217,,*07
2017-12-01 17:31:57 1512167517.968342: $GPGSA,A,3,1,3,10,14,22,25,26,31,32,12,138,,2.0,1.0,1.5*0A
2017-12-01 17:31:57 1512167517.968400: $GPGBS,223158,10.70,M,15.43,M,35.28,M*08
2017-12-01 17:31:59 1512167519.073093: $GPZDA,223159.30,01,12,2017,00,00*6D
2017-12-01 17:31:59 1512167519.073264: $GPGGA,223159,3946.9766,N,08404.9820,W,1,11,1.00,293.76,M,-33.325,M,,*72
2017-12-01 17:31:59 1512167519.073331: $GPRMC,223159,A,3946.9766,N,08404.9820,W,0.7576,81.914,011217,,*0E
2017-12-01 17:31:59 1512167519.073392: $GPGSA,A,3,1,3,10,14,22,25,26,31,32,12,138,,2.0,1.0,1.5*0A
2017-12-01 17:32:00 1512167520.238229: $GPGSV,3,1,12,01,17,273,46,03,23,315,45,10,19,157,43,14,68,046,44*7B
2017-12-01 17:32:00 1512167520.238406: $GPGSV,3,2,12,22,41,300,48,25,34,055,43,26,29,177,42,31,79,297,45*7F
2017-12-01 17:32:00 1512167520.238475: $GPGSV,3,3,12,32,53,082,46,12,05,031,07,16,01,190,06,138,38,213,00*4F
2017-12-01 17:32:00 1512167520.351646: $GPZDA,223200.00,01,12,2017,00,00*61
2017-12-01 17:32:00 1512167520.351814: $GPGGA,223200,3946.9763,N,08404.9820,W,1,09,1.00,294.53,M,-33.325,M,,*71
2017-12-01 17:32:00 1512167520.351901: $GPRMC,223200,A,3946.9763,N,08404.9820,W,0.2422,93.794,011217,,*04
2017-12-01 17:32:00 1512167520.351964: $GPGSA,A,3,1,3,10,14,22,25,26,31,32,,,,2.0,1.0,1.5*33
2017-12-01 17:32:00 1512167520.802557: $GPZDA,223201.00,01,12,2017,00,00*60
2017-12-01 17:32:00 1512167520.802938: $GPGGA,223201,3946.9759,N,08404.9820,W,1,09,0.80,293.89,M,-33.325,M,,*70
2017-12-01 17:32:00 1512167520.803100: $GPRMC,223201,A,3946.9759,N,08404.9820,W,0.0000,0.000,011217,,*3A
2017-12-01 17:32:00 1512167520.803219: $GPGSA,A,3,1,3,10,14,22,25,26,31,32,,,,2.0,0.8,1.5*3A
2017-12-01 17:32:01 1512167521.360831: $GPZDA,223202.00,01,12,2017,00,00*63
2017-12-01 17:32:01 1512167521.361037: $GPGGA,223202,3946.9759,N,08404.9827,W,1,09,0.80,293.81,M,-33.325,M,,*7C
2017-12-01 17:32:01 1512167521.361105: $GPRMC,223202,A,3946.9759,N,08404.9827,W,0.0000,0.000,011217,,*3E
2017-12-01 17:32:01 1512167521.361166: $GPGSA,A,3,1,3,10,14,22,25,26,31,32,,,,2.0,0.8,1.5*3A
2017-12-01 17:32:02 1512167522.697316: $GPGSV,3,1,12,01,17,273,46,03,23,315,45,10,19,157,44,14,68,046,43*7B
2017-12-01 17:32:02 1512167522.697536: $GPGSV,3,2,12,22,41,300,48,25,34,055,42,26,29,177,42,31,79,297,46*7D
2017-12-01 17:32:02 1512167522.697625: $GPGSV,3,3,12,32,53,082,46,12,05,031,22,16,01,190,00,138,38,213,46*4C
2017-12-01 17:32:02 1512167522.810724: $GPZDA,223203.00,01,12,2017,00,00*62
2017-12-01 17:32:02 1512167522.810921: $GPGGA,223203,3946.9755,N,08404.9828,W,1,11,0.80,294.57,M,-33.325,M,,*7B
2017-12-01 17:32:02 1512167522.810989: $GPRMC,223203,A,3946.9755,N,08404.9828,W,0.0000,0.000,011217,,*3C
2017-12-01 17:32:02 1512167522.811077: $GPGSA,A,3,1,3,10,14,22,25,26,31,32,12,138,,2.0,0.8,1.5*03
2017-12-01 17:32:03 1512167523.457828: $GPZDA,223204.00,01,12,2017,00,00*65
2017-12-01 17:32:03 1512167523.458032: $GPGGA,223204,3946.9755,N,08404.9828,W,1,11,0.80,294.57,M,-33.325,M,,*7C
2017-12-01 17:32:03 1512167523.458100: $GPRMC,223204,A,3946.9755,N,08404.9828,W,0.2422,93.794,011217,,*0D
2017-12-01 17:32:03 1512167523.458162: $GPGSA,A,3,1,3,10,14,22,25,26,31,32,12,138,,2.0,0.8,1.5*03
2017-12-01 17:32:04 1512167524.361092: $GPZDA,223205.00,01,12,2017,00,00*64
2017-12-01 17:32:04 1512167524.361334: $GPGGA,223205,3946.9755,N,08404.9828,W,1,11,0.80,294.57,M,-33.325,M,,*7D
2017-12-01 17:32:04 1512167524.361481: $GPRMC,223205,A,3946.9755,N,08404.9828,W,0.2422,93.794,011217,,*0C
2017-12-01 17:32:04 1512167524.361546: $GPGSA,A,3,1,3,10,14,22,25,26,31,32,12,138,,2.0,0.8,1.5*03
2017-12-01 17:32:04 1512167524.361605: $GPGBS,223205,10.70,M,15.43,M,35.28,M*03
2017-12-01 17:32:05 1512167525.696795: $GPGSV,3,1,12,01,17,273,46,03,23,315,44,10,19,157,43,14,68,046,42*7C
2017-12-01 17:32:05 1512167525.697097: $GPGSV,3,2,12,22,41,300,48,25,34,055,42,26,29,177,43,31,79,297,46*7C
2017-12-01 17:32:05 1512167525.697168: $GPGSV,3,3,12,32,53,082,46,12,05,031,21,16,01,190,00,138,38,213,46*4F
2017-12-01 17:32:05 1512167525.810212: $GPZDA,223206.00,01,12,2017,00,00*67
2017-12-01 17:32:05 1512167525.810402: $GPGGA,223206,3946.9748,N,08404.9829,W,1,11,0.80,294.70,M,-33.325,M,,*76
2017-12-01 17:32:05 1512167525.810470: $GPRMC,223206,A,3946.9748,N,08404.9829,W,0.0000,0.000,011217,,*34
2017-12-01 17:32:05 1512167525.810531: $GPGSA,A,3,1,3,10,14,22,25,26,31,32,12,138,,2.0,0.8,1.5*03
2017-12-01 17:32:06 1512167526.359823: $GPZDA,223207.00,01,12,2017,00,00*66
2017-12-01 17:32:06 1512167526.360043: $GPGGA,223207,3946.9748,N,08404.9829,W,1,11,0.80,294.70,M,-33.325,M,,*77
2017-12-01 17:32:06 1512167526.360111: $GPRMC,223207,A,3946.9748,N,08404.9829,W,0.0000,0.000,011217,,*35
2017-12-01 17:32:06 1512167526.360173: $GPGSA,A,3,1,3,10,14,22,25,26,31,32,12,138,,2.0,0.8,1.5*03
2017-12-01 17:32:07 1512167527.360213: $GPZDA,223208.00,01,12,2017,00,00*69
2017-12-01 17:32:07 1512167527.360390: $GPGGA,223208,3946.9748,N,08404.9829,W,1,11,0.80,294.70,M,-33.325,M,,*78
2017-12-01 17:32:07 1512167527.360457: $GPRMC,223208,A,3946.9748,N,08404.9829,W,0.0000,0.000,011217,,*3A
2017-12-01 17:32:07 1512167527.360519: $GPGSA,A,3,1,3,10,14,22,25,26,31,32,12,138,,2.0,0.8,1.5*03
2017-12-01 17:32:08 1512167528.697252: $GPGSV,3,1,12,01,17,273,46,03,23,315,44,10,19,157,43,14,68,046,42*7C
2017-12-01 17:32:08 1512167528.697436: $GPGSV,3,2,12,22,41,300,48,25,34,055,42,26,29,177,43,31,79,297,46*7C
2017-12-01 17:32:08 1512167528.697503: $GPGSV,3,3,12,32,53,082,47,12,05,031,21,16,01,190,00,138,38,213,46*4E
2017-12-01 17:32:08 1512167528.810554: $GPZDA,223209.00,01,12,2017,00,00*68
2017-12-01 17:32:08 1512167528.810719: $GPGGA,223209,3946.9748,N,08404.9829,W,1,11,0.80,294.70,M,-33.325,M,,*79
2017-12-01 17:32:08 1512167528.810785: $GPRMC,223209,A,3946.9748,N,08404.9829,W,0.0000,0.000,011217,,*3B
2017-12-01 17:32:08 1512167528.810848: $GPGSA,A,3,1,3,10,14,22,25,26,31,32,12,138,,2.0,0.8,1.5*03
2017-12-01 17:32:09 1512167529.362984: $GPZDA,223210.00,01,12,2017,00,00*60
2017-12-01 17:32:09 1512167529.363159: $GPGGA,223210,3946.9744,N,08404.9830,W,1,11,0.80,295.46,M,-33.325,M,,*71
2017-12-01 17:32:09 1512167529.363227: $GPRMC,223210,A,3946.9744,N,08404.9830,W,0.0000,0.000,011217,,*37
2017-12-01 17:32:09 1512167529.363288: $GPGSA,A,3,1,3,10,14,22,25,26,31,32,12,138,,2.0,0.8,1.5*03
2017-12-01 17:32:10 1512167530.363641: $GPZDA,223211.00,01,12,2017,00,00*61
2017-12-01 17:32:10 1512167530.363815: $GPGGA,223211,3946.9730,N,08404.9845,W,2,11,1.00,295.55,M,-33.325,M,,*79
2017-12-01 17:32:10 1512167530.363886: $GPRMC,223211,A,3946.9730,N,08404.9845,W,0.0000,0.000,011217,,*37
2017-12-01 17:32:10 1512167530.363947: $GPGSA,A,2,1,3,10,14,22,25,26,31,32,12,138,,2.0,1.0,1.5*0B
2017-12-01 17:32:11 1512167531.700563: $GPGSV,3,1,12,01,17,273,46,03,23,315,44,10,19,157,43,14,68,046,42*7C
2017-12-01 17:32:11 1512167531.700722: $GPGSV,3,2,12,22,41,300,48,25,34,055,42,26,29,177,42,31,79,297,46*7D
2017-12-01 17:32:11 1512167531.700788: $GPGSV,3,3,12,32,53,082,46,12,05,031,20,16,01,190,00,138,38,213,46*4E
2017-12-01 17:32:11 1512167531.813925: $GPZDA,223212.00,01,12,2017,00,00*62
2017-12-01 17:32:11 1512167531.814103: $GPGGA,223212,3946.9730,N,08404.9845,W,2,11,0.80,295.55,M,-33.325,M,,*73
2017-12-01 17:32:11 1512167531.814170: $GPRMC,223212,A,3946.9730,N,08404.9845,W,0.0000,0.000,011217,,*34
2017-12-01 17:32:11 1512167531.814280: $GPGSA,A,3,1,3,10,14,22,25,26,31,32,12,138,,2.0,0.8,1.5*03
2017-12-01 17:32:12 1512167532.439483: $GPZDA,223213.00,01,12,2017,00,00*63
2017-12-01 17:32:12 1512167532.439672: $GPGGA,223213,3946.9730,N,08404.9845,W,2,11,0.80,295.55,M,-33.325,M,,*72
2017-12-01 17:32:12 1512167532.439744: $GPRMC,223213,A,3946.9730,N,08404.9845,W,0.0000,0.000,011217,,*35
2017-12-01 17:32:12 1512167532.439806: $GPGSA,A,3,1,3,10,14,22,25,26,31,32,12,138,,2.0,0.8,1.5*03
2017-12-01 17:32:13 1512167533.364031: $GPZDA,223214.00,01,12,2017,00,00*64
2017-12-01 17:32:13 1512167533.364224: $GPGGA,223214,3946.9730,N,08404.9845,W,2,11,0.80,295.55,M,-33.325,M,,*75
2017-12-01 17:32:13 1512167533.364292: $GPRMC,223214,A,3946.9730,N,08404.9845,W,0.0000,0.000,011217,,*32
2017-12-01 17:32:13 1512167533.364355: $GPGSA,A,3,1,3,10,14,22,25,26,31,32,12,138,,2.0,0.8,1.5*03
2017-12-01 17:32:14 1512167534.697153: $GPGSV,3,1,12,01,17,273,46,03,23,315,44,10,19,157,43,14,68,046,42*7C
2017-12-01 17:32:14 1512167534.697332: $GPGSV,3,2,12,22,41,300,48,25,34,055,42,26,29,177,42,31,79,297,46*7D
2017-12-01 17:32:14 1512167534.697417: $GPGSV,3,3,12,32,53,082,46,12,05,031,20,16,01,190,00,138,38,213,46*4E
2017-12-01 17:32:14 1512167534.810569: $GPZDA,223215.00,01,12,2017,00,00*65
2017-12-01 17:32:14 1512167534.810744: $GPGGA,223215,3946.9730,N,08404.9845,W,2,11,0.80,295.55,M,-33.325,M,,*74
2017-12-01 17:32:14 1512167534.810835: $GPRMC,223215,A,3946.9730,N,08404.9845,W,0.0000,0.000,011217,,*33
2017-12-01 17:32:14 1512167534.810898: $GPGSA,A,3,1,3,10,14,22,25,26,31,32,12,138,,2.0,0.8,1.5*03
2017-12-01 17:32:15 1512167535.362887: $GPZDA,223216.00,01,12,2017,00,00*66
2017-12-01 17:32:15 1512167535.363079: $GPGGA,223216,3946.9730,N,08404.9845,W,2,11,0.80,295.55,M,-33.325,M,,*77
2017-12-01 17:32:15 1512167535.363147: $GPRMC,223216,A,3946.9730,N,08404.9845,W,0.0000,0.000,011217,,*30
2017-12-01 17:32:15 1512167535.363208: $GPGSA,A,3,1,3,10,14,22,25,26,31,32,12,138,,2.0,0.8,1.5*03
2017-12-01 17:32:16 1512167536.363430: $GPZDA,223217.00,01,12,2017,00,00*67
2017-12-01 17:32:16 1512167536.363588: $GPGGA,223217,3946.9730,N,08404.9845,W,2,11,0.80,295.55,M,-33.325,M,,*76
2017-12-01 17:32:16 1512167536.363654: $GPRMC,223217,A,3946.9730,N,08404.9845,W,0.0000,0.000,011217,,*31
2017-12-01 17:32:16 1512167536.363715: $GPGSA,A,3,1,3,10,14,22,25,26,31,32,12,138,,2.0,0.8,1.5*03
2017-12-01 17:32:16 1512167536.363773: $GPGBS,223217,2.67,M,3.86,M,8.82,M*35
