2017-12-14 12:27:12 1513272432.691784: {"class":"VERSION","release":"3.16","rev":"3.16-4","proto_major":3,"proto_minor":11}
2017-12-14 12:27:12 1513272432.692424: {"class":"DEVICES","devices":[{"class":"DEVICE","path":"/dev/ttyUSB0","driver":"SiRF","subtype":"9\u0006GSD4e_4.1.2-P1_RPATCH.05-F-GPS-4R-1510281 11/03/2015 307","activated":"2017-12-14T17:27:12.636Z","flags":1,"native":1,"bps":4800,"parity":"N","stopbits":1,"cycle":1.00}]}
2017-12-14 12:27:12 1513272432.692566: {"class":"WATCH","enable":true,"json":false,"nmea":true,"raw":0,"scaled":false,"timing":false,"split24":false,"pps":false}
2017-12-14 12:27:14 1513272434.360066: $GPRMC,172715,V,18000.0000,N,00000.0000,W,0.0000,0.000,141217,,*16
2017-12-14 12:27:14 1513272434.360221: $GPGSA,A,1,24,21,10,15,18,20,32,,,,,,,,,*38
2017-12-14 12:27:15 1513272435.327854: $GPRMC,172716,V,3946.9604,N,08404.9328,W,0.0000,0.000,141217,,*27
2017-12-14 12:27:15 1513272435.328002: $GPGSA,A,1,24,21,10,15,18,20,32,,,,,,,,,*38
2017-12-14 12:27:15 1513272435.918856: $GPGSV,3,1,11,24,52,103,30,10,45,304,11,15,33,054,02,20,31,099,12*78
2017-12-14 12:27:15 1513272435.919009: $GPGSV,3,2,11,21,58,186,13,18,74,348,00,32,24,241,00,27,18,285,00*7D
2017-12-14 12:27:15 1513272435.919073: $GPGSV,3,3,11,14,07,234,00,08,07,319,00,13,04,049,00*41
2017-12-14 12:27:16 1513272436.031257: $GPRMC,172716,V,3946.9572,N,08404.9354,W,2.6219,188.599,141217,,*24
2017-12-14 12:27:16 1513272436.031427: $GPGSA,A,1,24,10,15,20,21,,,,,,,,,,,*30
2017-12-14 12:27:16 1513272436.738818: $GPRMC,172717,V,3946.9576,N,08404.9360,W,1.5927,232.205,141217,,*20
2017-12-14 12:27:16 1513272436.738991: $GPGSA,A,1,24,10,15,20,21,,,,,,,,,,,*30
2017-12-14 12:27:16 1513272436.995286: $GPZDA,172717.55,14,12,2017,00,00*61
2017-12-14 12:27:16 1513272436.995440: $GPGGA,172717,3946.9589,N,08404.9343,W,1,05,1.40,333.18,M,-33.324,M,,*77
2017-12-14 12:27:16 1513272436.995505: $GPRMC,172717,A,3946.9589,N,08404.9343,W,1.6746,239.993,141217,,*33
2017-12-14 12:27:16 1513272436.995565: $GPGSA,A,3,24,10,15,20,21,,,,,,,,6.6,1.4,6.2*31
2017-12-14 12:27:16 1513272436.995621: $GPGBS,172717,24.66,M,21.80,M,143.40,M*34
2017-12-14 12:27:17 1513272437.759480: $GPGSV,3,1,12,24,52,103,30,10,45,304,22,15,33,054,17,20,31,099,24*7A
2017-12-14 12:27:17 1513272437.764484: $GPGSV,3,2,12,21,58,186,22,32,24,241,14,18,74,348,17,13,04,049,04*73
2017-12-14 12:27:17 1513272437.764598: $GPGSV,3,3,12,27,18,285,00,14,07,234,00,08,07,319,00,138,38,213,00*4B
2017-12-14 12:27:17 1513272437.871918: $GPZDA,172718.00,14,12,2017,00,00*6E
2017-12-14 12:27:17 1513272437.872188: $GPGGA,172718,3946.9589,N,08404.9343,W,1,08,1.40,333.18,M,-33.324,M,,*75
2017-12-14 12:27:17 1513272437.872307: $GPRMC,172718,A,3946.9589,N,08404.9343,W,0.6339,279.674,141217,,*33
2017-12-14 12:27:17 1513272437.872372: $GPGSA,A,3,24,10,15,20,21,32,18,13,,,,,6.6,1.4,6.2*3B
2017-12-14 12:27:18 1513272438.183457: $GPZDA,172719.00,14,12,2017,00,00*6F
2017-12-14 12:27:18 1513272438.183626: $GPGGA,172719,3946.9588,N,08404.9349,W,1,08,1.40,331.70,M,-33.324,M,,*73
2017-12-14 12:27:18 1513272438.183692: $GPRMC,172719,A,3946.9588,N,08404.9349,W,0.3937,283.286,141217,,*34
2017-12-14 12:27:18 1513272438.183753: $GPGSA,A,3,24,10,15,20,21,32,18,13,,,,,6.6,1.4,6.2*3B
2017-12-14 12:27:19 1513272439.184680: $GPZDA,172720.00,14,12,2017,00,00*65
2017-12-14 12:27:19 1513272439.184845: $GPGGA,172720,3946.9592,N,08404.9348,W,1,08,1.40,330.93,M,-33.324,M,,*7F
2017-12-14 12:27:19 1513272439.184909: $GPRMC,172720,A,3946.9592,N,08404.9348,W,0.6910,250.131,141217,,*35
2017-12-14 12:27:19 1513272439.184970: $GPGSA,A,3,24,10,15,20,21,32,18,13,,,,,6.6,1.4,6.2*3B
2017-12-14 12:27:20 1513272440.519249: $GPGSV,3,1,12,24,52,103,29,10,45,304,22,15,33,054,17,20,31,099,24*72
2017-12-14 12:27:20 1513272440.519438: $GPGSV,3,2,12,21,58,186,22,32,24,241,14,18,74,348,00,27,18,285,00*79
2017-12-14 12:27:20 1513272440.519504: $GPGSV,3,3,12,14,07,234,00,08,07,319,00,13,04,049,00,138,38,213,00*43
2017-12-14 12:27:20 1513272440.632734: $GPZDA,172721.00,14,12,2017,00,00*64
2017-12-14 12:27:20 1513272440.632919: $GPGGA,172721,3946.9591,N,08404.9348,W,1,06,1.40,329.53,M,-33.324,M,,*77
2017-12-14 12:27:20 1513272440.633041: $GPRMC,172721,A,3946.9591,N,08404.9348,W,0.4763,233.554,141217,,*3D
2017-12-14 12:27:20 1513272440.633103: $GPGSA,A,3,24,10,15,20,21,32,,,,,,,6.6,1.4,6.2*30
2017-12-14 12:27:21 1513272441.184305: $GPZDA,172722.00,14,12,2017,00,00*67
2017-12-14 12:27:21 1513272441.184470: $GPGGA,172722,3946.9590,N,08404.9347,W,1,06,1.40,328.12,M,-33.324,M,,*7E
2017-12-14 12:27:21 1513272441.184536: $GPRMC,172722,A,3946.9590,N,08404.9347,W,0.7831,154.113,141217,,*3E
2017-12-14 12:27:21 1513272441.184597: $GPGSA,A,3,24,10,15,20,21,32,,,,,,,6.6,1.4,6.2*30
2017-12-14 12:27:22 1513272442.182730: $GPZDA,172723.00,14,12,2017,00,00*66
2017-12-14 12:27:22 1513272442.182898: $GPGGA,172723,3946.9586,N,08404.9346,W,1,06,1.40,326.08,M,-33.324,M,,*7C
2017-12-14 12:27:22 1513272442.182964: $GPRMC,172723,A,3946.9586,N,08404.9346,W,0.6205,146.563,141217,,*35
2017-12-14 12:27:22 1513272442.183025: $GPGSA,A,3,24,10,15,20,21,32,,,,,,,6.6,1.4,6.2*30
2017-12-14 12:27:23 1513272443.521069: $GPGSV,3,1,12,24,52,103,29,10,45,304,23,15,33,054,16,20,31,099,24*72
2017-12-14 12:27:23 1513272443.521248: $GPGSV,3,2,12,21,58,186,22,32,24,241,14,27,18,285,02,18,74,348,00*7B
2017-12-14 12:27:23 1513272443.521315: $GPGSV,3,3,12,14,07,234,00,08,07,319,00,13,04,049,00,138,38,213,00*43
2017-12-14 12:27:23 1513272443.634518: $GPZDA,172724.00,14,12,2017,00,00*61
2017-12-14 12:27:23 1513272443.634670: $GPGGA,172724,3946.9581,N,08404.9346,W,1,06,1.40,325.44,M,-33.324,M,,*77
2017-12-14 12:27:23 1513272443.634736: $GPRMC,172724,A,3946.9581,N,08404.9346,W,0.3308,205.322,141217,,*3B
2017-12-14 12:27:23 1513272443.634796: $GPGSA,A,3,24,10,15,20,21,32,,,,,,,6.6,1.4,6.2*30
2017-12-14 12:27:24 1513272444.183395: $GPZDA,172725.00,14,12,2017,00,00*60
2017-12-14 12:27:24 1513272444.183572: $GPGGA,172725,3946.9581,N,08404.9353,W,1,06,1.40,323.96,M,-33.324,M,,*7B
2017-12-14 12:27:24 1513272444.183657: $GPRMC,172725,A,3946.9581,N,08404.9353,W,0.3951,255.900,141217,,*37
2017-12-14 12:27:24 1513272444.183734: $GPGSA,A,3,24,10,15,20,21,32,,,,,,,6.6,1.4,6.2*30
2017-12-14 12:27:25 1513272445.183485: $GPZDA,172726.00,14,12,2017,00,00*63
2017-12-14 12:27:25 1513272445.183679: $GPGGA,172726,3946.9580,N,08404.9352,W,1,06,1.40,322.55,M,-33.324,M,,*76
2017-12-14 12:27:25 1513272445.183767: $GPRMC,172726,A,3946.9580,N,08404.9352,W,0.4757,170.909,141217,,*36
2017-12-14 12:27:25 1513272445.183830: $GPGSA,A,3,24,10,15,20,21,32,,,,,,,6.6,1.4,6.2*30
2017-12-14 12:27:26 1513272446.520904: $GPGSV,3,1,12,24,52,103,29,10,45,304,23,15,33,054,16,20,31,099,24*72
2017-12-14 12:27:26 1513272446.521047: $GPGSV,3,2,12,21,58,186,22,32,24,241,15,27,18,285,10,13,04,049,14*72
2017-12-14 12:27:26 1513272446.521111: $GPGSV,3,3,12,18,74,348,00,14,07,234,00,08,07,319,00,138,38,213,00*4D
2017-12-14 12:27:26 1513272446.633362: $GPZDA,172727.00,14,12,2017,00,00*62
2017-12-14 12:27:26 1513272446.633526: $GPGGA,172727,3946.9576,N,08404.9352,W,1,08,1.40,321.91,M,-33.324,M,,*7B
2017-12-14 12:27:26 1513272446.633615: $GPRMC,172727,A,3946.9576,N,08404.9352,W,1.1985,167.141,141217,,*39
2017-12-14 12:27:26 1513272446.633676: $GPGSA,A,3,24,10,15,20,21,32,27,13,,,,,6.6,1.4,6.2*37
2017-12-14 12:27:27 1513272447.183034: $GPZDA,172728.00,14,12,2017,00,00*6D
2017-12-14 12:27:27 1513272447.183204: $GPGGA,172728,3946.9572,N,08404.9345,W,1,08,1.40,321.35,M,-33.324,M,,*78
2017-12-14 12:27:27 1513272447.183269: $GPRMC,172728,A,3946.9572,N,08404.9345,W,1.6006,162.423,141217,,*35
2017-12-14 12:27:27 1513272447.183330: $GPGSA,A,3,24,10,15,20,21,32,27,13,,,,,6.6,1.4,6.2*37
2017-12-14 12:27:28 1513272448.183131: $GPZDA,172729.00,14,12,2017,00,00*6C
2017-12-14 12:27:28 1513272448.183310: $GPGGA,172729,3946.9567,N,08404.9351,W,1,08,1.40,319.23,M,-33.324,M,,*74
2017-12-14 12:27:28 1513272448.183397: $GPRMC,172729,A,3946.9567,N,08404.9351,W,1.0003,191.042,141217,,*39
2017-12-14 12:27:28 1513272448.183461: $GPGSA,A,3,24,10,15,20,21,32,27,13,,,,,6.6,1.4,6.2*37
2017-12-14 12:27:29 1513272449.519012: $GPGSV,3,1,12,24,52,103,29,10,45,304,23,15,33,054,16,20,31,099,24*72
2017-12-14 12:27:29 1513272449.519233: $GPGSV,3,2,12,21,58,186,22,32,24,241,14,18,74,348,00,27,18,285,00*79
2017-12-14 12:27:29 1513272449.519302: $GPGSV,3,3,12,14,07,234,00,08,07,319,00,13,04,049,00,138,38,213,00*43
2017-12-14 12:27:29 1513272449.632466: $GPZDA,172730.00,14,12,2017,00,00*64
2017-12-14 12:27:29 1513272449.632662: $GPGGA,172730,3946.9566,N,08404.9350,W,1,06,1.40,317.82,M,-33.324,M,,*77
2017-12-14 12:27:29 1513272449.632750: $GPRMC,172730,A,3946.9566,N,08404.9350,W,1.1841,189.311,141217,,*32
2017-12-14 12:27:29 1513272449.632812: $GPGSA,A,3,24,10,15,20,21,32,,,,,,,6.6,1.4,6.2*30
2017-12-14 12:27:30 1513272450.183789: $GPZDA,172731.00,14,12,2017,00,00*65
2017-12-14 12:27:30 1513272450.183958: $GPGGA,172731,3946.9558,N,08404.9350,W,1,06,1.40,316.54,M,-33.324,M,,*71
2017-12-14 12:27:30 1513272450.184025: $GPRMC,172731,A,3946.9558,N,08404.9350,W,1.6820,188.262,141217,,*3A
2017-12-14 12:27:30 1513272450.184086: $GPGSA,A,3,24,10,15,20,21,32,,,,,,,6.6,1.4,6.2*30
2017-12-14 12:27:31 1513272451.183000: $GPZDA,172732.00,14,12,2017,00,00*66
2017-12-14 12:27:31 1513272451.183168: $GPGGA,172732,3946.9557,N,08404.9350,W,1,06,1.40,315.14,M,-33.324,M,,*7A
2017-12-14 12:27:31 1513272451.183236: $GPRMC,172732,A,3946.9557,N,08404.9350,W,1.6805,180.000,141217,,*3F
2017-12-14 12:27:31 1513272451.183296: $GPGSA,A,3,24,10,15,20,21,32,,,,,,,6.6,1.4,6.2*30
2017-12-14 12:27:32 1513272452.518384: $GPGSV,3,1,12,24,52,103,29,10,45,304,23,15,33,054,16,20,31,099,24*72
2017-12-14 12:27:32 1513272452.518593: $GPGSV,3,2,12,21,58,186,23,32,24,241,14,18,74,348,00,27,18,285,00*78
2017-12-14 12:27:32 1513272452.518661: $GPGSV,3,3,12,14,07,234,00,08,07,319,00,13,04,049,00,138,38,213,00*43
2017-12-14 12:27:32 1513272452.631901: $GPZDA,172733.00,14,12,2017,00,00*67
2017-12-14 12:27:32 1513272452.632125: $GPGGA,172733,3946.9553,N,08404.9350,W,1,06,1.40,314.50,M,-33.324,M,,*7E
2017-12-14 12:27:32 1513272452.632202: $GPRMC,172733,A,3946.9553,N,08404.9350,W,0.9990,177.125,141217,,*37
2017-12-14 12:27:32 1513272452.632264: $GPGSA,A,3,24,10,15,20,21,32,,,,,,,6.6,1.4,6.2*30
