2017-11-16 15:25:47 1510863947.596569: {"class":"VERSION","release":"3.17","rev":"3.17","proto_major":3,"proto_minor":12}
2017-11-16 15:25:47 1510863947.596993: {"class":"DEVICES","devices":[{"class":"DEVICE","path":"/dev/ttyUSB0","driver":"SiRF","subtype":"9\u0006GSD4e_4.1.2-P1_RPATCH.05-F-GPS-4R-1510281 11/03/2015 307","activated":"2017-11-16T20:25:47.508Z","flags":1,"native":1,"bps":4800,"parity":"N","stopbits":1,"cycle":1.00}]}
2017-11-16 15:25:47 1510863947.597107: {"class":"WATCH","enable":true,"json":false,"nmea":true,"raw":0,"scaled":false,"timing":false,"split24":false,"pps":false}
2017-11-16 15:25:48 1510863948.385128: $GPZDA,202547.00,16,11,2017,00,00*63
2017-11-16 15:25:48 1510863948.385313: $GPGGA,202547,3946.9572,N,08404.9866,W,2,12,0.80,308.76,M,-33.324,M,,*74
2017-11-16 15:25:48 1510863948.385378: $GPRMC,202547,A,3946.9572,N,08404.9866,W,0.0000,0.000,161117,,*30
2017-11-16 15:25:48 1510863948.385435: $GPGSA,A,3,8,10,14,15,18,20,21,24,27,32,12,138,1.6,0.8,1.3*34
2017-11-16 15:25:49 1510863949.722148: $GPGSV,3,1,12,08,06,292,36,10,69,331,51,14,29,253,46,15,11,066,30*7E
2017-11-16 15:25:49 1510863949.722328: $GPGSV,3,2,12,18,71,094,47,20,08,118,27,21,29,180,43,24,45,058,51*75
2017-11-16 15:25:49 1510863949.722404: $GPGSV,3,3,12,27,06,259,22,32,46,265,49,12,09,106,34,138,38,213,45*42
2017-11-16 15:25:49 1510863949.835470: $GPZDA,202548.00,16,11,2017,00,00*6C
2017-11-16 15:25:49 1510863949.835673: $GPGGA,202548,3946.9572,N,08404.9866,W,2,12,0.80,308.76,M,-33.324,M,,*7B
2017-11-16 15:25:49 1510863949.835740: $GPRMC,202548,A,3946.9572,N,08404.9866,W,0.0000,0.000,161117,,*3F
2017-11-16 15:25:49 1510863949.835797: $GPGSA,A,3,8,10,14,15,18,20,21,24,27,32,12,138,1.6,0.8,1.3*34
2017-11-16 15:25:50 1510863950.362645: $GPZDA,202549.00,16,11,2017,00,00*6D
2017-11-16 15:25:50 1510863950.362832: $GPGGA,202549,3946.9572,N,08404.9866,W,2,12,0.80,308.76,M,-33.324,M,,*7A
2017-11-16 15:25:50 1510863950.362896: $GPRMC,202549,A,3946.9572,N,08404.9866,W,0.0000,0.000,161117,,*3E
2017-11-16 15:25:50 1510863950.362953: $GPGSA,A,3,8,10,14,15,18,20,21,24,27,32,12,138,1.6,0.8,1.3*34
2017-11-16 15:25:51 1510863951.385729: $GPZDA,202550.00,16,11,2017,00,00*65
2017-11-16 15:25:51 1510863951.385888: $GPGGA,202550,3946.9572,N,08404.9866,W,2,12,0.80,308.76,M,-33.324,M,,*72
2017-11-16 15:25:51 1510863951.385949: $GPRMC,202550,A,3946.9572,N,08404.9866,W,0.0000,0.000,161117,,*36
2017-11-16 15:25:51 1510863951.386005: $GPGSA,A,3,8,10,14,15,18,20,21,24,27,32,12,138,1.6,0.8,1.3*34
2017-11-16 15:25:52 1510863952.722523: $GPGSV,3,1,12,08,06,292,38,10,69,331,51,14,29,253,46,15,11,066,30*70
2017-11-16 15:25:52 1510863952.722705: $GPGSV,3,2,12,18,71,094,47,20,08,118,28,21,29,180,43,24,45,058,51*7A
2017-11-16 15:25:52 1510863952.722784: $GPGSV,3,3,12,27,06,259,24,32,46,265,48,12,09,106,34,138,38,213,44*44
2017-11-16 15:25:52 1510863952.835815: $GPZDA,202551.00,16,11,2017,00,00*64
2017-11-16 15:25:52 1510863952.836004: $GPGGA,202551,3946.9572,N,08404.9866,W,2,12,0.80,308.76,M,-33.324,M,,*73
2017-11-16 15:25:52 1510863952.836090: $GPRMC,202551,A,3946.9572,N,08404.9866,W,0.0000,0.000,161117,,*37
2017-11-16 15:25:52 1510863952.836151: $GPGSA,A,3,8,10,14,15,18,20,21,24,27,32,12,138,1.6,0.8,1.3*34
2017-11-16 15:25:53 1510863953.369418: $GPZDA,202552.00,16,11,2017,00,00*67
2017-11-16 15:25:53 1510863953.369598: $GPGGA,202552,3946.9572,N,08404.9866,W,2,12,0.80,308.76,M,-33.324,M,,*70
2017-11-16 15:25:53 1510863953.369680: $GPRMC,202552,A,3946.9572,N,08404.9866,W,0.0000,0.000,161117,,*34
2017-11-16 15:25:53 1510863953.369741: $GPGSA,A,3,8,10,14,15,18,20,21,24,27,32,12,138,1.6,0.8,1.3*34
2017-11-16 15:25:54 1510863954.385491: $GPZDA,202553.00,16,11,2017,00,00*66
2017-11-16 15:25:54 1510863954.385655: $GPGGA,202553,3946.9572,N,08404.9866,W,2,12,0.80,308.76,M,-33.324,M,,*71
2017-11-16 15:25:54 1510863954.385719: $GPRMC,202553,A,3946.9572,N,08404.9866,W,0.0000,0.000,161117,,*35
2017-11-16 15:25:54 1510863954.385778: $GPGSA,A,3,8,10,14,15,18,20,21,24,27,32,12,138,1.6,0.8,1.3*34
2017-11-16 15:25:55 1510863955.722060: $GPGSV,3,1,12,08,06,292,39,10,69,331,51,14,29,253,46,15,11,066,30*71
2017-11-16 15:25:55 1510863955.722307: $GPGSV,3,2,12,18,71,094,47,20,08,118,29,21,29,180,43,24,45,058,51*7B
2017-11-16 15:25:55 1510863955.722395: $GPGSV,3,3,12,27,06,259,29,32,46,265,48,12,09,106,33,138,38,213,44*4E
2017-11-16 15:25:55 1510863955.835443: $GPZDA,202554.00,16,11,2017,00,00*61
2017-11-16 15:25:55 1510863955.835808: $GPGGA,202554,3946.9572,N,08404.9866,W,2,12,0.80,308.76,M,-33.324,M,,*76
2017-11-16 15:25:55 1510863955.835927: $GPRMC,202554,A,3946.9572,N,08404.9866,W,0.0000,0.000,161117,,*32
2017-11-16 15:25:55 1510863955.836041: $GPGSA,A,3,8,10,14,15,18,20,21,24,27,32,12,138,1.6,0.8,1.3*34
2017-11-16 15:25:56 1510863956.460767: $GPZDA,202555.00,16,11,2017,00,00*60
2017-11-16 15:25:56 1510863956.460936: $GPGGA,202555,3946.9572,N,08404.9866,W,2,12,0.80,308.76,M,-33.324,M,,*77
2017-11-16 15:25:56 1510863956.460998: $GPRMC,202555,A,3946.9572,N,08404.9866,W,0.0000,0.000,161117,,*33
2017-11-16 15:25:56 1510863956.461055: $GPGSA,A,3,8,10,14,15,18,20,21,24,27,32,12,138,1.6,0.8,1.3*34
2017-11-16 15:25:57 1510863957.380412: $GPZDA,202556.00,16,11,2017,00,00*63
2017-11-16 15:25:57 1510863957.380617: $GPGGA,202556,3946.9572,N,08404.9866,W,2,12,0.80,308.76,M,-33.324,M,,*74
2017-11-16 15:25:57 1510863957.380680: $GPRMC,202556,A,3946.9572,N,08404.9866,W,0.0000,0.000,161117,,*30
2017-11-16 15:25:57 1510863957.380737: $GPGSA,A,3,8,10,14,15,18,20,21,24,27,32,12,138,1.6,0.8,1.3*34
