2017-12-31 17:50:55 1514760655.366896: {"class":"VERSION","release":"3.16","rev":"3.16-4","proto_major":3,"proto_minor":11}
2017-12-31 17:50:55 1514760655.367310: {"class":"DEVICES","devices":[{"class":"DEVICE","path":"/dev/ttyUSB0","driver":"SiRF","activated":"2017-12-31T22:50:55.324Z","flags":1,"native":1,"bps":4800,"parity":"N","stopbits":1,"cycle":1.00}]}
2017-12-31 17:50:55 1514760655.367414: {"class":"WATCH","enable":true,"json":false,"nmea":true,"raw":0,"scaled":false,"timing":false,"split24":false,"pps":false}
2017-12-31 17:50:55 1514760655.438384: $GPZDA,225056.00,31,12,2017,00,00*65
2017-12-31 17:50:55 1514760655.438533: $GPGGA,225056,3946.9566,N,08404.9858,W,2,11,0.80,305.39,M,-33.324,M,,*79
2017-12-31 17:50:55 1514760655.438597: $GPRMC,225056,A,3946.9566,N,08404.9858,W,0.0000,0.000,311217,,*3E
2017-12-31 17:50:55 1514760655.438658: $GPGSA,A,3,22,23,9,3,16,29,14,31,27,26,135,,1.7,0.8,1.3*08
2017-12-31 17:50:56 1514760656.375464: $GPZDA,225057.00,31,12,2017,00,00*64
2017-12-31 17:50:56 1514760656.375637: $GPGGA,225057,3946.9566,N,08404.9858,W,2,11,0.60,305.39,M,-33.324,M,,*76
2017-12-31 17:50:56 1514760656.375703: $GPRMC,225057,A,3946.9566,N,08404.9858,W,0.0000,0.000,311217,,*3F
2017-12-31 17:50:56 1514760656.375765: $GPGSA,A,3,22,23,9,3,16,29,14,31,27,26,135,,1.7,0.6,1.3*06
2017-12-31 17:50:57 1514760657.707303: $GPGSV,3,1,12,22,29,220,44,23,46,309,44,09,13,312,41,03,37,243,45*77
2017-12-31 17:50:57 1514760657.707493: $GPGSV,3,2,12,16,71,192,43,29,09,036,34,14,22,129,21,31,34,069,43*76
2017-12-31 17:50:57 1514760657.707560: $GPGSV,3,3,12,27,15,157,24,32,01,133,17,26,70,058,47,135,22,240,44*45
2017-12-31 17:50:57 1514760657.820626: $GPZDA,225058.00,31,12,2017,00,00*6B
2017-12-31 17:50:57 1514760657.820775: $GPGGA,225058,3946.9567,N,08404.9864,W,2,11,0.60,305.31,M,-33.324,M,,*7F
2017-12-31 17:50:57 1514760657.820840: $GPRMC,225058,A,3946.9567,N,08404.9864,W,0.0000,0.000,311217,,*3E
2017-12-31 17:50:57 1514760657.820903: $GPGSA,A,3,22,23,9,3,16,29,14,31,27,26,135,,1.7,0.6,1.3*06
2017-12-31 17:50:58 1514760658.346494: $GPZDA,225059.00,31,12,2017,00,00*6A
2017-12-31 17:50:58 1514760658.346664: $GPGGA,225059,3946.9567,N,08404.9864,W,2,11,0.60,305.31,M,-33.324,M,,*7E
2017-12-31 17:50:58 1514760658.346731: $GPRMC,225059,A,3946.9567,N,08404.9864,W,0.0000,0.000,311217,,*3F
2017-12-31 17:50:58 1514760658.346792: $GPGSA,A,3,22,23,9,3,16,29,14,31,27,26,135,,1.7,0.6,1.3*06
2017-12-31 17:50:59 1514760659.371353: $GPZDA,225100.00,31,12,2017,00,00*67
2017-12-31 17:50:59 1514760659.371526: $GPGGA,225100,3946.9567,N,08404.9864,W,2,11,0.60,305.31,M,-33.324,M,,*73
2017-12-31 17:50:59 1514760659.371593: $GPRMC,225100,A,3946.9567,N,08404.9864,W,0.0000,0.000,311217,,*32
2017-12-31 17:50:59 1514760659.371654: $GPGSA,A,3,22,23,9,3,16,29,14,31,27,26,135,,1.7,0.6,1.3*06
2017-12-31 17:51:00 1514760660.675128: $GPGSV,3,1,12,22,29,220,44,23,46,309,45,09,13,312,42,03,37,243,45*75
2017-12-31 17:51:00 1514760660.675320: $GPGSV,3,2,12,16,71,192,43,29,09,036,34,14,22,129,25,31,34,069,43*72
2017-12-31 17:51:00 1514760660.675386: $GPGSV,3,3,12,27,15,157,25,32,01,133,20,26,70,058,47,135,22,240,43*47
2017-12-31 17:51:00 1514760660.788758: $GPZDA,225101.00,31,12,2017,00,00*66
2017-12-31 17:51:00 1514760660.788900: $GPGGA,225101,3946.9567,N,08404.9864,W,2,12,0.60,305.31,M,-33.324,M,,*71
2017-12-31 17:51:00 1514760660.788966: $GPRMC,225101,A,3946.9567,N,08404.9864,W,0.0000,0.000,311217,,*33
2017-12-31 17:51:00 1514760660.789026: $GPGSA,A,3,22,23,9,3,16,29,14,31,27,32,26,135,1.7,0.6,1.3*07
2017-12-31 17:51:01 1514760661.347173: $GPZDA,225102.00,31,12,2017,00,00*65
2017-12-31 17:51:01 1514760661.347347: $GPGGA,225102,3946.9567,N,08404.9864,W,2,12,0.60,305.31,M,-33.324,M,,*72
2017-12-31 17:51:01 1514760661.347412: $GPRMC,225102,A,3946.9567,N,08404.9864,W,0.0000,0.000,311217,,*30
2017-12-31 17:51:01 1514760661.347473: $GPGSA,A,3,22,23,9,3,16,29,14,31,27,32,26,135,1.7,0.6,1.3*07
2017-12-31 17:51:02 1514760662.703423: $GPZDA,225103.00,31,12,2017,00,00*64
2017-12-31 17:51:02 1514760662.703576: $GPGGA,225103,3946.9567,N,08404.9864,W,2,12,0.60,305.31,M,-33.324,M,,*73
2017-12-31 17:51:02 1514760662.703682: $GPRMC,225103,A,3946.9567,N,08404.9864,W,0.0000,0.000,311217,,*31
2017-12-31 17:51:02 1514760662.703744: $GPGSA,A,3,22,23,9,3,16,29,14,31,27,32,26,135,1.7,0.6,1.3*07
2017-12-31 17:51:02 1514760662.703803: $GPGBS,225103,2.22,M,3.43,M,7.66,M*38
2017-12-31 17:51:03 1514760663.681689: $GPGSV,3,1,12,22,29,219,44,23,46,309,45,09,13,312,42,03,37,241,45*7D
2017-12-31 17:51:03 1514760663.681857: $GPGSV,3,2,12,16,71,192,43,29,09,036,34,14,22,129,00,31,34,069,43*75
2017-12-31 17:51:03 1514760663.681923: $GPGSV,3,3,12,27,15,157,28,32,01,133,20,26,70,058,48,135,22,240,44*42
2017-12-31 17:51:03 1514760663.795041: $GPZDA,225104.00,31,12,2017,00,00*63
2017-12-31 17:51:03 1514760663.795189: $GPGGA,225104,3946.9567,N,08404.9864,W,2,11,0.80,305.31,M,-33.324,M,,*79
2017-12-31 17:51:03 1514760663.795254: $GPRMC,225104,A,3946.9567,N,08404.9864,W,0.0000,0.000,311217,,*36
2017-12-31 17:51:03 1514760663.795314: $GPGSA,A,3,22,23,9,3,16,29,31,27,32,26,135,,1.7,0.8,1.3*0C
2017-12-31 17:51:04 1514760664.348616: $GPZDA,225105.00,31,12,2017,00,00*62
2017-12-31 17:51:04 1514760664.348787: $GPGGA,225105,3946.9567,N,08404.9864,W,2,11,0.80,305.31,M,-33.324,M,,*78
2017-12-31 17:51:04 1514760664.348853: $GPRMC,225105,A,3946.9567,N,08404.9864,W,0.0000,0.000,311217,,*37
2017-12-31 17:51:04 1514760664.348913: $GPGSA,A,3,22,23,9,3,16,29,31,27,32,26,135,,1.7,0.8,1.3*0C
2017-12-31 17:51:05 1514760665.347700: $GPZDA,225106.00,31,12,2017,00,00*61
2017-12-31 17:51:05 1514760665.351625: $GPGGA,225106,3946.9567,N,08404.9864,W,2,11,0.60,305.31,M,-33.324,M,,*75
2017-12-31 17:51:05 1514760665.351780: $GPRMC,225106,A,3946.9567,N,08404.9864,W,0.0000,0.000,311217,,*34
2017-12-31 17:51:05 1514760665.351844: $GPGSA,A,3,22,23,9,3,16,29,31,27,32,26,135,,1.7,0.6,1.3*02
