2017-12-14 11:52:33 1513270353.344429: {"class":"VERSION","release":"3.16","rev":"3.16-4","proto_major":3,"proto_minor":11}
2017-12-14 11:52:33 1513270353.344836: {"class":"DEVICES","devices":[{"class":"DEVICE","path":"/dev/ttyUSB0","driver":"SiRF","subtype":"9\u0006GSD4e_4.1.2-P1_RPATCH.05-F-GPS-4R-1510281 11/03/2015 307","activated":"2017-12-14T16:52:32.541Z","flags":1,"native":1,"bps":4800,"parity":"N","stopbits":1,"cycle":1.00}]}
2017-12-14 11:52:33 1513270353.344982: {"class":"WATCH","enable":true,"json":false,"nmea":true,"raw":0,"scaled":false,"timing":false,"split24":false,"pps":false}
2017-12-14 11:52:33 1513270353.828448: $GPRMC,165234,V,18000.0000,N,00000.0000,W,0.0000,0.000,141217,,*16
2017-12-14 11:52:33 1513270353.828635: $GPGSA,A,1,15,24,20,10,21,,,,,,,,,,,*30
2017-12-14 11:52:34 1513270354.794957: $GPRMC,165235,V,3946.9484,N,08404.9457,W,0.0000,0.000,141217,,*20
2017-12-14 11:52:34 1513270354.795116: $GPGSA,A,1,15,24,20,10,21,,,,,,,,,,,*30
2017-12-14 11:52:35 1513270355.887205: $GPGSV,3,1,10,20,43,085,22,24,44,126,21,10,33,292,08,15,48,049,17*71
2017-12-14 11:52:36 1513270356.463799: $GPGSV,3,2,10,18,64,316,02,27,19,301,00,13,17,046,00,32,12,231,00*7F
2017-12-14 11:52:36 1513270356.463940: $GPGSV,3,3,10,21,74,204,00,08,01,331,00*76
2017-12-14 11:52:36 1513270356.464035: $GPZDA,165236.42,14,12,2017,00,00*67
2017-12-14 11:52:36 1513270356.464092: $GPGGA,165236,3946.9505,N,08404.9414,W,1,05,1.80,359.52,M,-33.324,M,,*78
2017-12-14 11:52:36 1513270356.464152: $GPRMC,165236,A,3946.9505,N,08404.9414,W,1.0036,228.368,141217,,*3A
2017-12-14 11:52:36 1513270356.464212: $GPGSA,A,3,20,24,10,15,18,,,,,,,,6.6,1.8,6.2*37
2017-12-14 11:52:36 1513270356.464280: $GPGBS,165236,24.66,M,21.80,M,143.40,M*34
2017-12-14 11:52:36 1513270356.464335: $GPZDA,165236.51,14,12,2017,00,00*65
2017-12-14 11:52:36 1513270356.464404: $GPGGA,165236,3946.9519,N,08404.9385,W,1,05,1.80,359.59,M,-33.324,M,,*71
2017-12-14 11:52:36 1513270356.464466: $GPRMC,165236,A,3946.9519,N,08404.9385,W,0.9543,260.672,141217,,*35
2017-12-14 11:52:36 1513270356.464811: $GPGSA,A,3,20,24,10,15,18,,,,,,,,6.6,1.8,6.2*37
2017-12-14 11:52:36 1513270356.657724: $GPZDA,165237.02,14,12,2017,00,00*62
2017-12-14 11:52:36 1513270356.657915: $GPGGA,165237,3946.9534,N,08404.9369,W,1,05,1.80,359.50,M,-33.324,M,,*74
2017-12-14 11:52:36 1513270356.657981: $GPRMC,165237,A,3946.9534,N,08404.9369,W,1.1835,234.768,141217,,*37
2017-12-14 11:52:36 1513270356.658042: $GPGSA,A,3,20,24,10,15,18,,,,,,,,6.6,1.8,6.2*37
2017-12-14 11:52:37 1513270357.486172: $GPGSV,3,1,11,20,43,085,22,24,44,126,21,10,33,292,15,15,48,049,18*73
2017-12-14 11:52:37 1513270357.486392: $GPGSV,3,2,11,18,64,316,14,27,19,301,00,13,17,046,00,32,12,231,00*79
2017-12-14 11:52:37 1513270357.486488: $GPGSV,3,3,11,21,74,204,00,08,01,331,00,138,38,213,00*76
2017-12-14 11:52:37 1513270357.599376: $GPZDA,165238.00,14,12,2017,00,00*6F
2017-12-14 11:52:37 1513270357.599556: $GPGGA,165238,3946.9541,N,08404.9355,W,1,05,1.80,359.53,M,-33.324,M,,*75
2017-12-14 11:52:37 1513270357.599624: $GPRMC,165238,A,3946.9541,N,08404.9355,W,1.7321,207.515,141217,,*35
2017-12-14 11:52:37 1513270357.599703: $GPGSA,A,3,20,24,10,15,18,,,,,,,,6.6,1.8,6.2*37
2017-12-14 11:52:38 1513270358.149498: $GPZDA,165239.00,14,12,2017,00,00*6E
2017-12-14 11:52:38 1513270358.149706: $GPGGA,165239,3946.9541,N,08404.9355,W,1,05,1.80,359.53,M,-33.324,M,,*74
2017-12-14 11:52:38 1513270358.149773: $GPRMC,165239,A,3946.9541,N,08404.9355,W,1.1362,221.312,141217,,*30
2017-12-14 11:52:38 1513270358.149835: $GPGSA,A,3,20,24,10,15,18,,,,,,,,6.6,1.8,6.2*37
2017-12-14 11:52:39 1513270359.334576: $GPZDA,165240.00,14,12,2017,00,00*60
2017-12-14 11:52:39 1513270359.334769: $GPGGA,165240,3946.9541,N,08404.9355,W,1,05,1.80,359.53,M,-33.324,M,,*7A
2017-12-14 11:52:39 1513270359.334836: $GPRMC,165240,A,3946.9541,N,08404.9355,W,0.8054,248.645,141217,,*38
2017-12-14 11:52:39 1513270359.334899: $GPGSA,A,3,20,24,10,15,18,,,,,,,,6.6,1.8,6.2*37
2017-12-14 11:52:39 1513270359.334955: $GPGBS,165240,24.66,M,21.80,M,143.40,M*35
2017-12-14 11:52:40 1513270360.668703: $GPGSV,3,1,11,20,43,085,18,24,44,126,16,10,33,292,11,15,48,049,15*77
2017-12-14 11:52:40 1513270360.668924: $GPGSV,3,2,11,27,19,301,14,18,64,316,00,13,17,046,00,32,12,231,00*79
2017-12-14 11:52:40 1513270360.668991: $GPGSV,3,3,11,21,74,204,00,08,01,331,00,138,38,213,00*76
2017-12-14 11:52:40 1513270360.781854: $GPZDA,165241.00,14,12,2017,00,00*61
2017-12-14 11:52:40 1513270360.782026: $GPGGA,165241,3946.9540,N,08404.9354,W,1,05,1.80,358.13,M,-33.324,M,,*7E
2017-12-14 11:52:40 1513270360.782146: $GPRMC,165241,A,3946.9540,N,08404.9354,W,0.4315,214.066,141217,,*3D
2017-12-14 11:52:40 1513270360.782209: $GPGSA,A,3,20,24,10,15,27,,,,,,,,6.6,1.8,6.2*3B
2017-12-14 11:52:41 1513270361.332935: $GPRMC,165242,V,3946.9540,N,08404.9354,W,0.4315,214.066,141217,,*29
2017-12-14 11:52:41 1513270361.333108: $GPGSA,A,1,20,24,10,15,27,,,,,,,,,,,*36
2017-12-14 11:52:42 1513270362.332142: $GPRMC,165243,V,3946.9540,N,08404.9354,W,0.4315,214.066,141217,,*28
2017-12-14 11:52:42 1513270362.332318: $GPGSA,A,1,20,24,10,15,27,,,,,,,,,,,*36
2017-12-14 11:52:43 1513270363.668809: $GPGSV,3,1,11,20,43,085,23,24,44,126,20,10,33,292,15,15,48,049,20*78
2017-12-14 11:52:43 1513270363.668999: $GPGSV,3,2,11,18,64,316,00,27,19,301,00,13,17,046,00,32,12,231,00*7C
2017-12-14 11:52:43 1513270363.669067: $GPGSV,3,3,11,21,74,204,00,08,01,331,00,138,38,213,00*76
2017-12-14 11:52:43 1513270363.782233: $GPZDA,165244.01,14,12,2017,00,00*65
2017-12-14 11:52:43 1513270363.782380: $GPGGA,165244,3946.9532,N,08404.9355,W,1,04,1.80,358.25,M,-33.324,M,,*7B
2017-12-14 11:52:43 1513270363.782448: $GPRMC,165244,A,3946.9532,N,08404.9355,W,0.5287,182.716,141217,,*3B
2017-12-14 11:52:43 1513270363.782515: $GPGSA,A,3,20,24,10,15,,,,,,,,,6.6,1.8,6.2*3E
2017-12-14 11:52:43 1513270363.782573: $GPGBS,165244,24.66,M,21.80,M,143.40,M*31
2017-12-14 11:52:44 1513270364.333147: $GPZDA,165245.01,14,12,2017,00,00*64
2017-12-14 11:52:44 1513270364.333304: $GPGGA,165245,3946.9528,N,08404.9349,W,1,04,1.80,359.10,M,-33.324,M,,*7B
2017-12-14 11:52:44 1513270364.333373: $GPRMC,165245,A,3946.9528,N,08404.9349,W,1.4475,140.710,141217,,*3F
2017-12-14 11:52:44 1513270364.333456: $GPGSA,A,3,20,24,10,15,,,,,,,,,6.6,1.8,6.2*3E
2017-12-14 11:52:44 1513270364.333519: $GPGBS,165245,24.66,M,21.80,M,143.40,M*30
2017-12-14 11:52:45 1513270365.334004: $GPZDA,165246.00,14,12,2017,00,00*66
2017-12-14 11:52:45 1513270365.334174: $GPGGA,165246,3946.9517,N,08404.9356,W,1,04,1.80,358.50,M,-33.324,M,,*7F
2017-12-14 11:52:45 1513270365.334243: $GPRMC,165246,A,3946.9517,N,08404.9356,W,1.5746,174.845,141217,,*34
2017-12-14 11:52:45 1513270365.334307: $GPGSA,A,3,20,24,10,15,,,,,,,,,6.6,1.8,6.2*3E
2017-12-14 11:52:45 1513270365.334366: $GPGBS,165246,24.66,M,21.80,M,143.40,M*33
2017-12-14 11:52:46 1513270366.669731: $GPGSV,3,1,11,20,43,085,23,24,44,126,19,10,33,292,16,15,48,049,21*70
2017-12-14 11:52:46 1513270366.669910: $GPGSV,3,2,11,18,64,316,00,27,19,301,00,13,17,046,00,32,12,231,00*7C
2017-12-14 11:52:46 1513270366.669980: $GPGSV,3,3,11,21,74,204,00,08,01,331,00,138,38,213,00*76
2017-12-14 11:52:46 1513270366.783491: $GPZDA,165247.00,14,12,2017,00,00*67
2017-12-14 11:52:46 1513270366.783668: $GPGGA,165247,3946.9514,N,08404.9364,W,1,04,1.80,359.19,M,-33.324,M,,*70
2017-12-14 11:52:46 1513270366.783738: $GPRMC,165247,A,3946.9514,N,08404.9364,W,1.4491,164.668,141217,,*3F
2017-12-14 11:52:46 1513270366.783801: $GPGSA,A,3,20,24,10,15,,,,,,,,,6.6,1.8,6.2*3E
2017-12-14 11:52:47 1513270367.408427: $GPZDA,165248.00,14,12,2017,00,00*68
2017-12-14 11:52:47 1513270367.408609: $GPGGA,165248,3946.9514,N,08404.9364,W,1,04,1.80,359.19,M,-33.324,M,,*7F
2017-12-14 11:52:47 1513270367.408677: $GPRMC,165248,A,3946.9514,N,08404.9364,W,1.1824,129.173,141217,,*33
2017-12-14 11:52:47 1513270367.408742: $GPGSA,A,3,20,24,10,15,,,,,,,,,6.6,1.8,6.2*3E
2017-12-14 11:52:48 1513270368.335858: $GPZDA,165249.00,14,12,2017,00,00*69
2017-12-14 11:52:48 1513270368.336101: $GPGGA,165249,3946.9502,N,08404.9365,W,1,04,1.80,358.67,M,-33.324,M,,*70
2017-12-14 11:52:48 1513270368.336248: $GPRMC,165249,A,3946.9502,N,08404.9365,W,1.3084,135.525,141217,,*3E
2017-12-14 11:52:48 1513270368.336490: $GPGSA,A,3,20,24,10,15,,,,,,,,,6.6,1.8,6.2*3E
2017-12-14 11:52:49 1513270369.671294: $GPGSV,3,1,11,20,43,085,23,24,44,126,20,10,33,292,16,15,48,049,21*7A
2017-12-14 11:52:49 1513270369.671488: $GPGSV,3,2,11,18,64,316,12,27,19,301,00,13,17,046,00,32,12,231,00*7F
2017-12-14 11:52:49 1513270369.671557: $GPGSV,3,3,11,21,74,204,00,08,01,331,00,138,38,213,00*76
2017-12-14 11:52:49 1513270369.784968: $GPZDA,165250.00,14,12,2017,00,00*61
2017-12-14 11:52:49 1513270369.785136: $GPGGA,165250,3946.9502,N,08404.9365,W,1,04,1.80,358.67,M,-33.324,M,,*78
2017-12-14 11:52:49 1513270369.785202: $GPRMC,165250,A,3946.9502,N,08404.9365,W,1.2375,102.454,141217,,*39
2017-12-14 11:52:49 1513270369.785262: $GPGSA,A,3,20,24,10,15,,,,,,,,,6.6,1.8,6.2*3E
2017-12-14 11:52:50 1513270370.335576: $GPZDA,165251.00,14,12,2017,00,00*60
2017-12-14 11:52:50 1513270370.335764: $GPGGA,165251,3946.9499,N,08404.9365,W,1,04,1.80,359.44,M,-33.324,M,,*7A
2017-12-14 11:52:50 1513270370.335831: $GPRMC,165251,A,3946.9499,N,08404.9365,W,1.4470,99.982,141217,,*0A
2017-12-14 11:52:50 1513270370.335892: $GPGSA,A,3,20,24,10,15,,,,,,,,,6.6,1.8,6.2*3E
2017-12-14 11:52:51 1513270371.333837: $GPZDA,165252.00,14,12,2017,00,00*63
2017-12-14 11:52:51 1513270371.334013: $GPGGA,165252,3946.9499,N,08404.9365,W,1,04,1.80,359.44,M,-33.324,M,,*79
2017-12-14 11:52:51 1513270371.334080: $GPRMC,165252,A,3946.9499,N,08404.9365,W,1.2111,93.795,141217,,*0F
2017-12-14 11:52:51 1513270371.334141: $GPGSA,A,3,20,24,10,15,,,,,,,,,6.6,1.8,6.2*3E
2017-12-14 11:52:51 1513270371.334216: $GPGBS,165252,24.66,M,21.80,M,143.40,M*36
2017-12-14 11:52:52 1513270372.669029: $GPGSV,3,1,11,20,43,085,23,24,44,126,20,10,33,292,16,15,48,049,21*7A
2017-12-14 11:52:52 1513270372.669184: $GPGSV,3,2,11,18,64,316,12,21,74,204,18,27,19,301,00,13,17,046,00*72
2017-12-14 11:52:52 1513270372.669250: $GPGSV,3,3,11,32,12,231,00,08,01,331,00,138,38,213,00*72
2017-12-14 11:52:52 1513270372.782925: $GPZDA,165253.00,14,12,2017,00,00*62
2017-12-14 11:52:52 1513270372.783090: $GPGGA,165253,3946.9503,N,08404.9365,W,1,06,1.80,360.08,M,-33.324,M,,*7A
2017-12-14 11:52:52 1513270372.783155: $GPRMC,165253,A,3946.9503,N,08404.9365,W,0.9745,82.772,141217,,*08
2017-12-14 11:52:52 1513270372.783216: $GPGSA,A,3,20,24,10,15,18,21,,,,,,,6.6,1.8,6.2*34
2017-12-14 11:52:53 1513270373.334691: $GPZDA,165254.00,14,12,2017,00,00*65
2017-12-14 11:52:53 1513270373.335050: $GPGGA,165254,3946.9499,N,08404.9366,W,1,06,1.80,360.84,M,-33.324,M,,*78
2017-12-14 11:52:53 1513270373.335177: $GPRMC,165254,A,3946.9499,N,08404.9366,W,0.7002,91.310,141217,,*06
2017-12-14 11:52:53 1513270373.335301: $GPGSA,A,3,20,24,10,15,18,21,,,,,,,6.6,1.8,6.2*34
