2017-11-16 14:42:20 1510861340.278901: {"class":"VERSION","release":"3.17","rev":"3.17","proto_major":3,"proto_minor":12}
2017-11-16 14:42:20 1510861340.279464: {"class":"DEVICES","devices":[{"class":"DEVICE","path":"/dev/ttyUSB0","driver":"SiRF","subtype":"9\u0006GSD4e_4.1.2-P1_RPATCH.05-F-GPS-4R-1510281 11/03/2015 307","activated":"2017-11-16T19:42:19.721Z","flags":1,"native":1,"bps":4800,"parity":"N","stopbits":1,"cycle":1.00}]}
2017-11-16 14:42:20 1510861340.279628: {"class":"WATCH","enable":true,"json":false,"nmea":true,"raw":0,"scaled":false,"timing":false,"split24":false,"pps":false}
2017-11-16 14:42:20 1510861340.498928: $GPZDA,194219.00,16,11,2017,00,00*63
2017-11-16 14:42:20 1510861340.499110: $GPGGA,194219,3946.9564,N,08404.9842,W,2,11,0.80,302.74,M,-33.324,M,,*7E
2017-11-16 14:42:20 1510861340.499172: $GPRMC,194219,A,3946.9564,N,08404.9842,W,0.0000,0.000,161117,,*31
2017-11-16 14:42:20 1510861340.499229: $GPGSA,A,3,8,10,15,18,21,20,24,27,32,14,138,,1.6,0.8,1.3*37
2017-11-16 14:42:21 1510861341.874613: $GPGSV,3,1,11,08,08,312,39,10,51,310,50,15,27,057,51,18,77,015,44*79
2017-11-16 14:42:21 1510861341.874795: $GPGSV,3,2,11,21,51,184,47,20,24,105,46,24,53,088,49,27,16,277,44*7E
2017-11-16 14:42:21 1510861341.874855: $GPGSV,3,3,11,32,30,247,48,14,14,238,42,138,38,213,44*78
2017-11-16 14:42:21 1510861341.987901: $GPZDA,194220.00,16,11,2017,00,00*69
2017-11-16 14:42:21 1510861341.988058: $GPGGA,194220,3946.9564,N,08404.9842,W,2,11,0.80,302.74,M,-33.324,M,,*74
2017-11-16 14:42:21 1510861341.988119: $GPRMC,194220,A,3946.9564,N,08404.9842,W,0.0000,0.000,161117,,*3B
2017-11-16 14:42:21 1510861341.988175: $GPGSA,A,3,8,10,15,18,21,20,24,27,32,14,138,,1.6,0.8,1.3*37
2017-11-16 14:42:22 1510861342.505126: $GPZDA,194221.00,16,11,2017,00,00*68
2017-11-16 14:42:22 1510861342.505416: $GPGGA,194221,3946.9564,N,08404.9842,W,2,11,0.80,302.74,M,-33.324,M,,*75
2017-11-16 14:42:22 1510861342.505534: $GPRMC,194221,A,3946.9564,N,08404.9842,W,0.0000,0.000,161117,,*3A
2017-11-16 14:42:22 1510861342.505607: $GPGSA,A,3,8,10,15,18,21,20,24,27,32,14,138,,1.6,0.8,1.3*37
2017-11-16 14:42:23 1510861343.504584: $GPZDA,194222.00,16,11,2017,00,00*6B
2017-11-16 14:42:23 1510861343.504751: $GPGGA,194222,3946.9564,N,08404.9842,W,2,11,0.80,302.74,M,-33.324,M,,*76
2017-11-16 14:42:23 1510861343.504813: $GPRMC,194222,A,3946.9564,N,08404.9842,W,0.0000,0.000,161117,,*39
2017-11-16 14:42:23 1510861343.504869: $GPGSA,A,3,8,10,15,18,21,20,24,27,32,14,138,,1.6,0.8,1.3*37
2017-11-16 14:42:24 1510861344.841081: $GPGSV,3,1,11,08,08,312,39,10,51,310,50,15,27,057,51,18,77,015,43*7E
2017-11-16 14:42:24 1510861344.841252: $GPGSV,3,2,11,21,51,184,47,20,24,105,46,24,53,088,49,27,16,277,43*79
2017-11-16 14:42:24 1510861344.841341: $GPGSV,3,3,11,32,30,247,48,14,14,238,42,138,38,213,43*7F
2017-11-16 14:42:24 1510861344.954334: $GPZDA,194223.00,16,11,2017,00,00*6A
2017-11-16 14:42:24 1510861344.954510: $GPGGA,194223,3946.9564,N,08404.9842,W,2,11,0.80,302.74,M,-33.324,M,,*77
2017-11-16 14:42:24 1510861344.954571: $GPRMC,194223,A,3946.9564,N,08404.9842,W,0.0000,0.000,161117,,*38
2017-11-16 14:42:24 1510861344.954627: $GPGSA,A,3,8,10,15,18,21,20,24,27,32,14,138,,1.6,0.8,1.3*37
2017-11-16 14:42:25 1510861345.498916: $GPZDA,194224.00,16,11,2017,00,00*6D
2017-11-16 14:42:25 1510861345.499081: $GPGGA,194224,3946.9564,N,08404.9842,W,2,11,0.80,302.74,M,-33.324,M,,*70
2017-11-16 14:42:25 1510861345.499141: $GPRMC,194224,A,3946.9564,N,08404.9842,W,0.0000,0.000,161117,,*3F
2017-11-16 14:42:25 1510861345.499199: $GPGSA,A,3,8,10,15,18,21,20,24,27,32,14,138,,1.6,0.8,1.3*37
2017-11-16 14:42:26 1510861346.498596: $GPZDA,194225.00,16,11,2017,00,00*6C
2017-11-16 14:42:26 1510861346.498784: $GPGGA,194225,3946.9564,N,08404.9842,W,2,11,0.80,302.74,M,-33.324,M,,*71
2017-11-16 14:42:26 1510861346.498846: $GPRMC,194225,A,3946.9564,N,08404.9842,W,0.0000,0.000,161117,,*3E
2017-11-16 14:42:26 1510861346.498903: $GPGSA,A,3,8,10,15,18,21,20,24,27,32,14,138,,1.6,0.8,1.3*37
2017-11-16 14:42:27 1510861347.840612: $GPGSV,3,1,11,08,08,312,39,10,51,310,50,15,27,057,51,18,77,015,43*7E
2017-11-16 14:42:27 1510861347.840831: $GPGSV,3,2,11,21,51,184,47,20,24,105,46,24,53,088,49,27,16,277,43*79
2017-11-16 14:42:27 1510861347.840893: $GPGSV,3,3,11,32,30,247,48,14,14,238,41,138,38,213,44*7B
2017-11-16 14:42:27 1510861347.954092: $GPZDA,194226.00,16,11,2017,00,00*6F
2017-11-16 14:42:27 1510861347.954286: $GPGGA,194226,3946.9564,N,08404.9842,W,2,11,0.80,302.74,M,-33.324,M,,*72
2017-11-16 14:42:27 1510861347.954350: $GPRMC,194226,A,3946.9564,N,08404.9842,W,0.0000,0.000,161117,,*3D
2017-11-16 14:42:27 1510861347.954407: $GPGSA,A,3,8,10,15,18,21,20,24,27,32,14,138,,1.6,0.8,1.3*37
2017-11-16 14:42:28 1510861348.504635: $GPZDA,194227.00,16,11,2017,00,00*6E
2017-11-16 14:42:28 1510861348.504800: $GPGGA,194227,3946.9564,N,08404.9842,W,2,11,0.80,302.74,M,-33.324,M,,*73
2017-11-16 14:42:28 1510861348.504860: $GPRMC,194227,A,3946.9564,N,08404.9842,W,0.0000,0.000,161117,,*3C
2017-11-16 14:42:28 1510861348.504918: $GPGSA,A,3,8,10,15,18,21,20,24,27,32,14,138,,1.6,0.8,1.3*37
2017-11-16 14:42:29 1510861349.503606: $GPZDA,194228.00,16,11,2017,00,00*61
2017-11-16 14:42:29 1510861349.503782: $GPGGA,194228,3946.9564,N,08404.9842,W,2,11,0.80,302.74,M,-33.324,M,,*7C
2017-11-16 14:42:29 1510861349.503848: $GPRMC,194228,A,3946.9564,N,08404.9842,W,0.0000,0.000,161117,,*33
2017-11-16 14:42:29 1510861349.503908: $GPGSA,A,3,8,10,15,18,21,20,24,27,32,14,138,,1.6,0.8,1.3*37
