2018-01-12 03:40:57 1515746457.355140: {"class":"VERSION","release":"3.16","rev":"3.16-4","proto_major":3,"proto_minor":11}
2018-01-12 03:40:57 1515746457.355537: {"class":"DEVICES","devices":[{"class":"DEVICE","path":"/dev/ttyUSB0","driver":"SiRF","subtype":"9\u0006GSD4e_4.1.2-P1_RPATCH.05-F-GPS-4R-1510281 11/03/2015 307","activated":"2018-01-12T08:40:57.262Z","flags":1,"native":1,"bps":4800,"parity":"N","stopbits":1,"cycle":1.00}]}
2018-01-12 03:40:57 1515746457.355672: {"class":"WATCH","enable":true,"json":false,"nmea":true,"raw":0,"scaled":false,"timing":false,"split24":false,"pps":false}
2018-01-12 03:40:57 1515746457.866311: $GPZDA,084058.55,12,01,2018,00,00*6E
2018-01-12 03:40:57 1515746457.866482: $GPGGA,084058,3946.9610,N,08404.9801,W,1,11,1.00,298.82,M,-33.324,M,,*7F
2018-01-12 03:40:57 1515746457.866548: $GPRMC,084058,A,3946.9610,N,08404.9801,W,0.4179,148.778,120118,,*35
2018-01-12 03:40:57 1515746457.866609: $GPGSA,A,3,2,5,6,12,17,19,25,9,23,24,138,,2.4,1.0,2.1*09
2018-01-12 03:40:57 1515746457.866667: $GPGBS,084058,11.98,M,14.47,M,47.88,M*0B
2018-01-12 03:40:58 1515746458.799728: $GPZDA,084059.24,12,01,2018,00,00*69
2018-01-12 03:40:58 1515746458.799921: $GPGGA,084059,3946.9610,N,08404.9801,W,1,11,1.00,298.82,M,-33.324,M,,*7E
2018-01-12 03:40:58 1515746458.800007: $GPRMC,084059,A,3946.9610,N,08404.9801,W,0.3006,62.539,120118,,*04
2018-01-12 03:40:58 1515746458.800084: $GPGSA,A,3,2,5,6,12,17,19,25,9,23,24,138,,2.4,1.0,2.1*09
2018-01-12 03:40:58 1515746458.800144: $GPGBS,084059,11.98,M,14.47,M,47.88,M*0A
2018-01-12 03:40:59 1515746459.940992: $GPGSV,3,1,12,02,66,294,47,05,30,195,47,06,61,034,44,12,53,285,51*76
2018-01-12 03:40:59 1515746459.948040: $GPGSV,3,2,12,17,28,108,43,19,46,097,40,25,21,316,44,09,15,085,12*7A
2018-01-12 03:40:59 1515746459.948152: $GPGSV,3,3,12,23,09,052,16,04,41,264,00,24,01,243,00,138,38,213,00*40
2018-01-12 03:41:00 1515746460.054415: $GPZDA,084100.00,12,01,2018,00,00*62
2018-01-12 03:41:00 1515746460.054565: $GPGGA,084100,3946.9610,N,08404.9801,W,1,07,1.00,298.82,M,-33.324,M,,*74
2018-01-12 03:41:00 1515746460.054632: $GPRMC,084100,A,3946.9610,N,08404.9801,W,0.1567,9.200,120118,,*39
2018-01-12 03:41:00 1515746460.054715: $GPGSA,A,3,2,5,6,12,17,19,25,,,,,,2.4,1.0,2.1*0D
2018-01-12 03:41:00 1515746460.506503: $GPZDA,084101.00,12,01,2018,00,00*63
2018-01-12 03:41:00 1515746460.506708: $GPGGA,084101,3946.9610,N,08404.9808,W,1,07,0.80,298.74,M,-33.324,M,,*7C
2018-01-12 03:41:00 1515746460.506776: $GPRMC,084101,A,3946.9610,N,08404.9808,W,0.0000,0.000,120118,,*3F
2018-01-12 03:41:00 1515746460.506854: $GPGSA,A,3,2,5,6,12,17,19,25,,,,,,2.4,0.8,2.1*04
2018-01-12 03:41:01 1515746461.360239: $GPZDA,084102.00,12,01,2018,00,00*60
2018-01-12 03:41:01 1515746461.360405: $GPGGA,084102,3946.9607,N,08404.9808,W,1,07,0.80,299.50,M,-33.324,M,,*7E
2018-01-12 03:41:01 1515746461.360471: $GPRMC,084102,A,3946.9607,N,08404.9808,W,0.0000,0.000,120118,,*3A
2018-01-12 03:41:01 1515746461.360532: $GPGSA,A,3,2,5,6,12,17,19,25,,,,,,2.4,0.8,2.1*04
2018-01-12 03:41:02 1515746462.696373: $GPGSV,3,1,12,02,66,294,48,05,30,195,48,06,61,034,45,12,53,285,51*77
2018-01-12 03:41:02 1515746462.696535: $GPGSV,3,2,12,17,28,108,44,19,46,097,40,25,21,316,44,09,15,085,32*7F
2018-01-12 03:41:02 1515746462.696600: $GPGSV,3,3,12,23,09,052,30,04,41,264,00,24,01,243,00,138,38,213,38*4F
2018-01-12 03:41:02 1515746462.809746: $GPZDA,084103.00,12,01,2018,00,00*61
2018-01-12 03:41:02 1515746462.809894: $GPGGA,084103,3946.9603,N,08404.9815,W,1,10,0.80,298.79,M,-33.324,M,,*7B
2018-01-12 03:41:02 1515746462.809961: $GPRMC,084103,A,3946.9603,N,08404.9815,W,0.0000,0.000,120118,,*33
2018-01-12 03:41:02 1515746462.810022: $GPGSA,A,3,2,5,6,12,17,19,25,9,23,138,,,2.4,0.8,2.1*06
2018-01-12 03:41:03 1515746463.358137: $GPZDA,084104.00,12,01,2018,00,00*66
2018-01-12 03:41:03 1515746463.358317: $GPGGA,084104,3946.9603,N,08404.9815,W,1,10,0.80,298.79,M,-33.324,M,,*7C
2018-01-12 03:41:03 1515746463.358384: $GPRMC,084104,A,3946.9603,N,08404.9815,W,0.4207,39.346,120118,,*0E
2018-01-12 03:41:03 1515746463.358444: $GPGSA,A,3,2,5,6,12,17,19,25,9,23,138,,,2.4,0.8,2.1*06
