2017-12-31 17:59:15 1514761155.198478: {"class":"VERSION","release":"3.16","rev":"3.16-4","proto_major":3,"proto_minor":11}
2017-12-31 17:59:15 1514761155.198816: {"class":"DEVICES","devices":[{"class":"DEVICE","path":"/dev/ttyUSB0","driver":"SiRF","activated":"2017-12-31T22:59:15.168Z","flags":1,"native":1,"bps":4800,"parity":"N","stopbits":1,"cycle":1.00}]}
2017-12-31 17:59:15 1514761155.198912: {"class":"WATCH","enable":true,"json":false,"nmea":true,"raw":0,"scaled":false,"timing":false,"split24":false,"pps":false}
2017-12-31 17:59:15 1514761155.681312: $GPGSV,3,1,11,22,26,217,45,23,50,307,42,09,16,312,36,03,35,238,44*7B
2017-12-31 17:59:15 1514761155.681510: $GPGSV,3,2,11,16,76,192,43,29,07,033,30,14,19,130,31,31,31,072,44*74
2017-12-31 17:59:15 1514761155.681576: $GPGSV,3,3,11,27,18,156,27,26,66,054,50,135,22,240,43*74
2017-12-31 17:59:15 1514761155.794675: $GPZDA,225916.00,31,12,2017,00,00*68
2017-12-31 17:59:15 1514761155.794796: $GPGGA,225916,3946.9567,N,08404.9865,W,2,11,0.60,306.72,M,-33.324,M,,*79
2017-12-31 17:59:15 1514761155.794862: $GPRMC,225916,A,3946.9567,N,08404.9865,W,0.0000,0.000,311217,,*3C
2017-12-31 17:59:15 1514761155.794923: $GPGSA,A,3,22,23,9,3,16,29,14,31,27,26,135,,1.7,0.6,1.3*06
2017-12-31 17:59:16 1514761156.345563: $GPZDA,225917.00,31,12,2017,00,00*69
2017-12-31 17:59:16 1514761156.345721: $GPGGA,225917,3946.9567,N,08404.9865,W,2,11,0.60,306.72,M,-33.324,M,,*78
2017-12-31 17:59:16 1514761156.345787: $GPRMC,225917,A,3946.9567,N,08404.9865,W,0.0000,0.000,311217,,*3D
2017-12-31 17:59:16 1514761156.345847: $GPGSA,A,3,22,23,9,3,16,29,14,31,27,26,135,,1.7,0.6,1.3*06
2017-12-31 17:59:17 1514761157.371436: $GPZDA,225918.00,31,12,2017,00,00*66
2017-12-31 17:59:17 1514761157.371592: $GPGGA,225918,3946.9567,N,08404.9865,W,2,11,0.60,306.72,M,-33.324,M,,*77
2017-12-31 17:59:17 1514761157.371658: $GPRMC,225918,A,3946.9567,N,08404.9865,W,0.0000,0.000,311217,,*32
2017-12-31 17:59:17 1514761157.371718: $GPGSA,A,3,22,23,9,3,16,29,14,31,27,26,135,,1.7,0.6,1.3*06
2017-12-31 17:59:18 1514761158.700974: $GPGSV,3,1,11,22,26,217,44,23,50,307,42,09,16,312,37,03,35,238,45*7A
2017-12-31 17:59:18 1514761158.701142: $GPGSV,3,2,11,16,76,192,42,29,07,033,32,14,19,130,32,31,31,072,44*74
2017-12-31 17:59:18 1514761158.701208: $GPGSV,3,3,11,27,18,156,28,26,66,054,50,135,22,240,44*7C
2017-12-31 17:59:18 1514761158.814447: $GPZDA,225919.00,31,12,2017,00,00*67
2017-12-31 17:59:18 1514761158.814582: $GPGGA,225919,3946.9567,N,08404.9865,W,2,11,0.60,306.72,M,-33.324,M,,*76
2017-12-31 17:59:18 1514761158.814649: $GPRMC,225919,A,3946.9567,N,08404.9865,W,0.0000,0.000,311217,,*33
2017-12-31 17:59:18 1514761158.814709: $GPGSA,A,3,22,23,9,3,16,29,14,31,27,26,135,,1.7,0.6,1.3*06
2017-12-31 17:59:19 1514761159.346565: $GPZDA,225920.00,31,12,2017,00,00*6D
2017-12-31 17:59:19 1514761159.346731: $GPGGA,225920,3946.9567,N,08404.9865,W,2,11,0.60,306.72,M,-33.324,M,,*7C
2017-12-31 17:59:19 1514761159.346797: $GPRMC,225920,A,3946.9567,N,08404.9865,W,0.0000,0.000,311217,,*39
2017-12-31 17:59:19 1514761159.346858: $GPGSA,A,3,22,23,9,3,16,29,14,31,27,26,135,,1.7,0.6,1.3*06
2017-12-31 17:59:20 1514761160.344445: $GPZDA,225921.00,31,12,2017,00,00*6C
2017-12-31 17:59:20 1514761160.344633: $GPGGA,225921,3946.9564,N,08404.9866,W,2,11,0.60,307.48,M,-33.324,M,,*75
2017-12-31 17:59:20 1514761160.344701: $GPRMC,225921,A,3946.9564,N,08404.9866,W,0.0000,0.000,311217,,*38
2017-12-31 17:59:20 1514761160.344763: $GPGSA,A,3,22,23,9,3,16,29,14,31,27,26,135,,1.7,0.6,1.3*06
2017-12-31 17:59:21 1514761161.681300: $GPGSV,3,1,11,22,26,217,45,23,50,307,43,09,16,312,37,03,35,238,44*7B
2017-12-31 17:59:21 1514761161.681482: $GPGSV,3,2,11,16,76,192,43,29,07,033,39,14,19,130,32,31,31,072,44*7E
2017-12-31 17:59:21 1514761161.681549: $GPGSV,3,3,11,27,18,156,28,26,66,054,50,135,22,240,43*7B
2017-12-31 17:59:21 1514761161.794739: $GPZDA,225922.00,31,12,2017,00,00*6F
2017-12-31 17:59:21 1514761161.794884: $GPGGA,225922,3946.9564,N,08404.9866,W,2,11,0.60,307.48,M,-33.324,M,,*76
2017-12-31 17:59:21 1514761161.794951: $GPRMC,225922,A,3946.9564,N,08404.9866,W,0.0000,0.000,311217,,*3B
2017-12-31 17:59:21 1514761161.795064: $GPGSA,A,3,22,23,9,3,16,29,14,31,27,26,135,,1.7,0.6,1.3*06
2017-12-31 17:59:22 1514761162.345648: $GPZDA,225923.00,31,12,2017,00,00*6E
2017-12-31 17:59:22 1514761162.345831: $GPGGA,225923,3946.9564,N,08404.9866,W,2,11,0.60,307.48,M,-33.324,M,,*77
2017-12-31 17:59:22 1514761162.345898: $GPRMC,225923,A,3946.9564,N,08404.9866,W,0.0000,0.000,311217,,*3A
2017-12-31 17:59:22 1514761162.345959: $GPGSA,A,3,22,23,9,3,16,29,14,31,27,26,135,,1.7,0.6,1.3*06
2017-12-31 17:59:23 1514761163.345135: $GPZDA,225924.00,31,12,2017,00,00*69
2017-12-31 17:59:23 1514761163.345306: $GPGGA,225924,3946.9564,N,08404.9866,W,2,11,0.60,307.48,M,-33.324,M,,*70
2017-12-31 17:59:23 1514761163.345373: $GPRMC,225924,A,3946.9564,N,08404.9866,W,0.0000,0.000,311217,,*3D
2017-12-31 17:59:23 1514761163.345434: $GPGSA,A,3,22,23,9,3,16,29,14,31,27,26,135,,1.7,0.6,1.3*06
2017-12-31 17:59:24 1514761164.674641: $GPGSV,3,1,11,22,26,217,45,23,50,307,42,09,16,312,38,03,35,238,45*74
2017-12-31 17:59:24 1514761164.674807: $GPGSV,3,2,11,16,76,192,43,29,07,033,38,14,19,130,32,31,31,072,44*7F
2017-12-31 17:59:24 1514761164.674873: $GPGSV,3,3,11,27,18,156,28,26,66,054,50,135,22,240,44*7C
2017-12-31 17:59:24 1514761164.786714: $GPZDA,225925.00,31,12,2017,00,00*68
2017-12-31 17:59:24 1514761164.786815: $GPGGA,225925,3946.9564,N,08404.9866,W,2,11,0.60,307.48,M,-33.324,M,,*71
2017-12-31 17:59:24 1514761164.786878: $GPRMC,225925,A,3946.9564,N,08404.9866,W,0.0000,0.000,311217,,*3C
2017-12-31 17:59:24 1514761164.786938: $GPGSA,A,3,22,23,9,3,16,29,14,31,27,26,135,,1.7,0.6,1.3*06
