2017-11-15 19:21:17 1510791677.444398: {"class":"VERSION","release":"3.17","rev":"3.17","proto_major":3,"proto_minor":12}
2017-11-15 19:21:17 1510791677.444954: {"class":"DEVICES","devices":[{"class":"DEVICE","path":"/dev/ttyUSB0","driver":"SiRF","subtype":"9\u0006GSD4e_4.1.2-P1_RPATCH.05-F-GPS-4R-1510281 11/03/2015 307","activated":"2017-11-16T00:21:17.383Z","flags":1,"native":1,"bps":4800,"parity":"N","stopbits":1,"cycle":1.00}]}
2017-11-15 19:21:17 1510791677.445080: {"class":"WATCH","enable":true,"json":false,"nmea":true,"raw":0,"scaled":false,"timing":false,"split24":false,"pps":false}
2017-11-15 19:21:18 1510791678.681378: $GPGSV,3,1,12,32,39,105,22,14,58,087,18,22,50,276,21,26,49,174,23*76
2017-11-15 19:21:18 1510791678.681552: $GPGSV,3,2,12,31,71,018,19,29,09,075,10,16,18,190,05,03,37,303,05*7E
2017-11-15 19:21:18 1510791678.681612: $GPGSV,3,3,12,25,20,042,10,23,08,298,00,01,08,255,00,135,23,238,00*46
2017-11-15 19:21:18 1510791678.794967: $GPZDA,002117.00,16,11,2017,00,00*60
2017-11-15 19:21:18 1510791678.795117: $GPGGA,002117,3946.9577,N,08404.9428,W,1,06,1.60,282.64,M,-33.324,M,,*7D
2017-11-15 19:21:18 1510791678.795178: $GPRMC,002117,A,3946.9577,N,08404.9428,W,1.2942,148.566,161117,,*34
2017-11-15 19:21:18 1510791678.795233: $GPGSA,A,3,32,14,22,26,31,29,,,,,,,3.4,1.6,2.9*30
2017-11-15 19:21:19 1510791679.347624: $GPZDA,002118.00,16,11,2017,00,00*6F
2017-11-15 19:21:19 1510791679.347760: $GPGGA,002118,3946.9574,N,08404.9429,W,1,06,1.60,283.40,M,-33.324,M,,*77
2017-11-15 19:21:19 1510791679.347820: $GPRMC,002118,A,3946.9574,N,08404.9429,W,1.5558,145.035,161117,,*37
2017-11-15 19:21:19 1510791679.347876: $GPGSA,A,3,32,14,22,26,31,29,,,,,,,3.4,1.6,2.9*30
2017-11-15 19:21:20 1510791680.347723: $GPZDA,002119.00,16,11,2017,00,00*6E
2017-11-15 19:21:20 1510791680.347894: $GPGGA,002119,3946.9569,N,08404.9422,W,1,06,1.60,282.84,M,-33.324,M,,*78
2017-11-15 19:21:20 1510791680.347955: $GPRMC,002119,A,3946.9569,N,08404.9422,W,1.3082,161.818,161117,,*34
2017-11-15 19:21:20 1510791680.348012: $GPGSA,A,3,32,14,22,26,31,29,,,,,,,3.4,1.6,2.9*30
2017-11-15 19:21:21 1510791681.681755: $GPGSV,3,1,12,32,39,105,22,14,58,087,17,22,50,276,21,26,49,174,23*79
2017-11-15 19:21:21 1510791681.681938: $GPGSV,3,2,12,31,71,018,19,29,09,075,10,16,18,190,18,03,37,303,06*71
2017-11-15 19:21:21 1510791681.682000: $GPGSV,3,3,12,25,20,042,00,23,08,298,00,01,08,255,00,135,23,238,00*47
2017-11-15 19:21:21 1510791681.795127: $GPZDA,002120.00,16,11,2017,00,00*64
2017-11-15 19:21:21 1510791681.795311: $GPGGA,002120,3946.9566,N,08404.9423,W,1,06,1.60,283.61,M,-33.324,M,,*76
2017-11-15 19:21:21 1510791681.795374: $GPRMC,002120,A,3946.9566,N,08404.9423,W,1.5746,174.845,161117,,*35
2017-11-15 19:21:21 1510791681.795430: $GPGSA,A,3,32,14,22,26,31,29,,,,,,,3.4,1.6,2.9*30
2017-11-15 19:21:22 1510791682.345998: $GPZDA,002121.00,16,11,2017,00,00*65
2017-11-15 19:21:22 1510791682.346166: $GPGGA,002121,3946.9558,N,08404.9424,W,1,06,1.60,283.73,M,-33.324,M,,*7E
2017-11-15 19:21:22 1510791682.346228: $GPRMC,002121,A,3946.9558,N,08404.9424,W,2.0322,162.834,161117,,*3F
2017-11-15 19:21:22 1510791682.346287: $GPGSA,A,3,32,14,22,26,31,29,,,,,,,3.4,1.6,2.9*30
2017-11-15 19:21:23 1510791683.329366: $GPZDA,002122.00,16,11,2017,00,00*66
2017-11-15 19:21:23 1510791683.329548: $GPGGA,002122,3946.9554,N,08404.9424,W,1,06,1.60,283.09,M,-33.324,M,,*7C
2017-11-15 19:21:23 1510791683.329609: $GPRMC,002122,A,3946.9554,N,08404.9424,W,2.2113,164.262,161117,,*3D
2017-11-15 19:21:23 1510791683.329682: $GPGSA,A,3,32,14,22,26,31,29,,,,,,,3.4,1.6,2.9*30
2017-11-15 19:21:24 1510791684.666334: $GPGSV,3,1,12,32,39,105,22,14,58,087,16,22,50,276,21,26,49,174,22*79
2017-11-15 19:21:24 1510791684.666528: $GPGSV,3,2,12,31,71,018,19,29,09,075,10,25,20,042,12,03,37,303,07*7F
2017-11-15 19:21:24 1510791684.666589: $GPGSV,3,3,12,16,18,190,00,23,08,298,00,01,08,255,00,135,23,238,00*42
2017-11-15 19:21:24 1510791684.779766: $GPZDA,002123.00,16,11,2017,00,00*67
2017-11-15 19:21:24 1510791684.779931: $GPGGA,002123,3946.9551,N,08404.9424,W,1,07,1.60,283.86,M,-33.324,M,,*7E
2017-11-15 19:21:24 1510791684.780045: $GPRMC,002123,A,3946.9551,N,08404.9424,W,1.6300,166.404,161117,,*3A
2017-11-15 19:21:24 1510791684.780103: $GPGSA,A,3,32,14,22,26,31,29,3,,,,,,3.4,1.6,2.9*03
2017-11-15 19:21:25 1510791685.346907: $GPZDA,002124.00,16,11,2017,00,00*60
2017-11-15 19:21:25 1510791685.347066: $GPGGA,002124,3946.9546,N,08404.9424,W,1,07,1.60,283.22,M,-33.324,M,,*71
2017-11-15 19:21:25 1510791685.347127: $GPRMC,002124,A,3946.9546,N,08404.9424,W,1.3082,161.818,161117,,*31
2017-11-15 19:21:25 1510791685.347182: $GPGSA,A,3,32,14,22,26,31,29,3,,,,,,3.4,1.6,2.9*03
2017-11-15 19:21:26 1510791686.346013: $GPZDA,002125.00,16,11,2017,00,00*61
2017-11-15 19:21:26 1510791686.346176: $GPGGA,002125,3946.9543,N,08404.9418,W,1,07,1.60,284.06,M,-33.324,M,,*7B
2017-11-15 19:21:26 1510791686.346235: $GPRMC,002125,A,3946.9543,N,08404.9418,W,1.3084,135.525,161117,,*3E
2017-11-15 19:21:26 1510791686.346291: $GPGSA,A,3,32,14,22,26,31,29,3,,,,,,3.4,1.6,2.9*03
