2017-12-01 15:28:10 1512160090.647459: {"class":"VERSION","release":"3.16","rev":"3.16-4","proto_major":3,"proto_minor":11}
2017-12-01 15:28:10 1512160090.647847: {"class":"DEVICES","devices":[{"class":"DEVICE","path":"/dev/ttyUSB0","driver":"SiRF","subtype":"9\u0006GSD4e_4.1.2-P1_RPATCH.05-F-GPS-4R-1510281 11/03/2015 307","activated":"2017-12-01T20:28:10.529Z","flags":1,"native":1,"bps":4800,"parity":"N","stopbits":1,"cycle":1.00}]}
2017-12-01 15:28:10 1512160090.647959: {"class":"WATCH","enable":true,"json":false,"nmea":true,"raw":0,"scaled":false,"timing":false,"split24":false,"pps":false}
2017-12-01 15:28:11 1512160091.386559: $GPZDA,202812.00,01,12,2017,00,00*6B
2017-12-01 15:28:11 1512160091.386737: $GPGGA,202812,3946.9599,N,08404.9836,W,2,11,0.80,296.50,M,-33.324,M,,*78
2017-12-01 15:28:11 1512160091.386804: $GPRMC,202812,A,3946.9599,N,08404.9836,W,0.0000,0.000,011217,,*38
2017-12-01 15:28:11 1512160091.386865: $GPGSA,A,3,1,10,11,12,14,18,24,25,31,32,138,,2.0,0.8,1.5*3B
2017-12-01 15:28:12 1512160092.716814: $GPGSV,3,1,12,01,09,324,38,10,77,115,47,11,09,309,37,12,23,079,43*75
2017-12-01 15:28:12 1512160092.716992: $GPGSV,3,2,12,14,49,282,42,18,45,130,47,24,21,045,42,25,24,121,46*77
2017-12-01 15:28:12 1512160092.717057: $GPGSV,3,3,12,31,27,208,46,32,65,310,49,21,01,172,00,138,38,213,46*4D
2017-12-01 15:28:12 1512160092.830644: $GPZDA,202813.00,01,12,2017,00,00*6A
2017-12-01 15:28:12 1512160092.830812: $GPGGA,202813,3946.9599,N,08404.9836,W,2,11,0.80,296.50,M,-33.324,M,,*79
2017-12-01 15:28:12 1512160092.830878: $GPRMC,202813,A,3946.9599,N,08404.9836,W,0.0000,0.000,011217,,*39
2017-12-01 15:28:12 1512160092.830939: $GPGSA,A,3,1,10,11,12,14,18,24,25,31,32,138,,2.0,0.8,1.5*3B
2017-12-01 15:28:13 1512160093.388614: $GPZDA,202814.00,01,12,2017,00,00*6D
2017-12-01 15:28:13 1512160093.388805: $GPGGA,202814,3946.9599,N,08404.9836,W,2,11,0.80,296.50,M,-33.324,M,,*7E
2017-12-01 15:28:13 1512160093.388871: $GPRMC,202814,A,3946.9599,N,08404.9836,W,0.0000,0.000,011217,,*3E
2017-12-01 15:28:13 1512160093.388932: $GPGSA,A,3,1,10,11,12,14,18,24,25,31,32,138,,2.0,0.8,1.5*3B
2017-12-01 15:28:14 1512160094.388272: $GPZDA,202815.00,01,12,2017,00,00*6C
2017-12-01 15:28:14 1512160094.388451: $GPGGA,202815,3946.9599,N,08404.9836,W,2,11,0.80,296.50,M,-33.324,M,,*7F
2017-12-01 15:28:14 1512160094.388538: $GPRMC,202815,A,3946.9599,N,08404.9836,W,0.0000,0.000,011217,,*3F
2017-12-01 15:28:14 1512160094.388601: $GPGSA,A,3,1,10,11,12,14,18,24,25,31,32,138,,2.0,0.8,1.5*3B
2017-12-01 15:28:15 1512160095.738977: $GPGSV,3,1,12,01,09,324,38,10,77,115,47,11,09,309,36,12,23,079,44*73
2017-12-01 15:28:15 1512160095.739161: $GPGSV,3,2,12,14,49,282,42,18,45,130,47,24,21,045,42,25,24,121,46*77
2017-12-01 15:28:15 1512160095.739227: $GPGSV,3,3,12,31,27,208,46,32,65,310,49,21,01,172,00,138,38,213,45*4E
2017-12-01 15:28:15 1512160095.853024: $GPZDA,202816.00,01,12,2017,00,00*6F
2017-12-01 15:28:15 1512160095.853224: $GPGGA,202816,3946.9599,N,08404.9836,W,2,11,0.80,296.50,M,-33.324,M,,*7C
2017-12-01 15:28:15 1512160095.853314: $GPRMC,202816,A,3946.9599,N,08404.9836,W,0.0000,0.000,011217,,*3C
2017-12-01 15:28:15 1512160095.853377: $GPGSA,A,3,1,10,11,12,14,18,24,25,31,32,138,,2.0,0.8,1.5*3B
2017-12-01 15:28:16 1512160096.402095: $GPZDA,202817.00,01,12,2017,00,00*6E
2017-12-01 15:28:16 1512160096.402282: $GPGGA,202817,3946.9599,N,08404.9836,W,2,11,0.80,296.50,M,-33.324,M,,*7D
2017-12-01 15:28:16 1512160096.402349: $GPRMC,202817,A,3946.9599,N,08404.9836,W,0.0000,0.000,011217,,*3D
2017-12-01 15:28:16 1512160096.402410: $GPGSA,A,3,1,10,11,12,14,18,24,25,31,32,138,,2.0,0.8,1.5*3B
2017-12-01 15:28:17 1512160097.403655: $GPZDA,202818.00,01,12,2017,00,00*61
2017-12-01 15:28:17 1512160097.403831: $GPGGA,202818,3946.9599,N,08404.9836,W,2,11,0.80,296.50,M,-33.324,M,,*72
2017-12-01 15:28:17 1512160097.403898: $GPRMC,202818,A,3946.9599,N,08404.9836,W,0.0000,0.000,011217,,*32
2017-12-01 15:28:17 1512160097.403960: $GPGSA,A,3,1,10,11,12,14,18,24,25,31,32,138,,2.0,0.8,1.5*3B
2017-12-01 15:28:18 1512160098.739265: $GPGSV,3,1,12,01,09,324,39,10,77,115,47,11,09,309,36,12,23,079,43*75
2017-12-01 15:28:18 1512160098.739471: $GPGSV,3,2,12,14,49,282,42,18,45,130,47,24,21,045,42,25,24,121,46*77
2017-12-01 15:28:18 1512160098.739541: $GPGSV,3,3,12,31,27,208,46,32,65,310,49,21,01,172,00,138,38,213,46*4D
2017-12-01 15:28:18 1512160098.852774: $GPZDA,202819.00,01,12,2017,00,00*60
2017-12-01 15:28:18 1512160098.852946: $GPGGA,202819,3946.9599,N,08404.9836,W,2,11,0.80,296.50,M,-33.324,M,,*73
2017-12-01 15:28:18 1512160098.853012: $GPRMC,202819,A,3946.9599,N,08404.9836,W,0.0000,0.000,011217,,*33
2017-12-01 15:28:18 1512160098.853096: $GPGSA,A,3,1,10,11,12,14,18,24,25,31,32,138,,2.0,0.8,1.5*3B
2017-12-01 15:28:19 1512160099.403567: $GPZDA,202820.00,01,12,2017,00,00*6A
2017-12-01 15:28:19 1512160099.403778: $GPGGA,202820,3946.9599,N,08404.9836,W,2,11,0.80,296.50,M,-33.324,M,,*79
2017-12-01 15:28:19 1512160099.403866: $GPRMC,202820,A,3946.9599,N,08404.9836,W,0.0000,0.000,011217,,*39
2017-12-01 15:28:19 1512160099.403929: $GPGSA,A,3,1,10,11,12,14,18,24,25,31,32,138,,2.0,0.8,1.5*3B
2017-12-01 15:28:20 1512160100.380696: $GPZDA,202821.00,01,12,2017,00,00*6B
2017-12-01 15:28:20 1512160100.380869: $GPGGA,202821,3946.9599,N,08404.9836,W,2,11,0.80,296.50,M,-33.324,M,,*78
2017-12-01 15:28:20 1512160100.380936: $GPRMC,202821,A,3946.9599,N,08404.9836,W,0.0000,0.000,011217,,*38
2017-12-01 15:28:20 1512160100.380998: $GPGSA,A,3,1,10,11,12,14,18,24,25,31,32,138,,2.0,0.8,1.5*3B
2017-12-01 15:28:21 1512160101.723904: $GPGSV,3,1,12,01,09,324,39,10,77,115,47,11,09,309,30,12,23,079,43*73
2017-12-01 15:28:21 1512160101.724110: $GPGSV,3,2,12,14,49,282,42,18,45,130,47,24,21,045,42,25,24,121,46*77
2017-12-01 15:28:21 1512160101.724196: $GPGSV,3,3,12,31,27,208,46,32,65,310,49,21,01,172,00,138,38,213,45*4E
2017-12-01 15:28:21 1512160101.837342: $GPZDA,202822.00,01,12,2017,00,00*68
2017-12-01 15:28:21 1512160101.837505: $GPGGA,202822,3946.9599,N,08404.9836,W,2,11,0.80,296.50,M,-33.324,M,,*7B
2017-12-01 15:28:21 1512160101.837573: $GPRMC,202822,A,3946.9599,N,08404.9836,W,0.0000,0.000,011217,,*3B
2017-12-01 15:28:21 1512160101.837634: $GPGSA,A,3,1,10,11,12,14,18,24,25,31,32,138,,2.0,0.8,1.5*3B
2017-12-01 15:28:22 1512160102.462693: $GPZDA,202823.00,01,12,2017,00,00*69
2017-12-01 15:28:22 1512160102.462870: $GPGGA,202823,3946.9592,N,08404.9836,W,2,11,0.80,296.63,M,-33.324,M,,*71
2017-12-01 15:28:22 1512160102.462940: $GPRMC,202823,A,3946.9592,N,08404.9836,W,0.0000,0.000,011217,,*31
2017-12-01 15:28:22 1512160102.463002: $GPGSA,A,3,1,10,11,12,14,18,24,25,31,32,138,,2.0,0.8,1.5*3B
2017-12-01 15:28:23 1512160103.403599: $GPZDA,202824.00,01,12,2017,00,00*6E
2017-12-01 15:28:23 1512160103.403766: $GPGGA,202824,3946.9592,N,08404.9836,W,2,11,0.80,296.63,M,-33.324,M,,*76
2017-12-01 15:28:23 1512160103.403833: $GPRMC,202824,A,3946.9592,N,08404.9836,W,0.0000,0.000,011217,,*36
2017-12-01 15:28:23 1512160103.403894: $GPGSA,A,3,1,10,11,12,14,18,24,25,31,32,138,,2.0,0.8,1.5*3B
2017-12-01 15:28:24 1512160104.722990: $GPGSV,3,1,12,01,09,324,40,10,77,115,48,11,09,309,29,12,23,079,43*7A
2017-12-01 15:28:24 1512160104.723203: $GPGSV,3,2,12,14,49,282,42,18,45,130,47,24,21,045,43,25,24,121,46*76
2017-12-01 15:28:24 1512160104.723271: $GPGSV,3,3,12,31,27,208,46,32,65,310,48,21,01,172,00,138,38,213,46*4C
2017-12-01 15:28:24 1512160104.836451: $GPZDA,202825.00,01,12,2017,00,00*6F
2017-12-01 15:28:24 1512160104.836751: $GPGGA,202825,3946.9592,N,08404.9836,W,2,11,0.80,296.63,M,-33.324,M,,*77
2017-12-01 15:28:24 1512160104.836876: $GPRMC,202825,A,3946.9592,N,08404.9836,W,0.0000,0.000,011217,,*37
2017-12-01 15:28:24 1512160104.836994: $GPGSA,A,3,1,10,11,12,14,18,24,25,31,32,138,,2.0,0.8,1.5*3B
2017-12-01 15:28:25 1512160105.407285: $GPZDA,202826.00,01,12,2017,00,00*6C
2017-12-01 15:28:25 1512160105.407456: $GPGGA,202826,3946.9596,N,08404.9836,W,2,11,0.80,297.27,M,-33.324,M,,*71
2017-12-01 15:28:25 1512160105.407523: $GPRMC,202826,A,3946.9596,N,08404.9836,W,0.0000,0.000,011217,,*30
2017-12-01 15:28:25 1512160105.407585: $GPGSA,A,3,1,10,11,12,14,18,24,25,31,32,138,,2.0,0.8,1.5*3B
2017-12-01 15:28:26 1512160106.405657: $GPZDA,202827.00,01,12,2017,00,00*6D
2017-12-01 15:28:26 1512160106.405873: $GPGGA,202827,3946.9596,N,08404.9836,W,2,11,0.80,297.27,M,-33.324,M,,*70
2017-12-01 15:28:26 1512160106.405942: $GPRMC,202827,A,3946.9596,N,08404.9836,W,0.0000,0.000,011217,,*31
2017-12-01 15:28:26 1512160106.406003: $GPGSA,A,3,1,10,11,12,14,18,24,25,31,32,138,,2.0,0.8,1.5*3B
2017-12-01 15:28:27 1512160107.738449: $GPGSV,3,1,12,01,09,324,41,10,77,115,48,11,09,309,00,12,23,079,44*77
2017-12-01 15:28:27 1512160107.738754: $GPGSV,3,2,12,14,49,282,42,18,45,130,47,24,21,045,43,25,24,121,46*76
2017-12-01 15:28:27 1512160107.738878: $GPGSV,3,3,12,31,27,208,46,32,65,310,49,21,01,172,00,138,38,213,46*4D
2017-12-01 15:28:27 1512160107.851786: $GPZDA,202828.00,01,12,2017,00,00*62
2017-12-01 15:28:27 1512160107.851956: $GPGGA,202828,3946.9596,N,08404.9836,W,2,10,0.80,297.27,M,-33.324,M,,*7E
2017-12-01 15:28:27 1512160107.852043: $GPRMC,202828,A,3946.9596,N,08404.9836,W,0.0000,0.000,011217,,*3E
2017-12-01 15:28:27 1512160107.852107: $GPGSA,A,3,1,10,12,14,18,24,25,31,32,138,,,2.0,0.8,1.5*3B
2017-12-01 15:28:28 1512160108.387620: $GPZDA,202829.00,01,12,2017,00,00*63
2017-12-01 15:28:28 1512160108.387791: $GPGGA,202829,3946.9596,N,08404.9836,W,2,10,0.80,297.27,M,-33.324,M,,*7F
2017-12-01 15:28:28 1512160108.387858: $GPRMC,202829,A,3946.9596,N,08404.9836,W,0.0000,0.000,011217,,*3F
2017-12-01 15:28:28 1512160108.387919: $GPGSA,A,3,1,10,12,14,18,24,25,31,32,138,,,2.0,0.8,1.5*3B
2017-12-01 15:28:29 1512160109.404841: $GPZDA,202830.00,01,12,2017,00,00*6B
2017-12-01 15:28:29 1512160109.405038: $GPGGA,202830,3946.9596,N,08404.9836,W,2,10,0.80,297.27,M,-33.324,M,,*77
2017-12-01 15:28:29 1512160109.405108: $GPRMC,202830,A,3946.9596,N,08404.9836,W,0.0000,0.000,011217,,*37
2017-12-01 15:28:29 1512160109.405186: $GPGSA,A,3,1,10,12,14,18,24,25,31,32,138,,,2.0,0.8,1.5*3B
