2017-12-31 17:03:56 1514757836.472765: {"class":"VERSION","release":"3.16","rev":"3.16-4","proto_major":3,"proto_minor":11}
2017-12-31 17:03:56 1514757836.473130: {"class":"DEVICES","devices":[{"class":"DEVICE","path":"/dev/ttyUSB0","driver":"SiRF","activated":"2017-12-31T22:03:56.451Z","flags":1,"native":1,"bps":4800,"parity":"N","stopbits":1,"cycle":1.00}]}
2017-12-31 17:03:56 1514757836.473228: {"class":"WATCH","enable":true,"json":false,"nmea":true,"raw":0,"scaled":false,"timing":false,"split24":false,"pps":false}
2017-12-31 17:03:57 1514757837.680070: $GPGSV,3,1,11,22,44,240,42,23,27,307,36,25,02,037,12,03,46,271,40*7D
2017-12-31 17:03:57 1514757837.680246: $GPGSV,3,2,11,16,46,190,44,29,14,055,28,31,50,051,50,14,40,114,37*76
2017-12-31 17:03:57 1514757837.680312: $GPGSV,3,3,11,32,19,123,41,26,74,142,46,135,22,240,42*70
2017-12-31 17:03:57 1514757837.793791: $GPZDA,220358.00,31,12,2017,00,00*6D
2017-12-31 17:03:57 1514757837.793943: $GPGGA,220358,3946.9587,N,08404.9854,W,2,11,1.00,302.21,M,-33.324,M,,*75
2017-12-31 17:03:57 1514757837.794026: $GPRMC,220358,A,3946.9587,N,08404.9854,W,0.0000,0.000,311217,,*35
2017-12-31 17:03:57 1514757837.794089: $GPGSA,A,3,22,23,25,3,16,29,31,14,32,26,135,,1.7,1.0,1.3*3B
2017-12-31 17:03:58 1514757838.360786: $GPZDA,220359.00,31,12,2017,00,00*6C
2017-12-31 17:03:58 1514757838.360956: $GPGGA,220359,3946.9587,N,08404.9854,W,2,11,1.00,302.21,M,-33.324,M,,*74
2017-12-31 17:03:58 1514757838.361022: $GPRMC,220359,A,3946.9587,N,08404.9854,W,0.0000,0.000,311217,,*34
2017-12-31 17:03:58 1514757838.361083: $GPGSA,A,3,22,23,25,3,16,29,31,14,32,26,135,,1.7,1.0,1.3*3B
2017-12-31 17:03:59 1514757839.360399: $GPZDA,220400.00,31,12,2017,00,00*67
2017-12-31 17:03:59 1514757839.360564: $GPGGA,220400,3946.9587,N,08404.9854,W,2,11,1.00,302.21,M,-33.324,M,,*7F
2017-12-31 17:03:59 1514757839.360631: $GPRMC,220400,A,3946.9587,N,08404.9854,W,0.0000,0.000,311217,,*3F
2017-12-31 17:03:59 1514757839.360692: $GPGSA,A,3,22,23,25,3,16,29,31,14,32,26,135,,1.7,1.0,1.3*3B
2017-12-31 17:04:00 1514757840.695291: $GPGSV,3,1,11,22,44,240,42,23,27,307,34,25,02,037,12,03,46,271,39*71
2017-12-31 17:04:00 1514757840.695471: $GPGSV,3,2,11,16,46,190,44,29,14,055,28,31,50,051,50,14,40,114,37*76
2017-12-31 17:04:00 1514757840.695538: $GPGSV,3,3,11,32,19,123,41,26,74,142,46,135,22,240,43*71
2017-12-31 17:04:00 1514757840.808883: $GPZDA,220401.00,31,12,2017,00,00*66
2017-12-31 17:04:00 1514757840.809004: $GPGGA,220401,3946.9587,N,08404.9854,W,2,11,1.00,302.21,M,-33.324,M,,*7E
2017-12-31 17:04:00 1514757840.809068: $GPRMC,220401,A,3946.9587,N,08404.9854,W,0.0000,0.000,311217,,*3E
2017-12-31 17:04:00 1514757840.809129: $GPGSA,A,3,22,23,25,3,16,29,31,14,32,26,135,,1.7,1.0,1.3*3B
2017-12-31 17:04:01 1514757841.344781: $GPZDA,220402.00,31,12,2017,00,00*65
2017-12-31 17:04:01 1514757841.344937: $GPGGA,220402,3946.9587,N,08404.9854,W,2,11,1.00,302.21,M,-33.324,M,,*7D
2017-12-31 17:04:01 1514757841.345003: $GPRMC,220402,A,3946.9587,N,08404.9854,W,0.0000,0.000,311217,,*3D
2017-12-31 17:04:01 1514757841.345064: $GPGSA,A,3,22,23,25,3,16,29,31,14,32,26,135,,1.7,1.0,1.3*3B
2017-12-31 17:04:02 1514757842.353145: $GPZDA,220403.00,31,12,2017,00,00*64
2017-12-31 17:04:02 1514757842.353313: $GPGGA,220403,3946.9587,N,08404.9854,W,2,11,1.00,302.21,M,-33.324,M,,*7C
2017-12-31 17:04:02 1514757842.353380: $GPRMC,220403,A,3946.9587,N,08404.9854,W,0.0000,0.000,311217,,*3C
2017-12-31 17:04:02 1514757842.353442: $GPGSA,A,3,22,23,25,3,16,29,31,14,32,26,135,,1.7,1.0,1.3*3B
2017-12-31 17:04:03 1514757843.696129: $GPGSV,3,1,11,22,44,240,42,23,27,307,35,25,02,037,13,03,46,271,39*71
2017-12-31 17:04:03 1514757843.696311: $GPGSV,3,2,11,16,46,190,44,29,14,055,29,31,50,051,50,14,40,114,37*77
2017-12-31 17:04:03 1514757843.696376: $GPGSV,3,3,11,32,19,123,41,26,74,142,46,135,22,240,43*71
2017-12-31 17:04:03 1514757843.809742: $GPZDA,220404.00,31,12,2017,00,00*63
2017-12-31 17:04:03 1514757843.809873: $GPGGA,220404,3946.9587,N,08404.9854,W,2,11,1.00,302.21,M,-33.324,M,,*7B
2017-12-31 17:04:03 1514757843.809954: $GPRMC,220404,A,3946.9587,N,08404.9854,W,0.0000,0.000,311217,,*3B
2017-12-31 17:04:03 1514757843.810063: $GPGSA,A,3,22,23,25,3,16,29,31,14,32,26,135,,1.7,1.0,1.3*3B
2017-12-31 17:04:04 1514757844.360847: $GPZDA,220405.00,31,12,2017,00,00*62
2017-12-31 17:04:04 1514757844.361011: $GPGGA,220405,3946.9587,N,08404.9854,W,2,11,1.00,302.21,M,-33.324,M,,*7A
2017-12-31 17:04:04 1514757844.361078: $GPRMC,220405,A,3946.9587,N,08404.9854,W,0.0000,0.000,311217,,*3A
2017-12-31 17:04:04 1514757844.361139: $GPGSA,A,3,22,23,25,3,16,29,31,14,32,26,135,,1.7,1.0,1.3*3B
2017-12-31 17:04:05 1514757845.344765: $GPZDA,220406.00,31,12,2017,00,00*61
2017-12-31 17:04:05 1514757845.344913: $GPGGA,220406,3946.9587,N,08404.9854,W,2,11,1.00,302.21,M,-33.324,M,,*79
2017-12-31 17:04:05 1514757845.344980: $GPRMC,220406,A,3946.9587,N,08404.9854,W,0.0000,0.000,311217,,*39
2017-12-31 17:04:05 1514757845.345041: $GPGSA,A,3,22,23,25,3,16,29,31,14,32,26,135,,1.7,1.0,1.3*3B
