2017-11-16 14:21:28 1510860088.429990: {"class":"VERSION","release":"3.17","rev":"3.17","proto_major":3,"proto_minor":12}
2017-11-16 14:21:28 1510860088.430552: {"class":"DEVICES","devices":[{"class":"DEVICE","path":"/dev/ttyUSB0","driver":"SiRF","subtype":"9\u0006GSD4e_4.1.2-P1_RPATCH.05-F-GPS-4R-1510281 11/03/2015 307","activated":"2017-11-16T19:21:28.421Z","flags":1,"native":1,"bps":4800,"parity":"N","stopbits":1,"cycle":1.00}]}
2017-11-16 14:21:28 1510860088.430675: {"class":"WATCH","enable":true,"json":false,"nmea":true,"raw":0,"scaled":false,"timing":false,"split24":false,"pps":false}
2017-11-16 14:21:28 1510860088.532786: $GPZDA,192127.00,16,11,2017,00,00*6B
2017-11-16 14:21:28 1510860088.532965: $GPGGA,192127,3946.9565,N,08404.9857,W,2,11,1.00,303.99,M,-33.324,M,,*78
2017-11-16 14:21:28 1510860088.533027: $GPRMC,192127,A,3946.9565,N,08404.9857,W,0.0000,0.000,161117,,*3C
2017-11-16 14:21:28 1510860088.533099: $GPGSA,A,3,8,10,15,18,21,20,24,27,32,14,138,,1.6,1.0,1.3*3E
2017-11-16 14:21:29 1510860089.533228: $GPZDA,192128.00,16,11,2017,00,00*64
2017-11-16 14:21:29 1510860089.533393: $GPGGA,192128,3946.9565,N,08404.9857,W,2,11,1.00,303.99,M,-33.324,M,,*77
2017-11-16 14:21:29 1510860089.533454: $GPRMC,192128,A,3946.9565,N,08404.9857,W,0.0000,0.000,161117,,*33
2017-11-16 14:21:29 1510860089.533510: $GPGSA,A,3,8,10,15,18,21,20,24,27,32,14,138,,1.6,1.0,1.3*3E
2017-11-16 14:21:31 1510860091.354623: $GPGSV,3,1,12,08,07,318,32,10,44,304,47,13,05,049,04,15,34,054,51*71
2017-11-16 14:21:31 1510860091.354796: $GPGSV,3,2,12,18,73,346,46,21,60,187,45,20,30,099,44,24,52,103,48*71
2017-11-16 14:21:31 1510860091.354857: $GPGSV,3,3,12,27,18,285,42,32,23,241,46,14,07,234,33,138,38,213,44*4C
2017-11-16 14:21:31 1510860091.468002: $GPZDA,192129.00,16,11,2017,00,00*65
2017-11-16 14:21:31 1510860091.468182: $GPGGA,192129,3946.9565,N,08404.9857,W,2,11,0.80,303.99,M,-33.324,M,,*7F
2017-11-16 14:21:31 1510860091.468243: $GPRMC,192129,A,3946.9565,N,08404.9857,W,0.0000,0.000,161117,,*32
2017-11-16 14:21:31 1510860091.468299: $GPGSA,A,3,8,10,15,18,21,20,24,27,32,14,138,,1.6,0.8,1.3*37
2017-11-16 14:21:31 1510860091.918854: $GPZDA,192130.00,16,11,2017,00,00*6D
2017-11-16 14:21:31 1510860091.919053: $GPGGA,192130,3946.9565,N,08404.9857,W,2,11,0.80,303.99,M,-33.324,M,,*77
2017-11-16 14:21:31 1510860091.919115: $GPRMC,192130,A,3946.9565,N,08404.9857,W,0.0000,0.000,161117,,*3A
2017-11-16 14:21:31 1510860091.919172: $GPGSA,A,3,8,10,15,18,21,20,24,27,32,14,138,,1.6,0.8,1.3*37
2017-11-16 14:21:32 1510860092.527225: $GPZDA,192131.00,16,11,2017,00,00*6C
2017-11-16 14:21:32 1510860092.527388: $GPGGA,192131,3946.9565,N,08404.9857,W,2,11,0.80,303.99,M,-33.324,M,,*76
2017-11-16 14:21:32 1510860092.527449: $GPRMC,192131,A,3946.9565,N,08404.9857,W,0.0000,0.000,161117,,*3B
2017-11-16 14:21:32 1510860092.527505: $GPGSA,A,3,8,10,15,18,21,20,24,27,32,14,138,,1.6,0.8,1.3*37
2017-11-16 14:21:33 1510860093.872974: $GPGSV,3,1,12,08,07,318,23,10,44,304,47,13,05,049,04,15,34,054,50*70
2017-11-16 14:21:33 1510860093.873162: $GPGSV,3,2,12,18,73,346,46,21,60,187,45,20,30,099,44,24,52,103,48*71
2017-11-16 14:21:33 1510860093.873223: $GPGSV,3,3,12,27,18,285,42,32,23,241,46,14,07,234,32,138,38,213,44*4D
2017-11-16 14:21:33 1510860093.986362: $GPZDA,192132.00,16,11,2017,00,00*6F
2017-11-16 14:21:33 1510860093.986556: $GPGGA,192132,3946.9565,N,08404.9857,W,2,11,0.80,303.99,M,-33.324,M,,*75
2017-11-16 14:21:33 1510860093.986642: $GPRMC,192132,A,3946.9565,N,08404.9857,W,0.0000,0.000,161117,,*38
2017-11-16 14:21:33 1510860093.986730: $GPGSA,A,3,8,10,15,18,21,20,24,27,32,14,138,,1.6,0.8,1.3*37
2017-11-16 14:21:34 1510860094.611981: $GPZDA,192133.00,16,11,2017,00,00*6E
2017-11-16 14:21:34 1510860094.612252: $GPGGA,192133,3946.9565,N,08404.9857,W,2,11,0.80,303.99,M,-33.324,M,,*74
2017-11-16 14:21:34 1510860094.612371: $GPRMC,192133,A,3946.9565,N,08404.9857,W,0.0000,0.000,161117,,*39
2017-11-16 14:21:34 1510860094.612469: $GPGSA,A,3,8,10,15,18,21,20,24,27,32,14,138,,1.6,0.8,1.3*37
2017-11-16 14:21:35 1510860095.503808: $GPZDA,192134.00,16,11,2017,00,00*69
2017-11-16 14:21:35 1510860095.504072: $GPGGA,192134,3946.9565,N,08404.9857,W,2,11,0.80,303.99,M,-33.324,M,,*73
2017-11-16 14:21:35 1510860095.504135: $GPRMC,192134,A,3946.9565,N,08404.9857,W,0.0000,0.000,161117,,*3E
2017-11-16 14:21:35 1510860095.504191: $GPGSA,A,3,8,10,15,18,21,20,24,27,32,14,138,,1.6,0.8,1.3*37
2017-11-16 14:21:36 1510860096.839555: $GPGSV,3,1,12,08,07,318,32,10,44,304,48,13,05,049,07,15,34,054,51*7D
2017-11-16 14:21:36 1510860096.839697: $GPGSV,3,2,12,18,73,346,46,21,60,187,46,20,30,099,44,24,52,103,48*72
2017-11-16 14:21:36 1510860096.839758: $GPGSV,3,3,12,27,18,285,42,32,23,241,46,14,07,234,32,138,38,213,44*4D
2017-11-16 14:21:36 1510860096.951662: $GPZDA,192135.00,16,11,2017,00,00*68
2017-11-16 14:21:36 1510860096.951835: $GPGGA,192135,3946.9565,N,08404.9857,W,2,11,0.80,303.99,M,-33.324,M,,*72
2017-11-16 14:21:36 1510860096.951897: $GPRMC,192135,A,3946.9565,N,08404.9857,W,0.0000,0.000,161117,,*3F
2017-11-16 14:21:36 1510860096.951953: $GPGSA,A,3,8,10,15,18,21,20,24,27,32,14,138,,1.6,0.8,1.3*37
2017-11-16 14:21:37 1510860097.503070: $GPZDA,192136.00,16,11,2017,00,00*6B
2017-11-16 14:21:37 1510860097.503269: $GPGGA,192136,3946.9565,N,08404.9857,W,2,11,0.80,303.99,M,-33.324,M,,*71
2017-11-16 14:21:37 1510860097.503333: $GPRMC,192136,A,3946.9565,N,08404.9857,W,0.0000,0.000,161117,,*3C
2017-11-16 14:21:37 1510860097.503390: $GPGSA,A,3,8,10,15,18,21,20,24,27,32,14,138,,1.6,0.8,1.3*37
2017-11-16 14:21:38 1510860098.533326: $GPZDA,192137.00,16,11,2017,00,00*6A
2017-11-16 14:21:38 1510860098.533499: $GPGGA,192137,3946.9565,N,08404.9850,W,2,11,0.80,304.07,M,-33.324,M,,*77
2017-11-16 14:21:38 1510860098.533560: $GPRMC,192137,A,3946.9565,N,08404.9850,W,0.0000,0.000,161117,,*3A
2017-11-16 14:21:38 1510860098.533616: $GPGSA,A,3,8,10,15,18,21,20,24,27,32,14,138,,1.6,0.8,1.3*37
2017-11-16 14:21:39 1510860099.838706: $GPGSV,3,1,12,08,07,318,37,10,44,304,48,13,05,049,12,15,34,054,51*7C
2017-11-16 14:21:39 1510860099.838878: $GPGSV,3,2,12,18,73,346,46,21,60,187,46,20,30,099,44,24,52,103,48*72
2017-11-16 14:21:39 1510860099.838939: $GPGSV,3,3,12,27,18,285,42,32,23,241,46,14,07,234,16,138,38,213,44*4B
2017-11-16 14:21:39 1510860099.952061: $GPZDA,192138.00,16,11,2017,00,00*65
2017-11-16 14:21:39 1510860099.952192: $GPGGA,192138,3946.9565,N,08404.9850,W,2,11,0.80,304.07,M,-33.324,M,,*78
2017-11-16 14:21:39 1510860099.952253: $GPRMC,192138,A,3946.9565,N,08404.9850,W,0.0000,0.000,161117,,*35
2017-11-16 14:21:39 1510860099.952308: $GPGSA,A,3,8,10,13,15,18,21,20,24,27,32,138,,1.6,0.8,1.3*30
2017-11-16 14:21:40 1510860100.534110: $GPZDA,192139.00,16,11,2017,00,00*64
2017-11-16 14:21:40 1510860100.534275: $GPGGA,192139,3946.9565,N,08404.9850,W,2,11,0.80,304.07,M,-33.324,M,,*79
2017-11-16 14:21:40 1510860100.534336: $GPRMC,192139,A,3946.9565,N,08404.9850,W,0.0000,0.000,161117,,*34
2017-11-16 14:21:40 1510860100.534391: $GPGSA,A,3,8,10,13,15,18,21,20,24,27,32,138,,1.6,0.8,1.3*30
2017-11-16 14:21:41 1510860101.501203: $GPZDA,192140.00,16,11,2017,00,00*6A
2017-11-16 14:21:41 1510860101.501367: $GPGGA,192140,3946.9565,N,08404.9850,W,2,11,0.80,304.07,M,-33.324,M,,*77
2017-11-16 14:21:41 1510860101.501428: $GPRMC,192140,A,3946.9565,N,08404.9850,W,0.0000,0.000,161117,,*3A
2017-11-16 14:21:41 1510860101.501484: $GPGSA,A,3,8,10,13,15,18,21,20,24,27,32,138,,1.6,0.8,1.3*30
2017-11-16 14:21:42 1510860102.869486: $GPGSV,3,1,12,08,07,318,38,10,44,304,48,13,05,049,12,15,34,054,51*73
2017-11-16 14:21:42 1510860102.869654: $GPGSV,3,2,12,18,73,346,46,21,60,187,46,20,30,099,44,24,52,103,48*72
2017-11-16 14:21:42 1510860102.869716: $GPGSV,3,3,12,27,18,285,42,32,23,241,46,14,07,234,30,138,38,213,44*4F
2017-11-16 14:21:42 1510860102.982939: $GPZDA,192141.00,16,11,2017,00,00*6B
2017-11-16 14:21:42 1510860102.983083: $GPGGA,192141,3946.9565,N,08404.9850,W,2,12,0.80,304.07,M,-33.324,M,,*75
2017-11-16 14:21:42 1510860102.983142: $GPRMC,192141,A,3946.9565,N,08404.9850,W,0.0000,0.000,161117,,*3B
2017-11-16 14:21:42 1510860102.983196: $GPGSA,A,3,8,10,13,15,18,21,20,24,27,32,14,138,1.6,0.8,1.3*35
