2017-12-01 15:37:09 1512160629.307077: {"class":"VERSION","release":"3.16","rev":"3.16-4","proto_major":3,"proto_minor":11}
2017-12-01 15:37:09 1512160629.307487: {"class":"DEVICES","devices":[{"class":"DEVICE","path":"/dev/ttyUSB0","driver":"SiRF","subtype":"9\u0006GSD4e_4.1.2-P1_RPATCH.05-F-GPS-4R-1510281 11/03/2015 307","activated":"2017-12-01T20:37:09.232Z","flags":1,"native":1,"bps":4800,"parity":"N","stopbits":1,"cycle":1.00}]}
2017-12-01 15:37:09 1512160629.307604: {"class":"WATCH","enable":true,"json":false,"nmea":true,"raw":0,"scaled":false,"timing":false,"split24":false,"pps":false}
2017-12-01 15:37:10 1512160630.171681: $GPZDA,203710.45,01,12,2017,00,00*66
2017-12-01 15:37:10 1512160630.171859: $GPGGA,203710,3946.9551,N,08404.9806,W,1,11,0.80,311.89,M,-33.324,M,,*7A
2017-12-01 15:37:10 1512160630.171930: $GPRMC,203710,A,3946.9551,N,08404.9806,W,0.2758,308.233,011217,,*32
2017-12-01 15:37:10 1512160630.171993: $GPGSA,A,3,1,10,11,12,14,18,24,25,31,32,138,,2.0,0.8,1.5*3B
2017-12-01 15:37:10 1512160630.172055: $GPGBS,203710,10.70,M,15.43,M,35.28,M*00
2017-12-01 15:37:11 1512160631.314245: $GPGSV,3,1,11,01,12,321,36,10,73,126,48,11,10,304,37,12,24,075,44*75
2017-12-01 15:37:11 1512160631.314427: $GPGSV,3,2,11,14,52,288,42,18,41,133,45,24,17,045,43,25,27,118,45*7F
2017-12-01 15:37:11 1512160631.314494: $GPGSV,3,3,11,31,31,210,48,32,67,321,49,138,38,213,35*7C
2017-12-01 15:37:11 1512160631.427605: $GPZDA,203711.00,01,12,2017,00,00*66
2017-12-01 15:37:11 1512160631.427787: $GPGGA,203711,3946.9551,N,08404.9806,W,1,11,0.80,311.89,M,-33.324,M,,*7B
2017-12-01 15:37:11 1512160631.427855: $GPRMC,203711,A,3946.9551,N,08404.9806,W,0.0000,0.000,011217,,*32
2017-12-01 15:37:11 1512160631.427917: $GPGSA,A,3,1,10,11,12,14,18,24,25,31,32,138,,2.0,0.8,1.5*3B
2017-12-01 15:37:11 1512160631.878548: $GPZDA,203712.00,01,12,2017,00,00*65
2017-12-01 15:37:11 1512160631.878749: $GPGGA,203712,3946.9551,N,08404.9806,W,1,11,0.80,311.89,M,-33.324,M,,*78
2017-12-01 15:37:11 1512160631.878820: $GPRMC,203712,A,3946.9551,N,08404.9806,W,0.0000,0.000,011217,,*31
2017-12-01 15:37:11 1512160631.878884: $GPGSA,A,3,1,10,11,12,14,18,24,25,31,32,138,,2.0,0.8,1.5*3B
2017-12-01 15:37:12 1512160632.380622: $GPZDA,203713.00,01,12,2017,00,00*64
2017-12-01 15:37:12 1512160632.380804: $GPGGA,203713,3946.9555,N,08404.9812,W,1,11,0.80,311.05,M,-33.324,M,,*7C
2017-12-01 15:37:12 1512160632.380872: $GPRMC,203713,A,3946.9555,N,08404.9812,W,0.0000,0.000,011217,,*31
2017-12-01 15:37:12 1512160632.380937: $GPGSA,A,3,1,10,11,12,14,18,24,25,31,32,138,,2.0,0.8,1.5*3B
2017-12-01 15:37:13 1512160633.714676: $GPGSV,3,1,11,01,12,321,36,10,73,126,48,11,10,304,38,12,24,075,44*7A
2017-12-01 15:37:13 1512160633.714857: $GPGSV,3,2,11,14,52,288,43,18,41,133,45,24,17,045,43,25,27,118,44*7F
2017-12-01 15:37:13 1512160633.714927: $GPGSV,3,3,11,31,31,210,48,32,67,321,49,138,38,213,46*78
2017-12-01 15:37:13 1512160633.828080: $GPZDA,203714.00,01,12,2017,00,00*63
2017-12-01 15:37:13 1512160633.828251: $GPGGA,203714,3946.9554,N,08404.9812,W,1,11,0.80,309.64,M,-33.324,M,,*74
2017-12-01 15:37:13 1512160633.828320: $GPRMC,203714,A,3946.9554,N,08404.9812,W,0.0000,0.000,011217,,*37
2017-12-01 15:37:13 1512160633.828383: $GPGSA,A,3,1,10,11,12,14,18,24,25,31,32,138,,2.0,0.8,1.5*3B
2017-12-01 15:37:14 1512160634.378941: $GPZDA,203715.00,01,12,2017,00,00*62
2017-12-01 15:37:14 1512160634.379147: $GPGGA,203715,3946.9554,N,08404.9812,W,1,11,0.80,309.64,M,-33.324,M,,*75
2017-12-01 15:37:14 1512160634.379235: $GPRMC,203715,A,3946.9554,N,08404.9812,W,0.0000,0.000,011217,,*36
2017-12-01 15:37:14 1512160634.379298: $GPGSA,A,3,1,10,11,12,14,18,24,25,31,32,138,,2.0,0.8,1.5*3B
2017-12-01 15:37:15 1512160635.379698: $GPZDA,203716.00,01,12,2017,00,00*61
2017-12-01 15:37:15 1512160635.379888: $GPGGA,203716,3946.9557,N,08404.9811,W,1,11,0.80,308.88,M,-33.324,M,,*75
2017-12-01 15:37:15 1512160635.379956: $GPRMC,203716,A,3946.9557,N,08404.9811,W,0.0000,0.000,011217,,*35
2017-12-01 15:37:15 1512160635.380033: $GPGSA,A,3,1,10,11,12,14,18,24,25,31,32,138,,2.0,0.8,1.5*3B
2017-12-01 15:37:15 1512160635.380093: $GPGBS,203716,10.70,M,15.43,M,35.28,M*06
2017-12-01 15:37:16 1512160636.716574: $GPGSV,3,1,11,01,12,321,36,10,73,126,48,11,10,304,38,12,24,075,44*7A
2017-12-01 15:37:16 1512160636.716756: $GPGSV,3,2,11,14,52,288,43,18,41,133,45,24,17,045,44,25,27,118,44*78
2017-12-01 15:37:16 1512160636.716824: $GPGSV,3,3,11,31,31,210,48,32,67,321,48,138,38,213,46*79
2017-12-01 15:37:16 1512160636.829974: $GPZDA,203717.00,01,12,2017,00,00*60
2017-12-01 15:37:16 1512160636.830135: $GPGGA,203717,3946.9567,N,08404.9834,W,2,11,1.20,302.06,M,-33.324,M,,*74
2017-12-01 15:37:16 1512160636.830202: $GPRMC,203717,A,3946.9567,N,08404.9834,W,0.0000,0.000,011217,,*30
2017-12-01 15:37:16 1512160636.830262: $GPGSA,A,3,1,10,11,12,14,18,24,25,31,32,138,,2.0,1.2,1.5*30
2017-12-01 15:37:17 1512160637.380928: $GPZDA,203718.00,01,12,2017,00,00*6F
2017-12-01 15:37:17 1512160637.381114: $GPGGA,203718,3946.9567,N,08404.9834,W,2,11,0.80,302.06,M,-33.324,M,,*70
2017-12-01 15:37:17 1512160637.381184: $GPRMC,203718,A,3946.9567,N,08404.9834,W,0.0000,0.000,011217,,*3F
2017-12-01 15:37:17 1512160637.381245: $GPGSA,A,3,1,10,11,12,14,18,24,25,31,32,138,,2.0,0.8,1.5*3B
2017-12-01 15:37:18 1512160638.382563: $GPZDA,203719.00,01,12,2017,00,00*6E
2017-12-01 15:37:18 1512160638.382737: $GPGGA,203719,3946.9567,N,08404.9834,W,2,11,0.80,302.06,M,-33.324,M,,*71
2017-12-01 15:37:18 1512160638.382804: $GPRMC,203719,A,3946.9567,N,08404.9834,W,0.0000,0.000,011217,,*3E
2017-12-01 15:37:18 1512160638.382866: $GPGSA,A,3,1,10,11,12,14,18,24,25,31,32,138,,2.0,0.8,1.5*3B
2017-12-01 15:37:19 1512160639.719439: $GPGSV,3,1,11,01,12,321,36,10,73,126,47,11,10,304,39,12,24,075,44*74
2017-12-01 15:37:19 1512160639.722726: $GPGSV,3,2,11,14,52,288,43,18,41,133,45,24,17,045,44,25,27,118,44*78
2017-12-01 15:37:19 1512160639.722837: $GPGSV,3,3,11,31,31,210,48,32,67,321,48,138,38,213,45*7A
2017-12-01 15:37:19 1512160639.832811: $GPZDA,203720.00,01,12,2017,00,00*64
2017-12-01 15:37:19 1512160639.832999: $GPGGA,203720,3946.9574,N,08404.9840,W,2,11,0.80,300.45,M,-33.324,M,,*7F
2017-12-01 15:37:19 1512160639.833067: $GPRMC,203720,A,3946.9574,N,08404.9840,W,0.0000,0.000,011217,,*35
2017-12-01 15:37:19 1512160639.833128: $GPGSA,A,3,1,10,11,12,14,18,24,25,31,32,138,,2.0,0.8,1.5*3B
2017-12-01 15:37:20 1512160640.381178: $GPZDA,203721.00,01,12,2017,00,00*65
2017-12-01 15:37:20 1512160640.381400: $GPGGA,203721,3946.9574,N,08404.9840,W,2,11,0.80,300.45,M,-33.324,M,,*7E
2017-12-01 15:37:20 1512160640.381476: $GPRMC,203721,A,3946.9574,N,08404.9840,W,0.0000,0.000,011217,,*34
2017-12-01 15:37:20 1512160640.381537: $GPGSA,A,3,1,10,11,12,14,18,24,25,31,32,138,,2.0,0.8,1.5*3B
2017-12-01 15:37:21 1512160641.380887: $GPZDA,203722.00,01,12,2017,00,00*66
2017-12-01 15:37:21 1512160641.381070: $GPGGA,203722,3946.9574,N,08404.9840,W,2,11,0.80,300.45,M,-33.324,M,,*7D
2017-12-01 15:37:21 1512160641.381139: $GPRMC,203722,A,3946.9574,N,08404.9840,W,0.0000,0.000,011217,,*37
2017-12-01 15:37:21 1512160641.381200: $GPGSA,A,3,1,10,11,12,14,18,24,25,31,32,138,,2.0,0.8,1.5*3B
2017-12-01 15:37:22 1512160642.716551: $GPGSV,3,1,11,01,12,321,36,10,73,126,47,11,10,304,39,12,24,075,44*74
2017-12-01 15:37:22 1512160642.716770: $GPGSV,3,2,11,14,52,288,43,18,41,133,46,24,17,045,44,25,27,118,44*7B
2017-12-01 15:37:22 1512160642.716856: $GPGSV,3,3,11,31,31,210,48,32,67,321,48,138,38,213,46*79
2017-12-01 15:37:22 1512160642.829943: $GPZDA,203723.00,01,12,2017,00,00*67
2017-12-01 15:37:22 1512160642.830091: $GPGGA,203723,3946.9574,N,08404.9840,W,2,11,0.80,300.45,M,-33.324,M,,*7C
2017-12-01 15:37:22 1512160642.830156: $GPRMC,203723,A,3946.9574,N,08404.9840,W,0.0000,0.000,011217,,*36
2017-12-01 15:37:22 1512160642.830217: $GPGSA,A,3,1,10,11,12,14,18,24,25,31,32,138,,2.0,0.8,1.5*3B
2017-12-01 15:37:23 1512160643.455753: $GPZDA,203724.00,01,12,2017,00,00*60
2017-12-01 15:37:23 1512160643.455927: $GPGGA,203724,3946.9574,N,08404.9840,W,2,11,0.80,300.45,M,-33.324,M,,*7B
2017-12-01 15:37:23 1512160643.456011: $GPRMC,203724,A,3946.9574,N,08404.9840,W,0.0000,0.000,011217,,*31
2017-12-01 15:37:23 1512160643.456073: $GPGSA,A,3,1,10,11,12,14,18,24,25,31,32,138,,2.0,0.8,1.5*3B
2017-12-01 15:37:24 1512160644.379958: $GPZDA,203725.00,01,12,2017,00,00*61
2017-12-01 15:37:24 1512160644.380145: $GPGGA,203725,3946.9574,N,08404.9840,W,2,11,0.80,300.45,M,-33.324,M,,*7A
2017-12-01 15:37:24 1512160644.380211: $GPRMC,203725,A,3946.9574,N,08404.9840,W,0.0000,0.000,011217,,*30
2017-12-01 15:37:24 1512160644.380272: $GPGSA,A,3,1,10,11,12,14,18,24,25,31,32,138,,2.0,0.8,1.5*3B
2017-12-01 15:37:25 1512160645.716914: $GPGSV,3,1,11,01,12,321,36,10,73,126,48,11,10,304,39,12,24,075,43*7C
2017-12-01 15:37:25 1512160645.717126: $GPGSV,3,2,11,14,52,288,42,18,41,133,46,24,17,045,44,25,27,118,44*7A
2017-12-01 15:37:25 1512160645.717195: $GPGSV,3,3,11,31,31,210,48,32,67,321,49,138,38,213,46*78
2017-12-01 15:37:25 1512160645.830350: $GPZDA,203726.00,01,12,2017,00,00*62
2017-12-01 15:37:25 1512160645.830523: $GPGGA,203726,3946.9574,N,08404.9840,W,2,11,0.80,300.45,M,-33.324,M,,*79
2017-12-01 15:37:25 1512160645.830590: $GPRMC,203726,A,3946.9574,N,08404.9840,W,0.0000,0.000,011217,,*33
2017-12-01 15:37:25 1512160645.830650: $GPGSA,A,3,1,10,11,12,14,18,24,25,31,32,138,,2.0,0.8,1.5*3B
2017-12-01 15:37:26 1512160646.381226: $GPZDA,203727.00,01,12,2017,00,00*63
2017-12-01 15:37:26 1512160646.381442: $GPGGA,203727,3946.9574,N,08404.9840,W,2,11,0.80,300.45,M,-33.324,M,,*78
2017-12-01 15:37:26 1512160646.381520: $GPRMC,203727,A,3946.9574,N,08404.9840,W,0.0000,0.000,011217,,*32
2017-12-01 15:37:26 1512160646.381581: $GPGSA,A,3,1,10,11,12,14,18,24,25,31,32,138,,2.0,0.8,1.5*3B
2017-12-01 15:37:27 1512160647.382137: $GPZDA,203728.00,01,12,2017,00,00*6C
2017-12-01 15:37:27 1512160647.382311: $GPGGA,203728,3946.9574,N,08404.9840,W,2,11,0.80,300.45,M,-33.324,M,,*77
2017-12-01 15:37:27 1512160647.382378: $GPRMC,203728,A,3946.9574,N,08404.9840,W,0.0000,0.000,011217,,*3D
2017-12-01 15:37:27 1512160647.382440: $GPGSA,A,3,1,10,11,12,14,18,24,25,31,32,138,,2.0,0.8,1.5*3B
2017-12-01 15:37:27 1512160647.382498: $GPGBS,203728,2.67,M,3.86,M,8.82,M*3E
2017-12-01 15:37:28 1512160648.718541: $GPGSV,3,1,11,01,12,321,36,10,73,126,48,11,10,304,38,12,24,075,44*7A
2017-12-01 15:37:28 1512160648.718707: $GPGSV,3,2,11,14,52,288,43,18,41,133,46,24,17,045,45,25,27,118,44*7A
2017-12-01 15:37:28 1512160648.718773: $GPGSV,3,3,11,31,31,210,48,32,67,321,49,138,38,213,46*78
2017-12-01 15:37:28 1512160648.832042: $GPZDA,203729.00,01,12,2017,00,00*6D
2017-12-01 15:37:28 1512160648.832208: $GPGGA,203729,3946.9574,N,08404.9840,W,2,11,0.80,300.45,M,-33.324,M,,*76
2017-12-01 15:37:28 1512160648.832276: $GPRMC,203729,A,3946.9574,N,08404.9840,W,0.0000,0.000,011217,,*3C
2017-12-01 15:37:28 1512160648.832337: $GPGSA,A,3,1,10,11,12,14,18,24,25,31,32,138,,2.0,0.8,1.5*3B
