2017-12-29 11:38:38 1514565518.166770: {"class":"VERSION","release":"3.16","rev":"3.16-4","proto_major":3,"proto_minor":11}
2017-12-29 11:38:38 1514565518.167107: {"class":"DEVICES","devices":[{"class":"DEVICE","path":"/dev/ttyUSB0","driver":"SiRF","subtype":"9\u0006GSD4e_4.1.2-P1_RPATCH.05-F-GPS-4R-1510281 11/03/2015 307","activated":"2017-12-29T16:38:37.583Z","flags":1,"native":1,"bps":4800,"parity":"N","stopbits":1,"cycle":1.00}]}
2017-12-29 11:38:38 1514565518.167221: {"class":"WATCH","enable":true,"json":false,"nmea":true,"raw":0,"scaled":false,"timing":false,"split24":false,"pps":false}
2017-12-29 11:38:38 1514565518.761368: $GPGSV,3,1,11,08,07,315,39,10,49,309,46,15,29,055,50,18,76,007,45*79
2017-12-29 11:38:38 1514565518.761529: $GPGSV,3,2,11,20,27,103,48,21,53,184,46,24,53,093,51,27,17,280,31*7E
2017-12-29 11:38:38 1514565518.761593: $GPGSV,3,3,11,32,29,244,37,14,11,237,25,138,38,213,45*71
2017-12-29 11:38:38 1514565518.873930: $GPZDA,163839.00,29,12,2017,00,00*6C
2017-12-29 11:38:38 1514565518.874118: $GPGGA,163839,3946.9594,N,08404.9825,W,2,11,1.00,327.32,M,-33.324,M,,*7C
2017-12-29 11:38:38 1514565518.874185: $GPRMC,163839,A,3946.9594,N,08404.9825,W,0.0000,0.000,291217,,*30
2017-12-29 11:38:38 1514565518.874246: $GPGSA,A,3,8,10,15,18,20,21,24,27,32,14,138,,1.7,1.0,1.3*3F
2017-12-29 11:38:39 1514565519.500126: $GPZDA,163840.00,29,12,2017,00,00*62
2017-12-29 11:38:39 1514565519.500378: $GPGGA,163840,3946.9594,N,08404.9825,W,2,11,1.00,327.32,M,-33.324,M,,*72
2017-12-29 11:38:39 1514565519.500449: $GPRMC,163840,A,3946.9594,N,08404.9825,W,0.0000,0.000,291217,,*3E
2017-12-29 11:38:39 1514565519.500511: $GPGSA,A,3,8,10,15,18,20,21,24,27,32,14,138,,1.7,1.0,1.3*3F
2017-12-29 11:38:40 1514565520.427200: $GPZDA,163841.00,29,12,2017,00,00*63
2017-12-29 11:38:40 1514565520.430727: $GPGGA,163841,3946.9594,N,08404.9825,W,2,11,1.00,327.32,M,-33.324,M,,*73
2017-12-29 11:38:40 1514565520.430833: $GPRMC,163841,A,3946.9594,N,08404.9825,W,0.0000,0.000,291217,,*3F
2017-12-29 11:38:40 1514565520.430897: $GPGSA,A,3,8,10,15,18,20,21,24,27,32,14,138,,1.7,1.0,1.3*3F
2017-12-29 11:38:41 1514565521.771703: $GPGSV,3,1,11,08,07,315,39,10,49,309,46,15,29,055,50,18,76,007,44*78
2017-12-29 11:38:41 1514565521.771883: $GPGSV,3,2,11,20,27,103,48,21,53,184,46,24,53,093,51,27,17,280,32*7D
2017-12-29 11:38:41 1514565521.771950: $GPGSV,3,3,11,32,29,244,37,14,11,237,26,138,38,213,45*72
2017-12-29 11:38:41 1514565521.885172: $GPZDA,163842.00,29,12,2017,00,00*60
2017-12-29 11:38:41 1514565521.885349: $GPGGA,163842,3946.9594,N,08404.9825,W,2,11,1.00,327.32,M,-33.324,M,,*70
2017-12-29 11:38:41 1514565521.885417: $GPRMC,163842,A,3946.9594,N,08404.9825,W,0.0000,0.000,291217,,*3C
2017-12-29 11:38:41 1514565521.885478: $GPGSA,A,3,8,10,15,18,20,21,24,27,32,14,138,,1.7,1.0,1.3*3F
2017-12-29 11:38:42 1514565522.443528: $GPZDA,163843.00,29,12,2017,00,00*61
2017-12-29 11:38:42 1514565522.443710: $GPGGA,163843,3946.9594,N,08404.9825,W,2,11,1.00,327.32,M,-33.324,M,,*71
2017-12-29 11:38:42 1514565522.443779: $GPRMC,163843,A,3946.9594,N,08404.9825,W,0.0000,0.000,291217,,*3D
2017-12-29 11:38:42 1514565522.443841: $GPGSA,A,3,8,10,15,18,20,21,24,27,32,14,138,,1.7,1.0,1.3*3F
2017-12-29 11:38:43 1514565523.425769: $GPZDA,163844.00,29,12,2017,00,00*66
2017-12-29 11:38:43 1514565523.425926: $GPGGA,163844,3946.9594,N,08404.9825,W,2,11,1.00,327.32,M,-33.324,M,,*76
2017-12-29 11:38:43 1514565523.425991: $GPRMC,163844,A,3946.9594,N,08404.9825,W,0.0000,0.000,291217,,*3A
2017-12-29 11:38:43 1514565523.426052: $GPGSA,A,3,8,10,15,18,20,21,24,27,32,14,138,,1.7,1.0,1.3*3F
2017-12-29 11:38:44 1514565524.778346: $GPGSV,3,1,11,08,07,315,39,10,49,309,46,15,29,055,50,18,76,007,45*79
2017-12-29 11:38:44 1514565524.778511: $GPGSV,3,2,11,20,27,103,48,21,53,184,45,24,53,093,51,27,17,280,35*79
2017-12-29 11:38:44 1514565524.778578: $GPGSV,3,3,11,32,29,244,38,14,11,237,14,138,38,213,46*7F
2017-12-29 11:38:44 1514565524.891844: $GPZDA,163845.00,29,12,2017,00,00*67
2017-12-29 11:38:44 1514565524.892028: $GPGGA,163845,3946.9594,N,08404.9825,W,2,11,1.00,327.32,M,-33.324,M,,*77
2017-12-29 11:38:44 1514565524.892152: $GPRMC,163845,A,3946.9594,N,08404.9825,W,0.0000,0.000,291217,,*3B
2017-12-29 11:38:44 1514565524.892216: $GPGSA,A,3,8,10,15,18,20,21,24,27,32,14,138,,1.7,1.0,1.3*3F
2017-12-29 11:38:45 1514565525.420174: $GPZDA,163846.00,29,12,2017,00,00*64
2017-12-29 11:38:45 1514565525.420361: $GPGGA,163846,3946.9591,N,08404.9826,W,2,11,1.00,328.09,M,-33.324,M,,*75
2017-12-29 11:38:45 1514565525.420431: $GPRMC,163846,A,3946.9591,N,08404.9826,W,0.0000,0.000,291217,,*3E
2017-12-29 11:38:45 1514565525.420493: $GPGSA,A,3,8,10,15,18,20,21,24,27,32,14,138,,1.7,1.0,1.3*3F
2017-12-29 11:38:46 1514565526.441406: $GPZDA,163847.00,29,12,2017,00,00*65
2017-12-29 11:38:46 1514565526.441575: $GPGGA,163847,3946.9591,N,08404.9826,W,2,11,1.00,328.09,M,-33.324,M,,*74
2017-12-29 11:38:46 1514565526.441642: $GPRMC,163847,A,3946.9591,N,08404.9826,W,0.0000,0.000,291217,,*3F
2017-12-29 11:38:46 1514565526.441703: $GPGSA,A,3,8,10,15,18,20,21,24,27,32,14,138,,1.7,1.0,1.3*3F
2017-12-29 11:38:47 1514565527.777965: $GPGSV,3,1,11,08,07,315,39,10,49,309,46,15,29,055,50,18,76,007,45*79
2017-12-29 11:38:47 1514565527.778161: $GPGSV,3,2,11,20,27,103,48,21,53,184,45,24,53,093,51,27,17,280,36*7A
2017-12-29 11:38:47 1514565527.778229: $GPGSV,3,3,11,32,29,244,38,14,11,237,15,138,38,213,45*7D
2017-12-29 11:38:47 1514565527.892292: $GPZDA,163848.00,29,12,2017,00,00*6A
2017-12-29 11:38:47 1514565527.892469: $GPGGA,163848,3946.9591,N,08404.9826,W,2,11,1.00,328.09,M,-33.324,M,,*7B
2017-12-29 11:38:47 1514565527.892536: $GPRMC,163848,A,3946.9591,N,08404.9826,W,0.0000,0.000,291217,,*30
2017-12-29 11:38:47 1514565527.892597: $GPGSA,A,3,8,10,15,18,20,21,24,27,32,14,138,,1.7,1.0,1.3*3F
2017-12-29 11:38:49 1514565529.300331: $GPZDA,163849.00,29,12,2017,00,00*6B
2017-12-29 11:38:49 1514565529.300503: $GPGGA,163849,3946.9582,N,08404.9826,W,2,11,1.00,326.81,M,-33.324,M,,*76
2017-12-29 11:38:49 1514565529.300568: $GPRMC,163849,A,3946.9582,N,08404.9826,W,0.0000,0.000,291217,,*33
2017-12-29 11:38:49 1514565529.300629: $GPGSA,A,3,8,10,15,18,20,21,24,27,32,14,138,,1.7,1.0,1.3*3F
2017-12-29 11:38:49 1514565529.300687: $GPGBS,163849,2.73,M,2.59,M,7.72,M*35
2017-12-29 11:38:49 1514565529.925342: $GPZDA,163850.00,29,12,2017,00,00*63
2017-12-29 11:38:49 1514565529.925517: $GPGGA,163850,3946.9582,N,08404.9826,W,2,11,1.00,326.81,M,-33.324,M,,*7E
2017-12-29 11:38:49 1514565529.925584: $GPRMC,163850,A,3946.9582,N,08404.9826,W,0.0000,0.000,291217,,*3B
2017-12-29 11:38:49 1514565529.925646: $GPGSA,A,3,8,10,15,18,20,21,24,27,32,14,138,,1.7,1.0,1.3*3F
2017-12-29 11:38:49 1514565529.925704: $GPGBS,163850,2.73,M,2.59,M,7.72,M*3D
2017-12-29 11:38:50 1514565530.759853: $GPGSV,3,1,11,08,07,315,40,10,50,309,46,15,28,055,50,18,76,010,45*78
2017-12-29 11:38:50 1514565530.760016: $GPGSV,3,2,11,20,27,103,48,21,53,184,46,24,53,093,51,27,17,279,36*7F
2017-12-29 11:38:50 1514565530.760081: $GPGSV,3,3,11,32,30,246,38,14,11,238,04,138,38,213,45*78
2017-12-29 11:38:50 1514565530.873253: $GPZDA,163851.00,29,12,2017,00,00*62
2017-12-29 11:38:50 1514565530.873434: $GPGGA,163851,3946.9582,N,08404.9826,W,2,10,1.00,326.81,M,-33.324,M,,*7E
2017-12-29 11:38:50 1514565530.873522: $GPRMC,163851,A,3946.9582,N,08404.9826,W,0.0000,0.000,291217,,*3A
2017-12-29 11:38:50 1514565530.873584: $GPGSA,A,3,8,10,15,18,20,21,24,27,32,138,,,1.7,1.0,1.3*3A
2017-12-29 11:38:51 1514565531.436675: $GPZDA,163852.00,29,12,2017,00,00*61
2017-12-29 11:38:51 1514565531.436847: $GPGGA,163852,3946.9582,N,08404.9819,W,2,10,1.00,326.89,M,-33.324,M,,*79
2017-12-29 11:38:51 1514565531.436914: $GPRMC,163852,A,3946.9582,N,08404.9819,W,0.0000,0.000,291217,,*35
2017-12-29 11:38:51 1514565531.436974: $GPGSA,A,3,8,10,15,18,20,21,24,27,32,138,,,1.7,1.0,1.3*3A
2017-12-29 11:38:52 1514565532.437543: $GPZDA,163853.00,29,12,2017,00,00*60
2017-12-29 11:38:52 1514565532.437723: $GPGGA,163853,3946.9582,N,08404.9819,W,2,10,1.00,326.89,M,-33.324,M,,*78
2017-12-29 11:38:52 1514565532.437791: $GPRMC,163853,A,3946.9582,N,08404.9819,W,0.0000,0.000,291217,,*34
2017-12-29 11:38:52 1514565532.437852: $GPGSA,A,3,8,10,15,18,20,21,24,27,32,138,,,1.7,1.0,1.3*3A
