2017-12-31 17:47:23 1514760443.759004: {"class":"VERSION","release":"3.16","rev":"3.16-4","proto_major":3,"proto_minor":11}
2017-12-31 17:47:23 1514760443.759403: {"class":"DEVICES","devices":[{"class":"DEVICE","path":"/dev/ttyUSB0","driver":"SiRF","activated":"2017-12-31T22:47:23.487Z","flags":1,"native":1,"bps":4800,"parity":"N","stopbits":1,"cycle":1.00}]}
2017-12-31 17:47:23 1514760443.759501: {"class":"WATCH","enable":true,"json":false,"nmea":true,"raw":0,"scaled":false,"timing":false,"split24":false,"pps":false}
2017-12-31 17:47:24 1514760444.700005: $GPGSV,3,1,12,22,30,220,44,23,45,309,45,09,12,312,42,03,38,244,44*76
2017-12-31 17:47:24 1514760444.700157: $GPGSV,3,2,12,16,69,192,44,29,10,037,38,14,23,127,27,31,35,067,40*78
2017-12-31 17:47:24 1514760444.700222: $GPGSV,3,3,12,27,13,159,27,32,03,132,16,26,71,061,47,135,22,240,44*47
2017-12-31 17:47:24 1514760444.813334: $GPZDA,224725.00,31,12,2017,00,00*67
2017-12-31 17:47:24 1514760444.813502: $GPGGA,224725,3946.9582,N,08404.9863,W,2,12,0.60,305.06,M,-33.324,M,,*78
2017-12-31 17:47:24 1514760444.813569: $GPRMC,224725,A,3946.9582,N,08404.9863,W,0.0000,0.000,311217,,*3E
2017-12-31 17:47:24 1514760444.813630: $GPGSA,A,3,22,23,9,3,16,29,14,31,27,32,26,135,1.7,0.6,1.3*07
2017-12-31 17:47:25 1514760445.438724: $GPZDA,224726.00,31,12,2017,00,00*64
2017-12-31 17:47:25 1514760445.438882: $GPGGA,224726,3946.9582,N,08404.9863,W,2,12,0.60,305.06,M,-33.324,M,,*7B
2017-12-31 17:47:25 1514760445.438948: $GPRMC,224726,A,3946.9582,N,08404.9863,W,0.0000,0.000,311217,,*3D
2017-12-31 17:47:25 1514760445.439009: $GPGSA,A,3,22,23,9,3,16,29,14,31,27,32,26,135,1.7,0.6,1.3*07
2017-12-31 17:47:26 1514760446.367152: $GPZDA,224727.00,31,12,2017,00,00*65
2017-12-31 17:47:26 1514760446.367319: $GPGGA,224727,3946.9582,N,08404.9863,W,2,12,0.80,305.06,M,-33.324,M,,*74
2017-12-31 17:47:26 1514760446.367385: $GPRMC,224727,A,3946.9582,N,08404.9863,W,0.0000,0.000,311217,,*3C
2017-12-31 17:47:26 1514760446.367446: $GPGSA,A,3,22,23,9,3,16,29,14,31,27,32,26,135,1.7,0.8,1.3*09
2017-12-31 17:47:27 1514760447.681533: $GPGSV,3,1,12,22,30,220,44,23,45,309,46,09,12,312,42,03,38,244,44*75
2017-12-31 17:47:27 1514760447.681701: $GPGSV,3,2,12,16,69,192,43,29,10,037,38,14,23,127,15,31,35,067,39*70
2017-12-31 17:47:27 1514760447.681767: $GPGSV,3,3,12,27,13,159,27,32,03,132,00,26,71,061,48,135,22,240,44*4F
2017-12-31 17:47:27 1514760447.794899: $GPZDA,224728.00,31,12,2017,00,00*6A
2017-12-31 17:47:27 1514760447.795066: $GPGGA,224728,3946.9582,N,08404.9863,W,2,10,0.80,305.06,M,-33.324,M,,*79
2017-12-31 17:47:27 1514760447.795134: $GPRMC,224728,A,3946.9582,N,08404.9863,W,0.0000,0.000,311217,,*33
2017-12-31 17:47:27 1514760447.795194: $GPGSA,A,3,22,23,9,3,16,29,31,27,26,135,,,1.7,0.8,1.3*0D
2017-12-31 17:47:28 1514760448.370774: $GPZDA,224729.00,31,12,2017,00,00*6B
2017-12-31 17:47:28 1514760448.370931: $GPGGA,224729,3946.9582,N,08404.9863,W,2,10,0.60,305.06,M,-33.324,M,,*76
2017-12-31 17:47:28 1514760448.370997: $GPRMC,224729,A,3946.9582,N,08404.9863,W,0.0000,0.000,311217,,*32
2017-12-31 17:47:28 1514760448.371058: $GPGSA,A,3,22,23,9,3,16,29,31,27,26,135,,,1.7,0.6,1.3*03
2017-12-31 17:47:29 1514760449.345557: $GPZDA,224730.00,31,12,2017,00,00*63
2017-12-31 17:47:29 1514760449.345716: $GPGGA,224730,3946.9582,N,08404.9863,W,2,10,0.60,305.06,M,-33.324,M,,*7E
2017-12-31 17:47:29 1514760449.345781: $GPRMC,224730,A,3946.9582,N,08404.9863,W,0.0000,0.000,311217,,*3A
2017-12-31 17:47:29 1514760449.345843: $GPGSA,A,3,22,23,9,3,16,29,31,27,26,135,,,1.7,0.6,1.3*03
2017-12-31 17:47:30 1514760450.681893: $GPGSV,3,1,12,22,30,220,45,23,45,309,46,09,12,312,42,03,38,244,44*74
2017-12-31 17:47:30 1514760450.682057: $GPGSV,3,2,12,16,69,192,43,29,10,037,36,14,23,127,27,31,35,067,38*7E
2017-12-31 17:47:30 1514760450.682124: $GPGSV,3,3,12,27,13,159,26,32,03,132,00,26,71,061,48,135,22,240,44*4E
2017-12-31 17:47:30 1514760450.795269: $GPZDA,224731.00,31,12,2017,00,00*62
2017-12-31 17:47:30 1514760450.795451: $GPGGA,224731,3946.9582,N,08404.9863,W,2,11,0.60,305.06,M,-33.324,M,,*7E
2017-12-31 17:47:30 1514760450.795516: $GPRMC,224731,A,3946.9582,N,08404.9863,W,0.0000,0.000,311217,,*3B
2017-12-31 17:47:30 1514760450.795632: $GPGSA,A,3,22,23,9,3,16,29,14,31,27,26,135,,1.7,0.6,1.3*06
2017-12-31 17:47:31 1514760451.339881: $GPZDA,224732.00,31,12,2017,00,00*61
2017-12-31 17:47:31 1514760451.340067: $GPGGA,224732,3946.9582,N,08404.9863,W,2,11,0.60,305.06,M,-33.324,M,,*7D
2017-12-31 17:47:31 1514760451.340135: $GPRMC,224732,A,3946.9582,N,08404.9863,W,0.0000,0.000,311217,,*38
2017-12-31 17:47:31 1514760451.340214: $GPGSA,A,3,22,23,9,3,16,29,14,31,27,26,135,,1.7,0.6,1.3*06
2017-12-31 17:47:32 1514760452.364506: $GPZDA,224733.00,31,12,2017,00,00*60
2017-12-31 17:47:32 1514760452.364686: $GPGGA,224733,3946.9582,N,08404.9863,W,2,11,0.60,305.06,M,-33.324,M,,*7C
2017-12-31 17:47:32 1514760452.364756: $GPRMC,224733,A,3946.9582,N,08404.9863,W,0.0000,0.000,311217,,*39
2017-12-31 17:47:32 1514760452.364820: $GPGSA,A,3,22,23,9,3,16,29,14,31,27,26,135,,1.7,0.6,1.3*06
2017-12-31 17:47:33 1514760453.707738: $GPGSV,3,1,12,22,30,220,44,23,45,309,45,09,12,312,41,03,38,244,44*75
