2017-12-01 14:45:39 1512157539.306833: {"class":"VERSION","release":"3.16","rev":"3.16-4","proto_major":3,"proto_minor":11}
2017-12-01 14:45:39 1512157539.307264: {"class":"DEVICES","devices":[{"class":"DEVICE","path":"/dev/ttyUSB0","driver":"SiRF","subtype":"9\u0006GSD4e_4.1.2-P1_RPATCH.05-F-GPS-4R-1510281 11/03/2015 307","activated":"2017-12-01T19:45:38.923Z","flags":1,"native":1,"bps":4800,"parity":"N","stopbits":1,"cycle":1.00}]}
2017-12-01 14:45:39 1512157539.307400: {"class":"WATCH","enable":true,"json":false,"nmea":true,"raw":0,"scaled":false,"timing":false,"split24":false,"pps":false}
2017-12-01 14:45:39 1512157539.917400: $GPZDA,194540.60,01,12,2017,00,00*6B
2017-12-01 14:45:39 1512157539.917570: $GPGGA,194540,3946.9587,N,08404.9829,W,1,12,1.20,296.07,M,-33.324,M,,*76
2017-12-01 14:45:39 1512157539.917636: $GPRMC,194540,A,3946.9587,N,08404.9829,W,0.1324,202.230,011217,,*3A
2017-12-01 14:45:39 1512157539.917700: $GPGSA,A,3,10,14,18,21,24,25,32,15,12,11,31,138,2.0,1.2,1.5*06
2017-12-01 14:45:39 1512157539.917760: $GPGBS,194540,10.70,M,15.43,M,35.28,M*0A
2017-12-01 14:45:41 1512157541.067973: $GPZDA,194541.28,01,12,2017,00,00*66
2017-12-01 14:45:41 1512157541.068155: $GPGGA,194541,3946.9587,N,08404.9829,W,1,12,1.20,296.07,M,-33.324,M,,*77
2017-12-01 14:45:41 1512157541.068224: $GPRMC,194541,A,3946.9587,N,08404.9829,W,0.3155,309.994,011217,,*32
2017-12-01 14:45:41 1512157541.068287: $GPGSA,A,3,10,14,18,21,24,25,32,15,12,11,31,138,2.0,1.2,1.5*06
2017-12-01 14:45:42 1512157542.340284: $GPGSV,3,1,12,10,78,352,47,12,15,099,40,14,36,262,43,18,62,112,47*7F
2017-12-01 14:45:42 1512157542.340476: $GPGSV,3,2,12,21,18,177,44,24,37,051,46,32,53,277,45,25,10,135,31*73
2017-12-01 14:45:42 1512157542.340547: $GPGSV,3,3,12,08,02,285,12,11,03,322,12,31,09,204,10,138,38,213,00*42
2017-12-01 14:45:42 1512157542.454928: $GPZDA,194542.00,01,12,2017,00,00*6F
2017-12-01 14:45:42 1512157542.455099: $GPGGA,194542,3946.9587,N,08404.9836,W,1,08,1.20,295.99,M,-33.324,M,,*75
2017-12-01 14:45:42 1512157542.455171: $GPRMC,194542,A,3946.9587,N,08404.9836,W,0.0000,0.000,011217,,*33
2017-12-01 14:45:42 1512157542.455232: $GPGSA,A,3,10,12,14,18,21,24,32,25,,,,,2.0,1.2,1.5*3A
2017-12-01 14:45:42 1512157542.707850: $GPZDA,194543.00,01,12,2017,00,00*6E
2017-12-01 14:45:42 1512157542.708021: $GPGGA,194543,3946.9587,N,08404.9836,W,1,08,1.20,295.99,M,-33.324,M,,*74
2017-12-01 14:45:42 1512157542.708091: $GPRMC,194543,A,3946.9587,N,08404.9836,W,0.0000,0.000,011217,,*32
2017-12-01 14:45:42 1512157542.708156: $GPGSA,A,3,10,12,14,18,21,24,32,25,,,,,2.0,1.2,1.5*3A
2017-12-01 14:45:43 1512157543.416041: $GPZDA,194544.00,01,12,2017,00,00*69
2017-12-01 14:45:43 1512157543.416226: $GPGGA,194544,3946.9587,N,08404.9836,W,1,08,1.20,295.99,M,-33.324,M,,*73
2017-12-01 14:45:43 1512157543.416295: $GPRMC,194544,A,3946.9587,N,08404.9836,W,0.0000,0.000,011217,,*35
2017-12-01 14:45:43 1512157543.416356: $GPGSA,A,3,10,12,14,18,21,24,32,25,,,,,2.0,1.2,1.5*3A
2017-12-01 14:45:44 1512157544.747401: $GPGSV,3,1,12,10,78,352,47,12,15,099,41,14,36,262,44,18,62,112,48*76
2017-12-01 14:45:44 1512157544.747587: $GPGSV,3,2,12,21,18,177,44,24,37,051,46,32,53,277,45,25,10,135,32*70
2017-12-01 14:45:44 1512157544.747656: $GPGSV,3,3,12,15,04,072,16,11,03,322,31,31,09,204,26,138,38,213,48*4E
2017-12-01 14:45:44 1512157544.860741: $GPZDA,194545.00,01,12,2017,00,00*68
2017-12-01 14:45:44 1512157544.860914: $GPGGA,194545,3946.9591,N,08404.9836,W,1,12,1.20,295.22,M,-33.324,M,,*7E
2017-12-01 14:45:44 1512157544.860980: $GPRMC,194545,A,3946.9591,N,08404.9836,W,0.0000,0.000,011217,,*33
2017-12-01 14:45:44 1512157544.861043: $GPGSA,A,3,10,12,14,18,21,24,32,25,15,11,31,138,2.0,1.2,1.5*06
2017-12-01 14:45:45 1512157545.411651: $GPZDA,194546.00,01,12,2017,00,00*6B
2017-12-01 14:45:45 1512157545.411830: $GPGGA,194546,3946.9591,N,08404.9836,W,1,12,1.20,295.22,M,-33.324,M,,*7D
2017-12-01 14:45:45 1512157545.411899: $GPRMC,194546,A,3946.9591,N,08404.9836,W,0.0000,0.000,011217,,*30
2017-12-01 14:45:45 1512157545.411960: $GPGSA,A,3,10,12,14,18,21,24,32,25,15,11,31,138,2.0,1.2,1.5*06
2017-12-01 14:45:46 1512157546.412632: $GPZDA,194547.00,01,12,2017,00,00*6A
2017-12-01 14:45:46 1512157546.412821: $GPGGA,194547,3946.9591,N,08404.9836,W,1,12,1.20,295.22,M,-33.324,M,,*7C
2017-12-01 14:45:46 1512157546.412893: $GPRMC,194547,A,3946.9591,N,08404.9836,W,0.0000,0.000,011217,,*31
2017-12-01 14:45:46 1512157546.412957: $GPGSA,A,3,10,12,14,18,21,24,32,25,15,11,31,138,2.0,1.2,1.5*06
2017-12-01 14:45:46 1512157546.413019: $GPGBS,194547,10.70,M,15.43,M,35.28,M*0D
2017-12-01 14:45:47 1512157547.748187: $GPGSV,3,1,12,10,78,352,47,12,15,099,41,14,36,262,44,18,62,112,47*79
2017-12-01 14:45:47 1512157547.748379: $GPGSV,3,2,12,21,18,177,44,24,37,051,46,32,53,277,45,25,10,135,33*71
2017-12-01 14:45:47 1512157547.748467: $GPGSV,3,3,12,15,04,072,16,11,03,322,31,31,09,204,26,138,38,213,48*4E
2017-12-01 14:45:47 1512157547.861605: $GPZDA,194548.00,01,12,2017,00,00*65
2017-12-01 14:45:47 1512157547.861770: $GPGGA,194548,3946.9594,N,08404.9841,W,2,12,1.40,292.98,M,-33.324,M,,*75
2017-12-01 14:45:47 1512157547.861836: $GPRMC,194548,A,3946.9594,N,08404.9841,W,0.0000,0.000,011217,,*3B
2017-12-01 14:45:47 1512157547.861897: $GPGSA,A,3,10,12,14,18,21,24,32,25,15,11,31,138,2.0,1.4,1.5*00
2017-12-01 14:45:48 1512157548.414881: $GPZDA,194549.00,01,12,2017,00,00*64
2017-12-01 14:45:48 1512157548.415072: $GPGGA,194549,3946.9597,N,08404.9847,W,2,12,1.40,290.73,M,-33.324,M,,*76
2017-12-01 14:45:48 1512157548.415156: $GPRMC,194549,A,3946.9597,N,08404.9847,W,0.0000,0.000,011217,,*3F
2017-12-01 14:45:48 1512157548.415219: $GPGSA,A,3,10,12,14,18,21,24,32,25,15,11,31,138,2.0,1.4,1.5*00
2017-12-01 14:45:49 1512157549.414109: $GPZDA,194550.00,01,12,2017,00,00*6C
2017-12-01 14:45:49 1512157549.414305: $GPGGA,194550,3946.9597,N,08404.9847,W,2,12,1.40,290.73,M,-33.324,M,,*7E
2017-12-01 14:45:49 1512157549.414373: $GPRMC,194550,A,3946.9597,N,08404.9847,W,0.0000,0.000,011217,,*37
2017-12-01 14:45:49 1512157549.414434: $GPGSA,A,3,10,12,14,18,21,24,32,25,15,11,31,138,2.0,1.4,1.5*00
2017-12-01 14:45:50 1512157550.752298: $GPGSV,3,1,12,10,78,352,47,12,15,099,41,14,36,262,44,18,62,112,48*76
2017-12-01 14:45:50 1512157550.752480: $GPGSV,3,2,12,21,18,177,44,24,37,051,46,32,53,277,45,25,10,135,33*71
2017-12-01 14:45:50 1512157550.752547: $GPGSV,3,3,12,15,04,072,17,11,03,322,31,31,09,204,26,138,38,213,48*4F
2017-12-01 14:45:50 1512157550.865598: $GPZDA,194551.00,01,12,2017,00,00*6D
2017-12-01 14:45:50 1512157550.865774: $GPGGA,194551,3946.9597,N,08404.9847,W,2,12,1.40,290.73,M,-33.324,M,,*7F
2017-12-01 14:45:50 1512157550.865841: $GPRMC,194551,A,3946.9597,N,08404.9847,W,0.0000,0.000,011217,,*36
2017-12-01 14:45:50 1512157550.865903: $GPGSA,A,3,10,12,14,18,21,24,32,25,15,11,31,138,2.0,1.4,1.5*00
2017-12-01 14:45:51 1512157551.413021: $GPZDA,194552.00,01,12,2017,00,00*6E
2017-12-01 14:45:51 1512157551.413210: $GPGGA,194552,3946.9597,N,08404.9847,W,2,12,1.20,290.73,M,-33.324,M,,*7A
2017-12-01 14:45:51 1512157551.413278: $GPRMC,194552,A,3946.9597,N,08404.9847,W,0.0000,0.000,011217,,*35
2017-12-01 14:45:51 1512157551.413339: $GPGSA,A,3,10,12,14,18,21,24,32,25,15,11,31,138,2.0,1.2,1.5*06
2017-12-01 14:45:52 1512157552.413642: $GPZDA,194553.00,01,12,2017,00,00*6F
2017-12-01 14:45:52 1512157552.415659: $GPGGA,194553,3946.9597,N,08404.9847,W,2,12,1.20,290.73,M,-33.324,M,,*7B
2017-12-01 14:45:52 1512157552.415774: $GPRMC,194553,A,3946.9597,N,08404.9847,W,0.0000,0.000,011217,,*34
2017-12-01 14:45:52 1512157552.415838: $GPGSA,A,3,10,12,14,18,21,24,32,25,15,11,31,138,2.0,1.2,1.5*06
2017-12-01 14:45:53 1512157553.751839: $GPGSV,3,1,12,10,78,352,48,12,15,099,42,14,36,262,44,18,62,112,48*7A
2017-12-01 14:45:53 1512157553.752039: $GPGSV,3,2,12,21,18,177,44,24,37,051,46,32,53,277,46,25,10,135,28*78
2017-12-01 14:45:53 1512157553.752108: $GPGSV,3,3,12,15,04,072,18,11,03,322,32,31,09,204,25,138,38,213,47*4F
2017-12-01 14:45:53 1512157553.865432: $GPZDA,194554.00,01,12,2017,00,00*68
2017-12-01 14:45:53 1512157553.865563: $GPGGA,194554,3946.9597,N,08404.9847,W,2,12,1.20,290.73,M,-33.324,M,,*7C
2017-12-01 14:45:53 1512157553.865629: $GPRMC,194554,A,3946.9597,N,08404.9847,W,0.0000,0.000,011217,,*33
2017-12-01 14:45:53 1512157553.865738: $GPGSA,A,3,10,12,14,18,21,24,32,25,15,11,31,138,2.0,1.2,1.5*06
2017-12-01 14:45:54 1512157554.490618: $GPZDA,194555.00,01,12,2017,00,00*69
2017-12-01 14:45:54 1512157554.490800: $GPGGA,194555,3946.9597,N,08404.9847,W,2,12,1.20,290.73,M,-33.324,M,,*7D
2017-12-01 14:45:54 1512157554.490871: $GPRMC,194555,A,3946.9597,N,08404.9847,W,0.0000,0.000,011217,,*32
2017-12-01 14:45:54 1512157554.490933: $GPGSA,A,3,10,12,14,18,21,24,32,25,15,11,31,138,2.0,1.2,1.5*06
2017-12-01 14:45:55 1512157555.412979: $GPZDA,194556.00,01,12,2017,00,00*6A
2017-12-01 14:45:55 1512157555.413163: $GPGGA,194556,3946.9597,N,08404.9847,W,2,12,1.20,290.73,M,-33.324,M,,*7E
2017-12-01 14:45:55 1512157555.413229: $GPRMC,194556,A,3946.9597,N,08404.9847,W,0.0000,0.000,011217,,*31
2017-12-01 14:45:55 1512157555.413291: $GPGSA,A,3,10,12,14,18,21,24,32,25,15,11,31,138,2.0,1.2,1.5*06
2017-12-01 14:45:56 1512157556.748456: $GPGSV,3,1,12,10,78,352,48,12,15,099,42,14,36,262,44,18,62,112,48*7A
2017-12-01 14:45:56 1512157556.748644: $GPGSV,3,2,12,21,18,177,44,24,37,051,46,32,53,277,46,25,10,135,32*73
2017-12-01 14:45:56 1512157556.748712: $GPGSV,3,3,12,15,04,072,18,11,03,322,32,31,09,204,21,138,38,213,48*44
2017-12-01 14:45:56 1512157556.862267: $GPZDA,194557.00,01,12,2017,00,00*6B
2017-12-01 14:45:56 1512157556.862439: $GPGGA,194557,3946.9597,N,08404.9847,W,2,12,1.20,290.73,M,-33.324,M,,*7F
2017-12-01 14:45:56 1512157556.862507: $GPRMC,194557,A,3946.9597,N,08404.9847,W,0.0000,0.000,011217,,*30
2017-12-01 14:45:56 1512157556.862568: $GPGSA,A,3,10,12,14,18,21,24,32,25,15,11,31,138,2.0,1.2,1.5*06
2017-12-01 14:45:57 1512157557.413041: $GPZDA,194558.00,01,12,2017,00,00*64
2017-12-01 14:45:57 1512157557.415091: $GPGGA,194558,3946.9597,N,08404.9847,W,2,12,1.20,290.73,M,-33.324,M,,*70
2017-12-01 14:45:57 1512157557.415205: $GPRMC,194558,A,3946.9597,N,08404.9847,W,0.0000,0.000,011217,,*3F
2017-12-01 14:45:57 1512157557.415305: $GPGSA,A,3,10,12,14,18,21,24,32,25,15,11,31,138,2.0,1.2,1.5*06
2017-12-01 14:45:58 1512157558.417250: $GPZDA,194559.00,01,12,2017,00,00*65
2017-12-01 14:45:58 1512157558.417442: $GPGGA,194559,3946.9597,N,08404.9847,W,2,12,1.20,290.73,M,-33.324,M,,*71
2017-12-01 14:45:58 1512157558.417511: $GPRMC,194559,A,3946.9597,N,08404.9847,W,0.0000,0.000,011217,,*3E
2017-12-01 14:45:58 1512157558.417573: $GPGSA,A,3,10,12,14,18,21,24,32,25,15,11,31,138,2.0,1.2,1.5*06
2017-12-01 14:45:58 1512157558.417634: $GPGBS,194559,2.67,M,3.86,M,8.82,M*37
2017-12-01 14:45:59 1512157559.748683: $GPGSV,3,1,12,10,78,352,47,12,15,099,42,14,36,262,44,18,62,112,48*75
2017-12-01 14:45:59 1512157559.748870: $GPGSV,3,2,12,21,18,177,44,24,37,051,46,32,53,277,46,08,02,285,35*70
2017-12-01 14:45:59 1512157559.748938: $GPGSV,3,3,12,15,04,072,19,11,03,322,34,31,09,204,31,138,38,213,49*43
2017-12-01 14:45:59 1512157559.862394: $GPZDA,194600.00,01,12,2017,00,00*6A
2017-12-01 14:45:59 1512157559.862541: $GPGGA,194600,3946.9597,N,08404.9847,W,2,12,1.20,290.73,M,-33.324,M,,*7E
2017-12-01 14:45:59 1512157559.862609: $GPRMC,194600,A,3946.9597,N,08404.9847,W,0.0000,0.000,011217,,*31
2017-12-01 14:45:59 1512157559.862690: $GPGSA,A,3,10,12,14,18,21,24,32,8,15,11,31,138,2.0,1.2,1.5*39
2017-12-01 14:46:00 1512157560.967127: $GPZDA,194601.00,01,12,2017,00,00*6B
2017-12-01 14:46:00 1512157560.967317: $GPGGA,194601,3946.9593,N,08404.9840,W,2,12,1.20,291.57,M,-33.324,M,,*7B
2017-12-01 14:46:00 1512157560.967386: $GPRMC,194601,A,3946.9593,N,08404.9840,W,0.3155,129.994,011217,,*3F
2017-12-01 14:46:00 1512157560.967448: $GPGSA,A,3,10,12,14,18,21,24,32,8,15,11,31,138,2.0,1.2,1.5*39
2017-12-01 14:46:01 1512157561.417844: $GPZDA,194602.00,01,12,2017,00,00*68
2017-12-01 14:46:01 1512157561.418027: $GPGGA,194602,3946.9593,N,08404.9840,W,2,12,1.20,291.57,M,-33.324,M,,*78
2017-12-01 14:46:01 1512157561.418095: $GPRMC,194602,A,3946.9593,N,08404.9840,W,0.0000,0.000,011217,,*30
2017-12-01 14:46:01 1512157561.418156: $GPGSA,A,3,10,12,14,18,21,24,32,8,15,11,31,138,2.0,1.2,1.5*39
2017-12-01 14:46:02 1512157562.749837: $GPGSV,3,1,12,10,78,352,47,12,15,099,42,14,36,262,44,18,62,112,48*75
2017-12-01 14:46:02 1512157562.750009: $GPGSV,3,2,12,21,18,177,44,24,37,051,47,32,53,279,46,25,10,135,30*7E
2017-12-01 14:46:02 1512157562.750077: $GPGSV,3,3,12,15,04,072,24,11,03,322,34,31,09,204,30,138,38,213,48*4D
2017-12-01 14:46:02 1512157562.863259: $GPZDA,194603.00,01,12,2017,00,00*69
2017-12-01 14:46:02 1512157562.863437: $GPGGA,194603,3946.9593,N,08404.9840,W,2,12,1.20,291.57,M,-33.324,M,,*79
2017-12-01 14:46:02 1512157562.863505: $GPRMC,194603,A,3946.9593,N,08404.9840,W,0.0000,0.000,011217,,*31
2017-12-01 14:46:02 1512157562.863566: $GPGSA,A,3,10,12,14,18,21,24,32,25,15,11,31,138,2.0,1.2,1.5*06
2017-12-01 14:46:03 1512157563.410640: $GPZDA,194604.00,01,12,2017,00,00*6E
2017-12-01 14:46:03 1512157563.410813: $GPGGA,194604,3946.9593,N,08404.9840,W,2,12,1.20,291.57,M,-33.324,M,,*7E
2017-12-01 14:46:03 1512157563.410881: $GPRMC,194604,A,3946.9593,N,08404.9840,W,0.2422,273.794,011217,,*3C
2017-12-01 14:46:03 1512157563.410943: $GPGSA,A,3,10,12,14,18,21,24,32,25,15,11,31,138,2.0,1.2,1.5*06
