2018-01-11 20:29:03 1515720543.547793: {"class":"VERSION","release":"3.16","rev":"3.16-4","proto_major":3,"proto_minor":11}
2018-01-11 20:29:03 1515720543.548169: {"class":"DEVICES","devices":[{"class":"DEVICE","path":"/dev/ttyUSB0","driver":"SiRF","subtype":"9\u0006GSD4e_4.1.2-P1_RPATCH.05-F-GPS-4R-1510281 11/03/2015 307","activated":"2018-01-12T01:29:03.284Z","flags":1,"native":1,"bps":4800,"parity":"N","stopbits":1,"cycle":1.00}]}
2018-01-11 20:29:03 1515720543.548284: {"class":"WATCH","enable":true,"json":false,"nmea":true,"raw":0,"scaled":false,"timing":false,"split24":false,"pps":false}
2018-01-11 20:29:03 1515720543.733564: $GPGSV,3,1,11,07,63,316,43,08,75,097,45,09,41,220,42,11,27,165,45*73
2018-01-11 20:29:03 1515720543.733710: $GPGSV,3,2,11,23,21,187,48,27,40,048,50,28,19,264,37,30,36,309,36*7F
2018-01-11 20:29:03 1515720543.733775: $GPGSV,3,3,11,16,17,066,29,01,05,160,00,138,38,213,45*70
2018-01-11 20:29:03 1515720543.847231: $GPZDA,012904.00,12,01,2018,00,00*61
2018-01-11 20:29:03 1515720543.847375: $GPGGA,012904,3946.9591,N,08404.9849,W,2,10,0.80,293.66,M,-33.324,M,,*7C
2018-01-11 20:29:03 1515720543.847441: $GPRMC,012904,A,3946.9591,N,08404.9849,W,0.0000,0.000,120118,,*32
2018-01-11 20:29:03 1515720543.847500: $GPGSA,A,3,7,8,9,11,23,27,28,30,16,138,,,4.0,0.8,3.5*3E
2018-01-11 20:29:04 1515720544.398084: $GPZDA,012905.00,12,01,2018,00,00*60
2018-01-11 20:29:04 1515720544.398231: $GPGGA,012905,3946.9591,N,08404.9849,W,2,10,0.80,293.66,M,-33.324,M,,*7D
2018-01-11 20:29:04 1515720544.398296: $GPRMC,012905,A,3946.9591,N,08404.9849,W,0.0000,0.000,120118,,*33
2018-01-11 20:29:04 1515720544.398356: $GPGSA,A,3,7,8,9,11,23,27,28,30,16,138,,,4.0,0.8,3.5*3E
2018-01-11 20:29:05 1515720545.384012: $GPZDA,012906.00,12,01,2018,00,00*63
2018-01-11 20:29:05 1515720545.384175: $GPGGA,012906,3946.9591,N,08404.9849,W,2,10,0.80,293.66,M,-33.324,M,,*7E
2018-01-11 20:29:05 1515720545.384241: $GPRMC,012906,A,3946.9591,N,08404.9849,W,0.0000,0.000,120118,,*30
2018-01-11 20:29:05 1515720545.384303: $GPGSA,A,3,7,8,9,11,23,27,28,30,16,138,,,4.0,0.8,3.5*3E
2018-01-11 20:29:06 1515720546.718204: $GPGSV,3,1,11,07,63,316,43,08,75,097,45,09,41,220,42,11,27,165,45*73
2018-01-11 20:29:06 1515720546.718356: $GPGSV,3,2,11,23,21,187,48,27,40,048,50,28,19,264,37,30,36,309,37*7E
2018-01-11 20:29:06 1515720546.718422: $GPGSV,3,3,11,16,17,066,30,01,05,160,18,138,38,213,46*72
2018-01-11 20:29:06 1515720546.831820: $GPZDA,012907.00,12,01,2018,00,00*62
2018-01-11 20:29:06 1515720546.831944: $GPGGA,012907,3946.9591,N,08404.9849,W,2,10,0.80,293.66,M,-33.324,M,,*7F
2018-01-11 20:29:06 1515720546.832025: $GPRMC,012907,A,3946.9591,N,08404.9849,W,0.0000,0.000,120118,,*31
2018-01-11 20:29:06 1515720546.832086: $GPGSA,A,3,7,8,9,11,23,27,28,30,16,138,,,4.0,0.8,3.5*3E
2018-01-11 20:29:07 1515720547.381442: $GPZDA,012908.00,12,01,2018,00,00*6D
2018-01-11 20:29:07 1515720547.381587: $GPGGA,012908,3946.9591,N,08404.9849,W,2,10,0.80,293.66,M,-33.324,M,,*70
2018-01-11 20:29:07 1515720547.381653: $GPRMC,012908,A,3946.9591,N,08404.9849,W,0.0000,0.000,120118,,*3E
2018-01-11 20:29:07 1515720547.381714: $GPGSA,A,3,7,8,9,11,23,27,28,30,16,138,,,4.0,0.8,3.5*3E
2018-01-11 20:29:08 1515720548.375662: $GPZDA,012909.00,12,01,2018,00,00*6C
2018-01-11 20:29:08 1515720548.375833: $GPGGA,012909,3946.9591,N,08404.9849,W,2,10,0.80,293.66,M,-33.324,M,,*71
2018-01-11 20:29:08 1515720548.375900: $GPRMC,012909,A,3946.9591,N,08404.9849,W,0.0000,0.000,120118,,*3F
2018-01-11 20:29:08 1515720548.375962: $GPGSA,A,3,7,8,9,11,23,27,28,30,16,138,,,4.0,0.8,3.5*3E
2018-01-11 20:29:09 1515720549.714840: $GPGSV,3,1,11,07,63,316,43,08,75,097,45,09,41,220,42,11,27,165,45*73
2018-01-11 20:29:09 1515720549.715021: $GPGSV,3,2,11,23,21,187,48,27,40,048,51,28,19,264,38,30,36,309,37*70
2018-01-11 20:29:09 1515720549.715087: $GPGSV,3,3,11,16,17,066,30,01,05,160,00,138,38,213,44*79
2018-01-11 20:29:09 1515720549.828456: $GPZDA,012910.00,12,01,2018,00,00*64
2018-01-11 20:29:09 1515720549.828576: $GPGGA,012910,3946.9591,N,08404.9849,W,2,10,0.80,293.66,M,-33.324,M,,*79
2018-01-11 20:29:09 1515720549.828642: $GPRMC,012910,A,3946.9591,N,08404.9849,W,0.0000,0.000,120118,,*37
2018-01-11 20:29:09 1515720549.828758: $GPGSA,A,3,7,8,9,11,23,27,28,30,16,138,,,4.0,0.8,3.5*3E
2018-01-11 20:29:10 1515720550.380628: $GPZDA,012911.00,12,01,2018,00,00*65
2018-01-11 20:29:10 1515720550.380769: $GPGGA,012911,3946.9591,N,08404.9849,W,2,10,0.80,293.66,M,-33.324,M,,*78
2018-01-11 20:29:10 1515720550.380835: $GPRMC,012911,A,3946.9591,N,08404.9849,W,0.0000,0.000,120118,,*36
2018-01-11 20:29:10 1515720550.380896: $GPGSA,A,3,7,8,9,11,23,27,28,30,16,138,,,4.0,0.8,3.5*3E
2018-01-11 20:29:11 1515720551.380311: $GPZDA,012912.00,12,01,2018,00,00*66
2018-01-11 20:29:11 1515720551.380458: $GPGGA,012912,3946.9591,N,08404.9849,W,2,10,0.80,293.66,M,-33.324,M,,*7B
2018-01-11 20:29:11 1515720551.380525: $GPRMC,012912,A,3946.9591,N,08404.9849,W,0.0000,0.000,120118,,*35
2018-01-11 20:29:11 1515720551.380585: $GPGSA,A,3,7,8,9,11,23,27,28,30,16,138,,,4.0,0.8,3.5*3E
2018-01-11 20:29:12 1515720552.716971: $GPGSV,3,1,11,07,63,316,43,08,75,097,46,09,41,220,42,11,27,165,45*70
2018-01-11 20:29:12 1515720552.717154: $GPGSV,3,2,11,23,21,187,48,27,40,048,50,28,19,264,37,30,36,309,37*7E
2018-01-11 20:29:12 1515720552.717221: $GPGSV,3,3,11,16,17,066,30,01,05,160,00,138,38,213,45*78
2018-01-11 20:29:12 1515720552.830678: $GPZDA,012913.00,12,01,2018,00,00*67
2018-01-11 20:29:12 1515720552.830808: $GPGGA,012913,3946.9591,N,08404.9849,W,2,10,0.80,293.66,M,-33.324,M,,*7A
2018-01-11 20:29:12 1515720552.830873: $GPRMC,012913,A,3946.9591,N,08404.9849,W,0.0000,0.000,120118,,*34
2018-01-11 20:29:12 1515720552.830948: $GPGSA,A,3,7,8,9,11,23,27,28,30,16,138,,,4.0,0.8,3.5*3E
2018-01-11 20:29:13 1515720553.456015: $GPZDA,012914.00,12,01,2018,00,00*60
2018-01-11 20:29:13 1515720553.456173: $GPGGA,012914,3946.9591,N,08404.9849,W,2,10,0.80,293.66,M,-33.324,M,,*7D
2018-01-11 20:29:13 1515720553.456240: $GPRMC,012914,A,3946.9591,N,08404.9849,W,0.0000,0.000,120118,,*33
2018-01-11 20:29:13 1515720553.456317: $GPGSA,A,3,7,8,9,11,23,27,28,30,16,138,,,4.0,0.8,3.5*3E
2018-01-11 20:29:14 1515720554.379461: $GPZDA,012915.00,12,01,2018,00,00*61
2018-01-11 20:29:14 1515720554.379630: $GPGGA,012915,3946.9591,N,08404.9849,W,2,10,0.80,293.66,M,-33.324,M,,*7C
2018-01-11 20:29:14 1515720554.379696: $GPRMC,012915,A,3946.9591,N,08404.9849,W,0.0000,0.000,120118,,*32
2018-01-11 20:29:14 1515720554.379756: $GPGSA,A,3,7,8,9,11,23,27,28,30,16,138,,,4.0,0.8,3.5*3E
2018-01-11 20:29:15 1515720555.718547: $GPGSV,3,1,11,07,63,316,43,08,75,097,46,09,41,220,42,11,27,165,45*70
2018-01-11 20:29:15 1515720555.718730: $GPGSV,3,2,11,23,21,187,48,27,40,048,50,28,19,264,37,30,36,309,37*7E
2018-01-11 20:29:15 1515720555.718798: $GPGSV,3,3,11,16,17,066,31,01,05,160,10,138,38,213,45*78
2018-01-11 20:29:15 1515720555.831028: $GPZDA,012916.00,12,01,2018,00,00*62
2018-01-11 20:29:15 1515720555.831186: $GPGGA,012916,3946.9591,N,08404.9849,W,2,10,0.80,293.66,M,-33.324,M,,*7F
2018-01-11 20:29:15 1515720555.831253: $GPRMC,012916,A,3946.9591,N,08404.9849,W,0.0000,0.000,120118,,*31
2018-01-11 20:29:15 1515720555.831314: $GPGSA,A,3,7,8,9,11,23,27,28,30,16,138,,,4.0,0.8,3.5*3E
2018-01-11 20:29:16 1515720556.381940: $GPZDA,012917.00,12,01,2018,00,00*63
2018-01-11 20:29:16 1515720556.382088: $GPGGA,012917,3946.9591,N,08404.9849,W,2,10,0.80,293.66,M,-33.324,M,,*7E
2018-01-11 20:29:16 1515720556.382153: $GPRMC,012917,A,3946.9591,N,08404.9849,W,0.0000,0.000,120118,,*30
2018-01-11 20:29:16 1515720556.382214: $GPGSA,A,3,7,8,9,11,23,27,28,30,16,138,,,4.0,0.8,3.5*3E
