2017-11-16 17:17:44 1510870664.941054: {"class":"VERSION","release":"3.17","rev":"3.17","proto_major":3,"proto_minor":12}
2017-11-16 17:17:44 1510870664.941509: {"class":"DEVICES","devices":[{"class":"DEVICE","path":"/dev/ttyUSB0","driver":"SiRF","subtype":"9\u0006GSD4e_4.1.2-P1_RPATCH.05-F-GPS-4R-1510281 11/03/2015 307","activated":"2017-11-16T22:17:44.561Z","flags":1,"native":1,"bps":4800,"parity":"N","stopbits":1,"cycle":1.00}]}
2017-11-16 17:17:44 1510870664.941623: {"class":"WATCH","enable":true,"json":false,"nmea":true,"raw":0,"scaled":false,"timing":false,"split24":false,"pps":false}
2017-11-16 17:17:45 1510870665.755725: $GPGSV,3,1,12,01,20,307,40,10,56,144,48,22,13,312,41,12,24,057,49*79
2017-11-16 17:17:45 1510870665.755902: $GPGSV,3,2,12,14,63,313,47,18,25,141,42,24,03,048,00,11,10,288,36*7A
2017-11-16 17:17:45 1510870665.755962: $GPGSV,3,3,12,25,37,100,47,31,48,219,48,32,70,006,49,138,38,213,44*4F
2017-11-16 17:17:45 1510870665.868977: $GPZDA,221744.00,16,11,2017,00,00*63
2017-11-16 17:17:45 1510870665.869138: $GPGGA,221744,3946.9567,N,08404.9826,W,2,11,0.80,311.41,M,-33.324,M,,*7B
2017-11-16 17:17:45 1510870665.869199: $GPRMC,221744,A,3946.9567,N,08404.9826,W,0.0000,0.000,161117,,*30
2017-11-16 17:17:45 1510870665.869254: $GPGSA,A,3,1,10,22,12,14,18,11,25,31,32,138,,1.6,0.8,1.3*3E
2017-11-16 17:17:46 1510870666.494320: $GPZDA,221745.00,16,11,2017,00,00*62
2017-11-16 17:17:46 1510870666.494495: $GPGGA,221745,3946.9567,N,08404.9826,W,2,11,0.80,311.41,M,-33.324,M,,*7A
2017-11-16 17:17:46 1510870666.494573: $GPRMC,221745,A,3946.9567,N,08404.9826,W,0.0000,0.000,161117,,*31
2017-11-16 17:17:46 1510870666.494630: $GPGSA,A,3,1,10,22,12,14,18,11,25,31,32,138,,1.6,0.8,1.3*3E
2017-11-16 17:17:47 1510870667.420173: $GPZDA,221746.00,16,11,2017,00,00*61
2017-11-16 17:17:47 1510870667.420335: $GPGGA,221746,3946.9567,N,08404.9826,W,2,11,0.80,311.41,M,-33.324,M,,*79
2017-11-16 17:17:47 1510870667.420414: $GPRMC,221746,A,3946.9567,N,08404.9826,W,0.0000,0.000,161117,,*32
2017-11-16 17:17:47 1510870667.420471: $GPGSA,A,3,1,10,22,12,14,18,11,25,31,32,138,,1.6,0.8,1.3*3E
2017-11-16 17:17:48 1510870668.738492: $GPGSV,3,1,12,01,20,307,40,10,56,144,48,22,13,312,41,12,24,057,49*79
2017-11-16 17:17:48 1510870668.738675: $GPGSV,3,2,12,14,63,313,48,18,25,141,42,24,03,048,00,11,10,288,37*74
2017-11-16 17:17:48 1510870668.738735: $GPGSV,3,3,12,25,37,100,47,31,48,219,48,32,70,006,49,138,38,213,44*4F
2017-11-16 17:17:48 1510870668.851827: $GPZDA,221747.00,16,11,2017,00,00*60
2017-11-16 17:17:48 1510870668.852003: $GPGGA,221747,3946.9567,N,08404.9826,W,2,11,0.80,311.41,M,-33.324,M,,*78
2017-11-16 17:17:48 1510870668.852064: $GPRMC,221747,A,3946.9567,N,08404.9826,W,0.0000,0.000,161117,,*33
2017-11-16 17:17:48 1510870668.852119: $GPGSA,A,3,1,10,22,12,14,18,11,25,31,32,138,,1.6,0.8,1.3*3E
2017-11-16 17:17:49 1510870669.421548: $GPZDA,221748.00,16,11,2017,00,00*6F
2017-11-16 17:17:50 1510870670.086245: $GPGGA,221748,3946.9567,N,08404.9826,W,2,11,0.80,311.41,M,-33.324,M,,*77
2017-11-16 17:17:50 1510870670.086374: $GPRMC,221748,A,3946.9567,N,08404.9826,W,0.0000,0.000,161117,,*3C
2017-11-16 17:17:50 1510870670.086432: $GPGSA,A,3,1,10,22,12,14,18,11,25,31,32,138,,1.6,0.8,1.3*3E
2017-11-16 17:17:50 1510870670.416142: $GPZDA,221749.00,16,11,2017,00,00*6E
2017-11-16 17:17:50 1510870670.416311: $GPGGA,221749,3946.9567,N,08404.9826,W,2,11,0.80,311.41,M,-33.324,M,,*76
2017-11-16 17:17:50 1510870670.416373: $GPRMC,221749,A,3946.9567,N,08404.9826,W,0.0000,0.000,161117,,*3D
2017-11-16 17:17:50 1510870670.416429: $GPGSA,A,3,1,10,22,12,14,18,11,25,31,32,138,,1.6,0.8,1.3*3E
2017-11-16 17:17:51 1510870671.757628: $GPGSV,3,1,12,01,20,307,39,10,56,144,48,22,13,312,41,12,24,057,49*77
2017-11-16 17:17:51 1510870671.757765: $GPGSV,3,2,12,14,63,313,48,18,25,141,42,24,03,048,00,11,10,288,37*74
2017-11-16 17:17:51 1510870671.757826: $GPGSV,3,3,12,25,37,100,47,31,48,219,48,32,70,006,49,138,38,213,43*48
2017-11-16 17:17:51 1510870671.870963: $GPZDA,221750.00,16,11,2017,00,00*66
2017-11-16 17:17:51 1510870671.871132: $GPGGA,221750,3946.9567,N,08404.9826,W,2,11,0.80,311.41,M,-33.324,M,,*7E
2017-11-16 17:17:51 1510870671.871247: $GPRMC,221750,A,3946.9567,N,08404.9826,W,0.0000,0.000,161117,,*35
2017-11-16 17:17:51 1510870671.871305: $GPGSA,A,3,1,10,22,12,14,18,11,25,31,32,138,,1.6,0.8,1.3*3E
2017-11-16 17:17:52 1510870672.403353: $GPZDA,221751.00,16,11,2017,00,00*67
2017-11-16 17:17:52 1510870672.403520: $GPGGA,221751,3946.9567,N,08404.9826,W,2,11,0.80,311.41,M,-33.324,M,,*7F
2017-11-16 17:17:52 1510870672.403581: $GPRMC,221751,A,3946.9567,N,08404.9826,W,0.0000,0.000,161117,,*34
2017-11-16 17:17:52 1510870672.403637: $GPGSA,A,3,1,10,22,12,14,18,11,25,31,32,138,,1.6,0.8,1.3*3E
2017-11-16 17:17:53 1510870673.402720: $GPZDA,221752.00,16,11,2017,00,00*64
2017-11-16 17:17:53 1510870673.402891: $GPGGA,221752,3946.9567,N,08404.9826,W,2,11,0.80,311.41,M,-33.324,M,,*7C
2017-11-16 17:17:53 1510870673.402953: $GPRMC,221752,A,3946.9567,N,08404.9826,W,0.0000,0.000,161117,,*37
2017-11-16 17:17:53 1510870673.403009: $GPGSA,A,3,1,10,22,12,14,18,11,25,31,32,138,,1.6,0.8,1.3*3E
2017-11-16 17:17:54 1510870674.738466: $GPGSV,3,1,12,01,20,307,38,10,56,144,48,22,13,312,41,12,24,057,49*76
2017-11-16 17:17:54 1510870674.738641: $GPGSV,3,2,12,14,63,313,47,18,25,141,42,24,03,048,00,11,10,288,37*7B
2017-11-16 17:17:54 1510870674.738719: $GPGSV,3,3,12,25,37,100,47,31,48,219,48,32,70,006,49,138,38,213,44*4F
2017-11-16 17:17:54 1510870674.851900: $GPZDA,221753.00,16,11,2017,00,00*65
2017-11-16 17:17:54 1510870674.852041: $GPGGA,221753,3946.9571,N,08404.9825,W,2,11,0.80,310.64,M,-33.324,M,,*7F
2017-11-16 17:17:54 1510870674.852103: $GPRMC,221753,A,3946.9571,N,08404.9825,W,0.0000,0.000,161117,,*32
2017-11-16 17:17:54 1510870674.852159: $GPGSA,A,3,1,10,22,12,14,18,11,25,31,32,138,,1.6,0.8,1.3*3E
