2017-12-29 10:59:06 1514563146.125736: {"class":"VERSION","release":"3.16","rev":"3.16-4","proto_major":3,"proto_minor":11}
2017-12-29 10:59:06 1514563146.126079: {"class":"DEVICES","devices":[{"class":"DEVICE","path":"/dev/ttyUSB0","driver":"SiRF","subtype":"9\u0006GSD4e_4.1.2-P1_RPATCH.05-F-GPS-4R-1510281 11/03/2015 307","activated":"2017-12-29T15:59:06.070Z","flags":1,"native":1,"bps":4800,"parity":"N","stopbits":1,"cycle":1.00}]}
2017-12-29 10:59:06 1514563146.126196: {"class":"WATCH","enable":true,"json":false,"nmea":true,"raw":0,"scaled":false,"timing":false,"split24":false,"pps":false}
2017-12-29 10:59:06 1514563146.247787: $GPZDA,155906.92,29,12,2017,00,00*6F
2017-12-29 10:59:06 1514563146.247960: $GPGGA,155906,3946.9568,N,08404.9844,W,1,11,1.40,294.11,M,-33.324,M,,*7F
2017-12-29 10:59:06 1514563146.248027: $GPRMC,155906,A,3946.9568,N,08404.9844,W,0.9801,214.742,291217,,*3A
2017-12-29 10:59:06 1514563146.248088: $GPGSA,A,3,10,13,15,18,20,21,24,27,32,8,138,,1.7,1.4,1.3*3C
2017-12-29 10:59:07 1514563147.169526: $GPZDA,155907.41,29,12,2017,00,00*60
2017-12-29 10:59:07 1514563147.169680: $GPGGA,155907,3946.9568,N,08404.9844,W,1,11,1.40,294.11,M,-33.324,M,,*7E
2017-12-29 10:59:07 1514563147.169744: $GPRMC,155907,A,3946.9568,N,08404.9844,W,0.1324,202.230,291217,,*38
2017-12-29 10:59:07 1514563147.169805: $GPGSA,A,3,10,13,15,18,20,21,24,27,32,8,138,,1.7,1.4,1.3*3C
2017-12-29 10:59:08 1514563148.289329: $GPGSV,3,1,11,08,03,328,32,10,35,295,43,13,14,046,39,15,44,051,50*7C
2017-12-29 10:59:08 1514563148.289485: $GPGSV,3,2,11,18,66,322,44,20,40,088,50,21,71,199,46,24,46,121,50*74
2017-12-29 10:59:08 1514563148.289549: $GPGSV,3,3,11,27,19,297,34,32,15,234,06,138,38,213,00*78
2017-12-29 10:59:08 1514563148.402996: $GPZDA,155908.00,29,12,2017,00,00*6A
2017-12-29 10:59:08 1514563148.403122: $GPGGA,155908,3946.9564,N,08404.9844,W,1,09,1.40,293.47,M,-33.324,M,,*70
2017-12-29 10:59:08 1514563148.403186: $GPRMC,155908,A,3946.9564,N,08404.9844,W,0.1867,0.000,291217,,*36
2017-12-29 10:59:08 1514563148.403246: $GPGSA,A,3,8,10,13,15,18,20,21,24,27,,,,1.7,1.4,1.3*07
2017-12-29 10:59:09 1514563149.003349: $GPZDA,155909.00,29,12,2017,00,00*6B
2017-12-29 10:59:09 1514563149.003520: $GPGGA,155909,3946.9567,N,08404.9843,W,1,09,1.00,292.71,M,-33.324,M,,*75
2017-12-29 10:59:09 1514563149.003587: $GPRMC,155909,A,3946.9567,N,08404.9843,W,0.0000,0.000,291217,,*3B
2017-12-29 10:59:09 1514563149.003648: $GPGSA,A,3,8,10,13,15,18,20,21,24,27,,,,1.7,1.0,1.3*03
2017-12-29 10:59:09 1514563149.003706: $GPGBS,155909,10.91,M,10.38,M,30.89,M*0E
2017-12-29 10:59:09 1514563149.454165: $GPZDA,155910.00,29,12,2017,00,00*63
2017-12-29 10:59:09 1514563149.454326: $GPGGA,155910,3946.9571,N,08404.9850,W,1,09,1.00,291.87,M,-33.324,M,,*72
2017-12-29 10:59:09 1514563149.454392: $GPRMC,155910,A,3946.9571,N,08404.9850,W,0.0000,0.000,291217,,*36
2017-12-29 10:59:09 1514563149.454452: $GPGSA,A,3,8,10,13,15,18,20,21,24,27,,,,1.7,1.0,1.3*03
2017-12-29 10:59:09 1514563149.454528: $GPGBS,155910,10.91,M,10.38,M,30.89,M*06
2017-12-29 10:59:10 1514563150.686538: $GPGSV,3,1,11,08,03,328,32,10,35,295,43,13,14,046,38,15,44,051,50*7D
2017-12-29 10:59:10 1514563150.686708: $GPGSV,3,2,11,18,66,322,44,20,40,088,50,21,71,199,46,24,46,121,50*74
2017-12-29 10:59:10 1514563150.686775: $GPGSV,3,3,11,27,19,297,34,32,15,234,31,138,38,213,45*7D
2017-12-29 10:59:10 1514563150.800412: $GPZDA,155911.00,29,12,2017,00,00*62
2017-12-29 10:59:10 1514563150.800565: $GPGGA,155911,3946.9567,N,08404.9850,W,1,11,1.00,291.23,M,-33.324,M,,*73
2017-12-29 10:59:10 1514563150.800632: $GPRMC,155911,A,3946.9567,N,08404.9850,W,0.0000,0.000,291217,,*30
2017-12-29 10:59:10 1514563150.800692: $GPGSA,A,3,8,10,13,15,18,20,21,24,27,32,138,,1.7,1.0,1.3*38
2017-12-29 10:59:11 1514563151.351177: $GPZDA,155912.00,29,12,2017,00,00*61
2017-12-29 10:59:11 1514563151.351362: $GPGGA,155912,3946.9567,N,08404.9850,W,1,11,1.00,291.23,M,-33.324,M,,*70
2017-12-29 10:59:11 1514563151.351431: $GPRMC,155912,A,3946.9567,N,08404.9850,W,0.0000,0.000,291217,,*33
2017-12-29 10:59:11 1514563151.351492: $GPGSA,A,3,8,10,13,15,18,20,21,24,27,32,138,,1.7,1.0,1.3*38
2017-12-29 10:59:12 1514563152.349415: $GPZDA,155913.00,29,12,2017,00,00*60
2017-12-29 10:59:12 1514563152.349584: $GPGGA,155913,3946.9570,N,08404.9856,W,1,11,1.00,290.38,M,-33.324,M,,*7A
2017-12-29 10:59:12 1514563152.349650: $GPRMC,155913,A,3946.9570,N,08404.9856,W,0.0000,0.000,291217,,*32
2017-12-29 10:59:12 1514563152.349710: $GPGSA,A,3,8,10,13,15,18,20,21,24,27,32,138,,1.7,1.0,1.3*38
2017-12-29 10:59:12 1514563152.349782: $GPGBS,155913,10.91,M,10.38,M,30.89,M*05
2017-12-29 10:59:13 1514563153.688536: $GPGSV,3,1,11,08,03,328,32,10,35,295,43,13,14,046,37,15,44,051,50*72
2017-12-29 10:59:13 1514563153.688709: $GPGSV,3,2,11,18,66,322,44,20,40,088,50,21,71,199,46,24,46,121,50*74
2017-12-29 10:59:13 1514563153.688775: $GPGSV,3,3,11,27,19,297,36,32,15,234,30,138,38,213,46*7D
2017-12-29 10:59:13 1514563153.800952: $GPZDA,155914.00,29,12,2017,00,00*67
2017-12-29 10:59:13 1514563153.801119: $GPGGA,155914,3946.9570,N,08404.9856,W,1,11,1.00,290.38,M,-33.324,M,,*7D
2017-12-29 10:59:13 1514563153.801187: $GPRMC,155914,A,3946.9570,N,08404.9856,W,0.0000,0.000,291217,,*35
2017-12-29 10:59:13 1514563153.801248: $GPGSA,A,3,8,10,13,15,18,20,21,24,27,32,138,,1.7,1.0,1.3*38
2017-12-29 10:59:14 1514563154.351896: $GPZDA,155915.00,29,12,2017,00,00*66
2017-12-29 10:59:14 1514563154.352080: $GPGGA,155915,3946.9581,N,08404.9868,W,2,11,1.80,287.93,M,-33.324,M,,*73
2017-12-29 10:59:14 1514563154.352184: $GPRMC,155915,A,3946.9581,N,08404.9868,W,0.0000,0.000,291217,,*37
2017-12-29 10:59:14 1514563154.352248: $GPGSA,A,3,8,10,13,15,18,20,21,24,27,32,138,,1.7,1.8,1.3*30
2017-12-29 10:59:15 1514563155.352308: $GPZDA,155916.00,29,12,2017,00,00*65
2017-12-29 10:59:15 1514563155.352474: $GPGGA,155916,3946.9581,N,08404.9861,W,2,11,1.80,288.01,M,-33.324,M,,*7D
2017-12-29 10:59:15 1514563155.352541: $GPRMC,155916,A,3946.9581,N,08404.9861,W,0.5287,182.716,291217,,*3E
2017-12-29 10:59:15 1514563155.352601: $GPGSA,A,3,8,10,13,15,18,20,21,24,27,32,138,,1.7,1.8,1.3*30
2017-12-29 10:59:16 1514563156.686417: $GPGSV,3,1,11,08,03,328,32,10,35,295,43,13,14,046,37,15,44,051,50*72
2017-12-29 10:59:16 1514563156.686591: $GPGSV,3,2,11,18,66,322,44,20,40,088,50,21,71,199,46,24,46,121,50*74
2017-12-29 10:59:16 1514563156.686657: $GPGSV,3,3,11,27,19,297,37,32,15,234,22,138,38,213,45*7C
2017-12-29 10:59:16 1514563156.800051: $GPZDA,155917.00,29,12,2017,00,00*64
2017-12-29 10:59:16 1514563156.800182: $GPGGA,155917,3946.9581,N,08404.9861,W,2,11,1.80,288.01,M,-33.324,M,,*7C
2017-12-29 10:59:16 1514563156.800247: $GPRMC,155917,A,3946.9581,N,08404.9861,W,0.0000,0.000,291217,,*3C
2017-12-29 10:59:16 1514563156.800308: $GPGSA,A,3,8,10,13,15,18,20,21,24,27,32,138,,1.7,1.8,1.3*30
2017-12-29 10:59:17 1514563157.352308: $GPZDA,155918.00,29,12,2017,00,00*6B
2017-12-29 10:59:17 1514563157.352475: $GPGGA,155918,3946.9585,N,08404.9854,W,2,11,1.80,288.73,M,-33.324,M,,*74
2017-12-29 10:59:17 1514563157.352541: $GPRMC,155918,A,3946.9585,N,08404.9854,W,0.7278,23.636,291217,,*09
2017-12-29 10:59:17 1514563157.352602: $GPGSA,A,3,8,10,13,15,18,20,21,24,27,32,138,,1.7,1.8,1.3*30
2017-12-29 10:59:18 1514563158.353113: $GPZDA,155919.00,29,12,2017,00,00*6A
2017-12-29 10:59:18 1514563158.353283: $GPGGA,155919,3946.9585,N,08404.9854,W,2,11,1.00,288.73,M,-33.324,M,,*7D
2017-12-29 10:59:18 1514563158.353349: $GPRMC,155919,A,3946.9585,N,08404.9854,W,0.0000,0.000,291217,,*30
2017-12-29 10:59:18 1514563158.353409: $GPGSA,A,3,8,10,13,15,18,20,21,24,27,32,138,,1.7,1.0,1.3*38
2017-12-29 10:59:19 1514563159.691012: $GPGSV,3,1,11,08,03,328,32,10,35,295,44,13,14,046,38,15,44,051,50*7A
2017-12-29 10:59:19 1514563159.691254: $GPGSV,3,2,11,18,66,322,44,20,40,088,50,21,71,199,46,24,46,121,50*74
2017-12-29 10:59:19 1514563159.691322: $GPGSV,3,3,11,27,19,297,38,32,15,234,21,138,38,213,44*71
2017-12-29 10:59:19 1514563159.803473: $GPZDA,155920.00,29,12,2017,00,00*60
2017-12-29 10:59:19 1514563159.803611: $GPGGA,155920,3946.9581,N,08404.9854,W,2,11,1.00,289.49,M,-33.324,M,,*7B
2017-12-29 10:59:19 1514563159.803695: $GPRMC,155920,A,3946.9581,N,08404.9854,W,0.0000,0.000,291217,,*3E
2017-12-29 10:59:19 1514563159.803807: $GPGSA,A,3,8,10,13,15,18,20,21,24,27,32,138,,1.7,1.0,1.3*38
2017-12-29 10:59:20 1514563160.430174: $GPZDA,155921.00,29,12,2017,00,00*61
2017-12-29 10:59:20 1514563160.430360: $GPGGA,155921,3946.9581,N,08404.9854,W,2,11,1.00,289.49,M,-33.324,M,,*7A
2017-12-29 10:59:20 1514563160.430427: $GPRMC,155921,A,3946.9581,N,08404.9854,W,0.0000,0.000,291217,,*3F
2017-12-29 10:59:20 1514563160.430487: $GPGSA,A,3,8,10,13,15,18,20,21,24,27,32,138,,1.7,1.0,1.3*38
2017-12-29 10:59:21 1514563161.353513: $GPZDA,155922.00,29,12,2017,00,00*62
2017-12-29 10:59:21 1514563161.353689: $GPGGA,155922,3946.9581,N,08404.9854,W,2,11,1.00,289.49,M,-33.324,M,,*79
2017-12-29 10:59:21 1514563161.353757: $GPRMC,155922,A,3946.9581,N,08404.9854,W,0.0000,0.000,291217,,*3C
2017-12-29 10:59:21 1514563161.353818: $GPGSA,A,3,8,10,13,15,18,20,21,24,27,32,138,,1.7,1.0,1.3*38
2017-12-29 10:59:22 1514563162.688865: $GPGSV,3,1,11,08,03,328,25,10,35,295,44,13,14,046,38,15,44,051,50*7C
2017-12-29 10:59:22 1514563162.689030: $GPGSV,3,2,11,18,66,322,44,20,40,088,50,21,71,199,46,24,46,121,50*74
2017-12-29 10:59:22 1514563162.689095: $GPGSV,3,3,11,27,19,297,39,32,15,234,21,138,38,213,45*71
2017-12-29 10:59:22 1514563162.802657: $GPZDA,155923.00,29,12,2017,00,00*63
2017-12-29 10:59:22 1514563162.802799: $GPGGA,155923,3946.9581,N,08404.9854,W,2,11,1.00,289.49,M,-33.324,M,,*78
2017-12-29 10:59:22 1514563162.802864: $GPRMC,155923,A,3946.9581,N,08404.9854,W,0.0000,0.000,291217,,*3D
2017-12-29 10:59:22 1514563162.802925: $GPGSA,A,3,8,10,13,15,18,20,21,24,27,32,138,,1.7,1.0,1.3*38
2017-12-29 10:59:23 1514563163.352333: $GPZDA,155924.00,29,12,2017,00,00*64
2017-12-29 10:59:23 1514563163.352488: $GPGGA,155924,3946.9581,N,08404.9854,W,2,11,1.00,289.49,M,-33.324,M,,*7F
2017-12-29 10:59:23 1514563163.352554: $GPRMC,155924,A,3946.9581,N,08404.9854,W,0.0000,0.000,291217,,*3A
2017-12-29 10:59:23 1514563163.352614: $GPGSA,A,3,8,10,13,15,18,20,21,24,27,32,138,,1.7,1.0,1.3*38
2017-12-29 10:59:24 1514563164.351799: $GPZDA,155925.00,29,12,2017,00,00*65
2017-12-29 10:59:24 1514563164.351967: $GPGGA,155925,3946.9581,N,08404.9854,W,2,11,1.00,289.49,M,-33.324,M,,*7E
2017-12-29 10:59:24 1514563164.352053: $GPRMC,155925,A,3946.9581,N,08404.9854,W,0.0000,0.000,291217,,*3B
2017-12-29 10:59:24 1514563164.352115: $GPGSA,A,3,8,10,13,15,18,20,21,24,27,32,138,,1.7,1.0,1.3*38
2017-12-29 10:59:24 1514563164.352192: $GPGBS,155925,2.73,M,2.59,M,7.72,M*3B
2017-12-29 10:59:25 1514563165.690426: $GPGSV,3,1,11,08,03,328,16,10,35,295,44,13,14,046,38,15,44,051,50*7C
2017-12-29 10:59:25 1514563165.690590: $GPGSV,3,2,11,18,66,322,44,20,40,088,50,21,71,199,46,24,46,121,50*74
2017-12-29 10:59:25 1514563165.690655: $GPGSV,3,3,11,27,19,297,39,32,15,234,22,138,38,213,44*73
2017-12-29 10:59:25 1514563165.804139: $GPZDA,155926.00,29,12,2017,00,00*66
2017-12-29 10:59:25 1514563165.804294: $GPGGA,155926,3946.9581,N,08404.9854,W,2,11,1.00,289.49,M,-33.324,M,,*7D
2017-12-29 10:59:25 1514563165.804360: $GPRMC,155926,A,3946.9581,N,08404.9854,W,0.0000,0.000,291217,,*38
2017-12-29 10:59:25 1514563165.804421: $GPGSA,A,3,8,10,13,15,18,20,21,24,27,32,138,,1.7,1.0,1.3*38
