2017-11-16 15:33:57 1510864437.820828: {"class":"VERSION","release":"3.17","rev":"3.17","proto_major":3,"proto_minor":12}
2017-11-16 15:33:57 1510864437.821461: {"class":"DEVICES","devices":[{"class":"DEVICE","path":"/dev/ttyUSB0","driver":"SiRF","subtype":"9\u0006GSD4e_4.1.2-P1_RPATCH.05-F-GPS-4R-1510281 11/03/2015 307","activated":"2017-11-16T20:33:57.508Z","flags":1,"native":1,"bps":4800,"parity":"N","stopbits":1,"cycle":1.00}]}
2017-11-16 15:33:57 1510864437.821714: {"class":"WATCH","enable":true,"json":false,"nmea":true,"raw":0,"scaled":false,"timing":false,"split24":false,"pps":false}
2017-11-16 15:33:58 1510864438.702178: $GPGSV,3,1,12,08,04,289,35,10,73,337,51,14,32,256,45,15,08,069,30*73
2017-11-16 15:33:58 1510864438.702367: $GPGSV,3,2,12,18,67,102,48,20,05,120,07,21,25,178,43,24,42,055,49*7F
2017-11-16 15:33:58 1510864438.702431: $GPGSV,3,3,12,25,06,139,19,32,49,270,47,12,12,103,22,138,38,213,44*41
2017-11-16 15:33:58 1510864438.815606: $GPZDA,203357.00,16,11,2017,00,00*65
2017-11-16 15:33:58 1510864438.815769: $GPGGA,203357,3946.9571,N,08404.9852,W,2,12,0.80,308.92,M,-33.324,M,,*7C
2017-11-16 15:33:58 1510864438.815831: $GPRMC,203357,A,3946.9571,N,08404.9852,W,0.1567,9.200,161117,,*3C
2017-11-16 15:33:58 1510864438.815887: $GPGSA,A,3,8,10,14,15,18,20,21,24,25,32,12,138,1.6,0.8,1.3*36
2017-11-16 15:33:59 1510864439.382056: $GPZDA,203358.00,16,11,2017,00,00*6A
2017-11-16 15:33:59 1510864439.382240: $GPGGA,203358,3946.9571,N,08404.9852,W,2,12,1.00,308.92,M,-33.324,M,,*7A
2017-11-16 15:33:59 1510864439.382302: $GPRMC,203358,A,3946.9571,N,08404.9852,W,0.0000,0.000,161117,,*3D
2017-11-16 15:33:59 1510864439.382363: $GPGSA,A,3,8,10,14,15,18,20,21,24,25,32,12,138,1.6,1.0,1.3*3F
2017-11-16 15:34:00 1510864440.367345: $GPZDA,203359.00,16,11,2017,00,00*6B
2017-11-16 15:34:00 1510864440.367506: $GPGGA,203359,3946.9571,N,08404.9852,W,2,12,1.20,308.92,M,-33.324,M,,*79
2017-11-16 15:34:00 1510864440.367569: $GPRMC,203359,A,3946.9571,N,08404.9852,W,0.0000,0.000,161117,,*3C
2017-11-16 15:34:00 1510864440.367627: $GPGSA,A,3,8,10,14,15,18,20,21,24,25,32,12,138,1.6,1.2,1.3*3D
2017-11-16 15:34:01 1510864441.719861: $GPGSV,3,1,12,08,04,289,35,10,73,337,51,14,32,256,45,15,08,069,29*7B
2017-11-16 15:34:01 1510864441.720031: $GPGSV,3,2,12,18,67,102,47,27,04,256,18,21,25,178,44,24,42,055,49*7D
2017-11-16 15:34:01 1510864441.720091: $GPGSV,3,3,12,25,06,139,19,32,49,270,47,12,12,103,22,138,38,213,44*41
2017-11-16 15:34:01 1510864441.833385: $GPZDA,203400.00,16,11,2017,00,00*60
2017-11-16 15:34:01 1510864441.833548: $GPGGA,203400,3946.9571,N,08404.9852,W,2,12,1.20,308.92,M,-33.324,M,,*72
2017-11-16 15:34:01 1510864441.833611: $GPRMC,203400,A,3946.9571,N,08404.9852,W,0.0000,0.000,161117,,*37
2017-11-16 15:34:01 1510864441.833669: $GPGSA,A,3,8,10,14,15,18,27,21,24,25,32,12,138,1.6,1.2,1.3*3A
2017-11-16 15:34:02 1510864442.365938: $GPZDA,203401.00,16,11,2017,00,00*61
2017-11-16 15:34:02 1510864442.366099: $GPGGA,203401,3946.9571,N,08404.9852,W,2,12,1.20,308.92,M,-33.324,M,,*73
2017-11-16 15:34:02 1510864442.366162: $GPRMC,203401,A,3946.9571,N,08404.9852,W,0.0000,0.000,161117,,*36
2017-11-16 15:34:02 1510864442.366219: $GPGSA,A,3,8,10,14,15,18,27,21,24,25,32,12,138,1.6,1.2,1.3*3A
2017-11-16 15:34:03 1510864443.370170: $GPZDA,203402.00,16,11,2017,00,00*62
2017-11-16 15:34:03 1510864443.370369: $GPGGA,203402,3946.9571,N,08404.9852,W,2,12,1.20,308.92,M,-33.324,M,,*70
2017-11-16 15:34:03 1510864443.370445: $GPRMC,203402,A,3946.9571,N,08404.9852,W,0.0000,0.000,161117,,*35
2017-11-16 15:34:03 1510864443.370503: $GPGSA,A,3,8,10,14,15,18,27,21,24,25,32,12,138,1.6,1.2,1.3*3A
2017-11-16 15:34:04 1510864444.703294: $GPGSV,3,1,12,08,04,289,35,10,73,337,51,14,32,256,45,15,08,069,30*73
2017-11-16 15:34:04 1510864444.703477: $GPGSV,3,2,12,18,67,102,47,20,05,120,13,21,25,178,44,24,42,055,49*72
2017-11-16 15:34:04 1510864444.703545: $GPGSV,3,3,12,25,06,139,20,32,49,270,47,12,12,103,28,138,38,213,44*41
2017-11-16 15:34:04 1510864444.816770: $GPZDA,203403.00,16,11,2017,00,00*63
2017-11-16 15:34:04 1510864444.816924: $GPGGA,203403,3946.9571,N,08404.9852,W,2,11,1.20,308.92,M,-33.324,M,,*72
2017-11-16 15:34:04 1510864444.817038: $GPRMC,203403,A,3946.9571,N,08404.9852,W,0.0000,0.000,161117,,*34
2017-11-16 15:34:04 1510864444.817096: $GPGSA,A,3,8,10,14,15,18,21,24,25,32,12,138,,1.6,1.2,1.3*3F
2017-11-16 15:34:05 1510864445.367281: $GPZDA,203404.00,16,11,2017,00,00*64
2017-11-16 15:34:05 1510864445.367445: $GPGGA,203404,3946.9568,N,08404.9853,W,2,11,1.20,309.68,M,-33.324,M,,*78
2017-11-16 15:34:05 1510864445.367509: $GPRMC,203404,A,3946.9568,N,08404.9853,W,0.0000,0.000,161117,,*3A
2017-11-16 15:34:05 1510864445.367569: $GPGSA,A,3,8,10,14,15,18,21,24,25,32,12,138,,1.6,1.2,1.3*3F
2017-11-16 15:34:06 1510864446.366394: $GPZDA,203405.00,16,11,2017,00,00*65
2017-11-16 15:34:06 1510864446.366571: $GPGGA,203405,3946.9568,N,08404.9853,W,2,11,1.20,309.68,M,-33.324,M,,*79
2017-11-16 15:34:06 1510864446.366639: $GPRMC,203405,A,3946.9568,N,08404.9853,W,0.0000,0.000,161117,,*3B
2017-11-16 15:34:06 1510864446.366696: $GPGSA,A,3,8,10,14,15,18,21,24,25,32,12,138,,1.6,1.2,1.3*3F
2017-11-16 15:34:07 1510864447.703473: $GPGSV,3,1,12,08,04,289,34,10,73,337,50,14,32,256,45,15,08,069,30*73
2017-11-16 15:34:07 1510864447.703651: $GPGSV,3,2,12,18,67,102,47,20,05,120,11,21,25,178,44,24,42,055,50*78
2017-11-16 15:34:07 1510864447.703713: $GPGSV,3,3,12,25,06,139,19,32,49,270,46,12,12,103,27,138,38,213,44*45
2017-11-16 15:34:07 1510864447.815466: $GPZDA,203406.00,16,11,2017,00,00*66
2017-11-16 15:34:07 1510864447.815632: $GPGGA,203406,3946.9568,N,08404.9853,W,2,12,1.20,309.68,M,-33.324,M,,*79
2017-11-16 15:34:07 1510864447.815692: $GPRMC,203406,A,3946.9568,N,08404.9853,W,0.0000,0.000,161117,,*38
2017-11-16 15:34:07 1510864447.815750: $GPGSA,A,3,8,10,14,15,18,20,21,24,25,32,12,138,1.6,1.2,1.3*3D
2017-11-16 15:34:08 1510864448.384134: $GPZDA,203407.00,16,11,2017,00,00*67
2017-11-16 15:34:08 1510864448.742746: $GPGGA,203407,3946.9568,N,08404.9853,W,2,12,1.20,309.68,M,-33.324,M,,*78
2017-11-16 15:34:08 1510864448.742882: $GPRMC,203407,A,3946.9568,N,08404.9853,W,0.0000,0.000,161117,,*39
2017-11-16 15:34:08 1510864448.742942: $GPGSA,A,3,8,10,14,15,18,20,21,24,25,32,12,138,1.6,1.2,1.3*3D
2017-11-16 15:34:09 1510864449.377519: $GPZDA,203408.00,16,11,2017,00,00*68
2017-11-16 15:34:09 1510864449.377677: $GPGGA,203408,3946.9568,N,08404.9853,W,2,12,1.20,309.68,M,-33.324,M,,*77
2017-11-16 15:34:09 1510864449.377740: $GPRMC,203408,A,3946.9568,N,08404.9853,W,0.0000,0.000,161117,,*36
2017-11-16 15:34:09 1510864449.377795: $GPGSA,A,3,8,10,14,15,18,20,21,24,25,32,12,138,1.6,1.2,1.3*3D
