2017-12-01 13:09:42 1512151782.293434: {"class":"VERSION","release":"3.16","rev":"3.16-4","proto_major":3,"proto_minor":11}
2017-12-01 13:09:42 1512151782.293878: {"class":"DEVICES","devices":[{"class":"DEVICE","path":"/dev/ttyUSB0","driver":"SiRF","subtype":"9\u0006GSD4e_4.1.2-P1_RPATCH.05-F-GPS-4R-1510281 11/03/2015 307","activated":"2017-12-01T18:09:42.242Z","flags":1,"native":1,"bps":4800,"parity":"N","stopbits":1,"cycle":1.00}]}
2017-12-01 13:09:42 1512151782.294011: {"class":"WATCH","enable":true,"json":false,"nmea":true,"raw":0,"scaled":false,"timing":false,"split24":false,"pps":false}
2017-12-01 13:09:42 1512151782.754836: $GPGSV,3,1,12,08,05,322,30,10,41,300,43,15,38,052,49,18,70,334,45*7B
2017-12-01 13:09:42 1512151782.755019: $GPGSV,3,2,12,20,34,094,46,21,64,190,44,24,50,112,47,32,20,237,42*79
2017-12-01 13:09:42 1512151782.755087: $GPGSV,3,3,12,27,19,291,32,13,08,048,27,14,03,232,22,138,38,213,46*49
2017-12-01 13:09:42 1512151782.868229: $GPZDA,180943.00,01,12,2017,00,00*67
2017-12-01 13:09:42 1512151782.868384: $GPGGA,180943,3946.9572,N,08404.9864,W,2,12,0.80,293.11,M,-33.324,M,,*75
2017-12-01 13:09:42 1512151782.868451: $GPRMC,180943,A,3946.9572,N,08404.9864,W,0.0000,0.000,011217,,*36
2017-12-01 13:09:42 1512151782.868512: $GPGSA,A,3,8,10,15,18,20,21,24,32,27,13,14,138,2.0,0.8,1.5*36
2017-12-01 13:09:43 1512151783.493920: $GPZDA,180944.00,01,12,2017,00,00*60
2017-12-01 13:09:43 1512151783.494086: $GPGGA,180944,3946.9572,N,08404.9864,W,2,12,0.80,293.11,M,-33.324,M,,*72
2017-12-01 13:09:43 1512151783.494152: $GPRMC,180944,A,3946.9572,N,08404.9864,W,0.0000,0.000,011217,,*31
2017-12-01 13:09:43 1512151783.494213: $GPGSA,A,3,8,10,15,18,20,21,24,32,27,13,14,138,2.0,0.8,1.5*36
2017-12-01 13:09:44 1512151784.417283: $GPZDA,180945.00,01,12,2017,00,00*61
2017-12-01 13:09:44 1512151784.417456: $GPGGA,180945,3946.9572,N,08404.9864,W,2,12,0.80,293.11,M,-33.324,M,,*73
2017-12-01 13:09:44 1512151784.417523: $GPRMC,180945,A,3946.9572,N,08404.9864,W,0.0000,0.000,011217,,*30
2017-12-01 13:09:44 1512151784.417583: $GPGSA,A,3,8,10,15,18,20,21,24,32,27,13,14,138,2.0,0.8,1.5*36
2017-12-01 13:09:45 1512151785.753969: $GPGSV,3,1,12,08,05,322,31,10,41,300,43,15,38,052,49,18,70,334,45*7A
2017-12-01 13:09:45 1512151785.754154: $GPGSV,3,2,12,20,34,094,46,21,64,190,44,24,50,112,48,32,20,237,42*76
2017-12-01 13:09:45 1512151785.754221: $GPGSV,3,3,12,27,19,291,36,13,08,048,27,14,03,232,16,138,38,213,46*4A
2017-12-01 13:09:45 1512151785.867469: $GPZDA,180946.00,01,12,2017,00,00*62
2017-12-01 13:09:45 1512151785.867648: $GPGGA,180946,3946.9572,N,08404.9864,W,2,12,0.80,293.11,M,-33.324,M,,*70
2017-12-01 13:09:45 1512151785.867715: $GPRMC,180946,A,3946.9572,N,08404.9864,W,0.0000,0.000,011217,,*33
2017-12-01 13:09:45 1512151785.867776: $GPGSA,A,3,8,10,15,18,20,21,24,32,27,13,14,138,2.0,0.8,1.5*36
2017-12-01 13:09:46 1512151786.418374: $GPZDA,180947.00,01,12,2017,00,00*63
2017-12-01 13:09:47 1512151787.229764: $GPGGA,180947,3946.9572,N,08404.9864,W,2,12,0.80,293.11,M,-33.324,M,,*71
2017-12-01 13:09:47 1512151787.229920: $GPRMC,180947,A,3946.9572,N,08404.9864,W,0.0000,0.000,011217,,*32
2017-12-01 13:09:47 1512151787.230001: $GPGSA,A,3,8,10,15,18,20,21,24,32,27,13,14,138,2.0,0.8,1.5*36
2017-12-01 13:09:47 1512151787.416680: $GPZDA,180948.00,01,12,2017,00,00*6C
2017-12-01 13:09:47 1512151787.416850: $GPGGA,180948,3946.9572,N,08404.9864,W,2,12,0.80,293.11,M,-33.324,M,,*7E
2017-12-01 13:09:47 1512151787.416917: $GPRMC,180948,A,3946.9572,N,08404.9864,W,0.0000,0.000,011217,,*3D
2017-12-01 13:09:47 1512151787.416978: $GPGSA,A,3,8,10,15,18,20,21,24,32,27,13,14,138,2.0,0.8,1.5*36
2017-12-01 13:09:48 1512151788.748179: $GPGSV,3,1,12,08,05,322,32,10,41,300,43,15,38,052,48,18,70,334,44*79
2017-12-01 13:09:48 1512151788.748381: $GPGSV,3,2,12,20,34,094,46,21,64,190,44,24,50,112,48,32,20,237,41*75
2017-12-01 13:09:48 1512151788.748448: $GPGSV,3,3,12,27,19,291,34,13,08,048,28,14,03,232,21,138,38,213,46*43
2017-12-01 13:09:48 1512151788.861707: $GPZDA,180949.00,01,12,2017,00,00*6D
2017-12-01 13:09:48 1512151788.861953: $GPGGA,180949,3946.9573,N,08404.9871,W,2,12,0.80,293.03,M,-33.324,M,,*79
2017-12-01 13:09:48 1512151788.862182: $GPRMC,180949,A,3946.9573,N,08404.9871,W,0.0000,0.000,011217,,*39
2017-12-01 13:09:48 1512151788.862301: $GPGSA,A,3,8,10,15,18,20,21,24,32,27,13,14,138,2.0,0.8,1.5*36
2017-12-01 13:09:49 1512151789.411413: $GPZDA,180950.00,01,12,2017,00,00*65
2017-12-01 13:09:49 1512151789.411736: $GPGGA,180950,3946.9573,N,08404.9871,W,2,12,0.80,293.03,M,-33.324,M,,*71
2017-12-01 13:09:49 1512151789.411862: $GPRMC,180950,A,3946.9573,N,08404.9871,W,0.0000,0.000,011217,,*31
2017-12-01 13:09:49 1512151789.411966: $GPGSA,A,3,8,10,15,18,20,21,24,32,27,13,14,138,2.0,0.8,1.5*36
2017-12-01 13:09:50 1512151790.415912: $GPZDA,180951.00,01,12,2017,00,00*64
2017-12-01 13:09:50 1512151790.416081: $GPGGA,180951,3946.9573,N,08404.9871,W,2,12,0.80,293.03,M,-33.324,M,,*70
2017-12-01 13:09:50 1512151790.416147: $GPRMC,180951,A,3946.9573,N,08404.9871,W,0.0000,0.000,011217,,*30
2017-12-01 13:09:50 1512151790.416208: $GPGSA,A,3,8,10,15,18,20,21,24,32,27,13,14,138,2.0,0.8,1.5*36
2017-12-01 13:09:51 1512151791.752838: $GPGSV,3,1,12,08,05,322,37,10,41,300,43,15,38,052,49,18,70,334,44*7D
2017-12-01 13:09:51 1512151791.753035: $GPGSV,3,2,12,20,34,094,46,21,64,190,44,24,50,112,48,32,20,237,41*75
2017-12-01 13:09:51 1512151791.753104: $GPGSV,3,3,12,27,19,291,34,13,08,048,28,14,03,232,00,138,38,213,46*40
2017-12-01 13:09:51 1512151791.866362: $GPZDA,180952.00,01,12,2017,00,00*67
2017-12-01 13:09:51 1512151791.866544: $GPGGA,180952,3946.9573,N,08404.9871,W,2,11,0.80,293.03,M,-33.324,M,,*70
2017-12-01 13:09:51 1512151791.866612: $GPRMC,180952,A,3946.9573,N,08404.9871,W,0.0000,0.000,011217,,*33
2017-12-01 13:09:51 1512151791.866673: $GPGSA,A,3,8,10,15,18,20,21,24,32,27,13,138,,2.0,0.8,1.5*33
