2017-12-31 17:51:53 1514760713.098982: {"class":"VERSION","release":"3.16","rev":"3.16-4","proto_major":3,"proto_minor":11}
2017-12-31 17:51:53 1514760713.100103: {"class":"DEVICES","devices":[{"class":"DEVICE","path":"/dev/ttyUSB0","driver":"SiRF","activated":"2017-12-31T22:51:52.487Z","flags":1,"native":1,"bps":4800,"parity":"N","stopbits":1,"cycle":1.00}]}
2017-12-31 17:51:53 1514760713.100244: {"class":"WATCH","enable":true,"json":false,"nmea":true,"raw":0,"scaled":false,"timing":false,"split24":false,"pps":false}
2017-12-31 17:51:53 1514760713.346732: $GPZDA,225154.00,31,12,2017,00,00*66
2017-12-31 17:51:53 1514760713.346936: $GPGGA,225154,3946.9567,N,08404.9864,W,2,12,0.60,305.31,M,-33.324,M,,*71
2017-12-31 17:51:53 1514760713.347003: $GPRMC,225154,A,3946.9567,N,08404.9864,W,0.0000,0.000,311217,,*33
2017-12-31 17:51:53 1514760713.347064: $GPGSA,A,3,22,23,9,3,16,29,14,31,27,32,26,135,1.7,0.6,1.3*07
2017-12-31 17:51:54 1514760714.682245: $GPGSV,3,1,12,22,28,219,44,23,47,309,43,09,14,312,40,03,37,241,45*7E
2017-12-31 17:51:54 1514760714.682388: $GPGSV,3,2,12,16,71,192,44,29,09,036,22,14,22,129,28,31,34,069,41*7D
2017-12-31 17:51:54 1514760714.682453: $GPGSV,3,3,12,27,15,157,24,32,01,133,18,26,69,058,48,135,22,240,44*4D
2017-12-31 17:51:54 1514760714.795949: $GPZDA,225155.00,31,12,2017,00,00*67
2017-12-31 17:51:54 1514760714.796083: $GPGGA,225155,3946.9567,N,08404.9864,W,2,12,0.60,305.31,M,-33.324,M,,*70
2017-12-31 17:51:54 1514760714.796149: $GPRMC,225155,A,3946.9567,N,08404.9864,W,0.0000,0.000,311217,,*32
2017-12-31 17:51:54 1514760714.796209: $GPGSA,A,3,22,23,9,3,16,29,14,31,27,32,26,135,1.7,0.6,1.3*07
2017-12-31 17:51:55 1514760715.421158: $GPZDA,225156.00,31,12,2017,00,00*64
2017-12-31 17:51:55 1514760715.421321: $GPGGA,225156,3946.9567,N,08404.9864,W,2,12,0.60,305.31,M,-33.324,M,,*73
2017-12-31 17:51:55 1514760715.421387: $GPRMC,225156,A,3946.9567,N,08404.9864,W,0.0000,0.000,311217,,*31
2017-12-31 17:51:55 1514760715.421447: $GPGSA,A,3,22,23,9,3,16,29,14,31,27,32,26,135,1.7,0.6,1.3*07
2017-12-31 17:51:56 1514760716.364595: $GPZDA,225157.00,31,12,2017,00,00*65
2017-12-31 17:51:56 1514760716.364778: $GPGGA,225157,3946.9567,N,08404.9864,W,2,12,0.60,305.31,M,-33.324,M,,*72
2017-12-31 17:51:56 1514760716.364847: $GPRMC,225157,A,3946.9567,N,08404.9864,W,0.0000,0.000,311217,,*30
2017-12-31 17:51:56 1514760716.364925: $GPGSA,A,3,22,23,9,3,16,29,14,31,27,32,26,135,1.7,0.6,1.3*07
2017-12-31 17:51:57 1514760717.681337: $GPGSV,3,1,12,22,28,219,44,23,47,309,43,09,14,312,40,03,37,241,44*7F
2017-12-31 17:51:57 1514760717.681516: $GPGSV,3,2,12,16,71,192,44,29,09,036,29,14,22,129,29,31,34,069,41*77
2017-12-31 17:51:57 1514760717.681581: $GPGSV,3,3,12,27,15,157,26,32,01,133,18,26,69,058,48,135,22,240,45*4E
2017-12-31 17:51:57 1514760717.794659: $GPZDA,225158.00,31,12,2017,00,00*6A
2017-12-31 17:51:57 1514760717.794809: $GPGGA,225158,3946.9567,N,08404.9864,W,2,12,0.60,305.31,M,-33.324,M,,*7D
2017-12-31 17:51:57 1514760717.794876: $GPRMC,225158,A,3946.9567,N,08404.9864,W,0.0000,0.000,311217,,*3F
2017-12-31 17:51:57 1514760717.794957: $GPGSA,A,3,22,23,9,3,16,29,14,31,27,32,26,135,1.7,0.6,1.3*07
2017-12-31 17:51:58 1514760718.345841: $GPZDA,225159.00,31,12,2017,00,00*6B
2017-12-31 17:51:58 1514760718.825327: $GPGGA,225159,3946.9567,N,08404.9864,W,2,12,0.60,305.31,M,-33.324,M,,*7C
2017-12-31 17:51:58 1514760718.825460: $GPRMC,225159,A,3946.9567,N,08404.9864,W,0.0000,0.000,311217,,*3E
2017-12-31 17:51:58 1514760718.825549: $GPGSA,A,3,22,23,9,3,16,29,14,31,27,32,26,135,1.7,0.6,1.3*07
2017-12-31 17:51:59 1514760719.346727: $GPZDA,225200.00,31,12,2017,00,00*64
2017-12-31 17:51:59 1514760719.346930: $GPGGA,225200,3946.9567,N,08404.9864,W,2,12,0.60,305.31,M,-33.324,M,,*73
2017-12-31 17:51:59 1514760719.346997: $GPRMC,225200,A,3946.9567,N,08404.9864,W,0.0000,0.000,311217,,*31
2017-12-31 17:51:59 1514760719.347057: $GPGSA,A,3,22,23,9,3,16,29,14,31,27,32,26,135,1.7,0.6,1.3*07
2017-12-31 17:52:00 1514760720.681690: $GPGSV,3,1,12,22,28,219,44,23,47,309,43,09,14,312,39,03,37,241,45*70
2017-12-31 17:52:00 1514760720.681904: $GPGSV,3,2,12,16,71,192,44,29,09,036,30,14,22,129,21,31,34,069,42*74
2017-12-31 17:52:00 1514760720.682026: $GPGSV,3,3,12,27,15,157,25,32,01,133,17,26,69,058,47,135,22,240,43*4B
2017-12-31 17:52:00 1514760720.795378: $GPZDA,225201.00,31,12,2017,00,00*65
2017-12-31 17:52:00 1514760720.795522: $GPGGA,225201,3946.9567,N,08404.9864,W,2,12,0.60,305.31,M,-33.324,M,,*72
2017-12-31 17:52:00 1514760720.795588: $GPRMC,225201,A,3946.9567,N,08404.9864,W,0.0000,0.000,311217,,*30
2017-12-31 17:52:00 1514760720.795648: $GPGSA,A,3,22,23,9,3,16,29,14,31,27,32,26,135,1.7,0.6,1.3*07
2017-12-31 17:52:01 1514760721.347507: $GPZDA,225202.00,31,12,2017,00,00*66
2017-12-31 17:52:01 1514760721.347678: $GPGGA,225202,3946.9567,N,08404.9864,W,2,12,0.60,305.31,M,-33.324,M,,*71
2017-12-31 17:52:01 1514760721.347769: $GPRMC,225202,A,3946.9567,N,08404.9864,W,0.0000,0.000,311217,,*33
2017-12-31 17:52:01 1514760721.347832: $GPGSA,A,3,22,23,9,3,16,29,14,31,27,32,26,135,1.7,0.6,1.3*07
2017-12-31 17:52:02 1514760722.339585: $GPZDA,225203.00,31,12,2017,00,00*67
2017-12-31 17:52:02 1514760722.339775: $GPGGA,225203,3946.9567,N,08404.9864,W,2,12,0.60,305.31,M,-33.324,M,,*70
2017-12-31 17:52:02 1514760722.339861: $GPRMC,225203,A,3946.9567,N,08404.9864,W,0.0000,0.000,311217,,*32
2017-12-31 17:52:02 1514760722.339925: $GPGSA,A,3,22,23,9,3,16,29,14,31,27,32,26,135,1.7,0.6,1.3*07
