2017-11-16 15:09:33 1510862973.304637: {"class":"VERSION","release":"3.17","rev":"3.17","proto_major":3,"proto_minor":12}
2017-11-16 15:09:33 1510862973.304873: {"class":"DEVICES","devices":[{"class":"DEVICE","path":"/dev/ttyUSB0","driver":"SiRF","subtype":"9\u0006GSD4e_4.1.2-P1_RPATCH.05-F-GPS-4R-1510281 11/03/2015 307","activated":"2017-11-16T20:09:33.279Z","flags":1,"native":1,"bps":4800,"parity":"N","stopbits":1,"cycle":1.00}]}
2017-11-16 15:09:33 1510862973.304930: {"class":"WATCH","enable":true,"json":false,"nmea":true,"raw":0,"scaled":false,"timing":false,"split24":false,"pps":false}
2017-11-16 15:09:33 1510862973.392176: $GPZDA,200932.00,16,11,2017,00,00*6F
2017-11-16 15:09:33 1510862973.392301: $GPGGA,200932,3946.9586,N,08404.9845,W,2,12,0.80,299.48,M,-33.324,M,,*76
2017-11-16 15:09:33 1510862973.392334: $GPRMC,200932,A,3946.9586,N,08404.9845,W,0.0000,0.000,161117,,*36
2017-11-16 15:09:33 1510862973.392362: $GPGSA,A,3,8,10,14,15,18,20,21,24,27,32,12,138,1.6,0.8,1.3*34
2017-11-16 15:09:34 1510862974.728647: $GPGSV,3,1,12,08,07,300,19,10,63,322,50,14,24,249,44,15,16,063,40*70
2017-11-16 15:09:34 1510862974.728815: $GPGSV,3,2,12,18,75,073,46,20,13,114,36,21,36,181,45,24,49,067,49*7F
2017-11-16 15:09:34 1510862974.728875: $GPGSV,3,3,12,27,10,265,45,32,41,258,47,12,05,112,08,138,38,213,43*4C
2017-11-16 15:09:34 1510862974.842052: $GPZDA,200933.00,16,11,2017,00,00*6E
2017-11-16 15:09:34 1510862974.842284: $GPGGA,200933,3946.9586,N,08404.9845,W,2,12,0.80,299.48,M,-33.324,M,,*77
2017-11-16 15:09:34 1510862974.842346: $GPRMC,200933,A,3946.9586,N,08404.9845,W,0.0000,0.000,161117,,*37
2017-11-16 15:09:34 1510862974.842402: $GPGSA,A,3,8,10,14,15,18,20,21,24,27,32,12,138,1.6,0.8,1.3*34
2017-11-16 15:09:35 1510862975.408252: $GPZDA,200934.00,16,11,2017,00,00*69
2017-11-16 15:09:35 1510862975.408362: $GPGGA,200934,3946.9586,N,08404.9845,W,2,12,0.80,299.48,M,-33.324,M,,*70
2017-11-16 15:09:35 1510862975.408393: $GPRMC,200934,A,3946.9586,N,08404.9845,W,0.0000,0.000,161117,,*30
2017-11-16 15:09:35 1510862975.408421: $GPGSA,A,3,8,10,14,15,18,20,21,24,27,32,12,138,1.6,0.8,1.3*34
2017-11-16 15:09:36 1510862976.409526: $GPZDA,200935.00,16,11,2017,00,00*68
2017-11-16 15:09:36 1510862976.416833: $GPGGA,200935,3946.9586,N,08404.9845,W,2,12,0.80,299.48,M,-33.324,M,,*71
2017-11-16 15:09:36 1510862976.417117: $GPRMC,200935,A,3946.9586,N,08404.9845,W,0.0000,0.000,161117,,*31
2017-11-16 15:09:36 1510862976.417203: $GPGSA,A,3,8,10,14,15,18,20,21,24,27,32,12,138,1.6,0.8,1.3*34
2017-11-16 15:09:37 1510862977.730110: $GPGSV,3,1,12,08,07,300,25,10,63,322,50,14,24,249,44,15,16,063,40*7F
2017-11-16 15:09:37 1510862977.730281: $GPGSV,3,2,12,18,75,073,46,20,13,114,35,21,36,181,45,24,49,067,49*7C
2017-11-16 15:09:37 1510862977.730413: $GPGSV,3,3,12,27,10,265,45,32,41,258,46,12,05,112,00,138,38,213,43*45
2017-11-16 15:09:37 1510862977.843469: $GPZDA,200936.00,16,11,2017,00,00*6B
2017-11-16 15:09:37 1510862977.843640: $GPGGA,200936,3946.9586,N,08404.9845,W,2,11,0.80,299.48,M,-33.324,M,,*71
2017-11-16 15:09:37 1510862977.843702: $GPRMC,200936,A,3946.9586,N,08404.9845,W,0.0000,0.000,161117,,*32
2017-11-16 15:09:37 1510862977.843759: $GPGSA,A,3,8,10,14,15,18,20,21,24,27,32,138,,1.6,0.8,1.3*37
2017-11-16 15:09:38 1510862978.408509: $GPZDA,200937.00,16,11,2017,00,00*6A
2017-11-16 15:09:38 1510862978.408616: $GPGGA,200937,3946.9586,N,08404.9845,W,2,11,0.80,299.48,M,-33.324,M,,*70
2017-11-16 15:09:38 1510862978.408647: $GPRMC,200937,A,3946.9586,N,08404.9845,W,0.0000,0.000,161117,,*33
2017-11-16 15:09:38 1510862978.408675: $GPGSA,A,3,8,10,14,15,18,20,21,24,27,32,138,,1.6,0.8,1.3*37
2017-11-16 15:09:39 1510862979.409059: $GPZDA,200938.00,16,11,2017,00,00*65
2017-11-16 15:09:39 1510862979.409238: $GPGGA,200938,3946.9586,N,08404.9845,W,2,11,0.80,299.48,M,-33.324,M,,*7F
2017-11-16 15:09:39 1510862979.409301: $GPRMC,200938,A,3946.9586,N,08404.9845,W,0.0000,0.000,161117,,*3C
2017-11-16 15:09:39 1510862979.409357: $GPGSA,A,3,8,10,14,15,18,20,21,24,27,32,138,,1.6,0.8,1.3*37
2017-11-16 15:09:40 1510862980.746118: $GPGSV,3,1,12,08,07,300,28,10,63,322,50,14,24,249,44,15,16,063,39*7C
2017-11-16 15:09:40 1510862980.746336: $GPGSV,3,2,12,18,75,073,46,20,13,114,36,21,36,181,44,24,49,067,49*7E
2017-11-16 15:09:40 1510862980.746399: $GPGSV,3,3,12,27,10,265,45,32,41,258,46,12,05,112,00,138,38,213,44*42
2017-11-16 15:09:40 1510862980.859560: $GPZDA,200939.00,16,11,2017,00,00*64
2017-11-16 15:09:40 1510862980.859742: $GPGGA,200939,3946.9586,N,08404.9845,W,2,11,0.80,299.48,M,-33.324,M,,*7E
2017-11-16 15:09:40 1510862980.859822: $GPRMC,200939,A,3946.9586,N,08404.9845,W,0.0000,0.000,161117,,*3D
2017-11-16 15:09:40 1510862980.859881: $GPGSA,A,3,8,10,14,15,18,20,21,24,27,32,138,,1.6,0.8,1.3*37
2017-11-16 15:09:41 1510862981.484803: $GPZDA,200940.00,16,11,2017,00,00*6A
2017-11-16 15:09:41 1510862981.484981: $GPGGA,200940,3946.9586,N,08404.9845,W,2,11,0.80,299.48,M,-33.324,M,,*70
2017-11-16 15:09:41 1510862981.485043: $GPRMC,200940,A,3946.9586,N,08404.9845,W,0.0000,0.000,161117,,*33
2017-11-16 15:09:41 1510862981.485099: $GPGSA,A,3,8,10,14,15,18,20,21,24,27,32,138,,1.6,0.8,1.3*37
2017-11-16 15:09:42 1510862982.409370: $GPZDA,200941.00,16,11,2017,00,00*6B
2017-11-16 15:09:42 1510862982.409543: $GPGGA,200941,3946.9582,N,08404.9846,W,2,11,0.80,300.25,M,-33.324,M,,*7C
2017-11-16 15:09:42 1510862982.409634: $GPRMC,200941,A,3946.9582,N,08404.9846,W,0.0000,0.000,161117,,*35
2017-11-16 15:09:42 1510862982.409709: $GPGSA,A,3,8,10,14,15,18,20,21,24,27,32,138,,1.6,0.8,1.3*37
