2017-12-29 11:51:53 1514566313.418643: {"class":"VERSION","release":"3.16","rev":"3.16-4","proto_major":3,"proto_minor":11}
2017-12-29 11:51:53 1514566313.419022: {"class":"DEVICES","devices":[{"class":"DEVICE","path":"/dev/ttyUSB0","driver":"SiRF","subtype":"9\u0006GSD4e_4.1.2-P1_RPATCH.05-F-GPS-4R-1510281 11/03/2015 307","activated":"2017-12-29T16:51:53.299Z","flags":1,"native":1,"bps":4800,"parity":"N","stopbits":1,"cycle":1.00}]}
2017-12-29 11:51:53 1514566313.419153: {"class":"WATCH","enable":true,"json":false,"nmea":true,"raw":0,"scaled":false,"timing":false,"split24":false,"pps":false}
2017-12-29 11:51:53 1514566313.748376: $GPGSV,3,1,11,08,08,310,27,10,54,313,45,15,24,058,45,18,77,033,46*79
2017-12-29 11:51:53 1514566313.748534: $GPGSV,3,2,11,20,23,106,49,21,47,183,47,24,53,082,50,27,15,274,35*71
2017-12-29 11:51:53 1514566313.748599: $GPGSV,3,3,11,32,34,249,37,14,15,241,37,138,38,213,44*77
2017-12-29 11:51:53 1514566313.861989: $GPZDA,165154.00,29,12,2017,00,00*68
2017-12-29 11:51:53 1514566313.862251: $GPGGA,165154,3946.9600,N,08404.9839,W,2,11,0.80,314.96,M,-33.324,M,,*7C
2017-12-29 11:51:53 1514566313.862326: $GPRMC,165154,A,3946.9600,N,08404.9839,W,0.0000,0.000,291217,,*37
2017-12-29 11:51:53 1514566313.862387: $GPGSA,A,3,8,10,15,18,20,21,24,27,32,14,138,,1.7,0.8,1.3*36
2017-12-29 11:51:54 1514566314.430151: $GPZDA,165155.00,29,12,2017,00,00*69
2017-12-29 11:51:54 1514566314.433595: $GPGGA,165155,3946.9600,N,08404.9839,W,2,11,0.80,314.96,M,-33.324,M,,*7D
2017-12-29 11:51:54 1514566314.433704: $GPRMC,165155,A,3946.9600,N,08404.9839,W,0.0000,0.000,291217,,*36
2017-12-29 11:51:54 1514566314.433768: $GPGSA,A,3,8,10,15,18,20,21,24,27,32,14,138,,1.7,0.8,1.3*36
2017-12-29 11:51:55 1514566315.412584: $GPZDA,165156.00,29,12,2017,00,00*6A
2017-12-29 11:51:55 1514566315.412757: $GPGGA,165156,3946.9600,N,08404.9839,W,2,11,0.80,314.96,M,-33.324,M,,*7E
2017-12-29 11:51:55 1514566315.412823: $GPRMC,165156,A,3946.9600,N,08404.9839,W,0.0000,0.000,291217,,*35
2017-12-29 11:51:55 1514566315.412884: $GPGSA,A,3,8,10,15,18,20,21,24,27,32,14,138,,1.7,0.8,1.3*36
2017-12-29 11:51:56 1514566316.764986: $GPGSV,3,1,11,08,08,310,27,10,54,313,45,15,24,058,45,18,77,033,45*7A
2017-12-29 11:51:56 1514566316.765196: $GPGSV,3,2,11,20,23,106,50,21,47,183,47,24,53,082,50,27,15,274,35*79
2017-12-29 11:51:56 1514566316.765264: $GPGSV,3,3,11,32,34,249,37,14,15,241,36,138,38,213,45*77
2017-12-29 11:51:56 1514566316.878377: $GPZDA,165157.00,29,12,2017,00,00*6B
2017-12-29 11:51:56 1514566316.878552: $GPGGA,165157,3946.9600,N,08404.9839,W,2,11,0.80,314.96,M,-33.324,M,,*7F
2017-12-29 11:51:56 1514566316.878619: $GPRMC,165157,A,3946.9600,N,08404.9839,W,0.0000,0.000,291217,,*34
2017-12-29 11:51:56 1514566316.878681: $GPGSA,A,3,8,10,15,18,20,21,24,27,32,14,138,,1.7,0.8,1.3*36
2017-12-29 11:51:57 1514566317.424211: $GPZDA,165158.00,29,12,2017,00,00*64
2017-12-29 11:51:57 1514566317.424382: $GPGGA,165158,3946.9600,N,08404.9839,W,2,11,0.80,314.96,M,-33.324,M,,*70
2017-12-29 11:51:57 1514566317.424450: $GPRMC,165158,A,3946.9600,N,08404.9839,W,0.0000,0.000,291217,,*3B
2017-12-29 11:51:57 1514566317.424511: $GPGSA,A,3,8,10,15,18,20,21,24,27,32,14,138,,1.7,0.8,1.3*36
2017-12-29 11:51:58 1514566318.411640: $GPZDA,165159.00,29,12,2017,00,00*65
2017-12-29 11:51:58 1514566318.411810: $GPGGA,165159,3946.9600,N,08404.9839,W,2,11,0.80,314.96,M,-33.324,M,,*71
2017-12-29 11:51:58 1514566318.411876: $GPRMC,165159,A,3946.9600,N,08404.9839,W,0.0000,0.000,291217,,*3A
2017-12-29 11:51:58 1514566318.411937: $GPGSA,A,3,8,10,15,18,20,21,24,27,32,14,138,,1.7,0.8,1.3*36
2017-12-29 11:51:59 1514566319.748328: $GPGSV,3,1,11,08,08,310,27,10,54,313,45,15,24,058,44,18,77,033,45*7B
2017-12-29 11:51:59 1514566319.748489: $GPGSV,3,2,11,20,23,106,50,21,47,183,47,24,53,082,50,27,15,274,35*79
2017-12-29 11:51:59 1514566319.748554: $GPGSV,3,3,11,32,34,249,37,14,15,241,36,138,38,213,45*77
2017-12-29 11:51:59 1514566319.861775: $GPZDA,165200.00,29,12,2017,00,00*6A
2017-12-29 11:51:59 1514566319.861945: $GPGGA,165200,3946.9600,N,08404.9839,W,2,11,0.80,314.96,M,-33.324,M,,*7E
2017-12-29 11:51:59 1514566319.862095: $GPRMC,165200,A,3946.9600,N,08404.9839,W,0.0000,0.000,291217,,*35
2017-12-29 11:51:59 1514566319.862178: $GPGSA,A,3,8,10,15,18,20,21,24,27,32,14,138,,1.7,0.8,1.3*36
2017-12-29 11:52:00 1514566320.414220: $GPZDA,165201.00,29,12,2017,00,00*6B
2017-12-29 11:52:00 1514566320.414563: $GPGGA,165201,3946.9600,N,08404.9839,W,2,11,0.80,314.96,M,-33.324,M,,*7F
2017-12-29 11:52:00 1514566320.414688: $GPRMC,165201,A,3946.9600,N,08404.9839,W,0.0000,0.000,291217,,*34
2017-12-29 11:52:00 1514566320.414788: $GPGSA,A,3,8,10,15,18,20,21,24,27,32,14,138,,1.7,0.8,1.3*36
2017-12-29 11:52:01 1514566321.413047: $GPZDA,165202.00,29,12,2017,00,00*68
2017-12-29 11:52:01 1514566321.413248: $GPGGA,165202,3946.9600,N,08404.9839,W,2,11,0.80,314.96,M,-33.324,M,,*7C
2017-12-29 11:52:01 1514566321.413315: $GPRMC,165202,A,3946.9600,N,08404.9839,W,0.0000,0.000,291217,,*37
2017-12-29 11:52:01 1514566321.413377: $GPGSA,A,3,8,10,15,18,20,21,24,27,32,14,138,,1.7,0.8,1.3*36
2017-12-29 11:52:02 1514566322.747413: $GPGSV,3,1,11,08,08,310,27,10,54,313,46,15,24,058,44,18,77,033,45*78
2017-12-29 11:52:02 1514566322.747591: $GPGSV,3,2,11,20,23,106,50,21,47,183,47,24,53,082,50,27,15,274,35*79
2017-12-29 11:52:02 1514566322.747657: $GPGSV,3,3,11,32,34,249,38,14,15,241,36,138,38,213,44*79
2017-12-29 11:52:02 1514566322.861142: $GPZDA,165203.00,29,12,2017,00,00*69
2017-12-29 11:52:02 1514566322.861311: $GPGGA,165203,3946.9600,N,08404.9839,W,2,11,0.80,314.96,M,-33.324,M,,*7D
2017-12-29 11:52:02 1514566322.861377: $GPRMC,165203,A,3946.9600,N,08404.9839,W,0.0000,0.000,291217,,*36
2017-12-29 11:52:02 1514566322.861439: $GPGSA,A,3,8,10,15,18,20,21,24,27,32,14,138,,1.7,0.8,1.3*36
2017-12-29 11:52:03 1514566323.413203: $GPZDA,165204.00,29,12,2017,00,00*6E
2017-12-29 11:52:03 1514566323.413373: $GPGGA,165204,3946.9600,N,08404.9839,W,2,11,0.80,314.96,M,-33.324,M,,*7A
2017-12-29 11:52:03 1514566323.413439: $GPRMC,165204,A,3946.9600,N,08404.9839,W,0.0000,0.000,291217,,*31
2017-12-29 11:52:03 1514566323.413500: $GPGSA,A,3,8,10,15,18,20,21,24,27,32,14,138,,1.7,0.8,1.3*36
2017-12-29 11:52:04 1514566324.407534: $GPZDA,165205.00,29,12,2017,00,00*6F
2017-12-29 11:52:04 1514566324.407727: $GPGGA,165205,3946.9600,N,08404.9839,W,2,11,0.80,314.96,M,-33.324,M,,*7B
2017-12-29 11:52:04 1514566324.407795: $GPRMC,165205,A,3946.9600,N,08404.9839,W,0.0000,0.000,291217,,*30
2017-12-29 11:52:04 1514566324.407857: $GPGSA,A,3,8,10,15,18,20,21,24,27,32,14,138,,1.7,0.8,1.3*36
2017-12-29 11:52:05 1514566325.748588: $GPGSV,3,1,11,08,08,310,33,10,54,313,46,15,24,058,45,18,77,033,45*7C
2017-12-29 11:52:05 1514566325.748802: $GPGSV,3,2,11,20,23,106,49,21,47,183,47,24,53,082,50,27,15,274,34*70
2017-12-29 11:52:05 1514566325.748874: $GPGSV,3,3,11,32,34,249,37,14,15,241,35,138,38,213,44*75
2017-12-29 11:52:05 1514566325.861864: $GPZDA,165206.00,29,12,2017,00,00*6C
2017-12-29 11:52:05 1514566325.862069: $GPGGA,165206,3946.9600,N,08404.9839,W,2,11,0.80,314.96,M,-33.324,M,,*78
2017-12-29 11:52:05 1514566325.862139: $GPRMC,165206,A,3946.9600,N,08404.9839,W,0.0000,0.000,291217,,*33
2017-12-29 11:52:05 1514566325.862204: $GPGSA,A,3,8,10,15,18,20,21,24,27,32,14,138,,1.7,0.8,1.3*36
2017-12-29 11:52:06 1514566326.487248: $GPZDA,165207.00,29,12,2017,00,00*6D
2017-12-29 11:52:06 1514566326.487418: $GPGGA,165207,3946.9600,N,08404.9839,W,2,11,0.80,314.96,M,-33.324,M,,*79
2017-12-29 11:52:06 1514566326.487489: $GPRMC,165207,A,3946.9600,N,08404.9839,W,0.0000,0.000,291217,,*32
2017-12-29 11:52:06 1514566326.487553: $GPGSA,A,3,8,10,15,18,20,21,24,27,32,14,138,,1.7,0.8,1.3*36
2017-12-29 11:52:07 1514566327.413136: $GPZDA,165208.00,29,12,2017,00,00*62
2017-12-29 11:52:07 1514566327.413307: $GPGGA,165208,3946.9600,N,08404.9839,W,2,11,0.80,314.96,M,-33.324,M,,*76
2017-12-29 11:52:07 1514566327.413376: $GPRMC,165208,A,3946.9600,N,08404.9839,W,0.0000,0.000,291217,,*3D
2017-12-29 11:52:07 1514566327.413440: $GPGSA,A,3,8,10,15,18,20,21,24,27,32,14,138,,1.7,0.8,1.3*36
