2017-11-15 19:50:29 1510793429.371951: {"class":"VERSION","release":"3.17","rev":"3.17","proto_major":3,"proto_minor":12}
2017-11-15 19:50:29 1510793429.372420: {"class":"DEVICES","devices":[{"class":"DEVICE","path":"/dev/ttyUSB0","driver":"SiRF","subtype":"9\u0006GSD4e_4.1.2-P1_RPATCH.05-F-GPS-4R-1510281 11/03/2015 307","activated":"2017-11-16T00:50:29.367Z","flags":1,"native":1,"bps":4800,"parity":"N","stopbits":1,"cycle":1.00}]}
2017-11-15 19:50:29 1510793429.372553: {"class":"WATCH","enable":true,"json":false,"nmea":true,"raw":0,"scaled":false,"timing":false,"split24":false,"pps":false}
2017-11-15 19:50:30 1510793430.664708: $GPGSV,3,1,11,32,29,114,19,16,31,190,16,31,61,037,23,26,62,168,24*7E
2017-11-15 19:50:30 1510793430.664872: $GPGSV,3,2,11,14,48,103,22,22,49,256,23,29,13,063,00,23,18,304,18*74
2017-11-15 19:50:30 1510793430.664931: $GPGSV,3,3,11,03,43,289,18,25,10,037,00,01,01,246,00*45
2017-11-15 19:50:30 1510793430.778335: $GPZDA,005029.00,16,11,2017,00,00*6B
2017-11-15 19:50:30 1510793430.778505: $GPGGA,005029,3946.9517,N,08404.9461,W,1,08,1.00,306.83,M,-33.324,M,,*71
2017-11-15 19:50:30 1510793430.778565: $GPRMC,005029,A,3946.9517,N,08404.9461,W,1.0253,293.297,161117,,*31
2017-11-15 19:50:30 1510793430.778622: $GPGSA,A,3,32,16,31,26,14,22,23,3,,,,,3.4,1.0,2.9*08
2017-11-15 19:50:31 1510793431.404644: $GPZDA,005030.00,16,11,2017,00,00*63
2017-11-15 19:50:31 1510793431.404822: $GPGGA,005030,3946.9518,N,08404.9468,W,1,08,1.00,306.75,M,-33.324,M,,*76
2017-11-15 19:50:31 1510793431.404885: $GPRMC,005030,A,3946.9518,N,08404.9468,W,0.5912,309.173,161117,,*3E
2017-11-15 19:50:31 1510793431.404940: $GPGSA,A,3,32,16,31,26,14,22,23,3,,,,,3.4,1.0,2.9*08
2017-11-15 19:50:32 1510793432.345621: $GPZDA,005031.00,16,11,2017,00,00*62
2017-11-15 19:50:32 1510793432.345782: $GPGGA,005031,3946.9521,N,08404.9467,W,1,08,1.00,305.99,M,-33.324,M,,*73
2017-11-15 19:50:32 1510793432.345843: $GPRMC,005031,A,3946.9521,N,08404.9467,W,0.6846,4.197,161117,,*3D
2017-11-15 19:50:32 1510793432.345900: $GPGSA,A,3,32,16,31,26,14,22,23,3,,,,,3.4,1.0,2.9*08
2017-11-15 19:50:33 1510793433.665069: $GPGSV,3,1,11,32,29,114,18,16,31,190,16,31,61,037,23,26,62,168,24*7F
2017-11-15 19:50:33 1510793433.665241: $GPGSV,3,2,11,14,48,103,22,22,49,256,22,29,13,063,00,23,18,304,18*75
2017-11-15 19:50:33 1510793433.665304: $GPGSV,3,3,11,03,43,289,18,25,10,037,00,01,01,246,00*45
2017-11-15 19:50:33 1510793433.778315: $GPZDA,005032.00,16,11,2017,00,00*61
2017-11-15 19:50:33 1510793433.778436: $GPGGA,005032,3946.9521,N,08404.9467,W,1,08,1.00,305.99,M,-33.324,M,,*70
2017-11-15 19:50:33 1510793433.778496: $GPRMC,005032,A,3946.9521,N,08404.9467,W,0.7246,344.668,161117,,*35
2017-11-15 19:50:33 1510793433.778552: $GPGSA,A,3,32,16,31,26,14,22,23,3,,,,,3.4,1.0,2.9*08
2017-11-15 19:50:34 1510793434.329258: $GPZDA,005033.00,16,11,2017,00,00*60
2017-11-15 19:50:34 1510793434.329426: $GPGGA,005033,3946.9521,N,08404.9467,W,1,08,1.00,305.99,M,-33.324,M,,*71
2017-11-15 19:50:34 1510793434.329488: $GPRMC,005033,A,3946.9521,N,08404.9467,W,0.8359,328.778,161117,,*3E
2017-11-15 19:50:34 1510793434.329545: $GPGSA,A,3,32,16,31,26,14,22,23,3,,,,,3.4,1.0,2.9*08
2017-11-15 19:50:35 1510793435.346362: $GPZDA,005034.00,16,11,2017,00,00*67
2017-11-15 19:50:35 1510793435.346539: $GPGGA,005034,3946.9525,N,08404.9474,W,1,08,1.00,305.15,M,-33.324,M,,*74
2017-11-15 19:50:35 1510793435.346602: $GPRMC,005034,A,3946.9525,N,08404.9474,W,0.5857,338.291,161117,,*34
2017-11-15 19:50:35 1510793435.346658: $GPGSA,A,3,32,16,31,26,14,22,23,3,,,,,3.4,1.0,2.9*08
2017-11-15 19:50:36 1510793436.681920: $GPGSV,3,1,11,32,29,114,18,16,31,190,15,31,61,037,24,26,62,168,25*7A
2017-11-15 19:50:36 1510793436.682089: $GPGSV,3,2,11,14,48,103,22,22,49,256,22,29,13,063,04,23,18,304,18*71
2017-11-15 19:50:36 1510793436.682148: $GPGSV,3,3,11,03,43,289,18,25,10,037,00,01,01,246,00*45
2017-11-15 19:50:36 1510793436.795047: $GPZDA,005035.00,16,11,2017,00,00*66
2017-11-15 19:50:36 1510793436.795201: $GPGGA,005035,3946.9525,N,08404.9474,W,1,08,1.00,305.15,M,-33.324,M,,*75
2017-11-15 19:50:36 1510793436.795261: $GPRMC,005035,A,3946.9525,N,08404.9474,W,0.5912,309.173,161117,,*38
2017-11-15 19:50:36 1510793436.795369: $GPGSA,A,3,32,16,31,26,14,22,23,3,,,,,3.4,1.0,2.9*08
2017-11-15 19:50:37 1510793437.329684: $GPZDA,005036.00,16,11,2017,00,00*65
2017-11-15 19:50:37 1510793437.329856: $GPGGA,005036,3946.9525,N,08404.9474,W,1,08,1.00,305.15,M,-33.324,M,,*76
2017-11-15 19:50:37 1510793437.329917: $GPRMC,005036,A,3946.9525,N,08404.9474,W,0.5912,309.173,161117,,*3B
2017-11-15 19:50:37 1510793437.329973: $GPGSA,A,3,32,16,31,26,14,22,23,3,,,,,3.4,1.0,2.9*08
2017-11-15 19:50:38 1510793438.329956: $GPZDA,005037.00,16,11,2017,00,00*64
2017-11-15 19:50:38 1510793438.330113: $GPGGA,005037,3946.9525,N,08404.9481,W,1,08,1.00,305.07,M,-33.324,M,,*7E
2017-11-15 19:50:38 1510793438.330174: $GPRMC,005037,A,3946.9525,N,08404.9481,W,0.5912,309.173,161117,,*30
2017-11-15 19:50:38 1510793438.330242: $GPGSA,A,3,32,16,31,26,14,22,23,3,,,,,3.4,1.0,2.9*08
