2017-11-16 14:45:51 1510861551.699251: {"class":"VERSION","release":"3.17","rev":"3.17","proto_major":3,"proto_minor":12}
2017-11-16 14:45:51 1510861551.699654: {"class":"DEVICES","devices":[{"class":"DEVICE","path":"/dev/ttyUSB0","driver":"SiRF","subtype":"9\u0006GSD4e_4.1.2-P1_RPATCH.05-F-GPS-4R-1510281 11/03/2015 307","activated":"2017-11-16T19:45:51.380Z","flags":1,"native":1,"bps":4800,"parity":"N","stopbits":1,"cycle":1.00}]}
2017-11-16 14:45:51 1510861551.699801: {"class":"WATCH","enable":true,"json":false,"nmea":true,"raw":0,"scaled":false,"timing":false,"split24":false,"pps":false}
2017-11-16 14:45:51 1510861551.829902: $GPGSV,3,1,11,08,08,309,35,10,53,313,50,15,25,058,50,18,77,027,44*73
2017-11-16 14:45:51 1510861551.830072: $GPGSV,3,2,11,21,48,183,48,20,22,106,45,24,53,084,48,27,15,274,41*70
2017-11-16 14:45:51 1510861551.830132: $GPGSV,3,3,11,32,32,249,48,14,16,241,38,138,38,213,44*75
2017-11-16 14:45:51 1510861551.943247: $GPZDA,194550.00,16,11,2017,00,00*69
2017-11-16 14:45:51 1510861551.943419: $GPGGA,194550,3946.9564,N,08404.9842,W,2,11,0.80,302.74,M,-33.324,M,,*74
2017-11-16 14:45:51 1510861551.943481: $GPRMC,194550,A,3946.9564,N,08404.9842,W,0.0000,0.000,161117,,*3B
2017-11-16 14:45:51 1510861551.943537: $GPGSA,A,3,8,10,15,18,21,20,24,27,32,14,138,,1.6,0.8,1.3*37
2017-11-16 14:45:52 1510861552.495441: $GPZDA,194551.00,16,11,2017,00,00*68
2017-11-16 14:45:52 1510861552.495622: $GPGGA,194551,3946.9564,N,08404.9842,W,2,11,0.80,302.74,M,-33.324,M,,*75
2017-11-16 14:45:52 1510861552.495706: $GPRMC,194551,A,3946.9564,N,08404.9842,W,0.0000,0.000,161117,,*3A
2017-11-16 14:45:52 1510861552.495766: $GPGSA,A,3,8,10,15,18,21,20,24,27,32,14,138,,1.6,0.8,1.3*37
2017-11-16 14:45:53 1510861553.494839: $GPZDA,194552.00,16,11,2017,00,00*6B
2017-11-16 14:45:53 1510861553.494999: $GPGGA,194552,3946.9564,N,08404.9842,W,2,11,0.80,302.74,M,-33.324,M,,*76
2017-11-16 14:45:53 1510861553.495059: $GPRMC,194552,A,3946.9564,N,08404.9842,W,0.0000,0.000,161117,,*39
2017-11-16 14:45:53 1510861553.495115: $GPGSA,A,3,8,10,15,18,21,20,24,27,32,14,138,,1.6,0.8,1.3*37
2017-11-16 14:45:54 1510861554.831313: $GPGSV,3,1,11,08,08,309,35,10,53,313,50,15,25,058,50,18,77,027,44*73
2017-11-16 14:45:54 1510861554.831482: $GPGSV,3,2,11,21,48,183,48,20,22,106,44,24,53,084,49,27,15,274,41*70
2017-11-16 14:45:54 1510861554.831542: $GPGSV,3,3,11,32,32,249,48,14,16,241,38,138,38,213,44*75
2017-11-16 14:45:54 1510861554.944637: $GPZDA,194553.00,16,11,2017,00,00*6A
2017-11-16 14:45:54 1510861554.944819: $GPGGA,194553,3946.9564,N,08404.9842,W,2,11,0.80,302.74,M,-33.324,M,,*77
2017-11-16 14:45:54 1510861554.944880: $GPRMC,194553,A,3946.9564,N,08404.9842,W,0.0000,0.000,161117,,*38
2017-11-16 14:45:54 1510861554.944936: $GPGSA,A,3,8,10,15,18,21,20,24,27,32,14,138,,1.6,0.8,1.3*37
2017-11-16 14:45:55 1510861555.494226: $GPZDA,194554.00,16,11,2017,00,00*6D
2017-11-16 14:45:55 1510861555.494387: $GPGGA,194554,3946.9564,N,08404.9842,W,2,11,0.80,302.74,M,-33.324,M,,*70
2017-11-16 14:45:55 1510861555.494447: $GPRMC,194554,A,3946.9564,N,08404.9842,W,0.0000,0.000,161117,,*3F
2017-11-16 14:45:55 1510861555.494503: $GPGSA,A,3,8,10,15,18,21,20,24,27,32,14,138,,1.6,0.8,1.3*37
2017-11-16 14:45:56 1510861556.489052: $GPZDA,194555.00,16,11,2017,00,00*6C
2017-11-16 14:45:56 1510861556.489228: $GPGGA,194555,3946.9564,N,08404.9842,W,2,11,0.80,302.74,M,-33.324,M,,*71
2017-11-16 14:45:56 1510861556.489290: $GPRMC,194555,A,3946.9564,N,08404.9842,W,0.0000,0.000,161117,,*3E
2017-11-16 14:45:56 1510861556.489346: $GPGSA,A,3,8,10,15,18,21,20,24,27,32,14,138,,1.6,0.8,1.3*37
2017-11-16 14:45:57 1510861557.867148: $GPGSV,3,1,11,08,08,309,35,10,53,313,50,15,25,058,50,18,77,027,44*73
2017-11-16 14:45:57 1510861557.867318: $GPGSV,3,2,11,21,48,183,48,20,22,106,44,24,53,084,48,27,15,274,40*70
2017-11-16 14:45:57 1510861557.867377: $GPGSV,3,3,11,32,32,249,47,14,16,241,38,138,38,213,43*7D
2017-11-16 14:45:57 1510861557.982136: $GPZDA,194556.00,16,11,2017,00,00*6F
2017-11-16 14:45:57 1510861557.982435: $GPGGA,194556,3946.9564,N,08404.9842,W,2,11,0.80,302.74,M,-33.324,M,,*72
2017-11-16 14:45:57 1510861557.982661: $GPRMC,194556,A,3946.9564,N,08404.9842,W,0.0000,0.000,161117,,*3D
2017-11-16 14:45:57 1510861557.982782: $GPGSA,A,3,8,10,15,18,21,20,24,27,32,14,138,,1.6,0.8,1.3*37
2017-11-16 14:45:58 1510861558.495027: $GPZDA,194557.00,16,11,2017,00,00*6E
2017-11-16 14:45:58 1510861558.495211: $GPGGA,194557,3946.9564,N,08404.9842,W,2,11,0.80,302.74,M,-33.324,M,,*73
2017-11-16 14:45:58 1510861558.495275: $GPRMC,194557,A,3946.9564,N,08404.9842,W,0.0000,0.000,161117,,*3C
2017-11-16 14:45:58 1510861558.495332: $GPGSA,A,3,8,10,15,18,21,20,24,27,32,14,138,,1.6,0.8,1.3*37
2017-11-16 14:45:59 1510861559.494290: $GPZDA,194558.00,16,11,2017,00,00*61
2017-11-16 14:45:59 1510861559.494470: $GPGGA,194558,3946.9564,N,08404.9842,W,2,11,0.80,302.74,M,-33.324,M,,*7C
2017-11-16 14:45:59 1510861559.494547: $GPRMC,194558,A,3946.9564,N,08404.9842,W,0.0000,0.000,161117,,*33
2017-11-16 14:45:59 1510861559.494604: $GPGSA,A,3,8,10,15,18,21,20,24,27,32,14,138,,1.6,0.8,1.3*37
2017-11-16 14:46:00 1510861560.867413: $GPGSV,3,1,11,08,08,309,36,10,53,313,50,15,25,058,50,18,77,027,44*70
2017-11-16 14:46:00 1510861560.867611: $GPGSV,3,2,11,21,48,183,48,20,22,106,44,24,53,084,48,27,15,274,40*70
2017-11-16 14:46:00 1510861560.867671: $GPGSV,3,3,11,32,32,249,47,14,16,241,38,138,38,213,44*7A
2017-11-16 14:46:00 1510861560.980652: $GPZDA,194559.00,16,11,2017,00,00*60
2017-11-16 14:46:00 1510861560.980816: $GPGGA,194559,3946.9564,N,08404.9842,W,2,11,0.80,302.74,M,-33.324,M,,*7D
2017-11-16 14:46:00 1510861560.980877: $GPRMC,194559,A,3946.9564,N,08404.9842,W,0.0000,0.000,161117,,*32
2017-11-16 14:46:00 1510861560.980933: $GPGSA,A,3,8,10,15,18,21,20,24,27,32,14,138,,1.6,0.8,1.3*37
2017-11-16 14:46:01 1510861561.531544: $GPZDA,194600.00,16,11,2017,00,00*6F
2017-11-16 14:46:01 1510861561.531722: $GPGGA,194600,3946.9564,N,08404.9842,W,2,11,0.80,302.74,M,-33.324,M,,*72
2017-11-16 14:46:01 1510861561.531784: $GPRMC,194600,A,3946.9564,N,08404.9842,W,0.0000,0.000,161117,,*3D
2017-11-16 14:46:01 1510861561.531839: $GPGSA,A,3,8,10,15,18,21,20,24,27,32,14,138,,1.6,0.8,1.3*37
