2017-11-15 19:48:36 1510793316.444125: {"class":"VERSION","release":"3.17","rev":"3.17","proto_major":3,"proto_minor":12}
2017-11-15 19:48:36 1510793316.444620: {"class":"DEVICES","devices":[{"class":"DEVICE","path":"/dev/ttyUSB0","driver":"SiRF","subtype":"9\u0006GSD4e_4.1.2-P1_RPATCH.05-F-GPS-4R-1510281 11/03/2015 307","activated":"2017-11-16T00:48:36.232Z","flags":1,"native":1,"bps":4800,"parity":"N","stopbits":1,"cycle":1.00}]}
2017-11-15 19:48:36 1510793316.444740: {"class":"WATCH","enable":true,"json":false,"nmea":true,"raw":0,"scaled":false,"timing":false,"split24":false,"pps":false}
2017-11-15 19:48:36 1510793316.681503: $GPGSV,3,1,11,32,29,114,24,16,31,190,26,31,61,037,19,26,62,168,19*74
2017-11-15 19:48:36 1510793316.681658: $GPGSV,3,2,11,14,48,103,16,22,49,256,16,29,13,063,00,23,18,304,16*7B
2017-11-15 19:48:36 1510793316.681717: $GPGSV,3,3,11,03,43,289,18,25,10,037,00,01,01,246,00*45
2017-11-15 19:48:36 1510793316.795225: $GPZDA,004835.00,16,11,2017,00,00*6F
2017-11-15 19:48:36 1510793316.795387: $GPGGA,004835,3946.9559,N,08404.9474,W,1,08,1.00,336.59,M,-33.324,M,,*7F
2017-11-15 19:48:36 1510793316.795446: $GPRMC,004835,A,3946.9559,N,08404.9474,W,0.5857,158.291,161117,,*33
2017-11-15 19:48:36 1510793316.795502: $GPGSA,A,3,32,16,31,26,14,22,23,3,,,,,3.4,1.0,2.9*08
2017-11-15 19:48:37 1510793317.329799: $GPZDA,004836.00,16,11,2017,00,00*6C
2017-11-15 19:48:37 1510793317.329964: $GPGGA,004836,3946.9555,N,08404.9474,W,1,08,1.00,335.95,M,-33.324,M,,*73
2017-11-15 19:48:37 1510793317.330024: $GPRMC,004836,A,3946.9555,N,08404.9474,W,0.7238,140.710,161117,,*38
2017-11-15 19:48:37 1510793317.330079: $GPGSA,A,3,32,16,31,26,14,22,23,3,,,,,3.4,1.0,2.9*08
2017-11-15 19:48:38 1510793318.330747: $GPZDA,004837.00,16,11,2017,00,00*6D
2017-11-15 19:48:38 1510793318.330912: $GPGGA,004837,3946.9556,N,08404.9481,W,1,08,1.00,335.87,M,-33.324,M,,*78
2017-11-15 19:48:38 1510793318.330972: $GPRMC,004837,A,3946.9556,N,08404.9481,W,0.3423,184.197,161117,,*39
2017-11-15 19:48:38 1510793318.331027: $GPGSA,A,3,32,16,31,26,14,22,23,3,,,,,3.4,1.0,2.9*08
2017-11-15 19:48:39 1510793319.682408: $GPGSV,3,1,12,32,29,114,24,16,31,190,26,31,61,037,20,26,62,168,19*7D
2017-11-15 19:48:39 1510793319.682558: $GPGSV,3,2,12,14,48,103,15,22,49,256,16,29,13,063,00,23,18,304,16*7B
2017-11-15 19:48:39 1510793319.682618: $GPGSV,3,3,12,03,43,289,18,25,10,037,00,01,01,246,00,138,38,213,00*47
2017-11-15 19:48:39 1510793319.795864: $GPZDA,004838.00,16,11,2017,00,00*62
2017-11-15 19:48:39 1510793319.796030: $GPGGA,004838,3946.9555,N,08404.9480,W,1,08,1.00,334.47,M,-33.324,M,,*78
2017-11-15 19:48:39 1510793319.796092: $GPRMC,004838,A,3946.9555,N,08404.9480,W,0.2422,273.794,161117,,*3A
2017-11-15 19:48:39 1510793319.796148: $GPGSA,A,3,32,16,31,26,14,22,23,3,,,,,3.4,1.0,2.9*08
2017-11-15 19:48:40 1510793320.346650: $GPZDA,004839.00,16,11,2017,00,00*63
2017-11-15 19:48:40 1510793320.346860: $GPGGA,004839,3946.9555,N,08404.9480,W,1,08,1.00,334.47,M,-33.324,M,,*79
2017-11-15 19:48:40 1510793320.346924: $GPRMC,004839,A,3946.9555,N,08404.9480,W,0.4179,328.778,161117,,*3B
2017-11-15 19:48:40 1510793320.346981: $GPGSA,A,3,32,16,31,26,14,22,23,3,,,,,3.4,1.0,2.9*08
2017-11-15 19:48:41 1510793321.331140: $GPZDA,004840.00,16,11,2017,00,00*6D
2017-11-15 19:48:41 1510793321.331302: $GPGGA,004840,3946.9551,N,08404.9487,W,1,08,1.00,333.75,M,-33.324,M,,*72
2017-11-15 19:48:41 1510793321.331361: $GPRMC,004840,A,3946.9551,N,08404.9487,W,0.5912,309.173,161117,,*3C
2017-11-15 19:48:41 1510793321.331416: $GPGSA,A,3,32,16,31,26,14,22,23,3,,,,,3.4,1.0,2.9*08
2017-11-15 19:48:42 1510793322.682722: $GPGSV,3,1,12,32,29,114,25,16,31,190,26,31,61,037,20,26,62,168,19*7C
2017-11-15 19:48:42 1510793322.682898: $GPGSV,3,2,12,14,48,103,14,22,49,256,16,29,13,063,00,23,18,304,17*7B
2017-11-15 19:48:42 1510793322.682958: $GPGSV,3,3,12,03,43,289,18,25,10,037,00,01,01,246,00,138,38,213,00*47
2017-11-15 19:48:42 1510793322.796066: $GPZDA,004841.00,16,11,2017,00,00*6C
2017-11-15 19:48:42 1510793322.796231: $GPGGA,004841,3946.9555,N,08404.9487,W,1,08,1.00,332.98,M,-33.324,M,,*75
2017-11-15 19:48:42 1510793322.796359: $GPRMC,004841,A,3946.9555,N,08404.9487,W,0.9060,347.792,161117,,*3A
2017-11-15 19:48:42 1510793322.796417: $GPGSA,A,3,32,16,31,26,14,22,23,3,,,,,3.4,1.0,2.9*08
2017-11-15 19:48:43 1510793323.347016: $GPZDA,004842.00,16,11,2017,00,00*6F
2017-11-15 19:48:43 1510793323.347191: $GPGGA,004842,3946.9555,N,08404.9487,W,1,08,1.00,332.98,M,-33.324,M,,*76
2017-11-15 19:48:43 1510793323.347252: $GPRMC,004842,A,3946.9555,N,08404.9487,W,0.3423,4.197,161117,,*37
2017-11-15 19:48:43 1510793323.347308: $GPGSA,A,3,32,16,31,26,14,22,23,3,,,,,3.4,1.0,2.9*08
2017-11-15 19:48:44 1510793324.330331: $GPZDA,004843.00,16,11,2017,00,00*6E
2017-11-15 19:48:44 1510793324.330491: $GPGGA,004843,3946.9555,N,08404.9494,W,1,08,1.00,332.90,M,-33.324,M,,*7D
2017-11-15 19:48:44 1510793324.330550: $GPRMC,004843,A,3946.9555,N,08404.9494,W,0.6846,4.197,161117,,*3E
2017-11-15 19:48:44 1510793324.330605: $GPGSA,A,3,32,16,31,26,14,22,23,3,,,,,3.4,1.0,2.9*08
2017-11-15 19:48:45 1510793325.666097: $GPGSV,3,1,12,32,29,114,25,16,31,190,26,31,61,037,20,26,62,168,18*7D
2017-11-15 19:48:45 1510793325.666291: $GPGSV,3,2,12,14,48,103,11,22,49,256,17,29,13,063,03,23,18,304,17*7C
2017-11-15 19:48:45 1510793325.666356: $GPGSV,3,3,12,03,43,289,18,25,10,037,00,01,01,246,00,138,38,213,00*47
2017-11-15 19:48:45 1510793325.779395: $GPZDA,004844.00,16,11,2017,00,00*69
2017-11-15 19:48:45 1510793325.779568: $GPGGA,004844,3946.9554,N,08404.9493,W,1,08,1.00,331.50,M,-33.324,M,,*73
2017-11-15 19:48:45 1510793325.779631: $GPRMC,004844,A,3946.9554,N,08404.9493,W,0.2422,93.794,161117,,*0E
2017-11-15 19:48:45 1510793325.779690: $GPGSA,A,3,32,16,31,26,14,22,23,3,,,,,3.4,1.0,2.9*08
2017-11-15 19:48:46 1510793326.404787: $GPZDA,004845.00,16,11,2017,00,00*68
2017-11-15 19:48:46 1510793326.404951: $GPGGA,004845,3946.9554,N,08404.9493,W,1,08,1.00,331.50,M,-33.324,M,,*72
2017-11-15 19:48:46 1510793326.405016: $GPRMC,004845,A,3946.9554,N,08404.9493,W,0.3423,184.197,161117,,*3D
2017-11-15 19:48:46 1510793326.405074: $GPGSA,A,3,32,16,31,26,14,22,23,3,,,,,3.4,1.0,2.9*08
