2017-11-16 17:41:21 1510872081.172452: {"class":"VERSION","release":"3.17","rev":"3.17","proto_major":3,"proto_minor":12}
2017-11-16 17:41:21 1510872081.172875: {"class":"DEVICES","devices":[{"class":"DEVICE","path":"/dev/ttyUSB0","driver":"SiRF","subtype":"9\u0006GSD4e_4.1.2-P1_RPATCH.05-F-GPS-4R-1510281 11/03/2015 307","activated":"2017-11-16T22:41:20.732Z","flags":1,"native":1,"bps":4800,"parity":"N","stopbits":1,"cycle":1.00}]}
2017-11-16 17:41:21 1510872081.172997: {"class":"WATCH","enable":true,"json":false,"nmea":true,"raw":0,"scaled":false,"timing":false,"split24":false,"pps":false}
2017-11-16 17:41:21 1510872081.730077: $GPGSV,3,1,12,01,22,295,36,10,43,150,45,22,22,312,42,12,20,046,49*79
2017-11-16 17:41:21 1510872081.730252: $GPGSV,3,2,12,14,68,339,46,18,14,145,38,26,06,183,25,11,07,277,38*7D
2017-11-16 17:41:21 1510872081.730313: $GPGSV,3,3,12,25,40,084,49,31,60,229,47,32,67,039,49,138,38,213,44*40
2017-11-16 17:41:21 1510872081.843388: $GPZDA,224120.00,16,11,2017,00,00*62
2017-11-16 17:41:21 1510872081.843558: $GPGGA,224120,3946.9575,N,08404.9841,W,2,12,0.80,301.85,M,-33.324,M,,*72
2017-11-16 17:41:21 1510872081.843620: $GPRMC,224120,A,3946.9575,N,08404.9841,W,0.0000,0.000,161117,,*33
2017-11-16 17:41:21 1510872081.843676: $GPGSA,A,3,1,10,22,12,14,18,26,11,25,31,32,138,1.6,0.8,1.3*3A
2017-11-16 17:41:22 1510872082.415506: $GPZDA,224121.00,16,11,2017,00,00*63
2017-11-16 17:41:22 1510872082.415683: $GPGGA,224121,3946.9575,N,08404.9841,W,2,12,0.80,301.85,M,-33.324,M,,*73
2017-11-16 17:41:22 1510872082.415748: $GPRMC,224121,A,3946.9575,N,08404.9841,W,0.0000,0.000,161117,,*32
2017-11-16 17:41:22 1510872082.415808: $GPGSA,A,3,1,10,22,12,14,18,26,11,25,31,32,138,1.6,0.8,1.3*3A
2017-11-16 17:41:23 1510872083.416367: $GPZDA,224122.00,16,11,2017,00,00*60
2017-11-16 17:41:23 1510872083.424047: $GPGGA,224122,3946.9575,N,08404.9841,W,2,12,0.80,301.85,M,-33.324,M,,*70
2017-11-16 17:41:23 1510872083.424154: $GPRMC,224122,A,3946.9575,N,08404.9841,W,0.0000,0.000,161117,,*31
2017-11-16 17:41:23 1510872083.424216: $GPGSA,A,3,1,10,22,12,14,18,26,11,25,31,32,138,1.6,0.8,1.3*3A
2017-11-16 17:41:24 1510872084.730345: $GPGSV,3,1,12,01,22,295,36,10,43,150,45,22,22,312,42,12,20,046,50*71
2017-11-16 17:41:24 1510872084.730514: $GPGSV,3,2,12,14,68,339,46,18,14,145,37,26,06,183,25,11,07,277,39*73
2017-11-16 17:41:24 1510872084.730578: $GPGSV,3,3,12,25,40,084,49,31,60,229,48,32,67,039,49,138,38,213,44*4F
2017-11-16 17:41:24 1510872084.843648: $GPZDA,224123.00,16,11,2017,00,00*61
2017-11-16 17:41:24 1510872084.843810: $GPGGA,224123,3946.9575,N,08404.9841,W,2,12,0.80,301.85,M,-33.324,M,,*71
2017-11-16 17:41:24 1510872084.843873: $GPRMC,224123,A,3946.9575,N,08404.9841,W,0.0000,0.000,161117,,*30
2017-11-16 17:41:24 1510872084.843933: $GPGSA,A,3,1,10,22,12,14,18,26,11,25,31,32,138,1.6,0.8,1.3*3A
2017-11-16 17:41:25 1510872085.417000: $GPZDA,224124.00,16,11,2017,00,00*66
2017-11-16 17:41:25 1510872085.417157: $GPGGA,224124,3946.9575,N,08404.9841,W,2,12,0.80,301.85,M,-33.324,M,,*76
2017-11-16 17:41:25 1510872085.417220: $GPRMC,224124,A,3946.9575,N,08404.9841,W,0.0000,0.000,161117,,*37
2017-11-16 17:41:25 1510872085.417278: $GPGSA,A,3,1,10,22,12,14,18,26,11,25,31,32,138,1.6,0.8,1.3*3A
2017-11-16 17:41:26 1510872086.416286: $GPZDA,224125.00,16,11,2017,00,00*67
2017-11-16 17:41:26 1510872086.416422: $GPGGA,224125,3946.9575,N,08404.9841,W,2,12,0.80,301.85,M,-33.324,M,,*77
2017-11-16 17:41:26 1510872086.416485: $GPRMC,224125,A,3946.9575,N,08404.9841,W,0.0000,0.000,161117,,*36
2017-11-16 17:41:26 1510872086.416544: $GPGSA,A,3,1,10,22,12,14,18,26,11,25,31,32,138,1.6,0.8,1.3*3A
2017-11-16 17:41:27 1510872087.753273: $GPGSV,3,1,12,01,22,295,35,10,43,150,45,22,22,312,42,12,20,046,50*72
2017-11-16 17:41:27 1510872087.753427: $GPGSV,3,2,12,14,68,339,46,18,14,145,38,26,06,183,25,11,07,277,39*7C
2017-11-16 17:41:27 1510872087.753490: $GPGSV,3,3,12,25,40,084,49,31,60,229,48,32,67,039,49,138,38,213,44*4F
2017-11-16 17:41:27 1510872087.866541: $GPZDA,224126.00,16,11,2017,00,00*64
2017-11-16 17:41:27 1510872087.866702: $GPGGA,224126,3946.9575,N,08404.9841,W,2,12,0.80,301.85,M,-33.324,M,,*74
2017-11-16 17:41:27 1510872087.866832: $GPRMC,224126,A,3946.9575,N,08404.9841,W,0.0000,0.000,161117,,*35
2017-11-16 17:41:27 1510872087.866891: $GPGSA,A,3,1,10,22,12,14,18,26,11,25,31,32,138,1.6,0.8,1.3*3A
2017-11-16 17:41:28 1510872088.410019: $GPZDA,224127.00,16,11,2017,00,00*65
2017-11-16 17:41:28 1510872088.410190: $GPGGA,224127,3946.9575,N,08404.9841,W,2,12,0.80,301.85,M,-33.324,M,,*75
2017-11-16 17:41:28 1510872088.410253: $GPRMC,224127,A,3946.9575,N,08404.9841,W,0.0000,0.000,161117,,*34
2017-11-16 17:41:28 1510872088.410309: $GPGSA,A,3,1,10,22,12,14,18,26,11,25,31,32,138,1.6,0.8,1.3*3A
2017-11-16 17:41:29 1510872089.417002: $GPZDA,224128.00,16,11,2017,00,00*6A
2017-11-16 17:41:29 1510872089.417176: $GPGGA,224128,3946.9575,N,08404.9841,W,2,12,0.80,301.85,M,-33.324,M,,*7A
2017-11-16 17:41:29 1510872089.417240: $GPRMC,224128,A,3946.9575,N,08404.9841,W,0.0000,0.000,161117,,*3B
2017-11-16 17:41:29 1510872089.417296: $GPGSA,A,3,1,10,22,12,14,18,26,11,25,31,32,138,1.6,0.8,1.3*3A
2017-11-16 17:41:30 1510872090.730302: $GPGSV,3,1,12,01,22,295,35,10,43,150,45,22,22,312,42,12,20,046,50*72
2017-11-16 17:41:30 1510872090.730467: $GPGSV,3,2,12,14,68,339,46,18,14,145,38,26,06,183,25,11,07,277,39*7C
2017-11-16 17:41:30 1510872090.730526: $GPGSV,3,3,12,25,40,084,49,31,60,229,48,32,67,039,49,138,38,213,44*4F
2017-11-16 17:41:30 1510872090.843604: $GPZDA,224129.00,16,11,2017,00,00*6B
2017-11-16 17:41:30 1510872090.843778: $GPGGA,224129,3946.9575,N,08404.9841,W,2,12,0.80,301.85,M,-33.324,M,,*7B
2017-11-16 17:41:30 1510872090.843843: $GPRMC,224129,A,3946.9575,N,08404.9841,W,0.0000,0.000,161117,,*3A
2017-11-16 17:41:30 1510872090.843899: $GPGSA,A,3,1,10,22,12,14,18,26,11,25,31,32,138,1.6,0.8,1.3*3A
