2017-12-31 18:50:00 1514764200.190449: {"class":"VERSION","release":"3.16","rev":"3.16-4","proto_major":3,"proto_minor":11}
2017-12-31 18:50:00 1514764200.190813: {"class":"DEVICES","devices":[{"class":"DEVICE","path":"/dev/ttyUSB0","driver":"SiRF","activated":"2017-12-31T23:49:59.706Z","flags":1,"native":1,"bps":4800,"parity":"N","stopbits":1,"cycle":1.00}]}
2017-12-31 18:50:00 1514764200.190913: {"class":"WATCH","enable":true,"json":false,"nmea":true,"raw":0,"scaled":false,"timing":false,"split24":false,"pps":false}
2017-12-31 18:50:00 1514764200.725784: $GPGSV,3,1,11,22,08,204,24,23,68,282,40,09,36,310,45,03,18,220,37*71
2017-12-31 18:50:00 1514764200.725968: $GPGSV,3,2,11,16,77,036,43,08,16,175,35,31,16,088,28,27,39,144,41*73
2017-12-31 18:50:00 1514764200.726033: $GPGSV,3,3,11,07,10,285,46,26,45,048,44,135,22,240,44*7A
2017-12-31 18:50:00 1514764200.839230: $GPZDA,235001.00,31,12,2017,00,00*66
2017-12-31 18:50:00 1514764200.844475: $GPGGA,235001,3946.9570,N,08404.9844,W,2,11,0.80,306.19,M,-33.324,M,,*71
2017-12-31 18:50:00 1514764200.844568: $GPRMC,235001,A,3946.9570,N,08404.9844,W,0.0000,0.000,311217,,*37
2017-12-31 18:50:00 1514764200.844630: $GPGSA,A,3,22,23,9,3,16,8,31,27,7,26,135,,1.7,0.8,1.3*09
2017-12-31 18:50:01 1514764201.392867: $GPZDA,235002.00,31,12,2017,00,00*65
2017-12-31 18:50:01 1514764201.393035: $GPGGA,235002,3946.9570,N,08404.9844,W,2,11,0.80,306.19,M,-33.324,M,,*72
2017-12-31 18:50:01 1514764201.393101: $GPRMC,235002,A,3946.9570,N,08404.9844,W,0.0000,0.000,311217,,*34
2017-12-31 18:50:01 1514764201.393162: $GPGSA,A,3,22,23,9,3,16,8,31,27,7,26,135,,1.7,0.8,1.3*09
2017-12-31 18:50:02 1514764202.353747: $GPZDA,235003.00,31,12,2017,00,00*64
2017-12-31 18:50:02 1514764202.353905: $GPGGA,235003,3946.9570,N,08404.9844,W,2,11,0.80,306.19,M,-33.324,M,,*73
2017-12-31 18:50:02 1514764202.353973: $GPRMC,235003,A,3946.9570,N,08404.9844,W,0.0000,0.000,311217,,*35
2017-12-31 18:50:02 1514764202.354034: $GPGSA,A,3,22,23,9,3,16,8,31,27,7,26,135,,1.7,0.8,1.3*09
2017-12-31 18:50:03 1514764203.727882: $GPGSV,3,1,11,22,08,204,24,23,68,282,40,09,36,310,44,03,18,220,37*70
2017-12-31 18:50:03 1514764203.728055: $GPGSV,3,2,11,16,77,036,43,08,16,175,36,31,16,088,28,27,39,144,41*70
2017-12-31 18:50:03 1514764203.728122: $GPGSV,3,3,11,07,10,285,48,26,45,048,44,135,22,240,44*74
2017-12-31 18:50:03 1514764203.841556: $GPZDA,235004.00,31,12,2017,00,00*63
2017-12-31 18:50:03 1514764203.841703: $GPGGA,235004,3946.9570,N,08404.9844,W,2,11,0.80,306.19,M,-33.324,M,,*74
2017-12-31 18:50:03 1514764203.841770: $GPRMC,235004,A,3946.9570,N,08404.9844,W,0.0000,0.000,311217,,*32
2017-12-31 18:50:03 1514764203.841831: $GPGSA,A,3,22,23,9,3,16,8,31,27,7,26,135,,1.7,0.8,1.3*09
2017-12-31 18:50:04 1514764204.353881: $GPZDA,235005.00,31,12,2017,00,00*62
2017-12-31 18:50:04 1514764204.354058: $GPGGA,235005,3946.9570,N,08404.9844,W,2,11,0.80,306.19,M,-33.324,M,,*75
2017-12-31 18:50:04 1514764204.354125: $GPRMC,235005,A,3946.9570,N,08404.9844,W,0.0000,0.000,311217,,*33
2017-12-31 18:50:04 1514764204.354185: $GPGSA,A,3,22,23,9,3,16,8,31,27,7,26,135,,1.7,0.8,1.3*09
2017-12-31 18:50:05 1514764205.354023: $GPZDA,235006.00,31,12,2017,00,00*61
2017-12-31 18:50:05 1514764205.354196: $GPGGA,235006,3946.9570,N,08404.9844,W,2,11,0.80,306.19,M,-33.324,M,,*76
2017-12-31 18:50:05 1514764205.354263: $GPRMC,235006,A,3946.9570,N,08404.9844,W,0.0000,0.000,311217,,*30
2017-12-31 18:50:05 1514764205.354324: $GPGSA,A,3,22,23,9,3,16,8,31,27,7,26,135,,1.7,0.8,1.3*09
2017-12-31 18:50:06 1514764206.683258: $GPGSV,3,1,11,22,08,204,24,23,68,282,40,09,36,310,44,03,18,220,38*7F
2017-12-31 18:50:06 1514764206.683421: $GPGSV,3,2,11,16,77,036,43,08,16,175,35,31,16,088,29,27,39,144,41*72
2017-12-31 18:50:06 1514764206.683486: $GPGSV,3,3,11,07,10,285,48,26,45,048,44,135,22,240,43*73
2017-12-31 18:50:06 1514764206.796873: $GPZDA,235007.00,31,12,2017,00,00*60
2017-12-31 18:50:06 1514764206.797023: $GPGGA,235007,3946.9570,N,08404.9844,W,2,11,0.80,306.19,M,-33.324,M,,*77
2017-12-31 18:50:06 1514764206.797089: $GPRMC,235007,A,3946.9570,N,08404.9844,W,0.0000,0.000,311217,,*31
2017-12-31 18:50:06 1514764206.797269: $GPGSA,A,3,22,23,9,3,16,8,31,27,7,26,135,,1.7,0.8,1.3*09
2017-12-31 18:50:07 1514764207.353995: $GPZDA,235008.00,31,12,2017,00,00*6F
2017-12-31 18:50:07 1514764207.354168: $GPGGA,235008,3946.9570,N,08404.9844,W,2,11,0.80,306.19,M,-33.324,M,,*78
2017-12-31 18:50:07 1514764207.354235: $GPRMC,235008,A,3946.9570,N,08404.9844,W,0.0000,0.000,311217,,*3E
2017-12-31 18:50:07 1514764207.354295: $GPGSA,A,3,22,23,9,3,16,8,31,27,7,26,135,,1.7,0.8,1.3*09
2017-12-31 18:50:08 1514764208.392388: $GPZDA,235009.00,31,12,2017,00,00*6E
2017-12-31 18:50:08 1514764208.392558: $GPGGA,235009,3946.9570,N,08404.9844,W,2,11,0.80,306.19,M,-33.324,M,,*79
2017-12-31 18:50:08 1514764208.392625: $GPRMC,235009,A,3946.9570,N,08404.9844,W,0.0000,0.000,311217,,*3F
2017-12-31 18:50:08 1514764208.392685: $GPGSA,A,3,22,23,9,3,16,8,31,27,7,26,135,,1.7,0.8,1.3*09
2017-12-31 18:50:09 1514764209.690352: $GPGSV,3,1,11,22,08,204,23,23,68,282,40,09,36,310,44,03,18,220,39*79
2017-12-31 18:50:09 1514764209.690533: $GPGSV,3,2,11,16,77,036,44,08,16,175,35,31,16,088,29,27,39,144,41*75
2017-12-31 18:50:09 1514764209.690600: $GPGSV,3,3,11,07,10,285,48,26,45,048,44,135,22,240,43*73
2017-12-31 18:50:09 1514764209.802707: $GPZDA,235010.00,31,12,2017,00,00*66
2017-12-31 18:50:09 1514764209.802835: $GPGGA,235010,3946.9574,N,08404.9844,W,2,11,0.80,306.83,M,-33.324,M,,*76
2017-12-31 18:50:09 1514764209.802902: $GPRMC,235010,A,3946.9574,N,08404.9844,W,0.0000,0.000,311217,,*33
2017-12-31 18:50:09 1514764209.802963: $GPGSA,A,3,22,23,9,3,16,8,31,27,7,26,135,,1.7,0.8,1.3*09
