2017-11-15 19:09:16 1510790956.444540: {"class":"VERSION","release":"3.17","rev":"3.17","proto_major":3,"proto_minor":12}
2017-11-15 19:09:16 1510790956.445005: {"class":"DEVICES","devices":[{"class":"DEVICE","path":"/dev/ttyUSB0","driver":"SiRF","subtype":"9\u0006GSD4e_4.1.2-P1_RPATCH.05-F-GPS-4R-1510281 11/03/2015 307","activated":"2017-11-16T00:09:16.419Z","flags":1,"native":1,"bps":4800,"parity":"N","stopbits":1,"cycle":1.00}]}
2017-11-15 19:09:16 1510790956.445127: {"class":"WATCH","enable":true,"json":false,"nmea":true,"raw":0,"scaled":false,"timing":false,"split24":false,"pps":false}
2017-11-15 19:09:17 1510790957.346818: $GPZDA,000916.00,16,11,2017,00,00*6B
2017-11-15 19:09:17 1510790957.346997: $GPGGA,000916,3946.9632,N,08404.9498,W,1,07,1.20,301.60,M,-33.324,M,,*74
2017-11-15 19:09:17 1510790957.347062: $GPRMC,000916,A,3946.9632,N,08404.9498,W,0.2422,273.794,161117,,*38
2017-11-15 19:09:17 1510790957.347119: $GPGSA,A,3,32,14,29,26,31,16,22,,,,,,3.4,1.2,2.9*33
2017-11-15 19:09:18 1510790958.682214: $GPGSV,3,1,11,32,43,099,26,14,61,078,24,29,07,079,10,26,43,175,20*73
2017-11-15 19:09:18 1510790958.682402: $GPGSV,3,2,11,31,74,004,24,16,13,190,20,22,48,285,25,03,34,307,00*70
2017-11-15 19:09:18 1510790958.682463: $GPGSV,3,3,11,25,24,043,00,01,11,259,00,10,06,159,00*4A
2017-11-15 19:09:18 1510790958.795530: $GPZDA,000917.00,16,11,2017,00,00*6A
2017-11-15 19:09:18 1510790958.795694: $GPGGA,000917,3946.9632,N,08404.9498,W,1,06,2.00,301.60,M,-33.324,M,,*75
2017-11-15 19:09:18 1510790958.795757: $GPRMC,000917,A,3946.9632,N,08404.9498,W,0.2422,93.794,161117,,*05
2017-11-15 19:09:18 1510790958.795815: $GPGSA,A,3,32,14,26,31,16,22,,,,,,,3.4,2.0,2.9*39
2017-11-15 19:09:19 1510790959.346534: $GPZDA,000918.00,16,11,2017,00,00*65
2017-11-15 19:09:19 1510790959.346803: $GPGGA,000918,3946.9632,N,08404.9498,W,1,06,2.00,301.60,M,-33.324,M,,*7A
2017-11-15 19:09:19 1510790959.346879: $GPRMC,000918,A,3946.9632,N,08404.9498,W,0.4207,219.347,161117,,*37
2017-11-15 19:09:19 1510790959.346941: $GPGSA,A,3,32,14,26,31,16,22,,,,,,,3.4,2.0,2.9*39
2017-11-15 19:09:20 1510790960.330054: $GPZDA,000919.00,16,11,2017,00,00*64
2017-11-15 19:09:20 1510790960.330231: $GPGGA,000919,3946.9632,N,08404.9498,W,1,06,2.00,301.60,M,-33.324,M,,*7B
2017-11-15 19:09:20 1510790960.330316: $GPRMC,000919,A,3946.9632,N,08404.9498,W,0.7238,140.710,161117,,*30
2017-11-15 19:09:20 1510790960.330376: $GPGSA,A,3,32,14,26,31,16,22,,,,,,,3.4,2.0,2.9*39
2017-11-15 19:09:21 1510790961.682531: $GPGSV,3,1,11,32,43,099,25,14,61,078,24,29,07,079,04,26,43,175,20*75
2017-11-15 19:09:21 1510790961.682698: $GPGSV,3,2,11,31,74,004,24,16,13,190,20,22,48,285,24,01,11,259,01*7F
2017-11-15 19:09:21 1510790961.682760: $GPGSV,3,3,11,03,34,307,00,25,24,043,00,10,06,159,00*45
2017-11-15 19:09:21 1510790961.796126: $GPZDA,000920.00,16,11,2017,00,00*6E
2017-11-15 19:09:21 1510790961.796286: $GPGGA,000920,3946.9628,N,08404.9498,W,1,06,2.00,300.96,M,-33.324,M,,*72
2017-11-15 19:09:21 1510790961.796346: $GPRMC,000920,A,3946.9628,N,08404.9498,W,0.5287,182.716,161117,,*3F
2017-11-15 19:09:21 1510790961.796403: $GPGSA,A,3,32,14,26,31,16,22,,,,,,,3.4,2.0,2.9*39
2017-11-15 19:09:22 1510790962.330423: $GPZDA,000921.00,16,11,2017,00,00*6F
2017-11-15 19:09:22 1510790962.330590: $GPGGA,000921,3946.9625,N,08404.9498,W,1,06,2.00,301.73,M,-33.324,M,,*74
2017-11-15 19:09:22 1510790962.330653: $GPRMC,000921,A,3946.9625,N,08404.9498,W,0.7278,203.636,161117,,*38
2017-11-15 19:09:22 1510790962.330710: $GPGSA,A,3,32,14,26,31,16,22,,,,,,,3.4,2.0,2.9*39
2017-11-15 19:09:23 1510790963.346295: $GPZDA,000922.00,16,11,2017,00,00*6C
2017-11-15 19:09:23 1510790963.346461: $GPGGA,000922,3946.9625,N,08404.9505,W,1,06,2.00,301.65,M,-33.324,M,,*75
2017-11-15 19:09:23 1510790963.346525: $GPRMC,000922,A,3946.9625,N,08404.9505,W,1.0567,197.448,161117,,*34
2017-11-15 19:09:23 1510790963.346580: $GPGSA,A,3,32,14,26,31,16,22,,,,,,,3.4,2.0,2.9*39
2017-11-15 19:09:24 1510790964.680823: $GPGSV,3,1,11,32,43,099,25,14,61,078,24,29,07,079,04,26,43,175,19*7F
2017-11-15 19:09:24 1510790964.681007: $GPGSV,3,2,11,31,74,004,23,16,13,190,20,22,48,285,24,01,11,259,04*7D
2017-11-15 19:09:24 1510790964.681122: $GPGSV,3,3,11,03,34,307,00,25,24,043,00,10,06,159,00*45
2017-11-15 19:09:24 1510790964.794157: $GPZDA,000923.00,16,11,2017,00,00*6D
2017-11-15 19:09:24 1510790964.794326: $GPGGA,000923,3946.9621,N,08404.9505,W,1,06,2.00,301.01,M,-33.324,M,,*72
2017-11-15 19:09:24 1510790964.794387: $GPRMC,000923,A,3946.9621,N,08404.9505,W,1.0567,197.448,161117,,*31
2017-11-15 19:09:24 1510790964.794445: $GPGSA,A,3,32,14,26,31,16,22,,,,,,,3.4,2.0,2.9*39
2017-11-15 19:09:25 1510790965.346276: $GPZDA,000924.00,16,11,2017,00,00*6A
2017-11-15 19:09:25 1510790965.346636: $GPGGA,000924,3946.9618,N,08404.9506,W,1,06,2.00,301.77,M,-33.324,M,,*7D
2017-11-15 19:09:25 1510790965.349229: $GPRMC,000924,A,3946.9618,N,08404.9506,W,1.1385,209.379,161117,,*35
2017-11-15 19:09:25 1510790965.349311: $GPGSA,A,3,32,14,26,31,16,22,,,,,,,3.4,2.0,2.9*39
2017-11-15 19:09:26 1510790966.345391: $GPZDA,000925.00,16,11,2017,00,00*6B
2017-11-15 19:09:26 1510790966.345566: $GPGGA,000925,3946.9613,N,08404.9506,W,1,06,2.00,301.13,M,-33.324,M,,*75
2017-11-15 19:09:26 1510790966.345630: $GPRMC,000925,A,3946.9613,N,08404.9506,W,1.6283,201.001,161117,,*3B
2017-11-15 19:09:26 1510790966.345686: $GPGSA,A,3,32,14,26,31,16,22,,,,,,,3.4,2.0,2.9*39
