2017-11-16 14:13:33 1510859613.770712: {"class":"VERSION","release":"3.17","rev":"3.17","proto_major":3,"proto_minor":12}
2017-11-16 14:13:33 1510859613.771180: {"class":"DEVICES","devices":[{"class":"DEVICE","path":"/dev/ttyUSB0","driver":"SiRF","subtype":"9\u0006GSD4e_4.1.2-P1_RPATCH.05-F-GPS-4R-1510281 11/03/2015 307","activated":"2017-11-16T19:13:33.439Z","flags":1,"native":1,"bps":4800,"parity":"N","stopbits":1,"cycle":1.00}]}
2017-11-16 14:13:33 1510859613.771323: {"class":"WATCH","enable":true,"json":false,"nmea":true,"raw":0,"scaled":false,"timing":false,"split24":false,"pps":false}
2017-11-16 14:13:33 1510859613.887171: $GPGSV,3,1,12,08,06,322,37,10,41,300,39,13,08,048,25,15,38,052,49*78
2017-11-16 14:13:33 1510859613.887316: $GPGSV,3,2,12,18,70,334,46,21,65,192,47,20,33,096,46,24,50,111,48*7B
2017-11-16 14:13:33 1510859613.887376: $GPGSV,3,3,12,27,19,289,38,32,20,237,46,14,04,232,02,138,38,213,44*49
2017-11-16 14:13:34 1510859614.000520: $GPZDA,191332.00,16,11,2017,00,00*6E
2017-11-16 14:13:34 1510859614.000693: $GPGGA,191332,3946.9554,N,08404.9851,W,2,11,0.80,304.96,M,-33.324,M,,*78
2017-11-16 14:13:34 1510859614.000754: $GPRMC,191332,A,3946.9554,N,08404.9851,W,0.0000,0.000,161117,,*3D
2017-11-16 14:13:34 1510859614.000810: $GPGSA,A,3,8,10,13,15,18,21,20,24,27,32,138,,1.6,0.8,1.3*30
2017-11-16 14:13:34 1510859614.627024: $GPZDA,191333.00,16,11,2017,00,00*6F
2017-11-16 14:13:34 1510859614.627204: $GPGGA,191333,3946.9554,N,08404.9851,W,2,11,0.80,304.96,M,-33.324,M,,*79
2017-11-16 14:13:34 1510859614.627268: $GPRMC,191333,A,3946.9554,N,08404.9851,W,0.0000,0.000,161117,,*3C
2017-11-16 14:13:34 1510859614.627323: $GPGSA,A,3,8,10,13,15,18,21,20,24,27,32,138,,1.6,0.8,1.3*30
2017-11-16 14:13:35 1510859615.550266: $GPZDA,191334.00,16,11,2017,00,00*68
2017-11-16 14:13:35 1510859615.550489: $GPGGA,191334,3946.9554,N,08404.9851,W,2,11,0.80,304.96,M,-33.324,M,,*7E
2017-11-16 14:13:35 1510859615.550552: $GPRMC,191334,A,3946.9554,N,08404.9851,W,0.0000,0.000,161117,,*3B
2017-11-16 14:13:35 1510859615.550607: $GPGSA,A,3,8,10,13,15,18,21,20,24,27,32,138,,1.6,0.8,1.3*30
2017-11-16 14:13:36 1510859616.889715: $GPGSV,3,1,12,08,06,322,37,10,41,300,40,13,08,048,26,15,38,052,49*75
2017-11-16 14:13:36 1510859616.889878: $GPGSV,3,2,12,18,70,334,46,21,65,192,47,20,33,096,46,24,50,111,49*7A
2017-11-16 14:13:36 1510859616.889938: $GPGSV,3,3,12,27,19,289,39,32,20,237,46,14,04,232,12,138,38,213,45*48
2017-11-16 14:13:37 1510859617.003029: $GPZDA,191335.00,16,11,2017,00,00*69
2017-11-16 14:13:37 1510859617.003186: $GPGGA,191335,3946.9554,N,08404.9851,W,2,11,0.80,304.96,M,-33.324,M,,*7F
2017-11-16 14:13:37 1510859617.003247: $GPRMC,191335,A,3946.9554,N,08404.9851,W,0.0000,0.000,161117,,*3A
2017-11-16 14:13:37 1510859617.003302: $GPGSA,A,3,8,10,13,15,18,21,20,24,27,32,138,,1.6,0.8,1.3*30
2017-11-16 14:13:37 1510859617.517593: $GPZDA,191336.00,16,11,2017,00,00*6A
2017-11-16 14:13:37 1510859617.517769: $GPGGA,191336,3946.9554,N,08404.9851,W,2,11,0.80,304.96,M,-33.324,M,,*7C
2017-11-16 14:13:37 1510859617.517856: $GPRMC,191336,A,3946.9554,N,08404.9851,W,0.0000,0.000,161117,,*39
2017-11-16 14:13:37 1510859617.517914: $GPGSA,A,3,8,10,13,15,18,21,20,24,27,32,138,,1.6,0.8,1.3*30
2017-11-16 14:13:38 1510859618.515876: $GPZDA,191337.00,16,11,2017,00,00*6B
2017-11-16 14:13:38 1510859618.516041: $GPGGA,191337,3946.9554,N,08404.9851,W,2,11,0.80,304.96,M,-33.324,M,,*7D
2017-11-16 14:13:38 1510859618.516101: $GPRMC,191337,A,3946.9554,N,08404.9851,W,0.0000,0.000,161117,,*38
2017-11-16 14:13:38 1510859618.516157: $GPGSA,A,3,8,10,13,15,18,21,20,24,27,32,138,,1.6,0.8,1.3*30
2017-11-16 14:13:39 1510859619.857295: $GPGSV,3,1,12,08,06,322,37,10,41,300,40,13,08,048,27,15,38,052,49*74
2017-11-16 14:13:39 1510859619.857453: $GPGSV,3,2,12,18,70,334,46,21,65,192,47,20,33,096,46,24,50,111,49*7A
2017-11-16 14:13:39 1510859619.857512: $GPGSV,3,3,12,27,19,289,40,32,20,237,45,14,04,232,13,138,38,213,45*44
2017-11-16 14:13:39 1510859619.970646: $GPZDA,191338.00,16,11,2017,00,00*64
2017-11-16 14:13:39 1510859619.970808: $GPGGA,191338,3946.9554,N,08404.9851,W,2,12,0.80,304.96,M,-33.324,M,,*71
2017-11-16 14:13:39 1510859619.970935: $GPRMC,191338,A,3946.9554,N,08404.9851,W,0.0000,0.000,161117,,*37
2017-11-16 14:13:39 1510859619.970993: $GPGSA,A,3,8,10,13,15,18,21,20,24,27,32,14,138,1.6,0.8,1.3*35
2017-11-16 14:13:40 1510859620.521534: $GPZDA,191339.00,16,11,2017,00,00*65
2017-11-16 14:13:40 1510859620.521729: $GPGGA,191339,3946.9554,N,08404.9851,W,2,12,0.80,304.96,M,-33.324,M,,*70
2017-11-16 14:13:40 1510859620.521793: $GPRMC,191339,A,3946.9554,N,08404.9851,W,0.0000,0.000,161117,,*36
2017-11-16 14:13:40 1510859620.521858: $GPGSA,A,3,8,10,13,15,18,21,20,24,27,32,14,138,1.6,0.8,1.3*35
2017-11-16 14:13:41 1510859621.521112: $GPZDA,191340.00,16,11,2017,00,00*6B
2017-11-16 14:13:41 1510859621.521295: $GPGGA,191340,3946.9554,N,08404.9851,W,2,12,0.80,304.96,M,-33.324,M,,*7E
2017-11-16 14:13:41 1510859621.521357: $GPRMC,191340,A,3946.9554,N,08404.9851,W,0.0000,0.000,161117,,*38
2017-11-16 14:13:41 1510859621.521414: $GPGSA,A,3,8,10,13,15,18,21,20,24,27,32,14,138,1.6,0.8,1.3*35
2017-11-16 14:13:42 1510859622.857988: $GPGSV,3,1,12,08,06,322,37,10,41,300,40,13,08,048,27,15,38,052,50*7C
2017-11-16 14:13:42 1510859622.858167: $GPGSV,3,2,12,18,70,334,46,21,65,192,47,20,33,096,46,24,50,111,49*7A
2017-11-16 14:13:42 1510859622.858228: $GPGSV,3,3,12,27,19,289,41,32,20,237,46,14,04,232,14,138,38,213,44*40
2017-11-16 14:13:42 1510859622.971214: $GPZDA,191341.00,16,11,2017,00,00*6A
2017-11-16 14:13:42 1510859622.971372: $GPGGA,191341,3946.9554,N,08404.9851,W,2,12,0.80,304.96,M,-33.324,M,,*7F
2017-11-16 14:13:42 1510859622.971433: $GPRMC,191341,A,3946.9554,N,08404.9851,W,0.0000,0.000,161117,,*39
2017-11-16 14:13:42 1510859622.971488: $GPGSA,A,3,8,10,13,15,18,21,20,24,27,32,14,138,1.6,0.8,1.3*35
2017-11-16 14:13:43 1510859623.521005: $GPZDA,191342.00,16,11,2017,00,00*69
2017-11-16 14:13:43 1510859623.521163: $GPGGA,191342,3946.9554,N,08404.9851,W,2,12,0.80,304.96,M,-33.324,M,,*7C
2017-11-16 14:13:43 1510859623.521223: $GPRMC,191342,A,3946.9554,N,08404.9851,W,0.0000,0.000,161117,,*3A
2017-11-16 14:13:43 1510859623.521279: $GPGSA,A,3,8,10,13,15,18,21,20,24,27,32,14,138,1.6,0.8,1.3*35
2017-11-16 14:13:44 1510859624.516381: $GPZDA,191343.00,16,11,2017,00,00*68
2017-11-16 14:13:44 1510859624.516555: $GPGGA,191343,3946.9554,N,08404.9851,W,2,12,0.80,304.96,M,-33.324,M,,*7D
2017-11-16 14:13:44 1510859624.516617: $GPRMC,191343,A,3946.9554,N,08404.9851,W,0.0000,0.000,161117,,*3B
2017-11-16 14:13:44 1510859624.516675: $GPGSA,A,3,8,10,13,15,18,21,20,24,27,32,14,138,1.6,0.8,1.3*35
