2017-12-29 11:50:36 1514566236.988656: {"class":"VERSION","release":"3.16","rev":"3.16-4","proto_major":3,"proto_minor":11}
2017-12-29 11:50:36 1514566236.989012: {"class":"DEVICES","devices":[{"class":"DEVICE","path":"/dev/ttyUSB0","driver":"SiRF","subtype":"9\u0006GSD4e_4.1.2-P1_RPATCH.05-F-GPS-4R-1510281 11/03/2015 307","activated":"2017-12-29T16:50:36.927Z","flags":1,"native":1,"bps":4800,"parity":"N","stopbits":1,"cycle":1.00}]}
2017-12-29 11:50:36 1514566236.989131: {"class":"WATCH","enable":true,"json":false,"nmea":true,"raw":0,"scaled":false,"timing":false,"split24":false,"pps":false}
2017-12-29 11:50:37 1514566237.104466: $GPZDA,165037.77,29,12,2017,00,00*6C
2017-12-29 11:50:37 1514566237.104630: $GPGGA,165037,3946.9599,N,08404.9830,W,1,11,1.00,337.15,M,-33.324,M,,*72
2017-12-29 11:50:37 1514566237.104697: $GPRMC,165037,A,3946.9599,N,08404.9830,W,0.8513,216.673,291217,,*31
2017-12-29 11:50:37 1514566237.104760: $GPGSA,A,3,10,14,15,18,20,21,24,32,27,8,138,,1.7,1.0,1.3*3F
2017-12-29 11:50:38 1514566238.026039: $GPZDA,165038.27,29,12,2017,00,00*66
2017-12-29 11:50:38 1514566238.026218: $GPGGA,165038,3946.9593,N,08404.9839,W,1,11,1.00,340.01,M,-33.324,M,,*7B
2017-12-29 11:50:38 1514566238.026289: $GPRMC,165038,A,3946.9593,N,08404.9839,W,0.3423,184.197,291217,,*31
2017-12-29 11:50:38 1514566238.026352: $GPGSA,A,3,10,14,15,18,20,21,24,32,27,8,138,,1.7,1.0,1.3*3F
2017-12-29 11:50:39 1514566239.146076: $GPGSV,3,1,11,08,08,310,42,10,54,313,47,15,24,058,45,18,77,033,45*7B
2017-12-29 11:50:39 1514566239.146270: $GPGSV,3,2,11,20,23,106,48,21,47,183,47,24,53,082,52,27,15,274,40*70
2017-12-29 11:50:39 1514566239.146338: $GPGSV,3,3,11,32,34,249,37,14,15,241,12,138,38,213,29*7B
2017-12-29 11:50:39 1514566239.258133: $GPZDA,165039.00,29,12,2017,00,00*62
2017-12-29 11:50:39 1514566239.258282: $GPGGA,165039,3946.9593,N,08404.9839,W,1,10,1.00,340.01,M,-33.324,M,,*7B
2017-12-29 11:50:39 1514566239.258350: $GPRMC,165039,A,3946.9593,N,08404.9839,W,0.3423,184.197,291217,,*30
2017-12-29 11:50:39 1514566239.258411: $GPGSA,A,3,8,10,15,18,20,21,24,27,32,138,,,1.7,1.0,1.3*3A
2017-12-29 11:50:39 1514566239.710302: $GPZDA,165040.00,29,12,2017,00,00*6C
2017-12-29 11:50:39 1514566239.710473: $GPGGA,165040,3946.9597,N,08404.9839,W,1,10,0.80,339.24,M,-33.324,M,,*71
2017-12-29 11:50:39 1514566239.710555: $GPRMC,165040,A,3946.9597,N,08404.9839,W,0.0000,0.000,291217,,*3E
2017-12-29 11:50:39 1514566239.710619: $GPGSA,A,3,8,10,15,18,20,21,24,27,32,138,,,1.7,0.8,1.3*33
2017-12-29 11:50:40 1514566240.410060: $GPZDA,165041.00,29,12,2017,00,00*6D
2017-12-29 11:50:40 1514566240.410227: $GPGGA,165041,3946.9596,N,08404.9838,W,1,10,1.00,337.84,M,-33.324,M,,*7D
2017-12-29 11:50:40 1514566240.410309: $GPRMC,165041,A,3946.9596,N,08404.9838,W,0.0000,0.000,291217,,*3F
2017-12-29 11:50:40 1514566240.410372: $GPGSA,A,3,8,10,15,18,20,21,24,27,32,138,,,1.7,1.0,1.3*3A
2017-12-29 11:50:41 1514566241.742685: $GPGSV,3,1,11,08,08,310,41,10,54,313,45,15,24,058,45,18,77,033,44*7B
2017-12-29 11:50:41 1514566241.742868: $GPGSV,3,2,11,20,23,106,48,21,47,183,47,24,53,082,51,27,15,274,40*73
2017-12-29 11:50:41 1514566241.742934: $GPGSV,3,3,11,32,34,249,37,14,15,241,27,138,38,213,46*74
2017-12-29 11:50:41 1514566241.856400: $GPZDA,165042.00,29,12,2017,00,00*6E
2017-12-29 11:50:41 1514566241.856576: $GPGGA,165042,3946.9600,N,08404.9844,W,1,11,0.80,336.99,M,-33.324,M,,*7C
2017-12-29 11:50:41 1514566241.856642: $GPRMC,165042,A,3946.9600,N,08404.9844,W,0.0000,0.000,291217,,*3B
2017-12-29 11:50:41 1514566241.856703: $GPGSA,A,3,8,10,15,18,20,21,24,27,32,14,138,,1.7,0.8,1.3*36
2017-12-29 11:50:42 1514566242.407180: $GPZDA,165043.00,29,12,2017,00,00*6F
2017-12-29 11:50:42 1514566242.407354: $GPGGA,165043,3946.9637,N,08404.9888,W,2,11,1.40,320.93,M,-33.324,M,,*7A
2017-12-29 11:50:42 1514566242.407421: $GPRMC,165043,A,3946.9637,N,08404.9888,W,0.0000,0.000,291217,,*3E
2017-12-29 11:50:42 1514566242.407483: $GPGSA,A,3,8,10,15,18,20,21,24,27,32,14,138,,1.7,1.4,1.3*3B
2017-12-29 11:50:43 1514566243.409890: $GPZDA,165044.00,29,12,2017,00,00*68
2017-12-29 11:50:43 1514566243.410105: $GPGGA,165044,3946.9637,N,08404.9888,W,2,11,0.80,320.93,M,-33.324,M,,*70
2017-12-29 11:50:43 1514566243.410246: $GPRMC,165044,A,3946.9637,N,08404.9888,W,0.0000,0.000,291217,,*39
2017-12-29 11:50:43 1514566243.410311: $GPGSA,A,3,8,10,15,18,20,21,24,27,32,14,138,,1.7,0.8,1.3*36
2017-12-29 11:50:43 1514566243.410370: $GPGBS,165044,2.73,M,2.59,M,7.72,M*36
2017-12-29 11:50:44 1514566244.744622: $GPGSV,3,1,11,08,08,310,40,10,54,313,44,15,24,058,45,18,77,033,45*7A
2017-12-29 11:50:44 1514566244.746341: $GPGSV,3,2,11,20,23,106,48,21,47,183,47,24,53,082,51,27,15,274,40*73
2017-12-29 11:50:44 1514566244.746438: $GPGSV,3,3,11,32,34,249,37,14,15,241,30,138,38,213,44*70
2017-12-29 11:50:44 1514566244.858063: $GPZDA,165045.00,29,12,2017,00,00*69
2017-12-29 11:50:44 1514566244.858233: $GPGGA,165045,3946.9639,N,08404.9899,W,2,11,0.80,315.80,M,-33.324,M,,*7B
2017-12-29 11:50:44 1514566244.858299: $GPRMC,165045,A,3946.9639,N,08404.9899,W,0.0000,0.000,291217,,*36
2017-12-29 11:50:44 1514566244.858359: $GPGSA,A,3,8,10,15,18,20,21,24,27,32,14,138,,1.7,0.8,1.3*36
2017-12-29 11:50:45 1514566245.409062: $GPZDA,165046.00,29,12,2017,00,00*6A
2017-12-29 11:50:45 1514566245.409230: $GPGGA,165046,3946.9639,N,08404.9899,W,2,11,0.80,315.80,M,-33.324,M,,*78
2017-12-29 11:50:45 1514566245.409296: $GPRMC,165046,A,3946.9639,N,08404.9899,W,0.0000,0.000,291217,,*35
2017-12-29 11:50:45 1514566245.409357: $GPGSA,A,3,8,10,15,18,20,21,24,27,32,14,138,,1.7,0.8,1.3*36
2017-12-29 11:50:46 1514566246.408016: $GPZDA,165047.00,29,12,2017,00,00*6B
2017-12-29 11:50:46 1514566246.408171: $GPGGA,165047,3946.9639,N,08404.9899,W,2,11,0.80,315.80,M,-33.324,M,,*79
2017-12-29 11:50:46 1514566246.408237: $GPRMC,165047,A,3946.9639,N,08404.9899,W,0.0000,0.000,291217,,*34
2017-12-29 11:50:46 1514566246.408298: $GPGSA,A,3,8,10,15,18,20,21,24,27,32,14,138,,1.7,0.8,1.3*36
2017-12-29 11:50:47 1514566247.745382: $GPGSV,3,1,11,08,08,310,38,10,54,313,44,15,24,058,45,18,77,033,45*75
2017-12-29 11:50:47 1514566247.745586: $GPGSV,3,2,11,20,23,106,48,21,47,183,47,24,53,082,51,27,15,274,39*7D
2017-12-29 11:50:47 1514566247.745667: $GPGSV,3,3,11,32,34,249,37,14,15,241,31,138,38,213,45*70
2017-12-29 11:50:47 1514566247.857390: $GPZDA,165048.00,29,12,2017,00,00*64
2017-12-29 11:50:47 1514566247.857560: $GPGGA,165048,3946.9640,N,08404.9900,W,2,11,0.80,317.20,M,-33.324,M,,*71
2017-12-29 11:50:47 1514566247.857626: $GPRMC,165048,A,3946.9640,N,08404.9900,W,0.0000,0.000,291217,,*34
2017-12-29 11:50:47 1514566247.857687: $GPGSA,A,3,8,10,15,18,20,21,24,27,32,14,138,,1.7,0.8,1.3*36
2017-12-29 11:50:48 1514566248.409372: $GPZDA,165049.00,29,12,2017,00,00*65
2017-12-29 11:50:48 1514566248.409541: $GPGGA,165049,3946.9640,N,08404.9900,W,2,11,0.80,317.20,M,-33.324,M,,*70
2017-12-29 11:50:48 1514566248.409608: $GPRMC,165049,A,3946.9640,N,08404.9900,W,0.0000,0.000,291217,,*35
2017-12-29 11:50:48 1514566248.409669: $GPGSA,A,3,8,10,15,18,20,21,24,27,32,14,138,,1.7,0.8,1.3*36
2017-12-29 11:50:49 1514566249.409093: $GPZDA,165050.00,29,12,2017,00,00*6D
2017-12-29 11:50:49 1514566249.409262: $GPGGA,165050,3946.9640,N,08404.9900,W,2,11,0.80,317.20,M,-33.324,M,,*78
2017-12-29 11:50:49 1514566249.409329: $GPRMC,165050,A,3946.9640,N,08404.9900,W,0.0000,0.000,291217,,*3D
2017-12-29 11:50:49 1514566249.409389: $GPGSA,A,3,8,10,15,18,20,21,24,27,32,14,138,,1.7,0.8,1.3*36
2017-12-29 11:50:50 1514566250.743523: $GPGSV,3,1,11,08,08,310,37,10,54,313,44,15,24,058,46,18,77,033,45*79
2017-12-29 11:50:50 1514566250.743695: $GPGSV,3,2,11,20,23,106,48,21,47,183,47,24,53,082,51,27,15,274,38*7C
2017-12-29 11:50:50 1514566250.743761: $GPGSV,3,3,11,32,34,249,36,14,15,241,31,138,38,213,44*70
2017-12-29 11:50:50 1514566250.857150: $GPZDA,165051.00,29,12,2017,00,00*6C
2017-12-29 11:50:50 1514566250.857317: $GPGGA,165051,3946.9640,N,08404.9900,W,2,11,0.80,317.20,M,-33.324,M,,*79
2017-12-29 11:50:50 1514566250.857383: $GPRMC,165051,A,3946.9640,N,08404.9900,W,0.0000,0.000,291217,,*3C
2017-12-29 11:50:50 1514566250.857444: $GPGSA,A,3,8,10,15,18,20,21,24,27,32,14,138,,1.7,0.8,1.3*36
2017-12-29 11:50:51 1514566251.482268: $GPZDA,165052.00,29,12,2017,00,00*6F
2017-12-29 11:50:51 1514566251.482453: $GPGGA,165052,3946.9640,N,08404.9900,W,2,11,0.80,317.20,M,-33.324,M,,*7A
2017-12-29 11:50:51 1514566251.482523: $GPRMC,165052,A,3946.9640,N,08404.9900,W,0.0000,0.000,291217,,*3F
2017-12-29 11:50:51 1514566251.482584: $GPGSA,A,3,8,10,15,18,20,21,24,27,32,14,138,,1.7,0.8,1.3*36
