2017-12-29 11:03:09 1514563389.597399: {"class":"VERSION","release":"3.16","rev":"3.16-4","proto_major":3,"proto_minor":11}
2017-12-29 11:03:09 1514563389.597745: {"class":"DEVICES","devices":[{"class":"DEVICE","path":"/dev/ttyUSB0","driver":"SiRF","subtype":"9\u0006GSD4e_4.1.2-P1_RPATCH.05-F-GPS-4R-1510281 11/03/2015 307","activated":"2017-12-29T16:03:09.578Z","flags":1,"native":1,"bps":4800,"parity":"N","stopbits":1,"cycle":1.00}]}
2017-12-29 11:03:09 1514563389.597861: {"class":"WATCH","enable":true,"json":false,"nmea":true,"raw":0,"scaled":false,"timing":false,"split24":false,"pps":false}
2017-12-29 11:03:10 1514563390.437582: $GPZDA,160311.00,29,12,2017,00,00*6E
2017-12-29 11:03:10 1514563390.441178: $GPGGA,160311,3946.9602,N,08404.9839,W,2,11,1.00,302.12,M,-33.324,M,,*7A
2017-12-29 11:03:10 1514563390.441301: $GPRMC,160311,A,3946.9602,N,08404.9839,W,0.0000,0.000,291217,,*33
2017-12-29 11:03:10 1514563390.441366: $GPGSA,A,3,10,13,15,18,20,21,24,27,32,8,138,,1.7,1.0,1.3*38
2017-12-29 11:03:11 1514563391.772838: $GPGSV,3,1,11,10,37,297,40,13,13,046,33,15,43,051,50,18,67,325,43*7D
2017-12-29 11:03:11 1514563391.772998: $GPGSV,3,2,11,20,39,090,49,21,70,196,46,24,47,120,48,27,19,295,38*7E
2017-12-29 11:03:11 1514563391.773064: $GPGSV,3,3,11,32,16,234,35,08,03,328,24,138,38,213,44*79
2017-12-29 11:03:11 1514563391.886300: $GPZDA,160312.00,29,12,2017,00,00*6D
2017-12-29 11:03:11 1514563391.886437: $GPGGA,160312,3946.9602,N,08404.9839,W,2,11,1.00,302.12,M,-33.324,M,,*79
2017-12-29 11:03:11 1514563391.886503: $GPRMC,160312,A,3946.9602,N,08404.9839,W,0.0000,0.000,291217,,*30
2017-12-29 11:03:11 1514563391.886562: $GPGSA,A,3,10,13,15,18,20,21,24,27,32,8,138,,1.7,1.0,1.3*38
2017-12-29 11:03:12 1514563392.437039: $GPZDA,160313.00,29,12,2017,00,00*6C
2017-12-29 11:03:12 1514563392.437181: $GPGGA,160313,3946.9606,N,08404.9839,W,2,11,1.00,302.76,M,-33.324,M,,*7E
2017-12-29 11:03:12 1514563392.437248: $GPRMC,160313,A,3946.9606,N,08404.9839,W,0.0000,0.000,291217,,*35
2017-12-29 11:03:12 1514563392.437308: $GPGSA,A,3,10,13,15,18,20,21,24,27,32,8,138,,1.7,1.0,1.3*38
2017-12-29 11:03:13 1514563393.437932: $GPZDA,160314.00,29,12,2017,00,00*6B
2017-12-29 11:03:13 1514563393.438089: $GPGGA,160314,3946.9606,N,08404.9839,W,2,11,1.00,302.76,M,-33.324,M,,*79
2017-12-29 11:03:13 1514563393.438156: $GPRMC,160314,A,3946.9606,N,08404.9839,W,0.0000,0.000,291217,,*32
2017-12-29 11:03:13 1514563393.438217: $GPGSA,A,3,10,13,15,18,20,21,24,27,32,8,138,,1.7,1.0,1.3*38
2017-12-29 11:03:14 1514563394.789939: $GPGSV,3,1,11,10,37,297,40,13,13,046,32,15,43,051,50,18,67,325,43*7C
2017-12-29 11:03:14 1514563394.790119: $GPGSV,3,2,11,20,39,090,49,21,70,196,46,24,47,120,48,27,19,295,39*7F
2017-12-29 11:03:14 1514563394.790185: $GPGSV,3,3,11,32,16,234,34,08,03,328,24,138,38,213,45*79
2017-12-29 11:03:14 1514563394.903280: $GPZDA,160315.00,29,12,2017,00,00*6A
2017-12-29 11:03:14 1514563394.903410: $GPGGA,160315,3946.9606,N,08404.9839,W,2,11,1.00,302.76,M,-33.324,M,,*78
2017-12-29 11:03:14 1514563394.903474: $GPRMC,160315,A,3946.9606,N,08404.9839,W,0.0000,0.000,291217,,*33
2017-12-29 11:03:14 1514563394.903533: $GPGSA,A,3,10,13,15,18,20,21,24,27,32,8,138,,1.7,1.0,1.3*38
2017-12-29 11:03:15 1514563395.452870: $GPZDA,160316.00,29,12,2017,00,00*69
2017-12-29 11:03:15 1514563395.455186: $GPGGA,160316,3946.9606,N,08404.9839,W,2,11,1.00,302.76,M,-33.324,M,,*7B
2017-12-29 11:03:15 1514563395.455282: $GPRMC,160316,A,3946.9606,N,08404.9839,W,0.0000,0.000,291217,,*30
2017-12-29 11:03:15 1514563395.455345: $GPGSA,A,3,10,13,15,18,20,21,24,27,32,8,138,,1.7,1.0,1.3*38
2017-12-29 11:03:16 1514563396.448309: $GPZDA,160317.00,29,12,2017,00,00*68
2017-12-29 11:03:16 1514563396.448454: $GPGGA,160317,3946.9606,N,08404.9839,W,2,11,1.00,302.76,M,-33.324,M,,*7A
2017-12-29 11:03:16 1514563396.448520: $GPRMC,160317,A,3946.9606,N,08404.9839,W,0.0000,0.000,291217,,*31
2017-12-29 11:03:16 1514563396.448582: $GPGSA,A,3,10,13,15,18,20,21,24,27,32,8,138,,1.7,1.0,1.3*38
2017-12-29 11:03:17 1514563397.790308: $GPGSV,3,1,11,10,37,297,40,13,13,046,32,15,43,051,50,18,67,325,43*7C
2017-12-29 11:03:17 1514563397.790537: $GPGSV,3,2,11,20,39,090,49,21,70,196,46,24,47,120,48,27,19,295,39*7F
2017-12-29 11:03:17 1514563397.790604: $GPGSV,3,3,11,32,16,234,34,08,03,328,24,138,38,213,46*7A
2017-12-29 11:03:17 1514563397.903635: $GPZDA,160318.00,29,12,2017,00,00*67
2017-12-29 11:03:17 1514563397.903766: $GPGGA,160318,3946.9606,N,08404.9839,W,2,11,1.00,302.76,M,-33.324,M,,*75
2017-12-29 11:03:17 1514563397.903830: $GPRMC,160318,A,3946.9606,N,08404.9839,W,0.0000,0.000,291217,,*3E
2017-12-29 11:03:17 1514563397.903890: $GPGSA,A,3,10,13,15,18,20,21,24,27,32,8,138,,1.7,1.0,1.3*38
2017-12-29 11:03:18 1514563398.455994: $GPZDA,160319.00,29,12,2017,00,00*66
2017-12-29 11:03:18 1514563398.456126: $GPGGA,160319,3946.9606,N,08404.9839,W,2,11,1.00,302.76,M,-33.324,M,,*74
2017-12-29 11:03:18 1514563398.456190: $GPRMC,160319,A,3946.9606,N,08404.9839,W,0.0000,0.000,291217,,*3F
2017-12-29 11:03:18 1514563398.456248: $GPGSA,A,3,10,13,15,18,20,21,24,27,32,8,138,,1.7,1.0,1.3*38
2017-12-29 11:03:19 1514563399.438193: $GPZDA,160320.00,29,12,2017,00,00*6C
2017-12-29 11:03:19 1514563399.438355: $GPGGA,160320,3946.9606,N,08404.9839,W,2,11,1.00,302.76,M,-33.324,M,,*7E
2017-12-29 11:03:19 1514563399.438422: $GPRMC,160320,A,3946.9606,N,08404.9839,W,0.0000,0.000,291217,,*35
2017-12-29 11:03:19 1514563399.438483: $GPGSA,A,3,10,13,15,18,20,21,24,27,32,8,138,,1.7,1.0,1.3*38
2017-12-29 11:03:20 1514563400.789912: $GPGSV,3,1,11,10,37,297,41,13,13,046,32,15,43,051,50,18,67,325,43*7D
2017-12-29 11:03:20 1514563400.790093: $GPGSV,3,2,11,20,39,090,49,21,70,196,46,24,47,120,48,27,19,295,39*7F
2017-12-29 11:03:20 1514563400.790160: $GPGSV,3,3,11,32,16,234,27,08,03,328,24,138,38,213,45*7B
2017-12-29 11:03:20 1514563400.903530: $GPZDA,160321.00,29,12,2017,00,00*6D
2017-12-29 11:03:20 1514563400.903668: $GPGGA,160321,3946.9606,N,08404.9839,W,2,11,1.00,302.76,M,-33.324,M,,*7F
2017-12-29 11:03:20 1514563400.903733: $GPRMC,160321,A,3946.9606,N,08404.9839,W,0.0000,0.000,291217,,*34
2017-12-29 11:03:20 1514563400.903794: $GPGSA,A,3,10,13,15,18,20,21,24,27,32,8,138,,1.7,1.0,1.3*38
2017-12-29 11:03:21 1514563401.528888: $GPZDA,160322.00,29,12,2017,00,00*6E
2017-12-29 11:03:21 1514563401.529022: $GPGGA,160322,3946.9606,N,08404.9839,W,2,11,1.20,302.76,M,-33.324,M,,*7E
2017-12-29 11:03:21 1514563401.529086: $GPRMC,160322,A,3946.9606,N,08404.9839,W,0.0000,0.000,291217,,*37
2017-12-29 11:03:21 1514563401.529146: $GPGSA,A,3,10,13,15,18,20,21,24,27,32,8,138,,1.7,1.2,1.3*3A
2017-12-29 11:03:22 1514563402.456050: $GPZDA,160323.00,29,12,2017,00,00*6F
2017-12-29 11:03:22 1514563402.456217: $GPGGA,160323,3946.9606,N,08404.9839,W,2,11,1.20,302.76,M,-33.324,M,,*7F
2017-12-29 11:03:22 1514563402.456283: $GPRMC,160323,A,3946.9606,N,08404.9839,W,0.0000,0.000,291217,,*36
2017-12-29 11:03:22 1514563402.456343: $GPGSA,A,3,10,13,15,18,20,21,24,27,32,8,138,,1.7,1.2,1.3*3A
2017-12-29 11:03:23 1514563403.790292: $GPGSV,3,1,11,10,37,297,42,13,13,046,31,15,43,051,50,18,67,325,43*7D
2017-12-29 11:03:23 1514563403.790469: $GPGSV,3,2,11,20,39,090,50,21,70,196,47,24,47,120,49,27,19,295,39*77
2017-12-29 11:03:23 1514563403.790535: $GPGSV,3,3,11,32,16,234,26,08,03,328,25,138,38,213,45*7B
2017-12-29 11:03:23 1514563403.903998: $GPZDA,160324.00,29,12,2017,00,00*68
2017-12-29 11:03:23 1514563403.904130: $GPGGA,160324,3946.9606,N,08404.9839,W,2,11,1.20,302.76,M,-33.324,M,,*78
2017-12-29 11:03:23 1514563403.904194: $GPRMC,160324,A,3946.9606,N,08404.9839,W,0.0000,0.000,291217,,*31
2017-12-29 11:03:23 1514563403.904254: $GPGSA,A,3,10,13,15,18,20,21,24,27,32,8,138,,1.7,1.2,1.3*3A
2017-12-29 11:03:24 1514563404.438547: $GPZDA,160325.00,29,12,2017,00,00*69
2017-12-29 11:03:24 1514563404.438720: $GPGGA,160325,3946.9606,N,08404.9839,W,2,11,1.20,302.76,M,-33.324,M,,*79
2017-12-29 11:03:24 1514563404.438789: $GPRMC,160325,A,3946.9606,N,08404.9839,W,0.0000,0.000,291217,,*30
2017-12-29 11:03:24 1514563404.438852: $GPGSA,A,3,10,13,15,18,20,21,24,27,32,8,138,,1.7,1.2,1.3*3A
2017-12-29 11:03:25 1514563405.455661: $GPZDA,160326.00,29,12,2017,00,00*6A
2017-12-29 11:03:25 1514563405.455868: $GPGGA,160326,3946.9606,N,08404.9839,W,2,11,1.20,302.76,M,-33.324,M,,*7A
2017-12-29 11:03:25 1514563405.455936: $GPRMC,160326,A,3946.9606,N,08404.9839,W,0.0000,0.000,291217,,*33
2017-12-29 11:03:25 1514563405.455997: $GPGSA,A,3,10,13,15,18,20,21,24,27,32,8,138,,1.7,1.2,1.3*3A
2017-12-29 11:03:26 1514563406.775639: $GPGSV,3,1,11,10,37,297,43,13,13,046,31,15,43,051,50,18,67,325,44*7B
2017-12-29 11:03:26 1514563406.775819: $GPGSV,3,2,11,20,39,090,50,21,70,196,47,24,47,120,49,27,19,295,38*76
2017-12-29 11:03:26 1514563406.775885: $GPGSV,3,3,11,32,16,234,26,08,03,328,25,138,38,213,45*7B
2017-12-29 11:03:26 1514563406.888007: $GPZDA,160327.00,29,12,2017,00,00*6B
2017-12-29 11:03:26 1514563406.888138: $GPGGA,160327,3946.9606,N,08404.9839,W,2,11,1.20,302.76,M,-33.324,M,,*7B
2017-12-29 11:03:26 1514563406.888203: $GPRMC,160327,A,3946.9606,N,08404.9839,W,0.0000,0.000,291217,,*32
2017-12-29 11:03:26 1514563406.888262: $GPGSA,A,3,10,13,15,18,20,21,24,27,32,8,138,,1.7,1.2,1.3*3A
2017-12-29 11:03:27 1514563407.450117: $GPZDA,160328.00,29,12,2017,00,00*64
2017-12-29 11:03:27 1514563407.450253: $GPGGA,160328,3946.9606,N,08404.9839,W,2,11,1.20,302.76,M,-33.324,M,,*74
2017-12-29 11:03:27 1514563407.450317: $GPRMC,160328,A,3946.9606,N,08404.9839,W,0.0000,0.000,291217,,*3D
2017-12-29 11:03:27 1514563407.450377: $GPGSA,A,3,10,13,15,18,20,21,24,27,32,8,138,,1.7,1.2,1.3*3A
2017-12-29 11:03:28 1514563408.454777: $GPZDA,160329.00,29,12,2017,00,00*65
2017-12-29 11:03:28 1514563408.454932: $GPGGA,160329,3946.9606,N,08404.9839,W,2,11,1.20,302.76,M,-33.324,M,,*75
2017-12-29 11:03:28 1514563408.454999: $GPRMC,160329,A,3946.9606,N,08404.9839,W,0.0000,0.000,291217,,*3C
2017-12-29 11:03:28 1514563408.455060: $GPGSA,A,3,10,13,15,18,20,21,24,27,32,8,138,,1.7,1.2,1.3*3A
