2017-11-16 15:30:01 1510864201.996305: {"class":"VERSION","release":"3.17","rev":"3.17","proto_major":3,"proto_minor":12}
2017-11-16 15:30:01 1510864201.996801: {"class":"DEVICES","devices":[{"class":"DEVICE","path":"/dev/ttyUSB0","driver":"SiRF","subtype":"9\u0006GSD4e_4.1.2-P1_RPATCH.05-F-GPS-4R-1510281 11/03/2015 307","activated":"2017-11-16T20:30:01.959Z","flags":1,"native":1,"bps":4800,"parity":"N","stopbits":1,"cycle":1.00}]}
2017-11-16 15:30:01 1510864201.996933: {"class":"WATCH","enable":true,"json":false,"nmea":true,"raw":0,"scaled":false,"timing":false,"split24":false,"pps":false}
2017-11-16 15:30:02 1510864202.366377: $GPZDA,203001.00,16,11,2017,00,00*65
2017-11-16 15:30:02 1510864202.366540: $GPGGA,203001,3946.9568,N,08404.9860,W,2,12,0.80,309.61,M,-33.324,M,,*78
2017-11-16 15:30:02 1510864202.366600: $GPRMC,203001,A,3946.9568,N,08404.9860,W,0.0000,0.000,161117,,*3B
2017-11-16 15:30:02 1510864202.366656: $GPGSA,A,3,8,10,14,20,18,15,21,24,27,32,12,138,1.6,0.8,1.3*34
2017-11-16 15:30:03 1510864203.383543: $GPZDA,203002.00,16,11,2017,00,00*66
2017-11-16 15:30:03 1510864203.383702: $GPGGA,203002,3946.9568,N,08404.9860,W,2,12,0.80,309.61,M,-33.324,M,,*7B
2017-11-16 15:30:03 1510864203.383762: $GPRMC,203002,A,3946.9568,N,08404.9860,W,0.0000,0.000,161117,,*38
2017-11-16 15:30:03 1510864203.383818: $GPGSA,A,3,8,10,14,20,18,15,21,24,27,32,12,138,1.6,0.8,1.3*34
2017-11-16 15:30:04 1510864204.696700: $GPGSV,3,1,12,08,05,292,35,10,70,333,51,14,30,255,45,20,07,118,16*74
2017-11-16 15:30:04 1510864204.696880: $GPGSV,3,2,12,18,70,097,48,15,10,067,31,21,28,180,42,24,44,057,51*77
2017-11-16 15:30:04 1510864204.696941: $GPGSV,3,3,12,27,05,258,27,32,47,267,47,12,10,106,35,138,38,213,45*41
2017-11-16 15:30:04 1510864204.810023: $GPZDA,203003.00,16,11,2017,00,00*67
2017-11-16 15:30:04 1510864204.810183: $GPGGA,203003,3946.9568,N,08404.9860,W,2,12,0.80,309.61,M,-33.324,M,,*7A
2017-11-16 15:30:04 1510864204.810243: $GPRMC,203003,A,3946.9568,N,08404.9860,W,0.0000,0.000,161117,,*39
2017-11-16 15:30:04 1510864204.810354: $GPGSA,A,3,8,10,14,20,18,15,21,24,27,32,12,138,1.6,0.8,1.3*34
2017-11-16 15:30:05 1510864205.385190: $GPZDA,203004.00,16,11,2017,00,00*60
2017-11-16 15:30:05 1510864205.385354: $GPGGA,203004,3946.9568,N,08404.9860,W,2,12,0.80,309.61,M,-33.324,M,,*7D
2017-11-16 15:30:05 1510864205.385416: $GPRMC,203004,A,3946.9568,N,08404.9860,W,0.0000,0.000,161117,,*3E
2017-11-16 15:30:05 1510864205.385472: $GPGSA,A,3,8,10,14,20,18,15,21,24,27,32,12,138,1.6,0.8,1.3*34
2017-11-16 15:30:06 1510864206.369369: $GPZDA,203005.00,16,11,2017,00,00*61
2017-11-16 15:30:06 1510864206.369487: $GPGGA,203005,3946.9568,N,08404.9860,W,2,12,0.80,309.61,M,-33.324,M,,*7C
2017-11-16 15:30:06 1510864206.369518: $GPRMC,203005,A,3946.9568,N,08404.9860,W,0.0000,0.000,161117,,*3F
2017-11-16 15:30:06 1510864206.369546: $GPGSA,A,3,8,10,14,20,18,15,21,24,27,32,12,138,1.6,0.8,1.3*34
2017-11-16 15:30:07 1510864207.703112: $GPGSV,3,1,12,08,05,292,36,10,70,333,51,14,30,255,45,20,07,118,16*77
2017-11-16 15:30:07 1510864207.703225: $GPGSV,3,2,12,18,70,097,48,15,10,067,31,21,28,180,42,24,44,057,51*77
2017-11-16 15:30:07 1510864207.703256: $GPGSV,3,3,12,27,05,258,28,32,47,267,47,12,10,106,35,138,38,213,44*4F
2017-11-16 15:30:07 1510864207.816657: $GPZDA,203006.00,16,11,2017,00,00*62
2017-11-16 15:30:07 1510864207.816855: $GPGGA,203006,3946.9568,N,08404.9860,W,2,12,0.80,309.61,M,-33.324,M,,*7F
2017-11-16 15:30:07 1510864207.816917: $GPRMC,203006,A,3946.9568,N,08404.9860,W,0.0000,0.000,161117,,*3C
2017-11-16 15:30:07 1510864207.816990: $GPGSA,A,3,8,10,14,20,18,15,21,24,27,32,12,138,1.6,0.8,1.3*34
2017-11-16 15:30:08 1510864208.383724: $GPZDA,203007.00,16,11,2017,00,00*63
2017-11-16 15:30:08 1510864208.383927: $GPGGA,203007,3946.9568,N,08404.9860,W,2,12,0.80,309.61,M,-33.324,M,,*7E
2017-11-16 15:30:08 1510864208.383990: $GPRMC,203007,A,3946.9568,N,08404.9860,W,0.0000,0.000,161117,,*3D
2017-11-16 15:30:08 1510864208.384046: $GPGSA,A,3,8,10,14,20,18,15,21,24,27,32,12,138,1.6,0.8,1.3*34
2017-11-16 15:30:09 1510864209.368333: $GPZDA,203008.00,16,11,2017,00,00*6C
2017-11-16 15:30:09 1510864209.368548: $GPGGA,203008,3946.9568,N,08404.9860,W,2,12,0.80,309.61,M,-33.324,M,,*71
2017-11-16 15:30:09 1510864209.368613: $GPRMC,203008,A,3946.9568,N,08404.9860,W,0.0000,0.000,161117,,*32
2017-11-16 15:30:09 1510864209.368668: $GPGSA,A,3,8,10,14,20,18,15,21,24,27,32,12,138,1.6,0.8,1.3*34
2017-11-16 15:30:10 1510864210.719117: $GPGSV,3,1,12,08,05,292,37,10,70,333,51,14,30,255,45,20,07,118,18*78
2017-11-16 15:30:10 1510864210.719288: $GPGSV,3,2,12,18,70,097,48,15,10,067,31,21,28,180,42,24,44,057,51*77
2017-11-16 15:30:10 1510864210.719348: $GPGSV,3,3,12,27,05,258,28,32,47,267,46,12,10,106,35,138,38,213,44*4E
2017-11-16 15:30:10 1510864210.832850: $GPZDA,203009.00,16,11,2017,00,00*6D
2017-11-16 15:30:10 1510864210.833030: $GPGGA,203009,3946.9568,N,08404.9860,W,2,12,0.80,309.61,M,-33.324,M,,*70
2017-11-16 15:30:10 1510864210.833091: $GPRMC,203009,A,3946.9568,N,08404.9860,W,0.0000,0.000,161117,,*33
2017-11-16 15:30:10 1510864210.833147: $GPGSA,A,3,8,10,14,20,18,15,21,24,27,32,12,138,1.6,0.8,1.3*34
2017-11-16 15:30:11 1510864211.457806: $GPZDA,203010.00,16,11,2017,00,00*65
2017-11-16 15:30:11 1510864211.458066: $GPGGA,203010,3946.9568,N,08404.9860,W,2,12,0.80,309.61,M,-33.324,M,,*78
2017-11-16 15:30:11 1510864211.458154: $GPRMC,203010,A,3946.9568,N,08404.9860,W,0.0000,0.000,161117,,*3B
2017-11-16 15:30:11 1510864211.458212: $GPGSA,A,3,8,10,14,20,18,15,21,24,27,32,12,138,1.6,0.8,1.3*34
