2017-11-15 19:33:18 1510792398.002604: {"class":"VERSION","release":"3.17","rev":"3.17","proto_major":3,"proto_minor":12}
2017-11-15 19:33:18 1510792398.003027: {"class":"DEVICES","devices":[{"class":"DEVICE","path":"/dev/ttyUSB0","driver":"SiRF","subtype":"9\u0006GSD4e_4.1.2-P1_RPATCH.05-F-GPS-4R-1510281 11/03/2015 307","activated":"2017-11-16T00:33:17.488Z","flags":1,"native":1,"bps":4800,"parity":"N","stopbits":1,"cycle":1.00}]}
2017-11-15 19:33:18 1510792398.003135: {"class":"WATCH","enable":true,"json":false,"nmea":true,"raw":0,"scaled":false,"timing":false,"split24":false,"pps":false}
2017-11-15 19:33:18 1510792398.682162: $GPGSV,3,1,11,32,35,109,25,14,54,094,17,16,24,190,06,26,55,172,18*7A
2017-11-15 19:33:18 1510792398.682334: $GPGSV,3,2,11,29,11,070,06,31,66,027,16,03,40,297,19,25,16,039,00*7B
2017-11-15 19:33:18 1510792398.682394: $GPGSV,3,3,11,23,12,301,00,01,05,252,00,22,50,268,21*42
2017-11-15 19:33:18 1510792398.795763: $GPZDA,003317.00,16,11,2017,00,00*63
2017-11-15 19:33:18 1510792398.795923: $GPGGA,003317,3946.9580,N,08404.9438,W,1,06,1.40,286.77,M,-33.324,M,,*73
2017-11-15 19:33:18 1510792398.795983: $GPRMC,003317,A,3946.9580,N,08404.9438,W,1.3305,117.203,161117,,*38
2017-11-15 19:33:18 1510792398.796038: $GPGSA,A,3,32,14,26,31,3,22,,,,,,,3.4,1.4,2.9*0A
2017-11-15 19:33:19 1510792399.331283: $GPZDA,003318.00,16,11,2017,00,00*6C
2017-11-15 19:33:19 1510792399.331492: $GPGGA,003318,3946.9580,N,08404.9438,W,1,06,1.60,286.77,M,-33.324,M,,*7E
2017-11-15 19:33:19 1510792399.331554: $GPRMC,003318,A,3946.9580,N,08404.9438,W,1.3305,117.203,161117,,*37
2017-11-15 19:33:19 1510792399.331610: $GPGSA,A,3,32,14,26,31,3,22,,,,,,,3.4,1.6,2.9*08
2017-11-15 19:33:20 1510792400.329698: $GPZDA,003319.00,16,11,2017,00,00*6D
2017-11-15 19:33:20 1510792400.329884: $GPGGA,003319,3946.9580,N,08404.9438,W,1,06,1.60,286.77,M,-33.324,M,,*7F
2017-11-15 19:33:20 1510792400.329948: $GPRMC,003319,A,3946.9580,N,08404.9438,W,0.8011,119.090,161117,,*3C
2017-11-15 19:33:20 1510792400.330005: $GPGSA,A,3,32,14,26,31,3,22,,,,,,,3.4,1.6,2.9*08
2017-11-15 19:33:21 1510792401.682450: $GPGSV,3,1,11,32,35,109,25,14,54,094,17,16,24,190,09,26,55,172,18*75
2017-11-15 19:33:21 1510792401.682621: $GPGSV,3,2,11,29,11,070,06,31,66,027,16,03,40,297,19,25,16,039,00*7B
2017-11-15 19:33:21 1510792401.682681: $GPGSV,3,3,11,23,12,301,00,01,05,252,00,22,50,268,21*42
2017-11-15 19:33:21 1510792401.796012: $GPZDA,003320.00,16,11,2017,00,00*67
2017-11-15 19:33:21 1510792401.801743: $GPGGA,003320,3946.9580,N,08404.9438,W,1,08,1.60,286.77,M,-33.324,M,,*7B
2017-11-15 19:33:21 1510792401.801844: $GPRMC,003320,A,3946.9580,N,08404.9438,W,0.8011,119.090,161117,,*36
2017-11-15 19:33:21 1510792401.801903: $GPGSA,A,3,32,14,16,26,29,31,3,22,,,,,3.4,1.6,2.9*04
2017-11-15 19:33:22 1510792402.329134: $GPZDA,003321.00,16,11,2017,00,00*66
2017-11-15 19:33:22 1510792402.329309: $GPGGA,003321,3946.9579,N,08404.9431,W,1,08,1.60,286.85,M,-33.324,M,,*78
2017-11-15 19:33:22 1510792402.329370: $GPRMC,003321,A,3946.9579,N,08404.9431,W,0.5912,129.173,161117,,*30
2017-11-15 19:33:22 1510792402.329427: $GPGSA,A,3,32,14,16,26,29,31,3,22,,,,,3.4,1.6,2.9*04
2017-11-15 19:33:23 1510792403.346530: $GPZDA,003322.00,16,11,2017,00,00*65
2017-11-15 19:33:23 1510792403.346691: $GPGGA,003322,3946.9576,N,08404.9431,W,1,08,1.60,287.62,M,-33.324,M,,*7C
2017-11-15 19:33:23 1510792403.346803: $GPRMC,003322,A,3946.9576,N,08404.9431,W,0.7238,140.710,161117,,*31
2017-11-15 19:33:23 1510792403.346861: $GPGSA,A,3,32,14,16,26,29,31,3,22,,,,,3.4,1.6,2.9*04
2017-11-15 19:33:24 1510792404.682098: $GPGSV,3,1,11,32,35,109,25,14,54,094,17,16,24,190,13,26,55,172,18*7E
2017-11-15 19:33:24 1510792404.682272: $GPGSV,3,2,11,29,11,070,14,31,66,027,16,03,40,297,19,25,16,039,00*78
2017-11-15 19:33:24 1510792404.682331: $GPGSV,3,3,11,23,12,301,00,01,05,252,00,22,50,268,20*43
2017-11-15 19:33:24 1510792404.795774: $GPZDA,003323.00,16,11,2017,00,00*64
2017-11-15 19:33:24 1510792404.795931: $GPGGA,003323,3946.9576,N,08404.9438,W,1,08,1.40,287.54,M,-33.324,M,,*73
2017-11-15 19:33:24 1510792404.795990: $GPRMC,003323,A,3946.9576,N,08404.9438,W,1.0269,184.197,161117,,*3A
2017-11-15 19:33:24 1510792404.796096: $GPGSA,A,3,32,14,16,26,29,31,3,22,,,,,3.4,1.4,2.9*06
2017-11-15 19:33:25 1510792405.346627: $GPZDA,003324.00,16,11,2017,00,00*63
2017-11-15 19:33:25 1510792405.346870: $GPGGA,003324,3946.9572,N,08404.9438,W,1,08,1.40,286.90,M,-33.324,M,,*79
2017-11-15 19:33:25 1510792405.346935: $GPRMC,003324,A,3946.9572,N,08404.9438,W,1.3692,184.197,161117,,*3A
2017-11-15 19:33:25 1510792405.346991: $GPGSA,A,3,32,14,16,26,29,31,3,22,,,,,3.4,1.4,2.9*06
2017-11-15 19:33:26 1510792406.330804: $GPZDA,003325.00,16,11,2017,00,00*62
2017-11-15 19:33:26 1510792406.330971: $GPGGA,003325,3946.9569,N,08404.9439,W,1,08,1.40,287.66,M,-33.324,M,,*7B
2017-11-15 19:33:26 1510792406.331031: $GPRMC,003325,A,3946.9569,N,08404.9439,W,1.3692,184.197,161117,,*30
2017-11-15 19:33:26 1510792406.331087: $GPGSA,A,3,32,14,16,26,29,31,3,22,,,,,3.4,1.4,2.9*06
2017-11-15 19:33:27 1510792407.666311: $GPGSV,3,1,11,32,35,109,25,14,54,094,17,16,24,190,14,26,55,172,17*76
2017-11-15 19:33:27 1510792407.666534: $GPGSV,3,2,11,29,11,070,14,31,66,027,16,03,40,297,19,25,16,039,00*78
2017-11-15 19:33:27 1510792407.666608: $GPGSV,3,3,11,23,12,301,00,01,05,252,00,22,50,268,20*43
2017-11-15 19:33:27 1510792407.779796: $GPZDA,003326.00,16,11,2017,00,00*61
2017-11-15 19:33:27 1510792407.779953: $GPGGA,003326,3946.9569,N,08404.9439,W,1,08,1.40,287.66,M,-33.324,M,,*78
2017-11-15 19:33:27 1510792407.780013: $GPRMC,003326,A,3946.9569,N,08404.9439,W,1.0567,197.448,161117,,*3C
2017-11-15 19:33:27 1510792407.780068: $GPGSA,A,3,32,14,16,26,29,31,3,22,,,,,3.4,1.4,2.9*06
