2017-11-16 15:30:32 1510864232.301616: {"class":"VERSION","release":"3.17","rev":"3.17","proto_major":3,"proto_minor":12}
2017-11-16 15:30:32 1510864232.302424: {"class":"DEVICES","devices":[{"class":"DEVICE","path":"/dev/ttyUSB0","driver":"SiRF","subtype":"9\u0006GSD4e_4.1.2-P1_RPATCH.05-F-GPS-4R-1510281 11/03/2015 307","activated":"2017-11-16T20:30:32.273Z","flags":1,"native":1,"bps":4800,"parity":"N","stopbits":1,"cycle":1.00}]}
2017-11-16 15:30:32 1510864232.302499: {"class":"WATCH","enable":true,"json":false,"nmea":true,"raw":0,"scaled":false,"timing":false,"split24":false,"pps":false}
2017-11-16 15:30:32 1510864232.386265: $GPZDA,203031.00,16,11,2017,00,00*66
2017-11-16 15:30:32 1510864232.386366: $GPGGA,203031,3946.9568,N,08404.9860,W,2,12,0.80,309.61,M,-33.324,M,,*7B
2017-11-16 15:30:32 1510864232.386398: $GPRMC,203031,A,3946.9568,N,08404.9860,W,0.0000,0.000,161117,,*38
2017-11-16 15:30:32 1510864232.386427: $GPGSA,A,3,8,10,14,20,18,15,21,24,27,32,12,138,1.6,0.8,1.3*34
2017-11-16 15:30:33 1510864233.366591: $GPZDA,203032.00,16,11,2017,00,00*65
2017-11-16 15:30:33 1510864233.366768: $GPGGA,203032,3946.9568,N,08404.9860,W,2,12,0.80,309.61,M,-33.324,M,,*78
2017-11-16 15:30:33 1510864233.366831: $GPRMC,203032,A,3946.9568,N,08404.9860,W,0.0000,0.000,161117,,*3B
2017-11-16 15:30:33 1510864233.366887: $GPGSA,A,3,8,10,14,20,18,15,21,24,27,32,12,138,1.6,0.8,1.3*34
2017-11-16 15:30:34 1510864234.718311: $GPGSV,3,1,12,08,05,292,35,10,70,333,50,14,30,255,46,20,07,118,24*77
2017-11-16 15:30:34 1510864234.718481: $GPGSV,3,2,12,18,70,097,47,15,10,067,30,21,28,180,42,24,44,057,50*78
2017-11-16 15:30:34 1510864234.718541: $GPGSV,3,3,12,27,05,258,24,32,47,267,47,12,10,106,32,138,38,213,44*44
2017-11-16 15:30:34 1510864234.831629: $GPZDA,203033.00,16,11,2017,00,00*64
2017-11-16 15:30:34 1510864234.831800: $GPGGA,203033,3946.9568,N,08404.9860,W,2,12,0.80,309.61,M,-33.324,M,,*79
2017-11-16 15:30:34 1510864234.831860: $GPRMC,203033,A,3946.9568,N,08404.9860,W,0.0000,0.000,161117,,*3A
2017-11-16 15:30:34 1510864234.831915: $GPGSA,A,3,8,10,14,20,18,15,21,24,27,32,12,138,1.6,0.8,1.3*34
2017-11-16 15:30:35 1510864235.366171: $GPZDA,203034.00,16,11,2017,00,00*63
2017-11-16 15:30:35 1510864235.366333: $GPGGA,203034,3946.9568,N,08404.9860,W,2,12,0.80,309.61,M,-33.324,M,,*7E
2017-11-16 15:30:35 1510864235.366413: $GPRMC,203034,A,3946.9568,N,08404.9860,W,0.0000,0.000,161117,,*3D
2017-11-16 15:30:35 1510864235.366471: $GPGSA,A,3,8,10,14,20,18,15,21,24,27,32,12,138,1.6,0.8,1.3*34
2017-11-16 15:30:36 1510864236.367798: $GPZDA,203035.00,16,11,2017,00,00*62
2017-11-16 15:30:36 1510864236.367963: $GPGGA,203035,3946.9568,N,08404.9860,W,2,12,0.80,309.61,M,-33.324,M,,*7F
2017-11-16 15:30:36 1510864236.368023: $GPRMC,203035,A,3946.9568,N,08404.9860,W,0.0000,0.000,161117,,*3C
2017-11-16 15:30:36 1510864236.368079: $GPGSA,A,3,8,10,14,20,18,15,21,24,27,32,12,138,1.6,0.8,1.3*34
2017-11-16 15:30:37 1510864237.721087: $GPGSV,3,1,12,08,05,292,36,10,70,333,51,14,30,255,45,20,07,118,25*77
2017-11-16 15:30:37 1510864237.721269: $GPGSV,3,2,12,18,70,097,47,15,10,067,30,21,28,180,42,24,44,057,50*78
2017-11-16 15:30:37 1510864237.721348: $GPGSV,3,3,12,27,05,258,24,32,47,267,47,12,10,106,31,138,38,213,44*47
2017-11-16 15:30:37 1510864237.834403: $GPZDA,203036.00,16,11,2017,00,00*61
2017-11-16 15:30:37 1510864237.834580: $GPGGA,203036,3946.9568,N,08404.9860,W,2,12,0.80,309.61,M,-33.324,M,,*7C
2017-11-16 15:30:37 1510864237.834641: $GPRMC,203036,A,3946.9568,N,08404.9860,W,0.0000,0.000,161117,,*3F
2017-11-16 15:30:37 1510864237.834698: $GPGSA,A,3,8,10,14,20,18,15,21,24,27,32,12,138,1.6,0.8,1.3*34
2017-11-16 15:30:38 1510864238.366547: $GPZDA,203037.00,16,11,2017,00,00*60
2017-11-16 15:30:38 1510864238.366723: $GPGGA,203037,3946.9568,N,08404.9860,W,2,12,0.80,309.61,M,-33.324,M,,*7D
2017-11-16 15:30:38 1510864238.366784: $GPRMC,203037,A,3946.9568,N,08404.9860,W,0.0000,0.000,161117,,*3E
2017-11-16 15:30:38 1510864238.366840: $GPGSA,A,3,8,10,14,20,18,15,21,24,27,32,12,138,1.6,0.8,1.3*34
2017-11-16 15:30:39 1510864239.382610: $GPZDA,203038.00,16,11,2017,00,00*6F
2017-11-16 15:30:39 1510864239.382822: $GPGGA,203038,3946.9568,N,08404.9860,W,2,12,0.80,309.61,M,-33.324,M,,*72
2017-11-16 15:30:39 1510864239.382884: $GPRMC,203038,A,3946.9568,N,08404.9860,W,0.0000,0.000,161117,,*31
2017-11-16 15:30:39 1510864239.382940: $GPGSA,A,3,8,10,14,20,18,15,21,24,27,32,12,138,1.6,0.8,1.3*34
2017-11-16 15:30:40 1510864240.705660: $GPGSV,3,1,12,08,05,292,37,10,70,333,50,14,30,255,45,20,07,118,26*74
2017-11-16 15:30:40 1510864240.705867: $GPGSV,3,2,12,18,70,097,47,15,10,067,30,21,28,180,42,24,44,057,50*78
2017-11-16 15:30:40 1510864240.705929: $GPGSV,3,3,12,27,05,258,25,32,47,267,47,12,10,106,25,138,38,213,44*43
2017-11-16 15:30:40 1510864240.818981: $GPZDA,203039.00,16,11,2017,00,00*6E
2017-11-16 15:30:40 1510864240.819148: $GPGGA,203039,3946.9568,N,08404.9860,W,2,12,0.80,309.61,M,-33.324,M,,*73
2017-11-16 15:30:40 1510864240.819208: $GPRMC,203039,A,3946.9568,N,08404.9860,W,0.0000,0.000,161117,,*30
2017-11-16 15:30:40 1510864240.819264: $GPGSA,A,3,8,10,14,20,18,15,21,24,27,32,12,138,1.6,0.8,1.3*34
2017-11-16 15:30:41 1510864241.444551: $GPZDA,203040.00,16,11,2017,00,00*60
2017-11-16 15:30:41 1510864241.444712: $GPGGA,203040,3946.9568,N,08404.9860,W,2,12,0.80,309.61,M,-33.324,M,,*7D
2017-11-16 15:30:41 1510864241.444773: $GPRMC,203040,A,3946.9568,N,08404.9860,W,0.0000,0.000,161117,,*3E
2017-11-16 15:30:41 1510864241.444829: $GPGSA,A,3,8,10,14,20,18,15,21,24,27,32,12,138,1.6,0.8,1.3*34
