2017-12-14 12:23:56 1513272236.583056: {"class":"VERSION","release":"3.16","rev":"3.16-4","proto_major":3,"proto_minor":11}
2017-12-14 12:23:56 1513272236.583416: {"class":"DEVICES","devices":[{"class":"DEVICE","path":"/dev/ttyUSB0","driver":"SiRF","subtype":"9\u0006GSD4e_4.1.2-P1_RPATCH.05-F-GPS-4R-1510281 11/03/2015 307","activated":"2017-12-14T17:23:56.475Z","flags":1,"native":1,"bps":4800,"parity":"N","stopbits":1,"cycle":1.00}]}
2017-12-14 12:23:56 1513272236.583530: {"class":"WATCH","enable":true,"json":false,"nmea":true,"raw":0,"scaled":false,"timing":false,"split24":false,"pps":false}
2017-12-14 12:23:57 1513272237.764280: $GPRMC,172358,V,18000.0000,N,00000.0000,W,0.0000,0.000,141217,,*1B
2017-12-14 12:23:57 1513272237.764437: $GPGSA,A,1,24,10,21,15,20,32,18,,,,,,,,,*38
2017-12-14 12:23:58 1513272238.730855: $GPRMC,172359,V,3946.9544,N,08404.9395,W,0.0000,0.000,141217,,*29
2017-12-14 12:23:58 1513272238.731029: $GPGSA,A,1,24,10,21,15,20,32,18,,,,,,,,,*38
2017-12-14 12:23:59 1513272239.416893: $GPGSV,3,1,11,21,60,186,22,10,44,303,15,15,35,054,12,20,32,097,16*7E
2017-12-14 12:23:59 1513272239.417063: $GPGSV,3,2,11,24,52,106,18,18,73,345,00,32,23,240,00,27,19,286,00*7F
2017-12-14 12:23:59 1513272239.417128: $GPGSV,3,3,11,08,06,321,00,14,06,234,00,13,05,049,00*4B
2017-12-14 12:23:59 1513272239.529196: $GPRMC,172359,V,3946.9544,N,08404.9395,W,0.0000,0.000,141217,,*29
2017-12-14 12:23:59 1513272239.529343: $GPGSA,A,1,21,10,15,20,24,,,,,,,,,,,*30
2017-12-14 12:23:59 1513272239.783083: $GPRMC,172400,V,3946.9544,N,08404.9395,W,0.0000,0.000,141217,,*22
2017-12-14 12:23:59 1513272239.783218: $GPGSA,A,1,21,10,15,20,24,,,,,,,,,,,*30
2017-12-14 12:24:00 1513272240.038197: $GPRMC,172400,V,3946.9544,N,08404.9395,W,0.0000,0.000,141217,,*22
2017-12-14 12:24:00 1513272240.038367: $GPGSA,A,1,21,10,15,20,24,,,,,,,,,,,*30
2017-12-14 12:24:00 1513272240.917477: $GPGSV,3,1,11,21,60,186,25,10,44,303,21,15,35,054,16,20,32,097,23*7C
2017-12-14 12:24:00 1513272240.917634: $GPGSV,3,2,11,24,52,106,25,14,06,234,09,18,73,345,00,32,23,240,00*7F
2017-12-14 12:24:00 1513272240.917700: $GPGSV,3,3,11,27,19,286,00,08,06,321,00,13,05,049,00*4C
2017-12-14 12:24:01 1513272241.029852: $GPRMC,172401,V,3946.9544,N,08404.9395,W,0.0000,0.000,141217,,*23
2017-12-14 12:24:01 1513272241.030028: $GPGSA,A,1,21,10,15,20,24,14,,,,,,,,,,*35
2017-12-14 12:24:01 1513272241.586064: $GPZDA,172402.45,14,12,2017,00,00*67
2017-12-14 12:24:01 1513272241.586247: $GPGGA,172402,3946.9543,N,08404.9418,W,1,06,2.20,333.90,M,-33.324,M,,*79
2017-12-14 12:24:01 1513272241.586316: $GPRMC,172402,A,3946.9543,N,08404.9418,W,1.1824,309.173,141217,,*33
2017-12-14 12:24:01 1513272241.586377: $GPGSA,A,3,21,10,15,20,24,14,,,,,,,6.6,2.2,6.2*31
2017-12-14 12:24:01 1513272241.586433: $GPGBS,172402,24.66,M,21.80,M,143.40,M*33
2017-12-14 12:24:02 1513272242.841324: $GPRMC,172403,V,3946.9527,N,08404.9409,W,1.7115,4.197,141217,,*2E
2017-12-14 12:24:02 1513272242.841496: $GPGSA,A,1,21,10,15,20,24,14,,,,,,,,,,*35
2017-12-14 12:24:03 1513272243.453463: $GPGSV,3,1,12,21,60,186,26,10,44,303,22,32,23,240,13,20,32,097,23*7F
2017-12-14 12:24:03 1513272243.453621: $GPGSV,3,2,12,24,52,106,25,14,06,234,14,27,19,286,09,18,73,345,00*7E
2017-12-14 12:24:03 1513272243.453686: $GPGSV,3,3,12,15,35,054,00,08,06,321,00,13,05,049,00,138,38,213,00*4C
2017-12-14 12:24:03 1513272243.565925: $GPRMC,172403,V,3946.9523,N,08404.9410,W,2.0697,10.918,141217,,*11
2017-12-14 12:24:03 1513272243.566110: $GPGSA,A,1,21,10,32,20,24,14,,,,,,,,,,*30
2017-12-14 12:24:03 1513272243.820886: $GPZDA,172404.00,14,12,2017,00,00*60
2017-12-14 12:24:03 1513272243.821081: $GPGGA,172404,3946.9521,N,08404.9411,W,1,06,2.20,343.62,M,-33.324,M,,*78
2017-12-14 12:24:03 1513272243.821149: $GPRMC,172404,A,3946.9521,N,08404.9411,W,1.5879,23.519,141217,,*07
2017-12-14 12:24:03 1513272243.821209: $GPGSA,A,3,21,10,32,20,24,14,,,,,,,6.6,2.2,6.2*34
2017-12-14 12:24:03 1513272243.821266: $GPGBS,172404,24.66,M,21.80,M,143.40,M*35
2017-12-14 12:24:04 1513272244.248046: $GPRMC,172405,V,3946.9518,N,08404.9412,W,1.3692,4.197,141217,,*22
2017-12-14 12:24:04 1513272244.248318: $GPGSA,A,1,21,10,32,20,24,14,,,,,,,,,,*30
2017-12-14 12:24:05 1513272245.526615: $GPGSV,3,1,12,21,60,186,26,10,44,303,19,32,23,240,13,20,32,097,23*77
2017-12-14 12:24:05 1513272245.526766: $GPGSV,3,2,12,24,52,106,25,14,06,234,14,15,35,054,14,18,73,345,00*70
2017-12-14 12:24:05 1513272245.526830: $GPGSV,3,3,12,27,19,286,00,08,06,321,00,13,05,049,00,138,38,213,00*4E
2017-12-14 12:24:05 1513272245.638932: $GPRMC,172406,V,3946.9526,N,08404.9419,W,0.8115,7.093,141217,,*23
2017-12-14 12:24:05 1513272245.639089: $GPGSA,A,1,21,10,32,20,24,14,15,,,,,,,,,*34
2017-12-14 12:24:06 1513272246.189043: $GPRMC,172407,V,3946.9538,N,08404.9412,W,1.0342,19.305,141217,,*1C
2017-12-14 12:24:06 1513272246.189201: $GPGSA,A,1,21,10,32,20,24,14,15,,,,,,,,,*34
2017-12-14 12:24:07 1513272247.187933: $GPRMC,172408,V,3946.9546,N,08404.9412,W,1.2120,16.385,141217,,*19
2017-12-14 12:24:07 1513272247.188105: $GPGSA,A,1,21,10,32,20,24,14,15,,,,,,,,,*34
2017-12-14 12:24:08 1513272248.523938: $GPGSV,3,1,12,21,60,186,25,10,44,303,19,32,23,240,12,20,32,097,23*75
2017-12-14 12:24:08 1513272248.524113: $GPGSV,3,2,12,24,52,106,24,14,06,234,07,15,35,054,15,18,73,345,00*72
2017-12-14 12:24:08 1513272248.524179: $GPGSV,3,3,12,27,19,286,00,08,06,321,00,13,05,049,00,138,38,213,00*4E
2017-12-14 12:24:08 1513272248.636254: $GPRMC,172409,V,3946.9550,N,08404.9412,W,0.3006,62.540,141217,,*16
2017-12-14 12:24:08 1513272248.636421: $GPGSA,A,1,21,10,32,20,24,15,,,,,,,,,,*31
2017-12-14 12:24:09 1513272249.186003: $GPZDA,172410.00,14,12,2017,00,00*65
2017-12-14 12:24:09 1513272249.186180: $GPGGA,172410,3946.9537,N,08404.9415,W,1,06,2.20,352.56,M,-33.324,M,,*79
2017-12-14 12:24:09 1513272249.186249: $GPRMC,172410,A,3946.9537,N,08404.9415,W,0.3133,189.201,141217,,*3E
2017-12-14 12:24:09 1513272249.186310: $GPGSA,A,3,21,10,32,20,24,15,,,,,,,6.6,2.2,6.2*35
2017-12-14 12:24:09 1513272249.186367: $GPGBS,172410,24.66,M,21.80,M,143.40,M*30
2017-12-14 12:24:10 1513272250.185987: $GPZDA,172411.00,14,12,2017,00,00*64
2017-12-14 12:24:10 1513272250.186158: $GPGGA,172411,3946.9530,N,08404.9416,W,1,06,2.20,354.09,M,-33.324,M,,*70
2017-12-14 12:24:10 1513272250.186225: $GPRMC,172411,A,3946.9530,N,08404.9416,W,0.4700,189.201,141217,,*3A
2017-12-14 12:24:10 1513272250.186286: $GPGSA,A,3,21,10,32,20,24,15,,,,,,,6.6,2.2,6.2*35
2017-12-14 12:24:10 1513272250.186343: $GPGBS,172411,24.66,M,21.80,M,143.40,M*31
2017-12-14 12:24:11 1513272251.522048: $GPGSV,3,1,12,21,60,186,26,10,44,303,21,32,23,240,13,20,32,097,23*7C
2017-12-14 12:24:11 1513272251.522286: $GPGSV,3,2,12,24,52,106,25,14,06,234,07,18,73,345,00,15,35,054,00*77
2017-12-14 12:24:11 1513272251.522356: $GPGSV,3,3,12,27,19,286,00,08,06,321,00,13,05,049,00,138,38,213,00*4E
2017-12-14 12:24:11 1513272251.635809: $GPZDA,172412.00,14,12,2017,00,00*67
2017-12-14 12:24:11 1513272251.635970: $GPGGA,172412,3946.9520,N,08404.9419,W,1,05,2.20,357.79,M,-33.324,M,,*7A
2017-12-14 12:24:11 1513272251.636038: $GPRMC,172412,A,3946.9520,N,08404.9419,W,1.2813,187.866,141217,,*38
2017-12-14 12:24:11 1513272251.636101: $GPGSA,A,3,21,10,32,20,24,,,,,,,,6.6,2.2,6.2*31
2017-12-14 12:24:12 1513272252.187113: $GPZDA,172413.00,14,12,2017,00,00*66
2017-12-14 12:24:12 1513272252.187275: $GPGGA,172413,3946.9509,N,08404.9420,W,1,05,2.20,358.68,M,-33.324,M,,*75
2017-12-14 12:24:12 1513272252.187343: $GPRMC,172413,A,3946.9509,N,08404.9420,W,1.4665,186.868,141217,,*3E
2017-12-14 12:24:12 1513272252.187405: $GPGSA,A,3,21,10,32,20,24,,,,,,,,6.6,2.2,6.2*31
2017-12-14 12:24:13 1513272253.190946: $GPZDA,172414.00,14,12,2017,00,00*61
2017-12-14 12:24:13 1513272253.191115: $GPGGA,172414,3946.9501,N,08404.9420,W,1,05,1.80,357.40,M,-33.324,M,,*76
2017-12-14 12:24:13 1513272253.191182: $GPRMC,172414,A,3946.9501,N,08404.9420,W,1.3100,186.588,141217,,*31
2017-12-14 12:24:13 1513272253.191245: $GPGSA,A,3,21,10,32,20,24,,,,,,,,6.6,1.8,6.2*38
2017-12-14 12:24:14 1513272254.523923: $GPGSV,3,1,12,21,60,186,26,10,44,303,21,32,23,240,13,20,32,097,23*7C
2017-12-14 12:24:14 1513272254.524095: $GPGSV,3,2,12,24,52,106,25,14,06,234,12,18,73,345,11,15,35,054,15*77
2017-12-14 12:24:14 1513272254.524221: $GPGSV,3,3,12,27,19,286,00,08,06,321,00,13,05,049,00,138,38,213,00*4E
2017-12-14 12:24:14 1513272254.637650: $GPZDA,172415.00,14,12,2017,00,00*60
2017-12-14 12:24:14 1513272254.637818: $GPGGA,172415,3946.9497,N,08404.9421,W,1,06,2.20,358.16,M,-33.324,M,,*7E
2017-12-14 12:24:14 1513272254.637883: $GPRMC,172415,A,3946.9497,N,08404.9421,W,0.7978,171.608,141217,,*3E
2017-12-14 12:24:14 1513272254.637943: $GPGSA,A,3,21,10,32,20,24,14,,,,,,,6.6,2.2,6.2*34
2017-12-14 12:24:15 1513272255.194098: $GPZDA,172416.00,14,12,2017,00,00*63
2017-12-14 12:24:15 1513272255.194263: $GPGGA,172416,3946.9498,N,08404.9422,W,1,06,1.40,359.57,M,-33.324,M,,*70
2017-12-14 12:24:15 1513272255.194329: $GPRMC,172416,A,3946.9498,N,08404.9422,W,0.6267,189.201,141217,,*3F
2017-12-14 12:24:15 1513272255.194389: $GPGSA,A,3,21,10,32,20,24,14,,,,,,,6.6,1.4,6.2*31
2017-12-14 12:24:15 1513272255.194444: $GPGBS,172416,24.66,M,21.80,M,143.40,M*36
2017-12-14 12:24:16 1513272256.192565: $GPZDA,172417.00,14,12,2017,00,00*62
2017-12-14 12:24:16 1513272256.192746: $GPGGA,172417,3946.9500,N,08404.9423,W,1,06,1.40,362.37,M,-33.324,M,,*7E
2017-12-14 12:24:16 1513272256.192814: $GPRMC,172417,A,3946.9500,N,08404.9423,W,0.3255,256.774,141217,,*3D
2017-12-14 12:24:16 1513272256.192874: $GPGSA,A,3,21,10,32,20,24,14,,,,,,,6.6,1.4,6.2*31
2017-12-14 12:24:16 1513272256.192930: $GPGBS,172417,24.66,M,21.80,M,143.40,M*37
