2018-01-11 20:24:39 1515720279.206808: {"class":"VERSION","release":"3.16","rev":"3.16-4","proto_major":3,"proto_minor":11}
2018-01-11 20:24:39 1515720279.207144: {"class":"DEVICES","devices":[{"class":"DEVICE","path":"/dev/ttyUSB0","driver":"SiRF","subtype":"9\u0006GSD4e_4.1.2-P1_RPATCH.05-F-GPS-4R-1510281 11/03/2015 307","activated":"2018-01-12T01:24:39.160Z","flags":1,"native":1,"bps":4800,"parity":"N","stopbits":1,"cycle":1.00}]}
2018-01-11 20:24:39 1515720279.207256: {"class":"WATCH","enable":true,"json":false,"nmea":true,"raw":0,"scaled":false,"timing":false,"split24":false,"pps":false}
2018-01-11 20:24:39 1515720279.673287: $GPGSV,3,1,11,07,61,316,44,08,75,105,46,09,43,222,41,11,25,165,46*7D
2018-01-11 20:24:39 1515720279.673449: $GPGSV,3,2,11,16,18,064,38,23,23,187,48,27,42,049,50,30,34,307,36*73
2018-01-11 20:24:39 1515720279.673514: $GPGSV,3,3,11,28,18,262,31,01,03,160,04,138,38,213,45*7F
2018-01-11 20:24:39 1515720279.786620: $GPZDA,012440.00,12,01,2018,00,00*6C
2018-01-11 20:24:39 1515720279.786727: $GPGGA,012440,3946.9568,N,08404.9811,W,2,10,0.80,298.72,M,-33.324,M,,*74
2018-01-11 20:24:39 1515720279.786790: $GPRMC,012440,A,3946.9568,N,08404.9811,W,0.0000,0.000,120118,,*34
2018-01-11 20:24:39 1515720279.786848: $GPGSA,A,3,7,8,9,11,16,23,27,30,28,138,,,4.0,0.8,3.5*3E
2018-01-11 20:24:40 1515720280.338800: $GPZDA,012441.00,12,01,2018,00,00*6D
2018-01-11 20:24:40 1515720280.338968: $GPGGA,012441,3946.9568,N,08404.9811,W,2,10,0.80,298.72,M,-33.324,M,,*75
2018-01-11 20:24:40 1515720280.339100: $GPRMC,012441,A,3946.9568,N,08404.9811,W,0.0000,0.000,120118,,*35
2018-01-11 20:24:40 1515720280.339170: $GPGSA,A,3,7,8,9,11,16,23,27,30,28,138,,,4.0,0.8,3.5*3E
2018-01-11 20:24:41 1515720281.339723: $GPZDA,012442.00,12,01,2018,00,00*6E
2018-01-11 20:24:41 1515720281.339894: $GPGGA,012442,3946.9568,N,08404.9811,W,2,10,0.80,298.72,M,-33.324,M,,*76
2018-01-11 20:24:41 1515720281.339959: $GPRMC,012442,A,3946.9568,N,08404.9811,W,0.0000,0.000,120118,,*36
2018-01-11 20:24:41 1515720281.340020: $GPGSA,A,3,7,8,9,11,16,23,27,30,28,138,,,4.0,0.8,3.5*3E
2018-01-11 20:24:42 1515720282.675430: $GPGSV,3,1,11,07,61,316,44,08,75,105,46,09,43,222,42,11,25,165,47*7F
2018-01-11 20:24:42 1515720282.675589: $GPGSV,3,2,11,16,18,064,38,23,23,187,48,27,42,049,49,30,34,307,37*7A
2018-01-11 20:24:42 1515720282.675654: $GPGSV,3,3,11,28,18,262,31,01,03,160,04,138,38,213,45*7F
2018-01-11 20:24:42 1515720282.788757: $GPZDA,012443.00,12,01,2018,00,00*6F
2018-01-11 20:24:42 1515720282.788873: $GPGGA,012443,3946.9568,N,08404.9811,W,2,10,0.80,298.72,M,-33.324,M,,*77
2018-01-11 20:24:42 1515720282.788936: $GPRMC,012443,A,3946.9568,N,08404.9811,W,0.0000,0.000,120118,,*37
2018-01-11 20:24:42 1515720282.788996: $GPGSA,A,3,7,8,9,11,16,23,27,30,28,138,,,4.0,0.8,3.5*3E
2018-01-11 20:24:43 1515720283.340936: $GPZDA,012444.00,12,01,2018,00,00*68
2018-01-11 20:24:43 1515720283.344573: $GPGGA,012444,3946.9568,N,08404.9811,W,2,10,0.80,298.72,M,-33.324,M,,*70
2018-01-11 20:24:43 1515720283.344671: $GPRMC,012444,A,3946.9568,N,08404.9811,W,0.0000,0.000,120118,,*30
2018-01-11 20:24:43 1515720283.344734: $GPGSA,A,3,7,8,9,11,16,23,27,30,28,138,,,4.0,0.8,3.5*3E
2018-01-11 20:24:44 1515720284.338790: $GPZDA,012445.00,12,01,2018,00,00*69
2018-01-11 20:24:44 1515720284.338964: $GPGGA,012445,3946.9568,N,08404.9811,W,2,10,0.80,298.72,M,-33.324,M,,*71
2018-01-11 20:24:44 1515720284.339089: $GPRMC,012445,A,3946.9568,N,08404.9811,W,0.0000,0.000,120118,,*31
2018-01-11 20:24:44 1515720284.339159: $GPGSA,A,3,7,8,9,11,16,23,27,30,28,138,,,4.0,0.8,3.5*3E
2018-01-11 20:24:45 1515720285.674527: $GPGSV,3,1,11,07,61,316,44,08,75,105,46,09,43,222,41,11,25,165,47*7C
2018-01-11 20:24:45 1515720285.674689: $GPGSV,3,2,11,16,18,064,38,23,23,187,48,27,42,049,50,30,34,307,38*7D
2018-01-11 20:24:45 1515720285.674755: $GPGSV,3,3,11,28,18,262,32,01,03,160,13,138,38,213,45*7A
2018-01-11 20:24:45 1515720285.787842: $GPZDA,012446.00,12,01,2018,00,00*6A
2018-01-11 20:24:45 1515720285.787968: $GPGGA,012446,3946.9568,N,08404.9811,W,2,11,0.80,298.72,M,-33.324,M,,*73
2018-01-11 20:24:45 1515720285.788033: $GPRMC,012446,A,3946.9568,N,08404.9811,W,0.0000,0.000,120118,,*32
2018-01-11 20:24:45 1515720285.788147: $GPGSA,A,3,7,8,9,11,16,23,27,30,28,1,138,,4.0,0.8,3.5*0F
2018-01-11 20:24:46 1515720286.338754: $GPZDA,012447.00,12,01,2018,00,00*6B
2018-01-11 20:24:46 1515720286.338923: $GPGGA,012447,3946.9568,N,08404.9811,W,2,11,0.80,298.72,M,-33.324,M,,*72
2018-01-11 20:24:46 1515720286.338989: $GPRMC,012447,A,3946.9568,N,08404.9811,W,0.0000,0.000,120118,,*33
2018-01-11 20:24:46 1515720286.339118: $GPGSA,A,3,7,8,9,11,16,23,27,30,28,1,138,,4.0,0.8,3.5*0F
2018-01-11 20:24:47 1515720287.338363: $GPZDA,012448.00,12,01,2018,00,00*64
2018-01-11 20:24:47 1515720287.338533: $GPGGA,012448,3946.9568,N,08404.9811,W,2,11,0.80,298.72,M,-33.324,M,,*7D
2018-01-11 20:24:47 1515720287.338599: $GPRMC,012448,A,3946.9568,N,08404.9811,W,0.0000,0.000,120118,,*3C
2018-01-11 20:24:47 1515720287.338658: $GPGSA,A,3,7,8,9,11,16,23,27,30,28,1,138,,4.0,0.8,3.5*0F
2018-01-11 20:24:48 1515720288.674139: $GPGSV,3,1,11,07,61,316,44,08,75,105,46,09,43,222,41,11,25,165,47*7C
2018-01-11 20:24:48 1515720288.674293: $GPGSV,3,2,11,16,18,064,38,23,23,187,48,27,42,049,49,30,34,307,38*75
2018-01-11 20:24:48 1515720288.674357: $GPGSV,3,3,11,28,18,262,32,01,03,160,14,138,38,213,45*7D
2018-01-11 20:24:48 1515720288.787438: $GPZDA,012449.00,12,01,2018,00,00*65
2018-01-11 20:24:48 1515720288.787545: $GPGGA,012449,3946.9568,N,08404.9811,W,2,11,0.80,298.72,M,-33.324,M,,*7C
2018-01-11 20:24:48 1515720288.787608: $GPRMC,012449,A,3946.9568,N,08404.9811,W,0.0000,0.000,120118,,*3D
2018-01-11 20:24:48 1515720288.787667: $GPGSA,A,3,7,8,9,11,16,23,27,30,28,1,138,,4.0,0.8,3.5*0F
2018-01-11 20:24:49 1515720289.412863: $GPZDA,012450.00,12,01,2018,00,00*6D
2018-01-11 20:24:49 1515720289.413020: $GPGGA,012450,3946.9576,N,08404.9818,W,2,11,0.80,298.52,M,-33.324,M,,*70
2018-01-11 20:24:49 1515720289.413084: $GPRMC,012450,A,3946.9576,N,08404.9818,W,0.2422,273.794,120118,,*39
2018-01-11 20:24:49 1515720289.413145: $GPGSA,A,3,7,8,9,11,16,23,27,30,28,1,138,,4.0,0.8,3.5*0F
2018-01-11 20:24:50 1515720290.338719: $GPZDA,012451.00,12,01,2018,00,00*6C
2018-01-11 20:24:50 1515720290.338886: $GPGGA,012451,3946.9576,N,08404.9818,W,2,11,0.80,298.52,M,-33.324,M,,*71
2018-01-11 20:24:50 1515720290.338952: $GPRMC,012451,A,3946.9576,N,08404.9818,W,0.0000,0.000,120118,,*32
2018-01-11 20:24:50 1515720290.339011: $GPGSA,A,3,7,8,9,11,16,23,27,30,28,1,138,,4.0,0.8,3.5*0F
2018-01-11 20:24:51 1515720291.674476: $GPGSV,3,1,11,07,61,316,43,08,75,105,46,09,43,222,41,11,25,165,47*7B
2018-01-11 20:24:51 1515720291.674638: $GPGSV,3,2,11,16,18,064,38,23,23,187,48,27,42,049,49,30,34,307,38*75
2018-01-11 20:24:51 1515720291.674704: $GPGSV,3,3,11,28,18,262,32,01,03,160,16,138,38,213,45*7F
2018-01-11 20:24:51 1515720291.787798: $GPZDA,012452.00,12,01,2018,00,00*6F
2018-01-11 20:24:51 1515720291.787910: $GPGGA,012452,3946.9576,N,08404.9818,W,2,11,0.80,298.52,M,-33.324,M,,*72
2018-01-11 20:24:51 1515720291.787973: $GPRMC,012452,A,3946.9576,N,08404.9818,W,0.0000,0.000,120118,,*31
2018-01-11 20:24:51 1515720291.788033: $GPGSA,A,3,7,8,9,11,16,23,27,30,28,1,138,,4.0,0.8,3.5*0F
