2017-12-01 11:55:33 1512147333.926510: {"class":"VERSION","release":"3.16","rev":"3.16-4","proto_major":3,"proto_minor":11}
2017-12-01 11:55:33 1512147333.926928: {"class":"DEVICES","devices":[{"class":"DEVICE","path":"/dev/ttyUSB0","driver":"SiRF","subtype":"9\u0006GSD4e_4.1.2-P1_RPATCH.05-F-GPS-4R-1510281 11/03/2015 307","activated":"2017-12-01T16:55:33.473Z","flags":1,"native":1,"bps":4800,"parity":"N","stopbits":1,"cycle":1.00}]}
2017-12-01 11:55:33 1512147333.927052: {"class":"WATCH","enable":true,"json":false,"nmea":true,"raw":0,"scaled":false,"timing":false,"split24":false,"pps":false}
2017-12-01 11:55:34 1512147334.668607: $GPGSV,3,1,12,13,38,048,45,15,71,060,45,18,47,291,46,20,59,058,43*7F
2017-12-01 11:55:34 1512147334.668792: $GPGSV,3,2,12,21,72,300,46,24,25,145,46,27,12,321,40,29,19,193,45*74
2017-12-01 11:55:34 1512147334.668858: $GPGSV,3,3,12,05,10,081,30,10,17,276,39,04,08,132,00,138,38,213,46*45
2017-12-01 11:55:34 1512147334.782059: $GPZDA,165535.00,01,12,2017,00,00*61
2017-12-01 11:55:34 1512147334.782235: $GPGGA,165535,3946.9587,N,08404.9843,W,2,11,0.80,294.50,M,-33.324,M,,*7D
2017-12-01 11:55:34 1512147334.782302: $GPRMC,165535,A,3946.9587,N,08404.9843,W,0.0000,0.000,011217,,*3F
2017-12-01 11:55:34 1512147334.782364: $GPGSA,A,3,13,15,18,20,21,24,27,29,5,10,138,,2.0,0.8,1.5*34
2017-12-01 11:55:35 1512147335.407762: $GPZDA,165536.00,01,12,2017,00,00*62
2017-12-01 11:55:35 1512147335.407937: $GPGGA,165536,3946.9587,N,08404.9843,W,2,11,0.80,294.50,M,-33.324,M,,*7E
2017-12-01 11:55:35 1512147335.408004: $GPRMC,165536,A,3946.9587,N,08404.9843,W,0.0000,0.000,011217,,*3C
2017-12-01 11:55:35 1512147335.408065: $GPGSA,A,3,13,15,18,20,21,24,27,29,5,10,138,,2.0,0.8,1.5*34
2017-12-01 11:55:36 1512147336.332291: $GPZDA,165537.00,01,12,2017,00,00*63
2017-12-01 11:55:36 1512147336.332464: $GPGGA,165537,3946.9587,N,08404.9843,W,2,11,0.80,294.50,M,-33.324,M,,*7F
2017-12-01 11:55:36 1512147336.332530: $GPRMC,165537,A,3946.9587,N,08404.9843,W,0.0000,0.000,011217,,*3D
2017-12-01 11:55:36 1512147336.332591: $GPGSA,A,3,13,15,18,20,21,24,27,29,5,10,138,,2.0,0.8,1.5*34
2017-12-01 11:55:37 1512147337.671517: $GPGSV,3,1,12,13,38,048,45,15,71,060,44,18,47,291,46,20,59,058,43*7E
2017-12-01 11:55:37 1512147337.671697: $GPGSV,3,2,12,21,72,300,46,24,25,145,46,27,12,321,39,29,19,193,45*7A
2017-12-01 11:55:37 1512147337.671762: $GPGSV,3,3,12,05,10,081,24,10,17,276,39,04,08,132,00,138,38,213,46*40
2017-12-01 11:55:37 1512147337.783642: $GPZDA,165538.00,01,12,2017,00,00*6C
2017-12-01 11:55:37 1512147337.783810: $GPGGA,165538,3946.9587,N,08404.9843,W,2,11,0.80,294.50,M,-33.324,M,,*70
2017-12-01 11:55:37 1512147337.783877: $GPRMC,165538,A,3946.9587,N,08404.9843,W,0.0000,0.000,011217,,*32
2017-12-01 11:55:37 1512147337.783938: $GPGSA,A,3,13,15,18,20,21,24,27,29,5,10,138,,2.0,0.8,1.5*34
2017-12-01 11:55:38 1512147338.333563: $GPZDA,165539.00,01,12,2017,00,00*6D
2017-12-01 11:55:38 1512147338.333743: $GPGGA,165539,3946.9587,N,08404.9843,W,2,11,0.80,294.50,M,-33.324,M,,*71
2017-12-01 11:55:38 1512147338.333812: $GPRMC,165539,A,3946.9587,N,08404.9843,W,0.0000,0.000,011217,,*33
2017-12-01 11:55:38 1512147338.333877: $GPGSA,A,3,13,15,18,20,21,24,27,29,5,10,138,,2.0,0.8,1.5*34
2017-12-01 11:55:39 1512147339.333133: $GPZDA,165540.00,01,12,2017,00,00*63
2017-12-01 11:55:39 1512147339.333305: $GPGGA,165540,3946.9587,N,08404.9843,W,2,11,0.80,294.50,M,-33.324,M,,*7F
2017-12-01 11:55:39 1512147339.333375: $GPRMC,165540,A,3946.9587,N,08404.9843,W,0.0000,0.000,011217,,*3D
2017-12-01 11:55:39 1512147339.333439: $GPGSA,A,3,13,15,18,20,21,24,27,29,5,10,138,,2.0,0.8,1.5*34
2017-12-01 11:55:40 1512147340.673101: $GPGSV,3,1,12,13,38,048,45,15,71,060,44,18,47,291,46,20,59,058,43*7E
2017-12-01 11:55:40 1512147340.673300: $GPGSV,3,2,12,21,72,300,46,24,25,145,46,27,12,321,39,29,19,193,45*7A
2017-12-01 11:55:40 1512147340.673373: $GPGSV,3,3,12,05,10,081,00,10,17,276,40,04,08,132,00,138,38,213,46*48
2017-12-01 11:55:40 1512147340.786777: $GPZDA,165541.00,01,12,2017,00,00*62
2017-12-01 11:55:40 1512147340.786959: $GPGGA,165541,3946.9587,N,08404.9843,W,2,10,0.80,294.50,M,-33.324,M,,*7F
2017-12-01 11:55:40 1512147340.787079: $GPRMC,165541,A,3946.9587,N,08404.9843,W,0.0000,0.000,011217,,*3C
2017-12-01 11:55:40 1512147340.787142: $GPGSA,A,3,13,15,18,20,21,24,27,29,10,138,,,2.0,0.8,1.5*01
2017-12-01 11:55:41 1512147341.335162: $GPZDA,165542.00,01,12,2017,00,00*61
2017-12-01 11:55:41 1512147341.335327: $GPGGA,165542,3946.9587,N,08404.9843,W,2,10,0.80,294.50,M,-33.324,M,,*7C
2017-12-01 11:55:41 1512147341.335393: $GPRMC,165542,A,3946.9587,N,08404.9843,W,0.0000,0.000,011217,,*3F
2017-12-01 11:55:41 1512147341.335453: $GPGSA,A,3,13,15,18,20,21,24,27,29,10,138,,,2.0,0.8,1.5*01
2017-12-01 11:55:42 1512147342.334780: $GPZDA,165543.00,01,12,2017,00,00*60
2017-12-01 11:55:42 1512147342.334947: $GPGGA,165543,3946.9587,N,08404.9843,W,2,10,0.80,294.50,M,-33.324,M,,*7D
2017-12-01 11:55:42 1512147342.335015: $GPRMC,165543,A,3946.9587,N,08404.9843,W,0.0000,0.000,011217,,*3E
2017-12-01 11:55:42 1512147342.335075: $GPGSA,A,3,13,15,18,20,21,24,27,29,10,138,,,2.0,0.8,1.5*01
2017-12-01 11:55:43 1512147343.668896: $GPGSV,3,1,12,13,38,048,45,15,71,060,45,18,47,291,45,20,59,058,43*7C
2017-12-01 11:55:43 1512147343.669106: $GPGSV,3,2,12,21,72,300,45,24,25,145,46,27,12,321,40,29,19,193,45*77
2017-12-01 11:55:43 1512147343.669177: $GPGSV,3,3,12,05,10,081,00,10,17,276,40,04,08,132,00,138,38,213,46*48
2017-12-01 11:55:43 1512147343.782556: $GPZDA,165544.00,01,12,2017,00,00*67
2017-12-01 11:55:43 1512147343.782734: $GPGGA,165544,3946.9587,N,08404.9843,W,2,10,0.80,294.50,M,-33.324,M,,*7A
2017-12-01 11:55:43 1512147343.782803: $GPRMC,165544,A,3946.9587,N,08404.9843,W,0.0000,0.000,011217,,*39
2017-12-01 11:55:43 1512147343.782866: $GPGSA,A,3,13,15,18,20,21,24,27,29,10,138,,,2.0,0.8,1.5*01
