2017-11-15 19:42:57 1510792977.238476: {"class":"VERSION","release":"3.17","rev":"3.17","proto_major":3,"proto_minor":12}
2017-11-15 19:42:57 1510792977.239250: {"class":"DEVICES","devices":[{"class":"DEVICE","path":"/dev/ttyUSB0","driver":"SiRF","subtype":"9\u0006GSD4e_4.1.2-P1_RPATCH.05-F-GPS-4R-1510281 11/03/2015 307","activated":"2017-11-16T00:42:57.227Z","flags":1,"native":1,"bps":4800,"parity":"N","stopbits":1,"cycle":1.00}]}
2017-11-15 19:42:57 1510792977.239478: {"class":"WATCH","enable":true,"json":false,"nmea":true,"raw":0,"scaled":false,"timing":false,"split24":false,"pps":false}
2017-11-15 19:42:57 1510792977.665841: $GPGSV,3,1,12,32,31,112,17,16,28,190,24,22,50,261,13,26,59,169,22*78
2017-11-15 19:42:57 1510792977.666011: $GPGSV,3,2,12,14,51,100,21,31,63,033,18,29,12,066,10,23,15,303,17*7C
2017-11-15 19:42:57 1510792977.666071: $GPGSV,3,3,12,03,42,292,20,25,12,039,00,01,02,249,00,120,07,103,00*40
2017-11-15 19:42:57 1510792977.779479: $GPZDA,004256.00,16,11,2017,00,00*60
2017-11-15 19:42:57 1510792977.779652: $GPGGA,004256,3946.9602,N,08404.9507,W,1,09,0.80,325.54,M,-33.324,M,,*7F
2017-11-15 19:42:57 1510792977.779712: $GPRMC,004256,A,3946.9602,N,08404.9507,W,0.8011,119.090,161117,,*35
2017-11-15 19:42:57 1510792977.779768: $GPGSA,A,3,32,16,22,26,14,31,29,23,3,,,,3.4,0.8,2.9*0A
2017-11-15 19:42:58 1510792978.346207: $GPZDA,004257.00,16,11,2017,00,00*61
2017-11-15 19:42:58 1510792978.346372: $GPGGA,004257,3946.9602,N,08404.9507,W,1,09,0.80,325.54,M,-33.324,M,,*7E
2017-11-15 19:42:58 1510792978.346454: $GPRMC,004257,A,3946.9602,N,08404.9507,W,0.9689,93.794,161117,,*02
2017-11-15 19:42:58 1510792978.346510: $GPGSA,A,3,32,16,22,26,14,31,29,23,3,,,,3.4,0.8,2.9*0A
2017-11-15 19:42:59 1510792979.345853: $GPZDA,004258.00,16,11,2017,00,00*6E
2017-11-15 19:42:59 1510792979.346014: $GPGGA,004258,3946.9602,N,08404.9500,W,1,09,0.80,325.62,M,-33.324,M,,*73
2017-11-15 19:42:59 1510792979.346074: $GPRMC,004258,A,3946.9602,N,08404.9500,W,0.9959,84.784,161117,,*0F
2017-11-15 19:42:59 1510792979.346129: $GPGSA,A,3,32,16,22,26,14,31,29,23,3,,,,3.4,0.8,2.9*0A
2017-11-15 19:43:00 1510792980.665348: $GPGSV,3,1,12,32,31,112,17,16,28,190,24,22,50,261,14,26,59,169,21*7C
2017-11-15 19:43:00 1510792980.665566: $GPGSV,3,2,12,14,51,100,20,31,63,033,18,29,12,066,09,23,15,303,17*75
2017-11-15 19:43:00 1510792980.665629: $GPGSV,3,3,12,03,42,292,20,25,12,039,00,01,02,249,00,120,07,103,00*40
2017-11-15 19:43:00 1510792980.778726: $GPZDA,004259.00,16,11,2017,00,00*6F
2017-11-15 19:43:00 1510792980.778892: $GPGGA,004259,3946.9606,N,08404.9500,W,1,09,0.80,326.26,M,-33.324,M,,*75
2017-11-15 19:43:00 1510792980.778955: $GPRMC,004259,A,3946.9606,N,08404.9500,W,0.7267,93.794,161117,,*05
2017-11-15 19:43:00 1510792980.779010: $GPGSA,A,3,32,16,22,26,14,31,29,23,3,,,,3.4,0.8,2.9*0A
2017-11-15 19:43:01 1510792981.404533: $GPZDA,004300.00,16,11,2017,00,00*62
2017-11-15 19:43:01 1510792981.404693: $GPGGA,004300,3946.9606,N,08404.9500,W,1,09,0.80,326.26,M,-33.324,M,,*78
2017-11-15 19:43:01 1510792981.404754: $GPRMC,004300,A,3946.9606,N,08404.9500,W,0.0000,0.000,161117,,*3C
2017-11-15 19:43:01 1510792981.404809: $GPGSA,A,3,32,16,22,26,14,31,29,23,3,,,,3.4,0.8,2.9*0A
2017-11-15 19:43:02 1510792982.345326: $GPZDA,004301.00,16,11,2017,00,00*63
2017-11-15 19:43:02 1510792982.345522: $GPGGA,004301,3946.9606,N,08404.9500,W,1,09,0.80,326.26,M,-33.324,M,,*79
2017-11-15 19:43:02 1510792982.345585: $GPRMC,004301,A,3946.9606,N,08404.9500,W,0.1867,0.000,161117,,*35
2017-11-15 19:43:02 1510792982.345640: $GPGSA,A,3,32,16,22,26,14,31,29,23,3,,,,3.4,0.8,2.9*0A
2017-11-15 19:43:03 1510792983.680828: $GPGSV,3,1,12,32,31,112,18,16,28,190,24,22,50,261,14,26,59,169,21*73
2017-11-15 19:43:03 1510792983.680999: $GPGSV,3,2,12,14,51,100,20,31,63,033,18,29,12,066,11,23,15,303,17*7C
2017-11-15 19:43:03 1510792983.681059: $GPGSV,3,3,12,03,42,292,20,25,12,039,00,01,02,249,00,120,07,103,00*40
2017-11-15 19:43:03 1510792983.794590: $GPZDA,004302.00,16,11,2017,00,00*60
2017-11-15 19:43:03 1510792983.794749: $GPGGA,004302,3946.9606,N,08404.9500,W,1,09,0.80,326.26,M,-33.324,M,,*7A
2017-11-15 19:43:03 1510792983.794861: $GPRMC,004302,A,3946.9606,N,08404.9500,W,0.0000,0.000,161117,,*3E
2017-11-15 19:43:03 1510792983.794918: $GPGSA,A,3,32,16,22,26,14,31,29,23,3,,,,3.4,0.8,2.9*0A
2017-11-15 19:43:04 1510792984.346668: $GPZDA,004303.00,16,11,2017,00,00*61
2017-11-15 19:43:04 1510792984.346864: $GPGGA,004303,3946.9610,N,08404.9500,W,1,09,0.80,326.90,M,-33.324,M,,*71
2017-11-15 19:43:04 1510792984.346924: $GPRMC,004303,A,3946.9610,N,08404.9500,W,0.0000,0.000,161117,,*38
2017-11-15 19:43:04 1510792984.346980: $GPGSA,A,3,32,16,22,26,14,31,29,23,3,,,,3.4,0.8,2.9*0A
2017-11-15 19:43:05 1510792985.333282: $GPZDA,004304.00,16,11,2017,00,00*66
2017-11-15 19:43:05 1510792985.333465: $GPGGA,004304,3946.9610,N,08404.9500,W,1,09,0.80,326.90,M,-33.324,M,,*76
2017-11-15 19:43:05 1510792985.333544: $GPRMC,004304,A,3946.9610,N,08404.9500,W,0.3423,184.197,161117,,*3B
2017-11-15 19:43:05 1510792985.333602: $GPGSA,A,3,32,16,22,26,14,31,29,23,3,,,,3.4,0.8,2.9*0A
2017-11-15 19:43:06 1510792986.666332: $GPGSV,3,1,12,32,31,112,18,16,28,190,23,22,50,261,15,26,59,169,21*75
2017-11-15 19:43:06 1510792986.673140: $GPGSV,3,2,12,14,51,100,20,31,63,033,18,29,12,066,13,23,15,303,17*7E
2017-11-15 19:43:06 1510792986.673427: $GPGSV,3,3,12,03,42,292,20,25,12,039,00,01,02,249,00,133,44,201,00*44
2017-11-15 19:43:06 1510792986.779847: $GPZDA,004305.00,16,11,2017,00,00*67
2017-11-15 19:43:06 1510792986.780007: $GPGGA,004305,3946.9610,N,08404.9500,W,1,09,0.80,326.90,M,-33.324,M,,*77
2017-11-15 19:43:06 1510792986.780067: $GPRMC,004305,A,3946.9610,N,08404.9500,W,0.7246,164.668,161117,,*32
2017-11-15 19:43:06 1510792986.780123: $GPGSA,A,3,32,16,22,26,14,31,29,23,3,,,,3.4,0.8,2.9*0A
