2017-11-16 14:59:01 1510862341.996534: {"class":"VERSION","release":"3.17","rev":"3.17","proto_major":3,"proto_minor":12}
2017-11-16 14:59:01 1510862341.996970: {"class":"DEVICES","devices":[{"class":"DEVICE","path":"/dev/ttyUSB0","driver":"SiRF","subtype":"9\u0006GSD4e_4.1.2-P1_RPATCH.05-F-GPS-4R-1510281 11/03/2015 307","activated":"2017-11-16T19:59:01.673Z","flags":1,"native":1,"bps":4800,"parity":"N","stopbits":1,"cycle":1.00}]}
2017-11-16 14:59:01 1510862341.997082: {"class":"WATCH","enable":true,"json":false,"nmea":true,"raw":0,"scaled":false,"timing":false,"split24":false,"pps":false}
2017-11-16 14:59:02 1510862342.495037: $GPZDA,195901.00,16,11,2017,00,00*60
2017-11-16 14:59:02 1510862342.495217: $GPGGA,195901,3946.9575,N,08404.9848,W,2,11,0.80,301.77,M,-33.324,M,,*77
2017-11-16 14:59:02 1510862342.495281: $GPRMC,195901,A,3946.9575,N,08404.9848,W,0.0000,0.000,161117,,*38
2017-11-16 14:59:02 1510862342.495338: $GPGSA,A,3,8,10,15,18,21,20,24,27,32,14,138,,1.6,0.8,1.3*37
2017-11-16 14:59:03 1510862343.868399: $GPGSV,3,1,12,08,08,304,35,10,58,318,51,12,02,115,19,15,20,060,47*74
2017-11-16 14:59:03 1510862343.868569: $GPGSV,3,2,12,18,77,054,46,21,42,181,46,20,17,111,44,24,51,075,49*76
2017-11-16 14:59:03 1510862343.868629: $GPGSV,3,3,12,27,12,270,44,32,37,253,46,14,20,244,44,138,38,213,44*4E
2017-11-16 14:59:03 1510862343.980464: $GPZDA,195902.00,16,11,2017,00,00*63
2017-11-16 14:59:03 1510862343.980619: $GPGGA,195902,3946.9575,N,08404.9848,W,2,12,0.80,301.77,M,-33.324,M,,*77
2017-11-16 14:59:03 1510862343.980680: $GPRMC,195902,A,3946.9575,N,08404.9848,W,0.0000,0.000,161117,,*3B
2017-11-16 14:59:03 1510862343.980736: $GPGSA,A,3,8,10,12,15,18,21,20,24,27,32,14,138,1.6,0.8,1.3*34
2017-11-16 14:59:04 1510862344.607052: $GPZDA,195903.00,16,11,2017,00,00*62
2017-11-16 14:59:04 1510862344.607234: $GPGGA,195903,3946.9575,N,08404.9848,W,2,12,0.80,301.77,M,-33.324,M,,*76
2017-11-16 14:59:04 1510862344.607296: $GPRMC,195903,A,3946.9575,N,08404.9848,W,0.0000,0.000,161117,,*3A
2017-11-16 14:59:04 1510862344.607352: $GPGSA,A,3,8,10,12,15,18,21,20,24,27,32,14,138,1.6,0.8,1.3*34
2017-11-16 14:59:05 1510862345.531698: $GPZDA,195904.00,16,11,2017,00,00*65
2017-11-16 14:59:05 1510862345.531868: $GPGGA,195904,3946.9575,N,08404.9848,W,2,12,0.80,301.77,M,-33.324,M,,*71
2017-11-16 14:59:05 1510862345.531930: $GPRMC,195904,A,3946.9575,N,08404.9848,W,0.0000,0.000,161117,,*3D
2017-11-16 14:59:05 1510862345.531986: $GPGSA,A,3,8,10,12,15,18,21,20,24,27,32,14,138,1.6,0.8,1.3*34
2017-11-16 14:59:06 1510862346.868864: $GPGSV,3,1,12,08,08,304,35,10,58,318,51,12,02,115,19,15,20,060,47*74
2017-11-16 14:59:06 1510862346.869020: $GPGSV,3,2,12,18,77,054,46,21,42,181,46,20,17,111,44,24,51,075,50*7E
2017-11-16 14:59:06 1510862346.869080: $GPGSV,3,3,12,27,12,270,43,32,37,253,46,14,20,244,44,138,38,213,44*49
2017-11-16 14:59:06 1510862346.982194: $GPZDA,195905.00,16,11,2017,00,00*64
2017-11-16 14:59:06 1510862346.982362: $GPGGA,195905,3946.9575,N,08404.9848,W,2,12,0.80,301.77,M,-33.324,M,,*70
2017-11-16 14:59:06 1510862346.982422: $GPRMC,195905,A,3946.9575,N,08404.9848,W,0.0000,0.000,161117,,*3C
2017-11-16 14:59:06 1510862346.982477: $GPGSA,A,3,8,10,12,15,18,21,20,24,27,32,14,138,1.6,0.8,1.3*34
2017-11-16 14:59:07 1510862347.494487: $GPZDA,195906.00,16,11,2017,00,00*67
2017-11-16 14:59:07 1510862347.494651: $GPGGA,195906,3946.9575,N,08404.9848,W,2,12,0.80,301.77,M,-33.324,M,,*73
2017-11-16 14:59:07 1510862347.494712: $GPRMC,195906,A,3946.9575,N,08404.9848,W,0.0000,0.000,161117,,*3F
2017-11-16 14:59:07 1510862347.494768: $GPGSA,A,3,8,10,12,15,18,21,20,24,27,32,14,138,1.6,0.8,1.3*34
2017-11-16 14:59:08 1510862348.532962: $GPZDA,195907.00,16,11,2017,00,00*66
2017-11-16 14:59:08 1510862348.533123: $GPGGA,195907,3946.9575,N,08404.9848,W,2,12,0.80,301.77,M,-33.324,M,,*72
2017-11-16 14:59:08 1510862348.533184: $GPRMC,195907,A,3946.9575,N,08404.9848,W,0.0000,0.000,161117,,*3E
2017-11-16 14:59:08 1510862348.533240: $GPGSA,A,3,8,10,12,15,18,21,20,24,27,32,14,138,1.6,0.8,1.3*34
2017-11-16 14:59:09 1510862349.869293: $GPGSV,3,1,12,08,08,304,29,10,58,318,51,12,02,115,20,15,20,060,47*73
2017-11-16 14:59:09 1510862349.869511: $GPGSV,3,2,12,18,77,054,46,21,42,181,46,20,17,111,43,24,51,075,49*71
2017-11-16 14:59:09 1510862349.869574: $GPGSV,3,3,12,27,12,270,43,32,37,253,46,14,20,244,44,138,38,213,44*49
2017-11-16 14:59:09 1510862349.981618: $GPZDA,195908.00,16,11,2017,00,00*69
2017-11-16 14:59:09 1510862349.981777: $GPGGA,195908,3946.9575,N,08404.9848,W,2,12,0.80,301.77,M,-33.324,M,,*7D
2017-11-16 14:59:09 1510862349.981837: $GPRMC,195908,A,3946.9575,N,08404.9848,W,0.0000,0.000,161117,,*31
2017-11-16 14:59:09 1510862349.981893: $GPGSA,A,3,8,10,12,15,18,21,20,24,27,32,14,138,1.6,0.8,1.3*34
2017-11-16 14:59:10 1510862350.494967: $GPZDA,195909.00,16,11,2017,00,00*68
2017-11-16 14:59:10 1510862350.495127: $GPGGA,195909,3946.9575,N,08404.9848,W,2,12,0.80,301.77,M,-33.324,M,,*7C
2017-11-16 14:59:10 1510862350.495188: $GPRMC,195909,A,3946.9575,N,08404.9848,W,0.0000,0.000,161117,,*30
2017-11-16 14:59:10 1510862350.495244: $GPGSA,A,3,8,10,12,15,18,21,20,24,27,32,14,138,1.6,0.8,1.3*34
2017-11-16 14:59:11 1510862351.494298: $GPZDA,195910.00,16,11,2017,00,00*60
2017-11-16 14:59:11 1510862351.494461: $GPGGA,195910,3946.9575,N,08404.9848,W,2,12,0.80,301.77,M,-33.324,M,,*74
2017-11-16 14:59:11 1510862351.494522: $GPRMC,195910,A,3946.9575,N,08404.9848,W,0.0000,0.000,161117,,*38
2017-11-16 14:59:11 1510862351.494577: $GPGSA,A,3,8,10,12,15,18,21,20,24,27,32,14,138,1.6,0.8,1.3*34
