2017-11-16 15:31:01 1510864261.259572: {"class":"VERSION","release":"3.17","rev":"3.17","proto_major":3,"proto_minor":12}
2017-11-16 15:31:01 1510864261.260197: {"class":"DEVICES","devices":[{"class":"DEVICE","path":"/dev/ttyUSB0","driver":"SiRF","subtype":"9\u0006GSD4e_4.1.2-P1_RPATCH.05-F-GPS-4R-1510281 11/03/2015 307","activated":"2017-11-16T20:31:01.207Z","flags":1,"native":1,"bps":4800,"parity":"N","stopbits":1,"cycle":1.00}]}
2017-11-16 15:31:01 1510864261.260390: {"class":"WATCH","enable":true,"json":false,"nmea":true,"raw":0,"scaled":false,"timing":false,"split24":false,"pps":false}
2017-11-16 15:31:01 1510864261.720277: $GPGSV,3,1,12,08,05,291,37,10,72,336,51,14,31,256,45,20,06,120,24*7B
2017-11-16 15:31:01 1510864261.720486: $GPGSV,3,2,12,18,68,099,47,15,09,067,26,21,26,178,42,24,43,057,51*7F
2017-11-16 15:31:01 1510864261.720546: $GPGSV,3,3,12,27,05,258,28,32,48,268,47,12,11,105,20,138,38,213,44*49
2017-11-16 15:31:01 1510864261.833567: $GPZDA,203100.00,16,11,2017,00,00*65
2017-11-16 15:31:01 1510864261.833729: $GPGGA,203100,3946.9568,N,08404.9860,W,2,12,0.80,309.61,M,-33.324,M,,*78
2017-11-16 15:31:01 1510864261.833790: $GPRMC,203100,A,3946.9568,N,08404.9860,W,0.0000,0.000,161117,,*3B
2017-11-16 15:31:01 1510864261.833845: $GPGSA,A,3,8,10,14,20,18,15,21,24,27,32,12,138,1.6,0.8,1.3*34
2017-11-16 15:31:02 1510864262.359397: $GPZDA,203101.00,16,11,2017,00,00*64
2017-11-16 15:31:02 1510864262.359558: $GPGGA,203101,3946.9568,N,08404.9860,W,2,12,0.80,309.61,M,-33.324,M,,*79
2017-11-16 15:31:02 1510864262.359618: $GPRMC,203101,A,3946.9568,N,08404.9860,W,0.0000,0.000,161117,,*3A
2017-11-16 15:31:02 1510864262.359674: $GPGSA,A,3,8,10,14,20,18,15,21,24,27,32,12,138,1.6,0.8,1.3*34
2017-11-16 15:31:03 1510864263.368693: $GPZDA,203102.00,16,11,2017,00,00*67
2017-11-16 15:31:03 1510864263.368804: $GPGGA,203102,3946.9568,N,08404.9860,W,2,12,0.80,309.61,M,-33.324,M,,*7A
2017-11-16 15:31:03 1510864263.368835: $GPRMC,203102,A,3946.9568,N,08404.9860,W,0.0000,0.000,161117,,*39
2017-11-16 15:31:03 1510864263.368864: $GPGSA,A,3,8,10,14,20,18,15,21,24,27,32,12,138,1.6,0.8,1.3*34
2017-11-16 15:31:04 1510864264.712355: $GPGSV,3,1,12,08,05,291,36,10,72,336,50,14,31,256,45,20,06,120,24*7B
2017-11-16 15:31:04 1510864264.712507: $GPGSV,3,2,12,18,68,099,46,15,09,067,25,21,26,178,43,24,43,057,51*7C
2017-11-16 15:31:04 1510864264.712567: $GPGSV,3,3,12,27,05,258,28,32,48,268,47,12,11,105,21,138,38,213,44*48
2017-11-16 15:31:04 1510864264.825772: $GPZDA,203103.00,16,11,2017,00,00*66
2017-11-16 15:31:04 1510864264.825958: $GPGGA,203103,3946.9568,N,08404.9860,W,2,12,0.80,309.61,M,-33.324,M,,*7B
2017-11-16 15:31:04 1510864264.826021: $GPRMC,203103,A,3946.9568,N,08404.9860,W,0.0000,0.000,161117,,*38
2017-11-16 15:31:04 1510864264.826092: $GPGSA,A,3,8,10,14,20,18,15,21,24,27,32,12,138,1.6,0.8,1.3*34
2017-11-16 15:31:05 1510864265.384152: $GPZDA,203104.00,16,11,2017,00,00*61
2017-11-16 15:31:05 1510864265.384328: $GPGGA,203104,3946.9568,N,08404.9860,W,2,12,0.80,309.61,M,-33.324,M,,*7C
2017-11-16 15:31:05 1510864265.384390: $GPRMC,203104,A,3946.9568,N,08404.9860,W,0.0000,0.000,161117,,*3F
2017-11-16 15:31:05 1510864265.384446: $GPGSA,A,3,8,10,14,20,18,15,21,24,27,32,12,138,1.6,0.8,1.3*34
2017-11-16 15:31:06 1510864266.382546: $GPZDA,203105.00,16,11,2017,00,00*60
2017-11-16 15:31:06 1510864266.382655: $GPGGA,203105,3946.9568,N,08404.9860,W,2,12,0.80,309.61,M,-33.324,M,,*7D
2017-11-16 15:31:06 1510864266.382686: $GPRMC,203105,A,3946.9568,N,08404.9860,W,0.0000,0.000,161117,,*3E
2017-11-16 15:31:06 1510864266.382715: $GPGSA,A,3,8,10,14,20,18,15,21,24,27,32,12,138,1.6,0.8,1.3*34
2017-11-16 15:31:07 1510864267.705276: $GPGSV,3,1,12,08,05,291,30,10,72,336,50,14,31,256,45,20,06,120,23*7A
2017-11-16 15:31:07 1510864267.705448: $GPGSV,3,2,12,18,68,099,46,15,09,067,25,21,26,178,43,24,43,057,51*7C
2017-11-16 15:31:07 1510864267.705509: $GPGSV,3,3,12,27,05,258,28,32,48,268,47,12,11,105,21,138,38,213,44*48
2017-11-16 15:31:07 1510864267.818568: $GPZDA,203106.00,16,11,2017,00,00*63
2017-11-16 15:31:07 1510864267.818735: $GPGGA,203106,3946.9568,N,08404.9860,W,2,12,0.80,309.61,M,-33.324,M,,*7E
2017-11-16 15:31:07 1510864267.818847: $GPRMC,203106,A,3946.9568,N,08404.9860,W,0.0000,0.000,161117,,*3D
2017-11-16 15:31:07 1510864267.818928: $GPGSA,A,3,8,10,14,20,18,15,21,24,27,32,12,138,1.6,0.8,1.3*34
2017-11-16 15:31:08 1510864268.361966: $GPZDA,203107.00,16,11,2017,00,00*62
2017-11-16 15:31:08 1510864268.362154: $GPGGA,203107,3946.9568,N,08404.9860,W,2,12,0.80,309.61,M,-33.324,M,,*7F
2017-11-16 15:31:08 1510864268.362215: $GPRMC,203107,A,3946.9568,N,08404.9860,W,0.0000,0.000,161117,,*3C
2017-11-16 15:31:08 1510864268.362271: $GPGSA,A,3,8,10,14,20,18,15,21,24,27,32,12,138,1.6,0.8,1.3*34
2017-11-16 15:31:09 1510864269.368013: $GPZDA,203108.00,16,11,2017,00,00*6D
2017-11-16 15:31:09 1510864269.368230: $GPGGA,203108,3946.9568,N,08404.9860,W,2,12,0.80,309.61,M,-33.324,M,,*70
2017-11-16 15:31:09 1510864269.368313: $GPRMC,203108,A,3946.9568,N,08404.9860,W,0.0000,0.000,161117,,*33
2017-11-16 15:31:09 1510864269.368371: $GPGSA,A,3,8,10,14,20,18,15,21,24,27,32,12,138,1.6,0.8,1.3*34
2017-11-16 15:31:10 1510864270.711188: $GPGSV,3,1,12,08,05,291,29,10,72,336,50,14,31,256,45,20,06,120,22*73
2017-11-16 15:31:10 1510864270.711359: $GPGSV,3,2,12,18,68,099,46,15,09,067,24,21,26,178,43,24,43,057,51*7D
2017-11-16 15:31:10 1510864270.711420: $GPGSV,3,3,12,27,05,258,27,32,48,268,47,12,11,105,21,138,38,213,44*47
2017-11-16 15:31:10 1510864270.824539: $GPZDA,203109.00,16,11,2017,00,00*6C
2017-11-16 15:31:10 1510864270.824698: $GPGGA,203109,3946.9568,N,08404.9860,W,2,12,0.80,309.61,M,-33.324,M,,*71
2017-11-16 15:31:10 1510864270.824758: $GPRMC,203109,A,3946.9568,N,08404.9860,W,0.0000,0.000,161117,,*32
2017-11-16 15:31:10 1510864270.824814: $GPGSA,A,3,8,10,14,20,18,15,21,24,27,32,12,138,1.6,0.8,1.3*34
