2017-12-01 17:47:29 1512168449.646629: {"class":"VERSION","release":"3.16","rev":"3.16-4","proto_major":3,"proto_minor":11}
2017-12-01 17:47:29 1512168449.647059: {"class":"DEVICES","devices":[{"class":"DEVICE","path":"/dev/ttyUSB0","driver":"SiRF","subtype":"9\u0006GSD4e_4.1.2-P1_RPATCH.05-F-GPS-4R-1510281 11/03/2015 307","activated":"2017-12-01T22:47:29.580Z","flags":1,"native":1,"bps":4800,"parity":"N","stopbits":1,"cycle":1.00}]}
2017-12-01 17:47:29 1512168449.647198: {"class":"WATCH","enable":true,"json":false,"nmea":true,"raw":0,"scaled":false,"timing":false,"split24":false,"pps":false}
2017-12-01 17:47:30 1512168450.752518: $GPGSV,3,1,12,01,14,265,42,03,29,312,46,10,13,157,43,14,66,063,40*72
2017-12-01 17:47:30 1512168450.752677: $GPGSV,3,2,12,22,45,294,47,25,30,049,42,26,36,177,44,29,04,087,38*72
2017-12-01 17:47:30 1512168450.752743: $GPGSV,3,3,12,31,79,339,47,32,48,091,45,16,07,190,22,138,38,213,45*40
2017-12-01 17:47:30 1512168450.866266: $GPZDA,224731.00,01,12,2017,00,00*61
2017-12-01 17:47:30 1512168450.866409: $GPGGA,224731,3946.9722,N,08404.9846,W,2,12,0.80,295.68,M,-33.325,M,,*7D
2017-12-01 17:47:30 1512168450.866474: $GPRMC,224731,A,3946.9722,N,08404.9846,W,0.0000,0.000,011217,,*37
2017-12-01 17:47:30 1512168450.866535: $GPGSA,A,3,1,3,10,14,22,25,26,29,31,32,16,138,2.0,0.8,1.5*0C
2017-12-01 17:47:31 1512168451.419400: $GPZDA,224732.00,01,12,2017,00,00*62
2017-12-01 17:47:31 1512168451.419570: $GPGGA,224732,3946.9722,N,08404.9846,W,2,12,0.80,295.68,M,-33.325,M,,*7E
2017-12-01 17:47:31 1512168451.419638: $GPRMC,224732,A,3946.9722,N,08404.9846,W,0.0000,0.000,011217,,*34
2017-12-01 17:47:31 1512168451.419700: $GPGSA,A,3,1,3,10,14,22,25,26,29,31,32,16,138,2.0,0.8,1.5*0C
2017-12-01 17:47:32 1512168452.411443: $GPZDA,224733.00,01,12,2017,00,00*63
2017-12-01 17:47:32 1512168452.411647: $GPGGA,224733,3946.9722,N,08404.9846,W,2,12,0.80,295.68,M,-33.325,M,,*7F
2017-12-01 17:47:32 1512168452.411718: $GPRMC,224733,A,3946.9722,N,08404.9846,W,0.0000,0.000,011217,,*35
2017-12-01 17:47:32 1512168452.411779: $GPGSA,A,3,1,3,10,14,22,25,26,29,31,32,16,138,2.0,0.8,1.5*0C
2017-12-01 17:47:33 1512168453.779601: $GPGSV,3,1,12,01,14,265,42,03,29,312,46,10,13,157,43,14,66,063,40*72
2017-12-01 17:47:33 1512168453.779780: $GPGSV,3,2,12,22,45,294,47,25,30,049,42,26,36,177,44,29,04,087,37*7D
2017-12-01 17:47:33 1512168453.779847: $GPGSV,3,3,12,31,79,339,47,32,48,091,45,16,07,190,22,138,38,213,45*40
2017-12-01 17:47:33 1512168453.891813: $GPZDA,224734.00,01,12,2017,00,00*64
2017-12-01 17:47:33 1512168453.891981: $GPGGA,224734,3946.9722,N,08404.9846,W,2,12,0.80,295.68,M,-33.325,M,,*78
2017-12-01 17:47:33 1512168453.892048: $GPRMC,224734,A,3946.9722,N,08404.9846,W,0.0000,0.000,011217,,*32
2017-12-01 17:47:33 1512168453.892109: $GPGSA,A,3,1,3,10,14,22,25,26,29,31,32,16,138,2.0,0.8,1.5*0C
2017-12-01 17:47:34 1512168454.416297: $GPZDA,224735.00,01,12,2017,00,00*65
2017-12-01 17:47:34 1512168454.416519: $GPGGA,224735,3946.9722,N,08404.9846,W,2,12,0.80,295.68,M,-33.325,M,,*79
2017-12-01 17:47:34 1512168454.416609: $GPRMC,224735,A,3946.9722,N,08404.9846,W,0.0000,0.000,011217,,*33
2017-12-01 17:47:34 1512168454.416673: $GPGSA,A,3,1,3,10,14,22,25,26,29,31,32,16,138,2.0,0.8,1.5*0C
2017-12-01 17:47:35 1512168455.441967: $GPZDA,224736.00,01,12,2017,00,00*66
2017-12-01 17:47:35 1512168455.442139: $GPGGA,224736,3946.9722,N,08404.9846,W,2,12,0.80,295.68,M,-33.325,M,,*7A
2017-12-01 17:47:35 1512168455.442207: $GPRMC,224736,A,3946.9722,N,08404.9846,W,0.0000,0.000,011217,,*30
2017-12-01 17:47:35 1512168455.442268: $GPGSA,A,3,1,3,10,14,22,25,26,29,31,32,16,138,2.0,0.8,1.5*0C
2017-12-01 17:47:36 1512168456.779889: $GPGSV,3,1,12,01,14,265,42,03,29,312,46,10,13,157,43,14,66,063,39*7C
2017-12-01 17:47:36 1512168456.780075: $GPGSV,3,2,12,22,45,294,47,25,30,049,42,26,36,177,44,29,04,087,37*7D
2017-12-01 17:47:36 1512168456.780142: $GPGSV,3,3,12,31,79,339,46,32,48,091,45,16,07,190,26,138,38,213,45*45
2017-12-01 17:47:36 1512168456.893674: $GPZDA,224737.00,01,12,2017,00,00*67
2017-12-01 17:47:36 1512168456.893849: $GPGGA,224737,3946.9722,N,08404.9846,W,2,12,0.80,295.68,M,-33.325,M,,*7B
2017-12-01 17:47:36 1512168456.893967: $GPRMC,224737,A,3946.9722,N,08404.9846,W,0.0000,0.000,011217,,*31
2017-12-01 17:47:36 1512168456.894029: $GPGSA,A,3,1,3,10,14,22,25,26,29,31,32,16,138,2.0,0.8,1.5*0C
2017-12-01 17:47:37 1512168457.443162: $GPZDA,224738.00,01,12,2017,00,00*68
2017-12-01 17:47:37 1512168457.443336: $GPGGA,224738,3946.9722,N,08404.9846,W,2,12,0.80,295.68,M,-33.325,M,,*74
2017-12-01 17:47:37 1512168457.443403: $GPRMC,224738,A,3946.9722,N,08404.9846,W,0.0000,0.000,011217,,*3E
2017-12-01 17:47:37 1512168457.443464: $GPGSA,A,3,1,3,10,14,22,25,26,29,31,32,16,138,2.0,0.8,1.5*0C
2017-12-01 17:47:38 1512168458.444011: $GPZDA,224739.00,01,12,2017,00,00*69
2017-12-01 17:47:38 1512168458.444189: $GPGGA,224739,3946.9722,N,08404.9846,W,2,12,0.80,295.68,M,-33.325,M,,*75
2017-12-01 17:47:38 1512168458.444256: $GPRMC,224739,A,3946.9722,N,08404.9846,W,0.0000,0.000,011217,,*3F
2017-12-01 17:47:38 1512168458.444318: $GPGSA,A,3,1,3,10,14,22,25,26,29,31,32,16,138,2.0,0.8,1.5*0C
2017-12-01 17:47:39 1512168459.777010: $GPGSV,3,1,12,01,14,265,42,03,29,312,46,10,13,157,43,14,66,063,39*7C
2017-12-01 17:47:39 1512168459.777207: $GPGSV,3,2,12,22,45,294,47,25,30,049,42,26,36,177,45,29,04,087,37*7C
2017-12-01 17:47:39 1512168459.777276: $GPGSV,3,3,12,31,79,339,47,32,48,091,45,16,07,190,26,138,38,213,45*44
2017-12-01 17:47:39 1512168459.890376: $GPZDA,224740.00,01,12,2017,00,00*67
2017-12-01 17:47:39 1512168459.890554: $GPGGA,224740,3946.9722,N,08404.9846,W,2,12,0.80,295.68,M,-33.325,M,,*7B
2017-12-01 17:47:39 1512168459.890622: $GPRMC,224740,A,3946.9722,N,08404.9846,W,0.0000,0.000,011217,,*31
2017-12-01 17:47:39 1512168459.890683: $GPGSA,A,3,1,3,10,14,22,25,26,29,31,32,16,138,2.0,0.8,1.5*0C
2017-12-01 17:47:40 1512168460.515777: $GPZDA,224741.00,01,12,2017,00,00*66
2017-12-01 17:47:40 1512168460.515949: $GPGGA,224741,3946.9722,N,08404.9846,W,2,12,0.80,295.68,M,-33.325,M,,*7A
2017-12-01 17:47:40 1512168460.516016: $GPRMC,224741,A,3946.9722,N,08404.9846,W,0.0000,0.000,011217,,*30
2017-12-01 17:47:40 1512168460.516078: $GPGSA,A,3,1,3,10,14,22,25,26,29,31,32,16,138,2.0,0.8,1.5*0C
2017-12-01 17:47:41 1512168461.444074: $GPZDA,224742.00,01,12,2017,00,00*65
2017-12-01 17:47:41 1512168461.444255: $GPGGA,224742,3946.9722,N,08404.9846,W,2,12,0.80,295.68,M,-33.325,M,,*79
2017-12-01 17:47:41 1512168461.444324: $GPRMC,224742,A,3946.9722,N,08404.9846,W,0.0000,0.000,011217,,*33
2017-12-01 17:47:41 1512168461.444385: $GPGSA,A,3,1,3,10,14,22,25,26,29,31,32,16,138,2.0,0.8,1.5*0C
2017-12-01 17:47:42 1512168462.748560: $GPGSV,3,1,12,01,14,265,42,03,29,312,46,10,13,157,43,14,66,063,40*72
2017-12-01 17:47:42 1512168462.748743: $GPGSV,3,2,12,22,45,294,47,25,30,049,42,26,36,177,44,29,04,087,37*7D
2017-12-01 17:47:42 1512168462.748809: $GPGSV,3,3,12,31,79,339,47,32,48,091,45,16,07,190,27,138,38,213,46*46
2017-12-01 17:47:42 1512168462.862098: $GPZDA,224743.00,01,12,2017,00,00*64
2017-12-01 17:47:42 1512168462.862233: $GPGGA,224743,3946.9722,N,08404.9846,W,2,12,0.80,295.68,M,-33.325,M,,*78
2017-12-01 17:47:42 1512168462.862298: $GPRMC,224743,A,3946.9722,N,08404.9846,W,0.0000,0.000,011217,,*32
2017-12-01 17:47:42 1512168462.862359: $GPGSA,A,3,1,3,10,14,22,25,26,29,31,32,16,138,2.0,0.8,1.5*0C
2017-12-01 17:47:43 1512168463.439409: $GPZDA,224744.00,01,12,2017,00,00*63
2017-12-01 17:47:43 1512168463.439578: $GPGGA,224744,3946.9722,N,08404.9846,W,2,12,0.80,295.68,M,-33.325,M,,*7F
2017-12-01 17:47:43 1512168463.439646: $GPRMC,224744,A,3946.9722,N,08404.9846,W,0.0000,0.000,011217,,*35
2017-12-01 17:47:43 1512168463.439707: $GPGSA,A,3,1,3,10,14,22,25,26,29,31,32,16,138,2.0,0.8,1.5*0C
2017-12-01 17:47:44 1512168464.419139: $GPZDA,224745.00,01,12,2017,00,00*62
2017-12-01 17:47:44 1512168464.419317: $GPGGA,224745,3946.9722,N,08404.9846,W,2,12,0.80,295.68,M,-33.325,M,,*7E
2017-12-01 17:47:44 1512168464.419384: $GPRMC,224745,A,3946.9722,N,08404.9846,W,0.0000,0.000,011217,,*34
2017-12-01 17:47:44 1512168464.419445: $GPGSA,A,3,1,3,10,14,22,25,26,29,31,32,16,138,2.0,0.8,1.5*0C
2017-12-01 17:47:45 1512168465.780214: $GPGSV,3,1,12,01,14,265,42,03,29,312,45,10,13,157,43,14,66,063,40*71
2017-12-01 17:47:45 1512168465.780393: $GPGSV,3,2,12,22,45,294,47,25,30,049,42,26,36,177,44,29,04,087,37*7D
2017-12-01 17:47:45 1512168465.780461: $GPGSV,3,3,12,31,79,339,47,32,48,091,45,16,07,190,32,138,38,213,46*42
2017-12-01 17:47:45 1512168465.895521: $GPZDA,224746.00,01,12,2017,00,00*61
2017-12-01 17:47:45 1512168465.895703: $GPGGA,224746,3946.9722,N,08404.9846,W,2,12,0.80,295.68,M,-33.325,M,,*7D
2017-12-01 17:47:45 1512168465.895772: $GPRMC,224746,A,3946.9722,N,08404.9846,W,0.0000,0.000,011217,,*37
2017-12-01 17:47:45 1512168465.895834: $GPGSA,A,3,1,3,10,14,22,25,26,29,31,32,16,138,2.0,0.8,1.5*0C
2017-12-01 17:47:46 1512168466.443189: $GPZDA,224747.00,01,12,2017,00,00*60
2017-12-01 17:47:46 1512168466.443419: $GPGGA,224747,3946.9722,N,08404.9846,W,2,12,0.80,295.68,M,-33.325,M,,*7C
2017-12-01 17:47:46 1512168466.443487: $GPRMC,224747,A,3946.9722,N,08404.9846,W,0.0000,0.000,011217,,*36
2017-12-01 17:47:46 1512168466.443548: $GPGSA,A,3,1,3,10,14,22,25,26,29,31,32,16,138,2.0,0.8,1.5*0C
2017-12-01 17:47:47 1512168467.442824: $GPZDA,224748.00,01,12,2017,00,00*6F
2017-12-01 17:47:47 1512168467.443011: $GPGGA,224748,3946.9722,N,08404.9846,W,2,12,0.80,295.68,M,-33.325,M,,*73
2017-12-01 17:47:47 1512168467.443114: $GPRMC,224748,A,3946.9722,N,08404.9846,W,0.0000,0.000,011217,,*39
2017-12-01 17:47:47 1512168467.443177: $GPGSA,A,3,1,3,10,14,22,25,26,29,31,32,16,138,2.0,0.8,1.5*0C
2017-12-01 17:47:48 1512168468.781081: $GPGSV,3,1,12,01,14,265,42,03,29,312,45,10,13,157,43,14,66,063,40*71
2017-12-01 17:47:48 1512168468.781263: $GPGSV,3,2,12,22,45,294,47,25,30,049,42,26,36,177,45,29,04,087,38*73
2017-12-01 17:47:48 1512168468.781330: $GPGSV,3,3,12,31,79,339,47,32,48,091,45,16,07,190,32,138,38,213,46*42
2017-12-01 17:47:48 1512168468.894413: $GPZDA,224749.00,01,12,2017,00,00*6E
2017-12-01 17:47:48 1512168468.894581: $GPGGA,224749,3946.9722,N,08404.9846,W,2,12,0.80,295.68,M,-33.325,M,,*72
2017-12-01 17:47:48 1512168468.894666: $GPRMC,224749,A,3946.9722,N,08404.9846,W,0.0000,0.000,011217,,*38
2017-12-01 17:47:48 1512168468.894728: $GPGSA,A,3,1,3,10,14,22,25,26,29,31,32,16,138,2.0,0.8,1.5*0C
2017-12-01 17:47:49 1512168469.445302: $GPZDA,224750.00,01,12,2017,00,00*66
2017-12-01 17:47:49 1512168469.445476: $GPGGA,224750,3946.9722,N,08404.9846,W,2,12,0.80,295.68,M,-33.325,M,,*7A
2017-12-01 17:47:49 1512168469.445544: $GPRMC,224750,A,3946.9722,N,08404.9846,W,0.0000,0.000,011217,,*30
2017-12-01 17:47:49 1512168469.445605: $GPGSA,A,3,1,3,10,14,22,25,26,29,31,32,16,138,2.0,0.8,1.5*0C
