2017-12-29 14:58:50 1514577530.311300: {"class":"VERSION","release":"3.16","rev":"3.16-4","proto_major":3,"proto_minor":11}
2017-12-29 14:58:50 1514577530.311707: {"class":"DEVICES","devices":[{"class":"DEVICE","path":"/dev/ttyUSB0","driver":"SiRF","subtype":"9\u0006GSD4e_4.1.2-P1_RPATCH.05-F-GPS-4R-1510281 11/03/2015 307","activated":"2017-12-29T19:58:50.209Z","flags":1,"native":1,"bps":4800,"parity":"N","stopbits":1,"cycle":1.00}]}
2017-12-29 14:58:50 1514577530.311823: {"class":"WATCH","enable":true,"json":false,"nmea":true,"raw":0,"scaled":false,"timing":false,"split24":false,"pps":false}
2017-12-29 14:58:51 1514577531.347697: $GPGSV,3,1,12,01,22,289,33,03,09,316,35,10,37,153,38,12,17,040,34*7D
2017-12-29 14:58:51 1514577531.347876: $GPGSV,3,2,12,14,69,352,35,22,28,310,33,25,41,076,41,31,68,238,38*73
2017-12-29 14:58:51 1514577531.347942: $GPGSV,3,3,12,32,63,055,41,26,13,180,14,18,07,147,00,138,38,213,00*4C
2017-12-29 14:58:51 1514577531.461084: $GPZDA,195851.44,29,12,2017,00,00*6B
2017-12-29 14:58:51 1514577531.461224: $GPGGA,195851,3946.9565,N,08404.9779,W,1,09,1.00,304.10,M,-33.324,M,,*78
2017-12-29 14:58:51 1514577531.461290: $GPRMC,195851,A,3946.9565,N,08404.9779,W,0.0407,322.013,291217,,*3D
2017-12-29 14:58:51 1514577531.461351: $GPGSA,A,3,1,3,10,12,14,22,25,31,32,,,,1.7,1.0,1.3*36
2017-12-29 14:58:52 1514577532.290067: $GPZDA,195852.00,29,12,2017,00,00*68
2017-12-29 14:58:52 1514577532.290237: $GPGGA,195852,3946.9569,N,08404.9779,W,1,09,0.80,304.74,M,-33.324,M,,*7C
2017-12-29 14:58:52 1514577532.290304: $GPRMC,195852,A,3946.9569,N,08404.9779,W,0.1867,0.000,291217,,*38
2017-12-29 14:58:52 1514577532.290365: $GPGSA,A,3,1,3,10,12,14,22,25,31,32,,,,1.7,0.8,1.3*3F
2017-12-29 14:58:52 1514577532.290423: $GPGBS,195852,10.91,M,10.38,M,30.89,M*0D
2017-12-29 14:58:52 1514577532.914056: $GPZDA,195853.00,29,12,2017,00,00*69
2017-12-29 14:58:52 1514577532.914223: $GPGGA,195853,3946.9569,N,08404.9779,W,1,09,0.80,304.74,M,-33.324,M,,*7D
2017-12-29 14:58:52 1514577532.914289: $GPRMC,195853,A,3946.9569,N,08404.9779,W,0.2422,93.794,291217,,*07
2017-12-29 14:58:52 1514577532.914350: $GPGSA,A,3,1,3,10,12,14,22,25,31,32,,,,1.7,0.8,1.3*3F
2017-12-29 14:58:53 1514577533.701105: $GPGSV,3,1,12,01,22,289,41,03,09,316,44,10,37,153,48,12,17,040,43*79
2017-12-29 14:58:53 1514577533.701305: $GPGSV,3,2,12,14,69,352,44,22,28,310,41,25,41,076,51,31,68,238,48*76
2017-12-29 14:58:53 1514577533.701371: $GPGSV,3,3,12,32,63,055,51,26,13,180,30,18,07,147,25,138,38,213,45*4D
2017-12-29 14:58:53 1514577533.814670: $GPZDA,195854.00,29,12,2017,00,00*6E
2017-12-29 14:58:53 1514577533.814814: $GPGGA,195854,3946.9573,N,08404.9779,W,1,12,0.80,303.97,M,-33.324,M,,*71
2017-12-29 14:58:53 1514577533.814881: $GPRMC,195854,A,3946.9573,N,08404.9779,W,0.0000,0.000,291217,,*3D
2017-12-29 14:58:53 1514577533.814941: $GPGSA,A,3,1,3,10,12,14,22,25,31,32,26,18,138,1.7,0.8,1.3*08
2017-12-29 14:58:54 1514577534.440037: $GPZDA,195855.00,29,12,2017,00,00*6F
2017-12-29 14:58:54 1514577534.440213: $GPGGA,195855,3946.9577,N,08404.9779,W,1,12,0.80,304.61,M,-33.324,M,,*7A
2017-12-29 14:58:54 1514577534.440280: $GPRMC,195855,A,3946.9577,N,08404.9779,W,0.0000,0.000,291217,,*38
2017-12-29 14:58:54 1514577534.440341: $GPGSA,A,3,1,3,10,12,14,22,25,31,32,26,18,138,1.7,0.8,1.3*08
2017-12-29 14:58:55 1514577535.359649: $GPZDA,195856.00,29,12,2017,00,00*6C
2017-12-29 14:58:55 1514577535.359830: $GPGGA,195856,3946.9577,N,08404.9779,W,1,12,0.80,304.61,M,-33.324,M,,*79
2017-12-29 14:58:55 1514577535.359897: $GPRMC,195856,A,3946.9577,N,08404.9779,W,0.0000,0.000,291217,,*3B
2017-12-29 14:58:55 1514577535.359958: $GPGSA,A,3,1,3,10,12,14,22,25,31,32,26,18,138,1.7,0.8,1.3*08
2017-12-29 14:58:56 1514577536.695025: $GPGSV,3,1,12,01,22,289,41,03,09,316,44,10,37,153,48,12,17,040,43*79
2017-12-29 14:58:56 1514577536.695199: $GPGSV,3,2,12,14,69,352,44,22,28,310,41,25,41,076,51,31,68,238,48*76
2017-12-29 14:58:56 1514577536.695266: $GPGSV,3,3,12,32,63,055,52,26,13,180,30,11,05,274,32,138,38,213,44*41
2017-12-29 14:58:56 1514577536.808634: $GPZDA,195857.00,29,12,2017,00,00*6D
2017-12-29 14:58:56 1514577536.808812: $GPGGA,195857,3946.9580,N,08404.9785,W,1,12,0.80,303.77,M,-33.324,M,,*73
2017-12-29 14:58:56 1514577536.808878: $GPRMC,195857,A,3946.9580,N,08404.9785,W,0.0000,0.000,291217,,*31
2017-12-29 14:58:56 1514577536.808938: $GPGSA,A,3,1,3,10,12,14,22,25,31,32,26,11,138,1.7,0.8,1.3*01
2017-12-29 14:58:57 1514577537.362079: $GPZDA,195858.00,29,12,2017,00,00*62
2017-12-29 14:58:57 1514577537.362242: $GPGGA,195858,3946.9580,N,08404.9785,W,1,12,0.80,303.77,M,-33.324,M,,*7C
2017-12-29 14:58:57 1514577537.362308: $GPRMC,195858,A,3946.9580,N,08404.9785,W,0.0000,0.000,291217,,*3E
2017-12-29 14:58:57 1514577537.362369: $GPGSA,A,3,1,3,10,12,14,22,25,31,32,26,11,138,1.7,0.8,1.3*01
2017-12-29 14:58:58 1514577538.360388: $GPZDA,195859.00,29,12,2017,00,00*63
2017-12-29 14:58:58 1514577538.360567: $GPGGA,195859,3946.9599,N,08404.9789,W,2,12,0.80,301.27,M,-33.324,M,,*7D
2017-12-29 14:58:58 1514577538.360634: $GPRMC,195859,A,3946.9599,N,08404.9789,W,0.0000,0.000,291217,,*3B
2017-12-29 14:58:58 1514577538.360695: $GPGSA,A,3,1,3,10,12,14,22,25,31,32,26,11,138,1.7,0.8,1.3*01
2017-12-29 14:58:59 1514577539.696653: $GPGSV,3,1,12,01,22,289,41,03,09,316,44,10,37,153,48,12,17,040,43*79
2017-12-29 14:58:59 1514577539.696844: $GPGSV,3,2,12,14,69,352,44,22,28,310,42,25,41,076,51,31,68,238,48*75
2017-12-29 14:58:59 1514577539.696914: $GPGSV,3,3,12,32,63,055,52,26,13,180,29,18,07,147,26,138,38,213,44*44
2017-12-29 14:58:59 1514577539.810017: $GPZDA,195900.00,29,12,2017,00,00*6E
2017-12-29 14:58:59 1514577539.810166: $GPGGA,195900,3946.9599,N,08404.9789,W,2,12,0.80,301.27,M,-33.324,M,,*70
2017-12-29 14:58:59 1514577539.810234: $GPRMC,195900,A,3946.9599,N,08404.9789,W,0.0000,0.000,291217,,*36
2017-12-29 14:58:59 1514577539.810297: $GPGSA,A,3,1,3,10,12,14,22,25,31,32,26,18,138,1.7,0.8,1.3*08
