2017-11-15 19:50:15 1510793415.134741: {"class":"VERSION","release":"3.17","rev":"3.17","proto_major":3,"proto_minor":12}
2017-11-15 19:50:15 1510793415.135180: {"class":"DEVICES","devices":[{"class":"DEVICE","path":"/dev/ttyUSB0","driver":"SiRF","subtype":"9\u0006GSD4e_4.1.2-P1_RPATCH.05-F-GPS-4R-1510281 11/03/2015 307","activated":"2017-11-16T00:50:14.470Z","flags":1,"native":1,"bps":4800,"parity":"N","stopbits":1,"cycle":1.00}]}
2017-11-15 19:50:15 1510793415.135295: {"class":"WATCH","enable":true,"json":false,"nmea":true,"raw":0,"scaled":false,"timing":false,"split24":false,"pps":false}
2017-11-15 19:50:15 1510793415.681991: $GPGSV,3,1,11,32,29,114,20,16,31,190,19,31,61,037,21,26,62,168,22*7F
2017-11-15 19:50:15 1510793415.682162: $GPGSV,3,2,11,14,48,103,22,22,49,256,24,29,13,063,00,23,18,304,18*73
2017-11-15 19:50:15 1510793415.682223: $GPGSV,3,3,11,03,43,289,16,25,10,037,00,01,01,246,00*4B
2017-11-15 19:50:15 1510793415.795285: $GPZDA,005014.00,16,11,2017,00,00*65
2017-11-15 19:50:15 1510793415.795460: $GPGGA,005014,3946.9510,N,08404.9428,W,1,08,1.00,310.16,M,-33.324,M,,*7E
2017-11-15 19:50:15 1510793415.795521: $GPRMC,005014,A,3946.9510,N,08404.9428,W,0.8709,183.298,161117,,*3B
2017-11-15 19:50:15 1510793415.795577: $GPGSA,A,3,32,16,31,26,14,22,23,3,,,,,3.4,1.0,2.9*08
2017-11-15 19:50:16 1510793416.420646: $GPZDA,005015.00,16,11,2017,00,00*64
2017-11-15 19:50:16 1510793416.420809: $GPGGA,005015,3946.9510,N,08404.9435,W,1,08,1.00,310.08,M,-33.324,M,,*7C
2017-11-15 19:50:16 1510793416.420871: $GPRMC,005015,A,3946.9510,N,08404.9435,W,0.8414,219.347,161117,,*3A
2017-11-15 19:50:16 1510793416.420926: $GPGSA,A,3,32,16,31,26,14,22,23,3,,,,,3.4,1.0,2.9*08
2017-11-15 19:50:17 1510793417.346528: $GPZDA,005016.00,16,11,2017,00,00*67
2017-11-15 19:50:17 1510793417.346684: $GPGGA,005016,3946.9510,N,08404.9435,W,1,08,1.00,310.08,M,-33.324,M,,*7F
2017-11-15 19:50:17 1510793417.346804: $GPRMC,005016,A,3946.9510,N,08404.9435,W,0.8414,219.347,161117,,*39
2017-11-15 19:50:17 1510793417.346862: $GPGSA,A,3,32,16,31,26,14,22,23,3,,,,,3.4,1.0,2.9*08
2017-11-15 19:50:18 1510793418.666009: $GPGSV,3,1,11,32,29,114,20,16,31,190,19,31,61,037,22,26,62,168,23*7D
2017-11-15 19:50:18 1510793418.666180: $GPGSV,3,2,11,14,48,103,22,22,49,256,24,29,13,063,00,23,18,304,18*73
2017-11-15 19:50:18 1510793418.666239: $GPGSV,3,3,11,03,43,289,17,25,10,037,00,01,01,246,00*4A
2017-11-15 19:50:18 1510793418.779392: $GPZDA,005017.00,16,11,2017,00,00*66
2017-11-15 19:50:18 1510793418.779563: $GPGGA,005017,3946.9510,N,08404.9435,W,1,08,1.00,310.08,M,-33.324,M,,*7E
2017-11-15 19:50:18 1510793418.779624: $GPRMC,005017,A,3946.9510,N,08404.9435,W,0.2422,273.794,161117,,*31
2017-11-15 19:50:18 1510793418.779680: $GPGSA,A,3,32,16,31,26,14,22,23,3,,,,,3.4,1.0,2.9*08
2017-11-15 19:50:19 1510793419.329003: $GPZDA,005018.00,16,11,2017,00,00*69
2017-11-15 19:50:19 1510793419.329180: $GPGGA,005018,3946.9510,N,08404.9435,W,1,08,1.00,310.08,M,-33.324,M,,*71
2017-11-15 19:50:19 1510793419.329265: $GPRMC,005018,A,3946.9510,N,08404.9435,W,0.0000,0.000,161117,,*34
2017-11-15 19:50:19 1510793419.329323: $GPGSA,A,3,32,16,31,26,14,22,23,3,,,,,3.4,1.0,2.9*08
2017-11-15 19:50:20 1510793420.329838: $GPZDA,005019.00,16,11,2017,00,00*68
2017-11-15 19:50:20 1510793420.329982: $GPGGA,005019,3946.9514,N,08404.9442,W,1,08,1.00,309.24,M,-33.324,M,,*72
2017-11-15 19:50:20 1510793420.330041: $GPRMC,005019,A,3946.9514,N,08404.9442,W,0.5306,294.353,161117,,*3B
2017-11-15 19:50:20 1510793420.330097: $GPGSA,A,3,32,16,31,26,14,22,23,3,,,,,3.4,1.0,2.9*08
2017-11-15 19:50:21 1510793421.666466: $GPGSV,3,1,11,32,29,114,20,16,31,190,18,31,61,037,22,26,62,168,23*7C
2017-11-15 19:50:21 1510793421.666636: $GPGSV,3,2,11,14,48,103,22,22,49,256,24,29,13,063,00,23,18,304,18*73
2017-11-15 19:50:21 1510793421.666695: $GPGSV,3,3,11,03,43,289,17,25,10,037,00,01,01,246,00*4A
2017-11-15 19:50:21 1510793421.780005: $GPZDA,005020.00,16,11,2017,00,00*62
2017-11-15 19:50:21 1510793421.780150: $GPGGA,005020,3946.9514,N,08404.9442,W,1,08,1.00,309.24,M,-33.324,M,,*78
2017-11-15 19:50:21 1510793421.780209: $GPRMC,005020,A,3946.9514,N,08404.9442,W,0.5857,338.291,161117,,*36
2017-11-15 19:50:21 1510793421.780318: $GPGSA,A,3,32,16,31,26,14,22,23,3,,,,,3.4,1.0,2.9*08
2017-11-15 19:50:22 1510793422.346928: $GPZDA,005021.00,16,11,2017,00,00*63
2017-11-15 19:50:22 1510793422.347097: $GPGGA,005021,3946.9514,N,08404.9442,W,1,08,1.00,309.24,M,-33.324,M,,*79
2017-11-15 19:50:22 1510793422.347158: $GPRMC,005021,A,3946.9514,N,08404.9442,W,0.7246,344.668,161117,,*36
2017-11-15 19:50:22 1510793422.347214: $GPGSA,A,3,32,16,31,26,14,22,23,3,,,,,3.4,1.0,2.9*08
2017-11-15 19:50:23 1510793423.346517: $GPZDA,005022.00,16,11,2017,00,00*60
2017-11-15 19:50:23 1510793423.346678: $GPGGA,005022,3946.9517,N,08404.9441,W,1,08,1.00,308.48,M,-33.324,M,,*71
2017-11-15 19:50:23 1510793423.346787: $GPRMC,005022,A,3946.9517,N,08404.9441,W,0.6846,4.197,161117,,*3E
2017-11-15 19:50:23 1510793423.346845: $GPGSA,A,3,32,16,31,26,14,22,23,3,,,,,3.4,1.0,2.9*08
