2018-01-11 21:03:30 1515722610.138822: {"class":"VERSION","release":"3.16","rev":"3.16-4","proto_major":3,"proto_minor":11}
2018-01-11 21:03:30 1515722610.139277: {"class":"DEVICES","devices":[{"class":"DEVICE","path":"/dev/ttyUSB0","driver":"SiRF","subtype":"9\u0006GSD4e_4.1.2-P1_RPATCH.05-F-GPS-4R-1510281 11/03/2015 307","activated":"2018-01-12T02:03:29.960Z","flags":1,"native":1,"bps":4800,"parity":"N","stopbits":1,"cycle":1.00}]}
2018-01-11 21:03:30 1515722610.139427: {"class":"WATCH","enable":true,"json":false,"nmea":true,"raw":0,"scaled":false,"timing":false,"split24":false,"pps":false}
2018-01-11 21:03:30 1515722610.371222: $GPZDA,020331.00,12,01,2018,00,00*6C
2018-01-11 21:03:30 1515722610.371409: $GPGGA,020331,3946.9592,N,08404.9843,W,2,12,0.80,296.55,M,-33.324,M,,*7F
2018-01-11 21:03:30 1515722610.371477: $GPRMC,020331,A,3946.9592,N,08404.9843,W,0.0000,0.000,120118,,*36
2018-01-11 21:03:30 1515722610.371556: $GPGSA,A,3,1,7,8,9,11,23,27,28,30,13,16,138,4.0,0.8,3.5*0D
2018-01-11 21:03:31 1515722611.355847: $GPZDA,020332.00,12,01,2018,00,00*6F
2018-01-11 21:03:31 1515722611.356007: $GPGGA,020332,3946.9592,N,08404.9843,W,2,12,0.80,296.55,M,-33.324,M,,*7C
2018-01-11 21:03:31 1515722611.356073: $GPRMC,020332,A,3946.9592,N,08404.9843,W,0.0000,0.000,120118,,*35
2018-01-11 21:03:31 1515722611.356133: $GPGSA,A,3,1,7,8,9,11,23,27,28,30,13,16,138,4.0,0.8,3.5*0D
2018-01-11 21:03:32 1515722612.684056: $GPGSV,3,1,12,01,18,151,44,07,80,307,43,08,65,054,47,09,27,210,42*79
2018-01-11 21:03:32 1515722612.684216: $GPGSV,3,2,12,11,42,157,45,23,06,181,32,27,26,045,50,28,30,277,32*7E
2018-01-11 21:03:32 1515722612.684282: $GPGSV,3,3,12,30,51,309,42,13,02,328,16,16,06,075,15,138,38,213,45*48
2018-01-11 21:03:32 1515722612.797456: $GPZDA,020333.00,12,01,2018,00,00*6E
2018-01-11 21:03:32 1515722612.797601: $GPGGA,020333,3946.9592,N,08404.9843,W,2,12,0.80,296.55,M,-33.324,M,,*7D
2018-01-11 21:03:32 1515722612.797667: $GPRMC,020333,A,3946.9592,N,08404.9843,W,0.0000,0.000,120118,,*34
2018-01-11 21:03:32 1515722612.797727: $GPGSA,A,3,1,7,8,9,11,23,27,28,30,13,16,138,4.0,0.8,3.5*0D
2018-01-11 21:03:33 1515722613.354597: $GPZDA,020334.00,12,01,2018,00,00*69
2018-01-11 21:03:33 1515722613.354755: $GPGGA,020334,3946.9592,N,08404.9843,W,2,12,0.80,296.55,M,-33.324,M,,*7A
2018-01-11 21:03:33 1515722613.354821: $GPRMC,020334,A,3946.9592,N,08404.9843,W,0.0000,0.000,120118,,*33
2018-01-11 21:03:33 1515722613.354881: $GPGSA,A,3,1,7,8,9,11,23,27,28,30,13,16,138,4.0,0.8,3.5*0D
2018-01-11 21:03:34 1515722614.371223: $GPZDA,020335.00,12,01,2018,00,00*68
2018-01-11 21:03:34 1515722614.371400: $GPGGA,020335,3946.9592,N,08404.9843,W,2,12,0.80,296.55,M,-33.324,M,,*7B
2018-01-11 21:03:34 1515722614.371467: $GPRMC,020335,A,3946.9592,N,08404.9843,W,0.0000,0.000,120118,,*32
2018-01-11 21:03:34 1515722614.371545: $GPGSA,A,3,1,7,8,9,11,23,27,28,30,13,16,138,4.0,0.8,3.5*0D
2018-01-11 21:03:35 1515722615.708172: $GPGSV,3,1,12,01,18,151,44,07,80,307,43,08,65,054,47,09,27,210,42*79
2018-01-11 21:03:35 1515722615.708361: $GPGSV,3,2,12,11,42,157,45,23,06,181,32,27,26,045,50,28,30,277,32*7E
2018-01-11 21:03:35 1515722615.708431: $GPGSV,3,3,12,30,51,309,42,13,02,328,15,16,06,075,16,138,38,213,45*48
2018-01-11 21:03:35 1515722615.821615: $GPZDA,020336.00,12,01,2018,00,00*6B
2018-01-11 21:03:35 1515722615.821748: $GPGGA,020336,3946.9592,N,08404.9843,W,2,12,0.80,296.55,M,-33.324,M,,*78
2018-01-11 21:03:35 1515722615.821814: $GPRMC,020336,A,3946.9592,N,08404.9843,W,0.0000,0.000,120118,,*31
2018-01-11 21:03:35 1515722615.821873: $GPGSA,A,3,1,7,8,9,11,23,27,28,30,13,16,138,4.0,0.8,3.5*0D
2018-01-11 21:03:36 1515722616.369984: $GPZDA,020337.00,12,01,2018,00,00*6A
2018-01-11 21:03:36 1515722616.370159: $GPGGA,020337,3946.9592,N,08404.9843,W,2,12,0.80,296.55,M,-33.324,M,,*79
2018-01-11 21:03:36 1515722616.370227: $GPRMC,020337,A,3946.9592,N,08404.9843,W,0.0000,0.000,120118,,*30
2018-01-11 21:03:36 1515722616.370287: $GPGSA,A,3,1,7,8,9,11,23,27,28,30,13,16,138,4.0,0.8,3.5*0D
