2017-11-16 14:57:23 1510862243.389897: {"class":"VERSION","release":"3.17","rev":"3.17","proto_major":3,"proto_minor":12}
2017-11-16 14:57:23 1510862243.390444: {"class":"DEVICES","devices":[{"class":"DEVICE","path":"/dev/ttyUSB0","driver":"SiRF","subtype":"9\u0006GSD4e_4.1.2-P1_RPATCH.05-F-GPS-4R-1510281 11/03/2015 307","activated":"2017-11-16T19:57:23.354Z","flags":1,"native":1,"bps":4800,"parity":"N","stopbits":1,"cycle":1.00}]}
2017-11-16 14:57:23 1510862243.390593: {"class":"WATCH","enable":true,"json":false,"nmea":true,"raw":0,"scaled":false,"timing":false,"split24":false,"pps":false}
2017-11-16 14:57:23 1510862243.532552: $GPZDA,195722.00,16,11,2017,00,00*6F
2017-11-16 14:57:23 1510862243.532780: $GPGGA,195722,3946.9575,N,08404.9848,W,2,11,0.80,301.77,M,-33.324,M,,*78
2017-11-16 14:57:23 1510862243.532858: $GPRMC,195722,A,3946.9575,N,08404.9848,W,0.0000,0.000,161117,,*37
2017-11-16 14:57:23 1510862243.532925: $GPGSA,A,3,8,10,15,18,21,20,24,27,32,14,138,,1.6,0.8,1.3*37
2017-11-16 14:57:24 1510862244.870045: $GPGSV,3,1,12,08,08,304,32,10,57,316,51,12,01,117,00,15,21,060,48*75
2017-11-16 14:57:24 1510862244.870225: $GPGSV,3,2,12,18,77,048,45,21,43,181,45,20,18,109,46,24,52,076,49*7E
2017-11-16 14:57:24 1510862244.870322: $GPGSV,3,3,12,27,13,271,41,32,36,252,47,14,19,244,45,138,38,213,44*41
2017-11-16 14:57:24 1510862244.983752: $GPZDA,195723.00,16,11,2017,00,00*6E
2017-11-16 14:57:24 1510862244.983901: $GPGGA,195723,3946.9575,N,08404.9848,W,2,11,0.80,301.77,M,-33.324,M,,*79
2017-11-16 14:57:24 1510862244.983964: $GPRMC,195723,A,3946.9575,N,08404.9848,W,0.0000,0.000,161117,,*36
2017-11-16 14:57:24 1510862244.984022: $GPGSA,A,3,8,10,15,18,21,20,24,27,32,14,138,,1.6,0.8,1.3*37
2017-11-16 14:57:25 1510862245.488344: $GPZDA,195724.00,16,11,2017,00,00*69
2017-11-16 14:57:25 1510862245.488510: $GPGGA,195724,3946.9575,N,08404.9848,W,2,11,0.80,301.77,M,-33.324,M,,*7E
2017-11-16 14:57:25 1510862245.488573: $GPRMC,195724,A,3946.9575,N,08404.9848,W,0.0000,0.000,161117,,*31
2017-11-16 14:57:25 1510862245.488629: $GPGSA,A,3,8,10,15,18,21,20,24,27,32,14,138,,1.6,0.8,1.3*37
2017-11-16 14:57:26 1510862246.532708: $GPZDA,195725.00,16,11,2017,00,00*68
2017-11-16 14:57:26 1510862246.532877: $GPGGA,195725,3946.9575,N,08404.9848,W,2,11,0.80,301.77,M,-33.324,M,,*7F
2017-11-16 14:57:26 1510862246.532942: $GPRMC,195725,A,3946.9575,N,08404.9848,W,0.0000,0.000,161117,,*30
2017-11-16 14:57:26 1510862246.532998: $GPGSA,A,3,8,10,15,18,21,20,24,27,32,14,138,,1.6,0.8,1.3*37
2017-11-16 14:57:27 1510862247.867258: $GPGSV,3,1,12,08,08,304,32,10,57,316,51,12,01,117,00,15,21,060,48*75
2017-11-16 14:57:27 1510862247.867427: $GPGSV,3,2,12,18,77,048,45,21,43,181,45,20,18,109,46,24,52,076,49*7E
2017-11-16 14:57:27 1510862247.867490: $GPGSV,3,3,12,27,13,271,40,32,36,252,47,14,19,244,45,138,38,213,44*40
2017-11-16 14:57:27 1510862247.980917: $GPZDA,195726.00,16,11,2017,00,00*6B
2017-11-16 14:57:27 1510862247.981081: $GPGGA,195726,3946.9575,N,08404.9848,W,2,11,0.80,301.77,M,-33.324,M,,*7C
2017-11-16 14:57:27 1510862247.981142: $GPRMC,195726,A,3946.9575,N,08404.9848,W,0.0000,0.000,161117,,*33
2017-11-16 14:57:27 1510862247.981199: $GPGSA,A,3,8,10,15,18,21,20,24,27,32,14,138,,1.6,0.8,1.3*37
2017-11-16 14:57:28 1510862248.531783: $GPZDA,195727.00,16,11,2017,00,00*6A
2017-11-16 14:57:28 1510862248.531945: $GPGGA,195727,3946.9575,N,08404.9848,W,2,11,0.80,301.77,M,-33.324,M,,*7D
2017-11-16 14:57:28 1510862248.532008: $GPRMC,195727,A,3946.9575,N,08404.9848,W,0.0000,0.000,161117,,*32
2017-11-16 14:57:28 1510862248.532064: $GPGSA,A,3,8,10,15,18,21,20,24,27,32,14,138,,1.6,0.8,1.3*37
2017-11-16 14:57:29 1510862249.495507: $GPZDA,195728.00,16,11,2017,00,00*65
2017-11-16 14:57:29 1510862249.495677: $GPGGA,195728,3946.9575,N,08404.9848,W,2,11,0.80,301.77,M,-33.324,M,,*72
2017-11-16 14:57:29 1510862249.495740: $GPRMC,195728,A,3946.9575,N,08404.9848,W,0.0000,0.000,161117,,*3D
2017-11-16 14:57:29 1510862249.495796: $GPGSA,A,3,8,10,15,18,21,20,24,27,32,14,138,,1.6,0.8,1.3*37
2017-11-16 14:57:30 1510862250.870103: $GPGSV,3,1,12,08,08,304,33,10,57,316,51,12,01,117,00,15,21,060,48*74
2017-11-16 14:57:30 1510862250.870396: $GPGSV,3,2,12,18,77,048,45,21,43,181,45,20,18,109,46,24,52,076,48*7F
2017-11-16 14:57:30 1510862250.870469: $GPGSV,3,3,12,27,13,271,40,32,36,252,47,14,19,244,44,138,38,213,44*41
2017-11-16 14:57:30 1510862250.983448: $GPZDA,195729.00,16,11,2017,00,00*64
2017-11-16 14:57:30 1510862250.983613: $GPGGA,195729,3946.9575,N,08404.9848,W,2,11,0.80,301.77,M,-33.324,M,,*73
2017-11-16 14:57:30 1510862250.983675: $GPRMC,195729,A,3946.9575,N,08404.9848,W,0.0000,0.000,161117,,*3C
2017-11-16 14:57:30 1510862250.983732: $GPGSA,A,3,8,10,15,18,21,20,24,27,32,14,138,,1.6,0.8,1.3*37
2017-11-16 14:57:31 1510862251.496780: $GPZDA,195730.00,16,11,2017,00,00*6C
2017-11-16 14:57:31 1510862251.496959: $GPGGA,195730,3946.9575,N,08404.9848,W,2,11,0.80,301.77,M,-33.324,M,,*7B
2017-11-16 14:57:31 1510862251.497024: $GPRMC,195730,A,3946.9575,N,08404.9848,W,0.0000,0.000,161117,,*34
2017-11-16 14:57:31 1510862251.497080: $GPGSA,A,3,8,10,15,18,21,20,24,27,32,14,138,,1.6,0.8,1.3*37
2017-11-16 14:57:32 1510862252.532667: $GPZDA,195731.00,16,11,2017,00,00*6D
2017-11-16 14:57:32 1510862252.532837: $GPGGA,195731,3946.9575,N,08404.9848,W,2,11,0.80,301.77,M,-33.324,M,,*7A
2017-11-16 14:57:32 1510862252.532901: $GPRMC,195731,A,3946.9575,N,08404.9848,W,0.0000,0.000,161117,,*35
2017-11-16 14:57:32 1510862252.532958: $GPGSA,A,3,8,10,15,18,21,20,24,27,32,14,138,,1.6,0.8,1.3*37
