2017-12-01 15:35:31 1512160531.157151: {"class":"VERSION","release":"3.16","rev":"3.16-4","proto_major":3,"proto_minor":11}
2017-12-01 15:35:31 1512160531.157578: {"class":"DEVICES","devices":[{"class":"DEVICE","path":"/dev/ttyUSB0","driver":"SiRF","subtype":"9\u0006GSD4e_4.1.2-P1_RPATCH.05-F-GPS-4R-1510281 11/03/2015 307","activated":"2017-12-01T20:35:31.091Z","flags":1,"native":1,"bps":4800,"parity":"N","stopbits":1,"cycle":1.00}]}
2017-12-01 15:35:31 1512160531.157693: {"class":"WATCH","enable":true,"json":false,"nmea":true,"raw":0,"scaled":false,"timing":false,"split24":false,"pps":false}
2017-12-01 15:35:31 1512160531.203426: $GPZDA,203531.87,01,12,2017,00,00*69
2017-12-01 15:35:31 1512160531.203598: $GPGGA,203531,3946.9551,N,08404.9760,W,1,11,0.80,318.06,M,-33.324,M,,*7A
2017-12-01 15:35:31 1512160531.203663: $GPRMC,203531,A,3946.9551,N,08404.9760,W,0.1867,180.000,011217,,*3C
2017-12-01 15:35:31 1512160531.203724: $GPGSA,A,3,1,10,11,12,14,18,24,25,31,32,138,,2.0,0.8,1.5*3B
2017-12-01 15:35:31 1512160531.203781: $GPGBS,203531,10.70,M,15.43,M,35.28,M*01
2017-12-01 15:35:32 1512160532.262489: $GPZDA,203532.37,01,12,2017,00,00*61
2017-12-01 15:35:32 1512160532.262660: $GPGGA,203532,3946.9569,N,08404.9796,W,1,11,0.80,309.55,M,-33.324,M,,*7D
2017-12-01 15:35:32 1512160532.262727: $GPRMC,203532,A,3946.9569,N,08404.9796,W,0.1567,189.200,011217,,*3B
2017-12-01 15:35:32 1512160532.262788: $GPGSA,A,3,1,10,11,12,14,18,24,25,31,32,138,,2.0,0.8,1.5*3B
2017-12-01 15:35:33 1512160533.382507: $GPGSV,3,1,11,01,11,321,36,10,74,124,47,11,10,304,39,12,24,076,45*70
2017-12-01 15:35:33 1512160533.382689: $GPGSV,3,2,11,14,52,286,42,18,41,132,45,24,18,045,41,25,27,118,46*7E
2017-12-01 15:35:33 1512160533.382756: $GPGSV,3,3,11,31,31,210,47,32,66,319,49,138,38,213,36*7A
2017-12-01 15:35:33 1512160533.495898: $GPZDA,203533.00,01,12,2017,00,00*64
2017-12-01 15:35:33 1512160533.496054: $GPGGA,203533,3946.9567,N,08404.9802,W,1,11,0.80,306.67,M,-33.324,M,,*7E
2017-12-01 15:35:33 1512160533.496120: $GPRMC,203533,A,3946.9567,N,08404.9802,W,0.0000,0.000,011217,,*31
2017-12-01 15:35:33 1512160533.496181: $GPGSA,A,3,1,10,11,12,14,18,24,25,31,32,138,,2.0,0.8,1.5*3B
2017-12-01 15:35:33 1512160533.946793: $GPZDA,203534.00,01,12,2017,00,00*63
2017-12-01 15:35:33 1512160533.946976: $GPGGA,203534,3946.9568,N,08404.9802,W,1,11,0.80,308.07,M,-33.324,M,,*7E
2017-12-01 15:35:33 1512160533.947046: $GPRMC,203534,A,3946.9568,N,08404.9802,W,0.1567,9.200,011217,,*37
2017-12-01 15:35:33 1512160533.947110: $GPGSA,A,3,1,10,11,12,14,18,24,25,31,32,138,,2.0,0.8,1.5*3B
2017-12-01 15:35:34 1512160534.402690: $GPZDA,203535.00,01,12,2017,00,00*62
2017-12-01 15:35:34 1512160534.402860: $GPGGA,203535,3946.9560,N,08404.9809,W,1,11,0.80,306.71,M,-33.324,M,,*73
2017-12-01 15:35:34 1512160534.402929: $GPRMC,203535,A,3946.9560,N,08404.9809,W,0.0000,0.000,011217,,*3B
2017-12-01 15:35:34 1512160534.402994: $GPGSA,A,3,1,10,11,12,14,18,24,25,31,32,138,,2.0,0.8,1.5*3B
2017-12-01 15:35:35 1512160535.739107: $GPGSV,3,1,11,01,11,321,36,10,74,124,46,11,10,304,39,12,24,076,44*70
2017-12-01 15:35:35 1512160535.739311: $GPGSV,3,2,11,14,52,286,42,18,41,132,45,24,18,045,40,25,27,118,45*7C
2017-12-01 15:35:35 1512160535.739383: $GPGSV,3,3,11,31,31,210,46,32,66,319,49,138,38,213,45*7F
2017-12-01 15:35:35 1512160535.852588: $GPZDA,203536.00,01,12,2017,00,00*61
2017-12-01 15:35:35 1512160535.852762: $GPGGA,203536,3946.9546,N,08404.9847,W,1,11,0.80,295.89,M,-33.324,M,,*72
2017-12-01 15:35:35 1512160535.852831: $GPRMC,203536,A,3946.9546,N,08404.9847,W,0.0000,0.000,011217,,*36
2017-12-01 15:35:35 1512160535.852894: $GPGSA,A,3,1,10,11,12,14,18,24,25,31,32,138,,2.0,0.8,1.5*3B
2017-12-01 15:35:36 1512160536.403449: $GPZDA,203537.00,01,12,2017,00,00*60
2017-12-01 15:35:36 1512160536.403630: $GPGGA,203537,3946.9546,N,08404.9847,W,1,11,0.80,295.89,M,-33.324,M,,*73
2017-12-01 15:35:36 1512160536.403700: $GPRMC,203537,A,3946.9546,N,08404.9847,W,0.0000,0.000,011217,,*37
2017-12-01 15:35:36 1512160536.403763: $GPGSA,A,3,1,10,11,12,14,18,24,25,31,32,138,,2.0,0.8,1.5*3B
2017-12-01 15:35:37 1512160537.404523: $GPZDA,203538.00,01,12,2017,00,00*6F
2017-12-01 15:35:37 1512160537.404744: $GPGGA,203538,3946.9550,N,08404.9860,W,1,11,0.80,294.97,M,-33.324,M,,*70
2017-12-01 15:35:37 1512160537.404812: $GPRMC,203538,A,3946.9550,N,08404.9860,W,0.0000,0.000,011217,,*3A
2017-12-01 15:35:37 1512160537.404872: $GPGSA,A,3,1,10,11,12,14,18,24,25,31,32,138,,2.0,0.8,1.5*3B
2017-12-01 15:35:37 1512160537.404930: $GPGBS,203538,10.70,M,15.43,M,35.28,M*08
2017-12-01 15:35:38 1512160538.738883: $GPGSV,3,1,11,01,11,321,37,10,74,124,47,11,10,304,40,12,24,076,44*7E
2017-12-01 15:35:38 1512160538.739066: $GPGSV,3,2,11,14,52,286,42,18,41,132,45,24,18,045,40,25,27,118,45*7C
2017-12-01 15:35:38 1512160538.739132: $GPGSV,3,3,11,31,31,210,47,32,66,319,49,138,38,213,46*7D
2017-12-01 15:35:38 1512160538.852048: $GPZDA,203539.00,01,12,2017,00,00*6E
2017-12-01 15:35:38 1512160538.852236: $GPGGA,203539,3946.9550,N,08404.9860,W,1,11,0.80,294.97,M,-33.324,M,,*71
2017-12-01 15:35:38 1512160538.852328: $GPRMC,203539,A,3946.9550,N,08404.9860,W,0.0000,0.000,011217,,*3B
2017-12-01 15:35:38 1512160538.852393: $GPGSA,A,3,1,10,11,12,14,18,24,25,31,32,138,,2.0,0.8,1.5*3B
2017-12-01 15:35:39 1512160539.405453: $GPZDA,203540.00,01,12,2017,00,00*60
2017-12-01 15:35:39 1512160539.405628: $GPGGA,203540,3946.9550,N,08404.9860,W,1,11,0.80,294.97,M,-33.324,M,,*7F
2017-12-01 15:35:39 1512160539.405698: $GPRMC,203540,A,3946.9550,N,08404.9860,W,0.0000,0.000,011217,,*35
2017-12-01 15:35:39 1512160539.405763: $GPGSA,A,3,1,10,11,12,14,18,24,25,31,32,138,,2.0,0.8,1.5*3B
2017-12-01 15:35:40 1512160540.404647: $GPZDA,203541.00,01,12,2017,00,00*61
2017-12-01 15:35:40 1512160540.404819: $GPGGA,203541,3946.9550,N,08404.9860,W,2,11,1.20,294.97,M,-33.324,M,,*76
2017-12-01 15:35:40 1512160540.404888: $GPRMC,203541,A,3946.9550,N,08404.9860,W,0.0000,0.000,011217,,*34
2017-12-01 15:35:40 1512160540.404952: $GPGSA,A,3,1,10,11,12,14,18,24,25,31,32,138,,2.0,1.2,1.5*30
2017-12-01 15:35:41 1512160541.741508: $GPGSV,3,1,11,01,11,321,37,10,74,124,46,11,10,304,40,12,24,076,44*7F
2017-12-01 15:35:41 1512160541.741695: $GPGSV,3,2,11,14,52,286,42,18,41,132,45,24,18,045,40,25,27,118,45*7C
2017-12-01 15:35:41 1512160541.741767: $GPGSV,3,3,11,31,31,210,46,32,66,319,49,138,38,213,45*7F
2017-12-01 15:35:41 1512160541.854858: $GPZDA,203542.00,01,12,2017,00,00*62
2017-12-01 15:35:41 1512160541.855006: $GPGGA,203542,3946.9550,N,08404.9860,W,2,11,0.80,294.97,M,-33.324,M,,*7E
2017-12-01 15:35:41 1512160541.855076: $GPRMC,203542,A,3946.9550,N,08404.9860,W,0.0000,0.000,011217,,*37
2017-12-01 15:35:41 1512160541.855141: $GPGSA,A,3,1,10,11,12,14,18,24,25,31,32,138,,2.0,0.8,1.5*3B
2017-12-01 15:35:42 1512160542.403282: $GPZDA,203543.00,01,12,2017,00,00*63
2017-12-01 15:35:42 1512160542.403471: $GPGGA,203543,3946.9550,N,08404.9860,W,2,11,0.80,294.97,M,-33.324,M,,*7F
2017-12-01 15:35:42 1512160542.403542: $GPRMC,203543,A,3946.9550,N,08404.9860,W,0.0000,0.000,011217,,*36
2017-12-01 15:35:42 1512160542.403607: $GPGSA,A,3,1,10,11,12,14,18,24,25,31,32,138,,2.0,0.8,1.5*3B
2017-12-01 15:35:43 1512160543.406607: $GPZDA,203544.00,01,12,2017,00,00*64
2017-12-01 15:35:43 1512160543.406791: $GPGGA,203544,3946.9546,N,08404.9861,W,2,11,0.80,295.73,M,-33.324,M,,*75
2017-12-01 15:35:43 1512160543.406862: $GPRMC,203544,A,3946.9546,N,08404.9861,W,0.0000,0.000,011217,,*37
2017-12-01 15:35:43 1512160543.406926: $GPGSA,A,3,1,10,11,12,14,18,24,25,31,32,138,,2.0,0.8,1.5*3B
2017-12-01 15:35:44 1512160544.740048: $GPGSV,3,1,11,01,11,321,37,10,74,124,47,11,10,304,40,12,24,076,44*7E
2017-12-01 15:35:44 1512160544.740279: $GPGSV,3,2,11,14,52,286,42,18,41,132,45,24,18,045,40,25,27,118,45*7C
2017-12-01 15:35:44 1512160544.740352: $GPGSV,3,3,11,31,31,210,47,32,66,319,49,138,38,213,46*7D
2017-12-01 15:35:44 1512160544.853221: $GPZDA,203545.00,01,12,2017,00,00*65
2017-12-01 15:35:44 1512160544.853444: $GPGGA,203545,3946.9546,N,08404.9861,W,2,11,0.80,295.73,M,-33.324,M,,*74
2017-12-01 15:35:44 1512160544.853517: $GPRMC,203545,A,3946.9546,N,08404.9861,W,0.0000,0.000,011217,,*36
2017-12-01 15:35:44 1512160544.853581: $GPGSA,A,3,1,10,11,12,14,18,24,25,31,32,138,,2.0,0.8,1.5*3B
2017-12-01 15:35:45 1512160545.478835: $GPZDA,203546.00,01,12,2017,00,00*66
2017-12-01 15:35:45 1512160545.478993: $GPGGA,203546,3946.9546,N,08404.9861,W,2,11,0.80,295.73,M,-33.324,M,,*77
2017-12-01 15:35:45 1512160545.479060: $GPRMC,203546,A,3946.9546,N,08404.9861,W,0.0000,0.000,011217,,*35
2017-12-01 15:35:45 1512160545.479121: $GPGSA,A,3,1,10,11,12,14,18,24,25,31,32,138,,2.0,0.8,1.5*3B
2017-12-01 15:35:46 1512160546.408273: $GPZDA,203547.00,01,12,2017,00,00*67
2017-12-01 15:35:46 1512160546.408460: $GPGGA,203547,3946.9546,N,08404.9861,W,2,11,0.80,295.73,M,-33.324,M,,*76
2017-12-01 15:35:46 1512160546.408528: $GPRMC,203547,A,3946.9546,N,08404.9861,W,0.0000,0.000,011217,,*34
2017-12-01 15:35:46 1512160546.408589: $GPGSA,A,3,1,10,11,12,14,18,24,25,31,32,138,,2.0,0.8,1.5*3B
2017-12-01 15:35:47 1512160547.745178: $GPGSV,3,1,11,01,11,321,38,10,74,124,47,11,10,304,41,12,24,076,44*70
2017-12-01 15:35:47 1512160547.745407: $GPGSV,3,2,11,14,52,286,43,18,41,132,45,24,18,045,40,25,27,118,45*7D
2017-12-01 15:35:47 1512160547.745474: $GPGSV,3,3,11,31,31,210,47,32,66,319,49,138,38,213,46*7D
2017-12-01 15:35:47 1512160547.858573: $GPZDA,203548.00,01,12,2017,00,00*68
2017-12-01 15:35:47 1512160547.858741: $GPGGA,203548,3946.9546,N,08404.9854,W,2,11,0.80,295.81,M,-33.324,M,,*72
2017-12-01 15:35:47 1512160547.858807: $GPRMC,203548,A,3946.9546,N,08404.9854,W,0.0000,0.000,011217,,*3D
2017-12-01 15:35:47 1512160547.858887: $GPGSA,A,3,1,10,11,12,14,18,24,25,31,32,138,,2.0,0.8,1.5*3B
2017-12-01 15:35:48 1512160548.405943: $GPZDA,203549.00,01,12,2017,00,00*69
2017-12-01 15:35:48 1512160548.406104: $GPGGA,203549,3946.9554,N,08404.9847,W,2,11,0.80,297.17,M,-33.324,M,,*7F
2017-12-01 15:35:48 1512160548.406170: $GPRMC,203549,A,3946.9554,N,08404.9847,W,0.2422,93.794,011217,,*0B
2017-12-01 15:35:48 1512160548.406252: $GPGSA,A,3,1,10,11,12,14,18,24,25,31,32,138,,2.0,0.8,1.5*3B
2017-12-01 15:35:49 1512160549.408955: $GPZDA,203550.00,01,12,2017,00,00*61
2017-12-01 15:35:49 1512160549.409140: $GPGGA,203550,3946.9554,N,08404.9847,W,2,11,0.80,297.17,M,-33.324,M,,*77
2017-12-01 15:35:49 1512160549.409237: $GPRMC,203550,A,3946.9554,N,08404.9847,W,0.0000,0.000,011217,,*35
2017-12-01 15:35:49 1512160549.409305: $GPGSA,A,3,1,10,11,12,14,18,24,25,31,32,138,,2.0,0.8,1.5*3B
2017-12-01 15:35:49 1512160549.409398: $GPGBS,203550,2.67,M,3.86,M,8.82,M*33
2017-12-01 15:35:50 1512160550.742925: $GPGSV,3,1,11,01,11,321,38,10,74,124,47,11,10,304,40,12,24,076,45*70
2017-12-01 15:35:50 1512160550.743093: $GPGSV,3,2,11,14,52,286,43,18,41,132,45,24,18,045,40,25,27,118,46*7E
2017-12-01 15:35:50 1512160550.743162: $GPGSV,3,3,11,31,31,210,47,32,66,319,49,138,38,213,45*7E
2017-12-01 15:35:50 1512160550.856308: $GPZDA,203551.00,01,12,2017,00,00*60
2017-12-01 15:35:50 1512160550.856499: $GPGGA,203551,3946.9554,N,08404.9847,W,2,11,0.80,297.17,M,-33.324,M,,*76
2017-12-01 15:35:50 1512160550.856570: $GPRMC,203551,A,3946.9554,N,08404.9847,W,0.0000,0.000,011217,,*34
2017-12-01 15:35:50 1512160550.856634: $GPGSA,A,3,1,10,11,12,14,18,24,25,31,32,138,,2.0,0.8,1.5*3B
