2017-11-16 17:35:27 1510871727.020222: {"class":"VERSION","release":"3.17","rev":"3.17","proto_major":3,"proto_minor":12}
2017-11-16 17:35:27 1510871727.020706: {"class":"DEVICES","devices":[{"class":"DEVICE","path":"/dev/ttyUSB0","driver":"SiRF","subtype":"9\u0006GSD4e_4.1.2-P1_RPATCH.05-F-GPS-4R-1510281 11/03/2015 307","activated":"2017-11-16T22:35:26.532Z","flags":1,"native":1,"bps":4800,"parity":"N","stopbits":1,"cycle":1.00}]}
2017-11-16 17:35:27 1510871727.020826: {"class":"WATCH","enable":true,"json":false,"nmea":true,"raw":0,"scaled":false,"timing":false,"split24":false,"pps":false}
2017-11-16 17:35:27 1510871727.759089: $GPGSV,3,1,12,01,21,300,34,10,47,148,46,22,19,312,43,12,22,049,50*77
2017-11-16 17:35:27 1510871727.759259: $GPGSV,3,2,12,14,66,330,47,18,17,144,41,26,03,183,11,11,08,280,42*7F
2017-11-16 17:35:27 1510871727.759319: $GPGSV,3,3,12,25,40,088,48,31,56,226,49,32,68,030,49,138,38,213,44*4F
2017-11-16 17:35:27 1510871727.872350: $GPZDA,223526.00,16,11,2017,00,00*67
2017-11-16 17:35:27 1510871727.872523: $GPGGA,223526,3946.9575,N,08404.9834,W,2,12,0.80,303.34,M,-33.324,M,,*7D
2017-11-16 17:35:27 1510871727.872585: $GPRMC,223526,A,3946.9575,N,08404.9834,W,0.0000,0.000,161117,,*34
2017-11-16 17:35:27 1510871727.872641: $GPGSA,A,3,1,10,22,12,14,18,26,11,25,31,32,138,1.6,0.8,1.3*3A
2017-11-16 17:35:28 1510871728.421002: $GPZDA,223527.00,16,11,2017,00,00*66
2017-11-16 17:35:28 1510871728.421181: $GPGGA,223527,3946.9575,N,08404.9834,W,2,12,0.80,303.34,M,-33.324,M,,*7C
2017-11-16 17:35:28 1510871728.421244: $GPRMC,223527,A,3946.9575,N,08404.9834,W,0.0000,0.000,161117,,*35
2017-11-16 17:35:28 1510871728.421300: $GPGSA,A,3,1,10,22,12,14,18,26,11,25,31,32,138,1.6,0.8,1.3*3A
2017-11-16 17:35:29 1510871729.421854: $GPZDA,223528.00,16,11,2017,00,00*69
2017-11-16 17:35:29 1510871729.422030: $GPGGA,223528,3946.9575,N,08404.9834,W,2,12,0.80,303.34,M,-33.324,M,,*73
2017-11-16 17:35:29 1510871729.422092: $GPRMC,223528,A,3946.9575,N,08404.9834,W,0.0000,0.000,161117,,*3A
2017-11-16 17:35:29 1510871729.422149: $GPGSA,A,3,1,10,22,12,14,18,26,11,25,31,32,138,1.6,0.8,1.3*3A
2017-11-16 17:35:30 1510871730.757381: $GPGSV,3,1,12,01,21,300,33,10,47,148,46,22,19,312,42,12,22,049,50*71
2017-11-16 17:35:30 1510871730.757550: $GPGSV,3,2,12,14,66,330,47,18,17,144,41,26,03,183,27,11,08,280,42*7A
2017-11-16 17:35:30 1510871730.757610: $GPGSV,3,3,12,25,40,088,48,31,56,226,49,32,68,030,49,138,38,213,44*4F
2017-11-16 17:35:30 1510871730.869815: $GPZDA,223529.00,16,11,2017,00,00*68
2017-11-16 17:35:30 1510871730.869990: $GPGGA,223529,3946.9575,N,08404.9834,W,2,12,0.80,303.34,M,-33.324,M,,*72
2017-11-16 17:35:30 1510871730.870052: $GPRMC,223529,A,3946.9575,N,08404.9834,W,0.0000,0.000,161117,,*3B
2017-11-16 17:35:30 1510871730.870108: $GPGSA,A,3,1,10,22,12,14,18,26,11,25,31,32,138,1.6,0.8,1.3*3A
2017-11-16 17:35:31 1510871731.496214: $GPZDA,223530.00,16,11,2017,00,00*60
2017-11-16 17:35:31 1510871731.496400: $GPGGA,223530,3946.9575,N,08404.9834,W,2,12,0.80,303.34,M,-33.324,M,,*7A
2017-11-16 17:35:31 1510871731.496464: $GPRMC,223530,A,3946.9575,N,08404.9834,W,0.0000,0.000,161117,,*33
2017-11-16 17:35:31 1510871731.496522: $GPGSA,A,3,1,10,22,12,14,18,26,11,25,31,32,138,1.6,0.8,1.3*3A
2017-11-16 17:35:32 1510871732.418239: $GPZDA,223531.00,16,11,2017,00,00*61
2017-11-16 17:35:32 1510871732.418424: $GPGGA,223531,3946.9575,N,08404.9834,W,2,12,0.80,303.34,M,-33.324,M,,*7B
2017-11-16 17:35:32 1510871732.418488: $GPRMC,223531,A,3946.9575,N,08404.9834,W,0.0000,0.000,161117,,*32
2017-11-16 17:35:32 1510871732.418544: $GPGSA,A,3,1,10,22,12,14,18,26,11,25,31,32,138,1.6,0.8,1.3*3A
2017-11-16 17:35:33 1510871733.750368: $GPGSV,3,1,12,01,21,300,32,10,47,148,46,22,19,312,42,12,22,049,50*70
2017-11-16 17:35:33 1510871733.750564: $GPGSV,3,2,12,14,66,330,47,18,17,144,41,26,03,183,27,11,08,280,41*79
2017-11-16 17:35:33 1510871733.750627: $GPGSV,3,3,12,25,40,088,48,31,56,226,49,32,68,030,49,138,38,213,43*48
2017-11-16 17:35:33 1510871733.863889: $GPZDA,223532.00,16,11,2017,00,00*62
2017-11-16 17:35:33 1510871733.864037: $GPGGA,223532,3946.9575,N,08404.9834,W,2,12,0.80,303.34,M,-33.324,M,,*78
2017-11-16 17:35:33 1510871733.864148: $GPRMC,223532,A,3946.9575,N,08404.9834,W,0.0000,0.000,161117,,*31
2017-11-16 17:35:33 1510871733.864206: $GPGSA,A,3,1,10,22,12,14,18,26,11,25,31,32,138,1.6,0.8,1.3*3A
2017-11-16 17:35:34 1510871734.420729: $GPZDA,223533.00,16,11,2017,00,00*63
2017-11-16 17:35:34 1510871734.420892: $GPGGA,223533,3946.9575,N,08404.9834,W,2,12,0.80,303.34,M,-33.324,M,,*79
2017-11-16 17:35:34 1510871734.420956: $GPRMC,223533,A,3946.9575,N,08404.9834,W,0.0000,0.000,161117,,*30
2017-11-16 17:35:34 1510871734.421013: $GPGSA,A,3,1,10,22,12,14,18,26,11,25,31,32,138,1.6,0.8,1.3*3A
2017-11-16 17:35:35 1510871735.397831: $GPZDA,223534.00,16,11,2017,00,00*64
2017-11-16 17:35:35 1510871735.397981: $GPGGA,223534,3946.9575,N,08404.9834,W,2,12,0.80,303.34,M,-33.324,M,,*7E
2017-11-16 17:35:35 1510871735.398043: $GPRMC,223534,A,3946.9575,N,08404.9834,W,0.0000,0.000,161117,,*37
2017-11-16 17:35:35 1510871735.398099: $GPGSA,A,3,1,10,22,12,14,18,26,11,25,31,32,138,1.6,0.8,1.3*3A
2017-11-16 17:35:36 1510871736.735642: $GPGSV,3,1,12,01,21,300,27,10,47,148,46,22,19,312,42,12,22,049,50*74
2017-11-16 17:35:36 1510871736.735815: $GPGSV,3,2,12,14,66,330,47,18,17,144,41,26,03,183,27,11,08,280,40*78
2017-11-16 17:35:36 1510871736.735875: $GPGSV,3,3,12,25,40,088,47,31,56,226,48,32,68,030,49,138,38,213,44*41
2017-11-16 17:35:36 1510871736.849044: $GPZDA,223535.00,16,11,2017,00,00*65
2017-11-16 17:35:36 1510871736.849213: $GPGGA,223535,3946.9575,N,08404.9834,W,2,12,0.80,303.34,M,-33.324,M,,*7F
2017-11-16 17:35:36 1510871736.849278: $GPRMC,223535,A,3946.9575,N,08404.9834,W,0.0000,0.000,161117,,*36
2017-11-16 17:35:36 1510871736.849335: $GPGSA,A,3,1,10,22,12,14,18,26,11,25,31,32,138,1.6,0.8,1.3*3A
