2017-11-15 18:52:12 1510789932.244689: {"class":"VERSION","release":"3.17","rev":"3.17","proto_major":3,"proto_minor":12}
2017-11-15 18:52:12 1510789932.245153: {"class":"DEVICES","devices":[{"class":"DEVICE","path":"/dev/ttyUSB0","driver":"SiRF","subtype":"9\u0006GSD4e_4.1.2-P1_RPATCH.05-F-GPS-4R-1510281 11/03/2015 307","activated":"2017-11-15T23:52:12.216Z","flags":1,"native":1,"bps":4800,"parity":"N","stopbits":1,"cycle":1.00}]}
2017-11-15 18:52:12 1510789932.245276: {"class":"WATCH","enable":true,"json":false,"nmea":true,"raw":0,"scaled":false,"timing":false,"split24":false,"pps":false}
2017-11-15 18:52:12 1510789932.664632: $GPGSV,3,1,11,29,04,085,14,14,65,063,25,03,28,312,14,32,49,090,16*76
2017-11-15 18:52:12 1510789932.664817: $GPGSV,3,2,11,31,79,331,27,26,35,177,17,16,06,190,07,25,30,049,00*72
2017-11-15 18:52:12 1510789932.664876: $GPGSV,3,3,11,01,15,267,18,22,45,294,12,10,13,157,00*4B
2017-11-15 18:52:12 1510789932.778334: $GPZDA,235211.00,15,11,2017,00,00*60
2017-11-15 18:52:12 1510789932.778494: $GPGGA,235211,3946.9657,N,08404.9502,W,1,08,1.40,313.23,M,-33.324,M,,*70
2017-11-15 18:52:12 1510789932.778556: $GPRMC,235211,A,3946.9657,N,08404.9502,W,0.8709,183.298,151117,,*37
2017-11-15 18:52:12 1510789932.778611: $GPGSA,A,3,29,14,3,32,31,26,1,22,,,,,3.4,1.4,2.9*30
2017-11-15 18:52:13 1510789933.330439: $GPZDA,235212.00,15,11,2017,00,00*63
2017-11-15 18:52:13 1510789933.330600: $GPGGA,235212,3946.9658,N,08404.9509,W,1,08,1.40,313.15,M,-33.324,M,,*72
2017-11-15 18:52:13 1510789933.330662: $GPRMC,235212,A,3946.9658,N,08404.9509,W,0.6846,184.197,151117,,*31
2017-11-15 18:52:13 1510789933.330721: $GPGSA,A,3,29,14,3,32,31,26,1,22,,,,,3.4,1.4,2.9*30
2017-11-15 18:52:14 1510789934.328823: $GPZDA,235213.00,15,11,2017,00,00*62
2017-11-15 18:52:14 1510789934.328989: $GPGGA,235213,3946.9654,N,08404.9509,W,1,08,1.40,312.51,M,-33.324,M,,*7E
2017-11-15 18:52:14 1510789934.329050: $GPRMC,235213,A,3946.9654,N,08404.9509,W,0.3155,129.994,151117,,*3E
2017-11-15 18:52:14 1510789934.329107: $GPGSA,A,3,29,14,3,32,31,26,1,22,,,,,3.4,1.4,2.9*30
2017-11-15 18:52:15 1510789935.665494: $GPGSV,3,1,11,29,04,085,10,14,65,063,25,03,28,312,13,32,49,090,17*74
2017-11-15 18:52:15 1510789935.665674: $GPGSV,3,2,11,31,79,331,27,26,35,177,17,25,30,049,00,10,13,157,00*7C
2017-11-15 18:52:15 1510789935.665734: $GPGSV,3,3,11,01,15,267,18,22,45,294,13,16,06,190,00*43
2017-11-15 18:52:15 1510789935.778833: $GPZDA,235214.00,15,11,2017,00,00*65
2017-11-15 18:52:15 1510789935.779008: $GPGGA,235214,3946.9654,N,08404.9509,W,1,08,1.40,312.51,M,-33.324,M,,*79
2017-11-15 18:52:15 1510789935.779068: $GPRMC,235214,A,3946.9654,N,08404.9509,W,0.2422,273.794,151117,,*3F
2017-11-15 18:52:15 1510789935.779124: $GPGSA,A,3,29,14,3,32,31,26,1,22,,,,,3.4,1.4,2.9*30
2017-11-15 18:52:16 1510789936.404215: $GPZDA,235215.00,15,11,2017,00,00*64
2017-11-15 18:52:16 1510789936.404456: $GPGGA,235215,3946.9654,N,08404.9509,W,1,08,1.40,312.51,M,-33.324,M,,*78
2017-11-15 18:52:16 1510789936.404602: $GPRMC,235215,A,3946.9654,N,08404.9509,W,0.8359,328.778,151117,,*32
2017-11-15 18:52:16 1510789936.404665: $GPGSA,A,3,29,14,3,32,31,26,1,22,,,,,3.4,1.4,2.9*30
2017-11-15 18:52:17 1510789937.329050: $GPZDA,235216.00,15,11,2017,00,00*67
2017-11-15 18:52:17 1510789937.329211: $GPGGA,235216,3946.9658,N,08404.9516,W,1,08,1.40,313.07,M,-33.324,M,,*7B
2017-11-15 18:52:17 1510789937.329271: $GPRMC,235216,A,3946.9658,N,08404.9516,W,0.9060,347.792,151117,,*36
2017-11-15 18:52:17 1510789937.329326: $GPGSA,A,3,29,14,3,32,31,26,1,22,,,,,3.4,1.4,2.9*30
2017-11-15 18:52:18 1510789938.664576: $GPGSV,3,1,11,29,04,085,06,14,65,063,25,03,28,312,13,32,49,090,16*72
2017-11-15 18:52:18 1510789938.664756: $GPGSV,3,2,11,31,79,331,27,26,35,177,17,25,30,049,00,10,13,157,00*7C
2017-11-15 18:52:18 1510789938.664816: $GPGSV,3,3,11,01,15,267,18,22,45,294,14,16,06,190,00*44
2017-11-15 18:52:18 1510789938.777943: $GPZDA,235217.00,15,11,2017,00,00*66
2017-11-15 18:52:18 1510789938.778104: $GPGGA,235217,3946.9662,N,08404.9515,W,1,08,1.40,312.31,M,-33.324,M,,*74
2017-11-15 18:52:18 1510789938.778166: $GPRMC,235217,A,3946.9662,N,08404.9515,W,1.5746,354.845,151117,,*34
2017-11-15 18:52:18 1510789938.778279: $GPGSA,A,3,29,14,3,32,31,26,1,22,,,,,3.4,1.4,2.9*30
2017-11-15 18:52:19 1510789939.331545: $GPZDA,235218.00,15,11,2017,00,00*69
2017-11-15 18:52:19 1510789939.331710: $GPGGA,235218,3946.9666,N,08404.9522,W,1,08,1.40,312.87,M,-33.324,M,,*76
2017-11-15 18:52:19 1510789939.331774: $GPRMC,235218,A,3946.9666,N,08404.9522,W,1.7268,356.134,151117,,*3D
2017-11-15 18:52:19 1510789939.331830: $GPGSA,A,3,29,14,3,32,31,26,1,22,,,,,3.4,1.4,2.9*30
2017-11-15 18:52:20 1510789940.366237: $GPZDA,235219.00,15,11,2017,00,00*68
2017-11-15 18:52:20 1510789940.366401: $GPGGA,235219,3946.9674,N,08404.9521,W,1,08,1.40,312.74,M,-33.324,M,,*7B
2017-11-15 18:52:20 1510789940.366461: $GPRMC,235219,A,3946.9674,N,08404.9521,W,2.0697,10.918,151117,,*0B
2017-11-15 18:52:20 1510789940.366518: $GPGSA,A,3,29,14,3,32,31,26,1,22,,,,,3.4,1.4,2.9*30
2017-11-15 18:52:21 1510789941.702461: $GPGSV,3,1,12,29,04,085,08,14,65,063,25,03,28,312,13,32,49,090,16*7F
2017-11-15 18:52:21 1510789941.702614: $GPGSV,3,2,12,31,79,331,27,26,35,177,16,25,30,049,00,10,13,157,00*7E
2017-11-15 18:52:21 1510789941.702675: $GPGSV,3,3,12,01,15,267,18,22,45,294,14,16,06,190,00,138,38,213,00*46
2017-11-15 18:52:21 1510789941.816145: $GPZDA,235220.00,15,11,2017,00,00*62
2017-11-15 18:52:21 1510789941.816309: $GPGGA,235220,3946.9674,N,08404.9521,W,1,08,1.40,312.74,M,-33.324,M,,*71
2017-11-15 18:52:21 1510789941.816371: $GPRMC,235220,A,3946.9674,N,08404.9521,W,2.0697,10.918,151117,,*01
2017-11-15 18:52:21 1510789941.816426: $GPGSA,A,3,29,14,3,32,31,26,1,22,,,,,3.4,1.4,2.9*30
2017-11-15 18:52:22 1510789942.371676: $GPZDA,235221.00,15,11,2017,00,00*63
2017-11-15 18:52:22 1510789942.371852: $GPGGA,235221,3946.9681,N,08404.9521,W,1,08,1.40,312.62,M,-33.324,M,,*7D
2017-11-15 18:52:22 1510789942.371913: $GPRMC,235221,A,3946.9681,N,08404.9521,W,1.9131,11.058,151117,,*07
2017-11-15 18:52:22 1510789942.371969: $GPGSA,A,3,29,14,3,32,31,26,1,22,,,,,3.4,1.4,2.9*30
2017-11-15 18:52:23 1510789943.366318: $GPZDA,235222.00,15,11,2017,00,00*60
2017-11-15 18:52:23 1510789943.366483: $GPGGA,235222,3946.9685,N,08404.9521,W,1,08,1.40,313.26,M,-33.324,M,,*7B
2017-11-15 18:52:23 1510789943.366543: $GPRMC,235222,A,3946.9685,N,08404.9521,W,2.2400,3.847,151117,,*3A
2017-11-15 18:52:23 1510789943.366599: $GPGSA,A,3,29,14,3,32,31,26,1,22,,,,,3.4,1.4,2.9*30
2017-11-15 18:52:24 1510789944.702132: $GPGSV,3,1,12,29,04,085,06,14,65,063,24,03,28,312,13,32,49,090,16*70
2017-11-15 18:52:24 1510789944.702303: $GPGSV,3,2,12,31,79,331,28,26,35,177,16,25,30,049,00,10,13,157,00*71
2017-11-15 18:52:24 1510789944.702364: $GPGSV,3,3,12,01,15,267,18,22,45,294,14,16,06,190,00,138,38,213,00*46
2017-11-15 18:52:24 1510789944.815697: $GPZDA,235223.00,15,11,2017,00,00*61
2017-11-15 18:52:24 1510789944.815860: $GPGGA,235223,3946.9693,N,08404.9520,W,1,08,1.40,313.13,M,-33.324,M,,*7A
2017-11-15 18:52:24 1510789944.815920: $GPRMC,235223,A,3946.9693,N,08404.9520,W,2.2533,10.018,151117,,*0C
2017-11-15 18:52:24 1510789944.815977: $GPGSA,A,3,29,14,3,32,31,26,1,22,,,,,3.4,1.4,2.9*30
2017-11-15 18:52:25 1510789945.366681: $GPZDA,235224.00,15,11,2017,00,00*66
2017-11-15 18:52:25 1510789945.366900: $GPGGA,235224,3946.9693,N,08404.9520,W,1,08,1.40,313.13,M,-33.324,M,,*7D
2017-11-15 18:52:25 1510789945.366961: $GPRMC,235224,A,3946.9693,N,08404.9520,W,1.8977,3.784,151117,,*3E
2017-11-15 18:52:25 1510789945.367018: $GPGSA,A,3,29,14,3,32,31,26,1,22,,,,,3.4,1.4,2.9*30
2017-11-15 18:52:26 1510789946.366836: $GPZDA,235225.00,15,11,2017,00,00*67
2017-11-15 18:52:26 1510789946.367001: $GPGGA,235225,3946.9701,N,08404.9526,W,1,08,1.40,312.93,M,-33.324,M,,*79
2017-11-15 18:52:26 1510789946.367061: $GPRMC,235225,A,3946.9701,N,08404.9526,W,1.5555,3.694,151117,,*32
2017-11-15 18:52:26 1510789946.367117: $GPGSA,A,3,29,14,3,32,31,26,1,22,,,,,3.4,1.4,2.9*30
2017-11-15 18:52:27 1510789947.702441: $GPGSV,3,1,12,29,04,085,06,14,65,063,24,03,28,312,13,32,49,090,16*70
2017-11-15 18:52:27 1510789947.702640: $GPGSV,3,2,12,31,79,331,27,26,35,177,15,25,30,049,12,10,13,157,00*7E
2017-11-15 18:52:27 1510789947.702767: $GPGSV,3,3,12,01,15,267,18,22,45,294,14,16,06,190,00,138,38,213,00*46
2017-11-15 18:52:27 1510789947.815778: $GPZDA,235226.00,15,11,2017,00,00*64
2017-11-15 18:52:27 1510789947.815940: $GPGGA,235226,3946.9701,N,08404.9526,W,1,08,1.40,312.93,M,-33.324,M,,*7A
2017-11-15 18:52:27 1510789947.816000: $GPRMC,235226,A,3946.9701,N,08404.9526,W,1.2132,3.551,151117,,*39
2017-11-15 18:52:27 1510789947.816056: $GPGSA,A,3,29,14,3,32,31,26,1,22,,,,,3.4,1.4,2.9*30
2017-11-15 18:52:28 1510789948.371670: $GPZDA,235227.00,15,11,2017,00,00*65
2017-11-15 18:52:28 1510789948.371847: $GPGGA,235227,3946.9701,N,08404.9526,W,1,08,1.40,312.93,M,-33.324,M,,*7B
2017-11-15 18:52:28 1510789948.371907: $GPRMC,235227,A,3946.9701,N,08404.9526,W,1.2132,3.551,151117,,*38
2017-11-15 18:52:28 1510789948.371963: $GPGSA,A,3,29,14,3,32,31,26,1,22,,,,,3.4,1.4,2.9*30
2017-11-15 18:52:29 1510789949.331291: $GPZDA,235228.00,15,11,2017,00,00*6A
2017-11-15 18:52:29 1510789949.331475: $GPGGA,235228,3946.9705,N,08404.9526,W,1,08,1.00,313.57,M,-33.324,M,,*7D
2017-11-15 18:52:29 1510789949.331536: $GPRMC,235228,A,3946.9705,N,08404.9526,W,1.7607,355.391,151117,,*3D
2017-11-15 18:52:29 1510789949.331611: $GPGSA,A,3,29,14,3,32,31,26,1,22,,,,,3.4,1.0,2.9*34
2017-11-15 18:52:30 1510789950.708318: $GPGSV,3,1,12,29,04,085,04,14,65,063,24,03,28,312,16,32,49,090,16*77
2017-11-15 18:52:30 1510789950.708488: $GPGSV,3,2,12,31,79,331,27,26,35,177,14,25,30,049,10,10,13,157,00*7D
2017-11-15 18:52:30 1510789950.708548: $GPGSV,3,3,12,01,15,267,18,22,45,294,14,16,06,190,00,138,38,213,00*46
2017-11-15 18:52:30 1510789950.822044: $GPZDA,235229.00,15,11,2017,00,00*6B
2017-11-15 18:52:30 1510789950.822203: $GPGGA,235229,3946.9709,N,08404.9532,W,1,08,1.00,312.72,M,-33.324,M,,*73
2017-11-15 18:52:30 1510789950.822263: $GPRMC,235229,A,3946.9709,N,08404.9532,W,1.9132,356.511,151117,,*37
2017-11-15 18:52:30 1510789950.822319: $GPGSA,A,3,14,3,32,31,26,25,1,22,,,,,3.4,1.0,2.9*38
2017-11-15 18:52:31 1510789951.447379: $GPZDA,235230.00,15,11,2017,00,00*63
2017-11-15 18:52:31 1510789951.447541: $GPGGA,235230,3946.9713,N,08404.9532,W,1,08,1.00,313.36,M,-33.324,M,,*71
2017-11-15 18:52:31 1510789951.447622: $GPRMC,235230,A,3946.9713,N,08404.9532,W,1.7754,348.363,151117,,*30
2017-11-15 18:52:31 1510789951.447680: $GPGSA,A,3,14,3,32,31,26,25,1,22,,,,,3.4,1.0,2.9*38
2017-11-15 18:52:32 1510789952.372909: $GPZDA,235231.00,15,11,2017,00,00*62
2017-11-15 18:52:32 1510789952.373075: $GPGGA,235231,3946.9713,N,08404.9532,W,1,08,1.00,313.36,M,-33.324,M,,*70
2017-11-15 18:52:32 1510789952.373136: $GPRMC,235231,A,3946.9713,N,08404.9532,W,1.0269,4.197,151117,,*3F
2017-11-15 18:52:32 1510789952.373191: $GPGSA,A,3,14,3,32,31,26,25,1,22,,,,,3.4,1.0,2.9*38
2017-11-15 18:52:33 1510789953.708666: $GPGSV,3,1,12,29,04,085,07,14,65,063,24,03,28,312,16,32,49,090,16*74
2017-11-15 18:52:33 1510789953.708862: $GPGSV,3,2,12,31,79,331,27,26,35,177,15,25,30,049,10,10,13,157,00*7C
2017-11-15 18:52:33 1510789953.708923: $GPGSV,3,3,12,01,15,267,18,22,45,294,14,16,06,190,00,138,38,213,00*46
2017-11-15 18:52:33 1510789953.822503: $GPZDA,235232.00,15,11,2017,00,00*61
2017-11-15 18:52:33 1510789953.822718: $GPGGA,235232,3946.9717,N,08404.9532,W,1,09,1.00,312.60,M,-33.324,M,,*74
2017-11-15 18:52:33 1510789953.822780: $GPRMC,235232,A,3946.9717,N,08404.9532,W,1.0269,4.197,151117,,*38
2017-11-15 18:52:33 1510789953.822835: $GPGSA,A,3,29,14,3,32,31,26,25,1,22,,,,3.4,1.0,2.9*33
2017-11-15 18:52:34 1510789954.332898: $GPZDA,235233.00,15,11,2017,00,00*60
2017-11-15 18:52:34 1510789954.333063: $GPGGA,235233,3946.9721,N,08404.9532,W,1,09,1.00,313.24,M,-33.324,M,,*71
2017-11-15 18:52:34 1510789954.333123: $GPRMC,235233,A,3946.9721,N,08404.9532,W,1.0269,4.197,151117,,*3C
2017-11-15 18:52:34 1510789954.333178: $GPGSA,A,3,29,14,3,32,31,26,25,1,22,,,,3.4,1.0,2.9*33
2017-11-15 18:52:35 1510789955.372515: $GPZDA,235234.00,15,11,2017,00,00*67
2017-11-15 18:52:35 1510789955.372720: $GPGGA,235234,3946.9721,N,08404.9532,W,1,09,1.00,313.24,M,-33.324,M,,*76
2017-11-15 18:52:35 1510789955.372833: $GPRMC,235234,A,3946.9721,N,08404.9532,W,0.8709,3.298,151117,,*3A
2017-11-15 18:52:35 1510789955.372890: $GPGSA,A,3,29,14,3,32,31,26,25,1,22,,,,3.4,1.0,2.9*33
2017-11-15 18:52:36 1510789956.706529: $GPGSV,3,1,11,29,04,085,06,14,65,063,23,03,28,312,15,32,49,090,17*73
2017-11-15 18:52:36 1510789956.706786: $GPGSV,3,2,11,31,79,331,27,26,35,177,14,25,30,049,10,01,15,267,18*71
2017-11-15 18:52:36 1510789956.706853: $GPGSV,3,3,11,22,45,294,14,10,13,157,00,138,38,213,00*73
2017-11-15 18:52:36 1510789956.820317: $GPZDA,235235.00,15,11,2017,00,00*66
2017-11-15 18:52:36 1510789956.820632: $GPGGA,235235,3946.9721,N,08404.9532,W,1,08,1.00,313.24,M,-33.324,M,,*76
2017-11-15 18:52:36 1510789956.820731: $GPRMC,235235,A,3946.9721,N,08404.9532,W,0.1867,0.000,151117,,*35
2017-11-15 18:52:36 1510789956.820852: $GPGSA,A,3,14,3,32,31,26,25,1,22,,,,,3.4,1.0,2.9*38
2017-11-15 18:52:37 1510789957.329897: $GPZDA,235236.00,15,11,2017,00,00*65
2017-11-15 18:52:37 1510789957.330184: $GPGGA,235236,3946.9721,N,08404.9539,W,1,08,1.00,313.16,M,-33.324,M,,*7F
2017-11-15 18:52:37 1510789957.330286: $GPRMC,235236,A,3946.9721,N,08404.9539,W,0.8359,328.778,151117,,*33
2017-11-15 18:52:37 1510789957.330399: $GPGSA,A,3,14,3,32,31,26,25,1,22,,,,,3.4,1.0,2.9*38
2017-11-15 18:52:38 1510789958.371692: $GPZDA,235237.00,15,11,2017,00,00*64
2017-11-15 18:52:38 1510789958.374818: $GPGGA,235237,3946.9721,N,08404.9539,W,1,08,1.00,313.16,M,-33.324,M,,*7E
2017-11-15 18:52:38 1510789958.374908: $GPRMC,235237,A,3946.9721,N,08404.9539,W,0.8359,328.778,151117,,*32
2017-11-15 18:52:38 1510789958.374966: $GPGSA,A,3,14,3,32,31,26,25,1,22,,,,,3.4,1.0,2.9*38
2017-11-15 18:52:39 1510789959.709892: $GPGSV,3,1,11,29,04,085,06,14,65,063,23,03,28,312,16,32,49,090,17*70
2017-11-15 18:52:39 1510789959.710066: $GPGSV,3,2,11,31,79,331,27,26,35,177,04,25,30,049,09,01,15,267,17*77
2017-11-15 18:52:39 1510789959.710127: $GPGSV,3,3,11,22,45,294,14,10,13,157,00,138,38,213,00*73
2017-11-15 18:52:39 1510789959.823323: $GPZDA,235238.00,15,11,2017,00,00*6B
2017-11-15 18:52:39 1510789959.823480: $GPGGA,235238,3946.9721,N,08404.9539,W,1,07,1.60,313.16,M,-33.324,M,,*78
2017-11-15 18:52:39 1510789959.823561: $GPRMC,235238,A,3946.9721,N,08404.9539,W,0.7246,344.668,151117,,*37
2017-11-15 18:52:39 1510789959.823619: $GPGSA,A,3,14,3,32,31,25,1,22,,,,,,3.4,1.6,2.9*3A
2017-11-15 18:52:40 1510789960.329188: $GPZDA,235239.00,15,11,2017,00,00*6A
2017-11-15 18:52:40 1510789960.329337: $GPGGA,235239,3946.9721,N,08404.9539,W,1,07,1.60,313.16,M,-33.324,M,,*79
2017-11-15 18:52:40 1510789960.329398: $GPRMC,235239,A,3946.9721,N,08404.9539,W,0.7238,320.710,151117,,*33
2017-11-15 18:52:40 1510789960.329455: $GPGSA,A,3,14,3,32,31,25,1,22,,,,,,3.4,1.6,2.9*3A
2017-11-15 18:52:41 1510789961.330757: $GPZDA,235240.00,15,11,2017,00,00*64
2017-11-15 18:52:41 1510789961.330925: $GPGGA,235240,3946.9721,N,08404.9546,W,1,07,1.60,313.08,M,-33.324,M,,*70
2017-11-15 18:52:41 1510789961.330986: $GPRMC,235240,A,3946.9721,N,08404.9546,W,0.8359,328.778,151117,,*3A
2017-11-15 18:52:41 1510789961.331088: $GPGSA,A,3,14,3,32,31,25,1,22,,,,,,3.4,1.6,2.9*3A
