2017-11-15 18:56:11 1510790171.546923: {"class":"VERSION","release":"3.17","rev":"3.17","proto_major":3,"proto_minor":12}
2017-11-15 18:56:11 1510790171.547505: {"class":"DEVICES","devices":[{"class":"DEVICE","path":"/dev/ttyUSB0","driver":"SiRF","subtype":"9\u0006GSD4e_4.1.2-P1_RPATCH.05-F-GPS-4R-1510281 11/03/2015 307","activated":"2017-11-15T23:56:11.514Z","flags":1,"native":1,"bps":4800,"parity":"N","stopbits":1,"cycle":1.00}]}
2017-11-15 18:56:11 1510790171.547662: {"class":"WATCH","enable":true,"json":false,"nmea":true,"raw":0,"scaled":false,"timing":false,"split24":false,"pps":false}
2017-11-15 18:56:12 1510790172.708240: $GPGSV,3,1,12,10,12,159,08,14,65,066,14,03,29,312,16,32,48,093,23*75
2017-11-15 18:56:12 1510790172.708412: $GPGSV,3,2,12,31,78,337,19,26,36,177,22,22,46,292,12,16,07,190,04*7D
2017-11-15 18:56:12 1510790172.708473: $GPGSV,3,3,12,25,29,048,12,01,14,265,00,29,04,085,00,138,38,213,00*4F
2017-11-15 18:56:12 1510790172.823029: $GPZDA,235611.00,15,11,2017,00,00*64
2017-11-15 18:56:12 1510790172.823179: $GPGGA,235611,3946.9557,N,08404.9594,W,1,08,1.00,310.45,M,-33.324,M,,*7F
2017-11-15 18:56:12 1510790172.823239: $GPRMC,235611,A,3946.9557,N,08404.9594,W,0.3423,4.197,151117,,*3D
2017-11-15 18:56:12 1510790172.823294: $GPGSA,A,3,10,14,3,32,31,26,22,25,,,,,3.4,1.0,2.9*08
2017-11-15 18:56:13 1510790173.331286: $GPZDA,235612.00,15,11,2017,00,00*67
2017-11-15 18:56:13 1510790173.331508: $GPGGA,235612,3946.9557,N,08404.9594,W,1,08,1.00,310.45,M,-33.324,M,,*7C
2017-11-15 18:56:13 1510790173.331610: $GPRMC,235612,A,3946.9557,N,08404.9594,W,0.0000,0.000,151117,,*33
2017-11-15 18:56:13 1510790173.331689: $GPGSA,A,3,10,14,3,32,31,26,22,25,,,,,3.4,1.0,2.9*08
2017-11-15 18:56:14 1510790174.332180: $GPZDA,235613.00,15,11,2017,00,00*66
2017-11-15 18:56:14 1510790174.332360: $GPGGA,235613,3946.9557,N,08404.9594,W,1,08,1.00,310.45,M,-33.324,M,,*7D
2017-11-15 18:56:14 1510790174.332421: $GPRMC,235613,A,3946.9557,N,08404.9594,W,0.2422,273.794,151117,,*38
2017-11-15 18:56:14 1510790174.332478: $GPGSA,A,3,10,14,3,32,31,26,22,25,,,,,3.4,1.0,2.9*08
2017-11-15 18:56:15 1510790175.666648: $GPGSV,3,1,12,10,12,159,09,14,65,066,15,03,29,312,16,32,48,093,23*75
2017-11-15 18:56:15 1510790175.666890: $GPGSV,3,2,12,31,78,337,20,26,36,177,22,22,46,292,13,16,07,190,11*72
2017-11-15 18:56:15 1510790175.670003: $GPGSV,3,3,12,25,29,048,13,01,14,265,00,29,04,085,00,138,38,213,00*4E
2017-11-15 18:56:15 1510790175.780113: $GPZDA,235614.00,15,11,2017,00,00*61
2017-11-15 18:56:15 1510790175.780274: $GPGGA,235614,3946.9561,N,08404.9593,W,1,09,1.00,309.68,M,-33.324,M,,*7E
2017-11-15 18:56:15 1510790175.780334: $GPRMC,235614,A,3946.9561,N,08404.9593,W,0.1867,0.000,151117,,*3F
2017-11-15 18:56:15 1510790175.780389: $GPGSA,A,3,10,14,3,32,31,26,22,16,25,,,,3.4,1.0,2.9*0F
2017-11-15 18:56:16 1510790176.405466: $GPZDA,235615.00,15,11,2017,00,00*60
2017-11-15 18:56:16 1510790176.405628: $GPGGA,235615,3946.9561,N,08404.9593,W,1,09,1.00,309.68,M,-33.324,M,,*7F
2017-11-15 18:56:16 1510790176.405689: $GPRMC,235615,A,3946.9561,N,08404.9593,W,0.3423,4.197,151117,,*3B
2017-11-15 18:56:16 1510790176.405744: $GPGSA,A,3,10,14,3,32,31,26,22,16,25,,,,3.4,1.0,2.9*0F
2017-11-15 18:56:17 1510790177.330087: $GPZDA,235616.00,15,11,2017,00,00*63
2017-11-15 18:56:17 1510790177.330239: $GPGGA,235616,3946.9565,N,08404.9593,W,1,09,1.00,310.32,M,-33.324,M,,*7F
2017-11-15 18:56:17 1510790177.330300: $GPRMC,235616,A,3946.9565,N,08404.9593,W,0.3155,309.994,151117,,*3D
2017-11-15 18:56:17 1510790177.330355: $GPGSA,A,3,10,14,3,32,31,26,22,16,25,,,,3.4,1.0,2.9*0F
2017-11-15 18:56:18 1510790178.664602: $GPGSV,3,1,12,10,12,159,08,14,65,066,15,03,29,312,16,32,48,093,23*74
2017-11-15 18:56:18 1510790178.664774: $GPGSV,3,2,12,31,78,337,20,26,36,177,22,22,46,292,13,16,07,190,12*71
2017-11-15 18:56:18 1510790178.664834: $GPGSV,3,3,12,25,29,048,12,01,14,265,00,29,04,085,00,138,38,213,00*4F
2017-11-15 18:56:18 1510790178.778198: $GPZDA,235617.00,15,11,2017,00,00*62
2017-11-15 18:56:18 1510790178.778369: $GPGGA,235617,3946.9565,N,08404.9593,W,1,09,1.00,310.32,M,-33.324,M,,*7E
2017-11-15 18:56:18 1510790178.778479: $GPRMC,235617,A,3946.9565,N,08404.9593,W,0.5857,338.291,151117,,*3D
2017-11-15 18:56:18 1510790178.778536: $GPGSA,A,3,10,14,3,32,31,26,22,16,25,,,,3.4,1.0,2.9*0F
2017-11-15 18:56:19 1510790179.330067: $GPZDA,235618.00,15,11,2017,00,00*6D
2017-11-15 18:56:19 1510790179.330232: $GPGGA,235618,3946.9565,N,08404.9593,W,1,09,1.00,310.32,M,-33.324,M,,*71
2017-11-15 18:56:19 1510790179.330293: $GPRMC,235618,A,3946.9565,N,08404.9593,W,0.7246,344.668,151117,,*33
2017-11-15 18:56:19 1510790179.330348: $GPGSA,A,3,10,14,3,32,31,26,22,16,25,,,,3.4,1.0,2.9*0F
2017-11-15 18:56:20 1510790180.329707: $GPZDA,235619.00,15,11,2017,00,00*6C
2017-11-15 18:56:20 1510790180.329889: $GPGGA,235619,3946.9569,N,08404.9593,W,1,09,1.00,310.96,M,-33.324,M,,*72
2017-11-15 18:56:20 1510790180.329950: $GPRMC,235619,A,3946.9569,N,08404.9593,W,0.3423,4.197,151117,,*3F
2017-11-15 18:56:20 1510790180.330006: $GPGSA,A,3,10,14,3,32,31,26,22,16,25,,,,3.4,1.0,2.9*0F
2017-11-15 18:56:21 1510790181.664934: $GPGSV,3,1,12,10,12,159,07,14,65,066,15,03,29,312,16,32,48,093,23*7B
2017-11-15 18:56:21 1510790181.665104: $GPGSV,3,2,12,31,78,337,20,26,36,177,23,22,46,292,13,01,14,265,00*7E
2017-11-15 18:56:21 1510790181.665162: $GPGSV,3,3,12,25,29,048,12,16,07,190,00,29,04,085,00,135,23,238,00*4C
2017-11-15 18:56:21 1510790181.778547: $GPZDA,235620.00,15,11,2017,00,00*66
2017-11-15 18:56:21 1510790181.778693: $GPGGA,235620,3946.9569,N,08404.9593,W,1,08,1.00,310.96,M,-33.324,M,,*79
2017-11-15 18:56:21 1510790181.778753: $GPRMC,235620,A,3946.9569,N,08404.9593,W,0.0000,0.000,151117,,*38
2017-11-15 18:56:21 1510790181.778807: $GPGSA,A,3,10,14,3,32,31,26,22,25,,,,,3.4,1.0,2.9*08
2017-11-15 18:56:22 1510790182.329411: $GPZDA,235621.00,15,11,2017,00,00*67
2017-11-15 18:56:22 1510790182.329575: $GPGGA,235621,3946.9569,N,08404.9593,W,1,08,1.00,310.96,M,-33.324,M,,*78
2017-11-15 18:56:22 1510790182.329635: $GPRMC,235621,A,3946.9569,N,08404.9593,W,0.3423,4.197,151117,,*34
2017-11-15 18:56:22 1510790182.329689: $GPGSA,A,3,10,14,3,32,31,26,22,25,,,,,3.4,1.0,2.9*08
2017-11-15 18:56:23 1510790183.330118: $GPZDA,235622.00,15,11,2017,00,00*64
2017-11-15 18:56:23 1510790183.330282: $GPGGA,235622,3946.9569,N,08404.9586,W,1,08,1.00,311.04,M,-33.324,M,,*75
2017-11-15 18:56:23 1510790183.330343: $GPRMC,235622,A,3946.9569,N,08404.9586,W,0.0000,0.000,151117,,*3E
2017-11-15 18:56:23 1510790183.330399: $GPGSA,A,3,10,14,3,32,31,26,22,25,,,,,3.4,1.0,2.9*08
2017-11-15 18:56:24 1510790184.665801: $GPGSV,3,1,12,10,12,159,07,14,65,066,15,03,29,312,16,32,48,093,23*7B
2017-11-15 18:56:24 1510790184.665964: $GPGSV,3,2,12,31,78,337,20,26,36,177,23,22,46,292,11,01,14,265,00*7C
2017-11-15 18:56:24 1510790184.666023: $GPGSV,3,3,12,25,29,048,12,16,07,190,00,29,04,085,00,135,23,238,00*4C
2017-11-15 18:56:24 1510790184.779151: $GPZDA,235623.00,15,11,2017,00,00*65
2017-11-15 18:56:24 1510790184.779315: $GPGGA,235623,3946.9569,N,08404.9586,W,1,08,1.00,311.04,M,-33.324,M,,*74
2017-11-15 18:56:24 1510790184.779376: $GPRMC,235623,A,3946.9569,N,08404.9586,W,0.2422,93.794,151117,,*09
2017-11-15 18:56:24 1510790184.779431: $GPGSA,A,3,10,14,3,32,31,26,22,25,,,,,3.4,1.0,2.9*08
2017-11-15 18:56:25 1510790185.330027: $GPZDA,235624.00,15,11,2017,00,00*62
2017-11-15 18:56:25 1510790185.330188: $GPGGA,235624,3946.9565,N,08404.9587,W,1,08,1.20,311.81,M,-33.324,M,,*71
2017-11-15 18:56:25 1510790185.330248: $GPRMC,235624,A,3946.9565,N,08404.9587,W,0.4844,93.794,151117,,*09
2017-11-15 18:56:25 1510790185.330304: $GPGSA,A,3,10,14,3,32,31,26,22,25,,,,,3.4,1.2,2.9*0A
2017-11-15 18:56:26 1510790186.330503: $GPZDA,235625.00,15,11,2017,00,00*63
2017-11-15 18:56:26 1510790186.330682: $GPGGA,235625,3946.9565,N,08404.9580,W,1,08,1.20,311.89,M,-33.324,M,,*7F
2017-11-15 18:56:26 1510790186.330743: $GPRMC,235625,A,3946.9565,N,08404.9580,W,0.7267,93.794,151117,,*07
2017-11-15 18:56:26 1510790186.330798: $GPGSA,A,3,10,14,3,32,31,26,22,25,,,,,3.4,1.2,2.9*0A
2017-11-15 18:56:27 1510790187.665002: $GPGSV,3,1,12,10,12,159,08,14,65,066,15,03,29,312,16,32,48,093,23*74
2017-11-15 18:56:27 1510790187.665240: $GPGSV,3,2,12,31,78,337,20,26,36,177,23,22,46,292,04,01,14,265,00*78
2017-11-15 18:56:27 1510790187.665304: $GPGSV,3,3,12,25,29,048,12,16,07,190,00,29,04,085,00,135,23,238,00*4C
2017-11-15 18:56:27 1510790187.778261: $GPZDA,235626.00,15,11,2017,00,00*60
2017-11-15 18:56:27 1510790187.778410: $GPGGA,235626,3946.9573,N,08404.9579,W,1,07,1.00,311.76,M,-33.324,M,,*70
2017-11-15 18:56:27 1510790187.778469: $GPRMC,235626,A,3946.9573,N,08404.9579,W,0.8054,68.645,151117,,*01
2017-11-15 18:56:27 1510790187.778525: $GPGSA,A,3,10,14,3,32,31,26,25,,,,,,3.4,1.0,2.9*08
2017-11-15 18:56:28 1510790188.329174: $GPZDA,235627.00,15,11,2017,00,00*61
2017-11-15 18:56:28 1510790188.329338: $GPGGA,235627,3946.9569,N,08404.9573,W,1,07,1.20,312.60,M,-33.324,M,,*76
2017-11-15 18:56:28 1510790188.329398: $GPRMC,235627,A,3946.9569,N,08404.9573,W,0.7267,93.794,151117,,*05
2017-11-15 18:56:28 1510790188.329454: $GPGSA,A,3,10,14,3,32,31,26,25,,,,,,3.4,1.2,2.9*0A
2017-11-15 18:56:29 1510790189.330016: $GPZDA,235628.00,15,11,2017,00,00*6E
2017-11-15 18:56:29 1510790189.330161: $GPGGA,235628,3946.9569,N,08404.9573,W,1,07,1.20,312.60,M,-33.324,M,,*79
2017-11-15 18:56:29 1510790189.330222: $GPRMC,235628,A,3946.9569,N,08404.9573,W,0.2422,93.794,151117,,*08
2017-11-15 18:56:29 1510790189.330277: $GPGSA,A,3,10,14,3,32,31,26,25,,,,,,3.4,1.2,2.9*0A
2017-11-15 18:56:30 1510790190.665803: $GPGSV,3,1,12,10,12,159,08,14,65,066,16,03,29,312,16,32,48,093,22*76
2017-11-15 18:56:30 1510790190.665987: $GPGSV,3,2,12,31,78,337,20,26,36,177,23,22,46,292,04,01,14,265,00*78
2017-11-15 18:56:30 1510790190.666048: $GPGSV,3,3,12,25,29,048,12,16,07,190,00,29,04,085,00,135,23,238,00*4C
2017-11-15 18:56:30 1510790190.779112: $GPZDA,235629.00,15,11,2017,00,00*6F
2017-11-15 18:56:30 1510790190.779274: $GPGGA,235629,3946.9569,N,08404.9573,W,1,07,1.00,312.60,M,-33.324,M,,*7A
2017-11-15 18:56:30 1510790190.779334: $GPRMC,235629,A,3946.9569,N,08404.9573,W,0.2758,128.233,151117,,*3E
2017-11-15 18:56:30 1510790190.779389: $GPGSA,A,3,10,14,3,32,31,26,25,,,,,,3.4,1.0,2.9*08
2017-11-15 18:56:31 1510790191.405784: $GPZDA,235630.00,15,11,2017,00,00*67
2017-11-15 18:56:31 1510790191.405939: $GPGGA,235630,3946.9569,N,08404.9573,W,1,07,1.00,312.60,M,-33.324,M,,*72
2017-11-15 18:56:31 1510790191.405999: $GPRMC,235630,A,3946.9569,N,08404.9573,W,0.3155,309.994,151117,,*3B
2017-11-15 18:56:31 1510790191.406055: $GPGSA,A,3,10,14,3,32,31,26,25,,,,,,3.4,1.0,2.9*08
2017-11-15 18:56:32 1510790192.330336: $GPZDA,235631.00,15,11,2017,00,00*66
2017-11-15 18:56:32 1510790192.330522: $GPGGA,235631,3946.9569,N,08404.9573,W,1,07,1.00,312.60,M,-33.324,M,,*73
2017-11-15 18:56:32 1510790192.330584: $GPRMC,235631,A,3946.9569,N,08404.9573,W,0.0000,0.000,151117,,*36
2017-11-15 18:56:32 1510790192.330639: $GPGSA,A,3,10,14,3,32,31,26,25,,,,,,3.4,1.0,2.9*08
2017-11-15 18:56:33 1510790193.707390: $GPGSV,3,1,12,10,12,159,09,14,65,066,16,03,29,312,16,32,48,093,23*76
2017-11-15 18:56:33 1510790193.707564: $GPGSV,3,2,12,31,78,337,20,26,36,177,23,22,46,292,04,16,07,190,04*71
2017-11-15 18:56:33 1510790193.707623: $GPGSV,3,3,12,25,29,048,08,01,14,265,00,29,04,085,00,135,23,238,00*4A
2017-11-15 18:56:33 1510790193.820678: $GPZDA,235632.00,15,11,2017,00,00*65
2017-11-15 18:56:33 1510790193.820817: $GPGGA,235632,3946.9569,N,08404.9573,W,1,06,1.60,312.60,M,-33.324,M,,*77
2017-11-15 18:56:33 1510790193.820876: $GPRMC,235632,A,3946.9569,N,08404.9573,W,0.2422,93.794,151117,,*03
2017-11-15 18:56:33 1510790193.820932: $GPGSA,A,3,10,14,3,32,31,26,,,,,,,3.4,1.6,2.9*09
2017-11-15 18:56:34 1510790194.372875: $GPZDA,235633.00,15,11,2017,00,00*64
2017-11-15 18:56:34 1510790194.373037: $GPGGA,235633,3946.9568,N,08404.9566,W,1,06,1.60,312.68,M,-33.324,M,,*7B
2017-11-15 18:56:34 1510790194.373096: $GPRMC,235633,A,3946.9568,N,08404.9566,W,1.0298,74.382,151117,,*09
2017-11-15 18:56:34 1510790194.373151: $GPGSA,A,3,10,14,3,32,31,26,,,,,,,3.4,1.6,2.9*09
2017-11-15 18:56:35 1510790195.332918: $GPZDA,235634.00,15,11,2017,00,00*63
2017-11-15 18:56:35 1510790195.333086: $GPGGA,235634,3946.9568,N,08404.9559,W,1,06,1.00,312.76,M,-33.324,M,,*79
2017-11-15 18:56:35 1510790195.333195: $GPRMC,235634,A,3946.9568,N,08404.9559,W,1.7174,88.584,151117,,*07
2017-11-15 18:56:35 1510790195.333253: $GPGSA,A,3,10,14,3,32,31,26,,,,,,,3.4,1.0,2.9*0F
2017-11-15 18:56:36 1510790196.707785: $GPGSV,3,1,12,10,12,159,10,14,65,066,16,03,29,312,15,32,48,093,22*7C
2017-11-15 18:56:36 1510790196.707968: $GPGSV,3,2,12,31,78,337,20,26,36,177,23,22,46,292,05,16,07,190,04*70
2017-11-15 18:56:36 1510790196.709813: $GPGSV,3,3,12,25,29,048,08,29,04,085,10,01,14,265,00,135,23,238,00*4B
2017-11-15 18:56:36 1510790196.821068: $GPZDA,235635.00,15,11,2017,00,00*62
2017-11-15 18:56:36 1510790196.821222: $GPGGA,235635,3946.9568,N,08404.9559,W,1,08,1.00,312.76,M,-33.324,M,,*76
2017-11-15 18:56:36 1510790196.821283: $GPRMC,235635,A,3946.9568,N,08404.9559,W,1.4533,93.794,151117,,*0B
2017-11-15 18:56:36 1510790196.821338: $GPGSA,A,3,10,14,3,32,31,26,22,25,,,,,3.4,1.0,2.9*08
2017-11-15 18:56:37 1510790197.330765: $GPZDA,235636.00,15,11,2017,00,00*61
2017-11-15 18:56:37 1510790197.330928: $GPGGA,235636,3946.9568,N,08404.9552,W,1,08,1.00,312.84,M,-33.324,M,,*73
2017-11-15 18:56:37 1510790197.330989: $GPRMC,235636,A,3946.9568,N,08404.9552,W,1.4533,93.794,151117,,*03
2017-11-15 18:56:37 1510790197.331045: $GPGSA,A,3,10,14,3,32,31,26,22,25,,,,,3.4,1.0,2.9*08
2017-11-15 18:56:38 1510790198.366637: $GPZDA,235637.00,15,11,2017,00,00*60
2017-11-15 18:56:38 1510790198.366862: $GPGGA,235637,3946.9567,N,08404.9545,W,1,08,1.00,312.92,M,-33.324,M,,*7C
2017-11-15 18:56:38 1510790198.366925: $GPRMC,235637,A,3946.9567,N,08404.9545,W,1.3305,117.203,151117,,*39
2017-11-15 18:56:38 1510790198.366981: $GPGSA,A,3,10,14,3,32,31,26,22,25,,,,,3.4,1.0,2.9*08
2017-11-15 18:56:39 1510790199.707375: $GPGSV,3,1,12,10,12,159,10,14,65,066,17,03,29,312,15,32,48,093,22*7D
2017-11-15 18:56:39 1510790199.707551: $GPGSV,3,2,12,31,78,337,21,26,36,177,23,22,46,292,07,16,07,190,04*73
2017-11-15 18:56:39 1510790199.707611: $GPGSV,3,3,12,25,29,048,10,29,04,085,14,01,14,265,00,135,23,238,00*46
2017-11-15 18:56:39 1510790199.820730: $GPZDA,235638.00,15,11,2017,00,00*6F
2017-11-15 18:56:39 1510790199.820881: $GPGGA,235638,3946.9567,N,08404.9545,W,1,08,1.00,312.92,M,-33.324,M,,*73
2017-11-15 18:56:39 1510790199.820941: $GPRMC,235638,A,3946.9567,N,08404.9545,W,0.7621,107.945,151117,,*38
2017-11-15 18:56:39 1510790199.820995: $GPGSA,A,3,10,14,3,32,31,26,22,25,,,,,3.4,1.0,2.9*08
2017-11-15 18:56:40 1510790200.366620: $GPZDA,235639.00,15,11,2017,00,00*6E
2017-11-15 18:56:40 1510790200.366824: $GPGGA,235639,3946.9567,N,08404.9538,W,1,08,1.00,313.00,M,-33.324,M,,*72
2017-11-15 18:56:40 1510790200.366888: $GPRMC,235639,A,3946.9567,N,08404.9538,W,0.9988,104.546,151117,,*3D
2017-11-15 18:56:40 1510790200.366944: $GPGSA,A,3,10,14,3,32,31,26,22,25,,,,,3.4,1.0,2.9*08
2017-11-15 18:56:41 1510790201.372596: $GPZDA,235640.00,15,11,2017,00,00*60
2017-11-15 18:56:41 1510790201.372783: $GPGGA,235640,3946.9567,N,08404.9538,W,1,08,1.00,313.00,M,-33.324,M,,*7C
2017-11-15 18:56:41 1510790201.372846: $GPRMC,235640,A,3946.9567,N,08404.9538,W,0.7267,93.794,151117,,*05
2017-11-15 18:56:41 1510790201.372901: $GPGSA,A,3,10,14,3,32,31,26,22,25,,,,,3.4,1.0,2.9*08
