2017-11-16 14:12:51 1510859571.018296: {"class":"VERSION","release":"3.17","rev":"3.17","proto_major":3,"proto_minor":12}
2017-11-16 14:12:51 1510859571.018817: {"class":"DEVICES","devices":[{"class":"DEVICE","path":"/dev/ttyUSB0","driver":"SiRF","subtype":"9\u0006GSD4e_4.1.2-P1_RPATCH.05-F-GPS-4R-1510281 11/03/2015 307","activated":"2017-11-16T19:12:50.663Z","flags":1,"native":1,"bps":4800,"parity":"N","stopbits":1,"cycle":1.00}]}
2017-11-16 14:12:51 1510859571.018979: {"class":"WATCH","enable":true,"json":false,"nmea":true,"raw":0,"scaled":false,"timing":false,"split24":false,"pps":false}
2017-11-16 14:12:51 1510859571.862287: $GPGSV,3,1,12,08,06,322,30,10,41,300,40,13,08,048,20,15,38,052,50*7C
2017-11-16 14:12:51 1510859571.862507: $GPGSV,3,2,12,18,70,334,47,21,65,192,46,20,33,096,47,24,50,111,48*7A
2017-11-16 14:12:51 1510859571.862572: $GPGSV,3,3,12,27,19,289,39,32,20,237,45,14,04,232,00,138,38,213,45*48
2017-11-16 14:12:51 1510859571.975512: $GPZDA,191250.00,16,11,2017,00,00*6B
2017-11-16 14:12:51 1510859571.975672: $GPGGA,191250,3946.9550,N,08404.9851,W,2,11,0.80,304.32,M,-33.324,M,,*77
2017-11-16 14:12:51 1510859571.975733: $GPRMC,191250,A,3946.9550,N,08404.9851,W,0.0000,0.000,161117,,*3C
2017-11-16 14:12:51 1510859571.975788: $GPGSA,A,3,8,10,13,15,18,21,20,24,27,32,138,,1.6,0.8,1.3*30
2017-11-16 14:12:52 1510859572.526330: $GPZDA,191251.00,16,11,2017,00,00*6A
2017-11-16 14:12:52 1510859572.526505: $GPGGA,191251,3946.9554,N,08404.9851,W,2,11,0.80,304.96,M,-33.324,M,,*7C
2017-11-16 14:12:52 1510859572.526567: $GPRMC,191251,A,3946.9554,N,08404.9851,W,0.0000,0.000,161117,,*39
2017-11-16 14:12:52 1510859572.526622: $GPGSA,A,3,8,10,13,15,18,21,20,24,27,32,138,,1.6,0.8,1.3*30
2017-11-16 14:12:53 1510859573.525816: $GPZDA,191252.00,16,11,2017,00,00*69
2017-11-16 14:12:53 1510859573.525979: $GPGGA,191252,3946.9554,N,08404.9851,W,2,11,1.00,304.96,M,-33.324,M,,*76
2017-11-16 14:12:53 1510859573.526040: $GPRMC,191252,A,3946.9554,N,08404.9851,W,0.0000,0.000,161117,,*3A
2017-11-16 14:12:53 1510859573.526096: $GPGSA,A,3,8,10,13,15,18,21,20,24,27,32,138,,1.6,1.0,1.3*39
2017-11-16 14:12:54 1510859574.859712: $GPGSV,3,1,12,08,06,322,02,10,41,300,41,13,08,048,20,15,38,052,49*74
2017-11-16 14:12:54 1510859574.859880: $GPGSV,3,2,12,18,70,334,47,21,65,192,46,20,33,096,47,24,50,111,48*7A
2017-11-16 14:12:54 1510859574.859940: $GPGSV,3,3,12,27,19,289,39,32,20,237,44,14,04,232,00,138,38,213,45*49
2017-11-16 14:12:54 1510859574.973033: $GPZDA,191253.00,16,11,2017,00,00*68
2017-11-16 14:12:54 1510859574.973220: $GPGGA,191253,3946.9554,N,08404.9851,W,2,10,1.00,304.96,M,-33.324,M,,*76
2017-11-16 14:12:54 1510859574.973282: $GPRMC,191253,A,3946.9554,N,08404.9851,W,0.0000,0.000,161117,,*3B
2017-11-16 14:12:54 1510859574.973338: $GPGSA,A,3,10,13,15,18,21,20,24,27,32,138,,,1.6,1.0,1.3*01
2017-11-16 14:12:55 1510859575.525093: $GPZDA,191254.00,16,11,2017,00,00*6F
2017-11-16 14:12:55 1510859575.525254: $GPGGA,191254,3946.9554,N,08404.9851,W,2,10,1.00,304.96,M,-33.324,M,,*71
2017-11-16 14:12:55 1510859575.525316: $GPRMC,191254,A,3946.9554,N,08404.9851,W,0.0000,0.000,161117,,*3C
2017-11-16 14:12:55 1510859575.525373: $GPGSA,A,3,10,13,15,18,21,20,24,27,32,138,,,1.6,1.0,1.3*01
2017-11-16 14:12:56 1510859576.523352: $GPZDA,191255.00,16,11,2017,00,00*6E
2017-11-16 14:12:56 1510859576.523519: $GPGGA,191255,3946.9554,N,08404.9851,W,2,10,0.80,304.96,M,-33.324,M,,*79
2017-11-16 14:12:56 1510859576.523580: $GPRMC,191255,A,3946.9554,N,08404.9851,W,0.0000,0.000,161117,,*3D
2017-11-16 14:12:56 1510859576.523636: $GPGSA,A,3,10,13,15,18,21,20,24,27,32,138,,,1.6,0.8,1.3*08
2017-11-16 14:12:57 1510859577.871489: $GPGSV,3,1,12,08,06,322,06,10,41,300,42,13,08,048,20,15,38,052,49*73
2017-11-16 14:12:57 1510859577.871658: $GPGSV,3,2,12,18,70,334,47,21,65,192,46,20,33,096,47,24,50,111,48*7A
2017-11-16 14:12:57 1510859577.871719: $GPGSV,3,3,12,27,19,289,38,32,20,237,44,14,04,232,00,138,38,213,45*48
2017-11-16 14:12:57 1510859577.983538: $GPZDA,191256.00,16,11,2017,00,00*6D
2017-11-16 14:12:57 1510859577.983716: $GPGGA,191256,3946.9554,N,08404.9851,W,2,10,1.00,304.96,M,-33.324,M,,*73
2017-11-16 14:12:57 1510859577.983845: $GPRMC,191256,A,3946.9554,N,08404.9851,W,0.0000,0.000,161117,,*3E
2017-11-16 14:12:57 1510859577.983903: $GPGSA,A,3,10,13,15,18,21,20,24,27,32,138,,,1.6,1.0,1.3*01
2017-11-16 14:12:58 1510859578.525735: $GPZDA,191257.00,16,11,2017,00,00*6C
2017-11-16 14:12:58 1510859578.525910: $GPGGA,191257,3946.9554,N,08404.9851,W,2,10,0.80,304.96,M,-33.324,M,,*7B
2017-11-16 14:12:58 1510859578.525973: $GPRMC,191257,A,3946.9554,N,08404.9851,W,0.0000,0.000,161117,,*3F
2017-11-16 14:12:58 1510859578.526029: $GPGSA,A,3,10,13,15,18,21,20,24,27,32,138,,,1.6,0.8,1.3*08
2017-11-16 14:12:59 1510859579.525910: $GPZDA,191258.00,16,11,2017,00,00*63
2017-11-16 14:12:59 1510859579.526088: $GPGGA,191258,3946.9554,N,08404.9851,W,2,10,0.80,304.96,M,-33.324,M,,*74
2017-11-16 14:12:59 1510859579.526149: $GPRMC,191258,A,3946.9554,N,08404.9851,W,0.0000,0.000,161117,,*30
2017-11-16 14:12:59 1510859579.526205: $GPGSA,A,3,10,13,15,18,21,20,24,27,32,138,,,1.6,0.8,1.3*08
2017-11-16 14:13:00 1510859580.856523: $GPGSV,3,1,12,08,06,322,32,10,41,300,41,13,08,048,20,15,38,052,50*7F
2017-11-16 14:13:00 1510859580.856705: $GPGSV,3,2,12,18,70,334,47,21,65,192,45,20,33,096,47,24,50,111,48*79
2017-11-16 14:13:00 1510859580.856766: $GPGSV,3,3,12,27,19,289,37,32,20,237,44,14,04,232,00,138,38,213,44*46
2017-11-16 14:13:00 1510859580.969855: $GPZDA,191259.00,16,11,2017,00,00*62
2017-11-16 14:13:00 1510859580.970016: $GPGGA,191259,3946.9554,N,08404.9851,W,2,11,0.80,304.96,M,-33.324,M,,*74
2017-11-16 14:13:00 1510859580.970076: $GPRMC,191259,A,3946.9554,N,08404.9851,W,0.0000,0.000,161117,,*31
2017-11-16 14:13:00 1510859580.970136: $GPGSA,A,3,8,10,13,15,18,21,20,24,27,32,138,,1.6,0.8,1.3*30
