2017-12-31 18:40:43 1514763643.247039: {"class":"VERSION","release":"3.16","rev":"3.16-4","proto_major":3,"proto_minor":11}
2017-12-31 18:40:43 1514763643.247445: {"class":"DEVICES","devices":[{"class":"DEVICE","path":"/dev/ttyUSB0","driver":"SiRF","activated":"2017-12-31T23:40:43.234Z","flags":1,"native":1,"bps":4800,"parity":"N","stopbits":1,"cycle":1.00}]}
2017-12-31 18:40:43 1514763643.247545: {"class":"WATCH","enable":true,"json":false,"nmea":true,"raw":0,"scaled":false,"timing":false,"split24":false,"pps":false}
2017-12-31 18:40:43 1514763643.347664: $GPZDA,234044.00,31,12,2017,00,00*66
2017-12-31 18:40:43 1514763643.347818: $GPGGA,234044,3946.9581,N,08404.9836,W,2,12,0.80,306.79,M,-33.324,M,,*7F
2017-12-31 18:40:43 1514763643.347884: $GPRMC,234044,A,3946.9581,N,08404.9836,W,0.0000,0.000,311217,,*3C
2017-12-31 18:40:43 1514763643.347944: $GPGSA,A,3,22,23,9,3,16,8,14,31,27,7,26,135,1.7,0.8,1.3*0C
2017-12-31 18:40:44 1514763644.346073: $GPZDA,234045.00,31,12,2017,00,00*67
2017-12-31 18:40:44 1514763644.346219: $GPGGA,234045,3946.9581,N,08404.9836,W,2,12,0.80,306.79,M,-33.324,M,,*7E
2017-12-31 18:40:44 1514763644.346285: $GPRMC,234045,A,3946.9581,N,08404.9836,W,0.0000,0.000,311217,,*3D
2017-12-31 18:40:44 1514763644.346345: $GPGSA,A,3,22,23,9,3,16,8,14,31,27,7,26,135,1.7,0.8,1.3*0C
2017-12-31 18:40:45 1514763645.688404: $GPGSV,3,1,12,22,11,205,23,23,66,289,41,09,33,310,41,03,21,223,38*7F
2017-12-31 18:40:45 1514763645.688572: $GPGSV,3,2,12,16,81,039,43,08,13,177,28,14,02,139,20,31,19,085,37*74
2017-12-31 18:40:45 1514763645.688637: $GPGSV,3,3,12,27,36,145,41,07,08,282,42,26,48,046,46,135,22,240,43*40
2017-12-31 18:40:45 1514763645.802114: $GPZDA,234046.00,31,12,2017,00,00*64
2017-12-31 18:40:45 1514763645.802260: $GPGGA,234046,3946.9581,N,08404.9836,W,2,12,0.80,306.79,M,-33.324,M,,*7D
2017-12-31 18:40:45 1514763645.802325: $GPRMC,234046,A,3946.9581,N,08404.9836,W,0.0000,0.000,311217,,*3E
2017-12-31 18:40:45 1514763645.802386: $GPGSA,A,3,22,23,9,3,16,8,14,31,27,7,26,135,1.7,0.8,1.3*0C
2017-12-31 18:40:46 1514763646.389271: $GPZDA,234047.00,31,12,2017,00,00*65
2017-12-31 18:40:46 1514763646.389441: $GPGGA,234047,3946.9581,N,08404.9836,W,2,12,0.80,306.79,M,-33.324,M,,*7C
2017-12-31 18:40:46 1514763646.389508: $GPRMC,234047,A,3946.9581,N,08404.9836,W,0.0000,0.000,311217,,*3F
2017-12-31 18:40:46 1514763646.389569: $GPGSA,A,3,22,23,9,3,16,8,14,31,27,7,26,135,1.7,0.8,1.3*0C
2017-12-31 18:40:47 1514763647.352594: $GPZDA,234048.00,31,12,2017,00,00*6A
2017-12-31 18:40:47 1514763647.352767: $GPGGA,234048,3946.9581,N,08404.9836,W,2,12,0.80,306.79,M,-33.324,M,,*73
2017-12-31 18:40:47 1514763647.352835: $GPRMC,234048,A,3946.9581,N,08404.9836,W,0.0000,0.000,311217,,*30
2017-12-31 18:40:47 1514763647.352895: $GPGSA,A,3,22,23,9,3,16,8,14,31,27,7,26,135,1.7,0.8,1.3*0C
2017-12-31 18:40:48 1514763648.724259: $GPGSV,3,1,12,22,11,205,00,23,66,289,40,09,33,310,41,03,21,223,37*70
2017-12-31 18:40:48 1514763648.724433: $GPGSV,3,2,12,16,81,039,43,08,13,177,28,14,02,139,20,31,19,085,36*75
2017-12-31 18:40:48 1514763648.724499: $GPGSV,3,3,12,27,36,145,40,07,08,282,42,26,48,046,45,135,22,240,44*45
2017-12-31 18:40:48 1514763648.838050: $GPZDA,234049.00,31,12,2017,00,00*6B
2017-12-31 18:40:48 1514763648.838177: $GPGGA,234049,3946.9581,N,08404.9836,W,2,11,0.80,306.79,M,-33.324,M,,*71
2017-12-31 18:40:48 1514763648.838242: $GPRMC,234049,A,3946.9581,N,08404.9836,W,0.0000,0.000,311217,,*31
2017-12-31 18:40:48 1514763648.838301: $GPGSA,A,3,23,9,3,16,8,14,31,27,7,26,135,,1.7,0.8,1.3*0C
2017-12-31 18:40:49 1514763649.868395: $GPZDA,234050.00,31,12,2017,00,00*63
2017-12-31 18:40:49 1514763649.868549: $GPGGA,234050,3946.9581,N,08404.9836,W,2,11,0.80,306.79,M,-33.324,M,,*79
2017-12-31 18:40:49 1514763649.868615: $GPRMC,234050,A,3946.9581,N,08404.9836,W,0.0000,0.000,311217,,*39
2017-12-31 18:40:49 1514763649.868676: $GPGSA,A,3,23,9,3,16,8,14,31,27,7,26,135,,1.7,0.8,1.3*0C
2017-12-31 18:40:50 1514763650.494907: $GPZDA,234051.00,31,12,2017,00,00*62
2017-12-31 18:40:50 1514763650.495077: $GPGGA,234051,3946.9581,N,08404.9836,W,2,11,0.80,306.79,M,-33.324,M,,*78
2017-12-31 18:40:50 1514763650.495198: $GPRMC,234051,A,3946.9581,N,08404.9836,W,0.0000,0.000,311217,,*38
2017-12-31 18:40:50 1514763650.495260: $GPGSA,A,3,23,9,3,16,8,14,31,27,7,26,135,,1.7,0.8,1.3*0C
2017-12-31 18:40:51 1514763651.689115: $GPGSV,3,1,12,22,11,205,24,23,66,289,39,09,33,310,41,03,21,223,38*77
2017-12-31 18:40:51 1514763651.689269: $GPGSV,3,2,12,16,81,039,43,08,13,177,29,14,02,139,20,31,19,085,36*74
2017-12-31 18:40:51 1514763651.689334: $GPGSV,3,3,12,27,36,145,41,07,08,282,42,26,48,046,45,135,22,240,44*44
2017-12-31 18:40:51 1514763651.801453: $GPZDA,234052.00,31,12,2017,00,00*61
2017-12-31 18:40:51 1514763651.801583: $GPGGA,234052,3946.9581,N,08404.9836,W,2,12,0.80,306.79,M,-33.324,M,,*78
2017-12-31 18:40:51 1514763651.801648: $GPRMC,234052,A,3946.9581,N,08404.9836,W,0.0000,0.000,311217,,*3B
2017-12-31 18:40:51 1514763651.801708: $GPGSA,A,3,22,23,9,3,16,8,14,31,27,7,26,135,1.7,0.8,1.3*0C
2017-12-31 18:40:52 1514763652.352460: $GPZDA,234053.00,31,12,2017,00,00*60
2017-12-31 18:40:52 1514763652.352629: $GPGGA,234053,3946.9581,N,08404.9836,W,2,12,0.80,306.79,M,-33.324,M,,*79
2017-12-31 18:40:52 1514763652.352696: $GPRMC,234053,A,3946.9581,N,08404.9836,W,0.0000,0.000,311217,,*3A
2017-12-31 18:40:52 1514763652.352758: $GPGSA,A,3,22,23,9,3,16,8,14,31,27,7,26,135,1.7,0.8,1.3*0C
