2017-12-29 15:01:31 1514577691.292838: {"class":"VERSION","release":"3.16","rev":"3.16-4","proto_major":3,"proto_minor":11}
2017-12-29 15:01:31 1514577691.293186: {"class":"DEVICES","devices":[{"class":"DEVICE","path":"/dev/ttyUSB0","driver":"SiRF","subtype":"9\u0006GSD4e_4.1.2-P1_RPATCH.05-F-GPS-4R-1510281 11/03/2015 307","activated":"2017-12-29T20:01:31.231Z","flags":1,"native":1,"bps":4800,"parity":"N","stopbits":1,"cycle":1.00}]}
2017-12-29 15:01:31 1514577691.293302: {"class":"WATCH","enable":true,"json":false,"nmea":true,"raw":0,"scaled":false,"timing":false,"split24":false,"pps":false}
2017-12-29 15:01:31 1514577691.407924: $GPZDA,200132.00,29,12,2017,00,00*68
2017-12-29 15:01:31 1514577691.408098: $GPGGA,200132,3946.9585,N,08404.9839,W,2,12,0.80,299.56,M,-33.324,M,,*79
2017-12-29 15:01:31 1514577691.408166: $GPRMC,200132,A,3946.9585,N,08404.9839,W,0.0000,0.000,291217,,*39
2017-12-29 15:01:31 1514577691.408228: $GPGSA,A,3,1,3,10,18,12,14,22,25,31,32,11,138,1.7,0.8,1.3*0C
2017-12-29 15:01:32 1514577692.417540: $GPZDA,200133.00,29,12,2017,00,00*69
2017-12-29 15:01:32 1514577692.417711: $GPGGA,200133,3946.9585,N,08404.9839,W,2,12,0.80,299.56,M,-33.324,M,,*78
2017-12-29 15:01:32 1514577692.417779: $GPRMC,200133,A,3946.9585,N,08404.9839,W,0.0000,0.000,291217,,*38
2017-12-29 15:01:32 1514577692.417841: $GPGSA,A,3,1,3,10,18,12,14,22,25,31,32,11,138,1.7,0.8,1.3*0C
2017-12-29 15:01:33 1514577693.760778: $GPGSV,3,1,12,01,22,289,34,03,10,316,39,10,36,153,49,18,07,147,25*74
2017-12-29 15:01:33 1514577693.760950: $GPGSV,3,2,12,12,17,040,45,14,70,354,44,22,29,310,42,25,41,075,50*71
2017-12-29 15:01:33 1514577693.761016: $GPGSV,3,3,12,31,69,240,47,32,63,057,50,26,13,180,05,138,38,213,43*4D
2017-12-29 15:01:33 1514577693.874106: $GPZDA,200134.00,29,12,2017,00,00*6E
2017-12-29 15:01:33 1514577693.874225: $GPGGA,200134,3946.9585,N,08404.9839,W,2,11,0.80,299.56,M,-33.324,M,,*7C
2017-12-29 15:01:33 1514577693.874292: $GPRMC,200134,A,3946.9585,N,08404.9839,W,0.0000,0.000,291217,,*3F
2017-12-29 15:01:33 1514577693.874353: $GPGSA,A,3,1,3,10,18,12,14,22,25,31,32,138,,1.7,0.8,1.3*0C
2017-12-29 15:01:34 1514577694.499527: $GPZDA,200135.00,29,12,2017,00,00*6F
2017-12-29 15:01:34 1514577694.499686: $GPGGA,200135,3946.9585,N,08404.9839,W,2,11,0.80,299.56,M,-33.324,M,,*7D
2017-12-29 15:01:34 1514577694.499753: $GPRMC,200135,A,3946.9585,N,08404.9839,W,0.0000,0.000,291217,,*3E
2017-12-29 15:01:34 1514577694.499813: $GPGSA,A,3,1,3,10,18,12,14,22,25,31,32,138,,1.7,0.8,1.3*0C
2017-12-29 15:01:35 1514577695.407899: $GPZDA,200136.00,29,12,2017,00,00*6C
2017-12-29 15:01:35 1514577695.408071: $GPGGA,200136,3946.9585,N,08404.9839,W,2,11,0.80,299.56,M,-33.324,M,,*7E
2017-12-29 15:01:35 1514577695.408138: $GPRMC,200136,A,3946.9585,N,08404.9839,W,0.0000,0.000,291217,,*3D
2017-12-29 15:01:35 1514577695.408200: $GPGSA,A,3,1,3,10,18,12,14,22,25,31,32,138,,1.7,0.8,1.3*0C
2017-12-29 15:01:36 1514577696.762422: $GPGSV,3,1,12,01,22,289,26,03,10,316,39,10,36,153,49,18,07,147,25*77
2017-12-29 15:01:36 1514577696.762615: $GPGSV,3,2,12,12,17,040,45,14,70,354,44,22,29,310,41,25,41,075,50*72
2017-12-29 15:01:36 1514577696.762683: $GPGSV,3,3,12,31,69,240,47,32,63,057,50,26,13,180,14,138,38,213,43*4D
2017-12-29 15:01:36 1514577696.875725: $GPZDA,200137.00,29,12,2017,00,00*6D
2017-12-29 15:01:36 1514577696.875863: $GPGGA,200137,3946.9585,N,08404.9839,W,2,12,0.80,299.56,M,-33.324,M,,*7C
2017-12-29 15:01:36 1514577696.875929: $GPRMC,200137,A,3946.9585,N,08404.9839,W,0.0000,0.000,291217,,*3C
2017-12-29 15:01:36 1514577696.875990: $GPGSA,A,3,1,3,10,18,12,14,22,25,31,32,26,138,1.7,0.8,1.3*08
2017-12-29 15:01:37 1514577697.418141: $GPZDA,200138.00,29,12,2017,00,00*62
2017-12-29 15:01:37 1514577697.418308: $GPGGA,200138,3946.9585,N,08404.9839,W,2,12,0.80,299.56,M,-33.324,M,,*73
2017-12-29 15:01:37 1514577697.418374: $GPRMC,200138,A,3946.9585,N,08404.9839,W,0.0000,0.000,291217,,*33
2017-12-29 15:01:37 1514577697.418436: $GPGSA,A,3,1,3,10,18,12,14,22,25,31,32,26,138,1.7,0.8,1.3*08
2017-12-29 15:01:38 1514577698.425253: $GPZDA,200139.00,29,12,2017,00,00*63
2017-12-29 15:01:38 1514577698.425478: $GPGGA,200139,3946.9585,N,08404.9839,W,2,12,0.80,299.56,M,-33.324,M,,*72
2017-12-29 15:01:38 1514577698.425546: $GPRMC,200139,A,3946.9585,N,08404.9839,W,0.0000,0.000,291217,,*32
2017-12-29 15:01:38 1514577698.425607: $GPGSA,A,3,1,3,10,18,12,14,22,25,31,32,26,138,1.7,0.8,1.3*08
2017-12-29 15:01:39 1514577699.761490: $GPGSV,3,1,12,01,22,289,29,03,10,316,40,10,36,153,49,18,07,147,25*76
2017-12-29 15:01:39 1514577699.761657: $GPGSV,3,2,12,12,17,040,45,14,70,354,43,22,29,310,41,25,41,075,50*75
2017-12-29 15:01:39 1514577699.761724: $GPGSV,3,3,12,31,69,240,47,32,63,057,50,26,13,180,19,138,38,213,44*47
2017-12-29 15:01:39 1514577699.874811: $GPZDA,200140.00,29,12,2017,00,00*6D
2017-12-29 15:01:39 1514577699.874941: $GPGGA,200140,3946.9585,N,08404.9839,W,2,11,0.80,299.56,M,-33.324,M,,*7F
2017-12-29 15:01:39 1514577699.875008: $GPRMC,200140,A,3946.9585,N,08404.9839,W,0.0000,0.000,291217,,*3C
2017-12-29 15:01:39 1514577699.875069: $GPGSA,A,3,1,3,10,18,12,14,22,25,31,32,138,,1.7,0.8,1.3*0C
2017-12-29 15:01:40 1514577700.408213: $GPZDA,200141.00,29,12,2017,00,00*6C
2017-12-29 15:01:40 1514577700.408387: $GPGGA,200141,3946.9582,N,08404.9839,W,2,11,0.80,300.33,M,-33.324,M,,*7B
2017-12-29 15:01:40 1514577700.408456: $GPRMC,200141,A,3946.9582,N,08404.9839,W,0.0000,0.000,291217,,*3A
2017-12-29 15:01:40 1514577700.408517: $GPGSA,A,3,1,3,10,18,12,14,22,25,31,32,138,,1.7,0.8,1.3*0C
