2017-12-29 10:43:13 1514562193.269293: {"class":"VERSION","release":"3.16","rev":"3.16-4","proto_major":3,"proto_minor":11}
2017-12-29 10:43:13 1514562193.269685: {"class":"DEVICES","devices":[{"class":"DEVICE","path":"/dev/ttyUSB0","driver":"SiRF","subtype":"9\u0006GSD4e_4.1.2-P1_RPATCH.05-F-GPS-4R-1510281 11/03/2015 307","activated":"2017-12-29T15:43:13.121Z","flags":1,"native":1,"bps":4800,"parity":"N","stopbits":1,"cycle":1.00}]}
2017-12-29 10:43:13 1514562193.269815: {"class":"WATCH","enable":true,"json":false,"nmea":true,"raw":0,"scaled":false,"timing":false,"split24":false,"pps":false}
2017-12-29 10:43:14 1514562194.970456: $GPZDA,154315.45,29,12,2017,00,00*6C
2017-12-29 10:43:14 1514562194.970639: $GPGGA,154315,3946.9571,N,08404.9744,W,1,11,1.20,304.37,M,-33.324,M,,*7B
2017-12-29 10:43:14 1514562194.970707: $GPRMC,154315,A,3946.9571,N,08404.9744,W,0.8126,356.465,291217,,*38
2017-12-29 10:43:14 1514562194.970768: $GPGSA,A,3,10,13,15,18,20,21,24,27,32,29,138,,1.7,1.2,1.3*09
2017-12-29 10:43:14 1514562194.970826: $GPGBS,154315,10.91,M,10.38,M,30.89,M*08
2017-12-29 10:43:16 1514562196.398274: $GPZDA,154316.44,29,12,2017,00,00*6E
2017-12-29 10:43:16 1514562196.398462: $GPGGA,154316,3946.9588,N,08404.9790,W,1,11,1.20,302.16,M,-33.324,M,,*72
2017-12-29 10:43:16 1514562196.398528: $GPRMC,154316,A,3946.9588,N,08404.9790,W,0.4063,356.465,291217,,*38
2017-12-29 10:43:16 1514562196.398607: $GPGSA,A,3,10,13,15,18,20,21,24,27,32,29,138,,1.7,1.2,1.3*09
2017-12-29 10:43:17 1514562197.137614: $GPGSV,3,1,11,10,30,289,44,13,20,045,43,15,51,049,51,18,61,312,44*7B
2017-12-29 10:43:17 1514562197.137765: $GPGSV,3,2,11,20,46,081,49,21,77,220,48,24,41,130,49,27,19,304,33*75
2017-12-29 10:43:17 1514562197.137830: $GPGSV,3,3,11,29,03,187,35,32,09,229,26,138,38,213,00*7D
2017-12-29 10:43:17 1514562197.251008: $GPZDA,154316.95,29,12,2017,00,00*62
2017-12-29 10:43:17 1514562197.251224: $GPGGA,154316,3946.9596,N,08404.9797,W,1,10,0.80,301.96,M,-33.324,M,,*7B
2017-12-29 10:43:17 1514562197.251290: $GPRMC,154316,A,3946.9596,N,08404.9797,W,0.5602,0.000,291217,,*37
2017-12-29 10:43:17 1514562197.251350: $GPGSA,A,3,10,13,15,18,20,21,24,27,29,32,,,1.7,0.8,1.3*38
2017-12-29 10:43:17 1514562197.701940: $GPZDA,154318.00,29,12,2017,00,00*60
2017-12-29 10:43:17 1514562197.702104: $GPGGA,154318,3946.9585,N,08404.9845,W,1,10,0.80,298.08,M,-33.324,M,,*71
2017-12-29 10:43:17 1514562197.702169: $GPRMC,154318,A,3946.9585,N,08404.9845,W,0.0000,0.000,291217,,*3A
2017-12-29 10:43:17 1514562197.702230: $GPGSA,A,3,10,13,15,18,20,21,24,27,29,32,,,1.7,0.8,1.3*38
2017-12-29 10:43:18 1514562198.374022: $GPZDA,154319.00,29,12,2017,00,00*61
2017-12-29 10:43:18 1514562198.380103: $GPGGA,154319,3946.9585,N,08404.9845,W,1,10,0.80,298.08,M,-33.324,M,,*70
2017-12-29 10:43:18 1514562198.380226: $GPRMC,154319,A,3946.9585,N,08404.9845,W,0.0000,0.000,291217,,*3B
2017-12-29 10:43:18 1514562198.380293: $GPGSA,A,3,10,13,15,18,20,21,24,27,29,32,,,1.7,0.8,1.3*38
2017-12-29 10:43:19 1514562199.710469: $GPGSV,3,1,11,10,30,289,44,13,20,045,43,15,51,049,51,18,61,312,44*7B
2017-12-29 10:43:19 1514562199.710634: $GPGSV,3,2,11,20,46,081,50,21,77,220,48,24,41,130,49,27,19,304,35*7B
2017-12-29 10:43:19 1514562199.710701: $GPGSV,3,3,11,29,03,187,36,32,09,229,28,138,38,213,46*72
2017-12-29 10:43:19 1514562199.822527: $GPZDA,154320.00,29,12,2017,00,00*6B
2017-12-29 10:43:19 1514562199.822654: $GPGGA,154320,3946.9585,N,08404.9845,W,1,11,0.80,298.08,M,-33.324,M,,*7B
2017-12-29 10:43:19 1514562199.822717: $GPRMC,154320,A,3946.9585,N,08404.9845,W,0.0000,0.000,291217,,*31
2017-12-29 10:43:19 1514562199.822777: $GPGSA,A,3,10,13,15,18,20,21,24,27,29,32,138,,1.7,0.8,1.3*02
2017-12-29 10:43:20 1514562200.373456: $GPZDA,154321.00,29,12,2017,00,00*6A
2017-12-29 10:43:20 1514562200.373641: $GPGGA,154321,3946.9585,N,08404.9838,W,1,11,0.80,298.16,M,-33.324,M,,*7F
2017-12-29 10:43:20 1514562200.373708: $GPRMC,154321,A,3946.9585,N,08404.9838,W,0.0000,0.000,291217,,*3A
2017-12-29 10:43:20 1514562200.373769: $GPGSA,A,3,10,13,15,18,20,21,24,27,29,32,138,,1.7,0.8,1.3*02
2017-12-29 10:43:20 1514562200.373827: $GPGBS,154321,10.91,M,10.38,M,30.89,M*0F
2017-12-29 10:43:21 1514562201.374313: $GPZDA,154322.00,29,12,2017,00,00*69
2017-12-29 10:43:21 1514562201.374502: $GPGGA,154322,3946.9586,N,08404.9839,W,1,11,0.80,300.97,M,-33.324,M,,*77
2017-12-29 10:43:21 1514562201.374585: $GPRMC,154322,A,3946.9586,N,08404.9839,W,0.2422,273.794,291217,,*31
2017-12-29 10:43:21 1514562201.374646: $GPGSA,A,3,10,13,15,18,20,21,24,27,29,32,138,,1.7,0.8,1.3*02
2017-12-29 10:43:21 1514562201.374704: $GPGBS,154322,10.91,M,10.38,M,30.89,M*0C
2017-12-29 10:43:22 1514562202.709954: $GPGSV,3,1,11,10,30,289,44,13,20,045,43,15,51,049,51,18,61,312,44*7B
2017-12-29 10:43:22 1514562202.710110: $GPGSV,3,2,11,20,46,081,50,21,77,220,48,24,41,130,50,27,19,304,36*70
2017-12-29 10:43:22 1514562202.710175: $GPGSV,3,3,11,29,03,187,35,32,09,229,32,138,38,213,46*7A
2017-12-29 10:43:22 1514562202.823370: $GPZDA,154323.00,29,12,2017,00,00*68
2017-12-29 10:43:22 1514562202.823561: $GPGGA,154323,3946.9583,N,08404.9834,W,1,11,0.80,303.21,M,-33.324,M,,*70
2017-12-29 10:43:22 1514562202.823628: $GPRMC,154323,A,3946.9583,N,08404.9834,W,0.1567,9.200,291217,,*3C
2017-12-29 10:43:22 1514562202.823687: $GPGSA,A,3,10,13,15,18,20,21,24,27,29,32,138,,1.7,0.8,1.3*02
