2017-11-16 14:11:54 1510859514.576965: {"class":"VERSION","release":"3.17","rev":"3.17","proto_major":3,"proto_minor":12}
2017-11-16 14:11:54 1510859514.577369: {"class":"DEVICES","devices":[{"class":"DEVICE","path":"/dev/ttyUSB0","driver":"SiRF","subtype":"9\u0006GSD4e_4.1.2-P1_RPATCH.05-F-GPS-4R-1510281 11/03/2015 307","activated":"2017-11-16T19:11:54.444Z","flags":1,"native":1,"bps":4800,"parity":"N","stopbits":1,"cycle":1.00}]}
2017-11-16 14:11:54 1510859514.577480: {"class":"WATCH","enable":true,"json":false,"nmea":true,"raw":0,"scaled":false,"timing":false,"split24":false,"pps":false}
2017-11-16 14:11:54 1510859514.893696: $GPGSV,3,1,12,08,06,322,33,10,41,300,40,13,08,048,24,15,38,052,50*7B
2017-11-16 14:11:54 1510859514.893866: $GPGSV,3,2,12,18,70,334,47,21,65,192,46,20,33,096,46,24,50,111,48*7B
2017-11-16 14:11:54 1510859514.893927: $GPGSV,3,3,12,27,19,289,39,32,20,237,45,14,04,232,15,138,38,213,44*4D
2017-11-16 14:11:55 1510859515.007513: $GPZDA,191153.00,16,11,2017,00,00*6B
2017-11-16 14:11:55 1510859515.007695: $GPGGA,191153,3946.9546,N,08404.9852,W,1,12,0.80,305.08,M,-33.324,M,,*7B
2017-11-16 14:11:55 1510859515.007756: $GPRMC,191153,A,3946.9546,N,08404.9852,W,0.0000,0.000,161117,,*38
2017-11-16 14:11:55 1510859515.007812: $GPGSA,A,3,8,10,13,15,18,21,20,24,27,32,14,138,1.6,0.8,1.3*35
2017-11-16 14:11:55 1510859515.529284: $GPZDA,191154.00,16,11,2017,00,00*6C
2017-11-16 14:11:55 1510859515.529442: $GPGGA,191154,3946.9546,N,08404.9852,W,1,12,0.80,305.08,M,-33.324,M,,*7C
2017-11-16 14:11:55 1510859515.529502: $GPRMC,191154,A,3946.9546,N,08404.9852,W,0.0000,0.000,161117,,*3F
2017-11-16 14:11:55 1510859515.529558: $GPGSA,A,3,8,10,13,15,18,21,20,24,27,32,14,138,1.6,0.8,1.3*35
2017-11-16 14:11:56 1510859516.527238: $GPZDA,191155.00,16,11,2017,00,00*6D
2017-11-16 14:11:56 1510859516.527424: $GPGGA,191155,3946.9546,N,08404.9852,W,1,12,0.80,305.08,M,-33.324,M,,*7D
2017-11-16 14:11:56 1510859516.527487: $GPRMC,191155,A,3946.9546,N,08404.9852,W,0.0000,0.000,161117,,*3E
2017-11-16 14:11:56 1510859516.527543: $GPGSA,A,3,8,10,13,15,18,21,20,24,27,32,14,138,1.6,0.8,1.3*35
2017-11-16 14:11:57 1510859517.864089: $GPGSV,3,1,12,08,06,322,34,10,41,300,41,13,08,048,24,15,38,052,50*7D
2017-11-16 14:11:57 1510859517.864265: $GPGSV,3,2,12,18,70,334,47,21,65,192,46,20,33,096,46,24,50,111,48*7B
2017-11-16 14:11:57 1510859517.864325: $GPGSV,3,3,12,27,19,289,40,32,20,237,45,14,04,232,08,138,38,213,45*4E
2017-11-16 14:11:57 1510859517.977392: $GPZDA,191156.00,16,11,2017,00,00*6E
2017-11-16 14:11:57 1510859517.977554: $GPGGA,191156,3946.9546,N,08404.9852,W,1,11,0.80,305.08,M,-33.324,M,,*7D
2017-11-16 14:11:57 1510859517.977614: $GPRMC,191156,A,3946.9546,N,08404.9852,W,0.0000,0.000,161117,,*3D
2017-11-16 14:11:57 1510859517.977669: $GPGSA,A,3,8,10,13,15,18,21,20,24,27,32,138,,1.6,0.8,1.3*30
2017-11-16 14:11:58 1510859518.527223: $GPZDA,191157.00,16,11,2017,00,00*6F
2017-11-16 14:11:58 1510859518.527386: $GPGGA,191157,3946.9546,N,08404.9852,W,1,11,0.80,305.08,M,-33.324,M,,*7C
2017-11-16 14:11:58 1510859518.527447: $GPRMC,191157,A,3946.9546,N,08404.9852,W,0.0000,0.000,161117,,*3C
2017-11-16 14:11:58 1510859518.527502: $GPGSA,A,3,8,10,13,15,18,21,20,24,27,32,138,,1.6,0.8,1.3*30
2017-11-16 14:11:59 1510859519.527178: $GPZDA,191158.00,16,11,2017,00,00*60
2017-11-16 14:11:59 1510859519.527346: $GPGGA,191158,3946.9546,N,08404.9852,W,1,11,0.80,305.08,M,-33.324,M,,*73
2017-11-16 14:11:59 1510859519.527409: $GPRMC,191158,A,3946.9546,N,08404.9852,W,0.0000,0.000,161117,,*33
2017-11-16 14:11:59 1510859519.527465: $GPGSA,A,3,8,10,13,15,18,21,20,24,27,32,138,,1.6,0.8,1.3*30
2017-11-16 14:12:00 1510859520.865322: $GPGSV,3,1,12,08,06,322,34,10,41,300,41,13,08,048,24,15,38,052,50*7D
2017-11-16 14:12:00 1510859520.865495: $GPGSV,3,2,12,18,70,334,47,21,65,192,46,20,33,096,46,24,50,111,48*7B
2017-11-16 14:12:00 1510859520.865556: $GPGSV,3,3,12,27,19,289,40,32,20,237,45,14,04,232,17,138,38,213,44*41
2017-11-16 14:12:00 1510859520.978617: $GPZDA,191159.00,16,11,2017,00,00*61
2017-11-16 14:12:00 1510859520.978781: $GPGGA,191159,3946.9546,N,08404.9852,W,1,12,0.80,305.08,M,-33.324,M,,*71
2017-11-16 14:12:00 1510859520.978916: $GPRMC,191159,A,3946.9546,N,08404.9852,W,0.0000,0.000,161117,,*32
2017-11-16 14:12:00 1510859520.978975: $GPGSA,A,3,8,10,13,15,18,21,20,24,27,32,14,138,1.6,0.8,1.3*35
2017-11-16 14:12:01 1510859521.527201: $GPZDA,191200.00,16,11,2017,00,00*6E
2017-11-16 14:12:01 1510859521.527372: $GPGGA,191200,3946.9546,N,08404.9852,W,1,12,0.80,305.08,M,-33.324,M,,*7E
2017-11-16 14:12:01 1510859521.527455: $GPRMC,191200,A,3946.9546,N,08404.9852,W,0.0000,0.000,161117,,*3D
2017-11-16 14:12:01 1510859521.527514: $GPGSA,A,3,8,10,13,15,18,21,20,24,27,32,14,138,1.6,0.8,1.3*35
2017-11-16 14:12:02 1510859522.526701: $GPZDA,191201.00,16,11,2017,00,00*6F
2017-11-16 14:12:02 1510859522.526862: $GPGGA,191201,3946.9546,N,08404.9852,W,1,12,0.80,305.08,M,-33.324,M,,*7F
2017-11-16 14:12:02 1510859522.526922: $GPRMC,191201,A,3946.9546,N,08404.9852,W,0.0000,0.000,161117,,*3C
2017-11-16 14:12:02 1510859522.526977: $GPGSA,A,3,8,10,13,15,18,21,20,24,27,32,14,138,1.6,0.8,1.3*35
2017-11-16 14:12:03 1510859523.862028: $GPGSV,3,1,12,08,06,322,31,10,41,300,41,13,08,048,24,15,38,052,51*79
2017-11-16 14:12:03 1510859523.862199: $GPGSV,3,2,12,18,70,334,47,21,65,192,46,20,33,096,46,24,50,111,48*7B
2017-11-16 14:12:03 1510859523.862260: $GPGSV,3,3,12,27,19,289,40,32,20,237,45,14,04,232,00,138,38,213,43*40
2017-11-16 14:12:03 1510859523.975501: $GPZDA,191202.00,16,11,2017,00,00*6C
2017-11-16 14:12:03 1510859523.975668: $GPGGA,191202,3946.9546,N,08404.9852,W,1,11,0.80,305.08,M,-33.324,M,,*7F
2017-11-16 14:12:03 1510859523.975732: $GPRMC,191202,A,3946.9546,N,08404.9852,W,0.0000,0.000,161117,,*3F
2017-11-16 14:12:03 1510859523.975788: $GPGSA,A,3,8,10,13,15,18,21,20,24,27,32,138,,1.6,0.8,1.3*30
2017-11-16 14:12:04 1510859524.600850: $GPZDA,191203.00,16,11,2017,00,00*6D
2017-11-16 14:12:04 1510859524.601012: $GPGGA,191203,3946.9546,N,08404.9852,W,1,11,0.80,305.08,M,-33.324,M,,*7E
2017-11-16 14:12:04 1510859524.601073: $GPRMC,191203,A,3946.9546,N,08404.9852,W,0.0000,0.000,161117,,*3E
2017-11-16 14:12:04 1510859524.601130: $GPGSA,A,3,8,10,13,15,18,21,20,24,27,32,138,,1.6,0.8,1.3*30
