2018-01-11 20:17:21 1515719841.466292: {"class":"VERSION","release":"3.16","rev":"3.16-4","proto_major":3,"proto_minor":11}
2018-01-11 20:17:21 1515719841.466632: {"class":"DEVICES","devices":[{"class":"DEVICE","path":"/dev/ttyUSB0","driver":"SiRF","subtype":"9\u0006GSD4e_4.1.2-P1_RPATCH.05-F-GPS-4R-1510281 11/03/2015 307","activated":"2018-01-12T01:17:21.222Z","flags":1,"native":1,"bps":4800,"parity":"N","stopbits":1,"cycle":1.00}]}
2018-01-11 20:17:21 1515719841.466745: {"class":"WATCH","enable":true,"json":false,"nmea":true,"raw":0,"scaled":false,"timing":false,"split24":false,"pps":false}
2018-01-11 20:17:21 1515719841.671081: $GPGSV,3,1,11,07,58,315,44,08,75,121,44,09,46,226,41,11,22,166,46*75
2018-01-11 20:17:21 1515719841.671245: $GPGSV,3,2,11,16,21,061,42,23,26,189,48,27,45,051,50,30,31,307,36*71
2018-01-11 20:17:21 1515719841.671310: $GPGSV,3,3,11,28,16,259,39,01,01,162,00,138,38,213,44*74
2018-01-11 20:17:21 1515719841.784782: $GPZDA,011722.00,12,01,2018,00,00*68
2018-01-11 20:17:21 1515719841.784901: $GPGGA,011722,3946.9596,N,08404.9854,W,2,10,0.80,303.49,M,-33.324,M,,*7B
2018-01-11 20:17:21 1515719841.784964: $GPRMC,011722,A,3946.9596,N,08404.9854,W,0.0000,0.000,120118,,*30
2018-01-11 20:17:21 1515719841.785023: $GPGSA,A,3,7,8,9,11,16,23,27,30,28,138,,,4.0,0.8,3.5*3E
2018-01-11 20:17:22 1515719842.335685: $GPZDA,011723.00,12,01,2018,00,00*69
2018-01-11 20:17:22 1515719842.335831: $GPGGA,011723,3946.9592,N,08404.9848,W,2,10,0.80,304.33,M,-33.324,M,,*79
2018-01-11 20:17:22 1515719842.335895: $GPRMC,011723,A,3946.9592,N,08404.9848,W,0.0000,0.000,120118,,*38
2018-01-11 20:17:22 1515719842.335955: $GPGSA,A,3,7,8,9,11,16,23,27,30,28,138,,,4.0,0.8,3.5*3E
2018-01-11 20:17:23 1515719843.334957: $GPZDA,011724.00,12,01,2018,00,00*6E
2018-01-11 20:17:23 1515719843.335128: $GPGGA,011724,3946.9592,N,08404.9848,W,2,10,0.80,304.33,M,-33.324,M,,*7E
2018-01-11 20:17:23 1515719843.335194: $GPRMC,011724,A,3946.9592,N,08404.9848,W,0.0000,0.000,120118,,*3F
2018-01-11 20:17:23 1515719843.335254: $GPGSA,A,3,7,8,9,11,16,23,27,30,28,138,,,4.0,0.8,3.5*3E
2018-01-11 20:17:24 1515719844.666446: $GPGSV,3,1,11,07,58,315,44,08,75,121,44,09,46,226,41,11,22,166,46*75
2018-01-11 20:17:24 1515719844.666596: $GPGSV,3,2,11,16,21,061,42,23,26,189,48,27,45,051,50,30,31,307,37*70
2018-01-11 20:17:24 1515719844.666661: $GPGSV,3,3,11,28,16,259,39,01,01,162,00,138,38,213,45*75
2018-01-11 20:17:24 1515719844.779815: $GPZDA,011725.00,12,01,2018,00,00*6F
2018-01-11 20:17:24 1515719844.779939: $GPGGA,011725,3946.9592,N,08404.9848,W,2,10,0.80,304.33,M,-33.324,M,,*7F
2018-01-11 20:17:24 1515719844.780003: $GPRMC,011725,A,3946.9592,N,08404.9848,W,0.0000,0.000,120118,,*3E
2018-01-11 20:17:24 1515719844.780063: $GPGSA,A,3,7,8,9,11,16,23,27,30,28,138,,,4.0,0.8,3.5*3E
2018-01-11 20:17:25 1515719845.353419: $GPZDA,011726.00,12,01,2018,00,00*6C
2018-01-11 20:17:25 1515719845.353570: $GPGGA,011726,3946.9592,N,08404.9848,W,2,10,0.80,304.33,M,-33.324,M,,*7C
2018-01-11 20:17:25 1515719845.353636: $GPRMC,011726,A,3946.9592,N,08404.9848,W,0.0000,0.000,120118,,*3D
2018-01-11 20:17:25 1515719845.353696: $GPGSA,A,3,7,8,9,11,16,23,27,30,28,138,,,4.0,0.8,3.5*3E
2018-01-11 20:17:26 1515719846.351823: $GPZDA,011727.00,12,01,2018,00,00*6D
2018-01-11 20:17:26 1515719846.351982: $GPGGA,011727,3946.9592,N,08404.9848,W,2,10,0.80,304.33,M,-33.324,M,,*7D
2018-01-11 20:17:26 1515719846.352047: $GPRMC,011727,A,3946.9592,N,08404.9848,W,0.0000,0.000,120118,,*3C
2018-01-11 20:17:26 1515719846.352108: $GPGSA,A,3,7,8,9,11,16,23,27,30,28,138,,,4.0,0.8,3.5*3E
2018-01-11 20:17:27 1515719847.669773: $GPGSV,3,1,11,07,58,315,43,08,75,121,44,09,46,226,41,11,22,166,46*72
2018-01-11 20:17:27 1515719847.669952: $GPGSV,3,2,11,16,21,061,42,23,26,189,47,27,45,051,50,30,31,307,38*70
2018-01-11 20:17:27 1515719847.670017: $GPGSV,3,3,11,28,16,259,40,01,01,162,00,138,38,213,44*7A
2018-01-11 20:17:27 1515719847.783395: $GPZDA,011728.00,12,01,2018,00,00*62
2018-01-11 20:17:27 1515719847.783523: $GPGGA,011728,3946.9592,N,08404.9848,W,2,10,0.80,304.33,M,-33.324,M,,*72
2018-01-11 20:17:27 1515719847.783588: $GPRMC,011728,A,3946.9592,N,08404.9848,W,0.0000,0.000,120118,,*33
2018-01-11 20:17:27 1515719847.783697: $GPGSA,A,3,7,8,9,11,16,23,27,30,28,138,,,4.0,0.8,3.5*3E
2018-01-11 20:17:28 1515719848.334236: $GPZDA,011729.00,12,01,2018,00,00*63
2018-01-11 20:17:28 1515719848.334367: $GPGGA,011729,3946.9592,N,08404.9848,W,2,10,0.80,304.33,M,-33.324,M,,*73
2018-01-11 20:17:28 1515719848.334432: $GPRMC,011729,A,3946.9592,N,08404.9848,W,0.0000,0.000,120118,,*32
2018-01-11 20:17:28 1515719848.334491: $GPGSA,A,3,7,8,9,11,16,23,27,30,28,138,,,4.0,0.8,3.5*3E
2018-01-11 20:17:29 1515719849.334669: $GPZDA,011730.00,12,01,2018,00,00*6B
2018-01-11 20:17:29 1515719849.334815: $GPGGA,011730,3946.9592,N,08404.9848,W,2,10,0.80,304.33,M,-33.324,M,,*7B
2018-01-11 20:17:29 1515719849.334881: $GPRMC,011730,A,3946.9592,N,08404.9848,W,0.0000,0.000,120118,,*3A
2018-01-11 20:17:29 1515719849.334941: $GPGSA,A,3,7,8,9,11,16,23,27,30,28,138,,,4.0,0.8,3.5*3E
2018-01-11 20:17:30 1515719850.670121: $GPGSV,3,1,11,07,58,315,43,08,75,121,44,09,46,226,41,11,22,166,46*72
2018-01-11 20:17:30 1515719850.670302: $GPGSV,3,2,11,16,21,061,42,23,26,189,47,27,45,051,50,30,31,307,38*70
2018-01-11 20:17:30 1515719850.670368: $GPGSV,3,3,11,28,16,259,40,01,01,162,00,138,38,213,45*7B
2018-01-11 20:17:30 1515719850.783736: $GPZDA,011731.00,12,01,2018,00,00*6A
2018-01-11 20:17:30 1515719850.783862: $GPGGA,011731,3946.9592,N,08404.9848,W,2,10,0.80,304.33,M,-33.324,M,,*7A
2018-01-11 20:17:30 1515719850.783927: $GPRMC,011731,A,3946.9592,N,08404.9848,W,0.0000,0.000,120118,,*3B
2018-01-11 20:17:30 1515719850.783988: $GPGSA,A,3,7,8,9,11,16,23,27,30,28,138,,,4.0,0.8,3.5*3E
2018-01-11 20:17:31 1515719851.330863: $GPZDA,011732.00,12,01,2018,00,00*69
2018-01-11 20:17:31 1515719851.331031: $GPGGA,011732,3946.9592,N,08404.9848,W,2,10,0.80,304.33,M,-33.324,M,,*79
2018-01-11 20:17:31 1515719851.331097: $GPRMC,011732,A,3946.9592,N,08404.9848,W,0.0000,0.000,120118,,*38
2018-01-11 20:17:31 1515719851.331158: $GPGSA,A,3,7,8,9,11,16,23,27,30,28,138,,,4.0,0.8,3.5*3E
2018-01-11 20:17:32 1515719852.334252: $GPZDA,011733.00,12,01,2018,00,00*68
2018-01-11 20:17:32 1515719852.334415: $GPGGA,011733,3946.9592,N,08404.9848,W,2,10,0.80,304.33,M,-33.324,M,,*78
2018-01-11 20:17:32 1515719852.334481: $GPRMC,011733,A,3946.9592,N,08404.9848,W,0.0000,0.000,120118,,*39
2018-01-11 20:17:32 1515719852.334542: $GPGSA,A,3,7,8,9,11,16,23,27,30,28,138,,,4.0,0.8,3.5*3E
