2017-11-15 19:28:21 1510792101.812030: {"class":"VERSION","release":"3.17","rev":"3.17","proto_major":3,"proto_minor":12}
2017-11-15 19:28:21 1510792101.812500: {"class":"DEVICES","devices":[{"class":"DEVICE","path":"/dev/ttyUSB0","driver":"SiRF","subtype":"9\u0006GSD4e_4.1.2-P1_RPATCH.05-F-GPS-4R-1510281 11/03/2015 307","activated":"2017-11-16T00:28:21.779Z","flags":1,"native":1,"bps":4800,"parity":"N","stopbits":1,"cycle":1.00}]}
2017-11-15 19:28:21 1510792101.812624: {"class":"WATCH","enable":true,"json":false,"nmea":true,"raw":0,"scaled":false,"timing":false,"split24":false,"pps":false}
2017-11-15 19:28:22 1510792102.330316: $GPZDA,002821.00,16,11,2017,00,00*6C
2017-11-15 19:28:22 1510792102.330481: $GPGGA,002821,3946.9635,N,08404.9497,W,1,08,1.40,275.92,M,-33.324,M,,*7D
2017-11-15 19:28:22 1510792102.330542: $GPRMC,002821,A,3946.9635,N,08404.9497,W,1.0567,197.448,161117,,*3F
2017-11-15 19:28:22 1510792102.330597: $GPGSA,A,3,32,31,16,26,3,14,23,22,,,,,3.4,1.4,2.9*0C
2017-11-15 19:28:23 1510792103.329974: $GPZDA,002822.00,16,11,2017,00,00*6F
2017-11-15 19:28:23 1510792103.330149: $GPGGA,002822,3946.9628,N,08404.9498,W,1,08,1.40,276.04,M,-33.324,M,,*71
2017-11-15 19:28:23 1510792103.330211: $GPRMC,002822,A,3946.9628,N,08404.9498,W,1.1385,209.379,161117,,*35
2017-11-15 19:28:23 1510792103.330267: $GPGSA,A,3,32,31,16,26,3,14,23,22,,,,,3.4,1.4,2.9*0C
2017-11-15 19:28:24 1510792104.667045: $GPGSV,3,1,12,32,37,106,21,31,68,022,21,16,21,190,17,26,52,172,19*73
2017-11-15 19:28:24 1510792104.667216: $GPGSV,3,2,12,01,06,253,00,29,10,072,04,03,39,300,18,14,56,091,19*76
2017-11-15 19:28:24 1510792104.667275: $GPGSV,3,3,12,23,10,300,12,25,18,040,04,22,50,273,14,135,23,238,00*4D
2017-11-15 19:28:24 1510792104.780289: $GPZDA,002823.00,16,11,2017,00,00*6E
2017-11-15 19:28:24 1510792104.780464: $GPGGA,002823,3946.9628,N,08404.9498,W,1,08,1.40,276.04,M,-33.324,M,,*70
2017-11-15 19:28:24 1510792104.780524: $GPRMC,002823,A,3946.9628,N,08404.9498,W,0.7278,203.636,161117,,*34
2017-11-15 19:28:24 1510792104.780580: $GPGSA,A,3,32,31,16,26,3,14,23,22,,,,,3.4,1.4,2.9*0C
2017-11-15 19:28:25 1510792105.331169: $GPZDA,002824.00,16,11,2017,00,00*69
2017-11-15 19:28:25 1510792105.331341: $GPGGA,002824,3946.9620,N,08404.9499,W,1,08,1.40,276.17,M,-33.324,M,,*7C
2017-11-15 19:28:25 1510792105.331402: $GPRMC,002824,A,3946.9620,N,08404.9499,W,0.6846,184.197,161117,,*3C
2017-11-15 19:28:25 1510792105.331457: $GPGSA,A,3,32,31,16,26,3,14,23,22,,,,,3.4,1.4,2.9*0C
2017-11-15 19:28:26 1510792106.330281: $GPZDA,002825.00,16,11,2017,00,00*68
2017-11-15 19:28:26 1510792106.330443: $GPGGA,002825,3946.9620,N,08404.9499,W,1,08,1.40,276.17,M,-33.324,M,,*7D
2017-11-15 19:28:26 1510792106.330504: $GPRMC,002825,A,3946.9620,N,08404.9499,W,0.6846,184.197,161117,,*3D
2017-11-15 19:28:26 1510792106.330560: $GPGSA,A,3,32,31,16,26,3,14,23,22,,,,,3.4,1.4,2.9*0C
2017-11-15 19:28:27 1510792107.666100: $GPGSV,3,1,12,32,37,106,21,31,68,022,20,16,21,190,16,26,52,172,18*72
2017-11-15 19:28:27 1510792107.666269: $GPGSV,3,2,12,01,06,253,00,29,10,072,04,03,39,300,18,14,56,091,19*76
2017-11-15 19:28:27 1510792107.666330: $GPGSV,3,3,12,23,10,300,12,25,18,040,04,22,50,273,14,135,23,238,00*4D
2017-11-15 19:28:27 1510792107.779439: $GPZDA,002826.00,16,11,2017,00,00*6B
2017-11-15 19:28:27 1510792107.779600: $GPGGA,002826,3946.9613,N,08404.9499,W,1,08,1.40,276.29,M,-33.324,M,,*73
2017-11-15 19:28:27 1510792107.779662: $GPRMC,002826,A,3946.9613,N,08404.9499,W,1.0567,197.448,161117,,*32
2017-11-15 19:28:27 1510792107.779718: $GPGSA,A,3,32,31,16,26,3,14,23,22,,,,,3.4,1.4,2.9*0C
2017-11-15 19:28:28 1510792108.329820: $GPZDA,002827.00,16,11,2017,00,00*6A
2017-11-15 19:28:28 1510792108.329999: $GPGGA,002827,3946.9612,N,08404.9492,W,1,08,1.40,276.37,M,-33.324,M,,*77
2017-11-15 19:28:28 1510792108.330060: $GPRMC,002827,A,3946.9612,N,08404.9492,W,1.0567,197.448,161117,,*39
2017-11-15 19:28:28 1510792108.330115: $GPGSA,A,3,32,31,16,26,3,14,23,22,,,,,3.4,1.4,2.9*0C
2017-11-15 19:28:29 1510792109.330028: $GPZDA,002828.00,16,11,2017,00,00*65
2017-11-15 19:28:29 1510792109.330213: $GPGGA,002828,3946.9605,N,08404.9493,W,1,08,1.40,276.50,M,-33.324,M,,*7E
2017-11-15 19:28:29 1510792109.330325: $GPRMC,002828,A,3946.9605,N,08404.9493,W,0.8414,219.347,161117,,*30
2017-11-15 19:28:29 1510792109.330383: $GPGSA,A,3,32,31,16,26,3,14,23,22,,,,,3.4,1.4,2.9*0C
2017-11-15 19:28:30 1510792110.665725: $GPGSV,3,1,12,32,37,106,20,31,68,022,20,16,21,190,16,26,52,172,18*73
2017-11-15 19:28:30 1510792110.665868: $GPGSV,3,2,12,01,06,253,00,29,10,072,04,03,39,300,18,14,56,091,19*76
2017-11-15 19:28:30 1510792110.665927: $GPGSV,3,3,12,23,10,300,11,25,18,040,04,22,50,273,16,135,23,238,00*4C
2017-11-15 19:28:30 1510792110.779039: $GPZDA,002829.00,16,11,2017,00,00*64
2017-11-15 19:28:30 1510792110.779202: $GPGGA,002829,3946.9605,N,08404.9493,W,1,08,1.40,276.50,M,-33.324,M,,*7F
2017-11-15 19:28:30 1510792110.779263: $GPRMC,002829,A,3946.9605,N,08404.9493,W,0.9019,198.875,161117,,*39
2017-11-15 19:28:30 1510792110.779318: $GPGSA,A,3,32,31,16,26,3,14,23,22,,,,,3.4,1.4,2.9*0C
2017-11-15 19:28:31 1510792111.404548: $GPZDA,002830.00,16,11,2017,00,00*6C
2017-11-15 19:28:31 1510792111.404741: $GPGGA,002830,3946.9597,N,08404.9494,W,1,08,1.40,276.62,M,-33.324,M,,*79
2017-11-15 19:28:31 1510792111.404804: $GPRMC,002830,A,3946.9597,N,08404.9494,W,0.6846,184.197,161117,,*3B
2017-11-15 19:28:31 1510792111.404860: $GPGSA,A,3,32,31,16,26,3,14,23,22,,,,,3.4,1.4,2.9*0C
