2017-11-15 19:10:55 1510791055.354456: {"class":"VERSION","release":"3.17","rev":"3.17","proto_major":3,"proto_minor":12}
2017-11-15 19:10:55 1510791055.354951: {"class":"DEVICES","devices":[{"class":"DEVICE","path":"/dev/ttyUSB0","driver":"SiRF","subtype":"9\u0006GSD4e_4.1.2-P1_RPATCH.05-F-GPS-4R-1510281 11/03/2015 307","activated":"2017-11-16T00:10:55.332Z","flags":1,"native":1,"bps":4800,"parity":"N","stopbits":1,"cycle":1.00}]}
2017-11-15 19:10:55 1510791055.355075: {"class":"WATCH","enable":true,"json":false,"nmea":true,"raw":0,"scaled":false,"timing":false,"split24":false,"pps":false}
2017-11-15 19:10:56 1510791056.346446: $GPZDA,001055.00,16,11,2017,00,00*64
2017-11-15 19:10:56 1510791056.346635: $GPGGA,001055,3946.9618,N,08404.9359,W,1,05,2.60,303.31,M,-33.324,M,,*7A
2017-11-15 19:10:56 1510791056.346701: $GPRMC,001055,A,3946.9618,N,08404.9359,W,0.5287,182.716,161117,,*3C
2017-11-15 19:10:56 1510791056.346854: $GPGSA,A,3,32,14,26,31,16,,,,,,,,3.4,2.6,2.9*3F
2017-11-15 19:10:57 1510791057.680999: $GPGSV,3,1,12,32,43,099,18,14,61,079,25,03,34,307,04,26,43,175,08*70
2017-11-15 19:10:57 1510791057.681173: $GPGSV,3,2,12,31,74,006,26,16,14,190,19,22,49,283,04,25,24,043,00*7C
2017-11-15 19:10:57 1510791057.681233: $GPGSV,3,3,12,01,10,259,00,29,07,079,00,10,05,159,00,120,07,103,00*49
2017-11-15 19:10:57 1510791057.794312: $GPZDA,001056.00,16,11,2017,00,00*67
2017-11-15 19:10:57 1510791057.794490: $GPGGA,001056,3946.9615,N,08404.9367,W,1,05,2.60,304.00,M,-33.324,M,,*7C
2017-11-15 19:10:57 1510791057.794554: $GPRMC,001056,A,3946.9615,N,08404.9367,W,0.6846,184.197,161117,,*32
2017-11-15 19:10:57 1510791057.794611: $GPGSA,A,3,32,14,26,31,16,,,,,,,,3.4,2.6,2.9*3F
2017-11-15 19:10:58 1510791058.345476: $GPZDA,001057.00,16,11,2017,00,00*66
2017-11-15 19:10:58 1510791058.345645: $GPGGA,001057,3946.9615,N,08404.9367,W,1,05,2.60,304.00,M,-33.324,M,,*7D
2017-11-15 19:10:58 1510791058.345708: $GPRMC,001057,A,3946.9615,N,08404.9367,W,0.4179,148.779,161117,,*32
2017-11-15 19:10:58 1510791058.345764: $GPGSA,A,3,32,14,26,31,16,,,,,,,,3.4,2.6,2.9*3F
2017-11-15 19:10:59 1510791059.344838: $GPZDA,001058.00,16,11,2017,00,00*69
2017-11-15 19:10:59 1510791059.345009: $GPGGA,001058,3946.9615,N,08404.9367,W,1,05,2.60,304.00,M,-33.324,M,,*72
2017-11-15 19:10:59 1510791059.345073: $GPRMC,001058,A,3946.9615,N,08404.9367,W,0.8359,148.779,161117,,*31
2017-11-15 19:10:59 1510791059.345129: $GPGSA,A,3,32,14,26,31,16,,,,,,,,3.4,2.6,2.9*3F
2017-11-15 19:11:00 1510791060.683216: $GPGSV,3,1,12,32,43,099,18,14,61,079,25,29,07,079,12,26,43,175,08*75
2017-11-15 19:11:00 1510791060.683443: $GPGSV,3,2,12,31,74,006,26,16,14,190,18,22,49,283,05,03,34,307,03*79
2017-11-15 19:11:00 1510791060.683513: $GPGSV,3,3,12,25,24,043,00,01,10,259,00,10,05,159,00,120,07,103,00*4D
2017-11-15 19:11:00 1510791060.796593: $GPZDA,001059.00,16,11,2017,00,00*68
2017-11-15 19:11:00 1510791060.796920: $GPGGA,001059,3946.9615,N,08404.9367,W,1,05,2.60,304.00,M,-33.324,M,,*73
2017-11-15 19:11:00 1510791060.796992: $GPRMC,001059,A,3946.9615,N,08404.9367,W,0.9948,137.276,161117,,*39
2017-11-15 19:11:00 1510791060.797054: $GPGSA,A,3,32,14,26,31,16,,,,,,,,3.4,2.6,2.9*3F
2017-11-15 19:11:01 1510791061.422512: $GPZDA,001100.00,16,11,2017,00,00*65
2017-11-15 19:11:01 1510791061.422689: $GPGGA,001100,3946.9615,N,08404.9374,W,1,05,2.60,303.92,M,-33.324,M,,*70
2017-11-15 19:11:01 1510791061.422752: $GPRMC,001100,A,3946.9615,N,08404.9374,W,0.7246,164.668,161117,,*30
2017-11-15 19:11:01 1510791061.422811: $GPGSA,A,3,32,14,26,31,16,,,,,,,,3.4,2.6,2.9*3F
2017-11-15 19:11:02 1510791062.328923: $GPZDA,001101.00,16,11,2017,00,00*64
2017-11-15 19:11:02 1510791062.329095: $GPGGA,001101,3946.9615,N,08404.9374,W,1,05,2.60,303.92,M,-33.324,M,,*71
2017-11-15 19:11:02 1510791062.329161: $GPRMC,001101,A,3946.9615,N,08404.9374,W,0.5774,207.515,161117,,*38
2017-11-15 19:11:02 1510791062.329221: $GPGSA,A,3,32,14,26,31,16,,,,,,,,3.4,2.6,2.9*3F
2017-11-15 19:11:03 1510791063.682304: $GPGSV,3,1,12,32,43,099,19,14,61,079,25,29,07,079,11,26,43,175,12*7C
2017-11-15 19:11:03 1510791063.683946: $GPGSV,3,2,12,31,74,006,26,16,14,190,19,22,49,283,04,03,34,307,16*7D
2017-11-15 19:11:03 1510791063.684105: $GPGSV,3,3,12,25,24,043,00,01,10,259,00,10,05,159,00,120,07,103,00*4D
2017-11-15 19:11:03 1510791063.795812: $GPZDA,001102.00,16,11,2017,00,00*67
2017-11-15 19:11:03 1510791063.795977: $GPGGA,001102,3946.9619,N,08404.9381,W,1,07,1.60,304.48,M,-33.324,M,,*75
2017-11-15 19:11:03 1510791063.796038: $GPRMC,001102,A,3946.9619,N,08404.9381,W,0.0000,0.000,161117,,*38
2017-11-15 19:11:03 1510791063.796094: $GPGSA,A,3,32,14,29,26,31,16,3,,,,,,3.4,1.6,2.9*04
2017-11-15 19:11:04 1510791064.328915: $GPZDA,001103.00,16,11,2017,00,00*66
2017-11-15 19:11:04 1510791064.329085: $GPGGA,001103,3946.9619,N,08404.9381,W,1,07,1.60,304.48,M,-33.324,M,,*74
2017-11-15 19:11:04 1510791064.329149: $GPRMC,001103,A,3946.9619,N,08404.9381,W,0.2422,93.795,161117,,*0E
2017-11-15 19:11:04 1510791064.329205: $GPGSA,A,3,32,14,29,26,31,16,3,,,,,,3.4,1.6,2.9*04
2017-11-15 19:11:05 1510791065.344853: $GPZDA,001104.00,16,11,2017,00,00*61
2017-11-15 19:11:05 1510791065.345218: $GPGGA,001104,3946.9623,N,08404.9387,W,1,07,1.60,303.64,M,-33.324,M,,*75
2017-11-15 19:11:05 1510791065.345298: $GPRMC,001104,A,3946.9623,N,08404.9387,W,0.3155,309.994,161117,,*3D
2017-11-15 19:11:05 1510791065.345355: $GPGSA,A,3,32,14,29,26,31,16,3,,,,,,3.4,1.6,2.9*04
