2017-12-01 17:47:05 1512168425.567249: {"class":"VERSION","release":"3.16","rev":"3.16-4","proto_major":3,"proto_minor":11}
2017-12-01 17:47:05 1512168425.567629: {"class":"DEVICES","devices":[{"class":"DEVICE","path":"/dev/ttyUSB0","driver":"SiRF","subtype":"9\u0006GSD4e_4.1.2-P1_RPATCH.05-F-GPS-4R-1510281 11/03/2015 307","activated":"2017-12-01T22:47:05.553Z","flags":1,"native":1,"bps":4800,"parity":"N","stopbits":1,"cycle":1.00}]}
2017-12-01 17:47:05 1512168425.567744: {"class":"WATCH","enable":true,"json":false,"nmea":true,"raw":0,"scaled":false,"timing":false,"split24":false,"pps":false}
2017-12-01 17:47:06 1512168426.747134: $GPGSV,3,1,12,01,14,265,43,03,29,312,47,10,13,157,43,14,66,063,41*73
2017-12-01 17:47:06 1512168426.747299: $GPGSV,3,2,12,22,45,294,47,25,30,049,42,26,36,177,45,29,04,087,38*73
2017-12-01 17:47:06 1512168426.747365: $GPGSV,3,3,12,31,79,339,46,32,48,091,45,16,07,190,20,138,38,213,46*40
2017-12-01 17:47:06 1512168426.860638: $GPZDA,224707.00,01,12,2017,00,00*64
2017-12-01 17:47:06 1512168426.860808: $GPGGA,224707,3946.9722,N,08404.9846,W,2,12,0.80,295.68,M,-33.325,M,,*78
2017-12-01 17:47:06 1512168426.860876: $GPRMC,224707,A,3946.9722,N,08404.9846,W,0.0000,0.000,011217,,*32
2017-12-01 17:47:06 1512168426.860936: $GPGSA,A,3,1,3,10,14,22,25,26,29,31,32,16,138,2.0,0.8,1.5*0C
2017-12-01 17:47:07 1512168427.410431: $GPZDA,224708.00,01,12,2017,00,00*6B
2017-12-01 17:47:07 1512168427.413799: $GPGGA,224708,3946.9722,N,08404.9846,W,2,12,0.80,295.68,M,-33.325,M,,*77
2017-12-01 17:47:07 1512168427.413915: $GPRMC,224708,A,3946.9722,N,08404.9846,W,0.0000,0.000,011217,,*3D
2017-12-01 17:47:07 1512168427.413981: $GPGSA,A,3,1,3,10,14,22,25,26,29,31,32,16,138,2.0,0.8,1.5*0C
2017-12-01 17:47:08 1512168428.412242: $GPZDA,224709.00,01,12,2017,00,00*6A
2017-12-01 17:47:08 1512168428.412420: $GPGGA,224709,3946.9722,N,08404.9846,W,2,12,0.80,295.68,M,-33.325,M,,*76
2017-12-01 17:47:08 1512168428.412490: $GPRMC,224709,A,3946.9722,N,08404.9846,W,0.0000,0.000,011217,,*3C
2017-12-01 17:47:08 1512168428.412573: $GPGSA,A,3,1,3,10,14,22,25,26,29,31,32,16,138,2.0,0.8,1.5*0C
2017-12-01 17:47:09 1512168429.754265: $GPGSV,3,1,12,01,14,265,43,03,29,312,47,10,13,157,43,14,66,063,41*73
2017-12-01 17:47:09 1512168429.754441: $GPGSV,3,2,12,22,45,294,47,25,30,049,41,26,36,177,44,29,04,087,37*7E
2017-12-01 17:47:09 1512168429.754508: $GPGSV,3,3,12,31,79,339,46,32,48,091,45,16,07,190,19,138,38,213,45*49
2017-12-01 17:47:09 1512168429.867592: $GPZDA,224710.00,01,12,2017,00,00*62
2017-12-01 17:47:09 1512168429.867744: $GPGGA,224710,3946.9722,N,08404.9846,W,2,12,0.80,295.68,M,-33.325,M,,*7E
2017-12-01 17:47:09 1512168429.867811: $GPRMC,224710,A,3946.9722,N,08404.9846,W,0.0000,0.000,011217,,*34
2017-12-01 17:47:09 1512168429.867872: $GPGSA,A,3,1,3,10,14,22,25,26,29,31,32,16,138,2.0,0.8,1.5*0C
2017-12-01 17:47:10 1512168430.493259: $GPZDA,224711.00,01,12,2017,00,00*63
2017-12-01 17:47:10 1512168430.493428: $GPGGA,224711,3946.9722,N,08404.9846,W,2,12,0.80,295.68,M,-33.325,M,,*7F
2017-12-01 17:47:10 1512168430.493494: $GPRMC,224711,A,3946.9722,N,08404.9846,W,0.0000,0.000,011217,,*35
2017-12-01 17:47:10 1512168430.493555: $GPGSA,A,3,1,3,10,14,22,25,26,29,31,32,16,138,2.0,0.8,1.5*0C
2017-12-01 17:47:11 1512168431.417587: $GPZDA,224712.00,01,12,2017,00,00*60
2017-12-01 17:47:11 1512168431.417757: $GPGGA,224712,3946.9722,N,08404.9846,W,2,12,0.80,295.68,M,-33.325,M,,*7C
2017-12-01 17:47:11 1512168431.417824: $GPRMC,224712,A,3946.9722,N,08404.9846,W,0.0000,0.000,011217,,*36
2017-12-01 17:47:11 1512168431.417885: $GPGSA,A,3,1,3,10,14,22,25,26,29,31,32,16,138,2.0,0.8,1.5*0C
2017-12-01 17:47:12 1512168432.754519: $GPGSV,3,1,12,01,14,265,43,03,29,312,47,10,13,157,43,14,66,063,40*72
2017-12-01 17:47:12 1512168432.754714: $GPGSV,3,2,12,22,45,294,47,25,30,049,42,26,36,177,45,29,04,087,37*7C
2017-12-01 17:47:12 1512168432.757046: $GPGSV,3,3,12,31,79,339,46,32,48,091,45,16,07,190,24,138,38,213,45*47
2017-12-01 17:47:12 1512168432.867980: $GPZDA,224713.00,01,12,2017,00,00*61
2017-12-01 17:47:12 1512168432.868148: $GPGGA,224713,3946.9722,N,08404.9846,W,2,12,0.80,295.68,M,-33.325,M,,*7D
2017-12-01 17:47:12 1512168432.868265: $GPRMC,224713,A,3946.9722,N,08404.9846,W,0.0000,0.000,011217,,*37
2017-12-01 17:47:12 1512168432.868327: $GPGSA,A,3,1,3,10,14,22,25,26,29,31,32,16,138,2.0,0.8,1.5*0C
2017-12-01 17:47:13 1512168433.418848: $GPZDA,224714.00,01,12,2017,00,00*66
2017-12-01 17:47:13 1512168433.419018: $GPGGA,224714,3946.9722,N,08404.9846,W,2,12,0.80,295.68,M,-33.325,M,,*7A
2017-12-01 17:47:13 1512168433.419084: $GPRMC,224714,A,3946.9722,N,08404.9846,W,0.0000,0.000,011217,,*30
2017-12-01 17:47:13 1512168433.419144: $GPGSA,A,3,1,3,10,14,22,25,26,29,31,32,16,138,2.0,0.8,1.5*0C
2017-12-01 17:47:14 1512168434.417160: $GPZDA,224715.00,01,12,2017,00,00*67
2017-12-01 17:47:14 1512168434.417332: $GPGGA,224715,3946.9722,N,08404.9846,W,2,12,0.80,295.68,M,-33.325,M,,*7B
2017-12-01 17:47:14 1512168434.417401: $GPRMC,224715,A,3946.9722,N,08404.9846,W,0.0000,0.000,011217,,*31
2017-12-01 17:47:14 1512168434.417463: $GPGSA,A,3,1,3,10,14,22,25,26,29,31,32,16,138,2.0,0.8,1.5*0C
2017-12-01 17:47:15 1512168435.753637: $GPGSV,3,1,12,01,14,265,43,03,29,312,47,10,13,157,43,14,66,063,40*72
2017-12-01 17:47:15 1512168435.753816: $GPGSV,3,2,12,22,45,294,48,25,30,049,42,26,36,177,45,29,04,087,37*73
2017-12-01 17:47:15 1512168435.753884: $GPGSV,3,3,12,31,79,339,47,32,48,091,45,16,07,190,23,138,38,213,45*41
2017-12-01 17:47:15 1512168435.866063: $GPZDA,224716.00,01,12,2017,00,00*64
2017-12-01 17:47:15 1512168435.866234: $GPGGA,224716,3946.9722,N,08404.9846,W,2,12,0.80,295.68,M,-33.325,M,,*78
2017-12-01 17:47:15 1512168435.866300: $GPRMC,224716,A,3946.9722,N,08404.9846,W,0.0000,0.000,011217,,*32
2017-12-01 17:47:15 1512168435.866361: $GPGSA,A,3,1,3,10,14,22,25,26,29,31,32,16,138,2.0,0.8,1.5*0C
2017-12-01 17:47:16 1512168436.418088: $GPZDA,224717.00,01,12,2017,00,00*65
2017-12-01 17:47:16 1512168436.418257: $GPGGA,224717,3946.9722,N,08404.9846,W,2,12,0.80,295.68,M,-33.325,M,,*79
2017-12-01 17:47:16 1512168436.418324: $GPRMC,224717,A,3946.9722,N,08404.9846,W,0.0000,0.000,011217,,*33
2017-12-01 17:47:16 1512168436.418386: $GPGSA,A,3,1,3,10,14,22,25,26,29,31,32,16,138,2.0,0.8,1.5*0C
2017-12-01 17:47:17 1512168437.417812: $GPZDA,224718.00,01,12,2017,00,00*6A
2017-12-01 17:47:17 1512168437.417988: $GPGGA,224718,3946.9722,N,08404.9846,W,2,12,0.80,295.68,M,-33.325,M,,*76
2017-12-01 17:47:17 1512168437.418055: $GPRMC,224718,A,3946.9722,N,08404.9846,W,0.0000,0.000,011217,,*3C
2017-12-01 17:47:17 1512168437.418115: $GPGSA,A,3,1,3,10,14,22,25,26,29,31,32,16,138,2.0,0.8,1.5*0C
2017-12-01 17:47:18 1512168438.746991: $GPGSV,3,1,12,01,14,265,43,03,29,312,46,10,13,157,43,14,66,063,41*72
2017-12-01 17:47:18 1512168438.747170: $GPGSV,3,2,12,22,45,294,47,25,30,049,42,26,36,177,44,29,04,087,37*7D
2017-12-01 17:47:18 1512168438.747236: $GPGSV,3,3,12,31,79,339,47,32,48,091,45,16,07,190,23,138,38,213,46*42
2017-12-01 17:47:18 1512168438.860345: $GPZDA,224719.00,01,12,2017,00,00*6B
2017-12-01 17:47:18 1512168438.860519: $GPGGA,224719,3946.9722,N,08404.9846,W,2,12,0.80,295.68,M,-33.325,M,,*77
2017-12-01 17:47:18 1512168438.860586: $GPRMC,224719,A,3946.9722,N,08404.9846,W,0.0000,0.000,011217,,*3D
2017-12-01 17:47:18 1512168438.860647: $GPGSA,A,3,1,3,10,14,22,25,26,29,31,32,16,138,2.0,0.8,1.5*0C
2017-12-01 17:47:19 1512168439.417406: $GPZDA,224720.00,01,12,2017,00,00*61
2017-12-01 17:47:19 1512168439.417568: $GPGGA,224720,3946.9722,N,08404.9846,W,2,12,0.80,295.68,M,-33.325,M,,*7D
2017-12-01 17:47:19 1512168439.417635: $GPRMC,224720,A,3946.9722,N,08404.9846,W,0.0000,0.000,011217,,*37
2017-12-01 17:47:19 1512168439.417696: $GPGSA,A,3,1,3,10,14,22,25,26,29,31,32,16,138,2.0,0.8,1.5*0C
2017-12-01 17:47:20 1512168440.419044: $GPZDA,224721.00,01,12,2017,00,00*60
2017-12-01 17:47:20 1512168440.419214: $GPGGA,224721,3946.9722,N,08404.9846,W,2,12,0.80,295.68,M,-33.325,M,,*7C
2017-12-01 17:47:20 1512168440.419280: $GPRMC,224721,A,3946.9722,N,08404.9846,W,0.0000,0.000,011217,,*36
2017-12-01 17:47:20 1512168440.419341: $GPGSA,A,3,1,3,10,14,22,25,26,29,31,32,16,138,2.0,0.8,1.5*0C
2017-12-01 17:47:21 1512168441.754838: $GPGSV,3,1,12,01,14,265,43,03,29,312,46,10,13,157,42,14,66,063,40*72
2017-12-01 17:47:21 1512168441.755016: $GPGSV,3,2,12,22,45,294,48,25,30,049,41,26,36,177,44,29,04,087,37*71
2017-12-01 17:47:21 1512168441.755083: $GPGSV,3,3,12,31,79,339,47,32,48,091,45,16,07,190,24,138,38,213,46*45
2017-12-01 17:47:21 1512168441.868539: $GPZDA,224722.00,01,12,2017,00,00*63
2017-12-01 17:47:21 1512168441.868707: $GPGGA,224722,3946.9722,N,08404.9846,W,2,12,0.80,295.68,M,-33.325,M,,*7F
2017-12-01 17:47:21 1512168441.868774: $GPRMC,224722,A,3946.9722,N,08404.9846,W,0.0000,0.000,011217,,*35
2017-12-01 17:47:21 1512168441.868835: $GPGSA,A,3,1,3,10,14,22,25,26,29,31,32,16,138,2.0,0.8,1.5*0C
2017-12-01 17:47:22 1512168442.416833: $GPZDA,224723.00,01,12,2017,00,00*62
2017-12-01 17:47:22 1512168442.416998: $GPGGA,224723,3946.9722,N,08404.9846,W,2,12,0.80,295.68,M,-33.325,M,,*7E
2017-12-01 17:47:22 1512168442.417064: $GPRMC,224723,A,3946.9722,N,08404.9846,W,0.0000,0.000,011217,,*34
2017-12-01 17:47:22 1512168442.417124: $GPGSA,A,3,1,3,10,14,22,25,26,29,31,32,16,138,2.0,0.8,1.5*0C
2017-12-01 17:47:23 1512168443.417683: $GPZDA,224724.00,01,12,2017,00,00*65
2017-12-01 17:47:23 1512168443.417871: $GPGGA,224724,3946.9722,N,08404.9846,W,2,12,0.80,295.68,M,-33.325,M,,*79
2017-12-01 17:47:23 1512168443.417960: $GPRMC,224724,A,3946.9722,N,08404.9846,W,0.0000,0.000,011217,,*33
2017-12-01 17:47:23 1512168443.418024: $GPGSA,A,3,1,3,10,14,22,25,26,29,31,32,16,138,2.0,0.8,1.5*0C
2017-12-01 17:47:24 1512168444.749370: $GPGSV,3,1,12,01,14,265,43,03,29,312,46,10,13,157,42,14,66,063,40*72
2017-12-01 17:47:24 1512168444.749553: $GPGSV,3,2,12,22,45,294,48,25,30,049,41,26,36,177,44,29,04,087,38*7E
2017-12-01 17:47:24 1512168444.749619: $GPGSV,3,3,12,31,79,339,47,32,48,091,45,16,07,190,19,138,38,213,46*4B
2017-12-01 17:47:24 1512168444.863126: $GPZDA,224725.00,01,12,2017,00,00*64
2017-12-01 17:47:24 1512168444.863272: $GPGGA,224725,3946.9722,N,08404.9846,W,2,12,0.80,295.68,M,-33.325,M,,*78
2017-12-01 17:47:24 1512168444.863358: $GPRMC,224725,A,3946.9722,N,08404.9846,W,0.0000,0.000,011217,,*32
2017-12-01 17:47:24 1512168444.863421: $GPGSA,A,3,1,3,10,14,22,25,26,29,31,32,16,138,2.0,0.8,1.5*0C
2017-12-01 17:47:25 1512168445.488263: $GPZDA,224726.00,01,12,2017,00,00*67
2017-12-01 17:47:25 1512168445.488537: $GPGGA,224726,3946.9722,N,08404.9846,W,2,12,0.80,295.68,M,-33.325,M,,*7B
2017-12-01 17:47:25 1512168445.488614: $GPRMC,224726,A,3946.9722,N,08404.9846,W,0.0000,0.000,011217,,*31
2017-12-01 17:47:25 1512168445.488676: $GPGSA,A,3,1,3,10,14,22,25,26,29,31,32,16,138,2.0,0.8,1.5*0C
