2017-12-01 12:28:42 1512149322.407520: {"class":"VERSION","release":"3.16","rev":"3.16-4","proto_major":3,"proto_minor":11}
2017-12-01 12:28:42 1512149322.408400: {"class":"DEVICES","devices":[{"class":"DEVICE","path":"/dev/ttyUSB0","driver":"SiRF","subtype":"9\u0006GSD4e_4.1.2-P1_RPATCH.05-F-GPS-4R-1510281 11/03/2015 307","activated":"2017-12-01T17:28:42.368Z","flags":1,"native":1,"bps":4800,"parity":"N","stopbits":1,"cycle":1.00}]}
2017-12-01 12:28:42 1512149322.408526: {"class":"WATCH","enable":true,"json":false,"nmea":true,"raw":0,"scaled":false,"timing":false,"split24":false,"pps":false}
2017-12-01 12:28:43 1512149323.142029: $GPZDA,172843.44,01,12,2017,00,00*6B
2017-12-01 12:28:43 1512149323.142199: $GPGGA,172843,3946.9591,N,08404.9862,W,1,12,1.20,292.10,M,-33.324,M,,*7A
2017-12-01 12:28:43 1512149323.142266: $GPRMC,172843,A,3946.9591,N,08404.9862,W,0.2422,93.794,011217,,*07
2017-12-01 12:28:43 1512149323.142327: $GPGSA,A,3,10,13,15,18,20,21,24,27,29,5,32,138,2.0,1.2,1.5*3E
2017-12-01 12:28:43 1512149323.142386: $GPGBS,172843,10.70,M,15.43,M,35.28,M*0C
2017-12-01 12:28:44 1512149324.286313: $GPGSV,3,1,11,10,27,286,37,13,24,045,45,15,56,049,46,18,58,306,46*78
2017-12-01 12:28:44 1512149324.286488: $GPGSV,3,2,11,20,48,078,45,21,79,238,41,24,38,133,48,27,18,309,29*74
2017-12-01 12:28:44 1512149324.286557: $GPGSV,3,3,11,29,05,187,05,32,05,228,00,138,38,213,00*71
2017-12-01 12:28:44 1512149324.397828: $GPZDA,172844.00,01,12,2017,00,00*6C
2017-12-01 12:28:44 1512149324.398003: $GPGGA,172844,3946.9587,N,08404.9863,W,1,08,1.20,292.86,M,-33.324,M,,*7F
2017-12-01 12:28:44 1512149324.398070: $GPRMC,172844,A,3946.9587,N,08404.9863,W,0.2959,54.767,011217,,*00
2017-12-01 12:28:44 1512149324.398130: $GPGSA,A,3,10,13,15,18,20,21,24,27,,,,,2.0,1.2,1.5*3B
2017-12-01 12:28:44 1512149324.847679: $GPRMC,172845,V,3946.9584,N,08404.9863,W,0.0000,0.000,011217,,*25
2017-12-01 12:28:44 1512149324.847855: $GPGSA,A,1,10,13,15,18,20,21,24,27,,,,,,,,*3E
2017-12-01 12:28:45 1512149325.352272: $GPRMC,172846,V,3946.9585,N,08404.9864,W,0.0000,0.000,011217,,*20
2017-12-01 12:28:45 1512149325.352447: $GPGSA,A,1,10,13,15,18,20,21,24,27,,,,,,,,*3E
2017-12-01 12:28:46 1512149326.688598: $GPGSV,3,1,11,10,27,286,40,13,24,045,45,15,56,049,47,18,58,306,46*79
2017-12-01 12:28:46 1512149326.688784: $GPGSV,3,2,11,20,48,078,45,21,79,238,41,24,38,133,48,27,18,309,30*7C
2017-12-01 12:28:46 1512149326.688850: $GPGSV,3,3,11,29,05,187,26,32,05,228,00,138,38,213,48*7C
2017-12-01 12:28:46 1512149326.800898: $GPRMC,172847,V,3946.9585,N,08404.9864,W,0.0000,0.000,011217,,*21
2017-12-01 12:28:46 1512149326.801010: $GPGSA,A,1,10,13,15,18,20,21,24,27,29,138,,,,,,*0F
2017-12-01 12:28:47 1512149327.355552: $GPRMC,172848,V,3946.9581,N,08404.9865,W,0.0000,0.000,011217,,*2B
2017-12-01 12:28:47 1512149327.361661: $GPGSA,A,1,10,13,15,18,20,21,24,27,29,138,,,,,,*0F
2017-12-01 12:28:48 1512149328.354884: $GPZDA,172849.00,01,12,2017,00,00*61
2017-12-01 12:28:48 1512149328.355074: $GPGGA,172849,3946.9578,N,08404.9866,W,1,10,0.80,296.56,M,-33.324,M,,*7C
2017-12-01 12:28:48 1512149328.355146: $GPRMC,172849,A,3946.9578,N,08404.9866,W,0.0000,0.000,011217,,*38
2017-12-01 12:28:48 1512149328.355210: $GPGSA,A,3,10,13,15,18,20,21,24,27,29,138,,,2.0,0.8,1.5*01
2017-12-01 12:28:48 1512149328.355272: $GPGBS,172849,10.70,M,15.43,M,35.28,M*06
2017-12-01 12:28:49 1512149329.690597: $GPGSV,3,1,11,10,27,286,41,13,24,045,44,15,56,049,47,18,58,306,46*79
2017-12-01 12:28:49 1512149329.690758: $GPGSV,3,2,11,20,48,078,45,21,79,238,42,24,38,133,48,27,18,309,30*7F
2017-12-01 12:28:49 1512149329.690827: $GPGSV,3,3,11,29,05,187,26,32,05,228,22,138,38,213,47*73
2017-12-01 12:28:49 1512149329.804246: $GPZDA,172850.00,01,12,2017,00,00*69
2017-12-01 12:28:49 1512149329.804421: $GPGGA,172850,3946.9582,N,08404.9859,W,1,11,0.80,297.28,M,-33.324,M,,*74
2017-12-01 12:28:49 1512149329.804491: $GPRMC,172850,A,3946.9582,N,08404.9859,W,0.0000,0.000,011217,,*39
2017-12-01 12:28:49 1512149329.804556: $GPGSA,A,3,10,13,15,18,20,21,24,27,29,32,138,,2.0,0.8,1.5*00
2017-12-01 12:28:50 1512149330.353702: $GPZDA,172851.00,01,12,2017,00,00*68
2017-12-01 12:28:50 1512149330.353956: $GPGGA,172851,3946.9578,N,08404.9859,W,1,11,0.80,298.04,M,-33.324,M,,*71
2017-12-01 12:28:50 1512149330.354029: $GPRMC,172851,A,3946.9578,N,08404.9859,W,0.0000,0.000,011217,,*3D
2017-12-01 12:28:50 1512149330.354090: $GPGSA,A,3,10,13,15,18,20,21,24,27,29,32,138,,2.0,0.8,1.5*00
2017-12-01 12:28:51 1512149331.355405: $GPZDA,172852.00,01,12,2017,00,00*6B
2017-12-01 12:28:51 1512149331.355581: $GPGGA,172852,3946.9578,N,08404.9859,W,1,11,0.80,298.04,M,-33.324,M,,*72
2017-12-01 12:28:51 1512149331.355648: $GPRMC,172852,A,3946.9578,N,08404.9859,W,0.0000,0.000,011217,,*3E
2017-12-01 12:28:51 1512149331.355710: $GPGSA,A,3,10,13,15,18,20,21,24,27,29,32,138,,2.0,0.8,1.5*00
