2017-12-01 16:47:05 1512164825.117199: {"class":"VERSION","release":"3.16","rev":"3.16-4","proto_major":3,"proto_minor":11}
2017-12-01 16:47:05 1512164825.117590: {"class":"DEVICES","devices":[{"class":"DEVICE","path":"/dev/ttyUSB0","driver":"SiRF","subtype":"9\u0006GSD4e_4.1.2-P1_RPATCH.05-F-GPS-4R-1510281 11/03/2015 307","activated":"2017-12-01T21:47:04.581Z","flags":1,"native":1,"bps":4800,"parity":"N","stopbits":1,"cycle":1.00}]}
2017-12-01 16:47:05 1512164825.117703: {"class":"WATCH","enable":true,"json":false,"nmea":true,"raw":0,"scaled":false,"timing":false,"split24":false,"pps":false}
2017-12-01 16:47:05 1512164825.442243: $GPZDA,214706.00,01,12,2017,00,00*66
2017-12-01 16:47:05 1512164825.442441: $GPGGA,214706,3946.9656,N,08404.9747,W,2,12,1.00,297.86,M,-33.324,M,,*7C
2017-12-01 16:47:05 1512164825.442508: $GPRMC,214706,A,3946.9656,N,08404.9747,W,0.0000,0.000,011217,,*3C
2017-12-01 16:47:05 1512164825.442569: $GPGSA,A,3,1,10,14,22,31,32,11,12,18,25,26,138,2.0,1.0,1.5*30
2017-12-01 16:47:06 1512164826.779621: $GPGSV,3,1,12,01,22,292,40,10,40,151,42,14,69,345,44,22,25,310,44*7F
2017-12-01 16:47:06 1512164826.779806: $GPGSV,3,2,12,31,64,232,49,32,65,046,48,11,06,276,35,12,19,043,04*72
2017-12-01 16:47:06 1512164826.779873: $GPGSV,3,3,12,18,11,145,21,25,41,081,26,26,09,181,30,138,38,213,35*4E
2017-12-01 16:47:06 1512164826.893399: $GPZDA,214707.00,01,12,2017,00,00*67
2017-12-01 16:47:06 1512164826.893570: $GPGGA,214707,3946.9656,N,08404.9747,W,2,11,1.00,297.86,M,-33.324,M,,*7E
2017-12-01 16:47:06 1512164826.893641: $GPRMC,214707,A,3946.9656,N,08404.9747,W,0.0000,0.000,011217,,*3D
2017-12-01 16:47:06 1512164826.893703: $GPGSA,A,3,1,10,14,22,31,32,11,18,25,26,138,,2.0,1.0,1.5*33
2017-12-01 16:47:07 1512164827.441474: $GPZDA,214708.00,01,12,2017,00,00*68
2017-12-01 16:47:07 1512164827.441653: $GPGGA,214708,3946.9656,N,08404.9747,W,2,11,1.00,297.86,M,-33.324,M,,*71
2017-12-01 16:47:07 1512164827.441721: $GPRMC,214708,A,3946.9656,N,08404.9747,W,0.0000,0.000,011217,,*32
2017-12-01 16:47:07 1512164827.441782: $GPGSA,A,3,1,10,14,22,31,32,11,18,25,26,138,,2.0,1.0,1.5*33
2017-12-01 16:47:08 1512164828.440984: $GPZDA,214709.00,01,12,2017,00,00*69
2017-12-01 16:47:08 1512164828.441163: $GPGGA,214709,3946.9656,N,08404.9747,W,2,11,1.00,297.86,M,-33.324,M,,*70
2017-12-01 16:47:08 1512164828.441232: $GPRMC,214709,A,3946.9656,N,08404.9747,W,0.0000,0.000,011217,,*33
2017-12-01 16:47:08 1512164828.441294: $GPGSA,A,3,1,10,14,22,31,32,11,18,25,26,138,,2.0,1.0,1.5*33
2017-12-01 16:47:09 1512164829.794221: $GPGSV,3,1,12,01,22,292,40,10,40,151,42,14,69,345,44,22,25,310,43*78
2017-12-01 16:47:09 1512164829.794395: $GPGSV,3,2,12,31,64,232,50,32,65,046,48,11,06,276,35,12,19,043,06*78
2017-12-01 16:47:09 1512164829.794462: $GPGSV,3,3,12,18,11,145,22,25,41,081,26,26,09,181,30,138,38,213,38*40
2017-12-01 16:47:09 1512164829.907592: $GPZDA,214710.00,01,12,2017,00,00*61
2017-12-01 16:47:09 1512164829.907768: $GPGGA,214710,3946.9660,N,08404.9747,W,2,12,1.00,298.50,M,-33.324,M,,*7A
2017-12-01 16:47:09 1512164829.907836: $GPRMC,214710,A,3946.9660,N,08404.9747,W,0.0000,0.000,011217,,*3E
2017-12-01 16:47:09 1512164829.907898: $GPGSA,A,3,1,10,14,22,31,32,11,12,18,25,26,138,2.0,1.0,1.5*30
2017-12-01 16:47:10 1512164830.442338: $GPZDA,214711.00,01,12,2017,00,00*60
2017-12-01 16:47:10 1512164830.442511: $GPGGA,214711,3946.9660,N,08404.9747,W,2,12,0.80,298.50,M,-33.324,M,,*72
2017-12-01 16:47:10 1512164830.442578: $GPRMC,214711,A,3946.9660,N,08404.9747,W,0.0000,0.000,011217,,*3F
2017-12-01 16:47:10 1512164830.442639: $GPGSA,A,3,1,10,14,22,31,32,11,12,18,25,26,138,2.0,0.8,1.5*39
2017-12-01 16:47:11 1512164831.457606: $GPZDA,214712.00,01,12,2017,00,00*63
2017-12-01 16:47:11 1512164831.457779: $GPGGA,214712,3946.9660,N,08404.9747,W,2,12,0.80,298.50,M,-33.324,M,,*71
2017-12-01 16:47:11 1512164831.457847: $GPRMC,214712,A,3946.9660,N,08404.9747,W,0.0000,0.000,011217,,*3C
2017-12-01 16:47:11 1512164831.457908: $GPGSA,A,3,1,10,14,22,31,32,11,12,18,25,26,138,2.0,0.8,1.5*39
2017-12-01 16:47:12 1512164832.794620: $GPGSV,3,1,12,01,22,292,41,10,40,151,42,14,69,345,44,22,25,310,43*79
2017-12-01 16:47:12 1512164832.794850: $GPGSV,3,2,12,31,64,232,50,32,65,046,48,11,06,276,30,12,19,043,11*7B
2017-12-01 16:47:12 1512164832.794920: $GPGSV,3,3,12,18,11,145,22,25,41,081,27,26,09,181,30,138,38,213,40*4E
2017-12-01 16:47:12 1512164832.908233: $GPZDA,214713.00,01,12,2017,00,00*62
2017-12-01 16:47:12 1512164832.908375: $GPGGA,214713,3946.9657,N,08404.9748,W,2,12,0.80,299.27,M,-33.324,M,,*7A
2017-12-01 16:47:12 1512164832.908442: $GPRMC,214713,A,3946.9657,N,08404.9748,W,0.0000,0.000,011217,,*36
2017-12-01 16:47:12 1512164832.908503: $GPGSA,A,3,1,10,14,22,31,32,11,12,18,25,26,138,2.0,0.8,1.5*39
2017-12-01 16:47:13 1512164833.452660: $GPZDA,214714.00,01,12,2017,00,00*65
2017-12-01 16:47:13 1512164833.452831: $GPGGA,214714,3946.9657,N,08404.9748,W,2,12,0.80,299.27,M,-33.324,M,,*7D
2017-12-01 16:47:13 1512164833.452900: $GPRMC,214714,A,3946.9657,N,08404.9748,W,0.0000,0.000,011217,,*31
2017-12-01 16:47:13 1512164833.452961: $GPGSA,A,3,1,10,14,22,31,32,11,12,18,25,26,138,2.0,0.8,1.5*39
2017-12-01 16:47:14 1512164834.452269: $GPZDA,214715.00,01,12,2017,00,00*64
2017-12-01 16:47:14 1512164834.452440: $GPGGA,214715,3946.9657,N,08404.9748,W,2,12,0.80,299.27,M,-33.324,M,,*7C
2017-12-01 16:47:14 1512164834.452505: $GPRMC,214715,A,3946.9657,N,08404.9748,W,0.0000,0.000,011217,,*30
2017-12-01 16:47:14 1512164834.452567: $GPGSA,A,3,1,10,14,22,31,32,11,12,18,25,26,138,2.0,0.8,1.5*39
2017-12-01 16:47:15 1512164835.776689: $GPGSV,3,1,12,01,22,292,41,10,40,151,42,14,69,345,44,22,25,310,43*79
2017-12-01 16:47:15 1512164835.776873: $GPGSV,3,2,12,31,64,232,50,32,65,046,48,11,06,276,30,12,19,043,19*73
2017-12-01 16:47:15 1512164835.776940: $GPGSV,3,3,12,18,11,145,22,25,41,081,27,26,09,181,30,138,38,213,40*4E
2017-12-01 16:47:15 1512164835.890104: $GPZDA,214716.00,01,12,2017,00,00*67
2017-12-01 16:47:15 1512164835.890274: $GPGGA,214716,3946.9657,N,08404.9748,W,2,12,0.80,299.27,M,-33.324,M,,*7F
2017-12-01 16:47:15 1512164835.890341: $GPRMC,214716,A,3946.9657,N,08404.9748,W,0.0000,0.000,011217,,*33
2017-12-01 16:47:15 1512164835.890402: $GPGSA,A,3,1,10,14,22,31,32,11,12,18,25,26,138,2.0,0.8,1.5*39
2017-12-01 16:47:16 1512164836.515430: $GPZDA,214717.00,01,12,2017,00,00*66
2017-12-01 16:47:16 1512164836.515619: $GPGGA,214717,3946.9661,N,08404.9748,W,2,12,0.80,299.91,M,-33.324,M,,*76
2017-12-01 16:47:16 1512164836.515710: $GPRMC,214717,A,3946.9661,N,08404.9748,W,0.0000,0.000,011217,,*37
2017-12-01 16:47:16 1512164836.515773: $GPGSA,A,3,1,10,14,22,31,32,11,12,18,25,26,138,2.0,0.8,1.5*39
2017-12-01 16:47:17 1512164837.443858: $GPZDA,214718.00,01,12,2017,00,00*69
2017-12-01 16:47:17 1512164837.444027: $GPGGA,214718,3946.9661,N,08404.9748,W,2,12,0.80,299.91,M,-33.324,M,,*79
2017-12-01 16:47:17 1512164837.444093: $GPRMC,214718,A,3946.9661,N,08404.9748,W,0.0000,0.000,011217,,*38
2017-12-01 16:47:17 1512164837.444154: $GPGSA,A,3,1,10,14,22,31,32,11,12,18,25,26,138,2.0,0.8,1.5*39
2017-12-01 16:47:19 1512164839.305922: $GPGSV,3,1,12,01,22,292,41,10,40,151,41,14,69,346,44,22,25,310,43*79
2017-12-01 16:47:19 1512164839.306105: $GPGSV,3,2,12,31,64,234,49,32,65,048,48,11,06,276,31,12,18,043,22*7B
2017-12-01 16:47:19 1512164839.306172: $GPGSV,3,3,12,18,11,145,23,25,41,079,27,26,09,181,31,138,38,213,38*46
2017-12-01 16:47:19 1512164839.419339: $GPZDA,214719.00,01,12,2017,00,00*68
2017-12-01 16:47:19 1512164839.419508: $GPGGA,214719,3946.9653,N,08404.9748,W,2,12,0.80,298.63,M,-33.324,M,,*75
2017-12-01 16:47:19 1512164839.419574: $GPRMC,214719,A,3946.9653,N,08404.9748,W,0.3423,184.197,011217,,*3C
2017-12-01 16:47:19 1512164839.419636: $GPGSA,A,3,1,10,14,22,31,32,11,12,18,25,26,138,2.0,0.8,1.5*39
2017-12-01 16:47:19 1512164839.870156: $GPZDA,214720.00,01,12,2017,00,00*62
2017-12-01 16:47:19 1512164839.870325: $GPGGA,214720,3946.9653,N,08404.9748,W,2,12,0.80,298.63,M,-33.324,M,,*7F
2017-12-01 16:47:19 1512164839.870391: $GPRMC,214720,A,3946.9653,N,08404.9748,W,0.0000,0.000,011217,,*32
2017-12-01 16:47:19 1512164839.870452: $GPGSA,A,3,1,10,14,22,31,32,11,12,18,25,26,138,2.0,0.8,1.5*39
2017-12-01 16:47:20 1512164840.457604: $GPZDA,214721.00,01,12,2017,00,00*63
2017-12-01 16:47:20 1512164840.457772: $GPGGA,214721,3946.9657,N,08404.9748,W,2,12,0.80,299.27,M,-33.324,M,,*7B
2017-12-01 16:47:20 1512164840.457839: $GPRMC,214721,A,3946.9657,N,08404.9748,W,0.0000,0.000,011217,,*37
2017-12-01 16:47:20 1512164840.457901: $GPGSA,A,3,1,10,14,22,31,32,11,12,18,25,26,138,2.0,0.8,1.5*39
2017-12-01 16:47:21 1512164841.795048: $GPGSV,3,1,12,01,22,292,41,10,40,151,41,14,69,346,44,22,25,310,44*7E
2017-12-01 16:47:21 1512164841.795220: $GPGSV,3,2,12,31,64,234,50,32,65,048,48,03,06,316,27,12,18,043,23*71
2017-12-01 16:47:21 1512164841.795287: $GPGSV,3,3,12,18,11,145,23,25,41,079,28,26,09,181,31,138,38,213,40*46
2017-12-01 16:47:21 1512164841.908639: $GPZDA,214722.00,01,12,2017,00,00*60
2017-12-01 16:47:21 1512164841.908782: $GPGGA,214722,3946.9657,N,08404.9748,W,2,12,0.80,299.27,M,-33.324,M,,*78
2017-12-01 16:47:21 1512164841.908849: $GPRMC,214722,A,3946.9657,N,08404.9748,W,0.0000,0.000,011217,,*34
2017-12-01 16:47:21 1512164841.908910: $GPGSA,A,3,1,10,14,22,31,32,3,12,18,25,26,138,2.0,0.8,1.5*0A
2017-12-01 16:47:22 1512164842.443504: $GPZDA,214723.00,01,12,2017,00,00*61
2017-12-01 16:47:22 1512164842.443689: $GPGGA,214723,3946.9657,N,08404.9748,W,2,12,0.80,299.27,M,-33.324,M,,*79
2017-12-01 16:47:22 1512164842.443757: $GPRMC,214723,A,3946.9657,N,08404.9748,W,0.0000,0.000,011217,,*35
2017-12-01 16:47:22 1512164842.443818: $GPGSA,A,3,1,10,14,22,31,32,3,12,18,25,26,138,2.0,0.8,1.5*0A
2017-12-01 16:47:23 1512164843.457964: $GPZDA,214724.00,01,12,2017,00,00*66
2017-12-01 16:47:23 1512164843.458129: $GPGGA,214724,3946.9657,N,08404.9748,W,2,12,0.80,299.27,M,-33.324,M,,*7E
2017-12-01 16:47:23 1512164843.458196: $GPRMC,214724,A,3946.9657,N,08404.9748,W,0.0000,0.000,011217,,*32
2017-12-01 16:47:23 1512164843.458257: $GPGSA,A,3,1,10,14,22,31,32,3,12,18,25,26,138,2.0,0.8,1.5*0A
2017-12-01 16:47:24 1512164844.795919: $GPGSV,3,1,12,01,22,292,41,10,40,151,41,14,69,346,44,22,25,310,44*7E
2017-12-01 16:47:24 1512164844.796100: $GPGSV,3,2,12,31,64,234,49,32,65,048,48,03,06,316,28,12,18,043,12*74
2017-12-01 16:47:24 1512164844.796168: $GPGSV,3,3,12,18,11,145,24,25,41,079,28,26,09,181,30,138,38,213,41*41
2017-12-01 16:47:24 1512164844.908294: $GPZDA,214725.00,01,12,2017,00,00*67
2017-12-01 16:47:24 1512164844.908467: $GPGGA,214725,3946.9657,N,08404.9748,W,2,12,0.80,299.27,M,-33.324,M,,*7F
2017-12-01 16:47:24 1512164844.908535: $GPRMC,214725,A,3946.9657,N,08404.9748,W,0.0000,0.000,011217,,*33
2017-12-01 16:47:24 1512164844.908595: $GPGSA,A,3,1,10,14,22,31,32,3,12,18,25,26,138,2.0,0.8,1.5*0A
