2017-11-16 13:50:52 1510858252.245970: {"class":"VERSION","release":"3.17","rev":"3.17","proto_major":3,"proto_minor":12}
2017-11-16 13:50:52 1510858252.246503: {"class":"DEVICES","devices":[{"class":"DEVICE","path":"/dev/ttyUSB0","driver":"SiRF","subtype":"9\u0006GSD4e_4.1.2-P1_RPATCH.05-F-GPS-4R-1510281 11/03/2015 307","activated":"2017-11-16T18:50:52.229Z","flags":1,"native":1,"bps":4800,"parity":"N","stopbits":1,"cycle":1.00}]}
2017-11-16 13:50:52 1510858252.246641: {"class":"WATCH","enable":true,"json":false,"nmea":true,"raw":0,"scaled":false,"timing":false,"split24":false,"pps":false}
2017-11-16 13:50:52 1510858252.679209: $GPGSV,3,1,11,10,33,292,42,13,17,046,44,15,48,049,51,18,63,316,48*76
2017-11-16 13:50:52 1510858252.679396: $GPGSV,3,2,11,20,41,085,49,21,74,208,47,24,44,126,47,27,19,300,31*7A
2017-11-16 13:50:52 1510858252.679460: $GPGSV,3,3,11,32,11,231,31,08,02,330,20,138,38,213,44*73
2017-11-16 13:50:52 1510858252.791328: $GPZDA,185051.00,16,11,2017,00,00*6D
2017-11-16 13:50:52 1510858252.791464: $GPGGA,185051,3946.9612,N,08404.9827,W,2,11,0.80,307.77,M,-33.324,M,,*77
2017-11-16 13:50:52 1510858252.791547: $GPRMC,185051,A,3946.9612,N,08404.9827,W,0.0000,0.000,161117,,*3E
2017-11-16 13:50:52 1510858252.791607: $GPGSA,A,3,10,13,15,18,20,21,24,27,32,8,138,,1.6,0.8,1.3*30
2017-11-16 13:50:53 1510858253.367244: $GPZDA,185052.00,16,11,2017,00,00*6E
2017-11-16 13:50:53 1510858253.367402: $GPGGA,185052,3946.9612,N,08404.9827,W,2,11,0.80,307.77,M,-33.324,M,,*74
2017-11-16 13:50:53 1510858253.367466: $GPRMC,185052,A,3946.9612,N,08404.9827,W,0.0000,0.000,161117,,*3D
2017-11-16 13:50:53 1510858253.367525: $GPGSA,A,3,10,13,15,18,20,21,24,27,32,8,138,,1.6,0.8,1.3*30
2017-11-16 13:50:54 1510858254.361995: $GPZDA,185053.00,16,11,2017,00,00*6F
2017-11-16 13:50:54 1510858254.362158: $GPGGA,185053,3946.9612,N,08404.9827,W,2,11,0.80,307.77,M,-33.324,M,,*75
2017-11-16 13:50:54 1510858254.362222: $GPRMC,185053,A,3946.9612,N,08404.9827,W,0.0000,0.000,161117,,*3C
2017-11-16 13:50:54 1510858254.362280: $GPGSA,A,3,10,13,15,18,20,21,24,27,32,8,138,,1.6,0.8,1.3*30
2017-11-16 13:50:55 1510858255.680395: $GPGSV,3,1,11,10,33,292,42,13,17,046,44,15,48,049,51,18,63,316,48*76
2017-11-16 13:50:55 1510858255.680571: $GPGSV,3,2,11,20,41,085,49,21,74,208,47,24,44,126,47,27,19,300,27*7D
2017-11-16 13:50:55 1510858255.680635: $GPGSV,3,3,11,32,11,231,30,08,02,330,20,138,38,213,44*72
2017-11-16 13:50:55 1510858255.792495: $GPZDA,185054.00,16,11,2017,00,00*68
2017-11-16 13:50:55 1510858255.792649: $GPGGA,185054,3946.9612,N,08404.9827,W,2,11,0.80,307.77,M,-33.324,M,,*72
2017-11-16 13:50:55 1510858255.792711: $GPRMC,185054,A,3946.9612,N,08404.9827,W,0.0000,0.000,161117,,*3B
2017-11-16 13:50:55 1510858255.792769: $GPGSA,A,3,10,13,15,18,20,21,24,27,32,8,138,,1.6,0.8,1.3*30
2017-11-16 13:50:56 1510858256.368421: $GPZDA,185055.00,16,11,2017,00,00*69
2017-11-16 13:50:56 1510858256.368597: $GPGGA,185055,3946.9612,N,08404.9827,W,2,11,0.80,307.77,M,-33.324,M,,*73
2017-11-16 13:50:56 1510858256.368681: $GPRMC,185055,A,3946.9612,N,08404.9827,W,0.0000,0.000,161117,,*3A
2017-11-16 13:50:56 1510858256.368741: $GPGSA,A,3,10,13,15,18,20,21,24,27,32,8,138,,1.6,0.8,1.3*30
2017-11-16 13:50:57 1510858257.367647: $GPZDA,185056.00,16,11,2017,00,00*6A
2017-11-16 13:50:57 1510858257.367812: $GPGGA,185056,3946.9612,N,08404.9827,W,2,11,0.80,307.77,M,-33.324,M,,*70
2017-11-16 13:50:57 1510858257.367875: $GPRMC,185056,A,3946.9612,N,08404.9827,W,0.0000,0.000,161117,,*39
2017-11-16 13:50:57 1510858257.367934: $GPGSA,A,3,10,13,15,18,20,21,24,27,32,8,138,,1.6,0.8,1.3*30
2017-11-16 13:50:58 1510858258.678558: $GPGSV,3,1,11,10,33,292,43,13,17,046,44,15,48,049,51,18,63,316,48*77
2017-11-16 13:50:58 1510858258.678731: $GPGSV,3,2,11,20,41,085,49,21,74,208,47,24,44,126,47,27,19,300,28*72
2017-11-16 13:50:58 1510858258.678794: $GPGSV,3,3,11,32,11,231,30,08,02,330,08,138,38,213,43*7F
2017-11-16 13:50:58 1510858258.791919: $GPZDA,185057.00,16,11,2017,00,00*6B
2017-11-16 13:50:58 1510858258.792078: $GPGGA,185057,3946.9612,N,08404.9827,W,2,11,0.80,307.77,M,-33.324,M,,*71
2017-11-16 13:50:58 1510858258.792212: $GPRMC,185057,A,3946.9612,N,08404.9827,W,0.0000,0.000,161117,,*38
2017-11-16 13:50:58 1510858258.792287: $GPGSA,A,3,10,13,15,18,20,21,24,27,32,8,138,,1.6,0.8,1.3*30
2017-11-16 13:50:59 1510858259.369265: $GPZDA,185058.00,16,11,2017,00,00*64
2017-11-16 13:50:59 1510858259.369470: $GPGGA,185058,3946.9612,N,08404.9827,W,2,11,0.80,307.77,M,-33.324,M,,*7E
2017-11-16 13:50:59 1510858259.369532: $GPRMC,185058,A,3946.9612,N,08404.9827,W,0.0000,0.000,161117,,*37
2017-11-16 13:50:59 1510858259.369589: $GPGSA,A,3,10,13,15,18,20,21,24,27,32,8,138,,1.6,0.8,1.3*30
2017-11-16 13:51:00 1510858260.343818: $GPZDA,185059.00,16,11,2017,00,00*65
2017-11-16 13:51:00 1510858260.343980: $GPGGA,185059,3946.9612,N,08404.9827,W,2,11,0.80,307.77,M,-33.324,M,,*7F
2017-11-16 13:51:00 1510858260.344041: $GPRMC,185059,A,3946.9612,N,08404.9827,W,0.0000,0.000,161117,,*36
2017-11-16 13:51:00 1510858260.344096: $GPGSA,A,3,10,13,15,18,20,21,24,27,32,8,138,,1.6,0.8,1.3*30
2017-11-16 13:51:01 1510858261.699828: $GPGSV,3,1,11,10,33,292,42,13,17,046,44,15,48,049,51,18,63,316,48*76
2017-11-16 13:51:01 1510858261.699990: $GPGSV,3,2,11,20,41,085,49,21,74,208,47,24,44,126,47,27,19,300,28*72
2017-11-16 13:51:01 1510858261.700052: $GPGSV,3,3,11,32,11,231,30,08,02,330,22,138,38,213,43*77
2017-11-16 13:51:01 1510858261.813108: $GPZDA,185100.00,16,11,2017,00,00*68
2017-11-16 13:51:01 1510858261.813268: $GPGGA,185100,3946.9612,N,08404.9827,W,2,11,0.80,307.77,M,-33.324,M,,*72
2017-11-16 13:51:01 1510858261.813329: $GPRMC,185100,A,3946.9612,N,08404.9827,W,0.0000,0.000,161117,,*3B
2017-11-16 13:51:01 1510858261.813403: $GPGSA,A,3,10,13,15,18,20,21,24,27,32,8,138,,1.6,0.8,1.3*30
