2018-01-12 04:05:19 1515747919.593387: {"class":"VERSION","release":"3.16","rev":"3.16-4","proto_major":3,"proto_minor":11}
2018-01-12 04:05:19 1515747919.593723: {"class":"DEVICES","devices":[{"class":"DEVICE","path":"/dev/ttyUSB0","driver":"SiRF","subtype":"9\u0006GSD4e_4.1.2-P1_RPATCH.05-F-GPS-4R-1510281 11/03/2015 307","activated":"2018-01-12T09:05:19.515Z","flags":1,"native":1,"bps":4800,"parity":"N","stopbits":1,"cycle":1.00}]}
2018-01-12 04:05:19 1515747919.593837: {"class":"WATCH","enable":true,"json":false,"nmea":true,"raw":0,"scaled":false,"timing":false,"split24":false,"pps":false}
2018-01-12 04:05:20 1515747920.711932: $GPGSV,3,1,12,02,70,322,44,05,42,196,48,06,53,046,43,12,54,265,47*7A
2018-01-12 04:05:20 1515747920.712115: $GPGSV,3,2,12,25,28,309,45,29,05,304,46,09,18,075,24,17,20,115,22*73
2018-01-12 04:05:20 1515747920.712181: $GPGSV,3,3,12,19,38,109,23,23,08,043,00,04,49,276,00,138,38,213,48*49
2018-01-12 04:05:20 1515747920.825316: $GPZDA,090521.00,12,01,2018,00,00*60
2018-01-12 04:05:20 1515747920.825465: $GPGGA,090521,3946.9640,N,08404.9694,W,2,10,1.00,301.55,M,-33.324,M,,*7F
2018-01-12 04:05:20 1515747920.825531: $GPRMC,090521,A,3946.9640,N,08404.9694,W,0.0000,0.000,120118,,*32
2018-01-12 04:05:20 1515747920.825592: $GPGSA,A,3,2,5,6,12,25,29,9,17,19,138,,,2.4,1.0,2.1*05
2018-01-12 04:05:21 1515747921.450716: $GPZDA,090522.00,12,01,2018,00,00*63
2018-01-12 04:05:21 1515747921.450887: $GPGGA,090522,3946.9640,N,08404.9694,W,2,10,1.00,301.55,M,-33.324,M,,*7C
2018-01-12 04:05:21 1515747921.450954: $GPRMC,090522,A,3946.9640,N,08404.9694,W,0.0000,0.000,120118,,*31
2018-01-12 04:05:21 1515747921.451014: $GPGSA,A,3,2,5,6,12,25,29,9,17,19,138,,,2.4,1.0,2.1*05
2018-01-12 04:05:22 1515747922.378128: $GPZDA,090523.00,12,01,2018,00,00*62
2018-01-12 04:05:22 1515747922.378299: $GPGGA,090523,3946.9640,N,08404.9694,W,2,10,1.00,301.55,M,-33.324,M,,*7D
2018-01-12 04:05:22 1515747922.378365: $GPRMC,090523,A,3946.9640,N,08404.9694,W,0.0000,0.000,120118,,*30
2018-01-12 04:05:22 1515747922.378426: $GPGSA,A,3,2,5,6,12,25,29,9,17,19,138,,,2.4,1.0,2.1*05
2018-01-12 04:05:23 1515747923.712260: $GPGSV,3,1,12,02,70,322,44,05,42,196,49,06,53,046,43,12,54,265,47*7B
2018-01-12 04:05:24 1515747924.409321: $GPGSV,3,2,12,25,28,309,45,29,05,304,46,09,18,075,24,17,20,115,22*73
2018-01-12 04:05:24 1515747924.409476: $GPGSV,3,3,12,19,38,109,04,23,08,043,00,04,49,276,00,138,38,213,47*43
2018-01-12 04:05:24 1515747924.409576: $GPZDA,090524.00,12,01,2018,00,00*65
2018-01-12 04:05:24 1515747924.409634: $GPGGA,090524,3946.9643,N,08404.9693,W,2,09,1.00,300.79,M,-33.324,M,,*79
2018-01-12 04:05:24 1515747924.409695: $GPRMC,090524,A,3946.9643,N,08404.9693,W,0.0000,0.000,120118,,*33
2018-01-12 04:05:24 1515747924.409754: $GPGSA,A,3,2,5,6,12,25,29,9,17,138,,,,2.4,1.0,2.1*0D
2018-01-12 04:05:24 1515747924.409810: $GPZDA,090525.00,12,01,2018,00,00*64
2018-01-12 04:05:24 1515747924.409863: $GPGGA,090525,3946.9643,N,08404.9693,W,2,09,1.00,300.79,M,-33.324,M,,*78
2018-01-12 04:05:24 1515747924.409923: $GPRMC,090525,A,3946.9643,N,08404.9693,W,0.0000,0.000,120118,,*32
2018-01-12 04:05:24 1515747924.409981: $GPGSA,A,3,2,5,6,12,25,29,9,17,138,,,,2.4,1.0,2.1*0D
2018-01-12 04:05:25 1515747925.380201: $GPZDA,090526.00,12,01,2018,00,00*67
2018-01-12 04:05:25 1515747925.380371: $GPGGA,090526,3946.9643,N,08404.9693,W,2,09,1.00,300.79,M,-33.324,M,,*7B
2018-01-12 04:05:25 1515747925.380437: $GPRMC,090526,A,3946.9643,N,08404.9693,W,0.0000,0.000,120118,,*31
2018-01-12 04:05:25 1515747925.380498: $GPGSA,A,3,2,5,6,12,25,29,9,17,138,,,,2.4,1.0,2.1*0D
2018-01-12 04:05:25 1515747925.380555: $GPGBS,090526,3.00,M,3.62,M,11.97,M*0C
2018-01-12 04:05:26 1515747926.713755: $GPGSV,3,1,12,02,70,322,44,05,42,196,48,06,53,046,43,12,54,265,47*7A
2018-01-12 04:05:26 1515747926.713935: $GPGSV,3,2,12,25,28,309,45,29,05,304,46,09,18,075,24,17,20,115,21*70
2018-01-12 04:05:26 1515747926.714001: $GPGSV,3,3,12,19,38,109,04,23,08,043,11,04,49,276,00,138,38,213,48*4C
2018-01-12 04:05:26 1515747926.827538: $GPZDA,090527.00,12,01,2018,00,00*66
2018-01-12 04:05:26 1515747926.827708: $GPGGA,090527,3946.9643,N,08404.9693,W,2,10,1.00,300.79,M,-33.324,M,,*72
2018-01-12 04:05:26 1515747926.827828: $GPRMC,090527,A,3946.9643,N,08404.9693,W,0.0000,0.000,120118,,*30
2018-01-12 04:05:26 1515747926.827891: $GPGSA,A,3,2,5,6,12,25,29,9,17,23,138,,,2.4,1.0,2.1*0C
2018-01-12 04:05:27 1515747927.377235: $GPZDA,090528.00,12,01,2018,00,00*69
2018-01-12 04:05:27 1515747927.377406: $GPGGA,090528,3946.9643,N,08404.9693,W,2,10,1.00,300.79,M,-33.324,M,,*7D
2018-01-12 04:05:27 1515747927.377472: $GPRMC,090528,A,3946.9643,N,08404.9693,W,0.0000,0.000,120118,,*3F
2018-01-12 04:05:27 1515747927.377533: $GPGSA,A,3,2,5,6,12,25,29,9,17,23,138,,,2.4,1.0,2.1*0C
2018-01-12 04:05:28 1515747928.377754: $GPZDA,090529.00,12,01,2018,00,00*68
2018-01-12 04:05:28 1515747928.377926: $GPGGA,090529,3946.9643,N,08404.9693,W,2,10,1.00,300.79,M,-33.324,M,,*7C
2018-01-12 04:05:28 1515747928.377993: $GPRMC,090529,A,3946.9643,N,08404.9693,W,0.0000,0.000,120118,,*3E
2018-01-12 04:05:28 1515747928.378053: $GPGSA,A,3,2,5,6,12,25,29,9,17,23,138,,,2.4,1.0,2.1*0C
2018-01-12 04:05:29 1515747929.714635: $GPGSV,3,1,12,02,70,322,44,05,42,196,49,06,53,046,43,12,54,265,47*7B
2018-01-12 04:05:29 1515747929.714814: $GPGSV,3,2,12,25,28,309,46,29,05,304,47,09,18,075,23,17,20,115,23*77
2018-01-12 04:05:29 1515747929.714879: $GPGSV,3,3,12,19,38,109,16,23,08,043,14,04,49,276,00,138,38,213,48*4A
2018-01-12 04:05:29 1515747929.828313: $GPZDA,090530.00,12,01,2018,00,00*60
2018-01-12 04:05:29 1515747929.828484: $GPGGA,090530,3946.9643,N,08404.9693,W,2,10,1.00,300.79,M,-33.324,M,,*74
2018-01-12 04:05:29 1515747929.828550: $GPRMC,090530,A,3946.9643,N,08404.9693,W,0.0000,0.000,120118,,*36
2018-01-12 04:05:29 1515747929.828611: $GPGSA,A,3,2,5,6,12,25,29,9,17,19,138,,,2.4,1.0,2.1*05
2018-01-12 04:05:30 1515747930.376735: $GPZDA,090531.00,12,01,2018,00,00*61
2018-01-12 04:05:30 1515747930.376916: $GPGGA,090531,3946.9643,N,08404.9693,W,2,10,1.00,300.79,M,-33.324,M,,*75
2018-01-12 04:05:30 1515747930.376984: $GPRMC,090531,A,3946.9643,N,08404.9693,W,0.0000,0.000,120118,,*37
2018-01-12 04:05:30 1515747930.377045: $GPGSA,A,3,2,5,6,12,25,29,9,17,19,138,,,2.4,1.0,2.1*05
2018-01-12 04:05:31 1515747931.378349: $GPZDA,090532.00,12,01,2018,00,00*62
2018-01-12 04:05:31 1515747931.378506: $GPGGA,090532,3946.9643,N,08404.9693,W,2,10,1.00,300.79,M,-33.324,M,,*76
2018-01-12 04:05:31 1515747931.378572: $GPRMC,090532,A,3946.9643,N,08404.9693,W,0.0000,0.000,120118,,*34
2018-01-12 04:05:31 1515747931.378632: $GPGSA,A,3,2,5,6,12,25,29,9,17,19,138,,,2.4,1.0,2.1*05
2018-01-12 04:05:32 1515747932.707552: $GPGSV,3,1,12,02,70,322,44,05,42,196,48,06,53,046,43,12,54,265,46*7B
2018-01-12 04:05:32 1515747932.707729: $GPGSV,3,2,12,25,28,309,45,29,05,304,47,09,18,075,23,17,20,115,26*71
2018-01-12 04:05:32 1515747932.707794: $GPGSV,3,3,12,19,38,109,20,23,08,043,10,04,49,276,00,138,38,213,47*44
2018-01-12 04:05:32 1515747932.821234: $GPZDA,090533.00,12,01,2018,00,00*63
2018-01-12 04:05:32 1515747932.821401: $GPGGA,090533,3946.9643,N,08404.9693,W,2,10,1.00,300.79,M,-33.324,M,,*77
2018-01-12 04:05:32 1515747932.821466: $GPRMC,090533,A,3946.9643,N,08404.9693,W,0.0000,0.000,120118,,*35
2018-01-12 04:05:32 1515747932.821527: $GPGSA,A,3,2,5,6,12,25,29,9,17,19,138,,,2.4,1.0,2.1*05
2018-01-12 04:05:33 1515747933.378536: $GPZDA,090534.00,12,01,2018,00,00*64
2018-01-12 04:05:33 1515747933.378704: $GPGGA,090534,3946.9643,N,08404.9693,W,2,10,1.00,300.79,M,-33.324,M,,*70
2018-01-12 04:05:33 1515747933.378769: $GPRMC,090534,A,3946.9643,N,08404.9693,W,0.0000,0.000,120118,,*32
2018-01-12 04:05:33 1515747933.378830: $GPGSA,A,3,2,5,6,12,25,29,9,17,19,138,,,2.4,1.0,2.1*05
2018-01-12 04:05:34 1515747934.377981: $GPZDA,090535.00,12,01,2018,00,00*65
2018-01-12 04:05:34 1515747934.378152: $GPGGA,090535,3946.9643,N,08404.9693,W,2,10,1.00,300.79,M,-33.324,M,,*71
2018-01-12 04:05:34 1515747934.378218: $GPRMC,090535,A,3946.9643,N,08404.9693,W,0.0000,0.000,120118,,*33
2018-01-12 04:05:34 1515747934.378278: $GPGSA,A,3,2,5,6,12,25,29,9,17,19,138,,,2.4,1.0,2.1*05
2018-01-12 04:05:35 1515747935.713402: $GPGSV,3,1,12,02,70,322,43,05,42,196,48,06,53,046,43,12,54,265,46*7C
2018-01-12 04:05:35 1515747935.713632: $GPGSV,3,2,12,25,28,309,46,29,05,304,46,09,18,075,22,17,20,115,28*7C
2018-01-12 04:05:35 1515747935.713700: $GPGSV,3,3,12,19,38,109,21,23,08,043,00,04,49,276,00,138,38,213,47*44
2018-01-12 04:05:35 1515747935.827089: $GPZDA,090536.00,12,01,2018,00,00*66
2018-01-12 04:05:35 1515747935.827259: $GPGGA,090536,3946.9643,N,08404.9693,W,2,10,1.00,300.79,M,-33.324,M,,*72
2018-01-12 04:05:35 1515747935.827324: $GPRMC,090536,A,3946.9643,N,08404.9693,W,0.0000,0.000,120118,,*30
2018-01-12 04:05:35 1515747935.827385: $GPGSA,A,3,2,5,6,12,25,29,9,17,19,138,,,2.4,1.0,2.1*05
2018-01-12 04:05:36 1515747936.452141: $GPZDA,090537.00,12,01,2018,00,00*67
2018-01-12 04:05:36 1515747936.452312: $GPGGA,090537,3946.9643,N,08404.9700,W,2,10,1.00,300.71,M,-33.324,M,,*70
2018-01-12 04:05:36 1515747936.452379: $GPRMC,090537,A,3946.9643,N,08404.9700,W,0.0000,0.000,120118,,*3A
2018-01-12 04:05:36 1515747936.452439: $GPGSA,A,3,2,5,6,12,25,29,9,17,19,138,,,2.4,1.0,2.1*05
2018-01-12 04:05:37 1515747937.376887: $GPZDA,090538.00,12,01,2018,00,00*68
2018-01-12 04:05:37 1515747937.377059: $GPGGA,090538,3946.9643,N,08404.9700,W,2,10,1.00,300.71,M,-33.324,M,,*7F
2018-01-12 04:05:37 1515747937.377124: $GPRMC,090538,A,3946.9643,N,08404.9700,W,0.0000,0.000,120118,,*35
2018-01-12 04:05:37 1515747937.377185: $GPGSA,A,3,2,5,6,12,25,29,9,17,19,138,,,2.4,1.0,2.1*05
2018-01-12 04:05:38 1515747938.718530: $GPGSV,3,1,12,02,70,322,43,05,42,196,47,06,53,046,43,12,54,265,46*73
2018-01-12 04:05:38 1515747938.718651: $GPGSV,3,2,12,25,28,309,46,29,05,304,46,09,18,075,22,17,20,115,28*7C
2018-01-12 04:05:38 1515747938.718685: $GPGSV,3,3,12,19,38,109,22,23,08,043,12,04,49,276,00,138,38,213,47*44
2018-01-12 04:05:38 1515747938.831443: $GPZDA,090539.00,12,01,2018,00,00*69
2018-01-12 04:05:38 1515747938.831557: $GPGGA,090539,3946.9643,N,08404.9700,W,2,10,1.00,300.71,M,-33.324,M,,*7E
2018-01-12 04:05:38 1515747938.831590: $GPRMC,090539,A,3946.9643,N,08404.9700,W,0.0000,0.000,120118,,*34
2018-01-12 04:05:38 1515747938.831620: $GPGSA,A,3,2,5,6,12,25,29,9,17,19,138,,,2.4,1.0,2.1*05
2018-01-12 04:05:39 1515747939.383240: $GPZDA,090540.00,12,01,2018,00,00*67
2018-01-12 04:05:39 1515747939.383413: $GPGGA,090540,3946.9643,N,08404.9700,W,2,10,1.00,300.71,M,-33.324,M,,*70
2018-01-12 04:05:39 1515747939.383479: $GPRMC,090540,A,3946.9643,N,08404.9700,W,0.0000,0.000,120118,,*3A
2018-01-12 04:05:39 1515747939.383540: $GPGSA,A,3,2,5,6,12,25,29,9,17,19,138,,,2.4,1.0,2.1*05
