2017-12-31 17:05:51 1514757951.899312: {"class":"VERSION","release":"3.16","rev":"3.16-4","proto_major":3,"proto_minor":11}
2017-12-31 17:05:51 1514757951.899666: {"class":"DEVICES","devices":[{"class":"DEVICE","path":"/dev/ttyUSB0","driver":"SiRF","activated":"2017-12-31T22:05:51.830Z","flags":1,"native":1,"bps":4800,"parity":"N","stopbits":1,"cycle":1.00}]}
2017-12-31 17:05:51 1514757951.899765: {"class":"WATCH","enable":true,"json":false,"nmea":true,"raw":0,"scaled":false,"timing":false,"split24":false,"pps":false}
2017-12-31 17:05:52 1514757952.343323: $GPZDA,220553.00,31,12,2017,00,00*60
2017-12-31 17:05:52 1514757952.343490: $GPGGA,220553,3946.9587,N,08404.9854,W,2,11,1.00,302.21,M,-33.324,M,,*78
2017-12-31 17:05:52 1514757952.343557: $GPRMC,220553,A,3946.9587,N,08404.9854,W,0.0000,0.000,311217,,*38
2017-12-31 17:05:52 1514757952.343617: $GPGSA,A,3,22,23,25,3,16,29,31,14,32,26,135,,1.7,1.0,1.3*3B
2017-12-31 17:05:53 1514757953.344209: $GPZDA,220554.00,31,12,2017,00,00*67
2017-12-31 17:05:53 1514757953.344386: $GPGGA,220554,3946.9587,N,08404.9854,W,2,11,1.00,302.21,M,-33.324,M,,*7F
2017-12-31 17:05:53 1514757953.344452: $GPRMC,220554,A,3946.9587,N,08404.9854,W,0.0000,0.000,311217,,*3F
2017-12-31 17:05:53 1514757953.344514: $GPGSA,A,3,22,23,25,3,16,29,31,14,32,26,135,,1.7,1.0,1.3*3B
2017-12-31 17:05:54 1514757954.688717: $GPGSV,3,1,11,22,44,238,41,23,28,307,36,25,01,037,07,03,46,270,39*76
2017-12-31 17:05:54 1514757954.688893: $GPGSV,3,2,11,16,47,190,43,29,14,054,20,31,49,051,50,14,40,114,36*70
2017-12-31 17:05:54 1514757954.688958: $GPGSV,3,3,11,32,18,123,40,26,75,139,47,135,22,240,42*7C
2017-12-31 17:05:54 1514757954.802137: $GPZDA,220555.00,31,12,2017,00,00*66
2017-12-31 17:05:54 1514757954.802269: $GPGGA,220555,3946.9587,N,08404.9854,W,2,11,1.00,302.21,M,-33.324,M,,*7E
2017-12-31 17:05:54 1514757954.802333: $GPRMC,220555,A,3946.9587,N,08404.9854,W,0.0000,0.000,311217,,*3E
2017-12-31 17:05:54 1514757954.802394: $GPGSA,A,3,22,23,25,3,16,29,31,14,32,26,135,,1.7,1.0,1.3*3B
2017-12-31 17:05:55 1514757955.427561: $GPZDA,220556.00,31,12,2017,00,00*65
2017-12-31 17:05:55 1514757955.427729: $GPGGA,220556,3946.9587,N,08404.9854,W,2,11,1.00,302.21,M,-33.324,M,,*7D
2017-12-31 17:05:55 1514757955.427800: $GPRMC,220556,A,3946.9587,N,08404.9854,W,0.0000,0.000,311217,,*3D
2017-12-31 17:05:55 1514757955.427866: $GPGSA,A,3,22,23,25,3,16,29,31,14,32,26,135,,1.7,1.0,1.3*3B
2017-12-31 17:05:56 1514757956.335907: $GPZDA,220557.00,31,12,2017,00,00*64
2017-12-31 17:05:56 1514757956.336075: $GPGGA,220557,3946.9587,N,08404.9854,W,2,11,1.00,302.21,M,-33.324,M,,*7C
2017-12-31 17:05:56 1514757956.336142: $GPRMC,220557,A,3946.9587,N,08404.9854,W,0.0000,0.000,311217,,*3C
2017-12-31 17:05:56 1514757956.336202: $GPGSA,A,3,22,23,25,3,16,29,31,14,32,26,135,,1.7,1.0,1.3*3B
2017-12-31 17:05:57 1514757957.679094: $GPGSV,3,1,11,22,44,238,41,23,28,307,36,25,01,037,07,03,46,270,39*76
2017-12-31 17:05:57 1514757957.838377: $GPGSV,3,2,11,16,47,190,43,29,14,054,20,31,49,051,50,14,40,114,36*70
2017-12-31 17:05:57 1514757957.838523: $GPGSV,3,3,11,32,18,123,40,26,75,139,47,135,22,240,42*7C
2017-12-31 17:05:57 1514757957.838621: $GPZDA,220558.00,31,12,2017,00,00*6B
2017-12-31 17:05:57 1514757957.838679: $GPGGA,220558,3946.9587,N,08404.9854,W,2,11,1.00,302.21,M,-33.324,M,,*73
2017-12-31 17:05:57 1514757957.838744: $GPRMC,220558,A,3946.9587,N,08404.9854,W,0.0000,0.000,311217,,*33
2017-12-31 17:05:57 1514757957.838803: $GPGSA,A,3,22,23,25,3,16,29,31,14,32,26,135,,1.7,1.0,1.3*3B
2017-12-31 17:05:58 1514757958.360862: $GPZDA,220559.00,31,12,2017,00,00*6A
2017-12-31 17:05:58 1514757958.361034: $GPGGA,220559,3946.9587,N,08404.9854,W,2,11,1.00,302.21,M,-33.324,M,,*72
2017-12-31 17:05:58 1514757958.361101: $GPRMC,220559,A,3946.9587,N,08404.9854,W,0.0000,0.000,311217,,*32
2017-12-31 17:05:58 1514757958.361162: $GPGSA,A,3,22,23,25,3,16,29,31,14,32,26,135,,1.7,1.0,1.3*3B
2017-12-31 17:05:59 1514757959.360462: $GPZDA,220600.00,31,12,2017,00,00*65
2017-12-31 17:05:59 1514757959.360623: $GPGGA,220600,3946.9587,N,08404.9854,W,2,11,1.00,302.21,M,-33.324,M,,*7D
2017-12-31 17:05:59 1514757959.360750: $GPRMC,220600,A,3946.9587,N,08404.9854,W,0.0000,0.000,311217,,*3D
2017-12-31 17:05:59 1514757959.360814: $GPGSA,A,3,22,23,25,3,16,29,31,14,32,26,135,,1.7,1.0,1.3*3B
2017-12-31 17:06:01 1514757961.052643: $GPGSV,3,1,11,22,44,238,41,23,28,307,36,25,01,037,08,03,46,270,39*79
2017-12-31 17:06:01 1514757961.052805: $GPGSV,3,2,11,16,47,190,43,29,14,054,20,31,49,051,50,14,40,114,35*73
2017-12-31 17:06:01 1514757961.052870: $GPGSV,3,3,11,32,18,123,40,26,75,139,47,135,22,240,42*7C
2017-12-31 17:06:01 1514757961.166068: $GPZDA,220601.00,31,12,2017,00,00*64
2017-12-31 17:06:01 1514757961.166193: $GPGGA,220601,3946.9587,N,08404.9854,W,2,11,1.00,302.21,M,-33.324,M,,*7C
2017-12-31 17:06:01 1514757961.166256: $GPRMC,220601,A,3946.9587,N,08404.9854,W,0.0000,0.000,311217,,*3C
2017-12-31 17:06:01 1514757961.166318: $GPGSA,A,3,22,23,25,3,16,29,31,14,32,26,135,,1.7,1.0,1.3*3B
2017-12-31 17:06:01 1514757961.766321: $GPZDA,220602.00,31,12,2017,00,00*67
2017-12-31 17:06:01 1514757961.766468: $GPGGA,220602,3946.9587,N,08404.9854,W,2,11,1.00,302.21,M,-33.324,M,,*7F
2017-12-31 17:06:01 1514757961.766534: $GPRMC,220602,A,3946.9587,N,08404.9854,W,0.0000,0.000,311217,,*3F
2017-12-31 17:06:01 1514757961.766594: $GPGSA,A,3,22,23,25,3,16,29,31,14,32,26,135,,1.7,1.0,1.3*3B
2017-12-31 17:06:01 1514757961.766652: $GPGBS,220602,2.22,M,3.43,M,7.66,M*3B
