2017-12-01 14:17:25 1512155845.046933: {"class":"VERSION","release":"3.16","rev":"3.16-4","proto_major":3,"proto_minor":11}
2017-12-01 14:17:25 1512155845.047348: {"class":"DEVICES","devices":[{"class":"DEVICE","path":"/dev/ttyUSB0","driver":"SiRF","subtype":"9\u0006GSD4e_4.1.2-P1_RPATCH.05-F-GPS-4R-1510281 11/03/2015 307","activated":"2017-12-01T19:17:24.585Z","flags":1,"native":1,"bps":4800,"parity":"N","stopbits":1,"cycle":1.00}]}
2017-12-01 14:17:25 1512155845.047524: {"class":"WATCH","enable":true,"json":false,"nmea":true,"raw":0,"scaled":false,"timing":false,"split24":false,"pps":false}
2017-12-01 14:17:25 1512155845.451531: $GPZDA,191726.00,01,12,2017,00,00*6A
2017-12-01 14:17:25 1512155845.451701: $GPGGA,191726,3946.9520,N,08404.9834,W,2,12,0.80,332.78,M,-33.324,M,,*7F
2017-12-01 14:17:25 1512155845.451767: $GPRMC,191726,A,3946.9520,N,08404.9834,W,0.0000,0.000,011217,,*39
2017-12-01 14:17:25 1512155845.451828: $GPGSA,A,3,8,10,14,18,21,24,27,32,12,15,20,138,2.0,0.8,1.5*37
2017-12-01 14:17:26 1512155846.755713: $GPGSV,3,1,12,08,06,297,36,10,66,327,49,14,26,250,39,18,72,085,45*79
2017-12-01 14:17:26 1512155846.755896: $GPGSV,3,2,12,21,32,180,45,24,47,063,48,27,08,262,36,32,44,262,45*75
2017-12-01 14:17:26 1512155846.755963: $GPGSV,3,3,12,12,07,109,33,15,13,064,27,20,11,117,29,138,38,213,46*4A
2017-12-01 14:17:26 1512155846.869082: $GPZDA,191727.00,01,12,2017,00,00*6B
2017-12-01 14:17:26 1512155846.869274: $GPGGA,191727,3946.9520,N,08404.9834,W,2,12,0.80,332.78,M,-33.324,M,,*7E
2017-12-01 14:17:26 1512155846.869361: $GPRMC,191727,A,3946.9520,N,08404.9834,W,0.0000,0.000,011217,,*38
2017-12-01 14:17:26 1512155846.869424: $GPGSA,A,3,8,10,14,18,21,24,27,32,12,15,20,138,2.0,0.8,1.5*37
2017-12-01 14:17:27 1512155847.494730: $GPZDA,191728.00,01,12,2017,00,00*64
2017-12-01 14:17:27 1512155847.494898: $GPGGA,191728,3946.9520,N,08404.9834,W,2,12,0.80,332.78,M,-33.324,M,,*71
2017-12-01 14:17:27 1512155847.494964: $GPRMC,191728,A,3946.9520,N,08404.9834,W,0.0000,0.000,011217,,*37
2017-12-01 14:17:27 1512155847.495025: $GPGSA,A,3,8,10,14,18,21,24,27,32,12,15,20,138,2.0,0.8,1.5*37
2017-12-01 14:17:28 1512155848.451675: $GPZDA,191729.00,01,12,2017,00,00*65
2017-12-01 14:17:28 1512155848.451856: $GPGGA,191729,3946.9520,N,08404.9834,W,2,12,0.80,332.78,M,-33.324,M,,*70
2017-12-01 14:17:28 1512155848.451927: $GPRMC,191729,A,3946.9520,N,08404.9834,W,0.0000,0.000,011217,,*36
2017-12-01 14:17:28 1512155848.451988: $GPGSA,A,3,8,10,14,18,21,24,27,32,12,15,20,138,2.0,0.8,1.5*37
2017-12-01 14:17:29 1512155849.788582: $GPGSV,3,1,12,08,06,297,36,10,66,327,49,14,26,250,39,18,72,085,45*79
2017-12-01 14:17:29 1512155849.788762: $GPGSV,3,2,12,21,32,180,46,24,47,063,48,27,08,262,36,32,44,262,45*76
2017-12-01 14:17:29 1512155849.788828: $GPGSV,3,3,12,12,07,109,32,15,13,064,28,20,11,117,29,138,38,213,46*44
2017-12-01 14:17:29 1512155849.902220: $GPZDA,191730.00,01,12,2017,00,00*6D
2017-12-01 14:17:29 1512155849.902410: $GPGGA,191730,3946.9520,N,08404.9834,W,2,12,0.80,332.78,M,-33.324,M,,*78
2017-12-01 14:17:29 1512155849.902496: $GPRMC,191730,A,3946.9520,N,08404.9834,W,0.0000,0.000,011217,,*3E
2017-12-01 14:17:29 1512155849.902559: $GPGSA,A,3,8,10,14,18,21,24,27,32,12,15,20,138,2.0,0.8,1.5*37
2017-12-01 14:17:30 1512155850.454072: $GPZDA,191731.00,01,12,2017,00,00*6C
2017-12-01 14:17:30 1512155850.454251: $GPGGA,191731,3946.9520,N,08404.9834,W,2,12,0.80,332.78,M,-33.324,M,,*79
2017-12-01 14:17:30 1512155850.454319: $GPRMC,191731,A,3946.9520,N,08404.9834,W,0.0000,0.000,011217,,*3F
2017-12-01 14:17:30 1512155850.454407: $GPGSA,A,3,8,10,14,18,21,24,27,32,12,15,20,138,2.0,0.8,1.5*37
2017-12-01 14:17:31 1512155851.416199: $GPZDA,191732.00,01,12,2017,00,00*6F
2017-12-01 14:17:31 1512155851.416397: $GPGGA,191732,3946.9520,N,08404.9834,W,2,12,0.80,332.78,M,-33.324,M,,*7A
2017-12-01 14:17:31 1512155851.416483: $GPRMC,191732,A,3946.9520,N,08404.9834,W,0.0000,0.000,011217,,*3C
2017-12-01 14:17:31 1512155851.416546: $GPGSA,A,3,8,10,14,18,21,24,27,32,12,15,20,138,2.0,0.8,1.5*37
2017-12-01 14:17:32 1512155852.749012: $GPGSV,3,1,12,08,06,297,36,10,66,327,49,14,26,250,39,18,72,085,45*79
2017-12-01 14:17:32 1512155852.749260: $GPGSV,3,2,12,21,32,180,45,24,47,063,48,27,08,262,35,32,44,262,45*76
2017-12-01 14:17:32 1512155852.749354: $GPGSV,3,3,12,12,07,109,32,15,13,064,28,20,11,117,29,138,38,213,47*45
2017-12-01 14:17:32 1512155852.862572: $GPZDA,191733.00,01,12,2017,00,00*6E
2017-12-01 14:17:32 1512155852.862738: $GPGGA,191733,3946.9520,N,08404.9834,W,2,12,0.80,332.78,M,-33.324,M,,*7B
2017-12-01 14:17:32 1512155852.862806: $GPRMC,191733,A,3946.9520,N,08404.9834,W,0.0000,0.000,011217,,*3D
2017-12-01 14:17:32 1512155852.862866: $GPGSA,A,3,8,10,14,18,21,24,27,32,12,15,20,138,2.0,0.8,1.5*37
2017-12-01 14:17:33 1512155853.420960: $GPZDA,191734.00,01,12,2017,00,00*69
2017-12-01 14:17:33 1512155853.421119: $GPGGA,191734,3946.9520,N,08404.9834,W,2,12,0.80,332.78,M,-33.324,M,,*7C
2017-12-01 14:17:33 1512155853.421185: $GPRMC,191734,A,3946.9520,N,08404.9834,W,0.0000,0.000,011217,,*3A
2017-12-01 14:17:33 1512155853.421247: $GPGSA,A,3,8,10,14,18,21,24,27,32,12,15,20,138,2.0,0.8,1.5*37
2017-12-01 14:17:34 1512155854.420369: $GPZDA,191735.00,01,12,2017,00,00*68
2017-12-01 14:17:34 1512155854.420571: $GPGGA,191735,3946.9520,N,08404.9834,W,2,12,0.80,332.78,M,-33.324,M,,*7D
2017-12-01 14:17:34 1512155854.420640: $GPRMC,191735,A,3946.9520,N,08404.9834,W,0.0000,0.000,011217,,*3B
2017-12-01 14:17:34 1512155854.420701: $GPGSA,A,3,8,10,14,18,21,24,27,32,12,15,20,138,2.0,0.8,1.5*37
2017-12-01 14:17:35 1512155855.755062: $GPGSV,3,1,12,08,06,297,36,10,66,327,49,14,26,250,39,18,72,085,44*78
2017-12-01 14:17:35 1512155855.755238: $GPGSV,3,2,12,21,32,180,45,24,47,063,48,27,08,262,36,32,44,262,45*75
2017-12-01 14:17:35 1512155855.755325: $GPGSV,3,3,12,12,07,109,31,15,13,064,29,20,11,117,30,138,38,213,46*4E
2017-12-01 14:17:35 1512155855.868325: $GPZDA,191736.00,01,12,2017,00,00*6B
2017-12-01 14:17:35 1512155855.868510: $GPGGA,191736,3946.9520,N,08404.9834,W,2,12,0.80,332.78,M,-33.324,M,,*7E
2017-12-01 14:17:35 1512155855.868577: $GPRMC,191736,A,3946.9520,N,08404.9834,W,0.0000,0.000,011217,,*38
2017-12-01 14:17:35 1512155855.868638: $GPGSA,A,3,8,10,14,18,21,24,27,32,12,15,20,138,2.0,0.8,1.5*37
2017-12-01 14:17:36 1512155856.421541: $GPZDA,191737.00,01,12,2017,00,00*6A
2017-12-01 14:17:36 1512155856.421713: $GPGGA,191737,3946.9520,N,08404.9834,W,2,12,0.80,332.78,M,-33.324,M,,*7F
2017-12-01 14:17:36 1512155856.421780: $GPRMC,191737,A,3946.9520,N,08404.9834,W,0.0000,0.000,011217,,*39
2017-12-01 14:17:36 1512155856.421841: $GPGSA,A,3,8,10,14,18,21,24,27,32,12,15,20,138,2.0,0.8,1.5*37
2017-12-01 14:17:37 1512155857.423166: $GPZDA,191738.00,01,12,2017,00,00*65
2017-12-01 14:17:37 1512155857.423373: $GPGGA,191738,3946.9520,N,08404.9834,W,2,12,0.80,332.78,M,-33.324,M,,*70
2017-12-01 14:17:37 1512155857.423460: $GPRMC,191738,A,3946.9520,N,08404.9834,W,0.0000,0.000,011217,,*36
2017-12-01 14:17:37 1512155857.423523: $GPGSA,A,3,8,10,14,18,21,24,27,32,12,15,20,138,2.0,0.8,1.5*37
2017-12-01 14:17:38 1512155858.750215: $GPGSV,3,1,12,08,06,297,37,10,66,327,49,14,26,250,39,18,72,085,45*78
2017-12-01 14:17:38 1512155858.750417: $GPGSV,3,2,12,21,32,180,45,24,47,063,49,27,08,262,37,32,44,262,44*74
2017-12-01 14:17:38 1512155858.750501: $GPGSV,3,3,12,12,07,109,30,15,13,064,29,20,11,117,30,138,38,213,47*4E
2017-12-01 14:17:38 1512155858.863684: $GPZDA,191739.00,01,12,2017,00,00*64
2017-12-01 14:17:38 1512155858.863837: $GPGGA,191739,3946.9520,N,08404.9834,W,2,12,0.80,332.78,M,-33.324,M,,*71
2017-12-01 14:17:38 1512155858.863903: $GPRMC,191739,A,3946.9520,N,08404.9834,W,0.0000,0.000,011217,,*37
2017-12-01 14:17:38 1512155858.863963: $GPGSA,A,3,8,10,14,18,21,24,27,32,12,15,20,138,2.0,0.8,1.5*37
2017-12-01 14:17:39 1512155859.420759: $GPZDA,191740.00,01,12,2017,00,00*6A
2017-12-01 14:17:39 1512155859.420964: $GPGGA,191740,3946.9520,N,08404.9834,W,2,12,0.80,332.78,M,-33.324,M,,*7F
2017-12-01 14:17:39 1512155859.421053: $GPRMC,191740,A,3946.9520,N,08404.9834,W,0.0000,0.000,011217,,*39
2017-12-01 14:17:39 1512155859.421117: $GPGSA,A,3,8,10,14,18,21,24,27,32,12,15,20,138,2.0,0.8,1.5*37
2017-12-01 14:17:40 1512155860.420259: $GPZDA,191741.00,01,12,2017,00,00*6B
2017-12-01 14:17:40 1512155860.420498: $GPGGA,191741,3946.9520,N,08404.9834,W,2,12,0.80,332.78,M,-33.324,M,,*7E
2017-12-01 14:17:40 1512155860.420568: $GPRMC,191741,A,3946.9520,N,08404.9834,W,0.0000,0.000,011217,,*38
2017-12-01 14:17:40 1512155860.420629: $GPGSA,A,3,8,10,14,18,21,24,27,32,12,15,20,138,2.0,0.8,1.5*37
2017-12-01 14:17:41 1512155861.757398: $GPGSV,3,1,12,08,06,297,36,10,66,327,49,14,26,250,40,18,72,085,45*77
2017-12-01 14:17:41 1512155861.757589: $GPGSV,3,2,12,21,32,180,45,24,47,063,49,27,08,262,37,32,44,262,44*74
2017-12-01 14:17:41 1512155861.757656: $GPGSV,3,3,12,12,07,109,23,15,13,064,30,20,11,117,30,138,38,213,46*45
2017-12-01 14:17:41 1512155861.870646: $GPZDA,191742.00,01,12,2017,00,00*68
2017-12-01 14:17:41 1512155861.870837: $GPGGA,191742,3946.9520,N,08404.9834,W,2,12,0.80,332.78,M,-33.324,M,,*7D
2017-12-01 14:17:41 1512155861.870905: $GPRMC,191742,A,3946.9520,N,08404.9834,W,0.0000,0.000,011217,,*3B
2017-12-01 14:17:41 1512155861.870967: $GPGSA,A,3,8,10,14,18,21,24,27,32,12,15,20,138,2.0,0.8,1.5*37
2017-12-01 14:17:42 1512155862.495995: $GPZDA,191743.00,01,12,2017,00,00*69
2017-12-01 14:17:42 1512155862.496172: $GPGGA,191743,3946.9520,N,08404.9834,W,2,12,0.80,332.78,M,-33.324,M,,*7C
2017-12-01 14:17:42 1512155862.496239: $GPRMC,191743,A,3946.9520,N,08404.9834,W,0.0000,0.000,011217,,*3A
2017-12-01 14:17:42 1512155862.496325: $GPGSA,A,3,8,10,14,18,21,24,27,32,12,15,20,138,2.0,0.8,1.5*37
2017-12-01 14:17:43 1512155863.413211: $GPZDA,191744.00,01,12,2017,00,00*6E
2017-12-01 14:17:43 1512155863.413383: $GPGGA,191744,3946.9520,N,08404.9834,W,2,12,0.80,332.78,M,-33.324,M,,*7B
2017-12-01 14:17:43 1512155863.413450: $GPRMC,191744,A,3946.9520,N,08404.9834,W,0.0000,0.000,011217,,*3D
2017-12-01 14:17:43 1512155863.413511: $GPGSA,A,3,8,10,14,18,21,24,27,32,12,15,20,138,2.0,0.8,1.5*37
2017-12-01 14:17:44 1512155864.756446: $GPGSV,3,1,12,08,06,297,30,10,66,327,49,14,26,250,40,18,72,085,45*71
2017-12-01 14:17:44 1512155864.756628: $GPGSV,3,2,12,21,32,180,46,24,47,063,50,27,08,262,37,32,44,262,45*7E
2017-12-01 14:17:44 1512155864.756694: $GPGSV,3,3,12,12,07,109,24,15,13,064,30,20,11,117,30,138,38,213,46*42
2017-12-01 14:17:44 1512155864.869751: $GPZDA,191745.00,01,12,2017,00,00*6F
2017-12-01 14:17:44 1512155864.869901: $GPGGA,191745,3946.9520,N,08404.9834,W,2,12,0.80,332.78,M,-33.324,M,,*7A
2017-12-01 14:17:44 1512155864.869968: $GPRMC,191745,A,3946.9520,N,08404.9834,W,0.0000,0.000,011217,,*3C
2017-12-01 14:17:44 1512155864.870029: $GPGSA,A,3,8,10,14,18,21,24,27,32,12,15,20,138,2.0,0.8,1.5*37
