2017-12-31 17:00:45 1514757645.082009: {"class":"VERSION","release":"3.16","rev":"3.16-4","proto_major":3,"proto_minor":11}
2017-12-31 17:00:45 1514757645.082351: {"class":"DEVICES","devices":[{"class":"DEVICE","path":"/dev/ttyUSB0","driver":"SiRF","activated":"2017-12-31T22:00:44.667Z","flags":1,"native":1,"bps":4800,"parity":"N","stopbits":1,"cycle":1.00}]}
2017-12-31 17:00:45 1514757645.082450: {"class":"WATCH","enable":true,"json":false,"nmea":true,"raw":0,"scaled":false,"timing":false,"split24":false,"pps":false}
2017-12-31 17:00:45 1514757645.679811: $GPGSV,3,1,11,22,45,243,40,23,26,307,42,25,03,037,21,03,46,274,41*7A
2017-12-31 17:00:45 1514757645.679983: $GPGSV,3,2,11,16,44,190,44,29,14,057,26,31,51,049,51,14,42,112,39*7B
2017-12-31 17:00:45 1514757645.680049: $GPGSV,3,3,11,32,20,121,44,26,73,148,46,135,22,240,42*70
2017-12-31 17:00:45 1514757645.793187: $GPZDA,220046.00,31,12,2017,00,00*61
2017-12-31 17:00:45 1514757645.793323: $GPGGA,220046,3946.9584,N,08404.9855,W,2,11,1.00,302.98,M,-33.324,M,,*79
2017-12-31 17:00:45 1514757645.793388: $GPRMC,220046,A,3946.9584,N,08404.9855,W,0.0000,0.000,311217,,*3B
2017-12-31 17:00:45 1514757645.793449: $GPGSA,A,3,22,23,25,3,16,29,31,14,32,26,135,,1.7,1.0,1.3*3B
2017-12-31 17:00:46 1514757646.344129: $GPZDA,220047.00,31,12,2017,00,00*60
2017-12-31 17:00:46 1514757646.344295: $GPGGA,220047,3946.9584,N,08404.9855,W,2,11,1.00,302.98,M,-33.324,M,,*78
2017-12-31 17:00:46 1514757646.344361: $GPRMC,220047,A,3946.9584,N,08404.9855,W,0.0000,0.000,311217,,*3A
2017-12-31 17:00:46 1514757646.344421: $GPGSA,A,3,22,23,25,3,16,29,31,14,32,26,135,,1.7,1.0,1.3*3B
2017-12-31 17:00:47 1514757647.361262: $GPZDA,220048.00,31,12,2017,00,00*6F
2017-12-31 17:00:47 1514757647.361426: $GPGGA,220048,3946.9584,N,08404.9855,W,2,11,1.00,302.98,M,-33.324,M,,*77
2017-12-31 17:00:47 1514757647.361493: $GPRMC,220048,A,3946.9584,N,08404.9855,W,0.0000,0.000,311217,,*35
2017-12-31 17:00:47 1514757647.361553: $GPGSA,A,3,22,23,25,3,16,29,31,14,32,26,135,,1.7,1.0,1.3*3B
2017-12-31 17:00:48 1514757648.681898: $GPGSV,3,1,11,22,45,243,40,23,26,307,42,25,03,037,21,03,46,274,41*7A
2017-12-31 17:00:48 1514757648.682064: $GPGSV,3,2,11,16,44,190,45,29,14,057,06,31,51,049,51,14,42,112,38*79
2017-12-31 17:00:48 1514757648.682131: $GPGSV,3,3,11,32,20,121,44,26,73,148,46,135,22,240,42*70
2017-12-31 17:00:48 1514757648.794042: $GPZDA,220049.00,31,12,2017,00,00*6E
2017-12-31 17:00:48 1514757648.794174: $GPGGA,220049,3946.9584,N,08404.9855,W,2,10,1.00,302.98,M,-33.324,M,,*77
2017-12-31 17:00:48 1514757648.794240: $GPRMC,220049,A,3946.9584,N,08404.9855,W,0.0000,0.000,311217,,*34
2017-12-31 17:00:48 1514757648.794300: $GPGSA,A,3,22,23,25,3,16,31,14,32,26,135,,,1.7,1.0,1.3*30
2017-12-31 17:00:49 1514757649.338790: $GPZDA,220050.00,31,12,2017,00,00*66
2017-12-31 17:00:49 1514757649.338970: $GPGGA,220050,3946.9584,N,08404.9855,W,2,10,1.00,302.98,M,-33.324,M,,*7F
2017-12-31 17:00:49 1514757649.339037: $GPRMC,220050,A,3946.9584,N,08404.9855,W,0.0000,0.000,311217,,*3C
2017-12-31 17:00:49 1514757649.339098: $GPGSA,A,3,22,23,25,3,16,31,14,32,26,135,,,1.7,1.0,1.3*30
2017-12-31 17:00:50 1514757650.337768: $GPZDA,220051.00,31,12,2017,00,00*67
2017-12-31 17:00:50 1514757650.337941: $GPGGA,220051,3946.9584,N,08404.9855,W,2,10,1.00,302.98,M,-33.324,M,,*7E
2017-12-31 17:00:50 1514757650.338009: $GPRMC,220051,A,3946.9584,N,08404.9855,W,0.0000,0.000,311217,,*3D
2017-12-31 17:00:50 1514757650.338070: $GPGSA,A,3,22,23,25,3,16,31,14,32,26,135,,,1.7,1.0,1.3*30
2017-12-31 17:00:51 1514757651.695920: $GPGSV,3,1,11,22,45,243,40,23,26,307,41,25,03,037,21,03,46,274,41*79
2017-12-31 17:00:51 1514757651.696089: $GPGSV,3,2,11,16,44,190,44,29,14,057,00,31,51,049,51,14,42,112,38*7E
2017-12-31 17:00:51 1514757651.696154: $GPGSV,3,3,11,32,20,121,44,26,73,148,45,135,22,240,43*72
2017-12-31 17:00:51 1514757651.809262: $GPZDA,220052.00,31,12,2017,00,00*64
2017-12-31 17:00:51 1514757651.809388: $GPGGA,220052,3946.9584,N,08404.9855,W,2,10,1.00,302.98,M,-33.324,M,,*7D
2017-12-31 17:00:51 1514757651.809453: $GPRMC,220052,A,3946.9584,N,08404.9855,W,0.0000,0.000,311217,,*3E
2017-12-31 17:00:51 1514757651.809568: $GPGSA,A,3,22,23,25,3,16,31,14,32,26,135,,,1.7,1.0,1.3*30
2017-12-31 17:00:52 1514757652.342651: $GPZDA,220053.00,31,12,2017,00,00*65
2017-12-31 17:00:52 1514757652.342870: $GPGGA,220053,3946.9584,N,08404.9855,W,2,10,1.00,302.98,M,-33.324,M,,*7C
2017-12-31 17:00:52 1514757652.342938: $GPRMC,220053,A,3946.9584,N,08404.9855,W,0.0000,0.000,311217,,*3F
2017-12-31 17:00:52 1514757652.342999: $GPGSA,A,3,22,23,25,3,16,31,14,32,26,135,,,1.7,1.0,1.3*30
2017-12-31 17:00:53 1514757653.343520: $GPZDA,220054.00,31,12,2017,00,00*62
2017-12-31 17:00:53 1514757653.343690: $GPGGA,220054,3946.9584,N,08404.9855,W,2,10,1.00,302.98,M,-33.324,M,,*7B
2017-12-31 17:00:53 1514757653.343780: $GPRMC,220054,A,3946.9584,N,08404.9855,W,0.0000,0.000,311217,,*38
2017-12-31 17:00:53 1514757653.343860: $GPGSA,A,3,22,23,25,3,16,31,14,32,26,135,,,1.7,1.0,1.3*30
2017-12-31 17:00:54 1514757654.673018: $GPGSV,3,1,11,22,45,243,40,23,26,307,41,25,03,037,22,03,46,274,42*79
2017-12-31 17:00:54 1514757654.673201: $GPGSV,3,2,11,16,44,190,44,29,14,057,00,31,51,049,51,14,42,112,38*7E
2017-12-31 17:00:54 1514757654.673268: $GPGSV,3,3,11,32,20,121,44,26,73,148,45,135,22,240,43*72
2017-12-31 17:00:54 1514757654.785105: $GPZDA,220055.00,31,12,2017,00,00*63
2017-12-31 17:00:54 1514757654.785234: $GPGGA,220055,3946.9584,N,08404.9855,W,2,10,1.00,302.98,M,-33.324,M,,*7A
2017-12-31 17:00:54 1514757654.785297: $GPRMC,220055,A,3946.9584,N,08404.9855,W,0.0000,0.000,311217,,*39
2017-12-31 17:00:54 1514757654.785357: $GPGSA,A,3,22,23,25,3,16,31,14,32,26,135,,,1.7,1.0,1.3*30
