2017-11-16 14:59:44 1510862384.255688: {"class":"VERSION","release":"3.17","rev":"3.17","proto_major":3,"proto_minor":12}
2017-11-16 14:59:44 1510862384.256157: {"class":"DEVICES","devices":[{"class":"DEVICE","path":"/dev/ttyUSB0","driver":"SiRF","subtype":"9\u0006GSD4e_4.1.2-P1_RPATCH.05-F-GPS-4R-1510281 11/03/2015 307","activated":"2017-11-16T19:59:43.810Z","flags":1,"native":1,"bps":4800,"parity":"N","stopbits":1,"cycle":1.00}]}
2017-11-16 14:59:44 1510862384.256274: {"class":"WATCH","enable":true,"json":false,"nmea":true,"raw":0,"scaled":false,"timing":false,"split24":false,"pps":false}
2017-11-16 14:59:44 1510862384.496958: $GPZDA,195943.00,16,11,2017,00,00*66
2017-11-16 14:59:44 1510862384.497137: $GPGGA,195943,3946.9575,N,08404.9848,W,2,12,0.80,301.77,M,-33.324,M,,*72
2017-11-16 14:59:44 1510862384.497199: $GPRMC,195943,A,3946.9575,N,08404.9848,W,0.0000,0.000,161117,,*3E
2017-11-16 14:59:44 1510862384.497256: $GPGSA,A,3,8,10,12,15,18,21,20,24,27,32,14,138,1.6,0.8,1.3*34
2017-11-16 14:59:46 1510862386.875028: $GPGSV,3,1,12,08,08,303,32,10,59,318,51,12,02,115,19,15,20,061,47*74
2017-11-16 14:59:46 1510862386.875197: $GPGSV,3,2,12,18,77,057,47,21,41,181,45,20,17,111,43,24,51,073,48*74
2017-11-16 14:59:46 1510862386.875256: $GPGSV,3,3,12,27,12,268,42,32,37,255,45,14,21,244,43,138,38,213,44*42
2017-11-16 14:59:46 1510862386.988304: $GPZDA,195944.00,16,11,2017,00,00*61
2017-11-16 14:59:46 1510862386.988453: $GPGGA,195944,3946.9575,N,08404.9848,W,2,11,0.80,301.77,M,-33.324,M,,*76
2017-11-16 14:59:46 1510862386.988512: $GPRMC,195944,A,3946.9575,N,08404.9848,W,0.0000,0.000,161117,,*39
2017-11-16 14:59:46 1510862386.988568: $GPGSA,A,3,8,10,15,18,21,20,24,27,32,14,138,,1.6,0.8,1.3*37
2017-11-16 14:59:48 1510862388.884245: $GPZDA,195945.00,16,11,2017,00,00*60
2017-11-16 14:59:48 1510862388.884422: $GPGGA,195945,3946.9575,N,08404.9848,W,2,11,0.80,301.77,M,-33.324,M,,*77
2017-11-16 14:59:48 1510862388.884483: $GPRMC,195945,A,3946.9575,N,08404.9848,W,0.0000,0.000,161117,,*38
2017-11-16 14:59:48 1510862388.884539: $GPGSA,A,3,8,10,15,18,21,20,24,27,32,14,138,,1.6,0.8,1.3*37
2017-11-16 14:59:48 1510862388.884594: $GPGBS,195945,2.12,M,3.10,M,7.47,M*3C
2017-11-16 14:59:49 1510862389.335106: $GPZDA,195946.00,16,11,2017,00,00*63
2017-11-16 14:59:49 1510862389.335266: $GPGGA,195946,3946.9575,N,08404.9848,W,2,11,0.80,301.77,M,-33.324,M,,*74
2017-11-16 14:59:49 1510862389.335329: $GPRMC,195946,A,3946.9575,N,08404.9848,W,0.0000,0.000,161117,,*3B
2017-11-16 14:59:49 1510862389.335385: $GPGSA,A,3,8,10,15,18,21,20,24,27,32,14,138,,1.6,0.8,1.3*37
2017-11-16 14:59:49 1510862389.335440: $GPGBS,195946,2.12,M,3.10,M,7.47,M*3F
2017-11-16 14:59:50 1510862390.122163: $GPGSV,3,1,12,08,08,303,30,10,59,318,51,12,02,115,00,15,20,061,46*7F
2017-11-16 14:59:50 1510862390.122336: $GPGSV,3,2,12,18,77,057,47,21,41,181,45,20,17,111,43,24,51,073,49*75
2017-11-16 14:59:50 1510862390.122396: $GPGSV,3,3,12,27,12,268,42,32,37,255,45,14,21,244,43,138,38,213,44*42
2017-11-16 14:59:50 1510862390.235476: $GPZDA,195947.00,16,11,2017,00,00*62
2017-11-16 14:59:50 1510862390.235636: $GPGGA,195947,3946.9575,N,08404.9848,W,2,11,0.80,301.77,M,-33.324,M,,*75
2017-11-16 14:59:50 1510862390.235697: $GPRMC,195947,A,3946.9575,N,08404.9848,W,0.0000,0.000,161117,,*3A
2017-11-16 14:59:50 1510862390.235755: $GPGSA,A,3,8,10,15,18,21,20,24,27,32,14,138,,1.6,0.8,1.3*37
2017-11-16 14:59:50 1510862390.860930: $GPZDA,195948.00,16,11,2017,00,00*6D
2017-11-16 14:59:50 1510862390.861097: $GPGGA,195948,3946.9575,N,08404.9848,W,2,11,0.80,301.77,M,-33.324,M,,*7A
2017-11-16 14:59:50 1510862390.861158: $GPRMC,195948,A,3946.9575,N,08404.9848,W,0.0000,0.000,161117,,*35
2017-11-16 14:59:50 1510862390.861215: $GPGSA,A,3,8,10,15,18,21,20,24,27,32,14,138,,1.6,0.8,1.3*37
2017-11-16 14:59:51 1510862391.312999: $GPZDA,195949.00,16,11,2017,00,00*6C
2017-11-16 14:59:51 1510862391.313162: $GPGGA,195949,3946.9575,N,08404.9848,W,2,11,0.80,301.77,M,-33.324,M,,*7B
2017-11-16 14:59:51 1510862391.313223: $GPRMC,195949,A,3946.9575,N,08404.9848,W,0.0000,0.000,161117,,*34
2017-11-16 14:59:51 1510862391.313279: $GPGSA,A,3,8,10,15,18,21,20,24,27,32,14,138,,1.6,0.8,1.3*37
2017-11-16 14:59:52 1510862392.100070: $GPGSV,3,1,12,08,08,303,30,10,59,318,51,12,02,115,00,15,20,061,46*7F
2017-11-16 14:59:52 1510862392.100240: $GPGSV,3,2,12,18,77,057,46,21,41,181,45,20,17,111,43,24,51,073,48*75
2017-11-16 14:59:52 1510862392.100353: $GPGSV,3,3,12,27,12,268,42,32,37,255,44,14,21,244,43,138,38,213,44*43
2017-11-16 14:59:52 1510862392.213554: $GPZDA,195950.00,16,11,2017,00,00*64
2017-11-16 14:59:52 1510862392.213701: $GPGGA,195950,3946.9575,N,08404.9848,W,2,11,0.80,301.77,M,-33.324,M,,*73
2017-11-16 14:59:52 1510862392.213764: $GPRMC,195950,A,3946.9575,N,08404.9848,W,0.0000,0.000,161117,,*3C
2017-11-16 14:59:52 1510862392.213819: $GPGSA,A,3,8,10,15,18,21,20,24,27,32,14,138,,1.6,0.8,1.3*37
2017-11-16 14:59:52 1510862392.664285: $GPZDA,195951.00,16,11,2017,00,00*65
2017-11-16 14:59:52 1510862392.664454: $GPGGA,195951,3946.9575,N,08404.9848,W,2,11,0.80,301.77,M,-33.324,M,,*72
2017-11-16 14:59:52 1510862392.664517: $GPRMC,195951,A,3946.9575,N,08404.9848,W,0.0000,0.000,161117,,*3D
2017-11-16 14:59:52 1510862392.664573: $GPGSA,A,3,8,10,15,18,21,20,24,27,32,14,138,,1.6,0.8,1.3*37
2017-11-16 14:59:53 1510862393.497642: $GPZDA,195952.00,16,11,2017,00,00*66
2017-11-16 14:59:53 1510862393.497885: $GPGGA,195952,3946.9575,N,08404.9848,W,2,11,0.80,301.77,M,-33.324,M,,*71
2017-11-16 14:59:53 1510862393.497947: $GPRMC,195952,A,3946.9575,N,08404.9848,W,0.0000,0.000,161117,,*3E
2017-11-16 14:59:53 1510862393.498006: $GPGSA,A,3,8,10,15,18,21,20,24,27,32,14,138,,1.6,0.8,1.3*37
