2017-11-15 19:02:54 1510790574.302322: {"class":"VERSION","release":"3.17","rev":"3.17","proto_major":3,"proto_minor":12}
2017-11-15 19:02:55 1510790575.477463: {"class":"DEVICES","devices":[{"class":"DEVICE","path":"/dev/ttyUSB0","driver":"SiRF","subtype":"9\u0006GSD4e_4.1.2-P1_RPATCH.05-F-GPS-4R-1510281 11/03/2015 307","activated":"2017-11-16T00:02:54.216Z","flags":1,"native":1,"bps":4800,"parity":"N","stopbits":1,"cycle":1.00}]}
2017-11-15 19:02:55 1510790575.477652: {"class":"WATCH","enable":true,"json":false,"nmea":true,"raw":0,"scaled":false,"timing":false,"split24":false,"pps":false}
2017-11-15 19:02:55 1510790575.477724: $GPGSV,3,1,12,32,45,096,20,14,63,073,26,03,32,309,22,26,40,175,11*7E
2017-11-15 19:02:55 1510790575.477780: $GPGSV,3,2,12,31,76,355,25,16,11,190,12,22,47,288,21,25,26,045,08*78
2017-11-15 19:02:55 1510790575.477834: $GPGSV,3,3,12,10,08,159,00,01,12,262,08,29,06,082,00,138,38,213,00*44
2017-11-15 19:02:55 1510790575.477889: $GPZDA,000253.00,16,11,2017,00,00*61
2017-11-15 19:02:55 1510790575.477936: $GPGGA,000253,3946.9609,N,08404.9493,W,1,09,1.40,302.06,M,-33.324,M,,*76
2017-11-15 19:02:55 1510790575.477991: $GPRMC,000253,A,3946.9609,N,08404.9493,W,0.4179,148.778,161117,,*35
2017-11-15 19:02:55 1510790575.478044: $GPGSA,A,3,32,14,3,26,31,16,22,25,1,,,,3.4,1.4,2.9*3B
2017-11-15 19:02:55 1510790575.478096: $GPZDA,000254.00,16,11,2017,00,00*66
2017-11-15 19:02:55 1510790575.478143: $GPGGA,000254,3946.9609,N,08404.9493,W,1,09,1.00,302.06,M,-33.324,M,,*75
2017-11-15 19:02:55 1510790575.478197: $GPRMC,000254,A,3946.9609,N,08404.9493,W,0.2422,273.794,161117,,*36
2017-11-15 19:02:55 1510790575.478250: $GPGSA,A,3,32,14,3,26,31,16,22,25,1,,,,3.4,1.0,2.9*3F
2017-11-15 19:02:56 1510790576.330702: $GPZDA,000255.00,16,11,2017,00,00*67
2017-11-15 19:02:56 1510790576.330879: $GPGGA,000255,3946.9609,N,08404.9493,W,1,09,1.40,302.06,M,-33.324,M,,*70
2017-11-15 19:02:56 1510790576.330940: $GPRMC,000255,A,3946.9609,N,08404.9493,W,0.5287,182.716,161117,,*3E
2017-11-15 19:02:56 1510790576.330997: $GPGSA,A,3,32,14,3,26,31,16,22,25,1,,,,3.4,1.4,2.9*3B
2017-11-15 19:02:57 1510790577.666371: $GPGSV,3,1,12,32,45,096,20,14,63,073,26,03,32,309,22,26,40,175,12*7D
2017-11-15 19:02:57 1510790577.666542: $GPGSV,3,2,12,31,76,355,25,16,11,190,16,22,47,288,21,25,26,045,08*7C
2017-11-15 19:02:57 1510790577.666603: $GPGSV,3,3,12,10,08,159,00,01,12,262,06,29,06,082,00,138,38,213,00*4A
2017-11-15 19:02:57 1510790577.779752: $GPZDA,000256.00,16,11,2017,00,00*64
2017-11-15 19:02:57 1510790577.779935: $GPGGA,000256,3946.9609,N,08404.9493,W,1,09,1.40,302.06,M,-33.324,M,,*73
2017-11-15 19:02:57 1510790577.779997: $GPRMC,000256,A,3946.9609,N,08404.9493,W,0.5306,114.352,161117,,*3E
2017-11-15 19:02:57 1510790577.780053: $GPGSA,A,3,32,14,3,26,31,16,22,25,1,,,,3.4,1.4,2.9*3B
2017-11-15 19:02:58 1510790578.330622: $GPZDA,000257.00,16,11,2017,00,00*65
2017-11-15 19:02:58 1510790578.330822: $GPGGA,000257,3946.9613,N,08404.9492,W,1,09,1.00,301.29,M,-33.324,M,,*72
2017-11-15 19:02:58 1510790578.330885: $GPRMC,000257,A,3946.9613,N,08404.9492,W,0.5230,76.444,161117,,*04
2017-11-15 19:02:58 1510790578.330941: $GPGSA,A,3,32,14,3,26,31,16,22,25,1,,,,3.4,1.0,2.9*3F
2017-11-15 19:02:59 1510790579.330228: $GPZDA,000258.00,16,11,2017,00,00*6A
2017-11-15 19:02:59 1510790579.330397: $GPGGA,000258,3946.9613,N,08404.9492,W,1,09,1.00,301.29,M,-33.324,M,,*7D
2017-11-15 19:02:59 1510790579.330458: $GPRMC,000258,A,3946.9613,N,08404.9492,W,0.5617,31.295,161117,,*03
2017-11-15 19:02:59 1510790579.330515: $GPGSA,A,3,32,14,3,26,31,16,22,25,1,,,,3.4,1.0,2.9*3F
2017-11-15 19:03:00 1510790580.666017: $GPGSV,3,1,12,32,45,096,21,14,63,073,26,03,32,309,22,26,40,175,12*7C
2017-11-15 19:03:00 1510790580.666187: $GPGSV,3,2,12,31,76,355,25,16,11,190,16,22,47,288,21,25,26,045,08*7C
2017-11-15 19:03:00 1510790580.666247: $GPGSV,3,3,12,10,08,159,00,01,12,262,04,29,06,082,00,138,38,213,00*48
2017-11-15 19:03:00 1510790580.779350: $GPZDA,000259.00,16,11,2017,00,00*6B
2017-11-15 19:03:00 1510790580.779516: $GPGGA,000259,3946.9613,N,08404.9492,W,1,08,1.40,301.29,M,-33.324,M,,*79
2017-11-15 19:03:00 1510790580.779629: $GPRMC,000259,A,3946.9613,N,08404.9492,W,0.8414,39.347,161117,,*08
2017-11-15 19:03:00 1510790580.779707: $GPGSA,A,3,32,14,3,26,31,16,22,25,,,,,3.4,1.4,2.9*0A
2017-11-15 19:03:01 1510790581.404737: $GPZDA,000300.00,16,11,2017,00,00*66
2017-11-15 19:03:01 1510790581.404919: $GPGGA,000300,3946.9613,N,08404.9492,W,1,08,1.40,301.29,M,-33.324,M,,*74
2017-11-15 19:03:01 1510790581.404981: $GPRMC,000300,A,3946.9613,N,08404.9492,W,0.6846,4.197,161117,,*31
2017-11-15 19:03:01 1510790581.405037: $GPGSA,A,3,32,14,3,26,31,16,22,25,,,,,3.4,1.4,2.9*0A
2017-11-15 19:03:02 1510790582.330694: $GPZDA,000301.00,16,11,2017,00,00*67
2017-11-15 19:03:02 1510790582.330876: $GPGGA,000301,3946.9620,N,08404.9491,W,1,08,1.40,301.17,M,-33.324,M,,*7B
2017-11-15 19:03:02 1510790582.330938: $GPRMC,000301,A,3946.9620,N,08404.9491,W,0.7278,23.636,161117,,*0C
2017-11-15 19:03:02 1510790582.330994: $GPGSA,A,3,32,14,3,26,31,16,22,25,,,,,3.4,1.4,2.9*0A
2017-11-15 19:03:03 1510790583.665116: $GPGSV,3,1,12,32,45,096,20,14,63,073,26,03,32,309,23,26,40,175,14*7A
2017-11-15 19:03:03 1510790583.665291: $GPGSV,3,2,12,31,76,355,24,16,11,190,16,22,47,288,21,25,26,045,06*73
2017-11-15 19:03:03 1510790583.665351: $GPGSV,3,3,12,10,08,159,00,01,12,262,04,29,06,082,00,138,38,213,00*48
2017-11-15 19:03:03 1510790583.779183: $GPZDA,000302.00,16,11,2017,00,00*64
2017-11-15 19:03:03 1510790583.779348: $GPGGA,000302,3946.9620,N,08404.9484,W,1,08,1.40,301.25,M,-33.324,M,,*7D
2017-11-15 19:03:03 1510790583.779425: $GPRMC,000302,A,3946.9620,N,08404.9484,W,0.7621,107.945,161117,,*3F
2017-11-15 19:03:03 1510790583.779482: $GPGSA,A,3,32,14,3,26,31,16,22,25,,,,,3.4,1.4,2.9*0A
