2017-12-01 16:22:10 1512163330.453181: {"class":"VERSION","release":"3.16","rev":"3.16-4","proto_major":3,"proto_minor":11}
2017-12-01 16:22:10 1512163330.453583: {"class":"DEVICES","devices":[{"class":"DEVICE","path":"/dev/ttyUSB0","driver":"SiRF","subtype":"9\u0006GSD4e_4.1.2-P1_RPATCH.05-F-GPS-4R-1510281 11/03/2015 307","activated":"2017-12-01T21:22:10.418Z","flags":1,"native":1,"bps":4800,"parity":"N","stopbits":1,"cycle":1.00}]}
2017-12-01 16:22:10 1512163330.453699: {"class":"WATCH","enable":true,"json":false,"nmea":true,"raw":0,"scaled":false,"timing":false,"split24":false,"pps":false}
2017-12-01 16:22:11 1512163331.719175: $GPGSV,3,1,11,01,21,304,42,10,52,145,43,11,09,286,36,14,64,319,43*72
2017-12-01 16:22:11 1512163331.719356: $GPGSV,3,2,11,22,16,312,41,31,52,222,49,32,69,018,50,12,23,054,01*70
2017-12-01 16:22:11 1512163331.719441: $GPGSV,3,3,11,25,38,096,34,18,21,142,17,138,38,213,35*71
2017-12-01 16:22:11 1512163331.832633: $GPZDA,212212.00,01,12,2017,00,00*60
2017-12-01 16:22:11 1512163331.832805: $GPGGA,212212,3946.9648,N,08404.9716,W,2,10,1.20,291.92,M,-33.324,M,,*72
2017-12-01 16:22:11 1512163331.832873: $GPRMC,212212,A,3946.9648,N,08404.9716,W,0.0000,0.000,011217,,*31
2017-12-01 16:22:11 1512163331.832934: $GPGSA,A,3,1,10,11,14,22,31,32,25,18,138,,,2.0,1.2,1.5*35
2017-12-01 16:22:12 1512163332.380927: $GPZDA,212213.00,01,12,2017,00,00*61
2017-12-01 16:22:12 1512163332.387020: $GPGGA,212213,3946.9644,N,08404.9716,W,2,10,1.20,291.28,M,-33.324,M,,*7E
2017-12-01 16:22:12 1512163332.387150: $GPRMC,212213,A,3946.9644,N,08404.9716,W,0.2422,273.794,011217,,*36
2017-12-01 16:22:12 1512163332.387216: $GPGSA,A,3,1,10,11,14,22,31,32,25,18,138,,,2.0,1.2,1.5*35
2017-12-01 16:22:13 1512163333.384330: $GPZDA,212214.00,01,12,2017,00,00*66
2017-12-01 16:22:13 1512163333.384527: $GPGGA,212214,3946.9646,N,08404.9708,W,2,10,1.20,289.19,M,-33.324,M,,*7F
2017-12-01 16:22:13 1512163333.384596: $GPRMC,212214,A,3946.9646,N,08404.9708,W,0.0000,0.000,011217,,*36
2017-12-01 16:22:13 1512163333.384675: $GPGSA,A,3,1,10,11,14,22,31,32,25,18,138,,,2.0,1.2,1.5*35
2017-12-01 16:22:14 1512163334.719976: $GPGSV,3,1,11,01,21,304,42,10,52,145,43,11,09,286,35,14,64,319,43*71
2017-12-01 16:22:14 1512163334.720156: $GPGSV,3,2,11,22,16,312,41,31,52,222,49,32,69,018,50,12,23,054,08*79
2017-12-01 16:22:14 1512163334.720225: $GPGSV,3,3,11,25,38,096,34,18,21,142,21,138,38,213,38*79
2017-12-01 16:22:14 1512163334.833355: $GPZDA,212215.00,01,12,2017,00,00*67
2017-12-01 16:22:14 1512163334.833548: $GPGGA,212215,3946.9646,N,08404.9708,W,2,10,1.20,289.19,M,-33.324,M,,*7E
2017-12-01 16:22:14 1512163334.833616: $GPRMC,212215,A,3946.9646,N,08404.9708,W,0.0000,0.000,011217,,*37
2017-12-01 16:22:14 1512163334.833695: $GPGSA,A,3,1,10,11,14,22,31,32,25,18,138,,,2.0,1.2,1.5*35
2017-12-01 16:22:15 1512163335.381766: $GPZDA,212216.00,01,12,2017,00,00*64
2017-12-01 16:22:15 1512163335.381941: $GPGGA,212216,3946.9646,N,08404.9708,W,2,10,0.80,289.19,M,-33.324,M,,*76
2017-12-01 16:22:15 1512163335.382007: $GPRMC,212216,A,3946.9646,N,08404.9708,W,0.0000,0.000,011217,,*34
2017-12-01 16:22:15 1512163335.382068: $GPGSA,A,3,1,10,11,14,22,31,32,25,18,138,,,2.0,0.8,1.5*3E
2017-12-01 16:22:16 1512163336.382309: $GPZDA,212217.00,01,12,2017,00,00*65
2017-12-01 16:22:16 1512163336.382480: $GPGGA,212217,3946.9646,N,08404.9708,W,2,10,0.80,289.19,M,-33.324,M,,*77
2017-12-01 16:22:16 1512163336.382577: $GPRMC,212217,A,3946.9646,N,08404.9708,W,0.0000,0.000,011217,,*35
2017-12-01 16:22:16 1512163336.382666: $GPGSA,A,3,1,10,11,14,22,31,32,25,18,138,,,2.0,0.8,1.5*3E
2017-12-01 16:22:17 1512163337.719090: $GPGSV,3,1,11,01,21,304,43,10,52,145,43,11,09,286,35,14,64,319,43*70
2017-12-01 16:22:17 1512163337.720760: $GPGSV,3,2,11,22,16,312,41,31,52,222,49,32,69,018,50,12,23,054,22*71
2017-12-01 16:22:17 1512163337.720867: $GPGSV,3,3,11,25,38,096,34,18,21,142,21,138,38,213,40*76
2017-12-01 16:22:17 1512163337.832554: $GPZDA,212218.00,01,12,2017,00,00*6A
2017-12-01 16:22:17 1512163337.832738: $GPGGA,212218,3946.9646,N,08404.9708,W,2,11,0.80,289.19,M,-33.324,M,,*79
2017-12-01 16:22:17 1512163337.832852: $GPRMC,212218,A,3946.9646,N,08404.9708,W,0.0000,0.000,011217,,*3A
2017-12-01 16:22:17 1512163337.832915: $GPGSA,A,3,1,10,11,14,22,31,32,12,25,18,138,,2.0,0.8,1.5*3D
2017-12-01 16:22:18 1512163338.380992: $GPZDA,212219.00,01,12,2017,00,00*6B
2017-12-01 16:22:18 1512163338.381256: $GPGGA,212219,3946.9646,N,08404.9708,W,2,11,1.20,289.19,M,-33.324,M,,*73
2017-12-01 16:22:18 1512163338.381471: $GPRMC,212219,A,3946.9646,N,08404.9708,W,0.0000,0.000,011217,,*3B
2017-12-01 16:22:18 1512163338.381554: $GPGSA,A,3,1,10,11,14,22,31,32,12,25,18,138,,2.0,1.2,1.5*36
2017-12-01 16:22:19 1512163339.384296: $GPZDA,212220.00,01,12,2017,00,00*61
2017-12-01 16:22:19 1512163339.384473: $GPGGA,212220,3946.9646,N,08404.9708,W,2,11,1.20,289.19,M,-33.324,M,,*79
2017-12-01 16:22:19 1512163339.384546: $GPRMC,212220,A,3946.9646,N,08404.9708,W,0.0000,0.000,011217,,*31
2017-12-01 16:22:19 1512163339.384609: $GPGSA,A,3,1,10,11,14,22,31,32,12,25,18,138,,2.0,1.2,1.5*36
2017-12-01 16:22:20 1512163340.716294: $GPGSV,3,1,11,01,21,304,43,10,52,145,43,11,09,286,35,14,64,319,42*71
2017-12-01 16:22:20 1512163340.716457: $GPGSV,3,2,11,22,16,312,41,31,52,222,48,32,69,018,50,18,21,142,16*79
2017-12-01 16:22:20 1512163340.716524: $GPGSV,3,3,11,12,23,054,00,25,38,096,33,138,38,213,40*7C
2017-12-01 16:22:20 1512163340.829739: $GPZDA,212221.00,01,12,2017,00,00*60
2017-12-01 16:22:20 1512163340.829912: $GPGGA,212221,3946.9646,N,08404.9708,W,2,09,1.20,289.19,M,-33.324,M,,*71
2017-12-01 16:22:20 1512163340.829978: $GPRMC,212221,A,3946.9646,N,08404.9708,W,0.0000,0.000,011217,,*30
2017-12-01 16:22:20 1512163340.830039: $GPGSA,A,3,1,10,11,14,22,31,32,25,138,,,,2.0,1.2,1.5*3C
2017-12-01 16:22:21 1512163341.454993: $GPZDA,212222.00,01,12,2017,00,00*63
2017-12-01 16:22:21 1512163341.455156: $GPGGA,212222,3946.9646,N,08404.9708,W,2,09,0.80,289.19,M,-33.324,M,,*79
2017-12-01 16:22:21 1512163341.455223: $GPRMC,212222,A,3946.9646,N,08404.9708,W,0.0000,0.000,011217,,*33
2017-12-01 16:22:21 1512163341.455283: $GPGSA,A,3,1,10,11,14,22,31,32,25,138,,,,2.0,0.8,1.5*37
2017-12-01 16:22:22 1512163342.382222: $GPZDA,212223.00,01,12,2017,00,00*62
2017-12-01 16:22:22 1512163342.382402: $GPGGA,212223,3946.9646,N,08404.9708,W,2,09,0.80,289.19,M,-33.324,M,,*78
2017-12-01 16:22:22 1512163342.382472: $GPRMC,212223,A,3946.9646,N,08404.9708,W,0.0000,0.000,011217,,*32
2017-12-01 16:22:22 1512163342.382532: $GPGSA,A,3,1,10,11,14,22,31,32,25,138,,,,2.0,0.8,1.5*37
2017-12-01 16:22:23 1512163343.717817: $GPGSV,3,1,11,01,21,304,42,10,52,145,43,11,09,286,35,14,64,319,43*71
2017-12-01 16:22:23 1512163343.717996: $GPGSV,3,2,11,22,16,312,42,31,52,222,48,32,69,018,49,18,21,142,22*75
2017-12-01 16:22:23 1512163343.718063: $GPGSV,3,3,11,12,23,054,24,25,38,096,28,138,38,213,38*7F
2017-12-01 16:22:23 1512163343.831175: $GPZDA,212224.00,01,12,2017,00,00*65
2017-12-01 16:22:23 1512163343.831320: $GPGGA,212224,3946.9646,N,08404.9708,W,2,11,0.80,289.19,M,-33.324,M,,*76
2017-12-01 16:22:23 1512163343.831454: $GPRMC,212224,A,3946.9646,N,08404.9708,W,0.0000,0.000,011217,,*35
2017-12-01 16:22:23 1512163343.831516: $GPGSA,A,3,1,10,11,14,22,31,32,18,12,25,138,,2.0,0.8,1.5*3D
2017-12-01 16:22:24 1512163344.387049: $GPZDA,212225.00,01,12,2017,00,00*64
2017-12-01 16:22:24 1512163344.387225: $GPGGA,212225,3946.9646,N,08404.9708,W,2,11,0.80,289.19,M,-33.324,M,,*77
2017-12-01 16:22:24 1512163344.387294: $GPRMC,212225,A,3946.9646,N,08404.9708,W,0.0000,0.000,011217,,*34
2017-12-01 16:22:24 1512163344.387356: $GPGSA,A,3,1,10,11,14,22,31,32,18,12,25,138,,2.0,0.8,1.5*3D
2017-12-01 16:22:25 1512163345.389181: $GPZDA,212226.00,01,12,2017,00,00*67
2017-12-01 16:22:25 1512163345.389351: $GPGGA,212226,3946.9646,N,08404.9708,W,2,11,0.80,289.19,M,-33.324,M,,*74
2017-12-01 16:22:25 1512163345.389418: $GPRMC,212226,A,3946.9646,N,08404.9708,W,0.0000,0.000,011217,,*37
2017-12-01 16:22:25 1512163345.389479: $GPGSA,A,3,1,10,11,14,22,31,32,18,12,25,138,,2.0,0.8,1.5*3D
2017-12-01 16:22:26 1512163346.715686: $GPGSV,3,1,11,01,21,304,43,10,52,145,44,11,09,286,35,14,64,319,43*77
2017-12-01 16:22:26 1512163346.715897: $GPGSV,3,2,11,22,16,312,42,31,52,222,48,32,69,018,49,18,21,142,25*72
2017-12-01 16:22:26 1512163346.715966: $GPGSV,3,3,11,12,23,054,24,25,38,096,28,138,38,213,40*70
2017-12-01 16:22:26 1512163346.829173: $GPZDA,212227.00,01,12,2017,00,00*66
2017-12-01 16:22:26 1512163346.829335: $GPGGA,212227,3946.9646,N,08404.9708,W,2,11,0.80,289.19,M,-33.324,M,,*75
2017-12-01 16:22:26 1512163346.829401: $GPRMC,212227,A,3946.9646,N,08404.9708,W,0.0000,0.000,011217,,*36
2017-12-01 16:22:26 1512163346.829462: $GPGSA,A,3,1,10,11,14,22,31,32,18,12,25,138,,2.0,0.8,1.5*3D
2017-12-01 16:22:27 1512163347.384958: $GPZDA,212228.00,01,12,2017,00,00*69
2017-12-01 16:22:27 1512163347.385131: $GPGGA,212228,3946.9646,N,08404.9708,W,2,11,0.80,289.19,M,-33.324,M,,*7A
2017-12-01 16:22:27 1512163347.385198: $GPRMC,212228,A,3946.9646,N,08404.9708,W,0.0000,0.000,011217,,*39
2017-12-01 16:22:27 1512163347.385260: $GPGSA,A,3,1,10,11,14,22,31,32,18,12,25,138,,2.0,0.8,1.5*3D
2017-12-01 16:22:28 1512163348.385812: $GPZDA,212229.00,01,12,2017,00,00*68
2017-12-01 16:22:28 1512163348.385996: $GPGGA,212229,3946.9646,N,08404.9708,W,2,11,0.80,289.19,M,-33.324,M,,*7B
2017-12-01 16:22:28 1512163348.386089: $GPRMC,212229,A,3946.9646,N,08404.9708,W,0.0000,0.000,011217,,*38
2017-12-01 16:22:28 1512163348.386154: $GPGSA,A,3,1,10,11,14,22,31,32,18,12,25,138,,2.0,0.8,1.5*3D
2017-12-01 16:22:29 1512163349.722792: $GPGSV,3,1,11,01,21,304,43,10,52,145,44,11,09,286,35,14,64,319,43*77
2017-12-01 16:22:29 1512163349.722967: $GPGSV,3,2,11,22,16,312,42,31,52,222,48,32,69,018,50,18,21,142,25*7A
2017-12-01 16:22:29 1512163349.723033: $GPGSV,3,3,11,12,23,054,25,25,38,096,28,138,38,213,41*70
2017-12-01 16:22:29 1512163349.835175: $GPZDA,212230.00,01,12,2017,00,00*60
2017-12-01 16:22:29 1512163349.835322: $GPGGA,212230,3946.9646,N,08404.9708,W,2,11,0.80,289.19,M,-33.324,M,,*73
2017-12-01 16:22:29 1512163349.835386: $GPRMC,212230,A,3946.9646,N,08404.9708,W,0.0000,0.000,011217,,*30
2017-12-01 16:22:29 1512163349.835446: $GPGSA,A,3,1,10,11,14,22,31,32,18,12,25,138,,2.0,0.8,1.5*3D
2017-12-01 16:22:30 1512163350.385838: $GPZDA,212231.00,01,12,2017,00,00*61
2017-12-01 16:22:30 1512163350.386007: $GPGGA,212231,3946.9646,N,08404.9708,W,2,11,0.80,289.19,M,-33.324,M,,*72
2017-12-01 16:22:30 1512163350.386074: $GPRMC,212231,A,3946.9646,N,08404.9708,W,0.0000,0.000,011217,,*31
2017-12-01 16:22:30 1512163350.386134: $GPGSA,A,3,1,10,11,14,22,31,32,18,12,25,138,,2.0,0.8,1.5*3D
