2017-12-01 13:10:25 1512151825.008781: {"class":"VERSION","release":"3.16","rev":"3.16-4","proto_major":3,"proto_minor":11}
2017-12-01 13:10:25 1512151825.009161: {"class":"DEVICES","devices":[{"class":"DEVICE","path":"/dev/ttyUSB0","driver":"SiRF","subtype":"9\u0006GSD4e_4.1.2-P1_RPATCH.05-F-GPS-4R-1510281 11/03/2015 307","activated":"2017-12-01T18:10:25.006Z","flags":1,"native":1,"bps":4800,"parity":"N","stopbits":1,"cycle":1.00}]}
2017-12-01 13:10:25 1512151825.009277: {"class":"WATCH","enable":true,"json":false,"nmea":true,"raw":0,"scaled":false,"timing":false,"split24":false,"pps":false}
2017-12-01 13:10:25 1512151825.434612: $GPZDA,181026.00,01,12,2017,00,00*6C
2017-12-01 13:10:25 1512151825.434790: $GPGGA,181026,3946.9568,N,08404.9871,W,2,11,0.80,292.39,M,-33.324,M,,*79
2017-12-01 13:10:25 1512151825.434860: $GPRMC,181026,A,3946.9568,N,08404.9871,W,0.0000,0.000,011217,,*32
2017-12-01 13:10:25 1512151825.434921: $GPGSA,A,3,8,10,15,18,20,21,24,32,27,13,138,,2.0,0.8,1.5*33
2017-12-01 13:10:26 1512151826.429187: $GPZDA,181027.00,01,12,2017,00,00*6D
2017-12-01 13:10:26 1512151826.429362: $GPGGA,181027,3946.9568,N,08404.9871,W,2,11,0.80,292.39,M,-33.324,M,,*78
2017-12-01 13:10:26 1512151826.429430: $GPRMC,181027,A,3946.9568,N,08404.9871,W,0.0000,0.000,011217,,*33
2017-12-01 13:10:26 1512151826.429491: $GPGSA,A,3,8,10,15,18,20,21,24,32,27,13,138,,2.0,0.8,1.5*33
2017-12-01 13:10:27 1512151827.753607: $GPGSV,3,1,12,08,05,322,29,10,41,300,45,15,38,052,48,18,70,334,44*75
2017-12-01 13:10:27 1512151827.753788: $GPGSV,3,2,12,20,34,094,46,21,64,190,45,24,50,112,47,32,20,237,41*7B
2017-12-01 13:10:27 1512151827.753854: $GPGSV,3,3,12,27,19,291,32,13,08,048,28,14,03,232,00,138,38,213,46*46
2017-12-01 13:10:27 1512151827.866996: $GPZDA,181028.00,01,12,2017,00,00*62
2017-12-01 13:10:27 1512151827.867139: $GPGGA,181028,3946.9568,N,08404.9871,W,2,11,0.80,292.39,M,-33.324,M,,*77
2017-12-01 13:10:27 1512151827.867206: $GPRMC,181028,A,3946.9568,N,08404.9871,W,0.0000,0.000,011217,,*3C
2017-12-01 13:10:27 1512151827.867267: $GPGSA,A,3,8,10,15,18,20,21,24,32,27,13,138,,2.0,0.8,1.5*33
2017-12-01 13:10:28 1512151828.492569: $GPZDA,181029.00,01,12,2017,00,00*63
2017-12-01 13:10:28 1512151828.492743: $GPGGA,181029,3946.9568,N,08404.9871,W,2,11,0.80,292.39,M,-33.324,M,,*76
2017-12-01 13:10:28 1512151828.492809: $GPRMC,181029,A,3946.9568,N,08404.9871,W,0.0000,0.000,011217,,*3D
2017-12-01 13:10:28 1512151828.492870: $GPGSA,A,3,8,10,15,18,20,21,24,32,27,13,138,,2.0,0.8,1.5*33
2017-12-01 13:10:29 1512151829.433316: $GPZDA,181030.00,01,12,2017,00,00*6B
2017-12-01 13:10:29 1512151829.433489: $GPGGA,181030,3946.9568,N,08404.9871,W,2,11,0.80,292.39,M,-33.324,M,,*7E
2017-12-01 13:10:29 1512151829.433556: $GPRMC,181030,A,3946.9568,N,08404.9871,W,0.0000,0.000,011217,,*35
2017-12-01 13:10:29 1512151829.433637: $GPGSA,A,3,8,10,15,18,20,21,24,32,27,13,138,,2.0,0.8,1.5*33
2017-12-01 13:10:30 1512151830.751473: $GPGSV,3,1,12,08,05,322,25,10,41,300,44,15,38,052,48,18,70,334,44*78
2017-12-01 13:10:30 1512151830.751671: $GPGSV,3,2,12,20,34,094,46,21,64,190,45,24,50,112,47,32,20,237,41*7B
2017-12-01 13:10:30 1512151830.751737: $GPGSV,3,3,12,27,19,291,33,13,08,048,28,14,03,232,00,138,38,213,46*47
2017-12-01 13:10:30 1512151830.865006: $GPZDA,181031.00,01,12,2017,00,00*6A
2017-12-01 13:10:30 1512151830.865143: $GPGGA,181031,3946.9568,N,08404.9871,W,2,11,0.80,292.39,M,-33.324,M,,*7F
2017-12-01 13:10:30 1512151830.865224: $GPRMC,181031,A,3946.9568,N,08404.9871,W,0.0000,0.000,011217,,*34
2017-12-01 13:10:30 1512151830.865286: $GPGSA,A,3,8,10,15,18,20,21,24,32,27,13,138,,2.0,0.8,1.5*33
2017-12-01 13:10:31 1512151831.435963: $GPZDA,181032.00,01,12,2017,00,00*69
2017-12-01 13:10:31 1512151831.436140: $GPGGA,181032,3946.9568,N,08404.9871,W,2,11,0.80,292.39,M,-33.324,M,,*7C
2017-12-01 13:10:31 1512151831.436207: $GPRMC,181032,A,3946.9568,N,08404.9871,W,0.0000,0.000,011217,,*37
2017-12-01 13:10:31 1512151831.436268: $GPGSA,A,3,8,10,15,18,20,21,24,32,27,13,138,,2.0,0.8,1.5*33
2017-12-01 13:10:32 1512151832.417823: $GPZDA,181033.00,01,12,2017,00,00*68
2017-12-01 13:10:32 1512151832.418051: $GPGGA,181033,3946.9568,N,08404.9871,W,2,11,0.80,292.39,M,-33.324,M,,*7D
2017-12-01 13:10:32 1512151832.418120: $GPRMC,181033,A,3946.9568,N,08404.9871,W,0.0000,0.000,011217,,*36
2017-12-01 13:10:32 1512151832.418181: $GPGSA,A,3,8,10,15,18,20,21,24,32,27,13,138,,2.0,0.8,1.5*33
2017-12-01 13:10:33 1512151833.754369: $GPGSV,3,1,12,08,05,322,30,10,41,300,44,15,38,052,48,18,70,334,44*7C
2017-12-01 13:10:33 1512151833.754569: $GPGSV,3,2,12,20,34,094,46,21,64,190,45,24,50,112,47,32,20,237,41*7B
2017-12-01 13:10:33 1512151833.754636: $GPGSV,3,3,12,27,19,291,28,13,08,048,28,14,03,232,00,138,38,213,46*4D
2017-12-01 13:10:33 1512151833.867683: $GPZDA,181034.00,01,12,2017,00,00*6F
2017-12-01 13:10:33 1512151833.867854: $GPGGA,181034,3946.9568,N,08404.9871,W,2,11,0.80,292.39,M,-33.324,M,,*7A
2017-12-01 13:10:33 1512151833.867921: $GPRMC,181034,A,3946.9568,N,08404.9871,W,0.0000,0.000,011217,,*31
2017-12-01 13:10:33 1512151833.867982: $GPGSA,A,3,8,10,15,18,20,21,24,32,27,13,138,,2.0,0.8,1.5*33
2017-12-01 13:10:34 1512151834.417297: $GPZDA,181035.00,01,12,2017,00,00*6E
2017-12-01 13:10:34 1512151834.417466: $GPGGA,181035,3946.9568,N,08404.9871,W,2,11,0.80,292.39,M,-33.324,M,,*7B
2017-12-01 13:10:34 1512151834.417533: $GPRMC,181035,A,3946.9568,N,08404.9871,W,0.0000,0.000,011217,,*30
2017-12-01 13:10:34 1512151834.417594: $GPGSA,A,3,8,10,15,18,20,21,24,32,27,13,138,,2.0,0.8,1.5*33
