2017-11-15 19:15:10 1510791310.525331: {"class":"VERSION","release":"3.17","rev":"3.17","proto_major":3,"proto_minor":12}
2017-11-15 19:15:10 1510791310.525835: {"class":"DEVICES","devices":[{"class":"DEVICE","path":"/dev/ttyUSB0","driver":"SiRF","subtype":"9\u0006GSD4e_4.1.2-P1_RPATCH.05-F-GPS-4R-1510281 11/03/2015 307","activated":"2017-11-16T00:15:10.512Z","flags":1,"native":1,"bps":4800,"parity":"N","stopbits":1,"cycle":1.00}]}
2017-11-15 19:15:10 1510791310.525958: {"class":"WATCH","enable":true,"json":false,"nmea":true,"raw":0,"scaled":false,"timing":false,"split24":false,"pps":false}
2017-11-15 19:15:11 1510791311.346265: $GPZDA,001510.00,16,11,2017,00,00*60
2017-11-15 19:15:11 1510791311.346430: $GPGGA,001510,3946.9654,N,08404.9575,W,1,09,0.80,304.70,M,-33.324,M,,*7C
2017-11-15 19:15:11 1510791311.346489: $GPRMC,001510,A,3946.9654,N,08404.9575,W,0.5951,238.684,161117,,*30
2017-11-15 19:15:11 1510791311.346546: $GPGSA,A,3,32,14,22,26,31,16,3,1,29,,,,3.4,0.8,2.9*3A
2017-11-15 19:15:12 1510791312.666944: $GPGSV,3,1,12,32,42,100,18,14,60,081,23,22,49,282,15,26,45,175,21*78
2017-11-15 19:15:12 1510791312.667269: $GPGSV,3,2,12,31,73,009,24,16,15,190,12,03,35,306,16,01,10,258,11*72
2017-11-15 19:15:12 1510791312.667397: $GPGSV,3,3,12,29,08,078,07,25,23,043,00,23,06,297,00,133,44,201,00*49
2017-11-15 19:15:12 1510791312.780114: $GPZDA,001511.00,16,11,2017,00,00*61
2017-11-15 19:15:12 1510791312.780310: $GPGGA,001511,3946.9654,N,08404.9575,W,1,09,1.40,304.70,M,-33.324,M,,*70
2017-11-15 19:15:12 1510791312.780405: $GPRMC,001511,A,3946.9654,N,08404.9575,W,0.4844,273.794,161117,,*3A
2017-11-15 19:15:12 1510791312.780462: $GPGSA,A,3,32,14,22,26,31,16,3,1,29,,,,3.4,1.4,2.9*37
2017-11-15 19:15:13 1510791313.347482: $GPZDA,001512.00,16,11,2017,00,00*62
2017-11-15 19:15:13 1510791313.347640: $GPGGA,001512,3946.9654,N,08404.9575,W,1,09,1.40,304.70,M,-33.324,M,,*73
2017-11-15 19:15:13 1510791313.347701: $GPRMC,001512,A,3946.9654,N,08404.9575,W,0.3155,309.994,161117,,*35
2017-11-15 19:15:13 1510791313.347757: $GPGSA,A,3,32,14,22,26,31,16,3,1,29,,,,3.4,1.4,2.9*37
2017-11-15 19:15:14 1510791314.329292: $GPZDA,001513.00,16,11,2017,00,00*63
2017-11-15 19:15:14 1510791314.329479: $GPGGA,001513,3946.9654,N,08404.9575,W,1,09,1.40,304.70,M,-33.324,M,,*72
2017-11-15 19:15:14 1510791314.329542: $GPRMC,001513,A,3946.9654,N,08404.9575,W,0.2422,273.794,161117,,*32
2017-11-15 19:15:14 1510791314.329599: $GPGSA,A,3,32,14,22,26,31,16,3,1,29,,,,3.4,1.4,2.9*37
2017-11-15 19:15:15 1510791315.681476: $GPGSV,3,1,12,32,42,100,18,14,60,081,23,22,49,282,16,26,45,175,21*7B
2017-11-15 19:15:15 1510791315.681651: $GPGSV,3,2,12,31,73,009,24,16,15,190,11,03,35,306,16,01,10,258,11*71
2017-11-15 19:15:15 1510791315.681711: $GPGSV,3,3,12,29,08,078,06,25,23,043,00,23,06,297,00,133,44,201,00*48
2017-11-15 19:15:15 1510791315.794924: $GPZDA,001514.00,16,11,2017,00,00*64
2017-11-15 19:15:15 1510791315.795079: $GPGGA,001514,3946.9654,N,08404.9582,W,1,08,1.40,304.62,M,-33.324,M,,*7F
2017-11-15 19:15:15 1510791315.795138: $GPRMC,001514,A,3946.9654,N,08404.9582,W,0.5306,294.352,161117,,*3C
2017-11-15 19:15:15 1510791315.795194: $GPGSA,A,3,32,14,22,26,31,16,3,1,,,,,3.4,1.4,2.9*3C
2017-11-15 19:15:16 1510791316.420003: $GPZDA,001515.00,16,11,2017,00,00*65
2017-11-15 19:15:16 1510791316.420164: $GPGGA,001515,3946.9654,N,08404.9582,W,1,08,1.40,304.62,M,-33.324,M,,*7E
2017-11-15 19:15:16 1510791316.420254: $GPRMC,001515,A,3946.9654,N,08404.9582,W,0.4179,328.778,161117,,*3C
2017-11-15 19:15:16 1510791316.420312: $GPGSA,A,3,32,14,22,26,31,16,3,1,,,,,3.4,1.4,2.9*3C
2017-11-15 19:15:17 1510791317.346102: $GPZDA,001516.00,16,11,2017,00,00*66
2017-11-15 19:15:17 1510791317.346305: $GPGGA,001516,3946.9657,N,08404.9581,W,1,08,1.40,303.85,M,-33.324,M,,*73
2017-11-15 19:15:17 1510791317.346391: $GPRMC,001516,A,3946.9657,N,08404.9581,W,0.7278,23.636,161117,,*0D
2017-11-15 19:15:17 1510791317.346468: $GPGSA,A,3,32,14,22,26,31,16,3,1,,,,,3.4,1.4,2.9*3C
2017-11-15 19:15:18 1510791318.665526: $GPGSV,3,1,12,32,42,100,18,14,60,081,24,22,49,282,17,26,45,175,21*7D
2017-11-15 19:15:18 1510791318.665748: $GPGSV,3,2,12,31,73,009,24,16,15,190,09,03,35,306,16,01,10,258,10*79
2017-11-15 19:15:18 1510791318.665809: $GPGSV,3,3,12,29,08,078,04,25,23,043,00,23,06,297,00,133,44,201,00*4A
2017-11-15 19:15:18 1510791318.778828: $GPZDA,001517.00,16,11,2017,00,00*67
2017-11-15 19:15:18 1510791318.779169: $GPGGA,001517,3946.9657,N,08404.9574,W,1,08,1.40,303.93,M,-33.324,M,,*7F
2017-11-15 19:15:18 1510791318.779325: $GPRMC,001517,A,3946.9657,N,08404.9574,W,0.4207,39.347,161117,,*05
2017-11-15 19:15:18 1510791318.779446: $GPGSA,A,3,32,14,22,26,31,16,3,1,,,,,3.4,1.4,2.9*3C
2017-11-15 19:15:19 1510791319.347455: $GPZDA,001518.00,16,11,2017,00,00*68
2017-11-15 19:15:19 1510791319.347636: $GPGGA,001518,3946.9661,N,08404.9574,W,1,08,1.40,304.57,M,-33.324,M,,*7A
2017-11-15 19:15:19 1510791319.347697: $GPRMC,001518,A,3946.9661,N,08404.9574,W,0.4207,39.347,161117,,*0F
2017-11-15 19:15:19 1510791319.347754: $GPGSA,A,3,32,14,22,26,31,16,3,1,,,,,3.4,1.4,2.9*3C
2017-11-15 19:15:20 1510791320.348188: $GPZDA,001519.00,16,11,2017,00,00*69
2017-11-15 19:15:20 1510791320.348418: $GPGGA,001519,3946.9661,N,08404.9574,W,1,08,1.40,304.57,M,-33.324,M,,*7B
2017-11-15 19:15:20 1510791320.348480: $GPRMC,001519,A,3946.9661,N,08404.9574,W,0.3423,4.197,161117,,*38
2017-11-15 19:15:20 1510791320.348536: $GPGSA,A,3,32,14,22,26,31,16,3,1,,,,,3.4,1.4,2.9*3C
