2017-12-31 17:04:24 1514757864.737588: {"class":"VERSION","release":"3.16","rev":"3.16-4","proto_major":3,"proto_minor":11}
2017-12-31 17:04:24 1514757864.737984: {"class":"DEVICES","devices":[{"class":"DEVICE","path":"/dev/ttyUSB0","driver":"SiRF","activated":"2017-12-31T22:04:24.671Z","flags":1,"native":1,"bps":4800,"parity":"N","stopbits":1,"cycle":1.00}]}
2017-12-31 17:04:24 1514757864.738084: {"class":"WATCH","enable":true,"json":false,"nmea":true,"raw":0,"scaled":false,"timing":false,"split24":false,"pps":false}
2017-12-31 17:04:24 1514757864.787272: $GPZDA,220425.00,31,12,2017,00,00*60
2017-12-31 17:04:24 1514757864.787423: $GPGGA,220425,3946.9587,N,08404.9854,W,2,11,1.00,302.21,M,-33.324,M,,*78
2017-12-31 17:04:24 1514757864.787556: $GPRMC,220425,A,3946.9587,N,08404.9854,W,0.0000,0.000,311217,,*38
2017-12-31 17:04:24 1514757864.787781: $GPGSA,A,3,22,23,25,3,16,29,31,14,32,26,135,,1.7,1.0,1.3*3B
2017-12-31 17:04:25 1514757865.410536: $GPZDA,220426.00,31,12,2017,00,00*63
2017-12-31 17:04:25 1514757865.410706: $GPGGA,220426,3946.9587,N,08404.9854,W,2,11,1.00,302.21,M,-33.324,M,,*7B
2017-12-31 17:04:25 1514757865.410790: $GPRMC,220426,A,3946.9587,N,08404.9854,W,0.0000,0.000,311217,,*3B
2017-12-31 17:04:25 1514757865.410852: $GPGSA,A,3,22,23,25,3,16,29,31,14,32,26,135,,1.7,1.0,1.3*3B
2017-12-31 17:04:26 1514757866.343704: $GPZDA,220427.00,31,12,2017,00,00*62
2017-12-31 17:04:26 1514757866.343892: $GPGGA,220427,3946.9587,N,08404.9854,W,2,11,1.00,302.21,M,-33.324,M,,*7A
2017-12-31 17:04:26 1514757866.343961: $GPRMC,220427,A,3946.9587,N,08404.9854,W,0.0000,0.000,311217,,*3A
2017-12-31 17:04:26 1514757866.344023: $GPGSA,A,3,22,23,25,3,16,29,31,14,32,26,135,,1.7,1.0,1.3*3B
2017-12-31 17:04:27 1514757867.695645: $GPGSV,3,1,11,22,44,240,42,23,27,307,36,25,02,037,10,03,46,271,42*7D
2017-12-31 17:04:27 1514757867.695835: $GPGSV,3,2,11,16,46,190,44,29,14,055,32,31,50,051,50,14,40,114,37*7D
2017-12-31 17:04:27 1514757867.695901: $GPGSV,3,3,11,32,19,123,41,26,74,142,46,135,22,240,43*71
2017-12-31 17:04:27 1514757867.809321: $GPZDA,220428.00,31,12,2017,00,00*6D
2017-12-31 17:04:27 1514757867.809490: $GPGGA,220428,3946.9587,N,08404.9854,W,2,11,1.00,302.21,M,-33.324,M,,*75
2017-12-31 17:04:27 1514757867.809556: $GPRMC,220428,A,3946.9587,N,08404.9854,W,0.0000,0.000,311217,,*35
2017-12-31 17:04:27 1514757867.809638: $GPGSA,A,3,22,23,25,3,16,29,31,14,32,26,135,,1.7,1.0,1.3*3B
2017-12-31 17:04:28 1514757868.343946: $GPZDA,220429.00,31,12,2017,00,00*6C
2017-12-31 17:04:28 1514757868.344113: $GPGGA,220429,3946.9587,N,08404.9854,W,2,11,1.00,302.21,M,-33.324,M,,*74
2017-12-31 17:04:28 1514757868.344180: $GPRMC,220429,A,3946.9587,N,08404.9854,W,0.0000,0.000,311217,,*34
2017-12-31 17:04:28 1514757868.344241: $GPGSA,A,3,22,23,25,3,16,29,31,14,32,26,135,,1.7,1.0,1.3*3B
2017-12-31 17:04:29 1514757869.359816: $GPZDA,220430.00,31,12,2017,00,00*64
2017-12-31 17:04:29 1514757869.359998: $GPGGA,220430,3946.9587,N,08404.9854,W,2,11,1.00,302.21,M,-33.324,M,,*7C
2017-12-31 17:04:29 1514757869.360067: $GPRMC,220430,A,3946.9587,N,08404.9854,W,0.0000,0.000,311217,,*3C
2017-12-31 17:04:29 1514757869.360127: $GPGSA,A,3,22,23,25,3,16,29,31,14,32,26,135,,1.7,1.0,1.3*3B
2017-12-31 17:04:30 1514757870.673483: $GPGSV,3,1,11,22,44,240,42,23,27,307,36,25,02,037,05,03,46,271,41*7A
2017-12-31 17:04:30 1514757870.673693: $GPGSV,3,2,11,16,46,190,44,29,14,055,32,31,50,051,51,14,40,114,37*7C
2017-12-31 17:04:30 1514757870.673760: $GPGSV,3,3,11,32,19,123,41,26,74,142,46,135,22,240,42*70
2017-12-31 17:04:30 1514757870.787340: $GPZDA,220431.00,31,12,2017,00,00*65
2017-12-31 17:04:30 1514757870.787511: $GPGGA,220431,3946.9587,N,08404.9854,W,2,10,1.00,302.21,M,-33.324,M,,*7C
2017-12-31 17:04:30 1514757870.787604: $GPRMC,220431,A,3946.9587,N,08404.9854,W,0.0000,0.000,311217,,*3D
2017-12-31 17:04:30 1514757870.787666: $GPGSA,A,3,22,23,3,16,29,31,14,32,26,135,,,1.7,1.0,1.3*3C
2017-12-31 17:04:31 1514757871.345606: $GPZDA,220432.00,31,12,2017,00,00*66
2017-12-31 17:04:31 1514757871.345772: $GPGGA,220432,3946.9587,N,08404.9854,W,2,10,1.00,302.21,M,-33.324,M,,*7F
2017-12-31 17:04:31 1514757871.345894: $GPRMC,220432,A,3946.9587,N,08404.9854,W,0.0000,0.000,311217,,*3E
2017-12-31 17:04:31 1514757871.345958: $GPGSA,A,3,22,23,3,16,29,31,14,32,26,135,,,1.7,1.0,1.3*3C
2017-12-31 17:04:32 1514757872.336551: $GPZDA,220433.00,31,12,2017,00,00*67
2017-12-31 17:04:32 1514757872.336730: $GPGGA,220433,3946.9587,N,08404.9854,W,2,10,1.00,302.21,M,-33.324,M,,*7E
2017-12-31 17:04:32 1514757872.336798: $GPRMC,220433,A,3946.9587,N,08404.9854,W,0.0000,0.000,311217,,*3F
2017-12-31 17:04:32 1514757872.336860: $GPGSA,A,3,22,23,3,16,29,31,14,32,26,135,,,1.7,1.0,1.3*3C
2017-12-31 17:04:33 1514757873.695630: $GPGSV,3,1,11,22,44,240,42,23,27,307,36,25,02,037,07,03,46,271,42*7B
2017-12-31 17:04:33 1514757873.695825: $GPGSV,3,2,11,16,46,190,44,29,14,055,32,31,50,051,51,14,40,114,37*7C
2017-12-31 17:04:33 1514757873.695891: $GPGSV,3,3,11,32,19,123,41,26,74,142,46,135,22,240,43*71
2017-12-31 17:04:33 1514757873.809032: $GPZDA,220434.00,31,12,2017,00,00*60
2017-12-31 17:04:33 1514757873.809205: $GPGGA,220434,3946.9587,N,08404.9854,W,2,11,1.00,302.21,M,-33.324,M,,*78
2017-12-31 17:04:33 1514757873.809271: $GPRMC,220434,A,3946.9587,N,08404.9854,W,0.0000,0.000,311217,,*38
2017-12-31 17:04:33 1514757873.809332: $GPGSA,A,3,22,23,25,3,16,29,31,14,32,26,135,,1.7,1.0,1.3*3B
2017-12-31 17:04:34 1514757874.343609: $GPZDA,220435.00,31,12,2017,00,00*61
2017-12-31 17:04:34 1514757874.343775: $GPGGA,220435,3946.9587,N,08404.9854,W,2,11,1.00,302.21,M,-33.324,M,,*79
2017-12-31 17:04:34 1514757874.343842: $GPRMC,220435,A,3946.9587,N,08404.9854,W,0.0000,0.000,311217,,*39
2017-12-31 17:04:34 1514757874.343903: $GPGSA,A,3,22,23,25,3,16,29,31,14,32,26,135,,1.7,1.0,1.3*3B
