2017-11-16 17:03:10 1510869790.674410: {"class":"VERSION","release":"3.17","rev":"3.17","proto_major":3,"proto_minor":12}
2017-11-16 17:03:10 1510869790.674877: {"class":"DEVICES","devices":[{"class":"DEVICE","path":"/dev/ttyUSB0","driver":"SiRF","subtype":"9\u0006GSD4e_4.1.2-P1_RPATCH.05-F-GPS-4R-1510281 11/03/2015 307","activated":"2017-11-16T22:03:10.579Z","flags":1,"native":1,"bps":4800,"parity":"N","stopbits":1,"cycle":1.00}]}
2017-11-16 17:03:10 1510869790.675115: {"class":"WATCH","enable":true,"json":false,"nmea":true,"raw":0,"scaled":false,"timing":false,"split24":false,"pps":false}
2017-11-16 17:03:11 1510869791.398780: $GPZDA,220310.00,16,11,2017,00,00*67
2017-11-16 17:03:11 1510869791.398965: $GPGGA,220310,3946.9598,N,08404.9823,W,2,12,0.80,310.91,M,-33.324,M,,*75
2017-11-16 17:03:11 1510869791.399044: $GPRMC,220310,A,3946.9598,N,08404.9823,W,0.0000,0.000,161117,,*31
2017-11-16 17:03:11 1510869791.399102: $GPGSA,A,3,1,10,11,12,14,18,25,31,32,22,24,138,1.6,0.8,1.3*38
2017-11-16 17:03:12 1510869792.737063: $GPGSV,3,1,12,01,17,312,43,10,62,139,49,11,11,294,39,12,25,063,50*7A
2017-11-16 17:03:12 1510869792.737369: $GPGSV,3,2,12,14,59,303,46,18,30,139,42,25,34,106,45,31,42,216,48*7C
2017-11-16 17:03:12 1510869792.737487: $GPGSV,3,3,12,32,69,349,50,22,08,312,29,24,08,046,32,138,38,213,44*40
2017-11-16 17:03:12 1510869792.850485: $GPZDA,220311.00,16,11,2017,00,00*66
2017-11-16 17:03:12 1510869792.850691: $GPGGA,220311,3946.9598,N,08404.9823,W,2,12,0.80,310.91,M,-33.324,M,,*74
2017-11-16 17:03:12 1510869792.850753: $GPRMC,220311,A,3946.9598,N,08404.9823,W,0.0000,0.000,161117,,*30
2017-11-16 17:03:12 1510869792.850812: $GPGSA,A,3,1,10,11,12,14,18,25,31,32,22,24,138,1.6,0.8,1.3*38
2017-11-16 17:03:13 1510869793.417435: $GPZDA,220312.00,16,11,2017,00,00*65
2017-11-16 17:03:13 1510869793.417603: $GPGGA,220312,3946.9598,N,08404.9823,W,2,12,0.80,310.91,M,-33.324,M,,*77
2017-11-16 17:03:13 1510869793.417666: $GPRMC,220312,A,3946.9598,N,08404.9823,W,0.0000,0.000,161117,,*33
2017-11-16 17:03:13 1510869793.417722: $GPGSA,A,3,1,10,11,12,14,18,25,31,32,22,24,138,1.6,0.8,1.3*38
2017-11-16 17:03:14 1510869794.412005: $GPZDA,220313.00,16,11,2017,00,00*64
2017-11-16 17:03:14 1510869794.412173: $GPGGA,220313,3946.9598,N,08404.9823,W,2,12,0.80,310.91,M,-33.324,M,,*76
2017-11-16 17:03:14 1510869794.412235: $GPRMC,220313,A,3946.9598,N,08404.9823,W,0.0000,0.000,161117,,*32
2017-11-16 17:03:14 1510869794.412291: $GPGSA,A,3,1,10,11,12,14,18,25,31,32,22,24,138,1.6,0.8,1.3*38
2017-11-16 17:03:15 1510869795.735239: $GPGSV,3,1,12,01,17,312,43,10,62,139,49,11,11,294,40,12,25,063,50*74
2017-11-16 17:03:15 1510869795.735413: $GPGSV,3,2,12,14,59,303,46,18,30,139,42,25,34,106,45,31,42,216,48*7C
2017-11-16 17:03:15 1510869795.735473: $GPGSV,3,3,12,32,69,349,50,22,08,312,00,24,08,046,32,138,38,213,44*4B
2017-11-16 17:03:15 1510869795.848507: $GPZDA,220314.00,16,11,2017,00,00*63
2017-11-16 17:03:15 1510869795.848674: $GPGGA,220314,3946.9598,N,08404.9823,W,2,11,0.80,310.91,M,-33.324,M,,*72
2017-11-16 17:03:15 1510869795.848737: $GPRMC,220314,A,3946.9598,N,08404.9823,W,0.0000,0.000,161117,,*35
2017-11-16 17:03:15 1510869795.848794: $GPGSA,A,3,1,10,11,12,14,18,25,31,32,24,138,,1.6,0.8,1.3*38
2017-11-16 17:03:16 1510869796.473873: $GPZDA,220315.00,16,11,2017,00,00*62
2017-11-16 17:03:16 1510869796.474031: $GPGGA,220315,3946.9598,N,08404.9823,W,2,11,0.80,310.91,M,-33.324,M,,*73
2017-11-16 17:03:16 1510869796.474092: $GPRMC,220315,A,3946.9598,N,08404.9823,W,0.0000,0.000,161117,,*34
2017-11-16 17:03:16 1510869796.474148: $GPGSA,A,3,1,10,11,12,14,18,25,31,32,24,138,,1.6,0.8,1.3*38
2017-11-16 17:03:17 1510869797.417190: $GPZDA,220316.00,16,11,2017,00,00*61
2017-11-16 17:03:17 1510869797.417351: $GPGGA,220316,3946.9598,N,08404.9823,W,2,11,0.80,310.91,M,-33.324,M,,*70
2017-11-16 17:03:17 1510869797.417414: $GPRMC,220316,A,3946.9598,N,08404.9823,W,0.0000,0.000,161117,,*37
2017-11-16 17:03:17 1510869797.417469: $GPGSA,A,3,1,10,11,12,14,18,25,31,32,24,138,,1.6,0.8,1.3*38
2017-11-16 17:03:18 1510869798.754187: $GPGSV,3,1,12,01,17,312,43,10,62,139,48,11,11,294,40,12,25,063,50*75
2017-11-16 17:03:18 1510869798.754405: $GPGSV,3,2,12,14,59,303,46,18,30,139,42,25,34,106,45,31,42,216,47*73
2017-11-16 17:03:18 1510869798.754469: $GPGSV,3,3,12,32,69,349,50,22,08,312,24,24,08,046,32,138,38,213,44*4D
2017-11-16 17:03:18 1510869798.867504: $GPZDA,220317.00,16,11,2017,00,00*60
2017-11-16 17:03:18 1510869798.867673: $GPGGA,220317,3946.9598,N,08404.9823,W,2,12,0.80,310.91,M,-33.324,M,,*72
2017-11-16 17:03:18 1510869798.867735: $GPRMC,220317,A,3946.9598,N,08404.9823,W,0.0000,0.000,161117,,*36
2017-11-16 17:03:18 1510869798.867791: $GPGSA,A,3,1,10,11,12,14,18,25,31,32,22,24,138,1.6,0.8,1.3*38
2017-11-16 17:03:19 1510869799.415858: $GPZDA,220318.00,16,11,2017,00,00*6F
2017-11-16 17:03:19 1510869799.416022: $GPGGA,220318,3946.9594,N,08404.9823,W,2,12,0.80,311.67,M,-33.324,M,,*79
2017-11-16 17:03:19 1510869799.416083: $GPRMC,220318,A,3946.9594,N,08404.9823,W,0.0000,0.000,161117,,*35
2017-11-16 17:03:19 1510869799.416139: $GPGSA,A,3,1,10,11,12,14,18,25,31,32,22,24,138,1.6,0.8,1.3*38
2017-11-16 17:03:20 1510869800.399218: $GPZDA,220319.00,16,11,2017,00,00*6E
2017-11-16 17:03:20 1510869800.399411: $GPGGA,220319,3946.9594,N,08404.9823,W,2,12,0.80,311.67,M,-33.324,M,,*78
2017-11-16 17:03:20 1510869800.399499: $GPRMC,220319,A,3946.9594,N,08404.9823,W,0.0000,0.000,161117,,*34
2017-11-16 17:03:20 1510869800.399559: $GPGSA,A,3,1,10,11,12,14,18,25,31,32,22,24,138,1.6,0.8,1.3*38
