2017-11-16 16:40:20 1510868420.290693: {"class":"VERSION","release":"3.17","rev":"3.17","proto_major":3,"proto_minor":12}
2017-11-16 16:40:20 1510868420.291165: {"class":"DEVICES","devices":[{"class":"DEVICE","path":"/dev/ttyUSB0","driver":"SiRF","subtype":"9\u0006GSD4e_4.1.2-P1_RPATCH.05-F-GPS-4R-1510281 11/03/2015 307","activated":"2017-11-16T21:40:20.256Z","flags":1,"native":1,"bps":4800,"parity":"N","stopbits":1,"cycle":1.00}]}
2017-11-16 16:40:20 1510868420.291281: {"class":"WATCH","enable":true,"json":false,"nmea":true,"raw":0,"scaled":false,"timing":false,"split24":false,"pps":false}
2017-11-16 16:40:20 1510868420.769224: $GPGSV,3,1,11,01,12,321,36,10,73,127,48,11,10,303,38,12,25,075,48*71
2017-11-16 16:40:20 1510868420.769388: $GPGSV,3,2,11,14,53,288,42,18,40,133,45,24,16,045,48,25,28,117,44*74
2017-11-16 16:40:20 1510868420.769448: $GPGSV,3,3,11,31,31,211,45,32,67,321,50,138,38,213,45*7F
2017-11-16 16:40:20 1510868420.882515: $GPZDA,214019.00,16,11,2017,00,00*6A
2017-11-16 16:40:20 1510868420.882662: $GPGGA,214019,3946.9586,N,08404.9819,W,2,11,0.80,302.61,M,-33.324,M,,*71
2017-11-16 16:40:20 1510868420.882721: $GPRMC,214019,A,3946.9586,N,08404.9819,W,0.0000,0.000,161117,,*3A
2017-11-16 16:40:20 1510868420.882776: $GPGSA,A,3,1,10,11,12,14,18,24,25,31,32,138,,1.6,0.8,1.3*38
2017-11-16 16:40:21 1510868421.507917: $GPZDA,214020.00,16,11,2017,00,00*60
2017-11-16 16:40:21 1510868421.508084: $GPGGA,214020,3946.9586,N,08404.9819,W,2,11,0.80,302.61,M,-33.324,M,,*7B
2017-11-16 16:40:21 1510868421.508144: $GPRMC,214020,A,3946.9586,N,08404.9819,W,0.0000,0.000,161117,,*30
2017-11-16 16:40:21 1510868421.508200: $GPGSA,A,3,1,10,11,12,14,18,24,25,31,32,138,,1.6,0.8,1.3*38
2017-11-16 16:40:22 1510868422.432537: $GPZDA,214021.00,16,11,2017,00,00*61
2017-11-16 16:40:22 1510868422.432694: $GPGGA,214021,3946.9586,N,08404.9819,W,2,11,0.80,302.61,M,-33.324,M,,*7A
2017-11-16 16:40:22 1510868422.432755: $GPRMC,214021,A,3946.9586,N,08404.9819,W,0.0000,0.000,161117,,*31
2017-11-16 16:40:22 1510868422.432810: $GPGSA,A,3,1,10,11,12,14,18,24,25,31,32,138,,1.6,0.8,1.3*38
2017-11-16 16:40:23 1510868423.770918: $GPGSV,3,1,11,01,12,321,32,10,73,127,48,11,10,303,38,12,25,075,48*75
2017-11-16 16:40:23 1510868423.771084: $GPGSV,3,2,11,14,53,288,42,18,40,133,45,24,16,045,48,25,28,117,44*74
2017-11-16 16:40:23 1510868423.771143: $GPGSV,3,3,11,31,31,211,45,32,67,321,50,138,38,213,45*7F
2017-11-16 16:40:23 1510868423.883307: $GPZDA,214022.00,16,11,2017,00,00*62
2017-11-16 16:40:23 1510868423.883459: $GPGGA,214022,3946.9586,N,08404.9819,W,2,11,0.80,302.61,M,-33.324,M,,*79
2017-11-16 16:40:23 1510868423.883518: $GPRMC,214022,A,3946.9586,N,08404.9819,W,0.0000,0.000,161117,,*32
2017-11-16 16:40:23 1510868423.883573: $GPGSA,A,3,1,10,11,12,14,18,24,25,31,32,138,,1.6,0.8,1.3*38
2017-11-16 16:40:24 1510868424.435485: $GPZDA,214023.00,16,11,2017,00,00*63
2017-11-16 16:40:24 1510868424.435641: $GPGGA,214023,3946.9586,N,08404.9819,W,2,11,0.80,302.61,M,-33.324,M,,*78
2017-11-16 16:40:24 1510868424.435701: $GPRMC,214023,A,3946.9586,N,08404.9819,W,0.0000,0.000,161117,,*33
2017-11-16 16:40:24 1510868424.435756: $GPGSA,A,3,1,10,11,12,14,18,24,25,31,32,138,,1.6,0.8,1.3*38
2017-11-16 16:40:25 1510868425.438480: $GPZDA,214024.00,16,11,2017,00,00*64
2017-11-16 16:40:25 1510868425.438643: $GPGGA,214024,3946.9586,N,08404.9819,W,2,11,0.80,302.61,M,-33.324,M,,*7F
2017-11-16 16:40:25 1510868425.438703: $GPRMC,214024,A,3946.9586,N,08404.9819,W,0.0000,0.000,161117,,*34
2017-11-16 16:40:25 1510868425.438758: $GPGSA,A,3,1,10,11,12,14,18,24,25,31,32,138,,1.6,0.8,1.3*38
2017-11-16 16:40:26 1510868426.770390: $GPGSV,3,1,11,01,12,321,24,10,73,127,48,11,10,303,38,12,25,075,48*72
2017-11-16 16:40:26 1510868426.770589: $GPGSV,3,2,11,14,53,288,42,18,40,133,45,24,16,045,48,25,28,117,44*74
2017-11-16 16:40:26 1510868426.770654: $GPGSV,3,3,11,31,31,211,45,32,67,321,50,138,38,213,44*7E
2017-11-16 16:40:26 1510868426.883350: $GPZDA,214025.00,16,11,2017,00,00*65
2017-11-16 16:40:26 1510868426.883517: $GPGGA,214025,3946.9586,N,08404.9819,W,2,11,0.80,302.61,M,-33.324,M,,*7E
2017-11-16 16:40:26 1510868426.883629: $GPRMC,214025,A,3946.9586,N,08404.9819,W,0.0000,0.000,161117,,*35
2017-11-16 16:40:26 1510868426.883686: $GPGSA,A,3,1,10,11,12,14,18,24,25,31,32,138,,1.6,0.8,1.3*38
2017-11-16 16:40:27 1510868427.432958: $GPZDA,214026.00,16,11,2017,00,00*66
2017-11-16 16:40:27 1510868427.434836: $GPGGA,214026,3946.9586,N,08404.9819,W,2,11,0.80,302.61,M,-33.324,M,,*7D
2017-11-16 16:40:27 1510868427.434936: $GPRMC,214026,A,3946.9586,N,08404.9819,W,0.0000,0.000,161117,,*36
2017-11-16 16:40:27 1510868427.434994: $GPGSA,A,3,1,10,11,12,14,18,24,25,31,32,138,,1.6,0.8,1.3*38
2017-11-16 16:40:28 1510868428.432650: $GPZDA,214027.00,16,11,2017,00,00*67
2017-11-16 16:40:28 1510868428.432799: $GPGGA,214027,3946.9586,N,08404.9819,W,2,11,0.80,302.61,M,-33.324,M,,*7C
2017-11-16 16:40:28 1510868428.432860: $GPRMC,214027,A,3946.9586,N,08404.9819,W,0.0000,0.000,161117,,*37
2017-11-16 16:40:28 1510868428.432916: $GPGSA,A,3,1,10,11,12,14,18,24,25,31,32,138,,1.6,0.8,1.3*38
2017-11-16 16:40:29 1510868429.769715: $GPGSV,3,1,11,01,12,321,27,10,73,127,48,11,10,303,37,12,25,075,48*7E
2017-11-16 16:40:29 1510868429.769873: $GPGSV,3,2,11,14,53,288,42,18,40,133,45,24,16,045,48,25,28,117,44*74
2017-11-16 16:40:29 1510868429.769933: $GPGSV,3,3,11,31,31,211,45,32,67,321,50,138,38,213,44*7E
2017-11-16 16:40:29 1510868429.883077: $GPZDA,214028.00,16,11,2017,00,00*68
2017-11-16 16:40:29 1510868429.883279: $GPGGA,214028,3946.9586,N,08404.9819,W,2,11,0.80,302.61,M,-33.324,M,,*73
2017-11-16 16:40:29 1510868429.883340: $GPRMC,214028,A,3946.9586,N,08404.9819,W,0.0000,0.000,161117,,*38
2017-11-16 16:40:29 1510868429.883397: $GPGSA,A,3,1,10,11,12,14,18,24,25,31,32,138,,1.6,0.8,1.3*38
