2017-12-01 13:11:38 1512151898.068784: {"class":"VERSION","release":"3.16","rev":"3.16-4","proto_major":3,"proto_minor":11}
2017-12-01 13:11:38 1512151898.069175: {"class":"DEVICES","devices":[{"class":"DEVICE","path":"/dev/ttyUSB0","driver":"SiRF","subtype":"9\u0006GSD4e_4.1.2-P1_RPATCH.05-F-GPS-4R-1510281 11/03/2015 307","activated":"2017-12-01T18:11:38.021Z","flags":1,"native":1,"bps":4800,"parity":"N","stopbits":1,"cycle":1.00}]}
2017-12-01 13:11:38 1512151898.069289: {"class":"WATCH","enable":true,"json":false,"nmea":true,"raw":0,"scaled":false,"timing":false,"split24":false,"pps":false}
2017-12-01 13:11:38 1512151898.433196: $GPZDA,181139.00,01,12,2017,00,00*63
2017-12-01 13:11:38 1512151898.433377: $GPGGA,181139,3946.9571,N,08404.9860,W,2,11,0.80,298.17,M,-33.324,M,,*78
2017-12-01 13:11:38 1512151898.433444: $GPRMC,181139,A,3946.9571,N,08404.9860,W,0.0000,0.000,011217,,*35
2017-12-01 13:11:38 1512151898.433506: $GPGSA,A,3,8,10,15,18,20,21,24,32,13,27,138,,2.0,0.8,1.5*33
2017-12-01 13:11:39 1512151899.418140: $GPZDA,181140.00,01,12,2017,00,00*6D
2017-12-01 13:11:39 1512151899.418351: $GPGGA,181140,3946.9571,N,08404.9860,W,2,11,0.80,298.17,M,-33.324,M,,*76
2017-12-01 13:11:39 1512151899.418439: $GPRMC,181140,A,3946.9571,N,08404.9860,W,0.0000,0.000,011217,,*3B
2017-12-01 13:11:39 1512151899.418502: $GPGSA,A,3,8,10,15,18,20,21,24,32,13,27,138,,2.0,0.8,1.5*33
2017-12-01 13:11:40 1512151900.769851: $GPGSV,3,1,12,08,06,322,31,10,41,301,44,15,38,052,48,18,71,336,44*7C
2017-12-01 13:11:40 1512151900.770026: $GPGSV,3,2,12,20,34,096,47,21,63,189,45,24,50,111,46,32,21,238,42*78
2017-12-01 13:11:40 1512151900.770092: $GPGSV,3,3,12,13,08,048,28,27,19,289,41,14,04,232,00,138,38,213,46*4C
2017-12-01 13:11:40 1512151900.883485: $GPZDA,181141.00,01,12,2017,00,00*6C
2017-12-01 13:11:40 1512151900.883651: $GPGGA,181141,3946.9571,N,08404.9860,W,2,11,0.80,298.17,M,-33.324,M,,*77
2017-12-01 13:11:40 1512151900.883717: $GPRMC,181141,A,3946.9571,N,08404.9860,W,0.0000,0.000,011217,,*3A
2017-12-01 13:11:40 1512151900.883779: $GPGSA,A,3,8,10,15,18,20,21,24,32,13,27,138,,2.0,0.8,1.5*33
2017-12-01 13:11:41 1512151901.508513: $GPZDA,181142.00,01,12,2017,00,00*6F
2017-12-01 13:11:41 1512151901.508687: $GPGGA,181142,3946.9571,N,08404.9860,W,2,11,0.80,298.17,M,-33.324,M,,*74
2017-12-01 13:11:41 1512151901.508754: $GPRMC,181142,A,3946.9571,N,08404.9860,W,0.0000,0.000,011217,,*39
2017-12-01 13:11:41 1512151901.508815: $GPGSA,A,3,8,10,15,18,20,21,24,32,13,27,138,,2.0,0.8,1.5*33
2017-12-01 13:11:42 1512151902.414733: $GPZDA,181143.00,01,12,2017,00,00*6E
2017-12-01 13:11:42 1512151902.414903: $GPGGA,181143,3946.9571,N,08404.9860,W,2,11,0.80,298.17,M,-33.324,M,,*75
2017-12-01 13:11:42 1512151902.414971: $GPRMC,181143,A,3946.9571,N,08404.9860,W,0.0000,0.000,011217,,*38
2017-12-01 13:11:42 1512151902.415032: $GPGSA,A,3,8,10,15,18,20,21,24,32,13,27,138,,2.0,0.8,1.5*33
2017-12-01 13:11:43 1512151903.768934: $GPGSV,3,1,12,08,06,322,32,10,41,301,43,15,38,052,47,18,71,336,44*77
2017-12-01 13:11:43 1512151903.769113: $GPGSV,3,2,12,20,34,096,47,21,63,189,45,24,50,111,46,32,21,238,42*78
2017-12-01 13:11:43 1512151903.769179: $GPGSV,3,3,12,13,08,048,26,27,19,289,41,14,04,232,00,138,38,213,46*42
2017-12-01 13:11:43 1512151903.882600: $GPZDA,181144.00,01,12,2017,00,00*69
2017-12-01 13:11:43 1512151903.882765: $GPGGA,181144,3946.9571,N,08404.9860,W,2,11,0.80,298.17,M,-33.324,M,,*72
2017-12-01 13:11:43 1512151903.882832: $GPRMC,181144,A,3946.9571,N,08404.9860,W,0.0000,0.000,011217,,*3F
2017-12-01 13:11:43 1512151903.882893: $GPGSA,A,3,8,10,15,18,20,21,24,32,13,27,138,,2.0,0.8,1.5*33
2017-12-01 13:11:44 1512151904.418437: $GPZDA,181145.00,01,12,2017,00,00*68
2017-12-01 13:11:44 1512151904.418631: $GPGGA,181145,3946.9571,N,08404.9860,W,2,11,0.80,298.17,M,-33.324,M,,*73
2017-12-01 13:11:44 1512151904.418719: $GPRMC,181145,A,3946.9571,N,08404.9860,W,0.0000,0.000,011217,,*3E
2017-12-01 13:11:44 1512151904.418783: $GPGSA,A,3,8,10,15,18,20,21,24,32,13,27,138,,2.0,0.8,1.5*33
2017-12-01 13:11:45 1512151905.416809: $GPZDA,181146.00,01,12,2017,00,00*6B
2017-12-01 13:11:45 1512151905.417046: $GPGGA,181146,3946.9571,N,08404.9860,W,2,11,0.80,298.17,M,-33.324,M,,*70
2017-12-01 13:11:45 1512151905.417115: $GPRMC,181146,A,3946.9571,N,08404.9860,W,0.0000,0.000,011217,,*3D
2017-12-01 13:11:45 1512151905.417177: $GPGSA,A,3,8,10,15,18,20,21,24,32,13,27,138,,2.0,0.8,1.5*33
2017-12-01 13:11:46 1512151906.768050: $GPGSV,3,1,12,08,06,322,36,10,41,301,43,15,38,052,48,18,71,336,44*7C
2017-12-01 13:11:46 1512151906.768242: $GPGSV,3,2,12,20,34,096,47,21,63,189,45,24,50,111,46,32,21,238,42*78
2017-12-01 13:11:46 1512151906.768309: $GPGSV,3,3,12,13,08,048,26,27,19,289,41,14,04,232,07,138,38,213,47*44
2017-12-01 13:11:46 1512151906.881405: $GPZDA,181147.00,01,12,2017,00,00*6A
2017-12-01 13:11:46 1512151906.881566: $GPGGA,181147,3946.9571,N,08404.9860,W,2,11,0.80,298.17,M,-33.324,M,,*71
2017-12-01 13:11:46 1512151906.881632: $GPRMC,181147,A,3946.9571,N,08404.9860,W,0.0000,0.000,011217,,*3C
2017-12-01 13:11:46 1512151906.881693: $GPGSA,A,3,8,10,15,18,20,21,24,32,13,27,138,,2.0,0.8,1.5*33
2017-12-01 13:11:47 1512151907.417354: $GPZDA,181148.00,01,12,2017,00,00*65
2017-12-01 13:11:47 1512151907.417526: $GPGGA,181148,3946.9571,N,08404.9860,W,2,11,0.80,298.17,M,-33.324,M,,*7E
2017-12-01 13:11:47 1512151907.417592: $GPRMC,181148,A,3946.9571,N,08404.9860,W,0.0000,0.000,011217,,*33
2017-12-01 13:11:47 1512151907.417654: $GPGSA,A,3,8,10,15,18,20,21,24,32,13,27,138,,2.0,0.8,1.5*33
