2017-12-01 16:45:27 1512164727.246692: {"class":"VERSION","release":"3.16","rev":"3.16-4","proto_major":3,"proto_minor":11}
2017-12-01 16:45:27 1512164727.247098: {"class":"DEVICES","devices":[{"class":"DEVICE","path":"/dev/ttyUSB0","driver":"SiRF","subtype":"9\u0006GSD4e_4.1.2-P1_RPATCH.05-F-GPS-4R-1510281 11/03/2015 307","activated":"2017-12-01T21:45:27.237Z","flags":1,"native":1,"bps":4800,"parity":"N","stopbits":1,"cycle":1.00}]}
2017-12-01 16:45:27 1512164727.247220: {"class":"WATCH","enable":true,"json":false,"nmea":true,"raw":0,"scaled":false,"timing":false,"split24":false,"pps":false}
2017-12-01 16:45:27 1512164727.415619: $GPZDA,214528.00,01,12,2017,00,00*68
2017-12-01 16:45:27 1512164727.415787: $GPGGA,214528,3946.9648,N,08404.9741,W,2,12,0.80,298.07,M,-33.324,M,,*74
2017-12-01 16:45:27 1512164727.415852: $GPRMC,214528,A,3946.9648,N,08404.9741,W,0.0000,0.000,011217,,*3B
2017-12-01 16:45:27 1512164727.415913: $GPGSA,A,3,1,10,14,22,31,32,25,11,12,18,26,138,2.0,0.8,1.5*39
2017-12-01 16:45:28 1512164728.750880: $GPGSV,3,1,12,01,22,294,40,10,41,151,43,14,69,343,45,22,25,310,42*78
2017-12-01 16:45:28 1512164728.751074: $GPGSV,3,2,12,31,63,232,50,32,66,046,48,25,41,081,23,11,06,276,29*71
2017-12-01 16:45:28 1512164728.751142: $GPGSV,3,3,12,12,19,043,29,18,11,145,18,26,08,181,27,138,38,213,34*4A
2017-12-01 16:45:28 1512164728.864392: $GPZDA,214529.00,01,12,2017,00,00*69
2017-12-01 16:45:28 1512164728.864563: $GPGGA,214529,3946.9648,N,08404.9741,W,2,12,0.80,298.07,M,-33.324,M,,*75
2017-12-01 16:45:28 1512164728.864630: $GPRMC,214529,A,3946.9648,N,08404.9741,W,0.0000,0.000,011217,,*3A
2017-12-01 16:45:28 1512164728.864692: $GPGSA,A,3,1,10,14,22,31,32,25,11,12,18,26,138,2.0,0.8,1.5*39
2017-12-01 16:45:29 1512164729.413891: $GPZDA,214530.00,01,12,2017,00,00*61
2017-12-01 16:45:29 1512164729.414066: $GPGGA,214530,3946.9645,N,08404.9741,W,2,12,0.80,298.83,M,-33.324,M,,*7C
2017-12-01 16:45:29 1512164729.414132: $GPRMC,214530,A,3946.9645,N,08404.9741,W,0.0000,0.000,011217,,*3F
2017-12-01 16:45:29 1512164729.414193: $GPGSA,A,3,1,10,14,22,31,32,25,11,12,18,26,138,2.0,0.8,1.5*39
2017-12-01 16:45:30 1512164730.417318: $GPZDA,214531.00,01,12,2017,00,00*60
2017-12-01 16:45:30 1512164730.417488: $GPGGA,214531,3946.9645,N,08404.9741,W,2,12,0.80,298.83,M,-33.324,M,,*7D
2017-12-01 16:45:30 1512164730.417555: $GPRMC,214531,A,3946.9645,N,08404.9741,W,0.0000,0.000,011217,,*3E
2017-12-01 16:45:30 1512164730.417616: $GPGSA,A,3,1,10,14,22,31,32,25,11,12,18,26,138,2.0,0.8,1.5*39
2017-12-01 16:45:31 1512164731.781807: $GPGSV,3,1,12,01,22,294,40,10,41,151,43,14,69,343,46,22,25,310,42*7B
2017-12-01 16:45:31 1512164731.781986: $GPGSV,3,2,12,31,63,232,50,32,66,046,48,25,41,081,24,11,06,276,29*76
2017-12-01 16:45:31 1512164731.782053: $GPGSV,3,3,12,12,19,043,01,18,11,145,19,26,08,181,28,138,38,213,38*42
2017-12-01 16:45:31 1512164731.895181: $GPZDA,214532.00,01,12,2017,00,00*63
2017-12-01 16:45:31 1512164731.895313: $GPGGA,214532,3946.9645,N,08404.9741,W,2,11,1.00,298.83,M,-33.324,M,,*74
2017-12-01 16:45:31 1512164731.895379: $GPRMC,214532,A,3946.9645,N,08404.9741,W,0.0000,0.000,011217,,*3D
2017-12-01 16:45:31 1512164731.895439: $GPGSA,A,3,1,10,14,22,31,32,25,11,18,26,138,,2.0,1.0,1.5*33
2017-12-01 16:45:32 1512164732.418547: $GPZDA,214533.00,01,12,2017,00,00*62
2017-12-01 16:45:32 1512164732.418719: $GPGGA,214533,3946.9645,N,08404.9741,W,2,11,0.80,298.83,M,-33.324,M,,*7C
2017-12-01 16:45:32 1512164732.418785: $GPRMC,214533,A,3946.9645,N,08404.9741,W,0.0000,0.000,011217,,*3C
2017-12-01 16:45:32 1512164732.418847: $GPGSA,A,3,1,10,14,22,31,32,25,11,18,26,138,,2.0,0.8,1.5*3A
2017-12-01 16:45:33 1512164733.433874: $GPZDA,214534.00,01,12,2017,00,00*65
2017-12-01 16:45:33 1512164733.434059: $GPGGA,214534,3946.9645,N,08404.9741,W,2,11,0.80,298.83,M,-33.324,M,,*7B
2017-12-01 16:45:33 1512164733.434148: $GPRMC,214534,A,3946.9645,N,08404.9741,W,0.0000,0.000,011217,,*3B
2017-12-01 16:45:33 1512164733.434234: $GPGSA,A,3,1,10,14,22,31,32,25,11,18,26,138,,2.0,0.8,1.5*3A
2017-12-01 16:45:34 1512164734.769618: $GPGSV,3,1,12,01,22,294,41,10,41,151,43,14,69,343,45,22,25,310,42*79
2017-12-01 16:45:34 1512164734.769848: $GPGSV,3,2,12,31,63,232,50,32,66,046,48,25,41,081,24,11,06,276,24*7B
2017-12-01 16:45:34 1512164734.769916: $GPGSV,3,3,12,12,19,043,24,18,11,145,20,26,08,181,27,138,38,213,40*4F
2017-12-01 16:45:34 1512164734.883090: $GPZDA,214535.00,01,12,2017,00,00*64
2017-12-01 16:45:34 1512164734.883262: $GPGGA,214535,3946.9645,N,08404.9741,W,2,12,0.80,298.83,M,-33.324,M,,*79
2017-12-01 16:45:34 1512164734.883329: $GPRMC,214535,A,3946.9645,N,08404.9741,W,0.0000,0.000,011217,,*3A
2017-12-01 16:45:34 1512164734.883390: $GPGSA,A,3,1,10,14,22,31,32,25,11,12,18,26,138,2.0,0.8,1.5*39
2017-12-01 16:45:35 1512164735.435203: $GPZDA,214536.00,01,12,2017,00,00*67
2017-12-01 16:45:35 1512164735.435392: $GPGGA,214536,3946.9645,N,08404.9741,W,2,12,0.80,298.83,M,-33.324,M,,*7A
2017-12-01 16:45:35 1512164735.435459: $GPRMC,214536,A,3946.9645,N,08404.9741,W,0.0000,0.000,011217,,*39
2017-12-01 16:45:35 1512164735.435520: $GPGSA,A,3,1,10,14,22,31,32,25,11,12,18,26,138,2.0,0.8,1.5*39
2017-12-01 16:45:36 1512164736.436156: $GPZDA,214537.00,01,12,2017,00,00*66
2017-12-01 16:45:36 1512164736.436330: $GPGGA,214537,3946.9645,N,08404.9741,W,2,12,0.80,298.83,M,-33.324,M,,*7B
2017-12-01 16:45:36 1512164736.436397: $GPRMC,214537,A,3946.9645,N,08404.9741,W,0.0000,0.000,011217,,*38
2017-12-01 16:45:36 1512164736.436458: $GPGSA,A,3,1,10,14,22,31,32,25,11,12,18,26,138,2.0,0.8,1.5*39
2017-12-01 16:45:37 1512164737.754293: $GPGSV,3,1,12,01,22,294,40,10,41,151,43,14,69,343,45,22,25,310,43*79
2017-12-01 16:45:37 1512164737.754487: $GPGSV,3,2,12,31,63,232,50,32,66,046,48,25,41,081,16,11,06,276,31*7E
2017-12-01 16:45:37 1512164737.754558: $GPGSV,3,3,12,12,19,043,24,18,11,145,20,26,08,181,27,138,38,213,40*4F
2017-12-01 16:45:37 1512164737.867977: $GPZDA,214538.00,01,12,2017,00,00*69
2017-12-01 16:45:37 1512164737.868151: $GPGGA,214538,3946.9645,N,08404.9741,W,2,12,0.80,298.83,M,-33.324,M,,*74
2017-12-01 16:45:37 1512164737.868218: $GPRMC,214538,A,3946.9645,N,08404.9741,W,0.0000,0.000,011217,,*37
2017-12-01 16:45:37 1512164737.868279: $GPGSA,A,3,1,10,14,22,31,32,25,11,12,18,26,138,2.0,0.8,1.5*39
2017-12-01 16:45:38 1512164738.493114: $GPZDA,214539.00,01,12,2017,00,00*68
2017-12-01 16:45:38 1512164738.493299: $GPGGA,214539,3946.9645,N,08404.9741,W,2,12,0.80,298.83,M,-33.324,M,,*75
2017-12-01 16:45:38 1512164738.493367: $GPRMC,214539,A,3946.9645,N,08404.9741,W,0.0000,0.000,011217,,*36
2017-12-01 16:45:38 1512164738.493428: $GPGSA,A,3,1,10,14,22,31,32,25,11,12,18,26,138,2.0,0.8,1.5*39
2017-12-01 16:45:39 1512164739.419158: $GPZDA,214540.00,01,12,2017,00,00*66
2017-12-01 16:45:39 1512164739.419327: $GPGGA,214540,3946.9645,N,08404.9741,W,2,12,0.80,298.83,M,-33.324,M,,*7B
2017-12-01 16:45:39 1512164739.419396: $GPRMC,214540,A,3946.9645,N,08404.9741,W,0.0000,0.000,011217,,*38
2017-12-01 16:45:39 1512164739.419457: $GPGSA,A,3,1,10,14,22,31,32,25,11,12,18,26,138,2.0,0.8,1.5*39
2017-12-01 16:45:40 1512164740.770903: $GPGSV,3,1,12,01,22,294,41,10,41,151,42,14,69,343,45,22,25,310,43*79
2017-12-01 16:45:40 1512164740.771056: $GPGSV,3,2,12,31,63,232,49,32,66,046,47,25,41,081,22,11,06,276,30*7F
2017-12-01 16:45:40 1512164740.771122: $GPGSV,3,3,12,12,19,043,22,18,11,145,21,26,08,181,28,138,38,213,38*48
2017-12-01 16:45:40 1512164740.884473: $GPZDA,214541.00,01,12,2017,00,00*67
2017-12-01 16:45:40 1512164740.884615: $GPGGA,214541,3946.9645,N,08404.9741,W,2,12,0.80,298.83,M,-33.324,M,,*7A
2017-12-01 16:45:40 1512164740.884681: $GPRMC,214541,A,3946.9645,N,08404.9741,W,0.0000,0.000,011217,,*39
2017-12-01 16:45:40 1512164740.884743: $GPGSA,A,3,1,10,14,22,31,32,25,11,12,18,26,138,2.0,0.8,1.5*39
2017-12-01 16:45:41 1512164741.434362: $GPZDA,214542.00,01,12,2017,00,00*64
2017-12-01 16:45:41 1512164741.434544: $GPGGA,214542,3946.9645,N,08404.9741,W,2,12,0.80,298.83,M,-33.324,M,,*79
2017-12-01 16:45:41 1512164741.434612: $GPRMC,214542,A,3946.9645,N,08404.9741,W,0.0000,0.000,011217,,*3A
2017-12-01 16:45:41 1512164741.434674: $GPGSA,A,3,1,10,14,22,31,32,25,11,12,18,26,138,2.0,0.8,1.5*39
2017-12-01 16:45:42 1512164742.436183: $GPZDA,214543.00,01,12,2017,00,00*65
2017-12-01 16:45:42 1512164742.436353: $GPGGA,214543,3946.9645,N,08404.9741,W,2,12,0.80,298.83,M,-33.324,M,,*78
2017-12-01 16:45:42 1512164742.436420: $GPRMC,214543,A,3946.9645,N,08404.9741,W,0.0000,0.000,011217,,*3B
2017-12-01 16:45:42 1512164742.436481: $GPGSA,A,3,1,10,14,22,31,32,25,11,12,18,26,138,2.0,0.8,1.5*39
2017-12-01 16:45:43 1512164743.766171: $GPGSV,3,1,12,01,22,294,41,10,41,151,42,14,69,343,45,22,25,310,43*79
2017-12-01 16:45:43 1512164743.769069: $GPGSV,3,2,12,31,63,232,50,32,66,046,48,25,41,081,22,11,06,276,30*78
2017-12-01 16:45:43 1512164743.769176: $GPGSV,3,3,12,12,19,043,07,18,11,145,21,26,08,181,27,138,38,213,40*4F
2017-12-01 16:45:43 1512164743.879560: $GPZDA,214544.00,01,12,2017,00,00*62
2017-12-01 16:45:43 1512164743.879725: $GPGGA,214544,3946.9645,N,08404.9741,W,2,11,1.00,298.83,M,-33.324,M,,*75
2017-12-01 16:45:43 1512164743.879791: $GPRMC,214544,A,3946.9645,N,08404.9741,W,0.0000,0.000,011217,,*3C
2017-12-01 16:45:43 1512164743.879853: $GPGSA,A,3,1,10,14,22,31,32,25,11,18,26,138,,2.0,1.0,1.5*33
2017-12-01 16:45:44 1512164744.420437: $GPZDA,214545.00,01,12,2017,00,00*63
2017-12-01 16:45:44 1512164744.420593: $GPGGA,214545,3946.9645,N,08404.9741,W,2,11,1.00,298.83,M,-33.324,M,,*74
2017-12-01 16:45:44 1512164744.420661: $GPRMC,214545,A,3946.9645,N,08404.9741,W,0.0000,0.000,011217,,*3D
2017-12-01 16:45:44 1512164744.420722: $GPGSA,A,3,1,10,14,22,31,32,25,11,18,26,138,,2.0,1.0,1.5*33
2017-12-01 16:45:45 1512164745.435443: $GPZDA,214546.00,01,12,2017,00,00*60
2017-12-01 16:45:45 1512164745.435612: $GPGGA,214546,3946.9645,N,08404.9741,W,2,11,1.00,298.83,M,-33.324,M,,*77
2017-12-01 16:45:45 1512164745.435681: $GPRMC,214546,A,3946.9645,N,08404.9741,W,0.0000,0.000,011217,,*3E
2017-12-01 16:45:45 1512164745.435742: $GPGSA,A,3,1,10,14,22,31,32,25,11,18,26,138,,2.0,1.0,1.5*33
2017-12-01 16:45:46 1512164746.770793: $GPGSV,3,1,12,01,22,294,41,10,41,151,42,14,69,343,45,22,25,310,44*7E
2017-12-01 16:45:46 1512164746.770968: $GPGSV,3,2,12,31,63,232,49,32,66,046,48,25,41,081,22,11,06,276,30*70
2017-12-01 16:45:46 1512164746.771036: $GPGSV,3,3,12,03,05,316,30,18,11,145,18,26,08,181,22,138,38,213,41*4B
2017-12-01 16:45:46 1512164746.884468: $GPZDA,214547.00,01,12,2017,00,00*61
2017-12-01 16:45:46 1512164746.884635: $GPGGA,214547,3946.9645,N,08404.9741,W,2,12,1.00,298.83,M,-33.324,M,,*75
2017-12-01 16:45:46 1512164746.884702: $GPRMC,214547,A,3946.9645,N,08404.9741,W,0.0000,0.000,011217,,*3F
2017-12-01 16:45:46 1512164746.884762: $GPGSA,A,3,1,10,14,22,31,32,25,11,3,18,26,138,2.0,1.0,1.5*00
