2017-12-01 16:44:13 1512164653.516763: {"class":"VERSION","release":"3.16","rev":"3.16-4","proto_major":3,"proto_minor":11}
2017-12-01 16:44:13 1512164653.517201: {"class":"DEVICES","devices":[{"class":"DEVICE","path":"/dev/ttyUSB0","driver":"SiRF","subtype":"9\u0006GSD4e_4.1.2-P1_RPATCH.05-F-GPS-4R-1510281 11/03/2015 307","activated":"2017-12-01T21:44:13.513Z","flags":1,"native":1,"bps":4800,"parity":"N","stopbits":1,"cycle":1.00}]}
2017-12-01 16:44:13 1512164653.517324: {"class":"WATCH","enable":true,"json":false,"nmea":true,"raw":0,"scaled":false,"timing":false,"split24":false,"pps":false}
2017-12-01 16:44:14 1512164654.727403: $GPGSV,3,1,12,01,22,294,42,10,41,151,42,14,68,342,44,22,24,312,42*79
2017-12-01 16:44:14 1512164654.727632: $GPGSV,3,2,12,31,62,231,50,32,66,043,49,11,06,277,34,25,41,082,14*7D
2017-12-01 16:44:14 1512164654.727701: $GPGSV,3,3,12,26,08,181,26,18,12,145,19,12,19,045,25,138,38,213,34*43
2017-12-01 16:44:14 1512164654.840887: $GPZDA,214415.00,01,12,2017,00,00*67
2017-12-01 16:44:14 1512164654.841057: $GPGGA,214415,3946.9639,N,08404.9754,W,2,12,0.80,308.07,M,-33.324,M,,*71
2017-12-01 16:44:14 1512164654.841123: $GPRMC,214415,A,3946.9639,N,08404.9754,W,0.0000,0.000,011217,,*36
2017-12-01 16:44:14 1512164654.841185: $GPGSA,A,3,1,10,14,22,31,32,11,25,26,18,12,138,2.0,0.8,1.5*39
2017-12-01 16:44:15 1512164655.466238: $GPZDA,214416.00,01,12,2017,00,00*64
2017-12-01 16:44:15 1512164655.470964: $GPGGA,214416,3946.9639,N,08404.9754,W,2,12,0.80,308.07,M,-33.324,M,,*72
2017-12-01 16:44:15 1512164655.471081: $GPRMC,214416,A,3946.9639,N,08404.9754,W,0.0000,0.000,011217,,*35
2017-12-01 16:44:15 1512164655.471148: $GPGSA,A,3,1,10,14,22,31,32,11,25,26,18,12,138,2.0,0.8,1.5*39
2017-12-01 16:44:16 1512164656.412105: $GPZDA,214417.00,01,12,2017,00,00*65
2017-12-01 16:44:16 1512164656.412274: $GPGGA,214417,3946.9639,N,08404.9754,W,2,12,0.80,308.07,M,-33.324,M,,*73
2017-12-01 16:44:16 1512164656.412340: $GPRMC,214417,A,3946.9639,N,08404.9754,W,0.0000,0.000,011217,,*34
2017-12-01 16:44:16 1512164656.412401: $GPGSA,A,3,1,10,14,22,31,32,11,25,26,18,12,138,2.0,0.8,1.5*39
2017-12-01 16:44:17 1512164657.749036: $GPGSV,3,1,12,01,22,294,43,10,41,151,42,14,68,342,44,22,24,312,42*78
2017-12-01 16:44:17 1512164657.749215: $GPGSV,3,2,12,31,62,231,50,32,66,043,49,11,06,277,34,25,41,082,10*79
2017-12-01 16:44:17 1512164657.749281: $GPGSV,3,3,12,26,08,181,26,18,12,145,18,12,19,045,25,138,38,213,38*4E
2017-12-01 16:44:17 1512164657.862456: $GPZDA,214418.00,01,12,2017,00,00*6A
2017-12-01 16:44:17 1512164657.862613: $GPGGA,214418,3946.9639,N,08404.9754,W,2,12,0.80,308.07,M,-33.324,M,,*7C
2017-12-01 16:44:17 1512164657.862679: $GPRMC,214418,A,3946.9639,N,08404.9754,W,0.0000,0.000,011217,,*3B
2017-12-01 16:44:17 1512164657.862740: $GPGSA,A,3,1,10,14,22,31,32,11,25,26,18,12,138,2.0,0.8,1.5*39
2017-12-01 16:44:18 1512164658.413298: $GPZDA,214419.00,01,12,2017,00,00*6B
2017-12-01 16:44:18 1512164658.413486: $GPGGA,214419,3946.9639,N,08404.9754,W,2,12,0.80,308.07,M,-33.324,M,,*7D
2017-12-01 16:44:18 1512164658.413553: $GPRMC,214419,A,3946.9639,N,08404.9754,W,0.0000,0.000,011217,,*3A
2017-12-01 16:44:18 1512164658.413633: $GPGSA,A,3,1,10,14,22,31,32,11,25,26,18,12,138,2.0,0.8,1.5*39
2017-12-01 16:44:19 1512164659.397952: $GPZDA,214420.00,01,12,2017,00,00*61
2017-12-01 16:44:19 1512164659.398122: $GPGGA,214420,3946.9639,N,08404.9754,W,2,12,0.80,308.07,M,-33.324,M,,*77
2017-12-01 16:44:19 1512164659.398189: $GPRMC,214420,A,3946.9639,N,08404.9754,W,0.0000,0.000,011217,,*30
2017-12-01 16:44:19 1512164659.398250: $GPGSA,A,3,1,10,14,22,31,32,11,25,26,18,12,138,2.0,0.8,1.5*39
2017-12-01 16:44:20 1512164660.725721: $GPGSV,3,1,12,01,22,294,43,10,41,151,41,14,68,342,44,22,24,312,41*78
2017-12-01 16:44:20 1512164660.725912: $GPGSV,3,2,12,31,62,231,50,32,66,043,49,11,06,277,34,25,41,082,16*7F
2017-12-01 16:44:20 1512164660.725979: $GPGSV,3,3,12,26,08,181,26,18,12,145,12,12,19,045,26,138,38,213,40*48
2017-12-01 16:44:20 1512164660.839438: $GPZDA,214421.00,01,12,2017,00,00*60
2017-12-01 16:44:21 1512164661.693816: $GPGGA,214421,3946.9639,N,08404.9754,W,2,12,0.80,308.07,M,-33.324,M,,*76
2017-12-01 16:44:21 1512164661.693993: $GPRMC,214421,A,3946.9639,N,08404.9754,W,0.0000,0.000,011217,,*31
2017-12-01 16:44:21 1512164661.694059: $GPGSA,A,3,1,10,14,22,31,32,11,25,26,18,12,138,2.0,0.8,1.5*39
2017-12-01 16:44:21 1512164661.694156: $GPZDA,214422.00,01,12,2017,00,00*63
2017-12-01 16:44:21 1512164661.694213: $GPGGA,214422,3946.9639,N,08404.9754,W,2,12,0.80,308.07,M,-33.324,M,,*75
2017-12-01 16:44:21 1512164661.694274: $GPRMC,214422,A,3946.9639,N,08404.9754,W,0.0000,0.000,011217,,*32
2017-12-01 16:44:21 1512164661.694334: $GPGSA,A,3,1,10,14,22,31,32,11,25,26,18,12,138,2.0,0.8,1.5*39
2017-12-01 16:44:22 1512164662.397021: $GPZDA,214423.00,01,12,2017,00,00*62
2017-12-01 16:44:22 1512164662.397193: $GPGGA,214423,3946.9639,N,08404.9754,W,2,12,0.80,308.07,M,-33.324,M,,*74
2017-12-01 16:44:22 1512164662.397259: $GPRMC,214423,A,3946.9639,N,08404.9754,W,0.0000,0.000,011217,,*33
2017-12-01 16:44:22 1512164662.397320: $GPGSA,A,3,1,10,14,22,31,32,11,25,26,18,12,138,2.0,0.8,1.5*39
2017-12-01 16:44:23 1512164663.731543: $GPGSV,3,1,12,01,22,294,43,10,41,151,41,14,68,342,43,22,24,312,42*7C
2017-12-01 16:44:23 1512164663.731726: $GPGSV,3,2,12,31,62,231,50,32,66,043,49,11,06,277,34,25,41,082,18*71
2017-12-01 16:44:23 1512164663.731792: $GPGSV,3,3,12,26,08,181,26,18,12,145,10,12,19,045,26,138,38,213,40*4A
2017-12-01 16:44:23 1512164663.844858: $GPZDA,214424.00,01,12,2017,00,00*65
2017-12-01 16:44:23 1512164663.845024: $GPGGA,214424,3946.9639,N,08404.9754,W,2,12,0.80,308.07,M,-33.324,M,,*73
2017-12-01 16:44:23 1512164663.845090: $GPRMC,214424,A,3946.9639,N,08404.9754,W,0.0000,0.000,011217,,*34
2017-12-01 16:44:23 1512164663.845151: $GPGSA,A,3,1,10,14,22,31,32,11,25,26,18,12,138,2.0,0.8,1.5*39
2017-12-01 16:44:24 1512164664.395838: $GPZDA,214425.00,01,12,2017,00,00*64
2017-12-01 16:44:24 1512164664.396009: $GPGGA,214425,3946.9639,N,08404.9754,W,2,12,0.80,308.07,M,-33.324,M,,*72
2017-12-01 16:44:24 1512164664.396076: $GPRMC,214425,A,3946.9639,N,08404.9754,W,0.0000,0.000,011217,,*35
2017-12-01 16:44:24 1512164664.396137: $GPGSA,A,3,1,10,14,22,31,32,11,25,26,18,12,138,2.0,0.8,1.5*39
2017-12-01 16:44:25 1512164665.398660: $GPZDA,214426.00,01,12,2017,00,00*67
2017-12-01 16:44:25 1512164665.398836: $GPGGA,214426,3946.9639,N,08404.9754,W,2,12,0.80,308.07,M,-33.324,M,,*71
2017-12-01 16:44:25 1512164665.398903: $GPRMC,214426,A,3946.9639,N,08404.9754,W,0.0000,0.000,011217,,*36
2017-12-01 16:44:25 1512164665.398964: $GPGSA,A,3,1,10,14,22,31,32,11,25,26,18,12,138,2.0,0.8,1.5*39
2017-12-01 16:44:26 1512164666.733103: $GPGSV,3,1,12,01,22,294,42,10,41,151,41,14,68,342,43,22,24,312,41*7E
2017-12-01 16:44:26 1512164666.733284: $GPGSV,3,2,12,31,62,231,50,32,66,043,49,11,06,277,35,25,41,082,25*7E
2017-12-01 16:44:26 1512164666.733350: $GPGSV,3,3,12,26,08,181,27,18,12,145,04,12,19,045,26,138,38,213,38*41
2017-12-01 16:44:26 1512164666.847999: $GPZDA,214427.00,01,12,2017,00,00*66
2017-12-01 16:44:26 1512164666.848180: $GPGGA,214427,3946.9639,N,08404.9754,W,2,11,0.80,308.07,M,-33.324,M,,*73
2017-12-01 16:44:26 1512164666.848247: $GPRMC,214427,A,3946.9639,N,08404.9754,W,0.0000,0.000,011217,,*37
2017-12-01 16:44:26 1512164666.848308: $GPGSA,A,3,1,10,14,22,31,32,11,25,26,12,138,,2.0,0.8,1.5*30
2017-12-01 16:44:27 1512164667.396120: $GPZDA,214428.00,01,12,2017,00,00*69
2017-12-01 16:44:27 1512164667.396290: $GPGGA,214428,3946.9639,N,08404.9754,W,2,11,0.80,308.07,M,-33.324,M,,*7C
2017-12-01 16:44:27 1512164667.396355: $GPRMC,214428,A,3946.9639,N,08404.9754,W,0.0000,0.000,011217,,*38
2017-12-01 16:44:27 1512164667.396416: $GPGSA,A,3,1,10,14,22,31,32,11,25,26,12,138,,2.0,0.8,1.5*30
2017-12-01 16:44:28 1512164668.396130: $GPZDA,214429.00,01,12,2017,00,00*68
2017-12-01 16:44:28 1512164668.396404: $GPGGA,214429,3946.9639,N,08404.9754,W,2,11,0.80,308.07,M,-33.324,M,,*7D
2017-12-01 16:44:28 1512164668.396518: $GPRMC,214429,A,3946.9639,N,08404.9754,W,0.0000,0.000,011217,,*39
2017-12-01 16:44:28 1512164668.396615: $GPGSA,A,3,1,10,14,22,31,32,11,25,26,12,138,,2.0,0.8,1.5*30
2017-12-01 16:44:29 1512164669.731626: $GPGSV,3,1,12,01,22,294,42,10,41,151,41,14,68,342,43,22,24,312,41*7E
2017-12-01 16:44:29 1512164669.731803: $GPGSV,3,2,12,31,62,231,50,32,66,043,49,11,06,277,35,25,41,082,24*7F
2017-12-01 16:44:29 1512164669.731869: $GPGSV,3,3,12,26,08,181,27,18,12,145,07,12,19,045,26,138,38,213,40*4D
2017-12-01 16:44:29 1512164669.845186: $GPZDA,214430.00,01,12,2017,00,00*60
2017-12-01 16:44:29 1512164669.845352: $GPGGA,214430,3946.9639,N,08404.9754,W,2,12,0.80,308.07,M,-33.324,M,,*76
2017-12-01 16:44:29 1512164669.845419: $GPRMC,214430,A,3946.9639,N,08404.9754,W,0.0000,0.000,011217,,*31
2017-12-01 16:44:29 1512164669.845481: $GPGSA,A,3,1,10,14,22,31,32,11,25,26,18,12,138,2.0,0.8,1.5*39
2017-12-01 16:44:30 1512164670.471800: $GPZDA,214431.00,01,12,2017,00,00*61
2017-12-01 16:44:30 1512164670.471962: $GPGGA,214431,3946.9639,N,08404.9754,W,2,12,0.80,308.07,M,-33.324,M,,*77
2017-12-01 16:44:30 1512164670.472029: $GPRMC,214431,A,3946.9639,N,08404.9754,W,0.0000,0.000,011217,,*30
2017-12-01 16:44:30 1512164670.472090: $GPGSA,A,3,1,10,14,22,31,32,11,25,26,18,12,138,2.0,0.8,1.5*39
2017-12-01 16:44:31 1512164671.396384: $GPZDA,214432.00,01,12,2017,00,00*62
2017-12-01 16:44:31 1512164671.396556: $GPGGA,214432,3946.9639,N,08404.9754,W,2,12,0.80,308.07,M,-33.324,M,,*74
2017-12-01 16:44:31 1512164671.396623: $GPRMC,214432,A,3946.9639,N,08404.9754,W,0.0000,0.000,011217,,*33
2017-12-01 16:44:31 1512164671.396684: $GPGSA,A,3,1,10,14,22,31,32,11,25,26,18,12,138,2.0,0.8,1.5*39
2017-12-01 16:44:32 1512164672.730601: $GPGSV,3,1,12,01,22,294,42,10,41,151,41,14,68,342,43,22,24,312,41*7E
2017-12-01 16:44:32 1512164672.730781: $GPGSV,3,2,12,31,62,231,50,32,66,043,49,11,06,277,35,25,41,082,23*78
2017-12-01 16:44:32 1512164672.730846: $GPGSV,3,3,12,26,08,181,28,18,12,145,14,12,19,045,19,138,38,213,41*4D
2017-12-01 16:44:32 1512164672.844204: $GPZDA,214433.00,01,12,2017,00,00*63
2017-12-01 16:44:32 1512164672.844342: $GPGGA,214433,3946.9639,N,08404.9754,W,2,12,0.80,308.07,M,-33.324,M,,*75
2017-12-01 16:44:32 1512164672.844410: $GPRMC,214433,A,3946.9639,N,08404.9754,W,0.0000,0.000,011217,,*32
2017-12-01 16:44:32 1512164672.844470: $GPGSA,A,3,1,10,14,22,31,32,11,25,26,18,12,138,2.0,0.8,1.5*39
2017-12-01 16:44:33 1512164673.396958: $GPZDA,214434.00,01,12,2017,00,00*64
2017-12-01 16:44:33 1512164673.397167: $GPGGA,214434,3946.9639,N,08404.9754,W,2,12,0.80,308.07,M,-33.324,M,,*72
2017-12-01 16:44:33 1512164673.397266: $GPRMC,214434,A,3946.9639,N,08404.9754,W,0.0000,0.000,011217,,*35
2017-12-01 16:44:33 1512164673.397348: $GPGSA,A,3,1,10,14,22,31,32,11,25,26,18,12,138,2.0,0.8,1.5*39
