2017-11-16 13:26:30 1510856790.817146: {"class":"VERSION","release":"3.17","rev":"3.17","proto_major":3,"proto_minor":12}
2017-11-16 13:26:30 1510856790.817666: {"class":"DEVICES","devices":[{"class":"DEVICE","path":"/dev/ttyUSB0","driver":"SiRF","subtype":"9\u0006GSD4e_4.1.2-P1_RPATCH.05-F-GPS-4R-1510281 11/03/2015 307","activated":"2017-11-16T18:26:30.755Z","flags":1,"native":1,"bps":4800,"parity":"N","stopbits":1,"cycle":1.00}]}
2017-11-16 13:26:30 1510856790.817792: {"class":"WATCH","enable":true,"json":false,"nmea":true,"raw":0,"scaled":false,"timing":false,"split24":false,"pps":false}
2017-11-16 13:26:31 1510856791.267301: $GPZDA,182630.00,16,11,2017,00,00*6B
2017-11-16 13:26:31 1510856791.267461: $GPGGA,182630,3946.9615,N,08404.9845,W,2,11,0.80,303.96,M,-33.324,M,,*79
2017-11-16 13:26:31 1510856791.267522: $GPRMC,182630,A,3946.9615,N,08404.9845,W,0.0000,0.000,161117,,*3B
2017-11-16 13:26:31 1510856791.267579: $GPGSA,A,3,10,13,15,18,20,21,24,27,32,29,138,,1.6,0.8,1.3*03
2017-11-16 13:26:32 1510856792.271876: $GPZDA,182631.00,16,11,2017,00,00*6A
2017-11-16 13:26:32 1510856792.272043: $GPGGA,182631,3946.9615,N,08404.9845,W,2,11,0.80,303.96,M,-33.324,M,,*78
2017-11-16 13:26:32 1510856792.272105: $GPRMC,182631,A,3946.9615,N,08404.9845,W,0.0000,0.000,161117,,*3A
2017-11-16 13:26:32 1510856792.272162: $GPGSA,A,3,10,13,15,18,20,21,24,27,32,29,138,,1.6,0.8,1.3*03
2017-11-16 13:26:33 1510856793.608785: $GPGSV,3,1,12,10,25,285,42,13,27,045,45,15,59,051,50,18,56,303,46*71
2017-11-16 13:26:33 1510856793.608971: $GPGSV,3,2,12,20,49,075,48,21,78,259,46,24,35,136,42,27,17,310,42*7F
2017-11-16 13:26:33 1510856793.609032: $GPGSV,3,3,12,32,02,226,27,29,07,189,30,05,02,088,00,138,38,213,45*42
2017-11-16 13:26:33 1510856793.722358: $GPZDA,182632.00,16,11,2017,00,00*69
2017-11-16 13:26:33 1510856793.722518: $GPGGA,182632,3946.9615,N,08404.9845,W,2,11,0.80,303.96,M,-33.324,M,,*7B
2017-11-16 13:26:33 1510856793.722579: $GPRMC,182632,A,3946.9615,N,08404.9845,W,0.0000,0.000,161117,,*39
2017-11-16 13:26:33 1510856793.722635: $GPGSA,A,3,10,13,15,18,20,21,24,27,32,29,138,,1.6,0.8,1.3*03
2017-11-16 13:26:34 1510856794.292951: $GPZDA,182633.00,16,11,2017,00,00*68
2017-11-16 13:26:34 1510856794.293121: $GPGGA,182633,3946.9615,N,08404.9845,W,2,11,0.80,303.96,M,-33.324,M,,*7A
2017-11-16 13:26:34 1510856794.293185: $GPRMC,182633,A,3946.9615,N,08404.9845,W,0.0000,0.000,161117,,*38
2017-11-16 13:26:34 1510856794.293241: $GPGSA,A,3,10,13,15,18,20,21,24,27,32,29,138,,1.6,0.8,1.3*03
2017-11-16 13:26:35 1510856795.276032: $GPZDA,182634.00,16,11,2017,00,00*6F
2017-11-16 13:26:35 1510856795.276198: $GPGGA,182634,3946.9615,N,08404.9845,W,2,11,0.80,303.96,M,-33.324,M,,*7D
2017-11-16 13:26:35 1510856795.276261: $GPRMC,182634,A,3946.9615,N,08404.9845,W,0.0000,0.000,161117,,*3F
2017-11-16 13:26:35 1510856795.276316: $GPGSA,A,3,10,13,15,18,20,21,24,27,32,29,138,,1.6,0.8,1.3*03
2017-11-16 13:26:36 1510856796.629220: $GPGSV,3,1,12,10,25,285,43,13,27,045,45,15,59,051,50,18,56,303,46*70
2017-11-16 13:26:36 1510856796.629363: $GPGSV,3,2,12,20,49,075,48,21,78,259,46,24,35,136,42,27,17,310,42*7F
2017-11-16 13:26:36 1510856796.629425: $GPGSV,3,3,12,32,02,226,27,29,07,189,29,05,02,088,02,138,38,213,44*49
2017-11-16 13:26:36 1510856796.742537: $GPZDA,182635.00,16,11,2017,00,00*6E
2017-11-16 13:26:36 1510856796.742704: $GPGGA,182635,3946.9615,N,08404.9845,W,2,11,0.80,303.96,M,-33.324,M,,*7C
2017-11-16 13:26:36 1510856796.742765: $GPRMC,182635,A,3946.9615,N,08404.9845,W,0.0000,0.000,161117,,*3E
2017-11-16 13:26:36 1510856796.742823: $GPGSA,A,3,10,13,15,18,20,21,24,27,32,29,138,,1.6,0.8,1.3*03
2017-11-16 13:26:37 1510856797.269605: $GPZDA,182636.00,16,11,2017,00,00*6D
2017-11-16 13:26:37 1510856797.269769: $GPGGA,182636,3946.9615,N,08404.9845,W,2,11,0.80,303.96,M,-33.324,M,,*7F
2017-11-16 13:26:37 1510856797.269830: $GPRMC,182636,A,3946.9615,N,08404.9845,W,0.0000,0.000,161117,,*3D
2017-11-16 13:26:37 1510856797.269886: $GPGSA,A,3,10,13,15,18,20,21,24,27,32,29,138,,1.6,0.8,1.3*03
2017-11-16 13:26:38 1510856798.294158: $GPZDA,182637.00,16,11,2017,00,00*6C
2017-11-16 13:26:38 1510856798.294373: $GPGGA,182637,3946.9615,N,08404.9845,W,2,11,0.80,303.96,M,-33.324,M,,*7E
2017-11-16 13:26:38 1510856798.294436: $GPRMC,182637,A,3946.9615,N,08404.9845,W,0.0000,0.000,161117,,*3C
2017-11-16 13:26:38 1510856798.294493: $GPGSA,A,3,10,13,15,18,20,21,24,27,32,29,138,,1.6,0.8,1.3*03
2017-11-16 13:26:39 1510856799.609914: $GPGSV,3,1,12,10,25,285,43,13,27,045,45,15,59,051,51,18,56,303,46*71
2017-11-16 13:26:39 1510856799.610083: $GPGSV,3,2,12,20,49,075,47,21,78,259,46,24,35,136,42,27,17,310,42*70
2017-11-16 13:26:39 1510856799.610144: $GPGSV,3,3,12,32,02,226,18,29,07,189,29,05,02,088,00,138,38,213,43*40
2017-11-16 13:26:39 1510856799.723469: $GPZDA,182638.00,16,11,2017,00,00*63
2017-11-16 13:26:39 1510856799.723608: $GPGGA,182638,3946.9615,N,08404.9845,W,2,11,0.80,303.96,M,-33.324,M,,*71
2017-11-16 13:26:39 1510856799.723668: $GPRMC,182638,A,3946.9615,N,08404.9845,W,0.0000,0.000,161117,,*33
2017-11-16 13:26:39 1510856799.723724: $GPGSA,A,3,10,13,15,18,20,21,24,27,32,29,138,,1.6,0.8,1.3*03
2017-11-16 13:26:40 1510856800.348592: $GPZDA,182639.00,16,11,2017,00,00*62
2017-11-16 13:26:40 1510856800.348754: $GPGGA,182639,3946.9615,N,08404.9845,W,2,11,0.80,303.96,M,-33.324,M,,*70
2017-11-16 13:26:40 1510856800.348814: $GPRMC,182639,A,3946.9615,N,08404.9845,W,0.0000,0.000,161117,,*32
2017-11-16 13:26:40 1510856800.348870: $GPGSA,A,3,10,13,15,18,20,21,24,27,32,29,138,,1.6,0.8,1.3*03
2017-11-16 13:26:41 1510856801.291893: $GPZDA,182640.00,16,11,2017,00,00*6C
2017-11-16 13:26:41 1510856801.292050: $GPGGA,182640,3946.9615,N,08404.9845,W,2,11,1.20,303.96,M,-33.324,M,,*75
2017-11-16 13:26:41 1510856801.292110: $GPRMC,182640,A,3946.9615,N,08404.9845,W,0.0000,0.000,161117,,*3C
2017-11-16 13:26:41 1510856801.292166: $GPGSA,A,3,10,13,15,18,20,21,24,27,32,29,138,,1.6,1.2,1.3*08
2017-11-16 13:26:42 1510856802.611377: $GPGSV,3,1,12,10,25,285,42,13,27,045,45,15,59,051,51,18,56,303,46*70
2017-11-16 13:26:42 1510856802.611545: $GPGSV,3,2,12,20,49,075,47,21,78,259,46,24,35,136,42,27,17,310,42*70
2017-11-16 13:26:42 1510856802.611605: $GPGSV,3,3,12,32,02,226,20,05,02,088,08,29,07,189,13,138,38,213,44*4D
2017-11-16 13:26:42 1510856802.724650: $GPZDA,182641.00,16,11,2017,00,00*6D
2017-11-16 13:26:42 1510856802.724804: $GPGGA,182641,3946.9615,N,08404.9845,W,2,11,0.80,303.96,M,-33.324,M,,*7F
2017-11-16 13:26:42 1510856802.724864: $GPRMC,182641,A,3946.9615,N,08404.9845,W,0.0000,0.000,161117,,*3D
2017-11-16 13:26:42 1510856802.724919: $GPGSA,A,3,10,13,15,18,20,21,24,27,32,29,138,,1.6,0.8,1.3*03
2017-11-16 13:26:43 1510856803.268075: $GPZDA,182642.00,16,11,2017,00,00*6E
2017-11-16 13:26:43 1510856803.268245: $GPGGA,182642,3946.9615,N,08404.9845,W,2,11,0.80,303.96,M,-33.324,M,,*7C
2017-11-16 13:26:43 1510856803.268306: $GPRMC,182642,A,3946.9615,N,08404.9845,W,0.0000,0.000,161117,,*3E
2017-11-16 13:26:43 1510856803.268365: $GPGSA,A,3,10,13,15,18,20,21,24,27,32,29,138,,1.6,0.8,1.3*03
2017-11-16 13:26:44 1510856804.285364: $GPZDA,182643.00,16,11,2017,00,00*6F
2017-11-16 13:26:44 1510856804.285527: $GPGGA,182643,3946.9615,N,08404.9845,W,2,11,0.80,303.96,M,-33.324,M,,*7D
2017-11-16 13:26:44 1510856804.285590: $GPRMC,182643,A,3946.9615,N,08404.9845,W,0.0000,0.000,161117,,*3F
2017-11-16 13:26:44 1510856804.285646: $GPGSA,A,3,10,13,15,18,20,21,24,27,32,29,138,,1.6,0.8,1.3*03
2017-11-16 13:26:45 1510856805.607828: $GPGSV,3,1,12,10,25,285,42,13,27,045,45,15,59,051,51,18,56,303,46*70
2017-11-16 13:26:45 1510856805.608002: $GPGSV,3,2,12,20,49,075,48,21,78,259,46,24,35,136,42,27,17,310,42*7F
2017-11-16 13:26:45 1510856805.608064: $GPGSV,3,3,12,32,02,226,21,05,02,088,00,29,07,189,25,138,38,213,44*41
2017-11-16 13:26:45 1510856805.721189: $GPZDA,182644.00,16,11,2017,00,00*68
2017-11-16 13:26:45 1510856805.721358: $GPGGA,182644,3946.9615,N,08404.9845,W,2,11,0.80,303.96,M,-33.324,M,,*7A
2017-11-16 13:26:45 1510856805.721418: $GPRMC,182644,A,3946.9615,N,08404.9845,W,0.0000,0.000,161117,,*38
2017-11-16 13:26:45 1510856805.721475: $GPGSA,A,3,10,13,15,18,20,21,24,27,32,29,138,,1.6,0.8,1.3*03
