2017-11-16 17:23:37 1510871017.471342: {"class":"VERSION","release":"3.17","rev":"3.17","proto_major":3,"proto_minor":12}
2017-11-16 17:23:37 1510871017.471768: {"class":"DEVICES","devices":[{"class":"DEVICE","path":"/dev/ttyUSB0","driver":"SiRF","subtype":"9\u0006GSD4e_4.1.2-P1_RPATCH.05-F-GPS-4R-1510281 11/03/2015 307","activated":"2017-11-16T22:23:37.440Z","flags":1,"native":1,"bps":4800,"parity":"N","stopbits":1,"cycle":1.00}]}
2017-11-16 17:23:37 1510871017.471876: {"class":"WATCH","enable":true,"json":false,"nmea":true,"raw":0,"scaled":false,"timing":false,"split24":false,"pps":false}
2017-11-16 17:23:38 1510871018.421769: $GPZDA,222337.00,16,11,2017,00,00*60
2017-11-16 17:23:38 1510871018.421938: $GPGGA,222337,3946.9574,N,08404.9830,W,2,11,0.80,308.39,M,-33.324,M,,*7A
2017-11-16 17:23:38 1510871018.421998: $GPRMC,222337,A,3946.9574,N,08404.9830,W,0.0000,0.000,161117,,*36
2017-11-16 17:23:38 1510871018.422054: $GPGSA,A,3,1,10,22,12,14,18,11,25,31,32,138,,1.6,0.8,1.3*3E
2017-11-16 17:23:39 1510871019.757560: $GPGSV,3,1,12,01,20,304,38,10,53,145,49,22,15,312,44,12,23,054,50*7F
2017-11-16 17:23:39 1510871019.757725: $GPGSV,3,2,12,14,64,318,47,18,22,142,41,24,01,048,00,11,09,286,36*75
2017-11-16 17:23:39 1510871019.757785: $GPGSV,3,3,12,25,38,096,48,31,51,222,49,32,69,013,50,138,38,213,44*44
2017-11-16 17:23:39 1510871019.871124: $GPZDA,222338.00,16,11,2017,00,00*6F
2017-11-16 17:23:39 1510871019.871285: $GPGGA,222338,3946.9574,N,08404.9830,W,2,11,0.80,308.39,M,-33.324,M,,*75
2017-11-16 17:23:39 1510871019.871346: $GPRMC,222338,A,3946.9574,N,08404.9830,W,0.0000,0.000,161117,,*39
2017-11-16 17:23:39 1510871019.871401: $GPGSA,A,3,1,10,22,12,14,18,11,25,31,32,138,,1.6,0.8,1.3*3E
2017-11-16 17:23:40 1510871020.417087: $GPZDA,222339.00,16,11,2017,00,00*6E
2017-11-16 17:23:40 1510871020.417245: $GPGGA,222339,3946.9574,N,08404.9830,W,2,11,0.80,308.39,M,-33.324,M,,*74
2017-11-16 17:23:40 1510871020.417305: $GPRMC,222339,A,3946.9574,N,08404.9830,W,0.0000,0.000,161117,,*38
2017-11-16 17:23:40 1510871020.417360: $GPGSA,A,3,1,10,22,12,14,18,11,25,31,32,138,,1.6,0.8,1.3*3E
2017-11-16 17:23:41 1510871021.422164: $GPZDA,222340.00,16,11,2017,00,00*60
2017-11-16 17:23:41 1510871021.422322: $GPGGA,222340,3946.9574,N,08404.9830,W,2,11,0.80,308.39,M,-33.324,M,,*7A
2017-11-16 17:23:41 1510871021.422405: $GPRMC,222340,A,3946.9574,N,08404.9830,W,0.0000,0.000,161117,,*36
2017-11-16 17:23:41 1510871021.422463: $GPGSA,A,3,1,10,22,12,14,18,11,25,31,32,138,,1.6,0.8,1.3*3E
2017-11-16 17:23:42 1510871022.739318: $GPGSV,3,1,12,01,20,304,37,10,53,145,49,22,15,312,44,12,23,054,50*70
2017-11-16 17:23:42 1510871022.739586: $GPGSV,3,2,12,14,64,318,47,18,22,142,40,24,01,048,00,11,09,286,36*74
2017-11-16 17:23:42 1510871022.739672: $GPGSV,3,3,12,25,38,096,48,31,51,222,49,32,69,013,50,138,38,213,44*44
2017-11-16 17:23:42 1510871022.851414: $GPZDA,222341.00,16,11,2017,00,00*61
2017-11-16 17:23:42 1510871022.851587: $GPGGA,222341,3946.9574,N,08404.9830,W,2,11,0.80,308.39,M,-33.324,M,,*7B
2017-11-16 17:23:42 1510871022.851648: $GPRMC,222341,A,3946.9574,N,08404.9830,W,0.0000,0.000,161117,,*37
2017-11-16 17:23:42 1510871022.851724: $GPGSA,A,3,1,10,22,12,14,18,11,25,31,32,138,,1.6,0.8,1.3*3E
2017-11-16 17:23:43 1510871023.421111: $GPZDA,222342.00,16,11,2017,00,00*62
2017-11-16 17:23:43 1510871023.421282: $GPGGA,222342,3946.9574,N,08404.9830,W,2,11,0.80,308.39,M,-33.324,M,,*78
2017-11-16 17:23:43 1510871023.421343: $GPRMC,222342,A,3946.9574,N,08404.9830,W,0.0000,0.000,161117,,*34
2017-11-16 17:23:43 1510871023.421425: $GPGSA,A,3,1,10,22,12,14,18,11,25,31,32,138,,1.6,0.8,1.3*3E
2017-11-16 17:23:44 1510871024.421891: $GPZDA,222343.00,16,11,2017,00,00*63
2017-11-16 17:23:44 1510871024.422068: $GPGGA,222343,3946.9574,N,08404.9830,W,2,11,0.80,308.39,M,-33.324,M,,*79
2017-11-16 17:23:44 1510871024.422130: $GPRMC,222343,A,3946.9574,N,08404.9830,W,0.0000,0.000,161117,,*35
2017-11-16 17:23:44 1510871024.422186: $GPGSA,A,3,1,10,22,12,14,18,11,25,31,32,138,,1.6,0.8,1.3*3E
2017-11-16 17:23:45 1510871025.757447: $GPGSV,3,1,12,01,20,304,38,10,53,145,49,22,15,312,44,12,23,054,50*7F
2017-11-16 17:23:45 1510871025.757687: $GPGSV,3,2,12,14,64,318,46,18,22,142,40,24,01,048,00,11,09,286,36*75
2017-11-16 17:23:45 1510871025.757750: $GPGSV,3,3,12,25,38,096,47,31,51,222,49,32,69,013,50,138,38,213,43*4C
2017-11-16 17:23:45 1510871025.870753: $GPZDA,222344.00,16,11,2017,00,00*64
2017-11-16 17:23:45 1510871025.870933: $GPGGA,222344,3946.9574,N,08404.9830,W,2,11,0.80,308.39,M,-33.324,M,,*7E
2017-11-16 17:23:45 1510871025.871014: $GPRMC,222344,A,3946.9574,N,08404.9830,W,0.0000,0.000,161117,,*32
2017-11-16 17:23:45 1510871025.871072: $GPGSA,A,3,1,10,22,12,14,18,11,25,31,32,138,,1.6,0.8,1.3*3E
2017-11-16 17:23:46 1510871026.496138: $GPZDA,222345.00,16,11,2017,00,00*65
2017-11-16 17:23:46 1510871026.496306: $GPGGA,222345,3946.9574,N,08404.9830,W,2,11,0.80,308.39,M,-33.324,M,,*7F
2017-11-16 17:23:46 1510871026.496392: $GPRMC,222345,A,3946.9574,N,08404.9830,W,0.0000,0.000,161117,,*33
2017-11-16 17:23:46 1510871026.496449: $GPGSA,A,3,1,10,22,12,14,18,11,25,31,32,138,,1.6,0.8,1.3*3E
2017-11-16 17:23:47 1510871027.402003: $GPZDA,222346.00,16,11,2017,00,00*66
2017-11-16 17:23:47 1510871027.402163: $GPGGA,222346,3946.9574,N,08404.9830,W,2,11,0.80,308.39,M,-33.324,M,,*7C
2017-11-16 17:23:47 1510871027.402224: $GPRMC,222346,A,3946.9574,N,08404.9830,W,0.0000,0.000,161117,,*30
2017-11-16 17:23:47 1510871027.402281: $GPGSA,A,3,1,10,22,12,14,18,11,25,31,32,138,,1.6,0.8,1.3*3E
