2017-11-15 19:55:27 1510793727.462243: {"class":"VERSION","release":"3.17","rev":"3.17","proto_major":3,"proto_minor":12}
2017-11-15 19:55:27 1510793727.462724: {"class":"DEVICES","devices":[{"class":"DEVICE","path":"/dev/ttyUSB0","driver":"SiRF","subtype":"9\u0006GSD4e_4.1.2-P1_RPATCH.05-F-GPS-4R-1510281 11/03/2015 307","activated":"2017-11-16T00:55:27.232Z","flags":1,"native":1,"bps":4800,"parity":"N","stopbits":1,"cycle":1.00}]}
2017-11-15 19:55:27 1510793727.462837: {"class":"WATCH","enable":true,"json":false,"nmea":true,"raw":0,"scaled":false,"timing":false,"split24":false,"pps":false}
2017-11-15 19:55:27 1510793727.681953: $GPGSV,3,1,10,03,44,285,04,16,34,190,23,31,58,040,22,26,65,165,16*72
2017-11-15 19:55:27 1510793727.682126: $GPGSV,3,2,10,14,46,106,21,22,48,252,22,32,27,117,17,23,20,304,08*7A
2017-11-15 19:55:27 1510793727.682186: $GPGSV,3,3,10,29,13,060,00,25,08,037,00*7C
2017-11-15 19:55:27 1510793727.795287: $GPZDA,005526.00,16,11,2017,00,00*61
2017-11-15 19:55:27 1510793727.795450: $GPGGA,005526,3946.9509,N,08404.9543,W,1,07,1.00,288.31,M,-33.324,M,,*74
2017-11-15 19:55:27 1510793727.795511: $GPRMC,005526,A,3946.9509,N,08404.9543,W,0.4207,39.347,161117,,*0F
2017-11-15 19:55:27 1510793727.795566: $GPGSA,A,3,16,31,26,14,22,32,23,,,,,,3.4,1.0,2.9*3B
2017-11-15 19:55:28 1510793728.329925: $GPZDA,005527.00,16,11,2017,00,00*60
2017-11-15 19:55:28 1510793728.330113: $GPGGA,005527,3946.9509,N,08404.9536,W,1,07,1.00,288.39,M,-33.324,M,,*7F
2017-11-15 19:55:28 1510793728.330177: $GPRMC,005527,A,3946.9509,N,08404.9536,W,0.4179,328.778,161117,,*3D
2017-11-15 19:55:28 1510793728.330238: $GPGSA,A,3,16,31,26,14,22,32,23,,,,,,3.4,1.0,2.9*3B
2017-11-15 19:55:29 1510793729.346233: $GPZDA,005528.00,16,11,2017,00,00*6F
2017-11-15 19:55:29 1510793729.346417: $GPGGA,005528,3946.9513,N,08404.9536,W,1,07,1.00,289.03,M,-33.324,M,,*73
2017-11-15 19:55:29 1510793729.346483: $GPRMC,005528,A,3946.9513,N,08404.9536,W,0.3155,309.994,161117,,*3F
2017-11-15 19:55:29 1510793729.346541: $GPGSA,A,3,16,31,26,14,22,32,23,,,,,,3.4,1.0,2.9*3B
2017-11-15 19:55:30 1510793730.681555: $GPGSV,3,1,10,03,44,285,04,16,34,190,23,31,58,040,22,26,65,165,17*73
2017-11-15 19:55:30 1510793730.681707: $GPGSV,3,2,10,14,46,106,21,22,48,252,22,32,27,117,18,23,20,304,09*74
2017-11-15 19:55:30 1510793730.681769: $GPGSV,3,3,10,29,13,060,00,25,08,037,00*7C
2017-11-15 19:55:30 1510793730.793680: $GPZDA,005529.00,16,11,2017,00,00*6E
2017-11-15 19:55:30 1510793730.793849: $GPGGA,005529,3946.9513,N,08404.9536,W,1,07,1.00,289.03,M,-33.324,M,,*72
2017-11-15 19:55:30 1510793730.793912: $GPRMC,005529,A,3946.9513,N,08404.9536,W,0.8414,39.347,161117,,*01
2017-11-15 19:55:30 1510793730.793971: $GPGSA,A,3,16,31,26,14,22,32,23,,,,,,3.4,1.0,2.9*3B
2017-11-15 19:55:31 1510793731.420555: $GPZDA,005530.00,16,11,2017,00,00*66
2017-11-15 19:55:31 1510793731.420718: $GPGGA,005530,3946.9517,N,08404.9535,W,1,07,1.00,288.27,M,-33.324,M,,*7A
2017-11-15 19:55:31 1510793731.420799: $GPRMC,005530,A,3946.9517,N,08404.9535,W,0.6846,4.197,161117,,*3A
2017-11-15 19:55:31 1510793731.420859: $GPGSA,A,3,16,31,26,14,22,32,23,,,,,,3.4,1.0,2.9*3B
2017-11-15 19:55:32 1510793732.328914: $GPZDA,005531.00,16,11,2017,00,00*67
2017-11-15 19:55:32 1510793732.329111: $GPGGA,005531,3946.9517,N,08404.9535,W,1,07,1.00,288.27,M,-33.324,M,,*7B
2017-11-15 19:55:32 1510793732.329198: $GPRMC,005531,A,3946.9517,N,08404.9535,W,0.5857,338.291,161117,,*31
2017-11-15 19:55:32 1510793732.329259: $GPGSA,A,3,16,31,26,14,22,32,23,,,,,,3.4,1.0,2.9*3B
2017-11-15 19:55:33 1510793733.680722: $GPGSV,3,1,10,03,44,285,00,16,34,190,23,31,58,040,21,26,65,165,18*7B
2017-11-15 19:55:33 1510793733.680900: $GPGSV,3,2,10,14,46,106,21,22,48,252,22,32,27,117,18,23,20,304,09*74
2017-11-15 19:55:33 1510793733.680964: $GPGSV,3,3,10,29,13,060,00,25,08,037,00*7C
2017-11-15 19:55:33 1510793733.794095: $GPZDA,005532.00,16,11,2017,00,00*64
2017-11-15 19:55:33 1510793733.794277: $GPGGA,005532,3946.9516,N,08404.9528,W,1,07,1.00,288.35,M,-33.324,M,,*76
2017-11-15 19:55:33 1510793733.794342: $GPRMC,005532,A,3946.9516,N,08404.9528,W,0.7278,23.636,161117,,*0A
2017-11-15 19:55:33 1510793733.794455: $GPGSA,A,3,16,31,26,14,22,32,23,,,,,,3.4,1.0,2.9*3B
2017-11-15 19:55:34 1510793734.331899: $GPZDA,005533.00,16,11,2017,00,00*65
2017-11-15 19:55:34 1510793734.332143: $GPGGA,005533,3946.9516,N,08404.9528,W,1,07,1.00,288.35,M,-33.324,M,,*77
2017-11-15 19:55:34 1510793734.332224: $GPRMC,005533,A,3946.9516,N,08404.9528,W,0.6846,4.197,161117,,*34
2017-11-15 19:55:34 1510793734.332292: $GPGSA,A,3,16,31,26,14,22,32,23,,,,,,3.4,1.0,2.9*3B
2017-11-15 19:55:35 1510793735.328575: $GPZDA,005534.00,16,11,2017,00,00*62
2017-11-15 19:55:35 1510793735.328724: $GPGGA,005534,3946.9520,N,08404.9528,W,1,07,1.00,288.99,M,-33.324,M,,*73
2017-11-15 19:55:35 1510793735.328784: $GPRMC,005534,A,3946.9520,N,08404.9528,W,0.7246,344.668,161117,,*3D
2017-11-15 19:55:35 1510793735.328840: $GPGSA,A,3,16,31,26,14,22,32,23,,,,,,3.4,1.0,2.9*3B
2017-11-15 19:55:36 1510793736.681023: $GPGSV,3,1,10,03,44,285,00,16,34,190,23,31,58,040,21,26,65,165,19*7A
2017-11-15 19:55:36 1510793736.681197: $GPGSV,3,2,10,14,46,106,21,22,48,252,22,32,27,117,18,23,20,304,10*7C
2017-11-15 19:55:36 1510793736.681257: $GPGSV,3,3,10,29,13,060,00,25,08,037,00*7C
2017-11-15 19:55:36 1510793736.793079: $GPZDA,005535.00,16,11,2017,00,00*63
2017-11-15 19:55:36 1510793736.793222: $GPGGA,005535,3946.9524,N,08404.9528,W,1,07,1.00,288.22,M,-33.324,M,,*76
2017-11-15 19:55:36 1510793736.793282: $GPRMC,005535,A,3946.9524,N,08404.9528,W,0.4179,328.778,161117,,*3E
2017-11-15 19:55:36 1510793736.793338: $GPGSA,A,3,16,31,26,14,22,32,23,,,,,,3.4,1.0,2.9*3B
2017-11-15 19:55:37 1510793737.329312: $GPZDA,005536.00,16,11,2017,00,00*60
2017-11-15 19:55:37 1510793737.329484: $GPGGA,005536,3946.9520,N,08404.9528,W,1,07,1.00,288.99,M,-33.324,M,,*71
2017-11-15 19:55:37 1510793737.332105: $GPRMC,005536,A,3946.9520,N,08404.9528,W,0.5951,238.684,161117,,*38
2017-11-15 19:55:37 1510793737.332189: $GPGSA,A,3,16,31,26,14,22,32,23,,,,,,3.4,1.0,2.9*3B
