2017-11-16 15:11:43 1510863103.597098: {"class":"VERSION","release":"3.17","rev":"3.17","proto_major":3,"proto_minor":12}
2017-11-16 15:11:43 1510863103.597520: {"class":"DEVICES","devices":[{"class":"DEVICE","path":"/dev/ttyUSB0","driver":"SiRF","subtype":"9\u0006GSD4e_4.1.2-P1_RPATCH.05-F-GPS-4R-1510281 11/03/2015 307","activated":"2017-11-16T20:11:43.275Z","flags":1,"native":1,"bps":4800,"parity":"N","stopbits":1,"cycle":1.00}]}
2017-11-16 15:11:43 1510863103.597628: {"class":"WATCH","enable":true,"json":false,"nmea":true,"raw":0,"scaled":false,"timing":false,"split24":false,"pps":false}
2017-11-16 15:11:43 1510863103.723732: $GPGSV,3,1,12,08,07,300,26,10,63,322,50,14,24,249,46,15,16,063,40*7E
2017-11-16 15:11:43 1510863103.723900: $GPGSV,3,2,12,18,75,073,47,20,13,114,35,21,36,181,45,24,49,067,48*7C
2017-11-16 15:11:43 1510863103.723961: $GPGSV,3,3,12,27,10,265,42,32,41,258,46,12,05,112,26,138,38,213,44*41
2017-11-16 15:11:43 1510863103.837065: $GPZDA,201142.00,16,11,2017,00,00*61
2017-11-16 15:11:43 1510863103.837239: $GPGGA,201142,3946.9579,N,08404.9847,W,2,12,0.80,301.01,M,-33.324,M,,*77
2017-11-16 15:11:43 1510863103.837319: $GPRMC,201142,A,3946.9579,N,08404.9847,W,0.0000,0.000,161117,,*3A
2017-11-16 15:11:43 1510863103.837378: $GPGSA,A,3,8,10,14,15,18,20,21,24,27,32,12,138,1.6,0.8,1.3*34
2017-11-16 15:11:44 1510863104.386680: $GPZDA,201143.00,16,11,2017,00,00*60
2017-11-16 15:11:44 1510863104.386845: $GPGGA,201143,3946.9579,N,08404.9847,W,2,12,0.80,301.01,M,-33.324,M,,*76
2017-11-16 15:11:44 1510863104.386922: $GPRMC,201143,A,3946.9579,N,08404.9847,W,0.0000,0.000,161117,,*3B
2017-11-16 15:11:44 1510863104.386980: $GPGSA,A,3,8,10,14,15,18,20,21,24,27,32,12,138,1.6,0.8,1.3*34
2017-11-16 15:11:45 1510863105.387787: $GPZDA,201144.00,16,11,2017,00,00*67
2017-11-16 15:11:45 1510863105.387948: $GPGGA,201144,3946.9579,N,08404.9847,W,2,12,0.80,301.01,M,-33.324,M,,*71
2017-11-16 15:11:45 1510863105.388010: $GPRMC,201144,A,3946.9579,N,08404.9847,W,0.0000,0.000,161117,,*3C
2017-11-16 15:11:45 1510863105.388066: $GPGSA,A,3,8,10,14,15,18,20,21,24,27,32,12,138,1.6,0.8,1.3*34
2017-11-16 15:11:46 1510863106.716647: $GPGSV,3,1,12,08,07,300,25,10,63,322,50,14,24,249,46,15,16,063,39*73
2017-11-16 15:11:46 1510863106.716827: $GPGSV,3,2,12,18,75,073,47,20,13,114,35,21,36,181,46,24,49,067,48*7F
2017-11-16 15:11:46 1510863106.716916: $GPGSV,3,3,12,27,10,265,41,32,41,258,47,12,05,112,26,138,38,213,44*43
2017-11-16 15:11:46 1510863106.829743: $GPZDA,201145.00,16,11,2017,00,00*66
2017-11-16 15:11:46 1510863106.829909: $GPGGA,201145,3946.9579,N,08404.9847,W,2,12,0.80,301.01,M,-33.324,M,,*70
2017-11-16 15:11:46 1510863106.829970: $GPRMC,201145,A,3946.9579,N,08404.9847,W,0.0000,0.000,161117,,*3D
2017-11-16 15:11:46 1510863106.830025: $GPGSA,A,3,8,10,14,15,18,20,21,24,27,32,12,138,1.6,0.8,1.3*34
2017-11-16 15:11:47 1510863107.385705: $GPZDA,201146.00,16,11,2017,00,00*65
2017-11-16 15:11:47 1510863107.385887: $GPGGA,201146,3946.9579,N,08404.9847,W,2,12,0.80,301.01,M,-33.324,M,,*73
2017-11-16 15:11:47 1510863107.385950: $GPRMC,201146,A,3946.9579,N,08404.9847,W,0.0000,0.000,161117,,*3E
2017-11-16 15:11:47 1510863107.386006: $GPGSA,A,3,8,10,14,15,18,20,21,24,27,32,12,138,1.6,0.8,1.3*34
2017-11-16 15:11:48 1510863108.387654: $GPZDA,201147.00,16,11,2017,00,00*64
2017-11-16 15:11:48 1510863108.387896: $GPGGA,201147,3946.9579,N,08404.9847,W,2,12,0.80,301.01,M,-33.324,M,,*72
2017-11-16 15:11:48 1510863108.387959: $GPRMC,201147,A,3946.9579,N,08404.9847,W,0.0000,0.000,161117,,*3F
2017-11-16 15:11:48 1510863108.388015: $GPGSA,A,3,8,10,14,15,18,20,21,24,27,32,12,138,1.6,0.8,1.3*34
2017-11-16 15:11:49 1510863109.724686: $GPGSV,3,1,12,08,07,300,26,10,63,322,50,14,24,249,46,15,16,063,39*70
2017-11-16 15:11:49 1510863109.724859: $GPGSV,3,2,12,18,75,073,46,20,13,114,35,21,36,181,46,24,49,067,48*7E
2017-11-16 15:11:49 1510863109.724920: $GPGSV,3,3,12,27,10,265,42,32,41,258,47,12,05,112,26,138,38,213,44*40
2017-11-16 15:11:49 1510863109.837957: $GPZDA,201148.00,16,11,2017,00,00*6B
2017-11-16 15:11:49 1510863109.838121: $GPGGA,201148,3946.9579,N,08404.9847,W,2,12,0.80,301.01,M,-33.324,M,,*7D
2017-11-16 15:11:49 1510863109.838234: $GPRMC,201148,A,3946.9579,N,08404.9847,W,0.0000,0.000,161117,,*30
2017-11-16 15:11:49 1510863109.838292: $GPGSA,A,3,8,10,14,15,18,20,21,24,27,32,12,138,1.6,0.8,1.3*34
2017-11-16 15:11:50 1510863110.380063: $GPZDA,201149.00,16,11,2017,00,00*6A
2017-11-16 15:11:50 1510863110.380229: $GPGGA,201149,3946.9579,N,08404.9847,W,2,12,0.80,301.01,M,-33.324,M,,*7C
2017-11-16 15:11:50 1510863110.380335: $GPRMC,201149,A,3946.9579,N,08404.9847,W,0.0000,0.000,161117,,*31
2017-11-16 15:11:50 1510863110.380401: $GPGSA,A,3,8,10,14,15,18,20,21,24,27,32,12,138,1.6,0.8,1.3*34
2017-11-16 15:11:51 1510863111.380417: $GPZDA,201150.00,16,11,2017,00,00*62
2017-11-16 15:11:51 1510863111.380585: $GPGGA,201150,3946.9579,N,08404.9847,W,2,12,0.80,301.01,M,-33.324,M,,*74
2017-11-16 15:11:51 1510863111.380647: $GPRMC,201150,A,3946.9579,N,08404.9847,W,0.0000,0.000,161117,,*39
2017-11-16 15:11:51 1510863111.380703: $GPGSA,A,3,8,10,14,15,18,20,21,24,27,32,12,138,1.6,0.8,1.3*34
2017-11-16 15:11:52 1510863112.738739: $GPGSV,3,1,12,08,07,300,27,10,63,322,50,14,24,249,46,15,16,063,39*71
2017-11-16 15:11:52 1510863112.738911: $GPGSV,3,2,12,18,75,073,46,20,13,114,35,21,36,181,45,24,49,067,48*7D
2017-11-16 15:11:52 1510863112.738971: $GPGSV,3,3,12,27,10,265,42,32,41,258,47,12,05,112,26,138,38,213,44*40
2017-11-16 15:11:52 1510863112.852109: $GPZDA,201151.00,16,11,2017,00,00*63
2017-11-16 15:11:52 1510863112.852285: $GPGGA,201151,3946.9579,N,08404.9847,W,2,12,0.80,301.01,M,-33.324,M,,*75
2017-11-16 15:11:52 1510863112.852347: $GPRMC,201151,A,3946.9579,N,08404.9847,W,0.0000,0.000,161117,,*38
2017-11-16 15:11:52 1510863112.852404: $GPGSA,A,3,8,10,14,15,18,20,21,24,27,32,12,138,1.6,0.8,1.3*34
2017-11-16 15:11:53 1510863113.386626: $GPZDA,201152.00,16,11,2017,00,00*60
2017-11-16 15:11:53 1510863113.386790: $GPGGA,201152,3946.9579,N,08404.9847,W,2,12,0.80,301.01,M,-33.324,M,,*76
2017-11-16 15:11:53 1510863113.386851: $GPRMC,201152,A,3946.9579,N,08404.9847,W,0.0000,0.000,161117,,*3B
2017-11-16 15:11:53 1510863113.386907: $GPGSA,A,3,8,10,14,15,18,20,21,24,27,32,12,138,1.6,0.8,1.3*34
