2017-12-29 14:59:05 1514577545.820629: {"class":"VERSION","release":"3.16","rev":"3.16-4","proto_major":3,"proto_minor":11}
2017-12-29 14:59:05 1514577545.821205: {"class":"DEVICES","devices":[{"class":"DEVICE","path":"/dev/ttyUSB0","driver":"SiRF","subtype":"9\u0006GSD4e_4.1.2-P1_RPATCH.05-F-GPS-4R-1510281 11/03/2015 307","activated":"2017-12-29T19:59:05.805Z","flags":1,"native":1,"bps":4800,"parity":"N","stopbits":1,"cycle":1.00}]}
2017-12-29 14:59:05 1514577545.821346: {"class":"WATCH","enable":true,"json":false,"nmea":true,"raw":0,"scaled":false,"timing":false,"split24":false,"pps":false}
2017-12-29 14:59:06 1514577546.358295: $GPZDA,195907.00,29,12,2017,00,00*69
2017-12-29 14:59:06 1514577546.358470: $GPGGA,195907,3946.9596,N,08404.9797,W,2,12,0.80,303.36,M,-33.324,M,,*75
2017-12-29 14:59:06 1514577546.358538: $GPRMC,195907,A,3946.9596,N,08404.9797,W,0.0000,0.000,291217,,*31
2017-12-29 14:59:06 1514577546.358599: $GPGSA,A,3,1,3,10,12,14,22,25,31,32,11,18,138,1.7,0.8,1.3*0C
2017-12-29 14:59:07 1514577547.361995: $GPZDA,195908.00,29,12,2017,00,00*66
2017-12-29 14:59:07 1514577547.362163: $GPGGA,195908,3946.9596,N,08404.9797,W,2,12,0.80,303.36,M,-33.324,M,,*7A
2017-12-29 14:59:07 1514577547.362228: $GPRMC,195908,A,3946.9596,N,08404.9797,W,0.0000,0.000,291217,,*3E
2017-12-29 14:59:07 1514577547.362289: $GPGSA,A,3,1,3,10,12,14,22,25,31,32,11,18,138,1.7,0.8,1.3*0C
2017-12-29 14:59:08 1514577548.694806: $GPGSV,3,1,12,01,22,289,41,03,09,316,42,10,37,153,47,12,17,040,44*77
2017-12-29 14:59:08 1514577548.694983: $GPGSV,3,2,12,14,69,352,43,22,28,310,41,25,41,076,50,31,68,238,47*7F
2017-12-29 14:59:08 1514577548.695050: $GPGSV,3,3,12,32,63,055,51,26,13,180,16,18,07,147,26,138,38,213,43*4C
2017-12-29 14:59:08 1514577548.808387: $GPZDA,195909.00,29,12,2017,00,00*67
2017-12-29 14:59:08 1514577548.808515: $GPGGA,195909,3946.9596,N,08404.9797,W,2,12,0.80,303.36,M,-33.324,M,,*7B
2017-12-29 14:59:08 1514577548.808579: $GPRMC,195909,A,3946.9596,N,08404.9797,W,0.0000,0.000,291217,,*3F
2017-12-29 14:59:08 1514577548.808638: $GPGSA,A,3,1,3,10,12,14,22,25,31,32,26,18,138,1.7,0.8,1.3*08
2017-12-29 14:59:09 1514577549.435044: $GPZDA,195910.00,29,12,2017,00,00*6F
2017-12-29 14:59:09 1514577549.435206: $GPGGA,195910,3946.9596,N,08404.9797,W,2,12,0.80,303.36,M,-33.324,M,,*73
2017-12-29 14:59:09 1514577549.435272: $GPRMC,195910,A,3946.9596,N,08404.9797,W,0.0000,0.000,291217,,*37
2017-12-29 14:59:09 1514577549.435332: $GPGSA,A,3,1,3,10,12,14,22,25,31,32,26,18,138,1.7,0.8,1.3*08
2017-12-29 14:59:10 1514577550.360903: $GPZDA,195911.00,29,12,2017,00,00*6E
2017-12-29 14:59:10 1514577550.361133: $GPGGA,195911,3946.9596,N,08404.9797,W,2,12,0.80,303.36,M,-33.324,M,,*72
2017-12-29 14:59:10 1514577550.361211: $GPRMC,195911,A,3946.9596,N,08404.9797,W,0.0000,0.000,291217,,*36
2017-12-29 14:59:10 1514577550.361276: $GPGSA,A,3,1,3,10,12,14,22,25,31,32,26,18,138,1.7,0.8,1.3*08
2017-12-29 14:59:11 1514577551.697639: $GPGSV,3,1,12,01,22,289,41,03,09,316,43,10,37,153,47,12,17,040,44*76
2017-12-29 14:59:11 1514577551.697801: $GPGSV,3,2,12,14,69,352,43,22,28,310,41,25,41,076,51,31,68,238,47*7E
2017-12-29 14:59:11 1514577551.697870: $GPGSV,3,3,12,32,63,055,51,11,05,274,33,18,07,147,26,138,38,213,43*40
2017-12-29 14:59:11 1514577551.809974: $GPZDA,195912.00,29,12,2017,00,00*6D
2017-12-29 14:59:11 1514577551.810098: $GPGGA,195912,3946.9596,N,08404.9797,W,2,12,0.80,303.36,M,-33.324,M,,*71
2017-12-29 14:59:11 1514577551.810165: $GPRMC,195912,A,3946.9596,N,08404.9797,W,0.0000,0.000,291217,,*35
2017-12-29 14:59:11 1514577551.810226: $GPGSA,A,3,1,3,10,12,14,22,25,31,32,11,18,138,1.7,0.8,1.3*0C
2017-12-29 14:59:12 1514577552.362171: $GPZDA,195913.00,29,12,2017,00,00*6C
2017-12-29 14:59:12 1514577552.362334: $GPGGA,195913,3946.9596,N,08404.9797,W,2,12,0.80,303.36,M,-33.324,M,,*70
2017-12-29 14:59:12 1514577552.362402: $GPRMC,195913,A,3946.9596,N,08404.9797,W,0.0000,0.000,291217,,*34
2017-12-29 14:59:12 1514577552.362465: $GPGSA,A,3,1,3,10,12,14,22,25,31,32,11,18,138,1.7,0.8,1.3*0C
2017-12-29 14:59:13 1514577553.361790: $GPZDA,195914.00,29,12,2017,00,00*6B
2017-12-29 14:59:13 1514577553.362012: $GPGGA,195914,3946.9593,N,08404.9798,W,2,12,0.80,304.12,M,-33.324,M,,*7C
2017-12-29 14:59:13 1514577553.362083: $GPRMC,195914,A,3946.9593,N,08404.9798,W,0.0000,0.000,291217,,*39
2017-12-29 14:59:13 1514577553.362144: $GPGSA,A,3,1,3,10,12,14,22,25,31,32,11,18,138,1.7,0.8,1.3*0C
2017-12-29 14:59:14 1514577554.700467: $GPGSV,3,1,12,01,22,289,41,03,09,316,42,10,37,153,48,12,17,040,44*78
2017-12-29 14:59:14 1514577554.700633: $GPGSV,3,2,12,14,69,352,43,22,28,310,40,25,41,076,50,31,68,238,47*7E
2017-12-29 14:59:14 1514577554.700697: $GPGSV,3,3,12,32,63,055,51,26,13,180,03,18,07,147,25,138,38,213,43*4B
2017-12-29 14:59:14 1514577554.814104: $GPZDA,195915.00,29,12,2017,00,00*6A
2017-12-29 14:59:14 1514577554.814251: $GPGGA,195915,3946.9593,N,08404.9798,W,2,11,0.80,304.12,M,-33.324,M,,*7E
2017-12-29 14:59:14 1514577554.814314: $GPRMC,195915,A,3946.9593,N,08404.9798,W,0.0000,0.000,291217,,*38
2017-12-29 14:59:14 1514577554.814374: $GPGSA,A,3,1,3,10,12,14,22,25,31,32,18,138,,1.7,0.8,1.3*0C
2017-12-29 14:59:15 1514577555.361273: $GPZDA,195916.00,29,12,2017,00,00*69
2017-12-29 14:59:15 1514577555.361435: $GPGGA,195916,3946.9593,N,08404.9798,W,2,11,0.80,304.12,M,-33.324,M,,*7D
2017-12-29 14:59:15 1514577555.361501: $GPRMC,195916,A,3946.9593,N,08404.9798,W,0.0000,0.000,291217,,*3B
2017-12-29 14:59:15 1514577555.361561: $GPGSA,A,3,1,3,10,12,14,22,25,31,32,18,138,,1.7,0.8,1.3*0C
