2017-12-01 16:50:21 1512165021.026764: {"class":"VERSION","release":"3.16","rev":"3.16-4","proto_major":3,"proto_minor":11}
2017-12-01 16:50:21 1512165021.027151: {"class":"DEVICES","devices":[{"class":"DEVICE","path":"/dev/ttyUSB0","driver":"SiRF","subtype":"9\u0006GSD4e_4.1.2-P1_RPATCH.05-F-GPS-4R-1510281 11/03/2015 307","activated":"2017-12-01T21:50:20.508Z","flags":1,"native":1,"bps":4800,"parity":"N","stopbits":1,"cycle":1.00}]}
2017-12-01 16:50:21 1512165021.027271: {"class":"WATCH","enable":true,"json":false,"nmea":true,"raw":0,"scaled":false,"timing":false,"split24":false,"pps":false}
2017-12-01 16:50:21 1512165021.367301: $GPZDA,215022.00,01,12,2017,00,00*66
2017-12-01 16:50:21 1512165021.367495: $GPGGA,215022,3946.9661,N,08404.9765,W,1,11,1.00,306.13,M,-33.324,M,,*7D
2017-12-01 16:50:21 1512165021.367590: $GPRMC,215022,A,3946.9661,N,08404.9765,W,0.0000,0.000,011217,,*38
2017-12-01 16:50:21 1512165021.367654: $GPGSA,A,3,1,3,10,14,22,31,32,18,25,26,138,,2.0,1.0,1.5*00
2017-12-01 16:50:22 1512165022.703786: $GPGSV,3,1,12,01,22,291,40,03,07,316,34,10,38,151,39,14,69,349,45*70
2017-12-01 16:50:22 1512165022.703969: $GPGSV,3,2,12,22,26,310,48,31,65,235,48,32,65,051,49,12,18,042,22*7F
2017-12-01 16:50:22 1512165022.704038: $GPGSV,3,3,12,18,09,147,20,25,41,078,29,26,10,181,35,138,38,213,35*40
2017-12-01 16:50:22 1512165022.818631: $GPZDA,215023.00,01,12,2017,00,00*67
2017-12-01 16:50:22 1512165022.818797: $GPGGA,215023,3946.9662,N,08404.9772,W,1,12,0.80,306.05,M,-33.324,M,,*74
2017-12-01 16:50:22 1512165022.818865: $GPRMC,215023,A,3946.9662,N,08404.9772,W,0.0000,0.000,011217,,*3C
2017-12-01 16:50:22 1512165022.818925: $GPGSA,A,3,1,3,10,14,22,31,32,12,18,25,26,138,2.0,0.8,1.5*0A
2017-12-01 16:50:23 1512165023.366883: $GPZDA,215024.00,01,12,2017,00,00*60
2017-12-01 16:50:23 1512165023.367059: $GPGGA,215024,3946.9662,N,08404.9772,W,1,12,0.80,306.05,M,-33.324,M,,*73
2017-12-01 16:50:23 1512165023.367127: $GPRMC,215024,A,3946.9662,N,08404.9772,W,0.0000,0.000,011217,,*3B
2017-12-01 16:50:23 1512165023.367189: $GPGSA,A,3,1,3,10,14,22,31,32,12,18,25,26,138,2.0,0.8,1.5*0A
2017-12-01 16:50:24 1512165024.383319: $GPZDA,215025.00,01,12,2017,00,00*61
2017-12-01 16:50:24 1512165024.383583: $GPGGA,215025,3946.9662,N,08404.9772,W,1,12,0.80,306.05,M,-33.324,M,,*72
2017-12-01 16:50:24 1512165024.383654: $GPRMC,215025,A,3946.9662,N,08404.9772,W,0.0000,0.000,011217,,*3A
2017-12-01 16:50:24 1512165024.383734: $GPGSA,A,3,1,3,10,14,22,31,32,12,18,25,26,138,2.0,0.8,1.5*0A
2017-12-01 16:50:25 1512165025.720911: $GPGSV,3,1,12,01,22,291,40,03,07,316,34,10,38,151,39,14,69,349,46*73
2017-12-01 16:50:25 1512165025.721070: $GPGSV,3,2,12,22,26,310,48,31,65,235,48,32,65,051,49,12,18,042,22*7F
2017-12-01 16:50:25 1512165025.721136: $GPGSV,3,3,12,18,09,147,20,25,41,078,29,26,10,181,35,138,38,213,39*4C
2017-12-01 16:50:25 1512165025.834375: $GPZDA,215026.00,01,12,2017,00,00*62
2017-12-01 16:50:25 1512165025.834581: $GPGGA,215026,3946.9662,N,08404.9772,W,1,12,0.80,306.05,M,-33.324,M,,*71
2017-12-01 16:50:25 1512165025.834648: $GPRMC,215026,A,3946.9662,N,08404.9772,W,0.0000,0.000,011217,,*39
2017-12-01 16:50:25 1512165025.834709: $GPGSA,A,3,1,3,10,14,22,31,32,12,18,25,26,138,2.0,0.8,1.5*0A
2017-12-01 16:50:26 1512165026.384186: $GPZDA,215027.00,01,12,2017,00,00*63
2017-12-01 16:50:26 1512165026.384358: $GPGGA,215027,3946.9662,N,08404.9772,W,1,12,0.80,306.05,M,-33.324,M,,*70
2017-12-01 16:50:26 1512165026.384449: $GPRMC,215027,A,3946.9662,N,08404.9772,W,0.0000,0.000,011217,,*38
2017-12-01 16:50:26 1512165026.384513: $GPGSA,A,3,1,3,10,14,22,31,32,12,18,25,26,138,2.0,0.8,1.5*0A
2017-12-01 16:50:27 1512165027.383463: $GPZDA,215028.00,01,12,2017,00,00*6C
2017-12-01 16:50:27 1512165027.383674: $GPGGA,215028,3946.9662,N,08404.9772,W,1,12,0.80,306.05,M,-33.324,M,,*7F
2017-12-01 16:50:27 1512165027.383743: $GPRMC,215028,A,3946.9662,N,08404.9772,W,0.0000,0.000,011217,,*37
2017-12-01 16:50:27 1512165027.383804: $GPGSA,A,3,1,3,10,14,22,31,32,12,18,25,26,138,2.0,0.8,1.5*0A
2017-12-01 16:50:28 1512165028.718747: $GPGSV,3,1,12,01,22,291,40,03,07,316,34,10,38,151,39,14,69,349,45*70
2017-12-01 16:50:28 1512165028.718997: $GPGSV,3,2,12,22,26,310,47,31,65,235,48,32,65,051,49,12,18,042,23*71
2017-12-01 16:50:28 1512165028.719068: $GPGSV,3,3,12,18,09,147,20,25,41,078,29,26,10,181,35,138,38,213,39*4C
2017-12-01 16:50:28 1512165028.832494: $GPZDA,215029.00,01,12,2017,00,00*6D
2017-12-01 16:50:28 1512165028.832679: $GPGGA,215029,3946.9662,N,08404.9772,W,1,12,0.80,306.05,M,-33.324,M,,*7E
2017-12-01 16:50:28 1512165028.832748: $GPRMC,215029,A,3946.9662,N,08404.9772,W,0.0000,0.000,011217,,*36
2017-12-01 16:50:28 1512165028.832809: $GPGSA,A,3,1,3,10,14,22,31,32,12,18,25,26,138,2.0,0.8,1.5*0A
2017-12-01 16:50:29 1512165029.368007: $GPZDA,215030.00,01,12,2017,00,00*65
2017-12-01 16:50:29 1512165029.368200: $GPGGA,215030,3946.9662,N,08404.9772,W,1,12,0.80,306.05,M,-33.324,M,,*76
2017-12-01 16:50:29 1512165029.368269: $GPRMC,215030,A,3946.9662,N,08404.9772,W,0.0000,0.000,011217,,*3E
2017-12-01 16:50:29 1512165029.368330: $GPGSA,A,3,1,3,10,14,22,31,32,12,18,25,26,138,2.0,0.8,1.5*0A
2017-12-01 16:50:30 1512165030.383941: $GPZDA,215031.00,01,12,2017,00,00*64
2017-12-01 16:50:30 1512165030.384113: $GPGGA,215031,3946.9662,N,08404.9772,W,1,12,0.80,306.05,M,-33.324,M,,*77
2017-12-01 16:50:30 1512165030.384180: $GPRMC,215031,A,3946.9662,N,08404.9772,W,0.0000,0.000,011217,,*3F
2017-12-01 16:50:30 1512165030.384240: $GPGSA,A,3,1,3,10,14,22,31,32,12,18,25,26,138,2.0,0.8,1.5*0A
2017-12-01 16:50:32 1512165032.231000: $GPGSV,3,1,12,01,22,291,40,03,07,316,33,10,38,151,39,14,69,351,45*7E
2017-12-01 16:50:32 1512165032.231159: $GPGSV,3,2,12,22,27,310,48,31,65,235,48,32,65,051,49,12,18,042,23*7F
2017-12-01 16:50:32 1512165032.231225: $GPGSV,3,3,12,18,09,147,20,25,41,078,28,26,10,181,34,138,38,213,39*4C
2017-12-01 16:50:32 1512165032.344506: $GPZDA,215032.00,01,12,2017,00,00*67
2017-12-01 16:50:32 1512165032.344699: $GPGGA,215032,3946.9662,N,08404.9772,W,1,12,0.80,306.05,M,-33.324,M,,*74
2017-12-01 16:50:32 1512165032.344766: $GPRMC,215032,A,3946.9662,N,08404.9772,W,0.0000,0.000,011217,,*3C
2017-12-01 16:50:32 1512165032.344827: $GPGSA,A,3,1,3,10,14,22,31,32,12,18,25,26,138,2.0,0.8,1.5*0A
2017-12-01 16:50:32 1512165032.969814: $GPZDA,215033.00,01,12,2017,00,00*66
2017-12-01 16:50:32 1512165032.969987: $GPGGA,215033,3946.9662,N,08404.9772,W,1,12,0.80,306.05,M,-33.324,M,,*75
2017-12-01 16:50:32 1512165032.970053: $GPRMC,215033,A,3946.9662,N,08404.9772,W,0.0000,0.000,011217,,*3D
2017-12-01 16:50:32 1512165032.970115: $GPGSA,A,3,1,3,10,14,22,31,32,12,18,25,26,138,2.0,0.8,1.5*0A
2017-12-01 16:50:33 1512165033.420693: $GPZDA,215034.00,01,12,2017,00,00*61
2017-12-01 16:50:33 1512165033.420865: $GPGGA,215034,3946.9666,N,08404.9772,W,1,12,0.80,306.69,M,-33.324,M,,*7C
2017-12-01 16:50:33 1512165033.420933: $GPRMC,215034,A,3946.9666,N,08404.9772,W,0.0000,0.000,011217,,*3E
2017-12-01 16:50:33 1512165033.420994: $GPGSA,A,3,1,3,10,14,22,31,32,12,18,25,26,138,2.0,0.8,1.5*0A
2017-12-01 16:50:34 1512165034.703886: $GPGSV,3,1,12,01,22,291,39,03,07,316,34,10,38,151,40,14,69,351,45*79
2017-12-01 16:50:34 1512165034.704084: $GPGSV,3,2,12,22,27,310,48,31,65,235,48,32,65,051,48,12,18,042,18*76
2017-12-01 16:50:34 1512165034.704150: $GPGSV,3,3,12,18,09,147,17,25,41,078,29,26,10,181,34,138,38,213,38*48
2017-12-01 16:50:34 1512165034.817389: $GPZDA,215035.00,01,12,2017,00,00*60
2017-12-01 16:50:34 1512165034.817573: $GPGGA,215035,3946.9666,N,08404.9772,W,1,12,0.80,306.69,M,-33.324,M,,*7D
2017-12-01 16:50:34 1512165034.817640: $GPRMC,215035,A,3946.9666,N,08404.9772,W,0.0000,0.000,011217,,*3F
2017-12-01 16:50:34 1512165034.817700: $GPGSA,A,3,1,3,10,14,22,31,32,12,18,25,26,138,2.0,0.8,1.5*0A
2017-12-01 16:50:35 1512165035.383100: $GPZDA,215036.00,01,12,2017,00,00*63
2017-12-01 16:50:35 1512165035.383265: $GPGGA,215036,3946.9666,N,08404.9772,W,1,12,0.80,306.69,M,-33.324,M,,*7E
2017-12-01 16:50:35 1512165035.383332: $GPRMC,215036,A,3946.9666,N,08404.9772,W,0.0000,0.000,011217,,*3C
2017-12-01 16:50:35 1512165035.383425: $GPGSA,A,3,1,3,10,14,22,31,32,12,18,25,26,138,2.0,0.8,1.5*0A
2017-12-01 16:50:36 1512165036.382741: $GPZDA,215037.00,01,12,2017,00,00*62
2017-12-01 16:50:36 1512165036.382922: $GPGGA,215037,3946.9666,N,08404.9772,W,1,12,0.80,306.69,M,-33.324,M,,*7F
2017-12-01 16:50:36 1512165036.382991: $GPRMC,215037,A,3946.9666,N,08404.9772,W,0.0000,0.000,011217,,*3D
2017-12-01 16:50:36 1512165036.383053: $GPGSA,A,3,1,3,10,14,22,31,32,12,18,25,26,138,2.0,0.8,1.5*0A
2017-12-01 16:50:37 1512165037.720466: $GPGSV,3,1,12,01,22,291,39,03,07,316,34,10,38,151,40,14,69,351,44*78
2017-12-01 16:50:37 1512165037.720671: $GPGSV,3,2,12,22,27,310,48,31,65,235,48,32,65,051,49,12,18,042,17*78
2017-12-01 16:50:37 1512165037.720738: $GPGSV,3,3,12,18,09,147,16,25,41,078,29,26,10,181,34,138,38,213,40*46
2017-12-01 16:50:37 1512165037.833785: $GPZDA,215038.00,01,12,2017,00,00*6D
2017-12-01 16:50:37 1512165037.833918: $GPGGA,215038,3946.9666,N,08404.9772,W,1,12,0.80,306.69,M,-33.324,M,,*70
2017-12-01 16:50:37 1512165037.833984: $GPRMC,215038,A,3946.9666,N,08404.9772,W,0.0000,0.000,011217,,*32
2017-12-01 16:50:37 1512165037.834045: $GPGSA,A,3,1,3,10,14,22,31,32,12,18,25,26,138,2.0,0.8,1.5*0A
2017-12-01 16:50:38 1512165038.385113: $GPZDA,215039.00,01,12,2017,00,00*6C
2017-12-01 16:50:38 1512165038.385285: $GPGGA,215039,3946.9666,N,08404.9772,W,1,12,0.80,306.69,M,-33.324,M,,*71
2017-12-01 16:50:38 1512165038.385378: $GPRMC,215039,A,3946.9666,N,08404.9772,W,0.0000,0.000,011217,,*33
2017-12-01 16:50:38 1512165038.385441: $GPGSA,A,3,1,3,10,14,22,31,32,12,18,25,26,138,2.0,0.8,1.5*0A
2017-12-01 16:50:39 1512165039.383312: $GPZDA,215040.00,01,12,2017,00,00*62
2017-12-01 16:50:39 1512165039.383528: $GPGGA,215040,3946.9666,N,08404.9772,W,1,12,0.80,306.69,M,-33.324,M,,*7F
2017-12-01 16:50:39 1512165039.383596: $GPRMC,215040,A,3946.9666,N,08404.9772,W,0.0000,0.000,011217,,*3D
2017-12-01 16:50:39 1512165039.383673: $GPGSA,A,3,1,3,10,14,22,31,32,12,18,25,26,138,2.0,0.8,1.5*0A
2017-12-01 16:50:40 1512165040.703953: $GPGSV,3,1,12,01,22,291,39,03,07,316,34,10,38,151,39,14,69,351,44*76
2017-12-01 16:50:40 1512165040.704144: $GPGSV,3,2,12,22,27,310,48,31,65,235,48,32,65,051,49,12,18,042,17*78
2017-12-01 16:50:40 1512165040.704258: $GPGSV,3,3,12,18,09,147,16,25,41,078,24,26,10,181,34,138,38,213,40*4B
2017-12-01 16:50:40 1512165040.817192: $GPZDA,215041.00,01,12,2017,00,00*63
2017-12-01 16:50:40 1512165040.817393: $GPGGA,215041,3946.9662,N,08404.9773,W,1,12,0.80,307.45,M,-33.324,M,,*74
2017-12-01 16:50:40 1512165040.817462: $GPRMC,215041,A,3946.9662,N,08404.9773,W,0.0000,0.000,011217,,*39
2017-12-01 16:50:40 1512165040.817543: $GPGSA,A,3,1,3,10,14,22,31,32,12,18,25,26,138,2.0,0.8,1.5*0A
