2017-11-16 16:49:05 1510868945.111386: {"class":"VERSION","release":"3.17","rev":"3.17","proto_major":3,"proto_minor":12}
2017-11-16 16:49:05 1510868945.111805: {"class":"DEVICES","devices":[{"class":"DEVICE","path":"/dev/ttyUSB0","driver":"SiRF","subtype":"9\u0006GSD4e_4.1.2-P1_RPATCH.05-F-GPS-4R-1510281 11/03/2015 307","activated":"2017-11-16T21:49:04.588Z","flags":1,"native":1,"bps":4800,"parity":"N","stopbits":1,"cycle":1.00}]}
2017-11-16 16:49:05 1510868945.111960: {"class":"WATCH","enable":true,"json":false,"nmea":true,"raw":0,"scaled":false,"timing":false,"split24":false,"pps":false}
2017-11-16 16:49:05 1510868945.782494: $GPGSV,3,1,12,01,14,318,39,10,68,133,49,11,11,300,25,12,25,070,46*7A
2017-11-16 16:49:05 1510868945.782667: $GPGSV,3,2,12,14,56,294,45,18,36,136,44,24,13,045,40,25,30,112,43*7B
2017-11-16 16:49:05 1510868945.782728: $GPGSV,3,3,12,31,35,213,46,32,68,331,51,22,03,310,30,138,38,213,44*45
2017-11-16 16:49:05 1510868945.894753: $GPZDA,214904.00,16,11,2017,00,00*6F
2017-11-16 16:49:05 1510868945.894878: $GPGGA,214904,3946.9584,N,08404.9822,W,2,12,0.80,307.58,M,-33.324,M,,*72
2017-11-16 16:49:05 1510868945.894936: $GPRMC,214904,A,3946.9584,N,08404.9822,W,0.0000,0.000,161117,,*35
2017-11-16 16:49:05 1510868945.894992: $GPGSA,A,3,1,10,11,12,14,18,24,25,31,32,22,138,1.6,0.8,1.3*38
2017-11-16 16:49:06 1510868946.521535: $GPZDA,214905.00,16,11,2017,00,00*6E
2017-11-16 16:49:06 1510868946.521693: $GPGGA,214905,3946.9584,N,08404.9822,W,2,12,0.80,307.58,M,-33.324,M,,*73
2017-11-16 16:49:06 1510868946.521757: $GPRMC,214905,A,3946.9584,N,08404.9822,W,0.0000,0.000,161117,,*34
2017-11-16 16:49:06 1510868946.521813: $GPGSA,A,3,1,10,11,12,14,18,24,25,31,32,22,138,1.6,0.8,1.3*38
2017-11-16 16:49:07 1510868947.447355: $GPZDA,214906.00,16,11,2017,00,00*6D
2017-11-16 16:49:07 1510868947.447517: $GPGGA,214906,3946.9584,N,08404.9822,W,2,12,0.80,307.58,M,-33.324,M,,*70
2017-11-16 16:49:07 1510868947.447579: $GPRMC,214906,A,3946.9584,N,08404.9822,W,0.0000,0.000,161117,,*37
2017-11-16 16:49:07 1510868947.447637: $GPGSA,A,3,1,10,11,12,14,18,24,25,31,32,22,138,1.6,0.8,1.3*38
2017-11-16 16:49:08 1510868948.782775: $GPGSV,3,1,12,01,14,318,39,10,68,133,49,11,11,300,23,12,25,070,46*7C
2017-11-16 16:49:08 1510868948.782946: $GPGSV,3,2,12,14,56,294,45,18,36,136,44,24,13,045,40,25,30,112,43*7B
2017-11-16 16:49:08 1510868948.783006: $GPGSV,3,3,12,31,35,213,45,32,68,331,51,22,03,310,19,138,38,213,44*4D
2017-11-16 16:49:08 1510868948.896342: $GPZDA,214907.00,16,11,2017,00,00*6C
2017-11-16 16:49:08 1510868948.896473: $GPGGA,214907,3946.9584,N,08404.9822,W,2,12,0.80,307.58,M,-33.324,M,,*71
2017-11-16 16:49:08 1510868948.896534: $GPRMC,214907,A,3946.9584,N,08404.9822,W,0.0000,0.000,161117,,*36
2017-11-16 16:49:08 1510868948.896592: $GPGSA,A,3,1,10,11,12,14,18,24,25,31,32,22,138,1.6,0.8,1.3*38
2017-11-16 16:49:09 1510868949.445963: $GPZDA,214908.00,16,11,2017,00,00*63
2017-11-16 16:49:09 1510868949.446120: $GPGGA,214908,3946.9584,N,08404.9822,W,2,12,0.80,307.58,M,-33.324,M,,*7E
2017-11-16 16:49:09 1510868949.446181: $GPRMC,214908,A,3946.9584,N,08404.9822,W,0.0000,0.000,161117,,*39
2017-11-16 16:49:09 1510868949.446236: $GPGSA,A,3,1,10,11,12,14,18,24,25,31,32,22,138,1.6,0.8,1.3*38
2017-11-16 16:49:10 1510868950.440550: $GPZDA,214909.00,16,11,2017,00,00*62
2017-11-16 16:49:10 1510868950.440702: $GPGGA,214909,3946.9584,N,08404.9822,W,2,12,0.80,307.58,M,-33.324,M,,*7F
2017-11-16 16:49:10 1510868950.440763: $GPRMC,214909,A,3946.9584,N,08404.9822,W,0.0000,0.000,161117,,*38
2017-11-16 16:49:10 1510868950.440819: $GPGSA,A,3,1,10,11,12,14,18,24,25,31,32,22,138,1.6,0.8,1.3*38
2017-11-16 16:49:11 1510868951.799304: $GPGSV,3,1,12,01,14,318,39,10,68,133,48,11,11,300,19,12,25,070,47*75
2017-11-16 16:49:11 1510868951.799477: $GPGSV,3,2,12,14,56,294,45,18,36,136,43,24,13,045,40,25,30,112,43*7C
2017-11-16 16:49:11 1510868951.799537: $GPGSV,3,3,12,31,35,213,45,32,68,331,51,22,03,310,21,138,38,213,44*46
2017-11-16 16:49:11 1510868951.912818: $GPZDA,214910.00,16,11,2017,00,00*6A
2017-11-16 16:49:11 1510868951.912952: $GPGGA,214910,3946.9584,N,08404.9822,W,2,12,0.80,307.58,M,-33.324,M,,*77
2017-11-16 16:49:11 1510868951.913064: $GPRMC,214910,A,3946.9584,N,08404.9822,W,0.0000,0.000,161117,,*30
2017-11-16 16:49:11 1510868951.913121: $GPGSA,A,3,1,10,11,12,14,18,24,25,31,32,22,138,1.6,0.8,1.3*38
2017-11-16 16:49:12 1510868952.448697: $GPZDA,214911.00,16,11,2017,00,00*6B
2017-11-16 16:49:12 1510868952.448857: $GPGGA,214911,3946.9580,N,08404.9822,W,2,12,0.80,306.94,M,-33.324,M,,*73
2017-11-16 16:49:12 1510868952.448918: $GPRMC,214911,A,3946.9580,N,08404.9822,W,0.0000,0.000,161117,,*35
2017-11-16 16:49:12 1510868952.448973: $GPGSA,A,3,1,10,11,12,14,18,24,25,31,32,22,138,1.6,0.8,1.3*38
2017-11-16 16:49:13 1510868953.445855: $GPZDA,214912.00,16,11,2017,00,00*68
2017-11-16 16:49:13 1510868953.446029: $GPGGA,214912,3946.9580,N,08404.9822,W,2,12,0.80,306.94,M,-33.324,M,,*70
2017-11-16 16:49:13 1510868953.446112: $GPRMC,214912,A,3946.9580,N,08404.9822,W,0.0000,0.000,161117,,*36
2017-11-16 16:49:13 1510868953.446171: $GPGSA,A,3,1,10,11,12,14,18,24,25,31,32,22,138,1.6,0.8,1.3*38
2017-11-16 16:49:14 1510868954.797559: $GPGSV,3,1,12,01,14,318,40,10,68,133,49,11,11,300,20,12,25,070,47*70
2017-11-16 16:49:14 1510868954.797731: $GPGSV,3,2,12,14,56,294,45,18,36,136,44,24,13,045,40,25,30,112,43*7B
2017-11-16 16:49:14 1510868954.797791: $GPGSV,3,3,12,31,35,213,45,32,68,331,51,22,03,310,28,138,38,213,44*4F
2017-11-16 16:49:14 1510868954.911100: $GPZDA,214913.00,16,11,2017,00,00*69
2017-11-16 16:49:14 1510868954.911237: $GPGGA,214913,3946.9580,N,08404.9822,W,2,12,0.80,306.94,M,-33.324,M,,*71
2017-11-16 16:49:14 1510868954.911295: $GPRMC,214913,A,3946.9580,N,08404.9822,W,0.0000,0.000,161117,,*37
2017-11-16 16:49:14 1510868954.911354: $GPGSA,A,3,1,10,11,12,14,18,24,25,31,32,22,138,1.6,0.8,1.3*38
