2017-12-01 11:43:47 1512146627.896876: {"class":"VERSION","release":"3.16","rev":"3.16-4","proto_major":3,"proto_minor":11}
2017-12-01 11:43:47 1512146627.897278: {"class":"DEVICES","devices":[{"class":"DEVICE","path":"/dev/ttyUSB0","driver":"SiRF","subtype":"9\u0006GSD4e_4.1.2-P1_RPATCH.05-F-GPS-4R-1510281 11/03/2015 307","activated":"2017-12-01T16:43:47.714Z","flags":1,"native":1,"bps":4800,"parity":"N","stopbits":1,"cycle":1.00}]}
2017-12-01 11:43:47 1512146627.897403: {"class":"WATCH","enable":true,"json":false,"nmea":true,"raw":0,"scaled":false,"timing":false,"split24":false,"pps":false}
2017-12-01 11:43:48 1512146628.396928: $GPZDA,164349.00,01,12,2017,00,00*6D
2017-12-01 11:43:48 1512146628.397095: $GPGGA,164349,3946.9563,N,08404.9841,W,2,11,0.80,301.34,M,-33.324,M,,*76
2017-12-01 11:43:48 1512146628.397165: $GPRMC,164349,A,3946.9563,N,08404.9841,W,0.1567,9.200,011217,,*35
2017-12-01 11:43:48 1512146628.397229: $GPGSA,A,3,10,13,15,18,20,21,24,27,29,5,138,,2.0,0.8,1.5*34
2017-12-01 11:43:49 1512146629.733938: $GPGSV,3,1,12,10,13,271,37,13,43,049,47,15,75,072,46,18,44,285,45*76
2017-12-01 11:43:49 1512146629.734124: $GPGSV,3,2,12,20,62,051,43,21,67,306,45,24,20,148,44,27,09,324,44*78
2017-12-01 11:43:49 1512146629.734195: $GPGSV,3,3,12,29,24,195,43,05,14,078,21,04,12,130,00,138,38,213,46*47
2017-12-01 11:43:49 1512146629.847313: $GPZDA,164350.00,01,12,2017,00,00*65
2017-12-01 11:43:49 1512146629.847492: $GPGGA,164350,3946.9563,N,08404.9841,W,2,11,0.80,301.34,M,-33.324,M,,*7E
2017-12-01 11:43:49 1512146629.847560: $GPRMC,164350,A,3946.9563,N,08404.9841,W,0.0000,0.000,011217,,*33
2017-12-01 11:43:49 1512146629.847622: $GPGSA,A,3,10,13,15,18,20,21,24,27,29,5,138,,2.0,0.8,1.5*34
2017-12-01 11:43:50 1512146630.398173: $GPZDA,164351.00,01,12,2017,00,00*64
2017-12-01 11:43:50 1512146630.398364: $GPGGA,164351,3946.9563,N,08404.9841,W,2,11,0.80,301.34,M,-33.324,M,,*7F
2017-12-01 11:43:50 1512146630.398432: $GPRMC,164351,A,3946.9563,N,08404.9841,W,0.0000,0.000,011217,,*32
2017-12-01 11:43:50 1512146630.398495: $GPGSA,A,3,10,13,15,18,20,21,24,27,29,5,138,,2.0,0.8,1.5*34
2017-12-01 11:43:51 1512146631.398940: $GPZDA,164352.00,01,12,2017,00,00*67
2017-12-01 11:43:51 1512146631.399134: $GPGGA,164352,3946.9563,N,08404.9841,W,2,11,0.80,301.34,M,-33.324,M,,*7C
2017-12-01 11:43:51 1512146631.399205: $GPRMC,164352,A,3946.9563,N,08404.9841,W,0.0000,0.000,011217,,*31
2017-12-01 11:43:51 1512146631.399268: $GPGSA,A,3,10,13,15,18,20,21,24,27,29,5,138,,2.0,0.8,1.5*34
2017-12-01 11:43:51 1512146631.399328: $GPGBS,164352,2.67,M,3.86,M,8.82,M*35
2017-12-01 11:43:52 1512146632.735928: $GPGSV,3,1,12,10,13,271,37,13,43,049,46,15,75,072,46,18,44,285,45*77
2017-12-01 11:43:52 1512146632.736124: $GPGSV,3,2,12,20,62,051,43,21,67,306,45,24,20,148,44,27,09,324,44*78
2017-12-01 11:43:52 1512146632.736218: $GPGSV,3,3,12,29,24,195,43,05,14,078,21,04,12,130,00,138,38,213,46*47
2017-12-01 11:43:52 1512146632.849424: $GPZDA,164353.00,01,12,2017,00,00*66
2017-12-01 11:43:52 1512146632.849629: $GPGGA,164353,3946.9563,N,08404.9841,W,2,11,0.80,301.34,M,-33.324,M,,*7D
2017-12-01 11:43:52 1512146632.849699: $GPRMC,164353,A,3946.9563,N,08404.9841,W,0.0000,0.000,011217,,*30
2017-12-01 11:43:52 1512146632.849760: $GPGSA,A,3,10,13,15,18,20,21,24,27,29,5,138,,2.0,0.8,1.5*34
2017-12-01 11:43:53 1512146633.474660: $GPZDA,164354.00,01,12,2017,00,00*61
2017-12-01 11:43:53 1512146633.474843: $GPGGA,164354,3946.9567,N,08404.9841,W,2,11,0.80,300.57,M,-33.324,M,,*7A
2017-12-01 11:43:53 1512146633.474909: $GPRMC,164354,A,3946.9567,N,08404.9841,W,0.0000,0.000,011217,,*33
2017-12-01 11:43:53 1512146633.474971: $GPGSA,A,3,10,13,15,18,20,21,24,27,29,5,138,,2.0,0.8,1.5*34
2017-12-01 11:43:54 1512146634.399261: $GPZDA,164355.00,01,12,2017,00,00*60
2017-12-01 11:43:54 1512146634.399442: $GPGGA,164355,3946.9567,N,08404.9841,W,2,11,0.80,300.57,M,-33.324,M,,*7B
2017-12-01 11:43:54 1512146634.399509: $GPRMC,164355,A,3946.9567,N,08404.9841,W,0.0000,0.000,011217,,*32
2017-12-01 11:43:54 1512146634.399571: $GPGSA,A,3,10,13,15,18,20,21,24,27,29,5,138,,2.0,0.8,1.5*34
2017-12-01 11:43:55 1512146635.733893: $GPGSV,3,1,12,10,13,271,37,13,43,049,47,15,75,072,47,18,44,285,45*77
2017-12-01 11:43:55 1512146635.734080: $GPGSV,3,2,12,20,62,051,43,21,67,306,45,24,20,148,44,27,09,324,43*7F
2017-12-01 11:43:55 1512146635.734146: $GPGSV,3,3,12,29,24,195,43,05,14,078,28,04,12,130,00,138,38,213,46*4E
2017-12-01 11:43:55 1512146635.847213: $GPZDA,164356.00,01,12,2017,00,00*63
2017-12-01 11:43:55 1512146635.847391: $GPGGA,164356,3946.9567,N,08404.9841,W,2,11,0.80,300.57,M,-33.324,M,,*78
2017-12-01 11:43:55 1512146635.847460: $GPRMC,164356,A,3946.9567,N,08404.9841,W,0.0000,0.000,011217,,*31
2017-12-01 11:43:55 1512146635.847521: $GPGSA,A,3,10,13,15,18,20,21,24,27,29,5,138,,2.0,0.8,1.5*34
2017-12-01 11:43:56 1512146636.394364: $GPZDA,164357.00,01,12,2017,00,00*62
2017-12-01 11:43:56 1512146636.394542: $GPGGA,164357,3946.9567,N,08404.9841,W,2,11,0.80,300.57,M,-33.324,M,,*79
2017-12-01 11:43:56 1512146636.394611: $GPRMC,164357,A,3946.9567,N,08404.9841,W,0.0000,0.000,011217,,*30
2017-12-01 11:43:56 1512146636.394673: $GPGSA,A,3,10,13,15,18,20,21,24,27,29,5,138,,2.0,0.8,1.5*34
2017-12-01 11:43:57 1512146637.397724: $GPZDA,164358.00,01,12,2017,00,00*6D
2017-12-01 11:43:57 1512146637.397910: $GPGGA,164358,3946.9567,N,08404.9841,W,2,11,0.80,300.57,M,-33.324,M,,*76
2017-12-01 11:43:57 1512146637.397981: $GPRMC,164358,A,3946.9567,N,08404.9841,W,0.0000,0.000,011217,,*3F
2017-12-01 11:43:57 1512146637.398043: $GPGSA,A,3,10,13,15,18,20,21,24,27,29,5,138,,2.0,0.8,1.5*34
