2017-12-01 13:17:08 1512152228.236594: {"class":"VERSION","release":"3.16","rev":"3.16-4","proto_major":3,"proto_minor":11}
2017-12-01 13:17:08 1512152228.237036: {"class":"DEVICES","devices":[{"class":"DEVICE","path":"/dev/ttyUSB0","driver":"SiRF","subtype":"9\u0006GSD4e_4.1.2-P1_RPATCH.05-F-GPS-4R-1510281 11/03/2015 307","activated":"2017-12-01T18:17:08.213Z","flags":1,"native":1,"bps":4800,"parity":"N","stopbits":1,"cycle":1.00}]}
2017-12-01 13:17:08 1512152228.237155: {"class":"WATCH","enable":true,"json":false,"nmea":true,"raw":0,"scaled":false,"timing":false,"split24":false,"pps":false}
2017-12-01 13:17:08 1512152228.391277: $GPZDA,181709.00,01,12,2017,00,00*66
2017-12-01 13:17:08 1512152228.391480: $GPGGA,181709,3946.9564,N,08404.9848,W,2,11,0.80,301.26,M,-33.324,M,,*70
2017-12-01 13:17:08 1512152228.391550: $GPRMC,181709,A,3946.9564,N,08404.9848,W,0.0000,0.000,011217,,*3E
2017-12-01 13:17:08 1512152228.391611: $GPGSA,A,3,8,10,15,18,20,21,24,27,32,13,138,,2.0,0.8,1.5*33
2017-12-01 13:17:09 1512152229.729535: $GPGSV,3,1,12,08,06,321,40,10,43,303,47,15,35,052,48,18,72,342,43*70
2017-12-01 13:17:09 1512152229.729722: $GPGSV,3,2,12,20,32,097,46,21,61,187,46,24,51,106,46,27,19,286,39*70
2017-12-01 13:17:09 1512152229.729830: $GPGSV,3,3,12,32,23,240,43,13,06,049,24,14,06,234,13,138,38,213,46*43
2017-12-01 13:17:09 1512152229.843169: $GPZDA,181710.00,01,12,2017,00,00*6E
2017-12-01 13:17:09 1512152229.843320: $GPGGA,181710,3946.9564,N,08404.9848,W,2,12,0.80,301.26,M,-33.324,M,,*7B
2017-12-01 13:17:09 1512152229.843386: $GPRMC,181710,A,3946.9564,N,08404.9848,W,0.0000,0.000,011217,,*36
2017-12-01 13:17:09 1512152229.843464: $GPGSA,A,3,8,10,15,18,20,21,24,27,32,13,14,138,2.0,0.8,1.5*36
2017-12-01 13:17:10 1512152230.469650: $GPZDA,181711.00,01,12,2017,00,00*6F
2017-12-01 13:17:10 1512152230.469821: $GPGGA,181711,3946.9564,N,08404.9848,W,2,12,0.80,301.26,M,-33.324,M,,*7A
2017-12-01 13:17:10 1512152230.469888: $GPRMC,181711,A,3946.9564,N,08404.9848,W,0.0000,0.000,011217,,*37
2017-12-01 13:17:10 1512152230.469949: $GPGSA,A,3,8,10,15,18,20,21,24,27,32,13,14,138,2.0,0.8,1.5*36
2017-12-01 13:17:11 1512152231.395457: $GPZDA,181712.00,01,12,2017,00,00*6C
2017-12-01 13:17:11 1512152231.395619: $GPGGA,181712,3946.9564,N,08404.9848,W,2,12,0.80,301.26,M,-33.324,M,,*79
2017-12-01 13:17:11 1512152231.395685: $GPRMC,181712,A,3946.9564,N,08404.9848,W,0.0000,0.000,011217,,*34
2017-12-01 13:17:11 1512152231.395747: $GPGSA,A,3,8,10,15,18,20,21,24,27,32,13,14,138,2.0,0.8,1.5*36
2017-12-01 13:17:12 1512152232.731178: $GPGSV,3,1,12,08,06,321,41,10,43,303,46,15,35,052,48,18,72,342,42*71
2017-12-01 13:17:12 1512152232.731410: $GPGSV,3,2,12,20,32,097,46,21,61,187,46,24,51,106,46,27,19,286,39*70
2017-12-01 13:17:12 1512152232.731490: $GPGSV,3,3,12,32,23,240,43,13,06,049,24,14,06,234,14,138,38,213,46*44
2017-12-01 13:17:12 1512152232.844540: $GPZDA,181713.00,01,12,2017,00,00*6D
2017-12-01 13:17:12 1512152232.844688: $GPGGA,181713,3946.9564,N,08404.9848,W,2,12,0.80,301.26,M,-33.324,M,,*78
2017-12-01 13:17:12 1512152232.844752: $GPRMC,181713,A,3946.9564,N,08404.9848,W,0.0000,0.000,011217,,*35
2017-12-01 13:17:12 1512152232.844812: $GPGSA,A,3,8,10,15,18,20,21,24,27,32,13,14,138,2.0,0.8,1.5*36
2017-12-01 13:17:13 1512152233.391811: $GPZDA,181714.00,01,12,2017,00,00*6A
2017-12-01 13:17:13 1512152233.391999: $GPGGA,181714,3946.9564,N,08404.9848,W,2,12,0.80,301.26,M,-33.324,M,,*7F
2017-12-01 13:17:13 1512152233.392067: $GPRMC,181714,A,3946.9564,N,08404.9848,W,0.0000,0.000,011217,,*32
2017-12-01 13:17:13 1512152233.392129: $GPGSA,A,3,8,10,15,18,20,21,24,27,32,13,14,138,2.0,0.8,1.5*36
2017-12-01 13:17:14 1512152234.393940: $GPZDA,181715.00,01,12,2017,00,00*6B
2017-12-01 13:17:14 1512152234.394106: $GPGGA,181715,3946.9560,N,08404.9849,W,2,12,0.80,302.02,M,-33.324,M,,*7E
2017-12-01 13:17:14 1512152234.394174: $GPRMC,181715,A,3946.9560,N,08404.9849,W,0.0000,0.000,011217,,*36
2017-12-01 13:17:14 1512152234.394252: $GPGSA,A,3,8,10,15,18,20,21,24,27,32,13,14,138,2.0,0.8,1.5*36
2017-12-01 13:17:15 1512152235.727797: $GPGSV,3,1,12,08,06,321,42,10,43,303,46,15,35,052,48,18,72,342,42*72
2017-12-01 13:17:15 1512152235.728062: $GPGSV,3,2,12,20,32,097,46,21,61,187,46,24,51,106,46,27,19,286,40*7E
2017-12-01 13:17:15 1512152235.728133: $GPGSV,3,3,12,32,23,240,43,13,06,049,25,14,06,234,25,138,38,213,46*47
2017-12-01 13:17:15 1512152235.841462: $GPZDA,181716.00,01,12,2017,00,00*68
2017-12-01 13:17:15 1512152235.841670: $GPGGA,181716,3946.9560,N,08404.9849,W,2,12,0.80,302.02,M,-33.324,M,,*7D
2017-12-01 13:17:15 1512152235.841739: $GPRMC,181716,A,3946.9560,N,08404.9849,W,0.0000,0.000,011217,,*35
2017-12-01 13:17:15 1512152235.841801: $GPGSA,A,3,8,10,15,18,20,21,24,27,32,13,14,138,2.0,0.8,1.5*36
2017-12-01 13:17:16 1512152236.393527: $GPZDA,181717.00,01,12,2017,00,00*69
2017-12-01 13:17:16 1512152236.393734: $GPGGA,181717,3946.9560,N,08404.9849,W,2,12,0.80,302.02,M,-33.324,M,,*7C
2017-12-01 13:17:16 1512152236.393802: $GPRMC,181717,A,3946.9560,N,08404.9849,W,0.0000,0.000,011217,,*34
2017-12-01 13:17:16 1512152236.393863: $GPGSA,A,3,8,10,15,18,20,21,24,27,32,13,14,138,2.0,0.8,1.5*36
2017-12-01 13:17:17 1512152237.396723: $GPZDA,181718.00,01,12,2017,00,00*66
2017-12-01 13:17:17 1512152237.396885: $GPGGA,181718,3946.9560,N,08404.9849,W,2,12,0.80,302.02,M,-33.324,M,,*73
2017-12-01 13:17:17 1512152237.396951: $GPRMC,181718,A,3946.9560,N,08404.9849,W,0.0000,0.000,011217,,*3B
2017-12-01 13:17:17 1512152237.397013: $GPGSA,A,3,8,10,15,18,20,21,24,27,32,13,14,138,2.0,0.8,1.5*36
