2017-12-01 12:29:25 1512149365.006861: {"class":"VERSION","release":"3.16","rev":"3.16-4","proto_major":3,"proto_minor":11}
2017-12-01 12:29:25 1512149365.007311: {"class":"DEVICES","devices":[{"class":"DEVICE","path":"/dev/ttyUSB0","driver":"SiRF","subtype":"9\u0006GSD4e_4.1.2-P1_RPATCH.05-F-GPS-4R-1510281 11/03/2015 307","activated":"2017-12-01T17:29:24.499Z","flags":1,"native":1,"bps":4800,"parity":"N","stopbits":1,"cycle":1.00}]}
2017-12-01 12:29:25 1512149365.007430: {"class":"WATCH","enable":true,"json":false,"nmea":true,"raw":0,"scaled":false,"timing":false,"split24":false,"pps":false}
2017-12-01 12:29:25 1512149365.695094: $GPGSV,3,1,11,10,27,286,39,13,24,045,43,15,56,049,46,18,58,306,46*70
2017-12-01 12:29:25 1512149365.695276: $GPGSV,3,2,11,20,48,078,46,21,79,238,42,24,38,133,47,27,18,309,35*76
2017-12-01 12:29:25 1512149365.695343: $GPGSV,3,3,11,29,05,187,30,32,05,228,28,138,38,213,46*7F
2017-12-01 12:29:25 1512149365.808541: $GPZDA,172926.00,01,12,2017,00,00*69
2017-12-01 12:29:25 1512149365.808727: $GPGGA,172926,3946.9554,N,08404.9871,W,2,11,0.80,301.91,M,-33.324,M,,*7A
2017-12-01 12:29:25 1512149365.808810: $GPRMC,172926,A,3946.9554,N,08404.9871,W,0.0000,0.000,011217,,*38
2017-12-01 12:29:25 1512149365.808872: $GPGSA,A,3,10,13,15,18,20,21,24,27,29,32,138,,2.0,0.8,1.5*00
2017-12-01 12:29:26 1512149366.434112: $GPZDA,172927.00,01,12,2017,00,00*68
2017-12-01 12:29:26 1512149366.434283: $GPGGA,172927,3946.9554,N,08404.9871,W,2,11,0.80,301.91,M,-33.324,M,,*7B
2017-12-01 12:29:26 1512149366.434350: $GPRMC,172927,A,3946.9554,N,08404.9871,W,0.0000,0.000,011217,,*39
2017-12-01 12:29:26 1512149366.434410: $GPGSA,A,3,10,13,15,18,20,21,24,27,29,32,138,,2.0,0.8,1.5*00
2017-12-01 12:29:27 1512149367.358572: $GPZDA,172928.00,01,12,2017,00,00*67
2017-12-01 12:29:27 1512149367.358786: $GPGGA,172928,3946.9554,N,08404.9871,W,2,11,0.80,301.91,M,-33.324,M,,*74
2017-12-01 12:29:27 1512149367.358854: $GPRMC,172928,A,3946.9554,N,08404.9871,W,0.0000,0.000,011217,,*36
2017-12-01 12:29:27 1512149367.358917: $GPGSA,A,3,10,13,15,18,20,21,24,27,29,32,138,,2.0,0.8,1.5*00
2017-12-01 12:29:28 1512149368.694228: $GPGSV,3,1,11,10,27,286,40,13,24,045,43,15,56,049,46,18,58,306,46*7E
2017-12-01 12:29:28 1512149368.694405: $GPGSV,3,2,11,20,48,078,46,21,79,238,42,24,38,133,47,27,18,309,35*76
2017-12-01 12:29:28 1512149368.694509: $GPGSV,3,3,11,29,05,187,30,32,05,228,28,138,38,213,46*7F
2017-12-01 12:29:28 1512149368.807857: $GPZDA,172929.00,01,12,2017,00,00*66
2017-12-01 12:29:28 1512149368.808002: $GPGGA,172929,3946.9553,N,08404.9864,W,2,11,0.80,301.99,M,-33.324,M,,*7E
2017-12-01 12:29:28 1512149368.808067: $GPRMC,172929,A,3946.9553,N,08404.9864,W,0.0000,0.000,011217,,*34
2017-12-01 12:29:28 1512149368.808128: $GPGSA,A,3,10,13,15,18,20,21,24,27,29,32,138,,2.0,0.8,1.5*00
2017-12-01 12:29:29 1512149369.357503: $GPZDA,172930.00,01,12,2017,00,00*6E
2017-12-01 12:29:29 1512149369.357696: $GPGGA,172930,3946.9553,N,08404.9864,W,2,11,0.80,301.99,M,-33.324,M,,*76
2017-12-01 12:29:29 1512149369.357782: $GPRMC,172930,A,3946.9553,N,08404.9864,W,0.0000,0.000,011217,,*3C
2017-12-01 12:29:29 1512149369.357846: $GPGSA,A,3,10,13,15,18,20,21,24,27,29,32,138,,2.0,0.8,1.5*00
2017-12-01 12:29:30 1512149370.353414: $GPZDA,172931.00,01,12,2017,00,00*6F
2017-12-01 12:29:30 1512149370.353585: $GPGGA,172931,3946.9553,N,08404.9864,W,2,11,0.80,301.99,M,-33.324,M,,*77
2017-12-01 12:29:30 1512149370.353675: $GPRMC,172931,A,3946.9553,N,08404.9864,W,0.0000,0.000,011217,,*3D
2017-12-01 12:29:30 1512149370.353737: $GPGSA,A,3,10,13,15,18,20,21,24,27,29,32,138,,2.0,0.8,1.5*00
2017-12-01 12:29:31 1512149371.697100: $GPGSV,3,1,11,10,27,286,40,13,24,045,43,15,56,049,47,18,58,306,46*7F
2017-12-01 12:29:31 1512149371.697271: $GPGSV,3,2,11,20,48,078,46,21,79,238,42,24,38,133,47,27,18,309,35*76
2017-12-01 12:29:31 1512149371.697337: $GPGSV,3,3,11,29,05,187,30,32,05,228,28,138,38,213,46*7F
2017-12-01 12:29:31 1512149371.810485: $GPZDA,172932.00,01,12,2017,00,00*6C
2017-12-01 12:29:31 1512149371.810694: $GPGGA,172932,3946.9553,N,08404.9864,W,2,11,0.80,301.99,M,-33.324,M,,*74
2017-12-01 12:29:31 1512149371.810844: $GPRMC,172932,A,3946.9553,N,08404.9864,W,0.0000,0.000,011217,,*3E
2017-12-01 12:29:31 1512149371.810910: $GPGSA,A,3,10,13,15,18,20,21,24,27,29,32,138,,2.0,0.8,1.5*00
2017-12-01 12:29:32 1512149372.358872: $GPZDA,172933.00,01,12,2017,00,00*6D
2017-12-01 12:29:32 1512149372.359045: $GPGGA,172933,3946.9553,N,08404.9864,W,2,11,0.80,301.99,M,-33.324,M,,*75
2017-12-01 12:29:32 1512149372.359112: $GPRMC,172933,A,3946.9553,N,08404.9864,W,0.0000,0.000,011217,,*3F
2017-12-01 12:29:32 1512149372.359174: $GPGSA,A,3,10,13,15,18,20,21,24,27,29,32,138,,2.0,0.8,1.5*00
2017-12-01 12:29:33 1512149373.358502: $GPZDA,172934.00,01,12,2017,00,00*6A
2017-12-01 12:29:33 1512149373.358694: $GPGGA,172934,3946.9553,N,08404.9864,W,2,11,0.80,301.99,M,-33.324,M,,*72
2017-12-01 12:29:33 1512149373.358765: $GPRMC,172934,A,3946.9553,N,08404.9864,W,0.0000,0.000,011217,,*38
2017-12-01 12:29:33 1512149373.358827: $GPGSA,A,3,10,13,15,18,20,21,24,27,29,32,138,,2.0,0.8,1.5*00
2017-12-01 12:29:34 1512149374.710464: $GPGSV,3,1,11,10,27,286,40,13,24,045,43,15,56,049,46,18,58,306,46*7E
2017-12-01 12:29:34 1512149374.710648: $GPGSV,3,2,11,20,48,078,46,21,79,238,42,24,38,133,47,27,18,309,36*75
2017-12-01 12:29:34 1512149374.710733: $GPGSV,3,3,11,29,05,187,30,32,05,228,28,138,38,213,46*7F
2017-12-01 12:29:34 1512149374.824127: $GPZDA,172935.00,01,12,2017,00,00*6B
2017-12-01 12:29:34 1512149374.824293: $GPGGA,172935,3946.9553,N,08404.9864,W,2,11,0.80,301.99,M,-33.324,M,,*73
2017-12-01 12:29:34 1512149374.824378: $GPRMC,172935,A,3946.9553,N,08404.9864,W,0.0000,0.000,011217,,*39
2017-12-01 12:29:34 1512149374.824442: $GPGSA,A,3,10,13,15,18,20,21,24,27,29,32,138,,2.0,0.8,1.5*00
