2017-11-16 15:17:04 1510863424.139004: {"class":"VERSION","release":"3.17","rev":"3.17","proto_major":3,"proto_minor":12}
2017-11-16 15:17:04 1510863424.139239: {"class":"DEVICES","devices":[{"class":"DEVICE","path":"/dev/ttyUSB0","driver":"SiRF","subtype":"9\u0006GSD4e_4.1.2-P1_RPATCH.05-F-GPS-4R-1510281 11/03/2015 307","activated":"2017-11-16T20:17:03.529Z","flags":1,"native":1,"bps":4800,"parity":"N","stopbits":1,"cycle":1.00}]}
2017-11-16 15:17:04 1510863424.139293: {"class":"WATCH","enable":true,"json":false,"nmea":true,"raw":0,"scaled":false,"timing":false,"split24":false,"pps":false}
2017-11-16 15:17:04 1510863424.708430: $GPGSV,3,1,12,08,07,297,32,10,66,325,51,14,26,250,46,15,14,064,39*76
2017-11-16 15:17:04 1510863424.708603: $GPGSV,3,2,12,18,73,084,46,20,11,115,33,21,33,180,45,24,47,063,49*79
2017-11-16 15:17:04 1510863424.708663: $GPGSV,3,3,12,27,08,262,40,32,43,261,48,12,07,109,34,138,38,213,44*40
2017-11-16 15:17:04 1510863424.821728: $GPZDA,201703.00,16,11,2017,00,00*62
2017-11-16 15:17:04 1510863424.821900: $GPGGA,201703,3946.9577,N,08404.9856,W,2,12,0.80,304.50,M,-33.324,M,,*7B
2017-11-16 15:17:04 1510863424.821961: $GPRMC,201703,A,3946.9577,N,08404.9856,W,0.0000,0.000,161117,,*37
2017-11-16 15:17:04 1510863424.822018: $GPGSA,A,3,8,10,14,15,18,20,21,24,27,32,12,138,1.6,0.8,1.3*34
2017-11-16 15:17:05 1510863425.378859: $GPZDA,201704.00,16,11,2017,00,00*65
2017-11-16 15:17:05 1510863425.379024: $GPGGA,201704,3946.9577,N,08404.9856,W,2,12,0.80,304.50,M,-33.324,M,,*7C
2017-11-16 15:17:05 1510863425.379086: $GPRMC,201704,A,3946.9577,N,08404.9856,W,0.0000,0.000,161117,,*30
2017-11-16 15:17:05 1510863425.379142: $GPGSA,A,3,8,10,14,15,18,20,21,24,27,32,12,138,1.6,0.8,1.3*34
2017-11-16 15:17:06 1510863426.394455: $GPZDA,201705.00,16,11,2017,00,00*64
2017-11-16 15:17:06 1510863426.394615: $GPGGA,201705,3946.9577,N,08404.9856,W,2,12,0.80,304.50,M,-33.324,M,,*7D
2017-11-16 15:17:06 1510863426.394676: $GPRMC,201705,A,3946.9577,N,08404.9856,W,0.0000,0.000,161117,,*31
2017-11-16 15:17:06 1510863426.394733: $GPGSA,A,3,8,10,14,15,18,20,21,24,27,32,12,138,1.6,0.8,1.3*34
2017-11-16 15:17:07 1510863427.716224: $GPGSV,3,1,12,08,07,297,32,10,66,325,51,14,26,250,46,15,14,064,38*77
2017-11-16 15:17:07 1510863427.716394: $GPGSV,3,2,12,18,73,084,45,20,11,115,33,21,33,180,46,24,47,063,49*79
2017-11-16 15:17:07 1510863427.716454: $GPGSV,3,3,12,27,08,262,40,32,43,261,48,12,07,109,34,138,38,213,45*41
2017-11-16 15:17:07 1510863427.829983: $GPZDA,201706.00,16,11,2017,00,00*67
2017-11-16 15:17:07 1510863427.830160: $GPGGA,201706,3946.9577,N,08404.9856,W,2,12,0.80,304.50,M,-33.324,M,,*7E
2017-11-16 15:17:07 1510863427.830220: $GPRMC,201706,A,3946.9577,N,08404.9856,W,0.0000,0.000,161117,,*32
2017-11-16 15:17:07 1510863427.830277: $GPGSA,A,3,8,10,14,15,18,20,21,24,27,32,12,138,1.6,0.8,1.3*34
2017-11-16 15:17:08 1510863428.389419: $GPZDA,201707.00,16,11,2017,00,00*66
2017-11-16 15:17:08 1510863428.389583: $GPGGA,201707,3946.9577,N,08404.9856,W,2,12,0.80,304.50,M,-33.324,M,,*7F
2017-11-16 15:17:08 1510863428.389645: $GPRMC,201707,A,3946.9577,N,08404.9856,W,0.0000,0.000,161117,,*33
2017-11-16 15:17:08 1510863428.389703: $GPGSA,A,3,8,10,14,15,18,20,21,24,27,32,12,138,1.6,0.8,1.3*34
2017-11-16 15:17:09 1510863429.372374: $GPZDA,201708.00,16,11,2017,00,00*69
2017-11-16 15:17:09 1510863429.372547: $GPGGA,201708,3946.9577,N,08404.9856,W,2,12,0.80,304.50,M,-33.324,M,,*70
2017-11-16 15:17:09 1510863429.372646: $GPRMC,201708,A,3946.9577,N,08404.9856,W,0.0000,0.000,161117,,*3C
2017-11-16 15:17:09 1510863429.372707: $GPGSA,A,3,8,10,14,15,18,20,21,24,27,32,12,138,1.6,0.8,1.3*34
2017-11-16 15:17:10 1510863430.714594: $GPGSV,3,1,12,08,07,297,32,10,66,325,51,14,26,250,46,15,14,064,38*77
2017-11-16 15:17:10 1510863430.714761: $GPGSV,3,2,12,18,73,084,46,20,11,115,33,21,33,180,46,24,47,063,49*7A
2017-11-16 15:17:10 1510863430.714825: $GPGSV,3,3,12,27,08,262,39,32,43,261,47,12,07,109,34,138,38,213,44*41
2017-11-16 15:17:10 1510863430.827689: $GPZDA,201709.00,16,11,2017,00,00*68
2017-11-16 15:17:10 1510863430.827909: $GPGGA,201709,3946.9577,N,08404.9856,W,2,12,0.80,304.50,M,-33.324,M,,*71
2017-11-16 15:17:10 1510863430.828023: $GPRMC,201709,A,3946.9577,N,08404.9856,W,0.0000,0.000,161117,,*3D
2017-11-16 15:17:10 1510863430.828083: $GPGSA,A,3,8,10,14,15,18,20,21,24,27,32,12,138,1.6,0.8,1.3*34
2017-11-16 15:17:11 1510863431.453180: $GPZDA,201710.00,16,11,2017,00,00*60
2017-11-16 15:17:11 1510863431.453344: $GPGGA,201710,3946.9577,N,08404.9856,W,2,12,0.80,304.50,M,-33.324,M,,*79
2017-11-16 15:17:11 1510863431.453407: $GPRMC,201710,A,3946.9577,N,08404.9856,W,0.0000,0.000,161117,,*35
2017-11-16 15:17:11 1510863431.453463: $GPGSA,A,3,8,10,14,15,18,20,21,24,27,32,12,138,1.6,0.8,1.3*34
2017-11-16 15:17:12 1510863432.379112: $GPZDA,201711.00,16,11,2017,00,00*61
2017-11-16 15:17:12 1510863432.379290: $GPGGA,201711,3946.9577,N,08404.9856,W,2,12,0.80,304.50,M,-33.324,M,,*78
2017-11-16 15:17:12 1510863432.379352: $GPRMC,201711,A,3946.9577,N,08404.9856,W,0.0000,0.000,161117,,*34
2017-11-16 15:17:12 1510863432.379408: $GPGSA,A,3,8,10,14,15,18,20,21,24,27,32,12,138,1.6,0.8,1.3*34
2017-11-16 15:17:13 1510863433.732347: $GPGSV,3,1,12,08,07,297,26,10,66,325,51,14,26,250,46,15,14,064,37*7D
2017-11-16 15:17:13 1510863433.732534: $GPGSV,3,2,12,18,73,084,46,20,11,115,33,21,33,180,45,24,47,063,50*71
2017-11-16 15:17:13 1510863433.732600: $GPGSV,3,3,12,27,08,262,38,32,43,261,47,12,07,109,35,138,38,213,44*41
2017-11-16 15:17:13 1510863433.845562: $GPZDA,201712.00,16,11,2017,00,00*62
2017-11-16 15:17:13 1510863433.845728: $GPGGA,201712,3946.9577,N,08404.9856,W,2,12,0.80,304.50,M,-33.324,M,,*7B
2017-11-16 15:17:13 1510863433.845788: $GPRMC,201712,A,3946.9577,N,08404.9856,W,0.0000,0.000,161117,,*37
2017-11-16 15:17:13 1510863433.845845: $GPGSA,A,3,8,10,14,15,18,20,21,24,27,32,12,138,1.6,0.8,1.3*34
