2017-12-31 17:54:21 1514760861.938547: {"class":"VERSION","release":"3.16","rev":"3.16-4","proto_major":3,"proto_minor":11}
2017-12-31 17:54:21 1514760861.938932: {"class":"DEVICES","devices":[{"class":"DEVICE","path":"/dev/ttyUSB0","driver":"SiRF","activated":"2017-12-31T22:54:21.936Z","flags":1,"native":1,"bps":4800,"parity":"N","stopbits":1,"cycle":1.00}]}
2017-12-31 17:54:21 1514760861.939036: {"class":"WATCH","enable":true,"json":false,"nmea":true,"raw":0,"scaled":false,"timing":false,"split24":false,"pps":false}
2017-12-31 17:54:22 1514760862.371877: $GPZDA,225423.00,31,12,2017,00,00*63
2017-12-31 17:54:22 1514760862.372046: $GPGGA,225423,3946.9566,N,08404.9858,W,2,11,0.60,305.39,M,-33.324,M,,*71
2017-12-31 17:54:22 1514760862.372112: $GPRMC,225423,A,3946.9566,N,08404.9858,W,0.0000,0.000,311217,,*38
2017-12-31 17:54:22 1514760862.372172: $GPGSA,A,3,22,23,9,3,16,29,14,31,27,26,135,,1.7,0.6,1.3*06
2017-12-31 17:54:23 1514760863.345248: $GPZDA,225424.00,31,12,2017,00,00*64
2017-12-31 17:54:23 1514760863.345399: $GPGGA,225424,3946.9566,N,08404.9858,W,2,11,0.60,305.39,M,-33.324,M,,*76
2017-12-31 17:54:23 1514760863.345463: $GPRMC,225424,A,3946.9566,N,08404.9858,W,0.0000,0.000,311217,,*3F
2017-12-31 17:54:23 1514760863.345522: $GPGSA,A,3,22,23,9,3,16,29,14,31,27,26,135,,1.7,0.6,1.3*06
2017-12-31 17:54:24 1514760864.682268: $GPGSV,3,1,11,22,27,219,42,23,48,309,44,09,15,312,41,03,36,240,46*7F
2017-12-31 17:54:24 1514760864.682431: $GPGSV,3,2,11,16,73,192,43,29,08,034,36,14,21,130,24,31,33,069,43*7F
2017-12-31 17:54:24 1514760864.682495: $GPGSV,3,3,11,27,16,157,31,26,68,057,48,135,22,240,43*78
2017-12-31 17:54:24 1514760864.795576: $GPZDA,225425.00,31,12,2017,00,00*65
2017-12-31 17:54:24 1514760864.795696: $GPGGA,225425,3946.9566,N,08404.9858,W,2,11,0.60,305.39,M,-33.324,M,,*77
2017-12-31 17:54:24 1514760864.795760: $GPRMC,225425,A,3946.9566,N,08404.9858,W,0.0000,0.000,311217,,*3E
2017-12-31 17:54:24 1514760864.795820: $GPGSA,A,3,22,23,9,3,16,29,14,31,27,26,135,,1.7,0.6,1.3*06
2017-12-31 17:54:25 1514760865.938199: $GPZDA,225426.00,31,12,2017,00,00*66
2017-12-31 17:54:25 1514760865.938352: $GPGGA,225426,3946.9566,N,08404.9858,W,2,11,0.60,305.39,M,-33.324,M,,*74
2017-12-31 17:54:25 1514760865.938416: $GPRMC,225426,A,3946.9566,N,08404.9858,W,0.0000,0.000,311217,,*3D
2017-12-31 17:54:25 1514760865.938475: $GPGSA,A,3,22,23,9,3,16,29,14,31,27,26,135,,1.7,0.6,1.3*06
2017-12-31 17:54:26 1514760866.390240: $GPZDA,225427.00,31,12,2017,00,00*67
2017-12-31 17:54:26 1514760866.390385: $GPGGA,225427,3946.9566,N,08404.9858,W,2,11,0.60,305.39,M,-33.324,M,,*75
2017-12-31 17:54:26 1514760866.390448: $GPRMC,225427,A,3946.9566,N,08404.9858,W,0.0000,0.000,311217,,*3C
2017-12-31 17:54:26 1514760866.390507: $GPGSA,A,3,22,23,9,3,16,29,14,31,27,26,135,,1.7,0.6,1.3*06
2017-12-31 17:54:27 1514760867.707284: $GPGSV,3,1,11,22,27,219,42,23,48,309,44,09,15,312,41,03,36,240,46*7F
2017-12-31 17:54:27 1514760867.707434: $GPGSV,3,2,11,16,73,192,43,29,08,034,36,14,21,130,23,31,33,070,43*70
2017-12-31 17:54:27 1514760867.707499: $GPGSV,3,3,11,27,16,157,31,26,68,057,48,135,22,240,44*7F
2017-12-31 17:54:27 1514760867.820556: $GPZDA,225428.00,31,12,2017,00,00*68
2017-12-31 17:54:27 1514760867.820677: $GPGGA,225428,3946.9566,N,08404.9858,W,2,11,0.60,305.39,M,-33.324,M,,*7A
2017-12-31 17:54:27 1514760867.820739: $GPRMC,225428,A,3946.9566,N,08404.9858,W,0.0000,0.000,311217,,*33
2017-12-31 17:54:27 1514760867.820799: $GPGSA,A,3,22,23,9,3,16,29,14,31,27,26,135,,1.7,0.6,1.3*06
2017-12-31 17:54:28 1514760868.371459: $GPZDA,225429.00,31,12,2017,00,00*69
2017-12-31 17:54:28 1514760868.371614: $GPGGA,225429,3946.9566,N,08404.9858,W,2,11,0.60,305.39,M,-33.324,M,,*7B
2017-12-31 17:54:28 1514760868.371677: $GPRMC,225429,A,3946.9566,N,08404.9858,W,0.0000,0.000,311217,,*32
2017-12-31 17:54:28 1514760868.371736: $GPGSA,A,3,22,23,9,3,16,29,14,31,27,26,135,,1.7,0.6,1.3*06
2017-12-31 17:54:29 1514760869.346088: $GPZDA,225430.00,31,12,2017,00,00*61
2017-12-31 17:54:29 1514760869.346229: $GPGGA,225430,3946.9566,N,08404.9858,W,2,11,0.60,305.39,M,-33.324,M,,*73
2017-12-31 17:54:29 1514760869.346347: $GPRMC,225430,A,3946.9566,N,08404.9858,W,0.0000,0.000,311217,,*3A
2017-12-31 17:54:29 1514760869.346408: $GPGSA,A,3,22,23,9,3,16,29,14,31,27,26,135,,1.7,0.6,1.3*06
2017-12-31 17:54:30 1514760870.683837: $GPGSV,3,1,11,22,27,219,42,23,48,309,44,09,15,312,41,03,36,240,47*7E
2017-12-31 17:54:30 1514760870.684004: $GPGSV,3,2,11,16,73,192,43,29,08,034,30,14,21,130,24,31,33,070,43*71
2017-12-31 17:54:30 1514760870.684069: $GPGSV,3,3,11,27,16,157,32,26,68,057,48,135,22,240,44*7C
2017-12-31 17:54:30 1514760870.797192: $GPZDA,225431.00,31,12,2017,00,00*60
2017-12-31 17:54:30 1514760870.797325: $GPGGA,225431,3946.9566,N,08404.9858,W,2,11,0.60,305.39,M,-33.324,M,,*72
2017-12-31 17:54:30 1514760870.797389: $GPRMC,225431,A,3946.9566,N,08404.9858,W,0.0000,0.000,311217,,*3B
2017-12-31 17:54:30 1514760870.797448: $GPGSA,A,3,22,23,9,3,16,29,14,31,27,26,135,,1.7,0.6,1.3*06
2017-12-31 17:54:31 1514760871.341830: $GPZDA,225432.00,31,12,2017,00,00*63
2017-12-31 17:54:31 1514760871.341983: $GPGGA,225432,3946.9566,N,08404.9858,W,2,11,0.60,305.39,M,-33.324,M,,*71
2017-12-31 17:54:31 1514760871.342049: $GPRMC,225432,A,3946.9566,N,08404.9858,W,0.0000,0.000,311217,,*38
2017-12-31 17:54:31 1514760871.342109: $GPGSA,A,3,22,23,9,3,16,29,14,31,27,26,135,,1.7,0.6,1.3*06
