2017-12-31 17:08:33 1514758113.448066: {"class":"VERSION","release":"3.16","rev":"3.16-4","proto_major":3,"proto_minor":11}
2017-12-31 17:08:33 1514758113.448573: {"class":"DEVICES","devices":[{"class":"DEVICE","path":"/dev/ttyUSB0","driver":"SiRF","activated":"2017-12-31T22:08:33.232Z","flags":1,"native":1,"bps":4800,"parity":"N","stopbits":1,"cycle":1.00}]}
2017-12-31 17:08:33 1514758113.448679: {"class":"WATCH","enable":true,"json":false,"nmea":true,"raw":0,"scaled":false,"timing":false,"split24":false,"pps":false}
2017-12-31 17:08:33 1514758113.680203: $GPGSV,3,1,10,22,43,237,42,23,29,307,38,03,46,268,38,16,48,190,42*7B
2017-12-31 17:08:33 1514758113.680400: $GPGSV,3,2,10,29,14,052,36,31,48,052,51,14,39,115,36,32,17,123,40*74
2017-12-31 17:08:33 1514758113.680466: $GPGSV,3,3,10,26,75,136,47,135,22,240,42*4E
2017-12-31 17:08:33 1514758113.793581: $GPZDA,220834.00,31,12,2017,00,00*6C
2017-12-31 17:08:33 1514758113.793723: $GPGGA,220834,3946.9583,N,08404.9854,W,2,10,0.80,301.57,M,-33.324,M,,*7A
2017-12-31 17:08:33 1514758113.793789: $GPRMC,220834,A,3946.9583,N,08404.9854,W,0.0000,0.000,311217,,*30
2017-12-31 17:08:33 1514758113.793849: $GPGSA,A,3,22,23,3,16,29,31,14,32,26,135,,,1.7,0.8,1.3*35
2017-12-31 17:08:34 1514758114.361111: $GPZDA,220835.00,31,12,2017,00,00*6D
2017-12-31 17:08:34 1514758114.361308: $GPGGA,220835,3946.9583,N,08404.9854,W,2,10,0.80,301.57,M,-33.324,M,,*7B
2017-12-31 17:08:34 1514758114.361375: $GPRMC,220835,A,3946.9583,N,08404.9854,W,0.0000,0.000,311217,,*31
2017-12-31 17:08:34 1514758114.361436: $GPGSA,A,3,22,23,3,16,29,31,14,32,26,135,,,1.7,0.8,1.3*35
2017-12-31 17:08:35 1514758115.345324: $GPZDA,220836.00,31,12,2017,00,00*6E
2017-12-31 17:08:35 1514758115.345487: $GPGGA,220836,3946.9583,N,08404.9854,W,2,10,0.80,301.57,M,-33.324,M,,*78
2017-12-31 17:08:35 1514758115.345553: $GPRMC,220836,A,3946.9583,N,08404.9854,W,0.0000,0.000,311217,,*32
2017-12-31 17:08:35 1514758115.345615: $GPGSA,A,3,22,23,3,16,29,31,14,32,26,135,,,1.7,0.8,1.3*35
2017-12-31 17:08:36 1514758116.679391: $GPGSV,3,1,10,22,43,237,43,23,29,307,37,03,46,268,38,16,48,190,42*75
2017-12-31 17:08:36 1514758116.679550: $GPGSV,3,2,10,29,14,052,37,31,48,052,51,14,39,115,36,32,17,123,40*75
2017-12-31 17:08:36 1514758116.679616: $GPGSV,3,3,10,26,75,136,47,135,22,240,43*4F
2017-12-31 17:08:36 1514758116.792719: $GPZDA,220837.00,31,12,2017,00,00*6F
2017-12-31 17:08:36 1514758116.792865: $GPGGA,220837,3946.9583,N,08404.9854,W,2,10,0.80,301.57,M,-33.324,M,,*79
2017-12-31 17:08:36 1514758116.792931: $GPRMC,220837,A,3946.9583,N,08404.9854,W,0.0000,0.000,311217,,*33
2017-12-31 17:08:36 1514758116.792990: $GPGSA,A,3,22,23,3,16,29,31,14,32,26,135,,,1.7,0.8,1.3*35
2017-12-31 17:08:37 1514758117.346097: $GPZDA,220838.00,31,12,2017,00,00*60
2017-12-31 17:08:37 1514758117.346306: $GPGGA,220838,3946.9583,N,08404.9854,W,2,10,0.80,301.57,M,-33.324,M,,*76
2017-12-31 17:08:37 1514758117.346376: $GPRMC,220838,A,3946.9583,N,08404.9854,W,0.0000,0.000,311217,,*3C
2017-12-31 17:08:37 1514758117.346437: $GPGSA,A,3,22,23,3,16,29,31,14,32,26,135,,,1.7,0.8,1.3*35
2017-12-31 17:08:38 1514758118.345948: $GPZDA,220839.00,31,12,2017,00,00*61
2017-12-31 17:08:38 1514758118.346146: $GPGGA,220839,3946.9583,N,08404.9854,W,2,10,0.80,301.57,M,-33.324,M,,*77
2017-12-31 17:08:38 1514758118.346240: $GPRMC,220839,A,3946.9583,N,08404.9854,W,0.0000,0.000,311217,,*3D
2017-12-31 17:08:38 1514758118.346305: $GPGSA,A,3,22,23,3,16,29,31,14,32,26,135,,,1.7,0.8,1.3*35
2017-12-31 17:08:39 1514758119.678898: $GPGSV,3,1,10,22,43,237,43,23,29,307,38,03,46,268,39,16,48,190,42*7B
2017-12-31 17:08:39 1514758119.679098: $GPGSV,3,2,10,29,14,052,36,31,48,052,51,14,39,115,36,32,17,123,40*74
2017-12-31 17:08:39 1514758119.679165: $GPGSV,3,3,10,26,75,136,47,135,22,240,42*4E
2017-12-31 17:08:39 1514758119.792539: $GPZDA,220840.00,31,12,2017,00,00*6F
2017-12-31 17:08:39 1514758119.792678: $GPGGA,220840,3946.9583,N,08404.9854,W,2,10,0.80,301.57,M,-33.324,M,,*79
2017-12-31 17:08:39 1514758119.792743: $GPRMC,220840,A,3946.9583,N,08404.9854,W,0.0000,0.000,311217,,*33
2017-12-31 17:08:39 1514758119.792803: $GPGSA,A,3,22,23,3,16,29,31,14,32,26,135,,,1.7,0.8,1.3*35
2017-12-31 17:08:40 1514758120.417941: $GPZDA,220841.00,31,12,2017,00,00*6E
2017-12-31 17:08:40 1514758120.418120: $GPGGA,220841,3946.9583,N,08404.9854,W,2,10,0.80,301.57,M,-33.324,M,,*78
2017-12-31 17:08:40 1514758120.418187: $GPRMC,220841,A,3946.9583,N,08404.9854,W,0.0000,0.000,311217,,*32
2017-12-31 17:08:40 1514758120.418278: $GPGSA,A,3,22,23,3,16,29,31,14,32,26,135,,,1.7,0.8,1.3*35
2017-12-31 17:08:41 1514758121.343785: $GPZDA,220842.00,31,12,2017,00,00*6D
2017-12-31 17:08:41 1514758121.343944: $GPGGA,220842,3946.9583,N,08404.9854,W,2,10,0.80,301.57,M,-33.324,M,,*7B
2017-12-31 17:08:41 1514758121.344011: $GPRMC,220842,A,3946.9583,N,08404.9854,W,0.0000,0.000,311217,,*31
2017-12-31 17:08:41 1514758121.344094: $GPGSA,A,3,22,23,3,16,29,31,14,32,26,135,,,1.7,0.8,1.3*35
2017-12-31 17:08:42 1514758122.688014: $GPGSV,3,1,10,22,43,237,43,23,29,307,38,03,46,268,38,16,48,190,42*7A
2017-12-31 17:08:42 1514758122.688226: $GPGSV,3,2,10,29,14,052,36,31,48,052,51,14,39,115,36,32,17,123,40*74
2017-12-31 17:08:42 1514758122.688292: $GPGSV,3,3,10,26,75,136,47,135,22,240,42*4E
2017-12-31 17:08:42 1514758122.801732: $GPZDA,220843.00,31,12,2017,00,00*6C
2017-12-31 17:08:42 1514758122.801872: $GPGGA,220843,3946.9583,N,08404.9854,W,2,10,0.80,301.57,M,-33.324,M,,*7A
2017-12-31 17:08:42 1514758122.801937: $GPRMC,220843,A,3946.9583,N,08404.9854,W,0.0000,0.000,311217,,*30
2017-12-31 17:08:42 1514758122.801998: $GPGSA,A,3,22,23,3,16,29,31,14,32,26,135,,,1.7,0.8,1.3*35
2017-12-31 17:08:43 1514758123.344726: $GPZDA,220844.00,31,12,2017,00,00*6B
2017-12-31 17:08:43 1514758123.344881: $GPGGA,220844,3946.9583,N,08404.9854,W,2,10,0.80,301.57,M,-33.324,M,,*7D
2017-12-31 17:08:43 1514758123.344948: $GPRMC,220844,A,3946.9583,N,08404.9854,W,0.0000,0.000,311217,,*37
2017-12-31 17:08:43 1514758123.345009: $GPGSA,A,3,22,23,3,16,29,31,14,32,26,135,,,1.7,0.8,1.3*35
