2017-11-16 14:43:16 1510861396.478035: {"class":"VERSION","release":"3.17","rev":"3.17","proto_major":3,"proto_minor":12}
2017-11-16 14:43:16 1510861396.478473: {"class":"DEVICES","devices":[{"class":"DEVICE","path":"/dev/ttyUSB0","driver":"SiRF","subtype":"9\u0006GSD4e_4.1.2-P1_RPATCH.05-F-GPS-4R-1510281 11/03/2015 307","activated":"2017-11-16T19:43:16.387Z","flags":1,"native":1,"bps":4800,"parity":"N","stopbits":1,"cycle":1.00}]}
2017-11-16 14:43:16 1510861396.478591: {"class":"WATCH","enable":true,"json":false,"nmea":true,"raw":0,"scaled":false,"timing":false,"split24":false,"pps":false}
2017-11-16 14:43:16 1510861396.500933: $GPZDA,194315.00,16,11,2017,00,00*6E
2017-11-16 14:43:16 1510861396.501078: $GPGGA,194315,3946.9564,N,08404.9842,W,2,11,0.80,302.74,M,-33.324,M,,*73
2017-11-16 14:43:16 1510861396.501138: $GPRMC,194315,A,3946.9564,N,08404.9842,W,0.0000,0.000,161117,,*3C
2017-11-16 14:43:16 1510861396.501194: $GPGSA,A,3,8,10,15,18,21,20,24,27,32,14,138,,1.6,0.8,1.3*37
2017-11-16 14:43:17 1510861397.501922: $GPZDA,194316.00,16,11,2017,00,00*6D
2017-11-16 14:43:17 1510861397.502082: $GPGGA,194316,3946.9564,N,08404.9842,W,2,11,0.80,302.74,M,-33.324,M,,*70
2017-11-16 14:43:17 1510861397.502143: $GPRMC,194316,A,3946.9564,N,08404.9842,W,0.0000,0.000,161117,,*3F
2017-11-16 14:43:17 1510861397.502201: $GPGSA,A,3,8,10,15,18,21,20,24,27,32,14,138,,1.6,0.8,1.3*37
2017-11-16 14:43:18 1510861398.838551: $GPGSV,3,1,11,08,08,310,38,10,52,312,50,15,26,057,51,18,77,021,45*7C
2017-11-16 14:43:18 1510861398.838733: $GPGSV,3,2,11,21,49,183,47,20,23,106,46,24,53,087,49,27,15,276,42*7F
2017-11-16 14:43:18 1510861398.838796: $GPGSV,3,3,11,32,31,247,47,14,15,240,41,138,38,213,44*7B
2017-11-16 14:43:18 1510861398.952727: $GPZDA,194317.00,16,11,2017,00,00*6C
2017-11-16 14:43:18 1510861398.952885: $GPGGA,194317,3946.9564,N,08404.9842,W,2,11,0.80,302.74,M,-33.324,M,,*71
2017-11-16 14:43:18 1510861398.952962: $GPRMC,194317,A,3946.9564,N,08404.9842,W,0.0000,0.000,161117,,*3E
2017-11-16 14:43:18 1510861398.953020: $GPGSA,A,3,8,10,15,18,21,20,24,27,32,14,138,,1.6,0.8,1.3*37
2017-11-16 14:43:19 1510861399.577277: $GPZDA,194318.00,16,11,2017,00,00*63
2017-11-16 14:43:19 1510861399.577443: $GPGGA,194318,3946.9564,N,08404.9849,W,2,11,0.80,302.66,M,-33.324,M,,*76
2017-11-16 14:43:19 1510861399.577505: $GPRMC,194318,A,3946.9564,N,08404.9849,W,0.0000,0.000,161117,,*3A
2017-11-16 14:43:19 1510861399.577561: $GPGSA,A,3,8,10,15,18,21,20,24,27,32,14,138,,1.6,0.8,1.3*37
2017-11-16 14:43:20 1510861400.495805: $GPZDA,194319.00,16,11,2017,00,00*62
2017-11-16 14:43:20 1510861400.495997: $GPGGA,194319,3946.9564,N,08404.9849,W,2,11,0.80,302.66,M,-33.324,M,,*77
2017-11-16 14:43:20 1510861400.496079: $GPRMC,194319,A,3946.9564,N,08404.9849,W,0.0000,0.000,161117,,*3B
2017-11-16 14:43:20 1510861400.496138: $GPGSA,A,3,8,10,15,18,21,20,24,27,32,14,138,,1.6,0.8,1.3*37
2017-11-16 14:43:21 1510861401.837669: $GPGSV,3,1,11,08,08,310,37,10,52,312,50,15,26,057,51,18,77,021,45*73
2017-11-16 14:43:21 1510861401.837842: $GPGSV,3,2,11,21,49,183,47,20,23,106,46,24,53,087,49,27,15,276,43*7E
2017-11-16 14:43:21 1510861401.837921: $GPGSV,3,3,11,32,31,247,47,14,15,240,40,138,38,213,43*7D
2017-11-16 14:43:21 1510861401.950885: $GPZDA,194320.00,16,11,2017,00,00*68
2017-11-16 14:43:21 1510861401.951054: $GPGGA,194320,3946.9564,N,08404.9849,W,2,11,0.80,302.66,M,-33.324,M,,*7D
2017-11-16 14:43:21 1510861401.951116: $GPRMC,194320,A,3946.9564,N,08404.9849,W,0.0000,0.000,161117,,*31
2017-11-16 14:43:21 1510861401.951171: $GPGSA,A,3,8,10,15,18,21,20,24,27,32,14,138,,1.6,0.8,1.3*37
2017-11-16 14:43:22 1510861402.501861: $GPZDA,194321.00,16,11,2017,00,00*69
2017-11-16 14:43:22 1510861402.502027: $GPGGA,194321,3946.9564,N,08404.9849,W,2,11,0.80,302.66,M,-33.324,M,,*7C
2017-11-16 14:43:22 1510861402.502090: $GPRMC,194321,A,3946.9564,N,08404.9849,W,0.0000,0.000,161117,,*30
2017-11-16 14:43:22 1510861402.502146: $GPGSA,A,3,8,10,15,18,21,20,24,27,32,14,138,,1.6,0.8,1.3*37
2017-11-16 14:43:23 1510861403.502673: $GPZDA,194322.00,16,11,2017,00,00*6A
2017-11-16 14:43:23 1510861403.502849: $GPGGA,194322,3946.9564,N,08404.9849,W,2,11,0.80,302.66,M,-33.324,M,,*7F
2017-11-16 14:43:23 1510861403.502968: $GPRMC,194322,A,3946.9564,N,08404.9849,W,0.0000,0.000,161117,,*33
2017-11-16 14:43:23 1510861403.503026: $GPGSA,A,3,8,10,15,18,21,20,24,27,32,14,138,,1.6,0.8,1.3*37
2017-11-16 14:43:24 1510861404.832763: $GPGSV,3,1,11,08,08,310,36,10,52,312,50,15,26,057,51,18,77,021,45*72
2017-11-16 14:43:24 1510861404.832926: $GPGSV,3,2,11,21,49,183,47,20,23,106,46,24,53,087,48,27,15,276,42*7E
2017-11-16 14:43:24 1510861404.832987: $GPGSV,3,3,11,32,31,247,47,14,15,240,41,138,38,213,44*7B
2017-11-16 14:43:24 1510861404.946061: $GPZDA,194323.00,16,11,2017,00,00*6B
2017-11-16 14:43:24 1510861404.946223: $GPGGA,194323,3946.9564,N,08404.9849,W,2,11,0.80,302.66,M,-33.324,M,,*7E
2017-11-16 14:43:24 1510861404.946284: $GPRMC,194323,A,3946.9564,N,08404.9849,W,0.0000,0.000,161117,,*32
2017-11-16 14:43:24 1510861404.946339: $GPGSA,A,3,8,10,15,18,21,20,24,27,32,14,138,,1.6,0.8,1.3*37
2017-11-16 14:43:25 1510861405.529463: $GPZDA,194324.00,16,11,2017,00,00*6C
2017-11-16 14:43:25 1510861405.532955: $GPGGA,194324,3946.9564,N,08404.9849,W,2,11,0.80,302.66,M,-33.324,M,,*79
2017-11-16 14:43:25 1510861405.533127: $GPRMC,194324,A,3946.9564,N,08404.9849,W,0.0000,0.000,161117,,*35
2017-11-16 14:43:25 1510861405.533269: $GPGSA,A,3,8,10,15,18,21,20,24,27,32,14,138,,1.6,0.8,1.3*37
2017-11-16 14:43:26 1510861406.501520: $GPZDA,194325.00,16,11,2017,00,00*6D
2017-11-16 14:43:26 1510861406.501684: $GPGGA,194325,3946.9564,N,08404.9849,W,2,11,0.80,302.66,M,-33.324,M,,*78
2017-11-16 14:43:26 1510861406.501746: $GPRMC,194325,A,3946.9564,N,08404.9849,W,0.0000,0.000,161117,,*34
2017-11-16 14:43:26 1510861406.501802: $GPGSA,A,3,8,10,15,18,21,20,24,27,32,14,138,,1.6,0.8,1.3*37
