2017-12-01 16:54:01 1512165241.237324: {"class":"VERSION","release":"3.16","rev":"3.16-4","proto_major":3,"proto_minor":11}
2017-12-01 16:54:01 1512165241.237762: {"class":"DEVICES","devices":[{"class":"DEVICE","path":"/dev/ttyUSB0","driver":"SiRF","subtype":"9\u0006GSD4e_4.1.2-P1_RPATCH.05-F-GPS-4R-1510281 11/03/2015 307","activated":"2017-12-01T21:54:01.209Z","flags":1,"native":1,"bps":4800,"parity":"N","stopbits":1,"cycle":1.00}]}
2017-12-01 16:54:01 1512165241.237887: {"class":"WATCH","enable":true,"json":false,"nmea":true,"raw":0,"scaled":false,"timing":false,"split24":false,"pps":false}
2017-12-01 16:54:01 1512165241.386605: $GPZDA,215402.00,01,12,2017,00,00*60
2017-12-01 16:54:01 1512165241.386741: $GPGGA,215402,3946.9644,N,08404.9747,W,2,12,0.80,295.94,M,-33.324,M,,*71
2017-12-01 16:54:01 1512165241.386806: $GPRMC,215402,A,3946.9644,N,08404.9747,W,0.0000,0.000,011217,,*39
2017-12-01 16:54:01 1512165241.386867: $GPGSA,A,3,1,3,10,14,22,31,32,12,18,25,26,138,2.0,0.8,1.5*0A
2017-12-01 16:54:02 1512165242.716100: $GPGSV,3,1,12,01,22,289,43,03,08,318,40,10,37,153,39,14,70,354,46*72
2017-12-01 16:54:02 1512165242.716288: $GPGSV,3,2,12,22,28,310,46,31,67,238,49,32,64,054,48,12,17,040,26*7D
2017-12-01 16:54:02 1512165242.716355: $GPGSV,3,3,12,18,08,147,20,25,40,076,27,26,12,180,34,138,38,213,35*42
2017-12-01 16:54:02 1512165242.829448: $GPZDA,215403.00,01,12,2017,00,00*61
2017-12-01 16:54:02 1512165242.829594: $GPGGA,215403,3946.9644,N,08404.9747,W,2,12,0.80,295.94,M,-33.324,M,,*70
2017-12-01 16:54:02 1512165242.829660: $GPRMC,215403,A,3946.9644,N,08404.9747,W,0.0000,0.000,011217,,*38
2017-12-01 16:54:02 1512165242.829720: $GPGSA,A,3,1,3,10,14,22,31,32,12,18,25,26,138,2.0,0.8,1.5*0A
2017-12-01 16:54:03 1512165243.454945: $GPZDA,215404.00,01,12,2017,00,00*66
2017-12-01 16:54:03 1512165243.455117: $GPGGA,215404,3946.9644,N,08404.9747,W,2,12,0.80,295.94,M,-33.324,M,,*77
2017-12-01 16:54:03 1512165243.455183: $GPRMC,215404,A,3946.9644,N,08404.9747,W,0.0000,0.000,011217,,*3F
2017-12-01 16:54:03 1512165243.455245: $GPGSA,A,3,1,3,10,14,22,31,32,12,18,25,26,138,2.0,0.8,1.5*0A
2017-12-01 16:54:04 1512165244.403584: $GPZDA,215405.00,01,12,2017,00,00*67
2017-12-01 16:54:04 1512165244.403756: $GPGGA,215405,3946.9644,N,08404.9747,W,2,12,0.80,295.94,M,-33.324,M,,*76
2017-12-01 16:54:04 1512165244.403823: $GPRMC,215405,A,3946.9644,N,08404.9747,W,0.0000,0.000,011217,,*3E
2017-12-01 16:54:04 1512165244.403884: $GPGSA,A,3,1,3,10,14,22,31,32,12,18,25,26,138,2.0,0.8,1.5*0A
2017-12-01 16:54:05 1512165245.737723: $GPGSV,3,1,12,01,22,289,44,03,08,318,40,10,37,153,39,14,70,354,46*75
2017-12-01 16:54:05 1512165245.737906: $GPGSV,3,2,12,22,28,310,45,31,67,238,49,32,64,054,48,12,17,040,26*7E
2017-12-01 16:54:05 1512165245.737973: $GPGSV,3,3,12,18,08,147,20,25,40,076,27,26,12,180,34,138,38,213,39*4E
2017-12-01 16:54:05 1512165245.851598: $GPZDA,215406.00,01,12,2017,00,00*64
2017-12-01 16:54:05 1512165245.851763: $GPGGA,215406,3946.9644,N,08404.9747,W,2,12,0.80,295.94,M,-33.324,M,,*75
2017-12-01 16:54:05 1512165245.851829: $GPRMC,215406,A,3946.9644,N,08404.9747,W,0.0000,0.000,011217,,*3D
2017-12-01 16:54:05 1512165245.851889: $GPGSA,A,3,1,3,10,14,22,31,32,12,18,25,26,138,2.0,0.8,1.5*0A
2017-12-01 16:54:06 1512165246.402128: $GPZDA,215407.00,01,12,2017,00,00*65
2017-12-01 16:54:06 1512165246.402300: $GPGGA,215407,3946.9644,N,08404.9747,W,2,12,0.80,295.94,M,-33.324,M,,*74
2017-12-01 16:54:06 1512165246.402367: $GPRMC,215407,A,3946.9644,N,08404.9747,W,0.0000,0.000,011217,,*3C
2017-12-01 16:54:06 1512165246.402429: $GPGSA,A,3,1,3,10,14,22,31,32,12,18,25,26,138,2.0,0.8,1.5*0A
2017-12-01 16:54:07 1512165247.382885: $GPZDA,215408.00,01,12,2017,00,00*6A
2017-12-01 16:54:07 1512165247.789923: $GPGGA,215408,3946.9644,N,08404.9747,W,2,12,0.80,295.94,M,-33.324,M,,*7B
2017-12-01 16:54:07 1512165247.790097: $GPRMC,215408,A,3946.9644,N,08404.9747,W,0.0000,0.000,011217,,*33
2017-12-01 16:54:07 1512165247.790180: $GPGSA,A,3,1,3,10,14,22,31,32,12,18,25,26,138,2.0,0.8,1.5*0A
2017-12-01 16:54:08 1512165248.723167: $GPGSV,3,1,12,01,22,289,44,03,08,318,40,10,37,153,39,14,70,354,45*76
2017-12-01 16:54:08 1512165248.723438: $GPGSV,3,2,12,22,28,310,45,31,67,238,49,32,64,054,48,12,17,040,25*7D
2017-12-01 16:54:08 1512165248.723510: $GPGSV,3,3,12,18,08,147,19,25,40,076,27,26,12,180,34,138,38,213,40*4A
2017-12-01 16:54:08 1512165248.837592: $GPZDA,215409.00,01,12,2017,00,00*6B
2017-12-01 16:54:08 1512165248.837963: $GPGGA,215409,3946.9644,N,08404.9747,W,2,12,0.80,295.94,M,-33.324,M,,*7A
2017-12-01 16:54:08 1512165248.838031: $GPRMC,215409,A,3946.9644,N,08404.9747,W,0.0000,0.000,011217,,*32
2017-12-01 16:54:08 1512165248.838092: $GPGSA,A,3,1,3,10,14,22,31,32,12,18,25,26,138,2.0,0.8,1.5*0A
2017-12-01 16:54:09 1512165249.386522: $GPZDA,215410.00,01,12,2017,00,00*63
2017-12-01 16:54:09 1512165249.386689: $GPGGA,215410,3946.9644,N,08404.9747,W,2,12,0.80,295.94,M,-33.324,M,,*72
2017-12-01 16:54:09 1512165249.386757: $GPRMC,215410,A,3946.9644,N,08404.9747,W,0.0000,0.000,011217,,*3A
2017-12-01 16:54:09 1512165249.386819: $GPGSA,A,3,1,3,10,14,22,31,32,12,18,25,26,138,2.0,0.8,1.5*0A
2017-12-01 16:54:10 1512165250.385764: $GPZDA,215411.00,01,12,2017,00,00*62
2017-12-01 16:54:10 1512165250.385939: $GPGGA,215411,3946.9644,N,08404.9747,W,2,12,0.80,295.94,M,-33.324,M,,*73
2017-12-01 16:54:10 1512165250.386006: $GPRMC,215411,A,3946.9644,N,08404.9747,W,0.0000,0.000,011217,,*3B
2017-12-01 16:54:10 1512165250.386067: $GPGSA,A,3,1,3,10,14,22,31,32,12,18,25,26,138,2.0,0.8,1.5*0A
2017-12-01 16:54:11 1512165251.723265: $GPGSV,3,1,12,01,22,289,43,03,08,318,39,10,37,153,39,14,70,354,45*7F
2017-12-01 16:54:11 1512165251.723635: $GPGSV,3,2,12,22,28,310,46,31,67,238,49,32,64,054,48,12,17,040,25*7E
2017-12-01 16:54:11 1512165251.723777: $GPGSV,3,3,12,18,08,147,19,25,40,076,28,26,12,180,34,138,38,213,40*45
2017-12-01 16:54:11 1512165251.836530: $GPZDA,215412.00,01,12,2017,00,00*61
2017-12-01 16:54:11 1512165251.836698: $GPGGA,215412,3946.9644,N,08404.9747,W,2,12,0.80,295.94,M,-33.324,M,,*70
2017-12-01 16:54:11 1512165251.836764: $GPRMC,215412,A,3946.9644,N,08404.9747,W,0.0000,0.000,011217,,*38
2017-12-01 16:54:11 1512165251.836825: $GPGSA,A,3,1,3,10,14,22,31,32,12,18,25,26,138,2.0,0.8,1.5*0A
2017-12-01 16:54:12 1512165252.387016: $GPZDA,215413.00,01,12,2017,00,00*60
2017-12-01 16:54:12 1512165252.392569: $GPGGA,215413,3946.9644,N,08404.9747,W,2,12,0.80,295.94,M,-33.324,M,,*71
2017-12-01 16:54:12 1512165252.392703: $GPRMC,215413,A,3946.9644,N,08404.9747,W,0.0000,0.000,011217,,*39
2017-12-01 16:54:12 1512165252.392767: $GPGSA,A,3,1,3,10,14,22,31,32,12,18,25,26,138,2.0,0.8,1.5*0A
2017-12-01 16:54:13 1512165253.387301: $GPZDA,215414.00,01,12,2017,00,00*67
2017-12-01 16:54:13 1512165253.387486: $GPGGA,215414,3946.9644,N,08404.9747,W,2,12,0.80,295.94,M,-33.324,M,,*76
2017-12-01 16:54:13 1512165253.387573: $GPRMC,215414,A,3946.9644,N,08404.9747,W,0.0000,0.000,011217,,*3E
2017-12-01 16:54:13 1512165253.387636: $GPGSA,A,3,1,3,10,14,22,31,32,12,18,25,26,138,2.0,0.8,1.5*0A
2017-12-01 16:54:14 1512165254.721863: $GPGSV,3,1,12,01,22,289,43,03,08,318,40,10,37,153,38,14,70,354,45*70
2017-12-01 16:54:14 1512165254.722065: $GPGSV,3,2,12,22,28,310,46,31,67,238,49,32,64,054,47,12,17,040,18*7F
2017-12-01 16:54:14 1512165254.722133: $GPGSV,3,3,12,18,08,147,19,25,40,076,28,26,12,180,34,138,38,213,38*4A
2017-12-01 16:54:14 1512165254.834350: $GPZDA,215415.00,01,12,2017,00,00*66
2017-12-01 16:54:14 1512165254.834537: $GPGGA,215415,3946.9644,N,08404.9747,W,2,12,0.80,295.94,M,-33.324,M,,*77
2017-12-01 16:54:14 1512165254.834610: $GPRMC,215415,A,3946.9644,N,08404.9747,W,0.0000,0.000,011217,,*3F
2017-12-01 16:54:14 1512165254.834679: $GPGSA,A,3,1,3,10,14,22,31,32,12,18,25,26,138,2.0,0.8,1.5*0A
2017-12-01 16:54:15 1512165255.387400: $GPZDA,215416.00,01,12,2017,00,00*65
2017-12-01 16:54:15 1512165255.387582: $GPGGA,215416,3946.9644,N,08404.9747,W,2,12,0.80,295.94,M,-33.324,M,,*74
2017-12-01 16:54:15 1512165255.387650: $GPRMC,215416,A,3946.9644,N,08404.9747,W,0.0000,0.000,011217,,*3C
2017-12-01 16:54:15 1512165255.387713: $GPGSA,A,3,1,3,10,14,22,31,32,12,18,25,26,138,2.0,0.8,1.5*0A
2017-12-01 16:54:16 1512165256.386963: $GPZDA,215417.00,01,12,2017,00,00*64
2017-12-01 16:54:16 1512165256.387132: $GPGGA,215417,3946.9644,N,08404.9747,W,2,12,0.80,295.94,M,-33.324,M,,*75
2017-12-01 16:54:16 1512165256.387219: $GPRMC,215417,A,3946.9644,N,08404.9747,W,0.0000,0.000,011217,,*3D
2017-12-01 16:54:16 1512165256.387282: $GPGSA,A,3,1,3,10,14,22,31,32,12,18,25,26,138,2.0,0.8,1.5*0A
2017-12-01 16:54:17 1512165257.721486: $GPGSV,3,1,12,01,22,289,43,03,08,318,39,10,37,153,38,14,70,354,45*7E
2017-12-01 16:54:17 1512165257.721682: $GPGSV,3,2,12,22,28,310,45,31,67,238,49,32,64,054,47,12,17,040,16*72
2017-12-01 16:54:17 1512165257.721748: $GPGSV,3,3,12,18,08,147,19,25,40,076,28,26,12,180,33,138,38,213,40*42
2017-12-01 16:54:17 1512165257.834790: $GPZDA,215418.00,01,12,2017,00,00*6B
2017-12-01 16:54:17 1512165257.834963: $GPGGA,215418,3946.9644,N,08404.9747,W,2,12,0.80,295.94,M,-33.324,M,,*7A
2017-12-01 16:54:17 1512165257.835030: $GPRMC,215418,A,3946.9644,N,08404.9747,W,0.0000,0.000,011217,,*32
2017-12-01 16:54:17 1512165257.835091: $GPGSA,A,3,1,3,10,14,22,31,32,12,18,25,26,138,2.0,0.8,1.5*0A
2017-12-01 16:54:18 1512165258.460197: $GPZDA,215419.00,01,12,2017,00,00*6A
2017-12-01 16:54:18 1512165258.460383: $GPGGA,215419,3946.9644,N,08404.9747,W,2,12,0.80,295.94,M,-33.324,M,,*7B
2017-12-01 16:54:18 1512165258.460452: $GPRMC,215419,A,3946.9644,N,08404.9747,W,0.0000,0.000,011217,,*33
2017-12-01 16:54:18 1512165258.460514: $GPGSA,A,3,1,3,10,14,22,31,32,12,18,25,26,138,2.0,0.8,1.5*0A
2017-12-01 16:54:19 1512165259.388614: $GPZDA,215420.00,01,12,2017,00,00*60
2017-12-01 16:54:19 1512165259.388790: $GPGGA,215420,3946.9644,N,08404.9747,W,2,12,0.80,295.94,M,-33.324,M,,*71
2017-12-01 16:54:19 1512165259.388858: $GPRMC,215420,A,3946.9644,N,08404.9747,W,0.0000,0.000,011217,,*39
2017-12-01 16:54:19 1512165259.388918: $GPGSA,A,3,1,3,10,14,22,31,32,12,18,25,26,138,2.0,0.8,1.5*0A
2017-12-01 16:54:20 1512165260.716749: $GPGSV,3,1,12,01,22,289,43,03,08,318,39,10,37,153,38,14,70,354,45*7E
2017-12-01 16:54:20 1512165260.716933: $GPGSV,3,2,12,22,28,310,45,31,67,238,49,32,64,054,48,12,17,040,15*7E
2017-12-01 16:54:20 1512165260.717001: $GPGSV,3,3,12,18,08,147,18,25,40,076,28,26,12,180,34,138,38,213,41*45
2017-12-01 16:54:20 1512165260.830146: $GPZDA,215421.00,01,12,2017,00,00*61
2017-12-01 16:54:20 1512165260.830344: $GPGGA,215421,3946.9644,N,08404.9747,W,2,12,0.80,295.94,M,-33.324,M,,*70
2017-12-01 16:54:20 1512165260.830411: $GPRMC,215421,A,3946.9644,N,08404.9747,W,0.0000,0.000,011217,,*38
2017-12-01 16:54:20 1512165260.830472: $GPGSA,A,3,1,3,10,14,22,31,32,12,18,25,26,138,2.0,0.8,1.5*0A
