2017-12-01 11:41:09 1512146469.886790: {"class":"VERSION","release":"3.16","rev":"3.16-4","proto_major":3,"proto_minor":11}
2017-12-01 11:41:09 1512146469.887207: {"class":"DEVICES","devices":[{"class":"DEVICE","path":"/dev/ttyUSB0","driver":"SiRF","subtype":"9\u0006GSD4e_4.1.2-P1_RPATCH.05-F-GPS-4R-1510281 11/03/2015 307","activated":"2017-12-01T16:41:09.528Z","flags":1,"native":1,"bps":4800,"parity":"N","stopbits":1,"cycle":1.00}]}
2017-12-01 11:41:09 1512146469.887332: {"class":"WATCH","enable":true,"json":false,"nmea":true,"raw":0,"scaled":false,"timing":false,"split24":false,"pps":false}
2017-12-01 11:41:10 1512146470.723714: $GPGSV,3,1,12,05,14,076,33,10,12,271,28,13,44,051,47,15,76,076,48*78
2017-12-01 11:41:10 1512146470.723895: $GPGSV,3,2,12,18,43,285,44,20,63,048,42,21,66,306,46,24,19,150,40*7D
2017-12-01 11:41:10 1512146470.723961: $GPGSV,3,3,12,27,08,325,41,29,25,195,42,04,13,129,00,138,38,213,46*4E
2017-12-01 11:41:10 1512146470.837271: $GPZDA,164111.00,01,12,2017,00,00*62
2017-12-01 11:41:10 1512146470.837449: $GPGGA,164111,3946.9600,N,08404.9852,W,2,11,0.80,288.48,M,-33.324,M,,*76
2017-12-01 11:41:10 1512146470.837544: $GPRMC,164111,A,3946.9600,N,08404.9852,W,0.0000,0.000,011217,,*30
2017-12-01 11:41:10 1512146470.837607: $GPGSA,A,3,5,10,13,15,18,20,21,24,27,29,138,,2.0,0.8,1.5*34
2017-12-01 11:41:11 1512146471.462527: $GPZDA,164112.00,01,12,2017,00,00*61
2017-12-01 11:41:11 1512146471.462708: $GPGGA,164112,3946.9600,N,08404.9852,W,2,11,0.80,288.48,M,-33.324,M,,*75
2017-12-01 11:41:11 1512146471.462775: $GPRMC,164112,A,3946.9600,N,08404.9852,W,0.0000,0.000,011217,,*33
2017-12-01 11:41:11 1512146471.462836: $GPGSA,A,3,5,10,13,15,18,20,21,24,27,29,138,,2.0,0.8,1.5*34
2017-12-01 11:41:12 1512146472.391089: $GPZDA,164113.00,01,12,2017,00,00*60
2017-12-01 11:41:12 1512146472.391258: $GPGGA,164113,3946.9600,N,08404.9852,W,2,11,0.80,288.48,M,-33.324,M,,*74
2017-12-01 11:41:12 1512146472.391323: $GPRMC,164113,A,3946.9600,N,08404.9852,W,0.0000,0.000,011217,,*32
2017-12-01 11:41:12 1512146472.391435: $GPGSA,A,3,5,10,13,15,18,20,21,24,27,29,138,,2.0,0.8,1.5*34
2017-12-01 11:41:13 1512146473.724066: $GPGSV,3,1,12,05,14,076,33,10,12,271,35,13,44,051,46,15,76,076,48*75
2017-12-01 11:41:13 1512146473.724244: $GPGSV,3,2,12,18,43,285,44,20,63,048,42,21,66,306,46,24,19,150,41*7C
2017-12-01 11:41:13 1512146473.724311: $GPGSV,3,3,12,27,08,325,42,29,25,195,42,04,13,129,00,138,38,213,46*4D
2017-12-01 11:41:13 1512146473.838698: $GPZDA,164114.00,01,12,2017,00,00*67
2017-12-01 11:41:13 1512146473.838896: $GPGGA,164114,3946.9600,N,08404.9852,W,2,11,0.80,288.48,M,-33.324,M,,*73
2017-12-01 11:41:13 1512146473.838962: $GPRMC,164114,A,3946.9600,N,08404.9852,W,0.0000,0.000,011217,,*35
2017-12-01 11:41:13 1512146473.839023: $GPGSA,A,3,5,10,13,15,18,20,21,24,27,29,138,,2.0,0.8,1.5*34
2017-12-01 11:41:14 1512146474.385784: $GPZDA,164115.00,01,12,2017,00,00*66
2017-12-01 11:41:14 1512146474.385956: $GPGGA,164115,3946.9600,N,08404.9852,W,2,11,0.80,288.48,M,-33.324,M,,*72
2017-12-01 11:41:14 1512146474.386024: $GPRMC,164115,A,3946.9600,N,08404.9852,W,0.0000,0.000,011217,,*34
2017-12-01 11:41:14 1512146474.386086: $GPGSA,A,3,5,10,13,15,18,20,21,24,27,29,138,,2.0,0.8,1.5*34
2017-12-01 11:41:15 1512146475.387929: $GPZDA,164116.00,01,12,2017,00,00*65
2017-12-01 11:41:15 1512146475.388121: $GPGGA,164116,3946.9600,N,08404.9852,W,2,11,0.80,288.48,M,-33.324,M,,*71
2017-12-01 11:41:15 1512146475.388189: $GPRMC,164116,A,3946.9600,N,08404.9852,W,0.0000,0.000,011217,,*37
2017-12-01 11:41:15 1512146475.388250: $GPGSA,A,3,5,10,13,15,18,20,21,24,27,29,138,,2.0,0.8,1.5*34
2017-12-01 11:41:16 1512146476.724438: $GPGSV,3,1,12,05,14,076,29,10,12,271,35,13,44,051,47,15,76,076,48*7F
2017-12-01 11:41:16 1512146476.724634: $GPGSV,3,2,12,18,43,285,44,20,63,048,42,21,66,306,46,24,19,150,40*7D
2017-12-01 11:41:16 1512146476.724702: $GPGSV,3,3,12,27,08,325,43,29,25,195,42,04,13,129,00,138,38,213,46*4C
2017-12-01 11:41:16 1512146476.836490: $GPZDA,164117.00,01,12,2017,00,00*64
2017-12-01 11:41:16 1512146476.836686: $GPGGA,164117,3946.9600,N,08404.9852,W,2,11,0.80,288.48,M,-33.324,M,,*70
2017-12-01 11:41:16 1512146476.836807: $GPRMC,164117,A,3946.9600,N,08404.9852,W,0.0000,0.000,011217,,*36
2017-12-01 11:41:16 1512146476.836872: $GPGSA,A,3,5,10,13,15,18,20,21,24,27,29,138,,2.0,0.8,1.5*34
2017-12-01 11:41:17 1512146477.388979: $GPZDA,164118.00,01,12,2017,00,00*6B
2017-12-01 11:41:17 1512146477.389148: $GPGGA,164118,3946.9600,N,08404.9852,W,2,11,0.80,288.48,M,-33.324,M,,*7F
2017-12-01 11:41:17 1512146477.389214: $GPRMC,164118,A,3946.9600,N,08404.9852,W,0.0000,0.000,011217,,*39
2017-12-01 11:41:17 1512146477.389276: $GPGSA,A,3,5,10,13,15,18,20,21,24,27,29,138,,2.0,0.8,1.5*34
2017-12-01 11:41:18 1512146478.389958: $GPZDA,164119.00,01,12,2017,00,00*6A
2017-12-01 11:41:18 1512146478.390126: $GPGGA,164119,3946.9600,N,08404.9852,W,2,11,0.80,288.48,M,-33.324,M,,*7E
2017-12-01 11:41:18 1512146478.390193: $GPRMC,164119,A,3946.9600,N,08404.9852,W,0.0000,0.000,011217,,*38
2017-12-01 11:41:18 1512146478.390254: $GPGSA,A,3,5,10,13,15,18,20,21,24,27,29,138,,2.0,0.8,1.5*34
2017-12-01 11:41:19 1512146479.724079: $GPGSV,3,1,12,05,14,076,29,10,12,271,35,13,44,051,46,15,76,076,48*7E
2017-12-01 11:41:19 1512146479.724257: $GPGSV,3,2,12,18,43,285,44,20,63,048,42,21,66,306,45,24,19,150,40*7E
2017-12-01 11:41:19 1512146479.724324: $GPGSV,3,3,12,27,08,325,44,29,25,195,42,04,13,129,00,138,38,213,46*4B
2017-12-01 11:41:19 1512146479.837372: $GPZDA,164120.00,01,12,2017,00,00*60
2017-12-01 11:41:19 1512146479.837576: $GPGGA,164120,3946.9600,N,08404.9852,W,2,11,0.80,288.48,M,-33.324,M,,*74
2017-12-01 11:41:19 1512146479.837643: $GPRMC,164120,A,3946.9600,N,08404.9852,W,0.0000,0.000,011217,,*32
2017-12-01 11:41:19 1512146479.837704: $GPGSA,A,3,5,10,13,15,18,20,21,24,27,29,138,,2.0,0.8,1.5*34
