2017-12-29 10:40:49 1514562049.550222: {"class":"VERSION","release":"3.16","rev":"3.16-4","proto_major":3,"proto_minor":11}
2017-12-29 10:40:49 1514562049.550652: {"class":"DEVICES","devices":[{"class":"DEVICE","path":"/dev/ttyUSB0","driver":"SiRF","subtype":"9\u0006GSD4e_4.1.2-P1_RPATCH.05-F-GPS-4R-1510281 11/03/2015 307","activated":"2017-12-29T15:40:49.500Z","flags":1,"native":1,"bps":4800,"parity":"N","stopbits":1,"cycle":1.00}]}
2017-12-29 10:40:49 1514562049.550767: {"class":"WATCH","enable":true,"json":false,"nmea":true,"raw":0,"scaled":false,"timing":false,"split24":false,"pps":false}
2017-12-29 10:40:50 1514562050.357088: $GPZDA,154051.00,29,12,2017,00,00*6E
2017-12-29 10:40:50 1514562050.357269: $GPGGA,154051,3946.9592,N,08404.9833,W,2,10,1.00,290.25,M,-33.324,M,,*75
2017-12-29 10:40:50 1514562050.357335: $GPRMC,154051,A,3946.9592,N,08404.9833,W,0.0000,0.000,291217,,*33
2017-12-29 10:40:50 1514562050.357395: $GPGSA,A,3,10,13,15,18,20,21,24,29,32,138,,,1.7,1.0,1.3*0E
2017-12-29 10:40:51 1514562051.690237: $GPGSV,3,1,11,10,29,289,43,13,22,045,44,15,52,049,50,18,60,310,43*77
2017-12-29 10:40:51 1514562051.690411: $GPGSV,3,2,11,20,47,079,48,21,78,225,47,24,40,132,49,29,04,187,33*7F
2017-12-29 10:40:51 1514562051.690496: $GPGSV,3,3,11,27,18,306,08,32,08,229,28,138,38,213,45*72
2017-12-29 10:40:51 1514562051.803678: $GPZDA,154052.00,29,12,2017,00,00*6D
2017-12-29 10:40:51 1514562051.803844: $GPGGA,154052,3946.9592,N,08404.9833,W,2,10,1.00,290.25,M,-33.324,M,,*76
2017-12-29 10:40:51 1514562051.803909: $GPRMC,154052,A,3946.9592,N,08404.9833,W,0.0000,0.000,291217,,*30
2017-12-29 10:40:51 1514562051.803969: $GPGSA,A,3,10,13,15,18,20,21,24,29,32,138,,,1.7,1.0,1.3*0E
2017-12-29 10:40:52 1514562052.429011: $GPZDA,154053.00,29,12,2017,00,00*6C
2017-12-29 10:40:52 1514562052.429162: $GPGGA,154053,3946.9592,N,08404.9833,W,2,10,0.80,290.25,M,-33.324,M,,*7E
2017-12-29 10:40:52 1514562052.429227: $GPRMC,154053,A,3946.9592,N,08404.9833,W,0.0000,0.000,291217,,*31
2017-12-29 10:40:52 1514562052.429287: $GPGSA,A,3,10,13,15,18,20,21,24,29,32,138,,,1.7,0.8,1.3*07
2017-12-29 10:40:53 1514562053.356149: $GPZDA,154054.00,29,12,2017,00,00*6B
2017-12-29 10:40:53 1514562053.356305: $GPGGA,154054,3946.9592,N,08404.9833,W,2,10,0.80,290.25,M,-33.324,M,,*79
2017-12-29 10:40:53 1514562053.356371: $GPRMC,154054,A,3946.9592,N,08404.9833,W,0.0000,0.000,291217,,*36
2017-12-29 10:40:53 1514562053.356451: $GPGSA,A,3,10,13,15,18,20,21,24,29,32,138,,,1.7,0.8,1.3*07
2017-12-29 10:40:54 1514562054.693092: $GPGSV,3,1,11,10,29,289,43,13,22,045,44,15,52,049,50,18,60,310,43*77
2017-12-29 10:40:54 1514562054.693263: $GPGSV,3,2,11,20,47,079,48,21,78,225,47,24,40,132,48,29,04,187,34*79
2017-12-29 10:40:54 1514562054.693328: $GPGSV,3,3,11,27,18,306,28,32,08,229,28,138,38,213,46*73
2017-12-29 10:40:54 1514562054.806576: $GPZDA,154055.00,29,12,2017,00,00*6A
2017-12-29 10:40:54 1514562054.806755: $GPGGA,154055,3946.9592,N,08404.9833,W,2,11,0.80,290.25,M,-33.324,M,,*79
2017-12-29 10:40:54 1514562054.806821: $GPRMC,154055,A,3946.9592,N,08404.9833,W,0.0000,0.000,291217,,*37
2017-12-29 10:40:54 1514562054.806882: $GPGSA,A,3,10,13,15,18,20,21,24,29,27,32,138,,1.7,0.8,1.3*02
2017-12-29 10:40:55 1514562055.861315: $GPZDA,154056.00,29,12,2017,00,00*69
2017-12-29 10:40:55 1514562055.861478: $GPGGA,154056,3946.9596,N,08404.9833,W,2,11,0.80,290.89,M,-33.324,M,,*78
2017-12-29 10:40:55 1514562055.861545: $GPRMC,154056,A,3946.9596,N,08404.9833,W,0.3423,4.197,291217,,*3D
2017-12-29 10:40:55 1514562055.861605: $GPGSA,A,3,10,13,15,18,20,21,24,29,27,32,138,,1.7,0.8,1.3*02
2017-12-29 10:40:56 1514562056.355871: $GPZDA,154057.00,29,12,2017,00,00*68
2017-12-29 10:40:56 1514562056.356034: $GPGGA,154057,3946.9596,N,08404.9833,W,2,11,0.80,290.89,M,-33.324,M,,*79
2017-12-29 10:40:56 1514562056.356100: $GPRMC,154057,A,3946.9596,N,08404.9833,W,0.0000,0.000,291217,,*31
2017-12-29 10:40:56 1514562056.356160: $GPGSA,A,3,10,13,15,18,20,21,24,29,27,32,138,,1.7,0.8,1.3*02
2017-12-29 10:40:57 1514562057.692370: $GPGSV,3,1,11,10,29,289,44,13,21,045,44,15,52,049,51,18,61,310,43*73
2017-12-29 10:40:57 1514562057.692613: $GPGSV,3,2,11,20,47,081,48,21,78,225,47,24,40,130,49,29,04,187,33*7A
2017-12-29 10:40:57 1514562057.692682: $GPGSV,3,3,11,27,18,306,32,32,08,229,29,138,38,213,45*7A
2017-12-29 10:40:57 1514562057.805757: $GPZDA,154058.00,29,12,2017,00,00*67
2017-12-29 10:40:57 1514562057.805924: $GPGGA,154058,3946.9593,N,08404.9833,W,2,11,0.80,291.65,M,-33.324,M,,*70
2017-12-29 10:40:57 1514562057.805989: $GPRMC,154058,A,3946.9593,N,08404.9833,W,0.0000,0.000,291217,,*3B
2017-12-29 10:40:57 1514562057.806050: $GPGSA,A,3,10,13,15,18,20,21,24,29,27,32,138,,1.7,0.8,1.3*02
2017-12-29 10:40:58 1514562058.356594: $GPZDA,154059.00,29,12,2017,00,00*66
2017-12-29 10:40:58 1514562058.356744: $GPGGA,154059,3946.9593,N,08404.9833,W,2,11,0.80,291.65,M,-33.324,M,,*71
2017-12-29 10:40:58 1514562058.356810: $GPRMC,154059,A,3946.9593,N,08404.9833,W,0.0000,0.000,291217,,*3A
2017-12-29 10:40:58 1514562058.356871: $GPGSA,A,3,10,13,15,18,20,21,24,29,27,32,138,,1.7,0.8,1.3*02
2017-12-29 10:40:59 1514562059.355001: $GPZDA,154100.00,29,12,2017,00,00*6B
2017-12-29 10:40:59 1514562059.355164: $GPGGA,154100,3946.9593,N,08404.9833,W,2,11,0.80,291.65,M,-33.324,M,,*7C
2017-12-29 10:40:59 1514562059.355230: $GPRMC,154100,A,3946.9593,N,08404.9833,W,0.0000,0.000,291217,,*37
2017-12-29 10:40:59 1514562059.355291: $GPGSA,A,3,10,13,15,18,20,21,24,29,27,32,138,,1.7,0.8,1.3*02
