2017-12-31 16:55:58 1514757358.052855: {"class":"VERSION","release":"3.16","rev":"3.16-4","proto_major":3,"proto_minor":11}
2017-12-31 16:55:58 1514757358.053270: {"class":"DEVICES","devices":[{"class":"DEVICE","path":"/dev/ttyUSB0","driver":"SiRF","activated":"2017-12-31T21:55:57.933Z","flags":1,"native":1,"bps":4800,"parity":"N","stopbits":1,"cycle":1.00}]}
2017-12-31 16:55:58 1514757358.053376: {"class":"WATCH","enable":true,"json":false,"nmea":true,"raw":0,"scaled":false,"timing":false,"split24":false,"pps":false}
2017-12-31 16:55:58 1514757358.344309: $GPZDA,215559.00,31,12,2017,00,00*6C
2017-12-31 16:55:58 1514757358.344477: $GPGGA,215559,3946.9581,N,08404.9862,W,2,11,0.80,303.66,M,-33.324,M,,*7C
2017-12-31 16:55:58 1514757358.344542: $GPRMC,215559,A,3946.9581,N,08404.9862,W,0.0000,0.000,311217,,*37
2017-12-31 16:55:58 1514757358.344603: $GPGSA,A,3,22,23,25,3,16,29,31,14,32,26,135,,1.7,0.8,1.3*32
2017-12-31 16:55:59 1514757359.343981: $GPZDA,215600.00,31,12,2017,00,00*63
2017-12-31 16:55:59 1514757359.344150: $GPGGA,215600,3946.9581,N,08404.9862,W,2,11,0.80,303.66,M,-33.324,M,,*73
2017-12-31 16:55:59 1514757359.344216: $GPRMC,215600,A,3946.9581,N,08404.9862,W,0.0000,0.000,311217,,*38
2017-12-31 16:55:59 1514757359.344279: $GPGSA,A,3,22,23,25,3,16,29,31,14,32,26,135,,1.7,0.8,1.3*32
2017-12-31 16:56:00 1514757360.680223: $GPGSV,3,1,11,22,47,246,42,23,24,306,37,25,05,037,18,03,46,277,40*70
2017-12-31 16:56:00 1514757360.680421: $GPGSV,3,2,11,16,41,190,46,29,14,060,30,31,53,046,51,14,44,109,42*72
2017-12-31 16:56:00 1514757360.680489: $GPGSV,3,3,11,32,22,120,43,26,70,154,45,135,22,240,44*7F
2017-12-31 16:56:00 1514757360.793990: $GPZDA,215601.00,31,12,2017,00,00*62
2017-12-31 16:56:00 1514757360.794158: $GPGGA,215601,3946.9581,N,08404.9862,W,2,11,0.80,303.66,M,-33.324,M,,*72
2017-12-31 16:56:00 1514757360.794225: $GPRMC,215601,A,3946.9581,N,08404.9862,W,0.0000,0.000,311217,,*39
2017-12-31 16:56:00 1514757360.794287: $GPGSA,A,3,22,23,25,3,16,29,31,14,32,26,135,,1.7,0.8,1.3*32
2017-12-31 16:56:01 1514757361.336945: $GPZDA,215602.00,31,12,2017,00,00*61
2017-12-31 16:56:01 1514757361.337164: $GPGGA,215602,3946.9581,N,08404.9862,W,2,11,0.80,303.66,M,-33.324,M,,*71
2017-12-31 16:56:01 1514757361.337240: $GPRMC,215602,A,3946.9581,N,08404.9862,W,0.0000,0.000,311217,,*3A
2017-12-31 16:56:01 1514757361.337301: $GPGSA,A,3,22,23,25,3,16,29,31,14,32,26,135,,1.7,0.8,1.3*32
2017-12-31 16:56:02 1514757362.352770: $GPZDA,215603.00,31,12,2017,00,00*60
2017-12-31 16:56:02 1514757362.352942: $GPGGA,215603,3946.9581,N,08404.9862,W,2,11,0.80,303.66,M,-33.324,M,,*70
2017-12-31 16:56:02 1514757362.353010: $GPRMC,215603,A,3946.9581,N,08404.9862,W,0.0000,0.000,311217,,*3B
2017-12-31 16:56:02 1514757362.353070: $GPGSA,A,3,22,23,25,3,16,29,31,14,32,26,135,,1.7,0.8,1.3*32
2017-12-31 16:56:03 1514757363.679657: $GPGSV,3,1,11,22,47,246,42,23,24,306,37,25,05,037,18,03,46,277,41*71
2017-12-31 16:56:03 1514757363.679858: $GPGSV,3,2,11,16,41,190,46,29,14,060,24,31,53,046,51,14,44,109,42*77
2017-12-31 16:56:03 1514757363.679925: $GPGSV,3,3,11,32,22,120,43,26,70,154,45,135,22,240,43*78
2017-12-31 16:56:03 1514757363.793029: $GPZDA,215604.00,31,12,2017,00,00*67
2017-12-31 16:56:03 1514757363.793222: $GPGGA,215604,3946.9581,N,08404.9862,W,2,11,0.80,303.66,M,-33.324,M,,*77
2017-12-31 16:56:03 1514757363.793290: $GPRMC,215604,A,3946.9581,N,08404.9862,W,0.0000,0.000,311217,,*3C
2017-12-31 16:56:03 1514757363.793353: $GPGSA,A,3,22,23,25,3,16,29,31,14,32,26,135,,1.7,0.8,1.3*32
2017-12-31 16:56:04 1514757364.360150: $GPZDA,215605.00,31,12,2017,00,00*66
2017-12-31 16:56:04 1514757364.360330: $GPGGA,215605,3946.9581,N,08404.9862,W,2,11,0.80,303.66,M,-33.324,M,,*76
2017-12-31 16:56:04 1514757364.360398: $GPRMC,215605,A,3946.9581,N,08404.9862,W,0.0000,0.000,311217,,*3D
2017-12-31 16:56:04 1514757364.360460: $GPGSA,A,3,22,23,25,3,16,29,31,14,32,26,135,,1.7,0.8,1.3*32
2017-12-31 16:56:05 1514757365.344553: $GPZDA,215606.00,31,12,2017,00,00*65
2017-12-31 16:56:05 1514757365.344730: $GPGGA,215606,3946.9581,N,08404.9862,W,2,11,0.80,303.66,M,-33.324,M,,*75
2017-12-31 16:56:05 1514757365.344856: $GPRMC,215606,A,3946.9581,N,08404.9862,W,0.0000,0.000,311217,,*3E
2017-12-31 16:56:05 1514757365.344920: $GPGSA,A,3,22,23,25,3,16,29,31,14,32,26,135,,1.7,0.8,1.3*32
2017-12-31 16:56:06 1514757366.671815: $GPGSV,3,1,11,22,47,246,42,23,24,306,37,25,05,037,20,03,46,277,41*7A
2017-12-31 16:56:06 1514757366.672004: $GPGSV,3,2,11,16,41,190,46,29,14,060,25,31,53,046,51,14,44,109,41*75
2017-12-31 16:56:06 1514757366.672074: $GPGSV,3,3,11,32,22,120,43,26,70,154,45,135,22,240,43*78
2017-12-31 16:56:06 1514757366.784734: $GPZDA,215607.00,31,12,2017,00,00*64
2017-12-31 16:56:06 1514757366.784906: $GPGGA,215607,3946.9581,N,08404.9862,W,2,11,0.80,303.66,M,-33.324,M,,*74
2017-12-31 16:56:06 1514757366.784974: $GPRMC,215607,A,3946.9581,N,08404.9862,W,0.0000,0.000,311217,,*3F
2017-12-31 16:56:06 1514757366.785037: $GPGSA,A,3,22,23,25,3,16,29,31,14,32,26,135,,1.7,0.8,1.3*32
2017-12-31 16:56:07 1514757367.336733: $GPZDA,215608.00,31,12,2017,00,00*6B
2017-12-31 16:56:07 1514757367.336958: $GPGGA,215608,3946.9581,N,08404.9862,W,2,11,0.80,303.66,M,-33.324,M,,*7B
2017-12-31 16:56:07 1514757367.337051: $GPRMC,215608,A,3946.9581,N,08404.9862,W,0.0000,0.000,311217,,*30
2017-12-31 16:56:07 1514757367.337187: $GPGSA,A,3,22,23,25,3,16,29,31,14,32,26,135,,1.7,0.8,1.3*32
2017-12-31 16:56:08 1514757368.359032: $GPZDA,215609.00,31,12,2017,00,00*6A
2017-12-31 16:56:08 1514757368.359200: $GPGGA,215609,3946.9581,N,08404.9862,W,2,11,0.80,303.66,M,-33.324,M,,*7A
2017-12-31 16:56:08 1514757368.359267: $GPRMC,215609,A,3946.9581,N,08404.9862,W,0.0000,0.000,311217,,*31
2017-12-31 16:56:08 1514757368.359327: $GPGSA,A,3,22,23,25,3,16,29,31,14,32,26,135,,1.7,0.8,1.3*32
2017-12-31 16:56:09 1514757369.679611: $GPGSV,3,1,11,22,47,246,41,23,24,306,36,25,05,037,18,03,46,277,40*72
2017-12-31 16:56:09 1514757369.679797: $GPGSV,3,2,11,16,41,190,46,29,14,060,25,31,53,046,51,14,44,109,41*75
2017-12-31 16:56:09 1514757369.679863: $GPGSV,3,3,11,32,22,120,43,26,70,154,45,135,22,240,43*78
2017-12-31 16:56:09 1514757369.793309: $GPZDA,215610.00,31,12,2017,00,00*62
2017-12-31 16:56:09 1514757369.793434: $GPGGA,215610,3946.9581,N,08404.9862,W,2,11,0.80,303.66,M,-33.324,M,,*72
2017-12-31 16:56:09 1514757369.793497: $GPRMC,215610,A,3946.9581,N,08404.9862,W,0.0000,0.000,311217,,*39
2017-12-31 16:56:09 1514757369.793558: $GPGSA,A,3,22,23,25,3,16,29,31,14,32,26,135,,1.7,0.8,1.3*32
2017-12-31 16:56:10 1514757370.418472: $GPZDA,215611.00,31,12,2017,00,00*63
2017-12-31 16:56:10 1514757370.418671: $GPGGA,215611,3946.9581,N,08404.9862,W,2,11,0.80,303.66,M,-33.324,M,,*73
2017-12-31 16:56:10 1514757370.418740: $GPRMC,215611,A,3946.9581,N,08404.9862,W,0.0000,0.000,311217,,*38
2017-12-31 16:56:10 1514757370.418801: $GPGSA,A,3,22,23,25,3,16,29,31,14,32,26,135,,1.7,0.8,1.3*32
2017-12-31 16:56:11 1514757371.360758: $GPZDA,215612.00,31,12,2017,00,00*60
2017-12-31 16:56:11 1514757371.360930: $GPGGA,215612,3946.9581,N,08404.9862,W,2,11,0.80,303.66,M,-33.324,M,,*70
2017-12-31 16:56:11 1514757371.360997: $GPRMC,215612,A,3946.9581,N,08404.9862,W,0.0000,0.000,311217,,*3B
2017-12-31 16:56:11 1514757371.361059: $GPGSA,A,3,22,23,25,3,16,29,31,14,32,26,135,,1.7,0.8,1.3*32
2017-12-31 16:56:12 1514757372.687552: $GPGSV,3,1,11,22,47,246,42,23,24,306,37,25,05,037,18,03,46,277,39*7E
2017-12-31 16:56:12 1514757372.687722: $GPGSV,3,2,11,16,41,190,46,29,14,060,13,31,53,046,51,14,44,109,41*70
2017-12-31 16:56:12 1514757372.687787: $GPGSV,3,3,11,32,22,120,43,26,70,154,44,135,22,240,42*78
2017-12-31 16:56:12 1514757372.801190: $GPZDA,215613.00,31,12,2017,00,00*61
2017-12-31 16:56:12 1514757372.801356: $GPGGA,215613,3946.9581,N,08404.9862,W,2,11,0.80,303.66,M,-33.324,M,,*71
2017-12-31 16:56:12 1514757372.801422: $GPRMC,215613,A,3946.9581,N,08404.9862,W,0.0000,0.000,311217,,*3A
2017-12-31 16:56:12 1514757372.801483: $GPGSA,A,3,22,23,25,3,16,29,31,14,32,26,135,,1.7,0.8,1.3*32
2017-12-31 16:56:13 1514757373.345902: $GPZDA,215614.00,31,12,2017,00,00*66
2017-12-31 16:56:13 1514757373.346070: $GPGGA,215614,3946.9581,N,08404.9862,W,2,11,1.00,303.66,M,-33.324,M,,*7F
2017-12-31 16:56:13 1514757373.346184: $GPRMC,215614,A,3946.9581,N,08404.9862,W,0.0000,0.000,311217,,*3D
2017-12-31 16:56:13 1514757373.346246: $GPGSA,A,3,22,23,25,3,16,29,31,14,32,26,135,,1.7,1.0,1.3*3B
2017-12-31 16:56:14 1514757374.337669: $GPZDA,215615.00,31,12,2017,00,00*67
2017-12-31 16:56:14 1514757374.337859: $GPGGA,215615,3946.9581,N,08404.9862,W,2,11,1.00,303.66,M,-33.324,M,,*7E
2017-12-31 16:56:14 1514757374.337924: $GPRMC,215615,A,3946.9581,N,08404.9862,W,0.0000,0.000,311217,,*3C
2017-12-31 16:56:14 1514757374.337985: $GPGSA,A,3,22,23,25,3,16,29,31,14,32,26,135,,1.7,1.0,1.3*3B
2017-12-31 16:56:15 1514757375.680282: $GPGSV,3,1,11,22,47,246,42,23,24,306,37,25,05,037,16,03,46,277,40*7E
2017-12-31 16:56:15 1514757375.680463: $GPGSV,3,2,11,16,41,190,45,29,14,060,00,31,53,046,51,14,44,109,41*71
2017-12-31 16:56:15 1514757375.680528: $GPGSV,3,3,11,32,22,120,44,26,70,154,44,135,22,240,43*7E
2017-12-31 16:56:15 1514757375.793956: $GPZDA,215616.00,31,12,2017,00,00*64
2017-12-31 16:56:15 1514757375.794122: $GPGGA,215616,3946.9581,N,08404.9862,W,2,10,1.00,303.66,M,-33.324,M,,*7C
2017-12-31 16:56:15 1514757375.794187: $GPRMC,215616,A,3946.9581,N,08404.9862,W,0.0000,0.000,311217,,*3F
2017-12-31 16:56:15 1514757375.794247: $GPGSA,A,3,22,23,25,3,16,31,14,32,26,135,,,1.7,1.0,1.3*30
2017-12-31 16:56:16 1514757376.343677: $GPZDA,215617.00,31,12,2017,00,00*65
2017-12-31 16:56:16 1514757376.343866: $GPGGA,215617,3946.9581,N,08404.9862,W,2,10,1.00,303.66,M,-33.324,M,,*7D
2017-12-31 16:56:16 1514757376.343932: $GPRMC,215617,A,3946.9581,N,08404.9862,W,0.0000,0.000,311217,,*3E
2017-12-31 16:56:16 1514757376.343992: $GPGSA,A,3,22,23,25,3,16,31,14,32,26,135,,,1.7,1.0,1.3*30
2017-12-31 16:56:17 1514757377.344704: $GPZDA,215618.00,31,12,2017,00,00*6A
2017-12-31 16:56:17 1514757377.344875: $GPGGA,215618,3946.9581,N,08404.9862,W,2,10,1.00,303.66,M,-33.324,M,,*72
2017-12-31 16:56:17 1514757377.344941: $GPRMC,215618,A,3946.9581,N,08404.9862,W,0.0000,0.000,311217,,*31
2017-12-31 16:56:17 1514757377.345001: $GPGSA,A,3,22,23,25,3,16,31,14,32,26,135,,,1.7,1.0,1.3*30
