2017-12-01 13:51:22 1512154282.355655: {"class":"VERSION","release":"3.16","rev":"3.16-4","proto_major":3,"proto_minor":11}
2017-12-01 13:51:22 1512154282.356045: {"class":"DEVICES","devices":[{"class":"DEVICE","path":"/dev/ttyUSB0","driver":"SiRF","subtype":"9\u0006GSD4e_4.1.2-P1_RPATCH.05-F-GPS-4R-1510281 11/03/2015 307","activated":"2017-12-01T18:51:22.246Z","flags":1,"native":1,"bps":4800,"parity":"N","stopbits":1,"cycle":1.00}]}
2017-12-01 13:51:22 1512154282.356194: {"class":"WATCH","enable":true,"json":false,"nmea":true,"raw":0,"scaled":false,"timing":false,"split24":false,"pps":false}
2017-12-01 13:51:22 1512154282.360099: $GPZDA,185123.00,01,12,2017,00,00*6C
2017-12-01 13:51:22 1512154282.360217: $GPGGA,185123,3946.9570,N,08404.9859,W,2,11,0.80,296.76,M,-33.324,M,,*75
2017-12-01 13:51:22 1512154282.360282: $GPRMC,185123,A,3946.9570,N,08404.9859,W,0.0000,0.000,011217,,*31
2017-12-01 13:51:22 1512154282.360343: $GPGSA,A,3,10,14,15,18,20,21,24,27,32,8,138,,2.0,0.8,1.5*34
2017-12-01 13:51:23 1512154283.362325: $GPZDA,185124.00,01,12,2017,00,00*6B
2017-12-01 13:51:23 1512154283.362500: $GPGGA,185124,3946.9570,N,08404.9859,W,2,11,0.80,296.76,M,-33.324,M,,*72
2017-12-01 13:51:23 1512154283.362567: $GPRMC,185124,A,3946.9570,N,08404.9859,W,0.0000,0.000,011217,,*36
2017-12-01 13:51:23 1512154283.362628: $GPGSA,A,3,10,14,15,18,20,21,24,27,32,8,138,,2.0,0.8,1.5*34
2017-12-01 13:51:24 1512154284.691748: $GPGSV,3,1,11,10,56,315,48,14,18,243,36,15,22,060,46,18,77,043,43*77
2017-12-01 13:51:24 1512154284.691950: $GPGSV,3,2,11,20,20,109,43,21,44,181,45,24,52,078,48,27,14,271,39*71
2017-12-01 13:51:24 1512154284.692017: $GPGSV,3,3,11,32,35,252,42,08,08,306,22,138,38,213,46*7B
2017-12-01 13:51:24 1512154284.805151: $GPZDA,185125.00,01,12,2017,00,00*6A
2017-12-01 13:51:24 1512154284.805330: $GPGGA,185125,3946.9570,N,08404.9859,W,2,11,0.80,296.76,M,-33.324,M,,*73
2017-12-01 13:51:24 1512154284.805398: $GPRMC,185125,A,3946.9570,N,08404.9859,W,0.0000,0.000,011217,,*37
2017-12-01 13:51:24 1512154284.805459: $GPGSA,A,3,10,14,15,18,20,21,24,27,32,8,138,,2.0,0.8,1.5*34
2017-12-01 13:51:25 1512154285.430468: $GPZDA,185126.00,01,12,2017,00,00*69
2017-12-01 13:51:25 1512154285.430644: $GPGGA,185126,3946.9570,N,08404.9859,W,2,11,0.80,296.76,M,-33.324,M,,*70
2017-12-01 13:51:25 1512154285.430711: $GPRMC,185126,A,3946.9570,N,08404.9859,W,0.0000,0.000,011217,,*34
2017-12-01 13:51:25 1512154285.430772: $GPGSA,A,3,10,14,15,18,20,21,24,27,32,8,138,,2.0,0.8,1.5*34
2017-12-01 13:51:26 1512154286.361462: $GPZDA,185127.00,01,12,2017,00,00*68
2017-12-01 13:51:26 1512154286.361643: $GPGGA,185127,3946.9570,N,08404.9859,W,2,11,0.80,296.76,M,-33.324,M,,*71
2017-12-01 13:51:26 1512154286.361711: $GPRMC,185127,A,3946.9570,N,08404.9859,W,0.0000,0.000,011217,,*35
2017-12-01 13:51:26 1512154286.361771: $GPGSA,A,3,10,14,15,18,20,21,24,27,32,8,138,,2.0,0.8,1.5*34
2017-12-01 13:51:27 1512154287.698447: $GPGSV,3,1,11,10,56,315,48,14,18,243,36,15,22,060,46,18,77,043,43*77
2017-12-01 13:51:27 1512154287.698627: $GPGSV,3,2,11,20,20,109,43,21,44,181,45,24,52,078,48,27,14,271,39*71
2017-12-01 13:51:27 1512154287.698694: $GPGSV,3,3,11,32,35,252,42,08,08,306,24,138,38,213,46*7D
2017-12-01 13:51:27 1512154287.811856: $GPZDA,185128.00,01,12,2017,00,00*67
2017-12-01 13:51:27 1512154287.812027: $GPGGA,185128,3946.9570,N,08404.9859,W,2,11,0.80,296.76,M,-33.324,M,,*7E
2017-12-01 13:51:27 1512154287.812096: $GPRMC,185128,A,3946.9570,N,08404.9859,W,0.0000,0.000,011217,,*3A
2017-12-01 13:51:27 1512154287.812156: $GPGSA,A,3,10,14,15,18,20,21,24,27,32,8,138,,2.0,0.8,1.5*34
2017-12-01 13:51:28 1512154288.362724: $GPZDA,185129.00,01,12,2017,00,00*66
2017-12-01 13:51:28 1512154288.362900: $GPGGA,185129,3946.9569,N,08404.9852,W,2,11,0.80,296.84,M,-33.324,M,,*71
2017-12-01 13:51:28 1512154288.362967: $GPRMC,185129,A,3946.9569,N,08404.9852,W,0.0000,0.000,011217,,*38
2017-12-01 13:51:28 1512154288.363028: $GPGSA,A,3,10,14,15,18,20,21,24,27,32,8,138,,2.0,0.8,1.5*34
2017-12-01 13:51:29 1512154289.361167: $GPZDA,185130.00,01,12,2017,00,00*6E
2017-12-01 13:51:29 1512154289.361401: $GPGGA,185130,3946.9569,N,08404.9852,W,2,11,0.80,296.84,M,-33.324,M,,*79
2017-12-01 13:51:29 1512154289.361537: $GPRMC,185130,A,3946.9569,N,08404.9852,W,0.0000,0.000,011217,,*30
2017-12-01 13:51:29 1512154289.361601: $GPGSA,A,3,10,14,15,18,20,21,24,27,32,8,138,,2.0,0.8,1.5*34
2017-12-01 13:51:30 1512154290.696300: $GPGSV,3,1,11,10,56,315,49,14,18,243,36,15,22,060,46,18,77,043,43*76
2017-12-01 13:51:30 1512154290.696500: $GPGSV,3,2,11,20,20,109,43,21,44,181,45,24,52,078,48,27,14,271,39*71
2017-12-01 13:51:30 1512154290.696567: $GPGSV,3,3,11,32,35,252,42,08,08,306,27,138,38,213,47*7F
2017-12-01 13:51:30 1512154290.810004: $GPZDA,185131.00,01,12,2017,00,00*6F
2017-12-01 13:51:30 1512154290.810187: $GPGGA,185131,3946.9569,N,08404.9852,W,2,11,0.80,296.84,M,-33.324,M,,*78
2017-12-01 13:51:30 1512154290.810254: $GPRMC,185131,A,3946.9569,N,08404.9852,W,0.0000,0.000,011217,,*31
2017-12-01 13:51:30 1512154290.810315: $GPGSA,A,3,10,14,15,18,20,21,24,27,32,8,138,,2.0,0.8,1.5*34
2017-12-01 13:51:31 1512154291.363369: $GPZDA,185132.00,01,12,2017,00,00*6C
2017-12-01 13:51:31 1512154291.363553: $GPGGA,185132,3946.9569,N,08404.9852,W,2,11,0.80,296.84,M,-33.324,M,,*7B
2017-12-01 13:51:31 1512154291.363640: $GPRMC,185132,A,3946.9569,N,08404.9852,W,0.0000,0.000,011217,,*32
2017-12-01 13:51:31 1512154291.363706: $GPGSA,A,3,10,14,15,18,20,21,24,27,32,8,138,,2.0,0.8,1.5*34
2017-12-01 13:51:32 1512154292.356735: $GPZDA,185133.00,01,12,2017,00,00*6D
2017-12-01 13:51:32 1512154292.356915: $GPGGA,185133,3946.9574,N,08404.9852,W,2,11,0.80,297.48,M,-33.324,M,,*77
2017-12-01 13:51:32 1512154292.356986: $GPRMC,185133,A,3946.9574,N,08404.9852,W,0.0000,0.000,011217,,*3F
2017-12-01 13:51:32 1512154292.357050: $GPGSA,A,3,10,14,15,18,20,21,24,27,32,8,138,,2.0,0.8,1.5*34
