2017-12-31 18:54:12 1514764452.947800: {"class":"VERSION","release":"3.16","rev":"3.16-4","proto_major":3,"proto_minor":11}
2017-12-31 18:54:12 1514764452.948178: {"class":"DEVICES","devices":[{"class":"DEVICE","path":"/dev/ttyUSB0","driver":"SiRF","activated":"2017-12-31T23:54:12.937Z","flags":1,"native":1,"bps":4800,"parity":"N","stopbits":1,"cycle":1.00}]}
2017-12-31 18:54:12 1514764452.948277: {"class":"WATCH","enable":true,"json":false,"nmea":true,"raw":0,"scaled":false,"timing":false,"split24":false,"pps":false}
2017-12-31 18:54:13 1514764453.390871: $GPZDA,235414.00,31,12,2017,00,00*66
2017-12-31 18:54:13 1514764453.391059: $GPGGA,235414,3946.9574,N,08404.9811,W,2,11,0.80,311.44,M,-33.324,M,,*7B
2017-12-31 18:54:13 1514764453.391125: $GPRMC,235414,A,3946.9574,N,08404.9811,W,0.0000,0.000,311217,,*33
2017-12-31 18:54:13 1514764453.391185: $GPGSA,A,3,22,23,9,3,16,8,31,27,7,26,135,,1.7,0.8,1.3*09
2017-12-31 18:54:14 1514764454.390483: $GPZDA,235415.00,31,12,2017,00,00*67
2017-12-31 18:54:14 1514764454.390660: $GPGGA,235415,3946.9574,N,08404.9811,W,2,11,0.80,311.44,M,-33.324,M,,*7A
2017-12-31 18:54:14 1514764454.390729: $GPRMC,235415,A,3946.9574,N,08404.9811,W,0.0000,0.000,311217,,*32
2017-12-31 18:54:14 1514764454.390817: $GPGSA,A,3,22,23,9,3,16,8,31,27,7,26,135,,1.7,0.8,1.3*09
2017-12-31 18:54:15 1514764455.688210: $GPGSV,3,1,11,22,07,204,22,23,69,279,40,09,37,309,38,03,17,220,36*70
2017-12-31 18:54:15 1514764455.688371: $GPGSV,3,2,11,16,76,036,44,08,17,175,39,31,15,090,32,27,40,142,39*7E
2017-12-31 18:54:15 1514764455.688438: $GPGSV,3,3,11,07,11,285,44,26,43,048,46,135,22,240,43*7A
2017-12-31 18:54:15 1514764455.801664: $GPZDA,235416.00,31,12,2017,00,00*64
2017-12-31 18:54:15 1514764455.801841: $GPGGA,235416,3946.9574,N,08404.9811,W,2,11,0.80,311.44,M,-33.324,M,,*79
2017-12-31 18:54:15 1514764455.801925: $GPRMC,235416,A,3946.9574,N,08404.9811,W,0.0000,0.000,311217,,*31
2017-12-31 18:54:15 1514764455.801988: $GPGSA,A,3,22,23,9,3,16,8,31,27,7,26,135,,1.7,0.8,1.3*09
2017-12-31 18:54:16 1514764456.351467: $GPZDA,235417.00,31,12,2017,00,00*65
2017-12-31 18:54:16 1514764456.351632: $GPGGA,235417,3946.9574,N,08404.9811,W,2,11,0.80,311.44,M,-33.324,M,,*78
2017-12-31 18:54:16 1514764456.351698: $GPRMC,235417,A,3946.9574,N,08404.9811,W,0.0000,0.000,311217,,*30
2017-12-31 18:54:16 1514764456.351782: $GPGSA,A,3,22,23,9,3,16,8,31,27,7,26,135,,1.7,0.8,1.3*09
2017-12-31 18:54:17 1514764457.389858: $GPZDA,235418.00,31,12,2017,00,00*6A
2017-12-31 18:54:17 1514764457.390044: $GPGGA,235418,3946.9574,N,08404.9811,W,2,11,0.80,311.44,M,-33.324,M,,*77
2017-12-31 18:54:17 1514764457.390110: $GPRMC,235418,A,3946.9574,N,08404.9811,W,0.0000,0.000,311217,,*3F
2017-12-31 18:54:17 1514764457.390170: $GPGSA,A,3,22,23,9,3,16,8,31,27,7,26,135,,1.7,0.8,1.3*09
2017-12-31 18:54:18 1514764458.726557: $GPGSV,3,1,11,22,07,204,28,23,69,279,39,09,37,309,38,03,17,220,34*76
2017-12-31 18:54:18 1514764458.726710: $GPGSV,3,2,11,16,76,036,44,08,17,175,39,31,15,090,33,27,40,142,40*71
2017-12-31 18:54:18 1514764458.726795: $GPGSV,3,3,11,07,11,285,45,26,43,048,46,135,22,240,44*7C
2017-12-31 18:54:18 1514764458.840236: $GPZDA,235419.00,31,12,2017,00,00*6B
2017-12-31 18:54:18 1514764458.840356: $GPGGA,235419,3946.9574,N,08404.9811,W,2,11,0.80,311.44,M,-33.324,M,,*76
2017-12-31 18:54:18 1514764458.840420: $GPRMC,235419,A,3946.9574,N,08404.9811,W,0.0000,0.000,311217,,*3E
2017-12-31 18:54:18 1514764458.840480: $GPGSA,A,3,22,23,9,3,16,8,31,27,7,26,135,,1.7,0.8,1.3*09
2017-12-31 18:54:19 1514764459.440221: $GPZDA,235420.00,31,12,2017,00,00*61
2017-12-31 18:54:19 1514764459.440390: $GPGGA,235420,3946.9574,N,08404.9811,W,2,11,0.80,311.44,M,-33.324,M,,*7C
2017-12-31 18:54:19 1514764459.440456: $GPRMC,235420,A,3946.9574,N,08404.9811,W,0.0000,0.000,311217,,*34
2017-12-31 18:54:19 1514764459.440517: $GPGSA,A,3,22,23,9,3,16,8,31,27,7,26,135,,1.7,0.8,1.3*09
2017-12-31 18:54:19 1514764459.440574: $GPGBS,235420,2.22,M,3.43,M,7.66,M*3D
2017-12-31 18:54:20 1514764460.391920: $GPZDA,235421.00,31,12,2017,00,00*60
2017-12-31 18:54:20 1514764460.392076: $GPGGA,235421,3946.9574,N,08404.9811,W,2,11,0.80,311.44,M,-33.324,M,,*7D
2017-12-31 18:54:20 1514764460.392195: $GPRMC,235421,A,3946.9574,N,08404.9811,W,0.0000,0.000,311217,,*35
2017-12-31 18:54:20 1514764460.392257: $GPGSA,A,3,22,23,9,3,16,8,31,27,7,26,135,,1.7,0.8,1.3*09
2017-12-31 18:54:20 1514764460.392315: $GPGBS,235421,2.22,M,3.43,M,7.66,M*3C
2017-12-31 18:54:21 1514764461.688798: $GPGSV,3,1,11,22,06,202,29,23,69,274,39,09,38,309,37,03,16,219,28*7B
2017-12-31 18:54:21 1514764461.688990: $GPGSV,3,2,11,16,74,036,44,08,18,175,40,31,15,090,33,27,42,141,40*73
2017-12-31 18:54:21 1514764461.689056: $GPGSV,3,3,11,07,12,286,46,26,42,048,46,135,22,240,45*7F
2017-12-31 18:54:21 1514764461.802438: $GPZDA,235422.00,31,12,2017,00,00*63
2017-12-31 18:54:21 1514764461.802571: $GPGGA,235422,3946.9574,N,08404.9811,W,2,11,0.80,311.44,M,-33.324,M,,*7E
2017-12-31 18:54:21 1514764461.802637: $GPRMC,235422,A,3946.9574,N,08404.9811,W,0.0000,0.000,311217,,*36
2017-12-31 18:54:21 1514764461.802720: $GPGSA,A,3,22,23,9,3,16,8,31,27,7,26,135,,1.7,0.8,1.3*09
2017-12-31 18:54:22 1514764462.353322: $GPZDA,235423.00,31,12,2017,00,00*62
2017-12-31 18:54:22 1514764462.353482: $GPGGA,235423,3946.9574,N,08404.9811,W,2,11,0.80,311.44,M,-33.324,M,,*7F
2017-12-31 18:54:22 1514764462.353549: $GPRMC,235423,A,3946.9574,N,08404.9811,W,0.0000,0.000,311217,,*37
2017-12-31 18:54:22 1514764462.353609: $GPGSA,A,3,22,23,9,3,16,8,31,27,7,26,135,,1.7,0.8,1.3*09
