2017-11-16 14:25:05 1510860305.351083: {"class":"VERSION","release":"3.17","rev":"3.17","proto_major":3,"proto_minor":12}
2017-11-16 14:25:05 1510860305.351634: {"class":"DEVICES","devices":[{"class":"DEVICE","path":"/dev/ttyUSB0","driver":"SiRF","subtype":"9\u0006GSD4e_4.1.2-P1_RPATCH.05-F-GPS-4R-1510281 11/03/2015 307","activated":"2017-11-16T19:25:05.325Z","flags":1,"native":1,"bps":4800,"parity":"N","stopbits":1,"cycle":1.00}]}
2017-11-16 14:25:05 1510860305.351769: {"class":"WATCH","enable":true,"json":false,"nmea":true,"raw":0,"scaled":false,"timing":false,"split24":false,"pps":false}
2017-11-16 14:25:05 1510860305.502782: $GPZDA,192504.00,16,11,2017,00,00*6E
2017-11-16 14:25:05 1510860305.502953: $GPGGA,192504,3946.9569,N,08404.9849,W,2,11,0.80,303.30,M,-33.324,M,,*74
2017-11-16 14:25:05 1510860305.503016: $GPRMC,192504,A,3946.9569,N,08404.9849,W,0.0000,0.000,161117,,*3A
2017-11-16 14:25:05 1510860305.503072: $GPGSA,A,3,8,10,15,18,21,20,24,27,32,14,138,,1.6,0.8,1.3*37
2017-11-16 14:25:06 1510860306.843654: $GPGSV,3,1,12,08,07,318,31,10,46,306,48,13,03,051,03,15,33,054,50*73
2017-11-16 14:25:06 1510860306.843821: $GPGSV,3,2,12,18,74,349,47,21,58,187,45,20,29,100,45,24,52,102,48*7A
2017-11-16 14:25:06 1510860306.843880: $GPGSV,3,3,12,27,18,283,38,32,25,241,44,14,08,235,34,138,38,213,44*4A
2017-11-16 14:25:06 1510860306.956935: $GPZDA,192505.00,16,11,2017,00,00*6F
2017-11-16 14:25:06 1510860306.957101: $GPGGA,192505,3946.9569,N,08404.9849,W,2,11,0.80,303.30,M,-33.324,M,,*75
2017-11-16 14:25:06 1510860306.957162: $GPRMC,192505,A,3946.9569,N,08404.9849,W,0.0000,0.000,161117,,*3B
2017-11-16 14:25:06 1510860306.957219: $GPGSA,A,3,8,10,15,18,21,20,24,27,32,14,138,,1.6,0.8,1.3*37
2017-11-16 14:25:07 1510860307.496840: $GPZDA,192506.00,16,11,2017,00,00*6C
2017-11-16 14:25:07 1510860307.496991: $GPGGA,192506,3946.9569,N,08404.9849,W,2,11,0.80,303.30,M,-33.324,M,,*76
2017-11-16 14:25:07 1510860307.497051: $GPRMC,192506,A,3946.9569,N,08404.9849,W,0.0000,0.000,161117,,*38
2017-11-16 14:25:07 1510860307.497109: $GPGSA,A,3,8,10,15,18,21,20,24,27,32,14,138,,1.6,0.8,1.3*37
2017-11-16 14:25:08 1510860308.497715: $GPZDA,192507.00,16,11,2017,00,00*6D
2017-11-16 14:25:08 1510860308.497874: $GPGGA,192507,3946.9569,N,08404.9849,W,2,11,0.80,303.30,M,-33.324,M,,*77
2017-11-16 14:25:08 1510860308.497934: $GPRMC,192507,A,3946.9569,N,08404.9849,W,0.0000,0.000,161117,,*39
2017-11-16 14:25:08 1510860308.497991: $GPGSA,A,3,8,10,15,18,21,20,24,27,32,14,138,,1.6,0.8,1.3*37
2017-11-16 14:25:09 1510860309.839105: $GPGSV,3,1,12,08,07,318,25,10,46,306,48,13,03,051,16,15,33,054,50*72
2017-11-16 14:25:09 1510860309.839273: $GPGSV,3,2,12,18,74,349,47,21,58,187,45,20,29,100,45,24,52,102,48*7A
2017-11-16 14:25:09 1510860309.839333: $GPGSV,3,3,12,27,18,283,38,32,25,241,44,14,08,235,33,138,38,213,44*4D
2017-11-16 14:25:09 1510860309.952230: $GPZDA,192508.00,16,11,2017,00,00*62
2017-11-16 14:25:09 1510860309.952385: $GPGGA,192508,3946.9569,N,08404.9849,W,2,11,0.80,303.30,M,-33.324,M,,*78
2017-11-16 14:25:09 1510860309.952447: $GPRMC,192508,A,3946.9569,N,08404.9849,W,0.0000,0.000,161117,,*36
2017-11-16 14:25:09 1510860309.952504: $GPGSA,A,3,8,10,15,18,21,20,24,27,32,14,138,,1.6,0.8,1.3*37
2017-11-16 14:25:10 1510860310.534460: $GPZDA,192509.00,16,11,2017,00,00*63
2017-11-16 14:25:10 1510860310.534627: $GPGGA,192509,3946.9569,N,08404.9849,W,2,11,0.80,303.30,M,-33.324,M,,*79
2017-11-16 14:25:10 1510860310.534688: $GPRMC,192509,A,3946.9569,N,08404.9849,W,0.0000,0.000,161117,,*37
2017-11-16 14:25:10 1510860310.534746: $GPGSA,A,3,8,10,15,18,21,20,24,27,32,14,138,,1.6,0.8,1.3*37
2017-11-16 14:25:11 1510860311.535304: $GPZDA,192510.00,16,11,2017,00,00*6B
2017-11-16 14:25:11 1510860311.535497: $GPGGA,192510,3946.9569,N,08404.9849,W,2,11,0.80,303.30,M,-33.324,M,,*71
2017-11-16 14:25:11 1510860311.535560: $GPRMC,192510,A,3946.9569,N,08404.9849,W,0.0000,0.000,161117,,*3F
2017-11-16 14:25:11 1510860311.535618: $GPGSA,A,3,8,10,15,18,21,20,24,27,32,14,138,,1.6,0.8,1.3*37
2017-11-16 14:25:12 1510860312.871076: $GPGSV,3,1,12,08,07,318,16,10,46,306,48,13,03,051,20,15,33,054,50*77
2017-11-16 14:25:12 1510860312.871301: $GPGSV,3,2,12,18,74,349,47,21,58,187,45,20,29,100,45,24,52,102,48*7A
2017-11-16 14:25:12 1510860312.871363: $GPGSV,3,3,12,27,18,283,39,32,25,241,45,14,08,235,32,138,38,213,44*4C
2017-11-16 14:25:12 1510860312.984361: $GPZDA,192511.00,16,11,2017,00,00*6A
2017-11-16 14:25:12 1510860312.984523: $GPGGA,192511,3946.9569,N,08404.9849,W,2,12,0.80,303.30,M,-33.324,M,,*73
2017-11-16 14:25:12 1510860312.984584: $GPRMC,192511,A,3946.9569,N,08404.9849,W,0.0000,0.000,161117,,*3E
2017-11-16 14:25:12 1510860312.984641: $GPGSA,A,3,8,10,13,15,18,21,20,24,27,32,14,138,1.6,0.8,1.3*35
2017-11-16 14:25:13 1510860313.506583: $GPZDA,192512.00,16,11,2017,00,00*69
2017-11-16 14:25:13 1510860313.506751: $GPGGA,192512,3946.9569,N,08404.9849,W,2,12,1.00,303.30,M,-33.324,M,,*79
2017-11-16 14:25:13 1510860313.506812: $GPRMC,192512,A,3946.9569,N,08404.9849,W,0.0000,0.000,161117,,*3D
2017-11-16 14:25:13 1510860313.506869: $GPGSA,A,3,8,10,13,15,18,21,20,24,27,32,14,138,1.6,1.0,1.3*3C
2017-11-16 14:25:14 1510860314.535642: $GPZDA,192513.00,16,11,2017,00,00*68
2017-11-16 14:25:14 1510860314.535807: $GPGGA,192513,3946.9569,N,08404.9849,W,2,12,0.80,303.30,M,-33.324,M,,*71
2017-11-16 14:25:14 1510860314.535869: $GPRMC,192513,A,3946.9569,N,08404.9849,W,0.0000,0.000,161117,,*3C
2017-11-16 14:25:14 1510860314.535925: $GPGSA,A,3,8,10,13,15,18,21,20,24,27,32,14,138,1.6,0.8,1.3*35
2017-11-16 14:25:15 1510860315.838968: $GPGSV,3,1,12,08,07,318,27,10,46,306,47,13,03,051,21,15,33,054,50*7B
2017-11-16 14:25:15 1510860315.839113: $GPGSV,3,2,12,18,74,349,47,21,58,187,45,20,29,100,45,24,52,102,48*7A
2017-11-16 14:25:15 1510860315.839173: $GPGSV,3,3,12,27,18,283,40,32,25,241,45,14,08,235,28,138,38,213,42*4F
2017-11-16 14:25:15 1510860315.952271: $GPZDA,192514.00,16,11,2017,00,00*6F
2017-11-16 14:25:15 1510860315.952428: $GPGGA,192514,3946.9569,N,08404.9849,W,2,12,0.80,303.30,M,-33.324,M,,*76
2017-11-16 14:25:15 1510860315.952489: $GPRMC,192514,A,3946.9569,N,08404.9849,W,0.0000,0.000,161117,,*3B
2017-11-16 14:25:15 1510860315.952546: $GPGSA,A,3,8,10,13,15,18,21,20,24,27,32,14,138,1.6,0.8,1.3*35
2017-11-16 14:25:16 1510860316.503185: $GPZDA,192515.00,16,11,2017,00,00*6E
2017-11-16 14:25:16 1510860316.503345: $GPGGA,192515,3946.9569,N,08404.9849,W,2,12,0.80,303.30,M,-33.324,M,,*77
2017-11-16 14:25:16 1510860316.503409: $GPRMC,192515,A,3946.9569,N,08404.9849,W,0.0000,0.000,161117,,*3A
2017-11-16 14:25:16 1510860316.503465: $GPGSA,A,3,8,10,13,15,18,21,20,24,27,32,14,138,1.6,0.8,1.3*35
2017-11-16 14:25:17 1510860317.502774: $GPZDA,192516.00,16,11,2017,00,00*6D
2017-11-16 14:25:17 1510860317.502935: $GPGGA,192516,3946.9569,N,08404.9849,W,2,12,0.80,303.30,M,-33.324,M,,*74
2017-11-16 14:25:17 1510860317.502995: $GPRMC,192516,A,3946.9569,N,08404.9849,W,0.0000,0.000,161117,,*39
2017-11-16 14:25:17 1510860317.503052: $GPGSA,A,3,8,10,13,15,18,21,20,24,27,32,14,138,1.6,0.8,1.3*35
2017-11-16 14:25:18 1510860318.834865: $GPGSV,3,1,12,08,07,318,28,10,46,306,47,13,03,051,00,15,33,054,50*77
2017-11-16 14:25:18 1510860318.835040: $GPGSV,3,2,12,18,74,349,47,21,58,187,45,20,29,100,45,24,52,102,47*75
2017-11-16 14:25:18 1510860318.835100: $GPGSV,3,3,12,27,18,283,41,32,25,241,45,14,08,235,30,138,38,213,42*47
2017-11-16 14:25:18 1510860318.948156: $GPZDA,192517.00,16,11,2017,00,00*6C
2017-11-16 14:25:18 1510860318.948309: $GPGGA,192517,3946.9569,N,08404.9849,W,2,11,0.80,303.30,M,-33.324,M,,*76
2017-11-16 14:25:18 1510860318.948368: $GPRMC,192517,A,3946.9569,N,08404.9849,W,0.0000,0.000,161117,,*38
2017-11-16 14:25:18 1510860318.948427: $GPGSA,A,3,8,10,15,18,21,20,24,27,32,14,138,,1.6,0.8,1.3*37
2017-11-16 14:25:19 1510860319.573570: $GPZDA,192518.00,16,11,2017,00,00*63
2017-11-16 14:25:19 1510860319.573735: $GPGGA,192518,3946.9569,N,08404.9849,W,2,11,0.80,303.30,M,-33.324,M,,*79
2017-11-16 14:25:19 1510860319.573797: $GPRMC,192518,A,3946.9569,N,08404.9849,W,0.0000,0.000,161117,,*37
2017-11-16 14:25:19 1510860319.573853: $GPGSA,A,3,8,10,15,18,21,20,24,27,32,14,138,,1.6,0.8,1.3*37
2017-11-16 14:25:20 1510860320.535763: $GPZDA,192519.00,16,11,2017,00,00*62
2017-11-16 14:25:20 1510860320.535920: $GPGGA,192519,3946.9569,N,08404.9849,W,2,11,0.80,303.30,M,-33.324,M,,*78
2017-11-16 14:25:20 1510860320.535980: $GPRMC,192519,A,3946.9569,N,08404.9849,W,0.0000,0.000,161117,,*36
2017-11-16 14:25:20 1510860320.536038: $GPGSA,A,3,8,10,15,18,21,20,24,27,32,14,138,,1.6,0.8,1.3*37
2017-11-16 14:25:21 1510860321.871538: $GPGSV,3,1,12,08,07,318,27,10,46,306,47,13,03,051,19,15,33,054,50*70
2017-11-16 14:25:21 1510860321.871731: $GPGSV,3,2,12,18,74,349,47,21,58,187,45,20,29,100,45,24,52,102,47*75
2017-11-16 14:25:21 1510860321.871816: $GPGSV,3,3,12,27,18,283,42,32,25,241,45,14,08,235,31,138,38,213,44*43
2017-11-16 14:25:21 1510860321.984875: $GPZDA,192520.00,16,11,2017,00,00*68
2017-11-16 14:25:21 1510860321.985036: $GPGGA,192520,3946.9569,N,08404.9849,W,2,12,0.80,303.30,M,-33.324,M,,*71
2017-11-16 14:25:21 1510860321.985096: $GPRMC,192520,A,3946.9569,N,08404.9849,W,0.0000,0.000,161117,,*3C
2017-11-16 14:25:21 1510860321.985151: $GPGSA,A,3,8,10,13,15,18,21,20,24,27,32,14,138,1.6,0.8,1.3*35
2017-11-16 14:25:22 1510860322.535826: $GPZDA,192521.00,16,11,2017,00,00*69
2017-11-16 14:25:22 1510860322.535991: $GPGGA,192521,3946.9569,N,08404.9849,W,2,12,0.80,303.30,M,-33.324,M,,*70
2017-11-16 14:25:22 1510860322.536053: $GPRMC,192521,A,3946.9569,N,08404.9849,W,0.0000,0.000,161117,,*3D
2017-11-16 14:25:22 1510860322.536109: $GPGSA,A,3,8,10,13,15,18,21,20,24,27,32,14,138,1.6,0.8,1.3*35
2017-11-16 14:25:23 1510860323.535417: $GPZDA,192522.00,16,11,2017,00,00*6A
2017-11-16 14:25:23 1510860323.535628: $GPGGA,192522,3946.9569,N,08404.9849,W,2,12,0.80,303.30,M,-33.324,M,,*73
2017-11-16 14:25:23 1510860323.535694: $GPRMC,192522,A,3946.9569,N,08404.9849,W,0.0000,0.000,161117,,*3E
2017-11-16 14:25:23 1510860323.535753: $GPGSA,A,3,8,10,13,15,18,21,20,24,27,32,14,138,1.6,0.8,1.3*35
2017-11-16 14:25:24 1510860324.871944: $GPGSV,3,1,12,08,07,318,22,10,46,306,47,13,03,051,19,15,33,054,50*75
2017-11-16 14:25:24 1510860324.872129: $GPGSV,3,2,12,18,74,349,47,21,58,187,46,20,29,100,46,24,52,102,47*75
2017-11-16 14:25:24 1510860324.872192: $GPGSV,3,3,12,27,18,283,42,32,25,241,45,14,08,235,33,138,38,213,45*40
2017-11-16 14:25:24 1510860324.985210: $GPZDA,192523.00,16,11,2017,00,00*6B
2017-11-16 14:25:24 1510860324.985380: $GPGGA,192523,3946.9569,N,08404.9849,W,2,12,0.80,303.30,M,-33.324,M,,*72
2017-11-16 14:25:24 1510860324.985442: $GPRMC,192523,A,3946.9569,N,08404.9849,W,0.0000,0.000,161117,,*3F
2017-11-16 14:25:24 1510860324.985500: $GPGSA,A,3,8,10,13,15,18,21,20,24,27,32,14,138,1.6,0.8,1.3*35
2017-11-16 14:25:25 1510860325.505043: $GPZDA,192524.00,16,11,2017,00,00*6C
2017-11-16 14:25:25 1510860325.505222: $GPGGA,192524,3946.9569,N,08404.9849,W,2,12,0.80,303.30,M,-33.324,M,,*75
2017-11-16 14:25:25 1510860325.505285: $GPRMC,192524,A,3946.9569,N,08404.9849,W,0.0000,0.000,161117,,*38
2017-11-16 14:25:25 1510860325.505344: $GPGSA,A,3,8,10,13,15,18,21,20,24,27,32,14,138,1.6,0.8,1.3*35
2017-11-16 14:25:26 1510860326.503427: $GPZDA,192525.00,16,11,2017,00,00*6D
2017-11-16 14:25:26 1510860326.503607: $GPGGA,192525,3946.9569,N,08404.9849,W,2,12,0.80,303.30,M,-33.324,M,,*74
2017-11-16 14:25:26 1510860326.503669: $GPRMC,192525,A,3946.9569,N,08404.9849,W,0.0000,0.000,161117,,*39
2017-11-16 14:25:26 1510860326.503726: $GPGSA,A,3,8,10,13,15,18,21,20,24,27,32,14,138,1.6,0.8,1.3*35
2017-11-16 14:25:27 1510860327.839096: $GPGSV,3,1,12,08,07,318,25,10,46,306,47,13,03,051,19,15,33,054,51*73
2017-11-16 14:25:27 1510860327.839243: $GPGSV,3,2,12,18,74,349,47,21,58,187,46,20,29,100,45,24,52,102,47*76
2017-11-16 14:25:27 1510860327.839303: $GPGSV,3,3,12,27,18,283,42,32,25,241,45,14,08,235,34,138,38,213,44*46
2017-11-16 14:25:27 1510860327.952460: $GPZDA,192526.00,16,11,2017,00,00*6E
2017-11-16 14:25:27 1510860327.952613: $GPGGA,192526,3946.9569,N,08404.9849,W,2,12,0.80,303.30,M,-33.324,M,,*77
2017-11-16 14:25:27 1510860327.952672: $GPRMC,192526,A,3946.9569,N,08404.9849,W,0.0000,0.000,161117,,*3A
2017-11-16 14:25:27 1510860327.952727: $GPGSA,A,3,8,10,13,15,18,21,20,24,27,32,14,138,1.6,0.8,1.3*35
2017-11-16 14:25:28 1510860328.503265: $GPZDA,192527.00,16,11,2017,00,00*6F
2017-11-16 14:25:28 1510860328.503427: $GPGGA,192527,3946.9569,N,08404.9849,W,2,12,0.80,303.30,M,-33.324,M,,*76
2017-11-16 14:25:28 1510860328.503488: $GPRMC,192527,A,3946.9569,N,08404.9849,W,0.0000,0.000,161117,,*3B
2017-11-16 14:25:28 1510860328.503544: $GPGSA,A,3,8,10,13,15,18,21,20,24,27,32,14,138,1.6,0.8,1.3*35
2017-11-16 14:25:29 1510860329.503910: $GPZDA,192528.00,16,11,2017,00,00*60
2017-11-16 14:25:29 1510860329.504078: $GPGGA,192528,3946.9569,N,08404.9849,W,2,12,0.80,303.30,M,-33.324,M,,*79
2017-11-16 14:25:29 1510860329.504140: $GPRMC,192528,A,3946.9569,N,08404.9849,W,0.0000,0.000,161117,,*34
2017-11-16 14:25:29 1510860329.504196: $GPGSA,A,3,8,10,13,15,18,21,20,24,27,32,14,138,1.6,0.8,1.3*35
2017-11-16 14:25:30 1510860330.840771: $GPGSV,3,1,12,08,07,318,33,10,46,306,47,13,03,051,19,15,33,054,51*74
2017-11-16 14:25:30 1510860330.840941: $GPGSV,3,2,12,18,74,349,47,21,58,187,46,20,29,100,46,24,52,102,47*75
2017-11-16 14:25:30 1510860330.841001: $GPGSV,3,3,12,27,18,283,42,32,25,241,46,14,08,235,35,138,38,213,45*45
2017-11-16 14:25:30 1510860330.952750: $GPZDA,192529.00,16,11,2017,00,00*61
2017-11-16 14:25:30 1510860330.952880: $GPGGA,192529,3946.9569,N,08404.9849,W,2,12,0.80,303.30,M,-33.324,M,,*78
2017-11-16 14:25:30 1510860330.952938: $GPRMC,192529,A,3946.9569,N,08404.9849,W,0.0000,0.000,161117,,*35
2017-11-16 14:25:30 1510860330.952994: $GPGSA,A,3,8,10,13,15,18,21,20,24,27,32,14,138,1.6,0.8,1.3*35
2017-11-16 14:25:31 1510860331.502408: $GPZDA,192530.00,16,11,2017,00,00*69
2017-11-16 14:25:31 1510860331.502571: $GPGGA,192530,3946.9569,N,08404.9849,W,2,12,0.80,303.30,M,-33.324,M,,*70
2017-11-16 14:25:31 1510860331.502632: $GPRMC,192530,A,3946.9569,N,08404.9849,W,0.0000,0.000,161117,,*3D
2017-11-16 14:25:31 1510860331.502688: $GPGSA,A,3,8,10,13,15,18,21,20,24,27,32,14,138,1.6,0.8,1.3*35
2017-11-16 14:25:32 1510860332.497327: $GPZDA,192531.00,16,11,2017,00,00*68
2017-11-16 14:25:32 1510860332.497497: $GPGGA,192531,3946.9569,N,08404.9849,W,2,12,0.80,303.30,M,-33.324,M,,*71
2017-11-16 14:25:32 1510860332.497580: $GPRMC,192531,A,3946.9569,N,08404.9849,W,0.0000,0.000,161117,,*3C
2017-11-16 14:25:32 1510860332.497638: $GPGSA,A,3,8,10,13,15,18,21,20,24,27,32,14,138,1.6,0.8,1.3*35
2017-11-16 14:25:33 1510860333.839156: $GPGSV,3,1,12,08,07,318,34,10,46,306,47,13,03,051,18,15,33,054,51*72
2017-11-16 14:25:33 1510860333.839324: $GPGSV,3,2,12,18,74,349,47,21,58,187,46,20,29,100,46,24,52,102,46*74
2017-11-16 14:25:33 1510860333.839385: $GPGSV,3,3,12,27,18,283,42,32,25,241,46,14,08,235,34,138,38,213,45*44
2017-11-16 14:25:33 1510860333.954181: $GPZDA,192532.00,16,11,2017,00,00*6B
2017-11-16 14:25:33 1510860333.954356: $GPGGA,192532,3946.9569,N,08404.9849,W,2,12,0.80,303.30,M,-33.324,M,,*72
2017-11-16 14:25:33 1510860333.954418: $GPRMC,192532,A,3946.9569,N,08404.9849,W,0.0000,0.000,161117,,*3F
2017-11-16 14:25:33 1510860333.954473: $GPGSA,A,3,8,10,13,15,18,21,20,24,27,32,14,138,1.6,0.8,1.3*35
2017-11-16 14:25:34 1510860334.577818: $GPZDA,192533.00,16,11,2017,00,00*6A
2017-11-16 14:25:34 1510860334.577984: $GPGGA,192533,3946.9569,N,08404.9849,W,2,12,0.80,303.30,M,-33.324,M,,*73
2017-11-16 14:25:34 1510860334.578044: $GPRMC,192533,A,3946.9569,N,08404.9849,W,0.0000,0.000,161117,,*3E
2017-11-16 14:25:34 1510860334.578101: $GPGSA,A,3,8,10,13,15,18,21,20,24,27,32,14,138,1.6,0.8,1.3*35
