2017-11-15 19:29:46 1510792186.456800: {"class":"VERSION","release":"3.17","rev":"3.17","proto_major":3,"proto_minor":12}
2017-11-15 19:29:46 1510792186.457677: {"class":"DEVICES","devices":[{"class":"DEVICE","path":"/dev/ttyUSB0","driver":"SiRF","subtype":"9\u0006GSD4e_4.1.2-P1_RPATCH.05-F-GPS-4R-1510281 11/03/2015 307","activated":"2017-11-16T00:29:46.419Z","flags":1,"native":1,"bps":4800,"parity":"N","stopbits":1,"cycle":1.00}]}
2017-11-15 19:29:46 1510792186.457875: {"class":"WATCH","enable":true,"json":false,"nmea":true,"raw":0,"scaled":false,"timing":false,"split24":false,"pps":false}
2017-11-15 19:29:47 1510792187.347223: $GPZDA,002946.00,16,11,2017,00,00*6C
2017-11-15 19:29:47 1510792187.347409: $GPGGA,002946,3946.9420,N,08404.9494,W,1,07,1.40,275.43,M,-33.324,M,,*7B
2017-11-15 19:29:47 1510792187.347470: $GPRMC,002946,A,3946.9420,N,08404.9494,W,2.9246,183.929,161117,,*3B
2017-11-15 19:29:47 1510792187.347526: $GPGSA,A,3,32,16,26,29,3,23,22,,,,,,3.4,1.4,2.9*00
2017-11-15 19:29:48 1510792188.665462: $GPGSV,3,1,11,32,36,108,22,31,67,025,20,16,23,190,16,26,53,172,24*79
2017-11-15 19:29:48 1510792188.665632: $GPGSV,3,2,11,29,11,070,10,14,55,093,04,03,40,298,17,25,17,040,00*79
2017-11-15 19:29:48 1510792188.665690: $GPGSV,3,3,11,23,11,301,16,01,05,252,00,22,50,270,20*4E
2017-11-15 19:29:48 1510792188.778800: $GPZDA,002947.00,16,11,2017,00,00*6D
2017-11-15 19:29:48 1510792188.778953: $GPGGA,002947,3946.9412,N,08404.9495,W,1,08,1.40,275.55,M,-33.324,M,,*72
2017-11-15 19:29:48 1510792188.779013: $GPRMC,002947,A,3946.9412,N,08404.9495,W,2.5941,189.251,161117,,*34
2017-11-15 19:29:48 1510792188.779069: $GPGSA,A,3,32,31,16,26,29,3,23,22,,,,,3.4,1.4,2.9*02
2017-11-15 19:29:49 1510792189.329743: $GPZDA,002948.00,16,11,2017,00,00*62
2017-11-15 19:29:49 1510792189.329911: $GPGGA,002948,3946.9412,N,08404.9495,W,1,08,1.40,275.55,M,-33.324,M,,*7D
2017-11-15 19:29:49 1510792189.329972: $GPRMC,002948,A,3946.9412,N,08404.9495,W,2.2533,190.018,161117,,*32
2017-11-15 19:29:49 1510792189.330028: $GPGSA,A,3,32,31,16,26,29,3,23,22,,,,,3.4,1.4,2.9*02
2017-11-15 19:29:50 1510792190.346976: $GPZDA,002949.00,16,11,2017,00,00*63
2017-11-15 19:29:50 1510792190.347302: $GPGGA,002949,3946.9405,N,08404.9496,W,1,08,1.40,275.68,M,-33.324,M,,*77
2017-11-15 19:29:50 1510792190.347422: $GPRMC,002949,A,3946.9405,N,08404.9496,W,2.0841,183.446,161117,,*31
2017-11-15 19:29:50 1510792190.347513: $GPGSA,A,3,32,31,16,26,29,3,23,22,,,,,3.4,1.4,2.9*02
2017-11-15 19:29:51 1510792191.682076: $GPGSV,3,1,11,32,36,108,21,31,67,025,19,16,23,190,18,26,53,172,23*79
2017-11-15 19:29:51 1510792191.682278: $GPGSV,3,2,11,29,11,070,10,14,55,093,04,03,40,298,17,25,17,040,00*79
2017-11-15 19:29:51 1510792191.682339: $GPGSV,3,3,11,23,11,301,16,01,05,252,00,22,50,270,20*4E
2017-11-15 19:29:51 1510792191.795405: $GPZDA,002950.00,16,11,2017,00,00*6B
2017-11-15 19:29:51 1510792191.795559: $GPGGA,002950,3946.9405,N,08404.9496,W,1,08,1.40,275.68,M,-33.324,M,,*7F
2017-11-15 19:29:51 1510792191.795618: $GPRMC,002950,A,3946.9405,N,08404.9496,W,1.4555,203.636,161117,,*38
2017-11-15 19:29:51 1510792191.795673: $GPGSA,A,3,32,31,16,26,29,3,23,22,,,,,3.4,1.4,2.9*02
2017-11-15 19:29:52 1510792192.330539: $GPZDA,002951.00,16,11,2017,00,00*6A
2017-11-15 19:29:52 1510792192.330697: $GPGGA,002951,3946.9405,N,08404.9496,W,1,08,1.40,275.68,M,-33.324,M,,*7E
2017-11-15 19:29:52 1510792192.330756: $GPRMC,002951,A,3946.9405,N,08404.9496,W,2.0320,204.738,161117,,*32
2017-11-15 19:29:52 1510792192.330811: $GPGSA,A,3,32,31,16,26,29,3,23,22,,,,,3.4,1.4,2.9*02
2017-11-15 19:29:53 1510792193.346346: $GPZDA,002952.00,16,11,2017,00,00*69
2017-11-15 19:29:54 1510792194.117505: $GPGGA,002952,3946.9405,N,08404.9503,W,1,08,1.40,275.60,M,-33.324,M,,*78
2017-11-15 19:29:54 1510792194.117643: $GPRMC,002952,A,3946.9405,N,08404.9503,W,1.6828,219.347,161117,,*3A
2017-11-15 19:29:54 1510792194.117701: $GPGSA,A,3,32,31,16,26,29,3,23,22,,,,,3.4,1.4,2.9*02
2017-11-15 19:29:54 1510792194.681689: $GPGSV,3,1,11,32,36,108,21,31,67,025,21,16,23,190,18,26,53,172,23*72
2017-11-15 19:29:54 1510792194.681845: $GPGSV,3,2,11,29,11,070,10,14,55,093,04,03,40,298,17,25,17,040,00*79
2017-11-15 19:29:54 1510792194.681970: $GPGSV,3,3,11,23,11,301,16,01,05,252,00,22,50,270,20*4E
2017-11-15 19:29:54 1510792194.795035: $GPZDA,002953.00,16,11,2017,00,00*68
2017-11-15 19:29:54 1510792194.795236: $GPGGA,002953,3946.9405,N,08404.9503,W,1,08,1.40,275.60,M,-33.324,M,,*79
2017-11-15 19:29:54 1510792194.795299: $GPRMC,002953,A,3946.9405,N,08404.9503,W,1.2621,219.347,161117,,*38
2017-11-15 19:29:54 1510792194.795355: $GPGSA,A,3,32,31,16,26,29,3,23,22,,,,,3.4,1.4,2.9*02
2017-11-15 19:29:55 1510792195.347269: $GPZDA,002954.00,16,11,2017,00,00*6F
2017-11-15 19:29:55 1510792195.347430: $GPGGA,002954,3946.9405,N,08404.9503,W,1,08,1.40,275.60,M,-33.324,M,,*7E
2017-11-15 19:29:55 1510792195.347490: $GPRMC,002954,A,3946.9405,N,08404.9503,W,1.2361,194.852,161117,,*37
2017-11-15 19:29:55 1510792195.347546: $GPGSA,A,3,32,31,16,26,29,3,23,22,,,,,3.4,1.4,2.9*02
2017-11-15 19:29:56 1510792196.330021: $GPZDA,002955.00,16,11,2017,00,00*6E
2017-11-15 19:29:56 1510792196.330199: $GPGGA,002955,3946.9405,N,08404.9503,W,1,08,1.40,275.60,M,-33.324,M,,*7F
2017-11-15 19:29:56 1510792196.330277: $GPRMC,002955,A,3946.9405,N,08404.9503,W,1.5555,183.694,161117,,*32
2017-11-15 19:29:56 1510792196.330333: $GPGSA,A,3,32,31,16,26,29,3,23,22,,,,,3.4,1.4,2.9*02
