2017-12-01 16:16:20 1512162980.366838: {"class":"VERSION","release":"3.16","rev":"3.16-4","proto_major":3,"proto_minor":11}
2017-12-01 16:16:20 1512162980.367267: {"class":"DEVICES","devices":[{"class":"DEVICE","path":"/dev/ttyUSB0","driver":"SiRF","subtype":"9\u0006GSD4e_4.1.2-P1_RPATCH.05-F-GPS-4R-1510281 11/03/2015 307","activated":"2017-12-01T21:16:20.353Z","flags":1,"native":1,"bps":4800,"parity":"N","stopbits":1,"cycle":1.00}]}
2017-12-01 16:16:20 1512162980.367392: {"class":"WATCH","enable":true,"json":false,"nmea":true,"raw":0,"scaled":false,"timing":false,"split24":false,"pps":false}
2017-12-01 16:16:21 1512162981.711109: $GPGSV,3,1,12,10,55,144,47,12,24,057,45,14,63,313,45,18,24,141,45*77
2017-12-01 16:16:21 1512162981.711291: $GPGSV,3,2,12,25,37,099,46,31,49,220,49,32,70,009,47,01,20,307,23*72
2017-12-01 16:16:21 1512162981.711402: $GPGSV,3,3,12,11,10,288,33,22,13,312,37,24,03,048,04,138,38,213,46*41
2017-12-01 16:16:21 1512162981.824759: $GPZDA,211622.00,01,12,2017,00,00*64
2017-12-01 16:16:21 1512162981.824912: $GPGGA,211622,3946.9588,N,08404.9843,W,2,11,0.80,295.91,M,-33.324,M,,*7B
2017-12-01 16:16:21 1512162981.824982: $GPRMC,211622,A,3946.9588,N,08404.9843,W,0.0000,0.000,011217,,*35
2017-12-01 16:16:21 1512162981.825043: $GPGSA,A,3,10,12,14,18,25,31,32,1,11,22,138,,2.0,0.8,1.5*3D
2017-12-01 16:16:22 1512162982.449885: $GPZDA,211623.00,01,12,2017,00,00*65
2017-12-01 16:16:22 1512162982.450052: $GPGGA,211623,3946.9588,N,08404.9843,W,2,11,0.80,295.91,M,-33.324,M,,*7A
2017-12-01 16:16:22 1512162982.450142: $GPRMC,211623,A,3946.9588,N,08404.9843,W,0.0000,0.000,011217,,*34
2017-12-01 16:16:22 1512162982.450207: $GPGSA,A,3,10,12,14,18,25,31,32,1,11,22,138,,2.0,0.8,1.5*3D
2017-12-01 16:16:23 1512162983.375630: $GPZDA,211624.00,01,12,2017,00,00*62
2017-12-01 16:16:23 1512162983.375802: $GPGGA,211624,3946.9588,N,08404.9843,W,2,11,0.80,295.91,M,-33.324,M,,*7D
2017-12-01 16:16:23 1512162983.375870: $GPRMC,211624,A,3946.9588,N,08404.9843,W,0.0000,0.000,011217,,*33
2017-12-01 16:16:23 1512162983.375955: $GPGSA,A,3,10,12,14,18,25,31,32,1,11,22,138,,2.0,0.8,1.5*3D
2017-12-01 16:16:24 1512162984.711501: $GPGSV,3,1,12,10,55,144,47,12,24,057,45,14,63,313,45,18,24,141,45*77
2017-12-01 16:16:24 1512162984.711685: $GPGSV,3,2,12,25,37,099,46,31,49,220,49,32,70,009,46,01,20,307,22*72
2017-12-01 16:16:24 1512162984.711751: $GPGSV,3,3,12,11,10,288,33,22,13,312,37,24,03,048,04,138,38,213,45*42
2017-12-01 16:16:24 1512162984.825281: $GPZDA,211625.00,01,12,2017,00,00*63
2017-12-01 16:16:24 1512162984.825454: $GPGGA,211625,3946.9588,N,08404.9843,W,2,11,0.80,295.91,M,-33.324,M,,*7C
2017-12-01 16:16:24 1512162984.825520: $GPRMC,211625,A,3946.9588,N,08404.9843,W,0.0000,0.000,011217,,*32
2017-12-01 16:16:24 1512162984.825583: $GPGSA,A,3,10,12,14,18,25,31,32,1,11,22,138,,2.0,0.8,1.5*3D
2017-12-01 16:16:25 1512162985.377291: $GPZDA,211626.00,01,12,2017,00,00*60
2017-12-01 16:16:25 1512162985.377463: $GPGGA,211626,3946.9588,N,08404.9843,W,2,11,0.80,295.91,M,-33.324,M,,*7F
2017-12-01 16:16:25 1512162985.377530: $GPRMC,211626,A,3946.9588,N,08404.9843,W,0.0000,0.000,011217,,*31
2017-12-01 16:16:25 1512162985.377594: $GPGSA,A,3,10,12,14,18,25,31,32,1,11,22,138,,2.0,0.8,1.5*3D
2017-12-01 16:16:26 1512162986.358296: $GPZDA,211627.00,01,12,2017,00,00*61
2017-12-01 16:16:26 1512162986.358466: $GPGGA,211627,3946.9588,N,08404.9843,W,2,11,0.80,295.91,M,-33.324,M,,*7E
2017-12-01 16:16:26 1512162986.358533: $GPRMC,211627,A,3946.9588,N,08404.9843,W,0.0000,0.000,011217,,*30
2017-12-01 16:16:26 1512162986.358596: $GPGSA,A,3,10,12,14,18,25,31,32,1,11,22,138,,2.0,0.8,1.5*3D
2017-12-01 16:16:27 1512162987.695639: $GPGSV,3,1,12,10,55,144,47,12,24,057,45,14,63,313,45,18,24,141,45*77
2017-12-01 16:16:27 1512162987.695870: $GPGSV,3,2,12,25,37,099,46,31,49,220,49,32,70,009,47,01,20,307,16*74
2017-12-01 16:16:27 1512162987.695963: $GPGSV,3,3,12,11,10,288,34,22,13,312,37,24,03,048,04,138,38,213,46*46
2017-12-01 16:16:27 1512162987.809256: $GPZDA,211628.00,01,12,2017,00,00*6E
2017-12-01 16:16:27 1512162987.809420: $GPGGA,211628,3946.9584,N,08404.9844,W,2,11,0.80,296.67,M,-33.324,M,,*70
2017-12-01 16:16:27 1512162987.809540: $GPRMC,211628,A,3946.9584,N,08404.9844,W,0.0000,0.000,011217,,*34
2017-12-01 16:16:27 1512162987.809602: $GPGSA,A,3,10,12,14,18,25,31,32,1,11,22,138,,2.0,0.8,1.5*3D
2017-12-01 16:16:28 1512162988.360201: $GPZDA,211629.00,01,12,2017,00,00*6F
2017-12-01 16:16:28 1512162988.360388: $GPGGA,211629,3946.9584,N,08404.9844,W,2,11,0.80,296.67,M,-33.324,M,,*71
2017-12-01 16:16:28 1512162988.360456: $GPRMC,211629,A,3946.9584,N,08404.9844,W,0.0000,0.000,011217,,*35
2017-12-01 16:16:28 1512162988.360517: $GPGSA,A,3,10,12,14,18,25,31,32,1,11,22,138,,2.0,0.8,1.5*3D
2017-12-01 16:16:29 1512162989.359441: $GPZDA,211630.00,01,12,2017,00,00*67
2017-12-01 16:16:29 1512162989.359614: $GPGGA,211630,3946.9584,N,08404.9844,W,2,11,0.80,296.67,M,-33.324,M,,*79
2017-12-01 16:16:29 1512162989.359681: $GPRMC,211630,A,3946.9584,N,08404.9844,W,0.0000,0.000,011217,,*3D
2017-12-01 16:16:29 1512162989.359743: $GPGSA,A,3,10,12,14,18,25,31,32,1,11,22,138,,2.0,0.8,1.5*3D
2017-12-01 16:16:30 1512162990.688865: $GPGSV,3,1,12,10,55,144,47,12,24,057,45,14,63,313,45,18,24,141,45*77
2017-12-01 16:16:30 1512162990.689054: $GPGSV,3,2,12,25,37,099,46,31,49,220,49,32,70,009,47,01,20,307,22*73
2017-12-01 16:16:30 1512162990.689119: $GPGSV,3,3,12,11,10,288,35,22,13,312,37,24,03,048,04,138,38,213,45*44
2017-12-01 16:16:30 1512162990.802492: $GPZDA,211631.00,01,12,2017,00,00*66
2017-12-01 16:16:30 1512162990.802675: $GPGGA,211631,3946.9584,N,08404.9844,W,2,11,0.80,296.67,M,-33.324,M,,*78
2017-12-01 16:16:30 1512162990.802742: $GPRMC,211631,A,3946.9584,N,08404.9844,W,0.0000,0.000,011217,,*3C
2017-12-01 16:16:30 1512162990.802805: $GPGSA,A,3,10,12,14,18,25,31,32,1,11,22,138,,2.0,0.8,1.5*3D
2017-12-01 16:16:31 1512162991.358129: $GPZDA,211632.00,01,12,2017,00,00*65
2017-12-01 16:16:31 1512162991.358301: $GPGGA,211632,3946.9584,N,08404.9844,W,2,11,0.80,296.67,M,-33.324,M,,*7B
2017-12-01 16:16:31 1512162991.358368: $GPRMC,211632,A,3946.9584,N,08404.9844,W,0.0000,0.000,011217,,*3F
2017-12-01 16:16:31 1512162991.358430: $GPGSA,A,3,10,12,14,18,25,31,32,1,11,22,138,,2.0,0.8,1.5*3D
2017-12-01 16:16:32 1512162992.358482: $GPZDA,211633.00,01,12,2017,00,00*64
2017-12-01 16:16:32 1512162992.358658: $GPGGA,211633,3946.9584,N,08404.9844,W,2,11,0.80,296.67,M,-33.324,M,,*7A
2017-12-01 16:16:32 1512162992.358725: $GPRMC,211633,A,3946.9584,N,08404.9844,W,0.0000,0.000,011217,,*3E
2017-12-01 16:16:32 1512162992.358788: $GPGSA,A,3,10,12,14,18,25,31,32,1,11,22,138,,2.0,0.8,1.5*3D
2017-12-01 16:16:33 1512162993.694240: $GPGSV,3,1,12,10,55,144,47,12,24,057,45,14,63,313,45,18,24,141,45*77
2017-12-01 16:16:33 1512162993.694423: $GPGSV,3,2,12,25,37,099,47,31,49,220,49,32,70,009,47,01,20,307,28*78
2017-12-01 16:16:33 1512162993.694489: $GPGSV,3,3,12,11,10,288,36,22,13,312,37,24,03,048,04,138,38,213,46*44
2017-12-01 16:16:33 1512162993.807746: $GPZDA,211634.00,01,12,2017,00,00*63
2017-12-01 16:16:33 1512162993.807929: $GPGGA,211634,3946.9584,N,08404.9844,W,2,11,0.80,296.67,M,-33.324,M,,*7D
2017-12-01 16:16:33 1512162993.807996: $GPRMC,211634,A,3946.9584,N,08404.9844,W,0.0000,0.000,011217,,*39
2017-12-01 16:16:33 1512162993.808060: $GPGSA,A,3,10,12,14,18,25,31,32,1,11,22,138,,2.0,0.8,1.5*3D
2017-12-01 16:16:34 1512162994.357275: $GPZDA,211635.00,01,12,2017,00,00*62
2017-12-01 16:16:34 1512162994.357464: $GPGGA,211635,3946.9588,N,08404.9844,W,2,11,0.80,297.31,M,-33.324,M,,*72
2017-12-01 16:16:34 1512162994.357554: $GPRMC,211635,A,3946.9588,N,08404.9844,W,0.0000,0.000,011217,,*34
2017-12-01 16:16:34 1512162994.357617: $GPGSA,A,3,10,12,14,18,25,31,32,1,11,22,138,,2.0,0.8,1.5*3D
2017-12-01 16:16:35 1512162995.357207: $GPZDA,211636.00,01,12,2017,00,00*61
2017-12-01 16:16:35 1512162995.357378: $GPGGA,211636,3946.9588,N,08404.9844,W,2,11,0.80,297.31,M,-33.324,M,,*71
2017-12-01 16:16:35 1512162995.357446: $GPRMC,211636,A,3946.9588,N,08404.9844,W,0.0000,0.000,011217,,*37
2017-12-01 16:16:35 1512162995.357508: $GPGSA,A,3,10,12,14,18,25,31,32,1,11,22,138,,2.0,0.8,1.5*3D
2017-12-01 16:16:36 1512162996.692672: $GPGSV,3,1,12,10,55,144,47,12,24,057,45,14,63,313,45,18,24,141,44*76
2017-12-01 16:16:36 1512162996.692912: $GPGSV,3,2,12,25,37,099,47,31,49,220,50,32,70,009,47,01,20,307,29*71
2017-12-01 16:16:36 1512162996.692980: $GPGSV,3,3,12,11,10,288,37,22,13,312,38,24,03,048,00,138,38,213,46*4E
2017-12-01 16:16:36 1512162996.806261: $GPZDA,211637.00,01,12,2017,00,00*60
2017-12-01 16:16:36 1512162996.806409: $GPGGA,211637,3946.9588,N,08404.9844,W,2,11,0.80,297.31,M,-33.324,M,,*70
2017-12-01 16:16:36 1512162996.806477: $GPRMC,211637,A,3946.9588,N,08404.9844,W,0.0000,0.000,011217,,*36
2017-12-01 16:16:36 1512162996.806539: $GPGSA,A,3,10,12,14,18,25,31,32,1,11,22,138,,2.0,0.8,1.5*3D
2017-12-01 16:16:37 1512162997.431454: $GPZDA,211638.00,01,12,2017,00,00*6F
2017-12-01 16:16:37 1512162997.431628: $GPGGA,211638,3946.9588,N,08404.9844,W,2,11,0.80,297.31,M,-33.324,M,,*7F
2017-12-01 16:16:37 1512162997.431694: $GPRMC,211638,A,3946.9588,N,08404.9844,W,0.0000,0.000,011217,,*39
2017-12-01 16:16:37 1512162997.431757: $GPGSA,A,3,10,12,14,18,25,31,32,1,11,22,138,,2.0,0.8,1.5*3D
2017-12-01 16:16:38 1512162998.357213: $GPZDA,211639.00,01,12,2017,00,00*6E
2017-12-01 16:16:38 1512162998.357387: $GPGGA,211639,3946.9588,N,08404.9844,W,2,11,0.80,297.31,M,-33.324,M,,*7E
2017-12-01 16:16:38 1512162998.357454: $GPRMC,211639,A,3946.9588,N,08404.9844,W,0.0000,0.000,011217,,*38
2017-12-01 16:16:38 1512162998.357516: $GPGSA,A,3,10,12,14,18,25,31,32,1,11,22,138,,2.0,0.8,1.5*3D
2017-12-01 16:16:39 1512162999.693037: $GPGSV,3,1,12,10,55,144,48,12,24,057,44,14,63,313,45,18,24,141,44*78
2017-12-01 16:16:39 1512162999.693250: $GPGSV,3,2,12,25,37,099,47,31,49,220,49,32,70,009,47,01,20,307,30*71
2017-12-01 16:16:39 1512162999.693320: $GPGSV,3,3,12,11,10,288,38,22,13,312,38,24,03,048,00,138,38,213,45*42
2017-12-01 16:16:39 1512162999.806763: $GPZDA,211640.00,01,12,2017,00,00*60
2017-12-01 16:16:39 1512162999.806939: $GPGGA,211640,3946.9588,N,08404.9844,W,2,11,0.80,297.31,M,-33.324,M,,*70
2017-12-01 16:16:39 1512162999.807007: $GPRMC,211640,A,3946.9588,N,08404.9844,W,0.0000,0.000,011217,,*36
2017-12-01 16:16:39 1512162999.807068: $GPGSA,A,3,10,12,14,18,25,31,32,1,11,22,138,,2.0,0.8,1.5*3D
2017-12-01 16:16:40 1512163000.357316: $GPZDA,211641.00,01,12,2017,00,00*61
2017-12-01 16:16:40 1512163000.357505: $GPGGA,211641,3946.9588,N,08404.9844,W,2,11,0.80,297.31,M,-33.324,M,,*71
2017-12-01 16:16:40 1512163000.357574: $GPRMC,211641,A,3946.9588,N,08404.9844,W,0.0000,0.000,011217,,*37
2017-12-01 16:16:40 1512163000.357637: $GPGSA,A,3,10,12,14,18,25,31,32,1,11,22,138,,2.0,0.8,1.5*3D
