2017-12-31 17:02:26 1514757746.302338: {"class":"VERSION","release":"3.16","rev":"3.16-4","proto_major":3,"proto_minor":11}
2017-12-31 17:02:26 1514757746.302674: {"class":"DEVICES","devices":[{"class":"DEVICE","path":"/dev/ttyUSB0","driver":"SiRF","activated":"2017-12-31T22:02:26.224Z","flags":1,"native":1,"bps":4800,"parity":"N","stopbits":1,"cycle":1.00}]}
2017-12-31 17:02:26 1514757746.302773: {"class":"WATCH","enable":true,"json":false,"nmea":true,"raw":0,"scaled":false,"timing":false,"split24":false,"pps":false}
2017-12-31 17:02:26 1514757746.337837: $GPZDA,220227.00,31,12,2017,00,00*64
2017-12-31 17:02:26 1514757746.337963: $GPGGA,220227,3946.9587,N,08404.9854,W,2,11,1.00,302.21,M,-33.324,M,,*7C
2017-12-31 17:02:26 1514757746.338029: $GPRMC,220227,A,3946.9587,N,08404.9854,W,0.0000,0.000,311217,,*3C
2017-12-31 17:02:26 1514757746.338090: $GPGSA,A,3,22,23,25,3,16,29,31,14,32,26,135,,1.7,1.0,1.3*3B
2017-12-31 17:02:27 1514757747.679827: $GPGSV,3,1,11,22,45,243,36,23,26,307,36,25,03,037,19,03,46,274,37*72
2017-12-31 17:02:27 1514757747.680008: $GPGSV,3,2,11,16,44,190,41,29,14,057,29,31,51,049,48,14,42,112,34*74
2017-12-31 17:02:27 1514757747.680074: $GPGSV,3,3,11,32,20,121,42,26,73,148,42,135,22,240,42*72
2017-12-31 17:02:27 1514757747.793308: $GPZDA,220228.00,31,12,2017,00,00*6B
2017-12-31 17:02:27 1514757747.793485: $GPGGA,220228,3946.9587,N,08404.9854,W,2,11,1.00,302.21,M,-33.324,M,,*73
2017-12-31 17:02:27 1514757747.793552: $GPRMC,220228,A,3946.9587,N,08404.9854,W,0.0000,0.000,311217,,*33
2017-12-31 17:02:27 1514757747.793613: $GPGSA,A,3,22,23,25,3,16,29,31,14,32,26,135,,1.7,1.0,1.3*3B
2017-12-31 17:02:28 1514757748.360728: $GPZDA,220229.00,31,12,2017,00,00*6A
2017-12-31 17:02:28 1514757748.360906: $GPGGA,220229,3946.9584,N,08404.9855,W,2,11,1.00,302.98,M,-33.324,M,,*72
2017-12-31 17:02:28 1514757748.361064: $GPRMC,220229,A,3946.9584,N,08404.9855,W,0.0000,0.000,311217,,*30
2017-12-31 17:02:28 1514757748.361127: $GPGSA,A,3,22,23,25,3,16,29,31,14,32,26,135,,1.7,1.0,1.3*3B
2017-12-31 17:02:29 1514757749.343776: $GPZDA,220230.00,31,12,2017,00,00*62
2017-12-31 17:02:29 1514757749.344007: $GPGGA,220230,3946.9584,N,08404.9855,W,2,11,1.00,302.98,M,-33.324,M,,*7A
2017-12-31 17:02:29 1514757749.344216: $GPRMC,220230,A,3946.9584,N,08404.9855,W,0.0000,0.000,311217,,*38
2017-12-31 17:02:29 1514757749.344283: $GPGSA,A,3,22,23,25,3,16,29,31,14,32,26,135,,1.7,1.0,1.3*3B
2017-12-31 17:02:31 1514757751.037250: $GPGSV,3,1,11,22,45,243,38,23,26,307,37,25,03,037,20,03,46,274,38*78
2017-12-31 17:02:31 1514757751.037432: $GPGSV,3,2,11,16,44,190,42,29,14,057,30,31,51,049,49,14,42,112,36*7C
2017-12-31 17:02:31 1514757751.037499: $GPGSV,3,3,11,32,20,121,43,26,73,148,44,135,22,240,42*75
2017-12-31 17:02:31 1514757751.151060: $GPZDA,220231.00,31,12,2017,00,00*63
2017-12-31 17:02:31 1514757751.151202: $GPGGA,220231,3946.9584,N,08404.9855,W,2,11,1.00,302.98,M,-33.324,M,,*7B
2017-12-31 17:02:31 1514757751.151267: $GPRMC,220231,A,3946.9584,N,08404.9855,W,0.0000,0.000,311217,,*39
2017-12-31 17:02:31 1514757751.151328: $GPGSA,A,3,22,23,25,3,16,29,31,14,32,26,135,,1.7,1.0,1.3*3B
2017-12-31 17:02:31 1514757751.750938: $GPZDA,220232.00,31,12,2017,00,00*60
2017-12-31 17:02:31 1514757751.751107: $GPGGA,220232,3946.9584,N,08404.9855,W,2,11,1.00,302.98,M,-33.324,M,,*78
2017-12-31 17:02:31 1514757751.751174: $GPRMC,220232,A,3946.9584,N,08404.9855,W,0.0000,0.000,311217,,*3A
2017-12-31 17:02:31 1514757751.751236: $GPGSA,A,3,22,23,25,3,16,29,31,14,32,26,135,,1.7,1.0,1.3*3B
2017-12-31 17:02:31 1514757751.751294: $GPGBS,220232,2.22,M,3.43,M,7.66,M*3C
2017-12-31 17:02:32 1514757752.360591: $GPZDA,220233.00,31,12,2017,00,00*61
2017-12-31 17:02:32 1514757752.360772: $GPGGA,220233,3946.9584,N,08404.9855,W,2,11,1.00,302.98,M,-33.324,M,,*79
2017-12-31 17:02:32 1514757752.360838: $GPRMC,220233,A,3946.9584,N,08404.9855,W,0.0000,0.000,311217,,*3B
2017-12-31 17:02:32 1514757752.360900: $GPGSA,A,3,22,23,25,3,16,29,31,14,32,26,135,,1.7,1.0,1.3*3B
2017-12-31 17:02:32 1514757752.360959: $GPGBS,220233,2.22,M,3.43,M,7.66,M*3D
2017-12-31 17:02:33 1514757753.679940: $GPGSV,3,1,11,22,45,240,39,23,27,307,37,25,02,037,20,03,46,271,39*7E
2017-12-31 17:02:33 1514757753.680154: $GPGSV,3,2,11,16,45,190,43,29,14,055,29,31,50,049,50,14,41,112,37*7D
2017-12-31 17:02:33 1514757753.680224: $GPGSV,3,3,11,32,19,121,43,26,74,144,45,135,22,240,43*74
2017-12-31 17:02:33 1514757753.793693: $GPZDA,220234.00,31,12,2017,00,00*66
2017-12-31 17:02:33 1514757753.793838: $GPGGA,220234,3946.9584,N,08404.9855,W,2,11,1.00,302.98,M,-33.324,M,,*7E
2017-12-31 17:02:33 1514757753.793904: $GPRMC,220234,A,3946.9584,N,08404.9855,W,0.0000,0.000,311217,,*3C
2017-12-31 17:02:33 1514757753.793965: $GPGSA,A,3,22,23,25,3,16,29,31,14,32,26,135,,1.7,1.0,1.3*3B
2017-12-31 17:02:34 1514757754.344496: $GPZDA,220235.00,31,12,2017,00,00*67
2017-12-31 17:02:34 1514757754.344671: $GPGGA,220235,3946.9584,N,08404.9855,W,2,11,1.00,302.98,M,-33.324,M,,*7F
2017-12-31 17:02:34 1514757754.344758: $GPRMC,220235,A,3946.9584,N,08404.9855,W,0.0000,0.000,311217,,*3D
2017-12-31 17:02:34 1514757754.344822: $GPGSA,A,3,22,23,25,3,16,29,31,14,32,26,135,,1.7,1.0,1.3*3B
2017-12-31 17:02:35 1514757755.361188: $GPZDA,220236.00,31,12,2017,00,00*64
2017-12-31 17:02:35 1514757755.361359: $GPGGA,220236,3946.9584,N,08404.9855,W,2,11,1.00,302.98,M,-33.324,M,,*7C
2017-12-31 17:02:35 1514757755.361427: $GPRMC,220236,A,3946.9584,N,08404.9855,W,0.0000,0.000,311217,,*3E
2017-12-31 17:02:35 1514757755.361488: $GPGSA,A,3,22,23,25,3,16,29,31,14,32,26,135,,1.7,1.0,1.3*3B
