2017-12-01 14:34:20 1512156860.256966: {"class":"VERSION","release":"3.16","rev":"3.16-4","proto_major":3,"proto_minor":11}
2017-12-01 14:34:20 1512156860.257527: {"class":"DEVICES","devices":[{"class":"DEVICE","path":"/dev/ttyUSB0","driver":"SiRF","subtype":"9\u0006GSD4e_4.1.2-P1_RPATCH.05-F-GPS-4R-1510281 11/03/2015 307","activated":"2017-12-01T19:34:20.228Z","flags":1,"native":1,"bps":4800,"parity":"N","stopbits":1,"cycle":1.00}]}
2017-12-01 14:34:20 1512156860.257662: {"class":"WATCH","enable":true,"json":false,"nmea":true,"raw":0,"scaled":false,"timing":false,"split24":false,"pps":false}
2017-12-01 14:34:20 1512156860.676582: $GPGSV,3,1,12,10,74,339,47,12,12,103,33,14,32,258,42,18,67,103,45*74
2017-12-01 14:34:20 1512156860.676770: $GPGSV,3,2,12,21,24,178,46,24,41,054,48,32,50,271,44,08,04,289,29*78
2017-12-01 14:34:20 1512156860.676837: $GPGSV,3,3,12,25,06,139,20,20,05,120,23,15,08,069,27,138,38,213,47*43
2017-12-01 14:34:20 1512156860.790309: $GPZDA,193421.00,01,12,2017,00,00*6C
2017-12-01 14:34:20 1512156860.790478: $GPGGA,193421,3946.9582,N,08404.9859,W,2,12,1.00,297.28,M,-33.324,M,,*78
2017-12-01 14:34:20 1512156860.790544: $GPRMC,193421,A,3946.9582,N,08404.9859,W,0.0000,0.000,011217,,*3C
2017-12-01 14:34:20 1512156860.790605: $GPGSA,A,3,10,12,14,18,21,24,32,8,25,20,15,138,2.0,1.0,1.5*3C
2017-12-01 14:34:21 1512156861.415664: $GPZDA,193422.00,01,12,2017,00,00*6F
2017-12-01 14:34:21 1512156861.415837: $GPGGA,193422,3946.9582,N,08404.9859,W,2,12,1.00,297.28,M,-33.324,M,,*7B
2017-12-01 14:34:21 1512156861.415904: $GPRMC,193422,A,3946.9582,N,08404.9859,W,0.0000,0.000,011217,,*3F
2017-12-01 14:34:21 1512156861.415964: $GPGSA,A,3,10,12,14,18,21,24,32,8,25,20,15,138,2.0,1.0,1.5*3C
2017-12-01 14:34:22 1512156862.342848: $GPZDA,193423.00,01,12,2017,00,00*6E
2017-12-01 14:34:22 1512156862.343014: $GPGGA,193423,3946.9582,N,08404.9859,W,2,12,1.00,297.28,M,-33.324,M,,*7A
2017-12-01 14:34:22 1512156862.343080: $GPRMC,193423,A,3946.9582,N,08404.9859,W,0.0000,0.000,011217,,*3E
2017-12-01 14:34:22 1512156862.343141: $GPGSA,A,3,10,12,14,18,21,24,32,8,25,20,15,138,2.0,1.0,1.5*3C
2017-12-01 14:34:23 1512156863.678274: $GPGSV,3,1,12,10,74,339,47,12,12,103,32,14,32,258,42,18,67,103,45*75
2017-12-01 14:34:23 1512156863.678450: $GPGSV,3,2,12,21,24,178,46,24,41,054,47,32,50,271,44,08,04,289,30*7F
2017-12-01 14:34:23 1512156863.678515: $GPGSV,3,3,12,25,06,139,20,20,05,120,23,15,08,069,28,138,38,213,46*4D
2017-12-01 14:34:23 1512156863.791925: $GPZDA,193424.00,01,12,2017,00,00*69
2017-12-01 14:34:23 1512156863.792092: $GPGGA,193424,3946.9582,N,08404.9859,W,2,12,1.00,297.28,M,-33.324,M,,*7D
2017-12-01 14:34:23 1512156863.792159: $GPRMC,193424,A,3946.9582,N,08404.9859,W,0.0000,0.000,011217,,*39
2017-12-01 14:34:23 1512156863.792220: $GPGSA,A,3,10,12,14,18,21,24,32,8,25,20,15,138,2.0,1.0,1.5*3C
2017-12-01 14:34:24 1512156864.339016: $GPZDA,193425.00,01,12,2017,00,00*68
2017-12-01 14:34:24 1512156864.339181: $GPGGA,193425,3946.9582,N,08404.9859,W,2,12,1.00,297.28,M,-33.324,M,,*7C
2017-12-01 14:34:24 1512156864.339246: $GPRMC,193425,A,3946.9582,N,08404.9859,W,0.0000,0.000,011217,,*38
2017-12-01 14:34:24 1512156864.339307: $GPGSA,A,3,10,12,14,18,21,24,32,8,25,20,15,138,2.0,1.0,1.5*3C
2017-12-01 14:34:25 1512156865.892266: $GPZDA,193426.00,01,12,2017,00,00*6B
2017-12-01 14:34:25 1512156865.892439: $GPGGA,193426,3946.9585,N,08404.9858,W,2,12,1.00,296.51,M,-33.324,M,,*76
2017-12-01 14:34:25 1512156865.892506: $GPRMC,193426,A,3946.9585,N,08404.9858,W,0.0000,0.000,011217,,*3D
2017-12-01 14:34:25 1512156865.892567: $GPGSA,A,3,10,12,14,18,21,24,32,8,25,20,15,138,2.0,1.0,1.5*3C
2017-12-01 14:34:26 1512156866.853751: $GPGSV,3,1,12,10,74,339,47,12,12,103,31,14,33,258,41,18,66,103,45*75
2017-12-01 14:34:26 1512156866.853932: $GPGSV,3,2,12,21,23,178,46,24,41,054,47,32,50,271,44,08,04,289,35*7D
2017-12-01 14:34:26 1512156866.854015: $GPGSV,3,3,12,25,06,138,19,20,05,121,22,15,07,069,28,138,38,213,47*48
2017-12-01 14:34:26 1512156866.967232: $GPZDA,193427.00,01,12,2017,00,00*6A
2017-12-01 14:34:26 1512156866.967405: $GPGGA,193427,3946.9585,N,08404.9858,W,2,12,1.00,296.51,M,-33.324,M,,*77
2017-12-01 14:34:26 1512156866.967524: $GPRMC,193427,A,3946.9585,N,08404.9858,W,0.0000,0.000,011217,,*3C
2017-12-01 14:34:26 1512156866.967587: $GPGSA,A,3,10,12,14,18,21,24,32,8,25,20,15,138,2.0,1.0,1.5*3C
2017-12-01 14:34:27 1512156867.418073: $GPZDA,193428.00,01,12,2017,00,00*65
2017-12-01 14:34:27 1512156867.418246: $GPGGA,193428,3946.9585,N,08404.9858,W,2,12,1.00,296.51,M,-33.324,M,,*78
2017-12-01 14:34:27 1512156867.418313: $GPRMC,193428,A,3946.9585,N,08404.9858,W,0.0000,0.000,011217,,*33
2017-12-01 14:34:27 1512156867.418374: $GPGSA,A,3,10,12,14,18,21,24,32,8,25,20,15,138,2.0,1.0,1.5*3C
2017-12-01 14:34:28 1512156868.347037: $GPZDA,193429.00,01,12,2017,00,00*64
2017-12-01 14:34:28 1512156868.347210: $GPGGA,193429,3946.9585,N,08404.9858,W,2,12,1.00,296.51,M,-33.324,M,,*79
2017-12-01 14:34:28 1512156868.347277: $GPRMC,193429,A,3946.9585,N,08404.9858,W,0.0000,0.000,011217,,*32
2017-12-01 14:34:28 1512156868.347338: $GPGSA,A,3,10,12,14,18,21,24,32,8,25,20,15,138,2.0,1.0,1.5*3C
2017-12-01 14:34:29 1512156869.680906: $GPGSV,3,1,12,10,74,339,47,12,12,103,27,14,33,258,41,18,66,103,44*73
2017-12-01 14:34:29 1512156869.681088: $GPGSV,3,2,12,21,23,178,45,24,41,054,47,32,50,271,44,08,04,289,34*7F
2017-12-01 14:34:29 1512156869.681156: $GPGSV,3,3,12,25,06,138,04,20,05,121,20,15,07,069,28,138,38,213,47*46
2017-12-01 14:34:29 1512156869.794380: $GPZDA,193430.00,01,12,2017,00,00*6C
2017-12-01 14:34:29 1512156869.794546: $GPGGA,193430,3946.9585,N,08404.9858,W,2,11,1.00,296.51,M,-33.324,M,,*72
2017-12-01 14:34:29 1512156869.794613: $GPRMC,193430,A,3946.9585,N,08404.9858,W,0.0000,0.000,011217,,*3A
2017-12-01 14:34:29 1512156869.794675: $GPGSA,A,3,10,12,14,18,21,24,32,8,20,15,138,,2.0,1.0,1.5*3B
2017-12-01 14:34:30 1512156870.348792: $GPZDA,193431.00,01,12,2017,00,00*6D
2017-12-01 14:34:30 1512156870.348987: $GPGGA,193431,3946.9585,N,08404.9858,W,2,11,1.00,296.51,M,-33.324,M,,*73
2017-12-01 14:34:30 1512156870.349055: $GPRMC,193431,A,3946.9585,N,08404.9858,W,0.0000,0.000,011217,,*3B
2017-12-01 14:34:30 1512156870.349116: $GPGSA,A,3,10,12,14,18,21,24,32,8,20,15,138,,2.0,1.0,1.5*3B
2017-12-01 14:34:31 1512156871.341998: $GPZDA,193432.00,01,12,2017,00,00*6E
2017-12-01 14:34:31 1512156871.342171: $GPGGA,193432,3946.9585,N,08404.9858,W,2,11,1.00,296.51,M,-33.324,M,,*70
2017-12-01 14:34:31 1512156871.342260: $GPRMC,193432,A,3946.9585,N,08404.9858,W,0.0000,0.000,011217,,*38
2017-12-01 14:34:31 1512156871.342323: $GPGSA,A,3,10,12,14,18,21,24,32,8,20,15,138,,2.0,1.0,1.5*3B
2017-12-01 14:34:32 1512156872.681221: $GPGSV,3,1,12,10,74,339,47,12,12,103,27,14,33,258,41,18,66,103,44*73
2017-12-01 14:34:32 1512156872.681444: $GPGSV,3,2,12,21,23,178,45,24,41,054,47,32,50,271,44,08,04,289,25*7F
2017-12-01 14:34:32 1512156872.681512: $GPGSV,3,3,12,31,04,204,33,20,05,121,19,15,07,069,11,138,38,213,46*48
2017-12-01 14:34:32 1512156872.794657: $GPZDA,193433.00,01,12,2017,00,00*6F
2017-12-01 14:34:32 1512156872.794801: $GPGGA,193433,3946.9585,N,08404.9858,W,2,12,1.00,296.51,M,-33.324,M,,*72
2017-12-01 14:34:32 1512156872.794867: $GPRMC,193433,A,3946.9585,N,08404.9858,W,0.0000,0.000,011217,,*39
2017-12-01 14:34:32 1512156872.794928: $GPGSA,A,3,10,12,14,18,21,24,32,8,31,20,15,138,2.0,1.0,1.5*39
2017-12-01 14:34:33 1512156873.346694: $GPZDA,193434.00,01,12,2017,00,00*68
2017-12-01 14:34:33 1512156873.346870: $GPGGA,193434,3946.9585,N,08404.9858,W,2,12,1.00,296.51,M,-33.324,M,,*75
2017-12-01 14:34:33 1512156873.346939: $GPRMC,193434,A,3946.9585,N,08404.9858,W,0.0000,0.000,011217,,*3E
2017-12-01 14:34:33 1512156873.347001: $GPGSA,A,3,10,12,14,18,21,24,32,8,31,20,15,138,2.0,1.0,1.5*39
2017-12-01 14:34:34 1512156874.346650: $GPZDA,193435.00,01,12,2017,00,00*69
2017-12-01 14:34:34 1512156874.346807: $GPGGA,193435,3946.9585,N,08404.9858,W,2,12,1.00,296.51,M,-33.324,M,,*74
2017-12-01 14:34:34 1512156874.346873: $GPRMC,193435,A,3946.9585,N,08404.9858,W,0.0000,0.000,011217,,*3F
2017-12-01 14:34:34 1512156874.346934: $GPGSA,A,3,10,12,14,18,21,24,32,8,31,20,15,138,2.0,1.0,1.5*39
2017-12-01 14:34:35 1512156875.682083: $GPGSV,3,1,12,10,74,339,47,12,12,103,26,14,33,258,41,18,66,103,44*72
2017-12-01 14:34:35 1512156875.682285: $GPGSV,3,2,12,21,23,178,45,24,41,054,47,32,50,271,44,08,04,289,34*7F
2017-12-01 14:34:35 1512156875.682354: $GPGSV,3,3,12,31,04,204,34,20,05,121,18,27,03,256,25,138,38,213,47*43
2017-12-01 14:34:35 1512156875.795425: $GPZDA,193436.00,01,12,2017,00,00*6A
2017-12-01 14:34:35 1512156875.795605: $GPGGA,193436,3946.9585,N,08404.9858,W,2,12,1.40,296.51,M,-33.324,M,,*73
2017-12-01 14:34:35 1512156875.795672: $GPRMC,193436,A,3946.9585,N,08404.9858,W,0.0000,0.000,011217,,*3C
2017-12-01 14:34:35 1512156875.795733: $GPGSA,A,3,10,12,14,18,21,24,32,8,31,20,27,138,2.0,1.4,1.5*3C
2017-12-01 14:34:36 1512156876.421090: $GPZDA,193437.00,01,12,2017,00,00*6B
2017-12-01 14:34:36 1512156876.421248: $GPGGA,193437,3946.9585,N,08404.9858,W,2,12,1.40,296.51,M,-33.324,M,,*72
2017-12-01 14:34:36 1512156876.421315: $GPRMC,193437,A,3946.9585,N,08404.9858,W,0.0000,0.000,011217,,*3D
2017-12-01 14:34:36 1512156876.421461: $GPGSA,A,3,10,12,14,18,21,24,32,8,31,20,27,138,2.0,1.4,1.5*3C
2017-12-01 14:34:37 1512156877.349510: $GPZDA,193438.00,01,12,2017,00,00*64
2017-12-01 14:34:37 1512156877.349679: $GPGGA,193438,3946.9585,N,08404.9858,W,2,12,1.00,296.51,M,-33.324,M,,*79
2017-12-01 14:34:37 1512156877.349746: $GPRMC,193438,A,3946.9585,N,08404.9858,W,0.0000,0.000,011217,,*32
2017-12-01 14:34:37 1512156877.349807: $GPGSA,A,3,10,12,14,18,21,24,32,8,31,20,27,138,2.0,1.0,1.5*38
2017-12-01 14:34:38 1512156878.682488: $GPGSV,3,1,12,10,74,339,46,12,12,103,26,14,33,258,41,18,66,103,44*73
2017-12-01 14:34:38 1512156878.682667: $GPGSV,3,2,12,21,23,178,45,24,41,054,48,32,50,271,43,08,04,289,34*77
2017-12-01 14:34:38 1512156878.682734: $GPGSV,3,3,12,25,06,138,22,20,05,121,18,15,07,069,26,138,38,213,48*48
2017-12-01 14:34:38 1512156878.796098: $GPZDA,193439.00,01,12,2017,00,00*65
2017-12-01 14:34:38 1512156878.796262: $GPGGA,193439,3946.9585,N,08404.9858,W,2,12,1.00,296.51,M,-33.324,M,,*78
2017-12-01 14:34:38 1512156878.796328: $GPRMC,193439,A,3946.9585,N,08404.9858,W,0.0000,0.000,011217,,*33
2017-12-01 14:34:38 1512156878.796389: $GPGSA,A,3,10,12,14,18,21,24,32,8,25,20,15,138,2.0,1.0,1.5*3C
2017-12-01 14:34:39 1512156879.347018: $GPZDA,193440.00,01,12,2017,00,00*6B
2017-12-01 14:34:39 1512156879.347189: $GPGGA,193440,3946.9585,N,08404.9858,W,2,12,1.00,296.51,M,-33.324,M,,*76
2017-12-01 14:34:39 1512156879.347256: $GPRMC,193440,A,3946.9585,N,08404.9858,W,0.0000,0.000,011217,,*3D
2017-12-01 14:34:39 1512156879.347317: $GPGSA,A,3,10,12,14,18,21,24,32,8,25,20,15,138,2.0,1.0,1.5*3C
2017-12-01 14:34:40 1512156880.346300: $GPZDA,193441.00,01,12,2017,00,00*6A
2017-12-01 14:34:40 1512156880.346461: $GPGGA,193441,3946.9585,N,08404.9858,W,2,12,1.00,296.51,M,-33.324,M,,*77
2017-12-01 14:34:40 1512156880.346529: $GPRMC,193441,A,3946.9585,N,08404.9858,W,0.0000,0.000,011217,,*3C
2017-12-01 14:34:40 1512156880.346590: $GPGSA,A,3,10,12,14,18,21,24,32,8,25,20,15,138,2.0,1.0,1.5*3C
2017-12-01 14:34:41 1512156881.681662: $GPGSV,3,1,12,10,74,339,46,12,12,103,25,14,33,258,41,18,66,103,45*71
2017-12-01 14:34:41 1512156881.681825: $GPGSV,3,2,12,21,23,178,45,24,41,054,48,32,50,271,43,08,04,289,34*77
2017-12-01 14:34:41 1512156881.681892: $GPGSV,3,3,12,25,06,138,23,20,05,121,17,15,07,069,28,138,38,213,47*47
2017-12-01 14:34:41 1512156881.795280: $GPZDA,193442.00,01,12,2017,00,00*69
2017-12-01 14:34:41 1512156881.795445: $GPGGA,193442,3946.9585,N,08404.9858,W,2,12,1.00,296.51,M,-33.324,M,,*74
2017-12-01 14:34:41 1512156881.795511: $GPRMC,193442,A,3946.9585,N,08404.9858,W,0.0000,0.000,011217,,*3F
2017-12-01 14:34:41 1512156881.795572: $GPGSA,A,3,10,12,14,18,21,24,32,8,25,20,15,138,2.0,1.0,1.5*3C
2017-12-01 14:34:42 1512156882.345822: $GPZDA,193443.00,01,12,2017,00,00*68
2017-12-01 14:34:42 1512156882.345995: $GPGGA,193443,3946.9585,N,08404.9858,W,2,12,1.00,296.51,M,-33.324,M,,*75
2017-12-01 14:34:42 1512156882.346064: $GPRMC,193443,A,3946.9585,N,08404.9858,W,0.0000,0.000,011217,,*3E
2017-12-01 14:34:42 1512156882.346126: $GPGSA,A,3,10,12,14,18,21,24,32,8,25,20,15,138,2.0,1.0,1.5*3C
2017-12-01 14:34:43 1512156883.385736: $GPZDA,193444.00,01,12,2017,00,00*6F
2017-12-01 14:34:43 1512156883.385905: $GPGGA,193444,3946.9585,N,08404.9858,W,2,12,1.00,296.51,M,-33.324,M,,*72
2017-12-01 14:34:43 1512156883.385970: $GPRMC,193444,A,3946.9585,N,08404.9858,W,0.0000,0.000,011217,,*39
2017-12-01 14:34:43 1512156883.386032: $GPGSA,A,3,10,12,14,18,21,24,32,8,25,20,15,138,2.0,1.0,1.5*3C
2017-12-01 14:34:44 1512156884.708772: $GPGSV,3,1,12,10,74,339,46,12,12,103,25,14,33,258,42,18,66,103,45*72
2017-12-01 14:34:44 1512156884.708952: $GPGSV,3,2,12,21,23,178,46,24,41,054,48,32,50,271,44,08,04,289,34*73
2017-12-01 14:34:44 1512156884.709019: $GPGSV,3,3,12,25,06,138,23,20,05,121,17,15,07,069,28,138,38,213,47*47
2017-12-01 14:34:44 1512156884.821126: $GPZDA,193445.00,01,12,2017,00,00*6E
2017-12-01 14:34:44 1512156884.821294: $GPGGA,193445,3946.9585,N,08404.9858,W,2,12,1.00,296.51,M,-33.324,M,,*73
2017-12-01 14:34:44 1512156884.821419: $GPRMC,193445,A,3946.9585,N,08404.9858,W,0.0000,0.000,011217,,*38
2017-12-01 14:34:44 1512156884.821483: $GPGSA,A,3,10,12,14,18,21,24,32,8,25,20,15,138,2.0,1.0,1.5*3C
