2017-11-16 15:12:25 1510863145.746661: {"class":"VERSION","release":"3.17","rev":"3.17","proto_major":3,"proto_minor":12}
2017-11-16 15:12:25 1510863145.747145: {"class":"DEVICES","devices":[{"class":"DEVICE","path":"/dev/ttyUSB0","driver":"SiRF","subtype":"9\u0006GSD4e_4.1.2-P1_RPATCH.05-F-GPS-4R-1510281 11/03/2015 307","activated":"2017-11-16T20:12:25.722Z","flags":1,"native":1,"bps":4800,"parity":"N","stopbits":1,"cycle":1.00}]}
2017-11-16 15:12:25 1510863145.747265: {"class":"WATCH","enable":true,"json":false,"nmea":true,"raw":0,"scaled":false,"timing":false,"split24":false,"pps":false}
2017-11-16 15:12:25 1510863145.835996: $GPZDA,201224.00,16,11,2017,00,00*62
2017-11-16 15:12:25 1510863145.836177: $GPGGA,201224,3946.9575,N,08404.9848,W,2,11,0.80,301.77,M,-33.324,M,,*75
2017-11-16 15:12:25 1510863145.836240: $GPRMC,201224,A,3946.9575,N,08404.9848,W,0.0000,0.000,161117,,*3A
2017-11-16 15:12:25 1510863145.836296: $GPGSA,A,3,8,10,14,15,18,20,21,24,27,32,138,,1.6,0.8,1.3*37
2017-11-16 15:12:26 1510863146.461428: $GPZDA,201225.00,16,11,2017,00,00*63
2017-11-16 15:12:26 1510863146.461590: $GPGGA,201225,3946.9579,N,08404.9847,W,2,11,0.80,301.01,M,-33.324,M,,*76
2017-11-16 15:12:26 1510863146.461652: $GPRMC,201225,A,3946.9579,N,08404.9847,W,0.0000,0.000,161117,,*38
2017-11-16 15:12:26 1510863146.461708: $GPGSA,A,3,8,10,14,15,18,20,21,24,27,32,138,,1.6,0.8,1.3*37
2017-11-16 15:12:27 1510863147.384700: $GPZDA,201226.00,16,11,2017,00,00*60
2017-11-16 15:12:27 1510863147.384854: $GPGGA,201226,3946.9579,N,08404.9847,W,2,11,0.80,301.01,M,-33.324,M,,*75
2017-11-16 15:12:27 1510863147.384917: $GPRMC,201226,A,3946.9579,N,08404.9847,W,0.0000,0.000,161117,,*3B
2017-11-16 15:12:27 1510863147.384973: $GPGSA,A,3,8,10,14,15,18,20,21,24,27,32,138,,1.6,0.8,1.3*37
2017-11-16 15:12:28 1510863148.716861: $GPGSV,3,1,12,08,07,300,28,10,63,322,51,14,24,249,45,15,16,063,37*72
2017-11-16 15:12:28 1510863148.717041: $GPGSV,3,2,12,18,75,073,47,20,13,114,34,21,36,181,45,24,49,067,50*74
2017-11-16 15:12:28 1510863148.717103: $GPGSV,3,3,12,27,10,265,41,32,41,258,48,12,05,112,00,138,38,213,44*48
2017-11-16 15:12:28 1510863148.830000: $GPZDA,201227.00,16,11,2017,00,00*61
2017-11-16 15:12:28 1510863148.830172: $GPGGA,201227,3946.9579,N,08404.9847,W,2,11,0.80,301.01,M,-33.324,M,,*74
2017-11-16 15:12:28 1510863148.830235: $GPRMC,201227,A,3946.9579,N,08404.9847,W,0.0000,0.000,161117,,*3A
2017-11-16 15:12:28 1510863148.830352: $GPGSA,A,3,8,10,14,15,18,20,21,24,27,32,138,,1.6,0.8,1.3*37
2017-11-16 15:12:29 1510863149.386097: $GPZDA,201228.00,16,11,2017,00,00*6E
2017-11-16 15:12:29 1510863149.386293: $GPGGA,201228,3946.9579,N,08404.9847,W,2,11,0.80,301.01,M,-33.324,M,,*7B
2017-11-16 15:12:29 1510863149.386356: $GPRMC,201228,A,3946.9579,N,08404.9847,W,0.0000,0.000,161117,,*35
2017-11-16 15:12:29 1510863149.386413: $GPGSA,A,3,8,10,14,15,18,20,21,24,27,32,138,,1.6,0.8,1.3*37
2017-11-16 15:12:30 1510863150.384268: $GPZDA,201229.00,16,11,2017,00,00*6F
2017-11-16 15:12:30 1510863150.384431: $GPGGA,201229,3946.9579,N,08404.9847,W,2,11,0.80,301.01,M,-33.324,M,,*7A
2017-11-16 15:12:30 1510863150.384492: $GPRMC,201229,A,3946.9579,N,08404.9847,W,0.0000,0.000,161117,,*34
2017-11-16 15:12:30 1510863150.384549: $GPGSA,A,3,8,10,14,15,18,20,21,24,27,32,138,,1.6,0.8,1.3*37
2017-11-16 15:12:31 1510863151.720801: $GPGSV,3,1,12,08,07,298,28,10,64,324,51,14,25,249,45,15,15,063,37*71
2017-11-16 15:12:31 1510863151.720973: $GPGSV,3,2,12,18,74,078,47,20,12,115,34,21,35,180,45,24,48,064,49*76
2017-11-16 15:12:31 1510863151.721034: $GPGSV,3,3,12,27,09,264,42,32,42,259,48,12,06,111,28,138,38,213,43*4D
2017-11-16 15:12:31 1510863151.834337: $GPZDA,201230.00,16,11,2017,00,00*67
2017-11-16 15:12:31 1510863151.834497: $GPGGA,201230,3946.9579,N,08404.9847,W,2,12,0.80,301.01,M,-33.324,M,,*71
2017-11-16 15:12:31 1510863151.834558: $GPRMC,201230,A,3946.9579,N,08404.9847,W,0.0000,0.000,161117,,*3C
2017-11-16 15:12:31 1510863151.834614: $GPGSA,A,3,8,10,14,15,18,20,21,24,27,32,12,138,1.6,0.8,1.3*34
2017-11-16 15:12:32 1510863152.385178: $GPZDA,201231.00,16,11,2017,00,00*66
2017-11-16 15:12:32 1510863152.385391: $GPGGA,201231,3946.9579,N,08404.9847,W,2,12,0.80,301.01,M,-33.324,M,,*70
2017-11-16 15:12:32 1510863152.385454: $GPRMC,201231,A,3946.9579,N,08404.9847,W,0.0000,0.000,161117,,*3D
2017-11-16 15:12:32 1510863152.385510: $GPGSA,A,3,8,10,14,15,18,20,21,24,27,32,12,138,1.6,0.8,1.3*34
2017-11-16 15:12:33 1510863153.384738: $GPZDA,201232.00,16,11,2017,00,00*65
2017-11-16 15:12:33 1510863153.384903: $GPGGA,201232,3946.9579,N,08404.9847,W,2,12,0.80,301.01,M,-33.324,M,,*73
2017-11-16 15:12:33 1510863153.384965: $GPRMC,201232,A,3946.9579,N,08404.9847,W,0.0000,0.000,161117,,*3E
2017-11-16 15:12:33 1510863153.385020: $GPGSA,A,3,8,10,14,15,18,20,21,24,27,32,12,138,1.6,0.8,1.3*34
2017-11-16 15:12:34 1510863154.720189: $GPGSV,3,1,12,08,07,298,28,10,64,324,50,14,25,249,45,15,15,063,37*70
2017-11-16 15:12:34 1510863154.720396: $GPGSV,3,2,12,18,74,078,47,20,12,115,34,21,35,180,44,24,48,064,49*77
2017-11-16 15:12:34 1510863154.720459: $GPGSV,3,3,12,27,09,264,42,32,42,259,48,12,06,111,28,138,38,213,43*4D
2017-11-16 15:12:34 1510863154.833741: $GPZDA,201233.00,16,11,2017,00,00*64
2017-11-16 15:12:34 1510863154.833918: $GPGGA,201233,3946.9579,N,08404.9847,W,2,12,0.80,301.01,M,-33.324,M,,*72
2017-11-16 15:12:34 1510863154.833979: $GPRMC,201233,A,3946.9579,N,08404.9847,W,0.0000,0.000,161117,,*3F
2017-11-16 15:12:34 1510863154.834036: $GPGSA,A,3,8,10,14,15,18,20,21,24,27,32,12,138,1.6,0.8,1.3*34
2017-11-16 15:12:35 1510863155.384459: $GPZDA,201234.00,16,11,2017,00,00*63
2017-11-16 15:12:35 1510863155.384644: $GPGGA,201234,3946.9579,N,08404.9847,W,2,12,0.80,301.01,M,-33.324,M,,*75
2017-11-16 15:12:35 1510863155.384707: $GPRMC,201234,A,3946.9579,N,08404.9847,W,0.0000,0.000,161117,,*38
2017-11-16 15:12:35 1510863155.384764: $GPGSA,A,3,8,10,14,15,18,20,21,24,27,32,12,138,1.6,0.8,1.3*34
