2017-12-31 19:01:13 1514764873.185862: {"class":"VERSION","release":"3.16","rev":"3.16-4","proto_major":3,"proto_minor":11}
2017-12-31 19:01:13 1514764873.186220: {"class":"DEVICES","devices":[{"class":"DEVICE","path":"/dev/ttyUSB0","driver":"SiRF","activated":"2018-01-01T00:01:13.177Z","flags":1,"native":1,"bps":4800,"parity":"N","stopbits":1,"cycle":1.00}]}
2017-12-31 19:01:13 1514764873.186323: {"class":"WATCH","enable":true,"json":false,"nmea":true,"raw":0,"scaled":false,"timing":false,"split24":false,"pps":false}
2017-12-31 19:01:13 1514764873.354532: $GPZDA,000114.00,01,01,2018,00,00*69
2017-12-31 19:01:13 1514764873.354694: $GPGGA,000114,3946.9574,N,08404.9824,W,2,11,0.80,309.88,M,-33.324,M,,*75
2017-12-31 19:01:13 1514764873.354760: $GPRMC,000114,A,3946.9574,N,08404.9824,W,0.0000,0.000,010118,,*3A
2017-12-31 19:01:13 1514764873.354820: $GPGSA,A,3,22,23,9,3,16,8,31,27,7,26,135,,1.7,0.8,1.3*09
2017-12-31 19:01:14 1514764874.354131: $GPZDA,000115.00,01,01,2018,00,00*68
2017-12-31 19:01:14 1514764874.354283: $GPGGA,000115,3946.9574,N,08404.9824,W,2,11,0.80,309.88,M,-33.324,M,,*74
2017-12-31 19:01:14 1514764874.354348: $GPRMC,000115,A,3946.9574,N,08404.9824,W,0.0000,0.000,010118,,*3B
2017-12-31 19:01:14 1514764874.354409: $GPGSA,A,3,22,23,9,3,16,8,31,27,7,26,135,,1.7,0.8,1.3*09
2017-12-31 19:01:15 1514764875.689360: $GPGSV,3,1,11,22,04,201,25,23,70,267,39,09,40,307,33,03,14,217,32*7E
2017-12-31 19:01:15 1514764875.689535: $GPGSV,3,2,11,16,72,036,45,08,21,174,43,31,13,091,26,27,44,139,39*78
2017-12-31 19:01:15 1514764875.689601: $GPGSV,3,3,11,07,13,288,39,26,40,048,46,135,22,240,43*7C
2017-12-31 19:01:15 1514764875.802688: $GPZDA,000116.00,01,01,2018,00,00*6B
2017-12-31 19:01:15 1514764875.802805: $GPGGA,000116,3946.9574,N,08404.9824,W,2,11,0.80,309.88,M,-33.324,M,,*77
2017-12-31 19:01:15 1514764875.802868: $GPRMC,000116,A,3946.9574,N,08404.9824,W,0.0000,0.000,010118,,*38
2017-12-31 19:01:15 1514764875.802928: $GPGSA,A,3,22,23,9,3,16,8,31,27,7,26,135,,1.7,0.8,1.3*09
2017-12-31 19:01:16 1514764876.352334: $GPZDA,000117.00,01,01,2018,00,00*6A
2017-12-31 19:01:16 1514764876.352489: $GPGGA,000117,3946.9574,N,08404.9824,W,2,11,0.80,309.88,M,-33.324,M,,*76
2017-12-31 19:01:16 1514764876.352554: $GPRMC,000117,A,3946.9574,N,08404.9824,W,0.0000,0.000,010118,,*39
2017-12-31 19:01:16 1514764876.352614: $GPGSA,A,3,22,23,9,3,16,8,31,27,7,26,135,,1.7,0.8,1.3*09
2017-12-31 19:01:17 1514764877.353185: $GPZDA,000118.00,01,01,2018,00,00*65
2017-12-31 19:01:17 1514764877.358143: $GPGGA,000118,3946.9574,N,08404.9824,W,2,11,0.80,309.88,M,-33.324,M,,*79
2017-12-31 19:01:17 1514764877.358252: $GPRMC,000118,A,3946.9574,N,08404.9824,W,0.0000,0.000,010118,,*36
2017-12-31 19:01:17 1514764877.358315: $GPGSA,A,3,22,23,9,3,16,8,31,27,7,26,135,,1.7,0.8,1.3*09
2017-12-31 19:01:18 1514764878.688956: $GPGSV,3,1,11,22,04,201,26,23,70,267,38,09,40,307,26,03,14,217,31*7B
2017-12-31 19:01:18 1514764878.689128: $GPGSV,3,2,11,16,72,036,45,08,21,174,43,31,13,091,27,27,44,139,39*79
2017-12-31 19:01:18 1514764878.689192: $GPGSV,3,3,11,07,13,288,40,26,40,048,46,135,22,240,44*75
2017-12-31 19:01:18 1514764878.802291: $GPZDA,000119.00,01,01,2018,00,00*64
2017-12-31 19:01:18 1514764878.802411: $GPGGA,000119,3946.9574,N,08404.9824,W,2,11,0.80,309.88,M,-33.324,M,,*78
2017-12-31 19:01:18 1514764878.802476: $GPRMC,000119,A,3946.9574,N,08404.9824,W,0.0000,0.000,010118,,*37
2017-12-31 19:01:18 1514764878.802536: $GPGSA,A,3,22,23,9,3,16,8,31,27,7,26,135,,1.7,0.8,1.3*09
2017-12-31 19:01:19 1514764879.354429: $GPZDA,000120.00,01,01,2018,00,00*6E
2017-12-31 19:01:19 1514764879.354588: $GPGGA,000120,3946.9574,N,08404.9824,W,2,11,0.80,309.88,M,-33.324,M,,*72
2017-12-31 19:01:19 1514764879.354652: $GPRMC,000120,A,3946.9574,N,08404.9824,W,0.0000,0.000,010118,,*3D
2017-12-31 19:01:19 1514764879.354712: $GPGSA,A,3,22,23,9,3,16,8,31,27,7,26,135,,1.7,0.8,1.3*09
2017-12-31 19:01:20 1514764880.353559: $GPZDA,000121.00,01,01,2018,00,00*6F
2017-12-31 19:01:20 1514764880.353728: $GPGGA,000121,3946.9574,N,08404.9824,W,2,11,0.80,309.88,M,-33.324,M,,*73
2017-12-31 19:01:20 1514764880.353849: $GPRMC,000121,A,3946.9574,N,08404.9824,W,0.0000,0.000,010118,,*3C
2017-12-31 19:01:20 1514764880.353912: $GPGSA,A,3,22,23,9,3,16,8,31,27,7,26,135,,1.7,0.8,1.3*09
2017-12-31 19:01:21 1514764881.689310: $GPGSV,3,1,11,22,04,201,26,23,70,267,37,09,40,307,32,03,14,217,26*77
2017-12-31 19:01:21 1514764881.689456: $GPGSV,3,2,11,16,72,036,45,08,21,174,43,31,13,091,27,27,44,139,39*79
2017-12-31 19:01:21 1514764881.689519: $GPGSV,3,3,11,07,13,288,40,26,40,048,46,135,22,240,45*74
2017-12-31 19:01:21 1514764881.802627: $GPZDA,000122.00,01,01,2018,00,00*6C
2017-12-31 19:01:21 1514764881.802747: $GPGGA,000122,3946.9574,N,08404.9824,W,2,11,0.80,309.88,M,-33.324,M,,*70
2017-12-31 19:01:21 1514764881.802811: $GPRMC,000122,A,3946.9574,N,08404.9824,W,0.0000,0.000,010118,,*3F
2017-12-31 19:01:21 1514764881.802872: $GPGSA,A,3,22,23,9,3,16,8,31,27,7,26,135,,1.7,0.8,1.3*09
2017-12-31 19:01:22 1514764882.352284: $GPZDA,000123.00,01,01,2018,00,00*6D
