2017-12-01 11:33:43 1512146023.746790: {"class":"VERSION","release":"3.16","rev":"3.16-4","proto_major":3,"proto_minor":11}
2017-12-01 11:33:43 1512146023.747198: {"class":"DEVICES","devices":[{"class":"DEVICE","path":"/dev/ttyUSB0","driver":"SiRF","subtype":"9\u0006GSD4e_4.1.2-P1_RPATCH.05-F-GPS-4R-1510281 11/03/2015 307","activated":"2017-12-01T16:33:43.665Z","flags":1,"native":1,"bps":4800,"parity":"N","stopbits":1,"cycle":1.00}]}
2017-12-01 11:33:43 1512146023.747328: {"class":"WATCH","enable":true,"json":false,"nmea":true,"raw":0,"scaled":false,"timing":false,"split24":false,"pps":false}
2017-12-01 11:33:43 1512146023.778626: $GPZDA,163344.00,01,12,2017,00,00*67
2017-12-01 11:33:43 1512146023.778785: $GPGGA,163344,3946.9587,N,08404.9823,W,2,11,1.20,297.55,M,-33.324,M,,*70
2017-12-01 11:33:43 1512146023.778853: $GPRMC,163344,A,3946.9587,N,08404.9823,W,0.0000,0.000,011217,,*3F
2017-12-01 11:33:43 1512146023.778914: $GPGSA,A,3,10,13,15,18,20,21,24,29,5,27,138,,2.0,1.2,1.5*3F
2017-12-01 11:33:44 1512146024.404133: $GPZDA,163345.00,01,12,2017,00,00*66
2017-12-01 11:33:44 1512146024.404333: $GPGGA,163345,3946.9587,N,08404.9823,W,2,11,1.20,297.55,M,-33.324,M,,*71
2017-12-01 11:33:44 1512146024.404403: $GPRMC,163345,A,3946.9587,N,08404.9823,W,0.0000,0.000,011217,,*3E
2017-12-01 11:33:44 1512146024.404491: $GPGSA,A,3,10,13,15,18,20,21,24,29,5,27,138,,2.0,1.2,1.5*3F
2017-12-01 11:33:45 1512146025.328651: $GPZDA,163346.00,01,12,2017,00,00*65
2017-12-01 11:33:45 1512146025.328826: $GPGGA,163346,3946.9584,N,08404.9817,W,2,11,0.80,298.39,M,-33.324,M,,*78
2017-12-01 11:33:45 1512146025.328894: $GPRMC,163346,A,3946.9584,N,08404.9817,W,0.0000,0.000,011217,,*39
2017-12-01 11:33:45 1512146025.328958: $GPGSA,A,3,10,13,15,18,20,21,24,29,5,27,138,,2.0,0.8,1.5*34
2017-12-01 11:33:46 1512146026.665644: $GPGSV,3,1,12,10,10,268,42,13,47,052,46,15,78,090,48,18,40,282,43*7A
2017-12-01 11:33:46 1512146026.665846: $GPGSV,3,2,12,20,65,042,41,21,63,309,46,24,16,151,43,29,29,196,45*7B
2017-12-01 11:33:46 1512146026.665913: $GPGSV,3,3,12,05,17,075,29,04,16,127,00,27,06,327,27,138,38,213,45*47
2017-12-01 11:33:46 1512146026.779019: $GPZDA,163347.00,01,12,2017,00,00*64
2017-12-01 11:33:46 1512146026.779207: $GPGGA,163347,3946.9584,N,08404.9817,W,2,11,0.80,298.39,M,-33.324,M,,*79
2017-12-01 11:33:46 1512146026.779276: $GPRMC,163347,A,3946.9584,N,08404.9817,W,0.0000,0.000,011217,,*38
2017-12-01 11:33:46 1512146026.779339: $GPGSA,A,3,10,13,15,18,20,21,24,29,5,27,138,,2.0,0.8,1.5*34
2017-12-01 11:33:47 1512146027.329896: $GPZDA,163348.00,01,12,2017,00,00*6B
2017-12-01 11:33:47 1512146027.330082: $GPGGA,163348,3946.9584,N,08404.9817,W,2,11,0.80,298.39,M,-33.324,M,,*76
2017-12-01 11:33:47 1512146027.330170: $GPRMC,163348,A,3946.9584,N,08404.9817,W,0.0000,0.000,011217,,*37
2017-12-01 11:33:47 1512146027.330236: $GPGSA,A,3,10,13,15,18,20,21,24,29,5,27,138,,2.0,0.8,1.5*34
2017-12-01 11:33:48 1512146028.333147: $GPZDA,163349.00,01,12,2017,00,00*6A
2017-12-01 11:33:48 1512146028.333333: $GPGGA,163349,3946.9580,N,08404.9818,W,2,11,0.80,299.16,M,-33.324,M,,*70
2017-12-01 11:33:48 1512146028.333403: $GPRMC,163349,A,3946.9580,N,08404.9818,W,0.0000,0.000,011217,,*3D
2017-12-01 11:33:48 1512146028.333466: $GPGSA,A,3,10,13,15,18,20,21,24,29,5,27,138,,2.0,0.8,1.5*34
2017-12-01 11:33:48 1512146028.333525: $GPGBS,163349,2.67,M,3.86,M,8.82,M*38
2017-12-01 11:33:49 1512146029.673556: $GPGSV,3,1,11,10,10,268,42,13,47,052,46,15,78,090,48,18,40,282,43*79
2017-12-01 11:33:49 1512146029.673854: $GPGSV,3,2,11,20,65,042,41,21,63,309,46,24,16,151,43,29,29,196,46*7B
2017-12-01 11:33:49 1512146029.673965: $GPGSV,3,3,11,05,17,075,28,27,06,327,27,138,38,213,45*72
2017-12-01 11:33:49 1512146029.786738: $GPZDA,163350.00,01,12,2017,00,00*62
2017-12-01 11:33:49 1512146029.786926: $GPGGA,163350,3946.9588,N,08404.9830,W,2,11,0.80,297.47,M,-33.324,M,,*70
2017-12-01 11:33:49 1512146029.786994: $GPRMC,163350,A,3946.9588,N,08404.9830,W,0.0000,0.000,011217,,*37
2017-12-01 11:33:49 1512146029.787060: $GPGSA,A,3,10,13,15,18,20,21,24,29,5,27,138,,2.0,0.8,1.5*34
2017-12-01 11:33:50 1512146030.330380: $GPZDA,163351.00,01,12,2017,00,00*63
2017-12-01 11:33:50 1512146030.330609: $GPGGA,163351,3946.9588,N,08404.9830,W,2,11,0.80,297.47,M,-33.324,M,,*71
2017-12-01 11:33:50 1512146030.330682: $GPRMC,163351,A,3946.9588,N,08404.9830,W,0.0000,0.000,011217,,*36
2017-12-01 11:33:50 1512146030.330744: $GPGSA,A,3,10,13,15,18,20,21,24,29,5,27,138,,2.0,0.8,1.5*34
2017-12-01 11:33:51 1512146031.333767: $GPZDA,163352.00,01,12,2017,00,00*60
2017-12-01 11:33:51 1512146031.333937: $GPGGA,163352,3946.9588,N,08404.9830,W,2,11,0.80,297.47,M,-33.324,M,,*72
2017-12-01 11:33:51 1512146031.334006: $GPRMC,163352,A,3946.9588,N,08404.9830,W,0.0000,0.000,011217,,*35
2017-12-01 11:33:51 1512146031.334086: $GPGSA,A,3,10,13,15,18,20,21,24,29,5,27,138,,2.0,0.8,1.5*34
2017-12-01 11:33:52 1512146032.665597: $GPGSV,3,1,11,10,10,268,42,13,47,052,46,15,78,090,48,18,40,282,43*79
2017-12-01 11:33:52 1512146032.665819: $GPGSV,3,2,11,20,65,042,41,21,63,309,46,24,16,151,43,29,29,196,46*7B
2017-12-01 11:33:52 1512146032.665912: $GPGSV,3,3,11,05,17,075,29,27,06,327,30,138,38,213,46*76
2017-12-01 11:33:52 1512146032.779202: $GPZDA,163353.00,01,12,2017,00,00*61
2017-12-01 11:33:52 1512146032.779387: $GPGGA,163353,3946.9588,N,08404.9830,W,2,11,0.80,297.47,M,-33.324,M,,*73
2017-12-01 11:33:52 1512146032.779457: $GPRMC,163353,A,3946.9588,N,08404.9830,W,0.0000,0.000,011217,,*34
2017-12-01 11:33:52 1512146032.779519: $GPGSA,A,3,10,13,15,18,20,21,24,29,5,27,138,,2.0,0.8,1.5*34
2017-12-01 11:33:53 1512146033.335090: $GPZDA,163354.00,01,12,2017,00,00*66
2017-12-01 11:33:53 1512146033.335287: $GPGGA,163354,3946.9584,N,08404.9831,W,2,11,0.80,298.24,M,-33.324,M,,*73
2017-12-01 11:33:53 1512146033.335355: $GPRMC,163354,A,3946.9584,N,08404.9831,W,0.0000,0.000,011217,,*3E
2017-12-01 11:33:53 1512146033.335419: $GPGSA,A,3,10,13,15,18,20,21,24,29,5,27,138,,2.0,0.8,1.5*34
