2017-12-14 12:11:25 1513271485.463126: {"class":"VERSION","release":"3.16","rev":"3.16-4","proto_major":3,"proto_minor":11}
2017-12-14 12:11:25 1513271485.463489: {"class":"DEVICES","devices":[{"class":"DEVICE","path":"/dev/ttyUSB0","driver":"SiRF","subtype":"9\u0006GSD4e_4.1.2-P1_RPATCH.05-F-GPS-4R-1510281 11/03/2015 307","activated":"2017-12-14T17:11:25.337Z","flags":1,"native":1,"bps":4800,"parity":"N","stopbits":1,"cycle":1.00}]}
2017-12-14 12:11:25 1513271485.463601: {"class":"WATCH","enable":true,"json":false,"nmea":true,"raw":0,"scaled":false,"timing":false,"split24":false,"pps":false}
2017-12-14 12:11:26 1513271486.195769: $GPZDA,171127.00,14,12,2017,00,00*67
2017-12-14 12:11:26 1513271486.195937: $GPGGA,171127,3946.9572,N,08404.9389,W,1,08,2.00,349.37,M,-33.324,M,,*79
2017-12-14 12:11:26 1513271486.196004: $GPRMC,171127,A,3946.9572,N,08404.9389,W,1.6172,1.775,141217,,*39
2017-12-14 12:11:26 1513271486.196065: $GPGSA,A,3,24,10,15,18,21,32,20,27,,,,,6.6,2.0,6.2*3B
2017-12-14 12:11:27 1513271487.531171: $GPGSV,3,1,12,24,49,115,29,10,39,298,20,15,40,051,16,18,69,331,12*70
2017-12-14 12:11:27 1513271487.531348: $GPGSV,3,2,12,21,66,190,25,32,19,235,04,20,36,093,16,27,19,292,08*78
2017-12-14 12:11:27 1513271487.531415: $GPGSV,3,3,12,14,01,231,14,13,10,048,00,08,05,325,00,138,38,213,00*4C
2017-12-14 12:11:27 1513271487.644822: $GPZDA,171128.00,14,12,2017,00,00*68
2017-12-14 12:11:27 1513271487.644966: $GPGGA,171128,3946.9577,N,08404.9396,W,1,07,2.00,349.93,M,-33.324,M,,*7C
2017-12-14 12:11:27 1513271487.645031: $GPRMC,171128,A,3946.9577,N,08404.9396,W,0.9489,14.756,141217,,*07
2017-12-14 12:11:27 1513271487.645093: $GPGSA,A,3,24,10,15,18,21,20,27,,,,,,6.6,2.0,6.2*3A
2017-12-14 12:11:28 1513271488.195946: $GPZDA,171129.00,14,12,2017,00,00*69
2017-12-14 12:11:28 1513271488.196102: $GPGGA,171129,3946.9573,N,08404.9389,W,1,07,2.00,350.77,M,-33.324,M,,*75
2017-12-14 12:11:28 1513271488.196169: $GPRMC,171129,A,3946.9573,N,08404.9389,W,0.6156,20.604,141217,,*05
2017-12-14 12:11:28 1513271488.196232: $GPGSA,A,3,24,10,15,18,21,20,27,,,,,,6.6,2.0,6.2*3A
2017-12-14 12:11:29 1513271489.197315: $GPZDA,171130.00,14,12,2017,00,00*61
2017-12-14 12:11:29 1513271489.197475: $GPGGA,171130,3946.9574,N,08404.9390,W,1,07,2.00,352.18,M,-33.324,M,,*79
2017-12-14 12:11:29 1513271489.197542: $GPRMC,171130,A,3946.9574,N,08404.9390,W,0.8866,52.140,141217,,*04
2017-12-14 12:11:29 1513271489.197605: $GPGSA,A,3,24,10,15,18,21,20,27,,,,,,6.6,2.0,6.2*3A
2017-12-14 12:11:30 1513271490.533519: $GPGSV,3,1,12,24,49,115,29,10,39,298,21,15,40,051,15,18,69,331,12*72
2017-12-14 12:11:30 1513271490.533686: $GPGSV,3,2,12,21,66,190,24,32,19,235,06,20,36,093,17,27,19,292,05*77
2017-12-14 12:11:30 1513271490.533756: $GPGSV,3,3,12,14,01,231,12,13,10,048,00,08,05,325,00,138,38,213,00*4A
2017-12-14 12:11:30 1513271490.647341: $GPZDA,171131.00,14,12,2017,00,00*60
2017-12-14 12:11:30 1513271490.647507: $GPGGA,171131,3946.9574,N,08404.9390,W,1,09,2.00,352.18,M,-33.324,M,,*76
2017-12-14 12:11:30 1513271490.647576: $GPRMC,171131,A,3946.9574,N,08404.9390,W,0.7048,73.277,141217,,*0A
2017-12-14 12:11:30 1513271490.647639: $GPGSA,A,3,24,10,15,18,21,32,20,27,14,,,,6.6,2.0,6.2*3E
2017-12-14 12:11:31 1513271491.214925: $GPZDA,171132.00,14,12,2017,00,00*63
2017-12-14 12:11:31 1513271491.215101: $GPGGA,171132,3946.9571,N,08404.9398,W,1,09,2.00,352.86,M,-33.324,M,,*7F
2017-12-14 12:11:31 1513271491.215170: $GPRMC,171132,A,3946.9571,N,08404.9398,W,0.1176,219.708,141217,,*3D
2017-12-14 12:11:31 1513271491.215232: $GPGSA,A,3,24,10,15,18,21,32,20,27,14,,,,6.6,2.0,6.2*3E
2017-12-14 12:11:32 1513271492.199550: $GPZDA,171133.00,14,12,2017,00,00*62
2017-12-14 12:11:32 1513271492.199725: $GPGGA,171133,3946.9571,N,08404.9398,W,1,09,2.00,352.86,M,-33.324,M,,*7E
2017-12-14 12:11:32 1513271492.199791: $GPRMC,171133,A,3946.9571,N,08404.9398,W,0.3954,312.450,141217,,*32
2017-12-14 12:11:32 1513271492.199854: $GPGSA,A,3,24,10,15,18,21,32,20,27,14,,,,6.6,2.0,6.2*3E
2017-12-14 12:11:33 1513271493.550624: $GPGSV,3,1,12,24,49,115,29,10,39,298,21,15,40,051,15,18,69,331,12*72
2017-12-14 12:11:33 1513271493.550857: $GPGSV,3,2,12,21,66,190,24,32,19,235,06,20,36,093,17,27,19,292,10*73
2017-12-14 12:11:33 1513271493.550927: $GPGSV,3,3,12,14,01,231,12,13,10,048,00,08,05,325,00,138,38,213,00*4A
2017-12-14 12:11:33 1513271493.664559: $GPZDA,171134.00,14,12,2017,00,00*65
2017-12-14 12:11:33 1513271493.664737: $GPGGA,171134,3946.9578,N,08404.9397,W,1,09,2.00,352.74,M,-33.324,M,,*72
2017-12-14 12:11:33 1513271493.664804: $GPRMC,171134,A,3946.9578,N,08404.9397,W,0.4063,356.465,141217,,*3F
2017-12-14 12:11:33 1513271493.664866: $GPGSA,A,3,24,10,15,18,21,32,20,27,14,,,,6.6,2.0,6.2*3E
2017-12-14 12:11:34 1513271494.199470: $GPZDA,171135.00,14,12,2017,00,00*64
2017-12-14 12:11:34 1513271494.199643: $GPGGA,171135,3946.9578,N,08404.9397,W,1,09,2.00,352.74,M,-33.324,M,,*73
2017-12-14 12:11:34 1513271494.199713: $GPRMC,171135,A,3946.9578,N,08404.9397,W,0.7469,0.000,141217,,*34
2017-12-14 12:11:34 1513271494.199775: $GPGSA,A,3,24,10,15,18,21,32,20,27,14,,,,6.6,2.0,6.2*3E
2017-12-14 12:11:35 1513271495.214531: $GPZDA,171136.00,14,12,2017,00,00*67
2017-12-14 12:11:35 1513271495.214708: $GPGGA,171136,3946.9579,N,08404.9405,W,1,09,2.00,354.06,M,-33.324,M,,*7E
2017-12-14 12:11:35 1513271495.214775: $GPRMC,171136,A,3946.9579,N,08404.9405,W,0.5928,357.578,141217,,*3B
2017-12-14 12:11:35 1513271495.214837: $GPGSA,A,3,24,10,15,18,21,32,20,27,14,,,,6.6,2.0,6.2*3E
2017-12-14 12:11:36 1513271496.549202: $GPGSV,3,1,12,24,49,115,29,10,39,298,21,15,40,051,15,18,69,331,13*73
2017-12-14 12:11:36 1513271496.549384: $GPGSV,3,2,12,21,66,190,24,32,19,235,05,20,36,093,17,27,19,292,11*71
2017-12-14 12:11:36 1513271496.549451: $GPGSV,3,3,12,14,01,231,12,13,10,048,00,08,05,325,00,138,38,213,00*4A
2017-12-14 12:11:36 1513271496.663179: $GPZDA,171137.00,14,12,2017,00,00*66
2017-12-14 12:11:36 1513271496.663361: $GPGGA,171137,3946.9576,N,08404.9405,W,1,08,2.00,354.83,M,-33.324,M,,*7C
2017-12-14 12:11:36 1513271496.663429: $GPRMC,171137,A,3946.9576,N,08404.9405,W,0.0814,322.011,141217,,*36
2017-12-14 12:11:36 1513271496.663490: $GPGSA,A,3,24,10,15,18,21,20,27,14,,,,,6.6,2.0,6.2*3F
2017-12-14 12:11:37 1513271497.216334: $GPZDA,171138.00,14,12,2017,00,00*69
2017-12-14 12:11:37 1513271497.216501: $GPGGA,171138,3946.9575,N,08404.9412,W,1,08,2.00,353.34,M,-33.324,M,,*7D
2017-12-14 12:11:37 1513271497.216570: $GPRMC,171138,A,3946.9575,N,08404.9412,W,0.0407,322.011,141217,,*32
2017-12-14 12:11:37 1513271497.216634: $GPGSA,A,3,24,10,15,18,21,20,27,14,,,,,6.6,2.0,6.2*3F
2017-12-14 12:11:38 1513271498.215168: $GPZDA,171139.00,14,12,2017,00,00*68
2017-12-14 12:11:38 1513271498.215352: $GPGGA,171139,3946.9571,N,08404.9412,W,1,08,2.00,352.70,M,-33.324,M,,*79
2017-12-14 12:11:38 1513271498.215420: $GPRMC,171139,A,3946.9571,N,08404.9412,W,0.4137,224.855,141217,,*3A
2017-12-14 12:11:38 1513271498.215481: $GPGSA,A,3,24,10,15,18,21,20,27,14,,,,,6.6,2.0,6.2*3F
2017-12-14 12:11:39 1513271499.551028: $GPGSV,3,1,12,24,49,115,28,10,39,298,21,15,40,051,15,18,69,331,14*75
2017-12-14 12:11:39 1513271499.551224: $GPGSV,3,2,12,21,66,190,24,32,19,235,04,20,36,093,18,27,19,292,12*7C
2017-12-14 12:11:39 1513271499.551296: $GPGSV,3,3,12,14,01,231,05,13,10,048,00,08,05,325,00,138,38,213,00*4C
2017-12-14 12:11:39 1513271499.664764: $GPZDA,171140.00,14,12,2017,00,00*66
2017-12-14 12:11:39 1513271499.664931: $GPGGA,171140,3946.9564,N,08404.9412,W,1,07,2.00,352.83,M,-33.324,M,,*70
2017-12-14 12:11:39 1513271499.664998: $GPRMC,171140,A,3946.9564,N,08404.9412,W,0.4137,224.855,141217,,*30
2017-12-14 12:11:39 1513271499.665060: $GPGSA,A,3,24,10,15,18,21,20,27,,,,,,6.6,2.0,6.2*3A
2017-12-14 12:11:40 1513271500.217113: $GPZDA,171141.00,14,12,2017,00,00*67
2017-12-14 12:11:40 1513271500.217281: $GPGGA,171141,3946.9559,N,08404.9419,W,1,07,2.00,350.71,M,-33.324,M,,*7B
2017-12-14 12:11:40 1513271500.217348: $GPRMC,171141,A,3946.9559,N,08404.9419,W,0.7070,228.986,141217,,*36
2017-12-14 12:11:40 1513271500.217411: $GPGSA,A,3,24,10,15,18,21,20,27,,,,,,6.6,2.0,6.2*3A
2017-12-14 12:11:41 1513271501.216100: $GPZDA,171142.00,14,12,2017,00,00*64
2017-12-14 12:11:41 1513271501.219779: $GPGGA,171142,3946.9559,N,08404.9419,W,1,07,2.00,350.71,M,-33.324,M,,*78
2017-12-14 12:11:41 1513271501.219961: $GPRMC,171142,A,3946.9559,N,08404.9419,W,0.3006,242.540,141217,,*3A
2017-12-14 12:11:41 1513271501.220025: $GPGSA,A,3,24,10,15,18,21,20,27,,,,,,6.6,2.0,6.2*3A
2017-12-14 12:11:42 1513271502.536691: $GPGSV,3,1,12,24,49,115,28,10,39,298,22,15,40,051,16,18,69,331,14*75
2017-12-14 12:11:42 1513271502.536892: $GPGSV,3,2,12,21,66,190,24,32,19,235,05,20,36,093,18,27,19,292,12*7D
2017-12-14 12:11:42 1513271502.536980: $GPGSV,3,3,12,14,01,231,05,13,10,048,00,08,05,325,00,120,07,103,00*4B
2017-12-14 12:11:42 1513271502.650294: $GPZDA,171143.00,14,12,2017,00,00*65
2017-12-14 12:11:42 1513271502.650452: $GPGGA,171143,3946.9555,N,08404.9419,W,1,07,2.00,350.07,M,-33.324,M,,*74
2017-12-14 12:11:42 1513271502.650518: $GPRMC,171143,A,3946.9555,N,08404.9419,W,0.3423,184.197,141217,,*33
2017-12-14 12:11:42 1513271502.650599: $GPGSA,A,3,24,10,15,18,21,20,27,,,,,,6.6,2.0,6.2*3A
2017-12-14 12:11:43 1513271503.217923: $GPZDA,171144.00,14,12,2017,00,00*62
2017-12-14 12:11:43 1513271503.218093: $GPGGA,171144,3946.9555,N,08404.9425,W,1,07,2.00,348.58,M,-33.324,M,,*7F
2017-12-14 12:11:43 1513271503.218160: $GPRMC,171144,A,3946.9555,N,08404.9425,W,0.2422,273.795,141217,,*34
2017-12-14 12:11:43 1513271503.218221: $GPGSA,A,3,24,10,15,18,21,20,27,,,,,,6.6,2.0,6.2*3A
2017-12-14 12:11:44 1513271504.200362: $GPZDA,171145.00,14,12,2017,00,00*63
2017-12-14 12:11:44 1513271504.200533: $GPGGA,171145,3946.9547,N,08404.9426,W,1,07,2.00,348.71,M,-33.324,M,,*75
2017-12-14 12:11:44 1513271504.200603: $GPRMC,171145,A,3946.9547,N,08404.9426,W,0.4207,219.347,141217,,*35
2017-12-14 12:11:44 1513271504.200668: $GPGSA,A,3,24,10,15,18,21,20,27,,,,,,6.6,2.0,6.2*3A
