2017-12-01 11:30:49 1512145849.526783: {"class":"VERSION","release":"3.16","rev":"3.16-4","proto_major":3,"proto_minor":11}
2017-12-01 11:30:49 1512145849.527195: {"class":"DEVICES","devices":[{"class":"DEVICE","path":"/dev/ttyUSB0","driver":"SiRF","subtype":"9\u0006GSD4e_4.1.2-P1_RPATCH.05-F-GPS-4R-1510281 11/03/2015 307","activated":"2017-12-01T16:30:49.516Z","flags":1,"native":1,"bps":4800,"parity":"N","stopbits":1,"cycle":1.00}]}
2017-12-01 11:30:49 1512145849.527320: {"class":"WATCH","enable":true,"json":false,"nmea":true,"raw":0,"scaled":false,"timing":false,"split24":false,"pps":false}
2017-12-01 11:30:50 1512145850.352421: $GPZDA,163051.00,01,12,2017,00,00*60
2017-12-01 11:30:50 1512145850.352629: $GPGGA,163051,3946.9572,N,08404.9868,W,2,11,0.80,299.49,M,-33.324,M,,*7A
2017-12-01 11:30:50 1512145850.352699: $GPRMC,163051,A,3946.9572,N,08404.9868,W,0.0000,0.000,011217,,*3D
2017-12-01 11:30:50 1512145850.352761: $GPGSA,A,3,5,10,13,15,18,20,21,24,27,29,138,,2.0,0.8,1.5*34
2017-12-01 11:30:51 1512145851.686750: $GPGSV,3,1,12,05,18,073,37,10,09,268,32,13,48,054,46,15,78,097,48*75
2017-12-01 11:30:51 1512145851.686938: $GPGSV,3,2,12,18,40,280,43,20,66,040,43,21,62,309,47,24,15,151,40*77
2017-12-01 11:30:51 1512145851.687007: $GPGSV,3,3,12,27,05,327,36,29,30,196,47,30,01,030,14,138,38,213,46*4B
2017-12-01 11:30:51 1512145851.800436: $GPZDA,163052.00,01,12,2017,00,00*63
2017-12-01 11:30:51 1512145851.800624: $GPGGA,163052,3946.9572,N,08404.9868,W,2,12,0.80,299.49,M,-33.324,M,,*7A
2017-12-01 11:30:51 1512145851.800709: $GPRMC,163052,A,3946.9572,N,08404.9868,W,0.0000,0.000,011217,,*3E
2017-12-01 11:30:51 1512145851.800775: $GPGSA,A,3,5,10,13,15,18,20,21,24,27,29,30,138,2.0,0.8,1.5*37
2017-12-01 11:30:52 1512145852.352869: $GPZDA,163053.00,01,12,2017,00,00*62
2017-12-01 11:30:52 1512145852.353060: $GPGGA,163053,3946.9572,N,08404.9868,W,2,12,0.80,299.49,M,-33.324,M,,*7B
2017-12-01 11:30:52 1512145852.353127: $GPRMC,163053,A,3946.9572,N,08404.9868,W,0.0000,0.000,011217,,*3F
2017-12-01 11:30:52 1512145852.353190: $GPGSA,A,3,5,10,13,15,18,20,21,24,27,29,30,138,2.0,0.8,1.5*37
2017-12-01 11:30:53 1512145853.350903: $GPZDA,163054.00,01,12,2017,00,00*65
2017-12-01 11:30:53 1512145853.351073: $GPGGA,163054,3946.9572,N,08404.9868,W,2,12,0.80,299.49,M,-33.324,M,,*7C
2017-12-01 11:30:53 1512145853.351139: $GPRMC,163054,A,3946.9572,N,08404.9868,W,0.0000,0.000,011217,,*38
2017-12-01 11:30:53 1512145853.351202: $GPGSA,A,3,5,10,13,15,18,20,21,24,27,29,30,138,2.0,0.8,1.5*37
2017-12-01 11:30:54 1512145854.684953: $GPGSV,3,1,12,05,18,073,37,10,09,268,39,13,48,054,46,15,78,097,48*7E
2017-12-01 11:30:54 1512145854.685137: $GPGSV,3,2,12,18,40,280,43,20,66,040,43,21,62,309,47,24,15,151,40*77
2017-12-01 11:30:54 1512145854.685205: $GPGSV,3,3,12,27,05,327,35,29,30,196,48,04,17,127,00,138,38,213,46*45
2017-12-01 11:30:54 1512145854.798674: $GPZDA,163055.00,01,12,2017,00,00*64
2017-12-01 11:30:54 1512145854.798843: $GPGGA,163055,3946.9568,N,08404.9869,W,2,11,0.80,300.26,M,-33.324,M,,*7C
2017-12-01 11:30:54 1512145854.798912: $GPRMC,163055,A,3946.9568,N,08404.9869,W,0.0000,0.000,011217,,*33
2017-12-01 11:30:54 1512145854.798973: $GPGSA,A,3,5,10,13,15,18,20,21,24,27,29,138,,2.0,0.8,1.5*34
2017-12-01 11:30:55 1512145855.423999: $GPZDA,163056.00,01,12,2017,00,00*67
2017-12-01 11:30:55 1512145855.424171: $GPGGA,163056,3946.9568,N,08404.9869,W,2,11,0.80,300.26,M,-33.324,M,,*7F
2017-12-01 11:30:55 1512145855.424239: $GPRMC,163056,A,3946.9568,N,08404.9869,W,0.0000,0.000,011217,,*30
2017-12-01 11:30:55 1512145855.424301: $GPGSA,A,3,5,10,13,15,18,20,21,24,27,29,138,,2.0,0.8,1.5*34
2017-12-01 11:30:56 1512145856.351159: $GPZDA,163057.00,01,12,2017,00,00*66
2017-12-01 11:30:56 1512145856.351325: $GPGGA,163057,3946.9568,N,08404.9869,W,2,11,0.80,300.26,M,-33.324,M,,*7E
2017-12-01 11:30:56 1512145856.351508: $GPRMC,163057,A,3946.9568,N,08404.9869,W,0.0000,0.000,011217,,*31
2017-12-01 11:30:56 1512145856.351577: $GPGSA,A,3,5,10,13,15,18,20,21,24,27,29,138,,2.0,0.8,1.5*34
2017-12-01 11:30:57 1512145857.692799: $GPGSV,3,1,12,05,18,073,37,10,09,268,37,13,48,054,46,15,78,097,48*70
2017-12-01 11:30:57 1512145857.693034: $GPGSV,3,2,12,18,40,280,43,20,66,040,43,21,62,309,47,24,15,151,40*77
2017-12-01 11:30:57 1512145857.693105: $GPGSV,3,3,12,27,05,327,35,29,30,196,48,04,17,127,00,138,38,213,47*44
2017-12-01 11:30:57 1512145857.806164: $GPZDA,163058.00,01,12,2017,00,00*69
2017-12-01 11:30:57 1512145857.806349: $GPGGA,163058,3946.9568,N,08404.9869,W,2,11,0.80,300.26,M,-33.324,M,,*71
2017-12-01 11:30:57 1512145857.806425: $GPRMC,163058,A,3946.9568,N,08404.9869,W,0.0000,0.000,011217,,*3E
2017-12-01 11:30:57 1512145857.806489: $GPGSA,A,3,5,10,13,15,18,20,21,24,27,29,138,,2.0,0.8,1.5*34
2017-12-01 11:30:58 1512145858.353236: $GPZDA,163059.00,01,12,2017,00,00*68
2017-12-01 11:30:58 1512145858.353413: $GPGGA,163059,3946.9568,N,08404.9869,W,2,11,0.80,300.26,M,-33.324,M,,*70
2017-12-01 11:30:58 1512145858.353480: $GPRMC,163059,A,3946.9568,N,08404.9869,W,0.0000,0.000,011217,,*3F
2017-12-01 11:30:58 1512145858.353545: $GPGSA,A,3,5,10,13,15,18,20,21,24,27,29,138,,2.0,0.8,1.5*34
2017-12-01 11:30:59 1512145859.350610: $GPZDA,163100.00,01,12,2017,00,00*65
2017-12-01 11:30:59 1512145859.350788: $GPGGA,163100,3946.9568,N,08404.9869,W,2,11,0.80,300.26,M,-33.324,M,,*7D
2017-12-01 11:30:59 1512145859.350856: $GPRMC,163100,A,3946.9568,N,08404.9869,W,0.0000,0.000,011217,,*32
2017-12-01 11:30:59 1512145859.350919: $GPGSA,A,3,5,10,13,15,18,20,21,24,27,29,138,,2.0,0.8,1.5*34
