2017-12-29 11:17:38 1514564258.236964: {"class":"VERSION","release":"3.16","rev":"3.16-4","proto_major":3,"proto_minor":11}
2017-12-29 11:17:38 1514564258.237300: {"class":"DEVICES","devices":[{"class":"DEVICE","path":"/dev/ttyUSB0","driver":"SiRF","subtype":"9\u0006GSD4e_4.1.2-P1_RPATCH.05-F-GPS-4R-1510281 11/03/2015 307","activated":"2017-12-29T16:17:38.201Z","flags":1,"native":1,"bps":4800,"parity":"N","stopbits":1,"cycle":1.00}]}
2017-12-29 11:17:38 1514564258.237414: {"class":"WATCH","enable":true,"json":false,"nmea":true,"raw":0,"scaled":false,"timing":false,"split24":false,"pps":false}
2017-12-29 11:17:38 1514564258.714536: $GPGSV,3,1,12,08,05,322,27,10,42,301,41,15,37,052,46,18,71,339,41*75
2017-12-29 11:17:38 1514564258.714718: $GPGSV,3,2,12,20,34,096,47,21,63,189,42,24,51,109,44,27,19,289,35*70
2017-12-29 11:17:38 1514564258.714784: $GPGSV,3,3,12,32,22,238,35,13,07,048,00,14,03,232,00,138,38,213,45*48
2017-12-29 11:17:38 1514564258.827979: $GPZDA,161739.00,29,12,2017,00,00*61
2017-12-29 11:17:38 1514564258.828090: $GPGGA,161739,3946.9566,N,08404.9818,W,2,10,1.20,310.08,M,-33.324,M,,*7C
2017-12-29 11:17:38 1514564258.828155: $GPRMC,161739,A,3946.9566,N,08404.9818,W,0.0000,0.000,291217,,*3E
2017-12-29 11:17:38 1514564258.828215: $GPGSA,A,3,8,10,15,18,20,21,24,27,32,138,,,1.7,1.2,1.3*38
2017-12-29 11:17:39 1514564259.453339: $GPZDA,161740.00,29,12,2017,00,00*6F
2017-12-29 11:17:39 1514564259.453494: $GPGGA,161740,3946.9566,N,08404.9818,W,2,10,1.20,310.08,M,-33.324,M,,*72
2017-12-29 11:17:39 1514564259.453561: $GPRMC,161740,A,3946.9566,N,08404.9818,W,0.0000,0.000,291217,,*30
2017-12-29 11:17:39 1514564259.453621: $GPGSA,A,3,8,10,15,18,20,21,24,27,32,138,,,1.7,1.2,1.3*38
2017-12-29 11:17:40 1514564260.377922: $GPZDA,161741.00,29,12,2017,00,00*6E
2017-12-29 11:17:40 1514564260.378087: $GPGGA,161741,3946.9570,N,08404.9817,W,2,10,1.20,309.32,M,-33.324,M,,*7A
2017-12-29 11:17:40 1514564260.378152: $GPRMC,161741,A,3946.9570,N,08404.9817,W,0.0000,0.000,291217,,*39
2017-12-29 11:17:40 1514564260.378213: $GPGSA,A,3,8,10,15,18,20,21,24,27,32,138,,,1.7,1.2,1.3*38
2017-12-29 11:17:41 1514564261.717368: $GPGSV,3,1,12,08,05,322,28,10,42,301,41,15,37,052,46,18,71,339,41*7A
2017-12-29 11:17:41 1514564261.717533: $GPGSV,3,2,12,20,34,096,48,21,63,189,43,24,51,109,45,27,19,289,35*7F
2017-12-29 11:17:41 1514564261.717599: $GPGSV,3,3,12,32,22,238,36,14,03,232,04,13,07,048,00,138,38,213,44*4E
2017-12-29 11:17:41 1514564261.830773: $GPZDA,161742.00,29,12,2017,00,00*6D
2017-12-29 11:17:41 1514564261.830930: $GPGGA,161742,3946.9570,N,08404.9824,W,2,10,1.20,309.24,M,-33.324,M,,*7E
2017-12-29 11:17:41 1514564261.830995: $GPRMC,161742,A,3946.9570,N,08404.9824,W,0.0000,0.000,291217,,*3A
2017-12-29 11:17:41 1514564261.831116: $GPGSA,A,3,8,10,15,18,20,21,24,27,32,138,,,1.7,1.2,1.3*38
2017-12-29 11:17:42 1514564262.380423: $GPZDA,161743.00,29,12,2017,00,00*6C
2017-12-29 11:17:42 1514564262.380586: $GPGGA,161743,3946.9570,N,08404.9824,W,2,10,1.40,309.24,M,-33.324,M,,*79
2017-12-29 11:17:42 1514564262.380651: $GPRMC,161743,A,3946.9570,N,08404.9824,W,0.0000,0.000,291217,,*3B
2017-12-29 11:17:42 1514564262.380733: $GPGSA,A,3,8,10,15,18,20,21,24,27,32,138,,,1.7,1.4,1.3*3E
2017-12-29 11:17:43 1514564263.380051: $GPZDA,161744.00,29,12,2017,00,00*6B
2017-12-29 11:17:43 1514564263.380230: $GPGGA,161744,3946.9570,N,08404.9824,W,2,10,1.20,309.24,M,-33.324,M,,*78
2017-12-29 11:17:43 1514564263.380316: $GPRMC,161744,A,3946.9570,N,08404.9824,W,0.0000,0.000,291217,,*3C
2017-12-29 11:17:43 1514564263.380379: $GPGSA,A,3,8,10,15,18,20,21,24,27,32,138,,,1.7,1.2,1.3*38
2017-12-29 11:17:44 1514564264.716484: $GPGSV,3,1,12,08,05,322,29,10,42,301,41,15,37,052,46,18,71,339,41*7B
2017-12-29 11:17:44 1514564264.716642: $GPGSV,3,2,12,20,34,096,47,21,63,189,43,24,51,109,44,27,19,289,35*71
2017-12-29 11:17:44 1514564264.716726: $GPGSV,3,3,12,32,22,238,35,14,03,232,18,13,07,048,00,138,38,213,46*42
2017-12-29 11:17:44 1514564264.829878: $GPZDA,161745.00,29,12,2017,00,00*6A
2017-12-29 11:17:44 1514564264.830008: $GPGGA,161745,3946.9570,N,08404.9824,W,2,11,1.20,309.24,M,-33.324,M,,*78
2017-12-29 11:17:44 1514564264.830124: $GPRMC,161745,A,3946.9570,N,08404.9824,W,0.0000,0.000,291217,,*3D
2017-12-29 11:17:44 1514564264.830186: $GPGSA,A,3,8,10,15,18,20,21,24,27,32,14,138,,1.7,1.2,1.3*3D
2017-12-29 11:17:45 1514564265.379506: $GPZDA,161746.00,29,12,2017,00,00*69
2017-12-29 11:17:45 1514564265.379694: $GPGGA,161746,3946.9570,N,08404.9824,W,2,11,1.20,309.24,M,-33.324,M,,*7B
2017-12-29 11:17:45 1514564265.379761: $GPRMC,161746,A,3946.9570,N,08404.9824,W,0.0000,0.000,291217,,*3E
2017-12-29 11:17:45 1514564265.379838: $GPGSA,A,3,8,10,15,18,20,21,24,27,32,14,138,,1.7,1.2,1.3*3D
2017-12-29 11:17:46 1514564266.380423: $GPZDA,161747.00,29,12,2017,00,00*68
2017-12-29 11:17:46 1514564266.380588: $GPGGA,161747,3946.9570,N,08404.9824,W,2,11,1.20,309.24,M,-33.324,M,,*7A
2017-12-29 11:17:46 1514564266.380673: $GPRMC,161747,A,3946.9570,N,08404.9824,W,0.0000,0.000,291217,,*3F
2017-12-29 11:17:46 1514564266.380737: $GPGSA,A,3,8,10,15,18,20,21,24,27,32,14,138,,1.7,1.2,1.3*3D
2017-12-29 11:17:47 1514564267.716094: $GPGSV,3,1,12,08,05,322,29,10,42,301,42,15,37,052,46,18,71,339,41*78
2017-12-29 11:17:47 1514564267.716245: $GPGSV,3,2,12,20,34,096,47,21,63,189,43,24,51,109,44,27,19,289,35*71
2017-12-29 11:17:47 1514564267.716310: $GPGSV,3,3,12,32,22,238,36,13,07,048,00,14,03,232,00,138,38,213,45*4B
2017-12-29 11:17:47 1514564267.829475: $GPZDA,161748.00,29,12,2017,00,00*67
2017-12-29 11:17:47 1514564267.829599: $GPGGA,161748,3946.9567,N,08404.9825,W,2,10,1.20,310.00,M,-33.324,M,,*7D
2017-12-29 11:17:47 1514564267.829683: $GPRMC,161748,A,3946.9567,N,08404.9825,W,0.0000,0.000,291217,,*37
2017-12-29 11:17:47 1514564267.829745: $GPGSA,A,3,8,10,15,18,20,21,24,27,32,138,,,1.7,1.2,1.3*38
2017-12-29 11:17:48 1514564268.379133: $GPZDA,161749.00,29,12,2017,00,00*66
2017-12-29 11:17:48 1514564268.382730: $GPGGA,161749,3946.9567,N,08404.9825,W,2,10,1.20,310.00,M,-33.324,M,,*7C
2017-12-29 11:17:48 1514564268.382866: $GPRMC,161749,A,3946.9567,N,08404.9825,W,0.0000,0.000,291217,,*36
2017-12-29 11:17:48 1514564268.382963: $GPGSA,A,3,8,10,15,18,20,21,24,27,32,138,,,1.7,1.2,1.3*38
2017-12-29 11:17:49 1514564269.379505: $GPZDA,161750.00,29,12,2017,00,00*6E
2017-12-29 11:17:49 1514564269.379692: $GPGGA,161750,3946.9566,N,08404.9818,W,2,10,1.20,310.08,M,-33.324,M,,*73
2017-12-29 11:17:49 1514564269.379761: $GPRMC,161750,A,3946.9566,N,08404.9818,W,0.3423,4.197,291217,,*3C
2017-12-29 11:17:49 1514564269.379839: $GPGSA,A,3,8,10,15,18,20,21,24,27,32,138,,,1.7,1.2,1.3*38
2017-12-29 11:17:50 1514564270.715261: $GPGSV,3,1,12,08,05,322,30,10,42,301,42,15,37,052,46,18,71,339,41*70
2017-12-29 11:17:50 1514564270.715435: $GPGSV,3,2,12,20,34,096,47,21,63,189,43,24,51,109,44,27,19,289,35*71
2017-12-29 11:17:50 1514564270.715501: $GPGSV,3,3,12,32,22,238,35,13,07,048,00,14,03,232,00,138,38,213,44*49
2017-12-29 11:17:50 1514564270.828994: $GPZDA,161751.00,29,12,2017,00,00*6F
2017-12-29 11:17:50 1514564270.829134: $GPGGA,161751,3946.9567,N,08404.9819,W,2,10,1.20,311.49,M,-33.324,M,,*76
2017-12-29 11:17:50 1514564270.829200: $GPRMC,161751,A,3946.9567,N,08404.9819,W,0.4844,93.794,291217,,*0C
2017-12-29 11:17:50 1514564270.829261: $GPGSA,A,3,8,10,15,18,20,21,24,27,32,138,,,1.7,1.2,1.3*38
2017-12-29 11:17:51 1514564271.379898: $GPZDA,161752.00,29,12,2017,00,00*6C
2017-12-29 11:17:51 1514564271.380062: $GPGGA,161752,3946.9558,N,08404.9812,W,2,10,1.20,310.28,M,-33.324,M,,*74
2017-12-29 11:17:51 1514564271.380128: $GPRMC,161752,A,3946.9558,N,08404.9812,W,0.1567,9.200,291217,,*3A
2017-12-29 11:17:51 1514564271.380188: $GPGSA,A,3,8,10,15,18,20,21,24,27,32,138,,,1.7,1.2,1.3*38
2017-12-29 11:17:52 1514564272.379143: $GPZDA,161753.00,29,12,2017,00,00*6D
2017-12-29 11:17:52 1514564272.379305: $GPGGA,161753,3946.9558,N,08404.9812,W,2,10,1.20,310.28,M,-33.324,M,,*75
2017-12-29 11:17:52 1514564272.379370: $GPRMC,161753,A,3946.9558,N,08404.9812,W,0.0000,0.000,291217,,*35
2017-12-29 11:17:52 1514564272.379431: $GPGSA,A,3,8,10,15,18,20,21,24,27,32,138,,,1.7,1.2,1.3*38
2017-12-29 11:17:53 1514564273.714829: $GPGSV,3,1,12,08,05,322,30,10,42,301,42,15,37,052,45,18,71,339,42*70
2017-12-29 11:17:53 1514564273.715048: $GPGSV,3,2,12,20,34,096,47,21,63,189,43,24,51,109,45,27,19,289,35*70
2017-12-29 11:17:53 1514564273.715116: $GPGSV,3,3,12,32,22,238,35,13,07,048,00,14,03,232,00,138,38,213,44*49
2017-12-29 11:17:53 1514564273.828303: $GPZDA,161754.00,29,12,2017,00,00*6A
2017-12-29 11:17:53 1514564273.828440: $GPGGA,161754,3946.9558,N,08404.9812,W,2,10,1.20,310.28,M,-33.324,M,,*72
2017-12-29 11:17:53 1514564273.828505: $GPRMC,161754,A,3946.9558,N,08404.9812,W,0.0000,0.000,291217,,*32
2017-12-29 11:17:53 1514564273.828565: $GPGSA,A,3,8,10,15,18,20,21,24,27,32,138,,,1.7,1.2,1.3*38
2017-12-29 11:17:54 1514564274.453578: $GPZDA,161755.00,29,12,2017,00,00*6B
2017-12-29 11:17:54 1514564274.453781: $GPGGA,161755,3946.9558,N,08404.9812,W,2,10,1.20,310.28,M,-33.324,M,,*73
2017-12-29 11:17:54 1514564274.453850: $GPRMC,161755,A,3946.9558,N,08404.9812,W,0.0000,0.000,291217,,*33
2017-12-29 11:17:54 1514564274.453911: $GPGSA,A,3,8,10,15,18,20,21,24,27,32,138,,,1.7,1.2,1.3*38
2017-12-29 11:17:55 1514564275.380691: $GPZDA,161756.00,29,12,2017,00,00*68
2017-12-29 11:17:55 1514564275.380883: $GPGGA,161756,3946.9558,N,08404.9812,W,2,10,1.20,310.28,M,-33.324,M,,*70
2017-12-29 11:17:55 1514564275.380952: $GPRMC,161756,A,3946.9558,N,08404.9812,W,0.0000,0.000,291217,,*30
2017-12-29 11:17:55 1514564275.381013: $GPGSA,A,3,8,10,15,18,20,21,24,27,32,138,,,1.7,1.2,1.3*38
2017-12-29 11:17:56 1514564276.716437: $GPGSV,3,1,12,08,05,322,30,10,42,301,42,15,37,052,45,18,71,339,41*73
2017-12-29 11:17:56 1514564276.716622: $GPGSV,3,2,12,20,34,096,47,21,63,189,43,24,51,109,45,27,19,289,34*71
2017-12-29 11:17:56 1514564276.716692: $GPGSV,3,3,12,32,22,238,35,13,07,048,00,14,03,232,00,138,38,213,44*49
2017-12-29 11:17:56 1514564276.828799: $GPZDA,161757.00,29,12,2017,00,00*69
2017-12-29 11:17:56 1514564276.828934: $GPGGA,161757,3946.9558,N,08404.9812,W,2,10,1.20,310.28,M,-33.324,M,,*71
2017-12-29 11:17:56 1514564276.828999: $GPRMC,161757,A,3946.9558,N,08404.9812,W,0.0000,0.000,291217,,*31
2017-12-29 11:17:56 1514564276.829059: $GPGSA,A,3,8,10,15,18,20,21,24,27,32,138,,,1.7,1.2,1.3*38
2017-12-29 11:17:57 1514564277.377247: $GPZDA,161758.00,29,12,2017,00,00*66
2017-12-29 11:17:57 1514564277.377416: $GPGGA,161758,3946.9558,N,08404.9812,W,2,10,1.20,310.28,M,-33.324,M,,*7E
2017-12-29 11:17:57 1514564277.377484: $GPRMC,161758,A,3946.9558,N,08404.9812,W,0.0000,0.000,291217,,*3E
2017-12-29 11:17:57 1514564277.377545: $GPGSA,A,3,8,10,15,18,20,21,24,27,32,138,,,1.7,1.2,1.3*38
2017-12-29 11:17:58 1514564278.381859: $GPZDA,161759.00,29,12,2017,00,00*67
2017-12-29 11:17:58 1514564278.386224: $GPGGA,161759,3946.9558,N,08404.9812,W,2,10,1.20,310.28,M,-33.324,M,,*7F
2017-12-29 11:17:58 1514564278.386327: $GPRMC,161759,A,3946.9558,N,08404.9812,W,0.0000,0.000,291217,,*3F
2017-12-29 11:17:58 1514564278.386390: $GPGSA,A,3,8,10,15,18,20,21,24,27,32,138,,,1.7,1.2,1.3*38
2017-12-29 11:17:59 1514564279.718052: $GPGSV,3,1,12,08,05,322,29,10,42,301,42,15,37,052,45,18,71,339,41*7B
2017-12-29 11:17:59 1514564279.718211: $GPGSV,3,2,12,20,34,096,47,21,63,189,43,24,51,109,45,27,19,289,26*72
2017-12-29 11:17:59 1514564279.718293: $GPGSV,3,3,12,32,22,238,35,13,07,048,00,14,03,232,00,138,38,213,44*49
2017-12-29 11:17:59 1514564279.831687: $GPZDA,161800.00,29,12,2017,00,00*64
2017-12-29 11:17:59 1514564279.831837: $GPGGA,161800,3946.9558,N,08404.9812,W,2,10,1.20,310.28,M,-33.324,M,,*7C
2017-12-29 11:17:59 1514564279.831902: $GPRMC,161800,A,3946.9558,N,08404.9812,W,0.0000,0.000,291217,,*3C
2017-12-29 11:17:59 1514564279.831962: $GPGSA,A,3,8,10,15,18,20,21,24,27,32,138,,,1.7,1.2,1.3*38
2017-12-29 11:18:00 1514564280.380061: $GPZDA,161801.00,29,12,2017,00,00*65
2017-12-29 11:18:00 1514564280.380228: $GPGGA,161801,3946.9558,N,08404.9812,W,2,10,1.20,310.28,M,-33.324,M,,*7D
2017-12-29 11:18:00 1514564280.380294: $GPRMC,161801,A,3946.9558,N,08404.9812,W,0.0000,0.000,291217,,*3D
2017-12-29 11:18:00 1514564280.380372: $GPGSA,A,3,8,10,15,18,20,21,24,27,32,138,,,1.7,1.2,1.3*38
2017-12-29 11:18:01 1514564281.379823: $GPZDA,161802.00,29,12,2017,00,00*66
2017-12-29 11:18:01 1514564281.379989: $GPGGA,161802,3946.9558,N,08404.9812,W,2,10,1.20,310.28,M,-33.324,M,,*7E
2017-12-29 11:18:01 1514564281.380055: $GPRMC,161802,A,3946.9558,N,08404.9812,W,0.0000,0.000,291217,,*3E
2017-12-29 11:18:01 1514564281.380116: $GPGSA,A,3,8,10,15,18,20,21,24,27,32,138,,,1.7,1.2,1.3*38
2017-12-29 11:18:02 1514564282.732674: $GPGSV,3,1,12,08,05,322,28,10,42,301,42,15,37,052,45,18,71,339,42*79
2017-12-29 11:18:02 1514564282.732869: $GPGSV,3,2,12,20,34,096,47,21,63,189,43,24,51,109,45,27,19,289,25*71
2017-12-29 11:18:02 1514564282.732935: $GPGSV,3,3,12,32,22,238,35,13,07,048,00,14,03,232,00,138,38,213,44*49
2017-12-29 11:18:02 1514564282.846020: $GPZDA,161803.00,29,12,2017,00,00*67
2017-12-29 11:18:02 1514564282.846154: $GPGGA,161803,3946.9555,N,08404.9812,W,2,10,1.20,311.05,M,-33.324,M,,*7C
2017-12-29 11:18:02 1514564282.846220: $GPRMC,161803,A,3946.9555,N,08404.9812,W,0.0000,0.000,291217,,*32
2017-12-29 11:18:02 1514564282.846280: $GPGSA,A,3,8,10,15,18,20,21,24,27,32,138,,,1.7,1.2,1.3*38
