2017-11-16 15:54:44 1510865684.606163: {"class":"VERSION","release":"3.17","rev":"3.17","proto_major":3,"proto_minor":12}
2017-11-16 15:54:44 1510865684.606590: {"class":"DEVICES","devices":[{"class":"DEVICE","path":"/dev/ttyUSB0","driver":"SiRF","subtype":"9\u0006GSD4e_4.1.2-P1_RPATCH.05-F-GPS-4R-1510281 11/03/2015 307","activated":"2017-11-16T20:54:44.525Z","flags":1,"native":1,"bps":4800,"parity":"N","stopbits":1,"cycle":1.00}]}
2017-11-16 15:54:44 1510865684.606697: {"class":"WATCH","enable":true,"json":false,"nmea":true,"raw":0,"scaled":false,"timing":false,"split24":false,"pps":false}
2017-11-16 15:54:45 1510865685.377417: $GPZDA,205444.00,16,11,2017,00,00*66
2017-11-16 15:54:45 1510865685.377602: $GPGGA,205444,3946.9578,N,08404.9844,W,2,12,1.20,307.47,M,-33.324,M,,*7D
2017-11-16 15:54:45 1510865685.377663: $GPRMC,205444,A,3946.9578,N,08404.9844,W,0.0000,0.000,161117,,*3F
2017-11-16 15:54:45 1510865685.377718: $GPGSA,A,3,11,10,14,31,18,25,21,24,15,32,12,138,1.6,1.2,1.3*05
2017-11-16 15:54:46 1510865686.703803: $GPGSV,3,1,12,11,04,321,26,10,80,001,50,14,38,264,46,31,10,205,28*77
2017-11-16 15:54:46 1510865686.703942: $GPGSV,3,2,12,18,60,115,48,25,12,133,34,21,16,177,34,24,35,049,49*7D
2017-11-16 15:54:46 1510865686.704019: $GPGSV,3,3,12,15,03,073,32,32,55,280,47,12,17,096,47,138,38,213,44*48
2017-11-16 15:54:46 1510865686.817410: $GPZDA,205445.00,16,11,2017,00,00*67
2017-11-16 15:54:46 1510865686.817569: $GPGGA,205445,3946.9578,N,08404.9844,W,2,12,1.20,307.47,M,-33.324,M,,*7C
2017-11-16 15:54:46 1510865686.817648: $GPRMC,205445,A,3946.9578,N,08404.9844,W,0.0000,0.000,161117,,*3E
2017-11-16 15:54:46 1510865686.817705: $GPGSA,A,3,11,10,14,31,18,25,21,24,15,32,12,138,1.6,1.2,1.3*05
2017-11-16 15:54:47 1510865687.366734: $GPZDA,205446.00,16,11,2017,00,00*64
2017-11-16 15:54:47 1510865687.366915: $GPGGA,205446,3946.9578,N,08404.9844,W,2,12,1.20,307.47,M,-33.324,M,,*7F
2017-11-16 15:54:47 1510865687.366977: $GPRMC,205446,A,3946.9578,N,08404.9844,W,0.0000,0.000,161117,,*3D
2017-11-16 15:54:47 1510865687.367033: $GPGSA,A,3,11,10,14,31,18,25,21,24,15,32,12,138,1.6,1.2,1.3*05
2017-11-16 15:54:48 1510865688.367895: $GPZDA,205447.00,16,11,2017,00,00*65
2017-11-16 15:54:48 1510865688.368051: $GPGGA,205447,3946.9578,N,08404.9844,W,2,12,1.20,307.47,M,-33.324,M,,*7E
2017-11-16 15:54:48 1510865688.368111: $GPRMC,205447,A,3946.9578,N,08404.9844,W,0.0000,0.000,161117,,*3C
2017-11-16 15:54:48 1510865688.368165: $GPGSA,A,3,11,10,14,31,18,25,21,24,15,32,12,138,1.6,1.2,1.3*05
2017-11-16 15:54:49 1510865689.704683: $GPGSV,3,1,12,11,04,321,27,10,80,001,50,14,38,264,45,31,10,205,28*75
2017-11-16 15:54:49 1510865689.704850: $GPGSV,3,2,12,18,60,115,48,25,12,133,34,21,16,177,34,24,35,049,49*7D
2017-11-16 15:54:49 1510865689.704911: $GPGSV,3,3,12,15,03,073,32,32,55,280,47,12,17,096,47,138,38,213,44*48
2017-11-16 15:54:49 1510865689.818321: $GPZDA,205448.00,16,11,2017,00,00*6A
2017-11-16 15:54:49 1510865689.818465: $GPGGA,205448,3946.9578,N,08404.9844,W,2,12,1.20,307.47,M,-33.324,M,,*71
2017-11-16 15:54:49 1510865689.818524: $GPRMC,205448,A,3946.9578,N,08404.9844,W,0.0000,0.000,161117,,*33
2017-11-16 15:54:49 1510865689.818580: $GPGSA,A,3,11,10,14,31,18,25,21,24,15,32,12,138,1.6,1.2,1.3*05
2017-11-16 15:54:50 1510865690.360109: $GPZDA,205449.00,16,11,2017,00,00*6B
2017-11-16 15:54:50 1510865690.360274: $GPGGA,205449,3946.9578,N,08404.9844,W,2,12,1.20,307.47,M,-33.324,M,,*70
2017-11-16 15:54:50 1510865690.360392: $GPRMC,205449,A,3946.9578,N,08404.9844,W,0.0000,0.000,161117,,*32
2017-11-16 15:54:50 1510865690.360450: $GPGSA,A,3,11,10,14,31,18,25,21,24,15,32,12,138,1.6,1.2,1.3*05
2017-11-16 15:54:51 1510865691.366720: $GPZDA,205450.00,16,11,2017,00,00*63
2017-11-16 15:54:51 1510865691.366885: $GPGGA,205450,3946.9578,N,08404.9844,W,2,12,1.20,307.47,M,-33.324,M,,*78
2017-11-16 15:54:51 1510865691.366944: $GPRMC,205450,A,3946.9578,N,08404.9844,W,0.0000,0.000,161117,,*3A
2017-11-16 15:54:51 1510865691.367001: $GPGSA,A,3,11,10,14,31,18,25,21,24,15,32,12,138,1.6,1.2,1.3*05
2017-11-16 15:54:52 1510865692.712602: $GPGSV,3,1,12,11,04,321,33,10,80,001,50,14,38,264,46,31,10,205,29*72
2017-11-16 15:54:52 1510865692.712821: $GPGSV,3,2,12,18,60,115,48,25,12,133,33,21,16,177,34,24,35,049,49*7A
2017-11-16 15:54:52 1510865692.712884: $GPGSV,3,3,12,15,03,073,32,32,55,280,48,12,17,096,47,138,38,213,45*46
2017-11-16 15:54:52 1510865692.826281: $GPZDA,205451.00,16,11,2017,00,00*62
2017-11-16 15:54:52 1510865692.826444: $GPGGA,205451,3946.9578,N,08404.9844,W,2,12,1.20,307.47,M,-33.324,M,,*79
2017-11-16 15:54:52 1510865692.826504: $GPRMC,205451,A,3946.9578,N,08404.9844,W,0.0000,0.000,161117,,*3B
2017-11-16 15:54:52 1510865692.826559: $GPGSA,A,3,11,10,14,31,18,25,21,24,15,32,12,138,1.6,1.2,1.3*05
2017-11-16 15:54:53 1510865693.368246: $GPZDA,205452.00,16,11,2017,00,00*61
2017-11-16 15:54:53 1510865693.368425: $GPGGA,205452,3946.9578,N,08404.9844,W,2,12,1.20,307.47,M,-33.324,M,,*7A
2017-11-16 15:54:53 1510865693.374121: $GPRMC,205452,A,3946.9578,N,08404.9844,W,0.0000,0.000,161117,,*38
2017-11-16 15:54:53 1510865693.374222: $GPGSA,A,3,11,10,14,31,18,25,21,24,15,32,12,138,1.6,1.2,1.3*05
2017-11-16 15:54:54 1510865694.382613: $GPZDA,205453.00,16,11,2017,00,00*60
2017-11-16 15:54:54 1510865694.382777: $GPGGA,205453,3946.9578,N,08404.9844,W,2,12,1.20,307.47,M,-33.324,M,,*7B
2017-11-16 15:54:54 1510865694.382839: $GPRMC,205453,A,3946.9578,N,08404.9844,W,0.0000,0.000,161117,,*39
2017-11-16 15:54:54 1510865694.382913: $GPGSA,A,3,11,10,14,31,18,25,21,24,15,32,12,138,1.6,1.2,1.3*05
