2017-12-29 11:56:45 1514566605.341110: {"class":"VERSION","release":"3.16","rev":"3.16-4","proto_major":3,"proto_minor":11}
2017-12-29 11:56:45 1514566605.341463: {"class":"DEVICES","devices":[{"class":"DEVICE","path":"/dev/ttyUSB0","driver":"SiRF","subtype":"9\u0006GSD4e_4.1.2-P1_RPATCH.05-F-GPS-4R-1510281 11/03/2015 307","activated":"2017-12-29T16:56:45.295Z","flags":1,"native":1,"bps":4800,"parity":"N","stopbits":1,"cycle":1.00}]}
2017-12-29 11:56:45 1514566605.341603: {"class":"WATCH","enable":true,"json":false,"nmea":true,"raw":0,"scaled":false,"timing":false,"split24":false,"pps":false}
2017-12-29 11:56:45 1514566605.744438: $GPGSV,3,1,11,08,08,307,36,10,56,315,45,15,22,060,44,18,77,043,45*73
2017-12-29 11:56:45 1514566605.744612: $GPGSV,3,2,11,20,21,108,48,21,44,181,46,24,52,079,49,32,36,252,37*72
2017-12-29 11:56:45 1514566605.744694: $GPGSV,3,3,11,14,17,243,32,27,14,273,31,138,38,213,44*7B
2017-12-29 11:56:45 1514566605.858316: $GPZDA,165646.00,29,12,2017,00,00*6C
2017-12-29 11:56:45 1514566605.858481: $GPGGA,165646,3946.9606,N,08404.9805,W,2,11,0.80,330.88,M,-33.324,M,,*78
2017-12-29 11:56:45 1514566605.858569: $GPRMC,165646,A,3946.9606,N,08404.9805,W,0.0000,0.000,291217,,*3A
2017-12-29 11:56:45 1514566605.858631: $GPGSA,A,3,8,10,15,18,20,21,24,32,14,27,138,,1.7,0.8,1.3*36
2017-12-29 11:56:46 1514566606.429899: $GPZDA,165647.00,29,12,2017,00,00*6D
2017-12-29 11:56:46 1514566606.430052: $GPGGA,165647,3946.9606,N,08404.9805,W,2,11,0.80,330.88,M,-33.324,M,,*79
2017-12-29 11:56:46 1514566606.430118: $GPRMC,165647,A,3946.9606,N,08404.9805,W,0.0000,0.000,291217,,*3B
2017-12-29 11:56:46 1514566606.430178: $GPGSA,A,3,8,10,15,18,20,21,24,32,14,27,138,,1.7,0.8,1.3*36
2017-12-29 11:56:47 1514566607.414790: $GPZDA,165648.00,29,12,2017,00,00*62
2017-12-29 11:56:47 1514566607.414979: $GPGGA,165648,3946.9602,N,08404.9805,W,2,11,0.80,330.24,M,-33.324,M,,*74
2017-12-29 11:56:47 1514566607.415046: $GPRMC,165648,A,3946.9602,N,08404.9805,W,0.0000,0.000,291217,,*30
2017-12-29 11:56:47 1514566607.415107: $GPGSA,A,3,8,10,15,18,20,21,24,32,14,27,138,,1.7,0.8,1.3*36
2017-12-29 11:56:48 1514566608.766088: $GPGSV,3,1,11,08,08,307,36,10,56,315,46,15,22,060,44,18,77,043,44*71
2017-12-29 11:56:48 1514566608.766291: $GPGSV,3,2,11,20,21,108,48,21,44,181,46,24,52,079,49,32,36,252,37*72
2017-12-29 11:56:48 1514566608.766356: $GPGSV,3,3,11,14,17,243,32,27,14,273,30,138,38,213,45*7B
2017-12-29 11:56:48 1514566608.879303: $GPZDA,165649.00,29,12,2017,00,00*63
2017-12-29 11:56:48 1514566608.879472: $GPGGA,165649,3946.9602,N,08404.9805,W,2,11,0.80,330.24,M,-33.324,M,,*75
2017-12-29 11:56:48 1514566608.879539: $GPRMC,165649,A,3946.9602,N,08404.9805,W,0.0000,0.000,291217,,*31
2017-12-29 11:56:48 1514566608.879599: $GPGSA,A,3,8,10,15,18,20,21,24,32,14,27,138,,1.7,0.8,1.3*36
2017-12-29 11:56:49 1514566609.431476: $GPZDA,165650.00,29,12,2017,00,00*6B
2017-12-29 11:56:49 1514566609.431651: $GPGGA,165650,3946.9602,N,08404.9805,W,2,11,0.80,330.24,M,-33.324,M,,*7D
2017-12-29 11:56:49 1514566609.431717: $GPRMC,165650,A,3946.9602,N,08404.9805,W,0.0000,0.000,291217,,*39
2017-12-29 11:56:49 1514566609.431778: $GPGSA,A,3,8,10,15,18,20,21,24,32,14,27,138,,1.7,0.8,1.3*36
2017-12-29 11:56:50 1514566610.415219: $GPZDA,165651.00,29,12,2017,00,00*6A
2017-12-29 11:56:50 1514566610.415403: $GPGGA,165651,3946.9602,N,08404.9805,W,2,11,0.80,330.24,M,-33.324,M,,*7C
2017-12-29 11:56:50 1514566610.415469: $GPRMC,165651,A,3946.9602,N,08404.9805,W,0.0000,0.000,291217,,*38
2017-12-29 11:56:50 1514566610.415530: $GPGSA,A,3,8,10,15,18,20,21,24,32,14,27,138,,1.7,0.8,1.3*36
2017-12-29 11:56:51 1514566611.749497: $GPGSV,3,1,11,08,08,307,29,10,56,315,45,15,22,060,44,18,77,043,44*7C
2017-12-29 11:56:51 1514566611.749670: $GPGSV,3,2,11,20,21,108,48,21,44,181,46,24,52,079,49,32,36,252,37*72
2017-12-29 11:56:51 1514566611.749751: $GPGSV,3,3,11,14,17,243,32,27,14,273,30,138,38,213,45*7B
2017-12-29 11:56:51 1514566611.862786: $GPZDA,165652.00,29,12,2017,00,00*69
2017-12-29 11:56:51 1514566611.862957: $GPGGA,165652,3946.9602,N,08404.9805,W,2,11,0.80,330.24,M,-33.324,M,,*7F
2017-12-29 11:56:51 1514566611.863077: $GPRMC,165652,A,3946.9602,N,08404.9805,W,0.0000,0.000,291217,,*3B
2017-12-29 11:56:51 1514566611.863139: $GPGSA,A,3,8,10,15,18,20,21,24,32,14,27,138,,1.7,0.8,1.3*36
2017-12-29 11:56:52 1514566612.407668: $GPZDA,165653.00,29,12,2017,00,00*68
2017-12-29 11:56:52 1514566612.407836: $GPGGA,165653,3946.9602,N,08404.9805,W,2,11,0.80,330.24,M,-33.324,M,,*7E
2017-12-29 11:56:52 1514566612.407902: $GPRMC,165653,A,3946.9602,N,08404.9805,W,0.0000,0.000,291217,,*3A
2017-12-29 11:56:52 1514566612.407963: $GPGSA,A,3,8,10,15,18,20,21,24,32,14,27,138,,1.7,0.8,1.3*36
2017-12-29 11:56:53 1514566613.414010: $GPZDA,165654.00,29,12,2017,00,00*6F
2017-12-29 11:56:53 1514566613.414183: $GPGGA,165654,3946.9602,N,08404.9805,W,2,11,0.80,330.24,M,-33.324,M,,*79
2017-12-29 11:56:53 1514566613.414250: $GPRMC,165654,A,3946.9602,N,08404.9805,W,0.0000,0.000,291217,,*3D
2017-12-29 11:56:53 1514566613.414310: $GPGSA,A,3,8,10,15,18,20,21,24,32,14,27,138,,1.7,0.8,1.3*36
2017-12-29 11:56:54 1514566614.751124: $GPGSV,3,1,11,08,08,307,30,10,56,315,45,15,22,060,44,18,77,043,45*75
2017-12-29 11:56:54 1514566614.751298: $GPGSV,3,2,11,20,21,108,48,21,44,181,46,24,52,079,49,32,36,252,38*7D
2017-12-29 11:56:54 1514566614.751362: $GPGSV,3,3,11,14,17,243,32,27,14,273,30,138,38,213,44*7A
2017-12-29 11:56:54 1514566614.863152: $GPZDA,165655.00,29,12,2017,00,00*6E
2017-12-29 11:56:54 1514566614.863319: $GPGGA,165655,3946.9602,N,08404.9805,W,2,11,0.80,330.24,M,-33.324,M,,*78
2017-12-29 11:56:54 1514566614.863384: $GPRMC,165655,A,3946.9602,N,08404.9805,W,0.0000,0.000,291217,,*3C
2017-12-29 11:56:54 1514566614.863444: $GPGSA,A,3,8,10,15,18,20,21,24,32,14,27,138,,1.7,0.8,1.3*36
2017-12-29 11:56:55 1514566615.413964: $GPZDA,165656.00,29,12,2017,00,00*6D
2017-12-29 11:56:55 1514566615.414138: $GPGGA,165656,3946.9602,N,08404.9805,W,2,11,0.80,330.24,M,-33.324,M,,*7B
2017-12-29 11:56:55 1514566615.414205: $GPRMC,165656,A,3946.9602,N,08404.9805,W,0.0000,0.000,291217,,*3F
2017-12-29 11:56:55 1514566615.414266: $GPGSA,A,3,8,10,15,18,20,21,24,32,14,27,138,,1.7,0.8,1.3*36
2017-12-29 11:56:56 1514566616.413612: $GPZDA,165657.00,29,12,2017,00,00*6C
2017-12-29 11:56:56 1514566616.413765: $GPGGA,165657,3946.9602,N,08404.9805,W,2,11,0.80,330.24,M,-33.324,M,,*7A
2017-12-29 11:56:56 1514566616.413830: $GPRMC,165657,A,3946.9602,N,08404.9805,W,0.0000,0.000,291217,,*3E
2017-12-29 11:56:56 1514566616.413891: $GPGSA,A,3,8,10,15,18,20,21,24,32,14,27,138,,1.7,0.8,1.3*36
2017-12-29 11:56:57 1514566617.750589: $GPGSV,3,1,11,08,08,307,30,10,56,315,45,15,22,060,45,18,77,043,45*74
2017-12-29 11:56:57 1514566617.750799: $GPGSV,3,2,11,20,21,108,48,21,44,181,46,24,52,079,50,32,36,252,38*75
2017-12-29 11:56:57 1514566617.750885: $GPGSV,3,3,11,14,17,243,32,27,14,273,29,138,38,213,44*72
2017-12-29 11:56:57 1514566617.864241: $GPZDA,165658.00,29,12,2017,00,00*63
2017-12-29 11:56:57 1514566617.864412: $GPGGA,165658,3946.9602,N,08404.9805,W,2,11,0.80,330.24,M,-33.324,M,,*75
2017-12-29 11:56:57 1514566617.864479: $GPRMC,165658,A,3946.9602,N,08404.9805,W,0.0000,0.000,291217,,*31
2017-12-29 11:56:57 1514566617.864538: $GPGSA,A,3,8,10,15,18,20,21,24,32,14,27,138,,1.7,0.8,1.3*36
2017-12-29 11:56:58 1514566618.489606: $GPZDA,165659.00,29,12,2017,00,00*62
2017-12-29 11:56:58 1514566618.489769: $GPGGA,165659,3946.9602,N,08404.9805,W,2,11,0.80,330.24,M,-33.324,M,,*74
2017-12-29 11:56:58 1514566618.489835: $GPRMC,165659,A,3946.9602,N,08404.9805,W,0.0000,0.000,291217,,*30
2017-12-29 11:56:58 1514566618.489895: $GPGSA,A,3,8,10,15,18,20,21,24,32,14,27,138,,1.7,0.8,1.3*36
2017-12-29 11:56:59 1514566619.413953: $GPZDA,165700.00,29,12,2017,00,00*6F
2017-12-29 11:56:59 1514566619.414127: $GPGGA,165700,3946.9602,N,08404.9805,W,2,11,0.80,330.24,M,-33.324,M,,*79
2017-12-29 11:56:59 1514566619.414193: $GPRMC,165700,A,3946.9602,N,08404.9805,W,0.0000,0.000,291217,,*3D
2017-12-29 11:56:59 1514566619.414254: $GPGSA,A,3,8,10,15,18,20,21,24,32,14,27,138,,1.7,0.8,1.3*36
