2017-12-01 12:13:48 1512148428.717234: {"class":"VERSION","release":"3.16","rev":"3.16-4","proto_major":3,"proto_minor":11}
2017-12-01 12:13:48 1512148428.717644: {"class":"DEVICES","devices":[{"class":"DEVICE","path":"/dev/ttyUSB0","driver":"SiRF","subtype":"9\u0006GSD4e_4.1.2-P1_RPATCH.05-F-GPS-4R-1510281 11/03/2015 307","activated":"2017-12-01T17:13:48.692Z","flags":1,"native":1,"bps":4800,"parity":"N","stopbits":1,"cycle":1.00}]}
2017-12-01 12:13:48 1512148428.717760: {"class":"WATCH","enable":true,"json":false,"nmea":true,"raw":0,"scaled":false,"timing":false,"split24":false,"pps":false}
2017-12-01 12:13:49 1512148429.973268: $GPGSV,3,1,12,10,22,282,32,13,30,045,38,15,62,052,37,18,53,298,38*7F
2017-12-01 12:13:49 1512148429.973448: $GPGSV,3,2,12,20,53,070,38,21,78,274,35,24,32,139,38,27,16,315,28*70
2017-12-01 12:13:49 1512148429.973516: $GPGSV,3,3,12,29,11,190,00,05,04,087,00,04,01,136,00,138,38,213,00*47
2017-12-01 12:13:50 1512148430.086567: $GPZDA,171350.07,01,12,2017,00,00*66
2017-12-01 12:13:50 1512148430.086735: $GPGGA,171350,3946.9581,N,08404.9829,W,1,08,1.00,306.87,M,-33.324,M,,*75
2017-12-01 12:13:50 1512148430.086823: $GPRMC,171350,A,3946.9581,N,08404.9829,W,0.3423,4.197,011217,,*38
2017-12-01 12:13:50 1512148430.086889: $GPGSA,A,3,10,13,15,18,20,21,24,27,,,,,2.0,1.0,1.5*39
2017-12-01 12:13:50 1512148430.915592: $GPZDA,171351.00,01,12,2017,00,00*60
2017-12-01 12:13:50 1512148430.915771: $GPGGA,171351,3946.9576,N,08404.9829,W,1,08,0.80,306.23,M,-33.324,M,,*7B
2017-12-01 12:13:50 1512148430.915841: $GPRMC,171351,A,3946.9576,N,08404.9829,W,0.3423,4.197,011217,,*31
2017-12-01 12:13:50 1512148430.915903: $GPGSA,A,3,10,13,15,18,20,21,24,27,,,,,2.0,0.8,1.5*30
2017-12-01 12:13:50 1512148430.915960: $GPGBS,171351,10.70,M,15.43,M,35.28,M*07
2017-12-01 12:13:51 1512148431.386464: $GPZDA,171352.00,01,12,2017,00,00*63
2017-12-01 12:13:51 1512148431.386633: $GPGGA,171352,3946.9580,N,08404.9828,W,1,08,0.80,305.46,M,-33.324,M,,*70
2017-12-01 12:13:51 1512148431.386701: $GPRMC,171352,A,3946.9580,N,08404.9828,W,0.0000,0.000,011217,,*37
2017-12-01 12:13:51 1512148431.386764: $GPGSA,A,3,10,13,15,18,20,21,24,27,,,,,2.0,0.8,1.5*30
2017-12-01 12:13:51 1512148431.386821: $GPGBS,171352,10.70,M,15.43,M,35.28,M*04
2017-12-01 12:13:52 1512148432.720900: $GPGSV,3,1,12,10,22,282,41,13,30,045,46,15,62,052,45,18,53,298,47*7F
2017-12-01 12:13:52 1512148432.721082: $GPGSV,3,2,12,20,53,070,47,21,78,274,43,24,32,139,46,27,16,315,32*7B
2017-12-01 12:13:52 1512148432.721151: $GPGSV,3,3,12,05,04,087,17,29,11,190,23,04,01,136,00,138,38,213,47*43
2017-12-01 12:13:52 1512148432.834324: $GPZDA,171353.00,01,12,2017,00,00*62
2017-12-01 12:13:52 1512148432.834501: $GPGGA,171353,3946.9579,N,08404.9827,W,1,11,0.80,304.06,M,-33.324,M,,*75
2017-12-01 12:13:52 1512148432.834566: $GPRMC,171353,A,3946.9579,N,08404.9827,W,0.0000,0.000,011217,,*3F
2017-12-01 12:13:52 1512148432.834629: $GPGSA,A,3,10,13,15,18,20,21,24,27,5,29,138,,2.0,0.8,1.5*34
2017-12-01 12:13:53 1512148433.459752: $GPZDA,171354.00,01,12,2017,00,00*65
2017-12-01 12:13:53 1512148433.459921: $GPGGA,171354,3946.9579,N,08404.9827,W,1,11,0.80,304.06,M,-33.324,M,,*72
2017-12-01 12:13:53 1512148433.460007: $GPRMC,171354,A,3946.9579,N,08404.9827,W,0.0000,0.000,011217,,*38
2017-12-01 12:13:53 1512148433.460070: $GPGSA,A,3,10,13,15,18,20,21,24,27,5,29,138,,2.0,0.8,1.5*34
2017-12-01 12:13:54 1512148434.385576: $GPZDA,171355.00,01,12,2017,00,00*64
2017-12-01 12:13:54 1512148434.385745: $GPGGA,171355,3946.9578,N,08404.9827,W,1,11,0.80,302.65,M,-33.324,M,,*71
2017-12-01 12:13:54 1512148434.385812: $GPRMC,171355,A,3946.9578,N,08404.9827,W,0.0000,0.000,011217,,*38
2017-12-01 12:13:54 1512148434.385873: $GPGSA,A,3,10,13,15,18,20,21,24,27,5,29,138,,2.0,0.8,1.5*34
2017-12-01 12:13:55 1512148435.722397: $GPGSV,3,1,12,10,22,282,41,13,30,045,45,15,62,052,45,18,53,298,47*7C
2017-12-01 12:13:55 1512148435.722576: $GPGSV,3,2,12,20,53,070,48,21,78,274,44,24,32,139,46,27,16,315,32*73
2017-12-01 12:13:55 1512148435.722642: $GPGSV,3,3,12,05,04,087,17,29,11,190,23,04,01,136,00,138,38,213,47*43
2017-12-01 12:13:55 1512148435.835802: $GPZDA,171356.00,01,12,2017,00,00*67
2017-12-01 12:13:55 1512148435.835995: $GPGGA,171356,3946.9579,N,08404.9834,W,1,11,0.80,302.57,M,-33.324,M,,*70
2017-12-01 12:13:55 1512148435.836062: $GPRMC,171356,A,3946.9579,N,08404.9834,W,0.0000,0.000,011217,,*38
2017-12-01 12:13:55 1512148435.836140: $GPGSA,A,3,10,13,15,18,20,21,24,27,5,29,138,,2.0,0.8,1.5*34
2017-12-01 12:13:56 1512148436.389264: $GPZDA,171357.00,01,12,2017,00,00*66
2017-12-01 12:13:56 1512148436.389470: $GPGGA,171357,3946.9578,N,08404.9833,W,1,11,0.80,301.17,M,-33.324,M,,*70
2017-12-01 12:13:56 1512148436.389538: $GPRMC,171357,A,3946.9578,N,08404.9833,W,0.0000,0.000,011217,,*3F
2017-12-01 12:13:56 1512148436.389599: $GPGSA,A,3,10,13,15,18,20,21,24,27,5,29,138,,2.0,0.8,1.5*34
2017-12-01 12:13:57 1512148437.386322: $GPZDA,171358.00,01,12,2017,00,00*69
2017-12-01 12:13:57 1512148437.386492: $GPGGA,171358,3946.9578,N,08404.9833,W,1,11,0.80,301.17,M,-33.324,M,,*7F
2017-12-01 12:13:57 1512148437.386560: $GPRMC,171358,A,3946.9578,N,08404.9833,W,0.0000,0.000,011217,,*30
2017-12-01 12:13:57 1512148437.386622: $GPGSA,A,3,10,13,15,18,20,21,24,27,5,29,138,,2.0,0.8,1.5*34
