2017-12-31 16:57:07 1514757427.449386: {"class":"VERSION","release":"3.16","rev":"3.16-4","proto_major":3,"proto_minor":11}
2017-12-31 16:57:07 1514757427.451021: {"class":"DEVICES","devices":[{"class":"DEVICE","path":"/dev/ttyUSB0","driver":"SiRF","activated":"2017-12-31T21:57:07.382Z","flags":1,"native":1,"bps":4800,"parity":"N","stopbits":1,"cycle":1.00}]}
2017-12-31 16:57:07 1514757427.451147: {"class":"WATCH","enable":true,"json":false,"nmea":true,"raw":0,"scaled":false,"timing":false,"split24":false,"pps":false}
2017-12-31 16:57:08 1514757428.335557: $GPZDA,215709.00,31,12,2017,00,00*6B
2017-12-31 16:57:08 1514757428.335731: $GPGGA,215709,3946.9584,N,08404.9862,W,2,11,0.80,302.90,M,-33.324,M,,*76
2017-12-31 16:57:08 1514757428.335801: $GPRMC,215709,A,3946.9584,N,08404.9862,W,0.0000,0.000,311217,,*35
2017-12-31 16:57:08 1514757428.335862: $GPGSA,A,3,22,23,25,3,16,29,31,14,32,26,135,,1.7,0.8,1.3*32
2017-12-31 16:57:09 1514757429.679964: $GPGSV,3,1,11,22,46,244,40,23,25,307,41,25,04,037,21,03,46,276,40*7A
2017-12-31 16:57:09 1514757429.680138: $GPGSV,3,2,11,16,42,190,46,29,14,058,27,31,52,048,51,14,43,111,39*71
2017-12-31 16:57:09 1514757429.680203: $GPGSV,3,3,11,32,21,120,44,26,72,151,45,135,22,240,42*7A
2017-12-31 16:57:09 1514757429.793712: $GPZDA,215710.00,31,12,2017,00,00*63
2017-12-31 16:57:09 1514757429.793848: $GPGGA,215710,3946.9584,N,08404.9862,W,2,11,1.00,302.90,M,-33.324,M,,*77
2017-12-31 16:57:09 1514757429.793914: $GPRMC,215710,A,3946.9584,N,08404.9862,W,0.0000,0.000,311217,,*3D
2017-12-31 16:57:09 1514757429.793974: $GPGSA,A,3,22,23,25,3,16,29,31,14,32,26,135,,1.7,1.0,1.3*3B
2017-12-31 16:57:10 1514757430.419057: $GPZDA,215711.00,31,12,2017,00,00*62
2017-12-31 16:57:10 1514757430.419206: $GPGGA,215711,3946.9584,N,08404.9862,W,2,11,1.00,302.90,M,-33.324,M,,*76
2017-12-31 16:57:10 1514757430.419273: $GPRMC,215711,A,3946.9584,N,08404.9862,W,0.0000,0.000,311217,,*3C
2017-12-31 16:57:10 1514757430.419333: $GPGSA,A,3,22,23,25,3,16,29,31,14,32,26,135,,1.7,1.0,1.3*3B
2017-12-31 16:57:11 1514757431.343861: $GPZDA,215712.00,31,12,2017,00,00*61
2017-12-31 16:57:11 1514757431.344054: $GPGGA,215712,3946.9584,N,08404.9862,W,2,11,1.00,302.90,M,-33.324,M,,*75
2017-12-31 16:57:11 1514757431.344128: $GPRMC,215712,A,3946.9584,N,08404.9862,W,0.0000,0.000,311217,,*3F
2017-12-31 16:57:11 1514757431.344191: $GPGSA,A,3,22,23,25,3,16,29,31,14,32,26,135,,1.7,1.0,1.3*3B
2017-12-31 16:57:12 1514757432.695357: $GPGSV,3,1,11,22,46,244,40,23,25,307,41,25,04,037,22,03,46,276,40*79
2017-12-31 16:57:12 1514757432.700507: $GPGSV,3,2,11,16,42,190,46,29,14,058,00,31,52,048,51,14,43,111,39*74
2017-12-31 16:57:12 1514757432.700625: $GPGSV,3,3,11,32,21,120,44,26,72,151,45,135,22,240,42*7A
2017-12-31 16:57:12 1514757432.809202: $GPZDA,215713.00,31,12,2017,00,00*60
2017-12-31 16:57:12 1514757432.809358: $GPGGA,215713,3946.9584,N,08404.9862,W,2,10,1.00,302.90,M,-33.324,M,,*75
2017-12-31 16:57:12 1514757432.809426: $GPRMC,215713,A,3946.9584,N,08404.9862,W,0.0000,0.000,311217,,*3E
2017-12-31 16:57:12 1514757432.809490: $GPGSA,A,3,22,23,25,3,16,31,14,32,26,135,,,1.7,1.0,1.3*30
2017-12-31 16:57:13 1514757433.344627: $GPZDA,215714.00,31,12,2017,00,00*67
2017-12-31 16:57:13 1514757433.344786: $GPGGA,215714,3946.9584,N,08404.9862,W,2,10,1.00,302.90,M,-33.324,M,,*72
2017-12-31 16:57:13 1514757433.344856: $GPRMC,215714,A,3946.9584,N,08404.9862,W,0.0000,0.000,311217,,*39
2017-12-31 16:57:13 1514757433.344919: $GPGSA,A,3,22,23,25,3,16,31,14,32,26,135,,,1.7,1.0,1.3*30
2017-12-31 16:57:14 1514757434.363055: $GPZDA,215715.00,31,12,2017,00,00*66
2017-12-31 16:57:14 1514757434.363231: $GPGGA,215715,3946.9584,N,08404.9862,W,2,10,1.00,302.90,M,-33.324,M,,*73
2017-12-31 16:57:14 1514757434.363302: $GPRMC,215715,A,3946.9584,N,08404.9862,W,0.0000,0.000,311217,,*38
2017-12-31 16:57:14 1514757434.363367: $GPGSA,A,3,22,23,25,3,16,31,14,32,26,135,,,1.7,1.0,1.3*30
2017-12-31 16:57:15 1514757435.696907: $GPGSV,3,1,11,22,46,244,40,23,25,307,42,25,04,037,22,03,46,276,40*7A
2017-12-31 16:57:15 1514757435.697146: $GPGSV,3,2,11,16,42,190,46,29,14,058,21,31,52,048,51,14,43,111,39*77
2017-12-31 16:57:15 1514757435.697280: $GPGSV,3,3,11,32,21,120,44,26,72,151,45,135,22,240,42*7A
2017-12-31 16:57:15 1514757435.809090: $GPZDA,215716.00,31,12,2017,00,00*65
2017-12-31 16:57:15 1514757435.809213: $GPGGA,215716,3946.9584,N,08404.9862,W,2,11,1.00,302.90,M,-33.324,M,,*71
2017-12-31 16:57:15 1514757435.809277: $GPRMC,215716,A,3946.9584,N,08404.9862,W,0.0000,0.000,311217,,*3B
2017-12-31 16:57:15 1514757435.809338: $GPGSA,A,3,22,23,25,3,16,29,31,14,32,26,135,,1.7,1.0,1.3*3B
2017-12-31 16:57:16 1514757436.343770: $GPZDA,215717.00,31,12,2017,00,00*64
2017-12-31 16:57:16 1514757436.343941: $GPGGA,215717,3946.9584,N,08404.9862,W,2,11,1.00,302.90,M,-33.324,M,,*70
2017-12-31 16:57:16 1514757436.344010: $GPRMC,215717,A,3946.9584,N,08404.9862,W,0.0000,0.000,311217,,*3A
2017-12-31 16:57:16 1514757436.344077: $GPGSA,A,3,22,23,25,3,16,29,31,14,32,26,135,,1.7,1.0,1.3*3B
2017-12-31 16:57:17 1514757437.344642: $GPZDA,215718.00,31,12,2017,00,00*6B
2017-12-31 16:57:17 1514757437.344824: $GPGGA,215718,3946.9584,N,08404.9862,W,2,11,1.00,302.90,M,-33.324,M,,*7F
2017-12-31 16:57:17 1514757437.344891: $GPRMC,215718,A,3946.9584,N,08404.9862,W,0.0000,0.000,311217,,*35
2017-12-31 16:57:17 1514757437.344956: $GPGSA,A,3,22,23,25,3,16,29,31,14,32,26,135,,1.7,1.0,1.3*3B
