2017-11-15 18:32:55 1510788775.163031: {"class":"VERSION","release":"3.17","rev":"3.17","proto_major":3,"proto_minor":12}
2017-11-15 18:32:55 1510788775.163559: {"class":"DEVICES","devices":[{"class":"DEVICE","path":"/dev/ttyUSB0","driver":"SiRF","subtype":"9\u0006GSD4e_4.1.2-P1_RPATCH.05-F-GPS-4R-1510281 11/03/2015 307","activated":"2017-11-15T23:32:55.152Z","flags":1,"native":1,"bps":4800,"parity":"N","stopbits":1,"cycle":1.00}]}
2017-11-15 18:32:55 1510788775.163670: {"class":"WATCH","enable":true,"json":false,"nmea":true,"raw":0,"scaled":false,"timing":false,"split24":false,"pps":false}
2017-11-15 18:32:55 1510788775.328836: $GPZDA,233254.00,15,11,2017,00,00*67
2017-11-15 18:32:55 1510788775.329007: $GPGGA,233254,3946.9558,N,08404.9606,W,1,06,5.20,294.64,M,-33.324,M,,*7D
2017-11-15 18:32:55 1510788775.329068: $GPRMC,233254,A,3946.9558,N,08404.9606,W,0.7070,228.986,151117,,*3B
2017-11-15 18:32:55 1510788775.329123: $GPGSA,A,3,25,14,22,31,32,3,,,,,,,3.4,5.2,2.9*0B
2017-11-15 18:32:56 1510788776.362359: $GPZDA,233255.00,15,11,2017,00,00*66
2017-11-15 18:32:56 1510788776.362524: $GPGGA,233255,3946.9558,N,08404.9606,W,1,06,5.20,294.64,M,-33.324,M,,*7C
2017-11-15 18:32:56 1510788776.362584: $GPRMC,233255,A,3946.9558,N,08404.9606,W,0.7246,164.668,151117,,*39
2017-11-15 18:32:56 1510788776.362641: $GPGSA,A,3,25,14,22,31,32,3,,,,,,,3.4,5.2,2.9*0B
2017-11-15 18:32:57 1510788777.697512: $GPGSV,3,1,11,25,36,057,22,14,69,037,17,22,39,303,19,26,25,178,00*7C
2017-11-15 18:32:57 1510788777.697682: $GPGSV,3,2,11,31,77,276,25,32,56,078,15,01,19,276,04,10,22,156,00*7A
2017-11-15 18:32:57 1510788777.697741: $GPGSV,3,3,11,03,20,315,04,12,07,033,00,133,44,201,00*7D
2017-11-15 18:32:57 1510788777.811122: $GPZDA,233256.00,15,11,2017,00,00*65
2017-11-15 18:32:57 1510788777.811268: $GPGGA,233256,3946.9555,N,08404.9606,W,1,05,5.20,295.40,M,-33.324,M,,*76
2017-11-15 18:32:57 1510788777.811328: $GPRMC,233256,A,3946.9555,N,08404.9606,W,0.5467,159.486,151117,,*3C
2017-11-15 18:32:57 1510788777.811383: $GPGSA,A,3,25,14,22,31,32,,,,,,,,3.4,5.2,2.9*38
2017-11-15 18:32:58 1510788778.361838: $GPZDA,233257.00,15,11,2017,00,00*64
2017-11-15 18:32:58 1510788778.362008: $GPGGA,233257,3946.9551,N,08404.9606,W,1,05,5.20,294.76,M,-33.324,M,,*77
2017-11-15 18:32:58 1510788778.362069: $GPRMC,233257,A,3946.9551,N,08404.9606,W,0.6846,184.197,151117,,*30
2017-11-15 18:32:58 1510788778.362126: $GPGSA,A,3,25,14,22,31,32,,,,,,,,3.4,5.2,2.9*38
2017-11-15 18:32:59 1510788779.362519: $GPZDA,233258.00,15,11,2017,00,00*6B
2017-11-15 18:32:59 1510788779.362687: $GPGGA,233258,3946.9550,N,08404.9599,W,1,05,5.20,294.84,M,-33.324,M,,*71
2017-11-15 18:32:59 1510788779.362747: $GPRMC,233258,A,3946.9550,N,08404.9599,W,0.3155,129.994,151117,,*39
2017-11-15 18:32:59 1510788779.362802: $GPGSA,A,3,25,14,22,31,32,,,,,,,,3.4,5.2,2.9*38
2017-11-15 18:33:00 1510788780.698297: $GPGSV,3,1,11,25,36,057,23,14,69,037,17,22,39,303,20,26,25,178,13*75
2017-11-15 18:33:00 1510788780.698466: $GPGSV,3,2,11,31,77,276,25,32,56,078,17,01,19,276,04,10,22,156,00*78
2017-11-15 18:33:00 1510788780.698526: $GPGSV,3,3,11,03,20,315,14,12,07,033,00,133,44,201,00*7C
2017-11-15 18:33:00 1510788780.811568: $GPZDA,233259.00,15,11,2017,00,00*6A
2017-11-15 18:33:00 1510788780.811694: $GPGGA,233259,3946.9550,N,08404.9599,W,1,06,5.20,294.84,M,-33.324,M,,*73
2017-11-15 18:33:00 1510788780.811753: $GPRMC,233259,A,3946.9550,N,08404.9599,W,0.5617,31.295,151117,,*0D
2017-11-15 18:33:00 1510788780.811808: $GPGSA,A,3,25,14,22,31,32,3,,,,,,,3.4,5.2,2.9*0B
2017-11-15 18:33:01 1510788781.437129: $GPZDA,233300.00,15,11,2017,00,00*67
2017-11-15 18:33:01 1510788781.437289: $GPGGA,233300,3946.9550,N,08404.9599,W,1,06,5.20,294.84,M,-33.324,M,,*7E
2017-11-15 18:33:01 1510788781.437352: $GPRMC,233300,A,3946.9550,N,08404.9599,W,0.4207,39.347,151117,,*02
2017-11-15 18:33:01 1510788781.437410: $GPGSA,A,3,25,14,22,31,32,3,,,,,,,3.4,5.2,2.9*0B
2017-11-15 18:33:02 1510788782.362961: $GPZDA,233301.00,15,11,2017,00,00*66
2017-11-15 18:33:02 1510788782.363128: $GPGGA,233301,3946.9550,N,08404.9599,W,1,06,5.20,294.84,M,-33.324,M,,*7F
2017-11-15 18:33:02 1510788782.363246: $GPRMC,233301,A,3946.9550,N,08404.9599,W,0.4844,93.794,151117,,*04
2017-11-15 18:33:02 1510788782.363304: $GPGSA,A,3,25,14,22,31,32,3,,,,,,,3.4,5.2,2.9*0B
2017-11-15 18:33:03 1510788783.664917: $GPGSV,3,1,11,25,36,057,23,14,69,037,18,22,39,303,20,26,25,178,13*7A
2017-11-15 18:33:03 1510788783.665089: $GPGSV,3,2,11,31,77,276,24,32,56,078,17,01,19,276,05,10,22,156,04*7C
2017-11-15 18:33:03 1510788783.665149: $GPGSV,3,3,11,03,20,315,14,12,07,033,00,133,44,201,00*7C
2017-11-15 18:33:03 1510788783.778237: $GPZDA,233302.00,15,11,2017,00,00*65
2017-11-15 18:33:03 1510788783.778408: $GPGGA,233302,3946.9546,N,08404.9599,W,1,07,5.20,294.20,M,-33.324,M,,*74
2017-11-15 18:33:03 1510788783.778469: $GPRMC,233302,A,3946.9546,N,08404.9599,W,0.2422,93.794,151117,,*0A
2017-11-15 18:33:03 1510788783.778525: $GPGSA,A,3,25,14,22,26,31,32,3,,,,,,3.4,5.2,2.9*0F
2017-11-15 18:33:04 1510788784.361874: $GPZDA,233303.00,15,11,2017,00,00*64
2017-11-15 18:33:04 1510788784.362075: $GPGGA,233303,3946.9550,N,08404.9599,W,1,07,2.00,294.84,M,-33.324,M,,*79
2017-11-15 18:33:04 1510788784.362140: $GPRMC,233303,A,3946.9550,N,08404.9599,W,0.5287,2.716,151117,,*30
2017-11-15 18:33:04 1510788784.362196: $GPGSA,A,3,25,14,22,26,31,32,3,,,,,,3.4,2.0,2.9*0A
2017-11-15 18:33:05 1510788785.329970: $GPZDA,233304.00,15,11,2017,00,00*63
2017-11-15 18:33:05 1510788785.330138: $GPGGA,233304,3946.9546,N,08404.9599,W,1,07,1.00,294.20,M,-33.324,M,,*74
2017-11-15 18:33:05 1510788785.330198: $GPRMC,233304,A,3946.9546,N,08404.9599,W,0.2959,234.767,151117,,*3E
2017-11-15 18:33:05 1510788785.330254: $GPGSA,A,3,25,14,22,26,31,32,3,,,,,,3.4,1.0,2.9*09
2017-11-15 18:33:06 1510788786.664030: $GPGSV,3,1,11,25,36,057,23,14,69,037,18,22,39,303,20,26,25,178,00*78
2017-11-15 18:33:06 1510788786.664167: $GPGSV,3,2,11,31,77,276,24,32,56,078,18,01,19,276,11,10,22,156,13*70
2017-11-15 18:33:06 1510788786.664227: $GPGSV,3,3,11,03,20,315,14,12,07,033,00,133,44,201,00*7C
2017-11-15 18:33:06 1510788786.777405: $GPZDA,233305.00,15,11,2017,00,00*62
2017-11-15 18:33:06 1510788786.777561: $GPGGA,233305,3946.9539,N,08404.9600,W,1,08,1.00,294.33,M,-33.324,M,,*73
2017-11-15 18:33:06 1510788786.777621: $GPRMC,233305,A,3946.9539,N,08404.9600,W,0.9019,198.875,151117,,*3B
2017-11-15 18:33:06 1510788786.777676: $GPGSA,A,3,25,14,22,31,32,1,10,3,,,,,3.4,1.0,2.9*3D
2017-11-15 18:33:07 1510788787.328279: $GPZDA,233306.00,15,11,2017,00,00*61
2017-11-15 18:33:07 1510788787.328440: $GPGGA,233306,3946.9539,N,08404.9600,W,1,08,1.00,294.33,M,-33.324,M,,*70
2017-11-15 18:33:07 1510788787.328501: $GPRMC,233306,A,3946.9539,N,08404.9600,W,0.6846,184.197,151117,,*3D
2017-11-15 18:33:07 1510788787.328557: $GPGSA,A,3,25,14,22,31,32,1,10,3,,,,,3.4,1.0,2.9*3D
2017-11-15 18:33:08 1510788788.362967: $GPZDA,233307.00,15,11,2017,00,00*60
2017-11-15 18:33:08 1510788788.363137: $GPGGA,233307,3946.9535,N,08404.9601,W,1,08,1.00,295.09,M,-33.324,M,,*74
2017-11-15 18:33:08 1510788788.363198: $GPRMC,233307,A,3946.9535,N,08404.9601,W,0.6846,184.197,151117,,*31
2017-11-15 18:33:08 1510788788.363255: $GPGSA,A,3,25,14,22,31,32,1,10,3,,,,,3.4,1.0,2.9*3D
2017-11-15 18:33:09 1510788789.664918: $GPGSV,3,1,11,25,36,057,23,14,69,037,18,22,39,303,19,26,25,178,00*72
2017-11-15 18:33:09 1510788789.665093: $GPGSV,3,2,11,31,77,276,24,32,56,078,19,01,19,276,11,10,22,156,13*71
2017-11-15 18:33:09 1510788789.665153: $GPGSV,3,3,11,03,20,315,13,12,07,033,00,133,44,201,00*7B
2017-11-15 18:33:09 1510788789.777247: $GPZDA,233308.00,15,11,2017,00,00*6F
2017-11-15 18:33:09 1510788789.777404: $GPGGA,233308,3946.9531,N,08404.9601,W,1,08,1.00,294.45,M,-33.324,M,,*76
2017-11-15 18:33:09 1510788789.777465: $GPRMC,233308,A,3946.9531,N,08404.9601,W,0.8408,185.128,151117,,*37
2017-11-15 18:33:09 1510788789.777521: $GPGSA,A,3,25,14,22,31,32,1,10,3,,,,,3.4,1.0,2.9*3D
