2017-12-29 11:12:42 1514563962.929968: {"class":"VERSION","release":"3.16","rev":"3.16-4","proto_major":3,"proto_minor":11}
2017-12-29 11:12:42 1514563962.930290: {"class":"DEVICES","devices":[{"class":"DEVICE","path":"/dev/ttyUSB0","driver":"SiRF","subtype":"9\u0006GSD4e_4.1.2-P1_RPATCH.05-F-GPS-4R-1510281 11/03/2015 307","activated":"2017-12-29T16:12:42.547Z","flags":1,"native":1,"bps":4800,"parity":"N","stopbits":1,"cycle":1.00}]}
2017-12-29 11:12:42 1514563962.930401: {"class":"WATCH","enable":true,"json":false,"nmea":true,"raw":0,"scaled":false,"timing":false,"split24":false,"pps":false}
2017-12-29 11:12:43 1514563963.405750: $GPZDA,161244.00,29,12,2017,00,00*6E
2017-12-29 11:12:43 1514563963.405935: $GPGGA,161244,3946.9594,N,08404.9879,W,1,11,0.80,297.56,M,-33.324,M,,*75
2017-12-29 11:12:43 1514563963.406018: $GPRMC,161244,A,3946.9594,N,08404.9879,W,0.0000,0.000,291217,,*3B
2017-12-29 11:12:43 1514563963.406080: $GPGSA,A,3,8,10,15,18,20,21,24,27,32,13,138,,1.7,0.8,1.3*31
2017-12-29 11:12:44 1514563964.741460: $GPGSV,3,1,12,08,05,325,28,10,40,300,40,15,39,052,48,18,70,333,42*77
2017-12-29 11:12:44 1514563964.741622: $GPGSV,3,2,12,20,36,093,49,21,66,192,45,24,49,114,46,27,19,292,36*7F
2017-12-29 11:12:44 1514563964.741687: $GPGSV,3,3,12,32,20,237,39,13,10,048,21,14,01,231,00,138,38,213,45*4D
2017-12-29 11:12:44 1514563964.854828: $GPZDA,161245.00,29,12,2017,00,00*6F
2017-12-29 11:12:44 1514563964.855002: $GPGGA,161245,3946.9594,N,08404.9879,W,1,11,0.80,297.56,M,-33.324,M,,*74
2017-12-29 11:12:44 1514563964.855068: $GPRMC,161245,A,3946.9594,N,08404.9879,W,0.0000,0.000,291217,,*3A
2017-12-29 11:12:44 1514563964.855129: $GPGSA,A,3,8,10,15,18,20,21,24,27,32,13,138,,1.7,0.8,1.3*31
2017-12-29 11:12:45 1514563965.480230: $GPZDA,161246.00,29,12,2017,00,00*6C
2017-12-29 11:12:45 1514563965.480394: $GPGGA,161246,3946.9594,N,08404.9879,W,1,11,0.80,297.56,M,-33.324,M,,*77
2017-12-29 11:12:45 1514563965.480458: $GPRMC,161246,A,3946.9594,N,08404.9879,W,0.0000,0.000,291217,,*39
2017-12-29 11:12:45 1514563965.480518: $GPGSA,A,3,8,10,15,18,20,21,24,27,32,13,138,,1.7,0.8,1.3*31
2017-12-29 11:12:46 1514563966.406103: $GPZDA,161247.00,29,12,2017,00,00*6D
2017-12-29 11:12:46 1514563966.406271: $GPGGA,161247,3946.9594,N,08404.9879,W,1,11,0.80,297.56,M,-33.324,M,,*76
2017-12-29 11:12:46 1514563966.406337: $GPRMC,161247,A,3946.9594,N,08404.9879,W,0.0000,0.000,291217,,*38
2017-12-29 11:12:46 1514563966.406397: $GPGSA,A,3,8,10,15,18,20,21,24,27,32,13,138,,1.7,0.8,1.3*31
2017-12-29 11:12:47 1514563967.741798: $GPGSV,3,1,12,08,05,325,33,10,40,300,40,15,39,052,48,18,70,333,42*7D
2017-12-29 11:12:47 1514563967.741984: $GPGSV,3,2,12,20,36,093,48,21,66,192,45,24,49,114,46,27,19,292,36*7E
2017-12-29 11:12:47 1514563967.742051: $GPGSV,3,3,12,32,20,237,39,13,10,048,20,14,01,231,00,138,38,213,45*4C
2017-12-29 11:12:47 1514563967.855238: $GPZDA,161248.00,29,12,2017,00,00*62
2017-12-29 11:12:47 1514563967.855369: $GPGGA,161248,3946.9594,N,08404.9879,W,1,11,0.80,297.56,M,-33.324,M,,*79
2017-12-29 11:12:47 1514563967.855434: $GPRMC,161248,A,3946.9594,N,08404.9879,W,0.0000,0.000,291217,,*37
2017-12-29 11:12:47 1514563967.855495: $GPGSA,A,3,8,10,15,18,20,21,24,27,32,13,138,,1.7,0.8,1.3*31
2017-12-29 11:12:48 1514563968.409816: $GPZDA,161249.00,29,12,2017,00,00*63
2017-12-29 11:12:48 1514563968.410015: $GPGGA,161249,3946.9594,N,08404.9879,W,1,11,0.80,297.56,M,-33.324,M,,*78
2017-12-29 11:12:48 1514563968.410082: $GPRMC,161249,A,3946.9594,N,08404.9879,W,0.0000,0.000,291217,,*36
2017-12-29 11:12:48 1514563968.410142: $GPGSA,A,3,8,10,15,18,20,21,24,27,32,13,138,,1.7,0.8,1.3*31
2017-12-29 11:12:49 1514563969.406981: $GPZDA,161250.00,29,12,2017,00,00*6B
2017-12-29 11:12:49 1514563969.407147: $GPGGA,161250,3946.9594,N,08404.9879,W,1,11,0.80,297.56,M,-33.324,M,,*70
2017-12-29 11:12:49 1514563969.407213: $GPRMC,161250,A,3946.9594,N,08404.9879,W,0.0000,0.000,291217,,*3E
2017-12-29 11:12:49 1514563969.407273: $GPGSA,A,3,8,10,15,18,20,21,24,27,32,13,138,,1.7,0.8,1.3*31
2017-12-29 11:12:50 1514563970.742144: $GPGSV,3,1,12,08,05,325,33,10,40,300,40,15,39,052,48,18,70,333,42*7D
2017-12-29 11:12:50 1514563970.742366: $GPGSV,3,2,12,20,36,093,48,21,66,192,45,24,49,114,46,27,19,292,37*7F
2017-12-29 11:12:50 1514563970.742434: $GPGSV,3,3,12,32,20,237,39,13,10,048,19,14,01,231,00,138,38,213,46*45
2017-12-29 11:12:50 1514563970.855551: $GPZDA,161251.00,29,12,2017,00,00*6A
2017-12-29 11:12:50 1514563970.855683: $GPGGA,161251,3946.9594,N,08404.9879,W,1,11,0.80,297.56,M,-33.324,M,,*71
2017-12-29 11:12:50 1514563970.855748: $GPRMC,161251,A,3946.9594,N,08404.9879,W,0.0000,0.000,291217,,*3F
2017-12-29 11:12:50 1514563970.855808: $GPGSA,A,3,8,10,15,18,20,21,24,27,32,13,138,,1.7,0.8,1.3*31
2017-12-29 11:12:51 1514563971.405213: $GPZDA,161252.00,29,12,2017,00,00*69
2017-12-29 11:12:51 1514563971.405392: $GPGGA,161252,3946.9594,N,08404.9879,W,1,11,0.80,297.56,M,-33.324,M,,*72
2017-12-29 11:12:51 1514563971.405457: $GPRMC,161252,A,3946.9594,N,08404.9879,W,0.0000,0.000,291217,,*3C
2017-12-29 11:12:51 1514563971.405518: $GPGSA,A,3,8,10,15,18,20,21,24,27,32,13,138,,1.7,0.8,1.3*31
2017-12-29 11:12:52 1514563972.399804: $GPZDA,161253.00,29,12,2017,00,00*68
2017-12-29 11:12:52 1514563972.400015: $GPGGA,161253,3946.9594,N,08404.9879,W,1,11,0.80,297.56,M,-33.324,M,,*73
2017-12-29 11:12:52 1514563972.400082: $GPRMC,161253,A,3946.9594,N,08404.9879,W,0.0000,0.000,291217,,*3D
2017-12-29 11:12:52 1514563972.400143: $GPGSA,A,3,8,10,15,18,20,21,24,27,32,13,138,,1.7,0.8,1.3*31
2017-12-29 11:12:53 1514563973.743012: $GPGSV,3,1,12,08,05,325,33,10,40,300,41,15,39,052,48,18,70,333,42*7C
2017-12-29 11:12:53 1514563973.743178: $GPGSV,3,2,12,20,36,093,48,21,66,192,45,24,49,114,46,27,19,292,37*7F
2017-12-29 11:12:53 1514563973.743245: $GPGSV,3,3,12,32,20,237,39,13,10,048,19,14,01,231,00,138,38,213,45*46
2017-12-29 11:12:53 1514563973.856460: $GPZDA,161254.00,29,12,2017,00,00*6F
2017-12-29 11:12:53 1514563973.856598: $GPGGA,161254,3946.9594,N,08404.9872,W,1,11,0.80,297.64,M,-33.324,M,,*7E
2017-12-29 11:12:53 1514563973.856663: $GPRMC,161254,A,3946.9594,N,08404.9872,W,0.0000,0.000,291217,,*31
2017-12-29 11:12:53 1514563973.856723: $GPGSA,A,3,8,10,15,18,20,21,24,27,32,13,138,,1.7,0.8,1.3*31
2017-12-29 11:12:54 1514563974.407302: $GPZDA,161255.00,29,12,2017,00,00*6E
2017-12-29 11:12:54 1514563974.407473: $GPGGA,161255,3946.9594,N,08404.9872,W,1,11,0.80,297.64,M,-33.324,M,,*7F
2017-12-29 11:12:54 1514563974.407538: $GPRMC,161255,A,3946.9594,N,08404.9872,W,0.0000,0.000,291217,,*30
2017-12-29 11:12:54 1514563974.407598: $GPGSA,A,3,8,10,15,18,20,21,24,27,32,13,138,,1.7,0.8,1.3*31
2017-12-29 11:12:55 1514563975.406462: $GPZDA,161256.00,29,12,2017,00,00*6D
2017-12-29 11:12:55 1514563975.406631: $GPGGA,161256,3946.9594,N,08404.9872,W,1,11,0.80,297.64,M,-33.324,M,,*7C
2017-12-29 11:12:55 1514563975.406698: $GPRMC,161256,A,3946.9594,N,08404.9872,W,0.0000,0.000,291217,,*33
2017-12-29 11:12:55 1514563975.406758: $GPGSA,A,3,8,10,15,18,20,21,24,27,32,13,138,,1.7,0.8,1.3*31
2017-12-29 11:12:56 1514563976.742125: $GPGSV,3,1,12,08,05,325,34,10,40,300,42,15,39,052,48,18,70,333,43*79
2017-12-29 11:12:56 1514563976.742305: $GPGSV,3,2,12,20,36,093,48,21,66,192,45,24,49,114,46,27,19,292,36*7E
2017-12-29 11:12:56 1514563976.742372: $GPGSV,3,3,12,32,20,237,39,13,10,048,20,14,01,231,00,138,38,213,44*4D
2017-12-29 11:12:56 1514563976.855495: $GPZDA,161257.00,29,12,2017,00,00*6C
2017-12-29 11:12:56 1514563976.855633: $GPGGA,161257,3946.9594,N,08404.9872,W,1,11,0.80,297.64,M,-33.324,M,,*7D
2017-12-29 11:12:56 1514563976.855700: $GPRMC,161257,A,3946.9594,N,08404.9872,W,0.0000,0.000,291217,,*32
2017-12-29 11:12:56 1514563976.855760: $GPGSA,A,3,8,10,15,18,20,21,24,27,32,13,138,,1.7,0.8,1.3*31
2017-12-29 11:12:57 1514563977.409119: $GPZDA,161258.00,29,12,2017,00,00*63
2017-12-29 11:12:57 1514563977.409287: $GPGGA,161258,3946.9594,N,08404.9872,W,1,11,0.80,297.64,M,-33.324,M,,*72
2017-12-29 11:12:57 1514563977.409352: $GPRMC,161258,A,3946.9594,N,08404.9872,W,0.0000,0.000,291217,,*3D
2017-12-29 11:12:57 1514563977.409413: $GPGSA,A,3,8,10,15,18,20,21,24,27,32,13,138,,1.7,0.8,1.3*31
2017-12-29 11:12:58 1514563978.422531: $GPZDA,161259.00,29,12,2017,00,00*62
2017-12-29 11:12:58 1514563978.422741: $GPGGA,161259,3946.9594,N,08404.9872,W,1,11,0.80,297.64,M,-33.324,M,,*73
2017-12-29 11:12:58 1514563978.422832: $GPRMC,161259,A,3946.9594,N,08404.9872,W,0.0000,0.000,291217,,*3C
2017-12-29 11:12:58 1514563978.422894: $GPGSA,A,3,8,10,15,18,20,21,24,27,32,13,138,,1.7,0.8,1.3*31
2017-12-29 11:12:59 1514563979.740474: $GPGSV,3,1,12,08,05,325,34,10,40,300,42,15,39,052,48,18,70,333,42*78
2017-12-29 11:12:59 1514563979.740623: $GPGSV,3,2,12,20,36,093,48,21,66,192,45,24,49,114,46,27,19,292,36*7E
2017-12-29 11:12:59 1514563979.740688: $GPGSV,3,3,12,32,20,237,39,13,10,048,20,14,01,231,00,138,38,213,45*4C
2017-12-29 11:12:59 1514563979.854071: $GPZDA,161300.00,29,12,2017,00,00*6F
2017-12-29 11:12:59 1514563979.854195: $GPGGA,161300,3946.9594,N,08404.9872,W,1,11,0.80,297.64,M,-33.324,M,,*7E
2017-12-29 11:12:59 1514563979.854259: $GPRMC,161300,A,3946.9594,N,08404.9872,W,0.0000,0.000,291217,,*31
2017-12-29 11:12:59 1514563979.854319: $GPGSA,A,3,8,10,15,18,20,21,24,27,32,13,138,,1.7,0.8,1.3*31
2017-12-29 11:13:00 1514563980.480757: $GPZDA,161301.00,29,12,2017,00,00*6E
2017-12-29 11:13:00 1514563980.480954: $GPGGA,161301,3946.9594,N,08404.9872,W,1,11,0.80,297.64,M,-33.324,M,,*7F
2017-12-29 11:13:00 1514563980.481021: $GPRMC,161301,A,3946.9594,N,08404.9872,W,0.0000,0.000,291217,,*30
2017-12-29 11:13:00 1514563980.481154: $GPGSA,A,3,8,10,15,18,20,21,24,27,32,13,138,,1.7,0.8,1.3*31
2017-12-29 11:13:01 1514563981.422620: $GPZDA,161302.00,29,12,2017,00,00*6D
2017-12-29 11:13:01 1514563981.422802: $GPGGA,161302,3946.9591,N,08404.9873,W,1,11,0.80,298.40,M,-33.324,M,,*71
2017-12-29 11:13:01 1514563981.422869: $GPRMC,161302,A,3946.9591,N,08404.9873,W,0.0000,0.000,291217,,*37
2017-12-29 11:13:01 1514563981.422947: $GPGSA,A,3,8,10,15,18,20,21,24,27,32,13,138,,1.7,0.8,1.3*31
2017-12-29 11:13:02 1514563982.759610: $GPGSV,3,1,12,08,05,325,34,10,40,300,43,15,39,052,48,18,70,333,42*79
2017-12-29 11:13:02 1514563982.759765: $GPGSV,3,2,12,20,36,093,48,21,66,192,45,24,49,114,46,27,19,292,36*7E
2017-12-29 11:13:02 1514563982.759853: $GPGSV,3,3,12,32,20,237,39,13,10,048,21,14,01,231,00,138,38,213,44*4C
2017-12-29 11:13:02 1514563982.871729: $GPZDA,161303.00,29,12,2017,00,00*6C
2017-12-29 11:13:02 1514563982.871885: $GPGGA,161303,3946.9591,N,08404.9873,W,1,11,0.80,298.40,M,-33.324,M,,*70
2017-12-29 11:13:02 1514563982.871980: $GPRMC,161303,A,3946.9591,N,08404.9873,W,0.0000,0.000,291217,,*36
2017-12-29 11:13:02 1514563982.872042: $GPGSA,A,3,8,10,15,18,20,21,24,27,32,13,138,,1.7,0.8,1.3*31
2017-12-29 11:13:03 1514563983.416340: $GPZDA,161304.00,29,12,2017,00,00*6B
2017-12-29 11:13:03 1514563983.416504: $GPGGA,161304,3946.9591,N,08404.9873,W,1,11,0.80,298.40,M,-33.324,M,,*77
2017-12-29 11:13:03 1514563983.416571: $GPRMC,161304,A,3946.9591,N,08404.9873,W,0.0000,0.000,291217,,*31
2017-12-29 11:13:03 1514563983.416632: $GPGSA,A,3,8,10,15,18,20,21,24,27,32,13,138,,1.7,0.8,1.3*31
2017-12-29 11:13:04 1514563984.406217: $GPZDA,161305.00,29,12,2017,00,00*6A
2017-12-29 11:13:04 1514563984.406378: $GPGGA,161305,3946.9591,N,08404.9873,W,1,11,0.80,298.40,M,-33.324,M,,*76
2017-12-29 11:13:04 1514563984.406444: $GPRMC,161305,A,3946.9591,N,08404.9873,W,0.0000,0.000,291217,,*30
2017-12-29 11:13:04 1514563984.406504: $GPGSA,A,3,8,10,15,18,20,21,24,27,32,13,138,,1.7,0.8,1.3*31
2017-12-29 11:13:05 1514563985.758702: $GPGSV,3,1,12,08,05,325,35,10,40,300,43,15,39,052,48,18,70,333,42*78
2017-12-29 11:13:05 1514563985.758881: $GPGSV,3,2,12,20,36,093,48,21,66,192,45,24,49,114,46,27,19,292,36*7E
2017-12-29 11:13:05 1514563985.758964: $GPGSV,3,3,12,32,20,237,38,13,10,048,21,14,01,231,00,138,38,213,44*4D
2017-12-29 11:13:05 1514563985.872447: $GPZDA,161306.00,29,12,2017,00,00*69
2017-12-29 11:13:05 1514563985.872559: $GPGGA,161306,3946.9591,N,08404.9873,W,1,11,0.80,298.40,M,-33.324,M,,*75
2017-12-29 11:13:05 1514563985.872623: $GPRMC,161306,A,3946.9591,N,08404.9873,W,0.0000,0.000,291217,,*33
2017-12-29 11:13:05 1514563985.872682: $GPGSA,A,3,8,10,15,18,20,21,24,27,32,13,138,,1.7,0.8,1.3*31
2017-12-29 11:13:06 1514563986.406722: $GPZDA,161307.00,29,12,2017,00,00*68
2017-12-29 11:13:06 1514563986.406908: $GPGGA,161307,3946.9591,N,08404.9873,W,1,11,0.80,298.40,M,-33.324,M,,*74
2017-12-29 11:13:06 1514563986.406975: $GPRMC,161307,A,3946.9591,N,08404.9873,W,0.0000,0.000,291217,,*32
2017-12-29 11:13:06 1514563986.407036: $GPGSA,A,3,8,10,15,18,20,21,24,27,32,13,138,,1.7,0.8,1.3*31
2017-12-29 11:13:07 1514563987.421381: $GPZDA,161308.00,29,12,2017,00,00*67
2017-12-29 11:13:07 1514563987.421545: $GPGGA,161308,3946.9591,N,08404.9873,W,1,11,0.80,298.40,M,-33.324,M,,*7B
2017-12-29 11:13:07 1514563987.421610: $GPRMC,161308,A,3946.9591,N,08404.9873,W,0.0000,0.000,291217,,*3D
2017-12-29 11:13:07 1514563987.421671: $GPGSA,A,3,8,10,15,18,20,21,24,27,32,13,138,,1.7,0.8,1.3*31
