2017-12-29 10:39:52 1514561992.049385: {"class":"VERSION","release":"3.16","rev":"3.16-4","proto_major":3,"proto_minor":11}
2017-12-29 10:39:52 1514561992.049704: {"class":"DEVICES","devices":[{"class":"DEVICE","path":"/dev/ttyUSB0","driver":"SiRF","subtype":"9\u0006GSD4e_4.1.2-P1_RPATCH.05-F-GPS-4R-1510281 11/03/2015 307","activated":"2017-12-29T15:39:51.595Z","flags":1,"native":1,"bps":4800,"parity":"N","stopbits":1,"cycle":1.00}]}
2017-12-29 10:39:52 1514561992.049816: {"class":"WATCH","enable":true,"json":false,"nmea":true,"raw":0,"scaled":false,"timing":false,"split24":false,"pps":false}
2017-12-29 10:39:52 1514561992.760680: $GPGSV,3,1,11,10,29,288,43,13,22,045,45,15,53,049,51,18,60,310,42*76
2017-12-29 10:39:52 1514561992.760840: $GPGSV,3,2,11,20,47,079,49,21,78,228,47,24,40,132,49,27,18,306,38*70
2017-12-29 10:39:52 1514561992.760906: $GPGSV,3,3,11,29,04,187,33,32,08,229,34,138,38,213,45*7F
2017-12-29 10:39:52 1514561992.874012: $GPZDA,153953.00,29,12,2017,00,00*62
2017-12-29 10:39:52 1514561992.874172: $GPGGA,153953,3946.9654,N,08404.9773,W,2,11,0.80,331.09,M,-33.324,M,,*77
2017-12-29 10:39:52 1514561992.874240: $GPRMC,153953,A,3946.9654,N,08404.9773,W,0.0000,0.000,291217,,*3D
2017-12-29 10:39:52 1514561992.874301: $GPGSA,A,3,10,13,15,18,20,21,24,27,29,32,138,,1.7,0.8,1.3*02
2017-12-29 10:39:53 1514561993.457421: $GPZDA,153954.00,29,12,2017,00,00*65
2017-12-29 10:39:53 1514561993.457594: $GPGGA,153954,3946.9654,N,08404.9773,W,2,11,0.80,331.09,M,-33.324,M,,*70
2017-12-29 10:39:53 1514561993.457661: $GPRMC,153954,A,3946.9654,N,08404.9773,W,0.0000,0.000,291217,,*3A
2017-12-29 10:39:53 1514561993.457721: $GPGSA,A,3,10,13,15,18,20,21,24,27,29,32,138,,1.7,0.8,1.3*02
2017-12-29 10:39:54 1514561994.459819: $GPZDA,153955.00,29,12,2017,00,00*64
2017-12-29 10:39:54 1514561994.460004: $GPGGA,153955,3946.9654,N,08404.9773,W,2,11,0.80,331.09,M,-33.324,M,,*71
2017-12-29 10:39:54 1514561994.460089: $GPRMC,153955,A,3946.9654,N,08404.9773,W,0.0000,0.000,291217,,*3B
2017-12-29 10:39:54 1514561994.460152: $GPGSA,A,3,10,13,15,18,20,21,24,27,29,32,138,,1.7,0.8,1.3*02
2017-12-29 10:39:55 1514561995.795274: $GPGSV,3,1,11,10,29,288,43,13,22,045,45,15,53,049,51,18,60,310,42*76
2017-12-29 10:39:55 1514561995.795429: $GPGSV,3,2,11,20,47,079,49,21,78,228,47,24,40,132,49,27,18,306,37*7F
2017-12-29 10:39:55 1514561995.795495: $GPGSV,3,3,11,29,04,187,33,32,08,229,34,138,38,213,45*7F
2017-12-29 10:39:55 1514561995.908871: $GPZDA,153956.00,29,12,2017,00,00*67
2017-12-29 10:39:55 1514561995.909021: $GPGGA,153956,3946.9654,N,08404.9773,W,2,11,0.80,331.09,M,-33.324,M,,*72
2017-12-29 10:39:55 1514561995.909102: $GPRMC,153956,A,3946.9654,N,08404.9773,W,0.0000,0.000,291217,,*38
2017-12-29 10:39:55 1514561995.909164: $GPGSA,A,3,10,13,15,18,20,21,24,27,29,32,138,,1.7,0.8,1.3*02
2017-12-29 10:39:56 1514561996.534259: $GPZDA,153957.00,29,12,2017,00,00*66
2017-12-29 10:39:57 1514561997.222252: $GPGGA,153957,3946.9655,N,08404.9780,W,2,11,0.80,331.02,M,-33.324,M,,*75
2017-12-29 10:39:57 1514561997.222412: $GPRMC,153957,A,3946.9655,N,08404.9780,W,0.0000,0.000,291217,,*34
2017-12-29 10:39:57 1514561997.222475: $GPGSA,A,3,10,13,15,18,20,21,24,27,29,32,138,,1.7,0.8,1.3*02
2017-12-29 10:39:57 1514561997.453877: $GPZDA,153958.00,29,12,2017,00,00*69
2017-12-29 10:39:57 1514561997.454060: $GPGGA,153958,3946.9655,N,08404.9780,W,2,11,0.80,331.02,M,-33.324,M,,*7A
2017-12-29 10:39:57 1514561997.454127: $GPRMC,153958,A,3946.9655,N,08404.9780,W,0.0000,0.000,291217,,*3B
2017-12-29 10:39:57 1514561997.454188: $GPGSA,A,3,10,13,15,18,20,21,24,27,29,32,138,,1.7,0.8,1.3*02
2017-12-29 10:39:58 1514561998.794329: $GPGSV,3,1,11,10,29,288,43,13,22,045,45,15,53,049,51,18,60,310,42*76
2017-12-29 10:39:58 1514561998.794503: $GPGSV,3,2,11,20,47,079,49,21,78,228,47,24,40,132,49,27,18,306,36*7E
2017-12-29 10:39:58 1514561998.794569: $GPGSV,3,3,11,29,04,187,33,32,08,229,32,138,38,213,45*79
2017-12-29 10:39:58 1514561998.907982: $GPZDA,153959.00,29,12,2017,00,00*68
2017-12-29 10:39:58 1514561998.908134: $GPGGA,153959,3946.9655,N,08404.9780,W,2,11,0.80,331.02,M,-33.324,M,,*7B
2017-12-29 10:39:58 1514561998.908271: $GPRMC,153959,A,3946.9655,N,08404.9780,W,0.0000,0.000,291217,,*3A
2017-12-29 10:39:58 1514561998.908333: $GPGSA,A,3,10,13,15,18,20,21,24,27,29,32,138,,1.7,0.8,1.3*02
2017-12-29 10:39:59 1514561999.425099: $GPZDA,154000.00,29,12,2017,00,00*6A
2017-12-29 10:39:59 1514561999.425255: $GPGGA,154000,3946.9655,N,08404.9780,W,2,11,0.80,331.02,M,-33.324,M,,*79
2017-12-29 10:39:59 1514561999.425321: $GPRMC,154000,A,3946.9655,N,08404.9780,W,0.0000,0.000,291217,,*38
2017-12-29 10:39:59 1514561999.425381: $GPGSA,A,3,10,13,15,18,20,21,24,27,29,32,138,,1.7,0.8,1.3*02
2017-12-29 10:40:00 1514562000.460960: $GPZDA,154001.00,29,12,2017,00,00*6B
2017-12-29 10:40:00 1514562000.461193: $GPGGA,154001,3946.9655,N,08404.9780,W,2,11,0.80,331.02,M,-33.324,M,,*78
2017-12-29 10:40:00 1514562000.461261: $GPRMC,154001,A,3946.9655,N,08404.9780,W,0.0000,0.000,291217,,*39
2017-12-29 10:40:00 1514562000.461323: $GPGSA,A,3,10,13,15,18,20,21,24,27,29,32,138,,1.7,0.8,1.3*02
2017-12-29 10:40:01 1514562001.759694: $GPGSV,3,1,11,10,29,288,44,13,22,045,45,15,53,049,51,18,60,310,42*71
2017-12-29 10:40:01 1514562001.759886: $GPGSV,3,2,11,20,47,079,49,21,78,228,47,24,40,132,49,27,18,306,35*7D
2017-12-29 10:40:01 1514562001.759955: $GPGSV,3,3,11,29,04,187,33,32,08,229,21,138,38,213,45*7B
2017-12-29 10:40:01 1514562001.873290: $GPZDA,154002.00,29,12,2017,00,00*68
2017-12-29 10:40:01 1514562001.873413: $GPGGA,154002,3946.9655,N,08404.9780,W,2,11,0.80,331.02,M,-33.324,M,,*7B
2017-12-29 10:40:01 1514562001.873479: $GPRMC,154002,A,3946.9655,N,08404.9780,W,0.0000,0.000,291217,,*3A
2017-12-29 10:40:01 1514562001.873539: $GPGSA,A,3,10,13,15,18,20,21,24,27,29,32,138,,1.7,0.8,1.3*02
