2017-12-31 16:49:15 1514756955.345558: {"class":"VERSION","release":"3.16","rev":"3.16-4","proto_major":3,"proto_minor":11}
2017-12-31 16:49:15 1514756955.345901: {"class":"DEVICES","devices":[{"class":"DEVICE","path":"/dev/ttyUSB0","driver":"SiRF","activated":"2017-12-31T21:49:15.232Z","flags":1,"native":1,"bps":4800,"parity":"N","stopbits":1,"cycle":1.00}]}
2017-12-31 16:49:15 1514756955.346005: {"class":"WATCH","enable":true,"json":false,"nmea":true,"raw":0,"scaled":false,"timing":false,"split24":false,"pps":false}
2017-12-31 16:49:15 1514756955.680998: $GPGSV,3,1,11,22,48,250,44,23,21,306,37,25,08,037,15,03,45,282,30*75
2017-12-31 16:49:15 1514756955.681163: $GPGSV,3,2,11,16,38,189,48,29,14,061,23,31,56,043,51,14,46,106,45*73
2017-12-31 16:49:15 1514756955.681232: $GPGSV,3,3,11,32,25,117,44,26,68,159,42,135,22,240,43*7F
2017-12-31 16:49:15 1514756955.794383: $GPZDA,214916.00,31,12,2017,00,00*6A
2017-12-31 16:49:15 1514756955.794508: $GPGGA,214916,3946.9576,N,08404.9848,W,2,11,0.80,303.18,M,-33.324,M,,*73
2017-12-31 16:49:15 1514756955.794573: $GPRMC,214916,A,3946.9576,N,08404.9848,W,0.0000,0.000,311217,,*31
2017-12-31 16:49:15 1514756955.794633: $GPGSA,A,3,22,23,25,3,16,29,31,14,32,26,135,,1.7,0.8,1.3*32
2017-12-31 16:49:16 1514756956.344036: $GPZDA,214917.00,31,12,2017,00,00*6B
2017-12-31 16:49:16 1514756956.344211: $GPGGA,214917,3946.9576,N,08404.9848,W,2,11,0.80,303.18,M,-33.324,M,,*72
2017-12-31 16:49:16 1514756956.344280: $GPRMC,214917,A,3946.9576,N,08404.9848,W,0.0000,0.000,311217,,*30
2017-12-31 16:49:16 1514756956.344344: $GPGSA,A,3,22,23,25,3,16,29,31,14,32,26,135,,1.7,0.8,1.3*32
2017-12-31 16:49:17 1514756957.346032: $GPZDA,214918.00,31,12,2017,00,00*64
2017-12-31 16:49:17 1514756957.346233: $GPGGA,214918,3946.9576,N,08404.9848,W,2,11,0.80,303.18,M,-33.324,M,,*7D
2017-12-31 16:49:17 1514756957.346303: $GPRMC,214918,A,3946.9576,N,08404.9848,W,0.0000,0.000,311217,,*3F
2017-12-31 16:49:17 1514756957.346366: $GPGSA,A,3,22,23,25,3,16,29,31,14,32,26,135,,1.7,0.8,1.3*32
2017-12-31 16:49:18 1514756958.689359: $GPGSV,3,1,11,22,48,250,45,23,21,306,37,25,08,037,26,03,45,282,31*75
2017-12-31 16:49:18 1514756958.689528: $GPGSV,3,2,11,16,38,189,48,29,14,061,23,31,56,043,51,14,46,106,45*73
2017-12-31 16:49:18 1514756958.689595: $GPGSV,3,3,11,32,25,117,44,26,68,159,42,135,22,240,44*78
2017-12-31 16:49:18 1514756958.802717: $GPZDA,214919.00,31,12,2017,00,00*65
2017-12-31 16:49:18 1514756958.802859: $GPGGA,214919,3946.9576,N,08404.9848,W,2,11,0.80,303.18,M,-33.324,M,,*7C
2017-12-31 16:49:18 1514756958.802926: $GPRMC,214919,A,3946.9576,N,08404.9848,W,0.0000,0.000,311217,,*3E
2017-12-31 16:49:18 1514756958.802987: $GPGSA,A,3,22,23,25,3,16,29,31,14,32,26,135,,1.7,0.8,1.3*32
2017-12-31 16:49:19 1514756959.344872: $GPZDA,214920.00,31,12,2017,00,00*6F
2017-12-31 16:49:19 1514756959.349126: $GPGGA,214920,3946.9576,N,08404.9848,W,2,11,0.80,303.18,M,-33.324,M,,*76
2017-12-31 16:49:19 1514756959.349259: $GPRMC,214920,A,3946.9576,N,08404.9848,W,0.0000,0.000,311217,,*34
2017-12-31 16:49:19 1514756959.349329: $GPGSA,A,3,22,23,25,3,16,29,31,14,32,26,135,,1.7,0.8,1.3*32
2017-12-31 16:49:20 1514756960.343956: $GPZDA,214921.00,31,12,2017,00,00*6E
2017-12-31 16:49:20 1514756960.344127: $GPGGA,214921,3946.9576,N,08404.9848,W,2,11,0.80,303.18,M,-33.324,M,,*77
2017-12-31 16:49:20 1514756960.344197: $GPRMC,214921,A,3946.9576,N,08404.9848,W,0.0000,0.000,311217,,*35
2017-12-31 16:49:20 1514756960.344257: $GPGSA,A,3,22,23,25,3,16,29,31,14,32,26,135,,1.7,0.8,1.3*32
2017-12-31 16:49:21 1514756961.697255: $GPGSV,3,1,11,22,48,250,45,23,21,306,37,25,08,037,27,03,45,282,13*74
2017-12-31 16:49:21 1514756961.697419: $GPGSV,3,2,11,16,38,189,48,29,14,061,24,31,56,043,51,14,46,106,45*74
2017-12-31 16:49:21 1514756961.697484: $GPGSV,3,3,11,32,25,117,44,26,68,159,42,135,22,240,44*78
2017-12-31 16:49:21 1514756961.810565: $GPZDA,214922.00,31,12,2017,00,00*6D
2017-12-31 16:49:21 1514756961.810702: $GPGGA,214922,3946.9576,N,08404.9848,W,2,11,0.80,303.18,M,-33.324,M,,*74
2017-12-31 16:49:21 1514756961.810769: $GPRMC,214922,A,3946.9576,N,08404.9848,W,0.0000,0.000,311217,,*36
2017-12-31 16:49:21 1514756961.810883: $GPGSA,A,3,22,23,25,3,16,29,31,14,32,26,135,,1.7,0.8,1.3*32
2017-12-31 16:49:22 1514756962.343931: $GPZDA,214923.00,31,12,2017,00,00*6C
2017-12-31 16:49:22 1514756962.344105: $GPGGA,214923,3946.9576,N,08404.9848,W,2,11,0.80,303.18,M,-33.324,M,,*75
2017-12-31 16:49:22 1514756962.344190: $GPRMC,214923,A,3946.9576,N,08404.9848,W,0.0000,0.000,311217,,*37
2017-12-31 16:49:22 1514756962.344256: $GPGSA,A,3,22,23,25,3,16,29,31,14,32,26,135,,1.7,0.8,1.3*32
2017-12-31 16:49:23 1514756963.344854: $GPZDA,214924.00,31,12,2017,00,00*6B
2017-12-31 16:49:23 1514756963.345031: $GPGGA,214924,3946.9576,N,08404.9848,W,2,11,0.80,303.18,M,-33.324,M,,*72
2017-12-31 16:49:23 1514756963.345097: $GPRMC,214924,A,3946.9576,N,08404.9848,W,0.0000,0.000,311217,,*30
2017-12-31 16:49:23 1514756963.345162: $GPGSA,A,3,22,23,25,3,16,29,31,14,32,26,135,,1.7,0.8,1.3*32
2017-12-31 16:49:24 1514756964.688066: $GPGSV,3,1,11,22,48,250,45,23,21,306,37,25,08,037,27,03,45,282,33*76
2017-12-31 16:49:24 1514756964.688269: $GPGSV,3,2,11,16,38,189,48,29,14,061,25,31,56,043,51,14,46,106,45*75
2017-12-31 16:49:24 1514756964.688339: $GPGSV,3,3,11,32,25,117,44,26,68,159,42,135,22,240,43*7F
2017-12-31 16:49:24 1514756964.801508: $GPZDA,214925.00,31,12,2017,00,00*6A
2017-12-31 16:49:24 1514756964.801655: $GPGGA,214925,3946.9576,N,08404.9848,W,2,11,0.80,303.18,M,-33.324,M,,*73
2017-12-31 16:49:24 1514756964.801722: $GPRMC,214925,A,3946.9576,N,08404.9848,W,0.0000,0.000,311217,,*31
2017-12-31 16:49:24 1514756964.801782: $GPGSA,A,3,22,23,25,3,16,29,31,14,32,26,135,,1.7,0.8,1.3*32
