2017-12-01 16:09:47 1512162587.946970: {"class":"VERSION","release":"3.16","rev":"3.16-4","proto_major":3,"proto_minor":11}
2017-12-01 16:09:47 1512162587.947395: {"class":"DEVICES","devices":[{"class":"DEVICE","path":"/dev/ttyUSB0","driver":"SiRF","subtype":"9\u0006GSD4e_4.1.2-P1_RPATCH.05-F-GPS-4R-1510281 11/03/2015 307","activated":"2017-12-01T21:09:47.528Z","flags":1,"native":1,"bps":4800,"parity":"N","stopbits":1,"cycle":1.00}]}
2017-12-01 16:09:47 1512162587.947538: {"class":"WATCH","enable":true,"json":false,"nmea":true,"raw":0,"scaled":false,"timing":false,"split24":false,"pps":false}
2017-12-01 16:09:48 1512162588.386449: $GPZDA,210949.00,01,12,2017,00,00*67
2017-12-01 16:09:48 1512162588.386622: $GPGGA,210949,3946.9580,N,08404.9826,W,2,11,0.80,313.33,M,-33.324,M,,*74
2017-12-01 16:09:48 1512162588.386688: $GPRMC,210949,A,3946.9580,N,08404.9826,W,0.0000,0.000,011217,,*3D
2017-12-01 16:09:48 1512162588.386749: $GPGSA,A,3,10,11,12,14,18,22,25,31,1,24,138,,2.0,0.8,1.5*3A
2017-12-01 16:09:49 1512162589.739670: $GPGSV,3,1,11,10,58,142,48,11,10,291,24,12,25,060,43,14,61,309,44*7C
2017-12-01 16:09:49 1512162589.739850: $GPGSV,3,2,11,18,27,141,44,22,11,312,38,25,36,103,48,31,46,217,49*7E
2017-12-01 16:09:49 1512162589.739917: $GPGSV,3,3,11,01,19,310,34,24,05,046,25,138,38,213,46*70
2017-12-01 16:09:49 1512162589.853041: $GPZDA,210950.00,01,12,2017,00,00*6F
2017-12-01 16:09:49 1512162589.853213: $GPGGA,210950,3946.9580,N,08404.9826,W,2,11,0.80,313.33,M,-33.324,M,,*7C
2017-12-01 16:09:49 1512162589.853301: $GPRMC,210950,A,3946.9580,N,08404.9826,W,0.0000,0.000,011217,,*35
2017-12-01 16:09:49 1512162589.853365: $GPGSA,A,3,10,11,12,14,18,22,25,31,1,24,138,,2.0,0.8,1.5*3A
2017-12-01 16:09:50 1512162590.478438: $GPZDA,210951.00,01,12,2017,00,00*6E
2017-12-01 16:09:50 1512162590.478610: $GPGGA,210951,3946.9580,N,08404.9826,W,2,11,0.80,313.33,M,-33.324,M,,*7D
2017-12-01 16:09:50 1512162590.478678: $GPRMC,210951,A,3946.9580,N,08404.9826,W,0.0000,0.000,011217,,*34
2017-12-01 16:09:50 1512162590.478738: $GPGSA,A,3,10,11,12,14,18,22,25,31,1,24,138,,2.0,0.8,1.5*3A
2017-12-01 16:09:51 1512162591.404313: $GPZDA,210952.00,01,12,2017,00,00*6D
2017-12-01 16:09:51 1512162591.404507: $GPGGA,210952,3946.9580,N,08404.9826,W,2,11,0.80,313.33,M,-33.324,M,,*7E
2017-12-01 16:09:51 1512162591.404576: $GPRMC,210952,A,3946.9580,N,08404.9826,W,0.0000,0.000,011217,,*37
2017-12-01 16:09:51 1512162591.404637: $GPGSA,A,3,10,11,12,14,18,22,25,31,1,24,138,,2.0,0.8,1.5*3A
2017-12-01 16:09:52 1512162592.741245: $GPGSV,3,1,11,10,58,142,48,11,10,291,22,12,25,060,44,14,61,309,44*7D
2017-12-01 16:09:52 1512162592.741502: $GPGSV,3,2,11,18,27,141,44,22,11,312,39,25,36,103,48,31,46,217,49*7F
2017-12-01 16:09:52 1512162592.741572: $GPGSV,3,3,11,01,19,310,34,24,05,046,25,138,38,213,46*70
2017-12-01 16:09:52 1512162592.855152: $GPZDA,210953.00,01,12,2017,00,00*6C
2017-12-01 16:09:52 1512162592.855343: $GPGGA,210953,3946.9580,N,08404.9826,W,2,11,0.80,313.33,M,-33.324,M,,*7F
2017-12-01 16:09:52 1512162592.855428: $GPRMC,210953,A,3946.9580,N,08404.9826,W,0.0000,0.000,011217,,*36
2017-12-01 16:09:52 1512162592.855491: $GPGSA,A,3,10,11,12,14,18,22,25,31,1,24,138,,2.0,0.8,1.5*3A
2017-12-01 16:09:53 1512162593.405579: $GPZDA,210954.00,01,12,2017,00,00*6B
2017-12-01 16:09:53 1512162593.405749: $GPGGA,210954,3946.9580,N,08404.9826,W,2,11,0.80,313.33,M,-33.324,M,,*78
2017-12-01 16:09:53 1512162593.405836: $GPRMC,210954,A,3946.9580,N,08404.9826,W,0.0000,0.000,011217,,*31
2017-12-01 16:09:53 1512162593.405899: $GPGSA,A,3,10,11,12,14,18,22,25,31,1,24,138,,2.0,0.8,1.5*3A
2017-12-01 16:09:54 1512162594.387784: $GPZDA,210955.00,01,12,2017,00,00*6A
2017-12-01 16:09:54 1512162594.387956: $GPGGA,210955,3946.9580,N,08404.9826,W,2,11,0.80,313.33,M,-33.324,M,,*79
2017-12-01 16:09:54 1512162594.388025: $GPRMC,210955,A,3946.9580,N,08404.9826,W,0.0000,0.000,011217,,*30
2017-12-01 16:09:54 1512162594.388086: $GPGSA,A,3,10,11,12,14,18,22,25,31,1,24,138,,2.0,0.8,1.5*3A
2017-12-01 16:09:55 1512162595.725473: $GPGSV,3,1,11,10,58,142,48,11,10,291,32,12,25,060,44,14,61,309,44*7C
2017-12-01 16:09:55 1512162595.725708: $GPGSV,3,2,11,18,27,141,44,22,11,312,40,25,36,103,47,31,46,217,49*7E
2017-12-01 16:09:55 1512162595.725778: $GPGSV,3,3,11,01,19,310,30,24,05,046,25,138,38,213,46*74
2017-12-01 16:09:55 1512162595.837642: $GPZDA,210956.00,01,12,2017,00,00*69
2017-12-01 16:09:55 1512162595.837815: $GPGGA,210956,3946.9580,N,08404.9826,W,2,11,0.80,313.33,M,-33.324,M,,*7A
2017-12-01 16:09:55 1512162595.837883: $GPRMC,210956,A,3946.9580,N,08404.9826,W,0.0000,0.000,011217,,*33
2017-12-01 16:09:55 1512162595.837944: $GPGSA,A,3,10,11,12,14,18,22,25,31,1,24,138,,2.0,0.8,1.5*3A
2017-12-01 16:09:56 1512162596.386001: $GPZDA,210957.00,01,12,2017,00,00*68
2017-12-01 16:09:56 1512162596.386175: $GPGGA,210957,3946.9580,N,08404.9826,W,2,11,0.80,313.33,M,-33.324,M,,*7B
2017-12-01 16:09:56 1512162596.386243: $GPRMC,210957,A,3946.9580,N,08404.9826,W,0.0000,0.000,011217,,*32
2017-12-01 16:09:56 1512162596.386327: $GPGSA,A,3,10,11,12,14,18,22,25,31,1,24,138,,2.0,0.8,1.5*3A
2017-12-01 16:09:57 1512162597.388071: $GPZDA,210958.00,01,12,2017,00,00*67
2017-12-01 16:09:57 1512162597.388244: $GPGGA,210958,3946.9580,N,08404.9826,W,2,11,0.80,313.33,M,-33.324,M,,*74
2017-12-01 16:09:57 1512162597.388311: $GPRMC,210958,A,3946.9580,N,08404.9826,W,0.0000,0.000,011217,,*3D
2017-12-01 16:09:57 1512162597.388372: $GPGSA,A,3,10,11,12,14,18,22,25,31,1,24,138,,2.0,0.8,1.5*3A
2017-12-01 16:09:58 1512162598.723838: $GPGSV,3,1,11,10,58,142,48,11,10,291,31,12,25,060,45,14,61,309,44*7E
2017-12-01 16:09:58 1512162598.724021: $GPGSV,3,2,11,18,27,141,44,22,11,312,40,25,36,103,48,31,46,217,48*70
2017-12-01 16:09:58 1512162598.724088: $GPGSV,3,3,11,01,19,310,32,24,05,046,24,138,38,213,45*74
2017-12-01 16:09:58 1512162598.835901: $GPZDA,210959.00,01,12,2017,00,00*66
2017-12-01 16:09:58 1512162598.836039: $GPGGA,210959,3946.9580,N,08404.9826,W,2,11,0.80,313.33,M,-33.324,M,,*75
2017-12-01 16:09:58 1512162598.836104: $GPRMC,210959,A,3946.9580,N,08404.9826,W,0.0000,0.000,011217,,*3C
2017-12-01 16:09:58 1512162598.836164: $GPGSA,A,3,10,11,12,14,18,22,25,31,1,24,138,,2.0,0.8,1.5*3A
2017-12-01 16:09:59 1512162599.386881: $GPZDA,211000.00,01,12,2017,00,00*62
2017-12-01 16:09:59 1512162599.387051: $GPGGA,211000,3946.9580,N,08404.9826,W,2,11,0.80,313.33,M,-33.324,M,,*71
2017-12-01 16:09:59 1512162599.387138: $GPRMC,211000,A,3946.9580,N,08404.9826,W,0.0000,0.000,011217,,*38
2017-12-01 16:09:59 1512162599.387200: $GPGSA,A,3,10,11,12,14,18,22,25,31,1,24,138,,2.0,0.8,1.5*3A
2017-12-01 16:10:00 1512162600.387261: $GPZDA,211001.00,01,12,2017,00,00*63
2017-12-01 16:10:00 1512162600.387467: $GPGGA,211001,3946.9580,N,08404.9826,W,2,11,0.80,313.33,M,-33.324,M,,*70
2017-12-01 16:10:00 1512162600.387535: $GPRMC,211001,A,3946.9580,N,08404.9826,W,0.0000,0.000,011217,,*39
2017-12-01 16:10:00 1512162600.387596: $GPGSA,A,3,10,11,12,14,18,22,25,31,1,24,138,,2.0,0.8,1.5*3A
2017-12-01 16:10:01 1512162601.724192: $GPGSV,3,1,11,10,58,142,48,11,10,291,38,12,25,060,45,14,61,309,44*77
2017-12-01 16:10:01 1512162601.724409: $GPGSV,3,2,11,18,27,141,44,22,11,312,40,25,36,103,48,31,46,217,49*71
2017-12-01 16:10:01 1512162601.724477: $GPGSV,3,3,11,01,19,310,32,24,05,046,24,138,38,213,46*77
2017-12-01 16:10:01 1512162601.837633: $GPZDA,211002.00,01,12,2017,00,00*60
2017-12-01 16:10:01 1512162601.837796: $GPGGA,211002,3946.9580,N,08404.9826,W,2,11,0.80,313.33,M,-33.324,M,,*73
2017-12-01 16:10:01 1512162601.837862: $GPRMC,211002,A,3946.9580,N,08404.9826,W,0.0000,0.000,011217,,*3A
2017-12-01 16:10:01 1512162601.837923: $GPGSA,A,3,10,11,12,14,18,22,25,31,1,24,138,,2.0,0.8,1.5*3A
2017-12-01 16:10:02 1512162602.387219: $GPZDA,211003.00,01,12,2017,00,00*61
2017-12-01 16:10:02 1512162602.387426: $GPGGA,211003,3946.9580,N,08404.9826,W,2,11,0.80,313.33,M,-33.324,M,,*72
2017-12-01 16:10:02 1512162602.387495: $GPRMC,211003,A,3946.9580,N,08404.9826,W,0.0000,0.000,011217,,*3B
2017-12-01 16:10:02 1512162602.387556: $GPGSA,A,3,10,11,12,14,18,22,25,31,1,24,138,,2.0,0.8,1.5*3A
2017-12-01 16:10:03 1512162603.386853: $GPZDA,211004.00,01,12,2017,00,00*66
2017-12-01 16:10:03 1512162603.387051: $GPGGA,211004,3946.9580,N,08404.9826,W,2,11,0.80,313.33,M,-33.324,M,,*75
2017-12-01 16:10:03 1512162603.387137: $GPRMC,211004,A,3946.9580,N,08404.9826,W,0.0000,0.000,011217,,*3C
2017-12-01 16:10:03 1512162603.387199: $GPGSA,A,3,10,11,12,14,18,22,25,31,1,24,138,,2.0,0.8,1.5*3A
2017-12-01 16:10:04 1512162604.723835: $GPGSV,3,1,11,10,58,142,48,11,10,291,38,12,25,060,45,14,61,309,44*77
2017-12-01 16:10:04 1512162604.723994: $GPGSV,3,2,11,18,27,141,44,22,11,312,41,25,36,103,48,31,46,217,49*70
2017-12-01 16:10:04 1512162604.724061: $GPGSV,3,3,11,01,19,310,32,24,05,046,24,138,38,213,46*77
2017-12-01 16:10:04 1512162604.837391: $GPZDA,211005.00,01,12,2017,00,00*67
2017-12-01 16:10:04 1512162604.837559: $GPGGA,211005,3946.9580,N,08404.9826,W,2,11,0.80,313.33,M,-33.324,M,,*74
2017-12-01 16:10:04 1512162604.837626: $GPRMC,211005,A,3946.9580,N,08404.9826,W,0.0000,0.000,011217,,*3D
2017-12-01 16:10:04 1512162604.837687: $GPGSA,A,3,10,11,12,14,18,22,25,31,1,24,138,,2.0,0.8,1.5*3A
2017-12-01 16:10:05 1512162605.462787: $GPZDA,211006.00,01,12,2017,00,00*64
2017-12-01 16:10:05 1512162605.465650: $GPGGA,211006,3946.9580,N,08404.9826,W,2,11,0.80,313.33,M,-33.324,M,,*77
2017-12-01 16:10:05 1512162605.465956: $GPRMC,211006,A,3946.9580,N,08404.9826,W,0.0000,0.000,011217,,*3E
2017-12-01 16:10:05 1512162605.466086: $GPGSA,A,3,10,11,12,14,18,22,25,31,1,24,138,,2.0,0.8,1.5*3A
2017-12-01 16:10:06 1512162606.384742: $GPZDA,211007.00,01,12,2017,00,00*65
2017-12-01 16:10:06 1512162606.384917: $GPGGA,211007,3946.9580,N,08404.9826,W,2,11,0.80,313.33,M,-33.324,M,,*76
2017-12-01 16:10:06 1512162606.384985: $GPRMC,211007,A,3946.9580,N,08404.9826,W,0.0000,0.000,011217,,*3F
2017-12-01 16:10:06 1512162606.385046: $GPGSA,A,3,10,11,12,14,18,22,25,31,1,24,138,,2.0,0.8,1.5*3A
2017-12-01 16:10:07 1512162607.721728: $GPGSV,3,1,11,10,58,142,49,11,10,291,38,12,25,060,44,14,61,309,44*77
2017-12-01 16:10:07 1512162607.721914: $GPGSV,3,2,11,18,27,141,44,22,11,312,41,25,36,103,49,31,46,217,49*71
2017-12-01 16:10:07 1512162607.721982: $GPGSV,3,3,11,01,19,310,31,24,05,046,23,138,38,213,45*70
2017-12-01 16:10:07 1512162607.835160: $GPZDA,211008.00,01,12,2017,00,00*6A
2017-12-01 16:10:07 1512162607.835331: $GPGGA,211008,3946.9576,N,08404.9826,W,2,11,0.80,314.09,M,-33.324,M,,*7E
2017-12-01 16:10:07 1512162607.835414: $GPRMC,211008,A,3946.9576,N,08404.9826,W,0.0000,0.000,011217,,*39
2017-12-01 16:10:07 1512162607.835476: $GPGSA,A,3,10,11,12,14,18,22,25,31,1,24,138,,2.0,0.8,1.5*3A
