2017-11-16 14:56:26 1510862186.986290: {"class":"VERSION","release":"3.17","rev":"3.17","proto_major":3,"proto_minor":12}
2017-11-16 14:56:26 1510862186.986714: {"class":"DEVICES","devices":[{"class":"DEVICE","path":"/dev/ttyUSB0","driver":"SiRF","subtype":"9\u0006GSD4e_4.1.2-P1_RPATCH.05-F-GPS-4R-1510281 11/03/2015 307","activated":"2017-11-16T19:56:26.633Z","flags":1,"native":1,"bps":4800,"parity":"N","stopbits":1,"cycle":1.00}]}
2017-11-16 14:56:26 1510862186.986825: {"class":"WATCH","enable":true,"json":false,"nmea":true,"raw":0,"scaled":false,"timing":false,"split24":false,"pps":false}
2017-11-16 14:56:27 1510862187.865298: $GPGSV,3,1,12,08,08,304,37,10,57,316,50,12,01,117,00,15,21,060,49*70
2017-11-16 14:56:27 1510862187.865470: $GPGSV,3,2,12,18,77,048,45,21,43,181,45,20,18,109,44,24,52,076,48*7D
2017-11-16 14:56:27 1510862187.865531: $GPGSV,3,3,12,27,13,271,44,32,36,252,46,14,19,244,45,138,38,213,44*45
2017-11-16 14:56:27 1510862187.978645: $GPZDA,195626.00,16,11,2017,00,00*6A
2017-11-16 14:56:27 1510862187.978813: $GPGGA,195626,3946.9575,N,08404.9848,W,2,11,0.80,301.77,M,-33.324,M,,*7D
2017-11-16 14:56:27 1510862187.978875: $GPRMC,195626,A,3946.9575,N,08404.9848,W,0.0000,0.000,161117,,*32
2017-11-16 14:56:27 1510862187.978931: $GPGSA,A,3,8,10,15,18,21,20,24,27,32,14,138,,1.6,0.8,1.3*37
2017-11-16 14:56:28 1510862188.529526: $GPZDA,195627.00,16,11,2017,00,00*6B
2017-11-16 14:56:28 1510862188.635525: $GPGGA,195627,3946.9575,N,08404.9848,W,2,11,0.80,301.77,M,-33.324,M,,*7C
2017-11-16 14:56:28 1510862188.635669: $GPRMC,195627,A,3946.9575,N,08404.9848,W,0.0000,0.000,161117,,*33
2017-11-16 14:56:28 1510862188.635730: $GPGSA,A,3,8,10,15,18,21,20,24,27,32,14,138,,1.6,0.8,1.3*37
2017-11-16 14:56:29 1510862189.493674: $GPZDA,195628.00,16,11,2017,00,00*64
2017-11-16 14:56:29 1510862189.493839: $GPGGA,195628,3946.9575,N,08404.9848,W,2,11,0.80,301.77,M,-33.324,M,,*73
2017-11-16 14:56:29 1510862189.493899: $GPRMC,195628,A,3946.9575,N,08404.9848,W,0.0000,0.000,161117,,*3C
2017-11-16 14:56:29 1510862189.493954: $GPGSA,A,3,8,10,15,18,21,20,24,27,32,14,138,,1.6,0.8,1.3*37
2017-11-16 14:56:30 1510862190.860689: $GPGSV,3,1,12,08,08,304,38,10,57,316,50,12,01,117,00,15,21,060,49*7F
2017-11-16 14:56:30 1510862190.860863: $GPGSV,3,2,12,18,77,048,45,21,43,181,45,20,18,109,44,24,52,076,49*7C
2017-11-16 14:56:30 1510862190.860923: $GPGSV,3,3,12,27,13,271,44,32,36,252,46,14,19,244,45,138,38,213,44*45
2017-11-16 14:56:30 1510862190.973946: $GPZDA,195629.00,16,11,2017,00,00*65
2017-11-16 14:56:30 1510862190.974114: $GPGGA,195629,3946.9575,N,08404.9848,W,2,11,0.80,301.77,M,-33.324,M,,*72
2017-11-16 14:56:30 1510862190.974176: $GPRMC,195629,A,3946.9575,N,08404.9848,W,0.0000,0.000,161117,,*3D
2017-11-16 14:56:30 1510862190.974232: $GPGSA,A,3,8,10,15,18,21,20,24,27,32,14,138,,1.6,0.8,1.3*37
2017-11-16 14:56:31 1510862191.530262: $GPZDA,195630.00,16,11,2017,00,00*6D
2017-11-16 14:56:31 1510862191.530488: $GPGGA,195630,3946.9575,N,08404.9848,W,2,11,0.80,301.77,M,-33.324,M,,*7A
2017-11-16 14:56:31 1510862191.530552: $GPRMC,195630,A,3946.9575,N,08404.9848,W,0.0000,0.000,161117,,*35
2017-11-16 14:56:31 1510862191.530608: $GPGSA,A,3,8,10,15,18,21,20,24,27,32,14,138,,1.6,0.8,1.3*37
2017-11-16 14:56:32 1510862192.530790: $GPZDA,195631.00,16,11,2017,00,00*6C
2017-11-16 14:56:32 1510862192.530980: $GPGGA,195631,3946.9575,N,08404.9848,W,2,11,0.80,301.77,M,-33.324,M,,*7B
2017-11-16 14:56:32 1510862192.531043: $GPRMC,195631,A,3946.9575,N,08404.9848,W,0.0000,0.000,161117,,*34
2017-11-16 14:56:32 1510862192.531098: $GPGSA,A,3,8,10,15,18,21,20,24,27,32,14,138,,1.6,0.8,1.3*37
2017-11-16 14:56:33 1510862193.866593: $GPGSV,3,1,12,08,08,304,38,10,57,316,50,12,01,117,00,15,21,060,49*7F
2017-11-16 14:56:33 1510862193.866760: $GPGSV,3,2,12,18,77,048,45,21,43,181,45,20,18,109,44,24,52,076,49*7C
2017-11-16 14:56:33 1510862193.866820: $GPGSV,3,3,12,27,13,271,44,32,36,252,45,14,19,244,45,138,38,213,43*41
2017-11-16 14:56:33 1510862193.979961: $GPZDA,195632.00,16,11,2017,00,00*6F
2017-11-16 14:56:33 1510862193.980121: $GPGGA,195632,3946.9575,N,08404.9848,W,2,11,0.80,301.77,M,-33.324,M,,*78
2017-11-16 14:56:33 1510862193.980237: $GPRMC,195632,A,3946.9575,N,08404.9848,W,0.0000,0.000,161117,,*37
2017-11-16 14:56:33 1510862193.980348: $GPGSA,A,3,8,10,15,18,21,20,24,27,32,14,138,,1.6,0.8,1.3*37
2017-11-16 14:56:34 1510862194.605597: $GPZDA,195633.00,16,11,2017,00,00*6E
2017-11-16 14:56:34 1510862194.605760: $GPGGA,195633,3946.9575,N,08404.9848,W,2,11,0.80,301.77,M,-33.324,M,,*79
2017-11-16 14:56:34 1510862194.605821: $GPRMC,195633,A,3946.9575,N,08404.9848,W,0.0000,0.000,161117,,*36
2017-11-16 14:56:34 1510862194.605876: $GPGSA,A,3,8,10,15,18,21,20,24,27,32,14,138,,1.6,0.8,1.3*37
2017-11-16 14:56:35 1510862195.530187: $GPZDA,195634.00,16,11,2017,00,00*69
2017-11-16 14:56:35 1510862195.530409: $GPGGA,195634,3946.9575,N,08404.9848,W,2,11,0.80,301.77,M,-33.324,M,,*7E
2017-11-16 14:56:35 1510862195.530479: $GPRMC,195634,A,3946.9575,N,08404.9848,W,0.0000,0.000,161117,,*31
2017-11-16 14:56:35 1510862195.530536: $GPGSA,A,3,8,10,15,18,21,20,24,27,32,14,138,,1.6,0.8,1.3*37
2017-11-16 14:56:36 1510862196.863268: $GPGSV,3,1,12,08,08,304,38,10,57,316,50,12,01,117,00,15,21,060,48*7E
2017-11-16 14:56:36 1510862196.863436: $GPGSV,3,2,12,18,77,048,45,21,43,181,44,20,18,109,44,24,52,076,48*7C
2017-11-16 14:56:36 1510862196.863496: $GPGSV,3,3,12,27,13,271,44,32,36,252,45,14,19,244,45,138,38,213,44*46
2017-11-16 14:56:36 1510862196.976815: $GPZDA,195635.00,16,11,2017,00,00*68
2017-11-16 14:56:36 1510862196.976972: $GPGGA,195635,3946.9575,N,08404.9848,W,2,11,0.80,301.77,M,-33.324,M,,*7F
2017-11-16 14:56:36 1510862196.977033: $GPRMC,195635,A,3946.9575,N,08404.9848,W,0.0000,0.000,161117,,*30
2017-11-16 14:56:36 1510862196.977089: $GPGSA,A,3,8,10,15,18,21,20,24,27,32,14,138,,1.6,0.8,1.3*37
