2017-12-14 12:30:02 1513272602.792406: {"class":"VERSION","release":"3.16","rev":"3.16-4","proto_major":3,"proto_minor":11}
2017-12-14 12:30:02 1513272602.792776: {"class":"DEVICES","devices":[{"class":"DEVICE","path":"/dev/ttyUSB0","driver":"SiRF","subtype":"9\u0006GSD4e_4.1.2-P1_RPATCH.05-F-GPS-4R-1510281 11/03/2015 307","activated":"2017-12-14T17:30:02.793Z","flags":1,"native":1,"bps":4800,"parity":"N","stopbits":1,"cycle":1.00}]}
2017-12-14 12:30:02 1513272602.792897: {"class":"WATCH","enable":true,"json":false,"nmea":true,"raw":0,"scaled":false,"timing":false,"split24":false,"pps":false}
2017-12-14 12:30:03 1513272603.242250: $GPZDA,173004.00,14,12,2017,00,00*65
2017-12-14 12:30:03 1513272603.242416: $GPGGA,173004,3946.9419,N,08404.9388,W,1,08,1.20,311.45,M,-33.324,M,,*7F
2017-12-14 12:30:03 1513272603.242482: $GPRMC,173004,A,3946.9419,N,08404.9388,W,0.5287,182.716,141217,,*32
2017-12-14 12:30:03 1513272603.242563: $GPGSA,A,3,21,20,24,10,18,27,32,15,,,,,6.6,1.2,6.2*3A
2017-12-14 12:30:04 1513272604.224500: $GPZDA,173005.00,14,12,2017,00,00*64
2017-12-14 12:30:04 1513272604.224658: $GPGGA,173005,3946.9415,N,08404.9388,W,1,08,1.20,310.81,M,-33.324,M,,*7B
2017-12-14 12:30:04 1513272604.224723: $GPRMC,173005,A,3946.9415,N,08404.9388,W,0.5287,182.716,141217,,*3F
2017-12-14 12:30:04 1513272604.224784: $GPGSA,A,3,21,20,24,10,18,27,32,15,,,,,6.6,1.2,6.2*3A
2017-12-14 12:30:05 1513272605.578130: $GPGSV,3,1,12,21,57,184,17,20,30,099,26,24,52,102,23,10,45,304,22*73
2017-12-14 12:30:05 1513272605.578292: $GPGSV,3,2,12,13,04,049,04,18,74,351,04,27,18,285,16,32,25,241,11*78
2017-12-14 12:30:05 1513272605.578357: $GPGSV,3,3,12,08,07,318,04,15,33,054,19,14,07,235,00,120,07,103,00*46
2017-12-14 12:30:05 1513272605.691680: $GPZDA,173006.00,14,12,2017,00,00*67
2017-12-14 12:30:05 1513272605.691865: $GPGGA,173006,3946.9419,N,08404.9388,W,1,07,1.20,311.45,M,-33.324,M,,*72
2017-12-14 12:30:05 1513272605.691932: $GPRMC,173006,A,3946.9419,N,08404.9388,W,0.2422,93.795,141217,,*04
2017-12-14 12:30:05 1513272605.691993: $GPGSA,A,3,21,20,24,10,27,32,15,,,,,,6.6,1.2,6.2*33
2017-12-14 12:30:06 1513272606.241655: $GPZDA,173007.00,14,12,2017,00,00*66
2017-12-14 12:30:06 1513272606.241833: $GPGGA,173007,3946.9419,N,08404.9388,W,1,07,1.20,311.45,M,-33.324,M,,*73
2017-12-14 12:30:06 1513272606.241898: $GPRMC,173007,A,3946.9419,N,08404.9388,W,0.3006,62.540,141217,,*02
2017-12-14 12:30:06 1513272606.241959: $GPGSA,A,3,21,20,24,10,27,32,15,,,,,,6.6,1.2,6.2*33
2017-12-14 12:30:07 1513272607.225570: $GPZDA,173008.00,14,12,2017,00,00*69
2017-12-14 12:30:07 1513272607.225735: $GPGGA,173008,3946.9423,N,08404.9387,W,1,07,1.20,310.68,M,-33.324,M,,*74
2017-12-14 12:30:07 1513272607.225801: $GPRMC,173008,A,3946.9423,N,08404.9387,W,0.8359,328.779,141217,,*3C
2017-12-14 12:30:07 1513272607.225862: $GPGSA,A,3,21,20,24,10,27,32,15,,,,,,6.6,1.2,6.2*33
2017-12-14 12:30:08 1513272608.578764: $GPGSV,3,1,12,21,57,184,17,20,30,099,27,24,52,102,24,10,45,304,22*75
2017-12-14 12:30:08 1513272608.578934: $GPGSV,3,2,12,14,07,235,00,18,74,351,10,27,18,285,16,32,25,241,13*76
2017-12-14 12:30:08 1513272608.578999: $GPGSV,3,3,12,08,07,318,00,15,33,054,20,13,04,049,00,120,07,103,00*45
2017-12-14 12:30:08 1513272608.692150: $GPZDA,173009.00,14,12,2017,00,00*68
2017-12-14 12:30:08 1513272608.692292: $GPGGA,173009,3946.9423,N,08404.9394,W,1,08,1.20,310.60,M,-33.324,M,,*70
2017-12-14 12:30:08 1513272608.692357: $GPRMC,173009,A,3946.9423,N,08404.9394,W,0.7238,320.710,141217,,*31
2017-12-14 12:30:08 1513272608.692417: $GPGSA,A,3,21,20,24,10,18,27,32,15,,,,,6.6,1.2,6.2*3A
2017-12-14 12:30:09 1513272609.243525: $GPZDA,173010.00,14,12,2017,00,00*60
2017-12-14 12:30:09 1513272609.243706: $GPGGA,173010,3946.9427,N,08404.9394,W,1,08,1.20,311.24,M,-33.324,M,,*7D
2017-12-14 12:30:09 1513272609.243773: $GPRMC,173010,A,3946.9427,N,08404.9394,W,0.8359,328.779,141217,,*33
2017-12-14 12:30:09 1513272609.243834: $GPGSA,A,3,21,20,24,10,18,27,32,15,,,,,6.6,1.2,6.2*3A
2017-12-14 12:30:10 1513272610.242444: $GPZDA,173011.00,14,12,2017,00,00*61
2017-12-14 12:30:10 1513272610.242626: $GPGGA,173011,3946.9431,N,08404.9393,W,1,08,1.20,310.48,M,-33.324,M,,*77
2017-12-14 12:30:10 1513272610.242745: $GPRMC,173011,A,3946.9431,N,08404.9393,W,0.8359,328.779,141217,,*32
2017-12-14 12:30:10 1513272610.242808: $GPGSA,A,3,21,20,24,10,18,27,32,15,,,,,6.6,1.2,6.2*3A
2017-12-14 12:30:11 1513272611.578688: $GPGSV,3,1,12,21,57,184,16,20,30,099,26,24,52,102,24,10,45,304,22*75
2017-12-14 12:30:11 1513272611.578872: $GPGSV,3,2,12,14,07,235,00,18,74,351,13,27,18,285,15,32,25,241,15*70
2017-12-14 12:30:11 1513272611.578938: $GPGSV,3,3,12,08,07,318,00,15,33,054,20,13,04,049,00,120,07,103,00*45
2017-12-14 12:30:11 1513272611.692495: $GPZDA,173012.00,14,12,2017,00,00*62
2017-12-14 12:30:11 1513272611.692635: $GPGGA,173012,3946.9435,N,08404.9400,W,1,08,1.20,311.04,M,-33.324,M,,*74
2017-12-14 12:30:11 1513272611.692700: $GPRMC,173012,A,3946.9435,N,08404.9400,W,0.9060,347.792,141217,,*3C
2017-12-14 12:30:11 1513272611.692761: $GPGSA,A,3,21,20,24,10,18,27,32,15,,,,,6.6,1.2,6.2*3A
2017-12-14 12:30:12 1513272612.228361: $GPZDA,173013.00,14,12,2017,00,00*63
2017-12-14 12:30:12 1513272612.228530: $GPGGA,173013,3946.9443,N,08404.9399,W,1,08,1.20,310.92,M,-33.324,M,,*7D
2017-12-14 12:30:12 1513272612.228595: $GPRMC,173013,A,3946.9443,N,08404.9399,W,1.0534,350.904,141217,,*30
2017-12-14 12:30:12 1513272612.228656: $GPGSA,A,3,21,20,24,10,18,27,32,15,,,,,6.6,1.2,6.2*3A
2017-12-14 12:30:13 1513272613.244310: $GPZDA,173014.00,14,12,2017,00,00*64
2017-12-14 12:30:13 1513272613.244465: $GPGGA,173014,3946.9443,N,08404.9399,W,1,08,1.20,310.92,M,-33.324,M,,*7A
2017-12-14 12:30:13 1513272613.244530: $GPRMC,173014,A,3946.9443,N,08404.9399,W,0.6846,4.197,141217,,*38
2017-12-14 12:30:13 1513272613.244590: $GPGSA,A,3,21,20,24,10,18,27,32,15,,,,,6.6,1.2,6.2*3A
2017-12-14 12:30:14 1513272614.578077: $GPGSV,3,1,12,21,57,184,16,20,30,099,27,24,52,102,24,10,45,304,22*74
2017-12-14 12:30:14 1513272614.578251: $GPGSV,3,2,12,13,04,049,15,18,74,351,14,27,18,285,15,32,25,241,16*7D
2017-12-14 12:30:14 1513272614.578316: $GPGSV,3,3,12,14,07,235,00,15,33,054,20,08,07,318,00,120,07,103,00*48
2017-12-14 12:30:14 1513272614.691346: $GPZDA,173015.00,14,12,2017,00,00*65
2017-12-14 12:30:14 1513272614.691493: $GPGGA,173015,3946.9447,N,08404.9399,W,1,08,1.20,311.56,M,-33.324,M,,*76
2017-12-14 12:30:14 1513272614.691560: $GPRMC,173015,A,3946.9447,N,08404.9399,W,0.3423,4.197,141217,,*37
2017-12-14 12:30:14 1513272614.691619: $GPGSA,A,3,21,20,24,10,18,27,32,15,,,,,6.6,1.2,6.2*3A
2017-12-14 12:30:15 1513272615.242825: $GPZDA,173016.00,14,12,2017,00,00*66
2017-12-14 12:30:15 1513272615.242990: $GPGGA,173016,3946.9450,N,08404.9399,W,1,08,1.20,310.79,M,-33.324,M,,*7F
2017-12-14 12:30:15 1513272615.243054: $GPRMC,173016,A,3946.9450,N,08404.9399,W,0.6846,4.197,141217,,*38
2017-12-14 12:30:15 1513272615.243114: $GPGSA,A,3,21,20,24,10,18,27,32,15,,,,,6.6,1.2,6.2*3A
2017-12-14 12:30:16 1513272616.226922: $GPZDA,173017.00,14,12,2017,00,00*67
2017-12-14 12:30:16 1513272616.227086: $GPGGA,173017,3946.9455,N,08404.9399,W,1,08,1.20,311.43,M,-33.324,M,,*73
2017-12-14 12:30:16 1513272616.227154: $GPRMC,173017,A,3946.9455,N,08404.9399,W,0.6846,4.197,141217,,*3C
2017-12-14 12:30:16 1513272616.227214: $GPGSA,A,3,21,20,24,10,18,27,32,15,,,,,6.6,1.2,6.2*3A
2017-12-14 12:30:17 1513272617.561656: $GPGSV,3,1,12,21,57,184,15,20,30,099,27,24,52,102,24,10,45,304,23*76
2017-12-14 12:30:17 1513272617.561832: $GPGSV,3,2,12,14,07,235,00,18,74,351,13,27,18,285,15,32,25,241,15*70
2017-12-14 12:30:17 1513272617.561902: $GPGSV,3,3,12,08,07,318,00,15,33,054,20,13,04,049,00,120,07,103,00*45
2017-12-14 12:30:17 1513272617.675336: $GPZDA,173018.00,14,12,2017,00,00*68
2017-12-14 12:30:17 1513272617.675500: $GPGGA,173018,3946.9459,N,08404.9399,W,1,08,1.20,312.07,M,-33.324,M,,*73
2017-12-14 12:30:17 1513272617.675565: $GPRMC,173018,A,3946.9459,N,08404.9399,W,0.5774,27.515,141217,,*0D
2017-12-14 12:30:17 1513272617.675627: $GPGSA,A,3,21,20,24,10,18,27,32,15,,,,,6.6,1.2,6.2*3A
2017-12-14 12:30:18 1513272618.224640: $GPZDA,173019.00,14,12,2017,00,00*69
2017-12-14 12:30:18 1513272618.224812: $GPGGA,173019,3946.9459,N,08404.9399,W,1,08,1.20,312.07,M,-33.324,M,,*72
2017-12-14 12:30:18 1513272618.224934: $GPRMC,173019,A,3946.9459,N,08404.9399,W,0.5287,2.716,141217,,*33
2017-12-14 12:30:18 1513272618.224997: $GPGSA,A,3,21,20,24,10,18,27,32,15,,,,,6.6,1.2,6.2*3A
2017-12-14 12:30:19 1513272619.225953: $GPZDA,173020.00,14,12,2017,00,00*63
2017-12-14 12:30:19 1513272619.226122: $GPGGA,173020,3946.9466,N,08404.9398,W,1,08,1.20,311.95,M,-33.324,M,,*7D
2017-12-14 12:30:19 1513272619.226206: $GPRMC,173020,A,3946.9466,N,08404.9398,W,0.6846,4.197,141217,,*39
2017-12-14 12:30:19 1513272619.226270: $GPGSA,A,3,21,20,24,10,18,27,32,15,,,,,6.6,1.2,6.2*3A
2017-12-14 12:30:20 1513272620.562326: $GPGSV,3,1,12,21,57,184,14,20,30,099,27,24,52,102,24,10,45,304,23*77
2017-12-14 12:30:20 1513272620.562486: $GPGSV,3,2,12,14,07,235,00,18,74,351,13,27,18,285,16,32,25,241,16*70
2017-12-14 12:30:20 1513272620.562551: $GPGSV,3,3,12,08,07,318,00,15,33,054,20,13,04,049,00,120,07,103,00*45
2017-12-14 12:30:20 1513272620.676026: $GPZDA,173021.00,14,12,2017,00,00*62
2017-12-14 12:30:20 1513272620.676207: $GPGGA,173021,3946.9466,N,08404.9398,W,1,08,1.20,311.95,M,-33.324,M,,*7C
2017-12-14 12:30:20 1513272620.676276: $GPRMC,173021,A,3946.9466,N,08404.9398,W,0.3006,62.540,141217,,*0F
2017-12-14 12:30:20 1513272620.676337: $GPGSA,A,3,21,20,24,10,18,27,32,15,,,,,6.6,1.2,6.2*3A
2017-12-14 12:30:21 1513272621.224575: $GPZDA,173022.00,14,12,2017,00,00*61
2017-12-14 12:30:21 1513272621.224762: $GPGGA,173022,3946.9470,N,08404.9398,W,1,08,1.20,312.59,M,-33.324,M,,*7B
2017-12-14 12:30:21 1513272621.224831: $GPRMC,173022,A,3946.9470,N,08404.9398,W,0.5951,58.684,141217,,*04
2017-12-14 12:30:21 1513272621.224897: $GPGSA,A,3,21,20,24,10,18,27,32,15,,,,,6.6,1.2,6.2*3A
2017-12-14 12:30:22 1513272622.225946: $GPZDA,173023.00,14,12,2017,00,00*60
2017-12-14 12:30:22 1513272622.226123: $GPGGA,173023,3946.9470,N,08404.9398,W,1,08,1.20,312.59,M,-33.324,M,,*7A
2017-12-14 12:30:22 1513272622.226189: $GPRMC,173023,A,3946.9470,N,08404.9398,W,0.4179,328.779,141217,,*31
2017-12-14 12:30:22 1513272622.226251: $GPGSA,A,3,21,20,24,10,18,27,32,15,,,,,6.6,1.2,6.2*3A
