2017-12-31 18:51:30 1514764290.045993: {"class":"VERSION","release":"3.16","rev":"3.16-4","proto_major":3,"proto_minor":11}
2017-12-31 18:51:30 1514764290.046330: {"class":"DEVICES","devices":[{"class":"DEVICE","path":"/dev/ttyUSB0","driver":"SiRF","activated":"2017-12-31T23:51:29.667Z","flags":1,"native":1,"bps":4800,"parity":"N","stopbits":1,"cycle":1.00}]}
2017-12-31 18:51:30 1514764290.046429: {"class":"WATCH","enable":true,"json":false,"nmea":true,"raw":0,"scaled":false,"timing":false,"split24":false,"pps":false}
2017-12-31 18:51:30 1514764290.688015: $GPGSV,3,1,11,22,07,204,28,23,69,279,38,09,37,309,40,03,17,220,32*7E
2017-12-31 18:51:30 1514764290.688178: $GPGSV,3,2,11,16,76,036,41,08,17,175,38,31,15,090,15,27,40,142,39*7F
2017-12-31 18:51:30 1514764290.688243: $GPGSV,3,3,11,07,11,285,42,26,43,048,43,135,22,240,44*7E
2017-12-31 18:51:30 1514764290.801341: $GPZDA,235131.00,31,12,2017,00,00*64
2017-12-31 18:51:30 1514764290.801462: $GPGGA,235131,3946.9574,N,08404.9817,W,2,11,0.80,309.96,M,-33.324,M,,*79
2017-12-31 18:51:30 1514764290.801525: $GPRMC,235131,A,3946.9574,N,08404.9817,W,0.0000,0.000,311217,,*37
2017-12-31 18:51:30 1514764290.801584: $GPGSA,A,3,22,23,9,3,16,8,31,27,7,26,135,,1.7,0.8,1.3*09
2017-12-31 18:51:31 1514764291.383517: $GPZDA,235132.00,31,12,2017,00,00*67
2017-12-31 18:51:31 1514764291.383674: $GPGGA,235132,3946.9574,N,08404.9817,W,2,11,1.00,309.96,M,-33.324,M,,*73
2017-12-31 18:51:31 1514764291.383737: $GPRMC,235132,A,3946.9574,N,08404.9817,W,0.0000,0.000,311217,,*34
2017-12-31 18:51:31 1514764291.383797: $GPGSA,A,3,22,23,9,3,16,8,31,27,7,26,135,,1.7,1.0,1.3*00
2017-12-31 18:51:32 1514764292.381906: $GPZDA,235133.00,31,12,2017,00,00*66
2017-12-31 18:51:32 1514764292.382079: $GPGGA,235133,3946.9574,N,08404.9817,W,2,11,0.80,309.96,M,-33.324,M,,*7B
2017-12-31 18:51:32 1514764292.382148: $GPRMC,235133,A,3946.9574,N,08404.9817,W,0.0000,0.000,311217,,*35
2017-12-31 18:51:32 1514764292.382210: $GPGSA,A,3,22,23,9,3,16,8,31,27,7,26,135,,1.7,0.8,1.3*09
2017-12-31 18:51:33 1514764293.725144: $GPGSV,3,1,11,22,07,204,28,23,69,279,40,09,37,309,42,03,17,220,37*76
2017-12-31 18:51:33 1514764293.725331: $GPGSV,3,2,11,16,76,036,42,08,17,175,39,31,15,090,19,27,40,142,40*7F
2017-12-31 18:51:33 1514764293.725398: $GPGSV,3,3,11,07,11,285,41,26,43,048,44,135,22,240,43*7D
2017-12-31 18:51:33 1514764293.838866: $GPZDA,235134.00,31,12,2017,00,00*61
2017-12-31 18:51:33 1514764293.838993: $GPGGA,235134,3946.9574,N,08404.9817,W,2,11,0.80,309.96,M,-33.324,M,,*7C
2017-12-31 18:51:33 1514764293.839056: $GPRMC,235134,A,3946.9574,N,08404.9817,W,0.0000,0.000,311217,,*32
2017-12-31 18:51:33 1514764293.839116: $GPGSA,A,3,22,23,9,3,16,8,31,27,7,26,135,,1.7,0.8,1.3*09
2017-12-31 18:51:34 1514764294.390996: $GPZDA,235135.00,31,12,2017,00,00*60
2017-12-31 18:51:34 1514764294.391140: $GPGGA,235135,3946.9574,N,08404.9817,W,2,11,0.80,309.96,M,-33.324,M,,*7D
2017-12-31 18:51:34 1514764294.391205: $GPRMC,235135,A,3946.9574,N,08404.9817,W,0.0000,0.000,311217,,*33
2017-12-31 18:51:34 1514764294.391264: $GPGSA,A,3,22,23,9,3,16,8,31,27,7,26,135,,1.7,0.8,1.3*09
2017-12-31 18:51:35 1514764295.390071: $GPZDA,235136.00,31,12,2017,00,00*63
2017-12-31 18:51:35 1514764295.390251: $GPGGA,235136,3946.9574,N,08404.9817,W,2,11,0.80,309.96,M,-33.324,M,,*7E
2017-12-31 18:51:35 1514764295.390318: $GPRMC,235136,A,3946.9574,N,08404.9817,W,0.0000,0.000,311217,,*30
2017-12-31 18:51:35 1514764295.390379: $GPGSA,A,3,22,23,9,3,16,8,31,27,7,26,135,,1.7,0.8,1.3*09
2017-12-31 18:51:36 1514764296.689230: $GPGSV,3,1,11,22,07,204,28,23,69,279,40,09,37,309,41,03,17,220,37*75
2017-12-31 18:51:36 1514764296.689400: $GPGSV,3,2,11,16,76,036,43,08,17,175,39,31,15,090,06,27,40,142,40*70
2017-12-31 18:51:36 1514764296.689465: $GPGSV,3,3,11,07,11,285,41,26,43,048,45,135,22,240,44*7B
2017-12-31 18:51:36 1514764296.802948: $GPZDA,235137.00,31,12,2017,00,00*62
2017-12-31 18:51:36 1514764296.803067: $GPGGA,235137,3946.9574,N,08404.9817,W,2,10,1.00,309.96,M,-33.324,M,,*77
2017-12-31 18:51:36 1514764296.803130: $GPRMC,235137,A,3946.9574,N,08404.9817,W,0.0000,0.000,311217,,*31
2017-12-31 18:51:36 1514764296.803242: $GPGSA,A,3,22,23,9,3,16,8,27,7,26,135,,,1.7,1.0,1.3*02
2017-12-31 18:51:37 1514764297.391327: $GPZDA,235138.00,31,12,2017,00,00*6D
2017-12-31 18:51:37 1514764297.391467: $GPGGA,235138,3946.9574,N,08404.9817,W,2,10,1.00,309.96,M,-33.324,M,,*78
2017-12-31 18:51:37 1514764297.391531: $GPRMC,235138,A,3946.9574,N,08404.9817,W,0.0000,0.000,311217,,*3E
2017-12-31 18:51:37 1514764297.391591: $GPGSA,A,3,22,23,9,3,16,8,27,7,26,135,,,1.7,1.0,1.3*02
2017-12-31 18:51:38 1514764298.392218: $GPZDA,235139.00,31,12,2017,00,00*6C
2017-12-31 18:51:38 1514764298.392388: $GPGGA,235139,3946.9574,N,08404.9817,W,2,10,1.00,309.96,M,-33.324,M,,*79
2017-12-31 18:51:38 1514764298.392454: $GPRMC,235139,A,3946.9574,N,08404.9817,W,0.0000,0.000,311217,,*3F
2017-12-31 18:51:38 1514764298.392515: $GPGSA,A,3,22,23,9,3,16,8,27,7,26,135,,,1.7,1.0,1.3*02
2017-12-31 18:51:39 1514764299.726361: $GPGSV,3,1,11,22,07,204,28,23,69,279,40,09,37,309,40,03,17,220,36*75
2017-12-31 18:51:39 1514764299.726538: $GPGSV,3,2,11,16,76,036,44,08,17,175,40,31,15,090,14,27,40,142,41*7B
2017-12-31 18:51:39 1514764299.726604: $GPGSV,3,3,11,07,11,285,41,26,43,048,45,135,22,240,45*7A
2017-12-31 18:51:39 1514764299.839995: $GPZDA,235140.00,31,12,2017,00,00*62
2017-12-31 18:51:39 1514764299.840131: $GPGGA,235140,3946.9574,N,08404.9817,W,2,11,0.80,309.96,M,-33.324,M,,*7F
2017-12-31 18:51:39 1514764299.840195: $GPRMC,235140,A,3946.9574,N,08404.9817,W,0.0000,0.000,311217,,*31
2017-12-31 18:51:39 1514764299.840254: $GPGSA,A,3,22,23,9,3,16,8,31,27,7,26,135,,1.7,0.8,1.3*09
