2017-12-31 18:15:37 1514762137.488454: {"class":"VERSION","release":"3.16","rev":"3.16-4","proto_major":3,"proto_minor":11}
2017-12-31 18:15:37 1514762137.488803: {"class":"DEVICES","devices":[{"class":"DEVICE","path":"/dev/ttyUSB0","driver":"SiRF","activated":"2017-12-31T23:15:37.467Z","flags":1,"native":1,"bps":4800,"parity":"N","stopbits":1,"cycle":1.00}]}
2017-12-31 18:15:37 1514762137.488902: {"class":"WATCH","enable":true,"json":false,"nmea":true,"raw":0,"scaled":false,"timing":false,"split24":false,"pps":false}
2017-12-31 18:15:38 1514762138.383290: $GPZDA,231539.00,31,12,2017,00,00*6C
2017-12-31 18:15:38 1514762138.383458: $GPGGA,231539,3946.9567,N,08404.9865,W,2,12,0.80,306.72,M,-33.324,M,,*70
2017-12-31 18:15:38 1514762138.383525: $GPRMC,231539,A,3946.9567,N,08404.9865,W,0.0000,0.000,311217,,*38
2017-12-31 18:15:38 1514762138.383586: $GPGSA,A,3,22,23,9,3,16,8,14,31,27,29,26,135,1.7,0.8,1.3*30
2017-12-31 18:15:39 1514762139.686191: $GPGSV,3,1,11,22,20,213,35,23,56,304,45,09,23,312,43,03,30,232,44*77
2017-12-31 18:15:39 1514762139.686349: $GPGSV,3,2,11,16,84,183,43,08,02,180,22,14,13,135,33,31,26,076,47*79
2017-12-31 18:15:39 1514762139.686414: $GPGSV,3,3,11,27,25,153,36,26,59,049,47,135,22,240,44*7E
2017-12-31 18:15:39 1514762139.799959: $GPZDA,231540.00,31,12,2017,00,00*62
2017-12-31 18:15:39 1514762139.800092: $GPGGA,231540,3946.9567,N,08404.9865,W,2,11,0.80,306.72,M,-33.324,M,,*7D
2017-12-31 18:15:39 1514762139.800158: $GPRMC,231540,A,3946.9567,N,08404.9865,W,0.0000,0.000,311217,,*36
2017-12-31 18:15:39 1514762139.800217: $GPGSA,A,3,22,23,9,3,16,8,14,31,27,26,135,,1.7,0.8,1.3*3B
2017-12-31 18:15:40 1514762140.425277: $GPZDA,231541.00,31,12,2017,00,00*63
2017-12-31 18:15:40 1514762140.425429: $GPGGA,231541,3946.9567,N,08404.9865,W,2,11,0.80,306.72,M,-33.324,M,,*7C
2017-12-31 18:15:40 1514762140.425495: $GPRMC,231541,A,3946.9567,N,08404.9865,W,0.0000,0.000,311217,,*37
2017-12-31 18:15:40 1514762140.425557: $GPGSA,A,3,22,23,9,3,16,8,14,31,27,26,135,,1.7,0.8,1.3*3B
2017-12-31 18:15:41 1514762141.351215: $GPZDA,231542.00,31,12,2017,00,00*60
2017-12-31 18:15:41 1514762141.351378: $GPGGA,231542,3946.9567,N,08404.9865,W,2,11,0.80,306.72,M,-33.324,M,,*7F
2017-12-31 18:15:41 1514762141.351443: $GPRMC,231542,A,3946.9567,N,08404.9865,W,0.0000,0.000,311217,,*34
2017-12-31 18:15:41 1514762141.351503: $GPGSA,A,3,22,23,9,3,16,8,14,31,27,26,135,,1.7,0.8,1.3*3B
2017-12-31 18:15:42 1514762142.686529: $GPGSV,3,1,11,22,20,213,35,23,56,304,45,09,23,312,43,03,30,232,44*77
2017-12-31 18:15:42 1514762142.686711: $GPGSV,3,2,11,16,84,183,43,08,02,180,22,14,13,135,33,31,26,076,46*78
2017-12-31 18:15:42 1514762142.686778: $GPGSV,3,3,11,27,25,153,36,26,59,049,47,135,22,240,43*79
2017-12-31 18:15:42 1514762142.800230: $GPZDA,231543.00,31,12,2017,00,00*61
2017-12-31 18:15:42 1514762142.800353: $GPGGA,231543,3946.9567,N,08404.9865,W,2,11,0.80,306.72,M,-33.324,M,,*7E
2017-12-31 18:15:42 1514762142.800415: $GPRMC,231543,A,3946.9567,N,08404.9865,W,0.0000,0.000,311217,,*35
2017-12-31 18:15:42 1514762142.800475: $GPGSA,A,3,22,23,9,3,16,8,14,31,27,26,135,,1.7,0.8,1.3*3B
2017-12-31 18:15:43 1514762143.387422: $GPZDA,231544.00,31,12,2017,00,00*66
2017-12-31 18:15:43 1514762143.387568: $GPGGA,231544,3946.9567,N,08404.9865,W,2,11,0.80,306.72,M,-33.324,M,,*79
2017-12-31 18:15:43 1514762143.387633: $GPRMC,231544,A,3946.9567,N,08404.9865,W,0.0000,0.000,311217,,*32
2017-12-31 18:15:43 1514762143.387694: $GPGSA,A,3,22,23,9,3,16,8,14,31,27,26,135,,1.7,0.8,1.3*3B
2017-12-31 18:15:44 1514762144.354444: $GPZDA,231545.00,31,12,2017,00,00*67
2017-12-31 18:15:44 1514762144.354603: $GPGGA,231545,3946.9567,N,08404.9865,W,2,11,0.80,306.72,M,-33.324,M,,*78
2017-12-31 18:15:44 1514762144.354669: $GPRMC,231545,A,3946.9567,N,08404.9865,W,0.0000,0.000,311217,,*33
2017-12-31 18:15:44 1514762144.354729: $GPGSA,A,3,22,23,9,3,16,8,14,31,27,26,135,,1.7,0.8,1.3*3B
2017-12-31 18:15:45 1514762145.685644: $GPGSV,3,1,11,22,20,213,35,23,56,304,46,09,23,312,43,03,30,232,44*74
2017-12-31 18:15:45 1514762145.685834: $GPGSV,3,2,11,16,84,183,43,08,02,180,22,14,13,135,34,31,26,076,47*7E
2017-12-31 18:15:45 1514762145.685956: $GPGSV,3,3,11,27,25,153,36,26,59,049,48,135,22,240,44*71
2017-12-31 18:15:45 1514762145.799270: $GPZDA,231546.00,31,12,2017,00,00*64
2017-12-31 18:15:45 1514762145.799398: $GPGGA,231546,3946.9567,N,08404.9865,W,2,11,0.80,306.72,M,-33.324,M,,*7B
2017-12-31 18:15:45 1514762145.799462: $GPRMC,231546,A,3946.9567,N,08404.9865,W,0.0000,0.000,311217,,*30
2017-12-31 18:15:45 1514762145.799522: $GPGSA,A,3,22,23,9,3,16,8,14,31,27,26,135,,1.7,0.8,1.3*3B
2017-12-31 18:15:46 1514762146.381383: $GPZDA,231547.00,31,12,2017,00,00*65
2017-12-31 18:15:46 1514762146.381522: $GPGGA,231547,3946.9567,N,08404.9865,W,2,11,0.80,306.72,M,-33.324,M,,*7A
2017-12-31 18:15:46 1514762146.381587: $GPRMC,231547,A,3946.9567,N,08404.9865,W,0.1867,0.000,311217,,*39
2017-12-31 18:15:46 1514762146.381646: $GPGSA,A,3,22,23,9,3,16,8,14,31,27,26,135,,1.7,0.8,1.3*3B
2017-12-31 18:15:47 1514762147.352298: $GPZDA,231548.00,31,12,2017,00,00*6A
2017-12-31 18:15:47 1514762147.352461: $GPGGA,231548,3946.9567,N,08404.9865,W,2,11,0.80,306.72,M,-33.324,M,,*75
2017-12-31 18:15:47 1514762147.352529: $GPRMC,231548,A,3946.9567,N,08404.9865,W,0.0000,0.000,311217,,*3E
2017-12-31 18:15:47 1514762147.352590: $GPGSA,A,3,22,23,9,3,16,8,14,31,27,26,135,,1.7,0.8,1.3*3B
