2017-11-16 13:47:34 1510858054.501419: {"class":"VERSION","release":"3.17","rev":"3.17","proto_major":3,"proto_minor":12}
2017-11-16 13:47:34 1510858054.501893: {"class":"DEVICES","devices":[{"class":"DEVICE","path":"/dev/ttyUSB0","driver":"SiRF","subtype":"9\u0006GSD4e_4.1.2-P1_RPATCH.05-F-GPS-4R-1510281 11/03/2015 307","activated":"2017-11-16T18:47:34.198Z","flags":1,"native":1,"bps":4800,"parity":"N","stopbits":1,"cycle":1.00}]}
2017-11-16 13:47:34 1510858054.502020: {"class":"WATCH","enable":true,"json":false,"nmea":true,"raw":0,"scaled":false,"timing":false,"split24":false,"pps":false}
2017-11-16 13:47:34 1510858054.646767: $GPGSV,3,1,11,10,32,292,39,13,18,046,46,15,49,049,51,18,62,315,48*75
2017-11-16 13:47:34 1510858054.646937: $GPGSV,3,2,11,20,42,085,48,21,75,213,46,24,43,127,46,27,19,301,33*76
2017-11-16 13:47:34 1510858054.647000: $GPGSV,3,3,11,32,10,231,22,08,01,331,00,138,38,213,44*70
2017-11-16 13:47:34 1510858054.760119: $GPZDA,184733.00,16,11,2017,00,00*6F
2017-11-16 13:47:34 1510858054.760335: $GPGGA,184733,3946.9591,N,08404.9834,W,2,10,0.80,304.49,M,-33.324,M,,*70
2017-11-16 13:47:34 1510858054.760410: $GPRMC,184733,A,3946.9591,N,08404.9834,W,0.0000,0.000,161117,,*36
2017-11-16 13:47:34 1510858054.760471: $GPGSA,A,3,10,13,15,18,20,21,24,27,32,138,,,1.6,0.8,1.3*08
2017-11-16 13:47:35 1510858055.337357: $GPZDA,184734.00,16,11,2017,00,00*68
2017-11-16 13:47:35 1510858055.337537: $GPGGA,184734,3946.9591,N,08404.9834,W,2,10,0.80,304.49,M,-33.324,M,,*77
2017-11-16 13:47:35 1510858055.337601: $GPRMC,184734,A,3946.9591,N,08404.9834,W,0.0000,0.000,161117,,*31
2017-11-16 13:47:35 1510858055.337657: $GPGSA,A,3,10,13,15,18,20,21,24,27,32,138,,,1.6,0.8,1.3*08
2017-11-16 13:47:36 1510858056.322213: $GPZDA,184735.00,16,11,2017,00,00*69
2017-11-16 13:47:36 1510858056.322380: $GPGGA,184735,3946.9591,N,08404.9834,W,2,10,0.80,304.49,M,-33.324,M,,*76
2017-11-16 13:47:36 1510858056.322445: $GPRMC,184735,A,3946.9591,N,08404.9834,W,0.0000,0.000,161117,,*30
2017-11-16 13:47:36 1510858056.322501: $GPGSA,A,3,10,13,15,18,20,21,24,27,32,138,,,1.6,0.8,1.3*08
2017-11-16 13:47:37 1510858057.673981: $GPGSV,3,1,11,10,32,292,38,13,18,046,46,15,49,049,51,18,62,315,48*74
2017-11-16 13:47:37 1510858057.674155: $GPGSV,3,2,11,20,42,085,48,21,75,213,46,24,43,127,45,27,19,301,34*72
2017-11-16 13:47:37 1510858057.674217: $GPGSV,3,3,11,32,10,231,22,08,01,331,00,138,38,213,44*70
2017-11-16 13:47:37 1510858057.787327: $GPZDA,184736.00,16,11,2017,00,00*6A
2017-11-16 13:47:37 1510858057.787492: $GPGGA,184736,3946.9591,N,08404.9834,W,2,10,0.80,304.49,M,-33.324,M,,*75
2017-11-16 13:47:37 1510858057.787554: $GPRMC,184736,A,3946.9591,N,08404.9834,W,0.0000,0.000,161117,,*33
2017-11-16 13:47:37 1510858057.787613: $GPGSA,A,3,10,13,15,18,20,21,24,27,32,138,,,1.6,0.8,1.3*08
2017-11-16 13:47:38 1510858058.338330: $GPZDA,184737.00,16,11,2017,00,00*6B
2017-11-16 13:47:38 1510858058.338495: $GPGGA,184737,3946.9591,N,08404.9834,W,2,10,0.80,304.49,M,-33.324,M,,*74
2017-11-16 13:47:38 1510858058.338556: $GPRMC,184737,A,3946.9591,N,08404.9834,W,0.0000,0.000,161117,,*32
2017-11-16 13:47:38 1510858058.338612: $GPGSA,A,3,10,13,15,18,20,21,24,27,32,138,,,1.6,0.8,1.3*08
2017-11-16 13:47:39 1510858059.314784: $GPZDA,184738.00,16,11,2017,00,00*64
2017-11-16 13:47:39 1510858059.314938: $GPGGA,184738,3946.9591,N,08404.9834,W,2,10,0.80,304.49,M,-33.324,M,,*7B
2017-11-16 13:47:39 1510858059.315003: $GPRMC,184738,A,3946.9591,N,08404.9834,W,0.0000,0.000,161117,,*3D
2017-11-16 13:47:39 1510858059.315059: $GPGSA,A,3,10,13,15,18,20,21,24,27,32,138,,,1.6,0.8,1.3*08
2017-11-16 13:47:40 1510858060.651920: $GPGSV,3,1,11,10,32,292,40,13,18,046,46,15,49,049,51,18,62,315,48*7B
2017-11-16 13:47:40 1510858060.652095: $GPGSV,3,2,11,20,42,085,48,21,75,213,46,24,43,127,46,27,19,301,34*71
2017-11-16 13:47:40 1510858060.652181: $GPGSV,3,3,11,32,10,231,23,08,01,331,00,138,38,213,43*76
2017-11-16 13:47:40 1510858060.765185: $GPZDA,184739.00,16,11,2017,00,00*65
2017-11-16 13:47:40 1510858060.765357: $GPGGA,184739,3946.9591,N,08404.9834,W,2,10,0.80,304.49,M,-33.324,M,,*7A
2017-11-16 13:47:40 1510858060.765476: $GPRMC,184739,A,3946.9591,N,08404.9834,W,0.0000,0.000,161117,,*3C
2017-11-16 13:47:40 1510858060.765536: $GPGSA,A,3,10,13,15,18,20,21,24,27,32,138,,,1.6,0.8,1.3*08
2017-11-16 13:47:41 1510858061.313842: $GPZDA,184740.00,16,11,2017,00,00*6B
2017-11-16 13:47:41 1510858061.314004: $GPGGA,184740,3946.9591,N,08404.9834,W,2,10,0.80,304.49,M,-33.324,M,,*74
2017-11-16 13:47:41 1510858061.314066: $GPRMC,184740,A,3946.9591,N,08404.9834,W,0.0000,0.000,161117,,*32
2017-11-16 13:47:41 1510858061.314124: $GPGSA,A,3,10,13,15,18,20,21,24,27,32,138,,,1.6,0.8,1.3*08
2017-11-16 13:47:42 1510858062.309097: $GPZDA,184741.00,16,11,2017,00,00*6A
2017-11-16 13:47:42 1510858062.309262: $GPGGA,184741,3946.9591,N,08404.9834,W,2,10,0.80,304.49,M,-33.324,M,,*75
2017-11-16 13:47:42 1510858062.309324: $GPRMC,184741,A,3946.9591,N,08404.9834,W,0.0000,0.000,161117,,*33
2017-11-16 13:47:42 1510858062.309380: $GPGSA,A,3,10,13,15,18,20,21,24,27,32,138,,,1.6,0.8,1.3*08
2017-11-16 13:47:43 1510858063.651414: $GPGSV,3,1,11,10,32,292,39,13,18,046,46,15,49,049,51,18,62,315,48*75
2017-11-16 13:47:43 1510858063.651583: $GPGSV,3,2,11,20,42,085,48,21,75,213,46,24,43,127,46,27,19,301,34*71
2017-11-16 13:47:43 1510858063.651643: $GPGSV,3,3,11,32,10,231,23,08,01,331,00,138,38,213,44*71
2017-11-16 13:47:43 1510858063.765042: $GPZDA,184742.00,16,11,2017,00,00*69
2017-11-16 13:47:43 1510858063.765200: $GPGGA,184742,3946.9591,N,08404.9834,W,2,10,0.80,304.49,M,-33.324,M,,*76
2017-11-16 13:47:43 1510858063.765422: $GPRMC,184742,A,3946.9591,N,08404.9834,W,0.0000,0.000,161117,,*30
2017-11-16 13:47:43 1510858063.765489: $GPGSA,A,3,10,13,15,18,20,21,24,27,32,138,,,1.6,0.8,1.3*08
2017-11-16 13:47:44 1510858064.313237: $GPZDA,184743.00,16,11,2017,00,00*68
2017-11-16 13:47:44 1510858064.313407: $GPGGA,184743,3946.9591,N,08404.9834,W,2,10,0.80,304.49,M,-33.324,M,,*77
2017-11-16 13:47:44 1510858064.313471: $GPRMC,184743,A,3946.9591,N,08404.9834,W,0.0000,0.000,161117,,*31
2017-11-16 13:47:44 1510858064.313528: $GPGSA,A,3,10,13,15,18,20,21,24,27,32,138,,,1.6,0.8,1.3*08
