2017-11-15 19:54:29 1510793669.182091: {"class":"VERSION","release":"3.17","rev":"3.17","proto_major":3,"proto_minor":12}
2017-11-15 19:54:29 1510793669.182611: {"class":"DEVICES","devices":[{"class":"DEVICE","path":"/dev/ttyUSB0","driver":"SiRF","subtype":"9\u0006GSD4e_4.1.2-P1_RPATCH.05-F-GPS-4R-1510281 11/03/2015 307","activated":"2017-11-16T00:54:29.167Z","flags":1,"native":1,"bps":4800,"parity":"N","stopbits":1,"cycle":1.00}]}
2017-11-15 19:54:29 1510793669.182731: {"class":"WATCH","enable":true,"json":false,"nmea":true,"raw":0,"scaled":false,"timing":false,"split24":false,"pps":false}
2017-11-15 19:54:29 1510793669.345653: $GPZDA,005428.00,16,11,2017,00,00*6E
2017-11-15 19:54:29 1510793669.345814: $GPGGA,005428,3946.9541,N,08404.9668,W,1,07,1.40,290.73,M,-33.324,M,,*76
2017-11-15 19:54:29 1510793669.345877: $GPRMC,005428,A,3946.9541,N,08404.9668,W,0.5306,294.352,161117,,*36
2017-11-15 19:54:29 1510793669.345932: $GPGSA,A,3,3,16,31,26,14,22,23,,,,,,3.4,1.4,2.9*0D
2017-11-15 19:54:30 1510793670.681497: $GPGSV,3,1,10,03,44,285,10,16,34,190,24,31,58,040,26,26,65,165,16*74
2017-11-15 19:54:30 1510793670.681669: $GPGSV,3,2,10,14,46,106,20,22,48,252,20,32,27,117,00,23,20,304,08*7F
2017-11-15 19:54:30 1510793670.681728: $GPGSV,3,3,10,29,13,060,00,25,08,037,00*7C
2017-11-15 19:54:30 1510793670.794854: $GPZDA,005429.00,16,11,2017,00,00*6F
2017-11-15 19:54:30 1510793670.795021: $GPGGA,005429,3946.9548,N,08404.9661,W,1,07,1.40,290.68,M,-33.324,M,,*7D
2017-11-15 19:54:30 1510793670.795082: $GPRMC,005429,A,3946.9548,N,08404.9661,W,0.7238,320.710,161117,,*35
2017-11-15 19:54:30 1510793670.795161: $GPGSA,A,3,3,16,31,26,14,22,23,,,,,,3.4,1.4,2.9*0D
2017-11-15 19:54:31 1510793671.420247: $GPZDA,005430.00,16,11,2017,00,00*67
2017-11-15 19:54:31 1510793671.420424: $GPGGA,005430,3946.9548,N,08404.9661,W,1,07,1.20,290.68,M,-33.324,M,,*73
2017-11-15 19:54:31 1510793671.420485: $GPRMC,005430,A,3946.9548,N,08404.9661,W,1.0002,334.331,161117,,*32
2017-11-15 19:54:31 1510793671.420540: $GPGSA,A,3,3,16,31,26,14,22,23,,,,,,3.4,1.2,2.9*0B
2017-11-15 19:54:32 1510793672.329812: $GPZDA,005431.00,16,11,2017,00,00*66
2017-11-15 19:54:32 1510793672.329970: $GPGGA,005431,3946.9548,N,08404.9661,W,1,07,1.40,290.68,M,-33.324,M,,*74
2017-11-15 19:54:32 1510793672.330033: $GPRMC,005431,A,3946.9548,N,08404.9661,W,0.7278,23.636,161117,,*0D
2017-11-15 19:54:32 1510793672.330087: $GPGSA,A,3,3,16,31,26,14,22,23,,,,,,3.4,1.4,2.9*0D
2017-11-15 19:54:33 1510793673.665588: $GPGSV,3,1,10,03,44,285,11,16,34,190,24,31,58,040,26,26,65,165,17*74
2017-11-15 19:54:33 1510793673.665761: $GPGSV,3,2,10,14,46,106,21,22,48,252,20,32,27,117,00,23,20,304,08*7E
2017-11-15 19:54:33 1510793673.665821: $GPGSV,3,3,10,29,13,060,00,25,08,037,00*7C
2017-11-15 19:54:33 1510793673.777729: $GPZDA,005432.00,16,11,2017,00,00*65
2017-11-15 19:54:33 1510793673.777874: $GPGGA,005432,3946.9552,N,08404.9654,W,1,07,1.20,291.40,M,-33.324,M,,*77
2017-11-15 19:54:33 1510793673.777934: $GPRMC,005432,A,3946.9552,N,08404.9654,W,0.6846,4.197,161117,,*3C
2017-11-15 19:54:33 1510793673.777989: $GPGSA,A,3,3,16,31,26,14,22,23,,,,,,3.4,1.2,2.9*0B
2017-11-15 19:54:34 1510793674.329841: $GPZDA,005433.00,16,11,2017,00,00*64
2017-11-15 19:54:34 1510793674.330028: $GPGGA,005433,3946.9552,N,08404.9654,W,1,07,1.20,291.40,M,-33.324,M,,*76
2017-11-15 19:54:34 1510793674.330089: $GPRMC,005433,A,3946.9552,N,08404.9654,W,0.4179,328.778,161117,,*30
2017-11-15 19:54:34 1510793674.330164: $GPGSA,A,3,3,16,31,26,14,22,23,,,,,,3.4,1.2,2.9*0B
2017-11-15 19:54:35 1510793675.329465: $GPZDA,005434.00,16,11,2017,00,00*63
2017-11-15 19:54:35 1510793675.329632: $GPGGA,005434,3946.9552,N,08404.9654,W,1,07,1.20,291.40,M,-33.324,M,,*71
2017-11-15 19:54:35 1510793675.329692: $GPRMC,005434,A,3946.9552,N,08404.9654,W,0.0000,0.000,161117,,*3D
2017-11-15 19:54:35 1510793675.329747: $GPGSA,A,3,3,16,31,26,14,22,23,,,,,,3.4,1.2,2.9*0B
2017-11-15 19:54:36 1510793676.664774: $GPGSV,3,1,10,03,44,285,13,16,34,190,24,31,58,040,26,26,65,165,17*76
2017-11-15 19:54:36 1510793676.664942: $GPGSV,3,2,10,14,46,106,21,22,48,252,20,32,27,117,00,23,20,304,12*75
2017-11-15 19:54:36 1510793676.665052: $GPGSV,3,3,10,29,13,060,00,25,08,037,00*7C
2017-11-15 19:54:36 1510793676.778615: $GPZDA,005435.00,16,11,2017,00,00*62
2017-11-15 19:54:36 1510793676.778756: $GPGGA,005435,3946.9551,N,08404.9647,W,1,07,1.20,291.48,M,-33.324,M,,*79
2017-11-15 19:54:36 1510793676.778817: $GPRMC,005435,A,3946.9551,N,08404.9647,W,0.4179,148.778,161117,,*33
2017-11-15 19:54:36 1510793676.778872: $GPGSA,A,3,3,16,31,26,14,22,23,,,,,,3.4,1.2,2.9*0B
2017-11-15 19:54:37 1510793677.345169: $GPZDA,005436.00,16,11,2017,00,00*61
2017-11-15 19:54:37 1510793677.345357: $GPGGA,005436,3946.9551,N,08404.9647,W,1,07,1.20,291.48,M,-33.324,M,,*7A
2017-11-15 19:54:37 1510793677.345418: $GPRMC,005436,A,3946.9551,N,08404.9647,W,0.7246,164.668,161117,,*32
2017-11-15 19:54:37 1510793677.345473: $GPGSA,A,3,3,16,31,26,14,22,23,,,,,,3.4,1.2,2.9*0B
2017-11-15 19:54:38 1510793678.346034: $GPZDA,005437.00,16,11,2017,00,00*60
2017-11-15 19:54:38 1510793678.346237: $GPGGA,005437,3946.9551,N,08404.9640,W,1,07,1.20,291.56,M,-33.324,M,,*73
2017-11-15 19:54:38 1510793678.346299: $GPRMC,005437,A,3946.9551,N,08404.9640,W,0.4179,148.778,161117,,*36
2017-11-15 19:54:38 1510793678.346356: $GPGSA,A,3,3,16,31,26,14,22,23,,,,,,3.4,1.2,2.9*0B
