2017-11-16 14:39:53 1510861193.457418: {"class":"VERSION","release":"3.17","rev":"3.17","proto_major":3,"proto_minor":12}
2017-11-16 14:39:53 1510861193.457882: {"class":"DEVICES","devices":[{"class":"DEVICE","path":"/dev/ttyUSB0","driver":"SiRF","subtype":"9\u0006GSD4e_4.1.2-P1_RPATCH.05-F-GPS-4R-1510281 11/03/2015 307","activated":"2017-11-16T19:39:53.403Z","flags":1,"native":1,"bps":4800,"parity":"N","stopbits":1,"cycle":1.00}]}
2017-11-16 14:39:53 1510861193.457995: {"class":"WATCH","enable":true,"json":false,"nmea":true,"raw":0,"scaled":false,"timing":false,"split24":false,"pps":false}
2017-11-16 14:39:53 1510861193.516880: $GPZDA,193952.00,16,11,2017,00,00*60
2017-11-16 14:39:53 1510861193.517034: $GPGGA,193952,3946.9564,N,08404.9849,W,2,11,0.80,302.66,M,-33.324,M,,*75
2017-11-16 14:39:53 1510861193.517093: $GPRMC,193952,A,3946.9564,N,08404.9849,W,0.0000,0.000,161117,,*39
2017-11-16 14:39:53 1510861193.517148: $GPGSA,A,3,8,10,15,18,21,20,24,27,32,14,138,,1.6,0.8,1.3*37
2017-11-16 14:39:54 1510861194.853277: $GPGSV,3,1,11,08,08,312,36,10,51,310,50,15,27,057,50,18,77,015,44*77
2017-11-16 14:39:54 1510861194.853436: $GPGSV,3,2,11,21,51,184,47,20,24,105,47,24,53,088,49,27,16,277,44*7F
2017-11-16 14:39:54 1510861194.853496: $GPGSV,3,3,11,32,30,247,48,14,14,238,44,138,38,213,44*7E
2017-11-16 14:39:54 1510861194.966618: $GPZDA,193953.00,16,11,2017,00,00*61
2017-11-16 14:39:54 1510861194.966779: $GPGGA,193953,3946.9564,N,08404.9849,W,2,11,0.80,302.66,M,-33.324,M,,*74
2017-11-16 14:39:54 1510861194.966839: $GPRMC,193953,A,3946.9564,N,08404.9849,W,0.0000,0.000,161117,,*38
2017-11-16 14:39:54 1510861194.966896: $GPGSA,A,3,8,10,15,18,21,20,24,27,32,14,138,,1.6,0.8,1.3*37
2017-11-16 14:39:55 1510861195.516261: $GPZDA,193954.00,16,11,2017,00,00*66
2017-11-16 14:39:55 1510861195.516419: $GPGGA,193954,3946.9564,N,08404.9849,W,2,11,0.80,302.66,M,-33.324,M,,*73
2017-11-16 14:39:55 1510861195.516480: $GPRMC,193954,A,3946.9564,N,08404.9849,W,0.0000,0.000,161117,,*3F
2017-11-16 14:39:55 1510861195.516535: $GPGSA,A,3,8,10,15,18,21,20,24,27,32,14,138,,1.6,0.8,1.3*37
2017-11-16 14:39:56 1510861196.510755: $GPZDA,193955.00,16,11,2017,00,00*67
2017-11-16 14:39:56 1510861196.510931: $GPGGA,193955,3946.9564,N,08404.9849,W,2,11,0.80,302.66,M,-33.324,M,,*72
2017-11-16 14:39:56 1510861196.510993: $GPRMC,193955,A,3946.9564,N,08404.9849,W,0.0000,0.000,161117,,*3E
2017-11-16 14:39:56 1510861196.511049: $GPGSA,A,3,8,10,15,18,21,20,24,27,32,14,138,,1.6,0.8,1.3*37
2017-11-16 14:39:57 1510861197.852591: $GPGSV,3,1,11,08,08,312,38,10,51,310,50,15,27,057,50,18,77,015,44*79
2017-11-16 14:39:57 1510861197.852764: $GPGSV,3,2,11,21,51,184,47,20,24,105,46,24,53,088,50,27,16,277,44*76
2017-11-16 14:39:57 1510861197.852825: $GPGSV,3,3,11,32,30,247,48,14,14,238,44,138,38,213,44*7E
2017-11-16 14:39:57 1510861197.966082: $GPZDA,193956.00,16,11,2017,00,00*64
2017-11-16 14:39:57 1510861197.966251: $GPGGA,193956,3946.9564,N,08404.9849,W,2,11,0.80,302.66,M,-33.324,M,,*71
2017-11-16 14:39:57 1510861197.966311: $GPRMC,193956,A,3946.9564,N,08404.9849,W,0.0000,0.000,161117,,*3D
2017-11-16 14:39:57 1510861197.966388: $GPGSA,A,3,8,10,15,18,21,20,24,27,32,14,138,,1.6,0.8,1.3*37
2017-11-16 14:39:58 1510861198.516948: $GPZDA,193957.00,16,11,2017,00,00*65
2017-11-16 14:39:58 1510861198.517108: $GPGGA,193957,3946.9564,N,08404.9849,W,2,11,0.80,302.66,M,-33.324,M,,*70
2017-11-16 14:39:58 1510861198.517169: $GPRMC,193957,A,3946.9564,N,08404.9849,W,0.0000,0.000,161117,,*3C
2017-11-16 14:39:58 1510861198.517225: $GPGSA,A,3,8,10,15,18,21,20,24,27,32,14,138,,1.6,0.8,1.3*37
2017-11-16 14:39:59 1510861199.515743: $GPZDA,193958.00,16,11,2017,00,00*6A
2017-11-16 14:39:59 1510861199.515923: $GPGGA,193958,3946.9564,N,08404.9849,W,2,11,0.80,302.66,M,-33.324,M,,*7F
2017-11-16 14:39:59 1510861199.515983: $GPRMC,193958,A,3946.9564,N,08404.9849,W,0.0000,0.000,161117,,*33
2017-11-16 14:39:59 1510861199.516039: $GPGSA,A,3,8,10,15,18,21,20,24,27,32,14,138,,1.6,0.8,1.3*37
2017-11-16 14:40:00 1510861200.854213: $GPGSV,3,1,11,08,08,312,39,10,51,310,50,15,27,057,50,18,77,015,44*78
2017-11-16 14:40:00 1510861200.854446: $GPGSV,3,2,11,21,51,184,47,20,24,105,46,24,53,088,50,27,16,277,44*76
2017-11-16 14:40:00 1510861200.854508: $GPGSV,3,3,11,32,30,247,48,14,14,238,44,138,38,213,44*7E
2017-11-16 14:40:00 1510861200.965961: $GPZDA,193959.00,16,11,2017,00,00*6B
2017-11-16 14:40:00 1510861200.966111: $GPGGA,193959,3946.9564,N,08404.9849,W,2,11,0.80,302.66,M,-33.324,M,,*7E
2017-11-16 14:40:00 1510861200.966170: $GPRMC,193959,A,3946.9564,N,08404.9849,W,0.0000,0.000,161117,,*32
2017-11-16 14:40:00 1510861200.966225: $GPGSA,A,3,8,10,15,18,21,20,24,27,32,14,138,,1.6,0.8,1.3*37
2017-11-16 14:40:01 1510861201.516758: $GPZDA,194000.00,16,11,2017,00,00*69
2017-11-16 14:40:01 1510861201.516928: $GPGGA,194000,3946.9564,N,08404.9849,W,2,11,0.80,302.66,M,-33.324,M,,*7C
2017-11-16 14:40:01 1510861201.516989: $GPRMC,194000,A,3946.9564,N,08404.9849,W,0.0000,0.000,161117,,*30
2017-11-16 14:40:01 1510861201.517045: $GPGSA,A,3,8,10,15,18,21,20,24,27,32,14,138,,1.6,0.8,1.3*37
2017-11-16 14:40:02 1510861202.516544: $GPZDA,194001.00,16,11,2017,00,00*68
2017-11-16 14:40:02 1510861202.516707: $GPGGA,194001,3946.9564,N,08404.9849,W,2,11,0.80,302.66,M,-33.324,M,,*7D
2017-11-16 14:40:02 1510861202.516768: $GPRMC,194001,A,3946.9564,N,08404.9849,W,0.0000,0.000,161117,,*31
2017-11-16 14:40:02 1510861202.516825: $GPGSA,A,3,8,10,15,18,21,20,24,27,32,14,138,,1.6,0.8,1.3*37
2017-11-16 14:40:03 1510861203.885731: $GPGSV,3,1,11,08,08,312,40,10,51,310,50,15,27,057,50,18,77,015,44*76
2017-11-16 14:40:03 1510861203.885895: $GPGSV,3,2,11,21,51,184,47,20,24,105,46,24,53,088,50,27,16,277,44*76
2017-11-16 14:40:03 1510861203.885956: $GPGSV,3,3,11,32,30,247,48,14,14,238,44,138,38,213,42*78
2017-11-16 14:40:03 1510861203.997764: $GPZDA,194002.00,16,11,2017,00,00*6B
2017-11-16 14:40:03 1510861203.997914: $GPGGA,194002,3946.9564,N,08404.9849,W,2,11,0.80,302.66,M,-33.324,M,,*7E
2017-11-16 14:40:03 1510861203.997973: $GPRMC,194002,A,3946.9564,N,08404.9849,W,0.0000,0.000,161117,,*32
2017-11-16 14:40:03 1510861203.998029: $GPGSA,A,3,8,10,15,18,21,20,24,27,32,14,138,,1.6,0.8,1.3*37
2017-11-16 14:40:04 1510861204.624342: $GPZDA,194003.00,16,11,2017,00,00*6A
2017-11-16 14:40:04 1510861204.624529: $GPGGA,194003,3946.9564,N,08404.9849,W,2,11,0.80,302.66,M,-33.324,M,,*7F
2017-11-16 14:40:04 1510861204.624613: $GPRMC,194003,A,3946.9564,N,08404.9849,W,0.0000,0.000,161117,,*33
2017-11-16 14:40:04 1510861204.624673: $GPGSA,A,3,8,10,15,18,21,20,24,27,32,14,138,,1.6,0.8,1.3*37
2017-11-16 14:40:05 1510861205.515209: $GPZDA,194004.00,16,11,2017,00,00*6D
2017-11-16 14:40:05 1510861205.515381: $GPGGA,194004,3946.9564,N,08404.9849,W,2,11,0.80,302.66,M,-33.324,M,,*78
2017-11-16 14:40:05 1510861205.515442: $GPRMC,194004,A,3946.9564,N,08404.9849,W,0.0000,0.000,161117,,*34
2017-11-16 14:40:05 1510861205.515498: $GPGSA,A,3,8,10,15,18,21,20,24,27,32,14,138,,1.6,0.8,1.3*37
2017-11-16 14:40:06 1510861206.885823: $GPGSV,3,1,11,08,08,312,41,10,51,310,50,15,27,057,50,18,77,015,43*70
2017-11-16 14:40:06 1510861206.885995: $GPGSV,3,2,11,21,51,184,48,20,24,105,46,24,53,088,50,27,16,277,44*79
2017-11-16 14:40:06 1510861206.886056: $GPGSV,3,3,11,32,30,247,48,14,14,238,44,138,38,213,42*78
2017-11-16 14:40:06 1510861206.999322: $GPZDA,194005.00,16,11,2017,00,00*6C
2017-11-16 14:40:06 1510861206.999517: $GPGGA,194005,3946.9564,N,08404.9849,W,2,11,0.80,302.66,M,-33.324,M,,*79
2017-11-16 14:40:06 1510861206.999580: $GPRMC,194005,A,3946.9564,N,08404.9849,W,0.0000,0.000,161117,,*35
2017-11-16 14:40:06 1510861206.999636: $GPGSA,A,3,8,10,15,18,21,20,24,27,32,14,138,,1.6,0.8,1.3*37
2017-11-16 14:40:07 1510861207.548704: $GPZDA,194006.00,16,11,2017,00,00*6F
2017-11-16 14:40:07 1510861207.548870: $GPGGA,194006,3946.9564,N,08404.9849,W,2,11,0.80,302.66,M,-33.324,M,,*7A
2017-11-16 14:40:07 1510861207.548932: $GPRMC,194006,A,3946.9564,N,08404.9849,W,0.0000,0.000,161117,,*36
2017-11-16 14:40:07 1510861207.548988: $GPGSA,A,3,8,10,15,18,21,20,24,27,32,14,138,,1.6,0.8,1.3*37
2017-11-16 14:40:08 1510861208.543448: $GPZDA,194007.00,16,11,2017,00,00*6E
2017-11-16 14:40:08 1510861208.543669: $GPGGA,194007,3946.9564,N,08404.9849,W,2,11,0.80,302.66,M,-33.324,M,,*7B
2017-11-16 14:40:08 1510861208.543731: $GPRMC,194007,A,3946.9564,N,08404.9849,W,0.0000,0.000,161117,,*37
2017-11-16 14:40:08 1510861208.543788: $GPGSA,A,3,8,10,15,18,21,20,24,27,32,14,138,,1.6,0.8,1.3*37
2017-11-16 14:40:09 1510861209.850919: $GPGSV,3,1,11,08,08,312,42,10,51,310,50,15,27,057,50,18,77,015,43*73
2017-11-16 14:40:09 1510861209.851091: $GPGSV,3,2,11,21,51,184,48,20,24,105,46,24,53,088,49,27,16,277,44*71
2017-11-16 14:40:09 1510861209.851153: $GPGSV,3,3,11,32,30,247,47,14,14,238,43,138,38,213,44*76
2017-11-16 14:40:09 1510861209.964459: $GPZDA,194008.00,16,11,2017,00,00*61
2017-11-16 14:40:09 1510861209.964599: $GPGGA,194008,3946.9564,N,08404.9849,W,2,11,0.80,302.66,M,-33.324,M,,*74
2017-11-16 14:40:09 1510861209.964658: $GPRMC,194008,A,3946.9564,N,08404.9849,W,0.0000,0.000,161117,,*38
2017-11-16 14:40:09 1510861209.964714: $GPGSA,A,3,8,10,15,18,21,20,24,27,32,14,138,,1.6,0.8,1.3*37
2017-11-16 14:40:10 1510861210.515059: $GPZDA,194009.00,16,11,2017,00,00*60
2017-11-16 14:40:10 1510861210.515229: $GPGGA,194009,3946.9564,N,08404.9849,W,2,11,0.80,302.66,M,-33.324,M,,*75
2017-11-16 14:40:10 1510861210.515290: $GPRMC,194009,A,3946.9564,N,08404.9849,W,0.0000,0.000,161117,,*39
2017-11-16 14:40:10 1510861210.515346: $GPGSA,A,3,8,10,15,18,21,20,24,27,32,14,138,,1.6,0.8,1.3*37
2017-11-16 14:40:11 1510861211.514721: $GPZDA,194010.00,16,11,2017,00,00*68
2017-11-16 14:40:11 1510861211.514890: $GPGGA,194010,3946.9564,N,08404.9849,W,2,11,0.80,302.66,M,-33.324,M,,*7D
2017-11-16 14:40:11 1510861211.514952: $GPRMC,194010,A,3946.9564,N,08404.9849,W,0.0000,0.000,161117,,*31
2017-11-16 14:40:11 1510861211.515009: $GPGSA,A,3,8,10,15,18,21,20,24,27,32,14,138,,1.6,0.8,1.3*37
2017-11-16 14:40:12 1510861212.852640: $GPGSV,3,1,11,08,08,312,43,10,51,310,50,15,27,057,49,18,77,015,44*7D
2017-11-16 14:40:12 1510861212.852813: $GPGSV,3,2,11,21,51,184,47,20,24,105,46,24,53,088,49,27,16,277,44*7E
2017-11-16 14:40:12 1510861212.852873: $GPGSV,3,3,11,32,30,247,47,14,14,238,43,138,38,213,44*76
2017-11-16 14:40:12 1510861212.965963: $GPZDA,194011.00,16,11,2017,00,00*69
2017-11-16 14:40:12 1510861212.966130: $GPGGA,194011,3946.9564,N,08404.9849,W,2,11,0.80,302.66,M,-33.324,M,,*7C
2017-11-16 14:40:12 1510861212.966191: $GPRMC,194011,A,3946.9564,N,08404.9849,W,0.0000,0.000,161117,,*30
2017-11-16 14:40:12 1510861212.966247: $GPGSA,A,3,8,10,15,18,21,20,24,27,32,14,138,,1.6,0.8,1.3*37
2017-11-16 14:40:13 1510861213.549221: $GPZDA,194012.00,16,11,2017,00,00*6A
2017-11-16 14:40:13 1510861213.549387: $GPGGA,194012,3946.9564,N,08404.9849,W,2,11,0.80,302.66,M,-33.324,M,,*7F
2017-11-16 14:40:13 1510861213.549448: $GPRMC,194012,A,3946.9564,N,08404.9849,W,0.0000,0.000,161117,,*33
2017-11-16 14:40:13 1510861213.549504: $GPGSA,A,3,8,10,15,18,21,20,24,27,32,14,138,,1.6,0.8,1.3*37
2017-11-16 14:40:14 1510861214.514614: $GPZDA,194013.00,16,11,2017,00,00*6B
2017-11-16 14:40:14 1510861214.514809: $GPGGA,194013,3946.9564,N,08404.9849,W,2,11,0.80,302.66,M,-33.324,M,,*7E
2017-11-16 14:40:14 1510861214.514872: $GPRMC,194013,A,3946.9564,N,08404.9849,W,0.0000,0.000,161117,,*32
2017-11-16 14:40:14 1510861214.514929: $GPGSA,A,3,8,10,15,18,21,20,24,27,32,14,138,,1.6,0.8,1.3*37
2017-11-16 14:40:15 1510861215.850204: $GPGSV,3,1,11,08,08,312,43,10,51,310,50,15,27,057,50,18,77,015,44*75
2017-11-16 14:40:15 1510861215.850450: $GPGSV,3,2,11,21,51,184,47,20,24,105,46,24,53,088,49,27,16,277,44*7E
2017-11-16 14:40:15 1510861215.850534: $GPGSV,3,3,11,32,30,247,46,14,14,238,44,138,38,213,43*77
2017-11-16 14:40:15 1510861215.963576: $GPZDA,194014.00,16,11,2017,00,00*6C
2017-11-16 14:40:15 1510861215.963757: $GPGGA,194014,3946.9564,N,08404.9849,W,2,11,0.80,302.66,M,-33.324,M,,*79
2017-11-16 14:40:15 1510861215.963819: $GPRMC,194014,A,3946.9564,N,08404.9849,W,0.0000,0.000,161117,,*35
2017-11-16 14:40:15 1510861215.963875: $GPGSA,A,3,8,10,15,18,21,20,24,27,32,14,138,,1.6,0.8,1.3*37
2017-11-16 14:40:16 1510861216.514372: $GPZDA,194015.00,16,11,2017,00,00*6D
2017-11-16 14:40:16 1510861216.514618: $GPGGA,194015,3946.9564,N,08404.9849,W,2,11,0.80,302.66,M,-33.324,M,,*78
2017-11-16 14:40:16 1510861216.514683: $GPRMC,194015,A,3946.9564,N,08404.9849,W,0.0000,0.000,161117,,*34
2017-11-16 14:40:16 1510861216.514739: $GPGSA,A,3,8,10,15,18,21,20,24,27,32,14,138,,1.6,0.8,1.3*37
2017-11-16 14:40:17 1510861217.548924: $GPZDA,194016.00,16,11,2017,00,00*6E
2017-11-16 14:40:17 1510861217.549138: $GPGGA,194016,3946.9564,N,08404.9849,W,2,11,0.80,302.66,M,-33.324,M,,*7B
2017-11-16 14:40:17 1510861217.549200: $GPRMC,194016,A,3946.9564,N,08404.9849,W,0.0000,0.000,161117,,*37
2017-11-16 14:40:17 1510861217.549255: $GPGSA,A,3,8,10,15,18,21,20,24,27,32,14,138,,1.6,0.8,1.3*37
2017-11-16 14:40:18 1510861218.885775: $GPGSV,3,1,11,08,08,312,43,10,51,310,50,15,27,057,50,18,77,015,44*75
2017-11-16 14:40:18 1510861218.885930: $GPGSV,3,2,11,21,51,184,47,20,24,105,46,24,53,088,49,27,16,277,44*7E
2017-11-16 14:40:18 1510861218.885990: $GPGSV,3,3,11,32,30,247,47,14,14,238,44,138,38,213,44*71
2017-11-16 14:40:18 1510861218.999116: $GPZDA,194017.00,16,11,2017,00,00*6F
2017-11-16 14:40:18 1510861218.999342: $GPGGA,194017,3946.9564,N,08404.9849,W,2,11,0.80,302.66,M,-33.324,M,,*7A
2017-11-16 14:40:18 1510861218.999405: $GPRMC,194017,A,3946.9564,N,08404.9849,W,0.0000,0.000,161117,,*36
2017-11-16 14:40:18 1510861218.999462: $GPGSA,A,3,8,10,15,18,21,20,24,27,32,14,138,,1.6,0.8,1.3*37
2017-11-16 14:40:19 1510861219.624427: $GPZDA,194018.00,16,11,2017,00,00*60
2017-11-16 14:40:19 1510861219.624589: $GPGGA,194018,3946.9564,N,08404.9849,W,2,11,0.80,302.66,M,-33.324,M,,*75
2017-11-16 14:40:19 1510861219.624649: $GPRMC,194018,A,3946.9564,N,08404.9849,W,0.0000,0.000,161117,,*39
2017-11-16 14:40:19 1510861219.624705: $GPGSA,A,3,8,10,15,18,21,20,24,27,32,14,138,,1.6,0.8,1.3*37
2017-11-16 14:40:20 1510861220.507839: $GPZDA,194019.00,16,11,2017,00,00*61
2017-11-16 14:40:20 1510861220.508003: $GPGGA,194019,3946.9564,N,08404.9849,W,2,11,0.80,302.66,M,-33.324,M,,*74
2017-11-16 14:40:20 1510861220.508089: $GPRMC,194019,A,3946.9564,N,08404.9849,W,0.0000,0.000,161117,,*38
2017-11-16 14:40:20 1510861220.508146: $GPGSA,A,3,8,10,15,18,21,20,24,27,32,14,138,,1.6,0.8,1.3*37
2017-11-16 14:40:21 1510861221.849811: $GPGSV,3,1,11,08,08,312,42,10,51,310,50,15,27,057,50,18,77,015,44*74
2017-11-16 14:40:21 1510861221.850000: $GPGSV,3,2,11,21,51,184,47,20,24,105,47,24,53,088,49,27,16,277,44*7F
2017-11-16 14:40:21 1510861221.850077: $GPGSV,3,3,11,32,30,247,46,14,14,238,44,138,38,213,44*70
2017-11-16 14:40:21 1510861221.963476: $GPZDA,194020.00,16,11,2017,00,00*6B
2017-11-16 14:40:21 1510861221.963634: $GPGGA,194020,3946.9564,N,08404.9849,W,2,11,0.80,302.66,M,-33.324,M,,*7E
2017-11-16 14:40:21 1510861221.963695: $GPRMC,194020,A,3946.9564,N,08404.9849,W,0.0000,0.000,161117,,*32
2017-11-16 14:40:21 1510861221.963752: $GPGSA,A,3,8,10,15,18,21,20,24,27,32,14,138,,1.6,0.8,1.3*37
2017-11-16 14:40:22 1510861222.514336: $GPZDA,194021.00,16,11,2017,00,00*6A
2017-11-16 14:40:22 1510861222.514560: $GPGGA,194021,3946.9564,N,08404.9849,W,2,11,0.80,302.66,M,-33.324,M,,*7F
2017-11-16 14:40:22 1510861222.514625: $GPRMC,194021,A,3946.9564,N,08404.9849,W,0.0000,0.000,161117,,*33
2017-11-16 14:40:22 1510861222.514682: $GPGSA,A,3,8,10,15,18,21,20,24,27,32,14,138,,1.6,0.8,1.3*37
2017-11-16 14:40:23 1510861223.548510: $GPZDA,194022.00,16,11,2017,00,00*69
2017-11-16 14:40:23 1510861223.548689: $GPGGA,194022,3946.9564,N,08404.9849,W,2,11,0.80,302.66,M,-33.324,M,,*7C
2017-11-16 14:40:23 1510861223.548773: $GPRMC,194022,A,3946.9564,N,08404.9849,W,0.0000,0.000,161117,,*30
2017-11-16 14:40:23 1510861223.548831: $GPGSA,A,3,8,10,15,18,21,20,24,27,32,14,138,,1.6,0.8,1.3*37
