2017-11-15 18:47:38 1510789658.972197: {"class":"VERSION","release":"3.17","rev":"3.17","proto_major":3,"proto_minor":12}
2017-11-15 18:47:38 1510789658.972641: {"class":"DEVICES","devices":[{"class":"DEVICE","path":"/dev/ttyUSB0","driver":"SiRF","subtype":"9\u0006GSD4e_4.1.2-P1_RPATCH.05-F-GPS-4R-1510281 11/03/2015 307","activated":"2017-11-15T23:47:38.472Z","flags":1,"native":1,"bps":4800,"parity":"N","stopbits":1,"cycle":1.00}]}
2017-11-15 18:47:38 1510789658.972754: {"class":"WATCH","enable":true,"json":false,"nmea":true,"raw":0,"scaled":false,"timing":false,"split24":false,"pps":false}
2017-11-15 18:47:39 1510789659.666134: $GPGSV,3,1,11,01,16,268,15,14,67,055,14,03,26,313,12,32,51,087,13*79
2017-11-15 18:47:39 1510789659.666304: $GPGSV,3,2,11,31,79,315,22,26,32,177,15,25,32,051,12,10,16,157,11*77
2017-11-15 18:47:39 1510789659.666363: $GPGSV,3,3,11,12,02,030,10,22,43,297,21,29,02,088,11*4B
2017-11-15 18:47:39 1510789659.779452: $GPZDA,234738.00,15,11,2017,00,00*6F
2017-11-15 18:47:39 1510789659.779594: $GPGGA,234738,3946.9469,N,08404.9627,W,1,10,0.80,331.57,M,-33.324,M,,*73
2017-11-15 18:47:39 1510789659.779651: $GPRMC,234738,A,3946.9469,N,08404.9627,W,0.5230,76.444,151117,,*0D
2017-11-15 18:47:39 1510789659.779706: $GPGSA,A,3,1,14,3,32,31,26,25,10,22,29,,,3.4,0.8,2.9*3B
2017-11-15 18:47:40 1510789660.372823: $GPZDA,234739.00,15,11,2017,00,00*6E
2017-11-15 18:47:40 1510789660.372985: $GPGGA,234739,3946.9469,N,08404.9620,W,1,10,1.00,331.65,M,-33.324,M,,*7D
2017-11-15 18:47:40 1510789660.373045: $GPRMC,234739,A,3946.9469,N,08404.9620,W,0.5306,114.352,151117,,*3A
2017-11-15 18:47:40 1510789660.373101: $GPGSA,A,3,1,14,3,32,31,26,25,10,22,29,,,3.4,1.0,2.9*32
2017-11-15 18:47:41 1510789661.331080: $GPZDA,234740.00,15,11,2017,00,00*60
2017-11-15 18:47:41 1510789661.331241: $GPGGA,234740,3946.9469,N,08404.9620,W,1,10,0.80,331.65,M,-33.324,M,,*7A
2017-11-15 18:47:41 1510789661.331301: $GPRMC,234740,A,3946.9469,N,08404.9620,W,0.5912,129.172,151117,,*35
2017-11-15 18:47:41 1510789661.331356: $GPGSA,A,3,1,14,3,32,31,26,25,10,22,29,,,3.4,0.8,2.9*3B
2017-11-15 18:47:42 1510789662.709035: $GPGSV,3,1,11,01,16,268,15,14,67,055,14,03,26,313,10,32,51,087,14*7C
2017-11-15 18:47:42 1510789662.709197: $GPGSV,3,2,11,31,79,315,22,26,32,177,15,25,32,051,12,10,16,157,12*74
2017-11-15 18:47:42 1510789662.709257: $GPGSV,3,3,11,12,02,030,10,22,43,297,22,29,02,088,10*49
2017-11-15 18:47:42 1510789662.822467: $GPZDA,234741.00,15,11,2017,00,00*61
2017-11-15 18:47:42 1510789662.822641: $GPGGA,234741,3946.9469,N,08404.9620,W,1,11,0.80,331.65,M,-33.324,M,,*7A
2017-11-15 18:47:42 1510789662.822702: $GPRMC,234741,A,3946.9469,N,08404.9620,W,0.0000,0.000,151117,,*35
2017-11-15 18:47:42 1510789662.822757: $GPGSA,A,3,1,14,3,32,31,26,25,10,12,22,29,,3.4,0.8,2.9*38
2017-11-15 18:47:43 1510789663.330790: $GPZDA,234742.00,15,11,2017,00,00*62
2017-11-15 18:47:43 1510789663.330955: $GPGGA,234742,3946.9469,N,08404.9620,W,1,11,0.80,331.65,M,-33.324,M,,*79
2017-11-15 18:47:43 1510789663.331015: $GPRMC,234742,A,3946.9469,N,08404.9620,W,0.2422,93.794,151117,,*00
2017-11-15 18:47:43 1510789663.331070: $GPGSA,A,3,1,14,3,32,31,26,25,10,12,22,29,,3.4,0.8,2.9*38
2017-11-15 18:47:44 1510789664.330585: $GPZDA,234743.00,15,11,2017,00,00*63
2017-11-15 18:47:44 1510789664.330748: $GPGGA,234743,3946.9469,N,08404.9613,W,1,11,0.80,331.73,M,-33.324,M,,*7F
2017-11-15 18:47:44 1510789664.330807: $GPRMC,234743,A,3946.9469,N,08404.9613,W,0.2422,93.794,151117,,*01
2017-11-15 18:47:44 1510789664.330862: $GPGSA,A,3,1,14,3,32,31,26,25,10,12,22,29,,3.4,0.8,2.9*38
2017-11-15 18:47:45 1510789665.666262: $GPGSV,3,1,11,01,16,268,15,14,67,055,14,03,26,313,10,32,51,087,15*7D
2017-11-15 18:47:45 1510789665.666434: $GPGSV,3,2,11,31,79,315,22,26,32,177,15,25,32,051,12,10,16,157,12*74
2017-11-15 18:47:45 1510789665.666493: $GPGSV,3,3,11,16,03,190,13,22,43,297,22,29,02,088,10*44
2017-11-15 18:47:45 1510789665.779534: $GPZDA,234744.00,15,11,2017,00,00*64
2017-11-15 18:47:45 1510789665.779679: $GPGGA,234744,3946.9469,N,08404.9613,W,1,10,0.80,331.73,M,-33.324,M,,*79
2017-11-15 18:47:45 1510789665.779787: $GPRMC,234744,A,3946.9469,N,08404.9613,W,0.4179,148.778,151117,,*3E
2017-11-15 18:47:45 1510789665.779843: $GPGSA,A,3,1,14,3,32,31,26,25,10,22,29,,,3.4,0.8,2.9*3B
2017-11-15 18:47:46 1510789666.404952: $GPZDA,234745.00,15,11,2017,00,00*65
2017-11-15 18:47:46 1510789666.405124: $GPGGA,234745,3946.9472,N,08404.9612,W,1,10,0.80,330.96,M,-33.324,M,,*79
2017-11-15 18:47:46 1510789666.405186: $GPRMC,234745,A,3946.9472,N,08404.9612,W,0.2422,93.794,151117,,*0C
2017-11-15 18:47:46 1510789666.405241: $GPGSA,A,3,1,14,3,32,31,26,25,10,22,29,,,3.4,0.8,2.9*3B
2017-11-15 18:47:47 1510789667.373330: $GPZDA,234746.00,15,11,2017,00,00*66
2017-11-15 18:47:47 1510789667.373493: $GPGGA,234746,3946.9472,N,08404.9612,W,1,10,0.80,330.96,M,-33.324,M,,*7A
2017-11-15 18:47:47 1510789667.373555: $GPRMC,234746,A,3946.9472,N,08404.9612,W,0.2422,93.794,151117,,*0F
2017-11-15 18:47:47 1510789667.373610: $GPGSA,A,3,1,14,3,32,31,26,25,10,22,29,,,3.4,0.8,2.9*3B
2017-11-15 18:47:48 1510789668.666625: $GPGSV,3,1,11,01,16,268,15,14,67,055,14,03,26,313,09,32,51,087,16*76
2017-11-15 18:47:48 1510789668.666840: $GPGSV,3,2,11,31,79,315,22,26,32,177,15,25,32,051,12,10,16,157,12*74
2017-11-15 18:47:48 1510789668.666902: $GPGSV,3,3,11,12,02,030,08,22,43,297,23,29,02,088,04*44
2017-11-15 18:47:48 1510789668.781762: $GPZDA,234747.00,15,11,2017,00,00*67
2017-11-15 18:47:48 1510789668.781938: $GPGGA,234747,3946.9472,N,08404.9612,W,1,10,0.80,330.96,M,-33.324,M,,*7B
2017-11-15 18:47:48 1510789668.782002: $GPRMC,234747,A,3946.9472,N,08404.9612,W,0.0000,0.000,151117,,*38
2017-11-15 18:47:48 1510789668.782058: $GPGSA,A,3,1,14,3,32,31,26,25,10,12,22,,,3.4,0.8,2.9*33
2017-11-15 18:47:49 1510789669.373408: $GPZDA,234748.00,15,11,2017,00,00*68
2017-11-15 18:47:49 1510789669.373573: $GPGGA,234748,3946.9476,N,08404.9612,W,1,10,0.80,331.60,M,-33.324,M,,*78
2017-11-15 18:47:49 1510789669.373635: $GPRMC,234748,A,3946.9476,N,08404.9612,W,0.4844,273.794,151117,,*33
2017-11-15 18:47:49 1510789669.373690: $GPGSA,A,3,1,14,3,32,31,26,25,10,12,22,,,3.4,0.8,2.9*33
2017-11-15 18:47:50 1510789670.373314: $GPZDA,234749.00,15,11,2017,00,00*69
2017-11-15 18:47:50 1510789670.373478: $GPGGA,234749,3946.9476,N,08404.9612,W,1,10,1.00,331.60,M,-33.324,M,,*70
2017-11-15 18:47:50 1510789670.373539: $GPRMC,234749,A,3946.9476,N,08404.9612,W,0.7576,261.914,151117,,*38
2017-11-15 18:47:50 1510789670.373594: $GPGSA,A,3,1,14,3,32,31,26,25,10,12,22,,,3.4,1.0,2.9*3A
2017-11-15 18:47:51 1510789671.667241: $GPGSV,3,1,11,01,16,268,14,14,67,055,14,03,26,313,07,32,51,087,16*79
2017-11-15 18:47:51 1510789671.667413: $GPGSV,3,2,11,31,79,315,22,26,32,177,14,25,32,051,12,10,16,157,11*76
2017-11-15 18:47:51 1510789671.667478: $GPGSV,3,3,11,12,02,030,10,22,43,297,23,29,02,088,04*4D
2017-11-15 18:47:51 1510789671.779386: $GPZDA,234750.00,15,11,2017,00,00*61
2017-11-15 18:47:51 1510789671.779557: $GPGGA,234750,3946.9477,N,08404.9619,W,1,10,1.00,331.52,M,-33.324,M,,*73
2017-11-15 18:47:51 1510789671.779617: $GPRMC,234750,A,3946.9477,N,08404.9619,W,0.9959,264.784,151117,,*37
2017-11-15 18:47:51 1510789671.779672: $GPGSA,A,3,1,14,3,32,31,26,25,10,12,22,,,3.4,1.0,2.9*3A
2017-11-15 18:47:52 1510789672.330953: $GPZDA,234751.00,15,11,2017,00,00*60
2017-11-15 18:47:52 1510789672.331117: $GPGGA,234751,3946.9477,N,08404.9619,W,1,10,1.00,331.52,M,-33.324,M,,*72
2017-11-15 18:47:52 1510789672.331178: $GPRMC,234751,A,3946.9477,N,08404.9619,W,0.7267,273.794,151117,,*39
2017-11-15 18:47:52 1510789672.331234: $GPGSA,A,3,1,14,3,32,31,26,25,10,12,22,,,3.4,1.0,2.9*3A
2017-11-15 18:47:53 1510789673.331155: $GPZDA,234752.00,15,11,2017,00,00*63
2017-11-15 18:47:53 1510789673.331314: $GPGGA,234752,3946.9477,N,08404.9619,W,1,10,1.00,331.52,M,-33.324,M,,*71
2017-11-15 18:47:53 1510789673.331375: $GPRMC,234752,A,3946.9477,N,08404.9619,W,0.4844,273.794,151117,,*32
2017-11-15 18:47:53 1510789673.331430: $GPGSA,A,3,1,14,3,32,31,26,25,10,12,22,,,3.4,1.0,2.9*3A
2017-11-15 18:47:54 1510789674.666588: $GPGSV,3,1,11,01,16,268,08,14,67,055,15,03,26,313,07,32,51,087,17*74
2017-11-15 18:47:54 1510789674.666818: $GPGSV,3,2,11,31,79,315,22,26,32,177,11,25,32,051,12,10,16,157,12*70
2017-11-15 18:47:54 1510789674.666958: $GPGSV,3,3,11,12,02,030,10,22,43,297,23,29,02,088,04*4D
2017-11-15 18:47:54 1510789674.780277: $GPZDA,234753.00,15,11,2017,00,00*62
2017-11-15 18:47:54 1510789674.780416: $GPGGA,234753,3946.9477,N,08404.9626,W,1,10,1.00,331.44,M,-33.324,M,,*7B
2017-11-15 18:47:54 1510789674.780474: $GPRMC,234753,A,3946.9477,N,08404.9626,W,0.2422,273.794,151117,,*35
2017-11-15 18:47:54 1510789674.780528: $GPGSA,A,3,1,14,3,32,31,26,25,10,12,22,,,3.4,1.0,2.9*3A
2017-11-15 18:47:55 1510789675.373305: $GPZDA,234754.00,15,11,2017,00,00*65
2017-11-15 18:47:55 1510789675.373470: $GPGGA,234754,3946.9477,N,08404.9626,W,1,10,1.00,331.44,M,-33.324,M,,*7C
2017-11-15 18:47:55 1510789675.373530: $GPRMC,234754,A,3946.9477,N,08404.9626,W,0.3155,309.994,151117,,*34
2017-11-15 18:47:55 1510789675.373586: $GPGSA,A,3,1,14,3,32,31,26,25,10,12,22,,,3.4,1.0,2.9*3A
2017-11-15 18:47:56 1510789676.373671: $GPZDA,234755.00,15,11,2017,00,00*64
2017-11-15 18:47:56 1510789676.373829: $GPGGA,234755,3946.9481,N,08404.9626,W,1,10,1.00,332.08,M,-33.324,M,,*7F
2017-11-15 18:47:56 1510789676.373890: $GPRMC,234755,A,3946.9481,N,08404.9626,W,0.2422,273.794,151117,,*3A
2017-11-15 18:47:56 1510789676.373946: $GPGSA,A,3,1,14,3,32,31,26,25,10,12,22,,,3.4,1.0,2.9*3A
2017-11-15 18:47:57 1510789677.667012: $GPGSV,3,1,11,01,16,268,08,14,67,055,16,03,26,313,07,32,51,087,16*76
2017-11-15 18:47:57 1510789677.667178: $GPGSV,3,2,11,31,79,315,22,26,32,177,11,25,32,051,12,10,16,157,13*71
2017-11-15 18:47:57 1510789677.667238: $GPGSV,3,3,11,12,02,030,10,22,43,297,24,29,02,088,04*4A
2017-11-15 18:47:57 1510789677.780238: $GPZDA,234756.00,15,11,2017,00,00*67
2017-11-15 18:47:57 1510789677.780372: $GPGGA,234756,3946.9481,N,08404.9626,W,1,10,1.00,332.08,M,-33.324,M,,*7C
2017-11-15 18:47:57 1510789677.780430: $GPRMC,234756,A,3946.9481,N,08404.9626,W,0.0000,0.000,151117,,*33
2017-11-15 18:47:57 1510789677.780483: $GPGSA,A,3,1,14,3,32,31,26,25,10,12,22,,,3.4,1.0,2.9*3A
2017-11-15 18:47:58 1510789678.331158: $GPZDA,234757.00,15,11,2017,00,00*66
2017-11-15 18:47:58 1510789678.331336: $GPGGA,234757,3946.9481,N,08404.9626,W,1,10,1.00,332.08,M,-33.324,M,,*7D
2017-11-15 18:47:58 1510789678.331398: $GPRMC,234757,A,3946.9481,N,08404.9626,W,0.4179,148.778,151117,,*3C
2017-11-15 18:47:58 1510789678.331454: $GPGSA,A,3,1,14,3,32,31,26,25,10,12,22,,,3.4,1.0,2.9*3A
2017-11-15 18:47:59 1510789679.330782: $GPZDA,234758.00,15,11,2017,00,00*69
2017-11-15 18:47:59 1510789679.330942: $GPGGA,234758,3946.9481,N,08404.9619,W,1,10,1.00,332.16,M,-33.324,M,,*71
2017-11-15 18:47:59 1510789679.331002: $GPRMC,234758,A,3946.9481,N,08404.9619,W,0.7238,140.710,151117,,*3C
2017-11-15 18:47:59 1510789679.331058: $GPGSA,A,3,1,14,3,32,31,26,25,10,12,22,,,3.4,1.0,2.9*3A
2017-11-15 18:48:00 1510789680.666550: $GPGSV,3,1,11,01,16,268,08,14,67,055,16,03,26,313,06,32,51,087,17*76
2017-11-15 18:48:00 1510789680.666762: $GPGSV,3,2,11,31,79,315,22,26,32,177,10,25,32,051,12,10,16,157,13*70
2017-11-15 18:48:00 1510789680.666831: $GPGSV,3,3,11,12,02,030,11,22,43,297,24,29,02,088,10*4E
2017-11-15 18:48:00 1510789680.779845: $GPZDA,234759.00,15,11,2017,00,00*68
2017-11-15 18:48:00 1510789680.779982: $GPGGA,234759,3946.9477,N,08404.9619,W,1,10,1.20,331.52,M,-33.324,M,,*78
2017-11-15 18:48:00 1510789680.780040: $GPRMC,234759,A,3946.9477,N,08404.9619,W,0.3423,184.197,151117,,*3D
2017-11-15 18:48:00 1510789680.780094: $GPGSA,A,3,1,14,3,32,31,26,25,10,12,22,,,3.4,1.2,2.9*38
2017-11-15 18:48:01 1510789681.405300: $GPZDA,234800.00,15,11,2017,00,00*6B
2017-11-15 18:48:01 1510789681.405459: $GPGGA,234800,3946.9477,N,08404.9619,W,1,10,1.00,331.52,M,-33.324,M,,*79
2017-11-15 18:48:01 1510789681.405520: $GPRMC,234800,A,3946.9477,N,08404.9619,W,0.2959,234.767,151117,,*3E
2017-11-15 18:48:01 1510789681.405575: $GPGSA,A,3,1,14,3,32,31,26,25,10,12,22,,,3.4,1.0,2.9*3A
2017-11-15 18:48:02 1510789682.331182: $GPZDA,234801.00,15,11,2017,00,00*6A
2017-11-15 18:48:02 1510789682.331344: $GPGGA,234801,3946.9481,N,08404.9626,W,1,10,1.00,332.08,M,-33.324,M,,*71
2017-11-15 18:48:02 1510789682.331455: $GPRMC,234801,A,3946.9481,N,08404.9626,W,0.4844,273.794,151117,,*3E
2017-11-15 18:48:02 1510789682.331512: $GPGSA,A,3,1,14,3,32,31,26,25,10,12,22,,,3.4,1.0,2.9*3A
2017-11-15 18:48:03 1510789683.666980: $GPGSV,3,1,11,01,16,268,08,14,67,055,16,03,26,313,08,32,51,087,17*78
2017-11-15 18:48:03 1510789683.667150: $GPGSV,3,2,11,31,79,315,22,26,32,177,10,25,32,051,12,10,16,157,12*71
2017-11-15 18:48:03 1510789683.667209: $GPGSV,3,3,11,16,03,190,07,22,43,297,24,29,02,088,10*47
2017-11-15 18:48:03 1510789683.780542: $GPZDA,234802.00,15,11,2017,00,00*69
2017-11-15 18:48:03 1510789683.780766: $GPGGA,234802,3946.9485,N,08404.9625,W,1,10,0.80,331.32,M,-33.324,M,,*76
2017-11-15 18:48:03 1510789683.780901: $GPRMC,234802,A,3946.9485,N,08404.9625,W,0.4844,273.794,151117,,*3A
2017-11-15 18:48:03 1510789683.781000: $GPGSA,A,3,1,14,3,32,31,26,25,10,22,29,,,3.4,0.8,2.9*3B
2017-11-15 18:48:04 1510789684.374925: $GPZDA,234803.00,15,11,2017,00,00*68
2017-11-15 18:48:04 1510789684.375116: $GPGGA,234803,3946.9485,N,08404.9625,W,1,10,0.80,331.32,M,-33.324,M,,*77
2017-11-15 18:48:04 1510789684.375178: $GPRMC,234803,A,3946.9485,N,08404.9625,W,0.2422,273.794,151117,,*31
2017-11-15 18:48:04 1510789684.375233: $GPGSA,A,3,1,14,3,32,31,26,25,10,22,29,,,3.4,0.8,2.9*3B
2017-11-15 18:48:05 1510789685.374507: $GPZDA,234804.00,15,11,2017,00,00*6F
2017-11-15 18:48:05 1510789685.374671: $GPGGA,234804,3946.9485,N,08404.9625,W,1,10,0.80,331.32,M,-33.324,M,,*70
2017-11-15 18:48:05 1510789685.374732: $GPRMC,234804,A,3946.9485,N,08404.9625,W,0.3423,4.197,151117,,*31
2017-11-15 18:48:05 1510789685.374787: $GPGSA,A,3,1,14,3,32,31,26,25,10,22,29,,,3.4,0.8,2.9*3B
2017-11-15 18:48:06 1510789686.667258: $GPGSV,3,1,11,01,16,268,09,14,67,055,16,03,26,313,09,32,51,087,17*78
2017-11-15 18:48:06 1510789686.667424: $GPGSV,3,2,11,31,79,315,22,26,32,177,12,25,32,051,12,10,16,157,12*73
2017-11-15 18:48:06 1510789686.667485: $GPGSV,3,3,11,16,03,190,06,22,43,297,25,29,02,088,07*41
2017-11-15 18:48:06 1510789686.780642: $GPZDA,234805.00,15,11,2017,00,00*6E
2017-11-15 18:48:06 1510789686.780825: $GPGGA,234805,3946.9485,N,08404.9625,W,1,10,0.80,331.32,M,-33.324,M,,*71
2017-11-15 18:48:06 1510789686.780887: $GPRMC,234805,A,3946.9485,N,08404.9625,W,0.3423,4.197,151117,,*30
2017-11-15 18:48:06 1510789686.780960: $GPGSA,A,3,1,14,3,32,31,26,25,10,22,29,,,3.4,0.8,2.9*3B
2017-11-15 18:48:07 1510789687.373985: $GPZDA,234806.00,15,11,2017,00,00*6D
2017-11-15 18:48:07 1510789687.374148: $GPGGA,234806,3946.9485,N,08404.9625,W,1,10,0.80,331.32,M,-33.324,M,,*72
2017-11-15 18:48:07 1510789687.374209: $GPRMC,234806,A,3946.9485,N,08404.9625,W,0.4207,39.347,151117,,*05
2017-11-15 18:48:07 1510789687.374264: $GPGSA,A,3,1,14,3,32,31,26,25,10,22,29,,,3.4,0.8,2.9*3B
2017-11-15 18:48:08 1510789688.373603: $GPZDA,234807.00,15,11,2017,00,00*6C
2017-11-15 18:48:08 1510789688.373768: $GPGGA,234807,3946.9492,N,08404.9625,W,1,10,0.80,331.19,M,-33.324,M,,*7C
2017-11-15 18:48:08 1510789688.373847: $GPRMC,234807,A,3946.9492,N,08404.9625,W,0.4207,39.347,151117,,*02
2017-11-15 18:48:08 1510789688.373904: $GPGSA,A,3,1,14,3,32,31,26,25,10,22,29,,,3.4,0.8,2.9*3B
