2018-01-11 20:01:43 1515718903.209423: {"class":"VERSION","release":"3.16","rev":"3.16-4","proto_major":3,"proto_minor":11}
2018-01-11 20:01:43 1515718903.209814: {"class":"DEVICES","devices":[{"class":"DEVICE","path":"/dev/ttyUSB0","driver":"SiRF","subtype":"9\u0006GSD4e_4.1.2-P1_RPATCH.05-F-GPS-4R-1510281 11/03/2015 307","activated":"2018-01-12T01:01:42.560Z","flags":1,"native":1,"bps":4800,"parity":"N","stopbits":1,"cycle":1.00}]}
2018-01-11 20:01:43 1515718903.209928: {"class":"WATCH","enable":true,"json":false,"nmea":true,"raw":0,"scaled":false,"timing":false,"split24":false,"pps":false}
2018-01-11 20:01:43 1515718903.412112: $GPZDA,010144.00,12,01,2018,00,00*6F
2018-01-11 20:01:43 1515718903.412279: $GPGGA,010144,3946.9593,N,08404.9822,W,2,10,0.80,308.86,M,-33.324,M,,*70
2018-01-11 20:01:43 1515718903.412346: $GPRMC,010144,A,3946.9593,N,08404.9822,W,0.0000,0.000,120118,,*33
2018-01-11 20:01:43 1515718903.412430: $GPGSA,A,3,7,8,9,11,16,23,27,28,30,138,,,4.0,0.8,3.5*3E
2018-01-11 20:01:44 1515718904.745760: $GPGSV,3,1,11,07,51,313,42,08,70,145,46,09,51,235,43,11,16,169,42*73
2018-01-11 20:01:44 1515718904.745930: $GPGSV,3,2,11,16,26,057,47,23,34,192,45,27,51,057,51,28,11,255,38*73
2018-01-11 20:01:44 1515718904.745997: $GPGSV,3,3,11,30,25,304,39,26,02,070,00,138,38,213,46*72
2018-01-11 20:01:44 1515718904.859485: $GPZDA,010145.00,12,01,2018,00,00*6E
2018-01-11 20:01:44 1515718904.859639: $GPGGA,010145,3946.9593,N,08404.9822,W,2,10,0.80,308.86,M,-33.324,M,,*71
2018-01-11 20:01:44 1515718904.859704: $GPRMC,010145,A,3946.9593,N,08404.9822,W,0.0000,0.000,120118,,*32
2018-01-11 20:01:44 1515718904.859765: $GPGSA,A,3,7,8,9,11,16,23,27,28,30,138,,,4.0,0.8,3.5*3E
2018-01-11 20:01:45 1515718905.415312: $GPZDA,010146.00,12,01,2018,00,00*6D
2018-01-11 20:01:45 1515718905.415503: $GPGGA,010146,3946.9593,N,08404.9822,W,2,10,0.80,308.86,M,-33.324,M,,*72
2018-01-11 20:01:45 1515718905.415571: $GPRMC,010146,A,3946.9593,N,08404.9822,W,0.0000,0.000,120118,,*31
2018-01-11 20:01:45 1515718905.415631: $GPGSA,A,3,7,8,9,11,16,23,27,28,30,138,,,4.0,0.8,3.5*3E
2018-01-11 20:01:46 1515718906.400090: $GPZDA,010147.00,12,01,2018,00,00*6C
2018-01-11 20:01:46 1515718906.400246: $GPGGA,010147,3946.9593,N,08404.9822,W,2,10,0.80,308.86,M,-33.324,M,,*73
2018-01-11 20:01:46 1515718906.400312: $GPRMC,010147,A,3946.9593,N,08404.9822,W,0.0000,0.000,120118,,*30
2018-01-11 20:01:46 1515718906.400395: $GPGSA,A,3,7,8,9,11,16,23,27,28,30,138,,,4.0,0.8,3.5*3E
2018-01-11 20:01:47 1515718907.744119: $GPGSV,3,1,11,07,51,313,42,08,70,145,46,09,51,235,43,11,16,169,42*73
2018-01-11 20:01:47 1515718907.744303: $GPGSV,3,2,11,16,26,057,47,23,34,192,45,27,51,057,51,28,11,255,39*72
2018-01-11 20:01:47 1515718907.744393: $GPGSV,3,3,11,30,25,304,39,26,02,070,05,138,38,213,45*74
2018-01-11 20:01:47 1515718907.857838: $GPZDA,010148.00,12,01,2018,00,00*63
2018-01-11 20:01:47 1515718907.857976: $GPGGA,010148,3946.9593,N,08404.9822,W,2,10,0.80,308.86,M,-33.324,M,,*7C
2018-01-11 20:01:47 1515718907.858043: $GPRMC,010148,A,3946.9593,N,08404.9822,W,0.0000,0.000,120118,,*3F
2018-01-11 20:01:47 1515718907.858103: $GPGSA,A,3,7,8,9,11,16,23,27,28,30,138,,,4.0,0.8,3.5*3E
2018-01-11 20:01:48 1515718908.412486: $GPZDA,010149.00,12,01,2018,00,00*62
2018-01-11 20:01:48 1515718908.412655: $GPGGA,010149,3946.9597,N,08404.9822,W,2,10,0.80,309.50,M,-33.324,M,,*73
2018-01-11 20:01:48 1515718908.412721: $GPRMC,010149,A,3946.9597,N,08404.9822,W,0.0000,0.000,120118,,*3A
2018-01-11 20:01:48 1515718908.412782: $GPGSA,A,3,7,8,9,11,16,23,27,28,30,138,,,4.0,0.8,3.5*3E
2018-01-11 20:01:49 1515718909.416438: $GPZDA,010150.00,12,01,2018,00,00*6A
2018-01-11 20:01:49 1515718909.416626: $GPGGA,010150,3946.9597,N,08404.9822,W,2,10,0.80,309.50,M,-33.324,M,,*7B
2018-01-11 20:01:49 1515718909.416692: $GPRMC,010150,A,3946.9597,N,08404.9822,W,0.0000,0.000,120118,,*32
2018-01-11 20:01:49 1515718909.416752: $GPGSA,A,3,7,8,9,11,16,23,27,28,30,138,,,4.0,0.8,3.5*3E
2018-01-11 20:01:50 1515718910.731872: $GPGSV,3,1,11,07,51,313,42,08,70,145,46,09,51,235,43,11,16,169,43*72
2018-01-11 20:01:50 1515718910.732037: $GPGSV,3,2,11,16,26,057,47,23,34,192,45,27,51,057,51,28,11,255,39*72
2018-01-11 20:01:50 1515718910.732157: $GPGSV,3,3,11,30,25,304,39,26,02,070,00,138,38,213,45*71
2018-01-11 20:01:50 1515718910.845513: $GPZDA,010151.00,12,01,2018,00,00*6B
2018-01-11 20:01:50 1515718910.845653: $GPGGA,010151,3946.9593,N,08404.9823,W,2,10,0.80,310.27,M,-33.324,M,,*77
2018-01-11 20:01:50 1515718910.845720: $GPRMC,010151,A,3946.9593,N,08404.9823,W,0.0000,0.000,120118,,*36
2018-01-11 20:01:50 1515718910.845780: $GPGSA,A,3,7,8,9,11,16,23,27,28,30,138,,,4.0,0.8,3.5*3E
2018-01-11 20:01:51 1515718911.400197: $GPZDA,010152.00,12,01,2018,00,00*68
2018-01-11 20:01:51 1515718911.400388: $GPGGA,010152,3946.9593,N,08404.9823,W,2,10,0.80,310.27,M,-33.324,M,,*74
2018-01-11 20:01:51 1515718911.400472: $GPRMC,010152,A,3946.9593,N,08404.9823,W,0.0000,0.000,120118,,*35
2018-01-11 20:01:51 1515718911.400534: $GPGSA,A,3,7,8,9,11,16,23,27,28,30,138,,,4.0,0.8,3.5*3E
2018-01-11 20:01:52 1515718912.399535: $GPZDA,010153.00,12,01,2018,00,00*69
2018-01-11 20:01:52 1515718912.399740: $GPGGA,010153,3946.9593,N,08404.9823,W,2,10,0.80,310.27,M,-33.324,M,,*75
2018-01-11 20:01:52 1515718912.399809: $GPRMC,010153,A,3946.9593,N,08404.9823,W,0.0000,0.000,120118,,*34
2018-01-11 20:01:52 1515718912.399870: $GPGSA,A,3,7,8,9,11,16,23,27,28,30,138,,,4.0,0.8,3.5*3E
