2017-12-01 13:56:17 1512154577.177064: {"class":"VERSION","release":"3.16","rev":"3.16-4","proto_major":3,"proto_minor":11}
2017-12-01 13:56:17 1512154577.177530: {"class":"DEVICES","devices":[{"class":"DEVICE","path":"/dev/ttyUSB0","driver":"SiRF","subtype":"9\u0006GSD4e_4.1.2-P1_RPATCH.05-F-GPS-4R-1510281 11/03/2015 307","activated":"2017-12-01T18:56:16.580Z","flags":1,"native":1,"bps":4800,"parity":"N","stopbits":1,"cycle":1.00}]}
2017-12-01 13:56:17 1512154577.177661: {"class":"WATCH","enable":true,"json":false,"nmea":true,"raw":0,"scaled":false,"timing":false,"split24":false,"pps":false}
2017-12-01 13:56:17 1512154577.775216: $GPGSV,3,1,12,08,08,304,38,10,58,318,49,14,19,244,39,15,21,060,42*7D
2017-12-01 13:56:17 1512154577.775408: $GPGSV,3,2,12,18,77,051,42,20,18,111,44,21,42,181,45,24,52,075,48*79
2017-12-01 13:56:17 1512154577.775495: $GPGSV,3,3,12,32,36,253,42,27,13,270,35,12,01,117,20,138,38,213,46*4C
2017-12-01 13:56:17 1512154577.888645: $GPZDA,185618.00,01,12,2017,00,00*63
2017-12-01 13:56:17 1512154577.888779: $GPGGA,185618,3946.9585,N,08404.9851,W,2,12,0.80,296.59,M,-33.324,M,,*76
2017-12-01 13:56:17 1512154577.888844: $GPRMC,185618,A,3946.9585,N,08404.9851,W,0.0000,0.000,011217,,*3C
2017-12-01 13:56:17 1512154577.888905: $GPGSA,A,3,8,10,14,15,18,20,21,24,32,27,12,138,2.0,0.8,1.5*37
2017-12-01 13:56:18 1512154578.439776: $GPZDA,185619.00,01,12,2017,00,00*62
2017-12-01 13:56:18 1512154578.439958: $GPGGA,185619,3946.9585,N,08404.9851,W,2,12,0.80,296.59,M,-33.324,M,,*77
2017-12-01 13:56:18 1512154578.440024: $GPRMC,185619,A,3946.9585,N,08404.9851,W,0.0000,0.000,011217,,*3D
2017-12-01 13:56:18 1512154578.440085: $GPGSA,A,3,8,10,14,15,18,20,21,24,32,27,12,138,2.0,0.8,1.5*37
2017-12-01 13:56:19 1512154579.412872: $GPZDA,185620.00,01,12,2017,00,00*68
2017-12-01 13:56:19 1512154579.413043: $GPGGA,185620,3946.9585,N,08404.9851,W,2,12,0.80,296.59,M,-33.324,M,,*7D
2017-12-01 13:56:19 1512154579.413109: $GPRMC,185620,A,3946.9585,N,08404.9851,W,0.0000,0.000,011217,,*37
2017-12-01 13:56:19 1512154579.413170: $GPGSA,A,3,8,10,14,15,18,20,21,24,32,27,12,138,2.0,0.8,1.5*37
2017-12-01 13:56:20 1512154580.746904: $GPGSV,3,1,12,08,08,304,37,10,58,318,49,14,19,244,39,15,21,060,42*72
2017-12-01 13:56:20 1512154580.747100: $GPGSV,3,2,12,18,77,051,42,20,18,111,44,21,42,181,45,24,52,075,48*79
2017-12-01 13:56:20 1512154580.747171: $GPGSV,3,3,12,32,36,253,42,27,13,270,35,12,01,117,21,138,38,213,46*4D
2017-12-01 13:56:20 1512154580.860234: $GPZDA,185621.00,01,12,2017,00,00*69
2017-12-01 13:56:20 1512154580.860414: $GPGGA,185621,3946.9585,N,08404.9851,W,2,12,0.80,296.59,M,-33.324,M,,*7C
2017-12-01 13:56:20 1512154580.860504: $GPRMC,185621,A,3946.9585,N,08404.9851,W,0.0000,0.000,011217,,*36
2017-12-01 13:56:20 1512154580.860570: $GPGSA,A,3,8,10,14,15,18,20,21,24,32,27,12,138,2.0,0.8,1.5*37
2017-12-01 13:56:21 1512154581.413621: $GPZDA,185622.00,01,12,2017,00,00*6A
2017-12-01 13:56:21 1512154581.413793: $GPGGA,185622,3946.9585,N,08404.9851,W,2,12,0.80,296.59,M,-33.324,M,,*7F
2017-12-01 13:56:21 1512154581.413863: $GPRMC,185622,A,3946.9585,N,08404.9851,W,0.0000,0.000,011217,,*35
2017-12-01 13:56:21 1512154581.413926: $GPGSA,A,3,8,10,14,15,18,20,21,24,32,27,12,138,2.0,0.8,1.5*37
2017-12-01 13:56:22 1512154582.413285: $GPZDA,185623.00,01,12,2017,00,00*6B
2017-12-01 13:56:22 1512154582.413451: $GPGGA,185623,3946.9585,N,08404.9851,W,2,12,0.80,296.59,M,-33.324,M,,*7E
2017-12-01 13:56:22 1512154582.413541: $GPRMC,185623,A,3946.9585,N,08404.9851,W,0.0000,0.000,011217,,*34
2017-12-01 13:56:22 1512154582.413621: $GPGSA,A,3,8,10,14,15,18,20,21,24,32,27,12,138,2.0,0.8,1.5*37
2017-12-01 13:56:23 1512154583.747691: $GPGSV,3,1,12,08,08,304,36,10,58,318,49,14,19,244,38,15,21,060,42*72
2017-12-01 13:56:23 1512154583.855980: $GPGSV,3,2,12,18,77,051,42,20,18,111,44,21,42,181,45,24,52,075,47*76
2017-12-01 13:56:23 1512154583.856112: $GPGSV,3,3,12,32,36,253,42,27,13,270,30,12,01,117,22,138,38,213,46*4B
2017-12-01 13:56:23 1512154583.861069: $GPZDA,185624.00,01,12,2017,00,00*6C
2017-12-01 13:56:23 1512154583.861205: $GPGGA,185624,3946.9585,N,08404.9851,W,2,12,0.80,296.59,M,-33.324,M,,*79
2017-12-01 13:56:23 1512154583.861323: $GPRMC,185624,A,3946.9585,N,08404.9851,W,0.0000,0.000,011217,,*33
2017-12-01 13:56:23 1512154583.861481: $GPGSA,A,3,8,10,14,15,18,20,21,24,32,27,12,138,2.0,0.8,1.5*37
2017-12-01 13:56:24 1512154584.415706: $GPZDA,185625.00,01,12,2017,00,00*6D
2017-12-01 13:56:24 1512154584.415877: $GPGGA,185625,3946.9585,N,08404.9851,W,2,12,0.80,296.59,M,-33.324,M,,*78
2017-12-01 13:56:24 1512154584.415943: $GPRMC,185625,A,3946.9585,N,08404.9851,W,0.0000,0.000,011217,,*32
2017-12-01 13:56:24 1512154584.416005: $GPGSA,A,3,8,10,14,15,18,20,21,24,32,27,12,138,2.0,0.8,1.5*37
2017-12-01 13:56:25 1512154585.414843: $GPZDA,185626.00,01,12,2017,00,00*6E
2017-12-01 13:56:25 1512154585.415016: $GPGGA,185626,3946.9585,N,08404.9851,W,2,12,0.80,296.59,M,-33.324,M,,*7B
2017-12-01 13:56:25 1512154585.415083: $GPRMC,185626,A,3946.9585,N,08404.9851,W,0.0000,0.000,011217,,*31
2017-12-01 13:56:25 1512154585.415144: $GPGSA,A,3,8,10,14,15,18,20,21,24,32,27,12,138,2.0,0.8,1.5*37
2017-12-01 13:56:26 1512154586.749298: $GPGSV,3,1,12,08,08,304,27,10,58,318,49,14,19,244,38,15,21,060,42*72
2017-12-01 13:56:26 1512154586.749502: $GPGSV,3,2,12,18,77,051,41,20,18,111,44,21,42,181,45,24,52,075,48*7A
2017-12-01 13:56:26 1512154586.749570: $GPGSV,3,3,12,32,36,253,41,27,13,270,33,12,01,117,22,138,38,213,46*4B
2017-12-01 13:56:26 1512154586.862917: $GPZDA,185627.00,01,12,2017,00,00*6F
2017-12-01 13:56:26 1512154586.863077: $GPGGA,185627,3946.9585,N,08404.9851,W,2,12,0.80,296.59,M,-33.324,M,,*7A
2017-12-01 13:56:26 1512154586.863143: $GPRMC,185627,A,3946.9585,N,08404.9851,W,0.0000,0.000,011217,,*30
2017-12-01 13:56:26 1512154586.863203: $GPGSA,A,3,8,10,14,15,18,20,21,24,32,27,12,138,2.0,0.8,1.5*37
2017-12-01 13:56:27 1512154587.414142: $GPZDA,185628.00,01,12,2017,00,00*60
2017-12-01 13:56:27 1512154587.414309: $GPGGA,185628,3946.9585,N,08404.9851,W,2,12,0.80,296.59,M,-33.324,M,,*75
2017-12-01 13:56:27 1512154587.414374: $GPRMC,185628,A,3946.9585,N,08404.9851,W,0.0000,0.000,011217,,*3F
2017-12-01 13:56:27 1512154587.414457: $GPGSA,A,3,8,10,14,15,18,20,21,24,32,27,12,138,2.0,0.8,1.5*37
2017-12-01 13:56:28 1512154588.414984: $GPZDA,185629.00,01,12,2017,00,00*61
2017-12-01 13:56:28 1512154588.415157: $GPGGA,185629,3946.9585,N,08404.9851,W,2,12,0.80,296.59,M,-33.324,M,,*74
2017-12-01 13:56:28 1512154588.415223: $GPRMC,185629,A,3946.9585,N,08404.9851,W,0.0000,0.000,011217,,*3E
2017-12-01 13:56:28 1512154588.415284: $GPGSA,A,3,8,10,14,15,18,20,21,24,32,27,12,138,2.0,0.8,1.5*37
2017-12-01 13:56:29 1512154589.750281: $GPGSV,3,1,12,08,08,304,00,10,58,318,49,14,19,244,38,15,21,060,42*77
2017-12-01 13:56:29 1512154589.750466: $GPGSV,3,2,12,18,77,051,41,20,18,111,44,21,42,181,45,24,52,075,48*7A
2017-12-01 13:56:29 1512154589.750534: $GPGSV,3,3,12,32,36,253,41,27,13,270,35,12,01,117,23,138,38,213,47*4D
2017-12-01 13:56:29 1512154589.863684: $GPZDA,185630.00,01,12,2017,00,00*69
2017-12-01 13:56:29 1512154589.863852: $GPGGA,185630,3946.9585,N,08404.9851,W,2,11,1.00,296.59,M,-33.324,M,,*76
2017-12-01 13:56:29 1512154589.863917: $GPRMC,185630,A,3946.9585,N,08404.9851,W,0.0000,0.000,011217,,*36
2017-12-01 13:56:29 1512154589.863979: $GPGSA,A,3,10,14,15,18,20,21,24,32,27,12,138,,2.0,1.0,1.5*06
2017-12-01 13:56:30 1512154590.489045: $GPZDA,185631.00,01,12,2017,00,00*68
2017-12-01 13:56:30 1512154590.489217: $GPGGA,185631,3946.9585,N,08404.9851,W,2,11,1.00,296.59,M,-33.324,M,,*77
2017-12-01 13:56:30 1512154590.489283: $GPRMC,185631,A,3946.9585,N,08404.9851,W,0.0000,0.000,011217,,*37
2017-12-01 13:56:30 1512154590.489345: $GPGSA,A,3,10,14,15,18,20,21,24,32,27,12,138,,2.0,1.0,1.5*06
2017-12-01 13:56:31 1512154591.412476: $GPZDA,185632.00,01,12,2017,00,00*6B
2017-12-01 13:56:31 1512154591.412778: $GPGGA,185632,3946.9585,N,08404.9851,W,2,11,1.00,296.59,M,-33.324,M,,*74
2017-12-01 13:56:31 1512154591.412905: $GPRMC,185632,A,3946.9585,N,08404.9851,W,0.0000,0.000,011217,,*34
2017-12-01 13:56:31 1512154591.413023: $GPGSA,A,3,10,14,15,18,20,21,24,32,27,12,138,,2.0,1.0,1.5*06
