2018-01-11 21:03:44 1515722624.126405: {"class":"VERSION","release":"3.16","rev":"3.16-4","proto_major":3,"proto_minor":11}
2018-01-11 21:03:44 1515722624.126841: {"class":"DEVICES","devices":[{"class":"DEVICE","path":"/dev/ttyUSB0","driver":"SiRF","subtype":"9\u0006GSD4e_4.1.2-P1_RPATCH.05-F-GPS-4R-1510281 11/03/2015 307","activated":"2018-01-12T02:03:43.688Z","flags":1,"native":1,"bps":4800,"parity":"N","stopbits":1,"cycle":1.00}]}
2018-01-11 21:03:44 1515722624.126956: {"class":"WATCH","enable":true,"json":false,"nmea":true,"raw":0,"scaled":false,"timing":false,"split24":false,"pps":false}
2018-01-11 21:03:44 1515722624.707255: $GPGSV,3,1,12,01,18,151,44,07,80,307,43,08,65,054,47,09,27,210,42*79
2018-01-11 21:03:44 1515722624.707429: $GPGSV,3,2,12,11,42,157,45,23,06,181,32,27,26,045,50,28,30,277,35*79
2018-01-11 21:03:44 1515722624.707511: $GPGSV,3,3,12,30,51,309,43,13,02,328,23,16,06,075,04,138,38,213,45*4F
2018-01-11 21:03:44 1515722624.820661: $GPZDA,020345.00,12,01,2018,00,00*6F
2018-01-11 21:03:44 1515722624.820810: $GPGGA,020345,3946.9588,N,08404.9844,W,2,11,1.00,297.31,M,-33.324,M,,*79
2018-01-11 21:03:44 1515722624.820875: $GPRMC,020345,A,3946.9588,N,08404.9844,W,0.0000,0.000,120118,,*39
2018-01-11 21:03:44 1515722624.820936: $GPGSA,A,3,1,7,8,9,11,23,27,28,30,13,138,,4.0,1.0,3.5*03
2018-01-11 21:03:45 1515722625.371804: $GPZDA,020346.00,12,01,2018,00,00*6C
2018-01-11 21:03:45 1515722625.371962: $GPGGA,020346,3946.9588,N,08404.9844,W,2,11,1.00,297.31,M,-33.324,M,,*7A
2018-01-11 21:03:45 1515722625.372027: $GPRMC,020346,A,3946.9588,N,08404.9844,W,0.0000,0.000,120118,,*3A
2018-01-11 21:03:45 1515722625.372088: $GPGSA,A,3,1,7,8,9,11,23,27,28,30,13,138,,4.0,1.0,3.5*03
2018-01-11 21:03:46 1515722626.356420: $GPZDA,020347.00,12,01,2018,00,00*6D
2018-01-11 21:03:46 1515722626.356589: $GPGGA,020347,3946.9588,N,08404.9844,W,2,11,1.00,297.31,M,-33.324,M,,*7B
2018-01-11 21:03:46 1515722626.356656: $GPRMC,020347,A,3946.9588,N,08404.9844,W,0.0000,0.000,120118,,*3B
2018-01-11 21:03:46 1515722626.356716: $GPGSA,A,3,1,7,8,9,11,23,27,28,30,13,138,,4.0,1.0,3.5*03
2018-01-11 21:03:47 1515722627.708140: $GPGSV,3,1,12,01,18,151,44,07,80,307,43,08,65,054,47,09,27,210,42*79
2018-01-11 21:03:47 1515722627.708299: $GPGSV,3,2,12,11,42,157,45,23,06,181,32,27,26,045,50,28,30,277,35*79
2018-01-11 21:03:47 1515722627.708367: $GPGSV,3,3,12,30,51,309,43,13,02,328,24,16,06,075,14,138,38,213,45*49
2018-01-11 21:03:47 1515722627.822625: $GPZDA,020348.00,12,01,2018,00,00*62
2018-01-11 21:03:47 1515722627.822774: $GPGGA,020348,3946.9588,N,08404.9837,W,2,12,0.80,297.39,M,-33.324,M,,*72
2018-01-11 21:03:47 1515722627.822839: $GPRMC,020348,A,3946.9588,N,08404.9837,W,0.0000,0.000,120118,,*30
2018-01-11 21:03:47 1515722627.822899: $GPGSA,A,3,1,7,8,9,11,23,27,28,30,13,16,138,4.0,0.8,3.5*0D
2018-01-11 21:03:48 1515722628.365225: $GPZDA,020349.00,12,01,2018,00,00*63
2018-01-11 21:03:48 1515722628.365387: $GPGGA,020349,3946.9588,N,08404.9837,W,2,12,0.80,297.39,M,-33.324,M,,*73
2018-01-11 21:03:48 1515722628.365453: $GPRMC,020349,A,3946.9588,N,08404.9837,W,0.0000,0.000,120118,,*31
2018-01-11 21:03:48 1515722628.365514: $GPGSA,A,3,1,7,8,9,11,23,27,28,30,13,16,138,4.0,0.8,3.5*0D
2018-01-11 21:03:49 1515722629.356823: $GPZDA,020350.00,12,01,2018,00,00*6B
2018-01-11 21:03:49 1515722629.356992: $GPGGA,020350,3946.9588,N,08404.9837,W,2,12,0.80,297.39,M,-33.324,M,,*7B
2018-01-11 21:03:49 1515722629.357058: $GPRMC,020350,A,3946.9588,N,08404.9837,W,0.0000,0.000,120118,,*39
2018-01-11 21:03:49 1515722629.357120: $GPGSA,A,3,1,7,8,9,11,23,27,28,30,13,16,138,4.0,0.8,3.5*0D
2018-01-11 21:03:50 1515722630.707318: $GPGSV,3,1,12,01,18,151,44,07,80,307,43,08,65,054,47,09,27,210,42*79
2018-01-11 21:03:50 1515722630.707501: $GPGSV,3,2,12,11,42,157,45,23,06,181,33,27,26,045,50,28,30,277,35*78
2018-01-11 21:03:50 1515722630.707568: $GPGSV,3,3,12,30,51,309,43,13,02,328,24,16,06,075,14,138,38,213,45*49
2018-01-11 21:03:50 1515722630.820921: $GPZDA,020351.00,12,01,2018,00,00*6A
2018-01-11 21:03:50 1515722630.821058: $GPGGA,020351,3946.9588,N,08404.9837,W,2,12,0.80,297.39,M,-33.324,M,,*7A
2018-01-11 21:03:50 1515722630.821177: $GPRMC,020351,A,3946.9588,N,08404.9837,W,0.0000,0.000,120118,,*38
2018-01-11 21:03:50 1515722630.821239: $GPGSA,A,3,1,7,8,9,11,23,27,28,30,13,16,138,4.0,0.8,3.5*0D
