2017-12-01 11:32:58 1512145978.916865: {"class":"VERSION","release":"3.16","rev":"3.16-4","proto_major":3,"proto_minor":11}
2017-12-01 11:32:58 1512145978.917311: {"class":"DEVICES","devices":[{"class":"DEVICE","path":"/dev/ttyUSB0","driver":"SiRF","subtype":"9\u0006GSD4e_4.1.2-P1_RPATCH.05-F-GPS-4R-1510281 11/03/2015 307","activated":"2017-12-01T16:32:58.506Z","flags":1,"native":1,"bps":4800,"parity":"N","stopbits":1,"cycle":1.00}]}
2017-12-01 11:32:58 1512145978.917444: {"class":"WATCH","enable":true,"json":false,"nmea":true,"raw":0,"scaled":false,"timing":false,"split24":false,"pps":false}
2017-12-01 11:32:59 1512145979.363049: $GPZDA,163300.00,01,12,2017,00,00*67
2017-12-01 11:32:59 1512145979.363237: $GPGGA,163300,3946.9548,N,08404.9823,W,2,11,0.80,303.23,M,-33.324,M,,*75
2017-12-01 11:32:59 1512145979.363304: $GPRMC,163300,A,3946.9548,N,08404.9823,W,0.0000,0.000,011217,,*3C
2017-12-01 11:32:59 1512145979.363365: $GPGSA,A,3,5,10,13,15,18,20,21,24,29,27,138,,2.0,0.8,1.5*34
2017-12-01 11:33:00 1512145980.698530: $GPGSV,3,1,12,05,17,073,35,10,10,268,45,13,47,052,47,15,78,093,48*7C
2017-12-01 11:33:00 1512145980.698727: $GPGSV,3,2,12,18,40,282,44,20,65,042,42,21,62,309,46,24,16,151,42*72
2017-12-01 11:33:00 1512145980.698793: $GPGSV,3,3,12,29,29,196,46,27,05,327,34,04,16,127,00,138,38,213,45*40
2017-12-01 11:33:00 1512145980.811978: $GPZDA,163301.00,01,12,2017,00,00*66
2017-12-01 11:33:00 1512145980.812138: $GPGGA,163301,3946.9548,N,08404.9823,W,2,11,0.80,303.23,M,-33.324,M,,*74
2017-12-01 11:33:00 1512145980.812206: $GPRMC,163301,A,3946.9548,N,08404.9823,W,0.0000,0.000,011217,,*3D
2017-12-01 11:33:00 1512145980.812267: $GPGSA,A,3,5,10,13,15,18,20,21,24,29,27,138,,2.0,0.8,1.5*34
2017-12-01 11:33:01 1512145981.437657: $GPZDA,163302.00,01,12,2017,00,00*65
2017-12-01 11:33:01 1512145981.437828: $GPGGA,163302,3946.9552,N,08404.9823,W,2,11,0.80,303.87,M,-33.324,M,,*72
2017-12-01 11:33:01 1512145981.437894: $GPRMC,163302,A,3946.9552,N,08404.9823,W,0.0000,0.000,011217,,*35
2017-12-01 11:33:01 1512145981.437955: $GPGSA,A,3,5,10,13,15,18,20,21,24,29,27,138,,2.0,0.8,1.5*34
2017-12-01 11:33:02 1512145982.348467: $GPZDA,163303.00,01,12,2017,00,00*64
2017-12-01 11:33:02 1512145982.348656: $GPGGA,163303,3946.9552,N,08404.9823,W,2,11,0.80,303.87,M,-33.324,M,,*73
2017-12-01 11:33:02 1512145982.348742: $GPRMC,163303,A,3946.9552,N,08404.9823,W,0.0000,0.000,011217,,*34
2017-12-01 11:33:02 1512145982.348804: $GPGSA,A,3,5,10,13,15,18,20,21,24,29,27,138,,2.0,0.8,1.5*34
2017-12-01 11:33:03 1512145983.682610: $GPGSV,3,1,12,05,17,073,34,10,10,268,45,13,47,052,47,15,78,093,48*7D
2017-12-01 11:33:03 1512145983.682780: $GPGSV,3,2,12,18,40,282,44,20,65,042,43,21,62,309,46,24,16,151,43*72
2017-12-01 11:33:03 1512145983.682846: $GPGSV,3,3,12,29,29,196,46,27,05,327,34,04,16,127,00,138,38,213,45*40
2017-12-01 11:33:03 1512145983.796251: $GPZDA,163304.00,01,12,2017,00,00*63
2017-12-01 11:33:03 1512145983.796455: $GPGGA,163304,3946.9552,N,08404.9823,W,2,11,0.80,303.87,M,-33.324,M,,*74
2017-12-01 11:33:03 1512145983.796539: $GPRMC,163304,A,3946.9552,N,08404.9823,W,0.0000,0.000,011217,,*33
2017-12-01 11:33:03 1512145983.796602: $GPGSA,A,3,5,10,13,15,18,20,21,24,29,27,138,,2.0,0.8,1.5*34
2017-12-01 11:33:04 1512145984.363422: $GPZDA,163305.00,01,12,2017,00,00*62
2017-12-01 11:33:04 1512145984.363634: $GPGGA,163305,3946.9552,N,08404.9823,W,2,11,0.80,303.87,M,-33.324,M,,*75
2017-12-01 11:33:04 1512145984.363701: $GPRMC,163305,A,3946.9552,N,08404.9823,W,0.0000,0.000,011217,,*32
2017-12-01 11:33:04 1512145984.363763: $GPGSA,A,3,5,10,13,15,18,20,21,24,29,27,138,,2.0,0.8,1.5*34
2017-12-01 11:33:05 1512145985.353204: $GPZDA,163306.00,01,12,2017,00,00*61
2017-12-01 11:33:05 1512145985.353418: $GPGGA,163306,3946.9552,N,08404.9823,W,2,11,0.80,303.87,M,-33.324,M,,*76
2017-12-01 11:33:05 1512145985.353488: $GPRMC,163306,A,3946.9552,N,08404.9823,W,0.0000,0.000,011217,,*31
2017-12-01 11:33:05 1512145985.353570: $GPGSA,A,3,5,10,13,15,18,20,21,24,29,27,138,,2.0,0.8,1.5*34
2017-12-01 11:33:06 1512145986.698023: $GPGSV,3,1,12,05,17,073,34,10,10,268,45,13,47,052,47,15,78,093,48*7D
2017-12-01 11:33:06 1512145986.698255: $GPGSV,3,2,12,18,40,282,44,20,65,042,43,21,62,309,46,24,16,151,42*73
2017-12-01 11:33:06 1512145986.698344: $GPGSV,3,3,12,29,29,196,46,27,05,327,35,04,16,127,00,138,38,213,46*42
2017-12-01 11:33:06 1512145986.811777: $GPZDA,163307.00,01,12,2017,00,00*60
2017-12-01 11:33:06 1512145986.811982: $GPGGA,163307,3946.9548,N,08404.9823,W,2,11,0.80,304.63,M,-33.324,M,,*71
2017-12-01 11:33:06 1512145986.812068: $GPRMC,163307,A,3946.9548,N,08404.9823,W,0.0000,0.000,011217,,*3B
2017-12-01 11:33:06 1512145986.812165: $GPGSA,A,3,5,10,13,15,18,20,21,24,29,27,138,,2.0,0.8,1.5*34
2017-12-01 11:33:07 1512145987.347458: $GPZDA,163308.00,01,12,2017,00,00*6F
2017-12-01 11:33:07 1512145987.347660: $GPGGA,163308,3946.9548,N,08404.9816,W,2,11,0.80,304.71,M,-33.324,M,,*7B
2017-12-01 11:33:07 1512145987.347728: $GPRMC,163308,A,3946.9548,N,08404.9816,W,0.0000,0.000,011217,,*32
2017-12-01 11:33:07 1512145987.347789: $GPGSA,A,3,5,10,13,15,18,20,21,24,29,27,138,,2.0,0.8,1.5*34
2017-12-01 11:33:08 1512145988.345848: $GPZDA,163309.00,01,12,2017,00,00*6E
2017-12-01 11:33:08 1512145988.346040: $GPGGA,163309,3946.9548,N,08404.9816,W,2,11,0.80,304.71,M,-33.324,M,,*7A
2017-12-01 11:33:08 1512145988.346108: $GPRMC,163309,A,3946.9548,N,08404.9816,W,0.0000,0.000,011217,,*33
2017-12-01 11:33:08 1512145988.346169: $GPGSA,A,3,5,10,13,15,18,20,21,24,29,27,138,,2.0,0.8,1.5*34
