2018-01-11 19:49:45 1515718185.736743: {"class":"VERSION","release":"3.16","rev":"3.16-4","proto_major":3,"proto_minor":11}
2018-01-11 19:49:45 1515718185.737108: {"class":"DEVICES","devices":[{"class":"DEVICE","path":"/dev/ttyUSB0","driver":"SiRF","subtype":"9\u0006GSD4e_4.1.2-P1_RPATCH.05-F-GPS-4R-1510281 11/03/2015 307","activated":"2018-01-12T00:49:45.556Z","flags":1,"native":1,"bps":4800,"parity":"N","stopbits":1,"cycle":1.00}]}
2018-01-11 19:49:45 1515718185.737219: {"class":"WATCH","enable":true,"json":false,"nmea":true,"raw":0,"scaled":false,"timing":false,"split24":false,"pps":false}
2018-01-11 19:49:46 1515718186.415789: $GPZDA,004947.00,12,01,2018,00,00*61
2018-01-11 19:49:46 1515718186.415947: $GPGGA,004947,3946.9590,N,08404.9852,W,2,11,0.80,300.04,M,-33.324,M,,*79
2018-01-11 19:49:46 1515718186.416013: $GPRMC,004947,A,3946.9590,N,08404.9852,W,0.0000,0.000,120118,,*39
2018-01-11 19:49:46 1515718186.416073: $GPGSA,A,3,7,8,9,11,16,23,27,30,28,26,138,,4.0,0.8,3.5*3A
2018-01-11 19:49:47 1515718187.750660: $GPGSV,3,1,11,07,46,310,39,08,65,154,45,09,54,243,42,11,12,171,32*72
2018-01-11 19:49:47 1515718187.750834: $GPGSV,3,2,11,16,30,054,47,23,39,193,48,27,55,064,50,30,21,303,38*7B
2018-01-11 19:49:47 1515718187.750900: $GPGSV,3,3,11,28,07,252,23,26,05,067,17,138,38,213,45*76
2018-01-11 19:49:47 1515718187.864259: $GPZDA,004948.00,12,01,2018,00,00*6E
2018-01-11 19:49:47 1515718187.864403: $GPGGA,004948,3946.9590,N,08404.9852,W,2,11,0.80,300.04,M,-33.324,M,,*76
2018-01-11 19:49:47 1515718187.864468: $GPRMC,004948,A,3946.9590,N,08404.9852,W,0.0000,0.000,120118,,*36
2018-01-11 19:49:47 1515718187.864528: $GPGSA,A,3,7,8,9,11,16,23,27,30,28,26,138,,4.0,0.8,3.5*3A
2018-01-11 19:49:48 1515718188.932222: $GPZDA,004949.00,12,01,2018,00,00*6F
2018-01-11 19:49:48 1515718188.932388: $GPGGA,004949,3946.9591,N,08404.9853,W,2,11,0.80,301.45,M,-33.324,M,,*73
2018-01-11 19:49:48 1515718188.932454: $GPRMC,004949,A,3946.9591,N,08404.9853,W,0.1867,180.000,120118,,*36
2018-01-11 19:49:48 1515718188.932515: $GPGSA,A,3,7,8,9,11,16,23,27,30,28,26,138,,4.0,0.8,3.5*3A
2018-01-11 19:49:49 1515718189.413014: $GPZDA,004950.00,12,01,2018,00,00*67
2018-01-11 19:49:49 1515718189.413148: $GPGGA,004950,3946.9591,N,08404.9853,W,2,11,0.80,301.45,M,-33.324,M,,*7B
2018-01-11 19:49:49 1515718189.413214: $GPRMC,004950,A,3946.9591,N,08404.9853,W,0.0000,0.000,120118,,*3F
2018-01-11 19:49:49 1515718189.413274: $GPGSA,A,3,7,8,9,11,16,23,27,30,28,26,138,,4.0,0.8,3.5*3A
2018-01-11 19:49:50 1515718190.749741: $GPGSV,3,1,11,07,47,310,39,08,66,154,45,09,54,243,42,11,12,171,32*70
2018-01-11 19:49:50 1515718190.749944: $GPGSV,3,2,11,16,30,054,47,23,39,193,48,27,54,063,50,30,21,303,39*7C
2018-01-11 19:49:50 1515718190.750016: $GPGSV,3,3,11,28,07,252,23,26,05,067,16,138,38,213,44*76
2018-01-11 19:49:50 1515718190.863423: $GPZDA,004951.00,12,01,2018,00,00*66
2018-01-11 19:49:50 1515718190.863590: $GPGGA,004951,3946.9591,N,08404.9853,W,2,11,0.80,301.45,M,-33.324,M,,*7A
2018-01-11 19:49:50 1515718190.863657: $GPRMC,004951,A,3946.9591,N,08404.9853,W,0.0000,0.000,120118,,*3E
2018-01-11 19:49:50 1515718190.863721: $GPGSA,A,3,7,8,9,11,16,23,27,30,28,26,138,,4.0,0.8,3.5*3A
2018-01-11 19:49:51 1515718191.424296: $GPZDA,004952.00,12,01,2018,00,00*65
2018-01-11 19:49:51 1515718191.424465: $GPGGA,004952,3946.9591,N,08404.9853,W,2,11,0.80,301.45,M,-33.324,M,,*79
2018-01-11 19:49:51 1515718191.424533: $GPRMC,004952,A,3946.9591,N,08404.9853,W,0.0000,0.000,120118,,*3D
2018-01-11 19:49:51 1515718191.424596: $GPGSA,A,3,7,8,9,11,16,23,27,30,28,26,138,,4.0,0.8,3.5*3A
2018-01-11 19:49:52 1515718192.414669: $GPZDA,004953.00,12,01,2018,00,00*64
2018-01-11 19:49:52 1515718192.414830: $GPGGA,004953,3946.9591,N,08404.9853,W,2,11,0.80,301.45,M,-33.324,M,,*78
2018-01-11 19:49:52 1515718192.414898: $GPRMC,004953,A,3946.9591,N,08404.9853,W,0.0000,0.000,120118,,*3C
2018-01-11 19:49:52 1515718192.414962: $GPGSA,A,3,7,8,9,11,16,23,27,30,28,26,138,,4.0,0.8,3.5*3A
2018-01-11 19:49:53 1515718193.751358: $GPGSV,3,1,11,07,47,310,40,08,66,154,45,09,54,243,42,11,12,171,32*7E
2018-01-11 19:49:53 1515718193.751564: $GPGSV,3,2,11,16,30,054,47,23,39,193,48,27,54,063,50,30,21,303,39*7C
2018-01-11 19:49:53 1515718193.751647: $GPGSV,3,3,11,28,07,252,23,26,05,067,15,138,38,213,45*74
2018-01-11 19:49:53 1515718193.865009: $GPZDA,004954.00,12,01,2018,00,00*63
2018-01-11 19:49:53 1515718193.865176: $GPGGA,004954,3946.9591,N,08404.9853,W,2,11,0.80,301.45,M,-33.324,M,,*7F
2018-01-11 19:49:53 1515718193.865241: $GPRMC,004954,A,3946.9591,N,08404.9853,W,0.0000,0.000,120118,,*3B
2018-01-11 19:49:53 1515718193.865302: $GPGSA,A,3,7,8,9,11,16,23,27,30,28,26,138,,4.0,0.8,3.5*3A
2018-01-11 19:49:54 1515718194.417092: $GPZDA,004955.00,12,01,2018,00,00*62
2018-01-11 19:49:54 1515718194.417242: $GPGGA,004955,3946.9591,N,08404.9853,W,2,11,0.80,301.45,M,-33.324,M,,*7E
2018-01-11 19:49:54 1515718194.417307: $GPRMC,004955,A,3946.9591,N,08404.9853,W,0.0000,0.000,120118,,*3A
2018-01-11 19:49:54 1515718194.417367: $GPGSA,A,3,7,8,9,11,16,23,27,30,28,26,138,,4.0,0.8,3.5*3A
