2017-12-31 18:38:29 1514763509.045761: {"class":"VERSION","release":"3.16","rev":"3.16-4","proto_major":3,"proto_minor":11}
2017-12-31 18:38:29 1514763509.046110: {"class":"DEVICES","devices":[{"class":"DEVICE","path":"/dev/ttyUSB0","driver":"SiRF","activated":"2017-12-31T23:38:28.494Z","flags":1,"native":1,"bps":4800,"parity":"N","stopbits":1,"cycle":1.00}]}
2017-12-31 18:38:29 1514763509.046208: {"class":"WATCH","enable":true,"json":false,"nmea":true,"raw":0,"scaled":false,"timing":false,"split24":false,"pps":false}
2017-12-31 18:38:29 1514763509.389400: $GPZDA,233830.00,31,12,2017,00,00*6A
2017-12-31 18:38:29 1514763509.389570: $GPGGA,233830,3946.9582,N,08404.9837,W,2,12,0.80,308.19,M,-33.324,M,,*79
2017-12-31 18:38:29 1514763509.389636: $GPRMC,233830,A,3946.9582,N,08404.9837,W,0.0000,0.000,311217,,*32
2017-12-31 18:38:29 1514763509.389697: $GPGSA,A,3,22,23,9,3,16,8,14,31,27,7,26,135,1.7,0.8,1.3*0C
2017-12-31 18:38:30 1514763510.688437: $GPGSV,3,1,12,22,12,207,28,23,64,292,37,09,31,312,40,03,22,225,34*74
2017-12-31 18:38:30 1514763510.688577: $GPGSV,3,2,12,16,83,042,42,08,11,177,23,14,04,138,18,31,20,084,39*7B
2017-12-31 18:38:30 1514763510.688641: $GPGSV,3,3,12,27,34,147,38,07,06,280,42,26,50,046,45,135,22,240,44*4F
2017-12-31 18:38:30 1514763510.801833: $GPZDA,233831.00,31,12,2017,00,00*6B
2017-12-31 18:38:30 1514763510.801961: $GPGGA,233831,3946.9582,N,08404.9837,W,2,12,0.80,308.19,M,-33.324,M,,*78
2017-12-31 18:38:30 1514763510.802025: $GPRMC,233831,A,3946.9582,N,08404.9837,W,0.0000,0.000,311217,,*33
2017-12-31 18:38:30 1514763510.802084: $GPGSA,A,3,22,23,9,3,16,8,14,31,27,7,26,135,1.7,0.8,1.3*0C
2017-12-31 18:38:31 1514763511.390183: $GPZDA,233832.00,31,12,2017,00,00*68
2017-12-31 18:38:31 1514763511.390345: $GPGGA,233832,3946.9582,N,08404.9837,W,2,12,0.80,308.19,M,-33.324,M,,*7B
2017-12-31 18:38:31 1514763511.390411: $GPRMC,233832,A,3946.9582,N,08404.9837,W,0.0000,0.000,311217,,*30
2017-12-31 18:38:31 1514763511.390472: $GPGSA,A,3,22,23,9,3,16,8,14,31,27,7,26,135,1.7,0.8,1.3*0C
2017-12-31 18:38:32 1514763512.346012: $GPZDA,233833.00,31,12,2017,00,00*69
2017-12-31 18:38:32 1514763512.505644: $GPGGA,233833,3946.9582,N,08404.9837,W,2,12,0.80,308.19,M,-33.324,M,,*7A
2017-12-31 18:38:32 1514763512.505748: $GPRMC,233833,A,3946.9582,N,08404.9837,W,0.0000,0.000,311217,,*31
2017-12-31 18:38:32 1514763512.505811: $GPGSA,A,3,22,23,9,3,16,8,14,31,27,7,26,135,1.7,0.8,1.3*0C
2017-12-31 18:38:33 1514763513.725505: $GPGSV,3,1,12,22,12,207,28,23,64,292,37,09,31,312,40,03,22,225,35*75
2017-12-31 18:38:33 1514763513.725667: $GPGSV,3,2,12,16,83,042,42,08,11,177,23,14,04,138,06,31,20,084,39*74
2017-12-31 18:38:33 1514763513.725732: $GPGSV,3,3,12,27,34,147,39,07,06,280,42,26,50,046,46,135,22,240,44*4D
2017-12-31 18:38:33 1514763513.838849: $GPZDA,233834.00,31,12,2017,00,00*6E
2017-12-31 18:38:33 1514763513.838985: $GPGGA,233834,3946.9582,N,08404.9837,W,2,12,0.80,308.19,M,-33.324,M,,*7D
2017-12-31 18:38:33 1514763513.839051: $GPRMC,233834,A,3946.9582,N,08404.9837,W,0.0000,0.000,311217,,*36
2017-12-31 18:38:33 1514763513.839110: $GPGSA,A,3,22,23,9,3,16,8,14,31,27,7,26,135,1.7,0.8,1.3*0C
2017-12-31 18:38:34 1514763514.389774: $GPZDA,233835.00,31,12,2017,00,00*6F
2017-12-31 18:38:34 1514763514.389942: $GPGGA,233835,3946.9582,N,08404.9837,W,2,12,0.80,308.19,M,-33.324,M,,*7C
2017-12-31 18:38:34 1514763514.390007: $GPRMC,233835,A,3946.9582,N,08404.9837,W,0.0000,0.000,311217,,*37
2017-12-31 18:38:34 1514763514.390067: $GPGSA,A,3,22,23,9,3,16,8,14,31,27,7,26,135,1.7,0.8,1.3*0C
2017-12-31 18:38:35 1514763515.352598: $GPZDA,233836.00,31,12,2017,00,00*6C
2017-12-31 18:38:35 1514763515.352772: $GPGGA,233836,3946.9582,N,08404.9837,W,2,12,0.80,308.19,M,-33.324,M,,*7F
2017-12-31 18:38:35 1514763515.352838: $GPRMC,233836,A,3946.9582,N,08404.9837,W,0.0000,0.000,311217,,*34
2017-12-31 18:38:35 1514763515.352898: $GPGSA,A,3,22,23,9,3,16,8,14,31,27,7,26,135,1.7,0.8,1.3*0C
2017-12-31 18:38:36 1514763516.680876: $GPGSV,3,1,12,22,12,207,28,23,64,292,38,09,31,312,41,03,22,225,35*7B
2017-12-31 18:38:36 1514763516.681050: $GPGSV,3,2,12,16,83,042,42,08,11,177,00,14,04,138,17,31,20,084,38*74
2017-12-31 18:38:36 1514763516.681171: $GPGSV,3,3,12,27,34,147,39,07,06,280,43,26,50,046,46,135,22,240,44*4C
2017-12-31 18:38:36 1514763516.794224: $GPZDA,233837.00,31,12,2017,00,00*6D
2017-12-31 18:38:36 1514763516.794344: $GPGGA,233837,3946.9582,N,08404.9837,W,2,11,0.80,308.19,M,-33.324,M,,*7D
2017-12-31 18:38:36 1514763516.794408: $GPRMC,233837,A,3946.9582,N,08404.9837,W,0.0000,0.000,311217,,*35
2017-12-31 18:38:36 1514763516.794467: $GPGSA,A,3,22,23,9,3,16,14,31,27,7,26,135,,1.7,0.8,1.3*34
2017-12-31 18:38:37 1514763517.357680: $GPZDA,233838.00,31,12,2017,00,00*62
2017-12-31 18:38:37 1514763517.360297: $GPGGA,233838,3946.9582,N,08404.9837,W,2,11,0.80,308.19,M,-33.324,M,,*72
2017-12-31 18:38:37 1514763517.360397: $GPRMC,233838,A,3946.9582,N,08404.9837,W,0.0000,0.000,311217,,*3A
2017-12-31 18:38:37 1514763517.360459: $GPGSA,A,3,22,23,9,3,16,14,31,27,7,26,135,,1.7,0.8,1.3*34
2017-12-31 18:38:38 1514763518.388598: $GPZDA,233839.00,31,12,2017,00,00*63
2017-12-31 18:38:38 1514763518.388773: $GPGGA,233839,3946.9582,N,08404.9837,W,2,11,0.80,308.19,M,-33.324,M,,*73
2017-12-31 18:38:38 1514763518.388842: $GPRMC,233839,A,3946.9582,N,08404.9837,W,0.0000,0.000,311217,,*3B
2017-12-31 18:38:38 1514763518.388903: $GPGSA,A,3,22,23,9,3,16,14,31,27,7,26,135,,1.7,0.8,1.3*34
