2017-11-16 15:24:22 1510863862.736785: {"class":"VERSION","release":"3.17","rev":"3.17","proto_major":3,"proto_minor":12}
2017-11-16 15:24:22 1510863862.737237: {"class":"DEVICES","devices":[{"class":"DEVICE","path":"/dev/ttyUSB0","driver":"SiRF","subtype":"9\u0006GSD4e_4.1.2-P1_RPATCH.05-F-GPS-4R-1510281 11/03/2015 307","activated":"2017-11-16T20:24:22.704Z","flags":1,"native":1,"bps":4800,"parity":"N","stopbits":1,"cycle":1.00}]}
2017-11-16 15:24:22 1510863862.737359: {"class":"WATCH","enable":true,"json":false,"nmea":true,"raw":0,"scaled":false,"timing":false,"split24":false,"pps":false}
2017-11-16 15:24:22 1510863862.818105: $GPZDA,202421.00,16,11,2017,00,00*62
2017-11-16 15:24:22 1510863862.818263: $GPGGA,202421,3946.9572,N,08404.9859,W,2,12,0.80,308.84,M,-33.324,M,,*74
2017-11-16 15:24:22 1510863862.818324: $GPRMC,202421,A,3946.9572,N,08404.9859,W,0.0000,0.000,161117,,*3D
2017-11-16 15:24:22 1510863862.818380: $GPGSA,A,3,8,10,14,15,18,20,21,24,27,32,12,138,1.6,0.8,1.3*34
2017-11-16 15:24:23 1510863863.368869: $GPZDA,202422.00,16,11,2017,00,00*61
2017-11-16 15:24:23 1510863863.369044: $GPGGA,202422,3946.9572,N,08404.9859,W,2,12,0.80,308.84,M,-33.324,M,,*77
2017-11-16 15:24:23 1510863863.369105: $GPRMC,202422,A,3946.9572,N,08404.9859,W,0.0000,0.000,161117,,*3E
2017-11-16 15:24:23 1510863863.369162: $GPGSA,A,3,8,10,14,15,18,20,21,24,27,32,12,138,1.6,0.8,1.3*34
2017-11-16 15:24:24 1510863864.369812: $GPZDA,202423.00,16,11,2017,00,00*60
2017-11-16 15:24:24 1510863864.369971: $GPGGA,202423,3946.9572,N,08404.9859,W,2,12,0.80,308.84,M,-33.324,M,,*76
2017-11-16 15:24:24 1510863864.370033: $GPRMC,202423,A,3946.9572,N,08404.9859,W,0.0000,0.000,161117,,*3F
2017-11-16 15:24:24 1510863864.370089: $GPGSA,A,3,8,10,14,15,18,20,21,24,27,32,12,138,1.6,0.8,1.3*34
2017-11-16 15:24:25 1510863865.706932: $GPGSV,3,1,12,08,06,294,38,10,68,330,51,14,28,252,46,15,12,066,28*7C
2017-11-16 15:24:25 1510863865.707104: $GPGSV,3,2,12,18,71,090,47,20,09,117,27,21,30,180,43,24,46,060,51*7F
2017-11-16 15:24:25 1510863865.707164: $GPGSV,3,3,12,27,07,261,32,32,45,264,47,12,08,108,29,138,38,213,45*46
2017-11-16 15:24:25 1510863865.820164: $GPZDA,202424.00,16,11,2017,00,00*67
2017-11-16 15:24:25 1510863865.820390: $GPGGA,202424,3946.9572,N,08404.9859,W,2,12,0.80,308.84,M,-33.324,M,,*71
2017-11-16 15:24:25 1510863865.820460: $GPRMC,202424,A,3946.9572,N,08404.9859,W,0.0000,0.000,161117,,*38
2017-11-16 15:24:25 1510863865.820516: $GPGSA,A,3,8,10,14,15,18,20,21,24,27,32,12,138,1.6,0.8,1.3*34
2017-11-16 15:24:26 1510863866.445545: $GPZDA,202425.00,16,11,2017,00,00*66
2017-11-16 15:24:26 1510863866.445699: $GPGGA,202425,3946.9572,N,08404.9859,W,2,12,0.80,308.84,M,-33.324,M,,*70
2017-11-16 15:24:26 1510863866.445760: $GPRMC,202425,A,3946.9572,N,08404.9859,W,0.0000,0.000,161117,,*39
2017-11-16 15:24:26 1510863866.445815: $GPGSA,A,3,8,10,14,15,18,20,21,24,27,32,12,138,1.6,0.8,1.3*34
2017-11-16 15:24:27 1510863867.368881: $GPZDA,202426.00,16,11,2017,00,00*65
2017-11-16 15:24:27 1510863867.369041: $GPGGA,202426,3946.9572,N,08404.9859,W,2,12,0.80,308.84,M,-33.324,M,,*73
2017-11-16 15:24:27 1510863867.369102: $GPRMC,202426,A,3946.9572,N,08404.9859,W,0.0000,0.000,161117,,*3A
2017-11-16 15:24:27 1510863867.369158: $GPGSA,A,3,8,10,14,15,18,20,21,24,27,32,12,138,1.6,0.8,1.3*34
2017-11-16 15:24:28 1510863868.699721: $GPGSV,3,1,12,08,06,294,37,10,68,330,51,14,28,252,46,15,12,066,29*72
2017-11-16 15:24:28 1510863868.699895: $GPGSV,3,2,12,18,71,090,47,20,09,117,28,21,30,180,43,24,46,060,51*70
2017-11-16 15:24:28 1510863868.699956: $GPGSV,3,3,12,27,07,261,28,32,45,264,47,12,08,108,29,138,38,213,44*4C
2017-11-16 15:24:28 1510863868.813070: $GPZDA,202427.00,16,11,2017,00,00*64
2017-11-16 15:24:28 1510863868.813231: $GPGGA,202427,3946.9572,N,08404.9859,W,2,12,0.80,308.84,M,-33.324,M,,*72
2017-11-16 15:24:28 1510863868.813313: $GPRMC,202427,A,3946.9572,N,08404.9859,W,0.0000,0.000,161117,,*3B
2017-11-16 15:24:28 1510863868.813370: $GPGSA,A,3,8,10,14,15,18,20,21,24,27,32,12,138,1.6,0.8,1.3*34
2017-11-16 15:24:29 1510863869.370160: $GPZDA,202428.00,16,11,2017,00,00*6B
2017-11-16 15:24:29 1510863869.370422: $GPGGA,202428,3946.9572,N,08404.9859,W,2,12,0.80,308.84,M,-33.324,M,,*7D
2017-11-16 15:24:29 1510863869.370494: $GPRMC,202428,A,3946.9572,N,08404.9859,W,0.0000,0.000,161117,,*34
2017-11-16 15:24:29 1510863869.370551: $GPGSA,A,3,8,10,14,15,18,20,21,24,27,32,12,138,1.6,0.8,1.3*34
2017-11-16 15:24:30 1510863870.368755: $GPZDA,202429.00,16,11,2017,00,00*6A
2017-11-16 15:24:30 1510863870.368918: $GPGGA,202429,3946.9572,N,08404.9859,W,2,12,0.80,308.84,M,-33.324,M,,*7C
2017-11-16 15:24:30 1510863870.368994: $GPRMC,202429,A,3946.9572,N,08404.9859,W,0.0000,0.000,161117,,*35
2017-11-16 15:24:30 1510863870.369069: $GPGSA,A,3,8,10,14,15,18,20,21,24,27,32,12,138,1.6,0.8,1.3*34
2017-11-16 15:24:31 1510863871.706342: $GPGSV,3,1,12,08,06,294,36,10,68,330,51,14,28,252,46,15,12,066,30*7B
2017-11-16 15:24:31 1510863871.706512: $GPGSV,3,2,12,18,71,090,47,20,09,117,28,21,30,180,42,24,46,060,51*71
2017-11-16 15:24:31 1510863871.706573: $GPGSV,3,3,12,27,07,261,29,32,45,264,47,12,08,108,29,138,38,213,44*4D
2017-11-16 15:24:31 1510863871.819914: $GPZDA,202430.00,16,11,2017,00,00*62
2017-11-16 15:24:31 1510863871.820070: $GPGGA,202430,3946.9572,N,08404.9859,W,2,12,0.80,308.84,M,-33.324,M,,*74
2017-11-16 15:24:31 1510863871.820154: $GPRMC,202430,A,3946.9572,N,08404.9859,W,0.0000,0.000,161117,,*3D
2017-11-16 15:24:31 1510863871.820211: $GPGSA,A,3,8,10,14,15,18,20,21,24,27,32,12,138,1.6,0.8,1.3*34
2017-11-16 15:24:32 1510863872.370923: $GPZDA,202431.00,16,11,2017,00,00*63
2017-11-16 15:24:32 1510863872.371082: $GPGGA,202431,3946.9572,N,08404.9866,W,2,12,0.80,308.76,M,-33.324,M,,*74
2017-11-16 15:24:32 1510863872.371165: $GPRMC,202431,A,3946.9572,N,08404.9866,W,0.0000,0.000,161117,,*30
2017-11-16 15:24:32 1510863872.371222: $GPGSA,A,3,8,10,14,15,18,20,21,24,27,32,12,138,1.6,0.8,1.3*34
