2017-12-01 11:36:21 1512146181.726752: {"class":"VERSION","release":"3.16","rev":"3.16-4","proto_major":3,"proto_minor":11}
2017-12-01 11:36:21 1512146181.727142: {"class":"DEVICES","devices":[{"class":"DEVICE","path":"/dev/ttyUSB0","driver":"SiRF","subtype":"9\u0006GSD4e_4.1.2-P1_RPATCH.05-F-GPS-4R-1510281 11/03/2015 307","activated":"2017-12-01T16:36:21.650Z","flags":1,"native":1,"bps":4800,"parity":"N","stopbits":1,"cycle":1.00}]}
2017-12-01 11:36:21 1512146181.727261: {"class":"WATCH","enable":true,"json":false,"nmea":true,"raw":0,"scaled":false,"timing":false,"split24":false,"pps":false}
2017-12-01 11:36:21 1512146181.763444: $GPZDA,163622.45,01,12,2017,00,00*63
2017-12-01 11:36:21 1512146181.763584: $GPGGA,163622,3946.9503,N,08404.9816,W,1,11,0.80,322.59,M,-33.324,M,,*74
2017-12-01 11:36:21 1512146181.763649: $GPRMC,163622,A,3946.9503,N,08404.9816,W,0.3006,62.539,011217,,*0E
2017-12-01 11:36:21 1512146181.763710: $GPGSA,A,3,5,13,15,18,20,21,24,27,29,10,138,,2.0,0.8,1.5*34
2017-12-01 11:36:22 1512146182.707410: $GPZDA,163623.13,01,12,2017,00,00*61
2017-12-01 11:36:22 1512146182.707585: $GPGGA,163623,3946.9524,N,08404.9826,W,1,11,0.80,317.85,M,-33.324,M,,*74
2017-12-01 11:36:22 1512146182.707652: $GPRMC,163623,A,3946.9524,N,08404.9826,W,0.3423,184.197,011217,,*33
2017-12-01 11:36:22 1512146182.707714: $GPGSA,A,3,5,13,15,18,20,21,24,27,29,10,138,,2.0,0.8,1.5*34
2017-12-01 11:36:23 1512146183.902550: $GPGSV,3,1,12,05,16,075,35,10,11,270,35,13,46,052,47,15,77,084,48*7C
2017-12-01 11:36:23 1512146183.902734: $GPGSV,3,2,12,18,41,282,45,20,64,045,42,21,64,307,47,24,18,150,44*74
2017-12-01 11:36:23 1512146183.902800: $GPGSV,3,3,12,27,07,325,34,29,27,196,46,04,15,129,00,138,38,213,11*42
2017-12-01 11:36:24 1512146184.015994: $GPZDA,163624.00,01,12,2017,00,00*64
2017-12-01 11:36:24 1512146184.016192: $GPGGA,163624,3946.9534,N,08404.9824,W,1,11,0.80,315.56,M,-33.324,M,,*7C
2017-12-01 11:36:24 1512146184.016280: $GPRMC,163624,A,3946.9534,N,08404.9824,W,0.2422,93.794,011217,,*05
2017-12-01 11:36:24 1512146184.016367: $GPGSA,A,3,5,10,13,15,18,20,21,24,27,29,138,,2.0,0.8,1.5*34
2017-12-01 11:36:24 1512146184.468375: $GPZDA,163625.00,01,12,2017,00,00*65
2017-12-01 11:36:24 1512146184.468559: $GPGGA,163625,3946.9565,N,08404.9837,W,1,11,0.80,305.63,M,-33.324,M,,*7C
2017-12-01 11:36:24 1512146184.468626: $GPRMC,163625,A,3946.9565,N,08404.9837,W,0.0000,0.000,011217,,*34
2017-12-01 11:36:24 1512146184.468688: $GPGSA,A,3,5,10,13,15,18,20,21,24,27,29,138,,2.0,0.8,1.5*34
2017-12-01 11:36:25 1512146185.351814: $GPZDA,163626.00,01,12,2017,00,00*66
2017-12-01 11:36:25 1512146185.351990: $GPGGA,163626,3946.9565,N,08404.9837,W,1,11,0.80,305.63,M,-33.324,M,,*7F
2017-12-01 11:36:25 1512146185.352074: $GPRMC,163626,A,3946.9565,N,08404.9837,W,0.0000,0.000,011217,,*37
2017-12-01 11:36:25 1512146185.352138: $GPGSA,A,3,5,10,13,15,18,20,21,24,27,29,138,,2.0,0.8,1.5*34
2017-12-01 11:36:26 1512146186.689162: $GPGSV,3,1,12,05,16,075,34,10,11,270,36,13,46,052,46,15,77,084,48*7F
2017-12-01 11:36:26 1512146186.689724: $GPGSV,3,2,12,18,41,282,45,20,64,045,42,21,64,307,46,24,18,150,44*75
2017-12-01 11:36:26 1512146186.693301: $GPGSV,3,3,12,27,07,325,34,29,27,196,46,04,15,129,00,138,38,213,46*40
2017-12-01 11:36:26 1512146186.802694: $GPZDA,163627.00,01,12,2017,00,00*67
2017-12-01 11:36:26 1512146186.802904: $GPGGA,163627,3946.9575,N,08404.9841,W,1,11,0.80,301.85,M,-33.324,M,,*72
2017-12-01 11:36:26 1512146186.802972: $GPRMC,163627,A,3946.9575,N,08404.9841,W,0.2422,93.794,011217,,*00
2017-12-01 11:36:26 1512146186.803033: $GPGSA,A,3,5,10,13,15,18,20,21,24,27,29,138,,2.0,0.8,1.5*34
2017-12-01 11:36:27 1512146187.350877: $GPZDA,163628.00,01,12,2017,00,00*68
2017-12-01 11:36:27 1512146187.351055: $GPGGA,163628,3946.9575,N,08404.9841,W,1,11,0.80,301.85,M,-33.324,M,,*7D
2017-12-01 11:36:27 1512146187.351123: $GPRMC,163628,A,3946.9575,N,08404.9841,W,0.0000,0.000,011217,,*39
2017-12-01 11:36:27 1512146187.351184: $GPGSA,A,3,5,10,13,15,18,20,21,24,27,29,138,,2.0,0.8,1.5*34
2017-12-01 11:36:28 1512146188.353381: $GPZDA,163629.00,01,12,2017,00,00*69
2017-12-01 11:36:28 1512146188.353631: $GPGGA,163629,3946.9572,N,08404.9841,W,2,11,1.00,302.62,M,-33.324,M,,*7B
2017-12-01 11:36:28 1512146188.353705: $GPRMC,163629,A,3946.9572,N,08404.9841,W,0.0000,0.000,011217,,*3F
2017-12-01 11:36:28 1512146188.353767: $GPGSA,A,3,5,10,13,15,18,20,21,24,27,29,138,,2.0,1.0,1.5*3D
2017-12-01 11:36:28 1512146188.353826: $GPGBS,163629,2.67,M,3.86,M,8.82,M*3B
2017-12-01 11:36:29 1512146189.689912: $GPGSV,3,1,12,05,16,075,34,10,11,270,36,13,46,052,46,15,77,084,48*7F
2017-12-01 11:36:29 1512146189.690102: $GPGSV,3,2,12,18,41,282,45,20,64,045,42,21,64,307,46,24,18,150,43*72
2017-12-01 11:36:29 1512146189.690172: $GPGSV,3,3,12,27,07,325,34,29,27,196,46,04,15,129,00,138,38,213,47*41
2017-12-01 11:36:29 1512146189.803288: $GPZDA,163630.00,01,12,2017,00,00*61
2017-12-01 11:36:29 1512146189.803460: $GPGGA,163630,3946.9572,N,08404.9841,W,2,11,0.80,302.62,M,-33.324,M,,*7A
2017-12-01 11:36:29 1512146189.803525: $GPRMC,163630,A,3946.9572,N,08404.9841,W,0.0000,0.000,011217,,*37
2017-12-01 11:36:29 1512146189.803585: $GPGSA,A,3,5,10,13,15,18,20,21,24,27,29,138,,2.0,0.8,1.5*34
2017-12-01 11:36:30 1512146190.351704: $GPZDA,163631.00,01,12,2017,00,00*60
2017-12-01 11:36:30 1512146190.351880: $GPGGA,163631,3946.9572,N,08404.9841,W,2,11,0.80,302.62,M,-33.324,M,,*7B
2017-12-01 11:36:30 1512146190.351947: $GPRMC,163631,A,3946.9572,N,08404.9841,W,0.0000,0.000,011217,,*36
2017-12-01 11:36:30 1512146190.352008: $GPGSA,A,3,5,10,13,15,18,20,21,24,27,29,138,,2.0,0.8,1.5*34
2017-12-01 11:36:31 1512146191.353258: $GPZDA,163632.00,01,12,2017,00,00*63
2017-12-01 11:36:31 1512146191.353432: $GPGGA,163632,3946.9571,N,08404.9834,W,2,11,0.80,302.70,M,-33.324,M,,*7A
2017-12-01 11:36:31 1512146191.353498: $GPRMC,163632,A,3946.9571,N,08404.9834,W,0.0000,0.000,011217,,*34
2017-12-01 11:36:31 1512146191.353559: $GPGSA,A,3,5,10,13,15,18,20,21,24,27,29,138,,2.0,0.8,1.5*34
