2017-11-16 15:50:54 1510865454.226549: {"class":"VERSION","release":"3.17","rev":"3.17","proto_major":3,"proto_minor":12}
2017-11-16 15:50:54 1510865454.227011: {"class":"DEVICES","devices":[{"class":"DEVICE","path":"/dev/ttyUSB0","driver":"SiRF","subtype":"9\u0006GSD4e_4.1.2-P1_RPATCH.05-F-GPS-4R-1510281 11/03/2015 307","activated":"2017-11-16T20:50:54.193Z","flags":1,"native":1,"bps":4800,"parity":"N","stopbits":1,"cycle":1.00}]}
2017-11-16 15:50:54 1510865454.227128: {"class":"WATCH","enable":true,"json":false,"nmea":true,"raw":0,"scaled":false,"timing":false,"split24":false,"pps":false}
2017-11-16 15:50:54 1510865454.371642: $GPZDA,205053.00,16,11,2017,00,00*64
2017-11-16 15:50:54 1510865454.371796: $GPGGA,205053,3946.9575,N,08404.9851,W,2,12,1.20,308.16,M,-33.324,M,,*7D
2017-11-16 15:50:54 1510865454.371856: $GPRMC,205053,A,3946.9575,N,08404.9851,W,0.0000,0.000,161117,,*34
2017-11-16 15:50:54 1510865454.371911: $GPGSA,A,3,11,10,14,8,18,25,21,24,31,32,12,138,1.6,1.2,1.3*39
2017-11-16 15:50:55 1510865455.703708: $GPGSV,3,1,12,11,03,322,29,10,79,355,50,14,37,264,46,08,02,283,31*78
2017-11-16 15:50:55 1510865455.703895: $GPGSV,3,2,12,18,62,112,48,25,11,135,15,21,18,177,39,24,36,051,50*7F
2017-11-16 15:50:55 1510865455.703955: $GPGSV,3,3,12,31,09,204,31,32,54,279,47,12,16,097,42,138,38,213,44*47
2017-11-16 15:50:55 1510865455.816952: $GPZDA,205054.00,16,11,2017,00,00*63
2017-11-16 15:50:55 1510865455.817132: $GPGGA,205054,3946.9575,N,08404.9851,W,2,12,1.20,308.16,M,-33.324,M,,*7A
2017-11-16 15:50:55 1510865455.817192: $GPRMC,205054,A,3946.9575,N,08404.9851,W,0.0000,0.000,161117,,*33
2017-11-16 15:50:55 1510865455.817250: $GPGSA,A,3,11,10,14,8,18,25,21,24,31,32,12,138,1.6,1.2,1.3*39
2017-11-16 15:50:56 1510865456.443688: $GPZDA,205055.00,16,11,2017,00,00*62
2017-11-16 15:50:56 1510865456.443855: $GPGGA,205055,3946.9575,N,08404.9851,W,2,12,1.20,308.16,M,-33.324,M,,*7B
2017-11-16 15:50:56 1510865456.443917: $GPRMC,205055,A,3946.9575,N,08404.9851,W,0.0000,0.000,161117,,*32
2017-11-16 15:50:56 1510865456.443974: $GPGSA,A,3,11,10,14,8,18,25,21,24,31,32,12,138,1.6,1.2,1.3*39
2017-11-16 15:50:57 1510865457.371087: $GPZDA,205056.00,16,11,2017,00,00*61
2017-11-16 15:50:57 1510865457.371248: $GPGGA,205056,3946.9575,N,08404.9851,W,2,12,1.20,308.16,M,-33.324,M,,*78
2017-11-16 15:50:57 1510865457.371310: $GPRMC,205056,A,3946.9575,N,08404.9851,W,0.0000,0.000,161117,,*31
2017-11-16 15:50:57 1510865457.371383: $GPGSA,A,3,11,10,14,8,18,25,21,24,31,32,12,138,1.6,1.2,1.3*39
2017-11-16 15:50:58 1510865458.696537: $GPGSV,3,1,12,11,03,322,30,10,79,355,50,14,37,264,46,08,02,283,31*70
2017-11-16 15:50:58 1510865458.696703: $GPGSV,3,2,12,18,62,112,48,25,11,135,04,21,18,177,39,24,36,051,50*7F
2017-11-16 15:50:58 1510865458.696763: $GPGSV,3,3,12,31,09,204,31,32,54,279,47,12,16,097,42,138,38,213,44*47
2017-11-16 15:50:58 1510865458.809819: $GPZDA,205057.00,16,11,2017,00,00*60
2017-11-16 15:50:58 1510865458.809968: $GPGGA,205057,3946.9575,N,08404.9851,W,2,11,1.20,308.16,M,-33.324,M,,*7A
2017-11-16 15:50:58 1510865458.810028: $GPRMC,205057,A,3946.9575,N,08404.9851,W,0.0000,0.000,161117,,*30
2017-11-16 15:50:58 1510865458.810083: $GPGSA,A,3,11,10,14,8,18,21,24,31,32,12,138,,1.6,1.2,1.3*3E
2017-11-16 15:50:59 1510865459.367003: $GPZDA,205058.00,16,11,2017,00,00*6F
2017-11-16 15:50:59 1510865459.367169: $GPGGA,205058,3946.9575,N,08404.9851,W,2,11,1.20,308.16,M,-33.324,M,,*75
2017-11-16 15:50:59 1510865459.367232: $GPRMC,205058,A,3946.9575,N,08404.9851,W,0.0000,0.000,161117,,*3F
2017-11-16 15:50:59 1510865459.367288: $GPGSA,A,3,11,10,14,8,18,21,24,31,32,12,138,,1.6,1.2,1.3*3E
2017-11-16 15:51:00 1510865460.387876: $GPZDA,205059.00,16,11,2017,00,00*6E
2017-11-16 15:51:00 1510865460.388041: $GPGGA,205059,3946.9575,N,08404.9851,W,2,11,1.20,308.16,M,-33.324,M,,*74
2017-11-16 15:51:00 1510865460.388102: $GPRMC,205059,A,3946.9575,N,08404.9851,W,0.0000,0.000,161117,,*3E
2017-11-16 15:51:00 1510865460.388158: $GPGSA,A,3,11,10,14,8,18,21,24,31,32,12,138,,1.6,1.2,1.3*3E
2017-11-16 15:51:01 1510865461.705752: $GPGSV,3,1,12,11,03,322,31,10,79,355,51,14,37,264,46,08,02,283,31*70
2017-11-16 15:51:01 1510865461.705988: $GPGSV,3,2,12,18,62,112,48,25,11,135,18,21,18,177,39,24,36,051,50*72
2017-11-16 15:51:01 1510865461.706052: $GPGSV,3,3,12,31,09,204,32,32,54,279,47,12,16,097,42,138,38,213,45*45
2017-11-16 15:51:01 1510865461.819065: $GPZDA,205100.00,16,11,2017,00,00*63
2017-11-16 15:51:01 1510865461.819221: $GPGGA,205100,3946.9575,N,08404.9851,W,2,12,1.20,308.16,M,-33.324,M,,*7A
2017-11-16 15:51:01 1510865461.819281: $GPRMC,205100,A,3946.9575,N,08404.9851,W,0.0000,0.000,161117,,*33
2017-11-16 15:51:01 1510865461.819337: $GPGSA,A,3,11,10,14,8,18,25,21,24,31,32,12,138,1.6,1.2,1.3*39
2017-11-16 15:51:02 1510865462.383707: $GPZDA,205101.00,16,11,2017,00,00*62
2017-11-16 15:51:02 1510865462.383869: $GPGGA,205101,3946.9575,N,08404.9851,W,2,12,1.20,308.16,M,-33.324,M,,*7B
2017-11-16 15:51:02 1510865462.383930: $GPRMC,205101,A,3946.9575,N,08404.9851,W,0.0000,0.000,161117,,*32
2017-11-16 15:51:02 1510865462.383987: $GPGSA,A,3,11,10,14,8,18,25,21,24,31,32,12,138,1.6,1.2,1.3*39
2017-11-16 15:51:03 1510865463.366986: $GPZDA,205102.00,16,11,2017,00,00*61
2017-11-16 15:51:03 1510865463.367173: $GPGGA,205102,3946.9575,N,08404.9851,W,2,12,1.20,308.16,M,-33.324,M,,*78
2017-11-16 15:51:03 1510865463.367236: $GPRMC,205102,A,3946.9575,N,08404.9851,W,0.0000,0.000,161117,,*31
2017-11-16 15:51:03 1510865463.367310: $GPGSA,A,3,11,10,14,8,18,25,21,24,31,32,12,138,1.6,1.2,1.3*39
