2017-11-16 17:15:37 1510870537.811351: {"class":"VERSION","release":"3.17","rev":"3.17","proto_major":3,"proto_minor":12}
2017-11-16 17:15:37 1510870537.811794: {"class":"DEVICES","devices":[{"class":"DEVICE","path":"/dev/ttyUSB0","driver":"SiRF","subtype":"9\u0006GSD4e_4.1.2-P1_RPATCH.05-F-GPS-4R-1510281 11/03/2015 307","activated":"2017-11-16T22:15:37.542Z","flags":1,"native":1,"bps":4800,"parity":"N","stopbits":1,"cycle":1.00}]}
2017-11-16 17:15:37 1510870537.811920: {"class":"WATCH","enable":true,"json":false,"nmea":true,"raw":0,"scaled":false,"timing":false,"split24":false,"pps":false}
2017-11-16 17:15:38 1510870538.411204: $GPZDA,221537.00,16,11,2017,00,00*65
2017-11-16 17:15:38 1510870538.411376: $GPGGA,221537,3946.9568,N,08404.9826,W,2,12,0.80,312.81,M,-33.324,M,,*7E
2017-11-16 17:15:38 1510870538.411441: $GPRMC,221537,A,3946.9568,N,08404.9826,W,0.0000,0.000,161117,,*39
2017-11-16 17:15:38 1510870538.411501: $GPGSA,A,3,1,10,22,12,14,18,24,11,25,31,32,138,1.6,0.8,1.3*38
2017-11-16 17:15:39 1510870539.731019: $GPGSV,3,1,12,01,20,307,41,10,56,144,48,22,13,312,40,12,24,057,48*78
2017-11-16 17:15:39 1510870539.731189: $GPGSV,3,2,12,14,63,313,48,18,25,141,43,24,03,048,28,11,10,288,34*7C
2017-11-16 17:15:39 1510870539.731249: $GPGSV,3,3,12,25,37,100,46,31,48,219,49,32,70,006,48,138,38,213,44*4E
2017-11-16 17:15:39 1510870539.844411: $GPZDA,221538.00,16,11,2017,00,00*6A
2017-11-16 17:15:39 1510870539.844595: $GPGGA,221538,3946.9568,N,08404.9826,W,2,11,0.80,312.81,M,-33.324,M,,*72
2017-11-16 17:15:39 1510870539.844659: $GPRMC,221538,A,3946.9568,N,08404.9826,W,0.0000,0.000,161117,,*36
2017-11-16 17:15:39 1510870539.844721: $GPGSA,A,3,1,10,22,12,14,18,11,25,31,32,138,,1.6,0.8,1.3*3E
2017-11-16 17:15:40 1510870540.395235: $GPZDA,221539.00,16,11,2017,00,00*6B
2017-11-16 17:15:40 1510870540.395449: $GPGGA,221539,3946.9568,N,08404.9826,W,2,11,0.80,312.81,M,-33.324,M,,*73
2017-11-16 17:15:40 1510870540.395514: $GPRMC,221539,A,3946.9568,N,08404.9826,W,0.0000,0.000,161117,,*37
2017-11-16 17:15:40 1510870540.395571: $GPGSA,A,3,1,10,22,12,14,18,11,25,31,32,138,,1.6,0.8,1.3*3E
2017-11-16 17:15:41 1510870541.419198: $GPZDA,221540.00,16,11,2017,00,00*65
2017-11-16 17:15:41 1510870541.419363: $GPGGA,221540,3946.9568,N,08404.9826,W,2,11,0.80,312.81,M,-33.324,M,,*7D
2017-11-16 17:15:41 1510870541.419423: $GPRMC,221540,A,3946.9568,N,08404.9826,W,0.0000,0.000,161117,,*39
2017-11-16 17:15:41 1510870541.419481: $GPGSA,A,3,1,10,22,12,14,18,11,25,31,32,138,,1.6,0.8,1.3*3E
2017-11-16 17:15:42 1510870542.737552: $GPGSV,3,1,12,01,20,307,41,10,56,144,47,22,13,312,39,12,24,057,49*78
2017-11-16 17:15:42 1510870542.737726: $GPGSV,3,2,12,14,63,313,48,18,25,141,43,24,03,048,00,11,10,288,35*77
2017-11-16 17:15:42 1510870542.737786: $GPGSV,3,3,12,25,37,100,46,31,48,219,49,32,70,006,48,138,38,213,43*49
2017-11-16 17:15:42 1510870542.850800: $GPZDA,221541.00,16,11,2017,00,00*64
2017-11-16 17:15:42 1510870542.850982: $GPGGA,221541,3946.9568,N,08404.9826,W,2,11,0.80,312.81,M,-33.324,M,,*7C
2017-11-16 17:15:42 1510870542.851042: $GPRMC,221541,A,3946.9568,N,08404.9826,W,0.0000,0.000,161117,,*38
2017-11-16 17:15:42 1510870542.851100: $GPGSA,A,3,1,10,22,12,14,18,11,25,31,32,138,,1.6,0.8,1.3*3E
2017-11-16 17:15:43 1510870543.400537: $GPZDA,221542.00,16,11,2017,00,00*67
2017-11-16 17:15:43 1510870543.400709: $GPGGA,221542,3946.9568,N,08404.9826,W,2,11,0.80,312.81,M,-33.324,M,,*7F
2017-11-16 17:15:43 1510870543.400789: $GPRMC,221542,A,3946.9568,N,08404.9826,W,0.0000,0.000,161117,,*3B
2017-11-16 17:15:43 1510870543.400851: $GPGSA,A,3,1,10,22,12,14,18,11,25,31,32,138,,1.6,0.8,1.3*3E
2017-11-16 17:15:44 1510870544.420298: $GPZDA,221543.00,16,11,2017,00,00*66
2017-11-16 17:15:44 1510870544.420467: $GPGGA,221543,3946.9568,N,08404.9826,W,2,11,0.80,312.81,M,-33.324,M,,*7E
2017-11-16 17:15:44 1510870544.420529: $GPRMC,221543,A,3946.9568,N,08404.9826,W,0.0000,0.000,161117,,*3A
2017-11-16 17:15:44 1510870544.420587: $GPGSA,A,3,1,10,22,12,14,18,11,25,31,32,138,,1.6,0.8,1.3*3E
2017-11-16 17:15:45 1510870545.756152: $GPGSV,3,1,12,01,20,307,41,10,56,144,47,22,13,312,38,12,24,057,49*79
2017-11-16 17:15:45 1510870545.756391: $GPGSV,3,2,12,14,63,313,47,18,25,141,43,24,03,048,17,11,10,288,35*7E
2017-11-16 17:15:45 1510870545.756458: $GPGSV,3,3,12,25,37,100,46,31,48,219,48,32,70,006,49,138,38,213,43*49
2017-11-16 17:15:45 1510870545.869377: $GPZDA,221544.00,16,11,2017,00,00*61
2017-11-16 17:15:45 1510870545.869535: $GPGGA,221544,3946.9568,N,08404.9826,W,2,12,0.80,312.81,M,-33.324,M,,*7A
2017-11-16 17:15:45 1510870545.869596: $GPRMC,221544,A,3946.9568,N,08404.9826,W,0.0000,0.000,161117,,*3D
2017-11-16 17:15:45 1510870545.869651: $GPGSA,A,3,1,10,22,12,14,18,24,11,25,31,32,138,1.6,0.8,1.3*38
2017-11-16 17:15:46 1510870546.494728: $GPZDA,221545.00,16,11,2017,00,00*60
2017-11-16 17:15:46 1510870546.494910: $GPGGA,221545,3946.9568,N,08404.9826,W,2,12,0.80,312.81,M,-33.324,M,,*7B
2017-11-16 17:15:46 1510870546.494989: $GPRMC,221545,A,3946.9568,N,08404.9826,W,0.0000,0.000,161117,,*3C
2017-11-16 17:15:46 1510870546.495171: $GPGSA,A,3,1,10,22,12,14,18,24,11,25,31,32,138,1.6,0.8,1.3*38
2017-11-16 17:15:47 1510870547.419337: $GPZDA,221546.00,16,11,2017,00,00*63
2017-11-16 17:15:47 1510870547.419499: $GPGGA,221546,3946.9568,N,08404.9826,W,2,12,0.80,312.81,M,-33.324,M,,*78
2017-11-16 17:15:47 1510870547.419560: $GPRMC,221546,A,3946.9568,N,08404.9826,W,0.0000,0.000,161117,,*3F
2017-11-16 17:15:47 1510870547.419615: $GPGSA,A,3,1,10,22,12,14,18,24,11,25,31,32,138,1.6,0.8,1.3*38
