2017-12-31 17:09:49 1514758189.096684: {"class":"VERSION","release":"3.16","rev":"3.16-4","proto_major":3,"proto_minor":11}
2017-12-31 17:09:49 1514758189.097080: {"class":"DEVICES","devices":[{"class":"DEVICE","path":"/dev/ttyUSB0","driver":"SiRF","activated":"2017-12-31T22:09:48.950Z","flags":1,"native":1,"bps":4800,"parity":"N","stopbits":1,"cycle":1.00}]}
2017-12-31 17:09:49 1514758189.097247: {"class":"WATCH","enable":true,"json":false,"nmea":true,"raw":0,"scaled":false,"timing":false,"split24":false,"pps":false}
2017-12-31 17:09:49 1514758189.345608: $GPZDA,220950.00,31,12,2017,00,00*6F
2017-12-31 17:09:49 1514758189.345786: $GPGGA,220950,3946.9583,N,08404.9854,W,2,10,0.80,301.57,M,-33.324,M,,*79
2017-12-31 17:09:49 1514758189.345874: $GPRMC,220950,A,3946.9583,N,08404.9854,W,0.0000,0.000,311217,,*33
2017-12-31 17:09:49 1514758189.345937: $GPGSA,A,3,22,23,3,16,29,31,14,32,26,135,,,1.7,0.8,1.3*35
2017-12-31 17:09:50 1514758190.337294: $GPZDA,220951.00,31,12,2017,00,00*6E
2017-12-31 17:09:50 1514758190.337473: $GPGGA,220951,3946.9583,N,08404.9854,W,2,10,0.80,301.57,M,-33.324,M,,*78
2017-12-31 17:09:50 1514758190.337541: $GPRMC,220951,A,3946.9583,N,08404.9854,W,0.0000,0.000,311217,,*32
2017-12-31 17:09:50 1514758190.337602: $GPGSA,A,3,22,23,3,16,29,31,14,32,26,135,,,1.7,0.8,1.3*35
2017-12-31 17:09:51 1514758191.679238: $GPGSV,3,1,10,22,43,237,43,23,29,307,42,03,46,268,39,16,48,190,43*77
2017-12-31 17:09:51 1514758191.679424: $GPGSV,3,2,10,29,14,052,28,31,48,052,51,14,39,115,36,32,17,123,41*7A
2017-12-31 17:09:51 1514758191.679490: $GPGSV,3,3,10,26,75,136,47,135,22,240,43*4F
2017-12-31 17:09:51 1514758191.792596: $GPZDA,220952.00,31,12,2017,00,00*6D
2017-12-31 17:09:51 1514758191.792717: $GPGGA,220952,3946.9583,N,08404.9854,W,2,10,0.80,301.57,M,-33.324,M,,*7B
2017-12-31 17:09:51 1514758191.792782: $GPRMC,220952,A,3946.9583,N,08404.9854,W,0.0000,0.000,311217,,*31
2017-12-31 17:09:51 1514758191.792841: $GPGSA,A,3,22,23,3,16,29,31,14,32,26,135,,,1.7,0.8,1.3*35
2017-12-31 17:09:52 1514758192.343481: $GPZDA,220953.00,31,12,2017,00,00*6C
2017-12-31 17:09:52 1514758192.343650: $GPGGA,220953,3946.9583,N,08404.9854,W,2,10,0.80,301.57,M,-33.324,M,,*7A
2017-12-31 17:09:52 1514758192.343717: $GPRMC,220953,A,3946.9583,N,08404.9854,W,0.0000,0.000,311217,,*30
2017-12-31 17:09:52 1514758192.343777: $GPGSA,A,3,22,23,3,16,29,31,14,32,26,135,,,1.7,0.8,1.3*35
2017-12-31 17:09:53 1514758193.361838: $GPZDA,220954.00,31,12,2017,00,00*6B
2017-12-31 17:09:53 1514758193.362001: $GPGGA,220954,3946.9583,N,08404.9854,W,2,10,0.80,301.57,M,-33.324,M,,*7D
2017-12-31 17:09:53 1514758193.362069: $GPRMC,220954,A,3946.9583,N,08404.9854,W,0.0000,0.000,311217,,*37
2017-12-31 17:09:53 1514758193.362130: $GPGSA,A,3,22,23,3,16,29,31,14,32,26,135,,,1.7,0.8,1.3*35
2017-12-31 17:09:54 1514758194.696310: $GPGSV,3,1,10,22,43,237,44,23,29,307,42,03,46,268,40,16,48,190,44*79
2017-12-31 17:09:54 1514758194.696510: $GPGSV,3,2,10,29,14,052,29,31,48,052,51,14,39,115,36,32,17,123,41*7B
2017-12-31 17:09:54 1514758194.696579: $GPGSV,3,3,10,26,75,136,47,135,22,240,42*4E
2017-12-31 17:09:54 1514758194.809664: $GPZDA,220955.00,31,12,2017,00,00*6A
2017-12-31 17:09:54 1514758194.809825: $GPGGA,220955,3946.9583,N,08404.9854,W,2,10,0.80,301.57,M,-33.324,M,,*7C
2017-12-31 17:09:54 1514758194.809891: $GPRMC,220955,A,3946.9583,N,08404.9854,W,0.0000,0.000,311217,,*36
2017-12-31 17:09:54 1514758194.809951: $GPGSA,A,3,22,23,3,16,29,31,14,32,26,135,,,1.7,0.8,1.3*35
2017-12-31 17:09:55 1514758195.436366: $GPZDA,220956.00,31,12,2017,00,00*69
2017-12-31 17:09:55 1514758195.436542: $GPGGA,220956,3946.9583,N,08404.9854,W,2,10,0.80,301.57,M,-33.324,M,,*7F
2017-12-31 17:09:55 1514758195.436609: $GPRMC,220956,A,3946.9583,N,08404.9854,W,0.0000,0.000,311217,,*35
2017-12-31 17:09:55 1514758195.436670: $GPGSA,A,3,22,23,3,16,29,31,14,32,26,135,,,1.7,0.8,1.3*35
2017-12-31 17:09:56 1514758196.352157: $GPZDA,220957.00,31,12,2017,00,00*68
2017-12-31 17:09:56 1514758196.352333: $GPGGA,220957,3946.9583,N,08404.9854,W,2,10,0.80,301.57,M,-33.324,M,,*7E
2017-12-31 17:09:56 1514758196.352400: $GPRMC,220957,A,3946.9583,N,08404.9854,W,0.0000,0.000,311217,,*34
2017-12-31 17:09:56 1514758196.352516: $GPGSA,A,3,22,23,3,16,29,31,14,32,26,135,,,1.7,0.8,1.3*35
2017-12-31 17:09:57 1514758197.696674: $GPGSV,3,1,10,22,43,237,44,23,29,307,43,03,46,268,39,16,48,190,44*76
2017-12-31 17:09:57 1514758197.696856: $GPGSV,3,2,10,29,14,052,29,31,48,052,51,14,39,115,35,32,17,123,41*78
2017-12-31 17:09:57 1514758197.696920: $GPGSV,3,3,10,26,75,136,47,135,22,240,42*4E
2017-12-31 17:09:57 1514758197.809994: $GPZDA,220958.00,31,12,2017,00,00*67
2017-12-31 17:09:57 1514758197.810128: $GPGGA,220958,3946.9583,N,08404.9854,W,2,10,0.80,301.57,M,-33.324,M,,*71
2017-12-31 17:09:57 1514758197.810193: $GPRMC,220958,A,3946.9583,N,08404.9854,W,0.0000,0.000,311217,,*3B
2017-12-31 17:09:57 1514758197.810253: $GPGSA,A,3,22,23,3,16,29,31,14,32,26,135,,,1.7,0.8,1.3*35
2017-12-31 17:09:58 1514758198.360983: $GPZDA,220959.00,31,12,2017,00,00*66
2017-12-31 17:09:58 1514758198.361161: $GPGGA,220959,3946.9583,N,08404.9854,W,2,10,0.80,301.57,M,-33.324,M,,*70
2017-12-31 17:09:58 1514758198.361228: $GPRMC,220959,A,3946.9583,N,08404.9854,W,0.0000,0.000,311217,,*3A
2017-12-31 17:09:58 1514758198.361288: $GPGSA,A,3,22,23,3,16,29,31,14,32,26,135,,,1.7,0.8,1.3*35
