2017-12-01 16:08:35 1512162515.726762: {"class":"VERSION","release":"3.16","rev":"3.16-4","proto_major":3,"proto_minor":11}
2017-12-01 16:08:35 1512162515.727185: {"class":"DEVICES","devices":[{"class":"DEVICE","path":"/dev/ttyUSB0","driver":"SiRF","subtype":"9\u0006GSD4e_4.1.2-P1_RPATCH.05-F-GPS-4R-1510281 11/03/2015 307","activated":"2017-12-01T21:08:35.388Z","flags":1,"native":1,"bps":4800,"parity":"N","stopbits":1,"cycle":1.00}]}
2017-12-01 16:08:35 1512162515.727314: {"class":"WATCH","enable":true,"json":false,"nmea":true,"raw":0,"scaled":false,"timing":false,"split24":false,"pps":false}
2017-12-01 16:08:35 1512162515.991247: $GPZDA,210836.65,01,12,2017,00,00*6D
2017-12-01 16:08:35 1512162515.991476: $GPGGA,210836,3946.9562,N,08404.9842,W,1,12,1.00,314.18,M,-33.324,M,,*74
2017-12-01 16:08:35 1512162515.991546: $GPRMC,210836,A,3946.9562,N,08404.9842,W,0.2710,280.223,011217,,*37
2017-12-01 16:08:35 1512162515.991609: $GPGSA,A,3,10,11,12,14,18,22,25,31,32,1,24,138,2.0,1.0,1.5*32
2017-12-01 16:08:37 1512162517.072745: $GPZDA,210837.34,01,12,2017,00,00*68
2017-12-01 16:08:37 1512162517.072919: $GPGGA,210837,3946.9566,N,08404.9842,W,1,12,1.00,314.82,M,-33.324,M,,*72
2017-12-01 16:08:37 1512162517.072987: $GPRMC,210837,A,3946.9566,N,08404.9842,W,0.1567,189.200,011217,,*38
2017-12-01 16:08:37 1512162517.073049: $GPGSA,A,3,10,11,12,14,18,22,25,31,32,1,24,138,2.0,1.0,1.5*32
2017-12-01 16:08:37 1512162517.073109: $GPGBS,210837,10.70,M,15.43,M,35.28,M*08
2017-12-01 16:08:38 1512162518.214927: $GPGSV,3,1,11,10,58,142,48,11,10,291,35,12,25,060,45,14,61,309,44*7A
2017-12-01 16:08:38 1512162518.215110: $GPGSV,3,2,11,18,27,141,44,22,11,312,36,25,36,103,47,31,46,217,47*71
2017-12-01 16:08:38 1512162518.215176: $GPGSV,3,3,11,01,19,310,10,24,05,046,03,138,38,213,39*7A
2017-12-01 16:08:38 1512162518.328649: $GPZDA,210838.00,01,12,2017,00,00*60
2017-12-01 16:08:38 1512162518.328802: $GPGGA,210838,3946.9566,N,08404.9835,W,1,09,1.00,314.90,M,-33.324,M,,*74
2017-12-01 16:08:38 1512162518.328867: $GPRMC,210838,A,3946.9566,N,08404.9835,W,0.0000,0.000,011217,,*30
2017-12-01 16:08:38 1512162518.328928: $GPGSA,A,3,10,11,12,14,18,22,25,31,138,,,,2.0,1.0,1.5*04
2017-12-01 16:08:38 1512162518.780841: $GPZDA,210839.00,01,12,2017,00,00*61
2017-12-01 16:08:38 1512162518.781014: $GPGGA,210839,3946.9566,N,08404.9835,W,1,09,0.80,314.90,M,-33.324,M,,*7C
2017-12-01 16:08:38 1512162518.781080: $GPRMC,210839,A,3946.9566,N,08404.9835,W,0.1867,0.000,011217,,*39
2017-12-01 16:08:38 1512162518.781141: $GPGSA,A,3,10,11,12,14,18,22,25,31,138,,,,2.0,0.8,1.5*0D
2017-12-01 16:08:39 1512162519.385157: $GPZDA,210840.00,01,12,2017,00,00*6F
2017-12-01 16:08:39 1512162519.385326: $GPGGA,210840,3946.9570,N,08404.9835,W,1,09,0.80,315.54,M,-33.324,M,,*7C
2017-12-01 16:08:39 1512162519.385394: $GPRMC,210840,A,3946.9570,N,08404.9835,W,0.0000,0.000,011217,,*38
2017-12-01 16:08:39 1512162519.385456: $GPGSA,A,3,10,11,12,14,18,22,25,31,138,,,,2.0,0.8,1.5*0D
2017-12-01 16:08:40 1512162520.721605: $GPGSV,3,1,11,10,58,142,49,11,10,291,34,12,25,060,45,14,61,309,44*7A
2017-12-01 16:08:40 1512162520.721812: $GPGSV,3,2,11,18,27,141,43,22,11,312,35,25,36,103,47,31,46,217,48*7A
2017-12-01 16:08:40 1512162520.721900: $GPGSV,3,3,11,01,19,310,13,24,05,046,27,138,38,213,46*77
2017-12-01 16:08:40 1512162520.834946: $GPZDA,210841.00,01,12,2017,00,00*6E
2017-12-01 16:08:40 1512162520.835110: $GPGGA,210841,3946.9570,N,08404.9835,W,1,11,0.80,315.54,M,-33.324,M,,*74
2017-12-01 16:08:40 1512162520.835177: $GPRMC,210841,A,3946.9570,N,08404.9835,W,0.0000,0.000,011217,,*39
2017-12-01 16:08:40 1512162520.835238: $GPGSA,A,3,10,11,12,14,18,22,25,31,1,24,138,,2.0,0.8,1.5*3A
2017-12-01 16:08:41 1512162521.384604: $GPZDA,210842.00,01,12,2017,00,00*6D
2017-12-01 16:08:41 1512162521.384798: $GPGGA,210842,3946.9570,N,08404.9835,W,1,11,0.80,315.54,M,-33.324,M,,*77
2017-12-01 16:08:41 1512162521.384866: $GPRMC,210842,A,3946.9570,N,08404.9835,W,0.0000,0.000,011217,,*3A
2017-12-01 16:08:41 1512162521.384928: $GPGSA,A,3,10,11,12,14,18,22,25,31,1,24,138,,2.0,0.8,1.5*3A
2017-12-01 16:08:42 1512162522.384056: $GPZDA,210843.00,01,12,2017,00,00*6C
2017-12-01 16:08:42 1512162522.384284: $GPGGA,210843,3946.9573,N,08404.9834,W,1,11,0.80,314.78,M,-33.324,M,,*7B
2017-12-01 16:08:42 1512162522.384354: $GPRMC,210843,A,3946.9573,N,08404.9834,W,0.0000,0.000,011217,,*39
2017-12-01 16:08:42 1512162522.384415: $GPGSA,A,3,10,11,12,14,18,22,25,31,1,24,138,,2.0,0.8,1.5*3A
2017-12-01 16:08:42 1512162522.384473: $GPGBS,210843,10.70,M,15.43,M,35.28,M*0B
2017-12-01 16:08:43 1512162523.720973: $GPGSV,3,1,11,10,58,142,49,11,10,291,34,12,25,060,45,14,61,309,44*7A
2017-12-01 16:08:43 1512162523.721147: $GPGSV,3,2,11,18,27,141,43,22,11,312,34,25,36,103,47,31,46,217,48*7B
2017-12-01 16:08:43 1512162523.721213: $GPGSV,3,3,11,01,19,310,27,24,05,046,27,138,38,213,46*70
2017-12-01 16:08:43 1512162523.834494: $GPZDA,210844.00,01,12,2017,00,00*6B
2017-12-01 16:08:43 1512162523.834703: $GPGGA,210844,3946.9577,N,08404.9827,W,1,11,0.80,315.49,M,-33.324,M,,*79
2017-12-01 16:08:43 1512162523.834773: $GPRMC,210844,A,3946.9577,N,08404.9827,W,0.0000,0.000,011217,,*38
2017-12-01 16:08:43 1512162523.834834: $GPGSA,A,3,10,11,12,14,18,22,25,31,1,24,138,,2.0,0.8,1.5*3A
2017-12-01 16:08:44 1512162524.385274: $GPZDA,210845.00,01,12,2017,00,00*6A
2017-12-01 16:08:44 1512162524.385442: $GPGGA,210845,3946.9577,N,08404.9827,W,1,11,0.80,315.49,M,-33.324,M,,*78
2017-12-01 16:08:44 1512162524.385509: $GPRMC,210845,A,3946.9577,N,08404.9827,W,0.0000,0.000,011217,,*39
2017-12-01 16:08:44 1512162524.385597: $GPGSA,A,3,10,11,12,14,18,22,25,31,1,24,138,,2.0,0.8,1.5*3A
2017-12-01 16:08:45 1512162525.385709: $GPZDA,210846.00,01,12,2017,00,00*69
2017-12-01 16:08:45 1512162525.385879: $GPGGA,210846,3946.9577,N,08404.9827,W,1,11,0.80,315.49,M,-33.324,M,,*7B
2017-12-01 16:08:45 1512162525.385946: $GPRMC,210846,A,3946.9577,N,08404.9827,W,0.0000,0.000,011217,,*3A
2017-12-01 16:08:45 1512162525.386007: $GPGSA,A,3,10,11,12,14,18,22,25,31,1,24,138,,2.0,0.8,1.5*3A
2017-12-01 16:08:46 1512162526.721431: $GPGSV,3,1,11,10,58,142,49,11,10,291,33,12,25,060,46,14,61,309,44*7E
2017-12-01 16:08:46 1512162526.721695: $GPGSV,3,2,11,18,27,141,44,22,11,312,34,25,36,103,48,31,46,217,48*73
2017-12-01 16:08:46 1512162526.721765: $GPGSV,3,3,11,01,19,310,18,24,05,046,27,138,38,213,45*7F
2017-12-01 16:08:46 1512162526.834783: $GPZDA,210847.00,01,12,2017,00,00*68
2017-12-01 16:08:46 1512162526.834962: $GPGGA,210847,3946.9588,N,08404.9819,W,2,11,1.20,316.09,M,-33.324,M,,*78
2017-12-01 16:08:46 1512162526.835032: $GPRMC,210847,A,3946.9588,N,08404.9819,W,0.0000,0.000,011217,,*36
2017-12-01 16:08:46 1512162526.835093: $GPGSA,A,3,10,11,12,14,18,22,25,31,1,24,138,,2.0,1.2,1.5*31
2017-12-01 16:08:47 1512162527.386958: $GPZDA,210848.00,01,12,2017,00,00*67
2017-12-01 16:08:47 1512162527.387133: $GPGGA,210848,3946.9588,N,08404.9819,W,2,11,0.80,316.09,M,-33.324,M,,*7C
2017-12-01 16:08:47 1512162527.387201: $GPRMC,210848,A,3946.9588,N,08404.9819,W,0.0000,0.000,011217,,*39
2017-12-01 16:08:47 1512162527.387262: $GPGSA,A,3,10,11,12,14,18,22,25,31,1,24,138,,2.0,0.8,1.5*3A
2017-12-01 16:08:48 1512162528.387782: $GPZDA,210849.00,01,12,2017,00,00*66
2017-12-01 16:08:48 1512162528.387957: $GPGGA,210849,3946.9588,N,08404.9819,W,2,11,0.80,316.09,M,-33.324,M,,*7D
2017-12-01 16:08:48 1512162528.388025: $GPRMC,210849,A,3946.9588,N,08404.9819,W,0.0000,0.000,011217,,*38
2017-12-01 16:08:48 1512162528.388086: $GPGSA,A,3,10,11,12,14,18,22,25,31,1,24,138,,2.0,0.8,1.5*3A
2017-12-01 16:08:49 1512162529.723469: $GPGSV,3,1,11,10,58,142,49,11,10,291,34,12,25,060,45,14,61,309,44*7A
2017-12-01 16:08:49 1512162529.723690: $GPGSV,3,2,11,18,27,141,44,22,11,312,34,25,36,103,48,31,46,217,49*72
2017-12-01 16:08:49 1512162529.723759: $GPGSV,3,3,11,01,19,310,18,24,05,046,26,138,38,213,46*7D
2017-12-01 16:08:49 1512162529.836953: $GPZDA,210850.00,01,12,2017,00,00*6E
2017-12-01 16:08:49 1512162529.837129: $GPGGA,210850,3946.9577,N,08404.9833,W,2,11,0.80,314.01,M,-33.324,M,,*77
2017-12-01 16:08:49 1512162529.837197: $GPRMC,210850,A,3946.9577,N,08404.9833,W,0.0000,0.000,011217,,*38
2017-12-01 16:08:49 1512162529.837258: $GPGSA,A,3,10,11,12,14,18,22,25,31,1,24,138,,2.0,0.8,1.5*3A
2017-12-01 16:08:50 1512162530.462287: $GPZDA,210851.00,01,12,2017,00,00*6F
2017-12-01 16:08:50 1512162530.462462: $GPGGA,210851,3946.9577,N,08404.9833,W,2,11,0.80,314.01,M,-33.324,M,,*76
2017-12-01 16:08:50 1512162530.462551: $GPRMC,210851,A,3946.9577,N,08404.9833,W,0.0000,0.000,011217,,*39
2017-12-01 16:08:50 1512162530.462614: $GPGSA,A,3,10,11,12,14,18,22,25,31,1,24,138,,2.0,0.8,1.5*3A
2017-12-01 16:08:51 1512162531.387030: $GPZDA,210852.00,01,12,2017,00,00*6C
2017-12-01 16:08:51 1512162531.387209: $GPGGA,210852,3946.9577,N,08404.9833,W,2,11,0.80,314.01,M,-33.324,M,,*75
2017-12-01 16:08:51 1512162531.387276: $GPRMC,210852,A,3946.9577,N,08404.9833,W,0.0000,0.000,011217,,*3A
2017-12-01 16:08:51 1512162531.387338: $GPGSA,A,3,10,11,12,14,18,22,25,31,1,24,138,,2.0,0.8,1.5*3A
2017-12-01 16:08:52 1512162532.723963: $GPGSV,3,1,11,10,58,142,49,11,10,291,34,12,25,060,45,14,61,309,44*7A
2017-12-01 16:08:52 1512162532.724139: $GPGSV,3,2,11,18,27,141,44,22,11,312,35,25,36,103,48,31,46,217,49*73
2017-12-01 16:08:52 1512162532.724207: $GPGSV,3,3,11,01,19,310,29,24,05,046,27,138,38,213,46*7E
2017-12-01 16:08:52 1512162532.837707: $GPZDA,210853.00,01,12,2017,00,00*6D
2017-12-01 16:08:52 1512162532.837877: $GPGGA,210853,3946.9577,N,08404.9833,W,2,11,0.80,314.01,M,-33.324,M,,*74
2017-12-01 16:08:52 1512162532.837943: $GPRMC,210853,A,3946.9577,N,08404.9833,W,0.0000,0.000,011217,,*3B
2017-12-01 16:08:52 1512162532.838004: $GPGSA,A,3,10,11,12,14,18,22,25,31,1,24,138,,2.0,0.8,1.5*3A
2017-12-01 16:08:53 1512162533.387244: $GPZDA,210854.00,01,12,2017,00,00*6A
2017-12-01 16:08:53 1512162533.387412: $GPGGA,210854,3946.9577,N,08404.9833,W,2,11,0.80,314.01,M,-33.324,M,,*73
2017-12-01 16:08:53 1512162533.387480: $GPRMC,210854,A,3946.9577,N,08404.9833,W,0.0000,0.000,011217,,*3C
2017-12-01 16:08:53 1512162533.387564: $GPGSA,A,3,10,11,12,14,18,22,25,31,1,24,138,,2.0,0.8,1.5*3A
2017-12-01 16:08:54 1512162534.386788: $GPZDA,210855.00,01,12,2017,00,00*6B
2017-12-01 16:08:54 1512162534.386957: $GPGGA,210855,3946.9577,N,08404.9833,W,2,11,0.80,314.01,M,-33.324,M,,*72
2017-12-01 16:08:54 1512162534.387024: $GPRMC,210855,A,3946.9577,N,08404.9833,W,0.0000,0.000,011217,,*3D
2017-12-01 16:08:54 1512162534.387084: $GPGSA,A,3,10,11,12,14,18,22,25,31,1,24,138,,2.0,0.8,1.5*3A
2017-12-01 16:08:54 1512162534.387143: $GPGBS,210855,2.67,M,3.86,M,8.82,M*39
2017-12-01 16:08:55 1512162535.721596: $GPGSV,3,1,11,10,58,142,50,11,10,291,34,12,25,060,44,14,61,309,45*72
2017-12-01 16:08:55 1512162535.721801: $GPGSV,3,2,11,18,27,141,44,22,11,312,35,25,36,103,49,31,46,217,49*72
2017-12-01 16:08:55 1512162535.721870: $GPGSV,3,3,11,01,19,310,27,24,05,046,27,138,38,213,45*73
