2017-11-16 15:32:00 1510864320.885872: {"class":"VERSION","release":"3.17","rev":"3.17","proto_major":3,"proto_minor":12}
2017-11-16 15:32:00 1510864320.886365: {"class":"DEVICES","devices":[{"class":"DEVICE","path":"/dev/ttyUSB0","driver":"SiRF","subtype":"9\u0006GSD4e_4.1.2-P1_RPATCH.05-F-GPS-4R-1510281 11/03/2015 307","activated":"2017-11-16T20:32:00.681Z","flags":1,"native":1,"bps":4800,"parity":"N","stopbits":1,"cycle":1.00}]}
2017-11-16 15:32:00 1510864320.886478: {"class":"WATCH","enable":true,"json":false,"nmea":true,"raw":0,"scaled":false,"timing":false,"split24":false,"pps":false}
2017-11-16 15:32:01 1510864321.704221: $GPGSV,3,1,12,08,05,291,28,10,72,336,50,14,31,256,47,27,05,258,29*73
2017-11-16 15:32:01 1510864321.704401: $GPGSV,3,2,12,18,68,099,47,20,06,120,20,21,26,178,42,24,43,057,50*73
2017-11-16 15:32:01 1510864321.704462: $GPGSV,3,3,12,25,05,139,18,32,48,268,47,12,11,105,25,138,38,213,44*49
2017-11-16 15:32:01 1510864321.817583: $GPZDA,203200.00,16,11,2017,00,00*66
2017-11-16 15:32:01 1510864321.817749: $GPGGA,203200,3946.9568,N,08404.9860,W,2,12,1.00,309.61,M,-33.324,M,,*72
2017-11-16 15:32:01 1510864321.817812: $GPRMC,203200,A,3946.9568,N,08404.9860,W,0.0000,0.000,161117,,*38
2017-11-16 15:32:01 1510864321.817870: $GPGSA,A,3,8,10,14,27,18,20,21,24,25,32,12,138,1.6,1.0,1.3*3E
2017-11-16 15:32:02 1510864322.369623: $GPZDA,203201.00,16,11,2017,00,00*67
2017-11-16 15:32:02 1510864322.369806: $GPGGA,203201,3946.9564,N,08404.9860,W,2,12,1.00,308.97,M,-33.324,M,,*77
2017-11-16 15:32:02 1510864322.369871: $GPRMC,203201,A,3946.9564,N,08404.9860,W,0.0000,0.000,161117,,*35
2017-11-16 15:32:02 1510864322.369928: $GPGSA,A,3,8,10,14,27,18,20,21,24,25,32,12,138,1.6,1.0,1.3*3E
2017-11-16 15:32:03 1510864323.365755: $GPZDA,203202.00,16,11,2017,00,00*64
2017-11-16 15:32:03 1510864323.365931: $GPGGA,203202,3946.9564,N,08404.9860,W,2,12,1.00,308.97,M,-33.324,M,,*74
2017-11-16 15:32:03 1510864323.365993: $GPRMC,203202,A,3946.9564,N,08404.9860,W,0.0000,0.000,161117,,*36
2017-11-16 15:32:03 1510864323.366050: $GPGSA,A,3,8,10,14,27,18,20,21,24,25,32,12,138,1.6,1.0,1.3*3E
2017-11-16 15:32:04 1510864324.702546: $GPGSV,3,1,12,08,05,291,30,10,72,336,50,14,31,256,47,27,05,258,29*7A
2017-11-16 15:32:05 1510864325.206852: $GPGSV,3,2,12,18,68,099,47,20,06,120,21,21,26,178,43,24,43,057,50*73
2017-11-16 15:32:05 1510864325.207008: $GPGSV,3,3,12,25,05,139,11,32,48,268,46,12,11,105,26,138,38,213,44*42
2017-11-16 15:32:05 1510864325.207112: $GPZDA,203203.00,16,11,2017,00,00*65
2017-11-16 15:32:05 1510864325.207168: $GPGGA,203203,3946.9564,N,08404.9860,W,2,12,1.00,308.97,M,-33.324,M,,*75
2017-11-16 15:32:05 1510864325.207231: $GPRMC,203203,A,3946.9564,N,08404.9860,W,0.0000,0.000,161117,,*37
2017-11-16 15:32:05 1510864325.207286: $GPGSA,A,3,8,10,14,27,18,20,21,24,25,32,12,138,1.6,1.0,1.3*3E
2017-11-16 15:32:05 1510864325.370634: $GPZDA,203204.00,16,11,2017,00,00*62
2017-11-16 15:32:05 1510864325.370797: $GPGGA,203204,3946.9568,N,08404.9860,W,2,12,1.00,309.61,M,-33.324,M,,*76
2017-11-16 15:32:05 1510864325.370859: $GPRMC,203204,A,3946.9568,N,08404.9860,W,0.0000,0.000,161117,,*3C
2017-11-16 15:32:05 1510864325.370933: $GPGSA,A,3,8,10,14,27,18,20,21,24,25,32,12,138,1.6,1.0,1.3*3E
2017-11-16 15:32:06 1510864326.365913: $GPZDA,203205.00,16,11,2017,00,00*63
2017-11-16 15:32:06 1510864326.366078: $GPGGA,203205,3946.9568,N,08404.9860,W,2,12,1.00,309.61,M,-33.324,M,,*77
2017-11-16 15:32:06 1510864326.366139: $GPRMC,203205,A,3946.9568,N,08404.9860,W,0.0000,0.000,161117,,*3D
2017-11-16 15:32:06 1510864326.366198: $GPGSA,A,3,8,10,14,27,18,20,21,24,25,32,12,138,1.6,1.0,1.3*3E
2017-11-16 15:32:07 1510864327.708051: $GPGSV,3,1,12,08,05,291,31,10,72,336,50,14,31,256,46,15,09,067,16*75
2017-11-16 15:32:07 1510864327.708229: $GPGSV,3,2,12,18,68,099,47,20,06,120,22,21,26,178,43,24,43,057,50*70
2017-11-16 15:32:07 1510864327.708291: $GPGSV,3,3,12,25,05,139,14,32,48,268,46,12,11,105,26,138,38,213,44*47
2017-11-16 15:32:07 1510864327.821448: $GPZDA,203206.00,16,11,2017,00,00*60
2017-11-16 15:32:07 1510864327.821599: $GPGGA,203206,3946.9568,N,08404.9860,W,2,11,1.00,309.61,M,-33.324,M,,*77
2017-11-16 15:32:07 1510864327.821737: $GPRMC,203206,A,3946.9568,N,08404.9860,W,0.0000,0.000,161117,,*3E
2017-11-16 15:32:07 1510864327.821796: $GPGSA,A,3,8,10,14,18,20,21,24,25,32,12,138,,1.6,1.0,1.3*3B
2017-11-16 15:32:08 1510864328.383427: $GPZDA,203207.00,16,11,2017,00,00*61
2017-11-16 15:32:08 1510864328.383591: $GPGGA,203207,3946.9568,N,08404.9860,W,2,11,1.00,309.61,M,-33.324,M,,*76
2017-11-16 15:32:08 1510864328.383653: $GPRMC,203207,A,3946.9568,N,08404.9860,W,0.0000,0.000,161117,,*3F
2017-11-16 15:32:08 1510864328.383709: $GPGSA,A,3,8,10,14,18,20,21,24,25,32,12,138,,1.6,1.0,1.3*3B
2017-11-16 15:32:09 1510864329.384284: $GPZDA,203208.00,16,11,2017,00,00*6E
2017-11-16 15:32:09 1510864329.384471: $GPGGA,203208,3946.9568,N,08404.9860,W,2,11,0.80,309.61,M,-33.324,M,,*70
2017-11-16 15:32:09 1510864329.384556: $GPRMC,203208,A,3946.9568,N,08404.9860,W,0.0000,0.000,161117,,*30
2017-11-16 15:32:09 1510864329.384615: $GPGSA,A,3,8,10,14,18,20,21,24,25,32,12,138,,1.6,0.8,1.3*32
2017-11-16 15:32:10 1510864330.702612: $GPGSV,3,1,12,08,05,291,31,10,72,336,50,14,31,256,47,15,09,067,17*75
2017-11-16 15:32:10 1510864330.702793: $GPGSV,3,2,12,18,68,099,47,20,06,120,22,21,26,178,43,24,43,057,50*70
2017-11-16 15:32:10 1510864330.702857: $GPGSV,3,3,12,25,05,139,17,32,48,268,46,12,11,105,26,138,38,213,44*44
2017-11-16 15:32:10 1510864330.815966: $GPZDA,203209.00,16,11,2017,00,00*6F
2017-11-16 15:32:10 1510864330.816144: $GPGGA,203209,3946.9568,N,08404.9860,W,2,12,0.80,309.61,M,-33.324,M,,*72
2017-11-16 15:32:10 1510864330.816209: $GPRMC,203209,A,3946.9568,N,08404.9860,W,0.0000,0.000,161117,,*31
2017-11-16 15:32:10 1510864330.816269: $GPGSA,A,3,8,10,14,15,18,20,21,24,25,32,12,138,1.6,0.8,1.3*36
