2017-12-14 11:57:01 1513270621.103904: {"class":"VERSION","release":"3.16","rev":"3.16-4","proto_major":3,"proto_minor":11}
2017-12-14 11:57:01 1513270621.104270: {"class":"DEVICES","devices":[{"class":"DEVICE","path":"/dev/ttyUSB0","driver":"SiRF","subtype":"9\u0006GSD4e_4.1.2-P1_RPATCH.05-F-GPS-4R-1510281 11/03/2015 307","activated":"2017-12-14T16:57:00.283Z","flags":1,"native":1,"bps":4800,"parity":"N","stopbits":1,"cycle":1.00}]}
2017-12-14 11:57:01 1513270621.104386: {"class":"WATCH","enable":true,"json":false,"nmea":true,"raw":0,"scaled":false,"timing":false,"split24":false,"pps":false}
2017-12-14 11:57:01 1513270621.159580: $GPZDA,165702.00,14,12,2017,00,00*63
2017-12-14 11:57:01 1513270621.159723: $GPGGA,165702,3946.9636,N,08404.9408,W,1,06,1.80,343.08,M,-33.324,M,,*73
2017-12-14 11:57:01 1513270621.159792: $GPRMC,165702,A,3946.9636,N,08404.9408,W,0.7278,23.636,141217,,*0F
2017-12-14 11:57:01 1513270621.159853: $GPGSA,A,3,20,15,24,10,18,27,,,,,,,6.6,1.8,6.2*32
2017-12-14 11:57:02 1513270622.479586: $GPGSV,3,1,11,20,41,087,29,15,46,049,24,24,45,124,23,10,34,294,17*7B
2017-12-14 11:57:02 1513270622.479775: $GPGSV,3,2,11,18,65,319,16,32,13,232,04,27,19,298,11,21,72,199,16*74
2017-12-14 11:57:02 1513270622.479843: $GPGSV,3,3,11,13,16,046,00,08,02,330,00,120,07,103,00*72
2017-12-14 11:57:02 1513270622.591685: $GPZDA,165703.00,14,12,2017,00,00*62
2017-12-14 11:57:02 1513270622.591846: $GPGGA,165703,3946.9636,N,08404.9408,W,1,07,1.80,343.08,M,-33.324,M,,*73
2017-12-14 11:57:02 1513270622.591915: $GPRMC,165703,A,3946.9636,N,08404.9408,W,0.3423,4.197,141217,,*3B
2017-12-14 11:57:02 1513270622.591975: $GPGSA,A,3,20,15,24,10,18,27,21,,,,,,6.6,1.8,6.2*31
2017-12-14 11:57:03 1513270623.160162: $GPZDA,165704.00,14,12,2017,00,00*65
2017-12-14 11:57:03 1513270623.160338: $GPGGA,165704,3946.9636,N,08404.9408,W,1,07,1.80,343.08,M,-33.324,M,,*74
2017-12-14 11:57:03 1513270623.160408: $GPRMC,165704,A,3946.9636,N,08404.9408,W,0.7246,344.668,141217,,*3D
2017-12-14 11:57:03 1513270623.160468: $GPGSA,A,3,20,15,24,10,18,27,21,,,,,,6.6,1.8,6.2*31
2017-12-14 11:57:04 1513270624.160217: $GPZDA,165705.00,14,12,2017,00,00*64
2017-12-14 11:57:04 1513270624.160389: $GPGGA,165705,3946.9636,N,08404.9408,W,1,07,1.80,343.08,M,-33.324,M,,*75
2017-12-14 11:57:04 1513270624.160455: $GPRMC,165705,A,3946.9636,N,08404.9408,W,0.6846,4.197,141217,,*37
2017-12-14 11:57:04 1513270624.160516: $GPGSA,A,3,20,15,24,10,18,27,21,,,,,,6.6,1.8,6.2*31
2017-12-14 11:57:05 1513270625.482726: $GPGSV,3,1,11,20,41,087,29,15,46,049,24,24,45,124,22,10,34,294,17*7A
2017-12-14 11:57:06 1513270626.872465: $GPGSV,3,2,11,18,65,319,16,32,13,232,10,27,19,298,10,21,72,199,17*71
2017-12-14 11:57:06 1513270626.872662: $GPGSV,3,3,11,13,16,046,00,08,02,330,00,120,07,103,00*72
2017-12-14 11:57:06 1513270626.872788: $GPZDA,165706.00,14,12,2017,00,00*67
2017-12-14 11:57:06 1513270626.872850: $GPGGA,165706,3946.9636,N,08404.9408,W,1,08,1.20,343.08,M,-33.324,M,,*73
2017-12-14 11:57:06 1513270626.872931: $GPRMC,165706,A,3946.9636,N,08404.9408,W,0.7246,344.668,141217,,*3F
2017-12-14 11:57:06 1513270626.872994: $GPGSA,A,3,20,15,24,10,18,32,27,21,,,,,6.6,1.2,6.2*3A
2017-12-14 11:57:06 1513270626.873073: $GPZDA,165707.00,14,12,2017,00,00*66
2017-12-14 11:57:06 1513270626.873150: $GPGGA,165707,3946.9636,N,08404.9408,W,1,08,1.60,343.08,M,-33.324,M,,*76
2017-12-14 11:57:06 1513270626.873214: $GPRMC,165707,A,3946.9636,N,08404.9408,W,1.0002,334.331,141217,,*34
2017-12-14 11:57:06 1513270626.873275: $GPGSA,A,3,20,15,24,10,18,32,27,21,,,,,6.6,1.6,6.2*3E
2017-12-14 11:57:07 1513270627.162738: $GPZDA,165708.00,14,12,2017,00,00*69
2017-12-14 11:57:07 1513270627.162919: $GPGGA,165708,3946.9636,N,08404.9408,W,1,08,1.60,343.08,M,-33.324,M,,*79
2017-12-14 11:57:07 1513270627.162988: $GPRMC,165708,A,3946.9636,N,08404.9408,W,0.4179,328.779,141217,,*36
2017-12-14 11:57:07 1513270627.163051: $GPGSA,A,3,20,15,24,10,18,32,27,21,,,,,6.6,1.6,6.2*3E
2017-12-14 11:57:08 1513270628.495887: $GPGSV,3,1,11,20,41,087,29,15,46,049,24,24,45,124,22,10,34,294,17*7A
2017-12-14 11:57:08 1513270628.496085: $GPGSV,3,2,11,18,65,319,16,32,13,232,09,27,19,298,04,21,72,199,17*7C
2017-12-14 11:57:08 1513270628.496213: $GPGSV,3,3,11,13,16,046,00,08,02,330,00,120,07,103,00*72
2017-12-14 11:57:08 1513270628.609251: $GPZDA,165709.00,14,12,2017,00,00*68
2017-12-14 11:57:08 1513270628.609411: $GPGGA,165709,3946.9636,N,08404.9408,W,1,07,1.60,343.08,M,-33.324,M,,*77
2017-12-14 11:57:08 1513270628.609479: $GPRMC,165709,A,3946.9636,N,08404.9408,W,0.2422,93.795,141217,,*0B
2017-12-14 11:57:08 1513270628.609539: $GPGSA,A,3,20,15,24,10,18,32,21,,,,,,6.6,1.6,6.2*3B
2017-12-14 11:57:09 1513270629.143136: $GPZDA,165710.00,14,12,2017,00,00*60
2017-12-14 11:57:09 1513270629.143303: $GPGGA,165710,3946.9636,N,08404.9408,W,1,07,1.60,343.08,M,-33.324,M,,*7F
2017-12-14 11:57:09 1513270629.143368: $GPRMC,165710,A,3946.9636,N,08404.9408,W,0.4844,93.795,141217,,*09
2017-12-14 11:57:09 1513270629.143447: $GPGSA,A,3,20,15,24,10,18,32,21,,,,,,6.6,1.6,6.2*3B
2017-12-14 11:57:10 1513270630.160849: $GPZDA,165711.00,14,12,2017,00,00*61
2017-12-14 11:57:10 1513270630.161042: $GPGGA,165711,3946.9632,N,08404.9408,W,1,07,1.60,342.44,M,-33.324,M,,*73
2017-12-14 11:57:10 1513270630.161109: $GPRMC,165711,A,3946.9632,N,08404.9408,W,0.7267,93.795,141217,,*04
2017-12-14 11:57:10 1513270630.161170: $GPGSA,A,3,20,15,24,10,18,32,21,,,,,,6.6,1.6,6.2*3B
2017-12-14 11:57:11 1513270631.496976: $GPGSV,3,1,11,20,41,087,29,15,46,049,24,24,45,124,21,10,34,294,17*79
2017-12-14 11:57:11 1513270631.497159: $GPGSV,3,2,11,18,65,319,16,32,13,232,09,27,19,298,06,21,72,199,17*7E
2017-12-14 11:57:11 1513270631.497225: $GPGSV,3,3,11,13,16,046,00,08,02,330,00,120,07,103,00*72
2017-12-14 11:57:11 1513270631.610421: $GPZDA,165712.00,14,12,2017,00,00*62
2017-12-14 11:57:11 1513270631.610591: $GPGGA,165712,3946.9632,N,08404.9408,W,1,07,1.60,342.44,M,-33.324,M,,*70
2017-12-14 11:57:11 1513270631.610679: $GPRMC,165712,A,3946.9632,N,08404.9408,W,0.4207,39.347,141217,,*09
2017-12-14 11:57:11 1513270631.610740: $GPGSA,A,3,20,15,24,10,18,32,21,,,,,,6.6,1.6,6.2*3B
2017-12-14 11:57:12 1513270632.160635: $GPZDA,165713.00,14,12,2017,00,00*63
2017-12-14 11:57:12 1513270632.160822: $GPGGA,165713,3946.9632,N,08404.9408,W,1,07,1.60,342.44,M,-33.324,M,,*71
2017-12-14 11:57:12 1513270632.160904: $GPRMC,165713,A,3946.9632,N,08404.9408,W,0.4179,328.779,141217,,*38
2017-12-14 11:57:12 1513270632.160967: $GPGSA,A,3,20,15,24,10,18,32,21,,,,,,6.6,1.6,6.2*3B
2017-12-14 11:57:13 1513270633.160110: $GPZDA,165714.00,14,12,2017,00,00*64
2017-12-14 11:57:13 1513270633.160278: $GPGGA,165714,3946.9632,N,08404.9408,W,1,07,1.60,342.44,M,-33.324,M,,*76
2017-12-14 11:57:13 1513270633.160343: $GPRMC,165714,A,3946.9632,N,08404.9408,W,0.8359,328.779,141217,,*33
2017-12-14 11:57:13 1513270633.160404: $GPGSA,A,3,20,15,24,10,18,32,21,,,,,,6.6,1.6,6.2*3B
2017-12-14 11:57:14 1513270634.480180: $GPGSV,3,1,11,20,41,087,30,15,46,049,24,24,45,124,21,10,34,294,18*7E
2017-12-14 11:57:14 1513270634.480373: $GPGSV,3,2,11,18,65,319,16,32,13,232,09,27,19,298,04,21,72,199,18*73
2017-12-14 11:57:14 1513270634.480440: $GPGSV,3,3,11,13,16,046,00,08,02,330,00,120,07,103,00*72
2017-12-14 11:57:14 1513270634.593510: $GPZDA,165715.00,14,12,2017,00,00*65
2017-12-14 11:57:14 1513270634.593702: $GPGGA,165715,3946.9632,N,08404.9408,W,1,07,1.60,342.44,M,-33.324,M,,*77
2017-12-14 11:57:14 1513270634.593786: $GPRMC,165715,A,3946.9632,N,08404.9408,W,0.5306,294.353,141217,,*3F
2017-12-14 11:57:14 1513270634.593848: $GPGSA,A,3,20,15,24,10,18,32,21,,,,,,6.6,1.6,6.2*3B
2017-12-14 11:57:15 1513270635.161102: $GPZDA,165716.00,14,12,2017,00,00*66
2017-12-14 11:57:15 1513270635.161271: $GPGGA,165716,3946.9628,N,08404.9409,W,1,07,1.60,343.20,M,-33.324,M,,*7D
2017-12-14 11:57:15 1513270635.161336: $GPRMC,165716,A,3946.9628,N,08404.9409,W,0.0000,0.000,141217,,*3C
2017-12-14 11:57:15 1513270635.161396: $GPGSA,A,3,20,15,24,10,18,32,21,,,,,,6.6,1.6,6.2*3B
2017-12-14 11:57:16 1513270636.161264: $GPZDA,165717.00,14,12,2017,00,00*67
2017-12-14 11:57:16 1513270636.161447: $GPGGA,165717,3946.9624,N,08404.9416,W,1,07,1.60,342.48,M,-33.324,M,,*71
2017-12-14 11:57:16 1513270636.161565: $GPRMC,165717,A,3946.9624,N,08404.9416,W,0.4207,219.347,141217,,*34
2017-12-14 11:57:16 1513270636.161647: $GPGSA,A,3,20,15,24,10,18,32,21,,,,,,6.6,1.6,6.2*3B
2017-12-14 11:57:17 1513270637.496173: $GPGSV,3,1,11,20,41,087,30,15,46,049,24,24,45,124,21,10,34,294,18*7E
2017-12-14 11:57:17 1513270637.496349: $GPGSV,3,2,11,18,65,319,16,32,13,232,08,27,19,298,04,21,72,199,18*72
2017-12-14 11:57:17 1513270637.496413: $GPGSV,3,3,11,13,16,046,00,08,02,330,00,120,07,103,00*72
2017-12-14 11:57:17 1513270637.609559: $GPZDA,165718.00,14,12,2017,00,00*68
2017-12-14 11:57:17 1513270637.609706: $GPGGA,165718,3946.9624,N,08404.9416,W,1,07,1.60,342.48,M,-33.324,M,,*7E
2017-12-14 11:57:17 1513270637.609787: $GPRMC,165718,A,3946.9624,N,08404.9416,W,0.4207,219.347,141217,,*3B
2017-12-14 11:57:17 1513270637.609848: $GPGSA,A,3,20,15,24,10,18,32,21,,,,,,6.6,1.6,6.2*3B
2017-12-14 11:57:18 1513270638.141718: $GPZDA,165719.00,14,12,2017,00,00*69
2017-12-14 11:57:18 1513270638.141900: $GPGGA,165719,3946.9617,N,08404.9416,W,1,07,1.80,342.61,M,-33.324,M,,*7A
2017-12-14 11:57:18 1513270638.141966: $GPRMC,165719,A,3946.9617,N,08404.9416,W,0.4179,148.779,141217,,*3E
2017-12-14 11:57:18 1513270638.142026: $GPGSA,A,3,20,15,24,10,18,32,21,,,,,,6.6,1.8,6.2*35
2017-12-14 11:57:19 1513270639.143164: $GPZDA,165720.00,14,12,2017,00,00*63
2017-12-14 11:57:19 1513270639.143336: $GPGGA,165720,3946.9617,N,08404.9416,W,1,07,1.80,342.61,M,-33.324,M,,*70
2017-12-14 11:57:19 1513270639.143404: $GPRMC,165720,A,3946.9617,N,08404.9416,W,0.4179,148.779,141217,,*34
2017-12-14 11:57:19 1513270639.143464: $GPGSA,A,3,20,15,24,10,18,32,21,,,,,,6.6,1.8,6.2*35
2017-12-14 11:57:20 1513270640.479297: $GPGSV,3,1,11,20,41,087,30,15,46,049,24,24,45,124,22,10,34,294,18*7D
2017-12-14 11:57:20 1513270640.483660: $GPGSV,3,2,11,18,65,319,17,32,13,232,08,27,19,298,04,21,72,199,18*73
2017-12-14 11:57:20 1513270640.483784: $GPGSV,3,3,11,13,16,046,00,08,02,330,00,120,07,103,00*72
2017-12-14 11:57:20 1513270640.592923: $GPZDA,165721.00,14,12,2017,00,00*62
2017-12-14 11:57:20 1513270640.593094: $GPGGA,165721,3946.9616,N,08404.9409,W,1,07,1.60,342.69,M,-33.324,M,,*78
2017-12-14 11:57:20 1513270640.593160: $GPRMC,165721,A,3946.9616,N,08404.9409,W,0.2422,93.795,141217,,*02
2017-12-14 11:57:20 1513270640.593220: $GPGSA,A,3,20,15,24,10,18,32,21,,,,,,6.6,1.6,6.2*3B
2017-12-14 11:57:21 1513270641.142836: $GPZDA,165722.00,14,12,2017,00,00*61
2017-12-14 11:57:21 1513270641.142988: $GPGGA,165722,3946.9616,N,08404.9409,W,1,07,1.60,342.69,M,-33.324,M,,*7B
2017-12-14 11:57:21 1513270641.143053: $GPRMC,165722,A,3946.9616,N,08404.9409,W,0.7278,23.636,141217,,*0E
2017-12-14 11:57:21 1513270641.143114: $GPGSA,A,3,20,15,24,10,18,32,21,,,,,,6.6,1.6,6.2*3B
