2017-12-29 15:02:44 1514577764.541370: {"class":"VERSION","release":"3.16","rev":"3.16-4","proto_major":3,"proto_minor":11}
2017-12-29 15:02:44 1514577764.541732: {"class":"DEVICES","devices":[{"class":"DEVICE","path":"/dev/ttyUSB0","driver":"SiRF","subtype":"9\u0006GSD4e_4.1.2-P1_RPATCH.05-F-GPS-4R-1510281 11/03/2015 307","activated":"2017-12-29T20:02:44.531Z","flags":1,"native":1,"bps":4800,"parity":"N","stopbits":1,"cycle":1.00}]}
2017-12-29 15:02:44 1514577764.541847: {"class":"WATCH","enable":true,"json":false,"nmea":true,"raw":0,"scaled":false,"timing":false,"split24":false,"pps":false}
2017-12-29 15:02:45 1514577765.397834: $GPZDA,200246.00,29,12,2017,00,00*68
2017-12-29 15:02:45 1514577765.398003: $GPGGA,200246,3946.9577,N,08404.9832,W,2,12,0.80,299.76,M,-33.324,M,,*7D
2017-12-29 15:02:45 1514577765.398071: $GPRMC,200246,A,3946.9577,N,08404.9832,W,0.0000,0.000,291217,,*3F
2017-12-29 15:02:45 1514577765.398131: $GPGSA,A,3,3,10,1,12,14,22,25,31,32,18,11,138,1.7,0.8,1.3*0C
2017-12-29 15:02:46 1514577766.731084: $GPGSV,3,1,12,03,11,316,38,10,35,153,49,01,22,288,40,12,16,040,42*78
2017-12-29 15:02:46 1514577766.731238: $GPGSV,3,2,12,14,70,357,43,22,29,309,41,25,41,075,50,31,69,240,46*77
2017-12-29 15:02:46 1514577766.731303: $GPGSV,3,3,12,32,62,058,49,18,06,147,25,11,04,273,36,138,38,213,43*44
2017-12-29 15:02:46 1514577766.844697: $GPZDA,200247.00,29,12,2017,00,00*69
2017-12-29 15:02:46 1514577766.844836: $GPGGA,200247,3946.9577,N,08404.9832,W,2,12,0.80,299.76,M,-33.324,M,,*7C
2017-12-29 15:02:46 1514577766.844902: $GPRMC,200247,A,3946.9577,N,08404.9832,W,0.0000,0.000,291217,,*3E
2017-12-29 15:02:46 1514577766.844962: $GPGSA,A,3,3,10,1,12,14,22,25,31,32,18,11,138,1.7,0.8,1.3*0C
2017-12-29 15:02:47 1514577767.470103: $GPZDA,200248.00,29,12,2017,00,00*66
2017-12-29 15:02:47 1514577767.470263: $GPGGA,200248,3946.9577,N,08404.9832,W,2,12,0.80,299.76,M,-33.324,M,,*73
2017-12-29 15:02:47 1514577767.470328: $GPRMC,200248,A,3946.9577,N,08404.9832,W,0.0000,0.000,291217,,*31
2017-12-29 15:02:47 1514577767.470403: $GPGSA,A,3,3,10,1,12,14,22,25,31,32,18,11,138,1.7,0.8,1.3*0C
2017-12-29 15:02:48 1514577768.380966: $GPZDA,200249.00,29,12,2017,00,00*67
2017-12-29 15:02:48 1514577768.381196: $GPGGA,200249,3946.9577,N,08404.9832,W,2,12,1.00,299.76,M,-33.324,M,,*7B
2017-12-29 15:02:48 1514577768.381264: $GPRMC,200249,A,3946.9577,N,08404.9832,W,0.0000,0.000,291217,,*30
2017-12-29 15:02:48 1514577768.381324: $GPGSA,A,3,3,10,1,12,14,22,25,31,32,18,11,138,1.7,1.0,1.3*05
2017-12-29 15:02:50 1514577770.599767: $GPGSV,3,1,12,03,11,316,39,10,35,153,49,01,22,288,40,12,16,040,42*79
2017-12-29 15:02:50 1514577770.599948: $GPGSV,3,2,12,14,70,357,43,22,30,309,42,25,41,073,50,31,70,241,46*73
2017-12-29 15:02:50 1514577770.600014: $GPGSV,3,3,12,32,62,058,49,18,06,147,25,11,04,273,36,138,38,213,44*43
2017-12-29 15:02:50 1514577770.713406: $GPZDA,200250.00,29,12,2017,00,00*6F
2017-12-29 15:02:50 1514577770.713551: $GPGGA,200250,3946.9577,N,08404.9832,W,2,12,0.80,299.76,M,-33.324,M,,*7A
2017-12-29 15:02:50 1514577770.713616: $GPRMC,200250,A,3946.9577,N,08404.9832,W,0.0000,0.000,291217,,*38
2017-12-29 15:02:50 1514577770.713675: $GPGSA,A,3,3,10,1,12,14,22,25,31,32,18,11,138,1.7,0.8,1.3*0C
2017-12-29 15:02:51 1514577771.164267: $GPZDA,200251.00,29,12,2017,00,00*6E
2017-12-29 15:02:51 1514577771.164415: $GPGGA,200251,3946.9577,N,08404.9825,W,2,12,0.80,299.84,M,-33.324,M,,*70
2017-12-29 15:02:51 1514577771.164481: $GPRMC,200251,A,3946.9577,N,08404.9825,W,0.0000,0.000,291217,,*3F
2017-12-29 15:02:51 1514577771.164555: $GPGSA,A,3,3,10,1,12,14,22,25,31,32,18,11,138,1.7,0.8,1.3*0C
2017-12-29 15:02:51 1514577771.616433: $GPZDA,200252.00,29,12,2017,00,00*6D
2017-12-29 15:02:51 1514577771.616616: $GPGGA,200252,3946.9577,N,08404.9825,W,2,12,0.80,299.84,M,-33.324,M,,*73
2017-12-29 15:02:51 1514577771.616682: $GPRMC,200252,A,3946.9577,N,08404.9825,W,0.0000,0.000,291217,,*3C
2017-12-29 15:02:51 1514577771.616743: $GPGSA,A,3,3,10,1,12,14,22,25,31,32,18,11,138,1.7,0.8,1.3*0C
2017-12-29 15:02:52 1514577772.731420: $GPGSV,3,1,12,03,11,316,39,10,35,153,49,01,22,288,40,12,16,040,42*79
2017-12-29 15:02:52 1514577772.731643: $GPGSV,3,2,12,14,70,357,44,22,30,309,42,25,41,073,51,31,70,241,46*75
2017-12-29 15:02:52 1514577772.731711: $GPGSV,3,3,12,32,62,058,49,18,06,147,25,11,04,273,36,138,38,213,43*44
2017-12-29 15:02:52 1514577772.845047: $GPZDA,200253.00,29,12,2017,00,00*6C
2017-12-29 15:02:52 1514577772.845179: $GPGGA,200253,3946.9577,N,08404.9825,W,2,12,0.80,299.84,M,-33.324,M,,*72
2017-12-29 15:02:52 1514577772.845244: $GPRMC,200253,A,3946.9577,N,08404.9825,W,0.0000,0.000,291217,,*3D
2017-12-29 15:02:52 1514577772.845306: $GPGSA,A,3,3,10,1,12,14,22,25,31,32,18,11,138,1.7,0.8,1.3*0C
2017-12-29 15:02:53 1514577773.394698: $GPZDA,200254.00,29,12,2017,00,00*6B
2017-12-29 15:02:53 1514577773.394909: $GPGGA,200254,3946.9577,N,08404.9825,W,2,12,0.80,299.84,M,-33.324,M,,*75
2017-12-29 15:02:53 1514577773.394994: $GPRMC,200254,A,3946.9577,N,08404.9825,W,0.0000,0.000,291217,,*3A
2017-12-29 15:02:53 1514577773.395059: $GPGSA,A,3,3,10,1,12,14,22,25,31,32,18,11,138,1.7,0.8,1.3*0C
2017-12-29 15:02:54 1514577774.373073: $GPZDA,200255.00,29,12,2017,00,00*6A
2017-12-29 15:02:54 1514577774.373236: $GPGGA,200255,3946.9577,N,08404.9825,W,2,12,0.80,299.84,M,-33.324,M,,*74
2017-12-29 15:02:54 1514577774.373303: $GPRMC,200255,A,3946.9577,N,08404.9825,W,0.0000,0.000,291217,,*3B
2017-12-29 15:02:54 1514577774.373363: $GPGSA,A,3,3,10,1,12,14,22,25,31,32,18,11,138,1.7,0.8,1.3*0C
