2017-11-16 14:09:47 1510859387.428914: {"class":"VERSION","release":"3.17","rev":"3.17","proto_major":3,"proto_minor":12}
2017-11-16 14:09:47 1510859387.429350: {"class":"DEVICES","devices":[{"class":"DEVICE","path":"/dev/ttyUSB0","driver":"SiRF","subtype":"9\u0006GSD4e_4.1.2-P1_RPATCH.05-F-GPS-4R-1510281 11/03/2015 307","activated":"2017-11-16T19:09:47.421Z","flags":1,"native":1,"bps":4800,"parity":"N","stopbits":1,"cycle":1.00}]}
2017-11-16 14:09:47 1510859387.429470: {"class":"WATCH","enable":true,"json":false,"nmea":true,"raw":0,"scaled":false,"timing":false,"split24":false,"pps":false}
2017-11-16 14:09:47 1510859387.534468: $GPZDA,190946.00,16,11,2017,00,00*66
2017-11-16 14:09:47 1510859387.534692: $GPGGA,190946,3946.9569,N,08404.9850,W,2,11,0.80,304.71,M,-33.324,M,,*76
2017-11-16 14:09:47 1510859387.534759: $GPRMC,190946,A,3946.9569,N,08404.9850,W,0.0000,0.000,161117,,*3A
2017-11-16 14:09:47 1510859387.534816: $GPGSA,A,3,10,13,15,18,20,21,24,32,8,27,138,,1.6,0.8,1.3*30
2017-11-16 14:09:48 1510859388.870254: $GPGSV,3,1,12,10,40,300,45,13,09,048,33,15,39,052,50,18,70,331,47*78
2017-11-16 14:09:48 1510859388.870467: $GPGSV,3,2,12,20,34,094,47,21,66,192,46,24,50,114,48,32,19,237,45*7E
2017-11-16 14:09:48 1510859388.870548: $GPGSV,3,3,12,08,05,324,29,27,19,291,32,14,03,231,00,138,38,213,45*49
2017-11-16 14:09:48 1510859388.983580: $GPZDA,190947.00,16,11,2017,00,00*67
2017-11-16 14:09:48 1510859388.983763: $GPGGA,190947,3946.9569,N,08404.9850,W,2,11,0.80,304.71,M,-33.324,M,,*77
2017-11-16 14:09:48 1510859388.983826: $GPRMC,190947,A,3946.9569,N,08404.9850,W,0.0000,0.000,161117,,*3B
2017-11-16 14:09:48 1510859388.983882: $GPGSA,A,3,10,13,15,18,20,21,24,32,8,27,138,,1.6,0.8,1.3*30
2017-11-16 14:09:49 1510859389.608943: $GPZDA,190948.00,16,11,2017,00,00*68
2017-11-16 14:09:49 1510859389.609097: $GPGGA,190948,3946.9569,N,08404.9850,W,2,11,0.80,304.71,M,-33.324,M,,*78
2017-11-16 14:09:49 1510859389.609160: $GPRMC,190948,A,3946.9569,N,08404.9850,W,0.0000,0.000,161117,,*34
2017-11-16 14:09:49 1510859389.609216: $GPGSA,A,3,10,13,15,18,20,21,24,32,8,27,138,,1.6,0.8,1.3*30
2017-11-16 14:09:50 1510859390.533827: $GPZDA,190949.00,16,11,2017,00,00*69
2017-11-16 14:09:50 1510859390.533990: $GPGGA,190949,3946.9569,N,08404.9850,W,2,11,0.80,304.71,M,-33.324,M,,*79
2017-11-16 14:09:50 1510859390.534069: $GPRMC,190949,A,3946.9569,N,08404.9850,W,0.0000,0.000,161117,,*35
2017-11-16 14:09:50 1510859390.534127: $GPGSA,A,3,10,13,15,18,20,21,24,32,8,27,138,,1.6,0.8,1.3*30
2017-11-16 14:09:51 1510859391.898222: $GPGSV,3,1,12,10,40,300,45,13,09,048,34,15,39,052,51,18,70,331,48*71
2017-11-16 14:09:51 1510859391.898539: $GPGSV,3,2,12,20,34,094,47,21,66,192,46,24,50,114,47,32,19,237,45*71
2017-11-16 14:09:51 1510859391.898662: $GPGSV,3,3,12,08,05,324,31,27,19,291,32,14,03,231,00,138,38,213,45*40
2017-11-16 14:09:52 1510859392.011753: $GPZDA,190950.00,16,11,2017,00,00*61
2017-11-16 14:09:52 1510859392.011925: $GPGGA,190950,3946.9569,N,08404.9850,W,2,11,0.80,304.71,M,-33.324,M,,*71
2017-11-16 14:09:52 1510859392.011986: $GPRMC,190950,A,3946.9569,N,08404.9850,W,0.0000,0.000,161117,,*3D
2017-11-16 14:09:52 1510859392.012042: $GPGSA,A,3,10,13,15,18,20,21,24,32,8,27,138,,1.6,0.8,1.3*30
2017-11-16 14:09:52 1510859392.565066: $GPZDA,190951.00,16,11,2017,00,00*60
2017-11-16 14:09:52 1510859392.565230: $GPGGA,190951,3946.9569,N,08404.9850,W,2,11,0.80,304.71,M,-33.324,M,,*70
2017-11-16 14:09:52 1510859392.565307: $GPRMC,190951,A,3946.9569,N,08404.9850,W,0.0000,0.000,161117,,*3C
2017-11-16 14:09:52 1510859392.565365: $GPGSA,A,3,10,13,15,18,20,21,24,32,8,27,138,,1.6,0.8,1.3*30
2017-11-16 14:09:53 1510859393.534701: $GPZDA,190952.00,16,11,2017,00,00*63
2017-11-16 14:09:53 1510859393.534875: $GPGGA,190952,3946.9569,N,08404.9850,W,2,11,0.80,304.71,M,-33.324,M,,*73
2017-11-16 14:09:53 1510859393.534938: $GPRMC,190952,A,3946.9569,N,08404.9850,W,0.0000,0.000,161117,,*3F
2017-11-16 14:09:53 1510859393.534994: $GPGSA,A,3,10,13,15,18,20,21,24,32,8,27,138,,1.6,0.8,1.3*30
2017-11-16 14:09:54 1510859394.869735: $GPGSV,3,1,12,10,40,300,45,13,09,048,34,15,39,052,51,18,70,331,48*71
2017-11-16 14:09:54 1510859394.869954: $GPGSV,3,2,12,20,34,094,46,21,66,192,46,24,50,114,47,32,19,237,45*70
2017-11-16 14:09:54 1510859394.870032: $GPGSV,3,3,12,08,05,324,32,27,19,291,30,14,03,231,00,138,38,213,44*40
2017-11-16 14:09:54 1510859394.983301: $GPZDA,190953.00,16,11,2017,00,00*62
2017-11-16 14:09:54 1510859394.983455: $GPGGA,190953,3946.9569,N,08404.9850,W,2,11,0.80,304.71,M,-33.324,M,,*72
2017-11-16 14:09:54 1510859394.983540: $GPRMC,190953,A,3946.9569,N,08404.9850,W,0.0000,0.000,161117,,*3E
2017-11-16 14:09:54 1510859394.983597: $GPGSA,A,3,10,13,15,18,20,21,24,32,8,27,138,,1.6,0.8,1.3*30
2017-11-16 14:09:55 1510859395.563050: $GPZDA,190954.00,16,11,2017,00,00*65
2017-11-16 14:09:55 1510859395.563312: $GPGGA,190954,3946.9569,N,08404.9850,W,2,11,0.80,304.71,M,-33.324,M,,*75
2017-11-16 14:09:55 1510859395.563377: $GPRMC,190954,A,3946.9569,N,08404.9850,W,0.0000,0.000,161117,,*39
2017-11-16 14:09:55 1510859395.563434: $GPGSA,A,3,10,13,15,18,20,21,24,32,8,27,138,,1.6,0.8,1.3*30
2017-11-16 14:09:56 1510859396.528787: $GPZDA,190955.00,16,11,2017,00,00*64
2017-11-16 14:09:56 1510859396.528947: $GPGGA,190955,3946.9569,N,08404.9850,W,2,11,0.80,304.71,M,-33.324,M,,*74
2017-11-16 14:09:56 1510859396.529024: $GPRMC,190955,A,3946.9569,N,08404.9850,W,0.0000,0.000,161117,,*38
2017-11-16 14:09:56 1510859396.529081: $GPGSA,A,3,10,13,15,18,20,21,24,32,8,27,138,,1.6,0.8,1.3*30
