2017-12-01 14:19:52 1512155992.927002: {"class":"VERSION","release":"3.16","rev":"3.16-4","proto_major":3,"proto_minor":11}
2017-12-01 14:19:52 1512155992.927392: {"class":"DEVICES","devices":[{"class":"DEVICE","path":"/dev/ttyUSB0","driver":"SiRF","subtype":"9\u0006GSD4e_4.1.2-P1_RPATCH.05-F-GPS-4R-1510281 11/03/2015 307","activated":"2017-12-01T19:19:52.641Z","flags":1,"native":1,"bps":4800,"parity":"N","stopbits":1,"cycle":1.00}]}
2017-12-01 14:19:52 1512155992.927530: {"class":"WATCH","enable":true,"json":false,"nmea":true,"raw":0,"scaled":false,"timing":false,"split24":false,"pps":false}
2017-12-01 14:19:53 1512155993.328709: $GPZDA,191954.00,01,12,2017,00,00*61
2017-12-01 14:19:53 1512155993.328893: $GPGGA,191954,3946.9576,N,08404.9842,W,2,12,0.80,304.66,M,-33.324,M,,*7C
2017-12-01 14:19:53 1512155993.328959: $GPRMC,191954,A,3946.9576,N,08404.9842,W,0.0000,0.000,011217,,*30
2017-12-01 14:19:53 1512155993.329021: $GPGSA,A,3,10,14,18,21,24,27,32,8,12,20,15,138,2.0,0.8,1.5*37
2017-12-01 14:19:54 1512155994.664184: $GPGSV,3,1,12,10,68,328,48,14,28,252,40,18,72,090,44,21,30,180,45*71
2017-12-01 14:19:54 1512155994.664381: $GPGSV,3,2,12,24,46,060,49,27,07,261,34,32,45,264,46,08,06,295,38*7D
2017-12-01 14:19:54 1512155994.664449: $GPGSV,3,3,12,12,08,108,27,20,10,117,19,15,12,066,29,138,38,213,46*4E
2017-12-01 14:19:54 1512155994.777951: $GPZDA,191955.00,01,12,2017,00,00*60
2017-12-01 14:19:54 1512155994.778125: $GPGGA,191955,3946.9576,N,08404.9842,W,2,12,0.80,304.66,M,-33.324,M,,*7D
2017-12-01 14:19:54 1512155994.778192: $GPRMC,191955,A,3946.9576,N,08404.9842,W,0.0000,0.000,011217,,*31
2017-12-01 14:19:54 1512155994.778252: $GPGSA,A,3,10,14,18,21,24,27,32,8,12,20,15,138,2.0,0.8,1.5*37
2017-12-01 14:19:55 1512155995.333742: $GPZDA,191956.00,01,12,2017,00,00*63
2017-12-01 14:19:55 1512155995.333912: $GPGGA,191956,3946.9576,N,08404.9842,W,2,12,0.80,304.66,M,-33.324,M,,*7E
2017-12-01 14:19:55 1512155995.333979: $GPRMC,191956,A,3946.9576,N,08404.9842,W,0.0000,0.000,011217,,*32
2017-12-01 14:19:55 1512155995.334040: $GPGSA,A,3,10,14,18,21,24,27,32,8,12,20,15,138,2.0,0.8,1.5*37
2017-12-01 14:19:56 1512155996.324726: $GPZDA,191957.00,01,12,2017,00,00*62
2017-12-01 14:19:56 1512155996.324897: $GPGGA,191957,3946.9573,N,08404.9843,W,2,12,0.80,305.43,M,-33.324,M,,*7D
2017-12-01 14:19:56 1512155996.324963: $GPRMC,191957,A,3946.9573,N,08404.9843,W,0.0000,0.000,011217,,*37
2017-12-01 14:19:56 1512155996.325024: $GPGSA,A,3,10,14,18,21,24,27,32,8,12,20,15,138,2.0,0.8,1.5*37
2017-12-01 14:19:57 1512155997.667545: $GPGSV,3,1,12,10,68,328,48,14,28,252,40,18,72,090,44,21,30,180,45*71
2017-12-01 14:19:57 1512155997.667733: $GPGSV,3,2,12,24,46,060,49,27,07,261,34,32,45,264,46,08,06,295,37*72
2017-12-01 14:19:57 1512155997.667800: $GPGSV,3,3,12,12,08,108,27,20,10,117,19,15,12,066,29,138,38,213,46*4E
2017-12-01 14:19:57 1512155997.780884: $GPZDA,191958.00,01,12,2017,00,00*6D
2017-12-01 14:19:57 1512155997.781011: $GPGGA,191958,3946.9577,N,08404.9843,W,2,12,0.80,306.07,M,-33.324,M,,*75
2017-12-01 14:19:57 1512155997.781077: $GPRMC,191958,A,3946.9577,N,08404.9843,W,0.0000,0.000,011217,,*3C
2017-12-01 14:19:57 1512155997.781136: $GPGSA,A,3,10,14,18,21,24,27,32,8,12,20,15,138,2.0,0.8,1.5*37
2017-12-01 14:19:58 1512155998.406803: $GPZDA,191959.00,01,12,2017,00,00*6C
2017-12-01 14:19:58 1512155998.406988: $GPGGA,191959,3946.9577,N,08404.9843,W,2,12,0.80,306.07,M,-33.324,M,,*74
2017-12-01 14:19:58 1512155998.407057: $GPRMC,191959,A,3946.9577,N,08404.9843,W,0.0000,0.000,011217,,*3D
2017-12-01 14:19:58 1512155998.407118: $GPGSA,A,3,10,14,18,21,24,27,32,8,12,20,15,138,2.0,0.8,1.5*37
2017-12-01 14:19:59 1512155999.332573: $GPZDA,192000.00,01,12,2017,00,00*6A
2017-12-01 14:19:59 1512155999.332749: $GPGGA,192000,3946.9577,N,08404.9843,W,2,12,0.80,306.07,M,-33.324,M,,*72
2017-12-01 14:19:59 1512155999.332816: $GPRMC,192000,A,3946.9577,N,08404.9843,W,0.0000,0.000,011217,,*3B
2017-12-01 14:19:59 1512155999.332877: $GPGSA,A,3,10,14,18,21,24,27,32,8,12,20,15,138,2.0,0.8,1.5*37
2017-12-01 14:20:00 1512156000.660433: $GPGSV,3,1,12,10,68,328,48,14,28,252,40,18,72,090,44,21,30,180,44*70
2017-12-01 14:20:00 1512156000.660668: $GPGSV,3,2,12,24,46,060,49,27,07,261,35,32,45,264,46,08,06,295,37*73
2017-12-01 14:20:00 1512156000.660739: $GPGSV,3,3,12,12,08,108,28,20,10,117,19,15,12,066,30,138,38,213,47*48
2017-12-01 14:20:00 1512156000.774022: $GPZDA,192001.00,01,12,2017,00,00*6B
2017-12-01 14:20:00 1512156000.774193: $GPGGA,192001,3946.9574,N,08404.9844,W,2,12,0.80,306.83,M,-33.324,M,,*7B
2017-12-01 14:20:00 1512156000.774260: $GPRMC,192001,A,3946.9574,N,08404.9844,W,0.0000,0.000,011217,,*3E
2017-12-01 14:20:00 1512156000.774321: $GPGSA,A,3,10,14,18,21,24,27,32,8,12,20,15,138,2.0,0.8,1.5*37
2017-12-01 14:20:01 1512156001.333649: $GPZDA,192002.00,01,12,2017,00,00*68
2017-12-01 14:20:01 1512156001.333825: $GPGGA,192002,3946.9573,N,08404.9837,W,2,12,0.80,306.91,M,-33.324,M,,*78
2017-12-01 14:20:01 1512156001.333892: $GPRMC,192002,A,3946.9573,N,08404.9837,W,0.0000,0.000,011217,,*3E
2017-12-01 14:20:01 1512156001.333954: $GPGSA,A,3,10,14,18,21,24,27,32,8,12,20,15,138,2.0,0.8,1.5*37
2017-12-01 14:20:02 1512156002.331814: $GPZDA,192003.00,01,12,2017,00,00*69
2017-12-01 14:20:02 1512156002.331992: $GPGGA,192003,3946.9573,N,08404.9837,W,2,12,0.80,306.91,M,-33.324,M,,*79
2017-12-01 14:20:02 1512156002.332061: $GPRMC,192003,A,3946.9573,N,08404.9837,W,0.0000,0.000,011217,,*3F
2017-12-01 14:20:02 1512156002.332208: $GPGSA,A,3,10,14,18,21,24,27,32,8,12,20,15,138,2.0,0.8,1.5*37
2017-12-01 14:20:03 1512156003.668263: $GPGSV,3,1,12,10,68,328,48,14,28,252,40,18,72,090,44,21,30,180,44*70
2017-12-01 14:20:03 1512156003.668448: $GPGSV,3,2,12,24,46,060,49,27,07,261,35,32,45,264,46,08,06,295,37*73
2017-12-01 14:20:03 1512156003.668513: $GPGSV,3,3,12,12,08,108,29,20,10,117,18,15,12,066,31,138,38,213,46*48
2017-12-01 14:20:03 1512156003.781938: $GPZDA,192004.00,01,12,2017,00,00*6E
2017-12-01 14:20:03 1512156003.782086: $GPGGA,192004,3946.9573,N,08404.9837,W,2,12,0.80,306.91,M,-33.324,M,,*7E
2017-12-01 14:20:03 1512156003.782152: $GPRMC,192004,A,3946.9573,N,08404.9837,W,0.0000,0.000,011217,,*38
2017-12-01 14:20:03 1512156003.782213: $GPGSA,A,3,10,14,18,21,24,27,32,8,12,20,15,138,2.0,0.8,1.5*37
2017-12-01 14:20:04 1512156004.331699: $GPZDA,192005.00,01,12,2017,00,00*6F
2017-12-01 14:20:04 1512156004.331866: $GPGGA,192005,3946.9573,N,08404.9837,W,2,12,0.80,306.91,M,-33.324,M,,*7F
2017-12-01 14:20:04 1512156004.331935: $GPRMC,192005,A,3946.9573,N,08404.9837,W,0.0000,0.000,011217,,*39
2017-12-01 14:20:04 1512156004.331996: $GPGSA,A,3,10,14,18,21,24,27,32,8,12,20,15,138,2.0,0.8,1.5*37
2017-12-01 14:20:05 1512156005.332472: $GPZDA,192006.00,01,12,2017,00,00*6C
2017-12-01 14:20:05 1512156005.332646: $GPGGA,192006,3946.9570,N,08404.9837,W,2,12,0.80,307.67,M,-33.324,M,,*77
2017-12-01 14:20:05 1512156005.332714: $GPRMC,192006,A,3946.9570,N,08404.9837,W,0.0000,0.000,011217,,*39
2017-12-01 14:20:05 1512156005.332775: $GPGSA,A,3,10,14,18,21,24,27,32,8,12,20,15,138,2.0,0.8,1.5*37
2017-12-01 14:20:06 1512156006.667934: $GPGSV,3,1,12,10,68,328,48,14,28,252,40,18,72,090,45,21,30,180,44*71
2017-12-01 14:20:06 1512156006.668119: $GPGSV,3,2,12,24,46,060,49,27,07,261,35,32,45,264,46,08,06,295,37*73
2017-12-01 14:20:06 1512156006.668186: $GPGSV,3,3,12,12,08,108,30,20,10,117,17,15,12,066,31,138,38,213,47*4E
2017-12-01 14:20:06 1512156006.781727: $GPZDA,192007.00,01,12,2017,00,00*6D
2017-12-01 14:20:06 1512156006.781898: $GPGGA,192007,3946.9570,N,08404.9837,W,2,12,0.80,307.67,M,-33.324,M,,*76
2017-12-01 14:20:06 1512156006.781965: $GPRMC,192007,A,3946.9570,N,08404.9837,W,0.0000,0.000,011217,,*38
2017-12-01 14:20:06 1512156006.782025: $GPGSA,A,3,10,14,18,21,24,27,32,8,12,20,15,138,2.0,0.8,1.5*37
2017-12-01 14:20:07 1512156007.327653: $GPZDA,192008.00,01,12,2017,00,00*62
2017-12-01 14:20:07 1512156007.327828: $GPGGA,192008,3946.9570,N,08404.9837,W,2,12,0.80,307.67,M,-33.324,M,,*79
2017-12-01 14:20:07 1512156007.327895: $GPRMC,192008,A,3946.9570,N,08404.9837,W,0.0000,0.000,011217,,*37
2017-12-01 14:20:07 1512156007.327956: $GPGSA,A,3,10,14,18,21,24,27,32,8,12,20,15,138,2.0,0.8,1.5*37
2017-12-01 14:20:08 1512156008.331450: $GPZDA,192009.00,01,12,2017,00,00*63
2017-12-01 14:20:08 1512156008.331638: $GPGGA,192009,3946.9570,N,08404.9837,W,2,12,0.80,307.67,M,-33.324,M,,*78
2017-12-01 14:20:08 1512156008.331710: $GPRMC,192009,A,3946.9570,N,08404.9837,W,0.0000,0.000,011217,,*36
2017-12-01 14:20:08 1512156008.331771: $GPGSA,A,3,10,14,18,21,24,27,32,8,12,20,15,138,2.0,0.8,1.5*37
2017-12-01 14:20:09 1512156009.668557: $GPGSV,3,1,12,10,68,328,48,14,28,252,41,18,72,090,45,21,30,180,45*71
2017-12-01 14:20:09 1512156009.668729: $GPGSV,3,2,12,24,46,060,49,27,07,261,34,32,45,264,46,08,06,295,36*73
2017-12-01 14:20:09 1512156009.668795: $GPGSV,3,3,12,12,08,108,30,20,10,117,17,15,12,066,31,138,38,213,46*4F
2017-12-01 14:20:09 1512156009.780694: $GPZDA,192010.00,01,12,2017,00,00*6B
2017-12-01 14:20:09 1512156009.780863: $GPGGA,192010,3946.9570,N,08404.9837,W,2,12,0.80,307.67,M,-33.324,M,,*70
2017-12-01 14:20:09 1512156009.780932: $GPRMC,192010,A,3946.9570,N,08404.9837,W,0.0000,0.000,011217,,*3E
2017-12-01 14:20:09 1512156009.780992: $GPGSA,A,3,10,14,18,21,24,27,32,8,12,20,15,138,2.0,0.8,1.5*37
2017-12-01 14:20:10 1512156010.331546: $GPZDA,192011.00,01,12,2017,00,00*6A
2017-12-01 14:20:10 1512156010.331734: $GPGGA,192011,3946.9574,N,08404.9837,W,2,12,0.80,308.31,M,-33.324,M,,*79
2017-12-01 14:20:10 1512156010.331802: $GPRMC,192011,A,3946.9574,N,08404.9837,W,0.0000,0.000,011217,,*3B
2017-12-01 14:20:10 1512156010.331863: $GPGSA,A,3,10,14,18,21,24,27,32,8,12,20,15,138,2.0,0.8,1.5*37
2017-12-01 14:20:11 1512156011.332420: $GPZDA,192012.00,01,12,2017,00,00*69
2017-12-01 14:20:11 1512156011.332634: $GPGGA,192012,3946.9571,N,08404.9838,W,2,12,0.80,309.08,M,-33.324,M,,*7B
2017-12-01 14:20:11 1512156011.332705: $GPRMC,192012,A,3946.9571,N,08404.9838,W,0.0000,0.000,011217,,*32
2017-12-01 14:20:11 1512156011.332767: $GPGSA,A,3,10,14,18,21,24,27,32,8,12,20,15,138,2.0,0.8,1.5*37
2017-12-01 14:20:12 1512156012.666844: $GPGSV,3,1,12,10,68,328,48,14,28,252,41,18,72,090,45,21,30,180,46*72
2017-12-01 14:20:12 1512156012.667029: $GPGSV,3,2,12,24,46,060,50,27,07,261,34,32,45,264,46,08,06,295,34*79
2017-12-01 14:20:12 1512156012.667097: $GPGSV,3,3,12,12,08,108,30,20,10,117,18,15,12,066,31,138,38,213,46*40
2017-12-01 14:20:12 1512156012.780209: $GPZDA,192013.00,01,12,2017,00,00*68
2017-12-01 14:20:12 1512156012.780360: $GPGGA,192013,3946.9571,N,08404.9838,W,2,12,0.80,309.08,M,-33.324,M,,*7A
2017-12-01 14:20:12 1512156012.780427: $GPRMC,192013,A,3946.9571,N,08404.9838,W,0.0000,0.000,011217,,*33
2017-12-01 14:20:12 1512156012.780507: $GPGSA,A,3,10,14,18,21,24,27,32,8,12,20,15,138,2.0,0.8,1.5*37
