2017-12-01 16:47:29 1512164849.137654: {"class":"VERSION","release":"3.16","rev":"3.16-4","proto_major":3,"proto_minor":11}
2017-12-01 16:47:29 1512164849.138046: {"class":"DEVICES","devices":[{"class":"DEVICE","path":"/dev/ttyUSB0","driver":"SiRF","subtype":"9\u0006GSD4e_4.1.2-P1_RPATCH.05-F-GPS-4R-1510281 11/03/2015 307","activated":"2017-12-01T21:47:28.599Z","flags":1,"native":1,"bps":4800,"parity":"N","stopbits":1,"cycle":1.00}]}
2017-12-01 16:47:29 1512164849.138169: {"class":"WATCH","enable":true,"json":false,"nmea":true,"raw":0,"scaled":false,"timing":false,"split24":false,"pps":false}
2017-12-01 16:47:29 1512164849.437876: $GPZDA,214730.00,01,12,2017,00,00*63
2017-12-01 16:47:29 1512164849.438052: $GPGGA,214730,3946.9657,N,08404.9755,W,2,12,0.80,299.19,M,-33.324,M,,*7A
2017-12-01 16:47:29 1512164849.438120: $GPRMC,214730,A,3946.9657,N,08404.9755,W,0.0000,0.000,011217,,*3B
2017-12-01 16:47:29 1512164849.438181: $GPGSA,A,3,1,10,14,22,31,32,3,11,18,25,26,138,2.0,0.8,1.5*09
2017-12-01 16:47:30 1512164850.773545: $GPGSV,3,1,12,01,22,292,42,10,40,151,42,14,69,346,44,22,25,310,44*7E
2017-12-01 16:47:30 1512164850.773727: $GPGSV,3,2,12,31,64,234,50,32,65,048,48,03,06,316,28,12,18,043,18*76
2017-12-01 16:47:30 1512164850.773797: $GPGSV,3,3,12,18,11,145,25,25,41,079,28,26,09,181,31,138,38,213,34*43
2017-12-01 16:47:30 1512164850.886849: $GPZDA,214731.00,01,12,2017,00,00*62
2017-12-01 16:47:30 1512164850.886996: $GPGGA,214731,3946.9657,N,08404.9755,W,2,12,0.80,299.19,M,-33.324,M,,*7B
2017-12-01 16:47:30 1512164850.887063: $GPRMC,214731,A,3946.9657,N,08404.9755,W,0.0000,0.000,011217,,*3A
2017-12-01 16:47:30 1512164850.887124: $GPGSA,A,3,1,10,14,22,31,32,3,12,18,25,26,138,2.0,0.8,1.5*0A
2017-12-01 16:47:31 1512164851.512421: $GPZDA,214732.00,01,12,2017,00,00*61
2017-12-01 16:47:31 1512164851.512598: $GPGGA,214732,3946.9657,N,08404.9755,W,2,12,0.80,299.19,M,-33.324,M,,*78
2017-12-01 16:47:31 1512164851.512666: $GPRMC,214732,A,3946.9657,N,08404.9755,W,0.0000,0.000,011217,,*39
2017-12-01 16:47:31 1512164851.512727: $GPGSA,A,3,1,10,14,22,31,32,3,12,18,25,26,138,2.0,0.8,1.5*0A
2017-12-01 16:47:32 1512164852.451914: $GPZDA,214733.00,01,12,2017,00,00*60
2017-12-01 16:47:32 1512164852.452084: $GPGGA,214733,3946.9654,N,08404.9755,W,2,12,0.80,299.95,M,-33.324,M,,*7E
2017-12-01 16:47:32 1512164852.452150: $GPRMC,214733,A,3946.9654,N,08404.9755,W,0.0000,0.000,011217,,*3B
2017-12-01 16:47:32 1512164852.452211: $GPGSA,A,3,1,10,14,22,31,32,3,12,18,25,26,138,2.0,0.8,1.5*0A
2017-12-01 16:47:33 1512164853.795078: $GPGSV,3,1,12,01,22,292,42,10,40,151,42,14,69,346,44,22,25,310,44*7E
2017-12-01 16:47:33 1512164853.795263: $GPGSV,3,2,12,31,64,234,50,32,65,048,48,03,06,316,28,12,18,043,17*79
2017-12-01 16:47:33 1512164853.795329: $GPGSV,3,3,12,18,11,145,26,25,41,079,28,26,09,181,32,138,38,213,38*4F
2017-12-01 16:47:33 1512164853.908492: $GPZDA,214734.00,01,12,2017,00,00*67
2017-12-01 16:47:33 1512164853.908647: $GPGGA,214734,3946.9654,N,08404.9755,W,2,12,0.80,299.95,M,-33.324,M,,*79
2017-12-01 16:47:33 1512164853.908712: $GPRMC,214734,A,3946.9654,N,08404.9755,W,0.0000,0.000,011217,,*3C
2017-12-01 16:47:33 1512164853.908773: $GPGSA,A,3,1,10,14,22,31,32,3,12,18,25,26,138,2.0,0.8,1.5*0A
2017-12-01 16:47:34 1512164854.459551: $GPZDA,214735.00,01,12,2017,00,00*66
2017-12-01 16:47:34 1512164854.459729: $GPGGA,214735,3946.9654,N,08404.9755,W,2,12,0.80,299.95,M,-33.324,M,,*78
2017-12-01 16:47:34 1512164854.459799: $GPRMC,214735,A,3946.9654,N,08404.9755,W,0.0000,0.000,011217,,*3D
2017-12-01 16:47:34 1512164854.459860: $GPGSA,A,3,1,10,14,22,31,32,3,12,18,25,26,138,2.0,0.8,1.5*0A
2017-12-01 16:47:35 1512164855.441784: $GPZDA,214736.00,01,12,2017,00,00*65
2017-12-01 16:47:35 1512164855.441955: $GPGGA,214736,3946.9654,N,08404.9755,W,2,12,0.80,299.95,M,-33.324,M,,*7B
2017-12-01 16:47:35 1512164855.442024: $GPRMC,214736,A,3946.9654,N,08404.9755,W,0.0000,0.000,011217,,*3E
2017-12-01 16:47:35 1512164855.442084: $GPGSA,A,3,1,10,14,22,31,32,3,12,18,25,26,138,2.0,0.8,1.5*0A
2017-12-01 16:47:36 1512164856.778174: $GPGSV,3,1,12,01,22,292,42,10,40,151,41,14,69,346,44,22,25,310,44*7D
2017-12-01 16:47:36 1512164856.778421: $GPGSV,3,2,12,31,64,234,50,32,65,048,48,03,06,316,28,12,18,043,17*79
2017-12-01 16:47:36 1512164856.778490: $GPGSV,3,3,12,18,11,145,26,25,41,079,28,26,09,181,32,138,38,213,40*40
2017-12-01 16:47:36 1512164856.891756: $GPZDA,214737.00,01,12,2017,00,00*64
2017-12-01 16:47:36 1512164856.891901: $GPGGA,214737,3946.9658,N,08404.9755,W,2,12,0.80,300.59,M,-33.324,M,,*77
2017-12-01 16:47:36 1512164856.891969: $GPRMC,214737,A,3946.9658,N,08404.9755,W,0.0000,0.000,011217,,*33
2017-12-01 16:47:36 1512164856.892030: $GPGSA,A,3,1,10,14,22,31,32,3,12,18,25,26,138,2.0,0.8,1.5*0A
2017-12-01 16:47:37 1512164857.443904: $GPZDA,214738.00,01,12,2017,00,00*6B
2017-12-01 16:47:37 1512164857.444095: $GPGGA,214738,3946.9658,N,08404.9755,W,2,12,0.80,300.59,M,-33.324,M,,*78
2017-12-01 16:47:37 1512164857.444187: $GPRMC,214738,A,3946.9658,N,08404.9755,W,0.0000,0.000,011217,,*3C
2017-12-01 16:47:37 1512164857.444254: $GPGSA,A,3,1,10,14,22,31,32,3,12,18,25,26,138,2.0,0.8,1.5*0A
2017-12-01 16:47:38 1512164858.442276: $GPZDA,214739.00,01,12,2017,00,00*6A
2017-12-01 16:47:38 1512164858.442453: $GPGGA,214739,3946.9658,N,08404.9755,W,2,12,0.80,300.59,M,-33.324,M,,*79
2017-12-01 16:47:38 1512164858.442523: $GPRMC,214739,A,3946.9658,N,08404.9755,W,0.0000,0.000,011217,,*3D
2017-12-01 16:47:38 1512164858.442587: $GPGSA,A,3,1,10,14,22,31,32,3,12,18,25,26,138,2.0,0.8,1.5*0A
2017-12-01 16:47:39 1512164859.780325: $GPGSV,3,1,12,01,22,292,42,10,40,151,41,14,69,346,44,22,25,310,44*7D
2017-12-01 16:47:39 1512164859.780513: $GPGSV,3,2,12,31,64,234,50,32,65,048,48,03,06,316,29,11,06,276,31*74
2017-12-01 16:47:39 1512164859.780583: $GPGSV,3,3,12,18,11,145,26,25,41,079,27,26,09,181,32,138,38,213,39*41
2017-12-01 16:47:39 1512164859.893989: $GPZDA,214740.00,01,12,2017,00,00*64
2017-12-01 16:47:39 1512164859.894162: $GPGGA,214740,3946.9658,N,08404.9755,W,2,12,0.80,300.59,M,-33.324,M,,*77
2017-12-01 16:47:39 1512164859.894234: $GPRMC,214740,A,3946.9658,N,08404.9755,W,0.0000,0.000,011217,,*33
2017-12-01 16:47:39 1512164859.894298: $GPGSA,A,3,1,10,14,22,31,32,3,11,18,25,26,138,2.0,0.8,1.5*09
2017-12-01 16:47:40 1512164860.442092: $GPZDA,214741.00,01,12,2017,00,00*65
2017-12-01 16:47:40 1512164860.442270: $GPGGA,214741,3946.9658,N,08404.9755,W,2,12,0.80,300.59,M,-33.324,M,,*76
2017-12-01 16:47:40 1512164860.442369: $GPRMC,214741,A,3946.9658,N,08404.9755,W,0.0000,0.000,011217,,*32
2017-12-01 16:47:40 1512164860.442437: $GPGSA,A,3,1,10,14,22,31,32,3,11,18,25,26,138,2.0,0.8,1.5*09
2017-12-01 16:47:41 1512164861.442639: $GPZDA,214742.00,01,12,2017,00,00*66
2017-12-01 16:47:41 1512164861.442835: $GPGGA,214742,3946.9658,N,08404.9755,W,2,12,1.00,300.59,M,-33.324,M,,*7C
2017-12-01 16:47:41 1512164861.442908: $GPRMC,214742,A,3946.9658,N,08404.9755,W,0.0000,0.000,011217,,*31
2017-12-01 16:47:41 1512164861.442977: $GPGSA,A,3,1,10,14,22,31,32,3,11,18,25,26,138,2.0,1.0,1.5*00
2017-12-01 16:47:42 1512164862.774460: $GPGSV,3,1,12,01,22,292,42,10,40,151,41,14,69,346,44,22,25,310,44*7D
2017-12-01 16:47:42 1512164862.774646: $GPGSV,3,2,12,31,64,234,50,32,65,048,48,03,06,316,29,12,18,043,18*77
2017-12-01 16:47:42 1512164862.774719: $GPGSV,3,3,12,18,11,145,25,25,41,079,27,26,09,181,32,138,38,213,38*43
2017-12-01 16:47:42 1512164862.887858: $GPZDA,214743.00,01,12,2017,00,00*67
2017-12-01 16:47:42 1512164862.888015: $GPGGA,214743,3946.9658,N,08404.9755,W,2,12,0.80,300.59,M,-33.324,M,,*74
2017-12-01 16:47:42 1512164862.888084: $GPRMC,214743,A,3946.9658,N,08404.9755,W,0.0000,0.000,011217,,*30
2017-12-01 16:47:42 1512164862.888147: $GPGSA,A,3,1,10,14,22,31,32,3,12,18,25,26,138,2.0,0.8,1.5*0A
2017-12-01 16:47:43 1512164863.442546: $GPZDA,214744.00,01,12,2017,00,00*60
2017-12-01 16:47:43 1512164863.442723: $GPGGA,214744,3946.9658,N,08404.9755,W,2,12,0.80,300.59,M,-33.324,M,,*73
2017-12-01 16:47:43 1512164863.442794: $GPRMC,214744,A,3946.9658,N,08404.9755,W,0.0000,0.000,011217,,*37
2017-12-01 16:47:43 1512164863.442858: $GPGSA,A,3,1,10,14,22,31,32,3,12,18,25,26,138,2.0,0.8,1.5*0A
2017-12-01 16:47:44 1512164864.440774: $GPZDA,214745.00,01,12,2017,00,00*61
2017-12-01 16:47:44 1512164864.440955: $GPGGA,214745,3946.9658,N,08404.9755,W,2,12,0.80,300.59,M,-33.324,M,,*72
2017-12-01 16:47:44 1512164864.441023: $GPRMC,214745,A,3946.9658,N,08404.9755,W,0.0000,0.000,011217,,*36
2017-12-01 16:47:44 1512164864.441086: $GPGSA,A,3,1,10,14,22,31,32,3,12,18,25,26,138,2.0,0.8,1.5*0A
2017-12-01 16:47:45 1512164865.777765: $GPGSV,3,1,12,01,22,292,41,10,40,151,41,14,69,346,43,22,25,310,45*78
2017-12-01 16:47:45 1512164865.777953: $GPGSV,3,2,12,31,64,234,50,32,65,048,48,03,06,316,28,12,18,043,16*78
2017-12-01 16:47:45 1512164865.778019: $GPGSV,3,3,12,18,11,145,25,25,41,079,26,26,09,181,32,138,38,213,40*4D
2017-12-01 16:47:45 1512164865.891119: $GPZDA,214746.00,01,12,2017,00,00*62
2017-12-01 16:47:45 1512164865.891292: $GPGGA,214746,3946.9658,N,08404.9755,W,2,12,0.80,300.59,M,-33.324,M,,*71
2017-12-01 16:47:45 1512164865.891431: $GPRMC,214746,A,3946.9658,N,08404.9755,W,0.0000,0.000,011217,,*35
2017-12-01 16:47:45 1512164865.891496: $GPGSA,A,3,1,10,14,22,31,32,3,12,18,25,26,138,2.0,0.8,1.5*0A
2017-12-01 16:47:46 1512164866.516489: $GPZDA,214747.00,01,12,2017,00,00*63
2017-12-01 16:47:46 1512164866.516681: $GPGGA,214747,3946.9658,N,08404.9755,W,2,12,0.80,300.59,M,-33.324,M,,*70
2017-12-01 16:47:46 1512164866.516748: $GPRMC,214747,A,3946.9658,N,08404.9755,W,0.0000,0.000,011217,,*34
2017-12-01 16:47:46 1512164866.516810: $GPGSA,A,3,1,10,14,22,31,32,3,12,18,25,26,138,2.0,0.8,1.5*0A
2017-12-01 16:47:47 1512164867.442567: $GPZDA,214748.00,01,12,2017,00,00*6C
2017-12-01 16:47:47 1512164867.442742: $GPGGA,214748,3946.9658,N,08404.9755,W,2,12,0.80,300.59,M,-33.324,M,,*7F
2017-12-01 16:47:47 1512164867.442810: $GPRMC,214748,A,3946.9658,N,08404.9755,W,0.0000,0.000,011217,,*3B
2017-12-01 16:47:47 1512164867.442872: $GPGSA,A,3,1,10,14,22,31,32,3,12,18,25,26,138,2.0,0.8,1.5*0A
2017-12-01 16:47:48 1512164868.771923: $GPGSV,3,1,12,01,22,292,41,10,40,151,41,14,69,346,43,22,25,310,46*7B
2017-12-01 16:47:48 1512164868.772104: $GPGSV,3,2,12,31,64,234,50,32,65,048,48,03,06,316,28,11,06,276,33*77
2017-12-01 16:47:48 1512164868.772172: $GPGSV,3,3,12,18,11,145,25,25,41,079,26,26,09,181,32,138,38,213,40*4D
2017-12-01 16:47:48 1512164868.885336: $GPZDA,214749.00,01,12,2017,00,00*6D
2017-12-01 16:47:48 1512164868.885509: $GPGGA,214749,3946.9658,N,08404.9755,W,2,12,0.80,300.59,M,-33.324,M,,*7E
2017-12-01 16:47:48 1512164868.885579: $GPRMC,214749,A,3946.9658,N,08404.9755,W,0.0000,0.000,011217,,*3A
2017-12-01 16:47:48 1512164868.885642: $GPGSA,A,3,1,10,14,22,31,32,3,11,18,25,26,138,2.0,0.8,1.5*09
