2017-12-29 11:10:15 1514563815.087880: {"class":"VERSION","release":"3.16","rev":"3.16-4","proto_major":3,"proto_minor":11}
2017-12-29 11:10:15 1514563815.088199: {"class":"DEVICES","devices":[{"class":"DEVICE","path":"/dev/ttyUSB0","driver":"SiRF","subtype":"9\u0006GSD4e_4.1.2-P1_RPATCH.05-F-GPS-4R-1510281 11/03/2015 307","activated":"2017-12-29T16:10:14.555Z","flags":1,"native":1,"bps":4800,"parity":"N","stopbits":1,"cycle":1.00}]}
2017-12-29 11:10:15 1514563815.088310: {"class":"WATCH","enable":true,"json":false,"nmea":true,"raw":0,"scaled":false,"timing":false,"split24":false,"pps":false}
2017-12-29 11:10:15 1514563815.398978: $GPZDA,161016.00,29,12,2017,00,00*6B
2017-12-29 11:10:15 1514563815.399141: $GPGGA,161016,3946.9581,N,08404.9862,W,2,11,1.40,303.66,M,-33.324,M,,*7F
2017-12-29 11:10:15 1514563815.399207: $GPRMC,161016,A,3946.9581,N,08404.9862,W,0.0000,0.000,291217,,*30
2017-12-29 11:10:15 1514563815.399267: $GPGSA,A,3,8,10,15,18,20,21,24,27,32,13,138,,1.7,1.4,1.3*3C
2017-12-29 11:10:16 1514563816.751923: $GPGSV,3,1,12,08,04,325,19,10,39,298,43,15,40,051,48,18,69,331,42*7E
2017-12-29 11:10:16 1514563816.752075: $GPGSV,3,2,12,20,37,093,48,21,67,193,44,24,49,115,47,27,19,292,38*70
2017-12-29 11:10:16 1514563816.752141: $GPGSV,3,3,12,32,19,235,34,13,10,048,26,14,01,231,00,138,38,213,44*4E
2017-12-29 11:10:16 1514563816.865511: $GPZDA,161017.00,29,12,2017,00,00*6A
2017-12-29 11:10:16 1514563816.865644: $GPGGA,161017,3946.9581,N,08404.9862,W,2,11,1.40,303.66,M,-33.324,M,,*7E
2017-12-29 11:10:16 1514563816.865709: $GPRMC,161017,A,3946.9581,N,08404.9862,W,0.0000,0.000,291217,,*31
2017-12-29 11:10:16 1514563816.865769: $GPGSA,A,3,8,10,15,18,20,21,24,27,32,13,138,,1.7,1.4,1.3*3C
2017-12-29 11:10:17 1514563817.490958: $GPZDA,161018.00,29,12,2017,00,00*65
2017-12-29 11:10:17 1514563817.491167: $GPGGA,161018,3946.9581,N,08404.9862,W,2,11,1.40,303.66,M,-33.324,M,,*71
2017-12-29 11:10:17 1514563817.491234: $GPRMC,161018,A,3946.9581,N,08404.9862,W,0.0000,0.000,291217,,*3E
2017-12-29 11:10:17 1514563817.491294: $GPGSA,A,3,8,10,15,18,20,21,24,27,32,13,138,,1.7,1.4,1.3*3C
2017-12-29 11:10:18 1514563818.420563: $GPZDA,161019.00,29,12,2017,00,00*64
2017-12-29 11:10:18 1514563818.420721: $GPGGA,161019,3946.9581,N,08404.9862,W,2,11,1.40,303.66,M,-33.324,M,,*70
2017-12-29 11:10:18 1514563818.420786: $GPRMC,161019,A,3946.9581,N,08404.9862,W,0.0000,0.000,291217,,*3F
2017-12-29 11:10:18 1514563818.420847: $GPGSA,A,3,8,10,15,18,20,21,24,27,32,13,138,,1.7,1.4,1.3*3C
2017-12-29 11:10:19 1514563819.754815: $GPGSV,3,1,12,08,04,325,27,10,39,298,42,15,40,051,49,18,69,331,42*73
2017-12-29 11:10:19 1514563819.754980: $GPGSV,3,2,12,20,37,093,48,21,67,193,44,24,49,115,47,27,19,292,38*70
2017-12-29 11:10:19 1514563819.755046: $GPGSV,3,3,12,32,19,235,35,13,10,048,26,14,01,231,00,138,38,213,44*4F
2017-12-29 11:10:19 1514563819.868466: $GPZDA,161020.00,29,12,2017,00,00*6E
2017-12-29 11:10:19 1514563819.868604: $GPGGA,161020,3946.9581,N,08404.9862,W,2,11,1.40,303.66,M,-33.324,M,,*7A
2017-12-29 11:10:19 1514563819.868670: $GPRMC,161020,A,3946.9581,N,08404.9862,W,0.0000,0.000,291217,,*35
2017-12-29 11:10:19 1514563819.868731: $GPGSA,A,3,8,10,15,18,20,21,24,27,32,13,138,,1.7,1.4,1.3*3C
2017-12-29 11:10:20 1514563820.400630: $GPZDA,161021.00,29,12,2017,00,00*6F
2017-12-29 11:10:20 1514563820.400786: $GPGGA,161021,3946.9578,N,08404.9863,W,2,11,1.40,304.42,M,-33.324,M,,*7D
2017-12-29 11:10:20 1514563820.400851: $GPRMC,161021,A,3946.9578,N,08404.9863,W,0.4207,39.346,291217,,*09
2017-12-29 11:10:20 1514563820.400912: $GPGSA,A,3,8,10,15,18,20,21,24,27,32,13,138,,1.7,1.4,1.3*3C
2017-12-29 11:10:21 1514563821.413970: $GPZDA,161022.00,29,12,2017,00,00*6C
2017-12-29 11:10:21 1514563821.414127: $GPGGA,161022,3946.9578,N,08404.9863,W,2,11,1.40,304.42,M,-33.324,M,,*7E
2017-12-29 11:10:21 1514563821.414193: $GPRMC,161022,A,3946.9578,N,08404.9863,W,0.0000,0.000,291217,,*30
2017-12-29 11:10:21 1514563821.414253: $GPGSA,A,3,8,10,15,18,20,21,24,27,32,13,138,,1.7,1.4,1.3*3C
2017-12-29 11:10:22 1514563822.732637: $GPGSV,3,1,12,08,04,325,25,10,39,298,42,15,40,051,48,18,69,331,42*70
2017-12-29 11:10:22 1514563822.732850: $GPGSV,3,2,12,20,37,093,48,21,67,193,44,24,49,115,46,27,19,292,38*71
2017-12-29 11:10:22 1514563822.732920: $GPGSV,3,3,12,32,19,235,35,13,10,048,25,14,01,231,00,138,38,213,46*4E
2017-12-29 11:10:22 1514563822.846303: $GPZDA,161023.00,29,12,2017,00,00*6D
2017-12-29 11:10:22 1514563822.846438: $GPGGA,161023,3946.9578,N,08404.9863,W,2,11,1.40,304.42,M,-33.324,M,,*7F
2017-12-29 11:10:22 1514563822.846504: $GPRMC,161023,A,3946.9578,N,08404.9863,W,0.0000,0.000,291217,,*31
2017-12-29 11:10:22 1514563822.846564: $GPGSA,A,3,8,10,15,18,20,21,24,27,32,13,138,,1.7,1.4,1.3*3C
2017-12-29 11:10:23 1514563823.419734: $GPZDA,161024.00,29,12,2017,00,00*6A
2017-12-29 11:10:23 1514563823.419901: $GPGGA,161024,3946.9578,N,08404.9863,W,2,11,1.40,304.42,M,-33.324,M,,*78
2017-12-29 11:10:23 1514563823.419967: $GPRMC,161024,A,3946.9578,N,08404.9863,W,0.0000,0.000,291217,,*36
2017-12-29 11:10:23 1514563823.420027: $GPGSA,A,3,8,10,15,18,20,21,24,27,32,13,138,,1.7,1.4,1.3*3C
2017-12-29 11:10:24 1514563824.421866: $GPZDA,161025.00,29,12,2017,00,00*6B
2017-12-29 11:10:24 1514563824.422032: $GPGGA,161025,3946.9578,N,08404.9863,W,2,11,1.40,304.42,M,-33.324,M,,*79
2017-12-29 11:10:24 1514563824.422098: $GPRMC,161025,A,3946.9578,N,08404.9863,W,0.0000,0.000,291217,,*37
2017-12-29 11:10:24 1514563824.422158: $GPGSA,A,3,8,10,15,18,20,21,24,27,32,13,138,,1.7,1.4,1.3*3C
2017-12-29 11:10:25 1514563825.741030: $GPGSV,3,1,12,08,04,325,26,10,39,298,41,15,40,051,48,18,69,331,42*70
2017-12-29 11:10:25 1514563825.741235: $GPGSV,3,2,12,20,37,093,48,21,67,193,44,24,49,115,46,27,19,292,38*71
2017-12-29 11:10:25 1514563825.741301: $GPGSV,3,3,12,32,19,235,35,13,10,048,25,14,01,231,00,138,38,213,45*4D
2017-12-29 11:10:25 1514563825.853384: $GPZDA,161026.00,29,12,2017,00,00*68
2017-12-29 11:10:25 1514563825.853524: $GPGGA,161026,3946.9578,N,08404.9863,W,2,11,1.40,304.42,M,-33.324,M,,*7A
2017-12-29 11:10:25 1514563825.853589: $GPRMC,161026,A,3946.9578,N,08404.9863,W,0.0000,0.000,291217,,*34
2017-12-29 11:10:25 1514563825.853649: $GPGSA,A,3,8,10,15,18,20,21,24,27,32,13,138,,1.7,1.4,1.3*3C
2017-12-29 11:10:26 1514563826.419253: $GPZDA,161027.00,29,12,2017,00,00*69
2017-12-29 11:10:26 1514563826.419419: $GPGGA,161027,3946.9578,N,08404.9863,W,2,11,1.40,304.42,M,-33.324,M,,*7B
2017-12-29 11:10:26 1514563826.419486: $GPRMC,161027,A,3946.9578,N,08404.9863,W,0.0000,0.000,291217,,*35
2017-12-29 11:10:26 1514563826.419547: $GPGSA,A,3,8,10,15,18,20,21,24,27,32,13,138,,1.7,1.4,1.3*3C
2017-12-29 11:10:27 1514563827.397129: $GPZDA,161028.00,29,12,2017,00,00*66
2017-12-29 11:10:27 1514563827.397296: $GPGGA,161028,3946.9578,N,08404.9863,W,2,11,1.40,304.42,M,-33.324,M,,*74
2017-12-29 11:10:27 1514563827.397362: $GPRMC,161028,A,3946.9578,N,08404.9863,W,0.0000,0.000,291217,,*3A
2017-12-29 11:10:27 1514563827.397423: $GPGSA,A,3,8,10,15,18,20,21,24,27,32,13,138,,1.7,1.4,1.3*3C
2017-12-29 11:10:28 1514563828.732616: $GPGSV,3,1,12,08,04,325,25,10,39,298,41,15,40,051,48,18,69,331,42*73
2017-12-29 11:10:28 1514563828.732766: $GPGSV,3,2,12,20,37,093,48,21,67,193,44,24,49,115,47,27,19,292,38*70
2017-12-29 11:10:28 1514563828.732832: $GPGSV,3,3,12,32,19,235,35,13,10,048,26,14,01,231,00,138,38,213,44*4F
2017-12-29 11:10:28 1514563828.846223: $GPZDA,161029.00,29,12,2017,00,00*67
2017-12-29 11:10:28 1514563828.846355: $GPGGA,161029,3946.9578,N,08404.9863,W,2,11,1.40,304.42,M,-33.324,M,,*75
2017-12-29 11:10:28 1514563828.846421: $GPRMC,161029,A,3946.9578,N,08404.9863,W,0.0000,0.000,291217,,*3B
2017-12-29 11:10:28 1514563828.846481: $GPGSA,A,3,8,10,15,18,20,21,24,27,32,13,138,,1.7,1.4,1.3*3C
2017-12-29 11:10:29 1514563829.419609: $GPZDA,161030.00,29,12,2017,00,00*6F
2017-12-29 11:10:29 1514563829.419765: $GPGGA,161030,3946.9578,N,08404.9863,W,2,11,1.40,304.42,M,-33.324,M,,*7D
2017-12-29 11:10:29 1514563829.419831: $GPRMC,161030,A,3946.9578,N,08404.9863,W,0.0000,0.000,291217,,*33
2017-12-29 11:10:29 1514563829.419892: $GPGSA,A,3,8,10,15,18,20,21,24,27,32,13,138,,1.7,1.4,1.3*3C
2017-12-29 11:10:30 1514563830.419233: $GPZDA,161031.00,29,12,2017,00,00*6E
2017-12-29 11:10:30 1514563830.419438: $GPGGA,161031,3946.9578,N,08404.9863,W,2,11,1.40,304.42,M,-33.324,M,,*7C
2017-12-29 11:10:30 1514563830.419506: $GPRMC,161031,A,3946.9578,N,08404.9863,W,0.0000,0.000,291217,,*32
2017-12-29 11:10:30 1514563830.419566: $GPGSA,A,3,8,10,15,18,20,21,24,27,32,13,138,,1.7,1.4,1.3*3C
2017-12-29 11:10:31 1514563831.738489: $GPGSV,3,1,12,08,04,325,25,10,39,298,41,15,40,051,48,18,69,331,42*73
2017-12-29 11:10:31 1514563831.738657: $GPGSV,3,2,12,20,37,093,48,21,67,193,44,24,49,115,47,27,19,292,38*70
2017-12-29 11:10:31 1514563831.738723: $GPGSV,3,3,12,32,19,235,35,13,10,048,25,14,01,231,00,138,38,213,45*4D
2017-12-29 11:10:31 1514563831.852138: $GPZDA,161032.00,29,12,2017,00,00*6D
2017-12-29 11:10:31 1514563831.852270: $GPGGA,161032,3946.9578,N,08404.9863,W,2,11,1.40,304.42,M,-33.324,M,,*7F
2017-12-29 11:10:31 1514563831.852336: $GPRMC,161032,A,3946.9578,N,08404.9863,W,0.0000,0.000,291217,,*31
2017-12-29 11:10:31 1514563831.852396: $GPGSA,A,3,8,10,15,18,20,21,24,27,32,13,138,,1.7,1.4,1.3*3C
2017-12-29 11:10:32 1514563832.477501: $GPZDA,161033.00,29,12,2017,00,00*6C
2017-12-29 11:10:32 1514563832.477661: $GPGGA,161033,3946.9578,N,08404.9863,W,2,11,1.40,304.42,M,-33.324,M,,*7E
2017-12-29 11:10:32 1514563832.477727: $GPRMC,161033,A,3946.9578,N,08404.9863,W,0.2422,273.794,291217,,*3A
2017-12-29 11:10:32 1514563832.477788: $GPGSA,A,3,8,10,15,18,20,21,24,27,32,13,138,,1.7,1.4,1.3*3C
2017-12-29 11:10:33 1514563833.419607: $GPZDA,161034.00,29,12,2017,00,00*6B
2017-12-29 11:10:33 1514563833.419761: $GPGGA,161034,3946.9578,N,08404.9863,W,2,11,1.40,304.42,M,-33.324,M,,*79
2017-12-29 11:10:33 1514563833.419827: $GPRMC,161034,A,3946.9578,N,08404.9863,W,0.2422,93.794,291217,,*01
2017-12-29 11:10:33 1514563833.419888: $GPGSA,A,3,8,10,15,18,20,21,24,27,32,13,138,,1.7,1.4,1.3*3C
2017-12-29 11:10:34 1514563834.740096: $GPGSV,3,1,12,08,04,325,24,10,39,298,40,15,40,051,48,18,69,331,42*73
2017-12-29 11:10:34 1514563834.740259: $GPGSV,3,2,12,20,37,093,48,21,67,193,44,24,49,115,46,27,19,292,37*7E
2017-12-29 11:10:34 1514563834.740326: $GPGSV,3,3,12,32,19,235,35,13,10,048,25,14,01,231,00,138,38,213,44*4C
2017-12-29 11:10:34 1514563834.853701: $GPZDA,161035.00,29,12,2017,00,00*6A
2017-12-29 11:10:34 1514563834.853831: $GPGGA,161035,3946.9577,N,08404.9856,W,2,11,1.60,304.50,M,-33.324,M,,*70
2017-12-29 11:10:34 1514563834.853895: $GPRMC,161035,A,3946.9577,N,08404.9856,W,0.5951,58.684,291217,,*00
2017-12-29 11:10:34 1514563834.853956: $GPGSA,A,3,8,10,15,18,20,21,24,27,32,13,138,,1.7,1.6,1.3*3E
2017-12-29 11:10:35 1514563835.419600: $GPZDA,161036.00,29,12,2017,00,00*69
2017-12-29 11:10:35 1514563835.419765: $GPGGA,161036,3946.9577,N,08404.9856,W,2,11,1.60,304.50,M,-33.324,M,,*73
2017-12-29 11:10:35 1514563835.419831: $GPRMC,161036,A,3946.9577,N,08404.9856,W,0.5617,31.295,291217,,*05
2017-12-29 11:10:35 1514563835.419892: $GPGSA,A,3,8,10,15,18,20,21,24,27,32,13,138,,1.7,1.6,1.3*3E
2017-12-29 11:10:36 1514563836.401758: $GPZDA,161037.00,29,12,2017,00,00*68
2017-12-29 11:10:36 1514563836.401923: $GPGGA,161037,3946.9573,N,08404.9856,W,2,11,1.60,303.86,M,-33.324,M,,*7A
2017-12-29 11:10:36 1514563836.401989: $GPRMC,161037,A,3946.9573,N,08404.9856,W,0.5287,2.716,291217,,*33
2017-12-29 11:10:36 1514563836.402049: $GPGSA,A,3,8,10,15,18,20,21,24,27,32,13,138,,1.7,1.6,1.3*3E
2017-12-29 11:10:37 1514563837.756720: $GPGSV,3,1,12,08,04,325,24,10,39,298,40,15,40,051,48,18,69,331,42*73
2017-12-29 11:10:37 1514563837.756904: $GPGSV,3,2,12,20,37,093,48,21,67,193,44,24,49,115,46,27,19,292,37*7E
2017-12-29 11:10:37 1514563837.756969: $GPGSV,3,3,12,32,19,235,36,13,10,048,25,14,01,231,00,138,38,213,44*4F
2017-12-29 11:10:37 1514563837.870299: $GPZDA,161038.00,29,12,2017,00,00*67
2017-12-29 11:10:37 1514563837.870430: $GPGGA,161038,3946.9573,N,08404.9856,W,2,11,1.80,303.86,M,-33.324,M,,*7B
2017-12-29 11:10:37 1514563837.870496: $GPRMC,161038,A,3946.9573,N,08404.9856,W,0.0000,0.000,291217,,*36
2017-12-29 11:10:37 1514563837.870557: $GPGSA,A,3,8,10,15,18,20,21,24,27,32,13,138,,1.7,1.8,1.3*30
2017-12-29 11:10:38 1514563838.421243: $GPZDA,161039.00,29,12,2017,00,00*66
2017-12-29 11:10:38 1514563838.421411: $GPGGA,161039,3946.9573,N,08404.9856,W,2,11,1.80,303.86,M,-33.324,M,,*7A
2017-12-29 11:10:38 1514563838.421476: $GPRMC,161039,A,3946.9573,N,08404.9856,W,0.0000,0.000,291217,,*37
2017-12-29 11:10:38 1514563838.421536: $GPGSA,A,3,8,10,15,18,20,21,24,27,32,13,138,,1.7,1.8,1.3*30
2017-12-29 11:10:39 1514563839.402129: $GPZDA,161040.00,29,12,2017,00,00*68
2017-12-29 11:10:39 1514563839.402298: $GPGGA,161040,3946.9573,N,08404.9856,W,2,11,1.80,303.86,M,-33.324,M,,*74
2017-12-29 11:10:39 1514563839.402365: $GPRMC,161040,A,3946.9573,N,08404.9856,W,0.0000,0.000,291217,,*39
2017-12-29 11:10:39 1514563839.402425: $GPGSA,A,3,8,10,15,18,20,21,24,27,32,13,138,,1.7,1.8,1.3*30
