2017-12-31 16:53:39 1514757219.498142: {"class":"VERSION","release":"3.16","rev":"3.16-4","proto_major":3,"proto_minor":11}
2017-12-31 16:53:39 1514757219.498501: {"class":"DEVICES","devices":[{"class":"DEVICE","path":"/dev/ttyUSB0","driver":"SiRF","activated":"2017-12-31T21:53:39.229Z","flags":1,"native":1,"bps":4800,"parity":"N","stopbits":1,"cycle":1.00}]}
2017-12-31 16:53:39 1514757219.498603: {"class":"WATCH","enable":true,"json":false,"nmea":true,"raw":0,"scaled":false,"timing":false,"split24":false,"pps":false}
2017-12-31 16:53:39 1514757219.678935: $GPGSV,3,1,11,22,47,247,42,23,22,306,40,25,07,037,21,03,46,280,39*79
2017-12-31 16:53:39 1514757219.679084: $GPGSV,3,2,11,16,39,190,46,29,14,060,23,31,55,045,51,14,45,108,42*7A
2017-12-31 16:53:39 1514757219.679148: $GPGSV,3,3,11,32,24,118,45,26,69,157,43,135,22,240,43*7E
2017-12-31 16:53:39 1514757219.792620: $GPZDA,215340.00,31,12,2017,00,00*62
2017-12-31 16:53:39 1514757219.792778: $GPGGA,215340,3946.9581,N,08404.9855,W,2,11,0.80,303.74,M,-33.324,M,,*75
2017-12-31 16:53:39 1514757219.792843: $GPRMC,215340,A,3946.9581,N,08404.9855,W,0.0000,0.000,311217,,*3D
2017-12-31 16:53:39 1514757219.792903: $GPGSA,A,3,22,23,25,3,16,29,31,14,32,26,135,,1.7,0.8,1.3*32
2017-12-31 16:53:40 1514757220.418042: $GPZDA,215341.00,31,12,2017,00,00*63
2017-12-31 16:53:40 1514757220.418187: $GPGGA,215341,3946.9581,N,08404.9855,W,2,11,0.80,303.74,M,-33.324,M,,*74
2017-12-31 16:53:40 1514757220.418251: $GPRMC,215341,A,3946.9581,N,08404.9855,W,0.0000,0.000,311217,,*3C
2017-12-31 16:53:40 1514757220.418310: $GPGSA,A,3,22,23,25,3,16,29,31,14,32,26,135,,1.7,0.8,1.3*32
2017-12-31 16:53:41 1514757221.360158: $GPZDA,215342.00,31,12,2017,00,00*60
2017-12-31 16:53:41 1514757221.360331: $GPGGA,215342,3946.9581,N,08404.9855,W,2,11,0.80,303.74,M,-33.324,M,,*77
2017-12-31 16:53:41 1514757221.360398: $GPRMC,215342,A,3946.9581,N,08404.9855,W,0.0000,0.000,311217,,*3F
2017-12-31 16:53:41 1514757221.360459: $GPGSA,A,3,22,23,25,3,16,29,31,14,32,26,135,,1.7,0.8,1.3*32
2017-12-31 16:53:42 1514757222.679303: $GPGSV,3,1,11,22,47,247,42,23,22,306,40,25,07,037,21,03,46,280,38*78
2017-12-31 16:53:42 1514757222.679459: $GPGSV,3,2,11,16,39,190,46,29,14,060,22,31,55,045,51,14,45,108,42*7B
2017-12-31 16:53:42 1514757222.679527: $GPGSV,3,3,11,32,24,118,45,26,69,157,44,135,22,240,42*78
2017-12-31 16:53:42 1514757222.792964: $GPZDA,215343.00,31,12,2017,00,00*61
2017-12-31 16:53:42 1514757222.793126: $GPGGA,215343,3946.9581,N,08404.9855,W,2,11,0.80,303.74,M,-33.324,M,,*76
2017-12-31 16:53:42 1514757222.793192: $GPRMC,215343,A,3946.9581,N,08404.9855,W,0.0000,0.000,311217,,*3E
2017-12-31 16:53:42 1514757222.793254: $GPGSA,A,3,22,23,25,3,16,29,31,14,32,26,135,,1.7,0.8,1.3*32
2017-12-31 16:53:43 1514757223.337640: $GPZDA,215344.00,31,12,2017,00,00*66
2017-12-31 16:53:43 1514757223.337790: $GPGGA,215344,3946.9581,N,08404.9855,W,2,11,0.80,303.74,M,-33.324,M,,*71
2017-12-31 16:53:43 1514757223.337857: $GPRMC,215344,A,3946.9581,N,08404.9855,W,0.0000,0.000,311217,,*39
2017-12-31 16:53:43 1514757223.337918: $GPGSA,A,3,22,23,25,3,16,29,31,14,32,26,135,,1.7,0.8,1.3*32
2017-12-31 16:53:44 1514757224.343443: $GPZDA,215345.00,31,12,2017,00,00*67
2017-12-31 16:53:44 1514757224.343617: $GPGGA,215345,3946.9581,N,08404.9855,W,2,11,0.80,303.74,M,-33.324,M,,*70
2017-12-31 16:53:44 1514757224.343685: $GPRMC,215345,A,3946.9581,N,08404.9855,W,0.0000,0.000,311217,,*38
2017-12-31 16:53:44 1514757224.343748: $GPGSA,A,3,22,23,25,3,16,29,31,14,32,26,135,,1.7,0.8,1.3*32
2017-12-31 16:53:45 1514757225.679638: $GPGSV,3,1,11,22,47,247,42,23,22,306,41,25,07,037,21,03,46,280,39*78
2017-12-31 16:53:45 1514757225.682679: $GPGSV,3,2,11,16,39,190,46,29,14,060,22,31,55,045,51,14,45,108,42*7B
2017-12-31 16:53:45 1514757225.682785: $GPGSV,3,3,11,32,24,118,46,26,69,157,43,135,22,240,44*7A
2017-12-31 16:53:45 1514757225.793404: $GPZDA,215346.00,31,12,2017,00,00*64
2017-12-31 16:53:45 1514757225.793549: $GPGGA,215346,3946.9581,N,08404.9855,W,2,11,0.80,303.74,M,-33.324,M,,*73
2017-12-31 16:53:45 1514757225.793618: $GPRMC,215346,A,3946.9581,N,08404.9855,W,0.0000,0.000,311217,,*3B
2017-12-31 16:53:45 1514757225.793727: $GPGSA,A,3,22,23,25,3,16,29,31,14,32,26,135,,1.7,0.8,1.3*32
2017-12-31 16:53:46 1514757226.344199: $GPZDA,215347.00,31,12,2017,00,00*65
2017-12-31 16:53:46 1514757226.344367: $GPGGA,215347,3946.9581,N,08404.9855,W,2,11,0.80,303.74,M,-33.324,M,,*72
2017-12-31 16:53:46 1514757226.344435: $GPRMC,215347,A,3946.9581,N,08404.9855,W,0.0000,0.000,311217,,*3A
2017-12-31 16:53:46 1514757226.344495: $GPGSA,A,3,22,23,25,3,16,29,31,14,32,26,135,,1.7,0.8,1.3*32
2017-12-31 16:53:47 1514757227.343782: $GPZDA,215348.00,31,12,2017,00,00*6A
2017-12-31 16:53:47 1514757227.343948: $GPGGA,215348,3946.9581,N,08404.9855,W,2,11,0.80,303.74,M,-33.324,M,,*7D
2017-12-31 16:53:47 1514757227.344018: $GPRMC,215348,A,3946.9581,N,08404.9855,W,0.0000,0.000,311217,,*35
2017-12-31 16:53:47 1514757227.344081: $GPGSA,A,3,22,23,25,3,16,29,31,14,32,26,135,,1.7,0.8,1.3*32
2017-12-31 16:53:48 1514757228.687390: $GPGSV,3,1,11,22,47,246,42,23,24,306,41,25,05,037,22,03,46,277,39*76
2017-12-31 16:53:48 1514757228.687544: $GPGSV,3,2,11,16,41,190,46,29,14,060,21,31,53,046,51,14,44,109,42*72
2017-12-31 16:53:48 1514757228.687612: $GPGSV,3,3,11,32,22,120,46,26,70,154,44,135,22,240,43*7C
2017-12-31 16:53:48 1514757228.800955: $GPZDA,215349.00,31,12,2017,00,00*6B
2017-12-31 16:53:48 1514757228.801096: $GPGGA,215349,3946.9581,N,08404.9855,W,2,11,0.80,303.74,M,-33.324,M,,*7C
2017-12-31 16:53:48 1514757228.801186: $GPRMC,215349,A,3946.9581,N,08404.9855,W,0.0000,0.000,311217,,*34
2017-12-31 16:53:48 1514757228.801251: $GPGSA,A,3,22,23,25,3,16,29,31,14,32,26,135,,1.7,0.8,1.3*32
2017-12-31 16:53:49 1514757229.344340: $GPZDA,215350.00,31,12,2017,00,00*63
2017-12-31 16:53:49 1514757229.344509: $GPGGA,215350,3946.9581,N,08404.9855,W,2,11,0.80,303.74,M,-33.324,M,,*74
2017-12-31 16:53:49 1514757229.344578: $GPRMC,215350,A,3946.9581,N,08404.9855,W,0.0000,0.000,311217,,*3C
2017-12-31 16:53:49 1514757229.344642: $GPGSA,A,3,22,23,25,3,16,29,31,14,32,26,135,,1.7,0.8,1.3*32
