2017-12-29 10:37:44 1514561864.061656: {"class":"VERSION","release":"3.16","rev":"3.16-4","proto_major":3,"proto_minor":11}
2017-12-29 10:37:44 1514561864.062056: {"class":"DEVICES","devices":[{"class":"DEVICE","path":"/dev/ttyUSB0","driver":"SiRF","subtype":"9\u0006GSD4e_4.1.2-P1_RPATCH.05-F-GPS-4R-1510281 11/03/2015 307","activated":"2017-12-29T15:37:43.657Z","flags":1,"native":1,"bps":4800,"parity":"N","stopbits":1,"cycle":1.00}]}
2017-12-29 10:37:44 1514561864.062170: {"class":"WATCH","enable":true,"json":false,"nmea":true,"raw":0,"scaled":false,"timing":false,"split24":false,"pps":false}
2017-12-29 10:37:44 1514561864.339150: $GPZDA,153745.00,29,12,2017,00,00*6B
2017-12-29 10:37:44 1514561864.339302: $GPGGA,153745,3946.9588,N,08404.9804,W,2,11,0.80,300.60,M,-33.324,M,,*7E
2017-12-29 10:37:44 1514561864.339369: $GPRMC,153745,A,3946.9588,N,08404.9804,W,0.0000,0.000,291217,,*39
2017-12-29 10:37:44 1514561864.339429: $GPGSA,A,3,10,13,15,18,20,21,24,27,29,32,138,,1.7,0.8,1.3*02
2017-12-29 10:37:45 1514561865.674839: $GPGSV,3,1,11,10,28,288,42,13,23,045,46,15,54,049,50,18,59,309,42*70
2017-12-29 10:37:45 1514561865.675005: $GPGSV,3,2,11,20,48,078,48,21,78,232,47,24,39,133,49,27,18,307,32*70
2017-12-29 10:37:45 1514561865.675073: $GPGSV,3,3,11,29,05,189,38,32,07,228,29,138,38,213,44*78
2017-12-29 10:37:45 1514561865.788163: $GPZDA,153746.00,29,12,2017,00,00*68
2017-12-29 10:37:45 1514561865.788287: $GPGGA,153746,3946.9588,N,08404.9804,W,2,11,0.80,300.60,M,-33.324,M,,*7D
2017-12-29 10:37:45 1514561865.788349: $GPRMC,153746,A,3946.9588,N,08404.9804,W,0.0000,0.000,291217,,*3A
2017-12-29 10:37:45 1514561865.788409: $GPGSA,A,3,10,13,15,18,20,21,24,27,29,32,138,,1.7,0.8,1.3*02
2017-12-29 10:37:46 1514561866.340312: $GPZDA,153747.00,29,12,2017,00,00*69
2017-12-29 10:37:46 1514561866.340472: $GPGGA,153747,3946.9588,N,08404.9804,W,2,11,0.80,300.60,M,-33.324,M,,*7C
2017-12-29 10:37:46 1514561866.340537: $GPRMC,153747,A,3946.9588,N,08404.9804,W,0.0000,0.000,291217,,*3B
2017-12-29 10:37:46 1514561866.340597: $GPGSA,A,3,10,13,15,18,20,21,24,27,29,32,138,,1.7,0.8,1.3*02
2017-12-29 10:37:47 1514561867.339941: $GPZDA,153748.00,29,12,2017,00,00*66
2017-12-29 10:37:47 1514561867.340107: $GPGGA,153748,3946.9588,N,08404.9804,W,2,11,0.80,300.60,M,-33.324,M,,*73
2017-12-29 10:37:47 1514561867.340172: $GPRMC,153748,A,3946.9588,N,08404.9804,W,0.0000,0.000,291217,,*34
2017-12-29 10:37:47 1514561867.340233: $GPGSA,A,3,10,13,15,18,20,21,24,27,29,32,138,,1.7,0.8,1.3*02
2017-12-29 10:37:48 1514561868.675672: $GPGSV,3,1,11,10,28,288,42,13,23,045,45,15,54,049,50,18,59,309,42*73
2017-12-29 10:37:48 1514561868.675837: $GPGSV,3,2,11,20,48,078,48,21,78,232,47,24,39,133,49,27,18,307,28*7B
2017-12-29 10:37:48 1514561868.675902: $GPGSV,3,3,11,29,05,189,38,32,07,228,23,138,38,213,46*70
2017-12-29 10:37:48 1514561868.788990: $GPZDA,153749.00,29,12,2017,00,00*67
2017-12-29 10:37:48 1514561868.789107: $GPGGA,153749,3946.9588,N,08404.9804,W,2,11,0.80,300.60,M,-33.324,M,,*72
2017-12-29 10:37:48 1514561868.789170: $GPRMC,153749,A,3946.9588,N,08404.9804,W,0.0000,0.000,291217,,*35
2017-12-29 10:37:48 1514561868.789230: $GPGSA,A,3,10,13,15,18,20,21,24,27,29,32,138,,1.7,0.8,1.3*02
2017-12-29 10:37:49 1514561869.414412: $GPZDA,153750.00,29,12,2017,00,00*6F
2017-12-29 10:37:49 1514561869.414567: $GPGGA,153750,3946.9588,N,08404.9811,W,2,11,0.80,300.52,M,-33.324,M,,*7F
2017-12-29 10:37:49 1514561869.414632: $GPRMC,153750,A,3946.9588,N,08404.9811,W,0.2959,54.767,291217,,*09
2017-12-29 10:37:49 1514561869.414692: $GPGSA,A,3,10,13,15,18,20,21,24,27,29,32,138,,1.7,0.8,1.3*02
2017-12-29 10:37:50 1514561870.341576: $GPZDA,153751.00,29,12,2017,00,00*6E
2017-12-29 10:37:50 1514561870.341745: $GPGGA,153751,3946.9588,N,08404.9811,W,2,11,0.80,300.52,M,-33.324,M,,*7E
2017-12-29 10:37:50 1514561870.341811: $GPRMC,153751,A,3946.9588,N,08404.9811,W,0.0000,0.000,291217,,*38
2017-12-29 10:37:50 1514561870.341872: $GPGSA,A,3,10,13,15,18,20,21,24,27,29,32,138,,1.7,0.8,1.3*02
2017-12-29 10:37:51 1514561871.674770: $GPGSV,3,1,11,10,28,288,42,13,23,045,45,15,54,049,51,18,59,309,42*72
2017-12-29 10:37:51 1514561871.674987: $GPGSV,3,2,11,20,48,078,48,21,78,232,47,24,39,133,49,27,18,307,30*72
2017-12-29 10:37:51 1514561871.675055: $GPGSV,3,3,11,29,05,189,37,32,07,228,14,138,38,213,45*78
2017-12-29 10:37:51 1514561871.788088: $GPZDA,153752.00,29,12,2017,00,00*6D
2017-12-29 10:37:51 1514561871.788200: $GPGGA,153752,3946.9588,N,08404.9811,W,2,11,0.80,300.52,M,-33.324,M,,*7D
2017-12-29 10:37:51 1514561871.788265: $GPRMC,153752,A,3946.9588,N,08404.9811,W,0.0000,0.000,291217,,*3B
2017-12-29 10:37:51 1514561871.788324: $GPGSA,A,3,10,13,15,18,20,21,24,27,29,32,138,,1.7,0.8,1.3*02
2017-12-29 10:37:52 1514561872.339006: $GPZDA,153753.00,29,12,2017,00,00*6C
2017-12-29 10:37:52 1514561872.339189: $GPGGA,153753,3946.9588,N,08404.9811,W,2,11,0.80,300.52,M,-33.324,M,,*7C
2017-12-29 10:37:52 1514561872.339257: $GPRMC,153753,A,3946.9588,N,08404.9811,W,0.0000,0.000,291217,,*3A
2017-12-29 10:37:52 1514561872.339317: $GPGSA,A,3,10,13,15,18,20,21,24,27,29,32,138,,1.7,0.8,1.3*02
2017-12-29 10:37:53 1514561873.339851: $GPZDA,153754.00,29,12,2017,00,00*6B
2017-12-29 10:37:53 1514561873.340019: $GPGGA,153754,3946.9588,N,08404.9811,W,2,11,0.80,300.52,M,-33.324,M,,*7B
2017-12-29 10:37:53 1514561873.340086: $GPRMC,153754,A,3946.9588,N,08404.9811,W,0.0000,0.000,291217,,*3D
2017-12-29 10:37:53 1514561873.340146: $GPGSA,A,3,10,13,15,18,20,21,24,27,29,32,138,,1.7,0.8,1.3*02
