2018-01-11 20:09:43 1515719383.707216: {"class":"VERSION","release":"3.16","rev":"3.16-4","proto_major":3,"proto_minor":11}
2018-01-11 20:09:43 1515719383.707552: {"class":"DEVICES","devices":[{"class":"DEVICE","path":"/dev/ttyUSB0","driver":"SiRF","subtype":"9\u0006GSD4e_4.1.2-P1_RPATCH.05-F-GPS-4R-1510281 11/03/2015 307","activated":"2018-01-12T01:09:43.686Z","flags":1,"native":1,"bps":4800,"parity":"N","stopbits":1,"cycle":1.00}]}
2018-01-11 20:09:43 1515719383.707678: {"class":"WATCH","enable":true,"json":false,"nmea":true,"raw":0,"scaled":false,"timing":false,"split24":false,"pps":false}
2018-01-11 20:09:43 1515719383.864343: $GPZDA,010944.56,12,01,2018,00,00*64
2018-01-11 20:09:43 1515719383.864509: $GPGGA,010944,3946.9578,N,08404.9826,W,1,10,1.00,301.25,M,-33.324,M,,*73
2018-01-11 20:09:43 1515719383.864575: $GPRMC,010944,A,3946.9578,N,08404.9826,W,0.2365,305.883,120118,,*3D
2018-01-11 20:09:43 1515719383.864637: $GPGSA,A,3,7,8,9,11,16,23,27,28,30,138,,,4.0,1.0,3.5*37
2018-01-11 20:09:43 1515719383.864694: $GPGBS,010944,14.62,M,24.83,M,80.38,M*09
2018-01-11 20:09:44 1515719384.899659: $GPZDA,010945.24,12,01,2018,00,00*60
2018-01-11 20:09:44 1515719384.899833: $GPGGA,010945,3946.9578,N,08404.9826,W,1,10,1.00,301.25,M,-33.324,M,,*72
2018-01-11 20:09:44 1515719384.899899: $GPRMC,010945,A,3946.9578,N,08404.9826,W,0.2202,173.469,120118,,*37
2018-01-11 20:09:44 1515719384.899960: $GPGSA,A,3,7,8,9,11,16,23,27,28,30,138,,,4.0,1.0,3.5*37
2018-01-11 20:09:45 1515719385.995593: $GPGSV,3,1,10,07,55,315,42,08,73,133,47,09,48,229,44,11,20,168,48*7F
2018-01-11 20:09:45 1515719385.995759: $GPGSV,3,2,10,16,23,060,47,23,29,190,47,27,48,054,49,28,14,258,39*74
2018-01-11 20:09:45 1515719385.995826: $GPGSV,3,3,10,30,29,306,00,138,38,213,44*44
2018-01-11 20:09:46 1515719386.109371: $GPZDA,010946.00,12,01,2018,00,00*65
2018-01-11 20:09:46 1515719386.109510: $GPGGA,010946,3946.9578,N,08404.9826,W,1,09,1.00,301.25,M,-33.324,M,,*79
2018-01-11 20:09:46 1515719386.109576: $GPRMC,010946,A,3946.9578,N,08404.9826,W,0.0407,142.014,120118,,*39
2018-01-11 20:09:46 1515719386.109651: $GPGSA,A,3,7,8,9,11,16,23,27,28,138,,,,4.0,1.0,3.5*34
2018-01-11 20:09:46 1515719386.561442: $GPZDA,010947.00,12,01,2018,00,00*64
2018-01-11 20:09:46 1515719386.561591: $GPGGA,010947,3946.9578,N,08404.9826,W,1,09,0.80,301.25,M,-33.324,M,,*71
2018-01-11 20:09:46 1515719386.561656: $GPRMC,010947,A,3946.9578,N,08404.9826,W,0.0000,0.000,120118,,*39
2018-01-11 20:09:46 1515719386.561716: $GPGSA,A,3,7,8,9,11,16,23,27,28,138,,,,4.0,0.8,3.5*3D
2018-01-11 20:09:47 1515719387.352335: $GPZDA,010948.00,12,01,2018,00,00*6B
2018-01-11 20:09:47 1515719387.352501: $GPGGA,010948,3946.9578,N,08404.9826,W,1,09,0.80,301.25,M,-33.324,M,,*7E
2018-01-11 20:09:47 1515719387.352567: $GPRMC,010948,A,3946.9578,N,08404.9826,W,0.0000,0.000,120118,,*36
2018-01-11 20:09:47 1515719387.352628: $GPGSA,A,3,7,8,9,11,16,23,27,28,138,,,,4.0,0.8,3.5*3D
2018-01-11 20:09:48 1515719388.688442: $GPGSV,3,1,10,07,55,315,44,08,73,133,47,09,48,229,44,11,20,168,48*79
2018-01-11 20:09:48 1515719388.688601: $GPGSV,3,2,10,16,23,060,47,23,29,190,47,27,48,054,50,28,14,258,40*72
2018-01-11 20:09:48 1515719388.688666: $GPGSV,3,3,10,30,29,306,28,138,38,213,46*4C
2018-01-11 20:09:48 1515719388.800949: $GPZDA,010949.00,12,01,2018,00,00*6A
2018-01-11 20:09:48 1515719388.801117: $GPGGA,010949,3946.9578,N,08404.9826,W,1,10,0.80,301.25,M,-33.324,M,,*77
2018-01-11 20:09:48 1515719388.801184: $GPRMC,010949,A,3946.9578,N,08404.9826,W,0.0000,0.000,120118,,*37
2018-01-11 20:09:48 1515719388.801245: $GPGSA,A,3,7,8,9,11,16,23,27,28,30,138,,,4.0,0.8,3.5*3E
2018-01-11 20:09:49 1515719389.353027: $GPZDA,010950.00,12,01,2018,00,00*62
2018-01-11 20:09:49 1515719389.353183: $GPGGA,010950,3946.9581,N,08404.9825,W,1,10,0.80,300.48,M,-33.324,M,,*70
2018-01-11 20:09:49 1515719389.353249: $GPRMC,010950,A,3946.9581,N,08404.9825,W,0.0000,0.000,120118,,*3A
2018-01-11 20:09:49 1515719389.353309: $GPGSA,A,3,7,8,9,11,16,23,27,28,30,138,,,4.0,0.8,3.5*3E
2018-01-11 20:09:50 1515719390.353873: $GPZDA,010951.00,12,01,2018,00,00*63
2018-01-11 20:09:50 1515719390.354097: $GPGGA,010951,3946.9582,N,08404.9832,W,1,10,0.80,300.40,M,-33.324,M,,*7C
2018-01-11 20:09:50 1515719390.354166: $GPRMC,010951,A,3946.9582,N,08404.9832,W,0.0000,0.000,120118,,*3E
2018-01-11 20:09:50 1515719390.354227: $GPGSA,A,3,7,8,9,11,16,23,27,28,30,138,,,4.0,0.8,3.5*3E
2018-01-11 20:09:50 1515719390.354284: $GPGBS,010951,14.62,M,24.83,M,80.38,M*0D
2018-01-11 20:09:51 1515719391.689294: $GPGSV,3,1,10,07,55,315,44,08,73,133,47,09,48,229,43,11,20,168,48*7E
2018-01-11 20:09:51 1515719391.689453: $GPGSV,3,2,10,16,23,060,47,23,29,190,47,27,48,054,50,28,14,258,39*7C
2018-01-11 20:09:51 1515719391.689518: $GPGSV,3,3,10,30,29,306,28,138,38,213,46*4C
2018-01-11 20:09:51 1515719391.801362: $GPZDA,010952.00,12,01,2018,00,00*60
2018-01-11 20:09:51 1515719391.801535: $GPGGA,010952,3946.9581,N,08404.9832,W,2,10,2.40,299.00,M,-33.324,M,,*74
2018-01-11 20:09:51 1515719391.801600: $GPRMC,010952,A,3946.9581,N,08404.9832,W,0.0000,0.000,120118,,*3E
2018-01-11 20:09:51 1515719391.801660: $GPGSA,A,3,7,8,9,11,16,23,27,28,30,138,,,4.0,2.4,3.5*30
2018-01-11 20:09:52 1515719392.353687: $GPZDA,010953.00,12,01,2018,00,00*61
2018-01-11 20:09:52 1515719392.353838: $GPGGA,010953,3946.9577,N,08404.9839,W,2,10,1.40,298.28,M,-33.324,M,,*7F
2018-01-11 20:09:52 1515719392.353903: $GPRMC,010953,A,3946.9577,N,08404.9839,W,0.0000,0.000,120118,,*3D
2018-01-11 20:09:52 1515719392.353964: $GPGSA,A,3,7,8,9,11,16,23,27,28,30,138,,,4.0,1.4,3.5*33
2018-01-11 20:09:53 1515719393.355333: $GPZDA,010954.00,12,01,2018,00,00*66
2018-01-11 20:09:53 1515719393.355493: $GPGGA,010954,3946.9577,N,08404.9839,W,2,10,0.80,298.28,M,-33.324,M,,*75
2018-01-11 20:09:53 1515719393.355559: $GPRMC,010954,A,3946.9577,N,08404.9839,W,0.0000,0.000,120118,,*3A
2018-01-11 20:09:53 1515719393.355620: $GPGSA,A,3,7,8,9,11,16,23,27,28,30,138,,,4.0,0.8,3.5*3E
2018-01-11 20:09:54 1515719394.690783: $GPGSV,3,1,10,07,55,315,44,08,73,133,47,09,48,229,43,11,20,168,48*7E
2018-01-11 20:09:54 1515719394.690934: $GPGSV,3,2,10,16,23,060,47,23,29,190,47,27,48,054,49,28,14,258,39*74
2018-01-11 20:09:54 1515719394.690999: $GPGSV,3,3,10,30,29,306,16,138,38,213,46*41
