2017-12-31 18:06:23 1514761583.363256: {"class":"VERSION","release":"3.16","rev":"3.16-4","proto_major":3,"proto_minor":11}
2017-12-31 18:06:23 1514761583.363675: {"class":"DEVICES","devices":[{"class":"DEVICE","path":"/dev/ttyUSB0","driver":"SiRF","activated":"2017-12-31T23:06:23.261Z","flags":1,"native":1,"bps":4800,"parity":"N","stopbits":1,"cycle":1.00}]}
2017-12-31 18:06:23 1514761583.363776: {"class":"WATCH","enable":true,"json":false,"nmea":true,"raw":0,"scaled":false,"timing":false,"split24":false,"pps":false}
2017-12-31 18:06:23 1514761583.407407: $GPZDA,230624.00,31,12,2017,00,00*62
2017-12-31 18:06:23 1514761583.407575: $GPGGA,230624,3946.9561,N,08404.9874,W,2,11,0.60,308.17,M,-33.324,M,,*78
2017-12-31 18:06:23 1514761583.407761: $GPRMC,230624,A,3946.9561,N,08404.9874,W,0.0000,0.000,311217,,*30
2017-12-31 18:06:23 1514761583.407827: $GPGSA,A,3,22,23,9,3,16,29,14,31,27,26,135,,1.7,0.6,1.3*06
2017-12-31 18:06:24 1514761584.682963: $GPGSV,3,1,11,22,23,216,40,23,52,307,44,09,19,312,43,03,33,235,45*79
2017-12-31 18:06:24 1514761584.683142: $GPGSV,3,2,11,16,79,190,43,29,06,031,32,14,16,132,33,31,29,073,40*7B
2017-12-31 18:06:24 1514761584.683208: $GPGSV,3,3,11,27,21,154,00,26,64,051,49,135,22,240,44*71
2017-12-31 18:06:24 1514761584.796405: $GPZDA,230625.00,31,12,2017,00,00*63
2017-12-31 18:06:24 1514761584.796564: $GPGGA,230625,3946.9561,N,08404.9874,W,2,10,0.80,308.17,M,-33.324,M,,*76
2017-12-31 18:06:24 1514761584.796630: $GPRMC,230625,A,3946.9561,N,08404.9874,W,0.0000,0.000,311217,,*31
2017-12-31 18:06:24 1514761584.796691: $GPGSA,A,3,22,23,9,3,16,29,14,31,26,135,,,1.7,0.8,1.3*0D
2017-12-31 18:06:25 1514761585.421595: $GPZDA,230626.00,31,12,2017,00,00*60
2017-12-31 18:06:25 1514761585.421768: $GPGGA,230626,3946.9561,N,08404.9874,W,2,10,0.60,308.17,M,-33.324,M,,*7B
2017-12-31 18:06:25 1514761585.421834: $GPRMC,230626,A,3946.9561,N,08404.9874,W,0.0000,0.000,311217,,*32
2017-12-31 18:06:25 1514761585.421895: $GPGSA,A,3,22,23,9,3,16,29,14,31,26,135,,,1.7,0.6,1.3*03
2017-12-31 18:06:26 1514761586.340023: $GPZDA,230627.00,31,12,2017,00,00*61
2017-12-31 18:06:26 1514761586.340195: $GPGGA,230627,3946.9561,N,08404.9874,W,2,10,0.60,308.17,M,-33.324,M,,*7A
2017-12-31 18:06:26 1514761586.340261: $GPRMC,230627,A,3946.9561,N,08404.9874,W,0.0000,0.000,311217,,*33
2017-12-31 18:06:26 1514761586.340322: $GPGSA,A,3,22,23,9,3,16,29,14,31,26,135,,,1.7,0.6,1.3*03
2017-12-31 18:06:27 1514761587.711982: $GPGSV,3,1,11,22,23,216,40,23,52,307,44,09,19,312,44,03,33,235,45*7E
2017-12-31 18:06:27 1514761587.850383: $GPGSV,3,2,11,16,79,190,44,29,06,031,23,14,16,132,34,31,29,073,39*75
2017-12-31 18:06:27 1514761587.850551: $GPGSV,3,3,11,27,21,154,26,26,64,051,48,135,22,240,44*74
2017-12-31 18:06:27 1514761587.850646: $GPZDA,230628.00,31,12,2017,00,00*6E
2017-12-31 18:06:27 1514761587.850704: $GPGGA,230628,3946.9561,N,08404.9874,W,2,11,0.60,308.17,M,-33.324,M,,*74
2017-12-31 18:06:27 1514761587.850766: $GPRMC,230628,A,3946.9561,N,08404.9874,W,0.0000,0.000,311217,,*3C
2017-12-31 18:06:27 1514761587.850826: $GPGSA,A,3,22,23,9,3,16,29,14,31,27,26,135,,1.7,0.6,1.3*06
2017-12-31 18:06:28 1514761588.346231: $GPZDA,230629.00,31,12,2017,00,00*6F
2017-12-31 18:06:28 1514761588.346401: $GPGGA,230629,3946.9561,N,08404.9874,W,2,11,0.60,308.17,M,-33.324,M,,*75
2017-12-31 18:06:28 1514761588.346467: $GPRMC,230629,A,3946.9561,N,08404.9874,W,0.0000,0.000,311217,,*3D
2017-12-31 18:06:28 1514761588.346527: $GPGSA,A,3,22,23,9,3,16,29,14,31,27,26,135,,1.7,0.6,1.3*06
2017-12-31 18:06:29 1514761589.374559: $GPZDA,230630.00,31,12,2017,00,00*67
2017-12-31 18:06:29 1514761589.374730: $GPGGA,230630,3946.9561,N,08404.9874,W,2,11,0.60,308.17,M,-33.324,M,,*7D
2017-12-31 18:06:29 1514761589.374795: $GPRMC,230630,A,3946.9561,N,08404.9874,W,0.0000,0.000,311217,,*35
2017-12-31 18:06:29 1514761589.374856: $GPGSA,A,3,22,23,9,3,16,29,14,31,27,26,135,,1.7,0.6,1.3*06
2017-12-31 18:06:30 1514761590.682319: $GPGSV,3,1,11,22,23,216,40,23,52,307,44,09,19,312,44,03,33,235,45*7E
2017-12-31 18:06:30 1514761590.682473: $GPGSV,3,2,11,16,79,190,44,29,06,031,29,14,16,132,34,31,29,073,40*71
2017-12-31 18:06:30 1514761590.682597: $GPGSV,3,3,11,27,21,154,28,26,64,051,48,135,22,240,44*7A
2017-12-31 18:06:30 1514761590.795658: $GPZDA,230631.00,31,12,2017,00,00*66
2017-12-31 18:06:30 1514761590.795790: $GPGGA,230631,3946.9561,N,08404.9874,W,2,11,0.60,308.17,M,-33.324,M,,*7C
2017-12-31 18:06:30 1514761590.795854: $GPRMC,230631,A,3946.9561,N,08404.9874,W,0.0000,0.000,311217,,*34
2017-12-31 18:06:30 1514761590.795916: $GPGSA,A,3,22,23,9,3,16,29,14,31,27,26,135,,1.7,0.6,1.3*06
2017-12-31 18:06:31 1514761591.341599: $GPZDA,230632.00,31,12,2017,00,00*65
2017-12-31 18:06:31 1514761591.341758: $GPGGA,230632,3946.9561,N,08404.9874,W,2,11,0.60,308.17,M,-33.324,M,,*7F
2017-12-31 18:06:31 1514761591.341824: $GPRMC,230632,A,3946.9561,N,08404.9874,W,0.0000,0.000,311217,,*37
2017-12-31 18:06:31 1514761591.341885: $GPGSA,A,3,22,23,9,3,16,29,14,31,27,26,135,,1.7,0.6,1.3*06
2017-12-31 18:06:32 1514761592.374920: $GPZDA,230633.00,31,12,2017,00,00*64
2017-12-31 18:06:32 1514761592.375110: $GPGGA,230633,3946.9561,N,08404.9874,W,2,11,0.60,308.17,M,-33.324,M,,*7E
2017-12-31 18:06:32 1514761592.375175: $GPRMC,230633,A,3946.9561,N,08404.9874,W,0.0000,0.000,311217,,*36
2017-12-31 18:06:32 1514761592.375236: $GPGSA,A,3,22,23,9,3,16,29,14,31,27,26,135,,1.7,0.6,1.3*06
