2017-11-16 14:40:27 1510861227.458808: {"class":"VERSION","release":"3.17","rev":"3.17","proto_major":3,"proto_minor":12}
2017-11-16 14:40:27 1510861227.459285: {"class":"DEVICES","devices":[{"class":"DEVICE","path":"/dev/ttyUSB0","driver":"SiRF","subtype":"9\u0006GSD4e_4.1.2-P1_RPATCH.05-F-GPS-4R-1510281 11/03/2015 307","activated":"2017-11-16T19:40:27.434Z","flags":1,"native":1,"bps":4800,"parity":"N","stopbits":1,"cycle":1.00}]}
2017-11-16 14:40:27 1510861227.459531: {"class":"WATCH","enable":true,"json":false,"nmea":true,"raw":0,"scaled":false,"timing":false,"split24":false,"pps":false}
2017-11-16 14:40:27 1510861227.882972: $GPGSV,3,1,11,08,08,312,40,10,51,310,50,15,27,057,50,18,77,015,44*76
2017-11-16 14:40:27 1510861227.883133: $GPGSV,3,2,11,21,51,184,48,20,24,105,47,24,53,088,49,27,16,277,44*70
2017-11-16 14:40:27 1510861227.883194: $GPGSV,3,3,11,32,30,247,46,14,14,238,44,138,38,213,44*70
2017-11-16 14:40:27 1510861227.996942: $GPZDA,194026.00,16,11,2017,00,00*6D
2017-11-16 14:40:27 1510861227.997100: $GPGGA,194026,3946.9564,N,08404.9849,W,2,11,0.80,302.66,M,-33.324,M,,*78
2017-11-16 14:40:27 1510861227.997173: $GPRMC,194026,A,3946.9564,N,08404.9849,W,0.0000,0.000,161117,,*34
2017-11-16 14:40:27 1510861227.997231: $GPGSA,A,3,8,10,15,18,21,20,24,27,32,14,138,,1.6,0.8,1.3*37
2017-11-16 14:40:28 1510861228.548767: $GPZDA,194027.00,16,11,2017,00,00*6C
2017-11-16 14:40:28 1510861228.548936: $GPGGA,194027,3946.9564,N,08404.9849,W,2,11,0.80,302.66,M,-33.324,M,,*79
2017-11-16 14:40:28 1510861228.548998: $GPRMC,194027,A,3946.9564,N,08404.9849,W,0.0000,0.000,161117,,*35
2017-11-16 14:40:28 1510861228.549055: $GPGSA,A,3,8,10,15,18,21,20,24,27,32,14,138,,1.6,0.8,1.3*37
2017-11-16 14:40:29 1510861229.513710: $GPZDA,194028.00,16,11,2017,00,00*63
2017-11-16 14:40:29 1510861229.513890: $GPGGA,194028,3946.9564,N,08404.9849,W,2,11,0.80,302.66,M,-33.324,M,,*76
2017-11-16 14:40:29 1510861229.513956: $GPRMC,194028,A,3946.9564,N,08404.9849,W,0.0000,0.000,161117,,*3A
2017-11-16 14:40:29 1510861229.514012: $GPGSA,A,3,8,10,15,18,21,20,24,27,32,14,138,,1.6,0.8,1.3*37
2017-11-16 14:40:30 1510861230.879031: $GPGSV,3,1,11,08,08,312,31,10,51,310,50,15,27,057,50,18,77,015,44*70
2017-11-16 14:40:30 1510861230.879152: $GPGSV,3,2,11,21,51,184,48,20,24,105,47,24,53,088,50,27,16,277,44*78
2017-11-16 14:40:30 1510861230.879183: $GPGSV,3,3,11,32,30,247,46,14,14,238,44,138,38,213,44*70
2017-11-16 14:40:30 1510861230.992004: $GPZDA,194029.00,16,11,2017,00,00*62
2017-11-16 14:40:30 1510861230.992106: $GPGGA,194029,3946.9564,N,08404.9849,W,2,11,0.80,302.66,M,-33.324,M,,*77
2017-11-16 14:40:30 1510861230.992149: $GPRMC,194029,A,3946.9564,N,08404.9849,W,0.0000,0.000,161117,,*3B
2017-11-16 14:40:30 1510861230.992177: $GPGSA,A,3,8,10,15,18,21,20,24,27,32,14,138,,1.6,0.8,1.3*37
2017-11-16 14:40:31 1510861231.512712: $GPZDA,194030.00,16,11,2017,00,00*6A
2017-11-16 14:40:31 1510861231.512829: $GPGGA,194030,3946.9564,N,08404.9849,W,2,11,0.80,302.66,M,-33.324,M,,*7F
2017-11-16 14:40:31 1510861231.512862: $GPRMC,194030,A,3946.9564,N,08404.9849,W,0.0000,0.000,161117,,*33
2017-11-16 14:40:31 1510861231.512890: $GPGSA,A,3,8,10,15,18,21,20,24,27,32,14,138,,1.6,0.8,1.3*37
2017-11-16 14:40:32 1510861232.514333: $GPZDA,194031.00,16,11,2017,00,00*6B
2017-11-16 14:40:32 1510861232.514644: $GPGGA,194031,3946.9564,N,08404.9849,W,2,11,0.80,302.66,M,-33.324,M,,*7E
2017-11-16 14:40:32 1510861232.514787: $GPRMC,194031,A,3946.9564,N,08404.9849,W,0.0000,0.000,161117,,*32
2017-11-16 14:40:32 1510861232.514915: $GPGSA,A,3,8,10,15,18,21,20,24,27,32,14,138,,1.6,0.8,1.3*37
2017-11-16 14:40:33 1510861233.884808: $GPGSV,3,1,11,08,08,312,25,10,51,310,50,15,27,057,50,18,77,015,44*75
2017-11-16 14:40:33 1510861233.885009: $GPGSV,3,2,11,21,51,184,48,20,24,105,46,24,53,088,50,27,16,277,44*79
2017-11-16 14:40:33 1510861233.885069: $GPGSV,3,3,11,32,30,247,46,14,14,238,44,138,38,213,44*70
2017-11-16 14:40:33 1510861233.998154: $GPZDA,194032.00,16,11,2017,00,00*68
2017-11-16 14:40:33 1510861233.998329: $GPGGA,194032,3946.9564,N,08404.9849,W,2,11,0.80,302.66,M,-33.324,M,,*7D
2017-11-16 14:40:33 1510861233.998444: $GPRMC,194032,A,3946.9564,N,08404.9849,W,0.0000,0.000,161117,,*31
2017-11-16 14:40:33 1510861233.998503: $GPGSA,A,3,8,10,15,18,21,20,24,27,32,14,138,,1.6,0.8,1.3*37
2017-11-16 14:40:34 1510861234.623441: $GPZDA,194033.00,16,11,2017,00,00*69
2017-11-16 14:40:34 1510861234.623611: $GPGGA,194033,3946.9564,N,08404.9849,W,2,11,0.80,302.66,M,-33.324,M,,*7C
2017-11-16 14:40:34 1510861234.623696: $GPRMC,194033,A,3946.9564,N,08404.9849,W,0.0000,0.000,161117,,*30
2017-11-16 14:40:34 1510861234.623755: $GPGSA,A,3,8,10,15,18,21,20,24,27,32,14,138,,1.6,0.8,1.3*37
2017-11-16 14:40:35 1510861235.547996: $GPZDA,194034.00,16,11,2017,00,00*6E
2017-11-16 14:40:35 1510861235.548181: $GPGGA,194034,3946.9564,N,08404.9849,W,2,11,0.80,302.66,M,-33.324,M,,*7B
2017-11-16 14:40:35 1510861235.548246: $GPRMC,194034,A,3946.9564,N,08404.9849,W,0.0000,0.000,161117,,*37
2017-11-16 14:40:35 1510861235.548303: $GPGSA,A,3,8,10,15,18,21,20,24,27,32,14,138,,1.6,0.8,1.3*37
2017-11-16 14:40:36 1510861236.844920: $GPGSV,3,1,11,08,08,312,24,10,51,310,50,15,27,057,50,18,77,015,44*74
2017-11-16 14:40:36 1510861236.846620: $GPGSV,3,2,11,21,51,184,48,20,24,105,47,24,53,088,49,27,16,277,44*70
2017-11-16 14:40:36 1510861236.846702: $GPGSV,3,3,11,32,30,247,46,14,14,238,45,138,38,213,44*71
2017-11-16 14:40:36 1510861236.958214: $GPZDA,194035.00,16,11,2017,00,00*6F
2017-11-16 14:40:36 1510861236.958381: $GPGGA,194035,3946.9564,N,08404.9849,W,2,11,0.80,302.66,M,-33.324,M,,*7A
2017-11-16 14:40:36 1510861236.958465: $GPRMC,194035,A,3946.9564,N,08404.9849,W,0.0000,0.000,161117,,*36
2017-11-16 14:40:36 1510861236.958523: $GPGSA,A,3,8,10,15,18,21,20,24,27,32,14,138,,1.6,0.8,1.3*37
