2018-01-12 20:01:26 1515805286.744229: {"class":"VERSION","release":"3.16","rev":"3.16-4","proto_major":3,"proto_minor":11}
2018-01-12 20:01:26 1515805286.744589: {"class":"DEVICES","devices":[{"class":"DEVICE","path":"/dev/ttyUSB0","driver":"SiRF","subtype":"9\u0006GSD4e_4.1.2-P1_RPATCH.05-F-GPS-4R-1510281 11/03/2015 307","activated":"2018-01-13T01:01:26.732Z","flags":1,"native":1,"bps":4800,"parity":"N","stopbits":1,"cycle":1.00}]}
2018-01-12 20:01:26 1515805286.744825: {"class":"WATCH","enable":true,"json":false,"nmea":true,"raw":0,"scaled":false,"timing":false,"split24":false,"pps":false}
2018-01-12 20:01:27 1515805287.188330: $GPZDA,010128.00,13,01,2018,00,00*64
2018-01-12 20:01:27 1515805287.188521: $GPGGA,010128,3946.9523,N,08404.9507,W,1,05,1.60,313.38,M,-33.324,M,,*7C
2018-01-12 20:01:27 1515805287.188588: $GPRMC,010128,A,3946.9523,N,08404.9507,W,0.8902,46.893,130118,,*0A
2018-01-12 20:01:27 1515805287.188650: $GPGSA,A,3,7,27,8,9,23,,,,,,,,4.8,1.6,4.6*09
2018-01-12 20:01:28 1515805288.525659: $GPGSV,3,1,10,07,53,313,26,27,49,055,22,08,72,139,18,09,49,232,15*7A
2018-01-12 20:01:28 1515805288.525858: $GPGSV,3,2,10,23,31,190,15,30,27,306,00,16,25,058,00,11,18,168,00*7E
2018-01-12 20:01:28 1515805288.525927: $GPGSV,3,3,10,28,12,256,00,138,38,213,00*41
2018-01-12 20:01:28 1515805288.638957: $GPZDA,010129.00,13,01,2018,00,00*65
2018-01-12 20:01:28 1515805288.639152: $GPGGA,010129,3946.9520,N,08404.9514,W,1,05,1.60,314.06,M,-33.324,M,,*76
2018-01-12 20:01:28 1515805288.639220: $GPRMC,010129,A,3946.9520,N,08404.9514,W,0.3308,25.323,130118,,*04
2018-01-12 20:01:28 1515805288.639284: $GPGSA,A,3,7,27,8,9,23,,,,,,,,4.8,1.6,4.6*09
2018-01-12 20:01:29 1515805289.189881: $GPZDA,010130.00,13,01,2018,00,00*6D
2018-01-12 20:01:29 1515805289.190052: $GPGGA,010130,3946.9518,N,08404.9516,W,1,05,1.60,317.64,M,-33.324,M,,*70
2018-01-12 20:01:29 1515805289.190122: $GPRMC,010130,A,3946.9518,N,08404.9516,W,0.2301,229.661,130118,,*30
2018-01-12 20:01:29 1515805289.190187: $GPGSA,A,3,7,27,8,9,23,,,,,,,,4.8,1.6,4.6*09
2018-01-12 20:01:30 1515805290.189871: $GPZDA,010131.00,13,01,2018,00,00*6C
2018-01-12 20:01:30 1515805290.190055: $GPGGA,010131,3946.9518,N,08404.9523,W,1,05,1.60,317.56,M,-33.324,M,,*76
2018-01-12 20:01:30 1515805290.190124: $GPRMC,010131,A,3946.9518,N,08404.9523,W,0.3954,122.605,130118,,*36
2018-01-12 20:01:30 1515805290.190188: $GPGSA,A,3,7,27,8,9,23,,,,,,,,4.8,1.6,4.6*09
2018-01-12 20:01:31 1515805291.527342: $GPGSV,3,1,10,07,53,313,25,27,49,055,21,08,72,139,18,09,49,232,15*7A
2018-01-12 20:01:31 1515805291.527534: $GPGSV,3,2,10,23,31,190,16,30,27,306,00,16,25,058,00,11,18,168,00*7D
2018-01-12 20:01:31 1515805291.527602: $GPGSV,3,3,10,28,12,256,00,138,38,213,00*41
2018-01-12 20:01:31 1515805291.640690: $GPZDA,010132.00,13,01,2018,00,00*6F
2018-01-12 20:01:31 1515805291.644542: $GPGGA,010132,3946.9515,N,08404.9530,W,1,05,1.60,316.84,M,-33.324,M,,*74
2018-01-12 20:01:31 1515805291.644664: $GPRMC,010132,A,3946.9515,N,08404.9530,W,0.6086,270.538,130118,,*30
2018-01-12 20:01:31 1515805291.644728: $GPGSA,A,3,7,27,8,9,23,,,,,,,,4.8,1.6,4.6*09
2018-01-12 20:01:32 1515805292.190808: $GPZDA,010133.00,13,01,2018,00,00*6E
2018-01-12 20:01:32 1515805292.190982: $GPGGA,010133,3946.9514,N,08404.9530,W,1,05,1.60,315.44,M,-33.324,M,,*7B
2018-01-12 20:01:32 1515805292.191051: $GPRMC,010133,A,3946.9514,N,08404.9530,W,0.8253,269.283,130118,,*3B
2018-01-12 20:01:32 1515805292.191117: $GPGSA,A,3,7,27,8,9,23,,,,,,,,4.8,1.6,4.6*09
2018-01-12 20:01:33 1515805293.192631: $GPZDA,010134.00,13,01,2018,00,00*69
2018-01-12 20:01:33 1515805293.192806: $GPGGA,010134,3946.9517,N,08404.9528,W,1,05,1.60,313.27,M,-33.324,M,,*75
2018-01-12 20:01:33 1515805293.192873: $GPRMC,010134,A,3946.9517,N,08404.9528,W,0.5383,219.426,130118,,*39
2018-01-12 20:01:33 1515805293.192934: $GPGSA,A,3,7,27,8,9,23,,,,,,,,4.8,1.6,4.6*09
2018-01-12 20:01:34 1515805294.527787: $GPGSV,3,1,10,07,53,313,25,27,49,055,21,08,72,139,18,09,49,232,14*7B
2018-01-12 20:01:34 1515805294.527965: $GPGSV,3,2,10,23,31,190,15,30,27,306,00,16,25,058,00,11,18,168,00*7E
2018-01-12 20:01:34 1515805294.528090: $GPGSV,3,3,10,28,12,256,00,138,38,213,00*41
2018-01-12 20:01:34 1515805294.641193: $GPZDA,010135.00,13,01,2018,00,00*68
2018-01-12 20:01:34 1515805294.641349: $GPGGA,010135,3946.9518,N,08404.9530,W,1,05,1.60,316.08,M,-33.324,M,,*7A
2018-01-12 20:01:34 1515805294.641414: $GPRMC,010135,A,3946.9518,N,08404.9530,W,0.6213,249.941,130118,,*3C
2018-01-12 20:01:34 1515805294.641477: $GPGSA,A,3,7,27,8,9,23,,,,,,,,4.8,1.6,4.6*09
2018-01-12 20:01:35 1515805295.191322: $GPZDA,010136.00,13,01,2018,00,00*6B
2018-01-12 20:01:35 1515805295.191472: $GPGGA,010136,3946.9518,N,08404.9536,W,1,05,1.60,314.59,M,-33.324,M,,*79
2018-01-12 20:01:35 1515805295.191537: $GPRMC,010136,A,3946.9518,N,08404.9536,W,0.5486,215.274,130118,,*34
2018-01-12 20:01:35 1515805295.191600: $GPGSA,A,3,7,27,8,9,23,,,,,,,,4.8,1.6,4.6*09
2018-01-12 20:01:36 1515805296.191565: $GPZDA,010137.00,13,01,2018,00,00*6A
2018-01-12 20:01:36 1515805296.191737: $GPGGA,010137,3946.9518,N,08404.9536,W,1,05,1.60,314.59,M,-33.324,M,,*78
2018-01-12 20:01:36 1515805296.191804: $GPRMC,010137,A,3946.9518,N,08404.9536,W,0.3133,189.201,130118,,*3C
2018-01-12 20:01:36 1515805296.191867: $GPGSA,A,3,7,27,8,9,23,,,,,,,,4.8,1.6,4.6*09
2018-01-12 20:01:37 1515805297.527644: $GPGSV,3,1,10,07,53,313,25,27,49,055,21,08,72,139,18,09,49,232,12*7D
2018-01-12 20:01:37 1515805297.527824: $GPGSV,3,2,10,23,31,190,16,30,27,306,00,16,25,058,00,11,18,168,00*7D
2018-01-12 20:01:37 1515805297.527890: $GPGSV,3,3,10,28,12,256,00,138,38,213,00*41
2018-01-12 20:01:37 1515805297.641320: $GPZDA,010138.00,13,01,2018,00,00*65
2018-01-12 20:01:37 1515805297.641484: $GPGGA,010138,3946.9517,N,08404.9529,W,1,05,1.60,314.67,M,-33.324,M,,*7B
2018-01-12 20:01:37 1515805297.641549: $GPRMC,010138,A,3946.9517,N,08404.9529,W,0.3133,189.201,130118,,*32
2018-01-12 20:01:37 1515805297.641611: $GPGSA,A,3,7,27,8,9,23,,,,,,,,4.8,1.6,4.6*09
2018-01-12 20:01:38 1515805298.189946: $GPZDA,010139.00,13,01,2018,00,00*64
2018-01-12 20:01:38 1515805298.190128: $GPGGA,010139,3946.9519,N,08404.9537,W,1,05,1.60,317.40,M,-33.324,M,,*7D
2018-01-12 20:01:38 1515805298.190197: $GPRMC,010139,A,3946.9519,N,08404.9537,W,0.3106,249.941,130118,,*34
2018-01-12 20:01:38 1515805298.190258: $GPGSA,A,3,7,27,8,9,23,,,,,,,,4.8,1.6,4.6*09
2018-01-12 20:01:39 1515805299.187471: $GPZDA,010140.00,13,01,2018,00,00*6A
2018-01-12 20:01:39 1515805299.187644: $GPGGA,010140,3946.9515,N,08404.9537,W,1,05,1.80,316.76,M,-33.324,M,,*75
2018-01-12 20:01:39 1515805299.187713: $GPRMC,010140,A,3946.9515,N,08404.9537,W,0.5080,160.865,130118,,*30
2018-01-12 20:01:39 1515805299.187773: $GPGSA,A,3,7,27,8,9,23,,,,,,,,4.8,1.8,4.6*07
2018-01-12 20:01:40 1515805300.523309: $GPGSV,3,1,10,07,53,313,25,27,49,055,21,08,72,139,18,09,49,232,05*7B
2018-01-12 20:01:40 1515805300.523490: $GPGSV,3,2,10,23,31,190,15,16,25,058,07,30,27,306,00,11,18,168,00*79
2018-01-12 20:01:40 1515805300.523554: $GPGSV,3,3,10,28,12,256,00,138,38,213,00*41
2018-01-12 20:01:40 1515805300.636703: $GPZDA,010141.00,13,01,2018,00,00*6B
2018-01-12 20:01:40 1515805300.636843: $GPGGA,010141,3946.9515,N,08404.9537,W,1,05,1.80,316.76,M,-33.324,M,,*74
2018-01-12 20:01:40 1515805300.636908: $GPRMC,010141,A,3946.9515,N,08404.9537,W,0.9543,137.074,130118,,*3D
2018-01-12 20:01:40 1515805300.636974: $GPGSA,A,3,7,27,8,9,23,,,,,,,,4.8,1.8,4.6*07
2018-01-12 20:01:41 1515805301.189647: $GPZDA,010142.00,13,01,2018,00,00*68
2018-01-12 20:01:41 1515805301.189811: $GPGGA,010142,3946.9514,N,08404.9537,W,1,05,1.80,315.36,M,-33.324,M,,*71
2018-01-12 20:01:41 1515805301.189878: $GPRMC,010142,A,3946.9514,N,08404.9537,W,0.5467,159.487,130118,,*34
2018-01-12 20:01:41 1515805301.189941: $GPGSA,A,3,7,27,8,9,23,,,,,,,,4.8,1.8,4.6*07
2018-01-12 20:01:42 1515805302.189760: $GPZDA,010143.00,13,01,2018,00,00*69
2018-01-12 20:01:42 1515805302.189940: $GPGGA,010143,3946.9518,N,08404.9536,W,1,05,1.80,314.59,M,-33.324,M,,*75
2018-01-12 20:01:42 1515805302.190028: $GPRMC,010143,A,3946.9518,N,08404.9536,W,0.8359,148.778,130118,,*3C
2018-01-12 20:01:42 1515805302.190095: $GPGSA,A,3,7,27,8,9,23,,,,,,,,4.8,1.8,4.6*07
2018-01-12 20:01:43 1515805303.526887: $GPGSV,3,1,10,07,53,313,24,27,49,055,21,08,72,139,18,09,49,232,09*76
2018-01-12 20:01:43 1515805303.527081: $GPGSV,3,2,10,23,31,190,15,16,25,058,09,30,27,306,00,11,18,168,00*77
2018-01-12 20:01:43 1515805303.527147: $GPGSV,3,3,10,28,12,256,00,138,38,213,00*41
2018-01-12 20:01:43 1515805303.640596: $GPZDA,010144.00,13,01,2018,00,00*6E
2018-01-12 20:01:43 1515805303.640735: $GPGGA,010144,3946.9509,N,08404.9536,W,1,05,1.60,313.31,M,-33.324,M,,*75
2018-01-12 20:01:43 1515805303.640803: $GPRMC,010144,A,3946.9509,N,08404.9536,W,1.0269,184.197,130118,,*37
2018-01-12 20:01:43 1515805303.640864: $GPGSA,A,3,7,27,8,9,23,,,,,,,,4.8,1.6,4.6*09
2018-01-12 20:01:44 1515805304.191558: $GPZDA,010145.00,13,01,2018,00,00*6F
2018-01-12 20:01:44 1515805304.191747: $GPGGA,010145,3946.9505,N,08404.9536,W,1,05,1.60,312.67,M,-33.324,M,,*7A
2018-01-12 20:01:44 1515805304.191817: $GPRMC,010145,A,3946.9505,N,08404.9536,W,0.8709,183.298,130118,,*3B
2018-01-12 20:01:44 1515805304.191879: $GPGSA,A,3,7,27,8,9,23,,,,,,,,4.8,1.6,4.6*09
2018-01-12 20:01:45 1515805305.191618: $GPZDA,010146.00,13,01,2018,00,00*6C
2018-01-12 20:01:45 1515805305.191793: $GPGGA,010146,3946.9502,N,08404.9530,W,1,05,1.60,314.92,M,-33.324,M,,*74
2018-01-12 20:01:45 1515805305.191860: $GPRMC,010146,A,3946.9502,N,08404.9530,W,0.8804,201.094,130118,,*3C
2018-01-12 20:01:45 1515805305.191924: $GPGSA,A,3,7,27,8,9,23,,,,,,,,4.8,1.6,4.6*09
2018-01-12 20:01:46 1515805306.527501: $GPGSV,3,1,10,07,53,313,24,27,49,055,21,08,72,139,17,09,49,232,14*75
2018-01-12 20:01:46 1515805306.527685: $GPGSV,3,2,10,23,31,190,15,16,25,058,08,30,27,306,00,11,18,168,00*76
2018-01-12 20:01:46 1515805306.527752: $GPGSV,3,3,10,28,12,256,00,138,38,213,00*41
2018-01-12 20:01:46 1515805306.641239: $GPZDA,010147.00,13,01,2018,00,00*6D
2018-01-12 20:01:46 1515805306.641374: $GPGGA,010147,3946.9510,N,08404.9530,W,1,05,1.60,314.80,M,-33.324,M,,*75
2018-01-12 20:01:46 1515805306.641442: $GPRMC,010147,A,3946.9510,N,08404.9530,W,0.4207,219.347,130118,,*3F
2018-01-12 20:01:46 1515805306.641503: $GPGSA,A,3,7,27,8,9,23,,,,,,,,4.8,1.6,4.6*09
