2017-12-01 11:44:16 1512146656.116980: {"class":"VERSION","release":"3.16","rev":"3.16-4","proto_major":3,"proto_minor":11}
2017-12-01 11:44:16 1512146656.117383: {"class":"DEVICES","devices":[{"class":"DEVICE","path":"/dev/ttyUSB0","driver":"SiRF","subtype":"9\u0006GSD4e_4.1.2-P1_RPATCH.05-F-GPS-4R-1510281 11/03/2015 307","activated":"2017-12-01T16:44:15.540Z","flags":1,"native":1,"bps":4800,"parity":"N","stopbits":1,"cycle":1.00}]}
2017-12-01 11:44:16 1512146656.117512: {"class":"WATCH","enable":true,"json":false,"nmea":true,"raw":0,"scaled":false,"timing":false,"split24":false,"pps":false}
2017-12-01 11:44:16 1512146656.734197: $GPGSV,3,1,12,10,13,271,35,13,43,049,47,15,75,072,47,18,44,285,44*74
2017-12-01 11:44:16 1512146656.734384: $GPGSV,3,2,12,20,62,051,42,21,67,306,45,24,20,148,44,27,09,324,43*7E
2017-12-01 11:44:16 1512146656.734451: $GPGSV,3,3,12,29,24,195,43,05,14,078,25,04,12,130,00,138,38,213,46*43
2017-12-01 11:44:16 1512146656.847741: $GPZDA,164417.00,01,12,2017,00,00*61
2017-12-01 11:44:16 1512146656.847942: $GPGGA,164417,3946.9567,N,08404.9841,W,2,11,0.80,300.57,M,-33.324,M,,*7A
2017-12-01 11:44:16 1512146656.848016: $GPRMC,164417,A,3946.9567,N,08404.9841,W,0.0000,0.000,011217,,*33
2017-12-01 11:44:16 1512146656.848078: $GPGSA,A,3,10,13,15,18,20,21,24,27,29,5,138,,2.0,0.8,1.5*34
2017-12-01 11:44:17 1512146657.399685: $GPZDA,164418.00,01,12,2017,00,00*6E
2017-12-01 11:44:17 1512146657.399875: $GPGGA,164418,3946.9567,N,08404.9841,W,2,11,0.80,300.57,M,-33.324,M,,*75
2017-12-01 11:44:17 1512146657.399946: $GPRMC,164418,A,3946.9567,N,08404.9841,W,0.0000,0.000,011217,,*3C
2017-12-01 11:44:17 1512146657.400012: $GPGSA,A,3,10,13,15,18,20,21,24,27,29,5,138,,2.0,0.8,1.5*34
2017-12-01 11:44:18 1512146658.400435: $GPZDA,164419.00,01,12,2017,00,00*6F
2017-12-01 11:44:18 1512146658.400611: $GPGGA,164419,3946.9567,N,08404.9841,W,2,11,0.80,300.57,M,-33.324,M,,*74
2017-12-01 11:44:18 1512146658.400677: $GPRMC,164419,A,3946.9567,N,08404.9841,W,0.0000,0.000,011217,,*3D
2017-12-01 11:44:18 1512146658.400741: $GPGSA,A,3,10,13,15,18,20,21,24,27,29,5,138,,2.0,0.8,1.5*34
2017-12-01 11:44:19 1512146659.734592: $GPGSV,3,1,12,10,13,271,28,13,43,049,46,15,75,072,47,18,44,285,44*79
2017-12-01 11:44:19 1512146659.734778: $GPGSV,3,2,12,20,62,051,42,21,67,306,45,24,20,148,44,27,09,324,42*7F
2017-12-01 11:44:19 1512146659.734846: $GPGSV,3,3,12,29,24,195,43,05,14,078,23,04,12,130,00,138,38,213,46*45
2017-12-01 11:44:19 1512146659.847920: $GPZDA,164420.00,01,12,2017,00,00*65
2017-12-01 11:44:19 1512146659.848105: $GPGGA,164420,3946.9567,N,08404.9841,W,2,11,0.80,300.57,M,-33.324,M,,*7E
2017-12-01 11:44:19 1512146659.848172: $GPRMC,164420,A,3946.9567,N,08404.9841,W,0.0000,0.000,011217,,*37
2017-12-01 11:44:19 1512146659.848234: $GPGSA,A,3,10,13,15,18,20,21,24,27,29,5,138,,2.0,0.8,1.5*34
2017-12-01 11:44:20 1512146660.398924: $GPZDA,164421.00,01,12,2017,00,00*64
2017-12-01 11:44:20 1512146660.399116: $GPGGA,164421,3946.9567,N,08404.9841,W,2,11,0.80,300.57,M,-33.324,M,,*7F
2017-12-01 11:44:20 1512146660.399185: $GPRMC,164421,A,3946.9567,N,08404.9841,W,0.0000,0.000,011217,,*36
2017-12-01 11:44:20 1512146660.399248: $GPGSA,A,3,10,13,15,18,20,21,24,27,29,5,138,,2.0,0.8,1.5*34
2017-12-01 11:44:21 1512146661.398434: $GPZDA,164422.00,01,12,2017,00,00*67
2017-12-01 11:44:21 1512146661.398622: $GPGGA,164422,3946.9567,N,08404.9841,W,2,11,0.80,300.57,M,-33.324,M,,*7C
2017-12-01 11:44:21 1512146661.398691: $GPRMC,164422,A,3946.9567,N,08404.9841,W,0.0000,0.000,011217,,*35
2017-12-01 11:44:21 1512146661.398752: $GPGSA,A,3,10,13,15,18,20,21,24,27,29,5,138,,2.0,0.8,1.5*34
2017-12-01 11:44:22 1512146662.735730: $GPGSV,3,1,12,10,13,271,32,13,43,049,47,15,75,072,47,18,44,285,44*73
2017-12-01 11:44:22 1512146662.735928: $GPGSV,3,2,12,20,62,051,42,21,67,306,45,24,20,148,44,27,09,324,42*7F
2017-12-01 11:44:22 1512146662.736001: $GPGSV,3,3,12,29,24,195,43,05,14,078,22,04,12,130,00,138,38,213,46*44
2017-12-01 11:44:22 1512146662.848867: $GPZDA,164423.00,01,12,2017,00,00*66
2017-12-01 11:44:22 1512146662.849035: $GPGGA,164423,3946.9567,N,08404.9841,W,2,11,0.80,300.57,M,-33.324,M,,*7D
2017-12-01 11:44:22 1512146662.849154: $GPRMC,164423,A,3946.9567,N,08404.9841,W,0.0000,0.000,011217,,*34
2017-12-01 11:44:22 1512146662.849217: $GPGSA,A,3,10,13,15,18,20,21,24,27,29,5,138,,2.0,0.8,1.5*34
2017-12-01 11:44:23 1512146663.474396: $GPZDA,164424.00,01,12,2017,00,00*61
2017-12-01 11:44:23 1512146663.474584: $GPGGA,164424,3946.9567,N,08404.9841,W,2,11,0.80,300.57,M,-33.324,M,,*7A
2017-12-01 11:44:23 1512146663.474650: $GPRMC,164424,A,3946.9567,N,08404.9841,W,0.0000,0.000,011217,,*33
2017-12-01 11:44:23 1512146663.474713: $GPGSA,A,3,10,13,15,18,20,21,24,27,29,5,138,,2.0,0.8,1.5*34
2017-12-01 11:44:24 1512146664.401612: $GPZDA,164425.00,01,12,2017,00,00*60
2017-12-01 11:44:24 1512146664.401805: $GPGGA,164425,3946.9567,N,08404.9841,W,2,11,0.80,300.57,M,-33.324,M,,*7B
2017-12-01 11:44:24 1512146664.401879: $GPRMC,164425,A,3946.9567,N,08404.9841,W,0.0000,0.000,011217,,*32
2017-12-01 11:44:24 1512146664.401948: $GPGSA,A,3,10,13,15,18,20,21,24,27,29,5,138,,2.0,0.8,1.5*34
2017-12-01 11:44:25 1512146665.750933: $GPGSV,3,1,12,10,13,271,34,13,43,049,47,15,75,072,48,18,44,285,44*7A
2017-12-01 11:44:25 1512146665.751113: $GPGSV,3,2,12,20,62,051,42,21,67,306,45,24,20,148,44,27,09,324,43*7E
2017-12-01 11:44:25 1512146665.751179: $GPGSV,3,3,12,29,24,195,43,05,14,078,23,04,12,130,00,138,38,213,46*45
2017-12-01 11:44:25 1512146665.864394: $GPZDA,164426.00,01,12,2017,00,00*63
2017-12-01 11:44:25 1512146665.864568: $GPGGA,164426,3946.9563,N,08404.9841,W,2,11,0.80,299.93,M,-33.324,M,,*75
2017-12-01 11:44:25 1512146665.864635: $GPRMC,164426,A,3946.9563,N,08404.9841,W,0.0000,0.000,011217,,*35
2017-12-01 11:44:25 1512146665.864698: $GPGSA,A,3,10,13,15,18,20,21,24,27,29,5,138,,2.0,0.8,1.5*34
