2017-11-16 13:56:08 1510858568.497226: {"class":"VERSION","release":"3.17","rev":"3.17","proto_major":3,"proto_minor":12}
2017-11-16 13:56:08 1510858568.497673: {"class":"DEVICES","devices":[{"class":"DEVICE","path":"/dev/ttyUSB0","driver":"SiRF","subtype":"9\u0006GSD4e_4.1.2-P1_RPATCH.05-F-GPS-4R-1510281 11/03/2015 307","activated":"2017-11-16T18:56:08.442Z","flags":1,"native":1,"bps":4800,"parity":"N","stopbits":1,"cycle":1.00}]}
2017-11-16 13:56:08 1510858568.497795: {"class":"WATCH","enable":true,"json":false,"nmea":true,"raw":0,"scaled":false,"timing":false,"split24":false,"pps":false}
2017-11-16 13:56:09 1510858569.409877: $GPZDA,185608.00,16,11,2017,00,00*67
2017-11-16 13:56:09 1510858569.410066: $GPGGA,185608,3946.9608,N,08404.9834,W,2,11,1.00,307.05,M,-33.324,M,,*78
2017-11-16 13:56:09 1510858569.410132: $GPRMC,185608,A,3946.9608,N,08404.9834,W,0.0000,0.000,161117,,*3D
2017-11-16 13:56:09 1510858569.410188: $GPGSA,A,3,10,13,15,18,20,21,24,27,32,8,138,,1.6,1.0,1.3*39
2017-11-16 13:56:10 1510858570.719844: $GPGSV,3,1,11,10,35,295,40,13,15,046,43,15,45,051,51,18,65,321,49*77
2017-11-16 13:56:10 1510858570.720018: $GPGSV,3,2,11,20,39,088,48,21,72,202,47,24,46,123,46,27,19,298,34*76
2017-11-16 13:56:10 1510858570.720079: $GPGSV,3,3,11,32,14,232,38,08,03,328,26,138,38,213,44*72
2017-11-16 13:56:10 1510858570.833608: $GPZDA,185609.00,16,11,2017,00,00*66
2017-11-16 13:56:10 1510858570.833779: $GPGGA,185609,3946.9608,N,08404.9834,W,2,11,1.00,307.05,M,-33.324,M,,*79
2017-11-16 13:56:10 1510858570.833844: $GPRMC,185609,A,3946.9608,N,08404.9834,W,0.0000,0.000,161117,,*3C
2017-11-16 13:56:10 1510858570.833901: $GPGSA,A,3,10,13,15,18,20,21,24,27,32,8,138,,1.6,1.0,1.3*39
2017-11-16 13:56:11 1510858571.384235: $GPZDA,185610.00,16,11,2017,00,00*6E
2017-11-16 13:56:11 1510858571.384396: $GPGGA,185610,3946.9608,N,08404.9834,W,2,11,1.00,307.05,M,-33.324,M,,*71
2017-11-16 13:56:11 1510858571.384457: $GPRMC,185610,A,3946.9608,N,08404.9834,W,0.0000,0.000,161117,,*34
2017-11-16 13:56:11 1510858571.384514: $GPGSA,A,3,10,13,15,18,20,21,24,27,32,8,138,,1.6,1.0,1.3*39
2017-11-16 13:56:12 1510858572.384940: $GPZDA,185611.00,16,11,2017,00,00*6F
2017-11-16 13:56:12 1510858572.385125: $GPGGA,185611,3946.9608,N,08404.9834,W,2,11,1.00,307.05,M,-33.324,M,,*70
2017-11-16 13:56:12 1510858572.385188: $GPRMC,185611,A,3946.9608,N,08404.9834,W,0.0000,0.000,161117,,*35
2017-11-16 13:56:12 1510858572.385245: $GPGSA,A,3,10,13,15,18,20,21,24,27,32,8,138,,1.6,1.0,1.3*39
2017-11-16 13:56:13 1510858573.722465: $GPGSV,3,1,11,10,35,295,41,13,15,046,43,15,45,051,51,18,65,321,48*77
2017-11-16 13:56:13 1510858573.722639: $GPGSV,3,2,11,20,39,088,48,21,72,202,47,24,46,123,46,27,19,298,36*74
2017-11-16 13:56:13 1510858573.722702: $GPGSV,3,3,11,32,14,232,38,08,03,328,27,138,38,213,44*73
2017-11-16 13:56:13 1510858573.835774: $GPZDA,185612.00,16,11,2017,00,00*6C
2017-11-16 13:56:13 1510858573.835936: $GPGGA,185612,3946.9608,N,08404.9834,W,2,11,1.00,307.05,M,-33.324,M,,*73
2017-11-16 13:56:13 1510858573.835996: $GPRMC,185612,A,3946.9608,N,08404.9834,W,0.0000,0.000,161117,,*36
2017-11-16 13:56:13 1510858573.836052: $GPGSA,A,3,10,13,15,18,20,21,24,27,32,8,138,,1.6,1.0,1.3*39
2017-11-16 13:56:14 1510858574.384384: $GPZDA,185613.00,16,11,2017,00,00*6D
2017-11-16 13:56:14 1510858574.384558: $GPGGA,185613,3946.9608,N,08404.9834,W,2,11,1.00,307.05,M,-33.324,M,,*72
2017-11-16 13:56:14 1510858574.384624: $GPRMC,185613,A,3946.9608,N,08404.9834,W,0.0000,0.000,161117,,*37
2017-11-16 13:56:14 1510858574.384686: $GPGSA,A,3,10,13,15,18,20,21,24,27,32,8,138,,1.6,1.0,1.3*39
2017-11-16 13:56:15 1510858575.385777: $GPZDA,185614.00,16,11,2017,00,00*6A
2017-11-16 13:56:15 1510858575.385960: $GPGGA,185614,3946.9608,N,08404.9834,W,2,11,1.00,307.05,M,-33.324,M,,*75
2017-11-16 13:56:15 1510858575.386029: $GPRMC,185614,A,3946.9608,N,08404.9834,W,0.0000,0.000,161117,,*30
2017-11-16 13:56:15 1510858575.386085: $GPGSA,A,3,10,13,15,18,20,21,24,27,32,8,138,,1.6,1.0,1.3*39
2017-11-16 13:56:16 1510858576.721732: $GPGSV,3,1,11,10,35,295,41,13,15,046,42,15,45,051,51,18,65,321,48*76
2017-11-16 13:56:16 1510858576.721959: $GPGSV,3,2,11,20,39,088,48,21,72,202,46,24,46,123,46,27,19,298,37*74
2017-11-16 13:56:16 1510858576.722023: $GPGSV,3,3,11,32,14,232,38,08,03,328,27,138,38,213,43*74
2017-11-16 13:56:16 1510858576.835093: $GPZDA,185615.00,16,11,2017,00,00*6B
2017-11-16 13:56:16 1510858576.835261: $GPGGA,185615,3946.9608,N,08404.9834,W,2,11,1.00,307.05,M,-33.324,M,,*74
2017-11-16 13:56:16 1510858576.835324: $GPRMC,185615,A,3946.9608,N,08404.9834,W,0.0000,0.000,161117,,*31
2017-11-16 13:56:16 1510858576.835382: $GPGSA,A,3,10,13,15,18,20,21,24,27,32,8,138,,1.6,1.0,1.3*39
2017-11-16 13:56:17 1510858577.460068: $GPZDA,185616.00,16,11,2017,00,00*68
2017-11-16 13:56:17 1510858577.460175: $GPGGA,185616,3946.9608,N,08404.9834,W,2,11,1.00,307.05,M,-33.324,M,,*77
2017-11-16 13:56:17 1510858577.460206: $GPRMC,185616,A,3946.9608,N,08404.9834,W,0.0000,0.000,161117,,*32
2017-11-16 13:56:17 1510858577.460234: $GPGSA,A,3,10,13,15,18,20,21,24,27,32,8,138,,1.6,1.0,1.3*39
2017-11-16 13:56:18 1510858578.385705: $GPZDA,185617.00,16,11,2017,00,00*69
2017-11-16 13:56:18 1510858578.385874: $GPGGA,185617,3946.9608,N,08404.9834,W,2,11,1.00,307.05,M,-33.324,M,,*76
2017-11-16 13:56:18 1510858578.385940: $GPRMC,185617,A,3946.9608,N,08404.9834,W,0.0000,0.000,161117,,*33
2017-11-16 13:56:18 1510858578.385996: $GPGSA,A,3,10,13,15,18,20,21,24,27,32,8,138,,1.6,1.0,1.3*39
2017-11-16 13:56:19 1510858579.722981: $GPGSV,3,1,11,10,35,295,40,13,15,046,42,15,45,051,51,18,65,321,48*77
2017-11-16 13:56:19 1510858579.723093: $GPGSV,3,2,11,20,39,088,48,21,72,202,46,24,46,123,45,27,19,298,37*77
2017-11-16 13:56:19 1510858579.723124: $GPGSV,3,3,11,32,14,232,38,08,03,328,26,138,38,213,43*75
2017-11-16 13:56:19 1510858579.836009: $GPZDA,185618.00,16,11,2017,00,00*66
2017-11-16 13:56:19 1510858579.836086: $GPGGA,185618,3946.9608,N,08404.9834,W,2,11,1.00,307.05,M,-33.324,M,,*79
2017-11-16 13:56:19 1510858579.836115: $GPRMC,185618,A,3946.9608,N,08404.9834,W,0.0000,0.000,161117,,*3C
2017-11-16 13:56:19 1510858579.836143: $GPGSA,A,3,10,13,15,18,20,21,24,27,32,8,138,,1.6,1.0,1.3*39
2017-11-16 13:56:20 1510858580.381158: $GPZDA,185619.00,16,11,2017,00,00*67
2017-11-16 13:56:20 1510858580.381293: $GPGGA,185619,3946.9608,N,08404.9834,W,2,11,1.00,307.05,M,-33.324,M,,*78
2017-11-16 13:56:20 1510858580.381329: $GPRMC,185619,A,3946.9608,N,08404.9834,W,0.0000,0.000,161117,,*3D
2017-11-16 13:56:20 1510858580.381358: $GPGSA,A,3,10,13,15,18,20,21,24,27,32,8,138,,1.6,1.0,1.3*39
2017-11-16 13:56:21 1510858581.386357: $GPZDA,185620.00,16,11,2017,00,00*6D
2017-11-16 13:56:21 1510858581.386521: $GPGGA,185620,3946.9608,N,08404.9834,W,2,11,1.00,307.05,M,-33.324,M,,*72
2017-11-16 13:56:21 1510858581.386582: $GPRMC,185620,A,3946.9608,N,08404.9834,W,0.0000,0.000,161117,,*37
2017-11-16 13:56:21 1510858581.386638: $GPGSA,A,3,10,13,15,18,20,21,24,27,32,8,138,,1.6,1.0,1.3*39
2017-11-16 13:56:22 1510858582.723301: $GPGSV,3,1,11,10,35,295,34,13,15,046,42,15,45,051,51,18,65,321,48*74
2017-11-16 13:56:22 1510858582.723485: $GPGSV,3,2,11,20,39,088,48,21,72,202,46,24,46,123,45,27,19,298,37*77
2017-11-16 13:56:22 1510858582.723546: $GPGSV,3,3,11,32,14,232,38,08,03,328,23,138,38,213,44*77
2017-11-16 13:56:22 1510858582.836942: $GPZDA,185621.00,16,11,2017,00,00*6C
2017-11-16 13:56:22 1510858582.837085: $GPGGA,185621,3946.9608,N,08404.9834,W,2,11,1.00,307.05,M,-33.324,M,,*73
2017-11-16 13:56:22 1510858582.837146: $GPRMC,185621,A,3946.9608,N,08404.9834,W,0.0000,0.000,161117,,*36
2017-11-16 13:56:22 1510858582.837201: $GPGSA,A,3,10,13,15,18,20,21,24,27,32,8,138,,1.6,1.0,1.3*39
2017-11-16 13:56:23 1510858583.387677: $GPZDA,185622.00,16,11,2017,00,00*6F
2017-11-16 13:56:23 1510858583.387840: $GPGGA,185622,3946.9608,N,08404.9834,W,2,11,1.00,307.05,M,-33.324,M,,*70
2017-11-16 13:56:23 1510858583.387901: $GPRMC,185622,A,3946.9608,N,08404.9834,W,0.0000,0.000,161117,,*35
2017-11-16 13:56:23 1510858583.387957: $GPGSA,A,3,10,13,15,18,20,21,24,27,32,8,138,,1.6,1.0,1.3*39
