2017-12-29 11:52:34 1514566354.007131: {"class":"VERSION","release":"3.16","rev":"3.16-4","proto_major":3,"proto_minor":11}
2017-12-29 11:52:34 1514566354.007477: {"class":"DEVICES","devices":[{"class":"DEVICE","path":"/dev/ttyUSB0","driver":"SiRF","subtype":"9\u0006GSD4e_4.1.2-P1_RPATCH.05-F-GPS-4R-1510281 11/03/2015 307","activated":"2017-12-29T16:52:34.001Z","flags":1,"native":1,"bps":4800,"parity":"N","stopbits":1,"cycle":1.00}]}
2017-12-29 11:52:34 1514566354.007592: {"class":"WATCH","enable":true,"json":false,"nmea":true,"raw":0,"scaled":false,"timing":false,"split24":false,"pps":false}
2017-12-29 11:52:34 1514566354.337303: $GPZDA,165234.98,29,12,2017,00,00*6C
2017-12-29 11:52:34 1514566354.337453: $GPGGA,165234,3946.9620,N,08404.9868,W,2,11,0.80,320.01,M,-33.324,M,,*76
2017-12-29 11:52:34 1514566354.337519: $GPRMC,165234,A,3946.9620,N,08404.9868,W,0.3423,4.196,291217,,*38
2017-12-29 11:52:34 1514566354.337580: $GPGSA,A,3,8,10,14,15,18,20,21,24,27,32,138,,1.7,0.8,1.3*36
2017-12-29 11:52:35 1514566355.337305: $GPZDA,165235.98,29,12,2017,00,00*6D
2017-12-29 11:52:35 1514566355.337472: $GPGGA,165235,3946.9624,N,08404.9875,W,2,11,0.80,320.57,M,-33.324,M,,*7C
2017-12-29 11:52:35 1514566355.337538: $GPRMC,165235,A,3946.9624,N,08404.9875,W,0.0000,0.000,291217,,*3D
2017-12-29 11:52:35 1514566355.337599: $GPGSA,A,3,8,10,14,15,18,20,21,24,27,32,138,,1.7,0.8,1.3*36
2017-12-29 11:52:36 1514566356.772652: $GPGSV,3,1,11,08,08,309,36,10,55,313,46,14,16,241,30,15,23,058,44*78
2017-12-29 11:52:36 1514566356.772830: $GPGSV,3,2,11,18,77,037,44,20,22,108,49,21,46,183,46,24,53,082,50*75
2017-12-29 11:52:36 1514566356.772894: $GPGSV,3,3,11,27,14,274,37,32,34,250,38,138,38,213,45*76
2017-12-29 11:52:36 1514566356.886110: $GPZDA,165237.00,29,12,2017,00,00*6E
2017-12-29 11:52:36 1514566356.886275: $GPGGA,165237,3946.9624,N,08404.9874,W,2,11,0.80,319.17,M,-33.324,M,,*71
2017-12-29 11:52:36 1514566356.886341: $GPRMC,165237,A,3946.9624,N,08404.9874,W,0.0000,0.000,291217,,*3E
2017-12-29 11:52:36 1514566356.886400: $GPGSA,A,3,8,10,14,15,18,20,21,24,27,32,138,,1.7,0.8,1.3*36
2017-12-29 11:52:37 1514566357.440164: $GPZDA,165238.00,29,12,2017,00,00*61
2017-12-29 11:52:37 1514566357.440351: $GPGGA,165238,3946.9624,N,08404.9874,W,2,11,0.80,319.17,M,-33.324,M,,*7E
2017-12-29 11:52:37 1514566357.440419: $GPRMC,165238,A,3946.9624,N,08404.9874,W,0.0000,0.000,291217,,*31
2017-12-29 11:52:37 1514566357.440479: $GPGSA,A,3,8,10,14,15,18,20,21,24,27,32,138,,1.7,0.8,1.3*36
2017-12-29 11:52:38 1514566358.438506: $GPZDA,165239.00,29,12,2017,00,00*60
2017-12-29 11:52:38 1514566358.438684: $GPGGA,165239,3946.9624,N,08404.9874,W,2,11,0.80,319.17,M,-33.324,M,,*7F
2017-12-29 11:52:38 1514566358.438752: $GPRMC,165239,A,3946.9624,N,08404.9874,W,0.0000,0.000,291217,,*30
2017-12-29 11:52:38 1514566358.438812: $GPGSA,A,3,8,10,14,15,18,20,21,24,27,32,138,,1.7,0.8,1.3*36
2017-12-29 11:52:39 1514566359.773001: $GPGSV,3,1,11,08,08,309,35,10,55,313,45,14,16,241,32,15,23,058,44*7A
2017-12-29 11:52:39 1514566359.773155: $GPGSV,3,2,11,18,77,037,44,20,22,108,49,21,46,183,47,24,53,082,50*74
2017-12-29 11:52:39 1514566359.773219: $GPGSV,3,3,11,27,14,274,37,32,34,250,38,138,38,213,45*76
2017-12-29 11:52:39 1514566359.886367: $GPZDA,165240.00,29,12,2017,00,00*6E
2017-12-29 11:52:39 1514566359.886541: $GPGGA,165240,3946.9624,N,08404.9874,W,2,11,1.00,319.17,M,-33.324,M,,*78
2017-12-29 11:52:39 1514566359.886609: $GPRMC,165240,A,3946.9624,N,08404.9874,W,0.0000,0.000,291217,,*3E
2017-12-29 11:52:39 1514566359.886669: $GPGSA,A,3,8,10,14,15,18,20,21,24,27,32,138,,1.7,1.0,1.3*3F
2017-12-29 11:52:40 1514566360.438491: $GPZDA,165241.00,29,12,2017,00,00*6F
2017-12-29 11:52:40 1514566360.438668: $GPGGA,165241,3946.9624,N,08404.9874,W,2,11,1.00,319.17,M,-33.324,M,,*79
2017-12-29 11:52:40 1514566360.438734: $GPRMC,165241,A,3946.9624,N,08404.9874,W,0.0000,0.000,291217,,*3F
2017-12-29 11:52:40 1514566360.438795: $GPGSA,A,3,8,10,14,15,18,20,21,24,27,32,138,,1.7,1.0,1.3*3F
2017-12-29 11:52:41 1514566361.438080: $GPZDA,165242.00,29,12,2017,00,00*6C
2017-12-29 11:52:41 1514566361.438249: $GPGGA,165242,3946.9624,N,08404.9874,W,2,11,1.00,319.17,M,-33.324,M,,*7A
2017-12-29 11:52:41 1514566361.438372: $GPRMC,165242,A,3946.9624,N,08404.9874,W,0.0000,0.000,291217,,*3C
2017-12-29 11:52:41 1514566361.438436: $GPGSA,A,3,8,10,14,15,18,20,21,24,27,32,138,,1.7,1.0,1.3*3F
2017-12-29 11:52:42 1514566362.780069: $GPGSV,3,1,11,08,08,309,30,10,55,313,45,14,16,241,32,15,23,058,45*7E
2017-12-29 11:52:42 1514566362.780249: $GPGSV,3,2,11,18,77,037,45,20,22,108,49,21,46,183,47,24,53,082,50*75
2017-12-29 11:52:42 1514566362.780315: $GPGSV,3,3,11,27,14,274,38,32,34,250,39,138,38,213,44*79
2017-12-29 11:52:42 1514566362.893627: $GPZDA,165243.00,29,12,2017,00,00*6D
2017-12-29 11:52:42 1514566362.893782: $GPGGA,165243,3946.9624,N,08404.9874,W,2,11,1.00,319.17,M,-33.324,M,,*7B
2017-12-29 11:52:42 1514566362.893847: $GPRMC,165243,A,3946.9624,N,08404.9874,W,0.0000,0.000,291217,,*3D
2017-12-29 11:52:42 1514566362.893908: $GPGSA,A,3,8,10,14,15,18,20,21,24,27,32,138,,1.7,1.0,1.3*3F
2017-12-29 11:52:43 1514566363.518908: $GPZDA,165244.00,29,12,2017,00,00*6A
2017-12-29 11:52:43 1514566363.519076: $GPGGA,165244,3946.9624,N,08404.9874,W,2,11,0.80,319.17,M,-33.324,M,,*75
2017-12-29 11:52:43 1514566363.519143: $GPRMC,165244,A,3946.9624,N,08404.9874,W,0.0000,0.000,291217,,*3A
2017-12-29 11:52:43 1514566363.519203: $GPGSA,A,3,8,10,14,15,18,20,21,24,27,32,138,,1.7,0.8,1.3*36
2017-12-29 11:52:44 1514566364.442254: $GPZDA,165245.00,29,12,2017,00,00*6B
2017-12-29 11:52:44 1514566364.447469: $GPGGA,165245,3946.9624,N,08404.9874,W,2,11,0.80,319.17,M,-33.324,M,,*74
2017-12-29 11:52:44 1514566364.447570: $GPRMC,165245,A,3946.9624,N,08404.9874,W,0.0000,0.000,291217,,*3B
2017-12-29 11:52:44 1514566364.447634: $GPGSA,A,3,8,10,14,15,18,20,21,24,27,32,138,,1.7,0.8,1.3*36
2017-12-29 11:52:45 1514566365.774213: $GPGSV,3,1,11,08,08,309,30,10,55,313,45,14,16,241,32,15,23,058,45*7E
2017-12-29 11:52:45 1514566365.774363: $GPGSV,3,2,11,18,77,037,45,20,22,108,49,21,46,183,47,24,53,082,50*75
2017-12-29 11:52:45 1514566365.774428: $GPGSV,3,3,11,27,14,274,38,32,34,250,39,138,38,213,44*79
2017-12-29 11:52:45 1514566365.887573: $GPZDA,165246.00,29,12,2017,00,00*68
2017-12-29 11:52:45 1514566365.887747: $GPGGA,165246,3946.9620,N,08404.9875,W,2,11,0.80,319.93,M,-33.324,M,,*7E
2017-12-29 11:52:45 1514566365.887814: $GPRMC,165246,A,3946.9620,N,08404.9875,W,0.0000,0.000,291217,,*3D
2017-12-29 11:52:45 1514566365.887874: $GPGSA,A,3,8,10,14,15,18,20,21,24,27,32,138,,1.7,0.8,1.3*36
2017-12-29 11:52:46 1514566366.443692: $GPZDA,165247.00,29,12,2017,00,00*69
2017-12-29 11:52:46 1514566366.443861: $GPGGA,165247,3946.9620,N,08404.9875,W,2,11,0.80,319.93,M,-33.324,M,,*7F
2017-12-29 11:52:46 1514566366.443927: $GPRMC,165247,A,3946.9620,N,08404.9875,W,0.0000,0.000,291217,,*3C
2017-12-29 11:52:46 1514566366.443987: $GPGSA,A,3,8,10,14,15,18,20,21,24,27,32,138,,1.7,0.8,1.3*36
2017-12-29 11:52:47 1514566367.442288: $GPZDA,165248.00,29,12,2017,00,00*66
2017-12-29 11:52:47 1514566367.442457: $GPGGA,165248,3946.9620,N,08404.9875,W,2,11,0.80,319.93,M,-33.324,M,,*70
2017-12-29 11:52:47 1514566367.442522: $GPRMC,165248,A,3946.9620,N,08404.9875,W,0.0000,0.000,291217,,*33
2017-12-29 11:52:47 1514566367.442583: $GPGSA,A,3,8,10,14,15,18,20,21,24,27,32,138,,1.7,0.8,1.3*36
2017-12-29 11:52:48 1514566368.778387: $GPGSV,3,1,11,08,08,309,30,10,55,313,45,14,16,241,32,15,23,058,45*7E
2017-12-29 11:52:48 1514566368.778574: $GPGSV,3,2,11,18,77,037,45,20,22,108,49,21,46,183,47,24,53,082,50*75
2017-12-29 11:52:48 1514566368.778639: $GPGSV,3,3,11,27,14,274,38,32,34,250,38,138,38,213,44*78
2017-12-29 11:52:48 1514566368.891908: $GPZDA,165249.00,29,12,2017,00,00*67
2017-12-29 11:52:48 1514566368.892062: $GPGGA,165249,3946.9620,N,08404.9875,W,2,11,0.80,319.93,M,-33.324,M,,*71
2017-12-29 11:52:48 1514566368.892128: $GPRMC,165249,A,3946.9620,N,08404.9875,W,0.0000,0.000,291217,,*32
2017-12-29 11:52:48 1514566368.892188: $GPGSA,A,3,8,10,14,15,18,20,21,24,27,32,138,,1.7,0.8,1.3*36
