2017-12-01 18:25:05 1512170705.026938: {"class":"VERSION","release":"3.16","rev":"3.16-4","proto_major":3,"proto_minor":11}
2017-12-01 18:25:05 1512170705.027343: {"class":"DEVICES","devices":[{"class":"DEVICE","path":"/dev/ttyUSB0","driver":"SiRF","subtype":"9\u0006GSD4e_4.1.2-P1_RPATCH.05-F-GPS-4R-1510281 11/03/2015 307","activated":"2017-12-01T23:25:04.496Z","flags":1,"native":1,"bps":4800,"parity":"N","stopbits":1,"cycle":1.00}]}
2017-12-01 18:25:05 1512170705.027459: {"class":"WATCH","enable":true,"json":false,"nmea":true,"raw":0,"scaled":false,"timing":false,"split24":false,"pps":false}
2017-12-01 18:25:05 1512170705.352481: $GPZDA,232506.00,01,12,2017,00,00*60
2017-12-01 18:25:05 1512170705.352664: $GPGGA,232506,3946.9719,N,08404.9840,W,2,11,0.80,297.93,M,-33.325,M,,*77
2017-12-01 18:25:05 1512170705.352732: $GPRMC,232506,A,3946.9719,N,08404.9840,W,0.0000,0.000,011217,,*38
2017-12-01 18:25:05 1512170705.352794: $GPGSA,A,3,1,3,14,16,22,23,25,26,31,32,138,,2.0,0.8,1.5*07
2017-12-01 18:25:06 1512170706.687416: $GPGSV,3,1,12,01,05,252,40,03,40,298,46,14,55,093,44,16,24,189,42*73
2017-12-01 18:25:06 1512170706.687608: $GPGSV,3,2,12,22,50,270,44,23,12,301,42,25,17,040,38,26,54,171,47*72
2017-12-01 18:25:06 1512170706.687676: $GPGSV,3,3,12,31,66,027,47,32,35,108,41,29,11,072,00,138,38,213,46*48
2017-12-01 18:25:06 1512170706.801217: $GPZDA,232507.00,01,12,2017,00,00*61
2017-12-01 18:25:06 1512170706.801436: $GPGGA,232507,3946.9719,N,08404.9840,W,2,11,0.80,297.93,M,-33.325,M,,*76
2017-12-01 18:25:06 1512170706.801522: $GPRMC,232507,A,3946.9719,N,08404.9840,W,0.0000,0.000,011217,,*39
2017-12-01 18:25:06 1512170706.801591: $GPGSA,A,3,1,3,14,16,22,23,25,26,31,32,138,,2.0,0.8,1.5*07
2017-12-01 18:25:07 1512170707.352999: $GPZDA,232508.00,01,12,2017,00,00*6E
2017-12-01 18:25:07 1512170707.353171: $GPGGA,232508,3946.9719,N,08404.9840,W,2,11,0.80,297.93,M,-33.325,M,,*79
2017-12-01 18:25:07 1512170707.353239: $GPRMC,232508,A,3946.9719,N,08404.9840,W,0.0000,0.000,011217,,*36
2017-12-01 18:25:07 1512170707.353300: $GPGSA,A,3,1,3,14,16,22,23,25,26,31,32,138,,2.0,0.8,1.5*07
2017-12-01 18:25:08 1512170708.351386: $GPZDA,232509.00,01,12,2017,00,00*6F
2017-12-01 18:25:08 1512170708.351577: $GPGGA,232509,3946.9719,N,08404.9840,W,2,11,0.80,297.93,M,-33.325,M,,*78
2017-12-01 18:25:08 1512170708.351647: $GPRMC,232509,A,3946.9719,N,08404.9840,W,0.0000,0.000,011217,,*37
2017-12-01 18:25:08 1512170708.351728: $GPGSA,A,3,1,3,14,16,22,23,25,26,31,32,138,,2.0,0.8,1.5*07
2017-12-01 18:25:09 1512170709.729604: $GPGSV,3,1,12,01,05,252,40,03,40,298,47,14,55,093,44,16,24,189,42*72
2017-12-01 18:25:09 1512170709.729762: $GPGSV,3,2,12,22,50,270,44,23,12,301,42,25,17,040,39,26,54,171,47*73
2017-12-01 18:25:09 1512170709.729830: $GPGSV,3,3,12,31,66,027,46,32,35,108,42,29,11,072,00,138,38,213,45*49
2017-12-01 18:25:09 1512170709.843014: $GPZDA,232510.00,01,12,2017,00,00*67
2017-12-01 18:25:09 1512170709.843189: $GPGGA,232510,3946.9719,N,08404.9840,W,2,11,0.80,297.93,M,-33.325,M,,*70
2017-12-01 18:25:09 1512170709.843258: $GPRMC,232510,A,3946.9719,N,08404.9840,W,0.0000,0.000,011217,,*3F
2017-12-01 18:25:09 1512170709.843320: $GPGSA,A,3,1,3,14,16,22,23,25,26,31,32,138,,2.0,0.8,1.5*07
2017-12-01 18:25:10 1512170710.382722: $GPZDA,232511.00,01,12,2017,00,00*66
2017-12-01 18:25:10 1512170710.382891: $GPGGA,232511,3946.9719,N,08404.9840,W,2,11,0.80,297.93,M,-33.325,M,,*71
2017-12-01 18:25:10 1512170710.382958: $GPRMC,232511,A,3946.9719,N,08404.9840,W,0.0000,0.000,011217,,*3E
2017-12-01 18:25:10 1512170710.383019: $GPGSA,A,3,1,3,14,16,22,23,25,26,31,32,138,,2.0,0.8,1.5*07
2017-12-01 18:25:11 1512170711.383288: $GPZDA,232512.00,01,12,2017,00,00*65
2017-12-01 18:25:11 1512170711.383458: $GPGGA,232512,3946.9719,N,08404.9840,W,2,11,0.80,297.93,M,-33.325,M,,*72
2017-12-01 18:25:11 1512170711.383525: $GPRMC,232512,A,3946.9719,N,08404.9840,W,0.0000,0.000,011217,,*3D
2017-12-01 18:25:11 1512170711.383586: $GPGSA,A,3,1,3,14,16,22,23,25,26,31,32,138,,2.0,0.8,1.5*07
2017-12-01 18:25:12 1512170712.726091: $GPGSV,3,1,12,01,05,252,40,03,40,298,47,14,55,093,44,16,24,189,42*72
2017-12-01 18:25:12 1512170712.726323: $GPGSV,3,2,12,22,50,270,44,23,12,301,42,25,17,040,39,26,54,171,47*73
2017-12-01 18:25:12 1512170712.726393: $GPGSV,3,3,12,31,66,027,46,32,35,108,39,29,11,072,08,138,38,213,46*4E
2017-12-01 18:25:12 1512170712.838235: $GPZDA,232513.00,01,12,2017,00,00*64
2017-12-01 18:25:12 1512170712.838396: $GPGGA,232513,3946.9719,N,08404.9840,W,2,11,0.80,297.93,M,-33.325,M,,*73
2017-12-01 18:25:12 1512170712.838462: $GPRMC,232513,A,3946.9719,N,08404.9840,W,0.0000,0.000,011217,,*3C
2017-12-01 18:25:12 1512170712.838523: $GPGSA,A,3,1,3,14,16,22,23,25,26,31,32,138,,2.0,0.8,1.5*07
2017-12-01 18:25:13 1512170713.385736: $GPZDA,232514.00,01,12,2017,00,00*63
2017-12-01 18:25:13 1512170713.385887: $GPGGA,232514,3946.9719,N,08404.9840,W,2,11,0.80,297.93,M,-33.325,M,,*74
2017-12-01 18:25:13 1512170713.385953: $GPRMC,232514,A,3946.9719,N,08404.9840,W,0.0000,0.000,011217,,*3B
2017-12-01 18:25:13 1512170713.386014: $GPGSA,A,3,1,3,14,16,22,23,25,26,31,32,138,,2.0,0.8,1.5*07
2017-12-01 18:25:14 1512170714.351529: $GPZDA,232515.00,01,12,2017,00,00*62
2017-12-01 18:25:14 1512170714.351728: $GPGGA,232515,3946.9719,N,08404.9840,W,2,11,0.80,297.93,M,-33.325,M,,*75
2017-12-01 18:25:14 1512170714.353024: $GPRMC,232515,A,3946.9719,N,08404.9840,W,0.0000,0.000,011217,,*3A
2017-12-01 18:25:14 1512170714.353110: $GPGSA,A,3,1,3,14,16,22,23,25,26,31,32,138,,2.0,0.8,1.5*07
2017-12-01 18:25:15 1512170715.718225: $GPGSV,3,1,12,01,05,252,40,03,40,298,47,14,55,093,44,16,24,189,42*72
2017-12-01 18:25:15 1512170715.718418: $GPGSV,3,2,12,22,50,270,44,23,12,301,42,25,17,040,39,26,54,171,47*73
2017-12-01 18:25:15 1512170715.718486: $GPGSV,3,3,12,31,66,027,46,32,35,108,39,29,11,072,00,138,38,213,46*46
2017-12-01 18:25:15 1512170715.831585: $GPZDA,232516.00,01,12,2017,00,00*61
2017-12-01 18:25:15 1512170715.831756: $GPGGA,232516,3946.9719,N,08404.9840,W,2,11,0.80,297.93,M,-33.325,M,,*76
2017-12-01 18:25:15 1512170715.831823: $GPRMC,232516,A,3946.9719,N,08404.9840,W,0.0000,0.000,011217,,*39
2017-12-01 18:25:15 1512170715.831884: $GPGSA,A,3,1,3,14,16,22,23,25,26,31,32,138,,2.0,0.8,1.5*07
2017-12-01 18:25:16 1512170716.457255: $GPZDA,232517.00,01,12,2017,00,00*60
2017-12-01 18:25:16 1512170716.457424: $GPGGA,232517,3946.9719,N,08404.9840,W,2,11,0.80,297.93,M,-33.325,M,,*77
2017-12-01 18:25:16 1512170716.457492: $GPRMC,232517,A,3946.9719,N,08404.9840,W,0.0000,0.000,011217,,*38
2017-12-01 18:25:16 1512170716.457553: $GPGSA,A,3,1,3,14,16,22,23,25,26,31,32,138,,2.0,0.8,1.5*07
2017-12-01 18:25:17 1512170717.390672: $GPZDA,232518.00,01,12,2017,00,00*6F
2017-12-01 18:25:17 1512170717.390858: $GPGGA,232518,3946.9719,N,08404.9840,W,2,11,0.80,297.93,M,-33.325,M,,*78
2017-12-01 18:25:17 1512170717.390925: $GPRMC,232518,A,3946.9719,N,08404.9840,W,0.0000,0.000,011217,,*37
2017-12-01 18:25:17 1512170717.390986: $GPGSA,A,3,1,3,14,16,22,23,25,26,31,32,138,,2.0,0.8,1.5*07
2017-12-01 18:25:18 1512170718.681104: $GPGSV,3,1,12,01,05,252,40,03,40,298,47,14,55,093,44,16,24,189,42*72
2017-12-01 18:25:18 1512170718.681285: $GPGSV,3,2,12,22,50,270,44,23,12,301,42,25,17,040,40,26,54,171,47*7D
2017-12-01 18:25:18 1512170718.681426: $GPGSV,3,3,12,31,66,027,47,32,35,108,40,29,11,072,00,138,38,213,46*49
2017-12-01 18:25:18 1512170718.794705: $GPZDA,232519.00,01,12,2017,00,00*6E
2017-12-01 18:25:18 1512170718.794852: $GPGGA,232519,3946.9719,N,08404.9840,W,2,11,0.80,297.93,M,-33.325,M,,*79
2017-12-01 18:25:18 1512170718.794918: $GPRMC,232519,A,3946.9719,N,08404.9840,W,0.0000,0.000,011217,,*36
2017-12-01 18:25:18 1512170718.794979: $GPGSA,A,3,1,3,14,16,22,23,25,26,31,32,138,,2.0,0.8,1.5*07
2017-12-01 18:25:19 1512170719.385757: $GPZDA,232520.00,01,12,2017,00,00*64
2017-12-01 18:25:19 1512170719.385966: $GPGGA,232520,3946.9719,N,08404.9840,W,2,11,0.80,297.93,M,-33.325,M,,*73
2017-12-01 18:25:19 1512170719.386055: $GPRMC,232520,A,3946.9719,N,08404.9840,W,0.0000,0.000,011217,,*3C
2017-12-01 18:25:19 1512170719.386119: $GPGSA,A,3,1,3,14,16,22,23,25,26,31,32,138,,2.0,0.8,1.5*07
2017-12-01 18:25:20 1512170720.386566: $GPZDA,232521.00,01,12,2017,00,00*65
2017-12-01 18:25:20 1512170720.386784: $GPGGA,232521,3946.9719,N,08404.9840,W,2,11,0.80,297.93,M,-33.325,M,,*72
2017-12-01 18:25:20 1512170720.386867: $GPRMC,232521,A,3946.9719,N,08404.9840,W,0.0000,0.000,011217,,*3D
2017-12-01 18:25:20 1512170720.386930: $GPGSA,A,3,1,3,14,16,22,23,25,26,31,32,138,,2.0,0.8,1.5*07
2017-12-01 18:25:21 1512170721.720195: $GPGSV,3,1,12,01,05,252,39,03,40,298,47,14,55,093,44,16,24,189,42*7C
2017-12-01 18:25:21 1512170721.720377: $GPGSV,3,2,12,22,50,270,45,23,12,301,42,25,17,040,39,26,54,171,47*72
2017-12-01 18:25:21 1512170721.720444: $GPGSV,3,3,12,31,66,027,47,32,35,108,40,29,11,072,00,138,38,213,46*49
2017-12-01 18:25:21 1512170721.833827: $GPZDA,232522.00,01,12,2017,00,00*66
2017-12-01 18:25:21 1512170721.833996: $GPGGA,232522,3946.9715,N,08404.9840,W,2,11,0.80,297.29,M,-33.325,M,,*7C
2017-12-01 18:25:21 1512170721.834062: $GPRMC,232522,A,3946.9715,N,08404.9840,W,0.0000,0.000,011217,,*32
2017-12-01 18:25:21 1512170721.834123: $GPGSA,A,3,1,3,14,16,22,23,25,26,31,32,138,,2.0,0.8,1.5*07
2017-12-01 18:25:22 1512170722.383449: $GPZDA,232523.00,01,12,2017,00,00*67
2017-12-01 18:25:22 1512170722.383617: $GPGGA,232523,3946.9715,N,08404.9840,W,2,11,0.80,297.29,M,-33.325,M,,*7D
2017-12-01 18:25:22 1512170722.383683: $GPRMC,232523,A,3946.9715,N,08404.9840,W,0.0000,0.000,011217,,*33
2017-12-01 18:25:22 1512170722.383744: $GPGSA,A,3,1,3,14,16,22,23,25,26,31,32,138,,2.0,0.8,1.5*07
2017-12-01 18:25:23 1512170723.393094: $GPZDA,232524.00,01,12,2017,00,00*60
2017-12-01 18:25:23 1512170723.393264: $GPGGA,232524,3946.9715,N,08404.9840,W,2,11,0.80,297.29,M,-33.325,M,,*7A
2017-12-01 18:25:23 1512170723.393331: $GPRMC,232524,A,3946.9715,N,08404.9840,W,0.0000,0.000,011217,,*34
2017-12-01 18:25:23 1512170723.393391: $GPGSA,A,3,1,3,14,16,22,23,25,26,31,32,138,,2.0,0.8,1.5*07
2017-12-01 18:25:24 1512170724.713531: $GPGSV,3,1,12,01,05,252,38,03,40,298,47,14,55,093,44,16,24,189,42*7D
2017-12-01 18:25:24 1512170724.713712: $GPGSV,3,2,12,22,50,270,45,23,12,301,42,25,17,040,40,26,54,171,47*7C
2017-12-01 18:25:24 1512170724.713779: $GPGSV,3,3,12,31,66,027,47,32,35,108,40,29,11,072,00,138,38,213,46*49
2017-12-01 18:25:24 1512170724.827035: $GPZDA,232525.00,01,12,2017,00,00*61
2017-12-01 18:25:24 1512170724.827188: $GPGGA,232525,3946.9715,N,08404.9840,W,2,11,0.80,297.29,M,-33.325,M,,*7B
2017-12-01 18:25:24 1512170724.827254: $GPRMC,232525,A,3946.9715,N,08404.9840,W,0.0000,0.000,011217,,*35
2017-12-01 18:25:24 1512170724.827315: $GPGSA,A,3,1,3,14,16,22,23,25,26,31,32,138,,2.0,0.8,1.5*07
