2017-11-16 14:58:05 1510862285.765431: {"class":"VERSION","release":"3.17","rev":"3.17","proto_major":3,"proto_minor":12}
2017-11-16 14:58:05 1510862285.765934: {"class":"DEVICES","devices":[{"class":"DEVICE","path":"/dev/ttyUSB0","driver":"SiRF","subtype":"9\u0006GSD4e_4.1.2-P1_RPATCH.05-F-GPS-4R-1510281 11/03/2015 307","activated":"2017-11-16T19:58:05.636Z","flags":1,"native":1,"bps":4800,"parity":"N","stopbits":1,"cycle":1.00}]}
2017-11-16 14:58:05 1510862285.766059: {"class":"WATCH","enable":true,"json":false,"nmea":true,"raw":0,"scaled":false,"timing":false,"split24":false,"pps":false}
2017-11-16 14:58:06 1510862286.823928: $GPGSV,3,1,12,08,08,304,00,10,57,316,51,12,01,117,00,15,21,060,48*74
2017-11-16 14:58:06 1510862286.824112: $GPGSV,3,2,12,18,77,048,45,21,43,181,44,20,18,109,44,24,52,076,48*7C
2017-11-16 14:58:06 1510862286.824176: $GPGSV,3,3,12,27,13,271,42,32,36,252,47,14,19,244,44,138,38,213,44*43
2017-11-16 14:58:06 1510862286.937471: $GPZDA,195805.00,16,11,2017,00,00*65
2017-11-16 14:58:06 1510862286.937635: $GPGGA,195805,3946.9575,N,08404.9848,W,2,10,1.00,301.77,M,-33.324,M,,*7A
2017-11-16 14:58:06 1510862286.937701: $GPRMC,195805,A,3946.9575,N,08404.9848,W,0.0000,0.000,161117,,*3D
2017-11-16 14:58:06 1510862286.937777: $GPGSA,A,3,10,15,18,21,20,24,27,32,14,138,,,1.6,1.0,1.3*06
2017-11-16 14:58:07 1510862287.493348: $GPZDA,195806.00,16,11,2017,00,00*66
2017-11-16 14:58:07 1510862287.493510: $GPGGA,195806,3946.9575,N,08404.9848,W,2,10,1.00,301.77,M,-33.324,M,,*79
2017-11-16 14:58:07 1510862287.493573: $GPRMC,195806,A,3946.9575,N,08404.9848,W,0.0000,0.000,161117,,*3E
2017-11-16 14:58:07 1510862287.493649: $GPGSA,A,3,10,15,18,21,20,24,27,32,14,138,,,1.6,1.0,1.3*06
2017-11-16 14:58:08 1510862288.532997: $GPZDA,195807.00,16,11,2017,00,00*67
2017-11-16 14:58:08 1510862288.533173: $GPGGA,195807,3946.9575,N,08404.9848,W,2,10,0.80,301.77,M,-33.324,M,,*71
2017-11-16 14:58:08 1510862288.533236: $GPRMC,195807,A,3946.9575,N,08404.9848,W,0.0000,0.000,161117,,*3F
2017-11-16 14:58:08 1510862288.533292: $GPGSA,A,3,10,15,18,21,20,24,27,32,14,138,,,1.6,0.8,1.3*0F
2017-11-16 14:58:09 1510862289.831906: $GPGSV,3,1,12,08,08,304,26,10,57,316,51,12,01,117,00,15,21,060,48*70
2017-11-16 14:58:09 1510862289.832091: $GPGSV,3,2,12,18,77,048,45,21,43,181,45,20,18,109,44,24,52,076,48*7D
2017-11-16 14:58:09 1510862289.832154: $GPGSV,3,3,12,27,13,271,42,32,36,252,47,14,19,244,44,138,38,213,44*43
2017-11-16 14:58:09 1510862289.944122: $GPZDA,195808.00,16,11,2017,00,00*68
2017-11-16 14:58:09 1510862289.944271: $GPGGA,195808,3946.9575,N,08404.9848,W,2,11,0.80,301.77,M,-33.324,M,,*7F
2017-11-16 14:58:09 1510862289.944333: $GPRMC,195808,A,3946.9575,N,08404.9848,W,0.0000,0.000,161117,,*30
2017-11-16 14:58:09 1510862289.944407: $GPGSA,A,3,8,10,15,18,21,20,24,27,32,14,138,,1.6,0.8,1.3*37
2017-11-16 14:58:10 1510862290.532531: $GPZDA,195809.00,16,11,2017,00,00*69
2017-11-16 14:58:10 1510862290.532715: $GPGGA,195809,3946.9575,N,08404.9848,W,2,11,0.80,301.77,M,-33.324,M,,*7E
2017-11-16 14:58:10 1510862290.532779: $GPRMC,195809,A,3946.9575,N,08404.9848,W,0.0000,0.000,161117,,*31
2017-11-16 14:58:10 1510862290.532836: $GPGSA,A,3,8,10,15,18,21,20,24,27,32,14,138,,1.6,0.8,1.3*37
2017-11-16 14:58:11 1510862291.531898: $GPZDA,195810.00,16,11,2017,00,00*61
2017-11-16 14:58:11 1510862291.532062: $GPGGA,195810,3946.9575,N,08404.9848,W,2,11,0.80,301.77,M,-33.324,M,,*76
2017-11-16 14:58:11 1510862291.532128: $GPRMC,195810,A,3946.9575,N,08404.9848,W,0.0000,0.000,161117,,*39
2017-11-16 14:58:11 1510862291.532183: $GPGSA,A,3,8,10,15,18,21,20,24,27,32,14,138,,1.6,0.8,1.3*37
2017-11-16 14:58:12 1510862292.862816: $GPGSV,3,1,12,08,08,304,28,10,57,316,51,12,01,117,00,15,21,060,48*7E
2017-11-16 14:58:12 1510862292.862988: $GPGSV,3,2,12,18,77,048,45,21,43,181,45,20,18,109,44,24,52,076,48*7D
2017-11-16 14:58:12 1510862292.863048: $GPGSV,3,3,12,27,13,271,42,32,36,252,47,14,19,244,44,138,38,213,43*44
2017-11-16 14:58:12 1510862292.976487: $GPZDA,195811.00,16,11,2017,00,00*60
2017-11-16 14:58:12 1510862292.976649: $GPGGA,195811,3946.9575,N,08404.9848,W,2,11,0.80,301.77,M,-33.324,M,,*77
2017-11-16 14:58:12 1510862292.976767: $GPRMC,195811,A,3946.9575,N,08404.9848,W,0.0000,0.000,161117,,*38
2017-11-16 14:58:12 1510862292.976824: $GPGSA,A,3,8,10,15,18,21,20,24,27,32,14,138,,1.6,0.8,1.3*37
2017-11-16 14:58:13 1510862293.525830: $GPZDA,195812.00,16,11,2017,00,00*63
2017-11-16 14:58:13 1510862293.526011: $GPGGA,195812,3946.9575,N,08404.9848,W,2,11,0.80,301.77,M,-33.324,M,,*74
2017-11-16 14:58:13 1510862293.526093: $GPRMC,195812,A,3946.9575,N,08404.9848,W,0.0000,0.000,161117,,*3B
2017-11-16 14:58:13 1510862293.526152: $GPGSA,A,3,8,10,15,18,21,20,24,27,32,14,138,,1.6,0.8,1.3*37
2017-11-16 14:58:14 1510862294.495244: $GPZDA,195813.00,16,11,2017,00,00*62
2017-11-16 14:58:14 1510862294.495401: $GPGGA,195813,3946.9575,N,08404.9848,W,2,11,0.80,301.77,M,-33.324,M,,*75
2017-11-16 14:58:14 1510862294.495462: $GPRMC,195813,A,3946.9575,N,08404.9848,W,0.0000,0.000,161117,,*3A
2017-11-16 14:58:14 1510862294.495517: $GPGSA,A,3,8,10,15,18,21,20,24,27,32,14,138,,1.6,0.8,1.3*37
