2017-12-01 17:50:21 1512168621.205917: {"class":"VERSION","release":"3.16","rev":"3.16-4","proto_major":3,"proto_minor":11}
2017-12-01 17:50:21 1512168621.206294: {"class":"DEVICES","devices":[{"class":"DEVICE","path":"/dev/ttyUSB0","driver":"SiRF","subtype":"9\u0006GSD4e_4.1.2-P1_RPATCH.05-F-GPS-4R-1510281 11/03/2015 307","activated":"2017-12-01T22:50:20.725Z","flags":1,"native":1,"bps":4800,"parity":"N","stopbits":1,"cycle":1.00}]}
2017-12-01 17:50:21 1512168621.206416: {"class":"WATCH","enable":true,"json":false,"nmea":true,"raw":0,"scaled":false,"timing":false,"split24":false,"pps":false}
2017-12-01 17:50:21 1512168621.410529: $GPZDA,225022.00,01,12,2017,00,00*65
2017-12-01 17:50:21 1512168621.410695: $GPGGA,225022,3946.9728,N,08404.9853,W,2,12,0.80,297.64,M,-33.325,M,,*79
2017-12-01 17:50:21 1512168621.410764: $GPRMC,225022,A,3946.9728,N,08404.9853,W,0.0000,0.000,011217,,*3D
2017-12-01 17:50:21 1512168621.410825: $GPGSA,A,3,1,3,10,14,22,16,25,26,29,31,32,138,2.0,0.8,1.5*0C
2017-12-01 17:50:22 1512168622.746197: $GPGSV,3,1,12,01,14,265,43,03,30,310,46,10,11,159,40,14,65,066,41*71
2017-12-01 17:50:22 1512168622.746386: $GPGSV,3,2,12,22,46,292,46,16,08,189,31,25,29,048,41,26,37,175,45*78
2017-12-01 17:50:22 1512168622.746452: $GPGSV,3,3,12,29,04,085,36,31,78,345,46,32,47,093,44,138,38,213,45*48
2017-12-01 17:50:22 1512168622.859589: $GPZDA,225023.00,01,12,2017,00,00*64
2017-12-01 17:50:22 1512168622.859777: $GPGGA,225023,3946.9728,N,08404.9853,W,2,12,0.80,297.64,M,-33.325,M,,*78
2017-12-01 17:50:22 1512168622.859845: $GPRMC,225023,A,3946.9728,N,08404.9853,W,0.0000,0.000,011217,,*3C
2017-12-01 17:50:22 1512168622.859907: $GPGSA,A,3,1,3,10,14,22,16,25,26,29,31,32,138,2.0,0.8,1.5*0C
2017-12-01 17:50:23 1512168623.411728: $GPZDA,225024.00,01,12,2017,00,00*63
2017-12-01 17:50:23 1512168623.411911: $GPGGA,225024,3946.9728,N,08404.9853,W,2,12,0.80,297.64,M,-33.325,M,,*7F
2017-12-01 17:50:23 1512168623.411982: $GPRMC,225024,A,3946.9728,N,08404.9853,W,0.0000,0.000,011217,,*3B
2017-12-01 17:50:23 1512168623.412044: $GPGSA,A,3,1,3,10,14,22,16,25,26,29,31,32,138,2.0,0.8,1.5*0C
2017-12-01 17:50:24 1512168624.412625: $GPZDA,225025.00,01,12,2017,00,00*62
2017-12-01 17:50:24 1512168624.412799: $GPGGA,225025,3946.9728,N,08404.9853,W,2,12,0.80,297.64,M,-33.325,M,,*7E
2017-12-01 17:50:24 1512168624.412867: $GPRMC,225025,A,3946.9728,N,08404.9853,W,0.0000,0.000,011217,,*3A
2017-12-01 17:50:24 1512168624.412927: $GPGSA,A,3,1,3,10,14,22,16,25,26,29,31,32,138,2.0,0.8,1.5*0C
2017-12-01 17:50:25 1512168625.747162: $GPGSV,3,1,12,01,14,265,43,03,30,310,46,10,11,159,41,14,65,066,41*70
2017-12-01 17:50:25 1512168625.747347: $GPGSV,3,2,12,22,46,292,46,16,08,189,29,25,29,048,41,26,37,175,44*70
2017-12-01 17:50:25 1512168625.747413: $GPGSV,3,3,12,29,04,085,36,31,78,345,46,32,47,093,45,138,38,213,45*49
2017-12-01 17:50:25 1512168625.860463: $GPZDA,225026.00,01,12,2017,00,00*61
2017-12-01 17:50:25 1512168625.860610: $GPGGA,225026,3946.9728,N,08404.9853,W,2,12,0.80,297.64,M,-33.325,M,,*7D
2017-12-01 17:50:25 1512168625.860679: $GPRMC,225026,A,3946.9728,N,08404.9853,W,0.0000,0.000,011217,,*39
2017-12-01 17:50:25 1512168625.860742: $GPGSA,A,3,1,3,10,14,22,16,25,26,29,31,32,138,2.0,0.8,1.5*0C
2017-12-01 17:50:26 1512168626.485950: $GPZDA,225027.00,01,12,2017,00,00*60
2017-12-01 17:50:26 1512168626.486105: $GPGGA,225027,3946.9728,N,08404.9853,W,2,12,0.80,297.64,M,-33.325,M,,*7C
2017-12-01 17:50:26 1512168626.486173: $GPRMC,225027,A,3946.9728,N,08404.9853,W,0.0000,0.000,011217,,*38
2017-12-01 17:50:26 1512168626.486235: $GPGSA,A,3,1,3,10,14,22,16,25,26,29,31,32,138,2.0,0.8,1.5*0C
2017-12-01 17:50:27 1512168627.411907: $GPZDA,225028.00,01,12,2017,00,00*6F
2017-12-01 17:50:27 1512168627.412087: $GPGGA,225028,3946.9728,N,08404.9853,W,2,12,0.80,297.64,M,-33.325,M,,*73
2017-12-01 17:50:27 1512168627.412155: $GPRMC,225028,A,3946.9728,N,08404.9853,W,0.0000,0.000,011217,,*37
2017-12-01 17:50:27 1512168627.412216: $GPGSA,A,3,1,3,10,14,22,16,25,26,29,31,32,138,2.0,0.8,1.5*0C
2017-12-01 17:50:28 1512168628.747485: $GPGSV,3,1,12,01,14,265,42,03,30,310,47,10,11,159,41,14,65,066,41*70
2017-12-01 17:50:28 1512168628.747726: $GPGSV,3,2,12,22,46,292,46,16,08,189,32,25,29,048,42,26,37,175,45*78
2017-12-01 17:50:28 1512168628.747797: $GPGSV,3,3,12,29,04,085,36,31,78,345,46,32,47,093,44,138,38,213,45*48
2017-12-01 17:50:28 1512168628.860888: $GPZDA,225029.00,01,12,2017,00,00*6E
2017-12-01 17:50:28 1512168628.861056: $GPGGA,225029,3946.9728,N,08404.9853,W,2,12,0.80,297.64,M,-33.325,M,,*72
2017-12-01 17:50:28 1512168628.861122: $GPRMC,225029,A,3946.9728,N,08404.9853,W,0.0000,0.000,011217,,*36
2017-12-01 17:50:28 1512168628.861182: $GPGSA,A,3,1,3,10,14,22,16,25,26,29,31,32,138,2.0,0.8,1.5*0C
2017-12-01 17:50:29 1512168629.410564: $GPZDA,225030.00,01,12,2017,00,00*66
2017-12-01 17:50:29 1512168629.410737: $GPGGA,225030,3946.9728,N,08404.9853,W,2,12,0.80,297.64,M,-33.325,M,,*7A
2017-12-01 17:50:29 1512168629.410803: $GPRMC,225030,A,3946.9728,N,08404.9853,W,0.0000,0.000,011217,,*3E
2017-12-01 17:50:29 1512168629.410863: $GPGSA,A,3,1,3,10,14,22,16,25,26,29,31,32,138,2.0,0.8,1.5*0C
2017-12-01 17:50:30 1512168630.411653: $GPZDA,225031.00,01,12,2017,00,00*67
2017-12-01 17:50:30 1512168630.411960: $GPGGA,225031,3946.9728,N,08404.9853,W,2,12,0.80,297.64,M,-33.325,M,,*7B
2017-12-01 17:50:30 1512168630.412105: $GPRMC,225031,A,3946.9728,N,08404.9853,W,0.0000,0.000,011217,,*3F
2017-12-01 17:50:30 1512168630.412224: $GPGSA,A,3,1,3,10,14,22,16,25,26,29,31,32,138,2.0,0.8,1.5*0C
2017-12-01 17:50:32 1512168632.276766: $GPGSV,3,1,12,01,14,264,42,03,30,310,47,10,11,159,41,14,65,066,41*71
2017-12-01 17:50:32 1512168632.276994: $GPGSV,3,2,12,22,46,292,47,16,09,189,32,25,29,048,42,26,37,175,46*7B
2017-12-01 17:50:32 1512168632.277062: $GPGSV,3,3,12,29,05,085,36,31,78,346,46,32,47,093,44,138,38,213,45*4A
2017-12-01 17:50:32 1512168632.388836: $GPZDA,225032.00,01,12,2017,00,00*64
2017-12-01 17:50:32 1512168632.389008: $GPGGA,225032,3946.9727,N,08404.9846,W,2,12,0.80,297.72,M,-33.325,M,,*74
2017-12-01 17:50:32 1512168632.389074: $GPRMC,225032,A,3946.9727,N,08404.9846,W,0.2422,93.794,011217,,*01
2017-12-01 17:50:32 1512168632.389135: $GPGSA,A,3,1,3,10,14,22,16,25,26,29,31,32,138,2.0,0.8,1.5*0C
2017-12-01 17:50:32 1512168632.840964: $GPZDA,225033.00,01,12,2017,00,00*65
2017-12-01 17:50:32 1512168632.841140: $GPGGA,225033,3946.9727,N,08404.9846,W,2,12,0.80,297.72,M,-33.325,M,,*75
2017-12-01 17:50:32 1512168632.841207: $GPRMC,225033,A,3946.9727,N,08404.9846,W,0.0000,0.000,011217,,*36
2017-12-01 17:50:32 1512168632.841268: $GPGSA,A,3,1,3,10,14,22,16,25,26,29,31,32,138,2.0,0.8,1.5*0C
2017-12-01 17:50:33 1512168633.410717: $GPZDA,225034.00,01,12,2017,00,00*62
2017-12-01 17:50:33 1512168633.410890: $GPGGA,225034,3946.9727,N,08404.9846,W,2,12,0.80,297.72,M,-33.325,M,,*72
2017-12-01 17:50:33 1512168633.410956: $GPRMC,225034,A,3946.9727,N,08404.9846,W,0.0000,0.000,011217,,*31
2017-12-01 17:50:33 1512168633.411018: $GPGSA,A,3,1,3,10,14,22,16,25,26,29,31,32,138,2.0,0.8,1.5*0C
2017-12-01 17:50:34 1512168634.746354: $GPGSV,3,1,12,01,14,264,42,03,30,310,46,10,11,159,41,14,65,066,41*70
2017-12-01 17:50:34 1512168634.746556: $GPGSV,3,2,12,22,46,292,46,16,09,189,32,25,29,048,42,26,37,175,46*7A
2017-12-01 17:50:34 1512168634.746640: $GPGSV,3,3,12,29,05,085,35,31,78,346,46,32,47,093,44,138,38,213,46*4A
2017-12-01 17:50:34 1512168634.859818: $GPZDA,225035.00,01,12,2017,00,00*63
2017-12-01 17:50:34 1512168634.859982: $GPGGA,225035,3946.9727,N,08404.9846,W,2,12,0.80,297.72,M,-33.325,M,,*73
2017-12-01 17:50:34 1512168634.860049: $GPRMC,225035,A,3946.9727,N,08404.9846,W,0.0000,0.000,011217,,*30
2017-12-01 17:50:34 1512168634.860110: $GPGSA,A,3,1,3,10,14,22,16,25,26,29,31,32,138,2.0,0.8,1.5*0C
2017-12-01 17:50:35 1512168635.411959: $GPZDA,225036.00,01,12,2017,00,00*60
2017-12-01 17:50:35 1512168635.412126: $GPGGA,225036,3946.9727,N,08404.9846,W,2,12,0.80,297.72,M,-33.325,M,,*70
2017-12-01 17:50:35 1512168635.412192: $GPRMC,225036,A,3946.9727,N,08404.9846,W,0.0000,0.000,011217,,*33
2017-12-01 17:50:35 1512168635.412253: $GPGSA,A,3,1,3,10,14,22,16,25,26,29,31,32,138,2.0,0.8,1.5*0C
2017-12-01 17:50:36 1512168636.409650: $GPZDA,225037.00,01,12,2017,00,00*61
2017-12-01 17:50:36 1512168636.409821: $GPGGA,225037,3946.9727,N,08404.9846,W,2,12,0.80,297.72,M,-33.325,M,,*71
2017-12-01 17:50:36 1512168636.409888: $GPRMC,225037,A,3946.9727,N,08404.9846,W,0.0000,0.000,011217,,*32
2017-12-01 17:50:36 1512168636.409948: $GPGSA,A,3,1,3,10,14,22,16,25,26,29,31,32,138,2.0,0.8,1.5*0C
2017-12-01 17:50:37 1512168637.745353: $GPGSV,3,1,12,01,14,264,41,03,30,310,46,10,11,159,41,14,65,066,41*73
2017-12-01 17:50:37 1512168637.745566: $GPGSV,3,2,12,22,46,292,47,16,09,189,33,25,29,048,41,26,37,175,46*79
2017-12-01 17:50:37 1512168637.745636: $GPGSV,3,3,12,29,05,085,34,31,78,346,46,32,47,093,44,138,38,213,46*4B
2017-12-01 17:50:37 1512168637.858734: $GPZDA,225038.00,01,12,2017,00,00*6E
2017-12-01 17:50:37 1512168637.858930: $GPGGA,225038,3946.9727,N,08404.9846,W,2,12,0.80,297.72,M,-33.325,M,,*7E
2017-12-01 17:50:37 1512168637.858997: $GPRMC,225038,A,3946.9727,N,08404.9846,W,0.0000,0.000,011217,,*3D
2017-12-01 17:50:37 1512168637.859058: $GPGSA,A,3,1,3,10,14,22,16,25,26,29,31,32,138,2.0,0.8,1.5*0C
2017-12-01 17:50:38 1512168638.408534: $GPZDA,225039.00,01,12,2017,00,00*6F
2017-12-01 17:50:38 1512168638.408707: $GPGGA,225039,3946.9727,N,08404.9846,W,2,12,0.80,297.72,M,-33.325,M,,*7F
2017-12-01 17:50:38 1512168638.408775: $GPRMC,225039,A,3946.9727,N,08404.9846,W,0.0000,0.000,011217,,*3C
2017-12-01 17:50:38 1512168638.408836: $GPGSA,A,3,1,3,10,14,22,16,25,26,29,31,32,138,2.0,0.8,1.5*0C
2017-12-01 17:50:39 1512168639.411772: $GPZDA,225040.00,01,12,2017,00,00*61
2017-12-01 17:50:39 1512168639.411945: $GPGGA,225040,3946.9727,N,08404.9846,W,2,12,0.80,297.72,M,-33.325,M,,*71
2017-12-01 17:50:39 1512168639.412012: $GPRMC,225040,A,3946.9727,N,08404.9846,W,0.0000,0.000,011217,,*32
2017-12-01 17:50:39 1512168639.412073: $GPGSA,A,3,1,3,10,14,22,16,25,26,29,31,32,138,2.0,0.8,1.5*0C
2017-12-01 17:50:40 1512168640.747442: $GPGSV,3,1,12,01,14,264,41,03,30,310,46,10,11,159,40,14,65,066,41*72
2017-12-01 17:50:40 1512168640.747641: $GPGSV,3,2,12,22,46,292,47,16,09,189,33,25,29,048,41,26,37,175,46*79
2017-12-01 17:50:40 1512168640.747709: $GPGSV,3,3,12,29,05,085,34,31,78,346,47,32,47,093,44,138,38,213,45*49
2017-12-01 17:50:40 1512168640.860848: $GPZDA,225041.00,01,12,2017,00,00*60
2017-12-01 17:50:40 1512168640.861024: $GPGGA,225041,3946.9727,N,08404.9846,W,2,12,0.80,297.72,M,-33.325,M,,*70
2017-12-01 17:50:40 1512168640.861089: $GPRMC,225041,A,3946.9727,N,08404.9846,W,0.0000,0.000,011217,,*33
2017-12-01 17:50:40 1512168640.861151: $GPGSA,A,3,1,3,10,14,22,16,25,26,29,31,32,138,2.0,0.8,1.5*0C
