2017-12-01 13:16:25 1512152185.917089: {"class":"VERSION","release":"3.16","rev":"3.16-4","proto_major":3,"proto_minor":11}
2017-12-01 13:16:25 1512152185.917623: {"class":"DEVICES","devices":[{"class":"DEVICE","path":"/dev/ttyUSB0","driver":"SiRF","subtype":"9\u0006GSD4e_4.1.2-P1_RPATCH.05-F-GPS-4R-1510281 11/03/2015 307","activated":"2017-12-01T18:16:25.886Z","flags":1,"native":1,"bps":4800,"parity":"N","stopbits":1,"cycle":1.00}]}
2017-12-01 13:16:25 1512152185.917752: {"class":"WATCH","enable":true,"json":false,"nmea":true,"raw":0,"scaled":false,"timing":false,"split24":false,"pps":false}
2017-12-01 13:16:25 1512152185.999538: $GPZDA,181626.69,01,12,2017,00,00*65
2017-12-01 13:16:25 1512152185.999708: $GPGGA,181626,3946.9545,N,08404.9827,W,1,12,1.00,297.53,M,-33.324,M,,*73
2017-12-01 13:16:25 1512152185.999775: $GPRMC,181626,A,3946.9545,N,08404.9827,W,0.2710,100.223,011217,,*3E
2017-12-01 13:16:25 1512152185.999835: $GPGSA,A,3,10,15,18,20,21,24,27,32,8,14,13,138,2.0,1.0,1.5*3F
2017-12-01 13:16:25 1512152185.999894: $GPGBS,181626,10.70,M,15.43,M,35.28,M*0D
2017-12-01 13:16:27 1512152187.080996: $GPZDA,181627.38,01,12,2017,00,00*60
2017-12-01 13:16:27 1512152187.081192: $GPGGA,181627,3946.9545,N,08404.9827,W,1,12,1.00,297.53,M,-33.324,M,,*72
2017-12-01 13:16:27 1512152187.081261: $GPRMC,181627,A,3946.9545,N,08404.9827,W,0.2758,128.233,011217,,*38
2017-12-01 13:16:27 1512152187.081323: $GPGSA,A,3,10,15,18,20,21,24,27,32,8,14,13,138,2.0,1.0,1.5*3F
2017-12-01 13:16:28 1512152188.026538: $GPGSV,3,1,12,08,06,321,42,10,43,303,46,15,35,052,47,18,72,342,45*7A
2017-12-01 13:16:28 1512152188.026700: $GPGSV,3,2,12,20,32,097,47,21,61,187,46,24,51,106,47,27,19,286,32*7B
2017-12-01 13:16:28 1512152188.026767: $GPGSV,3,3,12,32,23,240,42,13,06,049,07,14,06,234,06,138,38,213,00*45
2017-12-01 13:16:28 1512152188.139950: $GPZDA,181628.00,01,12,2017,00,00*64
2017-12-01 13:16:28 1512152188.140165: $GPGGA,181628,3946.9549,N,08404.9827,W,1,09,1.00,298.17,M,-33.324,M,,*74
2017-12-01 13:16:28 1512152188.140234: $GPRMC,181628,A,3946.9549,N,08404.9827,W,0.1867,0.000,011217,,*32
2017-12-01 13:16:28 1512152188.140295: $GPGSA,A,3,8,10,15,18,20,21,24,27,32,,,,2.0,1.0,1.5*02
2017-12-01 13:16:28 1512152188.394146: $GPZDA,181629.00,01,12,2017,00,00*65
2017-12-01 13:16:28 1512152188.394327: $GPGGA,181629,3946.9550,N,08404.9834,W,1,09,0.80,298.09,M,-33.324,M,,*79
2017-12-01 13:16:28 1512152188.394397: $GPRMC,181629,A,3946.9550,N,08404.9834,W,0.1867,0.000,011217,,*39
2017-12-01 13:16:28 1512152188.394470: $GPGSA,A,3,8,10,15,18,20,21,24,27,32,,,,2.0,0.8,1.5*0B
2017-12-01 13:16:29 1512152189.228982: $GPZDA,181630.00,01,12,2017,00,00*6D
2017-12-01 13:16:29 1512152189.229181: $GPGGA,181630,3946.9550,N,08404.9834,W,1,09,0.80,298.09,M,-33.324,M,,*71
2017-12-01 13:16:29 1512152189.229250: $GPRMC,181630,A,3946.9550,N,08404.9834,W,0.0000,0.000,011217,,*39
2017-12-01 13:16:29 1512152189.229310: $GPGSA,A,3,8,10,15,18,20,21,24,27,32,,,,2.0,0.8,1.5*0B
2017-12-01 13:16:30 1512152190.564661: $GPGSV,3,1,12,08,06,321,42,10,43,303,46,15,35,052,47,18,72,342,44*7B
2017-12-01 13:16:30 1512152190.564846: $GPGSV,3,2,12,20,32,097,46,21,61,187,46,24,51,106,47,27,19,286,36*7E
2017-12-01 13:16:30 1512152190.564913: $GPGSV,3,3,12,32,23,240,42,13,06,049,23,14,06,234,24,138,38,213,48*4F
2017-12-01 13:16:30 1512152190.678570: $GPZDA,181631.00,01,12,2017,00,00*6C
2017-12-01 13:16:30 1512152190.678740: $GPGGA,181631,3946.9553,N,08404.9833,W,1,12,0.80,297.33,M,-33.324,M,,*78
2017-12-01 13:16:30 1512152190.678806: $GPRMC,181631,A,3946.9553,N,08404.9833,W,0.0000,0.000,011217,,*3C
2017-12-01 13:16:30 1512152190.678867: $GPGSA,A,3,8,10,15,18,20,21,24,27,32,13,14,138,2.0,0.8,1.5*36
2017-12-01 13:16:31 1512152191.230230: $GPZDA,181632.00,01,12,2017,00,00*6F
2017-12-01 13:16:31 1512152191.230396: $GPGGA,181632,3946.9558,N,08404.9840,W,1,12,0.80,297.89,M,-33.324,M,,*75
2017-12-01 13:16:31 1512152191.230474: $GPRMC,181632,A,3946.9558,N,08404.9840,W,0.0000,0.000,011217,,*30
2017-12-01 13:16:31 1512152191.230537: $GPGSA,A,3,8,10,15,18,20,21,24,27,32,13,14,138,2.0,0.8,1.5*36
2017-12-01 13:16:32 1512152192.226966: $GPZDA,181633.00,01,12,2017,00,00*6E
2017-12-01 13:16:32 1512152192.227156: $GPGGA,181633,3946.9558,N,08404.9840,W,1,12,0.80,297.89,M,-33.324,M,,*74
2017-12-01 13:16:32 1512152192.227225: $GPRMC,181633,A,3946.9558,N,08404.9840,W,0.0000,0.000,011217,,*31
2017-12-01 13:16:32 1512152192.227287: $GPGSA,A,3,8,10,15,18,20,21,24,27,32,13,14,138,2.0,0.8,1.5*36
2017-12-01 13:16:32 1512152192.227345: $GPGBS,181633,10.70,M,15.43,M,35.28,M*09
2017-12-01 13:16:33 1512152193.565660: $GPGSV,3,1,12,08,06,321,42,10,43,303,46,15,35,052,48,18,72,342,44*74
2017-12-01 13:16:33 1512152193.565839: $GPGSV,3,2,12,20,32,097,47,21,61,187,46,24,51,106,47,27,19,286,36*7F
2017-12-01 13:16:33 1512152193.565905: $GPGSV,3,3,12,32,23,240,42,13,06,049,24,14,06,234,25,138,38,213,48*49
2017-12-01 13:16:33 1512152193.679029: $GPZDA,181634.00,01,12,2017,00,00*69
2017-12-01 13:16:33 1512152193.679196: $GPGGA,181634,3946.9558,N,08404.9840,W,1,12,0.80,297.89,M,-33.324,M,,*73
2017-12-01 13:16:33 1512152193.679263: $GPRMC,181634,A,3946.9558,N,08404.9840,W,0.0000,0.000,011217,,*36
2017-12-01 13:16:33 1512152193.679324: $GPGSA,A,3,8,10,15,18,20,21,24,27,32,13,14,138,2.0,0.8,1.5*36
2017-12-01 13:16:34 1512152194.212951: $GPZDA,181635.00,01,12,2017,00,00*68
2017-12-01 13:16:34 1512152194.213152: $GPGGA,181635,3946.9574,N,08404.9852,W,2,12,1.40,297.48,M,-33.324,M,,*7C
2017-12-01 13:16:34 1512152194.213221: $GPRMC,181635,A,3946.9574,N,08404.9852,W,0.0000,0.000,011217,,*3A
2017-12-01 13:16:34 1512152194.213282: $GPGSA,A,3,8,10,15,18,20,21,24,27,32,13,14,138,2.0,1.4,1.5*3B
2017-12-01 13:16:35 1512152195.230164: $GPZDA,181636.00,01,12,2017,00,00*6B
2017-12-01 13:16:35 1512152195.230333: $GPGGA,181636,3946.9574,N,08404.9852,W,2,12,0.80,297.48,M,-33.324,M,,*72
2017-12-01 13:16:35 1512152195.230399: $GPRMC,181636,A,3946.9574,N,08404.9852,W,0.0000,0.000,011217,,*39
2017-12-01 13:16:35 1512152195.230462: $GPGSA,A,3,8,10,15,18,20,21,24,27,32,13,14,138,2.0,0.8,1.5*36
