2017-11-16 17:03:53 1510869833.051720: {"class":"VERSION","release":"3.17","rev":"3.17","proto_major":3,"proto_minor":12}
2017-11-16 17:03:53 1510869833.052227: {"class":"DEVICES","devices":[{"class":"DEVICE","path":"/dev/ttyUSB0","driver":"SiRF","subtype":"9\u0006GSD4e_4.1.2-P1_RPATCH.05-F-GPS-4R-1510281 11/03/2015 307","activated":"2017-11-16T22:03:52.554Z","flags":1,"native":1,"bps":4800,"parity":"N","stopbits":1,"cycle":1.00}]}
2017-11-16 17:03:53 1510869833.052370: {"class":"WATCH","enable":true,"json":false,"nmea":true,"raw":0,"scaled":false,"timing":false,"split24":false,"pps":false}
2017-11-16 17:03:53 1510869833.415008: $GPZDA,220352.00,16,11,2017,00,00*61
2017-11-16 17:03:53 1510869833.415251: $GPGGA,220352,3946.9590,N,08404.9817,W,2,12,0.80,312.52,M,-33.324,M,,*71
2017-11-16 17:03:53 1510869833.415315: $GPRMC,220352,A,3946.9590,N,08404.9817,W,0.0000,0.000,161117,,*38
2017-11-16 17:03:53 1510869833.415372: $GPGSA,A,3,1,10,11,12,14,18,25,31,32,22,24,138,1.6,0.8,1.3*38
2017-11-16 17:03:54 1510869834.750634: $GPGSV,3,1,12,01,18,312,41,10,61,139,48,11,11,294,41,12,25,063,50*7A
2017-11-16 17:03:54 1510869834.750813: $GPGSV,3,2,12,14,60,304,46,18,30,139,44,25,34,106,46,31,42,216,49*75
2017-11-16 17:03:54 1510869834.750875: $GPGSV,3,3,12,32,70,351,50,22,09,312,32,24,07,046,32,138,38,213,45*44
2017-11-16 17:03:54 1510869834.863918: $GPZDA,220353.00,16,11,2017,00,00*60
2017-11-16 17:03:54 1510869834.864083: $GPGGA,220353,3946.9590,N,08404.9817,W,2,12,0.80,312.52,M,-33.324,M,,*70
2017-11-16 17:03:54 1510869834.864145: $GPRMC,220353,A,3946.9590,N,08404.9817,W,0.0000,0.000,161117,,*39
2017-11-16 17:03:54 1510869834.864201: $GPGSA,A,3,1,10,11,12,14,18,25,31,32,22,24,138,1.6,0.8,1.3*38
2017-11-16 17:03:55 1510869835.413503: $GPZDA,220354.00,16,11,2017,00,00*67
2017-11-16 17:03:55 1510869835.413676: $GPGGA,220354,3946.9590,N,08404.9817,W,2,12,0.80,312.52,M,-33.324,M,,*77
2017-11-16 17:03:55 1510869835.413742: $GPRMC,220354,A,3946.9590,N,08404.9817,W,0.0000,0.000,161117,,*3E
2017-11-16 17:03:55 1510869835.413799: $GPGSA,A,3,1,10,11,12,14,18,25,31,32,22,24,138,1.6,0.8,1.3*38
2017-11-16 17:03:56 1510869836.407744: $GPZDA,220355.00,16,11,2017,00,00*66
2017-11-16 17:03:56 1510869836.407907: $GPGGA,220355,3946.9590,N,08404.9817,W,2,12,0.80,312.52,M,-33.324,M,,*76
2017-11-16 17:03:56 1510869836.407969: $GPRMC,220355,A,3946.9590,N,08404.9817,W,0.0000,0.000,161117,,*3F
2017-11-16 17:03:56 1510869836.408025: $GPGSA,A,3,1,10,11,12,14,18,25,31,32,22,24,138,1.6,0.8,1.3*38
2017-11-16 17:03:57 1510869837.749726: $GPGSV,3,1,12,01,18,312,42,10,61,139,48,11,11,294,41,12,25,063,50*79
2017-11-16 17:03:57 1510869837.749893: $GPGSV,3,2,12,14,60,304,46,18,30,139,43,25,34,106,46,31,42,216,50*7A
2017-11-16 17:03:57 1510869837.749954: $GPGSV,3,3,12,32,70,351,50,22,09,312,32,24,07,046,32,138,38,213,44*45
2017-11-16 17:03:57 1510869837.863043: $GPZDA,220356.00,16,11,2017,00,00*65
2017-11-16 17:03:57 1510869837.863208: $GPGGA,220356,3946.9590,N,08404.9817,W,2,12,0.80,312.52,M,-33.324,M,,*75
2017-11-16 17:03:57 1510869837.863269: $GPRMC,220356,A,3946.9590,N,08404.9817,W,0.0000,0.000,161117,,*3C
2017-11-16 17:03:57 1510869837.863325: $GPGSA,A,3,1,10,11,12,14,18,25,31,32,22,24,138,1.6,0.8,1.3*38
2017-11-16 17:03:58 1510869838.397611: $GPZDA,220357.00,16,11,2017,00,00*64
2017-11-16 17:03:58 1510869838.397787: $GPGGA,220357,3946.9595,N,08404.9817,W,2,12,0.80,313.16,M,-33.324,M,,*70
2017-11-16 17:03:58 1510869838.397850: $GPRMC,220357,A,3946.9595,N,08404.9817,W,0.0000,0.000,161117,,*38
2017-11-16 17:03:58 1510869838.397906: $GPGSA,A,3,1,10,11,12,14,18,25,31,32,22,24,138,1.6,0.8,1.3*38
2017-11-16 17:03:59 1510869839.397187: $GPZDA,220358.00,16,11,2017,00,00*6B
2017-11-16 17:03:59 1510869839.397345: $GPGGA,220358,3946.9595,N,08404.9817,W,2,12,0.80,313.16,M,-33.324,M,,*7F
2017-11-16 17:03:59 1510869839.397409: $GPRMC,220358,A,3946.9595,N,08404.9817,W,0.0000,0.000,161117,,*37
2017-11-16 17:03:59 1510869839.397467: $GPGSA,A,3,1,10,11,12,14,18,25,31,32,22,24,138,1.6,0.8,1.3*38
2017-11-16 17:04:00 1510869840.734251: $GPGSV,3,1,12,01,18,312,42,10,61,139,48,11,11,294,41,12,25,063,50*79
2017-11-16 17:04:00 1510869840.734475: $GPGSV,3,2,12,14,60,304,46,18,30,139,43,25,34,106,46,31,42,216,50*7A
2017-11-16 17:04:00 1510869840.734539: $GPGSV,3,3,12,32,70,351,50,22,09,312,33,24,07,046,32,138,38,213,44*44
2017-11-16 17:04:00 1510869840.847590: $GPZDA,220359.00,16,11,2017,00,00*6A
2017-11-16 17:04:00 1510869840.847767: $GPGGA,220359,3946.9595,N,08404.9817,W,2,12,0.80,313.16,M,-33.324,M,,*7E
2017-11-16 17:04:00 1510869840.847830: $GPRMC,220359,A,3946.9595,N,08404.9817,W,0.0000,0.000,161117,,*36
2017-11-16 17:04:00 1510869840.847888: $GPGSA,A,3,1,10,11,12,14,18,25,31,32,22,24,138,1.6,0.8,1.3*38
2017-11-16 17:04:01 1510869841.472893: $GPZDA,220400.00,16,11,2017,00,00*61
2017-11-16 17:04:01 1510869841.473057: $GPGGA,220400,3946.9595,N,08404.9817,W,2,12,0.80,313.16,M,-33.324,M,,*75
2017-11-16 17:04:01 1510869841.473121: $GPRMC,220400,A,3946.9595,N,08404.9817,W,0.0000,0.000,161117,,*3D
2017-11-16 17:04:01 1510869841.473177: $GPGSA,A,3,1,10,11,12,14,18,25,31,32,22,24,138,1.6,0.8,1.3*38
2017-11-16 17:04:02 1510869842.397617: $GPZDA,220401.00,16,11,2017,00,00*60
2017-11-16 17:04:02 1510869842.397802: $GPGGA,220401,3946.9595,N,08404.9817,W,2,12,0.80,313.16,M,-33.324,M,,*74
2017-11-16 17:04:02 1510869842.397866: $GPRMC,220401,A,3946.9595,N,08404.9817,W,0.0000,0.000,161117,,*3C
2017-11-16 17:04:02 1510869842.397924: $GPGSA,A,3,1,10,11,12,14,18,25,31,32,22,24,138,1.6,0.8,1.3*38
