2017-12-01 13:18:06 1512152286.253047: {"class":"VERSION","release":"3.16","rev":"3.16-4","proto_major":3,"proto_minor":11}
2017-12-01 13:18:06 1512152286.253754: {"class":"DEVICES","devices":[{"class":"DEVICE","path":"/dev/ttyUSB0","driver":"SiRF","subtype":"9\u0006GSD4e_4.1.2-P1_RPATCH.05-F-GPS-4R-1510281 11/03/2015 307","activated":"2017-12-01T18:18:06.160Z","flags":1,"native":1,"bps":4800,"parity":"N","stopbits":1,"cycle":1.00}]}
2017-12-01 13:18:06 1512152286.253883: {"class":"WATCH","enable":true,"json":false,"nmea":true,"raw":0,"scaled":false,"timing":false,"split24":false,"pps":false}
2017-12-01 13:18:06 1512152286.470938: $GPZDA,181807.00,01,12,2017,00,00*67
2017-12-01 13:18:06 1512152286.471107: $GPGGA,181807,3946.9574,N,08404.9858,W,2,11,0.80,306.67,M,-33.324,M,,*73
2017-12-01 13:18:06 1512152286.471175: $GPRMC,181807,A,3946.9574,N,08404.9858,W,0.1867,0.000,011217,,*37
2017-12-01 13:18:06 1512152286.471236: $GPGSA,A,3,8,10,15,18,20,21,24,27,32,13,138,,2.0,0.8,1.5*33
2017-12-01 13:18:07 1512152287.396728: $GPZDA,181808.00,01,12,2017,00,00*68
2017-12-01 13:18:07 1512152287.396891: $GPGGA,181808,3946.9574,N,08404.9858,W,2,11,0.80,306.67,M,-33.324,M,,*7C
2017-12-01 13:18:07 1512152287.396958: $GPRMC,181808,A,3946.9574,N,08404.9858,W,0.0000,0.000,011217,,*30
2017-12-01 13:18:07 1512152287.397019: $GPGSA,A,3,8,10,15,18,20,21,24,27,32,13,138,,2.0,0.8,1.5*33
2017-12-01 13:18:08 1512152288.733692: $GPGSV,3,1,12,08,07,319,40,10,44,303,45,15,35,054,48,18,73,345,43*7F
2017-12-01 13:18:08 1512152288.733876: $GPGSV,3,2,12,20,31,097,46,21,60,187,45,24,52,105,46,27,18,286,32*7B
2017-12-01 13:18:08 1512152288.733944: $GPGSV,3,3,12,32,23,240,41,13,05,049,27,14,06,234,28,138,38,213,46*49
2017-12-01 13:18:08 1512152288.847077: $GPZDA,181809.00,01,12,2017,00,00*69
2017-12-01 13:18:08 1512152288.847244: $GPGGA,181809,3946.9574,N,08404.9858,W,2,12,0.80,306.67,M,-33.324,M,,*7E
2017-12-01 13:18:08 1512152288.847310: $GPRMC,181809,A,3946.9574,N,08404.9858,W,0.0000,0.000,011217,,*31
2017-12-01 13:18:08 1512152288.847371: $GPGSA,A,3,8,10,15,18,20,21,24,27,32,13,14,138,2.0,0.8,1.5*36
2017-12-01 13:18:09 1512152289.399209: $GPZDA,181810.00,01,12,2017,00,00*61
2017-12-01 13:18:09 1512152289.399385: $GPGGA,181810,3946.9574,N,08404.9858,W,2,12,0.80,306.67,M,-33.324,M,,*76
2017-12-01 13:18:09 1512152289.399452: $GPRMC,181810,A,3946.9574,N,08404.9858,W,0.0000,0.000,011217,,*39
2017-12-01 13:18:09 1512152289.399513: $GPGSA,A,3,8,10,15,18,20,21,24,27,32,13,14,138,2.0,0.8,1.5*36
2017-12-01 13:18:10 1512152290.398702: $GPZDA,181811.00,01,12,2017,00,00*60
2017-12-01 13:18:10 1512152290.398874: $GPGGA,181811,3946.9574,N,08404.9858,W,2,12,0.80,306.67,M,-33.324,M,,*77
2017-12-01 13:18:10 1512152290.398940: $GPRMC,181811,A,3946.9574,N,08404.9858,W,0.0000,0.000,011217,,*38
2017-12-01 13:18:10 1512152290.399001: $GPGSA,A,3,8,10,15,18,20,21,24,27,32,13,14,138,2.0,0.8,1.5*36
2017-12-01 13:18:10 1512152290.399059: $GPGBS,181811,2.67,M,3.86,M,8.82,M*32
2017-12-01 13:18:11 1512152291.733926: $GPGSV,3,1,12,08,07,319,40,10,44,303,45,15,35,054,47,18,73,345,43*70
2017-12-01 13:18:11 1512152291.734107: $GPGSV,3,2,12,20,31,097,46,21,60,187,45,24,52,105,47,27,18,286,32*7A
2017-12-01 13:18:11 1512152291.734174: $GPGSV,3,3,12,32,23,240,41,13,05,049,27,14,06,234,28,138,38,213,46*49
2017-12-01 13:18:11 1512152291.848096: $GPZDA,181812.00,01,12,2017,00,00*63
2017-12-01 13:18:11 1512152291.848255: $GPGGA,181812,3946.9574,N,08404.9858,W,2,12,0.80,306.67,M,-33.324,M,,*74
2017-12-01 13:18:11 1512152291.848320: $GPRMC,181812,A,3946.9574,N,08404.9858,W,0.0000,0.000,011217,,*3B
2017-12-01 13:18:11 1512152291.848380: $GPGSA,A,3,8,10,15,18,20,21,24,27,32,13,14,138,2.0,0.8,1.5*36
2017-12-01 13:18:12 1512152292.399666: $GPZDA,181813.00,01,12,2017,00,00*62
2017-12-01 13:18:12 1512152292.402651: $GPGGA,181813,3946.9574,N,08404.9858,W,2,12,0.80,306.67,M,-33.324,M,,*75
2017-12-01 13:18:12 1512152292.402802: $GPRMC,181813,A,3946.9574,N,08404.9858,W,0.0000,0.000,011217,,*3A
2017-12-01 13:18:12 1512152292.402866: $GPGSA,A,3,8,10,15,18,20,21,24,27,32,13,14,138,2.0,0.8,1.5*36
2017-12-01 13:18:13 1512152293.400274: $GPZDA,181814.00,01,12,2017,00,00*65
2017-12-01 13:18:13 1512152293.400457: $GPGGA,181814,3946.9574,N,08404.9858,W,2,12,0.80,306.67,M,-33.324,M,,*72
2017-12-01 13:18:13 1512152293.400527: $GPRMC,181814,A,3946.9574,N,08404.9858,W,0.0000,0.000,011217,,*3D
2017-12-01 13:18:13 1512152293.400588: $GPGSA,A,3,8,10,15,18,20,21,24,27,32,13,14,138,2.0,0.8,1.5*36
2017-12-01 13:18:14 1512152294.734852: $GPGSV,3,1,12,08,07,319,42,10,44,303,45,15,35,054,48,18,73,345,43*7D
2017-12-01 13:18:14 1512152294.735031: $GPGSV,3,2,12,20,31,097,46,21,60,187,45,24,52,105,47,27,18,286,26*7F
2017-12-01 13:18:14 1512152294.735099: $GPGSV,3,3,12,32,23,240,41,13,05,049,27,14,06,234,23,138,38,213,47*43
2017-12-01 13:18:14 1512152294.848228: $GPZDA,181815.00,01,12,2017,00,00*64
2017-12-01 13:18:14 1512152294.848398: $GPGGA,181815,3946.9574,N,08404.9858,W,2,12,0.80,306.67,M,-33.324,M,,*73
2017-12-01 13:18:14 1512152294.848465: $GPRMC,181815,A,3946.9574,N,08404.9858,W,0.0000,0.000,011217,,*3C
2017-12-01 13:18:14 1512152294.848525: $GPGSA,A,3,8,10,15,18,20,21,24,27,32,13,14,138,2.0,0.8,1.5*36
2017-12-01 13:18:15 1512152295.399332: $GPZDA,181816.00,01,12,2017,00,00*67
2017-12-01 13:18:15 1512152295.399503: $GPGGA,181816,3946.9574,N,08404.9858,W,2,12,0.80,306.67,M,-33.324,M,,*70
2017-12-01 13:18:15 1512152295.399569: $GPRMC,181816,A,3946.9574,N,08404.9858,W,0.0000,0.000,011217,,*3F
2017-12-01 13:18:15 1512152295.399631: $GPGSA,A,3,8,10,15,18,20,21,24,27,32,13,14,138,2.0,0.8,1.5*36
