2017-12-01 12:05:54 1512147954.956739: {"class":"VERSION","release":"3.16","rev":"3.16-4","proto_major":3,"proto_minor":11}
2017-12-01 12:05:54 1512147954.957170: {"class":"DEVICES","devices":[{"class":"DEVICE","path":"/dev/ttyUSB0","driver":"SiRF","subtype":"9\u0006GSD4e_4.1.2-P1_RPATCH.05-F-GPS-4R-1510281 11/03/2015 307","activated":"2017-12-01T17:05:54.916Z","flags":1,"native":1,"bps":4800,"parity":"N","stopbits":1,"cycle":1.00}]}
2017-12-01 12:05:54 1512147954.957295: {"class":"WATCH","enable":true,"json":false,"nmea":true,"raw":0,"scaled":false,"timing":false,"split24":false,"pps":false}
2017-12-01 12:05:55 1512147955.426392: $GPZDA,170556.00,01,12,2017,00,00*60
2017-12-01 12:05:55 1512147955.426565: $GPGGA,170556,3946.9577,N,08404.9819,W,2,10,0.80,301.33,M,-33.324,M,,*75
2017-12-01 12:05:55 1512147955.426632: $GPRMC,170556,A,3946.9577,N,08404.9819,W,0.0000,0.000,011217,,*3E
2017-12-01 12:05:55 1512147955.426693: $GPGSA,A,3,10,13,15,18,20,21,24,27,29,138,,,2.0,0.8,1.5*01
2017-12-01 12:05:56 1512147956.349718: $GPZDA,170557.00,01,12,2017,00,00*61
2017-12-01 12:05:56 1512147956.349886: $GPGGA,170557,3946.9577,N,08404.9819,W,2,10,0.80,301.33,M,-33.324,M,,*74
2017-12-01 12:05:56 1512147956.349954: $GPRMC,170557,A,3946.9577,N,08404.9819,W,0.0000,0.000,011217,,*3F
2017-12-01 12:05:56 1512147956.350014: $GPGSA,A,3,10,13,15,18,20,21,24,27,29,138,,,2.0,0.8,1.5*01
2017-12-01 12:05:57 1512147957.686424: $GPGSV,3,1,12,10,20,279,42,13,34,046,44,15,66,054,44,18,50,295,46*73
2017-12-01 12:05:57 1512147957.686605: $GPGSV,3,2,12,20,55,064,46,21,75,289,44,24,29,142,45,27,14,318,39*70
2017-12-01 12:05:57 1512147957.686671: $GPGSV,3,3,12,29,15,192,33,05,07,084,21,04,04,135,00,138,38,213,46*46
2017-12-01 12:05:57 1512147957.799789: $GPZDA,170558.00,01,12,2017,00,00*6E
2017-12-01 12:05:57 1512147957.799963: $GPGGA,170558,3946.9577,N,08404.9819,W,2,11,0.80,301.33,M,-33.324,M,,*7A
2017-12-01 12:05:57 1512147957.800031: $GPRMC,170558,A,3946.9577,N,08404.9819,W,0.0000,0.000,011217,,*30
2017-12-01 12:05:57 1512147957.800092: $GPGSA,A,3,10,13,15,18,20,21,24,27,29,5,138,,2.0,0.8,1.5*34
2017-12-01 12:05:58 1512147958.350717: $GPZDA,170559.00,01,12,2017,00,00*6F
2017-12-01 12:05:58 1512147958.350904: $GPGGA,170559,3946.9577,N,08404.9819,W,2,11,0.80,301.33,M,-33.324,M,,*7B
2017-12-01 12:05:58 1512147958.350972: $GPRMC,170559,A,3946.9577,N,08404.9819,W,0.0000,0.000,011217,,*31
2017-12-01 12:05:58 1512147958.351033: $GPGSA,A,3,10,13,15,18,20,21,24,27,29,5,138,,2.0,0.8,1.5*34
2017-12-01 12:05:59 1512147959.351581: $GPZDA,170600.00,01,12,2017,00,00*60
2017-12-01 12:05:59 1512147959.351763: $GPGGA,170600,3946.9577,N,08404.9819,W,2,11,0.80,301.33,M,-33.324,M,,*74
2017-12-01 12:05:59 1512147959.351832: $GPRMC,170600,A,3946.9577,N,08404.9819,W,0.0000,0.000,011217,,*3E
2017-12-01 12:05:59 1512147959.351894: $GPGSA,A,3,10,13,15,18,20,21,24,27,29,5,138,,2.0,0.8,1.5*34
2017-12-01 12:06:00 1512147960.686981: $GPGSV,3,1,12,10,20,279,43,13,34,046,44,15,66,054,44,18,50,295,46*72
2017-12-01 12:06:00 1512147960.687157: $GPGSV,3,2,12,20,55,064,46,21,75,289,44,24,29,142,45,27,14,318,40*7E
2017-12-01 12:06:00 1512147960.687223: $GPGSV,3,3,12,29,15,192,33,05,07,084,20,04,04,135,00,138,38,213,45*44
2017-12-01 12:06:00 1512147960.800138: $GPZDA,170601.00,01,12,2017,00,00*61
2017-12-01 12:06:00 1512147960.800314: $GPGGA,170601,3946.9577,N,08404.9819,W,2,11,0.80,301.33,M,-33.324,M,,*75
2017-12-01 12:06:00 1512147960.800381: $GPRMC,170601,A,3946.9577,N,08404.9819,W,0.0000,0.000,011217,,*3F
2017-12-01 12:06:00 1512147960.800446: $GPGSA,A,3,10,13,15,18,20,21,24,27,29,5,138,,2.0,0.8,1.5*34
2017-12-01 12:06:01 1512147961.350973: $GPZDA,170602.00,01,12,2017,00,00*62
2017-12-01 12:06:01 1512147961.351154: $GPGGA,170602,3946.9577,N,08404.9819,W,2,11,0.80,301.33,M,-33.324,M,,*76
2017-12-01 12:06:01 1512147961.351221: $GPRMC,170602,A,3946.9577,N,08404.9819,W,0.0000,0.000,011217,,*3C
2017-12-01 12:06:01 1512147961.351283: $GPGSA,A,3,10,13,15,18,20,21,24,27,29,5,138,,2.0,0.8,1.5*34
2017-12-01 12:06:02 1512147962.350642: $GPZDA,170603.00,01,12,2017,00,00*63
2017-12-01 12:06:02 1512147962.350869: $GPGGA,170603,3946.9577,N,08404.9819,W,2,11,0.80,301.33,M,-33.324,M,,*77
2017-12-01 12:06:02 1512147962.350939: $GPRMC,170603,A,3946.9577,N,08404.9819,W,0.0000,0.000,011217,,*3D
2017-12-01 12:06:02 1512147962.351001: $GPGSA,A,3,10,13,15,18,20,21,24,27,29,5,138,,2.0,0.8,1.5*34
2017-12-01 12:06:03 1512147963.702682: $GPGSV,3,1,12,10,20,279,43,13,34,046,44,15,66,054,45,18,50,295,45*70
2017-12-01 12:06:03 1512147963.702867: $GPGSV,3,2,12,20,55,064,46,21,75,289,44,24,29,142,45,27,14,318,41*7F
2017-12-01 12:06:03 1512147963.702936: $GPGSV,3,3,12,29,15,192,32,05,07,084,21,04,04,135,00,138,38,213,46*47
2017-12-01 12:06:03 1512147963.816338: $GPZDA,170604.00,01,12,2017,00,00*64
2017-12-01 12:06:03 1512147963.816510: $GPGGA,170604,3946.9577,N,08404.9819,W,2,11,0.80,301.33,M,-33.324,M,,*70
2017-12-01 12:06:03 1512147963.816578: $GPRMC,170604,A,3946.9577,N,08404.9819,W,0.0000,0.000,011217,,*3A
2017-12-01 12:06:03 1512147963.816639: $GPGSA,A,3,10,13,15,18,20,21,24,27,29,5,138,,2.0,0.8,1.5*34
2017-12-01 12:06:04 1512147964.352032: $GPZDA,170605.00,01,12,2017,00,00*65
2017-12-01 12:06:04 1512147964.352201: $GPGGA,170605,3946.9577,N,08404.9819,W,2,11,0.80,301.33,M,-33.324,M,,*71
2017-12-01 12:06:04 1512147964.352271: $GPRMC,170605,A,3946.9577,N,08404.9819,W,0.0000,0.000,011217,,*3B
2017-12-01 12:06:04 1512147964.352334: $GPGSA,A,3,10,13,15,18,20,21,24,27,29,5,138,,2.0,0.8,1.5*34
