2017-11-15 19:40:07 1510792807.882205: {"class":"VERSION","release":"3.17","rev":"3.17","proto_major":3,"proto_minor":12}
2017-11-15 19:40:07 1510792807.882697: {"class":"DEVICES","devices":[{"class":"DEVICE","path":"/dev/ttyUSB0","driver":"SiRF","subtype":"9\u0006GSD4e_4.1.2-P1_RPATCH.05-F-GPS-4R-1510281 11/03/2015 307","activated":"2017-11-16T00:40:07.473Z","flags":1,"native":1,"bps":4800,"parity":"N","stopbits":1,"cycle":1.00}]}
2017-11-15 19:40:07 1510792807.882813: {"class":"WATCH","enable":true,"json":false,"nmea":true,"raw":0,"scaled":false,"timing":false,"split24":false,"pps":false}
2017-11-15 19:40:08 1510792808.348247: $GPZDA,004007.00,16,11,2017,00,00*66
2017-11-15 19:40:08 1510792808.348422: $GPGGA,004007,3946.9645,N,08404.9559,W,1,08,1.20,287.92,M,-33.324,M,,*78
2017-11-15 19:40:08 1510792808.348484: $GPRMC,004007,A,3946.9645,N,08404.9559,W,0.6846,4.197,161117,,*34
2017-11-15 19:40:08 1510792808.348539: $GPGSA,A,3,32,16,22,26,14,31,3,29,,,,,3.4,1.2,2.9*00
2017-11-15 19:40:09 1510792809.681536: $GPGSV,3,1,11,32,32,111,16,16,27,190,18,22,50,264,11,26,58,171,25*72
2017-11-15 19:40:09 1510792809.681708: $GPGSV,3,2,11,14,52,097,16,31,64,031,24,03,42,294,15,25,13,039,04*72
2017-11-15 19:40:09 1510792809.681769: $GPGSV,3,3,11,23,14,303,00,29,12,067,00,01,03,249,00*49
2017-11-15 19:40:09 1510792809.794859: $GPZDA,004008.00,16,11,2017,00,00*69
2017-11-15 19:40:09 1510792809.795021: $GPGGA,004008,3946.9645,N,08404.9559,W,1,07,1.20,287.92,M,-33.324,M,,*78
2017-11-15 19:40:09 1510792809.795082: $GPRMC,004008,A,3946.9645,N,08404.9559,W,0.4179,328.778,161117,,*36
2017-11-15 19:40:09 1510792809.795138: $GPGSA,A,3,32,16,22,26,14,31,3,,,,,,3.4,1.2,2.9*0B
2017-11-15 19:40:10 1510792810.328229: $GPZDA,004009.00,16,11,2017,00,00*68
2017-11-15 19:40:10 1510792810.328402: $GPGGA,004009,3946.9649,N,08404.9559,W,1,07,1.20,288.56,M,-33.324,M,,*72
2017-11-15 19:40:10 1510792810.328463: $GPRMC,004009,A,3946.9649,N,08404.9559,W,0.3423,4.197,161117,,*3C
2017-11-15 19:40:10 1510792810.328518: $GPGSA,A,3,32,16,22,26,14,31,3,,,,,,3.4,1.2,2.9*0B
2017-11-15 19:40:11 1510792811.346138: $GPZDA,004010.00,16,11,2017,00,00*60
2017-11-15 19:40:11 1510792811.346342: $GPGGA,004010,3946.9652,N,08404.9559,W,1,07,1.20,287.80,M,-33.324,M,,*74
2017-11-15 19:40:11 1510792811.346403: $GPRMC,004010,A,3946.9652,N,08404.9559,W,0.7246,344.668,161117,,*3F
2017-11-15 19:40:11 1510792811.346459: $GPGSA,A,3,32,16,22,26,14,31,3,,,,,,3.4,1.2,2.9*0B
2017-11-15 19:40:12 1510792812.681953: $GPGSV,3,1,11,32,32,111,15,16,27,190,18,22,50,264,11,26,58,171,25*71
2017-11-15 19:40:12 1510792812.682124: $GPGSV,3,2,11,14,52,097,17,31,64,031,24,03,42,294,15,25,13,039,04*73
2017-11-15 19:40:12 1510792812.682205: $GPGSV,3,3,11,23,14,303,00,29,12,067,00,01,03,249,00*49
2017-11-15 19:40:12 1510792812.795659: $GPZDA,004011.00,16,11,2017,00,00*61
2017-11-15 19:40:12 1510792812.795818: $GPGGA,004011,3946.9652,N,08404.9559,W,1,07,1.20,287.80,M,-33.324,M,,*75
2017-11-15 19:40:12 1510792812.795877: $GPRMC,004011,A,3946.9652,N,08404.9559,W,0.6846,4.197,161117,,*35
2017-11-15 19:40:12 1510792812.795932: $GPGSA,A,3,32,16,22,26,14,31,3,,,,,,3.4,1.2,2.9*0B
2017-11-15 19:40:13 1510792813.330285: $GPZDA,004012.00,16,11,2017,00,00*62
2017-11-15 19:40:13 1510792813.330461: $GPGGA,004012,3946.9652,N,08404.9559,W,1,07,1.20,287.80,M,-33.324,M,,*76
2017-11-15 19:40:13 1510792813.330522: $GPRMC,004012,A,3946.9652,N,08404.9559,W,0.4179,328.778,161117,,*3B
2017-11-15 19:40:13 1510792813.330578: $GPGSA,A,3,32,16,22,26,14,31,3,,,,,,3.4,1.2,2.9*0B
2017-11-15 19:40:14 1510792814.331639: $GPZDA,004013.00,16,11,2017,00,00*63
2017-11-15 19:40:14 1510792814.331818: $GPGGA,004013,3946.9656,N,08404.9559,W,1,07,1.20,288.44,M,-33.324,M,,*74
2017-11-15 19:40:14 1510792814.331880: $GPRMC,004013,A,3946.9656,N,08404.9559,W,0.5912,309.173,161117,,*34
2017-11-15 19:40:14 1510792814.331955: $GPGSA,A,3,32,16,22,26,14,31,3,,,,,,3.4,1.2,2.9*0B
2017-11-15 19:40:15 1510792815.666495: $GPGSV,3,1,11,32,32,111,15,16,27,190,18,22,50,264,10,26,58,171,25*70
2017-11-15 19:40:15 1510792815.666670: $GPGSV,3,2,11,14,52,097,17,31,64,031,24,03,42,294,14,25,13,039,04*72
2017-11-15 19:40:15 1510792815.666826: $GPGSV,3,3,11,23,14,303,00,29,12,067,00,01,03,249,00*49
2017-11-15 19:40:15 1510792815.779939: $GPZDA,004014.00,16,11,2017,00,00*64
2017-11-15 19:40:15 1510792815.780103: $GPGGA,004014,3946.9652,N,08404.9559,W,1,07,1.20,287.80,M,-33.324,M,,*70
2017-11-15 19:40:15 1510792815.780184: $GPRMC,004014,A,3946.9652,N,08404.9559,W,0.5951,238.684,161117,,*3C
2017-11-15 19:40:15 1510792815.780242: $GPGSA,A,3,32,16,22,26,14,31,3,,,,,,3.4,1.2,2.9*0B
2017-11-15 19:40:16 1510792816.405341: $GPZDA,004015.00,16,11,2017,00,00*65
2017-11-15 19:40:16 1510792816.405517: $GPGGA,004015,3946.9649,N,08404.9559,W,1,07,1.20,288.56,M,-33.324,M,,*7F
2017-11-15 19:40:16 1510792816.405577: $GPRMC,004015,A,3946.9649,N,08404.9559,W,0.7278,203.636,161117,,*34
2017-11-15 19:40:16 1510792816.405633: $GPGSA,A,3,32,16,22,26,14,31,3,,,,,,3.4,1.2,2.9*0B
2017-11-15 19:40:17 1510792817.329891: $GPZDA,004016.00,16,11,2017,00,00*66
2017-11-15 19:40:17 1510792817.330080: $GPGGA,004016,3946.9649,N,08404.9559,W,1,07,1.80,288.56,M,-33.324,M,,*76
2017-11-15 19:40:17 1510792817.333308: $GPRMC,004016,A,3946.9649,N,08404.9559,W,0.8414,219.347,161117,,*3C
2017-11-15 19:40:17 1510792817.333456: $GPGSA,A,3,32,16,22,26,14,31,3,,,,,,3.4,1.8,2.9*01
