2017-11-16 14:47:44 1510861664.695613: {"class":"VERSION","release":"3.17","rev":"3.17","proto_major":3,"proto_minor":12}
2017-11-16 14:47:44 1510861664.696544: {"class":"DEVICES","devices":[{"class":"DEVICE","path":"/dev/ttyUSB0","driver":"SiRF","subtype":"9\u0006GSD4e_4.1.2-P1_RPATCH.05-F-GPS-4R-1510281 11/03/2015 307","activated":"2017-11-16T19:47:44.668Z","flags":1,"native":1,"bps":4800,"parity":"N","stopbits":1,"cycle":1.00}]}
2017-11-16 14:47:44 1510861664.696663: {"class":"WATCH","enable":true,"json":false,"nmea":true,"raw":0,"scaled":false,"timing":false,"split24":false,"pps":false}
2017-11-16 14:47:45 1510861665.827924: $GPGSV,3,1,11,08,08,309,36,10,53,313,50,15,25,058,50,18,77,027,44*70
2017-11-16 14:47:45 1510861665.828098: $GPGSV,3,2,11,21,48,183,47,20,22,106,44,24,53,084,49,27,15,274,44*7A
2017-11-16 14:47:45 1510861665.828159: $GPGSV,3,3,11,32,32,249,46,14,16,241,40,138,38,213,44*74
2017-11-16 14:47:45 1510861665.940272: $GPZDA,194744.00,16,11,2017,00,00*6E
2017-11-16 14:47:45 1510861665.940490: $GPGGA,194744,3946.9568,N,08404.9842,W,2,11,0.80,303.38,M,-33.324,M,,*76
2017-11-16 14:47:45 1510861665.940551: $GPRMC,194744,A,3946.9568,N,08404.9842,W,0.0000,0.000,161117,,*30
2017-11-16 14:47:45 1510861665.940609: $GPGSA,A,3,8,10,15,18,21,20,24,27,32,14,138,,1.6,0.8,1.3*37
2017-11-16 14:47:46 1510861666.492167: $GPZDA,194745.00,16,11,2017,00,00*6F
2017-11-16 14:47:46 1510861666.492334: $GPGGA,194745,3946.9568,N,08404.9842,W,2,11,0.80,303.38,M,-33.324,M,,*77
2017-11-16 14:47:46 1510861666.492395: $GPRMC,194745,A,3946.9568,N,08404.9842,W,0.0000,0.000,161117,,*31
2017-11-16 14:47:46 1510861666.492453: $GPGSA,A,3,8,10,15,18,21,20,24,27,32,14,138,,1.6,0.8,1.3*37
2017-11-16 14:47:47 1510861667.492305: $GPZDA,194746.00,16,11,2017,00,00*6C
2017-11-16 14:47:47 1510861667.492480: $GPGGA,194746,3946.9568,N,08404.9842,W,2,11,0.80,303.38,M,-33.324,M,,*74
2017-11-16 14:47:47 1510861667.492545: $GPRMC,194746,A,3946.9568,N,08404.9842,W,0.0000,0.000,161117,,*32
2017-11-16 14:47:47 1510861667.492604: $GPGSA,A,3,8,10,15,18,21,20,24,27,32,14,138,,1.6,0.8,1.3*37
2017-11-16 14:47:48 1510861668.822563: $GPGSV,3,1,11,08,08,309,36,10,53,313,50,15,25,058,50,18,77,027,44*70
2017-11-16 14:47:48 1510861668.822734: $GPGSV,3,2,11,21,48,183,47,20,22,106,44,24,53,084,49,27,15,274,44*7A
2017-11-16 14:47:48 1510861668.822798: $GPGSV,3,3,11,32,32,249,47,14,16,241,40,138,38,213,43*72
2017-11-16 14:47:48 1510861668.936174: $GPZDA,194747.00,16,11,2017,00,00*6D
2017-11-16 14:47:48 1510861668.936334: $GPGGA,194747,3946.9568,N,08404.9842,W,2,11,0.80,303.38,M,-33.324,M,,*75
2017-11-16 14:47:48 1510861668.936396: $GPRMC,194747,A,3946.9568,N,08404.9842,W,0.0000,0.000,161117,,*33
2017-11-16 14:47:48 1510861668.936452: $GPGSA,A,3,8,10,15,18,21,20,24,27,32,14,138,,1.6,0.8,1.3*37
2017-11-16 14:47:49 1510861669.561364: $GPZDA,194748.00,16,11,2017,00,00*62
2017-11-16 14:47:49 1510861669.561538: $GPGGA,194748,3946.9568,N,08404.9842,W,2,11,0.80,303.38,M,-33.324,M,,*7A
2017-11-16 14:47:49 1510861669.561600: $GPRMC,194748,A,3946.9568,N,08404.9842,W,0.0000,0.000,161117,,*3C
2017-11-16 14:47:49 1510861669.561656: $GPGSA,A,3,8,10,15,18,21,20,24,27,32,14,138,,1.6,0.8,1.3*37
2017-11-16 14:47:50 1510861670.528282: $GPZDA,194749.00,16,11,2017,00,00*63
2017-11-16 14:47:51 1510861671.054176: $GPGGA,194749,3946.9568,N,08404.9842,W,2,11,0.80,303.38,M,-33.324,M,,*7B
2017-11-16 14:47:51 1510861671.054307: $GPRMC,194749,A,3946.9568,N,08404.9842,W,0.0000,0.000,161117,,*3D
2017-11-16 14:47:51 1510861671.054366: $GPGSA,A,3,8,10,15,18,21,20,24,27,32,14,138,,1.6,0.8,1.3*37
2017-11-16 14:47:51 1510861671.826531: $GPGSV,3,1,11,08,08,309,36,10,53,313,50,15,25,058,50,18,77,027,44*70
2017-11-16 14:47:51 1510861671.826702: $GPGSV,3,2,11,21,48,183,47,20,22,106,44,24,53,084,48,27,15,274,44*7B
2017-11-16 14:47:51 1510861671.826763: $GPGSV,3,3,11,32,32,249,46,14,16,241,40,138,38,213,43*73
2017-11-16 14:47:51 1510861671.939841: $GPZDA,194750.00,16,11,2017,00,00*6B
2017-11-16 14:47:51 1510861671.940005: $GPGGA,194750,3946.9568,N,08404.9842,W,2,11,0.80,303.38,M,-33.324,M,,*73
2017-11-16 14:47:51 1510861671.940121: $GPRMC,194750,A,3946.9568,N,08404.9842,W,0.0000,0.000,161117,,*35
2017-11-16 14:47:51 1510861671.940178: $GPGSA,A,3,8,10,15,18,21,20,24,27,32,14,138,,1.6,0.8,1.3*37
2017-11-16 14:47:52 1510861672.528204: $GPZDA,194751.00,16,11,2017,00,00*6A
2017-11-16 14:47:52 1510861672.528371: $GPGGA,194751,3946.9568,N,08404.9842,W,2,11,0.80,303.38,M,-33.324,M,,*72
2017-11-16 14:47:52 1510861672.528433: $GPRMC,194751,A,3946.9568,N,08404.9842,W,0.0000,0.000,161117,,*34
2017-11-16 14:47:52 1510861672.528490: $GPGSA,A,3,8,10,15,18,21,20,24,27,32,14,138,,1.6,0.8,1.3*37
2017-11-16 14:47:53 1510861673.528094: $GPZDA,194752.00,16,11,2017,00,00*69
2017-11-16 14:47:53 1510861673.528241: $GPGGA,194752,3946.9568,N,08404.9842,W,2,11,0.80,303.38,M,-33.324,M,,*71
2017-11-16 14:47:53 1510861673.528302: $GPRMC,194752,A,3946.9568,N,08404.9842,W,0.0000,0.000,161117,,*37
2017-11-16 14:47:53 1510861673.528358: $GPGSA,A,3,8,10,15,18,21,20,24,27,32,14,138,,1.6,0.8,1.3*37
