2017-12-01 13:46:49 1512154009.216908: {"class":"VERSION","release":"3.16","rev":"3.16-4","proto_major":3,"proto_minor":11}
2017-12-01 13:46:49 1512154009.217308: {"class":"DEVICES","devices":[{"class":"DEVICE","path":"/dev/ttyUSB0","driver":"SiRF","subtype":"9\u0006GSD4e_4.1.2-P1_RPATCH.05-F-GPS-4R-1510281 11/03/2015 307","activated":"2017-12-01T18:46:48.552Z","flags":1,"native":1,"bps":4800,"parity":"N","stopbits":1,"cycle":1.00}]}
2017-12-01 13:46:49 1512154009.217434: {"class":"WATCH","enable":true,"json":false,"nmea":true,"raw":0,"scaled":false,"timing":false,"split24":false,"pps":false}
2017-12-01 13:46:49 1512154009.415400: $GPZDA,184650.00,01,12,2017,00,00*6E
2017-12-01 13:46:49 1512154009.415584: $GPGGA,184650,3946.9573,N,08404.9852,W,2,11,1.00,296.08,M,-33.324,M,,*7F
2017-12-01 13:46:49 1512154009.415652: $GPRMC,184650,A,3946.9573,N,08404.9852,W,0.0000,0.000,011217,,*3B
2017-12-01 13:46:49 1512154009.415714: $GPGSA,A,3,8,10,14,15,18,20,21,24,27,32,138,,2.0,1.0,1.5*3D
2017-12-01 13:46:50 1512154010.757007: $GPGSV,3,1,11,08,08,309,05,10,54,313,48,14,16,241,41,15,24,058,45*77
2017-12-01 13:46:50 1512154010.757189: $GPGSV,3,2,11,18,77,033,43,20,21,108,47,21,46,181,43,24,53,082,48*75
2017-12-01 13:46:50 1512154010.757255: $GPGSV,3,3,11,27,14,274,33,32,33,250,42,138,38,213,46*7B
2017-12-01 13:46:50 1512154010.870476: $GPZDA,184651.00,01,12,2017,00,00*6F
2017-12-01 13:46:50 1512154010.870644: $GPGGA,184651,3946.9577,N,08404.9852,W,2,10,1.00,296.72,M,-33.324,M,,*76
2017-12-01 13:46:50 1512154010.870710: $GPRMC,184651,A,3946.9577,N,08404.9852,W,0.0000,0.000,011217,,*3E
2017-12-01 13:46:50 1512154010.870771: $GPGSA,A,3,10,14,15,18,20,21,24,27,32,138,,,2.0,1.0,1.5*05
2017-12-01 13:46:51 1512154011.495784: $GPZDA,184652.00,01,12,2017,00,00*6C
2017-12-01 13:46:51 1512154011.495960: $GPGGA,184652,3946.9577,N,08404.9852,W,2,10,0.80,296.72,M,-33.324,M,,*7C
2017-12-01 13:46:51 1512154011.496028: $GPRMC,184652,A,3946.9577,N,08404.9852,W,0.0000,0.000,011217,,*3D
2017-12-01 13:46:51 1512154011.496089: $GPGSA,A,3,10,14,15,18,20,21,24,27,32,138,,,2.0,0.8,1.5*0C
2017-12-01 13:46:52 1512154012.410350: $GPZDA,184653.00,01,12,2017,00,00*6D
2017-12-01 13:46:52 1512154012.410527: $GPGGA,184653,3946.9577,N,08404.9852,W,2,10,0.80,296.72,M,-33.324,M,,*7D
2017-12-01 13:46:52 1512154012.410595: $GPRMC,184653,A,3946.9577,N,08404.9852,W,0.0000,0.000,011217,,*3C
2017-12-01 13:46:52 1512154012.410656: $GPGSA,A,3,10,14,15,18,20,21,24,27,32,138,,,2.0,0.8,1.5*0C
2017-12-01 13:46:53 1512154013.746063: $GPGSV,3,1,11,08,08,309,26,10,54,313,48,14,16,241,41,15,24,058,45*76
2017-12-01 13:46:53 1512154013.746242: $GPGSV,3,2,11,18,77,033,43,20,21,108,47,21,46,181,43,24,53,082,47*7A
2017-12-01 13:46:53 1512154013.746308: $GPGSV,3,3,11,27,14,274,33,32,33,250,42,138,38,213,46*7B
2017-12-01 13:46:53 1512154013.859376: $GPZDA,184654.00,01,12,2017,00,00*6A
2017-12-01 13:46:53 1512154013.859500: $GPGGA,184654,3946.9577,N,08404.9852,W,2,11,0.80,296.72,M,-33.324,M,,*7B
2017-12-01 13:46:53 1512154013.859565: $GPRMC,184654,A,3946.9577,N,08404.9852,W,0.0000,0.000,011217,,*3B
2017-12-01 13:46:53 1512154013.859624: $GPGSA,A,3,8,10,14,15,18,20,21,24,27,32,138,,2.0,0.8,1.5*34
2017-12-01 13:46:54 1512154014.915477: $GPZDA,184655.00,01,12,2017,00,00*6B
2017-12-01 13:46:54 1512154014.915651: $GPGGA,184655,3946.9577,N,08404.9852,W,2,11,0.80,296.72,M,-33.324,M,,*7A
2017-12-01 13:46:54 1512154014.915718: $GPRMC,184655,A,3946.9577,N,08404.9852,W,0.0000,0.000,011217,,*3A
2017-12-01 13:46:54 1512154014.915778: $GPGSA,A,3,8,10,14,15,18,20,21,24,27,32,138,,2.0,0.8,1.5*34
2017-12-01 13:46:55 1512154015.410081: $GPZDA,184656.00,01,12,2017,00,00*68
2017-12-01 13:46:55 1512154015.410265: $GPGGA,184656,3946.9577,N,08404.9852,W,2,11,1.00,296.72,M,-33.324,M,,*70
2017-12-01 13:46:55 1512154015.410336: $GPRMC,184656,A,3946.9577,N,08404.9852,W,0.0000,0.000,011217,,*39
2017-12-01 13:46:55 1512154015.410397: $GPGSA,A,3,8,10,14,15,18,20,21,24,27,32,138,,2.0,1.0,1.5*3D
2017-12-01 13:46:56 1512154016.746561: $GPGSV,3,1,11,08,08,309,24,10,55,313,48,14,16,241,40,15,24,058,45*74
2017-12-01 13:46:56 1512154016.746796: $GPGSV,3,2,11,18,77,034,43,20,21,108,47,21,46,181,43,24,53,082,47*7D
2017-12-01 13:46:56 1512154016.746884: $GPGSV,3,3,11,27,14,274,33,32,34,250,42,138,38,213,46*7C
2017-12-01 13:46:56 1512154016.859952: $GPZDA,184657.00,01,12,2017,00,00*69
2017-12-01 13:46:56 1512154016.860134: $GPGGA,184657,3946.9577,N,08404.9852,W,2,11,0.80,296.72,M,-33.324,M,,*78
2017-12-01 13:46:56 1512154016.860202: $GPRMC,184657,A,3946.9577,N,08404.9852,W,0.0000,0.000,011217,,*38
2017-12-01 13:46:56 1512154016.860263: $GPGSA,A,3,8,10,14,15,18,20,21,24,27,32,138,,2.0,0.8,1.5*34
2017-12-01 13:46:57 1512154017.410803: $GPZDA,184658.00,01,12,2017,00,00*66
2017-12-01 13:46:57 1512154017.410986: $GPGGA,184658,3946.9577,N,08404.9852,W,2,11,0.80,296.72,M,-33.324,M,,*77
2017-12-01 13:46:57 1512154017.411053: $GPRMC,184658,A,3946.9577,N,08404.9852,W,0.0000,0.000,011217,,*37
2017-12-01 13:46:57 1512154017.411114: $GPGSA,A,3,8,10,14,15,18,20,21,24,27,32,138,,2.0,0.8,1.5*34
2017-12-01 13:46:58 1512154018.410485: $GPZDA,184659.00,01,12,2017,00,00*67
2017-12-01 13:46:58 1512154018.410670: $GPGGA,184659,3946.9577,N,08404.9852,W,2,11,0.80,296.72,M,-33.324,M,,*76
2017-12-01 13:46:58 1512154018.410737: $GPRMC,184659,A,3946.9577,N,08404.9852,W,0.0000,0.000,011217,,*36
2017-12-01 13:46:58 1512154018.410798: $GPGSA,A,3,8,10,14,15,18,20,21,24,27,32,138,,2.0,0.8,1.5*34
