2017-11-16 14:47:30 1510861650.595633: {"class":"VERSION","release":"3.17","rev":"3.17","proto_major":3,"proto_minor":12}
2017-11-16 14:47:30 1510861650.596125: {"class":"DEVICES","devices":[{"class":"DEVICE","path":"/dev/ttyUSB0","driver":"SiRF","subtype":"9\u0006GSD4e_4.1.2-P1_RPATCH.05-F-GPS-4R-1510281 11/03/2015 307","activated":"2017-11-16T19:47:30.379Z","flags":1,"native":1,"bps":4800,"parity":"N","stopbits":1,"cycle":1.00}]}
2017-11-16 14:47:30 1510861650.596247: {"class":"WATCH","enable":true,"json":false,"nmea":true,"raw":0,"scaled":false,"timing":false,"split24":false,"pps":false}
2017-11-16 14:47:30 1510861650.829125: $GPGSV,3,1,11,08,08,309,28,10,53,313,50,15,25,058,50,18,77,027,44*7F
2017-11-16 14:47:30 1510861650.829298: $GPGSV,3,2,11,21,48,183,48,20,22,106,44,24,53,084,50,27,15,274,44*7D
2017-11-16 14:47:30 1510861650.829357: $GPGSV,3,3,11,32,32,249,47,14,16,241,41,138,38,213,43*73
2017-11-16 14:47:30 1510861650.942427: $GPZDA,194729.00,16,11,2017,00,00*65
2017-11-16 14:47:30 1510861650.942590: $GPGGA,194729,3946.9564,N,08404.9842,W,2,11,0.80,302.74,M,-33.324,M,,*78
2017-11-16 14:47:30 1510861650.942653: $GPRMC,194729,A,3946.9564,N,08404.9842,W,0.0000,0.000,161117,,*37
2017-11-16 14:47:30 1510861650.942709: $GPGSA,A,3,8,10,15,18,21,20,24,27,32,14,138,,1.6,0.8,1.3*37
2017-11-16 14:47:31 1510861651.485792: $GPZDA,194730.00,16,11,2017,00,00*6D
2017-11-16 14:47:31 1510861651.485959: $GPGGA,194730,3946.9564,N,08404.9842,W,2,11,0.80,302.74,M,-33.324,M,,*70
2017-11-16 14:47:31 1510861651.486021: $GPRMC,194730,A,3946.9564,N,08404.9842,W,0.0000,0.000,161117,,*3F
2017-11-16 14:47:31 1510861651.486078: $GPGSA,A,3,8,10,15,18,21,20,24,27,32,14,138,,1.6,0.8,1.3*37
2017-11-16 14:47:32 1510861652.486642: $GPZDA,194731.00,16,11,2017,00,00*6C
2017-11-16 14:47:32 1510861652.486825: $GPGGA,194731,3946.9564,N,08404.9842,W,2,11,0.80,302.74,M,-33.324,M,,*71
2017-11-16 14:47:32 1510861652.486889: $GPRMC,194731,A,3946.9564,N,08404.9842,W,0.0000,0.000,161117,,*3E
2017-11-16 14:47:32 1510861652.486946: $GPGSA,A,3,8,10,15,18,21,20,24,27,32,14,138,,1.6,0.8,1.3*37
2017-11-16 14:47:33 1510861653.828676: $GPGSV,3,1,11,08,08,309,28,10,53,313,50,15,25,058,50,18,77,027,44*7F
2017-11-16 14:47:33 1510861653.828842: $GPGSV,3,2,11,21,48,183,47,20,22,106,44,24,53,084,50,27,15,274,44*72
2017-11-16 14:47:33 1510861653.828903: $GPGSV,3,3,11,32,32,249,47,14,16,241,40,138,38,213,44*75
2017-11-16 14:47:33 1510861653.940782: $GPZDA,194732.00,16,11,2017,00,00*6F
2017-11-16 14:47:33 1510861653.940943: $GPGGA,194732,3946.9564,N,08404.9842,W,2,11,0.80,302.74,M,-33.324,M,,*72
2017-11-16 14:47:33 1510861653.941004: $GPRMC,194732,A,3946.9564,N,08404.9842,W,0.0000,0.000,161117,,*3D
2017-11-16 14:47:33 1510861653.941060: $GPGSA,A,3,8,10,15,18,21,20,24,27,32,14,138,,1.6,0.8,1.3*37
2017-11-16 14:47:34 1510861654.567726: $GPZDA,194733.00,16,11,2017,00,00*6E
2017-11-16 14:47:34 1510861654.567891: $GPGGA,194733,3946.9564,N,08404.9842,W,2,11,0.80,302.74,M,-33.324,M,,*73
2017-11-16 14:47:34 1510861654.567972: $GPRMC,194733,A,3946.9564,N,08404.9842,W,0.0000,0.000,161117,,*3C
2017-11-16 14:47:34 1510861654.568030: $GPGSA,A,3,8,10,15,18,21,20,24,27,32,14,138,,1.6,0.8,1.3*37
2017-11-16 14:47:35 1510861655.492232: $GPZDA,194734.00,16,11,2017,00,00*69
2017-11-16 14:47:35 1510861655.492394: $GPGGA,194734,3946.9564,N,08404.9842,W,2,11,0.80,302.74,M,-33.324,M,,*74
2017-11-16 14:47:35 1510861655.492455: $GPRMC,194734,A,3946.9564,N,08404.9842,W,0.0000,0.000,161117,,*3B
2017-11-16 14:47:35 1510861655.492511: $GPGSA,A,3,8,10,15,18,21,20,24,27,32,14,138,,1.6,0.8,1.3*37
2017-11-16 14:47:36 1510861656.828956: $GPGSV,3,1,11,08,08,309,31,10,53,313,50,15,25,058,50,18,77,027,44*77
2017-11-16 14:47:36 1510861656.829126: $GPGSV,3,2,11,21,48,183,47,20,22,106,44,24,53,084,49,27,15,274,44*7A
2017-11-16 14:47:36 1510861656.829186: $GPGSV,3,3,11,32,32,249,47,14,16,241,40,138,38,213,43*72
2017-11-16 14:47:36 1510861656.942356: $GPZDA,194735.00,16,11,2017,00,00*68
2017-11-16 14:47:36 1510861656.942539: $GPGGA,194735,3946.9564,N,08404.9842,W,2,11,0.80,302.74,M,-33.324,M,,*75
2017-11-16 14:47:36 1510861656.942658: $GPRMC,194735,A,3946.9564,N,08404.9842,W,0.0000,0.000,161117,,*3A
2017-11-16 14:47:36 1510861656.942716: $GPGSA,A,3,8,10,15,18,21,20,24,27,32,14,138,,1.6,0.8,1.3*37
2017-11-16 14:47:37 1510861657.491897: $GPZDA,194736.00,16,11,2017,00,00*6B
2017-11-16 14:47:37 1510861657.492064: $GPGGA,194736,3946.9564,N,08404.9842,W,2,11,0.80,302.74,M,-33.324,M,,*76
2017-11-16 14:47:37 1510861657.492125: $GPRMC,194736,A,3946.9564,N,08404.9842,W,0.0000,0.000,161117,,*39
2017-11-16 14:47:37 1510861657.492179: $GPGSA,A,3,8,10,15,18,21,20,24,27,32,14,138,,1.6,0.8,1.3*37
2017-11-16 14:47:38 1510861658.527731: $GPZDA,194737.00,16,11,2017,00,00*6A
2017-11-16 14:47:38 1510861658.527899: $GPGGA,194737,3946.9564,N,08404.9842,W,2,11,0.80,302.74,M,-33.324,M,,*77
2017-11-16 14:47:38 1510861658.527960: $GPRMC,194737,A,3946.9564,N,08404.9842,W,0.0000,0.000,161117,,*38
2017-11-16 14:47:38 1510861658.528016: $GPGSA,A,3,8,10,15,18,21,20,24,27,32,14,138,,1.6,0.8,1.3*37
2017-11-16 14:47:39 1510861659.828025: $GPGSV,3,1,11,08,08,309,34,10,53,313,50,15,25,058,50,18,77,027,44*72
2017-11-16 14:47:39 1510861659.828220: $GPGSV,3,2,11,21,48,183,47,20,22,106,44,24,53,084,49,27,15,274,44*7A
2017-11-16 14:47:39 1510861659.828302: $GPGSV,3,3,11,32,32,249,46,14,16,241,40,138,38,213,43*73
2017-11-16 14:47:39 1510861659.941402: $GPZDA,194738.00,16,11,2017,00,00*65
2017-11-16 14:47:39 1510861659.941569: $GPGGA,194738,3946.9564,N,08404.9842,W,2,11,0.80,302.74,M,-33.324,M,,*78
2017-11-16 14:47:39 1510861659.941630: $GPRMC,194738,A,3946.9564,N,08404.9842,W,0.0000,0.000,161117,,*37
2017-11-16 14:47:39 1510861659.941687: $GPGSA,A,3,8,10,15,18,21,20,24,27,32,14,138,,1.6,0.8,1.3*37
2017-11-16 14:47:40 1510861660.528443: $GPZDA,194739.00,16,11,2017,00,00*64
2017-11-16 14:47:40 1510861660.528597: $GPGGA,194739,3946.9564,N,08404.9842,W,2,11,0.80,302.74,M,-33.324,M,,*79
2017-11-16 14:47:40 1510861660.528660: $GPRMC,194739,A,3946.9564,N,08404.9842,W,0.0000,0.000,161117,,*36
2017-11-16 14:47:40 1510861660.528715: $GPGSA,A,3,8,10,15,18,21,20,24,27,32,14,138,,1.6,0.8,1.3*37
