2017-11-15 19:51:25 1510793485.902128: {"class":"VERSION","release":"3.17","rev":"3.17","proto_major":3,"proto_minor":12}
2017-11-15 19:51:25 1510793485.902637: {"class":"DEVICES","devices":[{"class":"DEVICE","path":"/dev/ttyUSB0","driver":"SiRF","subtype":"9\u0006GSD4e_4.1.2-P1_RPATCH.05-F-GPS-4R-1510281 11/03/2015 307","activated":"2017-11-16T00:51:25.646Z","flags":1,"native":1,"bps":4800,"parity":"N","stopbits":1,"cycle":1.00}]}
2017-11-15 19:51:25 1510793485.902759: {"class":"WATCH","enable":true,"json":false,"nmea":true,"raw":0,"scaled":false,"timing":false,"split24":false,"pps":false}
2017-11-15 19:51:26 1510793486.346964: $GPZDA,005125.00,16,11,2017,00,00*66
2017-11-15 19:51:26 1510793486.347131: $GPGGA,005125,3946.9535,N,08404.9588,W,1,07,1.00,296.65,M,-33.324,M,,*75
2017-11-15 19:51:26 1510793486.347192: $GPRMC,005125,A,3946.9535,N,08404.9588,W,0.4179,328.778,161117,,*31
2017-11-15 19:51:26 1510793486.347247: $GPGSA,A,3,32,16,31,26,14,22,23,,,,,,3.4,1.0,2.9*3B
2017-11-15 19:51:27 1510793487.681307: $GPGSV,3,1,10,32,28,115,19,16,33,190,18,31,59,039,23,26,64,166,27*7D
2017-11-15 19:51:27 1510793487.681476: $GPGSV,3,2,10,14,47,105,24,22,49,255,17,29,13,061,00,23,19,304,17*72
2017-11-15 19:51:27 1510793487.681535: $GPGSV,3,3,10,03,44,288,04,25,09,037,00*77
2017-11-15 19:51:27 1510793487.794614: $GPZDA,005126.00,16,11,2017,00,00*65
2017-11-15 19:51:27 1510793487.794778: $GPGGA,005126,3946.9535,N,08404.9588,W,1,07,1.00,296.65,M,-33.324,M,,*76
2017-11-15 19:51:27 1510793487.794838: $GPRMC,005126,A,3946.9535,N,08404.9588,W,0.4179,328.778,161117,,*32
2017-11-15 19:51:27 1510793487.794894: $GPGSA,A,3,32,16,31,26,14,22,23,,,,,,3.4,1.0,2.9*3B
2017-11-15 19:51:28 1510793488.330905: $GPZDA,005127.00,16,11,2017,00,00*64
2017-11-15 19:51:28 1510793488.331092: $GPGGA,005127,3946.9535,N,08404.9588,W,1,07,1.00,296.65,M,-33.324,M,,*77
2017-11-15 19:51:28 1510793488.331153: $GPRMC,005127,A,3946.9535,N,08404.9588,W,0.4179,328.778,161117,,*33
2017-11-15 19:51:28 1510793488.331208: $GPGSA,A,3,32,16,31,26,14,22,23,,,,,,3.4,1.0,2.9*3B
2017-11-15 19:51:29 1510793489.346673: $GPZDA,005128.00,16,11,2017,00,00*6B
2017-11-15 19:51:29 1510793489.346875: $GPGGA,005128,3946.9535,N,08404.9588,W,1,07,1.00,296.65,M,-33.324,M,,*78
2017-11-15 19:51:29 1510793489.346936: $GPRMC,005128,A,3946.9535,N,08404.9588,W,0.4844,273.794,161117,,*36
2017-11-15 19:51:29 1510793489.346993: $GPGSA,A,3,32,16,31,26,14,22,23,,,,,,3.4,1.0,2.9*3B
2017-11-15 19:51:30 1510793490.680926: $GPGSV,3,1,10,32,28,115,19,16,33,190,18,31,59,039,22,26,64,166,27*7C
2017-11-15 19:51:30 1510793490.681103: $GPGSV,3,2,10,14,47,105,24,22,49,255,17,29,13,061,00,23,19,304,17*72
2017-11-15 19:51:30 1510793490.681164: $GPGSV,3,3,10,03,44,288,04,25,09,037,00*77
2017-11-15 19:51:30 1510793490.794294: $GPZDA,005129.00,16,11,2017,00,00*6A
2017-11-15 19:51:30 1510793490.794411: $GPGGA,005129,3946.9536,N,08404.9595,W,1,07,1.00,296.57,M,-33.324,M,,*77
2017-11-15 19:51:30 1510793490.794468: $GPRMC,005129,A,3946.9536,N,08404.9595,W,0.5912,309.172,161117,,*39
2017-11-15 19:51:30 1510793490.794523: $GPGSA,A,3,32,16,31,26,14,22,23,,,,,,3.4,1.0,2.9*3B
2017-11-15 19:51:31 1510793491.421025: $GPZDA,005130.00,16,11,2017,00,00*62
2017-11-15 19:51:31 1510793491.421212: $GPGGA,005130,3946.9536,N,08404.9595,W,1,07,1.00,296.57,M,-33.324,M,,*7F
2017-11-15 19:51:31 1510793491.421276: $GPRMC,005130,A,3946.9536,N,08404.9595,W,0.4844,273.794,161117,,*30
2017-11-15 19:51:31 1510793491.421336: $GPGSA,A,3,32,16,31,26,14,22,23,,,,,,3.4,1.0,2.9*3B
2017-11-15 19:51:32 1510793492.329343: $GPZDA,005131.00,16,11,2017,00,00*63
2017-11-15 19:51:32 1510793492.329511: $GPGGA,005131,3946.9531,N,08404.9595,W,1,07,1.00,295.93,M,-33.324,M,,*72
2017-11-15 19:51:32 1510793492.329575: $GPRMC,005131,A,3946.9531,N,08404.9595,W,0.7267,273.794,161117,,*3E
2017-11-15 19:51:32 1510793492.329634: $GPGSA,A,3,32,16,31,26,14,22,23,,,,,,3.4,1.0,2.9*3B
2017-11-15 19:51:33 1510793493.665102: $GPGSV,3,1,10,32,28,115,19,16,33,190,19,31,59,039,22,26,64,166,27*7D
2017-11-15 19:51:33 1510793493.665274: $GPGSV,3,2,10,14,47,105,24,22,49,255,16,29,13,061,00,23,19,304,18*7C
2017-11-15 19:51:33 1510793493.665387: $GPGSV,3,3,10,03,44,288,04,25,09,037,00*77
2017-11-15 19:51:33 1510793493.778379: $GPZDA,005132.00,16,11,2017,00,00*60
2017-11-15 19:51:33 1510793493.778549: $GPGGA,005132,3946.9528,N,08404.9595,W,1,07,1.00,296.70,M,-33.324,M,,*77
2017-11-15 19:51:33 1510793493.778610: $GPRMC,005132,A,3946.9528,N,08404.9595,W,0.9019,198.875,161117,,*36
2017-11-15 19:51:33 1510793493.778666: $GPGSA,A,3,32,16,31,26,14,22,23,,,,,,3.4,1.0,2.9*3B
2017-11-15 19:51:34 1510793494.345595: $GPZDA,005133.00,16,11,2017,00,00*61
2017-11-15 19:51:34 1510793494.345756: $GPGGA,005133,3946.9528,N,08404.9595,W,1,07,1.00,296.70,M,-33.324,M,,*76
2017-11-15 19:51:34 1510793494.345817: $GPRMC,005133,A,3946.9528,N,08404.9595,W,0.8709,183.298,161117,,*33
2017-11-15 19:51:34 1510793494.345872: $GPGSA,A,3,32,16,31,26,14,22,23,,,,,,3.4,1.0,2.9*3B
2017-11-15 19:51:35 1510793495.328865: $GPZDA,005134.00,16,11,2017,00,00*66
2017-11-15 19:51:35 1510793495.329035: $GPGGA,005134,3946.9524,N,08404.9595,W,1,07,1.00,296.06,M,-33.324,M,,*7C
2017-11-15 19:51:35 1510793495.329096: $GPRMC,005134,A,3946.9524,N,08404.9595,W,0.5857,158.291,161117,,*3E
2017-11-15 19:51:35 1510793495.329152: $GPGSA,A,3,32,16,31,26,14,22,23,,,,,,3.4,1.0,2.9*3B
