2018-01-12 20:04:07 1515805447.540770: {"class":"VERSION","release":"3.16","rev":"3.16-4","proto_major":3,"proto_minor":11}
2018-01-12 20:04:07 1515805447.541209: {"class":"DEVICES","devices":[{"class":"DEVICE","path":"/dev/ttyUSB0","driver":"SiRF","subtype":"9\u0006GSD4e_4.1.2-P1_RPATCH.05-F-GPS-4R-1510281 11/03/2015 307","activated":"2018-01-13T01:04:07.291Z","flags":1,"native":1,"bps":4800,"parity":"N","stopbits":1,"cycle":1.00}]}
2018-01-12 20:04:07 1515805447.541345: {"class":"WATCH","enable":true,"json":false,"nmea":true,"raw":0,"scaled":false,"timing":false,"split24":false,"pps":false}
2018-01-12 20:04:08 1515805448.149321: $GPZDA,010409.00,13,01,2018,00,00*62
2018-01-12 20:04:08 1515805448.149486: $GPGGA,010409,3946.9542,N,08404.9660,W,1,06,1.60,301.48,M,-33.324,M,,*78
2018-01-12 20:04:08 1515805448.149554: $GPRMC,010409,A,3946.9542,N,08404.9660,W,0.4457,209.083,130118,,*38
2018-01-12 20:04:08 1515805448.149616: $GPGSA,A,3,7,8,9,11,27,23,,,,,,,4.8,1.6,4.6*09
2018-01-12 20:04:09 1515805449.485548: $GPGSV,3,1,10,07,54,313,24,08,73,135,23,09,49,231,24,11,19,168,16*73
2018-01-12 20:04:09 1515805449.485743: $GPGSV,3,2,10,27,48,054,16,16,24,060,10,23,30,190,14,30,28,306,00*73
2018-01-12 20:04:09 1515805449.485826: $GPGSV,3,3,10,28,13,258,00,138,38,213,00*4E
2018-01-12 20:04:09 1515805449.597699: $GPZDA,010410.00,13,01,2018,00,00*6A
2018-01-12 20:04:09 1515805449.597876: $GPGGA,010410,3946.9542,N,08404.9660,W,1,06,1.60,301.48,M,-33.324,M,,*70
2018-01-12 20:04:09 1515805449.597944: $GPRMC,010410,A,3946.9542,N,08404.9660,W,0.5954,203.949,130118,,*3A
2018-01-12 20:04:09 1515805449.598005: $GPGSA,A,3,7,8,9,11,27,23,,,,,,,4.8,1.6,4.6*09
2018-01-12 20:04:10 1515805450.148613: $GPZDA,010411.00,13,01,2018,00,00*6B
2018-01-12 20:04:10 1515805450.148795: $GPGGA,010411,3946.9542,N,08404.9667,W,1,06,1.60,301.40,M,-33.324,M,,*7E
2018-01-12 20:04:10 1515805450.148863: $GPRMC,010411,A,3946.9542,N,08404.9667,W,1.1862,236.731,130118,,*3A
2018-01-12 20:04:10 1515805450.148924: $GPGSA,A,3,7,8,9,11,27,23,,,,,,,4.8,1.6,4.6*09
2018-01-12 20:04:11 1515805451.149072: $GPZDA,010412.00,13,01,2018,00,00*68
2018-01-12 20:04:11 1515805451.149246: $GPGGA,010412,3946.9542,N,08404.9667,W,1,06,1.60,301.40,M,-33.324,M,,*7D
2018-01-12 20:04:11 1515805451.149313: $GPRMC,010412,A,3946.9542,N,08404.9667,W,1.2981,229.823,130118,,*34
2018-01-12 20:04:11 1515805451.149375: $GPGSA,A,3,7,8,9,11,27,23,,,,,,,4.8,1.6,4.6*09
2018-01-12 20:04:12 1515805452.486166: $GPGSV,3,1,10,07,54,313,24,08,73,135,24,09,49,231,24,11,19,168,16*74
2018-01-12 20:04:12 1515805452.486364: $GPGSV,3,2,10,27,48,054,15,30,28,306,00,23,30,190,12,16,24,060,00*77
2018-01-12 20:04:12 1515805452.486433: $GPGSV,3,3,10,28,13,258,00,138,38,213,00*4E
2018-01-12 20:04:12 1515805452.599658: $GPZDA,010413.00,13,01,2018,00,00*69
2018-01-12 20:04:12 1515805452.599836: $GPGGA,010413,3946.9539,N,08404.9675,W,1,06,1.60,302.08,M,-33.324,M,,*7C
2018-01-12 20:04:12 1515805452.599904: $GPRMC,010413,A,3946.9539,N,08404.9675,W,1.0070,226.056,130118,,*3A
2018-01-12 20:04:12 1515805452.599965: $GPGSA,A,3,7,8,9,11,27,23,,,,,,,4.8,1.6,4.6*09
2018-01-12 20:04:13 1515805453.148645: $GPZDA,010414.00,13,01,2018,00,00*6E
2018-01-12 20:04:13 1515805453.148849: $GPGGA,010414,3946.9535,N,08404.9675,W,1,06,1.60,301.44,M,-33.324,M,,*7C
2018-01-12 20:04:13 1515805453.148916: $GPRMC,010414,A,3946.9535,N,08404.9675,W,0.7698,198.298,130118,,*31
2018-01-12 20:04:13 1515805453.148978: $GPGSA,A,3,7,8,9,11,27,23,,,,,,,4.8,1.6,4.6*09
2018-01-12 20:04:14 1515805454.150011: $GPZDA,010415.00,13,01,2018,00,00*6F
2018-01-12 20:04:14 1515805454.150181: $GPGGA,010415,3946.9535,N,08404.9675,W,1,06,1.60,301.44,M,-33.324,M,,*7D
2018-01-12 20:04:14 1515805454.150248: $GPRMC,010415,A,3946.9535,N,08404.9675,W,1.2869,191.962,130118,,*33
2018-01-12 20:04:14 1515805454.150310: $GPGSA,A,3,7,8,9,11,27,23,,,,,,,4.8,1.6,4.6*09
2018-01-12 20:04:14 1515805454.150367: $GPGBS,010415,14.24,M,16.36,M,105.11,M*3A
2018-01-12 20:04:15 1515805455.486734: $GPGSV,3,1,10,07,54,313,24,08,73,135,17,09,49,231,24,11,19,168,16*74
2018-01-12 20:04:15 1515805455.486914: $GPGSV,3,2,10,27,48,054,15,30,28,306,00,23,30,190,12,16,24,060,00*77
2018-01-12 20:04:15 1515805455.487032: $GPGSV,3,3,10,28,13,258,00,138,38,213,00*4E
2018-01-12 20:04:15 1515805455.600521: $GPZDA,010416.00,13,01,2018,00,00*6C
2018-01-12 20:04:15 1515805455.600764: $GPGGA,010416,3946.9535,N,08404.9675,W,1,06,1.60,301.44,M,-33.324,M,,*7E
2018-01-12 20:04:15 1515805455.600864: $GPRMC,010416,A,3946.9535,N,08404.9675,W,1.1049,193.970,130118,,*38
2018-01-12 20:04:15 1515805455.600941: $GPGSA,A,3,7,8,9,11,27,23,,,,,,,4.8,1.6,4.6*09
2018-01-12 20:04:16 1515805456.150304: $GPZDA,010417.00,13,01,2018,00,00*6D
2018-01-12 20:04:16 1515805456.150587: $GPGGA,010417,3946.9531,N,08404.9675,W,1,06,1.60,300.80,M,-33.324,M,,*72
2018-01-12 20:04:16 1515805456.150660: $GPRMC,010417,A,3946.9531,N,08404.9675,W,0.9799,165.721,130118,,*3D
2018-01-12 20:04:16 1515805456.150723: $GPGSA,A,3,7,8,9,11,27,23,,,,,,,4.8,1.6,4.6*09
2018-01-12 20:04:17 1515805457.150598: $GPZDA,010418.00,13,01,2018,00,00*62
2018-01-12 20:04:17 1515805457.150784: $GPGGA,010418,3946.9531,N,08404.9675,W,1,06,1.60,300.80,M,-33.324,M,,*7D
2018-01-12 20:04:17 1515805457.150852: $GPRMC,010418,A,3946.9531,N,08404.9675,W,0.6642,156.322,130118,,*3D
2018-01-12 20:04:17 1515805457.150914: $GPGSA,A,3,7,8,9,11,27,23,,,,,,,4.8,1.6,4.6*09
2018-01-12 20:04:18 1515805458.486593: $GPGSV,3,1,10,07,54,313,24,08,73,135,26,09,49,231,25,11,19,168,16*77
2018-01-12 20:04:18 1515805458.486778: $GPGSV,3,2,10,27,48,054,14,30,28,306,00,23,30,190,13,16,24,060,00*77
2018-01-12 20:04:18 1515805458.486846: $GPGSV,3,3,10,28,13,258,00,138,38,213,00*4E
2018-01-12 20:04:18 1515805458.600187: $GPZDA,010419.00,13,01,2018,00,00*63
2018-01-12 20:04:18 1515805458.600361: $GPGGA,010419,3946.9531,N,08404.9675,W,1,06,1.60,300.80,M,-33.324,M,,*7C
2018-01-12 20:04:18 1515805458.600429: $GPRMC,010419,A,3946.9531,N,08404.9675,W,0.3031,219.207,130118,,*35
2018-01-12 20:04:18 1515805458.600492: $GPGSA,A,3,7,8,9,11,27,23,,,,,,,4.8,1.6,4.6*09
2018-01-12 20:04:19 1515805459.149086: $GPZDA,010420.00,13,01,2018,00,00*69
2018-01-12 20:04:19 1515805459.149282: $GPGGA,010420,3946.9534,N,08404.9674,W,1,06,1.60,300.04,M,-33.324,M,,*7E
2018-01-12 20:04:19 1515805459.149351: $GPRMC,010420,A,3946.9534,N,08404.9674,W,0.1848,244.286,130118,,*3E
2018-01-12 20:04:19 1515805459.149414: $GPGSA,A,3,7,8,9,11,27,23,,,,,,,4.8,1.6,4.6*09
2018-01-12 20:04:20 1515805460.148737: $GPZDA,010421.00,13,01,2018,00,00*68
2018-01-12 20:04:20 1515805460.148903: $GPGGA,010421,3946.9534,N,08404.9674,W,1,06,1.60,300.04,M,-33.324,M,,*7F
2018-01-12 20:04:20 1515805460.148970: $GPRMC,010421,A,3946.9534,N,08404.9674,W,0.1977,302.605,130118,,*3E
2018-01-12 20:04:20 1515805460.149032: $GPGSA,A,3,7,8,9,11,27,23,,,,,,,4.8,1.6,4.6*09
2018-01-12 20:04:21 1515805461.487166: $GPGSV,3,1,10,07,54,313,24,08,73,135,26,09,49,231,25,11,19,168,16*77
2018-01-12 20:04:21 1515805461.487353: $GPGSV,3,2,10,27,48,054,12,16,24,060,01,23,30,190,13,30,28,306,00*70
2018-01-12 20:04:21 1515805461.487422: $GPGSV,3,3,10,28,13,258,00,138,38,213,00*4E
2018-01-12 20:04:21 1515805461.601089: $GPZDA,010422.00,13,01,2018,00,00*6B
2018-01-12 20:04:21 1515805461.601258: $GPGGA,010422,3946.9534,N,08404.9667,W,1,06,1.60,300.12,M,-33.324,M,,*79
2018-01-12 20:04:21 1515805461.601326: $GPRMC,010422,A,3946.9534,N,08404.9667,W,0.3372,330.408,130118,,*3C
2018-01-12 20:04:21 1515805461.601387: $GPGSA,A,3,7,8,9,11,27,23,,,,,,,4.8,1.6,4.6*09
2018-01-12 20:04:22 1515805462.149801: $GPZDA,010423.00,13,01,2018,00,00*6A
2018-01-12 20:04:22 1515805462.149957: $GPGGA,010423,3946.9538,N,08404.9667,W,1,06,1.60,300.76,M,-33.324,M,,*76
2018-01-12 20:04:22 1515805462.150025: $GPRMC,010423,A,3946.9538,N,08404.9667,W,0.3372,330.408,130118,,*31
2018-01-12 20:04:22 1515805462.150087: $GPGSA,A,3,7,8,9,11,27,23,,,,,,,4.8,1.6,4.6*09
2018-01-12 20:04:23 1515805463.153702: $GPZDA,010424.00,13,01,2018,00,00*6D
2018-01-12 20:04:23 1515805463.153874: $GPGGA,010424,3946.9541,N,08404.9667,W,1,06,1.60,300.00,M,-33.324,M,,*7E
2018-01-12 20:04:23 1515805463.153940: $GPRMC,010424,A,3946.9541,N,08404.9667,W,0.4697,342.469,130118,,*33
2018-01-12 20:04:23 1515805463.154051: $GPGSA,A,3,7,8,9,11,27,23,,,,,,,4.8,1.6,4.6*09
2018-01-12 20:04:24 1515805464.485787: $GPGSV,3,1,10,07,54,313,24,08,73,135,26,09,49,231,25,11,19,168,16*77
2018-01-12 20:04:24 1515805464.485971: $GPGSV,3,2,10,27,48,054,12,16,24,060,09,23,30,190,14,28,13,258,14*71
2018-01-12 20:04:24 1515805464.486037: $GPGSV,3,3,10,30,28,306,00,138,38,213,00*45
2018-01-12 20:04:24 1515805464.599179: $GPZDA,010425.00,13,01,2018,00,00*6C
2018-01-12 20:04:24 1515805464.599359: $GPGGA,010425,3946.9541,N,08404.9667,W,1,06,1.60,300.00,M,-33.324,M,,*7F
2018-01-12 20:04:24 1515805464.599426: $GPRMC,010425,A,3946.9541,N,08404.9667,W,0.3255,76.773,130118,,*03
2018-01-12 20:04:24 1515805464.599487: $GPGSA,A,3,7,8,9,11,27,23,,,,,,,4.8,1.6,4.6*09
2018-01-12 20:04:25 1515805465.150065: $GPZDA,010426.00,13,01,2018,00,00*6F
2018-01-12 20:04:25 1515805465.150243: $GPGGA,010426,3946.9545,N,08404.9666,W,1,06,1.60,299.23,M,-33.324,M,,*79
2018-01-12 20:04:25 1515805465.150312: $GPRMC,010426,A,3946.9545,N,08404.9666,W,0.4697,342.469,130118,,*34
2018-01-12 20:04:25 1515805465.150374: $GPGSA,A,3,7,8,9,11,27,23,,,,,,,4.8,1.6,4.6*09
2018-01-12 20:04:26 1515805466.152943: $GPZDA,010427.00,13,01,2018,00,00*6E
2018-01-12 20:04:26 1515805466.153119: $GPGGA,010427,3946.9545,N,08404.9666,W,1,06,1.40,299.23,M,-33.324,M,,*7A
2018-01-12 20:04:26 1515805466.153236: $GPRMC,010427,A,3946.9545,N,08404.9666,W,0.6017,320.445,130118,,*33
2018-01-12 20:04:26 1515805466.153299: $GPGSA,A,3,7,8,9,11,27,23,,,,,,,4.8,1.4,4.6*0B
