2017-11-15 19:46:15 1510793175.336139: {"class":"VERSION","release":"3.17","rev":"3.17","proto_major":3,"proto_minor":12}
2017-11-15 19:46:15 1510793175.336599: {"class":"DEVICES","devices":[{"class":"DEVICE","path":"/dev/ttyUSB0","driver":"SiRF","subtype":"9\u0006GSD4e_4.1.2-P1_RPATCH.05-F-GPS-4R-1510281 11/03/2015 307","activated":"2017-11-16T00:46:15.231Z","flags":1,"native":1,"bps":4800,"parity":"N","stopbits":1,"cycle":1.00}]}
2017-11-15 19:46:15 1510793175.336778: {"class":"WATCH","enable":true,"json":false,"nmea":true,"raw":0,"scaled":false,"timing":false,"split24":false,"pps":false}
2017-11-15 19:46:15 1510793175.681317: $GPGSV,3,1,12,32,30,114,20,16,30,190,24,22,50,259,20,26,61,169,23*73
2017-11-15 19:46:15 1510793175.681492: $GPGSV,3,2,12,14,49,102,20,31,62,034,10,29,12,064,00,23,16,303,06*78
2017-11-15 19:46:15 1510793175.681553: $GPGSV,3,3,12,03,43,291,12,25,11,039,00,01,01,247,00,120,07,103,00*4D
2017-11-15 19:46:15 1510793175.794989: $GPZDA,004614.00,16,11,2017,00,00*62
2017-11-15 19:46:15 1510793175.795122: $GPGGA,004614,3946.9727,N,08404.9461,W,1,07,1.40,350.91,M,-33.324,M,,*72
2017-11-15 19:46:15 1510793175.795181: $GPRMC,004614,A,3946.9727,N,08404.9461,W,0.8054,68.645,161117,,*08
2017-11-15 19:46:15 1510793175.795237: $GPGSA,A,3,32,16,22,26,14,31,3,,,,,,3.4,1.4,2.9*0D
2017-11-15 19:46:16 1510793176.419993: $GPZDA,004615.00,16,11,2017,00,00*63
2017-11-15 19:46:16 1510793176.420161: $GPGGA,004615,3946.9727,N,08404.9461,W,1,07,1.40,350.91,M,-33.324,M,,*73
2017-11-15 19:46:16 1510793176.420224: $GPRMC,004615,A,3946.9727,N,08404.9461,W,0.5951,58.684,161117,,*06
2017-11-15 19:46:16 1510793176.420279: $GPGSA,A,3,32,16,22,26,14,31,3,,,,,,3.4,1.4,2.9*0D
2017-11-15 19:46:17 1510793177.328332: $GPZDA,004616.00,16,11,2017,00,00*60
2017-11-15 19:46:17 1510793177.328510: $GPGGA,004616,3946.9727,N,08404.9461,W,1,07,1.40,350.91,M,-33.324,M,,*70
2017-11-15 19:46:17 1510793177.328573: $GPRMC,004616,A,3946.9727,N,08404.9461,W,0.7103,45.706,161117,,*0F
2017-11-15 19:46:17 1510793177.328632: $GPGSA,A,3,32,16,22,26,14,31,3,,,,,,3.4,1.4,2.9*0D
2017-11-15 19:46:18 1510793178.665402: $GPGSV,3,1,12,32,30,114,20,16,30,190,23,22,50,259,20,26,61,169,24*73
2017-11-15 19:46:18 1510793178.665567: $GPGSV,3,2,12,14,49,102,20,31,62,034,10,29,12,064,00,23,16,303,04*7A
2017-11-15 19:46:18 1510793178.665629: $GPGSV,3,3,12,03,43,291,12,25,11,039,00,01,01,247,00,120,07,103,00*4D
2017-11-15 19:46:18 1510793178.778714: $GPZDA,004617.00,16,11,2017,00,00*61
2017-11-15 19:46:18 1510793178.779198: $GPGGA,004617,3946.9727,N,08404.9461,W,1,07,1.40,350.91,M,-33.324,M,,*71
2017-11-15 19:46:18 1510793178.785361: $GPRMC,004617,A,3946.9727,N,08404.9461,W,0.8709,3.298,161117,,*3D
2017-11-15 19:46:18 1510793178.785435: $GPGSA,A,3,32,16,22,26,14,31,3,,,,,,3.4,1.4,2.9*0D
2017-11-15 19:46:19 1510793179.329604: $GPZDA,004618.00,16,11,2017,00,00*6E
2017-11-15 19:46:19 1510793179.329751: $GPGGA,004618,3946.9731,N,08404.9454,W,1,07,1.40,351.62,M,-33.324,M,,*72
2017-11-15 19:46:19 1510793179.329814: $GPRMC,004618,A,3946.9731,N,08404.9454,W,0.9929,32.499,161117,,*0B
2017-11-15 19:46:19 1510793179.329870: $GPGSA,A,3,32,16,22,26,14,31,3,,,,,,3.4,1.4,2.9*0D
2017-11-15 19:46:20 1510793180.346479: $GPZDA,004619.00,16,11,2017,00,00*6F
2017-11-15 19:46:20 1510793180.346651: $GPGGA,004619,3946.9731,N,08404.9454,W,1,07,1.20,351.62,M,-33.324,M,,*75
2017-11-15 19:46:20 1510793180.346782: $GPRMC,004619,A,3946.9731,N,08404.9454,W,0.5774,27.515,161117,,*01
2017-11-15 19:46:20 1510793180.346851: $GPGSA,A,3,32,16,22,26,14,31,3,,,,,,3.4,1.2,2.9*0B
2017-11-15 19:46:21 1510793181.682012: $GPGSV,3,1,12,32,30,114,20,16,30,190,23,22,50,259,20,26,61,169,24*73
2017-11-15 19:46:21 1510793181.682157: $GPGSV,3,2,12,14,49,102,20,31,62,034,09,29,12,064,00,23,16,303,11*76
2017-11-15 19:46:21 1510793181.682217: $GPGSV,3,3,12,03,43,291,12,25,11,039,00,01,01,247,00,120,07,103,00*4D
2017-11-15 19:46:21 1510793181.795299: $GPZDA,004620.00,16,11,2017,00,00*65
2017-11-15 19:46:21 1510793181.795509: $GPGGA,004620,3946.9727,N,08404.9454,W,1,08,1.20,350.98,M,-33.324,M,,*73
2017-11-15 19:46:21 1510793181.795631: $GPRMC,004620,A,3946.9727,N,08404.9454,W,0.4207,39.347,161117,,*02
2017-11-15 19:46:21 1510793181.795692: $GPGSA,A,3,32,16,22,26,14,31,23,3,,,,,3.4,1.2,2.9*0A
2017-11-15 19:46:22 1510793182.330073: $GPZDA,004621.00,16,11,2017,00,00*64
2017-11-15 19:46:22 1510793182.330232: $GPGGA,004621,3946.9727,N,08404.9454,W,1,08,1.20,350.98,M,-33.324,M,,*72
2017-11-15 19:46:22 1510793182.330294: $GPRMC,004621,A,3946.9727,N,08404.9454,W,0.7267,93.795,161117,,*0D
2017-11-15 19:46:22 1510793182.330349: $GPGSA,A,3,32,16,22,26,14,31,23,3,,,,,3.4,1.2,2.9*0A
2017-11-15 19:46:23 1510793183.330538: $GPZDA,004622.00,16,11,2017,00,00*67
2017-11-15 19:46:23 1510793183.330711: $GPGGA,004622,3946.9726,N,08404.9447,W,1,08,1.20,351.06,M,-33.324,M,,*74
2017-11-15 19:46:23 1510793183.330772: $GPRMC,004622,A,3946.9726,N,08404.9447,W,1.0298,74.382,161117,,*00
2017-11-15 19:46:23 1510793183.330831: $GPGSA,A,3,32,16,22,26,14,31,23,3,,,,,3.4,1.2,2.9*0A
2017-11-15 19:46:24 1510793184.681643: $GPGSV,3,1,12,32,30,114,19,16,30,190,23,22,50,259,20,26,61,169,24*79
2017-11-15 19:46:24 1510793184.681817: $GPGSV,3,2,12,14,49,102,20,31,62,034,09,29,12,064,00,23,16,303,11*76
2017-11-15 19:46:24 1510793184.681876: $GPGSV,3,3,12,03,43,291,12,25,11,039,00,01,01,247,00,120,07,103,00*4D
2017-11-15 19:46:24 1510793184.794937: $GPZDA,004623.00,16,11,2017,00,00*66
2017-11-15 19:46:24 1510793184.795069: $GPGGA,004623,3946.9726,N,08404.9447,W,1,08,1.20,351.06,M,-33.324,M,,*75
2017-11-15 19:46:24 1510793184.795128: $GPRMC,004623,A,3946.9726,N,08404.9447,W,0.5230,76.444,161117,,*08
2017-11-15 19:46:24 1510793184.795184: $GPGSA,A,3,32,16,22,26,14,31,23,3,,,,,3.4,1.2,2.9*0A
2017-11-15 19:46:25 1510793185.348321: $GPZDA,004624.00,16,11,2017,00,00*61
2017-11-15 19:46:25 1510793185.348491: $GPGGA,004624,3946.9726,N,08404.9447,W,1,08,1.40,351.06,M,-33.324,M,,*74
2017-11-15 19:46:25 1510793185.348557: $GPRMC,004624,A,3946.9726,N,08404.9447,W,0.4179,148.778,161117,,*30
2017-11-15 19:46:25 1510793185.348614: $GPGSA,A,3,32,16,22,26,14,31,23,3,,,,,3.4,1.4,2.9*0C
