2017-12-29 11:15:40 1514564140.126522: {"class":"VERSION","release":"3.16","rev":"3.16-4","proto_major":3,"proto_minor":11}
2017-12-29 11:15:40 1514564140.126871: {"class":"DEVICES","devices":[{"class":"DEVICE","path":"/dev/ttyUSB0","driver":"SiRF","subtype":"9\u0006GSD4e_4.1.2-P1_RPATCH.05-F-GPS-4R-1510281 11/03/2015 307","activated":"2017-12-29T16:15:39.512Z","flags":1,"native":1,"bps":4800,"parity":"N","stopbits":1,"cycle":1.00}]}
2017-12-29 11:15:40 1514564140.126991: {"class":"WATCH","enable":true,"json":false,"nmea":true,"raw":0,"scaled":false,"timing":false,"split24":false,"pps":false}
2017-12-29 11:15:40 1514564140.713777: $GPGSV,3,1,12,10,41,301,42,15,38,052,46,18,71,337,41,20,35,094,46*74
2017-12-29 11:15:40 1514564140.713938: $GPGSV,3,2,12,21,64,190,43,24,50,111,44,27,19,291,36,32,21,238,33*7E
2017-12-29 11:15:40 1514564140.714005: $GPGSV,3,3,12,08,05,324,29,13,08,048,23,14,03,232,09,138,38,213,44*43
2017-12-29 11:15:40 1514564140.827143: $GPZDA,161541.00,29,12,2017,00,00*6C
2017-12-29 11:15:40 1514564140.827259: $GPGGA,161541,3946.9580,N,08404.9841,W,2,11,1.00,303.90,M,-33.324,M,,*75
2017-12-29 11:15:40 1514564140.827330: $GPRMC,161541,A,3946.9580,N,08404.9841,W,0.0000,0.000,291217,,*37
2017-12-29 11:15:40 1514564140.827392: $GPGSA,A,3,10,15,18,20,21,24,27,32,8,13,138,,1.7,1.0,1.3*38
2017-12-29 11:15:41 1514564141.452826: $GPZDA,161542.00,29,12,2017,00,00*6F
2017-12-29 11:15:41 1514564141.452985: $GPGGA,161542,3946.9580,N,08404.9841,W,2,11,1.00,303.90,M,-33.324,M,,*76
2017-12-29 11:15:41 1514564141.453051: $GPRMC,161542,A,3946.9580,N,08404.9841,W,0.0000,0.000,291217,,*34
2017-12-29 11:15:41 1514564141.453112: $GPGSA,A,3,10,15,18,20,21,24,27,32,8,13,138,,1.7,1.0,1.3*38
2017-12-29 11:15:42 1514564142.372511: $GPZDA,161543.00,29,12,2017,00,00*6E
2017-12-29 11:15:42 1514564142.372671: $GPGGA,161543,3946.9580,N,08404.9841,W,2,11,1.00,303.90,M,-33.324,M,,*77
2017-12-29 11:15:42 1514564142.372737: $GPRMC,161543,A,3946.9580,N,08404.9841,W,0.0000,0.000,291217,,*35
2017-12-29 11:15:42 1514564142.372799: $GPGSA,A,3,10,15,18,20,21,24,27,32,8,13,138,,1.7,1.0,1.3*38
2017-12-29 11:15:43 1514564143.707853: $GPGSV,3,1,12,10,41,301,42,15,38,052,46,18,71,337,41,20,35,094,47*75
2017-12-29 11:15:43 1514564143.708017: $GPGSV,3,2,12,21,64,190,44,24,50,111,45,27,19,291,36,32,21,238,33*78
2017-12-29 11:15:43 1514564143.708083: $GPGSV,3,3,12,08,05,324,29,13,08,048,23,14,03,232,00,138,38,213,44*4A
2017-12-29 11:15:43 1514564143.821625: $GPZDA,161544.00,29,12,2017,00,00*69
2017-12-29 11:15:43 1514564143.821750: $GPGGA,161544,3946.9576,N,08404.9842,W,2,11,1.00,304.66,M,-33.324,M,,*74
2017-12-29 11:15:43 1514564143.821816: $GPRMC,161544,A,3946.9576,N,08404.9842,W,0.0000,0.000,291217,,*38
2017-12-29 11:15:43 1514564143.821876: $GPGSA,A,3,10,15,18,20,21,24,27,32,8,13,138,,1.7,1.0,1.3*38
2017-12-29 11:15:44 1514564144.371257: $GPZDA,161545.00,29,12,2017,00,00*68
2017-12-29 11:15:44 1514564144.371422: $GPGGA,161545,3946.9576,N,08404.9842,W,2,11,1.00,304.66,M,-33.324,M,,*75
2017-12-29 11:15:44 1514564144.371489: $GPRMC,161545,A,3946.9576,N,08404.9842,W,0.0000,0.000,291217,,*39
2017-12-29 11:15:44 1514564144.371552: $GPGSA,A,3,10,15,18,20,21,24,27,32,8,13,138,,1.7,1.0,1.3*38
2017-12-29 11:15:45 1514564145.372263: $GPZDA,161546.00,29,12,2017,00,00*6B
2017-12-29 11:15:45 1514564145.372445: $GPGGA,161546,3946.9576,N,08404.9842,W,2,11,1.00,304.66,M,-33.324,M,,*76
2017-12-29 11:15:45 1514564145.372514: $GPRMC,161546,A,3946.9576,N,08404.9842,W,0.0000,0.000,291217,,*3A
2017-12-29 11:15:45 1514564145.372575: $GPGSA,A,3,10,15,18,20,21,24,27,32,8,13,138,,1.7,1.0,1.3*38
2017-12-29 11:15:46 1514564146.705719: $GPGSV,3,1,12,10,41,301,42,15,38,052,46,18,71,337,41,20,35,094,46*74
2017-12-29 11:15:46 1514564146.705884: $GPGSV,3,2,12,21,64,190,43,24,50,111,44,27,19,291,37,32,21,238,33*7F
2017-12-29 11:15:46 1514564146.705950: $GPGSV,3,3,12,08,05,324,29,13,08,048,23,14,03,232,00,138,38,213,46*48
2017-12-29 11:15:46 1514564146.819415: $GPZDA,161547.00,29,12,2017,00,00*6A
2017-12-29 11:15:46 1514564146.819534: $GPGGA,161547,3946.9576,N,08404.9842,W,2,11,1.00,304.66,M,-33.324,M,,*77
2017-12-29 11:15:46 1514564146.819652: $GPRMC,161547,A,3946.9576,N,08404.9842,W,0.0000,0.000,291217,,*3B
2017-12-29 11:15:46 1514564146.819714: $GPGSA,A,3,10,15,18,20,21,24,27,32,8,13,138,,1.7,1.0,1.3*38
2017-12-29 11:15:47 1514564147.375386: $GPZDA,161548.00,29,12,2017,00,00*65
2017-12-29 11:15:47 1514564147.375552: $GPGGA,161548,3946.9576,N,08404.9842,W,2,11,1.00,304.66,M,-33.324,M,,*78
2017-12-29 11:15:47 1514564147.375621: $GPRMC,161548,A,3946.9576,N,08404.9842,W,0.0000,0.000,291217,,*34
2017-12-29 11:15:47 1514564147.375682: $GPGSA,A,3,10,15,18,20,21,24,27,32,8,13,138,,1.7,1.0,1.3*38
2017-12-29 11:15:48 1514564148.374913: $GPZDA,161549.00,29,12,2017,00,00*64
2017-12-29 11:15:48 1514564148.375077: $GPGGA,161549,3946.9576,N,08404.9842,W,2,11,1.00,304.66,M,-33.324,M,,*79
2017-12-29 11:15:48 1514564148.375146: $GPRMC,161549,A,3946.9576,N,08404.9842,W,0.0000,0.000,291217,,*35
2017-12-29 11:15:48 1514564148.375211: $GPGSA,A,3,10,15,18,20,21,24,27,32,8,13,138,,1.7,1.0,1.3*38
2017-12-29 11:15:49 1514564149.712833: $GPGSV,3,1,12,10,41,301,42,15,38,052,46,18,71,337,41,20,35,094,47*75
2017-12-29 11:15:49 1514564149.713004: $GPGSV,3,2,12,21,64,190,43,24,50,111,44,27,19,291,37,32,21,238,34*78
2017-12-29 11:15:49 1514564149.713070: $GPGSV,3,3,12,08,05,324,29,13,08,048,23,14,03,232,00,138,38,213,45*4B
2017-12-29 11:15:49 1514564149.825315: $GPZDA,161550.00,29,12,2017,00,00*6C
2017-12-29 11:15:49 1514564149.825460: $GPGGA,161550,3946.9576,N,08404.9841,W,2,11,1.00,303.26,M,-33.324,M,,*71
2017-12-29 11:15:49 1514564149.825526: $GPRMC,161550,A,3946.9576,N,08404.9841,W,0.5774,27.515,291217,,*0B
2017-12-29 11:15:49 1514564149.825587: $GPGSA,A,3,10,15,18,20,21,24,27,32,8,13,138,,1.7,1.0,1.3*38
2017-12-29 11:15:50 1514564150.376248: $GPZDA,161551.00,29,12,2017,00,00*6D
2017-12-29 11:15:50 1514564150.376411: $GPGGA,161551,3946.9572,N,08404.9841,W,2,11,1.00,302.62,M,-33.324,M,,*75
2017-12-29 11:15:50 1514564150.376479: $GPRMC,161551,A,3946.9572,N,08404.9841,W,0.0000,0.000,291217,,*3B
2017-12-29 11:15:50 1514564150.376540: $GPGSA,A,3,10,15,18,20,21,24,27,32,8,13,138,,1.7,1.0,1.3*38
2017-12-29 11:15:51 1514564151.375380: $GPZDA,161552.00,29,12,2017,00,00*6E
2017-12-29 11:15:51 1514564151.375549: $GPGGA,161552,3946.9580,N,08404.9848,W,2,11,1.00,303.82,M,-33.324,M,,*7D
2017-12-29 11:15:51 1514564151.375637: $GPRMC,161552,A,3946.9580,N,08404.9848,W,0.3155,309.994,291217,,*30
2017-12-29 11:15:51 1514564151.375700: $GPGSA,A,3,10,15,18,20,21,24,27,32,8,13,138,,1.7,1.0,1.3*38
2017-12-29 11:15:52 1514564152.709477: $GPGSV,3,1,12,10,41,301,42,15,38,052,46,18,71,337,41,20,35,094,47*75
2017-12-29 11:15:52 1514564152.709653: $GPGSV,3,2,12,21,64,190,43,24,50,111,45,27,19,291,36,32,21,238,33*7F
2017-12-29 11:15:52 1514564152.709721: $GPGSV,3,3,12,08,05,324,28,13,08,048,23,14,03,232,00,138,38,213,44*4B
2017-12-29 11:15:52 1514564152.823114: $GPZDA,161553.00,29,12,2017,00,00*6F
2017-12-29 11:15:52 1514564152.823263: $GPGGA,161553,3946.9580,N,08404.9848,W,2,11,1.00,303.82,M,-33.324,M,,*7C
2017-12-29 11:15:52 1514564152.823328: $GPRMC,161553,A,3946.9580,N,08404.9848,W,0.0000,0.000,291217,,*3D
2017-12-29 11:15:52 1514564152.823390: $GPGSA,A,3,10,15,18,20,21,24,27,32,8,13,138,,1.7,1.0,1.3*38
2017-12-29 11:15:53 1514564153.376257: $GPZDA,161554.00,29,12,2017,00,00*68
2017-12-29 11:15:53 1514564153.376428: $GPGGA,161554,3946.9580,N,08404.9848,W,2,11,1.20,303.82,M,-33.324,M,,*79
2017-12-29 11:15:53 1514564153.376496: $GPRMC,161554,A,3946.9580,N,08404.9848,W,0.0000,0.000,291217,,*3A
2017-12-29 11:15:53 1514564153.376557: $GPGSA,A,3,10,15,18,20,21,24,27,32,8,13,138,,1.7,1.2,1.3*3A
2017-12-29 11:15:54 1514564154.376165: $GPZDA,161555.00,29,12,2017,00,00*69
2017-12-29 11:15:54 1514564154.376336: $GPGGA,161555,3946.9580,N,08404.9848,W,2,11,1.20,303.82,M,-33.324,M,,*78
2017-12-29 11:15:54 1514564154.376403: $GPRMC,161555,A,3946.9580,N,08404.9848,W,0.0000,0.000,291217,,*3B
2017-12-29 11:15:54 1514564154.376464: $GPGSA,A,3,10,15,18,20,21,24,27,32,8,13,138,,1.7,1.2,1.3*3A
2017-12-29 11:15:55 1514564155.711601: $GPGSV,3,1,12,10,41,301,42,15,38,052,46,18,71,337,42,20,35,094,47*76
2017-12-29 11:15:55 1514564155.711818: $GPGSV,3,2,12,21,64,190,44,24,50,111,44,27,19,291,35,32,21,238,33*7A
2017-12-29 11:15:55 1514564155.711889: $GPGSV,3,3,12,08,05,324,28,13,08,048,23,14,03,232,14,138,38,213,44*4E
2017-12-29 11:15:55 1514564155.825010: $GPZDA,161556.00,29,12,2017,00,00*6A
2017-12-29 11:15:55 1514564155.825129: $GPGGA,161556,3946.9580,N,08404.9848,W,2,11,1.20,303.82,M,-33.324,M,,*7B
2017-12-29 11:15:55 1514564155.825194: $GPRMC,161556,A,3946.9580,N,08404.9848,W,0.0000,0.000,291217,,*38
2017-12-29 11:15:55 1514564155.825259: $GPGSA,A,3,10,15,18,20,21,24,27,32,8,13,138,,1.7,1.2,1.3*3A
2017-12-29 11:15:56 1514564156.450757: $GPZDA,161557.00,29,12,2017,00,00*6B
2017-12-29 11:15:56 1514564156.450930: $GPGGA,161557,3946.9580,N,08404.9848,W,2,11,1.20,303.82,M,-33.324,M,,*7A
2017-12-29 11:15:56 1514564156.450998: $GPRMC,161557,A,3946.9580,N,08404.9848,W,0.0000,0.000,291217,,*39
2017-12-29 11:15:56 1514564156.451122: $GPGSA,A,3,10,15,18,20,21,24,27,32,8,13,138,,1.7,1.2,1.3*3A
2017-12-29 11:15:57 1514564157.370292: $GPZDA,161558.00,29,12,2017,00,00*64
2017-12-29 11:15:57 1514564157.370450: $GPGGA,161558,3946.9580,N,08404.9848,W,2,11,1.20,303.82,M,-33.324,M,,*75
2017-12-29 11:15:57 1514564157.370516: $GPRMC,161558,A,3946.9580,N,08404.9848,W,0.0000,0.000,291217,,*36
2017-12-29 11:15:57 1514564157.370578: $GPGSA,A,3,10,15,18,20,21,24,27,32,8,13,138,,1.7,1.2,1.3*3A
2017-12-29 11:15:58 1514564158.711991: $GPGSV,3,1,12,10,41,301,42,15,38,052,45,18,71,337,41,20,35,094,47*76
2017-12-29 11:15:58 1514564158.712168: $GPGSV,3,2,12,21,64,190,44,24,50,111,45,27,19,291,35,32,21,238,34*7C
2017-12-29 11:15:58 1514564158.712237: $GPGSV,3,3,12,08,05,324,28,13,08,048,23,14,03,232,00,138,38,213,44*4B
2017-12-29 11:15:58 1514564158.825358: $GPZDA,161559.00,29,12,2017,00,00*65
2017-12-29 11:15:58 1514564158.825505: $GPGGA,161559,3946.9580,N,08404.9848,W,2,11,1.20,303.82,M,-33.324,M,,*74
2017-12-29 11:15:58 1514564158.825572: $GPRMC,161559,A,3946.9580,N,08404.9848,W,0.0000,0.000,291217,,*37
2017-12-29 11:15:58 1514564158.825632: $GPGSA,A,3,10,15,18,20,21,24,27,32,8,13,138,,1.7,1.2,1.3*3A
2017-12-29 11:15:59 1514564159.374891: $GPZDA,161600.00,29,12,2017,00,00*6A
2017-12-29 11:15:59 1514564159.375060: $GPGGA,161600,3946.9580,N,08404.9848,W,2,11,1.20,303.82,M,-33.324,M,,*7B
2017-12-29 11:15:59 1514564159.375127: $GPRMC,161600,A,3946.9580,N,08404.9848,W,0.0000,0.000,291217,,*38
2017-12-29 11:15:59 1514564159.375188: $GPGSA,A,3,10,15,18,20,21,24,27,32,8,13,138,,1.7,1.2,1.3*3A
2017-12-29 11:16:00 1514564160.375771: $GPZDA,161601.00,29,12,2017,00,00*6B
2017-12-29 11:16:00 1514564160.375945: $GPGGA,161601,3946.9580,N,08404.9848,W,2,11,1.20,303.82,M,-33.324,M,,*7A
2017-12-29 11:16:00 1514564160.376011: $GPRMC,161601,A,3946.9580,N,08404.9848,W,0.0000,0.000,291217,,*39
2017-12-29 11:16:00 1514564160.376072: $GPGSA,A,3,10,15,18,20,21,24,27,32,8,13,138,,1.7,1.2,1.3*3A
2017-12-29 11:16:01 1514564161.713525: $GPGSV,3,1,12,10,41,301,42,15,38,052,45,18,71,337,41,20,35,094,47*76
2017-12-29 11:16:02 1514564162.183758: $GPGSV,3,2,12,21,64,190,43,24,50,111,44,27,19,291,29,32,21,238,34*77
2017-12-29 11:16:02 1514564162.183906: $GPGSV,3,3,12,08,05,324,28,13,08,048,24,14,03,232,00,138,38,213,44*4C
2017-12-29 11:16:02 1514564162.184005: $GPZDA,161602.00,29,12,2017,00,00*68
2017-12-29 11:16:02 1514564162.184063: $GPGGA,161602,3946.9580,N,08404.9848,W,2,11,1.20,303.82,M,-33.324,M,,*79
2017-12-29 11:16:02 1514564162.184125: $GPRMC,161602,A,3946.9580,N,08404.9848,W,0.0000,0.000,291217,,*3A
2017-12-29 11:16:02 1514564162.184202: $GPGSA,A,3,10,15,18,20,21,24,27,32,8,13,138,,1.7,1.2,1.3*3A
2017-12-29 11:16:02 1514564162.376508: $GPZDA,161603.00,29,12,2017,00,00*69
2017-12-29 11:16:02 1514564162.376668: $GPGGA,161603,3946.9580,N,08404.9848,W,2,11,1.20,303.82,M,-33.324,M,,*78
2017-12-29 11:16:02 1514564162.376734: $GPRMC,161603,A,3946.9580,N,08404.9848,W,0.0000,0.000,291217,,*3B
2017-12-29 11:16:02 1514564162.376795: $GPGSA,A,3,10,15,18,20,21,24,27,32,8,13,138,,1.7,1.2,1.3*3A
2017-12-29 11:16:03 1514564163.369875: $GPZDA,161604.00,29,12,2017,00,00*6E
2017-12-29 11:16:03 1514564163.370030: $GPGGA,161604,3946.9576,N,08404.9848,W,2,11,1.20,303.18,M,-33.324,M,,*75
2017-12-29 11:16:03 1514564163.370097: $GPRMC,161604,A,3946.9576,N,08404.9848,W,0.0000,0.000,291217,,*35
2017-12-29 11:16:03 1514564163.370157: $GPGSA,A,3,10,15,18,20,21,24,27,32,8,13,138,,1.7,1.2,1.3*3A
2017-12-29 11:16:04 1514564164.729387: $GPGSV,3,1,12,10,41,301,42,15,38,052,46,18,71,337,42,20,35,094,47*76
2017-12-29 11:16:04 1514564164.729557: $GPGSV,3,2,12,21,64,190,43,24,50,111,44,27,19,291,29,32,21,238,34*77
2017-12-29 11:16:04 1514564164.729624: $GPGSV,3,3,12,08,05,324,28,13,08,048,24,14,03,232,01,138,38,213,44*4D
2017-12-29 11:16:04 1514564164.842689: $GPZDA,161605.00,29,12,2017,00,00*6F
2017-12-29 11:16:04 1514564164.842805: $GPGGA,161605,3946.9576,N,08404.9848,W,2,11,1.20,303.18,M,-33.324,M,,*74
2017-12-29 11:16:04 1514564164.842870: $GPRMC,161605,A,3946.9576,N,08404.9848,W,0.2422,93.794,291217,,*02
2017-12-29 11:16:04 1514564164.842930: $GPGSA,A,3,10,15,18,20,21,24,27,32,8,13,138,,1.7,1.2,1.3*3A
