2017-11-16 14:44:55 1510861495.287169: {"class":"VERSION","release":"3.17","rev":"3.17","proto_major":3,"proto_minor":12}
2017-11-16 14:44:55 1510861495.287623: {"class":"DEVICES","devices":[{"class":"DEVICE","path":"/dev/ttyUSB0","driver":"SiRF","subtype":"9\u0006GSD4e_4.1.2-P1_RPATCH.05-F-GPS-4R-1510281 11/03/2015 307","activated":"2017-11-16T19:44:55.087Z","flags":1,"native":1,"bps":4800,"parity":"N","stopbits":1,"cycle":1.00}]}
2017-11-16 14:44:55 1510861495.287736: {"class":"WATCH","enable":true,"json":false,"nmea":true,"raw":0,"scaled":false,"timing":false,"split24":false,"pps":false}
2017-11-16 14:44:55 1510861495.490675: $GPZDA,194454.00,16,11,2017,00,00*6C
2017-11-16 14:44:55 1510861495.490839: $GPGGA,194454,3946.9564,N,08404.9842,W,2,11,0.80,302.74,M,-33.324,M,,*71
2017-11-16 14:44:55 1510861495.490901: $GPRMC,194454,A,3946.9564,N,08404.9842,W,0.0000,0.000,161117,,*3E
2017-11-16 14:44:55 1510861495.490958: $GPGSA,A,3,8,10,15,18,21,20,24,27,32,14,138,,1.6,0.8,1.3*37
2017-11-16 14:44:56 1510861496.496850: $GPZDA,194455.00,16,11,2017,00,00*6D
2017-11-16 14:44:56 1510861496.497022: $GPGGA,194455,3946.9564,N,08404.9842,W,2,11,0.80,302.74,M,-33.324,M,,*70
2017-11-16 14:44:56 1510861496.497086: $GPRMC,194455,A,3946.9564,N,08404.9842,W,0.0000,0.000,161117,,*3F
2017-11-16 14:44:56 1510861496.497143: $GPGSA,A,3,8,10,15,18,21,20,24,27,32,14,138,,1.6,0.8,1.3*37
2017-11-16 14:44:57 1510861497.832467: $GPGSV,3,1,11,08,08,310,39,10,52,312,51,15,26,057,51,18,77,021,44*7D
2017-11-16 14:44:58 1510861498.221961: $GPGSV,3,2,11,21,49,183,47,20,23,106,44,24,53,087,48,27,15,276,44*7A
2017-11-16 14:44:58 1510861498.222115: $GPGSV,3,3,11,32,31,247,48,14,15,240,39,138,38,213,44*7B
2017-11-16 14:44:58 1510861498.222215: $GPZDA,194456.00,16,11,2017,00,00*6E
2017-11-16 14:44:58 1510861498.222266: $GPGGA,194456,3946.9564,N,08404.9842,W,2,11,0.80,302.74,M,-33.324,M,,*73
2017-11-16 14:44:58 1510861498.222322: $GPRMC,194456,A,3946.9564,N,08404.9842,W,0.0000,0.000,161117,,*3C
2017-11-16 14:44:58 1510861498.222377: $GPGSA,A,3,8,10,15,18,21,20,24,27,32,14,138,,1.6,0.8,1.3*37
2017-11-16 14:44:58 1510861498.496412: $GPZDA,194457.00,16,11,2017,00,00*6F
2017-11-16 14:44:58 1510861498.496578: $GPGGA,194457,3946.9564,N,08404.9842,W,2,11,0.80,302.74,M,-33.324,M,,*72
2017-11-16 14:44:58 1510861498.496639: $GPRMC,194457,A,3946.9564,N,08404.9842,W,0.0000,0.000,161117,,*3D
2017-11-16 14:44:58 1510861498.496695: $GPGSA,A,3,8,10,15,18,21,20,24,27,32,14,138,,1.6,0.8,1.3*37
2017-11-16 14:44:59 1510861499.495437: $GPZDA,194458.00,16,11,2017,00,00*60
2017-11-16 14:44:59 1510861499.495608: $GPGGA,194458,3946.9564,N,08404.9842,W,2,11,0.80,302.74,M,-33.324,M,,*7D
2017-11-16 14:44:59 1510861499.495671: $GPRMC,194458,A,3946.9564,N,08404.9842,W,0.0000,0.000,161117,,*32
2017-11-16 14:44:59 1510861499.495727: $GPGSA,A,3,8,10,15,18,21,20,24,27,32,14,138,,1.6,0.8,1.3*37
2017-11-16 14:45:00 1510861500.827573: $GPGSV,3,1,11,08,08,310,39,10,52,312,51,15,26,057,51,18,77,021,44*7D
2017-11-16 14:45:00 1510861500.827734: $GPGSV,3,2,11,21,49,183,48,20,23,106,44,24,53,087,48,27,15,276,44*75
2017-11-16 14:45:00 1510861500.827795: $GPGSV,3,3,11,32,31,247,48,14,15,240,39,138,38,213,43*7C
2017-11-16 14:45:00 1510861500.941021: $GPZDA,194459.00,16,11,2017,00,00*61
2017-11-16 14:45:00 1510861500.941188: $GPGGA,194459,3946.9564,N,08404.9842,W,2,11,0.80,302.74,M,-33.324,M,,*7C
2017-11-16 14:45:00 1510861500.941250: $GPRMC,194459,A,3946.9564,N,08404.9842,W,0.0000,0.000,161117,,*33
2017-11-16 14:45:00 1510861500.941305: $GPGSA,A,3,8,10,15,18,21,20,24,27,32,14,138,,1.6,0.8,1.3*37
2017-11-16 14:45:01 1510861501.496570: $GPZDA,194500.00,16,11,2017,00,00*6C
2017-11-16 14:45:01 1510861501.496739: $GPGGA,194500,3946.9564,N,08404.9842,W,2,11,0.80,302.74,M,-33.324,M,,*71
2017-11-16 14:45:01 1510861501.496803: $GPRMC,194500,A,3946.9564,N,08404.9842,W,0.0000,0.000,161117,,*3E
2017-11-16 14:45:01 1510861501.496859: $GPGSA,A,3,8,10,15,18,21,20,24,27,32,14,138,,1.6,0.8,1.3*37
2017-11-16 14:45:02 1510861502.496452: $GPZDA,194501.00,16,11,2017,00,00*6D
2017-11-16 14:45:02 1510861502.496630: $GPGGA,194501,3946.9564,N,08404.9842,W,2,11,0.80,302.74,M,-33.324,M,,*70
2017-11-16 14:45:02 1510861502.496743: $GPRMC,194501,A,3946.9564,N,08404.9842,W,0.0000,0.000,161117,,*3F
2017-11-16 14:45:02 1510861502.496801: $GPGSA,A,3,8,10,15,18,21,20,24,27,32,14,138,,1.6,0.8,1.3*37
2017-11-16 14:45:03 1510861503.831918: $GPGSV,3,1,11,08,08,310,40,10,52,312,51,15,26,057,51,18,77,021,44*73
2017-11-16 14:45:03 1510861503.832095: $GPGSV,3,2,11,21,49,183,48,20,23,106,44,24,53,087,48,27,15,276,44*75
2017-11-16 14:45:03 1510861503.832157: $GPGSV,3,3,11,32,31,247,48,14,15,240,39,138,38,213,43*7C
2017-11-16 14:45:03 1510861503.945216: $GPZDA,194502.00,16,11,2017,00,00*6E
2017-11-16 14:45:03 1510861503.945388: $GPGGA,194502,3946.9564,N,08404.9842,W,2,11,0.80,302.74,M,-33.324,M,,*73
2017-11-16 14:45:03 1510861503.945452: $GPRMC,194502,A,3946.9564,N,08404.9842,W,0.0000,0.000,161117,,*3C
2017-11-16 14:45:03 1510861503.945508: $GPGSA,A,3,8,10,15,18,21,20,24,27,32,14,138,,1.6,0.8,1.3*37
2017-11-16 14:45:04 1510861504.570666: $GPZDA,194503.00,16,11,2017,00,00*6F
2017-11-16 14:45:04 1510861504.570836: $GPGGA,194503,3946.9564,N,08404.9842,W,2,11,0.80,302.74,M,-33.324,M,,*72
2017-11-16 14:45:04 1510861504.570904: $GPRMC,194503,A,3946.9564,N,08404.9842,W,0.0000,0.000,161117,,*3D
2017-11-16 14:45:04 1510861504.570960: $GPGSA,A,3,8,10,15,18,21,20,24,27,32,14,138,,1.6,0.8,1.3*37
