2017-11-16 14:07:40 1510859260.557267: {"class":"VERSION","release":"3.17","rev":"3.17","proto_major":3,"proto_minor":12}
2017-11-16 14:07:40 1510859260.557690: {"class":"DEVICES","devices":[{"class":"DEVICE","path":"/dev/ttyUSB0","driver":"SiRF","subtype":"9\u0006GSD4e_4.1.2-P1_RPATCH.05-F-GPS-4R-1510281 11/03/2015 307","activated":"2017-11-16T19:07:40.449Z","flags":1,"native":1,"bps":4800,"parity":"N","stopbits":1,"cycle":1.00}]}
2017-11-16 14:07:40 1510859260.557799: {"class":"WATCH","enable":true,"json":false,"nmea":true,"raw":0,"scaled":false,"timing":false,"split24":false,"pps":false}
2017-11-16 14:07:40 1510859260.600527: $GPZDA,190739.00,16,11,2017,00,00*60
2017-11-16 14:07:40 1510859260.600685: $GPGGA,190739,3946.9570,N,08404.9844,W,2,11,0.80,306.19,M,-33.324,M,,*71
2017-11-16 14:07:40 1510859260.600770: $GPRMC,190739,A,3946.9570,N,08404.9844,W,0.0000,0.000,161117,,*31
2017-11-16 14:07:40 1510859260.600828: $GPGSA,A,3,10,13,15,18,20,21,24,32,8,27,138,,1.6,0.8,1.3*30
2017-11-16 14:07:41 1510859261.543588: $GPZDA,190740.00,16,11,2017,00,00*6E
2017-11-16 14:07:41 1510859261.543750: $GPGGA,190740,3946.9570,N,08404.9844,W,2,11,0.80,306.19,M,-33.324,M,,*7F
2017-11-16 14:07:41 1510859261.543811: $GPRMC,190740,A,3946.9570,N,08404.9844,W,0.0000,0.000,161117,,*3F
2017-11-16 14:07:41 1510859261.543867: $GPGSA,A,3,10,13,15,18,20,21,24,32,8,27,138,,1.6,0.8,1.3*30
2017-11-16 14:07:42 1510859262.867959: $GPGSV,3,1,12,10,39,298,44,13,10,048,32,15,40,051,50,18,69,330,48*75
2017-11-16 14:07:42 1510859262.868131: $GPGSV,3,2,12,20,35,093,46,21,67,193,46,24,49,115,48,32,18,235,45*73
2017-11-16 14:07:42 1510859262.868192: $GPGSV,3,3,12,08,05,324,28,27,19,292,40,14,02,231,02,138,38,213,45*4D
2017-11-16 14:07:42 1510859262.981297: $GPZDA,190741.00,16,11,2017,00,00*6F
2017-11-16 14:07:42 1510859262.981456: $GPGGA,190741,3946.9570,N,08404.9844,W,2,11,0.80,306.19,M,-33.324,M,,*7E
2017-11-16 14:07:42 1510859262.981516: $GPRMC,190741,A,3946.9570,N,08404.9844,W,0.0000,0.000,161117,,*3E
2017-11-16 14:07:42 1510859262.981571: $GPGSA,A,3,10,13,15,18,20,21,24,32,8,27,138,,1.6,0.8,1.3*30
2017-11-16 14:07:43 1510859263.533350: $GPZDA,190742.00,16,11,2017,00,00*6C
2017-11-16 14:07:43 1510859263.533511: $GPGGA,190742,3946.9570,N,08404.9844,W,2,11,0.80,306.19,M,-33.324,M,,*7D
2017-11-16 14:07:43 1510859263.533572: $GPRMC,190742,A,3946.9570,N,08404.9844,W,0.0000,0.000,161117,,*3D
2017-11-16 14:07:43 1510859263.533629: $GPGSA,A,3,10,13,15,18,20,21,24,32,8,27,138,,1.6,0.8,1.3*30
2017-11-16 14:07:44 1510859264.533961: $GPZDA,190743.00,16,11,2017,00,00*6D
2017-11-16 14:07:44 1510859264.534125: $GPGGA,190743,3946.9570,N,08404.9844,W,2,11,0.80,306.19,M,-33.324,M,,*7C
2017-11-16 14:07:44 1510859264.534185: $GPRMC,190743,A,3946.9570,N,08404.9844,W,0.0000,0.000,161117,,*3C
2017-11-16 14:07:44 1510859264.534241: $GPGSA,A,3,10,13,15,18,20,21,24,32,8,27,138,,1.6,0.8,1.3*30
2017-11-16 14:07:45 1510859265.869504: $GPGSV,3,1,12,10,39,298,44,13,10,048,33,15,40,051,51,18,69,330,49*74
2017-11-16 14:07:45 1510859265.869672: $GPGSV,3,2,12,20,35,093,46,21,67,193,47,24,49,115,48,32,18,235,45*72
2017-11-16 14:07:45 1510859265.869732: $GPGSV,3,3,12,08,05,324,34,27,19,292,40,14,02,231,00,138,38,213,44*43
2017-11-16 14:07:45 1510859265.982791: $GPZDA,190744.00,16,11,2017,00,00*6A
2017-11-16 14:07:45 1510859265.982953: $GPGGA,190744,3946.9570,N,08404.9844,W,2,11,0.80,306.19,M,-33.324,M,,*7B
2017-11-16 14:07:45 1510859265.983013: $GPRMC,190744,A,3946.9570,N,08404.9844,W,0.0000,0.000,161117,,*3B
2017-11-16 14:07:45 1510859265.983070: $GPGSA,A,3,10,13,15,18,20,21,24,32,8,27,138,,1.6,0.8,1.3*30
2017-11-16 14:07:46 1510859266.532971: $GPZDA,190745.00,16,11,2017,00,00*6B
2017-11-16 14:07:46 1510859266.533147: $GPGGA,190745,3946.9570,N,08404.9844,W,2,11,0.80,306.19,M,-33.324,M,,*7A
2017-11-16 14:07:46 1510859266.533208: $GPRMC,190745,A,3946.9570,N,08404.9844,W,0.0000,0.000,161117,,*3A
2017-11-16 14:07:46 1510859266.533264: $GPGSA,A,3,10,13,15,18,20,21,24,32,8,27,138,,1.6,0.8,1.3*30
2017-11-16 14:07:47 1510859267.534699: $GPZDA,190746.00,16,11,2017,00,00*68
2017-11-16 14:07:47 1510859267.534928: $GPGGA,190746,3946.9570,N,08404.9844,W,2,11,0.80,306.19,M,-33.324,M,,*79
2017-11-16 14:07:47 1510859267.534992: $GPRMC,190746,A,3946.9570,N,08404.9844,W,0.0000,0.000,161117,,*39
2017-11-16 14:07:47 1510859267.535048: $GPGSA,A,3,10,13,15,18,20,21,24,32,8,27,138,,1.6,0.8,1.3*30
2017-11-16 14:07:48 1510859268.865394: $GPGSV,3,1,12,10,39,298,44,13,10,048,33,15,40,051,51,18,69,330,48*75
2017-11-16 14:07:48 1510859268.865560: $GPGSV,3,2,12,20,35,093,46,21,67,193,46,24,49,115,48,32,18,235,45*73
2017-11-16 14:07:48 1510859268.865621: $GPGSV,3,3,12,08,05,324,34,27,19,292,40,14,02,231,00,138,38,213,44*43
2017-11-16 14:07:48 1510859268.978956: $GPZDA,190747.00,16,11,2017,00,00*69
2017-11-16 14:07:48 1510859268.979117: $GPGGA,190747,3946.9570,N,08404.9844,W,2,11,0.80,306.19,M,-33.324,M,,*78
2017-11-16 14:07:48 1510859268.979179: $GPRMC,190747,A,3946.9570,N,08404.9844,W,0.0000,0.000,161117,,*38
2017-11-16 14:07:48 1510859268.979235: $GPGSA,A,3,10,13,15,18,20,21,24,32,8,27,138,,1.6,0.8,1.3*30
2017-11-16 14:07:49 1510859269.604272: $GPZDA,190748.00,16,11,2017,00,00*66
2017-11-16 14:07:49 1510859269.604448: $GPGGA,190748,3946.9570,N,08404.9844,W,2,11,0.80,306.19,M,-33.324,M,,*77
2017-11-16 14:07:49 1510859269.604514: $GPRMC,190748,A,3946.9570,N,08404.9844,W,0.0000,0.000,161117,,*37
2017-11-16 14:07:49 1510859269.604574: $GPGSA,A,3,10,13,15,18,20,21,24,32,8,27,138,,1.6,0.8,1.3*30
