2017-11-16 13:51:48 1510858308.657236: {"class":"VERSION","release":"3.17","rev":"3.17","proto_major":3,"proto_minor":12}
2017-11-16 13:51:48 1510858308.657681: {"class":"DEVICES","devices":[{"class":"DEVICE","path":"/dev/ttyUSB0","driver":"SiRF","subtype":"9\u0006GSD4e_4.1.2-P1_RPATCH.05-F-GPS-4R-1510281 11/03/2015 307","activated":"2017-11-16T18:51:48.508Z","flags":1,"native":1,"bps":4800,"parity":"N","stopbits":1,"cycle":1.00}]}
2017-11-16 13:51:48 1510858308.657799: {"class":"WATCH","enable":true,"json":false,"nmea":true,"raw":0,"scaled":false,"timing":false,"split24":false,"pps":false}
2017-11-16 13:51:49 1510858309.685319: $GPGSV,3,1,11,10,34,294,42,13,16,046,47,15,47,049,51,18,64,318,49*72
2017-11-16 13:51:49 1510858309.685495: $GPGSV,3,2,11,20,40,087,49,21,73,205,48,24,45,124,46,27,19,300,35*7A
2017-11-16 13:51:49 1510858309.685554: $GPGSV,3,3,11,32,12,232,34,08,02,328,05,138,38,213,44*78
2017-11-16 13:51:49 1510858309.799056: $GPZDA,185148.00,16,11,2017,00,00*64
2017-11-16 13:51:49 1510858309.799213: $GPGGA,185148,3946.9612,N,08404.9827,W,2,10,0.80,307.77,M,-33.324,M,,*7F
2017-11-16 13:51:49 1510858309.799274: $GPRMC,185148,A,3946.9612,N,08404.9827,W,0.0000,0.000,161117,,*37
2017-11-16 13:51:49 1510858309.799330: $GPGSA,A,3,10,13,15,18,20,21,24,27,32,138,,,1.6,0.8,1.3*08
2017-11-16 13:51:50 1510858310.373490: $GPZDA,185149.00,16,11,2017,00,00*65
2017-11-16 13:51:50 1510858310.373666: $GPGGA,185149,3946.9612,N,08404.9827,W,2,10,0.80,307.77,M,-33.324,M,,*7E
2017-11-16 13:51:50 1510858310.373727: $GPRMC,185149,A,3946.9612,N,08404.9827,W,0.0000,0.000,161117,,*36
2017-11-16 13:51:50 1510858310.373783: $GPGSA,A,3,10,13,15,18,20,21,24,27,32,138,,,1.6,0.8,1.3*08
2017-11-16 13:51:51 1510858311.348064: $GPZDA,185150.00,16,11,2017,00,00*6D
2017-11-16 13:51:51 1510858311.348217: $GPGGA,185150,3946.9612,N,08404.9827,W,2,10,0.80,307.77,M,-33.324,M,,*76
2017-11-16 13:51:51 1510858311.348277: $GPRMC,185150,A,3946.9612,N,08404.9827,W,0.0000,0.000,161117,,*3E
2017-11-16 13:51:51 1510858311.348332: $GPGSA,A,3,10,13,15,18,20,21,24,27,32,138,,,1.6,0.8,1.3*08
2017-11-16 13:51:52 1510858312.709720: $GPGSV,3,1,11,10,34,294,42,13,16,046,47,15,47,049,51,18,64,318,48*73
2017-11-16 13:51:52 1510858312.709886: $GPGSV,3,2,11,20,40,087,49,21,73,205,48,24,45,124,46,27,19,300,35*7A
2017-11-16 13:51:52 1510858312.709945: $GPGSV,3,3,11,32,12,232,34,08,02,328,00,138,38,213,44*7D
2017-11-16 13:51:52 1510858312.823335: $GPZDA,185151.00,16,11,2017,00,00*6C
2017-11-16 13:51:52 1510858312.823495: $GPGGA,185151,3946.9608,N,08404.9827,W,2,10,0.80,307.13,M,-33.324,M,,*7E
2017-11-16 13:51:52 1510858312.823556: $GPRMC,185151,A,3946.9608,N,08404.9827,W,0.0000,0.000,161117,,*34
2017-11-16 13:51:52 1510858312.823610: $GPGSA,A,3,10,13,15,18,20,21,24,27,32,138,,,1.6,0.8,1.3*08
2017-11-16 13:51:53 1510858313.374289: $GPZDA,185152.00,16,11,2017,00,00*6F
2017-11-16 13:51:53 1510858313.374445: $GPGGA,185152,3946.9608,N,08404.9827,W,2,10,0.80,307.13,M,-33.324,M,,*7D
2017-11-16 13:51:53 1510858313.374506: $GPRMC,185152,A,3946.9608,N,08404.9827,W,0.0000,0.000,161117,,*37
2017-11-16 13:51:53 1510858313.374561: $GPGSA,A,3,10,13,15,18,20,21,24,27,32,138,,,1.6,0.8,1.3*08
2017-11-16 13:51:54 1510858314.347769: $GPZDA,185153.00,16,11,2017,00,00*6E
2017-11-16 13:51:54 1510858314.348151: $GPGGA,185153,3946.9608,N,08404.9827,W,2,10,0.80,307.13,M,-33.324,M,,*7C
2017-11-16 13:51:54 1510858314.352557: $GPRMC,185153,A,3946.9608,N,08404.9827,W,0.0000,0.000,161117,,*36
2017-11-16 13:51:54 1510858314.352636: $GPGSA,A,3,10,13,15,18,20,21,24,27,32,138,,,1.6,0.8,1.3*08
2017-11-16 13:51:55 1510858315.683357: $GPGSV,3,1,11,10,34,294,42,13,16,046,47,15,47,049,51,18,64,318,49*72
2017-11-16 13:51:55 1510858315.683515: $GPGSV,3,2,11,20,40,087,49,21,73,205,48,24,45,124,46,27,19,300,34*7B
2017-11-16 13:51:55 1510858315.683575: $GPGSV,3,3,11,32,12,232,34,08,02,328,03,138,38,213,43*79
2017-11-16 13:51:55 1510858315.797005: $GPZDA,185154.00,16,11,2017,00,00*69
2017-11-16 13:51:55 1510858315.797162: $GPGGA,185154,3946.9608,N,08404.9827,W,2,10,0.80,307.13,M,-33.324,M,,*7B
2017-11-16 13:51:55 1510858315.797279: $GPRMC,185154,A,3946.9608,N,08404.9827,W,0.0000,0.000,161117,,*31
2017-11-16 13:51:55 1510858315.797337: $GPGSA,A,3,10,13,15,18,20,21,24,27,32,138,,,1.6,0.8,1.3*08
2017-11-16 13:51:56 1510858316.343892: $GPZDA,185155.00,16,11,2017,00,00*68
2017-11-16 13:51:56 1510858316.344062: $GPGGA,185155,3946.9608,N,08404.9827,W,2,10,0.80,307.13,M,-33.324,M,,*7A
2017-11-16 13:51:56 1510858316.344125: $GPRMC,185155,A,3946.9608,N,08404.9827,W,0.0000,0.000,161117,,*30
2017-11-16 13:51:56 1510858316.344180: $GPGSA,A,3,10,13,15,18,20,21,24,27,32,138,,,1.6,0.8,1.3*08
2017-11-16 13:51:57 1510858317.348459: $GPZDA,185156.00,16,11,2017,00,00*6B
2017-11-16 13:51:57 1510858317.348618: $GPGGA,185156,3946.9608,N,08404.9827,W,2,10,0.80,307.13,M,-33.324,M,,*79
2017-11-16 13:51:57 1510858317.348679: $GPRMC,185156,A,3946.9608,N,08404.9827,W,0.0000,0.000,161117,,*33
2017-11-16 13:51:57 1510858317.348735: $GPGSA,A,3,10,13,15,18,20,21,24,27,32,138,,,1.6,0.8,1.3*08
2017-11-16 13:51:58 1510858318.683961: $GPGSV,3,1,11,10,34,294,41,13,16,046,47,15,47,049,51,18,64,318,48*70
2017-11-16 13:51:58 1510858318.684127: $GPGSV,3,2,11,20,40,087,48,21,73,205,48,24,45,124,46,27,19,300,27*78
2017-11-16 13:51:58 1510858318.684188: $GPGSV,3,3,11,32,12,232,34,08,02,328,29,138,38,213,43*71
