2017-12-29 10:58:40 1514563120.570008: {"class":"VERSION","release":"3.16","rev":"3.16-4","proto_major":3,"proto_minor":11}
2017-12-29 10:58:40 1514563120.570406: {"class":"DEVICES","devices":[{"class":"DEVICE","path":"/dev/ttyUSB0","driver":"SiRF","subtype":"9\u0006GSD4e_4.1.2-P1_RPATCH.05-F-GPS-4R-1510281 11/03/2015 307","activated":"2017-12-29T15:58:40.554Z","flags":1,"native":1,"bps":4800,"parity":"N","stopbits":1,"cycle":1.00}]}
2017-12-29 10:58:40 1514563120.570521: {"class":"WATCH","enable":true,"json":false,"nmea":true,"raw":0,"scaled":false,"timing":false,"split24":false,"pps":false}
2017-12-29 10:58:41 1514563121.439872: $GPZDA,155842.00,29,12,2017,00,00*65
2017-12-29 10:58:41 1514563121.440042: $GPGGA,155842,3946.9594,N,08404.9839,W,2,11,1.00,300.84,M,-33.324,M,,*70
2017-12-29 10:58:41 1514563121.440110: $GPRMC,155842,A,3946.9594,N,08404.9839,W,0.0000,0.000,291217,,*34
2017-12-29 10:58:41 1514563121.440171: $GPGSA,A,3,10,13,15,18,20,21,24,27,32,8,138,,1.7,1.0,1.3*38
2017-12-29 10:58:42 1514563122.737954: $GPGSV,3,1,11,10,35,295,43,13,15,046,38,15,45,051,50,18,66,321,44*77
2017-12-29 10:58:42 1514563122.738113: $GPGSV,3,2,11,20,41,087,50,21,72,201,46,24,46,123,50,27,19,298,37*79
2017-12-29 10:58:42 1514563122.738178: $GPGSV,3,3,11,32,14,232,30,08,02,330,17,138,38,213,44*70
2017-12-29 10:58:42 1514563122.851705: $GPZDA,155843.00,29,12,2017,00,00*64
2017-12-29 10:58:42 1514563122.851844: $GPGGA,155843,3946.9594,N,08404.9839,W,2,11,1.00,300.84,M,-33.324,M,,*71
2017-12-29 10:58:42 1514563122.851911: $GPRMC,155843,A,3946.9594,N,08404.9839,W,0.0000,0.000,291217,,*35
2017-12-29 10:58:42 1514563122.851972: $GPGSA,A,3,10,13,15,18,20,21,24,27,32,8,138,,1.7,1.0,1.3*38
2017-12-29 10:58:43 1514563123.478319: $GPZDA,155844.00,29,12,2017,00,00*63
2017-12-29 10:58:43 1514563123.478490: $GPGGA,155844,3946.9594,N,08404.9839,W,2,11,1.00,300.84,M,-33.324,M,,*76
2017-12-29 10:58:43 1514563123.478556: $GPRMC,155844,A,3946.9594,N,08404.9839,W,0.0000,0.000,291217,,*32
2017-12-29 10:58:43 1514563123.478617: $GPGSA,A,3,10,13,15,18,20,21,24,27,32,8,138,,1.7,1.0,1.3*38
2017-12-29 10:58:44 1514563124.440435: $GPZDA,155845.00,29,12,2017,00,00*62
2017-12-29 10:58:44 1514563124.440588: $GPGGA,155845,3946.9594,N,08404.9839,W,2,11,1.00,300.84,M,-33.324,M,,*77
2017-12-29 10:58:44 1514563124.440655: $GPRMC,155845,A,3946.9594,N,08404.9839,W,0.0000,0.000,291217,,*33
2017-12-29 10:58:44 1514563124.440715: $GPGSA,A,3,10,13,15,18,20,21,24,27,32,8,138,,1.7,1.0,1.3*38
2017-12-29 10:58:45 1514563125.737065: $GPGSV,3,1,11,10,35,295,42,13,15,046,38,15,45,051,50,18,66,321,44*76
2017-12-29 10:58:45 1514563125.737266: $GPGSV,3,2,11,20,41,087,50,21,72,201,46,24,46,123,50,27,19,298,32*7C
2017-12-29 10:58:45 1514563125.737351: $GPGSV,3,3,11,32,14,232,30,08,02,330,25,138,38,213,44*71
2017-12-29 10:58:45 1514563125.850427: $GPZDA,155846.00,29,12,2017,00,00*61
2017-12-29 10:58:45 1514563125.850579: $GPGGA,155846,3946.9594,N,08404.9839,W,2,11,1.00,300.84,M,-33.324,M,,*74
2017-12-29 10:58:45 1514563125.850643: $GPRMC,155846,A,3946.9594,N,08404.9839,W,0.0000,0.000,291217,,*30
2017-12-29 10:58:45 1514563125.850704: $GPGSA,A,3,10,13,15,18,20,21,24,27,32,8,138,,1.7,1.0,1.3*38
2017-12-29 10:58:46 1514563126.441395: $GPZDA,155847.00,29,12,2017,00,00*60
2017-12-29 10:58:46 1514563126.441542: $GPGGA,155847,3946.9594,N,08404.9839,W,2,11,1.00,300.84,M,-33.324,M,,*75
2017-12-29 10:58:46 1514563126.441609: $GPRMC,155847,A,3946.9594,N,08404.9839,W,0.0000,0.000,291217,,*31
2017-12-29 10:58:46 1514563126.441669: $GPGSA,A,3,10,13,15,18,20,21,24,27,32,8,138,,1.7,1.0,1.3*38
2017-12-29 10:58:47 1514563127.402211: $GPZDA,155848.00,29,12,2017,00,00*6F
2017-12-29 10:58:47 1514563127.402373: $GPGGA,155848,3946.9594,N,08404.9839,W,2,11,1.00,300.84,M,-33.324,M,,*7A
2017-12-29 10:58:47 1514563127.402439: $GPRMC,155848,A,3946.9594,N,08404.9839,W,0.0000,0.000,291217,,*3E
2017-12-29 10:58:47 1514563127.402500: $GPGSA,A,3,10,13,15,18,20,21,24,27,32,8,138,,1.7,1.0,1.3*38
2017-12-29 10:58:48 1514563128.776133: $GPGSV,3,1,11,10,35,295,42,13,15,046,38,15,45,051,50,18,66,321,44*76
2017-12-29 10:58:48 1514563128.776393: $GPGSV,3,2,11,20,41,087,49,21,72,201,46,24,46,123,50,27,19,298,33*75
2017-12-29 10:58:48 1514563128.776463: $GPGSV,3,3,11,32,14,232,26,08,02,330,25,138,38,213,46*74
2017-12-29 10:58:48 1514563128.889553: $GPZDA,155849.00,29,12,2017,00,00*6E
2017-12-29 10:58:48 1514563128.889711: $GPGGA,155849,3946.9594,N,08404.9839,W,2,11,1.00,300.84,M,-33.324,M,,*7B
2017-12-29 10:58:48 1514563128.889776: $GPRMC,155849,A,3946.9594,N,08404.9839,W,0.0000,0.000,291217,,*3F
2017-12-29 10:58:48 1514563128.889836: $GPGSA,A,3,10,13,15,18,20,21,24,27,32,8,138,,1.7,1.0,1.3*38
2017-12-29 10:58:49 1514563129.440361: $GPZDA,155850.00,29,12,2017,00,00*66
2017-12-29 10:58:49 1514563129.440501: $GPGGA,155850,3946.9594,N,08404.9839,W,2,11,1.00,300.84,M,-33.324,M,,*73
2017-12-29 10:58:49 1514563129.440567: $GPRMC,155850,A,3946.9594,N,08404.9839,W,0.0000,0.000,291217,,*37
2017-12-29 10:58:49 1514563129.440627: $GPGSA,A,3,10,13,15,18,20,21,24,27,32,8,138,,1.7,1.0,1.3*38
2017-12-29 10:58:50 1514563130.402572: $GPZDA,155851.00,29,12,2017,00,00*67
2017-12-29 10:58:50 1514563130.402735: $GPGGA,155851,3946.9594,N,08404.9839,W,2,11,1.00,300.84,M,-33.324,M,,*72
2017-12-29 10:58:50 1514563130.402801: $GPRMC,155851,A,3946.9594,N,08404.9839,W,0.0000,0.000,291217,,*36
2017-12-29 10:58:50 1514563130.402861: $GPGSA,A,3,10,13,15,18,20,21,24,27,32,8,138,,1.7,1.0,1.3*38
2017-12-29 10:58:51 1514563131.738238: $GPGSV,3,1,11,10,35,295,42,13,15,046,37,15,45,051,50,18,66,321,44*79
2017-12-29 10:58:51 1514563131.738424: $GPGSV,3,2,11,20,41,087,50,21,72,201,46,24,46,123,50,27,19,298,33*7D
2017-12-29 10:58:51 1514563131.738490: $GPGSV,3,3,11,32,14,232,23,08,02,330,25,138,38,213,44*73
2017-12-29 10:58:51 1514563131.851703: $GPZDA,155852.00,29,12,2017,00,00*64
2017-12-29 10:58:51 1514563131.851839: $GPGGA,155852,3946.9594,N,08404.9839,W,2,11,1.00,300.84,M,-33.324,M,,*71
2017-12-29 10:58:51 1514563131.851905: $GPRMC,155852,A,3946.9594,N,08404.9839,W,0.0000,0.000,291217,,*35
2017-12-29 10:58:51 1514563131.851966: $GPGSA,A,3,10,13,15,18,20,21,24,27,32,8,138,,1.7,1.0,1.3*38
2017-12-29 10:58:52 1514563132.396235: $GPZDA,155853.00,29,12,2017,00,00*65
2017-12-29 10:58:52 1514563132.396398: $GPGGA,155853,3946.9594,N,08404.9839,W,2,11,1.00,300.84,M,-33.324,M,,*70
2017-12-29 10:58:52 1514563132.396465: $GPRMC,155853,A,3946.9594,N,08404.9839,W,0.0000,0.000,291217,,*34
2017-12-29 10:58:52 1514563132.396526: $GPGSA,A,3,10,13,15,18,20,21,24,27,32,8,138,,1.7,1.0,1.3*38
2017-12-29 10:58:53 1514563133.401713: $GPZDA,155854.00,29,12,2017,00,00*62
2017-12-29 10:58:53 1514563133.401871: $GPGGA,155854,3946.9594,N,08404.9839,W,2,11,1.00,300.84,M,-33.324,M,,*77
2017-12-29 10:58:53 1514563133.401937: $GPRMC,155854,A,3946.9594,N,08404.9839,W,0.0000,0.000,291217,,*33
2017-12-29 10:58:53 1514563133.401997: $GPGSA,A,3,10,13,15,18,20,21,24,27,32,8,138,,1.7,1.0,1.3*38
2017-12-29 10:58:54 1514563134.738609: $GPGSV,3,1,11,10,35,295,42,13,15,046,38,15,45,051,50,18,66,321,44*76
2017-12-29 10:58:54 1514563134.738777: $GPGSV,3,2,11,20,41,087,50,21,72,201,46,24,46,123,50,27,19,298,32*7C
2017-12-29 10:58:54 1514563134.738842: $GPGSV,3,3,11,32,14,232,21,08,02,330,25,138,38,213,44*71
2017-12-29 10:58:54 1514563134.852021: $GPZDA,155855.00,29,12,2017,00,00*63
2017-12-29 10:58:54 1514563134.852170: $GPGGA,155855,3946.9594,N,08404.9839,W,2,11,1.00,300.84,M,-33.324,M,,*76
2017-12-29 10:58:54 1514563134.852237: $GPRMC,155855,A,3946.9594,N,08404.9839,W,0.0000,0.000,291217,,*32
2017-12-29 10:58:54 1514563134.852313: $GPGSA,A,3,10,13,15,18,20,21,24,27,32,8,138,,1.7,1.0,1.3*38
2017-12-29 10:58:55 1514563135.402837: $GPZDA,155856.00,29,12,2017,00,00*60
2017-12-29 10:58:55 1514563135.402980: $GPGGA,155856,3946.9594,N,08404.9839,W,2,11,1.00,300.84,M,-33.324,M,,*75
2017-12-29 10:58:55 1514563135.403046: $GPRMC,155856,A,3946.9594,N,08404.9839,W,0.0000,0.000,291217,,*31
2017-12-29 10:58:55 1514563135.403106: $GPGSA,A,3,10,13,15,18,20,21,24,27,32,8,138,,1.7,1.0,1.3*38
2017-12-29 10:58:56 1514563136.401355: $GPZDA,155857.00,29,12,2017,00,00*61
2017-12-29 10:58:56 1514563136.401558: $GPGGA,155857,3946.9594,N,08404.9839,W,2,11,1.00,300.84,M,-33.324,M,,*74
2017-12-29 10:58:56 1514563136.401627: $GPRMC,155857,A,3946.9594,N,08404.9839,W,0.0000,0.000,291217,,*30
2017-12-29 10:58:56 1514563136.401687: $GPGSA,A,3,10,13,15,18,20,21,24,27,32,8,138,,1.7,1.0,1.3*38
2017-12-29 10:58:57 1514563137.736965: $GPGSV,3,1,11,10,35,295,42,13,15,046,38,15,45,051,50,18,66,321,44*76
2017-12-29 10:58:57 1514563137.737155: $GPGSV,3,2,11,20,41,087,50,21,72,201,46,24,46,123,50,27,19,298,32*7C
2017-12-29 10:58:57 1514563137.737221: $GPGSV,3,3,11,32,14,232,24,08,02,330,25,138,38,213,44*74
2017-12-29 10:58:57 1514563137.850360: $GPZDA,155858.00,29,12,2017,00,00*6E
2017-12-29 10:58:57 1514563137.850489: $GPGGA,155858,3946.9594,N,08404.9839,W,2,11,1.00,300.84,M,-33.324,M,,*7B
2017-12-29 10:58:57 1514563137.850555: $GPRMC,155858,A,3946.9594,N,08404.9839,W,0.0000,0.000,291217,,*3F
2017-12-29 10:58:57 1514563137.850615: $GPGSA,A,3,10,13,15,18,20,21,24,27,32,8,138,,1.7,1.0,1.3*38
2017-12-29 10:58:58 1514563138.475699: $GPZDA,155859.00,29,12,2017,00,00*6F
2017-12-29 10:58:58 1514563138.475840: $GPGGA,155859,3946.9594,N,08404.9839,W,2,11,1.00,300.84,M,-33.324,M,,*7A
2017-12-29 10:58:58 1514563138.475906: $GPRMC,155859,A,3946.9594,N,08404.9839,W,0.0000,0.000,291217,,*3E
2017-12-29 10:58:58 1514563138.475966: $GPGSA,A,3,10,13,15,18,20,21,24,27,32,8,138,,1.7,1.0,1.3*38
2017-12-29 10:58:59 1514563139.401656: $GPZDA,155900.00,29,12,2017,00,00*62
2017-12-29 10:58:59 1514563139.401819: $GPGGA,155900,3946.9597,N,08404.9838,W,2,11,1.00,300.08,M,-33.324,M,,*71
2017-12-29 10:58:59 1514563139.401888: $GPRMC,155900,A,3946.9597,N,08404.9838,W,0.0000,0.000,291217,,*31
2017-12-29 10:58:59 1514563139.401951: $GPGSA,A,3,10,13,15,18,20,21,24,27,32,8,138,,1.7,1.0,1.3*38
