2017-11-16 13:52:31 1510858351.006962: {"class":"VERSION","release":"3.17","rev":"3.17","proto_major":3,"proto_minor":12}
2017-11-16 13:52:31 1510858351.007403: {"class":"DEVICES","devices":[{"class":"DEVICE","path":"/dev/ttyUSB0","driver":"SiRF","subtype":"9\u0006GSD4e_4.1.2-P1_RPATCH.05-F-GPS-4R-1510281 11/03/2015 307","activated":"2017-11-16T18:52:30.511Z","flags":1,"native":1,"bps":4800,"parity":"N","stopbits":1,"cycle":1.00}]}
2017-11-16 13:52:31 1510858351.007527: {"class":"WATCH","enable":true,"json":false,"nmea":true,"raw":0,"scaled":false,"timing":false,"split24":false,"pps":false}
2017-11-16 13:52:31 1510858351.688764: $GPGSV,3,1,11,10,34,294,40,13,16,046,45,15,47,049,51,18,64,318,48*73
2017-11-16 13:52:31 1510858351.688934: $GPGSV,3,2,11,20,40,087,48,21,73,205,47,24,45,124,45,27,19,300,36*74
2017-11-16 13:52:31 1510858351.688994: $GPGSV,3,3,11,32,12,232,32,08,02,328,24,138,38,213,44*7D
2017-11-16 13:52:31 1510858351.802043: $GPZDA,185230.00,16,11,2017,00,00*68
2017-11-16 13:52:31 1510858351.802207: $GPGGA,185230,3946.9608,N,08404.9827,W,2,11,0.80,307.13,M,-33.324,M,,*7B
2017-11-16 13:52:31 1510858351.802266: $GPRMC,185230,A,3946.9608,N,08404.9827,W,0.0000,0.000,161117,,*30
2017-11-16 13:52:31 1510858351.802322: $GPGSA,A,3,10,13,15,18,20,21,24,27,32,8,138,,1.6,0.8,1.3*30
2017-11-16 13:52:32 1510858352.427865: $GPZDA,185231.00,16,11,2017,00,00*69
2017-11-16 13:52:32 1510858352.428017: $GPGGA,185231,3946.9608,N,08404.9827,W,2,11,0.80,307.13,M,-33.324,M,,*7A
2017-11-16 13:52:32 1510858352.428078: $GPRMC,185231,A,3946.9608,N,08404.9827,W,0.0000,0.000,161117,,*31
2017-11-16 13:52:32 1510858352.428138: $GPGSA,A,3,10,13,15,18,20,21,24,27,32,8,138,,1.6,0.8,1.3*30
2017-11-16 13:52:33 1510858353.350996: $GPZDA,185232.00,16,11,2017,00,00*6A
2017-11-16 13:52:33 1510858353.351169: $GPGGA,185232,3946.9608,N,08404.9827,W,2,11,0.80,307.13,M,-33.324,M,,*79
2017-11-16 13:52:33 1510858353.351232: $GPRMC,185232,A,3946.9608,N,08404.9827,W,0.0000,0.000,161117,,*32
2017-11-16 13:52:33 1510858353.351289: $GPGSA,A,3,10,13,15,18,20,21,24,27,32,8,138,,1.6,0.8,1.3*30
2017-11-16 13:52:34 1510858354.686876: $GPGSV,3,1,11,10,34,294,40,13,16,046,45,15,47,049,51,18,64,318,48*73
2017-11-16 13:52:34 1510858354.687062: $GPGSV,3,2,11,20,40,087,48,21,73,205,47,24,45,124,45,27,19,300,37*75
2017-11-16 13:52:34 1510858354.687126: $GPGSV,3,3,11,32,12,232,32,08,02,328,23,138,38,213,44*7A
2017-11-16 13:52:34 1510858354.800168: $GPZDA,185233.00,16,11,2017,00,00*6B
2017-11-16 13:52:34 1510858354.800378: $GPGGA,185233,3946.9608,N,08404.9827,W,2,11,0.80,307.13,M,-33.324,M,,*78
2017-11-16 13:52:34 1510858354.800454: $GPRMC,185233,A,3946.9608,N,08404.9827,W,0.0000,0.000,161117,,*33
2017-11-16 13:52:34 1510858354.800513: $GPGSA,A,3,10,13,15,18,20,21,24,27,32,8,138,,1.6,0.8,1.3*30
2017-11-16 13:52:35 1510858355.377336: $GPZDA,185234.00,16,11,2017,00,00*6C
2017-11-16 13:52:35 1510858355.377517: $GPGGA,185234,3946.9608,N,08404.9827,W,2,11,0.80,307.13,M,-33.324,M,,*7F
2017-11-16 13:52:35 1510858355.377582: $GPRMC,185234,A,3946.9608,N,08404.9827,W,0.0000,0.000,161117,,*34
2017-11-16 13:52:35 1510858355.377640: $GPGSA,A,3,10,13,15,18,20,21,24,27,32,8,138,,1.6,0.8,1.3*30
2017-11-16 13:52:36 1510858356.372045: $GPZDA,185235.00,16,11,2017,00,00*6D
2017-11-16 13:52:36 1510858356.372223: $GPGGA,185235,3946.9608,N,08404.9827,W,2,11,0.80,307.13,M,-33.324,M,,*7E
2017-11-16 13:52:36 1510858356.372289: $GPRMC,185235,A,3946.9608,N,08404.9827,W,0.0000,0.000,161117,,*35
2017-11-16 13:52:36 1510858356.372348: $GPGSA,A,3,10,13,15,18,20,21,24,27,32,8,138,,1.6,0.8,1.3*30
2017-11-16 13:52:37 1510858357.687456: $GPGSV,3,1,11,10,34,294,40,13,16,046,45,15,47,049,51,18,64,318,48*73
2017-11-16 13:52:37 1510858357.687640: $GPGSV,3,2,11,20,40,087,48,21,73,205,47,24,45,124,45,27,19,300,38*7A
2017-11-16 13:52:37 1510858357.687721: $GPGSV,3,3,11,32,12,232,31,08,02,328,00,138,38,213,44*78
2017-11-16 13:52:37 1510858357.800773: $GPZDA,185236.00,16,11,2017,00,00*6E
2017-11-16 13:52:37 1510858357.800928: $GPGGA,185236,3946.9608,N,08404.9827,W,2,10,0.80,307.13,M,-33.324,M,,*7C
2017-11-16 13:52:37 1510858357.801060: $GPRMC,185236,A,3946.9608,N,08404.9827,W,0.0000,0.000,161117,,*36
2017-11-16 13:52:37 1510858357.801120: $GPGSA,A,3,10,13,15,18,20,21,24,27,32,138,,,1.6,0.8,1.3*08
2017-11-16 13:52:38 1510858358.376691: $GPZDA,185237.00,16,11,2017,00,00*6F
2017-11-16 13:52:38 1510858358.376856: $GPGGA,185237,3946.9608,N,08404.9827,W,2,10,0.80,307.13,M,-33.324,M,,*7D
2017-11-16 13:52:38 1510858358.376919: $GPRMC,185237,A,3946.9608,N,08404.9827,W,0.0000,0.000,161117,,*37
2017-11-16 13:52:38 1510858358.376975: $GPGSA,A,3,10,13,15,18,20,21,24,27,32,138,,,1.6,0.8,1.3*08
2017-11-16 13:52:39 1510858359.378878: $GPZDA,185238.00,16,11,2017,00,00*60
2017-11-16 13:52:39 1510858359.379054: $GPGGA,185238,3946.9608,N,08404.9827,W,2,10,0.80,307.13,M,-33.324,M,,*72
2017-11-16 13:52:39 1510858359.379136: $GPRMC,185238,A,3946.9608,N,08404.9827,W,0.0000,0.000,161117,,*38
2017-11-16 13:52:39 1510858359.379193: $GPGSA,A,3,10,13,15,18,20,21,24,27,32,138,,,1.6,0.8,1.3*08
2017-11-16 13:52:40 1510858360.688533: $GPGSV,3,1,11,10,34,294,37,13,16,046,45,15,47,049,51,18,64,318,49*72
2017-11-16 13:52:40 1510858360.688712: $GPGSV,3,2,11,20,40,087,48,21,73,205,47,24,45,124,45,27,19,300,38*7A
2017-11-16 13:52:40 1510858360.688776: $GPGSV,3,3,11,32,12,232,31,08,02,328,21,138,38,213,44*7B
2017-11-16 13:52:40 1510858360.801875: $GPZDA,185239.00,16,11,2017,00,00*61
2017-11-16 13:52:40 1510858360.802032: $GPGGA,185239,3946.9608,N,08404.9827,W,2,11,0.80,307.13,M,-33.324,M,,*72
2017-11-16 13:52:40 1510858360.802094: $GPRMC,185239,A,3946.9608,N,08404.9827,W,0.0000,0.000,161117,,*39
2017-11-16 13:52:40 1510858360.802168: $GPGSA,A,3,10,13,15,18,20,21,24,27,32,8,138,,1.6,0.8,1.3*30
