2017-12-29 11:42:51 1514565771.246149: {"class":"VERSION","release":"3.16","rev":"3.16-4","proto_major":3,"proto_minor":11}
2017-12-29 11:42:51 1514565771.246690: {"class":"DEVICES","devices":[{"class":"DEVICE","path":"/dev/ttyUSB0","driver":"SiRF","subtype":"9\u0006GSD4e_4.1.2-P1_RPATCH.05-F-GPS-4R-1510281 11/03/2015 307","activated":"2017-12-29T16:42:51.246Z","flags":1,"native":1,"bps":4800,"parity":"N","stopbits":1,"cycle":1.00}]}
2017-12-29 11:42:51 1514565771.246821: {"class":"WATCH","enable":true,"json":false,"nmea":true,"raw":0,"scaled":false,"timing":false,"split24":false,"pps":false}
2017-12-29 11:42:51 1514565771.360108: $GPZDA,164252.02,29,12,2017,00,00*6E
2017-12-29 11:42:51 1514565771.360263: $GPGGA,164252,3946.9640,N,08404.9889,W,2,10,1.00,310.90,M,-33.324,M,,*7D
2017-12-29 11:42:51 1514565771.360329: $GPRMC,164252,A,3946.9640,N,08404.9889,W,0.0407,142.014,291217,,*3D
2017-12-29 11:42:51 1514565771.360390: $GPGSA,A,3,8,10,15,18,20,21,24,27,32,138,,,1.7,1.0,1.3*3A
2017-12-29 11:42:52 1514565772.357113: $GPZDA,164253.02,29,12,2017,00,00*6F
2017-12-29 11:42:52 1514565772.357278: $GPGGA,164253,3946.9640,N,08404.9889,W,2,10,1.00,310.90,M,-33.324,M,,*7C
2017-12-29 11:42:52 1514565772.357349: $GPRMC,164253,A,3946.9640,N,08404.9889,W,0.0000,0.000,291217,,*3D
2017-12-29 11:42:52 1514565772.357433: $GPGSA,A,3,8,10,15,18,20,21,24,27,32,138,,,1.7,1.0,1.3*3A
2017-12-29 11:42:53 1514565773.695380: $GPGSV,3,1,11,08,08,313,34,10,51,310,46,15,27,057,48,18,77,016,45*78
2017-12-29 11:42:53 1514565773.695548: $GPGSV,3,2,11,20,26,105,49,21,51,183,47,24,53,090,51,27,16,277,37*70
2017-12-29 11:42:53 1514565773.695616: $GPGSV,3,3,11,32,31,246,33,14,12,238,34,138,38,213,45*72
2017-12-29 11:42:53 1514565773.808706: $GPZDA,164254.00,29,12,2017,00,00*6A
2017-12-29 11:42:53 1514565773.808832: $GPGGA,164254,3946.9640,N,08404.9889,W,2,11,0.80,310.90,M,-33.324,M,,*73
2017-12-29 11:42:53 1514565773.808897: $GPRMC,164254,A,3946.9640,N,08404.9889,W,0.2422,93.794,291217,,*0C
2017-12-29 11:42:53 1514565773.808958: $GPGSA,A,3,8,10,15,18,20,21,24,27,32,14,138,,1.7,0.8,1.3*36
2017-12-29 11:42:54 1514565774.358364: $GPZDA,164255.00,29,12,2017,00,00*6B
2017-12-29 11:42:54 1514565774.358543: $GPGGA,164255,3946.9640,N,08404.9889,W,2,11,0.80,310.90,M,-33.324,M,,*72
2017-12-29 11:42:54 1514565774.358609: $GPRMC,164255,A,3946.9640,N,08404.9889,W,0.0000,0.000,291217,,*3B
2017-12-29 11:42:54 1514565774.358671: $GPGSA,A,3,8,10,15,18,20,21,24,27,32,14,138,,1.7,0.8,1.3*36
2017-12-29 11:42:55 1514565775.362544: $GPZDA,164256.00,29,12,2017,00,00*68
2017-12-29 11:42:55 1514565775.362719: $GPGGA,164256,3946.9640,N,08404.9889,W,2,11,1.00,310.90,M,-33.324,M,,*78
2017-12-29 11:42:55 1514565775.362788: $GPRMC,164256,A,3946.9640,N,08404.9889,W,0.0000,0.000,291217,,*38
2017-12-29 11:42:55 1514565775.362850: $GPGSA,A,3,8,10,15,18,20,21,24,27,32,14,138,,1.7,1.0,1.3*3F
2017-12-29 11:42:56 1514565776.697043: $GPGSV,3,1,11,08,08,313,34,10,51,310,45,15,27,057,48,18,77,016,45*7B
2017-12-29 11:42:56 1514565776.697226: $GPGSV,3,2,11,20,26,105,49,21,51,183,47,24,53,090,51,27,16,277,37*70
2017-12-29 11:42:56 1514565776.697295: $GPGSV,3,3,11,32,31,246,36,14,12,238,24,138,38,213,46*75
2017-12-29 11:42:56 1514565776.810397: $GPZDA,164257.00,29,12,2017,00,00*69
2017-12-29 11:42:56 1514565776.810550: $GPGGA,164257,3946.9636,N,08404.9890,W,2,11,0.80,311.66,M,-33.324,M,,*71
2017-12-29 11:42:56 1514565776.810617: $GPRMC,164257,A,3946.9636,N,08404.9890,W,0.0000,0.000,291217,,*30
2017-12-29 11:42:56 1514565776.810679: $GPGSA,A,3,8,10,15,18,20,21,24,27,32,14,138,,1.7,0.8,1.3*36
2017-12-29 11:42:57 1514565777.360357: $GPZDA,164258.00,29,12,2017,00,00*66
2017-12-29 11:42:57 1514565777.360517: $GPGGA,164258,3946.9636,N,08404.9890,W,2,11,0.80,311.66,M,-33.324,M,,*7E
2017-12-29 11:42:57 1514565777.360583: $GPRMC,164258,A,3946.9636,N,08404.9890,W,0.0000,0.000,291217,,*3F
2017-12-29 11:42:57 1514565777.360645: $GPGSA,A,3,8,10,15,18,20,21,24,27,32,14,138,,1.7,0.8,1.3*36
2017-12-29 11:42:58 1514565778.358370: $GPZDA,164259.00,29,12,2017,00,00*67
2017-12-29 11:42:58 1514565778.358542: $GPGGA,164259,3946.9636,N,08404.9890,W,2,11,0.80,311.66,M,-33.324,M,,*7F
2017-12-29 11:42:58 1514565778.358664: $GPRMC,164259,A,3946.9636,N,08404.9890,W,0.0000,0.000,291217,,*3E
2017-12-29 11:42:58 1514565778.358727: $GPGSA,A,3,8,10,15,18,20,21,24,27,32,14,138,,1.7,0.8,1.3*36
2017-12-29 11:42:59 1514565779.695374: $GPGSV,3,1,11,08,08,313,34,10,51,310,45,15,27,057,48,18,77,016,45*7B
2017-12-29 11:42:59 1514565779.695536: $GPGSV,3,2,11,20,26,105,49,21,51,183,47,24,53,090,51,27,16,277,37*70
2017-12-29 11:42:59 1514565779.695603: $GPGSV,3,3,11,32,31,246,36,14,12,238,31,138,38,213,45*72
2017-12-29 11:42:59 1514565779.808820: $GPZDA,164300.00,29,12,2017,00,00*6A
2017-12-29 11:42:59 1514565779.808975: $GPGGA,164300,3946.9636,N,08404.9890,W,2,11,0.80,311.66,M,-33.324,M,,*72
2017-12-29 11:42:59 1514565779.809040: $GPRMC,164300,A,3946.9636,N,08404.9890,W,0.0000,0.000,291217,,*33
2017-12-29 11:42:59 1514565779.809100: $GPGSA,A,3,8,10,15,18,20,21,24,27,32,14,138,,1.7,0.8,1.3*36
2017-12-29 11:43:00 1514565780.435696: $GPZDA,164301.00,29,12,2017,00,00*6B
2017-12-29 11:43:00 1514565780.435868: $GPGGA,164301,3946.9636,N,08404.9883,W,2,11,0.80,311.74,M,-33.324,M,,*72
2017-12-29 11:43:00 1514565780.435934: $GPRMC,164301,A,3946.9636,N,08404.9883,W,0.0000,0.000,291217,,*30
2017-12-29 11:43:00 1514565780.435996: $GPGSA,A,3,8,10,15,18,20,21,24,27,32,14,138,,1.7,0.8,1.3*36
2017-12-29 11:43:01 1514565781.361282: $GPZDA,164302.00,29,12,2017,00,00*68
2017-12-29 11:43:01 1514565781.361455: $GPGGA,164302,3946.9636,N,08404.9883,W,2,11,0.80,311.74,M,-33.324,M,,*71
2017-12-29 11:43:01 1514565781.361520: $GPRMC,164302,A,3946.9636,N,08404.9883,W,0.0000,0.000,291217,,*33
2017-12-29 11:43:01 1514565781.361581: $GPGSA,A,3,8,10,15,18,20,21,24,27,32,14,138,,1.7,0.8,1.3*36
2017-12-29 11:43:02 1514565782.694514: $GPGSV,3,1,11,08,08,313,34,10,51,310,45,15,27,057,48,18,77,016,45*7B
2017-12-29 11:43:02 1514565782.694694: $GPGSV,3,2,11,20,26,105,49,21,51,183,47,24,53,090,51,27,16,277,36*71
2017-12-29 11:43:02 1514565782.694759: $GPGSV,3,3,11,32,31,246,36,14,12,238,33,138,38,213,45*70
2017-12-29 11:43:02 1514565782.808148: $GPZDA,164303.00,29,12,2017,00,00*69
2017-12-29 11:43:02 1514565782.808306: $GPGGA,164303,3946.9636,N,08404.9883,W,2,11,0.80,311.74,M,-33.324,M,,*70
2017-12-29 11:43:02 1514565782.808373: $GPRMC,164303,A,3946.9636,N,08404.9883,W,0.0000,0.000,291217,,*32
2017-12-29 11:43:02 1514565782.808434: $GPGSA,A,3,8,10,15,18,20,21,24,27,32,14,138,,1.7,0.8,1.3*36
2017-12-29 11:43:03 1514565783.360375: $GPZDA,164304.00,29,12,2017,00,00*6E
2017-12-29 11:43:03 1514565783.360546: $GPGGA,164304,3946.9636,N,08404.9883,W,2,11,0.80,311.74,M,-33.324,M,,*77
2017-12-29 11:43:03 1514565783.360612: $GPRMC,164304,A,3946.9636,N,08404.9883,W,0.0000,0.000,291217,,*35
2017-12-29 11:43:03 1514565783.360673: $GPGSA,A,3,8,10,15,18,20,21,24,27,32,14,138,,1.7,0.8,1.3*36
2017-12-29 11:43:04 1514565784.359620: $GPZDA,164305.00,29,12,2017,00,00*6F
2017-12-29 11:43:04 1514565784.359775: $GPGGA,164305,3946.9636,N,08404.9883,W,2,11,0.80,311.74,M,-33.324,M,,*76
2017-12-29 11:43:04 1514565784.359842: $GPRMC,164305,A,3946.9636,N,08404.9883,W,0.0000,0.000,291217,,*34
2017-12-29 11:43:04 1514565784.359903: $GPGSA,A,3,8,10,15,18,20,21,24,27,32,14,138,,1.7,0.8,1.3*36
2017-12-29 11:43:05 1514565785.691135: $GPGSV,3,1,11,08,08,313,30,10,51,310,45,15,27,057,48,18,77,016,45*7F
2017-12-29 11:43:05 1514565785.691321: $GPGSV,3,2,11,20,26,105,49,21,51,183,47,24,53,090,51,27,16,277,35*72
2017-12-29 11:43:05 1514565785.691388: $GPGSV,3,3,11,32,31,246,35,14,12,238,34,138,38,213,45*74
2017-12-29 11:43:05 1514565785.804527: $GPZDA,164306.00,29,12,2017,00,00*6C
2017-12-29 11:43:05 1514565785.804699: $GPGGA,164306,3946.9636,N,08404.9883,W,2,11,0.80,311.74,M,-33.324,M,,*75
2017-12-29 11:43:05 1514565785.804765: $GPRMC,164306,A,3946.9636,N,08404.9883,W,0.0000,0.000,291217,,*37
2017-12-29 11:43:05 1514565785.804827: $GPGSA,A,3,8,10,15,18,20,21,24,27,32,14,138,,1.7,0.8,1.3*36
