2017-12-01 14:19:28 1512155968.826930: {"class":"VERSION","release":"3.16","rev":"3.16-4","proto_major":3,"proto_minor":11}
2017-12-01 14:19:28 1512155968.828015: {"class":"DEVICES","devices":[{"class":"DEVICE","path":"/dev/ttyUSB0","driver":"SiRF","subtype":"9\u0006GSD4e_4.1.2-P1_RPATCH.05-F-GPS-4R-1510281 11/03/2015 307","activated":"2017-12-01T19:19:28.429Z","flags":1,"native":1,"bps":4800,"parity":"N","stopbits":1,"cycle":1.00}]}
2017-12-01 14:19:28 1512155968.828154: {"class":"WATCH","enable":true,"json":false,"nmea":true,"raw":0,"scaled":false,"timing":false,"split24":false,"pps":false}
2017-12-01 14:19:29 1512155969.032750: $GPZDA,191929.72,01,12,2017,00,00*6E
2017-12-01 14:19:29 1512155969.032921: $GPGGA,191929,3946.9563,N,08404.9779,W,1,12,1.40,340.45,M,-33.324,M,,*7A
2017-12-01 14:19:29 1512155969.032990: $GPRMC,191929,A,3946.9563,N,08404.9779,W,0.7159,222.467,011217,,*34
2017-12-01 14:19:29 1512155969.033052: $GPGSA,A,3,10,14,15,18,21,24,27,32,8,12,20,138,2.0,1.4,1.5*3A
2017-12-01 14:19:30 1512155970.136239: $GPZDA,191930.41,01,12,2017,00,00*66
2017-12-01 14:19:30 1512155970.136434: $GPGGA,191930,3946.9538,N,08404.9832,W,1,12,1.40,330.36,M,-33.324,M,,*7F
2017-12-01 14:19:30 1512155970.136504: $GPRMC,191930,A,3946.9538,N,08404.9832,W,0.2472,30.447,011217,,*08
2017-12-01 14:19:30 1512155970.136566: $GPGSA,A,3,10,14,15,18,21,24,27,32,8,12,20,138,2.0,1.4,1.5*3A
2017-12-01 14:19:30 1512155970.136625: $GPGBS,191930,10.70,M,15.43,M,35.28,M*04
2017-12-01 14:19:31 1512155971.302600: $GPGSV,3,1,12,10,68,328,50,14,28,252,39,18,72,090,43,21,30,180,46*72
2017-12-01 14:19:31 1512155971.302839: $GPGSV,3,2,12,24,46,060,48,27,07,261,34,32,45,264,45,08,06,295,05*71
2017-12-01 14:19:31 1512155971.302911: $GPGSV,3,3,12,12,08,108,05,20,10,117,05,15,12,066,00,138,38,213,00*4A
2017-12-01 14:19:31 1512155971.416286: $GPZDA,191931.00,01,12,2017,00,00*62
2017-12-01 14:19:31 1512155971.416454: $GPGGA,191931,3946.9546,N,08404.9840,W,1,07,1.40,322.29,M,-33.324,M,,*7B
2017-12-01 14:19:31 1512155971.416520: $GPRMC,191931,A,3946.9546,N,08404.9840,W,0.4116,56.171,011217,,*04
2017-12-01 14:19:31 1512155971.416581: $GPGSA,A,3,10,14,18,21,24,27,32,,,,,,2.0,1.4,1.5*3D
2017-12-01 14:19:31 1512155971.867174: $GPZDA,191932.00,01,12,2017,00,00*61
2017-12-01 14:19:31 1512155971.867347: $GPGGA,191932,3946.9588,N,08404.9850,W,1,07,1.00,295.83,M,-33.324,M,,*72
2017-12-01 14:19:31 1512155971.867413: $GPRMC,191932,A,3946.9588,N,08404.9850,W,0.1324,22.230,011217,,*07
2017-12-01 14:19:31 1512155971.867474: $GPGSA,A,3,10,14,18,21,24,27,32,,,,,,2.0,1.0,1.5*39
2017-12-01 14:19:32 1512155972.333087: $GPZDA,191933.00,01,12,2017,00,00*60
2017-12-01 14:19:32 1512155972.333263: $GPGGA,191933,3946.9588,N,08404.9850,W,1,07,1.00,295.83,M,-33.324,M,,*73
2017-12-01 14:19:32 1512155972.333331: $GPRMC,191933,A,3946.9588,N,08404.9850,W,0.0000,0.000,011217,,*33
2017-12-01 14:19:32 1512155972.333392: $GPGSA,A,3,10,14,18,21,24,27,32,,,,,,2.0,1.0,1.5*39
2017-12-01 14:19:33 1512155973.659174: $GPGSV,3,1,12,10,68,328,50,14,28,252,38,18,72,090,44,21,30,180,46*74
2017-12-01 14:19:33 1512155973.670251: $GPGSV,3,2,12,24,46,060,49,27,07,261,35,32,45,264,46,08,06,295,31*75
2017-12-01 14:19:33 1512155973.670370: $GPGSV,3,3,12,12,08,108,27,20,10,117,26,15,12,066,00,138,38,213,48*47
2017-12-01 14:19:33 1512155973.772716: $GPZDA,191934.00,01,12,2017,00,00*67
2017-12-01 14:19:33 1512155973.772908: $GPGGA,191934,3946.9585,N,08404.9851,W,1,11,1.00,296.59,M,-33.324,M,,*7B
2017-12-01 14:19:33 1512155973.772975: $GPRMC,191934,A,3946.9585,N,08404.9851,W,0.0000,0.000,011217,,*38
2017-12-01 14:19:33 1512155973.773036: $GPGSA,A,3,10,14,18,21,24,27,32,8,12,20,138,,2.0,1.0,1.5*3A
2017-12-01 14:19:34 1512155974.324764: $GPZDA,191935.00,01,12,2017,00,00*66
2017-12-01 14:19:34 1512155974.324938: $GPGGA,191935,3946.9578,N,08404.9846,W,1,11,1.00,299.61,M,-33.324,M,,*7A
2017-12-01 14:19:34 1512155974.325005: $GPRMC,191935,A,3946.9578,N,08404.9846,W,0.0000,0.000,011217,,*3D
2017-12-01 14:19:34 1512155974.325066: $GPGSA,A,3,10,14,18,21,24,27,32,8,12,20,138,,2.0,1.0,1.5*3A
2017-12-01 14:19:35 1512155975.325519: $GPZDA,191936.00,01,12,2017,00,00*65
2017-12-01 14:19:35 1512155975.325693: $GPGGA,191936,3946.9572,N,08404.9848,W,1,11,0.80,302.54,M,-33.324,M,,*71
2017-12-01 14:19:35 1512155975.325761: $GPRMC,191936,A,3946.9572,N,08404.9848,W,0.0000,0.000,011217,,*3A
2017-12-01 14:19:35 1512155975.325822: $GPGSA,A,3,10,14,18,21,24,27,32,8,12,20,138,,2.0,0.8,1.5*33
2017-12-01 14:19:35 1512155975.325881: $GPGBS,191936,10.70,M,15.43,M,35.28,M*02
2017-12-01 14:19:36 1512155976.662486: $GPGSV,3,1,12,10,68,328,48,14,28,252,38,18,72,090,43,21,30,180,44*78
2017-12-01 14:19:36 1512155976.662640: $GPGSV,3,2,12,24,46,060,48,27,07,261,36,32,45,264,46,08,06,295,32*74
2017-12-01 14:19:36 1512155976.662705: $GPGSV,3,3,12,12,08,108,26,20,10,117,25,15,12,066,26,138,38,213,46*4F
2017-12-01 14:19:36 1512155976.776188: $GPZDA,191937.00,01,12,2017,00,00*64
2017-12-01 14:19:36 1512155976.776352: $GPGGA,191937,3946.9587,N,08404.9847,W,1,12,0.80,302.29,M,-33.324,M,,*7C
2017-12-01 14:19:36 1512155976.776418: $GPRMC,191937,A,3946.9587,N,08404.9847,W,0.2422,93.794,011217,,*08
2017-12-01 14:19:36 1512155976.776479: $GPGSA,A,3,10,14,18,21,24,27,32,8,12,20,15,138,2.0,0.8,1.5*37
2017-12-01 14:19:37 1512155977.326626: $GPZDA,191938.00,01,12,2017,00,00*6B
2017-12-01 14:19:37 1512155977.326835: $GPGGA,191938,3946.9587,N,08404.9847,W,1,12,0.80,302.29,M,-33.324,M,,*73
2017-12-01 14:19:37 1512155977.326904: $GPRMC,191938,A,3946.9587,N,08404.9847,W,0.0000,0.000,011217,,*31
2017-12-01 14:19:37 1512155977.326966: $GPGSA,A,3,10,14,18,21,24,27,32,8,12,20,15,138,2.0,0.8,1.5*37
2017-12-01 14:19:38 1512155978.325769: $GPZDA,191939.00,01,12,2017,00,00*6A
2017-12-01 14:19:38 1512155978.325967: $GPGGA,191939,3946.9587,N,08404.9847,W,1,12,0.80,302.29,M,-33.324,M,,*72
2017-12-01 14:19:38 1512155978.326036: $GPRMC,191939,A,3946.9587,N,08404.9847,W,0.0000,0.000,011217,,*30
2017-12-01 14:19:38 1512155978.326097: $GPGSA,A,3,10,14,18,21,24,27,32,8,12,20,15,138,2.0,0.8,1.5*37
2017-12-01 14:19:39 1512155979.662768: $GPGSV,3,1,12,10,68,328,49,14,28,252,38,18,72,090,43,21,30,180,44*79
2017-12-01 14:19:39 1512155979.662969: $GPGSV,3,2,12,24,46,060,49,27,07,261,35,32,45,264,46,08,06,295,33*77
2017-12-01 14:19:39 1512155979.663037: $GPGSV,3,3,12,12,08,108,26,20,10,117,24,15,12,066,27,138,38,213,46*4F
2017-12-01 14:19:39 1512155979.776152: $GPZDA,191940.00,01,12,2017,00,00*64
2017-12-01 14:19:39 1512155979.776328: $GPGGA,191940,3946.9588,N,08404.9848,W,1,12,0.80,303.69,M,-33.324,M,,*79
2017-12-01 14:19:39 1512155979.776396: $GPRMC,191940,A,3946.9588,N,08404.9848,W,0.0000,0.000,011217,,*3E
2017-12-01 14:19:39 1512155979.776457: $GPGSA,A,3,10,14,18,21,24,27,32,8,12,20,15,138,2.0,0.8,1.5*37
2017-12-01 14:19:40 1512155980.327022: $GPZDA,191941.00,01,12,2017,00,00*65
2017-12-01 14:19:40 1512155980.327216: $GPGGA,191941,3946.9588,N,08404.9848,W,2,12,2.00,303.69,M,-33.324,M,,*71
2017-12-01 14:19:40 1512155980.327284: $GPRMC,191941,A,3946.9588,N,08404.9848,W,0.0000,0.000,011217,,*3F
2017-12-01 14:19:40 1512155980.327346: $GPGSA,A,3,10,14,18,21,24,27,32,8,12,20,15,138,2.0,2.0,1.5*3D
2017-12-01 14:19:41 1512155981.327892: $GPZDA,191942.00,01,12,2017,00,00*66
2017-12-01 14:19:41 1512155981.328064: $GPGGA,191942,3946.9588,N,08404.9848,W,2,12,0.80,303.69,M,-33.324,M,,*78
2017-12-01 14:19:41 1512155981.328132: $GPRMC,191942,A,3946.9588,N,08404.9848,W,0.0000,0.000,011217,,*3C
2017-12-01 14:19:41 1512155981.328192: $GPGSA,A,3,10,14,18,21,24,27,32,8,12,20,15,138,2.0,0.8,1.5*37
2017-12-01 14:19:42 1512155982.662379: $GPGSV,3,1,12,10,68,328,48,14,28,252,39,18,72,090,44,21,30,180,44*7E
2017-12-01 14:19:42 1512155982.662526: $GPGSV,3,2,12,24,46,060,50,27,07,261,34,32,45,264,46,08,06,295,38*75
2017-12-01 14:19:42 1512155982.662591: $GPGSV,3,3,12,12,08,108,26,20,10,117,24,15,12,066,23,138,38,213,47*4A
2017-12-01 14:19:42 1512155982.775745: $GPZDA,191943.00,01,12,2017,00,00*67
2017-12-01 14:19:42 1512155982.775942: $GPGGA,191943,3946.9584,N,08404.9848,W,2,12,0.80,304.46,M,-33.324,M,,*7F
2017-12-01 14:19:42 1512155982.776008: $GPRMC,191943,A,3946.9584,N,08404.9848,W,0.0000,0.000,011217,,*31
2017-12-01 14:19:42 1512155982.776118: $GPGSA,A,3,10,14,18,21,24,27,32,8,12,20,15,138,2.0,0.8,1.5*37
2017-12-01 14:19:43 1512155983.401706: $GPZDA,191944.00,01,12,2017,00,00*60
2017-12-01 14:19:43 1512155983.401913: $GPGGA,191944,3946.9584,N,08404.9848,W,2,12,0.80,304.46,M,-33.324,M,,*78
2017-12-01 14:19:43 1512155983.401979: $GPRMC,191944,A,3946.9584,N,08404.9848,W,0.0000,0.000,011217,,*36
2017-12-01 14:19:43 1512155983.402054: $GPGSA,A,3,10,14,18,21,24,27,32,8,12,20,15,138,2.0,0.8,1.5*37
2017-12-01 14:19:44 1512155984.327267: $GPZDA,191945.00,01,12,2017,00,00*61
2017-12-01 14:19:44 1512155984.327436: $GPGGA,191945,3946.9581,N,08404.9849,W,2,12,0.80,305.22,M,-33.324,M,,*7E
2017-12-01 14:19:44 1512155984.327503: $GPRMC,191945,A,3946.9581,N,08404.9849,W,0.0000,0.000,011217,,*33
2017-12-01 14:19:44 1512155984.327565: $GPGSA,A,3,10,14,18,21,24,27,32,8,12,20,15,138,2.0,0.8,1.5*37
2017-12-01 14:19:45 1512155985.663990: $GPGSV,3,1,12,10,68,328,48,14,28,252,40,18,72,090,44,21,30,180,45*71
2017-12-01 14:19:45 1512155985.664210: $GPGSV,3,2,12,24,46,060,50,27,07,261,34,32,45,264,45,08,06,295,37*79
2017-12-01 14:19:45 1512155985.664279: $GPGSV,3,3,12,12,08,108,26,20,10,117,24,15,12,066,26,138,38,213,46*4E
2017-12-01 14:19:45 1512155985.777678: $GPZDA,191946.00,01,12,2017,00,00*62
2017-12-01 14:19:45 1512155985.777859: $GPGGA,191946,3946.9585,N,08404.9849,W,2,12,0.80,305.86,M,-33.324,M,,*77
2017-12-01 14:19:45 1512155985.777926: $GPRMC,191946,A,3946.9585,N,08404.9849,W,0.0000,0.000,011217,,*34
2017-12-01 14:19:45 1512155985.777987: $GPGSA,A,3,10,14,18,21,24,27,32,8,12,20,15,138,2.0,0.8,1.5*37
2017-12-01 14:19:46 1512155986.328253: $GPZDA,191947.00,01,12,2017,00,00*63
2017-12-01 14:19:46 1512155986.328419: $GPGGA,191947,3946.9585,N,08404.9849,W,2,12,0.80,305.86,M,-33.324,M,,*76
2017-12-01 14:19:46 1512155986.328485: $GPRMC,191947,A,3946.9585,N,08404.9849,W,0.0000,0.000,011217,,*35
2017-12-01 14:19:46 1512155986.328547: $GPGSA,A,3,10,14,18,21,24,27,32,8,12,20,15,138,2.0,0.8,1.5*37
2017-12-01 14:19:47 1512155987.329044: $GPZDA,191948.00,01,12,2017,00,00*6C
2017-12-01 14:19:47 1512155987.329219: $GPGGA,191948,3946.9582,N,08404.9850,W,2,12,0.80,306.63,M,-33.324,M,,*7E
2017-12-01 14:19:47 1512155987.329288: $GPRMC,191948,A,3946.9582,N,08404.9850,W,0.0000,0.000,011217,,*35
2017-12-01 14:19:47 1512155987.329349: $GPGSA,A,3,10,14,18,21,24,27,32,8,12,20,15,138,2.0,0.8,1.5*37
2017-12-01 14:19:47 1512155987.329408: $GPGBS,191948,2.67,M,3.86,M,8.82,M*3E
2017-12-01 14:19:48 1512155988.662996: $GPGSV,3,1,12,10,68,328,48,14,28,252,40,18,72,090,44,21,30,180,45*71
2017-12-01 14:19:48 1512155988.663158: $GPGSV,3,2,12,24,46,060,50,27,07,261,34,32,45,264,46,08,06,295,38*75
2017-12-01 14:19:48 1512155988.663226: $GPGSV,3,3,12,12,08,108,26,20,10,117,22,15,12,066,26,138,38,213,45*4B
2017-12-01 14:19:48 1512155988.776315: $GPZDA,191949.00,01,12,2017,00,00*6D
2017-12-01 14:19:48 1512155988.776493: $GPGGA,191949,3946.9581,N,08404.9843,W,2,12,0.80,306.71,M,-33.324,M,,*7D
2017-12-01 14:19:48 1512155988.776562: $GPRMC,191949,A,3946.9581,N,08404.9843,W,0.0000,0.000,011217,,*35
2017-12-01 14:19:48 1512155988.776650: $GPGSA,A,3,10,14,18,21,24,27,32,8,12,20,15,138,2.0,0.8,1.5*37
