2017-11-16 14:30:46 1510860646.845554: {"class":"VERSION","release":"3.17","rev":"3.17","proto_major":3,"proto_minor":12}
2017-11-16 14:30:46 1510860646.846008: {"class":"DEVICES","devices":[{"class":"DEVICE","path":"/dev/ttyUSB0","driver":"SiRF","subtype":"9\u0006GSD4e_4.1.2-P1_RPATCH.05-F-GPS-4R-1510281 11/03/2015 307","activated":"2017-11-16T19:30:46.656Z","flags":1,"native":1,"bps":4800,"parity":"N","stopbits":1,"cycle":1.00}]}
2017-11-16 14:30:46 1510860646.846127: {"class":"WATCH","enable":true,"json":false,"nmea":true,"raw":0,"scaled":false,"timing":false,"split24":false,"pps":false}
2017-11-16 14:30:47 1510860647.545285: $GPZDA,193046.00,16,11,2017,00,00*6C
2017-11-16 14:30:47 1510860647.545453: $GPGGA,193046,3946.9564,N,08404.9849,W,2,12,0.80,302.66,M,-33.324,M,,*7A
2017-11-16 14:30:47 1510860647.545513: $GPRMC,193046,A,3946.9564,N,08404.9849,W,0.0000,0.000,161117,,*35
2017-11-16 14:30:47 1510860647.545569: $GPGSA,A,3,8,10,13,15,18,21,20,24,27,32,14,138,1.6,0.8,1.3*35
2017-11-16 14:30:48 1510860648.882222: $GPGSV,3,1,12,08,08,315,32,10,48,307,46,13,01,051,00,15,30,055,50*70
2017-11-16 14:30:48 1510860648.882396: $GPGSV,3,2,12,18,75,358,46,21,55,186,44,20,27,102,46,24,53,096,49*74
2017-11-16 14:30:48 1510860648.882456: $GPGSV,3,3,12,27,17,282,41,32,27,243,44,14,10,237,38,138,38,213,43*4A
2017-11-16 14:30:48 1510860648.995552: $GPZDA,193047.00,16,11,2017,00,00*6D
2017-11-16 14:30:48 1510860648.995719: $GPGGA,193047,3946.9564,N,08404.9849,W,2,11,0.80,302.66,M,-33.324,M,,*78
2017-11-16 14:30:48 1510860648.995780: $GPRMC,193047,A,3946.9564,N,08404.9849,W,0.0000,0.000,161117,,*34
2017-11-16 14:30:48 1510860648.995836: $GPGSA,A,3,8,10,15,18,21,20,24,27,32,14,138,,1.6,0.8,1.3*37
2017-11-16 14:30:49 1510860649.621089: $GPZDA,193048.00,16,11,2017,00,00*62
2017-11-16 14:30:49 1510860649.621260: $GPGGA,193048,3946.9564,N,08404.9849,W,2,11,0.80,302.66,M,-33.324,M,,*77
2017-11-16 14:30:49 1510860649.621321: $GPRMC,193048,A,3946.9564,N,08404.9849,W,0.0000,0.000,161117,,*3B
2017-11-16 14:30:49 1510860649.621377: $GPGSA,A,3,8,10,15,18,21,20,24,27,32,14,138,,1.6,0.8,1.3*37
2017-11-16 14:30:50 1510860650.545580: $GPZDA,193049.00,16,11,2017,00,00*63
2017-11-16 14:30:50 1510860650.545741: $GPGGA,193049,3946.9564,N,08404.9849,W,2,11,0.80,302.66,M,-33.324,M,,*76
2017-11-16 14:30:50 1510860650.545802: $GPRMC,193049,A,3946.9564,N,08404.9849,W,0.0000,0.000,161117,,*3A
2017-11-16 14:30:50 1510860650.545858: $GPGSA,A,3,8,10,15,18,21,20,24,27,32,14,138,,1.6,0.8,1.3*37
2017-11-16 14:30:51 1510860651.881596: $GPGSV,3,1,12,08,08,315,26,10,48,307,48,13,01,051,00,15,30,055,50*7B
2017-11-16 14:30:51 1510860651.881791: $GPGSV,3,2,12,18,75,358,46,21,55,186,44,20,27,102,46,24,53,096,49*74
2017-11-16 14:30:51 1510860651.881862: $GPGSV,3,3,12,27,17,282,41,32,27,243,44,14,10,237,38,138,38,213,44*4D
2017-11-16 14:30:51 1510860651.994811: $GPZDA,193050.00,16,11,2017,00,00*6B
2017-11-16 14:30:51 1510860651.994973: $GPGGA,193050,3946.9564,N,08404.9849,W,2,11,0.80,302.66,M,-33.324,M,,*7E
2017-11-16 14:30:51 1510860651.995033: $GPRMC,193050,A,3946.9564,N,08404.9849,W,0.0000,0.000,161117,,*32
2017-11-16 14:30:51 1510860651.995089: $GPGSA,A,3,8,10,15,18,21,20,24,27,32,14,138,,1.6,0.8,1.3*37
2017-11-16 14:30:52 1510860652.510986: $GPZDA,193051.00,16,11,2017,00,00*6A
2017-11-16 14:30:52 1510860652.511153: $GPGGA,193051,3946.9564,N,08404.9849,W,2,11,0.80,302.66,M,-33.324,M,,*7F
2017-11-16 14:30:52 1510860652.511223: $GPRMC,193051,A,3946.9564,N,08404.9849,W,0.0000,0.000,161117,,*33
2017-11-16 14:30:52 1510860652.511289: $GPGSA,A,3,8,10,15,18,21,20,24,27,32,14,138,,1.6,0.8,1.3*37
2017-11-16 14:30:53 1510860653.511954: $GPZDA,193052.00,16,11,2017,00,00*69
2017-11-16 14:30:53 1510860653.512125: $GPGGA,193052,3946.9564,N,08404.9849,W,2,11,0.80,302.66,M,-33.324,M,,*7C
2017-11-16 14:30:53 1510860653.512186: $GPRMC,193052,A,3946.9564,N,08404.9849,W,0.0000,0.000,161117,,*30
2017-11-16 14:30:53 1510860653.512242: $GPGSA,A,3,8,10,15,18,21,20,24,27,32,14,138,,1.6,0.8,1.3*37
2017-11-16 14:30:54 1510860654.849445: $GPGSV,3,1,12,08,08,315,25,10,48,307,48,13,01,051,00,15,30,055,50*78
2017-11-16 14:30:54 1510860654.849666: $GPGSV,3,2,12,18,75,358,46,21,55,186,44,20,27,102,46,24,53,096,50*7C
2017-11-16 14:30:54 1510860654.849728: $GPGSV,3,3,12,27,17,282,42,32,27,243,45,14,10,237,38,138,38,213,43*48
2017-11-16 14:30:54 1510860654.962721: $GPZDA,193053.00,16,11,2017,00,00*68
2017-11-16 14:30:54 1510860654.962891: $GPGGA,193053,3946.9564,N,08404.9849,W,2,11,0.80,302.66,M,-33.324,M,,*7D
2017-11-16 14:30:54 1510860654.962952: $GPRMC,193053,A,3946.9564,N,08404.9849,W,0.0000,0.000,161117,,*31
2017-11-16 14:30:54 1510860654.963006: $GPGSA,A,3,8,10,15,18,21,20,24,27,32,14,138,,1.6,0.8,1.3*37
2017-11-16 14:30:55 1510860655.546125: $GPZDA,193054.00,16,11,2017,00,00*6F
2017-11-16 14:30:55 1510860655.546302: $GPGGA,193054,3946.9564,N,08404.9849,W,2,11,0.80,302.66,M,-33.324,M,,*7A
2017-11-16 14:30:55 1510860655.546365: $GPRMC,193054,A,3946.9564,N,08404.9849,W,0.0000,0.000,161117,,*36
2017-11-16 14:30:55 1510860655.546421: $GPGSA,A,3,8,10,15,18,21,20,24,27,32,14,138,,1.6,0.8,1.3*37
2017-11-16 14:30:56 1510860656.511386: $GPZDA,193055.00,16,11,2017,00,00*6E
2017-11-16 14:30:56 1510860656.511571: $GPGGA,193055,3946.9564,N,08404.9849,W,2,11,0.80,302.66,M,-33.324,M,,*7B
2017-11-16 14:30:56 1510860656.511664: $GPRMC,193055,A,3946.9564,N,08404.9849,W,0.0000,0.000,161117,,*37
2017-11-16 14:30:56 1510860656.511741: $GPGSA,A,3,8,10,15,18,21,20,24,27,32,14,138,,1.6,0.8,1.3*37
2017-11-16 14:30:57 1510860657.847849: $GPGSV,3,1,12,08,08,315,26,10,48,307,48,13,01,051,00,15,30,055,50*7B
2017-11-16 14:30:57 1510860657.848017: $GPGSV,3,2,12,18,75,358,45,21,55,186,44,20,27,102,46,24,53,096,51*7E
2017-11-16 14:30:57 1510860657.848078: $GPGSV,3,3,12,27,17,282,42,32,27,243,45,14,10,237,37,138,38,213,42*46
2017-11-16 14:30:57 1510860657.961308: $GPZDA,193056.00,16,11,2017,00,00*6D
2017-11-16 14:30:57 1510860657.961456: $GPGGA,193056,3946.9564,N,08404.9849,W,2,11,0.80,302.66,M,-33.324,M,,*78
2017-11-16 14:30:57 1510860657.961515: $GPRMC,193056,A,3946.9564,N,08404.9849,W,0.0000,0.000,161117,,*34
2017-11-16 14:30:57 1510860657.961570: $GPGSA,A,3,8,10,15,18,21,20,24,27,32,14,138,,1.6,0.8,1.3*37
2017-11-16 14:30:58 1510860658.510911: $GPZDA,193057.00,16,11,2017,00,00*6C
2017-11-16 14:30:58 1510860658.511098: $GPGGA,193057,3946.9564,N,08404.9849,W,2,11,0.80,302.66,M,-33.324,M,,*79
2017-11-16 14:30:58 1510860658.511162: $GPRMC,193057,A,3946.9564,N,08404.9849,W,0.0000,0.000,161117,,*35
2017-11-16 14:30:58 1510860658.511219: $GPGSA,A,3,8,10,15,18,21,20,24,27,32,14,138,,1.6,0.8,1.3*37
2017-11-16 14:30:59 1510860659.546245: $GPZDA,193058.00,16,11,2017,00,00*63
2017-11-16 14:30:59 1510860659.546415: $GPGGA,193058,3946.9564,N,08404.9849,W,2,11,0.80,302.66,M,-33.324,M,,*76
2017-11-16 14:30:59 1510860659.546478: $GPRMC,193058,A,3946.9564,N,08404.9849,W,0.0000,0.000,161117,,*3A
2017-11-16 14:30:59 1510860659.546533: $GPGSA,A,3,8,10,15,18,21,20,24,27,32,14,138,,1.6,0.8,1.3*37
2017-11-16 14:31:00 1510860660.877043: $GPGSV,3,1,12,08,08,315,32,10,48,307,49,13,01,051,00,15,30,055,50*7F
2017-11-16 14:31:00 1510860660.877213: $GPGSV,3,2,12,18,75,358,45,21,55,186,44,20,27,102,46,24,53,096,51*7E
2017-11-16 14:31:00 1510860660.877273: $GPGSV,3,3,12,27,17,282,41,32,27,243,45,14,10,237,37,138,38,213,42*45
2017-11-16 14:31:00 1510860660.990424: $GPZDA,193059.00,16,11,2017,00,00*62
2017-11-16 14:31:00 1510860660.990604: $GPGGA,193059,3946.9564,N,08404.9849,W,2,11,0.80,302.66,M,-33.324,M,,*77
2017-11-16 14:31:00 1510860660.990665: $GPRMC,193059,A,3946.9564,N,08404.9849,W,0.0000,0.000,161117,,*3B
2017-11-16 14:31:00 1510860660.990720: $GPGSA,A,3,8,10,15,18,21,20,24,27,32,14,138,,1.6,0.8,1.3*37
2017-11-16 14:31:01 1510860661.512640: $GPZDA,193100.00,16,11,2017,00,00*6F
2017-11-16 14:31:01 1510860661.512813: $GPGGA,193100,3946.9564,N,08404.9849,W,2,11,0.80,302.66,M,-33.324,M,,*7A
2017-11-16 14:31:01 1510860661.512875: $GPRMC,193100,A,3946.9564,N,08404.9849,W,0.0000,0.000,161117,,*36
2017-11-16 14:31:01 1510860661.512931: $GPGSA,A,3,8,10,15,18,21,20,24,27,32,14,138,,1.6,0.8,1.3*37
2017-11-16 14:31:02 1510860662.512230: $GPZDA,193101.00,16,11,2017,00,00*6E
2017-11-16 14:31:02 1510860662.512441: $GPGGA,193101,3946.9564,N,08404.9849,W,2,11,0.80,302.66,M,-33.324,M,,*7B
2017-11-16 14:31:02 1510860662.512503: $GPRMC,193101,A,3946.9564,N,08404.9849,W,0.0000,0.000,161117,,*37
2017-11-16 14:31:02 1510860662.512559: $GPGSA,A,3,8,10,15,18,21,20,24,27,32,14,138,,1.6,0.8,1.3*37
2017-11-16 14:31:03 1510860663.848036: $GPGSV,3,1,12,08,08,315,33,10,48,307,48,13,01,051,00,15,30,055,50*7F
2017-11-16 14:31:03 1510860663.848221: $GPGSV,3,2,12,18,75,358,45,21,55,186,44,20,27,102,45,24,53,096,50*7C
2017-11-16 14:31:03 1510860663.848282: $GPGSV,3,3,12,27,17,282,41,32,27,243,45,14,10,237,37,138,38,213,43*44
2017-11-16 14:31:03 1510860663.961481: $GPZDA,193102.00,16,11,2017,00,00*6D
2017-11-16 14:31:04 1510860664.086032: $GPGGA,193102,3946.9564,N,08404.9849,W,2,11,0.80,302.66,M,-33.324,M,,*78
2017-11-16 14:31:04 1510860664.086165: $GPRMC,193102,A,3946.9564,N,08404.9849,W,0.0000,0.000,161117,,*34
2017-11-16 14:31:04 1510860664.086226: $GPGSA,A,3,8,10,15,18,21,20,24,27,32,14,138,,1.6,0.8,1.3*37
2017-11-16 14:31:04 1510860664.586755: $GPZDA,193103.00,16,11,2017,00,00*6C
2017-11-16 14:31:04 1510860664.586933: $GPGGA,193103,3946.9564,N,08404.9849,W,2,11,0.80,302.66,M,-33.324,M,,*79
2017-11-16 14:31:04 1510860664.586995: $GPRMC,193103,A,3946.9564,N,08404.9849,W,0.0000,0.000,161117,,*35
2017-11-16 14:31:04 1510860664.587052: $GPGSA,A,3,8,10,15,18,21,20,24,27,32,14,138,,1.6,0.8,1.3*37
2017-11-16 14:31:05 1510860665.546450: $GPZDA,193104.00,16,11,2017,00,00*6B
2017-11-16 14:31:05 1510860665.546775: $GPGGA,193104,3946.9564,N,08404.9849,W,2,11,0.80,302.66,M,-33.324,M,,*7E
2017-11-16 14:31:05 1510860665.546894: $GPRMC,193104,A,3946.9564,N,08404.9849,W,0.0000,0.000,161117,,*32
2017-11-16 14:31:05 1510860665.547008: $GPGSA,A,3,8,10,15,18,21,20,24,27,32,14,138,,1.6,0.8,1.3*37
2017-11-16 14:31:06 1510860666.850984: $GPGSV,3,1,12,08,08,315,33,10,48,307,48,13,01,051,00,15,30,055,50*7F
2017-11-16 14:31:06 1510860666.851318: $GPGSV,3,2,12,18,75,358,46,21,55,186,44,20,27,102,46,24,53,096,50*7C
2017-11-16 14:31:06 1510860666.851414: $GPGSV,3,3,12,27,17,282,41,32,27,243,45,14,10,237,38,138,38,213,43*4B
2017-11-16 14:31:06 1510860666.964307: $GPZDA,193105.00,16,11,2017,00,00*6A
2017-11-16 14:31:06 1510860666.964494: $GPGGA,193105,3946.9564,N,08404.9849,W,2,11,0.80,302.66,M,-33.324,M,,*7F
2017-11-16 14:31:06 1510860666.964556: $GPRMC,193105,A,3946.9564,N,08404.9849,W,0.0000,0.000,161117,,*33
2017-11-16 14:31:06 1510860666.964635: $GPGSA,A,3,8,10,15,18,21,20,24,27,32,14,138,,1.6,0.8,1.3*37
2017-11-16 14:31:07 1510860667.547958: $GPZDA,193106.00,16,11,2017,00,00*69
2017-11-16 14:31:07 1510860667.548119: $GPGGA,193106,3946.9564,N,08404.9849,W,2,11,0.80,302.66,M,-33.324,M,,*7C
2017-11-16 14:31:07 1510860667.548181: $GPRMC,193106,A,3946.9564,N,08404.9849,W,0.0000,0.000,161117,,*30
2017-11-16 14:31:07 1510860667.548237: $GPGSA,A,3,8,10,15,18,21,20,24,27,32,14,138,,1.6,0.8,1.3*37
2017-11-16 14:31:08 1510860668.507436: $GPZDA,193107.00,16,11,2017,00,00*68
2017-11-16 14:31:08 1510860668.507603: $GPGGA,193107,3946.9564,N,08404.9849,W,2,11,0.80,302.66,M,-33.324,M,,*7D
2017-11-16 14:31:08 1510860668.507666: $GPRMC,193107,A,3946.9564,N,08404.9849,W,0.0000,0.000,161117,,*31
2017-11-16 14:31:08 1510860668.507724: $GPGSA,A,3,8,10,15,18,21,20,24,27,32,14,138,,1.6,0.8,1.3*37
2017-11-16 14:31:09 1510860669.884179: $GPGSV,3,1,12,08,08,315,33,10,48,307,48,13,01,051,00,15,30,055,50*7F
2017-11-16 14:31:09 1510860669.884365: $GPGSV,3,2,12,18,75,358,46,21,55,186,44,20,27,102,46,24,53,096,49*74
2017-11-16 14:31:09 1510860669.884428: $GPGSV,3,3,12,27,17,282,41,32,27,243,45,14,10,237,38,138,38,213,42*4A
2017-11-16 14:31:09 1510860669.997301: $GPZDA,193108.00,16,11,2017,00,00*67
2017-11-16 14:31:09 1510860669.997462: $GPGGA,193108,3946.9564,N,08404.9849,W,2,11,0.80,302.66,M,-33.324,M,,*72
2017-11-16 14:31:09 1510860669.997522: $GPRMC,193108,A,3946.9564,N,08404.9849,W,0.0000,0.000,161117,,*3E
2017-11-16 14:31:09 1510860669.997579: $GPGSA,A,3,8,10,15,18,21,20,24,27,32,14,138,,1.6,0.8,1.3*37
2017-11-16 14:31:10 1510860670.548216: $GPZDA,193109.00,16,11,2017,00,00*66
2017-11-16 14:31:10 1510860670.548391: $GPGGA,193109,3946.9564,N,08404.9849,W,2,11,0.80,302.66,M,-33.324,M,,*73
2017-11-16 14:31:10 1510860670.548473: $GPRMC,193109,A,3946.9564,N,08404.9849,W,0.0000,0.000,161117,,*3F
2017-11-16 14:31:10 1510860670.548530: $GPGSA,A,3,8,10,15,18,21,20,24,27,32,14,138,,1.6,0.8,1.3*37
2017-11-16 14:31:11 1510860671.511989: $GPZDA,193110.00,16,11,2017,00,00*6E
2017-11-16 14:31:11 1510860671.512185: $GPGGA,193110,3946.9564,N,08404.9849,W,2,11,0.80,302.66,M,-33.324,M,,*7B
2017-11-16 14:31:11 1510860671.512259: $GPRMC,193110,A,3946.9564,N,08404.9849,W,0.0000,0.000,161117,,*37
2017-11-16 14:31:11 1510860671.512318: $GPGSA,A,3,8,10,15,18,21,20,24,27,32,14,138,,1.6,0.8,1.3*37
2017-11-16 14:31:12 1510860672.849953: $GPGSV,3,1,12,08,08,315,34,10,48,307,48,13,01,051,00,15,30,055,51*79
2017-11-16 14:31:12 1510860672.850121: $GPGSV,3,2,12,18,75,358,46,21,55,186,45,20,27,102,46,24,53,096,49*75
2017-11-16 14:31:12 1510860672.850182: $GPGSV,3,3,12,27,17,282,41,32,27,243,45,14,10,237,38,138,38,213,44*4C
2017-11-16 14:31:12 1510860672.963535: $GPZDA,193111.00,16,11,2017,00,00*6F
2017-11-16 14:31:12 1510860672.963690: $GPGGA,193111,3946.9564,N,08404.9849,W,2,11,0.80,302.66,M,-33.324,M,,*7A
2017-11-16 14:31:12 1510860672.963752: $GPRMC,193111,A,3946.9564,N,08404.9849,W,0.0000,0.000,161117,,*36
2017-11-16 14:31:12 1510860672.963812: $GPGSA,A,3,8,10,15,18,21,20,24,27,32,14,138,,1.6,0.8,1.3*37
2017-11-16 14:31:13 1510860673.548199: $GPZDA,193112.00,16,11,2017,00,00*6C
2017-11-16 14:31:13 1510860673.548361: $GPGGA,193112,3946.9564,N,08404.9849,W,2,11,0.80,302.66,M,-33.324,M,,*79
2017-11-16 14:31:13 1510860673.548423: $GPRMC,193112,A,3946.9564,N,08404.9849,W,0.0000,0.000,161117,,*35
2017-11-16 14:31:13 1510860673.548479: $GPGSA,A,3,8,10,15,18,21,20,24,27,32,14,138,,1.6,0.8,1.3*37
2017-11-16 14:31:14 1510860674.512362: $GPZDA,193113.00,16,11,2017,00,00*6D
2017-11-16 14:31:14 1510860674.512524: $GPGGA,193113,3946.9564,N,08404.9849,W,2,11,0.80,302.66,M,-33.324,M,,*78
2017-11-16 14:31:14 1510860674.512587: $GPRMC,193113,A,3946.9564,N,08404.9849,W,0.0000,0.000,161117,,*34
2017-11-16 14:31:14 1510860674.512643: $GPGSA,A,3,8,10,15,18,21,20,24,27,32,14,138,,1.6,0.8,1.3*37
2017-11-16 14:31:15 1510860675.884145: $GPGSV,3,1,12,08,08,315,24,10,48,307,48,13,01,051,00,15,30,055,51*78
2017-11-16 14:31:15 1510860675.884313: $GPGSV,3,2,12,18,75,358,46,21,55,186,45,20,27,102,47,24,53,096,49*74
2017-11-16 14:31:15 1510860675.884375: $GPGSV,3,3,12,27,17,282,42,32,27,243,46,14,10,237,38,138,38,213,44*4C
2017-11-16 14:31:15 1510860675.997511: $GPZDA,193114.00,16,11,2017,00,00*6A
2017-11-16 14:31:15 1510860675.997658: $GPGGA,193114,3946.9564,N,08404.9849,W,2,11,0.80,302.66,M,-33.324,M,,*7F
2017-11-16 14:31:15 1510860675.997721: $GPRMC,193114,A,3946.9564,N,08404.9849,W,0.0000,0.000,161117,,*33
2017-11-16 14:31:15 1510860675.997778: $GPGSA,A,3,8,10,15,18,21,20,24,27,32,14,138,,1.6,0.8,1.3*37
2017-11-16 14:31:16 1510860676.548257: $GPZDA,193115.00,16,11,2017,00,00*6B
2017-11-16 14:31:16 1510860676.548416: $GPGGA,193115,3946.9564,N,08404.9849,W,2,11,0.80,302.66,M,-33.324,M,,*7E
2017-11-16 14:31:16 1510860676.548478: $GPRMC,193115,A,3946.9564,N,08404.9849,W,0.0000,0.000,161117,,*32
2017-11-16 14:31:16 1510860676.548535: $GPGSA,A,3,8,10,15,18,21,20,24,27,32,14,138,,1.6,0.8,1.3*37
