2017-12-01 15:18:45 1512159525.054590: {"class":"VERSION","release":"3.16","rev":"3.16-4","proto_major":3,"proto_minor":11}
2017-12-01 15:18:45 1512159525.054976: {"class":"DEVICES","devices":[{"class":"DEVICE","path":"/dev/ttyUSB0","driver":"SiRF","subtype":"9\u0006GSD4e_4.1.2-P1_RPATCH.05-F-GPS-4R-1510281 11/03/2015 307","activated":"2017-12-01T20:18:44.994Z","flags":1,"native":1,"bps":4800,"parity":"N","stopbits":1,"cycle":1.00}]}
2017-12-01 15:18:45 1512159525.055106: {"class":"WATCH","enable":true,"json":false,"nmea":true,"raw":0,"scaled":false,"timing":false,"split24":false,"pps":false}
2017-12-01 15:18:45 1512159525.458562: $GPZDA,201846.00,01,12,2017,00,00*69
2017-12-01 15:18:45 1512159525.458741: $GPGGA,201846,3946.9577,N,08404.9845,W,2,12,0.80,296.80,M,-33.324,M,,*70
2017-12-01 15:18:45 1512159525.458808: $GPRMC,201846,A,3946.9577,N,08404.9845,W,0.0000,0.000,011217,,*3E
2017-12-01 15:18:45 1512159525.458870: $GPGSA,A,3,10,12,14,18,24,25,31,32,1,11,21,138,2.0,0.8,1.5*38
2017-12-01 15:18:46 1512159526.399720: $GPZDA,201847.00,01,12,2017,00,00*68
2017-12-01 15:18:46 1512159526.399892: $GPGGA,201847,3946.9577,N,08404.9845,W,2,12,0.80,296.80,M,-33.324,M,,*71
2017-12-01 15:18:46 1512159526.399959: $GPRMC,201847,A,3946.9577,N,08404.9845,W,0.0000,0.000,011217,,*3F
2017-12-01 15:18:46 1512159526.400020: $GPGSA,A,3,10,12,14,18,24,25,31,32,1,11,21,138,2.0,0.8,1.5*38
2017-12-01 15:18:47 1512159527.720092: $GPGSV,3,1,12,10,81,097,46,12,22,085,43,14,46,277,43,18,49,127,48*7B
2017-12-01 15:18:47 1512159527.720274: $GPGSV,3,2,12,24,24,046,46,25,21,126,42,31,23,207,44,32,62,301,47*7E
2017-12-01 15:18:47 1512159527.720340: $GPGSV,3,3,12,01,06,325,36,11,08,312,38,21,05,174,20,138,38,213,46*4A
2017-12-01 15:18:47 1512159527.833457: $GPZDA,201848.00,01,12,2017,00,00*67
2017-12-01 15:18:47 1512159527.833630: $GPGGA,201848,3946.9577,N,08404.9845,W,2,12,0.80,296.80,M,-33.324,M,,*7E
2017-12-01 15:18:47 1512159527.833697: $GPRMC,201848,A,3946.9577,N,08404.9845,W,0.0000,0.000,011217,,*30
2017-12-01 15:18:47 1512159527.833758: $GPGSA,A,3,10,12,14,18,24,25,31,32,1,11,21,138,2.0,0.8,1.5*38
2017-12-01 15:18:48 1512159528.400652: $GPZDA,201849.00,01,12,2017,00,00*66
2017-12-01 15:18:48 1512159528.400821: $GPGGA,201849,3946.9577,N,08404.9845,W,2,12,0.80,296.80,M,-33.324,M,,*7F
2017-12-01 15:18:48 1512159528.400888: $GPRMC,201849,A,3946.9577,N,08404.9845,W,0.0000,0.000,011217,,*31
2017-12-01 15:18:48 1512159528.400950: $GPGSA,A,3,10,12,14,18,24,25,31,32,1,11,21,138,2.0,0.8,1.5*38
2017-12-01 15:18:49 1512159529.400260: $GPZDA,201850.00,01,12,2017,00,00*6E
2017-12-01 15:18:49 1512159529.400429: $GPGGA,201850,3946.9577,N,08404.9845,W,2,12,0.80,296.80,M,-33.324,M,,*77
2017-12-01 15:18:49 1512159529.400496: $GPRMC,201850,A,3946.9577,N,08404.9845,W,0.0000,0.000,011217,,*39
2017-12-01 15:18:49 1512159529.400557: $GPGSA,A,3,10,12,14,18,24,25,31,32,1,11,21,138,2.0,0.8,1.5*38
2017-12-01 15:18:50 1512159530.735480: $GPGSV,3,1,12,10,81,097,46,12,22,085,43,14,46,277,43,18,49,127,48*7B
2017-12-01 15:18:50 1512159530.735661: $GPGSV,3,2,12,24,24,046,46,25,21,126,43,31,23,207,44,32,62,301,47*7F
2017-12-01 15:18:50 1512159530.735727: $GPGSV,3,3,12,01,06,325,36,11,08,312,39,21,05,174,00,138,38,213,46*49
2017-12-01 15:18:50 1512159530.847629: $GPZDA,201851.00,01,12,2017,00,00*6F
2017-12-01 15:18:50 1512159530.847799: $GPGGA,201851,3946.9577,N,08404.9845,W,2,11,0.80,296.80,M,-33.324,M,,*75
2017-12-01 15:18:50 1512159530.847865: $GPRMC,201851,A,3946.9577,N,08404.9845,W,0.0000,0.000,011217,,*38
2017-12-01 15:18:50 1512159530.847926: $GPGSA,A,3,10,12,14,18,24,25,31,32,1,11,138,,2.0,0.8,1.5*3B
2017-12-01 15:18:51 1512159531.383533: $GPZDA,201852.00,01,12,2017,00,00*6C
2017-12-01 15:18:51 1512159531.383699: $GPGGA,201852,3946.9577,N,08404.9845,W,2,11,0.80,296.80,M,-33.324,M,,*76
2017-12-01 15:18:51 1512159531.383768: $GPRMC,201852,A,3946.9577,N,08404.9845,W,0.0000,0.000,011217,,*3B
2017-12-01 15:18:51 1512159531.383829: $GPGSA,A,3,10,12,14,18,24,25,31,32,1,11,138,,2.0,0.8,1.5*3B
2017-12-01 15:18:52 1512159532.400660: $GPZDA,201853.00,01,12,2017,00,00*6D
2017-12-01 15:18:52 1512159532.400882: $GPGGA,201853,3946.9577,N,08404.9845,W,2,11,0.80,296.80,M,-33.324,M,,*77
2017-12-01 15:18:52 1512159532.400954: $GPRMC,201853,A,3946.9577,N,08404.9845,W,0.0000,0.000,011217,,*3A
2017-12-01 15:18:52 1512159532.401038: $GPGSA,A,3,10,12,14,18,24,25,31,32,1,11,138,,2.0,0.8,1.5*3B
2017-12-01 15:18:53 1512159533.718860: $GPGSV,3,1,12,10,81,097,46,12,22,085,42,14,46,277,43,18,49,127,48*7A
2017-12-01 15:18:53 1512159533.719061: $GPGSV,3,2,12,24,24,046,45,25,21,126,43,31,23,207,44,32,62,301,46*7D
2017-12-01 15:18:53 1512159533.719130: $GPGSV,3,3,12,01,06,325,37,11,08,312,41,21,05,174,14,138,38,213,46*42
2017-12-01 15:18:53 1512159533.832325: $GPZDA,201854.00,01,12,2017,00,00*6A
2017-12-01 15:18:53 1512159533.832500: $GPGGA,201854,3946.9573,N,08404.9845,W,2,11,0.80,297.56,M,-33.324,M,,*7E
2017-12-01 15:18:53 1512159533.832566: $GPRMC,201854,A,3946.9573,N,08404.9845,W,0.0000,0.000,011217,,*39
2017-12-01 15:18:53 1512159533.832627: $GPGSA,A,3,10,12,14,18,24,25,31,32,1,11,138,,2.0,0.8,1.5*3B
2017-12-01 15:18:54 1512159534.381995: $GPZDA,201855.00,01,12,2017,00,00*6B
2017-12-01 15:18:54 1512159534.382183: $GPGGA,201855,3946.9573,N,08404.9845,W,2,11,0.80,297.56,M,-33.324,M,,*7F
2017-12-01 15:18:54 1512159534.382252: $GPRMC,201855,A,3946.9573,N,08404.9845,W,0.0000,0.000,011217,,*38
2017-12-01 15:18:54 1512159534.382313: $GPGSA,A,3,10,12,14,18,24,25,31,32,1,11,138,,2.0,0.8,1.5*3B
2017-12-01 15:18:55 1512159535.900509: $GPZDA,201856.00,01,12,2017,00,00*68
2017-12-01 15:18:55 1512159535.900692: $GPGGA,201856,3946.9573,N,08404.9845,W,2,11,0.80,297.56,M,-33.324,M,,*7C
2017-12-01 15:18:55 1512159535.900759: $GPRMC,201856,A,3946.9573,N,08404.9845,W,0.0000,0.000,011217,,*3B
2017-12-01 15:18:55 1512159535.900820: $GPGSA,A,3,10,12,14,18,24,25,31,32,1,11,138,,2.0,0.8,1.5*3B
2017-12-01 15:18:56 1512159536.719965: $GPGSV,3,1,12,10,81,100,46,12,22,084,42,14,47,277,43,18,48,127,48*74
2017-12-01 15:18:56 1512159536.720148: $GPGSV,3,2,12,24,24,046,45,25,21,124,43,31,23,207,44,32,63,303,46*7C
2017-12-01 15:18:56 1512159536.720214: $GPGSV,3,3,12,01,06,325,37,11,09,312,42,21,04,174,13,138,38,213,46*46
2017-12-01 15:18:56 1512159536.833600: $GPZDA,201857.00,01,12,2017,00,00*69
2017-12-01 15:18:56 1512159536.833742: $GPGGA,201857,3946.9573,N,08404.9845,W,2,11,0.80,297.56,M,-33.324,M,,*7D
2017-12-01 15:18:56 1512159536.833808: $GPRMC,201857,A,3946.9573,N,08404.9845,W,0.0000,0.000,011217,,*3A
2017-12-01 15:18:56 1512159536.833868: $GPGSA,A,3,10,12,14,18,24,25,31,32,1,11,138,,2.0,0.8,1.5*3B
2017-12-01 15:18:57 1512159537.384347: $GPZDA,201858.00,01,12,2017,00,00*66
2017-12-01 15:18:57 1512159537.384516: $GPGGA,201858,3946.9573,N,08404.9845,W,2,11,0.80,297.56,M,-33.324,M,,*72
2017-12-01 15:18:57 1512159537.384582: $GPRMC,201858,A,3946.9573,N,08404.9845,W,0.0000,0.000,011217,,*35
2017-12-01 15:18:57 1512159537.384643: $GPGSA,A,3,10,12,14,18,24,25,31,32,1,11,138,,2.0,0.8,1.5*3B
2017-12-01 15:18:58 1512159538.400450: $GPZDA,201859.00,01,12,2017,00,00*67
2017-12-01 15:18:58 1512159538.400632: $GPGGA,201859,3946.9573,N,08404.9845,W,2,11,0.80,297.56,M,-33.324,M,,*73
2017-12-01 15:18:58 1512159538.400701: $GPRMC,201859,A,3946.9573,N,08404.9845,W,0.0000,0.000,011217,,*34
2017-12-01 15:18:58 1512159538.400761: $GPGSA,A,3,10,12,14,18,24,25,31,32,1,11,138,,2.0,0.8,1.5*3B
2017-12-01 15:18:59 1512159539.737203: $GPGSV,3,1,12,10,81,100,46,12,22,084,42,14,47,277,43,18,48,127,48*74
2017-12-01 15:18:59 1512159539.737384: $GPGSV,3,2,12,24,24,046,45,25,21,124,43,31,23,207,44,32,63,303,46*7C
2017-12-01 15:18:59 1512159539.737449: $GPGSV,3,3,12,01,06,325,39,11,09,312,42,21,04,174,19,138,38,213,46*42
2017-12-01 15:18:59 1512159539.850877: $GPZDA,201900.00,01,12,2017,00,00*6A
2017-12-01 15:18:59 1512159539.851049: $GPGGA,201900,3946.9570,N,08404.9846,W,2,12,0.80,298.33,M,-33.324,M,,*71
2017-12-01 15:18:59 1512159539.851115: $GPRMC,201900,A,3946.9570,N,08404.9846,W,0.0000,0.000,011217,,*39
2017-12-01 15:18:59 1512159539.851176: $GPGSA,A,3,10,12,14,18,24,25,31,32,1,11,21,138,2.0,0.8,1.5*38
2017-12-01 15:19:00 1512159540.476284: $GPZDA,201901.00,01,12,2017,00,00*6B
2017-12-01 15:19:00 1512159540.476458: $GPGGA,201901,3946.9570,N,08404.9846,W,2,12,0.80,298.33,M,-33.324,M,,*70
2017-12-01 15:19:00 1512159540.476525: $GPRMC,201901,A,3946.9570,N,08404.9846,W,0.0000,0.000,011217,,*38
2017-12-01 15:19:00 1512159540.476587: $GPGSA,A,3,10,12,14,18,24,25,31,32,1,11,21,138,2.0,0.8,1.5*38
2017-12-01 15:19:01 1512159541.400502: $GPZDA,201902.00,01,12,2017,00,00*68
2017-12-01 15:19:01 1512159541.400678: $GPGGA,201902,3946.9570,N,08404.9846,W,2,12,0.80,298.33,M,-33.324,M,,*73
2017-12-01 15:19:01 1512159541.400746: $GPRMC,201902,A,3946.9570,N,08404.9846,W,0.0000,0.000,011217,,*3B
2017-12-01 15:19:01 1512159541.400806: $GPGSA,A,3,10,12,14,18,24,25,31,32,1,11,21,138,2.0,0.8,1.5*38
2017-12-01 15:19:02 1512159542.734986: $GPGSV,3,1,12,10,81,100,46,12,22,084,43,14,47,277,42,18,48,127,48*74
2017-12-01 15:19:02 1512159542.735174: $GPGSV,3,2,12,24,24,046,45,25,21,124,42,31,23,207,44,32,63,303,47*7C
2017-12-01 15:19:02 1512159542.735242: $GPGSV,3,3,12,01,06,325,39,11,09,312,43,21,04,174,19,138,38,213,46*43
2017-12-01 15:19:02 1512159542.848332: $GPZDA,201903.00,01,12,2017,00,00*69
2017-12-01 15:19:02 1512159542.848460: $GPGGA,201903,3946.9570,N,08404.9846,W,2,12,0.80,298.33,M,-33.324,M,,*72
2017-12-01 15:19:02 1512159542.848525: $GPRMC,201903,A,3946.9570,N,08404.9846,W,0.0000,0.000,011217,,*3A
2017-12-01 15:19:02 1512159542.848585: $GPGSA,A,3,10,12,14,18,24,25,31,32,1,11,21,138,2.0,0.8,1.5*38
2017-12-01 15:19:03 1512159543.384259: $GPZDA,201904.00,01,12,2017,00,00*6E
2017-12-01 15:19:03 1512159543.384438: $GPGGA,201904,3946.9570,N,08404.9846,W,2,12,0.80,298.33,M,-33.324,M,,*75
2017-12-01 15:19:03 1512159543.384506: $GPRMC,201904,A,3946.9570,N,08404.9846,W,0.0000,0.000,011217,,*3D
2017-12-01 15:19:03 1512159543.384567: $GPGSA,A,3,10,12,14,18,24,25,31,32,1,11,21,138,2.0,0.8,1.5*38
2017-12-01 15:19:04 1512159544.384137: $GPZDA,201905.00,01,12,2017,00,00*6F
2017-12-01 15:19:04 1512159544.384312: $GPGGA,201905,3946.9570,N,08404.9846,W,2,12,0.80,298.33,M,-33.324,M,,*74
2017-12-01 15:19:04 1512159544.384379: $GPRMC,201905,A,3946.9570,N,08404.9846,W,0.0000,0.000,011217,,*3C
2017-12-01 15:19:04 1512159544.384440: $GPGSA,A,3,10,12,14,18,24,25,31,32,1,11,21,138,2.0,0.8,1.5*38
