2017-12-31 16:59:26 1514757566.635795: {"class":"VERSION","release":"3.16","rev":"3.16-4","proto_major":3,"proto_minor":11}
2017-12-31 16:59:26 1514757566.636141: {"class":"DEVICES","devices":[{"class":"DEVICE","path":"/dev/ttyUSB0","driver":"SiRF","activated":"2017-12-31T21:59:26.476Z","flags":1,"native":1,"bps":4800,"parity":"N","stopbits":1,"cycle":1.00}]}
2017-12-31 16:59:26 1514757566.636244: {"class":"WATCH","enable":true,"json":false,"nmea":true,"raw":0,"scaled":false,"timing":false,"split24":false,"pps":false}
2017-12-31 16:59:27 1514757567.679496: $GPGSV,3,1,11,22,46,244,37,23,25,307,44,25,04,037,21,03,46,276,40*7F
2017-12-31 16:59:27 1514757567.679682: $GPGSV,3,2,11,16,42,190,44,29,14,058,00,31,52,048,50,14,43,111,38*76
2017-12-31 16:59:27 1514757567.679754: $GPGSV,3,3,11,32,21,120,42,26,72,151,43,135,22,240,42*7A
2017-12-31 16:59:27 1514757567.793144: $GPZDA,215928.00,31,12,2017,00,00*66
2017-12-31 16:59:27 1514757567.793296: $GPGGA,215928,3946.9584,N,08404.9855,W,2,10,1.00,302.98,M,-33.324,M,,*7F
2017-12-31 16:59:27 1514757567.793363: $GPRMC,215928,A,3946.9584,N,08404.9855,W,0.0000,0.000,311217,,*3C
2017-12-31 16:59:27 1514757567.793424: $GPGSA,A,3,22,23,25,3,16,31,14,32,26,135,,,1.7,1.0,1.3*30
2017-12-31 16:59:28 1514757568.360273: $GPZDA,215929.00,31,12,2017,00,00*67
2017-12-31 16:59:28 1514757568.360435: $GPGGA,215929,3946.9584,N,08404.9855,W,2,10,1.00,302.98,M,-33.324,M,,*7E
2017-12-31 16:59:28 1514757568.360500: $GPRMC,215929,A,3946.9584,N,08404.9855,W,0.0000,0.000,311217,,*3D
2017-12-31 16:59:28 1514757568.360562: $GPGSA,A,3,22,23,25,3,16,31,14,32,26,135,,,1.7,1.0,1.3*30
2017-12-31 16:59:29 1514757569.344901: $GPZDA,215930.00,31,12,2017,00,00*6F
2017-12-31 16:59:29 1514757569.345067: $GPGGA,215930,3946.9584,N,08404.9855,W,2,10,1.00,302.98,M,-33.324,M,,*76
2017-12-31 16:59:29 1514757569.345134: $GPRMC,215930,A,3946.9584,N,08404.9855,W,0.0000,0.000,311217,,*35
2017-12-31 16:59:29 1514757569.345196: $GPGSA,A,3,22,23,25,3,16,31,14,32,26,135,,,1.7,1.0,1.3*30
2017-12-31 16:59:30 1514757570.679850: $GPGSV,3,1,11,22,46,244,39,23,25,307,44,25,04,037,21,03,46,276,40*71
2017-12-31 16:59:30 1514757570.680026: $GPGSV,3,2,11,16,42,190,45,29,14,058,25,31,52,048,50,14,43,111,38*70
2017-12-31 16:59:30 1514757570.680094: $GPGSV,3,3,11,32,21,120,43,26,72,151,44,135,22,240,42*7C
2017-12-31 16:59:30 1514757570.792200: $GPZDA,215931.00,31,12,2017,00,00*6E
2017-12-31 16:59:30 1514757570.792325: $GPGGA,215931,3946.9584,N,08404.9855,W,2,11,1.00,302.98,M,-33.324,M,,*76
2017-12-31 16:59:30 1514757570.792388: $GPRMC,215931,A,3946.9584,N,08404.9855,W,0.0000,0.000,311217,,*34
2017-12-31 16:59:30 1514757570.792449: $GPGSA,A,3,22,23,25,3,16,29,31,14,32,26,135,,1.7,1.0,1.3*3B
2017-12-31 16:59:31 1514757571.351835: $GPZDA,215932.00,31,12,2017,00,00*6D
2017-12-31 16:59:31 1514757571.351970: $GPGGA,215932,3946.9584,N,08404.9855,W,2,11,1.00,302.98,M,-33.324,M,,*75
2017-12-31 16:59:31 1514757571.352036: $GPRMC,215932,A,3946.9584,N,08404.9855,W,0.0000,0.000,311217,,*37
2017-12-31 16:59:31 1514757571.352096: $GPGSA,A,3,22,23,25,3,16,29,31,14,32,26,135,,1.7,1.0,1.3*3B
2017-12-31 16:59:32 1514757572.343985: $GPZDA,215933.00,31,12,2017,00,00*6C
2017-12-31 16:59:32 1514757572.344157: $GPGGA,215933,3946.9584,N,08404.9855,W,2,11,1.00,302.98,M,-33.324,M,,*74
2017-12-31 16:59:32 1514757572.344224: $GPRMC,215933,A,3946.9584,N,08404.9855,W,0.0000,0.000,311217,,*36
2017-12-31 16:59:32 1514757572.344286: $GPGSA,A,3,22,23,25,3,16,29,31,14,32,26,135,,1.7,1.0,1.3*3B
2017-12-31 16:59:33 1514757573.680675: $GPGSV,3,1,11,22,46,244,40,23,25,307,44,25,04,037,22,03,46,276,41*7D
2017-12-31 16:59:33 1514757573.680854: $GPGSV,3,2,11,16,42,190,45,29,14,058,26,31,52,048,51,14,43,111,38*72
2017-12-31 16:59:33 1514757573.680922: $GPGSV,3,3,11,32,21,120,43,26,72,151,44,135,22,240,42*7C
2017-12-31 16:59:33 1514757573.794484: $GPZDA,215934.00,31,12,2017,00,00*6B
2017-12-31 16:59:33 1514757573.794624: $GPGGA,215934,3946.9584,N,08404.9855,W,2,11,1.00,302.98,M,-33.324,M,,*73
2017-12-31 16:59:33 1514757573.794690: $GPRMC,215934,A,3946.9584,N,08404.9855,W,0.0000,0.000,311217,,*31
2017-12-31 16:59:33 1514757573.794806: $GPGSA,A,3,22,23,25,3,16,29,31,14,32,26,135,,1.7,1.0,1.3*3B
2017-12-31 16:59:34 1514757574.361164: $GPZDA,215935.00,31,12,2017,00,00*6A
2017-12-31 16:59:34 1514757574.361321: $GPGGA,215935,3946.9584,N,08404.9855,W,2,11,1.00,302.98,M,-33.324,M,,*72
2017-12-31 16:59:34 1514757574.361411: $GPRMC,215935,A,3946.9584,N,08404.9855,W,0.0000,0.000,311217,,*30
2017-12-31 16:59:34 1514757574.361475: $GPGSA,A,3,22,23,25,3,16,29,31,14,32,26,135,,1.7,1.0,1.3*3B
2017-12-31 16:59:35 1514757575.360320: $GPZDA,215936.00,31,12,2017,00,00*69
2017-12-31 16:59:35 1514757575.360496: $GPGGA,215936,3946.9584,N,08404.9855,W,2,11,1.00,302.98,M,-33.324,M,,*71
2017-12-31 16:59:35 1514757575.360568: $GPRMC,215936,A,3946.9584,N,08404.9855,W,0.0000,0.000,311217,,*33
2017-12-31 16:59:35 1514757575.360634: $GPGSA,A,3,22,23,25,3,16,29,31,14,32,26,135,,1.7,1.0,1.3*3B
