2017-11-16 14:51:44 1510861904.976205: {"class":"VERSION","release":"3.17","rev":"3.17","proto_major":3,"proto_minor":12}
2017-11-16 14:51:44 1510861904.976625: {"class":"DEVICES","devices":[{"class":"DEVICE","path":"/dev/ttyUSB0","driver":"SiRF","subtype":"9\u0006GSD4e_4.1.2-P1_RPATCH.05-F-GPS-4R-1510281 11/03/2015 307","activated":"2017-11-16T19:51:44.632Z","flags":1,"native":1,"bps":4800,"parity":"N","stopbits":1,"cycle":1.00}]}
2017-11-16 14:51:44 1510861904.976733: {"class":"WATCH","enable":true,"json":false,"nmea":true,"raw":0,"scaled":false,"timing":false,"split24":false,"pps":false}
2017-11-16 14:51:45 1510861905.826359: $GPGSV,3,1,11,08,08,306,38,10,56,315,50,15,23,058,50,18,77,039,44*7B
2017-11-16 14:51:45 1510861905.826528: $GPGSV,3,2,11,21,45,183,47,20,20,109,41,24,52,079,50,27,14,273,42*74
2017-11-16 14:51:45 1510861905.826589: $GPGSV,3,3,11,32,34,250,46,14,18,243,43,138,38,213,44*75
2017-11-16 14:51:45 1510861905.939653: $GPZDA,195144.00,16,11,2017,00,00*69
2017-11-16 14:51:45 1510861905.939836: $GPGGA,195144,3946.9572,N,08404.9841,W,2,11,0.80,302.62,M,-33.324,M,,*77
2017-11-16 14:51:45 1510861905.939898: $GPRMC,195144,A,3946.9572,N,08404.9841,W,0.0000,0.000,161117,,*3F
2017-11-16 14:51:45 1510861905.939970: $GPGSA,A,3,8,10,15,18,21,20,24,27,32,14,138,,1.6,0.8,1.3*37
2017-11-16 14:51:46 1510861906.529249: $GPZDA,195145.00,16,11,2017,00,00*68
2017-11-16 14:51:46 1510861906.529408: $GPGGA,195145,3946.9572,N,08404.9841,W,2,11,0.80,302.62,M,-33.324,M,,*76
2017-11-16 14:51:46 1510861906.529468: $GPRMC,195145,A,3946.9572,N,08404.9841,W,0.0000,0.000,161117,,*3E
2017-11-16 14:51:46 1510861906.529524: $GPGSA,A,3,8,10,15,18,21,20,24,27,32,14,138,,1.6,0.8,1.3*37
2017-11-16 14:51:47 1510861907.493876: $GPZDA,195146.00,16,11,2017,00,00*6B
2017-11-16 14:51:47 1510861907.494058: $GPGGA,195146,3946.9572,N,08404.9841,W,2,11,0.80,302.62,M,-33.324,M,,*75
2017-11-16 14:51:47 1510861907.494119: $GPRMC,195146,A,3946.9572,N,08404.9841,W,0.0000,0.000,161117,,*3D
2017-11-16 14:51:47 1510861907.494175: $GPGSA,A,3,8,10,15,18,21,20,24,27,32,14,138,,1.6,0.8,1.3*37
2017-11-16 14:51:48 1510861908.822137: $GPGSV,3,1,11,08,08,306,37,10,56,315,50,15,23,058,50,18,77,039,44*74
2017-11-16 14:51:48 1510861908.822338: $GPGSV,3,2,11,21,45,183,47,20,20,109,41,24,52,079,50,27,14,273,41*77
2017-11-16 14:51:48 1510861908.822421: $GPGSV,3,3,11,32,34,250,47,14,18,243,42,138,38,213,43*72
2017-11-16 14:51:48 1510861908.935460: $GPZDA,195147.00,16,11,2017,00,00*6A
2017-11-16 14:51:48 1510861908.935621: $GPGGA,195147,3946.9572,N,08404.9841,W,2,11,0.80,302.62,M,-33.324,M,,*74
2017-11-16 14:51:48 1510861908.935682: $GPRMC,195147,A,3946.9572,N,08404.9841,W,0.0000,0.000,161117,,*3C
2017-11-16 14:51:48 1510861908.935738: $GPGSA,A,3,8,10,15,18,21,20,24,27,32,14,138,,1.6,0.8,1.3*37
2017-11-16 14:51:49 1510861909.560939: $GPZDA,195148.00,16,11,2017,00,00*65
2017-11-16 14:51:49 1510861909.561101: $GPGGA,195148,3946.9572,N,08404.9841,W,2,11,0.80,302.62,M,-33.324,M,,*7B
2017-11-16 14:51:49 1510861909.561162: $GPRMC,195148,A,3946.9572,N,08404.9841,W,0.0000,0.000,161117,,*33
2017-11-16 14:51:49 1510861909.561219: $GPGSA,A,3,8,10,15,18,21,20,24,27,32,14,138,,1.6,0.8,1.3*37
2017-11-16 14:51:50 1510861910.528249: $GPZDA,195149.00,16,11,2017,00,00*64
2017-11-16 14:51:50 1510861910.528426: $GPGGA,195149,3946.9572,N,08404.9841,W,2,11,0.80,302.62,M,-33.324,M,,*7A
2017-11-16 14:51:50 1510861910.528499: $GPRMC,195149,A,3946.9572,N,08404.9841,W,0.0000,0.000,161117,,*32
2017-11-16 14:51:50 1510861910.528557: $GPGSA,A,3,8,10,15,18,21,20,24,27,32,14,138,,1.6,0.8,1.3*37
2017-11-16 14:51:51 1510861911.826334: $GPGSV,3,1,11,08,08,306,37,10,56,315,50,15,23,058,50,18,77,039,44*74
2017-11-16 14:51:51 1510861911.826503: $GPGSV,3,2,11,21,45,183,47,20,20,109,41,24,52,079,49,27,14,273,41*7F
2017-11-16 14:51:51 1510861911.826563: $GPGSV,3,3,11,32,34,250,47,14,18,243,42,138,38,213,43*72
2017-11-16 14:51:51 1510861911.939985: $GPZDA,195150.00,16,11,2017,00,00*6C
2017-11-16 14:51:51 1510861911.940143: $GPGGA,195150,3946.9572,N,08404.9841,W,2,11,0.80,302.62,M,-33.324,M,,*72
2017-11-16 14:51:51 1510861911.940256: $GPRMC,195150,A,3946.9572,N,08404.9841,W,0.0000,0.000,161117,,*3A
2017-11-16 14:51:51 1510861911.940374: $GPGSA,A,3,8,10,15,18,21,20,24,27,32,14,138,,1.6,0.8,1.3*37
2017-11-16 14:51:52 1510861912.491801: $GPZDA,195151.00,16,11,2017,00,00*6D
2017-11-16 14:51:52 1510861912.491977: $GPGGA,195151,3946.9572,N,08404.9841,W,2,11,0.80,302.62,M,-33.324,M,,*73
2017-11-16 14:51:52 1510861912.492039: $GPRMC,195151,A,3946.9572,N,08404.9841,W,0.0000,0.000,161117,,*3B
2017-11-16 14:51:52 1510861912.492096: $GPGSA,A,3,8,10,15,18,21,20,24,27,32,14,138,,1.6,0.8,1.3*37
2017-11-16 14:51:53 1510861913.491374: $GPZDA,195152.00,16,11,2017,00,00*6E
2017-11-16 14:51:53 1510861913.491542: $GPGGA,195152,3946.9572,N,08404.9841,W,2,11,0.80,302.62,M,-33.324,M,,*70
2017-11-16 14:51:53 1510861913.491604: $GPRMC,195152,A,3946.9572,N,08404.9841,W,0.0000,0.000,161117,,*38
2017-11-16 14:51:53 1510861913.491660: $GPGSA,A,3,8,10,15,18,21,20,24,27,32,14,138,,1.6,0.8,1.3*37
2017-11-16 14:51:54 1510861914.865716: $GPGSV,3,1,11,08,08,306,36,10,56,315,50,15,23,058,50,18,77,039,44*75
2017-11-16 14:51:54 1510861914.865948: $GPGSV,3,2,11,21,45,183,46,20,20,109,40,24,52,079,49,27,14,273,41*7F
2017-11-16 14:51:54 1510861914.866025: $GPGSV,3,3,11,32,34,250,47,14,18,243,42,138,38,213,44*75
