2017-12-01 14:47:06 1512157626.648124: {"class":"VERSION","release":"3.16","rev":"3.16-4","proto_major":3,"proto_minor":11}
2017-12-01 14:47:06 1512157626.648600: {"class":"DEVICES","devices":[{"class":"DEVICE","path":"/dev/ttyUSB0","driver":"SiRF","subtype":"9\u0006GSD4e_4.1.2-P1_RPATCH.05-F-GPS-4R-1510281 11/03/2015 307","activated":"2017-12-01T19:47:06.562Z","flags":1,"native":1,"bps":4800,"parity":"N","stopbits":1,"cycle":1.00}]}
2017-12-01 14:47:06 1512157626.648717: {"class":"WATCH","enable":true,"json":false,"nmea":true,"raw":0,"scaled":false,"timing":false,"split24":false,"pps":false}
2017-12-01 14:47:07 1512157627.419717: $GPZDA,194708.00,01,12,2017,00,00*63
2017-12-01 14:47:07 1512157627.419900: $GPGGA,194708,3946.9584,N,08404.9843,W,2,12,1.20,295.27,M,-33.324,M,,*75
2017-12-01 14:47:07 1512157627.419985: $GPRMC,194708,A,3946.9584,N,08404.9843,W,0.0000,0.000,011217,,*3E
2017-12-01 14:47:07 1512157627.420047: $GPGSA,A,3,10,12,14,18,21,24,32,25,8,11,31,138,2.0,1.2,1.5*3A
2017-12-01 14:47:08 1512157628.747602: $GPGSV,3,1,12,10,78,352,47,12,15,099,42,14,36,262,44,18,62,112,48*75
2017-12-01 14:47:08 1512157628.747760: $GPGSV,3,2,12,21,18,177,42,24,37,051,46,32,54,279,44,25,10,135,30*7C
2017-12-01 14:47:08 1512157628.747849: $GPGSV,3,3,12,08,02,285,30,11,03,322,33,20,01,123,18,138,38,213,47*44
2017-12-01 14:47:08 1512157628.861445: $GPZDA,194709.00,01,12,2017,00,00*62
2017-12-01 14:47:08 1512157628.861625: $GPGGA,194709,3946.9584,N,08404.9843,W,2,12,1.20,295.27,M,-33.324,M,,*74
2017-12-01 14:47:08 1512157628.861694: $GPRMC,194709,A,3946.9584,N,08404.9843,W,0.0000,0.000,011217,,*3F
2017-12-01 14:47:08 1512157628.861755: $GPGSA,A,3,10,12,14,18,21,24,32,25,8,11,20,138,2.0,1.2,1.5*3A
2017-12-01 14:47:09 1512157629.486827: $GPZDA,194710.00,01,12,2017,00,00*6A
2017-12-01 14:47:09 1512157629.487016: $GPGGA,194710,3946.9584,N,08404.9843,W,2,12,1.20,295.27,M,-33.324,M,,*7C
2017-12-01 14:47:09 1512157629.487087: $GPRMC,194710,A,3946.9584,N,08404.9843,W,0.0000,0.000,011217,,*37
2017-12-01 14:47:09 1512157629.487150: $GPGSA,A,3,10,12,14,18,21,24,32,25,8,11,20,138,2.0,1.2,1.5*3A
2017-12-01 14:47:10 1512157630.418764: $GPZDA,194711.00,01,12,2017,00,00*6B
2017-12-01 14:47:10 1512157630.418948: $GPGGA,194711,3946.9584,N,08404.9843,W,2,12,1.20,295.27,M,-33.324,M,,*7D
2017-12-01 14:47:10 1512157630.419016: $GPRMC,194711,A,3946.9584,N,08404.9843,W,0.0000,0.000,011217,,*36
2017-12-01 14:47:10 1512157630.419079: $GPGSA,A,3,10,12,14,18,21,24,32,25,8,11,20,138,2.0,1.2,1.5*3A
2017-12-01 14:47:11 1512157631.755440: $GPGSV,3,1,12,10,78,352,47,12,15,099,42,14,36,262,43,18,62,112,48*72
2017-12-01 14:47:11 1512157631.755635: $GPGSV,3,2,12,21,18,177,42,24,37,051,46,32,54,279,44,25,10,135,30*7C
2017-12-01 14:47:11 1512157631.755705: $GPGSV,3,3,12,08,02,285,30,11,03,322,32,20,01,123,18,138,38,213,47*45
2017-12-01 14:47:11 1512157631.869142: $GPZDA,194712.00,01,12,2017,00,00*68
2017-12-01 14:47:11 1512157631.869303: $GPGGA,194712,3946.9584,N,08404.9843,W,2,12,1.20,295.27,M,-33.324,M,,*7E
2017-12-01 14:47:11 1512157631.869369: $GPRMC,194712,A,3946.9584,N,08404.9843,W,0.0000,0.000,011217,,*35
2017-12-01 14:47:11 1512157631.869432: $GPGSA,A,3,10,12,14,18,21,24,32,25,8,11,20,138,2.0,1.2,1.5*3A
2017-12-01 14:47:12 1512157632.421269: $GPZDA,194713.00,01,12,2017,00,00*69
2017-12-01 14:47:12 1512157632.421487: $GPGGA,194713,3946.9584,N,08404.9843,W,2,12,1.20,295.27,M,-33.324,M,,*7F
2017-12-01 14:47:12 1512157632.421559: $GPRMC,194713,A,3946.9584,N,08404.9843,W,0.0000,0.000,011217,,*34
2017-12-01 14:47:12 1512157632.421620: $GPGSA,A,3,10,12,14,18,21,24,32,25,8,11,20,138,2.0,1.2,1.5*3A
2017-12-01 14:47:13 1512157633.413616: $GPZDA,194714.00,01,12,2017,00,00*6E
2017-12-01 14:47:13 1512157633.413821: $GPGGA,194714,3946.9584,N,08404.9843,W,2,12,1.20,295.27,M,-33.324,M,,*78
2017-12-01 14:47:13 1512157633.413917: $GPRMC,194714,A,3946.9584,N,08404.9843,W,0.0000,0.000,011217,,*33
2017-12-01 14:47:13 1512157633.414040: $GPGSA,A,3,10,12,14,18,21,24,32,25,8,11,20,138,2.0,1.2,1.5*3A
2017-12-01 14:47:14 1512157634.748338: $GPGSV,3,1,12,10,78,352,46,12,15,099,42,14,36,262,43,18,62,112,48*73
2017-12-01 14:47:14 1512157634.748570: $GPGSV,3,2,12,21,18,177,42,24,37,051,46,32,54,279,44,25,10,135,30*7C
2017-12-01 14:47:14 1512157634.748641: $GPGSV,3,3,12,08,02,285,31,11,03,322,27,31,09,204,24,138,38,213,47*41
2017-12-01 14:47:14 1512157634.862021: $GPZDA,194715.00,01,12,2017,00,00*6F
2017-12-01 14:47:14 1512157634.862191: $GPGGA,194715,3946.9584,N,08404.9843,W,2,12,1.20,295.27,M,-33.324,M,,*79
2017-12-01 14:47:14 1512157634.862257: $GPRMC,194715,A,3946.9584,N,08404.9843,W,0.0000,0.000,011217,,*32
2017-12-01 14:47:14 1512157634.862319: $GPGSA,A,3,10,12,14,18,21,24,32,25,8,11,31,138,2.0,1.2,1.5*3A
2017-12-01 14:47:15 1512157635.422535: $GPZDA,194716.00,01,12,2017,00,00*6C
2017-12-01 14:47:15 1512157635.422717: $GPGGA,194716,3946.9584,N,08404.9843,W,2,12,1.20,295.27,M,-33.324,M,,*7A
2017-12-01 14:47:15 1512157635.422788: $GPRMC,194716,A,3946.9584,N,08404.9843,W,0.0000,0.000,011217,,*31
2017-12-01 14:47:15 1512157635.422853: $GPGSA,A,3,10,12,14,18,21,24,32,25,8,11,31,138,2.0,1.2,1.5*3A
2017-12-01 14:47:16 1512157636.426131: $GPZDA,194717.00,01,12,2017,00,00*6D
2017-12-01 14:47:16 1512157636.426315: $GPGGA,194717,3946.9584,N,08404.9843,W,2,12,1.20,295.27,M,-33.324,M,,*7B
2017-12-01 14:47:16 1512157636.426383: $GPRMC,194717,A,3946.9584,N,08404.9843,W,0.0000,0.000,011217,,*30
2017-12-01 14:47:16 1512157636.426445: $GPGSA,A,3,10,12,14,18,21,24,32,25,8,11,31,138,2.0,1.2,1.5*3A
2017-12-01 14:47:17 1512157637.755379: $GPGSV,3,1,12,10,78,352,46,12,15,099,42,14,36,262,43,18,62,112,48*73
2017-12-01 14:47:17 1512157637.755567: $GPGSV,3,2,12,21,18,177,42,24,37,051,46,32,54,279,44,25,10,135,30*7C
2017-12-01 14:47:17 1512157637.755634: $GPGSV,3,3,12,15,04,072,18,11,03,322,27,31,09,204,26,138,38,213,47*48
2017-12-01 14:47:17 1512157637.869185: $GPZDA,194718.00,01,12,2017,00,00*62
2017-12-01 14:47:17 1512157637.869342: $GPGGA,194718,3946.9584,N,08404.9843,W,2,12,1.20,295.27,M,-33.324,M,,*74
2017-12-01 14:47:17 1512157637.869411: $GPRMC,194718,A,3946.9584,N,08404.9843,W,0.0000,0.000,011217,,*3F
2017-12-01 14:47:17 1512157637.869472: $GPGSA,A,3,10,12,14,18,21,24,32,25,15,11,31,138,2.0,1.2,1.5*06
2017-12-01 14:47:18 1512157638.419751: $GPZDA,194719.00,01,12,2017,00,00*63
2017-12-01 14:47:18 1512157638.419939: $GPGGA,194719,3946.9584,N,08404.9843,W,2,12,1.20,295.27,M,-33.324,M,,*75
2017-12-01 14:47:18 1512157638.420008: $GPRMC,194719,A,3946.9584,N,08404.9843,W,0.0000,0.000,011217,,*3E
2017-12-01 14:47:18 1512157638.420071: $GPGSA,A,3,10,12,14,18,21,24,32,25,15,11,31,138,2.0,1.2,1.5*06
2017-12-01 14:47:19 1512157639.413856: $GPZDA,194720.00,01,12,2017,00,00*69
2017-12-01 14:47:19 1512157639.414030: $GPGGA,194720,3946.9584,N,08404.9843,W,2,12,1.20,295.27,M,-33.324,M,,*7F
2017-12-01 14:47:19 1512157639.414099: $GPRMC,194720,A,3946.9584,N,08404.9843,W,0.0000,0.000,011217,,*34
2017-12-01 14:47:19 1512157639.414162: $GPGSA,A,3,10,12,14,18,21,24,32,25,15,11,31,138,2.0,1.2,1.5*06
2017-12-01 14:47:20 1512157640.755719: $GPGSV,3,1,12,10,78,352,47,12,15,099,42,14,36,262,43,18,62,112,48*72
2017-12-01 14:47:20 1512157640.755889: $GPGSV,3,2,12,21,18,177,42,24,37,051,46,32,54,279,45,25,10,135,30*7D
2017-12-01 14:47:20 1512157640.755960: $GPGSV,3,3,12,15,04,072,19,11,03,322,21,31,09,204,26,138,38,213,46*4E
2017-12-01 14:47:20 1512157640.869122: $GPZDA,194721.00,01,12,2017,00,00*68
2017-12-01 14:47:20 1512157640.869297: $GPGGA,194721,3946.9584,N,08404.9843,W,2,11,1.20,295.27,M,-33.324,M,,*7D
2017-12-01 14:47:20 1512157640.869365: $GPRMC,194721,A,3946.9584,N,08404.9843,W,0.0000,0.000,011217,,*35
2017-12-01 14:47:20 1512157640.869428: $GPGSA,A,3,10,12,14,18,21,24,32,25,11,31,138,,2.0,1.2,1.5*02
2017-12-01 14:47:21 1512157641.457453: $GPZDA,194722.00,01,12,2017,00,00*6B
2017-12-01 14:47:21 1512157641.460629: $GPGGA,194722,3946.9584,N,08404.9843,W,2,11,1.20,295.27,M,-33.324,M,,*7E
2017-12-01 14:47:21 1512157641.460745: $GPRMC,194722,A,3946.9584,N,08404.9843,W,0.0000,0.000,011217,,*36
2017-12-01 14:47:21 1512157641.460813: $GPGSA,A,3,10,12,14,18,21,24,32,25,11,31,138,,2.0,1.2,1.5*02
2017-12-01 14:47:22 1512157642.457507: $GPZDA,194723.00,01,12,2017,00,00*6A
2017-12-01 14:47:22 1512157642.457677: $GPGGA,194723,3946.9584,N,08404.9843,W,2,11,1.20,295.27,M,-33.324,M,,*7F
2017-12-01 14:47:22 1512157642.457744: $GPRMC,194723,A,3946.9584,N,08404.9843,W,0.0000,0.000,011217,,*37
2017-12-01 14:47:22 1512157642.457808: $GPGSA,A,3,10,12,14,18,21,24,32,25,11,31,138,,2.0,1.2,1.5*02
2017-12-01 14:47:23 1512157643.794123: $GPGSV,3,1,12,10,78,352,47,12,15,099,42,14,36,262,42,18,62,112,48*73
2017-12-01 14:47:23 1512157643.794306: $GPGSV,3,2,12,21,18,177,43,24,37,051,46,32,54,279,45,25,10,135,29*74
2017-12-01 14:47:23 1512157643.794374: $GPGSV,3,3,12,08,02,285,31,11,03,322,22,31,09,204,27,138,38,213,47*47
2017-12-01 14:47:23 1512157643.907440: $GPZDA,194724.00,01,12,2017,00,00*6D
2017-12-01 14:47:23 1512157643.907583: $GPGGA,194724,3946.9584,N,08404.9843,W,2,12,1.20,295.27,M,-33.324,M,,*7B
2017-12-01 14:47:23 1512157643.907651: $GPRMC,194724,A,3946.9584,N,08404.9843,W,0.0000,0.000,011217,,*30
2017-12-01 14:47:23 1512157643.907713: $GPGSA,A,3,10,12,14,18,21,24,32,25,8,11,31,138,2.0,1.2,1.5*3A
2017-12-01 14:47:24 1512157644.532875: $GPZDA,194725.00,01,12,2017,00,00*6C
2017-12-01 14:47:24 1512157644.533054: $GPGGA,194725,3946.9584,N,08404.9843,W,2,12,1.20,295.27,M,-33.324,M,,*7A
2017-12-01 14:47:24 1512157644.533123: $GPRMC,194725,A,3946.9584,N,08404.9843,W,0.0000,0.000,011217,,*31
2017-12-01 14:47:24 1512157644.533184: $GPGSA,A,3,10,12,14,18,21,24,32,25,8,11,31,138,2.0,1.2,1.5*3A
2017-12-01 14:47:25 1512157645.424001: $GPZDA,194726.00,01,12,2017,00,00*6F
2017-12-01 14:47:25 1512157645.424166: $GPGGA,194726,3946.9584,N,08404.9843,W,2,12,1.20,295.27,M,-33.324,M,,*79
2017-12-01 14:47:25 1512157645.424234: $GPRMC,194726,A,3946.9584,N,08404.9843,W,0.0000,0.000,011217,,*32
2017-12-01 14:47:25 1512157645.424296: $GPGSA,A,3,10,12,14,18,21,24,32,25,8,11,31,138,2.0,1.2,1.5*3A
2017-12-01 14:47:26 1512157646.788252: $GPGSV,3,1,12,10,78,352,47,12,15,099,41,14,36,262,42,18,62,112,48*70
2017-12-01 14:47:26 1512157646.788440: $GPGSV,3,2,12,21,18,177,43,24,37,051,46,32,54,279,45,25,10,135,29*74
2017-12-01 14:47:26 1512157646.788509: $GPGSV,3,3,12,15,04,072,20,11,03,322,22,31,09,204,27,138,38,213,48*48
2017-12-01 14:47:26 1512157646.901798: $GPZDA,194727.00,01,12,2017,00,00*6E
2017-12-01 14:47:26 1512157646.901980: $GPGGA,194727,3946.9584,N,08404.9843,W,2,12,1.20,295.27,M,-33.324,M,,*78
2017-12-01 14:47:26 1512157646.902052: $GPRMC,194727,A,3946.9584,N,08404.9843,W,0.0000,0.000,011217,,*33
2017-12-01 14:47:26 1512157646.902116: $GPGSA,A,3,10,12,14,18,21,24,32,25,15,11,31,138,2.0,1.2,1.5*06
2017-12-01 14:47:27 1512157647.421300: $GPZDA,194728.00,01,12,2017,00,00*61
2017-12-01 14:47:27 1512157647.421515: $GPGGA,194728,3946.9584,N,08404.9843,W,2,12,1.20,295.27,M,-33.324,M,,*77
2017-12-01 14:47:27 1512157647.421585: $GPRMC,194728,A,3946.9584,N,08404.9843,W,0.0000,0.000,011217,,*3C
2017-12-01 14:47:27 1512157647.421647: $GPGSA,A,3,10,12,14,18,21,24,32,25,15,11,31,138,2.0,1.2,1.5*06
2017-12-01 14:47:28 1512157648.421098: $GPZDA,194729.00,01,12,2017,00,00*60
2017-12-01 14:47:28 1512157648.421280: $GPGGA,194729,3946.9584,N,08404.9843,W,2,12,1.20,295.27,M,-33.324,M,,*76
2017-12-01 14:47:28 1512157648.421401: $GPRMC,194729,A,3946.9584,N,08404.9843,W,0.0000,0.000,011217,,*3D
2017-12-01 14:47:28 1512157648.421474: $GPGSA,A,3,10,12,14,18,21,24,32,25,15,11,31,138,2.0,1.2,1.5*06
2017-12-01 14:47:29 1512157649.754929: $GPGSV,3,1,12,10,78,352,46,12,15,099,41,14,36,262,42,18,62,112,48*71
2017-12-01 14:47:29 1512157649.755113: $GPGSV,3,2,12,21,18,177,43,24,37,051,47,32,54,279,44,25,10,135,29*74
2017-12-01 14:47:29 1512157649.755181: $GPGSV,3,3,12,15,04,072,22,11,03,322,22,31,09,204,28,138,38,213,47*4A
2017-12-01 14:47:29 1512157649.868521: $GPZDA,194730.00,01,12,2017,00,00*68
2017-12-01 14:47:29 1512157649.868692: $GPGGA,194730,3946.9584,N,08404.9843,W,2,12,1.20,295.27,M,-33.324,M,,*7E
2017-12-01 14:47:29 1512157649.868759: $GPRMC,194730,A,3946.9584,N,08404.9843,W,0.0000,0.000,011217,,*35
2017-12-01 14:47:29 1512157649.868822: $GPGSA,A,3,10,12,14,18,21,24,32,25,15,11,31,138,2.0,1.2,1.5*06
2017-12-01 14:47:30 1512157650.460830: $GPZDA,194731.00,01,12,2017,00,00*69
2017-12-01 14:47:30 1512157650.461006: $GPGGA,194731,3946.9584,N,08404.9843,W,2,12,1.20,295.27,M,-33.324,M,,*7F
2017-12-01 14:47:30 1512157650.461073: $GPRMC,194731,A,3946.9584,N,08404.9843,W,0.0000,0.000,011217,,*34
2017-12-01 14:47:30 1512157650.461136: $GPGSA,A,3,10,12,14,18,21,24,32,25,15,11,31,138,2.0,1.2,1.5*06
2017-12-01 14:47:31 1512157651.460375: $GPZDA,194732.00,01,12,2017,00,00*6A
2017-12-01 14:47:31 1512157651.460549: $GPGGA,194732,3946.9584,N,08404.9843,W,2,12,1.20,295.27,M,-33.324,M,,*7C
2017-12-01 14:47:31 1512157651.460617: $GPRMC,194732,A,3946.9584,N,08404.9843,W,0.0000,0.000,011217,,*37
2017-12-01 14:47:31 1512157651.460679: $GPGSA,A,3,10,12,14,18,21,24,32,25,15,11,31,138,2.0,1.2,1.5*06
