2017-11-15 19:17:46 1510791466.234926: {"class":"VERSION","release":"3.17","rev":"3.17","proto_major":3,"proto_minor":12}
2017-11-15 19:17:46 1510791466.235384: {"class":"DEVICES","devices":[{"class":"DEVICE","path":"/dev/ttyUSB0","driver":"SiRF","subtype":"9\u0006GSD4e_4.1.2-P1_RPATCH.05-F-GPS-4R-1510281 11/03/2015 307","activated":"2017-11-16T00:17:46.108Z","flags":1,"native":1,"bps":4800,"parity":"N","stopbits":1,"cycle":1.00}]}
2017-11-15 19:17:46 1510791466.235513: {"class":"WATCH","enable":true,"json":false,"nmea":true,"raw":0,"scaled":false,"timing":false,"split24":false,"pps":false}
2017-11-15 19:17:46 1510791466.419187: $GPZDA,001745.00,16,11,2017,00,00*62
2017-11-15 19:17:46 1510791466.419361: $GPGGA,001745,3946.9600,N,08404.9499,W,1,06,1.40,274.37,M,-33.324,M,,*7B
2017-11-15 19:17:46 1510791466.419445: $GPRMC,001745,A,3946.9600,N,08404.9499,W,0.2422,273.794,161117,,*31
2017-11-15 19:17:46 1510791466.419502: $GPGSA,A,3,32,14,22,26,31,3,,,,,,,3.4,1.4,2.9*0A
2017-11-15 19:17:47 1510791467.328832: $GPZDA,001746.00,16,11,2017,00,00*61
2017-11-15 19:17:47 1510791467.329007: $GPGGA,001746,3946.9600,N,08404.9499,W,1,06,1.40,274.37,M,-33.324,M,,*78
2017-11-15 19:17:47 1510791467.329070: $GPRMC,001746,A,3946.9600,N,08404.9499,W,0.1567,9.201,161117,,*37
2017-11-15 19:17:47 1510791467.329125: $GPGSA,A,3,32,14,22,26,31,3,,,,,,,3.4,1.4,2.9*0A
2017-11-15 19:17:48 1510791468.680854: $GPGSV,3,1,12,32,41,102,20,14,59,084,23,22,49,280,23,26,46,175,23*7B
2017-11-15 19:17:48 1510791468.681035: $GPGSV,3,2,12,31,72,013,19,25,22,042,00,03,36,304,23,16,16,190,00*7F
2017-11-15 19:17:48 1510791468.681099: $GPGSV,3,3,12,01,09,256,00,29,09,076,00,23,07,298,00,135,23,238,00*4A
2017-11-15 19:17:48 1510791468.794296: $GPZDA,001747.00,16,11,2017,00,00*60
2017-11-15 19:17:48 1510791468.794480: $GPGGA,001747,3946.9600,N,08404.9499,W,1,06,1.40,274.37,M,-33.324,M,,*79
2017-11-15 19:17:48 1510791468.794547: $GPRMC,001747,A,3946.9600,N,08404.9499,W,0.3423,4.197,161117,,*34
2017-11-15 19:17:48 1510791468.794606: $GPGSA,A,3,32,14,22,26,31,3,,,,,,,3.4,1.4,2.9*0A
2017-11-15 19:17:49 1510791469.346313: $GPZDA,001748.00,16,11,2017,00,00*6F
2017-11-15 19:17:49 1510791469.346485: $GPGGA,001748,3946.9600,N,08404.9499,W,1,06,1.40,274.37,M,-33.324,M,,*76
2017-11-15 19:17:49 1510791469.346553: $GPRMC,001748,A,3946.9600,N,08404.9499,W,0.8011,299.090,161117,,*35
2017-11-15 19:17:49 1510791469.346612: $GPGSA,A,3,32,14,22,26,31,3,,,,,,,3.4,1.4,2.9*0A
2017-11-15 19:17:50 1510791470.345944: $GPZDA,001749.00,16,11,2017,00,00*6E
2017-11-15 19:17:50 1510791470.346120: $GPGGA,001749,3946.9600,N,08404.9499,W,1,06,1.40,272.97,M,-33.324,M,,*7B
2017-11-15 19:17:50 1510791470.346186: $GPRMC,001749,A,3946.9600,N,08404.9499,W,0.5912,309.173,161117,,*37
2017-11-15 19:17:50 1510791470.346247: $GPGSA,A,3,32,14,22,26,31,3,,,,,,,3.4,1.4,2.9*0A
2017-11-15 19:17:51 1510791471.665075: $GPGSV,3,1,12,32,41,102,20,14,59,084,22,22,49,280,23,26,46,175,24*7D
2017-11-15 19:17:51 1510791471.665312: $GPGSV,3,2,12,31,72,013,18,25,22,042,00,03,36,304,23,16,16,190,00*7E
2017-11-15 19:17:51 1510791471.665380: $GPGSV,3,3,12,01,09,256,00,29,09,076,00,23,07,298,00,135,23,238,00*4A
2017-11-15 19:17:51 1510791471.778275: $GPZDA,001750.00,16,11,2017,00,00*66
2017-11-15 19:17:51 1510791471.778435: $GPGGA,001750,3946.9600,N,08404.9499,W,1,06,1.40,272.97,M,-33.324,M,,*73
2017-11-15 19:17:51 1510791471.778498: $GPRMC,001750,A,3946.9600,N,08404.9499,W,0.5951,238.684,161117,,*34
2017-11-15 19:17:51 1510791471.778559: $GPGSA,A,3,32,14,22,26,31,3,,,,,,,3.4,1.4,2.9*0A
2017-11-15 19:17:52 1510791472.345770: $GPZDA,001751.00,16,11,2017,00,00*67
2017-11-15 19:17:52 1510791472.345936: $GPGGA,001751,3946.9600,N,08404.9499,W,1,06,1.40,272.97,M,-33.324,M,,*72
2017-11-15 19:17:52 1510791472.346000: $GPRMC,001751,A,3946.9600,N,08404.9499,W,0.2422,93.794,161117,,*08
2017-11-15 19:17:52 1510791472.346060: $GPGSA,A,3,32,14,22,26,31,3,,,,,,,3.4,1.4,2.9*0A
2017-11-15 19:17:53 1510791473.345396: $GPZDA,001752.00,16,11,2017,00,00*64
2017-11-15 19:17:53 1510791473.345564: $GPGGA,001752,3946.9595,N,08404.9499,W,1,06,1.40,272.33,M,-33.324,M,,*70
2017-11-15 19:17:53 1510791473.345687: $GPRMC,001752,A,3946.9595,N,08404.9499,W,0.4179,148.778,161117,,*3C
2017-11-15 19:17:53 1510791473.345747: $GPGSA,A,3,32,14,22,26,31,3,,,,,,,3.4,1.4,2.9*0A
2017-11-15 19:17:54 1510791474.682221: $GPGSV,3,1,12,32,41,102,20,14,59,084,22,22,49,280,23,26,46,175,24*7D
2017-11-15 19:17:54 1510791474.682415: $GPGSV,3,2,12,31,72,013,18,25,22,042,00,03,36,304,23,16,16,190,00*7E
2017-11-15 19:17:54 1510791474.682483: $GPGSV,3,3,12,01,09,256,00,29,09,076,00,23,07,298,00,135,23,238,00*4A
2017-11-15 19:17:54 1510791474.795765: $GPZDA,001753.00,16,11,2017,00,00*65
2017-11-15 19:17:54 1510791474.795929: $GPGGA,001753,3946.9595,N,08404.9499,W,1,06,1.40,272.33,M,-33.324,M,,*71
2017-11-15 19:17:54 1510791474.795993: $GPRMC,001753,A,3946.9595,N,08404.9499,W,0.5287,182.716,161117,,*30
2017-11-15 19:17:54 1510791474.796051: $GPGSA,A,3,32,14,22,26,31,3,,,,,,,3.4,1.4,2.9*0A
2017-11-15 19:17:55 1510791475.346277: $GPZDA,001754.00,16,11,2017,00,00*62
2017-11-15 19:17:55 1510791475.346443: $GPGGA,001754,3946.9591,N,08404.9492,W,1,06,1.40,271.77,M,-33.324,M,,*7A
2017-11-15 19:17:55 1510791475.346507: $GPRMC,001754,A,3946.9591,N,08404.9492,W,0.7246,164.668,161117,,*37
2017-11-15 19:17:55 1510791475.346566: $GPGSA,A,3,32,14,22,26,31,3,,,,,,,3.4,1.4,2.9*0A
