2017-12-01 14:23:08 1512156188.757787: {"class":"VERSION","release":"3.16","rev":"3.16-4","proto_major":3,"proto_minor":11}
2017-12-01 14:23:08 1512156188.758215: {"class":"DEVICES","devices":[{"class":"DEVICE","path":"/dev/ttyUSB0","driver":"SiRF","subtype":"9\u0006GSD4e_4.1.2-P1_RPATCH.05-F-GPS-4R-1510281 11/03/2015 307","activated":"2017-12-01T19:23:08.665Z","flags":1,"native":1,"bps":4800,"parity":"N","stopbits":1,"cycle":1.00}]}
2017-12-01 14:23:08 1512156188.758328: {"class":"WATCH","enable":true,"json":false,"nmea":true,"raw":0,"scaled":false,"timing":false,"split24":false,"pps":false}
2017-12-01 14:23:09 1512156189.351239: $GPZDA,192310.00,01,12,2017,00,00*68
2017-12-01 14:23:09 1512156189.351460: $GPGGA,192310,3946.9589,N,08404.9866,W,2,12,0.80,311.32,M,-33.324,M,,*76
2017-12-01 14:23:09 1512156189.351532: $GPRMC,192310,A,3946.9589,N,08404.9866,W,0.0000,0.000,011217,,*3F
2017-12-01 14:23:09 1512156189.351594: $GPGSA,A,3,10,12,14,15,18,21,24,27,32,8,20,138,2.0,0.8,1.5*37
2017-12-01 14:23:10 1512156190.685522: $GPGSV,3,1,12,10,69,331,49,12,09,108,22,14,29,253,40,15,11,066,32*72
2017-12-01 14:23:10 1512156190.685706: $GPGSV,3,2,12,18,70,093,45,21,29,178,45,24,45,058,49,27,06,259,33*73
2017-12-01 14:23:10 1512156190.685773: $GPGSV,3,3,12,32,46,265,45,08,06,294,35,20,09,118,31,138,38,213,46*4C
2017-12-01 14:23:10 1512156190.799297: $GPZDA,192311.00,01,12,2017,00,00*69
2017-12-01 14:23:10 1512156190.799592: $GPGGA,192311,3946.9589,N,08404.9866,W,2,12,0.80,311.32,M,-33.324,M,,*77
2017-12-01 14:23:10 1512156190.799736: $GPRMC,192311,A,3946.9589,N,08404.9866,W,0.0000,0.000,011217,,*3E
2017-12-01 14:23:10 1512156190.799869: $GPGSA,A,3,10,12,14,15,18,21,24,27,32,8,20,138,2.0,0.8,1.5*37
2017-12-01 14:23:11 1512156191.351292: $GPZDA,192312.00,01,12,2017,00,00*6A
2017-12-01 14:23:11 1512156191.351507: $GPGGA,192312,3946.9589,N,08404.9866,W,2,12,0.80,311.32,M,-33.324,M,,*74
2017-12-01 14:23:11 1512156191.351590: $GPRMC,192312,A,3946.9589,N,08404.9866,W,0.0000,0.000,011217,,*3D
2017-12-01 14:23:11 1512156191.351653: $GPGSA,A,3,10,12,14,15,18,21,24,27,32,8,20,138,2.0,0.8,1.5*37
2017-12-01 14:23:12 1512156192.349664: $GPZDA,192313.00,01,12,2017,00,00*6B
2017-12-01 14:23:12 1512156192.349860: $GPGGA,192313,3946.9589,N,08404.9866,W,2,12,0.80,311.32,M,-33.324,M,,*75
2017-12-01 14:23:12 1512156192.349928: $GPRMC,192313,A,3946.9589,N,08404.9866,W,0.0000,0.000,011217,,*3C
2017-12-01 14:23:12 1512156192.350008: $GPGSA,A,3,10,12,14,15,18,21,24,27,32,8,20,138,2.0,0.8,1.5*37
2017-12-01 14:23:13 1512156193.685211: $GPGSV,3,1,12,10,69,331,49,12,09,108,22,14,29,253,40,15,11,066,32*72
2017-12-01 14:23:13 1512156193.690908: $GPGSV,3,2,12,18,70,093,45,21,29,178,45,24,45,058,49,27,06,259,33*73
2017-12-01 14:23:13 1512156193.691185: $GPGSV,3,3,12,32,46,265,45,08,06,294,35,20,09,118,31,138,38,213,46*4C
2017-12-01 14:23:13 1512156193.798503: $GPZDA,192314.00,01,12,2017,00,00*6C
2017-12-01 14:23:13 1512156193.798676: $GPGGA,192314,3946.9589,N,08404.9866,W,2,12,0.80,311.32,M,-33.324,M,,*72
2017-12-01 14:23:13 1512156193.798742: $GPRMC,192314,A,3946.9589,N,08404.9866,W,0.0000,0.000,011217,,*3B
2017-12-01 14:23:13 1512156193.798804: $GPGSA,A,3,10,12,14,15,18,21,24,27,32,8,20,138,2.0,0.8,1.5*37
2017-12-01 14:23:14 1512156194.425173: $GPZDA,192315.00,01,12,2017,00,00*6D
2017-12-01 14:23:14 1512156194.425351: $GPGGA,192315,3946.9589,N,08404.9866,W,2,12,0.80,311.32,M,-33.324,M,,*73
2017-12-01 14:23:14 1512156194.425420: $GPRMC,192315,A,3946.9589,N,08404.9866,W,0.0000,0.000,011217,,*3A
2017-12-01 14:23:14 1512156194.425481: $GPGSA,A,3,10,12,14,15,18,21,24,27,32,8,20,138,2.0,0.8,1.5*37
2017-12-01 14:23:15 1512156195.355107: $GPZDA,192316.00,01,12,2017,00,00*6E
2017-12-01 14:23:15 1512156195.355278: $GPGGA,192316,3946.9589,N,08404.9866,W,2,12,0.80,311.32,M,-33.324,M,,*70
2017-12-01 14:23:15 1512156195.355345: $GPRMC,192316,A,3946.9589,N,08404.9866,W,0.0000,0.000,011217,,*39
2017-12-01 14:23:15 1512156195.355405: $GPGSA,A,3,10,12,14,15,18,21,24,27,32,8,20,138,2.0,0.8,1.5*37
2017-12-01 14:23:16 1512156196.691808: $GPGSV,3,1,12,10,69,331,49,12,09,108,23,14,29,253,40,15,11,066,33*72
2017-12-01 14:23:16 1512156196.692043: $GPGSV,3,2,12,18,70,093,45,21,29,178,45,24,45,058,49,27,06,259,33*73
2017-12-01 14:23:16 1512156196.692112: $GPGSV,3,3,12,32,46,265,45,08,06,294,33,20,09,118,31,138,38,213,46*4A
2017-12-01 14:23:16 1512156196.805145: $GPZDA,192317.00,01,12,2017,00,00*6F
2017-12-01 14:23:16 1512156196.805322: $GPGGA,192317,3946.9585,N,08404.9867,W,2,12,0.80,312.09,M,-33.324,M,,*77
2017-12-01 14:23:16 1512156196.805389: $GPRMC,192317,A,3946.9585,N,08404.9867,W,0.0000,0.000,011217,,*35
2017-12-01 14:23:16 1512156196.805450: $GPGSA,A,3,10,12,14,15,18,21,24,27,32,8,20,138,2.0,0.8,1.5*37
2017-12-01 14:23:17 1512156197.355139: $GPZDA,192318.00,01,12,2017,00,00*60
2017-12-01 14:23:17 1512156197.355297: $GPGGA,192318,3946.9585,N,08404.9867,W,2,12,0.80,312.09,M,-33.324,M,,*78
2017-12-01 14:23:17 1512156197.355364: $GPRMC,192318,A,3946.9585,N,08404.9867,W,0.0000,0.000,011217,,*3A
2017-12-01 14:23:17 1512156197.355425: $GPGSA,A,3,10,12,14,15,18,21,24,27,32,8,20,138,2.0,0.8,1.5*37
2017-12-01 14:23:18 1512156198.354527: $GPZDA,192319.00,01,12,2017,00,00*61
2017-12-01 14:23:18 1512156198.354719: $GPGGA,192319,3946.9585,N,08404.9867,W,2,12,0.80,312.09,M,-33.324,M,,*79
2017-12-01 14:23:18 1512156198.354788: $GPRMC,192319,A,3946.9585,N,08404.9867,W,0.0000,0.000,011217,,*3B
2017-12-01 14:23:18 1512156198.354850: $GPGSA,A,3,10,12,14,15,18,21,24,27,32,8,20,138,2.0,0.8,1.5*37
2017-12-01 14:23:19 1512156199.693412: $GPGSV,3,1,12,10,69,331,49,12,09,108,23,14,29,253,40,15,11,066,33*72
2017-12-01 14:23:19 1512156199.693571: $GPGSV,3,2,12,18,70,093,45,21,29,178,44,24,45,058,49,27,06,259,33*72
2017-12-01 14:23:19 1512156199.693637: $GPGSV,3,3,12,32,46,265,45,08,06,294,35,20,09,118,25,138,38,213,46*49
2017-12-01 14:23:19 1512156199.806862: $GPZDA,192320.00,01,12,2017,00,00*6B
2017-12-01 14:23:19 1512156199.807041: $GPGGA,192320,3946.9588,N,08404.9872,W,2,12,0.80,309.84,M,-33.324,M,,*75
2017-12-01 14:23:19 1512156199.807111: $GPRMC,192320,A,3946.9588,N,08404.9872,W,0.0000,0.000,011217,,*38
2017-12-01 14:23:19 1512156199.807172: $GPGSA,A,3,10,12,14,15,18,21,24,27,32,8,20,138,2.0,0.8,1.5*37
2017-12-01 14:23:20 1512156200.355234: $GPZDA,192321.00,01,12,2017,00,00*6A
2017-12-01 14:23:20 1512156200.355414: $GPGGA,192321,3946.9588,N,08404.9865,W,2,12,0.80,309.92,M,-33.324,M,,*75
2017-12-01 14:23:20 1512156200.355482: $GPRMC,192321,A,3946.9588,N,08404.9865,W,0.0000,0.000,011217,,*3F
2017-12-01 14:23:20 1512156200.355543: $GPGSA,A,3,10,12,14,15,18,21,24,27,32,8,20,138,2.0,0.8,1.5*37
2017-12-01 14:23:21 1512156201.353576: $GPZDA,192322.00,01,12,2017,00,00*69
2017-12-01 14:23:21 1512156201.353745: $GPGGA,192322,3946.9588,N,08404.9865,W,2,12,0.80,309.92,M,-33.324,M,,*76
2017-12-01 14:23:21 1512156201.353811: $GPRMC,192322,A,3946.9588,N,08404.9865,W,0.0000,0.000,011217,,*3C
2017-12-01 14:23:21 1512156201.353872: $GPGSA,A,3,10,12,14,15,18,21,24,27,32,8,20,138,2.0,0.8,1.5*37
2017-12-01 14:23:22 1512156202.689284: $GPGSV,3,1,12,10,69,331,48,12,09,108,23,14,29,253,40,15,11,066,33*73
2017-12-01 14:23:22 1512156202.689467: $GPGSV,3,2,12,18,70,093,45,21,29,178,44,24,45,058,49,27,06,259,32*73
2017-12-01 14:23:22 1512156202.689535: $GPGSV,3,3,12,32,46,265,44,08,06,294,36,20,09,118,27,138,38,213,47*48
2017-12-01 14:23:22 1512156202.802755: $GPZDA,192323.00,01,12,2017,00,00*68
2017-12-01 14:23:22 1512156202.802900: $GPGGA,192323,3946.9588,N,08404.9865,W,2,12,0.80,309.92,M,-33.324,M,,*77
2017-12-01 14:23:22 1512156202.802966: $GPRMC,192323,A,3946.9588,N,08404.9865,W,0.0000,0.000,011217,,*3D
2017-12-01 14:23:22 1512156202.803027: $GPGSA,A,3,10,12,14,15,18,21,24,27,32,8,20,138,2.0,0.8,1.5*37
2017-12-01 14:23:23 1512156203.356192: $GPZDA,192324.00,01,12,2017,00,00*6F
2017-12-01 14:23:23 1512156203.356354: $GPGGA,192324,3946.9585,N,08404.9866,W,2,12,0.80,310.68,M,-33.324,M,,*73
2017-12-01 14:23:23 1512156203.356422: $GPRMC,192324,A,3946.9585,N,08404.9866,W,0.0000,0.000,011217,,*34
2017-12-01 14:23:23 1512156203.356482: $GPGSA,A,3,10,12,14,15,18,21,24,27,32,8,20,138,2.0,0.8,1.5*37
2017-12-01 14:23:24 1512156204.350265: $GPZDA,192325.00,01,12,2017,00,00*6E
2017-12-01 14:23:24 1512156204.350446: $GPGGA,192325,3946.9585,N,08404.9866,W,2,12,0.80,310.68,M,-33.324,M,,*72
2017-12-01 14:23:24 1512156204.350535: $GPRMC,192325,A,3946.9585,N,08404.9866,W,0.0000,0.000,011217,,*35
2017-12-01 14:23:24 1512156204.350724: $GPGSA,A,3,10,12,14,15,18,21,24,27,32,8,20,138,2.0,0.8,1.5*37
2017-12-01 14:23:25 1512156205.692128: $GPGSV,3,1,12,10,69,331,48,12,09,108,24,14,29,253,41,15,11,066,33*75
2017-12-01 14:23:25 1512156205.692290: $GPGSV,3,2,12,18,70,093,45,21,29,178,45,24,45,058,49,27,06,259,32*72
2017-12-01 14:23:25 1512156205.692357: $GPGSV,3,3,12,32,46,265,44,08,06,294,35,20,09,118,27,138,38,213,46*4A
2017-12-01 14:23:25 1512156205.805593: $GPZDA,192326.00,01,12,2017,00,00*6D
2017-12-01 14:23:25 1512156205.805768: $GPGGA,192326,3946.9585,N,08404.9866,W,2,12,0.80,310.68,M,-33.324,M,,*71
2017-12-01 14:23:25 1512156205.805844: $GPRMC,192326,A,3946.9585,N,08404.9866,W,0.0000,0.000,011217,,*36
2017-12-01 14:23:25 1512156205.805905: $GPGSA,A,3,10,12,14,15,18,21,24,27,32,8,20,138,2.0,0.8,1.5*37
2017-12-01 14:23:26 1512156206.349457: $GPZDA,192327.00,01,12,2017,00,00*6C
2017-12-01 14:23:26 1512156206.349627: $GPGGA,192327,3946.9580,N,08404.9866,W,2,12,0.80,310.04,M,-33.324,M,,*7F
2017-12-01 14:23:26 1512156206.349696: $GPRMC,192327,A,3946.9580,N,08404.9866,W,0.0000,0.000,011217,,*32
2017-12-01 14:23:26 1512156206.349758: $GPGSA,A,3,10,12,14,15,18,21,24,27,32,8,20,138,2.0,0.8,1.5*37
2017-12-01 14:23:27 1512156207.356349: $GPZDA,192328.00,01,12,2017,00,00*63
2017-12-01 14:23:27 1512156207.356518: $GPGGA,192328,3946.9580,N,08404.9866,W,2,12,0.80,310.04,M,-33.324,M,,*70
2017-12-01 14:23:27 1512156207.356585: $GPRMC,192328,A,3946.9580,N,08404.9866,W,0.0000,0.000,011217,,*3D
2017-12-01 14:23:27 1512156207.356647: $GPGSA,A,3,10,12,14,15,18,21,24,27,32,8,20,138,2.0,0.8,1.5*37
2017-12-01 14:23:28 1512156208.691821: $GPGSV,3,1,12,10,69,331,48,12,09,108,24,14,29,253,41,15,11,066,33*75
2017-12-01 14:23:28 1512156208.692018: $GPGSV,3,2,12,18,70,093,45,21,29,178,45,24,45,058,50,27,06,259,31*79
2017-12-01 14:23:28 1512156208.692084: $GPGSV,3,3,12,32,46,265,44,08,06,294,29,20,09,118,20,138,38,213,46*40
