2017-11-16 13:16:43 1510856203.186713: {"class":"VERSION","release":"3.17","rev":"3.17","proto_major":3,"proto_minor":12}
2017-11-16 13:16:43 1510856203.187179: {"class":"DEVICES","devices":[{"class":"DEVICE","path":"/dev/ttyUSB0","driver":"SiRF","subtype":"9\u0006GSD4e_4.1.2-P1_RPATCH.05-F-GPS-4R-1510281 11/03/2015 307","activated":"2017-11-16T18:16:43.123Z","flags":1,"native":1,"bps":4800,"parity":"N","stopbits":1,"cycle":1.00}]}
2017-11-16 13:16:43 1510856203.187328: {"class":"WATCH","enable":true,"json":false,"nmea":true,"raw":0,"scaled":false,"timing":false,"split24":false,"pps":false}
2017-11-16 13:16:43 1510856203.301434: $GPZDA,181642.00,16,11,2017,00,00*6D
2017-11-16 13:16:43 1510856203.301581: $GPGGA,181642,3946.9589,N,08404.9845,W,2,11,0.80,298.72,M,-33.324,M,,*70
2017-11-16 13:16:43 1510856203.301642: $GPRMC,181642,A,3946.9589,N,08404.9845,W,0.0000,0.000,161117,,*3B
2017-11-16 13:16:43 1510856203.301698: $GPGSA,A,3,10,13,15,18,20,21,24,27,5,29,138,,1.6,0.8,1.3*37
2017-11-16 13:16:44 1510856204.312604: $GPZDA,181643.00,16,11,2017,00,00*6C
2017-11-16 13:16:44 1510856204.312764: $GPGGA,181643,3946.9589,N,08404.9845,W,2,11,0.80,298.72,M,-33.324,M,,*71
2017-11-16 13:16:44 1510856204.312825: $GPRMC,181643,A,3946.9589,N,08404.9845,W,0.0000,0.000,161117,,*3A
2017-11-16 13:16:44 1510856204.312881: $GPGSA,A,3,10,13,15,18,20,21,24,27,5,29,138,,1.6,0.8,1.3*37
2017-11-16 13:16:45 1510856205.634878: $GPGSV,3,1,11,10,22,282,43,13,30,045,48,15,62,052,51,18,53,298,44*76
2017-11-16 13:16:46 1510856206.234389: $GPGSV,3,2,11,20,52,070,46,21,77,276,47,24,32,139,40,27,16,313,42*76
2017-11-16 13:16:46 1510856206.234521: $GPGSV,3,3,11,05,05,087,12,29,10,189,32,138,38,213,46*7D
2017-11-16 13:16:46 1510856206.234613: $GPZDA,181644.00,16,11,2017,00,00*6B
2017-11-16 13:16:46 1510856206.234666: $GPGGA,181644,3946.9589,N,08404.9845,W,2,11,0.80,298.72,M,-33.324,M,,*76
2017-11-16 13:16:46 1510856206.234722: $GPRMC,181644,A,3946.9589,N,08404.9845,W,0.0000,0.000,161117,,*3D
2017-11-16 13:16:46 1510856206.234776: $GPGSA,A,3,10,13,15,18,20,21,24,27,5,29,138,,1.6,0.8,1.3*37
2017-11-16 13:16:46 1510856206.305357: $GPZDA,181645.00,16,11,2017,00,00*6A
2017-11-16 13:16:46 1510856206.305514: $GPGGA,181645,3946.9589,N,08404.9845,W,2,11,0.80,298.72,M,-33.324,M,,*77
2017-11-16 13:16:46 1510856206.305612: $GPRMC,181645,A,3946.9589,N,08404.9845,W,0.0000,0.000,161117,,*3C
2017-11-16 13:16:46 1510856206.305670: $GPGSA,A,3,10,13,15,18,20,21,24,27,5,29,138,,1.6,0.8,1.3*37
2017-11-16 13:16:47 1510856207.318652: $GPZDA,181646.00,16,11,2017,00,00*69
2017-11-16 13:16:47 1510856207.318829: $GPGGA,181646,3946.9589,N,08404.9845,W,2,11,0.80,298.72,M,-33.324,M,,*74
2017-11-16 13:16:47 1510856207.318892: $GPRMC,181646,A,3946.9589,N,08404.9845,W,0.0000,0.000,161117,,*3F
2017-11-16 13:16:47 1510856207.318948: $GPGSA,A,3,10,13,15,18,20,21,24,27,5,29,138,,1.6,0.8,1.3*37
2017-11-16 13:16:48 1510856208.653101: $GPGSV,3,1,11,10,22,282,43,13,30,045,48,15,62,052,51,18,53,298,44*76
2017-11-16 13:16:48 1510856208.653254: $GPGSV,3,2,11,20,52,070,46,21,77,276,47,24,32,139,40,27,16,313,42*76
2017-11-16 13:16:48 1510856208.653314: $GPGSV,3,3,11,05,05,087,11,29,10,189,33,138,38,213,44*7D
2017-11-16 13:16:48 1510856208.766444: $GPZDA,181647.00,16,11,2017,00,00*68
2017-11-16 13:16:48 1510856208.766603: $GPGGA,181647,3946.9589,N,08404.9845,W,2,11,0.80,298.72,M,-33.324,M,,*75
2017-11-16 13:16:48 1510856208.766664: $GPRMC,181647,A,3946.9589,N,08404.9845,W,0.0000,0.000,161117,,*3E
2017-11-16 13:16:48 1510856208.766721: $GPGSA,A,3,10,13,15,18,20,21,24,27,5,29,138,,1.6,0.8,1.3*37
2017-11-16 13:16:49 1510856209.299801: $GPZDA,181648.00,16,11,2017,00,00*67
2017-11-16 13:16:49 1510856209.299996: $GPGGA,181648,3946.9589,N,08404.9845,W,2,11,0.80,298.72,M,-33.324,M,,*7A
2017-11-16 13:16:49 1510856209.300059: $GPRMC,181648,A,3946.9589,N,08404.9845,W,0.0000,0.000,161117,,*31
2017-11-16 13:16:49 1510856209.300142: $GPGSA,A,3,10,13,15,18,20,21,24,27,5,29,138,,1.6,0.8,1.3*37
2017-11-16 13:16:50 1510856210.311418: $GPZDA,181649.00,16,11,2017,00,00*66
2017-11-16 13:16:50 1510856210.311595: $GPGGA,181649,3946.9589,N,08404.9845,W,2,11,0.80,298.72,M,-33.324,M,,*7B
2017-11-16 13:16:50 1510856210.311707: $GPRMC,181649,A,3946.9589,N,08404.9845,W,0.0000,0.000,161117,,*30
2017-11-16 13:16:50 1510856210.311764: $GPGSA,A,3,10,13,15,18,20,21,24,27,5,29,138,,1.6,0.8,1.3*37
2017-11-16 13:16:51 1510856211.653337: $GPGSV,3,1,11,10,22,282,43,13,30,045,48,15,62,052,51,18,53,298,44*76
2017-11-16 13:16:51 1510856211.653495: $GPGSV,3,2,11,20,52,070,46,21,77,276,47,24,32,139,40,27,16,313,42*76
2017-11-16 13:16:51 1510856211.653554: $GPGSV,3,3,11,05,05,087,14,29,10,189,33,138,38,213,44*78
2017-11-16 13:16:51 1510856211.765435: $GPZDA,181650.00,16,11,2017,00,00*6E
2017-11-16 13:16:51 1510856211.765595: $GPGGA,181650,3946.9589,N,08404.9845,W,2,11,0.80,298.72,M,-33.324,M,,*73
2017-11-16 13:16:51 1510856211.765656: $GPRMC,181650,A,3946.9589,N,08404.9845,W,0.0000,0.000,161117,,*38
2017-11-16 13:16:51 1510856211.765711: $GPGSA,A,3,10,13,15,18,20,21,24,27,5,29,138,,1.6,0.8,1.3*37
2017-11-16 13:16:52 1510856212.316273: $GPZDA,181651.00,16,11,2017,00,00*6F
2017-11-16 13:16:52 1510856212.316436: $GPGGA,181651,3946.9589,N,08404.9845,W,2,11,0.80,298.72,M,-33.324,M,,*72
2017-11-16 13:16:52 1510856212.316498: $GPRMC,181651,A,3946.9589,N,08404.9845,W,0.0000,0.000,161117,,*39
2017-11-16 13:16:52 1510856212.316554: $GPGSA,A,3,10,13,15,18,20,21,24,27,5,29,138,,1.6,0.8,1.3*37
