2017-12-01 17:57:17 1512169037.277032: {"class":"VERSION","release":"3.16","rev":"3.16-4","proto_major":3,"proto_minor":11}
2017-12-01 17:57:17 1512169037.277447: {"class":"DEVICES","devices":[{"class":"DEVICE","path":"/dev/ttyUSB0","driver":"SiRF","subtype":"9\u0006GSD4e_4.1.2-P1_RPATCH.05-F-GPS-4R-1510281 11/03/2015 307","activated":"2017-12-01T22:57:17.263Z","flags":1,"native":1,"bps":4800,"parity":"N","stopbits":1,"cycle":1.00}]}
2017-12-01 17:57:17 1512169037.277569: {"class":"WATCH","enable":true,"json":false,"nmea":true,"raw":0,"scaled":false,"timing":false,"split24":false,"pps":false}
2017-12-01 17:57:17 1512169037.376632: $GPZDA,225718.00,01,12,2017,00,00*6B
2017-12-01 17:57:17 1512169037.376784: $GPGGA,225718,3946.9736,N,08404.9846,W,2,12,0.80,299.00,M,-33.325,M,,*70
2017-12-01 17:57:17 1512169037.376856: $GPRMC,225718,A,3946.9736,N,08404.9846,W,0.0000,0.000,011217,,*38
2017-12-01 17:57:17 1512169037.376916: $GPGSA,A,3,1,3,10,14,16,22,23,25,26,31,32,138,2.0,0.8,1.5*06
2017-12-01 17:57:18 1512169038.708169: $GPGSV,3,1,12,01,12,262,36,03,32,309,47,10,08,159,39,14,63,072,41*7C
2017-12-01 17:57:18 1512169038.708356: $GPGSV,3,2,12,16,11,189,41,22,47,288,46,29,06,082,22,25,27,046,41*78
2017-12-01 17:57:18 1512169038.708422: $GPGSV,3,3,12,26,40,175,45,31,76,358,47,32,45,096,44,138,38,213,45*49
2017-12-01 17:57:18 1512169038.821620: $GPZDA,225719.00,01,12,2017,00,00*6A
2017-12-01 17:57:18 1512169038.821786: $GPGGA,225719,3946.9736,N,08404.9846,W,2,12,0.80,299.00,M,-33.325,M,,*71
2017-12-01 17:57:18 1512169038.821858: $GPRMC,225719,A,3946.9736,N,08404.9846,W,0.0000,0.000,011217,,*39
2017-12-01 17:57:18 1512169038.821918: $GPGSA,A,3,1,3,10,14,16,22,29,25,26,31,32,138,2.0,0.8,1.5*0C
2017-12-01 17:57:19 1512169039.374944: $GPZDA,225720.00,01,12,2017,00,00*60
2017-12-01 17:57:19 1512169039.375114: $GPGGA,225720,3946.9736,N,08404.9846,W,2,12,0.80,299.00,M,-33.325,M,,*7B
2017-12-01 17:57:19 1512169039.375184: $GPRMC,225720,A,3946.9736,N,08404.9846,W,0.0000,0.000,011217,,*33
2017-12-01 17:57:19 1512169039.375245: $GPGSA,A,3,1,3,10,14,16,22,29,25,26,31,32,138,2.0,0.8,1.5*0C
2017-12-01 17:57:20 1512169040.377104: $GPZDA,225721.00,01,12,2017,00,00*61
2017-12-01 17:57:20 1512169040.377309: $GPGGA,225721,3946.9736,N,08404.9846,W,2,12,0.80,299.00,M,-33.325,M,,*7A
2017-12-01 17:57:20 1512169040.377384: $GPRMC,225721,A,3946.9736,N,08404.9846,W,0.0000,0.000,011217,,*32
2017-12-01 17:57:20 1512169040.377449: $GPGSA,A,3,1,3,10,14,16,22,29,25,26,31,32,138,2.0,0.8,1.5*0C
2017-12-01 17:57:21 1512169041.740251: $GPGSV,3,1,12,01,12,262,36,03,32,309,48,10,08,159,39,14,63,072,41*73
2017-12-01 17:57:21 1512169041.740431: $GPGSV,3,2,12,16,11,189,40,22,47,288,45,29,06,082,22,25,27,046,41*7A
2017-12-01 17:57:21 1512169041.740498: $GPGSV,3,3,12,26,40,175,44,31,76,358,47,32,45,096,45,138,38,213,45*49
2017-12-01 17:57:21 1512169041.853842: $GPZDA,225722.00,01,12,2017,00,00*62
2017-12-01 17:57:21 1512169041.853989: $GPGGA,225722,3946.9736,N,08404.9846,W,2,12,0.80,299.00,M,-33.325,M,,*79
2017-12-01 17:57:21 1512169041.854057: $GPRMC,225722,A,3946.9736,N,08404.9846,W,0.0000,0.000,011217,,*31
2017-12-01 17:57:21 1512169041.854117: $GPGSA,A,3,1,3,10,14,16,22,29,25,26,31,32,138,2.0,0.8,1.5*0C
2017-12-01 17:57:22 1512169042.379864: $GPZDA,225723.00,01,12,2017,00,00*63
2017-12-01 17:57:22 1512169042.380038: $GPGGA,225723,3946.9736,N,08404.9846,W,2,12,0.80,299.00,M,-33.325,M,,*78
2017-12-01 17:57:22 1512169042.380105: $GPRMC,225723,A,3946.9736,N,08404.9846,W,0.0000,0.000,011217,,*30
2017-12-01 17:57:22 1512169042.380166: $GPGSA,A,3,1,3,10,14,16,22,29,25,26,31,32,138,2.0,0.8,1.5*0C
2017-12-01 17:57:23 1512169043.405193: $GPZDA,225724.00,01,12,2017,00,00*64
2017-12-01 17:57:23 1512169043.405365: $GPGGA,225724,3946.9736,N,08404.9846,W,2,12,0.80,299.00,M,-33.325,M,,*7F
2017-12-01 17:57:23 1512169043.405433: $GPRMC,225724,A,3946.9736,N,08404.9846,W,0.0000,0.000,011217,,*37
2017-12-01 17:57:23 1512169043.405494: $GPGSA,A,3,1,3,10,14,16,22,29,25,26,31,32,138,2.0,0.8,1.5*0C
2017-12-01 17:57:24 1512169044.733104: $GPGSV,3,1,12,01,12,262,37,03,32,309,48,10,08,159,39,14,63,072,41*72
2017-12-01 17:57:24 1512169044.733337: $GPGSV,3,2,12,16,11,189,40,22,47,288,45,29,06,082,22,25,27,046,42*79
2017-12-01 17:57:24 1512169044.733411: $GPGSV,3,3,12,26,40,175,45,31,76,358,46,32,45,096,45,138,38,213,45*49
2017-12-01 17:57:24 1512169044.846475: $GPZDA,225725.00,01,12,2017,00,00*65
2017-12-01 17:57:24 1512169044.846660: $GPGGA,225725,3946.9736,N,08404.9846,W,2,12,0.80,299.00,M,-33.325,M,,*7E
2017-12-01 17:57:24 1512169044.846727: $GPRMC,225725,A,3946.9736,N,08404.9846,W,0.0000,0.000,011217,,*36
2017-12-01 17:57:24 1512169044.846794: $GPGSA,A,3,1,3,10,14,16,22,29,25,26,31,32,138,2.0,0.8,1.5*0C
2017-12-01 17:57:25 1512169045.406340: $GPZDA,225726.00,01,12,2017,00,00*66
2017-12-01 17:57:25 1512169045.406511: $GPGGA,225726,3946.9736,N,08404.9846,W,2,12,0.80,299.00,M,-33.325,M,,*7D
2017-12-01 17:57:25 1512169045.406579: $GPRMC,225726,A,3946.9736,N,08404.9846,W,0.0000,0.000,011217,,*35
2017-12-01 17:57:25 1512169045.406645: $GPGSA,A,3,1,3,10,14,16,22,29,25,26,31,32,138,2.0,0.8,1.5*0C
2017-12-01 17:57:26 1512169046.405337: $GPZDA,225727.00,01,12,2017,00,00*67
2017-12-01 17:57:26 1512169046.405522: $GPGGA,225727,3946.9736,N,08404.9846,W,2,12,0.80,299.00,M,-33.325,M,,*7C
2017-12-01 17:57:26 1512169046.405591: $GPRMC,225727,A,3946.9736,N,08404.9846,W,0.0000,0.000,011217,,*34
2017-12-01 17:57:26 1512169046.405660: $GPGSA,A,3,1,3,10,14,16,22,29,25,26,31,32,138,2.0,0.8,1.5*0C
2017-12-01 17:57:27 1512169047.715179: $GPGSV,3,1,12,01,12,262,37,03,32,309,48,10,08,159,40,14,63,072,42*7F
2017-12-01 17:57:27 1512169047.715343: $GPGSV,3,2,12,16,11,189,40,22,47,288,46,29,06,082,22,25,27,046,42*7A
2017-12-01 17:57:27 1512169047.715411: $GPGSV,3,3,12,26,40,175,45,31,76,358,47,32,45,096,44,138,38,213,45*49
2017-12-01 17:57:27 1512169047.828524: $GPZDA,225728.00,01,12,2017,00,00*68
2017-12-01 17:57:27 1512169047.828697: $GPGGA,225728,3946.9736,N,08404.9846,W,2,12,0.80,299.00,M,-33.325,M,,*73
2017-12-01 17:57:27 1512169047.828766: $GPRMC,225728,A,3946.9736,N,08404.9846,W,0.0000,0.000,011217,,*3B
2017-12-01 17:57:27 1512169047.828828: $GPGSA,A,3,1,3,10,14,16,22,29,25,26,31,32,138,2.0,0.8,1.5*0C
2017-12-01 17:57:28 1512169048.454495: $GPZDA,225729.00,01,12,2017,00,00*69
2017-12-01 17:57:28 1512169048.454685: $GPGGA,225729,3946.9736,N,08404.9846,W,2,12,0.80,299.00,M,-33.325,M,,*72
2017-12-01 17:57:28 1512169048.454758: $GPRMC,225729,A,3946.9736,N,08404.9846,W,0.0000,0.000,011217,,*3A
2017-12-01 17:57:28 1512169048.454824: $GPGSA,A,3,1,3,10,14,16,22,29,25,26,31,32,138,2.0,0.8,1.5*0C
2017-12-01 17:57:29 1512169049.404819: $GPZDA,225730.00,01,12,2017,00,00*61
2017-12-01 17:57:29 1512169049.405000: $GPGGA,225730,3946.9736,N,08404.9846,W,2,12,0.80,299.00,M,-33.325,M,,*7A
2017-12-01 17:57:29 1512169049.405068: $GPRMC,225730,A,3946.9736,N,08404.9846,W,0.0000,0.000,011217,,*32
2017-12-01 17:57:29 1512169049.405129: $GPGSA,A,3,1,3,10,14,16,22,29,25,26,31,32,138,2.0,0.8,1.5*0C
2017-12-01 17:57:30 1512169050.740582: $GPGSV,3,1,12,01,12,262,37,03,32,309,47,10,08,159,39,14,63,072,42*7E
2017-12-01 17:57:30 1512169050.740767: $GPGSV,3,2,12,16,11,189,40,22,47,288,46,29,06,082,18,25,27,046,42*73
2017-12-01 17:57:30 1512169050.740837: $GPGSV,3,3,12,26,40,175,45,31,76,358,47,32,45,096,44,138,38,213,46*4A
2017-12-01 17:57:30 1512169050.853882: $GPZDA,225731.00,01,12,2017,00,00*60
2017-12-01 17:57:30 1512169050.854047: $GPGGA,225731,3946.9736,N,08404.9846,W,2,12,0.80,299.00,M,-33.325,M,,*7B
2017-12-01 17:57:30 1512169050.854114: $GPRMC,225731,A,3946.9736,N,08404.9846,W,0.0000,0.000,011217,,*33
2017-12-01 17:57:30 1512169050.854176: $GPGSA,A,3,1,3,10,14,16,22,29,25,26,31,32,138,2.0,0.8,1.5*0C
2017-12-01 17:57:31 1512169051.381203: $GPZDA,225732.00,01,12,2017,00,00*63
2017-12-01 17:57:31 1512169051.381407: $GPGGA,225732,3946.9736,N,08404.9846,W,2,12,0.80,299.00,M,-33.325,M,,*78
2017-12-01 17:57:31 1512169051.381499: $GPRMC,225732,A,3946.9736,N,08404.9846,W,0.0000,0.000,011217,,*30
2017-12-01 17:57:31 1512169051.381566: $GPGSA,A,3,1,3,10,14,16,22,29,25,26,31,32,138,2.0,0.8,1.5*0C
2017-12-01 17:57:32 1512169052.396852: $GPZDA,225733.00,01,12,2017,00,00*62
2017-12-01 17:57:32 1512169052.397014: $GPGGA,225733,3946.9736,N,08404.9846,W,2,12,0.80,299.00,M,-33.325,M,,*79
2017-12-01 17:57:32 1512169052.397080: $GPRMC,225733,A,3946.9736,N,08404.9846,W,0.0000,0.000,011217,,*31
2017-12-01 17:57:32 1512169052.397162: $GPGSA,A,3,1,3,10,14,16,22,29,25,26,31,32,138,2.0,0.8,1.5*0C
2017-12-01 17:57:33 1512169053.714929: $GPGSV,3,1,12,01,12,262,38,03,32,309,47,10,08,159,39,14,63,072,42*71
2017-12-01 17:57:33 1512169053.715143: $GPGSV,3,2,12,16,11,189,40,22,47,288,46,29,06,082,18,25,27,046,41*70
2017-12-01 17:57:33 1512169053.715214: $GPGSV,3,3,12,26,40,175,45,31,76,358,46,32,45,096,45,138,38,213,46*4A
2017-12-01 17:57:33 1512169053.827942: $GPZDA,225734.00,01,12,2017,00,00*65
2017-12-01 17:57:33 1512169053.828101: $GPGGA,225734,3946.9736,N,08404.9846,W,2,12,0.80,299.00,M,-33.325,M,,*7E
2017-12-01 17:57:33 1512169053.828168: $GPRMC,225734,A,3946.9736,N,08404.9846,W,0.0000,0.000,011217,,*36
2017-12-01 17:57:33 1512169053.828228: $GPGSA,A,3,1,3,10,14,16,22,29,25,26,31,32,138,2.0,0.8,1.5*0C
2017-12-01 17:57:34 1512169054.403821: $GPZDA,225735.00,01,12,2017,00,00*64
2017-12-01 17:57:34 1512169054.403998: $GPGGA,225735,3946.9736,N,08404.9846,W,2,12,0.80,299.00,M,-33.325,M,,*7F
2017-12-01 17:57:34 1512169054.404066: $GPRMC,225735,A,3946.9736,N,08404.9846,W,0.0000,0.000,011217,,*37
2017-12-01 17:57:34 1512169054.404128: $GPGSA,A,3,1,3,10,14,16,22,29,25,26,31,32,138,2.0,0.8,1.5*0C
2017-12-01 17:57:35 1512169055.404819: $GPZDA,225736.00,01,12,2017,00,00*67
2017-12-01 17:57:35 1512169055.404991: $GPGGA,225736,3946.9736,N,08404.9846,W,2,12,0.80,299.00,M,-33.325,M,,*7C
2017-12-01 17:57:35 1512169055.405058: $GPRMC,225736,A,3946.9736,N,08404.9846,W,0.0000,0.000,011217,,*34
2017-12-01 17:57:35 1512169055.405118: $GPGSA,A,3,1,3,10,14,16,22,29,25,26,31,32,138,2.0,0.8,1.5*0C
2017-12-01 17:57:36 1512169056.739163: $GPGSV,3,1,12,01,12,262,38,03,32,309,47,10,08,159,39,14,63,072,42*71
2017-12-01 17:57:36 1512169056.739349: $GPGSV,3,2,12,16,11,189,40,22,47,288,46,29,06,082,19,25,27,046,41*71
2017-12-01 17:57:36 1512169056.739415: $GPGSV,3,3,12,26,40,175,46,31,76,358,47,32,45,096,44,138,38,213,45*4A
2017-12-01 17:57:36 1512169056.852693: $GPZDA,225737.00,01,12,2017,00,00*66
2017-12-01 17:57:36 1512169056.852837: $GPGGA,225737,3946.9736,N,08404.9846,W,2,12,0.80,299.00,M,-33.325,M,,*7D
2017-12-01 17:57:36 1512169056.852903: $GPRMC,225737,A,3946.9736,N,08404.9846,W,0.0000,0.000,011217,,*35
2017-12-01 17:57:36 1512169056.852963: $GPGSA,A,3,1,3,10,14,16,22,29,25,26,31,32,138,2.0,0.8,1.5*0C
