2017-12-14 12:28:00 1513272480.704051: {"class":"VERSION","release":"3.16","rev":"3.16-4","proto_major":3,"proto_minor":11}
2017-12-14 12:28:00 1513272480.704434: {"class":"DEVICES","devices":[{"class":"DEVICE","path":"/dev/ttyUSB0","driver":"SiRF","subtype":"9\u0006GSD4e_4.1.2-P1_RPATCH.05-F-GPS-4R-1510281 11/03/2015 307","activated":"2017-12-14T17:28:00.326Z","flags":1,"native":1,"bps":4800,"parity":"N","stopbits":1,"cycle":1.00}]}
2017-12-14 12:28:00 1513272480.704567: {"class":"WATCH","enable":true,"json":false,"nmea":true,"raw":0,"scaled":false,"timing":false,"split24":false,"pps":false}
2017-12-14 12:28:01 1513272481.186399: $GPZDA,172802.00,14,12,2017,00,00*6A
2017-12-14 12:28:01 1513272481.186605: $GPGGA,172802,3946.9521,N,08404.9369,W,1,06,6.40,293.49,M,-33.324,M,,*7D
2017-12-14 12:28:01 1513272481.186674: $GPRMC,172802,A,3946.9521,N,08404.9369,W,0.8054,248.645,141217,,*3B
2017-12-14 12:28:01 1513272481.186736: $GPGSA,A,3,24,10,20,21,27,18,,,,,,,6.6,6.4,6.2*3E
2017-12-14 12:28:02 1513272482.520877: $GPGSV,3,1,12,24,52,103,28,10,45,304,24,15,33,054,06,20,31,099,24*75
2017-12-14 12:28:02 1513272482.521053: $GPGSV,3,2,12,21,58,186,25,32,25,241,05,27,18,285,10,18,74,349,15*7B
2017-12-14 12:28:02 1513272482.521117: $GPGSV,3,3,12,13,04,049,15,14,07,234,00,08,07,319,00,138,38,213,00*47
2017-12-14 12:28:02 1513272482.634201: $GPZDA,172803.00,14,12,2017,00,00*6B
2017-12-14 12:28:02 1513272482.634332: $GPGGA,172803,3946.9521,N,08404.9369,W,1,06,6.40,293.49,M,-33.324,M,,*7C
2017-12-14 12:28:02 1513272482.634420: $GPRMC,172803,A,3946.9521,N,08404.9369,W,0.2422,93.795,141217,,*0D
2017-12-14 12:28:02 1513272482.634483: $GPGSA,A,3,24,10,20,21,27,18,,,,,,,6.6,6.4,6.2*3E
2017-12-14 12:28:03 1513272483.185881: $GPZDA,172804.00,14,12,2017,00,00*6C
2017-12-14 12:28:03 1513272483.186036: $GPGGA,172804,3946.9525,N,08404.9368,W,1,06,6.40,292.73,M,-33.324,M,,*76
2017-12-14 12:28:03 1513272483.186101: $GPRMC,172804,A,3946.9525,N,08404.9368,W,0.4207,39.347,141217,,*03
2017-12-14 12:28:03 1513272483.186161: $GPGSA,A,3,24,10,20,21,27,18,,,,,,,6.6,6.4,6.2*3E
2017-12-14 12:28:04 1513272484.183553: $GPZDA,172805.00,14,12,2017,00,00*6D
2017-12-14 12:28:04 1513272484.183718: $GPGGA,172805,3946.9525,N,08404.9368,W,1,06,6.60,292.73,M,-33.324,M,,*75
2017-12-14 12:28:04 1513272484.183784: $GPRMC,172805,A,3946.9525,N,08404.9368,W,0.7278,23.637,141217,,*00
2017-12-14 12:28:04 1513272484.183845: $GPGSA,A,3,24,10,20,21,27,18,,,,,,,6.6,6.6,6.2*3C
2017-12-14 12:28:05 1513272485.519468: $GPGSV,3,1,12,24,52,103,27,10,45,304,24,15,33,054,04,20,31,099,24*78
2017-12-14 12:28:05 1513272485.519644: $GPGSV,3,2,12,21,58,186,26,32,25,241,04,27,18,285,10,18,74,349,04*79
2017-12-14 12:28:05 1513272485.519710: $GPGSV,3,3,12,14,07,234,00,08,07,319,00,13,04,049,00,138,38,213,00*43
2017-12-14 12:28:05 1513272485.632913: $GPZDA,172806.00,14,12,2017,00,00*6E
2017-12-14 12:28:05 1513272485.638444: $GPGGA,172806,3946.9532,N,08404.9360,W,1,05,6.60,292.68,M,-33.324,M,,*71
2017-12-14 12:28:05 1513272485.638578: $GPRMC,172806,A,3946.9532,N,08404.9360,W,1.1294,43.342,141217,,*09
2017-12-14 12:28:05 1513272485.638661: $GPGSA,A,3,24,10,20,21,27,,,,,,,,6.6,6.6,6.2*35
2017-12-14 12:28:06 1513272486.183416: $GPZDA,172807.00,14,12,2017,00,00*6F
2017-12-14 12:28:06 1513272486.183720: $GPGGA,172807,3946.9535,N,08404.9360,W,1,05,6.60,291.92,M,-33.324,M,,*71
2017-12-14 12:28:06 1513272486.183844: $GPRMC,172807,A,3946.9535,N,08404.9360,W,1.4115,34.536,141217,,*05
2017-12-14 12:28:06 1513272486.183948: $GPGSA,A,3,24,10,20,21,27,,,,,,,,6.6,6.6,6.2*35
2017-12-14 12:28:07 1513272487.201546: $GPZDA,172808.00,14,12,2017,00,00*60
2017-12-14 12:28:07 1513272487.201725: $GPGGA,172808,3946.9535,N,08404.9360,W,1,05,2.00,291.92,M,-33.324,M,,*7C
2017-12-14 12:28:07 1513272487.201808: $GPRMC,172808,A,3946.9535,N,08404.9360,W,0.8414,39.347,141217,,*0E
2017-12-14 12:28:07 1513272487.201869: $GPGSA,A,3,24,10,20,21,27,,,,,,,,6.6,2.0,6.2*37
2017-12-14 12:28:08 1513272488.518912: $GPGSV,3,1,12,24,52,103,27,10,45,304,24,15,33,054,10,20,31,099,24*7D
2017-12-14 12:28:08 1513272488.519088: $GPGSV,3,2,12,21,58,186,26,32,25,241,06,27,18,285,12,18,74,349,04*79
2017-12-14 12:28:08 1513272488.519206: $GPGSV,3,3,12,14,07,234,00,08,07,319,00,13,04,049,00,138,38,213,00*43
2017-12-14 12:28:08 1513272488.632246: $GPZDA,172809.00,14,12,2017,00,00*61
2017-12-14 12:28:08 1513272488.632417: $GPGGA,172809,3946.9539,N,08404.9359,W,1,05,6.60,291.15,M,-33.324,M,,*76
2017-12-14 12:28:08 1513272488.632504: $GPRMC,172809,A,3946.9539,N,08404.9359,W,0.4207,39.347,141217,,*01
2017-12-14 12:28:08 1513272488.632567: $GPGSA,A,3,24,10,20,21,27,,,,,,,,6.6,6.6,6.2*35
2017-12-14 12:28:09 1513272489.198569: $GPZDA,172810.00,14,12,2017,00,00*69
2017-12-14 12:28:09 1513272489.198731: $GPGGA,172810,3946.9535,N,08404.9359,W,1,05,6.60,290.51,M,-33.324,M,,*73
2017-12-14 12:28:09 1513272489.198799: $GPRMC,172810,A,3946.9535,N,08404.9359,W,0.2422,93.795,141217,,*09
2017-12-14 12:28:09 1513272489.198860: $GPGSA,A,3,24,10,20,21,27,,,,,,,,6.6,6.6,6.2*35
2017-12-14 12:28:10 1513272490.182552: $GPZDA,172811.00,14,12,2017,00,00*68
2017-12-14 12:28:10 1513272490.182713: $GPGGA,172811,3946.9535,N,08404.9359,W,1,05,6.60,290.51,M,-33.324,M,,*72
2017-12-14 12:28:10 1513272490.182778: $GPRMC,172811,A,3946.9535,N,08404.9359,W,0.0000,0.000,141217,,*3F
2017-12-14 12:28:10 1513272490.182838: $GPGSA,A,3,24,10,20,21,27,,,,,,,,6.6,6.6,6.2*35
2017-12-14 12:28:11 1513272491.534925: $GPGSV,3,1,12,24,52,103,26,10,45,304,23,15,33,054,04,20,31,099,23*79
2017-12-14 12:28:11 1513272491.535093: $GPGSV,3,2,12,21,58,186,26,32,25,241,09,27,18,285,13,18,74,349,04*77
2017-12-14 12:28:11 1513272491.535156: $GPGSV,3,3,12,14,07,234,00,08,07,319,00,13,04,049,00,138,38,213,00*43
2017-12-14 12:28:11 1513272491.648302: $GPZDA,172812.00,14,12,2017,00,00*6B
2017-12-14 12:28:11 1513272491.648456: $GPGGA,172812,3946.9530,N,08404.9359,W,1,05,6.60,289.87,M,-33.324,M,,*77
2017-12-14 12:28:11 1513272491.648520: $GPRMC,172812,A,3946.9530,N,08404.9359,W,0.1867,180.000,141217,,*38
2017-12-14 12:28:11 1513272491.648580: $GPGSA,A,3,24,10,20,21,27,,,,,,,,6.6,6.6,6.2*35
2017-12-14 12:28:12 1513272492.199243: $GPZDA,172813.00,14,12,2017,00,00*6A
2017-12-14 12:28:12 1513272492.199408: $GPGGA,172813,3946.9530,N,08404.9359,W,1,05,6.60,289.87,M,-33.324,M,,*76
2017-12-14 12:28:12 1513272492.199472: $GPRMC,172813,A,3946.9530,N,08404.9359,W,0.3423,184.197,141217,,*3C
2017-12-14 12:28:12 1513272492.199533: $GPGSA,A,3,24,10,20,21,27,,,,,,,,6.6,6.6,6.2*35
2017-12-14 12:28:13 1513272493.199424: $GPZDA,172814.00,14,12,2017,00,00*6D
2017-12-14 12:28:13 1513272493.199588: $GPGGA,172814,3946.9526,N,08404.9359,W,1,05,6.60,289.23,M,-33.324,M,,*78
2017-12-14 12:28:13 1513272493.199653: $GPRMC,172814,A,3946.9526,N,08404.9359,W,0.3423,184.197,141217,,*3C
2017-12-14 12:28:13 1513272493.199713: $GPGSA,A,3,24,10,20,21,27,,,,,,,,6.6,6.6,6.2*35
2017-12-14 12:28:14 1513272494.535588: $GPGSV,3,1,12,24,52,103,26,10,45,304,23,15,33,054,04,20,31,099,23*79
2017-12-14 12:28:14 1513272494.535765: $GPGSV,3,2,12,21,58,186,26,32,25,241,10,27,18,285,14,18,74,349,06*7A
2017-12-14 12:28:14 1513272494.535830: $GPGSV,3,3,12,14,07,234,00,08,07,319,00,13,04,049,00,138,38,213,00*43
2017-12-14 12:28:14 1513272494.648991: $GPZDA,172815.00,14,12,2017,00,00*6C
2017-12-14 12:28:14 1513272494.649148: $GPGGA,172815,3946.9526,N,08404.9359,W,1,06,6.60,289.23,M,-33.324,M,,*7A
2017-12-14 12:28:14 1513272494.649213: $GPRMC,172815,A,3946.9526,N,08404.9359,W,0.2422,93.795,141217,,*0E
2017-12-14 12:28:14 1513272494.649273: $GPGSA,A,3,24,10,20,21,27,18,,,,,,,6.6,6.6,6.2*3C
2017-12-14 12:28:15 1513272495.201614: $GPZDA,172816.00,14,12,2017,00,00*6F
2017-12-14 12:28:15 1513272495.201777: $GPGGA,172816,3946.9522,N,08404.9359,W,1,06,6.60,288.59,M,-33.324,M,,*71
2017-12-14 12:28:15 1513272495.201843: $GPRMC,172816,A,3946.9522,N,08404.9359,W,0.3423,184.197,141217,,*3A
2017-12-14 12:28:15 1513272495.201903: $GPGSA,A,3,24,10,20,21,27,18,,,,,,,6.6,6.6,6.2*3C
2017-12-14 12:28:16 1513272496.199202: $GPZDA,172817.00,14,12,2017,00,00*6E
2017-12-14 12:28:16 1513272496.199366: $GPGGA,172817,3946.9522,N,08404.9359,W,1,06,6.60,288.59,M,-33.324,M,,*70
2017-12-14 12:28:16 1513272496.199479: $GPRMC,172817,A,3946.9522,N,08404.9359,W,0.3423,184.197,141217,,*3B
2017-12-14 12:28:16 1513272496.199542: $GPGSA,A,3,24,10,20,21,27,18,,,,,,,6.6,6.6,6.2*3C
2017-12-14 12:28:17 1513272497.534926: $GPGSV,3,1,12,24,52,103,26,10,45,304,23,15,33,054,00,20,31,099,23*7D
2017-12-14 12:28:17 1513272497.535078: $GPGSV,3,2,12,21,58,186,26,32,25,241,04,27,18,285,12,18,74,349,06*79
2017-12-14 12:28:17 1513272497.535143: $GPGSV,3,3,12,13,04,049,15,14,07,234,00,08,07,319,00,120,07,103,00*40
2017-12-14 12:28:17 1513272497.648300: $GPZDA,172818.00,14,12,2017,00,00*61
2017-12-14 12:28:17 1513272497.648472: $GPGGA,172818,3946.9518,N,08404.9359,W,1,06,6.60,287.96,M,-33.324,M,,*7A
2017-12-14 12:28:17 1513272497.648539: $GPRMC,172818,A,3946.9518,N,08404.9359,W,0.5287,182.716,141217,,*3A
2017-12-14 12:28:17 1513272497.648600: $GPGSA,A,3,24,10,20,21,27,18,,,,,,,6.6,6.6,6.2*3C
2017-12-14 12:28:18 1513272498.182305: $GPZDA,172819.00,14,12,2017,00,00*60
2017-12-14 12:28:18 1513272498.182491: $GPGGA,172819,3946.9511,N,08404.9367,W,1,06,6.60,288.00,M,-33.324,M,,*7F
2017-12-14 12:28:18 1513272498.182559: $GPRMC,172819,A,3946.9511,N,08404.9367,W,1.2132,183.552,141217,,*37
2017-12-14 12:28:18 1513272498.182619: $GPGSA,A,3,24,10,20,21,27,18,,,,,,,6.6,6.6,6.2*3C
2017-12-14 12:28:19 1513272499.199900: $GPZDA,172820.00,14,12,2017,00,00*6A
2017-12-14 12:28:19 1513272499.200069: $GPGGA,172820,3946.9507,N,08404.9367,W,1,06,6.60,287.36,M,-33.324,M,,*78
2017-12-14 12:28:19 1513272499.200134: $GPRMC,172820,A,3946.9507,N,08404.9367,W,1.5738,192.547,141217,,*35
2017-12-14 12:28:19 1513272499.200195: $GPGSA,A,3,24,10,20,21,27,18,,,,,,,6.6,6.6,6.2*3C
2017-12-14 12:28:20 1513272500.519834: $GPGSV,3,1,12,24,52,103,26,10,45,304,23,15,33,054,00,20,31,099,23*7D
2017-12-14 12:28:20 1513272500.520023: $GPGSV,3,2,12,21,58,186,26,32,25,241,04,27,18,285,09,18,74,349,06*73
2017-12-14 12:28:20 1513272500.520090: $GPGSV,3,3,12,13,04,049,02,14,07,234,00,08,07,319,00,120,07,103,00*46
2017-12-14 12:28:20 1513272500.633265: $GPZDA,172821.00,14,12,2017,00,00*6B
2017-12-14 12:28:20 1513272500.633449: $GPGGA,172821,3946.9502,N,08404.9367,W,1,06,6.60,286.72,M,-33.324,M,,*7D
2017-12-14 12:28:20 1513272500.633514: $GPRMC,172821,A,3946.9502,N,08404.9367,W,0.9019,198.875,141217,,*3E
2017-12-14 12:28:20 1513272500.633576: $GPGSA,A,3,24,10,20,21,27,18,,,,,,,6.6,6.6,6.2*3C
