2017-11-15 19:29:32 1510792172.392553: {"class":"VERSION","release":"3.17","rev":"3.17","proto_major":3,"proto_minor":12}
2017-11-15 19:29:32 1510792172.392999: {"class":"DEVICES","devices":[{"class":"DEVICE","path":"/dev/ttyUSB0","driver":"SiRF","subtype":"9\u0006GSD4e_4.1.2-P1_RPATCH.05-F-GPS-4R-1510281 11/03/2015 307","activated":"2017-11-16T00:29:32.369Z","flags":1,"native":1,"bps":4800,"parity":"N","stopbits":1,"cycle":1.00}]}
2017-11-15 19:29:32 1510792172.393111: {"class":"WATCH","enable":true,"json":false,"nmea":true,"raw":0,"scaled":false,"timing":false,"split24":false,"pps":false}
2017-11-15 19:29:33 1510792173.682417: $GPGSV,3,1,11,32,36,108,21,31,67,025,19,16,23,190,17,26,53,172,26*73
2017-11-15 19:29:33 1510792173.682588: $GPGSV,3,2,11,29,11,070,09,25,17,040,00,03,40,298,17,14,55,093,18*7C
2017-11-15 19:29:33 1510792173.682648: $GPGSV,3,3,11,23,11,301,16,01,05,252,00,22,50,270,18*45
2017-11-15 19:29:33 1510792173.795989: $GPZDA,002932.00,16,11,2017,00,00*6F
2017-11-15 19:29:33 1510792173.796145: $GPGGA,002932,3946.9464,N,08404.9526,W,1,09,1.20,276.46,M,-33.324,M,,*7E
2017-11-15 19:29:33 1510792173.796205: $GPRMC,002932,A,3946.9464,N,08404.9526,W,2.2533,190.018,161117,,*37
2017-11-15 19:29:33 1510792173.796260: $GPGSA,A,3,32,31,16,26,29,3,14,23,22,,,,3.4,1.2,2.9*01
2017-11-15 19:29:34 1510792174.331347: $GPZDA,002933.00,16,11,2017,00,00*6E
2017-11-15 19:29:34 1510792174.331511: $GPGGA,002933,3946.9460,N,08404.9526,W,1,09,1.20,275.82,M,-33.324,M,,*70
2017-11-15 19:29:34 1510792174.331572: $GPRMC,002933,A,3946.9460,N,08404.9526,W,1.9131,191.058,161117,,*39
2017-11-15 19:29:34 1510792174.331628: $GPGSA,A,3,32,31,16,26,29,3,14,23,22,,,,3.4,1.2,2.9*01
2017-11-15 19:29:35 1510792175.346195: $GPZDA,002934.00,16,11,2017,00,00*69
2017-11-15 19:29:35 1510792175.346363: $GPGGA,002934,3946.9457,N,08404.9527,W,1,09,1.20,276.58,M,-33.324,M,,*76
2017-11-15 19:29:35 1510792175.346423: $GPRMC,002934,A,3946.9457,N,08404.9527,W,1.5555,183.693,161117,,*33
2017-11-15 19:29:35 1510792175.346478: $GPGSA,A,3,32,31,16,26,29,3,14,23,22,,,,3.4,1.2,2.9*01
2017-11-15 19:29:36 1510792176.681531: $GPGSV,3,1,11,32,36,108,21,31,67,025,19,16,23,190,16,26,53,172,26*72
2017-11-15 19:29:36 1510792176.681711: $GPGSV,3,2,11,29,11,070,11,25,17,040,00,03,40,298,17,14,55,093,18*75
2017-11-15 19:29:36 1510792176.681773: $GPGSV,3,3,11,23,11,301,16,01,05,252,00,22,50,270,19*44
2017-11-15 19:29:36 1510792176.794856: $GPZDA,002935.00,16,11,2017,00,00*68
2017-11-15 19:29:36 1510792176.795018: $GPGGA,002935,3946.9452,N,08404.9520,W,1,09,1.20,276.02,M,-33.324,M,,*7A
2017-11-15 19:29:36 1510792176.795082: $GPRMC,002935,A,3946.9452,N,08404.9520,W,1.9587,169.465,161117,,*3C
2017-11-15 19:29:36 1510792176.795141: $GPGSA,A,3,32,31,16,26,29,3,14,23,22,,,,3.4,1.2,2.9*01
2017-11-15 19:29:37 1510792177.346045: $GPZDA,002936.00,16,11,2017,00,00*6B
2017-11-15 19:29:37 1510792177.346209: $GPGGA,002936,3946.9452,N,08404.9520,W,1,09,1.20,276.02,M,-33.324,M,,*79
2017-11-15 19:29:37 1510792177.346271: $GPRMC,002936,A,3946.9452,N,08404.9520,W,1.8931,160.727,161117,,*33
2017-11-15 19:29:37 1510792177.346330: $GPGSA,A,3,32,31,16,26,29,3,14,23,22,,,,3.4,1.2,2.9*01
2017-11-15 19:29:38 1510792178.329214: $GPZDA,002937.00,16,11,2017,00,00*6A
2017-11-15 19:29:38 1510792178.329397: $GPGGA,002937,3946.9452,N,08404.9513,W,1,09,1.20,276.10,M,-33.324,M,,*7B
2017-11-15 19:29:38 1510792178.329461: $GPRMC,002937,A,3946.9452,N,08404.9513,W,1.8931,160.727,161117,,*32
2017-11-15 19:29:38 1510792178.329524: $GPGSA,A,3,32,31,16,26,29,3,14,23,22,,,,3.4,1.2,2.9*01
2017-11-15 19:29:39 1510792179.680023: $GPGSV,3,1,11,32,36,108,21,31,67,025,00,16,23,190,15,26,53,172,25*7A
2017-11-15 19:29:39 1510792179.680165: $GPGSV,3,2,11,29,11,070,12,14,55,093,00,03,40,298,17,25,17,040,00*7F
2017-11-15 19:29:39 1510792179.680227: $GPGSV,3,3,11,23,11,301,16,01,05,252,00,22,50,270,19*44
2017-11-15 19:29:39 1510792179.793342: $GPZDA,002938.00,16,11,2017,00,00*65
2017-11-15 19:29:39 1510792179.793500: $GPGGA,002938,3946.9444,N,08404.9514,W,1,07,2.20,276.22,M,-33.324,M,,*78
2017-11-15 19:29:39 1510792179.793561: $GPRMC,002938,A,3946.9444,N,08404.9514,W,2.0005,154.331,161117,,*3C
2017-11-15 19:29:39 1510792179.793671: $GPGSA,A,3,32,16,26,29,3,23,22,,,,,,3.4,2.2,2.9*05
2017-11-15 19:29:40 1510792180.331713: $GPZDA,002939.00,16,11,2017,00,00*64
2017-11-15 19:29:40 1510792180.331880: $GPGGA,002939,3946.9444,N,08404.9507,W,1,07,2.20,276.30,M,-33.324,M,,*78
2017-11-15 19:29:40 1510792180.331941: $GPRMC,002939,A,3946.9444,N,08404.9507,W,1.7122,148.618,161117,,*3C
2017-11-15 19:29:40 1510792180.331997: $GPGSA,A,3,32,16,26,29,3,23,22,,,,,,3.4,2.2,2.9*05
2017-11-15 19:29:41 1510792181.345891: $GPZDA,002940.00,16,11,2017,00,00*6A
2017-11-15 19:29:41 1510792181.346060: $GPGGA,002940,3946.9444,N,08404.9500,W,1,07,2.20,276.38,M,-33.324,M,,*79
2017-11-15 19:29:41 1510792181.346120: $GPRMC,002940,A,3946.9444,N,08404.9500,W,1.4168,152.696,161117,,*35
2017-11-15 19:29:41 1510792181.346176: $GPGSA,A,3,32,16,26,29,3,23,22,,,,,,3.4,2.2,2.9*05
