2017-11-16 13:20:43 1510856443.145753: {"class":"VERSION","release":"3.17","rev":"3.17","proto_major":3,"proto_minor":12}
2017-11-16 13:20:43 1510856443.146218: {"class":"DEVICES","devices":[{"class":"DEVICE","path":"/dev/ttyUSB0","driver":"SiRF","subtype":"9\u0006GSD4e_4.1.2-P1_RPATCH.05-F-GPS-4R-1510281 11/03/2015 307","activated":"2017-11-16T18:20:43.125Z","flags":1,"native":1,"bps":4800,"parity":"N","stopbits":1,"cycle":1.00}]}
2017-11-16 13:20:43 1510856443.146350: {"class":"WATCH","enable":true,"json":false,"nmea":true,"raw":0,"scaled":false,"timing":false,"split24":false,"pps":false}
2017-11-16 13:20:43 1510856443.302538: $GPZDA,182042.00,16,11,2017,00,00*68
2017-11-16 13:20:43 1510856443.302723: $GPGGA,182042,3946.9594,N,08404.9845,W,2,11,0.80,300.76,M,-33.324,M,,*7D
2017-11-16 13:20:43 1510856443.302803: $GPRMC,182042,A,3946.9594,N,08404.9845,W,0.0000,0.000,161117,,*32
2017-11-16 13:20:43 1510856443.302861: $GPGSA,A,3,10,13,15,18,20,21,24,27,29,32,138,,1.6,0.8,1.3*03
2017-11-16 13:20:44 1510856444.299884: $GPZDA,182043.00,16,11,2017,00,00*69
2017-11-16 13:20:44 1510856444.300049: $GPGGA,182043,3946.9594,N,08404.9845,W,2,11,0.80,300.76,M,-33.324,M,,*7C
2017-11-16 13:20:44 1510856444.300110: $GPRMC,182043,A,3946.9594,N,08404.9845,W,0.0000,0.000,161117,,*33
2017-11-16 13:20:44 1510856444.300165: $GPGSA,A,3,10,13,15,18,20,21,24,27,29,32,138,,1.6,0.8,1.3*03
2017-11-16 13:20:45 1510856445.623634: $GPGSV,3,1,12,10,23,283,43,13,29,045,48,15,61,051,51,18,54,300,46*78
2017-11-16 13:20:45 1510856445.623818: $GPGSV,3,2,12,20,51,072,47,21,78,270,47,24,33,138,40,27,16,313,42*7C
2017-11-16 13:20:45 1510856445.623879: $GPGSV,3,3,12,05,04,087,22,29,09,189,32,32,01,225,22,138,38,213,46*41
2017-11-16 13:20:45 1510856445.737176: $GPZDA,182044.00,16,11,2017,00,00*6E
2017-11-16 13:20:45 1510856445.737333: $GPGGA,182044,3946.9598,N,08404.9845,W,2,12,0.80,301.40,M,-33.324,M,,*70
2017-11-16 13:20:45 1510856445.737393: $GPRMC,182044,A,3946.9598,N,08404.9845,W,0.0000,0.000,161117,,*38
2017-11-16 13:20:45 1510856445.737449: $GPGSA,A,3,10,13,15,18,20,21,24,27,5,29,32,138,1.6,0.8,1.3*36
2017-11-16 13:20:46 1510856446.306545: $GPZDA,182045.00,16,11,2017,00,00*6F
2017-11-16 13:20:46 1510856446.306708: $GPGGA,182045,3946.9598,N,08404.9845,W,2,12,0.80,301.40,M,-33.324,M,,*71
2017-11-16 13:20:46 1510856446.306771: $GPRMC,182045,A,3946.9598,N,08404.9845,W,0.0000,0.000,161117,,*39
2017-11-16 13:20:46 1510856446.306828: $GPGSA,A,3,10,13,15,18,20,21,24,27,5,29,32,138,1.6,0.8,1.3*36
2017-11-16 13:20:47 1510856447.286377: $GPZDA,182046.00,16,11,2017,00,00*6C
2017-11-16 13:20:47 1510856447.286559: $GPGGA,182046,3946.9602,N,08404.9845,W,2,12,0.80,300.64,M,-33.324,M,,*75
2017-11-16 13:20:47 1510856447.286652: $GPRMC,182046,A,3946.9602,N,08404.9845,W,0.0000,0.000,161117,,*3A
2017-11-16 13:20:47 1510856447.286709: $GPGSA,A,3,10,13,15,18,20,21,24,27,5,29,32,138,1.6,0.8,1.3*36
2017-11-16 13:20:48 1510856448.621874: $GPGSV,3,1,12,10,23,283,43,13,29,045,48,15,61,051,51,18,54,300,46*78
2017-11-16 13:20:48 1510856448.622018: $GPGSV,3,2,12,20,51,072,47,21,78,270,47,24,33,138,41,27,16,313,41*7E
2017-11-16 13:20:48 1510856448.622078: $GPGSV,3,3,12,05,04,087,22,29,09,189,32,32,01,225,22,138,38,213,45*42
2017-11-16 13:20:48 1510856448.735148: $GPZDA,182047.00,16,11,2017,00,00*6D
2017-11-16 13:20:48 1510856448.735307: $GPGGA,182047,3946.9602,N,08404.9845,W,2,11,0.80,300.64,M,-33.324,M,,*77
2017-11-16 13:20:48 1510856448.735393: $GPRMC,182047,A,3946.9602,N,08404.9845,W,0.0000,0.000,161117,,*3B
2017-11-16 13:20:48 1510856448.735451: $GPGSA,A,3,10,13,15,18,20,21,24,27,29,32,138,,1.6,0.8,1.3*03
2017-11-16 13:20:49 1510856449.302301: $GPZDA,182048.00,16,11,2017,00,00*62
2017-11-16 13:20:49 1510856449.302510: $GPGGA,182048,3946.9602,N,08404.9845,W,2,11,0.80,300.64,M,-33.324,M,,*78
2017-11-16 13:20:49 1510856449.302573: $GPRMC,182048,A,3946.9602,N,08404.9845,W,0.0000,0.000,161117,,*34
2017-11-16 13:20:49 1510856449.302629: $GPGSA,A,3,10,13,15,18,20,21,24,27,29,32,138,,1.6,0.8,1.3*03
2017-11-16 13:20:50 1510856450.281575: $GPZDA,182049.00,16,11,2017,00,00*63
2017-11-16 13:20:50 1510856450.281843: $GPGGA,182049,3946.9602,N,08404.9845,W,2,11,0.80,300.64,M,-33.324,M,,*79
2017-11-16 13:20:50 1510856450.281911: $GPRMC,182049,A,3946.9602,N,08404.9845,W,0.0000,0.000,161117,,*35
2017-11-16 13:20:50 1510856450.281968: $GPGSA,A,3,10,13,15,18,20,21,24,27,29,32,138,,1.6,0.8,1.3*03
2017-11-16 13:20:51 1510856451.642127: $GPGSV,3,1,12,10,23,283,42,13,29,045,48,15,61,051,51,18,54,300,46*79
2017-11-16 13:20:51 1510856451.642316: $GPGSV,3,2,12,20,51,072,47,21,78,270,47,24,33,138,41,27,16,313,40*7F
2017-11-16 13:20:51 1510856451.642394: $GPGSV,3,3,12,05,04,087,00,29,09,189,32,32,01,225,21,138,38,213,45*41
2017-11-16 13:20:51 1510856451.755454: $GPZDA,182050.00,16,11,2017,00,00*6B
2017-11-16 13:20:51 1510856451.755635: $GPGGA,182050,3946.9602,N,08404.9845,W,2,11,0.80,300.64,M,-33.324,M,,*71
2017-11-16 13:20:51 1510856451.755696: $GPRMC,182050,A,3946.9602,N,08404.9845,W,0.0000,0.000,161117,,*3D
2017-11-16 13:20:51 1510856451.755753: $GPGSA,A,3,10,13,15,18,20,21,24,27,29,32,138,,1.6,0.8,1.3*03
2017-11-16 13:20:52 1510856452.287528: $GPZDA,182051.00,16,11,2017,00,00*6A
2017-11-16 13:20:52 1510856452.287692: $GPGGA,182051,3946.9602,N,08404.9845,W,2,11,0.80,300.64,M,-33.324,M,,*70
2017-11-16 13:20:52 1510856452.287753: $GPRMC,182051,A,3946.9602,N,08404.9845,W,0.0000,0.000,161117,,*3C
2017-11-16 13:20:52 1510856452.287809: $GPGSA,A,3,10,13,15,18,20,21,24,27,29,32,138,,1.6,0.8,1.3*03
