2017-12-31 17:55:25 1514760925.917181: {"class":"VERSION","release":"3.16","rev":"3.16-4","proto_major":3,"proto_minor":11}
2017-12-31 17:55:25 1514760925.917571: {"class":"DEVICES","devices":[{"class":"DEVICE","path":"/dev/ttyUSB0","driver":"SiRF","activated":"2017-12-31T22:55:25.556Z","flags":1,"native":1,"bps":4800,"parity":"N","stopbits":1,"cycle":1.00}]}
2017-12-31 17:55:25 1514760925.917671: {"class":"WATCH","enable":true,"json":false,"nmea":true,"raw":0,"scaled":false,"timing":false,"split24":false,"pps":false}
2017-12-31 17:55:26 1514760926.372811: $GPZDA,225527.00,31,12,2017,00,00*66
2017-12-31 17:55:26 1514760926.372987: $GPGGA,225527,3946.9567,N,08404.9865,W,2,11,0.60,306.72,M,-33.324,M,,*77
2017-12-31 17:55:26 1514760926.373054: $GPRMC,225527,A,3946.9567,N,08404.9865,W,0.0000,0.000,311217,,*32
2017-12-31 17:55:26 1514760926.373115: $GPGSA,A,3,22,23,9,3,16,29,14,31,27,26,135,,1.7,0.6,1.3*06
2017-12-31 17:55:27 1514760927.682166: $GPGSV,3,1,11,22,27,219,42,23,48,309,41,09,15,312,45,03,36,240,47*7F
2017-12-31 17:55:27 1514760927.682347: $GPGSV,3,2,11,16,73,192,42,29,08,034,30,14,20,130,26,31,33,070,42*72
2017-12-31 17:55:27 1514760927.682413: $GPGSV,3,3,11,27,17,157,16,26,68,055,47,135,22,240,44*76
2017-12-31 17:55:27 1514760927.795868: $GPZDA,225528.00,31,12,2017,00,00*69
2017-12-31 17:55:27 1514760927.796033: $GPGGA,225528,3946.9567,N,08404.9865,W,2,11,0.60,306.72,M,-33.324,M,,*78
2017-12-31 17:55:27 1514760927.796099: $GPRMC,225528,A,3946.9567,N,08404.9865,W,0.0000,0.000,311217,,*3D
2017-12-31 17:55:27 1514760927.796159: $GPGSA,A,3,22,23,9,3,16,29,14,31,27,26,135,,1.7,0.6,1.3*06
2017-12-31 17:55:28 1514760928.347552: $GPZDA,225529.00,31,12,2017,00,00*68
2017-12-31 17:55:28 1514760928.347719: $GPGGA,225529,3946.9567,N,08404.9865,W,2,11,0.60,306.72,M,-33.324,M,,*79
2017-12-31 17:55:28 1514760928.347785: $GPRMC,225529,A,3946.9567,N,08404.9865,W,0.0000,0.000,311217,,*3C
2017-12-31 17:55:28 1514760928.347847: $GPGSA,A,3,22,23,9,3,16,29,14,31,27,26,135,,1.7,0.6,1.3*06
2017-12-31 17:55:29 1514760929.372883: $GPZDA,225530.00,31,12,2017,00,00*60
2017-12-31 17:55:29 1514760929.373069: $GPGGA,225530,3946.9567,N,08404.9865,W,2,11,0.60,306.72,M,-33.324,M,,*71
2017-12-31 17:55:29 1514760929.373137: $GPRMC,225530,A,3946.9567,N,08404.9865,W,0.0000,0.000,311217,,*34
2017-12-31 17:55:29 1514760929.373202: $GPGSA,A,3,22,23,9,3,16,29,14,31,27,26,135,,1.7,0.6,1.3*06
2017-12-31 17:55:30 1514760930.682781: $GPGSV,3,1,11,22,27,219,41,23,48,309,41,09,15,312,45,03,36,240,47*7C
2017-12-31 17:55:30 1514760930.682937: $GPGSV,3,2,11,16,73,192,42,29,08,034,29,14,20,130,26,31,33,070,42*7A
2017-12-31 17:55:30 1514760930.683006: $GPGSV,3,3,11,27,17,157,26,26,68,055,47,135,22,240,43*72
2017-12-31 17:55:30 1514760930.796415: $GPZDA,225531.00,31,12,2017,00,00*61
2017-12-31 17:55:30 1514760930.796595: $GPGGA,225531,3946.9567,N,08404.9865,W,2,11,0.60,306.72,M,-33.324,M,,*70
2017-12-31 17:55:30 1514760930.796665: $GPRMC,225531,A,3946.9567,N,08404.9865,W,0.0000,0.000,311217,,*35
2017-12-31 17:55:30 1514760930.796751: $GPGSA,A,3,22,23,9,3,16,29,14,31,27,26,135,,1.7,0.6,1.3*06
2017-12-31 17:55:31 1514760931.347519: $GPZDA,225532.00,31,12,2017,00,00*62
2017-12-31 17:55:31 1514760931.347690: $GPGGA,225532,3946.9567,N,08404.9865,W,2,11,0.60,306.72,M,-33.324,M,,*73
2017-12-31 17:55:31 1514760931.347761: $GPRMC,225532,A,3946.9567,N,08404.9865,W,0.0000,0.000,311217,,*36
2017-12-31 17:55:31 1514760931.347825: $GPGSA,A,3,22,23,9,3,16,29,14,31,27,26,135,,1.7,0.6,1.3*06
2017-12-31 17:55:32 1514760932.347944: $GPZDA,225533.00,31,12,2017,00,00*63
2017-12-31 17:55:32 1514760932.348126: $GPGGA,225533,3946.9567,N,08404.9865,W,2,11,0.60,306.72,M,-33.324,M,,*72
2017-12-31 17:55:32 1514760932.348197: $GPRMC,225533,A,3946.9567,N,08404.9865,W,0.0000,0.000,311217,,*37
2017-12-31 17:55:32 1514760932.348262: $GPGSA,A,3,22,23,9,3,16,29,14,31,27,26,135,,1.7,0.6,1.3*06
2017-12-31 17:55:33 1514760933.682555: $GPGSV,3,1,11,22,27,219,41,23,48,309,40,09,15,312,45,03,36,240,47*7D
2017-12-31 17:55:33 1514760933.682756: $GPGSV,3,2,11,16,73,192,41,29,08,034,30,14,20,130,31,31,33,070,43*76
2017-12-31 17:55:33 1514760933.682886: $GPGSV,3,3,11,27,17,157,28,26,68,055,47,135,22,240,44*7B
2017-12-31 17:55:33 1514760933.795864: $GPZDA,225534.00,31,12,2017,00,00*64
2017-12-31 17:55:33 1514760933.796042: $GPGGA,225534,3946.9567,N,08404.9865,W,2,11,0.60,306.72,M,-33.324,M,,*75
2017-12-31 17:55:33 1514760933.796109: $GPRMC,225534,A,3946.9567,N,08404.9865,W,0.0000,0.000,311217,,*30
2017-12-31 17:55:33 1514760933.796173: $GPGSA,A,3,22,23,9,3,16,29,14,31,27,26,135,,1.7,0.6,1.3*06
2017-12-31 17:55:34 1514760934.346866: $GPZDA,225535.00,31,12,2017,00,00*65
2017-12-31 17:55:34 1514760934.347042: $GPGGA,225535,3946.9567,N,08404.9865,W,2,11,0.60,306.72,M,-33.324,M,,*74
2017-12-31 17:55:34 1514760934.347196: $GPRMC,225535,A,3946.9567,N,08404.9865,W,0.0000,0.000,311217,,*31
2017-12-31 17:55:34 1514760934.347263: $GPGSA,A,3,22,23,9,3,16,29,14,31,27,26,135,,1.7,0.6,1.3*06
2017-12-31 17:55:35 1514760935.345754: $GPZDA,225536.00,31,12,2017,00,00*66
2017-12-31 17:55:35 1514760935.345925: $GPGGA,225536,3946.9567,N,08404.9865,W,2,11,0.60,306.72,M,-33.324,M,,*77
2017-12-31 17:55:35 1514760935.345994: $GPRMC,225536,A,3946.9567,N,08404.9865,W,0.0000,0.000,311217,,*32
2017-12-31 17:55:35 1514760935.346057: $GPGSA,A,3,22,23,9,3,16,29,14,31,27,26,135,,1.7,0.6,1.3*06
2017-12-31 17:55:36 1514760936.681520: $GPGSV,3,1,11,22,27,219,42,23,48,309,42,09,15,312,46,03,36,240,46*7E
2017-12-31 17:55:36 1514760936.681702: $GPGSV,3,2,11,16,73,192,41,29,08,034,31,14,20,130,24,31,33,070,44*74
2017-12-31 17:55:36 1514760936.681770: $GPGSV,3,3,11,27,17,157,22,26,68,055,47,135,22,240,44*71
2017-12-31 17:55:36 1514760936.794958: $GPZDA,225537.00,31,12,2017,00,00*67
2017-12-31 17:55:36 1514760936.795138: $GPGGA,225537,3946.9567,N,08404.9865,W,2,11,0.60,306.72,M,-33.324,M,,*76
2017-12-31 17:55:36 1514760936.795205: $GPRMC,225537,A,3946.9567,N,08404.9865,W,0.0000,0.000,311217,,*33
2017-12-31 17:55:36 1514760936.795268: $GPGSA,A,3,22,23,9,3,16,29,14,31,27,26,135,,1.7,0.6,1.3*06
2017-12-31 17:55:37 1514760937.568398: $GPZDA,225538.00,31,12,2017,00,00*68
2017-12-31 17:55:37 1514760937.568590: $GPGGA,225538,3946.9567,N,08404.9865,W,2,11,0.60,306.72,M,-33.324,M,,*79
2017-12-31 17:55:37 1514760937.568662: $GPRMC,225538,A,3946.9567,N,08404.9865,W,0.0000,0.000,311217,,*3C
2017-12-31 17:55:37 1514760937.568727: $GPGSA,A,3,22,23,9,3,16,29,14,31,27,26,135,,1.7,0.6,1.3*06
2017-12-31 17:55:37 1514760937.568789: $GPGBS,225538,2.22,M,3.43,M,7.66,M*34
2017-12-31 17:55:38 1514760938.373226: $GPZDA,225539.00,31,12,2017,00,00*69
2017-12-31 17:55:38 1514760938.373405: $GPGGA,225539,3946.9567,N,08404.9865,W,2,11,0.60,306.72,M,-33.324,M,,*78
2017-12-31 17:55:38 1514760938.373471: $GPRMC,225539,A,3946.9567,N,08404.9865,W,0.0000,0.000,311217,,*3D
2017-12-31 17:55:38 1514760938.373533: $GPGSA,A,3,22,23,9,3,16,29,14,31,27,26,135,,1.7,0.6,1.3*06
2017-12-31 17:55:38 1514760938.373591: $GPGBS,225539,2.22,M,3.43,M,7.66,M*35
2017-12-31 17:55:39 1514760939.707507: $GPGSV,3,1,11,22,27,217,42,23,48,309,42,09,15,312,46,03,36,240,46*70
2017-12-31 17:55:39 1514760939.707693: $GPGSV,3,2,11,16,74,192,41,29,08,034,21,14,20,130,23,31,32,070,44*74
2017-12-31 17:55:39 1514760939.707760: $GPGSV,3,3,11,27,17,156,23,26,68,055,47,135,22,240,43*76
2017-12-31 17:55:39 1514760939.820676: $GPZDA,225540.00,31,12,2017,00,00*67
2017-12-31 17:55:39 1514760939.820845: $GPGGA,225540,3946.9567,N,08404.9865,W,2,11,0.60,306.72,M,-33.324,M,,*76
2017-12-31 17:55:39 1514760939.820913: $GPRMC,225540,A,3946.9567,N,08404.9865,W,0.0000,0.000,311217,,*33
2017-12-31 17:55:39 1514760939.820974: $GPGSA,A,3,22,23,9,3,16,29,14,31,27,26,135,,1.7,0.6,1.3*06
2017-12-31 17:55:40 1514760940.446035: $GPZDA,225541.00,31,12,2017,00,00*66
2017-12-31 17:55:40 1514760940.446216: $GPGGA,225541,3946.9567,N,08404.9865,W,2,11,0.60,306.72,M,-33.324,M,,*77
2017-12-31 17:55:40 1514760940.446284: $GPRMC,225541,A,3946.9567,N,08404.9865,W,0.0000,0.000,311217,,*32
2017-12-31 17:55:40 1514760940.446346: $GPGSA,A,3,22,23,9,3,16,29,14,31,27,26,135,,1.7,0.6,1.3*06
2017-12-31 17:55:41 1514760941.371968: $GPZDA,225542.00,31,12,2017,00,00*65
2017-12-31 17:55:41 1514760941.372233: $GPGGA,225542,3946.9567,N,08404.9865,W,2,11,0.60,306.72,M,-33.324,M,,*74
2017-12-31 17:55:41 1514760941.372306: $GPRMC,225542,A,3946.9567,N,08404.9865,W,0.2422,93.794,311217,,*07
2017-12-31 17:55:41 1514760941.372370: $GPGSA,A,3,22,23,9,3,16,29,14,31,27,26,135,,1.7,0.6,1.3*06
2017-12-31 17:55:42 1514760942.682673: $GPGSV,3,1,11,22,27,217,42,23,48,309,42,09,15,312,46,03,36,240,46*70
2017-12-31 17:55:42 1514760942.682833: $GPGSV,3,2,11,16,74,192,42,29,08,034,21,14,20,130,24,31,32,070,43*77
2017-12-31 17:55:42 1514760942.682898: $GPGSV,3,3,11,27,17,156,32,26,68,055,47,135,22,240,43*76
2017-12-31 17:55:42 1514760942.796020: $GPZDA,225543.00,31,12,2017,00,00*64
2017-12-31 17:55:42 1514760942.796206: $GPGGA,225543,3946.9567,N,08404.9865,W,2,11,0.60,306.72,M,-33.324,M,,*75
2017-12-31 17:55:42 1514760942.796275: $GPRMC,225543,A,3946.9567,N,08404.9865,W,0.0000,0.000,311217,,*30
2017-12-31 17:55:42 1514760942.796337: $GPGSA,A,3,22,23,9,3,16,29,14,31,27,26,135,,1.7,0.6,1.3*06
2017-12-31 17:55:43 1514760943.567551: $GPZDA,225544.00,31,12,2017,00,00*63
2017-12-31 17:55:43 1514760943.567723: $GPGGA,225544,3946.9567,N,08404.9865,W,2,11,0.60,306.72,M,-33.324,M,,*72
2017-12-31 17:55:43 1514760943.567789: $GPRMC,225544,A,3946.9567,N,08404.9865,W,0.0000,0.000,311217,,*37
2017-12-31 17:55:43 1514760943.567852: $GPGSA,A,3,22,23,9,3,16,29,14,31,27,26,135,,1.7,0.6,1.3*06
2017-12-31 17:55:43 1514760943.567910: $GPGBS,225544,2.22,M,3.43,M,7.66,M*3F
2017-12-31 17:55:44 1514760944.346737: $GPZDA,225545.00,31,12,2017,00,00*62
2017-12-31 17:55:44 1514760944.346942: $GPGGA,225545,3946.9567,N,08404.9865,W,2,11,0.60,306.72,M,-33.324,M,,*73
2017-12-31 17:55:44 1514760944.347013: $GPRMC,225545,A,3946.9567,N,08404.9865,W,0.0000,0.000,311217,,*36
2017-12-31 17:55:44 1514760944.347074: $GPGSA,A,3,22,23,9,3,16,29,14,31,27,26,135,,1.7,0.6,1.3*06
2017-12-31 17:55:44 1514760944.347193: $GPGBS,225545,2.22,M,3.43,M,7.66,M*3E
2017-12-31 17:55:45 1514760945.683042: $GPGSV,3,1,11,22,27,217,43,23,48,309,42,09,15,312,45,03,36,240,45*71
2017-12-31 17:55:45 1514760945.683226: $GPGSV,3,2,11,16,74,192,42,29,08,034,30,14,20,130,15,31,32,070,42*74
2017-12-31 17:55:45 1514760945.683291: $GPGSV,3,3,11,27,17,156,29,26,68,055,48,135,22,240,44*74
2017-12-31 17:55:45 1514760945.796684: $GPZDA,225546.00,31,12,2017,00,00*61
2017-12-31 17:55:45 1514760945.796850: $GPGGA,225546,3946.9567,N,08404.9865,W,2,11,0.60,306.72,M,-33.324,M,,*70
2017-12-31 17:55:45 1514760945.796916: $GPRMC,225546,A,3946.9567,N,08404.9865,W,0.0000,0.000,311217,,*35
2017-12-31 17:55:45 1514760945.796977: $GPGSA,A,3,22,23,9,3,16,29,14,31,27,26,135,,1.7,0.6,1.3*06
