2017-12-31 18:06:53 1514761613.225953: {"class":"VERSION","release":"3.16","rev":"3.16-4","proto_major":3,"proto_minor":11}
2017-12-31 18:06:53 1514761613.226307: {"class":"DEVICES","devices":[{"class":"DEVICE","path":"/dev/ttyUSB0","driver":"SiRF","activated":"2017-12-31T23:06:53.169Z","flags":1,"native":1,"bps":4800,"parity":"N","stopbits":1,"cycle":1.00}]}
2017-12-31 18:06:53 1514761613.226408: {"class":"WATCH","enable":true,"json":false,"nmea":true,"raw":0,"scaled":false,"timing":false,"split24":false,"pps":false}
2017-12-31 18:06:53 1514761613.346366: $GPZDA,230654.00,31,12,2017,00,00*65
2017-12-31 18:06:53 1514761613.346511: $GPGGA,230654,3946.9561,N,08404.9874,W,2,11,0.60,308.17,M,-33.324,M,,*7F
2017-12-31 18:06:53 1514761613.346576: $GPRMC,230654,A,3946.9561,N,08404.9874,W,0.0000,0.000,311217,,*37
2017-12-31 18:06:53 1514761613.346636: $GPGSA,A,3,22,23,9,3,16,29,14,31,27,26,135,,1.7,0.6,1.3*06
2017-12-31 18:06:54 1514761614.675944: $GPGSV,3,1,11,22,23,216,40,23,52,307,44,09,19,312,44,03,33,235,45*7E
2017-12-31 18:06:54 1514761614.676120: $GPGSV,3,2,11,16,79,190,44,29,06,031,35,14,16,132,36,31,29,073,41*7F
2017-12-31 18:06:54 1514761614.676186: $GPGSV,3,3,11,27,21,154,31,26,64,051,48,135,22,240,44*72
2017-12-31 18:06:54 1514761614.789600: $GPZDA,230655.00,31,12,2017,00,00*64
2017-12-31 18:06:54 1514761614.789758: $GPGGA,230655,3946.9561,N,08404.9874,W,2,11,0.60,308.17,M,-33.324,M,,*7E
2017-12-31 18:06:54 1514761614.789826: $GPRMC,230655,A,3946.9561,N,08404.9874,W,0.0000,0.000,311217,,*36
2017-12-31 18:06:54 1514761614.789887: $GPGSA,A,3,22,23,9,3,16,29,14,31,27,26,135,,1.7,0.6,1.3*06
2017-12-31 18:06:55 1514761615.415012: $GPZDA,230656.00,31,12,2017,00,00*67
2017-12-31 18:06:55 1514761615.415168: $GPGGA,230656,3946.9561,N,08404.9874,W,2,11,0.60,308.17,M,-33.324,M,,*7D
2017-12-31 18:06:55 1514761615.415235: $GPRMC,230656,A,3946.9561,N,08404.9874,W,0.0000,0.000,311217,,*35
2017-12-31 18:06:55 1514761615.415311: $GPGSA,A,3,22,23,9,3,16,29,14,31,27,26,135,,1.7,0.6,1.3*06
2017-12-31 18:06:56 1514761616.347190: $GPZDA,230657.00,31,12,2017,00,00*66
2017-12-31 18:06:56 1514761616.347373: $GPGGA,230657,3946.9561,N,08404.9874,W,2,11,0.60,308.17,M,-33.324,M,,*7C
2017-12-31 18:06:56 1514761616.347440: $GPRMC,230657,A,3946.9561,N,08404.9874,W,0.0000,0.000,311217,,*34
2017-12-31 18:06:56 1514761616.347501: $GPGSA,A,3,22,23,9,3,16,29,14,31,27,26,135,,1.7,0.6,1.3*06
2017-12-31 18:06:57 1514761617.682492: $GPGSV,3,1,11,22,23,216,40,23,52,307,44,09,19,312,43,03,33,235,45*79
2017-12-31 18:06:57 1514761617.682696: $GPGSV,3,2,11,16,79,190,44,29,06,031,35,14,16,132,36,31,29,073,41*7F
2017-12-31 18:06:57 1514761617.682763: $GPGSV,3,3,11,27,21,154,31,26,64,051,48,135,22,240,43*75
2017-12-31 18:06:57 1514761617.796085: $GPZDA,230658.00,31,12,2017,00,00*69
2017-12-31 18:06:57 1514761617.796212: $GPGGA,230658,3946.9561,N,08404.9874,W,2,11,0.60,308.17,M,-33.324,M,,*73
2017-12-31 18:06:57 1514761617.796277: $GPRMC,230658,A,3946.9561,N,08404.9874,W,0.0000,0.000,311217,,*3B
2017-12-31 18:06:57 1514761617.796338: $GPGSA,A,3,22,23,9,3,16,29,14,31,27,26,135,,1.7,0.6,1.3*06
2017-12-31 18:06:58 1514761618.346981: $GPZDA,230659.00,31,12,2017,00,00*68
2017-12-31 18:06:58 1514761618.347211: $GPGGA,230659,3946.9561,N,08404.9874,W,2,11,0.60,308.17,M,-33.324,M,,*72
2017-12-31 18:06:58 1514761618.347281: $GPRMC,230659,A,3946.9561,N,08404.9874,W,0.0000,0.000,311217,,*3A
2017-12-31 18:06:58 1514761618.347342: $GPGSA,A,3,22,23,9,3,16,29,14,31,27,26,135,,1.7,0.6,1.3*06
2017-12-31 18:06:59 1514761619.346361: $GPZDA,230700.00,31,12,2017,00,00*65
2017-12-31 18:06:59 1514761619.346544: $GPGGA,230700,3946.9561,N,08404.9874,W,2,11,0.60,308.17,M,-33.324,M,,*7F
2017-12-31 18:06:59 1514761619.346612: $GPRMC,230700,A,3946.9561,N,08404.9874,W,0.0000,0.000,311217,,*37
2017-12-31 18:06:59 1514761619.346673: $GPGSA,A,3,22,23,9,3,16,29,14,31,27,26,135,,1.7,0.6,1.3*06
2017-12-31 18:07:00 1514761620.704145: $GPGSV,3,1,11,22,23,216,40,23,52,307,45,09,19,312,43,03,33,235,45*78
2017-12-31 18:07:00 1514761620.704309: $GPGSV,3,2,11,16,79,190,44,29,06,031,34,14,16,132,36,31,29,073,42*7D
2017-12-31 18:07:00 1514761620.704432: $GPGSV,3,3,11,27,21,154,32,26,64,051,48,135,22,240,43*76
2017-12-31 18:07:00 1514761620.817797: $GPZDA,230701.00,31,12,2017,00,00*64
2017-12-31 18:07:00 1514761620.817930: $GPGGA,230701,3946.9561,N,08404.9874,W,2,11,0.60,308.17,M,-33.324,M,,*7E
2017-12-31 18:07:00 1514761620.817998: $GPRMC,230701,A,3946.9561,N,08404.9874,W,0.0000,0.000,311217,,*36
2017-12-31 18:07:00 1514761620.818061: $GPGSA,A,3,22,23,9,3,16,29,14,31,27,26,135,,1.7,0.6,1.3*06
2017-12-31 18:07:01 1514761621.341147: $GPZDA,230702.00,31,12,2017,00,00*67
2017-12-31 18:07:01 1514761621.341316: $GPGGA,230702,3946.9561,N,08404.9874,W,2,11,0.60,308.17,M,-33.324,M,,*7D
2017-12-31 18:07:01 1514761621.341384: $GPRMC,230702,A,3946.9561,N,08404.9874,W,0.0000,0.000,311217,,*35
2017-12-31 18:07:01 1514761621.341446: $GPGSA,A,3,22,23,9,3,16,29,14,31,27,26,135,,1.7,0.6,1.3*06
2017-12-31 18:07:02 1514761622.375784: $GPZDA,230703.00,31,12,2017,00,00*66
2017-12-31 18:07:02 1514761622.375955: $GPGGA,230703,3946.9561,N,08404.9874,W,2,11,0.60,308.17,M,-33.324,M,,*7C
2017-12-31 18:07:02 1514761622.376022: $GPRMC,230703,A,3946.9561,N,08404.9874,W,0.0000,0.000,311217,,*34
2017-12-31 18:07:02 1514761622.376083: $GPGSA,A,3,22,23,9,3,16,29,14,31,27,26,135,,1.7,0.6,1.3*06
