2017-12-29 14:49:30 1514576970.520665: {"class":"VERSION","release":"3.16","rev":"3.16-4","proto_major":3,"proto_minor":11}
2017-12-29 14:49:30 1514576970.521004: {"class":"DEVICES","devices":[{"class":"DEVICE","path":"/dev/ttyUSB0","driver":"SiRF","subtype":"9\u0006GSD4e_4.1.2-P1_RPATCH.05-F-GPS-4R-1510281 11/03/2015 307","activated":"2017-12-29T19:49:30.501Z","flags":1,"native":1,"bps":4800,"parity":"N","stopbits":1,"cycle":1.00}]}
2017-12-29 14:49:30 1514576970.521193: {"class":"WATCH","enable":true,"json":false,"nmea":true,"raw":0,"scaled":false,"timing":false,"split24":false,"pps":false}
2017-12-29 14:49:31 1514576971.352668: $GPZDA,194932.00,29,12,2017,00,00*6E
2017-12-29 14:49:31 1514576971.352824: $GPGGA,194932,3946.9595,N,08404.9763,W,2,12,0.80,303.76,M,-33.324,M,,*7E
2017-12-29 14:49:31 1514576971.352890: $GPRMC,194932,A,3946.9595,N,08404.9763,W,0.0000,0.000,291217,,*3E
2017-12-29 14:49:31 1514576971.352951: $GPGSA,A,3,1,10,11,12,14,18,22,25,31,32,26,138,1.7,0.8,1.3*3B
2017-12-29 14:49:32 1514576972.680811: $GPGSV,3,1,12,01,22,295,40,10,41,151,49,11,06,277,36,12,19,045,45*75
2017-12-29 14:49:32 1514576972.680970: $GPGSV,3,2,12,14,68,340,41,18,12,145,36,22,24,312,38,25,41,082,51*7C
2017-12-29 14:49:32 1514576972.681087: $GPGSV,3,3,12,31,64,231,46,32,66,045,50,26,08,181,28,138,38,213,44*42
2017-12-29 14:49:32 1514576972.794159: $GPZDA,194933.00,29,12,2017,00,00*6F
2017-12-29 14:49:32 1514576972.794291: $GPGGA,194933,3946.9595,N,08404.9763,W,2,12,0.80,303.76,M,-33.324,M,,*7F
2017-12-29 14:49:32 1514576972.794356: $GPRMC,194933,A,3946.9595,N,08404.9763,W,0.0000,0.000,291217,,*3F
2017-12-29 14:49:32 1514576972.794416: $GPGSA,A,3,1,10,11,12,14,18,22,25,31,32,26,138,1.7,0.8,1.3*3B
2017-12-29 14:49:33 1514576973.389270: $GPZDA,194934.00,29,12,2017,00,00*68
2017-12-29 14:49:33 1514576973.389428: $GPGGA,194934,3946.9595,N,08404.9763,W,2,12,0.80,303.76,M,-33.324,M,,*78
2017-12-29 14:49:33 1514576973.389494: $GPRMC,194934,A,3946.9595,N,08404.9763,W,0.0000,0.000,291217,,*38
2017-12-29 14:49:33 1514576973.389555: $GPGSA,A,3,1,10,11,12,14,18,22,25,31,32,26,138,1.7,0.8,1.3*3B
2017-12-29 14:49:34 1514576974.350015: $GPZDA,194935.00,29,12,2017,00,00*69
2017-12-29 14:49:34 1514576974.350170: $GPGGA,194935,3946.9595,N,08404.9763,W,2,12,0.80,303.76,M,-33.324,M,,*79
2017-12-29 14:49:34 1514576974.350236: $GPRMC,194935,A,3946.9595,N,08404.9763,W,0.0000,0.000,291217,,*39
2017-12-29 14:49:34 1514576974.350297: $GPGSA,A,3,1,10,11,12,14,18,22,25,31,32,26,138,1.7,0.8,1.3*3B
2017-12-29 14:49:35 1514576975.724982: $GPGSV,3,1,12,01,22,295,40,10,41,151,49,11,06,277,36,12,19,045,45*75
2017-12-29 14:49:35 1514576975.725174: $GPGSV,3,2,12,14,68,340,41,18,12,145,36,22,24,312,39,25,41,082,51*7D
2017-12-29 14:49:35 1514576975.725242: $GPGSV,3,3,12,31,64,231,46,32,66,045,51,26,08,181,28,138,38,213,43*44
2017-12-29 14:49:35 1514576975.838720: $GPZDA,194936.00,29,12,2017,00,00*6A
2017-12-29 14:49:35 1514576975.838866: $GPGGA,194936,3946.9595,N,08404.9763,W,2,12,0.80,303.76,M,-33.324,M,,*7A
2017-12-29 14:49:35 1514576975.838931: $GPRMC,194936,A,3946.9595,N,08404.9763,W,0.0000,0.000,291217,,*3A
2017-12-29 14:49:35 1514576975.838992: $GPGSA,A,3,1,10,11,12,14,18,22,25,31,32,26,138,1.7,0.8,1.3*3B
2017-12-29 14:49:36 1514576976.389594: $GPZDA,194937.00,29,12,2017,00,00*6B
2017-12-29 14:49:36 1514576976.389746: $GPGGA,194937,3946.9595,N,08404.9763,W,2,12,0.80,303.76,M,-33.324,M,,*7B
2017-12-29 14:49:36 1514576976.389811: $GPRMC,194937,A,3946.9595,N,08404.9763,W,0.0000,0.000,291217,,*3B
2017-12-29 14:49:36 1514576976.389871: $GPGSA,A,3,1,10,11,12,14,18,22,25,31,32,26,138,1.7,0.8,1.3*3B
2017-12-29 14:49:37 1514576977.390450: $GPZDA,194938.00,29,12,2017,00,00*64
2017-12-29 14:49:37 1514576977.390605: $GPGGA,194938,3946.9599,N,08404.9763,W,2,12,0.80,304.40,M,-33.324,M,,*7A
2017-12-29 14:49:37 1514576977.390670: $GPRMC,194938,A,3946.9599,N,08404.9763,W,0.0000,0.000,291217,,*38
2017-12-29 14:49:37 1514576977.390731: $GPGSA,A,3,1,10,11,12,14,18,22,25,31,32,26,138,1.7,0.8,1.3*3B
2017-12-29 14:49:38 1514576978.685753: $GPGSV,3,1,12,01,22,295,40,10,41,151,49,11,06,277,36,12,19,045,44*74
2017-12-29 14:49:38 1514576978.685964: $GPGSV,3,2,12,14,68,340,41,18,12,145,36,22,24,312,39,25,41,082,51*7D
2017-12-29 14:49:38 1514576978.686034: $GPGSV,3,3,12,31,64,231,46,32,66,045,50,26,08,181,28,138,38,213,42*44
2017-12-29 14:49:38 1514576978.799450: $GPZDA,194939.00,29,12,2017,00,00*65
2017-12-29 14:49:38 1514576978.799589: $GPGGA,194939,3946.9599,N,08404.9763,W,2,12,0.80,304.40,M,-33.324,M,,*7B
2017-12-29 14:49:38 1514576978.799654: $GPRMC,194939,A,3946.9599,N,08404.9763,W,0.0000,0.000,291217,,*39
2017-12-29 14:49:38 1514576978.799715: $GPGSA,A,3,1,10,11,12,14,18,22,25,31,32,26,138,1.7,0.8,1.3*3B
2017-12-29 14:49:39 1514576979.390373: $GPZDA,194940.00,29,12,2017,00,00*6B
2017-12-29 14:49:39 1514576979.390535: $GPGGA,194940,3946.9599,N,08404.9763,W,2,12,0.80,304.40,M,-33.324,M,,*75
2017-12-29 14:49:39 1514576979.390601: $GPRMC,194940,A,3946.9599,N,08404.9763,W,0.0000,0.000,291217,,*37
2017-12-29 14:49:39 1514576979.390662: $GPGSA,A,3,1,10,11,12,14,18,22,25,31,32,26,138,1.7,0.8,1.3*3B
2017-12-29 14:49:40 1514576980.389526: $GPZDA,194941.00,29,12,2017,00,00*6A
2017-12-29 14:49:40 1514576980.389691: $GPGGA,194941,3946.9599,N,08404.9763,W,2,12,0.80,304.40,M,-33.324,M,,*74
2017-12-29 14:49:40 1514576980.389757: $GPRMC,194941,A,3946.9599,N,08404.9763,W,0.0000,0.000,291217,,*36
2017-12-29 14:49:40 1514576980.389818: $GPGSA,A,3,1,10,11,12,14,18,22,25,31,32,26,138,1.7,0.8,1.3*3B
