2017-11-16 15:07:20 1510862840.215793: {"class":"VERSION","release":"3.17","rev":"3.17","proto_major":3,"proto_minor":12}
2017-11-16 15:07:20 1510862840.216236: {"class":"DEVICES","devices":[{"class":"DEVICE","path":"/dev/ttyUSB0","driver":"SiRF","subtype":"9\u0006GSD4e_4.1.2-P1_RPATCH.05-F-GPS-4R-1510281 11/03/2015 307","activated":"2017-11-16T20:07:19.994Z","flags":1,"native":1,"bps":4800,"parity":"N","stopbits":1,"cycle":1.00}]}
2017-11-16 15:07:20 1510862840.216353: {"class":"WATCH","enable":true,"json":false,"nmea":true,"raw":0,"scaled":false,"timing":false,"split24":false,"pps":false}
2017-11-16 15:07:20 1510862840.403273: $GPZDA,200719.00,16,11,2017,00,00*68
2017-11-16 15:07:20 1510862840.403445: $GPGGA,200719,3946.9592,N,08404.9843,W,2,12,0.80,296.55,M,-33.324,M,,*71
2017-11-16 15:07:20 1510862840.403507: $GPRMC,200719,A,3946.9592,N,08404.9843,W,0.0000,0.000,161117,,*32
2017-11-16 15:07:20 1510862840.403563: $GPGSA,A,3,8,10,14,15,18,20,21,24,27,32,12,138,1.6,0.8,1.3*34
2017-11-16 15:07:21 1510862841.398540: $GPZDA,200720.00,16,11,2017,00,00*62
2017-11-16 15:07:21 1510862841.398709: $GPGGA,200720,3946.9592,N,08404.9843,W,2,12,0.80,296.55,M,-33.324,M,,*7B
2017-11-16 15:07:21 1510862841.398771: $GPRMC,200720,A,3946.9592,N,08404.9843,W,0.0000,0.000,161117,,*38
2017-11-16 15:07:21 1510862841.398827: $GPGSA,A,3,8,10,14,15,18,20,21,24,27,32,12,138,1.6,0.8,1.3*34
2017-11-16 15:07:22 1510862842.738106: $GPGSV,3,1,12,08,07,300,29,10,62,321,51,14,23,247,44,15,17,063,42*7A
2017-11-16 15:07:22 1510862842.738292: $GPGSV,3,2,12,18,76,069,46,20,14,114,38,21,38,181,45,24,50,069,48*77
2017-11-16 15:07:22 1510862842.738386: $GPGSV,3,3,12,27,11,267,44,32,40,258,47,12,04,114,15,138,38,213,44*43
2017-11-16 15:07:22 1510862842.851324: $GPZDA,200721.00,16,11,2017,00,00*63
2017-11-16 15:07:22 1510862842.851483: $GPGGA,200721,3946.9592,N,08404.9843,W,2,12,0.80,296.55,M,-33.324,M,,*7A
2017-11-16 15:07:22 1510862842.851543: $GPRMC,200721,A,3946.9592,N,08404.9843,W,0.0000,0.000,161117,,*39
2017-11-16 15:07:22 1510862842.851599: $GPGSA,A,3,8,10,14,15,18,20,21,24,27,32,12,138,1.6,0.8,1.3*34
2017-11-16 15:07:23 1510862843.403455: $GPZDA,200722.00,16,11,2017,00,00*60
2017-11-16 15:07:23 1510862843.403646: $GPGGA,200722,3946.9592,N,08404.9843,W,2,12,0.80,296.55,M,-33.324,M,,*79
2017-11-16 15:07:23 1510862843.403708: $GPRMC,200722,A,3946.9592,N,08404.9843,W,0.0000,0.000,161117,,*3A
2017-11-16 15:07:23 1510862843.403764: $GPGSA,A,3,8,10,14,15,18,20,21,24,27,32,12,138,1.6,0.8,1.3*34
2017-11-16 15:07:24 1510862844.403154: $GPZDA,200723.00,16,11,2017,00,00*61
2017-11-16 15:07:24 1510862844.403331: $GPGGA,200723,3946.9592,N,08404.9843,W,2,12,0.80,296.55,M,-33.324,M,,*78
2017-11-16 15:07:24 1510862844.403394: $GPRMC,200723,A,3946.9592,N,08404.9843,W,0.0000,0.000,161117,,*3B
2017-11-16 15:07:24 1510862844.403465: $GPGSA,A,3,8,10,14,15,18,20,21,24,27,32,12,138,1.6,0.8,1.3*34
2017-11-16 15:07:25 1510862845.739826: $GPGSV,3,1,12,08,07,300,30,10,62,321,51,14,23,247,44,15,17,063,42*72
2017-11-16 15:07:25 1510862845.740016: $GPGSV,3,2,12,18,76,069,46,20,14,114,38,21,38,181,45,24,50,069,48*77
2017-11-16 15:07:25 1510862845.740078: $GPGSV,3,3,12,27,11,267,44,32,40,258,47,12,04,114,00,138,38,213,43*40
2017-11-16 15:07:25 1510862845.853119: $GPZDA,200724.00,16,11,2017,00,00*66
2017-11-16 15:07:25 1510862845.853277: $GPGGA,200724,3946.9592,N,08404.9843,W,2,11,0.80,296.55,M,-33.324,M,,*7C
2017-11-16 15:07:25 1510862845.853337: $GPRMC,200724,A,3946.9592,N,08404.9843,W,0.0000,0.000,161117,,*3C
2017-11-16 15:07:25 1510862845.853392: $GPGSA,A,3,8,10,14,15,18,20,21,24,27,32,138,,1.6,0.8,1.3*37
2017-11-16 15:07:26 1510862846.478440: $GPZDA,200725.00,16,11,2017,00,00*67
2017-11-16 15:07:26 1510862846.478596: $GPGGA,200725,3946.9592,N,08404.9843,W,2,11,0.80,296.55,M,-33.324,M,,*7D
2017-11-16 15:07:26 1510862846.478659: $GPRMC,200725,A,3946.9592,N,08404.9843,W,0.0000,0.000,161117,,*3D
2017-11-16 15:07:26 1510862846.478714: $GPGSA,A,3,8,10,14,15,18,20,21,24,27,32,138,,1.6,0.8,1.3*37
2017-11-16 15:07:27 1510862847.401841: $GPZDA,200726.00,16,11,2017,00,00*64
2017-11-16 15:07:27 1510862847.402072: $GPGGA,200726,3946.9592,N,08404.9843,W,2,11,0.80,296.55,M,-33.324,M,,*7E
2017-11-16 15:07:27 1510862847.402137: $GPRMC,200726,A,3946.9592,N,08404.9843,W,0.0000,0.000,161117,,*3E
2017-11-16 15:07:27 1510862847.402195: $GPGSA,A,3,8,10,14,15,18,20,21,24,27,32,138,,1.6,0.8,1.3*37
2017-11-16 15:07:28 1510862848.736163: $GPGSV,3,1,12,08,07,300,30,10,62,321,51,14,23,247,43,15,17,063,42*75
2017-11-16 15:07:28 1510862848.736351: $GPGSV,3,2,12,18,76,069,46,20,14,114,38,21,38,181,44,24,50,069,48*76
2017-11-16 15:07:28 1510862848.736412: $GPGSV,3,3,12,27,11,267,44,32,40,258,47,12,04,114,01,138,38,213,44*46
2017-11-16 15:07:28 1510862848.849931: $GPZDA,200727.00,16,11,2017,00,00*65
2017-11-16 15:07:28 1510862848.850114: $GPGGA,200727,3946.9593,N,08404.9844,W,2,11,0.80,297.95,M,-33.324,M,,*74
2017-11-16 15:07:28 1510862848.850176: $GPRMC,200727,A,3946.9593,N,08404.9844,W,0.0000,0.000,161117,,*39
2017-11-16 15:07:28 1510862848.850232: $GPGSA,A,3,8,10,14,15,18,20,21,24,27,32,138,,1.6,0.8,1.3*37
2017-11-16 15:07:29 1510862849.403626: $GPZDA,200728.00,16,11,2017,00,00*6A
2017-11-16 15:07:29 1510862849.403801: $GPGGA,200728,3946.9593,N,08404.9844,W,2,11,0.80,297.95,M,-33.324,M,,*7B
2017-11-16 15:07:29 1510862849.403863: $GPRMC,200728,A,3946.9593,N,08404.9844,W,0.0000,0.000,161117,,*36
2017-11-16 15:07:29 1510862849.403919: $GPGSA,A,3,8,10,14,15,18,20,21,24,27,32,138,,1.6,0.8,1.3*37
