2017-11-15 18:34:50 1510788890.733052: {"class":"VERSION","release":"3.17","rev":"3.17","proto_major":3,"proto_minor":12}
2017-11-15 18:34:50 1510788890.733493: {"class":"DEVICES","devices":[{"class":"DEVICE","path":"/dev/ttyUSB0","driver":"SiRF","subtype":"9\u0006GSD4e_4.1.2-P1_RPATCH.05-F-GPS-4R-1510281 11/03/2015 307","activated":"2017-11-15T23:34:50.677Z","flags":1,"native":1,"bps":4800,"parity":"N","stopbits":1,"cycle":1.00}]}
2017-11-15 18:34:50 1510788890.733627: {"class":"WATCH","enable":true,"json":false,"nmea":true,"raw":0,"scaled":false,"timing":false,"split24":false,"pps":false}
2017-11-15 18:34:51 1510788891.663653: $GPGSV,3,1,11,25,35,055,23,14,69,042,18,22,40,301,12,01,18,274,10*73
2017-11-15 18:34:51 1510788891.663851: $GPGSV,3,2,11,31,78,283,23,32,55,079,19,03,21,315,00,10,21,157,16*7B
2017-11-15 18:34:51 1510788891.663911: $GPGSV,3,3,11,26,26,178,05,12,06,031,00,138,38,213,00*74
2017-11-15 18:34:51 1510788891.777107: $GPZDA,233450.00,15,11,2017,00,00*65
2017-11-15 18:34:51 1510788891.777305: $GPGGA,233450,3946.9557,N,08404.9477,W,1,07,1.20,291.73,M,-33.324,M,,*72
2017-11-15 18:34:51 1510788891.777428: $GPRMC,233450,A,3946.9557,N,08404.9477,W,0.4207,219.347,151117,,*36
2017-11-15 18:34:51 1510788891.777527: $GPGSA,A,3,25,14,22,1,31,32,10,,,,,,3.4,1.2,2.9*0C
2017-11-15 18:34:52 1510788892.362110: $GPZDA,233451.00,15,11,2017,00,00*64
2017-11-15 18:34:52 1510788892.362274: $GPGGA,233451,3946.9557,N,08404.9470,W,1,07,1.20,291.81,M,-33.324,M,,*79
2017-11-15 18:34:52 1510788892.362335: $GPRMC,233451,A,3946.9557,N,08404.9470,W,0.2422,93.794,151117,,*0D
2017-11-15 18:34:52 1510788892.362390: $GPGSA,A,3,25,14,22,1,31,32,10,,,,,,3.4,1.2,2.9*0C
2017-11-15 18:34:53 1510788893.328760: $GPZDA,233452.00,15,11,2017,00,00*67
2017-11-15 18:34:53 1510788893.328931: $GPGGA,233452,3946.9553,N,08404.9470,W,1,07,1.20,291.17,M,-33.324,M,,*71
2017-11-15 18:34:53 1510788893.328993: $GPRMC,233452,A,3946.9553,N,08404.9470,W,0.4207,39.347,151117,,*07
2017-11-15 18:34:53 1510788893.329050: $GPGSA,A,3,25,14,22,1,31,32,10,,,,,,3.4,1.2,2.9*0C
2017-11-15 18:34:54 1510788894.698239: $GPGSV,3,1,11,25,35,055,24,14,69,042,18,22,40,301,13,01,18,274,05*71
2017-11-15 18:34:54 1510788894.698408: $GPGSV,3,2,11,31,78,283,23,32,55,079,19,03,21,315,00,10,21,157,16*7B
2017-11-15 18:34:54 1510788894.698468: $GPGSV,3,3,11,26,26,178,10,12,06,031,00,138,38,213,00*70
2017-11-15 18:34:54 1510788894.811884: $GPZDA,233453.00,15,11,2017,00,00*66
2017-11-15 18:34:54 1510788894.812045: $GPGGA,233453,3946.9553,N,08404.9470,W,1,06,3.00,291.17,M,-33.324,M,,*71
2017-11-15 18:34:54 1510788894.812106: $GPRMC,233453,A,3946.9553,N,08404.9470,W,0.3155,309.994,151117,,*31
2017-11-15 18:34:54 1510788894.812161: $GPGSA,A,3,25,14,22,31,32,10,,,,,,,3.4,3.0,2.9*3D
2017-11-15 18:34:55 1510788895.328738: $GPZDA,233454.00,15,11,2017,00,00*61
2017-11-15 18:34:55 1510788895.328904: $GPGGA,233454,3946.9553,N,08404.9477,W,1,06,3.00,291.09,M,-33.324,M,,*7E
2017-11-15 18:34:55 1510788895.328967: $GPRMC,233454,A,3946.9553,N,08404.9477,W,0.2422,273.794,151117,,*37
2017-11-15 18:34:55 1510788895.329023: $GPGSA,A,3,25,14,22,31,32,10,,,,,,,3.4,3.0,2.9*3D
2017-11-15 18:34:56 1510788896.363143: $GPZDA,233455.00,15,11,2017,00,00*60
2017-11-15 18:34:56 1510788896.363306: $GPGGA,233455,3946.9549,N,08404.9477,W,1,06,1.20,290.45,M,-33.324,M,,*7D
2017-11-15 18:34:56 1510788896.363366: $GPRMC,233455,A,3946.9549,N,08404.9477,W,0.3423,184.197,151117,,*33
2017-11-15 18:34:56 1510788896.363422: $GPGSA,A,3,25,14,22,31,32,10,,,,,,,3.4,1.2,2.9*3D
2017-11-15 18:34:57 1510788897.664887: $GPGSV,3,1,11,25,35,055,24,14,69,042,18,22,40,301,13,01,18,274,10*75
2017-11-15 18:34:57 1510788897.665058: $GPGSV,3,2,11,31,78,283,23,32,55,079,19,03,21,315,00,10,21,157,16*7B
2017-11-15 18:34:57 1510788897.665119: $GPGSV,3,3,11,26,26,178,09,12,06,031,00,138,38,213,00*78
2017-11-15 18:34:57 1510788897.778222: $GPZDA,233456.00,15,11,2017,00,00*63
2017-11-15 18:34:57 1510788897.778408: $GPGGA,233456,3946.9549,N,08404.9477,W,1,07,1.20,290.45,M,-33.324,M,,*7F
2017-11-15 18:34:57 1510788897.778469: $GPRMC,233456,A,3946.9549,N,08404.9477,W,0.7278,203.636,151117,,*3C
2017-11-15 18:34:57 1510788897.778605: $GPGSA,A,3,25,14,22,1,31,32,10,,,,,,3.4,1.2,2.9*0C
2017-11-15 18:34:58 1510788898.329102: $GPZDA,233457.00,15,11,2017,00,00*62
2017-11-15 18:34:58 1510788898.329285: $GPGGA,233457,3946.9541,N,08404.9478,W,1,07,1.20,290.57,M,-33.324,M,,*7A
2017-11-15 18:34:58 1510788898.329347: $GPRMC,233457,A,3946.9541,N,08404.9478,W,0.5617,211.295,151117,,*3B
2017-11-15 18:34:58 1510788898.329403: $GPGSA,A,3,25,14,22,1,31,32,10,,,,,,3.4,1.2,2.9*0C
2017-11-15 18:34:59 1510788899.328709: $GPZDA,233458.00,15,11,2017,00,00*6D
2017-11-15 18:34:59 1510788899.328891: $GPGGA,233458,3946.9541,N,08404.9478,W,1,07,1.00,290.57,M,-33.324,M,,*77
2017-11-15 18:34:59 1510788899.328954: $GPRMC,233458,A,3946.9541,N,08404.9478,W,0.8054,248.645,151117,,*3D
2017-11-15 18:34:59 1510788899.329011: $GPGSA,A,3,25,14,22,1,31,32,10,,,,,,3.4,1.0,2.9*0E
2017-11-15 18:35:00 1510788900.664474: $GPGSV,3,1,11,25,35,055,24,14,69,042,18,22,40,301,13,01,18,274,09*7D
2017-11-15 18:35:00 1510788900.664675: $GPGSV,3,2,11,31,78,283,23,32,55,079,13,03,21,315,00,10,21,157,16*71
2017-11-15 18:35:00 1510788900.664737: $GPGSV,3,3,11,26,26,178,12,12,06,031,00,138,38,213,00*72
2017-11-15 18:35:00 1510788900.777824: $GPZDA,233459.00,15,11,2017,00,00*6C
2017-11-15 18:35:00 1510788900.777990: $GPGGA,233459,3946.9542,N,08404.9485,W,1,08,1.20,290.49,M,-33.324,M,,*75
2017-11-15 18:35:00 1510788900.778050: $GPRMC,233459,A,3946.9542,N,08404.9485,W,0.9988,284.546,151117,,*34
2017-11-15 18:35:00 1510788900.778105: $GPGSA,A,3,25,14,22,1,31,32,10,26,,,,,3.4,1.2,2.9*08
2017-11-15 18:35:01 1510788901.403142: $GPZDA,233500.00,15,11,2017,00,00*61
2017-11-15 18:35:01 1510788901.403322: $GPGGA,233500,3946.9542,N,08404.9492,W,1,08,1.20,290.41,M,-33.324,M,,*76
2017-11-15 18:35:01 1510788901.403382: $GPRMC,233500,A,3946.9542,N,08404.9492,W,0.9689,273.794,151117,,*34
2017-11-15 18:35:01 1510788901.403438: $GPGSA,A,3,25,14,22,1,31,32,10,26,,,,,3.4,1.2,2.9*08
2017-11-15 18:35:02 1510788902.363190: $GPZDA,233501.00,15,11,2017,00,00*60
2017-11-15 18:35:02 1510788902.363361: $GPGGA,233501,3946.9538,N,08404.9492,W,1,08,1.20,289.77,M,-33.324,M,,*77
2017-11-15 18:35:02 1510788902.363422: $GPRMC,233501,A,3946.9538,N,08404.9492,W,0.2422,273.794,151117,,*30
2017-11-15 18:35:02 1510788902.363478: $GPGSA,A,3,25,14,22,1,31,32,10,26,,,,,3.4,1.2,2.9*08
2017-11-15 18:35:03 1510788903.663735: $GPGSV,3,1,11,25,35,055,24,14,69,042,19,22,40,301,12,01,18,274,11*74
2017-11-15 18:35:03 1510788903.663906: $GPGSV,3,2,11,31,78,283,23,32,55,079,17,03,21,315,00,10,21,157,16*75
2017-11-15 18:35:03 1510788903.663966: $GPGSV,3,3,11,26,26,178,04,12,06,031,00,138,38,213,00*75
2017-11-15 18:35:03 1510788903.777884: $GPZDA,233502.00,15,11,2017,00,00*63
2017-11-15 18:35:03 1510788903.778078: $GPGGA,233502,3946.9538,N,08404.9492,W,1,07,1.20,289.77,M,-33.324,M,,*7B
2017-11-15 18:35:03 1510788903.778367: $GPRMC,233502,A,3946.9538,N,08404.9492,W,0.0000,0.000,151117,,*39
2017-11-15 18:35:03 1510788903.778434: $GPGSA,A,3,25,14,22,1,31,32,10,,,,,,3.4,1.2,2.9*0C
2017-11-15 18:35:04 1510788904.327887: $GPZDA,233503.00,15,11,2017,00,00*62
2017-11-15 18:35:04 1510788904.328049: $GPGGA,233503,3946.9538,N,08404.9492,W,1,07,1.20,289.77,M,-33.324,M,,*7A
2017-11-15 18:35:04 1510788904.328109: $GPRMC,233503,A,3946.9538,N,08404.9492,W,0.5306,114.352,151117,,*38
2017-11-15 18:35:04 1510788904.328165: $GPGSA,A,3,25,14,22,1,31,32,10,,,,,,3.4,1.2,2.9*0C
2017-11-15 18:35:05 1510788905.361199: $GPZDA,233504.00,15,11,2017,00,00*65
2017-11-15 18:35:05 1510788905.361368: $GPGGA,233504,3946.9530,N,08404.9486,W,1,07,1.20,289.98,M,-33.324,M,,*71
2017-11-15 18:35:05 1510788905.361428: $GPRMC,233504,A,3946.9530,N,08404.9486,W,0.3155,129.994,151117,,*3E
2017-11-15 18:35:05 1510788905.361486: $GPGSA,A,3,25,14,22,1,31,32,10,,,,,,3.4,1.2,2.9*0C
