2018-01-11 19:53:02 1515718382.026378: {"class":"VERSION","release":"3.16","rev":"3.16-4","proto_major":3,"proto_minor":11}
2018-01-11 19:53:02 1515718382.026722: {"class":"DEVICES","devices":[{"class":"DEVICE","path":"/dev/ttyUSB0","driver":"SiRF","subtype":"9\u0006GSD4e_4.1.2-P1_RPATCH.05-F-GPS-4R-1510281 11/03/2015 307","activated":"2018-01-12T00:53:01.703Z","flags":1,"native":1,"bps":4800,"parity":"N","stopbits":1,"cycle":1.00}]}
2018-01-11 19:53:02 1515718382.026835: {"class":"WATCH","enable":true,"json":false,"nmea":true,"raw":0,"scaled":false,"timing":false,"split24":false,"pps":false}
2018-01-11 19:53:02 1515718382.738088: $GPGSV,3,1,11,07,48,312,42,08,67,153,44,09,53,241,42,16,29,055,46*78
2018-01-11 19:53:02 1515718382.738249: $GPGSV,3,2,11,23,38,193,46,27,54,063,50,30,22,303,28,11,13,171,34*74
2018-01-11 19:53:02 1515718382.738316: $GPGSV,3,3,11,26,04,067,19,28,08,252,34,138,38,213,45*70
2018-01-11 19:53:02 1515718382.851461: $GPZDA,005303.00,12,01,2018,00,00*6A
2018-01-11 19:53:02 1515718382.851583: $GPGGA,005303,3946.9606,N,08404.9871,W,2,11,0.80,298.15,M,-33.324,M,,*7F
2018-01-11 19:53:02 1515718382.851648: $GPRMC,005303,A,3946.9606,N,08404.9871,W,0.0000,0.000,120118,,*3F
2018-01-11 19:53:02 1515718382.851708: $GPGSA,A,3,7,8,9,16,23,27,30,11,26,28,138,,4.0,0.8,3.5*3A
2018-01-11 19:53:03 1515718383.391091: $GPZDA,005304.00,12,01,2018,00,00*6D
2018-01-11 19:53:03 1515718383.391261: $GPGGA,005304,3946.9606,N,08404.9871,W,2,11,0.80,298.15,M,-33.324,M,,*78
2018-01-11 19:53:03 1515718383.391329: $GPRMC,005304,A,3946.9606,N,08404.9871,W,0.0000,0.000,120118,,*38
2018-01-11 19:53:03 1515718383.391390: $GPGSA,A,3,7,8,9,16,23,27,30,11,26,28,138,,4.0,0.8,3.5*3A
2018-01-11 19:53:04 1515718384.404470: $GPZDA,005305.00,12,01,2018,00,00*6C
2018-01-11 19:53:04 1515718384.404628: $GPGGA,005305,3946.9606,N,08404.9871,W,2,11,0.80,298.15,M,-33.324,M,,*79
2018-01-11 19:53:04 1515718384.404697: $GPRMC,005305,A,3946.9606,N,08404.9871,W,0.0000,0.000,120118,,*39
2018-01-11 19:53:04 1515718384.404758: $GPGSA,A,3,7,8,9,16,23,27,30,11,26,28,138,,4.0,0.8,3.5*3A
2018-01-11 19:53:05 1515718385.741431: $GPGSV,3,1,11,07,48,312,42,08,67,153,44,09,53,241,43,16,29,055,46*79
2018-01-11 19:53:05 1515718385.741576: $GPGSV,3,2,11,23,38,193,46,27,54,063,50,30,22,303,28,11,13,171,34*74
2018-01-11 19:53:05 1515718385.741641: $GPGSV,3,3,11,26,04,067,13,28,08,252,34,138,38,213,45*7A
2018-01-11 19:53:05 1515718385.854807: $GPZDA,005306.00,12,01,2018,00,00*6F
2018-01-11 19:53:05 1515718385.854967: $GPGGA,005306,3946.9606,N,08404.9871,W,2,11,0.80,298.15,M,-33.324,M,,*7A
2018-01-11 19:53:05 1515718385.855064: $GPRMC,005306,A,3946.9606,N,08404.9871,W,0.0000,0.000,120118,,*3A
2018-01-11 19:53:05 1515718385.855126: $GPGSA,A,3,7,8,9,16,23,27,30,11,26,28,138,,4.0,0.8,3.5*3A
2018-01-11 19:53:06 1515718386.404459: $GPZDA,005307.00,12,01,2018,00,00*6E
2018-01-11 19:53:06 1515718386.404642: $GPGGA,005307,3946.9605,N,08404.9864,W,2,11,0.80,298.23,M,-33.324,M,,*79
2018-01-11 19:53:06 1515718386.404710: $GPRMC,005307,A,3946.9605,N,08404.9864,W,0.0000,0.000,120118,,*3C
2018-01-11 19:53:06 1515718386.404772: $GPGSA,A,3,7,8,9,16,23,27,30,11,26,28,138,,4.0,0.8,3.5*3A
2018-01-11 19:53:07 1515718387.408553: $GPZDA,005308.00,12,01,2018,00,00*61
2018-01-11 19:53:07 1515718387.408709: $GPGGA,005308,3946.9605,N,08404.9864,W,2,11,0.80,298.23,M,-33.324,M,,*76
2018-01-11 19:53:07 1515718387.408777: $GPRMC,005308,A,3946.9605,N,08404.9864,W,0.0000,0.000,120118,,*33
2018-01-11 19:53:07 1515718387.408860: $GPGSA,A,3,7,8,9,16,23,27,30,11,26,28,138,,4.0,0.8,3.5*3A
2018-01-11 19:53:08 1515718388.739323: $GPGSV,3,1,11,07,48,312,42,08,67,153,45,09,53,241,43,16,29,055,46*78
2018-01-11 19:53:08 1515718388.739495: $GPGSV,3,2,11,23,38,193,46,27,54,063,51,30,22,303,28,11,13,171,33*72
2018-01-11 19:53:08 1515718388.739562: $GPGSV,3,3,11,26,04,067,19,28,08,252,34,138,38,213,45*70
2018-01-11 19:53:08 1515718388.852919: $GPZDA,005309.00,12,01,2018,00,00*60
2018-01-11 19:53:08 1515718388.853069: $GPGGA,005309,3946.9605,N,08404.9864,W,2,11,0.80,298.23,M,-33.324,M,,*77
2018-01-11 19:53:08 1515718388.853190: $GPRMC,005309,A,3946.9605,N,08404.9864,W,0.0000,0.000,120118,,*32
2018-01-11 19:53:08 1515718388.853253: $GPGSA,A,3,7,8,9,16,23,27,30,11,26,28,138,,4.0,0.8,3.5*3A
2018-01-11 19:53:09 1515718389.391295: $GPZDA,005310.00,12,01,2018,00,00*68
2018-01-11 19:53:09 1515718389.391455: $GPGGA,005310,3946.9605,N,08404.9864,W,2,11,0.80,298.23,M,-33.324,M,,*7F
2018-01-11 19:53:09 1515718389.391521: $GPRMC,005310,A,3946.9605,N,08404.9864,W,0.0000,0.000,120118,,*3A
2018-01-11 19:53:09 1515718389.391582: $GPGSA,A,3,7,8,9,16,23,27,30,11,26,28,138,,4.0,0.8,3.5*3A
2018-01-11 19:53:10 1515718390.390906: $GPZDA,005311.00,12,01,2018,00,00*69
2018-01-11 19:53:10 1515718390.391083: $GPGGA,005311,3946.9605,N,08404.9864,W,2,11,0.80,298.23,M,-33.324,M,,*7E
2018-01-11 19:53:10 1515718390.391166: $GPRMC,005311,A,3946.9605,N,08404.9864,W,0.0000,0.000,120118,,*3B
2018-01-11 19:53:10 1515718390.391227: $GPGSA,A,3,7,8,9,16,23,27,30,11,26,28,138,,4.0,0.8,3.5*3A
