2017-12-01 17:20:09 1512166809.727133: {"class":"VERSION","release":"3.16","rev":"3.16-4","proto_major":3,"proto_minor":11}
2017-12-01 17:20:09 1512166809.727521: {"class":"DEVICES","devices":[{"class":"DEVICE","path":"/dev/ttyUSB0","driver":"SiRF","subtype":"9\u0006GSD4e_4.1.2-P1_RPATCH.05-F-GPS-4R-1510281 11/03/2015 307","activated":"2017-12-01T22:20:09.552Z","flags":1,"native":1,"bps":4800,"parity":"N","stopbits":1,"cycle":1.00}]}
2017-12-01 17:20:09 1512166809.727636: {"class":"WATCH","enable":true,"json":false,"nmea":true,"raw":0,"scaled":false,"timing":false,"split24":false,"pps":false}
2017-12-01 17:20:10 1512166810.729265: $GPGSV,3,1,11,01,19,277,43,03,18,316,43,10,25,156,38,14,70,030,46*72
2017-12-01 17:20:10 1512166810.729460: $GPGSV,3,2,11,22,37,304,44,25,37,060,32,26,23,178,37,31,77,268,47*7D
2017-12-01 17:20:10 1512166810.729533: $GPGSV,3,3,11,32,57,075,46,12,09,034,31,138,38,213,35*72
2017-12-01 17:20:10 1512166810.842659: $GPZDA,222011.00,01,12,2017,00,00*62
2017-12-01 17:20:10 1512166810.842839: $GPGGA,222011,3946.9650,N,08404.9742,W,2,11,0.80,300.87,M,-33.324,M,,*7F
2017-12-01 17:20:10 1512166810.842922: $GPRMC,222011,A,3946.9650,N,08404.9742,W,0.0000,0.000,011217,,*3B
2017-12-01 17:20:10 1512166810.842985: $GPGSA,A,3,1,3,10,14,22,25,26,31,32,12,138,,2.0,0.8,1.5*03
2017-12-01 17:20:11 1512166811.393444: $GPZDA,222012.00,01,12,2017,00,00*61
2017-12-01 17:20:11 1512166811.393614: $GPGGA,222012,3946.9650,N,08404.9742,W,2,11,0.80,300.87,M,-33.324,M,,*7C
2017-12-01 17:20:11 1512166811.393681: $GPRMC,222012,A,3946.9650,N,08404.9742,W,0.0000,0.000,011217,,*38
2017-12-01 17:20:11 1512166811.393742: $GPGSA,A,3,1,3,10,14,22,25,26,31,32,12,138,,2.0,0.8,1.5*03
2017-12-01 17:20:12 1512166812.412557: $GPZDA,222013.00,01,12,2017,00,00*60
2017-12-01 17:20:12 1512166812.412726: $GPGGA,222013,3946.9650,N,08404.9742,W,2,11,0.80,300.87,M,-33.324,M,,*7D
2017-12-01 17:20:12 1512166812.412791: $GPRMC,222013,A,3946.9650,N,08404.9742,W,0.0000,0.000,011217,,*39
2017-12-01 17:20:12 1512166812.412852: $GPGSA,A,3,1,3,10,14,22,25,26,31,32,12,138,,2.0,0.8,1.5*03
2017-12-01 17:20:13 1512166813.748199: $GPGSV,3,1,11,01,19,277,43,03,18,316,42,10,25,156,38,14,70,030,46*73
2017-12-01 17:20:13 1512166813.748410: $GPGSV,3,2,11,22,37,304,44,25,37,060,32,26,23,178,37,31,77,268,47*7D
2017-12-01 17:20:13 1512166813.748479: $GPGSV,3,3,11,32,57,075,47,12,09,034,27,138,38,213,39*78
2017-12-01 17:20:13 1512166813.860377: $GPZDA,222014.00,01,12,2017,00,00*67
2017-12-01 17:20:13 1512166813.860534: $GPGGA,222014,3946.9650,N,08404.9742,W,2,11,0.80,300.87,M,-33.324,M,,*7A
2017-12-01 17:20:13 1512166813.860600: $GPRMC,222014,A,3946.9650,N,08404.9742,W,0.0000,0.000,011217,,*3E
2017-12-01 17:20:13 1512166813.860660: $GPGSA,A,3,1,3,10,14,22,25,26,31,32,12,138,,2.0,0.8,1.5*03
2017-12-01 17:20:14 1512166814.412614: $GPZDA,222015.00,01,12,2017,00,00*66
2017-12-01 17:20:14 1512166814.412783: $GPGGA,222015,3946.9650,N,08404.9742,W,2,11,0.80,300.87,M,-33.324,M,,*7B
2017-12-01 17:20:14 1512166814.412850: $GPRMC,222015,A,3946.9650,N,08404.9742,W,0.0000,0.000,011217,,*3F
2017-12-01 17:20:14 1512166814.412911: $GPGSA,A,3,1,3,10,14,22,25,26,31,32,12,138,,2.0,0.8,1.5*03
2017-12-01 17:20:15 1512166815.413380: $GPZDA,222016.00,01,12,2017,00,00*65
2017-12-01 17:20:15 1512166815.413569: $GPGGA,222016,3946.9650,N,08404.9742,W,2,11,0.80,300.87,M,-33.324,M,,*78
2017-12-01 17:20:15 1512166815.413635: $GPRMC,222016,A,3946.9650,N,08404.9742,W,0.0000,0.000,011217,,*3C
2017-12-01 17:20:15 1512166815.413696: $GPGSA,A,3,1,3,10,14,22,25,26,31,32,12,138,,2.0,0.8,1.5*03
2017-12-01 17:20:16 1512166816.739081: $GPGSV,3,1,11,01,19,277,42,03,18,316,42,10,25,156,38,14,70,030,46*72
2017-12-01 17:20:16 1512166816.739295: $GPGSV,3,2,11,22,37,304,44,25,37,060,32,26,23,178,36,31,77,268,47*7C
2017-12-01 17:20:16 1512166816.739366: $GPGSV,3,3,11,32,57,075,47,12,09,034,25,138,38,213,40*74
2017-12-01 17:20:16 1512166816.852900: $GPZDA,222017.00,01,12,2017,00,00*64
2017-12-01 17:20:16 1512166816.853201: $GPGGA,222017,3946.9650,N,08404.9742,W,2,11,0.80,300.87,M,-33.324,M,,*79
2017-12-01 17:20:16 1512166816.853487: $GPRMC,222017,A,3946.9650,N,08404.9742,W,0.0000,0.000,011217,,*3D
2017-12-01 17:20:16 1512166816.853621: $GPGSA,A,3,1,3,10,14,22,25,26,31,32,12,138,,2.0,0.8,1.5*03
2017-12-01 17:20:17 1512166817.478286: $GPZDA,222018.00,01,12,2017,00,00*6B
2017-12-01 17:20:17 1512166817.478485: $GPGGA,222018,3946.9650,N,08404.9742,W,2,11,0.80,300.87,M,-33.324,M,,*76
2017-12-01 17:20:17 1512166817.478554: $GPRMC,222018,A,3946.9650,N,08404.9742,W,0.0000,0.000,011217,,*32
2017-12-01 17:20:17 1512166817.478616: $GPGSA,A,3,1,3,10,14,22,25,26,31,32,12,138,,2.0,0.8,1.5*03
2017-12-01 17:20:18 1512166818.392971: $GPZDA,222019.00,01,12,2017,00,00*6A
2017-12-01 17:20:18 1512166818.393139: $GPGGA,222019,3946.9650,N,08404.9742,W,2,11,0.80,300.87,M,-33.324,M,,*77
2017-12-01 17:20:18 1512166818.393206: $GPRMC,222019,A,3946.9650,N,08404.9742,W,0.0000,0.000,011217,,*33
2017-12-01 17:20:18 1512166818.393291: $GPGSA,A,3,1,3,10,14,22,25,26,31,32,12,138,,2.0,0.8,1.5*03
2017-12-01 17:20:19 1512166819.728205: $GPGSV,3,1,11,01,19,277,42,03,18,316,42,10,25,156,38,14,70,030,45*71
2017-12-01 17:20:19 1512166819.728416: $GPGSV,3,2,11,22,37,304,44,25,37,060,32,26,23,178,36,31,77,268,47*7C
2017-12-01 17:20:19 1512166819.728485: $GPGSV,3,3,11,32,57,075,47,12,09,034,26,138,38,213,40*77
2017-12-01 17:20:19 1512166819.841692: $GPZDA,222020.00,01,12,2017,00,00*60
2017-12-01 17:20:19 1512166819.841863: $GPGGA,222020,3946.9650,N,08404.9742,W,2,11,0.80,300.87,M,-33.324,M,,*7D
2017-12-01 17:20:19 1512166819.841929: $GPRMC,222020,A,3946.9650,N,08404.9742,W,0.0000,0.000,011217,,*39
2017-12-01 17:20:19 1512166819.841990: $GPGSA,A,3,1,3,10,14,22,25,26,31,32,12,138,,2.0,0.8,1.5*03
2017-12-01 17:20:20 1512166820.394174: $GPZDA,222021.00,01,12,2017,00,00*61
2017-12-01 17:20:20 1512166820.394380: $GPGGA,222021,3946.9650,N,08404.9742,W,2,11,0.80,300.87,M,-33.324,M,,*7C
2017-12-01 17:20:20 1512166820.394449: $GPRMC,222021,A,3946.9650,N,08404.9742,W,0.0000,0.000,011217,,*38
2017-12-01 17:20:20 1512166820.394510: $GPGSA,A,3,1,3,10,14,22,25,26,31,32,12,138,,2.0,0.8,1.5*03
2017-12-01 17:20:21 1512166821.392632: $GPZDA,222022.00,01,12,2017,00,00*62
2017-12-01 17:20:21 1512166821.392799: $GPGGA,222022,3946.9650,N,08404.9742,W,2,11,0.80,300.87,M,-33.324,M,,*7F
2017-12-01 17:20:21 1512166821.392866: $GPRMC,222022,A,3946.9650,N,08404.9742,W,0.0000,0.000,011217,,*3B
2017-12-01 17:20:21 1512166821.392927: $GPGSA,A,3,1,3,10,14,22,25,26,31,32,12,138,,2.0,0.8,1.5*03
2017-12-01 17:20:22 1512166822.728512: $GPGSV,3,1,11,01,19,277,43,03,18,316,43,10,25,156,37,14,70,030,45*7E
2017-12-01 17:20:22 1512166822.728692: $GPGSV,3,2,11,22,37,304,44,25,37,060,33,26,23,178,38,31,77,268,47*73
2017-12-01 17:20:22 1512166822.728758: $GPGSV,3,3,11,32,57,075,47,12,09,034,26,138,38,213,39*79
2017-12-01 17:20:22 1512166822.842159: $GPZDA,222023.00,01,12,2017,00,00*63
2017-12-01 17:20:22 1512166822.842339: $GPGGA,222023,3946.9650,N,08404.9742,W,2,11,0.80,300.87,M,-33.324,M,,*7E
2017-12-01 17:20:22 1512166822.842406: $GPRMC,222023,A,3946.9650,N,08404.9742,W,0.0000,0.000,011217,,*3A
2017-12-01 17:20:22 1512166822.842467: $GPGSA,A,3,1,3,10,14,22,25,26,31,32,12,138,,2.0,0.8,1.5*03
2017-12-01 17:20:23 1512166823.394169: $GPZDA,222024.00,01,12,2017,00,00*64
2017-12-01 17:20:23 1512166823.394368: $GPGGA,222024,3946.9650,N,08404.9742,W,2,11,0.80,300.87,M,-33.324,M,,*79
2017-12-01 17:20:23 1512166823.394436: $GPRMC,222024,A,3946.9650,N,08404.9742,W,0.0000,0.000,011217,,*3D
2017-12-01 17:20:23 1512166823.394497: $GPGSA,A,3,1,3,10,14,22,25,26,31,32,12,138,,2.0,0.8,1.5*03
2017-12-01 17:20:24 1512166824.393731: $GPZDA,222025.00,01,12,2017,00,00*65
2017-12-01 17:20:24 1512166824.393900: $GPGGA,222025,3946.9650,N,08404.9742,W,2,11,0.80,300.87,M,-33.324,M,,*78
2017-12-01 17:20:24 1512166824.393967: $GPRMC,222025,A,3946.9650,N,08404.9742,W,0.0000,0.000,011217,,*3C
2017-12-01 17:20:24 1512166824.394028: $GPGSA,A,3,1,3,10,14,22,25,26,31,32,12,138,,2.0,0.8,1.5*03
2017-12-01 17:20:25 1512166825.726899: $GPGSV,3,1,11,01,19,277,44,03,18,316,43,10,25,156,38,14,70,030,45*76
2017-12-01 17:20:25 1512166825.727133: $GPGSV,3,2,11,22,37,304,44,25,37,060,34,26,23,178,38,31,77,268,48*7B
2017-12-01 17:20:25 1512166825.727224: $GPGSV,3,3,11,32,57,075,47,12,09,034,23,138,38,213,40*72
2017-12-01 17:20:25 1512166825.840354: $GPZDA,222026.00,01,12,2017,00,00*66
2017-12-01 17:20:25 1512166825.840527: $GPGGA,222026,3946.9650,N,08404.9742,W,2,11,0.80,300.87,M,-33.324,M,,*7B
2017-12-01 17:20:25 1512166825.840595: $GPRMC,222026,A,3946.9650,N,08404.9742,W,0.0000,0.000,011217,,*3F
2017-12-01 17:20:25 1512166825.840655: $GPGSA,A,3,1,3,10,14,22,25,26,31,32,12,138,,2.0,0.8,1.5*03
2017-12-01 17:20:26 1512166826.396213: $GPZDA,222027.00,01,12,2017,00,00*67
2017-12-01 17:20:26 1512166826.396397: $GPGGA,222027,3946.9650,N,08404.9742,W,2,11,0.80,300.87,M,-33.324,M,,*7A
2017-12-01 17:20:26 1512166826.396465: $GPRMC,222027,A,3946.9650,N,08404.9742,W,0.0000,0.000,011217,,*3E
2017-12-01 17:20:26 1512166826.396526: $GPGSA,A,3,1,3,10,14,22,25,26,31,32,12,138,,2.0,0.8,1.5*03
2017-12-01 17:20:27 1512166827.396918: $GPZDA,222028.00,01,12,2017,00,00*68
2017-12-01 17:20:27 1512166827.397089: $GPGGA,222028,3946.9650,N,08404.9742,W,2,11,0.80,300.87,M,-33.324,M,,*75
2017-12-01 17:20:27 1512166827.397158: $GPRMC,222028,A,3946.9650,N,08404.9742,W,0.0000,0.000,011217,,*31
2017-12-01 17:20:27 1512166827.397220: $GPGSA,A,3,1,3,10,14,22,25,26,31,32,12,138,,2.0,0.8,1.5*03
2017-12-01 17:20:28 1512166828.732436: $GPGSV,3,1,11,01,19,277,44,03,18,316,44,10,25,156,38,14,70,030,45*71
2017-12-01 17:20:28 1512166828.732616: $GPGSV,3,2,11,22,37,304,44,25,37,060,34,26,23,178,38,31,77,268,48*7B
2017-12-01 17:20:28 1512166828.732682: $GPGSV,3,3,11,32,57,075,47,12,09,034,20,138,38,213,41*70
2017-12-01 17:20:28 1512166828.845829: $GPZDA,222029.00,01,12,2017,00,00*69
2017-12-01 17:20:28 1512166828.846000: $GPGGA,222029,3946.9650,N,08404.9742,W,2,11,0.80,300.87,M,-33.324,M,,*74
2017-12-01 17:20:28 1512166828.846067: $GPRMC,222029,A,3946.9650,N,08404.9742,W,0.0000,0.000,011217,,*30
2017-12-01 17:20:28 1512166828.846128: $GPGSA,A,3,1,3,10,14,22,25,26,31,32,12,138,,2.0,0.8,1.5*03
2017-12-01 17:20:29 1512166829.395559: $GPZDA,222030.00,01,12,2017,00,00*61
2017-12-01 17:20:29 1512166829.395743: $GPGGA,222030,3946.9650,N,08404.9742,W,2,11,0.80,300.87,M,-33.324,M,,*7C
2017-12-01 17:20:29 1512166829.395810: $GPRMC,222030,A,3946.9650,N,08404.9742,W,0.0000,0.000,011217,,*38
2017-12-01 17:20:29 1512166829.395871: $GPGSA,A,3,1,3,10,14,22,25,26,31,32,12,138,,2.0,0.8,1.5*03
