2017-12-01 12:09:14 1512148154.756763: {"class":"VERSION","release":"3.16","rev":"3.16-4","proto_major":3,"proto_minor":11}
2017-12-01 12:09:14 1512148154.757169: {"class":"DEVICES","devices":[{"class":"DEVICE","path":"/dev/ttyUSB0","driver":"SiRF","subtype":"9\u0006GSD4e_4.1.2-P1_RPATCH.05-F-GPS-4R-1510281 11/03/2015 307","activated":"2017-12-01T17:09:14.578Z","flags":1,"native":1,"bps":4800,"parity":"N","stopbits":1,"cycle":1.00}]}
2017-12-01 12:09:14 1512148154.757290: {"class":"WATCH","enable":true,"json":false,"nmea":true,"raw":0,"scaled":false,"timing":false,"split24":false,"pps":false}
2017-12-01 12:09:15 1512148155.760828: $GPGSV,3,1,12,10,21,280,44,13,33,046,46,15,65,054,43,18,51,295,46*72
2017-12-01 12:09:15 1512148155.761040: $GPGSV,3,2,12,20,55,067,46,21,76,285,44,24,30,141,44,27,14,316,38*79
2017-12-01 12:09:15 1512148155.761127: $GPGSV,3,3,12,29,14,190,31,05,06,084,26,04,03,135,00,138,38,213,46*46
2017-12-01 12:09:15 1512148155.873351: $GPZDA,170916.00,01,12,2017,00,00*68
2017-12-01 12:09:15 1512148155.873540: $GPGGA,170916,3946.9585,N,08404.9854,W,2,11,0.80,288.73,M,-33.324,M,,*7C
2017-12-01 12:09:15 1512148155.873607: $GPRMC,170916,A,3946.9585,N,08404.9854,W,0.0000,0.000,011217,,*32
2017-12-01 12:09:15 1512148155.873669: $GPGSA,A,3,10,13,15,18,20,21,24,27,29,5,138,,2.0,0.8,1.5*34
2017-12-01 12:09:16 1512148156.420367: $GPZDA,170917.00,01,12,2017,00,00*69
2017-12-01 12:09:16 1512148156.420536: $GPGGA,170917,3946.9585,N,08404.9854,W,2,11,0.80,288.73,M,-33.324,M,,*7D
2017-12-01 12:09:16 1512148156.420620: $GPRMC,170917,A,3946.9585,N,08404.9854,W,0.0000,0.000,011217,,*33
2017-12-01 12:09:16 1512148156.420683: $GPGSA,A,3,10,13,15,18,20,21,24,27,29,5,138,,2.0,0.8,1.5*34
2017-12-01 12:09:17 1512148157.427213: $GPZDA,170918.00,01,12,2017,00,00*66
2017-12-01 12:09:17 1512148157.427377: $GPGGA,170918,3946.9585,N,08404.9854,W,2,11,0.80,288.73,M,-33.324,M,,*72
2017-12-01 12:09:17 1512148157.427445: $GPRMC,170918,A,3946.9585,N,08404.9854,W,0.0000,0.000,011217,,*3C
2017-12-01 12:09:17 1512148157.427506: $GPGSA,A,3,10,13,15,18,20,21,24,27,29,5,138,,2.0,0.8,1.5*34
2017-12-01 12:09:18 1512148158.752945: $GPGSV,3,1,12,10,21,280,44,13,33,046,46,15,65,054,43,18,51,295,46*72
2017-12-01 12:09:18 1512148158.753126: $GPGSV,3,2,12,20,55,067,46,21,76,285,44,24,30,141,44,27,14,316,38*79
2017-12-01 12:09:18 1512148158.753191: $GPGSV,3,3,12,29,14,190,31,05,06,084,26,04,03,135,00,138,38,213,46*46
2017-12-01 12:09:18 1512148158.866574: $GPZDA,170919.00,01,12,2017,00,00*67
2017-12-01 12:09:18 1512148158.866750: $GPGGA,170919,3946.9585,N,08404.9854,W,2,11,0.80,288.73,M,-33.324,M,,*73
2017-12-01 12:09:18 1512148158.866817: $GPRMC,170919,A,3946.9585,N,08404.9854,W,0.0000,0.000,011217,,*3D
2017-12-01 12:09:18 1512148158.866878: $GPGSA,A,3,10,13,15,18,20,21,24,27,29,5,138,,2.0,0.8,1.5*34
2017-12-01 12:09:19 1512148159.491805: $GPZDA,170920.00,01,12,2017,00,00*6D
2017-12-01 12:09:19 1512148159.491960: $GPGGA,170920,3946.9585,N,08404.9854,W,2,11,0.80,288.73,M,-33.324,M,,*79
2017-12-01 12:09:19 1512148159.492025: $GPRMC,170920,A,3946.9585,N,08404.9854,W,0.0000,0.000,011217,,*37
2017-12-01 12:09:19 1512148159.492086: $GPGSA,A,3,10,13,15,18,20,21,24,27,29,5,138,,2.0,0.8,1.5*34
2017-12-01 12:09:20 1512148160.421765: $GPZDA,170921.00,01,12,2017,00,00*6C
2017-12-01 12:09:20 1512148160.421932: $GPGGA,170921,3946.9585,N,08404.9854,W,2,11,0.80,288.73,M,-33.324,M,,*78
2017-12-01 12:09:20 1512148160.421998: $GPRMC,170921,A,3946.9585,N,08404.9854,W,0.0000,0.000,011217,,*36
2017-12-01 12:09:20 1512148160.422060: $GPGSA,A,3,10,13,15,18,20,21,24,27,29,5,138,,2.0,0.8,1.5*34
2017-12-01 12:09:21 1512148161.757092: $GPGSV,3,1,12,10,21,280,44,13,33,046,45,15,65,054,43,18,51,295,46*71
2017-12-01 12:09:21 1512148161.757272: $GPGSV,3,2,12,20,55,067,46,21,76,285,44,24,30,141,44,27,14,316,39*78
2017-12-01 12:09:21 1512148161.757339: $GPGSV,3,3,12,29,14,190,30,05,06,084,27,04,03,135,00,138,38,213,46*46
2017-12-01 12:09:21 1512148161.870713: $GPZDA,170922.00,01,12,2017,00,00*6F
2017-12-01 12:09:21 1512148161.870882: $GPGGA,170922,3946.9585,N,08404.9854,W,2,11,0.80,288.73,M,-33.324,M,,*7B
2017-12-01 12:09:21 1512148161.870997: $GPRMC,170922,A,3946.9585,N,08404.9854,W,0.0000,0.000,011217,,*35
2017-12-01 12:09:21 1512148161.871059: $GPGSA,A,3,10,13,15,18,20,21,24,27,29,5,138,,2.0,0.8,1.5*34
2017-12-01 12:09:22 1512148162.439141: $GPZDA,170923.00,01,12,2017,00,00*6E
2017-12-01 12:09:22 1512148162.439309: $GPGGA,170923,3946.9585,N,08404.9854,W,2,11,0.80,288.73,M,-33.324,M,,*7A
2017-12-01 12:09:22 1512148162.439376: $GPRMC,170923,A,3946.9585,N,08404.9854,W,0.0000,0.000,011217,,*34
2017-12-01 12:09:22 1512148162.439437: $GPGSA,A,3,10,13,15,18,20,21,24,27,29,5,138,,2.0,0.8,1.5*34
2017-12-01 12:09:23 1512148163.436217: $GPZDA,170924.00,01,12,2017,00,00*69
2017-12-01 12:09:23 1512148163.436387: $GPGGA,170924,3946.9585,N,08404.9854,W,2,11,0.80,288.73,M,-33.324,M,,*7D
2017-12-01 12:09:23 1512148163.436453: $GPRMC,170924,A,3946.9585,N,08404.9854,W,0.0000,0.000,011217,,*33
2017-12-01 12:09:23 1512148163.436514: $GPGSA,A,3,10,13,15,18,20,21,24,27,29,5,138,,2.0,0.8,1.5*34
