2017-12-01 12:26:18 1512149178.166893: {"class":"VERSION","release":"3.16","rev":"3.16-4","proto_major":3,"proto_minor":11}
2017-12-01 12:26:18 1512149178.167285: {"class":"DEVICES","devices":[{"class":"DEVICE","path":"/dev/ttyUSB0","driver":"SiRF","subtype":"9\u0006GSD4e_4.1.2-P1_RPATCH.05-F-GPS-4R-1510281 11/03/2015 307","activated":"2017-12-01T17:26:18.156Z","flags":1,"native":1,"bps":4800,"parity":"N","stopbits":1,"cycle":1.00}]}
2017-12-01 12:26:18 1512149178.167407: {"class":"WATCH","enable":true,"json":false,"nmea":true,"raw":0,"scaled":false,"timing":false,"split24":false,"pps":false}
2017-12-01 12:26:18 1512149178.334730: $GPZDA,172619.00,01,12,2017,00,00*6A
2017-12-01 12:26:18 1512149178.334911: $GPGGA,172619,3946.9574,N,08404.9840,W,2,12,0.80,300.45,M,-33.324,M,,*72
2017-12-01 12:26:18 1512149178.334978: $GPRMC,172619,A,3946.9574,N,08404.9840,W,0.0000,0.000,011217,,*3B
2017-12-01 12:26:18 1512149178.335039: $GPGSA,A,3,10,13,15,18,20,21,24,29,27,32,5,138,2.0,0.8,1.5*35
2017-12-01 12:26:19 1512149179.673080: $GPGSV,3,1,12,10,26,286,39,13,25,045,44,15,57,049,47,18,57,304,45*7A
2017-12-01 12:26:19 1512149179.673315: $GPGSV,3,2,12,20,49,076,46,21,79,246,41,24,37,135,47,29,07,189,23*74
2017-12-01 12:26:19 1512149179.673397: $GPGSV,3,3,12,27,17,309,32,32,04,226,04,05,01,090,20,138,38,213,46*49
2017-12-01 12:26:19 1512149179.786351: $GPZDA,172620.00,01,12,2017,00,00*60
2017-12-01 12:26:19 1512149179.786527: $GPGGA,172620,3946.9574,N,08404.9840,W,2,11,0.80,300.45,M,-33.324,M,,*7B
2017-12-01 12:26:19 1512149179.786594: $GPRMC,172620,A,3946.9574,N,08404.9840,W,0.3423,4.197,011217,,*3C
2017-12-01 12:26:19 1512149179.786681: $GPGSA,A,3,10,13,15,18,20,21,24,29,27,5,138,,2.0,0.8,1.5*34
2017-12-01 12:26:20 1512149180.411758: $GPZDA,172621.00,01,12,2017,00,00*61
2017-12-01 12:26:20 1512149180.411934: $GPGGA,172621,3946.9574,N,08404.9840,W,2,11,0.80,300.45,M,-33.324,M,,*7A
2017-12-01 12:26:20 1512149180.412001: $GPRMC,172621,A,3946.9574,N,08404.9840,W,0.0000,0.000,011217,,*30
2017-12-01 12:26:20 1512149180.412062: $GPGSA,A,3,10,13,15,18,20,21,24,29,27,5,138,,2.0,0.8,1.5*34
2017-12-01 12:26:21 1512149181.335103: $GPZDA,172622.00,01,12,2017,00,00*62
2017-12-01 12:26:21 1512149181.335276: $GPGGA,172622,3946.9574,N,08404.9840,W,2,11,0.80,300.45,M,-33.324,M,,*79
2017-12-01 12:26:21 1512149181.335344: $GPRMC,172622,A,3946.9574,N,08404.9840,W,0.0000,0.000,011217,,*33
2017-12-01 12:26:21 1512149181.335405: $GPGSA,A,3,10,13,15,18,20,21,24,29,27,5,138,,2.0,0.8,1.5*34
2017-12-01 12:26:22 1512149182.670812: $GPGSV,3,1,12,10,26,286,40,13,25,045,44,15,57,049,47,18,57,304,45*74
2017-12-01 12:26:22 1512149182.670994: $GPGSV,3,2,12,20,49,076,45,21,79,246,41,24,37,135,47,29,07,189,24*70
2017-12-01 12:26:22 1512149182.671059: $GPGSV,3,3,12,27,17,309,32,32,04,226,00,05,01,090,20,138,38,213,46*4D
2017-12-01 12:26:22 1512149182.784182: $GPZDA,172623.00,01,12,2017,00,00*63
2017-12-01 12:26:22 1512149182.784321: $GPGGA,172623,3946.9574,N,08404.9840,W,2,11,0.80,300.45,M,-33.324,M,,*78
2017-12-01 12:26:22 1512149182.784387: $GPRMC,172623,A,3946.9574,N,08404.9840,W,0.0000,0.000,011217,,*32
2017-12-01 12:26:22 1512149182.784448: $GPGSA,A,3,10,13,15,18,20,21,24,29,27,5,138,,2.0,0.8,1.5*34
2017-12-01 12:26:23 1512149183.336522: $GPZDA,172624.00,01,12,2017,00,00*64
2017-12-01 12:26:23 1512149183.336730: $GPGGA,172624,3946.9574,N,08404.9840,W,2,11,0.80,300.45,M,-33.324,M,,*7F
2017-12-01 12:26:23 1512149183.336799: $GPRMC,172624,A,3946.9574,N,08404.9840,W,0.0000,0.000,011217,,*35
2017-12-01 12:26:23 1512149183.336860: $GPGSA,A,3,10,13,15,18,20,21,24,29,27,5,138,,2.0,0.8,1.5*34
2017-12-01 12:26:24 1512149184.335965: $GPZDA,172625.00,01,12,2017,00,00*65
2017-12-01 12:26:24 1512149184.336148: $GPGGA,172625,3946.9574,N,08404.9840,W,2,11,0.80,300.45,M,-33.324,M,,*7E
2017-12-01 12:26:24 1512149184.336215: $GPRMC,172625,A,3946.9574,N,08404.9840,W,0.0000,0.000,011217,,*34
2017-12-01 12:26:24 1512149184.336276: $GPGSA,A,3,10,13,15,18,20,21,24,29,27,5,138,,2.0,0.8,1.5*34
2017-12-01 12:26:25 1512149185.667439: $GPGSV,3,1,12,10,26,286,40,13,25,045,44,15,57,049,47,18,57,304,45*74
2017-12-01 12:26:25 1512149185.667694: $GPGSV,3,2,12,20,49,076,45,21,79,246,41,24,37,135,47,29,07,189,28*7C
2017-12-01 12:26:25 1512149185.667782: $GPGSV,3,3,12,27,17,309,35,32,04,226,00,05,01,090,19,138,38,213,47*41
2017-12-01 12:26:25 1512149185.780896: $GPZDA,172626.00,01,12,2017,00,00*66
2017-12-01 12:26:25 1512149185.781068: $GPGGA,172626,3946.9574,N,08404.9840,W,2,11,0.80,300.45,M,-33.324,M,,*7D
2017-12-01 12:26:25 1512149185.781136: $GPRMC,172626,A,3946.9574,N,08404.9840,W,0.0000,0.000,011217,,*37
2017-12-01 12:26:25 1512149185.781197: $GPGSA,A,3,10,13,15,18,20,21,24,29,27,5,138,,2.0,0.8,1.5*34
2017-12-01 12:26:26 1512149186.335447: $GPZDA,172627.00,01,12,2017,00,00*67
2017-12-01 12:26:26 1512149186.335644: $GPGGA,172627,3946.9574,N,08404.9840,W,2,11,0.80,300.45,M,-33.324,M,,*7C
2017-12-01 12:26:26 1512149186.335729: $GPRMC,172627,A,3946.9574,N,08404.9840,W,0.0000,0.000,011217,,*36
2017-12-01 12:26:26 1512149186.335793: $GPGSA,A,3,10,13,15,18,20,21,24,29,27,5,138,,2.0,0.8,1.5*34
2017-12-01 12:26:27 1512149187.336385: $GPZDA,172628.00,01,12,2017,00,00*68
2017-12-01 12:26:27 1512149187.336561: $GPGGA,172628,3946.9574,N,08404.9840,W,2,11,0.80,300.45,M,-33.324,M,,*73
2017-12-01 12:26:27 1512149187.336649: $GPRMC,172628,A,3946.9574,N,08404.9840,W,0.0000,0.000,011217,,*39
2017-12-01 12:26:27 1512149187.336727: $GPGSA,A,3,10,13,15,18,20,21,24,29,27,5,138,,2.0,0.8,1.5*34
