2017-12-29 14:51:41 1514577101.652982: {"class":"VERSION","release":"3.16","rev":"3.16-4","proto_major":3,"proto_minor":11}
2017-12-29 14:51:41 1514577101.653326: {"class":"DEVICES","devices":[{"class":"DEVICE","path":"/dev/ttyUSB0","driver":"SiRF","subtype":"9\u0006GSD4e_4.1.2-P1_RPATCH.05-F-GPS-4R-1510281 11/03/2015 307","activated":"2017-12-29T19:51:41.477Z","flags":1,"native":1,"bps":4800,"parity":"N","stopbits":1,"cycle":1.00}]}
2017-12-29 14:51:41 1514577101.653438: {"class":"WATCH","enable":true,"json":false,"nmea":true,"raw":0,"scaled":false,"timing":false,"split24":false,"pps":false}
2017-12-29 14:51:42 1514577102.670956: $GPGSV,3,1,12,01,22,294,37,03,07,316,36,10,40,151,48,12,19,043,45*76
2017-12-29 14:51:42 1514577102.671186: $GPGSV,3,2,12,14,68,343,42,22,25,310,42,25,41,081,51,31,65,232,46*7E
2017-12-29 14:51:42 1514577102.671253: $GPGSV,3,3,12,32,65,048,51,18,11,145,31,26,09,180,30,138,38,213,43*4A
2017-12-29 14:51:42 1514577102.784646: $GPZDA,195143.00,29,12,2017,00,00*61
2017-12-29 14:51:42 1514577102.784772: $GPGGA,195143,3946.9600,N,08404.9807,W,2,12,0.80,308.90,M,-33.324,M,,*70
2017-12-29 14:51:42 1514577102.784835: $GPRMC,195143,A,3946.9600,N,08404.9807,W,0.0000,0.000,291217,,*33
2017-12-29 14:51:42 1514577102.784896: $GPGSA,A,3,1,3,10,12,14,22,25,31,32,18,26,138,1.7,0.8,1.3*08
2017-12-29 14:51:43 1514577103.409992: $GPZDA,195144.00,29,12,2017,00,00*66
2017-12-29 14:51:43 1514577103.410157: $GPGGA,195144,3946.9600,N,08404.9807,W,2,12,0.80,308.90,M,-33.324,M,,*77
2017-12-29 14:51:43 1514577103.410223: $GPRMC,195144,A,3946.9600,N,08404.9807,W,0.0000,0.000,291217,,*34
2017-12-29 14:51:43 1514577103.410284: $GPGSA,A,3,1,3,10,12,14,22,25,31,32,18,26,138,1.7,0.8,1.3*08
2017-12-29 14:51:44 1514577104.335877: $GPZDA,195145.00,29,12,2017,00,00*67
2017-12-29 14:51:44 1514577104.336044: $GPGGA,195145,3946.9600,N,08404.9807,W,2,12,0.80,308.90,M,-33.324,M,,*76
2017-12-29 14:51:44 1514577104.336113: $GPRMC,195145,A,3946.9600,N,08404.9807,W,0.0000,0.000,291217,,*35
2017-12-29 14:51:44 1514577104.336176: $GPGSA,A,3,1,3,10,12,14,22,25,31,32,18,26,138,1.7,0.8,1.3*08
2017-12-29 14:51:45 1514577105.671367: $GPGSV,3,1,12,01,22,294,37,03,07,316,36,10,40,151,48,12,19,043,45*76
2017-12-29 14:51:45 1514577105.671546: $GPGSV,3,2,12,14,68,343,42,22,25,310,42,25,41,081,51,31,65,232,46*7E
2017-12-29 14:51:45 1514577105.671614: $GPGSV,3,3,12,32,65,048,51,18,11,145,31,26,09,180,30,138,38,213,43*4A
2017-12-29 14:51:45 1514577105.784963: $GPZDA,195146.00,29,12,2017,00,00*64
2017-12-29 14:51:45 1514577105.785101: $GPGGA,195146,3946.9600,N,08404.9807,W,2,12,0.80,308.90,M,-33.324,M,,*75
2017-12-29 14:51:45 1514577105.785169: $GPRMC,195146,A,3946.9600,N,08404.9807,W,0.0000,0.000,291217,,*36
2017-12-29 14:51:45 1514577105.785231: $GPGSA,A,3,1,3,10,12,14,22,25,31,32,18,26,138,1.7,0.8,1.3*08
2017-12-29 14:51:46 1514577106.337088: $GPZDA,195147.00,29,12,2017,00,00*65
2017-12-29 14:51:46 1514577106.337260: $GPGGA,195147,3946.9600,N,08404.9807,W,2,12,0.80,308.90,M,-33.324,M,,*74
2017-12-29 14:51:46 1514577106.337328: $GPRMC,195147,A,3946.9600,N,08404.9807,W,0.0000,0.000,291217,,*37
2017-12-29 14:51:46 1514577106.337391: $GPGSA,A,3,1,3,10,12,14,22,25,31,32,18,26,138,1.7,0.8,1.3*08
2017-12-29 14:51:47 1514577107.337887: $GPZDA,195148.00,29,12,2017,00,00*6A
2017-12-29 14:51:47 1514577107.342640: $GPGGA,195148,3946.9599,N,08404.9800,W,2,12,0.80,308.98,M,-33.324,M,,*77
2017-12-29 14:51:47 1514577107.342751: $GPRMC,195148,A,3946.9599,N,08404.9800,W,0.0000,0.000,291217,,*3C
2017-12-29 14:51:47 1514577107.342817: $GPGSA,A,3,1,3,10,12,14,22,25,31,32,18,26,138,1.7,0.8,1.3*08
2017-12-29 14:51:47 1514577107.342879: $GPGBS,195148,2.73,M,2.59,M,7.72,M*34
2017-12-29 14:51:48 1514577108.671543: $GPGSV,3,1,12,01,22,294,37,03,07,316,32,10,40,151,48,12,19,043,45*72
2017-12-29 14:51:48 1514577108.671722: $GPGSV,3,2,12,14,68,343,42,22,25,310,42,25,41,081,51,31,65,232,46*7E
2017-12-29 14:51:48 1514577108.671791: $GPGSV,3,3,12,32,65,048,50,18,11,145,30,26,09,180,30,138,38,213,43*4A
2017-12-29 14:51:48 1514577108.785185: $GPZDA,195149.00,29,12,2017,00,00*6B
2017-12-29 14:51:48 1514577108.785378: $GPGGA,195149,3946.9599,N,08404.9800,W,2,12,0.80,308.98,M,-33.324,M,,*76
2017-12-29 14:51:48 1514577108.785445: $GPRMC,195149,A,3946.9599,N,08404.9800,W,0.0000,0.000,291217,,*3D
2017-12-29 14:51:48 1514577108.785506: $GPGSA,A,3,1,3,10,12,14,22,25,31,32,18,26,138,1.7,0.8,1.3*08
2017-12-29 14:51:49 1514577109.338597: $GPZDA,195150.00,29,12,2017,00,00*63
2017-12-29 14:51:49 1514577109.338779: $GPGGA,195150,3946.9586,N,08404.9793,W,2,12,0.80,305.73,M,-33.324,M,,*7D
2017-12-29 14:51:49 1514577109.338850: $GPRMC,195150,A,3946.9586,N,08404.9793,W,0.2422,93.794,291217,,*08
2017-12-29 14:51:49 1514577109.338914: $GPGSA,A,3,1,3,10,12,14,22,25,31,32,18,26,138,1.7,0.8,1.3*08
2017-12-29 14:51:50 1514577110.338190: $GPZDA,195151.00,29,12,2017,00,00*62
2017-12-29 14:51:50 1514577110.338354: $GPGGA,195151,3946.9586,N,08404.9793,W,2,12,0.80,305.73,M,-33.324,M,,*7C
2017-12-29 14:51:50 1514577110.338423: $GPRMC,195151,A,3946.9586,N,08404.9793,W,0.0000,0.000,291217,,*3F
2017-12-29 14:51:50 1514577110.338487: $GPGSA,A,3,1,3,10,12,14,22,25,31,32,18,26,138,1.7,0.8,1.3*08
