2017-12-01 16:40:58 1512164458.816915: {"class":"VERSION","release":"3.16","rev":"3.16-4","proto_major":3,"proto_minor":11}
2017-12-01 16:40:58 1512164458.817358: {"class":"DEVICES","devices":[{"class":"DEVICE","path":"/dev/ttyUSB0","driver":"SiRF","subtype":"9\u0006GSD4e_4.1.2-P1_RPATCH.05-F-GPS-4R-1510281 11/03/2015 307","activated":"2017-12-01T21:40:58.562Z","flags":1,"native":1,"bps":4800,"parity":"N","stopbits":1,"cycle":1.00}]}
2017-12-01 16:40:58 1512164458.817493: {"class":"WATCH","enable":true,"json":false,"nmea":true,"raw":0,"scaled":false,"timing":false,"split24":false,"pps":false}
2017-12-01 16:40:59 1512164459.759047: $GPGSV,3,1,12,01,22,295,44,10,43,150,43,11,07,277,36,14,68,339,43*77
2017-12-01 16:40:59 1512164459.759226: $GPGSV,3,2,12,22,23,312,42,31,61,229,50,32,67,040,49,12,20,045,27*79
2017-12-01 16:40:59 1512164459.759292: $GPGSV,3,3,12,25,40,084,22,26,06,181,23,18,13,145,19,138,38,213,34*4B
2017-12-01 16:40:59 1512164459.872927: $GPZDA,214100.00,01,12,2017,00,00*66
2017-12-01 16:40:59 1512164459.873097: $GPGGA,214100,3946.9647,N,08404.9744,W,1,12,0.80,303.04,M,-33.324,M,,*73
2017-12-01 16:40:59 1512164459.873162: $GPRMC,214100,A,3946.9647,N,08404.9744,W,0.0000,0.000,011217,,*3F
2017-12-01 16:40:59 1512164459.873223: $GPGSA,A,3,1,10,11,14,22,31,32,12,25,26,18,138,2.0,0.8,1.5*39
2017-12-01 16:41:00 1512164460.423269: $GPZDA,214101.00,01,12,2017,00,00*67
2017-12-01 16:41:00 1512164460.423469: $GPGGA,214101,3946.9647,N,08404.9744,W,1,12,0.80,303.04,M,-33.324,M,,*72
2017-12-01 16:41:00 1512164460.423560: $GPRMC,214101,A,3946.9647,N,08404.9744,W,0.0000,0.000,011217,,*3E
2017-12-01 16:41:00 1512164460.423623: $GPGSA,A,3,1,10,11,14,22,31,32,12,25,26,18,138,2.0,0.8,1.5*39
2017-12-01 16:41:01 1512164461.421619: $GPZDA,214102.00,01,12,2017,00,00*64
2017-12-01 16:41:01 1512164461.421781: $GPGGA,214102,3946.9651,N,08404.9744,W,1,12,0.80,303.68,M,-33.324,M,,*7C
2017-12-01 16:41:01 1512164461.421849: $GPRMC,214102,A,3946.9651,N,08404.9744,W,0.0000,0.000,011217,,*3A
2017-12-01 16:41:01 1512164461.421910: $GPGSA,A,3,1,10,11,14,22,31,32,12,25,26,18,138,2.0,0.8,1.5*39
2017-12-01 16:41:02 1512164462.756831: $GPGSV,3,1,12,01,22,295,44,10,43,150,42,11,07,277,35,14,68,339,44*72
2017-12-01 16:41:02 1512164462.757024: $GPGSV,3,2,12,22,23,312,42,31,61,229,50,32,67,040,49,12,20,045,27*79
2017-12-01 16:41:02 1512164462.757096: $GPGSV,3,3,12,25,40,084,21,26,06,181,23,18,13,145,20,138,38,213,38*4E
2017-12-01 16:41:02 1512164462.870192: $GPZDA,214103.00,01,12,2017,00,00*65
2017-12-01 16:41:02 1512164462.870343: $GPGGA,214103,3946.9651,N,08404.9744,W,1,12,0.80,303.68,M,-33.324,M,,*7D
2017-12-01 16:41:02 1512164462.870435: $GPRMC,214103,A,3946.9651,N,08404.9744,W,0.0000,0.000,011217,,*3B
2017-12-01 16:41:02 1512164462.870500: $GPGSA,A,3,1,10,11,14,22,31,32,12,25,26,18,138,2.0,0.8,1.5*39
2017-12-01 16:41:03 1512164463.427702: $GPZDA,214104.00,01,12,2017,00,00*62
2017-12-01 16:41:03 1512164463.427873: $GPGGA,214104,3946.9651,N,08404.9744,W,1,12,0.80,303.68,M,-33.324,M,,*7A
2017-12-01 16:41:03 1512164463.427942: $GPRMC,214104,A,3946.9651,N,08404.9744,W,0.0000,0.000,011217,,*3C
2017-12-01 16:41:03 1512164463.428007: $GPGSA,A,3,1,10,11,14,22,31,32,12,25,26,18,138,2.0,0.8,1.5*39
2017-12-01 16:41:04 1512164464.423238: $GPZDA,214105.00,01,12,2017,00,00*63
2017-12-01 16:41:04 1512164464.423435: $GPGGA,214105,3946.9651,N,08404.9744,W,1,12,0.80,303.68,M,-33.324,M,,*7B
2017-12-01 16:41:04 1512164464.423522: $GPRMC,214105,A,3946.9651,N,08404.9744,W,0.0000,0.000,011217,,*3D
2017-12-01 16:41:04 1512164464.423587: $GPGSA,A,3,1,10,11,14,22,31,32,12,25,26,18,138,2.0,0.8,1.5*39
2017-12-01 16:41:05 1512164465.756441: $GPGSV,3,1,12,01,22,295,44,10,43,150,42,11,07,277,35,14,68,339,43*75
2017-12-01 16:41:05 1512164465.756646: $GPGSV,3,2,12,22,23,312,41,31,61,229,50,32,67,040,49,12,20,045,28*75
2017-12-01 16:41:05 1512164465.756716: $GPGSV,3,3,12,25,40,084,22,26,06,181,23,18,13,145,20,138,38,213,41*43
2017-12-01 16:41:05 1512164465.869878: $GPZDA,214106.00,01,12,2017,00,00*60
2017-12-01 16:41:05 1512164465.870053: $GPGGA,214106,3946.9651,N,08404.9744,W,1,12,0.80,303.68,M,-33.324,M,,*78
2017-12-01 16:41:05 1512164465.870194: $GPRMC,214106,A,3946.9651,N,08404.9744,W,0.0000,0.000,011217,,*3E
2017-12-01 16:41:05 1512164465.870259: $GPGSA,A,3,1,10,11,14,22,31,32,12,25,26,18,138,2.0,0.8,1.5*39
2017-12-01 16:41:06 1512164466.495684: $GPZDA,214107.00,01,12,2017,00,00*61
2017-12-01 16:41:06 1512164466.495851: $GPGGA,214107,3946.9651,N,08404.9744,W,1,12,0.80,303.68,M,-33.324,M,,*79
2017-12-01 16:41:06 1512164466.495919: $GPRMC,214107,A,3946.9651,N,08404.9744,W,0.0000,0.000,011217,,*3F
2017-12-01 16:41:06 1512164466.495980: $GPGSA,A,3,1,10,11,14,22,31,32,12,25,26,18,138,2.0,0.8,1.5*39
2017-12-01 16:41:07 1512164467.421123: $GPZDA,214108.00,01,12,2017,00,00*6E
2017-12-01 16:41:07 1512164467.421297: $GPGGA,214108,3946.9651,N,08404.9744,W,1,12,0.80,303.68,M,-33.324,M,,*76
2017-12-01 16:41:07 1512164467.421444: $GPRMC,214108,A,3946.9651,N,08404.9744,W,0.0000,0.000,011217,,*30
2017-12-01 16:41:07 1512164467.421527: $GPGSA,A,3,1,10,11,14,22,31,32,12,25,26,18,138,2.0,0.8,1.5*39
2017-12-01 16:41:08 1512164468.755731: $GPGSV,3,1,12,01,22,295,44,10,43,150,42,11,07,277,34,14,68,339,43*74
2017-12-01 16:41:08 1512164468.755906: $GPGSV,3,2,12,22,23,312,41,31,61,229,49,32,67,040,49,12,20,045,27*72
2017-12-01 16:41:08 1512164468.755972: $GPGSV,3,3,12,25,40,084,26,26,06,181,23,18,13,145,20,138,38,213,40*46
2017-12-01 16:41:08 1512164468.869092: $GPZDA,214109.00,01,12,2017,00,00*6F
2017-12-01 16:41:08 1512164468.869266: $GPGGA,214109,3946.9651,N,08404.9744,W,1,12,0.80,303.68,M,-33.324,M,,*77
2017-12-01 16:41:08 1512164468.869332: $GPRMC,214109,A,3946.9651,N,08404.9744,W,0.0000,0.000,011217,,*31
2017-12-01 16:41:08 1512164468.869415: $GPGSA,A,3,1,10,11,14,22,31,32,12,25,26,18,138,2.0,0.8,1.5*39
2017-12-01 16:41:09 1512164469.421214: $GPZDA,214110.00,01,12,2017,00,00*67
2017-12-01 16:41:09 1512164469.421458: $GPGGA,214110,3946.9651,N,08404.9744,W,1,12,0.80,303.68,M,-33.324,M,,*7F
2017-12-01 16:41:09 1512164469.421563: $GPRMC,214110,A,3946.9651,N,08404.9744,W,0.0000,0.000,011217,,*39
2017-12-01 16:41:09 1512164469.421628: $GPGSA,A,3,1,10,11,14,22,31,32,12,25,26,18,138,2.0,0.8,1.5*39
2017-12-01 16:41:10 1512164470.420830: $GPZDA,214111.00,01,12,2017,00,00*66
2017-12-01 16:41:10 1512164470.421010: $GPGGA,214111,3946.9651,N,08404.9744,W,1,12,0.80,303.68,M,-33.324,M,,*7E
2017-12-01 16:41:10 1512164470.421078: $GPRMC,214111,A,3946.9651,N,08404.9744,W,0.0000,0.000,011217,,*38
2017-12-01 16:41:10 1512164470.421140: $GPGSA,A,3,1,10,11,14,22,31,32,12,25,26,18,138,2.0,0.8,1.5*39
2017-12-01 16:41:11 1512164471.759817: $GPGSV,3,1,12,01,22,295,43,10,43,150,42,11,07,277,34,14,68,339,43*73
2017-12-01 16:41:11 1512164471.759996: $GPGSV,3,2,12,22,23,312,41,31,61,229,49,32,67,040,48,12,20,045,25*71
2017-12-01 16:41:11 1512164471.760062: $GPGSV,3,3,12,25,40,084,27,26,06,181,23,18,13,145,20,138,38,213,38*48
2017-12-01 16:41:11 1512164471.873280: $GPZDA,214112.00,01,12,2017,00,00*65
2017-12-01 16:41:11 1512164471.873648: $GPGGA,214112,3946.9651,N,08404.9744,W,2,12,1.20,303.68,M,-33.324,M,,*75
2017-12-01 16:41:11 1512164471.873777: $GPRMC,214112,A,3946.9651,N,08404.9744,W,0.0000,0.000,011217,,*3B
2017-12-01 16:41:11 1512164471.873896: $GPGSA,A,3,1,10,11,14,22,31,32,12,25,26,18,138,2.0,1.2,1.5*32
2017-12-01 16:41:12 1512164472.422806: $GPZDA,214113.00,01,12,2017,00,00*64
2017-12-01 16:41:12 1512164472.422980: $GPGGA,214113,3946.9651,N,08404.9744,W,2,12,1.20,303.68,M,-33.324,M,,*74
2017-12-01 16:41:12 1512164472.423046: $GPRMC,214113,A,3946.9651,N,08404.9744,W,0.0000,0.000,011217,,*3A
2017-12-01 16:41:12 1512164472.423107: $GPGSA,A,3,1,10,11,14,22,31,32,12,25,26,18,138,2.0,1.2,1.5*32
2017-12-01 16:41:13 1512164473.423985: $GPZDA,214114.00,01,12,2017,00,00*63
2017-12-01 16:41:13 1512164473.424154: $GPGGA,214114,3946.9651,N,08404.9744,W,2,12,1.20,303.68,M,-33.324,M,,*73
2017-12-01 16:41:13 1512164473.424220: $GPRMC,214114,A,3946.9651,N,08404.9744,W,0.0000,0.000,011217,,*3D
2017-12-01 16:41:13 1512164473.424281: $GPGSA,A,3,1,10,11,14,22,31,32,12,25,26,18,138,2.0,1.2,1.5*32
2017-12-01 16:41:14 1512164474.760677: $GPGSV,3,1,12,01,22,295,43,10,43,150,42,11,07,277,34,14,68,339,43*73
2017-12-01 16:41:14 1512164474.760861: $GPGSV,3,2,12,22,23,312,42,31,61,229,49,32,67,040,48,12,20,045,21*76
2017-12-01 16:41:14 1512164474.760927: $GPGSV,3,3,12,25,40,084,32,26,06,181,23,18,13,145,20,138,38,213,40*43
2017-12-01 16:41:14 1512164474.874308: $GPZDA,214115.00,01,12,2017,00,00*62
2017-12-01 16:41:14 1512164474.874529: $GPGGA,214115,3946.9651,N,08404.9744,W,2,12,1.20,303.68,M,-33.324,M,,*72
2017-12-01 16:41:14 1512164474.874597: $GPRMC,214115,A,3946.9651,N,08404.9744,W,0.0000,0.000,011217,,*3C
2017-12-01 16:41:14 1512164474.874659: $GPGSA,A,3,1,10,11,14,22,31,32,12,25,26,18,138,2.0,1.2,1.5*32
2017-12-01 16:41:15 1512164475.423689: $GPZDA,214116.00,01,12,2017,00,00*61
2017-12-01 16:41:15 1512164475.423854: $GPGGA,214116,3946.9651,N,08404.9744,W,2,12,0.80,303.68,M,-33.324,M,,*7A
2017-12-01 16:41:15 1512164475.423920: $GPRMC,214116,A,3946.9651,N,08404.9744,W,0.0000,0.000,011217,,*3F
2017-12-01 16:41:15 1512164475.423982: $GPGSA,A,3,1,10,11,14,22,31,32,12,25,26,18,138,2.0,0.8,1.5*39
2017-12-01 16:41:16 1512164476.425592: $GPZDA,214117.00,01,12,2017,00,00*60
2017-12-01 16:41:16 1512164476.465277: $GPGGA,214117,3946.9651,N,08404.9744,W,2,12,0.80,303.68,M,-33.324,M,,*7B
2017-12-01 16:41:16 1512164476.465426: $GPRMC,214117,A,3946.9651,N,08404.9744,W,0.0000,0.000,011217,,*3E
2017-12-01 16:41:16 1512164476.465509: $GPGSA,A,3,1,10,11,14,22,31,32,12,25,26,18,138,2.0,0.8,1.5*39
2017-12-01 16:41:17 1512164477.759877: $GPGSV,3,1,12,01,22,295,43,10,43,150,42,11,07,277,34,14,68,339,43*73
2017-12-01 16:41:17 1512164477.760059: $GPGSV,3,2,12,22,23,312,42,31,61,229,49,32,67,040,49,12,20,045,20*76
2017-12-01 16:41:17 1512164477.760126: $GPGSV,3,3,12,25,40,084,32,26,06,181,23,18,13,145,20,138,38,213,41*42
2017-12-01 16:41:17 1512164477.873567: $GPZDA,214118.00,01,12,2017,00,00*6F
2017-12-01 16:41:17 1512164477.873735: $GPGGA,214118,3946.9651,N,08404.9744,W,2,12,0.80,303.68,M,-33.324,M,,*74
2017-12-01 16:41:17 1512164477.873801: $GPRMC,214118,A,3946.9651,N,08404.9744,W,0.0000,0.000,011217,,*31
2017-12-01 16:41:17 1512164477.873863: $GPGSA,A,3,1,10,11,14,22,31,32,12,25,26,18,138,2.0,0.8,1.5*39
2017-12-01 16:41:18 1512164478.421609: $GPZDA,214119.00,01,12,2017,00,00*6E
2017-12-01 16:41:18 1512164478.421785: $GPGGA,214119,3946.9651,N,08404.9744,W,2,12,0.80,303.68,M,-33.324,M,,*75
2017-12-01 16:41:18 1512164478.421854: $GPRMC,214119,A,3946.9651,N,08404.9744,W,0.0000,0.000,011217,,*30
2017-12-01 16:41:18 1512164478.421915: $GPGSA,A,3,1,10,11,14,22,31,32,12,25,26,18,138,2.0,0.8,1.5*39
