2017-11-16 17:14:55 1510870495.641973: {"class":"VERSION","release":"3.17","rev":"3.17","proto_major":3,"proto_minor":12}
2017-11-16 17:14:55 1510870495.642700: {"class":"DEVICES","devices":[{"class":"DEVICE","path":"/dev/ttyUSB0","driver":"SiRF","subtype":"9\u0006GSD4e_4.1.2-P1_RPATCH.05-F-GPS-4R-1510281 11/03/2015 307","activated":"2017-11-16T22:14:55.563Z","flags":1,"native":1,"bps":4800,"parity":"N","stopbits":1,"cycle":1.00}]}
2017-11-16 17:14:55 1510870495.642814: {"class":"WATCH","enable":true,"json":false,"nmea":true,"raw":0,"scaled":false,"timing":false,"split24":false,"pps":false}
2017-11-16 17:14:56 1510870496.419205: $GPZDA,221455.00,16,11,2017,00,00*60
2017-11-16 17:14:56 1510870496.419366: $GPGGA,221455,3946.9568,N,08404.9819,W,2,11,0.80,312.89,M,-33.324,M,,*7C
2017-11-16 17:14:56 1510870496.419426: $GPRMC,221455,A,3946.9568,N,08404.9819,W,0.0000,0.000,161117,,*30
2017-11-16 17:14:56 1510870496.419481: $GPGSA,A,3,1,10,22,12,14,18,11,25,31,32,138,,1.6,0.8,1.3*3E
2017-11-16 17:14:57 1510870497.756761: $GPGSV,3,1,12,01,19,309,41,10,57,142,48,22,12,312,43,12,24,058,49*77
2017-11-16 17:14:57 1510870497.757068: $GPGSV,3,2,12,14,62,310,47,18,26,141,43,24,04,046,19,11,10,289,42*79
2017-11-16 17:14:57 1510870497.757164: $GPGSV,3,3,12,25,36,102,46,31,46,219,48,32,70,001,48,138,38,213,44*45
2017-11-16 17:14:57 1510870497.870487: $GPZDA,221456.00,16,11,2017,00,00*63
2017-11-16 17:14:57 1510870497.870676: $GPGGA,221456,3946.9568,N,08404.9819,W,2,12,0.80,312.89,M,-33.324,M,,*7C
2017-11-16 17:14:57 1510870497.870818: $GPRMC,221456,A,3946.9568,N,08404.9819,W,0.0000,0.000,161117,,*33
2017-11-16 17:14:57 1510870497.870896: $GPGSA,A,3,1,10,22,12,14,18,24,11,25,31,32,138,1.6,0.8,1.3*38
2017-11-16 17:14:58 1510870498.419150: $GPZDA,221457.00,16,11,2017,00,00*62
2017-11-16 17:14:58 1510870498.419311: $GPGGA,221457,3946.9568,N,08404.9819,W,2,12,0.80,312.89,M,-33.324,M,,*7D
2017-11-16 17:14:58 1510870498.419373: $GPRMC,221457,A,3946.9568,N,08404.9819,W,0.0000,0.000,161117,,*32
2017-11-16 17:14:58 1510870498.419428: $GPGSA,A,3,1,10,22,12,14,18,24,11,25,31,32,138,1.6,0.8,1.3*38
2017-11-16 17:14:59 1510870499.418749: $GPZDA,221458.00,16,11,2017,00,00*6D
2017-11-16 17:14:59 1510870499.418908: $GPGGA,221458,3946.9568,N,08404.9819,W,2,12,0.80,312.89,M,-33.324,M,,*72
2017-11-16 17:14:59 1510870499.418986: $GPRMC,221458,A,3946.9568,N,08404.9819,W,0.0000,0.000,161117,,*3D
2017-11-16 17:14:59 1510870499.419044: $GPGSA,A,3,1,10,22,12,14,18,24,11,25,31,32,138,1.6,0.8,1.3*38
2017-11-16 17:15:00 1510870500.735793: $GPGSV,3,1,12,01,19,309,42,10,57,142,48,22,12,312,42,12,24,058,49*75
2017-11-16 17:15:00 1510870500.735979: $GPGSV,3,2,12,14,62,310,47,18,26,141,43,24,04,046,18,11,10,289,42*78
2017-11-16 17:15:00 1510870500.736042: $GPGSV,3,3,12,25,36,102,46,31,46,219,48,32,70,001,48,138,38,213,44*45
2017-11-16 17:15:00 1510870500.849146: $GPZDA,221459.00,16,11,2017,00,00*6C
2017-11-16 17:15:00 1510870500.849307: $GPGGA,221459,3946.9568,N,08404.9819,W,2,12,0.80,312.89,M,-33.324,M,,*73
2017-11-16 17:15:00 1510870500.849367: $GPRMC,221459,A,3946.9568,N,08404.9819,W,0.0000,0.000,161117,,*3C
2017-11-16 17:15:00 1510870500.849423: $GPGSA,A,3,1,10,22,12,14,18,24,11,25,31,32,138,1.6,0.8,1.3*38
2017-11-16 17:15:01 1510870501.476309: $GPZDA,221500.00,16,11,2017,00,00*61
2017-11-16 17:15:01 1510870501.476457: $GPGGA,221500,3946.9568,N,08404.9819,W,2,12,0.80,312.89,M,-33.324,M,,*7E
2017-11-16 17:15:01 1510870501.476517: $GPRMC,221500,A,3946.9568,N,08404.9819,W,0.0000,0.000,161117,,*31
2017-11-16 17:15:01 1510870501.476572: $GPGSA,A,3,1,10,22,12,14,18,24,11,25,31,32,138,1.6,0.8,1.3*38
2017-11-16 17:15:02 1510870502.420436: $GPZDA,221501.00,16,11,2017,00,00*60
2017-11-16 17:15:02 1510870502.420612: $GPGGA,221501,3946.9568,N,08404.9819,W,2,12,0.80,312.89,M,-33.324,M,,*7F
2017-11-16 17:15:02 1510870502.420673: $GPRMC,221501,A,3946.9568,N,08404.9819,W,0.0000,0.000,161117,,*30
2017-11-16 17:15:02 1510870502.420729: $GPGSA,A,3,1,10,22,12,14,18,24,11,25,31,32,138,1.6,0.8,1.3*38
2017-11-16 17:15:03 1510870503.736169: $GPGSV,3,1,12,01,19,309,42,10,57,142,48,22,12,312,42,12,24,058,49*75
2017-11-16 17:15:03 1510870503.736394: $GPGSV,3,2,12,14,62,310,47,18,26,141,43,24,04,046,00,11,10,289,42*71
2017-11-16 17:15:03 1510870503.736458: $GPGSV,3,3,12,25,36,102,46,31,46,219,48,32,70,001,48,138,38,213,43*42
2017-11-16 17:15:03 1510870503.849525: $GPZDA,221502.00,16,11,2017,00,00*63
2017-11-16 17:15:03 1510870503.849732: $GPGGA,221502,3946.9568,N,08404.9819,W,2,11,0.80,312.89,M,-33.324,M,,*7F
2017-11-16 17:15:03 1510870503.849795: $GPRMC,221502,A,3946.9568,N,08404.9819,W,0.0000,0.000,161117,,*33
2017-11-16 17:15:03 1510870503.849851: $GPGSA,A,3,1,10,22,12,14,18,11,25,31,32,138,,1.6,0.8,1.3*3E
2017-11-16 17:15:04 1510870504.401645: $GPZDA,221503.00,16,11,2017,00,00*62
2017-11-16 17:15:04 1510870504.401824: $GPGGA,221503,3946.9568,N,08404.9819,W,2,11,0.80,312.89,M,-33.324,M,,*7E
2017-11-16 17:15:04 1510870504.401885: $GPRMC,221503,A,3946.9568,N,08404.9819,W,0.0000,0.000,161117,,*32
2017-11-16 17:15:04 1510870504.401959: $GPGSA,A,3,1,10,22,12,14,18,11,25,31,32,138,,1.6,0.8,1.3*3E
2017-11-16 17:15:05 1510870505.420098: $GPZDA,221504.00,16,11,2017,00,00*65
2017-11-16 17:15:05 1510870505.420271: $GPGGA,221504,3946.9568,N,08404.9819,W,2,11,0.80,312.89,M,-33.324,M,,*79
2017-11-16 17:15:05 1510870505.420332: $GPRMC,221504,A,3946.9568,N,08404.9819,W,0.0000,0.000,161117,,*35
2017-11-16 17:15:05 1510870505.420388: $GPGSA,A,3,1,10,22,12,14,18,11,25,31,32,138,,1.6,0.8,1.3*3E
