2017-11-16 15:51:36 1510865496.605892: {"class":"VERSION","release":"3.17","rev":"3.17","proto_major":3,"proto_minor":12}
2017-11-16 15:51:36 1510865496.606417: {"class":"DEVICES","devices":[{"class":"DEVICE","path":"/dev/ttyUSB0","driver":"SiRF","subtype":"9\u0006GSD4e_4.1.2-P1_RPATCH.05-F-GPS-4R-1510281 11/03/2015 307","activated":"2017-11-16T20:51:36.509Z","flags":1,"native":1,"bps":4800,"parity":"N","stopbits":1,"cycle":1.00}]}
2017-11-16 15:51:36 1510865496.610728: {"class":"WATCH","enable":true,"json":false,"nmea":true,"raw":0,"scaled":false,"timing":false,"split24":false,"pps":false}
2017-11-16 15:51:37 1510865497.721386: $GPGSV,3,1,12,11,03,322,33,10,79,355,50,14,37,264,45,08,02,283,27*77
2017-11-16 15:51:37 1510865497.721543: $GPGSV,3,2,12,18,62,112,48,25,11,135,25,21,18,177,39,24,36,051,50*7C
2017-11-16 15:51:37 1510865497.721605: $GPGSV,3,3,12,31,09,204,26,32,54,279,46,12,16,097,42,138,38,213,44*40
2017-11-16 15:51:37 1510865497.834701: $GPZDA,205136.00,16,11,2017,00,00*66
2017-11-16 15:51:37 1510865497.834859: $GPGGA,205136,3946.9579,N,08404.9851,W,2,12,1.20,308.80,M,-33.324,M,,*7C
2017-11-16 15:51:37 1510865497.834922: $GPRMC,205136,A,3946.9579,N,08404.9851,W,0.0000,0.000,161117,,*3A
2017-11-16 15:51:37 1510865497.834980: $GPGSA,A,3,11,10,14,8,18,25,21,24,31,32,12,138,1.6,1.2,1.3*39
2017-11-16 15:51:38 1510865498.368379: $GPZDA,205137.00,16,11,2017,00,00*67
2017-11-16 15:51:38 1510865498.368536: $GPGGA,205137,3946.9579,N,08404.9851,W,2,12,1.20,308.80,M,-33.324,M,,*7D
2017-11-16 15:51:38 1510865498.368596: $GPRMC,205137,A,3946.9579,N,08404.9851,W,0.0000,0.000,161117,,*3B
2017-11-16 15:51:38 1510865498.368652: $GPGSA,A,3,11,10,14,8,18,25,21,24,31,32,12,138,1.6,1.2,1.3*39
2017-11-16 15:51:39 1510865499.385195: $GPZDA,205138.00,16,11,2017,00,00*68
2017-11-16 15:51:39 1510865499.385375: $GPGGA,205138,3946.9579,N,08404.9851,W,2,12,1.20,308.80,M,-33.324,M,,*72
2017-11-16 15:51:39 1510865499.385440: $GPRMC,205138,A,3946.9579,N,08404.9851,W,0.0000,0.000,161117,,*34
2017-11-16 15:51:39 1510865499.385497: $GPGSA,A,3,11,10,14,8,18,25,21,24,31,32,12,138,1.6,1.2,1.3*39
2017-11-16 15:51:40 1510865500.704735: $GPGSV,3,1,12,11,03,322,32,10,79,355,50,14,37,264,45,08,02,283,27*76
2017-11-16 15:51:40 1510865500.704920: $GPGSV,3,2,12,18,62,112,48,25,11,135,25,21,18,177,39,24,36,051,49*74
2017-11-16 15:51:40 1510865500.704981: $GPGSV,3,3,12,31,09,204,26,32,54,279,46,12,16,097,42,138,38,213,44*40
2017-11-16 15:51:40 1510865500.818136: $GPZDA,205139.00,16,11,2017,00,00*69
2017-11-16 15:51:40 1510865500.818314: $GPGGA,205139,3946.9579,N,08404.9851,W,2,12,1.20,308.80,M,-33.324,M,,*73
2017-11-16 15:51:40 1510865500.818376: $GPRMC,205139,A,3946.9579,N,08404.9851,W,0.0000,0.000,161117,,*35
2017-11-16 15:51:40 1510865500.818433: $GPGSA,A,3,11,10,14,8,18,25,21,24,31,32,12,138,1.6,1.2,1.3*39
2017-11-16 15:51:41 1510865501.443539: $GPZDA,205140.00,16,11,2017,00,00*67
2017-11-16 15:51:41 1510865501.443887: $GPGGA,205140,3946.9579,N,08404.9851,W,2,12,1.20,308.80,M,-33.324,M,,*7D
2017-11-16 15:51:41 1510865501.444027: $GPRMC,205140,A,3946.9579,N,08404.9851,W,0.0000,0.000,161117,,*3B
2017-11-16 15:51:41 1510865501.444168: $GPGSA,A,3,11,10,14,8,18,25,21,24,31,32,12,138,1.6,1.2,1.3*39
2017-11-16 15:51:42 1510865502.384588: $GPZDA,205141.00,16,11,2017,00,00*66
2017-11-16 15:51:42 1510865502.384737: $GPGGA,205141,3946.9579,N,08404.9851,W,2,12,1.20,308.80,M,-33.324,M,,*7C
2017-11-16 15:51:42 1510865502.384798: $GPRMC,205141,A,3946.9579,N,08404.9851,W,0.0000,0.000,161117,,*3A
2017-11-16 15:51:42 1510865502.384871: $GPGSA,A,3,11,10,14,8,18,25,21,24,31,32,12,138,1.6,1.2,1.3*39
2017-11-16 15:51:43 1510865503.705124: $GPGSV,3,1,12,11,03,322,25,10,79,355,51,14,37,264,45,08,02,283,28*7E
2017-11-16 15:51:43 1510865503.705320: $GPGSV,3,2,12,18,62,112,48,25,11,135,26,21,18,177,39,24,36,051,49*77
2017-11-16 15:51:43 1510865503.705381: $GPGSV,3,3,12,31,09,204,27,32,54,279,46,12,16,097,43,138,38,213,44*40
2017-11-16 15:51:43 1510865503.818412: $GPZDA,205142.00,16,11,2017,00,00*65
2017-11-16 15:51:43 1510865503.818588: $GPGGA,205142,3946.9579,N,08404.9851,W,2,12,1.20,308.80,M,-33.324,M,,*7F
2017-11-16 15:51:43 1510865503.818706: $GPRMC,205142,A,3946.9579,N,08404.9851,W,0.0000,0.000,161117,,*39
2017-11-16 15:51:43 1510865503.818764: $GPGSA,A,3,11,10,14,8,18,25,21,24,31,32,12,138,1.6,1.2,1.3*39
2017-11-16 15:51:44 1510865504.360652: $GPZDA,205143.00,16,11,2017,00,00*64
2017-11-16 15:51:44 1510865504.360952: $GPGGA,205143,3946.9579,N,08404.9851,W,2,12,1.20,308.80,M,-33.324,M,,*7E
2017-11-16 15:51:44 1510865504.361106: $GPRMC,205143,A,3946.9579,N,08404.9851,W,0.0000,0.000,161117,,*38
2017-11-16 15:51:44 1510865504.361224: $GPGSA,A,3,11,10,14,8,18,25,21,24,31,32,12,138,1.6,1.2,1.3*39
2017-11-16 15:51:45 1510865505.367613: $GPZDA,205144.00,16,11,2017,00,00*63
2017-11-16 15:51:45 1510865505.367800: $GPGGA,205144,3946.9579,N,08404.9851,W,2,12,1.20,308.80,M,-33.324,M,,*79
2017-11-16 15:51:45 1510865505.367862: $GPRMC,205144,A,3946.9579,N,08404.9851,W,0.0000,0.000,161117,,*3F
2017-11-16 15:51:45 1510865505.367918: $GPGSA,A,3,11,10,14,8,18,25,21,24,31,32,12,138,1.6,1.2,1.3*39
