2017-12-14 11:57:50 1513270670.702166: {"class":"VERSION","release":"3.16","rev":"3.16-4","proto_major":3,"proto_minor":11}
2017-12-14 11:57:50 1513270670.702549: {"class":"DEVICES","devices":[{"class":"DEVICE","path":"/dev/ttyUSB0","driver":"SiRF","subtype":"9\u0006GSD4e_4.1.2-P1_RPATCH.05-F-GPS-4R-1510281 11/03/2015 307","activated":"2017-12-14T16:57:50.334Z","flags":1,"native":1,"bps":4800,"parity":"N","stopbits":1,"cycle":1.00}]}
2017-12-14 11:57:50 1513270670.702669: {"class":"WATCH","enable":true,"json":false,"nmea":true,"raw":0,"scaled":false,"timing":false,"split24":false,"pps":false}
2017-12-14 11:57:51 1513270671.529095: $GPGSV,3,1,11,20,41,087,30,10,34,294,20,15,46,051,24,18,65,319,18*77
2017-12-14 11:57:51 1513270671.529277: $GPGSV,3,2,11,24,45,123,26,08,02,330,04,27,19,298,00,13,15,046,00*7F
2017-12-14 11:57:51 1513270671.529341: $GPGSV,3,3,11,32,14,232,00,21,72,199,00,138,38,213,00*78
2017-12-14 11:57:51 1513270671.642461: $GPZDA,165752.00,14,12,2017,00,00*66
2017-12-14 11:57:51 1513270671.642612: $GPGGA,165752,3946.9568,N,08404.9435,W,1,05,1.80,342.56,M,-33.324,M,,*79
2017-12-14 11:57:51 1513270671.642680: $GPRMC,165752,A,3946.9568,N,08404.9435,W,0.7794,358.158,141217,,*3B
2017-12-14 11:57:51 1513270671.642742: $GPGSA,A,3,20,10,15,18,24,,,,,,,,6.6,1.8,6.2*37
2017-12-14 11:57:52 1513270672.193993: $GPZDA,165753.00,14,12,2017,00,00*67
2017-12-14 11:57:52 1513270672.194155: $GPGGA,165753,3946.9572,N,08404.9435,W,1,05,1.80,343.20,M,-33.324,M,,*73
2017-12-14 11:57:52 1513270672.194221: $GPRMC,165753,A,3946.9572,N,08404.9435,W,0.7037,335.503,141217,,*3E
2017-12-14 11:57:52 1513270672.194283: $GPGSA,A,3,20,10,15,18,24,,,,,,,,6.6,1.8,6.2*37
2017-12-14 11:57:53 1513270673.195191: $GPZDA,165754.00,14,12,2017,00,00*60
2017-12-14 11:57:53 1513270673.195344: $GPGGA,165754,3946.9572,N,08404.9435,W,1,05,1.80,343.20,M,-33.324,M,,*74
2017-12-14 11:57:53 1513270673.195410: $GPRMC,165754,A,3946.9572,N,08404.9435,W,0.7037,335.503,141217,,*39
2017-12-14 11:57:53 1513270673.195470: $GPGSA,A,3,20,10,15,18,24,,,,,,,,6.6,1.8,6.2*37
2017-12-14 11:57:54 1513270674.528935: $GPGSV,3,1,11,20,41,087,30,10,34,294,21,15,46,051,24,18,65,319,18*76
2017-12-14 11:57:54 1513270674.529096: $GPGSV,3,2,11,24,45,123,27,08,02,330,04,27,19,298,00,13,15,046,00*7E
2017-12-14 11:57:54 1513270674.529163: $GPGSV,3,3,11,32,14,232,00,21,72,199,00,138,38,213,00*78
2017-12-14 11:57:54 1513270674.642406: $GPZDA,165755.00,14,12,2017,00,00*61
2017-12-14 11:57:54 1513270674.657518: $GPGGA,165755,3946.9572,N,08404.9441,W,1,05,1.80,343.12,M,-33.324,M,,*77
2017-12-14 11:57:54 1513270674.657646: $GPRMC,165755,A,3946.9572,N,08404.9441,W,0.8660,292.475,141217,,*3C
2017-12-14 11:57:54 1513270674.657713: $GPGSA,A,3,20,10,15,18,24,,,,,,,,6.6,1.8,6.2*37
2017-12-14 11:57:55 1513270675.194451: $GPZDA,165756.00,14,12,2017,00,00*62
2017-12-14 11:57:55 1513270675.194618: $GPGGA,165756,3946.9576,N,08404.9441,W,1,05,1.80,342.35,M,-33.324,M,,*74
2017-12-14 11:57:55 1513270675.194683: $GPRMC,165756,A,3946.9576,N,08404.9441,W,0.5394,327.250,141217,,*36
2017-12-14 11:57:55 1513270675.194745: $GPGSA,A,3,20,10,15,18,24,,,,,,,,6.6,1.8,6.2*37
2017-12-14 11:57:56 1513270676.194645: $GPZDA,165757.00,14,12,2017,00,00*63
2017-12-14 11:57:56 1513270676.194827: $GPGGA,165757,3946.9577,N,08404.9445,W,1,05,1.80,337.30,M,-33.324,M,,*77
2017-12-14 11:57:56 1513270676.194897: $GPRMC,165757,A,3946.9577,N,08404.9445,W,0.4137,224.855,141217,,*35
2017-12-14 11:57:56 1513270676.194959: $GPGSA,A,3,20,10,15,18,24,,,,,,,,6.6,1.8,6.2*37
2017-12-14 11:57:57 1513270677.532095: $GPGSV,3,1,11,20,41,087,30,10,34,294,21,15,46,051,24,18,65,319,19*77
2017-12-14 11:57:57 1513270677.532245: $GPGSV,3,2,11,24,45,123,27,08,02,330,05,32,14,232,14,27,19,298,00*79
2017-12-14 11:57:57 1513270677.532311: $GPGSV,3,3,11,13,15,046,00,21,72,199,00,138,38,213,00*7B
2017-12-14 11:57:57 1513270677.645392: $GPZDA,165758.00,14,12,2017,00,00*6C
2017-12-14 11:57:57 1513270677.645535: $GPGGA,165758,3946.9577,N,08404.9444,W,1,05,1.80,335.89,M,-33.324,M,,*79
2017-12-14 11:57:57 1513270677.645608: $GPRMC,165758,A,3946.9577,N,08404.9444,W,0.0000,0.000,141217,,*36
2017-12-14 11:57:57 1513270677.645723: $GPGSA,A,3,20,10,15,18,24,,,,,,,,6.6,1.8,6.2*37
2017-12-14 11:57:58 1513270678.195559: $GPZDA,165759.00,14,12,2017,00,00*6D
2017-12-14 11:57:58 1513270678.195740: $GPGGA,165759,3946.9577,N,08404.9444,W,1,05,1.80,335.89,M,-33.324,M,,*78
2017-12-14 11:57:58 1513270678.195808: $GPRMC,165759,A,3946.9577,N,08404.9444,W,0.0000,0.000,141217,,*37
2017-12-14 11:57:58 1513270678.195870: $GPGSA,A,3,20,10,15,18,24,,,,,,,,6.6,1.8,6.2*37
2017-12-14 11:57:59 1513270679.196919: $GPZDA,165800.00,14,12,2017,00,00*6E
2017-12-14 11:57:59 1513270679.197096: $GPGGA,165800,3946.9577,N,08404.9444,W,1,05,1.80,335.89,M,-33.324,M,,*7B
2017-12-14 11:57:59 1513270679.197162: $GPRMC,165800,A,3946.9577,N,08404.9444,W,0.0000,0.000,141217,,*34
2017-12-14 11:57:59 1513270679.197224: $GPGSA,A,3,20,10,15,18,24,,,,,,,,6.6,1.8,6.2*37
2017-12-14 11:58:00 1513270680.531420: $GPGSV,3,1,11,20,41,087,31,10,34,294,21,15,46,051,24,18,65,319,19*76
2017-12-14 11:58:00 1513270680.531609: $GPGSV,3,2,11,24,45,123,28,08,02,330,08,32,14,232,14,27,19,298,00*7B
2017-12-14 11:58:00 1513270680.531675: $GPGSV,3,3,11,13,15,046,00,21,72,199,00,138,38,213,00*7B
2017-12-14 11:58:00 1513270680.644801: $GPZDA,165801.00,14,12,2017,00,00*6F
2017-12-14 11:58:00 1513270680.644973: $GPGGA,165801,3946.9577,N,08404.9444,W,1,06,1.80,335.89,M,-33.324,M,,*79
2017-12-14 11:58:00 1513270680.645038: $GPRMC,165801,A,3946.9577,N,08404.9444,W,0.1867,0.000,141217,,*3D
2017-12-14 11:58:00 1513270680.645099: $GPGSA,A,3,20,10,15,18,24,8,,,,,,,6.6,1.8,6.2*0F
2017-12-14 11:58:01 1513270681.686367: $GPZDA,165802.00,14,12,2017,00,00*6C
2017-12-14 11:58:01 1513270681.686531: $GPGGA,165802,3946.9573,N,08404.9445,W,1,06,1.60,336.66,M,-33.324,M,,*73
2017-12-14 11:58:01 1513270681.686605: $GPRMC,165802,A,3946.9573,N,08404.9445,W,0.5306,114.352,141217,,*33
2017-12-14 11:58:01 1513270681.686668: $GPGSA,A,3,20,10,15,18,24,8,,,,,,,6.6,1.6,6.2*01
2017-12-14 11:58:02 1513270682.196427: $GPZDA,165803.00,14,12,2017,00,00*6D
2017-12-14 11:58:02 1513270682.196589: $GPGGA,165803,3946.9569,N,08404.9445,W,1,06,1.60,336.02,M,-33.324,M,,*7B
2017-12-14 11:58:02 1513270682.196656: $GPRMC,165803,A,3946.9569,N,08404.9445,W,0.4844,93.794,141217,,*05
2017-12-14 11:58:02 1513270682.196718: $GPGSA,A,3,20,10,15,18,24,8,,,,,,,6.6,1.6,6.2*01
2017-12-14 11:58:03 1513270683.532676: $GPGSV,3,1,11,20,41,087,31,10,34,294,22,15,46,051,24,18,65,321,20*74
2017-12-14 11:58:03 1513270683.532856: $GPGSV,3,2,11,24,45,123,28,08,02,330,08,32,14,232,14,27,19,298,00*7B
2017-12-14 11:58:03 1513270683.532921: $GPGSV,3,3,11,13,15,046,00,21,72,199,00,138,38,213,00*7B
2017-12-14 11:58:03 1513270683.645992: $GPZDA,165804.00,14,12,2017,00,00*6A
2017-12-14 11:58:03 1513270683.646122: $GPGGA,165804,3946.9569,N,08404.9438,W,1,07,1.60,336.10,M,-33.324,M,,*74
2017-12-14 11:58:03 1513270683.646187: $GPRMC,165804,A,3946.9569,N,08404.9438,W,0.5951,58.684,141217,,*0B
2017-12-14 11:58:03 1513270683.646249: $GPGSA,A,3,20,10,15,18,24,8,32,,,,,,6.6,1.6,6.2*00
2017-12-14 11:58:04 1513270684.196148: $GPZDA,165805.00,14,12,2017,00,00*6B
2017-12-14 11:58:04 1513270684.196315: $GPGGA,165805,3946.9569,N,08404.9438,W,1,07,1.60,336.10,M,-33.324,M,,*75
2017-12-14 11:58:04 1513270684.196383: $GPRMC,165805,A,3946.9569,N,08404.9438,W,0.4207,39.347,141217,,*0E
2017-12-14 11:58:04 1513270684.196443: $GPGSA,A,3,20,10,15,18,24,8,32,,,,,,6.6,1.6,6.2*00
2017-12-14 11:58:05 1513270685.197176: $GPZDA,165806.00,14,12,2017,00,00*68
2017-12-14 11:58:05 1513270685.892186: $GPGGA,165806,3946.9572,N,08404.9437,W,1,07,1.60,335.33,M,-33.324,M,,*71
2017-12-14 11:58:05 1513270685.892352: $GPRMC,165806,A,3946.9572,N,08404.9437,W,0.0000,0.000,141217,,*33
2017-12-14 11:58:05 1513270685.892418: $GPGSA,A,3,20,10,15,18,24,8,32,,,,,,6.6,1.6,6.2*00
2017-12-14 11:58:06 1513270686.533260: $GPGSV,3,1,11,20,41,087,31,10,34,294,22,15,46,051,24,18,65,321,20*74
2017-12-14 11:58:06 1513270686.533436: $GPGSV,3,2,11,24,45,123,28,08,02,330,05,32,14,232,14,27,19,298,00*76
2017-12-14 11:58:06 1513270686.533505: $GPGSV,3,3,11,13,15,046,00,21,72,199,00,138,38,213,00*7B
2017-12-14 11:58:06 1513270686.646962: $GPZDA,165807.00,14,12,2017,00,00*69
2017-12-14 11:58:06 1513270686.647122: $GPGGA,165807,3946.9572,N,08404.9437,W,1,06,1.60,335.33,M,-33.324,M,,*71
2017-12-14 11:58:06 1513270686.647189: $GPRMC,165807,A,3946.9572,N,08404.9437,W,0.7267,93.795,141217,,*07
2017-12-14 11:58:06 1513270686.647248: $GPGSA,A,3,20,10,15,18,24,32,,,,,,,6.6,1.6,6.2*38
2017-12-14 11:58:07 1513270687.198431: $GPZDA,165808.00,14,12,2017,00,00*66
2017-12-14 11:58:07 1513270687.198611: $GPGGA,165808,3946.9572,N,08404.9430,W,1,06,1.60,335.41,M,-33.324,M,,*7C
2017-12-14 11:58:07 1513270687.198676: $GPRMC,165808,A,3946.9572,N,08404.9430,W,0.7267,93.795,141217,,*0F
2017-12-14 11:58:07 1513270687.198738: $GPGSA,A,3,20,10,15,18,24,32,,,,,,,6.6,1.6,6.2*38
2017-12-14 11:58:08 1513270688.198583: $GPZDA,165809.00,14,12,2017,00,00*67
2017-12-14 11:58:08 1513270688.198751: $GPGGA,165809,3946.9572,N,08404.9430,W,1,06,1.60,335.41,M,-33.324,M,,*7D
2017-12-14 11:58:08 1513270688.198817: $GPRMC,165809,A,3946.9572,N,08404.9430,W,1.2375,102.453,141217,,*38
2017-12-14 11:58:08 1513270688.198878: $GPGSA,A,3,20,10,15,18,24,32,,,,,,,6.6,1.6,6.2*38
2017-12-14 11:58:09 1513270689.533229: $GPGSV,3,1,11,20,41,087,31,10,34,294,22,15,46,051,24,18,65,321,20*74
2017-12-14 11:58:09 1513270689.533407: $GPGSV,3,2,11,24,45,123,29,08,02,330,04,32,14,232,14,27,19,298,00*76
2017-12-14 11:58:09 1513270689.533477: $GPGSV,3,3,11,13,15,046,00,21,72,199,00,138,38,213,00*7B
2017-12-14 11:58:09 1513270689.646913: $GPZDA,165810.00,14,12,2017,00,00*6F
2017-12-14 11:58:09 1513270689.647079: $GPGGA,165810,3946.9571,N,08404.9423,W,1,06,1.60,335.49,M,-33.324,M,,*7C
2017-12-14 11:58:09 1513270689.647145: $GPRMC,165810,A,3946.9571,N,08404.9423,W,0.5912,129.173,141217,,*32
2017-12-14 11:58:09 1513270689.647207: $GPGSA,A,3,20,10,15,18,24,32,,,,,,,6.6,1.6,6.2*38
2017-12-14 11:58:10 1513270690.198070: $GPZDA,165811.00,14,12,2017,00,00*6E
2017-12-14 11:58:10 1513270690.237242: $GPGGA,165811,3946.9567,N,08404.9423,W,1,06,1.60,334.85,M,-33.324,M,,*7B
2017-12-14 11:58:10 1513270690.237415: $GPRMC,165811,A,3946.9567,N,08404.9423,W,0.4179,148.778,141217,,*3A
2017-12-14 11:58:10 1513270690.237485: $GPGSA,A,3,20,10,15,18,24,32,,,,,,,6.6,1.6,6.2*38
