2018-01-11 20:57:04 1515722224.706357: {"class":"VERSION","release":"3.16","rev":"3.16-4","proto_major":3,"proto_minor":11}
2018-01-11 20:57:04 1515722224.706777: {"class":"DEVICES","devices":[{"class":"DEVICE","path":"/dev/ttyUSB0","driver":"SiRF","subtype":"9\u0006GSD4e_4.1.2-P1_RPATCH.05-F-GPS-4R-1510281 11/03/2015 307","activated":"2018-01-12T01:57:04.583Z","flags":1,"native":1,"bps":4800,"parity":"N","stopbits":1,"cycle":1.00}]}
2018-01-11 20:57:04 1515722224.706890: {"class":"WATCH","enable":true,"json":false,"nmea":true,"raw":0,"scaled":false,"timing":false,"split24":false,"pps":false}
2018-01-11 20:57:05 1515722225.185761: $GPZDA,015705.88,12,01,2018,00,00*69
2018-01-11 20:57:05 1515722225.185925: $GPGGA,015705,3946.9573,N,08404.9808,W,1,10,1.00,294.39,M,-33.324,M,,*7A
2018-01-11 20:57:05 1515722225.185991: $GPRMC,015705,A,3946.9573,N,08404.9808,W,0.4318,344.356,120118,,*3E
2018-01-11 20:57:05 1515722225.186052: $GPGSA,A,3,1,7,8,9,11,23,27,28,30,138,,,4.0,1.0,3.5*01
2018-01-11 20:57:06 1515722226.267286: $GPZDA,015706.57,12,01,2018,00,00*68
2018-01-11 20:57:06 1515722226.267453: $GPGGA,015706,3946.9570,N,08404.9809,W,1,10,1.00,295.15,M,-33.324,M,,*74
2018-01-11 20:57:06 1515722226.267519: $GPRMC,015706,A,3946.9570,N,08404.9809,W,0.1176,39.705,120118,,*0B
2018-01-11 20:57:06 1515722226.267604: $GPGSA,A,3,1,7,8,9,11,23,27,28,30,138,,,4.0,1.0,3.5*01
2018-01-11 20:57:06 1515722226.267679: $GPGBS,015706,14.62,M,24.83,M,80.38,M*04
2018-01-11 20:57:07 1515722227.409874: $GPGSV,3,1,11,01,15,153,39,07,77,312,44,08,67,058,46,09,30,211,42*7C
2018-01-11 20:57:07 1515722227.410042: $GPGSV,3,2,11,11,39,159,47,23,09,183,34,27,28,045,48,28,28,274,37*7E
2018-01-11 20:57:07 1515722227.410109: $GPGSV,3,3,11,30,48,310,39,16,08,073,00,138,38,213,00*74
2018-01-11 20:57:07 1515722227.523303: $GPZDA,015707.00,12,01,2018,00,00*6B
2018-01-11 20:57:07 1515722227.523448: $GPGGA,015707,3946.9574,N,08404.9809,W,1,09,1.00,295.79,M,-33.324,M,,*73
2018-01-11 20:57:07 1515722227.523514: $GPRMC,015707,A,3946.9574,N,08404.9809,W,0.0407,142.014,120118,,*36
2018-01-11 20:57:07 1515722227.523579: $GPGSA,A,3,1,7,8,9,11,23,27,28,30,,,,4.0,1.0,3.5*3B
2018-01-11 20:57:07 1515722227.974194: $GPZDA,015708.00,12,01,2018,00,00*64
2018-01-11 20:57:07 1515722227.974352: $GPGGA,015708,3946.9590,N,08404.9883,W,1,09,1.00,279.78,M,-33.324,M,,*77
2018-01-11 20:57:07 1515722227.974419: $GPRMC,015708,A,3946.9590,N,08404.9883,W,0.2758,308.233,120118,,*31
2018-01-11 20:57:07 1515722227.974480: $GPGSA,A,3,1,7,8,9,11,23,27,28,30,,,,4.0,1.0,3.5*3B
2018-01-11 20:57:08 1515722228.426506: $GPZDA,015709.00,12,01,2018,00,00*65
2018-01-11 20:57:08 1515722228.426660: $GPGGA,015709,3946.9586,N,08404.9877,W,1,09,1.00,280.63,M,-33.324,M,,*76
2018-01-11 20:57:08 1515722228.426725: $GPRMC,015709,A,3946.9586,N,08404.9877,W,0.0000,0.000,120118,,*3D
2018-01-11 20:57:08 1515722228.426787: $GPGSA,A,3,1,7,8,9,11,23,27,28,30,,,,4.0,1.0,3.5*3B
2018-01-11 20:57:09 1515722229.713973: $GPGSV,3,1,11,01,15,153,40,07,77,312,44,08,67,058,48,09,30,211,42*7C
2018-01-11 20:57:09 1515722229.714154: $GPGSV,3,2,11,11,39,159,48,23,09,183,35,27,28,045,49,28,28,274,38*7E
2018-01-11 20:57:09 1515722229.714222: $GPGSV,3,3,11,30,48,310,39,16,08,073,00,138,38,213,46*76
2018-01-11 20:57:09 1515722229.827602: $GPZDA,015710.00,12,01,2018,00,00*6D
2018-01-11 20:57:09 1515722229.827770: $GPGGA,015710,3946.9595,N,08404.9891,W,1,10,1.00,281.75,M,-33.324,M,,*7A
2018-01-11 20:57:09 1515722229.827835: $GPRMC,015710,A,3946.9595,N,08404.9891,W,0.0000,0.000,120118,,*3F
2018-01-11 20:57:09 1515722229.827897: $GPGSA,A,3,1,7,8,9,11,23,27,28,30,138,,,4.0,1.0,3.5*01
2018-01-11 20:57:10 1515722230.379716: $GPZDA,015711.00,12,01,2018,00,00*6C
2018-01-11 20:57:10 1515722230.379860: $GPGGA,015711,3946.9595,N,08404.9891,W,1,10,1.00,281.75,M,-33.324,M,,*7B
2018-01-11 20:57:10 1515722230.379927: $GPRMC,015711,A,3946.9595,N,08404.9891,W,0.0000,0.000,120118,,*3E
2018-01-11 20:57:10 1515722230.379987: $GPGSA,A,3,1,7,8,9,11,23,27,28,30,138,,,4.0,1.0,3.5*01
