2017-12-01 11:34:55 1512146095.794546: {"class":"VERSION","release":"3.16","rev":"3.16-4","proto_major":3,"proto_minor":11}
2017-12-01 11:34:55 1512146095.795030: {"class":"DEVICES","devices":[{"class":"DEVICE","path":"/dev/ttyUSB0","driver":"SiRF","subtype":"9\u0006GSD4e_4.1.2-P1_RPATCH.05-F-GPS-4R-1510281 11/03/2015 307","activated":"2017-12-01T16:34:55.744Z","flags":1,"native":1,"bps":4800,"parity":"N","stopbits":1,"cycle":1.00}]}
2017-12-01 11:34:55 1512146095.795157: {"class":"WATCH","enable":true,"json":false,"nmea":true,"raw":0,"scaled":false,"timing":false,"split24":false,"pps":false}
2017-12-01 11:34:55 1512146095.923144: $GPZDA,163456.61,01,12,2017,00,00*64
2017-12-01 11:34:55 1512146095.923316: $GPGGA,163456,3946.9486,N,08404.9818,W,1,11,0.80,335.69,M,-33.324,M,,*72
2017-12-01 11:34:55 1512146095.923385: $GPRMC,163456,A,3946.9486,N,08404.9818,W,0.8054,248.645,011217,,*33
2017-12-01 11:34:55 1512146095.923446: $GPGSA,A,3,10,13,15,18,20,21,24,29,5,27,138,,2.0,0.8,1.5*34
2017-12-01 11:34:56 1512146096.867304: $GPZDA,163457.29,01,12,2017,00,00*69
2017-12-01 11:34:56 1512146096.867482: $GPGGA,163457,3946.9486,N,08404.9818,W,1,11,0.80,335.69,M,-33.324,M,,*73
2017-12-01 11:34:56 1512146096.867553: $GPRMC,163457,A,3946.9486,N,08404.9818,W,0.4207,219.346,011217,,*38
2017-12-01 11:34:56 1512146096.867617: $GPGSA,A,3,10,13,15,18,20,21,24,29,5,27,138,,2.0,0.8,1.5*34
2017-12-01 11:34:57 1512146097.835069: $GPGSV,3,1,12,05,16,075,37,13,46,052,47,15,78,087,48,18,41,282,46*76
2017-12-01 11:34:57 1512146097.835249: $GPGSV,3,2,12,20,65,043,42,21,63,307,47,24,17,150,43,27,06,327,38*77
2017-12-01 11:34:57 1512146097.835317: $GPGSV,3,3,12,29,28,196,44,10,10,270,12,04,15,129,00,138,38,213,00*48
2017-12-01 11:34:57 1512146097.948563: $GPZDA,163458.00,01,12,2017,00,00*6D
2017-12-01 11:34:57 1512146097.948724: $GPGGA,163458,3946.9486,N,08404.9811,W,1,09,0.80,335.76,M,-33.324,M,,*72
2017-12-01 11:34:57 1512146097.948793: $GPRMC,163458,A,3946.9486,N,08404.9811,W,0.0000,0.000,011217,,*34
2017-12-01 11:34:57 1512146097.948855: $GPGSA,A,3,5,13,15,18,20,21,24,27,29,,,,2.0,0.8,1.5*0F
2017-12-01 11:34:58 1512146098.246494: $GPZDA,163459.00,01,12,2017,00,00*6C
2017-12-01 11:34:58 1512146098.246671: $GPGGA,163459,3946.9488,N,08404.9810,W,1,09,0.80,333.60,M,-33.324,M,,*7D
2017-12-01 11:34:58 1512146098.246741: $GPRMC,163459,A,3946.9488,N,08404.9810,W,0.0000,0.000,011217,,*3A
2017-12-01 11:34:58 1512146098.246801: $GPGSA,A,3,5,13,15,18,20,21,24,27,29,,,,2.0,0.8,1.5*0F
2017-12-01 11:34:59 1512146099.244135: $GPZDA,163500.00,01,12,2017,00,00*61
2017-12-01 11:34:59 1512146099.244430: $GPGGA,163500,3946.9492,N,08404.9815,W,1,09,0.80,331.35,M,-33.324,M,,*7C
2017-12-01 11:34:59 1512146099.244527: $GPRMC,163500,A,3946.9492,N,08404.9815,W,0.0000,0.000,011217,,*39
2017-12-01 11:34:59 1512146099.244624: $GPGSA,A,3,5,13,15,18,20,21,24,27,29,,,,2.0,0.8,1.5*0F
2017-12-01 11:35:00 1512146100.582195: $GPGSV,3,1,12,05,16,075,37,13,46,052,46,15,78,087,48,18,41,282,46*77
2017-12-01 11:35:00 1512146100.582405: $GPGSV,3,2,12,20,65,043,42,21,63,307,47,24,17,150,43,27,06,327,38*77
2017-12-01 11:35:00 1512146100.582473: $GPGSV,3,3,12,29,28,196,44,10,10,270,30,04,15,129,00,138,38,213,46*4A
2017-12-01 11:35:00 1512146100.695534: $GPZDA,163501.00,01,12,2017,00,00*60
2017-12-01 11:35:00 1512146100.695719: $GPGGA,163501,3946.9494,N,08404.9814,W,1,11,0.80,329.18,M,-33.324,M,,*75
2017-12-01 11:35:00 1512146100.695789: $GPRMC,163501,A,3946.9494,N,08404.9814,W,0.0000,0.000,011217,,*3F
2017-12-01 11:35:00 1512146100.695874: $GPGSA,A,3,5,13,15,18,20,21,24,27,29,10,138,,2.0,0.8,1.5*34
2017-12-01 11:35:01 1512146101.245945: $GPZDA,163502.00,01,12,2017,00,00*63
2017-12-01 11:35:01 1512146101.246116: $GPGGA,163502,3946.9502,N,08404.9819,W,1,11,0.80,327.57,M,-33.324,M,,*70
2017-12-01 11:35:01 1512146101.246182: $GPRMC,163502,A,3946.9502,N,08404.9819,W,0.0000,0.000,011217,,*3F
2017-12-01 11:35:01 1512146101.246245: $GPGSA,A,3,5,13,15,18,20,21,24,27,29,10,138,,2.0,0.8,1.5*34
2017-12-01 11:35:02 1512146102.250956: $GPZDA,163503.00,01,12,2017,00,00*62
2017-12-01 11:35:02 1512146102.251178: $GPGGA,163503,3946.9501,N,08404.9818,W,1,11,0.80,326.17,M,-33.324,M,,*76
2017-12-01 11:35:02 1512146102.251248: $GPRMC,163503,A,3946.9501,N,08404.9818,W,0.0000,0.000,011217,,*3C
2017-12-01 11:35:02 1512146102.251309: $GPGSA,A,3,5,13,15,18,20,21,24,27,29,10,138,,2.0,0.8,1.5*34
2017-12-01 11:35:02 1512146102.251429: $GPGBS,163503,10.70,M,15.43,M,35.28,M*05
2017-12-01 11:35:03 1512146103.583133: $GPGSV,3,1,12,05,16,075,37,13,46,052,46,15,78,087,48,18,41,282,46*77
2017-12-01 11:35:03 1512146103.583317: $GPGSV,3,2,12,20,65,043,42,21,63,307,47,24,17,150,42,27,06,327,37*79
2017-12-01 11:35:03 1512146103.583383: $GPGSV,3,3,12,29,28,196,45,10,10,270,30,04,15,129,00,138,38,213,46*4B
2017-12-01 11:35:03 1512146103.696805: $GPZDA,163504.00,01,12,2017,00,00*65
2017-12-01 11:35:03 1512146103.696966: $GPGGA,163504,3946.9508,N,08404.9817,W,1,11,0.80,324.64,M,-33.324,M,,*71
2017-12-01 11:35:03 1512146103.697032: $GPRMC,163504,A,3946.9508,N,08404.9817,W,0.0000,0.000,011217,,*3D
2017-12-01 11:35:03 1512146103.697094: $GPGSA,A,3,5,13,15,18,20,21,24,27,29,10,138,,2.0,0.8,1.5*34
2017-12-01 11:35:04 1512146104.234426: $GPZDA,163505.00,01,12,2017,00,00*64
2017-12-01 11:35:04 1512146104.234601: $GPGGA,163505,3946.9535,N,08404.9826,W,2,11,1.20,307.69,M,-33.324,M,,*78
2017-12-01 11:35:04 1512146104.234668: $GPRMC,163505,A,3946.9535,N,08404.9826,W,0.0000,0.000,011217,,*30
2017-12-01 11:35:04 1512146104.234730: $GPGSA,A,3,5,13,15,18,20,21,24,27,29,10,138,,2.0,1.2,1.5*3F
2017-12-01 11:35:05 1512146105.250322: $GPZDA,163506.00,01,12,2017,00,00*67
2017-12-01 11:35:05 1512146105.250516: $GPGGA,163506,3946.9535,N,08404.9826,W,2,11,0.80,307.69,M,-33.324,M,,*70
2017-12-01 11:35:05 1512146105.250591: $GPRMC,163506,A,3946.9535,N,08404.9826,W,0.0000,0.000,011217,,*33
2017-12-01 11:35:05 1512146105.250652: $GPGSA,A,3,5,13,15,18,20,21,24,27,29,10,138,,2.0,0.8,1.5*34
