2017-11-15 19:01:01 1510790461.172555: {"class":"VERSION","release":"3.17","rev":"3.17","proto_major":3,"proto_minor":12}
2017-11-15 19:01:01 1510790461.173003: {"class":"DEVICES","devices":[{"class":"DEVICE","path":"/dev/ttyUSB0","driver":"SiRF","subtype":"9\u0006GSD4e_4.1.2-P1_RPATCH.05-F-GPS-4R-1510281 11/03/2015 307","activated":"2017-11-16T00:01:01.096Z","flags":1,"native":1,"bps":4800,"parity":"N","stopbits":1,"cycle":1.00}]}
2017-11-15 19:01:01 1510790461.173113: {"class":"WATCH","enable":true,"json":false,"nmea":true,"raw":0,"scaled":false,"timing":false,"split24":false,"pps":false}
2017-11-15 19:01:01 1510790461.401090: $GPZDA,000100.00,16,11,2017,00,00*64
2017-11-15 19:01:01 1510790461.401275: $GPGGA,000100,3946.9684,N,08404.9609,W,1,06,4.40,307.37,M,-33.324,M,,*7A
2017-11-15 19:01:01 1510790461.401337: $GPRMC,000100,A,3946.9684,N,08404.9609,W,0.6846,4.197,161117,,*3D
2017-11-15 19:01:01 1510790461.401393: $GPGSA,A,3,14,31,26,22,25,29,,,,,,,3.4,4.4,2.9*31
2017-11-15 19:01:02 1510790462.328267: $GPZDA,000101.00,16,11,2017,00,00*65
2017-11-15 19:01:02 1510790462.328435: $GPGGA,000101,3946.9684,N,08404.9609,W,1,06,4.40,307.37,M,-33.324,M,,*7B
2017-11-15 19:01:02 1510790462.328496: $GPRMC,000101,A,3946.9684,N,08404.9609,W,0.5857,338.291,161117,,*36
2017-11-15 19:01:02 1510790462.328553: $GPGSA,A,3,14,31,26,22,25,29,,,,,,,3.4,4.4,2.9*31
2017-11-15 19:01:03 1510790463.663941: $GPGSV,3,1,12,16,09,190,05,14,63,070,19,10,09,159,00,32,46,094,04*7B
2017-11-15 19:01:03 1510790463.664111: $GPGSV,3,2,12,31,77,349,25,26,38,177,16,22,47,289,12,25,27,046,14*7F
2017-11-15 19:01:03 1510790463.664170: $GPGSV,3,3,12,29,05,082,14,03,31,310,00,01,13,262,00,133,44,201,00*4F
2017-11-15 19:01:03 1510790463.777012: $GPZDA,000102.00,16,11,2017,00,00*66
2017-11-15 19:01:03 1510790463.777192: $GPGGA,000102,3946.9684,N,08404.9609,W,1,06,4.40,307.37,M,-33.324,M,,*78
2017-11-15 19:01:03 1510790463.777252: $GPRMC,000102,A,3946.9684,N,08404.9609,W,0.1867,0.000,161117,,*30
2017-11-15 19:01:03 1510790463.777308: $GPGSA,A,3,14,31,26,22,25,29,,,,,,,3.4,4.4,2.9*31
2017-11-15 19:01:04 1510790464.326971: $GPZDA,000103.00,16,11,2017,00,00*67
2017-11-15 19:01:04 1510790464.327138: $GPGGA,000103,3946.9684,N,08404.9609,W,1,06,4.40,307.37,M,-33.324,M,,*79
2017-11-15 19:01:04 1510790464.327199: $GPRMC,000103,A,3946.9684,N,08404.9609,W,0.2422,93.794,161117,,*0F
2017-11-15 19:01:04 1510790464.327255: $GPGSA,A,3,14,31,26,22,25,29,,,,,,,3.4,4.4,2.9*31
2017-11-15 19:01:05 1510790465.326493: $GPZDA,000104.00,16,11,2017,00,00*60
2017-11-15 19:01:05 1510790465.337623: $GPGGA,000104,3946.9683,N,08404.9602,W,1,06,4.40,307.45,M,-33.324,M,,*77
2017-11-15 19:01:05 1510790465.337762: $GPRMC,000104,A,3946.9683,N,08404.9602,W,0.0000,0.000,161117,,*32
2017-11-15 19:01:05 1510790465.337821: $GPGSA,A,3,14,31,26,22,25,29,,,,,,,3.4,4.4,2.9*31
2017-11-15 19:01:06 1510790466.661752: $GPGSV,3,1,12,10,09,159,00,14,63,070,19,03,31,310,00,32,46,094,04*7B
2017-11-15 19:01:06 1510790466.661923: $GPGSV,3,2,12,31,77,349,24,26,38,177,16,22,47,289,14,25,27,046,13*7F
2017-11-15 19:01:06 1510790466.661984: $GPGSV,3,3,12,29,05,082,15,01,13,262,00,16,09,190,00,133,44,201,00*4B
2017-11-15 19:01:06 1510790466.775089: $GPZDA,000105.00,16,11,2017,00,00*61
2017-11-15 19:01:06 1510790466.775257: $GPGGA,000105,3946.9683,N,08404.9602,W,1,06,4.40,307.45,M,-33.324,M,,*76
2017-11-15 19:01:06 1510790466.775319: $GPRMC,000105,A,3946.9683,N,08404.9602,W,0.4179,148.778,161117,,*3D
2017-11-15 19:01:06 1510790466.775375: $GPGSA,A,3,14,31,26,22,25,29,,,,,,,3.4,4.4,2.9*31
2017-11-15 19:01:07 1510790467.327304: $GPZDA,000106.00,16,11,2017,00,00*62
2017-11-15 19:01:07 1510790467.327469: $GPGGA,000106,3946.9679,N,08404.9602,W,1,06,4.40,306.81,M,-33.324,M,,*79
2017-11-15 19:01:07 1510790467.327531: $GPRMC,000106,A,3946.9679,N,08404.9602,W,0.7246,164.668,161117,,*39
2017-11-15 19:01:07 1510790467.327587: $GPGSA,A,3,14,31,26,22,25,29,,,,,,,3.4,4.4,2.9*31
2017-11-15 19:01:08 1510790468.326893: $GPZDA,000107.00,16,11,2017,00,00*63
2017-11-15 19:01:08 1510790468.327063: $GPGGA,000107,3946.9676,N,08404.9603,W,1,06,4.40,307.58,M,-33.324,M,,*73
2017-11-15 19:01:08 1510790468.327177: $GPRMC,000107,A,3946.9676,N,08404.9603,W,0.3423,184.197,161117,,*3E
2017-11-15 19:01:08 1510790468.327235: $GPGSA,A,3,14,31,26,22,25,29,,,,,,,3.4,4.4,2.9*31
2017-11-15 19:01:09 1510790469.662695: $GPGSV,3,1,12,16,09,190,12,14,63,070,20,10,09,159,00,32,46,094,04*77
2017-11-15 19:01:09 1510790469.662870: $GPGSV,3,2,12,31,77,349,24,26,38,177,17,22,47,289,15,25,27,046,14*78
2017-11-15 19:01:09 1510790469.662931: $GPGSV,3,3,12,29,05,082,15,03,31,310,00,01,13,262,00,133,44,201,00*4E
2017-11-15 19:01:09 1510790469.776325: $GPZDA,000108.00,16,11,2017,00,00*6C
2017-11-15 19:01:09 1510790469.776496: $GPGGA,000108,3946.9676,N,08404.9603,W,1,06,4.40,307.58,M,-33.324,M,,*7C
2017-11-15 19:01:09 1510790469.776557: $GPRMC,000108,A,3946.9676,N,08404.9603,W,0.4179,328.778,161117,,*3F
2017-11-15 19:01:09 1510790469.776613: $GPGSA,A,3,14,31,26,22,25,29,,,,,,,3.4,4.4,2.9*31
2017-11-15 19:01:10 1510790470.327058: $GPZDA,000109.00,16,11,2017,00,00*6D
2017-11-15 19:01:10 1510790470.327264: $GPGGA,000109,3946.9676,N,08404.9603,W,1,06,4.40,307.58,M,-33.324,M,,*7D
2017-11-15 19:01:10 1510790470.327349: $GPRMC,000109,A,3946.9676,N,08404.9603,W,0.7246,344.668,161117,,*38
2017-11-15 19:01:10 1510790470.327407: $GPGSA,A,3,14,31,26,22,25,29,,,,,,,3.4,4.4,2.9*31
