2017-12-14 11:54:35 1513270475.283906: {"class":"VERSION","release":"3.16","rev":"3.16-4","proto_major":3,"proto_minor":11}
2017-12-14 11:54:35 1513270475.284315: {"class":"DEVICES","devices":[{"class":"DEVICE","path":"/dev/ttyUSB0","driver":"SiRF","subtype":"9\u0006GSD4e_4.1.2-P1_RPATCH.05-F-GPS-4R-1510281 11/03/2015 307","activated":"2017-12-14T16:54:35.237Z","flags":1,"native":1,"bps":4800,"parity":"N","stopbits":1,"cycle":1.00}]}
2017-12-14 11:54:35 1513270475.284445: {"class":"WATCH","enable":true,"json":false,"nmea":true,"raw":0,"scaled":false,"timing":false,"split24":false,"pps":false}
2017-12-14 11:54:36 1513270476.201581: $GPZDA,165437.00,14,12,2017,00,00*66
2017-12-14 11:54:36 1513270476.201750: $GPGGA,165437,3946.9617,N,08404.9458,W,1,06,1.80,354.98,M,-33.324,M,,*7F
2017-12-14 11:54:36 1513270476.201816: $GPRMC,165437,A,3946.9617,N,08404.9458,W,0.6645,282.038,141217,,*36
2017-12-14 11:54:36 1513270476.201877: $GPGSA,A,3,20,24,15,27,21,18,,,,,,,6.6,1.8,6.2*30
2017-12-14 11:54:37 1513270477.537791: $GPGSV,3,1,11,20,42,085,26,24,44,126,24,15,47,049,22,27,19,300,14*72
2017-12-14 11:54:37 1513270477.538011: $GPGSV,3,2,11,21,73,202,21,10,33,292,00,18,64,318,09,13,17,046,00*7A
2017-12-14 11:54:37 1513270477.538100: $GPGSV,3,3,11,32,12,232,00,08,02,330,00,138,38,213,00*73
2017-12-14 11:54:37 1513270477.650922: $GPZDA,165438.00,14,12,2017,00,00*69
2017-12-14 11:54:37 1513270477.651126: $GPGGA,165438,3946.9621,N,08404.9465,W,1,06,1.80,354.13,M,-33.324,M,,*78
2017-12-14 11:54:37 1513270477.651193: $GPRMC,165438,A,3946.9621,N,08404.9465,W,0.4262,286.711,141217,,*39
2017-12-14 11:54:37 1513270477.651254: $GPGSA,A,3,20,24,15,27,21,18,,,,,,,6.6,1.8,6.2*30
2017-12-14 11:54:38 1513270478.201813: $GPZDA,165439.00,14,12,2017,00,00*68
2017-12-14 11:54:38 1513270478.202010: $GPGGA,165439,3946.9617,N,08404.9465,W,1,06,1.80,353.49,M,-33.324,M,,*74
2017-12-14 11:54:38 1513270478.202153: $GPRMC,165439,A,3946.9617,N,08404.9465,W,0.6137,349.063,141217,,*3C
2017-12-14 11:54:38 1513270478.202218: $GPGSA,A,3,20,24,15,27,21,18,,,,,,,6.6,1.8,6.2*30
2017-12-14 11:54:39 1513270479.201903: $GPZDA,165440.00,14,12,2017,00,00*66
2017-12-14 11:54:39 1513270479.202152: $GPGGA,165440,3946.9620,N,08404.9464,W,1,06,1.80,352.73,M,-33.324,M,,*77
2017-12-14 11:54:39 1513270479.202227: $GPRMC,165440,A,3946.9620,N,08404.9464,W,0.4433,13.063,141217,,*08
2017-12-14 11:54:39 1513270479.202288: $GPGSA,A,3,20,24,15,27,21,18,,,,,,,6.6,1.8,6.2*30
2017-12-14 11:54:40 1513270480.536863: $GPGSV,3,1,11,20,42,085,25,24,44,126,24,15,47,049,22,27,19,300,14*71
2017-12-14 11:54:40 1513270480.537030: $GPGSV,3,2,11,21,73,202,22,10,33,292,00,18,64,318,10,13,17,046,00*71
2017-12-14 11:54:40 1513270480.537115: $GPGSV,3,3,11,32,12,232,00,08,02,330,00,138,38,213,00*73
2017-12-14 11:54:40 1513270480.650217: $GPZDA,165441.00,14,12,2017,00,00*67
2017-12-14 11:54:40 1513270480.650342: $GPGGA,165441,3946.9620,N,08404.9464,W,1,06,1.80,352.73,M,-33.324,M,,*76
2017-12-14 11:54:40 1513270480.650409: $GPRMC,165441,A,3946.9620,N,08404.9464,W,0.6100,66.301,141217,,*0B
2017-12-14 11:54:40 1513270480.650472: $GPGSA,A,3,20,24,15,27,21,18,,,,,,,6.6,1.8,6.2*30
2017-12-14 11:54:41 1513270481.202315: $GPZDA,165442.00,14,12,2017,00,00*64
2017-12-14 11:54:41 1513270481.202502: $GPGGA,165442,3946.9620,N,08404.9464,W,1,06,1.80,352.73,M,-33.324,M,,*75
2017-12-14 11:54:41 1513270481.202599: $GPRMC,165442,A,3946.9620,N,08404.9464,W,0.3026,105.365,141217,,*3E
2017-12-14 11:54:41 1513270481.202665: $GPGSA,A,3,20,24,15,27,21,18,,,,,,,6.6,1.8,6.2*30
2017-12-14 11:54:42 1513270482.201797: $GPZDA,165443.00,14,12,2017,00,00*65
2017-12-14 11:54:42 1513270482.201987: $GPGGA,165443,3946.9619,N,08404.9456,W,1,06,1.80,351.40,M,-33.324,M,,*7C
2017-12-14 11:54:42 1513270482.202123: $GPRMC,165443,A,3946.9619,N,08404.9456,W,0.1176,39.707,141217,,*0C
2017-12-14 11:54:42 1513270482.202198: $GPGSA,A,3,20,24,15,27,21,18,,,,,,,6.6,1.8,6.2*30
2017-12-14 11:54:43 1513270483.538747: $GPGSV,3,1,11,20,42,085,25,24,44,126,23,15,47,049,22,27,19,300,14*76
2017-12-14 11:54:43 1513270483.538932: $GPGSV,3,2,11,21,73,202,22,10,33,292,00,18,64,318,10,13,17,046,00*71
2017-12-14 11:54:43 1513270483.539076: $GPGSV,3,3,11,32,12,232,00,08,02,330,00,138,38,213,00*73
2017-12-14 11:54:43 1513270483.652202: $GPZDA,165444.00,14,12,2017,00,00*62
2017-12-14 11:54:43 1513270483.652359: $GPGGA,165444,3946.9619,N,08404.9456,W,1,06,1.80,351.40,M,-33.324,M,,*7B
2017-12-14 11:54:43 1513270483.652425: $GPRMC,165444,A,3946.9619,N,08404.9456,W,0.2648,22.232,141217,,*0B
2017-12-14 11:54:43 1513270483.652487: $GPGSA,A,3,20,24,15,27,21,18,,,,,,,6.6,1.8,6.2*30
2017-12-14 11:54:44 1513270484.202340: $GPZDA,165445.00,14,12,2017,00,00*63
2017-12-14 11:54:44 1513270484.202518: $GPGGA,165445,3946.9619,N,08404.9455,W,1,06,1.80,350.00,M,-33.324,M,,*7C
2017-12-14 11:54:44 1513270484.202589: $GPRMC,165445,A,3946.9619,N,08404.9455,W,0.1848,244.286,141217,,*39
2017-12-14 11:54:44 1513270484.202651: $GPGSA,A,3,20,24,15,27,21,18,,,,,,,6.6,1.8,6.2*30
2017-12-14 11:54:45 1513270485.202846: $GPZDA,165446.00,14,12,2017,00,00*60
2017-12-14 11:54:45 1513270485.203023: $GPGGA,165446,3946.9619,N,08404.9455,W,1,06,1.80,350.00,M,-33.324,M,,*7F
2017-12-14 11:54:45 1513270485.203108: $GPRMC,165446,A,3946.9619,N,08404.9455,W,0.1324,22.232,141217,,*06
2017-12-14 11:54:45 1513270485.203170: $GPGSA,A,3,20,24,15,27,21,18,,,,,,,6.6,1.8,6.2*30
2017-12-14 11:54:46 1513270486.538735: $GPGSV,3,1,11,20,42,085,25,24,44,126,23,15,47,049,22,27,19,300,14*76
2017-12-14 11:54:46 1513270486.538945: $GPGSV,3,2,11,21,73,202,22,10,33,292,00,18,64,318,12,13,17,046,00*73
2017-12-14 11:54:46 1513270486.539016: $GPGSV,3,3,11,32,12,232,00,08,02,330,00,138,38,213,00*73
2017-12-14 11:54:46 1513270486.652102: $GPZDA,165447.00,14,12,2017,00,00*61
2017-12-14 11:54:46 1513270486.652239: $GPGGA,165447,3946.9615,N,08404.9456,W,1,06,1.80,350.76,M,-33.324,M,,*70
2017-12-14 11:54:46 1513270486.652307: $GPRMC,165447,A,3946.9615,N,08404.9456,W,0.3006,62.540,141217,,*0F
2017-12-14 11:54:46 1513270486.652371: $GPGSA,A,3,20,24,15,27,21,18,,,,,,,6.6,1.8,6.2*30
2017-12-14 11:54:47 1513270487.202653: $GPZDA,165448.00,14,12,2017,00,00*6E
2017-12-14 11:54:47 1513270487.202816: $GPGGA,165448,3946.9615,N,08404.9456,W,1,06,1.80,350.76,M,-33.324,M,,*7F
2017-12-14 11:54:47 1513270487.202886: $GPRMC,165448,A,3946.9615,N,08404.9456,W,0.3423,4.197,141217,,*3D
2017-12-14 11:54:47 1513270487.202952: $GPGSA,A,3,20,24,15,27,21,18,,,,,,,6.6,1.8,6.2*30
2017-12-14 11:54:48 1513270488.202284: $GPZDA,165449.00,14,12,2017,00,00*6F
2017-12-14 11:54:48 1513270488.202455: $GPGGA,165449,3946.9615,N,08404.9456,W,1,06,1.80,350.76,M,-33.324,M,,*7E
2017-12-14 11:54:48 1513270488.202526: $GPRMC,165449,A,3946.9615,N,08404.9456,W,0.4844,273.794,141217,,*31
2017-12-14 11:54:48 1513270488.202590: $GPGSA,A,3,20,24,15,27,21,18,,,,,,,6.6,1.8,6.2*30
2017-12-14 11:54:49 1513270489.538118: $GPGSV,3,1,11,20,42,085,25,24,44,126,23,15,47,049,22,27,19,300,14*76
2017-12-14 11:54:49 1513270489.538300: $GPGSV,3,2,11,21,73,202,22,10,33,292,00,18,64,318,12,13,17,046,00*73
2017-12-14 11:54:49 1513270489.538368: $GPGSV,3,3,11,32,12,232,00,08,02,330,00,138,38,213,00*73
2017-12-14 11:54:49 1513270489.651848: $GPZDA,165450.00,14,12,2017,00,00*67
2017-12-14 11:54:49 1513270489.652028: $GPGGA,165450,3946.9616,N,08404.9463,W,1,06,1.80,350.68,M,-33.324,M,,*7C
2017-12-14 11:54:49 1513270489.652186: $GPRMC,165450,A,3946.9616,N,08404.9463,W,0.5951,238.684,141217,,*37
2017-12-14 11:54:49 1513270489.652256: $GPGSA,A,3,20,24,15,27,21,18,,,,,,,6.6,1.8,6.2*30
2017-12-14 11:54:50 1513270490.204448: $GPZDA,165451.00,14,12,2017,00,00*66
2017-12-14 11:54:50 1513270490.204617: $GPGGA,165451,3946.9616,N,08404.9463,W,1,06,1.80,350.68,M,-33.324,M,,*7D
2017-12-14 11:54:50 1513270490.204687: $GPRMC,165451,A,3946.9616,N,08404.9463,W,0.2422,273.794,141217,,*37
2017-12-14 11:54:50 1513270490.204752: $GPGSA,A,3,20,24,15,27,21,18,,,,,,,6.6,1.8,6.2*30
2017-12-14 11:54:51 1513270491.203141: $GPZDA,165452.00,14,12,2017,00,00*65
2017-12-14 11:54:51 1513270491.203329: $GPGGA,165452,3946.9612,N,08404.9464,W,1,06,1.80,351.45,M,-33.324,M,,*73
2017-12-14 11:54:51 1513270491.203403: $GPRMC,165452,A,3946.9612,N,08404.9464,W,0.7267,273.794,141217,,*35
2017-12-14 11:54:51 1513270491.203513: $GPGSA,A,3,20,24,15,27,21,18,,,,,,,6.6,1.8,6.2*30
2017-12-14 11:54:52 1513270492.539247: $GPGSV,3,1,11,20,42,085,25,24,44,126,22,15,47,049,22,27,19,300,14*77
2017-12-14 11:54:52 1513270492.539421: $GPGSV,3,2,11,21,73,202,22,10,33,292,00,18,64,318,11,13,17,046,00*70
2017-12-14 11:54:52 1513270492.539488: $GPGSV,3,3,11,32,12,232,00,08,02,330,00,138,38,213,00*73
2017-12-14 11:54:52 1513270492.652986: $GPZDA,165453.00,14,12,2017,00,00*64
2017-12-14 11:54:52 1513270492.653160: $GPGGA,165453,3946.9612,N,08404.9464,W,1,06,1.80,351.45,M,-33.324,M,,*72
2017-12-14 11:54:52 1513270492.653245: $GPRMC,165453,A,3946.9612,N,08404.9464,W,0.7267,273.794,141217,,*34
2017-12-14 11:54:52 1513270492.653308: $GPGSA,A,3,20,24,15,27,21,18,,,,,,,6.6,1.8,6.2*30
2017-12-14 11:54:53 1513270493.202362: $GPZDA,165454.00,14,12,2017,00,00*63
2017-12-14 11:54:53 1513270493.202538: $GPGGA,165454,3946.9612,N,08404.9464,W,1,06,1.80,351.45,M,-33.324,M,,*75
2017-12-14 11:54:53 1513270493.202606: $GPRMC,165454,A,3946.9612,N,08404.9464,W,0.7238,320.710,141217,,*32
2017-12-14 11:54:53 1513270493.202667: $GPGSA,A,3,20,24,15,27,21,18,,,,,,,6.6,1.8,6.2*30
2017-12-14 11:54:54 1513270494.203977: $GPZDA,165455.00,14,12,2017,00,00*62
2017-12-14 11:54:54 1513270494.204152: $GPGGA,165455,3946.9612,N,08404.9471,W,1,06,1.80,351.37,M,-33.324,M,,*75
2017-12-14 11:54:54 1513270494.204219: $GPRMC,165455,A,3946.9612,N,08404.9471,W,0.9959,264.784,141217,,*39
2017-12-14 11:54:54 1513270494.204281: $GPGSA,A,3,20,24,15,27,21,18,,,,,,,6.6,1.8,6.2*30
