2017-12-01 18:31:12 1512171072.846919: {"class":"VERSION","release":"3.16","rev":"3.16-4","proto_major":3,"proto_minor":11}
2017-12-01 18:31:12 1512171072.847337: {"class":"DEVICES","devices":[{"class":"DEVICE","path":"/dev/ttyUSB0","driver":"SiRF","subtype":"9\u0006GSD4e_4.1.2-P1_RPATCH.05-F-GPS-4R-1510281 11/03/2015 307","activated":"2017-12-01T23:31:12.747Z","flags":1,"native":1,"bps":4800,"parity":"N","stopbits":1,"cycle":1.00}]}
2017-12-01 18:31:12 1512171072.847458: {"class":"WATCH","enable":true,"json":false,"nmea":true,"raw":0,"scaled":false,"timing":false,"split24":false,"pps":false}
2017-12-01 18:31:13 1512171073.428616: $GPZDA,233114.00,01,12,2017,00,00*66
2017-12-01 18:31:13 1512171073.428789: $GPGGA,233114,3946.9721,N,08404.9844,W,2,11,0.80,292.87,M,-33.325,M,,*7E
2017-12-01 18:31:13 1512171073.428856: $GPRMC,233114,A,3946.9721,N,08404.9844,W,0.0000,0.000,011217,,*31
2017-12-01 18:31:13 1512171073.428918: $GPGSA,A,3,3,14,16,22,23,25,26,31,32,29,138,,2.0,0.8,1.5*3D
2017-12-01 18:31:14 1512171074.764344: $GPGSV,3,1,12,03,42,295,48,14,53,096,43,16,27,190,43,22,50,265,44*7D
2017-12-01 18:31:14 1512171074.764527: $GPGSV,3,2,12,23,14,301,42,25,15,039,40,26,57,169,46,31,64,031,46*7C
2017-12-01 18:31:14 1512171074.764594: $GPGSV,3,3,12,32,33,111,42,01,04,250,16,29,12,069,18,138,38,213,46*44
2017-12-01 18:31:14 1512171074.877858: $GPZDA,233115.00,01,12,2017,00,00*67
2017-12-01 18:31:14 1512171074.878048: $GPGGA,233115,3946.9721,N,08404.9851,W,2,12,0.80,292.79,M,-33.325,M,,*79
2017-12-01 18:31:14 1512171074.878117: $GPRMC,233115,A,3946.9721,N,08404.9851,W,0.0000,0.000,011217,,*34
2017-12-01 18:31:14 1512171074.878182: $GPGSA,A,3,3,14,16,22,23,25,26,31,32,1,29,138,2.0,0.8,1.5*0C
2017-12-01 18:31:15 1512171075.431157: $GPZDA,233116.00,01,12,2017,00,00*64
2017-12-01 18:31:15 1512171075.431333: $GPGGA,233116,3946.9721,N,08404.9851,W,2,12,0.80,292.79,M,-33.325,M,,*7A
2017-12-01 18:31:15 1512171075.431455: $GPRMC,233116,A,3946.9721,N,08404.9851,W,0.0000,0.000,011217,,*37
2017-12-01 18:31:15 1512171075.431520: $GPGSA,A,3,3,14,16,22,23,25,26,31,32,1,29,138,2.0,0.8,1.5*0C
2017-12-01 18:31:16 1512171076.429457: $GPZDA,233117.00,01,12,2017,00,00*65
2017-12-01 18:31:16 1512171076.429635: $GPGGA,233117,3946.9721,N,08404.9851,W,2,12,0.80,292.79,M,-33.325,M,,*7B
2017-12-01 18:31:16 1512171076.429703: $GPRMC,233117,A,3946.9721,N,08404.9851,W,0.0000,0.000,011217,,*36
2017-12-01 18:31:16 1512171076.429765: $GPGSA,A,3,3,14,16,22,23,25,26,31,32,1,29,138,2.0,0.8,1.5*0C
2017-12-01 18:31:17 1512171077.765228: $GPGSV,3,1,12,03,42,295,48,14,53,096,43,16,27,190,44,22,50,265,44*7A
2017-12-01 18:31:17 1512171077.765424: $GPGSV,3,2,12,23,14,301,41,25,15,039,40,26,57,169,46,31,64,031,46*7F
2017-12-01 18:31:17 1512171077.765493: $GPGSV,3,3,12,32,33,111,42,01,04,250,14,29,12,069,19,138,38,213,46*47
2017-12-01 18:31:17 1512171077.878729: $GPZDA,233118.00,01,12,2017,00,00*6A
2017-12-01 18:31:17 1512171077.878902: $GPGGA,233118,3946.9721,N,08404.9844,W,2,12,0.80,292.87,M,-33.325,M,,*71
2017-12-01 18:31:17 1512171077.878970: $GPRMC,233118,A,3946.9721,N,08404.9844,W,0.0000,0.000,011217,,*3D
2017-12-01 18:31:17 1512171077.879031: $GPGSA,A,3,3,14,16,22,23,25,26,31,32,1,29,138,2.0,0.8,1.5*0C
2017-12-01 18:31:18 1512171078.503998: $GPZDA,233119.00,01,12,2017,00,00*6B
2017-12-01 18:31:18 1512171078.504168: $GPGGA,233119,3946.9718,N,08404.9845,W,2,12,0.80,293.63,M,-33.325,M,,*70
2017-12-01 18:31:18 1512171078.504236: $GPRMC,233119,A,3946.9718,N,08404.9845,W,0.3006,62.539,011217,,*09
2017-12-01 18:31:18 1512171078.504301: $GPGSA,A,3,3,14,16,22,23,25,26,31,32,1,29,138,2.0,0.8,1.5*0C
2017-12-01 18:31:19 1512171079.424869: $GPZDA,233120.00,01,12,2017,00,00*61
2017-12-01 18:31:19 1512171079.425041: $GPGGA,233120,3946.9718,N,08404.9845,W,2,12,0.80,293.63,M,-33.325,M,,*7A
2017-12-01 18:31:19 1512171079.425110: $GPRMC,233120,A,3946.9718,N,08404.9845,W,0.0000,0.000,011217,,*3D
2017-12-01 18:31:19 1512171079.425172: $GPGSA,A,3,3,14,16,22,23,25,26,31,32,1,29,138,2.0,0.8,1.5*0C
2017-12-01 18:31:20 1512171080.765532: $GPGSV,3,1,12,03,42,295,48,14,53,096,43,16,27,190,44,22,50,265,44*7A
2017-12-01 18:31:20 1512171080.765769: $GPGSV,3,2,12,23,14,301,42,25,15,039,40,26,57,169,46,31,64,031,46*7C
2017-12-01 18:31:20 1512171080.765841: $GPGSV,3,3,12,32,33,111,41,01,04,250,15,29,12,069,22,138,38,213,46*4D
2017-12-01 18:31:20 1512171080.879145: $GPZDA,233121.00,01,12,2017,00,00*60
2017-12-01 18:31:20 1512171080.879325: $GPGGA,233121,3946.9718,N,08404.9845,W,2,12,0.80,293.63,M,-33.325,M,,*7B
2017-12-01 18:31:20 1512171080.879392: $GPRMC,233121,A,3946.9718,N,08404.9845,W,0.0000,0.000,011217,,*3C
2017-12-01 18:31:20 1512171080.879472: $GPGSA,A,3,3,14,16,22,23,25,26,31,32,1,29,138,2.0,0.8,1.5*0C
2017-12-01 18:31:21 1512171081.428741: $GPZDA,233122.00,01,12,2017,00,00*63
2017-12-01 18:31:21 1512171081.428925: $GPGGA,233122,3946.9718,N,08404.9845,W,2,12,0.80,293.63,M,-33.325,M,,*78
2017-12-01 18:31:21 1512171081.428996: $GPRMC,233122,A,3946.9718,N,08404.9845,W,0.0000,0.000,011217,,*3F
2017-12-01 18:31:21 1512171081.429060: $GPGSA,A,3,3,14,16,22,23,25,26,31,32,1,29,138,2.0,0.8,1.5*0C
2017-12-01 18:31:22 1512171082.428406: $GPZDA,233123.00,01,12,2017,00,00*62
2017-12-01 18:31:22 1512171082.428580: $GPGGA,233123,3946.9718,N,08404.9845,W,2,12,0.80,293.63,M,-33.325,M,,*79
2017-12-01 18:31:22 1512171082.428647: $GPRMC,233123,A,3946.9718,N,08404.9845,W,0.0000,0.000,011217,,*3E
2017-12-01 18:31:22 1512171082.428710: $GPGSA,A,3,3,14,16,22,23,25,26,31,32,1,29,138,2.0,0.8,1.5*0C
2017-12-01 18:31:23 1512171083.765877: $GPGSV,3,1,12,03,42,295,48,14,53,096,43,16,27,190,44,22,50,265,45*7B
2017-12-01 18:31:23 1512171083.766034: $GPGSV,3,2,12,23,14,301,42,25,15,039,40,26,57,169,46,31,64,031,46*7C
2017-12-01 18:31:23 1512171083.766100: $GPGSV,3,3,12,32,33,111,41,01,04,250,24,29,12,069,23,138,38,213,46*4E
2017-12-01 18:31:23 1512171083.879257: $GPZDA,233124.00,01,12,2017,00,00*65
2017-12-01 18:31:23 1512171083.879444: $GPGGA,233124,3946.9718,N,08404.9845,W,2,12,0.80,293.63,M,-33.325,M,,*7E
2017-12-01 18:31:23 1512171083.879513: $GPRMC,233124,A,3946.9718,N,08404.9845,W,0.0000,0.000,011217,,*39
2017-12-01 18:31:23 1512171083.879574: $GPGSA,A,3,3,14,16,22,23,25,26,31,32,1,29,138,2.0,0.8,1.5*0C
2017-12-01 18:31:24 1512171084.947115: $GPZDA,233125.00,01,12,2017,00,00*64
2017-12-01 18:31:24 1512171084.947305: $GPGGA,233125,3946.9718,N,08404.9845,W,2,12,0.80,293.63,M,-33.325,M,,*7F
2017-12-01 18:31:24 1512171084.947372: $GPRMC,233125,A,3946.9718,N,08404.9845,W,0.0000,0.000,011217,,*38
2017-12-01 18:31:24 1512171084.947455: $GPGSA,A,3,3,14,16,22,23,25,26,31,32,1,29,138,2.0,0.8,1.5*0C
2017-12-01 18:31:25 1512171085.429245: $GPZDA,233126.00,01,12,2017,00,00*67
2017-12-01 18:31:25 1512171085.429433: $GPGGA,233126,3946.9718,N,08404.9845,W,2,12,0.80,293.63,M,-33.325,M,,*7C
2017-12-01 18:31:25 1512171085.429522: $GPRMC,233126,A,3946.9718,N,08404.9845,W,0.0000,0.000,011217,,*3B
2017-12-01 18:31:25 1512171085.429584: $GPGSA,A,3,3,14,16,22,23,25,26,31,32,1,29,138,2.0,0.8,1.5*0C
2017-12-01 18:31:26 1512171086.758823: $GPGSV,3,1,12,03,42,295,48,14,52,097,43,16,27,190,44,22,50,264,45*7A
2017-12-01 18:31:26 1512171086.759007: $GPGSV,3,2,12,23,14,303,42,25,14,039,40,26,58,169,46,31,64,031,46*70
2017-12-01 18:31:26 1512171086.759074: $GPGSV,3,3,12,32,33,111,40,01,04,250,23,29,12,069,24,138,38,213,46*4F
2017-12-01 18:31:26 1512171086.872151: $GPZDA,233127.00,01,12,2017,00,00*66
2017-12-01 18:31:26 1512171086.872303: $GPGGA,233127,3946.9718,N,08404.9845,W,2,12,0.80,293.63,M,-33.325,M,,*7D
2017-12-01 18:31:26 1512171086.872454: $GPRMC,233127,A,3946.9718,N,08404.9845,W,0.0000,0.000,011217,,*3A
2017-12-01 18:31:26 1512171086.872520: $GPGSA,A,3,3,14,16,22,23,25,26,31,32,1,29,138,2.0,0.8,1.5*0C
2017-12-01 18:31:27 1512171087.430462: $GPZDA,233128.00,01,12,2017,00,00*69
2017-12-01 18:31:27 1512171087.430627: $GPGGA,233128,3946.9718,N,08404.9845,W,2,12,0.80,293.63,M,-33.325,M,,*72
2017-12-01 18:31:27 1512171087.430695: $GPRMC,233128,A,3946.9718,N,08404.9845,W,0.0000,0.000,011217,,*35
2017-12-01 18:31:27 1512171087.430757: $GPGSA,A,3,3,14,16,22,23,25,26,31,32,1,29,138,2.0,0.8,1.5*0C
2017-12-01 18:31:28 1512171088.430824: $GPZDA,233129.00,01,12,2017,00,00*68
2017-12-01 18:31:28 1512171088.431019: $GPGGA,233129,3946.9718,N,08404.9845,W,2,12,0.80,293.63,M,-33.325,M,,*73
2017-12-01 18:31:28 1512171088.431088: $GPRMC,233129,A,3946.9718,N,08404.9845,W,0.0000,0.000,011217,,*34
2017-12-01 18:31:28 1512171088.431153: $GPGSA,A,3,3,14,16,22,23,25,26,31,32,1,29,138,2.0,0.8,1.5*0C
2017-12-01 18:31:29 1512171089.764130: $GPGSV,3,1,12,03,42,295,47,14,52,097,43,16,27,190,43,22,50,264,45*72
2017-12-01 18:31:29 1512171089.764285: $GPGSV,3,2,12,23,14,303,43,25,14,039,40,26,58,169,46,31,64,031,46*71
2017-12-01 18:31:29 1512171089.764349: $GPGSV,3,3,12,32,33,111,41,01,04,250,23,29,12,069,22,138,38,213,46*48
2017-12-01 18:31:29 1512171089.877559: $GPZDA,233130.00,01,12,2017,00,00*60
2017-12-01 18:31:29 1512171089.877747: $GPGGA,233130,3946.9718,N,08404.9845,W,2,12,0.80,293.63,M,-33.325,M,,*7B
2017-12-01 18:31:29 1512171089.877816: $GPRMC,233130,A,3946.9718,N,08404.9845,W,0.0000,0.000,011217,,*3C
2017-12-01 18:31:29 1512171089.877877: $GPGSA,A,3,3,14,16,22,23,25,26,31,32,1,29,138,2.0,0.8,1.5*0C
2017-12-01 18:31:30 1512171090.429666: $GPZDA,233131.00,01,12,2017,00,00*61
2017-12-01 18:31:30 1512171090.429833: $GPGGA,233131,3946.9718,N,08404.9845,W,2,12,0.80,293.63,M,-33.325,M,,*7A
2017-12-01 18:31:30 1512171090.429900: $GPRMC,233131,A,3946.9718,N,08404.9845,W,0.0000,0.000,011217,,*3D
2017-12-01 18:31:30 1512171090.429961: $GPGSA,A,3,3,14,16,22,23,25,26,31,32,1,29,138,2.0,0.8,1.5*0C
2017-12-01 18:31:31 1512171091.425466: $GPZDA,233132.00,01,12,2017,00,00*62
2017-12-01 18:31:31 1512171091.425657: $GPGGA,233132,3946.9718,N,08404.9845,W,2,12,0.80,293.63,M,-33.325,M,,*79
2017-12-01 18:31:31 1512171091.425727: $GPRMC,233132,A,3946.9718,N,08404.9845,W,0.0000,0.000,011217,,*3E
2017-12-01 18:31:31 1512171091.425788: $GPGSA,A,3,3,14,16,22,23,25,26,31,32,1,29,138,2.0,0.8,1.5*0C
2017-12-01 18:31:32 1512171092.761322: $GPGSV,3,1,12,03,42,295,47,14,52,097,43,16,27,190,43,22,50,264,45*72
2017-12-01 18:31:32 1512171092.761566: $GPGSV,3,2,12,23,14,303,43,25,14,039,41,26,58,169,46,31,64,031,46*70
2017-12-01 18:31:32 1512171092.761636: $GPGSV,3,3,12,32,33,111,41,01,04,250,13,29,12,069,20,138,38,213,46*49
