2017-12-31 16:44:43 1514756683.715481: {"class":"VERSION","release":"3.16","rev":"3.16-4","proto_major":3,"proto_minor":11}
2017-12-31 16:44:43 1514756683.715828: {"class":"DEVICES","devices":[{"class":"DEVICE","path":"/dev/ttyUSB0","driver":"SiRF","activated":"2017-12-31T21:44:43.479Z","flags":1,"native":1,"bps":4800,"parity":"N","stopbits":1,"cycle":1.00}]}
2017-12-31 16:44:43 1514756683.715928: {"class":"WATCH","enable":true,"json":false,"nmea":true,"raw":0,"scaled":false,"timing":false,"split24":false,"pps":false}
2017-12-31 16:44:44 1514756684.353350: $GPZDA,214445.00,31,12,2017,00,00*61
2017-12-31 16:44:44 1514756684.353518: $GPGGA,214445,3946.9576,N,08404.9848,W,2,11,0.80,303.18,M,-33.324,M,,*78
2017-12-31 16:44:44 1514756684.353591: $GPRMC,214445,A,3946.9576,N,08404.9848,W,0.0000,0.000,311217,,*3A
2017-12-31 16:44:44 1514756684.353654: $GPGSA,A,3,22,23,25,3,16,29,31,14,32,26,135,,1.7,0.8,1.3*32
2017-12-31 16:44:45 1514756685.681114: $GPGSV,3,1,11,22,49,253,44,23,20,304,40,25,09,039,32,03,45,285,37*7E
2017-12-31 16:44:45 1514756685.681282: $GPGSV,3,2,11,16,35,189,46,29,13,064,30,31,57,042,51,14,48,105,46*7E
2017-12-31 16:44:45 1514756685.681348: $GPGSV,3,3,11,32,26,115,41,26,66,162,42,135,22,240,43*7D
2017-12-31 16:44:45 1514756685.794871: $GPZDA,214446.00,31,12,2017,00,00*62
2017-12-31 16:44:45 1514756685.795031: $GPGGA,214446,3946.9576,N,08404.9848,W,2,11,0.80,303.18,M,-33.324,M,,*7B
2017-12-31 16:44:45 1514756685.795096: $GPRMC,214446,A,3946.9576,N,08404.9848,W,0.0000,0.000,311217,,*39
2017-12-31 16:44:45 1514756685.795158: $GPGSA,A,3,22,23,25,3,16,29,31,14,32,26,135,,1.7,0.8,1.3*32
2017-12-31 16:44:46 1514756686.346853: $GPZDA,214447.00,31,12,2017,00,00*63
2017-12-31 16:44:46 1514756686.347019: $GPGGA,214447,3946.9576,N,08404.9848,W,2,11,0.80,303.18,M,-33.324,M,,*7A
2017-12-31 16:44:46 1514756686.347086: $GPRMC,214447,A,3946.9576,N,08404.9848,W,0.0000,0.000,311217,,*38
2017-12-31 16:44:46 1514756686.347207: $GPGSA,A,3,22,23,25,3,16,29,31,14,32,26,135,,1.7,0.8,1.3*32
2017-12-31 16:44:47 1514756687.346464: $GPZDA,214448.00,31,12,2017,00,00*6C
2017-12-31 16:44:47 1514756687.346653: $GPGGA,214448,3946.9576,N,08404.9848,W,2,11,0.80,303.18,M,-33.324,M,,*75
2017-12-31 16:44:47 1514756687.346719: $GPRMC,214448,A,3946.9576,N,08404.9848,W,0.0000,0.000,311217,,*37
2017-12-31 16:44:47 1514756687.346780: $GPGSA,A,3,22,23,25,3,16,29,31,14,32,26,135,,1.7,0.8,1.3*32
2017-12-31 16:44:48 1514756688.699430: $GPGSV,3,1,11,22,49,253,44,23,20,304,40,25,09,039,32,03,45,285,28*70
2017-12-31 16:44:48 1514756688.699600: $GPGSV,3,2,11,16,35,189,47,29,13,064,31,31,57,042,51,14,48,105,46*7E
2017-12-31 16:44:48 1514756688.699666: $GPGSV,3,3,11,32,26,115,41,26,66,162,42,135,22,240,44*7A
2017-12-31 16:44:48 1514756688.813071: $GPZDA,214449.00,31,12,2017,00,00*6D
2017-12-31 16:44:48 1514756688.813255: $GPGGA,214449,3946.9576,N,08404.9848,W,2,11,0.80,303.18,M,-33.324,M,,*74
2017-12-31 16:44:48 1514756688.813322: $GPRMC,214449,A,3946.9576,N,08404.9848,W,0.0000,0.000,311217,,*36
2017-12-31 16:44:48 1514756688.813387: $GPGSA,A,3,22,23,25,3,16,29,31,14,32,26,135,,1.7,0.8,1.3*32
2017-12-31 16:44:49 1514756689.347697: $GPZDA,214450.00,31,12,2017,00,00*65
2017-12-31 16:44:49 1514756689.347866: $GPGGA,214450,3946.9576,N,08404.9848,W,2,11,0.80,303.18,M,-33.324,M,,*7C
2017-12-31 16:44:49 1514756689.347933: $GPRMC,214450,A,3946.9576,N,08404.9848,W,0.0000,0.000,311217,,*3E
2017-12-31 16:44:49 1514756689.348011: $GPGSA,A,3,22,23,25,3,16,29,31,14,32,26,135,,1.7,0.8,1.3*32
2017-12-31 16:44:50 1514756690.337936: $GPZDA,214451.00,31,12,2017,00,00*64
2017-12-31 16:44:50 1514756690.338146: $GPGGA,214451,3946.9576,N,08404.9848,W,2,11,0.80,303.18,M,-33.324,M,,*7D
2017-12-31 16:44:50 1514756690.338234: $GPRMC,214451,A,3946.9576,N,08404.9848,W,0.0000,0.000,311217,,*3F
2017-12-31 16:44:50 1514756690.338298: $GPGSA,A,3,22,23,25,3,16,29,31,14,32,26,135,,1.7,0.8,1.3*32
2017-12-31 16:44:51 1514756691.682290: $GPGSV,3,1,11,22,49,253,45,23,20,304,41,25,09,039,32,03,45,285,31*78
2017-12-31 16:44:51 1514756691.682466: $GPGSV,3,2,11,16,35,189,46,29,13,064,31,31,57,042,51,14,48,105,46*7F
2017-12-31 16:44:51 1514756691.682582: $GPGSV,3,3,11,32,26,115,41,26,66,162,42,135,22,240,44*7A
2017-12-31 16:44:51 1514756691.795906: $GPZDA,214452.00,31,12,2017,00,00*67
2017-12-31 16:44:51 1514756691.796062: $GPGGA,214452,3946.9576,N,08404.9848,W,2,11,0.80,303.18,M,-33.324,M,,*7E
2017-12-31 16:44:51 1514756691.796129: $GPRMC,214452,A,3946.9576,N,08404.9848,W,0.0000,0.000,311217,,*3C
2017-12-31 16:44:51 1514756691.796190: $GPGSA,A,3,22,23,25,3,16,29,31,14,32,26,135,,1.7,0.8,1.3*32
2017-12-31 16:44:52 1514756692.363094: $GPZDA,214453.00,31,12,2017,00,00*66
2017-12-31 16:44:52 1514756692.363250: $GPGGA,214453,3946.9576,N,08404.9848,W,2,11,0.80,303.18,M,-33.324,M,,*7F
2017-12-31 16:44:52 1514756692.363317: $GPRMC,214453,A,3946.9576,N,08404.9848,W,0.0000,0.000,311217,,*3D
2017-12-31 16:44:52 1514756692.363378: $GPGSA,A,3,22,23,25,3,16,29,31,14,32,26,135,,1.7,0.8,1.3*32
2017-12-31 16:44:53 1514756693.363981: $GPZDA,214454.00,31,12,2017,00,00*61
2017-12-31 16:44:53 1514756693.364145: $GPGGA,214454,3946.9576,N,08404.9848,W,2,11,0.80,303.18,M,-33.324,M,,*78
2017-12-31 16:44:53 1514756693.364211: $GPRMC,214454,A,3946.9576,N,08404.9848,W,0.0000,0.000,311217,,*3A
2017-12-31 16:44:53 1514756693.364272: $GPGSA,A,3,22,23,25,3,16,29,31,14,32,26,135,,1.7,0.8,1.3*32
