2017-12-01 17:13:35 1512166415.604957: {"class":"VERSION","release":"3.16","rev":"3.16-4","proto_major":3,"proto_minor":11}
2017-12-01 17:13:35 1512166415.605389: {"class":"DEVICES","devices":[{"class":"DEVICE","path":"/dev/ttyUSB0","driver":"SiRF","subtype":"9\u0006GSD4e_4.1.2-P1_RPATCH.05-F-GPS-4R-1510281 11/03/2015 307","activated":"2017-12-01T22:13:35.537Z","flags":1,"native":1,"bps":4800,"parity":"N","stopbits":1,"cycle":1.00}]}
2017-12-01 17:13:35 1512166415.605504: {"class":"WATCH","enable":true,"json":false,"nmea":true,"raw":0,"scaled":false,"timing":false,"split24":false,"pps":false}
2017-12-01 17:13:36 1512166416.747333: $GPGSV,3,1,12,01,20,280,43,03,16,316,40,10,28,156,37,12,11,036,22*79
2017-12-01 17:13:36 1512166416.747506: $GPGSV,3,2,12,14,70,021,46,22,35,306,44,26,20,178,38,31,75,258,47*74
2017-12-01 17:13:36 1512166416.747571: $GPGSV,3,3,12,32,59,070,49,11,01,265,24,25,38,064,00,138,38,213,35*42
2017-12-01 17:13:36 1512166416.860697: $GPZDA,221337.00,01,12,2017,00,00*66
2017-12-01 17:13:36 1512166416.860855: $GPGGA,221337,3946.9632,N,08404.9741,W,2,11,0.80,295.51,M,-33.324,M,,*7A
2017-12-01 17:13:36 1512166416.860921: $GPRMC,221337,A,3946.9632,N,08404.9741,W,0.0000,0.000,011217,,*38
2017-12-01 17:13:36 1512166416.860982: $GPGSA,A,3,1,3,10,12,14,22,26,31,32,11,138,,2.0,0.8,1.5*04
2017-12-01 17:13:37 1512166417.508301: $GPZDA,221338.00,01,12,2017,00,00*69
2017-12-01 17:13:37 1512166417.508479: $GPGGA,221338,3946.9632,N,08404.9741,W,2,11,0.80,295.51,M,-33.324,M,,*75
2017-12-01 17:13:37 1512166417.508546: $GPRMC,221338,A,3946.9632,N,08404.9741,W,0.0000,0.000,011217,,*37
2017-12-01 17:13:37 1512166417.508607: $GPGSA,A,3,1,3,10,12,14,22,26,31,32,11,138,,2.0,0.8,1.5*04
2017-12-01 17:13:37 1512166417.508665: $GPGBS,221338,2.67,M,3.86,M,8.82,M*3B
2017-12-01 17:13:38 1512166418.412222: $GPZDA,221339.00,01,12,2017,00,00*68
2017-12-01 17:13:38 1512166418.412398: $GPGGA,221339,3946.9632,N,08404.9741,W,2,11,0.80,295.51,M,-33.324,M,,*74
2017-12-01 17:13:38 1512166418.412465: $GPRMC,221339,A,3946.9632,N,08404.9741,W,0.0000,0.000,011217,,*36
2017-12-01 17:13:38 1512166418.412526: $GPGSA,A,3,1,3,10,12,14,22,26,31,32,11,138,,2.0,0.8,1.5*04
2017-12-01 17:13:38 1512166418.412584: $GPGBS,221339,2.67,M,3.86,M,8.82,M*3A
2017-12-01 17:13:39 1512166419.750462: $GPGSV,3,1,12,01,20,280,43,03,16,316,40,10,28,156,36,12,11,036,22*78
2017-12-01 17:13:39 1512166419.750671: $GPGSV,3,2,12,14,70,021,46,22,35,306,44,26,20,178,37,31,75,258,47*7B
2017-12-01 17:13:39 1512166419.750757: $GPGSV,3,3,12,32,59,070,49,11,01,265,25,25,38,064,00,138,38,213,38*4E
2017-12-01 17:13:39 1512166419.863848: $GPZDA,221340.00,01,12,2017,00,00*66
2017-12-01 17:13:39 1512166419.864019: $GPGGA,221340,3946.9632,N,08404.9741,W,2,11,0.80,295.51,M,-33.324,M,,*7A
2017-12-01 17:13:39 1512166419.864085: $GPRMC,221340,A,3946.9632,N,08404.9741,W,0.0000,0.000,011217,,*38
2017-12-01 17:13:39 1512166419.864147: $GPGSA,A,3,1,3,10,12,14,22,26,31,32,11,138,,2.0,0.8,1.5*04
2017-12-01 17:13:40 1512166420.395936: $GPZDA,221341.00,01,12,2017,00,00*67
2017-12-01 17:13:40 1512166420.396104: $GPGGA,221341,3946.9632,N,08404.9741,W,2,11,0.80,295.51,M,-33.324,M,,*7B
2017-12-01 17:13:40 1512166420.396171: $GPRMC,221341,A,3946.9632,N,08404.9741,W,0.0000,0.000,011217,,*39
2017-12-01 17:13:40 1512166420.396271: $GPGSA,A,3,1,3,10,12,14,22,26,31,32,11,138,,2.0,0.8,1.5*04
2017-12-01 17:13:41 1512166421.398122: $GPZDA,221342.00,01,12,2017,00,00*64
2017-12-01 17:13:41 1512166421.398307: $GPGGA,221342,3946.9632,N,08404.9741,W,2,11,0.80,295.51,M,-33.324,M,,*78
2017-12-01 17:13:41 1512166421.398391: $GPRMC,221342,A,3946.9632,N,08404.9741,W,0.0000,0.000,011217,,*3A
2017-12-01 17:13:41 1512166421.398452: $GPGSA,A,3,1,3,10,12,14,22,26,31,32,11,138,,2.0,0.8,1.5*04
2017-12-01 17:13:42 1512166422.732528: $GPGSV,3,1,12,01,20,280,42,03,16,316,39,10,28,156,36,12,11,036,22*77
2017-12-01 17:13:42 1512166422.732711: $GPGSV,3,2,12,14,70,021,46,22,35,306,44,26,20,178,38,31,75,258,47*74
2017-12-01 17:13:42 1512166422.732778: $GPGSV,3,3,12,32,59,070,49,11,01,265,25,25,38,064,00,138,38,213,40*41
2017-12-01 17:13:42 1512166422.845956: $GPZDA,221343.00,01,12,2017,00,00*65
2017-12-01 17:13:42 1512166422.846127: $GPGGA,221343,3946.9632,N,08404.9741,W,2,11,0.80,295.51,M,-33.324,M,,*79
2017-12-01 17:13:42 1512166422.846230: $GPRMC,221343,A,3946.9632,N,08404.9741,W,0.0000,0.000,011217,,*3B
2017-12-01 17:13:42 1512166422.846294: $GPGSA,A,3,1,3,10,12,14,22,26,31,32,11,138,,2.0,0.8,1.5*04
2017-12-01 17:13:43 1512166423.471396: $GPZDA,221344.00,01,12,2017,00,00*62
2017-12-01 17:13:43 1512166423.471567: $GPGGA,221344,3946.9632,N,08404.9741,W,2,11,0.80,295.51,M,-33.324,M,,*7E
2017-12-01 17:13:43 1512166423.471635: $GPRMC,221344,A,3946.9632,N,08404.9741,W,0.0000,0.000,011217,,*3C
2017-12-01 17:13:43 1512166423.471696: $GPGSA,A,3,1,3,10,12,14,22,26,31,32,11,138,,2.0,0.8,1.5*04
2017-12-01 17:13:44 1512166424.400876: $GPZDA,221345.00,01,12,2017,00,00*63
2017-12-01 17:13:44 1512166424.401072: $GPGGA,221345,3946.9632,N,08404.9741,W,2,11,0.80,295.51,M,-33.324,M,,*7F
2017-12-01 17:13:44 1512166424.401137: $GPRMC,221345,A,3946.9632,N,08404.9741,W,0.0000,0.000,011217,,*3D
2017-12-01 17:13:44 1512166424.401198: $GPGSA,A,3,1,3,10,12,14,22,26,31,32,11,138,,2.0,0.8,1.5*04
2017-12-01 17:13:45 1512166425.734197: $GPGSV,3,1,12,01,20,280,42,03,16,316,39,10,28,156,35,12,11,036,23*75
2017-12-01 17:13:45 1512166425.734381: $GPGSV,3,2,12,14,70,021,45,22,35,306,44,26,20,178,38,31,75,258,47*77
2017-12-01 17:13:45 1512166425.734449: $GPGSV,3,3,12,32,59,070,49,11,01,265,25,25,38,064,28,138,38,213,40*4B
2017-12-01 17:13:45 1512166425.847589: $GPZDA,221346.00,01,12,2017,00,00*60
2017-12-01 17:13:45 1512166425.847760: $GPGGA,221346,3946.9632,N,08404.9741,W,2,12,0.80,295.51,M,-33.324,M,,*7F
2017-12-01 17:13:45 1512166425.847827: $GPRMC,221346,A,3946.9632,N,08404.9741,W,0.0000,0.000,011217,,*3E
2017-12-01 17:13:45 1512166425.847888: $GPGSA,A,3,1,3,10,12,14,22,26,31,32,11,25,138,2.0,0.8,1.5*03
2017-12-01 17:13:46 1512166426.396180: $GPZDA,221347.00,01,12,2017,00,00*61
2017-12-01 17:13:46 1512166426.396380: $GPGGA,221347,3946.9632,N,08404.9741,W,2,12,0.80,295.51,M,-33.324,M,,*7E
2017-12-01 17:13:46 1512166426.396448: $GPRMC,221347,A,3946.9632,N,08404.9741,W,0.0000,0.000,011217,,*3F
2017-12-01 17:13:46 1512166426.396509: $GPGSA,A,3,1,3,10,12,14,22,26,31,32,11,25,138,2.0,0.8,1.5*03
2017-12-01 17:13:47 1512166427.398445: $GPZDA,221348.00,01,12,2017,00,00*6E
2017-12-01 17:13:47 1512166427.398628: $GPGGA,221348,3946.9632,N,08404.9741,W,2,12,0.80,295.51,M,-33.324,M,,*71
2017-12-01 17:13:47 1512166427.398699: $GPRMC,221348,A,3946.9632,N,08404.9741,W,0.0000,0.000,011217,,*30
2017-12-01 17:13:47 1512166427.398760: $GPGSA,A,3,1,3,10,12,14,22,26,31,32,11,25,138,2.0,0.8,1.5*03
2017-12-01 17:13:48 1512166428.725768: $GPGSV,3,1,12,01,20,280,42,03,16,316,40,10,28,156,35,12,11,036,29*71
2017-12-01 17:13:48 1512166428.725970: $GPGSV,3,2,12,14,70,021,45,22,35,306,44,26,20,178,40,31,75,258,47*78
2017-12-01 17:13:48 1512166428.726038: $GPGSV,3,3,12,32,59,070,48,11,01,265,26,25,38,064,16,138,38,213,38*4B
2017-12-01 17:13:48 1512166428.839233: $GPZDA,221349.00,01,12,2017,00,00*6F
2017-12-01 17:13:48 1512166428.839425: $GPGGA,221349,3946.9632,N,08404.9741,W,2,12,0.80,295.51,M,-33.324,M,,*70
2017-12-01 17:13:48 1512166428.839495: $GPRMC,221349,A,3946.9632,N,08404.9741,W,0.0000,0.000,011217,,*31
2017-12-01 17:13:48 1512166428.839556: $GPGSA,A,3,1,3,10,12,14,22,26,31,32,11,25,138,2.0,0.8,1.5*03
2017-12-01 17:13:49 1512166429.397535: $GPZDA,221350.00,01,12,2017,00,00*67
2017-12-01 17:13:49 1512166429.397708: $GPGGA,221350,3946.9632,N,08404.9741,W,2,12,0.80,295.51,M,-33.324,M,,*78
2017-12-01 17:13:49 1512166429.397775: $GPRMC,221350,A,3946.9632,N,08404.9741,W,0.0000,0.000,011217,,*39
2017-12-01 17:13:49 1512166429.397835: $GPGSA,A,3,1,3,10,12,14,22,26,31,32,11,25,138,2.0,0.8,1.5*03
2017-12-01 17:13:50 1512166430.396321: $GPZDA,221351.00,01,12,2017,00,00*66
2017-12-01 17:13:50 1512166430.399026: $GPGGA,221351,3946.9632,N,08404.9741,W,2,12,0.80,295.51,M,-33.324,M,,*79
2017-12-01 17:13:50 1512166430.399128: $GPRMC,221351,A,3946.9632,N,08404.9741,W,0.0000,0.000,011217,,*38
2017-12-01 17:13:50 1512166430.399263: $GPGSA,A,3,1,3,10,12,14,22,26,31,32,11,25,138,2.0,0.8,1.5*03
2017-12-01 17:13:51 1512166431.731635: $GPGSV,3,1,12,01,20,280,43,03,16,316,40,10,28,156,35,12,11,036,28*71
2017-12-01 17:13:51 1512166431.731816: $GPGSV,3,2,12,14,70,021,45,22,35,306,43,26,20,178,40,31,75,258,47*7F
2017-12-01 17:13:51 1512166431.731884: $GPGSV,3,3,12,32,59,070,49,11,01,265,27,25,38,064,28,138,38,213,40*49
2017-12-01 17:13:51 1512166431.844987: $GPZDA,221352.00,01,12,2017,00,00*65
2017-12-01 17:13:51 1512166431.845175: $GPGGA,221352,3946.9632,N,08404.9741,W,2,12,0.80,295.51,M,-33.324,M,,*7A
2017-12-01 17:13:51 1512166431.845244: $GPRMC,221352,A,3946.9632,N,08404.9741,W,0.0000,0.000,011217,,*3B
2017-12-01 17:13:51 1512166431.845321: $GPGSA,A,3,1,3,10,12,14,22,26,31,32,11,25,138,2.0,0.8,1.5*03
2017-12-01 17:13:52 1512166432.404648: $GPZDA,221353.00,01,12,2017,00,00*64
2017-12-01 17:13:52 1512166432.404820: $GPGGA,221353,3946.9632,N,08404.9741,W,2,12,0.80,295.51,M,-33.324,M,,*7B
2017-12-01 17:13:52 1512166432.404888: $GPRMC,221353,A,3946.9632,N,08404.9741,W,0.0000,0.000,011217,,*3A
2017-12-01 17:13:52 1512166432.404949: $GPGSA,A,3,1,3,10,12,14,22,26,31,32,11,25,138,2.0,0.8,1.5*03
2017-12-01 17:13:53 1512166433.396466: $GPZDA,221354.00,01,12,2017,00,00*63
2017-12-01 17:13:53 1512166433.396645: $GPGGA,221354,3946.9636,N,08404.9741,W,2,12,0.80,296.15,M,-33.324,M,,*7B
2017-12-01 17:13:53 1512166433.396714: $GPRMC,221354,A,3946.9636,N,08404.9741,W,0.0000,0.000,011217,,*39
2017-12-01 17:13:53 1512166433.396775: $GPGSA,A,3,1,3,10,12,14,22,26,31,32,11,25,138,2.0,0.8,1.5*03
2017-12-01 17:13:54 1512166434.732281: $GPGSV,3,1,12,01,20,280,42,03,16,316,40,10,28,156,36,12,11,036,28*73
2017-12-01 17:13:54 1512166434.732464: $GPGSV,3,2,12,14,70,021,45,22,35,306,44,26,20,178,41,31,75,258,47*79
2017-12-01 17:13:54 1512166434.732533: $GPGSV,3,3,12,32,59,070,49,11,01,265,28,25,38,064,00,138,38,213,41*4D
2017-12-01 17:13:54 1512166434.845462: $GPZDA,221355.00,01,12,2017,00,00*62
2017-12-01 17:13:54 1512166434.845633: $GPGGA,221355,3946.9636,N,08404.9741,W,2,11,0.80,296.15,M,-33.324,M,,*79
2017-12-01 17:13:54 1512166434.845700: $GPRMC,221355,A,3946.9636,N,08404.9741,W,0.0000,0.000,011217,,*38
2017-12-01 17:13:54 1512166434.845761: $GPGSA,A,3,1,3,10,12,14,22,26,31,32,11,138,,2.0,0.8,1.5*04
2017-12-01 17:13:55 1512166435.398844: $GPZDA,221356.00,01,12,2017,00,00*61
2017-12-01 17:13:55 1512166435.399025: $GPGGA,221356,3946.9636,N,08404.9741,W,2,11,0.80,296.15,M,-33.324,M,,*7A
2017-12-01 17:13:55 1512166435.399093: $GPRMC,221356,A,3946.9636,N,08404.9741,W,0.0000,0.000,011217,,*3B
2017-12-01 17:13:55 1512166435.399176: $GPGSA,A,3,1,3,10,12,14,22,26,31,32,11,138,,2.0,0.8,1.5*04
