2017-12-01 15:32:39 1512160359.416776: {"class":"VERSION","release":"3.16","rev":"3.16-4","proto_major":3,"proto_minor":11}
2017-12-01 15:32:39 1512160359.417196: {"class":"DEVICES","devices":[{"class":"DEVICE","path":"/dev/ttyUSB0","driver":"SiRF","subtype":"9\u0006GSD4e_4.1.2-P1_RPATCH.05-F-GPS-4R-1510281 11/03/2015 307","activated":"2017-12-01T20:32:39.402Z","flags":1,"native":1,"bps":4800,"parity":"N","stopbits":1,"cycle":1.00}]}
2017-12-01 15:32:39 1512160359.417321: {"class":"WATCH","enable":true,"json":false,"nmea":true,"raw":0,"scaled":false,"timing":false,"split24":false,"pps":false}
2017-12-01 15:32:40 1512160360.738816: $GPGSV,3,1,11,01,10,322,40,10,75,121,48,11,10,306,24,12,24,078,44*79
2017-12-01 15:32:40 1512160360.738969: $GPGSV,3,2,11,14,51,285,44,18,43,132,46,24,19,045,42,25,26,120,44*73
2017-12-01 15:32:40 1512160360.739033: $GPGSV,3,3,11,31,29,210,46,32,66,315,49,138,38,213,46*79
2017-12-01 15:32:40 1512160360.852197: $GPZDA,203241.00,01,12,2017,00,00*66
2017-12-01 15:32:40 1512160360.852319: $GPGGA,203241,3946.9592,N,08404.9863,W,2,11,0.80,293.50,M,-33.324,M,,*7B
2017-12-01 15:32:40 1512160360.852385: $GPRMC,203241,A,3946.9592,N,08404.9863,W,0.0000,0.000,011217,,*3E
2017-12-01 15:32:40 1512160360.852445: $GPGSA,A,3,1,10,11,12,14,18,24,25,31,32,138,,2.0,0.8,1.5*3B
2017-12-01 15:32:41 1512160361.404336: $GPZDA,203242.00,01,12,2017,00,00*65
2017-12-01 15:32:41 1512160361.404507: $GPGGA,203242,3946.9591,N,08404.9856,W,2,11,0.80,293.58,M,-33.324,M,,*75
2017-12-01 15:32:41 1512160361.404573: $GPRMC,203242,A,3946.9591,N,08404.9856,W,0.0000,0.000,011217,,*38
2017-12-01 15:32:41 1512160361.404634: $GPGSA,A,3,1,10,11,12,14,18,24,25,31,32,138,,2.0,0.8,1.5*3B
2017-12-01 15:32:42 1512160362.405442: $GPZDA,203243.00,01,12,2017,00,00*64
2017-12-01 15:32:42 1512160362.405611: $GPGGA,203243,3946.9591,N,08404.9856,W,2,11,0.80,293.58,M,-33.324,M,,*74
2017-12-01 15:32:42 1512160362.405677: $GPRMC,203243,A,3946.9591,N,08404.9856,W,0.0000,0.000,011217,,*39
2017-12-01 15:32:42 1512160362.405738: $GPGSA,A,3,1,10,11,12,14,18,24,25,31,32,138,,2.0,0.8,1.5*3B
2017-12-01 15:32:43 1512160363.739681: $GPGSV,3,1,11,01,10,322,41,10,75,121,48,11,10,306,32,12,24,078,44*7F
2017-12-01 15:32:43 1512160363.739861: $GPGSV,3,2,11,14,51,285,43,18,43,132,46,24,19,045,43,25,26,120,43*72
2017-12-01 15:32:43 1512160363.739928: $GPGSV,3,3,11,31,29,210,46,32,66,315,49,138,38,213,45*7A
2017-12-01 15:32:43 1512160363.853086: $GPZDA,203244.00,01,12,2017,00,00*63
2017-12-01 15:32:43 1512160363.853265: $GPGGA,203244,3946.9591,N,08404.9856,W,2,11,0.80,293.58,M,-33.324,M,,*73
2017-12-01 15:32:43 1512160363.853333: $GPRMC,203244,A,3946.9591,N,08404.9856,W,0.0000,0.000,011217,,*3E
2017-12-01 15:32:43 1512160363.853393: $GPGSA,A,3,1,10,11,12,14,18,24,25,31,32,138,,2.0,0.8,1.5*3B
2017-12-01 15:32:44 1512160364.478426: $GPZDA,203245.00,01,12,2017,00,00*62
2017-12-01 15:32:44 1512160364.478614: $GPGGA,203245,3946.9591,N,08404.9856,W,2,11,0.80,293.58,M,-33.324,M,,*72
2017-12-01 15:32:44 1512160364.478702: $GPRMC,203245,A,3946.9591,N,08404.9856,W,0.0000,0.000,011217,,*3F
2017-12-01 15:32:44 1512160364.478765: $GPGSA,A,3,1,10,11,12,14,18,24,25,31,32,138,,2.0,0.8,1.5*3B
2017-12-01 15:32:45 1512160365.404410: $GPZDA,203246.00,01,12,2017,00,00*61
2017-12-01 15:32:45 1512160365.404585: $GPGGA,203246,3946.9591,N,08404.9856,W,2,11,0.80,293.58,M,-33.324,M,,*71
2017-12-01 15:32:45 1512160365.404653: $GPRMC,203246,A,3946.9591,N,08404.9856,W,0.0000,0.000,011217,,*3C
2017-12-01 15:32:45 1512160365.404714: $GPGSA,A,3,1,10,11,12,14,18,24,25,31,32,138,,2.0,0.8,1.5*3B
2017-12-01 15:32:46 1512160366.740070: $GPGSV,3,1,11,01,10,322,40,10,75,121,48,11,10,306,34,12,24,078,43*7F
2017-12-01 15:32:46 1512160366.740252: $GPGSV,3,2,11,14,51,285,44,18,43,132,46,24,19,045,42,25,26,120,43*74
2017-12-01 15:32:46 1512160366.740318: $GPGSV,3,3,11,31,29,210,47,32,66,315,49,138,38,213,46*78
2017-12-01 15:32:46 1512160366.853730: $GPZDA,203247.00,01,12,2017,00,00*60
2017-12-01 15:32:46 1512160366.853858: $GPGGA,203247,3946.9591,N,08404.9856,W,2,11,0.80,293.58,M,-33.324,M,,*70
2017-12-01 15:32:46 1512160366.854002: $GPRMC,203247,A,3946.9591,N,08404.9856,W,0.0000,0.000,011217,,*3D
2017-12-01 15:32:46 1512160366.854065: $GPGSA,A,3,1,10,11,12,14,18,24,25,31,32,138,,2.0,0.8,1.5*3B
2017-12-01 15:32:47 1512160367.403051: $GPZDA,203248.00,01,12,2017,00,00*6F
2017-12-01 15:32:47 1512160367.403227: $GPGGA,203248,3946.9591,N,08404.9856,W,2,11,0.80,293.58,M,-33.324,M,,*7F
2017-12-01 15:32:47 1512160367.403295: $GPRMC,203248,A,3946.9591,N,08404.9856,W,0.0000,0.000,011217,,*32
2017-12-01 15:32:47 1512160367.403356: $GPGSA,A,3,1,10,11,12,14,18,24,25,31,32,138,,2.0,0.8,1.5*3B
2017-12-01 15:32:48 1512160368.403997: $GPZDA,203249.00,01,12,2017,00,00*6E
2017-12-01 15:32:48 1512160368.404185: $GPGGA,203249,3946.9596,N,08404.9850,W,2,11,0.80,295.70,M,-33.324,M,,*73
2017-12-01 15:32:48 1512160368.404253: $GPRMC,203249,A,3946.9596,N,08404.9850,W,0.0000,0.000,011217,,*32
2017-12-01 15:32:48 1512160368.404314: $GPGSA,A,3,1,10,11,12,14,18,24,25,31,32,138,,2.0,0.8,1.5*3B
2017-12-01 15:32:49 1512160369.740412: $GPGSV,3,1,11,01,10,322,41,10,75,121,47,11,10,306,34,12,24,078,43*71
2017-12-01 15:32:49 1512160369.745084: $GPGSV,3,2,11,14,51,285,44,18,43,132,46,24,19,045,42,25,26,120,43*74
2017-12-01 15:32:49 1512160369.745208: $GPGSV,3,3,11,31,29,210,47,32,66,315,49,138,38,213,45*7B
2017-12-01 15:32:49 1512160369.853838: $GPZDA,203250.00,01,12,2017,00,00*66
2017-12-01 15:32:49 1512160369.854040: $GPGGA,203250,3946.9596,N,08404.9850,W,2,11,0.80,295.70,M,-33.324,M,,*7B
2017-12-01 15:32:49 1512160369.854117: $GPRMC,203250,A,3946.9596,N,08404.9850,W,0.0000,0.000,011217,,*3A
2017-12-01 15:32:49 1512160369.854183: $GPGSA,A,3,1,10,11,12,14,18,24,25,31,32,138,,2.0,0.8,1.5*3B
2017-12-01 15:32:50 1512160370.404667: $GPZDA,203251.00,01,12,2017,00,00*67
2017-12-01 15:32:50 1512160370.404859: $GPGGA,203251,3946.9596,N,08404.9850,W,2,11,0.80,295.70,M,-33.324,M,,*7A
2017-12-01 15:32:50 1512160370.404926: $GPRMC,203251,A,3946.9596,N,08404.9850,W,0.0000,0.000,011217,,*3B
2017-12-01 15:32:50 1512160370.404990: $GPGSA,A,3,1,10,11,12,14,18,24,25,31,32,138,,2.0,0.8,1.5*3B
2017-12-01 15:32:51 1512160371.403007: $GPZDA,203252.00,01,12,2017,00,00*64
2017-12-01 15:32:51 1512160371.403166: $GPGGA,203252,3946.9596,N,08404.9850,W,2,11,0.80,295.70,M,-33.324,M,,*79
2017-12-01 15:32:51 1512160371.403235: $GPRMC,203252,A,3946.9596,N,08404.9850,W,0.0000,0.000,011217,,*38
2017-12-01 15:32:51 1512160371.403296: $GPGSA,A,3,1,10,11,12,14,18,24,25,31,32,138,,2.0,0.8,1.5*3B
2017-12-01 15:32:52 1512160372.738781: $GPGSV,3,1,11,01,10,322,40,10,75,121,47,11,10,306,35,12,24,078,43*71
2017-12-01 15:32:52 1512160372.738971: $GPGSV,3,2,11,14,51,285,43,18,43,132,46,24,19,045,42,25,26,120,43*73
2017-12-01 15:32:52 1512160372.739037: $GPGSV,3,3,11,31,29,210,47,32,66,315,48,138,38,213,46*79
2017-12-01 15:32:52 1512160372.852163: $GPZDA,203253.00,01,12,2017,00,00*65
2017-12-01 15:32:52 1512160372.852312: $GPGGA,203253,3946.9596,N,08404.9850,W,2,11,0.80,295.70,M,-33.324,M,,*78
2017-12-01 15:32:52 1512160372.852380: $GPRMC,203253,A,3946.9596,N,08404.9850,W,0.0000,0.000,011217,,*39
2017-12-01 15:32:52 1512160372.852442: $GPGSA,A,3,1,10,11,12,14,18,24,25,31,32,138,,2.0,0.8,1.5*3B
2017-12-01 15:32:53 1512160373.404238: $GPZDA,203254.00,01,12,2017,00,00*62
2017-12-01 15:32:53 1512160373.404433: $GPGGA,203254,3946.9596,N,08404.9850,W,2,11,0.80,295.70,M,-33.324,M,,*7F
2017-12-01 15:32:53 1512160373.404502: $GPRMC,203254,A,3946.9596,N,08404.9850,W,0.0000,0.000,011217,,*3E
2017-12-01 15:32:53 1512160373.404565: $GPGSA,A,3,1,10,11,12,14,18,24,25,31,32,138,,2.0,0.8,1.5*3B
2017-12-01 15:32:54 1512160374.404727: $GPZDA,203255.00,01,12,2017,00,00*63
2017-12-01 15:32:54 1512160374.404897: $GPGGA,203255,3946.9596,N,08404.9850,W,2,11,0.80,295.70,M,-33.324,M,,*7E
2017-12-01 15:32:54 1512160374.404985: $GPRMC,203255,A,3946.9596,N,08404.9850,W,0.0000,0.000,011217,,*3F
2017-12-01 15:32:54 1512160374.405047: $GPGSA,A,3,1,10,11,12,14,18,24,25,31,32,138,,2.0,0.8,1.5*3B
2017-12-01 15:32:55 1512160375.734165: $GPGSV,3,1,11,01,10,322,41,10,75,121,47,11,10,306,35,12,24,078,43*70
2017-12-01 15:32:55 1512160375.734399: $GPGSV,3,2,11,14,51,285,43,18,43,132,46,24,19,045,42,25,26,120,43*73
2017-12-01 15:32:55 1512160375.734469: $GPGSV,3,3,11,31,29,210,47,32,66,315,48,138,38,213,46*79
2017-12-01 15:32:55 1512160375.847570: $GPZDA,203256.00,01,12,2017,00,00*60
2017-12-01 15:32:55 1512160375.847749: $GPGGA,203256,3946.9596,N,08404.9850,W,2,11,0.80,295.70,M,-33.324,M,,*7D
2017-12-01 15:32:55 1512160375.847816: $GPRMC,203256,A,3946.9596,N,08404.9850,W,0.0000,0.000,011217,,*3C
2017-12-01 15:32:55 1512160375.847877: $GPGSA,A,3,1,10,11,12,14,18,24,25,31,32,138,,2.0,0.8,1.5*3B
2017-12-01 15:32:56 1512160376.403964: $GPZDA,203257.00,01,12,2017,00,00*61
2017-12-01 15:32:56 1512160376.404263: $GPGGA,203257,3946.9596,N,08404.9850,W,2,11,0.80,295.70,M,-33.324,M,,*7C
2017-12-01 15:32:56 1512160376.404390: $GPRMC,203257,A,3946.9596,N,08404.9850,W,0.0000,0.000,011217,,*3D
2017-12-01 15:32:56 1512160376.404517: $GPGSA,A,3,1,10,11,12,14,18,24,25,31,32,138,,2.0,0.8,1.5*3B
2017-12-01 15:32:57 1512160377.404394: $GPZDA,203258.00,01,12,2017,00,00*6E
2017-12-01 15:32:57 1512160377.404566: $GPGGA,203258,3946.9596,N,08404.9850,W,2,11,0.80,295.70,M,-33.324,M,,*73
2017-12-01 15:32:57 1512160377.404633: $GPRMC,203258,A,3946.9596,N,08404.9850,W,0.0000,0.000,011217,,*32
2017-12-01 15:32:57 1512160377.404694: $GPGSA,A,3,1,10,11,12,14,18,24,25,31,32,138,,2.0,0.8,1.5*3B
2017-12-01 15:32:58 1512160378.740007: $GPGSV,3,1,11,01,10,322,41,10,75,121,47,11,10,306,36,12,24,078,44*74
2017-12-01 15:32:58 1512160378.740179: $GPGSV,3,2,11,14,51,285,44,18,43,132,46,24,19,045,42,25,26,120,44*73
2017-12-01 15:32:58 1512160378.740245: $GPGSV,3,3,11,31,29,210,46,32,66,315,49,138,38,213,45*7A
2017-12-01 15:32:58 1512160378.853414: $GPZDA,203259.00,01,12,2017,00,00*6F
2017-12-01 15:32:58 1512160378.853582: $GPGGA,203259,3946.9596,N,08404.9850,W,2,11,0.80,295.70,M,-33.324,M,,*72
2017-12-01 15:32:58 1512160378.853649: $GPRMC,203259,A,3946.9596,N,08404.9850,W,0.0000,0.000,011217,,*33
2017-12-01 15:32:58 1512160378.853710: $GPGSA,A,3,1,10,11,12,14,18,24,25,31,32,138,,2.0,0.8,1.5*3B
