2017-12-01 11:46:10 1512146770.433566: {"class":"VERSION","release":"3.16","rev":"3.16-4","proto_major":3,"proto_minor":11}
2017-12-01 11:46:10 1512146770.433995: {"class":"DEVICES","devices":[{"class":"DEVICE","path":"/dev/ttyUSB0","driver":"SiRF","subtype":"9\u0006GSD4e_4.1.2-P1_RPATCH.05-F-GPS-4R-1510281 11/03/2015 307","activated":"2017-12-01T16:46:10.396Z","flags":1,"native":1,"bps":4800,"parity":"N","stopbits":1,"cycle":1.00}]}
2017-12-01 11:46:10 1512146770.434158: {"class":"WATCH","enable":true,"json":false,"nmea":true,"raw":0,"scaled":false,"timing":false,"split24":false,"pps":false}
2017-12-01 11:46:11 1512146771.717833: $GPGSV,3,1,12,10,13,273,38,13,42,049,46,15,75,070,45,18,44,286,45*79
2017-12-01 11:46:11 1512146771.718018: $GPGSV,3,2,12,20,62,052,43,21,68,304,46,24,21,148,43,27,09,324,38*78
2017-12-01 11:46:11 1512146771.718085: $GPGSV,3,3,12,29,23,195,45,05,13,078,32,04,12,130,00,138,38,213,46*43
2017-12-01 11:46:11 1512146771.831258: $GPZDA,164612.00,01,12,2017,00,00*66
2017-12-01 11:46:11 1512146771.831489: $GPGGA,164612,3946.9559,N,08404.9841,W,2,11,0.80,300.70,M,-33.324,M,,*75
2017-12-01 11:46:11 1512146771.831562: $GPRMC,164612,A,3946.9559,N,08404.9841,W,0.0000,0.000,011217,,*39
2017-12-01 11:46:11 1512146771.831622: $GPGSA,A,3,10,13,15,18,20,21,24,27,29,5,138,,2.0,0.8,1.5*34
2017-12-01 11:46:12 1512146772.383451: $GPZDA,164613.00,01,12,2017,00,00*67
2017-12-01 11:46:12 1512146772.383633: $GPGGA,164613,3946.9559,N,08404.9841,W,2,11,0.80,300.70,M,-33.324,M,,*74
2017-12-01 11:46:12 1512146772.383701: $GPRMC,164613,A,3946.9559,N,08404.9841,W,0.0000,0.000,011217,,*38
2017-12-01 11:46:12 1512146772.383763: $GPGSA,A,3,10,13,15,18,20,21,24,27,29,5,138,,2.0,0.8,1.5*34
2017-12-01 11:46:13 1512146773.381878: $GPZDA,164614.00,01,12,2017,00,00*60
2017-12-01 11:46:13 1512146773.382060: $GPGGA,164614,3946.9559,N,08404.9841,W,2,11,0.80,300.70,M,-33.324,M,,*73
2017-12-01 11:46:13 1512146773.382127: $GPRMC,164614,A,3946.9559,N,08404.9841,W,0.0000,0.000,011217,,*3F
2017-12-01 11:46:13 1512146773.382188: $GPGSA,A,3,10,13,15,18,20,21,24,27,29,5,138,,2.0,0.8,1.5*34
2017-12-01 11:46:14 1512146774.717437: $GPGSV,3,1,12,10,13,273,38,13,42,049,46,15,75,070,45,18,44,286,45*79
2017-12-01 11:46:14 1512146774.717618: $GPGSV,3,2,12,20,62,052,43,21,68,304,45,24,21,148,43,27,09,324,38*7B
2017-12-01 11:46:14 1512146774.717683: $GPGSV,3,3,12,29,23,195,45,05,13,078,32,04,12,130,00,138,38,213,46*43
2017-12-01 11:46:14 1512146774.830783: $GPZDA,164615.00,01,12,2017,00,00*61
2017-12-01 11:46:14 1512146774.830942: $GPGGA,164615,3946.9559,N,08404.9841,W,2,11,0.80,300.70,M,-33.324,M,,*72
2017-12-01 11:46:14 1512146774.831007: $GPRMC,164615,A,3946.9559,N,08404.9841,W,0.0000,0.000,011217,,*3E
2017-12-01 11:46:14 1512146774.831068: $GPGSA,A,3,10,13,15,18,20,21,24,27,29,5,138,,2.0,0.8,1.5*34
2017-12-01 11:46:15 1512146775.457419: $GPZDA,164616.00,01,12,2017,00,00*62
2017-12-01 11:46:15 1512146775.457605: $GPGGA,164616,3946.9559,N,08404.9841,W,2,11,0.80,300.70,M,-33.324,M,,*71
2017-12-01 11:46:15 1512146775.457672: $GPRMC,164616,A,3946.9559,N,08404.9841,W,0.0000,0.000,011217,,*3D
2017-12-01 11:46:15 1512146775.457734: $GPGSA,A,3,10,13,15,18,20,21,24,27,29,5,138,,2.0,0.8,1.5*34
2017-12-01 11:46:16 1512146776.383566: $GPZDA,164617.00,01,12,2017,00,00*63
2017-12-01 11:46:16 1512146776.383738: $GPGGA,164617,3946.9559,N,08404.9841,W,2,11,0.80,300.70,M,-33.324,M,,*70
2017-12-01 11:46:16 1512146776.383804: $GPRMC,164617,A,3946.9559,N,08404.9841,W,0.0000,0.000,011217,,*3C
2017-12-01 11:46:16 1512146776.383866: $GPGSA,A,3,10,13,15,18,20,21,24,27,29,5,138,,2.0,0.8,1.5*34
2017-12-01 11:46:17 1512146777.718136: $GPGSV,3,1,12,10,13,273,38,13,42,049,46,15,75,070,45,18,44,286,45*79
2017-12-01 11:46:17 1512146777.718320: $GPGSV,3,2,12,20,62,052,43,21,68,304,45,24,21,148,43,27,09,324,39*7A
2017-12-01 11:46:17 1512146777.718386: $GPGSV,3,3,12,29,23,195,46,05,13,078,32,04,12,130,00,138,38,213,46*40
2017-12-01 11:46:17 1512146777.831226: $GPZDA,164618.00,01,12,2017,00,00*6C
2017-12-01 11:46:17 1512146777.831434: $GPGGA,164618,3946.9559,N,08404.9841,W,2,11,0.80,300.70,M,-33.324,M,,*7F
2017-12-01 11:46:17 1512146777.831559: $GPRMC,164618,A,3946.9559,N,08404.9841,W,0.0000,0.000,011217,,*33
2017-12-01 11:46:17 1512146777.831621: $GPGSA,A,3,10,13,15,18,20,21,24,27,29,5,138,,2.0,0.8,1.5*34
2017-12-01 11:46:18 1512146778.398537: $GPZDA,164619.00,01,12,2017,00,00*6D
2017-12-01 11:46:18 1512146778.398706: $GPGGA,164619,3946.9559,N,08404.9841,W,2,11,0.80,300.70,M,-33.324,M,,*7E
2017-12-01 11:46:18 1512146778.398772: $GPRMC,164619,A,3946.9559,N,08404.9841,W,0.0000,0.000,011217,,*32
2017-12-01 11:46:18 1512146778.398833: $GPGSA,A,3,10,13,15,18,20,21,24,27,29,5,138,,2.0,0.8,1.5*34
2017-12-01 11:46:19 1512146779.401743: $GPZDA,164620.00,01,12,2017,00,00*67
2017-12-01 11:46:19 1512146779.401915: $GPGGA,164620,3946.9559,N,08404.9841,W,2,11,0.80,300.70,M,-33.324,M,,*74
2017-12-01 11:46:19 1512146779.401983: $GPRMC,164620,A,3946.9559,N,08404.9841,W,0.0000,0.000,011217,,*38
2017-12-01 11:46:19 1512146779.402044: $GPGSA,A,3,10,13,15,18,20,21,24,27,29,5,138,,2.0,0.8,1.5*34
