2017-11-16 17:19:51 1510870791.490598: {"class":"VERSION","release":"3.17","rev":"3.17","proto_major":3,"proto_minor":12}
2017-11-16 17:19:51 1510870791.491070: {"class":"DEVICES","devices":[{"class":"DEVICE","path":"/dev/ttyUSB0","driver":"SiRF","subtype":"9\u0006GSD4e_4.1.2-P1_RPATCH.05-F-GPS-4R-1510281 11/03/2015 307","activated":"2017-11-16T22:19:51.282Z","flags":1,"native":1,"bps":4800,"parity":"N","stopbits":1,"cycle":1.00}]}
2017-11-16 17:19:51 1510870791.491186: {"class":"WATCH","enable":true,"json":false,"nmea":true,"raw":0,"scaled":false,"timing":false,"split24":false,"pps":false}
2017-11-16 17:19:51 1510870791.730932: $GPGSV,3,1,12,01,20,306,40,10,54,145,50,22,14,312,39,12,24,055,49*78
2017-11-16 17:19:51 1510870791.731103: $GPGSV,3,2,12,14,63,316,47,18,24,142,42,24,02,048,09,11,10,288,42*76
2017-11-16 17:19:51 1510870791.731163: $GPGSV,3,3,12,25,38,097,48,31,49,220,50,32,70,010,49,138,38,213,45*44
2017-11-16 17:19:51 1510870791.844187: $GPZDA,221950.00,16,11,2017,00,00*68
2017-11-16 17:19:51 1510870791.844349: $GPGGA,221950,3946.9570,N,08404.9831,W,2,12,0.80,309.16,M,-33.324,M,,*78
2017-11-16 17:19:51 1510870791.844411: $GPRMC,221950,A,3946.9570,N,08404.9831,W,0.0000,0.000,161117,,*3B
2017-11-16 17:19:51 1510870791.844466: $GPGSA,A,3,1,10,22,12,14,18,24,11,25,31,32,138,1.6,0.8,1.3*38
2017-11-16 17:19:52 1510870792.401368: $GPZDA,221951.00,16,11,2017,00,00*69
2017-11-16 17:19:52 1510870792.401535: $GPGGA,221951,3946.9570,N,08404.9831,W,2,12,0.80,309.16,M,-33.324,M,,*79
2017-11-16 17:19:52 1510870792.401596: $GPRMC,221951,A,3946.9570,N,08404.9831,W,0.0000,0.000,161117,,*3A
2017-11-16 17:19:52 1510870792.401651: $GPGSA,A,3,1,10,22,12,14,18,24,11,25,31,32,138,1.6,0.8,1.3*38
2017-11-16 17:19:53 1510870793.421061: $GPZDA,221952.00,16,11,2017,00,00*6A
2017-11-16 17:19:53 1510870793.421224: $GPGGA,221952,3946.9570,N,08404.9831,W,2,12,0.80,309.16,M,-33.324,M,,*7A
2017-11-16 17:19:53 1510870793.421286: $GPRMC,221952,A,3946.9570,N,08404.9831,W,0.0000,0.000,161117,,*39
2017-11-16 17:19:53 1510870793.421341: $GPGSA,A,3,1,10,22,12,14,18,24,11,25,31,32,138,1.6,0.8,1.3*38
2017-11-16 17:19:54 1510870794.736782: $GPGSV,3,1,12,01,20,306,40,10,54,145,50,22,14,312,40,12,24,055,49*76
2017-11-16 17:19:54 1510870794.736956: $GPGSV,3,2,12,14,63,316,48,18,24,142,42,24,02,048,10,11,10,288,41*72
2017-11-16 17:19:54 1510870794.737017: $GPGSV,3,3,12,25,38,097,48,31,49,220,49,32,70,010,49,138,38,213,45*4C
2017-11-16 17:19:54 1510870794.850065: $GPZDA,221953.00,16,11,2017,00,00*6B
2017-11-16 17:19:54 1510870794.850229: $GPGGA,221953,3946.9570,N,08404.9831,W,2,12,0.80,309.16,M,-33.324,M,,*7B
2017-11-16 17:19:54 1510870794.850291: $GPRMC,221953,A,3946.9570,N,08404.9831,W,0.0000,0.000,161117,,*38
2017-11-16 17:19:54 1510870794.850346: $GPGSA,A,3,1,10,22,12,14,18,24,11,25,31,32,138,1.6,0.8,1.3*38
2017-11-16 17:19:55 1510870795.400926: $GPZDA,221954.00,16,11,2017,00,00*6C
2017-11-16 17:19:55 1510870795.401080: $GPGGA,221954,3946.9570,N,08404.9831,W,2,12,0.80,309.16,M,-33.324,M,,*7C
2017-11-16 17:19:55 1510870795.401142: $GPRMC,221954,A,3946.9570,N,08404.9831,W,0.0000,0.000,161117,,*3F
2017-11-16 17:19:55 1510870795.401197: $GPGSA,A,3,1,10,22,12,14,18,24,11,25,31,32,138,1.6,0.8,1.3*38
2017-11-16 17:19:56 1510870796.415647: $GPZDA,221955.00,16,11,2017,00,00*6D
2017-11-16 17:19:56 1510870796.415787: $GPGGA,221955,3946.9570,N,08404.9831,W,2,12,0.80,309.16,M,-33.324,M,,*7D
2017-11-16 17:19:56 1510870796.415847: $GPRMC,221955,A,3946.9570,N,08404.9831,W,0.0000,0.000,161117,,*3E
2017-11-16 17:19:56 1510870796.415904: $GPGSA,A,3,1,10,22,12,14,18,24,11,25,31,32,138,1.6,0.8,1.3*38
2017-11-16 17:19:57 1510870797.755868: $GPGSV,3,1,12,01,20,306,40,10,54,145,50,22,14,312,40,12,24,055,50*7E
2017-11-16 17:19:57 1510870797.756051: $GPGSV,3,2,12,14,63,316,48,18,24,142,42,24,02,048,11,11,10,288,41*73
2017-11-16 17:19:57 1510870797.756112: $GPGSV,3,3,12,25,38,097,48,31,49,220,50,32,70,010,49,138,38,213,44*45
2017-11-16 17:19:57 1510870797.869459: $GPZDA,221956.00,16,11,2017,00,00*6E
2017-11-16 17:19:57 1510870797.869606: $GPGGA,221956,3946.9570,N,08404.9831,W,2,12,0.80,309.16,M,-33.324,M,,*7E
2017-11-16 17:19:57 1510870797.869716: $GPRMC,221956,A,3946.9570,N,08404.9831,W,0.0000,0.000,161117,,*3D
2017-11-16 17:19:57 1510870797.869773: $GPGSA,A,3,1,10,22,12,14,18,24,11,25,31,32,138,1.6,0.8,1.3*38
2017-11-16 17:19:58 1510870798.420475: $GPZDA,221957.00,16,11,2017,00,00*6F
2017-11-16 17:19:58 1510870798.420636: $GPGGA,221957,3946.9570,N,08404.9831,W,2,12,0.80,309.16,M,-33.324,M,,*7F
2017-11-16 17:19:58 1510870798.420697: $GPRMC,221957,A,3946.9570,N,08404.9831,W,0.0000,0.000,161117,,*3C
2017-11-16 17:19:58 1510870798.420753: $GPGSA,A,3,1,10,22,12,14,18,24,11,25,31,32,138,1.6,0.8,1.3*38
2017-11-16 17:19:59 1510870799.419751: $GPZDA,221958.00,16,11,2017,00,00*60
2017-11-16 17:19:59 1510870799.419912: $GPGGA,221958,3946.9570,N,08404.9831,W,2,12,0.80,309.16,M,-33.324,M,,*70
2017-11-16 17:19:59 1510870799.419972: $GPRMC,221958,A,3946.9570,N,08404.9831,W,0.0000,0.000,161117,,*33
2017-11-16 17:19:59 1510870799.420028: $GPGSA,A,3,1,10,22,12,14,18,24,11,25,31,32,138,1.6,0.8,1.3*38
2017-11-16 17:20:00 1510870800.738068: $GPGSV,3,1,12,01,20,306,40,10,54,145,49,22,14,312,40,12,24,055,49*7E
2017-11-16 17:20:00 1510870800.738234: $GPGSV,3,2,12,14,63,316,48,18,24,142,42,24,02,048,12,11,10,288,40*71
2017-11-16 17:20:00 1510870800.738294: $GPGSV,3,3,12,25,38,097,48,31,49,220,50,32,70,010,49,138,38,213,44*45
2017-11-16 17:20:00 1510870800.851355: $GPZDA,221959.00,16,11,2017,00,00*61
2017-11-16 17:20:00 1510870800.851495: $GPGGA,221959,3946.9570,N,08404.9831,W,2,12,0.80,309.16,M,-33.324,M,,*71
2017-11-16 17:20:00 1510870800.851555: $GPRMC,221959,A,3946.9570,N,08404.9831,W,0.0000,0.000,161117,,*32
2017-11-16 17:20:00 1510870800.851610: $GPGSA,A,3,1,10,22,12,14,18,24,11,25,31,32,138,1.6,0.8,1.3*38
