2018-01-12 02:32:31 1515742351.133532: {"class":"VERSION","release":"3.16","rev":"3.16-4","proto_major":3,"proto_minor":11}
2018-01-12 02:32:31 1515742351.133905: {"class":"DEVICES","devices":[{"class":"DEVICE","path":"/dev/ttyUSB0","driver":"SiRF","subtype":"9\u0006GSD4e_4.1.2-P1_RPATCH.05-F-GPS-4R-1510281 11/03/2015 307","activated":"2018-01-12T07:32:30.969Z","flags":1,"native":1,"bps":4800,"parity":"N","stopbits":1,"cycle":1.00}]}
2018-01-12 02:32:31 1515742351.134016: {"class":"WATCH","enable":true,"json":false,"nmea":true,"raw":0,"scaled":false,"timing":false,"split24":false,"pps":false}
2018-01-12 02:32:31 1515742351.375623: $GPZDA,073232.00,12,01,2018,00,00*68
2018-01-12 02:32:31 1515742351.375798: $GPGGA,073232,3946.9593,N,08404.9845,W,2,10,0.80,299.36,M,-33.324,M,,*74
2018-01-12 02:32:31 1515742351.375865: $GPRMC,073232,A,3946.9593,N,08404.9845,W,0.0000,0.000,120118,,*35
2018-01-12 02:32:31 1515742351.375926: $GPGSA,A,3,2,3,6,12,17,19,24,28,23,138,,,2.4,0.8,2.1*32
2018-01-12 02:32:32 1515742352.379985: $GPZDA,073233.00,12,01,2018,00,00*69
2018-01-12 02:32:32 1515742352.380208: $GPGGA,073233,3946.9593,N,08404.9845,W,2,10,0.80,299.36,M,-33.324,M,,*75
2018-01-12 02:32:32 1515742352.380279: $GPRMC,073233,A,3946.9593,N,08404.9845,W,0.0000,0.000,120118,,*34
2018-01-12 02:32:32 1515742352.380363: $GPGSA,A,3,2,3,6,12,17,19,24,28,23,138,,,2.4,0.8,2.1*32
2018-01-12 02:32:33 1515742353.713072: $GPGSV,3,1,12,02,45,249,44,03,15,040,44,06,79,291,52,12,30,315,50*70
2018-01-12 02:32:33 1515742353.713254: $GPGSV,3,2,12,17,51,075,43,19,66,045,43,24,17,268,37,28,16,150,38*78
2018-01-12 02:32:33 1515742353.713320: $GPGSV,3,3,12,23,02,078,28,04,16,240,00,05,01,195,00,138,38,213,37*45
2018-01-12 02:32:33 1515742353.826453: $GPZDA,073234.00,12,01,2018,00,00*6E
2018-01-12 02:32:33 1515742353.826631: $GPGGA,073234,3946.9593,N,08404.9845,W,2,10,0.80,299.36,M,-33.324,M,,*72
2018-01-12 02:32:33 1515742353.826699: $GPRMC,073234,A,3946.9593,N,08404.9845,W,0.0000,0.000,120118,,*33
2018-01-12 02:32:33 1515742353.826760: $GPGSA,A,3,2,3,6,12,17,19,24,28,23,138,,,2.4,0.8,2.1*32
2018-01-12 02:32:34 1515742354.452238: $GPZDA,073235.00,12,01,2018,00,00*6F
2018-01-12 02:32:34 1515742354.452407: $GPGGA,073235,3946.9593,N,08404.9845,W,2,10,0.80,299.36,M,-33.324,M,,*73
2018-01-12 02:32:34 1515742354.452474: $GPRMC,073235,A,3946.9593,N,08404.9845,W,0.3423,184.196,120118,,*37
2018-01-12 02:32:34 1515742354.452536: $GPGSA,A,3,2,3,6,12,17,19,24,28,23,138,,,2.4,0.8,2.1*32
2018-01-12 02:32:35 1515742355.375269: $GPZDA,073236.00,12,01,2018,00,00*6C
2018-01-12 02:32:35 1515742355.375440: $GPGGA,073236,3946.9593,N,08404.9845,W,2,10,0.80,299.36,M,-33.324,M,,*70
2018-01-12 02:32:35 1515742355.375507: $GPRMC,073236,A,3946.9593,N,08404.9845,W,0.3423,184.196,120118,,*34
2018-01-12 02:32:35 1515742355.375568: $GPGSA,A,3,2,3,6,12,17,19,24,28,23,138,,,2.4,0.8,2.1*32
2018-01-12 02:32:36 1515742356.709708: $GPGSV,3,1,12,02,45,249,43,03,15,040,43,06,79,291,51,12,30,315,48*7A
2018-01-12 02:32:36 1515742356.709892: $GPGSV,3,2,12,17,51,075,43,19,66,045,43,24,17,268,36,28,16,150,36*77
2018-01-12 02:32:36 1515742356.709958: $GPGSV,3,3,12,23,02,078,29,04,16,240,00,05,01,195,00,138,38,213,41*45
2018-01-12 02:32:36 1515742356.823335: $GPZDA,073237.00,12,01,2018,00,00*6D
2018-01-12 02:32:36 1515742356.823503: $GPGGA,073237,3946.9593,N,08404.9844,W,2,10,0.80,297.95,M,-33.324,M,,*77
2018-01-12 02:32:36 1515742356.823570: $GPRMC,073237,A,3946.9593,N,08404.9844,W,0.0000,0.000,120118,,*31
2018-01-12 02:32:36 1515742356.823630: $GPGSA,A,3,2,3,6,12,17,19,24,28,23,138,,,2.4,0.8,2.1*32
2018-01-12 02:32:37 1515742357.372939: $GPZDA,073238.00,12,01,2018,00,00*62
2018-01-12 02:32:37 1515742357.373107: $GPGGA,073238,3946.9593,N,08404.9844,W,2,10,0.80,297.95,M,-33.324,M,,*78
2018-01-12 02:32:37 1515742357.373173: $GPRMC,073238,A,3946.9593,N,08404.9844,W,0.0000,0.000,120118,,*3E
2018-01-12 02:32:37 1515742357.373234: $GPGSA,A,3,2,3,6,12,17,19,24,28,23,138,,,2.4,0.8,2.1*32
2018-01-12 02:32:38 1515742358.376415: $GPZDA,073239.00,12,01,2018,00,00*63
2018-01-12 02:32:38 1515742358.376598: $GPGGA,073239,3946.9593,N,08404.9844,W,2,10,0.80,297.95,M,-33.324,M,,*79
2018-01-12 02:32:38 1515742358.376720: $GPRMC,073239,A,3946.9593,N,08404.9844,W,0.0000,0.000,120118,,*3F
2018-01-12 02:32:38 1515742358.376783: $GPGSA,A,3,2,3,6,12,17,19,24,28,23,138,,,2.4,0.8,2.1*32
2018-01-12 02:32:38 1515742358.376841: $GPGBS,073239,3.00,M,3.62,M,11.97,M*08
2018-01-12 02:32:39 1515742359.711204: $GPGSV,3,1,12,02,45,249,42,03,15,040,43,06,79,291,51,12,30,315,49*7A
2018-01-12 02:32:39 1515742359.711382: $GPGSV,3,2,12,17,51,075,42,19,66,045,44,24,17,268,38,28,16,150,36*7F
2018-01-12 02:32:39 1515742359.711448: $GPGSV,3,3,12,23,02,078,28,04,16,240,00,05,01,195,00,138,38,213,34*46
2018-01-12 02:32:39 1515742359.825198: $GPZDA,073240.00,12,01,2018,00,00*6D
2018-01-12 02:32:39 1515742359.825365: $GPGGA,073240,3946.9593,N,08404.9844,W,2,10,0.80,297.95,M,-33.324,M,,*77
2018-01-12 02:32:39 1515742359.825431: $GPRMC,073240,A,3946.9593,N,08404.9844,W,0.0000,0.000,120118,,*31
2018-01-12 02:32:39 1515742359.825492: $GPGSA,A,3,2,3,6,12,17,19,24,28,23,138,,,2.4,0.8,2.1*32
2018-01-12 02:32:40 1515742360.375753: $GPZDA,073241.00,12,01,2018,00,00*6C
2018-01-12 02:32:40 1515742360.375923: $GPGGA,073241,3946.9593,N,08404.9844,W,2,10,0.80,297.95,M,-33.324,M,,*76
2018-01-12 02:32:40 1515742360.375990: $GPRMC,073241,A,3946.9593,N,08404.9844,W,0.0000,0.000,120118,,*30
2018-01-12 02:32:40 1515742360.376051: $GPGSA,A,3,2,3,6,12,17,19,24,28,23,138,,,2.4,0.8,2.1*32
2018-01-12 02:32:41 1515742361.380668: $GPZDA,073242.00,12,01,2018,00,00*6F
2018-01-12 02:32:41 1515742361.380841: $GPGGA,073242,3946.9593,N,08404.9844,W,2,10,0.80,297.95,M,-33.324,M,,*75
2018-01-12 02:32:41 1515742361.380907: $GPRMC,073242,A,3946.9593,N,08404.9844,W,0.0000,0.000,120118,,*33
2018-01-12 02:32:41 1515742361.380968: $GPGSA,A,3,2,3,6,12,17,19,24,28,23,138,,,2.4,0.8,2.1*32
2018-01-12 02:32:42 1515742362.712060: $GPGSV,3,1,12,02,45,249,43,03,15,040,42,06,79,291,51,12,30,315,49*7A
2018-01-12 02:32:42 1515742362.712246: $GPGSV,3,2,12,17,51,075,43,19,66,045,44,24,17,268,38,28,16,150,36*7E
2018-01-12 02:32:42 1515742362.712314: $GPGSV,3,3,12,23,02,078,27,04,16,240,00,05,01,195,00,138,38,213,37*4A
2018-01-12 02:32:42 1515742362.825523: $GPZDA,073243.00,12,01,2018,00,00*6E
2018-01-12 02:32:42 1515742362.825704: $GPGGA,073243,3946.9593,N,08404.9844,W,2,10,0.80,297.95,M,-33.324,M,,*74
2018-01-12 02:32:42 1515742362.825774: $GPRMC,073243,A,3946.9593,N,08404.9844,W,0.0000,0.000,120118,,*32
2018-01-12 02:32:42 1515742362.825835: $GPGSA,A,3,2,3,6,12,17,19,24,28,23,138,,,2.4,0.8,2.1*32
2018-01-12 02:32:43 1515742363.382573: $GPZDA,073244.00,12,01,2018,00,00*69
2018-01-12 02:32:43 1515742363.382765: $GPGGA,073244,3946.9593,N,08404.9844,W,2,10,0.80,297.95,M,-33.324,M,,*73
2018-01-12 02:32:43 1515742363.382832: $GPRMC,073244,A,3946.9593,N,08404.9844,W,0.0000,0.000,120118,,*35
2018-01-12 02:32:43 1515742363.382892: $GPGSA,A,3,2,3,6,12,17,19,24,28,23,138,,,2.4,0.8,2.1*32
2018-01-12 02:32:44 1515742364.374304: $GPZDA,073245.00,12,01,2018,00,00*68
2018-01-12 02:32:44 1515742364.374478: $GPGGA,073245,3946.9593,N,08404.9844,W,2,10,0.80,297.95,M,-33.324,M,,*72
2018-01-12 02:32:44 1515742364.374547: $GPRMC,073245,A,3946.9593,N,08404.9844,W,0.0000,0.000,120118,,*34
2018-01-12 02:32:44 1515742364.374608: $GPGSA,A,3,2,3,6,12,17,19,24,28,23,138,,,2.4,0.8,2.1*32
2018-01-12 02:32:45 1515742365.709896: $GPGSV,3,1,12,02,45,249,42,03,15,040,42,06,79,291,51,12,30,315,49*7B
2018-01-12 02:32:45 1515742365.710072: $GPGSV,3,2,12,17,51,075,43,19,66,045,44,24,17,268,38,28,16,150,36*7E
2018-01-12 02:32:45 1515742365.710138: $GPGSV,3,3,12,23,02,078,27,04,16,240,00,05,01,195,00,138,38,213,39*44
2018-01-12 02:32:45 1515742365.823253: $GPZDA,073246.00,12,01,2018,00,00*6B
2018-01-12 02:32:45 1515742365.823415: $GPGGA,073246,3946.9593,N,08404.9844,W,2,10,1.00,297.95,M,-33.324,M,,*78
2018-01-12 02:32:45 1515742365.823483: $GPRMC,073246,A,3946.9593,N,08404.9844,W,0.0000,0.000,120118,,*37
2018-01-12 02:32:45 1515742365.823545: $GPGSA,A,3,2,3,6,12,17,19,24,28,23,138,,,2.4,1.0,2.1*3B
2018-01-12 02:32:46 1515742366.377078: $GPZDA,073247.00,12,01,2018,00,00*6A
2018-01-12 02:32:46 1515742366.377238: $GPGGA,073247,3946.9593,N,08404.9844,W,2,10,1.20,297.95,M,-33.324,M,,*7B
2018-01-12 02:32:46 1515742366.377305: $GPRMC,073247,A,3946.9593,N,08404.9844,W,0.0000,0.000,120118,,*36
2018-01-12 02:32:46 1515742366.377365: $GPGSA,A,3,2,3,6,12,17,19,24,28,23,138,,,2.4,1.2,2.1*39
2018-01-12 02:32:47 1515742367.381582: $GPZDA,073248.00,12,01,2018,00,00*65
2018-01-12 02:32:47 1515742367.381759: $GPGGA,073248,3946.9593,N,08404.9844,W,2,10,0.80,297.95,M,-33.324,M,,*7F
2018-01-12 02:32:47 1515742367.381826: $GPRMC,073248,A,3946.9593,N,08404.9844,W,0.0000,0.000,120118,,*39
2018-01-12 02:32:47 1515742367.381887: $GPGSA,A,3,2,3,6,12,17,19,24,28,23,138,,,2.4,0.8,2.1*32
2018-01-12 02:32:48 1515742368.715791: $GPGSV,3,1,12,02,45,249,43,03,15,040,42,06,79,291,51,12,30,315,49*7A
2018-01-12 02:32:48 1515742368.715975: $GPGSV,3,2,12,17,51,075,43,19,66,045,44,24,17,268,38,28,16,150,36*7E
2018-01-12 02:32:48 1515742368.716040: $GPGSV,3,3,12,23,02,078,21,05,01,195,14,04,16,240,00,138,38,213,38*46
2018-01-12 02:32:48 1515742368.829293: $GPZDA,073249.00,12,01,2018,00,00*64
2018-01-12 02:32:48 1515742368.829439: $GPGGA,073249,3946.9589,N,08404.9851,W,2,10,0.80,297.23,M,-33.324,M,,*7C
2018-01-12 02:32:48 1515742368.829504: $GPRMC,073249,A,3946.9589,N,08404.9851,W,0.0000,0.000,120118,,*37
2018-01-12 02:32:48 1515742368.829564: $GPGSA,A,3,2,3,6,12,17,19,24,28,23,138,,,2.4,0.8,2.1*32
2018-01-12 02:32:49 1515742369.457181: $GPZDA,073250.00,12,01,2018,00,00*6C
2018-01-12 02:32:49 1515742369.457363: $GPGGA,073250,3946.9588,N,08404.9844,W,2,10,0.80,297.31,M,-33.324,M,,*72
2018-01-12 02:32:49 1515742369.457431: $GPRMC,073250,A,3946.9588,N,08404.9844,W,0.0000,0.000,120118,,*3A
2018-01-12 02:32:49 1515742369.457493: $GPGSA,A,3,2,3,6,12,17,19,24,28,23,138,,,2.4,0.8,2.1*32
2018-01-12 02:32:50 1515742370.375645: $GPZDA,073251.00,12,01,2018,00,00*6D
2018-01-12 02:32:50 1515742370.375824: $GPGGA,073251,3946.9588,N,08404.9844,W,2,10,0.80,297.31,M,-33.324,M,,*73
2018-01-12 02:32:50 1515742370.375893: $GPRMC,073251,A,3946.9588,N,08404.9844,W,0.0000,0.000,120118,,*3B
2018-01-12 02:32:50 1515742370.375954: $GPGSA,A,3,2,3,6,12,17,19,24,28,23,138,,,2.4,0.8,2.1*32
