2017-11-16 17:11:51 1510870311.840333: {"class":"VERSION","release":"3.17","rev":"3.17","proto_major":3,"proto_minor":12}
2017-11-16 17:11:51 1510870311.840786: {"class":"DEVICES","devices":[{"class":"DEVICE","path":"/dev/ttyUSB0","driver":"SiRF","subtype":"9\u0006GSD4e_4.1.2-P1_RPATCH.05-F-GPS-4R-1510281 11/03/2015 307","activated":"2017-11-16T22:11:51.751Z","flags":1,"native":1,"bps":4800,"parity":"N","stopbits":1,"cycle":1.00}]}
2017-11-16 17:11:51 1510870311.840905: {"class":"WATCH","enable":true,"json":false,"nmea":true,"raw":0,"scaled":false,"timing":false,"split24":false,"pps":false}
2017-11-16 17:11:51 1510870311.864927: $GPZDA,221150.00,16,11,2017,00,00*60
2017-11-16 17:11:51 1510870311.865102: $GPGGA,221150,3946.9568,N,08404.9826,W,2,12,0.80,312.81,M,-33.324,M,,*7B
2017-11-16 17:11:51 1510870311.865165: $GPRMC,221150,A,3946.9568,N,08404.9826,W,0.0000,0.000,161117,,*3C
2017-11-16 17:11:51 1510870311.865221: $GPGSA,A,3,1,10,24,12,14,18,22,11,25,31,32,138,1.6,0.8,1.3*38
2017-11-16 17:11:52 1510870312.410987: $GPZDA,221151.00,16,11,2017,00,00*61
2017-11-16 17:11:52 1510870312.411153: $GPGGA,221151,3946.9568,N,08404.9826,W,2,12,0.80,312.81,M,-33.324,M,,*7A
2017-11-16 17:11:52 1510870312.411214: $GPRMC,221151,A,3946.9568,N,08404.9826,W,0.0000,0.000,161117,,*3D
2017-11-16 17:11:52 1510870312.411270: $GPGSA,A,3,1,10,24,12,14,18,22,11,25,31,32,138,1.6,0.8,1.3*38
2017-11-16 17:11:53 1510870313.399220: $GPZDA,221152.00,16,11,2017,00,00*62
2017-11-16 17:11:53 1510870313.399388: $GPGGA,221152,3946.9568,N,08404.9826,W,2,12,0.80,312.81,M,-33.324,M,,*79
2017-11-16 17:11:53 1510870313.399453: $GPRMC,221152,A,3946.9568,N,08404.9826,W,0.0000,0.000,161117,,*3E
2017-11-16 17:11:53 1510870313.399512: $GPGSA,A,3,1,10,24,12,14,18,22,11,25,31,32,138,1.6,0.8,1.3*38
2017-11-16 17:11:54 1510870314.752599: $GPGSV,3,1,12,01,19,310,43,10,59,142,48,24,05,046,27,12,25,060,50*71
2017-11-16 17:11:54 1510870314.752773: $GPGSV,3,2,12,14,61,309,47,18,28,141,46,22,11,312,44,11,10,291,40*7A
2017-11-16 17:11:54 1510870314.752832: $GPGSV,3,3,12,25,36,103,47,31,45,217,50,32,70,358,49,138,38,213,44*4F
2017-11-16 17:11:54 1510870314.866225: $GPZDA,221153.00,16,11,2017,00,00*63
2017-11-16 17:11:54 1510870314.866411: $GPGGA,221153,3946.9564,N,08404.9827,W,2,12,0.80,313.57,M,-33.324,M,,*7F
2017-11-16 17:11:54 1510870314.866472: $GPRMC,221153,A,3946.9564,N,08404.9827,W,0.0000,0.000,161117,,*32
2017-11-16 17:11:54 1510870314.866548: $GPGSA,A,3,1,10,24,12,14,18,22,11,25,31,32,138,1.6,0.8,1.3*38
2017-11-16 17:11:55 1510870315.416751: $GPZDA,221154.00,16,11,2017,00,00*64
2017-11-16 17:11:55 1510870315.416930: $GPGGA,221154,3946.9564,N,08404.9827,W,2,12,0.80,313.57,M,-33.324,M,,*78
2017-11-16 17:11:55 1510870315.416991: $GPRMC,221154,A,3946.9564,N,08404.9827,W,0.0000,0.000,161117,,*35
2017-11-16 17:11:55 1510870315.417047: $GPGSA,A,3,1,10,24,12,14,18,22,11,25,31,32,138,1.6,0.8,1.3*38
2017-11-16 17:11:56 1510870316.410864: $GPZDA,221155.00,16,11,2017,00,00*65
2017-11-16 17:11:56 1510870316.411025: $GPGGA,221155,3946.9564,N,08404.9820,W,2,12,0.80,313.65,M,-33.324,M,,*7F
2017-11-16 17:11:56 1510870316.411086: $GPRMC,221155,A,3946.9564,N,08404.9820,W,0.0000,0.000,161117,,*33
2017-11-16 17:11:56 1510870316.411141: $GPGSA,A,3,1,10,24,12,14,18,22,11,25,31,32,138,1.6,0.8,1.3*38
2017-11-16 17:11:57 1510870317.735591: $GPGSV,3,1,12,01,19,310,43,10,59,142,48,24,05,046,27,12,25,060,50*71
2017-11-16 17:11:57 1510870317.735918: $GPGSV,3,2,12,14,61,309,47,18,28,141,45,22,11,312,44,11,10,291,40*79
2017-11-16 17:11:57 1510870317.736044: $GPGSV,3,3,12,25,36,103,47,31,45,217,49,32,70,358,50,138,38,213,44*4F
2017-11-16 17:11:57 1510870317.848810: $GPZDA,221156.00,16,11,2017,00,00*66
2017-11-16 17:11:57 1510870317.848994: $GPGGA,221156,3946.9564,N,08404.9820,W,2,12,0.80,313.65,M,-33.324,M,,*7C
2017-11-16 17:11:57 1510870317.849055: $GPRMC,221156,A,3946.9564,N,08404.9820,W,0.0000,0.000,161117,,*30
2017-11-16 17:11:57 1510870317.849111: $GPGSA,A,3,1,10,24,12,14,18,22,11,25,31,32,138,1.6,0.8,1.3*38
2017-11-16 17:11:58 1510870318.398343: $GPZDA,221157.00,16,11,2017,00,00*67
2017-11-16 17:11:58 1510870318.429027: $GPGGA,221157,3946.9564,N,08404.9820,W,2,12,0.80,313.65,M,-33.324,M,,*7D
2017-11-16 17:11:58 1510870318.429163: $GPRMC,221157,A,3946.9564,N,08404.9820,W,0.0000,0.000,161117,,*31
2017-11-16 17:11:58 1510870318.429221: $GPGSA,A,3,1,10,24,12,14,18,22,11,25,31,32,138,1.6,0.8,1.3*38
2017-11-16 17:11:59 1510870319.399203: $GPZDA,221158.00,16,11,2017,00,00*68
2017-11-16 17:11:59 1510870319.399365: $GPGGA,221158,3946.9564,N,08404.9820,W,2,12,0.80,313.65,M,-33.324,M,,*72
2017-11-16 17:11:59 1510870319.399427: $GPRMC,221158,A,3946.9564,N,08404.9820,W,0.0000,0.000,161117,,*3E
2017-11-16 17:11:59 1510870319.399483: $GPGSA,A,3,1,10,24,12,14,18,22,11,25,31,32,138,1.6,0.8,1.3*38
2017-11-16 17:12:00 1510870320.736261: $GPGSV,3,1,12,01,19,310,42,10,59,142,48,24,05,046,26,12,25,060,49*79
2017-11-16 17:12:00 1510870320.736427: $GPGSV,3,2,12,14,61,309,47,18,28,141,45,22,11,312,43,11,10,291,39*70
2017-11-16 17:12:00 1510870320.736487: $GPGSV,3,3,12,25,36,103,46,31,45,217,49,32,70,358,49,138,38,213,44*46
2017-11-16 17:12:00 1510870320.849614: $GPZDA,221159.00,16,11,2017,00,00*69
2017-11-16 17:12:00 1510870320.849802: $GPGGA,221159,3946.9564,N,08404.9820,W,2,12,0.80,313.65,M,-33.324,M,,*73
2017-11-16 17:12:00 1510870320.849862: $GPRMC,221159,A,3946.9564,N,08404.9820,W,0.0000,0.000,161117,,*3F
2017-11-16 17:12:00 1510870320.849918: $GPGSA,A,3,1,10,24,12,14,18,22,11,25,31,32,138,1.6,0.8,1.3*38
2017-11-16 17:12:01 1510870321.474955: $GPZDA,221200.00,16,11,2017,00,00*66
2017-11-16 17:12:01 1510870321.475216: $GPGGA,221200,3946.9564,N,08404.9820,W,2,12,0.80,313.65,M,-33.324,M,,*7C
2017-11-16 17:12:01 1510870321.475281: $GPRMC,221200,A,3946.9564,N,08404.9820,W,0.0000,0.000,161117,,*30
2017-11-16 17:12:01 1510870321.475337: $GPGSA,A,3,1,10,24,12,14,18,22,11,25,31,32,138,1.6,0.8,1.3*38
