2017-12-01 17:38:31 1512167911.166848: {"class":"VERSION","release":"3.16","rev":"3.16-4","proto_major":3,"proto_minor":11}
2017-12-01 17:38:31 1512167911.167296: {"class":"DEVICES","devices":[{"class":"DEVICE","path":"/dev/ttyUSB0","driver":"SiRF","subtype":"9\u0006GSD4e_4.1.2-P1_RPATCH.05-F-GPS-4R-1510281 11/03/2015 307","activated":"2017-12-01T22:38:31.161Z","flags":1,"native":1,"bps":4800,"parity":"N","stopbits":1,"cycle":1.00}]}
2017-12-01 17:38:31 1512167911.167500: {"class":"WATCH","enable":true,"json":false,"nmea":true,"raw":0,"scaled":false,"timing":false,"split24":false,"pps":false}
2017-12-01 17:38:32 1512167912.150314: $GPZDA,223832.38,01,12,2017,00,00*61
2017-12-01 17:38:32 1512167912.150505: $GPGGA,223832,3946.9710,N,08404.9832,W,1,12,1.00,295.32,M,-33.325,M,,*71
2017-12-01 17:38:32 1512167912.150573: $GPRMC,223832,A,3946.9710,N,08404.9832,W,0.3106,69.940,011217,,*08
2017-12-01 17:38:32 1512167912.150636: $GPGSA,A,3,1,3,10,14,22,25,26,31,32,12,16,138,2.0,1.0,1.5*0D
2017-12-01 17:38:32 1512167912.150694: $GPGBS,223832,10.70,M,15.43,M,35.28,M*0D
2017-12-01 17:38:33 1512167913.316220: $GPGSV,3,1,12,01,16,270,44,03,25,313,46,10,16,157,43,14,67,054,43*7C
2017-12-01 17:38:33 1512167913.316438: $GPGSV,3,2,12,22,43,298,47,25,33,052,42,26,32,177,43,31,80,316,46*75
2017-12-01 17:38:33 1512167913.316506: $GPGSV,3,3,12,32,51,087,45,12,03,030,08,16,04,190,07,138,38,213,20*45
2017-12-01 17:38:33 1512167913.428667: $GPZDA,223833.00,01,12,2017,00,00*6B
2017-12-01 17:38:33 1512167913.428813: $GPGGA,223833,3946.9713,N,08404.9832,W,1,10,1.00,294.56,M,-33.325,M,,*72
2017-12-01 17:38:33 1512167913.428882: $GPRMC,223833,A,3946.9713,N,08404.9832,W,0.1567,9.200,011217,,*32
2017-12-01 17:38:33 1512167913.428941: $GPGSA,A,3,1,3,10,14,22,25,26,31,32,138,,,2.0,1.0,1.5*09
2017-12-01 17:38:33 1512167913.880456: $GPZDA,223834.00,01,12,2017,00,00*6C
2017-12-01 17:38:33 1512167913.880623: $GPGGA,223834,3946.9718,N,08404.9832,W,1,10,1.00,295.20,M,-33.325,M,,*7E
2017-12-01 17:38:33 1512167913.880691: $GPRMC,223834,A,3946.9718,N,08404.9832,W,0.3423,4.197,011217,,*3D
2017-12-01 17:38:33 1512167913.880752: $GPGSA,A,3,1,3,10,14,22,25,26,31,32,138,,,2.0,1.0,1.5*09
2017-12-01 17:38:34 1512167914.436315: $GPZDA,223835.00,01,12,2017,00,00*6D
2017-12-01 17:38:34 1512167914.436509: $GPGGA,223835,3946.9718,N,08404.9832,W,1,10,1.00,295.20,M,-33.325,M,,*7F
2017-12-01 17:38:34 1512167914.436579: $GPRMC,223835,A,3946.9718,N,08404.9832,W,0.0000,0.000,011217,,*31
2017-12-01 17:38:34 1512167914.436642: $GPGSA,A,3,1,3,10,14,22,25,26,31,32,138,,,2.0,1.0,1.5*09
2017-12-01 17:38:35 1512167915.771611: $GPGSV,3,1,12,01,16,270,43,03,25,313,45,10,16,157,43,14,67,054,41*7A
2017-12-01 17:38:35 1512167915.771796: $GPGSV,3,2,12,22,43,298,47,25,33,052,40,26,32,177,42,31,80,316,45*75
2017-12-01 17:38:35 1512167915.771864: $GPGSV,3,3,12,32,51,087,44,12,03,030,21,16,04,190,23,138,38,213,46*49
2017-12-01 17:38:35 1512167915.884917: $GPZDA,223836.00,01,12,2017,00,00*6E
2017-12-01 17:38:35 1512167915.885090: $GPGGA,223836,3946.9718,N,08404.9832,W,1,12,1.00,295.20,M,-33.325,M,,*7E
2017-12-01 17:38:35 1512167915.885157: $GPRMC,223836,A,3946.9718,N,08404.9832,W,0.0000,0.000,011217,,*32
2017-12-01 17:38:35 1512167915.885220: $GPGSA,A,3,1,3,10,14,22,25,26,31,32,12,16,138,2.0,1.0,1.5*0D
2017-12-01 17:38:36 1512167916.436046: $GPZDA,223837.00,01,12,2017,00,00*6F
2017-12-01 17:38:36 1512167916.436222: $GPGGA,223837,3946.9718,N,08404.9839,W,1,12,1.00,295.12,M,-33.325,M,,*75
2017-12-01 17:38:36 1512167916.436289: $GPRMC,223837,A,3946.9718,N,08404.9839,W,0.0000,0.000,011217,,*38
2017-12-01 17:38:36 1512167916.436354: $GPGSA,A,3,1,3,10,14,22,25,26,31,32,12,16,138,2.0,1.0,1.5*0D
2017-12-01 17:38:37 1512167917.436645: $GPZDA,223838.00,01,12,2017,00,00*60
2017-12-01 17:38:37 1512167917.436809: $GPGGA,223838,3946.9718,N,08404.9839,W,1,12,1.00,295.12,M,-33.325,M,,*7A
2017-12-01 17:38:37 1512167917.436875: $GPRMC,223838,A,3946.9718,N,08404.9839,W,0.0000,0.000,011217,,*37
2017-12-01 17:38:37 1512167917.436938: $GPGSA,A,3,1,3,10,14,22,25,26,31,32,12,16,138,2.0,1.0,1.5*0D
2017-12-01 17:38:37 1512167917.437049: $GPGBS,223838,10.70,M,15.43,M,35.28,M*07
2017-12-01 17:38:38 1512167918.773555: $GPGSV,3,1,12,01,16,270,43,03,25,313,45,10,16,157,43,14,67,054,40*7B
2017-12-01 17:38:38 1512167918.773738: $GPGSV,3,2,12,22,43,298,48,25,33,052,41,26,32,177,43,31,80,316,45*7A
2017-12-01 17:38:38 1512167918.773805: $GPGSV,3,3,12,32,51,087,45,12,03,030,21,16,04,190,24,138,38,213,45*4C
2017-12-01 17:38:38 1512167918.887121: $GPZDA,223839.00,01,12,2017,00,00*61
2017-12-01 17:38:38 1512167918.887301: $GPGGA,223839,3946.9718,N,08404.9839,W,1,12,0.80,295.12,M,-33.325,M,,*72
2017-12-01 17:38:38 1512167918.887369: $GPRMC,223839,A,3946.9718,N,08404.9839,W,0.0000,0.000,011217,,*36
2017-12-01 17:38:38 1512167918.887433: $GPGSA,A,3,1,3,10,14,22,25,26,31,32,12,16,138,2.0,0.8,1.5*04
2017-12-01 17:38:39 1512167919.437994: $GPZDA,223840.00,01,12,2017,00,00*6F
2017-12-01 17:38:39 1512167919.438176: $GPGGA,223840,3946.9718,N,08404.9839,W,1,12,0.80,295.12,M,-33.325,M,,*7C
2017-12-01 17:38:39 1512167919.438247: $GPRMC,223840,A,3946.9718,N,08404.9839,W,0.0000,0.000,011217,,*38
2017-12-01 17:38:39 1512167919.438312: $GPGSA,A,3,1,3,10,14,22,25,26,31,32,12,16,138,2.0,0.8,1.5*04
2017-12-01 17:38:40 1512167920.442200: $GPZDA,223841.00,01,12,2017,00,00*6E
2017-12-01 17:38:40 1512167920.442378: $GPGGA,223841,3946.9715,N,08404.9853,W,2,12,1.80,295.72,M,-33.325,M,,*78
2017-12-01 17:38:40 1512167920.442445: $GPRMC,223841,A,3946.9715,N,08404.9853,W,0.0000,0.000,011217,,*38
2017-12-01 17:38:40 1512167920.442508: $GPGSA,A,3,1,3,10,14,22,25,26,31,32,12,16,138,2.0,1.8,1.5*05
2017-12-01 17:38:41 1512167921.782604: $GPGSV,3,1,12,01,16,270,43,03,25,313,45,10,16,157,43,14,67,054,41*7A
2017-12-01 17:38:41 1512167921.782787: $GPGSV,3,2,12,22,43,298,48,25,33,052,41,26,32,177,43,31,80,316,46*79
2017-12-01 17:38:41 1512167921.782855: $GPGSV,3,3,12,32,51,087,45,12,03,030,21,16,04,190,24,138,38,213,45*4C
2017-12-01 17:38:41 1512167921.895965: $GPZDA,223842.00,01,12,2017,00,00*6D
2017-12-01 17:38:41 1512167921.896147: $GPGGA,223842,3946.9715,N,08404.9853,W,2,12,0.80,295.72,M,-33.325,M,,*7A
2017-12-01 17:38:41 1512167921.896215: $GPRMC,223842,A,3946.9715,N,08404.9853,W,0.0000,0.000,011217,,*3B
2017-12-01 17:38:41 1512167921.896281: $GPGSA,A,3,1,3,10,14,22,25,26,31,32,12,16,138,2.0,0.8,1.5*04
2017-12-01 17:38:42 1512167922.439344: $GPZDA,223843.00,01,12,2017,00,00*6C
2017-12-01 17:38:42 1512167922.439526: $GPGGA,223843,3946.9715,N,08404.9853,W,2,12,0.80,295.72,M,-33.325,M,,*7B
2017-12-01 17:38:42 1512167922.439595: $GPRMC,223843,A,3946.9715,N,08404.9853,W,0.0000,0.000,011217,,*3A
2017-12-01 17:38:42 1512167922.439658: $GPGSA,A,3,1,3,10,14,22,25,26,31,32,12,16,138,2.0,0.8,1.5*04
2017-12-01 17:38:43 1512167923.440458: $GPZDA,223844.00,01,12,2017,00,00*6B
2017-12-01 17:38:43 1512167923.440628: $GPGGA,223844,3946.9715,N,08404.9853,W,2,12,0.80,295.72,M,-33.325,M,,*7C
2017-12-01 17:38:43 1512167923.440695: $GPRMC,223844,A,3946.9715,N,08404.9853,W,0.0000,0.000,011217,,*3D
2017-12-01 17:38:43 1512167923.440758: $GPGSA,A,3,1,3,10,14,22,25,26,31,32,12,16,138,2.0,0.8,1.5*04
2017-12-01 17:38:44 1512167924.773611: $GPGSV,3,1,12,01,16,270,43,03,25,313,44,10,16,157,43,14,67,054,41*7B
2017-12-01 17:38:44 1512167924.773791: $GPGSV,3,2,12,22,43,298,48,25,33,052,41,26,32,177,43,31,80,316,46*79
2017-12-01 17:38:44 1512167924.773858: $GPGSV,3,3,12,32,51,087,44,12,03,030,22,16,04,190,24,138,38,213,46*4D
2017-12-01 17:38:44 1512167924.887154: $GPZDA,223845.00,01,12,2017,00,00*6A
2017-12-01 17:38:44 1512167924.887340: $GPGGA,223845,3946.9715,N,08404.9853,W,2,12,0.80,295.72,M,-33.325,M,,*7D
2017-12-01 17:38:44 1512167924.887408: $GPRMC,223845,A,3946.9715,N,08404.9853,W,0.0000,0.000,011217,,*3C
2017-12-01 17:38:44 1512167924.887471: $GPGSA,A,3,1,3,10,14,22,25,26,31,32,12,16,138,2.0,0.8,1.5*04
2017-12-01 17:38:45 1512167925.512597: $GPZDA,223846.00,01,12,2017,00,00*69
2017-12-01 17:38:45 1512167925.512770: $GPGGA,223846,3946.9715,N,08404.9853,W,2,12,0.80,295.72,M,-33.325,M,,*7E
2017-12-01 17:38:45 1512167925.512840: $GPRMC,223846,A,3946.9715,N,08404.9853,W,0.0000,0.000,011217,,*3F
2017-12-01 17:38:45 1512167925.512951: $GPGSA,A,3,1,3,10,14,22,25,26,31,32,12,16,138,2.0,0.8,1.5*04
2017-12-01 17:38:46 1512167926.449283: $GPZDA,223847.00,01,12,2017,00,00*68
2017-12-01 17:38:46 1512167926.449468: $GPGGA,223847,3946.9715,N,08404.9853,W,2,12,0.80,295.72,M,-33.325,M,,*7F
2017-12-01 17:38:46 1512167926.449535: $GPRMC,223847,A,3946.9715,N,08404.9853,W,0.0000,0.000,011217,,*3E
2017-12-01 17:38:46 1512167926.449598: $GPGSA,A,3,1,3,10,14,22,25,26,31,32,12,16,138,2.0,0.8,1.5*04
2017-12-01 17:38:47 1512167927.775102: $GPGSV,3,1,12,01,16,270,44,03,25,313,44,10,16,157,43,14,67,054,42*7F
2017-12-01 17:38:47 1512167927.775293: $GPGSV,3,2,12,22,43,298,48,25,33,052,40,26,32,177,43,31,80,316,46*78
2017-12-01 17:38:47 1512167927.775360: $GPGSV,3,3,12,32,51,087,45,12,03,030,23,16,04,190,24,138,38,213,46*4D
2017-12-01 17:38:47 1512167927.888646: $GPZDA,223848.00,01,12,2017,00,00*67
2017-12-01 17:38:47 1512167927.888832: $GPGGA,223848,3946.9719,N,08404.9853,W,2,12,0.80,294.96,M,-33.325,M,,*77
2017-12-01 17:38:47 1512167927.888900: $GPRMC,223848,A,3946.9719,N,08404.9853,W,0.0000,0.000,011217,,*3D
2017-12-01 17:38:47 1512167927.888961: $GPGSA,A,3,1,3,10,14,22,25,26,31,32,12,16,138,2.0,0.8,1.5*04
2017-12-01 17:38:48 1512167928.439311: $GPZDA,223849.00,01,12,2017,00,00*66
2017-12-01 17:38:48 1512167928.439486: $GPGGA,223849,3946.9725,N,08404.9838,W,2,12,0.80,294.99,M,-33.325,M,,*7B
2017-12-01 17:38:48 1512167928.439554: $GPRMC,223849,A,3946.9725,N,08404.9838,W,0.2422,93.794,011217,,*08
2017-12-01 17:38:48 1512167928.439615: $GPGSA,A,3,1,3,10,14,22,25,26,31,32,12,16,138,2.0,0.8,1.5*04
2017-12-01 17:38:49 1512167929.438822: $GPZDA,223850.00,01,12,2017,00,00*6E
2017-12-01 17:38:49 1512167929.438989: $GPGGA,223850,3946.9725,N,08404.9838,W,2,12,0.80,294.99,M,-33.325,M,,*73
2017-12-01 17:38:49 1512167929.439058: $GPRMC,223850,A,3946.9725,N,08404.9838,W,0.0000,0.000,011217,,*36
2017-12-01 17:38:49 1512167929.439118: $GPGSA,A,3,1,3,10,14,22,25,26,31,32,12,16,138,2.0,0.8,1.5*04
2017-12-01 17:38:49 1512167929.439177: $GPGBS,223850,2.67,M,3.86,M,8.82,M*3C
2017-12-01 17:38:50 1512167930.774151: $GPGSV,3,1,12,01,16,270,44,03,25,313,44,10,16,157,43,14,67,054,41*7C
2017-12-01 17:38:50 1512167930.774342: $GPGSV,3,2,12,22,43,298,48,25,33,052,40,26,32,177,43,31,80,316,46*78
2017-12-01 17:38:50 1512167930.774410: $GPGSV,3,3,12,32,51,087,45,12,03,030,24,16,04,190,24,138,38,213,46*4A
2017-12-01 17:38:50 1512167930.887771: $GPZDA,223851.00,01,12,2017,00,00*6F
2017-12-01 17:38:50 1512167930.887938: $GPGGA,223851,3946.9725,N,08404.9838,W,2,12,0.80,294.99,M,-33.325,M,,*72
2017-12-01 17:38:50 1512167930.888004: $GPRMC,223851,A,3946.9725,N,08404.9838,W,0.0000,0.000,011217,,*37
2017-12-01 17:38:50 1512167930.888084: $GPGSA,A,3,1,3,10,14,22,25,26,31,32,12,16,138,2.0,0.8,1.5*04
