2017-12-01 16:52:48 1512165168.636643: {"class":"VERSION","release":"3.16","rev":"3.16-4","proto_major":3,"proto_minor":11}
2017-12-01 16:52:48 1512165168.637076: {"class":"DEVICES","devices":[{"class":"DEVICE","path":"/dev/ttyUSB0","driver":"SiRF","subtype":"9\u0006GSD4e_4.1.2-P1_RPATCH.05-F-GPS-4R-1510281 11/03/2015 307","activated":"2017-12-01T21:52:48.383Z","flags":1,"native":1,"bps":4800,"parity":"N","stopbits":1,"cycle":1.00}]}
2017-12-01 16:52:48 1512165168.637196: {"class":"WATCH","enable":true,"json":false,"nmea":true,"raw":0,"scaled":false,"timing":false,"split24":false,"pps":false}
2017-12-01 16:52:48 1512165168.985992: $GPZDA,215249.64,01,12,2017,00,00*6B
2017-12-01 16:52:48 1512165168.986167: $GPGGA,215249,3946.9674,N,08404.9779,W,1,12,1.60,307.89,M,-33.324,M,,*7C
2017-12-01 16:52:48 1512165168.986235: $GPRMC,215249,A,3946.9674,N,08404.9779,W,0.9929,32.499,011217,,*00
2017-12-01 16:52:48 1512165168.986298: $GPGSA,A,3,1,3,10,14,22,31,32,25,18,12,26,138,2.0,1.6,1.5*05
2017-12-01 16:52:50 1512165170.091690: $GPZDA,215250.33,01,12,2017,00,00*61
2017-12-01 16:52:50 1512165170.091865: $GPGGA,215250,3946.9670,N,08404.9779,W,1,12,1.60,307.25,M,-33.324,M,,*76
2017-12-01 16:52:50 1512165170.091934: $GPRMC,215250,A,3946.9670,N,08404.9779,W,0.1567,9.200,011217,,*3C
2017-12-01 16:52:50 1512165170.091995: $GPGSA,A,3,1,3,10,14,22,31,32,25,18,12,26,138,2.0,1.6,1.5*05
2017-12-01 16:52:50 1512165170.092055: $GPGBS,215250,10.70,M,15.43,M,35.28,M*06
2017-12-01 16:52:51 1512165171.256419: $GPGSV,3,1,12,01,22,289,43,03,08,318,39,10,37,153,39,14,69,354,47*75
2017-12-01 16:52:51 1512165171.256580: $GPGSV,3,2,12,22,27,310,46,31,66,237,49,32,64,054,48,12,17,042,08*72
2017-12-01 16:52:51 1512165171.256646: $GPGSV,3,3,12,18,08,147,06,25,40,076,07,26,11,180,09,138,38,213,00*4F
2017-12-01 16:52:51 1512165171.370086: $GPZDA,215251.00,01,12,2017,00,00*60
2017-12-01 16:52:51 1512165171.370257: $GPGGA,215251,3946.9673,N,08404.9771,W,1,07,1.60,306.57,M,-33.324,M,,*7C
2017-12-01 16:52:51 1512165171.370323: $GPRMC,215251,A,3946.9673,N,08404.9771,W,0.1867,180.000,011217,,*39
2017-12-01 16:52:51 1512165171.370385: $GPGSA,A,3,1,3,10,14,22,31,32,,,,,,2.0,1.6,1.5*36
2017-12-01 16:52:51 1512165171.820934: $GPZDA,215252.00,01,12,2017,00,00*63
2017-12-01 16:52:51 1512165171.821105: $GPGGA,215252,3946.9669,N,08404.9771,W,1,07,0.80,305.93,M,-33.324,M,,*70
2017-12-01 16:52:51 1512165171.821174: $GPRMC,215252,A,3946.9669,N,08404.9771,W,0.1867,180.000,011217,,*31
2017-12-01 16:52:51 1512165171.821235: $GPGSA,A,3,1,3,10,14,22,31,32,,,,,,2.0,0.8,1.5*39
2017-12-01 16:52:52 1512165172.380544: $GPZDA,215253.00,01,12,2017,00,00*62
2017-12-01 16:52:52 1512165172.380717: $GPGGA,215253,3946.9665,N,08404.9771,W,1,07,0.80,305.29,M,-33.324,M,,*7C
2017-12-01 16:52:52 1512165172.380787: $GPRMC,215253,A,3946.9665,N,08404.9771,W,0.0000,0.000,011217,,*3D
2017-12-01 16:52:52 1512165172.380848: $GPGSA,A,3,1,3,10,14,22,31,32,,,,,,2.0,0.8,1.5*39
2017-12-01 16:52:53 1512165173.716763: $GPGSV,3,1,12,01,22,289,44,03,08,318,39,10,37,153,39,14,69,354,47*72
2017-12-01 16:52:53 1512165173.716957: $GPGSV,3,2,12,22,27,310,46,31,66,237,49,32,64,054,48,12,17,042,25*7D
2017-12-01 16:52:53 1512165173.717045: $GPGSV,3,3,12,18,08,147,21,25,40,076,24,26,11,180,28,138,38,213,40*4C
2017-12-01 16:52:53 1512165173.830208: $GPZDA,215254.00,01,12,2017,00,00*65
2017-12-01 16:52:53 1512165173.830374: $GPGGA,215254,3946.9664,N,08404.9764,W,1,12,0.80,303.96,M,-33.324,M,,*78
2017-12-01 16:52:53 1512165173.830440: $GPRMC,215254,A,3946.9664,N,08404.9764,W,0.0000,0.000,011217,,*3F
2017-12-01 16:52:53 1512165173.830503: $GPGSA,A,3,1,3,10,14,22,31,32,12,18,25,26,138,2.0,0.8,1.5*0A
2017-12-01 16:52:54 1512165174.380964: $GPZDA,215255.00,01,12,2017,00,00*64
2017-12-01 16:52:54 1512165174.381137: $GPGGA,215255,3946.9660,N,08404.9764,W,1,12,0.80,303.32,M,-33.324,M,,*73
2017-12-01 16:52:54 1512165174.381204: $GPRMC,215255,A,3946.9660,N,08404.9764,W,0.0000,0.000,011217,,*3A
2017-12-01 16:52:54 1512165174.381285: $GPGSA,A,3,1,3,10,14,22,31,32,12,18,25,26,138,2.0,0.8,1.5*0A
2017-12-01 16:52:55 1512165175.381774: $GPZDA,215256.00,01,12,2017,00,00*67
2017-12-01 16:52:55 1512165175.382002: $GPGGA,215256,3946.9656,N,08404.9764,W,1,12,0.80,302.68,M,-33.324,M,,*7B
2017-12-01 16:52:55 1512165175.382071: $GPRMC,215256,A,3946.9656,N,08404.9764,W,0.0000,0.000,011217,,*3C
2017-12-01 16:52:55 1512165175.382133: $GPGSA,A,3,1,3,10,14,22,31,32,12,18,25,26,138,2.0,0.8,1.5*0A
2017-12-01 16:52:55 1512165175.382192: $GPGBS,215256,10.70,M,15.43,M,35.28,M*00
2017-12-01 16:52:56 1512165176.716217: $GPGSV,3,1,12,01,22,289,43,03,08,318,39,10,37,153,39,14,69,354,46*74
2017-12-01 16:52:56 1512165176.716418: $GPGSV,3,2,12,22,27,310,46,31,66,237,49,32,64,054,48,12,17,042,25*7D
2017-12-01 16:52:56 1512165176.716488: $GPGSV,3,3,12,18,08,147,22,25,40,076,25,26,11,180,22,138,38,213,40*44
2017-12-01 16:52:56 1512165176.830004: $GPZDA,215257.00,01,12,2017,00,00*66
2017-12-01 16:52:56 1512165176.830176: $GPGGA,215257,3946.9655,N,08404.9757,W,1,12,0.80,302.76,M,-33.324,M,,*76
2017-12-01 16:52:56 1512165176.830243: $GPRMC,215257,A,3946.9655,N,08404.9757,W,0.0000,0.000,011217,,*3E
2017-12-01 16:52:56 1512165176.830304: $GPGSA,A,3,1,3,10,14,22,31,32,12,18,25,26,138,2.0,0.8,1.5*0A
2017-12-01 16:52:57 1512165177.382118: $GPZDA,215258.00,01,12,2017,00,00*69
2017-12-01 16:52:57 1512165177.382287: $GPGGA,215258,3946.9655,N,08404.9756,W,1,12,0.80,301.36,M,-33.324,M,,*7F
2017-12-01 16:52:57 1512165177.382355: $GPRMC,215258,A,3946.9655,N,08404.9756,W,0.0000,0.000,011217,,*30
2017-12-01 16:52:57 1512165177.382417: $GPGSA,A,3,1,3,10,14,22,31,32,12,18,25,26,138,2.0,0.8,1.5*0A
2017-12-01 16:52:58 1512165178.382473: $GPZDA,215259.00,01,12,2017,00,00*68
2017-12-01 16:52:58 1512165178.382649: $GPGGA,215259,3946.9631,N,08404.9734,W,2,12,1.20,295.59,M,-33.324,M,,*75
2017-12-01 16:52:58 1512165178.382719: $GPRMC,215259,A,3946.9631,N,08404.9734,W,0.0000,0.000,011217,,*37
2017-12-01 16:52:58 1512165178.382782: $GPGSA,A,3,1,3,10,14,22,31,32,12,18,25,26,138,2.0,1.2,1.5*01
2017-12-01 16:52:59 1512165179.717811: $GPGSV,3,1,12,01,22,289,43,03,08,318,39,10,37,153,39,14,69,354,46*74
2017-12-01 16:52:59 1512165179.718000: $GPGSV,3,2,12,22,27,310,46,31,66,237,49,32,64,054,48,12,17,042,26*7E
2017-12-01 16:52:59 1512165179.718067: $GPGSV,3,3,12,18,08,147,21,25,40,076,26,26,11,180,24,138,38,213,40*42
2017-12-01 16:52:59 1512165179.831170: $GPZDA,215300.00,01,12,2017,00,00*65
2017-12-01 16:52:59 1512165179.831332: $GPGGA,215300,3946.9631,N,08404.9734,W,2,12,0.80,295.59,M,-33.324,M,,*73
2017-12-01 16:52:59 1512165179.831465: $GPRMC,215300,A,3946.9631,N,08404.9734,W,0.0000,0.000,011217,,*3A
2017-12-01 16:52:59 1512165179.831528: $GPGSA,A,3,1,3,10,14,22,31,32,12,18,25,26,138,2.0,0.8,1.5*0A
2017-12-01 16:53:00 1512165180.380790: $GPZDA,215301.00,01,12,2017,00,00*64
2017-12-01 16:53:00 1512165180.380965: $GPGGA,215301,3946.9631,N,08404.9734,W,2,12,0.80,295.59,M,-33.324,M,,*72
2017-12-01 16:53:00 1512165180.381033: $GPRMC,215301,A,3946.9631,N,08404.9734,W,0.0000,0.000,011217,,*3B
2017-12-01 16:53:00 1512165180.381096: $GPGSA,A,3,1,3,10,14,22,31,32,12,18,25,26,138,2.0,0.8,1.5*0A
2017-12-01 16:53:01 1512165181.381705: $GPZDA,215302.00,01,12,2017,00,00*67
2017-12-01 16:53:01 1512165181.381888: $GPGGA,215302,3946.9632,N,08404.9741,W,2,12,0.80,295.51,M,-33.324,M,,*78
2017-12-01 16:53:01 1512165181.381959: $GPRMC,215302,A,3946.9632,N,08404.9741,W,0.0000,0.000,011217,,*39
2017-12-01 16:53:01 1512165181.382043: $GPGSA,A,3,1,3,10,14,22,31,32,12,18,25,26,138,2.0,0.8,1.5*0A
2017-12-01 16:53:02 1512165182.716165: $GPGSV,3,1,12,01,22,289,43,03,08,318,39,10,37,153,39,14,69,354,46*74
2017-12-01 16:53:02 1512165182.716353: $GPGSV,3,2,12,22,27,310,46,31,66,237,49,32,64,054,48,12,17,042,26*7E
2017-12-01 16:53:02 1512165182.716423: $GPGSV,3,3,12,18,08,147,22,25,40,076,26,26,11,180,24,138,38,213,39*4F
2017-12-01 16:53:02 1512165182.829539: $GPZDA,215303.00,01,12,2017,00,00*66
2017-12-01 16:53:02 1512165182.829738: $GPGGA,215303,3946.9632,N,08404.9741,W,2,12,0.80,295.51,M,-33.324,M,,*79
2017-12-01 16:53:02 1512165182.829810: $GPRMC,215303,A,3946.9632,N,08404.9741,W,0.0000,0.000,011217,,*38
2017-12-01 16:53:02 1512165182.829926: $GPGSA,A,3,1,3,10,14,22,31,32,12,18,25,26,138,2.0,0.8,1.5*0A
2017-12-01 16:53:03 1512165183.454919: $GPZDA,215304.00,01,12,2017,00,00*61
2017-12-01 16:53:03 1512165183.455099: $GPGGA,215304,3946.9632,N,08404.9741,W,2,12,0.80,296.91,M,-33.324,M,,*71
2017-12-01 16:53:03 1512165183.455166: $GPRMC,215304,A,3946.9632,N,08404.9741,W,0.0000,0.000,011217,,*3F
2017-12-01 16:53:03 1512165183.455228: $GPGSA,A,3,1,3,10,14,22,31,32,12,18,25,26,138,2.0,0.8,1.5*0A
2017-12-01 16:53:04 1512165184.380856: $GPZDA,215305.00,01,12,2017,00,00*60
2017-12-01 16:53:04 1512165184.381027: $GPGGA,215305,3946.9629,N,08404.9749,W,2,12,0.80,297.60,M,-33.324,M,,*7D
2017-12-01 16:53:04 1512165184.381094: $GPRMC,215305,A,3946.9629,N,08404.9749,W,0.4207,219.347,011217,,*37
2017-12-01 16:53:04 1512165184.381156: $GPGSA,A,3,1,3,10,14,22,31,32,12,18,25,26,138,2.0,0.8,1.5*0A
2017-12-01 16:53:05 1512165185.715279: $GPGSV,3,1,12,01,22,289,43,03,08,318,39,10,37,153,38,14,69,354,46*75
2017-12-01 16:53:05 1512165185.715462: $GPGSV,3,2,12,22,27,310,46,31,66,237,49,32,64,054,48,12,17,042,27*7F
2017-12-01 16:53:05 1512165185.715529: $GPGSV,3,3,12,18,08,147,21,25,40,076,28,26,11,180,26,138,38,213,41*4F
2017-12-01 16:53:05 1512165185.829003: $GPZDA,215306.00,01,12,2017,00,00*63
2017-12-01 16:53:05 1512165185.829171: $GPGGA,215306,3946.9637,N,08404.9748,W,2,12,0.80,297.47,M,-33.324,M,,*75
2017-12-01 16:53:05 1512165185.829238: $GPRMC,215306,A,3946.9637,N,08404.9748,W,0.0000,0.000,011217,,*31
2017-12-01 16:53:05 1512165185.829300: $GPGSA,A,3,1,3,10,14,22,31,32,12,18,25,26,138,2.0,0.8,1.5*0A
2017-12-01 16:53:06 1512165186.379834: $GPZDA,215307.00,01,12,2017,00,00*62
2017-12-01 16:53:06 1512165186.379994: $GPGGA,215307,3946.9637,N,08404.9748,W,2,12,0.80,297.47,M,-33.324,M,,*74
2017-12-01 16:53:06 1512165186.380061: $GPRMC,215307,A,3946.9637,N,08404.9748,W,0.0000,0.000,011217,,*30
2017-12-01 16:53:06 1512165186.380122: $GPGSA,A,3,1,3,10,14,22,31,32,12,18,25,26,138,2.0,0.8,1.5*0A
2017-12-01 16:53:07 1512165187.382892: $GPZDA,215308.00,01,12,2017,00,00*6D
2017-12-01 16:53:07 1512165187.383062: $GPGGA,215308,3946.9637,N,08404.9748,W,2,12,0.80,297.47,M,-33.324,M,,*7B
2017-12-01 16:53:07 1512165187.383129: $GPRMC,215308,A,3946.9637,N,08404.9748,W,0.0000,0.000,011217,,*3F
2017-12-01 16:53:07 1512165187.383189: $GPGSA,A,3,1,3,10,14,22,31,32,12,18,25,26,138,2.0,0.8,1.5*0A
2017-12-01 16:53:07 1512165187.383248: $GPGBS,215308,2.67,M,3.86,M,8.82,M*3F
