2017-12-01 15:53:27 1512161607.746891: {"class":"VERSION","release":"3.16","rev":"3.16-4","proto_major":3,"proto_minor":11}
2017-12-01 15:53:27 1512161607.747354: {"class":"DEVICES","devices":[{"class":"DEVICE","path":"/dev/ttyUSB0","driver":"SiRF","subtype":"9\u0006GSD4e_4.1.2-P1_RPATCH.05-F-GPS-4R-1510281 11/03/2015 307","activated":"2017-12-01T20:53:27.563Z","flags":1,"native":1,"bps":4800,"parity":"N","stopbits":1,"cycle":1.00}]}
2017-12-01 15:53:27 1512161607.747474: {"class":"WATCH","enable":true,"json":false,"nmea":true,"raw":0,"scaled":false,"timing":false,"split24":false,"pps":false}
2017-12-01 15:53:28 1512161608.421291: $GPZDA,205329.00,01,12,2017,00,00*6F
2017-12-01 15:53:28 1512161608.421522: $GPGGA,205329,3946.9596,N,08404.9850,W,2,12,0.80,295.70,M,-33.324,M,,*71
2017-12-01 15:53:28 1512161608.421591: $GPRMC,205329,A,3946.9596,N,08404.9850,W,0.0000,0.000,011217,,*33
2017-12-01 15:53:28 1512161608.421653: $GPGSA,A,3,10,12,14,18,25,31,32,1,11,24,22,138,2.0,0.8,1.5*3B
2017-12-01 15:53:29 1512161609.774877: $GPGSV,3,1,12,10,66,135,47,12,25,067,38,14,57,297,43,18,34,136,47*76
2017-12-01 15:53:29 1512161609.775241: $GPGSV,3,2,12,25,32,111,44,31,38,213,49,32,69,339,48,01,16,316,37*75
2017-12-01 15:53:29 1512161609.775385: $GPGSV,3,3,12,11,11,298,25,24,11,046,31,22,05,312,36,138,38,213,46*4B
2017-12-01 15:53:29 1512161609.887909: $GPZDA,205330.00,01,12,2017,00,00*67
2017-12-01 15:53:29 1512161609.888099: $GPGGA,205330,3946.9596,N,08404.9850,W,2,12,0.80,295.70,M,-33.324,M,,*79
2017-12-01 15:53:29 1512161609.888183: $GPRMC,205330,A,3946.9596,N,08404.9850,W,0.0000,0.000,011217,,*3B
2017-12-01 15:53:29 1512161609.888246: $GPGSA,A,3,10,12,14,18,25,31,32,1,11,24,22,138,2.0,0.8,1.5*3B
2017-12-01 15:53:30 1512161610.513375: $GPZDA,205331.00,01,12,2017,00,00*66
2017-12-01 15:53:30 1512161610.513545: $GPGGA,205331,3946.9596,N,08404.9850,W,2,12,0.80,295.70,M,-33.324,M,,*78
2017-12-01 15:53:30 1512161610.513611: $GPRMC,205331,A,3946.9596,N,08404.9850,W,0.0000,0.000,011217,,*3A
2017-12-01 15:53:30 1512161610.513673: $GPGSA,A,3,10,12,14,18,25,31,32,1,11,24,22,138,2.0,0.8,1.5*3B
2017-12-01 15:53:31 1512161611.437791: $GPZDA,205332.00,01,12,2017,00,00*65
2017-12-01 15:53:31 1512161611.437983: $GPGGA,205332,3946.9596,N,08404.9850,W,2,12,0.80,295.70,M,-33.324,M,,*7B
2017-12-01 15:53:31 1512161611.438071: $GPRMC,205332,A,3946.9596,N,08404.9850,W,0.0000,0.000,011217,,*39
2017-12-01 15:53:31 1512161611.438134: $GPGSA,A,3,10,12,14,18,25,31,32,1,11,24,22,138,2.0,0.8,1.5*3B
2017-12-01 15:53:32 1512161612.768494: $GPGSV,3,1,12,10,66,135,47,12,25,067,37,14,57,297,43,18,34,136,46*78
2017-12-01 15:53:32 1512161612.768677: $GPGSV,3,2,12,25,32,111,44,31,38,213,49,32,69,339,48,01,16,316,37*75
2017-12-01 15:53:32 1512161612.768743: $GPGSV,3,3,12,11,11,298,22,24,11,046,31,22,05,312,36,138,38,213,46*4C
2017-12-01 15:53:32 1512161612.881862: $GPZDA,205333.00,01,12,2017,00,00*64
2017-12-01 15:53:32 1512161612.882037: $GPGGA,205333,3946.9596,N,08404.9850,W,2,12,0.80,295.70,M,-33.324,M,,*7A
2017-12-01 15:53:32 1512161612.882106: $GPRMC,205333,A,3946.9596,N,08404.9850,W,0.0000,0.000,011217,,*38
2017-12-01 15:53:32 1512161612.882185: $GPGSA,A,3,10,12,14,18,25,31,32,1,11,24,22,138,2.0,0.8,1.5*3B
2017-12-01 15:53:33 1512161613.438992: $GPZDA,205334.00,01,12,2017,00,00*63
2017-12-01 15:53:33 1512161613.441817: $GPGGA,205334,3946.9596,N,08404.9850,W,2,12,0.80,295.70,M,-33.324,M,,*7D
2017-12-01 15:53:33 1512161613.441927: $GPRMC,205334,A,3946.9596,N,08404.9850,W,0.0000,0.000,011217,,*3F
2017-12-01 15:53:33 1512161613.441991: $GPGSA,A,3,10,12,14,18,25,31,32,1,11,24,22,138,2.0,0.8,1.5*3B
2017-12-01 15:53:34 1512161614.422431: $GPZDA,205335.00,01,12,2017,00,00*62
2017-12-01 15:53:34 1512161614.422605: $GPGGA,205335,3946.9596,N,08404.9850,W,2,12,0.80,295.70,M,-33.324,M,,*7C
2017-12-01 15:53:34 1512161614.422673: $GPRMC,205335,A,3946.9596,N,08404.9850,W,0.0000,0.000,011217,,*3E
2017-12-01 15:53:34 1512161614.422733: $GPGSA,A,3,10,12,14,18,25,31,32,1,11,24,22,138,2.0,0.8,1.5*3B
2017-12-01 15:53:35 1512161615.757645: $GPGSV,3,1,12,10,66,135,47,12,25,067,38,14,57,297,43,18,34,136,47*76
2017-12-01 15:53:35 1512161615.757896: $GPGSV,3,2,12,25,32,111,44,31,38,213,49,32,69,339,47,01,16,316,37*7A
2017-12-01 15:53:35 1512161615.757968: $GPGSV,3,3,12,11,11,298,25,24,11,046,32,22,05,312,37,138,38,213,46*49
2017-12-01 15:53:35 1512161615.870996: $GPZDA,205336.00,01,12,2017,00,00*61
2017-12-01 15:53:35 1512161615.871201: $GPGGA,205336,3946.9596,N,08404.9850,W,2,12,0.80,295.70,M,-33.324,M,,*7F
2017-12-01 15:53:35 1512161615.871269: $GPRMC,205336,A,3946.9596,N,08404.9850,W,0.0000,0.000,011217,,*3D
2017-12-01 15:53:35 1512161615.871330: $GPGSA,A,3,10,12,14,18,25,31,32,1,11,24,22,138,2.0,0.8,1.5*3B
2017-12-01 15:53:36 1512161616.423100: $GPZDA,205337.00,01,12,2017,00,00*60
2017-12-01 15:53:36 1512161616.423292: $GPGGA,205337,3946.9596,N,08404.9850,W,2,12,0.80,295.70,M,-33.324,M,,*7E
2017-12-01 15:53:36 1512161616.423359: $GPRMC,205337,A,3946.9596,N,08404.9850,W,0.0000,0.000,011217,,*3C
2017-12-01 15:53:36 1512161616.423421: $GPGSA,A,3,10,12,14,18,25,31,32,1,11,24,22,138,2.0,0.8,1.5*3B
2017-12-01 15:53:37 1512161617.421707: $GPZDA,205338.00,01,12,2017,00,00*6F
2017-12-01 15:53:37 1512161617.421868: $GPGGA,205338,3946.9596,N,08404.9850,W,2,12,0.80,295.70,M,-33.324,M,,*71
2017-12-01 15:53:37 1512161617.421935: $GPRMC,205338,A,3946.9596,N,08404.9850,W,0.0000,0.000,011217,,*33
2017-12-01 15:53:37 1512161617.422017: $GPGSA,A,3,10,12,14,18,25,31,32,1,11,24,22,138,2.0,0.8,1.5*3B
2017-12-01 15:53:38 1512161618.752264: $GPGSV,3,1,12,10,66,135,47,12,25,067,40,14,57,297,43,18,34,136,47*79
2017-12-01 15:53:38 1512161618.752444: $GPGSV,3,2,12,25,32,111,44,31,38,213,48,32,69,339,47,01,16,316,37*7B
2017-12-01 15:53:38 1512161618.752511: $GPGSV,3,3,12,11,11,298,26,24,11,046,32,22,05,312,37,138,38,213,45*49
2017-12-01 15:53:38 1512161618.865823: $GPZDA,205339.00,01,12,2017,00,00*6E
2017-12-01 15:53:38 1512161618.866020: $GPGGA,205339,3946.9596,N,08404.9850,W,2,12,0.80,295.70,M,-33.324,M,,*70
2017-12-01 15:53:38 1512161618.866089: $GPRMC,205339,A,3946.9596,N,08404.9850,W,0.0000,0.000,011217,,*32
2017-12-01 15:53:38 1512161618.866168: $GPGSA,A,3,10,12,14,18,25,31,32,1,11,24,22,138,2.0,0.8,1.5*3B
2017-12-01 15:53:39 1512161619.421466: $GPZDA,205340.00,01,12,2017,00,00*60
2017-12-01 15:53:39 1512161619.421644: $GPGGA,205340,3946.9596,N,08404.9850,W,2,12,0.80,295.70,M,-33.324,M,,*7E
2017-12-01 15:53:39 1512161619.421710: $GPRMC,205340,A,3946.9596,N,08404.9850,W,0.0000,0.000,011217,,*3C
2017-12-01 15:53:39 1512161619.421771: $GPGSA,A,3,10,12,14,18,25,31,32,1,11,24,22,138,2.0,0.8,1.5*3B
2017-12-01 15:53:40 1512161620.421940: $GPZDA,205341.00,01,12,2017,00,00*61
2017-12-01 15:53:40 1512161620.422148: $GPGGA,205341,3946.9596,N,08404.9850,W,2,12,0.80,295.70,M,-33.324,M,,*7F
2017-12-01 15:53:40 1512161620.422215: $GPRMC,205341,A,3946.9596,N,08404.9850,W,0.0000,0.000,011217,,*3D
2017-12-01 15:53:40 1512161620.422277: $GPGSA,A,3,10,12,14,18,25,31,32,1,11,24,22,138,2.0,0.8,1.5*3B
2017-12-01 15:53:41 1512161621.757624: $GPGSV,3,1,12,10,66,135,47,12,25,067,40,14,57,297,42,18,34,136,47*78
2017-12-01 15:53:41 1512161621.757806: $GPGSV,3,2,12,25,32,111,44,31,38,213,49,32,69,339,47,01,16,316,37*7A
2017-12-01 15:53:41 1512161621.757873: $GPGSV,3,3,12,11,11,298,32,24,11,046,32,22,05,312,37,138,38,213,46*4F
2017-12-01 15:53:41 1512161621.871092: $GPZDA,205342.00,01,12,2017,00,00*62
2017-12-01 15:53:41 1512161621.871280: $GPGGA,205342,3946.9596,N,08404.9850,W,2,12,0.80,295.70,M,-33.324,M,,*7C
2017-12-01 15:53:41 1512161621.871414: $GPRMC,205342,A,3946.9596,N,08404.9850,W,0.0000,0.000,011217,,*3E
2017-12-01 15:53:41 1512161621.871486: $GPGSA,A,3,10,12,14,18,25,31,32,1,11,24,22,138,2.0,0.8,1.5*3B
2017-12-01 15:53:42 1512161622.423447: $GPZDA,205343.00,01,12,2017,00,00*63
2017-12-01 15:53:42 1512161622.423620: $GPGGA,205343,3946.9596,N,08404.9850,W,2,12,0.80,295.70,M,-33.324,M,,*7D
2017-12-01 15:53:42 1512161622.423687: $GPRMC,205343,A,3946.9596,N,08404.9850,W,0.0000,0.000,011217,,*3F
2017-12-01 15:53:42 1512161622.423748: $GPGSA,A,3,10,12,14,18,25,31,32,1,11,24,22,138,2.0,0.8,1.5*3B
2017-12-01 15:53:43 1512161623.415453: $GPZDA,205344.00,01,12,2017,00,00*64
2017-12-01 15:53:43 1512161623.415606: $GPGGA,205344,3946.9592,N,08404.9850,W,2,12,0.80,296.47,M,-33.324,M,,*79
2017-12-01 15:53:43 1512161623.415672: $GPRMC,205344,A,3946.9592,N,08404.9850,W,0.0000,0.000,011217,,*3C
2017-12-01 15:53:43 1512161623.415732: $GPGSA,A,3,10,12,14,18,25,31,32,1,11,24,22,138,2.0,0.8,1.5*3B
2017-12-01 15:53:44 1512161624.757362: $GPGSV,3,1,12,10,66,135,47,12,25,067,40,14,57,297,42,18,34,136,47*78
2017-12-01 15:53:44 1512161624.757571: $GPGSV,3,2,12,25,32,111,44,31,38,213,49,32,69,339,47,01,16,316,38*75
2017-12-01 15:53:44 1512161624.757636: $GPGSV,3,3,12,11,11,298,32,24,11,046,32,22,05,312,40,138,38,213,46*4F
2017-12-01 15:53:44 1512161624.870823: $GPZDA,205345.00,01,12,2017,00,00*65
2017-12-01 15:53:44 1512161624.871016: $GPGGA,205345,3946.9592,N,08404.9850,W,2,12,0.80,296.47,M,-33.324,M,,*78
2017-12-01 15:53:44 1512161624.871084: $GPRMC,205345,A,3946.9592,N,08404.9850,W,0.0000,0.000,011217,,*3D
2017-12-01 15:53:44 1512161624.871163: $GPGSA,A,3,10,12,14,18,25,31,32,1,11,24,22,138,2.0,0.8,1.5*3B
2017-12-01 15:53:45 1512161625.495993: $GPZDA,205346.00,01,12,2017,00,00*66
2017-12-01 15:53:45 1512161625.496178: $GPGGA,205346,3946.9592,N,08404.9850,W,2,12,0.80,296.47,M,-33.324,M,,*7B
2017-12-01 15:53:45 1512161625.496247: $GPRMC,205346,A,3946.9592,N,08404.9850,W,0.0000,0.000,011217,,*3E
2017-12-01 15:53:45 1512161625.496308: $GPGSA,A,3,10,12,14,18,25,31,32,1,11,24,22,138,2.0,0.8,1.5*3B
2017-12-01 15:53:46 1512161626.421894: $GPZDA,205347.00,01,12,2017,00,00*67
2017-12-01 15:53:46 1512161626.422088: $GPGGA,205347,3946.9592,N,08404.9850,W,2,12,0.80,296.47,M,-33.324,M,,*7A
2017-12-01 15:53:46 1512161626.422173: $GPRMC,205347,A,3946.9592,N,08404.9850,W,0.0000,0.000,011217,,*3F
2017-12-01 15:53:46 1512161626.422234: $GPGSA,A,3,10,12,14,18,25,31,32,1,11,24,22,138,2.0,0.8,1.5*3B
