2017-12-01 14:02:46 1512154966.297062: {"class":"VERSION","release":"3.16","rev":"3.16-4","proto_major":3,"proto_minor":11}
2017-12-01 14:02:46 1512154966.297510: {"class":"DEVICES","devices":[{"class":"DEVICE","path":"/dev/ttyUSB0","driver":"SiRF","subtype":"9\u0006GSD4e_4.1.2-P1_RPATCH.05-F-GPS-4R-1510281 11/03/2015 307","activated":"2017-12-01T19:02:46.270Z","flags":1,"native":1,"bps":4800,"parity":"N","stopbits":1,"cycle":1.00}]}
2017-12-01 14:02:46 1512154966.297639: {"class":"WATCH","enable":true,"json":false,"nmea":true,"raw":0,"scaled":false,"timing":false,"split24":false,"pps":false}
2017-12-01 14:02:46 1512154966.782991: $GPGSV,3,1,12,08,08,303,34,10,61,321,50,14,22,246,36,15,18,061,37*72
2017-12-01 14:02:46 1512154966.783189: $GPGSV,3,2,12,18,76,064,42,20,16,112,41,21,39,180,45,24,50,070,48*7C
2017-12-01 14:02:46 1512154966.783255: $GPGSV,3,3,12,27,11,268,41,32,39,256,43,12,03,114,20,138,38,213,47*4F
2017-12-01 14:02:46 1512154966.896312: $GPZDA,190247.00,01,12,2017,00,00*69
2017-12-01 14:02:46 1512154966.896483: $GPGGA,190247,3946.9547,N,08404.9819,W,2,12,0.80,309.69,M,-33.324,M,,*7A
2017-12-01 14:02:46 1512154966.896550: $GPRMC,190247,A,3946.9547,N,08404.9819,W,0.0000,0.000,011217,,*34
2017-12-01 14:02:46 1512154966.896611: $GPGSA,A,3,8,10,14,15,18,20,21,24,27,32,12,138,2.0,0.8,1.5*37
2017-12-01 14:02:47 1512154967.418423: $GPZDA,190248.00,01,12,2017,00,00*66
2017-12-01 14:02:47 1512154967.418587: $GPGGA,190248,3946.9547,N,08404.9819,W,2,12,0.80,309.69,M,-33.324,M,,*75
2017-12-01 14:02:47 1512154967.418654: $GPRMC,190248,A,3946.9547,N,08404.9819,W,0.0000,0.000,011217,,*3B
2017-12-01 14:02:47 1512154967.418715: $GPGSA,A,3,8,10,14,15,18,20,21,24,27,32,12,138,2.0,0.8,1.5*37
2017-12-01 14:02:48 1512154968.418111: $GPZDA,190249.00,01,12,2017,00,00*67
2017-12-01 14:02:48 1512154968.418289: $GPGGA,190249,3946.9547,N,08404.9819,W,2,12,0.80,309.69,M,-33.324,M,,*74
2017-12-01 14:02:48 1512154968.418357: $GPRMC,190249,A,3946.9547,N,08404.9819,W,0.0000,0.000,011217,,*3A
2017-12-01 14:02:48 1512154968.418419: $GPGSA,A,3,8,10,14,15,18,20,21,24,27,32,12,138,2.0,0.8,1.5*37
2017-12-01 14:02:49 1512154969.753293: $GPGSV,3,1,12,08,08,303,32,10,61,321,50,14,22,246,37,15,18,061,37*75
2017-12-01 14:02:49 1512154969.753491: $GPGSV,3,2,12,18,76,064,42,20,16,112,41,21,39,180,45,24,50,070,48*7C
2017-12-01 14:02:49 1512154969.753558: $GPGSV,3,3,12,27,11,268,40,32,39,256,43,12,03,114,20,138,38,213,46*4F
2017-12-01 14:02:49 1512154969.867379: $GPZDA,190250.00,01,12,2017,00,00*6F
2017-12-01 14:02:49 1512154969.867558: $GPGGA,190250,3946.9547,N,08404.9819,W,2,12,0.80,309.69,M,-33.324,M,,*7C
2017-12-01 14:02:49 1512154969.867646: $GPRMC,190250,A,3946.9547,N,08404.9819,W,0.0000,0.000,011217,,*32
2017-12-01 14:02:49 1512154969.867709: $GPGSA,A,3,8,10,14,15,18,20,21,24,27,32,12,138,2.0,0.8,1.5*37
2017-12-01 14:02:50 1512154970.417555: $GPZDA,190251.00,01,12,2017,00,00*6E
2017-12-01 14:02:50 1512154970.417728: $GPGGA,190251,3946.9547,N,08404.9819,W,2,12,0.80,309.69,M,-33.324,M,,*7D
2017-12-01 14:02:50 1512154970.417794: $GPRMC,190251,A,3946.9547,N,08404.9819,W,0.0000,0.000,011217,,*33
2017-12-01 14:02:50 1512154970.417878: $GPGSA,A,3,8,10,14,15,18,20,21,24,27,32,12,138,2.0,0.8,1.5*37
2017-12-01 14:02:51 1512154971.418400: $GPZDA,190252.00,01,12,2017,00,00*6D
2017-12-01 14:02:51 1512154971.418596: $GPGGA,190252,3946.9547,N,08404.9819,W,2,12,0.80,309.69,M,-33.324,M,,*7E
2017-12-01 14:02:51 1512154971.418665: $GPRMC,190252,A,3946.9547,N,08404.9819,W,0.0000,0.000,011217,,*30
2017-12-01 14:02:51 1512154971.418727: $GPGSA,A,3,8,10,14,15,18,20,21,24,27,32,12,138,2.0,0.8,1.5*37
2017-12-01 14:02:52 1512154972.753146: $GPGSV,3,1,12,08,08,303,33,10,61,321,49,14,22,246,36,15,18,061,38*72
2017-12-01 14:02:52 1512154972.753352: $GPGSV,3,2,12,18,76,064,42,20,16,112,42,21,39,180,45,24,50,070,47*70
2017-12-01 14:02:52 1512154972.753443: $GPGSV,3,3,12,27,11,268,40,32,39,256,43,12,03,114,08,138,38,213,47*44
2017-12-01 14:02:52 1512154972.866328: $GPZDA,190253.00,01,12,2017,00,00*6C
2017-12-01 14:02:52 1512154972.868190: $GPGGA,190253,3946.9547,N,08404.9819,W,2,12,0.80,309.69,M,-33.324,M,,*7F
2017-12-01 14:02:52 1512154972.868330: $GPRMC,190253,A,3946.9547,N,08404.9819,W,0.0000,0.000,011217,,*31
2017-12-01 14:02:52 1512154972.868395: $GPGSA,A,3,8,10,14,15,18,20,21,24,27,32,12,138,2.0,0.8,1.5*37
2017-12-01 14:02:53 1512154973.417142: $GPZDA,190254.00,01,12,2017,00,00*6B
2017-12-01 14:02:53 1512154973.417334: $GPGGA,190254,3946.9547,N,08404.9819,W,2,12,0.80,309.69,M,-33.324,M,,*78
2017-12-01 14:02:53 1512154973.417402: $GPRMC,190254,A,3946.9547,N,08404.9819,W,0.0000,0.000,011217,,*36
2017-12-01 14:02:53 1512154973.417463: $GPGSA,A,3,8,10,14,15,18,20,21,24,27,32,12,138,2.0,0.8,1.5*37
2017-12-01 14:02:54 1512154974.420197: $GPZDA,190255.00,01,12,2017,00,00*6A
2017-12-01 14:02:54 1512154974.420370: $GPGGA,190255,3946.9551,N,08404.9819,W,2,12,0.80,310.33,M,-33.324,M,,*79
2017-12-01 14:02:54 1512154974.420438: $GPRMC,190255,A,3946.9551,N,08404.9819,W,0.0000,0.000,011217,,*30
2017-12-01 14:02:54 1512154974.420499: $GPGSA,A,3,8,10,14,15,18,20,21,24,27,32,12,138,2.0,0.8,1.5*37
2017-12-01 14:02:55 1512154975.754575: $GPGSV,3,1,12,08,08,303,33,10,61,321,49,14,22,246,37,15,18,061,38*73
2017-12-01 14:02:55 1512154975.754757: $GPGSV,3,2,12,18,76,064,42,20,16,112,42,21,39,180,44,24,50,070,48*7E
2017-12-01 14:02:55 1512154975.754824: $GPGSV,3,3,12,27,11,268,40,32,39,256,42,12,03,114,06,138,38,213,47*4B
2017-12-01 14:02:55 1512154975.867953: $GPZDA,190256.00,01,12,2017,00,00*69
2017-12-01 14:02:55 1512154975.868109: $GPGGA,190256,3946.9551,N,08404.9819,W,2,12,0.80,310.33,M,-33.324,M,,*7A
2017-12-01 14:02:55 1512154975.868176: $GPRMC,190256,A,3946.9551,N,08404.9819,W,0.0000,0.000,011217,,*33
2017-12-01 14:02:55 1512154975.868237: $GPGSA,A,3,8,10,14,15,18,20,21,24,27,32,12,138,2.0,0.8,1.5*37
2017-12-01 14:02:56 1512154976.417562: $GPZDA,190257.00,01,12,2017,00,00*68
2017-12-01 14:02:56 1512154976.417745: $GPGGA,190257,3946.9551,N,08404.9819,W,2,12,0.80,310.33,M,-33.324,M,,*7B
2017-12-01 14:02:56 1512154976.417814: $GPRMC,190257,A,3946.9551,N,08404.9819,W,0.0000,0.000,011217,,*32
2017-12-01 14:02:56 1512154976.417876: $GPGSA,A,3,8,10,14,15,18,20,21,24,27,32,12,138,2.0,0.8,1.5*37
2017-12-01 14:02:57 1512154977.417127: $GPZDA,190258.00,01,12,2017,00,00*67
2017-12-01 14:02:57 1512154977.417300: $GPGGA,190258,3946.9551,N,08404.9819,W,2,12,0.80,310.33,M,-33.324,M,,*74
2017-12-01 14:02:57 1512154977.417369: $GPRMC,190258,A,3946.9551,N,08404.9819,W,0.0000,0.000,011217,,*3D
2017-12-01 14:02:57 1512154977.417519: $GPGSA,A,3,8,10,14,15,18,20,21,24,27,32,12,138,2.0,0.8,1.5*37
2017-12-01 14:02:58 1512154978.757146: $GPGSV,3,1,12,08,08,303,33,10,61,321,49,14,22,246,38,15,18,061,38*7C
2017-12-01 14:02:58 1512154978.757336: $GPGSV,3,2,12,18,76,064,42,20,16,112,42,21,39,180,44,24,50,070,48*7E
2017-12-01 14:02:58 1512154978.757406: $GPGSV,3,3,12,27,11,268,41,32,39,256,42,12,03,114,09,138,38,213,48*4A
2017-12-01 14:02:58 1512154978.868085: $GPZDA,190259.00,01,12,2017,00,00*66
2017-12-01 14:02:58 1512154978.868257: $GPGGA,190259,3946.9551,N,08404.9819,W,2,12,0.80,310.33,M,-33.324,M,,*75
2017-12-01 14:02:58 1512154978.868324: $GPRMC,190259,A,3946.9551,N,08404.9819,W,0.0000,0.000,011217,,*3C
2017-12-01 14:02:58 1512154978.868385: $GPGSA,A,3,8,10,14,15,18,20,21,24,27,32,12,138,2.0,0.8,1.5*37
2017-12-01 14:02:59 1512154979.492961: $GPZDA,190300.00,01,12,2017,00,00*6B
2017-12-01 14:02:59 1512154979.493133: $GPGGA,190300,3946.9551,N,08404.9819,W,2,12,0.80,310.33,M,-33.324,M,,*78
2017-12-01 14:02:59 1512154979.493200: $GPRMC,190300,A,3946.9551,N,08404.9819,W,0.0000,0.000,011217,,*31
2017-12-01 14:02:59 1512154979.493261: $GPGSA,A,3,8,10,14,15,18,20,21,24,27,32,12,138,2.0,0.8,1.5*37
2017-12-01 14:03:00 1512154980.412565: $GPZDA,190301.00,01,12,2017,00,00*6A
2017-12-01 14:03:00 1512154980.412760: $GPGGA,190301,3946.9551,N,08404.9819,W,2,12,0.80,310.33,M,-33.324,M,,*79
2017-12-01 14:03:00 1512154980.412845: $GPRMC,190301,A,3946.9551,N,08404.9819,W,0.0000,0.000,011217,,*30
2017-12-01 14:03:00 1512154980.412907: $GPGSA,A,3,8,10,14,15,18,20,21,24,27,32,12,138,2.0,0.8,1.5*37
