2018-01-12 03:10:22 1515744622.855892: {"class":"VERSION","release":"3.16","rev":"3.16-4","proto_major":3,"proto_minor":11}
2018-01-12 03:10:22 1515744622.856237: {"class":"DEVICES","devices":[{"class":"DEVICE","path":"/dev/ttyUSB0","driver":"SiRF","subtype":"9\u0006GSD4e_4.1.2-P1_RPATCH.05-F-GPS-4R-1510281 11/03/2015 307","activated":"2018-01-12T08:10:22.820Z","flags":1,"native":1,"bps":4800,"parity":"N","stopbits":1,"cycle":1.00}]}
2018-01-12 03:10:22 1515744622.856349: {"class":"WATCH","enable":true,"json":false,"nmea":true,"raw":0,"scaled":false,"timing":false,"split24":false,"pps":false}
2018-01-12 03:10:23 1515744623.369798: $GPZDA,081024.00,12,01,2018,00,00*60
2018-01-12 03:10:23 1515744623.369998: $GPGGA,081024,3946.9593,N,08404.9843,W,2,12,0.80,283.71,M,-33.324,M,,*70
2018-01-12 03:10:23 1515744623.370068: $GPRMC,081024,A,3946.9593,N,08404.9843,W,0.0000,0.000,120118,,*3B
2018-01-12 03:10:23 1515744623.370130: $GPGSA,A,3,2,5,6,12,17,19,25,9,23,24,3,138,2.4,0.8,2.1*33
2018-01-12 03:10:24 1515744624.370884: $GPZDA,081025.00,12,01,2018,00,00*61
2018-01-12 03:10:24 1515744624.371073: $GPGGA,081025,3946.9593,N,08404.9843,W,2,12,1.00,283.71,M,-33.324,M,,*78
2018-01-12 03:10:24 1515744624.371140: $GPRMC,081025,A,3946.9593,N,08404.9843,W,0.0000,0.000,120118,,*3A
2018-01-12 03:10:24 1515744624.371201: $GPGSA,A,3,2,5,6,12,17,19,25,9,23,24,3,138,2.4,1.0,2.1*3A
2018-01-12 03:10:25 1515744625.704873: $GPGSV,3,1,12,02,58,268,48,05,16,195,37,06,73,010,50,12,45,303,51*7C
2018-01-12 03:10:25 1515744625.705069: $GPGSV,3,2,12,17,39,094,40,19,56,078,43,25,10,321,38,09,09,097,18*77
2018-01-12 03:10:25 1515744625.705136: $GPGSV,3,3,12,23,07,064,20,24,09,253,31,03,02,034,10,138,38,213,38*48
2018-01-12 03:10:25 1515744625.818279: $GPZDA,081026.00,12,01,2018,00,00*62
2018-01-12 03:10:25 1515744625.818512: $GPGGA,081026,3946.9598,N,08404.9843,W,2,12,1.00,284.35,M,-33.324,M,,*77
2018-01-12 03:10:25 1515744625.818605: $GPRMC,081026,A,3946.9598,N,08404.9843,W,0.0000,0.000,120118,,*32
2018-01-12 03:10:25 1515744625.818684: $GPGSA,A,3,2,5,6,12,17,19,25,9,23,24,3,138,2.4,1.0,2.1*3A
2018-01-12 03:10:26 1515744626.443648: $GPZDA,081027.00,12,01,2018,00,00*63
2018-01-12 03:10:26 1515744626.443840: $GPGGA,081027,3946.9598,N,08404.9843,W,2,12,1.00,284.35,M,-33.324,M,,*76
2018-01-12 03:10:26 1515744626.443908: $GPRMC,081027,A,3946.9598,N,08404.9843,W,0.0000,0.000,120118,,*33
2018-01-12 03:10:26 1515744626.443969: $GPGSA,A,3,2,5,6,12,17,19,25,9,23,24,3,138,2.4,1.0,2.1*3A
2018-01-12 03:10:27 1515744627.375800: $GPZDA,081028.00,12,01,2018,00,00*6C
2018-01-12 03:10:27 1515744627.375982: $GPGGA,081028,3946.9598,N,08404.9843,W,2,12,1.00,284.35,M,-33.324,M,,*79
2018-01-12 03:10:27 1515744627.376050: $GPRMC,081028,A,3946.9598,N,08404.9843,W,0.0000,0.000,120118,,*3C
2018-01-12 03:10:27 1515744627.376111: $GPGSA,A,3,2,5,6,12,17,19,25,9,23,24,3,138,2.4,1.0,2.1*3A
2018-01-12 03:10:28 1515744628.706710: $GPGSV,3,1,12,02,58,268,47,05,16,195,37,06,73,010,50,12,45,303,51*73
2018-01-12 03:10:28 1515744628.706908: $GPGSV,3,2,12,17,39,094,40,19,56,078,44,25,10,321,39,09,09,097,19*70
2018-01-12 03:10:28 1515744628.706975: $GPGSV,3,3,12,23,07,064,20,24,09,253,31,03,02,034,11,138,38,213,39*48
2018-01-12 03:10:28 1515744628.820189: $GPZDA,081029.00,12,01,2018,00,00*6D
2018-01-12 03:10:28 1515744628.820360: $GPGGA,081029,3946.9598,N,08404.9843,W,2,12,1.00,284.35,M,-33.324,M,,*78
2018-01-12 03:10:28 1515744628.820429: $GPRMC,081029,A,3946.9598,N,08404.9843,W,0.0000,0.000,120118,,*3D
2018-01-12 03:10:28 1515744628.820489: $GPGSA,A,3,2,5,6,12,17,19,25,9,23,24,3,138,2.4,1.0,2.1*3A
2018-01-12 03:10:29 1515744629.369742: $GPZDA,081030.00,12,01,2018,00,00*65
2018-01-12 03:10:29 1515744629.369914: $GPGGA,081030,3946.9598,N,08404.9843,W,2,12,1.00,284.35,M,-33.324,M,,*70
2018-01-12 03:10:29 1515744629.369995: $GPRMC,081030,A,3946.9598,N,08404.9843,W,0.0000,0.000,120118,,*35
2018-01-12 03:10:29 1515744629.370060: $GPGSA,A,3,2,5,6,12,17,19,25,9,23,24,3,138,2.4,1.0,2.1*3A
2018-01-12 03:10:30 1515744630.372858: $GPZDA,081031.00,12,01,2018,00,00*64
2018-01-12 03:10:30 1515744630.373034: $GPGGA,081031,3946.9598,N,08404.9843,W,2,12,1.00,284.35,M,-33.324,M,,*71
2018-01-12 03:10:30 1515744630.373158: $GPRMC,081031,A,3946.9598,N,08404.9843,W,0.0000,0.000,120118,,*34
2018-01-12 03:10:30 1515744630.373220: $GPGSA,A,3,2,5,6,12,17,19,25,9,23,24,3,138,2.4,1.0,2.1*3A
2018-01-12 03:10:31 1515744631.713446: $GPGSV,3,1,12,02,58,268,47,05,16,195,38,06,73,010,50,12,45,303,51*7C
2018-01-12 03:10:31 1515744631.713669: $GPGSV,3,2,12,17,39,094,40,19,56,078,44,25,10,321,39,09,09,097,19*70
2018-01-12 03:10:31 1515744631.713736: $GPGSV,3,3,12,23,07,064,19,24,09,253,26,03,02,034,17,138,38,213,33*48
2018-01-12 03:10:31 1515744631.822701: $GPZDA,081032.00,12,01,2018,00,00*67
2018-01-12 03:10:31 1515744631.822874: $GPGGA,081032,3946.9598,N,08404.9843,W,2,12,1.00,284.35,M,-33.324,M,,*72
2018-01-12 03:10:31 1515744631.822942: $GPRMC,081032,A,3946.9598,N,08404.9843,W,0.0000,0.000,120118,,*37
2018-01-12 03:10:31 1515744631.823004: $GPGSA,A,3,2,5,6,12,17,19,25,9,23,24,3,138,2.4,1.0,2.1*3A
2018-01-12 03:10:32 1515744632.375229: $GPZDA,081033.00,12,01,2018,00,00*66
2018-01-12 03:10:32 1515744632.375410: $GPGGA,081033,3946.9598,N,08404.9843,W,2,12,1.00,284.35,M,-33.324,M,,*73
2018-01-12 03:10:32 1515744632.375478: $GPRMC,081033,A,3946.9598,N,08404.9843,W,0.0000,0.000,120118,,*36
2018-01-12 03:10:32 1515744632.375542: $GPGSA,A,3,2,5,6,12,17,19,25,9,23,24,3,138,2.4,1.0,2.1*3A
2018-01-12 03:10:33 1515744633.371060: $GPZDA,081034.00,12,01,2018,00,00*61
2018-01-12 03:10:33 1515744633.371241: $GPGGA,081034,3946.9598,N,08404.9843,W,2,12,1.00,284.35,M,-33.324,M,,*74
2018-01-12 03:10:33 1515744633.371311: $GPRMC,081034,A,3946.9598,N,08404.9843,W,0.0000,0.000,120118,,*31
2018-01-12 03:10:33 1515744633.371374: $GPGSA,A,3,2,5,6,12,17,19,25,9,23,24,3,138,2.4,1.0,2.1*3A
2018-01-12 03:10:34 1515744634.706541: $GPGSV,3,1,12,02,58,268,47,05,16,195,38,06,73,010,50,12,45,303,51*7C
2018-01-12 03:10:34 1515744634.706725: $GPGSV,3,2,12,17,39,094,40,19,56,078,44,25,10,321,39,09,09,097,18*71
2018-01-12 03:10:34 1515744634.706794: $GPGSV,3,3,12,23,07,064,18,24,09,253,26,03,02,034,16,138,38,213,36*4D
2018-01-12 03:10:34 1515744634.820211: $GPZDA,081035.00,12,01,2018,00,00*60
2018-01-12 03:10:34 1515744634.820382: $GPGGA,081035,3946.9594,N,08404.9844,W,2,12,1.00,285.11,M,-33.324,M,,*79
2018-01-12 03:10:34 1515744634.820448: $GPRMC,081035,A,3946.9594,N,08404.9844,W,0.0000,0.000,120118,,*3B
2018-01-12 03:10:34 1515744634.820510: $GPGSA,A,3,2,5,6,12,17,19,25,9,23,24,3,138,2.4,1.0,2.1*3A
2018-01-12 03:10:35 1515744635.374611: $GPZDA,081036.00,12,01,2018,00,00*63
2018-01-12 03:10:35 1515744635.374789: $GPGGA,081036,3946.9594,N,08404.9844,W,2,12,1.00,285.11,M,-33.324,M,,*7A
2018-01-12 03:10:35 1515744635.374857: $GPRMC,081036,A,3946.9594,N,08404.9844,W,0.0000,0.000,120118,,*38
2018-01-12 03:10:35 1515744635.374918: $GPGSA,A,3,2,5,6,12,17,19,25,9,23,24,3,138,2.4,1.0,2.1*3A
2018-01-12 03:10:36 1515744636.367864: $GPZDA,081037.00,12,01,2018,00,00*62
2018-01-12 03:10:36 1515744636.368049: $GPGGA,081037,3946.9594,N,08404.9844,W,2,12,1.00,285.11,M,-33.324,M,,*7B
2018-01-12 03:10:36 1515744636.368118: $GPRMC,081037,A,3946.9594,N,08404.9844,W,0.0000,0.000,120118,,*39
2018-01-12 03:10:36 1515744636.368178: $GPGSA,A,3,2,5,6,12,17,19,25,9,23,24,3,138,2.4,1.0,2.1*3A
2018-01-12 03:10:37 1515744637.706901: $GPGSV,3,1,12,02,58,268,48,05,16,195,38,06,73,010,50,12,45,303,51*73
2018-01-12 03:10:37 1515744637.707093: $GPGSV,3,2,12,17,39,094,40,19,56,078,44,25,10,321,40,09,09,097,18*7F
2018-01-12 03:10:37 1515744637.707159: $GPGSV,3,3,12,23,07,064,17,24,09,253,27,03,02,034,16,138,38,213,38*4D
2018-01-12 03:10:37 1515744637.820535: $GPZDA,081038.00,12,01,2018,00,00*6D
2018-01-12 03:10:37 1515744637.820709: $GPGGA,081038,3946.9594,N,08404.9844,W,2,12,1.00,285.11,M,-33.324,M,,*74
2018-01-12 03:10:37 1515744637.820777: $GPRMC,081038,A,3946.9594,N,08404.9844,W,0.0000,0.000,120118,,*36
2018-01-12 03:10:37 1515744637.820837: $GPGSA,A,3,2,5,6,12,17,19,25,9,23,24,3,138,2.4,1.0,2.1*3A
2018-01-12 03:10:38 1515744638.370053: $GPZDA,081039.00,12,01,2018,00,00*6C
2018-01-12 03:10:38 1515744638.370312: $GPGGA,081039,3946.9594,N,08404.9844,W,2,12,1.00,285.11,M,-33.324,M,,*75
2018-01-12 03:10:38 1515744638.370392: $GPRMC,081039,A,3946.9594,N,08404.9844,W,0.0000,0.000,120118,,*37
2018-01-12 03:10:38 1515744638.370454: $GPGSA,A,3,2,5,6,12,17,19,25,9,23,24,3,138,2.4,1.0,2.1*3A
2018-01-12 03:10:39 1515744639.369644: $GPZDA,081040.00,12,01,2018,00,00*62
2018-01-12 03:10:39 1515744639.369815: $GPGGA,081040,3946.9594,N,08404.9844,W,2,12,1.00,285.11,M,-33.324,M,,*7B
2018-01-12 03:10:39 1515744639.369884: $GPRMC,081040,A,3946.9594,N,08404.9844,W,0.0000,0.000,120118,,*39
2018-01-12 03:10:39 1515744639.369945: $GPGSA,A,3,2,5,6,12,17,19,25,9,23,24,3,138,2.4,1.0,2.1*3A
2018-01-12 03:10:40 1515744640.705175: $GPGSV,3,1,12,02,58,268,48,05,16,195,38,06,73,010,50,12,45,303,51*73
2018-01-12 03:10:40 1515744640.705345: $GPGSV,3,2,12,17,39,094,40,19,56,078,44,25,10,321,40,09,09,097,17*70
2018-01-12 03:10:40 1515744640.705411: $GPGSV,3,3,12,23,07,064,18,24,09,253,27,03,02,034,16,138,38,213,39*43
2018-01-12 03:10:40 1515744640.818839: $GPZDA,081041.00,12,01,2018,00,00*63
2018-01-12 03:10:40 1515744640.819010: $GPGGA,081041,3946.9594,N,08404.9844,W,2,12,1.00,285.11,M,-33.324,M,,*7A
2018-01-12 03:10:40 1515744640.819077: $GPRMC,081041,A,3946.9594,N,08404.9844,W,0.0000,0.000,120118,,*38
2018-01-12 03:10:40 1515744640.819138: $GPGSA,A,3,2,5,6,12,17,19,25,9,23,24,3,138,2.4,1.0,2.1*3A
2018-01-12 03:10:41 1515744641.444401: $GPZDA,081042.00,12,01,2018,00,00*60
2018-01-12 03:10:41 1515744641.444576: $GPGGA,081042,3946.9594,N,08404.9844,W,2,12,1.00,285.11,M,-33.324,M,,*79
2018-01-12 03:10:41 1515744641.444643: $GPRMC,081042,A,3946.9594,N,08404.9844,W,0.0000,0.000,120118,,*3B
2018-01-12 03:10:41 1515744641.444706: $GPGSA,A,3,2,5,6,12,17,19,25,9,23,24,3,138,2.4,1.0,2.1*3A
2018-01-12 03:10:42 1515744642.367296: $GPZDA,081043.00,12,01,2018,00,00*61
2018-01-12 03:10:42 1515744642.367491: $GPGGA,081043,3946.9598,N,08404.9844,W,2,12,1.00,285.75,M,-33.324,M,,*76
2018-01-12 03:10:42 1515744642.367563: $GPRMC,081043,A,3946.9598,N,08404.9844,W,0.0000,0.000,120118,,*36
2018-01-12 03:10:42 1515744642.367632: $GPGSA,A,3,2,5,6,12,17,19,25,9,23,24,3,138,2.4,1.0,2.1*3A
