2018-01-11 20:20:56 1515720056.817066: {"class":"VERSION","release":"3.16","rev":"3.16-4","proto_major":3,"proto_minor":11}
2018-01-11 20:20:56 1515720056.818347: {"class":"DEVICES","devices":[{"class":"DEVICE","path":"/dev/ttyUSB0","driver":"SiRF","subtype":"9\u0006GSD4e_4.1.2-P1_RPATCH.05-F-GPS-4R-1510281 11/03/2015 307","activated":"2018-01-12T01:20:56.392Z","flags":1,"native":1,"bps":4800,"parity":"N","stopbits":1,"cycle":1.00}]}
2018-01-11 20:20:56 1515720056.818498: {"class":"WATCH","enable":true,"json":false,"nmea":true,"raw":0,"scaled":false,"timing":false,"split24":false,"pps":false}
2018-01-11 20:20:57 1515720057.188762: $GPZDA,012057.88,12,01,2018,00,00*6E
2018-01-11 20:20:57 1515720057.188928: $GPGGA,012057,3946.9563,N,08404.9784,W,1,11,0.80,299.80,M,-33.324,M,,*70
2018-01-11 20:20:57 1515720057.188994: $GPRMC,012057,A,3946.9563,N,08404.9784,W,0.3155,129.994,120118,,*32
2018-01-11 20:20:57 1515720057.189118: $GPGSA,A,3,7,8,9,11,16,23,27,28,30,1,138,,4.0,0.8,3.5*0F
2018-01-11 20:20:57 1515720057.189178: $GPGBS,012057,14.62,M,24.83,M,80.38,M*00
2018-01-11 20:20:58 1515720058.247745: $GPZDA,012058.38,12,01,2018,00,00*6A
2018-01-11 20:20:58 1515720058.247915: $GPGGA,012058,3946.9559,N,08404.9784,W,1,11,0.80,299.16,M,-33.324,M,,*79
2018-01-11 20:20:58 1515720058.247981: $GPRMC,012058,A,3946.9559,N,08404.9784,W,0.3423,184.197,120118,,*3C
2018-01-11 20:20:58 1515720058.248041: $GPGSA,A,3,7,8,9,11,16,23,27,28,30,1,138,,4.0,0.8,3.5*0F
2018-01-11 20:20:59 1515720059.367572: $GPGSV,3,1,11,07,60,316,44,08,75,112,46,09,44,223,44,11,24,166,46*7B
2018-01-11 20:20:59 1515720059.367745: $GPGSV,3,2,11,16,19,063,39,23,24,189,50,27,43,049,51,28,17,262,38*70
2018-01-11 20:20:59 1515720059.367810: $GPGSV,3,3,11,30,33,307,35,01,02,162,00,138,38,213,00*7F
2018-01-11 20:20:59 1515720059.481182: $GPZDA,012059.00,12,01,2018,00,00*60
2018-01-11 20:20:59 1515720059.481326: $GPGGA,012059,3946.9559,N,08404.9791,W,1,09,0.80,299.08,M,-33.324,M,,*7A
2018-01-11 20:20:59 1515720059.481407: $GPRMC,012059,A,3946.9559,N,08404.9791,W,0.0000,0.000,120118,,*3D
2018-01-11 20:20:59 1515720059.481469: $GPGSA,A,3,7,8,9,11,16,23,27,28,30,,,,4.0,0.8,3.5*04
2018-01-11 20:20:59 1515720059.932164: $GPZDA,012100.00,12,01,2018,00,00*6D
2018-01-11 20:20:59 1515720059.932348: $GPGGA,012100,3946.9563,N,08404.9790,W,1,09,0.80,298.32,M,-33.324,M,,*77
2018-01-11 20:20:59 1515720059.932432: $GPRMC,012100,A,3946.9563,N,08404.9790,W,0.1567,9.200,120118,,*36
2018-01-11 20:20:59 1515720059.932493: $GPGSA,A,3,7,8,9,11,16,23,27,28,30,,,,4.0,0.8,3.5*04
2018-01-11 20:21:00 1515720060.386684: $GPZDA,012101.00,12,01,2018,00,00*6C
2018-01-11 20:21:00 1515720060.386835: $GPGGA,012101,3946.9563,N,08404.9797,W,1,09,0.80,298.24,M,-33.324,M,,*76
2018-01-11 20:21:00 1515720060.386903: $GPRMC,012101,A,3946.9563,N,08404.9797,W,0.0000,0.000,120118,,*3E
2018-01-11 20:21:00 1515720060.386963: $GPGSA,A,3,7,8,9,11,16,23,27,28,30,,,,4.0,0.8,3.5*04
2018-01-11 20:21:01 1515720061.722926: $GPGSV,3,1,11,07,60,316,44,08,75,112,47,09,44,223,44,11,24,166,46*7A
2018-01-11 20:21:01 1515720061.723080: $GPGSV,3,2,11,16,19,063,39,23,24,189,50,27,43,049,51,28,17,262,38*70
2018-01-11 20:21:01 1515720061.723144: $GPGSV,3,3,11,30,33,307,34,01,02,162,16,138,38,213,46*7B
2018-01-11 20:21:01 1515720061.836547: $GPZDA,012102.00,12,01,2018,00,00*6F
2018-01-11 20:21:02 1515720062.787799: $GPGGA,012102,3946.9567,N,08404.9797,W,1,11,0.80,298.88,M,-33.324,M,,*7E
2018-01-11 20:21:02 1515720062.787936: $GPRMC,012102,A,3946.9567,N,08404.9797,W,0.0000,0.000,120118,,*39
2018-01-11 20:21:02 1515720062.787998: $GPGSA,A,3,7,8,9,11,16,23,27,28,30,1,138,,4.0,0.8,3.5*0F
2018-01-11 20:21:02 1515720062.788109: $GPZDA,012103.00,12,01,2018,00,00*6E
2018-01-11 20:21:02 1515720062.788166: $GPGGA,012103,3946.9571,N,08404.9797,W,1,11,0.80,298.12,M,-33.324,M,,*7B
2018-01-11 20:21:02 1515720062.788250: $GPRMC,012103,A,3946.9571,N,08404.9797,W,0.0000,0.000,120118,,*3F
2018-01-11 20:21:02 1515720062.788312: $GPGSA,A,3,7,8,9,11,16,23,27,28,30,1,138,,4.0,0.8,3.5*0F
2018-01-11 20:21:03 1515720063.387930: $GPZDA,012104.00,12,01,2018,00,00*69
2018-01-11 20:21:03 1515720063.388130: $GPGGA,012104,3946.9571,N,08404.9804,W,1,11,0.80,298.04,M,-33.324,M,,*7E
2018-01-11 20:21:03 1515720063.388200: $GPRMC,012104,A,3946.9571,N,08404.9804,W,0.3423,184.197,120118,,*39
2018-01-11 20:21:03 1515720063.388288: $GPGSA,A,3,7,8,9,11,16,23,27,28,30,1,138,,4.0,0.8,3.5*0F
2018-01-11 20:21:03 1515720063.388346: $GPGBS,012104,14.62,M,24.83,M,80.38,M*07
2018-01-11 20:21:04 1515720064.722439: $GPGSV,3,1,11,07,60,316,43,08,75,112,46,09,44,223,43,11,24,166,45*78
2018-01-11 20:21:04 1515720064.722609: $GPGSV,3,2,11,16,19,063,38,23,24,189,49,27,43,049,50,28,17,262,37*77
2018-01-11 20:21:04 1515720064.722675: $GPGSV,3,3,11,30,33,307,32,01,02,162,11,138,38,213,47*7B
2018-01-11 20:21:04 1515720064.835800: $GPZDA,012105.00,12,01,2018,00,00*68
2018-01-11 20:21:04 1515720064.835960: $GPGGA,012105,3946.9571,N,08404.9804,W,1,10,0.80,298.04,M,-33.324,M,,*7E
2018-01-11 20:21:04 1515720064.836025: $GPRMC,012105,A,3946.9571,N,08404.9804,W,0.2422,93.794,120118,,*0A
2018-01-11 20:21:04 1515720064.836085: $GPGSA,A,3,7,8,9,11,16,23,27,28,30,138,,,4.0,0.8,3.5*3E
2018-01-11 20:21:05 1515720065.385702: $GPZDA,012106.00,12,01,2018,00,00*6B
2018-01-11 20:21:05 1515720065.385864: $GPGGA,012106,3946.9575,N,08404.9803,W,1,10,0.80,297.27,M,-33.324,M,,*70
2018-01-11 20:21:05 1515720065.385930: $GPRMC,012106,A,3946.9575,N,08404.9803,W,0.2422,93.794,120118,,*0A
2018-01-11 20:21:05 1515720065.385990: $GPGSA,A,3,7,8,9,11,16,23,27,28,30,138,,,4.0,0.8,3.5*3E
2018-01-11 20:21:06 1515720066.387301: $GPZDA,012107.00,12,01,2018,00,00*6A
2018-01-11 20:21:06 1515720066.387479: $GPGGA,012107,3946.9575,N,08404.9803,W,1,10,0.80,297.27,M,-33.324,M,,*71
2018-01-11 20:21:06 1515720066.387545: $GPRMC,012107,A,3946.9575,N,08404.9803,W,0.0000,0.000,120118,,*3D
2018-01-11 20:21:06 1515720066.387605: $GPGSA,A,3,7,8,9,11,16,23,27,28,30,138,,,4.0,0.8,3.5*3E
2018-01-11 20:21:07 1515720067.723995: $GPGSV,3,1,11,07,60,316,43,08,75,112,46,09,44,223,44,11,24,166,45*7F
2018-01-11 20:21:07 1515720067.724151: $GPGSV,3,2,11,16,19,063,37,23,24,189,50,27,43,049,50,28,17,262,37*70
2018-01-11 20:21:07 1515720067.724238: $GPGSV,3,3,11,30,33,307,32,01,02,162,00,138,38,213,45*79
2018-01-11 20:21:07 1515720067.837369: $GPZDA,012108.00,12,01,2018,00,00*65
2018-01-11 20:21:07 1515720067.837497: $GPGGA,012108,3946.9575,N,08404.9810,W,1,10,0.80,297.19,M,-33.324,M,,*71
2018-01-11 20:21:07 1515720067.837563: $GPRMC,012108,A,3946.9575,N,08404.9810,W,0.0000,0.000,120118,,*30
2018-01-11 20:21:07 1515720067.837623: $GPGSA,A,3,7,8,9,11,16,23,27,28,30,138,,,4.0,0.8,3.5*3E
2018-01-11 20:21:08 1515720068.388553: $GPZDA,012109.00,12,01,2018,00,00*64
2018-01-11 20:21:08 1515720068.388706: $GPGGA,012109,3946.9578,N,08404.9809,W,1,10,0.80,296.43,M,-33.324,M,,*7B
2018-01-11 20:21:08 1515720068.388772: $GPRMC,012109,A,3946.9578,N,08404.9809,W,0.0000,0.000,120118,,*34
2018-01-11 20:21:08 1515720068.388833: $GPGSA,A,3,7,8,9,11,16,23,27,28,30,138,,,4.0,0.8,3.5*3E
