2017-11-16 13:24:55 1510856695.216270: {"class":"VERSION","release":"3.17","rev":"3.17","proto_major":3,"proto_minor":12}
2017-11-16 13:24:55 1510856695.216720: {"class":"DEVICES","devices":[{"class":"DEVICE","path":"/dev/ttyUSB0","driver":"SiRF","subtype":"9\u0006GSD4e_4.1.2-P1_RPATCH.05-F-GPS-4R-1510281 11/03/2015 307","activated":"2017-11-16T18:24:55.188Z","flags":1,"native":1,"bps":4800,"parity":"N","stopbits":1,"cycle":1.00}]}
2017-11-16 13:24:55 1510856695.216830: {"class":"WATCH","enable":true,"json":false,"nmea":true,"raw":0,"scaled":false,"timing":false,"split24":false,"pps":false}
2017-11-16 13:24:55 1510856695.366443: $GPZDA,182454.00,16,11,2017,00,00*6B
2017-11-16 13:24:55 1510856695.366617: $GPGGA,182454,3946.9615,N,08404.9845,W,2,11,0.80,303.96,M,-33.324,M,,*79
2017-11-16 13:24:55 1510856695.366678: $GPRMC,182454,A,3946.9615,N,08404.9845,W,0.0000,0.000,161117,,*3B
2017-11-16 13:24:55 1510856695.366734: $GPGSA,A,3,10,13,15,18,20,21,24,27,29,32,138,,1.6,0.8,1.3*03
2017-11-16 13:24:56 1510856696.277191: $GPZDA,182455.00,16,11,2017,00,00*6A
2017-11-16 13:24:56 1510856696.277352: $GPGGA,182455,3946.9615,N,08404.9845,W,2,11,0.80,303.96,M,-33.324,M,,*78
2017-11-16 13:24:56 1510856696.277413: $GPRMC,182455,A,3946.9615,N,08404.9845,W,0.0000,0.000,161117,,*3A
2017-11-16 13:24:56 1510856696.277469: $GPGSA,A,3,10,13,15,18,20,21,24,27,29,32,138,,1.6,0.8,1.3*03
2017-11-16 13:24:57 1510856697.632811: $GPGSV,3,1,12,10,25,285,42,13,27,045,47,15,59,051,51,18,56,303,47*73
2017-11-16 13:24:57 1510856697.632978: $GPGSV,3,2,12,20,49,075,48,21,78,259,46,24,35,136,42,27,17,310,41*7C
2017-11-16 13:24:57 1510856697.633039: $GPGSV,3,3,12,05,02,088,00,29,07,189,30,32,02,226,31,138,38,213,45*45
2017-11-16 13:24:57 1510856697.747404: $GPZDA,182456.00,16,11,2017,00,00*69
2017-11-16 13:24:57 1510856697.747578: $GPGGA,182456,3946.9615,N,08404.9845,W,2,11,0.80,303.96,M,-33.324,M,,*7B
2017-11-16 13:24:57 1510856697.747639: $GPRMC,182456,A,3946.9615,N,08404.9845,W,0.0000,0.000,161117,,*39
2017-11-16 13:24:57 1510856697.747695: $GPGSA,A,3,10,13,15,18,20,21,24,27,29,32,138,,1.6,0.8,1.3*03
2017-11-16 13:24:58 1510856698.297324: $GPZDA,182457.00,16,11,2017,00,00*68
2017-11-16 13:24:58 1510856698.297487: $GPGGA,182457,3946.9615,N,08404.9845,W,2,11,0.80,303.96,M,-33.324,M,,*7A
2017-11-16 13:24:58 1510856698.297547: $GPRMC,182457,A,3946.9615,N,08404.9845,W,0.0000,0.000,161117,,*38
2017-11-16 13:24:58 1510856698.297602: $GPGSA,A,3,10,13,15,18,20,21,24,27,29,32,138,,1.6,0.8,1.3*03
2017-11-16 13:24:59 1510856699.275389: $GPZDA,182458.00,16,11,2017,00,00*67
2017-11-16 13:24:59 1510856699.275602: $GPGGA,182458,3946.9615,N,08404.9845,W,2,11,0.80,303.96,M,-33.324,M,,*75
2017-11-16 13:24:59 1510856699.275687: $GPRMC,182458,A,3946.9615,N,08404.9845,W,0.0000,0.000,161117,,*37
2017-11-16 13:24:59 1510856699.275745: $GPGSA,A,3,10,13,15,18,20,21,24,27,29,32,138,,1.6,0.8,1.3*03
2017-11-16 13:25:00 1510856700.625519: $GPGSV,3,1,12,10,25,285,43,13,27,045,46,15,59,051,51,18,56,303,47*73
2017-11-16 13:25:00 1510856700.625691: $GPGSV,3,2,12,20,49,075,48,21,78,259,46,24,35,136,41,27,17,310,41*7F
2017-11-16 13:25:00 1510856700.625754: $GPGSV,3,3,12,05,02,088,00,29,07,189,30,32,02,226,31,138,38,213,44*44
2017-11-16 13:25:00 1510856700.738819: $GPZDA,182459.00,16,11,2017,00,00*66
2017-11-16 13:25:00 1510856700.738999: $GPGGA,182459,3946.9615,N,08404.9845,W,2,11,0.80,303.96,M,-33.324,M,,*74
2017-11-16 13:25:00 1510856700.739062: $GPRMC,182459,A,3946.9615,N,08404.9845,W,0.0000,0.000,161117,,*36
2017-11-16 13:25:00 1510856700.739117: $GPGSA,A,3,10,13,15,18,20,21,24,27,29,32,138,,1.6,0.8,1.3*03
2017-11-16 13:25:01 1510856701.278681: $GPZDA,182500.00,16,11,2017,00,00*6B
2017-11-16 13:25:01 1510856701.278841: $GPGGA,182500,3946.9615,N,08404.9845,W,2,11,0.80,303.96,M,-33.324,M,,*79
2017-11-16 13:25:01 1510856701.278901: $GPRMC,182500,A,3946.9615,N,08404.9845,W,0.0000,0.000,161117,,*3B
2017-11-16 13:25:01 1510856701.278957: $GPGSA,A,3,10,13,15,18,20,21,24,27,29,32,138,,1.6,0.8,1.3*03
2017-11-16 13:25:02 1510856702.281930: $GPZDA,182501.00,16,11,2017,00,00*6A
2017-11-16 13:25:02 1510856702.282151: $GPGGA,182501,3946.9615,N,08404.9845,W,2,11,0.80,303.96,M,-33.324,M,,*78
2017-11-16 13:25:02 1510856702.282214: $GPRMC,182501,A,3946.9615,N,08404.9845,W,0.0000,0.000,161117,,*3A
2017-11-16 13:25:02 1510856702.282290: $GPGSA,A,3,10,13,15,18,20,21,24,27,29,32,138,,1.6,0.8,1.3*03
2017-11-16 13:25:03 1510856703.633785: $GPGSV,3,1,12,10,25,285,42,13,27,045,46,15,59,051,51,18,56,303,47*72
2017-11-16 13:25:03 1510856703.633941: $GPGSV,3,2,12,20,49,075,47,21,78,259,46,24,35,136,41,27,17,310,42*73
2017-11-16 13:25:03 1510856703.634001: $GPGSV,3,3,12,05,02,088,15,29,07,189,29,32,02,226,31,138,38,213,44*48
2017-11-16 13:25:03 1510856703.747172: $GPZDA,182502.00,16,11,2017,00,00*69
2017-11-16 13:25:03 1510856703.747336: $GPGGA,182502,3946.9615,N,08404.9845,W,2,11,0.80,303.96,M,-33.324,M,,*7B
2017-11-16 13:25:03 1510856703.747396: $GPRMC,182502,A,3946.9615,N,08404.9845,W,0.0000,0.000,161117,,*39
2017-11-16 13:25:03 1510856703.747452: $GPGSA,A,3,10,13,15,18,20,21,24,27,29,32,138,,1.6,0.8,1.3*03
2017-11-16 13:25:04 1510856704.276661: $GPZDA,182503.00,16,11,2017,00,00*68
2017-11-16 13:25:04 1510856704.324661: $GPGGA,182503,3946.9615,N,08404.9845,W,2,11,0.80,303.96,M,-33.324,M,,*7A
2017-11-16 13:25:04 1510856704.324819: $GPRMC,182503,A,3946.9615,N,08404.9845,W,0.0000,0.000,161117,,*38
2017-11-16 13:25:04 1510856704.324877: $GPGSA,A,3,10,13,15,18,20,21,24,27,29,32,138,,1.6,0.8,1.3*03
2017-11-16 13:25:05 1510856705.297111: $GPZDA,182504.00,16,11,2017,00,00*6F
2017-11-16 13:25:05 1510856705.297273: $GPGGA,182504,3946.9615,N,08404.9845,W,2,11,0.80,303.96,M,-33.324,M,,*7D
2017-11-16 13:25:05 1510856705.297333: $GPRMC,182504,A,3946.9615,N,08404.9845,W,0.0000,0.000,161117,,*3F
2017-11-16 13:25:05 1510856705.297388: $GPGSA,A,3,10,13,15,18,20,21,24,27,29,32,138,,1.6,0.8,1.3*03
2017-11-16 13:25:06 1510856706.619045: $GPGSV,3,1,12,10,25,285,41,13,27,045,46,15,59,051,51,18,56,303,47*71
2017-11-16 13:25:06 1510856706.619213: $GPGSV,3,2,12,20,49,075,47,21,78,259,46,24,35,136,41,27,17,310,42*73
2017-11-16 13:25:06 1510856706.619274: $GPGSV,3,3,12,05,02,088,01,29,07,189,29,32,02,226,30,138,38,213,44*4C
2017-11-16 13:25:06 1510856706.732563: $GPZDA,182505.00,16,11,2017,00,00*6E
2017-11-16 13:25:06 1510856706.732728: $GPGGA,182505,3946.9615,N,08404.9845,W,2,11,0.80,303.96,M,-33.324,M,,*7C
2017-11-16 13:25:06 1510856706.732789: $GPRMC,182505,A,3946.9615,N,08404.9845,W,0.0000,0.000,161117,,*3E
2017-11-16 13:25:06 1510856706.732845: $GPGSA,A,3,10,13,15,18,20,21,24,27,29,32,138,,1.6,0.8,1.3*03
2017-11-16 13:25:07 1510856707.289686: $GPZDA,182506.00,16,11,2017,00,00*6D
2017-11-16 13:25:07 1510856707.289875: $GPGGA,182506,3946.9615,N,08404.9845,W,2,11,0.80,303.96,M,-33.324,M,,*7F
2017-11-16 13:25:07 1510856707.289942: $GPRMC,182506,A,3946.9615,N,08404.9845,W,0.0000,0.000,161117,,*3D
2017-11-16 13:25:07 1510856707.290017: $GPGSA,A,3,10,13,15,18,20,21,24,27,29,32,138,,1.6,0.8,1.3*03
2017-11-16 13:25:08 1510856708.289344: $GPZDA,182507.00,16,11,2017,00,00*6C
2017-11-16 13:25:08 1510856708.289494: $GPGGA,182507,3946.9615,N,08404.9845,W,2,11,0.80,303.96,M,-33.324,M,,*7E
2017-11-16 13:25:08 1510856708.289557: $GPRMC,182507,A,3946.9615,N,08404.9845,W,0.0000,0.000,161117,,*3C
2017-11-16 13:25:08 1510856708.289615: $GPGSA,A,3,10,13,15,18,20,21,24,27,29,32,138,,1.6,0.8,1.3*03
2017-11-16 13:25:09 1510856709.616390: $GPGSV,3,1,12,10,25,285,42,13,27,045,46,15,59,051,51,18,56,303,47*72
2017-11-16 13:25:09 1510856709.616568: $GPGSV,3,2,12,20,49,075,48,21,78,259,46,24,35,136,42,27,17,310,43*7E
2017-11-16 13:25:09 1510856709.616630: $GPGSV,3,3,12,05,02,088,00,29,07,189,30,32,02,226,30,138,38,213,45*44
2017-11-16 13:25:09 1510856709.729540: $GPZDA,182508.00,16,11,2017,00,00*63
2017-11-16 13:25:09 1510856709.729703: $GPGGA,182508,3946.9615,N,08404.9845,W,2,11,0.80,303.96,M,-33.324,M,,*71
2017-11-16 13:25:09 1510856709.729784: $GPRMC,182508,A,3946.9615,N,08404.9845,W,0.0000,0.000,161117,,*33
2017-11-16 13:25:09 1510856709.729844: $GPGSA,A,3,10,13,15,18,20,21,24,27,29,32,138,,1.6,0.8,1.3*03
