2017-12-01 15:49:22 1512161362.796626: {"class":"VERSION","release":"3.16","rev":"3.16-4","proto_major":3,"proto_minor":11}
2017-12-01 15:49:22 1512161362.797056: {"class":"DEVICES","devices":[{"class":"DEVICE","path":"/dev/ttyUSB0","driver":"SiRF","subtype":"9\u0006GSD4e_4.1.2-P1_RPATCH.05-F-GPS-4R-1510281 11/03/2015 307","activated":"2017-12-01T20:49:22.722Z","flags":1,"native":1,"bps":4800,"parity":"N","stopbits":1,"cycle":1.00}]}
2017-12-01 15:49:22 1512161362.797192: {"class":"WATCH","enable":true,"json":false,"nmea":true,"raw":0,"scaled":false,"timing":false,"split24":false,"pps":false}
2017-12-01 15:49:23 1512161363.743481: $GPGSV,3,1,12,01,15,316,39,10,68,133,47,12,25,069,38,14,56,294,43*70
2017-12-01 15:49:23 1512161363.743660: $GPGSV,3,2,12,18,35,136,48,24,12,045,39,25,31,112,43,31,37,213,50*71
2017-12-01 15:49:23 1512161363.743727: $GPGSV,3,3,12,32,68,334,48,11,11,300,29,22,04,310,29,138,38,213,46*4B
2017-12-01 15:49:23 1512161363.857181: $GPZDA,204924.00,01,12,2017,00,00*69
2017-12-01 15:49:23 1512161363.857350: $GPGGA,204924,3946.9572,N,08404.9869,W,2,12,0.80,300.90,M,-33.324,M,,*74
2017-12-01 15:49:23 1512161363.857415: $GPRMC,204924,A,3946.9572,N,08404.9869,W,0.0000,0.000,011217,,*35
2017-12-01 15:49:23 1512161363.857477: $GPGSA,A,3,1,10,12,14,18,24,25,31,32,11,22,138,2.0,0.8,1.5*3B
2017-12-01 15:49:24 1512161364.406542: $GPZDA,204925.00,01,12,2017,00,00*68
2017-12-01 15:49:24 1512161364.406714: $GPGGA,204925,3946.9572,N,08404.9869,W,2,12,0.80,300.90,M,-33.324,M,,*75
2017-12-01 15:49:24 1512161364.406783: $GPRMC,204925,A,3946.9572,N,08404.9869,W,0.0000,0.000,011217,,*34
2017-12-01 15:49:24 1512161364.406843: $GPGSA,A,3,1,10,12,14,18,24,25,31,32,11,22,138,2.0,0.8,1.5*3B
2017-12-01 15:49:25 1512161365.408863: $GPZDA,204926.00,01,12,2017,00,00*6B
2017-12-01 15:49:25 1512161365.409022: $GPGGA,204926,3946.9572,N,08404.9869,W,2,12,0.80,300.90,M,-33.324,M,,*76
2017-12-01 15:49:25 1512161365.409088: $GPRMC,204926,A,3946.9572,N,08404.9869,W,0.0000,0.000,011217,,*37
2017-12-01 15:49:25 1512161365.409154: $GPGSA,A,3,1,10,12,14,18,24,25,31,32,11,22,138,2.0,0.8,1.5*3B
2017-12-01 15:49:26 1512161366.743047: $GPGSV,3,1,12,01,15,316,39,10,68,133,47,12,25,069,38,14,56,294,43*70
2017-12-01 15:49:26 1512161366.743230: $GPGSV,3,2,12,18,35,136,47,24,12,045,39,25,31,112,43,31,37,213,49*76
2017-12-01 15:49:26 1512161366.743298: $GPGSV,3,3,12,32,68,334,48,11,11,300,26,22,04,310,30,138,38,213,45*4F
2017-12-01 15:49:26 1512161366.856692: $GPZDA,204927.00,01,12,2017,00,00*6A
2017-12-01 15:49:26 1512161366.856847: $GPGGA,204927,3946.9572,N,08404.9869,W,2,12,0.80,300.90,M,-33.324,M,,*77
2017-12-01 15:49:26 1512161366.856911: $GPRMC,204927,A,3946.9572,N,08404.9869,W,0.0000,0.000,011217,,*36
2017-12-01 15:49:26 1512161366.856973: $GPGSA,A,3,1,10,12,14,18,24,25,31,32,11,22,138,2.0,0.8,1.5*3B
2017-12-01 15:49:27 1512161367.407324: $GPZDA,204928.00,01,12,2017,00,00*65
2017-12-01 15:49:27 1512161367.407496: $GPGGA,204928,3946.9572,N,08404.9869,W,2,12,0.80,300.90,M,-33.324,M,,*78
2017-12-01 15:49:27 1512161367.407563: $GPRMC,204928,A,3946.9572,N,08404.9869,W,0.0000,0.000,011217,,*39
2017-12-01 15:49:27 1512161367.407625: $GPGSA,A,3,1,10,12,14,18,24,25,31,32,11,22,138,2.0,0.8,1.5*3B
2017-12-01 15:49:28 1512161368.406464: $GPZDA,204929.00,01,12,2017,00,00*64
2017-12-01 15:49:28 1512161368.406645: $GPGGA,204929,3946.9572,N,08404.9869,W,2,12,0.80,300.90,M,-33.324,M,,*79
2017-12-01 15:49:28 1512161368.406714: $GPRMC,204929,A,3946.9572,N,08404.9869,W,0.0000,0.000,011217,,*38
2017-12-01 15:49:28 1512161368.406776: $GPGSA,A,3,1,10,12,14,18,24,25,31,32,11,22,138,2.0,0.8,1.5*3B
2017-12-01 15:49:29 1512161369.743433: $GPGSV,3,1,12,01,15,316,39,10,68,133,47,12,25,069,38,14,56,294,43*70
2017-12-01 15:49:29 1512161369.743615: $GPGSV,3,2,12,18,35,136,47,24,12,045,39,25,31,112,42,31,37,213,50*7F
2017-12-01 15:49:29 1512161369.743682: $GPGSV,3,3,12,32,68,334,48,11,11,300,33,22,04,310,30,138,38,213,46*48
2017-12-01 15:49:29 1512161369.856818: $GPZDA,204930.00,01,12,2017,00,00*6C
2017-12-01 15:49:29 1512161369.857006: $GPGGA,204930,3946.9572,N,08404.9869,W,2,12,0.80,300.90,M,-33.324,M,,*71
2017-12-01 15:49:29 1512161369.857133: $GPRMC,204930,A,3946.9572,N,08404.9869,W,0.0000,0.000,011217,,*30
2017-12-01 15:49:29 1512161369.857196: $GPGSA,A,3,1,10,12,14,18,24,25,31,32,11,22,138,2.0,0.8,1.5*3B
2017-12-01 15:49:30 1512161370.407685: $GPZDA,204931.00,01,12,2017,00,00*6D
2017-12-01 15:49:30 1512161370.407861: $GPGGA,204931,3946.9572,N,08404.9869,W,2,12,0.80,300.90,M,-33.324,M,,*70
2017-12-01 15:49:30 1512161370.407930: $GPRMC,204931,A,3946.9572,N,08404.9869,W,0.0000,0.000,011217,,*31
2017-12-01 15:49:30 1512161370.407995: $GPGSA,A,3,1,10,12,14,18,24,25,31,32,11,22,138,2.0,0.8,1.5*3B
2017-12-01 15:49:31 1512161371.402508: $GPZDA,204932.00,01,12,2017,00,00*6E
2017-12-01 15:49:31 1512161371.402672: $GPGGA,204932,3946.9572,N,08404.9869,W,2,12,0.80,300.90,M,-33.324,M,,*73
2017-12-01 15:49:31 1512161371.402742: $GPRMC,204932,A,3946.9572,N,08404.9869,W,0.0000,0.000,011217,,*32
2017-12-01 15:49:31 1512161371.402808: $GPGSA,A,3,1,10,12,14,18,24,25,31,32,11,22,138,2.0,0.8,1.5*3B
2017-12-01 15:49:32 1512161372.736862: $GPGSV,3,1,12,01,15,316,39,10,68,133,46,12,25,069,39,14,56,294,43*70
2017-12-01 15:49:32 1512161372.737053: $GPGSV,3,2,12,18,35,136,47,24,12,045,39,25,31,112,42,31,37,213,49*77
2017-12-01 15:49:32 1512161372.737126: $GPGSV,3,3,12,32,68,334,48,11,11,300,31,22,04,310,30,138,38,213,45*49
2017-12-01 15:49:32 1512161372.850412: $GPZDA,204933.00,01,12,2017,00,00*6F
2017-12-01 15:49:32 1512161372.850562: $GPGGA,204933,3946.9572,N,08404.9869,W,2,12,0.80,300.90,M,-33.324,M,,*72
2017-12-01 15:49:32 1512161372.850628: $GPRMC,204933,A,3946.9572,N,08404.9869,W,0.0000,0.000,011217,,*33
2017-12-01 15:49:32 1512161372.850689: $GPGSA,A,3,1,10,12,14,18,24,25,31,32,11,22,138,2.0,0.8,1.5*3B
2017-12-01 15:49:33 1512161373.475563: $GPZDA,204934.00,01,12,2017,00,00*68
2017-12-01 15:49:33 1512161373.475758: $GPGGA,204934,3946.9572,N,08404.9869,W,2,12,0.80,300.90,M,-33.324,M,,*75
2017-12-01 15:49:33 1512161373.475826: $GPRMC,204934,A,3946.9572,N,08404.9869,W,0.0000,0.000,011217,,*34
2017-12-01 15:49:33 1512161373.475888: $GPGSA,A,3,1,10,12,14,18,24,25,31,32,11,22,138,2.0,0.8,1.5*3B
2017-12-01 15:49:34 1512161374.407686: $GPZDA,204935.00,01,12,2017,00,00*69
2017-12-01 15:49:34 1512161374.407870: $GPGGA,204935,3946.9572,N,08404.9869,W,2,12,0.80,300.90,M,-33.324,M,,*74
2017-12-01 15:49:34 1512161374.407937: $GPRMC,204935,A,3946.9572,N,08404.9869,W,0.0000,0.000,011217,,*35
2017-12-01 15:49:34 1512161374.408002: $GPGSA,A,3,1,10,12,14,18,24,25,31,32,11,22,138,2.0,0.8,1.5*3B
2017-12-01 15:49:35 1512161375.743412: $GPGSV,3,1,12,01,15,316,39,10,68,133,47,12,25,069,38,14,56,294,43*70
2017-12-01 15:49:35 1512161375.743595: $GPGSV,3,2,12,18,35,136,48,24,12,045,38,25,31,112,42,31,37,213,49*79
2017-12-01 15:49:35 1512161375.743662: $GPGSV,3,3,12,32,68,334,48,11,11,300,28,22,04,310,31,138,38,213,46*43
2017-12-01 15:49:35 1512161375.856773: $GPZDA,204936.00,01,12,2017,00,00*6A
2017-12-01 15:49:35 1512161375.856945: $GPGGA,204936,3946.9576,N,08404.9869,W,2,12,0.80,301.54,M,-33.324,M,,*7A
2017-12-01 15:49:35 1512161375.857015: $GPRMC,204936,A,3946.9576,N,08404.9869,W,0.0000,0.000,011217,,*32
2017-12-01 15:49:35 1512161375.857080: $GPGSA,A,3,1,10,12,14,18,24,25,31,32,11,22,138,2.0,0.8,1.5*3B
2017-12-01 15:49:36 1512161376.407915: $GPZDA,204937.00,01,12,2017,00,00*6B
2017-12-01 15:49:36 1512161376.408095: $GPGGA,204937,3946.9576,N,08404.9869,W,2,12,0.80,301.54,M,-33.324,M,,*7B
2017-12-01 15:49:36 1512161376.408162: $GPRMC,204937,A,3946.9576,N,08404.9869,W,0.0000,0.000,011217,,*33
2017-12-01 15:49:36 1512161376.408225: $GPGSA,A,3,1,10,12,14,18,24,25,31,32,11,22,138,2.0,0.8,1.5*3B
2017-12-01 15:49:37 1512161377.402361: $GPZDA,204938.00,01,12,2017,00,00*64
2017-12-01 15:49:37 1512161377.402524: $GPGGA,204938,3946.9576,N,08404.9869,W,2,12,0.80,301.54,M,-33.324,M,,*74
2017-12-01 15:49:37 1512161377.402593: $GPRMC,204938,A,3946.9576,N,08404.9869,W,0.0000,0.000,011217,,*3C
2017-12-01 15:49:37 1512161377.402655: $GPGSA,A,3,1,10,12,14,18,24,25,31,32,11,22,138,2.0,0.8,1.5*3B
2017-12-01 15:49:38 1512161378.737540: $GPGSV,3,1,12,01,15,316,40,10,68,133,47,12,25,069,38,14,56,294,42*7F
2017-12-01 15:49:38 1512161378.737732: $GPGSV,3,2,12,18,35,136,48,24,12,045,38,25,31,112,42,31,37,213,50*71
2017-12-01 15:49:38 1512161378.737821: $GPGSV,3,3,12,32,68,334,48,11,11,300,29,22,04,310,33,138,38,213,47*41
2017-12-01 15:49:38 1512161378.851154: $GPZDA,204939.00,01,12,2017,00,00*65
2017-12-01 15:49:38 1512161378.851313: $GPGGA,204939,3946.9576,N,08404.9869,W,2,12,0.80,301.54,M,-33.324,M,,*75
2017-12-01 15:49:38 1512161378.851446: $GPRMC,204939,A,3946.9576,N,08404.9869,W,0.0000,0.000,011217,,*3D
2017-12-01 15:49:38 1512161378.851509: $GPGSA,A,3,1,10,12,14,18,24,25,31,32,11,22,138,2.0,0.8,1.5*3B
2017-12-01 15:49:39 1512161379.406864: $GPZDA,204940.00,01,12,2017,00,00*6B
2017-12-01 15:49:39 1512161379.407045: $GPGGA,204940,3946.9576,N,08404.9869,W,2,12,0.80,301.54,M,-33.324,M,,*7B
2017-12-01 15:49:39 1512161379.407115: $GPRMC,204940,A,3946.9576,N,08404.9869,W,0.0000,0.000,011217,,*33
2017-12-01 15:49:39 1512161379.407178: $GPGSA,A,3,1,10,12,14,18,24,25,31,32,11,22,138,2.0,0.8,1.5*3B
2017-12-01 15:49:40 1512161380.406551: $GPZDA,204941.00,01,12,2017,00,00*6A
2017-12-01 15:49:40 1512161380.406724: $GPGGA,204941,3946.9576,N,08404.9869,W,2,12,0.80,301.54,M,-33.324,M,,*7A
2017-12-01 15:49:40 1512161380.406793: $GPRMC,204941,A,3946.9576,N,08404.9869,W,0.0000,0.000,011217,,*32
2017-12-01 15:49:40 1512161380.406854: $GPGSA,A,3,1,10,12,14,18,24,25,31,32,11,22,138,2.0,0.8,1.5*3B
2017-12-01 15:49:41 1512161381.743405: $GPGSV,3,1,12,01,15,316,39,10,68,133,47,12,25,069,38,14,56,294,43*70
2017-12-01 15:49:41 1512161381.743589: $GPGSV,3,2,12,18,35,136,48,24,12,045,38,25,31,112,43,31,37,213,49*78
2017-12-01 15:49:41 1512161381.743656: $GPGSV,3,3,12,32,68,334,48,11,11,300,30,22,04,310,33,138,38,213,45*4B
2017-12-01 15:49:41 1512161381.856844: $GPZDA,204942.00,01,12,2017,00,00*69
2017-12-01 15:49:41 1512161381.857017: $GPGGA,204942,3946.9573,N,08404.9869,W,2,12,0.80,302.30,M,-33.324,M,,*7D
2017-12-01 15:49:41 1512161381.857089: $GPRMC,204942,A,3946.9573,N,08404.9869,W,0.0000,0.000,011217,,*34
2017-12-01 15:49:41 1512161381.857150: $GPGSA,A,3,1,10,12,14,18,24,25,31,32,11,22,138,2.0,0.8,1.5*3B
2017-12-01 15:49:42 1512161382.402689: $GPZDA,204943.00,01,12,2017,00,00*68
2017-12-01 15:49:42 1512161382.402867: $GPGGA,204943,3946.9573,N,08404.9869,W,2,12,0.80,302.30,M,-33.324,M,,*7C
2017-12-01 15:49:42 1512161382.402939: $GPRMC,204943,A,3946.9573,N,08404.9869,W,0.0000,0.000,011217,,*35
2017-12-01 15:49:42 1512161382.403021: $GPGSA,A,3,1,10,12,14,18,24,25,31,32,11,22,138,2.0,0.8,1.5*3B
