2017-12-01 17:09:55 1512166195.906928: {"class":"VERSION","release":"3.16","rev":"3.16-4","proto_major":3,"proto_minor":11}
2017-12-01 17:09:55 1512166195.907346: {"class":"DEVICES","devices":[{"class":"DEVICE","path":"/dev/ttyUSB0","driver":"SiRF","subtype":"9\u0006GSD4e_4.1.2-P1_RPATCH.05-F-GPS-4R-1510281 11/03/2015 307","activated":"2017-12-01T22:09:55.596Z","flags":1,"native":1,"bps":4800,"parity":"N","stopbits":1,"cycle":1.00}]}
2017-12-01 17:09:55 1512166195.907468: {"class":"WATCH","enable":true,"json":false,"nmea":true,"raw":0,"scaled":false,"timing":false,"split24":false,"pps":false}
2017-12-01 17:09:56 1512166196.455589: $GPZDA,220957.00,01,12,2017,00,00*6B
2017-12-01 17:09:56 1512166196.455760: $GPGGA,220957,3946.9643,N,08404.9733,W,2,12,0.80,296.10,M,-33.324,M,,*71
2017-12-01 17:09:56 1512166196.455826: $GPRMC,220957,A,3946.9643,N,08404.9733,W,0.0000,0.000,011217,,*36
2017-12-01 17:09:56 1512166196.455887: $GPGSA,A,3,1,3,10,12,14,22,26,31,32,11,25,138,2.0,0.8,1.5*03
2017-12-01 17:09:57 1512166197.796901: $GPGSV,3,1,12,01,21,282,41,03,14,316,41,10,29,154,37,12,12,036,24*7D
2017-12-01 17:09:57 1512166197.797082: $GPGSV,3,2,12,14,70,015,46,22,33,307,44,26,18,178,30,31,73,252,48*74
2017-12-01 17:09:57 1512166197.797149: $GPGSV,3,3,12,32,60,067,49,11,02,267,20,25,39,066,33,138,38,213,36*4B
2017-12-01 17:09:57 1512166197.910390: $GPZDA,220958.00,01,12,2017,00,00*64
2017-12-01 17:09:57 1512166197.910554: $GPGGA,220958,3946.9643,N,08404.9733,W,2,12,0.80,296.10,M,-33.324,M,,*7E
2017-12-01 17:09:57 1512166197.910620: $GPRMC,220958,A,3946.9643,N,08404.9733,W,0.0000,0.000,011217,,*39
2017-12-01 17:09:57 1512166197.910681: $GPGSA,A,3,1,3,10,12,14,22,26,31,32,11,25,138,2.0,0.8,1.5*03
2017-12-01 17:09:58 1512166198.460146: $GPZDA,220959.00,01,12,2017,00,00*65
2017-12-01 17:09:58 1512166198.460323: $GPGGA,220959,3946.9643,N,08404.9733,W,2,12,0.80,296.10,M,-33.324,M,,*7F
2017-12-01 17:09:58 1512166198.460390: $GPRMC,220959,A,3946.9643,N,08404.9733,W,0.0000,0.000,011217,,*38
2017-12-01 17:09:58 1512166198.460452: $GPGSA,A,3,1,3,10,12,14,22,26,31,32,11,25,138,2.0,0.8,1.5*03
2017-12-01 17:09:59 1512166199.459799: $GPZDA,221000.00,01,12,2017,00,00*61
2017-12-01 17:09:59 1512166199.459970: $GPGGA,221000,3946.9643,N,08404.9733,W,2,12,0.80,296.10,M,-33.324,M,,*7B
2017-12-01 17:09:59 1512166199.460036: $GPRMC,221000,A,3946.9643,N,08404.9733,W,0.0000,0.000,011217,,*3C
2017-12-01 17:09:59 1512166199.460097: $GPGSA,A,3,1,3,10,12,14,22,26,31,32,11,25,138,2.0,0.8,1.5*03
2017-12-01 17:10:00 1512166200.815574: $GPGSV,3,1,12,01,21,282,41,03,14,316,40,10,29,154,37,12,12,036,25*7D
2017-12-01 17:10:00 1512166200.815757: $GPGSV,3,2,12,14,70,015,46,22,33,307,44,26,18,178,30,31,73,252,49*75
2017-12-01 17:10:00 1512166200.815825: $GPGSV,3,3,12,32,60,067,50,11,02,267,29,25,39,066,27,138,38,213,39*40
2017-12-01 17:10:00 1512166200.928980: $GPZDA,221001.00,01,12,2017,00,00*60
2017-12-01 17:10:00 1512166200.929156: $GPGGA,221001,3946.9643,N,08404.9733,W,2,12,0.80,296.10,M,-33.324,M,,*7A
2017-12-01 17:10:00 1512166200.929224: $GPRMC,221001,A,3946.9643,N,08404.9733,W,0.0000,0.000,011217,,*3D
2017-12-01 17:10:00 1512166200.929286: $GPGSA,A,3,1,3,10,12,14,22,26,31,32,11,25,138,2.0,0.8,1.5*03
2017-12-01 17:10:01 1512166201.461029: $GPZDA,221002.00,01,12,2017,00,00*63
2017-12-01 17:10:01 1512166201.461202: $GPGGA,221002,3946.9643,N,08404.9733,W,2,12,0.80,296.10,M,-33.324,M,,*79
2017-12-01 17:10:01 1512166201.461269: $GPRMC,221002,A,3946.9643,N,08404.9733,W,0.0000,0.000,011217,,*3E
2017-12-01 17:10:01 1512166201.461330: $GPGSA,A,3,1,3,10,12,14,22,26,31,32,11,25,138,2.0,0.8,1.5*03
2017-12-01 17:10:02 1512166202.477698: $GPZDA,221003.00,01,12,2017,00,00*62
2017-12-01 17:10:02 1512166202.477878: $GPGGA,221003,3946.9643,N,08404.9733,W,2,12,0.80,296.10,M,-33.324,M,,*78
2017-12-01 17:10:02 1512166202.477946: $GPRMC,221003,A,3946.9643,N,08404.9733,W,0.0000,0.000,011217,,*3F
2017-12-01 17:10:02 1512166202.478008: $GPGSA,A,3,1,3,10,12,14,22,26,31,32,11,25,138,2.0,0.8,1.5*03
2017-12-01 17:10:03 1512166203.812212: $GPGSV,3,1,12,01,21,282,42,03,14,316,40,10,29,154,37,12,12,036,26*7D
2017-12-01 17:10:03 1512166203.812461: $GPGSV,3,2,12,14,70,015,46,22,33,307,44,26,18,178,30,31,73,252,49*75
2017-12-01 17:10:03 1512166203.812533: $GPGSV,3,3,12,32,60,067,49,11,02,267,25,25,39,066,25,138,38,213,40*48
2017-12-01 17:10:03 1512166203.925804: $GPZDA,221004.00,01,12,2017,00,00*65
2017-12-01 17:10:03 1512166203.925973: $GPGGA,221004,3946.9643,N,08404.9733,W,2,12,0.80,296.10,M,-33.324,M,,*7F
2017-12-01 17:10:03 1512166203.926040: $GPRMC,221004,A,3946.9643,N,08404.9733,W,0.0000,0.000,011217,,*38
2017-12-01 17:10:03 1512166203.926100: $GPGSA,A,3,1,3,10,12,14,22,26,31,32,11,25,138,2.0,0.8,1.5*03
2017-12-01 17:10:04 1512166204.477702: $GPZDA,221005.00,01,12,2017,00,00*64
2017-12-01 17:10:04 1512166204.477873: $GPGGA,221005,3946.9643,N,08404.9733,W,2,12,0.80,296.10,M,-33.324,M,,*7E
2017-12-01 17:10:04 1512166204.477939: $GPRMC,221005,A,3946.9643,N,08404.9733,W,0.0000,0.000,011217,,*39
2017-12-01 17:10:04 1512166204.478001: $GPGSA,A,3,1,3,10,12,14,22,26,31,32,11,25,138,2.0,0.8,1.5*03
2017-12-01 17:10:05 1512166205.477227: $GPZDA,221006.00,01,12,2017,00,00*67
2017-12-01 17:10:05 1512166205.477401: $GPGGA,221006,3946.9643,N,08404.9733,W,2,12,0.80,296.10,M,-33.324,M,,*7D
2017-12-01 17:10:05 1512166205.477469: $GPRMC,221006,A,3946.9643,N,08404.9733,W,0.0000,0.000,011217,,*3A
2017-12-01 17:10:05 1512166205.477529: $GPGSA,A,3,1,3,10,12,14,22,26,31,32,11,25,138,2.0,0.8,1.5*03
2017-12-01 17:10:06 1512166206.791768: $GPGSV,3,1,12,01,21,282,42,03,14,316,40,10,29,154,36,12,12,036,26*7C
2017-12-01 17:10:06 1512166206.791950: $GPGSV,3,2,12,14,70,015,46,22,33,307,44,26,18,178,38,31,73,252,48*7C
2017-12-01 17:10:06 1512166206.792017: $GPGSV,3,3,12,32,60,067,49,11,02,267,19,25,39,066,25,138,38,213,40*47
2017-12-01 17:10:06 1512166206.903825: $GPZDA,221007.00,01,12,2017,00,00*66
2017-12-01 17:10:06 1512166206.903985: $GPGGA,221007,3946.9643,N,08404.9733,W,2,12,0.80,296.10,M,-33.324,M,,*7C
2017-12-01 17:10:06 1512166206.904051: $GPRMC,221007,A,3946.9643,N,08404.9733,W,0.0000,0.000,011217,,*3B
2017-12-01 17:10:06 1512166206.904112: $GPGSA,A,3,1,3,10,12,14,22,26,31,32,11,25,138,2.0,0.8,1.5*03
2017-12-01 17:10:07 1512166207.530467: $GPZDA,221008.00,01,12,2017,00,00*69
2017-12-01 17:10:07 1512166207.530655: $GPGGA,221008,3946.9643,N,08404.9733,W,2,12,0.80,296.10,M,-33.324,M,,*73
2017-12-01 17:10:07 1512166207.530744: $GPRMC,221008,A,3946.9643,N,08404.9733,W,0.0000,0.000,011217,,*34
2017-12-01 17:10:07 1512166207.530807: $GPGSA,A,3,1,3,10,12,14,22,26,31,32,11,25,138,2.0,0.8,1.5*03
2017-12-01 17:10:08 1512166208.461332: $GPZDA,221009.00,01,12,2017,00,00*68
2017-12-01 17:10:08 1512166208.461539: $GPGGA,221009,3946.9643,N,08404.9733,W,2,12,0.80,296.10,M,-33.324,M,,*72
2017-12-01 17:10:08 1512166208.461607: $GPRMC,221009,A,3946.9643,N,08404.9733,W,0.0000,0.000,011217,,*35
2017-12-01 17:10:08 1512166208.461668: $GPGSA,A,3,1,3,10,12,14,22,26,31,32,11,25,138,2.0,0.8,1.5*03
2017-12-01 17:10:09 1512166209.813341: $GPGSV,3,1,12,01,21,282,43,03,14,316,41,10,29,154,37,12,12,036,26*7D
2017-12-01 17:10:09 1512166209.813527: $GPGSV,3,2,12,14,70,015,46,22,33,307,44,26,18,178,38,31,73,252,48*7C
2017-12-01 17:10:09 1512166209.813593: $GPGSV,3,3,12,32,60,067,48,11,02,267,24,25,39,066,24,138,38,213,39*47
2017-12-01 17:10:09 1512166209.926838: $GPZDA,221010.00,01,12,2017,00,00*60
2017-12-01 17:10:09 1512166209.927009: $GPGGA,221010,3946.9643,N,08404.9733,W,2,12,0.80,296.10,M,-33.324,M,,*7A
2017-12-01 17:10:09 1512166209.927076: $GPRMC,221010,A,3946.9643,N,08404.9733,W,0.0000,0.000,011217,,*3D
2017-12-01 17:10:09 1512166209.927137: $GPGSA,A,3,1,3,10,12,14,22,26,31,32,11,25,138,2.0,0.8,1.5*03
2017-12-01 17:10:10 1512166210.461474: $GPZDA,221011.00,01,12,2017,00,00*61
2017-12-01 17:10:10 1512166210.461648: $GPGGA,221011,3946.9643,N,08404.9733,W,2,12,0.80,296.10,M,-33.324,M,,*7B
2017-12-01 17:10:10 1512166210.461715: $GPRMC,221011,A,3946.9643,N,08404.9733,W,0.0000,0.000,011217,,*3C
2017-12-01 17:10:10 1512166210.461776: $GPGSA,A,3,1,3,10,12,14,22,26,31,32,11,25,138,2.0,0.8,1.5*03
2017-12-01 17:10:11 1512166211.477391: $GPZDA,221012.00,01,12,2017,00,00*62
2017-12-01 17:10:11 1512166211.477564: $GPGGA,221012,3946.9643,N,08404.9733,W,2,12,0.80,296.10,M,-33.324,M,,*78
2017-12-01 17:10:11 1512166211.477631: $GPRMC,221012,A,3946.9643,N,08404.9733,W,0.0000,0.000,011217,,*3F
2017-12-01 17:10:11 1512166211.477691: $GPGSA,A,3,1,3,10,12,14,22,26,31,32,11,25,138,2.0,0.8,1.5*03
2017-12-01 17:10:12 1512166212.809946: $GPGSV,3,1,12,01,21,282,44,03,14,316,41,10,29,154,37,12,12,036,26*7A
2017-12-01 17:10:12 1512166212.810148: $GPGSV,3,2,12,14,70,015,46,22,33,307,44,26,18,178,38,31,73,252,48*7C
2017-12-01 17:10:12 1512166212.810218: $GPGSV,3,3,12,32,60,067,49,11,02,267,18,25,39,066,26,138,38,213,40*45
2017-12-01 17:10:12 1512166212.923327: $GPZDA,221013.00,01,12,2017,00,00*63
2017-12-01 17:10:12 1512166212.923572: $GPGGA,221013,3946.9643,N,08404.9733,W,2,12,0.80,296.10,M,-33.324,M,,*79
2017-12-01 17:10:12 1512166212.923645: $GPRMC,221013,A,3946.9643,N,08404.9733,W,0.0000,0.000,011217,,*3E
2017-12-01 17:10:12 1512166212.923710: $GPGSA,A,3,1,3,10,12,14,22,26,31,32,11,25,138,2.0,0.8,1.5*03
2017-12-01 17:10:13 1512166213.477964: $GPZDA,221014.00,01,12,2017,00,00*64
2017-12-01 17:10:13 1512166213.478136: $GPGGA,221014,3946.9643,N,08404.9733,W,2,12,0.80,296.10,M,-33.324,M,,*7E
2017-12-01 17:10:13 1512166213.478205: $GPRMC,221014,A,3946.9643,N,08404.9733,W,0.0000,0.000,011217,,*39
2017-12-01 17:10:13 1512166213.478269: $GPGSA,A,3,1,3,10,12,14,22,26,31,32,11,25,138,2.0,0.8,1.5*03
2017-12-01 17:10:14 1512166214.461400: $GPZDA,221015.00,01,12,2017,00,00*65
2017-12-01 17:10:14 1512166214.461573: $GPGGA,221015,3946.9640,N,08404.9734,W,2,12,0.80,296.87,M,-33.324,M,,*75
2017-12-01 17:10:14 1512166214.461643: $GPRMC,221015,A,3946.9640,N,08404.9734,W,0.0000,0.000,011217,,*3C
2017-12-01 17:10:14 1512166214.461706: $GPGSA,A,3,1,3,10,12,14,22,26,31,32,11,25,138,2.0,0.8,1.5*03
2017-12-01 17:10:15 1512166215.813392: $GPGSV,3,1,12,01,21,282,44,03,14,316,41,10,29,154,37,12,12,036,23*7F
2017-12-01 17:10:15 1512166215.813572: $GPGSV,3,2,12,14,70,015,46,22,33,307,44,26,18,178,39,31,73,252,48*7D
2017-12-01 17:10:15 1512166215.813640: $GPGSV,3,3,12,32,60,067,49,11,02,267,27,25,39,066,26,138,38,213,40*49
