2017-11-15 19:48:22 1510793302.275113: {"class":"VERSION","release":"3.17","rev":"3.17","proto_major":3,"proto_minor":12}
2017-11-15 19:48:22 1510793302.275540: {"class":"DEVICES","devices":[{"class":"DEVICE","path":"/dev/ttyUSB0","driver":"SiRF","subtype":"9\u0006GSD4e_4.1.2-P1_RPATCH.05-F-GPS-4R-1510281 11/03/2015 307","activated":"2017-11-16T00:48:22.231Z","flags":1,"native":1,"bps":4800,"parity":"N","stopbits":1,"cycle":1.00}]}
2017-11-15 19:48:22 1510793302.275658: {"class":"WATCH","enable":true,"json":false,"nmea":true,"raw":0,"scaled":false,"timing":false,"split24":false,"pps":false}
2017-11-15 19:48:22 1510793302.344877: $GPZDA,004821.00,16,11,2017,00,00*6A
2017-11-15 19:48:22 1510793302.351246: $GPGGA,004821,3946.9591,N,08404.9396,W,1,08,1.00,340.41,M,-33.324,M,,*7D
2017-11-15 19:48:22 1510793302.351367: $GPRMC,004821,A,3946.9591,N,08404.9396,W,1.0298,254.382,161117,,*38
2017-11-15 19:48:22 1510793302.351426: $GPGSA,A,3,32,16,31,26,14,22,23,3,,,,,3.4,1.0,2.9*08
2017-11-15 19:48:23 1510793303.345714: $GPZDA,004822.00,16,11,2017,00,00*69
2017-11-15 19:48:23 1510793303.345882: $GPGGA,004822,3946.9588,N,08404.9404,W,1,08,1.00,341.10,M,-33.324,M,,*7F
2017-11-15 19:48:23 1510793303.345944: $GPRMC,004822,A,3946.9588,N,08404.9404,W,0.9689,273.795,161117,,*34
2017-11-15 19:48:23 1510793303.346000: $GPGSA,A,3,32,16,31,26,14,22,23,3,,,,,3.4,1.0,2.9*08
2017-11-15 19:48:24 1510793304.665242: $GPGSV,3,1,11,32,29,114,22,16,31,190,26,31,61,037,19,26,62,168,19*72
2017-11-15 19:48:24 1510793304.665416: $GPGSV,3,2,11,14,48,103,18,22,49,256,15,29,13,063,00,23,18,304,16*76
2017-11-15 19:48:24 1510793304.665475: $GPGSV,3,3,11,03,43,289,19,25,10,037,00,01,01,246,00*44
2017-11-15 19:48:24 1510793304.778956: $GPZDA,004823.00,16,11,2017,00,00*68
2017-11-15 19:48:24 1510793304.779112: $GPGGA,004823,3946.9585,N,08404.9411,W,1,08,1.00,340.38,M,-33.324,M,,*7C
2017-11-15 19:48:24 1510793304.779170: $GPRMC,004823,A,3946.9585,N,08404.9411,W,1.2111,273.795,161117,,*30
2017-11-15 19:48:24 1510793304.779226: $GPGSA,A,3,32,16,31,26,14,22,23,3,,,,,3.4,1.0,2.9*08
2017-11-15 19:48:25 1510793305.345906: $GPZDA,004824.00,16,11,2017,00,00*6F
2017-11-15 19:48:25 1510793305.346067: $GPGGA,004824,3946.9585,N,08404.9418,W,1,08,1.00,340.30,M,-33.324,M,,*7A
2017-11-15 19:48:25 1510793305.346128: $GPRMC,004824,A,3946.9585,N,08404.9418,W,1.4775,281.039,161117,,*30
2017-11-15 19:48:25 1510793305.346184: $GPGSA,A,3,32,16,31,26,14,22,23,3,,,,,3.4,1.0,2.9*08
2017-11-15 19:48:26 1510793306.346000: $GPZDA,004825.00,16,11,2017,00,00*6E
2017-11-15 19:48:26 1510793306.346165: $GPGGA,004825,3946.9581,N,08404.9425,W,1,08,1.00,339.58,M,-33.324,M,,*71
2017-11-15 19:48:26 1510793306.346225: $GPRMC,004825,A,3946.9581,N,08404.9425,W,1.2375,282.453,161117,,*32
2017-11-15 19:48:26 1510793306.346281: $GPGSA,A,3,32,16,31,26,14,22,23,3,,,,,3.4,1.0,2.9*08
2017-11-15 19:48:27 1510793307.665532: $GPGSV,3,1,11,32,29,114,23,16,31,190,26,31,61,037,19,26,62,168,18*72
2017-11-15 19:48:27 1510793307.665708: $GPGSV,3,2,11,14,48,103,17,22,49,256,15,29,13,063,00,23,18,304,16*79
2017-11-15 19:48:27 1510793307.665769: $GPGSV,3,3,11,03,43,289,19,25,10,037,00,01,01,246,00*44
2017-11-15 19:48:27 1510793307.778974: $GPZDA,004826.00,16,11,2017,00,00*6D
2017-11-15 19:48:27 1510793307.779142: $GPGGA,004826,3946.9581,N,08404.9432,W,1,08,1.00,339.50,M,-33.324,M,,*7C
2017-11-15 19:48:27 1510793307.779204: $GPRMC,004826,A,3946.9581,N,08404.9432,W,0.8011,299.090,161117,,*3C
2017-11-15 19:48:27 1510793307.779260: $GPGSA,A,3,32,16,31,26,14,22,23,3,,,,,3.4,1.0,2.9*08
2017-11-15 19:48:28 1510793308.329707: $GPZDA,004827.00,16,11,2017,00,00*6C
2017-11-15 19:48:28 1510793308.329872: $GPGGA,004827,3946.9578,N,08404.9439,W,1,08,1.00,338.78,M,-33.324,M,,*7B
2017-11-15 19:48:28 1510793308.329931: $GPRMC,004827,A,3946.9578,N,08404.9439,W,0.5912,309.173,161117,,*33
2017-11-15 19:48:28 1510793308.329987: $GPGSA,A,3,32,16,31,26,14,22,23,3,,,,,3.4,1.0,2.9*08
2017-11-15 19:48:29 1510793309.329445: $GPZDA,004828.00,16,11,2017,00,00*63
2017-11-15 19:48:29 1510793309.329598: $GPGGA,004828,3946.9578,N,08404.9439,W,1,08,1.00,338.78,M,-33.324,M,,*74
2017-11-15 19:48:29 1510793309.329714: $GPRMC,004828,A,3946.9578,N,08404.9439,W,0.7621,287.945,161117,,*3B
2017-11-15 19:48:29 1510793309.329771: $GPGSA,A,3,32,16,31,26,14,22,23,3,,,,,3.4,1.0,2.9*08
2017-11-15 19:48:30 1510793310.682024: $GPGSV,3,1,11,32,29,114,23,16,31,190,26,31,61,037,19,26,62,168,18*72
2017-11-15 19:48:30 1510793310.682197: $GPGSV,3,2,11,14,48,103,17,22,49,256,16,29,13,063,00,23,18,304,16*7A
2017-11-15 19:48:30 1510793310.682258: $GPGSV,3,3,11,03,43,289,19,25,10,037,00,01,01,246,00*44
2017-11-15 19:48:30 1510793310.795359: $GPZDA,004829.00,16,11,2017,00,00*62
2017-11-15 19:48:30 1510793310.795524: $GPGGA,004829,3946.9574,N,08404.9446,W,1,08,1.00,338.06,M,-33.324,M,,*78
2017-11-15 19:48:30 1510793310.795585: $GPRMC,004829,A,3946.9574,N,08404.9446,W,0.4844,273.794,161117,,*39
2017-11-15 19:48:30 1510793310.795641: $GPGSA,A,3,32,16,31,26,14,22,23,3,,,,,3.4,1.0,2.9*08
2017-11-15 19:48:31 1510793311.420713: $GPZDA,004830.00,16,11,2017,00,00*6A
2017-11-15 19:48:31 1510793311.420885: $GPGGA,004830,3946.9574,N,08404.9453,W,1,08,1.00,337.98,M,-33.324,M,,*7C
2017-11-15 19:48:31 1510793311.420945: $GPRMC,004830,A,3946.9574,N,08404.9453,W,1.0253,293.297,161117,,*34
2017-11-15 19:48:31 1510793311.421000: $GPGSA,A,3,32,16,31,26,14,22,23,3,,,,,3.4,1.0,2.9*08
