2017-12-29 14:45:49 1514576749.022023: {"class":"VERSION","release":"3.16","rev":"3.16-4","proto_major":3,"proto_minor":11}
2017-12-29 14:45:49 1514576749.022365: {"class":"DEVICES","devices":[{"class":"DEVICE","path":"/dev/ttyUSB0","driver":"SiRF","subtype":"9\u0006GSD4e_4.1.2-P1_RPATCH.05-F-GPS-4R-1510281 11/03/2015 307","activated":"2017-12-29T19:45:48.915Z","flags":1,"native":1,"bps":4800,"parity":"N","stopbits":1,"cycle":1.00}]}
2017-12-29 14:45:49 1514576749.022477: {"class":"WATCH","enable":true,"json":false,"nmea":true,"raw":0,"scaled":false,"timing":false,"split24":false,"pps":false}
2017-12-29 14:45:49 1514576749.327223: $GPZDA,194550.00,29,12,2017,00,00*66
2017-12-29 14:45:49 1514576749.327396: $GPGGA,194550,3946.9562,N,08404.9812,W,2,12,0.80,310.92,M,-33.324,M,,*7F
2017-12-29 14:45:49 1514576749.327463: $GPRMC,194550,A,3946.9562,N,08404.9812,W,0.0000,0.000,291217,,*37
2017-12-29 14:45:49 1514576749.327523: $GPGSA,A,3,1,26,10,11,12,14,18,22,25,31,32,138,1.7,0.8,1.3*3B
2017-12-29 14:45:50 1514576750.325616: $GPZDA,194551.00,29,12,2017,00,00*67
2017-12-29 14:45:50 1514576750.325777: $GPGGA,194551,3946.9562,N,08404.9812,W,2,12,0.80,310.92,M,-33.324,M,,*7E
2017-12-29 14:45:50 1514576750.325842: $GPRMC,194551,A,3946.9562,N,08404.9812,W,0.0000,0.000,291217,,*36
2017-12-29 14:45:50 1514576750.325903: $GPGSA,A,3,1,26,10,11,12,14,18,22,25,31,32,138,1.7,0.8,1.3*3B
2017-12-29 14:45:51 1514576751.662273: $GPGSV,3,1,12,01,22,295,39,26,07,181,25,10,43,150,50,11,07,279,40*79
2017-12-29 14:45:51 1514576751.662459: $GPGSV,3,2,12,12,20,046,46,14,68,336,42,18,13,145,41,22,23,312,40*7A
2017-12-29 14:45:51 1514576751.662526: $GPGSV,3,3,12,25,41,085,51,31,62,229,46,32,66,042,50,138,38,213,42*49
2017-12-29 14:45:51 1514576751.775969: $GPZDA,194552.00,29,12,2017,00,00*64
2017-12-29 14:45:51 1514576751.776105: $GPGGA,194552,3946.9562,N,08404.9812,W,2,12,0.80,310.92,M,-33.324,M,,*7D
2017-12-29 14:45:51 1514576751.776169: $GPRMC,194552,A,3946.9562,N,08404.9812,W,0.0000,0.000,291217,,*35
2017-12-29 14:45:51 1514576751.776229: $GPGSA,A,3,1,26,10,11,12,14,18,22,25,31,32,138,1.7,0.8,1.3*3B
2017-12-29 14:45:52 1514576752.401397: $GPZDA,194553.00,29,12,2017,00,00*65
2017-12-29 14:45:52 1514576752.401556: $GPGGA,194553,3946.9562,N,08404.9812,W,2,12,0.80,310.92,M,-33.324,M,,*7C
2017-12-29 14:45:52 1514576752.401622: $GPRMC,194553,A,3946.9562,N,08404.9812,W,0.0000,0.000,291217,,*34
2017-12-29 14:45:52 1514576752.401699: $GPGSA,A,3,1,26,10,11,12,14,18,22,25,31,32,138,1.7,0.8,1.3*3B
2017-12-29 14:45:53 1514576753.327209: $GPZDA,194554.00,29,12,2017,00,00*62
2017-12-29 14:45:53 1514576753.327372: $GPGGA,194554,3946.9562,N,08404.9812,W,2,12,0.80,310.92,M,-33.324,M,,*7B
2017-12-29 14:45:53 1514576753.327454: $GPRMC,194554,A,3946.9562,N,08404.9812,W,0.0000,0.000,291217,,*33
2017-12-29 14:45:53 1514576753.327516: $GPGSA,A,3,1,26,10,11,12,14,18,22,25,31,32,138,1.7,0.8,1.3*3B
2017-12-29 14:45:54 1514576754.661413: $GPGSV,3,1,12,01,22,295,39,26,07,181,25,10,43,150,50,11,07,279,40*79
2017-12-29 14:45:54 1514576754.661621: $GPGSV,3,2,12,12,20,046,46,14,68,336,42,18,13,145,41,22,23,312,40*7A
2017-12-29 14:45:54 1514576754.661689: $GPGSV,3,3,12,25,41,085,51,31,62,229,46,32,66,042,50,138,38,213,43*48
2017-12-29 14:45:54 1514576754.775027: $GPZDA,194555.00,29,12,2017,00,00*63
2017-12-29 14:45:54 1514576754.775171: $GPGGA,194555,3946.9562,N,08404.9812,W,2,12,0.80,310.92,M,-33.324,M,,*7A
2017-12-29 14:45:54 1514576754.775237: $GPRMC,194555,A,3946.9562,N,08404.9812,W,0.0000,0.000,291217,,*32
2017-12-29 14:45:54 1514576754.775297: $GPGSA,A,3,1,26,10,11,12,14,18,22,25,31,32,138,1.7,0.8,1.3*3B
2017-12-29 14:45:55 1514576755.328524: $GPZDA,194556.00,29,12,2017,00,00*60
2017-12-29 14:45:55 1514576755.328709: $GPGGA,194556,3946.9562,N,08404.9812,W,2,12,0.80,310.92,M,-33.324,M,,*79
2017-12-29 14:45:55 1514576755.328777: $GPRMC,194556,A,3946.9562,N,08404.9812,W,0.0000,0.000,291217,,*31
2017-12-29 14:45:55 1514576755.328838: $GPGSA,A,3,1,26,10,11,12,14,18,22,25,31,32,138,1.7,0.8,1.3*3B
2017-12-29 14:45:56 1514576756.326682: $GPZDA,194557.00,29,12,2017,00,00*61
2017-12-29 14:45:56 1514576756.326904: $GPGGA,194557,3946.9562,N,08404.9812,W,2,12,0.80,310.92,M,-33.324,M,,*78
2017-12-29 14:45:56 1514576756.326974: $GPRMC,194557,A,3946.9562,N,08404.9812,W,0.0000,0.000,291217,,*30
2017-12-29 14:45:56 1514576756.327034: $GPGSA,A,3,1,26,10,11,12,14,18,22,25,31,32,138,1.7,0.8,1.3*3B
2017-12-29 14:45:56 1514576756.327092: $GPGBS,194557,2.73,M,2.59,M,7.72,M*3F
2017-12-29 14:45:57 1514576757.662826: $GPGSV,3,1,12,01,22,295,39,26,07,181,25,10,43,150,50,11,07,279,39*77
2017-12-29 14:45:57 1514576757.663008: $GPGSV,3,2,12,12,20,046,45,14,68,336,42,18,13,145,41,22,23,312,40*79
2017-12-29 14:45:57 1514576757.663075: $GPGSV,3,3,12,25,41,085,51,31,62,229,47,32,66,042,50,138,38,213,42*48
2017-12-29 14:45:57 1514576757.776157: $GPZDA,194558.00,29,12,2017,00,00*6E
2017-12-29 14:45:57 1514576757.776289: $GPGGA,194558,3946.9562,N,08404.9812,W,2,12,0.80,310.92,M,-33.324,M,,*77
2017-12-29 14:45:57 1514576757.776353: $GPRMC,194558,A,3946.9562,N,08404.9812,W,0.0000,0.000,291217,,*3F
2017-12-29 14:45:57 1514576757.776413: $GPGSA,A,3,1,26,10,11,12,14,18,22,25,31,32,138,1.7,0.8,1.3*3B
2017-12-29 14:45:58 1514576758.325808: $GPZDA,194559.00,29,12,2017,00,00*6F
2017-12-29 14:45:58 1514576758.325984: $GPGGA,194559,3946.9562,N,08404.9812,W,2,12,0.80,310.92,M,-33.324,M,,*76
2017-12-29 14:45:58 1514576758.326050: $GPRMC,194559,A,3946.9562,N,08404.9812,W,0.0000,0.000,291217,,*3E
2017-12-29 14:45:58 1514576758.326110: $GPGSA,A,3,1,26,10,11,12,14,18,22,25,31,32,138,1.7,0.8,1.3*3B
