2017-11-16 13:49:55 1510858195.658529: {"class":"VERSION","release":"3.17","rev":"3.17","proto_major":3,"proto_minor":12}
2017-11-16 13:49:55 1510858195.658983: {"class":"DEVICES","devices":[{"class":"DEVICE","path":"/dev/ttyUSB0","driver":"SiRF","subtype":"9\u0006GSD4e_4.1.2-P1_RPATCH.05-F-GPS-4R-1510281 11/03/2015 307","activated":"2017-11-16T18:49:55.223Z","flags":1,"native":1,"bps":4800,"parity":"N","stopbits":1,"cycle":1.00}]}
2017-11-16 13:49:55 1510858195.659098: {"class":"WATCH","enable":true,"json":false,"nmea":true,"raw":0,"scaled":false,"timing":false,"split24":false,"pps":false}
2017-11-16 13:49:55 1510858195.673366: $GPGSV,3,1,11,10,33,292,41,13,17,046,44,15,48,049,51,18,63,316,48*75
2017-11-16 13:49:55 1510858195.673526: $GPGSV,3,2,11,20,41,085,48,21,74,208,47,24,44,126,45,27,19,300,31*79
2017-11-16 13:49:55 1510858195.673585: $GPGSV,3,3,11,32,11,231,20,08,02,330,00,138,38,213,43*76
2017-11-16 13:49:55 1510858195.786663: $GPZDA,184954.00,16,11,2017,00,00*60
2017-11-16 13:49:55 1510858195.786883: $GPGGA,184954,3946.9612,N,08404.9827,W,2,10,0.80,307.77,M,-33.324,M,,*7B
2017-11-16 13:49:55 1510858195.786947: $GPRMC,184954,A,3946.9612,N,08404.9827,W,0.0000,0.000,161117,,*33
2017-11-16 13:49:55 1510858195.787002: $GPGSA,A,3,10,13,15,18,20,21,24,27,32,138,,,1.6,0.8,1.3*08
2017-11-16 13:49:56 1510858196.336885: $GPZDA,184955.00,16,11,2017,00,00*61
2017-11-16 13:49:56 1510858196.337046: $GPGGA,184955,3946.9612,N,08404.9827,W,2,10,0.80,307.77,M,-33.324,M,,*7A
2017-11-16 13:49:56 1510858196.337106: $GPRMC,184955,A,3946.9612,N,08404.9827,W,0.0000,0.000,161117,,*32
2017-11-16 13:49:56 1510858196.337162: $GPGSA,A,3,10,13,15,18,20,21,24,27,32,138,,,1.6,0.8,1.3*08
2017-11-16 13:49:57 1510858197.366451: $GPZDA,184956.00,16,11,2017,00,00*62
2017-11-16 13:49:57 1510858197.366649: $GPGGA,184956,3946.9612,N,08404.9827,W,2,10,0.80,307.77,M,-33.324,M,,*79
2017-11-16 13:49:57 1510858197.366711: $GPRMC,184956,A,3946.9612,N,08404.9827,W,0.0000,0.000,161117,,*31
2017-11-16 13:49:57 1510858197.366787: $GPGSA,A,3,10,13,15,18,20,21,24,27,32,138,,,1.6,0.8,1.3*08
2017-11-16 13:49:58 1510858198.671559: $GPGSV,3,1,11,10,33,292,41,13,17,046,44,15,48,049,51,18,63,316,48*75
2017-11-16 13:49:58 1510858198.671755: $GPGSV,3,2,11,20,41,085,48,21,74,208,46,24,44,126,45,27,19,300,31*78
2017-11-16 13:49:58 1510858198.671816: $GPGSV,3,3,11,32,11,231,20,08,02,330,27,138,38,213,44*74
2017-11-16 13:49:58 1510858198.784988: $GPZDA,184957.00,16,11,2017,00,00*63
2017-11-16 13:49:58 1510858198.785170: $GPGGA,184957,3946.9612,N,08404.9827,W,2,11,0.80,307.77,M,-33.324,M,,*79
2017-11-16 13:49:58 1510858198.785232: $GPRMC,184957,A,3946.9612,N,08404.9827,W,0.0000,0.000,161117,,*30
2017-11-16 13:49:58 1510858198.785287: $GPGSA,A,3,10,13,15,18,20,21,24,27,32,8,138,,1.6,0.8,1.3*30
2017-11-16 13:49:59 1510858199.360961: $GPZDA,184958.00,16,11,2017,00,00*6C
2017-11-16 13:49:59 1510858199.361121: $GPGGA,184958,3946.9612,N,08404.9827,W,2,11,0.80,307.77,M,-33.324,M,,*76
2017-11-16 13:49:59 1510858199.361183: $GPRMC,184958,A,3946.9612,N,08404.9827,W,0.0000,0.000,161117,,*3F
2017-11-16 13:49:59 1510858199.361238: $GPGSA,A,3,10,13,15,18,20,21,24,27,32,8,138,,1.6,0.8,1.3*30
2017-11-16 13:50:00 1510858200.337064: $GPZDA,184959.00,16,11,2017,00,00*6D
2017-11-16 13:50:00 1510858200.337232: $GPGGA,184959,3946.9612,N,08404.9827,W,2,11,0.80,307.77,M,-33.324,M,,*77
2017-11-16 13:50:00 1510858200.337294: $GPRMC,184959,A,3946.9612,N,08404.9827,W,0.0000,0.000,161117,,*3E
2017-11-16 13:50:00 1510858200.337350: $GPGSA,A,3,10,13,15,18,20,21,24,27,32,8,138,,1.6,0.8,1.3*30
2017-11-16 13:50:01 1510858201.674072: $GPGSV,3,1,11,10,33,292,41,13,17,046,44,15,48,049,51,18,63,316,48*75
2017-11-16 13:50:01 1510858201.676824: $GPGSV,3,2,11,20,41,085,48,21,74,208,47,24,44,126,45,27,19,300,31*79
2017-11-16 13:50:01 1510858201.676928: $GPGSV,3,3,11,32,11,231,21,08,02,330,11,138,38,213,43*77
2017-11-16 13:50:01 1510858201.787420: $GPZDA,185000.00,16,11,2017,00,00*69
2017-11-16 13:50:01 1510858201.787579: $GPGGA,185000,3946.9612,N,08404.9827,W,2,10,0.80,307.77,M,-33.324,M,,*72
2017-11-16 13:50:01 1510858201.787705: $GPRMC,185000,A,3946.9612,N,08404.9827,W,0.0000,0.000,161117,,*3A
2017-11-16 13:50:01 1510858201.787764: $GPGSA,A,3,10,13,15,18,20,21,24,27,32,138,,,1.6,0.8,1.3*08
2017-11-16 13:50:02 1510858202.412881: $GPZDA,185001.00,16,11,2017,00,00*68
2017-11-16 13:50:02 1510858202.413059: $GPGGA,185001,3946.9612,N,08404.9827,W,2,10,0.80,307.77,M,-33.324,M,,*73
2017-11-16 13:50:02 1510858202.413138: $GPRMC,185001,A,3946.9612,N,08404.9827,W,0.0000,0.000,161117,,*3B
2017-11-16 13:50:02 1510858202.413195: $GPGSA,A,3,10,13,15,18,20,21,24,27,32,138,,,1.6,0.8,1.3*08
2017-11-16 13:50:03 1510858203.362633: $GPZDA,185002.00,16,11,2017,00,00*6B
2017-11-16 13:50:03 1510858203.362792: $GPGGA,185002,3946.9612,N,08404.9827,W,2,10,0.80,307.77,M,-33.324,M,,*70
2017-11-16 13:50:03 1510858203.362852: $GPRMC,185002,A,3946.9612,N,08404.9827,W,0.0000,0.000,161117,,*38
2017-11-16 13:50:03 1510858203.362908: $GPGSA,A,3,10,13,15,18,20,21,24,27,32,138,,,1.6,0.8,1.3*08
2017-11-16 13:50:04 1510858204.672329: $GPGSV,3,1,11,10,33,292,40,13,17,046,44,15,48,049,51,18,63,316,48*74
2017-11-16 13:50:04 1510858204.672527: $GPGSV,3,2,11,20,41,085,48,21,74,208,47,24,44,126,45,27,19,300,24*7D
2017-11-16 13:50:04 1510858204.672588: $GPGSV,3,3,11,32,11,231,22,08,02,330,00,138,38,213,43*74
2017-11-16 13:50:04 1510858204.785721: $GPZDA,185003.00,16,11,2017,00,00*6A
2017-11-16 13:50:04 1510858204.785887: $GPGGA,185003,3946.9612,N,08404.9827,W,2,10,0.80,307.77,M,-33.324,M,,*71
2017-11-16 13:50:04 1510858204.785948: $GPRMC,185003,A,3946.9612,N,08404.9827,W,0.0000,0.000,161117,,*39
2017-11-16 13:50:04 1510858204.786004: $GPGSA,A,3,10,13,15,18,20,21,24,27,32,138,,,1.6,0.8,1.3*08
2017-11-16 13:50:05 1510858205.361664: $GPZDA,185004.00,16,11,2017,00,00*6D
2017-11-16 13:50:05 1510858205.361830: $GPGGA,185004,3946.9612,N,08404.9827,W,2,10,0.80,307.77,M,-33.324,M,,*76
2017-11-16 13:50:05 1510858205.361890: $GPRMC,185004,A,3946.9612,N,08404.9827,W,0.0000,0.000,161117,,*3E
2017-11-16 13:50:05 1510858205.361946: $GPGSA,A,3,10,13,15,18,20,21,24,27,32,138,,,1.6,0.8,1.3*08
