2017-12-01 12:08:46 1512148126.586881: {"class":"VERSION","release":"3.16","rev":"3.16-4","proto_major":3,"proto_minor":11}
2017-12-01 12:08:46 1512148126.587311: {"class":"DEVICES","devices":[{"class":"DEVICE","path":"/dev/ttyUSB0","driver":"SiRF","subtype":"9\u0006GSD4e_4.1.2-P1_RPATCH.05-F-GPS-4R-1510281 11/03/2015 307","activated":"2017-12-01T17:08:46.561Z","flags":1,"native":1,"bps":4800,"parity":"N","stopbits":1,"cycle":1.00}]}
2017-12-01 12:08:46 1512148126.587433: {"class":"WATCH","enable":true,"json":false,"nmea":true,"raw":0,"scaled":false,"timing":false,"split24":false,"pps":false}
2017-12-01 12:08:47 1512148127.419207: $GPZDA,170848.00,01,12,2017,00,00*62
2017-12-01 12:08:47 1512148127.419380: $GPGGA,170848,3946.9580,N,08404.9860,W,2,11,0.80,286.61,M,-33.324,M,,*79
2017-12-01 12:08:47 1512148127.419448: $GPRMC,170848,A,3946.9580,N,08404.9860,W,0.0000,0.000,011217,,*3A
2017-12-01 12:08:47 1512148127.419510: $GPGSA,A,3,10,13,15,18,20,21,24,27,29,5,138,,2.0,0.8,1.5*34
2017-12-01 12:08:48 1512148128.757471: $GPGSV,3,1,12,10,21,280,42,13,33,046,45,15,65,054,44,18,51,295,46*70
2017-12-01 12:08:48 1512148128.757643: $GPGSV,3,2,12,20,55,067,45,21,76,285,44,24,30,141,44,27,14,316,42*77
2017-12-01 12:08:48 1512148128.757710: $GPGSV,3,3,12,29,14,190,32,05,06,084,24,04,03,135,00,138,38,213,46*47
2017-12-01 12:08:48 1512148128.870843: $GPZDA,170849.00,01,12,2017,00,00*63
2017-12-01 12:08:48 1512148128.871016: $GPGGA,170849,3946.9580,N,08404.9860,W,2,11,0.80,286.61,M,-33.324,M,,*78
2017-12-01 12:08:48 1512148128.871082: $GPRMC,170849,A,3946.9580,N,08404.9860,W,0.0000,0.000,011217,,*3B
2017-12-01 12:08:48 1512148128.871144: $GPGSA,A,3,10,13,15,18,20,21,24,27,29,5,138,,2.0,0.8,1.5*34
2017-12-01 12:08:49 1512148129.496190: $GPZDA,170850.00,01,12,2017,00,00*6B
2017-12-01 12:08:49 1512148129.496378: $GPGGA,170850,3946.9580,N,08404.9860,W,2,11,0.80,286.61,M,-33.324,M,,*70
2017-12-01 12:08:49 1512148129.496448: $GPRMC,170850,A,3946.9580,N,08404.9860,W,0.0000,0.000,011217,,*33
2017-12-01 12:08:49 1512148129.496510: $GPGSA,A,3,10,13,15,18,20,21,24,27,29,5,138,,2.0,0.8,1.5*34
2017-12-01 12:08:50 1512148130.415820: $GPZDA,170851.00,01,12,2017,00,00*6A
2017-12-01 12:08:50 1512148130.415998: $GPGGA,170851,3946.9580,N,08404.9860,W,2,11,0.80,286.61,M,-33.324,M,,*71
2017-12-01 12:08:50 1512148130.416065: $GPRMC,170851,A,3946.9580,N,08404.9860,W,0.0000,0.000,011217,,*32
2017-12-01 12:08:50 1512148130.416127: $GPGSA,A,3,10,13,15,18,20,21,24,27,29,5,138,,2.0,0.8,1.5*34
2017-12-01 12:08:51 1512148131.755324: $GPGSV,3,1,12,10,21,280,43,13,33,046,44,15,65,054,44,18,51,295,46*70
2017-12-01 12:08:51 1512148131.755506: $GPGSV,3,2,12,20,55,067,45,21,76,285,44,24,30,141,44,27,14,316,40*75
2017-12-01 12:08:51 1512148131.755575: $GPGSV,3,3,12,29,14,190,32,05,06,084,24,04,03,135,00,138,38,213,46*47
2017-12-01 12:08:51 1512148131.868794: $GPZDA,170852.00,01,12,2017,00,00*69
2017-12-01 12:08:51 1512148131.868972: $GPGGA,170852,3946.9580,N,08404.9860,W,2,11,0.80,286.61,M,-33.324,M,,*72
2017-12-01 12:08:51 1512148131.869043: $GPRMC,170852,A,3946.9580,N,08404.9860,W,0.0000,0.000,011217,,*31
2017-12-01 12:08:51 1512148131.869107: $GPGSA,A,3,10,13,15,18,20,21,24,27,29,5,138,,2.0,0.8,1.5*34
2017-12-01 12:08:52 1512148132.421232: $GPZDA,170853.00,01,12,2017,00,00*68
2017-12-01 12:08:52 1512148132.421467: $GPGGA,170853,3946.9585,N,08404.9860,W,2,11,0.80,287.25,M,-33.324,M,,*77
2017-12-01 12:08:52 1512148132.421545: $GPRMC,170853,A,3946.9585,N,08404.9860,W,0.0000,0.000,011217,,*35
2017-12-01 12:08:52 1512148132.421608: $GPGSA,A,3,10,13,15,18,20,21,24,27,29,5,138,,2.0,0.8,1.5*34
2017-12-01 12:08:53 1512148133.424604: $GPZDA,170854.00,01,12,2017,00,00*6F
2017-12-01 12:08:53 1512148133.424770: $GPGGA,170854,3946.9585,N,08404.9860,W,2,11,0.80,287.25,M,-33.324,M,,*70
2017-12-01 12:08:53 1512148133.424840: $GPRMC,170854,A,3946.9585,N,08404.9860,W,0.0000,0.000,011217,,*32
2017-12-01 12:08:53 1512148133.424905: $GPGSA,A,3,10,13,15,18,20,21,24,27,29,5,138,,2.0,0.8,1.5*34
2017-12-01 12:08:54 1512148134.756931: $GPGSV,3,1,12,10,21,280,43,13,33,046,45,15,65,054,44,18,51,295,46*71
2017-12-01 12:08:54 1512148134.757173: $GPGSV,3,2,12,20,55,067,45,21,76,285,44,24,30,141,44,27,14,316,40*75
2017-12-01 12:08:54 1512148134.757245: $GPGSV,3,3,12,29,14,190,32,05,06,084,24,04,03,135,09,138,38,213,47*4F
2017-12-01 12:08:54 1512148134.870421: $GPZDA,170855.00,01,12,2017,00,00*6E
2017-12-01 12:08:54 1512148134.870615: $GPGGA,170855,3946.9585,N,08404.9860,W,2,11,0.80,287.25,M,-33.324,M,,*71
2017-12-01 12:08:54 1512148134.870685: $GPRMC,170855,A,3946.9585,N,08404.9860,W,0.0000,0.000,011217,,*33
2017-12-01 12:08:54 1512148134.870752: $GPGSA,A,3,10,13,15,18,20,21,24,27,29,5,138,,2.0,0.8,1.5*34
2017-12-01 12:08:55 1512148135.419062: $GPZDA,170856.00,01,12,2017,00,00*6D
2017-12-01 12:08:55 1512148135.419235: $GPGGA,170856,3946.9585,N,08404.9860,W,2,11,0.80,287.25,M,-33.324,M,,*72
2017-12-01 12:08:55 1512148135.419302: $GPRMC,170856,A,3946.9585,N,08404.9860,W,0.0000,0.000,011217,,*30
2017-12-01 12:08:55 1512148135.419365: $GPGSA,A,3,10,13,15,18,20,21,24,27,29,5,138,,2.0,0.8,1.5*34
2017-12-01 12:08:56 1512148136.419547: $GPZDA,170857.00,01,12,2017,00,00*6C
2017-12-01 12:08:56 1512148136.419731: $GPGGA,170857,3946.9585,N,08404.9860,W,2,11,0.80,287.25,M,-33.324,M,,*73
2017-12-01 12:08:56 1512148136.419819: $GPRMC,170857,A,3946.9585,N,08404.9860,W,0.0000,0.000,011217,,*31
2017-12-01 12:08:56 1512148136.419884: $GPGSA,A,3,10,13,15,18,20,21,24,27,29,5,138,,2.0,0.8,1.5*34
