2017-11-16 13:18:21 1510856301.847334: {"class":"VERSION","release":"3.17","rev":"3.17","proto_major":3,"proto_minor":12}
2017-11-16 13:18:21 1510856301.847806: {"class":"DEVICES","devices":[{"class":"DEVICE","path":"/dev/ttyUSB0","driver":"SiRF","subtype":"9\u0006GSD4e_4.1.2-P1_RPATCH.05-F-GPS-4R-1510281 11/03/2015 307","activated":"2017-11-16T18:18:21.802Z","flags":1,"native":1,"bps":4800,"parity":"N","stopbits":1,"cycle":1.00}]}
2017-11-16 13:18:21 1510856301.847922: {"class":"WATCH","enable":true,"json":false,"nmea":true,"raw":0,"scaled":false,"timing":false,"split24":false,"pps":false}
2017-11-16 13:18:22 1510856302.314380: $GPZDA,181821.00,16,11,2017,00,00*66
2017-11-16 13:18:22 1510856302.314550: $GPGGA,181821,3946.9590,N,08404.9845,W,2,11,0.80,300.12,M,-33.324,M,,*75
2017-11-16 13:18:22 1510856302.314616: $GPRMC,181821,A,3946.9590,N,08404.9845,W,0.0000,0.000,161117,,*38
2017-11-16 13:18:22 1510856302.314672: $GPGSA,A,3,10,13,15,18,20,21,24,27,5,29,138,,1.6,0.8,1.3*37
2017-11-16 13:18:23 1510856303.293950: $GPZDA,181822.00,16,11,2017,00,00*65
2017-11-16 13:18:23 1510856303.294112: $GPGGA,181822,3946.9590,N,08404.9845,W,2,11,0.80,300.12,M,-33.324,M,,*76
2017-11-16 13:18:23 1510856303.294175: $GPRMC,181822,A,3946.9590,N,08404.9845,W,0.0000,0.000,161117,,*3B
2017-11-16 13:18:23 1510856303.294230: $GPGSA,A,3,10,13,15,18,20,21,24,27,5,29,138,,1.6,0.8,1.3*37
2017-11-16 13:18:24 1510856304.643460: $GPGSV,3,1,11,10,22,282,43,13,30,045,46,15,62,052,50,18,53,298,45*78
2017-11-16 13:18:24 1510856304.643633: $GPGSV,3,2,11,20,52,070,47,21,77,276,47,24,32,139,41,27,16,313,42*76
2017-11-16 13:18:24 1510856304.643693: $GPGSV,3,3,11,05,05,087,07,29,10,189,33,138,38,213,46*78
2017-11-16 13:18:24 1510856304.756716: $GPZDA,181823.00,16,11,2017,00,00*64
2017-11-16 13:18:24 1510856304.756872: $GPGGA,181823,3946.9590,N,08404.9845,W,2,11,0.80,300.12,M,-33.324,M,,*77
2017-11-16 13:18:24 1510856304.756932: $GPRMC,181823,A,3946.9590,N,08404.9845,W,0.0000,0.000,161117,,*3A
2017-11-16 13:18:24 1510856304.756988: $GPGSA,A,3,10,13,15,18,20,21,24,27,5,29,138,,1.6,0.8,1.3*37
2017-11-16 13:18:25 1510856305.383637: $GPZDA,181824.00,16,11,2017,00,00*63
2017-11-16 13:18:25 1510856305.383799: $GPGGA,181824,3946.9590,N,08404.9845,W,2,11,0.80,300.12,M,-33.324,M,,*70
2017-11-16 13:18:25 1510856305.383861: $GPRMC,181824,A,3946.9590,N,08404.9845,W,0.0000,0.000,161117,,*3D
2017-11-16 13:18:25 1510856305.383917: $GPGSA,A,3,10,13,15,18,20,21,24,27,5,29,138,,1.6,0.8,1.3*37
2017-11-16 13:18:26 1510856306.315421: $GPZDA,181825.00,16,11,2017,00,00*62
2017-11-16 13:18:26 1510856306.315588: $GPGGA,181825,3946.9590,N,08404.9845,W,2,11,1.00,300.12,M,-33.324,M,,*78
2017-11-16 13:18:26 1510856306.315651: $GPRMC,181825,A,3946.9590,N,08404.9845,W,0.0000,0.000,161117,,*3C
2017-11-16 13:18:26 1510856306.315707: $GPGSA,A,3,10,13,15,18,20,21,24,27,5,29,138,,1.6,1.0,1.3*3E
2017-11-16 13:18:27 1510856307.632426: $GPGSV,3,1,11,10,22,282,43,13,30,045,46,15,62,052,50,18,53,298,45*78
2017-11-16 13:18:27 1510856307.632594: $GPGSV,3,2,11,20,52,070,47,21,77,276,47,24,32,139,41,27,16,313,42*76
2017-11-16 13:18:27 1510856307.632656: $GPGSV,3,3,11,05,05,087,04,29,10,189,21,138,38,213,44*7A
2017-11-16 13:18:27 1510856307.745993: $GPZDA,181826.00,16,11,2017,00,00*61
2017-11-16 13:18:27 1510856307.746149: $GPGGA,181826,3946.9590,N,08404.9845,W,2,10,0.80,300.12,M,-33.324,M,,*73
2017-11-16 13:18:27 1510856307.746211: $GPRMC,181826,A,3946.9590,N,08404.9845,W,0.0000,0.000,161117,,*3F
2017-11-16 13:18:27 1510856307.746269: $GPGSA,A,3,10,13,15,18,20,21,24,27,29,138,,,1.6,0.8,1.3*02
2017-11-16 13:18:28 1510856308.297822: $GPZDA,181827.00,16,11,2017,00,00*60
2017-11-16 13:18:28 1510856308.297990: $GPGGA,181827,3946.9590,N,08404.9845,W,2,10,1.00,300.12,M,-33.324,M,,*7B
2017-11-16 13:18:28 1510856308.298054: $GPRMC,181827,A,3946.9590,N,08404.9845,W,0.0000,0.000,161117,,*3E
2017-11-16 13:18:28 1510856308.298110: $GPGSA,A,3,10,13,15,18,20,21,24,27,29,138,,,1.6,1.0,1.3*0B
2017-11-16 13:18:29 1510856309.316212: $GPZDA,181828.00,16,11,2017,00,00*6F
2017-11-16 13:18:29 1510856309.316395: $GPGGA,181828,3946.9590,N,08404.9845,W,2,10,1.00,300.12,M,-33.324,M,,*74
2017-11-16 13:18:29 1510856309.316512: $GPRMC,181828,A,3946.9590,N,08404.9845,W,0.0000,0.000,161117,,*31
2017-11-16 13:18:29 1510856309.316570: $GPGSA,A,3,10,13,15,18,20,21,24,27,29,138,,,1.6,1.0,1.3*0B
2017-11-16 13:18:30 1510856310.648904: $GPGSV,3,1,11,10,22,282,42,13,30,045,46,15,62,052,51,18,53,298,45*78
2017-11-16 13:18:30 1510856310.649075: $GPGSV,3,2,11,20,52,070,47,21,77,276,47,24,32,139,40,27,16,313,43*76
2017-11-16 13:18:30 1510856310.649138: $GPGSV,3,3,11,05,05,087,12,29,10,189,24,138,38,213,45*79
2017-11-16 13:18:30 1510856310.762459: $GPZDA,181829.00,16,11,2017,00,00*6E
2017-11-16 13:18:30 1510856310.762601: $GPGGA,181829,3946.9590,N,08404.9845,W,2,11,0.80,300.12,M,-33.324,M,,*7D
2017-11-16 13:18:30 1510856310.762661: $GPRMC,181829,A,3946.9590,N,08404.9845,W,0.0000,0.000,161117,,*30
2017-11-16 13:18:30 1510856310.762717: $GPGSA,A,3,10,13,15,18,20,21,24,27,5,29,138,,1.6,0.8,1.3*37
2017-11-16 13:18:31 1510856311.288030: $GPZDA,181830.00,16,11,2017,00,00*66
2017-11-16 13:18:31 1510856311.288182: $GPGGA,181830,3946.9590,N,08404.9845,W,2,11,1.00,300.12,M,-33.324,M,,*7C
2017-11-16 13:18:31 1510856311.288242: $GPRMC,181830,A,3946.9590,N,08404.9845,W,0.0000,0.000,161117,,*38
2017-11-16 13:18:31 1510856311.288301: $GPGSA,A,3,10,13,15,18,20,21,24,27,5,29,138,,1.6,1.0,1.3*3E
