2017-12-31 17:07:52 1514758072.715288: {"class":"VERSION","release":"3.16","rev":"3.16-4","proto_major":3,"proto_minor":11}
2017-12-31 17:07:52 1514758072.715679: {"class":"DEVICES","devices":[{"class":"DEVICE","path":"/dev/ttyUSB0","driver":"SiRF","activated":"2017-12-31T22:07:52.488Z","flags":1,"native":1,"bps":4800,"parity":"N","stopbits":1,"cycle":1.00}]}
2017-12-31 17:07:52 1514758072.715777: {"class":"WATCH","enable":true,"json":false,"nmea":true,"raw":0,"scaled":false,"timing":false,"split24":false,"pps":false}
2017-12-31 17:07:53 1514758073.344428: $GPZDA,220754.00,31,12,2017,00,00*65
2017-12-31 17:07:53 1514758073.344599: $GPGGA,220754,3946.9587,N,08404.9854,W,2,10,0.80,302.21,M,-33.324,M,,*75
2017-12-31 17:07:53 1514758073.344667: $GPRMC,220754,A,3946.9587,N,08404.9854,W,0.0000,0.000,311217,,*3D
2017-12-31 17:07:53 1514758073.344729: $GPGSA,A,3,22,23,3,16,29,31,14,32,26,135,,,1.7,0.8,1.3*35
2017-12-31 17:07:54 1514758074.681417: $GPGSV,3,1,11,22,44,238,42,23,28,307,36,25,01,037,08,03,46,270,39*7A
2017-12-31 17:07:54 1514758074.681601: $GPGSV,3,2,11,16,47,190,43,29,14,054,28,31,49,051,50,14,40,114,36*78
2017-12-31 17:07:54 1514758074.681668: $GPGSV,3,3,11,32,18,123,40,26,75,139,47,135,22,240,43*7D
2017-12-31 17:07:54 1514758074.795325: $GPZDA,220755.00,31,12,2017,00,00*64
2017-12-31 17:07:54 1514758074.795508: $GPGGA,220755,3946.9587,N,08404.9854,W,2,10,0.80,302.21,M,-33.324,M,,*74
2017-12-31 17:07:54 1514758074.795587: $GPRMC,220755,A,3946.9587,N,08404.9854,W,0.0000,0.000,311217,,*3C
2017-12-31 17:07:54 1514758074.795649: $GPGSA,A,3,22,23,3,16,29,31,14,32,26,135,,,1.7,0.8,1.3*35
2017-12-31 17:07:55 1514758075.420339: $GPZDA,220756.00,31,12,2017,00,00*67
2017-12-31 17:07:55 1514758075.420507: $GPGGA,220756,3946.9587,N,08404.9854,W,2,10,0.80,302.21,M,-33.324,M,,*77
2017-12-31 17:07:55 1514758075.420574: $GPRMC,220756,A,3946.9587,N,08404.9854,W,0.0000,0.000,311217,,*3F
2017-12-31 17:07:55 1514758075.420636: $GPGSA,A,3,22,23,3,16,29,31,14,32,26,135,,,1.7,0.8,1.3*35
2017-12-31 17:07:56 1514758076.337673: $GPZDA,220757.00,31,12,2017,00,00*66
2017-12-31 17:07:56 1514758076.337845: $GPGGA,220757,3946.9587,N,08404.9854,W,2,10,0.80,302.21,M,-33.324,M,,*76
2017-12-31 17:07:56 1514758076.337913: $GPRMC,220757,A,3946.9587,N,08404.9854,W,0.0000,0.000,311217,,*3E
2017-12-31 17:07:56 1514758076.337974: $GPGSA,A,3,22,23,3,16,29,31,14,32,26,135,,,1.7,0.8,1.3*35
2017-12-31 17:07:57 1514758077.680579: $GPGSV,3,1,11,22,44,238,41,23,28,307,36,03,46,270,38,16,47,190,43*79
2017-12-31 17:07:57 1514758077.680839: $GPGSV,3,2,11,29,14,054,28,25,01,037,00,31,49,051,50,14,40,114,36*71
2017-12-31 17:07:57 1514758077.680986: $GPGSV,3,3,11,32,18,123,40,26,75,139,48,135,22,240,43*72
2017-12-31 17:07:57 1514758077.794552: $GPZDA,220758.00,31,12,2017,00,00*69
2017-12-31 17:07:57 1514758077.794733: $GPGGA,220758,3946.9587,N,08404.9854,W,2,10,0.80,302.21,M,-33.324,M,,*79
2017-12-31 17:07:57 1514758077.794801: $GPRMC,220758,A,3946.9587,N,08404.9854,W,0.0000,0.000,311217,,*31
2017-12-31 17:07:57 1514758077.794863: $GPGSA,A,3,22,23,3,16,29,31,14,32,26,135,,,1.7,0.8,1.3*35
2017-12-31 17:07:58 1514758078.361588: $GPZDA,220759.00,31,12,2017,00,00*68
2017-12-31 17:07:58 1514758078.361785: $GPGGA,220759,3946.9587,N,08404.9854,W,2,10,0.80,302.21,M,-33.324,M,,*78
2017-12-31 17:07:58 1514758078.361859: $GPRMC,220759,A,3946.9587,N,08404.9854,W,0.0000,0.000,311217,,*30
2017-12-31 17:07:58 1514758078.361925: $GPGSA,A,3,22,23,3,16,29,31,14,32,26,135,,,1.7,0.8,1.3*35
2017-12-31 17:07:59 1514758079.360746: $GPZDA,220800.00,31,12,2017,00,00*6B
2017-12-31 17:07:59 1514758079.360930: $GPGGA,220800,3946.9587,N,08404.9854,W,2,10,0.80,302.21,M,-33.324,M,,*7B
2017-12-31 17:07:59 1514758079.361001: $GPRMC,220800,A,3946.9587,N,08404.9854,W,0.0000,0.000,311217,,*33
2017-12-31 17:07:59 1514758079.361068: $GPGSA,A,3,22,23,3,16,29,31,14,32,26,135,,,1.7,0.8,1.3*35
2017-12-31 17:08:00 1514758080.679596: $GPGSV,3,1,11,22,44,238,41,23,28,307,36,03,46,270,38,16,47,190,43*79
2017-12-31 17:08:00 1514758080.679782: $GPGSV,3,2,11,29,14,054,28,25,01,037,00,31,49,051,50,14,40,114,36*71
2017-12-31 17:08:00 1514758080.679907: $GPGSV,3,3,11,32,18,123,40,26,75,139,48,135,22,240,42*73
2017-12-31 17:08:00 1514758080.793280: $GPZDA,220801.00,31,12,2017,00,00*6A
2017-12-31 17:08:00 1514758080.793451: $GPGGA,220801,3946.9587,N,08404.9854,W,2,10,0.80,302.21,M,-33.324,M,,*7A
2017-12-31 17:08:00 1514758080.793520: $GPRMC,220801,A,3946.9587,N,08404.9854,W,0.0000,0.000,311217,,*32
2017-12-31 17:08:00 1514758080.793584: $GPGSA,A,3,22,23,3,16,29,31,14,32,26,135,,,1.7,0.8,1.3*35
2017-12-31 17:08:01 1514758081.504742: $GPZDA,220802.00,31,12,2017,00,00*69
2017-12-31 17:08:01 1514758081.504932: $GPGGA,220802,3946.9587,N,08404.9854,W,2,10,0.80,302.21,M,-33.324,M,,*79
2017-12-31 17:08:01 1514758081.505003: $GPRMC,220802,A,3946.9587,N,08404.9854,W,0.0000,0.000,311217,,*31
2017-12-31 17:08:01 1514758081.505065: $GPGSA,A,3,22,23,3,16,29,31,14,32,26,135,,,1.7,0.8,1.3*35
2017-12-31 17:08:01 1514758081.505123: $GPGBS,220802,2.22,M,3.43,M,7.66,M*35
2017-12-31 17:08:02 1514758082.345730: $GPZDA,220803.00,31,12,2017,00,00*68
2017-12-31 17:08:02 1514758082.345903: $GPGGA,220803,3946.9587,N,08404.9854,W,2,10,0.80,302.21,M,-33.324,M,,*78
2017-12-31 17:08:02 1514758082.345971: $GPRMC,220803,A,3946.9587,N,08404.9854,W,0.0000,0.000,311217,,*30
2017-12-31 17:08:02 1514758082.346033: $GPGSA,A,3,22,23,3,16,29,31,14,32,26,135,,,1.7,0.8,1.3*35
2017-12-31 17:08:02 1514758082.346092: $GPGBS,220803,2.22,M,3.43,M,7.66,M*34
2017-12-31 17:08:03 1514758083.679923: $GPGSV,3,1,10,22,43,237,41,23,29,307,36,03,46,268,39,16,48,190,43*76
2017-12-31 17:08:03 1514758083.680071: $GPGSV,3,2,10,29,14,052,29,31,48,052,51,14,39,115,36,32,17,123,40*7A
2017-12-31 17:08:03 1514758083.680137: $GPGSV,3,3,10,26,75,136,47,135,22,240,42*4E
2017-12-31 17:08:03 1514758083.793708: $GPZDA,220804.00,31,12,2017,00,00*6F
2017-12-31 17:08:03 1514758083.793883: $GPGGA,220804,3946.9583,N,08404.9854,W,2,10,0.80,301.57,M,-33.324,M,,*79
2017-12-31 17:08:03 1514758083.793950: $GPRMC,220804,A,3946.9583,N,08404.9854,W,0.0000,0.000,311217,,*33
2017-12-31 17:08:03 1514758083.794012: $GPGSA,A,3,22,23,3,16,29,31,14,32,26,135,,,1.7,0.8,1.3*35
2017-12-31 17:08:04 1514758084.344573: $GPZDA,220805.00,31,12,2017,00,00*6E
2017-12-31 17:08:04 1514758084.344749: $GPGGA,220805,3946.9583,N,08404.9854,W,2,10,0.80,301.57,M,-33.324,M,,*78
2017-12-31 17:08:04 1514758084.344817: $GPRMC,220805,A,3946.9583,N,08404.9854,W,0.0000,0.000,311217,,*32
2017-12-31 17:08:04 1514758084.344880: $GPGSA,A,3,22,23,3,16,29,31,14,32,26,135,,,1.7,0.8,1.3*35
2017-12-31 17:08:05 1514758085.343693: $GPZDA,220806.00,31,12,2017,00,00*6D
2017-12-31 17:08:05 1514758085.343857: $GPGGA,220806,3946.9583,N,08404.9854,W,2,10,0.80,301.57,M,-33.324,M,,*7B
2017-12-31 17:08:05 1514758085.343924: $GPRMC,220806,A,3946.9583,N,08404.9854,W,0.0000,0.000,311217,,*31
2017-12-31 17:08:05 1514758085.343986: $GPGSA,A,3,22,23,3,16,29,31,14,32,26,135,,,1.7,0.8,1.3*35
2017-12-31 17:08:06 1514758086.696627: $GPGSV,3,1,10,22,43,237,41,23,29,307,36,03,46,268,39,16,48,190,43*76
2017-12-31 17:08:06 1514758086.696808: $GPGSV,3,2,10,29,14,052,29,31,48,052,51,14,39,115,36,32,17,123,40*7A
2017-12-31 17:08:06 1514758086.696876: $GPGSV,3,3,10,26,75,136,47,135,22,240,43*4F
2017-12-31 17:08:06 1514758086.810341: $GPZDA,220807.00,31,12,2017,00,00*6C
2017-12-31 17:08:06 1514758086.810514: $GPGGA,220807,3946.9583,N,08404.9854,W,2,10,0.80,301.57,M,-33.324,M,,*7A
2017-12-31 17:08:06 1514758086.810588: $GPRMC,220807,A,3946.9583,N,08404.9854,W,0.0000,0.000,311217,,*30
2017-12-31 17:08:06 1514758086.810652: $GPGSA,A,3,22,23,3,16,29,31,14,32,26,135,,,1.7,0.8,1.3*35
2017-12-31 17:08:07 1514758087.344927: $GPZDA,220808.00,31,12,2017,00,00*63
2017-12-31 17:08:07 1514758087.345084: $GPGGA,220808,3946.9583,N,08404.9854,W,2,10,0.80,301.57,M,-33.324,M,,*75
2017-12-31 17:08:07 1514758087.345151: $GPRMC,220808,A,3946.9583,N,08404.9854,W,0.0000,0.000,311217,,*3F
2017-12-31 17:08:07 1514758087.345214: $GPGSA,A,3,22,23,3,16,29,31,14,32,26,135,,,1.7,0.8,1.3*35
2017-12-31 17:08:08 1514758088.343278: $GPZDA,220809.00,31,12,2017,00,00*62
2017-12-31 17:08:08 1514758088.343552: $GPGGA,220809,3946.9583,N,08404.9854,W,2,10,0.80,301.57,M,-33.324,M,,*74
2017-12-31 17:08:08 1514758088.343755: $GPRMC,220809,A,3946.9583,N,08404.9854,W,0.0000,0.000,311217,,*3E
2017-12-31 17:08:08 1514758088.343825: $GPGSA,A,3,22,23,3,16,29,31,14,32,26,135,,,1.7,0.8,1.3*35
2017-12-31 17:08:09 1514758089.679982: $GPGSV,3,1,10,22,43,237,42,23,29,307,36,03,46,268,38,16,48,190,43*74
2017-12-31 17:08:09 1514758089.680161: $GPGSV,3,2,10,29,14,052,29,31,48,052,51,14,39,115,37,32,17,123,39*75
2017-12-31 17:08:09 1514758089.680228: $GPGSV,3,3,10,26,75,136,47,135,22,240,43*4F
2017-12-31 17:08:09 1514758089.793348: $GPZDA,220810.00,31,12,2017,00,00*6A
2017-12-31 17:08:09 1514758089.793526: $GPGGA,220810,3946.9583,N,08404.9854,W,2,10,0.80,301.57,M,-33.324,M,,*7C
2017-12-31 17:08:09 1514758089.793598: $GPRMC,220810,A,3946.9583,N,08404.9854,W,0.0000,0.000,311217,,*36
2017-12-31 17:08:09 1514758089.793660: $GPGSA,A,3,22,23,3,16,29,31,14,32,26,135,,,1.7,0.8,1.3*35
2017-12-31 17:08:10 1514758090.418933: $GPZDA,220811.00,31,12,2017,00,00*6B
2017-12-31 17:08:10 1514758090.419090: $GPGGA,220811,3946.9583,N,08404.9854,W,2,10,0.80,301.57,M,-33.324,M,,*7D
2017-12-31 17:08:10 1514758090.419159: $GPRMC,220811,A,3946.9583,N,08404.9854,W,0.0000,0.000,311217,,*37
2017-12-31 17:08:10 1514758090.419220: $GPGSA,A,3,22,23,3,16,29,31,14,32,26,135,,,1.7,0.8,1.3*35
2017-12-31 17:08:11 1514758091.344971: $GPZDA,220812.00,31,12,2017,00,00*68
2017-12-31 17:08:11 1514758091.345140: $GPGGA,220812,3946.9583,N,08404.9854,W,2,10,0.80,301.57,M,-33.324,M,,*7E
2017-12-31 17:08:11 1514758091.345207: $GPRMC,220812,A,3946.9583,N,08404.9854,W,0.0000,0.000,311217,,*34
2017-12-31 17:08:11 1514758091.345268: $GPGSA,A,3,22,23,3,16,29,31,14,32,26,135,,,1.7,0.8,1.3*35
2017-12-31 17:08:12 1514758092.689069: $GPGSV,3,1,10,22,43,237,42,23,29,307,36,03,46,268,39,16,48,190,43*75
2017-12-31 17:08:12 1514758092.689250: $GPGSV,3,2,10,29,14,052,30,31,48,052,51,14,39,115,37,32,17,123,40*73
2017-12-31 17:08:12 1514758092.689317: $GPGSV,3,3,10,26,75,136,47,135,22,240,42*4E
