2017-12-01 14:14:34 1512155674.774264: {"class":"VERSION","release":"3.16","rev":"3.16-4","proto_major":3,"proto_minor":11}
2017-12-01 14:14:34 1512155674.774714: {"class":"DEVICES","devices":[{"class":"DEVICE","path":"/dev/ttyUSB0","driver":"SiRF","subtype":"9\u0006GSD4e_4.1.2-P1_RPATCH.05-F-GPS-4R-1510281 11/03/2015 307","activated":"2017-12-01T19:14:34.361Z","flags":1,"native":1,"bps":4800,"parity":"N","stopbits":1,"cycle":1.00}]}
2017-12-01 14:14:34 1512155674.774853: {"class":"WATCH","enable":true,"json":false,"nmea":true,"raw":0,"scaled":false,"timing":false,"split24":false,"pps":false}
2017-12-01 14:14:34 1512155674.963505: $GPZDA,191435.65,01,12,2017,00,00*68
2017-12-01 14:14:34 1512155674.963678: $GPGGA,191435,3946.9558,N,08404.9835,W,1,12,1.40,315.02,M,-33.324,M,,*76
2017-12-01 14:14:34 1512155674.963745: $GPRMC,191435,A,3946.9558,N,08404.9835,W,0.3106,69.940,011217,,*00
2017-12-01 14:14:34 1512155674.963807: $GPGSA,A,3,10,14,18,21,24,32,8,12,15,20,27,138,2.0,1.4,1.5*3A
2017-12-01 14:14:36 1512155676.091870: $GPZDA,191436.34,01,12,2017,00,00*6F
2017-12-01 14:14:36 1512155676.092086: $GPGGA,191436,3946.9555,N,08404.9836,W,1,12,1.40,315.79,M,-33.324,M,,*77
2017-12-01 14:14:36 1512155676.092163: $GPRMC,191436,A,3946.9555,N,08404.9836,W,0.3255,76.773,011217,,*08
2017-12-01 14:14:36 1512155676.092228: $GPGSA,A,3,10,14,18,21,24,32,8,12,15,20,27,138,2.0,1.4,1.5*3A
2017-12-01 14:14:36 1512155676.092297: $GPGBS,191436,10.70,M,15.43,M,35.28,M*0F
2017-12-01 14:14:37 1512155677.256329: $GPGSV,3,1,12,10,66,327,48,14,26,250,36,18,73,084,43,21,32,180,45*7C
2017-12-01 14:14:37 1512155677.256516: $GPGSV,3,2,12,24,47,063,47,27,08,262,33,32,43,261,46,08,07,297,03*72
2017-12-01 14:14:37 1512155677.256583: $GPGSV,3,3,12,12,07,111,03,15,14,064,14,20,12,115,02,138,38,213,00*4D
2017-12-01 14:14:37 1512155677.369667: $GPZDA,191437.00,01,12,2017,00,00*69
2017-12-01 14:14:37 1512155677.369822: $GPGGA,191437,3946.9555,N,08404.9836,W,1,07,1.40,315.79,M,-33.324,M,,*72
2017-12-01 14:14:37 1512155677.369890: $GPRMC,191437,A,3946.9555,N,08404.9836,W,0.3106,69.940,011217,,*0C
2017-12-01 14:14:37 1512155677.369950: $GPGSA,A,3,10,14,18,21,24,27,32,,,,,,2.0,1.4,1.5*3D
2017-12-01 14:14:37 1512155677.820531: $GPZDA,191438.00,01,12,2017,00,00*66
2017-12-01 14:14:37 1512155677.820705: $GPGGA,191438,3946.9555,N,08404.9836,W,1,07,0.80,315.79,M,-33.324,M,,*70
2017-12-01 14:14:37 1512155677.820773: $GPRMC,191438,A,3946.9555,N,08404.9836,W,0.0000,0.000,011217,,*35
2017-12-01 14:14:37 1512155677.820834: $GPGSA,A,3,10,14,18,21,24,27,32,,,,,,2.0,0.8,1.5*30
2017-12-01 14:14:38 1512155678.359059: $GPZDA,191439.00,01,12,2017,00,00*67
2017-12-01 14:14:38 1512155678.359237: $GPGGA,191439,3946.9558,N,08404.9835,W,1,07,0.80,315.02,M,-33.324,M,,*73
2017-12-01 14:14:38 1512155678.359308: $GPRMC,191439,A,3946.9558,N,08404.9835,W,0.0000,0.000,011217,,*3A
2017-12-01 14:14:38 1512155678.359374: $GPGSA,A,3,10,14,18,21,24,27,32,,,,,,2.0,0.8,1.5*30
2017-12-01 14:14:39 1512155679.696684: $GPGSV,3,1,12,10,66,327,49,14,26,250,36,18,73,084,43,21,32,180,44*7C
2017-12-01 14:14:39 1512155679.696875: $GPGSV,3,2,12,24,47,063,47,27,08,262,32,32,43,261,46,08,07,297,30*73
2017-12-01 14:14:39 1512155679.696965: $GPGSV,3,3,12,12,07,111,24,15,14,064,30,20,12,115,23,138,38,213,47*4E
2017-12-01 14:14:39 1512155679.810040: $GPZDA,191440.00,01,12,2017,00,00*69
2017-12-01 14:14:39 1512155679.810206: $GPGGA,191440,3946.9558,N,08404.9835,W,1,12,0.80,315.02,M,-33.324,M,,*79
2017-12-01 14:14:39 1512155679.810275: $GPRMC,191440,A,3946.9558,N,08404.9835,W,0.0000,0.000,011217,,*34
2017-12-01 14:14:39 1512155679.810338: $GPGSA,A,3,10,14,18,21,24,27,32,8,12,15,20,138,2.0,0.8,1.5*37
2017-12-01 14:14:40 1512155680.359683: $GPZDA,191441.00,01,12,2017,00,00*68
2017-12-01 14:14:40 1512155680.359847: $GPGGA,191441,3946.9561,N,08404.9835,W,1,12,0.80,314.26,M,-33.324,M,,*75
2017-12-01 14:14:40 1512155680.359913: $GPRMC,191441,A,3946.9561,N,08404.9835,W,0.0000,0.000,011217,,*3F
2017-12-01 14:14:40 1512155680.359976: $GPGSA,A,3,10,14,18,21,24,27,32,8,12,15,20,138,2.0,0.8,1.5*37
2017-12-01 14:14:41 1512155681.360602: $GPZDA,191442.00,01,12,2017,00,00*6B
2017-12-01 14:14:41 1512155681.360817: $GPGGA,191442,3946.9561,N,08404.9835,W,1,12,0.80,314.26,M,-33.324,M,,*76
2017-12-01 14:14:41 1512155681.360887: $GPRMC,191442,A,3946.9561,N,08404.9835,W,0.0000,0.000,011217,,*3C
2017-12-01 14:14:41 1512155681.360950: $GPGSA,A,3,10,14,18,21,24,27,32,8,12,15,20,138,2.0,0.8,1.5*37
2017-12-01 14:14:41 1512155681.361010: $GPGBS,191442,10.70,M,15.43,M,35.28,M*0C
2017-12-01 14:14:42 1512155682.696254: $GPGSV,3,1,12,10,66,327,49,14,26,250,36,18,73,084,42,21,32,180,44*7D
2017-12-01 14:14:42 1512155682.696440: $GPGSV,3,2,12,24,47,063,47,27,08,262,33,32,43,261,46,08,07,297,30*72
2017-12-01 14:14:42 1512155682.696507: $GPGSV,3,3,12,12,07,111,23,15,14,064,31,20,12,115,24,138,38,213,46*4E
2017-12-01 14:14:42 1512155682.809528: $GPZDA,191443.00,01,12,2017,00,00*6A
2017-12-01 14:14:42 1512155682.809718: $GPGGA,191443,3946.9561,N,08404.9835,W,1,12,0.80,314.26,M,-33.324,M,,*77
2017-12-01 14:14:42 1512155682.809787: $GPRMC,191443,A,3946.9561,N,08404.9835,W,0.0000,0.000,011217,,*3D
2017-12-01 14:14:42 1512155682.809849: $GPGSA,A,3,10,14,18,21,24,27,32,8,12,15,20,138,2.0,0.8,1.5*37
2017-12-01 14:14:43 1512155683.362924: $GPZDA,191444.00,01,12,2017,00,00*6D
2017-12-01 14:14:43 1512155683.363102: $GPGGA,191444,3946.9561,N,08404.9834,W,1,12,0.80,312.86,M,-33.324,M,,*7D
2017-12-01 14:14:43 1512155683.363169: $GPRMC,191444,A,3946.9561,N,08404.9834,W,0.0000,0.000,011217,,*3B
2017-12-01 14:14:43 1512155683.363235: $GPGSA,A,3,10,14,18,21,24,27,32,8,12,15,20,138,2.0,0.8,1.5*37
2017-12-01 14:14:44 1512155684.359566: $GPZDA,191445.00,01,12,2017,00,00*6C
2017-12-01 14:14:44 1512155684.359744: $GPGGA,191445,3946.9561,N,08404.9834,W,1,12,0.80,312.86,M,-33.324,M,,*7C
2017-12-01 14:14:44 1512155684.359812: $GPRMC,191445,A,3946.9561,N,08404.9834,W,0.0000,0.000,011217,,*3A
2017-12-01 14:14:44 1512155684.359872: $GPGSA,A,3,10,14,18,21,24,27,32,8,12,15,20,138,2.0,0.8,1.5*37
2017-12-01 14:14:45 1512155685.695280: $GPGSV,3,1,12,10,66,327,50,14,26,250,36,18,73,084,42,21,32,180,43*72
2017-12-01 14:14:45 1512155685.695465: $GPGSV,3,2,12,24,47,063,48,27,08,262,34,32,43,261,46,08,07,297,30*7A
2017-12-01 14:14:45 1512155685.695531: $GPGSV,3,3,12,12,07,111,17,15,14,064,32,20,12,115,25,138,38,213,46*4B
2017-12-01 14:14:45 1512155685.808613: $GPZDA,191446.00,01,12,2017,00,00*6F
2017-12-01 14:14:45 1512155685.808781: $GPGGA,191446,3946.9561,N,08404.9834,W,1,12,0.80,312.86,M,-33.324,M,,*7F
2017-12-01 14:14:45 1512155685.808848: $GPRMC,191446,A,3946.9561,N,08404.9834,W,0.0000,0.000,011217,,*39
2017-12-01 14:14:45 1512155685.808909: $GPGSA,A,3,10,14,18,21,24,27,32,8,12,15,20,138,2.0,0.8,1.5*37
2017-12-01 14:14:46 1512155686.359529: $GPZDA,191447.00,01,12,2017,00,00*6E
2017-12-01 14:14:46 1512155686.359702: $GPGGA,191447,3946.9567,N,08404.9832,W,2,12,1.80,309.92,M,-33.324,M,,*73
2017-12-01 14:14:46 1512155686.359770: $GPRMC,191447,A,3946.9567,N,08404.9832,W,0.0000,0.000,011217,,*38
2017-12-01 14:14:46 1512155686.359832: $GPGSA,A,3,10,14,18,21,24,27,32,8,12,15,20,138,2.0,1.8,1.5*36
2017-12-01 14:14:47 1512155687.361768: $GPZDA,191448.00,01,12,2017,00,00*61
2017-12-01 14:14:47 1512155687.361926: $GPGGA,191448,3946.9563,N,08404.9833,W,2,12,0.80,310.69,M,-33.324,M,,*74
2017-12-01 14:14:47 1512155687.361992: $GPRMC,191448,A,3946.9563,N,08404.9833,W,0.0000,0.000,011217,,*32
2017-12-01 14:14:47 1512155687.362055: $GPGSA,A,3,10,14,18,21,24,27,32,8,12,15,20,138,2.0,0.8,1.5*37
2017-12-01 14:14:48 1512155688.697384: $GPGSV,3,1,12,10,66,327,49,14,26,250,37,18,73,084,43,21,32,180,43*7A
2017-12-01 14:14:48 1512155688.697571: $GPGSV,3,2,12,24,47,063,48,27,08,262,35,32,43,261,45,08,07,297,31*79
2017-12-01 14:14:48 1512155688.697639: $GPGSV,3,3,12,12,07,111,19,15,14,064,32,20,12,115,26,138,38,213,47*47
2017-12-01 14:14:48 1512155688.810855: $GPZDA,191449.00,01,12,2017,00,00*60
2017-12-01 14:14:48 1512155688.811027: $GPGGA,191449,3946.9563,N,08404.9833,W,2,12,0.80,310.69,M,-33.324,M,,*75
2017-12-01 14:14:48 1512155688.811095: $GPRMC,191449,A,3946.9563,N,08404.9833,W,0.0000,0.000,011217,,*33
2017-12-01 14:14:48 1512155688.811210: $GPGSA,A,3,10,14,18,21,24,27,32,8,12,15,20,138,2.0,0.8,1.5*37
2017-12-01 14:14:49 1512155689.436181: $GPZDA,191450.00,01,12,2017,00,00*68
2017-12-01 14:14:49 1512155689.436348: $GPGGA,191450,3946.9567,N,08404.9821,W,2,12,0.80,303.62,M,-33.324,M,,*73
2017-12-01 14:14:49 1512155689.436416: $GPRMC,191450,A,3946.9567,N,08404.9821,W,0.0000,0.000,011217,,*3C
2017-12-01 14:14:49 1512155689.436478: $GPGSA,A,3,10,14,18,21,24,27,32,8,12,15,20,138,2.0,0.8,1.5*37
2017-12-01 14:14:50 1512155690.365810: $GPZDA,191451.00,01,12,2017,00,00*69
2017-12-01 14:14:50 1512155690.365997: $GPGGA,191451,3946.9567,N,08404.9821,W,2,12,0.80,303.62,M,-33.324,M,,*72
2017-12-01 14:14:50 1512155690.366084: $GPRMC,191451,A,3946.9567,N,08404.9821,W,0.0000,0.000,011217,,*3D
2017-12-01 14:14:50 1512155690.366147: $GPGSA,A,3,10,14,18,21,24,27,32,8,12,15,20,138,2.0,0.8,1.5*37
2017-12-01 14:14:51 1512155691.702858: $GPGSV,3,1,12,10,66,327,49,14,26,250,38,18,73,084,43,21,32,180,43*75
2017-12-01 14:14:51 1512155691.703065: $GPGSV,3,2,12,24,47,063,48,27,08,262,36,32,43,261,45,08,07,297,32*79
2017-12-01 14:14:51 1512155691.703134: $GPGSV,3,3,12,12,07,111,19,15,14,064,31,20,12,115,26,138,38,213,46*45
2017-12-01 14:14:51 1512155691.816510: $GPZDA,191452.00,01,12,2017,00,00*6A
2017-12-01 14:14:51 1512155691.816667: $GPGGA,191452,3946.9567,N,08404.9821,W,2,12,0.80,303.62,M,-33.324,M,,*71
2017-12-01 14:14:51 1512155691.816733: $GPRMC,191452,A,3946.9567,N,08404.9821,W,0.0000,0.000,011217,,*3E
2017-12-01 14:14:51 1512155691.816793: $GPGSA,A,3,10,14,18,21,24,27,32,8,12,15,20,138,2.0,0.8,1.5*37
2017-12-01 14:14:52 1512155692.367255: $GPZDA,191453.00,01,12,2017,00,00*6B
2017-12-01 14:14:52 1512155692.367422: $GPGGA,191453,3946.9564,N,08404.9822,W,2,12,0.80,304.38,M,-33.324,M,,*78
2017-12-01 14:14:52 1512155692.367489: $GPRMC,191453,A,3946.9564,N,08404.9822,W,0.0000,0.000,011217,,*3F
2017-12-01 14:14:52 1512155692.367550: $GPGSA,A,3,10,14,18,21,24,27,32,8,12,15,20,138,2.0,0.8,1.5*37
2017-12-01 14:14:53 1512155693.365511: $GPZDA,191454.00,01,12,2017,00,00*6C
2017-12-01 14:14:53 1512155693.365678: $GPGGA,191454,3946.9564,N,08404.9822,W,2,12,0.80,304.38,M,-33.324,M,,*7F
2017-12-01 14:14:53 1512155693.365745: $GPRMC,191454,A,3946.9564,N,08404.9822,W,0.0000,0.000,011217,,*38
2017-12-01 14:14:53 1512155693.365806: $GPGSA,A,3,10,14,18,21,24,27,32,8,12,15,20,138,2.0,0.8,1.5*37
2017-12-01 14:14:53 1512155693.365864: $GPGBS,191454,2.67,M,3.86,M,8.82,M*3E
2017-12-01 14:14:54 1512155694.695560: $GPGSV,3,1,12,10,66,327,49,14,26,250,39,18,73,084,43,21,32,180,44*73
2017-12-01 14:14:54 1512155694.695718: $GPGSV,3,2,12,24,47,063,48,27,08,262,36,32,43,261,45,08,07,297,32*79
2017-12-01 14:14:54 1512155694.695784: $GPGSV,3,3,12,12,07,111,19,15,14,064,31,20,12,115,27,138,38,213,46*44
2017-12-01 14:14:54 1512155694.809188: $GPZDA,191455.00,01,12,2017,00,00*6D
2017-12-01 14:14:54 1512155694.809358: $GPGGA,191455,3946.9568,N,08404.9822,W,2,12,0.80,305.02,M,-33.324,M,,*7A
2017-12-01 14:14:54 1512155694.809424: $GPRMC,191455,A,3946.9568,N,08404.9822,W,0.0000,0.000,011217,,*35
2017-12-01 14:14:54 1512155694.809485: $GPGSA,A,3,10,14,18,21,24,27,32,8,12,15,20,138,2.0,0.8,1.5*37
