2017-12-14 11:48:44 1513270124.984348: {"class":"VERSION","release":"3.16","rev":"3.16-4","proto_major":3,"proto_minor":11}
2017-12-14 11:48:44 1513270124.984741: {"class":"DEVICES","devices":[{"class":"DEVICE","path":"/dev/ttyUSB0","driver":"SiRF","subtype":"9\u0006GSD4e_4.1.2-P1_RPATCH.05-F-GPS-4R-1510281 11/03/2015 307","activated":"2017-12-14T16:48:44.367Z","flags":1,"native":1,"bps":4800,"parity":"N","stopbits":1,"cycle":1.00}]}
2017-12-14 11:48:44 1513270124.984853: {"class":"WATCH","enable":true,"json":false,"nmea":true,"raw":0,"scaled":false,"timing":false,"split24":false,"pps":false}
2017-12-14 11:48:45 1513270125.578077: $GPGSV,3,1,11,10,31,291,21,15,50,049,19,18,62,313,22,20,44,082,00*71
2017-12-14 11:48:45 1513270125.578246: $GPGSV,3,2,11,24,42,129,23,13,19,045,00,32,10,231,15,27,19,303,00*71
2017-12-14 11:48:45 1513270125.578311: $GPGSV,3,3,11,21,76,211,00,29,01,186,00,120,07,103,00*7A
2017-12-14 11:48:45 1513270125.691923: $GPZDA,164846.00,14,12,2017,00,00*6D
2017-12-14 11:48:45 1513270125.692257: $GPGGA,164846,3946.9482,N,08404.9479,W,1,05,2.00,358.54,M,-33.324,M,,*7D
2017-12-14 11:48:45 1513270125.692334: $GPRMC,164846,A,3946.9482,N,08404.9479,W,1.2132,183.552,141217,,*39
2017-12-14 11:48:45 1513270125.692409: $GPGSA,A,3,10,15,18,24,32,,,,,,,,6.6,2.0,6.2*3F
2017-12-14 11:48:46 1513270126.241972: $GPZDA,164847.00,14,12,2017,00,00*6C
2017-12-14 11:48:46 1513270126.242204: $GPGGA,164847,3946.9482,N,08404.9479,W,1,05,2.00,358.54,M,-33.324,M,,*7C
2017-12-14 11:48:46 1513270126.242278: $GPRMC,164847,A,3946.9482,N,08404.9479,W,1.2132,183.552,141217,,*38
2017-12-14 11:48:46 1513270126.242343: $GPGSA,A,3,10,15,18,24,32,,,,,,,,6.6,2.0,6.2*3F
2017-12-14 11:48:47 1513270127.225267: $GPZDA,164848.00,14,12,2017,00,00*63
2017-12-14 11:48:47 1513270127.225430: $GPGGA,164848,3946.9478,N,08404.9480,W,1,05,2.00,359.31,M,-33.324,M,,*72
2017-12-14 11:48:47 1513270127.225497: $GPRMC,164848,A,3946.9478,N,08404.9480,W,1.2132,183.552,141217,,*34
2017-12-14 11:48:47 1513270127.225558: $GPGSA,A,3,10,15,18,24,32,,,,,,,,6.6,2.0,6.2*3F
2017-12-14 11:48:48 1513270128.578670: $GPGSV,3,1,11,10,31,291,21,15,50,049,20,18,62,313,21,20,44,082,00*78
2017-12-14 11:48:48 1513270128.578846: $GPGSV,3,2,11,24,42,129,24,13,19,045,00,32,10,231,15,27,19,303,00*76
2017-12-14 11:48:48 1513270128.578913: $GPGSV,3,3,11,21,76,211,00,29,01,186,00,120,07,103,00*7A
2017-12-14 11:48:48 1513270128.692396: $GPZDA,164849.00,14,12,2017,00,00*62
2017-12-14 11:48:48 1513270128.692550: $GPGGA,164849,3946.9478,N,08404.9480,W,1,05,2.00,359.31,M,-33.324,M,,*73
2017-12-14 11:48:48 1513270128.692617: $GPRMC,164849,A,3946.9478,N,08404.9480,W,1.3692,184.197,141217,,*33
2017-12-14 11:48:48 1513270128.692679: $GPGSA,A,3,10,15,18,24,32,,,,,,,,6.6,2.0,6.2*3F
2017-12-14 11:48:49 1513270129.242499: $GPZDA,164850.00,14,12,2017,00,00*6A
2017-12-14 11:48:49 1513270129.242657: $GPGGA,164850,3946.9470,N,08404.9473,W,1,05,2.00,359.51,M,-33.324,M,,*79
2017-12-14 11:48:49 1513270129.242724: $GPRMC,164850,A,3946.9470,N,08404.9473,W,1.5746,174.845,141217,,*38
2017-12-14 11:48:49 1513270129.242787: $GPGSA,A,3,10,15,18,24,32,,,,,,,,6.6,2.0,6.2*3F
2017-12-14 11:48:50 1513270130.242411: $GPZDA,164851.00,14,12,2017,00,00*6B
2017-12-14 11:48:50 1513270130.242588: $GPGGA,164851,3946.9470,N,08404.9473,W,1,05,2.00,359.51,M,-33.324,M,,*78
2017-12-14 11:48:50 1513270130.242670: $GPRMC,164851,A,3946.9470,N,08404.9473,W,1.1323,158.868,141217,,*3B
2017-12-14 11:48:50 1513270130.242735: $GPGSA,A,3,10,15,18,24,32,,,,,,,,6.6,2.0,6.2*3F
2017-12-14 11:48:51 1513270131.579331: $GPGSV,3,1,11,10,31,291,21,15,50,049,21,18,62,313,21,20,44,082,00*79
2017-12-14 11:48:51 1513270131.579512: $GPGSV,3,2,11,24,42,129,24,13,19,045,00,32,10,231,15,27,19,303,00*76
2017-12-14 11:48:51 1513270131.579577: $GPGSV,3,3,11,21,76,211,00,29,01,186,00,120,07,103,00*7A
2017-12-14 11:48:51 1513270131.691373: $GPZDA,164852.00,14,12,2017,00,00*68
2017-12-14 11:48:51 1513270131.691501: $GPGGA,164852,3946.9467,N,08404.9474,W,1,05,2.00,360.27,M,-33.324,M,,*71
2017-12-14 11:48:51 1513270131.691565: $GPRMC,164852,A,3946.9467,N,08404.9474,W,1.1391,143.662,141217,,*3E
2017-12-14 11:48:51 1513270131.691681: $GPGSA,A,3,10,15,18,24,32,,,,,,,,6.6,2.0,6.2*3F
2017-12-14 11:48:52 1513270132.226579: $GPZDA,164853.00,14,12,2017,00,00*69
2017-12-14 11:48:52 1513270132.226750: $GPGGA,164853,3946.9467,N,08404.9467,W,1,05,2.00,360.35,M,-33.324,M,,*71
2017-12-14 11:48:52 1513270132.226815: $GPRMC,164853,A,3946.9467,N,08404.9467,W,0.7246,164.668,141217,,*3E
2017-12-14 11:48:52 1513270132.226877: $GPGSA,A,3,10,15,18,24,32,,,,,,,,6.6,2.0,6.2*3F
2017-12-14 11:48:53 1513270133.243111: $GPZDA,164854.00,14,12,2017,00,00*6E
2017-12-14 11:48:53 1513270133.243288: $GPGGA,164854,3946.9471,N,08404.9467,W,1,05,2.00,360.99,M,-33.324,M,,*77
2017-12-14 11:48:53 1513270133.243359: $GPRMC,164854,A,3946.9471,N,08404.9467,W,0.1867,180.000,141217,,*33
2017-12-14 11:48:53 1513270133.243421: $GPGSA,A,3,10,15,18,24,32,,,,,,,,6.6,2.0,6.2*3F
2017-12-14 11:48:54 1513270134.579148: $GPGSV,3,1,11,10,31,291,21,15,50,049,21,18,62,313,21,20,44,082,00*79
2017-12-14 11:48:54 1513270134.579304: $GPGSV,3,2,11,24,42,129,24,13,19,045,00,32,10,231,15,27,19,303,00*76
2017-12-14 11:48:54 1513270134.579372: $GPGSV,3,3,11,21,76,211,00,29,01,186,00,120,07,103,00*7A
2017-12-14 11:48:54 1513270134.692630: $GPZDA,164855.00,14,12,2017,00,00*6F
2017-12-14 11:48:54 1513270134.692805: $GPGGA,164855,3946.9471,N,08404.9474,W,1,05,2.00,360.91,M,-33.324,M,,*7C
2017-12-14 11:48:54 1513270134.692874: $GPRMC,164855,A,3946.9471,N,08404.9474,W,0.4207,219.347,141217,,*3A
2017-12-14 11:48:54 1513270134.692935: $GPGSA,A,3,10,15,18,24,32,,,,,,,,6.6,2.0,6.2*3F
2017-12-14 11:48:55 1513270135.243919: $GPZDA,164856.00,14,12,2017,00,00*6C
2017-12-14 11:48:55 1513270135.244100: $GPGGA,164856,3946.9471,N,08404.9474,W,1,05,2.00,360.91,M,-33.324,M,,*7F
2017-12-14 11:48:55 1513270135.244165: $GPRMC,164856,A,3946.9471,N,08404.9474,W,0.2422,273.794,141217,,*38
2017-12-14 11:48:55 1513270135.244228: $GPGSA,A,3,10,15,18,24,32,,,,,,,,6.6,2.0,6.2*3F
2017-12-14 11:48:56 1513270136.224775: $GPZDA,164857.00,14,12,2017,00,00*6D
2017-12-14 11:48:56 1513270136.224943: $GPGGA,164857,3946.9475,N,08404.9467,W,1,05,2.00,361.63,M,-33.324,M,,*74
2017-12-14 11:48:56 1513270136.225013: $GPRMC,164857,A,3946.9475,N,08404.9467,W,0.3423,4.197,141217,,*38
2017-12-14 11:48:56 1513270136.225078: $GPGSA,A,3,10,15,18,24,32,,,,,,,,6.6,2.0,6.2*3F
2017-12-14 11:48:57 1513270137.561130: $GPGSV,3,1,11,10,31,291,21,15,50,049,22,18,62,313,21,20,44,082,09*73
2017-12-14 11:48:57 1513270137.565235: $GPGSV,3,2,11,24,42,129,25,13,19,045,00,32,10,231,15,27,19,303,00*77
2017-12-14 11:48:57 1513270137.565394: $GPGSV,3,3,11,21,76,211,00,29,01,186,00,120,07,103,00*7A
2017-12-14 11:48:57 1513270137.674391: $GPZDA,164858.00,14,12,2017,00,00*62
2017-12-14 11:48:57 1513270137.674543: $GPGGA,164858,3946.9475,N,08404.9467,W,1,05,2.00,361.63,M,-33.324,M,,*7B
2017-12-14 11:48:57 1513270137.674609: $GPRMC,164858,A,3946.9475,N,08404.9467,W,0.3155,129.994,141217,,*36
2017-12-14 11:48:57 1513270137.674669: $GPGSA,A,3,10,15,18,24,32,,,,,,,,6.6,2.0,6.2*3F
2017-12-14 11:48:58 1513270138.225873: $GPZDA,164859.00,14,12,2017,00,00*63
2017-12-14 11:48:58 1513270138.226032: $GPGGA,164859,3946.9475,N,08404.9467,W,1,05,2.00,361.63,M,-33.324,M,,*7A
2017-12-14 11:48:58 1513270138.226102: $GPRMC,164859,A,3946.9475,N,08404.9467,W,0.4844,93.794,141217,,*07
2017-12-14 11:48:58 1513270138.226163: $GPGSA,A,3,10,15,18,24,32,,,,,,,,6.6,2.0,6.2*3F
2017-12-14 11:48:59 1513270139.225969: $GPZDA,164900.00,14,12,2017,00,00*6E
2017-12-14 11:48:59 1513270139.226149: $GPGGA,164900,3946.9479,N,08404.9467,W,1,05,2.00,362.27,M,-33.324,M,,*78
2017-12-14 11:48:59 1513270139.226216: $GPRMC,164900,A,3946.9479,N,08404.9467,W,0.5951,58.684,141217,,*05
2017-12-14 11:48:59 1513270139.226278: $GPGSA,A,3,10,15,18,24,32,,,,,,,,6.6,2.0,6.2*3F
2017-12-14 11:49:00 1513270140.564636: $GPGSV,3,1,11,10,31,291,21,15,50,049,22,18,62,313,22,20,44,082,14*7C
2017-12-14 11:49:00 1513270140.564816: $GPGSV,3,2,11,24,42,129,25,13,19,045,00,32,10,231,15,27,19,303,00*77
2017-12-14 11:49:00 1513270140.564881: $GPGSV,3,3,11,21,76,211,00,29,01,186,00,120,07,103,00*7A
2017-12-14 11:49:00 1513270140.678350: $GPZDA,164901.00,14,12,2017,00,00*6F
2017-12-14 11:49:00 1513270140.678502: $GPGGA,164901,3946.9479,N,08404.9467,W,1,06,1.80,362.27,M,-33.324,M,,*71
2017-12-14 11:49:00 1513270140.678568: $GPRMC,164901,A,3946.9479,N,08404.9467,W,0.7278,23.636,141217,,*03
2017-12-14 11:49:00 1513270140.678647: $GPGSA,A,3,10,15,18,20,24,32,,,,,,,6.6,1.8,6.2*36
2017-12-14 11:49:01 1513270141.228106: $GPZDA,164902.00,14,12,2017,00,00*6C
2017-12-14 11:49:01 1513270141.228268: $GPGGA,164902,3946.9483,N,08404.9460,W,1,06,1.80,362.99,M,-33.324,M,,*75
2017-12-14 11:49:01 1513270141.228338: $GPRMC,164902,A,3946.9483,N,08404.9460,W,0.4207,39.347,141217,,*01
2017-12-14 11:49:01 1513270141.228400: $GPGSA,A,3,10,15,18,20,24,32,,,,,,,6.6,1.8,6.2*36
2017-12-14 11:49:02 1513270142.228152: $GPZDA,164903.00,14,12,2017,00,00*6D
2017-12-14 11:49:02 1513270142.228324: $GPGGA,164903,3946.9483,N,08404.9460,W,1,06,1.80,362.99,M,-33.324,M,,*74
2017-12-14 11:49:02 1513270142.228392: $GPRMC,164903,A,3946.9483,N,08404.9460,W,0.5951,58.684,141217,,*04
2017-12-14 11:49:02 1513270142.228453: $GPGSA,A,3,10,15,18,20,24,32,,,,,,,6.6,1.8,6.2*36
2017-12-14 11:49:03 1513270143.562718: $GPGSV,3,1,11,10,31,291,21,15,50,049,23,18,62,313,22,20,44,082,07*7F
2017-12-14 11:49:03 1513270143.562873: $GPGSV,3,2,11,24,42,129,26,13,19,045,00,32,10,231,15,27,19,303,00*74
2017-12-14 11:49:03 1513270143.562943: $GPGSV,3,3,11,21,76,211,00,29,01,186,00,120,07,103,00*7A
2017-12-14 11:49:03 1513270143.676716: $GPZDA,164904.00,14,12,2017,00,00*6A
2017-12-14 11:49:03 1513270143.676890: $GPGGA,164904,3946.9487,N,08404.9460,W,1,05,2.00,363.63,M,-33.324,M,,*7B
2017-12-14 11:49:03 1513270143.676959: $GPRMC,164904,A,3946.9487,N,08404.9460,W,0.8414,39.347,141217,,*0B
2017-12-14 11:49:03 1513270143.677025: $GPGSA,A,3,10,15,18,24,32,,,,,,,,6.6,2.0,6.2*3F
2017-12-14 11:49:04 1513270144.226334: $GPZDA,164905.00,14,12,2017,00,00*6B
2017-12-14 11:49:04 1513270144.226499: $GPGGA,164905,3946.9487,N,08404.9453,W,1,05,2.00,363.71,M,-33.324,M,,*79
2017-12-14 11:49:04 1513270144.226566: $GPRMC,164905,A,3946.9487,N,08404.9453,W,0.8953,59.978,141217,,*04
2017-12-14 11:49:04 1513270144.226627: $GPGSA,A,3,10,15,18,24,32,,,,,,,,6.6,2.0,6.2*3F
