2017-12-01 13:11:23 1512151883.976813: {"class":"VERSION","release":"3.16","rev":"3.16-4","proto_major":3,"proto_minor":11}
2017-12-01 13:11:23 1512151883.977277: {"class":"DEVICES","devices":[{"class":"DEVICE","path":"/dev/ttyUSB0","driver":"SiRF","subtype":"9\u0006GSD4e_4.1.2-P1_RPATCH.05-F-GPS-4R-1510281 11/03/2015 307","activated":"2017-12-01T18:11:23.554Z","flags":1,"native":1,"bps":4800,"parity":"N","stopbits":1,"cycle":1.00}]}
2017-12-01 13:11:23 1512151883.977395: {"class":"WATCH","enable":true,"json":false,"nmea":true,"raw":0,"scaled":false,"timing":false,"split24":false,"pps":false}
2017-12-01 13:11:24 1512151884.413755: $GPZDA,181125.00,01,12,2017,00,00*6E
2017-12-01 13:11:24 1512151884.413944: $GPGGA,181125,3946.9574,N,08404.9859,W,2,11,0.80,297.40,M,-33.324,M,,*77
2017-12-01 13:11:24 1512151884.414015: $GPRMC,181125,A,3946.9574,N,08404.9859,W,0.0000,0.000,011217,,*37
2017-12-01 13:11:24 1512151884.414076: $GPGSA,A,3,8,10,15,18,20,21,24,32,13,27,138,,2.0,0.8,1.5*33
2017-12-01 13:11:25 1512151885.748266: $GPGSV,3,1,12,08,06,322,36,10,41,301,45,15,38,052,48,18,71,336,44*7A
2017-12-01 13:11:25 1512151885.748448: $GPGSV,3,2,12,20,34,096,47,21,63,189,45,24,50,111,46,32,21,238,43*79
2017-12-01 13:11:25 1512151885.748516: $GPGSV,3,3,12,13,08,048,29,27,19,289,39,14,04,232,00,138,38,213,46*42
2017-12-01 13:11:25 1512151885.861924: $GPZDA,181126.00,01,12,2017,00,00*6D
2017-12-01 13:11:25 1512151885.862107: $GPGGA,181126,3946.9574,N,08404.9859,W,2,11,0.80,297.40,M,-33.324,M,,*74
2017-12-01 13:11:25 1512151885.862174: $GPRMC,181126,A,3946.9574,N,08404.9859,W,0.0000,0.000,011217,,*34
2017-12-01 13:11:25 1512151885.862236: $GPGSA,A,3,8,10,15,18,20,21,24,32,13,27,138,,2.0,0.8,1.5*33
2017-12-01 13:11:26 1512151886.487129: $GPZDA,181127.00,01,12,2017,00,00*6C
2017-12-01 13:11:26 1512151886.487304: $GPGGA,181127,3946.9574,N,08404.9859,W,2,11,0.80,297.40,M,-33.324,M,,*75
2017-12-01 13:11:26 1512151886.487371: $GPRMC,181127,A,3946.9574,N,08404.9859,W,0.0000,0.000,011217,,*35
2017-12-01 13:11:26 1512151886.487432: $GPGSA,A,3,8,10,15,18,20,21,24,32,13,27,138,,2.0,0.8,1.5*33
2017-12-01 13:11:27 1512151887.412868: $GPZDA,181128.00,01,12,2017,00,00*63
2017-12-01 13:11:27 1512151887.413048: $GPGGA,181128,3946.9574,N,08404.9859,W,2,11,0.80,297.40,M,-33.324,M,,*7A
2017-12-01 13:11:27 1512151887.413116: $GPRMC,181128,A,3946.9574,N,08404.9859,W,0.0000,0.000,011217,,*3A
2017-12-01 13:11:27 1512151887.413178: $GPGSA,A,3,8,10,15,18,20,21,24,32,13,27,138,,2.0,0.8,1.5*33
2017-12-01 13:11:28 1512151888.748578: $GPGSV,3,1,12,08,06,322,36,10,41,301,45,15,38,052,48,18,71,336,44*7A
2017-12-01 13:11:28 1512151888.748744: $GPGSV,3,2,12,20,34,096,47,21,63,189,45,24,50,111,46,32,21,238,43*79
2017-12-01 13:11:28 1512151888.748812: $GPGSV,3,3,12,13,08,048,29,27,19,289,40,14,04,232,00,138,38,213,46*4C
2017-12-01 13:11:28 1512151888.862054: $GPZDA,181129.00,01,12,2017,00,00*62
2017-12-01 13:11:28 1512151888.862240: $GPGGA,181129,3946.9574,N,08404.9859,W,2,11,0.80,297.40,M,-33.324,M,,*7B
2017-12-01 13:11:28 1512151888.862307: $GPRMC,181129,A,3946.9574,N,08404.9859,W,0.0000,0.000,011217,,*3B
2017-12-01 13:11:28 1512151888.862369: $GPGSA,A,3,8,10,15,18,20,21,24,32,13,27,138,,2.0,0.8,1.5*33
2017-12-01 13:11:29 1512151889.411927: $GPZDA,181130.00,01,12,2017,00,00*6A
2017-12-01 13:11:29 1512151889.412098: $GPGGA,181130,3946.9574,N,08404.9859,W,2,11,0.80,297.40,M,-33.324,M,,*73
2017-12-01 13:11:29 1512151889.412166: $GPRMC,181130,A,3946.9574,N,08404.9859,W,0.0000,0.000,011217,,*33
2017-12-01 13:11:29 1512151889.412227: $GPGSA,A,3,8,10,15,18,20,21,24,32,13,27,138,,2.0,0.8,1.5*33
2017-12-01 13:11:30 1512151890.413957: $GPZDA,181131.00,01,12,2017,00,00*6B
2017-12-01 13:11:30 1512151890.414130: $GPGGA,181131,3946.9574,N,08404.9859,W,2,11,0.80,297.40,M,-33.324,M,,*72
2017-12-01 13:11:30 1512151890.414196: $GPRMC,181131,A,3946.9574,N,08404.9859,W,0.0000,0.000,011217,,*32
2017-12-01 13:11:30 1512151890.414258: $GPGSA,A,3,8,10,15,18,20,21,24,32,13,27,138,,2.0,0.8,1.5*33
2017-12-01 13:11:31 1512151891.752770: $GPGSV,3,1,12,08,06,322,29,10,41,301,44,15,38,052,48,18,71,336,44*75
2017-12-01 13:11:31 1512151891.752995: $GPGSV,3,2,12,20,34,096,47,21,63,189,45,24,50,111,46,32,21,238,42*78
2017-12-01 13:11:31 1512151891.753064: $GPGSV,3,3,12,13,08,048,29,27,19,289,41,14,04,232,00,138,38,213,47*4C
2017-12-01 13:11:31 1512151891.866121: $GPZDA,181132.00,01,12,2017,00,00*68
2017-12-01 13:11:31 1512151891.866296: $GPGGA,181132,3946.9574,N,08404.9859,W,2,11,0.80,297.40,M,-33.324,M,,*71
2017-12-01 13:11:31 1512151891.866362: $GPRMC,181132,A,3946.9574,N,08404.9859,W,0.0000,0.000,011217,,*31
2017-12-01 13:11:31 1512151891.866424: $GPGSA,A,3,8,10,15,18,20,21,24,32,13,27,138,,2.0,0.8,1.5*33
2017-12-01 13:11:32 1512151892.412029: $GPZDA,181133.00,01,12,2017,00,00*69
2017-12-01 13:11:32 1512151892.412200: $GPGGA,181133,3946.9574,N,08404.9859,W,2,11,0.80,297.40,M,-33.324,M,,*70
2017-12-01 13:11:32 1512151892.412266: $GPRMC,181133,A,3946.9574,N,08404.9859,W,0.0000,0.000,011217,,*30
2017-12-01 13:11:32 1512151892.412327: $GPGSA,A,3,8,10,15,18,20,21,24,32,13,27,138,,2.0,0.8,1.5*33
2017-12-01 13:11:33 1512151893.416886: $GPZDA,181134.00,01,12,2017,00,00*6E
2017-12-01 13:11:33 1512151893.417048: $GPGGA,181134,3946.9574,N,08404.9859,W,2,11,0.80,297.40,M,-33.324,M,,*77
2017-12-01 13:11:33 1512151893.417115: $GPRMC,181134,A,3946.9574,N,08404.9859,W,0.0000,0.000,011217,,*37
2017-12-01 13:11:33 1512151893.417176: $GPGSA,A,3,8,10,15,18,20,21,24,32,13,27,138,,2.0,0.8,1.5*33
