2017-12-01 12:29:39 1512149379.253653: {"class":"VERSION","release":"3.16","rev":"3.16-4","proto_major":3,"proto_minor":11}
2017-12-01 12:29:39 1512149379.254044: {"class":"DEVICES","devices":[{"class":"DEVICE","path":"/dev/ttyUSB0","driver":"SiRF","subtype":"9\u0006GSD4e_4.1.2-P1_RPATCH.05-F-GPS-4R-1510281 11/03/2015 307","activated":"2017-12-01T17:29:39.246Z","flags":1,"native":1,"bps":4800,"parity":"N","stopbits":1,"cycle":1.00}]}
2017-12-01 12:29:39 1512149379.254195: {"class":"WATCH","enable":true,"json":false,"nmea":true,"raw":0,"scaled":false,"timing":false,"split24":false,"pps":false}
2017-12-01 12:29:39 1512149379.360117: $GPZDA,172940.00,01,12,2017,00,00*69
2017-12-01 12:29:39 1512149379.360274: $GPGGA,172940,3946.9553,N,08404.9864,W,2,11,0.80,301.99,M,-33.324,M,,*71
2017-12-01 12:29:39 1512149379.360340: $GPRMC,172940,A,3946.9553,N,08404.9864,W,0.0000,0.000,011217,,*3B
2017-12-01 12:29:39 1512149379.360403: $GPGSA,A,3,10,13,15,18,20,21,24,27,29,32,138,,2.0,0.8,1.5*00
2017-12-01 12:29:40 1512149380.711742: $GPGSV,3,1,11,10,27,286,38,13,24,045,43,15,56,049,47,18,58,306,46*70
2017-12-01 12:29:40 1512149380.711941: $GPGSV,3,2,11,20,48,078,45,21,79,238,42,24,38,133,47,27,18,309,35*75
2017-12-01 12:29:40 1512149380.712030: $GPGSV,3,3,11,29,05,187,30,32,05,228,27,138,38,213,46*70
2017-12-01 12:29:40 1512149380.825563: $GPZDA,172941.00,01,12,2017,00,00*68
2017-12-01 12:29:40 1512149380.825796: $GPGGA,172941,3946.9553,N,08404.9864,W,2,11,0.80,301.99,M,-33.324,M,,*70
2017-12-01 12:29:40 1512149380.825868: $GPRMC,172941,A,3946.9553,N,08404.9864,W,0.0000,0.000,011217,,*3A
2017-12-01 12:29:40 1512149380.825933: $GPGSA,A,3,10,13,15,18,20,21,24,27,29,32,138,,2.0,0.8,1.5*00
2017-12-01 12:29:41 1512149381.450453: $GPZDA,172942.00,01,12,2017,00,00*6B
2017-12-01 12:29:41 1512149381.450632: $GPGGA,172942,3946.9553,N,08404.9864,W,2,11,0.80,301.99,M,-33.324,M,,*73
2017-12-01 12:29:41 1512149381.450704: $GPRMC,172942,A,3946.9553,N,08404.9864,W,0.0000,0.000,011217,,*39
2017-12-01 12:29:41 1512149381.450773: $GPGSA,A,3,10,13,15,18,20,21,24,27,29,32,138,,2.0,0.8,1.5*00
2017-12-01 12:29:42 1512149382.359109: $GPZDA,172943.00,01,12,2017,00,00*6A
2017-12-01 12:29:42 1512149382.359285: $GPGGA,172943,3946.9553,N,08404.9864,W,2,11,0.80,301.99,M,-33.324,M,,*72
2017-12-01 12:29:42 1512149382.359352: $GPRMC,172943,A,3946.9553,N,08404.9864,W,0.0000,0.000,011217,,*38
2017-12-01 12:29:42 1512149382.359414: $GPGSA,A,3,10,13,15,18,20,21,24,27,29,32,138,,2.0,0.8,1.5*00
2017-12-01 12:29:43 1512149383.707077: $GPGSV,3,1,11,10,27,286,39,13,24,045,43,15,56,049,46,18,58,306,46*70
2017-12-01 12:29:43 1512149383.707274: $GPGSV,3,2,11,20,48,078,45,21,79,238,42,24,38,133,47,27,18,309,35*75
2017-12-01 12:29:43 1512149383.707341: $GPGSV,3,3,11,29,05,187,26,32,05,228,27,138,38,213,46*77
2017-12-01 12:29:43 1512149383.820448: $GPZDA,172944.00,01,12,2017,00,00*6D
2017-12-01 12:29:43 1512149383.820624: $GPGGA,172944,3946.9553,N,08404.9864,W,2,11,0.80,301.99,M,-33.324,M,,*75
2017-12-01 12:29:43 1512149383.820695: $GPRMC,172944,A,3946.9553,N,08404.9864,W,0.0000,0.000,011217,,*3F
2017-12-01 12:29:43 1512149383.820760: $GPGSA,A,3,10,13,15,18,20,21,24,27,29,32,138,,2.0,0.8,1.5*00
2017-12-01 12:29:44 1512149384.360080: $GPZDA,172945.00,01,12,2017,00,00*6C
2017-12-01 12:29:44 1512149384.360285: $GPGGA,172945,3946.9553,N,08404.9864,W,2,11,0.80,301.99,M,-33.324,M,,*74
2017-12-01 12:29:44 1512149384.360355: $GPRMC,172945,A,3946.9553,N,08404.9864,W,0.0000,0.000,011217,,*3E
2017-12-01 12:29:44 1512149384.360419: $GPGSA,A,3,10,13,15,18,20,21,24,27,29,32,138,,2.0,0.8,1.5*00
2017-12-01 12:29:45 1512149385.358798: $GPZDA,172946.00,01,12,2017,00,00*6F
2017-12-01 12:29:45 1512149385.358989: $GPGGA,172946,3946.9553,N,08404.9864,W,2,11,0.80,301.99,M,-33.324,M,,*77
2017-12-01 12:29:45 1512149385.359078: $GPRMC,172946,A,3946.9553,N,08404.9864,W,0.0000,0.000,011217,,*3D
2017-12-01 12:29:45 1512149385.359144: $GPGSA,A,3,10,13,15,18,20,21,24,27,29,32,138,,2.0,0.8,1.5*00
2017-12-01 12:29:46 1512149386.711248: $GPGSV,3,1,11,10,27,286,38,13,24,045,43,15,56,049,46,18,58,306,46*71
2017-12-01 12:29:46 1512149386.711515: $GPGSV,3,2,11,20,48,078,45,21,79,238,42,24,38,133,47,27,18,309,36*76
2017-12-01 12:29:46 1512149386.711586: $GPGSV,3,3,11,29,05,187,26,32,05,228,27,138,38,213,47*76
2017-12-01 12:29:46 1512149386.824594: $GPZDA,172947.00,01,12,2017,00,00*6E
2017-12-01 12:29:46 1512149386.824775: $GPGGA,172947,3946.9553,N,08404.9864,W,2,11,0.80,301.99,M,-33.324,M,,*76
2017-12-01 12:29:46 1512149386.824842: $GPRMC,172947,A,3946.9553,N,08404.9864,W,0.0000,0.000,011217,,*3C
2017-12-01 12:29:46 1512149386.824905: $GPGSA,A,3,10,13,15,18,20,21,24,27,29,32,138,,2.0,0.8,1.5*00
2017-12-01 12:29:47 1512149387.359476: $GPZDA,172948.00,01,12,2017,00,00*61
2017-12-01 12:29:47 1512149387.359671: $GPGGA,172948,3946.9553,N,08404.9864,W,2,11,0.80,301.99,M,-33.324,M,,*79
2017-12-01 12:29:47 1512149387.359742: $GPRMC,172948,A,3946.9553,N,08404.9864,W,0.0000,0.000,011217,,*33
2017-12-01 12:29:47 1512149387.359807: $GPGSA,A,3,10,13,15,18,20,21,24,27,29,32,138,,2.0,0.8,1.5*00
2017-12-01 12:29:48 1512149388.370345: $GPZDA,172949.00,01,12,2017,00,00*60
2017-12-01 12:29:48 1512149388.370519: $GPGGA,172949,3946.9553,N,08404.9864,W,2,11,0.80,301.99,M,-33.324,M,,*78
2017-12-01 12:29:48 1512149388.370587: $GPRMC,172949,A,3946.9553,N,08404.9864,W,0.0000,0.000,011217,,*32
2017-12-01 12:29:48 1512149388.370650: $GPGSA,A,3,10,13,15,18,20,21,24,27,29,32,138,,2.0,0.8,1.5*00
