2017-12-14 12:13:08 1513271588.071880: {"class":"VERSION","release":"3.16","rev":"3.16-4","proto_major":3,"proto_minor":11}
2017-12-14 12:13:08 1513271588.072277: {"class":"DEVICES","devices":[{"class":"DEVICE","path":"/dev/ttyUSB0","driver":"SiRF","subtype":"9\u0006GSD4e_4.1.2-P1_RPATCH.05-F-GPS-4R-1510281 11/03/2015 307","activated":"2017-12-14T17:13:07.524Z","flags":1,"native":1,"bps":4800,"parity":"N","stopbits":1,"cycle":1.00}]}
2017-12-14 12:13:08 1513271588.072398: {"class":"WATCH","enable":true,"json":false,"nmea":true,"raw":0,"scaled":false,"timing":false,"split24":false,"pps":false}
2017-12-14 12:13:08 1513271588.225810: $GPZDA,171309.00,14,12,2017,00,00*69
2017-12-14 12:13:08 1513271588.225972: $GPGGA,171309,3946.9561,N,08404.9477,W,1,07,1.40,379.97,M,-33.324,M,,*72
2017-12-14 12:13:08 1513271588.226036: $GPRMC,171309,A,3946.9561,N,08404.9477,W,0.7267,273.794,141217,,*3C
2017-12-14 12:13:08 1513271588.226096: $GPGSA,A,3,10,15,18,20,24,32,21,,,,,,6.6,1.4,6.2*39
2017-12-14 12:13:09 1513271589.549287: $GPGSV,3,1,12,10,39,300,22,15,40,051,20,18,69,331,15,20,36,093,18*71
2017-12-14 12:13:09 1513271589.549469: $GPGSV,3,2,12,24,49,114,27,32,19,237,15,21,65,190,22,27,19,292,13*74
2017-12-14 12:13:09 1513271589.549534: $GPGSV,3,3,12,13,10,048,00,08,05,324,00,14,02,231,00,138,38,213,00*4B
2017-12-14 12:13:09 1513271589.662972: $GPZDA,171310.00,14,12,2017,00,00*61
2017-12-14 12:13:09 1513271589.663136: $GPGGA,171310,3946.9561,N,08404.9484,W,1,08,1.20,379.89,M,-33.324,M,,*70
2017-12-14 12:13:09 1513271589.663201: $GPRMC,171310,A,3946.9561,N,08404.9484,W,0.7267,273.794,141217,,*38
2017-12-14 12:13:09 1513271589.663261: $GPGSA,A,3,10,15,18,20,24,32,21,27,,,,,6.6,1.2,6.2*3A
2017-12-14 12:13:10 1513271590.230578: $GPZDA,171311.00,14,12,2017,00,00*60
2017-12-14 12:13:10 1513271590.230736: $GPGGA,171311,3946.9561,N,08404.9484,W,1,08,1.20,379.89,M,-33.324,M,,*71
2017-12-14 12:13:10 1513271590.230802: $GPRMC,171311,A,3946.9561,N,08404.9484,W,0.5912,309.173,141217,,*31
2017-12-14 12:13:10 1513271590.230863: $GPGSA,A,3,10,15,18,20,24,32,21,27,,,,,6.6,1.2,6.2*3A
2017-12-14 12:13:11 1513271591.213031: $GPZDA,171312.00,14,12,2017,00,00*63
2017-12-14 12:13:11 1513271591.213199: $GPGGA,171312,3946.9566,N,08404.9484,W,1,08,1.20,380.53,M,-33.324,M,,*74
2017-12-14 12:13:11 1513271591.213264: $GPRMC,171312,A,3946.9566,N,08404.9484,W,0.8709,3.298,141217,,*33
2017-12-14 12:13:11 1513271591.213324: $GPGSA,A,3,10,15,18,20,24,32,21,27,,,,,6.6,1.2,6.2*3A
2017-12-14 12:13:12 1513271592.565433: $GPGSV,3,1,12,10,39,300,22,15,40,051,20,18,69,331,16,20,36,093,17*7D
2017-12-14 12:13:12 1513271592.565614: $GPGSV,3,2,12,24,49,114,28,32,19,237,17,21,65,190,22,27,19,292,15*7F
2017-12-14 12:13:12 1513271592.565679: $GPGSV,3,3,12,13,10,048,00,08,05,324,00,14,02,231,00,138,38,213,00*4B
2017-12-14 12:13:12 1513271592.678791: $GPZDA,171313.00,14,12,2017,00,00*62
2017-12-14 12:13:12 1513271592.678934: $GPGGA,171313,3946.9566,N,08404.9484,W,1,08,1.20,380.53,M,-33.324,M,,*75
2017-12-14 12:13:12 1513271592.678998: $GPRMC,171313,A,3946.9566,N,08404.9484,W,0.7278,23.636,141217,,*0C
2017-12-14 12:13:12 1513271592.679058: $GPGSA,A,3,10,15,18,20,24,32,21,27,,,,,6.6,1.2,6.2*3A
2017-12-14 12:13:13 1513271593.231070: $GPZDA,171314.00,14,12,2017,00,00*65
2017-12-14 12:13:13 1513271593.231239: $GPGGA,171314,3946.9566,N,08404.9484,W,1,08,1.20,380.53,M,-33.324,M,,*72
2017-12-14 12:13:13 1513271593.231306: $GPRMC,171314,A,3946.9566,N,08404.9484,W,0.5951,58.684,141217,,*0C
2017-12-14 12:13:13 1513271593.231366: $GPGSA,A,3,10,15,18,20,24,32,21,27,,,,,6.6,1.2,6.2*3A
2017-12-14 12:13:14 1513271594.229806: $GPZDA,171315.00,14,12,2017,00,00*64
2017-12-14 12:13:14 1513271594.229977: $GPGGA,171315,3946.9566,N,08404.9484,W,1,08,1.20,380.53,M,-33.324,M,,*73
2017-12-14 12:13:14 1513271594.230043: $GPRMC,171315,A,3946.9566,N,08404.9484,W,0.0000,0.000,141217,,*32
2017-12-14 12:13:14 1513271594.230104: $GPGSA,A,3,10,15,18,20,24,32,21,27,,,,,6.6,1.2,6.2*3A
2017-12-14 12:13:15 1513271595.566078: $GPGSV,3,1,12,10,39,300,22,15,40,051,20,18,69,331,16,20,36,093,17*7D
2017-12-14 12:13:15 1513271595.566307: $GPGSV,3,2,12,24,49,114,28,32,19,237,17,21,65,190,22,27,19,292,14*7E
2017-12-14 12:13:15 1513271595.566378: $GPGSV,3,3,12,13,10,048,00,08,05,324,00,14,02,231,00,138,38,213,00*4B
2017-12-14 12:13:15 1513271595.678504: $GPZDA,171316.00,14,12,2017,00,00*67
2017-12-14 12:13:15 1513271595.678668: $GPGGA,171316,3946.9565,N,08404.9477,W,1,08,1.20,380.61,M,-33.324,M,,*7E
2017-12-14 12:13:15 1513271595.678733: $GPRMC,171316,A,3946.9565,N,08404.9477,W,0.4207,39.347,141217,,*05
2017-12-14 12:13:15 1513271595.678793: $GPGSA,A,3,10,15,18,20,24,32,21,27,,,,,6.6,1.2,6.2*3A
2017-12-14 12:13:16 1513271596.229552: $GPZDA,171317.00,14,12,2017,00,00*66
2017-12-14 12:13:16 1513271596.229726: $GPGGA,171317,3946.9565,N,08404.9477,W,1,08,1.20,380.61,M,-33.324,M,,*7F
2017-12-14 12:13:16 1513271596.229791: $GPRMC,171317,A,3946.9565,N,08404.9477,W,0.0000,0.000,141217,,*3F
2017-12-14 12:13:16 1513271596.229850: $GPGSA,A,3,10,15,18,20,24,32,21,27,,,,,6.6,1.2,6.2*3A
2017-12-14 12:13:17 1513271597.238734: $GPZDA,171318.00,14,12,2017,00,00*69
2017-12-14 12:13:17 1513271597.238901: $GPGGA,171318,3946.9562,N,08404.9478,W,1,08,1.20,381.37,M,-33.324,M,,*7A
2017-12-14 12:13:17 1513271597.238966: $GPRMC,171318,A,3946.9562,N,08404.9478,W,0.3155,129.994,141217,,*34
2017-12-14 12:13:17 1513271597.239026: $GPGSA,A,3,10,15,18,20,24,32,21,27,,,,,6.6,1.2,6.2*3A
2017-12-14 12:13:18 1513271598.564136: $GPGSV,3,1,12,10,39,300,22,15,40,051,20,18,69,331,16,20,36,093,16*7C
2017-12-14 12:13:18 1513271598.564279: $GPGSV,3,2,12,24,49,114,29,32,19,237,18,21,65,190,22,27,19,292,10*74
2017-12-14 12:13:18 1513271598.564342: $GPGSV,3,3,12,13,10,048,00,08,05,324,00,14,02,231,00,120,07,103,00*4C
2017-12-14 12:13:18 1513271598.677552: $GPZDA,171319.00,14,12,2017,00,00*68
2017-12-14 12:13:18 1513271598.677701: $GPGGA,171319,3946.9562,N,08404.9478,W,1,07,1.40,381.37,M,-33.324,M,,*72
2017-12-14 12:13:18 1513271598.677766: $GPRMC,171319,A,3946.9562,N,08404.9478,W,0.4207,219.347,141217,,*32
2017-12-14 12:13:18 1513271598.677827: $GPGSA,A,3,10,15,18,20,24,32,21,,,,,,6.6,1.4,6.2*39
2017-12-14 12:13:19 1513271599.213988: $GPZDA,171320.00,14,12,2017,00,00*62
2017-12-14 12:13:19 1513271599.214373: $GPGGA,171320,3946.9562,N,08404.9485,W,1,07,1.20,381.29,M,-33.324,M,,*73
2017-12-14 12:13:19 1513271599.214447: $GPRMC,171320,A,3946.9562,N,08404.9485,W,0.5951,238.684,141217,,*3A
2017-12-14 12:13:19 1513271599.214510: $GPGSA,A,3,10,15,18,20,24,32,21,,,,,,6.6,1.2,6.2*3F
2017-12-14 12:13:20 1513271600.229061: $GPZDA,171321.00,14,12,2017,00,00*63
2017-12-14 12:13:20 1513271600.229227: $GPGGA,171321,3946.9559,N,08404.9485,W,1,07,1.20,382.06,M,-33.324,M,,*74
2017-12-14 12:13:20 1513271600.229292: $GPRMC,171321,A,3946.9559,N,08404.9485,W,0.7267,273.794,141217,,*30
2017-12-14 12:13:20 1513271600.229353: $GPGSA,A,3,10,15,18,20,24,32,21,,,,,,6.6,1.2,6.2*3F
2017-12-14 12:13:21 1513271601.550310: $GPGSV,3,1,12,10,39,300,22,15,40,051,20,18,69,331,15,20,36,093,16*7F
2017-12-14 12:13:21 1513271601.550472: $GPGSV,3,2,12,24,49,114,29,32,19,237,18,21,65,190,22,27,19,292,09*7C
2017-12-14 12:13:21 1513271601.550538: $GPGSV,3,3,12,13,10,048,00,08,05,324,00,14,02,231,00,120,07,103,00*4C
2017-12-14 12:13:21 1513271601.662526: $GPZDA,171322.00,14,12,2017,00,00*60
2017-12-14 12:13:21 1513271601.662694: $GPGGA,171322,3946.9559,N,08404.9485,W,1,08,1.20,382.06,M,-33.324,M,,*78
2017-12-14 12:13:21 1513271601.662759: $GPRMC,171322,A,3946.9559,N,08404.9485,W,0.4179,328.778,141217,,*31
2017-12-14 12:13:21 1513271601.662819: $GPGSA,A,3,10,15,18,20,24,32,21,27,,,,,6.6,1.2,6.2*3A
2017-12-14 12:13:22 1513271602.230134: $GPZDA,171323.00,14,12,2017,00,00*61
2017-12-14 12:13:22 1513271602.230322: $GPGGA,171323,3946.9559,N,08404.9485,W,1,08,1.20,382.06,M,-33.324,M,,*79
2017-12-14 12:13:22 1513271602.230391: $GPRMC,171323,A,3946.9559,N,08404.9485,W,0.7278,23.636,141217,,*02
2017-12-14 12:13:22 1513271602.230454: $GPGSA,A,3,10,15,18,20,24,32,21,27,,,,,6.6,1.2,6.2*3A
2017-12-14 12:13:23 1513271603.229688: $GPZDA,171324.00,14,12,2017,00,00*66
2017-12-14 12:13:23 1513271603.229864: $GPGGA,171324,3946.9563,N,08404.9485,W,1,08,1.20,382.70,M,-33.324,M,,*76
2017-12-14 12:13:23 1513271603.229984: $GPRMC,171324,A,3946.9563,N,08404.9485,W,0.5857,338.291,141217,,*39
2017-12-14 12:13:23 1513271603.230047: $GPGSA,A,3,10,15,18,20,24,32,21,27,,,,,6.6,1.2,6.2*3A
2017-12-14 12:13:24 1513271604.548425: $GPGSV,3,1,12,10,39,300,22,15,40,051,20,18,69,331,15,20,36,093,16*7F
2017-12-14 12:13:24 1513271604.548602: $GPGSV,3,2,12,24,49,114,30,32,19,237,18,21,65,190,22,27,19,292,16*7A
2017-12-14 12:13:24 1513271604.548668: $GPGSV,3,3,12,13,10,048,00,08,05,324,00,14,02,231,00,120,07,103,00*4C
2017-12-14 12:13:24 1513271604.662167: $GPZDA,171325.00,14,12,2017,00,00*67
2017-12-14 12:13:24 1513271604.662326: $GPGGA,171325,3946.9563,N,08404.9485,W,1,08,1.20,382.70,M,-33.324,M,,*77
2017-12-14 12:13:24 1513271604.662392: $GPRMC,171325,A,3946.9563,N,08404.9485,W,0.3155,309.994,141217,,*39
2017-12-14 12:13:24 1513271604.662452: $GPGSA,A,3,10,15,18,20,24,32,21,27,,,,,6.6,1.2,6.2*3A
2017-12-14 12:13:25 1513271605.228147: $GPZDA,171326.00,14,12,2017,00,00*64
2017-12-14 12:13:25 1513271605.228310: $GPGGA,171326,3946.9559,N,08404.9486,W,1,08,1.40,383.46,M,-33.324,M,,*7C
2017-12-14 12:13:25 1513271605.228375: $GPRMC,171326,A,3946.9559,N,08404.9486,W,0.0000,0.000,141217,,*3C
2017-12-14 12:13:25 1513271605.228435: $GPGSA,A,3,10,15,18,20,24,32,21,27,,,,,6.6,1.4,6.2*3C
2017-12-14 12:13:26 1513271606.211072: $GPZDA,171327.00,14,12,2017,00,00*65
2017-12-14 12:13:26 1513271606.211241: $GPGGA,171327,3946.9559,N,08404.9486,W,1,08,1.40,383.46,M,-33.324,M,,*7D
2017-12-14 12:13:26 1513271606.211307: $GPRMC,171327,A,3946.9559,N,08404.9486,W,0.0000,0.000,141217,,*3D
2017-12-14 12:13:26 1513271606.211367: $GPGSA,A,3,10,15,18,20,24,32,21,27,,,,,6.6,1.4,6.2*3C
2017-12-14 12:13:27 1513271607.561976: $GPGSV,3,1,12,10,39,300,22,15,40,051,20,18,69,331,00,20,36,093,15*78
2017-12-14 12:13:27 1513271607.562176: $GPGSV,3,2,12,24,49,114,30,32,19,237,18,21,65,190,22,27,19,292,16*7A
2017-12-14 12:13:27 1513271607.562243: $GPGSV,3,3,12,13,10,048,00,08,05,324,00,14,02,231,00,120,07,103,00*4C
2017-12-14 12:13:27 1513271607.675398: $GPZDA,171328.00,14,12,2017,00,00*6A
2017-12-14 12:13:27 1513271607.675570: $GPGGA,171328,3946.9559,N,08404.9486,W,1,07,1.40,383.46,M,-33.324,M,,*7D
2017-12-14 12:13:27 1513271607.675636: $GPRMC,171328,A,3946.9559,N,08404.9486,W,0.2422,93.794,141217,,*04
2017-12-14 12:13:27 1513271607.675697: $GPGSA,A,3,10,15,20,24,32,21,27,,,,,,6.6,1.4,6.2*35
