2017-11-16 15:37:12 1510864632.060371: {"class":"VERSION","release":"3.17","rev":"3.17","proto_major":3,"proto_minor":12}
2017-11-16 15:37:12 1510864632.060899: {"class":"DEVICES","devices":[{"class":"DEVICE","path":"/dev/ttyUSB0","driver":"SiRF","subtype":"9\u0006GSD4e_4.1.2-P1_RPATCH.05-F-GPS-4R-1510281 11/03/2015 307","activated":"2017-11-16T20:37:11.583Z","flags":1,"native":1,"bps":4800,"parity":"N","stopbits":1,"cycle":1.00}]}
2017-11-16 15:37:12 1510864632.061013: {"class":"WATCH","enable":true,"json":false,"nmea":true,"raw":0,"scaled":false,"timing":false,"split24":false,"pps":false}
2017-11-16 15:37:12 1510864632.366143: $GPZDA,203711.00,16,11,2017,00,00*63
2017-11-16 15:37:12 1510864632.366309: $GPGGA,203711,3946.9568,N,08404.9860,W,2,12,1.40,309.61,M,-33.324,M,,*73
2017-11-16 15:37:12 1510864632.366370: $GPRMC,203711,A,3946.9568,N,08404.9860,W,0.0000,0.000,161117,,*3D
2017-11-16 15:37:12 1510864632.366426: $GPGSA,A,3,8,10,14,31,18,20,21,24,25,32,12,138,1.6,1.4,1.3*3D
2017-11-16 15:37:13 1510864633.724433: $GPGSV,3,1,12,08,04,288,22,10,74,340,51,14,33,258,46,15,07,069,12*70
2017-11-16 15:37:13 1510864633.724609: $GPGSV,3,2,12,18,66,105,48,20,04,121,21,21,23,178,44,24,41,054,50*76
2017-11-16 15:37:13 1510864633.724672: $GPGSV,3,3,12,25,07,138,19,32,50,271,47,12,13,102,32,138,38,213,44*49
2017-11-16 15:37:13 1510864633.837718: $GPZDA,203712.00,16,11,2017,00,00*60
2017-11-16 15:37:13 1510864633.837878: $GPGGA,203712,3946.9568,N,08404.9860,W,2,11,1.40,309.61,M,-33.324,M,,*73
2017-11-16 15:37:13 1510864633.837940: $GPRMC,203712,A,3946.9568,N,08404.9860,W,0.0000,0.000,161117,,*3E
2017-11-16 15:37:13 1510864633.837996: $GPGSA,A,3,8,10,14,18,20,21,24,25,32,12,138,,1.6,1.4,1.3*3F
2017-11-16 15:37:14 1510864634.374206: $GPZDA,203713.00,16,11,2017,00,00*61
2017-11-16 15:37:14 1510864634.374314: $GPGGA,203713,3946.9568,N,08404.9860,W,2,11,1.40,309.61,M,-33.324,M,,*72
2017-11-16 15:37:14 1510864634.374345: $GPRMC,203713,A,3946.9568,N,08404.9860,W,0.0000,0.000,161117,,*3F
2017-11-16 15:37:14 1510864634.374374: $GPGSA,A,3,8,10,14,18,20,21,24,25,32,12,138,,1.6,1.4,1.3*3F
2017-11-16 15:37:15 1510864635.365961: $GPZDA,203714.00,16,11,2017,00,00*66
2017-11-16 15:37:15 1510864635.366138: $GPGGA,203714,3946.9568,N,08404.9860,W,2,11,1.40,309.61,M,-33.324,M,,*75
2017-11-16 15:37:15 1510864635.366202: $GPRMC,203714,A,3946.9568,N,08404.9860,W,0.0000,0.000,161117,,*38
2017-11-16 15:37:15 1510864635.366258: $GPGSA,A,3,8,10,14,18,20,21,24,25,32,12,138,,1.6,1.4,1.3*3F
2017-11-16 15:37:16 1510864636.718444: $GPGSV,3,1,12,08,04,288,22,10,74,340,51,14,33,258,45,31,04,204,40*78
2017-11-16 15:37:16 1510864636.718567: $GPGSV,3,2,12,18,66,105,48,20,04,121,22,21,23,178,44,24,41,054,49*7D
2017-11-16 15:37:16 1510864636.718598: $GPGSV,3,3,12,25,07,138,19,32,50,271,46,12,13,102,32,138,38,213,44*48
2017-11-16 15:37:16 1510864636.831238: $GPZDA,203715.00,16,11,2017,00,00*67
2017-11-16 15:37:16 1510864636.831308: $GPGGA,203715,3946.9568,N,08404.9860,W,2,12,1.40,309.61,M,-33.324,M,,*77
2017-11-16 15:37:16 1510864636.831339: $GPRMC,203715,A,3946.9568,N,08404.9860,W,0.0000,0.000,161117,,*39
2017-11-16 15:37:16 1510864636.831367: $GPGSA,A,3,8,10,14,31,18,20,21,24,25,32,12,138,1.6,1.4,1.3*3D
2017-11-16 15:37:17 1510864637.387424: $GPZDA,203716.00,16,11,2017,00,00*64
2017-11-16 15:37:17 1510864637.387549: $GPGGA,203716,3946.9568,N,08404.9860,W,2,12,1.40,309.61,M,-33.324,M,,*74
2017-11-16 15:37:17 1510864637.387582: $GPRMC,203716,A,3946.9568,N,08404.9860,W,0.0000,0.000,161117,,*3A
2017-11-16 15:37:17 1510864637.387610: $GPGSA,A,3,8,10,14,31,18,20,21,24,25,32,12,138,1.6,1.4,1.3*3D
2017-11-16 15:37:18 1510864638.381466: $GPZDA,203717.00,16,11,2017,00,00*65
2017-11-16 15:37:18 1510864638.381658: $GPGGA,203717,3946.9568,N,08404.9860,W,2,12,1.40,309.61,M,-33.324,M,,*75
2017-11-16 15:37:18 1510864638.381720: $GPRMC,203717,A,3946.9568,N,08404.9860,W,0.0000,0.000,161117,,*3B
2017-11-16 15:37:18 1510864638.381779: $GPGSA,A,3,8,10,14,31,18,20,21,24,25,32,12,138,1.6,1.4,1.3*3D
2017-11-16 15:37:20 1510864640.253718: $GPGSV,3,1,12,08,04,288,27,10,74,340,51,14,33,258,45,31,04,204,40*7D
2017-11-16 15:37:20 1510864640.253983: $GPGSV,3,2,12,18,66,105,48,20,04,121,26,21,23,178,44,24,40,054,49*78
2017-11-16 15:37:20 1510864640.254051: $GPGSV,3,3,12,25,07,138,20,32,50,271,46,12,13,102,27,138,38,213,45*47
2017-11-16 15:37:20 1510864640.366621: $GPZDA,203718.00,16,11,2017,00,00*6A
2017-11-16 15:37:20 1510864640.366788: $GPGGA,203718,3946.9568,N,08404.9860,W,2,12,1.40,309.61,M,-33.324,M,,*7A
2017-11-16 15:37:20 1510864640.366849: $GPRMC,203718,A,3946.9568,N,08404.9860,W,0.0000,0.000,161117,,*34
2017-11-16 15:37:20 1510864640.366907: $GPGSA,A,3,8,10,14,31,18,20,21,24,25,32,12,138,1.6,1.4,1.3*3D
2017-11-16 15:37:20 1510864640.817620: $GPZDA,203719.00,16,11,2017,00,00*6B
2017-11-16 15:37:20 1510864640.817783: $GPGGA,203719,3946.9568,N,08404.9860,W,2,12,1.40,309.61,M,-33.324,M,,*7B
2017-11-16 15:37:20 1510864640.817842: $GPRMC,203719,A,3946.9568,N,08404.9860,W,0.0000,0.000,161117,,*35
2017-11-16 15:37:20 1510864640.817900: $GPGSA,A,3,8,10,14,31,18,20,21,24,25,32,12,138,1.6,1.4,1.3*3D
2017-11-16 15:37:21 1510864641.444263: $GPZDA,203720.00,16,11,2017,00,00*61
2017-11-16 15:37:21 1510864641.444450: $GPGGA,203720,3946.9568,N,08404.9860,W,2,12,1.40,309.61,M,-33.324,M,,*71
2017-11-16 15:37:21 1510864641.444536: $GPRMC,203720,A,3946.9568,N,08404.9860,W,0.0000,0.000,161117,,*3F
2017-11-16 15:37:21 1510864641.444597: $GPGSA,A,3,8,10,14,31,18,20,21,24,25,32,12,138,1.6,1.4,1.3*3D
