2017-11-15 19:09:30 1510790970.912158: {"class":"VERSION","release":"3.17","rev":"3.17","proto_major":3,"proto_minor":12}
2017-11-15 19:09:30 1510790970.912821: {"class":"DEVICES","devices":[{"class":"DEVICE","path":"/dev/ttyUSB0","driver":"SiRF","subtype":"9\u0006GSD4e_4.1.2-P1_RPATCH.05-F-GPS-4R-1510281 11/03/2015 307","activated":"2017-11-16T00:09:30.911Z","flags":1,"native":1,"bps":4800,"parity":"N","stopbits":1,"cycle":1.00}]}
2017-11-15 19:09:30 1510790970.912947: {"class":"WATCH","enable":true,"json":false,"nmea":true,"raw":0,"scaled":false,"timing":false,"split24":false,"pps":false}
2017-11-15 19:09:31 1510790971.420874: $GPZDA,000930.00,16,11,2017,00,00*6F
2017-11-15 19:09:31 1510790971.421042: $GPGGA,000930,3946.9595,N,08404.9508,W,1,06,2.00,302.15,M,-33.324,M,,*77
2017-11-15 19:09:31 1510790971.421103: $GPRMC,000930,A,3946.9595,N,08404.9508,W,1.0269,184.197,161117,,*3E
2017-11-15 19:09:31 1510790971.421160: $GPGSA,A,3,32,14,26,31,16,22,,,,,,,3.4,2.0,2.9*39
2017-11-15 19:09:32 1510790972.345727: $GPZDA,000931.00,16,11,2017,00,00*6E
2017-11-15 19:09:32 1510790972.345892: $GPGGA,000931,3946.9591,N,08404.9508,W,1,06,2.00,301.51,M,-33.324,M,,*71
2017-11-15 19:09:32 1510790972.345955: $GPRMC,000931,A,3946.9591,N,08404.9508,W,0.8709,183.298,161117,,*3A
2017-11-15 19:09:32 1510790972.346011: $GPGSA,A,3,32,14,26,31,16,22,,,,,,,3.4,2.0,2.9*39
2017-11-15 19:09:33 1510790973.682446: $GPGSV,3,1,11,32,43,099,25,14,61,078,24,03,34,307,00,26,43,175,19*79
2017-11-15 19:09:33 1510790973.682628: $GPGSV,3,2,11,31,74,004,17,16,13,190,20,22,48,285,23,25,24,043,00*70
2017-11-15 19:09:33 1510790973.682688: $GPGSV,3,3,11,01,11,259,00,29,07,079,00,10,06,159,00*4E
2017-11-15 19:09:33 1510790973.795723: $GPZDA,000932.00,16,11,2017,00,00*6D
2017-11-15 19:09:33 1510790973.795925: $GPGGA,000932,3946.9591,N,08404.9508,W,1,06,2.00,301.51,M,-33.324,M,,*72
2017-11-15 19:09:33 1510790973.795989: $GPRMC,000932,A,3946.9591,N,08404.9508,W,1.4491,164.668,161117,,*34
2017-11-15 19:09:33 1510790973.796046: $GPGSA,A,3,32,14,26,31,16,22,,,,,,,3.4,2.0,2.9*39
2017-11-15 19:09:34 1510790974.329079: $GPZDA,000933.00,16,11,2017,00,00*6C
2017-11-15 19:09:34 1510790974.329250: $GPGGA,000933,3946.9583,N,08404.9509,W,1,06,2.00,301.63,M,-33.324,M,,*70
2017-11-15 19:09:34 1510790974.329313: $GPRMC,000933,A,3946.9583,N,08404.9509,W,1.3082,161.818,161117,,*3A
2017-11-15 19:09:34 1510790974.329390: $GPGSA,A,3,32,14,26,31,16,22,,,,,,,3.4,2.0,2.9*39
2017-11-15 19:09:35 1510790975.346270: $GPZDA,000934.00,16,11,2017,00,00*6B
2017-11-15 19:09:35 1510790975.346431: $GPGGA,000934,3946.9583,N,08404.9509,W,1,06,2.00,301.63,M,-33.324,M,,*77
2017-11-15 19:09:35 1510790975.346491: $GPRMC,000934,A,3946.9583,N,08404.9509,W,0.7246,164.668,161117,,*3E
2017-11-15 19:09:35 1510790975.346548: $GPGSA,A,3,32,14,26,31,16,22,,,,,,,3.4,2.0,2.9*39
2017-11-15 19:09:36 1510790976.664056: $GPGSV,3,1,11,32,43,099,25,14,61,078,24,03,34,307,00,26,43,175,18*78
2017-11-15 19:09:36 1510790976.664208: $GPGSV,3,2,11,31,74,004,17,16,13,190,19,22,48,285,23,25,24,043,00*7A
2017-11-15 19:09:36 1510790976.664267: $GPGSV,3,3,11,01,11,259,00,29,07,079,00,10,06,159,00*4E
2017-11-15 19:09:36 1510790976.777411: $GPZDA,000935.00,16,11,2017,00,00*6A
2017-11-15 19:09:36 1510790976.777574: $GPGGA,000935,3946.9583,N,08404.9502,W,1,06,2.00,301.71,M,-33.324,M,,*7E
2017-11-15 19:09:36 1510790976.777634: $GPRMC,000935,A,3946.9583,N,08404.9502,W,0.8709,183.298,161117,,*37
2017-11-15 19:09:36 1510790976.777690: $GPGSA,A,3,32,14,26,31,16,22,,,,,,,3.4,2.0,2.9*39
2017-11-15 19:09:37 1510790977.329480: $GPZDA,000936.00,16,11,2017,00,00*69
2017-11-15 19:09:37 1510790977.329647: $GPGGA,000936,3946.9580,N,08404.9510,W,1,06,2.00,302.40,M,-33.324,M,,*7C
2017-11-15 19:09:37 1510790977.329709: $GPRMC,000936,A,3946.9580,N,08404.9510,W,0.8709,183.298,161117,,*34
2017-11-15 19:09:37 1510790977.329766: $GPGSA,A,3,32,14,26,31,16,22,,,,,,,3.4,2.0,2.9*39
2017-11-15 19:09:38 1510790978.345332: $GPZDA,000937.00,16,11,2017,00,00*68
2017-11-15 19:09:38 1510790978.345504: $GPGGA,000937,3946.9575,N,08404.9510,W,1,06,2.00,301.76,M,-33.324,M,,*71
2017-11-15 19:09:38 1510790978.345620: $GPRMC,000937,A,3946.9575,N,08404.9510,W,0.7278,203.636,161117,,*38
2017-11-15 19:09:38 1510790978.345679: $GPGSA,A,3,32,14,26,31,16,22,,,,,,,3.4,2.0,2.9*39
2017-11-15 19:09:39 1510790979.681123: $GPGSV,3,1,11,32,43,099,25,14,61,078,24,03,34,307,00,26,43,175,18*78
2017-11-15 19:09:39 1510790979.681294: $GPGSV,3,2,11,31,74,004,16,16,13,190,20,22,48,285,22,25,24,043,00*70
2017-11-15 19:09:39 1510790979.681369: $GPGSV,3,3,11,01,11,259,00,29,07,079,00,10,06,159,00*4E
2017-11-15 19:09:39 1510790979.794441: $GPZDA,000938.00,16,11,2017,00,00*67
2017-11-15 19:09:39 1510790979.794597: $GPGGA,000938,3946.9575,N,08404.9510,W,1,06,2.00,301.76,M,-33.324,M,,*7E
2017-11-15 19:09:39 1510790979.794675: $GPRMC,000938,A,3946.9575,N,08404.9510,W,0.7278,203.636,161117,,*37
2017-11-15 19:09:39 1510790979.794732: $GPGSA,A,3,32,14,26,31,16,22,,,,,,,3.4,2.0,2.9*39
2017-11-15 19:09:40 1510790980.346594: $GPZDA,000939.00,16,11,2017,00,00*66
2017-11-15 19:09:40 1510790980.346814: $GPGGA,000939,3946.9575,N,08404.9510,W,1,06,2.00,301.76,M,-33.324,M,,*7F
2017-11-15 19:09:40 1510790980.346886: $GPRMC,000939,A,3946.9575,N,08404.9510,W,1.1385,209.379,161117,,*36
2017-11-15 19:09:40 1510790980.346944: $GPGSA,A,3,32,14,26,31,16,22,,,,,,,3.4,2.0,2.9*39
