2017-12-14 12:11:49 1513271509.542501: {"class":"VERSION","release":"3.16","rev":"3.16-4","proto_major":3,"proto_minor":11}
2017-12-14 12:11:49 1513271509.542863: {"class":"DEVICES","devices":[{"class":"DEVICE","path":"/dev/ttyUSB0","driver":"SiRF","subtype":"9\u0006GSD4e_4.1.2-P1_RPATCH.05-F-GPS-4R-1510281 11/03/2015 307","activated":"2017-12-14T17:11:49.341Z","flags":1,"native":1,"bps":4800,"parity":"N","stopbits":1,"cycle":1.00}]}
2017-12-14 12:11:49 1513271509.542982: {"class":"WATCH","enable":true,"json":false,"nmea":true,"raw":0,"scaled":false,"timing":false,"split24":false,"pps":false}
2017-12-14 12:11:50 1513271510.217014: $GPZDA,171151.00,14,12,2017,00,00*66
2017-12-14 12:11:50 1513271510.217181: $GPGGA,171151,3946.9520,N,08404.9447,W,1,08,2.00,345.39,M,-33.324,M,,*78
2017-12-14 12:11:50 1513271510.217247: $GPRMC,171151,A,3946.9520,N,08404.9447,W,0.8054,248.645,141217,,*3D
2017-12-14 12:11:50 1513271510.217307: $GPGSA,A,3,24,10,15,18,21,20,27,14,,,,,6.6,2.0,6.2*3F
2017-12-14 12:11:51 1513271511.552188: $GPGSV,3,1,12,24,49,115,26,10,39,298,22,15,40,051,15,18,69,331,13*7F
2017-12-14 12:11:51 1513271511.552422: $GPGSV,3,2,12,21,66,190,23,32,19,235,00,20,36,093,18,27,19,292,10*7D
2017-12-14 12:11:51 1513271511.552535: $GPGSV,3,3,12,14,01,231,12,13,10,048,00,08,05,325,00,120,07,103,00*4D
2017-12-14 12:11:51 1513271511.665646: $GPZDA,171152.00,14,12,2017,00,00*65
2017-12-14 12:11:51 1513271511.665785: $GPGGA,171152,3946.9516,N,08404.9447,W,1,08,2.00,344.75,M,-33.324,M,,*77
2017-12-14 12:11:51 1513271511.665848: $GPRMC,171152,A,3946.9516,N,08404.9447,W,0.5230,256.444,141217,,*3A
2017-12-14 12:11:51 1513271511.665908: $GPGSA,A,3,24,10,15,18,21,20,27,14,,,,,6.6,2.0,6.2*3F
2017-12-14 12:11:52 1513271512.200413: $GPZDA,171153.00,14,12,2017,00,00*64
2017-12-14 12:11:52 1513271512.200562: $GPGGA,171153,3946.9508,N,08404.9455,W,1,08,2.00,344.80,M,-33.324,M,,*70
2017-12-14 12:11:52 1513271512.200627: $GPRMC,171153,A,3946.9508,N,08404.9455,W,0.4207,219.347,141217,,*3D
2017-12-14 12:11:52 1513271512.200688: $GPGSA,A,3,24,10,15,18,21,20,27,14,,,,,6.6,2.0,6.2*3F
2017-12-14 12:11:53 1513271513.217091: $GPZDA,171154.00,14,12,2017,00,00*63
2017-12-14 12:11:53 1513271513.217260: $GPGGA,171154,3946.9501,N,08404.9456,W,1,08,2.00,344.92,M,-33.324,M,,*7E
2017-12-14 12:11:53 1513271513.217324: $GPRMC,171154,A,3946.9501,N,08404.9456,W,0.8709,183.298,141217,,*34
2017-12-14 12:11:53 1513271513.217385: $GPGSA,A,3,24,10,15,18,21,20,27,14,,,,,6.6,2.0,6.2*3F
2017-12-14 12:11:54 1513271514.551288: $GPGSV,3,1,12,24,49,115,26,10,39,298,22,15,40,051,15,18,69,331,15*79
2017-12-14 12:11:54 1513271514.551460: $GPGSV,3,2,12,21,66,190,22,32,19,235,00,20,36,093,18,27,19,292,08*75
2017-12-14 12:11:54 1513271514.551526: $GPGSV,3,3,12,14,01,231,11,13,10,048,00,08,05,325,00,120,07,103,00*4E
2017-12-14 12:11:54 1513271514.664709: $GPZDA,171155.00,14,12,2017,00,00*62
2017-12-14 12:11:54 1513271514.664860: $GPGGA,171155,3946.9489,N,08404.9456,W,1,08,2.00,344.41,M,-33.324,M,,*70
2017-12-14 12:11:54 1513271514.664924: $GPRMC,171155,A,3946.9489,N,08404.9456,W,1.2381,172.270,141217,,*33
2017-12-14 12:11:54 1513271514.664984: $GPGSA,A,3,24,10,15,18,21,20,27,14,,,,,6.6,2.0,6.2*3F
2017-12-14 12:11:55 1513271515.214824: $GPZDA,171156.00,14,12,2017,00,00*61
2017-12-14 12:11:55 1513271515.214990: $GPGGA,171156,3946.9489,N,08404.9456,W,1,08,2.00,344.41,M,-33.324,M,,*73
2017-12-14 12:11:55 1513271515.215055: $GPRMC,171156,A,3946.9489,N,08404.9456,W,1.0534,170.904,141217,,*30
2017-12-14 12:11:55 1513271515.215116: $GPGSA,A,3,24,10,15,18,21,20,27,14,,,,,6.6,2.0,6.2*3F
2017-12-14 12:11:56 1513271516.214993: $GPZDA,171157.00,14,12,2017,00,00*60
2017-12-14 12:11:56 1513271516.215166: $GPGGA,171157,3946.9481,N,08404.9457,W,1,08,2.00,344.53,M,-33.324,M,,*78
2017-12-14 12:11:56 1513271516.215232: $GPRMC,171157,A,3946.9481,N,08404.9457,W,1.7180,158.671,141217,,*33
2017-12-14 12:11:56 1513271516.215293: $GPGSA,A,3,24,10,15,18,21,20,27,14,,,,,6.6,2.0,6.2*3F
2017-12-14 12:11:57 1513271517.534437: $GPGSV,3,1,12,24,49,115,14,10,39,298,22,15,40,051,15,18,69,331,16*7B
2017-12-14 12:11:57 1513271517.765032: $GPGSV,3,2,12,21,66,190,22,32,19,235,00,20,36,093,19,27,19,292,06*7A
2017-12-14 12:11:57 1513271517.765183: $GPGSV,3,3,12,14,01,231,10,13,10,048,00,08,05,325,00,120,07,103,00*4F
2017-12-14 12:11:57 1513271517.765282: $GPZDA,171158.00,14,12,2017,00,00*6F
2017-12-14 12:11:57 1513271517.765339: $GPGGA,171158,3946.9474,N,08404.9458,W,1,07,2.00,344.66,M,-33.324,M,,*7B
2017-12-14 12:11:57 1513271517.765400: $GPRMC,171158,A,3946.9474,N,08404.9458,W,1.5555,183.694,141217,,*3A
2017-12-14 12:11:57 1513271517.765460: $GPGSA,A,3,24,10,15,18,21,20,14,,,,,,6.6,2.0,6.2*3A
2017-12-14 12:11:58 1513271518.211691: $GPZDA,171159.00,14,12,2017,00,00*6E
2017-12-14 12:11:58 1513271518.211864: $GPGGA,171159,3946.9471,N,08404.9466,W,1,07,2.00,345.34,M,-33.324,M,,*74
2017-12-14 12:11:58 1513271518.211930: $GPRMC,171159,A,3946.9471,N,08404.9466,W,1.5738,192.547,141217,,*37
2017-12-14 12:11:58 1513271518.211991: $GPGSA,A,3,24,10,15,18,21,20,14,,,,,,6.6,2.0,6.2*3A
2017-12-14 12:11:59 1513271519.214311: $GPZDA,171200.00,14,12,2017,00,00*61
2017-12-14 12:11:59 1513271519.214481: $GPGGA,171200,3946.9467,N,08404.9466,W,1,07,2.00,346.11,M,-33.324,M,,*78
2017-12-14 12:11:59 1513271519.214547: $GPRMC,171200,A,3946.9467,N,08404.9466,W,1.5545,212.064,141217,,*38
2017-12-14 12:11:59 1513271519.214607: $GPGSA,A,3,24,10,15,18,21,20,14,,,,,,6.6,2.0,6.2*3A
2017-12-14 12:12:00 1513271520.549290: $GPGSV,3,1,12,24,49,115,16,10,39,298,22,15,40,051,16,18,69,331,00*7D
2017-12-14 12:12:00 1513271520.549443: $GPGSV,3,2,12,21,66,190,21,32,19,235,00,20,36,093,19,27,19,292,12*7C
2017-12-14 12:12:00 1513271520.549509: $GPGSV,3,3,12,14,01,231,10,13,10,048,00,08,05,325,00,120,07,103,00*4F
2017-12-14 12:12:00 1513271520.662786: $GPZDA,171201.00,14,12,2017,00,00*60
2017-12-14 12:12:00 1513271520.662958: $GPGGA,171201,3946.9460,N,08404.9467,W,1,07,2.00,346.23,M,-33.324,M,,*7E
2017-12-14 12:12:00 1513271520.663024: $GPRMC,171201,A,3946.9460,N,08404.9467,W,1.5738,192.547,141217,,*38
2017-12-14 12:12:00 1513271520.663084: $GPGSA,A,3,24,10,15,21,20,27,14,,,,,,6.6,2.0,6.2*36
2017-12-14 12:12:01 1513271521.197802: $GPZDA,171202.00,14,12,2017,00,00*63
2017-12-14 12:12:01 1513271521.197976: $GPGGA,171202,3946.9460,N,08404.9467,W,1,07,2.00,346.23,M,-33.324,M,,*7D
2017-12-14 12:12:01 1513271521.198041: $GPRMC,171202,A,3946.9460,N,08404.9467,W,1.2381,172.270,141217,,*37
2017-12-14 12:12:01 1513271521.198102: $GPGSA,A,3,24,10,15,21,20,27,14,,,,,,6.6,2.0,6.2*36
2017-12-14 12:12:02 1513271522.197562: $GPZDA,171203.00,14,12,2017,00,00*62
2017-12-14 12:12:02 1513271522.197737: $GPGGA,171203,3946.9464,N,08404.9474,W,1,07,2.00,346.79,M,-33.324,M,,*75
2017-12-14 12:12:02 1513271522.197825: $GPRMC,171203,A,3946.9464,N,08404.9474,W,0.6846,184.197,141217,,*36
2017-12-14 12:12:02 1513271522.197889: $GPGSA,A,3,24,10,15,21,20,27,14,,,,,,6.6,2.0,6.2*36
2017-12-14 12:12:03 1513271523.532468: $GPGSV,3,1,12,24,49,115,23,10,39,298,22,15,40,051,16,18,69,331,00*7B
2017-12-14 12:12:03 1513271523.532653: $GPGSV,3,2,12,21,66,190,17,32,19,235,00,20,36,093,19,27,19,292,11*7A
2017-12-14 12:12:03 1513271523.532719: $GPGSV,3,3,12,14,01,231,09,13,10,048,00,08,05,325,00,120,07,103,00*47
2017-12-14 12:12:03 1513271523.646133: $GPZDA,171204.00,14,12,2017,00,00*65
2017-12-14 12:12:03 1513271523.646349: $GPGGA,171204,3946.9468,N,08404.9473,W,1,07,2.00,346.03,M,-33.324,M,,*74
2017-12-14 12:12:03 1513271523.646421: $GPRMC,171204,A,3946.9468,N,08404.9473,W,0.3423,184.197,141217,,*30
2017-12-14 12:12:03 1513271523.646484: $GPGSA,A,3,24,10,15,21,20,27,14,,,,,,6.6,2.0,6.2*36
2017-12-14 12:12:04 1513271524.197222: $GPZDA,171205.00,14,12,2017,00,00*64
2017-12-14 12:12:04 1513271524.197384: $GPGGA,171205,3946.9468,N,08404.9480,W,1,07,2.00,345.95,M,-33.324,M,,*75
2017-12-14 12:12:04 1513271524.197450: $GPRMC,171205,A,3946.9468,N,08404.9480,W,0.4207,219.347,141217,,*32
2017-12-14 12:12:04 1513271524.197510: $GPGSA,A,3,24,10,15,21,20,27,14,,,,,,6.6,2.0,6.2*36
2017-12-14 12:12:05 1513271525.197304: $GPZDA,171206.00,14,12,2017,00,00*67
2017-12-14 12:12:05 1513271525.197478: $GPGGA,171206,3946.9464,N,08404.9480,W,1,07,2.00,345.31,M,-33.324,M,,*74
2017-12-14 12:12:05 1513271525.197595: $GPRMC,171206,A,3946.9464,N,08404.9480,W,0.5287,182.716,141217,,*35
2017-12-14 12:12:05 1513271525.197658: $GPGSA,A,3,24,10,15,21,20,27,14,,,,,,6.6,2.0,6.2*36
2017-12-14 12:12:06 1513271526.532449: $GPGSV,3,1,12,24,49,115,24,10,39,298,22,15,40,051,16,18,69,331,00*7C
2017-12-14 12:12:06 1513271526.532645: $GPGSV,3,2,12,21,66,190,16,32,19,235,00,20,36,093,19,27,19,292,11*7B
2017-12-14 12:12:06 1513271526.532711: $GPGSV,3,3,12,14,01,231,08,13,10,048,00,08,05,325,00,120,07,103,00*46
2017-12-14 12:12:06 1513271526.646068: $GPZDA,171207.00,14,12,2017,00,00*66
2017-12-14 12:12:06 1513271526.646232: $GPGGA,171207,3946.9460,N,08404.9480,W,1,07,2.00,344.67,M,-33.324,M,,*73
2017-12-14 12:12:06 1513271526.646298: $GPRMC,171207,A,3946.9460,N,08404.9480,W,1.3082,161.818,141217,,*3C
2017-12-14 12:12:06 1513271526.646358: $GPGSA,A,3,24,10,15,21,20,27,14,,,,,,6.6,2.0,6.2*36
2017-12-14 12:12:07 1513271527.197923: $GPZDA,171208.00,14,12,2017,00,00*69
2017-12-14 12:12:07 1513271527.198094: $GPGGA,171208,3946.9460,N,08404.9487,W,1,07,2.00,344.59,M,-33.324,M,,*76
2017-12-14 12:12:07 1513271527.198160: $GPRMC,171208,A,3946.9460,N,08404.9487,W,1.2132,183.552,141217,,*30
2017-12-14 12:12:07 1513271527.198221: $GPGSA,A,3,24,10,15,21,20,27,14,,,,,,6.6,2.0,6.2*36
2017-12-14 12:12:08 1513271528.200390: $GPZDA,171209.00,14,12,2017,00,00*68
2017-12-14 12:12:08 1513271528.200565: $GPGGA,171209,3946.9456,N,08404.9494,W,1,07,2.00,343.87,M,-33.324,M,,*74
2017-12-14 12:12:08 1513271528.200631: $GPRMC,171209,A,3946.9456,N,08404.9494,W,1.2361,194.852,141217,,*39
2017-12-14 12:12:08 1513271528.200692: $GPGSA,A,3,24,10,15,21,20,27,14,,,,,,6.6,2.0,6.2*36
2017-12-14 12:12:09 1513271529.534129: $GPGSV,3,1,12,24,49,115,24,10,39,298,21,15,40,051,17,18,69,331,18*77
2017-12-14 12:12:09 1513271529.534302: $GPGSV,3,2,12,21,66,190,16,32,19,235,00,20,36,093,19,27,19,292,08*73
2017-12-14 12:12:09 1513271529.534367: $GPGSV,3,3,12,14,01,231,07,13,10,048,00,08,05,325,00,120,07,103,00*49
