2017-12-29 10:54:17 1514562857.027618: {"class":"VERSION","release":"3.16","rev":"3.16-4","proto_major":3,"proto_minor":11}
2017-12-29 10:54:17 1514562857.027956: {"class":"DEVICES","devices":[{"class":"DEVICE","path":"/dev/ttyUSB0","driver":"SiRF","subtype":"9\u0006GSD4e_4.1.2-P1_RPATCH.05-F-GPS-4R-1510281 11/03/2015 307","activated":"2017-12-29T15:54:16.975Z","flags":1,"native":1,"bps":4800,"parity":"N","stopbits":1,"cycle":1.00}]}
2017-12-29 10:54:17 1514562857.028069: {"class":"WATCH","enable":true,"json":false,"nmea":true,"raw":0,"scaled":false,"timing":false,"split24":false,"pps":false}
2017-12-29 10:54:17 1514562857.152123: $GPZDA,155417.82,29,12,2017,00,00*63
2017-12-29 10:54:17 1514562857.152270: $GPGGA,155417,3946.9678,N,08404.9827,W,1,11,0.80,318.01,M,-33.325,M,,*7D
2017-12-29 10:54:17 1514562857.152335: $GPRMC,155417,A,3946.9678,N,08404.9827,W,0.9799,345.721,291217,,*3E
2017-12-29 10:54:17 1514562857.152396: $GPGSA,A,3,10,13,15,18,20,21,24,27,32,8,138,,1.7,0.8,1.3*31
2017-12-29 10:54:18 1514562858.073598: $GPZDA,155418.32,29,12,2017,00,00*67
2017-12-29 10:54:18 1514562858.073768: $GPGGA,155418,3946.9690,N,08404.9823,W,1,11,0.80,326.39,M,-33.325,M,,*76
2017-12-29 10:54:18 1514562858.073834: $GPRMC,155418,A,3946.9690,N,08404.9823,W,0.0407,322.013,291217,,*39
2017-12-29 10:54:18 1514562858.073896: $GPGSA,A,3,10,13,15,18,20,21,24,27,32,8,138,,1.7,0.8,1.3*31
2017-12-29 10:54:19 1514562859.257104: $GPGSV,3,1,11,10,34,294,39,13,16,046,42,15,46,049,49,18,65,319,43*79
2017-12-29 10:54:19 1514562859.257257: $GPGSV,3,2,11,20,42,087,51,21,73,204,47,24,45,124,50,27,19,300,41*7B
2017-12-29 10:54:19 1514562859.257322: $GPGSV,3,3,11,32,13,232,36,08,02,330,00,138,38,213,20*75
2017-12-29 10:54:19 1514562859.370780: $GPZDA,155419.00,29,12,2017,00,00*67
2017-12-29 10:54:19 1514562859.370907: $GPGGA,155419,3946.9690,N,08404.9823,W,1,10,0.80,326.39,M,-33.325,M,,*76
2017-12-29 10:54:19 1514562859.370972: $GPRMC,155419,A,3946.9690,N,08404.9823,W,0.1867,0.000,291217,,*32
2017-12-29 10:54:19 1514562859.371079: $GPGSA,A,3,10,13,15,18,20,21,24,27,32,138,,,1.7,0.8,1.3*09
2017-12-29 10:54:19 1514562859.972406: $GPZDA,155420.00,29,12,2017,00,00*6D
2017-12-29 10:54:19 1514562859.972569: $GPGGA,155420,3946.9685,N,08404.9816,W,1,10,0.80,325.83,M,-33.325,M,,*7C
2017-12-29 10:54:19 1514562859.972636: $GPRMC,155420,A,3946.9685,N,08404.9816,W,0.0000,0.000,291217,,*32
2017-12-29 10:54:19 1514562859.972697: $GPGSA,A,3,10,13,15,18,20,21,24,27,32,138,,,1.7,0.8,1.3*09
2017-12-29 10:54:19 1514562859.972755: $GPGBS,155420,10.91,M,10.38,M,30.89,M*08
2017-12-29 10:54:20 1514562860.423179: $GPZDA,155421.00,29,12,2017,00,00*6C
2017-12-29 10:54:20 1514562860.423340: $GPGGA,155421,3946.9685,N,08404.9816,W,1,10,0.80,325.83,M,-33.325,M,,*7D
2017-12-29 10:54:20 1514562860.423405: $GPRMC,155421,A,3946.9685,N,08404.9816,W,0.0000,0.000,291217,,*33
2017-12-29 10:54:20 1514562860.423466: $GPGSA,A,3,10,13,15,18,20,21,24,27,32,138,,,1.7,0.8,1.3*09
2017-12-29 10:54:20 1514562860.423524: $GPGBS,155421,10.91,M,10.38,M,30.89,M*09
2017-12-29 10:54:21 1514562861.685615: $GPGSV,3,1,11,10,34,294,41,13,16,046,43,15,46,049,50,18,65,319,44*78
2017-12-29 10:54:21 1514562861.685786: $GPGSV,3,2,11,20,42,087,51,21,73,204,47,24,45,124,51,27,19,300,42*79
2017-12-29 10:54:21 1514562861.685852: $GPGSV,3,3,11,32,13,232,36,08,02,330,00,138,38,213,45*76
2017-12-29 10:54:21 1514562861.799217: $GPZDA,155422.00,29,12,2017,00,00*6F
2017-12-29 10:54:21 1514562861.799351: $GPGGA,155422,3946.9681,N,08404.9816,W,1,10,0.80,325.19,M,-33.325,M,,*79
2017-12-29 10:54:21 1514562861.799416: $GPRMC,155422,A,3946.9681,N,08404.9816,W,0.0000,0.000,291217,,*34
2017-12-29 10:54:21 1514562861.799477: $GPGSA,A,3,10,13,15,18,20,21,24,27,32,138,,,1.7,0.8,1.3*09
2017-12-29 10:54:22 1514562862.351224: $GPZDA,155423.00,29,12,2017,00,00*6E
2017-12-29 10:54:22 1514562862.351404: $GPGGA,155423,3946.9676,N,08404.9809,W,1,10,0.80,324.63,M,-33.325,M,,*72
2017-12-29 10:54:22 1514562862.351471: $GPRMC,155423,A,3946.9676,N,08404.9809,W,0.0000,0.000,291217,,*33
2017-12-29 10:54:22 1514562862.351532: $GPGSA,A,3,10,13,15,18,20,21,24,27,32,138,,,1.7,0.8,1.3*09
2017-12-29 10:54:23 1514562863.350992: $GPZDA,155424.00,29,12,2017,00,00*69
2017-12-29 10:54:23 1514562863.351190: $GPGGA,155424,3946.9676,N,08404.9809,W,1,10,0.80,324.63,M,-33.325,M,,*75
2017-12-29 10:54:23 1514562863.351257: $GPRMC,155424,A,3946.9676,N,08404.9809,W,0.0000,0.000,291217,,*34
2017-12-29 10:54:23 1514562863.351318: $GPGSA,A,3,10,13,15,18,20,21,24,27,32,138,,,1.7,0.8,1.3*09
2017-12-29 10:54:23 1514562863.351376: $GPGBS,155424,10.91,M,10.38,M,30.89,M*0C
2017-12-29 10:54:24 1514562864.686323: $GPGSV,3,1,11,10,34,294,41,13,16,046,43,15,46,049,50,18,65,319,44*78
2017-12-29 10:54:24 1514562864.686496: $GPGSV,3,2,11,20,42,087,51,21,73,204,47,24,45,124,51,27,19,300,42*79
2017-12-29 10:54:24 1514562864.686561: $GPGSV,3,3,11,32,13,232,36,08,02,330,00,138,38,213,46*75
2017-12-29 10:54:24 1514562864.799684: $GPZDA,155425.00,29,12,2017,00,00*68
2017-12-29 10:54:24 1514562864.799809: $GPGGA,155425,3946.9672,N,08404.9809,W,1,10,0.80,323.99,M,-33.324,M,,*73
2017-12-29 10:54:24 1514562864.799875: $GPRMC,155425,A,3946.9672,N,08404.9809,W,0.0000,0.000,291217,,*31
2017-12-29 10:54:24 1514562864.799935: $GPGSA,A,3,10,13,15,18,20,21,24,27,32,138,,,1.7,0.8,1.3*09
2017-12-29 10:54:25 1514562865.354366: $GPZDA,155426.00,29,12,2017,00,00*6B
2017-12-29 10:54:25 1514562865.354536: $GPGGA,155426,3946.9642,N,08404.9782,W,2,10,1.40,319.83,M,-33.324,M,,*73
2017-12-29 10:54:25 1514562865.354602: $GPRMC,155426,A,3946.9642,N,08404.9782,W,0.0000,0.000,291217,,*3D
2017-12-29 10:54:25 1514562865.354662: $GPGSA,A,3,10,13,15,18,20,21,24,27,32,138,,,1.7,1.4,1.3*04
2017-12-29 10:54:26 1514562866.357188: $GPZDA,155427.00,29,12,2017,00,00*6A
2017-12-29 10:54:26 1514562866.357361: $GPGGA,155427,3946.9642,N,08404.9782,W,2,10,0.80,319.83,M,-33.324,M,,*7F
2017-12-29 10:54:26 1514562866.357427: $GPRMC,155427,A,3946.9642,N,08404.9782,W,0.0000,0.000,291217,,*3C
2017-12-29 10:54:26 1514562866.357488: $GPGSA,A,3,10,13,15,18,20,21,24,27,32,138,,,1.7,0.8,1.3*09
2017-12-29 10:54:27 1514562867.687937: $GPGSV,3,1,11,10,34,294,42,13,16,046,43,15,46,049,50,18,65,319,44*7B
2017-12-29 10:54:27 1514562867.688101: $GPGSV,3,2,11,20,42,087,52,21,73,204,48,24,45,124,51,27,19,300,42*75
2017-12-29 10:54:27 1514562867.688167: $GPGSV,3,3,11,32,13,232,35,08,02,330,00,138,38,213,45*75
2017-12-29 10:54:27 1514562867.800311: $GPZDA,155428.00,29,12,2017,00,00*65
2017-12-29 10:54:27 1514562867.800439: $GPGGA,155428,3946.9642,N,08404.9782,W,2,10,0.80,319.83,M,-33.324,M,,*70
2017-12-29 10:54:27 1514562867.800502: $GPRMC,155428,A,3946.9642,N,08404.9782,W,0.0000,0.000,291217,,*33
2017-12-29 10:54:27 1514562867.800563: $GPGSA,A,3,10,13,15,18,20,21,24,27,32,138,,,1.7,0.8,1.3*09
2017-12-29 10:54:28 1514562868.351254: $GPZDA,155429.00,29,12,2017,00,00*64
2017-12-29 10:54:28 1514562868.351414: $GPGGA,155429,3946.9642,N,08404.9782,W,2,10,0.80,319.83,M,-33.324,M,,*71
2017-12-29 10:54:28 1514562868.351480: $GPRMC,155429,A,3946.9642,N,08404.9782,W,0.0000,0.000,291217,,*32
2017-12-29 10:54:28 1514562868.351539: $GPGSA,A,3,10,13,15,18,20,21,24,27,32,138,,,1.7,0.8,1.3*09
2017-12-29 10:54:29 1514562869.355841: $GPZDA,155430.00,29,12,2017,00,00*6C
2017-12-29 10:54:29 1514562869.356005: $GPGGA,155430,3946.9642,N,08404.9782,W,2,10,0.80,319.83,M,-33.324,M,,*79
2017-12-29 10:54:29 1514562869.356069: $GPRMC,155430,A,3946.9642,N,08404.9782,W,0.0000,0.000,291217,,*3A
2017-12-29 10:54:29 1514562869.356129: $GPGSA,A,3,10,13,15,18,20,21,24,27,32,138,,,1.7,0.8,1.3*09
2017-12-29 10:54:30 1514562870.691340: $GPGSV,3,1,11,10,34,294,43,13,16,046,43,15,46,049,50,18,65,319,44*7A
2017-12-29 10:54:30 1514562870.691497: $GPGSV,3,2,11,20,42,087,52,21,73,204,48,24,45,124,51,27,19,300,42*75
2017-12-29 10:54:30 1514562870.691562: $GPGSV,3,3,11,32,13,232,34,08,02,330,13,138,38,213,45*76
2017-12-29 10:54:30 1514562870.803663: $GPZDA,155431.00,29,12,2017,00,00*6D
2017-12-29 10:54:30 1514562870.803775: $GPGGA,155431,3946.9642,N,08404.9782,W,2,10,0.80,319.83,M,-33.324,M,,*78
2017-12-29 10:54:30 1514562870.803838: $GPRMC,155431,A,3946.9642,N,08404.9782,W,0.0000,0.000,291217,,*3B
2017-12-29 10:54:30 1514562870.803945: $GPGSA,A,3,10,13,15,18,20,21,24,27,32,138,,,1.7,0.8,1.3*09
2017-12-29 10:54:31 1514562871.430322: $GPZDA,155432.00,29,12,2017,00,00*6E
2017-12-29 10:54:31 1514562871.430485: $GPGGA,155432,3946.9642,N,08404.9782,W,2,10,0.80,319.83,M,-33.324,M,,*7B
2017-12-29 10:54:31 1514562871.430550: $GPRMC,155432,A,3946.9642,N,08404.9782,W,0.0000,0.000,291217,,*38
2017-12-29 10:54:31 1514562871.430611: $GPGSA,A,3,10,13,15,18,20,21,24,27,32,138,,,1.7,0.8,1.3*09
