2017-11-15 19:21:45 1510791705.594451: {"class":"VERSION","release":"3.17","rev":"3.17","proto_major":3,"proto_minor":12}
2017-11-15 19:21:45 1510791705.594999: {"class":"DEVICES","devices":[{"class":"DEVICE","path":"/dev/ttyUSB0","driver":"SiRF","subtype":"9\u0006GSD4e_4.1.2-P1_RPATCH.05-F-GPS-4R-1510281 11/03/2015 307","activated":"2017-11-16T00:21:45.217Z","flags":1,"native":1,"bps":4800,"parity":"N","stopbits":1,"cycle":1.00}]}
2017-11-15 19:21:45 1510791705.595121: {"class":"WATCH","enable":true,"json":false,"nmea":true,"raw":0,"scaled":false,"timing":false,"split24":false,"pps":false}
2017-11-15 19:21:45 1510791705.666006: $GPGSV,3,1,12,32,39,105,21,14,58,087,11,22,50,276,21,26,49,174,19*75
2017-11-15 19:21:45 1510791705.666164: $GPGSV,3,2,12,31,71,018,18,29,09,075,15,25,20,042,00,03,37,303,06*79
2017-11-15 19:21:45 1510791705.666222: $GPGSV,3,3,12,01,08,255,15,16,18,190,00,23,08,298,00,120,07,103,00*4F
2017-11-15 19:21:45 1510791705.779404: $GPZDA,002144.00,16,11,2017,00,00*66
2017-11-15 19:21:45 1510791705.779567: $GPGGA,002144,3946.9542,N,08404.9454,W,1,07,1.20,285.83,M,-33.324,M,,*7D
2017-11-15 19:21:45 1510791705.779628: $GPRMC,002144,A,3946.9542,N,08404.9454,W,1.1391,323.662,161117,,*30
2017-11-15 19:21:45 1510791705.779683: $GPGSA,A,3,32,14,22,26,31,29,1,,,,,,3.4,1.2,2.9*05
2017-11-15 19:21:46 1510791706.404731: $GPZDA,002145.00,16,11,2017,00,00*67
2017-11-15 19:21:46 1510791706.404894: $GPGGA,002145,3946.9546,N,08404.9454,W,1,07,1.40,286.47,M,-33.324,M,,*75
2017-11-15 19:21:46 1510791706.404955: $GPRMC,002145,A,3946.9546,N,08404.9454,W,0.7238,320.710,161117,,*37
2017-11-15 19:21:46 1510791706.405011: $GPGSA,A,3,32,14,22,26,31,29,1,,,,,,3.4,1.4,2.9*03
2017-11-15 19:21:47 1510791707.330590: $GPZDA,002146.00,16,11,2017,00,00*64
2017-11-15 19:21:47 1510791707.335436: $GPGGA,002146,3946.9546,N,08404.9454,W,1,07,1.40,286.47,M,-33.324,M,,*76
2017-11-15 19:21:47 1510791707.335546: $GPRMC,002146,A,3946.9546,N,08404.9454,W,0.3155,309.994,161117,,*31
2017-11-15 19:21:47 1510791707.335605: $GPGSA,A,3,32,14,22,26,31,29,1,,,,,,3.4,1.4,2.9*03
2017-11-15 19:21:48 1510791708.666472: $GPGSV,3,1,12,32,39,105,21,14,58,087,12,22,50,276,21,26,49,174,19*76
2017-11-15 19:21:48 1510791708.666670: $GPGSV,3,2,12,31,71,018,18,29,09,075,15,25,20,042,00,03,37,303,08*77
2017-11-15 19:21:48 1510791708.666782: $GPGSV,3,3,12,01,08,255,15,16,18,190,00,23,08,298,00,120,07,103,00*4F
2017-11-15 19:21:48 1510791708.780205: $GPZDA,002147.00,16,11,2017,00,00*65
2017-11-15 19:21:48 1510791708.780527: $GPGGA,002147,3946.9546,N,08404.9461,W,1,07,1.40,286.39,M,-33.324,M,,*78
2017-11-15 19:21:48 1510791708.780649: $GPRMC,002147,A,3946.9546,N,08404.9461,W,0.5951,238.684,161117,,*31
2017-11-15 19:21:48 1510791708.780757: $GPGSA,A,3,32,14,22,26,31,29,1,,,,,,3.4,1.4,2.9*03
2017-11-15 19:21:49 1510791709.331981: $GPZDA,002148.00,16,11,2017,00,00*6A
2017-11-15 19:21:49 1510791709.332151: $GPGGA,002148,3946.9546,N,08404.9461,W,1,07,1.40,286.39,M,-33.324,M,,*77
2017-11-15 19:21:49 1510791709.332212: $GPRMC,002148,A,3946.9546,N,08404.9461,W,0.4207,219.347,161117,,*3E
2017-11-15 19:21:49 1510791709.332268: $GPGSA,A,3,32,14,22,26,31,29,1,,,,,,3.4,1.4,2.9*03
2017-11-15 19:21:50 1510791710.346596: $GPZDA,002149.00,16,11,2017,00,00*6B
2017-11-15 19:21:50 1510791710.346805: $GPGGA,002149,3946.9543,N,08404.9462,W,1,07,1.40,287.16,M,-33.324,M,,*7C
2017-11-15 19:21:50 1510791710.346874: $GPRMC,002149,A,3946.9543,N,08404.9462,W,0.7246,164.668,161117,,*3E
2017-11-15 19:21:50 1510791710.346930: $GPGSA,A,3,32,14,22,26,31,29,1,,,,,,3.4,1.4,2.9*03
2017-11-15 19:21:51 1510791711.681831: $GPGSV,3,1,12,32,39,105,21,14,58,087,12,22,50,276,21,26,49,174,19*76
2017-11-15 19:21:51 1510791711.682002: $GPGSV,3,2,12,31,71,018,18,29,09,075,15,16,18,190,05,03,37,303,10*7E
2017-11-15 19:21:51 1510791711.682061: $GPGSV,3,3,12,01,08,255,15,25,20,042,00,23,08,298,00,120,07,103,00*4A
2017-11-15 19:21:51 1510791711.795209: $GPZDA,002150.00,16,11,2017,00,00*63
2017-11-15 19:21:51 1510791711.795406: $GPGGA,002150,3946.9543,N,08404.9462,W,1,07,1.40,287.16,M,-33.324,M,,*74
2017-11-15 19:21:51 1510791711.795536: $GPRMC,002150,A,3946.9543,N,08404.9462,W,0.9948,137.276,161117,,*30
2017-11-15 19:21:51 1510791711.795595: $GPGSA,A,3,32,14,22,26,31,29,1,,,,,,3.4,1.4,2.9*03
2017-11-15 19:21:52 1510791712.344818: $GPZDA,002151.00,16,11,2017,00,00*62
2017-11-15 19:21:52 1510791712.349237: $GPGGA,002151,3946.9542,N,08404.9455,W,1,07,1.60,287.24,M,-33.324,M,,*73
2017-11-15 19:21:52 1510791712.349334: $GPRMC,002151,A,3946.9542,N,08404.9455,W,0.8011,119.090,161117,,*36
2017-11-15 19:21:52 1510791712.349412: $GPGSA,A,3,32,14,22,26,31,29,1,,,,,,3.4,1.6,2.9*01
2017-11-15 19:21:53 1510791713.329854: $GPZDA,002152.00,16,11,2017,00,00*61
2017-11-15 19:21:53 1510791713.330014: $GPGGA,002152,3946.9542,N,08404.9455,W,1,07,1.60,287.24,M,-33.324,M,,*70
2017-11-15 19:21:53 1510791713.330075: $GPRMC,002152,A,3946.9542,N,08404.9455,W,0.9689,93.794,161117,,*03
2017-11-15 19:21:53 1510791713.330131: $GPGSA,A,3,32,14,22,26,31,29,1,,,,,,3.4,1.6,2.9*01
2017-11-15 19:21:54 1510791714.665193: $GPGSV,3,1,12,32,39,105,21,14,58,087,13,22,50,276,21,26,49,174,19*77
2017-11-15 19:21:54 1510791714.665385: $GPGSV,3,2,12,31,71,018,00,29,09,075,16,16,18,190,17,03,37,303,07*71
2017-11-15 19:21:54 1510791714.665446: $GPGSV,3,3,12,01,08,255,15,25,20,042,00,23,08,298,00,120,07,103,00*4A
2017-11-15 19:21:54 1510791714.778878: $GPZDA,002153.00,16,11,2017,00,00*60
2017-11-15 19:21:54 1510791714.779173: $GPGGA,002153,3946.9542,N,08404.9455,W,1,08,1.60,287.24,M,-33.324,M,,*7E
2017-11-15 19:21:54 1510791714.779293: $GPRMC,002153,A,3946.9542,N,08404.9455,W,0.9689,93.794,161117,,*02
2017-11-15 19:21:54 1510791714.779419: $GPGSA,A,3,32,14,22,26,29,16,3,1,,,,,3.4,1.6,2.9*37
2017-11-15 19:21:55 1510791715.345685: $GPZDA,002154.00,16,11,2017,00,00*67
2017-11-15 19:21:55 1510791715.345849: $GPGGA,002154,3946.9546,N,08404.9448,W,1,08,1.60,287.96,M,-33.324,M,,*78
2017-11-15 19:21:55 1510791715.345910: $GPRMC,002154,A,3946.9546,N,08404.9448,W,0.7267,93.794,161117,,*07
2017-11-15 19:21:55 1510791715.345965: $GPGSA,A,3,32,14,22,26,29,16,3,1,,,,,3.4,1.6,2.9*37
