2017-12-01 14:18:14 1512155894.936976: {"class":"VERSION","release":"3.16","rev":"3.16-4","proto_major":3,"proto_minor":11}
2017-12-01 14:18:14 1512155894.937350: {"class":"DEVICES","devices":[{"class":"DEVICE","path":"/dev/ttyUSB0","driver":"SiRF","subtype":"9\u0006GSD4e_4.1.2-P1_RPATCH.05-F-GPS-4R-1510281 11/03/2015 307","activated":"2017-12-01T19:18:14.672Z","flags":1,"native":1,"bps":4800,"parity":"N","stopbits":1,"cycle":1.00}]}
2017-12-01 14:18:14 1512155894.937463: {"class":"WATCH","enable":true,"json":false,"nmea":true,"raw":0,"scaled":false,"timing":false,"split24":false,"pps":false}
2017-12-01 14:18:15 1512155895.358353: $GPZDA,191816.00,01,12,2017,00,00*66
2017-12-01 14:18:15 1512155895.358525: $GPGGA,191816,3946.9571,N,08404.9861,W,2,11,0.80,299.57,M,-33.324,M,,*79
2017-12-01 14:18:15 1512155895.358592: $GPRMC,191816,A,3946.9571,N,08404.9861,W,0.0000,0.000,011217,,*31
2017-12-01 14:18:15 1512155895.358653: $GPGSA,A,3,10,14,15,18,21,24,27,32,12,20,138,,2.0,0.8,1.5*0F
2017-12-01 14:18:16 1512155896.693948: $GPGSV,3,1,12,10,67,328,49,14,27,252,39,15,13,066,34,18,72,088,44*7E
2017-12-01 14:18:16 1512155896.694165: $GPGSV,3,2,12,21,31,180,46,24,46,061,49,27,08,262,37,32,44,262,45*76
2017-12-01 14:18:16 1512155896.694232: $GPGSV,3,3,12,08,06,295,24,12,08,109,28,20,11,117,26,138,38,213,46*47
2017-12-01 14:18:16 1512155896.807175: $GPZDA,191817.00,01,12,2017,00,00*67
2017-12-01 14:18:16 1512155896.807348: $GPGGA,191817,3946.9571,N,08404.9861,W,2,12,0.80,299.57,M,-33.324,M,,*7B
2017-12-01 14:18:16 1512155896.807415: $GPRMC,191817,A,3946.9571,N,08404.9861,W,0.0000,0.000,011217,,*30
2017-12-01 14:18:16 1512155896.807495: $GPGSA,A,3,10,14,15,18,21,24,27,32,8,12,20,138,2.0,0.8,1.5*37
2017-12-01 14:18:17 1512155897.358046: $GPZDA,191818.00,01,12,2017,00,00*68
2017-12-01 14:18:17 1512155897.358228: $GPGGA,191818,3946.9571,N,08404.9861,W,2,12,0.80,299.57,M,-33.324,M,,*74
2017-12-01 14:18:17 1512155897.358295: $GPRMC,191818,A,3946.9571,N,08404.9861,W,0.0000,0.000,011217,,*3F
2017-12-01 14:18:17 1512155897.358356: $GPGSA,A,3,10,14,15,18,21,24,27,32,8,12,20,138,2.0,0.8,1.5*37
2017-12-01 14:18:18 1512155898.357677: $GPZDA,191819.00,01,12,2017,00,00*69
2017-12-01 14:18:18 1512155898.357860: $GPGGA,191819,3946.9571,N,08404.9861,W,2,12,1.00,299.57,M,-33.324,M,,*7C
2017-12-01 14:18:18 1512155898.357927: $GPRMC,191819,A,3946.9571,N,08404.9861,W,0.0000,0.000,011217,,*3E
2017-12-01 14:18:18 1512155898.357988: $GPGSA,A,3,10,14,15,18,21,24,27,32,8,12,20,138,2.0,1.0,1.5*3E
2017-12-01 14:18:19 1512155899.697168: $GPGSV,3,1,12,10,67,328,49,14,27,252,39,15,13,066,34,18,72,088,44*7E
2017-12-01 14:18:19 1512155899.697352: $GPGSV,3,2,12,21,31,180,46,24,46,061,49,27,08,262,37,32,44,262,45*76
2017-12-01 14:18:19 1512155899.697418: $GPGSV,3,3,12,08,06,295,23,12,08,109,28,20,11,117,25,138,38,213,46*43
2017-12-01 14:18:19 1512155899.809237: $GPZDA,191820.00,01,12,2017,00,00*63
2017-12-01 14:18:19 1512155899.809377: $GPGGA,191820,3946.9567,N,08404.9855,W,2,12,0.80,300.42,M,-33.324,M,,*7A
2017-12-01 14:18:19 1512155899.809442: $GPRMC,191820,A,3946.9567,N,08404.9855,W,0.0000,0.000,011217,,*34
2017-12-01 14:18:19 1512155899.809503: $GPGSA,A,3,10,14,15,18,21,24,27,32,8,12,20,138,2.0,0.8,1.5*37
2017-12-01 14:18:20 1512155900.436230: $GPZDA,191821.00,01,12,2017,00,00*62
2017-12-01 14:18:20 1512155900.436399: $GPGGA,191821,3946.9567,N,08404.9855,W,2,12,0.80,300.42,M,-33.324,M,,*7B
2017-12-01 14:18:20 1512155900.436466: $GPRMC,191821,A,3946.9567,N,08404.9855,W,0.0000,0.000,011217,,*35
2017-12-01 14:18:20 1512155900.436527: $GPGSA,A,3,10,14,15,18,21,24,27,32,8,12,20,138,2.0,0.8,1.5*37
2017-12-01 14:18:21 1512155901.358049: $GPZDA,191822.00,01,12,2017,00,00*61
2017-12-01 14:18:21 1512155901.358230: $GPGGA,191822,3946.9567,N,08404.9855,W,2,12,0.80,300.42,M,-33.324,M,,*78
2017-12-01 14:18:21 1512155901.358317: $GPRMC,191822,A,3946.9567,N,08404.9855,W,0.0000,0.000,011217,,*36
2017-12-01 14:18:21 1512155901.358379: $GPGSA,A,3,10,14,15,18,21,24,27,32,8,12,20,138,2.0,0.8,1.5*37
2017-12-01 14:18:22 1512155902.693913: $GPGSV,3,1,12,10,67,328,48,14,27,252,39,15,13,066,34,18,72,088,44*7F
2017-12-01 14:18:22 1512155902.694175: $GPGSV,3,2,12,21,31,180,45,24,46,061,48,27,08,262,38,32,44,262,45*7B
2017-12-01 14:18:22 1512155902.694247: $GPGSV,3,3,12,08,06,295,30,12,08,109,29,20,11,117,26,138,38,213,46*43
2017-12-01 14:18:22 1512155902.807153: $GPZDA,191823.00,01,12,2017,00,00*60
2017-12-01 14:18:22 1512155902.807331: $GPGGA,191823,3946.9567,N,08404.9855,W,2,12,0.80,300.42,M,-33.324,M,,*79
2017-12-01 14:18:22 1512155902.807396: $GPRMC,191823,A,3946.9567,N,08404.9855,W,0.0000,0.000,011217,,*37
2017-12-01 14:18:22 1512155902.807457: $GPGSA,A,3,10,14,15,18,21,24,27,32,8,12,20,138,2.0,0.8,1.5*37
2017-12-01 14:18:23 1512155903.358024: $GPZDA,191824.00,01,12,2017,00,00*67
2017-12-01 14:18:23 1512155903.358190: $GPGGA,191824,3946.9567,N,08404.9855,W,2,12,0.80,300.42,M,-33.324,M,,*7E
2017-12-01 14:18:23 1512155903.358278: $GPRMC,191824,A,3946.9567,N,08404.9855,W,0.0000,0.000,011217,,*30
2017-12-01 14:18:23 1512155903.358341: $GPGSA,A,3,10,14,15,18,21,24,27,32,8,12,20,138,2.0,0.8,1.5*37
2017-12-01 14:18:24 1512155904.360313: $GPZDA,191825.00,01,12,2017,00,00*66
2017-12-01 14:18:24 1512155904.360484: $GPGGA,191825,3946.9564,N,08404.9855,W,2,12,0.80,301.18,M,-33.324,M,,*72
2017-12-01 14:18:24 1512155904.360552: $GPRMC,191825,A,3946.9564,N,08404.9855,W,0.0000,0.000,011217,,*32
2017-12-01 14:18:24 1512155904.360613: $GPGSA,A,3,10,14,15,18,21,24,27,32,8,12,20,138,2.0,0.8,1.5*37
2017-12-01 14:18:25 1512155905.691692: $GPGSV,3,1,12,10,67,328,49,14,27,252,39,15,13,066,34,18,72,088,44*7E
2017-12-01 14:18:25 1512155905.691875: $GPGSV,3,2,12,21,31,180,45,24,46,061,49,27,08,262,38,32,44,262,45*7A
2017-12-01 14:18:25 1512155905.691943: $GPGSV,3,3,12,08,06,295,30,12,08,109,30,20,11,117,25,138,38,213,46*48
2017-12-01 14:18:25 1512155905.804969: $GPZDA,191826.00,01,12,2017,00,00*65
2017-12-01 14:18:25 1512155905.805109: $GPGGA,191826,3946.9564,N,08404.9855,W,2,12,0.80,301.18,M,-33.324,M,,*71
2017-12-01 14:18:25 1512155905.805176: $GPRMC,191826,A,3946.9564,N,08404.9855,W,0.0000,0.000,011217,,*31
2017-12-01 14:18:25 1512155905.805236: $GPGSA,A,3,10,14,15,18,21,24,27,32,8,12,20,138,2.0,0.8,1.5*37
2017-12-01 14:18:26 1512155906.355024: $GPZDA,191827.00,01,12,2017,00,00*64
2017-12-01 14:18:26 1512155906.355198: $GPGGA,191827,3946.9568,N,08404.9855,W,2,12,0.80,301.82,M,-33.324,M,,*7F
2017-12-01 14:18:26 1512155906.355266: $GPRMC,191827,A,3946.9568,N,08404.9855,W,0.0000,0.000,011217,,*3C
2017-12-01 14:18:26 1512155906.355327: $GPGSA,A,3,10,14,15,18,21,24,27,32,8,12,20,138,2.0,0.8,1.5*37
2017-12-01 14:18:27 1512155907.358376: $GPZDA,191828.00,01,12,2017,00,00*6B
2017-12-01 14:18:27 1512155907.358544: $GPGGA,191828,3946.9568,N,08404.9848,W,2,12,0.80,301.90,M,-33.324,M,,*7F
2017-12-01 14:18:27 1512155907.358609: $GPRMC,191828,A,3946.9568,N,08404.9848,W,0.0000,0.000,011217,,*3F
2017-12-01 14:18:27 1512155907.358670: $GPGSA,A,3,10,14,15,18,21,24,27,32,8,12,20,138,2.0,0.8,1.5*37
2017-12-01 14:18:28 1512155908.693965: $GPGSV,3,1,12,10,67,328,48,14,27,252,40,15,13,066,34,18,72,088,44*71
2017-12-01 14:18:28 1512155908.694153: $GPGSV,3,2,12,21,31,180,45,24,46,061,48,27,08,262,39,32,44,262,45*7A
2017-12-01 14:18:28 1512155908.694219: $GPGSV,3,3,12,08,06,295,35,12,08,109,30,20,11,117,25,138,38,213,47*4C
2017-12-01 14:18:28 1512155908.807502: $GPZDA,191829.00,01,12,2017,00,00*6A
2017-12-01 14:18:28 1512155908.807671: $GPGGA,191829,3946.9568,N,08404.9848,W,2,12,0.80,301.90,M,-33.324,M,,*7E
2017-12-01 14:18:28 1512155908.807738: $GPRMC,191829,A,3946.9568,N,08404.9848,W,0.0000,0.000,011217,,*3E
2017-12-01 14:18:28 1512155908.807799: $GPGSA,A,3,10,14,15,18,21,24,27,32,8,12,20,138,2.0,0.8,1.5*37
2017-12-01 14:18:29 1512155909.357095: $GPZDA,191830.00,01,12,2017,00,00*62
2017-12-01 14:18:29 1512155909.357323: $GPGGA,191830,3946.9564,N,08404.9849,W,2,12,0.80,302.66,M,-33.324,M,,*71
2017-12-01 14:18:29 1512155909.357411: $GPRMC,191830,A,3946.9564,N,08404.9849,W,0.0000,0.000,011217,,*3B
2017-12-01 14:18:29 1512155909.357475: $GPGSA,A,3,10,14,15,18,21,24,27,32,8,12,20,138,2.0,0.8,1.5*37
2017-12-01 14:18:30 1512155910.356197: $GPZDA,191831.00,01,12,2017,00,00*63
2017-12-01 14:18:30 1512155910.356363: $GPGGA,191831,3946.9564,N,08404.9849,W,2,12,0.80,302.66,M,-33.324,M,,*70
2017-12-01 14:18:30 1512155910.356430: $GPRMC,191831,A,3946.9564,N,08404.9849,W,0.0000,0.000,011217,,*3A
2017-12-01 14:18:30 1512155910.356491: $GPGSA,A,3,10,14,15,18,21,24,27,32,8,12,20,138,2.0,0.8,1.5*37
2017-12-01 14:18:31 1512155911.695429: $GPGSV,3,1,12,10,67,328,49,14,27,252,40,15,13,066,34,18,72,088,45*71
2017-12-01 14:18:31 1512155911.695612: $GPGSV,3,2,12,21,31,180,45,24,46,061,49,27,08,262,39,32,44,262,45*7B
2017-12-01 14:18:31 1512155911.695680: $GPGSV,3,3,12,08,06,295,35,12,08,109,30,20,11,117,24,138,38,213,46*4C
2017-12-01 14:18:31 1512155911.809146: $GPZDA,191832.00,01,12,2017,00,00*60
2017-12-01 14:18:31 1512155911.809298: $GPGGA,191832,3946.9564,N,08404.9849,W,2,12,0.80,302.66,M,-33.324,M,,*73
2017-12-01 14:18:31 1512155911.809365: $GPRMC,191832,A,3946.9564,N,08404.9849,W,0.0000,0.000,011217,,*39
2017-12-01 14:18:31 1512155911.809425: $GPGSA,A,3,10,14,15,18,21,24,27,32,8,12,20,138,2.0,0.8,1.5*37
2017-12-01 14:18:32 1512155912.358721: $GPZDA,191833.00,01,12,2017,00,00*61
2017-12-01 14:18:32 1512155912.358902: $GPGGA,191833,3946.9564,N,08404.9849,W,2,12,0.80,302.66,M,-33.324,M,,*72
2017-12-01 14:18:32 1512155912.358969: $GPRMC,191833,A,3946.9564,N,08404.9849,W,0.0000,0.000,011217,,*38
2017-12-01 14:18:32 1512155912.359056: $GPGSA,A,3,10,14,15,18,21,24,27,32,8,12,20,138,2.0,0.8,1.5*37
2017-12-01 14:18:33 1512155913.357090: $GPZDA,191834.00,01,12,2017,00,00*66
2017-12-01 14:18:33 1512155913.357268: $GPGGA,191834,3946.9564,N,08404.9849,W,2,12,0.80,302.66,M,-33.324,M,,*75
2017-12-01 14:18:33 1512155913.357334: $GPRMC,191834,A,3946.9564,N,08404.9849,W,0.0000,0.000,011217,,*3F
2017-12-01 14:18:33 1512155913.357395: $GPGSA,A,3,10,14,15,18,21,24,27,32,8,12,20,138,2.0,0.8,1.5*37
2017-12-01 14:18:34 1512155914.692518: $GPGSV,3,1,12,10,67,328,49,14,27,252,41,15,13,066,34,18,72,088,45*70
2017-12-01 14:18:34 1512155914.692705: $GPGSV,3,2,12,21,31,180,45,24,46,061,49,27,08,262,38,32,44,262,45*7A
2017-12-01 14:18:34 1512155914.692775: $GPGSV,3,3,12,08,06,295,35,12,08,109,30,20,11,117,18,138,38,213,46*43
2017-12-01 14:18:34 1512155914.805888: $GPZDA,191835.00,01,12,2017,00,00*67
2017-12-01 14:18:34 1512155914.806062: $GPGGA,191835,3946.9561,N,08404.9850,W,2,12,0.80,303.43,M,-33.324,M,,*7F
2017-12-01 14:18:34 1512155914.806132: $GPRMC,191835,A,3946.9561,N,08404.9850,W,0.0000,0.000,011217,,*33
2017-12-01 14:18:34 1512155914.806195: $GPGSA,A,3,10,14,15,18,21,24,27,32,8,12,20,138,2.0,0.8,1.5*37
