2018-01-11 20:02:19 1515718939.367494: {"class":"VERSION","release":"3.16","rev":"3.16-4","proto_major":3,"proto_minor":11}
2018-01-11 20:02:19 1515718939.367833: {"class":"DEVICES","devices":[{"class":"DEVICE","path":"/dev/ttyUSB0","driver":"SiRF","subtype":"9\u0006GSD4e_4.1.2-P1_RPATCH.05-F-GPS-4R-1510281 11/03/2015 307","activated":"2018-01-12T01:02:19.278Z","flags":1,"native":1,"bps":4800,"parity":"N","stopbits":1,"cycle":1.00}]}
2018-01-11 20:02:19 1515718939.367967: {"class":"WATCH","enable":true,"json":false,"nmea":true,"raw":0,"scaled":false,"timing":false,"split24":false,"pps":false}
2018-01-11 20:02:19 1515718939.392362: $GPZDA,010220.00,12,01,2018,00,00*6E
2018-01-11 20:02:19 1515718939.392491: $GPGGA,010220,3946.9579,N,08404.9817,W,2,10,0.80,297.75,M,-33.324,M,,*78
2018-01-11 20:02:19 1515718939.392556: $GPRMC,010220,A,3946.9579,N,08404.9817,W,0.0000,0.000,120118,,*30
2018-01-11 20:02:19 1515718939.392616: $GPGSA,A,3,7,8,9,11,16,23,27,28,30,138,,,4.0,0.8,3.5*3E
2018-01-11 20:02:20 1515718940.391613: $GPZDA,010221.00,12,01,2018,00,00*6F
2018-01-11 20:02:20 1515718940.391806: $GPGGA,010221,3946.9579,N,08404.9817,W,2,10,0.80,297.75,M,-33.324,M,,*79
2018-01-11 20:02:20 1515718940.391875: $GPRMC,010221,A,3946.9579,N,08404.9817,W,0.0000,0.000,120118,,*31
2018-01-11 20:02:20 1515718940.391937: $GPGSA,A,3,7,8,9,11,16,23,27,28,30,138,,,4.0,0.8,3.5*3E
2018-01-11 20:02:20 1515718940.391994: $GPGBS,010221,3.65,M,6.21,M,20.10,M*08
2018-01-11 20:02:21 1515718941.728157: $GPGSV,3,1,11,07,52,313,43,08,71,144,46,09,50,234,42,11,17,169,41*72
2018-01-11 20:02:21 1515718941.728334: $GPGSV,3,2,11,16,26,058,46,23,33,190,45,27,50,057,51,28,11,255,36*77
2018-01-11 20:02:21 1515718941.728400: $GPGSV,3,3,11,30,26,304,34,26,01,070,00,138,38,213,46*7F
2018-01-11 20:02:21 1515718941.841828: $GPZDA,010222.00,12,01,2018,00,00*6C
2018-01-11 20:02:21 1515718941.841979: $GPGGA,010222,3946.9579,N,08404.9817,W,2,10,0.80,297.75,M,-33.324,M,,*7A
2018-01-11 20:02:21 1515718941.842068: $GPRMC,010222,A,3946.9579,N,08404.9817,W,0.0000,0.000,120118,,*32
2018-01-11 20:02:21 1515718941.842146: $GPGSA,A,3,7,8,9,11,16,23,27,28,30,138,,,4.0,0.8,3.5*3E
2018-01-11 20:02:22 1515718942.391458: $GPZDA,010223.00,12,01,2018,00,00*6D
2018-01-11 20:02:22 1515718942.391626: $GPGGA,010223,3946.9579,N,08404.9817,W,2,10,0.80,297.75,M,-33.324,M,,*7B
2018-01-11 20:02:22 1515718942.391692: $GPRMC,010223,A,3946.9579,N,08404.9817,W,0.0000,0.000,120118,,*33
2018-01-11 20:02:22 1515718942.391753: $GPGSA,A,3,7,8,9,11,16,23,27,28,30,138,,,4.0,0.8,3.5*3E
2018-01-11 20:02:23 1515718943.391069: $GPZDA,010224.00,12,01,2018,00,00*6A
2018-01-11 20:02:23 1515718943.391258: $GPGGA,010224,3946.9579,N,08404.9817,W,2,10,0.80,297.75,M,-33.324,M,,*7C
2018-01-11 20:02:23 1515718943.391323: $GPRMC,010224,A,3946.9579,N,08404.9817,W,0.0000,0.000,120118,,*34
2018-01-11 20:02:23 1515718943.391384: $GPGSA,A,3,7,8,9,11,16,23,27,28,30,138,,,4.0,0.8,3.5*3E
2018-01-11 20:02:24 1515718944.728979: $GPGSV,3,1,11,07,52,313,43,08,71,144,45,09,50,234,42,11,17,169,41*71
2018-01-11 20:02:24 1515718944.729214: $GPGSV,3,2,11,16,26,058,46,23,33,190,45,27,50,057,50,28,11,255,36*76
2018-01-11 20:02:24 1515718944.729283: $GPGSV,3,3,11,30,26,304,26,26,01,070,00,138,38,213,44*7E
2018-01-11 20:02:24 1515718944.842666: $GPZDA,010225.00,12,01,2018,00,00*6B
2018-01-11 20:02:24 1515718944.842806: $GPGGA,010225,3946.9579,N,08404.9817,W,2,10,0.80,297.75,M,-33.324,M,,*7D
2018-01-11 20:02:24 1515718944.842873: $GPRMC,010225,A,3946.9579,N,08404.9817,W,0.0000,0.000,120118,,*35
2018-01-11 20:02:24 1515718944.842934: $GPGSA,A,3,7,8,9,11,16,23,27,28,30,138,,,4.0,0.8,3.5*3E
2018-01-11 20:02:25 1515718945.401916: $GPZDA,010226.00,12,01,2018,00,00*68
2018-01-11 20:02:25 1515718945.402132: $GPGGA,010226,3946.9579,N,08404.9817,W,2,10,0.80,297.75,M,-33.324,M,,*7E
2018-01-11 20:02:25 1515718945.402202: $GPRMC,010226,A,3946.9579,N,08404.9817,W,0.0000,0.000,120118,,*36
2018-01-11 20:02:25 1515718945.402264: $GPGSA,A,3,7,8,9,11,16,23,27,28,30,138,,,4.0,0.8,3.5*3E
2018-01-11 20:02:26 1515718946.390128: $GPZDA,010227.00,12,01,2018,00,00*69
2018-01-11 20:02:26 1515718946.390349: $GPGGA,010227,3946.9583,N,08404.9816,W,2,10,0.80,296.99,M,-33.324,M,,*78
2018-01-11 20:02:26 1515718946.390419: $GPRMC,010227,A,3946.9583,N,08404.9816,W,0.0000,0.000,120118,,*33
2018-01-11 20:02:26 1515718946.390500: $GPGSA,A,3,7,8,9,11,16,23,27,28,30,138,,,4.0,0.8,3.5*3E
2018-01-11 20:02:27 1515718947.728011: $GPGSV,3,1,11,07,52,313,43,08,71,144,46,09,50,234,43,11,17,169,42*70
2018-01-11 20:02:27 1515718947.728189: $GPGSV,3,2,11,16,26,058,46,23,33,190,46,27,50,057,50,28,11,255,36*75
2018-01-11 20:02:27 1515718947.728271: $GPGSV,3,3,11,30,26,304,28,26,01,070,00,138,38,213,45*71
2018-01-11 20:02:27 1515718947.841628: $GPZDA,010228.00,12,01,2018,00,00*66
2018-01-11 20:02:27 1515718947.841764: $GPGGA,010228,3946.9583,N,08404.9816,W,2,10,0.80,296.99,M,-33.324,M,,*77
2018-01-11 20:02:27 1515718947.841828: $GPRMC,010228,A,3946.9583,N,08404.9816,W,0.0000,0.000,120118,,*3C
2018-01-11 20:02:27 1515718947.841889: $GPGSA,A,3,7,8,9,11,16,23,27,28,30,138,,,4.0,0.8,3.5*3E
2018-01-11 20:02:28 1515718948.392524: $GPZDA,010229.00,12,01,2018,00,00*67
2018-01-11 20:02:28 1515718948.392693: $GPGGA,010229,3946.9579,N,08404.9817,W,2,10,0.80,297.75,M,-33.324,M,,*71
2018-01-11 20:02:28 1515718948.392758: $GPRMC,010229,A,3946.9579,N,08404.9817,W,0.0000,0.000,120118,,*39
2018-01-11 20:02:28 1515718948.392819: $GPGSA,A,3,7,8,9,11,16,23,27,28,30,138,,,4.0,0.8,3.5*3E
