2017-11-16 17:05:59 1510869959.842404: {"class":"VERSION","release":"3.17","rev":"3.17","proto_major":3,"proto_minor":12}
2017-11-16 17:05:59 1510869959.842888: {"class":"DEVICES","devices":[{"class":"DEVICE","path":"/dev/ttyUSB0","driver":"SiRF","subtype":"9\u0006GSD4e_4.1.2-P1_RPATCH.05-F-GPS-4R-1510281 11/03/2015 307","activated":"2017-11-16T22:05:59.555Z","flags":1,"native":1,"bps":4800,"parity":"N","stopbits":1,"cycle":1.00}]}
2017-11-16 17:05:59 1510869959.843041: {"class":"WATCH","enable":true,"json":false,"nmea":true,"raw":0,"scaled":false,"timing":false,"split24":false,"pps":false}
2017-11-16 17:06:00 1510869960.734178: $GPGSV,3,1,12,01,18,312,42,10,60,141,48,11,11,292,25,12,25,061,49*79
2017-11-16 17:06:00 1510869960.734367: $GPGSV,3,2,12,14,60,306,46,18,29,139,44,22,09,312,36,24,07,046,31*7B
2017-11-16 17:06:00 1510869960.734430: $GPGSV,3,3,12,25,35,105,46,31,43,217,47,32,70,352,50,138,38,213,44*49
2017-11-16 17:06:00 1510869960.847467: $GPZDA,220559.00,16,11,2017,00,00*6C
2017-11-16 17:06:00 1510869960.847625: $GPGGA,220559,3946.9579,N,08404.9818,W,2,12,0.80,312.00,M,-33.324,M,,*73
2017-11-16 17:06:00 1510869960.847685: $GPRMC,220559,A,3946.9579,N,08404.9818,W,0.0000,0.000,161117,,*3D
2017-11-16 17:06:00 1510869960.847742: $GPGSA,A,3,1,10,11,12,14,18,22,24,25,31,32,138,1.6,0.8,1.3*38
2017-11-16 17:06:01 1510869961.829955: $GPZDA,220600.00,16,11,2017,00,00*63
2017-11-16 17:06:01 1510869961.830147: $GPGGA,220600,3946.9579,N,08404.9818,W,2,12,0.80,312.00,M,-33.324,M,,*7C
2017-11-16 17:06:01 1510869961.830229: $GPRMC,220600,A,3946.9579,N,08404.9818,W,0.0000,0.000,161117,,*32
2017-11-16 17:06:01 1510869961.830288: $GPGSA,A,3,1,10,11,12,14,18,22,24,25,31,32,138,1.6,0.8,1.3*38
2017-11-16 17:06:01 1510869961.830342: $GPGBS,220600,2.07,M,2.72,M,7.42,M*3B
2017-11-16 17:06:02 1510869962.441955: $GPZDA,220601.00,16,11,2017,00,00*62
2017-11-16 17:06:02 1510869962.442114: $GPGGA,220601,3946.9579,N,08404.9818,W,2,12,0.80,312.00,M,-33.324,M,,*7D
2017-11-16 17:06:02 1510869962.442175: $GPRMC,220601,A,3946.9579,N,08404.9818,W,0.0000,0.000,161117,,*33
2017-11-16 17:06:02 1510869962.442231: $GPGSA,A,3,1,10,11,12,14,18,22,24,25,31,32,138,1.6,0.8,1.3*38
2017-11-16 17:06:03 1510869963.727799: $GPGSV,3,1,12,01,18,312,42,10,60,141,48,11,10,292,27,12,25,061,49*7A
2017-11-16 17:06:03 1510869963.727969: $GPGSV,3,2,12,14,60,306,46,18,29,139,44,22,09,312,31,24,07,046,31*7C
2017-11-16 17:06:03 1510869963.728031: $GPGSV,3,3,12,25,35,105,46,31,43,217,47,32,70,354,50,138,38,213,44*4F
2017-11-16 17:06:03 1510869963.839878: $GPZDA,220602.00,16,11,2017,00,00*61
2017-11-16 17:06:03 1510869963.840089: $GPGGA,220602,3946.9579,N,08404.9818,W,2,12,0.80,312.00,M,-33.324,M,,*7E
2017-11-16 17:06:03 1510869963.840179: $GPRMC,220602,A,3946.9579,N,08404.9818,W,0.0000,0.000,161117,,*30
2017-11-16 17:06:03 1510869963.840238: $GPGSA,A,3,1,10,11,12,14,18,22,24,25,31,32,138,1.6,0.8,1.3*38
2017-11-16 17:06:04 1510869964.391959: $GPZDA,220603.00,16,11,2017,00,00*60
2017-11-16 17:06:04 1510869964.392122: $GPGGA,220603,3946.9579,N,08404.9818,W,2,12,0.80,312.00,M,-33.324,M,,*7F
2017-11-16 17:06:04 1510869964.392182: $GPRMC,220603,A,3946.9579,N,08404.9818,W,0.0000,0.000,161117,,*31
2017-11-16 17:06:04 1510869964.392238: $GPGSA,A,3,1,10,11,12,14,18,22,24,25,31,32,138,1.6,0.8,1.3*38
2017-11-16 17:06:05 1510869965.396579: $GPZDA,220604.00,16,11,2017,00,00*67
2017-11-16 17:06:05 1510869965.396741: $GPGGA,220604,3946.9579,N,08404.9818,W,2,12,0.80,312.00,M,-33.324,M,,*78
2017-11-16 17:06:05 1510869965.396804: $GPRMC,220604,A,3946.9579,N,08404.9818,W,0.0000,0.000,161117,,*36
2017-11-16 17:06:05 1510869965.396860: $GPGSA,A,3,1,10,11,12,14,18,22,24,25,31,32,138,1.6,0.8,1.3*38
2017-11-16 17:06:06 1510869966.733222: $GPGSV,3,1,12,01,18,312,43,10,60,141,48,11,10,292,28,12,25,061,49*74
2017-11-16 17:06:06 1510869966.733415: $GPGSV,3,2,12,14,60,306,46,18,29,139,44,22,09,312,32,24,07,046,31*7F
2017-11-16 17:06:06 1510869966.733483: $GPGSV,3,3,12,25,35,105,45,31,43,217,47,32,70,354,50,138,38,213,43*4B
2017-11-16 17:06:06 1510869966.846482: $GPZDA,220605.00,16,11,2017,00,00*66
2017-11-16 17:06:06 1510869966.846694: $GPGGA,220605,3946.9579,N,08404.9818,W,2,12,0.80,312.00,M,-33.324,M,,*79
2017-11-16 17:06:06 1510869966.846757: $GPRMC,220605,A,3946.9579,N,08404.9818,W,0.0000,0.000,161117,,*37
2017-11-16 17:06:06 1510869966.846814: $GPGSA,A,3,1,10,11,12,14,18,22,24,25,31,32,138,1.6,0.8,1.3*38
2017-11-16 17:06:07 1510869967.397523: $GPZDA,220606.00,16,11,2017,00,00*65
2017-11-16 17:06:07 1510869967.397705: $GPGGA,220606,3946.9579,N,08404.9818,W,2,12,0.80,312.00,M,-33.324,M,,*7A
2017-11-16 17:06:07 1510869967.397769: $GPRMC,220606,A,3946.9579,N,08404.9818,W,0.0000,0.000,161117,,*34
2017-11-16 17:06:07 1510869967.397847: $GPGSA,A,3,1,10,11,12,14,18,22,24,25,31,32,138,1.6,0.8,1.3*38
2017-11-16 17:06:08 1510869968.398618: $GPZDA,220607.00,16,11,2017,00,00*64
2017-11-16 17:06:08 1510869968.398790: $GPGGA,220607,3946.9579,N,08404.9818,W,2,12,0.80,312.00,M,-33.324,M,,*7B
2017-11-16 17:06:08 1510869968.398851: $GPRMC,220607,A,3946.9579,N,08404.9818,W,0.0000,0.000,161117,,*35
2017-11-16 17:06:08 1510869968.398907: $GPGSA,A,3,1,10,11,12,14,18,22,24,25,31,32,138,1.6,0.8,1.3*38
2017-11-16 17:06:09 1510869969.732798: $GPGSV,3,1,12,01,18,312,44,10,60,141,48,11,10,292,29,12,25,061,48*73
2017-11-16 17:06:09 1510869969.732964: $GPGSV,3,2,12,14,60,306,46,18,29,139,44,22,09,312,33,24,07,046,31*7E
2017-11-16 17:06:09 1510869969.733024: $GPGSV,3,3,12,25,35,105,46,31,43,217,47,32,70,354,50,138,38,213,44*4F
2017-11-16 17:06:09 1510869969.846176: $GPZDA,220608.00,16,11,2017,00,00*6B
2017-11-16 17:06:09 1510869969.846346: $GPGGA,220608,3946.9579,N,08404.9818,W,2,12,0.80,312.00,M,-33.324,M,,*74
2017-11-16 17:06:09 1510869969.846410: $GPRMC,220608,A,3946.9579,N,08404.9818,W,0.0000,0.000,161117,,*3A
2017-11-16 17:06:09 1510869969.846466: $GPGSA,A,3,1,10,11,12,14,18,22,24,25,31,32,138,1.6,0.8,1.3*38
