2017-11-16 16:52:36 1510869156.400411: {"class":"VERSION","release":"3.17","rev":"3.17","proto_major":3,"proto_minor":12}
2017-11-16 16:52:36 1510869156.400888: {"class":"DEVICES","devices":[{"class":"DEVICE","path":"/dev/ttyUSB0","driver":"SiRF","subtype":"9\u0006GSD4e_4.1.2-P1_RPATCH.05-F-GPS-4R-1510281 11/03/2015 307","activated":"2017-11-16T21:52:36.343Z","flags":1,"native":1,"bps":4800,"parity":"N","stopbits":1,"cycle":1.00}]}
2017-11-16 16:52:36 1510869156.401013: {"class":"WATCH","enable":true,"json":false,"nmea":true,"raw":0,"scaled":false,"timing":false,"split24":false,"pps":false}
2017-11-16 16:52:36 1510869156.519964: $GPZDA,215235.00,16,11,2017,00,00*67
2017-11-16 16:52:36 1510869156.520125: $GPGGA,215235,3946.9581,N,08404.9830,W,2,12,0.80,308.27,M,-33.324,M,,*7B
2017-11-16 16:52:36 1510869156.520184: $GPRMC,215235,A,3946.9581,N,08404.9830,W,0.0000,0.000,161117,,*3B
2017-11-16 16:52:36 1510869156.520240: $GPGSA,A,3,1,10,11,12,14,18,24,25,31,32,22,138,1.6,0.8,1.3*38
2017-11-16 16:52:37 1510869157.444573: $GPZDA,215236.00,16,11,2017,00,00*64
2017-11-16 16:52:37 1510869157.444735: $GPGGA,215236,3946.9581,N,08404.9830,W,2,12,0.80,308.27,M,-33.324,M,,*78
2017-11-16 16:52:37 1510869157.444796: $GPRMC,215236,A,3946.9581,N,08404.9830,W,0.0000,0.000,161117,,*38
2017-11-16 16:52:37 1510869157.444871: $GPGSA,A,3,1,10,11,12,14,18,24,25,31,32,22,138,1.6,0.8,1.3*38
2017-11-16 16:52:38 1510869158.796297: $GPGSV,3,1,12,01,15,316,29,10,67,135,49,11,11,298,30,12,25,069,47*70
2017-11-16 16:52:38 1510869158.796482: $GPGSV,3,2,12,14,56,295,46,18,35,136,41,24,12,045,41,25,31,112,42*7F
2017-11-16 16:52:38 1510869158.796543: $GPGSV,3,3,12,31,37,213,46,32,68,334,51,22,04,310,30,138,38,213,45*44
2017-11-16 16:52:38 1510869158.909588: $GPZDA,215237.00,16,11,2017,00,00*65
2017-11-16 16:52:38 1510869158.909764: $GPGGA,215237,3946.9581,N,08404.9830,W,2,12,0.80,308.27,M,-33.324,M,,*79
2017-11-16 16:52:38 1510869158.909826: $GPRMC,215237,A,3946.9581,N,08404.9830,W,0.0000,0.000,161117,,*39
2017-11-16 16:52:38 1510869158.909882: $GPGSA,A,3,1,10,11,12,14,18,24,25,31,32,22,138,1.6,0.8,1.3*38
2017-11-16 16:52:39 1510869159.455497: $GPZDA,215238.00,16,11,2017,00,00*6A
2017-11-16 16:52:39 1510869159.455661: $GPGGA,215238,3946.9581,N,08404.9830,W,2,12,0.80,308.27,M,-33.324,M,,*76
2017-11-16 16:52:39 1510869159.455721: $GPRMC,215238,A,3946.9581,N,08404.9830,W,0.0000,0.000,161117,,*36
2017-11-16 16:52:39 1510869159.455777: $GPGSA,A,3,1,10,11,12,14,18,24,25,31,32,22,138,1.6,0.8,1.3*38
2017-11-16 16:52:40 1510869160.440053: $GPZDA,215239.00,16,11,2017,00,00*6B
2017-11-16 16:52:40 1510869160.440232: $GPGGA,215239,3946.9581,N,08404.9830,W,2,12,0.80,308.27,M,-33.324,M,,*77
2017-11-16 16:52:40 1510869160.440293: $GPRMC,215239,A,3946.9581,N,08404.9830,W,0.0000,0.000,161117,,*37
2017-11-16 16:52:40 1510869160.440350: $GPGSA,A,3,1,10,11,12,14,18,24,25,31,32,22,138,1.6,0.8,1.3*38
2017-11-16 16:52:41 1510869161.796755: $GPGSV,3,1,12,01,15,316,28,10,67,135,49,11,11,298,30,12,25,069,47*71
2017-11-16 16:52:41 1510869161.796925: $GPGSV,3,2,12,14,56,295,46,18,35,136,41,24,12,045,41,25,31,112,42*7F
2017-11-16 16:52:41 1510869161.796985: $GPGSV,3,3,12,31,37,213,46,32,68,334,51,22,04,310,00,138,38,213,44*46
2017-11-16 16:52:41 1510869161.910013: $GPZDA,215240.00,16,11,2017,00,00*65
2017-11-16 16:52:41 1510869161.910171: $GPGGA,215240,3946.9581,N,08404.9830,W,2,11,0.80,308.27,M,-33.324,M,,*7A
2017-11-16 16:52:41 1510869161.910232: $GPRMC,215240,A,3946.9581,N,08404.9830,W,0.0000,0.000,161117,,*39
2017-11-16 16:52:41 1510869161.910288: $GPGSA,A,3,1,10,11,12,14,18,24,25,31,32,138,,1.6,0.8,1.3*38
2017-11-16 16:52:42 1510869162.445928: $GPZDA,215241.00,16,11,2017,00,00*64
2017-11-16 16:52:42 1510869162.446092: $GPGGA,215241,3946.9581,N,08404.9830,W,2,11,0.80,308.27,M,-33.324,M,,*7B
2017-11-16 16:52:42 1510869162.446153: $GPRMC,215241,A,3946.9581,N,08404.9830,W,0.0000,0.000,161117,,*38
2017-11-16 16:52:42 1510869162.446209: $GPGSA,A,3,1,10,11,12,14,18,24,25,31,32,138,,1.6,0.8,1.3*38
2017-11-16 16:52:43 1510869163.462216: $GPZDA,215242.00,16,11,2017,00,00*67
2017-11-16 16:52:43 1510869163.462448: $GPGGA,215242,3946.9581,N,08404.9830,W,2,11,0.80,308.27,M,-33.324,M,,*78
2017-11-16 16:52:43 1510869163.462512: $GPRMC,215242,A,3946.9581,N,08404.9830,W,0.0000,0.000,161117,,*3B
2017-11-16 16:52:43 1510869163.462586: $GPGSA,A,3,1,10,11,12,14,18,24,25,31,32,138,,1.6,0.8,1.3*38
2017-11-16 16:52:44 1510869164.776312: $GPGSV,3,1,12,01,15,316,28,10,67,135,49,11,11,298,30,12,25,069,47*71
2017-11-16 16:52:44 1510869164.776534: $GPGSV,3,2,12,14,56,295,45,18,35,136,41,24,12,045,40,25,31,112,42*7D
2017-11-16 16:52:44 1510869164.776599: $GPGSV,3,3,12,31,37,213,46,32,68,334,50,22,04,310,31,138,38,213,44*45
2017-11-16 16:52:44 1510869164.891805: $GPZDA,215243.00,16,11,2017,00,00*66
2017-11-16 16:52:44 1510869164.892121: $GPGGA,215243,3946.9581,N,08404.9830,W,2,12,0.80,308.27,M,-33.324,M,,*7A
2017-11-16 16:52:44 1510869164.892492: $GPRMC,215243,A,3946.9581,N,08404.9830,W,0.0000,0.000,161117,,*3A
2017-11-16 16:52:44 1510869164.892620: $GPGSA,A,3,1,10,11,12,14,18,24,25,31,32,22,138,1.6,0.8,1.3*38
2017-11-16 16:52:45 1510869165.446054: $GPZDA,215244.00,16,11,2017,00,00*61
2017-11-16 16:52:45 1510869165.446219: $GPGGA,215244,3946.9581,N,08404.9830,W,2,12,0.80,308.27,M,-33.324,M,,*7D
2017-11-16 16:52:45 1510869165.446279: $GPRMC,215244,A,3946.9581,N,08404.9830,W,0.0000,0.000,161117,,*3D
2017-11-16 16:52:45 1510869165.446335: $GPGSA,A,3,1,10,11,12,14,18,24,25,31,32,22,138,1.6,0.8,1.3*38
