2017-12-01 15:29:47 1512160187.757246: {"class":"VERSION","release":"3.16","rev":"3.16-4","proto_major":3,"proto_minor":11}
2017-12-01 15:29:47 1512160187.757616: {"class":"DEVICES","devices":[{"class":"DEVICE","path":"/dev/ttyUSB0","driver":"SiRF","subtype":"9\u0006GSD4e_4.1.2-P1_RPATCH.05-F-GPS-4R-1510281 11/03/2015 307","activated":"2017-12-01T20:29:47.513Z","flags":1,"native":1,"bps":4800,"parity":"N","stopbits":1,"cycle":1.00}]}
2017-12-01 15:29:47 1512160187.757728: {"class":"WATCH","enable":true,"json":false,"nmea":true,"raw":0,"scaled":false,"timing":false,"split24":false,"pps":false}
2017-12-01 15:29:48 1512160188.371069: $GPZDA,202949.00,01,12,2017,00,00*64
2017-12-01 15:29:48 1512160188.371240: $GPGGA,202949,3946.9561,N,08404.9823,W,2,11,0.80,306.55,M,-33.324,M,,*79
2017-12-01 15:29:48 1512160188.371308: $GPRMC,202949,A,3946.9561,N,08404.9823,W,0.0000,0.000,011217,,*34
2017-12-01 15:29:48 1512160188.371420: $GPGSA,A,3,1,10,11,12,14,18,24,25,31,32,138,,2.0,0.8,1.5*3B
2017-12-01 15:29:49 1512160189.708731: $GPGSV,3,1,11,01,10,322,41,10,77,118,47,11,10,307,30,12,24,079,43*7D
2017-12-01 15:29:49 1512160189.708927: $GPGSV,3,2,11,14,50,282,42,18,44,130,46,24,20,045,41,25,25,121,46*7F
2017-12-01 15:29:49 1512160189.708995: $GPGSV,3,3,11,31,28,208,46,32,65,312,48,138,38,213,45*77
2017-12-01 15:29:49 1512160189.822318: $GPZDA,202950.00,01,12,2017,00,00*6C
2017-12-01 15:29:49 1512160189.822493: $GPGGA,202950,3946.9561,N,08404.9823,W,2,11,0.80,306.55,M,-33.324,M,,*71
2017-12-01 15:29:49 1512160189.822562: $GPRMC,202950,A,3946.9561,N,08404.9823,W,0.0000,0.000,011217,,*3C
2017-12-01 15:29:49 1512160189.822623: $GPGSA,A,3,1,10,11,12,14,18,24,25,31,32,138,,2.0,0.8,1.5*3B
2017-12-01 15:29:50 1512160190.373088: $GPZDA,202951.00,01,12,2017,00,00*6D
2017-12-01 15:29:50 1512160190.373247: $GPGGA,202951,3946.9561,N,08404.9823,W,2,11,0.80,306.55,M,-33.324,M,,*70
2017-12-01 15:29:50 1512160190.373314: $GPRMC,202951,A,3946.9561,N,08404.9823,W,0.0000,0.000,011217,,*3D
2017-12-01 15:29:50 1512160190.373374: $GPGSA,A,3,1,10,11,12,14,18,24,25,31,32,138,,2.0,0.8,1.5*3B
2017-12-01 15:29:51 1512160191.372832: $GPZDA,202952.00,01,12,2017,00,00*6E
2017-12-01 15:29:51 1512160191.372983: $GPGGA,202952,3946.9561,N,08404.9823,W,2,11,0.80,306.55,M,-33.324,M,,*73
2017-12-01 15:29:51 1512160191.373053: $GPRMC,202952,A,3946.9561,N,08404.9823,W,0.0000,0.000,011217,,*3E
2017-12-01 15:29:51 1512160191.373114: $GPGSA,A,3,1,10,11,12,14,18,24,25,31,32,138,,2.0,0.8,1.5*3B
2017-12-01 15:29:52 1512160192.723397: $GPGSV,3,1,11,01,10,322,41,10,77,118,47,11,10,307,31,12,24,079,44*7B
2017-12-01 15:29:52 1512160192.723581: $GPGSV,3,2,11,14,50,282,42,18,44,130,46,24,20,045,42,25,25,121,45*7F
2017-12-01 15:29:52 1512160192.723647: $GPGSV,3,3,11,31,28,208,46,32,65,312,48,138,38,213,45*77
2017-12-01 15:29:52 1512160192.836931: $GPZDA,202953.00,01,12,2017,00,00*6F
2017-12-01 15:29:52 1512160192.837103: $GPGGA,202953,3946.9561,N,08404.9823,W,2,11,0.80,306.55,M,-33.324,M,,*72
2017-12-01 15:29:52 1512160192.837172: $GPRMC,202953,A,3946.9561,N,08404.9823,W,0.0000,0.000,011217,,*3F
2017-12-01 15:29:52 1512160192.837232: $GPGSA,A,3,1,10,11,12,14,18,24,25,31,32,138,,2.0,0.8,1.5*3B
2017-12-01 15:29:53 1512160193.388968: $GPZDA,202954.00,01,12,2017,00,00*68
2017-12-01 15:29:53 1512160193.389140: $GPGGA,202954,3946.9561,N,08404.9823,W,2,11,0.80,306.55,M,-33.324,M,,*75
2017-12-01 15:29:53 1512160193.389207: $GPRMC,202954,A,3946.9561,N,08404.9823,W,0.0000,0.000,011217,,*38
2017-12-01 15:29:53 1512160193.389289: $GPGSA,A,3,1,10,11,12,14,18,24,25,31,32,138,,2.0,0.8,1.5*3B
2017-12-01 15:29:54 1512160194.389685: $GPZDA,202955.00,01,12,2017,00,00*69
2017-12-01 15:29:54 1512160194.389861: $GPGGA,202955,3946.9561,N,08404.9823,W,2,11,0.80,306.55,M,-33.324,M,,*74
2017-12-01 15:29:54 1512160194.389929: $GPRMC,202955,A,3946.9561,N,08404.9823,W,0.0000,0.000,011217,,*39
2017-12-01 15:29:54 1512160194.389990: $GPGSA,A,3,1,10,11,12,14,18,24,25,31,32,138,,2.0,0.8,1.5*3B
2017-12-01 15:29:55 1512160195.723791: $GPGSV,3,1,11,01,10,322,42,10,77,118,47,11,10,307,32,12,24,079,43*7C
2017-12-01 15:29:55 1512160195.724029: $GPGSV,3,2,11,14,50,282,42,18,44,130,47,24,20,045,42,25,25,121,45*7E
2017-12-01 15:29:55 1512160195.724098: $GPGSV,3,3,11,31,28,208,47,32,65,312,48,138,38,213,46*75
2017-12-01 15:29:55 1512160195.837665: $GPZDA,202956.00,01,12,2017,00,00*6A
2017-12-01 15:29:55 1512160195.837853: $GPGGA,202956,3946.9561,N,08404.9823,W,2,11,0.80,306.55,M,-33.324,M,,*77
2017-12-01 15:29:55 1512160195.837925: $GPRMC,202956,A,3946.9561,N,08404.9823,W,0.0000,0.000,011217,,*3A
2017-12-01 15:29:55 1512160195.837990: $GPGSA,A,3,1,10,11,12,14,18,24,25,31,32,138,,2.0,0.8,1.5*3B
2017-12-01 15:29:56 1512160196.385933: $GPZDA,202957.00,01,12,2017,00,00*6B
2017-12-01 15:29:56 1512160196.386102: $GPGGA,202957,3946.9561,N,08404.9823,W,2,11,0.80,306.55,M,-33.324,M,,*76
2017-12-01 15:29:56 1512160196.386170: $GPRMC,202957,A,3946.9561,N,08404.9823,W,0.0000,0.000,011217,,*3B
2017-12-01 15:29:56 1512160196.386231: $GPGSA,A,3,1,10,11,12,14,18,24,25,31,32,138,,2.0,0.8,1.5*3B
2017-12-01 15:29:57 1512160197.372762: $GPZDA,202958.00,01,12,2017,00,00*64
2017-12-01 15:29:57 1512160197.372932: $GPGGA,202958,3946.9561,N,08404.9823,W,2,11,0.80,306.55,M,-33.324,M,,*79
2017-12-01 15:29:57 1512160197.372999: $GPRMC,202958,A,3946.9561,N,08404.9823,W,0.0000,0.000,011217,,*34
2017-12-01 15:29:57 1512160197.373062: $GPGSA,A,3,1,10,11,12,14,18,24,25,31,32,138,,2.0,0.8,1.5*3B
2017-12-01 15:29:58 1512160198.709984: $GPGSV,3,1,11,01,10,322,42,10,77,118,47,11,10,307,34,12,24,079,43*7A
2017-12-01 15:29:58 1512160198.710697: $GPGSV,3,2,11,14,50,282,42,18,44,130,46,24,20,045,42,25,25,121,46*7C
2017-12-01 15:29:58 1512160198.710796: $GPGSV,3,3,11,31,28,208,47,32,65,312,48,138,38,213,45*76
2017-12-01 15:29:58 1512160198.823079: $GPZDA,202959.00,01,12,2017,00,00*65
2017-12-01 15:29:58 1512160198.823258: $GPGGA,202959,3946.9561,N,08404.9823,W,2,11,0.80,306.55,M,-33.324,M,,*78
2017-12-01 15:29:58 1512160198.823327: $GPRMC,202959,A,3946.9561,N,08404.9823,W,0.0000,0.000,011217,,*35
2017-12-01 15:29:58 1512160198.823389: $GPGSA,A,3,1,10,11,12,14,18,24,25,31,32,138,,2.0,0.8,1.5*3B
2017-12-01 15:29:59 1512160199.448345: $GPZDA,203000.00,01,12,2017,00,00*61
2017-12-01 15:29:59 1512160199.448530: $GPGGA,203000,3946.9561,N,08404.9823,W,2,11,0.80,306.55,M,-33.324,M,,*7C
2017-12-01 15:29:59 1512160199.448597: $GPRMC,203000,A,3946.9561,N,08404.9823,W,0.0000,0.000,011217,,*31
2017-12-01 15:29:59 1512160199.448660: $GPGSA,A,3,1,10,11,12,14,18,24,25,31,32,138,,2.0,0.8,1.5*3B
2017-12-01 15:30:00 1512160200.387988: $GPZDA,203001.00,01,12,2017,00,00*60
2017-12-01 15:30:00 1512160200.388162: $GPGGA,203001,3946.9561,N,08404.9823,W,2,11,0.80,306.55,M,-33.324,M,,*7D
2017-12-01 15:30:00 1512160200.388229: $GPRMC,203001,A,3946.9561,N,08404.9823,W,0.0000,0.000,011217,,*30
2017-12-01 15:30:00 1512160200.388292: $GPGSA,A,3,1,10,11,12,14,18,24,25,31,32,138,,2.0,0.8,1.5*3B
2017-12-01 15:30:01 1512160201.710046: $GPGSV,3,1,11,01,10,322,43,10,77,118,47,11,10,307,35,12,24,079,43*7A
2017-12-01 15:30:01 1512160201.710229: $GPGSV,3,2,11,14,50,282,42,18,44,130,46,24,20,045,42,25,25,121,46*7C
2017-12-01 15:30:01 1512160201.710295: $GPGSV,3,3,11,31,28,208,47,32,65,312,48,138,38,213,46*75
2017-12-01 15:30:01 1512160201.823413: $GPZDA,203002.00,01,12,2017,00,00*63
2017-12-01 15:30:01 1512160201.823579: $GPGGA,203002,3946.9561,N,08404.9823,W,2,11,0.80,306.55,M,-33.324,M,,*7E
2017-12-01 15:30:01 1512160201.823682: $GPRMC,203002,A,3946.9561,N,08404.9823,W,0.0000,0.000,011217,,*33
2017-12-01 15:30:01 1512160201.823745: $GPGSA,A,3,1,10,11,12,14,18,24,25,31,32,138,,2.0,0.8,1.5*3B
2017-12-01 15:30:02 1512160202.388410: $GPZDA,203003.00,01,12,2017,00,00*62
2017-12-01 15:30:02 1512160202.388577: $GPGGA,203003,3946.9561,N,08404.9823,W,2,11,0.80,306.55,M,-33.324,M,,*7F
2017-12-01 15:30:02 1512160202.388668: $GPRMC,203003,A,3946.9561,N,08404.9823,W,0.0000,0.000,011217,,*32
2017-12-01 15:30:02 1512160202.388731: $GPGSA,A,3,1,10,11,12,14,18,24,25,31,32,138,,2.0,0.8,1.5*3B
2017-12-01 15:30:03 1512160203.388207: $GPZDA,203004.00,01,12,2017,00,00*65
2017-12-01 15:30:03 1512160203.388410: $GPGGA,203004,3946.9565,N,08404.9823,W,2,11,0.80,307.19,M,-33.324,M,,*75
2017-12-01 15:30:03 1512160203.388477: $GPRMC,203004,A,3946.9565,N,08404.9823,W,0.0000,0.000,011217,,*31
2017-12-01 15:30:03 1512160203.388570: $GPGSA,A,3,1,10,11,12,14,18,24,25,31,32,138,,2.0,0.8,1.5*3B
2017-12-01 15:30:04 1512160204.724169: $GPGSV,3,1,11,01,10,322,44,10,77,118,48,11,10,307,36,12,24,079,43*71
2017-12-01 15:30:04 1512160204.724335: $GPGSV,3,2,11,14,50,282,42,18,44,130,46,24,20,045,42,25,25,121,46*7C
2017-12-01 15:30:04 1512160204.724403: $GPGSV,3,3,11,31,28,208,47,32,65,312,48,138,38,213,46*75
2017-12-01 15:30:04 1512160204.837944: $GPZDA,203005.00,01,12,2017,00,00*64
2017-12-01 15:30:04 1512160204.838114: $GPGGA,203005,3946.9565,N,08404.9823,W,2,11,0.80,307.19,M,-33.324,M,,*74
2017-12-01 15:30:04 1512160204.838181: $GPRMC,203005,A,3946.9565,N,08404.9823,W,0.0000,0.000,011217,,*30
2017-12-01 15:30:04 1512160204.838241: $GPGSA,A,3,1,10,11,12,14,18,24,25,31,32,138,,2.0,0.8,1.5*3B
2017-12-01 15:30:05 1512160205.372167: $GPZDA,203006.00,01,12,2017,00,00*67
2017-12-01 15:30:05 1512160205.372352: $GPGGA,203006,3946.9565,N,08404.9823,W,2,11,0.80,307.19,M,-33.324,M,,*77
2017-12-01 15:30:05 1512160205.372421: $GPRMC,203006,A,3946.9565,N,08404.9823,W,0.0000,0.000,011217,,*33
2017-12-01 15:30:05 1512160205.372481: $GPGSA,A,3,1,10,11,12,14,18,24,25,31,32,138,,2.0,0.8,1.5*3B
2017-12-01 15:30:06 1512160206.386782: $GPZDA,203007.00,01,12,2017,00,00*66
2017-12-01 15:30:06 1512160206.386952: $GPGGA,203007,3946.9565,N,08404.9823,W,2,11,0.80,307.19,M,-33.324,M,,*76
2017-12-01 15:30:06 1512160206.387019: $GPRMC,203007,A,3946.9565,N,08404.9823,W,0.0000,0.000,011217,,*32
2017-12-01 15:30:06 1512160206.387080: $GPGSA,A,3,1,10,11,12,14,18,24,25,31,32,138,,2.0,0.8,1.5*3B
2017-12-01 15:30:07 1512160207.708764: $GPGSV,3,1,11,01,10,322,44,10,77,118,48,11,10,307,37,12,24,079,44*77
2017-12-01 15:30:07 1512160207.708949: $GPGSV,3,2,11,14,50,282,42,18,44,130,46,24,20,045,42,25,25,121,46*7C
2017-12-01 15:30:07 1512160207.709016: $GPGSV,3,3,11,31,28,208,47,32,65,312,48,138,38,213,44*77
