2017-12-01 12:24:51 1512149091.824964: {"class":"VERSION","release":"3.16","rev":"3.16-4","proto_major":3,"proto_minor":11}
2017-12-01 12:24:51 1512149091.825353: {"class":"DEVICES","devices":[{"class":"DEVICE","path":"/dev/ttyUSB0","driver":"SiRF","subtype":"9\u0006GSD4e_4.1.2-P1_RPATCH.05-F-GPS-4R-1510281 11/03/2015 307","activated":"2017-12-01T17:24:51.825Z","flags":1,"native":1,"bps":4800,"parity":"N","stopbits":1,"cycle":1.00}]}
2017-12-01 12:24:51 1512149091.825519: {"class":"WATCH","enable":true,"json":false,"nmea":true,"raw":0,"scaled":false,"timing":false,"split24":false,"pps":false}
2017-12-01 12:24:52 1512149092.412895: $GPZDA,172453.00,01,12,2017,00,00*66
2017-12-01 12:24:52 1512149092.413058: $GPGGA,172453,3946.9583,N,08404.9834,W,2,12,0.80,303.21,M,-33.324,M,,*74
2017-12-01 12:24:52 1512149092.413125: $GPRMC,172453,A,3946.9583,N,08404.9834,W,0.0000,0.000,011217,,*3C
2017-12-01 12:24:52 1512149092.413187: $GPGSA,A,3,10,13,15,18,20,21,24,27,5,29,32,138,2.0,0.8,1.5*35
2017-12-01 12:24:53 1512149093.337366: $GPZDA,172454.00,01,12,2017,00,00*61
2017-12-01 12:24:53 1512149093.337540: $GPGGA,172454,3946.9583,N,08404.9834,W,2,12,0.80,303.21,M,-33.324,M,,*73
2017-12-01 12:24:53 1512149093.337626: $GPRMC,172454,A,3946.9583,N,08404.9834,W,0.0000,0.000,011217,,*3B
2017-12-01 12:24:53 1512149093.337687: $GPGSA,A,3,10,13,15,18,20,21,24,27,5,29,32,138,2.0,0.8,1.5*35
2017-12-01 12:24:54 1512149094.674411: $GPGSV,3,1,12,10,26,285,36,13,26,045,45,15,58,051,47,18,57,304,47*70
2017-12-01 12:24:54 1512149094.674603: $GPGSV,3,2,12,20,49,075,46,21,79,250,42,24,36,136,48,27,17,310,24*74
2017-12-01 12:24:54 1512149094.674688: $GPGSV,3,3,12,05,01,090,20,29,07,189,25,32,04,226,25,138,38,213,46*49
2017-12-01 12:24:54 1512149094.787734: $GPZDA,172455.00,01,12,2017,00,00*60
2017-12-01 12:24:54 1512149094.787897: $GPGGA,172455,3946.9583,N,08404.9834,W,2,12,0.80,303.21,M,-33.324,M,,*72
2017-12-01 12:24:54 1512149094.787981: $GPRMC,172455,A,3946.9583,N,08404.9834,W,0.0000,0.000,011217,,*3A
2017-12-01 12:24:54 1512149094.788043: $GPGSA,A,3,10,13,15,18,20,21,24,27,5,29,32,138,2.0,0.8,1.5*35
2017-12-01 12:24:55 1512149095.339010: $GPZDA,172456.00,01,12,2017,00,00*63
2017-12-01 12:24:55 1512149095.339204: $GPGGA,172456,3946.9583,N,08404.9834,W,2,12,1.00,303.21,M,-33.324,M,,*78
2017-12-01 12:24:55 1512149095.339273: $GPRMC,172456,A,3946.9583,N,08404.9834,W,0.0000,0.000,011217,,*39
2017-12-01 12:24:55 1512149095.339334: $GPGSA,A,3,10,13,15,18,20,21,24,27,5,29,32,138,2.0,1.0,1.5*3C
2017-12-01 12:24:56 1512149096.346009: $GPZDA,172457.00,01,12,2017,00,00*62
2017-12-01 12:24:56 1512149096.346200: $GPGGA,172457,3946.9583,N,08404.9834,W,2,12,1.20,303.21,M,-33.324,M,,*7B
2017-12-01 12:24:56 1512149096.346267: $GPRMC,172457,A,3946.9583,N,08404.9834,W,0.0000,0.000,011217,,*38
2017-12-01 12:24:56 1512149096.346329: $GPGSA,A,3,10,13,15,18,20,21,24,27,5,29,32,138,2.0,1.2,1.5*3E
2017-12-01 12:24:57 1512149097.672428: $GPGSV,3,1,12,10,26,285,38,13,26,045,44,15,58,051,47,18,57,304,47*7F
2017-12-01 12:24:57 1512149097.672617: $GPGSV,3,2,12,20,49,075,46,21,79,250,42,24,36,136,48,27,17,310,32*73
2017-12-01 12:24:57 1512149097.672701: $GPGSV,3,3,12,05,01,090,00,29,07,189,17,32,04,226,25,138,38,213,46*4A
2017-12-01 12:24:57 1512149097.785938: $GPZDA,172458.00,01,12,2017,00,00*6D
2017-12-01 12:24:57 1512149097.786119: $GPGGA,172458,3946.9583,N,08404.9834,W,2,11,0.80,303.21,M,-33.324,M,,*7C
2017-12-01 12:24:57 1512149097.786186: $GPRMC,172458,A,3946.9583,N,08404.9834,W,0.0000,0.000,011217,,*37
2017-12-01 12:24:57 1512149097.786247: $GPGSA,A,3,10,13,15,18,20,21,24,27,29,32,138,,2.0,0.8,1.5*00
2017-12-01 12:24:58 1512149098.339356: $GPZDA,172459.00,01,12,2017,00,00*6C
2017-12-01 12:24:58 1512149098.339550: $GPGGA,172459,3946.9583,N,08404.9834,W,2,11,0.80,303.21,M,-33.324,M,,*7D
2017-12-01 12:24:58 1512149098.339618: $GPRMC,172459,A,3946.9583,N,08404.9834,W,0.0000,0.000,011217,,*36
2017-12-01 12:24:58 1512149098.339679: $GPGSA,A,3,10,13,15,18,20,21,24,27,29,32,138,,2.0,0.8,1.5*00
2017-12-01 12:24:59 1512149099.338928: $GPZDA,172500.00,01,12,2017,00,00*61
2017-12-01 12:24:59 1512149099.339171: $GPGGA,172500,3946.9583,N,08404.9834,W,2,11,0.80,303.21,M,-33.324,M,,*70
2017-12-01 12:24:59 1512149099.339243: $GPRMC,172500,A,3946.9583,N,08404.9834,W,0.0000,0.000,011217,,*3B
2017-12-01 12:24:59 1512149099.339304: $GPGSA,A,3,10,13,15,18,20,21,24,27,29,32,138,,2.0,0.8,1.5*00
2017-12-01 12:25:00 1512149100.670660: $GPGSV,3,1,12,10,26,285,38,13,26,045,44,15,58,051,47,18,57,304,47*7F
2017-12-01 12:25:00 1512149100.670843: $GPGSV,3,2,12,20,49,075,46,21,79,250,42,24,36,136,48,27,17,310,00*72
2017-12-01 12:25:00 1512149100.670910: $GPGSV,3,3,12,05,01,090,00,29,07,189,19,32,04,226,25,138,38,213,47*45
2017-12-01 12:25:00 1512149100.784425: $GPZDA,172501.00,01,12,2017,00,00*60
2017-12-01 12:25:00 1512149100.784590: $GPGGA,172501,3946.9583,N,08404.9834,W,2,10,1.00,303.21,M,-33.324,M,,*79
2017-12-01 12:25:00 1512149100.784657: $GPRMC,172501,A,3946.9583,N,08404.9834,W,0.0000,0.000,011217,,*3A
2017-12-01 12:25:00 1512149100.784718: $GPGSA,A,3,10,13,15,18,20,21,24,29,32,138,,,2.0,1.0,1.5*0C
2017-12-01 12:25:01 1512149101.341521: $GPZDA,172502.00,01,12,2017,00,00*63
2017-12-01 12:25:01 1512149101.341688: $GPGGA,172502,3946.9583,N,08404.9834,W,2,10,1.00,303.21,M,-33.324,M,,*7A
2017-12-01 12:25:01 1512149101.341754: $GPRMC,172502,A,3946.9583,N,08404.9834,W,0.0000,0.000,011217,,*39
2017-12-01 12:25:01 1512149101.341816: $GPGSA,A,3,10,13,15,18,20,21,24,29,32,138,,,2.0,1.0,1.5*0C
