2017-11-15 19:42:00 1510792920.855875: {"class":"VERSION","release":"3.17","rev":"3.17","proto_major":3,"proto_minor":12}
2017-11-15 19:42:00 1510792920.856326: {"class":"DEVICES","devices":[{"class":"DEVICE","path":"/dev/ttyUSB0","driver":"SiRF","subtype":"9\u0006GSD4e_4.1.2-P1_RPATCH.05-F-GPS-4R-1510281 11/03/2015 307","activated":"2017-11-16T00:42:00.815Z","flags":1,"native":1,"bps":4800,"parity":"N","stopbits":1,"cycle":1.00}]}
2017-11-15 19:42:00 1510792920.856536: {"class":"WATCH","enable":true,"json":false,"nmea":true,"raw":0,"scaled":false,"timing":false,"split24":false,"pps":false}
2017-11-15 19:42:01 1510792921.402604: $GPZDA,004200.00,16,11,2017,00,00*63
2017-11-15 19:42:01 1510792921.402785: $GPGGA,004200,3946.9565,N,08404.9422,W,1,04,2.20,307.12,M,-33.324,M,,*7F
2017-11-15 19:42:01 1510792921.402868: $GPRMC,004200,A,3946.9565,N,08404.9422,W,0.4583,89.998,161117,,*09
2017-11-15 19:42:01 1510792921.402924: $GPGSA,A,3,32,16,26,31,,,,,,,,,3.4,2.2,2.9*3E
2017-11-15 19:42:02 1510792922.343456: $GPZDA,004201.00,16,11,2017,00,00*62
2017-11-15 19:42:02 1510792922.343620: $GPGGA,004201,3946.9565,N,08404.9422,W,1,04,2.20,307.12,M,-33.324,M,,*7E
2017-11-15 19:42:02 1510792922.343705: $GPRMC,004201,A,3946.9565,N,08404.9422,W,0.2758,128.233,161117,,*3A
2017-11-15 19:42:02 1510792922.343763: $GPGSA,A,3,32,16,26,31,,,,,,,,,3.4,2.2,2.9*3E
2017-11-15 19:42:03 1510792923.664249: $GPGSV,3,1,12,32,31,112,11,16,28,190,24,22,50,261,11,26,59,169,21*7F
2017-11-15 19:42:03 1510792923.664415: $GPGSV,3,2,12,14,51,100,09,31,63,033,13,29,12,066,11,03,42,292,00*73
2017-11-15 19:42:03 1510792923.664474: $GPGSV,3,3,12,23,15,303,00,25,12,039,00,01,02,249,00,138,38,213,00*4C
2017-11-15 19:42:03 1510792923.777605: $GPZDA,004202.00,16,11,2017,00,00*61
2017-11-15 19:42:03 1510792923.777793: $GPGGA,004202,3946.9565,N,08404.9422,W,1,05,2.20,307.12,M,-33.324,M,,*7C
2017-11-15 19:42:03 1510792923.777856: $GPRMC,004202,A,3946.9565,N,08404.9422,W,0.1567,189.201,161117,,*3E
2017-11-15 19:42:03 1510792923.777912: $GPGSA,A,3,32,16,26,31,29,,,,,,,,3.4,2.2,2.9*35
2017-11-15 19:42:04 1510792924.328455: $GPZDA,004203.00,16,11,2017,00,00*60
2017-11-15 19:42:04 1510792924.328619: $GPGGA,004203,3946.9565,N,08404.9422,W,1,05,2.20,307.12,M,-33.324,M,,*7D
2017-11-15 19:42:04 1510792924.328701: $GPRMC,004203,A,3946.9565,N,08404.9422,W,0.1567,189.201,161117,,*3F
2017-11-15 19:42:04 1510792924.328759: $GPGSA,A,3,32,16,26,31,29,,,,,,,,3.4,2.2,2.9*35
2017-11-15 19:42:05 1510792925.329334: $GPZDA,004204.00,16,11,2017,00,00*67
2017-11-15 19:42:05 1510792925.329499: $GPGGA,004204,3946.9566,N,08404.9423,W,1,05,1.40,308.53,M,-33.324,M,,*77
2017-11-15 19:42:05 1510792925.329561: $GPRMC,004204,A,3946.9566,N,08404.9423,W,0.2422,93.795,161117,,*0B
2017-11-15 19:42:05 1510792925.329616: $GPGSA,A,3,32,16,26,31,29,,,,,,,,3.4,1.4,2.9*30
2017-11-15 19:42:06 1510792926.665853: $GPGSV,3,1,12,32,31,112,10,16,28,190,24,22,50,261,12,26,59,169,22*7E
2017-11-15 19:42:06 1510792926.666002: $GPGSV,3,2,12,14,51,100,13,31,63,033,13,29,12,066,12,23,15,303,14*77
2017-11-15 19:42:06 1510792926.666061: $GPGSV,3,3,12,03,42,292,00,25,12,039,00,01,02,249,00,135,23,238,00*4B
2017-11-15 19:42:06 1510792926.777977: $GPZDA,004205.00,16,11,2017,00,00*66
2017-11-15 19:42:06 1510792926.778143: $GPGGA,004205,3946.9566,N,08404.9416,W,1,07,1.20,308.61,M,-33.324,M,,*75
2017-11-15 19:42:06 1510792926.778203: $GPRMC,004205,A,3946.9566,N,08404.9416,W,0.2758,128.233,161117,,*3A
2017-11-15 19:42:06 1510792926.778259: $GPGSA,A,3,32,16,22,26,14,31,29,,,,,,3.4,1.2,2.9*33
2017-11-15 19:42:07 1510792927.345329: $GPZDA,004206.00,16,11,2017,00,00*65
2017-11-15 19:42:07 1510792927.345490: $GPGGA,004206,3946.9566,N,08404.9416,W,1,07,1.20,308.61,M,-33.324,M,,*76
2017-11-15 19:42:07 1510792927.345550: $GPRMC,004206,A,3946.9566,N,08404.9416,W,0.4179,148.778,161117,,*36
2017-11-15 19:42:07 1510792927.345606: $GPGSA,A,3,32,16,22,26,14,31,29,,,,,,3.4,1.2,2.9*33
2017-11-15 19:42:08 1510792928.346106: $GPZDA,004207.00,16,11,2017,00,00*64
2017-11-15 19:42:08 1510792928.346264: $GPGGA,004207,3946.9566,N,08404.9416,W,1,07,1.00,308.61,M,-33.324,M,,*75
2017-11-15 19:42:08 1510792928.346374: $GPRMC,004207,A,3946.9566,N,08404.9416,W,0.3423,184.197,161117,,*3D
2017-11-15 19:42:08 1510792928.346431: $GPGSA,A,3,32,16,22,26,14,31,29,,,,,,3.4,1.0,2.9*31
2017-11-15 19:42:09 1510792929.665476: $GPGSV,3,1,12,32,31,112,10,16,28,190,24,22,50,261,13,26,59,169,22*7F
2017-11-15 19:42:09 1510792929.665669: $GPGSV,3,2,12,14,51,100,14,31,63,033,13,29,12,066,12,23,15,303,14*70
2017-11-15 19:42:09 1510792929.665730: $GPGSV,3,3,12,03,42,292,00,25,12,039,00,01,02,249,00,135,23,238,00*4B
2017-11-15 19:42:09 1510792929.778817: $GPZDA,004208.00,16,11,2017,00,00*6B
2017-11-15 19:42:09 1510792929.778981: $GPGGA,004208,3946.9566,N,08404.9416,W,1,08,1.00,310.01,M,-33.324,M,,*7A
2017-11-15 19:42:09 1510792929.779043: $GPRMC,004208,A,3946.9566,N,08404.9416,W,0.3423,184.197,161117,,*32
2017-11-15 19:42:09 1510792929.779099: $GPGSA,A,3,32,16,22,26,14,31,29,23,,,,,3.4,1.0,2.9*30
2017-11-15 19:42:10 1510792930.345907: $GPZDA,004209.00,16,11,2017,00,00*6A
2017-11-15 19:42:10 1510792930.346063: $GPGGA,004209,3946.9566,N,08404.9416,W,1,08,1.00,310.01,M,-33.324,M,,*7B
2017-11-15 19:42:10 1510792930.346123: $GPRMC,004209,A,3946.9566,N,08404.9416,W,0.0000,0.000,161117,,*37
2017-11-15 19:42:10 1510792930.346178: $GPGSA,A,3,32,16,22,26,14,31,29,23,,,,,3.4,1.0,2.9*30
