2017-12-29 14:58:17 1514577497.953828: {"class":"VERSION","release":"3.16","rev":"3.16-4","proto_major":3,"proto_minor":11}
2017-12-29 14:58:17 1514577497.954037: {"class":"DEVICES","devices":[{"class":"DEVICE","path":"/dev/ttyUSB0","driver":"SiRF","subtype":"9\u0006GSD4e_4.1.2-P1_RPATCH.05-F-GPS-4R-1510281 11/03/2015 307","activated":"2017-12-29T19:58:17.921Z","flags":1,"native":1,"bps":4800,"parity":"N","stopbits":1,"cycle":1.00}]}
2017-12-29 14:58:17 1514577497.954095: {"class":"WATCH","enable":true,"json":false,"nmea":true,"raw":0,"scaled":false,"timing":false,"split24":false,"pps":false}
2017-12-29 14:58:18 1514577498.509500: $GPZDA,195819.00,29,12,2017,00,00*67
2017-12-29 14:58:18 1514577498.509681: $GPGGA,195819,3946.9577,N,08404.9836,W,2,12,0.80,306.15,M,-33.324,M,,*74
2017-12-29 14:58:18 1514577498.509747: $GPRMC,195819,A,3946.9577,N,08404.9836,W,0.0000,0.000,291217,,*34
2017-12-29 14:58:18 1514577498.509808: $GPGSA,A,3,1,3,10,18,12,14,22,25,31,32,26,138,1.7,0.8,1.3*08
2017-12-29 14:58:19 1514577499.405298: $GPZDA,195820.00,29,12,2017,00,00*6D
2017-12-29 14:58:19 1514577499.405471: $GPGGA,195820,3946.9577,N,08404.9836,W,2,12,0.80,306.15,M,-33.324,M,,*7E
2017-12-29 14:58:19 1514577499.405537: $GPRMC,195820,A,3946.9577,N,08404.9836,W,0.0000,0.000,291217,,*3E
2017-12-29 14:58:19 1514577499.405598: $GPGSA,A,3,1,3,10,18,12,14,22,25,31,32,26,138,1.7,0.8,1.3*08
2017-12-29 14:58:20 1514577500.731017: $GPGSV,3,1,12,01,22,291,35,03,09,316,43,10,37,153,48,18,08,147,25*76
2017-12-29 14:58:20 1514577500.731235: $GPGSV,3,2,12,12,17,042,43,14,69,351,43,22,28,310,40,25,41,078,51*70
2017-12-29 14:58:20 1514577500.731300: $GPGSV,3,3,12,31,68,237,46,32,63,055,50,11,05,274,36,138,38,213,43*44
2017-12-29 14:58:20 1514577500.843125: $GPZDA,195821.00,29,12,2017,00,00*6C
2017-12-29 14:58:20 1514577500.843290: $GPGGA,195821,3946.9573,N,08404.9837,W,2,12,0.80,306.91,M,-33.324,M,,*76
2017-12-29 14:58:20 1514577500.843355: $GPRMC,195821,A,3946.9573,N,08404.9837,W,0.0000,0.000,291217,,*3A
2017-12-29 14:58:20 1514577500.843415: $GPGSA,A,3,1,3,10,18,12,14,22,25,31,32,11,138,1.7,0.8,1.3*0C
2017-12-29 14:58:21 1514577501.434015: $GPZDA,195822.00,29,12,2017,00,00*6F
2017-12-29 14:58:21 1514577501.434174: $GPGGA,195822,3946.9573,N,08404.9837,W,2,12,0.80,306.91,M,-33.324,M,,*75
2017-12-29 14:58:21 1514577501.434239: $GPRMC,195822,A,3946.9573,N,08404.9837,W,0.0000,0.000,291217,,*39
2017-12-29 14:58:21 1514577501.434299: $GPGSA,A,3,1,3,10,18,12,14,22,25,31,32,11,138,1.7,0.8,1.3*0C
2017-12-29 14:58:22 1514577502.433632: $GPZDA,195823.00,29,12,2017,00,00*6E
2017-12-29 14:58:22 1514577502.433792: $GPGGA,195823,3946.9573,N,08404.9837,W,2,12,0.80,306.91,M,-33.324,M,,*74
2017-12-29 14:58:22 1514577502.433858: $GPRMC,195823,A,3946.9573,N,08404.9837,W,0.0000,0.000,291217,,*38
2017-12-29 14:58:22 1514577502.433917: $GPGSA,A,3,1,3,10,18,12,14,22,25,31,32,11,138,1.7,0.8,1.3*0C
2017-12-29 14:58:23 1514577503.768873: $GPGSV,3,1,12,01,22,291,34,03,09,316,43,10,37,153,48,18,08,147,25*77
2017-12-29 14:58:23 1514577503.769025: $GPGSV,3,2,12,12,17,042,43,14,69,351,43,22,28,310,40,25,41,078,51*70
2017-12-29 14:58:23 1514577503.769089: $GPGSV,3,3,12,31,68,237,46,32,63,055,51,26,12,180,24,138,38,213,42*4D
2017-12-29 14:58:23 1514577503.882392: $GPZDA,195824.00,29,12,2017,00,00*69
2017-12-29 14:58:23 1514577503.882534: $GPGGA,195824,3946.9573,N,08404.9837,W,2,12,0.80,306.91,M,-33.324,M,,*73
2017-12-29 14:58:23 1514577503.882600: $GPRMC,195824,A,3946.9573,N,08404.9837,W,0.0000,0.000,291217,,*3F
2017-12-29 14:58:23 1514577503.882660: $GPGSA,A,3,1,3,10,18,12,14,22,25,31,32,26,138,1.7,0.8,1.3*08
2017-12-29 14:58:24 1514577504.426833: $GPZDA,195825.00,29,12,2017,00,00*68
2017-12-29 14:58:24 1514577504.426992: $GPGGA,195825,3946.9573,N,08404.9837,W,2,12,0.80,306.91,M,-33.324,M,,*72
2017-12-29 14:58:24 1514577504.427058: $GPRMC,195825,A,3946.9573,N,08404.9837,W,0.0000,0.000,291217,,*3E
2017-12-29 14:58:24 1514577504.427118: $GPGSA,A,3,1,3,10,18,12,14,22,25,31,32,26,138,1.7,0.8,1.3*08
2017-12-29 14:58:25 1514577505.396477: $GPZDA,195826.00,29,12,2017,00,00*6B
2017-12-29 14:58:25 1514577505.396681: $GPGGA,195826,3946.9573,N,08404.9837,W,2,12,0.80,306.91,M,-33.324,M,,*71
2017-12-29 14:58:25 1514577505.396751: $GPRMC,195826,A,3946.9573,N,08404.9837,W,0.0000,0.000,291217,,*3D
2017-12-29 14:58:25 1514577505.396810: $GPGSA,A,3,1,3,10,18,12,14,22,25,31,32,26,138,1.7,0.8,1.3*08
2017-12-29 14:58:26 1514577506.769711: $GPGSV,3,1,12,01,22,291,35,03,09,316,43,10,37,153,48,18,08,147,24*77
2017-12-29 14:58:26 1514577506.769876: $GPGSV,3,2,12,12,17,042,43,14,69,351,43,22,28,310,40,25,41,078,50*71
2017-12-29 14:58:26 1514577506.769942: $GPGSV,3,3,12,31,68,237,46,32,63,055,51,26,12,180,16,138,38,213,43*4D
2017-12-29 14:58:26 1514577506.883047: $GPZDA,195827.00,29,12,2017,00,00*6A
2017-12-29 14:58:26 1514577506.883191: $GPGGA,195827,3946.9573,N,08404.9837,W,2,12,0.80,306.91,M,-33.324,M,,*70
2017-12-29 14:58:26 1514577506.883256: $GPRMC,195827,A,3946.9573,N,08404.9837,W,0.0000,0.000,291217,,*3C
2017-12-29 14:58:26 1514577506.883316: $GPGSA,A,3,1,3,10,18,12,14,22,25,31,32,26,138,1.7,0.8,1.3*08
2017-12-29 14:58:27 1514577507.432696: $GPZDA,195828.00,29,12,2017,00,00*65
2017-12-29 14:58:27 1514577507.432849: $GPGGA,195828,3946.9573,N,08404.9837,W,2,12,0.80,306.91,M,-33.324,M,,*7F
2017-12-29 14:58:27 1514577507.432915: $GPRMC,195828,A,3946.9573,N,08404.9837,W,0.0000,0.000,291217,,*33
2017-12-29 14:58:27 1514577507.432976: $GPGSA,A,3,1,3,10,18,12,14,22,25,31,32,26,138,1.7,0.8,1.3*08
