2017-12-01 16:17:58 1512163078.209568: {"class":"VERSION","release":"3.16","rev":"3.16-4","proto_major":3,"proto_minor":11}
2017-12-01 16:17:58 1512163078.209996: {"class":"DEVICES","devices":[{"class":"DEVICE","path":"/dev/ttyUSB0","driver":"SiRF","subtype":"9\u0006GSD4e_4.1.2-P1_RPATCH.05-F-GPS-4R-1510281 11/03/2015 307","activated":"2017-12-01T21:17:58.184Z","flags":1,"native":1,"bps":4800,"parity":"N","stopbits":1,"cycle":1.00}]}
2017-12-01 16:17:58 1512163078.210119: {"class":"WATCH","enable":true,"json":false,"nmea":true,"raw":0,"scaled":false,"timing":false,"split24":false,"pps":false}
2017-12-01 16:17:58 1512163078.361685: $GPZDA,211759.00,01,12,2017,00,00*69
2017-12-01 16:17:58 1512163078.361835: $GPGGA,211759,3946.9587,N,08404.9841,W,2,11,0.80,303.77,M,-33.324,M,,*7D
2017-12-01 16:17:58 1512163078.361900: $GPRMC,211759,A,3946.9587,N,08404.9841,W,0.0000,0.000,011217,,*35
2017-12-01 16:17:58 1512163078.361962: $GPGSA,A,3,10,22,12,14,18,11,25,31,32,1,138,,2.0,0.8,1.5*3D
2017-12-01 16:17:59 1512163079.714701: $GPGSV,3,1,12,10,54,145,47,22,14,312,33,12,24,055,44,14,63,315,44*7C
2017-12-01 16:17:59 1512163079.714882: $GPGSV,3,2,12,18,23,142,45,11,10,288,22,25,38,099,46,31,50,220,48*73
2017-12-01 16:17:59 1512163079.714948: $GPGSV,3,3,12,32,70,012,47,01,20,306,34,24,02,048,04,138,38,213,46*42
2017-12-01 16:17:59 1512163079.828115: $GPZDA,211800.00,01,12,2017,00,00*6A
2017-12-01 16:17:59 1512163079.828282: $GPGGA,211800,3946.9587,N,08404.9841,W,2,11,0.80,303.77,M,-33.324,M,,*7E
2017-12-01 16:17:59 1512163079.828349: $GPRMC,211800,A,3946.9587,N,08404.9841,W,0.0000,0.000,011217,,*36
2017-12-01 16:17:59 1512163079.828411: $GPGSA,A,3,10,22,12,14,18,11,25,31,32,1,138,,2.0,0.8,1.5*3D
2017-12-01 16:18:00 1512163080.453659: $GPZDA,211801.00,01,12,2017,00,00*6B
2017-12-01 16:18:00 1512163080.453845: $GPGGA,211801,3946.9587,N,08404.9841,W,2,11,0.80,303.77,M,-33.324,M,,*7F
2017-12-01 16:18:00 1512163080.453913: $GPRMC,211801,A,3946.9587,N,08404.9841,W,0.0000,0.000,011217,,*37
2017-12-01 16:18:00 1512163080.453974: $GPGSA,A,3,10,22,12,14,18,11,25,31,32,1,138,,2.0,0.8,1.5*3D
2017-12-01 16:18:01 1512163081.378050: $GPZDA,211802.00,01,12,2017,00,00*68
2017-12-01 16:18:01 1512163081.378208: $GPGGA,211802,3946.9587,N,08404.9841,W,2,11,1.00,303.77,M,-33.324,M,,*75
2017-12-01 16:18:01 1512163081.378275: $GPRMC,211802,A,3946.9587,N,08404.9841,W,0.0000,0.000,011217,,*34
2017-12-01 16:18:01 1512163081.378336: $GPGSA,A,3,10,22,12,14,18,11,25,31,32,1,138,,2.0,1.0,1.5*34
2017-12-01 16:18:02 1512163082.715102: $GPGSV,3,1,12,10,54,145,47,22,14,312,33,12,24,055,44,14,63,315,45*7D
2017-12-01 16:18:02 1512163082.715281: $GPGSV,3,2,12,18,23,142,45,11,10,288,22,25,38,099,45,31,50,220,48*70
2017-12-01 16:18:02 1512163082.715348: $GPGSV,3,3,12,32,70,012,47,01,20,306,33,24,02,048,04,138,38,213,45*46
2017-12-01 16:18:02 1512163082.828713: $GPZDA,211803.00,01,12,2017,00,00*69
2017-12-01 16:18:02 1512163082.828851: $GPGGA,211803,3946.9587,N,08404.9841,W,2,11,0.80,303.77,M,-33.324,M,,*7D
2017-12-01 16:18:02 1512163082.828916: $GPRMC,211803,A,3946.9587,N,08404.9841,W,0.0000,0.000,011217,,*35
2017-12-01 16:18:02 1512163082.828978: $GPGSA,A,3,10,22,12,14,18,11,25,31,32,1,138,,2.0,0.8,1.5*3D
2017-12-01 16:18:03 1512163083.379489: $GPZDA,211804.00,01,12,2017,00,00*6E
2017-12-01 16:18:03 1512163083.379689: $GPGGA,211804,3946.9587,N,08404.9841,W,2,11,0.80,303.77,M,-33.324,M,,*7A
2017-12-01 16:18:03 1512163083.379760: $GPRMC,211804,A,3946.9587,N,08404.9841,W,0.0000,0.000,011217,,*32
2017-12-01 16:18:03 1512163083.379821: $GPGSA,A,3,10,22,12,14,18,11,25,31,32,1,138,,2.0,0.8,1.5*3D
2017-12-01 16:18:04 1512163084.363028: $GPZDA,211805.00,01,12,2017,00,00*6F
2017-12-01 16:18:04 1512163084.363197: $GPGGA,211805,3946.9587,N,08404.9841,W,2,11,0.80,303.77,M,-33.324,M,,*7B
2017-12-01 16:18:04 1512163084.363264: $GPRMC,211805,A,3946.9587,N,08404.9841,W,0.0000,0.000,011217,,*33
2017-12-01 16:18:04 1512163084.363325: $GPGSA,A,3,10,22,12,14,18,11,25,31,32,1,138,,2.0,0.8,1.5*3D
2017-12-01 16:18:05 1512163085.697914: $GPGSV,3,1,12,10,54,145,47,22,14,312,34,12,24,055,45,14,63,315,45*7B
2017-12-01 16:18:05 1512163085.699620: $GPGSV,3,2,12,18,23,142,45,11,10,288,28,25,38,099,45,31,50,220,48*7A
2017-12-01 16:18:05 1512163085.699724: $GPGSV,3,3,12,32,70,012,47,01,20,306,33,24,02,048,04,138,38,213,46*45
2017-12-01 16:18:05 1512163085.811287: $GPZDA,211806.00,01,12,2017,00,00*6C
2017-12-01 16:18:05 1512163085.811588: $GPGGA,211806,3946.9587,N,08404.9841,W,2,11,0.80,303.77,M,-33.324,M,,*78
2017-12-01 16:18:05 1512163085.811661: $GPRMC,211806,A,3946.9587,N,08404.9841,W,0.0000,0.000,011217,,*30
2017-12-01 16:18:05 1512163085.811724: $GPGSA,A,3,10,22,12,14,18,11,25,31,32,1,138,,2.0,0.8,1.5*3D
2017-12-01 16:18:06 1512163086.356160: $GPZDA,211807.00,01,12,2017,00,00*6D
2017-12-01 16:18:06 1512163086.356330: $GPGGA,211807,3946.9587,N,08404.9841,W,2,11,0.80,303.77,M,-33.324,M,,*79
2017-12-01 16:18:06 1512163086.356396: $GPRMC,211807,A,3946.9587,N,08404.9841,W,0.0000,0.000,011217,,*31
2017-12-01 16:18:06 1512163086.356484: $GPGSA,A,3,10,22,12,14,18,11,25,31,32,1,138,,2.0,0.8,1.5*3D
2017-12-01 16:18:07 1512163087.363017: $GPZDA,211808.00,01,12,2017,00,00*62
2017-12-01 16:18:07 1512163087.363195: $GPGGA,211808,3946.9587,N,08404.9841,W,2,11,0.80,303.77,M,-33.324,M,,*76
2017-12-01 16:18:07 1512163087.363262: $GPRMC,211808,A,3946.9587,N,08404.9841,W,0.0000,0.000,011217,,*3E
2017-12-01 16:18:07 1512163087.363324: $GPGSA,A,3,10,22,12,14,18,11,25,31,32,1,138,,2.0,0.8,1.5*3D
2017-12-01 16:18:08 1512163088.697511: $GPGSV,3,1,12,10,54,145,46,22,14,312,34,12,24,055,45,14,63,315,45*7A
2017-12-01 16:18:08 1512163088.697706: $GPGSV,3,2,12,18,23,142,45,11,10,288,20,25,38,099,45,31,50,220,48*72
2017-12-01 16:18:08 1512163088.697774: $GPGSV,3,3,12,32,70,012,47,01,20,306,33,24,02,048,04,138,38,213,45*46
2017-12-01 16:18:08 1512163088.810889: $GPZDA,211809.00,01,12,2017,00,00*63
2017-12-01 16:18:08 1512163088.811062: $GPGGA,211809,3946.9587,N,08404.9841,W,2,11,0.80,303.77,M,-33.324,M,,*77
2017-12-01 16:18:08 1512163088.811128: $GPRMC,211809,A,3946.9587,N,08404.9841,W,0.0000,0.000,011217,,*3F
2017-12-01 16:18:08 1512163088.811189: $GPGSA,A,3,10,22,12,14,18,11,25,31,32,1,138,,2.0,0.8,1.5*3D
2017-12-01 16:18:09 1512163089.360512: $GPZDA,211810.00,01,12,2017,00,00*6B
2017-12-01 16:18:09 1512163089.360691: $GPGGA,211810,3946.9587,N,08404.9841,W,2,11,1.00,303.77,M,-33.324,M,,*76
2017-12-01 16:18:09 1512163089.360758: $GPRMC,211810,A,3946.9587,N,08404.9841,W,0.0000,0.000,011217,,*37
2017-12-01 16:18:09 1512163089.360819: $GPGSA,A,3,10,22,12,14,18,11,25,31,32,1,138,,2.0,1.0,1.5*34
2017-12-01 16:18:10 1512163090.361167: $GPZDA,211811.00,01,12,2017,00,00*6A
2017-12-01 16:18:10 1512163090.361341: $GPGGA,211811,3946.9587,N,08404.9841,W,2,11,1.00,303.77,M,-33.324,M,,*77
2017-12-01 16:18:10 1512163090.361486: $GPRMC,211811,A,3946.9587,N,08404.9841,W,0.0000,0.000,011217,,*36
2017-12-01 16:18:10 1512163090.361566: $GPGSA,A,3,10,22,12,14,18,11,25,31,32,1,138,,2.0,1.0,1.5*34
2017-12-01 16:18:11 1512163091.697886: $GPGSV,3,1,12,10,54,145,46,22,14,312,35,12,24,055,45,14,63,315,45*7B
2017-12-01 16:18:11 1512163091.698042: $GPGSV,3,2,12,18,23,142,45,11,10,288,24,25,38,099,46,31,50,220,48*75
2017-12-01 16:18:11 1512163091.698107: $GPGSV,3,3,12,32,70,012,47,01,20,306,33,24,02,048,04,138,38,213,46*45
2017-12-01 16:18:11 1512163091.811316: $GPZDA,211812.00,01,12,2017,00,00*69
2017-12-01 16:18:11 1512163091.811769: $GPGGA,211812,3946.9587,N,08404.9841,W,2,11,0.80,303.77,M,-33.324,M,,*7D
2017-12-01 16:18:11 1512163091.811895: $GPRMC,211812,A,3946.9587,N,08404.9841,W,0.0000,0.000,011217,,*35
2017-12-01 16:18:11 1512163091.812017: $GPGSA,A,3,10,22,12,14,18,11,25,31,32,1,138,,2.0,0.8,1.5*3D
2017-12-01 16:18:12 1512163092.355893: $GPZDA,211813.00,01,12,2017,00,00*68
2017-12-01 16:18:12 1512163092.356066: $GPGGA,211813,3946.9587,N,08404.9841,W,2,11,0.80,303.77,M,-33.324,M,,*7C
2017-12-01 16:18:12 1512163092.356133: $GPRMC,211813,A,3946.9587,N,08404.9841,W,0.0000,0.000,011217,,*34
2017-12-01 16:18:12 1512163092.356194: $GPGSA,A,3,10,22,12,14,18,11,25,31,32,1,138,,2.0,0.8,1.5*3D
2017-12-01 16:18:13 1512163093.361834: $GPZDA,211814.00,01,12,2017,00,00*6F
2017-12-01 16:18:13 1512163093.362054: $GPGGA,211814,3946.9587,N,08404.9841,W,2,11,0.80,303.77,M,-33.324,M,,*7B
2017-12-01 16:18:13 1512163093.362122: $GPRMC,211814,A,3946.9587,N,08404.9841,W,0.0000,0.000,011217,,*33
2017-12-01 16:18:13 1512163093.362184: $GPGSA,A,3,10,22,12,14,18,11,25,31,32,1,138,,2.0,0.8,1.5*3D
2017-12-01 16:18:14 1512163094.696241: $GPGSV,3,1,12,10,54,145,46,22,14,312,36,12,24,055,46,14,63,315,45*7B
2017-12-01 16:18:14 1512163094.696423: $GPGSV,3,2,12,18,23,142,45,11,10,288,29,25,38,099,46,31,50,220,49*79
2017-12-01 16:18:14 1512163094.696490: $GPGSV,3,3,12,32,70,012,46,01,20,306,33,24,02,048,04,138,38,213,46*44
2017-12-01 16:18:14 1512163094.809583: $GPZDA,211815.00,01,12,2017,00,00*6E
2017-12-01 16:18:14 1512163094.809740: $GPGGA,211815,3946.9587,N,08404.9841,W,2,11,0.80,303.77,M,-33.324,M,,*7A
2017-12-01 16:18:14 1512163094.809807: $GPRMC,211815,A,3946.9587,N,08404.9841,W,0.0000,0.000,011217,,*32
2017-12-01 16:18:14 1512163094.809868: $GPGSA,A,3,10,22,12,14,18,11,25,31,32,1,138,,2.0,0.8,1.5*3D
2017-12-01 16:18:15 1512163095.435273: $GPZDA,211816.00,01,12,2017,00,00*6D
2017-12-01 16:18:15 1512163095.435434: $GPGGA,211816,3946.9587,N,08404.9841,W,2,11,0.80,303.77,M,-33.324,M,,*79
2017-12-01 16:18:15 1512163095.435500: $GPRMC,211816,A,3946.9587,N,08404.9841,W,0.0000,0.000,011217,,*31
2017-12-01 16:18:15 1512163095.435561: $GPGSA,A,3,10,22,12,14,18,11,25,31,32,1,138,,2.0,0.8,1.5*3D
2017-12-01 16:18:16 1512163096.360911: $GPZDA,211817.00,01,12,2017,00,00*6C
2017-12-01 16:18:16 1512163096.365323: $GPGGA,211817,3946.9587,N,08404.9841,W,2,11,0.80,303.77,M,-33.324,M,,*78
2017-12-01 16:18:16 1512163096.365445: $GPRMC,211817,A,3946.9587,N,08404.9841,W,0.0000,0.000,011217,,*30
2017-12-01 16:18:16 1512163096.365509: $GPGSA,A,3,10,22,12,14,18,11,25,31,32,1,138,,2.0,0.8,1.5*3D
2017-12-01 16:18:17 1512163097.695351: $GPGSV,3,1,12,10,54,145,47,22,14,312,36,12,24,055,45,14,63,315,45*79
2017-12-01 16:18:17 1512163097.695542: $GPGSV,3,2,12,18,23,142,45,11,10,288,29,25,38,099,46,31,50,220,49*79
2017-12-01 16:18:17 1512163097.695610: $GPGSV,3,3,12,32,70,012,47,01,20,306,33,24,02,048,00,138,38,213,45*42
2017-12-01 16:18:17 1512163097.809034: $GPZDA,211818.00,01,12,2017,00,00*63
2017-12-01 16:18:17 1512163097.809200: $GPGGA,211818,3946.9587,N,08404.9841,W,2,11,0.80,303.77,M,-33.324,M,,*77
2017-12-01 16:18:17 1512163097.809265: $GPRMC,211818,A,3946.9587,N,08404.9841,W,0.0000,0.000,011217,,*3F
2017-12-01 16:18:17 1512163097.809327: $GPGSA,A,3,10,22,12,14,18,11,25,31,32,1,138,,2.0,0.8,1.5*3D
