2017-12-29 11:39:17 1514565557.887867: {"class":"VERSION","release":"3.16","rev":"3.16-4","proto_major":3,"proto_minor":11}
2017-12-29 11:39:17 1514565557.888206: {"class":"DEVICES","devices":[{"class":"DEVICE","path":"/dev/ttyUSB0","driver":"SiRF","subtype":"9\u0006GSD4e_4.1.2-P1_RPATCH.05-F-GPS-4R-1510281 11/03/2015 307","activated":"2017-12-29T16:39:17.426Z","flags":1,"native":1,"bps":4800,"parity":"N","stopbits":1,"cycle":1.00}]}
2017-12-29 11:39:17 1514565557.888320: {"class":"WATCH","enable":true,"json":false,"nmea":true,"raw":0,"scaled":false,"timing":false,"split24":false,"pps":false}
2017-12-29 11:39:19 1514565559.054499: $GPZDA,163919.39,29,12,2017,00,00*65
2017-12-29 11:39:19 1514565559.054667: $GPGGA,163919,3946.9513,N,08404.9855,W,1,11,1.00,331.26,M,-33.324,M,,*76
2017-12-29 11:39:19 1514565559.054752: $GPRMC,163919,A,3946.9513,N,08404.9855,W,0.2558,348.708,291217,,*31
2017-12-29 11:39:19 1514565559.054815: $GPGSA,A,3,8,10,15,18,20,21,24,27,32,14,138,,1.7,1.0,1.3*3F
2017-12-29 11:39:20 1514565560.482267: $GPZDA,163920.39,29,12,2017,00,00*6F
2017-12-29 11:39:20 1514565560.482441: $GPGGA,163920,3946.9540,N,08404.9851,W,1,11,1.00,340.80,M,-33.324,M,,*74
2017-12-29 11:39:20 1514565560.482507: $GPRMC,163920,A,3946.9540,N,08404.9851,W,0.0407,322.014,291217,,*36
2017-12-29 11:39:20 1514565560.482568: $GPGSA,A,3,8,10,15,18,20,21,24,27,32,14,138,,1.7,1.0,1.3*3F
2017-12-29 11:39:20 1514565560.482626: $GPGBS,163920,10.91,M,10.38,M,30.89,M*00
2017-12-29 11:39:21 1514565561.072231: $GPGSV,3,1,11,08,07,315,44,10,50,309,47,15,28,055,48,18,76,010,45*74
2017-12-29 11:39:21 1514565561.072391: $GPGSV,3,2,11,20,27,103,49,21,52,184,47,24,53,093,53,27,17,279,42*7F
2017-12-29 11:39:21 1514565561.072457: $GPGSV,3,3,11,32,30,246,38,14,11,238,00,138,38,213,20*7F
2017-12-29 11:39:21 1514565561.185932: $GPZDA,163920.69,29,12,2017,00,00*6A
2017-12-29 11:39:21 1514565561.186098: $GPGGA,163920,3946.9553,N,08404.9845,W,1,10,1.00,344.20,M,-33.324,M,,*7C
2017-12-29 11:39:21 1514565561.186164: $GPRMC,163920,A,3946.9553,N,08404.9845,W,0.0000,0.000,291217,,*34
2017-12-29 11:39:21 1514565561.186225: $GPGSA,A,3,8,10,15,18,20,21,24,27,32,138,,,1.7,1.0,1.3*3A
2017-12-29 11:39:21 1514565561.441142: $GPZDA,163921.00,29,12,2017,00,00*64
2017-12-29 11:39:21 1514565561.441312: $GPGGA,163921,3946.9558,N,08404.9839,W,1,10,1.00,346.33,M,-33.324,M,,*7D
2017-12-29 11:39:21 1514565561.441380: $GPRMC,163921,A,3946.9558,N,08404.9839,W,0.0000,0.000,291217,,*35
2017-12-29 11:39:21 1514565561.441441: $GPGSA,A,3,8,10,15,18,20,21,24,27,32,138,,,1.7,1.0,1.3*3A
2017-12-29 11:39:21 1514565561.892019: $GPZDA,163922.00,29,12,2017,00,00*67
2017-12-29 11:39:21 1514565561.892189: $GPGGA,163922,3946.9558,N,08404.9839,W,1,10,1.00,346.33,M,-33.324,M,,*7E
2017-12-29 11:39:21 1514565561.892255: $GPRMC,163922,A,3946.9558,N,08404.9839,W,0.0000,0.000,291217,,*36
2017-12-29 11:39:21 1514565561.892315: $GPGSA,A,3,8,10,15,18,20,21,24,27,32,138,,,1.7,1.0,1.3*3A
2017-12-29 11:39:22 1514565562.853090: $GPGSV,3,1,11,08,07,315,45,10,50,309,46,15,28,055,49,18,76,010,45*75
2017-12-29 11:39:22 1514565562.853270: $GPGSV,3,2,11,20,27,103,49,21,52,184,47,24,53,093,54,27,17,279,42*78
2017-12-29 11:39:22 1514565562.853336: $GPGSV,3,3,11,32,30,246,39,14,11,238,20,138,38,213,48*72
2017-12-29 11:39:22 1514565562.966490: $GPZDA,163923.00,29,12,2017,00,00*66
2017-12-29 11:39:22 1514565562.966672: $GPGGA,163923,3946.9594,N,08404.9836,W,1,11,0.80,333.63,M,-33.324,M,,*7F
2017-12-29 11:39:22 1514565562.966740: $GPRMC,163923,A,3946.9594,N,08404.9836,W,0.0000,0.000,291217,,*38
2017-12-29 11:39:22 1514565562.966801: $GPGSA,A,3,8,10,15,18,20,21,24,27,32,14,138,,1.7,0.8,1.3*36
2017-12-29 11:39:23 1514565563.421506: $GPZDA,163924.00,29,12,2017,00,00*61
2017-12-29 11:39:23 1514565563.421665: $GPGGA,163924,3946.9594,N,08404.9836,W,1,11,0.80,333.63,M,-33.324,M,,*78
2017-12-29 11:39:23 1514565563.421747: $GPRMC,163924,A,3946.9594,N,08404.9836,W,0.0000,0.000,291217,,*3F
2017-12-29 11:39:23 1514565563.421810: $GPGSA,A,3,8,10,15,18,20,21,24,27,32,14,138,,1.7,0.8,1.3*36
2017-12-29 11:39:24 1514565564.423483: $GPZDA,163925.00,29,12,2017,00,00*60
2017-12-29 11:39:24 1514565564.423727: $GPGGA,163925,3946.9594,N,08404.9836,W,2,11,1.40,333.63,M,-33.324,M,,*77
2017-12-29 11:39:24 1514565564.423797: $GPRMC,163925,A,3946.9594,N,08404.9836,W,0.0000,0.000,291217,,*3E
2017-12-29 11:39:24 1514565564.423859: $GPGSA,A,3,8,10,15,18,20,21,24,27,32,14,138,,1.7,1.4,1.3*3B
2017-12-29 11:39:24 1514565564.423917: $GPGBS,163925,2.73,M,2.59,M,7.72,M*3E
2017-12-29 11:39:25 1514565565.757685: $GPGSV,3,1,11,08,07,315,45,10,50,309,46,15,28,055,50,18,76,010,45*7D
2017-12-29 11:39:25 1514565565.757837: $GPGSV,3,2,11,20,27,103,49,21,52,184,47,24,53,093,54,27,17,279,42*78
2017-12-29 11:39:25 1514565565.757902: $GPGSV,3,3,11,32,30,246,38,14,11,238,16,138,38,213,46*78
2017-12-29 11:39:25 1514565565.871090: $GPZDA,163926.00,29,12,2017,00,00*63
2017-12-29 11:39:25 1514565565.871245: $GPGGA,163926,3946.9594,N,08404.9836,W,2,11,1.00,333.63,M,-33.324,M,,*70
2017-12-29 11:39:25 1514565565.871311: $GPRMC,163926,A,3946.9594,N,08404.9836,W,0.0000,0.000,291217,,*3D
2017-12-29 11:39:25 1514565565.871371: $GPGSA,A,3,8,10,15,18,20,21,24,27,32,14,138,,1.7,1.0,1.3*3F
2017-12-29 11:39:26 1514565566.423121: $GPZDA,163927.00,29,12,2017,00,00*62
2017-12-29 11:39:26 1514565566.423283: $GPGGA,163927,3946.9590,N,08404.9836,W,2,11,0.80,334.39,M,-33.324,M,,*74
2017-12-29 11:39:26 1514565566.423348: $GPRMC,163927,A,3946.9590,N,08404.9836,W,0.0000,0.000,291217,,*38
2017-12-29 11:39:26 1514565566.423428: $GPGSA,A,3,8,10,15,18,20,21,24,27,32,14,138,,1.7,0.8,1.3*36
2017-12-29 11:39:27 1514565567.423557: $GPZDA,163928.00,29,12,2017,00,00*6D
2017-12-29 11:39:27 1514565567.423736: $GPGGA,163928,3946.9590,N,08404.9836,W,2,11,0.80,334.39,M,-33.324,M,,*7B
2017-12-29 11:39:27 1514565567.423803: $GPRMC,163928,A,3946.9590,N,08404.9836,W,0.0000,0.000,291217,,*37
2017-12-29 11:39:27 1514565567.423864: $GPGSA,A,3,8,10,15,18,20,21,24,27,32,14,138,,1.7,0.8,1.3*36
2017-12-29 11:39:28 1514565568.756750: $GPGSV,3,1,11,08,07,315,45,10,50,309,47,15,28,055,50,18,76,010,46*7F
2017-12-29 11:39:28 1514565568.759609: $GPGSV,3,2,11,20,27,103,49,21,52,184,47,24,53,093,54,27,17,279,42*78
2017-12-29 11:39:28 1514565568.759710: $GPGSV,3,3,11,32,30,246,38,14,11,238,25,138,38,213,46*78
2017-12-29 11:39:28 1514565568.870593: $GPZDA,163929.00,29,12,2017,00,00*6C
2017-12-29 11:39:28 1514565568.870757: $GPGGA,163929,3946.9595,N,08404.9836,W,2,11,0.80,335.03,M,-33.324,M,,*77
2017-12-29 11:39:28 1514565568.870824: $GPRMC,163929,A,3946.9595,N,08404.9836,W,0.0000,0.000,291217,,*33
2017-12-29 11:39:28 1514565568.870884: $GPGSA,A,3,8,10,15,18,20,21,24,27,32,14,138,,1.7,0.8,1.3*36
2017-12-29 11:39:29 1514565569.421116: $GPZDA,163930.00,29,12,2017,00,00*64
2017-12-29 11:39:29 1514565569.421282: $GPGGA,163930,3946.9595,N,08404.9836,W,2,11,0.80,335.03,M,-33.324,M,,*7F
2017-12-29 11:39:29 1514565569.421349: $GPRMC,163930,A,3946.9595,N,08404.9836,W,0.0000,0.000,291217,,*3B
2017-12-29 11:39:29 1514565569.421431: $GPGSA,A,3,8,10,15,18,20,21,24,27,32,14,138,,1.7,0.8,1.3*36
2017-12-29 11:39:30 1514565570.424557: $GPZDA,163931.00,29,12,2017,00,00*65
2017-12-29 11:39:30 1514565570.424825: $GPGGA,163931,3946.9591,N,08404.9837,W,2,11,0.80,335.79,M,-33.324,M,,*76
2017-12-29 11:39:30 1514565570.424896: $GPRMC,163931,A,3946.9591,N,08404.9837,W,0.0000,0.000,291217,,*3F
2017-12-29 11:39:30 1514565570.424957: $GPGSA,A,3,8,10,15,18,20,21,24,27,32,14,138,,1.7,0.8,1.3*36
2017-12-29 11:39:31 1514565571.760119: $GPGSV,3,1,11,08,07,315,44,10,50,309,47,15,28,055,50,18,76,010,46*7E
2017-12-29 11:39:31 1514565571.760301: $GPGSV,3,2,11,20,27,103,49,21,52,184,47,24,53,093,53,27,17,279,42*7F
2017-12-29 11:39:31 1514565571.760367: $GPGSV,3,3,11,32,30,246,38,14,11,238,26,138,38,213,46*7B
2017-12-29 11:39:31 1514565571.873979: $GPZDA,163932.00,29,12,2017,00,00*66
2017-12-29 11:39:31 1514565571.874274: $GPGGA,163932,3946.9591,N,08404.9837,W,2,11,0.80,335.79,M,-33.324,M,,*75
2017-12-29 11:39:31 1514565571.874427: $GPRMC,163932,A,3946.9591,N,08404.9837,W,0.0000,0.000,291217,,*3C
2017-12-29 11:39:31 1514565571.874587: $GPGSA,A,3,8,10,15,18,20,21,24,27,32,14,138,,1.7,0.8,1.3*36
2017-12-29 11:39:32 1514565572.498945: $GPZDA,163933.00,29,12,2017,00,00*67
2017-12-29 11:39:32 1514565572.499115: $GPGGA,163933,3946.9591,N,08404.9837,W,2,11,1.00,335.79,M,-33.324,M,,*7D
2017-12-29 11:39:32 1514565572.499182: $GPRMC,163933,A,3946.9591,N,08404.9837,W,0.0000,0.000,291217,,*3D
2017-12-29 11:39:32 1514565572.499242: $GPGSA,A,3,8,10,15,18,20,21,24,27,32,14,138,,1.7,1.0,1.3*3F
