2017-11-16 14:15:44 1510859744.449324: {"class":"VERSION","release":"3.17","rev":"3.17","proto_major":3,"proto_minor":12}
2017-11-16 14:15:44 1510859744.449948: {"class":"DEVICES","devices":[{"class":"DEVICE","path":"/dev/ttyUSB0","driver":"SiRF","subtype":"9\u0006GSD4e_4.1.2-P1_RPATCH.05-F-GPS-4R-1510281 11/03/2015 307","activated":"2017-11-16T19:15:44.430Z","flags":1,"native":1,"bps":4800,"parity":"N","stopbits":1,"cycle":1.00}]}
2017-11-16 14:15:44 1510859744.450139: {"class":"WATCH","enable":true,"json":false,"nmea":true,"raw":0,"scaled":false,"timing":false,"split24":false,"pps":false}
2017-11-16 14:15:44 1510859744.543038: $GPZDA,191543.00,16,11,2017,00,00*6E
2017-11-16 14:15:44 1510859744.543200: $GPGGA,191543,3946.9554,N,08404.9851,W,2,11,0.80,304.96,M,-33.324,M,,*78
2017-11-16 14:15:44 1510859744.543260: $GPRMC,191543,A,3946.9554,N,08404.9851,W,0.0000,0.000,161117,,*3D
2017-11-16 14:15:44 1510859744.543317: $GPGSA,A,3,8,10,13,15,18,21,20,24,27,32,138,,1.6,0.8,1.3*30
2017-11-16 14:15:45 1510859745.848383: $GPGSV,3,1,12,08,06,321,41,10,42,301,44,13,07,049,29,15,36,052,51*77
2017-11-16 14:15:45 1510859745.848544: $GPGSV,3,2,12,18,72,339,47,21,62,189,47,20,32,097,47,24,51,108,48*70
2017-11-16 14:15:45 1510859745.848605: $GPGSV,3,3,12,27,19,288,41,32,21,238,45,14,05,232,26,138,38,213,44*4C
2017-11-16 14:15:45 1510859745.961708: $GPZDA,191544.00,16,11,2017,00,00*69
2017-11-16 14:15:45 1510859745.961863: $GPGGA,191544,3946.9554,N,08404.9851,W,2,12,0.80,304.96,M,-33.324,M,,*7C
2017-11-16 14:15:45 1510859745.961922: $GPRMC,191544,A,3946.9554,N,08404.9851,W,0.0000,0.000,161117,,*3A
2017-11-16 14:15:45 1510859745.961978: $GPGSA,A,3,8,10,13,15,18,21,20,24,27,32,14,138,1.6,0.8,1.3*35
2017-11-16 14:15:46 1510859746.512509: $GPZDA,191545.00,16,11,2017,00,00*68
2017-11-16 14:15:46 1510859746.512685: $GPGGA,191545,3946.9554,N,08404.9851,W,2,12,0.80,304.96,M,-33.324,M,,*7D
2017-11-16 14:15:46 1510859746.512748: $GPRMC,191545,A,3946.9554,N,08404.9851,W,0.0000,0.000,161117,,*3B
2017-11-16 14:15:46 1510859746.512805: $GPGSA,A,3,8,10,13,15,18,21,20,24,27,32,14,138,1.6,0.8,1.3*35
2017-11-16 14:15:47 1510859747.543609: $GPZDA,191546.00,16,11,2017,00,00*6B
2017-11-16 14:15:47 1510859747.543778: $GPGGA,191546,3946.9554,N,08404.9851,W,2,12,0.80,304.96,M,-33.324,M,,*7E
2017-11-16 14:15:47 1510859747.543841: $GPRMC,191546,A,3946.9554,N,08404.9851,W,0.0000,0.000,161117,,*38
2017-11-16 14:15:47 1510859747.543898: $GPGSA,A,3,8,10,13,15,18,21,20,24,27,32,14,138,1.6,0.8,1.3*35
2017-11-16 14:15:48 1510859748.874025: $GPGSV,3,1,12,08,06,321,39,10,42,301,44,13,07,049,29,15,36,052,50*79
2017-11-16 14:15:48 1510859748.874201: $GPGSV,3,2,12,18,72,339,47,21,62,189,47,20,32,097,47,24,51,108,48*70
2017-11-16 14:15:48 1510859748.874262: $GPGSV,3,3,12,27,19,288,41,32,21,238,46,14,05,232,27,138,38,213,44*4E
2017-11-16 14:15:48 1510859748.987606: $GPZDA,191547.00,16,11,2017,00,00*6A
2017-11-16 14:15:48 1510859748.987766: $GPGGA,191547,3946.9554,N,08404.9851,W,2,12,0.80,304.96,M,-33.324,M,,*7F
2017-11-16 14:15:48 1510859748.987827: $GPRMC,191547,A,3946.9554,N,08404.9851,W,0.0000,0.000,161117,,*39
2017-11-16 14:15:48 1510859748.987883: $GPGSA,A,3,8,10,13,15,18,21,20,24,27,32,14,138,1.6,0.8,1.3*35
2017-11-16 14:15:49 1510859749.612917: $GPZDA,191548.00,16,11,2017,00,00*65
2017-11-16 14:15:49 1510859749.613103: $GPGGA,191548,3946.9554,N,08404.9851,W,2,12,0.80,304.96,M,-33.324,M,,*70
2017-11-16 14:15:49 1510859749.613168: $GPRMC,191548,A,3946.9554,N,08404.9851,W,0.0000,0.000,161117,,*36
2017-11-16 14:15:49 1510859749.613225: $GPGSA,A,3,8,10,13,15,18,21,20,24,27,32,14,138,1.6,0.8,1.3*35
2017-11-16 14:15:50 1510859750.543614: $GPZDA,191549.00,16,11,2017,00,00*64
2017-11-16 14:15:50 1510859750.543779: $GPGGA,191549,3946.9554,N,08404.9851,W,2,12,0.80,304.96,M,-33.324,M,,*71
2017-11-16 14:15:50 1510859750.543841: $GPRMC,191549,A,3946.9554,N,08404.9851,W,0.0000,0.000,161117,,*37
2017-11-16 14:15:50 1510859750.543897: $GPGSA,A,3,8,10,13,15,18,21,20,24,27,32,14,138,1.6,0.8,1.3*35
2017-11-16 14:15:51 1510859751.848125: $GPGSV,3,1,12,08,06,321,32,10,42,301,44,13,07,049,29,15,36,052,50*72
2017-11-16 14:15:51 1510859751.848327: $GPGSV,3,2,12,18,72,339,47,21,62,189,47,20,32,097,47,24,51,108,48*70
2017-11-16 14:15:51 1510859751.848391: $GPGSV,3,3,12,27,19,288,42,32,21,238,46,14,05,232,28,138,38,213,44*42
2017-11-16 14:15:51 1510859751.963114: $GPZDA,191550.00,16,11,2017,00,00*6C
2017-11-16 14:15:51 1510859751.963273: $GPGGA,191550,3946.9554,N,08404.9851,W,2,12,0.80,304.96,M,-33.324,M,,*79
2017-11-16 14:15:51 1510859751.963335: $GPRMC,191550,A,3946.9554,N,08404.9851,W,0.0000,0.000,161117,,*3F
2017-11-16 14:15:51 1510859751.963392: $GPGSA,A,3,8,10,13,15,18,21,20,24,27,32,14,138,1.6,0.8,1.3*35
2017-11-16 14:15:52 1510859752.512208: $GPZDA,191551.00,16,11,2017,00,00*6D
2017-11-16 14:15:52 1510859752.512372: $GPGGA,191551,3946.9554,N,08404.9851,W,2,12,0.80,304.96,M,-33.324,M,,*78
2017-11-16 14:15:52 1510859752.512433: $GPRMC,191551,A,3946.9554,N,08404.9851,W,0.0000,0.000,161117,,*3E
2017-11-16 14:15:52 1510859752.512490: $GPGSA,A,3,8,10,13,15,18,21,20,24,27,32,14,138,1.6,0.8,1.3*35
2017-11-16 14:15:53 1510859753.511754: $GPZDA,191552.00,16,11,2017,00,00*6E
2017-11-16 14:15:53 1510859753.511925: $GPGGA,191552,3946.9554,N,08404.9851,W,2,12,0.80,304.96,M,-33.324,M,,*7B
2017-11-16 14:15:53 1510859753.511986: $GPRMC,191552,A,3946.9554,N,08404.9851,W,0.0000,0.000,161117,,*3D
2017-11-16 14:15:53 1510859753.512043: $GPGSA,A,3,8,10,13,15,18,21,20,24,27,32,14,138,1.6,0.8,1.3*35
2017-11-16 14:15:54 1510859754.879550: $GPGSV,3,1,12,08,06,321,24,10,42,301,44,13,07,049,29,15,36,052,50*75
2017-11-16 14:15:54 1510859754.879717: $GPGSV,3,2,12,18,72,339,47,21,62,189,47,20,32,097,47,24,51,108,48*70
2017-11-16 14:15:54 1510859754.879777: $GPGSV,3,3,12,27,19,288,42,32,21,238,45,14,05,232,22,138,38,213,44*4B
2017-11-16 14:15:54 1510859754.992829: $GPZDA,191553.00,16,11,2017,00,00*6F
2017-11-16 14:15:54 1510859754.992982: $GPGGA,191553,3946.9554,N,08404.9851,W,2,12,0.80,304.96,M,-33.324,M,,*7A
2017-11-16 14:15:54 1510859754.993041: $GPRMC,191553,A,3946.9554,N,08404.9851,W,0.0000,0.000,161117,,*3C
2017-11-16 14:15:54 1510859754.993097: $GPGSA,A,3,8,10,13,15,18,21,20,24,27,32,14,138,1.6,0.8,1.3*35
2017-11-16 14:15:55 1510859755.511374: $GPZDA,191554.00,16,11,2017,00,00*68
2017-11-16 14:15:55 1510859755.511544: $GPGGA,191554,3946.9554,N,08404.9851,W,2,12,0.80,304.96,M,-33.324,M,,*7D
2017-11-16 14:15:55 1510859755.512062: $GPRMC,191554,A,3946.9554,N,08404.9851,W,0.0000,0.000,161117,,*3B
2017-11-16 14:15:55 1510859755.512139: $GPGSA,A,3,8,10,13,15,18,21,20,24,27,32,14,138,1.6,0.8,1.3*35
2017-11-16 14:15:56 1510859756.543691: $GPZDA,191555.00,16,11,2017,00,00*69
2017-11-16 14:15:56 1510859756.543846: $GPGGA,191555,3946.9554,N,08404.9851,W,2,12,0.80,304.96,M,-33.324,M,,*7C
2017-11-16 14:15:56 1510859756.543907: $GPRMC,191555,A,3946.9554,N,08404.9851,W,0.0000,0.000,161117,,*3A
2017-11-16 14:15:56 1510859756.543964: $GPGSA,A,3,8,10,13,15,18,21,20,24,27,32,14,138,1.6,0.8,1.3*35
2017-11-16 14:15:57 1510859757.879054: $GPGSV,3,1,12,08,06,321,33,10,42,301,43,13,07,049,28,15,36,052,50*75
2017-11-16 14:15:57 1510859757.879261: $GPGSV,3,2,12,18,72,339,47,21,62,189,47,20,32,097,47,24,51,108,48*70
2017-11-16 14:15:57 1510859757.879323: $GPGSV,3,3,12,27,19,288,42,32,21,238,45,14,05,232,00,138,38,213,44*4B
2017-11-16 14:15:57 1510859757.992256: $GPZDA,191556.00,16,11,2017,00,00*6A
2017-11-16 14:15:57 1510859757.992420: $GPGGA,191556,3946.9554,N,08404.9851,W,2,11,0.80,304.96,M,-33.324,M,,*7C
2017-11-16 14:15:57 1510859757.992502: $GPRMC,191556,A,3946.9554,N,08404.9851,W,0.0000,0.000,161117,,*39
2017-11-16 14:15:57 1510859757.992560: $GPGSA,A,3,8,10,13,15,18,21,20,24,27,32,138,,1.6,0.8,1.3*30
2017-11-16 14:15:58 1510859758.543068: $GPZDA,191557.00,16,11,2017,00,00*6B
2017-11-16 14:15:58 1510859758.543225: $GPGGA,191557,3946.9554,N,08404.9851,W,2,11,0.80,304.96,M,-33.324,M,,*7D
2017-11-16 14:15:58 1510859758.543287: $GPRMC,191557,A,3946.9554,N,08404.9851,W,0.0000,0.000,161117,,*38
2017-11-16 14:15:58 1510859758.543344: $GPGSA,A,3,8,10,13,15,18,21,20,24,27,32,138,,1.6,0.8,1.3*30
