2018-01-11 19:41:19 1515717679.111762: {"class":"VERSION","release":"3.16","rev":"3.16-4","proto_major":3,"proto_minor":11}
2018-01-11 19:41:19 1515717679.112095: {"class":"DEVICES","devices":[{"class":"DEVICE","path":"/dev/ttyUSB0","driver":"SiRF","subtype":"9\u0006GSD4e_4.1.2-P1_RPATCH.05-F-GPS-4R-1510281 11/03/2015 307","activated":"2018-01-12T00:41:18.615Z","flags":1,"native":1,"bps":4800,"parity":"N","stopbits":1,"cycle":1.00}]}
2018-01-11 19:41:19 1515717679.112205: {"class":"WATCH","enable":true,"json":false,"nmea":true,"raw":0,"scaled":false,"timing":false,"split24":false,"pps":false}
2018-01-11 19:41:19 1515717679.399535: $GPZDA,004120.00,12,01,2018,00,00*68
2018-01-11 19:41:19 1515717679.399706: $GPGGA,004120,3946.9550,N,08404.9807,W,2,09,0.80,301.22,M,-33.324,M,,*70
2018-01-11 19:41:19 1515717679.399774: $GPRMC,004120,A,3946.9550,N,08404.9807,W,0.0000,0.000,120118,,*3C
2018-01-11 19:41:19 1515717679.399834: $GPGSA,A,3,7,8,9,16,23,27,30,11,138,,,,4.0,0.8,3.5*34
2018-01-11 19:41:20 1515717680.735161: $GPGSV,3,1,12,07,43,309,41,08,62,159,46,09,56,250,43,16,34,052,48*75
2018-01-11 19:41:20 1515717680.735315: $GPGSV,3,2,12,23,43,195,47,27,57,070,50,30,18,301,26,28,04,249,25*7C
2018-01-11 19:41:20 1515717680.735384: $GPGSV,3,3,12,26,08,064,00,11,09,172,30,21,01,033,00,138,38,213,45*48
2018-01-11 19:41:20 1515717680.848546: $GPZDA,004121.00,12,01,2018,00,00*69
2018-01-11 19:41:20 1515717680.848686: $GPGGA,004121,3946.9550,N,08404.9807,W,2,10,0.80,301.22,M,-33.324,M,,*79
2018-01-11 19:41:20 1515717680.848752: $GPRMC,004121,A,3946.9550,N,08404.9807,W,0.0000,0.000,120118,,*3D
2018-01-11 19:41:20 1515717680.848814: $GPGSA,A,3,7,8,9,16,23,27,30,28,11,138,,,4.0,0.8,3.5*3E
2018-01-11 19:41:21 1515717681.400703: $GPZDA,004122.00,12,01,2018,00,00*6A
2018-01-11 19:41:21 1515717681.400879: $GPGGA,004122,3946.9550,N,08404.9808,W,2,10,0.80,302.62,M,-33.324,M,,*72
2018-01-11 19:41:21 1515717681.400945: $GPRMC,004122,A,3946.9550,N,08404.9808,W,0.0000,0.000,120118,,*31
2018-01-11 19:41:21 1515717681.401008: $GPGSA,A,3,7,8,9,16,23,27,30,28,11,138,,,4.0,0.8,3.5*3E
2018-01-11 19:41:22 1515717682.400330: $GPZDA,004123.00,12,01,2018,00,00*6B
2018-01-11 19:41:22 1515717682.400500: $GPGGA,004123,3946.9550,N,08404.9808,W,2,10,0.80,302.62,M,-33.324,M,,*73
2018-01-11 19:41:22 1515717682.400566: $GPRMC,004123,A,3946.9550,N,08404.9808,W,0.0000,0.000,120118,,*30
2018-01-11 19:41:22 1515717682.400628: $GPGSA,A,3,7,8,9,16,23,27,30,28,11,138,,,4.0,0.8,3.5*3E
2018-01-11 19:41:23 1515717683.736760: $GPGSV,3,1,12,07,43,309,41,08,62,159,46,09,56,250,43,16,34,052,48*75
2018-01-11 19:41:23 1515717683.736929: $GPGSV,3,2,12,23,43,195,47,27,57,070,50,30,18,301,26,28,04,249,27*7E
2018-01-11 19:41:23 1515717683.736996: $GPGSV,3,3,12,26,08,064,16,11,09,172,30,21,01,033,00,138,38,213,44*4E
2018-01-11 19:41:23 1515717683.850148: $GPZDA,004124.00,12,01,2018,00,00*6C
2018-01-11 19:41:23 1515717683.850265: $GPGGA,004124,3946.9550,N,08404.9808,W,2,10,0.80,302.62,M,-33.324,M,,*74
2018-01-11 19:41:23 1515717683.850333: $GPRMC,004124,A,3946.9550,N,08404.9808,W,0.0000,0.000,120118,,*37
2018-01-11 19:41:23 1515717683.850392: $GPGSA,A,3,7,8,9,16,23,27,30,28,11,138,,,4.0,0.8,3.5*3E
2018-01-11 19:41:24 1515717684.915518: $GPZDA,004125.00,12,01,2018,00,00*6D
2018-01-11 19:41:24 1515717684.915676: $GPGGA,004125,3946.9551,N,08404.9815,W,2,10,0.80,302.54,M,-33.324,M,,*7D
2018-01-11 19:41:24 1515717684.915742: $GPRMC,004125,A,3946.9551,N,08404.9815,W,0.0000,0.000,120118,,*3B
2018-01-11 19:41:24 1515717684.915803: $GPGSA,A,3,7,8,9,16,23,27,30,28,11,138,,,4.0,0.8,3.5*3E
2018-01-11 19:41:25 1515717685.401468: $GPZDA,004126.00,12,01,2018,00,00*6E
2018-01-11 19:41:25 1515717685.401638: $GPGGA,004126,3946.9555,N,08404.9815,W,2,10,0.80,303.18,M,-33.324,M,,*73
2018-01-11 19:41:25 1515717685.401706: $GPRMC,004126,A,3946.9555,N,08404.9815,W,0.0000,0.000,120118,,*3C
2018-01-11 19:41:25 1515717685.401766: $GPGSA,A,3,7,8,9,16,23,27,30,28,11,138,,,4.0,0.8,3.5*3E
2018-01-11 19:41:26 1515717686.745847: $GPGSV,3,1,12,07,43,309,40,08,62,159,46,09,55,249,43,16,33,052,48*78
2018-01-11 19:41:26 1515717686.746072: $GPGSV,3,2,12,23,43,195,47,27,57,069,50,30,18,301,23,28,05,249,28*7D
2018-01-11 19:41:26 1515717686.746142: $GPGSV,3,3,12,26,08,064,02,11,09,172,30,21,01,033,00,138,38,213,44*4B
2018-01-11 19:41:26 1515717686.859270: $GPZDA,004127.00,12,01,2018,00,00*6F
2018-01-11 19:41:26 1515717686.859399: $GPGGA,004127,3946.9555,N,08404.9815,W,2,10,0.80,303.18,M,-33.324,M,,*72
2018-01-11 19:41:26 1515717686.859464: $GPRMC,004127,A,3946.9555,N,08404.9815,W,0.0000,0.000,120118,,*3D
2018-01-11 19:41:26 1515717686.859525: $GPGSA,A,3,7,8,9,16,23,27,30,28,11,138,,,4.0,0.8,3.5*3E
