2017-12-01 11:38:30 1512146310.476912: {"class":"VERSION","release":"3.16","rev":"3.16-4","proto_major":3,"proto_minor":11}
2017-12-01 11:38:30 1512146310.477447: {"class":"DEVICES","devices":[{"class":"DEVICE","path":"/dev/ttyUSB0","driver":"SiRF","subtype":"9\u0006GSD4e_4.1.2-P1_RPATCH.05-F-GPS-4R-1510281 11/03/2015 307","activated":"2017-12-01T16:38:30.459Z","flags":1,"native":1,"bps":4800,"parity":"N","stopbits":1,"cycle":1.00}]}
2017-12-01 11:38:30 1512146310.484864: {"class":"WATCH","enable":true,"json":false,"nmea":true,"raw":0,"scaled":false,"timing":false,"split24":false,"pps":false}
2017-12-01 11:38:32 1512146312.195083: $GPGSV,3,1,12,05,15,076,37,10,11,270,44,13,45,051,48,15,77,081,48*72
2017-12-01 11:38:32 1512146312.195446: $GPGSV,3,2,12,18,42,283,44,20,64,046,42,21,65,307,45,24,18,150,42*71
2017-12-01 11:38:32 1512146312.195591: $GPGSV,3,3,12,27,07,325,24,29,26,195,43,04,14,129,00,138,38,213,46*47
2017-12-01 11:38:32 1512146312.308458: $GPZDA,163832.00,01,12,2017,00,00*6D
2017-12-01 11:38:32 1512146312.308625: $GPGGA,163832,3946.9557,N,08404.9851,W,2,11,0.80,304.19,M,-33.324,M,,*7A
2017-12-01 11:38:32 1512146312.308695: $GPRMC,163832,A,3946.9557,N,08404.9851,W,0.0000,0.000,011217,,*3D
2017-12-01 11:38:32 1512146312.308760: $GPGSA,A,3,5,10,13,15,18,20,21,24,27,29,138,,2.0,0.8,1.5*34
2017-12-01 11:38:32 1512146312.933798: $GPZDA,163833.00,01,12,2017,00,00*6C
2017-12-01 11:38:32 1512146312.933992: $GPGGA,163833,3946.9557,N,08404.9851,W,2,11,0.80,304.19,M,-33.324,M,,*7B
2017-12-01 11:38:32 1512146312.934063: $GPRMC,163833,A,3946.9557,N,08404.9851,W,0.0000,0.000,011217,,*3C
2017-12-01 11:38:32 1512146312.934127: $GPGSA,A,3,5,10,13,15,18,20,21,24,27,29,138,,2.0,0.8,1.5*34
2017-12-01 11:38:33 1512146313.384643: $GPZDA,163834.00,01,12,2017,00,00*6B
2017-12-01 11:38:33 1512146313.384843: $GPGGA,163834,3946.9557,N,08404.9851,W,2,11,0.80,304.19,M,-33.324,M,,*7C
2017-12-01 11:38:33 1512146313.384942: $GPRMC,163834,A,3946.9557,N,08404.9851,W,0.0000,0.000,011217,,*3B
2017-12-01 11:38:33 1512146313.385008: $GPGSA,A,3,5,10,13,15,18,20,21,24,27,29,138,,2.0,0.8,1.5*34
2017-12-01 11:38:34 1512146314.685405: $GPGSV,3,1,12,05,15,076,36,10,11,270,44,13,45,051,47,15,77,081,48*7C
2017-12-01 11:38:34 1512146314.685588: $GPGSV,3,2,12,18,42,283,44,20,64,046,42,21,65,307,45,24,18,150,42*71
2017-12-01 11:38:34 1512146314.685657: $GPGSV,3,3,12,27,07,325,31,29,26,195,43,04,14,129,00,138,38,213,46*43
2017-12-01 11:38:34 1512146314.798847: $GPZDA,163835.00,01,12,2017,00,00*6A
2017-12-01 11:38:34 1512146314.799033: $GPGGA,163835,3946.9557,N,08404.9851,W,2,11,0.80,304.19,M,-33.324,M,,*7D
2017-12-01 11:38:34 1512146314.799104: $GPRMC,163835,A,3946.9557,N,08404.9851,W,0.0000,0.000,011217,,*3A
2017-12-01 11:38:34 1512146314.799168: $GPGSA,A,3,5,10,13,15,18,20,21,24,27,29,138,,2.0,0.8,1.5*34
2017-12-01 11:38:35 1512146315.344625: $GPZDA,163836.00,01,12,2017,00,00*69
2017-12-01 11:38:35 1512146315.344846: $GPGGA,163836,3946.9557,N,08404.9851,W,2,11,0.80,304.19,M,-33.324,M,,*7E
2017-12-01 11:38:35 1512146315.344949: $GPRMC,163836,A,3946.9557,N,08404.9851,W,0.0000,0.000,011217,,*39
2017-12-01 11:38:35 1512146315.345015: $GPGSA,A,3,5,10,13,15,18,20,21,24,27,29,138,,2.0,0.8,1.5*34
2017-12-01 11:38:36 1512146316.341950: $GPZDA,163837.00,01,12,2017,00,00*68
2017-12-01 11:38:36 1512146316.342123: $GPGGA,163837,3946.9558,N,08404.9851,W,2,11,0.80,305.60,M,-33.324,M,,*7F
2017-12-01 11:38:36 1512146316.342192: $GPRMC,163837,A,3946.9558,N,08404.9851,W,0.0000,0.000,011217,,*37
2017-12-01 11:38:36 1512146316.342255: $GPGSA,A,3,5,10,13,15,18,20,21,24,27,29,138,,2.0,0.8,1.5*34
2017-12-01 11:38:37 1512146317.680712: $GPGSV,3,1,12,05,15,076,36,10,11,270,44,13,45,051,48,15,77,081,48*73
2017-12-01 11:38:37 1512146317.680947: $GPGSV,3,2,12,18,42,283,44,20,64,046,42,21,65,307,45,24,18,150,42*71
2017-12-01 11:38:37 1512146317.681033: $GPGSV,3,3,12,27,07,325,32,29,26,195,44,04,14,129,00,138,38,213,46*47
2017-12-01 11:38:37 1512146317.794367: $GPZDA,163838.00,01,12,2017,00,00*67
2017-12-01 11:38:37 1512146317.794540: $GPGGA,163838,3946.9558,N,08404.9851,W,2,11,0.80,305.60,M,-33.324,M,,*70
2017-12-01 11:38:37 1512146317.794696: $GPRMC,163838,A,3946.9558,N,08404.9851,W,0.0000,0.000,011217,,*38
2017-12-01 11:38:37 1512146317.794785: $GPGSA,A,3,5,10,13,15,18,20,21,24,27,29,138,,2.0,0.8,1.5*34
2017-12-01 11:38:38 1512146318.344423: $GPZDA,163839.00,01,12,2017,00,00*66
2017-12-01 11:38:38 1512146318.344726: $GPGGA,163839,3946.9558,N,08404.9851,W,2,11,0.80,305.60,M,-33.324,M,,*71
2017-12-01 11:38:38 1512146318.344900: $GPRMC,163839,A,3946.9558,N,08404.9851,W,0.0000,0.000,011217,,*39
2017-12-01 11:38:38 1512146318.344964: $GPGSA,A,3,5,10,13,15,18,20,21,24,27,29,138,,2.0,0.8,1.5*34
2017-12-01 11:38:39 1512146319.345895: $GPZDA,163840.00,01,12,2017,00,00*68
2017-12-01 11:38:39 1512146319.346067: $GPGGA,163840,3946.9558,N,08404.9851,W,2,11,0.80,305.60,M,-33.324,M,,*7F
2017-12-01 11:38:39 1512146319.346133: $GPRMC,163840,A,3946.9558,N,08404.9851,W,0.0000,0.000,011217,,*37
2017-12-01 11:38:39 1512146319.346194: $GPGSA,A,3,5,10,13,15,18,20,21,24,27,29,138,,2.0,0.8,1.5*34
