2018-01-11 21:00:52 1515722452.744591: {"class":"VERSION","release":"3.16","rev":"3.16-4","proto_major":3,"proto_minor":11}
2018-01-11 21:00:52 1515722452.744940: {"class":"DEVICES","devices":[{"class":"DEVICE","path":"/dev/ttyUSB0","driver":"SiRF","subtype":"9\u0006GSD4e_4.1.2-P1_RPATCH.05-F-GPS-4R-1510281 11/03/2015 307","activated":"2018-01-12T02:00:52.667Z","flags":1,"native":1,"bps":4800,"parity":"N","stopbits":1,"cycle":1.00}]}
2018-01-11 21:00:52 1515722452.745055: {"class":"WATCH","enable":true,"json":false,"nmea":true,"raw":0,"scaled":false,"timing":false,"split24":false,"pps":false}
2018-01-11 21:00:53 1515722453.351594: $GPZDA,020054.00,12,01,2018,00,00*6C
2018-01-11 21:00:53 1515722453.351758: $GPGGA,020054,3946.9581,N,08404.9858,W,2,11,0.80,295.87,M,-33.324,M,,*78
2018-01-11 21:00:53 1515722453.351824: $GPRMC,020054,A,3946.9581,N,08404.9858,W,0.0000,0.000,120118,,*3E
2018-01-11 21:00:53 1515722453.351884: $GPGSA,A,3,1,7,8,9,11,27,30,16,23,28,138,,4.0,0.8,3.5*0F
2018-01-11 21:00:54 1515722454.687331: $GPGSV,3,1,12,01,16,153,42,07,78,310,43,08,66,057,48,09,29,211,42*72
2018-01-11 21:00:54 1515722454.687481: $GPGSV,3,2,12,11,40,157,46,27,27,045,49,30,49,310,42,16,07,075,22*7A
2018-01-11 21:00:54 1515722454.687544: $GPGSV,3,3,12,23,08,183,33,28,29,276,37,13,01,330,00,138,38,213,45*4C
2018-01-11 21:00:54 1515722454.799517: $GPZDA,020055.00,12,01,2018,00,00*6D
2018-01-11 21:00:54 1515722454.799677: $GPGGA,020055,3946.9581,N,08404.9858,W,2,11,0.80,295.87,M,-33.324,M,,*79
2018-01-11 21:00:54 1515722454.799742: $GPRMC,020055,A,3946.9581,N,08404.9858,W,0.0000,0.000,120118,,*3F
2018-01-11 21:00:54 1515722454.799802: $GPGSA,A,3,1,7,8,9,11,27,30,16,23,28,138,,4.0,0.8,3.5*0F
2018-01-11 21:00:55 1515722455.355312: $GPZDA,020056.00,12,01,2018,00,00*6E
2018-01-11 21:00:55 1515722455.355477: $GPGGA,020056,3946.9581,N,08404.9858,W,2,11,0.80,295.87,M,-33.324,M,,*7A
2018-01-11 21:00:55 1515722455.355543: $GPRMC,020056,A,3946.9581,N,08404.9858,W,0.0000,0.000,120118,,*3C
2018-01-11 21:00:55 1515722455.355604: $GPGSA,A,3,1,7,8,9,11,27,30,16,23,28,138,,4.0,0.8,3.5*0F
2018-01-11 21:00:56 1515722456.336212: $GPZDA,020057.00,12,01,2018,00,00*6F
2018-01-11 21:00:56 1515722456.336372: $GPGGA,020057,3946.9581,N,08404.9858,W,2,11,0.80,295.87,M,-33.324,M,,*7B
2018-01-11 21:00:56 1515722456.336437: $GPRMC,020057,A,3946.9581,N,08404.9858,W,0.0000,0.000,120118,,*3D
2018-01-11 21:00:56 1515722456.336497: $GPGSA,A,3,1,7,8,9,11,27,30,16,23,28,138,,4.0,0.8,3.5*0F
2018-01-11 21:00:57 1515722457.688196: $GPGSV,3,1,12,01,16,153,42,07,78,310,43,08,66,057,48,09,29,211,42*72
2018-01-11 21:00:57 1515722457.688355: $GPGSV,3,2,12,11,40,157,46,27,27,045,49,30,49,310,42,16,07,075,22*7A
2018-01-11 21:00:57 1515722457.688420: $GPGSV,3,3,12,23,08,183,33,28,29,276,37,13,01,330,00,138,38,213,45*4C
2018-01-11 21:00:57 1515722457.801548: $GPZDA,020058.00,12,01,2018,00,00*60
2018-01-11 21:00:57 1515722457.801719: $GPGGA,020058,3946.9581,N,08404.9858,W,2,11,0.80,295.87,M,-33.324,M,,*74
2018-01-11 21:00:57 1515722457.801784: $GPRMC,020058,A,3946.9581,N,08404.9858,W,0.0000,0.000,120118,,*32
2018-01-11 21:00:57 1515722457.801844: $GPGSA,A,3,1,7,8,9,11,27,30,16,23,28,138,,4.0,0.8,3.5*0F
2018-01-11 21:00:58 1515722458.427184: $GPZDA,020059.00,12,01,2018,00,00*61
2018-01-11 21:00:58 1515722458.427327: $GPGGA,020059,3946.9581,N,08404.9858,W,2,11,0.80,295.87,M,-33.324,M,,*75
2018-01-11 21:00:58 1515722458.427392: $GPRMC,020059,A,3946.9581,N,08404.9858,W,0.0000,0.000,120118,,*33
2018-01-11 21:00:58 1515722458.427452: $GPGSA,A,3,1,7,8,9,11,27,30,16,23,28,138,,4.0,0.8,3.5*0F
2018-01-11 21:00:59 1515722459.336814: $GPZDA,020100.00,12,01,2018,00,00*6C
2018-01-11 21:00:59 1515722459.336973: $GPGGA,020100,3946.9581,N,08404.9858,W,2,11,0.80,295.87,M,-33.324,M,,*78
2018-01-11 21:00:59 1515722459.337039: $GPRMC,020100,A,3946.9581,N,08404.9858,W,0.0000,0.000,120118,,*3E
2018-01-11 21:00:59 1515722459.337099: $GPGSA,A,3,1,7,8,9,11,27,30,16,23,28,138,,4.0,0.8,3.5*0F
