2017-12-01 13:20:59 1512152459.897694: {"class":"VERSION","release":"3.16","rev":"3.16-4","proto_major":3,"proto_minor":11}
2017-12-01 13:20:59 1512152459.898214: {"class":"DEVICES","devices":[{"class":"DEVICE","path":"/dev/ttyUSB0","driver":"SiRF","subtype":"9\u0006GSD4e_4.1.2-P1_RPATCH.05-F-GPS-4R-1510281 11/03/2015 307","activated":"2017-12-01T18:20:59.889Z","flags":1,"native":1,"bps":4800,"parity":"N","stopbits":1,"cycle":1.00}]}
2017-12-01 13:20:59 1512152459.898357: {"class":"WATCH","enable":true,"json":false,"nmea":true,"raw":0,"scaled":false,"timing":false,"split24":false,"pps":false}
2017-12-01 13:21:00 1512152460.477243: $GPZDA,182101.00,01,12,2017,00,00*6B
2017-12-01 13:21:00 1512152460.477451: $GPGGA,182101,3946.9554,N,08404.9853,W,2,11,1.00,295.69,M,-33.324,M,,*7A
2017-12-01 13:21:00 1512152460.477521: $GPRMC,182101,A,3946.9554,N,08404.9853,W,0.0000,0.000,011217,,*3A
2017-12-01 13:21:00 1512152460.477583: $GPGSA,A,3,10,15,18,20,21,24,32,8,13,27,138,,2.0,1.0,1.5*3A
2017-12-01 13:21:01 1512152461.406895: $GPZDA,182102.00,01,12,2017,00,00*68
2017-12-01 13:21:01 1512152461.653570: $GPGGA,182102,3946.9550,N,08404.9854,W,2,11,1.00,296.45,M,-33.324,M,,*77
2017-12-01 13:21:01 1512152461.653756: $GPRMC,182102,A,3946.9550,N,08404.9854,W,0.0000,0.000,011217,,*3A
2017-12-01 13:21:01 1512152461.653827: $GPGSA,A,3,10,15,18,20,21,24,32,8,13,27,138,,2.0,1.0,1.5*3A
2017-12-01 13:21:02 1512152462.736369: $GPGSV,3,1,12,10,45,304,48,15,33,054,49,18,73,348,43,20,30,099,46*7D
2017-12-01 13:21:02 1512152462.736564: $GPGSV,3,2,12,21,59,186,46,24,52,103,47,32,24,241,42,08,07,318,32*7B
2017-12-01 13:21:02 1512152462.736631: $GPGSV,3,3,12,13,04,049,19,27,18,285,36,14,07,234,00,138,38,213,47*4A
2017-12-01 13:21:02 1512152462.849987: $GPZDA,182103.00,01,12,2017,00,00*69
2017-12-01 13:21:02 1512152462.850155: $GPGGA,182103,3946.9550,N,08404.9854,W,2,11,1.00,296.45,M,-33.324,M,,*76
2017-12-01 13:21:02 1512152462.850222: $GPRMC,182103,A,3946.9550,N,08404.9854,W,0.0000,0.000,011217,,*3B
2017-12-01 13:21:02 1512152462.850304: $GPGSA,A,3,10,15,18,20,21,24,32,8,13,27,138,,2.0,1.0,1.5*3A
2017-12-01 13:21:03 1512152463.403124: $GPZDA,182104.00,01,12,2017,00,00*6E
2017-12-01 13:21:03 1512152463.403329: $GPGGA,182104,3946.9550,N,08404.9854,W,2,11,0.80,296.45,M,-33.324,M,,*78
2017-12-01 13:21:03 1512152463.403430: $GPRMC,182104,A,3946.9550,N,08404.9854,W,0.0000,0.000,011217,,*3C
2017-12-01 13:21:03 1512152463.403493: $GPGSA,A,3,10,15,18,20,21,24,32,8,13,27,138,,2.0,0.8,1.5*33
2017-12-01 13:21:04 1512152464.403991: $GPZDA,182105.00,01,12,2017,00,00*6F
2017-12-01 13:21:04 1512152464.404200: $GPGGA,182105,3946.9554,N,08404.9854,W,2,11,1.00,297.09,M,-33.324,M,,*7D
2017-12-01 13:21:04 1512152464.404277: $GPRMC,182105,A,3946.9554,N,08404.9854,W,0.0000,0.000,011217,,*39
2017-12-01 13:21:04 1512152464.404347: $GPGSA,A,3,10,15,18,20,21,24,32,8,13,27,138,,2.0,1.0,1.5*3A
2017-12-01 13:21:04 1512152464.404414: $GPGBS,182105,2.67,M,3.86,M,8.82,M*3D
2017-12-01 13:21:05 1512152465.737849: $GPGSV,3,1,12,10,45,304,47,15,33,054,49,18,73,348,44,20,30,099,45*76
2017-12-01 13:21:06 1512152466.345453: $GPGSV,3,2,12,21,59,186,46,24,52,103,47,32,24,241,42,08,07,318,32*7B
2017-12-01 13:21:06 1512152466.345614: $GPGSV,3,3,12,13,04,049,19,27,18,285,37,14,07,234,00,138,38,213,46*4A
2017-12-01 13:21:06 1512152466.345719: $GPZDA,182106.00,01,12,2017,00,00*6C
2017-12-01 13:21:06 1512152466.345781: $GPGGA,182106,3946.9554,N,08404.9854,W,2,11,1.00,297.09,M,-33.324,M,,*7E
2017-12-01 13:21:06 1512152466.345846: $GPRMC,182106,A,3946.9554,N,08404.9854,W,0.0000,0.000,011217,,*3A
2017-12-01 13:21:06 1512152466.345911: $GPGSA,A,3,10,15,18,20,21,24,32,8,13,27,138,,2.0,1.0,1.5*3A
2017-12-01 13:21:06 1512152466.400827: $GPZDA,182107.00,01,12,2017,00,00*6D
2017-12-01 13:21:06 1512152466.400970: $GPGGA,182107,3946.9554,N,08404.9854,W,2,11,0.80,297.09,M,-33.324,M,,*76
2017-12-01 13:21:06 1512152466.401041: $GPRMC,182107,A,3946.9554,N,08404.9854,W,0.0000,0.000,011217,,*3B
2017-12-01 13:21:06 1512152466.401104: $GPGSA,A,3,10,15,18,20,21,24,32,8,13,27,138,,2.0,0.8,1.5*33
2017-12-01 13:21:07 1512152467.400542: $GPZDA,182108.00,01,12,2017,00,00*62
2017-12-01 13:21:07 1512152467.400709: $GPGGA,182108,3946.9554,N,08404.9854,W,2,11,1.00,297.09,M,-33.324,M,,*70
2017-12-01 13:21:07 1512152467.400777: $GPRMC,182108,A,3946.9554,N,08404.9854,W,0.0000,0.000,011217,,*34
2017-12-01 13:21:07 1512152467.400838: $GPGSA,A,3,10,15,18,20,21,24,32,8,13,27,138,,2.0,1.0,1.5*3A
2017-12-01 13:21:08 1512152468.736207: $GPGSV,3,1,12,10,45,304,46,15,33,054,48,18,73,348,43,20,30,099,45*71
2017-12-01 13:21:08 1512152468.736401: $GPGSV,3,2,12,21,59,186,45,24,52,103,46,32,24,241,42,08,07,318,32*79
2017-12-01 13:21:08 1512152468.736471: $GPGSV,3,3,12,13,04,049,19,27,18,285,39,14,07,234,00,138,38,213,47*45
2017-12-01 13:21:08 1512152468.849720: $GPZDA,182109.00,01,12,2017,00,00*63
2017-12-01 13:21:08 1512152468.849878: $GPGGA,182109,3946.9562,N,08404.9853,W,2,11,1.00,296.97,M,-33.324,M,,*75
2017-12-01 13:21:08 1512152468.849945: $GPRMC,182109,A,3946.9562,N,08404.9853,W,0.0000,0.000,011217,,*37
2017-12-01 13:21:08 1512152468.850007: $GPGSA,A,3,10,15,18,20,21,24,32,8,13,27,138,,2.0,1.0,1.5*3A
2017-12-01 13:21:09 1512152469.402088: $GPZDA,182110.00,01,12,2017,00,00*6B
2017-12-01 13:21:09 1512152469.402264: $GPGGA,182110,3946.9562,N,08404.9853,W,2,11,1.00,296.97,M,-33.324,M,,*7D
2017-12-01 13:21:09 1512152469.402332: $GPRMC,182110,A,3946.9562,N,08404.9853,W,0.0000,0.000,011217,,*3F
2017-12-01 13:21:09 1512152469.402397: $GPGSA,A,3,10,15,18,20,21,24,32,8,13,27,138,,2.0,1.0,1.5*3A
