2017-12-01 18:00:33 1512169233.057417: {"class":"VERSION","release":"3.16","rev":"3.16-4","proto_major":3,"proto_minor":11}
2017-12-01 18:00:33 1512169233.057786: {"class":"DEVICES","devices":[{"class":"DEVICE","path":"/dev/ttyUSB0","driver":"SiRF","subtype":"9\u0006GSD4e_4.1.2-P1_RPATCH.05-F-GPS-4R-1510281 11/03/2015 307","activated":"2017-12-01T23:00:32.552Z","flags":1,"native":1,"bps":4800,"parity":"N","stopbits":1,"cycle":1.00}]}
2017-12-01 18:00:33 1512169233.057898: {"class":"WATCH","enable":true,"json":false,"nmea":true,"raw":0,"scaled":false,"timing":false,"split24":false,"pps":false}
2017-12-01 18:00:33 1512169233.410650: $GPZDA,230034.00,01,12,2017,00,00*66
2017-12-01 18:00:33 1512169233.410818: $GPGGA,230034,3946.9725,N,08404.9835,W,2,12,0.80,301.45,M,-33.325,M,,*7A
2017-12-01 18:00:33 1512169233.410883: $GPRMC,230034,A,3946.9725,N,08404.9835,W,0.0000,0.000,011217,,*33
2017-12-01 18:00:33 1512169233.410944: $GPGSA,A,3,1,3,10,14,16,22,29,25,26,31,32,138,2.0,0.8,1.5*0C
2017-12-01 18:00:34 1512169234.745793: $GPGSV,3,1,12,01,12,261,40,03,33,309,48,10,07,159,34,14,62,075,44*71
2017-12-01 18:00:34 1512169234.745972: $GPGSV,3,2,12,16,12,189,40,22,48,286,46,29,07,081,28,25,26,045,42*72
2017-12-01 18:00:34 1512169234.746038: $GPGSV,3,3,12,26,42,175,46,31,75,003,47,32,44,097,43,138,38,213,45*41
2017-12-01 18:00:34 1512169234.859157: $GPZDA,230035.00,01,12,2017,00,00*67
2017-12-01 18:00:34 1512169234.859336: $GPGGA,230035,3946.9725,N,08404.9835,W,2,12,0.80,301.45,M,-33.325,M,,*7B
2017-12-01 18:00:34 1512169234.859404: $GPRMC,230035,A,3946.9725,N,08404.9835,W,0.0000,0.000,011217,,*32
2017-12-01 18:00:34 1512169234.859465: $GPGSA,A,3,1,3,10,14,16,22,29,25,26,31,32,138,2.0,0.8,1.5*0C
2017-12-01 18:00:35 1512169235.412505: $GPZDA,230036.00,01,12,2017,00,00*64
2017-12-01 18:00:35 1512169235.412686: $GPGGA,230036,3946.9725,N,08404.9835,W,2,12,0.80,301.45,M,-33.325,M,,*78
2017-12-01 18:00:35 1512169235.412756: $GPRMC,230036,A,3946.9725,N,08404.9835,W,0.0000,0.000,011217,,*31
2017-12-01 18:00:35 1512169235.412817: $GPGSA,A,3,1,3,10,14,16,22,29,25,26,31,32,138,2.0,0.8,1.5*0C
2017-12-01 18:00:36 1512169236.409562: $GPZDA,230037.00,01,12,2017,00,00*65
2017-12-01 18:00:36 1512169236.409737: $GPGGA,230037,3946.9725,N,08404.9835,W,2,12,0.80,301.45,M,-33.325,M,,*79
2017-12-01 18:00:36 1512169236.409804: $GPRMC,230037,A,3946.9725,N,08404.9835,W,0.0000,0.000,011217,,*30
2017-12-01 18:00:36 1512169236.409866: $GPGSA,A,3,1,3,10,14,16,22,29,25,26,31,32,138,2.0,0.8,1.5*0C
2017-12-01 18:00:37 1512169237.774424: $GPGSV,3,1,12,01,12,261,39,03,33,309,48,10,07,159,34,14,62,075,44*7F
2017-12-01 18:00:37 1512169237.774627: $GPGSV,3,2,12,16,12,189,40,22,48,286,46,29,07,081,28,25,26,045,42*72
2017-12-01 18:00:37 1512169237.774697: $GPGSV,3,3,12,26,42,175,45,31,75,003,47,32,44,097,44,138,38,213,46*46
2017-12-01 18:00:37 1512169237.887493: $GPZDA,230038.00,01,12,2017,00,00*6A
2017-12-01 18:00:37 1512169237.887662: $GPGGA,230038,3946.9725,N,08404.9835,W,2,12,0.80,301.45,M,-33.325,M,,*76
2017-12-01 18:00:37 1512169237.887729: $GPRMC,230038,A,3946.9725,N,08404.9835,W,0.0000,0.000,011217,,*3F
2017-12-01 18:00:37 1512169237.887790: $GPGSA,A,3,1,3,10,14,16,22,29,25,26,31,32,138,2.0,0.8,1.5*0C
2017-12-01 18:00:38 1512169238.409573: $GPZDA,230039.00,01,12,2017,00,00*6B
2017-12-01 18:00:38 1512169238.409748: $GPGGA,230039,3946.9725,N,08404.9835,W,2,12,0.80,301.45,M,-33.325,M,,*77
2017-12-01 18:00:38 1512169238.409816: $GPRMC,230039,A,3946.9725,N,08404.9835,W,0.0000,0.000,011217,,*3E
2017-12-01 18:00:38 1512169238.409877: $GPGSA,A,3,1,3,10,14,16,22,29,25,26,31,32,138,2.0,0.8,1.5*0C
2017-12-01 18:00:39 1512169239.439876: $GPZDA,230040.00,01,12,2017,00,00*65
2017-12-01 18:00:39 1512169239.440074: $GPGGA,230040,3946.9725,N,08404.9835,W,2,12,0.80,301.45,M,-33.325,M,,*79
2017-12-01 18:00:39 1512169239.440143: $GPRMC,230040,A,3946.9725,N,08404.9835,W,0.0000,0.000,011217,,*30
2017-12-01 18:00:39 1512169239.440206: $GPGSA,A,3,1,3,10,14,16,22,29,25,26,31,32,138,2.0,0.8,1.5*0C
2017-12-01 18:00:40 1512169240.775616: $GPGSV,3,1,12,01,12,261,39,03,33,309,48,10,07,159,34,14,62,075,43*78
2017-12-01 18:00:40 1512169240.775850: $GPGSV,3,2,12,16,12,189,40,22,48,286,46,29,07,081,27,25,26,045,43*7C
2017-12-01 18:00:40 1512169240.775943: $GPGSV,3,3,12,26,42,175,46,31,75,003,46,32,44,097,43,138,38,213,46*43
2017-12-01 18:00:40 1512169240.888972: $GPZDA,230041.00,01,12,2017,00,00*64
2017-12-01 18:00:40 1512169240.889114: $GPGGA,230041,3946.9725,N,08404.9835,W,2,12,0.80,301.45,M,-33.325,M,,*78
2017-12-01 18:00:40 1512169240.889201: $GPRMC,230041,A,3946.9725,N,08404.9835,W,0.0000,0.000,011217,,*31
2017-12-01 18:00:40 1512169240.889263: $GPGSA,A,3,1,3,10,14,16,22,29,25,26,31,32,138,2.0,0.8,1.5*0C
2017-12-01 18:00:41 1512169241.439078: $GPZDA,230042.00,01,12,2017,00,00*67
2017-12-01 18:00:41 1512169241.439255: $GPGGA,230042,3946.9725,N,08404.9835,W,2,12,0.80,301.45,M,-33.325,M,,*7B
2017-12-01 18:00:41 1512169241.439322: $GPRMC,230042,A,3946.9725,N,08404.9835,W,0.0000,0.000,011217,,*32
2017-12-01 18:00:41 1512169241.439383: $GPGSA,A,3,1,3,10,14,16,22,29,25,26,31,32,138,2.0,0.8,1.5*0C
2017-12-01 18:00:42 1512169242.439745: $GPZDA,230043.00,01,12,2017,00,00*66
2017-12-01 18:00:42 1512169242.439918: $GPGGA,230043,3946.9725,N,08404.9835,W,2,12,0.80,301.45,M,-33.325,M,,*7A
2017-12-01 18:00:42 1512169242.440006: $GPRMC,230043,A,3946.9725,N,08404.9835,W,0.0000,0.000,011217,,*33
2017-12-01 18:00:42 1512169242.440069: $GPGSA,A,3,1,3,10,14,16,22,29,25,26,31,32,138,2.0,0.8,1.5*0C
2017-12-01 18:00:43 1512169243.747694: $GPGSV,3,1,12,01,12,261,38,03,33,309,48,10,07,159,35,14,62,075,43*78
2017-12-01 18:00:43 1512169243.747898: $GPGSV,3,2,12,16,12,189,40,22,48,286,46,29,07,081,27,25,26,045,43*7C
2017-12-01 18:00:43 1512169243.747966: $GPGSV,3,3,12,26,42,175,46,31,75,003,47,32,44,097,43,138,38,213,46*42
2017-12-01 18:00:43 1512169243.861440: $GPZDA,230044.00,01,12,2017,00,00*61
2017-12-01 18:00:43 1512169243.861620: $GPGGA,230044,3946.9725,N,08404.9835,W,2,12,0.80,301.45,M,-33.325,M,,*7D
2017-12-01 18:00:43 1512169243.861687: $GPRMC,230044,A,3946.9725,N,08404.9835,W,0.0000,0.000,011217,,*34
2017-12-01 18:00:43 1512169243.861748: $GPGSA,A,3,1,3,10,14,16,22,29,25,26,31,32,138,2.0,0.8,1.5*0C
2017-12-01 18:00:44 1512169244.487731: $GPZDA,230045.00,01,12,2017,00,00*60
2017-12-01 18:00:44 1512169244.487923: $GPGGA,230045,3946.9725,N,08404.9835,W,2,12,0.80,301.45,M,-33.325,M,,*7C
2017-12-01 18:00:44 1512169244.487992: $GPRMC,230045,A,3946.9725,N,08404.9835,W,0.0000,0.000,011217,,*35
2017-12-01 18:00:44 1512169244.488053: $GPGSA,A,3,1,3,10,14,16,22,29,25,26,31,32,138,2.0,0.8,1.5*0C
2017-12-01 18:00:45 1512169245.438708: $GPZDA,230046.00,01,12,2017,00,00*63
2017-12-01 18:00:45 1512169245.438878: $GPGGA,230046,3946.9725,N,08404.9835,W,2,12,0.80,301.45,M,-33.325,M,,*7F
2017-12-01 18:00:45 1512169245.438944: $GPRMC,230046,A,3946.9725,N,08404.9835,W,0.0000,0.000,011217,,*36
2017-12-01 18:00:45 1512169245.439005: $GPGSA,A,3,1,3,10,14,16,22,29,25,26,31,32,138,2.0,0.8,1.5*0C
2017-12-01 18:00:46 1512169246.774338: $GPGSV,3,1,12,01,12,261,38,03,33,309,47,10,07,159,34,14,62,075,43*76
2017-12-01 18:00:46 1512169246.774514: $GPGSV,3,2,12,16,12,189,40,22,48,286,46,29,07,081,26,25,26,045,43*7D
2017-12-01 18:00:46 1512169246.774582: $GPGSV,3,3,12,26,42,175,46,31,75,003,47,32,44,097,43,138,38,213,46*42
2017-12-01 18:00:46 1512169246.887949: $GPZDA,230047.00,01,12,2017,00,00*62
2017-12-01 18:00:46 1512169246.888118: $GPGGA,230047,3946.9725,N,08404.9835,W,2,12,0.80,301.45,M,-33.325,M,,*7E
2017-12-01 18:00:46 1512169246.888184: $GPRMC,230047,A,3946.9725,N,08404.9835,W,0.0000,0.000,011217,,*37
2017-12-01 18:00:46 1512169246.888245: $GPGSA,A,3,1,3,10,14,16,22,29,25,26,31,32,138,2.0,0.8,1.5*0C
2017-12-01 18:00:47 1512169247.412634: $GPZDA,230048.00,01,12,2017,00,00*6D
2017-12-01 18:00:47 1512169247.412791: $GPGGA,230048,3946.9725,N,08404.9835,W,2,12,0.80,301.45,M,-33.325,M,,*71
2017-12-01 18:00:47 1512169247.412857: $GPRMC,230048,A,3946.9725,N,08404.9835,W,0.0000,0.000,011217,,*38
2017-12-01 18:00:47 1512169247.412918: $GPGSA,A,3,1,3,10,14,16,22,29,25,26,31,32,138,2.0,0.8,1.5*0C
2017-12-01 18:00:48 1512169248.939555: $GPZDA,230049.00,01,12,2017,00,00*6C
2017-12-01 18:00:48 1512169248.939742: $GPGGA,230049,3946.9728,N,08404.9841,W,2,12,0.80,300.61,M,-33.325,M,,*79
2017-12-01 18:00:48 1512169248.939809: $GPRMC,230049,A,3946.9728,N,08404.9841,W,0.0000,0.000,011217,,*37
2017-12-01 18:00:48 1512169248.939871: $GPGSA,A,3,1,3,10,14,16,22,29,25,26,31,32,138,2.0,0.8,1.5*0C
2017-12-01 18:00:49 1512169249.901068: $GPGSV,3,1,12,01,11,261,37,03,33,307,47,10,07,159,34,14,62,075,43*74
2017-12-01 18:00:49 1512169249.901264: $GPGSV,3,2,12,16,13,189,41,22,48,286,46,29,07,081,26,25,25,045,42*7F
2017-12-01 18:00:49 1512169249.901331: $GPGSV,3,3,12,26,42,175,46,31,75,004,47,32,43,099,43,138,38,213,46*4C
2017-12-01 18:00:50 1512169250.013156: $GPZDA,230050.00,01,12,2017,00,00*64
2017-12-01 18:00:50 1512169250.013333: $GPGGA,230050,3946.9728,N,08404.9841,W,2,12,0.80,300.61,M,-33.325,M,,*71
2017-12-01 18:00:50 1512169250.013421: $GPRMC,230050,A,3946.9728,N,08404.9841,W,0.0000,0.000,011217,,*3F
2017-12-01 18:00:50 1512169250.013485: $GPGSA,A,3,1,3,10,14,16,22,29,25,26,31,32,138,2.0,0.8,1.5*0C
2017-12-01 18:00:50 1512169250.465337: $GPZDA,230051.00,01,12,2017,00,00*65
2017-12-01 18:00:50 1512169250.465519: $GPGGA,230051,3946.9728,N,08404.9841,W,2,12,0.80,300.61,M,-33.325,M,,*70
2017-12-01 18:00:50 1512169250.465586: $GPRMC,230051,A,3946.9728,N,08404.9841,W,0.0000,0.000,011217,,*3E
2017-12-01 18:00:50 1512169250.465647: $GPGSA,A,3,1,3,10,14,16,22,29,25,26,31,32,138,2.0,0.8,1.5*0C
2017-12-01 18:00:51 1512169251.440101: $GPZDA,230052.00,01,12,2017,00,00*66
2017-12-01 18:00:51 1512169251.440272: $GPGGA,230052,3946.9728,N,08404.9841,W,2,12,0.80,300.61,M,-33.325,M,,*73
2017-12-01 18:00:51 1512169251.440339: $GPRMC,230052,A,3946.9728,N,08404.9841,W,0.0000,0.000,011217,,*3D
2017-12-01 18:00:51 1512169251.440400: $GPGSA,A,3,1,3,10,14,16,22,29,25,26,31,32,138,2.0,0.8,1.5*0C
2017-12-01 18:00:52 1512169252.775577: $GPGSV,3,1,12,01,11,261,38,03,33,307,46,10,07,159,34,14,62,075,43*7A
2017-12-01 18:00:52 1512169252.775759: $GPGSV,3,2,12,16,13,189,40,22,48,286,46,29,07,081,25,25,25,045,42*7D
2017-12-01 18:00:52 1512169252.775825: $GPGSV,3,3,12,26,42,175,46,31,75,004,48,32,43,099,43,138,38,213,46*43
2017-12-01 18:00:52 1512169252.888941: $GPZDA,230053.00,01,12,2017,00,00*67
2017-12-01 18:00:52 1512169252.889116: $GPGGA,230053,3946.9728,N,08404.9841,W,2,12,0.80,300.61,M,-33.325,M,,*72
2017-12-01 18:00:52 1512169252.889184: $GPRMC,230053,A,3946.9728,N,08404.9841,W,0.0000,0.000,011217,,*3C
2017-12-01 18:00:52 1512169252.889246: $GPGSA,A,3,1,3,10,14,16,22,29,25,26,31,32,138,2.0,0.8,1.5*0C
