2017-12-31 18:47:01 1514764021.740664: {"class":"VERSION","release":"3.16","rev":"3.16-4","proto_major":3,"proto_minor":11}
2017-12-31 18:47:01 1514764021.740995: {"class":"DEVICES","devices":[{"class":"DEVICE","path":"/dev/ttyUSB0","driver":"SiRF","activated":"2017-12-31T23:47:01.525Z","flags":1,"native":1,"bps":4800,"parity":"N","stopbits":1,"cycle":1.00}]}
2017-12-31 18:47:01 1514764021.741093: {"class":"WATCH","enable":true,"json":false,"nmea":true,"raw":0,"scaled":false,"timing":false,"split24":false,"pps":false}
2017-12-31 18:47:02 1514764022.353295: $GPZDA,234703.00,31,12,2017,00,00*62
2017-12-31 18:47:02 1514764022.353456: $GPGGA,234703,3946.9581,N,08404.9862,W,2,11,0.80,303.66,M,-33.324,M,,*72
2017-12-31 18:47:02 1514764022.353522: $GPRMC,234703,A,3946.9581,N,08404.9862,W,0.0000,0.000,311217,,*39
2017-12-31 18:47:02 1514764022.353582: $GPGSA,A,3,22,23,9,3,16,8,31,27,7,26,135,,1.7,0.8,1.3*09
2017-12-31 18:47:03 1514764023.689036: $GPGSV,3,1,12,22,09,205,28,23,67,285,40,09,35,310,41,03,19,222,38*7D
2017-12-31 18:47:03 1514764023.689210: $GPGSV,3,2,12,16,79,036,42,08,14,175,36,14,01,139,00,31,17,087,33*7E
2017-12-31 18:47:03 1514764023.689276: $GPGSV,3,3,12,27,38,144,42,07,09,283,44,26,46,048,43,135,22,240,44*48
2017-12-31 18:47:03 1514764023.802387: $GPZDA,234704.00,31,12,2017,00,00*65
2017-12-31 18:47:03 1514764023.802538: $GPGGA,234704,3946.9585,N,08404.9862,W,2,11,0.80,304.30,M,-33.324,M,,*75
2017-12-31 18:47:03 1514764023.802602: $GPRMC,234704,A,3946.9585,N,08404.9862,W,0.0000,0.000,311217,,*3A
2017-12-31 18:47:03 1514764023.802662: $GPGSA,A,3,22,23,9,3,16,8,31,27,7,26,135,,1.7,0.8,1.3*09
2017-12-31 18:47:04 1514764024.353299: $GPZDA,234705.00,31,12,2017,00,00*64
2017-12-31 18:47:04 1514764024.353475: $GPGGA,234705,3946.9585,N,08404.9862,W,2,11,0.80,304.30,M,-33.324,M,,*74
2017-12-31 18:47:04 1514764024.353540: $GPRMC,234705,A,3946.9585,N,08404.9862,W,0.0000,0.000,311217,,*3B
2017-12-31 18:47:04 1514764024.353601: $GPGSA,A,3,22,23,9,3,16,8,31,27,7,26,135,,1.7,0.8,1.3*09
2017-12-31 18:47:05 1514764025.353648: $GPZDA,234706.00,31,12,2017,00,00*67
2017-12-31 18:47:05 1514764025.353827: $GPGGA,234706,3946.9585,N,08404.9862,W,2,11,0.80,304.30,M,-33.324,M,,*77
2017-12-31 18:47:05 1514764025.353893: $GPRMC,234706,A,3946.9585,N,08404.9862,W,0.0000,0.000,311217,,*38
2017-12-31 18:47:05 1514764025.353953: $GPGSA,A,3,22,23,9,3,16,8,31,27,7,26,135,,1.7,0.8,1.3*09
2017-12-31 18:47:06 1514764026.726856: $GPGSV,3,1,12,22,09,205,28,23,67,285,40,09,35,310,42,03,19,222,38*7E
2017-12-31 18:47:06 1514764026.727036: $GPGSV,3,2,12,16,79,036,43,08,14,175,36,14,01,139,00,31,17,087,33*7F
2017-12-31 18:47:06 1514764026.727164: $GPGSV,3,3,12,27,38,144,41,07,09,283,43,26,46,048,43,135,22,240,43*4B
2017-12-31 18:47:06 1514764026.840246: $GPZDA,234707.00,31,12,2017,00,00*66
2017-12-31 18:47:06 1514764026.840398: $GPGGA,234707,3946.9585,N,08404.9862,W,2,11,0.80,304.30,M,-33.324,M,,*76
2017-12-31 18:47:06 1514764026.840462: $GPRMC,234707,A,3946.9585,N,08404.9862,W,0.0000,0.000,311217,,*39
2017-12-31 18:47:06 1514764026.840522: $GPGSA,A,3,22,23,9,3,16,8,31,27,7,26,135,,1.7,0.8,1.3*09
2017-12-31 18:47:07 1514764027.393647: $GPZDA,234708.00,31,12,2017,00,00*69
2017-12-31 18:47:07 1514764027.393817: $GPGGA,234708,3946.9585,N,08404.9862,W,2,11,0.80,304.30,M,-33.324,M,,*79
2017-12-31 18:47:07 1514764027.393883: $GPRMC,234708,A,3946.9585,N,08404.9862,W,0.0000,0.000,311217,,*36
2017-12-31 18:47:07 1514764027.393944: $GPGSA,A,3,22,23,9,3,16,8,31,27,7,26,135,,1.7,0.8,1.3*09
2017-12-31 18:47:08 1514764028.383257: $GPZDA,234709.00,31,12,2017,00,00*68
2017-12-31 18:47:08 1514764028.383427: $GPGGA,234709,3946.9585,N,08404.9862,W,2,11,0.80,304.30,M,-33.324,M,,*78
2017-12-31 18:47:08 1514764028.383493: $GPRMC,234709,A,3946.9585,N,08404.9862,W,0.0000,0.000,311217,,*37
2017-12-31 18:47:08 1514764028.383553: $GPGSA,A,3,22,23,9,3,16,8,31,27,7,26,135,,1.7,0.8,1.3*09
2017-12-31 18:47:09 1514764029.688978: $GPGSV,3,1,12,22,09,205,27,23,67,285,40,09,35,310,41,03,19,222,37*7D
2017-12-31 18:47:09 1514764029.689152: $GPGSV,3,2,12,16,79,036,44,08,14,175,35,14,01,139,00,31,17,087,34*7C
2017-12-31 18:47:09 1514764029.689272: $GPGSV,3,3,12,27,38,144,41,07,09,283,42,26,46,048,43,135,22,240,44*4D
2017-12-31 18:47:09 1514764029.802353: $GPZDA,234710.00,31,12,2017,00,00*60
2017-12-31 18:47:09 1514764029.802506: $GPGGA,234710,3946.9581,N,08404.9862,W,2,11,0.80,303.66,M,-33.324,M,,*70
2017-12-31 18:47:09 1514764029.802570: $GPRMC,234710,A,3946.9581,N,08404.9862,W,0.0000,0.000,311217,,*3B
2017-12-31 18:47:09 1514764029.802630: $GPGSA,A,3,22,23,9,3,16,8,31,27,7,26,135,,1.7,0.8,1.3*09
2017-12-31 18:47:10 1514764030.429305: $GPZDA,234711.00,31,12,2017,00,00*61
2017-12-31 18:47:10 1514764030.429476: $GPGGA,234711,3946.9581,N,08404.9862,W,2,11,0.80,303.66,M,-33.324,M,,*71
2017-12-31 18:47:10 1514764030.429542: $GPRMC,234711,A,3946.9581,N,08404.9862,W,0.0000,0.000,311217,,*3A
2017-12-31 18:47:10 1514764030.429603: $GPGSA,A,3,22,23,9,3,16,8,31,27,7,26,135,,1.7,0.8,1.3*09
2017-12-31 18:47:11 1514764031.353878: $GPZDA,234712.00,31,12,2017,00,00*62
2017-12-31 18:47:11 1514764031.354063: $GPGGA,234712,3946.9581,N,08404.9862,W,2,11,0.80,303.66,M,-33.324,M,,*72
2017-12-31 18:47:11 1514764031.354131: $GPRMC,234712,A,3946.9581,N,08404.9862,W,0.0000,0.000,311217,,*39
2017-12-31 18:47:11 1514764031.354192: $GPGSA,A,3,22,23,9,3,16,8,31,27,7,26,135,,1.7,0.8,1.3*09
