2017-12-31 19:01:42 1514764902.216962: {"class":"VERSION","release":"3.16","rev":"3.16-4","proto_major":3,"proto_minor":11}
2017-12-31 19:01:42 1514764902.217421: {"class":"DEVICES","devices":[{"class":"DEVICE","path":"/dev/ttyUSB0","driver":"SiRF","activated":"2018-01-01T00:01:42.175Z","flags":1,"native":1,"bps":4800,"parity":"N","stopbits":1,"cycle":1.00}]}
2017-12-31 19:01:42 1514764902.217523: {"class":"WATCH","enable":true,"json":false,"nmea":true,"raw":0,"scaled":false,"timing":false,"split24":false,"pps":false}
2017-12-31 19:01:42 1514764902.688287: $GPGSV,3,1,11,22,04,201,22,23,70,267,36,09,40,307,35,03,14,217,27*74
2017-12-31 19:01:42 1514764902.688470: $GPGSV,3,2,11,16,72,036,45,08,21,174,42,31,13,091,30,27,44,139,39*7E
2017-12-31 19:01:42 1514764902.688536: $GPGSV,3,3,11,07,13,288,44,26,40,048,46,135,22,240,43*76
2017-12-31 19:01:42 1514764902.801751: $GPZDA,000143.00,01,01,2018,00,00*6B
2017-12-31 19:01:42 1514764902.801898: $GPGGA,000143,3946.9570,N,08404.9824,W,2,11,0.80,309.24,M,-33.324,M,,*75
2017-12-31 19:01:42 1514764902.801964: $GPRMC,000143,A,3946.9570,N,08404.9824,W,0.0000,0.000,010118,,*3C
2017-12-31 19:01:42 1514764902.802024: $GPGSA,A,3,22,23,9,3,16,8,31,27,7,26,135,,1.7,0.8,1.3*09
2017-12-31 19:01:43 1514764903.346602: $GPZDA,000144.00,01,01,2018,00,00*6C
2017-12-31 19:01:43 1514764903.346763: $GPGGA,000144,3946.9570,N,08404.9824,W,2,11,0.80,309.24,M,-33.324,M,,*72
2017-12-31 19:01:43 1514764903.346829: $GPRMC,000144,A,3946.9570,N,08404.9824,W,0.0000,0.000,010118,,*3B
2017-12-31 19:01:43 1514764903.346890: $GPGSA,A,3,22,23,9,3,16,8,31,27,7,26,135,,1.7,0.8,1.3*09
2017-12-31 19:01:44 1514764904.351528: $GPZDA,000145.00,01,01,2018,00,00*6D
2017-12-31 19:01:44 1514764904.351643: $GPGGA,000145,3946.9570,N,08404.9824,W,2,11,0.80,309.24,M,-33.324,M,,*73
2017-12-31 19:01:44 1514764904.351677: $GPRMC,000145,A,3946.9570,N,08404.9824,W,0.0000,0.000,010118,,*3A
2017-12-31 19:01:44 1514764904.351707: $GPGSA,A,3,22,23,9,3,16,8,31,27,7,26,135,,1.7,0.8,1.3*09
2017-12-31 19:01:45 1514764905.688629: $GPGSV,3,1,11,22,04,201,21,23,70,267,37,09,40,307,36,03,14,217,28*7A
2017-12-31 19:01:45 1514764905.688805: $GPGSV,3,2,11,16,72,036,45,08,21,174,42,31,13,091,30,27,44,139,39*7E
2017-12-31 19:01:45 1514764905.688871: $GPGSV,3,3,11,07,13,288,45,26,40,048,46,135,22,240,43*77
2017-12-31 19:01:45 1514764905.802051: $GPZDA,000146.00,01,01,2018,00,00*6E
2017-12-31 19:01:45 1514764905.802166: $GPGGA,000146,3946.9570,N,08404.9824,W,2,11,0.80,309.24,M,-33.324,M,,*70
2017-12-31 19:01:45 1514764905.802230: $GPRMC,000146,A,3946.9570,N,08404.9824,W,0.0000,0.000,010118,,*39
2017-12-31 19:01:45 1514764905.802289: $GPGSA,A,3,22,23,9,3,16,8,31,27,7,26,135,,1.7,0.8,1.3*09
2017-12-31 19:01:46 1514764906.353227: $GPZDA,000147.00,01,01,2018,00,00*6F
2017-12-31 19:01:46 1514764906.353398: $GPGGA,000147,3946.9570,N,08404.9824,W,2,11,0.80,309.24,M,-33.324,M,,*71
2017-12-31 19:01:46 1514764906.353464: $GPRMC,000147,A,3946.9570,N,08404.9824,W,0.0000,0.000,010118,,*38
2017-12-31 19:01:46 1514764906.353524: $GPGSA,A,3,22,23,9,3,16,8,31,27,7,26,135,,1.7,0.8,1.3*09
2017-12-31 19:01:47 1514764907.352823: $GPZDA,000148.00,01,01,2018,00,00*60
2017-12-31 19:01:47 1514764907.352992: $GPGGA,000148,3946.9570,N,08404.9824,W,2,11,0.80,309.24,M,-33.324,M,,*7E
2017-12-31 19:01:47 1514764907.353058: $GPRMC,000148,A,3946.9570,N,08404.9824,W,0.0000,0.000,010118,,*37
2017-12-31 19:01:47 1514764907.353119: $GPGSA,A,3,22,23,9,3,16,8,31,27,7,26,135,,1.7,0.8,1.3*09
2017-12-31 19:01:48 1514764908.681940: $GPGSV,3,1,11,22,04,201,21,23,70,267,36,09,40,307,30,03,14,217,27*72
2017-12-31 19:01:48 1514764908.682106: $GPGSV,3,2,11,16,72,036,45,08,21,174,42,31,13,091,30,27,44,139,39*7E
2017-12-31 19:01:48 1514764908.682172: $GPGSV,3,3,11,07,13,288,45,26,40,048,46,135,22,240,44*70
2017-12-31 19:01:48 1514764908.795563: $GPZDA,000149.00,01,01,2018,00,00*61
2017-12-31 19:01:48 1514764908.795701: $GPGGA,000149,3946.9570,N,08404.9824,W,2,11,0.80,309.24,M,-33.324,M,,*7F
2017-12-31 19:01:48 1514764908.795766: $GPRMC,000149,A,3946.9570,N,08404.9824,W,0.0000,0.000,010118,,*36
2017-12-31 19:01:48 1514764908.795880: $GPGSA,A,3,22,23,9,3,16,8,31,27,7,26,135,,1.7,0.8,1.3*09
2017-12-31 19:01:49 1514764909.355412: $GPZDA,000150.00,01,01,2018,00,00*69
2017-12-31 19:01:49 1514764909.355581: $GPGGA,000150,3946.9570,N,08404.9824,W,2,11,0.80,309.24,M,-33.324,M,,*77
2017-12-31 19:01:49 1514764909.355646: $GPRMC,000150,A,3946.9570,N,08404.9824,W,0.0000,0.000,010118,,*3E
2017-12-31 19:01:49 1514764909.355707: $GPGSA,A,3,22,23,9,3,16,8,31,27,7,26,135,,1.7,0.8,1.3*09
2017-12-31 19:01:50 1514764910.352909: $GPZDA,000151.00,01,01,2018,00,00*68
2017-12-31 19:01:50 1514764910.353092: $GPGGA,000151,3946.9570,N,08404.9824,W,2,11,0.80,309.24,M,-33.324,M,,*76
2017-12-31 19:01:50 1514764910.358595: $GPRMC,000151,A,3946.9570,N,08404.9824,W,0.0000,0.000,010118,,*3F
2017-12-31 19:01:50 1514764910.358682: $GPGSA,A,3,22,23,9,3,16,8,31,27,7,26,135,,1.7,0.8,1.3*09
2017-12-31 19:01:51 1514764911.689805: $GPGSV,3,1,11,22,04,201,22,23,70,267,33,09,40,307,32,03,14,217,27*76
2017-12-31 19:01:51 1514764911.689970: $GPGSV,3,2,11,16,72,036,45,08,21,174,42,31,13,091,26,27,44,139,40*77
2017-12-31 19:01:51 1514764911.690036: $GPGSV,3,3,11,07,13,288,45,26,40,048,46,135,22,240,45*71
2017-12-31 19:01:51 1514764911.803160: $GPZDA,000152.00,01,01,2018,00,00*6B
2017-12-31 19:01:51 1514764911.803283: $GPGGA,000152,3946.9570,N,08404.9824,W,2,11,0.80,309.24,M,-33.324,M,,*75
2017-12-31 19:01:51 1514764911.803348: $GPRMC,000152,A,3946.9570,N,08404.9824,W,0.0000,0.000,010118,,*3C
2017-12-31 19:01:51 1514764911.803408: $GPGSA,A,3,22,23,9,3,16,8,31,27,7,26,135,,1.7,0.8,1.3*09
