2017-11-15 19:21:59 1510791719.724869: {"class":"VERSION","release":"3.17","rev":"3.17","proto_major":3,"proto_minor":12}
2017-11-15 19:21:59 1510791719.725306: {"class":"DEVICES","devices":[{"class":"DEVICE","path":"/dev/ttyUSB0","driver":"SiRF","subtype":"9\u0006GSD4e_4.1.2-P1_RPATCH.05-F-GPS-4R-1510281 11/03/2015 307","activated":"2017-11-16T00:21:59.471Z","flags":1,"native":1,"bps":4800,"parity":"N","stopbits":1,"cycle":1.00}]}
2017-11-15 19:21:59 1510791719.725672: {"class":"WATCH","enable":true,"json":false,"nmea":true,"raw":0,"scaled":false,"timing":false,"split24":false,"pps":false}
2017-11-15 19:22:00 1510791720.666414: $GPGSV,3,1,11,32,39,105,21,14,58,087,12,22,50,276,21,26,49,174,20*7F
2017-11-15 19:22:00 1510791720.666606: $GPGSV,3,2,11,31,71,018,16,29,09,075,16,25,20,042,00,03,37,303,08*79
2017-11-15 19:22:00 1510791720.666683: $GPGSV,3,3,11,01,08,255,15,16,18,190,00,23,08,298,00*4A
2017-11-15 19:22:00 1510791720.779737: $GPZDA,002159.00,16,11,2017,00,00*6A
2017-11-15 19:22:00 1510791720.779904: $GPGGA,002159,3946.9554,N,08404.9447,W,1,08,1.40,287.83,M,-33.324,M,,*7F
2017-11-15 19:22:00 1510791720.779982: $GPRMC,002159,A,3946.9554,N,08404.9447,W,0.4844,93.794,161117,,*0E
2017-11-15 19:22:00 1510791720.780040: $GPGSA,A,3,32,14,22,26,31,29,3,1,,,,,3.4,1.4,2.9*30
2017-11-15 19:22:01 1510791721.405114: $GPZDA,002200.00,16,11,2017,00,00*65
2017-11-15 19:22:01 1510791721.405273: $GPGGA,002200,3946.9554,N,08404.9447,W,1,08,1.40,287.83,M,-33.324,M,,*70
2017-11-15 19:22:01 1510791721.405372: $GPRMC,002200,A,3946.9554,N,08404.9447,W,0.2959,54.768,161117,,*02
2017-11-15 19:22:01 1510791721.405431: $GPGSA,A,3,32,14,22,26,31,29,3,1,,,,,3.4,1.4,2.9*30
2017-11-15 19:22:02 1510791722.346056: $GPZDA,002201.00,16,11,2017,00,00*64
2017-11-15 19:22:02 1510791722.346244: $GPGGA,002201,3946.9558,N,08404.9447,W,1,08,1.40,288.47,M,-33.324,M,,*7A
2017-11-15 19:22:02 1510791722.346331: $GPRMC,002201,A,3946.9558,N,08404.9447,W,0.4207,39.347,161117,,*0B
2017-11-15 19:22:02 1510791722.346390: $GPGSA,A,3,32,14,22,26,31,29,3,1,,,,,3.4,1.4,2.9*30
2017-11-15 19:22:03 1510791723.665568: $GPGSV,3,1,11,32,39,105,21,14,58,087,13,22,50,276,21,26,49,174,20*7E
2017-11-15 19:22:03 1510791723.665879: $GPGSV,3,2,11,31,71,018,12,29,09,075,16,16,18,190,13,03,37,303,06*74
2017-11-15 19:22:03 1510791723.670270: $GPGSV,3,3,11,01,08,255,14,25,20,042,00,23,08,298,00*4E
2017-11-15 19:22:03 1510791723.778847: $GPZDA,002202.00,16,11,2017,00,00*67
2017-11-15 19:22:03 1510791723.779014: $GPGGA,002202,3946.9558,N,08404.9447,W,1,08,1.40,288.47,M,-33.324,M,,*79
2017-11-15 19:22:03 1510791723.779076: $GPRMC,002202,A,3946.9558,N,08404.9447,W,0.5951,58.684,161117,,*0C
2017-11-15 19:22:03 1510791723.779132: $GPGSA,A,3,32,14,22,26,31,29,3,1,,,,,3.4,1.4,2.9*30
2017-11-15 19:22:04 1510791724.346005: $GPZDA,002203.00,16,11,2017,00,00*66
2017-11-15 19:22:04 1510791724.346172: $GPGGA,002203,3946.9558,N,08404.9447,W,1,08,1.60,288.47,M,-33.324,M,,*7A
2017-11-15 19:22:04 1510791724.346234: $GPRMC,002203,A,3946.9558,N,08404.9447,W,0.5951,58.684,161117,,*0D
2017-11-15 19:22:04 1510791724.346290: $GPGSA,A,3,32,14,22,26,31,29,3,1,,,,,3.4,1.6,2.9*32
2017-11-15 19:22:05 1510791725.330675: $GPZDA,002204.00,16,11,2017,00,00*61
2017-11-15 19:22:05 1510791725.330861: $GPGGA,002204,3946.9558,N,08404.9447,W,1,08,1.40,288.47,M,-33.324,M,,*7F
2017-11-15 19:22:05 1510791725.330925: $GPRMC,002204,A,3946.9558,N,08404.9447,W,0.6846,4.197,161117,,*32
2017-11-15 19:22:05 1510791725.330981: $GPGSA,A,3,32,14,22,26,31,29,3,1,,,,,3.4,1.4,2.9*30
2017-11-15 19:22:06 1510791726.665911: $GPGSV,3,1,11,32,39,105,21,14,58,087,04,22,50,276,20,26,49,174,20*79
2017-11-15 19:22:06 1510791726.666081: $GPGSV,3,2,11,31,71,018,10,29,09,075,17,25,20,042,00,03,37,303,06*70
2017-11-15 19:22:06 1510791726.666142: $GPGSV,3,3,11,01,08,255,14,16,18,190,00,23,08,298,00*4B
2017-11-15 19:22:06 1510791726.779560: $GPZDA,002205.00,16,11,2017,00,00*60
2017-11-15 19:22:06 1510791726.779724: $GPGGA,002205,3946.9562,N,08404.9447,W,1,07,1.40,289.11,M,-33.324,M,,*7A
2017-11-15 19:22:06 1510791726.779786: $GPRMC,002205,A,3946.9562,N,08404.9447,W,1.0269,4.197,161117,,*3A
2017-11-15 19:22:06 1510791726.779892: $GPGSA,A,3,32,22,26,31,29,3,1,,,,,,3.4,1.4,2.9*35
2017-11-15 19:22:07 1510791727.350649: $GPZDA,002206.00,16,11,2017,00,00*63
2017-11-15 19:22:07 1510791727.350807: $GPGGA,002206,3946.9562,N,08404.9447,W,1,07,1.40,289.11,M,-33.324,M,,*79
2017-11-15 19:22:07 1510791727.350867: $GPRMC,002206,A,3946.9562,N,08404.9447,W,0.4179,328.778,161117,,*34
2017-11-15 19:22:07 1510791727.350923: $GPGSA,A,3,32,22,26,31,29,3,1,,,,,,3.4,1.4,2.9*35
2017-11-15 19:22:08 1510791728.347334: $GPZDA,002207.00,16,11,2017,00,00*62
2017-11-15 19:22:08 1510791728.347512: $GPGGA,002207,3946.9562,N,08404.9454,W,1,07,1.20,289.03,M,-33.324,M,,*7F
2017-11-15 19:22:08 1510791728.347573: $GPRMC,002207,A,3946.9562,N,08404.9454,W,0.5912,309.173,161117,,*3D
2017-11-15 19:22:08 1510791728.347629: $GPGSA,A,3,32,22,26,31,29,3,1,,,,,,3.4,1.2,2.9*33
2017-11-15 19:22:09 1510791729.682982: $GPGSV,3,1,11,32,39,105,21,14,58,087,07,22,50,276,20,26,49,174,20*7A
2017-11-15 19:22:09 1510791729.683178: $GPGSV,3,2,11,31,71,018,14,29,09,075,17,25,20,042,00,03,37,303,20*70
2017-11-15 19:22:09 1510791729.683241: $GPGSV,3,3,11,01,08,255,14,16,18,190,00,23,08,298,00*4B
