2017-11-15 18:39:57 1510789197.822265: {"class":"VERSION","release":"3.17","rev":"3.17","proto_major":3,"proto_minor":12}
2017-11-15 18:39:57 1510789197.822790: {"class":"DEVICES","devices":[{"class":"DEVICE","path":"/dev/ttyUSB0","driver":"SiRF","subtype":"9\u0006GSD4e_4.1.2-P1_RPATCH.05-F-GPS-4R-1510281 11/03/2015 307","activated":"2017-11-15T23:39:57.812Z","flags":1,"native":1,"bps":4800,"parity":"N","stopbits":1,"cycle":1.00}]}
2017-11-15 18:39:57 1510789197.822901: {"class":"WATCH","enable":true,"json":false,"nmea":true,"raw":0,"scaled":false,"timing":false,"split24":false,"pps":false}
2017-11-15 18:39:58 1510789198.364112: $GPZDA,233957.00,15,11,2017,00,00*6F
2017-11-15 18:39:58 1510789198.364274: $GPGGA,233957,3946.9544,N,08404.9579,W,1,09,1.20,307.28,M,-33.324,M,,*7B
2017-11-15 18:39:58 1510789198.364335: $GPRMC,233957,A,3946.9544,N,08404.9579,W,1.2608,78.042,151117,,*0E
2017-11-15 18:39:58 1510789198.364391: $GPGSA,A,3,25,14,22,32,31,3,29,10,26,,,,3.4,1.2,2.9*01
2017-11-15 18:39:59 1510789199.363760: $GPZDA,233958.00,15,11,2017,00,00*60
2017-11-15 18:39:59 1510789199.363925: $GPGGA,233958,3946.9544,N,08404.9579,W,1,09,1.00,307.28,M,-33.324,M,,*76
2017-11-15 18:39:59 1510789199.363985: $GPRMC,233958,A,3946.9544,N,08404.9579,W,0.8054,68.645,151117,,*05
2017-11-15 18:39:59 1510789199.364041: $GPGSA,A,3,25,14,22,32,31,3,29,10,26,,,,3.4,1.0,2.9*03
2017-11-15 18:40:00 1510789200.665793: $GPGSV,3,1,11,25,33,054,17,14,68,049,16,22,41,300,21,32,53,084,16*73
2017-11-15 18:40:00 1510789200.665962: $GPGSV,3,2,11,31,79,298,11,03,23,315,10,29,01,090,17,10,18,157,10*7C
2017-11-15 18:40:00 1510789200.666022: $GPGSV,3,3,11,26,29,178,18,01,17,271,00,12,04,031,00*47
2017-11-15 18:40:00 1510789200.779164: $GPZDA,233959.00,15,11,2017,00,00*61
2017-11-15 18:40:00 1510789200.779342: $GPGGA,233959,3946.9543,N,08404.9572,W,1,09,1.00,307.36,M,-33.324,M,,*74
2017-11-15 18:40:00 1510789200.779403: $GPRMC,233959,A,3946.9543,N,08404.9572,W,0.8054,68.645,151117,,*08
2017-11-15 18:40:00 1510789200.779459: $GPGSA,A,3,25,14,22,32,31,3,29,10,26,,,,3.4,1.0,2.9*03
2017-11-15 18:40:01 1510789201.405715: $GPZDA,234000.00,15,11,2017,00,00*63
2017-11-15 18:40:01 1510789201.405880: $GPGGA,234000,3946.9543,N,08404.9572,W,1,09,1.00,307.36,M,-33.324,M,,*76
2017-11-15 18:40:01 1510789201.405940: $GPRMC,234000,A,3946.9543,N,08404.9572,W,0.4207,39.347,151117,,*01
2017-11-15 18:40:01 1510789201.405996: $GPGSA,A,3,25,14,22,32,31,3,29,10,26,,,,3.4,1.0,2.9*03
2017-11-15 18:40:02 1510789202.329087: $GPZDA,234001.00,15,11,2017,00,00*62
2017-11-15 18:40:02 1510789202.329250: $GPGGA,234001,3946.9543,N,08404.9572,W,1,09,1.00,307.36,M,-33.324,M,,*77
2017-11-15 18:40:02 1510789202.329309: $GPRMC,234001,A,3946.9543,N,08404.9572,W,0.4844,93.794,151117,,*07
2017-11-15 18:40:02 1510789202.329364: $GPGSA,A,3,25,14,22,32,31,3,29,10,26,,,,3.4,1.0,2.9*03
2017-11-15 18:40:03 1510789203.667414: $GPGSV,3,1,11,25,33,054,17,14,68,049,16,22,41,300,22,32,53,084,16*70
2017-11-15 18:40:03 1510789203.667584: $GPGSV,3,2,11,31,79,298,12,03,23,315,09,29,01,090,17,10,18,157,11*76
2017-11-15 18:40:03 1510789203.667644: $GPGSV,3,3,11,26,29,178,18,01,17,271,00,12,04,031,00*47
2017-11-15 18:40:03 1510789203.780716: $GPZDA,234002.00,15,11,2017,00,00*61
2017-11-15 18:40:03 1510789203.780882: $GPGGA,234002,3946.9548,N,08404.9579,W,1,09,1.00,307.92,M,-33.324,M,,*7A
2017-11-15 18:40:03 1510789203.780942: $GPRMC,234002,A,3946.9548,N,08404.9579,W,0.5951,58.684,151117,,*07
2017-11-15 18:40:03 1510789203.780998: $GPGSA,A,3,25,14,22,32,31,3,29,10,26,,,,3.4,1.0,2.9*03
2017-11-15 18:40:04 1510789204.330676: $GPZDA,234003.00,15,11,2017,00,00*60
2017-11-15 18:40:04 1510789204.330900: $GPGGA,234003,3946.9547,N,08404.9572,W,1,09,1.00,308.00,M,-33.324,M,,*7B
2017-11-15 18:40:04 1510789204.330968: $GPRMC,234003,A,3946.9547,N,08404.9572,W,0.7576,81.914,151117,,*0B
2017-11-15 18:40:04 1510789204.331025: $GPGSA,A,3,25,14,22,32,31,3,29,10,26,,,,3.4,1.0,2.9*03
2017-11-15 18:40:05 1510789205.366214: $GPZDA,234004.00,15,11,2017,00,00*67
2017-11-15 18:40:05 1510789205.366377: $GPGGA,234004,3946.9543,N,08404.9572,W,1,09,1.00,307.36,M,-33.324,M,,*72
2017-11-15 18:40:05 1510789205.366488: $GPRMC,234004,A,3946.9543,N,08404.9572,W,0.5912,129.172,151117,,*3F
2017-11-15 18:40:05 1510789205.366564: $GPGSA,A,3,25,14,22,32,31,3,29,10,26,,,,3.4,1.0,2.9*03
2017-11-15 18:40:06 1510789206.665250: $GPGSV,3,1,11,25,33,054,17,14,68,049,16,22,41,300,22,32,53,084,17*71
2017-11-15 18:40:06 1510789206.665420: $GPGSV,3,2,11,31,79,298,13,03,23,315,08,29,01,090,17,10,18,157,12*75
2017-11-15 18:40:06 1510789206.665480: $GPGSV,3,3,11,26,29,178,18,16,01,190,17,01,17,271,00*4A
2017-11-15 18:40:06 1510789206.778560: $GPZDA,234005.00,15,11,2017,00,00*66
2017-11-15 18:40:06 1510789206.778743: $GPGGA,234005,3946.9544,N,08404.9579,W,1,09,1.00,307.28,M,-33.324,M,,*70
2017-11-15 18:40:06 1510789206.778804: $GPRMC,234005,A,3946.9544,N,08404.9579,W,0.3423,184.197,151117,,*37
2017-11-15 18:40:06 1510789206.778860: $GPGSA,A,3,25,14,22,32,31,3,29,10,26,,,,3.4,1.0,2.9*03
2017-11-15 18:40:07 1510789207.329758: $GPZDA,234006.00,15,11,2017,00,00*65
2017-11-15 18:40:07 1510789207.329930: $GPGGA,234006,3946.9540,N,08404.9580,W,1,09,1.00,308.05,M,-33.324,M,,*71
2017-11-15 18:40:07 1510789207.329991: $GPRMC,234006,A,3946.9540,N,08404.9580,W,0.2422,93.794,151117,,*04
2017-11-15 18:40:07 1510789207.330046: $GPGSA,A,3,25,14,22,32,31,3,29,10,26,,,,3.4,1.0,2.9*03
2017-11-15 18:40:08 1510789208.330716: $GPZDA,234007.00,15,11,2017,00,00*64
2017-11-15 18:40:08 1510789208.330875: $GPGGA,234007,3946.9540,N,08404.9580,W,1,09,1.20,308.05,M,-33.324,M,,*72
2017-11-15 18:40:08 1510789208.330935: $GPRMC,234007,A,3946.9540,N,08404.9580,W,0.5951,58.684,151117,,*0C
2017-11-15 18:40:08 1510789208.330990: $GPGSA,A,3,25,14,22,32,31,3,29,10,26,,,,3.4,1.2,2.9*01
2017-11-15 18:40:09 1510789209.699955: $GPGSV,3,1,11,25,33,054,18,14,68,049,16,22,41,300,22,32,53,084,18*71
2017-11-15 18:40:09 1510789209.700124: $GPGSV,3,2,11,31,79,298,14,03,23,315,07,29,01,090,17,10,18,157,12*7D
2017-11-15 18:40:09 1510789209.700183: $GPGSV,3,3,11,26,29,178,18,01,17,271,00,12,04,031,00*47
2017-11-15 18:40:09 1510789209.813604: $GPZDA,234008.00,15,11,2017,00,00*6B
2017-11-15 18:40:09 1510789209.813753: $GPGGA,234008,3946.9540,N,08404.9580,W,1,09,1.20,308.05,M,-33.324,M,,*7D
2017-11-15 18:40:09 1510789209.813814: $GPRMC,234008,A,3946.9540,N,08404.9580,W,0.3423,4.197,151117,,*31
2017-11-15 18:40:09 1510789209.813870: $GPGSA,A,3,25,14,22,32,31,3,29,10,26,,,,3.4,1.2,2.9*01
2017-11-15 18:40:10 1510789210.331258: $GPZDA,234009.00,15,11,2017,00,00*6A
2017-11-15 18:40:10 1510789210.331501: $GPGGA,234009,3946.9541,N,08404.9587,W,1,09,1.20,307.97,M,-33.324,M,,*7E
2017-11-15 18:40:10 1510789210.331568: $GPRMC,234009,A,3946.9541,N,08404.9587,W,0.4844,273.794,151117,,*3B
2017-11-15 18:40:10 1510789210.331810: $GPGSA,A,3,25,14,22,32,31,3,29,10,26,,,,3.4,1.2,2.9*01
2017-11-15 18:40:11 1510789211.330660: $GPZDA,234010.00,15,11,2017,00,00*62
2017-11-15 18:40:11 1510789211.330837: $GPGGA,234010,3946.9541,N,08404.9587,W,1,09,1.20,307.97,M,-33.324,M,,*76
2017-11-15 18:40:11 1510789211.330898: $GPRMC,234010,A,3946.9541,N,08404.9587,W,0.5951,238.684,151117,,*38
2017-11-15 18:40:11 1510789211.330954: $GPGSA,A,3,25,14,22,32,31,3,29,10,26,,,,3.4,1.2,2.9*01
