2017-12-01 11:45:13 1512146713.916892: {"class":"VERSION","release":"3.16","rev":"3.16-4","proto_major":3,"proto_minor":11}
2017-12-01 11:45:13 1512146713.917318: {"class":"DEVICES","devices":[{"class":"DEVICE","path":"/dev/ttyUSB0","driver":"SiRF","subtype":"9\u0006GSD4e_4.1.2-P1_RPATCH.05-F-GPS-4R-1510281 11/03/2015 307","activated":"2017-12-01T16:45:13.525Z","flags":1,"native":1,"bps":4800,"parity":"N","stopbits":1,"cycle":1.00}]}
2017-12-01 11:45:13 1512146713.917440: {"class":"WATCH","enable":true,"json":false,"nmea":true,"raw":0,"scaled":false,"timing":false,"split24":false,"pps":false}
2017-12-01 11:45:14 1512146714.714170: $GPGSV,3,1,12,10,13,273,37,13,42,049,47,15,75,070,46,18,44,286,46*77
2017-12-01 11:45:14 1512146714.714328: $GPGSV,3,2,12,20,62,052,42,21,68,304,45,24,21,148,43,27,09,324,42*77
2017-12-01 11:45:14 1512146714.714393: $GPGSV,3,3,12,29,23,195,43,05,13,078,22,04,12,130,00,138,38,213,46*44
2017-12-01 11:45:14 1512146714.827806: $GPZDA,164515.00,01,12,2017,00,00*62
2017-12-01 11:45:14 1512146714.827966: $GPGGA,164515,3946.9553,N,08404.9846,W,2,11,0.80,295.77,M,-33.324,M,,*76
2017-12-01 11:45:14 1512146714.828052: $GPRMC,164515,A,3946.9553,N,08404.9846,W,0.0000,0.000,011217,,*30
2017-12-01 11:45:14 1512146714.828115: $GPGSA,A,3,10,13,15,18,20,21,24,27,29,5,138,,2.0,0.8,1.5*34
2017-12-01 11:45:15 1512146715.452838: $GPZDA,164516.00,01,12,2017,00,00*61
2017-12-01 11:45:15 1512146715.453011: $GPGGA,164516,3946.9553,N,08404.9846,W,2,11,0.80,295.77,M,-33.324,M,,*75
2017-12-01 11:45:15 1512146715.453079: $GPRMC,164516,A,3946.9553,N,08404.9846,W,0.0000,0.000,011217,,*33
2017-12-01 11:45:15 1512146715.453140: $GPGSA,A,3,10,13,15,18,20,21,24,27,29,5,138,,2.0,0.8,1.5*34
2017-12-01 11:45:16 1512146716.379946: $GPZDA,164517.00,01,12,2017,00,00*60
2017-12-01 11:45:16 1512146716.380126: $GPGGA,164517,3946.9553,N,08404.9846,W,2,11,0.80,295.77,M,-33.324,M,,*74
2017-12-01 11:45:16 1512146716.380192: $GPRMC,164517,A,3946.9553,N,08404.9846,W,0.0000,0.000,011217,,*32
2017-12-01 11:45:16 1512146716.380253: $GPGSA,A,3,10,13,15,18,20,21,24,27,29,5,138,,2.0,0.8,1.5*34
2017-12-01 11:45:17 1512146717.714457: $GPGSV,3,1,12,10,13,273,37,13,42,049,46,15,75,070,46,18,44,286,46*76
2017-12-01 11:45:17 1512146717.714655: $GPGSV,3,2,12,20,62,052,42,21,68,304,45,24,21,148,43,27,09,324,42*77
2017-12-01 11:45:17 1512146717.714722: $GPGSV,3,3,12,29,23,195,44,05,13,078,21,04,12,130,00,138,38,213,46*40
2017-12-01 11:45:17 1512146717.827773: $GPZDA,164518.00,01,12,2017,00,00*6F
2017-12-01 11:45:17 1512146717.827928: $GPGGA,164518,3946.9550,N,08404.9847,W,2,11,0.80,296.53,M,-33.324,M,,*7C
2017-12-01 11:45:17 1512146717.827993: $GPRMC,164518,A,3946.9550,N,08404.9847,W,0.0000,0.000,011217,,*3F
2017-12-01 11:45:17 1512146717.828053: $GPGSA,A,3,10,13,15,18,20,21,24,27,29,5,138,,2.0,0.8,1.5*34
2017-12-01 11:45:18 1512146718.381163: $GPZDA,164519.00,01,12,2017,00,00*6E
2017-12-01 11:45:18 1512146718.381330: $GPGGA,164519,3946.9555,N,08404.9841,W,2,11,0.80,300.06,M,-33.324,M,,*70
2017-12-01 11:45:18 1512146718.381469: $GPRMC,164519,A,3946.9555,N,08404.9841,W,0.2422,93.794,011217,,*0B
2017-12-01 11:45:18 1512146718.381532: $GPGSA,A,3,10,13,15,18,20,21,24,27,29,5,138,,2.0,0.8,1.5*34
2017-12-01 11:45:19 1512146719.383139: $GPZDA,164520.00,01,12,2017,00,00*64
2017-12-01 11:45:19 1512146719.383309: $GPGGA,164520,3946.9555,N,08404.9841,W,2,11,1.00,300.06,M,-33.324,M,,*73
2017-12-01 11:45:19 1512146719.383376: $GPRMC,164520,A,3946.9555,N,08404.9841,W,0.0000,0.000,011217,,*37
2017-12-01 11:45:19 1512146719.383437: $GPGSA,A,3,10,13,15,18,20,21,24,27,29,5,138,,2.0,1.0,1.5*3D
2017-12-01 11:45:19 1512146719.383495: $GPGBS,164520,2.67,M,3.86,M,8.82,M*36
2017-12-01 11:45:20 1512146720.718409: $GPGSV,3,1,12,10,13,273,37,13,42,049,47,15,75,070,46,18,44,286,46*77
2017-12-01 11:45:20 1512146720.718577: $GPGSV,3,2,12,20,62,052,42,21,68,304,45,24,21,148,43,27,09,324,43*76
2017-12-01 11:45:20 1512146720.718644: $GPGSV,3,3,12,29,23,195,44,05,13,078,22,04,12,130,00,138,38,213,46*43
2017-12-01 11:45:20 1512146720.831782: $GPZDA,164521.00,01,12,2017,00,00*65
2017-12-01 11:45:20 1512146720.831987: $GPGGA,164521,3946.9555,N,08404.9841,W,2,11,1.00,300.06,M,-33.324,M,,*72
2017-12-01 11:45:20 1512146720.832055: $GPRMC,164521,A,3946.9555,N,08404.9841,W,0.0000,0.000,011217,,*36
2017-12-01 11:45:20 1512146720.832115: $GPGSA,A,3,10,13,15,18,20,21,24,27,29,5,138,,2.0,1.0,1.5*3D
2017-12-01 11:45:21 1512146721.382674: $GPZDA,164522.00,01,12,2017,00,00*66
2017-12-01 11:45:21 1512146721.382848: $GPGGA,164522,3946.9555,N,08404.9841,W,2,11,1.00,300.06,M,-33.324,M,,*71
2017-12-01 11:45:21 1512146721.382915: $GPRMC,164522,A,3946.9555,N,08404.9841,W,0.0000,0.000,011217,,*35
2017-12-01 11:45:21 1512146721.382976: $GPGSA,A,3,10,13,15,18,20,21,24,27,29,5,138,,2.0,1.0,1.5*3D
2017-12-01 11:45:22 1512146722.382334: $GPZDA,164523.00,01,12,2017,00,00*67
2017-12-01 11:45:22 1512146722.382507: $GPGGA,164523,3946.9555,N,08404.9841,W,2,11,1.00,300.06,M,-33.324,M,,*70
2017-12-01 11:45:22 1512146722.382574: $GPRMC,164523,A,3946.9555,N,08404.9841,W,0.0000,0.000,011217,,*34
2017-12-01 11:45:22 1512146722.382635: $GPGSA,A,3,10,13,15,18,20,21,24,27,29,5,138,,2.0,1.0,1.5*3D
2017-12-01 11:45:23 1512146723.719292: $GPGSV,3,1,12,10,13,273,38,13,42,049,47,15,75,070,46,18,44,286,46*78
2017-12-01 11:45:23 1512146723.719484: $GPGSV,3,2,12,20,62,052,42,21,68,304,45,24,21,148,43,27,09,324,44*71
2017-12-01 11:45:23 1512146723.719555: $GPGSV,3,3,12,29,23,195,43,05,13,078,22,04,12,130,00,138,38,213,46*44
2017-12-01 11:45:23 1512146723.832799: $GPZDA,164524.00,01,12,2017,00,00*60
2017-12-01 11:45:23 1512146723.832968: $GPGGA,164524,3946.9555,N,08404.9841,W,2,11,1.00,300.06,M,-33.324,M,,*77
2017-12-01 11:45:23 1512146723.833038: $GPRMC,164524,A,3946.9555,N,08404.9841,W,0.0000,0.000,011217,,*33
2017-12-01 11:45:23 1512146723.833102: $GPGSA,A,3,10,13,15,18,20,21,24,27,29,5,138,,2.0,1.0,1.5*3D
