2017-11-16 15:21:00 1510863660.847015: {"class":"VERSION","release":"3.17","rev":"3.17","proto_major":3,"proto_minor":12}
2017-11-16 15:21:00 1510863660.847434: {"class":"DEVICES","devices":[{"class":"DEVICE","path":"/dev/ttyUSB0","driver":"SiRF","subtype":"9\u0006GSD4e_4.1.2-P1_RPATCH.05-F-GPS-4R-1510281 11/03/2015 307","activated":"2017-11-16T20:21:00.688Z","flags":1,"native":1,"bps":4800,"parity":"N","stopbits":1,"cycle":1.00}]}
2017-11-16 15:21:00 1510863660.847546: {"class":"WATCH","enable":true,"json":false,"nmea":true,"raw":0,"scaled":false,"timing":false,"split24":false,"pps":false}
2017-11-16 15:21:01 1510863661.709726: $GPGSV,3,1,12,08,06,295,31,10,67,327,51,14,27,252,47,15,13,064,32*7B
2017-11-16 15:21:01 1510863661.709897: $GPGSV,3,2,12,18,72,087,48,20,10,117,32,21,32,180,45,24,46,061,51*7C
2017-11-16 15:21:01 1510863661.709958: $GPGSV,3,3,12,27,08,262,36,32,44,262,48,12,08,109,29,138,38,213,45*47
2017-11-16 15:21:01 1510863661.823000: $GPZDA,202100.00,16,11,2017,00,00*64
2017-11-16 15:21:01 1510863661.823165: $GPGGA,202100,3946.9575,N,08404.9864,W,2,12,0.80,306.59,M,-33.324,M,,*75
2017-11-16 15:21:01 1510863661.823226: $GPRMC,202100,A,3946.9575,N,08404.9864,W,0.0000,0.000,161117,,*32
2017-11-16 15:21:01 1510863661.823281: $GPGSA,A,3,8,10,14,15,18,20,21,24,27,32,12,138,1.6,0.8,1.3*34
2017-11-16 15:21:02 1510863662.365198: $GPZDA,202101.00,16,11,2017,00,00*65
2017-11-16 15:21:02 1510863662.365359: $GPGGA,202101,3946.9575,N,08404.9864,W,2,12,0.80,306.59,M,-33.324,M,,*74
2017-11-16 15:21:02 1510863662.365420: $GPRMC,202101,A,3946.9575,N,08404.9864,W,0.0000,0.000,161117,,*33
2017-11-16 15:21:02 1510863662.365476: $GPGSA,A,3,8,10,14,15,18,20,21,24,27,32,12,138,1.6,0.8,1.3*34
2017-11-16 15:21:03 1510863663.372312: $GPZDA,202102.00,16,11,2017,00,00*66
2017-11-16 15:21:03 1510863663.372475: $GPGGA,202102,3946.9575,N,08404.9864,W,2,12,0.80,306.59,M,-33.324,M,,*77
2017-11-16 15:21:03 1510863663.372536: $GPRMC,202102,A,3946.9575,N,08404.9864,W,0.0000,0.000,161117,,*30
2017-11-16 15:21:03 1510863663.372592: $GPGSA,A,3,8,10,14,15,18,20,21,24,27,32,12,138,1.6,0.8,1.3*34
2017-11-16 15:21:04 1510863664.709746: $GPGSV,3,1,12,08,06,295,31,10,67,327,51,14,27,252,47,15,13,064,32*7B
2017-11-16 15:21:04 1510863664.709913: $GPGSV,3,2,12,18,72,087,47,20,10,117,32,21,32,180,45,24,46,061,51*73
2017-11-16 15:21:04 1510863664.709973: $GPGSV,3,3,12,27,08,262,36,32,44,262,48,12,08,109,23,138,38,213,45*4D
2017-11-16 15:21:04 1510863664.823862: $GPZDA,202103.00,16,11,2017,00,00*67
2017-11-16 15:21:04 1510863664.824535: $GPGGA,202103,3946.9575,N,08404.9864,W,2,12,0.80,306.59,M,-33.324,M,,*76
2017-11-16 15:21:04 1510863664.828933: $GPRMC,202103,A,3946.9575,N,08404.9864,W,0.0000,0.000,161117,,*31
2017-11-16 15:21:04 1510863664.829008: $GPGSA,A,3,8,10,14,15,18,20,21,24,27,32,12,138,1.6,0.8,1.3*34
2017-11-16 15:21:05 1510863665.373673: $GPZDA,202104.00,16,11,2017,00,00*60
2017-11-16 15:21:05 1510863665.373860: $GPGGA,202104,3946.9575,N,08404.9864,W,2,12,0.80,306.59,M,-33.324,M,,*71
2017-11-16 15:21:05 1510863665.373924: $GPRMC,202104,A,3946.9575,N,08404.9864,W,0.0000,0.000,161117,,*36
2017-11-16 15:21:05 1510863665.373980: $GPGSA,A,3,8,10,14,15,18,20,21,24,27,32,12,138,1.6,0.8,1.3*34
2017-11-16 15:21:06 1510863666.372920: $GPZDA,202105.00,16,11,2017,00,00*61
2017-11-16 15:21:06 1510863666.373080: $GPGGA,202105,3946.9575,N,08404.9864,W,2,12,0.80,306.59,M,-33.324,M,,*70
2017-11-16 15:21:06 1510863666.373142: $GPRMC,202105,A,3946.9575,N,08404.9864,W,0.0000,0.000,161117,,*37
2017-11-16 15:21:06 1510863666.373197: $GPGSA,A,3,8,10,14,15,18,20,21,24,27,32,12,138,1.6,0.8,1.3*34
2017-11-16 15:21:07 1510863667.709749: $GPGSV,3,1,12,08,06,295,23,10,67,327,51,14,27,252,47,15,13,064,32*78
2017-11-16 15:21:07 1510863667.710050: $GPGSV,3,2,12,18,72,087,48,20,10,117,32,21,32,180,45,24,46,061,51*7C
2017-11-16 15:21:07 1510863667.710198: $GPGSV,3,3,12,27,08,262,37,32,44,262,48,12,08,109,22,138,38,213,45*4D
2017-11-16 15:21:07 1510863667.822932: $GPZDA,202106.00,16,11,2017,00,00*62
2017-11-16 15:21:07 1510863667.823291: $GPGGA,202106,3946.9575,N,08404.9864,W,2,12,0.80,306.59,M,-33.324,M,,*73
2017-11-16 15:21:07 1510863667.823528: $GPRMC,202106,A,3946.9575,N,08404.9864,W,0.0000,0.000,161117,,*34
2017-11-16 15:21:07 1510863667.823627: $GPGSA,A,3,8,10,14,15,18,20,21,24,27,32,12,138,1.6,0.8,1.3*34
2017-11-16 15:21:08 1510863668.367555: $GPZDA,202107.00,16,11,2017,00,00*63
2017-11-16 15:21:08 1510863668.367728: $GPGGA,202107,3946.9575,N,08404.9864,W,2,12,0.80,306.59,M,-33.324,M,,*72
2017-11-16 15:21:08 1510863668.367789: $GPRMC,202107,A,3946.9575,N,08404.9864,W,0.0000,0.000,161117,,*35
2017-11-16 15:21:08 1510863668.367845: $GPGSA,A,3,8,10,14,15,18,20,21,24,27,32,12,138,1.6,0.8,1.3*34
2017-11-16 15:21:09 1510863669.367140: $GPZDA,202108.00,16,11,2017,00,00*6C
2017-11-16 15:21:09 1510863669.367319: $GPGGA,202108,3946.9575,N,08404.9864,W,2,12,0.80,306.59,M,-33.324,M,,*7D
2017-11-16 15:21:09 1510863669.367380: $GPRMC,202108,A,3946.9575,N,08404.9864,W,0.0000,0.000,161117,,*3A
2017-11-16 15:21:09 1510863669.367436: $GPGSA,A,3,8,10,14,15,18,20,21,24,27,32,12,138,1.6,0.8,1.3*34
2017-11-16 15:21:10 1510863670.724212: $GPGSV,3,1,12,08,06,295,23,10,67,327,51,14,27,252,47,15,13,064,32*78
2017-11-16 15:21:10 1510863670.724522: $GPGSV,3,2,12,18,72,087,48,20,10,117,33,21,32,180,45,24,46,061,51*7D
2017-11-16 15:21:10 1510863670.724639: $GPGSV,3,3,12,27,08,262,38,32,44,262,47,12,08,109,22,138,38,213,45*4D
2017-11-16 15:21:10 1510863670.837582: $GPZDA,202109.00,16,11,2017,00,00*6D
2017-11-16 15:21:10 1510863670.837757: $GPGGA,202109,3946.9575,N,08404.9864,W,2,12,0.80,306.59,M,-33.324,M,,*7C
2017-11-16 15:21:10 1510863670.837825: $GPRMC,202109,A,3946.9575,N,08404.9864,W,0.0000,0.000,161117,,*3B
2017-11-16 15:21:10 1510863670.837897: $GPGSA,A,3,8,10,14,15,18,20,21,24,27,32,12,138,1.6,0.8,1.3*34
