2017-11-16 16:42:00 1510868520.500726: {"class":"VERSION","release":"3.17","rev":"3.17","proto_major":3,"proto_minor":12}
2017-11-16 16:42:00 1510868520.501161: {"class":"DEVICES","devices":[{"class":"DEVICE","path":"/dev/ttyUSB0","driver":"SiRF","subtype":"9\u0006GSD4e_4.1.2-P1_RPATCH.05-F-GPS-4R-1510281 11/03/2015 307","activated":"2017-11-16T21:42:00.495Z","flags":1,"native":1,"bps":4800,"parity":"N","stopbits":1,"cycle":1.00}]}
2017-11-16 16:42:00 1510868520.501273: {"class":"WATCH","enable":true,"json":false,"nmea":true,"raw":0,"scaled":false,"timing":false,"split24":false,"pps":false}
2017-11-16 16:42:01 1510868521.455169: $GPZDA,214200.00,16,11,2017,00,00*60
2017-11-16 16:42:01 1510868521.455329: $GPGGA,214200,3946.9579,N,08404.9814,W,2,11,0.80,305.62,M,-33.324,M,,*72
2017-11-16 16:42:01 1510868521.455411: $GPRMC,214200,A,3946.9579,N,08404.9814,W,0.0000,0.000,161117,,*3D
2017-11-16 16:42:01 1510868521.455468: $GPGSA,A,3,1,10,11,12,14,18,24,25,31,32,138,,1.6,0.8,1.3*38
2017-11-16 16:42:02 1510868522.791980: $GPGSV,3,1,11,01,12,321,36,10,73,127,48,11,10,303,39,12,25,075,48*70
2017-11-16 16:42:02 1510868522.792152: $GPGSV,3,2,11,14,53,288,42,18,40,133,45,24,16,045,49,25,28,117,44*75
2017-11-16 16:42:02 1510868522.792212: $GPGSV,3,3,11,31,31,211,46,32,67,321,51,138,38,213,44*7C
2017-11-16 16:42:02 1510868522.904172: $GPZDA,214201.00,16,11,2017,00,00*61
2017-11-16 16:42:02 1510868522.904317: $GPGGA,214201,3946.9579,N,08404.9814,W,2,11,0.80,305.62,M,-33.324,M,,*73
2017-11-16 16:42:02 1510868522.904396: $GPRMC,214201,A,3946.9579,N,08404.9814,W,0.0000,0.000,161117,,*3C
2017-11-16 16:42:02 1510868522.904454: $GPGSA,A,3,1,10,11,12,14,18,24,25,31,32,138,,1.6,0.8,1.3*38
2017-11-16 16:42:03 1510868523.434898: $GPZDA,214202.00,16,11,2017,00,00*62
2017-11-16 16:42:03 1510868523.435098: $GPGGA,214202,3946.9579,N,08404.9814,W,2,11,0.80,305.62,M,-33.324,M,,*70
2017-11-16 16:42:03 1510868523.435169: $GPRMC,214202,A,3946.9579,N,08404.9814,W,0.0000,0.000,161117,,*3F
2017-11-16 16:42:03 1510868523.435225: $GPGSA,A,3,1,10,11,12,14,18,24,25,31,32,138,,1.6,0.8,1.3*38
2017-11-16 16:42:04 1510868524.441066: $GPZDA,214203.00,16,11,2017,00,00*63
2017-11-16 16:42:04 1510868524.441227: $GPGGA,214203,3946.9579,N,08404.9814,W,2,11,0.80,305.62,M,-33.324,M,,*71
2017-11-16 16:42:04 1510868524.441288: $GPRMC,214203,A,3946.9579,N,08404.9814,W,0.0000,0.000,161117,,*3E
2017-11-16 16:42:04 1510868524.441343: $GPGSA,A,3,1,10,11,12,14,18,24,25,31,32,138,,1.6,0.8,1.3*38
2017-11-16 16:42:05 1510868525.775123: $GPGSV,3,1,11,01,12,321,37,10,73,127,48,11,10,303,39,12,25,075,47*7E
2017-11-16 16:42:05 1510868525.775306: $GPGSV,3,2,11,14,53,288,42,18,40,133,45,24,16,045,49,25,28,117,44*75
2017-11-16 16:42:05 1510868525.775383: $GPGSV,3,3,11,31,31,211,46,32,67,321,51,138,38,213,44*7C
2017-11-16 16:42:05 1510868525.887760: $GPZDA,214204.00,16,11,2017,00,00*64
2017-11-16 16:42:05 1510868525.887916: $GPGGA,214204,3946.9579,N,08404.9814,W,2,11,0.80,305.62,M,-33.324,M,,*76
2017-11-16 16:42:05 1510868525.887975: $GPRMC,214204,A,3946.9579,N,08404.9814,W,0.0000,0.000,161117,,*39
2017-11-16 16:42:05 1510868525.888031: $GPGSA,A,3,1,10,11,12,14,18,24,25,31,32,138,,1.6,0.8,1.3*38
2017-11-16 16:42:06 1510868526.512883: $GPZDA,214205.00,16,11,2017,00,00*65
2017-11-16 16:42:06 1510868526.513047: $GPGGA,214205,3946.9579,N,08404.9814,W,2,11,0.80,305.62,M,-33.324,M,,*77
2017-11-16 16:42:06 1510868526.513108: $GPRMC,214205,A,3946.9579,N,08404.9814,W,0.0000,0.000,161117,,*38
2017-11-16 16:42:06 1510868526.513163: $GPGSA,A,3,1,10,11,12,14,18,24,25,31,32,138,,1.6,0.8,1.3*38
2017-11-16 16:42:07 1510868527.439943: $GPZDA,214206.00,16,11,2017,00,00*66
2017-11-16 16:42:07 1510868527.440103: $GPGGA,214206,3946.9579,N,08404.9814,W,2,11,0.80,305.62,M,-33.324,M,,*74
2017-11-16 16:42:07 1510868527.440164: $GPRMC,214206,A,3946.9579,N,08404.9814,W,0.0000,0.000,161117,,*3B
2017-11-16 16:42:07 1510868527.440219: $GPGSA,A,3,1,10,11,12,14,18,24,25,31,32,138,,1.6,0.8,1.3*38
2017-11-16 16:42:08 1510868528.775798: $GPGSV,3,1,11,01,12,321,39,10,73,127,48,11,10,303,40,12,25,075,47*7E
2017-11-16 16:42:08 1510868528.776035: $GPGSV,3,2,11,14,53,288,42,18,40,133,45,24,16,045,49,25,28,117,44*75
2017-11-16 16:42:08 1510868528.776099: $GPGSV,3,3,11,31,31,211,45,32,67,321,50,138,38,213,43*79
2017-11-16 16:42:08 1510868528.889049: $GPZDA,214207.00,16,11,2017,00,00*67
2017-11-16 16:42:08 1510868528.889210: $GPGGA,214207,3946.9579,N,08404.9814,W,2,11,0.80,305.62,M,-33.324,M,,*75
2017-11-16 16:42:08 1510868528.889270: $GPRMC,214207,A,3946.9579,N,08404.9814,W,0.0000,0.000,161117,,*3A
2017-11-16 16:42:08 1510868528.889326: $GPGSA,A,3,1,10,11,12,14,18,24,25,31,32,138,,1.6,0.8,1.3*38
2017-11-16 16:42:09 1510868529.438690: $GPZDA,214208.00,16,11,2017,00,00*68
2017-11-16 16:42:09 1510868529.438874: $GPGGA,214208,3946.9579,N,08404.9814,W,2,11,0.80,305.62,M,-33.324,M,,*7A
2017-11-16 16:42:09 1510868529.438955: $GPRMC,214208,A,3946.9579,N,08404.9814,W,0.0000,0.000,161117,,*35
2017-11-16 16:42:09 1510868529.439013: $GPGSA,A,3,1,10,11,12,14,18,24,25,31,32,138,,1.6,0.8,1.3*38
2017-11-16 16:42:10 1510868530.439761: $GPZDA,214209.00,16,11,2017,00,00*69
2017-11-16 16:42:10 1510868530.439921: $GPGGA,214209,3946.9579,N,08404.9814,W,2,11,0.80,305.62,M,-33.324,M,,*7B
2017-11-16 16:42:10 1510868530.439982: $GPRMC,214209,A,3946.9579,N,08404.9814,W,0.0000,0.000,161117,,*34
2017-11-16 16:42:10 1510868530.440037: $GPGSA,A,3,1,10,11,12,14,18,24,25,31,32,138,,1.6,0.8,1.3*38
