2017-12-01 16:01:13 1512162073.086831: {"class":"VERSION","release":"3.16","rev":"3.16-4","proto_major":3,"proto_minor":11}
2017-12-01 16:01:13 1512162073.087219: {"class":"DEVICES","devices":[{"class":"DEVICE","path":"/dev/ttyUSB0","driver":"SiRF","subtype":"9\u0006GSD4e_4.1.2-P1_RPATCH.05-F-GPS-4R-1510281 11/03/2015 307","activated":"2017-12-01T21:01:12.560Z","flags":1,"native":1,"bps":4800,"parity":"N","stopbits":1,"cycle":1.00}]}
2017-12-01 16:01:13 1512162073.087343: {"class":"WATCH","enable":true,"json":false,"nmea":true,"raw":0,"scaled":false,"timing":false,"split24":false,"pps":false}
2017-12-01 16:01:13 1512162073.419942: $GPZDA,210114.00,01,12,2017,00,00*67
2017-12-01 16:01:13 1512162073.420125: $GPGGA,210114,3946.9579,N,08404.9838,W,2,12,0.80,310.36,M,-33.324,M,,*78
2017-12-01 16:01:13 1512162073.420211: $GPRMC,210114,A,3946.9579,N,08404.9838,W,0.0000,0.000,011217,,*34
2017-12-01 16:01:13 1512162073.420275: $GPGSA,A,3,1,10,12,14,18,22,25,31,32,11,24,138,2.0,0.8,1.5*3B
2017-12-01 16:01:14 1512162074.756078: $GPGSV,3,1,12,01,17,313,38,10,62,139,48,12,25,063,43,14,59,303,44*78
2017-12-01 16:01:14 1512162074.756253: $GPGSV,3,2,12,18,30,139,43,22,08,312,38,25,34,106,49,31,42,216,49*78
2017-12-01 16:01:14 1512162074.756320: $GPGSV,3,3,12,32,70,349,48,11,11,294,31,24,08,046,25,138,38,213,46*4B
2017-12-01 16:01:14 1512162074.869741: $GPZDA,210115.00,01,12,2017,00,00*66
2017-12-01 16:01:14 1512162074.869907: $GPGGA,210115,3946.9579,N,08404.9838,W,2,12,0.80,310.36,M,-33.324,M,,*79
2017-12-01 16:01:14 1512162074.869973: $GPRMC,210115,A,3946.9579,N,08404.9838,W,0.0000,0.000,011217,,*35
2017-12-01 16:01:14 1512162074.870034: $GPGSA,A,3,1,10,12,14,18,22,25,31,32,11,24,138,2.0,0.8,1.5*3B
2017-12-01 16:01:15 1512162075.419132: $GPZDA,210116.00,01,12,2017,00,00*65
2017-12-01 16:01:15 1512162075.419313: $GPGGA,210116,3946.9579,N,08404.9838,W,2,12,0.80,310.36,M,-33.324,M,,*7A
2017-12-01 16:01:15 1512162075.419381: $GPRMC,210116,A,3946.9579,N,08404.9838,W,0.0000,0.000,011217,,*36
2017-12-01 16:01:15 1512162075.419443: $GPGSA,A,3,1,10,12,14,18,22,25,31,32,11,24,138,2.0,0.8,1.5*3B
2017-12-01 16:01:16 1512162076.435082: $GPZDA,210117.00,01,12,2017,00,00*64
2017-12-01 16:01:16 1512162076.435270: $GPGGA,210117,3946.9579,N,08404.9838,W,2,12,0.80,310.36,M,-33.324,M,,*7B
2017-12-01 16:01:16 1512162076.435339: $GPRMC,210117,A,3946.9579,N,08404.9838,W,0.0000,0.000,011217,,*37
2017-12-01 16:01:16 1512162076.435405: $GPGSA,A,3,1,10,12,14,18,22,25,31,32,11,24,138,2.0,0.8,1.5*3B
2017-12-01 16:01:17 1512162077.771960: $GPGSV,3,1,12,01,17,313,38,10,62,139,48,12,25,063,42,14,59,303,44*79
2017-12-01 16:01:17 1512162077.772123: $GPGSV,3,2,12,18,30,139,43,22,08,312,38,25,34,106,48,31,42,216,48*78
2017-12-01 16:01:17 1512162077.772191: $GPGSV,3,3,12,32,70,349,47,11,11,294,32,24,08,046,25,138,38,213,45*44
2017-12-01 16:01:17 1512162077.885288: $GPZDA,210118.00,01,12,2017,00,00*6B
2017-12-01 16:01:17 1512162077.885437: $GPGGA,210118,3946.9579,N,08404.9838,W,2,12,0.80,310.36,M,-33.324,M,,*74
2017-12-01 16:01:17 1512162077.885500: $GPRMC,210118,A,3946.9579,N,08404.9838,W,0.0000,0.000,011217,,*38
2017-12-01 16:01:17 1512162077.885561: $GPGSA,A,3,1,10,12,14,18,22,25,31,32,11,24,138,2.0,0.8,1.5*3B
2017-12-01 16:01:18 1512162078.434952: $GPZDA,210119.00,01,12,2017,00,00*6A
2017-12-01 16:01:19 1512162079.125072: $GPGGA,210119,3946.9579,N,08404.9838,W,2,12,0.80,310.36,M,-33.324,M,,*75
2017-12-01 16:01:19 1512162079.125219: $GPRMC,210119,A,3946.9579,N,08404.9838,W,0.0000,0.000,011217,,*39
2017-12-01 16:01:19 1512162079.125284: $GPGSA,A,3,1,10,12,14,18,22,25,31,32,11,24,138,2.0,0.8,1.5*3B
2017-12-01 16:01:19 1512162079.435295: $GPZDA,210120.00,01,12,2017,00,00*60
2017-12-01 16:01:19 1512162079.435460: $GPGGA,210120,3946.9579,N,08404.9838,W,2,12,0.80,310.36,M,-33.324,M,,*7F
2017-12-01 16:01:19 1512162079.435526: $GPRMC,210120,A,3946.9579,N,08404.9838,W,0.0000,0.000,011217,,*33
2017-12-01 16:01:19 1512162079.435587: $GPGSA,A,3,1,10,12,14,18,22,25,31,32,11,24,138,2.0,0.8,1.5*3B
2017-12-01 16:01:20 1512162080.771052: $GPGSV,3,1,12,01,17,313,39,10,62,139,48,12,25,063,42,14,59,303,44*78
2017-12-01 16:01:20 1512162080.771289: $GPGSV,3,2,12,18,30,139,43,22,08,312,37,25,34,106,47,31,42,216,48*78
2017-12-01 16:01:20 1512162080.771421: $GPGSV,3,3,12,32,70,349,47,11,11,294,32,24,08,046,25,138,38,213,46*47
2017-12-01 16:01:20 1512162080.884426: $GPZDA,210121.00,01,12,2017,00,00*61
2017-12-01 16:01:20 1512162080.884560: $GPGGA,210121,3946.9579,N,08404.9838,W,2,12,0.80,310.36,M,-33.324,M,,*7E
2017-12-01 16:01:20 1512162080.884625: $GPRMC,210121,A,3946.9579,N,08404.9838,W,0.0000,0.000,011217,,*32
2017-12-01 16:01:20 1512162080.884685: $GPGSA,A,3,1,10,12,14,18,22,25,31,32,11,24,138,2.0,0.8,1.5*3B
2017-12-01 16:01:21 1512162081.420327: $GPZDA,210122.00,01,12,2017,00,00*62
2017-12-01 16:01:21 1512162081.420489: $GPGGA,210122,3946.9579,N,08404.9838,W,2,12,0.80,310.36,M,-33.324,M,,*7D
2017-12-01 16:01:21 1512162081.420558: $GPRMC,210122,A,3946.9579,N,08404.9838,W,0.0000,0.000,011217,,*31
2017-12-01 16:01:21 1512162081.420619: $GPGSA,A,3,1,10,12,14,18,22,25,31,32,11,24,138,2.0,0.8,1.5*3B
2017-12-01 16:01:22 1512162082.420310: $GPZDA,210123.00,01,12,2017,00,00*63
2017-12-01 16:01:22 1512162082.420490: $GPGGA,210123,3946.9579,N,08404.9838,W,2,12,0.80,310.36,M,-33.324,M,,*7C
2017-12-01 16:01:22 1512162082.420560: $GPRMC,210123,A,3946.9579,N,08404.9838,W,0.0000,0.000,011217,,*30
2017-12-01 16:01:22 1512162082.420623: $GPGSA,A,3,1,10,12,14,18,22,25,31,32,11,24,138,2.0,0.8,1.5*3B
2017-12-01 16:01:23 1512162083.754526: $GPGSV,3,1,12,01,17,313,40,10,62,139,48,12,25,063,42,14,59,303,44*76
2017-12-01 16:01:24 1512162084.460633: $GPGSV,3,2,12,18,30,139,44,22,08,312,37,25,34,106,48,31,42,216,48*70
2017-12-01 16:01:24 1512162084.460780: $GPGSV,3,3,12,32,70,349,47,11,11,294,32,24,08,046,25,138,38,213,45*44
2017-12-01 16:01:24 1512162084.460879: $GPZDA,210124.00,01,12,2017,00,00*64
2017-12-01 16:01:24 1512162084.460937: $GPGGA,210124,3946.9576,N,08404.9839,W,2,12,0.80,311.12,M,-33.324,M,,*72
2017-12-01 16:01:24 1512162084.460997: $GPRMC,210124,A,3946.9576,N,08404.9839,W,0.0000,0.000,011217,,*39
2017-12-01 16:01:24 1512162084.461056: $GPGSA,A,3,1,10,12,14,18,22,25,31,32,11,24,138,2.0,0.8,1.5*3B
2017-12-01 16:01:24 1512162084.493551: $GPZDA,210125.00,01,12,2017,00,00*65
2017-12-01 16:01:24 1512162084.493695: $GPGGA,210125,3946.9576,N,08404.9839,W,2,12,0.80,311.12,M,-33.324,M,,*73
2017-12-01 16:01:24 1512162084.493761: $GPRMC,210125,A,3946.9576,N,08404.9839,W,0.0000,0.000,011217,,*38
2017-12-01 16:01:24 1512162084.493821: $GPGSA,A,3,1,10,12,14,18,22,25,31,32,11,24,138,2.0,0.8,1.5*3B
2017-12-01 16:01:25 1512162085.420280: $GPZDA,210126.00,01,12,2017,00,00*66
2017-12-01 16:01:25 1512162085.420456: $GPGGA,210126,3946.9576,N,08404.9839,W,2,12,0.80,311.12,M,-33.324,M,,*70
2017-12-01 16:01:25 1512162085.420523: $GPRMC,210126,A,3946.9576,N,08404.9839,W,0.0000,0.000,011217,,*3B
2017-12-01 16:01:25 1512162085.420584: $GPGSA,A,3,1,10,12,14,18,22,25,31,32,11,24,138,2.0,0.8,1.5*3B
2017-12-01 16:01:26 1512162086.772420: $GPGSV,3,1,12,01,17,313,42,10,62,139,48,12,25,063,42,14,59,303,44*74
2017-12-01 16:01:26 1512162086.772603: $GPGSV,3,2,12,18,30,139,44,22,08,312,36,25,34,106,48,31,42,216,49*70
2017-12-01 16:01:26 1512162086.772669: $GPGSV,3,3,12,32,70,349,47,11,11,294,32,24,08,046,25,138,38,213,46*47
2017-12-01 16:01:26 1512162086.885876: $GPZDA,210127.00,01,12,2017,00,00*67
2017-12-01 16:01:26 1512162086.886052: $GPGGA,210127,3946.9576,N,08404.9839,W,2,12,0.80,311.12,M,-33.324,M,,*71
2017-12-01 16:01:26 1512162086.886119: $GPRMC,210127,A,3946.9576,N,08404.9839,W,0.0000,0.000,011217,,*3A
2017-12-01 16:01:26 1512162086.886181: $GPGSA,A,3,1,10,12,14,18,22,25,31,32,11,24,138,2.0,0.8,1.5*3B
2017-12-01 16:01:27 1512162087.435316: $GPZDA,210128.00,01,12,2017,00,00*68
2017-12-01 16:01:27 1512162087.435496: $GPGGA,210128,3946.9576,N,08404.9839,W,2,12,0.80,311.12,M,-33.324,M,,*7E
2017-12-01 16:01:27 1512162087.435563: $GPRMC,210128,A,3946.9576,N,08404.9839,W,0.0000,0.000,011217,,*35
2017-12-01 16:01:27 1512162087.435624: $GPGSA,A,3,1,10,12,14,18,22,25,31,32,11,24,138,2.0,0.8,1.5*3B
2017-12-01 16:01:28 1512162088.434908: $GPZDA,210129.00,01,12,2017,00,00*69
2017-12-01 16:01:28 1512162088.435081: $GPGGA,210129,3946.9576,N,08404.9839,W,2,12,0.80,311.12,M,-33.324,M,,*7F
2017-12-01 16:01:28 1512162088.435148: $GPRMC,210129,A,3946.9576,N,08404.9839,W,0.0000,0.000,011217,,*34
2017-12-01 16:01:28 1512162088.435209: $GPGSA,A,3,1,10,12,14,18,22,25,31,32,11,24,138,2.0,0.8,1.5*3B
2017-12-01 16:01:29 1512162089.756446: $GPGSV,3,1,12,01,17,313,42,10,62,139,48,12,25,063,41,14,59,303,44*77
2017-12-01 16:01:29 1512162089.756609: $GPGSV,3,2,12,18,30,139,44,22,08,312,36,25,34,106,48,31,42,216,49*70
2017-12-01 16:01:29 1512162089.756675: $GPGSV,3,3,12,32,70,349,47,11,11,294,31,24,08,046,26,138,38,213,46*47
2017-12-01 16:01:29 1512162089.870172: $GPZDA,210130.00,01,12,2017,00,00*61
2017-12-01 16:01:29 1512162089.870324: $GPGGA,210130,3946.9576,N,08404.9839,W,2,12,0.80,311.12,M,-33.324,M,,*77
2017-12-01 16:01:29 1512162089.870389: $GPRMC,210130,A,3946.9576,N,08404.9839,W,0.0000,0.000,011217,,*3C
2017-12-01 16:01:29 1512162089.870449: $GPGSA,A,3,1,10,12,14,18,22,25,31,32,11,24,138,2.0,0.8,1.5*3B
2017-12-01 16:01:30 1512162090.438187: $GPZDA,210131.00,01,12,2017,00,00*60
2017-12-01 16:01:30 1512162090.438364: $GPGGA,210131,3946.9576,N,08404.9839,W,2,12,0.80,311.12,M,-33.324,M,,*76
2017-12-01 16:01:30 1512162090.438429: $GPRMC,210131,A,3946.9576,N,08404.9839,W,0.0000,0.000,011217,,*3D
2017-12-01 16:01:30 1512162090.438490: $GPGSA,A,3,1,10,12,14,18,22,25,31,32,11,24,138,2.0,0.8,1.5*3B
2017-12-01 16:01:31 1512162091.435441: $GPZDA,210132.00,01,12,2017,00,00*63
2017-12-01 16:01:31 1512162091.435611: $GPGGA,210132,3946.9580,N,08404.9839,W,2,12,0.80,311.76,M,-33.324,M,,*7E
2017-12-01 16:01:31 1512162091.435679: $GPRMC,210132,A,3946.9580,N,08404.9839,W,0.0000,0.000,011217,,*37
2017-12-01 16:01:31 1512162091.435741: $GPGSA,A,3,1,10,12,14,18,22,25,31,32,11,24,138,2.0,0.8,1.5*3B
2017-12-01 16:01:32 1512162092.754790: $GPGSV,3,1,12,01,17,313,42,10,62,139,48,12,25,063,41,14,59,303,44*77
2017-12-01 16:01:32 1512162092.754965: $GPGSV,3,2,12,18,30,139,43,22,08,312,36,25,34,106,48,31,42,216,49*77
2017-12-01 16:01:32 1512162092.755030: $GPGSV,3,3,12,32,70,349,47,11,11,294,27,24,08,046,26,138,38,213,45*43
2017-12-01 16:01:32 1512162092.868524: $GPZDA,210133.00,01,12,2017,00,00*62
2017-12-01 16:01:32 1512162092.868661: $GPGGA,210133,3946.9579,N,08404.9832,W,2,12,0.80,311.84,M,-33.324,M,,*7F
2017-12-01 16:01:32 1512162092.868726: $GPRMC,210133,A,3946.9579,N,08404.9832,W,0.0000,0.000,011217,,*3B
2017-12-01 16:01:32 1512162092.868787: $GPGSA,A,3,1,10,12,14,18,22,25,31,32,11,24,138,2.0,0.8,1.5*3B
