2017-12-01 11:53:10 1512147190.017117: {"class":"VERSION","release":"3.16","rev":"3.16-4","proto_major":3,"proto_minor":11}
2017-12-01 11:53:10 1512147190.017598: {"class":"DEVICES","devices":[{"class":"DEVICE","path":"/dev/ttyUSB0","driver":"SiRF","subtype":"9\u0006GSD4e_4.1.2-P1_RPATCH.05-F-GPS-4R-1510281 11/03/2015 307","activated":"2017-12-01T16:53:09.999Z","flags":1,"native":1,"bps":4800,"parity":"N","stopbits":1,"cycle":1.00}]}
2017-12-01 11:53:10 1512147190.017740: {"class":"WATCH","enable":true,"json":false,"nmea":true,"raw":0,"scaled":false,"timing":false,"split24":false,"pps":false}
2017-12-01 11:53:10 1512147190.408372: $GPZDA,165311.00,01,12,2017,00,00*61
2017-12-01 11:53:10 1512147190.408549: $GPGGA,165311,3946.9565,N,08404.9844,W,2,11,0.80,305.55,M,-33.324,M,,*7A
2017-12-01 11:53:10 1512147190.408618: $GPRMC,165311,A,3946.9565,N,08404.9844,W,0.0000,0.000,011217,,*34
2017-12-01 11:53:10 1512147190.408680: $GPGSA,A,3,10,13,15,18,20,21,24,27,29,5,138,,2.0,0.8,1.5*34
2017-12-01 11:53:11 1512147191.408281: $GPZDA,165312.00,01,12,2017,00,00*62
2017-12-01 11:53:11 1512147191.408467: $GPGGA,165312,3946.9565,N,08404.9844,W,2,11,0.80,305.55,M,-33.324,M,,*79
2017-12-01 11:53:11 1512147191.408534: $GPRMC,165312,A,3946.9565,N,08404.9844,W,0.0000,0.000,011217,,*37
2017-12-01 11:53:11 1512147191.408595: $GPGSA,A,3,10,13,15,18,20,21,24,27,29,5,138,,2.0,0.8,1.5*34
2017-12-01 11:53:12 1512147192.744987: $GPGSV,3,1,12,10,16,274,34,13,39,048,45,15,72,061,45,18,47,289,44*73
2017-12-01 11:53:12 1512147192.745189: $GPGSV,3,2,12,20,59,057,43,21,71,301,45,24,24,145,45,27,11,321,40*76
2017-12-01 11:53:12 1512147192.745258: $GPGSV,3,3,12,29,20,193,45,05,11,079,19,04,09,132,00,138,38,213,46*44
2017-12-01 11:53:12 1512147192.858636: $GPZDA,165313.00,01,12,2017,00,00*63
2017-12-01 11:53:12 1512147192.858804: $GPGGA,165313,3946.9565,N,08404.9844,W,2,11,0.80,305.55,M,-33.324,M,,*78
2017-12-01 11:53:12 1512147192.858870: $GPRMC,165313,A,3946.9565,N,08404.9844,W,0.0000,0.000,011217,,*36
2017-12-01 11:53:12 1512147192.858931: $GPGSA,A,3,10,13,15,18,20,21,24,27,29,5,138,,2.0,0.8,1.5*34
2017-12-01 11:53:13 1512147193.483988: $GPZDA,165314.00,01,12,2017,00,00*64
2017-12-01 11:53:13 1512147193.484183: $GPGGA,165314,3946.9565,N,08404.9844,W,2,11,0.80,305.55,M,-33.324,M,,*7F
2017-12-01 11:53:13 1512147193.484252: $GPRMC,165314,A,3946.9565,N,08404.9844,W,0.0000,0.000,011217,,*31
2017-12-01 11:53:13 1512147193.484331: $GPGSA,A,3,10,13,15,18,20,21,24,27,29,5,138,,2.0,0.8,1.5*34
2017-12-01 11:53:14 1512147194.409600: $GPZDA,165315.00,01,12,2017,00,00*65
2017-12-01 11:53:14 1512147194.409787: $GPGGA,165315,3946.9565,N,08404.9844,W,2,11,0.80,305.55,M,-33.324,M,,*7E
2017-12-01 11:53:14 1512147194.409859: $GPRMC,165315,A,3946.9565,N,08404.9844,W,0.0000,0.000,011217,,*30
2017-12-01 11:53:14 1512147194.409924: $GPGSA,A,3,10,13,15,18,20,21,24,27,29,5,138,,2.0,0.8,1.5*34
2017-12-01 11:53:15 1512147195.727836: $GPGSV,3,1,12,10,16,274,35,13,39,048,45,15,72,061,45,18,47,289,44*72
2017-12-01 11:53:15 1512147195.728017: $GPGSV,3,2,12,20,59,057,44,21,71,301,45,24,24,145,45,27,11,321,40*71
2017-12-01 11:53:15 1512147195.728088: $GPGSV,3,3,12,29,20,193,45,05,11,079,19,04,09,132,00,138,38,213,45*47
2017-12-01 11:53:15 1512147195.841496: $GPZDA,165316.00,01,12,2017,00,00*66
2017-12-01 11:53:15 1512147195.841655: $GPGGA,165316,3946.9565,N,08404.9844,W,2,11,0.80,305.55,M,-33.324,M,,*7D
2017-12-01 11:53:15 1512147195.841725: $GPRMC,165316,A,3946.9565,N,08404.9844,W,0.0000,0.000,011217,,*33
2017-12-01 11:53:15 1512147195.841789: $GPGSA,A,3,10,13,15,18,20,21,24,27,29,5,138,,2.0,0.8,1.5*34
2017-12-01 11:53:16 1512147196.391094: $GPZDA,165317.00,01,12,2017,00,00*67
2017-12-01 11:53:16 1512147196.391301: $GPGGA,165317,3946.9565,N,08404.9844,W,2,11,0.80,305.55,M,-33.324,M,,*7C
2017-12-01 11:53:16 1512147196.391475: $GPRMC,165317,A,3946.9565,N,08404.9844,W,0.0000,0.000,011217,,*32
2017-12-01 11:53:16 1512147196.391544: $GPGSA,A,3,10,13,15,18,20,21,24,27,29,5,138,,2.0,0.8,1.5*34
2017-12-01 11:53:17 1512147197.407935: $GPZDA,165318.00,01,12,2017,00,00*68
2017-12-01 11:53:17 1512147197.408191: $GPGGA,165318,3946.9565,N,08404.9844,W,2,11,0.80,305.55,M,-33.324,M,,*73
2017-12-01 11:53:17 1512147197.408282: $GPRMC,165318,A,3946.9565,N,08404.9844,W,0.0000,0.000,011217,,*3D
2017-12-01 11:53:17 1512147197.408346: $GPGSA,A,3,10,13,15,18,20,21,24,27,29,5,138,,2.0,0.8,1.5*34
2017-12-01 11:53:18 1512147198.725707: $GPGSV,3,1,12,10,16,274,35,13,39,048,45,15,72,061,45,18,47,289,44*72
2017-12-01 11:53:18 1512147198.725888: $GPGSV,3,2,12,20,59,057,44,21,71,301,45,24,24,145,45,27,11,321,40*71
2017-12-01 11:53:18 1512147198.725954: $GPGSV,3,3,12,29,20,193,45,05,11,079,13,04,09,132,00,138,38,213,46*4E
2017-12-01 11:53:18 1512147198.837811: $GPZDA,165319.00,01,12,2017,00,00*69
2017-12-01 11:53:18 1512147198.837994: $GPGGA,165319,3946.9565,N,08404.9844,W,2,11,0.80,305.55,M,-33.324,M,,*72
2017-12-01 11:53:18 1512147198.838063: $GPRMC,165319,A,3946.9565,N,08404.9844,W,0.0000,0.000,011217,,*3C
2017-12-01 11:53:18 1512147198.838150: $GPGSA,A,3,10,13,15,18,20,21,24,27,29,5,138,,2.0,0.8,1.5*34
2017-12-01 11:53:19 1512147199.908513: $GPZDA,165320.00,01,12,2017,00,00*63
2017-12-01 11:53:19 1512147199.908684: $GPGGA,165320,3946.9565,N,08404.9844,W,2,11,0.80,305.55,M,-33.324,M,,*78
2017-12-01 11:53:19 1512147199.908750: $GPRMC,165320,A,3946.9565,N,08404.9844,W,0.0000,0.000,011217,,*36
2017-12-01 11:53:19 1512147199.908811: $GPGSA,A,3,10,13,15,18,20,21,24,27,29,5,138,,2.0,0.8,1.5*34
