2018-01-11 20:23:57 1515720237.287154: {"class":"VERSION","release":"3.16","rev":"3.16-4","proto_major":3,"proto_minor":11}
2018-01-11 20:23:57 1515720237.287491: {"class":"DEVICES","devices":[{"class":"DEVICE","path":"/dev/ttyUSB0","driver":"SiRF","subtype":"9\u0006GSD4e_4.1.2-P1_RPATCH.05-F-GPS-4R-1510281 11/03/2015 307","activated":"2018-01-12T01:23:57.286Z","flags":1,"native":1,"bps":4800,"parity":"N","stopbits":1,"cycle":1.00}]}
2018-01-11 20:23:57 1515720237.287605: {"class":"WATCH","enable":true,"json":false,"nmea":true,"raw":0,"scaled":false,"timing":false,"split24":false,"pps":false}
2018-01-11 20:23:57 1515720237.399713: $GPZDA,012358.00,12,01,2018,00,00*62
2018-01-11 20:23:57 1515720237.399884: $GPGGA,012358,3946.9592,N,08404.9854,W,2,11,0.80,302.85,M,-33.324,M,,*75
2018-01-11 20:23:57 1515720237.399949: $GPRMC,012358,A,3946.9592,N,08404.9854,W,0.0000,0.000,120118,,*3E
2018-01-11 20:23:57 1515720237.400013: $GPGSA,A,3,7,8,9,11,16,23,27,28,30,1,138,,4.0,0.8,3.5*0F
2018-01-11 20:23:58 1515720238.345274: $GPZDA,012359.00,12,01,2018,00,00*63
2018-01-11 20:23:58 1515720238.345438: $GPGGA,012359,3946.9592,N,08404.9854,W,2,11,0.80,302.85,M,-33.324,M,,*74
2018-01-11 20:23:58 1515720238.345505: $GPRMC,012359,A,3946.9592,N,08404.9854,W,0.0000,0.000,120118,,*3F
2018-01-11 20:23:58 1515720238.345564: $GPGSA,A,3,7,8,9,11,16,23,27,28,30,1,138,,4.0,0.8,3.5*0F
2018-01-11 20:23:59 1515720239.682254: $GPGSV,3,1,11,07,61,316,43,08,75,109,46,09,43,223,40,11,25,165,45*75
2018-01-11 20:23:59 1515720239.682414: $GPGSV,3,2,11,16,19,063,38,23,23,187,49,27,43,049,50,28,18,262,33*75
2018-01-11 20:23:59 1515720239.682482: $GPGSV,3,3,11,30,34,307,26,01,03,160,16,138,38,213,45*7F
2018-01-11 20:23:59 1515720239.795585: $GPZDA,012400.00,12,01,2018,00,00*68
2018-01-11 20:23:59 1515720239.795711: $GPGGA,012400,3946.9592,N,08404.9854,W,2,11,0.80,302.85,M,-33.324,M,,*7F
2018-01-11 20:23:59 1515720239.795775: $GPRMC,012400,A,3946.9592,N,08404.9854,W,0.0000,0.000,120118,,*34
2018-01-11 20:23:59 1515720239.795835: $GPGSA,A,3,7,8,9,11,16,23,27,28,30,1,138,,4.0,0.8,3.5*0F
2018-01-11 20:24:00 1515720240.329300: $GPZDA,012401.00,12,01,2018,00,00*69
2018-01-11 20:24:00 1515720240.329456: $GPGGA,012401,3946.9595,N,08404.9853,W,2,11,0.80,302.09,M,-33.324,M,,*7A
2018-01-11 20:24:00 1515720240.329520: $GPRMC,012401,A,3946.9595,N,08404.9853,W,0.0000,0.000,120118,,*35
2018-01-11 20:24:00 1515720240.329581: $GPGSA,A,3,7,8,9,11,16,23,27,28,30,1,138,,4.0,0.8,3.5*0F
2018-01-11 20:24:01 1515720241.331392: $GPZDA,012402.00,12,01,2018,00,00*6A
2018-01-11 20:24:01 1515720241.335122: $GPGGA,012402,3946.9595,N,08404.9853,W,2,11,0.80,302.09,M,-33.324,M,,*79
2018-01-11 20:24:01 1515720241.335219: $GPRMC,012402,A,3946.9595,N,08404.9853,W,0.0000,0.000,120118,,*36
2018-01-11 20:24:01 1515720241.335282: $GPGSA,A,3,7,8,9,11,16,23,27,28,30,1,138,,4.0,0.8,3.5*0F
2018-01-11 20:24:02 1515720242.663885: $GPGSV,3,1,11,07,61,316,44,08,75,109,46,09,43,223,40,11,25,165,45*72
2018-01-11 20:24:02 1515720242.664047: $GPGSV,3,2,11,16,19,063,38,23,23,187,49,27,43,049,50,28,18,262,34*72
2018-01-11 20:24:02 1515720242.664112: $GPGSV,3,3,11,30,34,307,24,01,03,160,15,138,38,213,44*7F
2018-01-11 20:24:02 1515720242.777456: $GPZDA,012403.00,12,01,2018,00,00*6B
2018-01-11 20:24:02 1515720242.777575: $GPGGA,012403,3946.9595,N,08404.9853,W,2,11,0.80,302.09,M,-33.324,M,,*78
2018-01-11 20:24:02 1515720242.777639: $GPRMC,012403,A,3946.9595,N,08404.9853,W,0.0000,0.000,120118,,*37
2018-01-11 20:24:02 1515720242.777700: $GPGSA,A,3,7,8,9,11,16,23,27,28,30,1,138,,4.0,0.8,3.5*0F
2018-01-11 20:24:03 1515720243.329662: $GPZDA,012404.00,12,01,2018,00,00*6C
2018-01-11 20:24:03 1515720243.329820: $GPGGA,012404,3946.9595,N,08404.9853,W,2,11,0.80,302.09,M,-33.324,M,,*7F
2018-01-11 20:24:03 1515720243.329887: $GPRMC,012404,A,3946.9595,N,08404.9853,W,0.0000,0.000,120118,,*30
2018-01-11 20:24:03 1515720243.329951: $GPGSA,A,3,7,8,9,11,16,23,27,28,30,1,138,,4.0,0.8,3.5*0F
2018-01-11 20:24:04 1515720244.329280: $GPZDA,012405.00,12,01,2018,00,00*6D
2018-01-11 20:24:04 1515720244.329444: $GPGGA,012405,3946.9595,N,08404.9853,W,2,11,0.80,302.09,M,-33.324,M,,*7E
2018-01-11 20:24:04 1515720244.329565: $GPRMC,012405,A,3946.9595,N,08404.9853,W,0.0000,0.000,120118,,*31
2018-01-11 20:24:04 1515720244.329628: $GPGSA,A,3,7,8,9,11,16,23,27,28,30,1,138,,4.0,0.8,3.5*0F
2018-01-11 20:24:05 1515720245.665951: $GPGSV,3,1,11,07,61,316,44,08,75,109,46,09,43,223,39,11,25,165,45*7C
2018-01-11 20:24:05 1515720245.666127: $GPGSV,3,2,11,16,19,063,38,23,23,187,49,27,43,049,50,28,18,262,34*72
2018-01-11 20:24:05 1515720245.666194: $GPGSV,3,3,11,30,34,307,26,01,03,160,04,138,38,213,44*7D
2018-01-11 20:24:05 1515720245.779603: $GPZDA,012406.00,12,01,2018,00,00*6E
2018-01-11 20:24:05 1515720245.779716: $GPGGA,012406,3946.9595,N,08404.9853,W,2,10,0.80,302.09,M,-33.324,M,,*7C
2018-01-11 20:24:05 1515720245.779781: $GPRMC,012406,A,3946.9595,N,08404.9853,W,0.0000,0.000,120118,,*32
2018-01-11 20:24:05 1515720245.779844: $GPGSA,A,3,7,8,9,11,16,23,27,28,30,138,,,4.0,0.8,3.5*3E
2018-01-11 20:24:06 1515720246.329301: $GPZDA,012407.00,12,01,2018,00,00*6F
2018-01-11 20:24:06 1515720246.333629: $GPGGA,012407,3946.9594,N,08404.9852,W,2,10,1.00,300.68,M,-33.324,M,,*71
2018-01-11 20:24:06 1515720246.333724: $GPRMC,012407,A,3946.9594,N,08404.9852,W,0.2422,93.794,120118,,*05
2018-01-11 20:24:06 1515720246.333790: $GPGSA,A,3,7,8,9,11,16,23,27,28,30,138,,,4.0,1.0,3.5*37
2018-01-11 20:24:07 1515720247.325823: $GPZDA,012408.00,12,01,2018,00,00*60
2018-01-11 20:24:07 1515720247.325996: $GPGGA,012408,3946.9594,N,08404.9852,W,2,10,0.80,300.68,M,-33.324,M,,*77
2018-01-11 20:24:07 1515720247.326064: $GPRMC,012408,A,3946.9594,N,08404.9852,W,0.0000,0.000,120118,,*3C
2018-01-11 20:24:07 1515720247.326125: $GPGSA,A,3,7,8,9,11,16,23,27,28,30,138,,,4.0,0.8,3.5*3E
2018-01-11 20:24:08 1515720248.666312: $GPGSV,3,1,11,07,61,316,45,08,75,109,46,09,43,223,40,11,25,165,45*73
2018-01-11 20:24:08 1515720248.666489: $GPGSV,3,2,11,16,19,063,39,23,23,187,48,27,43,049,50,28,18,262,34*72
2018-01-11 20:24:08 1515720248.666558: $GPGSV,3,3,11,30,34,307,23,01,03,160,04,138,38,213,45*79
2018-01-11 20:24:08 1515720248.779962: $GPZDA,012409.00,12,01,2018,00,00*61
2018-01-11 20:24:08 1515720248.780081: $GPGGA,012409,3946.9594,N,08404.9852,W,2,10,0.80,300.68,M,-33.324,M,,*76
2018-01-11 20:24:08 1515720248.780147: $GPRMC,012409,A,3946.9594,N,08404.9852,W,0.0000,0.000,120118,,*3D
2018-01-11 20:24:08 1515720248.780207: $GPGSA,A,3,7,8,9,11,16,23,27,28,30,138,,,4.0,0.8,3.5*3E
2018-01-11 20:24:09 1515720249.330909: $GPZDA,012410.00,12,01,2018,00,00*69
2018-01-11 20:24:09 1515720249.331074: $GPGGA,012410,3946.9594,N,08404.9852,W,2,10,0.80,300.68,M,-33.324,M,,*7E
2018-01-11 20:24:09 1515720249.331143: $GPRMC,012410,A,3946.9594,N,08404.9852,W,0.0000,0.000,120118,,*35
2018-01-11 20:24:09 1515720249.331203: $GPGSA,A,3,7,8,9,11,16,23,27,28,30,138,,,4.0,0.8,3.5*3E
