2017-12-31 18:44:28 1514763868.116160: {"class":"VERSION","release":"3.16","rev":"3.16-4","proto_major":3,"proto_minor":11}
2017-12-31 18:44:28 1514763868.116500: {"class":"DEVICES","devices":[{"class":"DEVICE","path":"/dev/ttyUSB0","driver":"SiRF","activated":"2017-12-31T23:44:27.980Z","flags":1,"native":1,"bps":4800,"parity":"N","stopbits":1,"cycle":1.00}]}
2017-12-31 18:44:28 1514763868.116597: {"class":"WATCH","enable":true,"json":false,"nmea":true,"raw":0,"scaled":false,"timing":false,"split24":false,"pps":false}
2017-12-31 18:44:28 1514763868.389342: $GPZDA,234429.00,31,12,2017,00,00*69
2017-12-31 18:44:28 1514763868.389513: $GPGGA,234429,3946.9581,N,08404.9849,W,2,12,0.80,305.22,M,-33.324,M,,*75
2017-12-31 18:44:28 1514763868.389579: $GPRMC,234429,A,3946.9581,N,08404.9849,W,0.0000,0.000,311217,,*3B
2017-12-31 18:44:28 1514763868.389640: $GPGSA,A,3,22,23,9,3,16,8,14,31,27,7,26,135,1.7,0.8,1.3*0C
2017-12-31 18:44:29 1514763869.353951: $GPZDA,234430.00,31,12,2017,00,00*61
2017-12-31 18:44:29 1514763869.354108: $GPGGA,234430,3946.9581,N,08404.9849,W,2,12,0.80,305.22,M,-33.324,M,,*7D
2017-12-31 18:44:29 1514763869.354173: $GPRMC,234430,A,3946.9581,N,08404.9849,W,0.0000,0.000,311217,,*33
2017-12-31 18:44:29 1514763869.354234: $GPGSA,A,3,22,23,9,3,16,8,14,31,27,7,26,135,1.7,0.8,1.3*0C
2017-12-31 18:44:30 1514763870.682962: $GPGSV,3,1,12,22,10,205,24,23,66,288,42,09,33,310,42,03,20,222,39*79
2017-12-31 18:44:30 1514763870.683131: $GPGSV,3,2,12,16,80,037,44,08,13,177,32,14,02,139,15,31,18,087,34*71
2017-12-31 18:44:30 1514763870.683196: $GPGSV,3,3,12,27,36,145,42,07,08,282,39,26,47,046,45,135,22,240,43*43
2017-12-31 18:44:30 1514763870.796573: $GPZDA,234431.00,31,12,2017,00,00*60
2017-12-31 18:44:30 1514763870.796705: $GPGGA,234431,3946.9581,N,08404.9849,W,2,12,0.80,305.22,M,-33.324,M,,*7C
2017-12-31 18:44:30 1514763870.796769: $GPRMC,234431,A,3946.9581,N,08404.9849,W,0.0000,0.000,311217,,*32
2017-12-31 18:44:30 1514763870.796829: $GPGSA,A,3,22,23,9,3,16,8,14,31,27,7,26,135,1.7,0.8,1.3*0C
2017-12-31 18:44:31 1514763871.354837: $GPZDA,234432.00,31,12,2017,00,00*63
2017-12-31 18:44:31 1514763871.354990: $GPGGA,234432,3946.9581,N,08404.9849,W,2,12,0.80,305.22,M,-33.324,M,,*7F
2017-12-31 18:44:31 1514763871.355054: $GPRMC,234432,A,3946.9581,N,08404.9849,W,0.0000,0.000,311217,,*31
2017-12-31 18:44:31 1514763871.355115: $GPGSA,A,3,22,23,9,3,16,8,14,31,27,7,26,135,1.7,0.8,1.3*0C
2017-12-31 18:44:32 1514763872.353166: $GPZDA,234433.00,31,12,2017,00,00*62
2017-12-31 18:44:32 1514763872.353316: $GPGGA,234433,3946.9581,N,08404.9849,W,2,12,0.80,305.22,M,-33.324,M,,*7E
2017-12-31 18:44:32 1514763872.353380: $GPRMC,234433,A,3946.9581,N,08404.9849,W,0.0000,0.000,311217,,*30
2017-12-31 18:44:32 1514763872.353440: $GPGSA,A,3,22,23,9,3,16,8,14,31,27,7,26,135,1.7,0.8,1.3*0C
2017-12-31 18:44:33 1514763873.688850: $GPGSV,3,1,12,22,10,205,24,23,66,288,42,09,33,310,42,03,20,222,38*78
2017-12-31 18:44:33 1514763873.689025: $GPGSV,3,2,12,16,80,037,44,08,13,177,32,14,02,139,15,31,18,087,34*71
2017-12-31 18:44:33 1514763873.689091: $GPGSV,3,3,12,27,36,145,42,07,08,282,39,26,47,046,45,135,22,240,44*44
2017-12-31 18:44:33 1514763873.802498: $GPZDA,234434.00,31,12,2017,00,00*65
2017-12-31 18:44:33 1514763873.802611: $GPGGA,234434,3946.9581,N,08404.9849,W,2,12,0.80,305.22,M,-33.324,M,,*79
2017-12-31 18:44:33 1514763873.802672: $GPRMC,234434,A,3946.9581,N,08404.9849,W,0.0000,0.000,311217,,*37
2017-12-31 18:44:33 1514763873.802731: $GPGSA,A,3,22,23,9,3,16,8,14,31,27,7,26,135,1.7,0.8,1.3*0C
2017-12-31 18:44:34 1514763874.389685: $GPZDA,234435.00,31,12,2017,00,00*64
2017-12-31 18:44:34 1514763874.389846: $GPGGA,234435,3946.9581,N,08404.9849,W,2,12,0.80,305.22,M,-33.324,M,,*78
2017-12-31 18:44:34 1514763874.389911: $GPRMC,234435,A,3946.9581,N,08404.9849,W,0.0000,0.000,311217,,*36
2017-12-31 18:44:34 1514763874.389971: $GPGSA,A,3,22,23,9,3,16,8,14,31,27,7,26,135,1.7,0.8,1.3*0C
2017-12-31 18:44:35 1514763875.388829: $GPZDA,234436.00,31,12,2017,00,00*67
2017-12-31 18:44:35 1514763875.388986: $GPGGA,234436,3946.9581,N,08404.9849,W,2,12,0.80,305.22,M,-33.324,M,,*7B
2017-12-31 18:44:35 1514763875.389107: $GPRMC,234436,A,3946.9581,N,08404.9849,W,0.0000,0.000,311217,,*35
2017-12-31 18:44:35 1514763875.389170: $GPGSA,A,3,22,23,9,3,16,8,14,31,27,7,26,135,1.7,0.8,1.3*0C
2017-12-31 18:44:36 1514763876.716662: $GPGSV,3,1,12,22,10,205,22,23,66,288,41,09,33,310,42,03,20,222,38*7D
2017-12-31 18:44:36 1514763876.716818: $GPGSV,3,2,12,16,80,037,43,08,13,177,31,14,02,139,15,31,18,087,34*75
2017-12-31 18:44:36 1514763876.716883: $GPGSV,3,3,12,27,36,145,42,07,08,282,39,26,47,046,45,135,22,240,44*44
2017-12-31 18:44:36 1514763876.830395: $GPZDA,234437.00,31,12,2017,00,00*66
2017-12-31 18:44:36 1514763876.830515: $GPGGA,234437,3946.9581,N,08404.9849,W,2,12,0.80,305.22,M,-33.324,M,,*7A
2017-12-31 18:44:36 1514763876.830579: $GPRMC,234437,A,3946.9581,N,08404.9849,W,0.0000,0.000,311217,,*34
2017-12-31 18:44:36 1514763876.830639: $GPGSA,A,3,22,23,9,3,16,8,14,31,27,7,26,135,1.7,0.8,1.3*0C
2017-12-31 18:44:37 1514763877.355021: $GPZDA,234438.00,31,12,2017,00,00*69
2017-12-31 18:44:37 1514763877.355188: $GPGGA,234438,3946.9581,N,08404.9849,W,2,12,0.80,305.22,M,-33.324,M,,*75
2017-12-31 18:44:37 1514763877.355253: $GPRMC,234438,A,3946.9581,N,08404.9849,W,0.0000,0.000,311217,,*3B
2017-12-31 18:44:37 1514763877.355313: $GPGSA,A,3,22,23,9,3,16,8,14,31,27,7,26,135,1.7,0.8,1.3*0C
