2017-11-15 18:26:33 1510788393.884494: {"class":"VERSION","release":"3.17","rev":"3.17","proto_major":3,"proto_minor":12}
2017-11-15 18:26:33 1510788393.884940: {"class":"DEVICES","devices":[{"class":"DEVICE","path":"/dev/ttyUSB0","driver":"SiRF","subtype":"9\u0006GSD4e_4.1.2-P1_RPATCH.05-F-GPS-4R-1510281 11/03/2015 307","activated":"2017-11-15T23:26:33.815Z","flags":1,"native":1,"bps":4800,"parity":"N","stopbits":1,"cycle":1.00}]}
2017-11-15 18:26:33 1510788393.885071: {"class":"WATCH","enable":true,"json":false,"nmea":true,"raw":0,"scaled":false,"timing":false,"split24":false,"pps":false}
2017-11-15 18:26:34 1510788394.329107: $GPZDA,232633.00,15,11,2017,00,00*63
2017-11-15 18:26:34 1510788394.329275: $GPGGA,232633,3946.9661,N,08404.9482,W,1,07,2.80,290.59,M,-33.324,M,,*78
2017-11-15 18:26:34 1510788394.329338: $GPRMC,232633,A,3946.9661,N,08404.9482,W,1.2381,352.270,151117,,*3F
2017-11-15 18:26:34 1510788394.329394: $GPGSA,A,3,10,25,1,31,32,14,22,,,,,,3.4,2.8,2.9*05
2017-11-15 18:26:35 1510788395.359960: $GPZDA,232634.00,15,11,2017,00,00*64
2017-11-15 18:26:35 1510788395.360138: $GPGGA,232634,3946.9661,N,08404.9482,W,1,07,2.80,290.59,M,-33.324,M,,*7F
2017-11-15 18:26:35 1510788395.360201: $GPRMC,232634,A,3946.9661,N,08404.9482,W,1.5555,3.694,151117,,*39
2017-11-15 18:26:35 1510788395.360256: $GPGSA,A,3,10,25,1,31,32,14,22,,,,,,3.4,2.8,2.9*05
2017-11-15 18:26:36 1510788396.663939: $GPGSV,3,1,10,10,25,156,14,26,22,178,00,25,37,060,21,01,20,277,15*72
2017-11-15 18:26:36 1510788396.664126: $GPGSV,3,2,10,31,76,265,18,32,57,073,22,14,70,030,24,22,37,304,18*78
2017-11-15 18:26:36 1510788396.664189: $GPGSV,3,3,10,03,18,316,15,12,09,034,00*7F
2017-11-15 18:26:36 1510788396.777363: $GPZDA,232635.00,15,11,2017,00,00*65
2017-11-15 18:26:36 1510788396.777523: $GPGGA,232635,3946.9668,N,08404.9481,W,1,07,2.80,290.47,M,-33.324,M,,*7B
2017-11-15 18:26:36 1510788396.777585: $GPRMC,232635,A,3946.9668,N,08404.9481,W,1.2132,3.552,151117,,*39
2017-11-15 18:26:36 1510788396.777640: $GPGSA,A,3,10,25,1,31,32,14,22,,,,,,3.4,2.8,2.9*05
2017-11-15 18:26:37 1510788397.329483: $GPZDA,232636.00,15,11,2017,00,00*66
2017-11-15 18:26:37 1510788397.329665: $GPGGA,232636,3946.9668,N,08404.9481,W,1,07,2.80,290.47,M,-33.324,M,,*78
2017-11-15 18:26:37 1510788397.329727: $GPRMC,232636,A,3946.9668,N,08404.9481,W,0.8359,328.778,151117,,*3E
2017-11-15 18:26:37 1510788397.329782: $GPGSA,A,3,10,25,1,31,32,14,22,,,,,,3.4,2.8,2.9*05
2017-11-15 18:26:38 1510788398.359079: $GPZDA,232637.00,15,11,2017,00,00*67
2017-11-15 18:26:38 1510788398.359244: $GPGGA,232637,3946.9668,N,08404.9481,W,1,07,2.80,290.47,M,-33.324,M,,*79
2017-11-15 18:26:38 1510788398.359304: $GPRMC,232637,A,3946.9668,N,08404.9481,W,0.7278,23.636,151117,,*01
2017-11-15 18:26:38 1510788398.359360: $GPGSA,A,3,10,25,1,31,32,14,22,,,,,,3.4,2.8,2.9*05
2017-11-15 18:26:39 1510788399.663500: $GPGSV,3,1,10,10,25,156,14,26,22,178,00,25,37,060,21,01,20,277,14*73
2017-11-15 18:26:39 1510788399.663685: $GPGSV,3,2,10,31,76,265,18,32,57,073,22,14,70,030,24,22,37,304,18*78
2017-11-15 18:26:39 1510788399.663746: $GPGSV,3,3,10,03,18,316,00,12,09,034,00*7B
2017-11-15 18:26:39 1510788399.776895: $GPZDA,232638.00,15,11,2017,00,00*68
2017-11-15 18:26:39 1510788399.777059: $GPGGA,232638,3946.9668,N,08404.9474,W,1,07,2.80,290.54,M,-33.324,M,,*7E
2017-11-15 18:26:39 1510788399.777121: $GPRMC,232638,A,3946.9668,N,08404.9474,W,0.8414,39.347,151117,,*0F
2017-11-15 18:26:39 1510788399.777177: $GPGSA,A,3,10,25,1,31,32,14,22,,,,,,3.4,2.8,2.9*05
2017-11-15 18:26:40 1510788400.327772: $GPZDA,232639.00,15,11,2017,00,00*69
2017-11-15 18:26:40 1510788400.327943: $GPGGA,232639,3946.9668,N,08404.9474,W,1,07,2.80,290.54,M,-33.324,M,,*7F
2017-11-15 18:26:40 1510788400.328008: $GPRMC,232639,A,3946.9668,N,08404.9474,W,0.5951,58.684,151117,,*02
2017-11-15 18:26:40 1510788400.328068: $GPGSA,A,3,10,25,1,31,32,14,22,,,,,,3.4,2.8,2.9*05
2017-11-15 18:26:41 1510788401.359404: $GPZDA,232640.00,15,11,2017,00,00*67
2017-11-15 18:26:41 1510788401.359572: $GPGGA,232640,3946.9668,N,08404.9474,W,1,07,3.00,290.54,M,-33.324,M,,*78
2017-11-15 18:26:41 1510788401.359683: $GPRMC,232640,A,3946.9668,N,08404.9474,W,0.5951,58.684,151117,,*0C
2017-11-15 18:26:41 1510788401.359740: $GPGSA,A,3,10,25,1,31,32,14,22,,,,,,3.4,3.0,2.9*0C
2017-11-15 18:26:42 1510788402.664196: $GPGSV,3,1,10,10,25,156,14,14,70,030,06,25,37,060,21,01,20,277,12*78
2017-11-15 18:26:42 1510788402.664380: $GPGSV,3,2,10,31,76,265,18,32,57,073,22,26,22,178,00,22,37,304,18*75
2017-11-15 18:26:42 1510788402.664444: $GPGSV,3,3,10,03,18,316,00,12,09,034,00*7B
2017-11-15 18:26:42 1510788402.779205: $GPZDA,232641.00,15,11,2017,00,00*66
2017-11-15 18:26:42 1510788402.779354: $GPGGA,232641,3946.9668,N,08404.9474,W,1,06,3.00,290.54,M,-33.324,M,,*78
2017-11-15 18:26:42 1510788402.779415: $GPRMC,232641,A,3946.9668,N,08404.9474,W,0.4207,39.347,151117,,*09
2017-11-15 18:26:42 1510788402.779471: $GPGSA,A,3,10,25,1,31,32,22,,,,,,,3.4,3.0,2.9*09
2017-11-15 18:26:43 1510788403.359781: $GPZDA,232642.00,15,11,2017,00,00*65
2017-11-15 18:26:43 1510788403.359956: $GPGGA,232642,3946.9672,N,08404.9474,W,1,06,2.80,289.78,M,-33.324,M,,*7F
2017-11-15 18:26:43 1510788403.360020: $GPRMC,232642,A,3946.9672,N,08404.9474,W,0.7278,23.636,151117,,*02
2017-11-15 18:26:43 1510788403.360081: $GPGSA,A,3,10,25,1,31,32,22,,,,,,,3.4,2.8,2.9*00
