2017-12-01 14:17:50 1512155870.766917: {"class":"VERSION","release":"3.16","rev":"3.16-4","proto_major":3,"proto_minor":11}
2017-12-01 14:17:50 1512155870.767326: {"class":"DEVICES","devices":[{"class":"DEVICE","path":"/dev/ttyUSB0","driver":"SiRF","subtype":"9\u0006GSD4e_4.1.2-P1_RPATCH.05-F-GPS-4R-1510281 11/03/2015 307","activated":"2017-12-01T19:17:50.459Z","flags":1,"native":1,"bps":4800,"parity":"N","stopbits":1,"cycle":1.00}]}
2017-12-01 14:17:50 1512155870.767452: {"class":"WATCH","enable":true,"json":false,"nmea":true,"raw":0,"scaled":false,"timing":false,"split24":false,"pps":false}
2017-12-01 14:17:51 1512155871.063376: $GPZDA,191751.75,01,12,2017,00,00*68
2017-12-01 14:17:51 1512155871.063547: $GPGGA,191751,3946.9537,N,08404.9826,W,1,12,1.00,319.77,M,-33.324,M,,*76
2017-12-01 14:17:51 1512155871.063614: $GPRMC,191751,A,3946.9537,N,08404.9826,W,1.0342,199.304,011217,,*3E
2017-12-01 14:17:51 1512155871.063676: $GPGSA,A,3,8,10,14,18,21,24,27,32,12,15,20,138,2.0,1.0,1.5*3E
2017-12-01 14:17:52 1512155872.167183: $GPZDA,191752.44,01,12,2017,00,00*69
2017-12-01 14:17:52 1512155872.167355: $GPGGA,191752,3946.9554,N,08404.9832,W,1,12,1.00,308.00,M,-33.324,M,,*75
2017-12-01 14:17:52 1512155872.167421: $GPRMC,191752,A,3946.9554,N,08404.9832,W,0.2758,128.233,011217,,*3E
2017-12-01 14:17:52 1512155872.167483: $GPGSA,A,3,8,10,14,18,21,24,27,32,12,15,20,138,2.0,1.0,1.5*3E
2017-12-01 14:17:52 1512155872.167542: $GPGBS,191752,10.70,M,15.43,M,35.28,M*0E
2017-12-01 14:17:53 1512155873.333446: $GPGSV,3,1,12,10,67,328,50,14,27,252,39,15,13,066,32,18,72,088,44*70
2017-12-01 14:17:53 1512155873.333622: $GPGSV,3,2,12,21,31,180,46,24,46,061,48,27,08,262,38,32,44,262,45*78
2017-12-01 14:17:53 1512155873.333689: $GPGSV,3,3,12,08,06,295,05,12,08,109,04,20,11,117,04,138,38,213,00*48
2017-12-01 14:17:53 1512155873.446774: $GPZDA,191753.00,01,12,2017,00,00*68
2017-12-01 14:17:53 1512155873.446947: $GPGGA,191753,3946.9557,N,08404.9844,W,1,08,1.00,304.27,M,-33.324,M,,*74
2017-12-01 14:17:53 1512155873.447014: $GPRMC,191753,A,3946.9557,N,08404.9844,W,0.1567,189.200,011217,,*3B
2017-12-01 14:17:53 1512155873.447075: $GPGSA,A,3,10,14,15,18,21,24,27,32,,,,,2.0,1.0,1.5*3D
2017-12-01 14:17:53 1512155873.898023: $GPZDA,191754.00,01,12,2017,00,00*6F
2017-12-01 14:17:53 1512155873.898191: $GPGGA,191754,3946.9574,N,08404.9859,W,1,08,0.80,297.40,M,-33.324,M,,*7D
2017-12-01 14:17:53 1512155873.898257: $GPRMC,191754,A,3946.9574,N,08404.9859,W,0.2422,93.794,011217,,*00
2017-12-01 14:17:53 1512155873.898318: $GPGSA,A,3,10,14,15,18,21,24,27,32,,,,,2.0,0.8,1.5*34
2017-12-01 14:17:54 1512155874.357358: $GPZDA,191755.00,01,12,2017,00,00*6E
2017-12-01 14:17:54 1512155874.357542: $GPGGA,191755,3946.9574,N,08404.9859,W,1,08,0.80,297.40,M,-33.324,M,,*7C
2017-12-01 14:17:54 1512155874.357609: $GPRMC,191755,A,3946.9574,N,08404.9859,W,0.0000,0.000,011217,,*37
2017-12-01 14:17:54 1512155874.357671: $GPGSA,A,3,10,14,15,18,21,24,27,32,,,,,2.0,0.8,1.5*34
2017-12-01 14:17:55 1512155875.693840: $GPGSV,3,1,12,10,67,328,50,14,27,252,38,15,13,066,32,18,72,088,44*71
2017-12-01 14:17:55 1512155875.699604: $GPGSV,3,2,12,21,31,180,46,24,46,061,49,27,08,262,38,32,44,262,45*79
2017-12-01 14:17:55 1512155875.699739: $GPGSV,3,3,12,08,06,295,27,12,08,109,20,20,11,117,26,138,38,213,48*42
2017-12-01 14:17:55 1512155875.807226: $GPZDA,191756.00,01,12,2017,00,00*6D
2017-12-01 14:17:55 1512155875.807409: $GPGGA,191756,3946.9571,N,08404.9860,W,1,12,0.80,298.17,M,-33.324,M,,*76
2017-12-01 14:17:55 1512155875.807476: $GPRMC,191756,A,3946.9571,N,08404.9860,W,0.0000,0.000,011217,,*3B
2017-12-01 14:17:55 1512155875.807537: $GPGSA,A,3,10,14,15,18,21,24,27,32,8,12,20,138,2.0,0.8,1.5*37
2017-12-01 14:17:56 1512155876.356788: $GPZDA,191757.00,01,12,2017,00,00*6C
2017-12-01 14:17:56 1512155876.356957: $GPGGA,191757,3946.9574,N,08404.9853,W,1,12,0.80,298.89,M,-33.324,M,,*75
2017-12-01 14:17:56 1512155876.357023: $GPRMC,191757,A,3946.9574,N,08404.9853,W,0.0000,0.000,011217,,*3F
2017-12-01 14:17:56 1512155876.357084: $GPGSA,A,3,10,14,15,18,21,24,27,32,8,12,20,138,2.0,0.8,1.5*37
2017-12-01 14:17:57 1512155877.356346: $GPZDA,191758.00,01,12,2017,00,00*63
2017-12-01 14:17:57 1512155877.356516: $GPGGA,191758,3946.9571,N,08404.9854,W,1,12,0.80,299.65,M,-33.324,M,,*7B
2017-12-01 14:17:57 1512155877.356635: $GPRMC,191758,A,3946.9571,N,08404.9854,W,0.0000,0.000,011217,,*32
2017-12-01 14:17:57 1512155877.356698: $GPGSA,A,3,10,14,15,18,21,24,27,32,8,12,20,138,2.0,0.8,1.5*37
2017-12-01 14:17:57 1512155877.356758: $GPGBS,191758,10.70,M,15.43,M,35.28,M*04
2017-12-01 14:17:58 1512155878.693289: $GPGSV,3,1,12,10,67,328,49,14,27,252,38,15,13,066,32,18,72,088,44*79
2017-12-01 14:17:58 1512155878.693489: $GPGSV,3,2,12,21,31,180,46,24,46,061,49,27,08,262,38,32,44,262,44*78
2017-12-01 14:17:58 1512155878.693556: $GPGSV,3,3,12,08,06,295,28,12,08,109,19,20,11,117,27,138,38,213,47*49
2017-12-01 14:17:58 1512155878.806669: $GPZDA,191759.00,01,12,2017,00,00*62
2017-12-01 14:17:58 1512155878.806844: $GPGGA,191759,3946.9571,N,08404.9854,W,1,12,0.80,299.65,M,-33.324,M,,*7A
2017-12-01 14:17:58 1512155878.806910: $GPRMC,191759,A,3946.9571,N,08404.9854,W,0.0000,0.000,011217,,*33
2017-12-01 14:17:58 1512155878.806971: $GPGSA,A,3,10,14,15,18,21,24,27,32,8,12,20,138,2.0,0.8,1.5*37
2017-12-01 14:17:59 1512155879.357550: $GPZDA,191800.00,01,12,2017,00,00*61
2017-12-01 14:17:59 1512155879.357723: $GPGGA,191800,3946.9571,N,08404.9854,W,2,12,1.00,299.65,M,-33.324,M,,*73
2017-12-01 14:17:59 1512155879.357789: $GPRMC,191800,A,3946.9571,N,08404.9854,W,0.0000,0.000,011217,,*30
2017-12-01 14:17:59 1512155879.357849: $GPGSA,A,3,10,14,15,18,21,24,27,32,8,12,20,138,2.0,1.0,1.5*3E
2017-12-01 14:18:00 1512155880.358001: $GPZDA,191801.00,01,12,2017,00,00*60
2017-12-01 14:18:00 1512155880.358365: $GPGGA,191801,3946.9567,N,08404.9855,W,2,12,1.00,300.42,M,-33.324,M,,*70
2017-12-01 14:18:00 1512155880.358513: $GPRMC,191801,A,3946.9567,N,08404.9855,W,0.0000,0.000,011217,,*37
2017-12-01 14:18:00 1512155880.358632: $GPGSA,A,3,10,14,15,18,21,24,27,32,8,12,20,138,2.0,1.0,1.5*3E
2017-12-01 14:18:01 1512155881.694896: $GPGSV,3,1,12,10,67,328,49,14,27,252,38,15,13,066,32,18,72,088,44*79
2017-12-01 14:18:01 1512155881.695039: $GPGSV,3,2,12,21,31,180,46,24,46,061,50,27,08,262,38,32,44,262,44*70
2017-12-01 14:18:01 1512155881.695104: $GPGSV,3,3,12,08,06,295,29,12,08,109,20,20,11,117,27,138,38,213,47*42
2017-12-01 14:18:01 1512155881.808268: $GPZDA,191802.00,01,12,2017,00,00*63
2017-12-01 14:18:01 1512155881.808458: $GPGGA,191802,3946.9567,N,08404.9855,W,2,12,1.00,300.42,M,-33.324,M,,*73
2017-12-01 14:18:01 1512155881.808525: $GPRMC,191802,A,3946.9567,N,08404.9855,W,0.0000,0.000,011217,,*34
2017-12-01 14:18:01 1512155881.808586: $GPGSA,A,3,10,14,15,18,21,24,27,32,8,12,20,138,2.0,1.0,1.5*3E
2017-12-01 14:18:02 1512155882.357896: $GPZDA,191803.00,01,12,2017,00,00*62
2017-12-01 14:18:02 1512155882.358085: $GPGGA,191803,3946.9567,N,08404.9855,W,2,12,1.00,300.42,M,-33.324,M,,*72
2017-12-01 14:18:02 1512155882.358157: $GPRMC,191803,A,3946.9567,N,08404.9855,W,0.0000,0.000,011217,,*35
2017-12-01 14:18:02 1512155882.358250: $GPGSA,A,3,10,14,15,18,21,24,27,32,8,12,20,138,2.0,1.0,1.5*3E
2017-12-01 14:18:03 1512155883.353766: $GPZDA,191804.00,01,12,2017,00,00*65
2017-12-01 14:18:03 1512155883.353942: $GPGGA,191804,3946.9568,N,08404.9848,W,2,12,1.00,301.90,M,-33.324,M,,*78
2017-12-01 14:18:03 1512155883.354011: $GPRMC,191804,A,3946.9568,N,08404.9848,W,0.0000,0.000,011217,,*31
2017-12-01 14:18:03 1512155883.354074: $GPGSA,A,3,10,14,15,18,21,24,27,32,8,12,20,138,2.0,1.0,1.5*3E
2017-12-01 14:18:04 1512155884.689498: $GPGSV,3,1,12,10,67,328,48,14,27,252,38,15,13,066,32,18,72,088,44*78
2017-12-01 14:18:04 1512155884.689685: $GPGSV,3,2,12,21,31,180,45,24,46,061,48,27,08,262,37,32,44,262,44*75
2017-12-01 14:18:04 1512155884.689755: $GPGSV,3,3,12,08,06,295,24,12,08,109,28,20,11,117,26,138,38,213,49*48
2017-12-01 14:18:04 1512155884.803145: $GPZDA,191805.00,01,12,2017,00,00*64
2017-12-01 14:18:04 1512155884.803356: $GPGGA,191805,3946.9567,N,08404.9848,W,2,12,1.00,300.49,M,-33.324,M,,*73
2017-12-01 14:18:04 1512155884.803494: $GPRMC,191805,A,3946.9567,N,08404.9848,W,0.0000,0.000,011217,,*3F
2017-12-01 14:18:04 1512155884.803637: $GPGSA,A,3,10,14,15,18,21,24,27,32,8,12,20,138,2.0,1.0,1.5*3E
2017-12-01 14:18:05 1512155885.429510: $GPZDA,191806.00,01,12,2017,00,00*67
2017-12-01 14:18:05 1512155885.429701: $GPGGA,191806,3946.9574,N,08404.9859,W,2,12,1.00,297.40,M,-33.324,M,,*74
2017-12-01 14:18:05 1512155885.429767: $GPRMC,191806,A,3946.9574,N,08404.9859,W,0.3155,129.994,011217,,*32
2017-12-01 14:18:05 1512155885.429828: $GPGSA,A,3,10,14,15,18,21,24,27,32,8,12,20,138,2.0,1.0,1.5*3E
2017-12-01 14:18:06 1512155886.355782: $GPZDA,191807.00,01,12,2017,00,00*66
2017-12-01 14:18:06 1512155886.356041: $GPGGA,191807,3946.9574,N,08404.9859,W,2,12,1.00,297.40,M,-33.324,M,,*75
2017-12-01 14:18:06 1512155886.356206: $GPRMC,191807,A,3946.9574,N,08404.9859,W,0.0000,0.000,011217,,*3F
2017-12-01 14:18:06 1512155886.356311: $GPGSA,A,3,10,14,15,18,21,24,27,32,8,12,20,138,2.0,1.0,1.5*3E
2017-12-01 14:18:07 1512155887.694938: $GPGSV,3,1,12,10,67,328,48,14,27,252,39,15,13,066,33,18,72,088,44*78
2017-12-01 14:18:07 1512155887.695120: $GPGSV,3,2,12,21,31,180,46,24,46,061,49,27,08,262,37,32,44,262,44*77
2017-12-01 14:18:07 1512155887.695190: $GPGSV,3,3,12,08,06,295,16,12,08,109,28,20,11,117,26,138,38,213,46*46
2017-12-01 14:18:07 1512155887.808585: $GPZDA,191808.00,01,12,2017,00,00*69
2017-12-01 14:18:07 1512155887.808759: $GPGGA,191808,3946.9574,N,08404.9859,W,2,11,1.00,297.40,M,-33.324,M,,*79
2017-12-01 14:18:07 1512155887.808827: $GPRMC,191808,A,3946.9574,N,08404.9859,W,0.0000,0.000,011217,,*30
2017-12-01 14:18:07 1512155887.808887: $GPGSA,A,3,10,14,15,18,21,24,27,32,12,20,138,,2.0,1.0,1.5*06
2017-12-01 14:18:08 1512155888.357895: $GPZDA,191809.00,01,12,2017,00,00*68
2017-12-01 14:18:08 1512155888.358072: $GPGGA,191809,3946.9574,N,08404.9859,W,2,11,1.00,297.40,M,-33.324,M,,*78
2017-12-01 14:18:08 1512155888.358163: $GPRMC,191809,A,3946.9574,N,08404.9859,W,0.0000,0.000,011217,,*31
2017-12-01 14:18:08 1512155888.358226: $GPGSA,A,3,10,14,15,18,21,24,27,32,12,20,138,,2.0,1.0,1.5*06
2017-12-01 14:18:09 1512155889.357533: $GPZDA,191810.00,01,12,2017,00,00*60
2017-12-01 14:18:09 1512155889.357707: $GPGGA,191810,3946.9571,N,08404.9860,W,2,11,0.80,298.17,M,-33.324,M,,*7B
2017-12-01 14:18:09 1512155889.357775: $GPRMC,191810,A,3946.9571,N,08404.9860,W,0.0000,0.000,011217,,*36
2017-12-01 14:18:09 1512155889.357835: $GPGSA,A,3,10,14,15,18,21,24,27,32,12,20,138,,2.0,0.8,1.5*0F
2017-12-01 14:18:09 1512155889.357895: $GPGBS,191810,2.67,M,3.86,M,8.82,M*32
2017-12-01 14:18:10 1512155890.693842: $GPGSV,3,1,12,10,67,328,48,14,27,252,40,15,13,066,33,18,72,088,44*76
2017-12-01 14:18:10 1512155890.694022: $GPGSV,3,2,12,21,31,180,46,24,46,061,50,27,08,262,37,32,44,262,44*7F
2017-12-01 14:18:10 1512155890.694088: $GPGSV,3,3,12,08,06,295,22,12,08,109,27,20,11,117,26,138,38,213,46*4E
