2017-11-16 16:41:32 1510868492.272272: {"class":"VERSION","release":"3.17","rev":"3.17","proto_major":3,"proto_minor":12}
2017-11-16 16:41:32 1510868492.272775: {"class":"DEVICES","devices":[{"class":"DEVICE","path":"/dev/ttyUSB0","driver":"SiRF","subtype":"9\u0006GSD4e_4.1.2-P1_RPATCH.05-F-GPS-4R-1510281 11/03/2015 307","activated":"2017-11-16T21:41:32.262Z","flags":1,"native":1,"bps":4800,"parity":"N","stopbits":1,"cycle":1.00}]}
2017-11-16 16:41:32 1510868492.272905: {"class":"WATCH","enable":true,"json":false,"nmea":true,"raw":0,"scaled":false,"timing":false,"split24":false,"pps":false}
2017-11-16 16:41:32 1510868492.774611: $GPGSV,3,1,11,01,12,321,35,10,73,127,48,11,10,303,41,12,25,075,48*7C
2017-11-16 16:41:32 1510868492.774770: $GPGSV,3,2,11,14,53,288,43,18,40,133,45,24,16,045,50,25,28,117,44*7C
2017-11-16 16:41:32 1510868492.774830: $GPGSV,3,3,11,31,31,211,45,32,67,321,50,138,38,213,45*7F
2017-11-16 16:41:32 1510868492.888297: $GPZDA,214131.00,16,11,2017,00,00*61
2017-11-16 16:41:32 1510868492.888459: $GPGGA,214131,3946.9583,N,08404.9821,W,2,11,0.80,304.78,M,-33.324,M,,*7A
2017-11-16 16:41:32 1510868492.888519: $GPRMC,214131,A,3946.9583,N,08404.9821,W,0.0000,0.000,161117,,*3F
2017-11-16 16:41:32 1510868492.888575: $GPGSA,A,3,1,10,11,12,14,18,24,25,31,32,138,,1.6,0.8,1.3*38
2017-11-16 16:41:33 1510868493.437858: $GPZDA,214132.00,16,11,2017,00,00*62
2017-11-16 16:41:33 1510868493.438005: $GPGGA,214132,3946.9583,N,08404.9821,W,2,11,0.80,304.78,M,-33.324,M,,*79
2017-11-16 16:41:33 1510868493.438066: $GPRMC,214132,A,3946.9583,N,08404.9821,W,0.0000,0.000,161117,,*3C
2017-11-16 16:41:33 1510868493.438121: $GPGSA,A,3,1,10,11,12,14,18,24,25,31,32,138,,1.6,0.8,1.3*38
2017-11-16 16:41:34 1510868494.432497: $GPZDA,214133.00,16,11,2017,00,00*63
2017-11-16 16:41:34 1510868494.432652: $GPGGA,214133,3946.9583,N,08404.9814,W,2,11,0.80,304.85,M,-33.324,M,,*7C
2017-11-16 16:41:34 1510868494.432714: $GPRMC,214133,A,3946.9583,N,08404.9814,W,0.0000,0.000,161117,,*3B
2017-11-16 16:41:34 1510868494.432770: $GPGSA,A,3,1,10,11,12,14,18,24,25,31,32,138,,1.6,0.8,1.3*38
2017-11-16 16:41:35 1510868495.790548: $GPGSV,3,1,11,01,12,321,29,10,73,127,48,11,10,303,41,12,25,075,48*71
2017-11-16 16:41:35 1510868495.790708: $GPGSV,3,2,11,14,53,288,43,18,40,133,44,24,16,045,50,25,28,117,44*7D
2017-11-16 16:41:35 1510868495.790768: $GPGSV,3,3,11,31,31,211,46,32,67,321,51,138,38,213,45*7D
2017-11-16 16:41:35 1510868495.903839: $GPZDA,214134.00,16,11,2017,00,00*64
2017-11-16 16:41:35 1510868495.904009: $GPGGA,214134,3946.9583,N,08404.9814,W,2,11,0.80,304.85,M,-33.324,M,,*7B
2017-11-16 16:41:35 1510868495.904071: $GPRMC,214134,A,3946.9583,N,08404.9814,W,0.0000,0.000,161117,,*3C
2017-11-16 16:41:35 1510868495.904127: $GPGSA,A,3,1,10,11,12,14,18,24,25,31,32,138,,1.6,0.8,1.3*38
2017-11-16 16:41:36 1510868496.529228: $GPZDA,214135.00,16,11,2017,00,00*65
2017-11-16 16:41:36 1510868496.529394: $GPGGA,214135,3946.9583,N,08404.9814,W,2,11,0.80,304.85,M,-33.324,M,,*7A
2017-11-16 16:41:36 1510868496.529456: $GPRMC,214135,A,3946.9583,N,08404.9814,W,0.0000,0.000,161117,,*3D
2017-11-16 16:41:36 1510868496.529513: $GPGSA,A,3,1,10,11,12,14,18,24,25,31,32,138,,1.6,0.8,1.3*38
2017-11-16 16:41:37 1510868497.455458: $GPZDA,214136.00,16,11,2017,00,00*66
2017-11-16 16:41:37 1510868497.455619: $GPGGA,214136,3946.9583,N,08404.9814,W,2,11,0.80,304.85,M,-33.324,M,,*79
2017-11-16 16:41:37 1510868497.455680: $GPRMC,214136,A,3946.9583,N,08404.9814,W,0.0000,0.000,161117,,*3E
2017-11-16 16:41:37 1510868497.455736: $GPGSA,A,3,1,10,11,12,14,18,24,25,31,32,138,,1.6,0.8,1.3*38
2017-11-16 16:41:38 1510868498.790964: $GPGSV,3,1,11,01,12,321,28,10,73,127,48,11,10,303,41,12,25,075,47*7F
2017-11-16 16:41:38 1510868498.791130: $GPGSV,3,2,11,14,53,288,43,18,40,133,44,24,16,045,50,25,28,117,44*7D
2017-11-16 16:41:38 1510868498.791190: $GPGSV,3,3,11,31,31,211,45,32,67,321,51,138,38,213,43*78
2017-11-16 16:41:38 1510868498.904288: $GPZDA,214137.00,16,11,2017,00,00*67
2017-11-16 16:41:38 1510868498.904457: $GPGGA,214137,3946.9583,N,08404.9814,W,2,11,0.80,304.85,M,-33.324,M,,*78
2017-11-16 16:41:38 1510868498.904572: $GPRMC,214137,A,3946.9583,N,08404.9814,W,0.0000,0.000,161117,,*3F
2017-11-16 16:41:38 1510868498.904630: $GPGSA,A,3,1,10,11,12,14,18,24,25,31,32,138,,1.6,0.8,1.3*38
2017-11-16 16:41:39 1510868499.456519: $GPZDA,214138.00,16,11,2017,00,00*68
2017-11-16 16:41:39 1510868499.456712: $GPGGA,214138,3946.9583,N,08404.9814,W,2,11,0.80,304.85,M,-33.324,M,,*77
2017-11-16 16:41:39 1510868499.456775: $GPRMC,214138,A,3946.9583,N,08404.9814,W,0.0000,0.000,161117,,*30
2017-11-16 16:41:39 1510868499.456831: $GPGSA,A,3,1,10,11,12,14,18,24,25,31,32,138,,1.6,0.8,1.3*38
2017-11-16 16:41:40 1510868500.433565: $GPZDA,214139.00,16,11,2017,00,00*69
2017-11-16 16:41:40 1510868500.433711: $GPGGA,214139,3946.9583,N,08404.9814,W,2,11,0.80,304.85,M,-33.324,M,,*76
2017-11-16 16:41:40 1510868500.433772: $GPRMC,214139,A,3946.9583,N,08404.9814,W,0.0000,0.000,161117,,*31
2017-11-16 16:41:40 1510868500.433828: $GPGSA,A,3,1,10,11,12,14,18,24,25,31,32,138,,1.6,0.8,1.3*38
2017-11-16 16:41:41 1510868501.790176: $GPGSV,3,1,11,01,12,321,16,10,73,127,48,11,10,303,40,12,25,075,47*73
2017-11-16 16:41:41 1510868501.790332: $GPGSV,3,2,11,14,53,288,43,18,40,133,44,24,16,045,49,25,28,117,44*75
2017-11-16 16:41:41 1510868501.790392: $GPGSV,3,3,11,31,31,211,45,32,67,321,50,138,38,213,44*7E
2017-11-16 16:41:41 1510868501.903561: $GPZDA,214140.00,16,11,2017,00,00*67
2017-11-16 16:41:41 1510868501.903726: $GPGGA,214140,3946.9583,N,08404.9814,W,2,11,0.80,304.85,M,-33.324,M,,*78
2017-11-16 16:41:41 1510868501.903789: $GPRMC,214140,A,3946.9583,N,08404.9814,W,0.0000,0.000,161117,,*3F
2017-11-16 16:41:41 1510868501.903845: $GPGSA,A,3,1,10,11,12,14,18,24,25,31,32,138,,1.6,0.8,1.3*38
