2017-12-31 17:52:27 1514760747.266983: {"class":"VERSION","release":"3.16","rev":"3.16-4","proto_major":3,"proto_minor":11}
2017-12-31 17:52:27 1514760747.267384: {"class":"DEVICES","devices":[{"class":"DEVICE","path":"/dev/ttyUSB0","driver":"SiRF","activated":"2017-12-31T22:52:27.232Z","flags":1,"native":1,"bps":4800,"parity":"N","stopbits":1,"cycle":1.00}]}
2017-12-31 17:52:27 1514760747.267486: {"class":"WATCH","enable":true,"json":false,"nmea":true,"raw":0,"scaled":false,"timing":false,"split24":false,"pps":false}
2017-12-31 17:52:27 1514760747.681913: $GPGSV,3,1,12,22,28,219,42,23,47,309,44,09,14,312,39,03,37,241,45*71
2017-12-31 17:52:27 1514760747.682082: $GPGSV,3,2,12,16,72,192,43,29,09,036,31,14,22,129,10,31,34,069,42*73
2017-12-31 17:52:27 1514760747.682148: $GPGSV,3,3,12,27,15,157,24,32,01,133,10,26,69,058,48,135,22,240,43*42
2017-12-31 17:52:27 1514760747.795618: $GPZDA,225228.00,31,12,2017,00,00*6E
2017-12-31 17:52:27 1514760747.795792: $GPGGA,225228,3946.9567,N,08404.9864,W,2,11,0.80,305.31,M,-33.324,M,,*74
2017-12-31 17:52:27 1514760747.795857: $GPRMC,225228,A,3946.9567,N,08404.9864,W,0.0000,0.000,311217,,*3B
2017-12-31 17:52:27 1514760747.795918: $GPGSA,A,3,22,23,9,3,16,29,31,27,32,26,135,,1.7,0.8,1.3*0C
2017-12-31 17:52:28 1514760748.348972: $GPZDA,225229.00,31,12,2017,00,00*6F
2017-12-31 17:52:28 1514760748.349151: $GPGGA,225229,3946.9567,N,08404.9864,W,2,11,0.80,305.31,M,-33.324,M,,*75
2017-12-31 17:52:28 1514760748.349217: $GPRMC,225229,A,3946.9567,N,08404.9864,W,0.0000,0.000,311217,,*3A
2017-12-31 17:52:28 1514760748.349278: $GPGSA,A,3,22,23,9,3,16,29,31,27,32,26,135,,1.7,0.8,1.3*0C
2017-12-31 17:52:29 1514760749.347321: $GPZDA,225230.00,31,12,2017,00,00*67
2017-12-31 17:52:29 1514760749.347497: $GPGGA,225230,3946.9567,N,08404.9864,W,2,11,0.60,305.31,M,-33.324,M,,*73
2017-12-31 17:52:29 1514760749.347564: $GPRMC,225230,A,3946.9567,N,08404.9864,W,0.0000,0.000,311217,,*32
2017-12-31 17:52:29 1514760749.347626: $GPGSA,A,3,22,23,9,3,16,29,31,27,32,26,135,,1.7,0.6,1.3*02
2017-12-31 17:52:30 1514760750.700958: $GPGSV,3,1,12,22,28,219,41,23,47,309,43,09,14,312,38,03,37,241,45*74
2017-12-31 17:52:30 1514760750.701139: $GPGSV,3,2,12,16,72,192,42,29,09,036,29,14,22,129,28,31,34,069,42*70
2017-12-31 17:52:30 1514760750.701204: $GPGSV,3,3,12,27,15,157,22,32,01,133,12,26,69,058,47,135,22,240,44*4E
2017-12-31 17:52:30 1514760750.814670: $GPZDA,225231.00,31,12,2017,00,00*66
2017-12-31 17:52:30 1514760750.814837: $GPGGA,225231,3946.9567,N,08404.9864,W,2,12,0.60,305.31,M,-33.324,M,,*71
2017-12-31 17:52:30 1514760750.814903: $GPRMC,225231,A,3946.9567,N,08404.9864,W,0.0000,0.000,311217,,*33
2017-12-31 17:52:30 1514760750.814964: $GPGSA,A,3,22,23,9,3,16,29,14,31,27,32,26,135,1.7,0.6,1.3*07
2017-12-31 17:52:31 1514760751.366702: $GPZDA,225232.00,31,12,2017,00,00*65
2017-12-31 17:52:31 1514760751.366872: $GPGGA,225232,3946.9567,N,08404.9864,W,2,12,0.60,305.31,M,-33.324,M,,*72
2017-12-31 17:52:31 1514760751.366939: $GPRMC,225232,A,3946.9567,N,08404.9864,W,0.0000,0.000,311217,,*30
2017-12-31 17:52:31 1514760751.366999: $GPGSA,A,3,22,23,9,3,16,29,14,31,27,32,26,135,1.7,0.6,1.3*07
2017-12-31 17:52:32 1514760752.346212: $GPZDA,225233.00,31,12,2017,00,00*64
2017-12-31 17:52:32 1514760752.346441: $GPGGA,225233,3946.9567,N,08404.9864,W,2,12,0.60,305.31,M,-33.324,M,,*73
2017-12-31 17:52:32 1514760752.346515: $GPRMC,225233,A,3946.9567,N,08404.9864,W,0.0000,0.000,311217,,*31
2017-12-31 17:52:32 1514760752.346579: $GPGSA,A,3,22,23,9,3,16,29,14,31,27,32,26,135,1.7,0.6,1.3*07
2017-12-31 17:52:33 1514760753.681807: $GPGSV,3,1,12,22,28,219,41,23,47,309,43,09,14,312,41,03,37,241,46*79
2017-12-31 17:52:33 1514760753.681969: $GPGSV,3,2,12,16,72,192,42,29,09,036,30,14,22,129,29,31,34,069,43*78
2017-12-31 17:52:33 1514760753.682037: $GPGSV,3,3,12,27,15,157,27,32,01,133,00,26,69,058,47,135,22,240,44*48
2017-12-31 17:52:33 1514760753.795216: $GPZDA,225234.00,31,12,2017,00,00*63
2017-12-31 17:52:33 1514760753.795391: $GPGGA,225234,3946.9567,N,08404.9864,W,2,11,0.60,305.31,M,-33.324,M,,*77
2017-12-31 17:52:33 1514760753.795460: $GPRMC,225234,A,3946.9567,N,08404.9864,W,0.0000,0.000,311217,,*36
2017-12-31 17:52:33 1514760753.795582: $GPGSA,A,3,22,23,9,3,16,29,14,31,27,26,135,,1.7,0.6,1.3*06
2017-12-31 17:52:34 1514760754.371773: $GPZDA,225235.00,31,12,2017,00,00*62
2017-12-31 17:52:34 1514760754.371969: $GPGGA,225235,3946.9567,N,08404.9864,W,2,11,0.60,305.31,M,-33.324,M,,*76
2017-12-31 17:52:34 1514760754.372068: $GPRMC,225235,A,3946.9567,N,08404.9864,W,0.0000,0.000,311217,,*37
2017-12-31 17:52:34 1514760754.372136: $GPGSA,A,3,22,23,9,3,16,29,14,31,27,26,135,,1.7,0.6,1.3*06
2017-12-31 17:52:35 1514760755.346858: $GPZDA,225236.00,31,12,2017,00,00*61
2017-12-31 17:52:35 1514760755.347029: $GPGGA,225236,3946.9567,N,08404.9864,W,2,11,0.60,305.31,M,-33.324,M,,*75
2017-12-31 17:52:35 1514760755.347172: $GPRMC,225236,A,3946.9567,N,08404.9864,W,0.0000,0.000,311217,,*34
2017-12-31 17:52:35 1514760755.347246: $GPGSA,A,3,22,23,9,3,16,29,14,31,27,26,135,,1.7,0.6,1.3*06
2017-12-31 17:52:36 1514760756.699699: $GPGSV,3,1,12,22,28,219,42,23,47,309,44,09,14,312,41,03,37,241,45*7E
2017-12-31 17:52:36 1514760756.699858: $GPGSV,3,2,12,16,72,192,42,29,09,036,31,14,22,129,25,31,34,069,43*75
2017-12-31 17:52:36 1514760756.699926: $GPGSV,3,3,12,27,15,157,25,32,01,133,00,26,69,058,47,135,22,240,44*4A
2017-12-31 17:52:36 1514760756.813132: $GPZDA,225237.00,31,12,2017,00,00*60
2017-12-31 17:52:36 1514760756.813308: $GPGGA,225237,3946.9567,N,08404.9864,W,2,11,0.60,305.31,M,-33.324,M,,*74
2017-12-31 17:52:36 1514760756.813375: $GPRMC,225237,A,3946.9567,N,08404.9864,W,0.0000,0.000,311217,,*35
2017-12-31 17:52:36 1514760756.813437: $GPGSA,A,3,22,23,9,3,16,29,14,31,27,26,135,,1.7,0.6,1.3*06
2017-12-31 17:52:37 1514760757.366547: $GPZDA,225238.00,31,12,2017,00,00*6F
2017-12-31 17:52:37 1514760757.366729: $GPGGA,225238,3946.9567,N,08404.9864,W,2,11,0.60,305.31,M,-33.324,M,,*7B
2017-12-31 17:52:37 1514760757.366795: $GPRMC,225238,A,3946.9567,N,08404.9864,W,0.0000,0.000,311217,,*3A
2017-12-31 17:52:37 1514760757.366856: $GPGSA,A,3,22,23,9,3,16,29,14,31,27,26,135,,1.7,0.6,1.3*06
2017-12-31 17:52:38 1514760758.346037: $GPZDA,225239.00,31,12,2017,00,00*6E
2017-12-31 17:52:38 1514760758.346208: $GPGGA,225239,3946.9567,N,08404.9864,W,2,11,0.60,305.31,M,-33.324,M,,*7A
2017-12-31 17:52:38 1514760758.346274: $GPRMC,225239,A,3946.9567,N,08404.9864,W,0.0000,0.000,311217,,*3B
2017-12-31 17:52:38 1514760758.346335: $GPGSA,A,3,22,23,9,3,16,29,14,31,27,26,135,,1.7,0.6,1.3*06
2017-12-31 17:52:39 1514760759.708021: $GPGSV,3,1,12,22,28,219,42,23,47,309,44,09,14,312,41,03,37,241,45*7E
2017-12-31 17:52:39 1514760759.708204: $GPGSV,3,2,12,16,72,192,42,29,09,036,30,14,22,129,23,31,34,069,43*72
2017-12-31 17:52:39 1514760759.708269: $GPGSV,3,3,12,27,15,157,25,32,01,133,00,26,69,058,47,135,22,240,43*4D
2017-12-31 17:52:39 1514760759.821484: $GPZDA,225240.00,31,12,2017,00,00*60
2017-12-31 17:52:39 1514760759.821656: $GPGGA,225240,3946.9567,N,08404.9864,W,2,11,0.60,305.31,M,-33.324,M,,*74
2017-12-31 17:52:39 1514760759.821723: $GPRMC,225240,A,3946.9567,N,08404.9864,W,0.0000,0.000,311217,,*35
2017-12-31 17:52:39 1514760759.821783: $GPGSA,A,3,22,23,9,3,16,29,14,31,27,26,135,,1.7,0.6,1.3*06
2017-12-31 17:52:40 1514760760.446866: $GPZDA,225241.00,31,12,2017,00,00*61
2017-12-31 17:52:40 1514760760.447036: $GPGGA,225241,3946.9567,N,08404.9864,W,2,11,0.60,305.31,M,-33.324,M,,*75
2017-12-31 17:52:40 1514760760.447187: $GPRMC,225241,A,3946.9567,N,08404.9864,W,0.0000,0.000,311217,,*34
2017-12-31 17:52:40 1514760760.447258: $GPGSA,A,3,22,23,9,3,16,29,14,31,27,26,135,,1.7,0.6,1.3*06
2017-12-31 17:52:41 1514760761.371818: $GPZDA,225242.00,31,12,2017,00,00*62
2017-12-31 17:52:41 1514760761.371969: $GPGGA,225242,3946.9567,N,08404.9864,W,2,11,0.60,305.31,M,-33.324,M,,*76
2017-12-31 17:52:41 1514760761.372034: $GPRMC,225242,A,3946.9567,N,08404.9864,W,0.0000,0.000,311217,,*37
2017-12-31 17:52:41 1514760761.372095: $GPGSA,A,3,22,23,9,3,16,29,14,31,27,26,135,,1.7,0.6,1.3*06
2017-12-31 17:52:42 1514760762.683361: $GPGSV,3,1,12,22,28,219,42,23,47,309,44,09,14,312,42,03,37,241,45*7D
2017-12-31 17:52:42 1514760762.683590: $GPGSV,3,2,12,16,72,192,43,29,09,036,24,14,22,129,22,31,34,069,42*76
2017-12-31 17:52:42 1514760762.683658: $GPGSV,3,3,12,27,15,157,26,32,01,133,00,26,69,058,48,135,22,240,43*41
2017-12-31 17:52:42 1514760762.796853: $GPZDA,225243.00,31,12,2017,00,00*63
2017-12-31 17:52:42 1514760762.797024: $GPGGA,225243,3946.9567,N,08404.9864,W,2,11,0.60,305.31,M,-33.324,M,,*77
2017-12-31 17:52:42 1514760762.797091: $GPRMC,225243,A,3946.9567,N,08404.9864,W,0.0000,0.000,311217,,*36
2017-12-31 17:52:42 1514760762.797247: $GPGSA,A,3,22,23,9,3,16,29,14,31,27,26,135,,1.7,0.6,1.3*06
2017-12-31 17:52:43 1514760763.567704: $GPZDA,225244.00,31,12,2017,00,00*64
2017-12-31 17:52:43 1514760763.567874: $GPGGA,225244,3946.9567,N,08404.9864,W,2,11,0.60,305.31,M,-33.324,M,,*70
2017-12-31 17:52:43 1514760763.567940: $GPRMC,225244,A,3946.9567,N,08404.9864,W,0.0000,0.000,311217,,*31
2017-12-31 17:52:43 1514760763.568001: $GPGSA,A,3,22,23,9,3,16,29,14,31,27,26,135,,1.7,0.6,1.3*06
2017-12-31 17:52:43 1514760763.568059: $GPGBS,225244,2.22,M,3.43,M,7.66,M*38
2017-12-31 17:52:44 1514760764.338561: $GPZDA,225245.00,31,12,2017,00,00*65
2017-12-31 17:52:44 1514760764.338730: $GPGGA,225245,3946.9567,N,08404.9864,W,2,11,0.80,305.31,M,-33.324,M,,*7F
2017-12-31 17:52:44 1514760764.338796: $GPRMC,225245,A,3946.9567,N,08404.9864,W,0.0000,0.000,311217,,*30
2017-12-31 17:52:44 1514760764.338857: $GPGSA,A,3,22,23,9,3,16,29,14,31,27,26,135,,1.7,0.8,1.3*08
2017-12-31 17:52:44 1514760764.338931: $GPGBS,225245,2.22,M,3.43,M,7.66,M*39
2017-12-31 17:52:45 1514760765.682558: $GPGSV,3,1,11,22,28,219,43,23,47,309,44,09,14,312,42,03,37,241,45*7F
2017-12-31 17:52:45 1514760765.682738: $GPGSV,3,2,11,16,72,192,43,29,09,036,27,31,33,069,42,27,16,157,26*7B
2017-12-31 17:52:45 1514760765.682802: $GPGSV,3,3,11,14,21,129,00,26,69,057,48,135,22,240,45*70
2017-12-31 17:52:45 1514760765.797306: $GPZDA,225246.00,31,12,2017,00,00*66
2017-12-31 17:52:45 1514760765.797509: $GPGGA,225246,3946.9567,N,08404.9864,W,2,10,0.80,305.31,M,-33.324,M,,*7D
2017-12-31 17:52:45 1514760765.797577: $GPRMC,225246,A,3946.9567,N,08404.9864,W,0.0000,0.000,311217,,*33
2017-12-31 17:52:45 1514760765.797638: $GPGSA,A,3,22,23,9,3,16,29,31,27,26,135,,,1.7,0.8,1.3*0D
2017-12-31 17:52:46 1514760766.345512: $GPZDA,225247.00,31,12,2017,00,00*67
2017-12-31 17:52:46 1514760766.345682: $GPGGA,225247,3946.9567,N,08404.9864,W,2,10,0.80,305.31,M,-33.324,M,,*7C
2017-12-31 17:52:46 1514760766.345748: $GPRMC,225247,A,3946.9567,N,08404.9864,W,0.0000,0.000,311217,,*32
2017-12-31 17:52:46 1514760766.345809: $GPGSA,A,3,22,23,9,3,16,29,31,27,26,135,,,1.7,0.8,1.3*0D
