2017-11-15 19:01:29 1510790489.378102: {"class":"VERSION","release":"3.17","rev":"3.17","proto_major":3,"proto_minor":12}
2017-11-15 19:01:29 1510790489.378539: {"class":"DEVICES","devices":[{"class":"DEVICE","path":"/dev/ttyUSB0","driver":"SiRF","subtype":"9\u0006GSD4e_4.1.2-P1_RPATCH.05-F-GPS-4R-1510281 11/03/2015 307","activated":"2017-11-16T00:01:29.363Z","flags":1,"native":1,"bps":4800,"parity":"N","stopbits":1,"cycle":1.00}]}
2017-11-15 19:01:29 1510790489.378659: {"class":"WATCH","enable":true,"json":false,"nmea":true,"raw":0,"scaled":false,"timing":false,"split24":false,"pps":false}
2017-11-15 19:01:30 1510790490.661653: $GPGSV,3,1,11,32,46,094,11,14,63,070,22,10,09,159,00,26,38,177,00*79
2017-11-15 19:01:30 1510790490.661827: $GPGSV,3,2,11,31,77,349,06,03,31,310,00,22,47,289,20,25,27,046,10*72
2017-11-15 19:01:30 1510790490.661887: $GPGSV,3,3,11,29,05,082,14,01,13,262,00,16,09,190,00*4B
2017-11-15 19:01:30 1510790490.774965: $GPZDA,000129.00,16,11,2017,00,00*6F
2017-11-15 19:01:30 1510790490.775136: $GPGGA,000129,3946.9546,N,08404.9557,W,1,05,3.20,306.76,M,-33.324,M,,*72
2017-11-15 19:01:30 1510790490.775201: $GPRMC,000129,A,3946.9546,N,08404.9557,W,0.5230,76.444,161117,,*05
2017-11-15 19:01:30 1510790490.775257: $GPGSA,A,3,32,14,22,25,29,,,,,,,,3.4,3.2,2.9*37
2017-11-15 19:01:31 1510790491.400319: $GPZDA,000130.00,16,11,2017,00,00*67
2017-11-15 19:01:31 1510790491.400530: $GPGGA,000130,3946.9546,N,08404.9557,W,1,05,3.20,306.76,M,-33.324,M,,*7A
2017-11-15 19:01:31 1510790491.405984: $GPRMC,000130,A,3946.9546,N,08404.9557,W,0.7278,23.636,161117,,*04
2017-11-15 19:01:31 1510790491.406064: $GPGSA,A,3,32,14,22,25,29,,,,,,,,3.4,3.2,2.9*37
2017-11-15 19:01:32 1510790492.770130: $GPZDA,000131.00,16,11,2017,00,00*66
2017-11-15 19:01:32 1510790492.770306: $GPGGA,000131,3946.9546,N,08404.9557,W,1,05,7.00,306.76,M,-33.324,M,,*7D
2017-11-15 19:01:32 1510790492.770371: $GPRMC,000131,A,3946.9546,N,08404.9557,W,0.7278,23.636,161117,,*05
2017-11-15 19:01:32 1510790492.770430: $GPGSA,A,3,32,14,22,25,29,,,,,,,,3.4,7.0,2.9*31
2017-11-15 19:01:32 1510790492.770482: $GPGBS,000131,13.59,M,20.35,M,67.34,M*01
2017-11-15 19:01:33 1510790493.665149: $GPGSV,3,1,11,32,46,096,14,14,63,072,22,03,31,309,05,26,39,175,00*74
2017-11-15 19:01:33 1510790493.665302: $GPGSV,3,2,11,31,77,352,04,01,12,262,00,22,47,289,20,25,27,046,11*7C
2017-11-15 19:01:33 1510790493.665362: $GPGSV,3,3,11,29,06,082,14,16,10,190,00,10,09,159,00*40
2017-11-15 19:01:33 1510790493.778454: $GPZDA,000132.00,16,11,2017,00,00*65
2017-11-15 19:01:33 1510790493.778632: $GPGGA,000132,3946.9550,N,08404.9557,W,1,05,7.00,307.40,M,-33.324,M,,*7D
2017-11-15 19:01:33 1510790493.778696: $GPRMC,000132,A,3946.9550,N,08404.9557,W,0.6846,4.197,161117,,*3E
2017-11-15 19:01:33 1510790493.778752: $GPGSA,A,3,32,14,22,25,29,,,,,,,,3.4,7.0,2.9*31
2017-11-15 19:01:34 1510790494.329348: $GPZDA,000133.00,16,11,2017,00,00*64
2017-11-15 19:01:34 1510790494.329515: $GPGGA,000133,3946.9546,N,08404.9557,W,1,05,7.00,306.76,M,-33.324,M,,*7F
2017-11-15 19:01:34 1510790494.329579: $GPRMC,000133,A,3946.9546,N,08404.9557,W,0.3423,4.197,161117,,*32
2017-11-15 19:01:34 1510790494.329635: $GPGSA,A,3,32,14,22,25,29,,,,,,,,3.4,7.0,2.9*31
2017-11-15 19:01:35 1510790495.329198: $GPZDA,000134.00,16,11,2017,00,00*63
2017-11-15 19:01:35 1510790495.329379: $GPGGA,000134,3946.9550,N,08404.9557,W,1,05,7.00,307.40,M,-33.324,M,,*7B
2017-11-15 19:01:35 1510790495.329443: $GPRMC,000134,A,3946.9550,N,08404.9557,W,0.2959,54.767,161117,,*0F
2017-11-15 19:01:35 1510790495.329502: $GPGSA,A,3,32,14,22,25,29,,,,,,,,3.4,7.0,2.9*31
2017-11-15 19:01:36 1510790496.665781: $GPGSV,3,1,11,32,46,096,16,14,63,072,22,03,31,309,17,26,39,175,00*75
2017-11-15 19:01:36 1510790496.665955: $GPGSV,3,2,11,31,77,352,07,01,12,262,00,22,47,289,20,25,27,046,12*7C
2017-11-15 19:01:36 1510790496.666016: $GPGSV,3,3,11,29,06,082,14,16,10,190,00,10,09,159,00*40
2017-11-15 19:01:36 1510790496.778867: $GPZDA,000135.00,16,11,2017,00,00*62
2017-11-15 19:01:36 1510790496.779039: $GPGGA,000135,3946.9550,N,08404.9557,W,1,07,4.60,307.40,M,-33.324,M,,*7D
2017-11-15 19:01:36 1510790496.779154: $GPRMC,000135,A,3946.9550,N,08404.9557,W,0.5287,2.716,161117,,*34
2017-11-15 19:01:36 1510790496.779211: $GPGSA,A,3,32,14,3,31,22,25,29,,,,,,3.4,4.6,2.9*05
2017-11-15 19:01:37 1510790497.329865: $GPZDA,000136.00,16,11,2017,00,00*61
2017-11-15 19:01:37 1510790497.330053: $GPGGA,000136,3946.9550,N,08404.9564,W,1,07,4.40,307.32,M,-33.324,M,,*79
2017-11-15 19:01:37 1510790497.330117: $GPRMC,000136,A,3946.9550,N,08404.9564,W,0.4584,328.179,161117,,*36
2017-11-15 19:01:37 1510790497.330174: $GPGSA,A,3,32,14,3,31,22,25,29,,,,,,3.4,4.4,2.9*07
2017-11-15 19:01:38 1510790498.329347: $GPZDA,000137.00,16,11,2017,00,00*60
2017-11-15 19:01:38 1510790498.329524: $GPGGA,000137,3946.9550,N,08404.9564,W,1,07,4.40,307.32,M,-33.324,M,,*78
2017-11-15 19:01:38 1510790498.329589: $GPRMC,000137,A,3946.9550,N,08404.9564,W,0.3735,0.000,161117,,*3E
2017-11-15 19:01:38 1510790498.329647: $GPGSA,A,3,32,14,3,31,22,25,29,,,,,,3.4,4.4,2.9*07
