2017-12-01 12:16:12 1512148572.246944: {"class":"VERSION","release":"3.16","rev":"3.16-4","proto_major":3,"proto_minor":11}
2017-12-01 12:16:12 1512148572.247362: {"class":"DEVICES","devices":[{"class":"DEVICE","path":"/dev/ttyUSB0","driver":"SiRF","subtype":"9\u0006GSD4e_4.1.2-P1_RPATCH.05-F-GPS-4R-1510281 11/03/2015 307","activated":"2017-12-01T17:16:12.200Z","flags":1,"native":1,"bps":4800,"parity":"N","stopbits":1,"cycle":1.00}]}
2017-12-01 12:16:12 1512148572.247483: {"class":"WATCH","enable":true,"json":false,"nmea":true,"raw":0,"scaled":false,"timing":false,"split24":false,"pps":false}
2017-12-01 12:16:12 1512148572.377648: $GPZDA,171613.00,01,12,2017,00,00*63
2017-12-01 12:16:12 1512148572.377802: $GPGGA,171613,3946.9575,N,08404.9834,W,2,11,1.00,301.93,M,-33.324,M,,*79
2017-12-01 12:16:12 1512148572.377867: $GPRMC,171613,A,3946.9575,N,08404.9834,W,0.0000,0.000,011217,,*30
2017-12-01 12:16:12 1512148572.377928: $GPGSA,A,3,10,13,15,18,20,21,24,27,5,29,138,,2.0,1.0,1.5*3D
2017-12-01 12:16:13 1512148573.707187: $GPGSV,3,1,11,10,23,282,41,13,30,045,44,15,62,051,46,18,54,300,45*7A
2017-12-01 12:16:13 1512148573.707376: $GPGSV,3,2,11,20,52,070,46,21,78,271,43,24,33,139,47,27,16,313,41*7F
2017-12-01 12:16:13 1512148573.707443: $GPGSV,3,3,11,05,04,087,24,29,11,190,11,138,38,213,46*71
2017-12-01 12:16:13 1512148573.820816: $GPZDA,171614.00,01,12,2017,00,00*64
2017-12-01 12:16:13 1512148573.820963: $GPGGA,171614,3946.9575,N,08404.9834,W,2,11,0.80,301.93,M,-33.324,M,,*77
2017-12-01 12:16:13 1512148573.821028: $GPRMC,171614,A,3946.9575,N,08404.9834,W,0.0000,0.000,011217,,*37
2017-12-01 12:16:13 1512148573.821089: $GPGSA,A,3,10,13,15,18,20,21,24,27,5,29,138,,2.0,0.8,1.5*34
2017-12-01 12:16:14 1512148574.384152: $GPZDA,171615.00,01,12,2017,00,00*65
2017-12-01 12:16:14 1512148574.384360: $GPGGA,171615,3946.9575,N,08404.9834,W,2,11,0.80,301.93,M,-33.324,M,,*76
2017-12-01 12:16:14 1512148574.384430: $GPRMC,171615,A,3946.9575,N,08404.9834,W,0.0000,0.000,011217,,*36
2017-12-01 12:16:14 1512148574.384491: $GPGSA,A,3,10,13,15,18,20,21,24,27,5,29,138,,2.0,0.8,1.5*34
2017-12-01 12:16:15 1512148575.384823: $GPZDA,171616.00,01,12,2017,00,00*66
2017-12-01 12:16:15 1512148575.385024: $GPGGA,171616,3946.9575,N,08404.9834,W,2,11,0.80,301.93,M,-33.324,M,,*75
2017-12-01 12:16:15 1512148575.385092: $GPRMC,171616,A,3946.9575,N,08404.9834,W,0.0000,0.000,011217,,*35
2017-12-01 12:16:15 1512148575.385153: $GPGSA,A,3,10,13,15,18,20,21,24,27,5,29,138,,2.0,0.8,1.5*34
2017-12-01 12:16:16 1512148576.705154: $GPGSV,3,1,11,10,23,282,42,13,30,045,43,15,62,051,46,18,54,300,45*7E
2017-12-01 12:16:16 1512148576.705355: $GPGSV,3,2,11,20,52,070,45,21,78,271,43,24,33,139,47,27,16,313,41*7C
2017-12-01 12:16:16 1512148576.705422: $GPGSV,3,3,11,05,04,087,24,29,11,190,21,138,38,213,46*72
2017-12-01 12:16:16 1512148576.818570: $GPZDA,171617.00,01,12,2017,00,00*67
2017-12-01 12:16:16 1512148576.818749: $GPGGA,171617,3946.9575,N,08404.9834,W,2,11,0.80,301.93,M,-33.324,M,,*74
2017-12-01 12:16:16 1512148576.818817: $GPRMC,171617,A,3946.9575,N,08404.9834,W,0.0000,0.000,011217,,*34
2017-12-01 12:16:16 1512148576.818877: $GPGSA,A,3,10,13,15,18,20,21,24,27,5,29,138,,2.0,0.8,1.5*34
2017-12-01 12:16:17 1512148577.383282: $GPZDA,171618.00,01,12,2017,00,00*68
2017-12-01 12:16:17 1512148577.383470: $GPGGA,171618,3946.9578,N,08404.9833,W,2,11,0.80,301.17,M,-33.324,M,,*7D
2017-12-01 12:16:17 1512148577.383538: $GPRMC,171618,A,3946.9578,N,08404.9833,W,0.0000,0.000,011217,,*31
2017-12-01 12:16:17 1512148577.383599: $GPGSA,A,3,10,13,15,18,20,21,24,27,5,29,138,,2.0,0.8,1.5*34
2017-12-01 12:16:18 1512148578.368209: $GPZDA,171619.00,01,12,2017,00,00*69
2017-12-01 12:16:18 1512148578.368382: $GPGGA,171619,3946.9578,N,08404.9833,W,2,11,0.80,301.17,M,-33.324,M,,*7C
2017-12-01 12:16:18 1512148578.368449: $GPRMC,171619,A,3946.9578,N,08404.9833,W,0.0000,0.000,011217,,*30
2017-12-01 12:16:18 1512148578.368510: $GPGSA,A,3,10,13,15,18,20,21,24,27,5,29,138,,2.0,0.8,1.5*34
2017-12-01 12:16:19 1512148579.704793: $GPGSV,3,1,11,10,23,282,42,13,30,045,43,15,62,051,46,18,54,300,45*7E
2017-12-01 12:16:19 1512148579.705037: $GPGSV,3,2,11,20,52,070,45,21,78,271,43,24,33,139,47,27,16,313,41*7C
2017-12-01 12:16:19 1512148579.705107: $GPGSV,3,3,11,05,04,087,23,29,11,190,20,138,38,213,46*74
2017-12-01 12:16:19 1512148579.818507: $GPZDA,171620.00,01,12,2017,00,00*63
2017-12-01 12:16:19 1512148579.818691: $GPGGA,171620,3946.9578,N,08404.9833,W,2,11,0.80,301.17,M,-33.324,M,,*76
2017-12-01 12:16:19 1512148579.818759: $GPRMC,171620,A,3946.9578,N,08404.9833,W,0.0000,0.000,011217,,*3A
2017-12-01 12:16:19 1512148579.818820: $GPGSA,A,3,10,13,15,18,20,21,24,27,5,29,138,,2.0,0.8,1.5*34
2017-12-01 12:16:20 1512148580.443867: $GPZDA,171621.00,01,12,2017,00,00*62
2017-12-01 12:16:20 1512148580.444053: $GPGGA,171621,3946.9578,N,08404.9833,W,2,11,0.80,301.17,M,-33.324,M,,*77
2017-12-01 12:16:20 1512148580.444121: $GPRMC,171621,A,3946.9578,N,08404.9833,W,0.0000,0.000,011217,,*3B
2017-12-01 12:16:20 1512148580.444183: $GPGSA,A,3,10,13,15,18,20,21,24,27,5,29,138,,2.0,0.8,1.5*34
2017-12-01 12:16:21 1512148581.368560: $GPZDA,171622.00,01,12,2017,00,00*61
2017-12-01 12:16:21 1512148581.368729: $GPGGA,171622,3946.9578,N,08404.9833,W,2,11,0.80,301.17,M,-33.324,M,,*74
2017-12-01 12:16:21 1512148581.368796: $GPRMC,171622,A,3946.9578,N,08404.9833,W,0.0000,0.000,011217,,*38
2017-12-01 12:16:21 1512148581.368857: $GPGSA,A,3,10,13,15,18,20,21,24,27,5,29,138,,2.0,0.8,1.5*34
