2017-11-15 18:29:37 1510788577.665106: {"class":"VERSION","release":"3.17","rev":"3.17","proto_major":3,"proto_minor":12}
2017-11-15 18:29:37 1510788577.665687: {"class":"DEVICES","devices":[{"class":"DEVICE","path":"/dev/ttyUSB0","driver":"SiRF","subtype":"9\u0006GSD4e_4.1.2-P1_RPATCH.05-F-GPS-4R-1510281 11/03/2015 307","activated":"2017-11-15T23:29:37.500Z","flags":1,"native":1,"bps":4800,"parity":"N","stopbits":1,"cycle":1.00}]}
2017-11-15 18:29:37 1510788577.665827: {"class":"WATCH","enable":true,"json":false,"nmea":true,"raw":0,"scaled":false,"timing":false,"split24":false,"pps":false}
2017-11-15 18:29:38 1510788578.359955: $GPZDA,232937.00,15,11,2017,00,00*68
2017-11-15 18:29:38 1510788578.360137: $GPGGA,232937,3946.9608,N,08404.9571,W,1,07,2.40,289.87,M,-33.324,M,,*76
2017-11-15 18:29:38 1510788578.360199: $GPRMC,232937,A,3946.9608,N,08404.9571,W,0.4207,39.347,151117,,*05
2017-11-15 18:29:38 1510788578.360255: $GPGSA,A,3,10,14,25,26,31,32,1,,,,,,3.4,2.4,2.9*0D
2017-11-15 18:29:39 1510788579.665648: $GPGSV,3,1,10,10,24,156,14,14,69,034,19,25,36,058,07,26,23,178,16*7B
2017-11-15 18:29:39 1510788579.665820: $GPGSV,3,2,10,31,77,270,12,32,57,076,21,01,19,276,14,03,19,316,15*78
2017-11-15 18:29:39 1510788579.665879: $GPGSV,3,3,10,22,38,304,00,12,08,033,00*7F
2017-11-15 18:29:39 1510788579.779303: $GPZDA,232938.00,15,11,2017,00,00*67
2017-11-15 18:29:39 1510788579.779463: $GPGGA,232938,3946.9612,N,08404.9571,W,1,07,1.80,290.51,M,-33.324,M,,*7E
2017-11-15 18:29:39 1510788579.779524: $GPRMC,232938,A,3946.9612,N,08404.9571,W,0.5951,58.684,151117,,*05
2017-11-15 18:29:39 1510788579.779578: $GPGSA,A,3,10,14,25,26,31,32,1,,,,,,3.4,1.8,2.9*02
2017-11-15 18:29:40 1510788580.330317: $GPZDA,232939.00,15,11,2017,00,00*66
2017-11-15 18:29:40 1510788580.330462: $GPGGA,232939,3946.9612,N,08404.9564,W,1,07,1.20,290.59,M,-33.324,M,,*79
2017-11-15 18:29:40 1510788580.330522: $GPRMC,232939,A,3946.9612,N,08404.9564,W,0.4207,39.347,151117,,*04
2017-11-15 18:29:40 1510788580.330577: $GPGSA,A,3,10,14,25,26,31,32,1,,,,,,3.4,1.2,2.9*08
2017-11-15 18:29:41 1510788581.328165: $GPZDA,232940.00,15,11,2017,00,00*68
2017-11-15 18:29:41 1510788581.328330: $GPGGA,232940,3946.9612,N,08404.9564,W,1,07,1.20,290.59,M,-33.324,M,,*77
2017-11-15 18:29:41 1510788581.328391: $GPRMC,232940,A,3946.9612,N,08404.9564,W,0.1567,9.201,151117,,*3E
2017-11-15 18:29:41 1510788581.328446: $GPGSA,A,3,10,14,25,26,31,32,1,,,,,,3.4,1.2,2.9*08
2017-11-15 18:29:42 1510788582.694723: $GPGSV,3,1,10,10,24,156,14,14,69,034,19,25,36,058,08,26,23,178,16*74
2017-11-15 18:29:42 1510788582.694893: $GPGSV,3,2,10,31,77,270,14,32,57,076,21,01,19,276,14,22,38,304,00*79
2017-11-15 18:29:42 1510788582.694952: $GPGSV,3,3,10,03,19,316,00,12,08,033,00*7C
2017-11-15 18:29:42 1510788582.808508: $GPZDA,232941.00,15,11,2017,00,00*69
2017-11-15 18:29:42 1510788582.808666: $GPGGA,232941,3946.9612,N,08404.9564,W,1,07,1.20,290.59,M,-33.324,M,,*76
2017-11-15 18:29:42 1510788582.808727: $GPRMC,232941,A,3946.9612,N,08404.9564,W,0.1867,180.000,151117,,*31
2017-11-15 18:29:42 1510788582.808782: $GPGSA,A,3,10,14,25,26,31,32,1,,,,,,3.4,1.2,2.9*08
2017-11-15 18:29:43 1510788583.331794: $GPZDA,232942.00,15,11,2017,00,00*6A
2017-11-15 18:29:43 1510788583.331956: $GPGGA,232942,3946.9608,N,08404.9564,W,1,07,1.20,289.95,M,-33.324,M,,*76
2017-11-15 18:29:43 1510788583.332016: $GPRMC,232942,A,3946.9608,N,08404.9564,W,0.3423,184.197,151117,,*3C
2017-11-15 18:29:43 1510788583.332071: $GPGSA,A,3,10,14,25,26,31,32,1,,,,,,3.4,1.2,2.9*08
2017-11-15 18:29:44 1510788584.330439: $GPZDA,232943.00,15,11,2017,00,00*6B
2017-11-15 18:29:44 1510788584.330597: $GPGGA,232943,3946.9608,N,08404.9564,W,1,07,1.20,289.95,M,-33.324,M,,*77
2017-11-15 18:29:44 1510788584.330658: $GPRMC,232943,A,3946.9608,N,08404.9564,W,0.0000,0.000,151117,,*39
2017-11-15 18:29:44 1510788584.330713: $GPGSA,A,3,10,14,25,26,31,32,1,,,,,,3.4,1.2,2.9*08
2017-11-15 18:29:45 1510788585.664432: $GPGSV,3,1,10,10,24,156,14,14,69,034,19,25,36,058,10,26,23,178,15*7E
2017-11-15 18:29:45 1510788585.664603: $GPGSV,3,2,10,31,77,270,14,32,57,076,21,01,19,276,14,22,38,304,04*7D
2017-11-15 18:29:45 1510788585.664711: $GPGSV,3,3,10,03,19,316,00,12,08,033,00*7C
2017-11-15 18:29:45 1510788585.777856: $GPZDA,232944.00,15,11,2017,00,00*6C
2017-11-15 18:29:45 1510788585.778028: $GPGGA,232944,3946.9608,N,08404.9564,W,1,07,1.20,289.95,M,-33.324,M,,*70
2017-11-15 18:29:45 1510788585.778088: $GPRMC,232944,A,3946.9608,N,08404.9564,W,0.2422,273.794,151117,,*34
2017-11-15 18:29:45 1510788585.778144: $GPGSA,A,3,10,14,25,26,31,32,1,,,,,,3.4,1.2,2.9*08
2017-11-15 18:29:46 1510788586.403407: $GPZDA,232945.00,15,11,2017,00,00*6D
2017-11-15 18:29:46 1510788586.403567: $GPGGA,232945,3946.9608,N,08404.9564,W,1,07,1.20,289.95,M,-33.324,M,,*71
2017-11-15 18:29:46 1510788586.403626: $GPRMC,232945,A,3946.9608,N,08404.9564,W,0.7267,273.794,151117,,*37
2017-11-15 18:29:46 1510788586.403682: $GPGSA,A,3,10,14,25,26,31,32,1,,,,,,3.4,1.2,2.9*08
2017-11-15 18:29:47 1510788587.328914: $GPZDA,232946.00,15,11,2017,00,00*6E
2017-11-15 18:29:47 1510788587.329124: $GPGGA,232946,3946.9608,N,08404.9564,W,1,07,1.20,289.95,M,-33.324,M,,*72
2017-11-15 18:29:47 1510788587.329187: $GPRMC,232946,A,3946.9608,N,08404.9564,W,0.7267,273.794,151117,,*34
2017-11-15 18:29:47 1510788587.329243: $GPGSA,A,3,10,14,25,26,31,32,1,,,,,,3.4,1.2,2.9*08
