2017-12-01 16:31:11 1512163871.117072: {"class":"VERSION","release":"3.16","rev":"3.16-4","proto_major":3,"proto_minor":11}
2017-12-01 16:31:11 1512163871.117507: {"class":"DEVICES","devices":[{"class":"DEVICE","path":"/dev/ttyUSB0","driver":"SiRF","subtype":"9\u0006GSD4e_4.1.2-P1_RPATCH.05-F-GPS-4R-1510281 11/03/2015 307","activated":"2017-12-01T21:31:10.518Z","flags":1,"native":1,"bps":4800,"parity":"N","stopbits":1,"cycle":1.00}]}
2017-12-01 16:31:11 1512163871.117653: {"class":"WATCH","enable":true,"json":false,"nmea":true,"raw":0,"scaled":false,"timing":false,"split24":false,"pps":false}
2017-12-01 16:31:11 1512163871.379679: $GPZDA,213112.00,01,12,2017,00,00*62
2017-12-01 16:31:11 1512163871.379848: $GPGGA,213112,3946.9653,N,08404.9717,W,2,11,1.00,293.97,M,-33.324,M,,*7F
2017-12-01 16:31:11 1512163871.379913: $GPRMC,213112,A,3946.9653,N,08404.9717,W,0.0000,0.000,011217,,*38
2017-12-01 16:31:11 1512163871.379974: $GPGSA,A,3,1,10,11,14,22,31,32,25,26,12,138,,2.0,1.0,1.5*39
2017-12-01 16:31:12 1512163872.725378: $GPGSV,3,1,11,01,21,300,42,10,48,148,44,11,08,282,39,14,66,328,43*7D
2017-12-01 16:31:12 1512163872.725588: $GPGSV,3,2,11,22,19,312,44,31,56,225,49,32,68,030,49,25,40,090,31*70
2017-12-01 16:31:12 1512163872.725672: $GPGSV,3,3,11,26,03,183,33,12,22,049,25,138,38,213,34*7B
2017-12-01 16:31:12 1512163872.838744: $GPZDA,213113.00,01,12,2017,00,00*63
2017-12-01 16:31:12 1512163872.838879: $GPGGA,213113,3946.9653,N,08404.9717,W,2,11,1.00,293.97,M,-33.324,M,,*7E
2017-12-01 16:31:12 1512163872.838944: $GPRMC,213113,A,3946.9653,N,08404.9717,W,0.0000,0.000,011217,,*39
2017-12-01 16:31:12 1512163872.839004: $GPGSA,A,3,1,10,11,14,22,31,32,25,26,12,138,,2.0,1.0,1.5*39
2017-12-01 16:31:13 1512163873.464162: $GPZDA,213114.00,01,12,2017,00,00*64
2017-12-01 16:31:13 1512163873.464325: $GPGGA,213114,3946.9653,N,08404.9717,W,2,11,1.00,293.97,M,-33.324,M,,*79
2017-12-01 16:31:13 1512163873.464393: $GPRMC,213114,A,3946.9653,N,08404.9717,W,0.0000,0.000,011217,,*3E
2017-12-01 16:31:13 1512163873.464453: $GPGSA,A,3,1,10,11,14,22,31,32,25,26,12,138,,2.0,1.0,1.5*39
2017-12-01 16:31:14 1512163874.395110: $GPZDA,213115.00,01,12,2017,00,00*65
2017-12-01 16:31:14 1512163874.395283: $GPGGA,213115,3946.9653,N,08404.9717,W,2,11,1.00,293.97,M,-33.324,M,,*78
2017-12-01 16:31:14 1512163874.395349: $GPRMC,213115,A,3946.9653,N,08404.9717,W,0.0000,0.000,011217,,*3F
2017-12-01 16:31:14 1512163874.395412: $GPGSA,A,3,1,10,11,14,22,31,32,25,26,12,138,,2.0,1.0,1.5*39
2017-12-01 16:31:15 1512163875.732031: $GPGSV,3,1,11,01,21,300,42,10,48,148,44,11,08,282,39,14,66,328,43*7D
2017-12-01 16:31:15 1512163875.732215: $GPGSV,3,2,11,22,19,312,44,31,56,225,49,32,68,030,49,25,40,090,32*73
2017-12-01 16:31:15 1512163875.732282: $GPGSV,3,3,11,26,03,183,33,12,22,049,24,138,38,213,38*76
2017-12-01 16:31:15 1512163875.845421: $GPZDA,213116.00,01,12,2017,00,00*66
2017-12-01 16:31:15 1512163875.845608: $GPGGA,213116,3946.9653,N,08404.9717,W,2,11,1.00,293.97,M,-33.324,M,,*7B
2017-12-01 16:31:15 1512163875.845692: $GPRMC,213116,A,3946.9653,N,08404.9717,W,0.0000,0.000,011217,,*3C
2017-12-01 16:31:15 1512163875.845754: $GPGSA,A,3,1,10,11,14,22,31,32,25,26,12,138,,2.0,1.0,1.5*39
2017-12-01 16:31:16 1512163876.380289: $GPZDA,213117.00,01,12,2017,00,00*67
2017-12-01 16:31:16 1512163876.380462: $GPGGA,213117,3946.9653,N,08404.9717,W,2,11,1.00,293.97,M,-33.324,M,,*7A
2017-12-01 16:31:16 1512163876.380552: $GPRMC,213117,A,3946.9653,N,08404.9717,W,0.0000,0.000,011217,,*3D
2017-12-01 16:31:16 1512163876.380615: $GPGSA,A,3,1,10,11,14,22,31,32,25,26,12,138,,2.0,1.0,1.5*39
2017-12-01 16:31:17 1512163877.379883: $GPZDA,213118.00,01,12,2017,00,00*68
2017-12-01 16:31:17 1512163877.380053: $GPGGA,213118,3946.9653,N,08404.9717,W,2,11,1.00,293.97,M,-33.324,M,,*75
2017-12-01 16:31:17 1512163877.380120: $GPRMC,213118,A,3946.9653,N,08404.9717,W,0.0000,0.000,011217,,*32
2017-12-01 16:31:17 1512163877.380181: $GPGSA,A,3,1,10,11,14,22,31,32,25,26,12,138,,2.0,1.0,1.5*39
2017-12-01 16:31:18 1512163878.713612: $GPGSV,3,1,11,01,21,300,41,10,48,148,44,11,08,282,39,14,66,328,43*7E
2017-12-01 16:31:18 1512163878.713876: $GPGSV,3,2,11,22,19,312,44,31,56,225,49,32,68,030,49,25,40,090,32*73
2017-12-01 16:31:18 1512163878.713946: $GPGSV,3,3,11,26,03,183,33,12,22,049,16,138,38,213,39*76
2017-12-01 16:31:18 1512163878.827241: $GPZDA,213119.00,01,12,2017,00,00*69
2017-12-01 16:31:18 1512163878.827405: $GPGGA,213119,3946.9653,N,08404.9717,W,2,11,1.00,293.97,M,-33.324,M,,*74
2017-12-01 16:31:18 1512163878.827471: $GPRMC,213119,A,3946.9653,N,08404.9717,W,0.0000,0.000,011217,,*33
2017-12-01 16:31:18 1512163878.827554: $GPGSA,A,3,1,10,11,14,22,31,32,25,26,12,138,,2.0,1.0,1.5*39
2017-12-01 16:31:19 1512163879.379392: $GPZDA,213120.00,01,12,2017,00,00*63
2017-12-01 16:31:19 1512163879.379598: $GPGGA,213120,3946.9653,N,08404.9717,W,2,11,1.00,293.97,M,-33.324,M,,*7E
2017-12-01 16:31:19 1512163879.379682: $GPRMC,213120,A,3946.9653,N,08404.9717,W,0.0000,0.000,011217,,*39
2017-12-01 16:31:19 1512163879.379744: $GPGSA,A,3,1,10,11,14,22,31,32,25,26,12,138,,2.0,1.0,1.5*39
2017-12-01 16:31:20 1512163880.385449: $GPZDA,213121.00,01,12,2017,00,00*62
2017-12-01 16:31:20 1512163880.385656: $GPGGA,213121,3946.9653,N,08404.9724,W,2,11,1.00,293.89,M,-33.324,M,,*70
2017-12-01 16:31:20 1512163880.385724: $GPRMC,213121,A,3946.9653,N,08404.9724,W,0.0000,0.000,011217,,*38
2017-12-01 16:31:20 1512163880.385785: $GPGSA,A,3,1,10,11,14,22,31,32,25,26,12,138,,2.0,1.0,1.5*39
2017-12-01 16:31:21 1512163881.715734: $GPGSV,3,1,12,01,21,300,41,10,48,148,44,11,08,282,40,14,66,328,43*73
2017-12-01 16:31:21 1512163881.715919: $GPGSV,3,2,12,22,19,312,44,31,56,225,49,32,68,030,49,18,18,144,21*79
2017-12-01 16:31:21 1512163881.715986: $GPGSV,3,3,12,25,40,090,32,26,03,183,33,12,22,049,19,138,38,213,40*4F
2017-12-01 16:31:21 1512163881.829250: $GPZDA,213122.00,01,12,2017,00,00*61
2017-12-01 16:31:21 1512163881.829424: $GPGGA,213122,3946.9653,N,08404.9724,W,2,12,0.80,293.89,M,-33.324,M,,*79
2017-12-01 16:31:21 1512163881.829514: $GPRMC,213122,A,3946.9653,N,08404.9724,W,0.0000,0.000,011217,,*3B
2017-12-01 16:31:21 1512163881.829579: $GPGSA,A,3,1,10,11,14,22,31,32,18,25,26,12,138,2.0,0.8,1.5*39
2017-12-01 16:31:22 1512163882.377924: $GPZDA,213123.00,01,12,2017,00,00*60
2017-12-01 16:31:22 1512163882.378093: $GPGGA,213123,3946.9653,N,08404.9724,W,2,12,0.80,293.89,M,-33.324,M,,*78
2017-12-01 16:31:22 1512163882.378160: $GPRMC,213123,A,3946.9653,N,08404.9724,W,0.0000,0.000,011217,,*3A
2017-12-01 16:31:22 1512163882.378220: $GPGSA,A,3,1,10,11,14,22,31,32,18,25,26,12,138,2.0,0.8,1.5*39
2017-12-01 16:31:23 1512163883.378215: $GPZDA,213124.00,01,12,2017,00,00*67
2017-12-01 16:31:23 1512163883.378384: $GPGGA,213124,3946.9653,N,08404.9724,W,2,12,0.80,293.89,M,-33.324,M,,*7F
2017-12-01 16:31:23 1512163883.378451: $GPRMC,213124,A,3946.9653,N,08404.9724,W,0.0000,0.000,011217,,*3D
2017-12-01 16:31:23 1512163883.378539: $GPGSA,A,3,1,10,11,14,22,31,32,18,25,26,12,138,2.0,0.8,1.5*39
2017-12-01 16:31:24 1512163884.708731: $GPGSV,3,1,12,01,21,300,41,10,48,148,44,11,08,282,40,14,66,328,43*73
2017-12-01 16:31:24 1512163884.708909: $GPGSV,3,2,12,22,19,312,44,31,56,225,49,32,68,030,49,18,18,144,22*7A
2017-12-01 16:31:24 1512163884.708976: $GPGSV,3,3,12,25,40,090,32,26,03,183,34,12,22,049,24,138,38,213,38*49
2017-12-01 16:31:24 1512163884.821144: $GPZDA,213125.00,01,12,2017,00,00*66
2017-12-01 16:31:24 1512163884.821313: $GPGGA,213125,3946.9653,N,08404.9724,W,2,12,0.80,293.89,M,-33.324,M,,*7E
2017-12-01 16:31:24 1512163884.821437: $GPRMC,213125,A,3946.9653,N,08404.9724,W,0.0000,0.000,011217,,*3C
2017-12-01 16:31:24 1512163884.821523: $GPGSA,A,3,1,10,11,14,22,31,32,18,25,26,12,138,2.0,0.8,1.5*39
2017-12-01 16:31:25 1512163885.379446: $GPZDA,213126.00,01,12,2017,00,00*65
2017-12-01 16:31:25 1512163885.379653: $GPGGA,213126,3946.9653,N,08404.9724,W,2,12,0.80,293.89,M,-33.324,M,,*7D
2017-12-01 16:31:25 1512163885.379722: $GPRMC,213126,A,3946.9653,N,08404.9724,W,0.0000,0.000,011217,,*3F
2017-12-01 16:31:25 1512163885.379783: $GPGSA,A,3,1,10,11,14,22,31,32,18,25,26,12,138,2.0,0.8,1.5*39
2017-12-01 16:31:26 1512163886.371526: $GPZDA,213127.00,01,12,2017,00,00*64
2017-12-01 16:31:26 1512163886.371759: $GPGGA,213127,3946.9650,N,08404.9725,W,2,12,0.80,294.65,M,-33.324,M,,*7B
2017-12-01 16:31:26 1512163886.371829: $GPRMC,213127,A,3946.9650,N,08404.9725,W,0.0000,0.000,011217,,*3C
2017-12-01 16:31:26 1512163886.371890: $GPGSA,A,3,1,10,11,14,22,31,32,18,25,26,12,138,2.0,0.8,1.5*39
2017-12-01 16:31:27 1512163887.714444: $GPGSV,3,1,12,01,21,300,40,10,48,148,44,11,08,282,40,14,66,328,43*72
2017-12-01 16:31:27 1512163887.714660: $GPGSV,3,2,12,22,19,312,44,31,56,225,49,32,68,030,49,18,18,144,22*7A
2017-12-01 16:31:27 1512163887.714729: $GPGSV,3,3,12,25,40,090,33,26,03,183,34,12,22,049,23,138,38,213,40*40
2017-12-01 16:31:27 1512163887.827809: $GPZDA,213128.00,01,12,2017,00,00*6B
2017-12-01 16:31:27 1512163887.828005: $GPGGA,213128,3946.9650,N,08404.9725,W,2,12,0.80,294.65,M,-33.324,M,,*74
2017-12-01 16:31:27 1512163887.828075: $GPRMC,213128,A,3946.9650,N,08404.9725,W,0.0000,0.000,011217,,*33
2017-12-01 16:31:27 1512163887.828137: $GPGSA,A,3,1,10,11,14,22,31,32,18,25,26,12,138,2.0,0.8,1.5*39
2017-12-01 16:31:28 1512163888.453502: $GPZDA,213129.00,01,12,2017,00,00*6A
2017-12-01 16:31:28 1512163888.453690: $GPGGA,213129,3946.9650,N,08404.9725,W,2,12,0.80,294.65,M,-33.324,M,,*75
2017-12-01 16:31:28 1512163888.453757: $GPRMC,213129,A,3946.9650,N,08404.9725,W,0.0000,0.000,011217,,*32
2017-12-01 16:31:28 1512163888.453818: $GPGSA,A,3,1,10,11,14,22,31,32,18,25,26,12,138,2.0,0.8,1.5*39
2017-12-01 16:31:29 1512163889.377794: $GPZDA,213130.00,01,12,2017,00,00*62
2017-12-01 16:31:29 1512163889.377977: $GPGGA,213130,3946.9650,N,08404.9725,W,2,12,0.80,294.65,M,-33.324,M,,*7D
2017-12-01 16:31:29 1512163889.378046: $GPRMC,213130,A,3946.9650,N,08404.9725,W,0.0000,0.000,011217,,*3A
2017-12-01 16:31:29 1512163889.378108: $GPGSA,A,3,1,10,11,14,22,31,32,18,25,26,12,138,2.0,0.8,1.5*39
2017-12-01 16:31:30 1512163890.707305: $GPGSV,3,1,12,01,21,300,40,10,48,148,44,11,08,282,39,14,66,328,43*7C
2017-12-01 16:31:30 1512163890.707508: $GPGSV,3,2,12,22,19,312,44,31,56,225,49,32,68,030,49,18,18,144,21*79
2017-12-01 16:31:30 1512163890.707575: $GPGSV,3,3,12,25,40,090,33,26,03,183,34,12,22,049,23,138,38,213,41*41
2017-12-01 16:31:30 1512163890.820673: $GPZDA,213131.00,01,12,2017,00,00*63
2017-12-01 16:31:30 1512163890.820867: $GPGGA,213131,3946.9650,N,08404.9725,W,2,12,0.80,294.65,M,-33.324,M,,*7C
2017-12-01 16:31:30 1512163890.820935: $GPRMC,213131,A,3946.9650,N,08404.9725,W,0.0000,0.000,011217,,*3B
2017-12-01 16:31:30 1512163890.820996: $GPGSA,A,3,1,10,11,14,22,31,32,18,25,26,12,138,2.0,0.8,1.5*39
