2018-01-11 20:05:58 1515719158.793774: {"class":"VERSION","release":"3.16","rev":"3.16-4","proto_major":3,"proto_minor":11}
2018-01-11 20:05:58 1515719158.794160: {"class":"DEVICES","devices":[{"class":"DEVICE","path":"/dev/ttyUSB0","driver":"SiRF","subtype":"9\u0006GSD4e_4.1.2-P1_RPATCH.05-F-GPS-4R-1510281 11/03/2015 307","activated":"2018-01-12T01:05:58.689Z","flags":1,"native":1,"bps":4800,"parity":"N","stopbits":1,"cycle":1.00}]}
2018-01-11 20:05:58 1515719158.794273: {"class":"WATCH","enable":true,"json":false,"nmea":true,"raw":0,"scaled":false,"timing":false,"split24":false,"pps":false}
2018-01-11 20:05:59 1515719159.710372: $GPGSV,3,1,10,07,53,313,42,08,72,139,46,09,50,232,42,11,18,168,46*75
2018-01-11 20:05:59 1515719159.710541: $GPGSV,3,2,10,16,25,058,44,23,31,190,47,27,49,055,50,28,12,256,36*7C
2018-01-11 20:05:59 1515719159.710608: $GPGSV,3,3,10,30,27,306,35,138,38,213,46*4E
2018-01-11 20:05:59 1515719159.823741: $GPZDA,010600.00,12,01,2018,00,00*68
2018-01-11 20:05:59 1515719159.823905: $GPGGA,010600,3946.9589,N,08404.9823,W,2,10,0.80,309.63,M,-33.324,M,,*77
2018-01-11 20:05:59 1515719159.823994: $GPRMC,010600,A,3946.9589,N,08404.9823,W,0.0000,0.000,120118,,*3E
2018-01-11 20:05:59 1515719159.824056: $GPGSA,A,3,7,8,9,11,16,23,27,28,30,138,,,4.0,0.8,3.5*3E
2018-01-11 20:06:00 1515719160.374649: $GPZDA,010601.00,12,01,2018,00,00*69
2018-01-11 20:06:00 1515719160.374823: $GPGGA,010601,3946.9589,N,08404.9823,W,2,10,0.80,309.63,M,-33.324,M,,*76
2018-01-11 20:06:00 1515719160.374891: $GPRMC,010601,A,3946.9589,N,08404.9823,W,0.0000,0.000,120118,,*3F
2018-01-11 20:06:00 1515719160.374985: $GPGSA,A,3,7,8,9,11,16,23,27,28,30,138,,,4.0,0.8,3.5*3E
2018-01-11 20:06:01 1515719161.359290: $GPZDA,010602.00,12,01,2018,00,00*6A
2018-01-11 20:06:01 1515719161.359462: $GPGGA,010602,3946.9589,N,08404.9823,W,2,10,0.80,309.63,M,-33.324,M,,*75
2018-01-11 20:06:01 1515719161.359530: $GPRMC,010602,A,3946.9589,N,08404.9823,W,0.0000,0.000,120118,,*3C
2018-01-11 20:06:01 1515719161.359592: $GPGSA,A,3,7,8,9,11,16,23,27,28,30,138,,,4.0,0.8,3.5*3E
2018-01-11 20:06:02 1515719162.693739: $GPGSV,3,1,10,07,53,313,42,08,72,139,46,09,50,232,43,11,18,168,46*74
2018-01-11 20:06:02 1515719162.698177: $GPGSV,3,2,10,16,25,058,44,23,31,190,47,27,49,055,50,28,12,256,36*7C
2018-01-11 20:06:02 1515719162.698277: $GPGSV,3,3,10,30,27,306,35,138,38,213,46*4E
2018-01-11 20:06:02 1515719162.807343: $GPZDA,010603.00,12,01,2018,00,00*6B
2018-01-11 20:06:02 1515719162.807507: $GPGGA,010603,3946.9589,N,08404.9823,W,2,10,0.80,309.63,M,-33.324,M,,*74
2018-01-11 20:06:02 1515719162.807572: $GPRMC,010603,A,3946.9589,N,08404.9823,W,0.0000,0.000,120118,,*3D
2018-01-11 20:06:02 1515719162.807632: $GPGSA,A,3,7,8,9,11,16,23,27,28,30,138,,,4.0,0.8,3.5*3E
2018-01-11 20:06:03 1515719163.356994: $GPZDA,010604.00,12,01,2018,00,00*6C
2018-01-11 20:06:03 1515719163.357196: $GPGGA,010604,3946.9589,N,08404.9823,W,2,10,0.80,309.63,M,-33.324,M,,*73
2018-01-11 20:06:03 1515719163.357265: $GPRMC,010604,A,3946.9589,N,08404.9823,W,0.0000,0.000,120118,,*3A
2018-01-11 20:06:03 1515719163.357329: $GPGSA,A,3,7,8,9,11,16,23,27,28,30,138,,,4.0,0.8,3.5*3E
2018-01-11 20:06:04 1515719164.373604: $GPZDA,010605.00,12,01,2018,00,00*6D
2018-01-11 20:06:04 1515719164.373770: $GPGGA,010605,3946.9589,N,08404.9823,W,2,10,0.80,309.63,M,-33.324,M,,*72
2018-01-11 20:06:04 1515719164.373839: $GPRMC,010605,A,3946.9589,N,08404.9823,W,0.0000,0.000,120118,,*3B
2018-01-11 20:06:04 1515719164.373927: $GPGSA,A,3,7,8,9,11,16,23,27,28,30,138,,,4.0,0.8,3.5*3E
2018-01-11 20:06:05 1515719165.694064: $GPGSV,3,1,10,07,53,313,42,08,72,139,46,09,50,232,43,11,18,168,46*74
2018-01-11 20:06:05 1515719165.694222: $GPGSV,3,2,10,16,25,058,44,23,31,190,47,27,49,055,50,28,12,256,37*7D
2018-01-11 20:06:05 1515719165.694290: $GPGSV,3,3,10,30,27,306,35,138,38,213,45*4D
2018-01-11 20:06:05 1515719165.806441: $GPZDA,010606.00,12,01,2018,00,00*6E
2018-01-11 20:06:05 1515719165.806603: $GPGGA,010606,3946.9589,N,08404.9823,W,2,10,0.80,309.63,M,-33.324,M,,*71
2018-01-11 20:06:05 1515719165.806671: $GPRMC,010606,A,3946.9589,N,08404.9823,W,0.0000,0.000,120118,,*38
2018-01-11 20:06:05 1515719165.806790: $GPGSA,A,3,7,8,9,11,16,23,27,28,30,138,,,4.0,0.8,3.5*3E
2018-01-11 20:06:06 1515719166.371080: $GPZDA,010607.00,12,01,2018,00,00*6F
2018-01-11 20:06:06 1515719166.371239: $GPGGA,010607,3946.9589,N,08404.9823,W,2,10,0.80,309.63,M,-33.324,M,,*70
2018-01-11 20:06:06 1515719166.371305: $GPRMC,010607,A,3946.9589,N,08404.9823,W,0.0000,0.000,120118,,*39
2018-01-11 20:06:06 1515719166.371366: $GPGSA,A,3,7,8,9,11,16,23,27,28,30,138,,,4.0,0.8,3.5*3E
2018-01-11 20:06:07 1515719167.374460: $GPZDA,010608.00,12,01,2018,00,00*60
2018-01-11 20:06:07 1515719167.374620: $GPGGA,010608,3946.9589,N,08404.9823,W,2,10,0.80,309.63,M,-33.324,M,,*7F
2018-01-11 20:06:07 1515719167.374687: $GPRMC,010608,A,3946.9589,N,08404.9823,W,0.0000,0.000,120118,,*36
2018-01-11 20:06:07 1515719167.374748: $GPGSA,A,3,7,8,9,11,16,23,27,28,30,138,,,4.0,0.8,3.5*3E
2018-01-11 20:06:08 1515719168.693669: $GPGSV,3,1,10,07,53,313,42,08,72,139,46,09,50,232,43,11,18,168,46*74
2018-01-11 20:06:08 1515719168.693872: $GPGSV,3,2,10,16,25,058,44,23,31,190,47,27,49,055,49,28,12,256,37*75
2018-01-11 20:06:08 1515719168.693941: $GPGSV,3,3,10,30,27,306,35,138,38,213,46*4E
2018-01-11 20:06:08 1515719168.807281: $GPZDA,010609.00,12,01,2018,00,00*61
2018-01-11 20:06:08 1515719168.807408: $GPGGA,010609,3946.9589,N,08404.9823,W,2,10,0.80,309.63,M,-33.324,M,,*7E
2018-01-11 20:06:08 1515719168.807473: $GPRMC,010609,A,3946.9589,N,08404.9823,W,0.0000,0.000,120118,,*37
2018-01-11 20:06:08 1515719168.807534: $GPGSA,A,3,7,8,9,11,16,23,27,28,30,138,,,4.0,0.8,3.5*3E
2018-01-11 20:06:09 1515719169.432446: $GPZDA,010610.00,12,01,2018,00,00*69
2018-01-11 20:06:09 1515719169.432606: $GPGGA,010610,3946.9589,N,08404.9823,W,2,10,0.80,309.63,M,-33.324,M,,*76
2018-01-11 20:06:09 1515719169.432673: $GPRMC,010610,A,3946.9589,N,08404.9823,W,0.0000,0.000,120118,,*3F
2018-01-11 20:06:09 1515719169.432734: $GPGSA,A,3,7,8,9,11,16,23,27,28,30,138,,,4.0,0.8,3.5*3E
