2017-11-16 14:44:12 1510861452.997514: {"class":"VERSION","release":"3.17","rev":"3.17","proto_major":3,"proto_minor":12}
2017-11-16 14:44:12 1510861452.998123: {"class":"DEVICES","devices":[{"class":"DEVICE","path":"/dev/ttyUSB0","driver":"SiRF","subtype":"9\u0006GSD4e_4.1.2-P1_RPATCH.05-F-GPS-4R-1510281 11/03/2015 307","activated":"2017-11-16T19:44:12.981Z","flags":1,"native":1,"bps":4800,"parity":"N","stopbits":1,"cycle":1.00}]}
2017-11-16 14:44:12 1510861452.998308: {"class":"WATCH","enable":true,"json":false,"nmea":true,"raw":0,"scaled":false,"timing":false,"split24":false,"pps":false}
2017-11-16 14:44:13 1510861453.498744: $GPZDA,194412.00,16,11,2017,00,00*6E
2017-11-16 14:44:13 1510861453.498922: $GPGGA,194412,3946.9564,N,08404.9842,W,2,11,0.80,302.74,M,-33.324,M,,*73
2017-11-16 14:44:13 1510861453.498985: $GPRMC,194412,A,3946.9564,N,08404.9842,W,0.0000,0.000,161117,,*3C
2017-11-16 14:44:13 1510861453.499041: $GPGSA,A,3,8,10,15,18,21,20,24,27,32,14,138,,1.6,0.8,1.3*37
2017-11-16 14:44:14 1510861454.497812: $GPZDA,194413.00,16,11,2017,00,00*6F
2017-11-16 14:44:14 1510861454.498001: $GPGGA,194413,3946.9564,N,08404.9842,W,2,11,0.80,302.74,M,-33.324,M,,*72
2017-11-16 14:44:14 1510861454.498065: $GPRMC,194413,A,3946.9564,N,08404.9842,W,0.0000,0.000,161117,,*3D
2017-11-16 14:44:14 1510861454.498122: $GPGSA,A,3,8,10,15,18,21,20,24,27,32,14,138,,1.6,0.8,1.3*37
2017-11-16 14:44:15 1510861455.834735: $GPGSV,3,1,11,08,08,310,39,10,52,312,51,15,26,057,51,18,77,021,44*7D
2017-11-16 14:44:15 1510861455.834904: $GPGSV,3,2,11,21,49,183,47,20,23,106,46,24,53,087,49,27,15,276,45*78
2017-11-16 14:44:15 1510861455.834965: $GPGSV,3,3,11,32,31,247,48,14,15,240,40,138,38,213,44*75
2017-11-16 14:44:15 1510861455.948044: $GPZDA,194414.00,16,11,2017,00,00*68
2017-11-16 14:44:15 1510861455.948214: $GPGGA,194414,3946.9564,N,08404.9842,W,2,11,0.80,302.74,M,-33.324,M,,*75
2017-11-16 14:44:15 1510861455.948277: $GPRMC,194414,A,3946.9564,N,08404.9842,W,0.0000,0.000,161117,,*3A
2017-11-16 14:44:15 1510861455.948333: $GPGSA,A,3,8,10,15,18,21,20,24,27,32,14,138,,1.6,0.8,1.3*37
2017-11-16 14:44:16 1510861456.531489: $GPZDA,194415.00,16,11,2017,00,00*69
2017-11-16 14:44:16 1510861456.531657: $GPGGA,194415,3946.9564,N,08404.9842,W,2,11,0.80,302.74,M,-33.324,M,,*74
2017-11-16 14:44:16 1510861456.531719: $GPRMC,194415,A,3946.9564,N,08404.9842,W,0.0000,0.000,161117,,*3B
2017-11-16 14:44:16 1510861456.531775: $GPGSA,A,3,8,10,15,18,21,20,24,27,32,14,138,,1.6,0.8,1.3*37
2017-11-16 14:44:17 1510861457.498849: $GPZDA,194416.00,16,11,2017,00,00*6A
2017-11-16 14:44:17 1510861457.499018: $GPGGA,194416,3946.9564,N,08404.9842,W,2,11,0.80,302.74,M,-33.324,M,,*77
2017-11-16 14:44:17 1510861457.499080: $GPRMC,194416,A,3946.9564,N,08404.9842,W,0.0000,0.000,161117,,*38
2017-11-16 14:44:17 1510861457.499137: $GPGSA,A,3,8,10,15,18,21,20,24,27,32,14,138,,1.6,0.8,1.3*37
2017-11-16 14:44:18 1510861458.868044: $GPGSV,3,1,11,08,08,310,33,10,52,312,51,15,26,057,51,18,77,021,44*77
2017-11-16 14:44:18 1510861458.868219: $GPGSV,3,2,11,21,49,183,47,20,23,106,46,24,53,087,48,27,15,276,45*79
2017-11-16 14:44:18 1510861458.868280: $GPGSV,3,3,11,32,31,247,48,14,15,240,41,138,38,213,43*73
2017-11-16 14:44:18 1510861458.981380: $GPZDA,194417.00,16,11,2017,00,00*6B
2017-11-16 14:44:18 1510861458.981550: $GPGGA,194417,3946.9564,N,08404.9842,W,2,11,0.80,302.74,M,-33.324,M,,*76
2017-11-16 14:44:18 1510861458.981610: $GPRMC,194417,A,3946.9564,N,08404.9842,W,0.0000,0.000,161117,,*39
2017-11-16 14:44:18 1510861458.981666: $GPGSA,A,3,8,10,15,18,21,20,24,27,32,14,138,,1.6,0.8,1.3*37
2017-11-16 14:44:19 1510861459.607969: $GPZDA,194418.00,16,11,2017,00,00*64
2017-11-16 14:44:19 1510861459.608141: $GPGGA,194418,3946.9564,N,08404.9842,W,2,11,0.80,302.74,M,-33.324,M,,*79
2017-11-16 14:44:19 1510861459.608202: $GPRMC,194418,A,3946.9564,N,08404.9842,W,0.0000,0.000,161117,,*36
2017-11-16 14:44:19 1510861459.608258: $GPGSA,A,3,8,10,15,18,21,20,24,27,32,14,138,,1.6,0.8,1.3*37
2017-11-16 14:44:20 1510861460.526536: $GPZDA,194419.00,16,11,2017,00,00*65
2017-11-16 14:44:20 1510861460.526696: $GPGGA,194419,3946.9564,N,08404.9842,W,2,11,0.80,302.74,M,-33.324,M,,*78
2017-11-16 14:44:20 1510861460.526807: $GPRMC,194419,A,3946.9564,N,08404.9842,W,0.0000,0.000,161117,,*37
2017-11-16 14:44:20 1510861460.526865: $GPGSA,A,3,8,10,15,18,21,20,24,27,32,14,138,,1.6,0.8,1.3*37
2017-11-16 14:44:21 1510861461.881338: $GPGSV,3,1,11,08,08,310,32,10,52,312,50,15,26,057,51,18,77,021,44*77
2017-11-16 14:44:21 1510861461.881507: $GPGSV,3,2,11,21,49,183,47,20,23,106,46,24,53,087,48,27,15,276,45*79
2017-11-16 14:44:21 1510861461.881568: $GPGSV,3,3,11,32,31,247,48,14,15,240,41,138,38,213,44*74
2017-11-16 14:44:21 1510861461.981539: $GPZDA,194420.00,16,11,2017,00,00*6F
2017-11-16 14:44:21 1510861461.981709: $GPGGA,194420,3946.9564,N,08404.9842,W,2,11,0.80,302.74,M,-33.324,M,,*72
2017-11-16 14:44:21 1510861461.981772: $GPRMC,194420,A,3946.9564,N,08404.9842,W,0.0000,0.000,161117,,*3D
2017-11-16 14:44:21 1510861461.981828: $GPGSA,A,3,8,10,15,18,21,20,24,27,32,14,138,,1.6,0.8,1.3*37
2017-11-16 14:44:22 1510861462.497415: $GPZDA,194421.00,16,11,2017,00,00*6E
2017-11-16 14:44:22 1510861462.497581: $GPGGA,194421,3946.9564,N,08404.9842,W,2,11,0.80,302.74,M,-33.324,M,,*73
2017-11-16 14:44:22 1510861462.497644: $GPRMC,194421,A,3946.9564,N,08404.9842,W,0.0000,0.000,161117,,*3C
2017-11-16 14:44:22 1510861462.497700: $GPGSA,A,3,8,10,15,18,21,20,24,27,32,14,138,,1.6,0.8,1.3*37
