2017-12-01 17:42:11 1512168131.066625: {"class":"VERSION","release":"3.16","rev":"3.16-4","proto_major":3,"proto_minor":11}
2017-12-01 17:42:11 1512168131.067088: {"class":"DEVICES","devices":[{"class":"DEVICE","path":"/dev/ttyUSB0","driver":"SiRF","subtype":"9\u0006GSD4e_4.1.2-P1_RPATCH.05-F-GPS-4R-1510281 11/03/2015 307","activated":"2017-12-01T22:42:10.720Z","flags":1,"native":1,"bps":4800,"parity":"N","stopbits":1,"cycle":1.00}]}
2017-12-01 17:42:11 1512168131.067210: {"class":"WATCH","enable":true,"json":false,"nmea":true,"raw":0,"scaled":false,"timing":false,"split24":false,"pps":false}
2017-12-01 17:42:11 1512168131.405623: $GPZDA,224212.00,01,12,2017,00,00*65
2017-12-01 17:42:11 1512168131.405796: $GPGGA,224212,3946.9730,N,08404.9838,W,2,12,0.80,295.63,M,-33.325,M,,*78
2017-12-01 17:42:11 1512168131.405864: $GPRMC,224212,A,3946.9730,N,08404.9838,W,0.0000,0.000,011217,,*39
2017-12-01 17:42:11 1512168131.405925: $GPGSA,A,3,1,3,10,14,22,25,26,31,32,16,29,138,2.0,0.8,1.5*0C
2017-12-01 17:42:12 1512168132.740101: $GPGSV,3,1,12,01,16,268,44,03,27,313,45,10,15,157,42,14,67,057,41*77
2017-12-01 17:42:12 1512168132.740299: $GPGSV,3,2,12,22,44,297,47,25,32,051,43,26,33,177,44,31,79,325,46*7E
2017-12-01 17:42:12 1512168132.740367: $GPGSV,3,3,12,32,50,088,45,16,05,190,29,29,03,088,30,138,38,213,45*45
2017-12-01 17:42:12 1512168132.853479: $GPZDA,224213.00,01,12,2017,00,00*64
2017-12-01 17:42:12 1512168132.853637: $GPGGA,224213,3946.9730,N,08404.9838,W,2,12,0.80,295.63,M,-33.325,M,,*79
2017-12-01 17:42:12 1512168132.853702: $GPRMC,224213,A,3946.9730,N,08404.9838,W,0.0000,0.000,011217,,*38
2017-12-01 17:42:12 1512168132.853763: $GPGSA,A,3,1,3,10,14,22,25,26,31,32,16,29,138,2.0,0.8,1.5*0C
2017-12-01 17:42:13 1512168133.406846: $GPZDA,224214.00,01,12,2017,00,00*63
2017-12-01 17:42:13 1512168133.407024: $GPGGA,224214,3946.9730,N,08404.9838,W,2,12,0.80,295.63,M,-33.325,M,,*7E
2017-12-01 17:42:13 1512168133.407091: $GPRMC,224214,A,3946.9730,N,08404.9838,W,0.0000,0.000,011217,,*3F
2017-12-01 17:42:13 1512168133.407152: $GPGSA,A,3,1,3,10,14,22,25,26,31,32,16,29,138,2.0,0.8,1.5*0C
2017-12-01 17:42:14 1512168134.405863: $GPZDA,224215.00,01,12,2017,00,00*62
2017-12-01 17:42:14 1512168134.406116: $GPGGA,224215,3946.9730,N,08404.9838,W,2,12,0.80,295.63,M,-33.325,M,,*7F
2017-12-01 17:42:14 1512168134.406217: $GPRMC,224215,A,3946.9730,N,08404.9838,W,0.0000,0.000,011217,,*3E
2017-12-01 17:42:14 1512168134.406316: $GPGSA,A,3,1,3,10,14,22,25,26,31,32,16,29,138,2.0,0.8,1.5*0C
2017-12-01 17:42:15 1512168135.742240: $GPGSV,3,1,12,01,16,268,44,03,27,313,45,10,15,157,42,14,67,057,41*77
2017-12-01 17:42:15 1512168135.742402: $GPGSV,3,2,12,22,44,297,47,25,32,051,42,26,33,177,44,31,79,325,46*7F
2017-12-01 17:42:15 1512168135.742467: $GPGSV,3,3,12,32,50,088,46,16,05,190,29,29,03,088,29,138,38,213,45*4E
2017-12-01 17:42:15 1512168135.855526: $GPZDA,224216.00,01,12,2017,00,00*61
2017-12-01 17:42:15 1512168135.855695: $GPGGA,224216,3946.9730,N,08404.9838,W,2,12,0.80,295.63,M,-33.325,M,,*7C
2017-12-01 17:42:15 1512168135.855762: $GPRMC,224216,A,3946.9730,N,08404.9838,W,0.0000,0.000,011217,,*3D
2017-12-01 17:42:15 1512168135.855823: $GPGSA,A,3,1,3,10,14,22,25,26,31,32,16,29,138,2.0,0.8,1.5*0C
2017-12-01 17:42:16 1512168136.480902: $GPZDA,224217.00,01,12,2017,00,00*60
2017-12-01 17:42:16 1512168136.481076: $GPGGA,224217,3946.9730,N,08404.9838,W,2,12,0.80,295.63,M,-33.325,M,,*7D
2017-12-01 17:42:16 1512168136.481143: $GPRMC,224217,A,3946.9730,N,08404.9838,W,0.0000,0.000,011217,,*3C
2017-12-01 17:42:16 1512168136.481204: $GPGSA,A,3,1,3,10,14,22,25,26,31,32,16,29,138,2.0,0.8,1.5*0C
2017-12-01 17:42:17 1512168137.404279: $GPZDA,224218.00,01,12,2017,00,00*6F
2017-12-01 17:42:17 1512168137.404451: $GPGGA,224218,3946.9730,N,08404.9838,W,2,12,0.80,295.63,M,-33.325,M,,*72
2017-12-01 17:42:17 1512168137.404517: $GPRMC,224218,A,3946.9730,N,08404.9838,W,0.0000,0.000,011217,,*33
2017-12-01 17:42:17 1512168137.404578: $GPGSA,A,3,1,3,10,14,22,25,26,31,32,16,29,138,2.0,0.8,1.5*0C
2017-12-01 17:42:18 1512168138.741295: $GPGSV,3,1,12,01,16,268,44,03,27,313,45,10,15,157,42,14,67,057,40*76
2017-12-01 17:42:18 1512168138.741592: $GPGSV,3,2,12,22,44,297,47,25,32,051,43,26,33,177,44,31,79,325,45*7D
2017-12-01 17:42:18 1512168138.741664: $GPGSV,3,3,12,32,50,088,45,16,05,190,29,29,03,088,30,138,38,213,45*45
2017-12-01 17:42:18 1512168138.853518: $GPZDA,224219.00,01,12,2017,00,00*6E
2017-12-01 17:42:18 1512168138.853710: $GPGGA,224219,3946.9730,N,08404.9838,W,2,12,0.80,295.63,M,-33.325,M,,*73
2017-12-01 17:42:18 1512168138.853777: $GPRMC,224219,A,3946.9730,N,08404.9838,W,0.0000,0.000,011217,,*32
2017-12-01 17:42:18 1512168138.853838: $GPGSA,A,3,1,3,10,14,22,25,26,31,32,16,29,138,2.0,0.8,1.5*0C
2017-12-01 17:42:19 1512168139.934517: $GPZDA,224220.00,01,12,2017,00,00*64
2017-12-01 17:42:19 1512168139.934675: $GPGGA,224220,3946.9730,N,08404.9839,W,2,12,0.80,297.04,M,-33.325,M,,*7B
2017-12-01 17:42:19 1512168139.934741: $GPRMC,224220,A,3946.9730,N,08404.9839,W,0.0000,0.000,011217,,*39
2017-12-01 17:42:19 1512168139.934802: $GPGSA,A,3,1,3,10,14,22,25,26,31,32,16,29,138,2.0,0.8,1.5*0C
2017-12-01 17:42:20 1512168140.403968: $GPZDA,224221.00,01,12,2017,00,00*65
2017-12-01 17:42:20 1512168140.404143: $GPGGA,224221,3946.9730,N,08404.9839,W,2,12,0.80,297.04,M,-33.325,M,,*7A
2017-12-01 17:42:20 1512168140.404210: $GPRMC,224221,A,3946.9730,N,08404.9839,W,0.0000,0.000,011217,,*38
2017-12-01 17:42:20 1512168140.404271: $GPGSA,A,3,1,3,10,14,22,25,26,31,32,16,29,138,2.0,0.8,1.5*0C
2017-12-01 17:42:21 1512168141.740509: $GPGSV,3,1,12,01,15,268,44,03,27,313,45,10,15,157,42,14,67,058,41*7B
2017-12-01 17:42:21 1512168141.740691: $GPGSV,3,2,12,22,44,295,47,25,31,051,43,26,33,177,45,31,79,327,45*7F
2017-12-01 17:42:21 1512168141.740759: $GPGSV,3,3,12,32,50,088,45,16,05,190,30,29,03,088,30,138,38,213,45*4D
2017-12-01 17:42:21 1512168141.854218: $GPZDA,224222.00,01,12,2017,00,00*66
2017-12-01 17:42:21 1512168141.854384: $GPGGA,224222,3946.9730,N,08404.9839,W,2,12,0.80,297.04,M,-33.325,M,,*79
2017-12-01 17:42:21 1512168141.854451: $GPRMC,224222,A,3946.9730,N,08404.9839,W,0.0000,0.000,011217,,*3B
2017-12-01 17:42:21 1512168141.854511: $GPGSA,A,3,1,3,10,14,22,25,26,31,32,16,29,138,2.0,0.8,1.5*0C
2017-12-01 17:42:22 1512168142.404747: $GPZDA,224223.00,01,12,2017,00,00*67
2017-12-01 17:42:22 1512168142.404919: $GPGGA,224223,3946.9730,N,08404.9839,W,2,12,0.80,297.04,M,-33.325,M,,*78
2017-12-01 17:42:22 1512168142.404987: $GPRMC,224223,A,3946.9730,N,08404.9839,W,0.0000,0.000,011217,,*3A
2017-12-01 17:42:22 1512168142.405047: $GPGSA,A,3,1,3,10,14,22,25,26,31,32,16,29,138,2.0,0.8,1.5*0C
2017-12-01 17:42:23 1512168143.407043: $GPZDA,224224.00,01,12,2017,00,00*60
2017-12-01 17:42:23 1512168143.407238: $GPGGA,224224,3946.9730,N,08404.9839,W,2,12,0.80,297.04,M,-33.325,M,,*7F
2017-12-01 17:42:23 1512168143.407306: $GPRMC,224224,A,3946.9730,N,08404.9839,W,0.0000,0.000,011217,,*3D
2017-12-01 17:42:23 1512168143.407367: $GPGSA,A,3,1,3,10,14,22,25,26,31,32,16,29,138,2.0,0.8,1.5*0C
2017-12-01 17:42:24 1512168144.741328: $GPGSV,3,1,12,01,15,268,44,03,27,313,45,10,15,157,42,14,67,058,41*7B
2017-12-01 17:42:24 1512168144.741554: $GPGSV,3,2,12,22,44,295,47,25,31,051,43,26,33,177,44,31,79,327,45*7E
2017-12-01 17:42:24 1512168144.741622: $GPGSV,3,3,12,32,50,088,46,16,05,190,30,29,03,088,31,138,38,213,46*4C
2017-12-01 17:42:24 1512168144.854947: $GPZDA,224225.00,01,12,2017,00,00*61
2017-12-01 17:42:24 1512168144.855093: $GPGGA,224225,3946.9730,N,08404.9839,W,2,12,0.80,297.04,M,-33.325,M,,*7E
2017-12-01 17:42:24 1512168144.855159: $GPRMC,224225,A,3946.9730,N,08404.9839,W,0.0000,0.000,011217,,*3C
2017-12-01 17:42:24 1512168144.855220: $GPGSA,A,3,1,3,10,14,22,25,26,31,32,16,29,138,2.0,0.8,1.5*0C
2017-12-01 17:42:25 1512168145.933188: $GPZDA,224226.00,01,12,2017,00,00*62
2017-12-01 17:42:25 1512168145.933360: $GPGGA,224226,3946.9730,N,08404.9839,W,2,12,0.80,297.04,M,-33.325,M,,*7D
2017-12-01 17:42:25 1512168145.933427: $GPRMC,224226,A,3946.9730,N,08404.9839,W,0.0000,0.000,011217,,*3F
2017-12-01 17:42:25 1512168145.933487: $GPGSA,A,3,1,3,10,14,22,25,26,31,32,16,29,138,2.0,0.8,1.5*0C
2017-12-01 17:42:26 1512168146.558851: $GPZDA,224227.00,01,12,2017,00,00*63
2017-12-01 17:42:26 1512168146.559022: $GPGGA,224227,3946.9730,N,08404.9839,W,2,12,0.80,297.04,M,-33.325,M,,*7C
2017-12-01 17:42:26 1512168146.559089: $GPRMC,224227,A,3946.9730,N,08404.9839,W,0.0000,0.000,011217,,*3E
2017-12-01 17:42:26 1512168146.559150: $GPGSA,A,3,1,3,10,14,22,25,26,31,32,16,29,138,2.0,0.8,1.5*0C
2017-12-01 17:42:27 1512168147.741848: $GPGSV,3,1,12,01,15,268,44,03,27,313,44,10,14,157,42,14,67,058,41*7B
2017-12-01 17:42:27 1512168147.742000: $GPGSV,3,2,12,22,44,295,47,25,31,051,42,26,33,177,44,31,79,327,46*7C
2017-12-01 17:42:27 1512168147.742065: $GPGSV,3,3,12,32,50,088,46,16,05,190,30,29,03,088,32,138,38,213,46*4F
2017-12-01 17:42:27 1512168147.855459: $GPZDA,224228.00,01,12,2017,00,00*6C
2017-12-01 17:42:27 1512168147.855626: $GPGGA,224228,3946.9730,N,08404.9839,W,2,12,0.80,297.04,M,-33.325,M,,*73
2017-12-01 17:42:27 1512168147.855692: $GPRMC,224228,A,3946.9730,N,08404.9839,W,0.0000,0.000,011217,,*31
2017-12-01 17:42:27 1512168147.855752: $GPGSA,A,3,1,3,10,14,22,25,26,31,32,16,29,138,2.0,0.8,1.5*0C
2017-12-01 17:42:28 1512168148.406300: $GPZDA,224229.00,01,12,2017,00,00*6D
2017-12-01 17:42:28 1512168148.406475: $GPGGA,224229,3946.9730,N,08404.9839,W,2,12,0.80,297.04,M,-33.325,M,,*72
2017-12-01 17:42:28 1512168148.406541: $GPRMC,224229,A,3946.9730,N,08404.9839,W,0.0000,0.000,011217,,*30
2017-12-01 17:42:28 1512168148.406602: $GPGSA,A,3,1,3,10,14,22,25,26,31,32,16,29,138,2.0,0.8,1.5*0C
2017-12-01 17:42:29 1512168149.404651: $GPZDA,224230.00,01,12,2017,00,00*65
2017-12-01 17:42:29 1512168149.404822: $GPGGA,224230,3946.9730,N,08404.9839,W,2,12,0.80,297.04,M,-33.325,M,,*7A
2017-12-01 17:42:29 1512168149.404890: $GPRMC,224230,A,3946.9730,N,08404.9839,W,0.0000,0.000,011217,,*38
2017-12-01 17:42:29 1512168149.404950: $GPGSA,A,3,1,3,10,14,22,25,26,31,32,16,29,138,2.0,0.8,1.5*0C
2017-12-01 17:42:30 1512168150.738844: $GPGSV,3,1,12,01,15,268,44,03,27,313,44,10,14,157,42,14,67,058,41*7B
2017-12-01 17:42:30 1512168150.739027: $GPGSV,3,2,12,22,44,295,48,25,31,051,42,26,33,177,44,31,79,327,46*73
2017-12-01 17:42:30 1512168150.739095: $GPGSV,3,3,12,32,50,088,45,16,05,190,30,29,03,088,34,138,38,213,45*49
2017-12-01 17:42:30 1512168150.852982: $GPZDA,224231.00,01,12,2017,00,00*64
2017-12-01 17:42:30 1512168150.853107: $GPGGA,224231,3946.9730,N,08404.9839,W,2,12,0.80,297.04,M,-33.325,M,,*7B
2017-12-01 17:42:30 1512168150.853191: $GPRMC,224231,A,3946.9730,N,08404.9839,W,0.0000,0.000,011217,,*39
2017-12-01 17:42:30 1512168150.853252: $GPGSA,A,3,1,3,10,14,22,25,26,31,32,16,29,138,2.0,0.8,1.5*0C
