2017-11-15 19:30:28 1510792228.846400: {"class":"VERSION","release":"3.17","rev":"3.17","proto_major":3,"proto_minor":12}
2017-11-15 19:30:28 1510792228.847186: {"class":"DEVICES","devices":[{"class":"DEVICE","path":"/dev/ttyUSB0","driver":"SiRF","subtype":"9\u0006GSD4e_4.1.2-P1_RPATCH.05-F-GPS-4R-1510281 11/03/2015 307","activated":"2017-11-16T00:30:28.487Z","flags":1,"native":1,"bps":4800,"parity":"N","stopbits":1,"cycle":1.00}]}
2017-11-15 19:30:28 1510792228.847359: {"class":"WATCH","enable":true,"json":false,"nmea":true,"raw":0,"scaled":false,"timing":false,"split24":false,"pps":false}
2017-11-15 19:30:29 1510792229.330225: $GPZDA,003028.00,16,11,2017,00,00*6C
2017-11-15 19:30:29 1510792229.330392: $GPGGA,003028,3946.9542,N,08404.9507,W,1,06,1.40,279.58,M,-33.324,M,,*72
2017-11-15 19:30:29 1510792229.330456: $GPRMC,003028,A,3946.9542,N,08404.9507,W,1.0269,4.197,161117,,*31
2017-11-15 19:30:29 1510792229.330512: $GPGSA,A,3,32,16,26,3,23,22,,,,,,,3.4,1.4,2.9*0B
2017-11-15 19:30:30 1510792230.681031: $GPGSV,3,1,11,32,36,108,23,01,05,252,12,16,23,190,17,26,53,172,09*72
2017-11-15 19:30:30 1510792230.681209: $GPGSV,3,2,11,29,11,070,05,31,67,025,00,03,40,298,21,14,55,093,00*7D
2017-11-15 19:30:30 1510792230.681269: $GPGSV,3,3,11,23,11,301,15,25,17,040,00,22,50,270,22*4B
2017-11-15 19:30:30 1510792230.794326: $GPZDA,003029.00,16,11,2017,00,00*6D
2017-11-15 19:30:30 1510792230.794488: $GPGGA,003029,3946.9545,N,08404.9507,W,1,07,1.40,278.82,M,-33.324,M,,*73
2017-11-15 19:30:30 1510792230.794551: $GPRMC,003029,A,3946.9545,N,08404.9507,W,1.0018,50.691,161117,,*03
2017-11-15 19:30:30 1510792230.794608: $GPGSA,A,3,32,1,16,26,3,23,22,,,,,,3.4,1.4,2.9*3A
2017-11-15 19:30:31 1510792231.419738: $GPZDA,003030.00,16,11,2017,00,00*65
2017-11-15 19:30:31 1510792231.419909: $GPGGA,003030,3946.9549,N,08404.9500,W,1,07,1.40,279.54,M,-33.324,M,,*7A
2017-11-15 19:30:31 1510792231.419972: $GPRMC,003030,A,3946.9549,N,08404.9500,W,0.8054,68.645,161117,,*03
2017-11-15 19:30:31 1510792231.420029: $GPGSA,A,3,32,1,16,26,3,23,22,,,,,,3.4,1.4,2.9*3A
2017-11-15 19:30:32 1510792232.329325: $GPZDA,003031.00,16,11,2017,00,00*64
2017-11-15 19:30:32 1510792232.329502: $GPGGA,003031,3946.9549,N,08404.9500,W,1,07,1.40,279.54,M,-33.324,M,,*7B
2017-11-15 19:30:32 1510792232.329565: $GPRMC,003031,A,3946.9549,N,08404.9500,W,0.7267,93.794,161117,,*06
2017-11-15 19:30:32 1510792232.329621: $GPGSA,A,3,32,1,16,26,3,23,22,,,,,,3.4,1.4,2.9*3A
2017-11-15 19:30:33 1510792233.665134: $GPGSV,3,1,11,32,36,108,24,01,05,252,08,16,23,190,14,26,53,172,09*7D
2017-11-15 19:30:33 1510792233.665311: $GPGSV,3,2,11,29,11,070,04,31,67,025,11,03,40,298,21,14,55,093,00*7C
2017-11-15 19:30:33 1510792233.665372: $GPGSV,3,3,11,23,11,301,15,25,17,040,00,22,50,270,22*4B
2017-11-15 19:30:33 1510792233.778509: $GPZDA,003032.00,16,11,2017,00,00*67
2017-11-15 19:30:33 1510792233.778684: $GPGGA,003032,3946.9549,N,08404.9500,W,1,07,1.40,279.54,M,-33.324,M,,*78
2017-11-15 19:30:33 1510792233.778747: $GPRMC,003032,A,3946.9549,N,08404.9500,W,0.5306,114.352,161117,,*31
2017-11-15 19:30:33 1510792233.778805: $GPGSA,A,3,32,1,16,26,3,23,22,,,,,,3.4,1.4,2.9*3A
2017-11-15 19:30:34 1510792234.329411: $GPZDA,003033.00,16,11,2017,00,00*66
2017-11-15 19:30:34 1510792234.329578: $GPGGA,003033,3946.9549,N,08404.9500,W,1,07,1.40,279.54,M,-33.324,M,,*79
2017-11-15 19:30:34 1510792234.329641: $GPRMC,003033,A,3946.9549,N,08404.9500,W,0.9066,129.458,161117,,*3A
2017-11-15 19:30:34 1510792234.329700: $GPGSA,A,3,32,1,16,26,3,23,22,,,,,,3.4,1.4,2.9*3A
2017-11-15 19:30:35 1510792235.350539: $GPZDA,003034.00,16,11,2017,00,00*61
2017-11-15 19:30:35 1510792235.350702: $GPGGA,003034,3946.9549,N,08404.9500,W,1,07,1.40,279.54,M,-33.324,M,,*7E
2017-11-15 19:30:35 1510792235.350764: $GPRMC,003034,A,3946.9549,N,08404.9500,W,0.4844,93.794,161117,,*0B
2017-11-15 19:30:35 1510792235.350820: $GPGSA,A,3,32,1,16,26,3,23,22,,,,,,3.4,1.4,2.9*3A
2017-11-15 19:30:36 1510792236.683029: $GPGSV,3,1,11,32,36,108,24,01,05,252,08,16,23,190,14,26,53,172,09*7D
2017-11-15 19:30:36 1510792236.683202: $GPGSV,3,2,11,29,11,070,11,31,67,025,18,03,40,298,21,14,55,093,00*71
2017-11-15 19:30:36 1510792236.683313: $GPGSV,3,3,11,23,11,301,14,25,17,040,00,22,50,270,22*4A
2017-11-15 19:30:36 1510792236.796699: $GPZDA,003035.00,16,11,2017,00,00*60
2017-11-15 19:30:36 1510792236.796915: $GPGGA,003035,3946.9549,N,08404.9500,W,1,08,1.20,279.54,M,-33.324,M,,*76
2017-11-15 19:30:36 1510792236.796982: $GPRMC,003035,A,3946.9549,N,08404.9500,W,0.7267,93.794,161117,,*02
2017-11-15 19:30:36 1510792236.797043: $GPGSA,A,3,32,1,16,26,29,3,23,22,,,,,3.4,1.2,2.9*37
2017-11-15 19:30:37 1510792237.347339: $GPZDA,003036.00,16,11,2017,00,00*63
2017-11-15 19:30:37 1510792237.347511: $GPGGA,003036,3946.9549,N,08404.9500,W,1,08,1.20,279.54,M,-33.324,M,,*75
2017-11-15 19:30:37 1510792237.347574: $GPRMC,003036,A,3946.9549,N,08404.9500,W,0.4844,93.794,161117,,*09
2017-11-15 19:30:37 1510792237.347631: $GPGSA,A,3,32,1,16,26,29,3,23,22,,,,,3.4,1.2,2.9*37
2017-11-15 19:30:38 1510792238.347259: $GPZDA,003037.00,16,11,2017,00,00*62
2017-11-15 19:30:38 1510792238.347440: $GPGGA,003037,3946.9549,N,08404.9500,W,1,08,1.20,279.54,M,-33.324,M,,*74
2017-11-15 19:30:38 1510792238.347504: $GPRMC,003037,A,3946.9549,N,08404.9500,W,0.1867,180.000,161117,,*35
2017-11-15 19:30:38 1510792238.347561: $GPGSA,A,3,32,1,16,26,29,3,23,22,,,,,3.4,1.2,2.9*37
