2017-11-16 15:53:01 1510865581.027182: {"class":"VERSION","release":"3.17","rev":"3.17","proto_major":3,"proto_minor":12}
2017-11-16 15:53:01 1510865581.027641: {"class":"DEVICES","devices":[{"class":"DEVICE","path":"/dev/ttyUSB0","driver":"SiRF","subtype":"9\u0006GSD4e_4.1.2-P1_RPATCH.05-F-GPS-4R-1510281 11/03/2015 307","activated":"2017-11-16T20:53:00.682Z","flags":1,"native":1,"bps":4800,"parity":"N","stopbits":1,"cycle":1.00}]}
2017-11-16 15:53:01 1510865581.027766: {"class":"WATCH","enable":true,"json":false,"nmea":true,"raw":0,"scaled":false,"timing":false,"split24":false,"pps":false}
2017-11-16 15:53:01 1510865581.704256: $GPGSV,3,1,12,11,04,321,31,10,80,001,50,14,38,264,45,31,10,205,27*7D
2017-11-16 15:53:01 1510865581.704422: $GPGSV,3,2,12,18,60,115,48,25,12,133,27,21,16,177,38,24,35,049,50*7B
2017-11-16 15:53:01 1510865581.704482: $GPGSV,3,3,12,15,03,073,21,32,55,280,47,12,17,096,43,138,38,213,44*4E
2017-11-16 15:53:01 1510865581.817494: $GPZDA,205300.00,16,11,2017,00,00*61
2017-11-16 15:53:01 1510865581.817645: $GPGGA,205300,3946.9582,N,08404.9844,W,2,12,1.20,308.11,M,-33.324,M,,*73
2017-11-16 15:53:01 1510865581.817705: $GPRMC,205300,A,3946.9582,N,08404.9844,W,0.0000,0.000,161117,,*3D
2017-11-16 15:53:01 1510865581.817760: $GPGSA,A,3,11,10,14,31,18,25,21,24,15,32,12,138,1.6,1.2,1.3*05
2017-11-16 15:53:02 1510865582.383554: $GPZDA,205301.00,16,11,2017,00,00*60
2017-11-16 15:53:02 1510865582.383727: $GPGGA,205301,3946.9582,N,08404.9844,W,2,12,1.20,308.11,M,-33.324,M,,*72
2017-11-16 15:53:02 1510865582.383790: $GPRMC,205301,A,3946.9582,N,08404.9844,W,0.0000,0.000,161117,,*3C
2017-11-16 15:53:02 1510865582.383846: $GPGSA,A,3,11,10,14,31,18,25,21,24,15,32,12,138,1.6,1.2,1.3*05
2017-11-16 15:53:03 1510865583.383083: $GPZDA,205302.00,16,11,2017,00,00*63
2017-11-16 15:53:03 1510865583.383250: $GPGGA,205302,3946.9582,N,08404.9844,W,2,12,1.20,308.11,M,-33.324,M,,*71
2017-11-16 15:53:03 1510865583.383311: $GPRMC,205302,A,3946.9582,N,08404.9844,W,0.0000,0.000,161117,,*3F
2017-11-16 15:53:03 1510865583.383367: $GPGSA,A,3,11,10,14,31,18,25,21,24,15,32,12,138,1.6,1.2,1.3*05
2017-11-16 15:53:04 1510865584.702615: $GPGSV,3,1,12,11,04,321,31,10,80,001,50,14,38,264,45,31,10,205,27*7D
2017-11-16 15:53:04 1510865584.702786: $GPGSV,3,2,12,18,60,115,48,25,12,133,28,21,16,177,38,24,35,049,50*74
2017-11-16 15:53:04 1510865584.702847: $GPGSV,3,3,12,15,03,073,22,32,55,280,48,12,17,096,43,138,38,213,44*42
2017-11-16 15:53:04 1510865584.815924: $GPZDA,205303.00,16,11,2017,00,00*62
2017-11-16 15:53:04 1510865584.816077: $GPGGA,205303,3946.9582,N,08404.9844,W,2,12,1.20,308.11,M,-33.324,M,,*70
2017-11-16 15:53:04 1510865584.816138: $GPRMC,205303,A,3946.9582,N,08404.9844,W,0.0000,0.000,161117,,*3E
2017-11-16 15:53:04 1510865584.816193: $GPGSA,A,3,11,10,14,31,18,25,21,24,15,32,12,138,1.6,1.2,1.3*05
2017-11-16 15:53:05 1510865585.368156: $GPZDA,205304.00,16,11,2017,00,00*65
2017-11-16 15:53:05 1510865585.368318: $GPGGA,205304,3946.9582,N,08404.9844,W,2,12,1.20,308.11,M,-33.324,M,,*77
2017-11-16 15:53:05 1510865585.368378: $GPRMC,205304,A,3946.9582,N,08404.9844,W,0.0000,0.000,161117,,*39
2017-11-16 15:53:05 1510865585.368434: $GPGSA,A,3,11,10,14,31,18,25,21,24,15,32,12,138,1.6,1.2,1.3*05
2017-11-16 15:53:06 1510865586.366290: $GPZDA,205305.00,16,11,2017,00,00*64
2017-11-16 15:53:06 1510865586.366459: $GPGGA,205305,3946.9582,N,08404.9844,W,2,12,1.20,308.11,M,-33.324,M,,*76
2017-11-16 15:53:06 1510865586.366521: $GPRMC,205305,A,3946.9582,N,08404.9844,W,0.0000,0.000,161117,,*38
2017-11-16 15:53:06 1510865586.366577: $GPGSA,A,3,11,10,14,31,18,25,21,24,15,32,12,138,1.6,1.2,1.3*05
2017-11-16 15:53:07 1510865587.704220: $GPGSV,3,1,12,11,04,321,31,10,80,001,50,14,38,264,45,31,10,205,28*72
2017-11-16 15:53:07 1510865587.705920: $GPGSV,3,2,12,18,60,115,48,25,12,133,29,21,16,177,39,24,35,049,50*74
2017-11-16 15:53:07 1510865587.706006: $GPGSV,3,3,12,15,03,073,23,32,55,280,48,12,17,096,44,138,38,213,44*44
2017-11-16 15:53:07 1510865587.817584: $GPZDA,205306.00,16,11,2017,00,00*67
2017-11-16 15:53:07 1510865587.817742: $GPGGA,205306,3946.9582,N,08404.9844,W,2,12,1.20,308.11,M,-33.324,M,,*75
2017-11-16 15:53:07 1510865587.817855: $GPRMC,205306,A,3946.9582,N,08404.9844,W,0.0000,0.000,161117,,*3B
2017-11-16 15:53:07 1510865587.817913: $GPGSA,A,3,11,10,14,31,18,25,21,24,15,32,12,138,1.6,1.2,1.3*05
2017-11-16 15:53:08 1510865588.359660: $GPZDA,205307.00,16,11,2017,00,00*66
2017-11-16 15:53:08 1510865588.359830: $GPGGA,205307,3946.9582,N,08404.9844,W,2,12,1.20,308.11,M,-33.324,M,,*74
2017-11-16 15:53:08 1510865588.359891: $GPRMC,205307,A,3946.9582,N,08404.9844,W,0.0000,0.000,161117,,*3A
2017-11-16 15:53:08 1510865588.359947: $GPGSA,A,3,11,10,14,31,18,25,21,24,15,32,12,138,1.6,1.2,1.3*05
2017-11-16 15:53:09 1510865589.366791: $GPZDA,205308.00,16,11,2017,00,00*69
2017-11-16 15:53:09 1510865589.366957: $GPGGA,205308,3946.9582,N,08404.9844,W,2,12,1.20,308.11,M,-33.324,M,,*7B
2017-11-16 15:53:09 1510865589.367018: $GPRMC,205308,A,3946.9582,N,08404.9844,W,0.0000,0.000,161117,,*35
2017-11-16 15:53:09 1510865589.367074: $GPGSA,A,3,11,10,14,31,18,25,21,24,15,32,12,138,1.6,1.2,1.3*05
2017-11-16 15:53:10 1510865590.717573: $GPGSV,3,1,12,11,04,321,32,10,80,001,51,14,38,264,45,31,10,205,28*70
2017-11-16 15:53:10 1510865590.717757: $GPGSV,3,2,12,18,60,115,48,25,12,133,30,21,16,177,39,24,35,049,51*7D
2017-11-16 15:53:10 1510865590.717819: $GPGSV,3,3,12,15,03,073,24,32,55,280,48,12,17,096,44,138,38,213,44*43
2017-11-16 15:53:10 1510865590.831001: $GPZDA,205309.00,16,11,2017,00,00*68
2017-11-16 15:53:10 1510865590.831168: $GPGGA,205309,3946.9582,N,08404.9844,W,2,12,1.20,308.11,M,-33.324,M,,*7A
2017-11-16 15:53:10 1510865590.831230: $GPRMC,205309,A,3946.9582,N,08404.9844,W,0.0000,0.000,161117,,*34
2017-11-16 15:53:10 1510865590.831286: $GPGSA,A,3,11,10,14,31,18,25,21,24,15,32,12,138,1.6,1.2,1.3*05
