2017-12-01 16:29:58 1512163798.566194: {"class":"VERSION","release":"3.16","rev":"3.16-4","proto_major":3,"proto_minor":11}
2017-12-01 16:29:58 1512163798.566948: {"class":"DEVICES","devices":[{"class":"DEVICE","path":"/dev/ttyUSB0","driver":"SiRF","subtype":"9\u0006GSD4e_4.1.2-P1_RPATCH.05-F-GPS-4R-1510281 11/03/2015 307","activated":"2017-12-01T21:29:58.373Z","flags":1,"native":1,"bps":4800,"parity":"N","stopbits":1,"cycle":1.00}]}
2017-12-01 16:29:58 1512163798.567156: {"class":"WATCH","enable":true,"json":false,"nmea":true,"raw":0,"scaled":false,"timing":false,"split24":false,"pps":false}
2017-12-01 16:29:58 1512163798.978867: $GPZDA,212959.64,01,12,2017,00,00*66
2017-12-01 16:29:58 1512163798.979056: $GPGGA,212959,3946.9634,N,08404.9743,W,1,11,1.80,299.72,M,-33.324,M,,*73
2017-12-01 16:29:58 1512163798.979124: $GPRMC,212959,A,3946.9634,N,08404.9743,W,0.6248,157.245,011217,,*36
2017-12-01 16:29:58 1512163798.979186: $GPGSA,A,3,1,10,11,14,22,31,32,25,12,26,138,,2.0,1.8,1.5*31
2017-12-01 16:29:58 1512163798.979244: $GPGBS,212959,10.70,M,15.43,M,35.28,M*03
2017-12-01 16:30:00 1512163800.082771: $GPZDA,213000.32,01,12,2017,00,00*61
2017-12-01 16:30:00 1512163800.082974: $GPGGA,213000,3946.9634,N,08404.9743,W,1,11,1.80,299.72,M,-33.324,M,,*77
2017-12-01 16:30:00 1512163800.083043: $GPRMC,213000,A,3946.9634,N,08404.9743,W,0.1867,180.000,011217,,*3B
2017-12-01 16:30:00 1512163800.083104: $GPGSA,A,3,1,10,11,14,22,31,32,25,12,26,138,,2.0,1.8,1.5*31
2017-12-01 16:30:01 1512163801.247890: $GPGSV,3,1,12,01,21,300,44,10,48,148,44,11,08,282,38,14,66,327,45*70
2017-12-01 16:30:01 1512163801.248084: $GPGSV,3,2,12,22,19,312,41,31,56,225,49,32,68,028,49,18,18,144,06*70
2017-12-01 16:30:01 1512163801.248151: $GPGSV,3,3,12,25,40,090,09,26,02,183,09,12,22,049,00,138,38,213,00*43
2017-12-01 16:30:01 1512163801.361234: $GPZDA,213001.00,01,12,2017,00,00*61
2017-12-01 16:30:01 1512163801.361430: $GPGGA,213001,3946.9637,N,08404.9735,W,1,07,1.80,299.03,M,-33.324,M,,*75
2017-12-01 16:30:01 1512163801.361506: $GPRMC,213001,A,3946.9637,N,08404.9735,W,0.3734,180.000,011217,,*33
2017-12-01 16:30:01 1512163801.361568: $GPGSA,A,3,1,10,11,14,22,31,32,,,,,,2.0,1.8,1.5*0B
2017-12-01 16:30:01 1512163801.813408: $GPZDA,213002.00,01,12,2017,00,00*62
2017-12-01 16:30:01 1512163801.813598: $GPGGA,213002,3946.9637,N,08404.9735,W,1,07,1.20,299.03,M,-33.324,M,,*7C
2017-12-01 16:30:01 1512163801.813665: $GPRMC,213002,A,3946.9637,N,08404.9735,W,0.2710,100.223,011217,,*3C
2017-12-01 16:30:01 1512163801.813726: $GPGSA,A,3,1,10,11,14,22,31,32,,,,,,2.0,1.2,1.5*01
2017-12-01 16:30:02 1512163802.371829: $GPZDA,213003.00,01,12,2017,00,00*63
2017-12-01 16:30:02 1512163802.372016: $GPGGA,213003,3946.9640,N,08404.9734,W,1,07,1.20,298.27,M,-33.324,M,,*7B
2017-12-01 16:30:02 1512163802.372084: $GPRMC,213003,A,3946.9640,N,08404.9734,W,0.0000,0.000,011217,,*3A
2017-12-01 16:30:02 1512163802.372146: $GPGSA,A,3,1,10,11,14,22,31,32,,,,,,2.0,1.2,1.5*01
2017-12-01 16:30:03 1512163803.706981: $GPGSV,3,1,12,01,21,300,44,10,48,148,45,11,08,282,39,14,66,327,45*70
2017-12-01 16:30:03 1512163803.709393: $GPGSV,3,2,12,22,19,312,41,31,56,225,50,32,68,028,49,18,18,144,16*79
2017-12-01 16:30:03 1512163803.709501: $GPGSV,3,3,12,25,40,090,31,26,02,183,30,12,22,049,00,138,38,213,42*44
2017-12-01 16:30:03 1512163803.820482: $GPZDA,213004.00,01,12,2017,00,00*64
2017-12-01 16:30:03 1512163803.820657: $GPGGA,213004,3946.9640,N,08404.9734,W,1,11,1.20,298.27,M,-33.324,M,,*7B
2017-12-01 16:30:03 1512163803.820724: $GPRMC,213004,A,3946.9640,N,08404.9734,W,0.0000,0.000,011217,,*3D
2017-12-01 16:30:03 1512163803.820812: $GPGSA,A,3,1,10,11,14,22,31,32,18,25,26,138,,2.0,1.2,1.5*31
2017-12-01 16:30:04 1512163804.368965: $GPRMC,213005,V,3946.9640,N,08404.9734,W,0.4207,219.347,011217,,*20
2017-12-01 16:30:04 1512163804.369120: $GPGSA,A,1,1,10,11,14,22,31,32,18,25,26,138,,,,,*34
2017-12-01 16:30:05 1512163805.369825: $GPRMC,213006,V,3946.9640,N,08404.9734,W,0.1867,180.000,011217,,*29
2017-12-01 16:30:05 1512163805.370137: $GPGSA,A,1,1,10,11,14,22,31,32,18,25,26,138,,,,,*34
2017-12-01 16:30:06 1512163806.706519: $GPGSV,3,1,12,01,21,300,44,10,48,148,44,11,08,282,40,14,66,327,44*7E
2017-12-01 16:30:06 1512163806.706703: $GPGSV,3,2,12,22,19,312,40,31,56,225,49,32,68,028,49,18,18,144,14*72
2017-12-01 16:30:06 1512163806.706790: $GPGSV,3,3,12,25,40,090,30,26,02,183,30,12,22,049,00,138,38,213,39*49
2017-12-01 16:30:06 1512163806.819934: $GPZDA,213007.00,01,12,2017,00,00*67
2017-12-01 16:30:06 1512163806.820099: $GPGGA,213007,3946.9640,N,08404.9734,W,1,10,1.20,296.87,M,-33.324,M,,*7D
2017-12-01 16:30:06 1512163806.820165: $GPRMC,213007,A,3946.9640,N,08404.9734,W,0.0000,0.000,011217,,*3E
2017-12-01 16:30:06 1512163806.820226: $GPGSA,A,3,1,10,11,14,22,31,32,25,26,138,,,2.0,1.2,1.5*38
2017-12-01 16:30:06 1512163806.820284: $GPGBS,213007,10.70,M,15.43,M,35.28,M*00
2017-12-01 16:30:07 1512163807.370730: $GPZDA,213008.00,01,12,2017,00,00*68
2017-12-01 16:30:07 1512163807.370956: $GPGGA,213008,3946.9643,N,08404.9726,W,1,10,1.20,296.18,M,-33.324,M,,*74
2017-12-01 16:30:07 1512163807.371024: $GPRMC,213008,A,3946.9643,N,08404.9726,W,0.0000,0.000,011217,,*31
2017-12-01 16:30:07 1512163807.371085: $GPGSA,A,3,1,10,11,14,22,31,32,25,26,138,,,2.0,1.2,1.5*38
2017-12-01 16:30:07 1512163807.371143: $GPGBS,213008,10.70,M,15.43,M,35.28,M*0F
2017-12-01 16:30:08 1512163808.376435: $GPZDA,213009.00,01,12,2017,00,00*69
2017-12-01 16:30:08 1512163808.376609: $GPGGA,213009,3946.9643,N,08404.9726,W,1,10,1.20,296.18,M,-33.324,M,,*75
2017-12-01 16:30:08 1512163808.376676: $GPRMC,213009,A,3946.9643,N,08404.9726,W,0.0000,0.000,011217,,*30
2017-12-01 16:30:08 1512163808.376737: $GPGSA,A,3,1,10,11,14,22,31,32,25,26,138,,,2.0,1.2,1.5*38
2017-12-01 16:30:08 1512163808.376833: $GPGBS,213009,10.70,M,15.43,M,35.28,M*0E
2017-12-01 16:30:09 1512163809.709418: $GPGSV,3,1,11,01,21,300,44,10,48,148,44,11,08,282,40,14,66,327,44*7D
2017-12-01 16:30:09 1512163809.709625: $GPGSV,3,2,11,22,19,312,40,31,56,225,49,32,68,028,49,25,40,090,30*7C
2017-12-01 16:30:09 1512163809.709695: $GPGSV,3,3,11,26,02,183,30,12,22,049,00,138,38,213,39*73
2017-12-01 16:30:09 1512163809.822943: $GPZDA,213010.00,01,12,2017,00,00*61
2017-12-01 16:30:09 1512163809.823250: $GPGGA,213010,3946.9646,N,08404.9725,W,1,10,1.20,295.42,M,-33.324,M,,*77
2017-12-01 16:30:09 1512163809.823378: $GPRMC,213010,A,3946.9646,N,08404.9725,W,0.0000,0.000,011217,,*3E
2017-12-01 16:30:09 1512163809.823497: $GPGSA,A,3,1,10,11,14,22,31,32,25,26,138,,,2.0,1.2,1.5*38
2017-12-01 16:30:10 1512163810.372918: $GPZDA,213011.00,01,12,2017,00,00*60
2017-12-01 16:30:10 1512163810.373085: $GPGGA,213011,3946.9659,N,08404.9709,W,2,10,1.20,292.52,M,-33.324,M,,*73
2017-12-01 16:30:10 1512163810.373150: $GPRMC,213011,A,3946.9659,N,08404.9709,W,0.0000,0.000,011217,,*3F
2017-12-01 16:30:10 1512163810.373212: $GPGSA,A,3,1,10,11,14,22,31,32,25,26,138,,,2.0,1.2,1.5*38
2017-12-01 16:30:11 1512163811.374923: $GPZDA,213012.00,01,12,2017,00,00*63
2017-12-01 16:30:11 1512163811.375095: $GPGGA,213012,3946.9659,N,08404.9709,W,2,10,1.00,292.52,M,-33.324,M,,*72
2017-12-01 16:30:11 1512163811.375162: $GPRMC,213012,A,3946.9659,N,08404.9709,W,0.0000,0.000,011217,,*3C
2017-12-01 16:30:11 1512163811.375223: $GPGSA,A,3,1,10,11,14,22,31,32,25,26,138,,,2.0,1.0,1.5*3A
2017-12-01 16:30:12 1512163812.707851: $GPGSV,3,1,11,01,21,300,44,10,48,148,44,11,08,282,39,14,66,327,44*73
2017-12-01 16:30:12 1512163812.708174: $GPGSV,3,2,11,22,19,312,40,31,56,225,49,32,68,028,48,25,40,090,30*7D
2017-12-01 16:30:12 1512163812.708298: $GPGSV,3,3,11,26,02,183,31,12,22,049,24,138,38,213,38*75
2017-12-01 16:30:12 1512163812.821083: $GPZDA,213013.00,01,12,2017,00,00*62
2017-12-01 16:30:12 1512163812.821256: $GPGGA,213013,3946.9659,N,08404.9709,W,2,11,1.00,292.52,M,-33.324,M,,*72
2017-12-01 16:30:12 1512163812.821325: $GPRMC,213013,A,3946.9659,N,08404.9709,W,0.0000,0.000,011217,,*3D
2017-12-01 16:30:12 1512163812.821444: $GPGSA,A,3,1,10,11,14,22,31,32,25,26,12,138,,2.0,1.0,1.5*39
2017-12-01 16:30:13 1512163813.446469: $GPZDA,213014.00,01,12,2017,00,00*65
2017-12-01 16:30:13 1512163813.446649: $GPGGA,213014,3946.9656,N,08404.9709,W,2,11,1.00,293.28,M,-33.324,M,,*76
2017-12-01 16:30:13 1512163813.446795: $GPRMC,213014,A,3946.9656,N,08404.9709,W,0.0000,0.000,011217,,*35
2017-12-01 16:30:13 1512163813.446861: $GPGSA,A,3,1,10,11,14,22,31,32,25,26,12,138,,2.0,1.0,1.5*39
2017-12-01 16:30:14 1512163814.373590: $GPZDA,213015.00,01,12,2017,00,00*64
2017-12-01 16:30:14 1512163814.373822: $GPGGA,213015,3946.9656,N,08404.9709,W,2,11,1.00,293.28,M,-33.324,M,,*77
2017-12-01 16:30:14 1512163814.373910: $GPRMC,213015,A,3946.9656,N,08404.9709,W,0.0000,0.000,011217,,*34
2017-12-01 16:30:14 1512163814.373973: $GPGSA,A,3,1,10,11,14,22,31,32,25,26,12,138,,2.0,1.0,1.5*39
2017-12-01 16:30:15 1512163815.709383: $GPGSV,3,1,11,01,21,300,43,10,48,148,44,11,08,282,39,14,66,327,44*74
2017-12-01 16:30:15 1512163815.709571: $GPGSV,3,2,11,22,19,312,40,31,56,225,49,32,68,028,48,25,40,090,31*7C
2017-12-01 16:30:15 1512163815.709639: $GPGSV,3,3,11,26,02,183,31,12,22,049,22,138,38,213,40*7C
2017-12-01 16:30:15 1512163815.823033: $GPZDA,213016.00,01,12,2017,00,00*67
2017-12-01 16:30:15 1512163815.823172: $GPGGA,213016,3946.9656,N,08404.9709,W,2,11,1.00,293.28,M,-33.324,M,,*74
2017-12-01 16:30:15 1512163815.823238: $GPRMC,213016,A,3946.9656,N,08404.9709,W,0.0000,0.000,011217,,*37
2017-12-01 16:30:15 1512163815.823299: $GPGSA,A,3,1,10,11,14,22,31,32,25,26,12,138,,2.0,1.0,1.5*39
2017-12-01 16:30:16 1512163816.375200: $GPZDA,213017.00,01,12,2017,00,00*66
2017-12-01 16:30:16 1512163816.375369: $GPGGA,213017,3946.9656,N,08404.9709,W,2,11,1.00,293.28,M,-33.324,M,,*75
2017-12-01 16:30:16 1512163816.375436: $GPRMC,213017,A,3946.9656,N,08404.9709,W,0.0000,0.000,011217,,*36
2017-12-01 16:30:16 1512163816.375496: $GPGSA,A,3,1,10,11,14,22,31,32,25,26,12,138,,2.0,1.0,1.5*39
2017-12-01 16:30:17 1512163817.374684: $GPZDA,213018.00,01,12,2017,00,00*69
2017-12-01 16:30:17 1512163817.374840: $GPGGA,213018,3946.9656,N,08404.9709,W,2,11,1.00,293.28,M,-33.324,M,,*7A
2017-12-01 16:30:17 1512163817.374906: $GPRMC,213018,A,3946.9656,N,08404.9709,W,0.0000,0.000,011217,,*39
2017-12-01 16:30:17 1512163817.374967: $GPGSA,A,3,1,10,11,14,22,31,32,25,26,12,138,,2.0,1.0,1.5*39
2017-12-01 16:30:17 1512163817.375026: $GPGBS,213018,2.67,M,3.86,M,8.82,M*3B
