2017-12-01 11:36:06 1512146166.116733: {"class":"VERSION","release":"3.16","rev":"3.16-4","proto_major":3,"proto_minor":11}
2017-12-01 11:36:06 1512146166.117138: {"class":"DEVICES","devices":[{"class":"DEVICE","path":"/dev/ttyUSB0","driver":"SiRF","subtype":"9\u0006GSD4e_4.1.2-P1_RPATCH.05-F-GPS-4R-1510281 11/03/2015 307","activated":"2017-12-01T16:36:05.566Z","flags":1,"native":1,"bps":4800,"parity":"N","stopbits":1,"cycle":1.00}]}
2017-12-01 11:36:06 1512146166.117263: {"class":"WATCH","enable":true,"json":false,"nmea":true,"raw":0,"scaled":false,"timing":false,"split24":false,"pps":false}
2017-12-01 11:36:06 1512146166.745658: $GPGSV,3,1,11,05,16,075,37,13,46,052,46,15,78,087,47,18,41,282,44*79
2017-12-01 11:36:06 1512146166.745842: $GPGSV,3,2,11,20,65,043,42,21,63,307,46,24,17,150,43,27,06,327,37*7A
2017-12-01 11:36:06 1512146166.745909: $GPGSV,3,3,11,29,28,196,46,10,10,270,30,138,38,213,46*71
2017-12-01 11:36:06 1512146166.859070: $GPZDA,163607.00,01,12,2017,00,00*65
2017-12-01 11:36:06 1512146166.859245: $GPGGA,163607,3946.9536,N,08404.9834,W,2,11,0.80,309.02,M,-33.324,M,,*71
2017-12-01 11:36:06 1512146166.859312: $GPRMC,163607,A,3946.9536,N,08404.9834,W,0.0000,0.000,011217,,*31
2017-12-01 11:36:06 1512146166.859374: $GPGSA,A,3,5,13,15,18,20,21,24,27,29,10,138,,2.0,0.8,1.5*34
2017-12-01 11:36:07 1512146167.412549: $GPZDA,163608.00,01,12,2017,00,00*6A
2017-12-01 11:36:07 1512146167.412721: $GPGGA,163608,3946.9536,N,08404.9834,W,2,11,0.80,309.02,M,-33.324,M,,*7E
2017-12-01 11:36:07 1512146167.412787: $GPRMC,163608,A,3946.9536,N,08404.9834,W,0.0000,0.000,011217,,*3E
2017-12-01 11:36:07 1512146167.412847: $GPGSA,A,3,5,13,15,18,20,21,24,27,29,10,138,,2.0,0.8,1.5*34
2017-12-01 11:36:08 1512146168.414660: $GPZDA,163609.00,01,12,2017,00,00*6B
2017-12-01 11:36:08 1512146168.414831: $GPGGA,163609,3946.9536,N,08404.9834,W,2,11,0.80,309.02,M,-33.324,M,,*7F
2017-12-01 11:36:08 1512146168.414898: $GPRMC,163609,A,3946.9536,N,08404.9834,W,0.0000,0.000,011217,,*3F
2017-12-01 11:36:08 1512146168.414960: $GPGSA,A,3,5,13,15,18,20,21,24,27,29,10,138,,2.0,0.8,1.5*34
2017-12-01 11:36:09 1512146169.750404: $GPGSV,3,1,11,05,16,075,37,13,46,052,46,15,78,087,47,18,41,282,44*79
2017-12-01 11:36:09 1512146169.750585: $GPGSV,3,2,11,20,65,043,43,21,63,307,46,24,17,150,43,27,06,327,37*7B
2017-12-01 11:36:09 1512146169.750651: $GPGSV,3,3,11,29,28,196,46,10,10,270,31,138,38,213,46*70
2017-12-01 11:36:09 1512146169.864210: $GPZDA,163610.00,01,12,2017,00,00*63
2017-12-01 11:36:09 1512146169.864376: $GPGGA,163610,3946.9536,N,08404.9834,W,2,11,0.80,309.02,M,-33.324,M,,*77
2017-12-01 11:36:09 1512146169.864443: $GPRMC,163610,A,3946.9536,N,08404.9834,W,0.0000,0.000,011217,,*37
2017-12-01 11:36:09 1512146169.864504: $GPGSA,A,3,5,13,15,18,20,21,24,27,29,10,138,,2.0,0.8,1.5*34
2017-12-01 11:36:10 1512146170.846530: $GPZDA,163611.00,01,12,2017,00,00*62
2017-12-01 11:36:10 1512146170.846697: $GPGGA,163611,3946.9536,N,08404.9834,W,2,11,1.00,309.02,M,-33.324,M,,*7F
2017-12-01 11:36:10 1512146170.846764: $GPRMC,163611,A,3946.9536,N,08404.9834,W,0.0000,0.000,011217,,*36
2017-12-01 11:36:10 1512146170.846825: $GPGSA,A,3,5,13,15,18,20,21,24,27,29,10,138,,2.0,1.0,1.5*3D
2017-12-01 11:36:10 1512146170.846884: $GPGBS,163611,2.67,M,3.86,M,8.82,M*30
2017-12-01 11:36:11 1512146171.470425: $GPZDA,163612.00,01,12,2017,00,00*61
2017-12-01 11:36:11 1512146171.470595: $GPGGA,163612,3946.9540,N,08404.9828,W,2,11,0.80,311.14,M,-33.324,M,,*77
2017-12-01 11:36:11 1512146171.470662: $GPRMC,163612,A,3946.9540,N,08404.9828,W,0.0000,0.000,011217,,*39
2017-12-01 11:36:11 1512146171.470724: $GPGSA,A,3,5,13,15,18,20,21,24,27,29,10,138,,2.0,0.8,1.5*34
2017-12-01 11:36:12 1512146172.772213: $GPGSV,3,1,11,05,16,075,36,13,46,052,46,15,77,085,47,18,41,282,44*75
2017-12-01 11:36:12 1512146172.772393: $GPGSV,3,2,11,20,64,045,43,21,64,307,46,24,17,150,43,27,06,325,37*79
2017-12-01 11:36:12 1512146172.772460: $GPGSV,3,3,11,29,27,196,47,10,11,270,32,138,38,213,46*7C
2017-12-01 11:36:12 1512146172.885844: $GPZDA,163613.00,01,12,2017,00,00*60
2017-12-01 11:36:12 1512146172.886003: $GPGGA,163613,3946.9540,N,08404.9828,W,2,11,0.80,311.14,M,-33.324,M,,*76
2017-12-01 11:36:12 1512146172.886134: $GPRMC,163613,A,3946.9540,N,08404.9828,W,0.0000,0.000,011217,,*38
2017-12-01 11:36:12 1512146172.886198: $GPGSA,A,3,5,13,15,18,20,21,24,27,29,10,138,,2.0,0.8,1.5*34
2017-12-01 11:36:13 1512146173.437892: $GPZDA,163614.00,01,12,2017,00,00*67
2017-12-01 11:36:13 1512146173.438063: $GPGGA,163614,3946.9540,N,08404.9828,W,2,11,0.80,311.14,M,-33.324,M,,*71
2017-12-01 11:36:13 1512146173.438130: $GPRMC,163614,A,3946.9540,N,08404.9828,W,0.0000,0.000,011217,,*3F
2017-12-01 11:36:13 1512146173.438190: $GPGSA,A,3,5,13,15,18,20,21,24,27,29,10,138,,2.0,0.8,1.5*34
2017-12-01 11:36:14 1512146174.416277: $GPZDA,163615.00,01,12,2017,00,00*66
2017-12-01 11:36:14 1512146174.416449: $GPGGA,163615,3946.9540,N,08404.9828,W,2,11,0.80,311.14,M,-33.324,M,,*70
2017-12-01 11:36:14 1512146174.416517: $GPRMC,163615,A,3946.9540,N,08404.9828,W,0.0000,0.000,011217,,*3E
2017-12-01 11:36:14 1512146174.416577: $GPGSA,A,3,5,13,15,18,20,21,24,27,29,10,138,,2.0,0.8,1.5*34
2017-12-01 11:36:15 1512146175.753728: $GPGSV,3,1,11,05,16,075,36,13,46,052,46,15,77,085,48,18,41,282,44*7A
2017-12-01 11:36:15 1512146175.753913: $GPGSV,3,2,11,20,64,045,43,21,64,307,46,24,17,150,43,27,06,325,37*79
2017-12-01 11:36:15 1512146175.753980: $GPGSV,3,3,11,29,27,196,46,10,11,270,28,138,38,213,46*76
2017-12-01 11:36:15 1512146175.867100: $GPZDA,163616.00,01,12,2017,00,00*65
2017-12-01 11:36:15 1512146175.867482: $GPGGA,163616,3946.9540,N,08404.9828,W,2,11,0.80,311.14,M,-33.324,M,,*73
2017-12-01 11:36:15 1512146175.868949: $GPRMC,163616,A,3946.9540,N,08404.9828,W,0.0000,0.000,011217,,*3D
2017-12-01 11:36:15 1512146175.869034: $GPGSA,A,3,5,13,15,18,20,21,24,27,29,10,138,,2.0,0.8,1.5*34
