2017-11-15 19:13:17 1510791197.334484: {"class":"VERSION","release":"3.17","rev":"3.17","proto_major":3,"proto_minor":12}
2017-11-15 19:13:17 1510791197.334906: {"class":"DEVICES","devices":[{"class":"DEVICE","path":"/dev/ttyUSB0","driver":"SiRF","subtype":"9\u0006GSD4e_4.1.2-P1_RPATCH.05-F-GPS-4R-1510281 11/03/2015 307","activated":"2017-11-16T00:13:17.331Z","flags":1,"native":1,"bps":4800,"parity":"N","stopbits":1,"cycle":1.00}]}
2017-11-15 19:13:17 1510791197.335044: {"class":"WATCH","enable":true,"json":false,"nmea":true,"raw":0,"scaled":false,"timing":false,"split24":false,"pps":false}
2017-11-15 19:13:18 1510791198.666068: $GPGSV,3,1,11,32,42,100,20,14,60,081,19,22,49,282,00,26,45,175,20*7C
2017-11-15 19:13:18 1510791198.666239: $GPGSV,3,2,11,31,73,009,21,16,15,190,09,03,35,306,20,01,10,258,00*7B
2017-11-15 19:13:18 1510791198.666300: $GPGSV,3,3,11,29,08,078,12,25,23,043,07,23,06,297,00*4B
2017-11-15 19:13:18 1510791198.779412: $GPZDA,001317.00,16,11,2017,00,00*61
2017-11-15 19:13:18 1510791198.779571: $GPGGA,001317,3946.9600,N,08404.9489,W,1,08,1.00,307.24,M,-33.324,M,,*74
2017-11-15 19:13:18 1510791198.779632: $GPRMC,001317,A,3946.9600,N,08404.9489,W,1.0298,74.382,161117,,*01
2017-11-15 19:13:18 1510791198.779687: $GPGSA,A,3,32,14,26,31,16,3,29,25,,,,,3.4,1.0,2.9*05
2017-11-15 19:13:19 1510791199.330179: $GPZDA,001318.00,16,11,2017,00,00*6E
2017-11-15 19:13:19 1510791199.330358: $GPGGA,001318,3946.9600,N,08404.9489,W,1,08,1.40,307.24,M,-33.324,M,,*7F
2017-11-15 19:13:19 1510791199.330424: $GPRMC,001318,A,3946.9600,N,08404.9489,W,1.2621,39.347,161117,,*0A
2017-11-15 19:13:19 1510791199.330482: $GPGSA,A,3,32,14,26,31,16,3,29,25,,,,,3.4,1.4,2.9*01
2017-11-15 19:13:20 1510791200.331140: $GPZDA,001319.00,16,11,2017,00,00*6F
2017-11-15 19:13:20 1510791200.331309: $GPGGA,001319,3946.9608,N,08404.9489,W,1,08,1.00,307.11,M,-33.324,M,,*74
2017-11-15 19:13:20 1510791200.331373: $GPRMC,001319,A,3946.9608,N,08404.9489,W,0.9929,32.499,161117,,*01
2017-11-15 19:13:20 1510791200.331433: $GPGSA,A,3,32,14,26,31,16,3,29,25,,,,,3.4,1.0,2.9*05
2017-11-15 19:13:21 1510791201.682636: $GPGSV,3,1,11,32,42,100,20,14,60,081,19,22,49,282,04,26,45,175,20*78
2017-11-15 19:13:21 1510791201.682818: $GPGSV,3,2,11,31,73,009,21,16,15,190,09,03,35,306,20,01,10,258,00*7B
2017-11-15 19:13:21 1510791201.682885: $GPGSV,3,3,11,29,08,078,13,25,23,043,06,23,06,297,00*4B
2017-11-15 19:13:21 1510791201.796032: $GPZDA,001320.00,16,11,2017,00,00*65
2017-11-15 19:13:21 1510791201.796196: $GPGGA,001320,3946.9607,N,08404.9482,W,1,08,1.00,307.19,M,-33.324,M,,*72
2017-11-15 19:13:21 1510791201.796262: $GPRMC,001320,A,3946.9607,N,08404.9482,W,1.1294,43.341,161117,,*0F
2017-11-15 19:13:21 1510791201.796320: $GPGSA,A,3,32,14,26,31,16,3,29,25,,,,,3.4,1.0,2.9*05
2017-11-15 19:13:22 1510791202.345529: $GPZDA,001321.00,16,11,2017,00,00*64
2017-11-15 19:13:22 1510791202.345693: $GPGGA,001321,3946.9607,N,08404.9482,W,1,08,1.00,307.19,M,-33.324,M,,*73
2017-11-15 19:13:22 1510791202.345758: $GPRMC,001321,A,3946.9607,N,08404.9482,W,1.4115,34.536,161117,,*07
2017-11-15 19:13:22 1510791202.345819: $GPGSA,A,3,32,14,26,31,16,3,29,25,,,,,3.4,1.0,2.9*05
2017-11-15 19:13:23 1510791203.330209: $GPZDA,001322.00,16,11,2017,00,00*67
2017-11-15 19:13:23 1510791203.330411: $GPGGA,001322,3946.9611,N,08404.9482,W,1,08,1.00,307.83,M,-33.324,M,,*74
2017-11-15 19:13:23 1510791203.336645: $GPRMC,001322,A,3946.9611,N,08404.9482,W,1.2132,3.552,161117,,*36
2017-11-15 19:13:23 1510791203.336947: $GPGSA,A,3,32,14,26,31,16,3,29,25,,,,,3.4,1.0,2.9*05
2017-11-15 19:13:24 1510791204.682235: $GPGSV,3,1,11,32,42,100,20,14,60,081,19,22,49,282,04,26,45,175,21*79
2017-11-15 19:13:24 1510791204.682381: $GPGSV,3,2,11,31,73,009,22,16,15,190,09,03,35,306,21,01,10,258,00*79
2017-11-15 19:13:24 1510791204.682443: $GPGSV,3,3,11,29,08,078,12,25,23,043,07,23,06,297,00*4B
2017-11-15 19:13:24 1510791204.795612: $GPZDA,001323.00,16,11,2017,00,00*66
2017-11-15 19:13:24 1510791204.795782: $GPGGA,001323,3946.9615,N,08404.9481,W,1,08,1.00,307.07,M,-33.324,M,,*7E
2017-11-15 19:13:24 1510791204.795846: $GPRMC,001323,A,3946.9615,N,08404.9481,W,0.6846,4.197,161117,,*35
2017-11-15 19:13:24 1510791204.795959: $GPGSA,A,3,32,14,26,31,16,3,29,25,,,,,3.4,1.0,2.9*05
2017-11-15 19:13:25 1510791205.346398: $GPZDA,001324.00,16,11,2017,00,00*61
2017-11-15 19:13:25 1510791205.346560: $GPGGA,001324,3946.9615,N,08404.9474,W,1,08,1.00,307.15,M,-33.324,M,,*70
2017-11-15 19:13:25 1510791205.346622: $GPRMC,001324,A,3946.9615,N,08404.9474,W,0.4844,93.794,161117,,*03
2017-11-15 19:13:25 1510791205.346677: $GPGSA,A,3,32,14,26,31,16,3,29,25,,,,,3.4,1.0,2.9*05
2017-11-15 19:13:26 1510791206.329274: $GPZDA,001325.00,16,11,2017,00,00*60
2017-11-15 19:13:26 1510791206.329437: $GPGGA,001325,3946.9611,N,08404.9475,W,1,08,1.00,307.91,M,-33.324,M,,*78
2017-11-15 19:13:26 1510791206.329500: $GPRMC,001325,A,3946.9611,N,08404.9475,W,0.5306,114.352,161117,,*3B
2017-11-15 19:13:26 1510791206.329556: $GPGSA,A,3,32,14,26,31,16,3,29,25,,,,,3.4,1.0,2.9*05
