2017-11-16 13:36:05 1510857365.956735: {"class":"VERSION","release":"3.17","rev":"3.17","proto_major":3,"proto_minor":12}
2017-11-16 13:36:05 1510857365.957219: {"class":"DEVICES","devices":[{"class":"DEVICE","path":"/dev/ttyUSB0","driver":"SiRF","subtype":"9\u0006GSD4e_4.1.2-P1_RPATCH.05-F-GPS-4R-1510281 11/03/2015 307","activated":"2017-11-16T18:36:05.391Z","flags":1,"native":1,"bps":4800,"parity":"N","stopbits":1,"cycle":1.00}]}
2017-11-16 13:36:05 1510857365.957338: {"class":"WATCH","enable":true,"json":false,"nmea":true,"raw":0,"scaled":false,"timing":false,"split24":false,"pps":false}
2017-11-16 13:36:06 1510857366.607457: $GPGSV,3,1,11,10,29,289,41,13,22,045,46,15,53,049,49,18,59,309,46*79
2017-11-16 13:36:06 1510857366.607631: $GPGSV,3,2,11,20,45,081,48,21,78,229,46,24,40,132,44,27,18,306,39*78
2017-11-16 13:36:06 1510857366.607692: $GPGSV,3,3,11,29,03,186,27,32,07,229,26,138,38,213,45*70
2017-11-16 13:36:06 1510857366.721086: $GPZDA,183605.00,16,11,2017,00,00*6C
2017-11-16 13:36:06 1510857366.721243: $GPGGA,183605,3946.9608,N,08404.9840,W,2,11,0.80,305.57,M,-33.324,M,,*7C
2017-11-16 13:36:06 1510857366.721304: $GPRMC,183605,A,3946.9608,N,08404.9840,W,0.0000,0.000,161117,,*35
2017-11-16 13:36:06 1510857366.721360: $GPGSA,A,3,10,13,15,18,20,21,24,27,29,32,138,,1.6,0.8,1.3*03
2017-11-16 13:36:07 1510857367.250415: $GPZDA,183606.00,16,11,2017,00,00*6F
2017-11-16 13:36:07 1510857367.250585: $GPGGA,183606,3946.9608,N,08404.9840,W,2,11,0.80,305.57,M,-33.324,M,,*7F
2017-11-16 13:36:07 1510857367.250648: $GPRMC,183606,A,3946.9608,N,08404.9840,W,0.0000,0.000,161117,,*36
2017-11-16 13:36:07 1510857367.250705: $GPGSA,A,3,10,13,15,18,20,21,24,27,29,32,138,,1.6,0.8,1.3*03
2017-11-16 13:36:08 1510857368.265209: $GPZDA,183607.00,16,11,2017,00,00*6E
2017-11-16 13:36:08 1510857368.265367: $GPGGA,183607,3946.9608,N,08404.9840,W,2,11,0.80,305.57,M,-33.324,M,,*7E
2017-11-16 13:36:08 1510857368.265429: $GPRMC,183607,A,3946.9608,N,08404.9840,W,0.0000,0.000,161117,,*37
2017-11-16 13:36:08 1510857368.265485: $GPGSA,A,3,10,13,15,18,20,21,24,27,29,32,138,,1.6,0.8,1.3*03
2017-11-16 13:36:09 1510857369.585868: $GPGSV,3,1,11,10,29,289,42,13,22,045,46,15,53,049,49,18,59,309,47*7B
2017-11-16 13:36:09 1510857369.586048: $GPGSV,3,2,11,20,45,081,48,21,78,229,46,24,40,132,43,27,18,306,39*7F
2017-11-16 13:36:09 1510857369.586111: $GPGSV,3,3,11,29,03,186,27,32,07,229,26,138,38,213,45*70
2017-11-16 13:36:09 1510857369.697993: $GPZDA,183608.00,16,11,2017,00,00*61
2017-11-16 13:36:09 1510857369.698136: $GPGGA,183608,3946.9608,N,08404.9840,W,2,11,0.80,305.57,M,-33.324,M,,*71
2017-11-16 13:36:09 1510857369.698195: $GPRMC,183608,A,3946.9608,N,08404.9840,W,0.0000,0.000,161117,,*38
2017-11-16 13:36:09 1510857369.698251: $GPGSA,A,3,10,13,15,18,20,21,24,27,29,32,138,,1.6,0.8,1.3*03
2017-11-16 13:36:10 1510857370.324500: $GPZDA,183609.00,16,11,2017,00,00*60
2017-11-16 13:36:10 1510857370.324676: $GPGGA,183609,3946.9608,N,08404.9840,W,2,11,0.80,305.57,M,-33.324,M,,*70
2017-11-16 13:36:10 1510857370.324740: $GPRMC,183609,A,3946.9608,N,08404.9840,W,0.0000,0.000,161117,,*39
2017-11-16 13:36:10 1510857370.324795: $GPGSA,A,3,10,13,15,18,20,21,24,27,29,32,138,,1.6,0.8,1.3*03
2017-11-16 13:36:11 1510857371.259128: $GPZDA,183610.00,16,11,2017,00,00*68
2017-11-16 13:36:11 1510857371.259294: $GPGGA,183610,3946.9608,N,08404.9840,W,2,11,0.80,305.57,M,-33.324,M,,*78
2017-11-16 13:36:11 1510857371.259356: $GPRMC,183610,A,3946.9608,N,08404.9840,W,0.0000,0.000,161117,,*31
2017-11-16 13:36:11 1510857371.259413: $GPGSA,A,3,10,13,15,18,20,21,24,27,29,32,138,,1.6,0.8,1.3*03
2017-11-16 13:36:12 1510857372.583567: $GPGSV,3,1,11,10,29,289,43,13,22,045,46,15,53,049,49,18,59,309,47*7A
2017-11-16 13:36:12 1510857372.583730: $GPGSV,3,2,11,20,45,081,48,21,78,229,46,24,40,132,43,27,18,306,38*7E
2017-11-16 13:36:12 1510857372.583795: $GPGSV,3,3,11,29,03,186,24,32,07,229,26,138,38,213,44*72
2017-11-16 13:36:12 1510857372.697131: $GPZDA,183611.00,16,11,2017,00,00*69
2017-11-16 13:36:12 1510857372.697285: $GPGGA,183611,3946.9608,N,08404.9840,W,2,11,0.80,305.57,M,-33.324,M,,*79
2017-11-16 13:36:12 1510857372.697397: $GPRMC,183611,A,3946.9608,N,08404.9840,W,0.0000,0.000,161117,,*30
2017-11-16 13:36:12 1510857372.697454: $GPGSA,A,3,10,13,15,18,20,21,24,27,29,32,138,,1.6,0.8,1.3*03
2017-11-16 13:36:13 1510857373.266470: $GPZDA,183612.00,16,11,2017,00,00*6A
2017-11-16 13:36:13 1510857373.266639: $GPGGA,183612,3946.9608,N,08404.9840,W,2,11,0.80,305.57,M,-33.324,M,,*7A
2017-11-16 13:36:13 1510857373.266704: $GPRMC,183612,A,3946.9608,N,08404.9840,W,0.0000,0.000,161117,,*33
2017-11-16 13:36:13 1510857373.266762: $GPGSA,A,3,10,13,15,18,20,21,24,27,29,32,138,,1.6,0.8,1.3*03
2017-11-16 13:36:14 1510857374.243589: $GPZDA,183613.00,16,11,2017,00,00*6B
2017-11-16 13:36:14 1510857374.243762: $GPGGA,183613,3946.9608,N,08404.9840,W,2,11,0.80,305.57,M,-33.324,M,,*7B
2017-11-16 13:36:14 1510857374.243826: $GPRMC,183613,A,3946.9608,N,08404.9840,W,0.0000,0.000,161117,,*32
2017-11-16 13:36:14 1510857374.243882: $GPGSA,A,3,10,13,15,18,20,21,24,27,29,32,138,,1.6,0.8,1.3*03
2017-11-16 13:36:15 1510857375.585048: $GPGSV,3,1,11,10,29,289,43,13,22,045,46,15,53,049,49,18,59,309,46*7B
2017-11-16 13:36:16 1510857376.047790: $GPGSV,3,2,11,20,45,081,48,21,78,229,46,24,40,132,44,27,18,306,38*79
2017-11-16 13:36:16 1510857376.047937: $GPGSV,3,3,11,29,03,186,23,32,07,229,26,138,38,213,44*75
2017-11-16 13:36:16 1510857376.048033: $GPZDA,183614.00,16,11,2017,00,00*6C
2017-11-16 13:36:16 1510857376.048094: $GPGGA,183614,3946.9608,N,08404.9840,W,2,11,0.80,305.57,M,-33.324,M,,*7C
2017-11-16 13:36:16 1510857376.048154: $GPRMC,183614,A,3946.9608,N,08404.9840,W,0.0000,0.000,161117,,*35
2017-11-16 13:36:16 1510857376.048216: $GPGSA,A,3,10,13,15,18,20,21,24,27,29,32,138,,1.6,0.8,1.3*03
2017-11-16 13:36:16 1510857376.249298: $GPZDA,183615.00,16,11,2017,00,00*6D
2017-11-16 13:36:16 1510857376.249468: $GPGGA,183615,3946.9608,N,08404.9840,W,2,11,0.80,305.57,M,-33.324,M,,*7D
2017-11-16 13:36:16 1510857376.249531: $GPRMC,183615,A,3946.9608,N,08404.9840,W,0.0000,0.000,161117,,*34
2017-11-16 13:36:16 1510857376.249593: $GPGSA,A,3,10,13,15,18,20,21,24,27,29,32,138,,1.6,0.8,1.3*03
2017-11-16 13:36:17 1510857377.250028: $GPZDA,183616.00,16,11,2017,00,00*6E
2017-11-16 13:36:17 1510857377.250209: $GPGGA,183616,3946.9608,N,08404.9840,W,2,11,0.80,305.57,M,-33.324,M,,*7E
2017-11-16 13:36:17 1510857377.250276: $GPRMC,183616,A,3946.9608,N,08404.9840,W,0.0000,0.000,161117,,*37
2017-11-16 13:36:17 1510857377.250404: $GPGSA,A,3,10,13,15,18,20,21,24,27,29,32,138,,1.6,0.8,1.3*03
2017-11-16 13:36:18 1510857378.607022: $GPGSV,3,1,11,10,29,289,43,13,22,045,46,15,53,049,49,18,59,309,47*7A
2017-11-16 13:36:18 1510857378.607182: $GPGSV,3,2,11,20,45,081,48,21,78,229,46,24,40,132,44,27,18,306,38*79
2017-11-16 13:36:18 1510857378.607245: $GPGSV,3,3,11,29,03,186,22,32,07,229,29,138,38,213,44*7B
2017-11-16 13:36:18 1510857378.720488: $GPZDA,183617.00,16,11,2017,00,00*6F
2017-11-16 13:36:18 1510857378.720653: $GPGGA,183617,3946.9608,N,08404.9840,W,2,11,0.80,305.57,M,-33.324,M,,*7F
2017-11-16 13:36:18 1510857378.720717: $GPRMC,183617,A,3946.9608,N,08404.9840,W,0.0000,0.000,161117,,*36
2017-11-16 13:36:18 1510857378.720776: $GPGSA,A,3,10,13,15,18,20,21,24,27,29,32,138,,1.6,0.8,1.3*03
2017-11-16 13:36:19 1510857379.249934: $GPZDA,183618.00,16,11,2017,00,00*60
2017-11-16 13:36:19 1510857379.250117: $GPGGA,183618,3946.9608,N,08404.9840,W,2,11,0.80,305.57,M,-33.324,M,,*70
2017-11-16 13:36:19 1510857379.250184: $GPRMC,183618,A,3946.9608,N,08404.9840,W,0.0000,0.000,161117,,*39
2017-11-16 13:36:19 1510857379.250243: $GPGSA,A,3,10,13,15,18,20,21,24,27,29,32,138,,1.6,0.8,1.3*03
2017-11-16 13:36:20 1510857380.241623: $GPZDA,183619.00,16,11,2017,00,00*61
2017-11-16 13:36:20 1510857380.241796: $GPGGA,183619,3946.9608,N,08404.9840,W,2,11,0.80,305.57,M,-33.324,M,,*71
2017-11-16 13:36:20 1510857380.241859: $GPRMC,183619,A,3946.9608,N,08404.9840,W,0.0000,0.000,161117,,*38
2017-11-16 13:36:20 1510857380.241916: $GPGSA,A,3,10,13,15,18,20,21,24,27,29,32,138,,1.6,0.8,1.3*03
2017-11-16 13:36:21 1510857381.607245: $GPGSV,3,1,11,10,29,289,42,13,22,045,46,15,53,049,50,18,59,309,46*72
2017-11-16 13:36:21 1510857381.607492: $GPGSV,3,2,11,20,45,081,48,21,78,229,46,24,40,132,44,27,18,306,38*79
2017-11-16 13:36:21 1510857381.607555: $GPGSV,3,3,11,29,03,186,24,32,07,229,32,138,38,213,44*77
2017-11-16 13:36:21 1510857381.720702: $GPZDA,183620.00,16,11,2017,00,00*6B
2017-11-16 13:36:21 1510857381.720864: $GPGGA,183620,3946.9608,N,08404.9840,W,2,11,0.80,305.57,M,-33.324,M,,*7B
2017-11-16 13:36:21 1510857381.720924: $GPRMC,183620,A,3946.9608,N,08404.9840,W,0.0000,0.000,161117,,*32
2017-11-16 13:36:21 1510857381.720979: $GPGSA,A,3,10,13,15,18,20,21,24,27,29,32,138,,1.6,0.8,1.3*03
2017-11-16 13:36:22 1510857382.248914: $GPZDA,183621.00,16,11,2017,00,00*6A
2017-11-16 13:36:22 1510857382.249079: $GPGGA,183621,3946.9608,N,08404.9840,W,2,11,0.80,305.57,M,-33.324,M,,*7A
2017-11-16 13:36:22 1510857382.249139: $GPRMC,183621,A,3946.9608,N,08404.9840,W,0.0000,0.000,161117,,*33
2017-11-16 13:36:22 1510857382.249195: $GPGSA,A,3,10,13,15,18,20,21,24,27,29,32,138,,1.6,0.8,1.3*03
2017-11-16 13:36:23 1510857383.248663: $GPZDA,183622.00,16,11,2017,00,00*69
2017-11-16 13:36:23 1510857383.248818: $GPGGA,183622,3946.9608,N,08404.9840,W,2,11,0.80,305.57,M,-33.324,M,,*79
2017-11-16 13:36:23 1510857383.248879: $GPRMC,183622,A,3946.9608,N,08404.9840,W,0.0000,0.000,161117,,*30
2017-11-16 13:36:23 1510857383.248935: $GPGSA,A,3,10,13,15,18,20,21,24,27,29,32,138,,1.6,0.8,1.3*03
2017-11-16 13:36:24 1510857384.582979: $GPGSV,3,1,11,10,29,289,41,13,22,045,46,15,53,049,50,18,59,309,46*71
2017-11-16 13:36:24 1510857384.583133: $GPGSV,3,2,11,20,45,081,48,21,78,229,46,24,40,132,44,27,18,306,39*78
2017-11-16 13:36:24 1510857384.583213: $GPGSV,3,3,11,29,03,186,23,32,07,229,32,138,38,213,44*70
2017-11-16 13:36:24 1510857384.696372: $GPZDA,183623.00,16,11,2017,00,00*68
2017-11-16 13:36:24 1510857384.696538: $GPGGA,183623,3946.9608,N,08404.9840,W,2,11,0.80,305.57,M,-33.324,M,,*78
2017-11-16 13:36:24 1510857384.696600: $GPRMC,183623,A,3946.9608,N,08404.9840,W,0.0000,0.000,161117,,*31
2017-11-16 13:36:24 1510857384.696656: $GPGSA,A,3,10,13,15,18,20,21,24,27,29,32,138,,1.6,0.8,1.3*03
2017-11-16 13:36:25 1510857385.323056: $GPZDA,183624.00,16,11,2017,00,00*6F
2017-11-16 13:36:25 1510857385.323431: $GPGGA,183624,3946.9608,N,08404.9840,W,2,11,0.80,305.57,M,-33.324,M,,*7F
2017-11-16 13:36:25 1510857385.323552: $GPRMC,183624,A,3946.9608,N,08404.9840,W,0.0000,0.000,161117,,*36
2017-11-16 13:36:25 1510857385.323669: $GPGSA,A,3,10,13,15,18,20,21,24,27,29,32,138,,1.6,0.8,1.3*03
2017-11-16 13:36:26 1510857386.266525: $GPZDA,183625.00,16,11,2017,00,00*6E
2017-11-16 13:36:27 1510857387.205680: $GPGGA,183625,3946.9612,N,08404.9840,W,2,11,0.80,306.21,M,-33.324,M,,*77
2017-11-16 13:36:27 1510857387.205841: $GPRMC,183625,A,3946.9612,N,08404.9840,W,0.0000,0.000,161117,,*3C
2017-11-16 13:36:27 1510857387.205951: $GPGSA,A,3,10,13,15,18,20,21,24,27,29,32,138,,1.6,0.8,1.3*03
2017-11-16 13:36:27 1510857387.607069: $GPGSV,3,1,11,10,29,289,40,13,22,045,46,15,53,049,50,18,59,309,47*71
2017-11-16 13:36:27 1510857387.607366: $GPGSV,3,2,11,20,45,081,48,21,78,229,46,24,40,132,44,27,18,306,39*78
2017-11-16 13:36:27 1510857387.607488: $GPGSV,3,3,11,29,03,186,23,32,07,229,32,138,38,213,44*70
2017-11-16 13:36:27 1510857387.720599: $GPZDA,183626.00,16,11,2017,00,00*6D
2017-11-16 13:36:27 1510857387.720757: $GPGGA,183626,3946.9612,N,08404.9840,W,2,11,0.80,306.21,M,-33.324,M,,*74
2017-11-16 13:36:27 1510857387.720820: $GPRMC,183626,A,3946.9612,N,08404.9840,W,0.0000,0.000,161117,,*3F
2017-11-16 13:36:27 1510857387.720877: $GPGSA,A,3,10,13,15,18,20,21,24,27,29,32,138,,1.6,0.8,1.3*03
2017-11-16 13:36:28 1510857388.247487: $GPZDA,183627.00,16,11,2017,00,00*6C
2017-11-16 13:36:28 1510857388.247679: $GPGGA,183627,3946.9612,N,08404.9840,W,2,11,0.80,306.21,M,-33.324,M,,*75
2017-11-16 13:36:28 1510857388.247747: $GPRMC,183627,A,3946.9612,N,08404.9840,W,0.0000,0.000,161117,,*3E
2017-11-16 13:36:28 1510857388.247806: $GPGSA,A,3,10,13,15,18,20,21,24,27,29,32,138,,1.6,0.8,1.3*03
2017-11-16 13:36:29 1510857389.249713: $GPZDA,183628.00,16,11,2017,00,00*63
2017-11-16 13:36:29 1510857389.249901: $GPGGA,183628,3946.9612,N,08404.9840,W,2,11,0.80,306.21,M,-33.324,M,,*7A
2017-11-16 13:36:29 1510857389.249983: $GPRMC,183628,A,3946.9612,N,08404.9840,W,0.0000,0.000,161117,,*31
2017-11-16 13:36:29 1510857389.250039: $GPGSA,A,3,10,13,15,18,20,21,24,27,29,32,138,,1.6,0.8,1.3*03
2017-11-16 13:36:30 1510857390.579833: $GPGSV,3,1,11,10,29,289,40,13,22,045,46,15,53,049,50,18,59,309,46*70
2017-11-16 13:36:30 1510857390.580019: $GPGSV,3,2,11,20,45,081,48,21,78,229,46,24,40,132,44,27,18,306,40*76
2017-11-16 13:36:30 1510857390.580080: $GPGSV,3,3,11,29,03,186,23,32,07,229,29,138,38,213,45*7B
2017-11-16 13:36:30 1510857390.693188: $GPZDA,183629.00,16,11,2017,00,00*62
2017-11-16 13:36:30 1510857390.693370: $GPGGA,183629,3946.9612,N,08404.9840,W,2,11,0.80,306.21,M,-33.324,M,,*7B
2017-11-16 13:36:30 1510857390.693431: $GPRMC,183629,A,3946.9612,N,08404.9840,W,0.0000,0.000,161117,,*30
2017-11-16 13:36:30 1510857390.693487: $GPGSA,A,3,10,13,15,18,20,21,24,27,29,32,138,,1.6,0.8,1.3*03
2017-11-16 13:36:31 1510857391.271610: $GPZDA,183630.00,16,11,2017,00,00*6A
2017-11-16 13:36:31 1510857391.272005: $GPGGA,183630,3946.9612,N,08404.9840,W,2,11,0.80,306.21,M,-33.324,M,,*73
2017-11-16 13:36:31 1510857391.273485: $GPRMC,183630,A,3946.9612,N,08404.9840,W,0.0000,0.000,161117,,*38
2017-11-16 13:36:31 1510857391.273658: $GPGSA,A,3,10,13,15,18,20,21,24,27,29,32,138,,1.6,0.8,1.3*03
2017-11-16 13:36:32 1510857392.247339: $GPZDA,183631.00,16,11,2017,00,00*6B
2017-11-16 13:36:32 1510857392.247500: $GPGGA,183631,3946.9612,N,08404.9840,W,2,11,0.80,306.21,M,-33.324,M,,*72
2017-11-16 13:36:32 1510857392.247561: $GPRMC,183631,A,3946.9612,N,08404.9840,W,0.0000,0.000,161117,,*39
2017-11-16 13:36:32 1510857392.247617: $GPGSA,A,3,10,13,15,18,20,21,24,27,29,32,138,,1.6,0.8,1.3*03
2017-11-16 13:36:33 1510857393.584322: $GPGSV,3,1,11,10,29,289,40,13,22,045,46,15,53,049,50,18,59,309,46*70
2017-11-16 13:36:33 1510857393.584477: $GPGSV,3,2,11,20,45,081,48,21,78,229,46,24,40,132,44,27,18,306,40*76
2017-11-16 13:36:33 1510857393.584538: $GPGSV,3,3,11,29,03,186,23,32,07,229,28,138,38,213,44*7B
2017-11-16 13:36:33 1510857393.697607: $GPZDA,183632.00,16,11,2017,00,00*68
2017-11-16 13:36:33 1510857393.697773: $GPGGA,183632,3946.9612,N,08404.9840,W,2,11,0.80,306.21,M,-33.324,M,,*71
2017-11-16 13:36:33 1510857393.697850: $GPRMC,183632,A,3946.9612,N,08404.9840,W,0.0000,0.000,161117,,*3A
2017-11-16 13:36:33 1510857393.697928: $GPGSA,A,3,10,13,15,18,20,21,24,27,29,32,138,,1.6,0.8,1.3*03
2017-11-16 13:36:34 1510857394.248718: $GPZDA,183633.00,16,11,2017,00,00*69
2017-11-16 13:36:34 1510857394.248886: $GPGGA,183633,3946.9612,N,08404.9840,W,2,11,0.80,306.21,M,-33.324,M,,*70
2017-11-16 13:36:34 1510857394.248947: $GPRMC,183633,A,3946.9612,N,08404.9840,W,0.0000,0.000,161117,,*3B
2017-11-16 13:36:34 1510857394.249003: $GPGSA,A,3,10,13,15,18,20,21,24,27,29,32,138,,1.6,0.8,1.3*03
2017-11-16 13:36:35 1510857395.248954: $GPZDA,183634.00,16,11,2017,00,00*6E
2017-11-16 13:36:35 1510857395.249135: $GPGGA,183634,3946.9612,N,08404.9840,W,2,11,0.80,306.21,M,-33.324,M,,*77
2017-11-16 13:36:35 1510857395.249197: $GPRMC,183634,A,3946.9612,N,08404.9840,W,0.0000,0.000,161117,,*3C
2017-11-16 13:36:35 1510857395.249253: $GPGSA,A,3,10,13,15,18,20,21,24,27,29,32,138,,1.6,0.8,1.3*03
