2017-12-31 17:57:48 1514761068.516644: {"class":"VERSION","release":"3.16","rev":"3.16-4","proto_major":3,"proto_minor":11}
2017-12-31 17:57:48 1514761068.517151: {"class":"DEVICES","devices":[{"class":"DEVICE","path":"/dev/ttyUSB0","driver":"SiRF","activated":"2017-12-31T22:57:48.226Z","flags":1,"native":1,"bps":4800,"parity":"N","stopbits":1,"cycle":1.00}]}
2017-12-31 17:57:48 1514761068.517274: {"class":"WATCH","enable":true,"json":false,"nmea":true,"raw":0,"scaled":false,"timing":false,"split24":false,"pps":false}
2017-12-31 17:57:48 1514761068.674766: $GPGSV,3,1,11,22,26,217,44,23,49,307,43,09,16,312,43,03,35,238,44*71
2017-12-31 17:57:48 1514761068.674921: $GPGSV,3,2,11,16,75,192,43,29,08,034,24,14,19,130,31,31,32,070,43*7C
2017-12-31 17:57:48 1514761068.674988: $GPGSV,3,3,11,27,18,156,26,26,67,054,48,135,22,240,44*7A
2017-12-31 17:57:48 1514761068.788191: $GPZDA,225749.00,31,12,2017,00,00*6C
2017-12-31 17:57:48 1514761068.788356: $GPGGA,225749,3946.9567,N,08404.9865,W,2,11,0.60,306.72,M,-33.324,M,,*7D
2017-12-31 17:57:48 1514761068.788422: $GPRMC,225749,A,3946.9567,N,08404.9865,W,0.0000,0.000,311217,,*38
2017-12-31 17:57:48 1514761068.788482: $GPGSA,A,3,22,23,9,3,16,29,14,31,27,26,135,,1.7,0.6,1.3*06
2017-12-31 17:57:49 1514761069.346392: $GPZDA,225750.00,31,12,2017,00,00*64
2017-12-31 17:57:49 1514761069.346576: $GPGGA,225750,3946.9567,N,08404.9865,W,2,11,0.60,306.72,M,-33.324,M,,*75
2017-12-31 17:57:49 1514761069.346642: $GPRMC,225750,A,3946.9567,N,08404.9865,W,0.0000,0.000,311217,,*30
2017-12-31 17:57:49 1514761069.346703: $GPGSA,A,3,22,23,9,3,16,29,14,31,27,26,135,,1.7,0.6,1.3*06
2017-12-31 17:57:50 1514761070.364603: $GPZDA,225751.00,31,12,2017,00,00*65
2017-12-31 17:57:50 1514761070.364766: $GPGGA,225751,3946.9567,N,08404.9865,W,2,11,0.60,306.72,M,-33.324,M,,*74
2017-12-31 17:57:50 1514761070.364831: $GPRMC,225751,A,3946.9567,N,08404.9865,W,0.0000,0.000,311217,,*31
2017-12-31 17:57:50 1514761070.364891: $GPGSA,A,3,22,23,9,3,16,29,14,31,27,26,135,,1.7,0.6,1.3*06
2017-12-31 17:57:51 1514761071.681297: $GPGSV,3,1,11,22,26,217,44,23,49,307,42,09,16,312,43,03,35,238,44*70
2017-12-31 17:57:51 1514761071.684045: $GPGSV,3,2,11,16,75,192,43,29,08,034,30,14,19,130,31,31,32,070,43*79
2017-12-31 17:57:51 1514761071.684143: $GPGSV,3,3,11,27,18,156,32,26,67,054,49,135,22,240,44*7E
2017-12-31 17:57:51 1514761071.794919: $GPZDA,225752.00,31,12,2017,00,00*66
2017-12-31 17:57:51 1514761071.795083: $GPGGA,225752,3946.9567,N,08404.9865,W,2,11,0.60,306.72,M,-33.324,M,,*77
2017-12-31 17:57:51 1514761071.795151: $GPRMC,225752,A,3946.9567,N,08404.9865,W,0.0000,0.000,311217,,*32
2017-12-31 17:57:51 1514761071.795214: $GPGSA,A,3,22,23,9,3,16,29,14,31,27,26,135,,1.7,0.6,1.3*06
2017-12-31 17:57:52 1514761072.370802: $GPZDA,225753.00,31,12,2017,00,00*67
2017-12-31 17:57:52 1514761072.370974: $GPGGA,225753,3946.9567,N,08404.9865,W,2,11,0.60,306.72,M,-33.324,M,,*76
2017-12-31 17:57:52 1514761072.371043: $GPRMC,225753,A,3946.9567,N,08404.9865,W,0.0000,0.000,311217,,*33
2017-12-31 17:57:52 1514761072.371106: $GPGSA,A,3,22,23,9,3,16,29,14,31,27,26,135,,1.7,0.6,1.3*06
2017-12-31 17:57:53 1514761073.346367: $GPZDA,225754.00,31,12,2017,00,00*60
2017-12-31 17:57:53 1514761073.346545: $GPGGA,225754,3946.9567,N,08404.9865,W,2,11,0.60,306.72,M,-33.324,M,,*71
2017-12-31 17:57:53 1514761073.346615: $GPRMC,225754,A,3946.9567,N,08404.9865,W,0.0000,0.000,311217,,*34
2017-12-31 17:57:53 1514761073.346679: $GPGSA,A,3,22,23,9,3,16,29,14,31,27,26,135,,1.7,0.6,1.3*06
2017-12-31 17:57:54 1514761074.680828: $GPGSV,3,1,11,22,26,217,44,23,49,307,42,09,16,312,43,03,35,238,45*71
2017-12-31 17:57:54 1514761074.680996: $GPGSV,3,2,11,16,75,192,43,29,08,034,30,14,19,130,31,31,32,070,43*79
2017-12-31 17:57:54 1514761074.681065: $GPGSV,3,3,11,27,18,156,31,26,67,054,48,135,22,240,44*7C
2017-12-31 17:57:54 1514761074.794439: $GPZDA,225755.00,31,12,2017,00,00*61
2017-12-31 17:57:54 1514761074.794579: $GPGGA,225755,3946.9567,N,08404.9865,W,2,11,0.60,306.72,M,-33.324,M,,*70
2017-12-31 17:57:54 1514761074.794662: $GPRMC,225755,A,3946.9567,N,08404.9865,W,0.0000,0.000,311217,,*35
2017-12-31 17:57:54 1514761074.794780: $GPGSA,A,3,22,23,9,3,16,29,14,31,27,26,135,,1.7,0.6,1.3*06
2017-12-31 17:57:55 1514761075.419910: $GPZDA,225756.00,31,12,2017,00,00*62
2017-12-31 17:57:55 1514761075.420129: $GPGGA,225756,3946.9567,N,08404.9865,W,2,11,0.60,306.72,M,-33.324,M,,*73
2017-12-31 17:57:55 1514761075.420198: $GPRMC,225756,A,3946.9567,N,08404.9865,W,0.0000,0.000,311217,,*36
2017-12-31 17:57:55 1514761075.420260: $GPGSA,A,3,22,23,9,3,16,29,14,31,27,26,135,,1.7,0.6,1.3*06
2017-12-31 17:57:56 1514761076.339472: $GPZDA,225757.00,31,12,2017,00,00*63
2017-12-31 17:57:56 1514761076.339636: $GPGGA,225757,3946.9567,N,08404.9865,W,2,11,0.60,306.72,M,-33.324,M,,*72
2017-12-31 17:57:56 1514761076.339702: $GPRMC,225757,A,3946.9567,N,08404.9865,W,0.0000,0.000,311217,,*37
2017-12-31 17:57:56 1514761076.339763: $GPGSA,A,3,22,23,9,3,16,29,14,31,27,26,135,,1.7,0.6,1.3*06
2017-12-31 17:57:57 1514761077.706200: $GPGSV,3,1,11,22,26,217,44,23,49,307,42,09,16,312,43,03,35,238,45*71
2017-12-31 17:57:57 1514761077.706358: $GPGSV,3,2,11,16,75,192,43,29,08,034,31,14,19,130,31,31,32,070,44*7F
2017-12-31 17:57:57 1514761077.706423: $GPGSV,3,3,11,27,18,156,30,26,67,054,48,135,22,240,44*7D
2017-12-31 17:57:57 1514761077.819960: $GPZDA,225758.00,31,12,2017,00,00*6C
2017-12-31 17:57:57 1514761077.820103: $GPGGA,225758,3946.9567,N,08404.9865,W,2,11,0.60,306.72,M,-33.324,M,,*7D
2017-12-31 17:57:57 1514761077.820170: $GPRMC,225758,A,3946.9567,N,08404.9865,W,0.0000,0.000,311217,,*38
2017-12-31 17:57:57 1514761077.820229: $GPGSA,A,3,22,23,9,3,16,29,14,31,27,26,135,,1.7,0.6,1.3*06
2017-12-31 17:57:58 1514761078.345726: $GPZDA,225759.00,31,12,2017,00,00*6D
2017-12-31 17:57:58 1514761078.345887: $GPGGA,225759,3946.9567,N,08404.9865,W,2,11,0.60,306.72,M,-33.324,M,,*7C
2017-12-31 17:57:58 1514761078.345954: $GPRMC,225759,A,3946.9567,N,08404.9865,W,0.0000,0.000,311217,,*39
2017-12-31 17:57:58 1514761078.346015: $GPGSA,A,3,22,23,9,3,16,29,14,31,27,26,135,,1.7,0.6,1.3*06
