2017-12-01 17:15:13 1512166513.966887: {"class":"VERSION","release":"3.16","rev":"3.16-4","proto_major":3,"proto_minor":11}
2017-12-01 17:15:13 1512166513.967330: {"class":"DEVICES","devices":[{"class":"DEVICE","path":"/dev/ttyUSB0","driver":"SiRF","subtype":"9\u0006GSD4e_4.1.2-P1_RPATCH.05-F-GPS-4R-1510281 11/03/2015 307","activated":"2017-12-01T22:15:13.532Z","flags":1,"native":1,"bps":4800,"parity":"N","stopbits":1,"cycle":1.00}]}
2017-12-01 17:15:13 1512166513.967458: {"class":"WATCH","enable":true,"json":false,"nmea":true,"raw":0,"scaled":false,"timing":false,"split24":false,"pps":false}
2017-12-01 17:15:14 1512166514.702706: $GPGSV,3,1,12,01,20,280,41,03,16,316,39,10,27,156,36,12,11,034,33*79
2017-12-01 17:15:14 1512166514.702896: $GPGSV,3,2,12,14,70,022,45,22,35,306,42,26,20,178,36,31,75,259,47*7D
2017-12-01 17:15:14 1512166514.702962: $GPGSV,3,3,12,32,58,070,49,11,01,265,23,25,38,063,23,138,38,213,34*43
2017-12-01 17:15:14 1512166514.816072: $GPZDA,221515.00,01,12,2017,00,00*60
2017-12-01 17:15:14 1512166514.816251: $GPGGA,221515,3946.9614,N,08404.9805,W,2,12,0.80,307.24,M,-33.324,M,,*7C
2017-12-01 17:15:14 1512166514.816319: $GPRMC,221515,A,3946.9614,N,08404.9805,W,0.0000,0.000,011217,,*35
2017-12-01 17:15:14 1512166514.816381: $GPGSA,A,3,1,3,10,12,14,22,26,31,32,11,25,138,2.0,0.8,1.5*03
2017-12-01 17:15:15 1512166515.441932: $GPZDA,221516.00,01,12,2017,00,00*63
2017-12-01 17:15:15 1512166515.442106: $GPGGA,221516,3946.9614,N,08404.9805,W,2,12,0.80,307.24,M,-33.324,M,,*7F
2017-12-01 17:15:15 1512166515.442173: $GPRMC,221516,A,3946.9614,N,08404.9805,W,0.0000,0.000,011217,,*36
2017-12-01 17:15:15 1512166515.442236: $GPGSA,A,3,1,3,10,12,14,22,26,31,32,11,25,138,2.0,0.8,1.5*03
2017-12-01 17:15:16 1512166516.389902: $GPZDA,221517.00,01,12,2017,00,00*62
2017-12-01 17:15:16 1512166516.390079: $GPGGA,221517,3946.9614,N,08404.9805,W,2,12,0.80,307.24,M,-33.324,M,,*7E
2017-12-01 17:15:16 1512166516.390165: $GPRMC,221517,A,3946.9614,N,08404.9805,W,0.0000,0.000,011217,,*37
2017-12-01 17:15:16 1512166516.390229: $GPGSA,A,3,1,3,10,12,14,22,26,31,32,11,25,138,2.0,0.8,1.5*03
2017-12-01 17:15:17 1512166517.725552: $GPGSV,3,1,12,01,20,280,42,03,16,316,39,10,27,156,36,12,11,034,33*7A
2017-12-01 17:15:17 1512166517.725787: $GPGSV,3,2,12,14,70,022,45,22,35,306,42,26,20,178,36,31,75,259,47*7D
2017-12-01 17:15:17 1512166517.725873: $GPGSV,3,3,12,32,58,070,49,11,01,265,23,25,38,063,00,138,38,213,38*4E
2017-12-01 17:15:17 1512166517.838975: $GPZDA,221518.00,01,12,2017,00,00*6D
2017-12-01 17:15:17 1512166517.839156: $GPGGA,221518,3946.9614,N,08404.9805,W,2,11,0.80,307.24,M,-33.324,M,,*72
2017-12-01 17:15:17 1512166517.839242: $GPRMC,221518,A,3946.9614,N,08404.9805,W,0.0000,0.000,011217,,*38
2017-12-01 17:15:17 1512166517.839304: $GPGSA,A,3,1,3,10,12,14,22,26,31,32,11,138,,2.0,0.8,1.5*04
2017-12-01 17:15:18 1512166518.394010: $GPZDA,221519.00,01,12,2017,00,00*6C
2017-12-01 17:15:18 1512166518.394182: $GPGGA,221519,3946.9614,N,08404.9805,W,2,11,0.80,307.24,M,-33.324,M,,*73
2017-12-01 17:15:18 1512166518.394250: $GPRMC,221519,A,3946.9614,N,08404.9805,W,0.0000,0.000,011217,,*39
2017-12-01 17:15:18 1512166518.394311: $GPGSA,A,3,1,3,10,12,14,22,26,31,32,11,138,,2.0,0.8,1.5*04
2017-12-01 17:15:19 1512166519.386132: $GPZDA,221520.00,01,12,2017,00,00*66
2017-12-01 17:15:19 1512166519.386315: $GPGGA,221520,3946.9614,N,08404.9805,W,2,11,0.80,307.24,M,-33.324,M,,*79
2017-12-01 17:15:19 1512166519.386382: $GPRMC,221520,A,3946.9614,N,08404.9805,W,0.0000,0.000,011217,,*33
2017-12-01 17:15:19 1512166519.386443: $GPGSA,A,3,1,3,10,12,14,22,26,31,32,11,138,,2.0,0.8,1.5*04
2017-12-01 17:15:20 1512166520.706039: $GPGSV,3,1,12,01,20,280,40,03,16,316,38,10,27,156,36,12,11,034,33*79
2017-12-01 17:15:20 1512166520.706356: $GPGSV,3,2,12,14,70,022,45,22,35,306,42,26,20,178,36,31,75,259,48*72
2017-12-01 17:15:20 1512166520.706480: $GPGSV,3,3,12,32,58,070,49,11,01,265,07,25,38,063,00,138,38,213,40*47
2017-12-01 17:15:20 1512166520.819570: $GPZDA,221521.00,01,12,2017,00,00*67
2017-12-01 17:15:20 1512166520.819760: $GPGGA,221521,3946.9614,N,08404.9805,W,2,11,0.80,307.24,M,-33.324,M,,*78
2017-12-01 17:15:20 1512166520.819914: $GPRMC,221521,A,3946.9614,N,08404.9805,W,0.0000,0.000,011217,,*32
2017-12-01 17:15:20 1512166520.819980: $GPGSA,A,3,1,3,10,12,14,22,26,31,32,11,138,,2.0,0.8,1.5*04
2017-12-01 17:15:21 1512166521.372989: $GPZDA,221522.00,01,12,2017,00,00*64
2017-12-01 17:15:21 1512166521.373169: $GPGGA,221522,3946.9614,N,08404.9805,W,2,11,0.80,307.24,M,-33.324,M,,*7B
2017-12-01 17:15:21 1512166521.373240: $GPRMC,221522,A,3946.9614,N,08404.9805,W,0.0000,0.000,011217,,*31
2017-12-01 17:15:21 1512166521.373301: $GPGSA,A,3,1,3,10,12,14,22,26,31,32,11,138,,2.0,0.8,1.5*04
2017-12-01 17:15:22 1512166522.372435: $GPZDA,221523.00,01,12,2017,00,00*65
2017-12-01 17:15:22 1512166522.372615: $GPGGA,221523,3946.9614,N,08404.9805,W,2,11,0.80,307.24,M,-33.324,M,,*7A
2017-12-01 17:15:22 1512166522.372684: $GPRMC,221523,A,3946.9614,N,08404.9805,W,0.0000,0.000,011217,,*30
2017-12-01 17:15:22 1512166522.372749: $GPGSA,A,3,1,3,10,12,14,22,26,31,32,11,138,,2.0,0.8,1.5*04
2017-12-01 17:15:23 1512166523.708062: $GPGSV,3,1,12,01,20,280,40,03,16,316,38,10,27,156,36,12,11,034,33*79
2017-12-01 17:15:23 1512166523.708243: $GPGSV,3,2,12,14,70,022,45,22,35,306,42,26,20,178,36,31,75,259,48*72
2017-12-01 17:15:23 1512166523.708311: $GPGSV,3,3,12,32,58,070,48,11,01,265,16,25,38,063,26,138,38,213,40*42
2017-12-01 17:15:23 1512166523.821838: $GPZDA,221524.00,01,12,2017,00,00*62
2017-12-01 17:15:23 1512166523.821980: $GPGGA,221524,3946.9614,N,08404.9805,W,2,12,0.80,307.24,M,-33.324,M,,*7E
2017-12-01 17:15:23 1512166523.822045: $GPRMC,221524,A,3946.9614,N,08404.9805,W,0.0000,0.000,011217,,*37
2017-12-01 17:15:23 1512166523.822108: $GPGSA,A,3,1,3,10,12,14,22,26,31,32,11,25,138,2.0,0.8,1.5*03
2017-12-01 17:15:24 1512166524.363618: $GPZDA,221525.00,01,12,2017,00,00*63
2017-12-01 17:15:24 1512166524.363805: $GPGGA,221525,3946.9614,N,08404.9805,W,2,12,0.80,307.24,M,-33.324,M,,*7F
2017-12-01 17:15:24 1512166524.363890: $GPRMC,221525,A,3946.9614,N,08404.9805,W,0.0000,0.000,011217,,*36
2017-12-01 17:15:24 1512166524.363951: $GPGSA,A,3,1,3,10,12,14,22,26,31,32,11,25,138,2.0,0.8,1.5*03
2017-12-01 17:15:25 1512166525.366498: $GPZDA,221526.00,01,12,2017,00,00*60
2017-12-01 17:15:25 1512166525.366669: $GPGGA,221526,3946.9614,N,08404.9805,W,2,12,0.80,307.24,M,-33.324,M,,*7C
2017-12-01 17:15:25 1512166525.366739: $GPRMC,221526,A,3946.9614,N,08404.9805,W,0.0000,0.000,011217,,*35
2017-12-01 17:15:25 1512166525.366803: $GPGSA,A,3,1,3,10,12,14,22,26,31,32,11,25,138,2.0,0.8,1.5*03
2017-12-01 17:15:26 1512166526.699847: $GPGSV,3,1,12,01,20,280,40,03,16,316,38,10,27,156,36,12,11,034,33*79
2017-12-01 17:15:26 1512166526.700044: $GPGSV,3,2,12,14,70,022,46,22,35,306,43,26,20,178,38,31,75,259,48*7E
2017-12-01 17:15:26 1512166526.700115: $GPGSV,3,3,12,32,58,070,48,11,01,265,18,25,38,063,26,138,38,213,38*43
2017-12-01 17:15:26 1512166526.813235: $GPZDA,221527.00,01,12,2017,00,00*61
2017-12-01 17:15:26 1512166526.813419: $GPGGA,221527,3946.9614,N,08404.9805,W,2,12,0.80,307.24,M,-33.324,M,,*7D
2017-12-01 17:15:26 1512166526.813490: $GPRMC,221527,A,3946.9614,N,08404.9805,W,0.0000,0.000,011217,,*34
2017-12-01 17:15:26 1512166526.813557: $GPGSA,A,3,1,3,10,12,14,22,26,31,32,11,25,138,2.0,0.8,1.5*03
2017-12-01 17:15:27 1512166527.370763: $GPZDA,221528.00,01,12,2017,00,00*6E
2017-12-01 17:15:27 1512166527.370946: $GPGGA,221528,3946.9614,N,08404.9805,W,2,12,0.80,307.24,M,-33.324,M,,*72
2017-12-01 17:15:27 1512166527.371016: $GPRMC,221528,A,3946.9614,N,08404.9805,W,0.0000,0.000,011217,,*3B
2017-12-01 17:15:27 1512166527.371082: $GPGSA,A,3,1,3,10,12,14,22,26,31,32,11,25,138,2.0,0.8,1.5*03
2017-12-01 17:15:28 1512166528.370259: $GPZDA,221529.00,01,12,2017,00,00*6F
2017-12-01 17:15:28 1512166528.370458: $GPGGA,221529,3946.9614,N,08404.9805,W,2,12,0.80,307.24,M,-33.324,M,,*73
2017-12-01 17:15:28 1512166528.370552: $GPRMC,221529,A,3946.9614,N,08404.9805,W,0.0000,0.000,011217,,*3A
2017-12-01 17:15:28 1512166528.370641: $GPGSA,A,3,1,3,10,12,14,22,26,31,32,11,25,138,2.0,0.8,1.5*03
2017-12-01 17:15:29 1512166529.707055: $GPGSV,3,1,12,01,20,280,41,03,16,316,38,10,27,156,36,12,11,034,32*79
2017-12-01 17:15:29 1512166529.707292: $GPGSV,3,2,12,14,70,022,45,22,35,306,43,26,20,178,38,31,75,259,48*7D
2017-12-01 17:15:29 1512166529.707361: $GPGSV,3,3,12,32,58,070,48,11,01,265,18,25,38,063,26,138,38,213,40*4C
2017-12-01 17:15:29 1512166529.820483: $GPZDA,221530.00,01,12,2017,00,00*67
2017-12-01 17:15:29 1512166529.820634: $GPGGA,221530,3946.9614,N,08404.9805,W,2,12,0.80,307.24,M,-33.324,M,,*7B
2017-12-01 17:15:29 1512166529.820703: $GPRMC,221530,A,3946.9614,N,08404.9805,W,0.0000,0.000,011217,,*32
2017-12-01 17:15:29 1512166529.820764: $GPGSA,A,3,1,3,10,12,14,22,26,31,32,11,25,138,2.0,0.8,1.5*03
2017-12-01 17:15:30 1512166530.445816: $GPZDA,221531.00,01,12,2017,00,00*66
2017-12-01 17:15:30 1512166530.445987: $GPGGA,221531,3946.9614,N,08404.9805,W,2,12,0.80,307.24,M,-33.324,M,,*7A
2017-12-01 17:15:30 1512166530.446056: $GPRMC,221531,A,3946.9614,N,08404.9805,W,0.0000,0.000,011217,,*33
2017-12-01 17:15:30 1512166530.446117: $GPGSA,A,3,1,3,10,12,14,22,26,31,32,11,25,138,2.0,0.8,1.5*03
2017-12-01 17:15:31 1512166531.366631: $GPZDA,221532.00,01,12,2017,00,00*65
2017-12-01 17:15:31 1512166531.366829: $GPGGA,221532,3946.9614,N,08404.9805,W,2,12,0.80,307.24,M,-33.324,M,,*79
2017-12-01 17:15:31 1512166531.366901: $GPRMC,221532,A,3946.9614,N,08404.9805,W,0.0000,0.000,011217,,*30
2017-12-01 17:15:31 1512166531.366963: $GPGSA,A,3,1,3,10,12,14,22,26,31,32,11,25,138,2.0,0.8,1.5*03
2017-12-01 17:15:32 1512166532.699850: $GPGSV,3,1,12,01,20,280,41,03,16,316,38,10,27,156,37,12,11,034,32*78
2017-12-01 17:15:32 1512166532.700035: $GPGSV,3,2,12,14,70,022,45,22,35,306,44,26,20,178,38,31,75,259,48*7A
2017-12-01 17:15:32 1512166532.700103: $GPGSV,3,3,12,32,58,070,48,11,01,265,23,25,38,063,27,138,38,213,41*44
2017-12-01 17:15:32 1512166532.813572: $GPZDA,221533.00,01,12,2017,00,00*64
2017-12-01 17:15:32 1512166532.813797: $GPGGA,221533,3946.9614,N,08404.9805,W,2,12,0.80,307.24,M,-33.324,M,,*78
2017-12-01 17:15:32 1512166532.813867: $GPRMC,221533,A,3946.9614,N,08404.9805,W,0.0000,0.000,011217,,*31
2017-12-01 17:15:32 1512166532.813933: $GPGSA,A,3,1,3,10,12,14,22,26,31,32,11,25,138,2.0,0.8,1.5*03
2017-12-01 17:15:33 1512166533.370354: $GPZDA,221534.00,01,12,2017,00,00*63
2017-12-01 17:15:33 1512166533.372038: $GPGGA,221534,3946.9614,N,08404.9805,W,2,12,0.80,307.24,M,-33.324,M,,*7F
2017-12-01 17:15:33 1512166533.372185: $GPRMC,221534,A,3946.9614,N,08404.9805,W,0.0000,0.000,011217,,*36
2017-12-01 17:15:33 1512166533.372251: $GPGSA,A,3,1,3,10,12,14,22,26,31,32,11,25,138,2.0,0.8,1.5*03
