2018-01-11 19:54:09 1515718449.275956: {"class":"VERSION","release":"3.16","rev":"3.16-4","proto_major":3,"proto_minor":11}
2018-01-11 19:54:09 1515718449.276304: {"class":"DEVICES","devices":[{"class":"DEVICE","path":"/dev/ttyUSB0","driver":"SiRF","subtype":"9\u0006GSD4e_4.1.2-P1_RPATCH.05-F-GPS-4R-1510281 11/03/2015 307","activated":"2018-01-12T00:54:09.237Z","flags":1,"native":1,"bps":4800,"parity":"N","stopbits":1,"cycle":1.00}]}
2018-01-11 19:54:09 1515718449.276418: {"class":"WATCH","enable":true,"json":false,"nmea":true,"raw":0,"scaled":false,"timing":false,"split24":false,"pps":false}
2018-01-11 19:54:09 1515718449.750327: $GPGSV,3,1,11,07,48,312,44,08,67,151,44,09,53,240,43,11,13,171,34*70
2018-01-11 19:54:09 1515718449.750512: $GPGSV,3,2,11,16,29,055,45,23,37,192,47,27,53,061,50,30,22,303,36*7E
2018-01-11 19:54:09 1515718449.750578: $GPGSV,3,3,11,28,08,252,28,26,04,067,18,138,38,213,45*7C
2018-01-11 19:54:09 1515718449.863670: $GPZDA,005410.00,12,01,2018,00,00*6F
2018-01-11 19:54:09 1515718449.863788: $GPGGA,005410,3946.9575,N,08404.9816,W,2,11,0.80,295.71,M,-33.324,M,,*73
2018-01-11 19:54:09 1515718449.863853: $GPRMC,005410,A,3946.9575,N,08404.9816,W,0.0000,0.000,120118,,*3C
2018-01-11 19:54:09 1515718449.863912: $GPGSA,A,3,7,8,9,11,16,23,27,30,28,26,138,,4.0,0.8,3.5*3A
2018-01-11 19:54:10 1515718450.415905: $GPZDA,005411.00,12,01,2018,00,00*6E
2018-01-11 19:54:10 1515718450.416071: $GPGGA,005411,3946.9575,N,08404.9816,W,2,11,0.80,295.71,M,-33.324,M,,*72
2018-01-11 19:54:10 1515718450.416137: $GPRMC,005411,A,3946.9575,N,08404.9816,W,0.0000,0.000,120118,,*3D
2018-01-11 19:54:10 1515718450.416198: $GPGSA,A,3,7,8,9,11,16,23,27,30,28,26,138,,4.0,0.8,3.5*3A
2018-01-11 19:54:11 1515718451.416951: $GPZDA,005412.00,12,01,2018,00,00*6D
2018-01-11 19:54:11 1515718451.417122: $GPGGA,005412,3946.9575,N,08404.9816,W,2,11,0.80,295.71,M,-33.324,M,,*71
2018-01-11 19:54:11 1515718451.417188: $GPRMC,005412,A,3946.9575,N,08404.9816,W,0.0000,0.000,120118,,*3E
2018-01-11 19:54:11 1515718451.417248: $GPGSA,A,3,7,8,9,11,16,23,27,30,28,26,138,,4.0,0.8,3.5*3A
2018-01-11 19:54:12 1515718452.761160: $GPGSV,3,1,11,07,48,312,44,08,67,151,44,09,53,240,43,11,13,171,34*70
2018-01-11 19:54:12 1515718452.761326: $GPGSV,3,2,11,16,29,055,45,23,37,192,47,27,53,061,50,30,22,303,35*7D
2018-01-11 19:54:12 1515718452.761392: $GPGSV,3,3,11,28,08,252,29,26,04,067,17,138,38,213,45*72
2018-01-11 19:54:12 1515718452.874771: $GPZDA,005413.00,12,01,2018,00,00*6C
2018-01-11 19:54:12 1515718452.874894: $GPGGA,005413,3946.9575,N,08404.9816,W,2,11,0.80,295.71,M,-33.324,M,,*70
2018-01-11 19:54:12 1515718452.874958: $GPRMC,005413,A,3946.9575,N,08404.9816,W,0.0000,0.000,120118,,*3F
2018-01-11 19:54:12 1515718452.875017: $GPGSA,A,3,7,8,9,11,16,23,27,30,28,26,138,,4.0,0.8,3.5*3A
2018-01-11 19:54:13 1515718453.430716: $GPZDA,005414.00,12,01,2018,00,00*6B
2018-01-11 19:54:13 1515718453.430893: $GPGGA,005414,3946.9575,N,08404.9816,W,2,11,0.80,295.71,M,-33.324,M,,*77
2018-01-11 19:54:13 1515718453.430979: $GPRMC,005414,A,3946.9575,N,08404.9816,W,0.0000,0.000,120118,,*38
2018-01-11 19:54:13 1515718453.431042: $GPGSA,A,3,7,8,9,11,16,23,27,30,28,26,138,,4.0,0.8,3.5*3A
2018-01-11 19:54:14 1515718454.432297: $GPZDA,005415.00,12,01,2018,00,00*6A
2018-01-11 19:54:14 1515718454.432465: $GPGGA,005415,3946.9575,N,08404.9816,W,2,11,0.80,295.71,M,-33.324,M,,*76
2018-01-11 19:54:14 1515718454.432531: $GPRMC,005415,A,3946.9575,N,08404.9816,W,0.0000,0.000,120118,,*39
2018-01-11 19:54:14 1515718454.432591: $GPGSA,A,3,7,8,9,11,16,23,27,30,28,26,138,,4.0,0.8,3.5*3A
2018-01-11 19:54:15 1515718455.767747: $GPGSV,3,1,11,07,48,312,44,08,67,151,44,09,53,240,44,11,13,171,34*77
2018-01-11 19:54:15 1515718455.767904: $GPGSV,3,2,11,16,29,055,45,23,37,192,47,27,53,061,50,30,22,303,28*71
2018-01-11 19:54:15 1515718455.767970: $GPGSV,3,3,11,28,08,252,30,26,04,067,16,138,38,213,45*7B
2018-01-11 19:54:15 1515718455.881362: $GPZDA,005416.00,12,01,2018,00,00*69
2018-01-11 19:54:15 1515718455.881493: $GPGGA,005416,3946.9575,N,08404.9816,W,2,11,0.80,295.71,M,-33.324,M,,*75
2018-01-11 19:54:15 1515718455.881611: $GPRMC,005416,A,3946.9575,N,08404.9816,W,0.0000,0.000,120118,,*3A
2018-01-11 19:54:15 1515718455.881673: $GPGSA,A,3,7,8,9,11,16,23,27,30,28,26,138,,4.0,0.8,3.5*3A
2018-01-11 19:54:16 1515718456.431004: $GPZDA,005417.00,12,01,2018,00,00*68
2018-01-11 19:54:16 1515718456.431173: $GPGGA,005417,3946.9575,N,08404.9816,W,2,11,0.80,295.71,M,-33.324,M,,*74
2018-01-11 19:54:16 1515718456.431239: $GPRMC,005417,A,3946.9575,N,08404.9816,W,0.0000,0.000,120118,,*3B
2018-01-11 19:54:16 1515718456.431299: $GPGSA,A,3,7,8,9,11,16,23,27,30,28,26,138,,4.0,0.8,3.5*3A
2018-01-11 19:54:17 1515718457.414385: $GPZDA,005418.00,12,01,2018,00,00*67
2018-01-11 19:54:17 1515718457.414553: $GPGGA,005418,3946.9575,N,08404.9816,W,2,11,0.80,295.71,M,-33.324,M,,*7B
2018-01-11 19:54:17 1515718457.414619: $GPRMC,005418,A,3946.9575,N,08404.9816,W,0.0000,0.000,120118,,*34
2018-01-11 19:54:17 1515718457.414679: $GPGSA,A,3,7,8,9,11,16,23,27,30,28,26,138,,4.0,0.8,3.5*3A
2018-01-11 19:54:18 1515718458.752358: $GPGSV,3,1,11,07,48,312,44,08,67,151,45,09,53,240,44,11,13,171,34*76
2018-01-11 19:54:18 1515718458.752524: $GPGSV,3,2,11,16,29,055,46,23,37,192,47,27,53,061,50,30,22,303,28*72
2018-01-11 19:54:18 1515718458.752588: $GPGSV,3,3,11,28,08,252,29,26,04,067,16,138,38,213,45*73
2018-01-11 19:54:18 1515718458.865943: $GPZDA,005419.00,12,01,2018,00,00*66
2018-01-11 19:54:18 1515718458.866062: $GPGGA,005419,3946.9575,N,08404.9816,W,2,11,0.80,295.71,M,-33.324,M,,*7A
2018-01-11 19:54:18 1515718458.866126: $GPRMC,005419,A,3946.9575,N,08404.9816,W,0.0000,0.000,120118,,*35
2018-01-11 19:54:18 1515718458.866186: $GPGSA,A,3,7,8,9,11,16,23,27,30,28,26,138,,4.0,0.8,3.5*3A
