2018-01-11 20:02:36 1515718956.447338: {"class":"VERSION","release":"3.16","rev":"3.16-4","proto_major":3,"proto_minor":11}
2018-01-11 20:02:36 1515718956.447778: {"class":"DEVICES","devices":[{"class":"DEVICE","path":"/dev/ttyUSB0","driver":"SiRF","subtype":"9\u0006GSD4e_4.1.2-P1_RPATCH.05-F-GPS-4R-1510281 11/03/2015 307","activated":"2018-01-12T01:02:36.281Z","flags":1,"native":1,"bps":4800,"parity":"N","stopbits":1,"cycle":1.00}]}
2018-01-11 20:02:36 1515718956.447910: {"class":"WATCH","enable":true,"json":false,"nmea":true,"raw":0,"scaled":false,"timing":false,"split24":false,"pps":false}
2018-01-11 20:02:36 1515718956.730794: $GPGSV,3,1,11,07,52,313,43,08,71,144,46,09,50,234,43,11,17,169,42*70
2018-01-11 20:02:36 1515718956.731001: $GPGSV,3,2,11,16,26,058,46,23,33,190,46,27,50,057,50,28,11,255,36*75
2018-01-11 20:02:36 1515718956.731067: $GPGSV,3,3,11,30,26,304,29,26,01,070,02,138,38,213,46*71
2018-01-11 20:02:36 1515718956.844171: $GPZDA,010237.00,12,01,2018,00,00*68
2018-01-11 20:02:36 1515718956.844320: $GPGGA,010237,3946.9584,N,08404.9817,W,2,10,0.80,298.39,M,-33.324,M,,*7B
2018-01-11 20:02:36 1515718956.844385: $GPRMC,010237,A,3946.9584,N,08404.9817,W,0.0000,0.000,120118,,*34
2018-01-11 20:02:36 1515718956.844445: $GPGSA,A,3,7,8,9,11,16,23,27,28,30,138,,,4.0,0.8,3.5*3E
2018-01-11 20:02:37 1515718957.392783: $GPZDA,010238.00,12,01,2018,00,00*67
2018-01-11 20:02:37 1515718957.392953: $GPGGA,010238,3946.9584,N,08404.9817,W,2,10,0.80,298.39,M,-33.324,M,,*74
2018-01-11 20:02:37 1515718957.393047: $GPRMC,010238,A,3946.9584,N,08404.9817,W,0.0000,0.000,120118,,*3B
2018-01-11 20:02:37 1515718957.393107: $GPGSA,A,3,7,8,9,11,16,23,27,28,30,138,,,4.0,0.8,3.5*3E
2018-01-11 20:02:38 1515718958.390008: $GPZDA,010239.00,12,01,2018,00,00*66
2018-01-11 20:02:38 1515718958.390170: $GPGGA,010239,3946.9584,N,08404.9817,W,2,10,0.80,298.39,M,-33.324,M,,*75
2018-01-11 20:02:38 1515718958.390237: $GPRMC,010239,A,3946.9584,N,08404.9817,W,0.0000,0.000,120118,,*3A
2018-01-11 20:02:38 1515718958.390297: $GPGSA,A,3,7,8,9,11,16,23,27,28,30,138,,,4.0,0.8,3.5*3E
2018-01-11 20:02:39 1515718959.727885: $GPGSV,3,1,11,07,52,313,43,08,71,144,46,09,50,234,43,11,17,169,42*70
2018-01-11 20:02:39 1515718959.728061: $GPGSV,3,2,11,16,26,058,45,23,33,190,46,27,50,057,50,28,11,255,36*76
2018-01-11 20:02:39 1515718959.728128: $GPGSV,3,3,11,30,26,304,29,26,01,070,00,138,38,213,46*73
2018-01-11 20:02:39 1515718959.840285: $GPZDA,010240.00,12,01,2018,00,00*68
2018-01-11 20:02:39 1515718959.840410: $GPGGA,010240,3946.9584,N,08404.9817,W,2,10,0.80,298.39,M,-33.324,M,,*7B
2018-01-11 20:02:39 1515718959.840473: $GPRMC,010240,A,3946.9584,N,08404.9817,W,0.0000,0.000,120118,,*34
2018-01-11 20:02:39 1515718959.840534: $GPGSA,A,3,7,8,9,11,16,23,27,28,30,138,,,4.0,0.8,3.5*3E
2018-01-11 20:02:40 1515718960.392366: $GPZDA,010241.00,12,01,2018,00,00*69
2018-01-11 20:02:40 1515718960.392516: $GPGGA,010241,3946.9584,N,08404.9817,W,2,10,0.80,298.39,M,-33.324,M,,*7A
2018-01-11 20:02:40 1515718960.392582: $GPRMC,010241,A,3946.9584,N,08404.9817,W,0.0000,0.000,120118,,*35
2018-01-11 20:02:40 1515718960.392642: $GPGSA,A,3,7,8,9,11,16,23,27,28,30,138,,,4.0,0.8,3.5*3E
2018-01-11 20:02:41 1515718961.392777: $GPZDA,010242.00,12,01,2018,00,00*6A
2018-01-11 20:02:41 1515718961.392981: $GPGGA,010242,3946.9584,N,08404.9817,W,2,10,0.80,298.39,M,-33.324,M,,*79
2018-01-11 20:02:41 1515718961.393049: $GPRMC,010242,A,3946.9584,N,08404.9817,W,0.0000,0.000,120118,,*36
2018-01-11 20:02:41 1515718961.393110: $GPGSA,A,3,7,8,9,11,16,23,27,28,30,138,,,4.0,0.8,3.5*3E
2018-01-11 20:02:42 1515718962.729480: $GPGSV,3,1,11,07,52,313,43,08,71,144,46,09,50,234,43,11,17,169,43*71
2018-01-11 20:02:42 1515718962.729660: $GPGSV,3,2,11,16,26,058,46,23,33,190,46,27,50,057,51,28,11,255,37*75
2018-01-11 20:02:42 1515718962.729726: $GPGSV,3,3,11,30,26,304,30,26,01,070,00,138,38,213,45*78
2018-01-11 20:02:42 1515718962.843101: $GPZDA,010243.00,12,01,2018,00,00*6B
2018-01-11 20:02:42 1515718962.843223: $GPGGA,010243,3946.9584,N,08404.9817,W,2,10,0.80,298.39,M,-33.324,M,,*78
2018-01-11 20:02:42 1515718962.843287: $GPRMC,010243,A,3946.9584,N,08404.9817,W,0.0000,0.000,120118,,*37
2018-01-11 20:02:42 1515718962.843405: $GPGSA,A,3,7,8,9,11,16,23,27,28,30,138,,,4.0,0.8,3.5*3E
2018-01-11 20:02:43 1515718963.392709: $GPZDA,010244.00,12,01,2018,00,00*6C
2018-01-11 20:02:43 1515718963.392877: $GPGGA,010244,3946.9584,N,08404.9817,W,2,10,0.80,298.39,M,-33.324,M,,*7F
2018-01-11 20:02:43 1515718963.392970: $GPRMC,010244,A,3946.9584,N,08404.9817,W,0.0000,0.000,120118,,*30
2018-01-11 20:02:43 1515718963.393032: $GPGSA,A,3,7,8,9,11,16,23,27,28,30,138,,,4.0,0.8,3.5*3E
2018-01-11 20:02:44 1515718964.393616: $GPZDA,010245.00,12,01,2018,00,00*6D
2018-01-11 20:02:44 1515718964.393790: $GPGGA,010245,3946.9584,N,08404.9817,W,2,10,0.80,298.39,M,-33.324,M,,*7E
2018-01-11 20:02:44 1515718964.393859: $GPRMC,010245,A,3946.9584,N,08404.9817,W,0.0000,0.000,120118,,*31
2018-01-11 20:02:44 1515718964.393936: $GPGSA,A,3,7,8,9,11,16,23,27,28,30,138,,,4.0,0.8,3.5*3E
2018-01-11 20:02:45 1515718965.727823: $GPGSV,3,1,11,07,52,313,43,08,71,144,46,09,50,234,43,11,17,169,43*71
2018-01-11 20:02:45 1515718965.730870: $GPGSV,3,2,11,16,26,058,46,23,33,190,46,27,50,057,51,28,11,255,37*75
2018-01-11 20:02:45 1515718965.730994: $GPGSV,3,3,11,30,26,304,31,26,01,070,00,138,38,213,45*79
2018-01-11 20:02:45 1515718965.841503: $GPZDA,010246.00,12,01,2018,00,00*6E
2018-01-11 20:02:45 1515718965.841643: $GPGGA,010246,3946.9584,N,08404.9824,W,2,10,0.80,298.32,M,-33.324,M,,*76
2018-01-11 20:02:45 1515718965.841708: $GPRMC,010246,A,3946.9584,N,08404.9824,W,0.0000,0.000,120118,,*32
2018-01-11 20:02:45 1515718965.841791: $GPGSA,A,3,7,8,9,11,16,23,27,28,30,138,,,4.0,0.8,3.5*3E
2018-01-11 20:02:46 1515718966.466824: $GPZDA,010247.00,12,01,2018,00,00*6F
2018-01-11 20:02:46 1515718966.466973: $GPGGA,010247,3946.9584,N,08404.9824,W,2,10,0.80,298.32,M,-33.324,M,,*77
2018-01-11 20:02:46 1515718966.467038: $GPRMC,010247,A,3946.9584,N,08404.9824,W,0.0000,0.000,120118,,*33
2018-01-11 20:02:46 1515718966.467098: $GPGSA,A,3,7,8,9,11,16,23,27,28,30,138,,,4.0,0.8,3.5*3E
2018-01-11 20:02:47 1515718967.391485: $GPZDA,010248.00,12,01,2018,00,00*60
2018-01-11 20:02:47 1515718967.391647: $GPGGA,010248,3946.9584,N,08404.9824,W,2,10,0.80,298.32,M,-33.324,M,,*78
2018-01-11 20:02:47 1515718967.391713: $GPRMC,010248,A,3946.9584,N,08404.9824,W,0.0000,0.000,120118,,*3C
2018-01-11 20:02:47 1515718967.391798: $GPGSA,A,3,7,8,9,11,16,23,27,28,30,138,,,4.0,0.8,3.5*3E
