2017-12-01 15:30:11 1512160211.886756: {"class":"VERSION","release":"3.16","rev":"3.16-4","proto_major":3,"proto_minor":11}
2017-12-01 15:30:11 1512160211.887174: {"class":"DEVICES","devices":[{"class":"DEVICE","path":"/dev/ttyUSB0","driver":"SiRF","subtype":"9\u0006GSD4e_4.1.2-P1_RPATCH.05-F-GPS-4R-1510281 11/03/2015 307","activated":"2017-12-01T20:30:11.513Z","flags":1,"native":1,"bps":4800,"parity":"N","stopbits":1,"cycle":1.00}]}
2017-12-01 15:30:11 1512160211.887306: {"class":"WATCH","enable":true,"json":false,"nmea":true,"raw":0,"scaled":false,"timing":false,"split24":false,"pps":false}
2017-12-01 15:30:12 1512160212.385837: $GPZDA,203013.00,01,12,2017,00,00*63
2017-12-01 15:30:12 1512160212.386014: $GPGGA,203013,3946.9565,N,08404.9823,W,2,11,0.80,307.19,M,-33.324,M,,*73
2017-12-01 15:30:12 1512160212.386083: $GPRMC,203013,A,3946.9565,N,08404.9823,W,0.0000,0.000,011217,,*37
2017-12-01 15:30:12 1512160212.386145: $GPGSA,A,3,1,10,11,12,14,18,24,25,31,32,138,,2.0,0.8,1.5*3B
2017-12-01 15:30:13 1512160213.726174: $GPGSV,3,1,11,01,10,322,43,10,77,118,47,11,10,307,36,12,24,079,44*7E
2017-12-01 15:30:13 1512160213.726357: $GPGSV,3,2,11,14,50,282,42,18,44,130,46,24,20,045,42,25,25,121,46*7C
2017-12-01 15:30:13 1512160213.726422: $GPGSV,3,3,11,31,28,208,47,32,65,312,49,138,38,213,45*77
2017-12-01 15:30:13 1512160213.839509: $GPZDA,203014.00,01,12,2017,00,00*64
2017-12-01 15:30:13 1512160213.839671: $GPGGA,203014,3946.9565,N,08404.9816,W,2,11,0.80,307.27,M,-33.324,M,,*7F
2017-12-01 15:30:13 1512160213.839735: $GPRMC,203014,A,3946.9565,N,08404.9816,W,0.0000,0.000,011217,,*36
2017-12-01 15:30:13 1512160213.839796: $GPGSA,A,3,1,10,11,12,14,18,24,25,31,32,138,,2.0,0.8,1.5*3B
2017-12-01 15:30:14 1512160214.466201: $GPZDA,203015.00,01,12,2017,00,00*65
2017-12-01 15:30:14 1512160214.466382: $GPGGA,203015,3946.9565,N,08404.9816,W,2,11,0.80,307.27,M,-33.324,M,,*7E
2017-12-01 15:30:14 1512160214.466450: $GPRMC,203015,A,3946.9565,N,08404.9816,W,0.0000,0.000,011217,,*37
2017-12-01 15:30:14 1512160214.466511: $GPGSA,A,3,1,10,11,12,14,18,24,25,31,32,138,,2.0,0.8,1.5*3B
2017-12-01 15:30:15 1512160215.389600: $GPZDA,203016.00,01,12,2017,00,00*66
2017-12-01 15:30:15 1512160215.389796: $GPGGA,203016,3946.9565,N,08404.9816,W,2,11,0.80,307.27,M,-33.324,M,,*7D
2017-12-01 15:30:15 1512160215.389865: $GPRMC,203016,A,3946.9565,N,08404.9816,W,0.0000,0.000,011217,,*34
2017-12-01 15:30:15 1512160215.389926: $GPGSA,A,3,1,10,11,12,14,18,24,25,31,32,138,,2.0,0.8,1.5*3B
2017-12-01 15:30:16 1512160216.727864: $GPGSV,3,1,11,01,10,322,42,10,77,118,47,11,10,307,35,12,24,079,45*7D
2017-12-01 15:30:16 1512160216.728055: $GPGSV,3,2,11,14,50,282,41,18,44,130,46,24,20,045,42,25,25,121,46*7F
2017-12-01 15:30:16 1512160216.728124: $GPGSV,3,3,11,31,28,208,47,32,65,312,49,138,38,213,45*77
2017-12-01 15:30:16 1512160216.841240: $GPZDA,203017.00,01,12,2017,00,00*67
2017-12-01 15:30:16 1512160216.841549: $GPGGA,203017,3946.9565,N,08404.9816,W,2,11,0.80,307.27,M,-33.324,M,,*7C
2017-12-01 15:30:16 1512160216.841723: $GPRMC,203017,A,3946.9565,N,08404.9816,W,0.0000,0.000,011217,,*35
2017-12-01 15:30:16 1512160216.841842: $GPGSA,A,3,1,10,11,12,14,18,24,25,31,32,138,,2.0,0.8,1.5*3B
2017-12-01 15:30:17 1512160217.373737: $GPZDA,203018.00,01,12,2017,00,00*68
2017-12-01 15:30:17 1512160217.373902: $GPGGA,203018,3946.9565,N,08404.9816,W,2,11,0.80,307.27,M,-33.324,M,,*73
2017-12-01 15:30:17 1512160217.373970: $GPRMC,203018,A,3946.9565,N,08404.9816,W,0.0000,0.000,011217,,*3A
2017-12-01 15:30:17 1512160217.374031: $GPGSA,A,3,1,10,11,12,14,18,24,25,31,32,138,,2.0,0.8,1.5*3B
2017-12-01 15:30:18 1512160218.373369: $GPZDA,203019.00,01,12,2017,00,00*69
2017-12-01 15:30:18 1512160218.373536: $GPGGA,203019,3946.9565,N,08404.9816,W,2,11,0.80,307.27,M,-33.324,M,,*72
2017-12-01 15:30:18 1512160218.373624: $GPRMC,203019,A,3946.9565,N,08404.9816,W,0.0000,0.000,011217,,*3B
2017-12-01 15:30:18 1512160218.373686: $GPGSA,A,3,1,10,11,12,14,18,24,25,31,32,138,,2.0,0.8,1.5*3B
2017-12-01 15:30:19 1512160219.713228: $GPGSV,3,1,11,01,10,322,42,10,77,118,47,11,10,307,11,12,24,079,44*7A
2017-12-01 15:30:19 1512160219.713433: $GPGSV,3,2,11,14,50,282,41,18,44,130,47,24,20,045,42,25,25,121,45*7D
2017-12-01 15:30:19 1512160219.713502: $GPGSV,3,3,11,31,28,208,47,32,65,312,49,138,38,213,45*77
2017-12-01 15:30:19 1512160219.827037: $GPZDA,203020.00,01,12,2017,00,00*63
2017-12-01 15:30:19 1512160219.827206: $GPGGA,203020,3946.9565,N,08404.9816,W,2,11,0.80,307.27,M,-33.324,M,,*78
2017-12-01 15:30:19 1512160219.827273: $GPRMC,203020,A,3946.9565,N,08404.9816,W,0.0000,0.000,011217,,*31
2017-12-01 15:30:19 1512160219.827334: $GPGSA,A,3,1,10,11,12,14,18,24,25,31,32,138,,2.0,0.8,1.5*3B
2017-12-01 15:30:20 1512160220.370381: $GPZDA,203021.00,01,12,2017,00,00*62
2017-12-01 15:30:20 1512160220.370574: $GPGGA,203021,3946.9565,N,08404.9816,W,2,11,0.80,307.27,M,-33.324,M,,*79
2017-12-01 15:30:20 1512160220.370643: $GPRMC,203021,A,3946.9565,N,08404.9816,W,0.0000,0.000,011217,,*30
2017-12-01 15:30:20 1512160220.370736: $GPGSA,A,3,1,10,11,12,14,18,24,25,31,32,138,,2.0,0.8,1.5*3B
2017-12-01 15:30:21 1512160221.373342: $GPZDA,203022.00,01,12,2017,00,00*61
2017-12-01 15:30:21 1512160221.373514: $GPGGA,203022,3946.9565,N,08404.9816,W,2,11,0.80,307.27,M,-33.324,M,,*7A
2017-12-01 15:30:21 1512160221.373600: $GPRMC,203022,A,3946.9565,N,08404.9816,W,0.0000,0.000,011217,,*33
2017-12-01 15:30:21 1512160221.373663: $GPGSA,A,3,1,10,11,12,14,18,24,25,31,32,138,,2.0,0.8,1.5*3B
2017-12-01 15:30:22 1512160222.714010: $GPGSV,3,1,11,01,10,322,41,10,77,118,47,11,10,307,01,12,24,079,44*78
2017-12-01 15:30:22 1512160222.714206: $GPGSV,3,2,11,14,50,282,41,18,44,130,46,24,20,045,43,25,25,121,46*7E
2017-12-01 15:30:22 1512160222.714274: $GPGSV,3,3,11,31,28,208,47,32,65,312,49,138,38,213,45*77
2017-12-01 15:30:22 1512160222.827488: $GPZDA,203023.00,01,12,2017,00,00*60
2017-12-01 15:30:22 1512160222.827697: $GPGGA,203023,3946.9565,N,08404.9823,W,2,10,0.80,307.19,M,-33.324,M,,*71
2017-12-01 15:30:22 1512160222.827767: $GPRMC,203023,A,3946.9565,N,08404.9823,W,0.0000,0.000,011217,,*34
2017-12-01 15:30:22 1512160222.827828: $GPGSA,A,3,1,10,12,14,18,24,25,31,32,138,,,2.0,0.8,1.5*3B
2017-12-01 15:30:23 1512160223.372394: $GPZDA,203024.00,01,12,2017,00,00*67
2017-12-01 15:30:23 1512160223.372588: $GPGGA,203024,3946.9565,N,08404.9823,W,2,10,0.80,307.19,M,-33.324,M,,*76
2017-12-01 15:30:23 1512160223.372656: $GPRMC,203024,A,3946.9565,N,08404.9823,W,0.0000,0.000,011217,,*33
2017-12-01 15:30:23 1512160223.372735: $GPGSA,A,3,1,10,12,14,18,24,25,31,32,138,,,2.0,0.8,1.5*3B
2017-12-01 15:30:24 1512160224.371710: $GPZDA,203025.00,01,12,2017,00,00*66
2017-12-01 15:30:24 1512160224.371855: $GPGGA,203025,3946.9565,N,08404.9823,W,2,10,0.80,307.19,M,-33.324,M,,*77
2017-12-01 15:30:24 1512160224.371921: $GPRMC,203025,A,3946.9565,N,08404.9823,W,0.0000,0.000,011217,,*32
2017-12-01 15:30:24 1512160224.371982: $GPGSA,A,3,1,10,12,14,18,24,25,31,32,138,,,2.0,0.8,1.5*3B
2017-12-01 15:30:25 1512160225.710785: $GPGSV,3,1,11,01,10,322,41,10,77,118,47,11,10,307,11,12,24,079,45*78
2017-12-01 15:30:25 1512160225.710992: $GPGSV,3,2,11,14,50,282,41,18,44,130,47,24,20,045,43,25,25,121,46*7F
2017-12-01 15:30:25 1512160225.711065: $GPGSV,3,3,11,31,28,208,47,32,65,312,48,138,38,213,45*76
2017-12-01 15:30:25 1512160225.824354: $GPZDA,203026.00,01,12,2017,00,00*65
2017-12-01 15:30:25 1512160225.824524: $GPGGA,203026,3946.9565,N,08404.9823,W,2,10,0.80,307.19,M,-33.324,M,,*74
2017-12-01 15:30:25 1512160225.824590: $GPRMC,203026,A,3946.9565,N,08404.9823,W,0.0000,0.000,011217,,*31
2017-12-01 15:30:25 1512160225.824651: $GPGSA,A,3,1,10,12,14,18,24,25,31,32,138,,,2.0,0.8,1.5*3B
2017-12-01 15:30:26 1512160226.370211: $GPZDA,203027.00,01,12,2017,00,00*64
2017-12-01 15:30:26 1512160226.370394: $GPGGA,203027,3946.9565,N,08404.9823,W,2,10,0.80,307.19,M,-33.324,M,,*75
2017-12-01 15:30:26 1512160226.370465: $GPRMC,203027,A,3946.9565,N,08404.9823,W,0.0000,0.000,011217,,*30
2017-12-01 15:30:26 1512160226.370529: $GPGSA,A,3,1,10,12,14,18,24,25,31,32,138,,,2.0,0.8,1.5*3B
2017-12-01 15:30:27 1512160227.373683: $GPZDA,203028.00,01,12,2017,00,00*6B
2017-12-01 15:30:27 1512160227.373856: $GPGGA,203028,3946.9565,N,08404.9823,W,2,10,0.80,307.19,M,-33.324,M,,*7A
2017-12-01 15:30:27 1512160227.373977: $GPRMC,203028,A,3946.9565,N,08404.9823,W,0.0000,0.000,011217,,*3F
2017-12-01 15:30:27 1512160227.374039: $GPGSA,A,3,1,10,12,14,18,24,25,31,32,138,,,2.0,0.8,1.5*3B
2017-12-01 15:30:28 1512160228.709015: $GPGSV,3,1,11,01,10,322,41,10,77,118,47,11,10,307,14,12,24,079,45*7D
2017-12-01 15:30:28 1512160228.709197: $GPGSV,3,2,11,14,50,282,41,18,44,130,47,24,20,045,44,25,25,121,46*78
2017-12-01 15:30:28 1512160228.709325: $GPGSV,3,3,11,31,28,208,47,32,65,312,49,138,38,213,46*74
2017-12-01 15:30:28 1512160228.822682: $GPZDA,203029.00,01,12,2017,00,00*6A
2017-12-01 15:30:28 1512160228.822827: $GPGGA,203029,3946.9565,N,08404.9823,W,2,11,0.80,307.19,M,-33.324,M,,*7A
2017-12-01 15:30:28 1512160228.822894: $GPRMC,203029,A,3946.9565,N,08404.9823,W,0.0000,0.000,011217,,*3E
2017-12-01 15:30:28 1512160228.822955: $GPGSA,A,3,1,10,11,12,14,18,24,25,31,32,138,,2.0,0.8,1.5*3B
2017-12-01 15:30:29 1512160229.448085: $GPZDA,203030.00,01,12,2017,00,00*62
2017-12-01 15:30:29 1512160229.448257: $GPGGA,203030,3946.9565,N,08404.9823,W,2,11,0.80,307.19,M,-33.324,M,,*72
2017-12-01 15:30:29 1512160229.448324: $GPRMC,203030,A,3946.9565,N,08404.9823,W,0.0000,0.000,011217,,*36
2017-12-01 15:30:29 1512160229.448385: $GPGSA,A,3,1,10,11,12,14,18,24,25,31,32,138,,2.0,0.8,1.5*3B
2017-12-01 15:30:30 1512160230.372752: $GPZDA,203031.00,01,12,2017,00,00*63
2017-12-01 15:30:30 1512160230.372906: $GPGGA,203031,3946.9565,N,08404.9823,W,2,11,0.80,307.19,M,-33.324,M,,*73
2017-12-01 15:30:30 1512160230.372972: $GPRMC,203031,A,3946.9565,N,08404.9823,W,0.0000,0.000,011217,,*37
2017-12-01 15:30:30 1512160230.373033: $GPGSA,A,3,1,10,11,12,14,18,24,25,31,32,138,,2.0,0.8,1.5*3B
2017-12-01 15:30:31 1512160231.706976: $GPGSV,3,1,11,01,10,322,40,10,77,118,47,11,10,307,27,12,24,079,45*7C
2017-12-01 15:30:31 1512160231.707175: $GPGSV,3,2,11,14,50,282,42,18,44,130,47,24,20,045,44,25,25,121,46*7B
2017-12-01 15:30:31 1512160231.707245: $GPGSV,3,3,11,31,28,208,47,32,65,312,49,138,38,213,44*76
2017-12-01 15:30:31 1512160231.820569: $GPZDA,203032.00,01,12,2017,00,00*60
2017-12-01 15:30:31 1512160231.820744: $GPGGA,203032,3946.9565,N,08404.9823,W,2,11,0.80,307.19,M,-33.324,M,,*70
2017-12-01 15:30:31 1512160231.820813: $GPRMC,203032,A,3946.9565,N,08404.9823,W,0.0000,0.000,011217,,*34
2017-12-01 15:30:31 1512160231.820878: $GPGSA,A,3,1,10,11,12,14,18,24,25,31,32,138,,2.0,0.8,1.5*3B
