2017-12-01 17:58:55 1512169135.093810: {"class":"VERSION","release":"3.16","rev":"3.16-4","proto_major":3,"proto_minor":11}
2017-12-01 17:58:55 1512169135.094208: {"class":"DEVICES","devices":[{"class":"DEVICE","path":"/dev/ttyUSB0","driver":"SiRF","subtype":"9\u0006GSD4e_4.1.2-P1_RPATCH.05-F-GPS-4R-1510281 11/03/2015 307","activated":"2017-12-01T22:58:54.530Z","flags":1,"native":1,"bps":4800,"parity":"N","stopbits":1,"cycle":1.00}]}
2017-12-01 17:58:55 1512169135.094334: {"class":"WATCH","enable":true,"json":false,"nmea":true,"raw":0,"scaled":false,"timing":false,"split24":false,"pps":false}
2017-12-01 17:58:55 1512169135.396794: $GPZDA,225856.00,01,12,2017,00,00*6E
2017-12-01 17:58:55 1512169135.396970: $GPGGA,225856,3946.9735,N,08404.9839,W,2,11,0.80,299.08,M,-33.325,M,,*75
2017-12-01 17:58:55 1512169135.397036: $GPRMC,225856,A,3946.9735,N,08404.9839,W,0.0000,0.000,011217,,*36
2017-12-01 17:58:55 1512169135.397097: $GPGSA,A,3,1,3,10,14,16,22,29,25,26,32,138,,2.0,0.8,1.5*0E
2017-12-01 17:58:56 1512169136.732029: $GPGSV,3,1,11,01,12,261,35,03,33,309,48,10,08,159,39,14,63,073,43*72
2017-12-01 17:58:56 1512169136.732193: $GPGSV,3,2,11,16,12,189,40,22,48,288,46,29,06,082,29,25,26,045,41*7F
2017-12-01 17:58:56 1512169136.732259: $GPGSV,3,3,11,26,41,175,45,32,44,097,44,138,38,213,46*76
2017-12-01 17:58:56 1512169136.845322: $GPZDA,225857.00,01,12,2017,00,00*6F
2017-12-01 17:58:56 1512169136.845483: $GPGGA,225857,3946.9735,N,08404.9839,W,2,11,0.80,299.08,M,-33.325,M,,*74
2017-12-01 17:58:56 1512169136.845546: $GPRMC,225857,A,3946.9735,N,08404.9839,W,0.0000,0.000,011217,,*37
2017-12-01 17:58:56 1512169136.845606: $GPGSA,A,3,1,3,10,14,16,22,29,25,26,32,138,,2.0,0.8,1.5*0E
2017-12-01 17:58:57 1512169137.394945: $GPZDA,225858.00,01,12,2017,00,00*60
2017-12-01 17:58:57 1512169137.395126: $GPGGA,225858,3946.9735,N,08404.9839,W,2,11,0.80,299.08,M,-33.325,M,,*7B
2017-12-01 17:58:57 1512169137.395196: $GPRMC,225858,A,3946.9735,N,08404.9839,W,0.0000,0.000,011217,,*38
2017-12-01 17:58:57 1512169137.395257: $GPGSA,A,3,1,3,10,14,16,22,29,25,26,32,138,,2.0,0.8,1.5*0E
2017-12-01 17:58:58 1512169138.394559: $GPZDA,225859.00,01,12,2017,00,00*61
2017-12-01 17:58:58 1512169138.394735: $GPGGA,225859,3946.9735,N,08404.9839,W,2,11,0.80,299.08,M,-33.325,M,,*7A
2017-12-01 17:58:58 1512169138.394802: $GPRMC,225859,A,3946.9735,N,08404.9839,W,0.0000,0.000,011217,,*39
2017-12-01 17:58:58 1512169138.394863: $GPGSA,A,3,1,3,10,14,16,22,29,25,26,32,138,,2.0,0.8,1.5*0E
2017-12-01 17:58:59 1512169139.756521: $GPGSV,3,1,11,01,12,261,36,03,33,309,48,10,08,159,40,14,63,073,43*7F
2017-12-01 17:58:59 1512169139.756704: $GPGSV,3,2,11,16,12,189,40,22,48,288,46,29,06,082,28,25,26,045,41*7E
2017-12-01 17:58:59 1512169139.756770: $GPGSV,3,3,11,26,41,175,44,32,44,097,44,138,38,213,46*77
2017-12-01 17:58:59 1512169139.869910: $GPZDA,225900.00,01,12,2017,00,00*6C
2017-12-01 17:58:59 1512169139.870089: $GPGGA,225900,3946.9735,N,08404.9839,W,2,11,0.80,299.08,M,-33.325,M,,*77
2017-12-01 17:58:59 1512169139.870157: $GPRMC,225900,A,3946.9735,N,08404.9839,W,0.0000,0.000,011217,,*34
2017-12-01 17:58:59 1512169139.870218: $GPGSA,A,3,1,3,10,14,16,22,29,25,26,32,138,,2.0,0.8,1.5*0E
2017-12-01 17:59:00 1512169140.389569: $GPZDA,225901.00,01,12,2017,00,00*6D
2017-12-01 17:59:00 1512169140.389745: $GPGGA,225901,3946.9735,N,08404.9839,W,2,11,0.80,299.08,M,-33.325,M,,*76
2017-12-01 17:59:00 1512169140.389812: $GPRMC,225901,A,3946.9735,N,08404.9839,W,0.0000,0.000,011217,,*35
2017-12-01 17:59:00 1512169140.389873: $GPGSA,A,3,1,3,10,14,16,22,29,25,26,32,138,,2.0,0.8,1.5*0E
2017-12-01 17:59:01 1512169141.421917: $GPZDA,225902.00,01,12,2017,00,00*6E
2017-12-01 17:59:01 1512169141.422042: $GPGGA,225902,3946.9735,N,08404.9839,W,2,11,0.80,299.08,M,-33.325,M,,*75
2017-12-01 17:59:01 1512169141.422106: $GPRMC,225902,A,3946.9735,N,08404.9839,W,0.0000,0.000,011217,,*36
2017-12-01 17:59:01 1512169141.422167: $GPGSA,A,3,1,3,10,14,16,22,29,25,26,32,138,,2.0,0.8,1.5*0E
2017-12-01 17:59:02 1512169142.755729: $GPGSV,3,1,11,01,12,261,36,03,33,309,48,10,08,159,39,14,63,073,43*71
2017-12-01 17:59:02 1512169142.755962: $GPGSV,3,2,11,16,12,189,40,22,48,288,46,29,06,082,28,25,26,045,42*7D
2017-12-01 17:59:02 1512169142.756031: $GPGSV,3,3,11,26,41,175,45,32,44,097,44,138,38,213,46*76
2017-12-01 17:59:02 1512169142.869165: $GPZDA,225903.00,01,12,2017,00,00*6F
2017-12-01 17:59:02 1512169142.869337: $GPGGA,225903,3946.9735,N,08404.9839,W,2,11,0.80,299.08,M,-33.325,M,,*74
2017-12-01 17:59:02 1512169142.869404: $GPRMC,225903,A,3946.9735,N,08404.9839,W,0.0000,0.000,011217,,*37
2017-12-01 17:59:02 1512169142.869465: $GPGSA,A,3,1,3,10,14,16,22,29,25,26,32,138,,2.0,0.8,1.5*0E
2017-12-01 17:59:03 1512169143.421415: $GPZDA,225904.00,01,12,2017,00,00*68
2017-12-01 17:59:03 1512169143.421665: $GPGGA,225904,3946.9735,N,08404.9839,W,2,11,0.80,299.08,M,-33.325,M,,*73
2017-12-01 17:59:03 1512169143.421741: $GPRMC,225904,A,3946.9735,N,08404.9839,W,0.0000,0.000,011217,,*30
2017-12-01 17:59:03 1512169143.421803: $GPGSA,A,3,1,3,10,14,16,22,29,25,26,32,138,,2.0,0.8,1.5*0E
2017-12-01 17:59:04 1512169144.420888: $GPZDA,225905.00,01,12,2017,00,00*69
2017-12-01 17:59:04 1512169144.421057: $GPGGA,225905,3946.9735,N,08404.9839,W,2,11,0.80,299.08,M,-33.325,M,,*72
2017-12-01 17:59:04 1512169144.421123: $GPRMC,225905,A,3946.9735,N,08404.9839,W,0.0000,0.000,011217,,*31
2017-12-01 17:59:04 1512169144.421184: $GPGSA,A,3,1,3,10,14,16,22,29,25,26,32,138,,2.0,0.8,1.5*0E
2017-12-01 17:59:05 1512169145.755319: $GPGSV,3,1,11,01,12,261,36,03,33,309,48,10,08,159,39,14,63,073,43*71
2017-12-01 17:59:05 1512169145.755516: $GPGSV,3,2,11,16,12,189,40,22,48,288,46,29,06,082,28,25,26,045,42*7D
2017-12-01 17:59:05 1512169145.755586: $GPGSV,3,3,11,26,41,175,46,32,44,097,44,138,38,213,46*75
2017-12-01 17:59:05 1512169145.868873: $GPZDA,225906.00,01,12,2017,00,00*6A
2017-12-01 17:59:05 1512169145.869042: $GPGGA,225906,3946.9735,N,08404.9839,W,2,11,0.80,299.08,M,-33.325,M,,*71
2017-12-01 17:59:05 1512169145.869108: $GPRMC,225906,A,3946.9735,N,08404.9839,W,0.0000,0.000,011217,,*32
2017-12-01 17:59:05 1512169145.869169: $GPGSA,A,3,1,3,10,14,16,22,29,25,26,32,138,,2.0,0.8,1.5*0E
2017-12-01 17:59:06 1512169146.494179: $GPZDA,225907.00,01,12,2017,00,00*6B
2017-12-01 17:59:06 1512169146.494358: $GPGGA,225907,3946.9735,N,08404.9839,W,2,11,0.80,299.08,M,-33.325,M,,*70
2017-12-01 17:59:06 1512169146.494425: $GPRMC,225907,A,3946.9735,N,08404.9839,W,0.0000,0.000,011217,,*33
2017-12-01 17:59:06 1512169146.494486: $GPGSA,A,3,1,3,10,14,16,22,29,25,26,32,138,,2.0,0.8,1.5*0E
2017-12-01 17:59:07 1512169147.422684: $GPZDA,225908.00,01,12,2017,00,00*64
2017-12-01 17:59:07 1512169147.422863: $GPGGA,225908,3946.9735,N,08404.9839,W,2,11,0.80,299.08,M,-33.325,M,,*7F
2017-12-01 17:59:07 1512169147.422929: $GPRMC,225908,A,3946.9735,N,08404.9839,W,0.0000,0.000,011217,,*3C
2017-12-01 17:59:07 1512169147.422990: $GPGSA,A,3,1,3,10,14,16,22,29,25,26,32,138,,2.0,0.8,1.5*0E
2017-12-01 17:59:08 1512169148.725773: $GPGSV,3,1,11,01,12,261,36,03,33,309,47,10,08,159,39,14,63,073,43*7E
2017-12-01 17:59:08 1512169148.725935: $GPGSV,3,2,11,16,12,189,41,22,48,288,46,29,06,082,28,25,26,045,42*7C
2017-12-01 17:59:08 1512169148.726002: $GPGSV,3,3,11,26,41,175,46,32,44,097,44,138,38,213,46*75
2017-12-01 17:59:08 1512169148.839205: $GPZDA,225909.00,01,12,2017,00,00*65
2017-12-01 17:59:08 1512169148.839377: $GPGGA,225909,3946.9735,N,08404.9839,W,2,11,0.80,299.08,M,-33.325,M,,*7E
2017-12-01 17:59:08 1512169148.839443: $GPRMC,225909,A,3946.9735,N,08404.9839,W,0.0000,0.000,011217,,*3D
2017-12-01 17:59:08 1512169148.839504: $GPGSA,A,3,1,3,10,14,16,22,29,25,26,32,138,,2.0,0.8,1.5*0E
2017-12-01 17:59:09 1512169149.420355: $GPZDA,225910.00,01,12,2017,00,00*6D
2017-12-01 17:59:09 1512169149.420521: $GPGGA,225910,3946.9735,N,08404.9839,W,2,11,0.80,299.08,M,-33.325,M,,*76
2017-12-01 17:59:09 1512169149.420588: $GPRMC,225910,A,3946.9735,N,08404.9839,W,0.0000,0.000,011217,,*35
2017-12-01 17:59:09 1512169149.420649: $GPGSA,A,3,1,3,10,14,16,22,29,25,26,32,138,,2.0,0.8,1.5*0E
2017-12-01 17:59:10 1512169150.394743: $GPZDA,225911.00,01,12,2017,00,00*6C
2017-12-01 17:59:10 1512169150.394922: $GPGGA,225911,3946.9735,N,08404.9839,W,2,11,0.80,299.08,M,-33.325,M,,*77
2017-12-01 17:59:10 1512169150.395040: $GPRMC,225911,A,3946.9735,N,08404.9839,W,0.0000,0.000,011217,,*34
2017-12-01 17:59:10 1512169150.395103: $GPGSA,A,3,1,3,10,14,16,22,29,25,26,32,138,,2.0,0.8,1.5*0E
2017-12-01 17:59:11 1512169151.757352: $GPGSV,3,1,11,01,12,261,37,03,33,309,47,10,08,159,38,14,63,073,42*7F
2017-12-01 17:59:11 1512169151.757533: $GPGSV,3,2,11,16,12,189,41,22,48,288,46,29,06,082,28,25,26,045,41*7F
2017-12-01 17:59:11 1512169151.757602: $GPGSV,3,3,11,26,41,175,46,32,44,097,44,138,38,213,46*75
2017-12-01 17:59:11 1512169151.870764: $GPZDA,225912.00,01,12,2017,00,00*6F
2017-12-01 17:59:11 1512169151.870907: $GPGGA,225912,3946.9735,N,08404.9839,W,2,11,0.80,299.08,M,-33.325,M,,*74
2017-12-01 17:59:11 1512169151.870974: $GPRMC,225912,A,3946.9735,N,08404.9839,W,0.0000,0.000,011217,,*37
2017-12-01 17:59:11 1512169151.871034: $GPGSA,A,3,1,3,10,14,16,22,29,25,26,32,138,,2.0,0.8,1.5*0E
2017-12-01 17:59:12 1512169152.422157: $GPZDA,225913.00,01,12,2017,00,00*6E
2017-12-01 17:59:12 1512169152.422341: $GPGGA,225913,3946.9735,N,08404.9839,W,2,11,0.80,299.08,M,-33.325,M,,*75
2017-12-01 17:59:12 1512169152.422408: $GPRMC,225913,A,3946.9735,N,08404.9839,W,0.0000,0.000,011217,,*36
2017-12-01 17:59:12 1512169152.422469: $GPGSA,A,3,1,3,10,14,16,22,29,25,26,32,138,,2.0,0.8,1.5*0E
2017-12-01 17:59:13 1512169153.415288: $GPZDA,225914.00,01,12,2017,00,00*69
2017-12-01 17:59:13 1512169153.415446: $GPGGA,225914,3946.9735,N,08404.9839,W,2,11,0.80,299.08,M,-33.325,M,,*72
2017-12-01 17:59:13 1512169153.415512: $GPRMC,225914,A,3946.9735,N,08404.9839,W,0.0000,0.000,011217,,*31
2017-12-01 17:59:13 1512169153.415574: $GPGSA,A,3,1,3,10,14,16,22,29,25,26,32,138,,2.0,0.8,1.5*0E
2017-12-01 17:59:14 1512169154.749427: $GPGSV,3,1,11,01,12,261,37,03,33,309,47,10,08,159,38,14,63,073,43*7E
2017-12-01 17:59:14 1512169154.749611: $GPGSV,3,2,11,16,12,189,40,22,48,288,46,29,06,082,29,25,26,045,41*7F
2017-12-01 17:59:14 1512169154.749679: $GPGSV,3,3,11,26,41,175,46,32,44,097,44,138,38,213,46*75
2017-12-01 17:59:14 1512169154.863168: $GPZDA,225915.00,01,12,2017,00,00*68
2017-12-01 17:59:14 1512169154.863359: $GPGGA,225915,3946.9735,N,08404.9839,W,2,11,0.80,299.08,M,-33.325,M,,*73
2017-12-01 17:59:14 1512169154.863426: $GPRMC,225915,A,3946.9735,N,08404.9839,W,0.0000,0.000,011217,,*30
2017-12-01 17:59:14 1512169154.863487: $GPGSA,A,3,1,3,10,14,16,22,29,25,26,32,138,,2.0,0.8,1.5*0E
