2017-11-16 15:37:41 1510864661.866912: {"class":"VERSION","release":"3.17","rev":"3.17","proto_major":3,"proto_minor":12}
2017-11-16 15:37:41 1510864661.867358: {"class":"DEVICES","devices":[{"class":"DEVICE","path":"/dev/ttyUSB0","driver":"SiRF","subtype":"9\u0006GSD4e_4.1.2-P1_RPATCH.05-F-GPS-4R-1510281 11/03/2015 307","activated":"2017-11-16T20:37:41.591Z","flags":1,"native":1,"bps":4800,"parity":"N","stopbits":1,"cycle":1.00}]}
2017-11-16 15:37:41 1510864661.867470: {"class":"WATCH","enable":true,"json":false,"nmea":true,"raw":0,"scaled":false,"timing":false,"split24":false,"pps":false}
2017-11-16 15:37:42 1510864662.365657: $GPZDA,203741.00,16,11,2017,00,00*66
2017-11-16 15:37:42 1510864662.365839: $GPGGA,203741,3946.9568,N,08404.9860,W,2,12,1.40,309.61,M,-33.324,M,,*76
2017-11-16 15:37:42 1510864662.365920: $GPRMC,203741,A,3946.9568,N,08404.9860,W,0.0000,0.000,161117,,*38
2017-11-16 15:37:42 1510864662.365979: $GPGSA,A,3,8,10,14,31,18,20,21,24,25,32,12,138,1.6,1.4,1.3*3D
2017-11-16 15:37:43 1510864663.703496: $GPGSV,3,1,12,08,04,288,38,10,74,340,51,14,33,258,45,31,04,204,40*73
2017-11-16 15:37:43 1510864663.703597: $GPGSV,3,2,12,18,66,105,48,20,04,121,19,21,23,178,43,24,40,054,49*73
2017-11-16 15:37:43 1510864663.703629: $GPGSV,3,3,12,25,07,138,26,32,50,271,46,12,13,102,30,138,38,213,44*46
2017-11-16 15:37:43 1510864663.816417: $GPZDA,203742.00,16,11,2017,00,00*65
2017-11-16 15:37:43 1510864663.816518: $GPGGA,203742,3946.9568,N,08404.9860,W,2,12,1.40,309.61,M,-33.324,M,,*75
2017-11-16 15:37:43 1510864663.816550: $GPRMC,203742,A,3946.9568,N,08404.9860,W,0.0000,0.000,161117,,*3B
2017-11-16 15:37:43 1510864663.816580: $GPGSA,A,3,8,10,14,31,18,20,21,24,25,32,12,138,1.6,1.4,1.3*3D
2017-11-16 15:37:44 1510864664.383009: $GPZDA,203743.00,16,11,2017,00,00*64
2017-11-16 15:37:44 1510864664.383173: $GPGGA,203743,3946.9568,N,08404.9860,W,2,12,1.40,309.61,M,-33.324,M,,*74
2017-11-16 15:37:44 1510864664.383241: $GPRMC,203743,A,3946.9568,N,08404.9860,W,0.0000,0.000,161117,,*3A
2017-11-16 15:37:44 1510864664.383300: $GPGSA,A,3,8,10,14,31,18,20,21,24,25,32,12,138,1.6,1.4,1.3*3D
2017-11-16 15:37:45 1510864665.370072: $GPZDA,203744.00,16,11,2017,00,00*63
2017-11-16 15:37:45 1510864665.370251: $GPGGA,203744,3946.9568,N,08404.9860,W,2,12,1.40,309.61,M,-33.324,M,,*73
2017-11-16 15:37:45 1510864665.370402: $GPRMC,203744,A,3946.9568,N,08404.9860,W,0.0000,0.000,161117,,*3D
2017-11-16 15:37:45 1510864665.370464: $GPGSA,A,3,8,10,14,31,18,20,21,24,25,32,12,138,1.6,1.4,1.3*3D
2017-11-16 15:37:46 1510864666.717650: $GPGSV,3,1,12,08,04,288,38,10,74,340,51,14,33,258,45,31,04,204,40*73
2017-11-16 15:37:46 1510864666.717757: $GPGSV,3,2,12,18,66,105,48,20,04,121,22,21,23,178,43,24,40,054,50*73
2017-11-16 15:37:46 1510864666.717788: $GPGSV,3,3,12,25,07,138,26,32,50,271,46,12,13,102,31,138,38,213,44*47
2017-11-16 15:37:46 1510864666.830677: $GPZDA,203745.00,16,11,2017,00,00*62
2017-11-16 15:37:46 1510864666.830752: $GPGGA,203745,3946.9568,N,08404.9860,W,2,12,1.40,309.61,M,-33.324,M,,*72
2017-11-16 15:37:46 1510864666.830783: $GPRMC,203745,A,3946.9568,N,08404.9860,W,0.0000,0.000,161117,,*3C
2017-11-16 15:37:46 1510864666.830812: $GPGSA,A,3,8,10,14,31,18,20,21,24,25,32,12,138,1.6,1.4,1.3*3D
2017-11-16 15:37:47 1510864667.364053: $GPZDA,203746.00,16,11,2017,00,00*61
2017-11-16 15:37:47 1510864667.364183: $GPGGA,203746,3946.9568,N,08404.9860,W,2,12,1.20,309.61,M,-33.324,M,,*77
2017-11-16 15:37:47 1510864667.370939: $GPRMC,203746,A,3946.9568,N,08404.9860,W,0.0000,0.000,161117,,*3F
2017-11-16 15:37:47 1510864667.371039: $GPGSA,A,3,8,10,14,31,18,20,21,24,25,32,12,138,1.6,1.2,1.3*3B
2017-11-16 15:37:48 1510864668.366923: $GPZDA,203747.00,16,11,2017,00,00*60
2017-11-16 15:37:48 1510864668.367091: $GPGGA,203747,3946.9568,N,08404.9860,W,2,12,1.20,309.61,M,-33.324,M,,*76
2017-11-16 15:37:48 1510864668.367156: $GPRMC,203747,A,3946.9568,N,08404.9860,W,0.0000,0.000,161117,,*3E
2017-11-16 15:37:48 1510864668.367214: $GPGSA,A,3,8,10,14,31,18,20,21,24,25,32,12,138,1.6,1.2,1.3*3B
2017-11-16 15:37:49 1510864669.703720: $GPGSV,3,1,12,08,04,288,38,10,74,340,51,14,33,258,45,31,04,204,40*73
2017-11-16 15:37:49 1510864669.703955: $GPGSV,3,2,12,18,66,105,48,20,04,121,21,21,23,178,43,24,40,054,50*70
2017-11-16 15:37:49 1510864669.704019: $GPGSV,3,3,12,25,07,138,26,32,50,271,46,12,13,102,31,138,38,213,44*47
2017-11-16 15:37:49 1510864669.817021: $GPZDA,203748.00,16,11,2017,00,00*6F
2017-11-16 15:37:49 1510864669.817190: $GPGGA,203748,3946.9568,N,08404.9860,W,2,12,1.20,309.61,M,-33.324,M,,*79
2017-11-16 15:37:49 1510864669.817254: $GPRMC,203748,A,3946.9568,N,08404.9860,W,0.0000,0.000,161117,,*31
2017-11-16 15:37:49 1510864669.817310: $GPGSA,A,3,8,10,14,31,18,20,21,24,25,32,12,138,1.6,1.2,1.3*3B
2017-11-16 15:37:50 1510864670.357869: $GPZDA,203749.00,16,11,2017,00,00*6E
2017-11-16 15:37:50 1510864670.358034: $GPGGA,203749,3946.9568,N,08404.9860,W,2,12,1.20,309.61,M,-33.324,M,,*78
2017-11-16 15:37:50 1510864670.358097: $GPRMC,203749,A,3946.9568,N,08404.9860,W,0.0000,0.000,161117,,*30
2017-11-16 15:37:50 1510864670.358154: $GPGSA,A,3,8,10,14,31,18,20,21,24,25,32,12,138,1.6,1.2,1.3*3B
2017-11-16 15:37:51 1510864671.368226: $GPZDA,203750.00,16,11,2017,00,00*66
2017-11-16 15:37:51 1510864671.368393: $GPGGA,203750,3946.9568,N,08404.9860,W,2,12,1.20,309.61,M,-33.324,M,,*70
2017-11-16 15:37:51 1510864671.368454: $GPRMC,203750,A,3946.9568,N,08404.9860,W,0.0000,0.000,161117,,*38
2017-11-16 15:37:51 1510864671.368510: $GPGSA,A,3,8,10,14,31,18,20,21,24,25,32,12,138,1.6,1.2,1.3*3B
