2017-12-01 16:22:58 1512163378.574056: {"class":"VERSION","release":"3.16","rev":"3.16-4","proto_major":3,"proto_minor":11}
2017-12-01 16:22:58 1512163378.574457: {"class":"DEVICES","devices":[{"class":"DEVICE","path":"/dev/ttyUSB0","driver":"SiRF","subtype":"9\u0006GSD4e_4.1.2-P1_RPATCH.05-F-GPS-4R-1510281 11/03/2015 307","activated":"2017-12-01T21:22:58.527Z","flags":1,"native":1,"bps":4800,"parity":"N","stopbits":1,"cycle":1.00}]}
2017-12-01 16:22:58 1512163378.574610: {"class":"WATCH","enable":true,"json":false,"nmea":true,"raw":0,"scaled":false,"timing":false,"split24":false,"pps":false}
2017-12-01 16:22:59 1512163379.717162: $GPGSV,3,1,11,01,21,304,44,10,52,145,44,11,09,286,39,14,64,319,44*7B
2017-12-01 16:22:59 1512163379.717342: $GPGSV,3,2,11,22,16,312,42,31,52,222,49,32,69,018,50,12,23,054,29*79
2017-12-01 16:22:59 1512163379.717410: $GPGSV,3,3,11,18,21,142,28,25,38,096,28,138,38,213,34*71
2017-12-01 16:22:59 1512163379.829252: $GPZDA,212300.00,01,12,2017,00,00*62
2017-12-01 16:22:59 1512163379.829401: $GPGGA,212300,3946.9643,N,08404.9709,W,2,11,0.80,289.96,M,-33.324,M,,*72
2017-12-01 16:22:59 1512163379.829467: $GPRMC,212300,A,3946.9643,N,08404.9709,W,0.0000,0.000,011217,,*36
2017-12-01 16:22:59 1512163379.829526: $GPGSA,A,3,1,10,11,14,22,31,32,12,18,25,138,,2.0,0.8,1.5*3D
2017-12-01 16:23:00 1512163380.397662: $GPZDA,212301.00,01,12,2017,00,00*63
2017-12-01 16:23:00 1512163380.397856: $GPGGA,212301,3946.9643,N,08404.9709,W,2,11,0.80,289.96,M,-33.324,M,,*73
2017-12-01 16:23:00 1512163380.397948: $GPRMC,212301,A,3946.9643,N,08404.9709,W,0.0000,0.000,011217,,*37
2017-12-01 16:23:00 1512163380.398013: $GPGSA,A,3,1,10,11,14,22,31,32,12,18,25,138,,2.0,0.8,1.5*3D
2017-12-01 16:23:01 1512163381.404280: $GPZDA,212302.00,01,12,2017,00,00*60
2017-12-01 16:23:01 1512163381.404440: $GPGGA,212302,3946.9643,N,08404.9709,W,2,11,0.80,289.96,M,-33.324,M,,*70
2017-12-01 16:23:01 1512163381.404508: $GPRMC,212302,A,3946.9643,N,08404.9709,W,0.0000,0.000,011217,,*34
2017-12-01 16:23:01 1512163381.404569: $GPGSA,A,3,1,10,11,14,22,31,32,12,18,25,138,,2.0,0.8,1.5*3D
2017-12-01 16:23:02 1512163382.738743: $GPGSV,3,1,11,01,21,304,44,10,52,145,44,11,09,286,38,14,64,319,45*7B
2017-12-01 16:23:02 1512163382.738926: $GPGSV,3,2,11,22,16,312,42,31,52,222,49,32,69,018,50,12,23,054,29*79
2017-12-01 16:23:02 1512163382.738995: $GPGSV,3,3,11,18,21,142,28,25,38,096,28,138,38,213,38*7D
2017-12-01 16:23:02 1512163382.852232: $GPZDA,212303.00,01,12,2017,00,00*61
2017-12-01 16:23:02 1512163382.852405: $GPGGA,212303,3946.9643,N,08404.9709,W,2,11,0.80,289.96,M,-33.324,M,,*71
2017-12-01 16:23:02 1512163382.852473: $GPRMC,212303,A,3946.9643,N,08404.9709,W,0.0000,0.000,011217,,*35
2017-12-01 16:23:02 1512163382.852534: $GPGSA,A,3,1,10,11,14,22,31,32,12,18,25,138,,2.0,0.8,1.5*3D
2017-12-01 16:23:03 1512163383.403052: $GPZDA,212304.00,01,12,2017,00,00*66
2017-12-01 16:23:03 1512163383.403235: $GPGGA,212304,3946.9643,N,08404.9709,W,2,11,0.80,289.96,M,-33.324,M,,*76
2017-12-01 16:23:03 1512163383.403305: $GPRMC,212304,A,3946.9643,N,08404.9709,W,0.0000,0.000,011217,,*32
2017-12-01 16:23:03 1512163383.403366: $GPGSA,A,3,1,10,11,14,22,31,32,12,18,25,138,,2.0,0.8,1.5*3D
2017-12-01 16:23:04 1512163384.403926: $GPZDA,212305.00,01,12,2017,00,00*67
2017-12-01 16:23:04 1512163384.404093: $GPGGA,212305,3946.9643,N,08404.9709,W,2,11,0.80,289.96,M,-33.324,M,,*77
2017-12-01 16:23:04 1512163384.404162: $GPRMC,212305,A,3946.9643,N,08404.9709,W,0.0000,0.000,011217,,*33
2017-12-01 16:23:04 1512163384.404223: $GPGSA,A,3,1,10,11,14,22,31,32,12,18,25,138,,2.0,0.8,1.5*3D
2017-12-01 16:23:05 1512163385.722147: $GPGSV,3,1,11,01,21,304,44,10,52,145,44,11,09,286,38,14,64,319,44*7A
2017-12-01 16:23:05 1512163385.722325: $GPGSV,3,2,11,22,16,312,42,31,52,222,49,32,69,018,50,12,23,054,00*72
2017-12-01 16:23:05 1512163385.722393: $GPGSV,3,3,11,18,21,142,00,25,38,096,28,138,38,213,40*78
2017-12-01 16:23:05 1512163385.835643: $GPZDA,212306.00,01,12,2017,00,00*64
2017-12-01 16:23:05 1512163385.835805: $GPGGA,212306,3946.9643,N,08404.9709,W,2,09,1.20,289.96,M,-33.324,M,,*76
2017-12-01 16:23:05 1512163385.835924: $GPRMC,212306,A,3946.9643,N,08404.9709,W,0.0000,0.000,011217,,*30
2017-12-01 16:23:05 1512163385.835987: $GPGSA,A,3,1,10,11,14,22,31,32,25,138,,,,2.0,1.2,1.5*3C
2017-12-01 16:23:06 1512163386.461231: $GPZDA,212307.00,01,12,2017,00,00*65
2017-12-01 16:23:06 1512163386.461450: $GPGGA,212307,3946.9643,N,08404.9709,W,2,09,1.20,289.96,M,-33.324,M,,*77
2017-12-01 16:23:06 1512163386.461526: $GPRMC,212307,A,3946.9643,N,08404.9709,W,0.0000,0.000,011217,,*31
2017-12-01 16:23:06 1512163386.461588: $GPGSA,A,3,1,10,11,14,22,31,32,25,138,,,,2.0,1.2,1.5*3C
2017-12-01 16:23:07 1512163387.385508: $GPZDA,212308.00,01,12,2017,00,00*6A
2017-12-01 16:23:07 1512163387.385685: $GPGGA,212308,3946.9643,N,08404.9709,W,2,09,1.20,289.96,M,-33.324,M,,*78
2017-12-01 16:23:07 1512163387.385753: $GPRMC,212308,A,3946.9643,N,08404.9709,W,0.0000,0.000,011217,,*3E
2017-12-01 16:23:07 1512163387.385814: $GPGSA,A,3,1,10,11,14,22,31,32,25,138,,,,2.0,1.2,1.5*3C
2017-12-01 16:23:08 1512163388.716287: $GPGSV,3,1,11,01,21,304,43,10,52,145,44,11,09,286,38,14,64,319,44*7D
2017-12-01 16:23:08 1512163388.716468: $GPGSV,3,2,11,22,16,312,42,31,52,222,48,32,69,018,50,18,21,142,24*7B
2017-12-01 16:23:08 1512163388.716537: $GPGSV,3,3,11,12,23,054,00,25,38,096,28,138,38,213,40*76
2017-12-01 16:23:08 1512163388.829638: $GPZDA,212309.00,01,12,2017,00,00*6B
2017-12-01 16:23:08 1512163388.829784: $GPGGA,212309,3946.9643,N,08404.9709,W,2,10,1.20,289.96,M,-33.324,M,,*71
2017-12-01 16:23:08 1512163388.829850: $GPRMC,212309,A,3946.9643,N,08404.9709,W,0.0000,0.000,011217,,*3F
2017-12-01 16:23:08 1512163388.829910: $GPGSA,A,3,1,10,11,14,22,31,32,18,25,138,,,2.0,1.2,1.5*35
2017-12-01 16:23:09 1512163389.385570: $GPZDA,212310.00,01,12,2017,00,00*63
2017-12-01 16:23:09 1512163389.385760: $GPGGA,212310,3946.9643,N,08404.9709,W,2,10,1.20,289.96,M,-33.324,M,,*79
2017-12-01 16:23:09 1512163389.385830: $GPRMC,212310,A,3946.9643,N,08404.9709,W,0.0000,0.000,011217,,*37
2017-12-01 16:23:09 1512163389.385891: $GPGSA,A,3,1,10,11,14,22,31,32,18,25,138,,,2.0,1.2,1.5*35
2017-12-01 16:23:10 1512163390.385131: $GPZDA,212311.00,01,12,2017,00,00*62
2017-12-01 16:23:10 1512163390.385313: $GPGGA,212311,3946.9643,N,08404.9709,W,2,10,1.20,289.96,M,-33.324,M,,*78
2017-12-01 16:23:10 1512163390.385380: $GPRMC,212311,A,3946.9643,N,08404.9709,W,0.0000,0.000,011217,,*36
2017-12-01 16:23:10 1512163390.385441: $GPGSA,A,3,1,10,11,14,22,31,32,18,25,138,,,2.0,1.2,1.5*35
2017-12-01 16:23:11 1512163391.730377: $GPGSV,3,1,11,01,21,304,43,10,52,145,44,11,09,286,38,14,64,319,44*7D
2017-12-01 16:23:11 1512163391.730570: $GPGSV,3,2,11,22,16,312,42,31,52,222,48,32,69,018,50,18,21,142,24*7B
2017-12-01 16:23:11 1512163391.730640: $GPGSV,3,3,11,12,23,054,01,25,38,096,28,138,38,213,38*78
2017-12-01 16:23:11 1512163391.843820: $GPZDA,212312.00,01,12,2017,00,00*61
2017-12-01 16:23:11 1512163391.844001: $GPGGA,212312,3946.9643,N,08404.9709,W,2,10,1.20,289.96,M,-33.324,M,,*7B
2017-12-01 16:23:11 1512163391.844072: $GPRMC,212312,A,3946.9643,N,08404.9709,W,0.0000,0.000,011217,,*35
2017-12-01 16:23:11 1512163391.844137: $GPGSA,A,3,1,10,11,14,22,31,32,18,25,138,,,2.0,1.2,1.5*35
2017-12-01 16:23:12 1512163392.384984: $GPZDA,212313.00,01,12,2017,00,00*60
2017-12-01 16:23:12 1512163392.385158: $GPGGA,212313,3946.9643,N,08404.9709,W,2,10,1.20,289.96,M,-33.324,M,,*7A
2017-12-01 16:23:12 1512163392.385228: $GPRMC,212313,A,3946.9643,N,08404.9709,W,0.0000,0.000,011217,,*34
2017-12-01 16:23:12 1512163392.385292: $GPGSA,A,3,1,10,11,14,22,31,32,18,25,138,,,2.0,1.2,1.5*35
2017-12-01 16:23:13 1512163393.383025: $GPZDA,212314.00,01,12,2017,00,00*67
2017-12-01 16:23:13 1512163393.383206: $GPGGA,212314,3946.9643,N,08404.9709,W,2,10,1.20,289.96,M,-33.324,M,,*7D
2017-12-01 16:23:13 1512163393.383277: $GPRMC,212314,A,3946.9643,N,08404.9709,W,0.0000,0.000,011217,,*33
2017-12-01 16:23:13 1512163393.383342: $GPGSA,A,3,1,10,11,14,22,31,32,18,25,138,,,2.0,1.2,1.5*35
2017-12-01 16:23:14 1512163394.717599: $GPGSV,3,1,11,01,21,304,42,10,52,145,44,11,09,286,38,14,64,319,44*7C
2017-12-01 16:23:14 1512163394.717831: $GPGSV,3,2,11,22,16,312,43,31,52,222,48,32,69,018,49,12,23,054,02*78
2017-12-01 16:23:14 1512163394.717899: $GPGSV,3,3,11,18,21,142,00,25,38,096,28,138,38,213,40*78
2017-12-01 16:23:14 1512163394.831005: $GPZDA,212315.00,01,12,2017,00,00*66
2017-12-01 16:23:14 1512163394.831155: $GPGGA,212315,3946.9643,N,08404.9709,W,2,09,1.20,289.96,M,-33.324,M,,*74
2017-12-01 16:23:14 1512163394.831222: $GPRMC,212315,A,3946.9643,N,08404.9709,W,0.0000,0.000,011217,,*32
2017-12-01 16:23:14 1512163394.831283: $GPGSA,A,3,1,10,11,14,22,31,32,25,138,,,,2.0,1.2,1.5*3C
2017-12-01 16:23:15 1512163395.388034: $GPZDA,212316.00,01,12,2017,00,00*65
2017-12-01 16:23:15 1512163395.388201: $GPGGA,212316,3946.9643,N,08404.9709,W,2,09,0.80,289.96,M,-33.324,M,,*7C
2017-12-01 16:23:15 1512163395.388268: $GPRMC,212316,A,3946.9643,N,08404.9709,W,0.0000,0.000,011217,,*31
2017-12-01 16:23:15 1512163395.388329: $GPGSA,A,3,1,10,11,14,22,31,32,25,138,,,,2.0,0.8,1.5*37
2017-12-01 16:23:16 1512163396.387097: $GPZDA,212317.00,01,12,2017,00,00*64
2017-12-01 16:23:16 1512163396.387274: $GPGGA,212317,3946.9643,N,08404.9709,W,2,09,1.20,289.96,M,-33.324,M,,*76
2017-12-01 16:23:16 1512163396.387343: $GPRMC,212317,A,3946.9643,N,08404.9709,W,0.0000,0.000,011217,,*30
2017-12-01 16:23:16 1512163396.387404: $GPGSA,A,3,1,10,11,14,22,31,32,25,138,,,,2.0,1.2,1.5*3C
2017-12-01 16:23:17 1512163397.721620: $GPGSV,3,1,11,01,21,304,42,10,52,145,44,11,09,286,38,14,64,319,44*7C
2017-12-01 16:23:17 1512163397.721798: $GPGSV,3,2,11,22,16,312,43,31,52,222,48,32,69,018,49,12,23,054,00*7A
2017-12-01 16:23:17 1512163397.721866: $GPGSV,3,3,11,18,21,142,26,25,38,096,24,138,38,213,41*71
2017-12-01 16:23:17 1512163397.834990: $GPZDA,212318.00,01,12,2017,00,00*6B
2017-12-01 16:23:17 1512163397.835167: $GPGGA,212318,3946.9643,N,08404.9709,W,2,10,1.20,289.96,M,-33.324,M,,*71
2017-12-01 16:23:17 1512163397.835236: $GPRMC,212318,A,3946.9643,N,08404.9709,W,0.0000,0.000,011217,,*3F
2017-12-01 16:23:17 1512163397.835297: $GPGSA,A,3,1,10,11,14,22,31,32,18,25,138,,,2.0,1.2,1.5*35
2017-12-01 16:23:18 1512163398.384685: $GPZDA,212319.00,01,12,2017,00,00*6A
2017-12-01 16:23:18 1512163398.384875: $GPGGA,212319,3946.9643,N,08404.9709,W,2,10,1.20,289.96,M,-33.324,M,,*70
2017-12-01 16:23:18 1512163398.384945: $GPRMC,212319,A,3946.9643,N,08404.9709,W,0.0000,0.000,011217,,*3E
2017-12-01 16:23:18 1512163398.385006: $GPGSA,A,3,1,10,11,14,22,31,32,18,25,138,,,2.0,1.2,1.5*35
