2017-12-01 12:01:49 1512147709.126842: {"class":"VERSION","release":"3.16","rev":"3.16-4","proto_major":3,"proto_minor":11}
2017-12-01 12:01:49 1512147709.127278: {"class":"DEVICES","devices":[{"class":"DEVICE","path":"/dev/ttyUSB0","driver":"SiRF","subtype":"9\u0006GSD4e_4.1.2-P1_RPATCH.05-F-GPS-4R-1510281 11/03/2015 307","activated":"2017-12-01T17:01:49.009Z","flags":1,"native":1,"bps":4800,"parity":"N","stopbits":1,"cycle":1.00}]}
2017-12-01 12:01:49 1512147709.127423: {"class":"WATCH","enable":true,"json":false,"nmea":true,"raw":0,"scaled":false,"timing":false,"split24":false,"pps":false}
2017-12-01 12:01:49 1512147709.417260: $GPZDA,170150.00,01,12,2017,00,00*62
2017-12-01 12:01:49 1512147709.417435: $GPGGA,170150,3946.9575,N,08404.9834,W,2,11,0.80,303.34,M,-33.324,M,,*7E
2017-12-01 12:01:49 1512147709.417500: $GPRMC,170150,A,3946.9575,N,08404.9834,W,0.0000,0.000,011217,,*31
2017-12-01 12:01:49 1512147709.417563: $GPGSA,A,3,13,15,18,20,21,24,27,29,10,5,138,,2.0,0.8,1.5*34
2017-12-01 12:01:50 1512147710.400365: $GPZDA,170151.00,01,12,2017,00,00*63
2017-12-01 12:01:50 1512147710.400548: $GPGGA,170151,3946.9575,N,08404.9834,W,2,11,0.80,303.34,M,-33.324,M,,*7F
2017-12-01 12:01:50 1512147710.400621: $GPRMC,170151,A,3946.9575,N,08404.9834,W,0.0000,0.000,011217,,*30
2017-12-01 12:01:50 1512147710.400688: $GPGSA,A,3,13,15,18,20,21,24,27,29,10,5,138,,2.0,0.8,1.5*34
2017-12-01 12:01:51 1512147711.753628: $GPGSV,3,1,12,13,36,046,45,15,68,057,45,18,49,292,45,20,57,063,46*7E
2017-12-01 12:01:51 1512147711.753808: $GPGSV,3,2,12,21,74,294,45,24,27,144,47,27,13,319,39,29,17,192,38*7E
2017-12-01 12:01:51 1512147711.753874: $GPGSV,3,3,12,10,18,277,41,05,08,082,27,04,06,133,00,138,38,213,46*47
2017-12-01 12:01:51 1512147711.867225: $GPZDA,170152.00,01,12,2017,00,00*60
2017-12-01 12:01:51 1512147711.867404: $GPGGA,170152,3946.9575,N,08404.9834,W,2,11,0.80,303.34,M,-33.324,M,,*7C
2017-12-01 12:01:51 1512147711.867470: $GPRMC,170152,A,3946.9575,N,08404.9834,W,0.0000,0.000,011217,,*33
2017-12-01 12:01:51 1512147711.867533: $GPGSA,A,3,13,15,18,20,21,24,27,29,10,5,138,,2.0,0.8,1.5*34
2017-12-01 12:01:52 1512147712.492527: $GPZDA,170153.00,01,12,2017,00,00*61
2017-12-01 12:01:52 1512147712.492712: $GPGGA,170153,3946.9575,N,08404.9834,W,2,11,0.80,303.34,M,-33.324,M,,*7D
2017-12-01 12:01:52 1512147712.492782: $GPRMC,170153,A,3946.9575,N,08404.9834,W,0.0000,0.000,011217,,*32
2017-12-01 12:01:52 1512147712.492843: $GPGSA,A,3,13,15,18,20,21,24,27,29,10,5,138,,2.0,0.8,1.5*34
2017-12-01 12:01:53 1512147713.400797: $GPZDA,170154.00,01,12,2017,00,00*66
2017-12-01 12:01:53 1512147713.400989: $GPGGA,170154,3946.9575,N,08404.9834,W,2,11,0.80,303.34,M,-33.324,M,,*7A
2017-12-01 12:01:53 1512147713.401059: $GPRMC,170154,A,3946.9575,N,08404.9834,W,0.0000,0.000,011217,,*35
2017-12-01 12:01:53 1512147713.401123: $GPGSA,A,3,13,15,18,20,21,24,27,29,10,5,138,,2.0,0.8,1.5*34
2017-12-01 12:01:54 1512147714.753977: $GPGSV,3,1,12,13,36,046,44,15,68,057,45,18,49,292,45,20,57,063,45*7C
2017-12-01 12:01:54 1512147714.754161: $GPGSV,3,2,12,21,74,294,46,24,27,144,47,27,13,319,40,29,17,192,38*73
2017-12-01 12:01:54 1512147714.754228: $GPGSV,3,3,12,10,18,277,42,05,08,082,27,04,06,133,00,138,38,213,46*44
2017-12-01 12:01:54 1512147714.867413: $GPZDA,170155.00,01,12,2017,00,00*67
2017-12-01 12:01:54 1512147714.867570: $GPGGA,170155,3946.9575,N,08404.9834,W,2,11,0.80,303.34,M,-33.324,M,,*7B
2017-12-01 12:01:54 1512147714.867662: $GPRMC,170155,A,3946.9575,N,08404.9834,W,0.0000,0.000,011217,,*34
2017-12-01 12:01:54 1512147714.867726: $GPGSA,A,3,13,15,18,20,21,24,27,29,10,5,138,,2.0,0.8,1.5*34
2017-12-01 12:01:55 1512147715.401992: $GPZDA,170156.00,01,12,2017,00,00*64
2017-12-01 12:01:55 1512147715.402172: $GPGGA,170156,3946.9575,N,08404.9834,W,2,11,0.80,303.34,M,-33.324,M,,*78
2017-12-01 12:01:55 1512147715.402240: $GPRMC,170156,A,3946.9575,N,08404.9834,W,0.0000,0.000,011217,,*37
2017-12-01 12:01:55 1512147715.402302: $GPGSA,A,3,13,15,18,20,21,24,27,29,10,5,138,,2.0,0.8,1.5*34
2017-12-01 12:01:56 1512147716.404466: $GPZDA,170157.00,01,12,2017,00,00*65
2017-12-01 12:01:56 1512147716.404704: $GPGGA,170157,3946.9575,N,08404.9834,W,2,11,0.80,303.34,M,-33.324,M,,*79
2017-12-01 12:01:56 1512147716.404775: $GPRMC,170157,A,3946.9575,N,08404.9834,W,0.0000,0.000,011217,,*36
2017-12-01 12:01:56 1512147716.404836: $GPGSA,A,3,13,15,18,20,21,24,27,29,10,5,138,,2.0,0.8,1.5*34
2017-12-01 12:01:57 1512147717.753184: $GPGSV,3,1,12,13,36,046,44,15,68,057,45,18,49,292,45,20,57,063,45*7C
2017-12-01 12:01:57 1512147717.753388: $GPGSV,3,2,12,21,74,294,45,24,27,144,47,27,13,319,40,29,17,192,38*70
2017-12-01 12:01:57 1512147717.753459: $GPGSV,3,3,12,10,18,277,42,05,08,082,27,04,06,133,00,138,38,213,47*45
2017-12-01 12:01:57 1512147717.866520: $GPZDA,170158.00,01,12,2017,00,00*6A
2017-12-01 12:01:57 1512147717.866693: $GPGGA,170158,3946.9575,N,08404.9834,W,2,11,0.80,303.34,M,-33.324,M,,*76
2017-12-01 12:01:57 1512147717.866761: $GPRMC,170158,A,3946.9575,N,08404.9834,W,0.0000,0.000,011217,,*39
2017-12-01 12:01:57 1512147717.866822: $GPGSA,A,3,13,15,18,20,21,24,27,29,10,5,138,,2.0,0.8,1.5*34
2017-12-01 12:01:58 1512147718.401523: $GPZDA,170159.00,01,12,2017,00,00*6B
2017-12-01 12:01:58 1512147718.401699: $GPGGA,170159,3946.9575,N,08404.9834,W,2,11,0.80,303.34,M,-33.324,M,,*77
2017-12-01 12:01:58 1512147718.401765: $GPRMC,170159,A,3946.9575,N,08404.9834,W,0.0000,0.000,011217,,*38
2017-12-01 12:01:58 1512147718.401828: $GPGSA,A,3,13,15,18,20,21,24,27,29,10,5,138,,2.0,0.8,1.5*34
