2017-11-16 13:20:14 1510856414.915619: {"class":"VERSION","release":"3.17","rev":"3.17","proto_major":3,"proto_minor":12}
2017-11-16 13:20:14 1510856414.916108: {"class":"DEVICES","devices":[{"class":"DEVICE","path":"/dev/ttyUSB0","driver":"SiRF","subtype":"9\u0006GSD4e_4.1.2-P1_RPATCH.05-F-GPS-4R-1510281 11/03/2015 307","activated":"2017-11-16T18:20:14.623Z","flags":1,"native":1,"bps":4800,"parity":"N","stopbits":1,"cycle":1.00}]}
2017-11-16 13:20:14 1510856414.916230: {"class":"WATCH","enable":true,"json":false,"nmea":true,"raw":0,"scaled":false,"timing":false,"split24":false,"pps":false}
2017-11-16 13:20:15 1510856415.643942: $GPGSV,3,1,12,10,23,283,42,13,29,045,48,15,61,051,51,18,54,300,46*79
2017-11-16 13:20:15 1510856415.644126: $GPGSV,3,2,12,20,51,072,47,21,78,270,46,24,33,138,40,27,16,313,40*7F
2017-11-16 13:20:15 1510856415.644187: $GPGSV,3,3,12,05,04,087,20,29,09,189,29,32,01,225,11,138,38,213,45*4A
2017-11-16 13:20:15 1510856415.757554: $GPZDA,182014.00,16,11,2017,00,00*6B
2017-11-16 13:20:15 1510856415.757717: $GPGGA,182014,3946.9594,N,08404.9845,W,2,12,0.80,300.76,M,-33.324,M,,*7D
2017-11-16 13:20:15 1510856415.757778: $GPRMC,182014,A,3946.9594,N,08404.9845,W,0.0000,0.000,161117,,*31
2017-11-16 13:20:15 1510856415.757835: $GPGSA,A,3,10,13,15,18,20,21,24,27,5,29,32,138,1.6,0.8,1.3*36
2017-11-16 13:20:16 1510856416.307105: $GPZDA,182015.00,16,11,2017,00,00*6A
2017-11-16 13:20:16 1510856416.307269: $GPGGA,182015,3946.9594,N,08404.9845,W,2,12,0.80,300.76,M,-33.324,M,,*7C
2017-11-16 13:20:16 1510856416.307332: $GPRMC,182015,A,3946.9594,N,08404.9845,W,0.0000,0.000,161117,,*30
2017-11-16 13:20:16 1510856416.307388: $GPGSA,A,3,10,13,15,18,20,21,24,27,5,29,32,138,1.6,0.8,1.3*36
2017-11-16 13:20:17 1510856417.289233: $GPZDA,182016.00,16,11,2017,00,00*69
2017-11-16 13:20:17 1510856417.289398: $GPGGA,182016,3946.9594,N,08404.9845,W,2,12,0.80,300.76,M,-33.324,M,,*7F
2017-11-16 13:20:17 1510856417.289458: $GPRMC,182016,A,3946.9594,N,08404.9845,W,0.0000,0.000,161117,,*33
2017-11-16 13:20:17 1510856417.289515: $GPGSA,A,3,10,13,15,18,20,21,24,27,5,29,32,138,1.6,0.8,1.3*36
2017-11-16 13:20:18 1510856418.623429: $GPGSV,3,1,12,10,23,283,43,13,29,045,48,15,61,051,51,18,54,300,46*78
2017-11-16 13:20:18 1510856418.623604: $GPGSV,3,2,12,20,51,072,47,21,78,270,47,24,33,138,40,27,16,313,40*7E
2017-11-16 13:20:18 1510856418.623665: $GPGSV,3,3,12,05,04,087,20,29,09,189,30,32,01,225,16,138,38,213,45*45
2017-11-16 13:20:18 1510856418.736708: $GPZDA,182017.00,16,11,2017,00,00*68
2017-11-16 13:20:18 1510856418.736881: $GPGGA,182017,3946.9594,N,08404.9845,W,2,12,0.80,300.76,M,-33.324,M,,*7E
2017-11-16 13:20:18 1510856418.736948: $GPRMC,182017,A,3946.9594,N,08404.9845,W,0.0000,0.000,161117,,*32
2017-11-16 13:20:18 1510856418.737006: $GPGSA,A,3,10,13,15,18,20,21,24,27,5,29,32,138,1.6,0.8,1.3*36
2017-11-16 13:20:19 1510856419.309146: $GPZDA,182018.00,16,11,2017,00,00*67
2017-11-16 13:20:19 1510856419.309312: $GPGGA,182018,3946.9594,N,08404.9845,W,2,12,0.80,300.76,M,-33.324,M,,*71
2017-11-16 13:20:19 1510856419.309372: $GPRMC,182018,A,3946.9594,N,08404.9845,W,0.0000,0.000,161117,,*3D
2017-11-16 13:20:19 1510856419.309428: $GPGSA,A,3,10,13,15,18,20,21,24,27,5,29,32,138,1.6,0.8,1.3*36
2017-11-16 13:20:20 1510856420.281668: $GPZDA,182019.00,16,11,2017,00,00*66
2017-11-16 13:20:20 1510856420.281847: $GPGGA,182019,3946.9594,N,08404.9845,W,2,12,0.80,300.76,M,-33.324,M,,*70
2017-11-16 13:20:20 1510856420.281914: $GPRMC,182019,A,3946.9594,N,08404.9845,W,0.0000,0.000,161117,,*3C
2017-11-16 13:20:20 1510856420.281971: $GPGSA,A,3,10,13,15,18,20,21,24,27,5,29,32,138,1.6,0.8,1.3*36
2017-11-16 13:20:21 1510856421.624913: $GPGSV,3,1,12,10,23,283,43,13,29,045,48,15,61,051,51,18,54,300,46*78
2017-11-16 13:20:21 1510856421.625096: $GPGSV,3,2,12,20,51,072,47,21,78,270,47,24,33,138,40,27,16,313,42*7C
2017-11-16 13:20:21 1510856421.625158: $GPGSV,3,3,12,05,04,087,20,29,09,189,30,32,01,225,18,138,38,213,44*4A
2017-11-16 13:20:21 1510856421.738194: $GPZDA,182020.00,16,11,2017,00,00*6C
2017-11-16 13:20:21 1510856421.738345: $GPGGA,182020,3946.9594,N,08404.9845,W,2,12,0.80,300.76,M,-33.324,M,,*7A
2017-11-16 13:20:21 1510856421.738461: $GPRMC,182020,A,3946.9594,N,08404.9845,W,0.0000,0.000,161117,,*36
2017-11-16 13:20:21 1510856421.738519: $GPGSA,A,3,10,13,15,18,20,21,24,27,5,29,32,138,1.6,0.8,1.3*36
2017-11-16 13:20:22 1510856422.307922: $GPZDA,182021.00,16,11,2017,00,00*6D
2017-11-16 13:20:22 1510856422.308115: $GPGGA,182021,3946.9594,N,08404.9845,W,2,12,0.80,300.76,M,-33.324,M,,*7B
2017-11-16 13:20:22 1510856422.308179: $GPRMC,182021,A,3946.9594,N,08404.9845,W,0.0000,0.000,161117,,*37
2017-11-16 13:20:22 1510856422.308235: $GPGSA,A,3,10,13,15,18,20,21,24,27,5,29,32,138,1.6,0.8,1.3*36
2017-11-16 13:20:23 1510856423.287364: $GPZDA,182022.00,16,11,2017,00,00*6E
2017-11-16 13:20:23 1510856423.287530: $GPGGA,182022,3946.9594,N,08404.9845,W,2,12,0.80,300.76,M,-33.324,M,,*78
2017-11-16 13:20:23 1510856423.287593: $GPRMC,182022,A,3946.9594,N,08404.9845,W,0.0000,0.000,161117,,*34
2017-11-16 13:20:23 1510856423.287652: $GPGSA,A,3,10,13,15,18,20,21,24,27,5,29,32,138,1.6,0.8,1.3*36
2017-11-16 13:20:24 1510856424.624401: $GPGSV,3,1,12,10,23,283,43,13,29,045,48,15,61,051,51,18,54,300,46*78
2017-11-16 13:20:24 1510856424.624576: $GPGSV,3,2,12,20,51,072,47,21,78,270,47,24,33,138,40,27,16,313,43*7D
2017-11-16 13:20:24 1510856424.624637: $GPGSV,3,3,12,05,04,087,20,29,09,189,30,32,01,225,25,138,38,213,45*45
2017-11-16 13:20:24 1510856424.737671: $GPZDA,182023.00,16,11,2017,00,00*6F
2017-11-16 13:20:24 1510856424.737851: $GPGGA,182023,3946.9594,N,08404.9845,W,2,12,0.80,300.76,M,-33.324,M,,*79
2017-11-16 13:20:24 1510856424.737913: $GPRMC,182023,A,3946.9594,N,08404.9845,W,0.0000,0.000,161117,,*35
2017-11-16 13:20:24 1510856424.737969: $GPGSA,A,3,10,13,15,18,20,21,24,27,5,29,32,138,1.6,0.8,1.3*36
