2017-12-14 12:15:35 1513271735.702052: {"class":"VERSION","release":"3.16","rev":"3.16-4","proto_major":3,"proto_minor":11}
2017-12-14 12:15:35 1513271735.702474: {"class":"DEVICES","devices":[{"class":"DEVICE","path":"/dev/ttyUSB0","driver":"SiRF","subtype":"9\u0006GSD4e_4.1.2-P1_RPATCH.05-F-GPS-4R-1510281 11/03/2015 307","activated":"2017-12-14T17:15:35.664Z","flags":1,"native":1,"bps":4800,"parity":"N","stopbits":1,"cycle":1.00}]}
2017-12-14 12:15:35 1513271735.702592: {"class":"WATCH","enable":true,"json":false,"nmea":true,"raw":0,"scaled":false,"timing":false,"split24":false,"pps":false}
2017-12-14 12:15:37 1513271737.387681: $GPRMC,171538,V,18000.0000,N,00000.0000,W,0.0000,0.000,141217,,*18
2017-12-14 12:15:37 1513271737.387845: $GPGSA,A,1,24,10,20,27,32,21,15,,,,,,,,,*34
2017-12-14 12:15:38 1513271738.354169: $GPRMC,171539,V,3946.9537,N,08404.9423,W,0.0000,0.000,141217,,*24
2017-12-14 12:15:38 1513271738.354311: $GPGSA,A,1,24,10,20,27,32,21,15,,,,,,,,,*34
2017-12-14 12:15:38 1513271738.945181: $GPGSV,3,1,11,10,41,300,05,15,38,052,07,20,35,094,07,24,50,112,08*71
2017-12-14 12:15:38 1513271738.945338: $GPGSV,3,2,11,21,64,189,20,18,70,334,00,32,20,237,00,27,19,291,00*73
2017-12-14 12:15:38 1513271738.945403: $GPGSV,3,3,11,13,08,048,00,08,05,324,00,14,03,232,00*42
2017-12-14 12:15:39 1513271739.057544: $GPRMC,171539,V,3946.9523,N,08404.9392,W,0.8003,162.423,141217,,*27
2017-12-14 12:15:39 1513271739.057719: $GPGSA,A,1,10,15,20,24,21,,,,,,,,,,,*30
2017-12-14 12:15:39 1513271739.610250: $GPRMC,171540,V,3946.9520,N,08404.9380,W,1.7173,45.911,141217,,*19
2017-12-14 12:15:39 1513271739.610423: $GPGSA,A,1,10,15,20,24,21,,,,,,,,,,,*30
2017-12-14 12:15:39 1513271739.866729: $GPZDA,171540.38,14,12,2017,00,00*69
2017-12-14 12:15:39 1513271739.866945: $GPGGA,171540,3946.9525,N,08404.9381,W,1,05,1.40,403.69,M,-33.324,M,,*7E
2017-12-14 12:15:39 1513271739.867060: $GPRMC,171540,A,3946.9525,N,08404.9381,W,1.3407,9.299,141217,,*3B
2017-12-14 12:15:39 1513271739.867123: $GPGSA,A,3,10,15,20,24,21,,,,,,,,6.6,1.4,6.2*31
2017-12-14 12:15:39 1513271739.867180: $GPGBS,171540,24.66,M,21.80,M,143.40,M*37
2017-12-14 12:15:40 1513271740.629634: $GPGSV,3,1,12,10,41,300,19,15,38,052,23,20,35,094,23,24,50,112,26*73
2017-12-14 12:15:40 1513271740.629825: $GPGSV,3,2,12,21,64,189,28,18,70,334,16,32,20,237,15,27,19,291,00*7B
2017-12-14 12:15:40 1513271740.629911: $GPGSV,3,3,12,13,08,048,00,08,05,324,00,14,03,232,00,138,38,213,00*40
2017-12-14 12:15:40 1513271740.743061: $GPZDA,171541.00,14,12,2017,00,00*63
2017-12-14 12:15:40 1513271740.743230: $GPGGA,171541,3946.9535,N,08404.9390,W,1,07,1.40,409.10,M,-33.324,M,,*78
2017-12-14 12:15:40 1513271740.743294: $GPRMC,171541,A,3946.9535,N,08404.9390,W,2.4642,17.722,141217,,*06
2017-12-14 12:15:40 1513271740.743354: $GPGSA,A,3,10,15,20,24,21,18,32,,,,,,6.6,1.4,6.2*39
2017-12-14 12:15:41 1513271741.211988: $GPZDA,171542.00,14,12,2017,00,00*60
2017-12-14 12:15:41 1513271741.212227: $GPGGA,171542,3946.9541,N,08404.9391,W,1,07,1.40,412.55,M,-33.324,M,,*72
2017-12-14 12:15:41 1513271741.212295: $GPRMC,171542,A,3946.9541,N,08404.9391,W,2.0627,27.163,141217,,*00
2017-12-14 12:15:41 1513271741.212356: $GPGSA,A,3,10,15,20,24,21,18,32,,,,,,6.6,1.4,6.2*39
2017-12-14 12:15:42 1513271742.212051: $GPZDA,171543.00,14,12,2017,00,00*61
2017-12-14 12:15:42 1513271742.212257: $GPGGA,171543,3946.9549,N,08404.9384,W,1,07,1.40,413.91,M,-33.324,M,,*76
2017-12-14 12:15:42 1513271742.212324: $GPRMC,171543,A,3946.9549,N,08404.9384,W,1.8259,21.694,141217,,*02
2017-12-14 12:15:42 1513271742.212402: $GPGSA,A,3,10,15,20,24,21,18,32,,,,,,6.6,1.4,6.2*39
2017-12-14 12:15:43 1513271743.548037: $GPGSV,3,1,12,10,41,300,18,15,38,052,24,20,35,094,23,24,50,112,26*75
2017-12-14 12:15:43 1513271743.548214: $GPGSV,3,2,12,21,64,189,28,18,70,334,00,32,20,237,14,27,19,291,00*7D
2017-12-14 12:15:43 1513271743.548278: $GPGSV,3,3,12,13,08,048,00,08,05,324,00,14,03,232,00,138,38,213,00*40
2017-12-14 12:15:43 1513271743.660214: $GPZDA,171544.00,14,12,2017,00,00*66
2017-12-14 12:15:43 1513271743.660354: $GPGGA,171544,3946.9548,N,08404.9388,W,1,06,1.40,420.29,M,-33.324,M,,*7E
2017-12-14 12:15:43 1513271743.660472: $GPRMC,171544,A,3946.9548,N,08404.9388,W,1.6935,21.652,141217,,*0D
2017-12-14 12:15:43 1513271743.660533: $GPGSA,A,3,10,15,20,24,21,32,,,,,,,6.6,1.4,6.2*30
2017-12-14 12:15:44 1513271744.211569: $GPZDA,171545.00,14,12,2017,00,00*67
2017-12-14 12:15:44 1513271744.211733: $GPGGA,171545,3946.9553,N,08404.9389,W,1,06,1.40,422.33,M,-33.324,M,,*7D
2017-12-14 12:15:44 1513271744.211799: $GPRMC,171545,A,3946.9553,N,08404.9389,W,1.4547,15.272,141217,,*0D
2017-12-14 12:15:44 1513271744.211859: $GPGSA,A,3,10,15,20,24,21,32,,,,,,,6.6,1.4,6.2*30
2017-12-14 12:15:45 1513271745.212634: $GPZDA,171546.00,14,12,2017,00,00*64
2017-12-14 12:15:45 1513271745.212802: $GPGGA,171546,3946.9554,N,08404.9389,W,1,06,1.40,423.74,M,-33.324,M,,*7B
2017-12-14 12:15:45 1513271745.212867: $GPRMC,171546,A,3946.9554,N,08404.9389,W,1.7128,359.162,141217,,*3E
2017-12-14 12:15:45 1513271745.212927: $GPGSA,A,3,10,15,20,24,21,32,,,,,,,6.6,1.4,6.2*30
2017-12-14 12:15:46 1513271746.551287: $GPGSV,3,1,12,10,41,300,18,15,38,052,24,20,35,094,22,24,50,112,25*77
2017-12-14 12:15:46 1513271746.551447: $GPGSV,3,2,12,21,64,189,28,27,19,291,11,32,20,237,14,18,70,334,00*7D
2017-12-14 12:15:46 1513271746.551512: $GPGSV,3,3,12,13,08,048,00,08,05,324,00,14,03,232,00,138,38,213,00*40
2017-12-14 12:15:46 1513271746.664733: $GPZDA,171547.00,14,12,2017,00,00*65
2017-12-14 12:15:46 1513271746.664904: $GPGGA,171547,3946.9555,N,08404.9397,W,1,07,1.20,425.06,M,-33.324,M,,*70
2017-12-14 12:15:46 1513271746.664971: $GPRMC,171547,A,3946.9555,N,08404.9397,W,1.0928,343.146,141217,,*33
2017-12-14 12:15:46 1513271746.665032: $GPGSA,A,3,10,15,20,24,21,27,32,,,,,,6.6,1.2,6.2*33
2017-12-14 12:15:47 1513271747.212467: $GPZDA,171548.00,14,12,2017,00,00*6A
2017-12-14 12:15:47 1513271747.212648: $GPGGA,171548,3946.9559,N,08404.9396,W,1,07,1.20,424.30,M,-33.324,M,,*76
2017-12-14 12:15:47 1513271747.212714: $GPRMC,171548,A,3946.9559,N,08404.9396,W,0.8770,340.568,141217,,*30
2017-12-14 12:15:47 1513271747.212774: $GPGSA,A,3,10,15,20,24,21,27,32,,,,,,6.6,1.2,6.2*33
2017-12-14 12:15:48 1513271748.212498: $GPZDA,171549.00,14,12,2017,00,00*6B
2017-12-14 12:15:48 1513271748.212671: $GPGGA,171549,3946.9562,N,08404.9402,W,1,07,1.20,422.05,M,-33.324,M,,*75
2017-12-14 12:15:48 1513271748.212736: $GPRMC,171549,A,3946.9562,N,08404.9402,W,0.9799,345.721,141217,,*3F
2017-12-14 12:15:48 1513271748.212797: $GPGSA,A,3,10,15,20,24,21,27,32,,,,,,6.6,1.2,6.2*33
2017-12-14 12:15:49 1513271749.548638: $GPGSV,3,1,12,10,41,300,18,15,38,052,24,20,35,094,22,24,50,112,25*77
2017-12-14 12:15:49 1513271749.548822: $GPGSV,3,2,12,21,64,189,28,27,19,291,12,32,20,237,14,18,70,334,00*7E
2017-12-14 12:15:49 1513271749.548888: $GPGSV,3,3,12,13,08,048,00,08,05,324,00,14,03,232,00,138,38,213,00*40
2017-12-14 12:15:49 1513271749.662043: $GPZDA,171550.00,14,12,2017,00,00*63
2017-12-14 12:15:49 1513271749.662245: $GPGGA,171550,3946.9558,N,08404.9403,W,1,07,1.20,422.81,M,-33.324,M,,*79
2017-12-14 12:15:49 1513271749.662311: $GPRMC,171550,A,3946.9558,N,08404.9403,W,0.5928,357.578,141217,,*3A
2017-12-14 12:15:49 1513271749.662389: $GPGSA,A,3,10,15,20,24,21,27,32,,,,,,6.6,1.2,6.2*33
2017-12-14 12:15:50 1513271750.213128: $GPZDA,171551.00,14,12,2017,00,00*62
2017-12-14 12:15:50 1513271750.213301: $GPGGA,171551,3946.9566,N,08404.9402,W,1,07,1.20,422.69,M,-33.324,M,,*72
2017-12-14 12:15:50 1513271750.213367: $GPRMC,171551,A,3946.9566,N,08404.9402,W,0.7238,39.288,141217,,*0C
2017-12-14 12:15:50 1513271750.213427: $GPGSA,A,3,10,15,20,24,21,27,32,,,,,,6.6,1.2,6.2*33
2017-12-14 12:15:51 1513271751.212305: $GPZDA,171552.00,14,12,2017,00,00*61
2017-12-14 12:15:51 1513271751.212475: $GPGGA,171552,3946.9562,N,08404.9402,W,1,07,1.20,422.05,M,-33.324,M,,*7F
2017-12-14 12:15:51 1513271751.212542: $GPRMC,171552,A,3946.9562,N,08404.9402,W,1.0017,70.072,141217,,*08
2017-12-14 12:15:51 1513271751.212603: $GPGSA,A,3,10,15,20,24,21,27,32,,,,,,6.6,1.2,6.2*33
2017-12-14 12:15:52 1513271752.549386: $GPGSV,3,1,12,10,41,300,18,15,38,052,23,20,35,094,22,24,50,112,25*70
2017-12-14 12:15:52 1513271752.549623: $GPGSV,3,2,12,21,64,189,28,27,19,291,12,32,20,237,14,18,70,334,00*7E
2017-12-14 12:15:52 1513271752.549692: $GPGSV,3,3,12,13,08,048,00,08,05,324,00,14,03,232,00,138,38,213,00*40
2017-12-14 12:15:52 1513271752.662895: $GPZDA,171553.00,14,12,2017,00,00*60
2017-12-14 12:15:52 1513271752.663074: $GPGGA,171553,3946.9562,N,08404.9403,W,1,07,1.20,423.45,M,-33.324,M,,*7A
2017-12-14 12:15:52 1513271752.663140: $GPRMC,171553,A,3946.9562,N,08404.9403,W,1.2894,66.600,141217,,*0D
2017-12-14 12:15:52 1513271752.663200: $GPGSA,A,3,10,15,20,24,21,27,32,,,,,,6.6,1.2,6.2*33
2017-12-14 12:15:53 1513271753.212962: $GPZDA,171554.00,14,12,2017,00,00*67
2017-12-14 12:15:53 1513271753.213118: $GPGGA,171554,3946.9573,N,08404.9401,W,1,07,1.20,422.57,M,-33.324,M,,*7D
2017-12-14 12:15:53 1513271753.213202: $GPRMC,171554,A,3946.9573,N,08404.9401,W,1.5089,70.807,141217,,*05
2017-12-14 12:15:53 1513271753.213262: $GPGSA,A,3,10,15,20,24,21,27,32,,,,,,6.6,1.2,6.2*33
2017-12-14 12:15:54 1513271754.214319: $GPZDA,171555.00,14,12,2017,00,00*66
2017-12-14 12:15:54 1513271754.214488: $GPGGA,171555,3946.9576,N,08404.9394,W,1,07,1.20,421.88,M,-33.324,M,,*73
2017-12-14 12:15:54 1513271754.214554: $GPRMC,171555,A,3946.9576,N,08404.9394,W,1.1823,52.797,141217,,*00
2017-12-14 12:15:54 1513271754.214614: $GPGSA,A,3,10,15,20,24,21,27,32,,,,,,6.6,1.2,6.2*33
2017-12-14 12:15:55 1513271755.549938: $GPGSV,3,1,12,10,41,300,18,15,38,052,23,20,35,094,21,24,50,112,25*73
2017-12-14 12:15:55 1513271755.550088: $GPGSV,3,2,12,21,64,189,28,27,19,291,12,32,20,237,14,18,70,334,00*7E
2017-12-14 12:15:55 1513271755.550152: $GPGSV,3,3,12,13,08,048,00,08,05,324,00,14,03,232,00,138,38,213,00*40
2017-12-14 12:15:55 1513271755.663678: $GPZDA,171556.00,14,12,2017,00,00*65
2017-12-14 12:15:55 1513271755.663844: $GPGGA,171556,3946.9584,N,08404.9393,W,1,07,1.20,421.76,M,-33.324,M,,*7B
2017-12-14 12:15:55 1513271755.663909: $GPRMC,171556,A,3946.9584,N,08404.9393,W,1.3743,59.437,141217,,*00
2017-12-14 12:15:55 1513271755.663969: $GPGSA,A,3,10,15,20,24,21,27,32,,,,,,6.6,1.2,6.2*33
