2017-11-16 15:53:15 1510865595.138676: {"class":"VERSION","release":"3.17","rev":"3.17","proto_major":3,"proto_minor":12}
2017-11-16 15:53:15 1510865595.139112: {"class":"DEVICES","devices":[{"class":"DEVICE","path":"/dev/ttyUSB0","driver":"SiRF","subtype":"9\u0006GSD4e_4.1.2-P1_RPATCH.05-F-GPS-4R-1510281 11/03/2015 307","activated":"2017-11-16T20:53:14.507Z","flags":1,"native":1,"bps":4800,"parity":"N","stopbits":1,"cycle":1.00}]}
2017-11-16 15:53:15 1510865595.139234: {"class":"WATCH","enable":true,"json":false,"nmea":true,"raw":0,"scaled":false,"timing":false,"split24":false,"pps":false}
2017-11-16 15:53:15 1510865595.365501: $GPZDA,205314.00,16,11,2017,00,00*64
2017-11-16 15:53:15 1510865595.365665: $GPGGA,205314,3946.9582,N,08404.9844,W,2,12,1.20,308.11,M,-33.324,M,,*76
2017-11-16 15:53:15 1510865595.365727: $GPRMC,205314,A,3946.9582,N,08404.9844,W,0.0000,0.000,161117,,*38
2017-11-16 15:53:15 1510865595.365787: $GPGSA,A,3,11,10,14,31,18,25,21,24,15,32,12,138,1.6,1.2,1.3*05
2017-11-16 15:53:16 1510865596.712192: $GPGSV,3,1,12,11,04,321,33,10,80,001,51,14,38,264,46,31,10,205,29*73
2017-11-16 15:53:16 1510865596.712361: $GPGSV,3,2,12,18,60,115,49,25,12,133,31,21,16,177,39,24,35,049,50*7C
2017-11-16 15:53:16 1510865596.712421: $GPGSV,3,3,12,15,03,073,25,32,55,280,48,12,17,096,44,138,38,213,44*42
2017-11-16 15:53:16 1510865596.825753: $GPZDA,205315.00,16,11,2017,00,00*65
2017-11-16 15:53:16 1510865596.825899: $GPGGA,205315,3946.9582,N,08404.9844,W,2,12,1.20,308.11,M,-33.324,M,,*77
2017-11-16 15:53:16 1510865596.825960: $GPRMC,205315,A,3946.9582,N,08404.9844,W,0.0000,0.000,161117,,*39
2017-11-16 15:53:16 1510865596.826015: $GPGSA,A,3,11,10,14,31,18,25,21,24,15,32,12,138,1.6,1.2,1.3*05
2017-11-16 15:53:17 1510865597.367595: $GPZDA,205316.00,16,11,2017,00,00*66
2017-11-16 15:53:17 1510865597.367782: $GPGGA,205316,3946.9582,N,08404.9844,W,2,12,1.20,308.11,M,-33.324,M,,*74
2017-11-16 15:53:17 1510865597.367848: $GPRMC,205316,A,3946.9582,N,08404.9844,W,0.0000,0.000,161117,,*3A
2017-11-16 15:53:17 1510865597.367905: $GPGSA,A,3,11,10,14,31,18,25,21,24,15,32,12,138,1.6,1.2,1.3*05
2017-11-16 15:53:18 1510865598.382223: $GPZDA,205317.00,16,11,2017,00,00*67
2017-11-16 15:53:18 1510865598.382390: $GPGGA,205317,3946.9582,N,08404.9844,W,2,12,1.20,308.11,M,-33.324,M,,*75
2017-11-16 15:53:18 1510865598.382453: $GPRMC,205317,A,3946.9582,N,08404.9844,W,0.0000,0.000,161117,,*3B
2017-11-16 15:53:18 1510865598.382526: $GPGSA,A,3,11,10,14,31,18,25,21,24,15,32,12,138,1.6,1.2,1.3*05
2017-11-16 15:53:19 1510865599.704296: $GPGSV,3,1,12,11,04,321,33,10,80,001,50,14,38,264,45,31,10,205,29*71
2017-11-16 15:53:19 1510865599.704467: $GPGSV,3,2,12,18,60,115,49,25,12,133,31,21,16,177,39,24,35,049,50*7C
2017-11-16 15:53:19 1510865599.704527: $GPGSV,3,3,12,15,03,073,26,32,55,280,48,12,17,096,44,138,38,213,44*41
2017-11-16 15:53:19 1510865599.816379: $GPZDA,205318.00,16,11,2017,00,00*68
2017-11-16 15:53:19 1510865599.816561: $GPGGA,205318,3946.9582,N,08404.9844,W,2,12,1.20,308.11,M,-33.324,M,,*7A
2017-11-16 15:53:19 1510865599.816623: $GPRMC,205318,A,3946.9582,N,08404.9844,W,0.0000,0.000,161117,,*34
2017-11-16 15:53:19 1510865599.816679: $GPGSA,A,3,11,10,14,31,18,25,21,24,15,32,12,138,1.6,1.2,1.3*05
2017-11-16 15:53:20 1510865600.383783: $GPZDA,205319.00,16,11,2017,00,00*69
2017-11-16 15:53:20 1510865600.383950: $GPGGA,205319,3946.9582,N,08404.9844,W,2,12,1.20,308.11,M,-33.324,M,,*7B
2017-11-16 15:53:20 1510865600.384013: $GPRMC,205319,A,3946.9582,N,08404.9844,W,0.0000,0.000,161117,,*35
2017-11-16 15:53:20 1510865600.384070: $GPGSA,A,3,11,10,14,31,18,25,21,24,15,32,12,138,1.6,1.2,1.3*05
2017-11-16 15:53:21 1510865601.367589: $GPZDA,205320.00,16,11,2017,00,00*63
2017-11-16 15:53:21 1510865601.367767: $GPGGA,205320,3946.9582,N,08404.9844,W,2,12,1.20,308.11,M,-33.324,M,,*71
2017-11-16 15:53:21 1510865601.367832: $GPRMC,205320,A,3946.9582,N,08404.9844,W,0.0000,0.000,161117,,*3F
2017-11-16 15:53:21 1510865601.367889: $GPGSA,A,3,11,10,14,31,18,25,21,24,15,32,12,138,1.6,1.2,1.3*05
2017-11-16 15:53:22 1510865602.702152: $GPGSV,3,1,12,11,04,321,33,10,80,001,50,14,38,264,45,31,10,205,29*71
2017-11-16 15:53:22 1510865602.702392: $GPGSV,3,2,12,18,60,115,49,25,12,133,31,21,16,177,38,24,35,049,50*7D
2017-11-16 15:53:22 1510865602.702473: $GPGSV,3,3,12,15,03,073,27,32,55,280,48,12,17,096,45,138,38,213,45*40
2017-11-16 15:53:22 1510865602.815518: $GPZDA,205321.00,16,11,2017,00,00*62
2017-11-16 15:53:22 1510865602.815689: $GPGGA,205321,3946.9582,N,08404.9844,W,2,12,1.20,308.11,M,-33.324,M,,*70
2017-11-16 15:53:22 1510865602.815751: $GPRMC,205321,A,3946.9582,N,08404.9844,W,0.0000,0.000,161117,,*3E
2017-11-16 15:53:22 1510865602.815806: $GPGSA,A,3,11,10,14,31,18,25,21,24,15,32,12,138,1.6,1.2,1.3*05
2017-11-16 15:53:23 1510865603.366374: $GPZDA,205322.00,16,11,2017,00,00*61
2017-11-16 15:53:23 1510865603.366544: $GPGGA,205322,3946.9582,N,08404.9844,W,2,12,1.20,308.11,M,-33.324,M,,*73
2017-11-16 15:53:23 1510865603.366607: $GPRMC,205322,A,3946.9582,N,08404.9844,W,0.0000,0.000,161117,,*3D
2017-11-16 15:53:23 1510865603.366662: $GPGSA,A,3,11,10,14,31,18,25,21,24,15,32,12,138,1.6,1.2,1.3*05
2017-11-16 15:53:24 1510865604.383545: $GPZDA,205323.00,16,11,2017,00,00*60
2017-11-16 15:53:24 1510865604.388661: $GPGGA,205323,3946.9582,N,08404.9844,W,2,12,1.20,308.11,M,-33.324,M,,*72
2017-11-16 15:53:24 1510865604.388755: $GPRMC,205323,A,3946.9582,N,08404.9844,W,0.0000,0.000,161117,,*3C
2017-11-16 15:53:24 1510865604.388814: $GPGSA,A,3,11,10,14,31,18,25,21,24,15,32,12,138,1.6,1.2,1.3*05
