2017-12-01 13:18:48 1512152328.637452: {"class":"VERSION","release":"3.16","rev":"3.16-4","proto_major":3,"proto_minor":11}
2017-12-01 13:18:48 1512152328.637836: {"class":"DEVICES","devices":[{"class":"DEVICE","path":"/dev/ttyUSB0","driver":"SiRF","subtype":"9\u0006GSD4e_4.1.2-P1_RPATCH.05-F-GPS-4R-1510281 11/03/2015 307","activated":"2017-12-01T18:18:48.565Z","flags":1,"native":1,"bps":4800,"parity":"N","stopbits":1,"cycle":1.00}]}
2017-12-01 13:18:48 1512152328.637956: {"class":"WATCH","enable":true,"json":false,"nmea":true,"raw":0,"scaled":false,"timing":false,"split24":false,"pps":false}
2017-12-01 13:18:49 1512152329.417681: $GPZDA,181850.00,01,12,2017,00,00*65
2017-12-01 13:18:49 1512152329.417868: $GPGGA,181850,3946.9577,N,08404.9849,W,2,11,1.00,304.58,M,-33.324,M,,*75
2017-12-01 13:18:49 1512152329.417936: $GPRMC,181850,A,3946.9577,N,08404.9849,W,0.0000,0.000,011217,,*3E
2017-12-01 13:18:49 1512152329.417997: $GPGSA,A,3,8,10,15,18,20,21,24,32,13,27,138,,2.0,1.0,1.5*3A
2017-12-01 13:18:50 1512152330.756116: $GPGSV,3,1,12,08,07,319,39,10,44,303,47,15,34,054,48,18,73,345,43*72
2017-12-01 13:18:50 1512152330.756285: $GPGSV,3,2,12,20,31,099,45,21,60,187,45,24,52,105,46,14,06,234,00*71
2017-12-01 13:18:50 1512152330.756352: $GPGSV,3,3,12,32,23,240,41,13,05,049,22,27,18,286,38,138,38,213,46*4B
2017-12-01 13:18:50 1512152330.869470: $GPZDA,181851.00,01,12,2017,00,00*64
2017-12-01 13:18:50 1512152330.869654: $GPGGA,181851,3946.9577,N,08404.9849,W,2,11,1.00,304.58,M,-33.324,M,,*74
2017-12-01 13:18:50 1512152330.869720: $GPRMC,181851,A,3946.9577,N,08404.9849,W,0.0000,0.000,011217,,*3F
2017-12-01 13:18:50 1512152330.869782: $GPGSA,A,3,8,10,15,18,20,21,24,32,13,27,138,,2.0,1.0,1.5*3A
2017-12-01 13:18:51 1512152331.496054: $GPZDA,181852.00,01,12,2017,00,00*67
2017-12-01 13:18:51 1512152331.496220: $GPGGA,181852,3946.9577,N,08404.9849,W,2,11,1.00,304.58,M,-33.324,M,,*77
2017-12-01 13:18:51 1512152331.496289: $GPRMC,181852,A,3946.9577,N,08404.9849,W,0.0000,0.000,011217,,*3C
2017-12-01 13:18:51 1512152331.496350: $GPGSA,A,3,8,10,15,18,20,21,24,32,13,27,138,,2.0,1.0,1.5*3A
2017-12-01 13:18:52 1512152332.421954: $GPZDA,181853.00,01,12,2017,00,00*66
2017-12-01 13:18:52 1512152332.422127: $GPGGA,181853,3946.9577,N,08404.9849,W,2,11,1.00,304.58,M,-33.324,M,,*76
2017-12-01 13:18:52 1512152332.422194: $GPRMC,181853,A,3946.9577,N,08404.9849,W,0.0000,0.000,011217,,*3D
2017-12-01 13:18:52 1512152332.422254: $GPGSA,A,3,8,10,15,18,20,21,24,32,13,27,138,,2.0,1.0,1.5*3A
2017-12-01 13:18:53 1512152333.738929: $GPGSV,3,1,12,08,07,319,38,10,44,303,47,15,34,054,47,18,73,345,43*7C
2017-12-01 13:18:53 1512152333.739111: $GPGSV,3,2,12,20,31,099,45,21,60,187,44,24,52,105,47,14,06,234,00*71
2017-12-01 13:18:53 1512152333.739178: $GPGSV,3,3,12,32,23,240,41,13,05,049,22,27,18,286,39,138,38,213,46*4A
2017-12-01 13:18:53 1512152333.852432: $GPZDA,181854.00,01,12,2017,00,00*61
2017-12-01 13:18:53 1512152333.852574: $GPGGA,181854,3946.9577,N,08404.9849,W,2,11,1.00,304.58,M,-33.324,M,,*71
2017-12-01 13:18:53 1512152333.852640: $GPRMC,181854,A,3946.9577,N,08404.9849,W,0.0000,0.000,011217,,*3A
2017-12-01 13:18:53 1512152333.852701: $GPGSA,A,3,8,10,15,18,20,21,24,32,13,27,138,,2.0,1.0,1.5*3A
2017-12-01 13:18:54 1512152334.398336: $GPZDA,181855.00,01,12,2017,00,00*60
2017-12-01 13:18:54 1512152334.398496: $GPGGA,181855,3946.9577,N,08404.9849,W,2,11,1.00,304.58,M,-33.324,M,,*70
2017-12-01 13:18:54 1512152334.398564: $GPRMC,181855,A,3946.9577,N,08404.9849,W,0.0000,0.000,011217,,*3B
2017-12-01 13:18:54 1512152334.398625: $GPGSA,A,3,8,10,15,18,20,21,24,32,13,27,138,,2.0,1.0,1.5*3A
2017-12-01 13:18:55 1512152335.421676: $GPZDA,181856.00,01,12,2017,00,00*63
2017-12-01 13:18:55 1512152335.421833: $GPGGA,181856,3946.9577,N,08404.9849,W,2,11,0.80,304.58,M,-33.324,M,,*7A
2017-12-01 13:18:55 1512152335.421900: $GPRMC,181856,A,3946.9577,N,08404.9849,W,0.0000,0.000,011217,,*38
2017-12-01 13:18:55 1512152335.421961: $GPGSA,A,3,8,10,15,18,20,21,24,32,13,27,138,,2.0,0.8,1.5*33
2017-12-01 13:18:56 1512152336.739440: $GPGSV,3,1,12,08,07,319,33,10,44,303,47,15,34,054,47,18,73,345,43*77
2017-12-01 13:18:56 1512152336.739681: $GPGSV,3,2,12,20,31,099,45,21,60,187,45,24,52,105,46,14,06,234,21*72
2017-12-01 13:18:56 1512152336.739752: $GPGSV,3,3,12,32,23,240,41,13,05,049,22,27,18,286,40,138,38,213,47*45
2017-12-01 13:18:56 1512152336.853018: $GPZDA,181857.00,01,12,2017,00,00*62
2017-12-01 13:18:56 1512152336.853189: $GPGGA,181857,3946.9577,N,08404.9849,W,2,12,0.80,304.58,M,-33.324,M,,*78
2017-12-01 13:18:56 1512152336.853256: $GPRMC,181857,A,3946.9577,N,08404.9849,W,0.0000,0.000,011217,,*39
2017-12-01 13:18:56 1512152336.853317: $GPGSA,A,3,8,10,15,18,20,21,24,14,32,13,27,138,2.0,0.8,1.5*36
2017-12-01 13:18:57 1512152337.422619: $GPZDA,181858.00,01,12,2017,00,00*6D
2017-12-01 13:18:57 1512152337.422789: $GPGGA,181858,3946.9577,N,08404.9849,W,2,12,0.80,304.58,M,-33.324,M,,*77
2017-12-01 13:18:57 1512152337.422856: $GPRMC,181858,A,3946.9577,N,08404.9849,W,0.0000,0.000,011217,,*36
2017-12-01 13:18:57 1512152337.422917: $GPGSA,A,3,8,10,15,18,20,21,24,14,32,13,27,138,2.0,0.8,1.5*36
2017-12-01 13:18:58 1512152338.402249: $GPZDA,181859.00,01,12,2017,00,00*6C
2017-12-01 13:18:58 1512152338.402422: $GPGGA,181859,3946.9577,N,08404.9849,W,2,12,1.00,304.58,M,-33.324,M,,*7F
2017-12-01 13:18:58 1512152338.402489: $GPRMC,181859,A,3946.9577,N,08404.9849,W,0.0000,0.000,011217,,*37
2017-12-01 13:18:58 1512152338.402550: $GPGSA,A,3,8,10,15,18,20,21,24,14,32,13,27,138,2.0,1.0,1.5*3F
