2017-12-14 12:08:09 1513271289.074491: {"class":"VERSION","release":"3.16","rev":"3.16-4","proto_major":3,"proto_minor":11}
2017-12-14 12:08:09 1513271289.074951: {"class":"DEVICES","devices":[{"class":"DEVICE","path":"/dev/ttyUSB0","driver":"SiRF","subtype":"9\u0006GSD4e_4.1.2-P1_RPATCH.05-F-GPS-4R-1510281 11/03/2015 307","activated":"2017-12-14T17:08:08.322Z","flags":1,"native":1,"bps":4800,"parity":"N","stopbits":1,"cycle":1.00}]}
2017-12-14 12:08:09 1513271289.075119: {"class":"WATCH","enable":true,"json":false,"nmea":true,"raw":0,"scaled":false,"timing":false,"split24":false,"pps":false}
2017-12-14 12:08:09 1513271289.518265: $GPGSV,3,1,11,10,38,297,13,15,42,051,20,18,68,327,16,24,48,117,28*7A
2017-12-14 12:08:09 1513271289.518454: $GPGSV,3,2,11,21,68,192,23,27,19,294,10,13,12,048,00,20,38,091,14*74
2017-12-14 12:08:09 1513271289.518535: $GPGSV,3,3,11,32,17,235,15,08,04,325,00,138,38,213,00*77
2017-12-14 12:08:09 1513271289.630358: $GPZDA,170810.00,14,12,2017,00,00*6B
2017-12-14 12:08:09 1513271289.630562: $GPGGA,170810,3946.9536,N,08404.9388,W,1,08,1.20,329.36,M,-33.324,M,,*72
2017-12-14 12:08:09 1513271289.630645: $GPRMC,170810,A,3946.9536,N,08404.9388,W,0.4207,39.347,141217,,*08
2017-12-14 12:08:09 1513271289.630706: $GPGSA,A,3,10,15,18,24,21,27,20,32,,,,,6.6,1.2,6.2*3A
2017-12-14 12:08:10 1513271290.181270: $GPZDA,170811.00,14,12,2017,00,00*6A
2017-12-14 12:08:10 1513271290.181460: $GPGGA,170811,3946.9536,N,08404.9388,W,1,08,1.20,329.36,M,-33.324,M,,*73
2017-12-14 12:08:10 1513271290.181544: $GPRMC,170811,A,3946.9536,N,08404.9388,W,0.0000,0.000,141217,,*32
2017-12-14 12:08:10 1513271290.181606: $GPGSA,A,3,10,15,18,24,21,27,20,32,,,,,6.6,1.2,6.2*3A
2017-12-14 12:08:11 1513271291.181518: $GPZDA,170812.00,14,12,2017,00,00*69
2017-12-14 12:08:11 1513271291.181686: $GPGGA,170812,3946.9532,N,08404.9388,W,1,08,1.20,330.13,M,-33.324,M,,*7B
2017-12-14 12:08:11 1513271291.181751: $GPRMC,170812,A,3946.9532,N,08404.9388,W,0.4179,148.779,141217,,*3A
2017-12-14 12:08:11 1513271291.181812: $GPGSA,A,3,10,15,18,24,21,27,20,32,,,,,6.6,1.2,6.2*3A
2017-12-14 12:08:12 1513271292.516322: $GPGSV,3,1,11,10,38,297,14,15,42,051,20,18,68,327,17,24,48,117,28*7C
2017-12-14 12:08:12 1513271292.516534: $GPGSV,3,2,11,21,68,192,23,27,19,294,10,13,12,048,00,20,38,091,13*73
2017-12-14 12:08:12 1513271292.516601: $GPGSV,3,3,11,32,17,235,14,08,04,325,00,138,38,213,00*76
2017-12-14 12:08:12 1513271292.629936: $GPZDA,170813.00,14,12,2017,00,00*68
2017-12-14 12:08:12 1513271292.630068: $GPGGA,170813,3946.9532,N,08404.9388,W,1,08,1.20,330.13,M,-33.324,M,,*7A
2017-12-14 12:08:12 1513271292.630133: $GPRMC,170813,A,3946.9532,N,08404.9388,W,0.2422,93.795,141217,,*03
2017-12-14 12:08:12 1513271292.630193: $GPGSA,A,3,10,15,18,24,21,27,20,32,,,,,6.6,1.2,6.2*3A
2017-12-14 12:08:13 1513271293.181102: $GPZDA,170814.00,14,12,2017,00,00*6F
2017-12-14 12:08:13 1513271293.181272: $GPGGA,170814,3946.9532,N,08404.9388,W,1,08,1.20,330.13,M,-33.324,M,,*7D
2017-12-14 12:08:13 1513271293.181339: $GPRMC,170814,A,3946.9532,N,08404.9388,W,0.3423,4.197,141217,,*3E
2017-12-14 12:08:13 1513271293.181423: $GPGSA,A,3,10,15,18,24,21,27,20,32,,,,,6.6,1.2,6.2*3A
2017-12-14 12:08:14 1513271294.181445: $GPZDA,170815.00,14,12,2017,00,00*6E
2017-12-14 12:08:14 1513271294.181626: $GPGGA,170815,3946.9533,N,08404.9395,W,1,08,1.20,330.05,M,-33.324,M,,*76
2017-12-14 12:08:14 1513271294.181692: $GPRMC,170815,A,3946.9533,N,08404.9395,W,0.4207,219.347,141217,,*34
2017-12-14 12:08:14 1513271294.181753: $GPGSA,A,3,10,15,18,24,21,27,20,32,,,,,6.6,1.2,6.2*3A
2017-12-14 12:08:15 1513271295.533178: $GPGSV,3,1,11,10,38,297,15,15,42,051,20,18,68,327,17,24,48,117,28*7D
2017-12-14 12:08:15 1513271295.533372: $GPGSV,3,2,11,21,68,192,23,27,19,294,09,13,12,048,00,20,38,091,12*7A
2017-12-14 12:08:15 1513271295.533439: $GPGSV,3,3,11,32,17,235,14,08,04,325,00,138,38,213,00*76
2017-12-14 12:08:15 1513271295.646560: $GPZDA,170816.00,14,12,2017,00,00*6D
2017-12-14 12:08:15 1513271295.646777: $GPGGA,170816,3946.9533,N,08404.9395,W,1,08,1.20,330.05,M,-33.324,M,,*75
2017-12-14 12:08:15 1513271295.646845: $GPRMC,170816,A,3946.9533,N,08404.9395,W,0.5951,238.684,141217,,*37
2017-12-14 12:08:15 1513271295.646963: $GPGSA,A,3,10,15,18,24,21,27,20,32,,,,,6.6,1.2,6.2*3A
2017-12-14 12:08:16 1513271296.180431: $GPZDA,170817.00,14,12,2017,00,00*6C
2017-12-14 12:08:16 1513271296.180616: $GPGGA,170817,3946.9537,N,08404.9402,W,1,08,1.20,330.61,M,-33.324,M,,*7B
2017-12-14 12:08:16 1513271296.180684: $GPRMC,170817,A,3946.9537,N,08404.9402,W,0.4844,273.795,141217,,*31
2017-12-14 12:08:16 1513271296.180744: $GPGSA,A,3,10,15,18,24,21,27,20,32,,,,,6.6,1.2,6.2*3A
2017-12-14 12:08:17 1513271297.196922: $GPZDA,170818.00,14,12,2017,00,00*63
2017-12-14 12:08:17 1513271297.197205: $GPGGA,170818,3946.9537,N,08404.9402,W,1,08,1.20,330.61,M,-33.324,M,,*74
2017-12-14 12:08:17 1513271297.197273: $GPRMC,170818,A,3946.9537,N,08404.9402,W,0.5912,309.173,141217,,*3F
2017-12-14 12:08:17 1513271297.197387: $GPGSA,A,3,10,15,18,24,21,27,20,32,,,,,6.6,1.2,6.2*3A
2017-12-14 12:08:18 1513271298.514282: $GPGSV,3,1,11,10,38,297,14,15,42,051,19,18,68,327,17,24,48,117,28*76
2017-12-14 12:08:18 1513271298.514450: $GPGSV,3,2,11,21,68,192,23,27,19,294,08,13,12,048,00,20,38,091,11*78
2017-12-14 12:08:18 1513271298.514532: $GPGSV,3,3,11,32,17,235,15,08,04,325,00,138,38,213,00*77
2017-12-14 12:08:18 1513271298.627919: $GPZDA,170819.00,14,12,2017,00,00*62
2017-12-14 12:08:18 1513271298.628068: $GPGGA,170819,3946.9534,N,08404.9403,W,1,08,1.40,331.37,M,-33.324,M,,*73
2017-12-14 12:08:18 1513271298.628136: $GPRMC,170819,A,3946.9534,N,08404.9403,W,0.4844,273.795,141217,,*3D
2017-12-14 12:08:18 1513271298.628196: $GPGSA,A,3,10,15,18,24,21,27,20,32,,,,,6.6,1.4,6.2*3C
2017-12-14 12:08:19 1513271299.195549: $GPZDA,170820.00,14,12,2017,00,00*68
2017-12-14 12:08:19 1513271299.195971: $GPGGA,170820,3946.9534,N,08404.9410,W,1,08,1.40,331.29,M,-33.324,M,,*74
2017-12-14 12:08:19 1513271299.200996: $GPRMC,170820,A,3946.9534,N,08404.9410,W,0.5951,238.684,141217,,*3F
2017-12-14 12:08:19 1513271299.201088: $GPGSA,A,3,10,15,18,24,21,27,20,32,,,,,6.6,1.4,6.2*3C
2017-12-14 12:08:20 1513271300.194011: $GPZDA,170821.00,14,12,2017,00,00*69
2017-12-14 12:08:20 1513271300.194184: $GPGGA,170821,3946.9534,N,08404.9410,W,1,08,1.40,331.29,M,-33.324,M,,*75
2017-12-14 12:08:20 1513271300.194254: $GPRMC,170821,A,3946.9534,N,08404.9410,W,0.8414,219.347,141217,,*36
2017-12-14 12:08:20 1513271300.194317: $GPGSA,A,3,10,15,18,24,21,27,20,32,,,,,6.6,1.4,6.2*3C
2017-12-14 12:08:21 1513271301.529940: $GPGSV,3,1,11,10,38,297,14,15,42,051,19,18,68,327,17,24,48,117,28*76
2017-12-14 12:08:21 1513271301.530119: $GPGSV,3,2,11,21,68,192,24,27,19,294,07,13,12,048,00,20,38,091,10*71
2017-12-14 12:08:21 1513271301.530188: $GPGSV,3,3,11,32,17,235,15,08,04,325,00,138,38,213,00*77
2017-12-14 12:08:21 1513271301.643332: $GPZDA,170822.00,14,12,2017,00,00*6A
2017-12-14 12:08:21 1513271301.643498: $GPGGA,170822,3946.9534,N,08404.9410,W,1,08,1.40,331.29,M,-33.324,M,,*76
2017-12-14 12:08:21 1513271301.643567: $GPRMC,170822,A,3946.9534,N,08404.9410,W,0.2422,93.795,141217,,*01
2017-12-14 12:08:21 1513271301.643631: $GPGSA,A,3,10,15,18,24,21,27,20,32,,,,,6.6,1.4,6.2*3C
2017-12-14 12:08:22 1513271302.194914: $GPZDA,170823.00,14,12,2017,00,00*6B
2017-12-14 12:08:22 1513271302.195083: $GPGGA,170823,3946.9538,N,08404.9410,W,1,08,1.40,331.93,M,-33.324,M,,*7A
2017-12-14 12:08:22 1513271302.195171: $GPRMC,170823,A,3946.9538,N,08404.9410,W,0.7267,93.795,141217,,*0E
2017-12-14 12:08:22 1513271302.195236: $GPGSA,A,3,10,15,18,24,21,27,20,32,,,,,6.6,1.4,6.2*3C
2017-12-14 12:08:23 1513271303.194992: $GPZDA,170824.00,14,12,2017,00,00*6C
2017-12-14 12:08:23 1513271303.195185: $GPGGA,170824,3946.9538,N,08404.9410,W,1,08,1.40,331.93,M,-33.324,M,,*7D
2017-12-14 12:08:23 1513271303.195255: $GPRMC,170824,A,3946.9538,N,08404.9410,W,0.8054,68.645,141217,,*0C
2017-12-14 12:08:23 1513271303.195318: $GPGSA,A,3,10,15,18,24,21,27,20,32,,,,,6.6,1.4,6.2*3C
2017-12-14 12:08:24 1513271304.532384: $GPGSV,3,1,11,10,38,297,16,15,42,051,19,18,68,327,16,24,48,117,28*75
2017-12-14 12:08:24 1513271304.532585: $GPGSV,3,2,11,21,68,192,24,27,19,294,06,13,12,048,00,20,38,091,11*71
2017-12-14 12:08:24 1513271304.532718: $GPGSV,3,3,11,32,17,235,15,08,04,325,00,120,07,103,00*70
2017-12-14 12:08:24 1513271304.644740: $GPZDA,170825.00,14,12,2017,00,00*6D
2017-12-14 12:08:24 1513271304.644906: $GPGGA,170825,3946.9542,N,08404.9403,W,1,07,1.40,332.65,M,-33.324,M,,*76
2017-12-14 12:08:24 1513271304.644971: $GPRMC,170825,A,3946.9542,N,08404.9403,W,1.1902,58.684,141217,,*0E
2017-12-14 12:08:24 1513271304.645032: $GPGSA,A,3,10,15,18,24,21,20,32,,,,,,6.6,1.4,6.2*39
2017-12-14 12:08:25 1513271305.677509: $GPZDA,170826.00,14,12,2017,00,00*6E
2017-12-14 12:08:25 1513271305.677677: $GPGGA,170826,3946.9542,N,08404.9403,W,1,07,1.40,332.65,M,-33.324,M,,*75
2017-12-14 12:08:25 1513271305.677744: $GPRMC,170826,A,3946.9542,N,08404.9403,W,1.2621,39.347,141217,,*0D
2017-12-14 12:08:25 1513271305.677805: $GPGSA,A,3,10,15,18,24,21,20,32,,,,,,6.6,1.4,6.2*39
2017-12-14 12:08:26 1513271306.178858: $GPZDA,170827.00,14,12,2017,00,00*6F
2017-12-14 12:08:26 1513271306.179027: $GPGGA,170827,3946.9546,N,08404.9403,W,1,07,1.40,333.29,M,-33.324,M,,*79
2017-12-14 12:08:26 1513271306.179092: $GPRMC,170827,A,3946.9546,N,08404.9403,W,0.8709,3.298,141217,,*32
2017-12-14 12:08:26 1513271306.179152: $GPGSA,A,3,10,15,18,24,21,20,32,,,,,,6.6,1.4,6.2*39
2017-12-14 12:08:27 1513271307.531111: $GPGSV,3,1,11,10,38,298,16,15,41,051,19,18,68,328,16,24,48,117,28*76
2017-12-14 12:08:27 1513271307.531289: $GPGSV,3,2,11,21,67,192,25,27,19,294,04,13,11,048,00,20,37,091,11*71
2017-12-14 12:08:27 1513271307.531354: $GPGSV,3,3,11,32,18,235,14,08,04,325,00,120,07,103,00*7E
2017-12-14 12:08:27 1513271307.644784: $GPZDA,170828.00,14,12,2017,00,00*60
2017-12-14 12:08:27 1513271307.644951: $GPGGA,170828,3946.9550,N,08404.9403,W,1,07,1.40,333.93,M,-33.324,M,,*70
2017-12-14 12:08:27 1513271307.645017: $GPRMC,170828,A,3946.9550,N,08404.9403,W,0.9060,347.792,141217,,*3F
2017-12-14 12:08:27 1513271307.645078: $GPGSA,A,3,10,15,18,24,21,20,32,,,,,,6.6,1.4,6.2*39
2017-12-14 12:08:28 1513271308.178641: $GPZDA,170829.00,14,12,2017,00,00*61
2017-12-14 12:08:28 1513271308.178810: $GPGGA,170829,3946.9551,N,08404.9410,W,1,07,1.40,333.85,M,-33.324,M,,*75
2017-12-14 12:08:28 1513271308.178876: $GPRMC,170829,A,3946.9551,N,08404.9410,W,1.0002,334.331,141217,,*38
2017-12-14 12:08:28 1513271308.178936: $GPGSA,A,3,10,15,18,24,21,20,32,,,,,,6.6,1.4,6.2*39
