2017-12-01 17:09:31 1512166171.816672: {"class":"VERSION","release":"3.16","rev":"3.16-4","proto_major":3,"proto_minor":11}
2017-12-01 17:09:31 1512166171.817090: {"class":"DEVICES","devices":[{"class":"DEVICE","path":"/dev/ttyUSB0","driver":"SiRF","subtype":"9\u0006GSD4e_4.1.2-P1_RPATCH.05-F-GPS-4R-1510281 11/03/2015 307","activated":"2017-12-01T22:09:31.769Z","flags":1,"native":1,"bps":4800,"parity":"N","stopbits":1,"cycle":1.00}]}
2017-12-01 17:09:31 1512166171.817213: {"class":"WATCH","enable":true,"json":false,"nmea":true,"raw":0,"scaled":false,"timing":false,"split24":false,"pps":false}
2017-12-01 17:09:32 1512166172.454260: $GPZDA,220933.00,01,12,2017,00,00*69
2017-12-01 17:09:32 1512166172.454429: $GPGGA,220933,3946.9639,N,08404.9733,W,2,12,0.80,295.46,M,-33.324,M,,*7E
2017-12-01 17:09:32 1512166172.454498: $GPRMC,220933,A,3946.9639,N,08404.9733,W,0.0000,0.000,011217,,*39
2017-12-01 17:09:32 1512166172.454561: $GPGSA,A,3,1,3,10,12,14,22,26,31,32,11,25,138,2.0,0.8,1.5*03
2017-12-01 17:09:33 1512166173.796302: $GPGSV,3,1,12,01,21,282,42,03,14,316,41,10,29,154,35,12,12,036,25*7D
2017-12-01 17:09:33 1512166173.796485: $GPGSV,3,2,12,14,70,015,46,22,33,307,46,26,18,178,39,31,73,252,48*7F
2017-12-01 17:09:33 1512166173.796553: $GPGSV,3,3,12,32,60,067,49,11,02,267,17,25,39,066,33,138,38,213,36*4F
2017-12-01 17:09:33 1512166173.910110: $GPZDA,220934.00,01,12,2017,00,00*6E
2017-12-01 17:09:33 1512166173.910282: $GPGGA,220934,3946.9643,N,08404.9733,W,2,12,0.80,296.10,M,-33.324,M,,*74
2017-12-01 17:09:33 1512166173.910351: $GPRMC,220934,A,3946.9643,N,08404.9733,W,0.0000,0.000,011217,,*33
2017-12-01 17:09:33 1512166173.910413: $GPGSA,A,3,1,3,10,12,14,22,26,31,32,11,25,138,2.0,0.8,1.5*03
2017-12-01 17:09:34 1512166174.460653: $GPZDA,220935.00,01,12,2017,00,00*6F
2017-12-01 17:09:34 1512166174.460816: $GPGGA,220935,3946.9643,N,08404.9733,W,2,12,0.80,296.10,M,-33.324,M,,*75
2017-12-01 17:09:34 1512166174.460887: $GPRMC,220935,A,3946.9643,N,08404.9733,W,0.0000,0.000,011217,,*32
2017-12-01 17:09:34 1512166174.460950: $GPGSA,A,3,1,3,10,12,14,22,26,31,32,11,25,138,2.0,0.8,1.5*03
2017-12-01 17:09:35 1512166175.460217: $GPZDA,220936.00,01,12,2017,00,00*6C
2017-12-01 17:09:35 1512166175.460376: $GPGGA,220936,3946.9643,N,08404.9733,W,2,12,0.80,296.10,M,-33.324,M,,*76
2017-12-01 17:09:35 1512166175.460445: $GPRMC,220936,A,3946.9643,N,08404.9733,W,0.0000,0.000,011217,,*31
2017-12-01 17:09:35 1512166175.460505: $GPGSA,A,3,1,3,10,12,14,22,26,31,32,11,25,138,2.0,0.8,1.5*03
2017-12-01 17:09:36 1512166176.798346: $GPGSV,3,1,12,01,21,282,41,03,14,316,41,10,29,154,35,12,12,036,25*7E
2017-12-01 17:09:36 1512166176.798532: $GPGSV,3,2,12,14,70,015,46,22,33,307,45,26,18,178,38,31,73,252,48*7D
2017-12-01 17:09:36 1512166176.798600: $GPGSV,3,3,12,32,60,067,49,11,02,267,20,25,39,066,33,138,38,213,39*44
2017-12-01 17:09:36 1512166176.911804: $GPZDA,220937.00,01,12,2017,00,00*6D
2017-12-01 17:09:36 1512166176.911972: $GPGGA,220937,3946.9643,N,08404.9733,W,2,12,0.80,296.10,M,-33.324,M,,*77
2017-12-01 17:09:36 1512166176.912038: $GPRMC,220937,A,3946.9643,N,08404.9733,W,0.0000,0.000,011217,,*30
2017-12-01 17:09:36 1512166176.912099: $GPGSA,A,3,1,3,10,12,14,22,26,31,32,11,25,138,2.0,0.8,1.5*03
2017-12-01 17:09:37 1512166177.537203: $GPZDA,220938.00,01,12,2017,00,00*62
2017-12-01 17:09:37 1512166177.537376: $GPGGA,220938,3946.9643,N,08404.9733,W,2,12,0.80,296.10,M,-33.324,M,,*78
2017-12-01 17:09:37 1512166177.537443: $GPRMC,220938,A,3946.9643,N,08404.9733,W,0.0000,0.000,011217,,*3F
2017-12-01 17:09:37 1512166177.537504: $GPGSA,A,3,1,3,10,12,14,22,26,31,32,11,25,138,2.0,0.8,1.5*03
2017-12-01 17:09:38 1512166178.459232: $GPZDA,220939.00,01,12,2017,00,00*63
2017-12-01 17:09:38 1512166178.459412: $GPGGA,220939,3946.9643,N,08404.9733,W,2,12,0.80,296.10,M,-33.324,M,,*79
2017-12-01 17:09:38 1512166178.459480: $GPRMC,220939,A,3946.9643,N,08404.9733,W,0.0000,0.000,011217,,*3E
2017-12-01 17:09:38 1512166178.459541: $GPGSA,A,3,1,3,10,12,14,22,26,31,32,11,25,138,2.0,0.8,1.5*03
2017-12-01 17:09:39 1512166179.794960: $GPGSV,3,1,12,01,21,282,41,03,14,316,41,10,29,154,35,12,12,036,25*7E
2017-12-01 17:09:39 1512166179.795194: $GPGSV,3,2,12,14,70,015,46,22,33,307,45,26,18,178,37,31,73,252,48*72
2017-12-01 17:09:39 1512166179.795264: $GPGSV,3,3,12,32,60,067,49,11,02,267,28,25,39,066,33,138,38,213,39*4C
2017-12-01 17:09:39 1512166179.908335: $GPZDA,220940.00,01,12,2017,00,00*6D
2017-12-01 17:09:39 1512166179.908483: $GPGGA,220940,3946.9643,N,08404.9733,W,2,12,0.80,296.10,M,-33.324,M,,*77
2017-12-01 17:09:39 1512166179.908551: $GPRMC,220940,A,3946.9643,N,08404.9733,W,0.0000,0.000,011217,,*30
2017-12-01 17:09:39 1512166179.908612: $GPGSA,A,3,1,3,10,12,14,22,26,31,32,11,25,138,2.0,0.8,1.5*03
2017-12-01 17:09:40 1512166180.460496: $GPZDA,220941.00,01,12,2017,00,00*6C
2017-12-01 17:09:40 1512166180.460669: $GPGGA,220941,3946.9643,N,08404.9733,W,2,12,0.80,296.10,M,-33.324,M,,*76
2017-12-01 17:09:40 1512166180.460736: $GPRMC,220941,A,3946.9643,N,08404.9733,W,0.0000,0.000,011217,,*31
2017-12-01 17:09:40 1512166180.460796: $GPGSA,A,3,1,3,10,12,14,22,26,31,32,11,25,138,2.0,0.8,1.5*03
2017-12-01 17:09:41 1512166181.460087: $GPZDA,220942.00,01,12,2017,00,00*6F
2017-12-01 17:09:41 1512166181.460247: $GPGGA,220942,3946.9643,N,08404.9733,W,2,12,0.80,296.10,M,-33.324,M,,*75
2017-12-01 17:09:41 1512166181.460313: $GPRMC,220942,A,3946.9643,N,08404.9733,W,0.0000,0.000,011217,,*32
2017-12-01 17:09:41 1512166181.460374: $GPGSA,A,3,1,3,10,12,14,22,26,31,32,11,25,138,2.0,0.8,1.5*03
2017-12-01 17:09:42 1512166182.796754: $GPGSV,3,1,12,01,21,282,40,03,14,316,41,10,29,154,35,12,12,036,19*70
2017-12-01 17:09:42 1512166182.796955: $GPGSV,3,2,12,14,70,015,46,22,33,307,45,26,18,178,36,31,73,252,48*73
2017-12-01 17:09:42 1512166182.797047: $GPGSV,3,3,12,32,60,067,49,11,02,267,28,25,39,066,33,138,38,213,39*4C
2017-12-01 17:09:42 1512166182.909958: $GPZDA,220943.00,01,12,2017,00,00*6E
2017-12-01 17:09:42 1512166182.910129: $GPGGA,220943,3946.9643,N,08404.9733,W,2,12,0.80,296.10,M,-33.324,M,,*74
2017-12-01 17:09:42 1512166182.910196: $GPRMC,220943,A,3946.9643,N,08404.9733,W,0.0000,0.000,011217,,*33
2017-12-01 17:09:42 1512166182.910257: $GPGSA,A,3,1,3,10,12,14,22,26,31,32,11,25,138,2.0,0.8,1.5*03
2017-12-01 17:09:43 1512166183.459639: $GPZDA,220944.00,01,12,2017,00,00*69
2017-12-01 17:09:43 1512166183.459812: $GPGGA,220944,3946.9643,N,08404.9733,W,2,12,0.80,296.10,M,-33.324,M,,*73
2017-12-01 17:09:43 1512166183.459880: $GPRMC,220944,A,3946.9643,N,08404.9733,W,0.0000,0.000,011217,,*34
2017-12-01 17:09:43 1512166183.459940: $GPGSA,A,3,1,3,10,12,14,22,26,31,32,11,25,138,2.0,0.8,1.5*03
2017-12-01 17:09:44 1512166184.460464: $GPZDA,220945.00,01,12,2017,00,00*68
2017-12-01 17:09:44 1512166184.460639: $GPGGA,220945,3946.9643,N,08404.9733,W,2,12,0.80,296.10,M,-33.324,M,,*72
2017-12-01 17:09:44 1512166184.460704: $GPRMC,220945,A,3946.9643,N,08404.9733,W,0.0000,0.000,011217,,*35
2017-12-01 17:09:44 1512166184.460765: $GPGSA,A,3,1,3,10,12,14,22,26,31,32,11,25,138,2.0,0.8,1.5*03
2017-12-01 17:09:45 1512166185.796195: $GPGSV,3,1,12,01,21,282,40,03,14,316,41,10,29,154,35,12,12,036,17*7E
2017-12-01 17:09:45 1512166185.796377: $GPGSV,3,2,12,14,70,015,46,22,33,307,44,26,18,178,36,31,73,252,48*72
2017-12-01 17:09:45 1512166185.796444: $GPGSV,3,3,12,32,60,067,49,11,02,267,29,25,39,066,33,138,38,213,39*4D
2017-12-01 17:09:45 1512166185.909654: $GPZDA,220946.00,01,12,2017,00,00*6B
2017-12-01 17:09:45 1512166185.909796: $GPGGA,220946,3946.9643,N,08404.9733,W,2,12,0.80,296.10,M,-33.324,M,,*71
2017-12-01 17:09:45 1512166185.909862: $GPRMC,220946,A,3946.9643,N,08404.9733,W,0.0000,0.000,011217,,*36
2017-12-01 17:09:45 1512166185.909922: $GPGSA,A,3,1,3,10,12,14,22,26,31,32,11,25,138,2.0,0.8,1.5*03
2017-12-01 17:09:46 1512166186.460817: $GPZDA,220947.00,01,12,2017,00,00*6A
2017-12-01 17:09:46 1512166186.460983: $GPGGA,220947,3946.9643,N,08404.9733,W,2,12,0.80,296.10,M,-33.324,M,,*70
2017-12-01 17:09:46 1512166186.461050: $GPRMC,220947,A,3946.9643,N,08404.9733,W,0.0000,0.000,011217,,*37
2017-12-01 17:09:46 1512166186.461111: $GPGSA,A,3,1,3,10,12,14,22,26,31,32,11,25,138,2.0,0.8,1.5*03
2017-12-01 17:09:47 1512166187.459618: $GPZDA,220948.00,01,12,2017,00,00*65
2017-12-01 17:09:47 1512166187.459778: $GPGGA,220948,3946.9643,N,08404.9733,W,2,12,0.80,296.10,M,-33.324,M,,*7F
2017-12-01 17:09:47 1512166187.459844: $GPRMC,220948,A,3946.9643,N,08404.9733,W,0.0000,0.000,011217,,*38
2017-12-01 17:09:47 1512166187.459905: $GPGSA,A,3,1,3,10,12,14,22,26,31,32,11,25,138,2.0,0.8,1.5*03
2017-12-01 17:09:48 1512166188.797835: $GPGSV,3,1,12,01,21,282,41,03,14,316,41,10,29,154,35,12,12,036,16*7E
2017-12-01 17:09:48 1512166188.798019: $GPGSV,3,2,12,14,70,015,46,22,33,307,44,26,18,178,36,31,73,252,48*72
2017-12-01 17:09:48 1512166188.798085: $GPGSV,3,3,12,32,60,067,50,11,02,267,30,25,39,066,33,138,38,213,40*43
2017-12-01 17:09:48 1512166188.911296: $GPZDA,220949.00,01,12,2017,00,00*64
2017-12-01 17:09:48 1512166188.911524: $GPGGA,220949,3946.9643,N,08404.9733,W,2,12,0.80,296.10,M,-33.324,M,,*7E
2017-12-01 17:09:48 1512166188.911595: $GPRMC,220949,A,3946.9643,N,08404.9733,W,0.0000,0.000,011217,,*39
2017-12-01 17:09:48 1512166188.911657: $GPGSA,A,3,1,3,10,12,14,22,26,31,32,11,25,138,2.0,0.8,1.5*03
2017-12-01 17:09:49 1512166189.460896: $GPZDA,220950.00,01,12,2017,00,00*6C
2017-12-01 17:09:49 1512166189.461087: $GPGGA,220950,3946.9643,N,08404.9733,W,2,12,0.80,296.10,M,-33.324,M,,*76
2017-12-01 17:09:49 1512166189.461155: $GPRMC,220950,A,3946.9643,N,08404.9733,W,0.0000,0.000,011217,,*31
2017-12-01 17:09:49 1512166189.461216: $GPGSA,A,3,1,3,10,12,14,22,26,31,32,11,25,138,2.0,0.8,1.5*03
2017-12-01 17:09:50 1512166190.454330: $GPZDA,220951.00,01,12,2017,00,00*6D
2017-12-01 17:09:50 1512166190.454516: $GPGGA,220951,3946.9643,N,08404.9733,W,2,12,0.80,296.10,M,-33.324,M,,*77
2017-12-01 17:09:50 1512166190.454583: $GPRMC,220951,A,3946.9643,N,08404.9733,W,0.0000,0.000,011217,,*30
2017-12-01 17:09:50 1512166190.454644: $GPGSA,A,3,1,3,10,12,14,22,26,31,32,11,25,138,2.0,0.8,1.5*03
2017-12-01 17:09:51 1512166191.796180: $GPGSV,3,1,12,01,21,282,41,03,14,316,41,10,29,154,36,12,12,036,17*7C
2017-12-01 17:09:51 1512166191.796365: $GPGSV,3,2,12,14,70,015,46,22,33,307,45,26,18,178,36,31,73,252,48*73
2017-12-01 17:09:51 1512166191.796432: $GPGSV,3,3,12,32,60,067,50,11,02,267,31,25,39,066,33,138,38,213,40*42
