2018-01-11 19:39:47 1515717587.515795: {"class":"VERSION","release":"3.16","rev":"3.16-4","proto_major":3,"proto_minor":11}
2018-01-11 19:39:47 1515717587.516128: {"class":"DEVICES","devices":[{"class":"DEVICE","path":"/dev/ttyUSB0","driver":"SiRF","subtype":"9\u0006GSD4e_4.1.2-P1_RPATCH.05-F-GPS-4R-1510281 11/03/2015 307","activated":"2018-01-12T00:39:47.493Z","flags":1,"native":1,"bps":4800,"parity":"N","stopbits":1,"cycle":1.00}]}
2018-01-11 19:39:47 1515717587.516239: {"class":"WATCH","enable":true,"json":false,"nmea":true,"raw":0,"scaled":false,"timing":false,"split24":false,"pps":false}
2018-01-11 19:39:48 1515717588.379210: $GPZDA,003949.00,12,01,2018,00,00*68
2018-01-11 19:39:48 1515717588.379375: $GPGGA,003949,3946.9571,N,08404.9826,W,2,12,0.80,312.05,M,-33.324,M,,*7D
2018-01-11 19:39:48 1515717588.379440: $GPRMC,003949,A,3946.9571,N,08404.9826,W,0.0000,0.000,120118,,*3C
2018-01-11 19:39:48 1515717588.379500: $GPGSA,A,3,7,8,9,16,23,27,30,11,26,28,21,138,4.0,0.8,3.5*39
2018-01-11 19:39:49 1515717589.718647: $GPGSV,3,1,12,07,42,309,40,08,61,160,46,09,56,252,41,16,34,052,48*7C
2018-01-11 19:39:49 1515717589.718799: $GPGSV,3,2,12,23,44,195,47,27,57,072,49,30,17,300,38,11,08,172,25*7D
2018-01-11 19:39:49 1515717589.718863: $GPGSV,3,3,12,26,08,064,25,28,04,249,23,21,02,033,18,138,38,213,45*4B
2018-01-11 19:39:49 1515717589.831979: $GPZDA,003950.00,12,01,2018,00,00*60
2018-01-11 19:39:49 1515717589.832109: $GPGGA,003950,3946.9576,N,08404.9826,W,2,12,0.80,312.69,M,-33.324,M,,*78
2018-01-11 19:39:49 1515717589.832173: $GPRMC,003950,A,3946.9576,N,08404.9826,W,0.0000,0.000,120118,,*33
2018-01-11 19:39:49 1515717589.832233: $GPGSA,A,3,7,8,9,16,23,27,30,11,26,28,21,138,4.0,0.8,3.5*39
2018-01-11 19:39:50 1515717590.381602: $GPZDA,003951.00,12,01,2018,00,00*61
2018-01-11 19:39:50 1515717590.381750: $GPGGA,003951,3946.9576,N,08404.9826,W,2,12,0.80,312.69,M,-33.324,M,,*79
2018-01-11 19:39:50 1515717590.381815: $GPRMC,003951,A,3946.9576,N,08404.9826,W,0.0000,0.000,120118,,*32
2018-01-11 19:39:50 1515717590.381875: $GPGSA,A,3,7,8,9,16,23,27,30,11,26,28,21,138,4.0,0.8,3.5*39
2018-01-11 19:39:51 1515717591.380050: $GPZDA,003952.00,12,01,2018,00,00*62
2018-01-11 19:39:51 1515717591.380204: $GPGGA,003952,3946.9576,N,08404.9826,W,2,12,0.80,312.69,M,-33.324,M,,*7A
2018-01-11 19:39:51 1515717591.380269: $GPRMC,003952,A,3946.9576,N,08404.9826,W,0.0000,0.000,120118,,*31
2018-01-11 19:39:51 1515717591.380330: $GPGSA,A,3,7,8,9,16,23,27,30,11,26,28,21,138,4.0,0.8,3.5*39
2018-01-11 19:39:52 1515717592.716473: $GPGSV,3,1,12,07,42,309,40,08,61,160,45,09,56,252,40,16,34,052,48*7E
2018-01-11 19:39:52 1515717592.716654: $GPGSV,3,2,12,23,44,195,47,27,57,072,49,30,17,300,38,11,08,172,27*7F
2018-01-11 19:39:52 1515717592.716721: $GPGSV,3,3,12,26,08,064,25,28,04,249,24,21,02,033,18,138,38,213,44*4D
2018-01-11 19:39:52 1515717592.829856: $GPZDA,003953.00,12,01,2018,00,00*63
2018-01-11 19:39:52 1515717592.829998: $GPGGA,003953,3946.9576,N,08404.9826,W,2,12,0.80,312.69,M,-33.324,M,,*7B
2018-01-11 19:39:52 1515717592.830061: $GPRMC,003953,A,3946.9576,N,08404.9826,W,0.0000,0.000,120118,,*30
2018-01-11 19:39:52 1515717592.830121: $GPGSA,A,3,7,8,9,16,23,27,30,11,26,28,21,138,4.0,0.8,3.5*39
2018-01-11 19:39:53 1515717593.380689: $GPZDA,003954.00,12,01,2018,00,00*64
2018-01-11 19:39:53 1515717593.380827: $GPGGA,003954,3946.9576,N,08404.9826,W,2,12,0.80,312.69,M,-33.324,M,,*7C
2018-01-11 19:39:53 1515717593.380892: $GPRMC,003954,A,3946.9576,N,08404.9826,W,0.0000,0.000,120118,,*37
2018-01-11 19:39:53 1515717593.380952: $GPGSA,A,3,7,8,9,16,23,27,30,11,26,28,21,138,4.0,0.8,3.5*39
2018-01-11 19:39:54 1515717594.381590: $GPZDA,003955.00,12,01,2018,00,00*65
2018-01-11 19:39:54 1515717594.381753: $GPGGA,003955,3946.9576,N,08404.9826,W,2,12,0.80,312.69,M,-33.324,M,,*7D
2018-01-11 19:39:54 1515717594.381819: $GPRMC,003955,A,3946.9576,N,08404.9826,W,0.0000,0.000,120118,,*36
2018-01-11 19:39:54 1515717594.381879: $GPGSA,A,3,7,8,9,16,23,27,30,11,26,28,21,138,4.0,0.8,3.5*39
