2017-11-16 13:16:14 1510856174.907700: {"class":"VERSION","release":"3.17","rev":"3.17","proto_major":3,"proto_minor":12}
2017-11-16 13:16:14 1510856174.908184: {"class":"DEVICES","devices":[{"class":"DEVICE","path":"/dev/ttyUSB0","driver":"SiRF","subtype":"9\u0006GSD4e_4.1.2-P1_RPATCH.05-F-GPS-4R-1510281 11/03/2015 307","activated":"2017-11-16T18:16:14.609Z","flags":1,"native":1,"bps":4800,"parity":"N","stopbits":1,"cycle":1.00}]}
2017-11-16 13:16:14 1510856174.908294: {"class":"WATCH","enable":true,"json":false,"nmea":true,"raw":0,"scaled":false,"timing":false,"split24":false,"pps":false}
2017-11-16 13:16:15 1510856175.634441: $GPGSV,3,1,11,10,22,282,44,13,30,045,47,15,62,052,51,18,53,298,45*7F
2017-11-16 13:16:15 1510856175.634609: $GPGSV,3,2,11,20,52,070,45,21,77,276,46,24,32,139,42,27,16,313,40*74
2017-11-16 13:16:15 1510856175.634670: $GPGSV,3,3,11,05,05,087,15,29,10,189,28,138,38,213,46*71
2017-11-16 13:16:15 1510856175.747807: $GPZDA,181614.00,16,11,2017,00,00*6E
2017-11-16 13:16:15 1510856175.747958: $GPGGA,181614,3946.9585,N,08404.9845,W,2,11,0.80,298.08,M,-33.324,M,,*72
2017-11-16 13:16:15 1510856175.748019: $GPRMC,181614,A,3946.9585,N,08404.9845,W,0.0000,0.000,161117,,*34
2017-11-16 13:16:15 1510856175.748075: $GPGSA,A,3,10,13,15,18,20,21,24,27,5,29,138,,1.6,0.8,1.3*37
2017-11-16 13:16:16 1510856176.298843: $GPZDA,181615.00,16,11,2017,00,00*6F
2017-11-16 13:16:16 1510856176.299003: $GPGGA,181615,3946.9585,N,08404.9845,W,2,11,0.80,298.08,M,-33.324,M,,*73
2017-11-16 13:16:16 1510856176.299064: $GPRMC,181615,A,3946.9585,N,08404.9845,W,0.0000,0.000,161117,,*35
2017-11-16 13:16:16 1510856176.299121: $GPGSA,A,3,10,13,15,18,20,21,24,27,5,29,138,,1.6,0.8,1.3*37
2017-11-16 13:16:17 1510856177.299703: $GPZDA,181616.00,16,11,2017,00,00*6C
2017-11-16 13:16:17 1510856177.299865: $GPGGA,181616,3946.9585,N,08404.9845,W,2,11,0.80,298.08,M,-33.324,M,,*70
2017-11-16 13:16:17 1510856177.299945: $GPRMC,181616,A,3946.9585,N,08404.9845,W,0.0000,0.000,161117,,*36
2017-11-16 13:16:17 1510856177.300003: $GPGSA,A,3,10,13,15,18,20,21,24,27,5,29,138,,1.6,0.8,1.3*37
2017-11-16 13:16:18 1510856178.640073: $GPGSV,3,1,11,10,22,282,44,13,30,045,48,15,62,052,51,18,53,298,45*70
2017-11-16 13:16:18 1510856178.640226: $GPGSV,3,2,11,20,52,070,46,21,77,276,46,24,32,139,42,27,16,313,40*77
2017-11-16 13:16:18 1510856178.640330: $GPGSV,3,3,11,05,05,087,16,29,10,189,28,138,38,213,45*71
2017-11-16 13:16:18 1510856178.752128: $GPZDA,181617.00,16,11,2017,00,00*6D
2017-11-16 13:16:18 1510856178.752304: $GPGGA,181617,3946.9585,N,08404.9845,W,2,11,0.80,298.08,M,-33.324,M,,*71
2017-11-16 13:16:18 1510856178.752368: $GPRMC,181617,A,3946.9585,N,08404.9845,W,0.0000,0.000,161117,,*37
2017-11-16 13:16:18 1510856178.752424: $GPGSA,A,3,10,13,15,18,20,21,24,27,5,29,138,,1.6,0.8,1.3*37
2017-11-16 13:16:19 1510856179.299508: $GPZDA,181618.00,16,11,2017,00,00*62
2017-11-16 13:16:19 1510856179.299672: $GPGGA,181618,3946.9585,N,08404.9845,W,2,11,0.80,298.08,M,-33.324,M,,*7E
2017-11-16 13:16:19 1510856179.299733: $GPRMC,181618,A,3946.9585,N,08404.9845,W,0.0000,0.000,161117,,*38
2017-11-16 13:16:19 1510856179.299788: $GPGSA,A,3,10,13,15,18,20,21,24,27,5,29,138,,1.6,0.8,1.3*37
2017-11-16 13:16:20 1510856180.293401: $GPZDA,181619.00,16,11,2017,00,00*63
2017-11-16 13:16:20 1510856180.293577: $GPGGA,181619,3946.9585,N,08404.9845,W,2,11,0.80,298.08,M,-33.324,M,,*7F
2017-11-16 13:16:20 1510856180.293639: $GPRMC,181619,A,3946.9585,N,08404.9845,W,0.0000,0.000,161117,,*39
2017-11-16 13:16:20 1510856180.293696: $GPGSA,A,3,10,13,15,18,20,21,24,27,5,29,138,,1.6,0.8,1.3*37
2017-11-16 13:16:21 1510856181.640334: $GPGSV,3,1,11,10,22,282,44,13,30,045,48,15,62,052,51,18,53,298,45*70
2017-11-16 13:16:21 1510856181.640505: $GPGSV,3,2,11,20,52,070,46,21,77,276,46,24,32,139,42,27,16,313,41*76
2017-11-16 13:16:21 1510856181.640568: $GPGSV,3,3,11,05,05,087,16,29,10,189,28,138,38,213,44*70
2017-11-16 13:16:21 1510856181.753690: $GPZDA,181620.00,16,11,2017,00,00*69
2017-11-16 13:16:21 1510856181.753806: $GPGGA,181620,3946.9585,N,08404.9845,W,2,11,0.80,298.08,M,-33.324,M,,*75
2017-11-16 13:16:21 1510856181.753908: $GPRMC,181620,A,3946.9585,N,08404.9845,W,0.0000,0.000,161117,,*33
2017-11-16 13:16:21 1510856181.753966: $GPGSA,A,3,10,13,15,18,20,21,24,27,5,29,138,,1.6,0.8,1.3*37
2017-11-16 13:16:22 1510856182.298429: $GPZDA,181621.00,16,11,2017,00,00*68
2017-11-16 13:16:22 1510856182.298630: $GPGGA,181621,3946.9585,N,08404.9845,W,2,11,0.80,298.08,M,-33.324,M,,*74
2017-11-16 13:16:22 1510856182.298696: $GPRMC,181621,A,3946.9585,N,08404.9845,W,0.0000,0.000,161117,,*32
2017-11-16 13:16:22 1510856182.298751: $GPGSA,A,3,10,13,15,18,20,21,24,27,5,29,138,,1.6,0.8,1.3*37
2017-11-16 13:16:23 1510856183.297871: $GPZDA,181622.00,16,11,2017,00,00*6B
2017-11-16 13:16:23 1510856183.298043: $GPGGA,181622,3946.9585,N,08404.9845,W,2,11,0.80,298.08,M,-33.324,M,,*77
2017-11-16 13:16:23 1510856183.298127: $GPRMC,181622,A,3946.9585,N,08404.9845,W,0.0000,0.000,161117,,*31
2017-11-16 13:16:23 1510856183.298185: $GPGSA,A,3,10,13,15,18,20,21,24,27,5,29,138,,1.6,0.8,1.3*37
2017-11-16 13:16:24 1510856184.633582: $GPGSV,3,1,11,10,22,282,44,13,30,045,48,15,62,052,51,18,53,298,45*70
2017-11-16 13:16:24 1510856184.633746: $GPGSV,3,2,11,20,52,070,46,21,77,276,46,24,32,139,42,27,16,313,41*76
2017-11-16 13:16:24 1510856184.633807: $GPGSV,3,3,11,05,05,087,17,29,10,189,29,138,38,213,45*71
2017-11-16 13:16:24 1510856184.746910: $GPZDA,181623.00,16,11,2017,00,00*6A
2017-11-16 13:16:24 1510856184.747052: $GPGGA,181623,3946.9585,N,08404.9845,W,2,11,0.80,298.08,M,-33.324,M,,*76
2017-11-16 13:16:24 1510856184.747110: $GPRMC,181623,A,3946.9585,N,08404.9845,W,0.0000,0.000,161117,,*30
2017-11-16 13:16:24 1510856184.747165: $GPGSA,A,3,10,13,15,18,20,21,24,27,5,29,138,,1.6,0.8,1.3*37
