2017-12-29 10:44:54 1514562294.158029: {"class":"VERSION","release":"3.16","rev":"3.16-4","proto_major":3,"proto_minor":11}
2017-12-29 10:44:54 1514562294.158372: {"class":"DEVICES","devices":[{"class":"DEVICE","path":"/dev/ttyUSB0","driver":"SiRF","subtype":"9\u0006GSD4e_4.1.2-P1_RPATCH.05-F-GPS-4R-1510281 11/03/2015 307","activated":"2017-12-29T15:44:54.110Z","flags":1,"native":1,"bps":4800,"parity":"N","stopbits":1,"cycle":1.00}]}
2017-12-29 10:44:54 1514562294.158499: {"class":"WATCH","enable":true,"json":false,"nmea":true,"raw":0,"scaled":false,"timing":false,"split24":false,"pps":false}
2017-12-29 10:44:54 1514562294.420579: $GPZDA,154455.00,29,12,2017,00,00*6E
2017-12-29 10:44:54 1514562294.420749: $GPGGA,154455,3946.9600,N,08404.9817,W,2,11,0.80,300.95,M,-33.324,M,,*70
2017-12-29 10:44:54 1514562294.420816: $GPRMC,154455,A,3946.9600,N,08404.9817,W,0.0000,0.000,291217,,*3D
2017-12-29 10:44:54 1514562294.420902: $GPGSA,A,3,10,13,15,18,20,21,24,27,32,29,138,,1.7,0.8,1.3*02
2017-12-29 10:44:55 1514562295.348951: $GPZDA,154456.00,29,12,2017,00,00*6D
2017-12-29 10:44:55 1514562295.349132: $GPGGA,154456,3946.9600,N,08404.9817,W,2,11,0.80,300.95,M,-33.324,M,,*73
2017-12-29 10:44:55 1514562295.349199: $GPRMC,154456,A,3946.9600,N,08404.9817,W,0.0000,0.000,291217,,*3E
2017-12-29 10:44:55 1514562295.349260: $GPGSA,A,3,10,13,15,18,20,21,24,27,32,29,138,,1.7,0.8,1.3*02
2017-12-29 10:44:56 1514562296.684662: $GPGSV,3,1,11,10,31,291,43,13,20,045,43,15,51,049,50,18,62,313,44*77
2017-12-29 10:44:56 1514562296.684826: $GPGSV,3,2,11,20,45,082,50,21,77,217,48,24,41,129,50,27,19,304,42*7F
2017-12-29 10:44:56 1514562296.684912: $GPGSV,3,3,11,32,10,229,17,29,02,187,27,138,38,213,46*77
2017-12-29 10:44:56 1514562296.798021: $GPZDA,154457.00,29,12,2017,00,00*6C
2017-12-29 10:44:56 1514562296.798144: $GPGGA,154457,3946.9600,N,08404.9817,W,2,11,0.80,300.95,M,-33.324,M,,*72
2017-12-29 10:44:56 1514562296.798208: $GPRMC,154457,A,3946.9600,N,08404.9817,W,0.0000,0.000,291217,,*3F
2017-12-29 10:44:56 1514562296.798269: $GPGSA,A,3,10,13,15,18,20,21,24,27,32,29,138,,1.7,0.8,1.3*02
2017-12-29 10:44:57 1514562297.352677: $GPZDA,154458.00,29,12,2017,00,00*63
2017-12-29 10:44:57 1514562297.352856: $GPGGA,154458,3946.9600,N,08404.9817,W,2,11,0.80,300.95,M,-33.324,M,,*7D
2017-12-29 10:44:57 1514562297.352923: $GPRMC,154458,A,3946.9600,N,08404.9817,W,0.0000,0.000,291217,,*30
2017-12-29 10:44:57 1514562297.353000: $GPGSA,A,3,10,13,15,18,20,21,24,27,32,29,138,,1.7,0.8,1.3*02
2017-12-29 10:44:58 1514562298.348706: $GPZDA,154459.00,29,12,2017,00,00*62
2017-12-29 10:44:58 1514562298.348892: $GPGGA,154459,3946.9600,N,08404.9817,W,2,11,0.80,300.95,M,-33.324,M,,*7C
2017-12-29 10:44:58 1514562298.348959: $GPRMC,154459,A,3946.9600,N,08404.9817,W,0.0000,0.000,291217,,*31
2017-12-29 10:44:58 1514562298.349038: $GPGSA,A,3,10,13,15,18,20,21,24,27,32,29,138,,1.7,0.8,1.3*02
2017-12-29 10:44:58 1514562298.349097: $GPGBS,154459,2.73,M,2.59,M,7.72,M*3C
2017-12-29 10:44:59 1514562299.683642: $GPGSV,3,1,11,10,31,291,43,13,20,045,42,15,51,049,50,18,62,313,44*76
2017-12-29 10:44:59 1514562299.683802: $GPGSV,3,2,11,20,45,082,50,21,77,217,48,24,41,129,50,27,19,304,42*7F
2017-12-29 10:44:59 1514562299.683887: $GPGSV,3,3,11,32,10,229,21,29,02,187,22,138,38,213,46*77
2017-12-29 10:44:59 1514562299.797269: $GPZDA,154500.00,29,12,2017,00,00*6F
2017-12-29 10:44:59 1514562299.797398: $GPGGA,154500,3946.9600,N,08404.9817,W,2,11,0.80,300.95,M,-33.324,M,,*71
2017-12-29 10:44:59 1514562299.797463: $GPRMC,154500,A,3946.9600,N,08404.9817,W,0.0000,0.000,291217,,*3C
2017-12-29 10:44:59 1514562299.797524: $GPGSA,A,3,10,13,15,18,20,21,24,27,32,29,138,,1.7,0.8,1.3*02
2017-12-29 10:45:00 1514562300.348166: $GPZDA,154501.00,29,12,2017,00,00*6E
2017-12-29 10:45:00 1514562300.352218: $GPGGA,154501,3946.9600,N,08404.9817,W,2,11,0.80,300.95,M,-33.324,M,,*70
2017-12-29 10:45:00 1514562300.352324: $GPRMC,154501,A,3946.9600,N,08404.9817,W,0.0000,0.000,291217,,*3D
2017-12-29 10:45:00 1514562300.352388: $GPGSA,A,3,10,13,15,18,20,21,24,27,32,29,138,,1.7,0.8,1.3*02
2017-12-29 10:45:01 1514562301.354045: $GPZDA,154502.00,29,12,2017,00,00*6D
2017-12-29 10:45:01 1514562301.354265: $GPGGA,154502,3946.9600,N,08404.9817,W,2,11,0.80,300.95,M,-33.324,M,,*73
2017-12-29 10:45:01 1514562301.354333: $GPRMC,154502,A,3946.9600,N,08404.9817,W,0.0000,0.000,291217,,*3E
2017-12-29 10:45:01 1514562301.354394: $GPGSA,A,3,10,13,15,18,20,21,24,27,32,29,138,,1.7,0.8,1.3*02
2017-12-29 10:45:02 1514562302.683258: $GPGSV,3,1,11,10,31,291,43,13,20,045,42,15,51,049,50,18,62,313,44*76
2017-12-29 10:45:02 1514562302.683413: $GPGSV,3,2,11,20,45,082,50,21,77,217,48,24,41,129,50,27,19,304,41*7C
2017-12-29 10:45:02 1514562302.683479: $GPGSV,3,3,11,32,10,229,25,29,02,187,09,138,38,213,46*7A
2017-12-29 10:45:02 1514562302.796868: $GPZDA,154503.00,29,12,2017,00,00*6C
2017-12-29 10:45:02 1514562302.797012: $GPGGA,154503,3946.9600,N,08404.9817,W,2,10,0.80,300.95,M,-33.324,M,,*73
2017-12-29 10:45:02 1514562302.797079: $GPRMC,154503,A,3946.9600,N,08404.9817,W,0.0000,0.000,291217,,*3F
2017-12-29 10:45:02 1514562302.797140: $GPGSA,A,3,10,13,15,18,20,21,24,27,32,138,,,1.7,0.8,1.3*09
2017-12-29 10:45:03 1514562303.341592: $GPZDA,154504.00,29,12,2017,00,00*6B
2017-12-29 10:45:03 1514562303.341759: $GPGGA,154504,3946.9604,N,08404.9816,W,2,10,0.80,300.19,M,-33.324,M,,*75
2017-12-29 10:45:03 1514562303.341849: $GPRMC,154504,A,3946.9604,N,08404.9816,W,0.6846,4.197,291217,,*3A
2017-12-29 10:45:03 1514562303.341911: $GPGSA,A,3,10,13,15,18,20,21,24,27,32,138,,,1.7,0.8,1.3*09
2017-12-29 10:45:04 1514562304.343158: $GPZDA,154505.00,29,12,2017,00,00*6A
2017-12-29 10:45:04 1514562304.343325: $GPGGA,154505,3946.9608,N,08404.9816,W,2,10,0.80,300.83,M,-33.324,M,,*7B
2017-12-29 10:45:04 1514562304.343392: $GPRMC,154505,A,3946.9608,N,08404.9816,W,0.5287,2.716,291217,,*3A
2017-12-29 10:45:04 1514562304.343453: $GPGSA,A,3,10,13,15,18,20,21,24,27,32,138,,,1.7,0.8,1.3*09
2017-12-29 10:45:05 1514562305.677376: $GPGSV,3,1,11,10,31,291,42,13,20,045,42,15,51,049,49,18,62,313,44*7F
2017-12-29 10:45:05 1514562305.677539: $GPGSV,3,2,11,20,45,082,50,21,77,217,48,24,41,129,50,27,19,304,40*7D
2017-12-29 10:45:05 1514562305.677604: $GPGSV,3,3,11,32,10,229,22,29,02,187,01,138,38,213,45*76
2017-12-29 10:45:05 1514562305.790997: $GPZDA,154506.00,29,12,2017,00,00*69
2017-12-29 10:45:05 1514562305.791180: $GPGGA,154506,3946.9604,N,08404.9817,W,2,10,0.80,301.59,M,-33.324,M,,*73
2017-12-29 10:45:05 1514562305.791247: $GPRMC,154506,A,3946.9604,N,08404.9817,W,0.1867,0.000,291217,,*36
2017-12-29 10:45:05 1514562305.791307: $GPGSA,A,3,10,13,15,18,20,21,24,27,32,138,,,1.7,0.8,1.3*09
2017-12-29 10:45:06 1514562306.348166: $GPZDA,154507.00,29,12,2017,00,00*68
2017-12-29 10:45:06 1514562306.348332: $GPGGA,154507,3946.9604,N,08404.9817,W,2,10,0.80,301.59,M,-33.324,M,,*72
2017-12-29 10:45:06 1514562306.348399: $GPRMC,154507,A,3946.9604,N,08404.9817,W,0.0000,0.000,291217,,*3F
2017-12-29 10:45:06 1514562306.348461: $GPGSA,A,3,10,13,15,18,20,21,24,27,32,138,,,1.7,0.8,1.3*09
2017-12-29 10:45:07 1514562307.349027: $GPZDA,154508.00,29,12,2017,00,00*67
2017-12-29 10:45:07 1514562307.349193: $GPGGA,154508,3946.9604,N,08404.9817,W,2,10,0.80,301.59,M,-33.324,M,,*7D
2017-12-29 10:45:07 1514562307.349259: $GPRMC,154508,A,3946.9604,N,08404.9817,W,0.0000,0.000,291217,,*30
2017-12-29 10:45:07 1514562307.349321: $GPGSA,A,3,10,13,15,18,20,21,24,27,32,138,,,1.7,0.8,1.3*09
2017-12-29 10:45:08 1514562308.684470: $GPGSV,3,1,11,10,31,291,42,13,20,045,42,15,51,049,49,18,62,313,44*7F
2017-12-29 10:45:08 1514562308.684640: $GPGSV,3,2,11,20,45,082,50,21,77,217,48,24,41,129,50,27,19,304,39*73
2017-12-29 10:45:08 1514562308.684708: $GPGSV,3,3,11,32,10,229,22,29,02,187,01,138,38,213,45*76
2017-12-29 10:45:08 1514562308.798109: $GPZDA,154509.00,29,12,2017,00,00*66
2017-12-29 10:45:08 1514562308.798238: $GPGGA,154509,3946.9608,N,08404.9816,W,2,10,0.80,300.83,M,-33.324,M,,*77
2017-12-29 10:45:08 1514562308.798305: $GPRMC,154509,A,3946.9608,N,08404.9816,W,0.0000,0.000,291217,,*3C
2017-12-29 10:45:08 1514562308.798366: $GPGSA,A,3,10,13,15,18,20,21,24,27,32,138,,,1.7,0.8,1.3*09
