2017-12-29 11:08:17 1514563697.337872: {"class":"VERSION","release":"3.16","rev":"3.16-4","proto_major":3,"proto_minor":11}
2017-12-29 11:08:17 1514563697.338283: {"class":"DEVICES","devices":[{"class":"DEVICE","path":"/dev/ttyUSB0","driver":"SiRF","subtype":"9\u0006GSD4e_4.1.2-P1_RPATCH.05-F-GPS-4R-1510281 11/03/2015 307","activated":"2017-12-29T16:08:17.288Z","flags":1,"native":1,"bps":4800,"parity":"N","stopbits":1,"cycle":1.00}]}
2017-12-29 11:08:17 1514563697.338396: {"class":"WATCH","enable":true,"json":false,"nmea":true,"raw":0,"scaled":false,"timing":false,"split24":false,"pps":false}
2017-12-29 11:08:17 1514563697.402011: $GPZDA,160818.00,29,12,2017,00,00*6C
2017-12-29 11:08:17 1514563697.402171: $GPGGA,160818,3946.9576,N,08404.9833,W,2,11,1.20,312.61,M,-33.324,M,,*75
2017-12-29 11:08:17 1514563697.402236: $GPRMC,160818,A,3946.9576,N,08404.9833,W,0.0000,0.000,291217,,*3B
2017-12-29 11:08:17 1514563697.402296: $GPGSA,A,3,10,15,18,20,21,24,27,32,8,13,138,,1.7,1.2,1.3*3A
2017-12-29 11:08:18 1514563698.754963: $GPGSV,3,1,11,10,38,298,42,15,41,051,49,18,69,330,42,20,38,091,48*71
2017-12-29 11:08:18 1514563698.755149: $GPGSV,3,2,11,21,68,193,45,24,48,117,47,27,19,294,32,32,18,235,39*74
2017-12-29 11:08:18 1514563698.755216: $GPGSV,3,3,11,08,04,325,34,13,11,048,25,138,38,213,45*7F
2017-12-29 11:08:18 1514563698.868560: $GPZDA,160819.00,29,12,2017,00,00*6D
2017-12-29 11:08:18 1514563698.868675: $GPGGA,160819,3946.9576,N,08404.9833,W,2,11,1.20,312.61,M,-33.324,M,,*74
2017-12-29 11:08:18 1514563698.868739: $GPRMC,160819,A,3946.9576,N,08404.9833,W,0.0000,0.000,291217,,*3A
2017-12-29 11:08:18 1514563698.868799: $GPGSA,A,3,10,15,18,20,21,24,27,32,8,13,138,,1.7,1.2,1.3*3A
2017-12-29 11:08:19 1514563699.495266: $GPZDA,160820.00,29,12,2017,00,00*67
2017-12-29 11:08:19 1514563699.495421: $GPGGA,160820,3946.9576,N,08404.9833,W,2,11,1.20,312.61,M,-33.324,M,,*7E
2017-12-29 11:08:19 1514563699.495488: $GPRMC,160820,A,3946.9576,N,08404.9833,W,0.4844,93.794,291217,,*0C
2017-12-29 11:08:19 1514563699.495548: $GPGSA,A,3,10,15,18,20,21,24,27,32,8,13,138,,1.7,1.2,1.3*3A
2017-12-29 11:08:20 1514563700.419963: $GPZDA,160821.00,29,12,2017,00,00*66
2017-12-29 11:08:20 1514563700.420143: $GPGGA,160821,3946.9576,N,08404.9833,W,2,11,1.20,312.61,M,-33.324,M,,*7F
2017-12-29 11:08:20 1514563700.420209: $GPRMC,160821,A,3946.9576,N,08404.9833,W,0.0000,0.000,291217,,*31
2017-12-29 11:08:20 1514563700.420270: $GPGSA,A,3,10,15,18,20,21,24,27,32,8,13,138,,1.7,1.2,1.3*3A
2017-12-29 11:08:21 1514563701.755338: $GPGSV,3,1,11,10,38,298,42,15,41,051,49,18,69,330,42,20,38,091,48*71
2017-12-29 11:08:21 1514563701.755496: $GPGSV,3,2,11,21,68,193,45,24,48,117,47,27,19,294,32,32,18,235,39*74
2017-12-29 11:08:21 1514563701.755561: $GPGSV,3,3,11,08,04,325,34,13,11,048,25,138,38,213,44*7E
2017-12-29 11:08:21 1514563701.868936: $GPZDA,160822.00,29,12,2017,00,00*65
2017-12-29 11:08:21 1514563701.869075: $GPGGA,160822,3946.9572,N,08404.9833,W,2,11,1.20,313.37,M,-33.324,M,,*7A
2017-12-29 11:08:21 1514563701.869140: $GPRMC,160822,A,3946.9572,N,08404.9833,W,0.0000,0.000,291217,,*36
2017-12-29 11:08:21 1514563701.869201: $GPGSA,A,3,10,15,18,20,21,24,27,32,8,13,138,,1.7,1.2,1.3*3A
2017-12-29 11:08:22 1514563702.402383: $GPZDA,160823.00,29,12,2017,00,00*64
2017-12-29 11:08:22 1514563702.402541: $GPGGA,160823,3946.9572,N,08404.9833,W,2,11,1.20,313.37,M,-33.324,M,,*7B
2017-12-29 11:08:22 1514563702.402607: $GPRMC,160823,A,3946.9572,N,08404.9833,W,0.0000,0.000,291217,,*37
2017-12-29 11:08:22 1514563702.402667: $GPGSA,A,3,10,15,18,20,21,24,27,32,8,13,138,,1.7,1.2,1.3*3A
2017-12-29 11:08:23 1514563703.417987: $GPZDA,160824.00,29,12,2017,00,00*63
2017-12-29 11:08:23 1514563703.418181: $GPGGA,160824,3946.9572,N,08404.9833,W,2,11,1.20,313.37,M,-33.324,M,,*7C
2017-12-29 11:08:23 1514563703.418247: $GPRMC,160824,A,3946.9572,N,08404.9833,W,0.0000,0.000,291217,,*30
2017-12-29 11:08:23 1514563703.418306: $GPGSA,A,3,10,15,18,20,21,24,27,32,8,13,138,,1.7,1.2,1.3*3A
2017-12-29 11:08:24 1514563704.736962: $GPGSV,3,1,11,10,38,298,41,15,41,051,49,18,69,330,42,20,38,091,47*7D
2017-12-29 11:08:24 1514563704.737207: $GPGSV,3,2,11,21,68,193,45,24,48,117,47,27,19,294,33,32,18,235,39*75
2017-12-29 11:08:24 1514563704.737274: $GPGSV,3,3,11,08,04,325,35,13,11,048,25,138,38,213,46*7D
2017-12-29 11:08:24 1514563704.850546: $GPZDA,160825.00,29,12,2017,00,00*62
2017-12-29 11:08:24 1514563704.850665: $GPGGA,160825,3946.9572,N,08404.9833,W,2,11,1.20,313.37,M,-33.324,M,,*7D
2017-12-29 11:08:24 1514563704.850729: $GPRMC,160825,A,3946.9572,N,08404.9833,W,0.0000,0.000,291217,,*31
2017-12-29 11:08:24 1514563704.850790: $GPGSA,A,3,10,15,18,20,21,24,27,32,8,13,138,,1.7,1.2,1.3*3A
2017-12-29 11:08:25 1514563705.420179: $GPZDA,160826.00,29,12,2017,00,00*61
2017-12-29 11:08:25 1514563705.420341: $GPGGA,160826,3946.9572,N,08404.9833,W,2,11,1.20,313.37,M,-33.324,M,,*7E
2017-12-29 11:08:25 1514563705.420405: $GPRMC,160826,A,3946.9572,N,08404.9833,W,0.0000,0.000,291217,,*32
2017-12-29 11:08:25 1514563705.420466: $GPGSA,A,3,10,15,18,20,21,24,27,32,8,13,138,,1.7,1.2,1.3*3A
2017-12-29 11:08:26 1514563706.419953: $GPZDA,160827.00,29,12,2017,00,00*60
2017-12-29 11:08:26 1514563706.420139: $GPGGA,160827,3946.9572,N,08404.9833,W,2,11,1.20,313.37,M,-33.324,M,,*7F
2017-12-29 11:08:26 1514563706.420206: $GPRMC,160827,A,3946.9572,N,08404.9833,W,0.0000,0.000,291217,,*33
2017-12-29 11:08:26 1514563706.420268: $GPGSA,A,3,10,15,18,20,21,24,27,32,8,13,138,,1.7,1.2,1.3*3A
2017-12-29 11:08:27 1514563707.739080: $GPGSV,3,1,11,10,38,298,42,15,41,051,49,18,69,330,42,20,38,091,48*71
2017-12-29 11:08:27 1514563707.739256: $GPGSV,3,2,11,21,68,193,45,24,48,117,47,27,19,294,34,32,18,235,40*7C
2017-12-29 11:08:27 1514563707.739321: $GPGSV,3,3,11,08,04,325,35,13,11,048,24,138,38,213,45*7F
2017-12-29 11:08:27 1514563707.851204: $GPZDA,160828.00,29,12,2017,00,00*6F
2017-12-29 11:08:27 1514563707.851326: $GPGGA,160828,3946.9572,N,08404.9833,W,2,11,1.20,313.37,M,-33.324,M,,*70
2017-12-29 11:08:27 1514563707.851392: $GPRMC,160828,A,3946.9572,N,08404.9833,W,0.0000,0.000,291217,,*3C
2017-12-29 11:08:27 1514563707.851453: $GPGSA,A,3,10,15,18,20,21,24,27,32,8,13,138,,1.7,1.2,1.3*3A
2017-12-29 11:08:28 1514563708.412086: $GPZDA,160829.00,29,12,2017,00,00*6E
2017-12-29 11:08:28 1514563708.412250: $GPGGA,160829,3946.9577,N,08404.9833,W,2,11,1.20,314.01,M,-33.324,M,,*76
2017-12-29 11:08:28 1514563708.412317: $GPRMC,160829,A,3946.9577,N,08404.9833,W,0.0000,0.000,291217,,*38
2017-12-29 11:08:28 1514563708.412378: $GPGSA,A,3,10,15,18,20,21,24,27,32,8,13,138,,1.7,1.2,1.3*3A
2017-12-29 11:08:29 1514563709.403700: $GPZDA,160830.00,29,12,2017,00,00*66
2017-12-29 11:08:29 1514563709.403904: $GPGGA,160830,3946.9577,N,08404.9833,W,2,11,1.20,314.01,M,-33.324,M,,*7E
2017-12-29 11:08:29 1514563709.403974: $GPRMC,160830,A,3946.9577,N,08404.9833,W,0.0000,0.000,291217,,*30
2017-12-29 11:08:29 1514563709.404053: $GPGSA,A,3,10,15,18,20,21,24,27,32,8,13,138,,1.7,1.2,1.3*3A
2017-12-29 11:08:30 1514563710.738174: $GPGSV,3,1,11,10,38,298,42,15,41,051,49,18,69,330,42,20,38,091,48*71
2017-12-29 11:08:30 1514563710.738346: $GPGSV,3,2,11,21,68,193,45,24,48,117,47,27,19,294,35,32,18,235,39*73
2017-12-29 11:08:30 1514563710.738413: $GPGSV,3,3,11,08,04,325,35,13,11,048,24,138,38,213,45*7F
2017-12-29 11:08:30 1514563710.851832: $GPZDA,160831.00,29,12,2017,00,00*67
2017-12-29 11:08:30 1514563710.851980: $GPGGA,160831,3946.9577,N,08404.9833,W,2,11,1.20,314.01,M,-33.324,M,,*7F
2017-12-29 11:08:30 1514563710.852064: $GPRMC,160831,A,3946.9577,N,08404.9833,W,0.0000,0.000,291217,,*31
2017-12-29 11:08:30 1514563710.852124: $GPGSA,A,3,10,15,18,20,21,24,27,32,8,13,138,,1.7,1.2,1.3*3A
2017-12-29 11:08:31 1514563711.418691: $GPZDA,160832.00,29,12,2017,00,00*64
2017-12-29 11:08:31 1514563711.418882: $GPGGA,160832,3946.9577,N,08404.9833,W,2,11,1.20,314.01,M,-33.324,M,,*7C
2017-12-29 11:08:31 1514563711.418951: $GPRMC,160832,A,3946.9577,N,08404.9833,W,0.0000,0.000,291217,,*32
2017-12-29 11:08:31 1514563711.419033: $GPGSA,A,3,10,15,18,20,21,24,27,32,8,13,138,,1.7,1.2,1.3*3A
2017-12-29 11:08:32 1514563712.418326: $GPZDA,160833.00,29,12,2017,00,00*65
2017-12-29 11:08:32 1514563712.418554: $GPGGA,160833,3946.9573,N,08404.9834,W,2,11,1.20,314.78,M,-33.324,M,,*70
2017-12-29 11:08:32 1514563712.418626: $GPRMC,160833,A,3946.9573,N,08404.9834,W,0.4179,148.778,291217,,*3E
2017-12-29 11:08:32 1514563712.418688: $GPGSA,A,3,10,15,18,20,21,24,27,32,8,13,138,,1.7,1.2,1.3*3A
2017-12-29 11:08:33 1514563713.739062: $GPGSV,3,1,11,10,38,298,42,15,41,051,49,18,69,330,42,20,38,091,48*71
2017-12-29 11:08:33 1514563713.739224: $GPGSV,3,2,11,21,68,193,45,24,48,117,47,27,19,294,36,32,18,235,39*70
2017-12-29 11:08:33 1514563713.739290: $GPGSV,3,3,11,08,04,325,34,13,11,048,25,138,38,213,45*7F
2017-12-29 11:08:33 1514563713.851236: $GPZDA,160834.00,29,12,2017,00,00*62
2017-12-29 11:08:33 1514563713.851380: $GPGGA,160834,3946.9573,N,08404.9827,W,2,11,1.20,314.85,M,-33.324,M,,*77
2017-12-29 11:08:33 1514563713.851447: $GPRMC,160834,A,3946.9573,N,08404.9827,W,0.7621,107.944,291217,,*38
2017-12-29 11:08:33 1514563713.851508: $GPGSA,A,3,10,15,18,20,21,24,27,32,8,13,138,,1.7,1.2,1.3*3A
2017-12-29 11:08:34 1514563714.478110: $GPZDA,160835.00,29,12,2017,00,00*63
2017-12-29 11:08:34 1514563714.478274: $GPGGA,160835,3946.9569,N,08404.9828,W,2,11,1.20,315.62,M,-33.324,M,,*7A
2017-12-29 11:08:34 1514563714.478341: $GPRMC,160835,A,3946.9569,N,08404.9828,W,0.2422,93.794,291217,,*06
2017-12-29 11:08:34 1514563714.478401: $GPGSA,A,3,10,15,18,20,21,24,27,32,8,13,138,,1.7,1.2,1.3*3A
2017-12-29 11:08:35 1514563715.418931: $GPZDA,160836.00,29,12,2017,00,00*60
2017-12-29 11:08:35 1514563715.419112: $GPGGA,160836,3946.9569,N,08404.9821,W,2,11,1.20,315.70,M,-33.324,M,,*73
2017-12-29 11:08:35 1514563715.419178: $GPRMC,160836,A,3946.9569,N,08404.9821,W,0.1867,0.000,291217,,*32
2017-12-29 11:08:35 1514563715.419239: $GPGSA,A,3,10,15,18,20,21,24,27,32,8,13,138,,1.7,1.2,1.3*3A
2017-12-29 11:08:36 1514563716.737042: $GPGSV,3,1,11,10,38,298,42,15,41,051,49,18,69,330,42,20,38,091,48*71
2017-12-29 11:08:36 1514563716.737201: $GPGSV,3,2,11,21,68,193,46,24,48,117,47,27,19,294,37,32,18,235,38*73
2017-12-29 11:08:36 1514563716.737265: $GPGSV,3,3,11,08,04,325,34,13,11,048,24,138,38,213,45*7E
2017-12-29 11:08:36 1514563716.850677: $GPZDA,160837.00,29,12,2017,00,00*61
2017-12-29 11:08:36 1514563716.850815: $GPGGA,160837,3946.9574,N,08404.9828,W,2,11,1.20,316.26,M,-33.324,M,,*77
2017-12-29 11:08:36 1514563716.850903: $GPRMC,160837,A,3946.9574,N,08404.9828,W,0.0000,0.000,291217,,*3E
2017-12-29 11:08:36 1514563716.850980: $GPGSA,A,3,10,15,18,20,21,24,27,32,8,13,138,,1.7,1.2,1.3*3A
2017-12-29 11:08:37 1514563717.419898: $GPZDA,160838.00,29,12,2017,00,00*6E
2017-12-29 11:08:37 1514563717.420091: $GPGGA,160838,3946.9578,N,08404.9835,W,2,11,1.20,316.82,M,-33.324,M,,*76
2017-12-29 11:08:37 1514563717.420159: $GPRMC,160838,A,3946.9578,N,08404.9835,W,0.3423,184.197,291217,,*35
2017-12-29 11:08:37 1514563717.420220: $GPGSA,A,3,10,15,18,20,21,24,27,32,8,13,138,,1.7,1.2,1.3*3A
2017-12-29 11:08:38 1514563718.402061: $GPZDA,160839.00,29,12,2017,00,00*6F
2017-12-29 11:08:38 1514563718.402233: $GPGGA,160839,3946.9578,N,08404.9835,W,2,11,1.20,316.82,M,-33.324,M,,*77
2017-12-29 11:08:38 1514563718.402301: $GPRMC,160839,A,3946.9578,N,08404.9835,W,0.0000,0.000,291217,,*30
2017-12-29 11:08:38 1514563718.402362: $GPGSA,A,3,10,15,18,20,21,24,27,32,8,13,138,,1.7,1.2,1.3*3A
2017-12-29 11:08:39 1514563719.753611: $GPGSV,3,1,11,10,38,298,42,15,41,051,49,18,69,330,42,20,38,091,48*71
2017-12-29 11:08:39 1514563719.753789: $GPGSV,3,2,11,21,68,193,45,24,48,117,46,27,19,294,38,32,18,235,38*7E
2017-12-29 11:08:39 1514563719.753874: $GPGSV,3,3,11,08,04,325,34,13,11,048,25,138,38,213,44*7E
2017-12-29 11:08:39 1514563719.867314: $GPZDA,160840.00,29,12,2017,00,00*61
2017-12-29 11:08:39 1514563719.867455: $GPGGA,160840,3946.9578,N,08404.9835,W,2,11,1.20,316.82,M,-33.324,M,,*79
2017-12-29 11:08:39 1514563719.867520: $GPRMC,160840,A,3946.9578,N,08404.9835,W,0.0000,0.000,291217,,*3E
2017-12-29 11:08:39 1514563719.867580: $GPGSA,A,3,10,15,18,20,21,24,27,32,8,13,138,,1.7,1.2,1.3*3A
2017-12-29 11:08:40 1514563720.412006: $GPZDA,160841.00,29,12,2017,00,00*60
2017-12-29 11:08:40 1514563720.412221: $GPGGA,160841,3946.9578,N,08404.9835,W,2,11,1.20,316.82,M,-33.324,M,,*78
2017-12-29 11:08:40 1514563720.412290: $GPRMC,160841,A,3946.9578,N,08404.9835,W,0.0000,0.000,291217,,*3F
2017-12-29 11:08:40 1514563720.412350: $GPGSA,A,3,10,15,18,20,21,24,27,32,8,13,138,,1.7,1.2,1.3*3A
2017-12-29 11:08:41 1514563721.402827: $GPZDA,160842.00,29,12,2017,00,00*63
2017-12-29 11:08:41 1514563721.403009: $GPGGA,160842,3946.9578,N,08404.9835,W,2,11,1.20,316.82,M,-33.324,M,,*7B
2017-12-29 11:08:41 1514563721.403077: $GPRMC,160842,A,3946.9578,N,08404.9835,W,0.0000,0.000,291217,,*3C
2017-12-29 11:08:41 1514563721.403138: $GPGSA,A,3,10,15,18,20,21,24,27,32,8,13,138,,1.7,1.2,1.3*3A
