2017-12-31 18:41:41 1514763701.937812: {"class":"VERSION","release":"3.16","rev":"3.16-4","proto_major":3,"proto_minor":11}
2017-12-31 18:41:41 1514763701.938170: {"class":"DEVICES","devices":[{"class":"DEVICE","path":"/dev/ttyUSB0","driver":"SiRF","activated":"2017-12-31T23:41:41.493Z","flags":1,"native":1,"bps":4800,"parity":"N","stopbits":1,"cycle":1.00}]}
2017-12-31 18:41:41 1514763701.938271: {"class":"WATCH","enable":true,"json":false,"nmea":true,"raw":0,"scaled":false,"timing":false,"split24":false,"pps":false}
2017-12-31 18:41:42 1514763702.688659: $GPGSV,3,1,12,22,11,205,28,23,66,289,42,09,33,310,39,03,21,223,37*77
2017-12-31 18:41:42 1514763702.688821: $GPGSV,3,2,12,16,81,039,43,08,13,177,30,14,02,139,19,31,19,085,37*77
2017-12-31 18:41:42 1514763702.688886: $GPGSV,3,3,12,27,36,145,41,07,08,282,43,26,48,046,46,135,22,240,43*41
2017-12-31 18:41:42 1514763702.802039: $GPZDA,234143.00,31,12,2017,00,00*60
2017-12-31 18:41:42 1514763702.802208: $GPGGA,234143,3946.9581,N,08404.9836,W,2,12,0.80,306.79,M,-33.324,M,,*79
2017-12-31 18:41:42 1514763702.802274: $GPRMC,234143,A,3946.9581,N,08404.9836,W,0.0000,0.000,311217,,*3A
2017-12-31 18:41:42 1514763702.802335: $GPGSA,A,3,22,23,9,3,16,8,14,31,27,7,26,135,1.7,0.8,1.3*0C
2017-12-31 18:41:43 1514763703.355507: $GPZDA,234144.00,31,12,2017,00,00*67
2017-12-31 18:41:43 1514763703.355680: $GPGGA,234144,3946.9581,N,08404.9836,W,2,12,0.80,306.79,M,-33.324,M,,*7E
2017-12-31 18:41:43 1514763703.355748: $GPRMC,234144,A,3946.9581,N,08404.9836,W,0.0000,0.000,311217,,*3D
2017-12-31 18:41:43 1514763703.355809: $GPGSA,A,3,22,23,9,3,16,8,14,31,27,7,26,135,1.7,0.8,1.3*0C
2017-12-31 18:41:44 1514763704.345027: $GPZDA,234145.00,31,12,2017,00,00*66
2017-12-31 18:41:44 1514763704.345222: $GPGGA,234145,3946.9581,N,08404.9836,W,2,12,0.80,306.79,M,-33.324,M,,*7F
2017-12-31 18:41:44 1514763704.345294: $GPRMC,234145,A,3946.9581,N,08404.9836,W,0.0000,0.000,311217,,*3C
2017-12-31 18:41:44 1514763704.345357: $GPGSA,A,3,22,23,9,3,16,8,14,31,27,7,26,135,1.7,0.8,1.3*0C
2017-12-31 18:41:45 1514763705.688993: $GPGSV,3,1,12,22,11,205,28,23,66,289,41,09,33,310,39,03,21,223,37*74
2017-12-31 18:41:45 1514763705.689145: $GPGSV,3,2,12,16,81,039,43,08,13,177,30,14,02,139,19,31,19,085,37*77
2017-12-31 18:41:45 1514763705.689213: $GPGSV,3,3,12,27,36,145,41,07,08,282,43,26,48,046,46,135,22,240,44*46
2017-12-31 18:41:45 1514763705.802384: $GPZDA,234146.00,31,12,2017,00,00*65
2017-12-31 18:41:45 1514763705.802527: $GPGGA,234146,3946.9581,N,08404.9836,W,2,12,0.80,306.79,M,-33.324,M,,*7C
2017-12-31 18:41:45 1514763705.802595: $GPRMC,234146,A,3946.9581,N,08404.9836,W,0.0000,0.000,311217,,*3F
2017-12-31 18:41:45 1514763705.802657: $GPGSA,A,3,22,23,9,3,16,8,14,31,27,7,26,135,1.7,0.8,1.3*0C
2017-12-31 18:41:46 1514763706.353217: $GPZDA,234147.00,31,12,2017,00,00*64
2017-12-31 18:41:46 1514763706.353406: $GPGGA,234147,3946.9581,N,08404.9836,W,2,12,0.80,306.79,M,-33.324,M,,*7D
2017-12-31 18:41:46 1514763706.353475: $GPRMC,234147,A,3946.9581,N,08404.9836,W,0.0000,0.000,311217,,*3E
2017-12-31 18:41:46 1514763706.353540: $GPGSA,A,3,22,23,9,3,16,8,14,31,27,7,26,135,1.7,0.8,1.3*0C
2017-12-31 18:41:47 1514763707.387916: $GPZDA,234148.00,31,12,2017,00,00*6B
2017-12-31 18:41:47 1514763707.388085: $GPGGA,234148,3946.9581,N,08404.9836,W,2,12,0.80,306.79,M,-33.324,M,,*72
2017-12-31 18:41:47 1514763707.388153: $GPRMC,234148,A,3946.9581,N,08404.9836,W,0.0000,0.000,311217,,*31
2017-12-31 18:41:47 1514763707.388217: $GPGSA,A,3,22,23,9,3,16,8,14,31,27,7,26,135,1.7,0.8,1.3*0C
2017-12-31 18:41:48 1514763708.714847: $GPGSV,3,1,12,22,11,205,29,23,66,289,41,09,33,310,39,03,21,223,37*75
2017-12-31 18:41:48 1514763708.715021: $GPGSV,3,2,12,16,81,039,43,08,13,177,31,14,02,139,20,31,19,085,36*7D
2017-12-31 18:41:48 1514763708.715091: $GPGSV,3,3,12,27,36,145,41,07,08,282,43,26,48,046,46,135,22,240,45*47
2017-12-31 18:41:48 1514763708.828231: $GPZDA,234149.00,31,12,2017,00,00*6A
2017-12-31 18:41:48 1514763708.828354: $GPGGA,234149,3946.9581,N,08404.9836,W,2,12,0.80,306.79,M,-33.324,M,,*73
2017-12-31 18:41:48 1514763708.828421: $GPRMC,234149,A,3946.9581,N,08404.9836,W,0.0000,0.000,311217,,*30
2017-12-31 18:41:48 1514763708.828539: $GPGSA,A,3,22,23,9,3,16,8,14,31,27,7,26,135,1.7,0.8,1.3*0C
2017-12-31 18:41:49 1514763709.346567: $GPZDA,234150.00,31,12,2017,00,00*62
2017-12-31 18:41:49 1514763709.346732: $GPGGA,234150,3946.9581,N,08404.9836,W,2,12,0.80,306.79,M,-33.324,M,,*7B
2017-12-31 18:41:49 1514763709.346799: $GPRMC,234150,A,3946.9581,N,08404.9836,W,0.0000,0.000,311217,,*38
2017-12-31 18:41:49 1514763709.346860: $GPGSA,A,3,22,23,9,3,16,8,14,31,27,7,26,135,1.7,0.8,1.3*0C
2017-12-31 18:41:50 1514763710.380695: $GPZDA,234151.00,31,12,2017,00,00*63
2017-12-31 18:41:50 1514763710.380872: $GPGGA,234151,3946.9581,N,08404.9836,W,2,12,0.80,306.79,M,-33.324,M,,*7A
2017-12-31 18:41:50 1514763710.380940: $GPRMC,234151,A,3946.9581,N,08404.9836,W,0.0000,0.000,311217,,*39
2017-12-31 18:41:50 1514763710.381001: $GPGSA,A,3,22,23,9,3,16,8,14,31,27,7,26,135,1.7,0.8,1.3*0C
2017-12-31 18:41:51 1514763711.688950: $GPGSV,3,1,12,22,11,205,29,23,66,289,41,09,33,310,40,03,21,223,37*7B
2017-12-31 18:41:51 1514763711.689143: $GPGSV,3,2,12,16,81,039,43,08,13,177,31,14,02,139,20,31,19,085,36*7D
2017-12-31 18:41:51 1514763711.689210: $GPGSV,3,3,12,27,36,145,41,07,08,282,42,26,48,046,46,135,22,240,44*47
2017-12-31 18:41:51 1514763711.802256: $GPZDA,234152.00,31,12,2017,00,00*60
2017-12-31 18:41:51 1514763711.802385: $GPGGA,234152,3946.9581,N,08404.9836,W,2,12,0.80,306.79,M,-33.324,M,,*79
2017-12-31 18:41:51 1514763711.802452: $GPRMC,234152,A,3946.9581,N,08404.9836,W,0.0000,0.000,311217,,*3A
2017-12-31 18:41:51 1514763711.802511: $GPGSA,A,3,22,23,9,3,16,8,14,31,27,7,26,135,1.7,0.8,1.3*0C
