2017-11-15 17:36:19 1510785379.783813: {"class":"VERSION","release":"3.17","rev":"3.17","proto_major":3,"proto_minor":12}
2017-11-15 17:36:19 1510785379.784259: {"class":"DEVICES","devices":[{"class":"DEVICE","path":"/dev/ttyUSB0","driver":"SiRF","subtype":"9\u0006GSD4e_4.1.2-P1_RPATCH.05-F-GPS-4R-1510281 11/03/2015 307","activated":"2017-11-15T22:36:19.470Z","flags":1,"native":1,"bps":4800,"parity":"N","stopbits":1,"cycle":1.00}]}
2017-11-15 17:36:19 1510785379.784379: {"class":"WATCH","enable":true,"json":false,"nmea":true,"raw":0,"scaled":false,"timing":false,"split24":false,"pps":false}
2017-11-15 17:36:20 1510785380.330048: $GPZDA,223619.00,15,11,2017,00,00*6B
2017-11-15 17:36:20 1510785380.330217: $GPGGA,223619,3946.9566,N,08404.9502,W,1,09,1.20,299.15,M,-33.324,M,,*7B
2017-11-15 17:36:20 1510785380.330298: $GPRMC,223619,A,3946.9566,N,08404.9502,W,0.7621,287.945,151117,,*35
2017-11-15 17:36:20 1510785380.330356: $GPGSA,A,3,10,25,32,14,18,31,22,12,1,,,,3.4,1.2,2.9*06
2017-11-15 17:36:21 1510785381.666504: $GPGSV,3,1,12,10,49,148,20,25,39,091,26,32,69,025,20,14,66,327,24*74
2017-11-15 17:36:21 1510785381.666689: $GPGSV,3,2,12,18,19,144,06,26,01,183,15,31,54,225,15,22,18,312,17*7B
2017-11-15 17:36:21 1510785381.670950: $GPGSV,3,3,12,12,22,051,13,01,21,301,18,11,08,282,00,120,07,103,00*40
2017-11-15 17:36:21 1510785381.779838: $GPZDA,223620.00,15,11,2017,00,00*61
2017-11-15 17:36:21 1510785381.780005: $GPGGA,223620,3946.9566,N,08404.9502,W,1,08,1.20,299.15,M,-33.324,M,,*70
2017-11-15 17:36:21 1510785381.780070: $GPRMC,223620,A,3946.9566,N,08404.9502,W,0.4207,219.347,151117,,*33
2017-11-15 17:36:21 1510785381.780126: $GPGSA,A,3,10,25,32,14,31,22,12,1,,,,,3.4,1.2,2.9*0F
2017-11-15 17:36:22 1510785382.330729: $GPZDA,223621.00,15,11,2017,00,00*60
2017-11-15 17:36:22 1510785382.330907: $GPGGA,223621,3946.9566,N,08404.9502,W,1,08,1.20,299.15,M,-33.324,M,,*71
2017-11-15 17:36:22 1510785382.330968: $GPRMC,223621,A,3946.9566,N,08404.9502,W,0.4844,273.794,151117,,*39
2017-11-15 17:36:22 1510785382.331025: $GPGSA,A,3,10,25,32,14,31,22,12,1,,,,,3.4,1.2,2.9*0F
2017-11-15 17:36:23 1510785383.330323: $GPZDA,223622.00,15,11,2017,00,00*63
2017-11-15 17:36:23 1510785383.330489: $GPGGA,223622,3946.9566,N,08404.9509,W,1,08,1.20,299.07,M,-33.324,M,,*7A
2017-11-15 17:36:23 1510785383.330551: $GPRMC,223622,A,3946.9566,N,08404.9509,W,0.2422,273.794,151117,,*3B
2017-11-15 17:36:23 1510785383.330608: $GPGSA,A,3,10,25,32,14,31,22,12,1,,,,,3.4,1.2,2.9*0F
2017-11-15 17:36:24 1510785384.666132: $GPGSV,3,1,12,10,49,148,20,25,39,091,26,32,69,025,20,14,66,327,24*74
2017-11-15 17:36:24 1510785384.666299: $GPGSV,3,2,12,18,19,144,04,11,08,282,00,31,54,225,15,22,18,312,17*72
2017-11-15 17:36:24 1510785384.666359: $GPGSV,3,3,12,12,22,051,13,01,21,301,17,26,01,183,00,120,07,103,00*40
2017-11-15 17:36:24 1510785384.779394: $GPZDA,223623.00,15,11,2017,00,00*62
2017-11-15 17:36:24 1510785384.779550: $GPGGA,223623,3946.9566,N,08404.9509,W,1,08,1.20,299.07,M,-33.324,M,,*7B
2017-11-15 17:36:24 1510785384.779610: $GPRMC,223623,A,3946.9566,N,08404.9509,W,0.4179,148.778,151117,,*3E
2017-11-15 17:36:24 1510785384.779666: $GPGSA,A,3,10,25,32,14,31,22,12,1,,,,,3.4,1.2,2.9*0F
2017-11-15 17:36:25 1510785385.331939: $GPZDA,223624.00,15,11,2017,00,00*65
2017-11-15 17:36:25 1510785385.332090: $GPGGA,223624,3946.9563,N,08404.9510,W,1,08,1.20,299.84,M,-33.324,M,,*7A
2017-11-15 17:36:25 1510785385.332152: $GPRMC,223624,A,3946.9563,N,08404.9510,W,0.9060,167.792,151117,,*39
2017-11-15 17:36:25 1510785385.332207: $GPGSA,A,3,10,25,32,14,31,22,12,1,,,,,3.4,1.2,2.9*0F
2017-11-15 17:36:26 1510785386.331044: $GPZDA,223625.00,15,11,2017,00,00*64
2017-11-15 17:36:26 1510785386.331206: $GPGGA,223625,3946.9559,N,08404.9510,W,1,08,1.20,299.20,M,-33.324,M,,*7C
2017-11-15 17:36:26 1510785386.331267: $GPRMC,223625,A,3946.9559,N,08404.9510,W,1.3082,161.818,151117,,*3D
2017-11-15 17:36:26 1510785386.331323: $GPGSA,A,3,10,25,32,14,31,22,12,1,,,,,3.4,1.2,2.9*0F
2017-11-15 17:36:27 1510785387.665237: $GPGSV,3,1,12,10,49,148,20,25,39,091,26,32,69,025,20,14,66,327,24*74
2017-11-15 17:36:27 1510785387.665424: $GPGSV,3,2,12,18,19,144,04,26,01,183,09,31,54,225,16,22,18,312,17*77
2017-11-15 17:36:27 1510785387.665485: $GPGSV,3,3,12,12,22,051,12,01,21,301,17,11,08,282,00,133,44,201,00*4A
2017-11-15 17:36:27 1510785387.778516: $GPZDA,223626.00,15,11,2017,00,00*67
2017-11-15 17:36:27 1510785387.778682: $GPGGA,223626,3946.9555,N,08404.9510,W,1,08,1.20,299.96,M,-33.324,M,,*7E
2017-11-15 17:36:27 1510785387.778743: $GPRMC,223626,A,3946.9555,N,08404.9510,W,0.8709,183.298,151117,,*32
2017-11-15 17:36:27 1510785387.778802: $GPGSA,A,3,10,25,32,14,31,22,12,1,,,,,3.4,1.2,2.9*0F
2017-11-15 17:36:28 1510785388.351960: $GPZDA,223627.00,15,11,2017,00,00*66
2017-11-15 17:36:28 1510785388.352120: $GPGGA,223627,3946.9555,N,08404.9510,W,1,08,1.20,299.96,M,-33.324,M,,*7F
2017-11-15 17:36:28 1510785388.352181: $GPRMC,223627,A,3946.9555,N,08404.9510,W,0.9019,198.875,151117,,*37
2017-11-15 17:36:28 1510785388.352236: $GPGSA,A,3,10,25,32,14,31,22,12,1,,,,,3.4,1.2,2.9*0F
2017-11-15 17:36:29 1510785389.330315: $GPZDA,223628.00,15,11,2017,00,00*69
2017-11-15 17:36:29 1510785389.330483: $GPGGA,223628,3946.9552,N,08404.9518,W,1,08,1.20,300.65,M,-33.324,M,,*72
2017-11-15 17:36:29 1510785389.330544: $GPRMC,223628,A,3946.9552,N,08404.9518,W,1.1902,238.684,151117,,*34
2017-11-15 17:36:29 1510785389.330600: $GPGSA,A,3,10,25,32,14,31,22,12,1,,,,,3.4,1.2,2.9*0F
2017-11-15 17:36:30 1510785390.688579: $GPGSV,3,1,12,10,49,148,20,25,39,091,26,32,69,025,20,14,66,327,24*74
2017-11-15 17:36:30 1510785390.688761: $GPGSV,3,2,12,18,19,144,04,26,01,183,14,31,54,225,16,22,18,312,17*7B
2017-11-15 17:36:30 1510785390.688821: $GPGSV,3,3,12,12,22,051,04,01,21,301,17,11,08,282,00,133,44,201,00*4D
2017-11-15 17:36:30 1510785390.801873: $GPZDA,223629.00,15,11,2017,00,00*68
2017-11-15 17:36:30 1510785390.802000: $GPGGA,223629,3946.9549,N,08404.9525,W,1,07,1.20,299.93,M,-33.324,M,,*70
2017-11-15 17:36:30 1510785390.802060: $GPRMC,223629,A,3946.9549,N,08404.9525,W,1.8330,251.864,151117,,*3C
2017-11-15 17:36:30 1510785390.802136: $GPGSA,A,3,10,25,32,14,31,22,1,,,,,,3.4,1.2,2.9*0C
2017-11-15 17:36:31 1510785391.427705: $GPZDA,223630.00,15,11,2017,00,00*60
2017-11-15 17:36:31 1510785391.427868: $GPGGA,223630,3946.9549,N,08404.9532,W,1,07,1.20,299.85,M,-33.324,M,,*79
2017-11-15 17:36:31 1510785391.427946: $GPRMC,223630,A,3946.9549,N,08404.9532,W,1.4954,260.563,151117,,*3E
2017-11-15 17:36:31 1510785391.428003: $GPGSA,A,3,10,25,32,14,31,22,1,,,,,,3.4,1.2,2.9*0C
2017-11-15 17:36:32 1510785392.351897: $GPZDA,223631.00,15,11,2017,00,00*61
2017-11-15 17:36:32 1510785392.352056: $GPGGA,223631,3946.9546,N,08404.9540,W,1,07,1.20,300.53,M,-33.324,M,,*78
2017-11-15 17:36:32 1510785392.352117: $GPRMC,223631,A,3946.9546,N,08404.9540,W,1.2111,273.794,151117,,*32
2017-11-15 17:36:32 1510785392.352173: $GPGSA,A,3,10,25,32,14,31,22,1,,,,,,3.4,1.2,2.9*0C
2017-11-15 17:36:33 1510785393.690197: $GPGSV,3,1,12,10,49,148,21,25,39,091,25,32,69,025,20,14,66,327,24*76
2017-11-15 17:36:33 1510785393.690366: $GPGSV,3,2,12,18,19,144,00,11,08,282,00,31,54,225,16,22,18,312,16*74
2017-11-15 17:36:33 1510785393.690427: $GPGSV,3,3,12,12,22,051,11,01,21,301,17,26,01,183,00,133,44,201,00*46
2017-11-15 17:36:33 1510785393.803585: $GPZDA,223632.00,15,11,2017,00,00*62
2017-11-15 17:36:33 1510785393.803771: $GPGGA,223632,3946.9546,N,08404.9547,W,1,08,1.20,300.45,M,-33.324,M,,*74
2017-11-15 17:36:33 1510785393.803833: $GPRMC,223632,A,3946.9546,N,08404.9547,W,0.9689,273.794,151117,,*3A
2017-11-15 17:36:33 1510785393.803894: $GPGSA,A,3,10,25,32,14,31,22,12,1,,,,,3.4,1.2,2.9*0F
2017-11-15 17:36:34 1510785394.351886: $GPZDA,223633.00,15,11,2017,00,00*63
2017-11-15 17:36:34 1510785394.352053: $GPGGA,223633,3946.9547,N,08404.9554,W,1,08,1.20,300.37,M,-33.324,M,,*73
2017-11-15 17:36:34 1510785394.352115: $GPRMC,223633,A,3946.9547,N,08404.9554,W,1.2111,273.794,151117,,*34
2017-11-15 17:36:34 1510785394.352172: $GPGSA,A,3,10,25,32,14,31,22,12,1,,,,,3.4,1.2,2.9*0F
2017-11-15 17:36:35 1510785395.351495: $GPZDA,223634.00,15,11,2017,00,00*64
2017-11-15 17:36:35 1510785395.351672: $GPGGA,223634,3946.9547,N,08404.9561,W,1,08,1.20,300.29,M,-33.324,M,,*7D
2017-11-15 17:36:35 1510785395.351813: $GPRMC,223634,A,3946.9547,N,08404.9561,W,1.4775,281.039,151117,,*3A
2017-11-15 17:36:35 1510785395.351872: $GPGSA,A,3,10,25,32,14,31,22,12,1,,,,,3.4,1.2,2.9*0F
2017-11-15 17:36:36 1510785396.686829: $GPGSV,3,1,12,10,49,148,20,25,39,091,25,32,69,025,20,14,66,327,24*77
2017-11-15 17:36:36 1510785396.687002: $GPGSV,3,2,12,18,19,144,00,11,08,282,00,31,54,225,16,22,18,312,16*74
2017-11-15 17:36:36 1510785396.687063: $GPGSV,3,3,12,12,22,051,11,01,21,301,16,26,01,183,00,133,44,201,00*47
2017-11-15 17:36:36 1510785396.800118: $GPZDA,223635.00,15,11,2017,00,00*65
2017-11-15 17:36:36 1510785396.800265: $GPGGA,223635,3946.9547,N,08404.9568,W,1,08,1.20,300.22,M,-33.324,M,,*7E
2017-11-15 17:36:36 1510785396.800324: $GPRMC,223635,A,3946.9547,N,08404.9568,W,0.9689,273.794,151117,,*31
2017-11-15 17:36:36 1510785396.800380: $GPGSA,A,3,10,25,32,14,31,22,12,1,,,,,3.4,1.2,2.9*0F
2017-11-15 17:36:37 1510785397.329779: $GPZDA,223636.00,15,11,2017,00,00*66
2017-11-15 17:36:37 1510785397.331807: $GPGGA,223636,3946.9544,N,08404.9575,W,1,08,1.80,300.90,M,-33.324,M,,*71
2017-11-15 17:36:37 1510785397.331899: $GPRMC,223636,A,3946.9544,N,08404.9575,W,0.9689,273.794,151117,,*3D
2017-11-15 17:36:37 1510785397.331960: $GPGSA,A,3,10,25,32,14,31,22,12,1,,,,,3.4,1.8,2.9*05
2017-11-15 17:36:38 1510785398.351860: $GPZDA,223637.00,15,11,2017,00,00*67
2017-11-15 17:36:38 1510785398.352022: $GPGGA,223637,3946.9548,N,08404.9575,W,1,08,1.80,301.54,M,-33.324,M,,*75
2017-11-15 17:36:38 1510785398.352083: $GPRMC,223637,A,3946.9548,N,08404.9575,W,0.8011,299.090,151117,,*31
2017-11-15 17:36:38 1510785398.352139: $GPGSA,A,3,10,25,32,14,31,22,12,1,,,,,3.4,1.8,2.9*05
2017-11-15 17:36:39 1510785399.665153: $GPGSV,3,1,12,10,49,148,21,25,39,091,25,32,69,025,19,14,66,327,24*7C
2017-11-15 17:36:39 1510785399.665301: $GPGSV,3,2,12,31,54,225,00,18,19,144,00,11,08,282,00,22,18,312,17*72
2017-11-15 17:36:39 1510785399.665362: $GPGSV,3,3,12,12,22,051,11,01,21,301,16,26,01,183,00,133,44,201,00*47
2017-11-15 17:36:39 1510785399.777302: $GPZDA,223638.00,15,11,2017,00,00*68
2017-11-15 17:36:39 1510785399.777468: $GPGGA,223638,3946.9549,N,08404.9582,W,1,07,1.80,301.46,M,-33.324,M,,*7F
2017-11-15 17:36:39 1510785399.777531: $GPRMC,223638,A,3946.9549,N,08404.9582,W,0.8011,299.090,151117,,*37
2017-11-15 17:36:39 1510785399.777590: $GPGSA,A,3,10,25,32,14,22,12,1,,,,,,3.4,1.8,2.9*07
2017-11-15 17:36:40 1510785400.350621: $GPZDA,223639.00,15,11,2017,00,00*69
2017-11-15 17:36:40 1510785400.350788: $GPGGA,223639,3946.9549,N,08404.9582,W,1,07,1.80,301.46,M,-33.324,M,,*7E
2017-11-15 17:36:40 1510785400.350850: $GPRMC,223639,A,3946.9549,N,08404.9582,W,0.4207,219.347,151117,,*3E
2017-11-15 17:36:40 1510785400.350906: $GPGSA,A,3,10,25,32,14,22,12,1,,,,,,3.4,1.8,2.9*07
2017-11-15 17:36:41 1510785401.329780: $GPZDA,223640.00,15,11,2017,00,00*67
2017-11-15 17:36:41 1510785401.329947: $GPGGA,223640,3946.9541,N,08404.9583,W,1,07,1.80,301.59,M,-33.324,M,,*77
2017-11-15 17:36:41 1510785401.330007: $GPRMC,223640,A,3946.9541,N,08404.9583,W,0.8709,183.298,151117,,*3D
2017-11-15 17:36:41 1510785401.330064: $GPGSA,A,3,10,25,32,14,22,12,1,,,,,,3.4,1.8,2.9*07
2017-11-15 17:36:42 1510785402.686770: $GPGSV,3,1,12,10,49,148,21,25,39,091,25,32,69,025,19,14,66,327,24*7C
2017-11-15 17:36:42 1510785402.692449: $GPGSV,3,2,12,31,54,225,00,18,19,144,00,11,08,282,00,22,18,312,17*72
2017-11-15 17:36:42 1510785402.692540: $GPGSV,3,3,12,12,22,051,09,01,21,301,15,26,01,183,00,133,44,201,00*4D
2017-11-15 17:36:42 1510785402.800173: $GPZDA,223641.00,15,11,2017,00,00*66
2017-11-15 17:36:42 1510785402.800320: $GPGGA,223641,3946.9541,N,08404.9583,W,1,07,1.80,301.59,M,-33.324,M,,*76
2017-11-15 17:36:42 1510785402.800379: $GPRMC,223641,A,3946.9541,N,08404.9583,W,0.5857,158.291,151117,,*3A
2017-11-15 17:36:42 1510785402.800435: $GPGSA,A,3,10,25,32,14,22,12,1,,,,,,3.4,1.8,2.9*07
2017-11-15 17:36:43 1510785403.350996: $GPZDA,223642.00,15,11,2017,00,00*65
2017-11-15 17:36:43 1510785403.351149: $GPGGA,223642,3946.9541,N,08404.9583,W,1,07,1.80,301.59,M,-33.324,M,,*75
2017-11-15 17:36:43 1510785403.351257: $GPRMC,223642,A,3946.9541,N,08404.9583,W,0.5306,114.352,151117,,*30
2017-11-15 17:36:43 1510785403.351315: $GPGSA,A,3,10,25,32,14,22,12,1,,,,,,3.4,1.8,2.9*07
2017-11-15 17:36:44 1510785404.351892: $GPZDA,223643.00,15,11,2017,00,00*64
2017-11-15 17:36:44 1510785404.352041: $GPGGA,223643,3946.9533,N,08404.9584,W,1,07,1.80,301.71,M,-33.324,M,,*7C
2017-11-15 17:36:44 1510785404.352101: $GPRMC,223643,A,3946.9533,N,08404.9584,W,0.6846,184.197,151117,,*3D
2017-11-15 17:36:44 1510785404.352159: $GPGSA,A,3,10,25,32,14,22,12,1,,,,,,3.4,1.8,2.9*07
2017-11-15 17:36:45 1510785405.666376: $GPGSV,3,1,12,10,49,148,21,25,39,091,25,32,69,025,18,14,66,327,24*7D
2017-11-15 17:36:45 1510785405.666552: $GPGSV,3,2,12,31,54,225,18,18,19,144,00,11,08,282,00,22,18,312,17*7B
2017-11-15 17:36:45 1510785405.666615: $GPGSV,3,3,12,12,22,051,10,01,21,301,15,26,01,183,00,133,44,201,00*45
2017-11-15 17:36:45 1510785405.779768: $GPZDA,223644.00,15,11,2017,00,00*63
2017-11-15 17:36:45 1510785405.779937: $GPGGA,223644,3946.9534,N,08404.9591,W,1,07,1.80,301.63,M,-33.324,M,,*7B
2017-11-15 17:36:45 1510785405.780000: $GPRMC,223644,A,3946.9534,N,08404.9591,W,1.3044,205.352,151117,,*36
2017-11-15 17:36:45 1510785405.780060: $GPGSA,A,3,10,25,32,14,22,12,1,,,,,,3.4,1.8,2.9*07
2017-11-15 17:36:46 1510785406.405120: $GPZDA,223645.00,15,11,2017,00,00*62
2017-11-15 17:36:46 1510785406.405282: $GPGGA,223645,3946.9526,N,08404.9591,W,1,07,1.20,301.76,M,-33.324,M,,*77
2017-11-15 17:36:46 1510785406.405343: $GPRMC,223645,A,3946.9526,N,08404.9591,W,1.3044,205.352,151117,,*34
2017-11-15 17:36:46 1510785406.405399: $GPGSA,A,3,10,25,32,14,22,12,1,,,,,,3.4,1.2,2.9*0D
2017-11-15 17:36:47 1510785407.350988: $GPZDA,223646.00,15,11,2017,00,00*61
2017-11-15 17:36:47 1510785407.351150: $GPGGA,223646,3946.9527,N,08404.9598,W,1,07,1.20,301.68,M,-33.324,M,,*73
2017-11-15 17:36:47 1510785407.351211: $GPRMC,223646,A,3946.9527,N,08404.9598,W,0.8414,219.347,151117,,*3D
2017-11-15 17:36:47 1510785407.351267: $GPGSA,A,3,10,25,32,14,22,12,1,,,,,,3.4,1.2,2.9*0D
2017-11-15 17:36:48 1510785408.665474: $GPGSV,3,1,12,10,49,148,21,25,39,091,25,32,69,025,18,14,66,327,24*7D
2017-11-15 17:36:48 1510785408.665656: $GPGSV,3,2,12,31,54,225,17,18,19,144,00,11,08,282,00,22,18,312,17*74
2017-11-15 17:36:48 1510785408.665716: $GPGSV,3,3,12,12,22,051,10,01,21,301,15,26,01,183,00,133,44,201,00*45
2017-11-15 17:36:48 1510785408.778820: $GPZDA,223647.00,15,11,2017,00,00*60
2017-11-15 17:36:48 1510785408.778962: $GPGGA,223647,3946.9523,N,08404.9599,W,1,08,1.20,302.44,M,-33.324,M,,*75
2017-11-15 17:36:48 1510785408.779023: $GPRMC,223647,A,3946.9523,N,08404.9599,W,0.4207,219.347,151117,,*31
2017-11-15 17:36:48 1510785408.779079: $GPGSA,A,3,10,25,32,14,31,22,12,1,,,,,3.4,1.2,2.9*0F
2017-11-15 17:36:49 1510785409.352188: $GPZDA,223648.00,15,11,2017,00,00*6F
2017-11-15 17:36:49 1510785409.352356: $GPGGA,223648,3946.9519,N,08404.9599,W,1,08,1.20,301.80,M,-33.324,M,,*78
2017-11-15 17:36:49 1510785409.352420: $GPRMC,223648,A,3946.9519,N,08404.9599,W,0.7278,203.636,151117,,*34
2017-11-15 17:36:49 1510785409.352476: $GPGSA,A,3,10,25,32,14,31,22,12,1,,,,,3.4,1.2,2.9*0F
