2017-11-15 18:17:33 1510787853.885301: {"class":"VERSION","release":"3.17","rev":"3.17","proto_major":3,"proto_minor":12}
2017-11-15 18:17:33 1510787853.885919: {"class":"DEVICES","devices":[{"class":"DEVICE","path":"/dev/ttyUSB0","driver":"SiRF","subtype":"9\u0006GSD4e_4.1.2-P1_RPATCH.05-F-GPS-4R-1510281 11/03/2015 307","activated":"2017-11-15T23:17:33.846Z","flags":1,"native":1,"bps":4800,"parity":"N","stopbits":1,"cycle":1.00}]}
2017-11-15 18:17:33 1510787853.886043: {"class":"WATCH","enable":true,"json":false,"nmea":true,"raw":0,"scaled":false,"timing":false,"split24":false,"pps":false}
2017-11-15 18:17:34 1510787854.361161: $GPZDA,231733.00,15,11,2017,00,00*61
2017-11-15 18:17:34 1510787854.361339: $GPGGA,231733,3946.9754,N,08404.9671,W,1,05,5.00,302.65,M,-33.325,M,,*7A
2017-11-15 18:17:34 1510787854.361400: $GPRMC,231733,A,3946.9754,N,08404.9671,W,0.2422,273.794,151117,,*36
2017-11-15 18:17:34 1510787854.361455: $GPGSA,A,3,26,31,32,25,14,,,,,,,,3.4,5.0,2.9*3E
2017-11-15 18:17:35 1510787855.328484: $GPZDA,231734.00,15,11,2017,00,00*66
2017-11-15 18:17:35 1510787855.328662: $GPGGA,231734,3946.9751,N,08404.9672,W,1,05,5.00,303.42,M,-33.325,M,,*7F
2017-11-15 18:17:35 1510787855.328741: $GPRMC,231734,A,3946.9751,N,08404.9672,W,0.4207,219.347,151117,,*36
2017-11-15 18:17:35 1510787855.328799: $GPGSA,A,3,26,31,32,25,14,,,,,,,,3.4,5.0,2.9*3E
2017-11-15 18:17:36 1510787856.694798: $GPGSV,3,1,12,22,34,307,00,10,29,154,00,01,21,282,00,26,18,180,17*79
2017-11-15 18:17:36 1510787856.694966: $GPGSV,3,2,12,31,73,252,15,32,60,067,21,25,39,066,21,14,70,018,08*74
2017-11-15 18:17:36 1510787856.695027: $GPGSV,3,3,12,03,14,316,00,12,12,036,00,11,02,267,00,138,38,213,00*4D
2017-11-15 18:17:36 1510787856.808394: $GPZDA,231735.00,15,11,2017,00,00*67
2017-11-15 18:17:36 1510787856.808571: $GPGGA,231735,3946.9747,N,08404.9672,W,1,05,5.00,302.78,M,-33.325,M,,*71
2017-11-15 18:17:36 1510787856.808633: $GPRMC,231735,A,3946.9747,N,08404.9672,W,0.9060,167.792,151117,,*38
2017-11-15 18:17:36 1510787856.808705: $GPGSA,A,3,26,31,32,25,14,,,,,,,,3.4,5.0,2.9*3E
2017-11-15 18:17:37 1510787857.329320: $GPZDA,231736.00,15,11,2017,00,00*64
2017-11-15 18:17:37 1510787857.329661: $GPGGA,231736,3946.9739,N,08404.9672,W,1,05,5.80,302.90,M,-33.325,M,,*75
2017-11-15 18:17:37 1510787857.329783: $GPRMC,231736,A,3946.9739,N,08404.9672,W,0.5857,158.291,151117,,*38
2017-11-15 18:17:37 1510787857.329914: $GPGSA,A,3,26,31,32,25,14,,,,,,,,3.4,5.8,2.9*36
2017-11-15 18:17:38 1510787858.360468: $GPZDA,231737.00,15,11,2017,00,00*65
2017-11-15 18:17:38 1510787858.360765: $GPGGA,231737,3946.9739,N,08404.9672,W,1,05,5.60,302.90,M,-33.325,M,,*7A
2017-11-15 18:17:38 1510787858.360860: $GPRMC,231737,A,3946.9739,N,08404.9672,W,0.7621,107.945,151117,,*3C
2017-11-15 18:17:38 1510787858.360953: $GPGSA,A,3,26,31,32,25,14,,,,,,,,3.4,5.6,2.9*38
2017-11-15 18:17:39 1510787859.695631: $GPGSV,3,1,12,01,21,282,16,22,34,307,00,10,29,154,00,26,18,180,17*7E
2017-11-15 18:17:39 1510787859.695797: $GPGSV,3,2,12,31,73,252,14,32,60,067,20,25,39,066,21,14,70,018,09*75
2017-11-15 18:17:39 1510787859.695874: $GPGSV,3,3,12,03,14,316,00,12,12,036,00,11,02,267,00,135,23,238,00*43
2017-11-15 18:17:39 1510787859.809228: $GPZDA,231738.00,15,11,2017,00,00*6A
2017-11-15 18:17:39 1510787859.809388: $GPGGA,231738,3946.9739,N,08404.9665,W,1,05,5.00,302.98,M,-33.325,M,,*7D
2017-11-15 18:17:39 1510787859.809447: $GPRMC,231738,A,3946.9739,N,08404.9665,W,0.4844,93.794,151117,,*05
2017-11-15 18:17:39 1510787859.809503: $GPGSA,A,3,26,31,32,25,14,,,,,,,,3.4,5.0,2.9*3E
2017-11-15 18:17:40 1510787860.330003: $GPZDA,231739.00,15,11,2017,00,00*6B
2017-11-15 18:17:40 1510787860.330165: $GPGGA,231739,3946.9739,N,08404.9665,W,1,05,5.00,302.98,M,-33.325,M,,*7C
2017-11-15 18:17:40 1510787860.330227: $GPRMC,231739,A,3946.9739,N,08404.9665,W,0.4207,39.347,151117,,*03
2017-11-15 18:17:40 1510787860.330282: $GPGSA,A,3,26,31,32,25,14,,,,,,,,3.4,5.0,2.9*3E
2017-11-15 18:17:41 1510787861.329029: $GPZDA,231740.00,15,11,2017,00,00*65
2017-11-15 18:17:41 1510787861.329198: $GPGGA,231740,3946.9739,N,08404.9665,W,1,05,5.60,302.98,M,-33.325,M,,*74
2017-11-15 18:17:41 1510787861.329313: $GPRMC,231740,A,3946.9739,N,08404.9665,W,0.5951,58.684,151117,,*09
2017-11-15 18:17:41 1510787861.329372: $GPGSA,A,3,26,31,32,25,14,,,,,,,,3.4,5.6,2.9*38
2017-11-15 18:17:42 1510787862.696068: $GPGSV,3,1,12,22,34,307,00,10,29,154,00,01,21,282,00,26,18,180,17*79
2017-11-15 18:17:42 1510787862.696248: $GPGSV,3,2,12,31,73,252,16,32,60,067,20,25,39,066,21,14,70,018,07*79
2017-11-15 18:17:42 1510787862.696311: $GPGSV,3,3,12,03,14,316,00,12,12,036,00,11,02,267,00,135,23,238,00*43
2017-11-15 18:17:42 1510787862.809651: $GPZDA,231741.00,15,11,2017,00,00*64
2017-11-15 18:17:42 1510787862.809821: $GPGGA,231741,3946.9735,N,08404.9665,W,1,05,5.60,302.34,M,-33.325,M,,*7F
2017-11-15 18:17:42 1510787862.809885: $GPRMC,231741,A,3946.9735,N,08404.9665,W,0.4844,93.794,151117,,*07
2017-11-15 18:17:42 1510787862.809943: $GPGSA,A,3,26,31,32,25,14,,,,,,,,3.4,5.6,2.9*38
2017-11-15 18:17:43 1510787863.360674: $GPZDA,231742.00,15,11,2017,00,00*67
2017-11-15 18:17:43 1510787863.360838: $GPGGA,231742,3946.9731,N,08404.9659,W,1,05,5.60,303.18,M,-33.325,M,,*78
2017-11-15 18:17:43 1510787863.360901: $GPRMC,231742,A,3946.9731,N,08404.9659,W,0.7238,140.710,151117,,*3E
2017-11-15 18:17:43 1510787863.360961: $GPGSA,A,3,26,31,32,25,14,,,,,,,,3.4,5.6,2.9*38
2017-11-15 18:17:44 1510787864.359848: $GPZDA,231743.00,15,11,2017,00,00*66
2017-11-15 18:17:44 1510787864.360011: $GPGGA,231743,3946.9731,N,08404.9659,W,1,05,5.60,303.18,M,-33.325,M,,*79
2017-11-15 18:17:44 1510787864.360076: $GPRMC,231743,A,3946.9731,N,08404.9659,W,0.8011,119.090,151117,,*3A
2017-11-15 18:17:44 1510787864.360134: $GPGSA,A,3,26,31,32,25,14,,,,,,,,3.4,5.6,2.9*38
2017-11-15 18:17:45 1510787865.664434: $GPGSV,3,1,12,22,34,307,00,10,29,154,00,01,21,282,00,26,18,180,17*79
2017-11-15 18:17:45 1510787865.664600: $GPGSV,3,2,12,31,73,252,16,32,60,067,19,25,39,066,21,14,70,018,04*70
2017-11-15 18:17:45 1510787865.664680: $GPGSV,3,3,12,03,14,316,00,12,12,036,00,11,02,267,00,135,23,238,00*43
2017-11-15 18:17:45 1510787865.778175: $GPZDA,231744.00,15,11,2017,00,00*61
2017-11-15 18:17:45 1510787865.778335: $GPGGA,231744,3946.9727,N,08404.9659,W,1,04,5.60,302.55,M,-33.325,M,,*70
2017-11-15 18:17:45 1510787865.778398: $GPRMC,231744,A,3946.9727,N,08404.9659,W,0.5306,114.352,151117,,*32
2017-11-15 18:17:45 1510787865.778456: $GPGSA,A,3,26,31,32,25,,,,,,,,,3.4,5.6,2.9*3D
2017-11-15 18:17:46 1510787866.403585: $GPZDA,231745.00,15,11,2017,00,00*60
2017-11-15 18:17:46 1510787866.403780: $GPGGA,231745,3946.9723,N,08404.9660,W,1,04,5.60,303.31,M,-33.325,M,,*7C
2017-11-15 18:17:46 1510787866.403844: $GPRMC,231745,A,3946.9723,N,08404.9660,W,0.4179,148.778,151117,,*33
2017-11-15 18:17:46 1510787866.403903: $GPGSA,A,3,26,31,32,25,,,,,,,,,3.4,5.6,2.9*3D
2017-11-15 18:17:47 1510787867.329717: $GPZDA,231746.00,15,11,2017,00,00*63
2017-11-15 18:17:47 1510787867.329842: $GPGGA,231746,3946.9723,N,08404.9660,W,1,04,5.60,303.31,M,-33.325,M,,*7F
2017-11-15 18:17:47 1510787867.329905: $GPRMC,231746,A,3946.9723,N,08404.9660,W,0.4844,273.794,151117,,*3E
2017-11-15 18:17:47 1510787867.329964: $GPGSA,A,3,26,31,32,25,,,,,,,,,3.4,5.6,2.9*3D
2017-11-15 18:17:48 1510787868.667263: $GPGSV,3,1,12,10,29,154,10,22,34,307,11,01,21,282,00,26,18,180,17*78
2017-11-15 18:17:48 1510787868.667439: $GPGSV,3,2,12,31,73,252,17,32,60,067,18,25,39,066,21,14,70,018,04*70
2017-11-15 18:17:48 1510787868.667502: $GPGSV,3,3,12,03,14,316,00,12,12,036,00,11,02,267,00,135,23,238,00*43
2017-11-15 18:17:48 1510787868.780891: $GPZDA,231747.00,15,11,2017,00,00*62
2017-11-15 18:17:48 1510787868.781054: $GPGGA,231747,3946.9723,N,08404.9660,W,1,04,5.60,303.31,M,-33.325,M,,*7E
2017-11-15 18:17:48 1510787868.781117: $GPRMC,231747,A,3946.9723,N,08404.9660,W,0.5857,338.291,151117,,*32
2017-11-15 18:17:48 1510787868.781176: $GPGSA,A,3,26,31,32,25,,,,,,,,,3.4,5.6,2.9*3D
2017-11-15 18:17:49 1510787869.330500: $GPZDA,231748.00,15,11,2017,00,00*6D
2017-11-15 18:17:49 1510787869.330669: $GPGGA,231748,3946.9724,N,08404.9667,W,1,04,5.60,303.23,M,-33.325,M,,*72
2017-11-15 18:17:49 1510787869.330786: $GPRMC,231748,A,3946.9724,N,08404.9667,W,1.1391,323.662,151117,,*3B
2017-11-15 18:17:49 1510787869.330845: $GPGSA,A,3,26,31,32,25,,,,,,,,,3.4,5.6,2.9*3D
2017-11-15 18:17:50 1510787870.361461: $GPZDA,231749.00,15,11,2017,00,00*6C
2017-11-15 18:17:50 1510787870.361611: $GPGGA,231749,3946.9727,N,08404.9673,W,1,04,5.60,302.39,M,-33.325,M,,*7F
2017-11-15 18:17:50 1510787870.361671: $GPRMC,231749,A,3946.9727,N,08404.9673,W,1.8133,309.458,151117,,*3C
2017-11-15 18:17:50 1510787870.361727: $GPGSA,A,3,26,31,32,25,,,,,,,,,3.4,5.6,2.9*3D
2017-11-15 18:17:51 1510787871.697645: $GPGSV,3,1,12,10,29,154,10,22,34,307,13,01,21,282,11,26,18,180,17*7A
2017-11-15 18:17:51 1510787871.697793: $GPGSV,3,2,12,31,73,252,18,32,60,067,17,25,39,066,21,14,70,018,04*70
2017-11-15 18:17:51 1510787871.697852: $GPGSV,3,3,12,03,14,316,00,12,12,036,00,11,02,267,00,135,23,238,00*43
2017-11-15 18:17:51 1510787871.810968: $GPZDA,231750.00,15,11,2017,00,00*64
2017-11-15 18:17:51 1510787871.811136: $GPGGA,231750,3946.9731,N,08404.9673,W,1,07,1.20,303.03,M,-33.325,M,,*7B
2017-11-15 18:17:51 1510787871.811196: $GPRMC,231750,A,3946.9731,N,08404.9673,W,1.1124,302.165,151117,,*3C
2017-11-15 18:17:51 1510787871.811252: $GPGSA,A,3,10,22,1,26,31,32,25,,,,,,3.4,1.2,2.9*0D
2017-11-15 18:17:52 1510787872.330641: $GPZDA,231751.00,15,11,2017,00,00*65
2017-11-15 18:17:52 1510787872.330810: $GPGGA,231751,3946.9731,N,08404.9673,W,1,07,1.20,303.03,M,-33.325,M,,*7A
2017-11-15 18:17:52 1510787872.330872: $GPRMC,231751,A,3946.9731,N,08404.9673,W,0.7246,344.668,151117,,*35
2017-11-15 18:17:52 1510787872.330928: $GPGSA,A,3,10,22,1,26,31,32,25,,,,,,3.4,1.2,2.9*0D
2017-11-15 18:17:53 1510787873.330201: $GPZDA,231752.00,15,11,2017,00,00*66
2017-11-15 18:17:53 1510787873.330365: $GPGGA,231752,3946.9731,N,08404.9673,W,1,07,1.20,303.03,M,-33.325,M,,*79
2017-11-15 18:17:53 1510787873.330425: $GPRMC,231752,A,3946.9731,N,08404.9673,W,0.7103,45.706,151117,,*0F
2017-11-15 18:17:53 1510787873.330499: $GPGSA,A,3,10,22,1,26,31,32,25,,,,,,3.4,1.2,2.9*0D
2017-11-15 18:17:54 1510787874.666028: $GPGSV,3,1,12,10,29,154,11,22,34,307,11,01,21,282,14,26,18,180,17*7C
2017-11-15 18:17:54 1510787874.666201: $GPGSV,3,2,12,31,73,252,19,32,60,067,16,25,39,066,21,14,70,018,04*70
2017-11-15 18:17:54 1510787874.666260: $GPGSV,3,3,12,03,14,316,00,12,12,036,00,11,02,267,00,135,23,238,00*43
2017-11-15 18:17:54 1510787874.779691: $GPZDA,231753.00,15,11,2017,00,00*67
2017-11-15 18:17:54 1510787874.779839: $GPGGA,231753,3946.9724,N,08404.9667,W,1,07,1.20,303.23,M,-33.325,M,,*7B
2017-11-15 18:17:54 1510787874.779899: $GPRMC,231753,A,3946.9724,N,08404.9667,W,0.5951,58.684,151117,,*05
2017-11-15 18:17:54 1510787874.779955: $GPGSA,A,3,10,22,1,26,31,32,25,,,,,,3.4,1.2,2.9*0D
2017-11-15 18:17:55 1510787875.329076: $GPZDA,231754.00,15,11,2017,00,00*60
2017-11-15 18:17:55 1510787875.329250: $GPGGA,231754,3946.9724,N,08404.9667,W,1,07,1.20,303.23,M,-33.325,M,,*7C
2017-11-15 18:17:55 1510787875.329312: $GPRMC,231754,A,3946.9724,N,08404.9667,W,1.0298,74.381,151117,,*06
2017-11-15 18:17:55 1510787875.329367: $GPGSA,A,3,10,22,1,26,31,32,25,,,,,,3.4,1.2,2.9*0D
2017-11-15 18:17:56 1510787876.360940: $GPZDA,231755.00,15,11,2017,00,00*61
2017-11-15 18:17:56 1510787876.361099: $GPGGA,231755,3946.9723,N,08404.9660,W,1,07,1.20,303.31,M,-33.325,M,,*7E
2017-11-15 18:17:56 1510787876.361160: $GPRMC,231755,A,3946.9723,N,08404.9660,W,0.8054,68.645,151117,,*0C
2017-11-15 18:17:56 1510787876.361216: $GPGSA,A,3,10,22,1,26,31,32,25,,,,,,3.4,1.2,2.9*0D
2017-11-15 18:17:57 1510787877.665129: $GPGSV,3,1,12,10,29,154,12,22,34,307,12,01,21,282,14,26,18,180,18*73
2017-11-15 18:17:57 1510787877.665305: $GPGSV,3,2,12,31,73,252,19,32,60,067,16,25,39,066,21,14,70,018,00*74
2017-11-15 18:17:57 1510787877.665368: $GPGSV,3,3,12,03,14,316,00,12,12,036,00,11,02,267,00,135,23,238,00*43
2017-11-15 18:17:57 1510787877.778448: $GPZDA,231756.00,15,11,2017,00,00*62
2017-11-15 18:17:57 1510787877.778593: $GPGGA,231756,3946.9723,N,08404.9660,W,1,07,1.20,303.31,M,-33.325,M,,*7D
2017-11-15 18:17:57 1510787877.778708: $GPRMC,231756,A,3946.9723,N,08404.9660,W,0.5951,58.684,151117,,*00
2017-11-15 18:17:57 1510787877.778766: $GPGSA,A,3,10,22,1,26,31,32,25,,,,,,3.4,1.2,2.9*0D
2017-11-15 18:17:58 1510787878.359603: $GPZDA,231757.00,15,11,2017,00,00*63
2017-11-15 18:17:58 1510787878.359765: $GPGGA,231757,3946.9719,N,08404.9653,W,1,07,1.20,302.75,M,-33.325,M,,*74
2017-11-15 18:17:58 1510787878.359825: $GPRMC,231757,A,3946.9719,N,08404.9653,W,0.3155,309.994,151117,,*3B
2017-11-15 18:17:58 1510787878.359880: $GPGSA,A,3,10,22,1,26,31,32,25,,,,,,3.4,1.2,2.9*0D
2017-11-15 18:17:59 1510787879.329405: $GPZDA,231758.00,15,11,2017,00,00*6C
2017-11-15 18:17:59 1510787879.329584: $GPGGA,231758,3946.9719,N,08404.9653,W,1,07,1.20,302.75,M,-33.325,M,,*7B
2017-11-15 18:17:59 1510787879.329646: $GPRMC,231758,A,3946.9719,N,08404.9653,W,0.3423,4.197,151117,,*35
2017-11-15 18:17:59 1510787879.329701: $GPGSA,A,3,10,22,1,26,31,32,25,,,,,,3.4,1.2,2.9*0D
2017-11-15 18:18:00 1510787880.695975: $GPGSV,3,1,12,10,29,154,12,22,34,307,11,01,21,282,14,26,18,180,18*70
2017-11-15 18:18:00 1510787880.696159: $GPGSV,3,2,12,31,73,252,20,32,60,067,04,25,39,066,21,14,70,018,00*7D
2017-11-15 18:18:00 1510787880.696220: $GPGSV,3,3,12,03,14,316,00,12,12,036,00,11,02,267,00,135,23,238,00*43
2017-11-15 18:18:00 1510787880.809498: $GPZDA,231759.00,15,11,2017,00,00*6D
2017-11-15 18:18:00 1510787880.809695: $GPGGA,231759,3946.9715,N,08404.9654,W,1,06,1.20,303.51,M,-33.325,M,,*77
2017-11-15 18:18:00 1510787880.809756: $GPRMC,231759,A,3946.9715,N,08404.9654,W,0.5951,238.684,151117,,*39
2017-11-15 18:18:00 1510787880.809813: $GPGSA,A,3,10,22,1,26,31,25,,,,,,,3.4,1.2,2.9*0C
2017-11-15 18:18:01 1510787881.435035: $GPZDA,231800.00,15,11,2017,00,00*6E
2017-11-15 18:18:01 1510787881.435197: $GPGGA,231800,3946.9711,N,08404.9654,W,1,06,1.20,302.87,M,-33.325,M,,*7A
2017-11-15 18:18:01 1510787881.435257: $GPRMC,231800,A,3946.9711,N,08404.9654,W,0.1867,180.000,151117,,*34
2017-11-15 18:18:01 1510787881.435314: $GPGSA,A,3,10,22,1,26,31,25,,,,,,,3.4,1.2,2.9*0C
2017-11-15 18:18:02 1510787882.329570: $GPZDA,231801.00,15,11,2017,00,00*6F
2017-11-15 18:18:02 1510787882.329731: $GPGGA,231801,3946.9708,N,08404.9654,W,1,06,1.20,303.64,M,-33.324,M,,*7E
2017-11-15 18:18:02 1510787882.329791: $GPRMC,231801,A,3946.9708,N,08404.9654,W,0.5951,238.684,151117,,*37
2017-11-15 18:18:02 1510787882.329847: $GPGSA,A,3,10,22,1,26,31,25,,,,,,,3.4,1.2,2.9*0C
2017-11-15 18:18:03 1510787883.665060: $GPGSV,3,1,12,10,29,154,13,22,34,307,10,14,70,018,00,26,18,180,18*74
2017-11-15 18:18:03 1510787883.665241: $GPGSV,3,2,12,31,73,252,19,32,60,067,05,25,39,066,21,01,21,282,00*77
2017-11-15 18:18:03 1510787883.665301: $GPGSV,3,3,12,03,14,316,00,12,12,036,00,11,02,267,00,135,23,238,00*43
2017-11-15 18:18:03 1510787883.778410: $GPZDA,231802.00,15,11,2017,00,00*6C
2017-11-15 18:18:03 1510787883.778554: $GPGGA,231802,3946.9703,N,08404.9647,W,1,05,1.20,303.08,M,-33.324,M,,*7D
2017-11-15 18:18:03 1510787883.778612: $GPRMC,231802,A,3946.9703,N,08404.9647,W,0.2959,234.768,151117,,*3D
2017-11-15 18:18:03 1510787883.778667: $GPGSA,A,3,10,22,26,31,25,,,,,,,,3.4,1.2,2.9*3D
