2017-11-16 13:28:25 1510856905.507689: {"class":"VERSION","release":"3.17","rev":"3.17","proto_major":3,"proto_minor":12}
2017-11-16 13:28:25 1510856905.508147: {"class":"DEVICES","devices":[{"class":"DEVICE","path":"/dev/ttyUSB0","driver":"SiRF","subtype":"9\u0006GSD4e_4.1.2-P1_RPATCH.05-F-GPS-4R-1510281 11/03/2015 307","activated":"2017-11-16T18:28:25.484Z","flags":1,"native":1,"bps":4800,"parity":"N","stopbits":1,"cycle":1.00}]}
2017-11-16 13:28:25 1510856905.508259: {"class":"WATCH","enable":true,"json":false,"nmea":true,"raw":0,"scaled":false,"timing":false,"split24":false,"pps":false}
2017-11-16 13:28:26 1510856906.268317: $GPZDA,182825.00,16,11,2017,00,00*61
2017-11-16 13:28:26 1510856906.268494: $GPGGA,182825,3946.9611,N,08404.9845,W,2,12,0.80,303.32,M,-33.324,M,,*7A
2017-11-16 13:28:26 1510856906.268555: $GPRMC,182825,A,3946.9611,N,08404.9845,W,0.0000,0.000,161117,,*35
2017-11-16 13:28:26 1510856906.268612: $GPGSA,A,3,10,13,15,18,20,21,24,27,29,5,32,138,1.6,0.8,1.3*36
2017-11-16 13:28:27 1510856907.604013: $GPGSV,3,1,12,10,26,286,44,13,26,045,45,15,57,049,50,18,57,304,46*77
2017-11-16 13:28:27 1510856907.604220: $GPGSV,3,2,12,20,48,076,48,21,79,252,46,24,36,135,42,27,17,309,38*72
2017-11-16 13:28:27 1510856907.604282: $GPGSV,3,3,12,29,06,187,26,05,02,090,23,32,04,226,28,138,38,213,46*48
2017-11-16 13:28:27 1510856907.717360: $GPZDA,182826.00,16,11,2017,00,00*62
2017-11-16 13:28:27 1510856907.717525: $GPGGA,182826,3946.9611,N,08404.9845,W,2,12,0.80,303.32,M,-33.324,M,,*79
2017-11-16 13:28:27 1510856907.717586: $GPRMC,182826,A,3946.9611,N,08404.9845,W,0.0000,0.000,161117,,*36
2017-11-16 13:28:27 1510856907.717642: $GPGSA,A,3,10,13,15,18,20,21,24,27,29,5,32,138,1.6,0.8,1.3*36
2017-11-16 13:28:28 1510856908.286942: $GPZDA,182827.00,16,11,2017,00,00*63
2017-11-16 13:28:28 1510856908.287105: $GPGGA,182827,3946.9611,N,08404.9845,W,2,12,0.80,303.32,M,-33.324,M,,*78
2017-11-16 13:28:28 1510856908.287186: $GPRMC,182827,A,3946.9611,N,08404.9845,W,0.0000,0.000,161117,,*37
2017-11-16 13:28:28 1510856908.287244: $GPGSA,A,3,10,13,15,18,20,21,24,27,29,5,32,138,1.6,0.8,1.3*36
2017-11-16 13:28:29 1510856909.287771: $GPZDA,182828.00,16,11,2017,00,00*6C
2017-11-16 13:28:29 1510856909.287932: $GPGGA,182828,3946.9611,N,08404.9845,W,2,12,0.80,303.32,M,-33.324,M,,*77
2017-11-16 13:28:29 1510856909.287993: $GPRMC,182828,A,3946.9611,N,08404.9845,W,0.0000,0.000,161117,,*38
2017-11-16 13:28:29 1510856909.288049: $GPGSA,A,3,10,13,15,18,20,21,24,27,29,5,32,138,1.6,0.8,1.3*36
2017-11-16 13:28:30 1510856910.618100: $GPGSV,3,1,12,10,26,286,45,13,26,045,45,15,57,049,49,18,57,304,46*7E
2017-11-16 13:28:30 1510856910.618320: $GPGSV,3,2,12,20,48,076,48,21,79,252,46,24,36,135,42,27,17,309,37*7D
2017-11-16 13:28:30 1510856910.618383: $GPGSV,3,3,12,29,06,187,25,05,02,090,23,32,04,226,28,138,38,213,45*48
2017-11-16 13:28:30 1510856910.732287: $GPZDA,182829.00,16,11,2017,00,00*6D
2017-11-16 13:28:30 1510856910.732446: $GPGGA,182829,3946.9611,N,08404.9845,W,2,12,0.80,303.32,M,-33.324,M,,*76
2017-11-16 13:28:30 1510856910.732508: $GPRMC,182829,A,3946.9611,N,08404.9845,W,0.0000,0.000,161117,,*39
2017-11-16 13:28:30 1510856910.732631: $GPGSA,A,3,10,13,15,18,20,21,24,27,29,5,32,138,1.6,0.8,1.3*36
2017-11-16 13:28:31 1510856911.269814: $GPZDA,182830.00,16,11,2017,00,00*65
2017-11-16 13:28:31 1510856911.270032: $GPGGA,182830,3946.9611,N,08404.9845,W,2,12,0.80,303.32,M,-33.324,M,,*7E
2017-11-16 13:28:31 1510856911.270154: $GPRMC,182830,A,3946.9611,N,08404.9845,W,0.0000,0.000,161117,,*31
2017-11-16 13:28:31 1510856911.270225: $GPGSA,A,3,10,13,15,18,20,21,24,27,29,5,32,138,1.6,0.8,1.3*36
2017-11-16 13:28:32 1510856912.261739: $GPZDA,182831.00,16,11,2017,00,00*64
2017-11-16 13:28:32 1510856912.261900: $GPGGA,182831,3946.9611,N,08404.9845,W,2,12,0.80,303.32,M,-33.324,M,,*7F
2017-11-16 13:28:32 1510856912.261979: $GPRMC,182831,A,3946.9611,N,08404.9845,W,0.0000,0.000,161117,,*30
2017-11-16 13:28:32 1510856912.262037: $GPGSA,A,3,10,13,15,18,20,21,24,27,29,5,32,138,1.6,0.8,1.3*36
2017-11-16 13:28:33 1510856913.623732: $GPGSV,3,1,12,10,26,286,45,13,26,045,45,15,57,049,50,18,57,304,46*76
2017-11-16 13:28:33 1510856913.623983: $GPGSV,3,2,12,20,48,076,48,21,79,252,46,24,36,135,42,27,17,309,37*7D
2017-11-16 13:28:33 1510856913.624065: $GPGSV,3,3,12,29,06,187,26,05,02,090,23,32,04,226,29,138,38,213,44*4B
2017-11-16 13:28:33 1510856913.737061: $GPZDA,182832.00,16,11,2017,00,00*67
2017-11-16 13:28:33 1510856913.737227: $GPGGA,182832,3946.9611,N,08404.9845,W,2,12,0.80,303.32,M,-33.324,M,,*7C
2017-11-16 13:28:33 1510856913.737288: $GPRMC,182832,A,3946.9611,N,08404.9845,W,0.0000,0.000,161117,,*33
2017-11-16 13:28:33 1510856913.737344: $GPGSA,A,3,10,13,15,18,20,21,24,27,29,5,32,138,1.6,0.8,1.3*36
2017-11-16 13:28:34 1510856914.269454: $GPZDA,182833.00,16,11,2017,00,00*66
2017-11-16 13:28:34 1510856914.269624: $GPGGA,182833,3946.9611,N,08404.9845,W,2,12,0.80,303.32,M,-33.324,M,,*7D
2017-11-16 13:28:34 1510856914.269685: $GPRMC,182833,A,3946.9611,N,08404.9845,W,0.0000,0.000,161117,,*32
2017-11-16 13:28:34 1510856914.269741: $GPGSA,A,3,10,13,15,18,20,21,24,27,29,5,32,138,1.6,0.8,1.3*36
2017-11-16 13:28:35 1510856915.268228: $GPZDA,182834.00,16,11,2017,00,00*61
2017-11-16 13:28:35 1510856915.268386: $GPGGA,182834,3946.9611,N,08404.9845,W,2,12,0.80,303.32,M,-33.324,M,,*7A
2017-11-16 13:28:35 1510856915.268446: $GPRMC,182834,A,3946.9611,N,08404.9845,W,0.0000,0.000,161117,,*35
2017-11-16 13:28:35 1510856915.268502: $GPGSA,A,3,10,13,15,18,20,21,24,27,29,5,32,138,1.6,0.8,1.3*36
2017-11-16 13:28:36 1510856916.617826: $GPGSV,3,1,12,10,26,286,44,13,26,045,45,15,57,049,50,18,57,304,46*77
2017-11-16 13:28:36 1510856916.618020: $GPGSV,3,2,12,20,48,076,48,21,79,252,46,24,36,135,42,27,17,309,37*7D
2017-11-16 13:28:36 1510856916.618081: $GPGSV,3,3,12,29,06,187,25,05,02,090,24,32,04,226,29,138,38,213,44*4F
2017-11-16 13:28:36 1510856916.731566: $GPZDA,182835.00,16,11,2017,00,00*60
2017-11-16 13:28:36 1510856916.731700: $GPGGA,182835,3946.9611,N,08404.9845,W,2,12,0.80,303.32,M,-33.324,M,,*7B
2017-11-16 13:28:36 1510856916.731782: $GPRMC,182835,A,3946.9611,N,08404.9845,W,0.0000,0.000,161117,,*34
2017-11-16 13:28:36 1510856916.731840: $GPGSA,A,3,10,13,15,18,20,21,24,27,29,5,32,138,1.6,0.8,1.3*36
2017-11-16 13:28:37 1510856917.269642: $GPZDA,182836.00,16,11,2017,00,00*63
2017-11-16 13:28:37 1510856917.269884: $GPGGA,182836,3946.9611,N,08404.9845,W,2,12,0.80,303.32,M,-33.324,M,,*78
2017-11-16 13:28:37 1510856917.269952: $GPRMC,182836,A,3946.9611,N,08404.9845,W,0.0000,0.000,161117,,*37
2017-11-16 13:28:37 1510856917.270009: $GPGSA,A,3,10,13,15,18,20,21,24,27,29,5,32,138,1.6,0.8,1.3*36
2017-11-16 13:28:38 1510856918.268993: $GPZDA,182837.00,16,11,2017,00,00*62
2017-11-16 13:28:38 1510856918.269168: $GPGGA,182837,3946.9611,N,08404.9845,W,2,12,0.80,303.32,M,-33.324,M,,*79
2017-11-16 13:28:38 1510856918.269229: $GPRMC,182837,A,3946.9611,N,08404.9845,W,0.0000,0.000,161117,,*36
2017-11-16 13:28:38 1510856918.269285: $GPGSA,A,3,10,13,15,18,20,21,24,27,29,5,32,138,1.6,0.8,1.3*36
2017-11-16 13:28:39 1510856919.603459: $GPGSV,3,1,12,10,26,286,43,13,26,045,45,15,57,049,50,18,57,304,46*70
2017-11-16 13:28:39 1510856919.603619: $GPGSV,3,2,12,20,48,076,48,21,79,252,46,24,36,135,43,27,17,309,38*73
2017-11-16 13:28:39 1510856919.603681: $GPGSV,3,3,12,29,06,187,24,05,02,090,24,32,04,226,29,138,38,213,45*4F
2017-11-16 13:28:39 1510856919.716782: $GPZDA,182838.00,16,11,2017,00,00*6D
2017-11-16 13:28:39 1510856919.716949: $GPGGA,182838,3946.9611,N,08404.9845,W,2,12,0.80,303.32,M,-33.324,M,,*76
2017-11-16 13:28:39 1510856919.717009: $GPRMC,182838,A,3946.9611,N,08404.9845,W,0.0000,0.000,161117,,*39
2017-11-16 13:28:39 1510856919.717066: $GPGSA,A,3,10,13,15,18,20,21,24,27,29,5,32,138,1.6,0.8,1.3*36
2017-11-16 13:28:40 1510856920.343486: $GPZDA,182839.00,16,11,2017,00,00*6C
2017-11-16 13:28:40 1510856920.343663: $GPGGA,182839,3946.9611,N,08404.9845,W,2,12,0.80,303.32,M,-33.324,M,,*77
2017-11-16 13:28:40 1510856920.343740: $GPRMC,182839,A,3946.9611,N,08404.9845,W,0.0000,0.000,161117,,*38
2017-11-16 13:28:40 1510856920.343798: $GPGSA,A,3,10,13,15,18,20,21,24,27,29,5,32,138,1.6,0.8,1.3*36
