2017-12-01 18:28:45 1512170925.096594: {"class":"VERSION","release":"3.16","rev":"3.16-4","proto_major":3,"proto_minor":11}
2017-12-01 18:28:45 1512170925.097119: {"class":"DEVICES","devices":[{"class":"DEVICE","path":"/dev/ttyUSB0","driver":"SiRF","subtype":"9\u0006GSD4e_4.1.2-P1_RPATCH.05-F-GPS-4R-1510281 11/03/2015 307","activated":"2017-12-01T23:28:44.528Z","flags":1,"native":1,"bps":4800,"parity":"N","stopbits":1,"cycle":1.00}]}
2017-12-01 18:28:45 1512170925.097247: {"class":"WATCH","enable":true,"json":false,"nmea":true,"raw":0,"scaled":false,"timing":false,"split24":false,"pps":false}
2017-12-01 18:28:45 1512170925.423102: $GPZDA,232846.00,01,12,2017,00,00*69
2017-12-01 18:28:45 1512170925.423277: $GPGGA,232846,3946.9720,N,08404.9830,W,2,11,0.80,293.03,M,-33.325,M,,*7E
2017-12-01 18:28:45 1512170925.423344: $GPRMC,232846,A,3946.9720,N,08404.9830,W,0.0000,0.000,011217,,*3C
2017-12-01 18:28:45 1512170925.423405: $GPGSA,A,3,1,3,14,16,22,23,25,26,31,32,138,,2.0,0.8,1.5*07
2017-12-01 18:28:46 1512170926.728391: $GPGSV,3,1,12,01,04,250,34,03,41,297,47,14,54,094,43,16,25,189,45*7B
2017-12-01 18:28:46 1512170926.728571: $GPGSV,3,2,12,22,50,267,44,23,13,301,41,25,16,039,42,26,56,171,47*76
2017-12-01 18:28:46 1512170926.728638: $GPGSV,3,3,12,31,65,030,46,32,34,109,40,29,11,070,23,138,38,213,46*4E
2017-12-01 18:28:46 1512170926.841768: $GPZDA,232847.00,01,12,2017,00,00*68
2017-12-01 18:28:46 1512170926.841913: $GPGGA,232847,3946.9720,N,08404.9830,W,2,12,0.80,293.03,M,-33.325,M,,*7C
2017-12-01 18:28:46 1512170926.842003: $GPRMC,232847,A,3946.9720,N,08404.9830,W,0.0000,0.000,011217,,*3D
2017-12-01 18:28:46 1512170926.842080: $GPGSA,A,3,1,3,14,16,22,23,25,26,31,32,29,138,2.0,0.8,1.5*0C
2017-12-01 18:28:47 1512170927.467155: $GPZDA,232848.00,01,12,2017,00,00*67
2017-12-01 18:28:47 1512170927.467331: $GPGGA,232848,3946.9720,N,08404.9830,W,2,12,0.80,293.03,M,-33.325,M,,*73
2017-12-01 18:28:47 1512170927.467397: $GPRMC,232848,A,3946.9720,N,08404.9830,W,0.0000,0.000,011217,,*32
2017-12-01 18:28:47 1512170927.467458: $GPGSA,A,3,1,3,14,16,22,23,25,26,31,32,29,138,2.0,0.8,1.5*0C
2017-12-01 18:28:48 1512170928.423145: $GPZDA,232849.00,01,12,2017,00,00*66
2017-12-01 18:28:48 1512170928.423336: $GPGGA,232849,3946.9720,N,08404.9830,W,2,12,0.80,293.03,M,-33.325,M,,*72
2017-12-01 18:28:48 1512170928.423403: $GPRMC,232849,A,3946.9720,N,08404.9830,W,0.0000,0.000,011217,,*33
2017-12-01 18:28:48 1512170928.423464: $GPGSA,A,3,1,3,14,16,22,23,25,26,31,32,29,138,2.0,0.8,1.5*0C
2017-12-01 18:28:49 1512170929.760004: $GPGSV,3,1,12,01,04,250,34,03,41,297,47,14,54,094,43,16,25,189,45*7B
2017-12-01 18:28:49 1512170929.760196: $GPGSV,3,2,12,22,50,267,44,23,13,301,40,25,16,039,42,26,56,171,47*77
2017-12-01 18:28:49 1512170929.760263: $GPGSV,3,3,12,31,65,030,46,32,34,109,40,29,11,070,24,138,38,213,46*49
2017-12-01 18:28:49 1512170929.873369: $GPZDA,232850.00,01,12,2017,00,00*6E
2017-12-01 18:28:49 1512170929.873556: $GPGGA,232850,3946.9720,N,08404.9830,W,2,12,0.80,293.03,M,-33.325,M,,*7A
2017-12-01 18:28:49 1512170929.873624: $GPRMC,232850,A,3946.9720,N,08404.9830,W,0.0000,0.000,011217,,*3B
2017-12-01 18:28:49 1512170929.873685: $GPGSA,A,3,1,3,14,16,22,23,25,26,31,32,29,138,2.0,0.8,1.5*0C
2017-12-01 18:28:50 1512170930.386727: $GPZDA,232851.00,01,12,2017,00,00*6F
2017-12-01 18:28:50 1512170930.386925: $GPGGA,232851,3946.9720,N,08404.9830,W,2,12,0.80,293.03,M,-33.325,M,,*7B
2017-12-01 18:28:50 1512170930.386994: $GPRMC,232851,A,3946.9720,N,08404.9830,W,0.0000,0.000,011217,,*3A
2017-12-01 18:28:50 1512170930.387073: $GPGSA,A,3,1,3,14,16,22,23,25,26,31,32,29,138,2.0,0.8,1.5*0C
2017-12-01 18:28:51 1512170931.423859: $GPZDA,232852.00,01,12,2017,00,00*6C
2017-12-01 18:28:51 1512170931.424087: $GPGGA,232852,3946.9720,N,08404.9830,W,2,12,0.80,293.03,M,-33.325,M,,*78
2017-12-01 18:28:51 1512170931.424157: $GPRMC,232852,A,3946.9720,N,08404.9830,W,0.0000,0.000,011217,,*39
2017-12-01 18:28:51 1512170931.424220: $GPGSA,A,3,1,3,14,16,22,23,25,26,31,32,29,138,2.0,0.8,1.5*0C
2017-12-01 18:28:52 1512170932.727870: $GPGSV,3,1,12,01,04,250,34,03,41,297,48,14,54,094,44,16,25,189,45*73
2017-12-01 18:28:52 1512170932.728116: $GPGSV,3,2,12,22,50,267,44,23,13,301,41,25,16,039,42,26,56,171,47*76
2017-12-01 18:28:52 1512170932.728187: $GPGSV,3,3,12,31,65,030,46,32,34,109,35,29,11,070,25,138,38,213,46*4A
2017-12-01 18:28:52 1512170932.841163: $GPZDA,232853.00,01,12,2017,00,00*6D
2017-12-01 18:28:52 1512170932.841288: $GPGGA,232853,3946.9720,N,08404.9830,W,2,12,0.80,293.03,M,-33.325,M,,*79
2017-12-01 18:28:52 1512170932.841407: $GPRMC,232853,A,3946.9720,N,08404.9830,W,0.0000,0.000,011217,,*38
2017-12-01 18:28:52 1512170932.841478: $GPGSA,A,3,1,3,14,16,22,23,25,26,31,32,29,138,2.0,0.8,1.5*0C
2017-12-01 18:28:53 1512170933.392373: $GPZDA,232854.00,01,12,2017,00,00*6A
2017-12-01 18:28:53 1512170933.392543: $GPGGA,232854,3946.9720,N,08404.9830,W,2,12,0.80,293.03,M,-33.325,M,,*7E
2017-12-01 18:28:53 1512170933.392609: $GPRMC,232854,A,3946.9720,N,08404.9830,W,0.0000,0.000,011217,,*3F
2017-12-01 18:28:53 1512170933.392670: $GPGSA,A,3,1,3,14,16,22,23,25,26,31,32,29,138,2.0,0.8,1.5*0C
2017-12-01 18:28:54 1512170934.391742: $GPZDA,232855.00,01,12,2017,00,00*6B
2017-12-01 18:28:54 1512170934.391947: $GPGGA,232855,3946.9720,N,08404.9830,W,2,12,0.80,293.03,M,-33.325,M,,*7F
2017-12-01 18:28:54 1512170934.392037: $GPRMC,232855,A,3946.9720,N,08404.9830,W,0.0000,0.000,011217,,*3E
2017-12-01 18:28:54 1512170934.392100: $GPGSA,A,3,1,3,14,16,22,23,25,26,31,32,29,138,2.0,0.8,1.5*0C
2017-12-01 18:28:55 1512170935.728660: $GPGSV,3,1,12,01,04,250,34,03,41,297,48,14,54,094,44,16,25,189,45*73
2017-12-01 18:28:55 1512170935.728859: $GPGSV,3,2,12,22,50,267,44,23,13,301,42,25,16,039,42,26,56,171,47*75
2017-12-01 18:28:55 1512170935.728926: $GPGSV,3,3,12,31,65,030,46,32,34,109,37,29,11,070,25,138,38,213,46*48
2017-12-01 18:28:55 1512170935.842246: $GPZDA,232856.00,01,12,2017,00,00*68
2017-12-01 18:28:55 1512170935.842418: $GPGGA,232856,3946.9724,N,08404.9830,W,2,12,0.80,293.67,M,-33.325,M,,*7A
2017-12-01 18:28:55 1512170935.842484: $GPRMC,232856,A,3946.9724,N,08404.9830,W,0.0000,0.000,011217,,*39
2017-12-01 18:28:55 1512170935.842545: $GPGSA,A,3,1,3,14,16,22,23,25,26,31,32,29,138,2.0,0.8,1.5*0C
2017-12-01 18:28:56 1512170936.386676: $GPZDA,232857.00,01,12,2017,00,00*69
2017-12-01 18:28:56 1512170936.386883: $GPGGA,232857,3946.9724,N,08404.9830,W,2,12,0.80,293.67,M,-33.325,M,,*7B
2017-12-01 18:28:56 1512170936.386966: $GPRMC,232857,A,3946.9724,N,08404.9830,W,0.0000,0.000,011217,,*38
2017-12-01 18:28:56 1512170936.387029: $GPGSA,A,3,1,3,14,16,22,23,25,26,31,32,29,138,2.0,0.8,1.5*0C
2017-12-01 18:28:57 1512170937.390787: $GPZDA,232858.00,01,12,2017,00,00*66
2017-12-01 18:28:57 1512170937.391006: $GPGGA,232858,3946.9724,N,08404.9830,W,2,12,0.80,293.67,M,-33.325,M,,*74
2017-12-01 18:28:57 1512170937.391075: $GPRMC,232858,A,3946.9724,N,08404.9830,W,0.0000,0.000,011217,,*37
2017-12-01 18:28:57 1512170937.391137: $GPGSA,A,3,1,3,14,16,22,23,25,26,31,32,29,138,2.0,0.8,1.5*0C
2017-12-01 18:28:58 1512170938.727771: $GPGSV,3,1,12,01,04,250,34,03,41,297,48,14,54,094,44,16,25,189,45*73
2017-12-01 18:28:58 1512170938.727985: $GPGSV,3,2,12,22,50,267,44,23,13,301,42,25,16,039,42,26,56,171,47*75
2017-12-01 18:28:58 1512170938.728052: $GPGSV,3,3,12,31,65,030,46,32,34,109,38,29,11,070,25,138,38,213,46*47
2017-12-01 18:28:58 1512170938.841124: $GPZDA,232859.00,01,12,2017,00,00*67
2017-12-01 18:28:58 1512170938.841318: $GPGGA,232859,3946.9724,N,08404.9830,W,2,12,0.80,293.67,M,-33.325,M,,*75
2017-12-01 18:28:58 1512170938.841457: $GPRMC,232859,A,3946.9724,N,08404.9830,W,0.0000,0.000,011217,,*36
2017-12-01 18:28:58 1512170938.841519: $GPGSA,A,3,1,3,14,16,22,23,25,26,31,32,29,138,2.0,0.8,1.5*0C
2017-12-01 18:28:59 1512170939.392060: $GPZDA,232900.00,01,12,2017,00,00*6A
2017-12-01 18:28:59 1512170939.392231: $GPGGA,232900,3946.9724,N,08404.9830,W,2,12,0.80,293.67,M,-33.325,M,,*78
2017-12-01 18:28:59 1512170939.392298: $GPRMC,232900,A,3946.9724,N,08404.9830,W,0.0000,0.000,011217,,*3B
2017-12-01 18:28:59 1512170939.392360: $GPGSA,A,3,1,3,14,16,22,23,25,26,31,32,29,138,2.0,0.8,1.5*0C
2017-12-01 18:29:00 1512170940.386629: $GPZDA,232901.00,01,12,2017,00,00*6B
2017-12-01 18:29:00 1512170940.386835: $GPGGA,232901,3946.9724,N,08404.9830,W,2,12,0.80,293.67,M,-33.325,M,,*79
2017-12-01 18:29:00 1512170940.386919: $GPRMC,232901,A,3946.9724,N,08404.9830,W,0.0000,0.000,011217,,*3A
2017-12-01 18:29:00 1512170940.386982: $GPGSA,A,3,1,3,14,16,22,23,25,26,31,32,29,138,2.0,0.8,1.5*0C
2017-12-01 18:29:01 1512170941.722355: $GPGSV,3,1,12,01,04,250,35,03,41,297,48,14,54,094,44,16,25,189,44*73
2017-12-01 18:29:01 1512170941.722541: $GPGSV,3,2,12,22,50,267,44,23,13,301,43,25,16,039,41,26,56,171,47*77
2017-12-01 18:29:01 1512170941.722608: $GPGSV,3,3,12,31,65,030,46,32,34,109,39,29,11,070,26,138,38,213,47*44
2017-12-01 18:29:01 1512170941.835747: $GPZDA,232902.00,01,12,2017,00,00*68
2017-12-01 18:29:01 1512170941.835964: $GPGGA,232902,3946.9724,N,08404.9830,W,2,12,0.80,293.67,M,-33.325,M,,*7A
2017-12-01 18:29:01 1512170941.836031: $GPRMC,232902,A,3946.9724,N,08404.9830,W,0.0000,0.000,011217,,*39
2017-12-01 18:29:01 1512170941.836092: $GPGSA,A,3,1,3,14,16,22,23,25,26,31,32,29,138,2.0,0.8,1.5*0C
2017-12-01 18:29:02 1512170942.461119: $GPZDA,232903.00,01,12,2017,00,00*69
2017-12-01 18:29:02 1512170942.461305: $GPGGA,232903,3946.9724,N,08404.9830,W,2,12,0.80,293.67,M,-33.325,M,,*7B
2017-12-01 18:29:02 1512170942.461439: $GPRMC,232903,A,3946.9724,N,08404.9830,W,0.0000,0.000,011217,,*38
2017-12-01 18:29:02 1512170942.461503: $GPGSA,A,3,1,3,14,16,22,23,25,26,31,32,29,138,2.0,0.8,1.5*0C
2017-12-01 18:29:03 1512170943.392010: $GPZDA,232904.00,01,12,2017,00,00*6E
2017-12-01 18:29:03 1512170943.392188: $GPGGA,232904,3946.9724,N,08404.9830,W,2,12,0.80,293.67,M,-33.325,M,,*7C
2017-12-01 18:29:03 1512170943.392255: $GPRMC,232904,A,3946.9724,N,08404.9830,W,0.0000,0.000,011217,,*3F
2017-12-01 18:29:03 1512170943.392317: $GPGSA,A,3,1,3,14,16,22,23,25,26,31,32,29,138,2.0,0.8,1.5*0C
2017-12-01 18:29:04 1512170944.727684: $GPGSV,3,1,12,01,04,250,35,03,41,297,48,14,54,094,44,16,25,189,44*73
2017-12-01 18:29:04 1512170944.727901: $GPGSV,3,2,12,22,50,267,44,23,13,301,43,25,16,039,42,26,56,171,47*74
2017-12-01 18:29:04 1512170944.727969: $GPGSV,3,3,12,31,65,030,46,32,34,109,39,29,11,070,26,138,38,213,46*45
2017-12-01 18:29:04 1512170944.841387: $GPZDA,232905.00,01,12,2017,00,00*6F
2017-12-01 18:29:04 1512170944.841538: $GPGGA,232905,3946.9724,N,08404.9830,W,2,12,0.80,293.67,M,-33.325,M,,*7D
2017-12-01 18:29:04 1512170944.841603: $GPRMC,232905,A,3946.9724,N,08404.9830,W,0.0000,0.000,011217,,*3E
2017-12-01 18:29:04 1512170944.841665: $GPGSA,A,3,1,3,14,16,22,23,25,26,31,32,29,138,2.0,0.8,1.5*0C
