2018-01-11 21:04:13 1515722653.696726: {"class":"VERSION","release":"3.16","rev":"3.16-4","proto_major":3,"proto_minor":11}
2018-01-11 21:04:13 1515722653.697162: {"class":"DEVICES","devices":[{"class":"DEVICE","path":"/dev/ttyUSB0","driver":"SiRF","subtype":"9\u0006GSD4e_4.1.2-P1_RPATCH.05-F-GPS-4R-1510281 11/03/2015 307","activated":"2018-01-12T02:04:13.309Z","flags":1,"native":1,"bps":4800,"parity":"N","stopbits":1,"cycle":1.00}]}
2018-01-11 21:04:13 1515722653.697295: {"class":"WATCH","enable":true,"json":false,"nmea":true,"raw":0,"scaled":false,"timing":false,"split24":false,"pps":false}
2018-01-11 21:04:13 1515722653.759343: $GPGSV,3,1,12,01,18,151,44,07,80,307,43,08,65,054,48,09,27,210,44*70
2018-01-11 21:04:13 1515722653.759542: $GPGSV,3,2,12,11,42,156,45,23,06,181,34,27,26,045,50,28,30,277,38*73
2018-01-11 21:04:13 1515722653.759609: $GPGSV,3,3,12,30,51,309,42,13,02,328,00,16,06,076,20,138,38,213,45*4A
2018-01-11 21:04:13 1515722653.871714: $GPZDA,020414.00,12,01,2018,00,00*6C
2018-01-11 21:04:13 1515722653.871853: $GPGGA,020414,3946.9587,N,08404.9860,W,2,11,0.80,300.73,M,-33.324,M,,*73
2018-01-11 21:04:13 1515722653.871917: $GPRMC,020414,A,3946.9587,N,08404.9860,W,0.0000,0.000,120118,,*33
2018-01-11 21:04:13 1515722653.871977: $GPGSA,A,3,1,7,8,9,11,23,27,28,30,16,138,,4.0,0.8,3.5*0F
2018-01-11 21:04:14 1515722654.498338: $GPZDA,020415.00,12,01,2018,00,00*6D
2018-01-11 21:04:14 1515722654.498497: $GPGGA,020415,3946.9587,N,08404.9860,W,2,11,0.80,300.73,M,-33.324,M,,*72
2018-01-11 21:04:14 1515722654.498564: $GPRMC,020415,A,3946.9587,N,08404.9860,W,0.0000,0.000,120118,,*32
2018-01-11 21:04:14 1515722654.498624: $GPGSA,A,3,1,7,8,9,11,23,27,28,30,16,138,,4.0,0.8,3.5*0F
2018-01-11 21:04:15 1515722655.417723: $GPZDA,020416.00,12,01,2018,00,00*6E
2018-01-11 21:04:15 1515722655.417888: $GPGGA,020416,3946.9587,N,08404.9860,W,2,11,0.80,300.73,M,-33.324,M,,*71
2018-01-11 21:04:15 1515722655.417955: $GPRMC,020416,A,3946.9587,N,08404.9860,W,0.0000,0.000,120118,,*31
2018-01-11 21:04:15 1515722655.418016: $GPGSA,A,3,1,7,8,9,11,23,27,28,30,16,138,,4.0,0.8,3.5*0F
2018-01-11 21:04:16 1515722656.754677: $GPGSV,3,1,12,01,18,151,44,07,80,307,43,08,65,054,48,09,27,210,44*70
2018-01-11 21:04:16 1515722656.754852: $GPGSV,3,2,12,11,42,156,45,23,06,181,34,27,26,045,50,28,30,277,38*73
2018-01-11 21:04:16 1515722656.754917: $GPGSV,3,3,12,30,51,309,42,13,02,328,23,16,06,076,20,138,38,213,45*4B
2018-01-11 21:04:16 1515722656.868070: $GPZDA,020417.00,12,01,2018,00,00*6F
2018-01-11 21:04:16 1515722656.868210: $GPGGA,020417,3946.9587,N,08404.9860,W,2,12,0.80,300.73,M,-33.324,M,,*73
2018-01-11 21:04:16 1515722656.868300: $GPRMC,020417,A,3946.9587,N,08404.9860,W,0.0000,0.000,120118,,*30
2018-01-11 21:04:16 1515722656.868388: $GPGSA,A,3,1,7,8,9,11,23,27,28,30,13,16,138,4.0,0.8,3.5*0D
2018-01-11 21:04:17 1515722657.418955: $GPZDA,020418.00,12,01,2018,00,00*60
2018-01-11 21:04:17 1515722657.419165: $GPGGA,020418,3946.9584,N,08404.9861,W,2,12,0.80,301.49,M,-33.324,M,,*76
2018-01-11 21:04:17 1515722657.419255: $GPRMC,020418,A,3946.9584,N,08404.9861,W,0.0000,0.000,120118,,*3D
2018-01-11 21:04:17 1515722657.419317: $GPGSA,A,3,1,7,8,9,11,23,27,28,30,13,16,138,4.0,0.8,3.5*0D
2018-01-11 21:04:18 1515722658.417259: $GPZDA,020419.00,12,01,2018,00,00*61
2018-01-11 21:04:18 1515722658.417447: $GPGGA,020419,3946.9585,N,08404.9855,W,2,12,0.80,304.38,M,-33.324,M,,*72
2018-01-11 21:04:18 1515722658.417516: $GPRMC,020419,A,3946.9585,N,08404.9855,W,0.2422,93.794,120118,,*0C
2018-01-11 21:04:18 1515722658.417577: $GPGSA,A,3,1,7,8,9,11,23,27,28,30,13,16,138,4.0,0.8,3.5*0D
2018-01-11 21:04:18 1515722658.417634: $GPGBS,020419,3.65,M,6.21,M,20.10,M*06
2018-01-11 21:04:19 1515722659.756187: $GPGSV,3,1,12,01,18,151,44,07,80,307,43,08,65,054,48,09,27,210,43*77
2018-01-11 21:04:19 1515722659.756412: $GPGSV,3,2,12,11,42,156,45,23,06,181,34,27,26,045,50,28,30,277,37*7C
2018-01-11 21:04:19 1515722659.756478: $GPGSV,3,3,12,30,51,309,42,13,02,328,23,16,06,076,20,138,38,213,45*4B
2018-01-11 21:04:19 1515722659.869572: $GPZDA,020420.00,12,01,2018,00,00*6B
2018-01-11 21:04:19 1515722659.869772: $GPGGA,020420,3946.9585,N,08404.9855,W,2,12,0.80,304.38,M,-33.324,M,,*78
2018-01-11 21:04:19 1515722659.869839: $GPRMC,020420,A,3946.9585,N,08404.9855,W,0.0000,0.000,120118,,*30
2018-01-11 21:04:19 1515722659.869899: $GPGSA,A,3,1,7,8,9,11,23,27,28,30,13,16,138,4.0,0.8,3.5*0D
2018-01-11 21:04:20 1515722660.421662: $GPZDA,020421.00,12,01,2018,00,00*6A
2018-01-11 21:04:20 1515722660.421815: $GPGGA,020421,3946.9585,N,08404.9855,W,2,12,0.80,304.38,M,-33.324,M,,*79
2018-01-11 21:04:20 1515722660.421881: $GPRMC,020421,A,3946.9585,N,08404.9855,W,0.0000,0.000,120118,,*31
2018-01-11 21:04:20 1515722660.421941: $GPGSA,A,3,1,7,8,9,11,23,27,28,30,13,16,138,4.0,0.8,3.5*0D
