2017-11-16 13:54:30 1510858470.436700: {"class":"VERSION","release":"3.17","rev":"3.17","proto_major":3,"proto_minor":12}
2017-11-16 13:54:30 1510858470.437338: {"class":"DEVICES","devices":[{"class":"DEVICE","path":"/dev/ttyUSB0","driver":"SiRF","subtype":"9\u0006GSD4e_4.1.2-P1_RPATCH.05-F-GPS-4R-1510281 11/03/2015 307","activated":"2017-11-16T18:54:30.396Z","flags":1,"native":1,"bps":4800,"parity":"N","stopbits":1,"cycle":1.00}]}
2017-11-16 13:54:30 1510858470.437468: {"class":"WATCH","enable":true,"json":false,"nmea":true,"raw":0,"scaled":false,"timing":false,"split24":false,"pps":false}
2017-11-16 13:54:31 1510858471.696284: $GPGSV,3,1,11,10,35,295,38,13,15,046,40,15,45,051,51,18,65,321,49*7B
2017-11-16 13:54:31 1510858471.696468: $GPGSV,3,2,11,20,39,088,48,21,72,202,48,24,46,123,46,27,19,298,28*74
2017-11-16 13:54:31 1510858471.696551: $GPGSV,3,3,11,32,14,232,38,08,03,328,00,138,38,213,43*71
2017-11-16 13:54:31 1510858471.809827: $GPZDA,185430.00,16,11,2017,00,00*6E
2017-11-16 13:54:31 1510858471.809977: $GPGGA,185430,3946.9603,N,08404.9827,W,2,10,0.80,306.49,M,-33.324,M,,*79
2017-11-16 13:54:31 1510858471.810037: $GPRMC,185430,A,3946.9603,N,08404.9827,W,0.0000,0.000,161117,,*3D
2017-11-16 13:54:31 1510858471.810093: $GPGSA,A,3,10,13,15,18,20,21,24,27,32,138,,,1.6,0.8,1.3*08
2017-11-16 13:54:32 1510858472.435251: $GPZDA,185431.00,16,11,2017,00,00*6F
2017-11-16 13:54:32 1510858472.435419: $GPGGA,185431,3946.9603,N,08404.9827,W,2,10,0.80,306.49,M,-33.324,M,,*78
2017-11-16 13:54:32 1510858472.435483: $GPRMC,185431,A,3946.9603,N,08404.9827,W,0.0000,0.000,161117,,*3C
2017-11-16 13:54:32 1510858472.435580: $GPGSA,A,3,10,13,15,18,20,21,24,27,32,138,,,1.6,0.8,1.3*08
2017-11-16 13:54:33 1510858473.358402: $GPZDA,185432.00,16,11,2017,00,00*6C
2017-11-16 13:54:33 1510858473.358571: $GPGGA,185432,3946.9603,N,08404.9827,W,2,10,0.80,306.49,M,-33.324,M,,*7B
2017-11-16 13:54:33 1510858473.358659: $GPRMC,185432,A,3946.9603,N,08404.9827,W,0.0000,0.000,161117,,*3F
2017-11-16 13:54:33 1510858473.358720: $GPGSA,A,3,10,13,15,18,20,21,24,27,32,138,,,1.6,0.8,1.3*08
2017-11-16 13:54:34 1510858474.695505: $GPGSV,3,1,11,10,35,295,39,13,15,046,40,15,45,051,51,18,65,321,48*7B
2017-11-16 13:54:34 1510858474.695699: $GPGSV,3,2,11,20,39,088,48,21,72,202,48,24,46,123,46,27,19,298,22*7E
2017-11-16 13:54:34 1510858474.695765: $GPGSV,3,3,11,32,14,232,38,08,03,328,25,138,38,213,44*71
2017-11-16 13:54:34 1510858474.808875: $GPZDA,185433.00,16,11,2017,00,00*6D
2017-11-16 13:54:34 1510858474.809051: $GPGGA,185433,3946.9603,N,08404.9827,W,2,11,0.80,306.49,M,-33.324,M,,*7B
2017-11-16 13:54:34 1510858474.809115: $GPRMC,185433,A,3946.9603,N,08404.9827,W,0.0000,0.000,161117,,*3E
2017-11-16 13:54:34 1510858474.809174: $GPGSA,A,3,10,13,15,18,20,21,24,27,32,8,138,,1.6,0.8,1.3*30
2017-11-16 13:54:35 1510858475.360038: $GPZDA,185434.00,16,11,2017,00,00*6A
2017-11-16 13:54:35 1510858475.360197: $GPGGA,185434,3946.9607,N,08404.9826,W,2,11,0.80,305.73,M,-33.324,M,,*73
2017-11-16 13:54:35 1510858475.360262: $GPRMC,185434,A,3946.9607,N,08404.9826,W,0.0000,0.000,161117,,*3C
2017-11-16 13:54:35 1510858475.360373: $GPGSA,A,3,10,13,15,18,20,21,24,27,32,8,138,,1.6,0.8,1.3*30
2017-11-16 13:54:36 1510858476.354432: $GPZDA,185435.00,16,11,2017,00,00*6B
2017-11-16 13:54:36 1510858476.354606: $GPGGA,185435,3946.9607,N,08404.9826,W,2,11,0.80,305.73,M,-33.324,M,,*72
2017-11-16 13:54:36 1510858476.354672: $GPRMC,185435,A,3946.9607,N,08404.9826,W,0.0000,0.000,161117,,*3D
2017-11-16 13:54:36 1510858476.354731: $GPGSA,A,3,10,13,15,18,20,21,24,27,32,8,138,,1.6,0.8,1.3*30
2017-11-16 13:54:37 1510858477.696162: $GPGSV,3,1,11,10,35,295,40,13,15,046,39,15,45,051,51,18,65,321,48*7B
2017-11-16 13:54:37 1510858477.696334: $GPGSV,3,2,11,20,39,088,48,21,72,202,47,24,46,123,46,27,19,298,22*71
2017-11-16 13:54:37 1510858477.696398: $GPGSV,3,3,11,32,14,232,38,08,03,328,25,138,38,213,42*77
2017-11-16 13:54:37 1510858477.809470: $GPZDA,185436.00,16,11,2017,00,00*68
2017-11-16 13:54:37 1510858477.809633: $GPGGA,185436,3946.9607,N,08404.9826,W,2,11,0.80,305.73,M,-33.324,M,,*71
2017-11-16 13:54:37 1510858477.809765: $GPRMC,185436,A,3946.9607,N,08404.9826,W,0.0000,0.000,161117,,*3E
2017-11-16 13:54:37 1510858477.809844: $GPGSA,A,3,10,13,15,18,20,21,24,27,32,8,138,,1.6,0.8,1.3*30
2017-11-16 13:54:38 1510858478.356077: $GPZDA,185437.00,16,11,2017,00,00*69
2017-11-16 13:54:38 1510858478.356273: $GPGGA,185437,3946.9607,N,08404.9826,W,2,11,1.00,305.73,M,-33.324,M,,*79
2017-11-16 13:54:38 1510858478.356339: $GPRMC,185437,A,3946.9607,N,08404.9826,W,0.0000,0.000,161117,,*3F
2017-11-16 13:54:38 1510858478.356419: $GPGSA,A,3,10,13,15,18,20,21,24,27,32,8,138,,1.6,1.0,1.3*39
2017-11-16 13:54:39 1510858479.367709: $GPZDA,185438.00,16,11,2017,00,00*66
2017-11-16 13:54:39 1510858479.367858: $GPGGA,185438,3946.9607,N,08404.9826,W,2,11,1.00,305.73,M,-33.324,M,,*76
2017-11-16 13:54:39 1510858479.367942: $GPRMC,185438,A,3946.9607,N,08404.9826,W,0.0000,0.000,161117,,*30
2017-11-16 13:54:39 1510858479.368000: $GPGSA,A,3,10,13,15,18,20,21,24,27,32,8,138,,1.6,1.0,1.3*39
2017-11-16 13:54:40 1510858480.697091: $GPGSV,3,1,11,10,35,295,40,13,15,046,39,15,45,051,51,18,65,321,48*7B
2017-11-16 13:54:40 1510858480.697262: $GPGSV,3,2,11,20,39,088,47,21,72,202,47,24,46,123,46,27,19,298,26*7A
2017-11-16 13:54:40 1510858480.697323: $GPGSV,3,3,11,32,14,232,38,08,03,328,24,138,38,213,43*77
2017-11-16 13:54:40 1510858480.810469: $GPZDA,185439.00,16,11,2017,00,00*67
2017-11-16 13:54:40 1510858480.810654: $GPGGA,185439,3946.9607,N,08404.9826,W,2,11,0.80,305.73,M,-33.324,M,,*7E
2017-11-16 13:54:40 1510858480.810717: $GPRMC,185439,A,3946.9607,N,08404.9826,W,0.0000,0.000,161117,,*31
2017-11-16 13:54:40 1510858480.810773: $GPGSA,A,3,10,13,15,18,20,21,24,27,32,8,138,,1.6,0.8,1.3*30
2017-11-16 13:54:41 1510858481.370251: $GPZDA,185440.00,16,11,2017,00,00*69
2017-11-16 13:54:41 1510858481.370547: $GPGGA,185440,3946.9607,N,08404.9826,W,2,11,1.00,305.73,M,-33.324,M,,*79
2017-11-16 13:54:41 1510858481.370625: $GPRMC,185440,A,3946.9607,N,08404.9826,W,0.0000,0.000,161117,,*3F
2017-11-16 13:54:41 1510858481.370689: $GPGSA,A,3,10,13,15,18,20,21,24,27,32,8,138,,1.6,1.0,1.3*39
2017-11-16 13:54:42 1510858482.354500: $GPZDA,185441.00,16,11,2017,00,00*68
2017-11-16 13:54:42 1510858482.354660: $GPGGA,185441,3946.9607,N,08404.9826,W,2,11,0.80,305.73,M,-33.324,M,,*71
2017-11-16 13:54:42 1510858482.354720: $GPRMC,185441,A,3946.9607,N,08404.9826,W,0.0000,0.000,161117,,*3E
2017-11-16 13:54:42 1510858482.354776: $GPGSA,A,3,10,13,15,18,20,21,24,27,32,8,138,,1.6,0.8,1.3*30
2017-11-16 13:54:43 1510858483.697600: $GPGSV,3,1,11,10,35,295,38,13,15,046,39,15,45,051,51,18,65,321,48*74
2017-11-16 13:54:43 1510858483.697770: $GPGSV,3,2,11,20,39,088,47,21,72,202,47,24,46,123,46,27,19,298,30*7D
2017-11-16 13:54:43 1510858483.697831: $GPGSV,3,3,11,32,14,232,38,08,03,328,18,138,38,213,43*78
2017-11-16 13:54:43 1510858483.810989: $GPZDA,185442.00,16,11,2017,00,00*6B
2017-11-16 13:54:43 1510858483.811171: $GPGGA,185442,3946.9607,N,08404.9826,W,2,11,0.80,305.73,M,-33.324,M,,*72
2017-11-16 13:54:43 1510858483.811234: $GPRMC,185442,A,3946.9607,N,08404.9826,W,0.0000,0.000,161117,,*3D
2017-11-16 13:54:43 1510858483.811309: $GPGSA,A,3,10,13,15,18,20,21,24,27,32,8,138,,1.6,0.8,1.3*30
2017-11-16 13:54:44 1510858484.379337: $GPZDA,185443.00,16,11,2017,00,00*6A
2017-11-16 13:54:44 1510858484.379506: $GPGGA,185443,3946.9607,N,08404.9826,W,2,11,1.00,305.73,M,-33.324,M,,*7A
2017-11-16 13:54:44 1510858484.379568: $GPRMC,185443,A,3946.9607,N,08404.9826,W,0.0000,0.000,161117,,*3C
2017-11-16 13:54:44 1510858484.379625: $GPGSA,A,3,10,13,15,18,20,21,24,27,32,8,138,,1.6,1.0,1.3*39
2017-11-16 13:54:45 1510858485.387764: $GPZDA,185444.00,16,11,2017,00,00*6D
2017-11-16 13:54:45 1510858485.387954: $GPGGA,185444,3946.9607,N,08404.9826,W,2,11,0.80,305.73,M,-33.324,M,,*74
2017-11-16 13:54:45 1510858485.388017: $GPRMC,185444,A,3946.9607,N,08404.9826,W,0.0000,0.000,161117,,*3B
2017-11-16 13:54:45 1510858485.388073: $GPGSA,A,3,10,13,15,18,20,21,24,27,32,8,138,,1.6,0.8,1.3*30
