2017-12-01 15:17:57 1512159477.007473: {"class":"VERSION","release":"3.16","rev":"3.16-4","proto_major":3,"proto_minor":11}
2017-12-01 15:17:57 1512159477.007881: {"class":"DEVICES","devices":[{"class":"DEVICE","path":"/dev/ttyUSB0","driver":"SiRF","subtype":"9\u0006GSD4e_4.1.2-P1_RPATCH.05-F-GPS-4R-1510281 11/03/2015 307","activated":"2017-12-01T20:17:56.971Z","flags":1,"native":1,"bps":4800,"parity":"N","stopbits":1,"cycle":1.00}]}
2017-12-01 15:17:57 1512159477.008000: {"class":"WATCH","enable":true,"json":false,"nmea":true,"raw":0,"scaled":false,"timing":false,"split24":false,"pps":false}
2017-12-01 15:17:57 1512159477.383202: $GPZDA,201758.00,01,12,2017,00,00*69
2017-12-01 15:17:57 1512159477.383380: $GPGGA,201758,3946.9593,N,08404.9873,W,2,11,0.80,286.96,M,-33.324,M,,*7A
2017-12-01 15:17:57 1512159477.383448: $GPRMC,201758,A,3946.9593,N,08404.9873,W,0.0000,0.000,011217,,*31
2017-12-01 15:17:57 1512159477.383511: $GPGSA,A,3,10,12,14,18,24,25,31,32,11,21,138,,2.0,0.8,1.5*09
2017-12-01 15:17:58 1512159478.384121: $GPZDA,201759.00,01,12,2017,00,00*68
2017-12-01 15:17:58 1512159478.384309: $GPGGA,201759,3946.9589,N,08404.9874,W,2,11,0.60,287.73,M,-33.324,M,,*73
2017-12-01 15:17:58 1512159478.384380: $GPRMC,201759,A,3946.9589,N,08404.9874,W,0.0000,0.000,011217,,*3C
2017-12-01 15:17:58 1512159478.384442: $GPGSA,A,3,10,12,14,18,24,25,31,32,11,21,138,,2.0,0.6,1.5*07
2017-12-01 15:17:59 1512159479.718585: $GPGSV,3,1,12,10,81,097,46,12,22,085,47,14,46,277,42,18,49,127,48*7E
2017-12-01 15:17:59 1512159479.718770: $GPGSV,3,2,12,24,24,046,44,25,21,126,41,31,23,207,41,32,62,301,48*75
2017-12-01 15:17:59 1512159479.718839: $GPGSV,3,3,12,01,06,325,25,11,08,312,38,21,05,174,21,138,38,213,46*49
2017-12-01 15:17:59 1512159479.832293: $GPZDA,201800.00,01,12,2017,00,00*6B
2017-12-01 15:17:59 1512159479.832462: $GPGGA,201800,3946.9589,N,08404.9874,W,2,12,0.60,287.73,M,-33.324,M,,*73
2017-12-01 15:17:59 1512159479.832550: $GPRMC,201800,A,3946.9589,N,08404.9874,W,0.0000,0.000,011217,,*3F
2017-12-01 15:17:59 1512159479.832612: $GPGSA,A,3,10,12,14,18,24,25,31,32,1,11,21,138,2.0,0.6,1.5*36
2017-12-01 15:18:00 1512159480.457595: $GPZDA,201801.00,01,12,2017,00,00*6A
2017-12-01 15:18:00 1512159480.457771: $GPGGA,201801,3946.9589,N,08404.9874,W,2,12,0.60,287.73,M,-33.324,M,,*72
2017-12-01 15:18:00 1512159480.457839: $GPRMC,201801,A,3946.9589,N,08404.9874,W,0.0000,0.000,011217,,*3E
2017-12-01 15:18:00 1512159480.457902: $GPGSA,A,3,10,12,14,18,24,25,31,32,1,11,21,138,2.0,0.6,1.5*36
2017-12-01 15:18:01 1512159481.386754: $GPZDA,201802.00,01,12,2017,00,00*69
2017-12-01 15:18:01 1512159481.386927: $GPGGA,201802,3946.9589,N,08404.9874,W,2,12,0.60,287.73,M,-33.324,M,,*71
2017-12-01 15:18:01 1512159481.386996: $GPRMC,201802,A,3946.9589,N,08404.9874,W,0.0000,0.000,011217,,*3D
2017-12-01 15:18:01 1512159481.387062: $GPGSA,A,3,10,12,14,18,24,25,31,32,1,11,21,138,2.0,0.6,1.5*36
2017-12-01 15:18:02 1512159482.718970: $GPGSV,3,1,12,10,81,097,47,12,22,085,47,14,46,277,43,18,49,127,48*7E
2017-12-01 15:18:02 1512159482.719135: $GPGSV,3,2,12,24,24,046,44,25,21,126,41,31,23,207,42,32,62,301,48*76
2017-12-01 15:18:02 1512159482.719202: $GPGSV,3,3,12,01,06,325,28,11,08,312,38,21,05,174,21,138,38,213,46*44
2017-12-01 15:18:02 1512159482.832380: $GPZDA,201803.00,01,12,2017,00,00*68
2017-12-01 15:18:02 1512159482.832554: $GPGGA,201803,3946.9589,N,08404.9867,W,2,12,0.60,287.81,M,-33.324,M,,*7F
2017-12-01 15:18:02 1512159482.832624: $GPRMC,201803,A,3946.9589,N,08404.9867,W,0.0000,0.000,011217,,*3E
2017-12-01 15:18:02 1512159482.832685: $GPGSA,A,3,10,12,14,18,24,25,31,32,1,11,21,138,2.0,0.6,1.5*36
2017-12-01 15:18:03 1512159483.380785: $GPZDA,201804.00,01,12,2017,00,00*6F
2017-12-01 15:18:03 1512159483.380956: $GPGGA,201804,3946.9586,N,08404.9868,W,2,12,0.60,288.57,M,-33.324,M,,*7C
2017-12-01 15:18:03 1512159483.381026: $GPRMC,201804,A,3946.9586,N,08404.9868,W,0.0000,0.000,011217,,*39
2017-12-01 15:18:03 1512159483.381089: $GPGSA,A,3,10,12,14,18,24,25,31,32,1,11,21,138,2.0,0.6,1.5*36
2017-12-01 15:18:04 1512159484.380236: $GPZDA,201805.00,01,12,2017,00,00*6E
2017-12-01 15:18:04 1512159484.380473: $GPGGA,201805,3946.9586,N,08404.9868,W,2,12,0.60,289.97,M,-33.324,M,,*70
2017-12-01 15:18:04 1512159484.380547: $GPRMC,201805,A,3946.9586,N,08404.9868,W,0.0000,0.000,011217,,*38
2017-12-01 15:18:04 1512159484.380608: $GPGSA,A,3,10,12,14,18,24,25,31,32,1,11,21,138,2.0,0.6,1.5*36
2017-12-01 15:18:04 1512159484.380669: $GPGBS,201805,2.67,M,3.86,M,8.82,M*3C
2017-12-01 15:18:05 1512159485.715473: $GPGSV,3,1,12,10,81,097,46,12,22,085,46,14,46,277,42,18,49,127,48*7F
2017-12-01 15:18:05 1512159485.715659: $GPGSV,3,2,12,24,24,046,43,25,21,126,41,31,23,207,42,32,62,301,46*7F
2017-12-01 15:18:05 1512159485.715726: $GPGSV,3,3,12,01,06,325,28,11,08,312,40,21,05,174,17,138,38,213,46*4E
2017-12-01 15:18:05 1512159485.828998: $GPZDA,201806.00,01,12,2017,00,00*6D
2017-12-01 15:18:05 1512159485.829210: $GPGGA,201806,3946.9591,N,08404.9856,W,2,12,0.60,293.58,M,-33.324,M,,*70
2017-12-01 15:18:05 1512159485.829282: $GPRMC,201806,A,3946.9591,N,08404.9856,W,0.1867,0.000,011217,,*38
2017-12-01 15:18:05 1512159485.829344: $GPGSA,A,3,10,12,14,18,24,25,31,32,1,11,21,138,2.0,0.6,1.5*36
2017-12-01 15:18:06 1512159486.379745: $GPZDA,201807.00,01,12,2017,00,00*6C
2017-12-01 15:18:06 1512159486.379903: $GPGGA,201807,3946.9591,N,08404.9856,W,2,12,0.60,293.58,M,-33.324,M,,*71
2017-12-01 15:18:06 1512159486.379971: $GPRMC,201807,A,3946.9591,N,08404.9856,W,0.0000,0.000,011217,,*31
2017-12-01 15:18:06 1512159486.380038: $GPGSA,A,3,10,12,14,18,24,25,31,32,1,11,21,138,2.0,0.6,1.5*36
2017-12-01 15:18:07 1512159487.384598: $GPZDA,201808.00,01,12,2017,00,00*63
2017-12-01 15:18:07 1512159487.384787: $GPGGA,201808,3946.9591,N,08404.9856,W,2,12,0.60,293.58,M,-33.324,M,,*7E
2017-12-01 15:18:07 1512159487.386236: $GPRMC,201808,A,3946.9591,N,08404.9856,W,0.0000,0.000,011217,,*3E
2017-12-01 15:18:07 1512159487.386318: $GPGSA,A,3,10,12,14,18,24,25,31,32,1,11,21,138,2.0,0.6,1.5*36
2017-12-01 15:18:08 1512159488.718883: $GPGSV,3,1,12,10,81,097,46,12,22,085,46,14,46,277,42,18,49,127,48*7F
2017-12-01 15:18:08 1512159488.719081: $GPGSV,3,2,12,24,24,046,43,25,21,126,42,31,23,207,43,32,62,301,48*73
2017-12-01 15:18:08 1512159488.719154: $GPGSV,3,3,12,01,06,325,30,11,08,312,36,21,05,174,18,138,38,213,46*49
2017-12-01 15:18:08 1512159488.832569: $GPZDA,201809.00,01,12,2017,00,00*62
2017-12-01 15:18:08 1512159488.832748: $GPGGA,201809,3946.9591,N,08404.9856,W,2,12,0.60,293.58,M,-33.324,M,,*7F
2017-12-01 15:18:08 1512159488.832816: $GPRMC,201809,A,3946.9591,N,08404.9856,W,0.0000,0.000,011217,,*3F
2017-12-01 15:18:08 1512159488.832878: $GPGSA,A,3,10,12,14,18,24,25,31,32,1,11,21,138,2.0,0.6,1.5*36
2017-12-01 15:18:09 1512159489.383103: $GPZDA,201810.00,01,12,2017,00,00*6A
2017-12-01 15:18:09 1512159489.383289: $GPGGA,201810,3946.9588,N,08404.9857,W,2,12,0.60,294.35,M,-33.324,M,,*72
2017-12-01 15:18:09 1512159489.383359: $GPRMC,201810,A,3946.9588,N,08404.9857,W,0.0000,0.000,011217,,*3E
2017-12-01 15:18:09 1512159489.383423: $GPGSA,A,3,10,12,14,18,24,25,31,32,1,11,21,138,2.0,0.6,1.5*36
2017-12-01 15:18:10 1512159490.383488: $GPZDA,201811.00,01,12,2017,00,00*6B
2017-12-01 15:18:10 1512159490.383677: $GPGGA,201811,3946.9588,N,08404.9857,W,2,12,0.60,294.35,M,-33.324,M,,*73
2017-12-01 15:18:10 1512159490.383749: $GPRMC,201811,A,3946.9588,N,08404.9857,W,0.0000,0.000,011217,,*3F
2017-12-01 15:18:10 1512159490.383811: $GPGSA,A,3,10,12,14,18,24,25,31,32,1,11,21,138,2.0,0.6,1.5*36
2017-12-01 15:18:11 1512159491.720616: $GPGSV,3,1,12,10,81,097,46,12,22,085,46,14,46,277,43,18,49,127,48*7E
2017-12-01 15:18:11 1512159491.720799: $GPGSV,3,2,12,24,24,046,44,25,21,126,42,31,23,207,43,32,62,301,47*7B
2017-12-01 15:18:11 1512159491.720865: $GPGSV,3,3,12,01,06,325,31,11,08,312,35,21,05,174,18,138,38,213,46*4B
2017-12-01 15:18:11 1512159491.834375: $GPZDA,201812.00,01,12,2017,00,00*68
2017-12-01 15:18:11 1512159491.834514: $GPGGA,201812,3946.9588,N,08404.9857,W,2,12,0.60,294.35,M,-33.324,M,,*70
2017-12-01 15:18:11 1512159491.834580: $GPRMC,201812,A,3946.9588,N,08404.9857,W,0.0000,0.000,011217,,*3C
2017-12-01 15:18:11 1512159491.834641: $GPGSA,A,3,10,12,14,18,24,25,31,32,1,11,21,138,2.0,0.6,1.5*36
2017-12-01 15:18:12 1512159492.382396: $GPZDA,201813.00,01,12,2017,00,00*69
2017-12-01 15:18:12 1512159492.382589: $GPGGA,201813,3946.9588,N,08404.9857,W,2,12,0.60,294.35,M,-33.324,M,,*71
2017-12-01 15:18:12 1512159492.382660: $GPRMC,201813,A,3946.9588,N,08404.9857,W,0.0000,0.000,011217,,*3D
2017-12-01 15:18:12 1512159492.382722: $GPGSA,A,3,10,12,14,18,24,25,31,32,1,11,21,138,2.0,0.6,1.5*36
2017-12-01 15:18:13 1512159493.384813: $GPZDA,201814.00,01,12,2017,00,00*6E
2017-12-01 15:18:13 1512159493.384988: $GPGGA,201814,3946.9588,N,08404.9857,W,2,12,0.60,294.35,M,-33.324,M,,*76
2017-12-01 15:18:13 1512159493.385059: $GPRMC,201814,A,3946.9588,N,08404.9857,W,0.0000,0.000,011217,,*3A
2017-12-01 15:18:13 1512159493.385123: $GPGSA,A,3,10,12,14,18,24,25,31,32,1,11,21,138,2.0,0.6,1.5*36
2017-12-01 15:18:14 1512159494.718977: $GPGSV,3,1,12,10,81,097,47,12,22,085,46,14,46,277,42,18,49,127,49*7F
2017-12-01 15:18:14 1512159494.719171: $GPGSV,3,2,12,24,24,046,44,25,21,126,42,31,23,207,43,32,62,301,48*74
2017-12-01 15:18:14 1512159494.719239: $GPGSV,3,3,12,01,06,325,33,11,08,312,36,21,05,174,22,138,38,213,46*43
2017-12-01 15:18:14 1512159494.832412: $GPZDA,201815.00,01,12,2017,00,00*6F
2017-12-01 15:18:14 1512159494.832579: $GPGGA,201815,3946.9588,N,08404.9857,W,2,12,0.80,294.35,M,-33.324,M,,*79
2017-12-01 15:18:14 1512159494.832649: $GPRMC,201815,A,3946.9588,N,08404.9857,W,0.0000,0.000,011217,,*3B
2017-12-01 15:18:14 1512159494.832709: $GPGSA,A,3,10,12,14,18,24,25,31,32,1,11,21,138,2.0,0.8,1.5*38
2017-12-01 15:18:15 1512159495.458085: $GPZDA,201816.00,01,12,2017,00,00*6C
2017-12-01 15:18:15 1512159495.458264: $GPGGA,201816,3946.9588,N,08404.9857,W,2,12,0.80,294.35,M,-33.324,M,,*7A
2017-12-01 15:18:15 1512159495.458333: $GPRMC,201816,A,3946.9588,N,08404.9857,W,0.0000,0.000,011217,,*38
2017-12-01 15:18:15 1512159495.458395: $GPGSA,A,3,10,12,14,18,24,25,31,32,1,11,21,138,2.0,0.8,1.5*38
2017-12-01 15:18:16 1512159496.383942: $GPZDA,201817.00,01,12,2017,00,00*6D
2017-12-01 15:18:16 1512159496.384158: $GPGGA,201817,3946.9588,N,08404.9857,W,2,12,0.80,294.35,M,-33.324,M,,*7B
2017-12-01 15:18:16 1512159496.384230: $GPRMC,201817,A,3946.9588,N,08404.9857,W,0.0000,0.000,011217,,*39
2017-12-01 15:18:16 1512159496.384296: $GPGSA,A,3,10,12,14,18,24,25,31,32,1,11,21,138,2.0,0.8,1.5*38
