2017-11-16 15:49:43 1510865383.627974: {"class":"VERSION","release":"3.17","rev":"3.17","proto_major":3,"proto_minor":12}
2017-11-16 15:49:43 1510865383.628479: {"class":"DEVICES","devices":[{"class":"DEVICE","path":"/dev/ttyUSB0","driver":"SiRF","subtype":"9\u0006GSD4e_4.1.2-P1_RPATCH.05-F-GPS-4R-1510281 11/03/2015 307","activated":"2017-11-16T20:49:43.256Z","flags":1,"native":1,"bps":4800,"parity":"N","stopbits":1,"cycle":1.00}]}
2017-11-16 15:49:43 1510865383.628624: {"class":"WATCH","enable":true,"json":false,"nmea":true,"raw":0,"scaled":false,"timing":false,"split24":false,"pps":false}
2017-11-16 15:49:43 1510865383.705833: $GPGSV,3,1,12,11,03,322,32,10,79,355,50,14,37,264,44,15,03,072,20*71
2017-11-16 15:49:43 1510865383.706000: $GPGSV,3,2,12,18,62,112,49,25,11,135,24,21,18,177,42,24,36,051,50*70
2017-11-16 15:49:43 1510865383.706060: $GPGSV,3,3,12,31,09,204,23,32,54,279,45,12,16,097,44,138,38,213,45*41
2017-11-16 15:49:43 1510865383.819034: $GPZDA,204942.00,16,11,2017,00,00*6C
2017-11-16 15:49:43 1510865383.819147: $GPGGA,204942,3946.9579,N,08404.9851,W,2,11,1.20,308.80,M,-33.324,M,,*75
2017-11-16 15:49:43 1510865383.819205: $GPRMC,204942,A,3946.9579,N,08404.9851,W,0.0000,0.000,161117,,*30
2017-11-16 15:49:43 1510865383.819261: $GPGSA,A,3,11,10,14,18,25,21,24,31,32,12,138,,1.6,1.2,1.3*01
2017-11-16 15:49:44 1510865384.366219: $GPZDA,204943.00,16,11,2017,00,00*6D
2017-11-16 15:49:44 1510865384.366389: $GPGGA,204943,3946.9579,N,08404.9851,W,2,11,1.20,308.80,M,-33.324,M,,*74
2017-11-16 15:49:44 1510865384.366452: $GPRMC,204943,A,3946.9579,N,08404.9851,W,0.0000,0.000,161117,,*31
2017-11-16 15:49:44 1510865384.366508: $GPGSA,A,3,11,10,14,18,25,21,24,31,32,12,138,,1.6,1.2,1.3*01
2017-11-16 15:49:45 1510865385.370978: $GPZDA,204944.00,16,11,2017,00,00*6A
2017-11-16 15:49:45 1510865385.371229: $GPGGA,204944,3946.9579,N,08404.9851,W,2,11,1.20,308.80,M,-33.324,M,,*73
2017-11-16 15:49:45 1510865385.371334: $GPRMC,204944,A,3946.9579,N,08404.9851,W,0.0000,0.000,161117,,*36
2017-11-16 15:49:45 1510865385.371481: $GPGSA,A,3,11,10,14,18,25,21,24,31,32,12,138,,1.6,1.2,1.3*01
2017-11-16 15:49:46 1510865386.703673: $GPGSV,3,1,12,11,03,322,32,10,79,355,50,14,37,264,44,15,03,072,12*70
2017-11-16 15:49:46 1510865386.703844: $GPGSV,3,2,12,18,62,112,49,25,11,135,24,21,18,177,42,24,36,051,50*70
2017-11-16 15:49:46 1510865386.703905: $GPGSV,3,3,12,31,09,204,22,32,54,279,46,12,16,097,45,138,38,213,45*42
2017-11-16 15:49:46 1510865386.818501: $GPZDA,204945.00,16,11,2017,00,00*6B
2017-11-16 15:49:46 1510865386.818773: $GPGGA,204945,3946.9579,N,08404.9851,W,2,11,1.20,308.80,M,-33.324,M,,*72
2017-11-16 15:49:46 1510865386.818892: $GPRMC,204945,A,3946.9579,N,08404.9851,W,0.0000,0.000,161117,,*37
2017-11-16 15:49:46 1510865386.819007: $GPGSA,A,3,11,10,14,18,25,21,24,31,32,12,138,,1.6,1.2,1.3*01
2017-11-16 15:49:47 1510865387.366844: $GPZDA,204946.00,16,11,2017,00,00*68
2017-11-16 15:49:47 1510865387.366998: $GPGGA,204946,3946.9579,N,08404.9851,W,2,11,1.20,308.80,M,-33.324,M,,*71
2017-11-16 15:49:47 1510865387.367059: $GPRMC,204946,A,3946.9579,N,08404.9851,W,0.0000,0.000,161117,,*34
2017-11-16 15:49:47 1510865387.367116: $GPGSA,A,3,11,10,14,18,25,21,24,31,32,12,138,,1.6,1.2,1.3*01
2017-11-16 15:49:48 1510865388.387683: $GPZDA,204947.00,16,11,2017,00,00*69
2017-11-16 15:49:48 1510865388.387834: $GPGGA,204947,3946.9579,N,08404.9851,W,2,11,1.20,308.80,M,-33.324,M,,*70
2017-11-16 15:49:48 1510865388.387896: $GPRMC,204947,A,3946.9579,N,08404.9851,W,0.0000,0.000,161117,,*35
2017-11-16 15:49:48 1510865388.387952: $GPGSA,A,3,11,10,14,18,25,21,24,31,32,12,138,,1.6,1.2,1.3*01
2017-11-16 15:49:49 1510865389.705871: $GPGSV,3,1,12,11,03,322,27,10,79,355,50,14,37,264,44,15,03,072,20*75
2017-11-16 15:49:49 1510865389.706038: $GPGSV,3,2,12,18,62,112,49,25,11,135,24,21,18,177,42,24,36,051,50*70
2017-11-16 15:49:49 1510865389.706099: $GPGSV,3,3,12,31,09,204,07,32,54,279,46,12,16,097,45,138,38,213,44*44
2017-11-16 15:49:49 1510865389.819271: $GPZDA,204948.00,16,11,2017,00,00*66
2017-11-16 15:49:49 1510865389.819463: $GPGGA,204948,3946.9579,N,08404.9851,W,2,11,1.20,308.80,M,-33.324,M,,*7F
2017-11-16 15:49:49 1510865389.819610: $GPRMC,204948,A,3946.9579,N,08404.9851,W,0.0000,0.000,161117,,*3A
2017-11-16 15:49:49 1510865389.819807: $GPGSA,A,3,11,10,14,15,18,25,21,24,32,12,138,,1.6,1.2,1.3*07
2017-11-16 15:49:50 1510865390.362637: $GPZDA,204949.00,16,11,2017,00,00*67
2017-11-16 15:49:50 1510865390.362804: $GPGGA,204949,3946.9579,N,08404.9851,W,2,11,1.20,308.80,M,-33.324,M,,*7E
2017-11-16 15:49:50 1510865390.362865: $GPRMC,204949,A,3946.9579,N,08404.9851,W,0.0000,0.000,161117,,*3B
2017-11-16 15:49:50 1510865390.362986: $GPGSA,A,3,11,10,14,15,18,25,21,24,32,12,138,,1.6,1.2,1.3*07
2017-11-16 15:49:51 1510865391.382829: $GPZDA,204950.00,16,11,2017,00,00*6F
2017-11-16 15:49:51 1510865391.383054: $GPGGA,204950,3946.9579,N,08404.9851,W,2,11,1.20,308.80,M,-33.324,M,,*76
2017-11-16 15:49:51 1510865391.383116: $GPRMC,204950,A,3946.9579,N,08404.9851,W,0.0000,0.000,161117,,*33
2017-11-16 15:49:51 1510865391.383172: $GPGSA,A,3,11,10,14,15,18,25,21,24,32,12,138,,1.6,1.2,1.3*07
2017-11-16 15:49:52 1510865392.702379: $GPGSV,3,1,12,11,03,322,27,10,79,355,50,14,37,264,44,08,02,283,33*76
2017-11-16 15:49:52 1510865392.702567: $GPGSV,3,2,12,18,62,112,49,25,11,135,23,21,18,177,42,24,36,051,50*77
2017-11-16 15:49:52 1510865392.702629: $GPGSV,3,3,12,31,09,204,28,32,54,279,46,12,16,097,44,138,38,213,44*48
2017-11-16 15:49:52 1510865392.817126: $GPZDA,204951.00,16,11,2017,00,00*6E
2017-11-16 15:49:52 1510865392.817292: $GPGGA,204951,3946.9579,N,08404.9851,W,2,12,1.20,308.80,M,-33.324,M,,*74
2017-11-16 15:49:52 1510865392.817354: $GPRMC,204951,A,3946.9579,N,08404.9851,W,0.0000,0.000,161117,,*32
2017-11-16 15:49:52 1510865392.817411: $GPGSA,A,3,11,10,14,8,18,25,21,24,31,32,12,138,1.6,1.2,1.3*39
2017-11-16 15:49:53 1510865393.366914: $GPZDA,204952.00,16,11,2017,00,00*6D
2017-11-16 15:49:53 1510865393.367075: $GPGGA,204952,3946.9579,N,08404.9851,W,2,12,1.20,308.80,M,-33.324,M,,*77
2017-11-16 15:49:53 1510865393.367136: $GPRMC,204952,A,3946.9579,N,08404.9851,W,0.0000,0.000,161117,,*31
2017-11-16 15:49:53 1510865393.367192: $GPGSA,A,3,11,10,14,8,18,25,21,24,31,32,12,138,1.6,1.2,1.3*39
