2017-12-01 14:14:09 1512155649.227118: {"class":"VERSION","release":"3.16","rev":"3.16-4","proto_major":3,"proto_minor":11}
2017-12-01 14:14:09 1512155649.227574: {"class":"DEVICES","devices":[{"class":"DEVICE","path":"/dev/ttyUSB0","driver":"SiRF","subtype":"9\u0006GSD4e_4.1.2-P1_RPATCH.05-F-GPS-4R-1510281 11/03/2015 307","activated":"2017-12-01T19:14:08.555Z","flags":1,"native":1,"bps":4800,"parity":"N","stopbits":1,"cycle":1.00}]}
2017-12-01 14:14:09 1512155649.227702: {"class":"WATCH","enable":true,"json":false,"nmea":true,"raw":0,"scaled":false,"timing":false,"split24":false,"pps":false}
2017-12-01 14:14:09 1512155649.414895: $GPZDA,191410.00,01,12,2017,00,00*6C
2017-12-01 14:14:09 1512155649.415078: $GPGGA,191410,3946.9574,N,08404.9840,W,2,12,0.80,300.45,M,-33.324,M,,*74
2017-12-01 14:14:09 1512155649.415146: $GPRMC,191410,A,3946.9574,N,08404.9840,W,0.0000,0.000,011217,,*3D
2017-12-01 14:14:09 1512155649.415206: $GPGSA,A,3,10,14,18,21,24,32,8,12,15,20,27,138,2.0,0.8,1.5*37
2017-12-01 14:14:10 1512155650.724478: $GPGSV,3,1,12,10,65,325,50,14,25,250,38,18,73,082,43,21,33,180,44*7F
2017-12-01 14:14:10 1512155650.724710: $GPGSV,3,2,12,24,48,064,48,32,43,261,46,08,07,297,33,12,06,111,27*7C
2017-12-01 14:14:10 1512155650.724779: $GPGSV,3,3,12,15,14,064,28,20,12,115,27,27,09,264,30,138,38,213,46*4E
2017-12-01 14:14:10 1512155650.837724: $GPZDA,191411.00,01,12,2017,00,00*6D
2017-12-01 14:14:10 1512155650.837923: $GPGGA,191411,3946.9574,N,08404.9840,W,2,12,0.80,300.45,M,-33.324,M,,*75
2017-12-01 14:14:10 1512155650.837989: $GPRMC,191411,A,3946.9574,N,08404.9840,W,0.0000,0.000,011217,,*3C
2017-12-01 14:14:10 1512155650.838049: $GPGSA,A,3,10,14,18,21,24,32,8,12,15,20,27,138,2.0,0.8,1.5*37
2017-12-01 14:14:11 1512155651.463069: $GPZDA,191412.00,01,12,2017,00,00*6E
2017-12-01 14:14:11 1512155651.463244: $GPGGA,191412,3946.9574,N,08404.9840,W,2,12,0.80,300.45,M,-33.324,M,,*76
2017-12-01 14:14:11 1512155651.463310: $GPRMC,191412,A,3946.9574,N,08404.9840,W,0.0000,0.000,011217,,*3F
2017-12-01 14:14:11 1512155651.463392: $GPGSA,A,3,10,14,18,21,24,32,8,12,15,20,27,138,2.0,0.8,1.5*37
2017-12-01 14:14:12 1512155652.410200: $GPZDA,191413.00,01,12,2017,00,00*6F
2017-12-01 14:14:12 1512155652.410410: $GPGGA,191413,3946.9574,N,08404.9840,W,2,12,0.80,300.45,M,-33.324,M,,*77
2017-12-01 14:14:12 1512155652.410494: $GPRMC,191413,A,3946.9574,N,08404.9840,W,0.0000,0.000,011217,,*3E
2017-12-01 14:14:12 1512155652.410557: $GPGSA,A,3,10,14,18,21,24,32,8,12,15,20,27,138,2.0,0.8,1.5*37
2017-12-01 14:14:13 1512155653.752194: $GPGSV,3,1,12,10,65,325,50,14,25,250,38,18,73,082,43,21,33,180,44*7F
2017-12-01 14:14:13 1512155653.752392: $GPGSV,3,2,12,24,48,064,48,32,43,261,46,08,07,297,33,12,06,111,28*73
2017-12-01 14:14:13 1512155653.752461: $GPGSV,3,3,12,15,14,064,28,20,12,115,26,27,09,264,30,138,38,213,46*4F
2017-12-01 14:14:13 1512155653.865664: $GPZDA,191414.00,01,12,2017,00,00*68
2017-12-01 14:14:13 1512155653.866002: $GPGGA,191414,3946.9574,N,08404.9840,W,2,12,0.80,300.45,M,-33.324,M,,*70
2017-12-01 14:14:13 1512155653.866127: $GPRMC,191414,A,3946.9574,N,08404.9840,W,0.0000,0.000,011217,,*39
2017-12-01 14:14:13 1512155653.866247: $GPGSA,A,3,10,14,18,21,24,32,8,12,15,20,27,138,2.0,0.8,1.5*37
2017-12-01 14:14:14 1512155654.414184: $GPZDA,191415.00,01,12,2017,00,00*69
2017-12-01 14:14:14 1512155654.414527: $GPGGA,191415,3946.9571,N,08404.9841,W,2,12,0.80,301.21,M,-33.324,M,,*76
2017-12-01 14:14:14 1512155654.414653: $GPRMC,191415,A,3946.9571,N,08404.9841,W,0.0000,0.000,011217,,*3C
2017-12-01 14:14:14 1512155654.414772: $GPGSA,A,3,10,14,18,21,24,32,8,12,15,20,27,138,2.0,0.8,1.5*37
2017-12-01 14:14:15 1512155655.387581: $GPZDA,191416.00,01,12,2017,00,00*6A
2017-12-01 14:14:15 1512155655.387770: $GPGGA,191416,3946.9571,N,08404.9841,W,2,12,0.80,301.21,M,-33.324,M,,*75
2017-12-01 14:14:15 1512155655.387837: $GPRMC,191416,A,3946.9571,N,08404.9841,W,0.0000,0.000,011217,,*3F
2017-12-01 14:14:15 1512155655.387897: $GPGSA,A,3,10,14,18,21,24,32,8,12,15,20,27,138,2.0,0.8,1.5*37
2017-12-01 14:14:16 1512155656.722673: $GPGSV,3,1,12,10,65,325,49,14,25,250,37,18,73,082,43,21,33,180,44*78
2017-12-01 14:14:16 1512155656.722920: $GPGSV,3,2,12,24,48,064,48,32,43,261,46,08,07,297,34,12,06,111,28*74
2017-12-01 14:14:16 1512155656.722990: $GPGSV,3,3,12,15,14,064,28,20,12,115,26,27,09,264,28,138,38,213,46*46
2017-12-01 14:14:16 1512155656.835944: $GPZDA,191417.00,01,12,2017,00,00*6B
2017-12-01 14:14:16 1512155656.836141: $GPGGA,191417,3946.9571,N,08404.9841,W,2,12,0.80,301.21,M,-33.324,M,,*74
2017-12-01 14:14:16 1512155656.836211: $GPRMC,191417,A,3946.9571,N,08404.9841,W,0.0000,0.000,011217,,*3E
2017-12-01 14:14:16 1512155656.836272: $GPGSA,A,3,10,14,18,21,24,32,8,12,15,20,27,138,2.0,0.8,1.5*37
2017-12-01 14:14:17 1512155657.387085: $GPZDA,191418.00,01,12,2017,00,00*64
2017-12-01 14:14:17 1512155657.387257: $GPGGA,191418,3946.9571,N,08404.9841,W,2,12,0.80,301.21,M,-33.324,M,,*7B
2017-12-01 14:14:17 1512155657.387347: $GPRMC,191418,A,3946.9571,N,08404.9841,W,0.0000,0.000,011217,,*31
2017-12-01 14:14:17 1512155657.387410: $GPGSA,A,3,10,14,18,21,24,32,8,12,15,20,27,138,2.0,0.8,1.5*37
2017-12-01 14:14:18 1512155658.386488: $GPZDA,191419.00,01,12,2017,00,00*65
2017-12-01 14:14:18 1512155658.387040: $GPGGA,191419,3946.9571,N,08404.9841,W,2,12,0.80,301.21,M,-33.324,M,,*7A
2017-12-01 14:14:18 1512155658.392107: $GPRMC,191419,A,3946.9571,N,08404.9841,W,0.0000,0.000,011217,,*30
2017-12-01 14:14:18 1512155658.392366: $GPGSA,A,3,10,14,18,21,24,32,8,12,15,20,27,138,2.0,0.8,1.5*37
2017-12-01 14:14:19 1512155659.724675: $GPGSV,3,1,12,10,65,325,49,14,25,250,37,18,73,082,43,21,33,180,43*7F
2017-12-01 14:14:19 1512155659.724858: $GPGSV,3,2,12,24,48,064,48,32,43,261,46,08,07,297,33,12,06,111,28*73
2017-12-01 14:14:19 1512155659.724924: $GPGSV,3,3,12,15,14,064,28,20,12,115,26,27,09,264,29,138,38,213,46*47
2017-12-01 14:14:19 1512155659.838280: $GPZDA,191420.00,01,12,2017,00,00*6F
2017-12-01 14:14:19 1512155659.838459: $GPGGA,191420,3946.9571,N,08404.9841,W,2,12,0.80,301.21,M,-33.324,M,,*70
2017-12-01 14:14:19 1512155659.838526: $GPRMC,191420,A,3946.9571,N,08404.9841,W,0.0000,0.000,011217,,*3A
2017-12-01 14:14:19 1512155659.838586: $GPGSA,A,3,10,14,18,21,24,32,8,12,15,20,27,138,2.0,0.8,1.5*37
2017-12-01 14:14:20 1512155660.381414: $GPZDA,191421.00,01,12,2017,00,00*6E
2017-12-01 14:14:20 1512155660.381616: $GPGGA,191421,3946.9571,N,08404.9841,W,2,12,0.80,301.21,M,-33.324,M,,*71
2017-12-01 14:14:20 1512155660.381684: $GPRMC,191421,A,3946.9571,N,08404.9841,W,0.0000,0.000,011217,,*3B
2017-12-01 14:14:20 1512155660.381745: $GPGSA,A,3,10,14,18,21,24,32,8,12,15,20,27,138,2.0,0.8,1.5*37
2017-12-01 14:14:21 1512155661.386782: $GPZDA,191422.00,01,12,2017,00,00*6D
2017-12-01 14:14:21 1512155661.386984: $GPGGA,191422,3946.9571,N,08404.9841,W,2,12,0.80,301.21,M,-33.324,M,,*72
2017-12-01 14:14:21 1512155661.387053: $GPRMC,191422,A,3946.9571,N,08404.9841,W,0.0000,0.000,011217,,*38
2017-12-01 14:14:21 1512155661.387115: $GPGSA,A,3,10,14,18,21,24,32,8,12,15,20,27,138,2.0,0.8,1.5*37
2017-12-01 14:14:22 1512155662.721286: $GPGSV,3,1,12,10,65,325,49,14,25,250,37,18,73,082,44,21,33,180,43*78
2017-12-01 14:14:22 1512155662.721544: $GPGSV,3,2,12,24,48,064,48,32,43,261,46,08,07,297,31,12,06,111,28*71
2017-12-01 14:14:22 1512155662.721611: $GPGSV,3,3,12,15,14,064,29,20,12,115,26,27,09,264,36,138,38,213,47*49
2017-12-01 14:14:22 1512155662.834740: $GPZDA,191423.00,01,12,2017,00,00*6C
2017-12-01 14:14:22 1512155662.835075: $GPGGA,191423,3946.9571,N,08404.9841,W,2,12,0.80,301.21,M,-33.324,M,,*73
2017-12-01 14:14:22 1512155662.835226: $GPRMC,191423,A,3946.9571,N,08404.9841,W,0.0000,0.000,011217,,*39
2017-12-01 14:14:22 1512155662.835383: $GPGSA,A,3,10,14,18,21,24,32,8,12,15,20,27,138,2.0,0.8,1.5*37
2017-12-01 14:14:23 1512155663.387026: $GPZDA,191424.00,01,12,2017,00,00*6B
2017-12-01 14:14:23 1512155663.390951: $GPGGA,191424,3946.9567,N,08404.9841,W,2,12,0.80,301.98,M,-33.324,M,,*71
2017-12-01 14:14:23 1512155663.391055: $GPRMC,191424,A,3946.9567,N,08404.9841,W,0.0000,0.000,011217,,*39
2017-12-01 14:14:23 1512155663.391119: $GPGSA,A,3,10,14,18,21,24,32,8,12,15,20,27,138,2.0,0.8,1.5*37
2017-12-01 14:14:24 1512155664.387702: $GPZDA,191425.00,01,12,2017,00,00*6A
2017-12-01 14:14:24 1512155664.387871: $GPGGA,191425,3946.9567,N,08404.9841,W,2,12,0.80,301.98,M,-33.324,M,,*70
2017-12-01 14:14:24 1512155664.387940: $GPRMC,191425,A,3946.9567,N,08404.9841,W,0.0000,0.000,011217,,*38
2017-12-01 14:14:24 1512155664.388001: $GPGSA,A,3,10,14,18,21,24,32,8,12,15,20,27,138,2.0,0.8,1.5*37
2017-12-01 14:14:25 1512155665.722182: $GPGSV,3,1,12,10,65,325,49,14,25,250,38,18,73,082,44,21,33,180,43*77
2017-12-01 14:14:25 1512155665.722380: $GPGSV,3,2,12,24,48,064,48,32,43,261,46,08,07,297,28,12,06,111,28*79
2017-12-01 14:14:25 1512155665.722465: $GPGSV,3,3,12,15,14,064,29,20,12,115,26,27,09,264,35,138,38,213,46*4B
2017-12-01 14:14:25 1512155665.835516: $GPZDA,191426.00,01,12,2017,00,00*69
2017-12-01 14:14:25 1512155665.835749: $GPGGA,191426,3946.9567,N,08404.9841,W,2,12,0.80,301.98,M,-33.324,M,,*73
2017-12-01 14:14:25 1512155665.835816: $GPRMC,191426,A,3946.9567,N,08404.9841,W,0.0000,0.000,011217,,*3B
2017-12-01 14:14:25 1512155665.835877: $GPGSA,A,3,10,14,18,21,24,32,8,12,15,20,27,138,2.0,0.8,1.5*37
2017-12-01 14:14:26 1512155666.461102: $GPZDA,191427.00,01,12,2017,00,00*68
2017-12-01 14:14:26 1512155666.461483: $GPGGA,191427,3946.9567,N,08404.9841,W,2,12,0.80,301.98,M,-33.324,M,,*72
2017-12-01 14:14:26 1512155666.461577: $GPRMC,191427,A,3946.9567,N,08404.9841,W,0.0000,0.000,011217,,*3A
2017-12-01 14:14:26 1512155666.461640: $GPGSA,A,3,10,14,18,21,24,32,8,12,15,20,27,138,2.0,0.8,1.5*37
2017-12-01 14:14:27 1512155667.386751: $GPZDA,191428.00,01,12,2017,00,00*67
2017-12-01 14:14:27 1512155667.386929: $GPGGA,191428,3946.9567,N,08404.9841,W,2,12,0.80,301.98,M,-33.324,M,,*7D
2017-12-01 14:14:27 1512155667.386997: $GPRMC,191428,A,3946.9567,N,08404.9841,W,0.0000,0.000,011217,,*35
2017-12-01 14:14:27 1512155667.387058: $GPGSA,A,3,10,14,18,21,24,32,8,12,15,20,27,138,2.0,0.8,1.5*37
2017-12-01 14:14:28 1512155668.722500: $GPGSV,3,1,12,10,65,325,49,14,25,250,38,18,73,082,44,21,33,180,44*70
2017-12-01 14:14:28 1512155668.722697: $GPGSV,3,2,12,24,48,064,49,32,43,261,46,08,07,297,20,12,06,111,28*70
2017-12-01 14:14:28 1512155668.722765: $GPGSV,3,3,12,15,14,064,30,20,12,115,23,27,09,264,35,138,38,213,46*46
2017-12-01 14:14:28 1512155668.837513: $GPZDA,191429.00,01,12,2017,00,00*66
2017-12-01 14:14:28 1512155668.837712: $GPGGA,191429,3946.9567,N,08404.9834,W,2,12,0.80,302.06,M,-33.324,M,,*7A
2017-12-01 14:14:28 1512155668.837784: $GPRMC,191429,A,3946.9567,N,08404.9834,W,0.0000,0.000,011217,,*36
2017-12-01 14:14:28 1512155668.837850: $GPGSA,A,3,10,14,18,21,24,32,8,12,15,20,27,138,2.0,0.8,1.5*37
