2017-11-16 15:40:01 1510864801.408181: {"class":"VERSION","release":"3.17","rev":"3.17","proto_major":3,"proto_minor":12}
2017-11-16 15:40:01 1510864801.408660: {"class":"DEVICES","devices":[{"class":"DEVICE","path":"/dev/ttyUSB0","driver":"SiRF","subtype":"9\u0006GSD4e_4.1.2-P1_RPATCH.05-F-GPS-4R-1510281 11/03/2015 307","activated":"2017-11-16T20:40:01.255Z","flags":1,"native":1,"bps":4800,"parity":"N","stopbits":1,"cycle":1.00}]}
2017-11-16 15:40:01 1510864801.408777: {"class":"WATCH","enable":true,"json":false,"nmea":true,"raw":0,"scaled":false,"timing":false,"split24":false,"pps":false}
2017-11-16 15:40:01 1510864801.704531: $GPGSV,3,1,12,15,07,069,26,10,74,340,51,14,33,258,44,31,04,204,29*70
2017-11-16 15:40:01 1510864801.704702: $GPGSV,3,2,12,18,66,105,48,08,04,288,29,21,23,178,42,24,40,054,50*73
2017-11-16 15:40:01 1510864801.704761: $GPGSV,3,3,12,20,04,121,14,32,50,271,45,12,13,102,34,138,38,213,44*4E
2017-11-16 15:40:01 1510864801.817813: $GPZDA,204000.00,16,11,2017,00,00*63
2017-11-16 15:40:01 1510864801.817989: $GPGGA,204000,3946.9568,N,08404.9859,W,2,12,1.00,308.20,M,-33.324,M,,*79
2017-11-16 15:40:01 1510864801.818055: $GPRMC,204000,A,3946.9568,N,08404.9859,W,0.0000,0.000,161117,,*37
2017-11-16 15:40:01 1510864801.818112: $GPGSA,A,3,15,10,14,31,18,8,21,24,20,32,12,138,1.6,1.0,1.3*3A
2017-11-16 15:40:02 1510864802.360218: $GPZDA,204001.00,16,11,2017,00,00*62
2017-11-16 15:40:02 1510864802.360432: $GPGGA,204001,3946.9568,N,08404.9859,W,2,12,1.00,308.20,M,-33.324,M,,*78
2017-11-16 15:40:02 1510864802.360496: $GPRMC,204001,A,3946.9568,N,08404.9859,W,0.0000,0.000,161117,,*36
2017-11-16 15:40:02 1510864802.360553: $GPGSA,A,3,15,10,14,31,18,8,21,24,20,32,12,138,1.6,1.0,1.3*3A
2017-11-16 15:40:03 1510864803.373933: $GPZDA,204002.00,16,11,2017,00,00*61
2017-11-16 15:40:03 1510864803.374045: $GPGGA,204002,3946.9568,N,08404.9859,W,2,12,1.00,308.20,M,-33.324,M,,*7B
2017-11-16 15:40:03 1510864803.374076: $GPRMC,204002,A,3946.9568,N,08404.9859,W,0.0000,0.000,161117,,*35
2017-11-16 15:40:03 1510864803.374104: $GPGSA,A,3,15,10,14,31,18,8,21,24,20,32,12,138,1.6,1.0,1.3*3A
2017-11-16 15:40:04 1510864804.712909: $GPGSV,3,1,12,15,07,069,26,10,74,340,51,14,33,258,44,31,04,204,29*70
2017-11-16 15:40:04 1510864804.713115: $GPGSV,3,2,12,18,66,105,48,08,04,288,29,21,23,178,43,24,40,054,50*72
2017-11-16 15:40:04 1510864804.713180: $GPGSV,3,3,12,20,04,121,08,32,50,271,45,12,13,102,34,138,38,213,45*42
2017-11-16 15:40:04 1510864804.826227: $GPZDA,204003.00,16,11,2017,00,00*60
2017-11-16 15:40:04 1510864804.826417: $GPGGA,204003,3946.9568,N,08404.9859,W,2,12,1.00,308.20,M,-33.324,M,,*7A
2017-11-16 15:40:04 1510864804.826479: $GPRMC,204003,A,3946.9568,N,08404.9859,W,0.0000,0.000,161117,,*34
2017-11-16 15:40:04 1510864804.826536: $GPGSA,A,3,15,10,14,31,18,8,21,24,20,32,12,138,1.6,1.0,1.3*3A
2017-11-16 15:40:05 1510864805.368577: $GPZDA,204004.00,16,11,2017,00,00*67
2017-11-16 15:40:05 1510864805.368743: $GPGGA,204004,3946.9568,N,08404.9859,W,2,12,1.00,308.20,M,-33.324,M,,*7D
2017-11-16 15:40:05 1510864805.368804: $GPRMC,204004,A,3946.9568,N,08404.9859,W,0.0000,0.000,161117,,*33
2017-11-16 15:40:05 1510864805.368860: $GPGSA,A,3,15,10,14,31,18,8,21,24,20,32,12,138,1.6,1.0,1.3*3A
2017-11-16 15:40:06 1510864806.382316: $GPZDA,204005.00,16,11,2017,00,00*66
2017-11-16 15:40:06 1510864806.382492: $GPGGA,204005,3946.9568,N,08404.9859,W,2,12,1.00,308.20,M,-33.324,M,,*7C
2017-11-16 15:40:06 1510864806.382534: $GPRMC,204005,A,3946.9568,N,08404.9859,W,0.0000,0.000,161117,,*32
2017-11-16 15:40:06 1510864806.382571: $GPGSA,A,3,15,10,14,31,18,8,21,24,20,32,12,138,1.6,1.0,1.3*3A
2017-11-16 15:40:07 1510864807.704922: $GPGSV,3,1,12,15,07,069,26,10,74,340,51,14,33,258,44,31,04,204,29*70
2017-11-16 15:40:07 1510864807.705050: $GPGSV,3,2,12,18,66,105,47,08,04,288,29,21,23,178,42,24,40,054,50*7C
2017-11-16 15:40:07 1510864807.705081: $GPGSV,3,3,12,20,04,121,10,32,50,271,45,12,13,102,34,138,38,213,44*4A
2017-11-16 15:40:07 1510864807.816509: $GPZDA,204006.00,16,11,2017,00,00*65
2017-11-16 15:40:07 1510864807.816624: $GPGGA,204006,3946.9568,N,08404.9859,W,2,12,1.00,308.20,M,-33.324,M,,*7F
2017-11-16 15:40:07 1510864807.816692: $GPRMC,204006,A,3946.9568,N,08404.9859,W,0.0000,0.000,161117,,*31
2017-11-16 15:40:07 1510864807.816722: $GPGSA,A,3,15,10,14,31,18,8,21,24,20,32,12,138,1.6,1.0,1.3*3A
2017-11-16 15:40:08 1510864808.385535: $GPZDA,204007.00,16,11,2017,00,00*64
2017-11-16 15:40:08 1510864808.385701: $GPGGA,204007,3946.9568,N,08404.9859,W,2,12,1.00,308.20,M,-33.324,M,,*7E
2017-11-16 15:40:08 1510864808.385763: $GPRMC,204007,A,3946.9568,N,08404.9859,W,0.0000,0.000,161117,,*30
2017-11-16 15:40:08 1510864808.385820: $GPGSA,A,3,15,10,14,31,18,8,21,24,20,32,12,138,1.6,1.0,1.3*3A
2017-11-16 15:40:09 1510864809.385280: $GPZDA,204008.00,16,11,2017,00,00*6B
2017-11-16 15:40:09 1510864809.385446: $GPGGA,204008,3946.9568,N,08404.9859,W,2,12,1.00,308.20,M,-33.324,M,,*71
2017-11-16 15:40:09 1510864809.385509: $GPRMC,204008,A,3946.9568,N,08404.9859,W,0.0000,0.000,161117,,*3F
2017-11-16 15:40:09 1510864809.385566: $GPGSA,A,3,15,10,14,31,18,8,21,24,20,32,12,138,1.6,1.0,1.3*3A
2017-11-16 15:40:10 1510864810.703564: $GPGSV,3,1,12,15,07,069,25,10,74,340,51,14,33,258,45,31,04,204,29*72
2017-11-16 15:40:10 1510864810.710217: $GPGSV,3,2,12,18,66,105,47,25,07,138,22,21,23,178,42,24,40,054,50*73
2017-11-16 15:40:10 1510864810.710355: $GPGSV,3,3,12,08,04,288,28,32,50,271,45,12,13,102,34,138,38,213,44*4B
2017-11-16 15:40:10 1510864810.816904: $GPZDA,204009.00,16,11,2017,00,00*6A
2017-11-16 15:40:10 1510864810.817090: $GPGGA,204009,3946.9568,N,08404.9859,W,2,12,1.00,308.20,M,-33.324,M,,*70
2017-11-16 15:40:10 1510864810.817151: $GPRMC,204009,A,3946.9568,N,08404.9859,W,0.0000,0.000,161117,,*3E
2017-11-16 15:40:10 1510864810.817208: $GPGSA,A,3,15,10,14,31,18,25,21,24,8,32,12,138,1.6,1.0,1.3*3F
