2017-12-01 12:06:08 1512147968.835390: {"class":"VERSION","release":"3.16","rev":"3.16-4","proto_major":3,"proto_minor":11}
2017-12-01 12:06:08 1512147968.835804: {"class":"DEVICES","devices":[{"class":"DEVICE","path":"/dev/ttyUSB0","driver":"SiRF","subtype":"9\u0006GSD4e_4.1.2-P1_RPATCH.05-F-GPS-4R-1510281 11/03/2015 307","activated":"2017-12-01T17:06:08.501Z","flags":1,"native":1,"bps":4800,"parity":"N","stopbits":1,"cycle":1.00}]}
2017-12-01 12:06:08 1512147968.835921: {"class":"WATCH","enable":true,"json":false,"nmea":true,"raw":0,"scaled":false,"timing":false,"split24":false,"pps":false}
2017-12-01 12:06:09 1512147969.705033: $GPGSV,3,1,12,10,20,279,42,13,34,046,44,15,66,054,45,18,50,295,45*71
2017-12-01 12:06:09 1512147969.705219: $GPGSV,3,2,12,20,55,064,46,21,75,289,44,24,29,142,45,27,14,318,41*7F
2017-12-01 12:06:09 1512147969.705286: $GPGSV,3,3,12,29,15,192,32,05,07,084,21,04,04,135,00,138,38,213,46*47
2017-12-01 12:06:09 1512147969.818430: $GPZDA,170610.00,01,12,2017,00,00*61
2017-12-01 12:06:09 1512147969.818603: $GPGGA,170610,3946.9581,N,08404.9818,W,2,11,0.80,300.56,M,-33.324,M,,*7F
2017-12-01 12:06:09 1512147969.818670: $GPRMC,170610,A,3946.9581,N,08404.9818,W,0.0000,0.000,011217,,*37
2017-12-01 12:06:09 1512147969.818731: $GPGSA,A,3,10,13,15,18,20,21,24,27,29,5,138,,2.0,0.8,1.5*34
2017-12-01 12:06:10 1512147970.443982: $GPZDA,170611.00,01,12,2017,00,00*60
2017-12-01 12:06:10 1512147970.444147: $GPGGA,170611,3946.9581,N,08404.9818,W,2,11,0.80,300.56,M,-33.324,M,,*7E
2017-12-01 12:06:10 1512147970.444213: $GPRMC,170611,A,3946.9581,N,08404.9818,W,0.0000,0.000,011217,,*36
2017-12-01 12:06:10 1512147970.444274: $GPGSA,A,3,10,13,15,18,20,21,24,27,29,5,138,,2.0,0.8,1.5*34
2017-12-01 12:06:11 1512147971.353488: $GPZDA,170612.00,01,12,2017,00,00*63
2017-12-01 12:06:11 1512147971.353655: $GPGGA,170612,3946.9581,N,08404.9818,W,2,11,0.80,300.56,M,-33.324,M,,*7D
2017-12-01 12:06:11 1512147971.353722: $GPRMC,170612,A,3946.9581,N,08404.9818,W,0.0000,0.000,011217,,*35
2017-12-01 12:06:11 1512147971.353783: $GPGSA,A,3,10,13,15,18,20,21,24,27,29,5,138,,2.0,0.8,1.5*34
2017-12-01 12:06:12 1512147972.706647: $GPGSV,3,1,12,10,20,279,41,13,34,046,44,15,66,054,45,18,50,295,45*72
2017-12-01 12:06:12 1512147972.706830: $GPGSV,3,2,12,20,55,064,46,21,75,289,44,24,29,142,45,27,14,318,41*7F
2017-12-01 12:06:12 1512147972.706897: $GPGSV,3,3,12,29,15,192,32,05,07,084,21,04,04,135,00,138,38,213,46*47
2017-12-01 12:06:12 1512147972.820015: $GPZDA,170613.00,01,12,2017,00,00*62
2017-12-01 12:06:12 1512147972.820191: $GPGGA,170613,3946.9581,N,08404.9818,W,2,11,0.80,300.56,M,-33.324,M,,*7C
2017-12-01 12:06:12 1512147972.820258: $GPRMC,170613,A,3946.9581,N,08404.9818,W,0.0000,0.000,011217,,*34
2017-12-01 12:06:12 1512147972.820319: $GPGSA,A,3,10,13,15,18,20,21,24,27,29,5,138,,2.0,0.8,1.5*34
2017-12-01 12:06:13 1512147973.354670: $GPZDA,170614.00,01,12,2017,00,00*65
2017-12-01 12:06:13 1512147973.354843: $GPGGA,170614,3946.9581,N,08404.9818,W,2,11,0.80,300.56,M,-33.324,M,,*7B
2017-12-01 12:06:13 1512147973.354909: $GPRMC,170614,A,3946.9581,N,08404.9818,W,0.0000,0.000,011217,,*33
2017-12-01 12:06:13 1512147973.354970: $GPGSA,A,3,10,13,15,18,20,21,24,27,29,5,138,,2.0,0.8,1.5*34
2017-12-01 12:06:14 1512147974.354286: $GPZDA,170615.00,01,12,2017,00,00*64
2017-12-01 12:06:14 1512147974.354462: $GPGGA,170615,3946.9581,N,08404.9818,W,2,11,0.80,300.56,M,-33.324,M,,*7A
2017-12-01 12:06:14 1512147974.354529: $GPRMC,170615,A,3946.9581,N,08404.9818,W,0.0000,0.000,011217,,*32
2017-12-01 12:06:14 1512147974.354590: $GPGSA,A,3,10,13,15,18,20,21,24,27,29,5,138,,2.0,0.8,1.5*34
2017-12-01 12:06:15 1512147975.710721: $GPGSV,3,1,12,10,20,279,41,13,34,046,43,15,66,054,45,18,50,295,45*75
2017-12-01 12:06:15 1512147975.710887: $GPGSV,3,2,12,20,55,064,46,21,75,289,44,24,29,142,45,27,14,318,42*7C
2017-12-01 12:06:15 1512147975.710953: $GPGSV,3,3,12,29,15,192,32,05,07,084,20,04,04,135,00,138,38,213,46*46
2017-12-01 12:06:15 1512147975.824101: $GPZDA,170616.00,01,12,2017,00,00*67
2017-12-01 12:06:15 1512147975.824275: $GPGGA,170616,3946.9581,N,08404.9818,W,2,11,0.80,300.56,M,-33.324,M,,*79
2017-12-01 12:06:15 1512147975.824391: $GPRMC,170616,A,3946.9581,N,08404.9818,W,0.0000,0.000,011217,,*31
2017-12-01 12:06:15 1512147975.824454: $GPGSA,A,3,10,13,15,18,20,21,24,27,29,5,138,,2.0,0.8,1.5*34
2017-12-01 12:06:16 1512147976.353774: $GPZDA,170617.00,01,12,2017,00,00*66
2017-12-01 12:06:16 1512147976.353947: $GPGGA,170617,3946.9581,N,08404.9818,W,2,11,0.80,300.56,M,-33.324,M,,*78
2017-12-01 12:06:16 1512147976.354014: $GPRMC,170617,A,3946.9581,N,08404.9818,W,0.0000,0.000,011217,,*30
2017-12-01 12:06:16 1512147976.354075: $GPGSA,A,3,10,13,15,18,20,21,24,27,29,5,138,,2.0,0.8,1.5*34
2017-12-01 12:06:17 1512147977.370833: $GPZDA,170618.00,01,12,2017,00,00*69
2017-12-01 12:06:17 1512147977.371011: $GPGGA,170618,3946.9581,N,08404.9818,W,2,11,0.80,300.56,M,-33.324,M,,*77
2017-12-01 12:06:17 1512147977.371079: $GPRMC,170618,A,3946.9581,N,08404.9818,W,0.0000,0.000,011217,,*3F
2017-12-01 12:06:17 1512147977.371140: $GPGSA,A,3,10,13,15,18,20,21,24,27,29,5,138,,2.0,0.8,1.5*34
2017-12-01 12:06:18 1512147978.690328: $GPGSV,3,1,12,10,20,279,41,13,34,046,43,15,66,054,45,18,50,295,45*75
2017-12-01 12:06:18 1512147978.690513: $GPGSV,3,2,12,20,55,064,46,21,75,289,44,24,29,142,45,27,14,318,42*7C
2017-12-01 12:06:18 1512147978.690581: $GPGSV,3,3,12,29,15,192,31,05,07,084,20,04,04,135,00,138,38,213,46*45
2017-12-01 12:06:18 1512147978.804371: $GPZDA,170619.00,01,12,2017,00,00*68
2017-12-01 12:06:18 1512147978.804564: $GPGGA,170619,3946.9581,N,08404.9818,W,2,11,0.80,300.56,M,-33.324,M,,*76
2017-12-01 12:06:18 1512147978.804635: $GPRMC,170619,A,3946.9581,N,08404.9818,W,0.0000,0.000,011217,,*3E
2017-12-01 12:06:18 1512147978.804699: $GPGSA,A,3,10,13,15,18,20,21,24,27,29,5,138,,2.0,0.8,1.5*34
