2017-11-16 17:32:09 1510871529.660534: {"class":"VERSION","release":"3.17","rev":"3.17","proto_major":3,"proto_minor":12}
2017-11-16 17:32:09 1510871529.661054: {"class":"DEVICES","devices":[{"class":"DEVICE","path":"/dev/ttyUSB0","driver":"SiRF","subtype":"9\u0006GSD4e_4.1.2-P1_RPATCH.05-F-GPS-4R-1510281 11/03/2015 307","activated":"2017-11-16T22:32:09.286Z","flags":1,"native":1,"bps":4800,"parity":"N","stopbits":1,"cycle":1.00}]}
2017-11-16 17:32:09 1510871529.661168: {"class":"WATCH","enable":true,"json":false,"nmea":true,"raw":0,"scaled":false,"timing":false,"split24":false,"pps":false}
2017-11-16 17:32:09 1510871529.735809: $GPGSV,3,1,12,01,21,301,39,10,48,148,49,22,18,312,42,12,22,051,51*73
2017-11-16 17:32:09 1510871529.735946: $GPGSV,3,2,12,14,66,327,47,18,19,144,40,26,01,183,21,11,08,282,38*78
2017-11-16 17:32:09 1510871529.736003: $GPGSV,3,3,12,25,39,091,47,31,55,225,49,32,69,025,49,138,38,213,44*43
2017-11-16 17:32:09 1510871529.849231: $GPZDA,223208.00,16,11,2017,00,00*6C
2017-11-16 17:32:09 1510871529.849410: $GPGGA,223208,3946.9572,N,08404.9835,W,2,11,0.80,304.10,M,-33.324,M,,*72
2017-11-16 17:32:09 1510871529.849708: $GPRMC,223208,A,3946.9572,N,08404.9835,W,0.0000,0.000,161117,,*39
2017-11-16 17:32:09 1510871529.849782: $GPGSA,A,3,1,10,22,12,14,18,11,25,31,32,138,,1.6,0.8,1.3*3E
2017-11-16 17:32:10 1510871530.422608: $GPZDA,223209.00,16,11,2017,00,00*6D
2017-11-16 17:32:10 1510871530.422778: $GPGGA,223209,3946.9572,N,08404.9835,W,2,11,0.80,304.10,M,-33.324,M,,*73
2017-11-16 17:32:10 1510871530.422860: $GPRMC,223209,A,3946.9572,N,08404.9835,W,0.0000,0.000,161117,,*38
2017-11-16 17:32:10 1510871530.422918: $GPGSA,A,3,1,10,22,12,14,18,11,25,31,32,138,,1.6,0.8,1.3*3E
2017-11-16 17:32:11 1510871531.422906: $GPZDA,223210.00,16,11,2017,00,00*65
2017-11-16 17:32:11 1510871531.423072: $GPGGA,223210,3946.9572,N,08404.9835,W,2,11,0.80,304.10,M,-33.324,M,,*7B
2017-11-16 17:32:11 1510871531.423133: $GPRMC,223210,A,3946.9572,N,08404.9835,W,0.0000,0.000,161117,,*30
2017-11-16 17:32:11 1510871531.423189: $GPGSA,A,3,1,10,22,12,14,18,11,25,31,32,138,,1.6,0.8,1.3*3E
2017-11-16 17:32:12 1510871532.737443: $GPGSV,3,1,12,01,21,301,39,10,48,148,49,22,18,312,42,12,22,051,50*72
2017-11-16 17:32:12 1510871532.737611: $GPGSV,3,2,12,14,66,327,47,18,19,144,40,26,01,183,09,11,08,282,38*72
2017-11-16 17:32:12 1510871532.737671: $GPGSV,3,3,12,25,39,091,48,31,55,225,48,32,69,025,50,138,38,213,44*45
2017-11-16 17:32:12 1510871532.851057: $GPZDA,223211.00,16,11,2017,00,00*64
2017-11-16 17:32:12 1510871532.851212: $GPGGA,223211,3946.9572,N,08404.9835,W,2,11,0.80,304.10,M,-33.324,M,,*7A
2017-11-16 17:32:12 1510871532.851273: $GPRMC,223211,A,3946.9572,N,08404.9835,W,0.0000,0.000,161117,,*31
2017-11-16 17:32:12 1510871532.851329: $GPGSA,A,3,1,10,22,12,14,18,11,25,31,32,138,,1.6,0.8,1.3*3E
2017-11-16 17:32:13 1510871533.424360: $GPZDA,223212.00,16,11,2017,00,00*67
2017-11-16 17:32:13 1510871533.424521: $GPGGA,223212,3946.9572,N,08404.9835,W,2,11,0.80,304.10,M,-33.324,M,,*79
2017-11-16 17:32:13 1510871533.424582: $GPRMC,223212,A,3946.9572,N,08404.9835,W,0.0000,0.000,161117,,*32
2017-11-16 17:32:13 1510871533.424638: $GPGSA,A,3,1,10,22,12,14,18,11,25,31,32,138,,1.6,0.8,1.3*3E
2017-11-16 17:32:14 1510871534.416492: $GPZDA,223213.00,16,11,2017,00,00*66
2017-11-16 17:32:14 1510871534.416662: $GPGGA,223213,3946.9572,N,08404.9835,W,2,11,0.80,304.10,M,-33.324,M,,*78
2017-11-16 17:32:14 1510871534.416724: $GPRMC,223213,A,3946.9572,N,08404.9835,W,0.0000,0.000,161117,,*33
2017-11-16 17:32:14 1510871534.416780: $GPGSA,A,3,1,10,22,12,14,18,11,25,31,32,138,,1.6,0.8,1.3*3E
2017-11-16 17:32:15 1510871535.735699: $GPGSV,3,1,12,01,21,301,40,10,48,148,50,22,18,312,41,12,22,051,50*77
2017-11-16 17:32:15 1510871535.735864: $GPGSV,3,2,12,14,66,327,47,18,19,144,40,26,01,183,00,11,08,282,38*7B
2017-11-16 17:32:15 1510871535.735924: $GPGSV,3,3,12,25,39,091,48,31,55,225,48,32,69,025,49,138,38,213,44*4D
2017-11-16 17:32:15 1510871535.849228: $GPZDA,223214.00,16,11,2017,00,00*61
2017-11-16 17:32:15 1510871535.849385: $GPGGA,223214,3946.9572,N,08404.9835,W,2,11,0.80,304.10,M,-33.324,M,,*7F
2017-11-16 17:32:15 1510871535.849497: $GPRMC,223214,A,3946.9572,N,08404.9835,W,0.0000,0.000,161117,,*34
2017-11-16 17:32:15 1510871535.849555: $GPGSA,A,3,1,10,22,12,14,18,11,25,31,32,138,,1.6,0.8,1.3*3E
2017-11-16 17:32:16 1510871536.474600: $GPZDA,223215.00,16,11,2017,00,00*60
2017-11-16 17:32:16 1510871536.474744: $GPGGA,223215,3946.9572,N,08404.9835,W,2,11,0.80,304.10,M,-33.324,M,,*7E
2017-11-16 17:32:16 1510871536.474805: $GPRMC,223215,A,3946.9572,N,08404.9835,W,0.0000,0.000,161117,,*35
2017-11-16 17:32:16 1510871536.474861: $GPGSA,A,3,1,10,22,12,14,18,11,25,31,32,138,,1.6,0.8,1.3*3E
2017-11-16 17:32:17 1510871537.399190: $GPZDA,223216.00,16,11,2017,00,00*63
2017-11-16 17:32:17 1510871537.399350: $GPGGA,223216,3946.9572,N,08404.9835,W,2,11,0.80,304.10,M,-33.324,M,,*7D
2017-11-16 17:32:17 1510871537.399410: $GPRMC,223216,A,3946.9572,N,08404.9835,W,0.0000,0.000,161117,,*36
2017-11-16 17:32:17 1510871537.399466: $GPGSA,A,3,1,10,22,12,14,18,11,25,31,32,138,,1.6,0.8,1.3*3E
2017-11-16 17:32:18 1510871538.737210: $GPGSV,3,1,12,01,21,301,39,10,48,148,49,22,18,312,42,12,22,051,50*72
2017-11-16 17:32:18 1510871538.737385: $GPGSV,3,2,12,14,66,327,47,18,19,144,40,26,01,183,00,11,08,282,38*7B
2017-11-16 17:32:18 1510871538.737445: $GPGSV,3,3,12,25,39,091,47,31,55,225,48,32,69,025,49,138,38,213,44*42
2017-11-16 17:32:18 1510871538.850797: $GPZDA,223217.00,16,11,2017,00,00*62
2017-11-16 17:32:18 1510871538.850952: $GPGGA,223217,3946.9572,N,08404.9835,W,2,11,0.80,304.10,M,-33.324,M,,*7C
2017-11-16 17:32:18 1510871538.851013: $GPRMC,223217,A,3946.9572,N,08404.9835,W,0.0000,0.000,161117,,*37
2017-11-16 17:32:18 1510871538.851069: $GPGSA,A,3,1,10,22,12,14,18,11,25,31,32,138,,1.6,0.8,1.3*3E
2017-11-16 17:32:19 1510871539.400378: $GPZDA,223218.00,16,11,2017,00,00*6D
2017-11-16 17:32:19 1510871539.400536: $GPGGA,223218,3946.9572,N,08404.9835,W,2,11,0.80,304.10,M,-33.324,M,,*73
2017-11-16 17:32:19 1510871539.400598: $GPRMC,223218,A,3946.9572,N,08404.9835,W,0.0000,0.000,161117,,*38
2017-11-16 17:32:19 1510871539.400653: $GPGSA,A,3,1,10,22,12,14,18,11,25,31,32,138,,1.6,0.8,1.3*3E
