2017-12-01 13:08:44 1512151724.337653: {"class":"VERSION","release":"3.16","rev":"3.16-4","proto_major":3,"proto_minor":11}
2017-12-01 13:08:44 1512151724.338018: {"class":"DEVICES","devices":[{"class":"DEVICE","path":"/dev/ttyUSB0","driver":"SiRF","subtype":"9\u0006GSD4e_4.1.2-P1_RPATCH.05-F-GPS-4R-1510281 11/03/2015 307","activated":"2017-12-01T18:08:44.275Z","flags":1,"native":1,"bps":4800,"parity":"N","stopbits":1,"cycle":1.00}]}
2017-12-01 13:08:44 1512151724.338132: {"class":"WATCH","enable":true,"json":false,"nmea":true,"raw":0,"scaled":false,"timing":false,"split24":false,"pps":false}
2017-12-01 13:08:44 1512151724.724742: $GPGSV,3,1,12,10,40,300,44,15,39,052,48,18,70,333,45,20,35,094,46*7C
2017-12-01 13:08:44 1512151724.724911: $GPGSV,3,2,12,21,65,190,46,24,50,112,47,27,19,291,39,32,19,237,40*75
2017-12-01 13:08:44 1512151724.724977: $GPGSV,3,3,12,08,05,324,35,13,09,048,17,14,03,231,00,138,38,213,46*40
2017-12-01 13:08:44 1512151724.838453: $GPZDA,180845.00,01,12,2017,00,00*60
2017-12-01 13:08:44 1512151724.838620: $GPGGA,180845,3946.9567,N,08404.9854,W,2,11,0.80,299.01,M,-33.324,M,,*7D
2017-12-01 13:08:44 1512151724.838686: $GPRMC,180845,A,3946.9567,N,08404.9854,W,0.0000,0.000,011217,,*36
2017-12-01 13:08:44 1512151724.838747: $GPGSA,A,3,10,15,18,20,21,24,27,32,8,13,138,,2.0,0.8,1.5*33
2017-12-01 13:08:45 1512151725.411818: $GPZDA,180846.00,01,12,2017,00,00*63
2017-12-01 13:08:45 1512151725.411972: $GPGGA,180846,3946.9567,N,08404.9854,W,2,11,0.80,299.01,M,-33.324,M,,*7E
2017-12-01 13:08:45 1512151725.412039: $GPRMC,180846,A,3946.9567,N,08404.9854,W,0.0000,0.000,011217,,*35
2017-12-01 13:08:45 1512151725.412101: $GPGSA,A,3,10,15,18,20,21,24,27,32,8,13,138,,2.0,0.8,1.5*33
2017-12-01 13:08:46 1512151726.411403: $GPZDA,180847.00,01,12,2017,00,00*62
2017-12-01 13:08:46 1512151726.411573: $GPGGA,180847,3946.9567,N,08404.9854,W,2,11,0.80,299.01,M,-33.324,M,,*7F
2017-12-01 13:08:46 1512151726.411640: $GPRMC,180847,A,3946.9567,N,08404.9854,W,0.0000,0.000,011217,,*34
2017-12-01 13:08:46 1512151726.411700: $GPGSA,A,3,10,15,18,20,21,24,27,32,8,13,138,,2.0,0.8,1.5*33
2017-12-01 13:08:47 1512151727.729362: $GPGSV,3,1,12,10,40,300,44,15,39,052,48,18,70,333,45,20,35,094,45*7F
2017-12-01 13:08:47 1512151727.729548: $GPGSV,3,2,12,21,65,190,46,24,50,112,47,27,19,291,39,32,19,237,41*74
2017-12-01 13:08:47 1512151727.729616: $GPGSV,3,3,12,08,05,324,35,13,09,048,17,14,03,231,00,138,38,213,46*40
2017-12-01 13:08:47 1512151727.843090: $GPZDA,180848.00,01,12,2017,00,00*6D
2017-12-01 13:08:47 1512151727.843266: $GPGGA,180848,3946.9567,N,08404.9854,W,2,11,0.80,299.01,M,-33.324,M,,*70
2017-12-01 13:08:47 1512151727.843333: $GPRMC,180848,A,3946.9567,N,08404.9854,W,0.0000,0.000,011217,,*3B
2017-12-01 13:08:47 1512151727.843395: $GPGSA,A,3,10,15,18,20,21,24,27,32,8,13,138,,2.0,0.8,1.5*33
2017-12-01 13:08:48 1512151728.468110: $GPZDA,180849.00,01,12,2017,00,00*6C
2017-12-01 13:08:48 1512151728.468280: $GPGGA,180849,3946.9567,N,08404.9854,W,2,11,0.80,299.01,M,-33.324,M,,*71
2017-12-01 13:08:48 1512151728.468346: $GPRMC,180849,A,3946.9567,N,08404.9854,W,0.0000,0.000,011217,,*3A
2017-12-01 13:08:48 1512151728.468407: $GPGSA,A,3,10,15,18,20,21,24,27,32,8,13,138,,2.0,0.8,1.5*33
2017-12-01 13:08:49 1512151729.420217: $GPZDA,180850.00,01,12,2017,00,00*64
2017-12-01 13:08:49 1512151729.420386: $GPGGA,180850,3946.9567,N,08404.9854,W,2,11,0.80,299.01,M,-33.324,M,,*79
2017-12-01 13:08:49 1512151729.420452: $GPRMC,180850,A,3946.9567,N,08404.9854,W,0.0000,0.000,011217,,*32
2017-12-01 13:08:49 1512151729.420514: $GPGSA,A,3,10,15,18,20,21,24,27,32,8,13,138,,2.0,0.8,1.5*33
2017-12-01 13:08:50 1512151730.731064: $GPGSV,3,1,12,10,40,300,44,15,39,052,47,18,70,333,45,20,35,094,46*73
2017-12-01 13:08:50 1512151730.731232: $GPGSV,3,2,12,21,65,190,45,24,50,112,48,27,19,291,38,32,19,237,41*79
2017-12-01 13:08:50 1512151730.731299: $GPGSV,3,3,12,08,05,324,36,13,09,048,18,14,03,231,19,138,38,213,46*44
2017-12-01 13:08:50 1512151730.844626: $GPZDA,180851.00,01,12,2017,00,00*65
2017-12-01 13:08:50 1512151730.844793: $GPGGA,180851,3946.9567,N,08404.9854,W,2,11,0.80,299.01,M,-33.324,M,,*78
2017-12-01 13:08:50 1512151730.844911: $GPRMC,180851,A,3946.9567,N,08404.9854,W,0.0000,0.000,011217,,*33
2017-12-01 13:08:50 1512151730.844974: $GPGSA,A,3,10,15,18,20,21,24,27,32,8,13,138,,2.0,0.8,1.5*33
2017-12-01 13:08:51 1512151731.411789: $GPZDA,180852.00,01,12,2017,00,00*66
2017-12-01 13:08:51 1512151731.411950: $GPGGA,180852,3946.9567,N,08404.9854,W,2,11,0.80,299.01,M,-33.324,M,,*7B
2017-12-01 13:08:51 1512151731.412016: $GPRMC,180852,A,3946.9567,N,08404.9854,W,0.0000,0.000,011217,,*30
2017-12-01 13:08:51 1512151731.412078: $GPGSA,A,3,10,15,18,20,21,24,27,32,8,13,138,,2.0,0.8,1.5*33
2017-12-01 13:08:52 1512151732.393496: $GPZDA,180853.00,01,12,2017,00,00*67
2017-12-01 13:08:52 1512151732.393665: $GPGGA,180853,3946.9567,N,08404.9854,W,2,11,0.80,299.01,M,-33.324,M,,*7A
2017-12-01 13:08:52 1512151732.393731: $GPRMC,180853,A,3946.9567,N,08404.9854,W,0.0000,0.000,011217,,*31
2017-12-01 13:08:52 1512151732.393792: $GPGSA,A,3,10,15,18,20,21,24,27,32,8,13,138,,2.0,0.8,1.5*33
2017-12-01 13:08:53 1512151733.728829: $GPGSV,3,1,12,10,40,300,44,15,39,052,48,18,70,333,45,20,35,094,46*7C
2017-12-01 13:08:53 1512151733.728984: $GPGSV,3,2,12,21,65,190,46,24,50,112,48,27,19,291,38,32,19,237,41*7A
2017-12-01 13:08:53 1512151733.729050: $GPGSV,3,3,12,08,05,324,37,13,09,048,19,14,03,231,21,138,38,213,46*4F
2017-12-01 13:08:53 1512151733.842526: $GPZDA,180854.00,01,12,2017,00,00*60
2017-12-01 13:08:53 1512151733.842699: $GPGGA,180854,3946.9567,N,08404.9854,W,2,12,0.80,299.01,M,-33.324,M,,*7E
2017-12-01 13:08:53 1512151733.842765: $GPRMC,180854,A,3946.9567,N,08404.9854,W,0.0000,0.000,011217,,*36
2017-12-01 13:08:53 1512151733.842826: $GPGSA,A,3,10,15,18,20,21,24,27,32,8,13,14,138,2.0,0.8,1.5*36
