2017-12-14 12:02:25 1513270945.335569: {"class":"VERSION","release":"3.16","rev":"3.16-4","proto_major":3,"proto_minor":11}
2017-12-14 12:02:25 1513270945.335922: {"class":"DEVICES","devices":[{"class":"DEVICE","path":"/dev/ttyUSB0","driver":"SiRF","subtype":"9\u0006GSD4e_4.1.2-P1_RPATCH.05-F-GPS-4R-1510281 11/03/2015 307","activated":"2017-12-14T17:02:25.137Z","flags":1,"native":1,"bps":4800,"parity":"N","stopbits":1,"cycle":1.00}]}
2017-12-14 12:02:25 1513270945.336038: {"class":"WATCH","enable":true,"json":false,"nmea":true,"raw":0,"scaled":false,"timing":false,"split24":false,"pps":false}
2017-12-14 12:02:26 1513270946.423885: $GPRMC,170227,V,18000.0000,N,00000.0000,W,0.0000,0.000,141217,,*10
2017-12-14 12:02:26 1513270946.424040: $GPGSA,A,1,32,15,20,24,10,21,,,,,,,,,,*31
2017-12-14 12:02:27 1513270947.379719: $GPRMC,170228,V,3946.9516,N,08404.9360,W,0.0000,0.000,141217,,*21
2017-12-14 12:02:27 1513270947.379895: $GPGSA,A,1,32,15,20,24,10,21,,,,,,,,,,*31
2017-12-14 12:02:27 1513270947.970717: $GPGSV,3,1,10,10,36,295,06,15,44,051,08,18,67,324,05,21,70,195,06*79
2017-12-14 12:02:27 1513270947.970902: $GPGSV,3,2,10,24,47,121,07,20,39,090,00,27,19,297,00,32,15,234,00*79
2017-12-14 12:02:27 1513270947.970972: $GPGSV,3,3,10,13,13,046,00,08,03,328,00*78
2017-12-14 12:02:28 1513270948.083038: $GPRMC,170228,V,3946.9516,N,08404.9360,W,0.0000,0.000,141217,,*21
2017-12-14 12:02:28 1513270948.083163: $GPGSA,A,1,10,15,18,21,24,,,,,,,,,,,*3B
2017-12-14 12:02:28 1513270948.336960: $GPRMC,170228,V,3946.9495,N,08404.9334,W,0.8414,25.855,141217,,*1C
2017-12-14 12:02:28 1513270948.337134: $GPGSA,A,1,10,15,18,21,24,,,,,,,,,,,*3B
2017-12-14 12:02:28 1513270948.868174: $GPZDA,170229.11,14,12,2017,00,00*6B
2017-12-14 12:02:28 1513270948.868351: $GPGGA,170229,3946.9499,N,08404.9333,W,1,05,2.00,339.12,M,-33.324,M,,*7D
2017-12-14 12:02:28 1513270948.868420: $GPRMC,170229,A,3946.9499,N,08404.9333,W,1.8139,358.696,141217,,*32
2017-12-14 12:02:28 1513270948.868481: $GPGSA,A,3,10,15,18,21,24,,,,,,,,6.6,2.0,6.2*3D
2017-12-14 12:02:28 1513270948.868540: $GPGBS,170229,24.66,M,21.80,M,143.40,M*3E
2017-12-14 12:02:29 1513270949.632629: $GPGSV,3,1,11,10,36,295,21,15,44,051,26,18,67,324,18,21,70,195,21*78
2017-12-14 12:02:29 1513270949.632808: $GPGSV,3,2,11,24,47,120,22,20,39,090,18,27,19,297,08,32,15,234,00*7F
2017-12-14 12:02:29 1513270949.632877: $GPGSV,3,3,11,13,13,046,00,08,03,328,00,138,38,213,00*78
2017-12-14 12:02:29 1513270949.746340: $GPZDA,170229.52,14,12,2017,00,00*6C
2017-12-14 12:02:29 1513270949.746509: $GPGGA,170229,3946.9494,N,08404.9326,W,1,07,2.00,338.56,M,-33.324,M,,*77
2017-12-14 12:02:29 1513270949.746576: $GPRMC,170229,A,3946.9494,N,08404.9326,W,2.9484,19.839,141217,,*07
2017-12-14 12:02:29 1513270949.746638: $GPGSA,A,3,10,15,18,21,24,20,27,,,,,,6.6,2.0,6.2*3A
2017-12-14 12:02:29 1513270949.999885: $GPZDA,170230.00,14,12,2017,00,00*63
2017-12-14 12:02:30 1513270950.000067: $GPGGA,170230,3946.9498,N,08404.9326,W,1,07,2.00,339.20,M,-33.324,M,,*73
2017-12-14 12:02:30 1513270950.000135: $GPRMC,170230,A,3946.9498,N,08404.9326,W,2.5395,10.600,141217,,*05
2017-12-14 12:02:30 1513270950.000199: $GPGSA,A,3,10,15,18,21,24,20,27,,,,,,6.6,2.0,6.2*3A
2017-12-14 12:02:30 1513270950.253792: $GPZDA,170231.00,14,12,2017,00,00*62
2017-12-14 12:02:30 1513270950.253976: $GPGGA,170231,3946.9498,N,08404.9325,W,1,07,1.80,337.80,M,-33.324,M,,*7E
2017-12-14 12:02:30 1513270950.254045: $GPRMC,170231,A,3946.9498,N,08404.9325,W,1.4530,18.755,141217,,*05
2017-12-14 12:02:30 1513270950.254107: $GPGSA,A,3,10,15,18,21,24,20,27,,,,,,6.6,1.8,6.2*31
2017-12-14 12:02:31 1513270951.485083: $GPGSV,3,1,11,10,36,295,22,15,44,051,26,32,15,234,12,21,70,195,22*7F
2017-12-14 12:02:31 1513270951.485250: $GPGSV,3,2,11,24,47,120,22,20,39,090,20,27,19,297,15,18,67,324,00*75
2017-12-14 12:02:31 1513270951.485316: $GPGSV,3,3,11,13,13,046,00,08,03,328,00,138,38,213,00*78
2017-12-14 12:02:31 1513270951.598709: $GPZDA,170232.00,14,12,2017,00,00*61
2017-12-14 12:02:31 1513270951.598929: $GPGGA,170232,3946.9501,N,08404.9324,W,1,07,1.80,337.04,M,-33.324,M,,*71
2017-12-14 12:02:31 1513270951.599049: $GPRMC,170232,A,3946.9501,N,08404.9324,W,1.2336,48.609,141217,,*0D
2017-12-14 12:02:31 1513270951.599113: $GPGSA,A,3,10,15,32,21,24,20,27,,,,,,6.6,1.8,6.2*39
2017-12-14 12:02:32 1513270952.148687: $GPZDA,170233.00,14,12,2017,00,00*60
2017-12-14 12:02:32 1513270952.148876: $GPGGA,170233,3946.9500,N,08404.9317,W,1,07,1.80,335.71,M,-33.324,M,,*71
2017-12-14 12:02:32 1513270952.148961: $GPRMC,170233,A,3946.9500,N,08404.9317,W,1.0619,43.717,141217,,*02
2017-12-14 12:02:32 1513270952.149023: $GPGSA,A,3,10,15,32,21,24,20,27,,,,,,6.6,1.8,6.2*39
2017-12-14 12:02:32 1513270952.149080: $GPGBS,170233,24.66,M,21.80,M,143.40,M*35
2017-12-14 12:02:33 1513270953.149557: $GPZDA,170234.00,14,12,2017,00,00*67
2017-12-14 12:02:33 1513270953.153101: $GPGGA,170234,3946.9499,N,08404.9316,W,1,07,1.80,334.31,M,-33.324,M,,*73
2017-12-14 12:02:33 1513270953.153228: $GPRMC,170234,A,3946.9499,N,08404.9316,W,0.6432,46.573,141217,,*0C
2017-12-14 12:02:33 1513270953.153309: $GPGSA,A,3,10,15,32,21,24,20,27,,,,,,6.6,1.8,6.2*39
2017-12-14 12:02:33 1513270953.153368: $GPGBS,170234,24.66,M,21.80,M,143.40,M*32
2017-12-14 12:02:34 1513270954.484229: $GPGSV,3,1,11,10,36,295,22,15,44,051,26,32,15,234,12,21,70,195,22*7F
2017-12-14 12:02:34 1513270954.484404: $GPGSV,3,2,11,24,47,120,22,20,39,090,19,18,67,324,04,27,19,297,00*7F
2017-12-14 12:02:34 1513270954.484470: $GPGSV,3,3,11,13,13,046,00,08,03,328,00,138,38,213,00*78
2017-12-14 12:02:34 1513270954.597832: $GPZDA,170235.00,14,12,2017,00,00*66
2017-12-14 12:02:34 1513270954.597993: $GPGGA,170235,3946.9503,N,08404.9315,W,1,06,1.80,333.54,M,-33.324,M,,*76
2017-12-14 12:02:34 1513270954.598059: $GPRMC,170235,A,3946.9503,N,08404.9315,W,0.6560,39.477,141217,,*07
2017-12-14 12:02:34 1513270954.598120: $GPGSA,A,3,10,15,32,21,24,20,,,,,,,6.6,1.8,6.2*3C
2017-12-14 12:02:35 1513270955.154241: $GPZDA,170236.00,14,12,2017,00,00*65
2017-12-14 12:02:35 1513270955.154408: $GPGGA,170236,3946.9502,N,08404.9315,W,1,06,1.60,332.14,M,-33.324,M,,*7F
2017-12-14 12:02:35 1513270955.154474: $GPRMC,170236,A,3946.9502,N,08404.9315,W,0.7357,68.344,141217,,*05
2017-12-14 12:02:35 1513270955.154535: $GPGSA,A,3,10,15,32,21,24,20,,,,,,,6.6,1.6,6.2*32
2017-12-14 12:02:36 1513270956.151963: $GPZDA,170237.00,14,12,2017,00,00*64
2017-12-14 12:02:36 1513270956.152231: $GPGGA,170237,3946.9501,N,08404.9314,W,1,06,1.60,330.73,M,-33.324,M,,*7F
2017-12-14 12:02:36 1513270956.152300: $GPRMC,170237,A,3946.9501,N,08404.9314,W,0.3529,39.709,141217,,*04
2017-12-14 12:02:36 1513270956.152361: $GPGSA,A,3,10,15,32,21,24,20,,,,,,,6.6,1.6,6.2*32
2017-12-14 12:02:37 1513270957.487832: $GPGSV,3,1,11,10,36,295,22,15,44,051,26,32,15,234,12,21,70,195,23*7E
2017-12-14 12:02:37 1513270957.488001: $GPGSV,3,2,11,24,47,120,22,20,39,090,19,18,67,324,18,27,19,297,00*72
2017-12-14 12:02:37 1513270957.488081: $GPGSV,3,3,11,13,13,046,00,08,03,328,00,138,38,213,00*78
2017-12-14 12:02:37 1513270957.601307: $GPZDA,170238.00,14,12,2017,00,00*6B
2017-12-14 12:02:37 1513270957.601479: $GPGGA,170238,3946.9501,N,08404.9313,W,1,07,1.60,329.33,M,-33.324,M,,*7A
2017-12-14 12:02:37 1513270957.601546: $GPRMC,170238,A,3946.9501,N,08404.9313,W,0.2123,109.225,141217,,*3A
2017-12-14 12:02:37 1513270957.601608: $GPGSA,A,3,10,15,32,21,24,20,18,,,,,,6.6,1.6,6.2*3B
2017-12-14 12:02:38 1513270958.148396: $GPZDA,170239.00,14,12,2017,00,00*6A
2017-12-14 12:02:38 1513270958.150315: $GPGGA,170239,3946.9508,N,08404.9319,W,1,07,1.80,327.72,M,-33.324,M,,*7D
2017-12-14 12:02:38 1513270958.150434: $GPRMC,170239,A,3946.9508,N,08404.9319,W,0.2880,356.771,141217,,*34
2017-12-14 12:02:38 1513270958.150498: $GPGSA,A,3,10,15,32,21,24,20,18,,,,,,6.6,1.8,6.2*35
2017-12-14 12:02:39 1513270959.151433: $GPZDA,170240.00,14,12,2017,00,00*64
2017-12-14 12:02:39 1513270959.151598: $GPGGA,170240,3946.9507,N,08404.9318,W,1,07,1.40,326.32,M,-33.324,M,,*74
2017-12-14 12:02:39 1513270959.151664: $GPRMC,170240,A,3946.9507,N,08404.9318,W,0.2849,142.010,141217,,*36
2017-12-14 12:02:39 1513270959.151725: $GPGSA,A,3,10,15,32,21,24,20,18,,,,,,6.6,1.4,6.2*39
2017-12-14 12:02:40 1513270960.488472: $GPGSV,3,1,11,10,36,295,22,15,44,051,26,32,15,234,11,21,70,195,23*7D
2017-12-14 12:02:40 1513270960.488649: $GPGSV,3,2,11,24,47,120,22,20,39,090,20,18,67,324,14,27,19,297,07*73
2017-12-14 12:02:40 1513270960.488715: $GPGSV,3,3,11,13,13,046,00,08,03,328,00,138,38,213,00*78
2017-12-14 12:02:40 1513270960.601918: $GPZDA,170241.00,14,12,2017,00,00*65
2017-12-14 12:02:40 1513270960.602109: $GPGGA,170241,3946.9503,N,08404.9318,W,1,08,1.40,325.68,M,-33.324,M,,*72
2017-12-14 12:02:40 1513270960.602186: $GPRMC,170241,A,3946.9503,N,08404.9318,W,0.7554,122.983,141217,,*32
2017-12-14 12:02:40 1513270960.602248: $GPGSA,A,3,10,15,32,21,24,20,18,27,,,,,6.6,1.4,6.2*3C
2017-12-14 12:02:41 1513270961.152045: $GPZDA,170242.00,14,12,2017,00,00*66
2017-12-14 12:02:41 1513270961.152314: $GPGGA,170242,3946.9502,N,08404.9317,W,1,08,1.40,324.27,M,-33.324,M,,*75
2017-12-14 12:02:41 1513270961.152387: $GPRMC,170242,A,3946.9502,N,08404.9317,W,0.4377,72.327,141217,,*0B
2017-12-14 12:02:41 1513270961.152449: $GPGSA,A,3,10,15,32,21,24,20,18,27,,,,,6.6,1.4,6.2*3C
2017-12-14 12:02:42 1513270962.153093: $GPZDA,170243.00,14,12,2017,00,00*67
2017-12-14 12:02:42 1513270962.153309: $GPGGA,170243,3946.9506,N,08404.9317,W,1,08,1.40,323.51,M,-33.324,M,,*76
2017-12-14 12:02:42 1513270962.153395: $GPRMC,170243,A,3946.9506,N,08404.9317,W,0.3690,160.157,141217,,*32
2017-12-14 12:02:42 1513270962.153459: $GPGSA,A,3,10,15,32,21,24,20,18,27,,,,,6.6,1.4,6.2*3C
2017-12-14 12:02:43 1513270963.487797: $GPGSV,3,1,11,10,36,295,22,15,44,051,26,32,15,234,11,21,70,195,23*7D
2017-12-14 12:02:43 1513270963.488002: $GPGSV,3,2,11,24,47,120,22,20,39,090,21,18,67,324,16,27,19,297,00*77
2017-12-14 12:02:43 1513270963.488071: $GPGSV,3,3,11,13,13,046,00,08,03,328,00,138,38,213,00*78
2017-12-14 12:02:43 1513270963.599951: $GPZDA,170244.00,14,12,2017,00,00*60
2017-12-14 12:02:43 1513270963.600151: $GPGGA,170244,3946.9502,N,08404.9324,W,1,07,1.40,322.79,M,-33.324,M,,*71
2017-12-14 12:02:43 1513270963.600218: $GPRMC,170244,A,3946.9502,N,08404.9324,W,0.3579,349.320,141217,,*3E
2017-12-14 12:02:43 1513270963.600280: $GPGSA,A,3,10,15,32,21,24,20,18,,,,,,6.6,1.4,6.2*39
2017-12-14 12:02:44 1513270964.152628: $GPZDA,170245.00,14,12,2017,00,00*61
2017-12-14 12:02:44 1513270964.152929: $GPGGA,170245,3946.9505,N,08404.9323,W,1,07,1.40,322.02,M,-33.324,M,,*7C
2017-12-14 12:02:44 1513270964.153055: $GPRMC,170245,A,3946.9505,N,08404.9323,W,0.4253,67.178,141217,,*07
2017-12-14 12:02:44 1513270964.153174: $GPGSA,A,3,10,15,32,21,24,20,18,,,,,,6.6,1.4,6.2*39
2017-12-14 12:02:44 1513270964.153290: $GPGBS,170245,24.66,M,21.80,M,143.40,M*34
2017-12-14 12:02:45 1513270965.152837: $GPZDA,170246.00,14,12,2017,00,00*62
2017-12-14 12:02:45 1513270965.153069: $GPGGA,170246,3946.9505,N,08404.9323,W,1,07,1.40,322.02,M,-33.324,M,,*7F
2017-12-14 12:02:45 1513270965.153140: $GPRMC,170246,A,3946.9505,N,08404.9323,W,0.6790,120.743,141217,,*30
2017-12-14 12:02:45 1513270965.153201: $GPGSA,A,3,10,15,32,21,24,20,18,,,,,,6.6,1.4,6.2*39
2017-12-14 12:02:45 1513270965.153259: $GPGBS,170246,24.66,M,21.80,M,143.40,M*37
