2017-11-15 19:54:43 1510793683.214951: {"class":"VERSION","release":"3.17","rev":"3.17","proto_major":3,"proto_minor":12}
2017-11-15 19:54:43 1510793683.215405: {"class":"DEVICES","devices":[{"class":"DEVICE","path":"/dev/ttyUSB0","driver":"SiRF","subtype":"9\u0006GSD4e_4.1.2-P1_RPATCH.05-F-GPS-4R-1510281 11/03/2015 307","activated":"2017-11-16T00:54:43.153Z","flags":1,"native":1,"bps":4800,"parity":"N","stopbits":1,"cycle":1.00}]}
2017-11-15 19:54:43 1510793683.215519: {"class":"WATCH","enable":true,"json":false,"nmea":true,"raw":0,"scaled":false,"timing":false,"split24":false,"pps":false}
2017-11-15 19:54:43 1510793683.330067: $GPZDA,005442.00,16,11,2017,00,00*62
2017-11-15 19:54:43 1510793683.330220: $GPGGA,005442,3946.9547,N,08404.9640,W,1,07,1.20,290.92,M,-33.324,M,,*7F
2017-11-15 19:54:43 1510793683.330280: $GPRMC,005442,A,3946.9547,N,08404.9640,W,0.3006,242.539,161117,,*33
2017-11-15 19:54:43 1510793683.330336: $GPGSA,A,3,3,16,31,26,14,22,23,,,,,,3.4,1.2,2.9*0B
2017-11-15 19:54:44 1510793684.331215: $GPZDA,005443.00,16,11,2017,00,00*63
2017-11-15 19:54:44 1510793684.331421: $GPGGA,005443,3946.9547,N,08404.9633,W,1,07,1.20,291.00,M,-33.324,M,,*70
2017-11-15 19:54:44 1510793684.331487: $GPRMC,005443,A,3946.9547,N,08404.9633,W,0.2422,273.794,161117,,*32
2017-11-15 19:54:44 1510793684.331542: $GPGSA,A,3,3,16,31,26,14,22,23,,,,,,3.4,1.2,2.9*0B
2017-11-15 19:54:45 1510793685.681739: $GPGSV,3,1,10,03,44,285,05,16,34,190,24,31,58,040,26,26,65,165,18*7E
2017-11-15 19:54:45 1510793685.681912: $GPGSV,3,2,10,14,46,106,22,22,48,252,20,32,27,117,00,23,20,304,13*77
2017-11-15 19:54:45 1510793685.681985: $GPGSV,3,3,10,29,13,060,00,25,08,037,00*7C
2017-11-15 19:54:45 1510793685.795068: $GPZDA,005444.00,16,11,2017,00,00*64
2017-11-15 19:54:45 1510793685.795243: $GPGGA,005444,3946.9543,N,08404.9634,W,1,06,1.20,291.76,M,-33.324,M,,*74
2017-11-15 19:54:45 1510793685.795321: $GPRMC,005444,A,3946.9543,N,08404.9634,W,0.0000,0.000,161117,,*3C
2017-11-15 19:54:45 1510793685.795378: $GPGSA,A,3,16,31,26,14,22,23,,,,,,,3.4,1.2,2.9*38
2017-11-15 19:54:46 1510793686.420553: $GPZDA,005445.00,16,11,2017,00,00*65
2017-11-15 19:54:46 1510793686.420714: $GPGGA,005445,3946.9543,N,08404.9634,W,1,06,1.20,291.76,M,-33.324,M,,*75
2017-11-15 19:54:46 1510793686.420773: $GPRMC,005445,A,3946.9543,N,08404.9634,W,0.2422,273.794,161117,,*37
2017-11-15 19:54:46 1510793686.420829: $GPGSA,A,3,16,31,26,14,22,23,,,,,,,3.4,1.2,2.9*38
2017-11-15 19:54:47 1510793687.327810: $GPZDA,005446.00,16,11,2017,00,00*66
2017-11-15 19:54:47 1510793687.327987: $GPGGA,005446,3946.9543,N,08404.9634,W,1,06,1.20,291.76,M,-33.324,M,,*76
2017-11-15 19:54:47 1510793687.328048: $GPRMC,005446,A,3946.9543,N,08404.9634,W,0.2422,273.794,161117,,*34
2017-11-15 19:54:47 1510793687.328121: $GPGSA,A,3,16,31,26,14,22,23,,,,,,,3.4,1.2,2.9*38
2017-11-15 19:54:48 1510793688.680871: $GPGSV,3,1,10,03,44,285,08,16,34,190,24,31,58,040,26,26,65,165,18*73
2017-11-15 19:54:48 1510793688.681043: $GPGSV,3,2,10,14,46,106,22,22,48,252,20,32,27,117,00,23,20,304,11*75
2017-11-15 19:54:48 1510793688.681103: $GPGSV,3,3,10,29,13,060,00,25,08,037,00*7C
2017-11-15 19:54:48 1510793688.794143: $GPZDA,005447.00,16,11,2017,00,00*67
2017-11-15 19:54:48 1510793688.794277: $GPGGA,005447,3946.9543,N,08404.9634,W,1,07,1.20,291.76,M,-33.324,M,,*76
2017-11-15 19:54:48 1510793688.794337: $GPRMC,005447,A,3946.9543,N,08404.9634,W,0.5306,294.352,161117,,*34
2017-11-15 19:54:48 1510793688.794393: $GPGSA,A,3,3,16,31,26,14,22,23,,,,,,3.4,1.2,2.9*0B
2017-11-15 19:54:49 1510793689.329121: $GPZDA,005448.00,16,11,2017,00,00*68
2017-11-15 19:54:49 1510793689.329287: $GPGGA,005448,3946.9543,N,08404.9634,W,1,07,1.20,291.76,M,-33.324,M,,*79
2017-11-15 19:54:49 1510793689.335021: $GPRMC,005448,A,3946.9543,N,08404.9634,W,0.5912,309.172,161117,,*31
2017-11-15 19:54:49 1510793689.335097: $GPGSA,A,3,3,16,31,26,14,22,23,,,,,,3.4,1.2,2.9*0B
2017-11-15 19:54:50 1510793690.344982: $GPZDA,005449.00,16,11,2017,00,00*69
2017-11-15 19:54:50 1510793690.345144: $GPGGA,005449,3946.9543,N,08404.9634,W,1,07,1.20,291.76,M,-33.324,M,,*78
2017-11-15 19:54:50 1510793690.345257: $GPRMC,005449,A,3946.9543,N,08404.9634,W,0.5912,309.172,161117,,*30
2017-11-15 19:54:50 1510793690.345315: $GPGSA,A,3,3,16,31,26,14,22,23,,,,,,3.4,1.2,2.9*0B
2017-11-15 19:54:51 1510793691.663985: $GPGSV,3,1,10,03,44,285,08,16,34,190,24,31,58,040,26,26,65,165,18*73
2017-11-15 19:54:51 1510793691.664186: $GPGSV,3,2,10,14,46,106,22,22,48,252,20,32,27,117,00,23,20,304,10*74
2017-11-15 19:54:51 1510793691.664254: $GPGSV,3,3,10,29,13,060,00,25,08,037,00*7C
2017-11-15 19:54:51 1510793691.777079: $GPZDA,005450.00,16,11,2017,00,00*61
2017-11-15 19:54:51 1510793691.777244: $GPGGA,005450,3946.9543,N,08404.9634,W,1,07,1.20,291.76,M,-33.324,M,,*70
2017-11-15 19:54:51 1510793691.777304: $GPRMC,005450,A,3946.9543,N,08404.9634,W,0.2422,273.794,161117,,*33
2017-11-15 19:54:51 1510793691.777360: $GPGSA,A,3,3,16,31,26,14,22,23,,,,,,3.4,1.2,2.9*0B
2017-11-15 19:54:52 1510793692.329491: $GPZDA,005451.00,16,11,2017,00,00*60
2017-11-15 19:54:52 1510793692.329653: $GPGGA,005451,3946.9543,N,08404.9634,W,1,07,1.20,291.76,M,-33.324,M,,*71
2017-11-15 19:54:52 1510793692.329713: $GPRMC,005451,A,3946.9543,N,08404.9634,W,0.4844,273.794,161117,,*38
2017-11-15 19:54:52 1510793692.329769: $GPGSA,A,3,3,16,31,26,14,22,23,,,,,,3.4,1.2,2.9*0B
