2017-11-16 14:19:33 1510859973.806636: {"class":"VERSION","release":"3.17","rev":"3.17","proto_major":3,"proto_minor":12}
2017-11-16 14:19:33 1510859973.807082: {"class":"DEVICES","devices":[{"class":"DEVICE","path":"/dev/ttyUSB0","driver":"SiRF","subtype":"9\u0006GSD4e_4.1.2-P1_RPATCH.05-F-GPS-4R-1510281 11/03/2015 307","activated":"2017-11-16T19:19:33.390Z","flags":1,"native":1,"bps":4800,"parity":"N","stopbits":1,"cycle":1.00}]}
2017-11-16 14:19:33 1510859973.807198: {"class":"WATCH","enable":true,"json":false,"nmea":true,"raw":0,"scaled":false,"timing":false,"split24":false,"pps":false}
2017-11-16 14:19:33 1510859973.838757: $GPGSV,3,1,12,08,07,319,39,10,43,303,43,13,06,049,23,15,35,052,50*7F
2017-11-16 14:19:33 1510859973.838908: $GPGSV,3,2,12,18,72,342,46,21,61,189,47,20,31,097,45,24,52,106,49*73
2017-11-16 14:19:33 1510859973.838966: $GPGSV,3,3,12,27,19,286,40,32,22,240,45,14,06,234,29,138,38,213,43*42
2017-11-16 14:19:33 1510859973.952085: $GPZDA,191932.00,16,11,2017,00,00*64
2017-11-16 14:19:33 1510859973.952244: $GPGGA,191932,3946.9562,N,08404.9858,W,2,12,0.80,304.75,M,-33.324,M,,*70
2017-11-16 14:19:33 1510859973.952303: $GPRMC,191932,A,3946.9562,N,08404.9858,W,0.0000,0.000,161117,,*3B
2017-11-16 14:19:33 1510859973.952359: $GPGSA,A,3,8,10,13,15,18,21,20,24,27,32,14,138,1.6,0.8,1.3*35
2017-11-16 14:19:34 1510859974.577343: $GPZDA,191933.00,16,11,2017,00,00*65
2017-11-16 14:19:34 1510859974.577517: $GPGGA,191933,3946.9562,N,08404.9858,W,2,12,0.80,304.75,M,-33.324,M,,*71
2017-11-16 14:19:34 1510859974.577598: $GPRMC,191933,A,3946.9562,N,08404.9858,W,0.0000,0.000,161117,,*3A
2017-11-16 14:19:34 1510859974.577655: $GPGSA,A,3,8,10,13,15,18,21,20,24,27,32,14,138,1.6,0.8,1.3*35
2017-11-16 14:19:35 1510859975.503287: $GPZDA,191934.00,16,11,2017,00,00*62
2017-11-16 14:19:35 1510859975.503450: $GPGGA,191934,3946.9562,N,08404.9858,W,2,12,0.80,304.75,M,-33.324,M,,*76
2017-11-16 14:19:35 1510859975.503512: $GPRMC,191934,A,3946.9562,N,08404.9858,W,0.0000,0.000,161117,,*3D
2017-11-16 14:19:35 1510859975.503568: $GPGSA,A,3,8,10,13,15,18,21,20,24,27,32,14,138,1.6,0.8,1.3*35
2017-11-16 14:19:36 1510859976.840221: $GPGSV,3,1,12,08,07,319,40,10,43,303,44,13,06,049,22,15,35,052,50*77
2017-11-16 14:19:36 1510859976.840435: $GPGSV,3,2,12,18,72,342,46,21,61,189,47,20,31,097,45,24,52,106,49*73
2017-11-16 14:19:36 1510859976.840497: $GPGSV,3,3,12,27,19,286,40,32,22,240,46,14,06,234,29,138,38,213,44*46
2017-11-16 14:19:36 1510859976.953505: $GPZDA,191935.00,16,11,2017,00,00*63
2017-11-16 14:19:36 1510859976.953673: $GPGGA,191935,3946.9562,N,08404.9858,W,2,12,0.80,304.75,M,-33.324,M,,*77
2017-11-16 14:19:36 1510859976.953735: $GPRMC,191935,A,3946.9562,N,08404.9858,W,0.0000,0.000,161117,,*3C
2017-11-16 14:19:36 1510859976.953792: $GPGSA,A,3,8,10,13,15,18,21,20,24,27,32,14,138,1.6,0.8,1.3*35
2017-11-16 14:19:37 1510859977.503268: $GPZDA,191936.00,16,11,2017,00,00*60
2017-11-16 14:19:37 1510859977.503419: $GPGGA,191936,3946.9562,N,08404.9858,W,2,12,0.80,304.75,M,-33.324,M,,*74
2017-11-16 14:19:37 1510859977.503480: $GPRMC,191936,A,3946.9562,N,08404.9858,W,0.0000,0.000,161117,,*3F
2017-11-16 14:19:37 1510859977.503537: $GPGSA,A,3,8,10,13,15,18,21,20,24,27,32,14,138,1.6,0.8,1.3*35
2017-11-16 14:19:38 1510859978.503248: $GPZDA,191937.00,16,11,2017,00,00*61
2017-11-16 14:19:38 1510859978.503438: $GPGGA,191937,3946.9562,N,08404.9858,W,2,12,0.80,304.75,M,-33.324,M,,*75
2017-11-16 14:19:38 1510859978.503499: $GPRMC,191937,A,3946.9562,N,08404.9858,W,0.0000,0.000,161117,,*3E
2017-11-16 14:19:38 1510859978.503556: $GPGSA,A,3,8,10,13,15,18,21,20,24,27,32,14,138,1.6,0.8,1.3*35
2017-11-16 14:19:39 1510859979.838002: $GPGSV,3,1,12,08,07,319,41,10,43,303,44,13,06,049,21,15,35,052,50*75
2017-11-16 14:19:39 1510859979.838185: $GPGSV,3,2,12,18,72,342,46,21,61,189,47,20,31,097,45,24,52,106,49*73
2017-11-16 14:19:39 1510859979.838262: $GPGSV,3,3,12,27,19,286,41,32,22,240,46,14,06,234,30,138,38,213,43*48
2017-11-16 14:19:39 1510859979.951659: $GPZDA,191938.00,16,11,2017,00,00*6E
2017-11-16 14:19:39 1510859979.951819: $GPGGA,191938,3946.9562,N,08404.9858,W,2,12,0.80,304.75,M,-33.324,M,,*7A
2017-11-16 14:19:39 1510859979.951932: $GPRMC,191938,A,3946.9562,N,08404.9858,W,0.0000,0.000,161117,,*31
2017-11-16 14:19:39 1510859979.951989: $GPGSA,A,3,8,10,13,15,18,21,20,24,27,32,14,138,1.6,0.8,1.3*35
2017-11-16 14:19:40 1510859980.503540: $GPZDA,191939.00,16,11,2017,00,00*6F
2017-11-16 14:19:40 1510859980.503702: $GPGGA,191939,3946.9562,N,08404.9858,W,2,12,0.80,304.75,M,-33.324,M,,*7B
2017-11-16 14:19:40 1510859980.503763: $GPRMC,191939,A,3946.9562,N,08404.9858,W,0.0000,0.000,161117,,*30
2017-11-16 14:19:40 1510859980.503820: $GPGSA,A,3,8,10,13,15,18,21,20,24,27,32,14,138,1.6,0.8,1.3*35
2017-11-16 14:19:41 1510859981.506172: $GPZDA,191940.00,16,11,2017,00,00*61
2017-11-16 14:19:41 1510859981.506352: $GPGGA,191940,3946.9562,N,08404.9858,W,2,12,0.80,304.75,M,-33.324,M,,*75
2017-11-16 14:19:41 1510859981.506416: $GPRMC,191940,A,3946.9562,N,08404.9858,W,0.0000,0.000,161117,,*3E
2017-11-16 14:19:41 1510859981.506473: $GPGSA,A,3,8,10,13,15,18,21,20,24,27,32,14,138,1.6,0.8,1.3*35
2017-11-16 14:19:42 1510859982.835340: $GPGSV,3,1,12,08,07,319,41,10,43,303,45,13,06,049,21,15,35,052,50*74
2017-11-16 14:19:42 1510859982.835520: $GPGSV,3,2,12,18,72,342,46,21,61,189,47,20,31,097,46,24,52,106,49*70
2017-11-16 14:19:42 1510859982.835584: $GPGSV,3,3,12,27,19,286,42,32,22,240,46,14,06,234,30,138,38,213,44*4C
2017-11-16 14:19:42 1510859982.948658: $GPZDA,191941.00,16,11,2017,00,00*60
2017-11-16 14:19:42 1510859982.948799: $GPGGA,191941,3946.9562,N,08404.9858,W,2,12,0.80,304.75,M,-33.324,M,,*74
2017-11-16 14:19:42 1510859982.948857: $GPRMC,191941,A,3946.9562,N,08404.9858,W,0.0000,0.000,161117,,*3F
2017-11-16 14:19:42 1510859982.948912: $GPGSA,A,3,8,10,13,15,18,21,20,24,27,32,14,138,1.6,0.8,1.3*35
2017-11-16 14:19:43 1510859983.502035: $GPZDA,191942.00,16,11,2017,00,00*63
2017-11-16 14:19:43 1510859983.502200: $GPGGA,191942,3946.9562,N,08404.9858,W,2,12,0.80,304.75,M,-33.324,M,,*77
2017-11-16 14:19:43 1510859983.502261: $GPRMC,191942,A,3946.9562,N,08404.9858,W,0.0000,0.000,161117,,*3C
2017-11-16 14:19:43 1510859983.502317: $GPGSA,A,3,8,10,13,15,18,21,20,24,27,32,14,138,1.6,0.8,1.3*35
2017-11-16 14:19:44 1510859984.503463: $GPZDA,191943.00,16,11,2017,00,00*62
2017-11-16 14:19:44 1510859984.503625: $GPGGA,191943,3946.9562,N,08404.9858,W,2,12,0.80,304.75,M,-33.324,M,,*76
2017-11-16 14:19:44 1510859984.503685: $GPRMC,191943,A,3946.9562,N,08404.9858,W,0.0000,0.000,161117,,*3D
2017-11-16 14:19:44 1510859984.503741: $GPGSA,A,3,8,10,13,15,18,21,20,24,27,32,14,138,1.6,0.8,1.3*35
2017-11-16 14:19:45 1510859985.839143: $GPGSV,3,1,12,08,07,319,41,10,43,303,45,13,06,049,20,15,35,052,50*75
2017-11-16 14:19:45 1510859985.839314: $GPGSV,3,2,12,18,72,342,46,21,61,189,47,20,31,097,46,24,52,106,49*70
2017-11-16 14:19:45 1510859985.839374: $GPGSV,3,3,12,27,19,286,42,32,22,240,45,14,06,234,30,138,38,213,43*48
2017-11-16 14:19:45 1510859985.952541: $GPZDA,191944.00,16,11,2017,00,00*65
2017-11-16 14:19:45 1510859985.952688: $GPGGA,191944,3946.9562,N,08404.9858,W,2,12,0.80,304.75,M,-33.324,M,,*71
2017-11-16 14:19:45 1510859985.952747: $GPRMC,191944,A,3946.9562,N,08404.9858,W,0.0000,0.000,161117,,*3A
2017-11-16 14:19:45 1510859985.952802: $GPGSA,A,3,8,10,13,15,18,21,20,24,27,32,14,138,1.6,0.8,1.3*35
2017-11-16 14:19:46 1510859986.502048: $GPZDA,191945.00,16,11,2017,00,00*64
2017-11-16 14:19:46 1510859986.502206: $GPGGA,191945,3946.9562,N,08404.9858,W,2,12,0.80,304.75,M,-33.324,M,,*70
2017-11-16 14:19:46 1510859986.502266: $GPRMC,191945,A,3946.9562,N,08404.9858,W,0.0000,0.000,161117,,*3B
2017-11-16 14:19:46 1510859986.502322: $GPGSA,A,3,8,10,13,15,18,21,20,24,27,32,14,138,1.6,0.8,1.3*35
2017-11-16 14:19:47 1510859987.533303: $GPZDA,191946.00,16,11,2017,00,00*67
2017-11-16 14:19:47 1510859987.533477: $GPGGA,191946,3946.9562,N,08404.9858,W,2,12,0.80,304.75,M,-33.324,M,,*73
2017-11-16 14:19:47 1510859987.533538: $GPRMC,191946,A,3946.9562,N,08404.9858,W,0.0000,0.000,161117,,*38
2017-11-16 14:19:47 1510859987.533595: $GPGSA,A,3,8,10,13,15,18,21,20,24,27,32,14,138,1.6,0.8,1.3*35
