2017-12-01 11:58:40 1512147520.736712: {"class":"VERSION","release":"3.16","rev":"3.16-4","proto_major":3,"proto_minor":11}
2017-12-01 11:58:40 1512147520.737131: {"class":"DEVICES","devices":[{"class":"DEVICE","path":"/dev/ttyUSB0","driver":"SiRF","subtype":"9\u0006GSD4e_4.1.2-P1_RPATCH.05-F-GPS-4R-1510281 11/03/2015 307","activated":"2017-12-01T16:58:40.467Z","flags":1,"native":1,"bps":4800,"parity":"N","stopbits":1,"cycle":1.00}]}
2017-12-01 11:58:40 1512147520.737258: {"class":"WATCH","enable":true,"json":false,"nmea":true,"raw":0,"scaled":false,"timing":false,"split24":false,"pps":false}
2017-12-01 11:58:41 1512147521.659188: $GPGSV,3,1,12,10,17,277,38,13,37,046,45,15,69,058,45,18,48,291,44*7B
2017-12-01 11:58:41 1512147521.659373: $GPGSV,3,2,12,20,58,061,44,21,73,297,45,24,26,144,46,27,12,319,44*75
2017-12-01 11:58:41 1512147521.659440: $GPGSV,3,3,12,29,18,192,44,04,07,133,00,05,09,081,30,138,38,213,46*45
2017-12-01 11:58:41 1512147521.772722: $GPZDA,165842.00,01,12,2017,00,00*6C
2017-12-01 11:58:41 1512147521.772901: $GPGGA,165842,3946.9587,N,08404.9836,W,2,11,0.80,294.58,M,-33.324,M,,*7A
2017-12-01 11:58:41 1512147521.772965: $GPRMC,165842,A,3946.9587,N,08404.9836,W,0.0000,0.000,011217,,*30
2017-12-01 11:58:41 1512147521.773026: $GPGSA,A,3,10,13,15,18,20,21,24,27,29,5,138,,2.0,0.8,1.5*34
2017-12-01 11:58:42 1512147522.322272: $GPZDA,165843.00,01,12,2017,00,00*6D
2017-12-01 11:58:42 1512147522.322441: $GPGGA,165843,3946.9583,N,08404.9836,W,2,11,0.80,295.35,M,-33.324,M,,*75
2017-12-01 11:58:42 1512147522.322508: $GPRMC,165843,A,3946.9583,N,08404.9836,W,0.0000,0.000,011217,,*35
2017-12-01 11:58:42 1512147522.322569: $GPGSA,A,3,10,13,15,18,20,21,24,27,29,5,138,,2.0,0.8,1.5*34
2017-12-01 11:58:43 1512147523.325337: $GPZDA,165844.00,01,12,2017,00,00*6A
2017-12-01 11:58:43 1512147523.325508: $GPGGA,165844,3946.9583,N,08404.9836,W,2,11,0.80,295.35,M,-33.324,M,,*72
2017-12-01 11:58:43 1512147523.325574: $GPRMC,165844,A,3946.9583,N,08404.9836,W,0.0000,0.000,011217,,*32
2017-12-01 11:58:43 1512147523.325636: $GPGSA,A,3,10,13,15,18,20,21,24,27,29,5,138,,2.0,0.8,1.5*34
2017-12-01 11:58:44 1512147524.657251: $GPGSV,3,1,12,10,17,277,38,13,37,046,45,15,69,058,45,18,48,291,44*7B
2017-12-01 11:58:44 1512147524.657431: $GPGSV,3,2,12,20,58,061,43,21,73,297,45,24,26,144,46,27,12,319,44*72
2017-12-01 11:58:44 1512147524.657502: $GPGSV,3,3,12,29,18,192,44,04,07,133,00,05,09,081,30,138,38,213,46*45
2017-12-01 11:58:44 1512147524.770386: $GPZDA,165845.00,01,12,2017,00,00*6B
2017-12-01 11:58:44 1512147524.770540: $GPGGA,165845,3946.9583,N,08404.9836,W,2,11,0.80,295.35,M,-33.324,M,,*73
2017-12-01 11:58:44 1512147524.770604: $GPRMC,165845,A,3946.9583,N,08404.9836,W,0.0000,0.000,011217,,*33
2017-12-01 11:58:44 1512147524.770665: $GPGSA,A,3,10,13,15,18,20,21,24,27,29,5,138,,2.0,0.8,1.5*34
2017-12-01 11:58:45 1512147525.324040: $GPZDA,165846.00,01,12,2017,00,00*68
2017-12-01 11:58:45 1512147525.324211: $GPGGA,165846,3946.9587,N,08404.9836,W,2,11,0.80,295.99,M,-33.324,M,,*72
2017-12-01 11:58:45 1512147525.324280: $GPRMC,165846,A,3946.9587,N,08404.9836,W,0.0000,0.000,011217,,*34
2017-12-01 11:58:45 1512147525.324341: $GPGSA,A,3,10,13,15,18,20,21,24,27,29,5,138,,2.0,0.8,1.5*34
2017-12-01 11:58:46 1512147526.322203: $GPZDA,165847.00,01,12,2017,00,00*69
2017-12-01 11:58:46 1512147526.322377: $GPGGA,165847,3946.9587,N,08404.9836,W,2,11,0.80,295.99,M,-33.324,M,,*73
2017-12-01 11:58:46 1512147526.322444: $GPRMC,165847,A,3946.9587,N,08404.9836,W,0.0000,0.000,011217,,*35
2017-12-01 11:58:46 1512147526.322504: $GPGSA,A,3,10,13,15,18,20,21,24,27,29,5,138,,2.0,0.8,1.5*34
2017-12-01 11:58:47 1512147527.664126: $GPGSV,3,1,12,10,17,277,38,13,37,046,45,15,69,058,45,18,48,291,44*7B
2017-12-01 11:58:47 1512147527.664309: $GPGSV,3,2,12,20,58,061,43,21,73,297,45,24,26,144,46,27,12,319,44*72
2017-12-01 11:58:47 1512147527.664375: $GPGSV,3,3,12,29,18,192,44,04,07,133,00,05,09,081,30,138,38,213,46*45
2017-12-01 11:58:47 1512147527.776500: $GPZDA,165848.00,01,12,2017,00,00*66
2017-12-01 11:58:47 1512147527.776658: $GPGGA,165848,3946.9587,N,08404.9836,W,2,11,0.80,295.99,M,-33.324,M,,*7C
2017-12-01 11:58:47 1512147527.776766: $GPRMC,165848,A,3946.9587,N,08404.9836,W,0.0000,0.000,011217,,*3A
2017-12-01 11:58:47 1512147527.776829: $GPGSA,A,3,10,13,15,18,20,21,24,27,29,5,138,,2.0,0.8,1.5*34
2017-12-01 11:58:48 1512147528.403143: $GPZDA,165849.00,01,12,2017,00,00*67
2017-12-01 11:58:48 1512147528.403323: $GPGGA,165849,3946.9587,N,08404.9836,W,2,11,0.80,295.99,M,-33.324,M,,*7D
2017-12-01 11:58:48 1512147528.403390: $GPRMC,165849,A,3946.9587,N,08404.9836,W,0.0000,0.000,011217,,*3B
2017-12-01 11:58:48 1512147528.403452: $GPGSA,A,3,10,13,15,18,20,21,24,27,29,5,138,,2.0,0.8,1.5*34
2017-12-01 11:58:49 1512147529.325247: $GPZDA,165850.00,01,12,2017,00,00*6F
2017-12-01 11:58:49 1512147529.325416: $GPGGA,165850,3946.9587,N,08404.9836,W,2,11,0.80,295.99,M,-33.324,M,,*75
2017-12-01 11:58:49 1512147529.325481: $GPRMC,165850,A,3946.9587,N,08404.9836,W,0.0000,0.000,011217,,*33
2017-12-01 11:58:49 1512147529.325541: $GPGSA,A,3,10,13,15,18,20,21,24,27,29,5,138,,2.0,0.8,1.5*34
2017-12-01 11:58:50 1512147530.674459: $GPGSV,3,1,12,10,17,277,38,13,37,046,45,15,69,058,45,18,48,291,44*7B
2017-12-01 11:58:50 1512147530.674635: $GPGSV,3,2,12,20,58,061,43,21,73,297,45,24,26,144,46,27,12,319,44*72
2017-12-01 11:58:50 1512147530.674701: $GPGSV,3,3,12,29,18,192,44,04,07,133,00,05,09,081,30,138,38,213,46*45
