2017-12-01 15:26:09 1512159969.236824: {"class":"VERSION","release":"3.16","rev":"3.16-4","proto_major":3,"proto_minor":11}
2017-12-01 15:26:09 1512159969.237223: {"class":"DEVICES","devices":[{"class":"DEVICE","path":"/dev/ttyUSB0","driver":"SiRF","subtype":"9\u0006GSD4e_4.1.2-P1_RPATCH.05-F-GPS-4R-1510281 11/03/2015 307","activated":"2017-12-01T20:26:09.219Z","flags":1,"native":1,"bps":4800,"parity":"N","stopbits":1,"cycle":1.00}]}
2017-12-01 15:26:09 1512159969.237351: {"class":"WATCH","enable":true,"json":false,"nmea":true,"raw":0,"scaled":false,"timing":false,"split24":false,"pps":false}
2017-12-01 15:26:09 1512159969.397670: $GPZDA,202610.00,01,12,2017,00,00*67
2017-12-01 15:26:09 1512159969.397840: $GPGGA,202610,3946.9585,N,08404.9871,W,2,11,0.80,294.95,M,-33.324,M,,*71
2017-12-01 15:26:09 1512159969.397907: $GPRMC,202610,A,3946.9585,N,08404.9871,W,0.0000,0.000,011217,,*3A
2017-12-01 15:26:09 1512159969.397968: $GPGSA,A,3,1,10,12,14,18,24,25,31,32,11,138,,2.0,0.8,1.5*3B
2017-12-01 15:26:10 1512159970.729788: $GPGSV,3,1,12,01,09,324,36,10,78,114,47,12,23,081,45,14,49,280,41*74
2017-12-01 15:26:10 1512159970.730001: $GPGSV,3,2,12,18,46,129,48,24,21,045,44,25,23,123,45,31,26,208,46*7B
2017-12-01 15:26:10 1512159970.730096: $GPGSV,3,3,12,32,64,309,48,11,09,309,35,21,02,174,00,138,38,213,46*4A
2017-12-01 15:26:10 1512159970.843500: $GPZDA,202611.00,01,12,2017,00,00*66
2017-12-01 15:26:10 1512159970.843669: $GPGGA,202611,3946.9589,N,08404.9871,W,2,11,0.80,295.59,M,-33.324,M,,*7D
2017-12-01 15:26:10 1512159970.843735: $GPRMC,202611,A,3946.9589,N,08404.9871,W,0.0000,0.000,011217,,*37
2017-12-01 15:26:10 1512159970.843796: $GPGSA,A,3,1,10,12,14,18,24,25,31,32,11,138,,2.0,0.8,1.5*3B
2017-12-01 15:26:11 1512159971.395518: $GPZDA,202612.00,01,12,2017,00,00*65
2017-12-01 15:26:11 1512159971.395686: $GPGGA,202612,3946.9589,N,08404.9871,W,2,11,0.80,295.59,M,-33.324,M,,*7E
2017-12-01 15:26:11 1512159971.395753: $GPRMC,202612,A,3946.9589,N,08404.9871,W,0.0000,0.000,011217,,*34
2017-12-01 15:26:11 1512159971.395814: $GPGSA,A,3,1,10,12,14,18,24,25,31,32,11,138,,2.0,0.8,1.5*3B
2017-12-01 15:26:12 1512159972.395111: $GPZDA,202613.00,01,12,2017,00,00*64
2017-12-01 15:26:12 1512159972.395279: $GPGGA,202613,3946.9589,N,08404.9871,W,2,11,0.80,295.59,M,-33.324,M,,*7F
2017-12-01 15:26:12 1512159972.395346: $GPRMC,202613,A,3946.9589,N,08404.9871,W,0.0000,0.000,011217,,*35
2017-12-01 15:26:12 1512159972.395408: $GPGSA,A,3,1,10,12,14,18,24,25,31,32,11,138,,2.0,0.8,1.5*3B
2017-12-01 15:26:13 1512159973.730566: $GPGSV,3,1,12,01,09,324,36,10,78,114,46,12,23,081,46,14,49,280,41*76
2017-12-01 15:26:13 1512159973.730754: $GPGSV,3,2,12,18,46,129,48,24,21,045,44,25,23,123,45,31,26,208,46*7B
2017-12-01 15:26:13 1512159973.730822: $GPGSV,3,3,12,32,64,309,48,11,09,309,34,21,02,174,00,138,38,213,45*48
2017-12-01 15:26:13 1512159973.843970: $GPZDA,202614.00,01,12,2017,00,00*63
2017-12-01 15:26:13 1512159973.844123: $GPGGA,202614,3946.9589,N,08404.9871,W,2,11,0.80,295.59,M,-33.324,M,,*78
2017-12-01 15:26:13 1512159973.844189: $GPRMC,202614,A,3946.9589,N,08404.9871,W,0.0000,0.000,011217,,*32
2017-12-01 15:26:13 1512159973.844249: $GPGSA,A,3,1,10,12,14,18,24,25,31,32,11,138,,2.0,0.8,1.5*3B
2017-12-01 15:26:14 1512159974.469481: $GPZDA,202615.00,01,12,2017,00,00*62
2017-12-01 15:26:14 1512159974.469642: $GPGGA,202615,3946.9589,N,08404.9871,W,2,11,0.80,295.59,M,-33.324,M,,*79
2017-12-01 15:26:14 1512159974.469709: $GPRMC,202615,A,3946.9589,N,08404.9871,W,0.0000,0.000,011217,,*33
2017-12-01 15:26:14 1512159974.469770: $GPGSA,A,3,1,10,12,14,18,24,25,31,32,11,138,,2.0,0.8,1.5*3B
2017-12-01 15:26:15 1512159975.395227: $GPZDA,202616.00,01,12,2017,00,00*61
2017-12-01 15:26:15 1512159975.395398: $GPGGA,202616,3946.9589,N,08404.9871,W,2,11,0.80,295.59,M,-33.324,M,,*7A
2017-12-01 15:26:15 1512159975.395466: $GPRMC,202616,A,3946.9589,N,08404.9871,W,0.0000,0.000,011217,,*30
2017-12-01 15:26:15 1512159975.395527: $GPGSA,A,3,1,10,12,14,18,24,25,31,32,11,138,,2.0,0.8,1.5*3B
2017-12-01 15:26:16 1512159976.732141: $GPGSV,3,1,12,01,09,324,34,10,78,114,47,12,23,081,45,14,49,280,42*75
2017-12-01 15:26:16 1512159976.732374: $GPGSV,3,2,12,18,46,129,48,24,21,045,44,25,23,123,45,31,26,208,47*7A
2017-12-01 15:26:16 1512159976.732443: $GPGSV,3,3,12,32,64,309,48,11,09,309,34,21,02,174,00,138,38,213,46*4B
2017-12-01 15:26:16 1512159976.845550: $GPZDA,202617.00,01,12,2017,00,00*60
2017-12-01 15:26:16 1512159976.845728: $GPGGA,202617,3946.9589,N,08404.9871,W,2,11,0.80,295.59,M,-33.324,M,,*7B
2017-12-01 15:26:16 1512159976.845813: $GPRMC,202617,A,3946.9589,N,08404.9871,W,0.0000,0.000,011217,,*31
2017-12-01 15:26:16 1512159976.845876: $GPGSA,A,3,1,10,12,14,18,24,25,31,32,11,138,,2.0,0.8,1.5*3B
2017-12-01 15:26:17 1512159977.394247: $GPZDA,202618.00,01,12,2017,00,00*6F
2017-12-01 15:26:17 1512159977.394416: $GPGGA,202618,3946.9589,N,08404.9871,W,2,11,0.80,295.59,M,-33.324,M,,*74
2017-12-01 15:26:17 1512159977.394482: $GPRMC,202618,A,3946.9589,N,08404.9871,W,0.0000,0.000,011217,,*3E
2017-12-01 15:26:17 1512159977.394544: $GPGSA,A,3,1,10,12,14,18,24,25,31,32,11,138,,2.0,0.8,1.5*3B
2017-12-01 15:26:18 1512159978.394777: $GPZDA,202619.00,01,12,2017,00,00*6E
2017-12-01 15:26:18 1512159978.394949: $GPGGA,202619,3946.9593,N,08404.9858,W,2,11,0.80,297.79,M,-33.324,M,,*75
2017-12-01 15:26:18 1512159978.395035: $GPRMC,202619,A,3946.9593,N,08404.9858,W,0.0000,0.000,011217,,*3F
2017-12-01 15:26:18 1512159978.395098: $GPGSA,A,3,1,10,12,14,18,24,25,31,32,11,138,,2.0,0.8,1.5*3B
2017-12-01 15:26:19 1512159979.732528: $GPGSV,3,1,12,01,09,324,34,10,78,114,46,12,23,081,45,14,49,280,42*74
2017-12-01 15:26:19 1512159979.732714: $GPGSV,3,2,12,18,46,129,48,24,21,045,44,25,23,123,45,31,26,208,47*7A
2017-12-01 15:26:19 1512159979.732781: $GPGSV,3,3,12,32,64,309,48,11,09,309,29,21,02,174,00,138,38,213,45*44
2017-12-01 15:26:19 1512159979.846020: $GPZDA,202620.00,01,12,2017,00,00*64
2017-12-01 15:26:19 1512159979.846185: $GPGGA,202620,3946.9593,N,08404.9858,W,2,11,0.80,297.79,M,-33.324,M,,*7F
2017-12-01 15:26:19 1512159979.846251: $GPRMC,202620,A,3946.9593,N,08404.9858,W,0.0000,0.000,011217,,*35
2017-12-01 15:26:19 1512159979.846311: $GPGSA,A,3,1,10,12,14,18,24,25,31,32,11,138,,2.0,0.8,1.5*3B
2017-12-01 15:26:20 1512159980.396881: $GPZDA,202621.00,01,12,2017,00,00*65
2017-12-01 15:26:20 1512159980.397039: $GPGGA,202621,3946.9593,N,08404.9858,W,2,11,0.80,297.79,M,-33.324,M,,*7E
2017-12-01 15:26:20 1512159980.397106: $GPRMC,202621,A,3946.9593,N,08404.9858,W,0.0000,0.000,011217,,*34
2017-12-01 15:26:20 1512159980.397167: $GPGSA,A,3,1,10,12,14,18,24,25,31,32,11,138,,2.0,0.8,1.5*3B
2017-12-01 15:26:21 1512159981.395128: $GPZDA,202622.00,01,12,2017,00,00*66
2017-12-01 15:26:22 1512159982.121276: $GPGGA,202622,3946.9593,N,08404.9858,W,2,11,0.80,297.79,M,-33.324,M,,*7D
2017-12-01 15:26:22 1512159982.121476: $GPRMC,202622,A,3946.9593,N,08404.9858,W,0.0000,0.000,011217,,*37
2017-12-01 15:26:22 1512159982.121561: $GPGSA,A,3,1,10,12,14,18,24,25,31,32,11,138,,2.0,0.8,1.5*3B
2017-12-01 15:26:22 1512159982.730853: $GPGSV,3,1,12,01,09,324,34,10,78,114,47,12,23,081,45,14,49,280,42*75
2017-12-01 15:26:22 1512159982.731048: $GPGSV,3,2,12,18,46,129,48,24,21,045,44,25,23,123,45,31,26,208,47*7A
2017-12-01 15:26:22 1512159982.731116: $GPGSV,3,3,12,32,64,309,48,11,09,309,28,21,02,174,00,138,38,213,46*46
2017-12-01 15:26:22 1512159982.844458: $GPZDA,202623.00,01,12,2017,00,00*67
2017-12-01 15:26:22 1512159982.844586: $GPGGA,202623,3946.9593,N,08404.9858,W,2,11,0.80,297.79,M,-33.324,M,,*7C
2017-12-01 15:26:22 1512159982.844651: $GPRMC,202623,A,3946.9593,N,08404.9858,W,0.0000,0.000,011217,,*36
2017-12-01 15:26:22 1512159982.844711: $GPGSA,A,3,1,10,12,14,18,24,25,31,32,11,138,,2.0,0.8,1.5*3B
2017-12-01 15:26:23 1512159983.395485: $GPZDA,202624.00,01,12,2017,00,00*60
2017-12-01 15:26:23 1512159983.395657: $GPGGA,202624,3946.9593,N,08404.9858,W,2,11,0.80,297.79,M,-33.324,M,,*7B
2017-12-01 15:26:23 1512159983.395724: $GPRMC,202624,A,3946.9593,N,08404.9858,W,0.0000,0.000,011217,,*31
2017-12-01 15:26:23 1512159983.395785: $GPGSA,A,3,1,10,12,14,18,24,25,31,32,11,138,,2.0,0.8,1.5*3B
2017-12-01 15:26:24 1512159984.396810: $GPZDA,202625.00,01,12,2017,00,00*61
2017-12-01 15:26:24 1512159984.397031: $GPGGA,202625,3946.9593,N,08404.9858,W,2,11,0.80,297.79,M,-33.324,M,,*7A
2017-12-01 15:26:24 1512159984.397100: $GPRMC,202625,A,3946.9593,N,08404.9858,W,0.0000,0.000,011217,,*30
2017-12-01 15:26:24 1512159984.397162: $GPGSA,A,3,1,10,12,14,18,24,25,31,32,11,138,,2.0,0.8,1.5*3B
2017-12-01 15:26:25 1512159985.736238: $GPGSV,3,1,12,01,09,324,40,10,78,114,47,12,23,081,46,14,49,280,42*75
2017-12-01 15:26:25 1512159985.736434: $GPGSV,3,2,12,18,46,129,48,24,21,045,44,25,23,123,45,31,26,208,47*7A
2017-12-01 15:26:25 1512159985.736502: $GPGSV,3,3,12,32,64,309,48,11,09,309,30,21,02,174,03,138,38,213,47*4D
2017-12-01 15:26:25 1512159985.849950: $GPZDA,202626.00,01,12,2017,00,00*62
2017-12-01 15:26:25 1512159985.850119: $GPGGA,202626,3946.9593,N,08404.9858,W,2,11,0.80,297.79,M,-33.324,M,,*79
2017-12-01 15:26:25 1512159985.850185: $GPRMC,202626,A,3946.9593,N,08404.9858,W,0.0000,0.000,011217,,*33
2017-12-01 15:26:25 1512159985.850245: $GPGSA,A,3,1,10,12,14,18,24,25,31,32,11,138,,2.0,0.8,1.5*3B
2017-12-01 15:26:26 1512159986.392080: $GPZDA,202627.00,01,12,2017,00,00*63
2017-12-01 15:26:26 1512159986.392267: $GPGGA,202627,3946.9593,N,08404.9858,W,2,11,0.80,297.79,M,-33.324,M,,*78
2017-12-01 15:26:26 1512159986.392356: $GPRMC,202627,A,3946.9593,N,08404.9858,W,0.0000,0.000,011217,,*32
2017-12-01 15:26:26 1512159986.392421: $GPGSA,A,3,1,10,12,14,18,24,25,31,32,11,138,,2.0,0.8,1.5*3B
2017-12-01 15:26:27 1512159987.395372: $GPZDA,202628.00,01,12,2017,00,00*6C
2017-12-01 15:26:27 1512159987.395550: $GPGGA,202628,3946.9593,N,08404.9858,W,2,11,0.80,297.79,M,-33.324,M,,*77
2017-12-01 15:26:27 1512159987.395617: $GPRMC,202628,A,3946.9593,N,08404.9858,W,0.0000,0.000,011217,,*3D
2017-12-01 15:26:27 1512159987.395683: $GPGSA,A,3,1,10,12,14,18,24,25,31,32,11,138,,2.0,0.8,1.5*3B
2017-12-01 15:26:28 1512159988.730936: $GPGSV,3,1,12,01,09,324,38,10,78,114,47,12,23,081,46,14,49,280,43*7B
2017-12-01 15:26:28 1512159988.731120: $GPGSV,3,2,12,18,46,129,48,24,21,045,44,25,23,123,45,31,26,208,47*7A
2017-12-01 15:26:28 1512159988.731188: $GPGSV,3,3,12,32,64,309,48,11,09,309,30,21,02,174,00,138,38,213,45*4C
2017-12-01 15:26:28 1512159988.844571: $GPZDA,202629.00,01,12,2017,00,00*6D
2017-12-01 15:26:28 1512159988.844729: $GPGGA,202629,3946.9593,N,08404.9858,W,2,11,0.80,297.79,M,-33.324,M,,*76
2017-12-01 15:26:28 1512159988.844797: $GPRMC,202629,A,3946.9593,N,08404.9858,W,0.0000,0.000,011217,,*3C
2017-12-01 15:26:28 1512159988.844858: $GPGSA,A,3,1,10,12,14,18,24,25,31,32,11,138,,2.0,0.8,1.5*3B
