2017-11-16 15:48:04 1510865284.366178: {"class":"VERSION","release":"3.17","rev":"3.17","proto_major":3,"proto_minor":12}
2017-11-16 15:48:04 1510865284.366742: {"class":"DEVICES","devices":[{"class":"DEVICE","path":"/dev/ttyUSB0","driver":"SiRF","subtype":"9\u0006GSD4e_4.1.2-P1_RPATCH.05-F-GPS-4R-1510281 11/03/2015 307","activated":"2017-11-16T20:48:04.245Z","flags":1,"native":1,"bps":4800,"parity":"N","stopbits":1,"cycle":1.00}]}
2017-11-16 15:48:04 1510865284.367072: {"class":"WATCH","enable":true,"json":false,"nmea":true,"raw":0,"scaled":false,"timing":false,"split24":false,"pps":false}
2017-11-16 15:48:04 1510865284.695366: $GPGSV,3,1,12,11,03,322,33,10,78,351,50,14,36,262,44,31,08,204,27*7B
2017-11-16 15:48:04 1510865284.695690: $GPGSV,3,2,12,18,63,111,48,25,10,135,04,21,19,178,43,24,37,051,49*76
2017-11-16 15:48:04 1510865284.695792: $GPGSV,3,3,12,15,04,072,28,32,53,277,45,12,15,099,41,138,38,213,44*42
2017-11-16 15:48:04 1510865284.808548: $GPZDA,204803.00,16,11,2017,00,00*68
2017-11-16 15:48:04 1510865284.808726: $GPGGA,204803,3946.9576,N,08404.9852,W,2,11,1.20,309.56,M,-33.324,M,,*77
2017-11-16 15:48:04 1510865284.808788: $GPRMC,204803,A,3946.9576,N,08404.9852,W,0.0000,0.000,161117,,*38
2017-11-16 15:48:04 1510865284.808845: $GPGSA,A,3,11,10,14,31,18,21,24,15,32,12,138,,1.6,1.2,1.3*02
2017-11-16 15:48:05 1510865285.376923: $GPZDA,204804.00,16,11,2017,00,00*6F
2017-11-16 15:48:05 1510865285.377118: $GPGGA,204804,3946.9576,N,08404.9852,W,2,11,1.20,309.56,M,-33.324,M,,*70
2017-11-16 15:48:05 1510865285.377183: $GPRMC,204804,A,3946.9576,N,08404.9852,W,0.0000,0.000,161117,,*3F
2017-11-16 15:48:05 1510865285.377239: $GPGSA,A,3,11,10,14,31,18,21,24,15,32,12,138,,1.6,1.2,1.3*02
2017-11-16 15:48:06 1510865286.367535: $GPZDA,204805.00,16,11,2017,00,00*6E
2017-11-16 15:48:06 1510865286.367696: $GPGGA,204805,3946.9576,N,08404.9852,W,2,11,1.20,309.56,M,-33.324,M,,*71
2017-11-16 15:48:06 1510865286.367757: $GPRMC,204805,A,3946.9576,N,08404.9852,W,0.0000,0.000,161117,,*3E
2017-11-16 15:48:06 1510865286.367812: $GPGSA,A,3,11,10,14,31,18,21,24,15,32,12,138,,1.6,1.2,1.3*02
2017-11-16 15:48:07 1510865287.704462: $GPGSV,3,1,12,11,03,322,33,10,78,351,50,14,36,262,44,31,08,204,27*7B
2017-11-16 15:48:07 1510865287.704635: $GPGSV,3,2,12,18,63,111,48,25,10,135,06,21,19,178,43,24,37,051,49*74
2017-11-16 15:48:07 1510865287.704695: $GPGSV,3,3,12,15,04,072,28,32,53,277,46,12,15,099,41,138,38,213,44*41
2017-11-16 15:48:07 1510865287.817899: $GPZDA,204806.00,16,11,2017,00,00*6D
2017-11-16 15:48:07 1510865287.818077: $GPGGA,204806,3946.9576,N,08404.9852,W,2,12,1.20,309.56,M,-33.324,M,,*71
2017-11-16 15:48:07 1510865287.818138: $GPRMC,204806,A,3946.9576,N,08404.9852,W,0.0000,0.000,161117,,*3D
2017-11-16 15:48:07 1510865287.818194: $GPGSA,A,3,11,10,14,31,18,25,21,24,15,32,12,138,1.6,1.2,1.3*05
2017-11-16 15:48:08 1510865288.383540: $GPZDA,204807.00,16,11,2017,00,00*6C
2017-11-16 15:48:08 1510865288.383723: $GPGGA,204807,3946.9576,N,08404.9852,W,2,12,1.20,309.56,M,-33.324,M,,*70
2017-11-16 15:48:08 1510865288.383805: $GPRMC,204807,A,3946.9576,N,08404.9852,W,0.0000,0.000,161117,,*3C
2017-11-16 15:48:08 1510865288.383893: $GPGSA,A,3,11,10,14,31,18,25,21,24,15,32,12,138,1.6,1.2,1.3*05
2017-11-16 15:48:09 1510865289.364555: $GPZDA,204808.00,16,11,2017,00,00*63
2017-11-16 15:48:09 1510865289.364715: $GPGGA,204808,3946.9576,N,08404.9852,W,2,12,1.20,309.56,M,-33.324,M,,*7F
2017-11-16 15:48:09 1510865289.364775: $GPRMC,204808,A,3946.9576,N,08404.9852,W,0.0000,0.000,161117,,*33
2017-11-16 15:48:09 1510865289.364830: $GPGSA,A,3,11,10,14,31,18,25,21,24,15,32,12,138,1.6,1.2,1.3*05
2017-11-16 15:48:10 1510865290.719007: $GPGSV,3,1,12,11,03,322,33,10,78,351,50,14,36,262,44,31,08,204,28*74
2017-11-16 15:48:10 1510865290.719177: $GPGSV,3,2,12,18,63,111,48,25,10,135,20,21,19,178,43,24,37,051,49*70
2017-11-16 15:48:10 1510865290.719238: $GPGSV,3,3,12,15,04,072,28,32,53,277,45,12,15,099,42,138,38,213,44*41
2017-11-16 15:48:10 1510865290.832344: $GPZDA,204809.00,16,11,2017,00,00*62
2017-11-16 15:48:10 1510865290.832524: $GPGGA,204809,3946.9576,N,08404.9852,W,2,12,1.20,309.56,M,-33.324,M,,*7E
2017-11-16 15:48:10 1510865290.832638: $GPRMC,204809,A,3946.9576,N,08404.9852,W,0.0000,0.000,161117,,*32
2017-11-16 15:48:10 1510865290.832696: $GPGSA,A,3,11,10,14,31,18,25,21,24,15,32,12,138,1.6,1.2,1.3*05
2017-11-16 15:48:11 1510865291.457696: $GPZDA,204810.00,16,11,2017,00,00*6A
2017-11-16 15:48:11 1510865291.457894: $GPGGA,204810,3946.9576,N,08404.9852,W,2,12,1.20,309.56,M,-33.324,M,,*76
2017-11-16 15:48:11 1510865291.457957: $GPRMC,204810,A,3946.9576,N,08404.9852,W,0.0000,0.000,161117,,*3A
2017-11-16 15:48:11 1510865291.458031: $GPGSA,A,3,11,10,14,31,18,25,21,24,15,32,12,138,1.6,1.2,1.3*05
2017-11-16 15:48:12 1510865292.376006: $GPZDA,204811.00,16,11,2017,00,00*6B
2017-11-16 15:48:12 1510865292.376172: $GPGGA,204811,3946.9576,N,08404.9852,W,2,12,1.20,309.56,M,-33.324,M,,*77
2017-11-16 15:48:12 1510865292.376232: $GPRMC,204811,A,3946.9576,N,08404.9852,W,0.0000,0.000,161117,,*3B
2017-11-16 15:48:12 1510865292.376288: $GPGSA,A,3,11,10,14,31,18,25,21,24,15,32,12,138,1.6,1.2,1.3*05
2017-11-16 15:48:13 1510865293.705584: $GPGSV,3,1,12,11,03,322,32,10,78,351,50,14,36,262,44,31,08,204,29*74
2017-11-16 15:48:13 1510865293.705765: $GPGSV,3,2,12,18,63,111,48,25,10,135,20,21,19,178,43,24,37,051,49*70
2017-11-16 15:48:13 1510865293.705826: $GPGSV,3,3,12,15,04,072,27,32,53,277,45,12,15,099,41,138,38,213,44*4D
2017-11-16 15:48:13 1510865293.817632: $GPZDA,204812.00,16,11,2017,00,00*68
2017-11-16 15:48:13 1510865293.817795: $GPGGA,204812,3946.9576,N,08404.9852,W,2,12,1.20,309.56,M,-33.324,M,,*74
2017-11-16 15:48:13 1510865293.817877: $GPRMC,204812,A,3946.9576,N,08404.9852,W,0.0000,0.000,161117,,*38
2017-11-16 15:48:13 1510865293.817934: $GPGSA,A,3,11,10,14,31,18,25,21,24,15,32,12,138,1.6,1.2,1.3*05
