2017-12-01 16:14:42 1512162882.297162: {"class":"VERSION","release":"3.16","rev":"3.16-4","proto_major":3,"proto_minor":11}
2017-12-01 16:14:42 1512162882.297576: {"class":"DEVICES","devices":[{"class":"DEVICE","path":"/dev/ttyUSB0","driver":"SiRF","subtype":"9\u0006GSD4e_4.1.2-P1_RPATCH.05-F-GPS-4R-1510281 11/03/2015 307","activated":"2017-12-01T21:14:42.272Z","flags":1,"native":1,"bps":4800,"parity":"N","stopbits":1,"cycle":1.00}]}
2017-12-01 16:14:42 1512162882.297701: {"class":"WATCH","enable":true,"json":false,"nmea":true,"raw":0,"scaled":false,"timing":false,"split24":false,"pps":false}
2017-12-01 16:14:42 1512162882.385630: $GPZDA,211443.00,01,12,2017,00,00*61
2017-12-01 16:14:42 1512162882.385784: $GPGGA,211443,3946.9595,N,08404.9834,W,2,11,0.80,305.13,M,-33.324,M,,*70
2017-12-01 16:14:42 1512162882.385851: $GPRMC,211443,A,3946.9595,N,08404.9834,W,0.0000,0.000,011217,,*3C
2017-12-01 16:14:42 1512162882.385912: $GPGSA,A,3,1,10,12,14,18,22,25,31,32,11,138,,2.0,0.8,1.5*3D
2017-12-01 16:14:43 1512162883.388965: $GPZDA,211444.00,01,12,2017,00,00*66
2017-12-01 16:14:43 1512162883.389129: $GPGGA,211444,3946.9595,N,08404.9834,W,2,11,0.80,305.13,M,-33.324,M,,*77
2017-12-01 16:14:43 1512162883.389199: $GPRMC,211444,A,3946.9595,N,08404.9834,W,0.0000,0.000,011217,,*3B
2017-12-01 16:14:43 1512162883.389264: $GPGSA,A,3,1,10,12,14,18,22,25,31,32,11,138,,2.0,0.8,1.5*3D
2017-12-01 16:14:44 1512162884.733396: $GPGSV,3,1,12,01,20,307,36,10,56,144,48,12,24,057,45,14,62,312,45*73
2017-12-01 16:14:44 1512162884.733590: $GPGSV,3,2,12,18,25,141,45,22,13,312,20,25,37,100,47,31,48,219,49*78
2017-12-01 16:14:44 1512162884.733659: $GPGSV,3,3,12,32,70,007,46,11,10,289,30,24,03,048,00,138,38,213,46*42
2017-12-01 16:14:44 1512162884.847831: $GPZDA,211445.00,01,12,2017,00,00*67
2017-12-01 16:14:44 1512162884.848025: $GPGGA,211445,3946.9595,N,08404.9834,W,2,11,0.80,305.13,M,-33.324,M,,*76
2017-12-01 16:14:44 1512162884.848096: $GPRMC,211445,A,3946.9595,N,08404.9834,W,0.0000,0.000,011217,,*3A
2017-12-01 16:14:44 1512162884.848158: $GPGSA,A,3,1,10,12,14,18,22,25,31,32,11,138,,2.0,0.8,1.5*3D
2017-12-01 16:14:45 1512162885.472477: $GPZDA,211446.00,01,12,2017,00,00*64
2017-12-01 16:14:45 1512162885.472648: $GPGGA,211446,3946.9595,N,08404.9834,W,2,11,0.80,305.13,M,-33.324,M,,*75
2017-12-01 16:14:45 1512162885.472717: $GPRMC,211446,A,3946.9595,N,08404.9834,W,0.0000,0.000,011217,,*39
2017-12-01 16:14:45 1512162885.472778: $GPGSA,A,3,1,10,12,14,18,22,25,31,32,11,138,,2.0,0.8,1.5*3D
2017-12-01 16:14:46 1512162886.403059: $GPZDA,211447.00,01,12,2017,00,00*65
2017-12-01 16:14:46 1512162886.403246: $GPGGA,211447,3946.9595,N,08404.9834,W,2,11,0.80,305.13,M,-33.324,M,,*74
2017-12-01 16:14:46 1512162886.403314: $GPRMC,211447,A,3946.9595,N,08404.9834,W,0.0000,0.000,011217,,*38
2017-12-01 16:14:46 1512162886.403375: $GPGSA,A,3,1,10,12,14,18,22,25,31,32,11,138,,2.0,0.8,1.5*3D
2017-12-01 16:14:47 1512162887.738770: $GPGSV,3,1,12,01,20,307,36,10,56,144,48,12,24,057,45,14,62,312,45*73
2017-12-01 16:14:47 1512162887.738958: $GPGSV,3,2,12,18,25,141,44,22,13,312,26,25,37,100,46,31,48,219,48*7F
2017-12-01 16:14:47 1512162887.739026: $GPGSV,3,3,12,32,70,007,45,11,10,289,29,24,03,048,00,138,38,213,45*4A
2017-12-01 16:14:47 1512162887.852414: $GPZDA,211448.00,01,12,2017,00,00*6A
2017-12-01 16:14:47 1512162887.852572: $GPGGA,211448,3946.9595,N,08404.9834,W,2,11,0.80,305.13,M,-33.324,M,,*7B
2017-12-01 16:14:47 1512162887.852637: $GPRMC,211448,A,3946.9595,N,08404.9834,W,0.0000,0.000,011217,,*37
2017-12-01 16:14:47 1512162887.852697: $GPGSA,A,3,1,10,12,14,18,22,25,31,32,11,138,,2.0,0.8,1.5*3D
2017-12-01 16:14:48 1512162888.409276: $GPZDA,211449.00,01,12,2017,00,00*6B
2017-12-01 16:14:48 1512162888.409455: $GPGGA,211449,3946.9595,N,08404.9834,W,2,11,0.80,305.13,M,-33.324,M,,*7A
2017-12-01 16:14:48 1512162888.409522: $GPRMC,211449,A,3946.9595,N,08404.9834,W,0.0000,0.000,011217,,*36
2017-12-01 16:14:48 1512162888.409583: $GPGSA,A,3,1,10,12,14,18,22,25,31,32,11,138,,2.0,0.8,1.5*3D
2017-12-01 16:14:49 1512162889.387828: $GPZDA,211450.00,01,12,2017,00,00*63
2017-12-01 16:14:49 1512162889.388053: $GPGGA,211450,3946.9600,N,08404.9834,W,2,11,0.80,305.77,M,-33.324,M,,*7F
2017-12-01 16:14:49 1512162889.388120: $GPRMC,211450,A,3946.9600,N,08404.9834,W,0.0000,0.000,011217,,*31
2017-12-01 16:14:49 1512162889.388182: $GPGSA,A,3,1,10,12,14,18,22,25,31,32,11,138,,2.0,0.8,1.5*3D
2017-12-01 16:14:50 1512162890.721745: $GPGSV,3,1,12,01,20,307,35,10,56,144,48,12,24,057,45,14,62,312,45*70
2017-12-01 16:14:50 1512162890.721923: $GPGSV,3,2,12,18,25,141,45,22,13,312,00,25,37,100,46,31,48,219,48*7A
2017-12-01 16:14:50 1512162890.721990: $GPGSV,3,3,12,32,70,007,46,11,10,289,30,24,03,048,00,138,38,213,46*42
2017-12-01 16:14:50 1512162890.835292: $GPZDA,211451.00,01,12,2017,00,00*62
2017-12-01 16:14:50 1512162890.835439: $GPGGA,211451,3946.9599,N,08404.9827,W,2,10,0.80,305.85,M,-33.324,M,,*73
2017-12-01 16:14:50 1512162890.835505: $GPRMC,211451,A,3946.9599,N,08404.9827,W,0.0000,0.000,011217,,*31
2017-12-01 16:14:50 1512162890.835566: $GPGSA,A,3,1,10,12,14,18,25,31,32,11,138,,,2.0,0.8,1.5*3D
2017-12-01 16:14:51 1512162891.391218: $GPZDA,211452.00,01,12,2017,00,00*61
2017-12-01 16:14:51 1512162891.391440: $GPGGA,211452,3946.9599,N,08404.9827,W,2,10,0.80,305.85,M,-33.324,M,,*70
2017-12-01 16:14:51 1512162891.391515: $GPRMC,211452,A,3946.9599,N,08404.9827,W,0.0000,0.000,011217,,*32
2017-12-01 16:14:51 1512162891.391579: $GPGSA,A,3,1,10,12,14,18,25,31,32,11,138,,,2.0,0.8,1.5*3D
2017-12-01 16:14:52 1512162892.387996: $GPZDA,211453.00,01,12,2017,00,00*60
2017-12-01 16:14:52 1512162892.388173: $GPGGA,211453,3946.9599,N,08404.9827,W,2,10,0.80,305.85,M,-33.324,M,,*71
2017-12-01 16:14:52 1512162892.388239: $GPRMC,211453,A,3946.9599,N,08404.9827,W,0.0000,0.000,011217,,*33
2017-12-01 16:14:52 1512162892.388301: $GPGSA,A,3,1,10,12,14,18,25,31,32,11,138,,,2.0,0.8,1.5*3D
2017-12-01 16:14:53 1512162893.722528: $GPGSV,3,1,12,01,20,307,35,10,56,144,48,12,24,057,46,14,62,312,45*73
2017-12-01 16:14:53 1512162893.722709: $GPGSV,3,2,12,18,25,141,45,24,03,048,19,25,37,100,46,31,48,219,48*79
2017-12-01 16:14:53 1512162893.722778: $GPGSV,3,3,12,32,70,007,46,11,10,289,30,22,13,312,25,138,38,213,45*4D
2017-12-01 16:14:53 1512162893.835953: $GPZDA,211454.00,01,12,2017,00,00*67
2017-12-01 16:14:53 1512162893.836123: $GPGGA,211454,3946.9599,N,08404.9827,W,2,11,0.80,305.85,M,-33.324,M,,*77
2017-12-01 16:14:53 1512162893.836190: $GPRMC,211454,A,3946.9599,N,08404.9827,W,0.0000,0.000,011217,,*34
2017-12-01 16:14:53 1512162893.836251: $GPGSA,A,3,1,10,12,14,18,25,31,32,11,22,138,,2.0,0.8,1.5*3D
2017-12-01 16:14:54 1512162894.385503: $GPZDA,211455.00,01,12,2017,00,00*66
2017-12-01 16:14:54 1512162894.385675: $GPGGA,211455,3946.9599,N,08404.9827,W,2,11,0.80,305.85,M,-33.324,M,,*76
2017-12-01 16:14:54 1512162894.385745: $GPRMC,211455,A,3946.9599,N,08404.9827,W,0.0000,0.000,011217,,*35
2017-12-01 16:14:54 1512162894.385806: $GPGSA,A,3,1,10,12,14,18,25,31,32,11,22,138,,2.0,0.8,1.5*3D
2017-12-01 16:14:55 1512162895.398522: $GPZDA,211456.00,01,12,2017,00,00*65
2017-12-01 16:14:55 1512162895.398693: $GPGGA,211456,3946.9599,N,08404.9827,W,2,11,0.80,305.85,M,-33.324,M,,*75
2017-12-01 16:14:55 1512162895.398760: $GPRMC,211456,A,3946.9599,N,08404.9827,W,0.0000,0.000,011217,,*36
2017-12-01 16:14:55 1512162895.398821: $GPGSA,A,3,1,10,12,14,18,25,31,32,11,22,138,,2.0,0.8,1.5*3D
2017-12-01 16:14:56 1512162896.722873: $GPGSV,3,1,12,01,20,307,34,10,56,144,47,12,24,057,45,14,62,312,45*7E
2017-12-01 16:14:56 1512162896.723054: $GPGSV,3,2,12,18,25,141,45,24,03,048,19,25,37,100,47,31,48,219,48*78
2017-12-01 16:14:56 1512162896.723121: $GPGSV,3,3,12,32,70,007,46,11,10,289,30,22,13,312,13,138,38,213,46*4B
2017-12-01 16:14:56 1512162896.836236: $GPZDA,211457.00,01,12,2017,00,00*64
2017-12-01 16:14:56 1512162896.836410: $GPGGA,211457,3946.9599,N,08404.9827,W,2,12,0.80,305.85,M,-33.324,M,,*77
2017-12-01 16:14:56 1512162896.836477: $GPRMC,211457,A,3946.9599,N,08404.9827,W,0.0000,0.000,011217,,*37
2017-12-01 16:14:56 1512162896.836538: $GPGSA,A,3,1,10,12,14,18,24,25,31,32,11,22,138,2.0,0.8,1.5*3B
2017-12-01 16:14:57 1512162897.387167: $GPZDA,211458.00,01,12,2017,00,00*6B
2017-12-01 16:14:57 1512162897.387393: $GPGGA,211458,3946.9599,N,08404.9827,W,2,12,0.80,305.85,M,-33.324,M,,*78
2017-12-01 16:14:57 1512162897.387463: $GPRMC,211458,A,3946.9599,N,08404.9827,W,0.0000,0.000,011217,,*38
2017-12-01 16:14:57 1512162897.387524: $GPGSA,A,3,1,10,12,14,18,24,25,31,32,11,22,138,2.0,0.8,1.5*3B
2017-12-01 16:14:58 1512162898.388395: $GPZDA,211459.00,01,12,2017,00,00*6A
2017-12-01 16:14:58 1512162898.388567: $GPGGA,211459,3946.9599,N,08404.9827,W,2,12,0.80,305.85,M,-33.324,M,,*79
2017-12-01 16:14:58 1512162898.388634: $GPRMC,211459,A,3946.9599,N,08404.9827,W,0.0000,0.000,011217,,*39
2017-12-01 16:14:58 1512162898.388695: $GPGSA,A,3,1,10,12,14,18,24,25,31,32,11,22,138,2.0,0.8,1.5*3B
2017-12-01 16:14:59 1512162899.722467: $GPGSV,3,1,12,01,20,307,28,10,56,144,48,12,24,057,45,14,62,312,45*7C
2017-12-01 16:14:59 1512162899.722652: $GPGSV,3,2,12,18,25,141,45,24,03,048,00,25,37,100,47,31,48,219,49*71
2017-12-01 16:14:59 1512162899.722719: $GPGSV,3,3,12,32,70,007,46,11,10,289,31,22,13,312,26,138,38,213,46*4C
2017-12-01 16:14:59 1512162899.835859: $GPZDA,211500.00,01,12,2017,00,00*67
2017-12-01 16:14:59 1512162899.836032: $GPGGA,211500,3946.9599,N,08404.9827,W,2,11,0.80,305.85,M,-33.324,M,,*77
2017-12-01 16:14:59 1512162899.836098: $GPRMC,211500,A,3946.9599,N,08404.9827,W,0.0000,0.000,011217,,*34
2017-12-01 16:14:59 1512162899.836159: $GPGSA,A,3,1,10,12,14,18,25,31,32,11,22,138,,2.0,0.8,1.5*3D
2017-12-01 16:15:00 1512162900.461207: $GPZDA,211501.00,01,12,2017,00,00*66
2017-12-01 16:15:00 1512162900.461431: $GPGGA,211501,3946.9599,N,08404.9827,W,2,11,0.80,305.85,M,-33.324,M,,*76
2017-12-01 16:15:00 1512162900.461509: $GPRMC,211501,A,3946.9599,N,08404.9827,W,0.0000,0.000,011217,,*35
2017-12-01 16:15:00 1512162900.461572: $GPGSA,A,3,1,10,12,14,18,25,31,32,11,22,138,,2.0,0.8,1.5*3D
2017-12-01 16:15:01 1512162901.383334: $GPZDA,211502.00,01,12,2017,00,00*65
2017-12-01 16:15:01 1512162901.383505: $GPGGA,211502,3946.9599,N,08404.9827,W,2,11,0.80,305.85,M,-33.324,M,,*75
2017-12-01 16:15:01 1512162901.383572: $GPRMC,211502,A,3946.9599,N,08404.9827,W,0.0000,0.000,011217,,*36
2017-12-01 16:15:01 1512162901.383633: $GPGSA,A,3,1,10,12,14,18,25,31,32,11,22,138,,2.0,0.8,1.5*3D
