2017-11-16 17:39:56 1510871996.260970: {"class":"VERSION","release":"3.17","rev":"3.17","proto_major":3,"proto_minor":12}
2017-11-16 17:39:56 1510871996.261462: {"class":"DEVICES","devices":[{"class":"DEVICE","path":"/dev/ttyUSB0","driver":"SiRF","subtype":"9\u0006GSD4e_4.1.2-P1_RPATCH.05-F-GPS-4R-1510281 11/03/2015 307","activated":"2017-11-16T22:39:56.211Z","flags":1,"native":1,"bps":4800,"parity":"N","stopbits":1,"cycle":1.00}]}
2017-11-16 17:39:56 1510871996.261574: {"class":"WATCH","enable":true,"json":false,"nmea":true,"raw":0,"scaled":false,"timing":false,"split24":false,"pps":false}
2017-11-16 17:39:56 1510871996.389198: $GPZDA,223955.00,16,11,2017,00,00*6F
2017-11-16 17:39:56 1510871996.389379: $GPGGA,223955,3946.9576,N,08404.9841,W,2,11,0.80,303.26,M,-33.324,M,,*74
2017-11-16 17:39:56 1510871996.389456: $GPRMC,223955,A,3946.9576,N,08404.9841,W,0.0000,0.000,161117,,*3D
2017-11-16 17:39:56 1510871996.389512: $GPGSA,A,3,1,10,22,12,14,18,11,25,31,32,138,,1.6,0.8,1.3*3E
2017-11-16 17:39:57 1510871997.737626: $GPGSV,3,1,12,01,22,297,37,10,44,150,46,22,22,312,40,12,20,046,48*7D
2017-11-16 17:39:57 1510871997.737796: $GPGSV,3,2,12,14,68,337,47,18,15,145,40,26,05,183,01,11,07,279,41*79
2017-11-16 17:39:57 1510871997.737857: $GPGSV,3,3,12,25,40,085,50,31,59,228,48,32,67,037,50,138,38,213,44*4B
2017-11-16 17:39:57 1510871997.850881: $GPZDA,223956.00,16,11,2017,00,00*6C
2017-11-16 17:39:57 1510871997.851024: $GPGGA,223956,3946.9576,N,08404.9841,W,2,11,0.80,303.26,M,-33.324,M,,*77
2017-11-16 17:39:57 1510871997.851084: $GPRMC,223956,A,3946.9576,N,08404.9841,W,0.0000,0.000,161117,,*3E
2017-11-16 17:39:57 1510871997.851139: $GPGSA,A,3,1,10,22,12,14,18,11,25,31,32,138,,1.6,0.8,1.3*3E
2017-11-16 17:39:58 1510871998.395583: $GPZDA,223957.00,16,11,2017,00,00*6D
2017-11-16 17:39:58 1510871998.395762: $GPGGA,223957,3946.9576,N,08404.9841,W,2,11,0.80,303.26,M,-33.324,M,,*76
2017-11-16 17:39:58 1510871998.395824: $GPRMC,223957,A,3946.9576,N,08404.9841,W,0.0000,0.000,161117,,*3F
2017-11-16 17:39:58 1510871998.395879: $GPGSA,A,3,1,10,22,12,14,18,11,25,31,32,138,,1.6,0.8,1.3*3E
2017-11-16 17:39:59 1510871999.395189: $GPZDA,223958.00,16,11,2017,00,00*62
2017-11-16 17:39:59 1510871999.395388: $GPGGA,223958,3946.9576,N,08404.9841,W,2,11,0.80,303.26,M,-33.324,M,,*79
2017-11-16 17:39:59 1510871999.395450: $GPRMC,223958,A,3946.9576,N,08404.9841,W,0.0000,0.000,161117,,*30
2017-11-16 17:39:59 1510871999.395506: $GPGSA,A,3,1,10,22,12,14,18,11,25,31,32,138,,1.6,0.8,1.3*3E
2017-11-16 17:40:00 1510872000.732168: $GPGSV,3,1,12,01,22,297,38,10,44,150,46,22,22,312,41,12,20,046,48*73
2017-11-16 17:40:00 1510872000.732371: $GPGSV,3,2,12,14,68,337,47,18,15,145,39,26,05,183,22,11,07,279,41*76
2017-11-16 17:40:00 1510872000.732433: $GPGSV,3,3,12,25,40,085,50,31,59,228,48,32,67,037,49,138,38,213,44*43
2017-11-16 17:40:00 1510872000.844277: $GPZDA,223959.00,16,11,2017,00,00*63
2017-11-16 17:40:00 1510872000.844454: $GPGGA,223959,3946.9576,N,08404.9841,W,2,12,0.80,303.26,M,-33.324,M,,*7B
2017-11-16 17:40:00 1510872000.844516: $GPRMC,223959,A,3946.9576,N,08404.9841,W,0.0000,0.000,161117,,*31
2017-11-16 17:40:00 1510872000.844571: $GPGSA,A,3,1,10,22,12,14,18,26,11,25,31,32,138,1.6,0.8,1.3*3A
2017-11-16 17:40:01 1510872001.471041: $GPZDA,224000.00,16,11,2017,00,00*61
2017-11-16 17:40:01 1510872001.471414: $GPGGA,224000,3946.9576,N,08404.9841,W,2,12,0.80,303.26,M,-33.324,M,,*79
2017-11-16 17:40:01 1510872001.471533: $GPRMC,224000,A,3946.9576,N,08404.9841,W,0.0000,0.000,161117,,*33
2017-11-16 17:40:01 1510872001.471646: $GPGSA,A,3,1,10,22,12,14,18,26,11,25,31,32,138,1.6,0.8,1.3*3A
2017-11-16 17:40:02 1510872002.387939: $GPZDA,224001.00,16,11,2017,00,00*60
2017-11-16 17:40:02 1510872002.388117: $GPGGA,224001,3946.9576,N,08404.9841,W,2,12,0.80,303.26,M,-33.324,M,,*78
2017-11-16 17:40:02 1510872002.388203: $GPRMC,224001,A,3946.9576,N,08404.9841,W,0.0000,0.000,161117,,*32
2017-11-16 17:40:02 1510872002.388261: $GPGSA,A,3,1,10,22,12,14,18,26,11,25,31,32,138,1.6,0.8,1.3*3A
2017-11-16 17:40:03 1510872003.728749: $GPGSV,3,1,12,01,22,297,38,10,44,150,45,22,22,312,41,12,20,046,48*70
2017-11-16 17:40:03 1510872003.728968: $GPGSV,3,2,12,14,68,337,47,18,15,145,40,26,05,183,22,11,07,279,41*78
2017-11-16 17:40:03 1510872003.729031: $GPGSV,3,3,12,25,40,085,49,31,59,228,47,32,67,037,49,138,38,213,43*43
2017-11-16 17:40:03 1510872003.842060: $GPZDA,224002.00,16,11,2017,00,00*63
2017-11-16 17:40:03 1510872003.842239: $GPGGA,224002,3946.9576,N,08404.9841,W,2,12,0.80,303.26,M,-33.324,M,,*7B
2017-11-16 17:40:03 1510872003.842316: $GPRMC,224002,A,3946.9576,N,08404.9841,W,0.0000,0.000,161117,,*31
2017-11-16 17:40:03 1510872003.842374: $GPGSA,A,3,1,10,22,12,14,18,26,11,25,31,32,138,1.6,0.8,1.3*3A
2017-11-16 17:40:04 1510872004.389280: $GPZDA,224003.00,16,11,2017,00,00*62
2017-11-16 17:40:04 1510872004.389444: $GPGGA,224003,3946.9576,N,08404.9841,W,2,12,0.80,303.26,M,-33.324,M,,*7A
2017-11-16 17:40:04 1510872004.389507: $GPRMC,224003,A,3946.9576,N,08404.9841,W,0.0000,0.000,161117,,*30
2017-11-16 17:40:04 1510872004.389563: $GPGSA,A,3,1,10,22,12,14,18,26,11,25,31,32,138,1.6,0.8,1.3*3A
2017-11-16 17:40:05 1510872005.394999: $GPZDA,224004.00,16,11,2017,00,00*65
2017-11-16 17:40:05 1510872005.395218: $GPGGA,224004,3946.9576,N,08404.9841,W,2,12,0.80,303.26,M,-33.324,M,,*7D
2017-11-16 17:40:05 1510872005.395283: $GPRMC,224004,A,3946.9576,N,08404.9841,W,0.0000,0.000,161117,,*37
2017-11-16 17:40:05 1510872005.395339: $GPGSA,A,3,1,10,22,12,14,18,26,11,25,31,32,138,1.6,0.8,1.3*3A
