2017-12-01 13:12:22 1512151942.006961: {"class":"VERSION","release":"3.16","rev":"3.16-4","proto_major":3,"proto_minor":11}
2017-12-01 13:12:22 1512151942.007367: {"class":"DEVICES","devices":[{"class":"DEVICE","path":"/dev/ttyUSB0","driver":"SiRF","subtype":"9\u0006GSD4e_4.1.2-P1_RPATCH.05-F-GPS-4R-1510281 11/03/2015 307","activated":"2017-12-01T18:12:21.966Z","flags":1,"native":1,"bps":4800,"parity":"N","stopbits":1,"cycle":1.00}]}
2017-12-01 13:12:22 1512151942.007488: {"class":"WATCH","enable":true,"json":false,"nmea":true,"raw":0,"scaled":false,"timing":false,"split24":false,"pps":false}
2017-12-01 13:12:22 1512151942.204008: $GPZDA,181223.00,01,12,2017,00,00*6B
2017-12-01 13:12:22 1512151942.204203: $GPGGA,181223,3946.9551,N,08404.9862,W,2,11,0.80,297.78,M,-33.324,M,,*76
2017-12-01 13:12:22 1512151942.204268: $GPRMC,181223,A,3946.9551,N,08404.9862,W,0.0000,0.000,011217,,*3D
2017-12-01 13:12:22 1512151942.204329: $GPGSA,A,3,8,10,15,18,20,21,24,27,32,13,138,,2.0,0.8,1.5*33
2017-12-01 13:12:23 1512151943.204033: $GPZDA,181224.00,01,12,2017,00,00*6C
2017-12-01 13:12:23 1512151943.204220: $GPGGA,181224,3946.9551,N,08404.9862,W,2,11,0.80,297.78,M,-33.324,M,,*71
2017-12-01 13:12:23 1512151943.204289: $GPRMC,181224,A,3946.9551,N,08404.9862,W,0.0000,0.000,011217,,*3A
2017-12-01 13:12:23 1512151943.204350: $GPGSA,A,3,8,10,15,18,20,21,24,27,32,13,138,,2.0,0.8,1.5*33
2017-12-01 13:12:24 1512151944.540299: $GPGSV,3,1,12,08,06,322,39,10,42,301,45,15,37,052,49,18,71,337,45*78
2017-12-01 13:12:24 1512151944.540483: $GPGSV,3,2,12,20,33,096,47,21,63,189,45,24,51,109,47,27,19,289,36*70
2017-12-01 13:12:24 1512151944.540550: $GPGSV,3,3,12,32,21,238,43,13,07,048,17,14,04,232,00,138,38,213,47*49
2017-12-01 13:12:24 1512151944.652539: $GPZDA,181225.00,01,12,2017,00,00*6D
2017-12-01 13:12:24 1512151944.652703: $GPGGA,181225,3946.9551,N,08404.9862,W,2,11,0.80,297.78,M,-33.324,M,,*70
2017-12-01 13:12:24 1512151944.652768: $GPRMC,181225,A,3946.9551,N,08404.9862,W,0.0000,0.000,011217,,*3B
2017-12-01 13:12:24 1512151944.652828: $GPGSA,A,3,8,10,15,18,20,21,24,27,32,13,138,,2.0,0.8,1.5*33
2017-12-01 13:12:25 1512151945.205045: $GPZDA,181226.00,01,12,2017,00,00*6E
2017-12-01 13:12:25 1512151945.205213: $GPGGA,181226,3946.9551,N,08404.9862,W,2,11,0.80,297.78,M,-33.324,M,,*73
2017-12-01 13:12:25 1512151945.205281: $GPRMC,181226,A,3946.9551,N,08404.9862,W,0.0000,0.000,011217,,*38
2017-12-01 13:12:25 1512151945.205343: $GPGSA,A,3,8,10,15,18,20,21,24,27,32,13,138,,2.0,0.8,1.5*33
2017-12-01 13:12:26 1512151946.202712: $GPZDA,181227.00,01,12,2017,00,00*6F
2017-12-01 13:12:26 1512151946.202880: $GPGGA,181227,3946.9551,N,08404.9862,W,2,11,0.80,297.78,M,-33.324,M,,*72
2017-12-01 13:12:26 1512151946.202947: $GPRMC,181227,A,3946.9551,N,08404.9862,W,0.0000,0.000,011217,,*39
2017-12-01 13:12:26 1512151946.203008: $GPGSA,A,3,8,10,15,18,20,21,24,27,32,13,138,,2.0,0.8,1.5*33
2017-12-01 13:12:26 1512151946.203066: $GPGBS,181227,2.67,M,3.86,M,8.82,M*3D
2017-12-01 13:12:27 1512151947.538252: $GPGSV,3,1,12,08,06,322,38,10,42,301,45,15,37,052,48,18,71,337,45*78
2017-12-01 13:12:27 1512151947.538417: $GPGSV,3,2,12,20,33,096,47,21,63,189,45,24,51,109,47,27,19,289,37*71
2017-12-01 13:12:27 1512151947.538484: $GPGSV,3,3,12,32,21,238,43,13,07,048,15,14,04,232,00,138,38,213,47*4B
2017-12-01 13:12:27 1512151947.651933: $GPZDA,181228.00,01,12,2017,00,00*60
2017-12-01 13:12:27 1512151947.652081: $GPGGA,181228,3946.9551,N,08404.9862,W,2,11,0.80,297.78,M,-33.324,M,,*7D
2017-12-01 13:12:27 1512151947.652145: $GPRMC,181228,A,3946.9551,N,08404.9862,W,0.0000,0.000,011217,,*36
2017-12-01 13:12:27 1512151947.652204: $GPGSA,A,3,8,10,15,18,20,21,24,27,32,13,138,,2.0,0.8,1.5*33
2017-12-01 13:12:28 1512151948.203351: $GPZDA,181229.00,01,12,2017,00,00*61
2017-12-01 13:12:28 1512151948.209895: $GPGGA,181229,3946.9551,N,08404.9862,W,2,11,0.80,297.78,M,-33.324,M,,*7C
2017-12-01 13:12:28 1512151948.209999: $GPRMC,181229,A,3946.9551,N,08404.9862,W,0.0000,0.000,011217,,*37
2017-12-01 13:12:28 1512151948.210063: $GPGSA,A,3,8,10,15,18,20,21,24,27,32,13,138,,2.0,0.8,1.5*33
2017-12-01 13:12:29 1512151949.203516: $GPZDA,181230.00,01,12,2017,00,00*69
2017-12-01 13:12:29 1512151949.203689: $GPGGA,181230,3946.9551,N,08404.9862,W,2,11,0.80,297.78,M,-33.324,M,,*74
2017-12-01 13:12:29 1512151949.203756: $GPRMC,181230,A,3946.9551,N,08404.9862,W,0.0000,0.000,011217,,*3F
2017-12-01 13:12:29 1512151949.203817: $GPGSA,A,3,8,10,15,18,20,21,24,27,32,13,138,,2.0,0.8,1.5*33
2017-12-01 13:12:30 1512151950.538157: $GPGSV,3,1,12,08,06,322,36,10,42,301,45,15,37,052,49,18,71,337,45*77
2017-12-01 13:12:30 1512151950.538340: $GPGSV,3,2,12,20,33,096,48,21,63,189,45,24,51,109,48,27,19,289,36*70
2017-12-01 13:12:30 1512151950.538428: $GPGSV,3,3,12,32,21,238,43,13,07,048,16,14,04,232,00,138,38,213,48*47
2017-12-01 13:12:30 1512151950.652077: $GPZDA,181231.00,01,12,2017,00,00*68
2017-12-01 13:12:30 1512151950.652233: $GPGGA,181231,3946.9551,N,08404.9862,W,2,11,0.80,297.78,M,-33.324,M,,*75
2017-12-01 13:12:30 1512151950.652299: $GPRMC,181231,A,3946.9551,N,08404.9862,W,0.0000,0.000,011217,,*3E
2017-12-01 13:12:30 1512151950.652361: $GPGSA,A,3,8,10,15,18,20,21,24,27,32,13,138,,2.0,0.8,1.5*33
2017-12-01 13:12:31 1512151951.205775: $GPZDA,181232.00,01,12,2017,00,00*6B
2017-12-01 13:12:31 1512151951.205945: $GPGGA,181232,3946.9551,N,08404.9862,W,2,11,0.80,297.78,M,-33.324,M,,*76
2017-12-01 13:12:31 1512151951.206011: $GPRMC,181232,A,3946.9551,N,08404.9862,W,0.0000,0.000,011217,,*3D
2017-12-01 13:12:31 1512151951.206072: $GPGSA,A,3,8,10,15,18,20,21,24,27,32,13,138,,2.0,0.8,1.5*33
