2017-12-01 14:15:47 1512155747.017285: {"class":"VERSION","release":"3.16","rev":"3.16-4","proto_major":3,"proto_minor":11}
2017-12-01 14:15:47 1512155747.017661: {"class":"DEVICES","devices":[{"class":"DEVICE","path":"/dev/ttyUSB0","driver":"SiRF","subtype":"9\u0006GSD4e_4.1.2-P1_RPATCH.05-F-GPS-4R-1510281 11/03/2015 307","activated":"2017-12-01T19:15:46.538Z","flags":1,"native":1,"bps":4800,"parity":"N","stopbits":1,"cycle":1.00}]}
2017-12-01 14:15:47 1512155747.017773: {"class":"WATCH","enable":true,"json":false,"nmea":true,"raw":0,"scaled":false,"timing":false,"split24":false,"pps":false}
2017-12-01 14:15:47 1512155747.399263: $GPZDA,191548.00,01,12,2017,00,00*60
2017-12-01 14:15:47 1512155747.399433: $GPGGA,191548,3946.9549,N,08404.9815,W,2,12,0.80,315.39,M,-33.324,M,,*79
2017-12-01 14:15:47 1512155747.399500: $GPRMC,191548,A,3946.9549,N,08404.9815,W,0.0000,0.000,011217,,*3F
2017-12-01 14:15:47 1512155747.399561: $GPGSA,A,3,10,14,18,21,24,27,32,8,12,15,20,138,2.0,0.8,1.5*37
2017-12-01 14:15:48 1512155748.696008: $GPGSV,3,1,12,10,66,327,50,14,26,250,39,18,73,084,43,21,32,180,45*7A
2017-12-01 14:15:48 1512155748.696190: $GPGSV,3,2,12,24,47,063,48,27,08,262,40,32,43,261,45,08,07,297,26*7D
2017-12-01 14:15:48 1512155748.696258: $GPGSV,3,3,12,12,07,111,30,15,14,064,22,20,12,115,28,138,38,213,46*42
2017-12-01 14:15:48 1512155748.809471: $GPZDA,191549.00,01,12,2017,00,00*61
2017-12-01 14:15:48 1512155748.809650: $GPGGA,191549,3946.9549,N,08404.9815,W,2,12,0.80,315.39,M,-33.324,M,,*78
2017-12-01 14:15:48 1512155748.809717: $GPRMC,191549,A,3946.9549,N,08404.9815,W,0.0000,0.000,011217,,*3E
2017-12-01 14:15:48 1512155748.809778: $GPGSA,A,3,10,14,18,21,24,27,32,8,12,15,20,138,2.0,0.8,1.5*37
2017-12-01 14:15:49 1512155749.434697: $GPZDA,191550.00,01,12,2017,00,00*69
2017-12-01 14:15:49 1512155749.434878: $GPGGA,191550,3946.9549,N,08404.9815,W,2,12,0.80,315.39,M,-33.324,M,,*70
2017-12-01 14:15:49 1512155749.434946: $GPRMC,191550,A,3946.9549,N,08404.9815,W,0.0000,0.000,011217,,*36
2017-12-01 14:15:49 1512155749.435007: $GPGSA,A,3,10,14,18,21,24,27,32,8,12,15,20,138,2.0,0.8,1.5*37
2017-12-01 14:15:50 1512155750.397331: $GPZDA,191551.00,01,12,2017,00,00*68
2017-12-01 14:15:50 1512155750.397517: $GPGGA,191551,3946.9549,N,08404.9815,W,2,12,0.80,315.39,M,-33.324,M,,*71
2017-12-01 14:15:50 1512155750.397586: $GPRMC,191551,A,3946.9549,N,08404.9815,W,0.0000,0.000,011217,,*37
2017-12-01 14:15:50 1512155750.397648: $GPGSA,A,3,10,14,18,21,24,27,32,8,12,15,20,138,2.0,0.8,1.5*37
2017-12-01 14:15:51 1512155751.736330: $GPGSV,3,1,12,10,66,327,50,14,26,250,38,18,73,084,43,21,32,180,45*7B
2017-12-01 14:15:51 1512155751.736512: $GPGSV,3,2,12,24,47,063,48,27,08,262,40,32,43,261,45,08,07,297,32*78
2017-12-01 14:15:51 1512155751.736580: $GPGSV,3,3,12,12,07,111,30,15,14,064,22,20,12,115,28,138,38,213,46*42
2017-12-01 14:15:51 1512155751.849663: $GPZDA,191552.00,01,12,2017,00,00*6B
2017-12-01 14:15:51 1512155751.849822: $GPGGA,191552,3946.9549,N,08404.9815,W,2,12,0.80,315.39,M,-33.324,M,,*72
2017-12-01 14:15:51 1512155751.849887: $GPRMC,191552,A,3946.9549,N,08404.9815,W,0.0000,0.000,011217,,*34
2017-12-01 14:15:51 1512155751.849948: $GPGSA,A,3,10,14,18,21,24,27,32,8,12,15,20,138,2.0,0.8,1.5*37
2017-12-01 14:15:52 1512155752.400731: $GPZDA,191553.00,01,12,2017,00,00*6A
2017-12-01 14:15:52 1512155752.400906: $GPGGA,191553,3946.9546,N,08404.9816,W,2,12,0.80,316.15,M,-33.324,M,,*72
2017-12-01 14:15:52 1512155752.400972: $GPRMC,191553,A,3946.9546,N,08404.9816,W,0.0000,0.000,011217,,*39
2017-12-01 14:15:52 1512155752.401033: $GPGSA,A,3,10,14,18,21,24,27,32,8,12,15,20,138,2.0,0.8,1.5*37
2017-12-01 14:15:53 1512155753.366452: $GPZDA,191554.00,01,12,2017,00,00*6D
2017-12-01 14:15:53 1512155753.366626: $GPGGA,191554,3946.9546,N,08404.9816,W,2,12,0.80,316.15,M,-33.324,M,,*75
2017-12-01 14:15:53 1512155753.366693: $GPRMC,191554,A,3946.9546,N,08404.9816,W,0.0000,0.000,011217,,*3E
2017-12-01 14:15:53 1512155753.366753: $GPGSA,A,3,10,14,18,21,24,27,32,8,12,15,20,138,2.0,0.8,1.5*37
2017-12-01 14:15:54 1512155754.700428: $GPGSV,3,1,12,10,66,327,49,14,26,250,38,18,73,084,43,21,32,180,45*73
2017-12-01 14:15:54 1512155754.700658: $GPGSV,3,2,12,24,47,063,48,27,08,262,41,32,43,261,45,08,07,297,33*78
2017-12-01 14:15:54 1512155754.700729: $GPGSV,3,3,12,12,07,111,31,15,14,064,24,20,12,115,28,138,38,213,46*45
2017-12-01 14:15:54 1512155754.813762: $GPZDA,191555.00,01,12,2017,00,00*6C
2017-12-01 14:15:54 1512155754.813898: $GPGGA,191555,3946.9547,N,08404.9817,W,2,12,0.80,317.56,M,-33.324,M,,*72
2017-12-01 14:15:54 1512155754.813964: $GPRMC,191555,A,3946.9547,N,08404.9817,W,0.0000,0.000,011217,,*3F
2017-12-01 14:15:54 1512155754.814024: $GPGSA,A,3,10,14,18,21,24,27,32,8,12,15,20,138,2.0,0.8,1.5*37
2017-12-01 14:15:55 1512155755.367599: $GPZDA,191556.00,01,12,2017,00,00*6F
2017-12-01 14:15:55 1512155755.367794: $GPGGA,191556,3946.9547,N,08404.9817,W,2,12,0.80,317.56,M,-33.324,M,,*71
2017-12-01 14:15:55 1512155755.367864: $GPRMC,191556,A,3946.9547,N,08404.9817,W,0.0000,0.000,011217,,*3C
2017-12-01 14:15:55 1512155755.367927: $GPGSA,A,3,10,14,18,21,24,27,32,8,12,15,20,138,2.0,0.8,1.5*37
2017-12-01 14:15:56 1512155756.359303: $GPZDA,191557.00,01,12,2017,00,00*6E
2017-12-01 14:15:56 1512155756.359471: $GPGGA,191557,3946.9547,N,08404.9817,W,2,12,0.80,317.56,M,-33.324,M,,*70
2017-12-01 14:15:56 1512155756.359539: $GPRMC,191557,A,3946.9547,N,08404.9817,W,0.0000,0.000,011217,,*3D
2017-12-01 14:15:56 1512155756.359600: $GPGSA,A,3,10,14,18,21,24,27,32,8,12,15,20,138,2.0,0.8,1.5*37
2017-12-01 14:15:57 1512155757.701301: $GPGSV,3,1,12,10,66,327,49,14,26,250,38,18,73,084,43,21,32,180,44*72
2017-12-01 14:15:57 1512155757.701523: $GPGSV,3,2,12,24,47,063,48,27,08,262,41,32,43,261,45,08,07,297,34*7F
2017-12-01 14:15:57 1512155757.701591: $GPGSV,3,3,12,12,07,111,32,15,14,064,26,20,12,115,28,138,38,213,46*44
2017-12-01 14:15:57 1512155757.814785: $GPZDA,191558.00,01,12,2017,00,00*61
2017-12-01 14:15:57 1512155757.814954: $GPGGA,191558,3946.9543,N,08404.9817,W,2,12,0.80,318.32,M,-33.324,M,,*76
2017-12-01 14:15:57 1512155757.815018: $GPRMC,191558,A,3946.9543,N,08404.9817,W,0.0000,0.000,011217,,*36
2017-12-01 14:15:57 1512155757.815080: $GPGSA,A,3,10,14,18,21,24,27,32,8,12,15,20,138,2.0,0.8,1.5*37
2017-12-01 14:15:58 1512155758.365538: $GPZDA,191559.00,01,12,2017,00,00*60
2017-12-01 14:15:58 1512155758.365709: $GPGGA,191559,3946.9543,N,08404.9817,W,2,12,0.80,318.32,M,-33.324,M,,*77
2017-12-01 14:15:58 1512155758.365775: $GPRMC,191559,A,3946.9543,N,08404.9817,W,0.0000,0.000,011217,,*37
2017-12-01 14:15:58 1512155758.365836: $GPGSA,A,3,10,14,18,21,24,27,32,8,12,15,20,138,2.0,0.8,1.5*37
2017-12-01 14:15:59 1512155759.367225: $GPZDA,191600.00,01,12,2017,00,00*6F
2017-12-01 14:15:59 1512155759.367394: $GPGGA,191600,3946.9544,N,08404.9818,W,2,12,0.80,319.72,M,-33.324,M,,*75
2017-12-01 14:15:59 1512155759.367459: $GPRMC,191600,A,3946.9544,N,08404.9818,W,0.0000,0.000,011217,,*30
2017-12-01 14:15:59 1512155759.367520: $GPGSA,A,3,10,14,18,21,24,27,32,8,12,15,20,138,2.0,0.8,1.5*37
2017-12-01 14:16:00 1512155760.701739: $GPGSV,3,1,12,10,66,327,49,14,26,250,38,18,73,084,44,21,32,180,44*75
2017-12-01 14:16:00 1512155760.701922: $GPGSV,3,2,12,24,47,063,48,27,08,262,41,32,43,261,45,08,07,297,35*7E
2017-12-01 14:16:00 1512155760.701988: $GPGSV,3,3,12,12,07,111,32,15,14,064,27,20,12,115,27,138,38,213,47*4B
2017-12-01 14:16:00 1512155760.814978: $GPZDA,191601.00,01,12,2017,00,00*6E
2017-12-01 14:16:00 1512155760.815131: $GPGGA,191601,3946.9544,N,08404.9818,W,2,12,0.80,319.72,M,-33.324,M,,*74
2017-12-01 14:16:00 1512155760.815197: $GPRMC,191601,A,3946.9544,N,08404.9818,W,0.0000,0.000,011217,,*31
2017-12-01 14:16:00 1512155760.815258: $GPGSA,A,3,10,14,18,21,24,27,32,8,12,15,20,138,2.0,0.8,1.5*37
2017-12-01 14:16:01 1512155761.367180: $GPZDA,191602.00,01,12,2017,00,00*6D
2017-12-01 14:16:01 1512155761.368739: $GPGGA,191602,3946.9544,N,08404.9818,W,2,12,0.80,319.72,M,-33.324,M,,*77
2017-12-01 14:16:01 1512155761.368857: $GPRMC,191602,A,3946.9544,N,08404.9818,W,0.0000,0.000,011217,,*32
2017-12-01 14:16:01 1512155761.368922: $GPGSA,A,3,10,14,18,21,24,27,32,8,12,15,20,138,2.0,0.8,1.5*37
2017-12-01 14:16:02 1512155762.365639: $GPZDA,191603.00,01,12,2017,00,00*6C
2017-12-01 14:16:02 1512155762.365814: $GPGGA,191603,3946.9540,N,08404.9819,W,2,12,0.80,320.49,M,-33.324,M,,*71
2017-12-01 14:16:02 1512155762.365881: $GPRMC,191603,A,3946.9540,N,08404.9819,W,0.0000,0.000,011217,,*36
2017-12-01 14:16:02 1512155762.365942: $GPGSA,A,3,10,14,18,21,24,27,32,8,12,15,20,138,2.0,0.8,1.5*37
2017-12-01 14:16:03 1512155763.702526: $GPGSV,3,1,12,10,66,327,49,14,26,250,39,18,73,084,44,21,32,180,44*74
2017-12-01 14:16:03 1512155763.702699: $GPGSV,3,2,12,24,47,063,49,27,08,262,40,32,43,261,45,08,07,297,37*7C
2017-12-01 14:16:03 1512155763.702766: $GPGSV,3,3,12,12,07,111,32,15,14,064,28,20,12,115,26,138,38,213,46*44
2017-12-01 14:16:03 1512155763.815951: $GPZDA,191604.00,01,12,2017,00,00*6B
2017-12-01 14:16:03 1512155763.816119: $GPGGA,191604,3946.9540,N,08404.9819,W,2,12,0.80,320.49,M,-33.324,M,,*76
2017-12-01 14:16:03 1512155763.816186: $GPRMC,191604,A,3946.9540,N,08404.9819,W,0.0000,0.000,011217,,*31
2017-12-01 14:16:03 1512155763.816247: $GPGSA,A,3,10,14,18,21,24,27,32,8,12,15,20,138,2.0,0.8,1.5*37
2017-12-01 14:16:04 1512155764.441667: $GPZDA,191605.00,01,12,2017,00,00*6A
2017-12-01 14:16:04 1512155764.441840: $GPGGA,191605,3946.9540,N,08404.9812,W,2,12,0.80,320.57,M,-33.324,M,,*73
2017-12-01 14:16:04 1512155764.441907: $GPRMC,191605,A,3946.9540,N,08404.9812,W,0.0000,0.000,011217,,*3B
2017-12-01 14:16:04 1512155764.441969: $GPGSA,A,3,10,14,18,21,24,27,32,8,12,15,20,138,2.0,0.8,1.5*37
2017-12-01 14:16:05 1512155765.365883: $GPZDA,191606.00,01,12,2017,00,00*69
2017-12-01 14:16:05 1512155765.366057: $GPGGA,191606,3946.9540,N,08404.9812,W,2,12,0.80,320.57,M,-33.324,M,,*70
2017-12-01 14:16:05 1512155765.366124: $GPRMC,191606,A,3946.9540,N,08404.9812,W,0.0000,0.000,011217,,*38
2017-12-01 14:16:05 1512155765.366185: $GPGSA,A,3,10,14,18,21,24,27,32,8,12,15,20,138,2.0,0.8,1.5*37
2017-12-01 14:16:06 1512155766.695432: $GPGSV,3,1,12,10,66,327,49,14,26,250,39,18,73,084,44,21,32,180,45*75
2017-12-01 14:16:06 1512155766.695627: $GPGSV,3,2,12,24,47,063,49,27,08,262,38,32,43,261,45,08,07,297,38*7C
2017-12-01 14:16:06 1512155766.695694: $GPGSV,3,3,12,12,07,111,31,15,14,064,29,20,12,115,26,138,38,213,46*46
2017-12-01 14:16:06 1512155766.808829: $GPZDA,191607.00,01,12,2017,00,00*68
2017-12-01 14:16:06 1512155766.808988: $GPGGA,191607,3946.9540,N,08404.9812,W,2,12,0.80,320.57,M,-33.324,M,,*71
2017-12-01 14:16:06 1512155766.809055: $GPRMC,191607,A,3946.9540,N,08404.9812,W,0.0000,0.000,011217,,*39
2017-12-01 14:16:06 1512155766.809115: $GPGSA,A,3,10,14,18,21,24,27,32,8,12,15,20,138,2.0,0.8,1.5*37
