2017-12-01 11:44:44 1512146684.246843: {"class":"VERSION","release":"3.16","rev":"3.16-4","proto_major":3,"proto_minor":11}
2017-12-01 11:44:44 1512146684.247260: {"class":"DEVICES","devices":[{"class":"DEVICE","path":"/dev/ttyUSB0","driver":"SiRF","subtype":"9\u0006GSD4e_4.1.2-P1_RPATCH.05-F-GPS-4R-1510281 11/03/2015 307","activated":"2017-12-01T16:44:44.217Z","flags":1,"native":1,"bps":4800,"parity":"N","stopbits":1,"cycle":1.00}]}
2017-12-01 11:44:44 1512146684.247386: {"class":"WATCH","enable":true,"json":false,"nmea":true,"raw":0,"scaled":false,"timing":false,"split24":false,"pps":false}
2017-12-01 11:44:44 1512146684.394728: $GPZDA,164445.00,01,12,2017,00,00*66
2017-12-01 11:44:44 1512146684.394908: $GPGGA,164445,3946.9570,N,08404.9840,W,2,11,0.80,299.81,M,-33.324,M,,*70
2017-12-01 11:44:44 1512146684.394974: $GPRMC,164445,A,3946.9570,N,08404.9840,W,0.0000,0.000,011217,,*33
2017-12-01 11:44:44 1512146684.395037: $GPGSA,A,3,10,13,15,18,20,21,24,27,29,5,138,,2.0,0.8,1.5*34
2017-12-01 11:44:45 1512146685.400193: $GPZDA,164446.00,01,12,2017,00,00*65
2017-12-01 11:44:45 1512146685.400375: $GPGGA,164446,3946.9566,N,08404.9840,W,2,11,0.80,299.17,M,-33.324,M,,*7B
2017-12-01 11:44:45 1512146685.400444: $GPRMC,164446,A,3946.9566,N,08404.9840,W,0.0000,0.000,011217,,*37
2017-12-01 11:44:45 1512146685.400508: $GPGSA,A,3,10,13,15,18,20,21,24,27,29,5,138,,2.0,0.8,1.5*34
2017-12-01 11:44:46 1512146686.734674: $GPGSV,3,1,12,10,13,271,33,13,43,049,46,15,75,072,46,18,44,285,45*73
2017-12-01 11:44:46 1512146686.734865: $GPGSV,3,2,12,20,62,051,42,21,67,306,46,24,20,148,43,27,09,324,40*79
2017-12-01 11:44:46 1512146686.734932: $GPGSV,3,3,12,29,24,195,44,05,14,078,22,04,12,130,00,138,38,213,45*40
2017-12-01 11:44:46 1512146686.848332: $GPZDA,164447.00,01,12,2017,00,00*64
2017-12-01 11:44:46 1512146686.848484: $GPGGA,164447,3946.9570,N,08404.9840,W,2,11,0.80,299.81,M,-33.324,M,,*72
2017-12-01 11:44:46 1512146686.848549: $GPRMC,164447,A,3946.9570,N,08404.9840,W,0.0000,0.000,011217,,*31
2017-12-01 11:44:46 1512146686.848611: $GPGSA,A,3,10,13,15,18,20,21,24,27,29,5,138,,2.0,0.8,1.5*34
2017-12-01 11:44:47 1512146687.399320: $GPZDA,164448.00,01,12,2017,00,00*6B
2017-12-01 11:44:47 1512146687.399524: $GPGGA,164448,3946.9570,N,08404.9840,W,2,11,0.80,299.81,M,-33.324,M,,*7D
2017-12-01 11:44:47 1512146687.399594: $GPRMC,164448,A,3946.9570,N,08404.9840,W,0.0000,0.000,011217,,*3E
2017-12-01 11:44:47 1512146687.399660: $GPGSA,A,3,10,13,15,18,20,21,24,27,29,5,138,,2.0,0.8,1.5*34
2017-12-01 11:44:48 1512146688.418305: $GPZDA,164449.00,01,12,2017,00,00*6A
2017-12-01 11:44:48 1512146688.418465: $GPGGA,164449,3946.9570,N,08404.9840,W,2,11,0.80,299.81,M,-33.324,M,,*7C
2017-12-01 11:44:48 1512146688.418532: $GPRMC,164449,A,3946.9570,N,08404.9840,W,0.0000,0.000,011217,,*3F
2017-12-01 11:44:48 1512146688.418595: $GPGSA,A,3,10,13,15,18,20,21,24,27,29,5,138,,2.0,0.8,1.5*34
2017-12-01 11:44:49 1512146689.730066: $GPGSV,3,1,12,10,13,271,32,13,43,049,46,15,75,072,46,18,44,285,45*72
2017-12-01 11:44:49 1512146689.730260: $GPGSV,3,2,12,20,62,051,42,21,67,306,46,24,20,148,43,27,09,324,40*79
2017-12-01 11:44:49 1512146689.730329: $GPGSV,3,3,12,29,24,195,44,05,14,078,21,04,12,130,00,138,38,213,45*43
2017-12-01 11:44:49 1512146689.843802: $GPZDA,164450.00,01,12,2017,00,00*62
2017-12-01 11:44:49 1512146689.843983: $GPGGA,164450,3946.9570,N,08404.9840,W,2,11,0.80,299.81,M,-33.324,M,,*74
2017-12-01 11:44:49 1512146689.844050: $GPRMC,164450,A,3946.9570,N,08404.9840,W,0.0000,0.000,011217,,*37
2017-12-01 11:44:49 1512146689.844112: $GPGSA,A,3,10,13,15,18,20,21,24,27,29,5,138,,2.0,0.8,1.5*34
2017-12-01 11:44:50 1512146690.394418: $GPZDA,164451.00,01,12,2017,00,00*63
2017-12-01 11:44:50 1512146690.394602: $GPGGA,164451,3946.9570,N,08404.9840,W,2,11,0.80,299.81,M,-33.324,M,,*75
2017-12-01 11:44:50 1512146690.394674: $GPRMC,164451,A,3946.9570,N,08404.9840,W,0.0000,0.000,011217,,*36
2017-12-01 11:44:50 1512146690.394738: $GPGSA,A,3,10,13,15,18,20,21,24,27,29,5,138,,2.0,0.8,1.5*34
2017-12-01 11:44:51 1512146691.416384: $GPZDA,164452.00,01,12,2017,00,00*60
2017-12-01 11:44:51 1512146691.416632: $GPGGA,164452,3946.9570,N,08404.9840,W,2,11,1.00,299.81,M,-33.324,M,,*7F
2017-12-01 11:44:51 1512146691.416705: $GPRMC,164452,A,3946.9570,N,08404.9840,W,0.0000,0.000,011217,,*35
2017-12-01 11:44:51 1512146691.416768: $GPGSA,A,3,10,13,15,18,20,21,24,27,29,5,138,,2.0,1.0,1.5*3D
2017-12-01 11:44:52 1512146692.755882: $GPGSV,3,1,12,10,13,271,34,13,43,049,46,15,75,072,47,18,44,285,45*75
2017-12-01 11:44:52 1512146692.756084: $GPGSV,3,2,12,20,62,051,42,21,67,306,45,24,20,148,43,27,09,324,40*7A
2017-12-01 11:44:52 1512146692.756152: $GPGSV,3,3,12,29,24,195,44,05,14,078,14,04,12,130,00,138,38,213,46*46
2017-12-01 11:44:52 1512146692.869353: $GPZDA,164453.00,01,12,2017,00,00*61
2017-12-01 11:44:52 1512146692.869531: $GPGGA,164453,3946.9570,N,08404.9840,W,2,11,0.80,299.81,M,-33.324,M,,*77
2017-12-01 11:44:52 1512146692.869604: $GPRMC,164453,A,3946.9570,N,08404.9840,W,0.0000,0.000,011217,,*34
2017-12-01 11:44:52 1512146692.869691: $GPGSA,A,3,10,13,15,18,20,21,24,27,29,5,138,,2.0,0.8,1.5*34
2017-12-01 11:44:53 1512146693.496089: $GPZDA,164454.00,01,12,2017,00,00*66
2017-12-01 11:44:53 1512146693.496308: $GPGGA,164454,3946.9570,N,08404.9840,W,2,11,0.80,299.81,M,-33.324,M,,*70
2017-12-01 11:44:53 1512146693.496384: $GPRMC,164454,A,3946.9570,N,08404.9840,W,0.0000,0.000,011217,,*33
2017-12-01 11:44:53 1512146693.496450: $GPGSA,A,3,10,13,15,18,20,21,24,27,29,5,138,,2.0,0.8,1.5*34
