2017-11-16 15:27:40 1510864060.526632: {"class":"VERSION","release":"3.17","rev":"3.17","proto_major":3,"proto_minor":12}
2017-11-16 15:27:40 1510864060.527154: {"class":"DEVICES","devices":[{"class":"DEVICE","path":"/dev/ttyUSB0","driver":"SiRF","subtype":"9\u0006GSD4e_4.1.2-P1_RPATCH.05-F-GPS-4R-1510281 11/03/2015 307","activated":"2017-11-16T20:27:40.250Z","flags":1,"native":1,"bps":4800,"parity":"N","stopbits":1,"cycle":1.00}]}
2017-11-16 15:27:40 1510864060.527282: {"class":"WATCH","enable":true,"json":false,"nmea":true,"raw":0,"scaled":false,"timing":false,"split24":false,"pps":false}
2017-11-16 15:27:40 1510864060.699782: $GPGSV,3,1,12,08,06,292,33,10,69,331,51,14,29,253,45,15,11,066,28*71
2017-11-16 15:27:40 1510864060.699950: $GPGSV,3,2,12,18,71,094,47,20,08,118,25,21,29,180,45,24,45,058,51*71
2017-11-16 15:27:40 1510864060.700011: $GPGSV,3,3,12,27,06,259,35,32,46,265,46,12,09,106,27,138,38,213,44*48
2017-11-16 15:27:40 1510864060.813348: $GPZDA,202739.00,16,11,2017,00,00*68
2017-11-16 15:27:40 1510864060.813492: $GPGGA,202739,3946.9569,N,08404.9867,W,2,12,0.80,309.53,M,-33.324,M,,*72
2017-11-16 15:27:40 1510864060.813550: $GPRMC,202739,A,3946.9569,N,08404.9867,W,0.0000,0.000,161117,,*30
2017-11-16 15:27:40 1510864060.813605: $GPGSA,A,3,8,10,14,15,18,20,21,24,27,32,12,138,1.6,0.8,1.3*34
2017-11-16 15:27:41 1510864061.438436: $GPZDA,202740.00,16,11,2017,00,00*66
2017-11-16 15:27:41 1510864061.438602: $GPGGA,202740,3946.9569,N,08404.9867,W,2,12,0.80,309.53,M,-33.324,M,,*7C
2017-11-16 15:27:41 1510864061.438664: $GPRMC,202740,A,3946.9569,N,08404.9867,W,0.0000,0.000,161117,,*3E
2017-11-16 15:27:41 1510864061.438721: $GPGSA,A,3,8,10,14,15,18,20,21,24,27,32,12,138,1.6,0.8,1.3*34
2017-11-16 15:27:42 1510864062.368423: $GPZDA,202741.00,16,11,2017,00,00*67
2017-11-16 15:27:42 1510864062.368587: $GPGGA,202741,3946.9569,N,08404.9867,W,2,12,0.80,309.53,M,-33.324,M,,*7D
2017-11-16 15:27:42 1510864062.368649: $GPRMC,202741,A,3946.9569,N,08404.9867,W,0.0000,0.000,161117,,*3F
2017-11-16 15:27:42 1510864062.368705: $GPGSA,A,3,8,10,14,15,18,20,21,24,27,32,12,138,1.6,0.8,1.3*34
2017-11-16 15:27:43 1510864063.703851: $GPGSV,3,1,12,08,06,292,34,10,69,331,50,14,29,253,45,15,11,066,22*7D
2017-11-16 15:27:43 1510864063.704013: $GPGSV,3,2,12,18,71,094,47,20,08,118,25,21,29,180,45,24,45,058,51*71
2017-11-16 15:27:43 1510864063.704073: $GPGSV,3,3,12,27,06,259,35,32,46,265,46,12,09,106,21,138,38,213,45*4F
2017-11-16 15:27:43 1510864063.817139: $GPZDA,202742.00,16,11,2017,00,00*64
2017-11-16 15:27:43 1510864063.817311: $GPGGA,202742,3946.9569,N,08404.9867,W,2,12,0.80,309.53,M,-33.324,M,,*7E
2017-11-16 15:27:43 1510864063.817373: $GPRMC,202742,A,3946.9569,N,08404.9867,W,0.0000,0.000,161117,,*3C
2017-11-16 15:27:43 1510864063.817429: $GPGSA,A,3,8,10,14,15,18,20,21,24,27,32,12,138,1.6,0.8,1.3*34
2017-11-16 15:27:44 1510864064.366772: $GPZDA,202743.00,16,11,2017,00,00*65
2017-11-16 15:27:44 1510864064.366935: $GPGGA,202743,3946.9569,N,08404.9867,W,2,12,0.80,309.53,M,-33.324,M,,*7F
2017-11-16 15:27:44 1510864064.366997: $GPRMC,202743,A,3946.9569,N,08404.9867,W,0.0000,0.000,161117,,*3D
2017-11-16 15:27:44 1510864064.367054: $GPGSA,A,3,8,10,14,15,18,20,21,24,27,32,12,138,1.6,0.8,1.3*34
2017-11-16 15:27:45 1510864065.371437: $GPZDA,202744.00,16,11,2017,00,00*62
2017-11-16 15:27:45 1510864065.371607: $GPGGA,202744,3946.9569,N,08404.9867,W,2,12,0.80,309.53,M,-33.324,M,,*78
2017-11-16 15:27:45 1510864065.371669: $GPRMC,202744,A,3946.9569,N,08404.9867,W,0.0000,0.000,161117,,*3A
2017-11-16 15:27:45 1510864065.371725: $GPGSA,A,3,8,10,14,15,18,20,21,24,27,32,12,138,1.6,0.8,1.3*34
2017-11-16 15:27:46 1510864066.702910: $GPGSV,3,1,12,08,06,292,34,10,69,331,51,14,29,253,44,15,11,066,14*78
2017-11-16 15:27:46 1510864066.703085: $GPGSV,3,2,12,18,71,094,47,20,08,118,25,21,29,180,44,24,45,058,51*70
2017-11-16 15:27:46 1510864066.703149: $GPGSV,3,3,12,27,06,259,36,32,46,265,46,12,09,106,22,138,38,213,44*4E
2017-11-16 15:27:46 1510864066.814952: $GPZDA,202745.00,16,11,2017,00,00*63
2017-11-16 15:27:46 1510864066.815115: $GPGGA,202745,3946.9569,N,08404.9867,W,2,11,1.00,309.53,M,-33.324,M,,*73
2017-11-16 15:27:46 1510864066.815253: $GPRMC,202745,A,3946.9569,N,08404.9867,W,0.0000,0.000,161117,,*3B
2017-11-16 15:27:46 1510864066.815312: $GPGSA,A,3,8,10,14,18,20,21,24,27,32,12,138,,1.6,1.0,1.3*39
2017-11-16 15:27:47 1510864067.366165: $GPZDA,202746.00,16,11,2017,00,00*60
2017-11-16 15:27:47 1510864067.366352: $GPGGA,202746,3946.9569,N,08404.9867,W,2,11,0.80,309.53,M,-33.324,M,,*79
2017-11-16 15:27:47 1510864067.366413: $GPRMC,202746,A,3946.9569,N,08404.9867,W,0.0000,0.000,161117,,*38
2017-11-16 15:27:47 1510864067.366470: $GPGSA,A,3,8,10,14,18,20,21,24,27,32,12,138,,1.6,0.8,1.3*30
2017-11-16 15:27:48 1510864068.366672: $GPZDA,202747.00,16,11,2017,00,00*61
2017-11-16 15:27:48 1510864068.366843: $GPGGA,202747,3946.9569,N,08404.9867,W,2,11,1.00,309.53,M,-33.324,M,,*71
2017-11-16 15:27:48 1510864068.366906: $GPRMC,202747,A,3946.9569,N,08404.9867,W,0.0000,0.000,161117,,*39
2017-11-16 15:27:48 1510864068.366963: $GPGSA,A,3,8,10,14,18,20,21,24,27,32,12,138,,1.6,1.0,1.3*39
2017-11-16 15:27:49 1510864069.703731: $GPGSV,3,1,12,08,06,292,34,10,69,331,50,14,29,253,45,15,11,066,00*7D
2017-11-16 15:27:49 1510864069.703887: $GPGSV,3,2,12,18,71,094,47,20,08,118,25,21,29,180,44,24,45,058,51*70
2017-11-16 15:27:49 1510864069.703947: $GPGSV,3,3,12,27,06,259,37,32,46,265,46,12,09,106,25,138,38,213,44*48
2017-11-16 15:27:49 1510864069.817018: $GPZDA,202748.00,16,11,2017,00,00*6E
2017-11-16 15:27:49 1510864069.817207: $GPGGA,202748,3946.9569,N,08404.9867,W,2,11,1.00,309.53,M,-33.324,M,,*7E
2017-11-16 15:27:49 1510864069.817295: $GPRMC,202748,A,3946.9569,N,08404.9867,W,0.0000,0.000,161117,,*36
2017-11-16 15:27:49 1510864069.817354: $GPGSA,A,3,8,10,14,18,20,21,24,27,32,12,138,,1.6,1.0,1.3*39
2017-11-16 15:27:50 1510864070.366652: $GPZDA,202749.00,16,11,2017,00,00*6F
2017-11-16 15:27:50 1510864070.366817: $GPGGA,202749,3946.9569,N,08404.9867,W,2,11,1.00,309.53,M,-33.324,M,,*7F
2017-11-16 15:27:50 1510864070.366879: $GPRMC,202749,A,3946.9569,N,08404.9867,W,0.0000,0.000,161117,,*37
2017-11-16 15:27:50 1510864070.366935: $GPGSA,A,3,8,10,14,18,20,21,24,27,32,12,138,,1.6,1.0,1.3*39
