2017-12-01 17:44:37 1512168277.183429: {"class":"VERSION","release":"3.16","rev":"3.16-4","proto_major":3,"proto_minor":11}
2017-12-01 17:44:37 1512168277.183960: {"class":"DEVICES","devices":[{"class":"DEVICE","path":"/dev/ttyUSB0","driver":"SiRF","subtype":"9\u0006GSD4e_4.1.2-P1_RPATCH.05-F-GPS-4R-1510281 11/03/2015 307","activated":"2017-12-01T22:44:36.589Z","flags":1,"native":1,"bps":4800,"parity":"N","stopbits":1,"cycle":1.00}]}
2017-12-01 17:44:37 1512168277.184116: {"class":"WATCH","enable":true,"json":false,"nmea":true,"raw":0,"scaled":false,"timing":false,"split24":false,"pps":false}
2017-12-01 17:44:37 1512168277.446155: $GPZDA,224438.00,01,12,2017,00,00*6B
2017-12-01 17:44:37 1512168277.446348: $GPGGA,224438,3946.9731,N,08404.9846,W,2,12,0.80,298.36,M,-33.325,M,,*73
2017-12-01 17:44:37 1512168277.446415: $GPRMC,224438,A,3946.9731,N,08404.9846,W,0.0000,0.000,011217,,*3F
2017-12-01 17:44:37 1512168277.446477: $GPGSA,A,3,1,3,10,14,22,25,26,29,31,32,16,138,2.0,0.8,1.5*0C
2017-12-01 17:44:38 1512168278.759206: $GPGSV,3,1,12,01,15,267,42,03,27,312,46,10,14,157,44,14,66,058,41*76
2017-12-01 17:44:38 1512168278.759386: $GPGSV,3,2,12,22,44,295,47,25,31,049,43,26,34,177,45,29,03,088,38*79
2017-12-01 17:44:38 1512168278.759453: $GPGSV,3,3,12,31,79,330,46,32,49,090,45,16,06,190,25,138,38,213,45*4E
2017-12-01 17:44:38 1512168278.872646: $GPZDA,224439.00,01,12,2017,00,00*6A
2017-12-01 17:44:38 1512168278.872806: $GPGGA,224439,3946.9731,N,08404.9846,W,2,12,0.80,298.36,M,-33.325,M,,*72
2017-12-01 17:44:38 1512168278.872871: $GPRMC,224439,A,3946.9731,N,08404.9846,W,0.0000,0.000,011217,,*3E
2017-12-01 17:44:38 1512168278.872930: $GPGSA,A,3,1,3,10,14,22,25,26,29,31,32,16,138,2.0,0.8,1.5*0C
2017-12-01 17:44:39 1512168279.499376: $GPZDA,224440.00,01,12,2017,00,00*64
2017-12-01 17:44:39 1512168279.499548: $GPGGA,224440,3946.9731,N,08404.9846,W,2,12,0.80,298.36,M,-33.325,M,,*7C
2017-12-01 17:44:39 1512168279.499614: $GPRMC,224440,A,3946.9731,N,08404.9846,W,0.0000,0.000,011217,,*30
2017-12-01 17:44:39 1512168279.499675: $GPGSA,A,3,1,3,10,14,22,25,26,29,31,32,16,138,2.0,0.8,1.5*0C
2017-12-01 17:44:40 1512168280.446658: $GPZDA,224441.00,01,12,2017,00,00*65
2017-12-01 17:44:40 1512168280.446828: $GPGGA,224441,3946.9731,N,08404.9846,W,2,12,0.80,298.36,M,-33.325,M,,*7D
2017-12-01 17:44:40 1512168280.446894: $GPRMC,224441,A,3946.9731,N,08404.9846,W,0.0000,0.000,011217,,*31
2017-12-01 17:44:40 1512168280.446954: $GPGSA,A,3,1,3,10,14,22,25,26,29,31,32,16,138,2.0,0.8,1.5*0C
2017-12-01 17:44:41 1512168281.780885: $GPGSV,3,1,12,01,15,267,42,03,27,312,46,10,14,157,44,14,66,058,41*76
2017-12-01 17:44:41 1512168281.781066: $GPGSV,3,2,12,22,44,295,47,25,31,049,43,26,34,177,45,29,03,088,38*79
2017-12-01 17:44:41 1512168281.781133: $GPGSV,3,3,12,31,79,330,46,32,49,090,45,16,06,190,25,138,38,213,45*4E
2017-12-01 17:44:41 1512168281.894435: $GPZDA,224442.00,01,12,2017,00,00*66
2017-12-01 17:44:41 1512168281.894566: $GPGGA,224442,3946.9731,N,08404.9846,W,2,12,0.80,298.36,M,-33.325,M,,*7E
2017-12-01 17:44:41 1512168281.894632: $GPRMC,224442,A,3946.9731,N,08404.9846,W,0.0000,0.000,011217,,*32
2017-12-01 17:44:41 1512168281.894692: $GPGSA,A,3,1,3,10,14,22,25,26,29,31,32,16,138,2.0,0.8,1.5*0C
2017-12-01 17:44:42 1512168282.425337: $GPZDA,224443.00,01,12,2017,00,00*67
2017-12-01 17:44:42 1512168282.425498: $GPGGA,224443,3946.9731,N,08404.9846,W,2,12,0.80,298.36,M,-33.325,M,,*7F
2017-12-01 17:44:42 1512168282.425565: $GPRMC,224443,A,3946.9731,N,08404.9846,W,0.0000,0.000,011217,,*33
2017-12-01 17:44:42 1512168282.425625: $GPGSA,A,3,1,3,10,14,22,25,26,29,31,32,16,138,2.0,0.8,1.5*0C
2017-12-01 17:44:43 1512168283.449958: $GPZDA,224444.00,01,12,2017,00,00*60
2017-12-01 17:44:43 1512168283.450126: $GPGGA,224444,3946.9731,N,08404.9846,W,2,12,0.80,298.36,M,-33.325,M,,*78
2017-12-01 17:44:43 1512168283.450193: $GPRMC,224444,A,3946.9731,N,08404.9846,W,0.0000,0.000,011217,,*34
2017-12-01 17:44:43 1512168283.450252: $GPGSA,A,3,1,3,10,14,22,25,26,29,31,32,16,138,2.0,0.8,1.5*0C
2017-12-01 17:44:44 1512168284.753704: $GPGSV,3,1,12,01,15,267,41,03,27,312,46,10,14,157,44,14,66,058,40*74
2017-12-01 17:44:44 1512168284.753938: $GPGSV,3,2,12,22,44,295,47,25,31,049,43,26,34,177,45,29,03,088,37*76
2017-12-01 17:44:44 1512168284.754007: $GPGSV,3,3,12,31,79,330,46,32,49,090,45,16,06,190,25,138,38,213,45*4E
2017-12-01 17:44:44 1512168284.867444: $GPZDA,224445.00,01,12,2017,00,00*61
2017-12-01 17:44:44 1512168284.867621: $GPGGA,224445,3946.9731,N,08404.9846,W,2,12,0.80,298.36,M,-33.325,M,,*79
2017-12-01 17:44:44 1512168284.867687: $GPRMC,224445,A,3946.9731,N,08404.9846,W,0.0000,0.000,011217,,*35
2017-12-01 17:44:44 1512168284.867748: $GPGSA,A,3,1,3,10,14,22,25,26,29,31,32,16,138,2.0,0.8,1.5*0C
2017-12-01 17:44:45 1512168285.423289: $GPZDA,224446.00,01,12,2017,00,00*62
2017-12-01 17:44:45 1512168285.423473: $GPGGA,224446,3946.9731,N,08404.9846,W,2,12,0.80,298.36,M,-33.325,M,,*7A
2017-12-01 17:44:45 1512168285.423540: $GPRMC,224446,A,3946.9731,N,08404.9846,W,0.0000,0.000,011217,,*36
2017-12-01 17:44:45 1512168285.423601: $GPGSA,A,3,1,3,10,14,22,25,26,29,31,32,16,138,2.0,0.8,1.5*0C
2017-12-01 17:44:46 1512168286.424004: $GPZDA,224447.00,01,12,2017,00,00*63
2017-12-01 17:44:46 1512168286.424204: $GPGGA,224447,3946.9731,N,08404.9846,W,2,12,0.80,298.36,M,-33.325,M,,*7B
2017-12-01 17:44:46 1512168286.427585: $GPRMC,224447,A,3946.9731,N,08404.9846,W,0.0000,0.000,011217,,*37
2017-12-01 17:44:46 1512168286.427671: $GPGSA,A,3,1,3,10,14,22,25,26,29,31,32,16,138,2.0,0.8,1.5*0C
2017-12-01 17:44:47 1512168287.759478: $GPGSV,3,1,12,01,15,267,41,03,27,312,46,10,14,157,44,14,66,058,40*74
2017-12-01 17:44:47 1512168287.759660: $GPGSV,3,2,12,22,44,295,47,25,31,049,43,26,34,177,46,29,03,088,37*75
2017-12-01 17:44:47 1512168287.759726: $GPGSV,3,3,12,31,79,330,46,32,49,090,45,16,06,190,25,138,38,213,45*4E
2017-12-01 17:44:47 1512168287.872831: $GPZDA,224448.00,01,12,2017,00,00*6C
2017-12-01 17:44:47 1512168287.873000: $GPGGA,224448,3946.9731,N,08404.9846,W,2,12,0.80,298.36,M,-33.325,M,,*74
2017-12-01 17:44:47 1512168287.873067: $GPRMC,224448,A,3946.9731,N,08404.9846,W,0.0000,0.000,011217,,*38
2017-12-01 17:44:47 1512168287.873127: $GPGSA,A,3,1,3,10,14,22,25,26,29,31,32,16,138,2.0,0.8,1.5*0C
2017-12-01 17:44:48 1512168288.425009: $GPZDA,224449.00,01,12,2017,00,00*6D
2017-12-01 17:44:48 1512168288.425173: $GPGGA,224449,3946.9731,N,08404.9846,W,2,12,0.80,298.36,M,-33.325,M,,*75
2017-12-01 17:44:48 1512168288.425239: $GPRMC,224449,A,3946.9731,N,08404.9846,W,0.0000,0.000,011217,,*39
2017-12-01 17:44:48 1512168288.425300: $GPGSA,A,3,1,3,10,14,22,25,26,29,31,32,16,138,2.0,0.8,1.5*0C
2017-12-01 17:44:49 1512168289.416559: $GPZDA,224450.00,01,12,2017,00,00*65
2017-12-01 17:44:49 1512168289.416737: $GPGGA,224450,3946.9731,N,08404.9846,W,2,12,0.80,298.36,M,-33.325,M,,*7D
2017-12-01 17:44:49 1512168289.416804: $GPRMC,224450,A,3946.9731,N,08404.9846,W,0.0000,0.000,011217,,*31
2017-12-01 17:44:49 1512168289.416864: $GPGSA,A,3,1,3,10,14,22,25,26,29,31,32,16,138,2.0,0.8,1.5*0C
2017-12-01 17:44:50 1512168290.753526: $GPGSV,3,1,12,01,15,267,41,03,27,312,46,10,14,157,44,14,66,058,40*74
2017-12-01 17:44:50 1512168290.753703: $GPGSV,3,2,12,22,44,295,47,25,31,049,43,26,34,177,45,29,03,088,36*77
2017-12-01 17:44:50 1512168290.753771: $GPGSV,3,3,12,31,79,330,46,32,49,090,45,16,06,190,25,138,38,213,46*4D
2017-12-01 17:44:50 1512168290.866849: $GPZDA,224451.00,01,12,2017,00,00*64
2017-12-01 17:44:50 1512168290.866999: $GPGGA,224451,3946.9731,N,08404.9846,W,2,12,0.80,298.36,M,-33.325,M,,*7C
2017-12-01 17:44:50 1512168290.867066: $GPRMC,224451,A,3946.9731,N,08404.9846,W,0.0000,0.000,011217,,*30
2017-12-01 17:44:50 1512168290.867126: $GPGSA,A,3,1,3,10,14,22,25,26,29,31,32,16,138,2.0,0.8,1.5*0C
2017-12-01 17:44:51 1512168291.426807: $GPZDA,224452.00,01,12,2017,00,00*67
2017-12-01 17:44:51 1512168291.426988: $GPGGA,224452,3946.9731,N,08404.9846,W,2,12,0.80,298.36,M,-33.325,M,,*7F
2017-12-01 17:44:51 1512168291.427075: $GPRMC,224452,A,3946.9731,N,08404.9846,W,0.0000,0.000,011217,,*33
2017-12-01 17:44:51 1512168291.427139: $GPGSA,A,3,1,3,10,14,22,25,26,29,31,32,16,138,2.0,0.8,1.5*0C
2017-12-01 17:44:52 1512168292.423734: $GPZDA,224453.00,01,12,2017,00,00*66
2017-12-01 17:44:52 1512168292.423901: $GPGGA,224453,3946.9731,N,08404.9846,W,2,12,0.80,298.36,M,-33.325,M,,*7E
2017-12-01 17:44:52 1512168292.423984: $GPRMC,224453,A,3946.9731,N,08404.9846,W,0.0000,0.000,011217,,*32
2017-12-01 17:44:52 1512168292.424048: $GPGSA,A,3,1,3,10,14,22,25,26,29,31,32,16,138,2.0,0.8,1.5*0C
2017-12-01 17:44:53 1512168293.758161: $GPGSV,3,1,12,01,15,267,41,03,27,312,46,10,14,157,44,14,66,058,40*74
2017-12-01 17:44:53 1512168293.758352: $GPGSV,3,2,12,22,44,295,47,25,31,049,42,26,34,177,45,29,03,088,35*75
2017-12-01 17:44:53 1512168293.758420: $GPGSV,3,3,12,31,79,330,46,32,49,090,46,16,06,190,26,138,38,213,46*4D
2017-12-01 17:44:53 1512168293.871613: $GPZDA,224454.00,01,12,2017,00,00*61
2017-12-01 17:44:53 1512168293.871773: $GPGGA,224454,3946.9731,N,08404.9846,W,2,12,0.80,298.36,M,-33.325,M,,*79
2017-12-01 17:44:53 1512168293.871838: $GPRMC,224454,A,3946.9731,N,08404.9846,W,0.0000,0.000,011217,,*35
2017-12-01 17:44:53 1512168293.871899: $GPGSA,A,3,1,3,10,14,22,25,26,29,31,32,16,138,2.0,0.8,1.5*0C
2017-12-01 17:44:54 1512168294.497187: $GPZDA,224455.00,01,12,2017,00,00*60
2017-12-01 17:44:54 1512168294.497350: $GPGGA,224455,3946.9731,N,08404.9846,W,2,12,0.80,298.36,M,-33.325,M,,*78
2017-12-01 17:44:54 1512168294.497415: $GPRMC,224455,A,3946.9731,N,08404.9846,W,0.0000,0.000,011217,,*34
2017-12-01 17:44:54 1512168294.497476: $GPGSA,A,3,1,3,10,14,22,25,26,29,31,32,16,138,2.0,0.8,1.5*0C
2017-12-01 17:44:55 1512168295.417737: $GPZDA,224456.00,01,12,2017,00,00*63
2017-12-01 17:44:55 1512168295.417908: $GPGGA,224456,3946.9731,N,08404.9846,W,2,12,0.80,298.36,M,-33.325,M,,*7B
2017-12-01 17:44:55 1512168295.417975: $GPRMC,224456,A,3946.9731,N,08404.9846,W,0.0000,0.000,011217,,*37
2017-12-01 17:44:55 1512168295.418036: $GPGSA,A,3,1,3,10,14,22,25,26,29,31,32,16,138,2.0,0.8,1.5*0C
2017-12-01 17:44:56 1512168296.759693: $GPGSV,3,1,12,01,15,267,42,03,27,312,46,10,14,157,44,14,66,058,40*77
2017-12-01 17:44:56 1512168296.759886: $GPGSV,3,2,12,22,44,295,47,25,31,049,42,26,34,177,45,29,03,088,35*75
2017-12-01 17:44:56 1512168296.759955: $GPGSV,3,3,12,31,79,330,46,32,49,090,45,16,06,190,27,138,38,213,45*4C
2017-12-01 17:44:56 1512168296.873086: $GPZDA,224457.00,01,12,2017,00,00*62
2017-12-01 17:44:56 1512168296.873229: $GPGGA,224457,3946.9731,N,08404.9846,W,2,12,0.80,298.36,M,-33.325,M,,*7A
2017-12-01 17:44:56 1512168296.873295: $GPRMC,224457,A,3946.9731,N,08404.9846,W,0.0000,0.000,011217,,*36
2017-12-01 17:44:56 1512168296.873355: $GPGSA,A,3,1,3,10,14,22,25,26,29,31,32,16,138,2.0,0.8,1.5*0C
