2017-11-16 13:55:10 1510858510.288054: {"class":"VERSION","release":"3.17","rev":"3.17","proto_major":3,"proto_minor":12}
2017-11-16 13:55:10 1510858510.288635: {"class":"DEVICES","devices":[{"class":"DEVICE","path":"/dev/ttyUSB0","driver":"SiRF","subtype":"9\u0006GSD4e_4.1.2-P1_RPATCH.05-F-GPS-4R-1510281 11/03/2015 307","activated":"2017-11-16T18:55:10.249Z","flags":1,"native":1,"bps":4800,"parity":"N","stopbits":1,"cycle":1.00}]}
2017-11-16 13:55:10 1510858510.288774: {"class":"WATCH","enable":true,"json":false,"nmea":true,"raw":0,"scaled":false,"timing":false,"split24":false,"pps":false}
2017-11-16 13:55:10 1510858510.699080: $GPGSV,3,1,11,10,35,295,41,13,15,046,40,15,45,051,51,18,65,321,48*74
2017-11-16 13:55:10 1510858510.699254: $GPGSV,3,2,11,20,39,088,48,21,72,202,47,24,46,123,46,27,19,298,32*70
2017-11-16 13:55:10 1510858510.699315: $GPGSV,3,3,11,32,14,232,38,08,03,328,14,138,38,213,43*74
2017-11-16 13:55:10 1510858510.812496: $GPZDA,185509.00,16,11,2017,00,00*65
2017-11-16 13:55:10 1510858510.812680: $GPGGA,185509,3946.9607,N,08404.9826,W,2,10,0.80,305.73,M,-33.324,M,,*7D
2017-11-16 13:55:10 1510858510.812741: $GPRMC,185509,A,3946.9607,N,08404.9826,W,0.0000,0.000,161117,,*33
2017-11-16 13:55:10 1510858510.812798: $GPGSA,A,3,10,13,15,18,20,21,24,27,32,138,,,1.6,0.8,1.3*08
2017-11-16 13:55:11 1510858511.389809: $GPZDA,185510.00,16,11,2017,00,00*6D
2017-11-16 13:55:11 1510858511.389968: $GPGGA,185510,3946.9607,N,08404.9826,W,2,10,0.80,305.73,M,-33.324,M,,*75
2017-11-16 13:55:11 1510858511.390029: $GPRMC,185510,A,3946.9607,N,08404.9826,W,0.0000,0.000,161117,,*3B
2017-11-16 13:55:11 1510858511.390085: $GPGSA,A,3,10,13,15,18,20,21,24,27,32,138,,,1.6,0.8,1.3*08
2017-11-16 13:55:12 1510858512.389340: $GPZDA,185511.00,16,11,2017,00,00*6C
2017-11-16 13:55:12 1510858512.389496: $GPGGA,185511,3946.9607,N,08404.9826,W,2,10,0.80,305.73,M,-33.324,M,,*74
2017-11-16 13:55:12 1510858512.389557: $GPRMC,185511,A,3946.9607,N,08404.9826,W,0.0000,0.000,161117,,*3A
2017-11-16 13:55:12 1510858512.389613: $GPGSA,A,3,10,13,15,18,20,21,24,27,32,138,,,1.6,0.8,1.3*08
2017-11-16 13:55:13 1510858513.701877: $GPGSV,3,1,11,10,35,295,41,13,15,046,40,15,45,051,51,18,65,321,48*74
2017-11-16 13:55:13 1510858513.702036: $GPGSV,3,2,11,20,39,088,48,21,72,202,47,24,46,123,46,27,19,298,32*70
2017-11-16 13:55:13 1510858513.702096: $GPGSV,3,3,11,32,14,232,38,08,03,328,16,138,38,213,44*71
2017-11-16 13:55:13 1510858513.814058: $GPZDA,185512.00,16,11,2017,00,00*6F
2017-11-16 13:55:13 1510858513.814334: $GPGGA,185512,3946.9607,N,08404.9826,W,2,11,0.80,305.73,M,-33.324,M,,*76
2017-11-16 13:55:13 1510858513.814454: $GPRMC,185512,A,3946.9607,N,08404.9826,W,0.0000,0.000,161117,,*39
2017-11-16 13:55:13 1510858513.814604: $GPGSA,A,3,10,13,15,18,20,21,24,27,32,8,138,,1.6,0.8,1.3*30
2017-11-16 13:55:14 1510858514.384235: $GPZDA,185513.00,16,11,2017,00,00*6E
2017-11-16 13:55:14 1510858514.384407: $GPGGA,185513,3946.9607,N,08404.9826,W,2,11,0.80,305.73,M,-33.324,M,,*77
2017-11-16 13:55:14 1510858514.384469: $GPRMC,185513,A,3946.9607,N,08404.9826,W,0.0000,0.000,161117,,*38
2017-11-16 13:55:14 1510858514.384525: $GPGSA,A,3,10,13,15,18,20,21,24,27,32,8,138,,1.6,0.8,1.3*30
2017-11-16 13:55:15 1510858515.365129: $GPZDA,185514.00,16,11,2017,00,00*69
2017-11-16 13:55:15 1510858515.365295: $GPGGA,185514,3946.9607,N,08404.9826,W,2,11,0.80,305.73,M,-33.324,M,,*70
2017-11-16 13:55:15 1510858515.365356: $GPRMC,185514,A,3946.9607,N,08404.9826,W,0.0000,0.000,161117,,*3F
2017-11-16 13:55:15 1510858515.365412: $GPGSA,A,3,10,13,15,18,20,21,24,27,32,8,138,,1.6,0.8,1.3*30
2017-11-16 13:55:16 1510858516.701391: $GPGSV,3,1,11,10,35,295,42,13,15,046,41,15,45,051,51,18,65,321,48*76
2017-11-16 13:55:16 1510858516.701564: $GPGSV,3,2,11,20,39,088,48,21,72,202,47,24,46,123,46,27,19,298,32*70
2017-11-16 13:55:16 1510858516.701625: $GPGSV,3,3,11,32,14,232,37,08,03,328,17,138,38,213,43*78
2017-11-16 13:55:16 1510858516.814736: $GPZDA,185515.00,16,11,2017,00,00*68
2017-11-16 13:55:16 1510858516.814902: $GPGGA,185515,3946.9607,N,08404.9826,W,2,11,0.80,305.73,M,-33.324,M,,*71
2017-11-16 13:55:16 1510858516.815031: $GPRMC,185515,A,3946.9607,N,08404.9826,W,0.0000,0.000,161117,,*3E
2017-11-16 13:55:16 1510858516.815089: $GPGSA,A,3,10,13,15,18,20,21,24,27,32,8,138,,1.6,0.8,1.3*30
2017-11-16 13:55:17 1510858517.440677: $GPZDA,185516.00,16,11,2017,00,00*6B
2017-11-16 13:55:17 1510858517.440843: $GPGGA,185516,3946.9607,N,08404.9826,W,2,11,0.80,305.73,M,-33.324,M,,*72
2017-11-16 13:55:17 1510858517.440904: $GPRMC,185516,A,3946.9607,N,08404.9826,W,0.0000,0.000,161117,,*3D
2017-11-16 13:55:17 1510858517.440961: $GPGSA,A,3,10,13,15,18,20,21,24,27,32,8,138,,1.6,0.8,1.3*30
2017-11-16 13:55:18 1510858518.390646: $GPZDA,185517.00,16,11,2017,00,00*6A
2017-11-16 13:55:18 1510858518.390805: $GPGGA,185517,3946.9607,N,08404.9826,W,2,11,0.80,305.73,M,-33.324,M,,*73
2017-11-16 13:55:18 1510858518.390868: $GPRMC,185517,A,3946.9607,N,08404.9826,W,0.0000,0.000,161117,,*3C
2017-11-16 13:55:18 1510858518.390925: $GPGSA,A,3,10,13,15,18,20,21,24,27,32,8,138,,1.6,0.8,1.3*30
2017-11-16 13:55:19 1510858519.704285: $GPGSV,3,1,11,10,35,295,42,13,15,046,41,15,45,051,51,18,65,321,48*76
2017-11-16 13:55:19 1510858519.704466: $GPGSV,3,2,11,20,39,088,48,21,72,202,47,24,46,123,46,27,19,298,32*70
2017-11-16 13:55:19 1510858519.704529: $GPGSV,3,3,11,32,14,232,37,08,03,328,18,138,38,213,43*77
2017-11-16 13:55:19 1510858519.817697: $GPZDA,185518.00,16,11,2017,00,00*65
2017-11-16 13:55:19 1510858519.817859: $GPGGA,185518,3946.9607,N,08404.9826,W,2,11,0.80,305.73,M,-33.324,M,,*7C
2017-11-16 13:55:19 1510858519.817923: $GPRMC,185518,A,3946.9607,N,08404.9826,W,0.0000,0.000,161117,,*33
2017-11-16 13:55:19 1510858519.817981: $GPGSA,A,3,10,13,15,18,20,21,24,27,32,8,138,,1.6,0.8,1.3*30
2017-11-16 13:55:20 1510858520.361321: $GPZDA,185519.00,16,11,2017,00,00*64
2017-11-16 13:55:20 1510858520.361486: $GPGGA,185519,3946.9607,N,08404.9826,W,2,11,0.80,305.73,M,-33.324,M,,*7D
2017-11-16 13:55:20 1510858520.361550: $GPRMC,185519,A,3946.9607,N,08404.9826,W,0.0000,0.000,161117,,*32
2017-11-16 13:55:20 1510858520.361609: $GPGSA,A,3,10,13,15,18,20,21,24,27,32,8,138,,1.6,0.8,1.3*30
2017-11-16 13:55:21 1510858521.366287: $GPZDA,185520.00,16,11,2017,00,00*6E
2017-11-16 13:55:21 1510858521.366460: $GPGGA,185520,3946.9607,N,08404.9826,W,2,11,0.80,305.73,M,-33.324,M,,*77
2017-11-16 13:55:21 1510858521.366526: $GPRMC,185520,A,3946.9607,N,08404.9826,W,0.0000,0.000,161117,,*38
2017-11-16 13:55:21 1510858521.366585: $GPGSA,A,3,10,13,15,18,20,21,24,27,32,8,138,,1.6,0.8,1.3*30
2017-11-16 13:55:22 1510858522.703301: $GPGSV,3,1,11,10,35,295,41,13,15,046,42,15,45,051,51,18,65,321,48*76
2017-11-16 13:55:22 1510858522.703492: $GPGSV,3,2,11,20,39,088,48,21,72,202,47,24,46,123,45,27,19,298,32*73
2017-11-16 13:55:22 1510858522.703556: $GPGSV,3,3,11,32,14,232,36,08,03,328,19,138,38,213,43*77
2017-11-16 13:55:22 1510858522.816585: $GPZDA,185521.00,16,11,2017,00,00*6F
2017-11-16 13:55:22 1510858522.816751: $GPGGA,185521,3946.9607,N,08404.9826,W,2,11,0.80,305.73,M,-33.324,M,,*76
2017-11-16 13:55:22 1510858522.816814: $GPRMC,185521,A,3946.9607,N,08404.9826,W,0.0000,0.000,161117,,*39
2017-11-16 13:55:22 1510858522.816874: $GPGSA,A,3,10,13,15,18,20,21,24,27,32,8,138,,1.6,0.8,1.3*30
2017-11-16 13:55:23 1510858523.367672: $GPZDA,185522.00,16,11,2017,00,00*6C
2017-11-16 13:55:23 1510858523.367856: $GPGGA,185522,3946.9607,N,08404.9826,W,2,11,0.80,305.73,M,-33.324,M,,*75
2017-11-16 13:55:23 1510858523.367920: $GPRMC,185522,A,3946.9607,N,08404.9826,W,0.0000,0.000,161117,,*3A
2017-11-16 13:55:23 1510858523.367979: $GPGSA,A,3,10,13,15,18,20,21,24,27,32,8,138,,1.6,0.8,1.3*30
2017-11-16 13:55:24 1510858524.362953: $GPZDA,185523.00,16,11,2017,00,00*6D
2017-11-16 13:55:24 1510858524.363100: $GPGGA,185523,3946.9607,N,08404.9826,W,2,11,0.80,305.73,M,-33.324,M,,*74
2017-11-16 13:55:24 1510858524.363163: $GPRMC,185523,A,3946.9607,N,08404.9826,W,0.0000,0.000,161117,,*3B
2017-11-16 13:55:24 1510858524.363222: $GPGSA,A,3,10,13,15,18,20,21,24,27,32,8,138,,1.6,0.8,1.3*30
