2017-12-31 18:43:27 1514763807.426427: {"class":"VERSION","release":"3.16","rev":"3.16-4","proto_major":3,"proto_minor":11}
2017-12-31 18:43:27 1514763807.426765: {"class":"DEVICES","devices":[{"class":"DEVICE","path":"/dev/ttyUSB0","driver":"SiRF","activated":"2017-12-31T23:43:27.239Z","flags":1,"native":1,"bps":4800,"parity":"N","stopbits":1,"cycle":1.00}]}
2017-12-31 18:43:27 1514763807.426862: {"class":"WATCH","enable":true,"json":false,"nmea":true,"raw":0,"scaled":false,"timing":false,"split24":false,"pps":false}
2017-12-31 18:43:27 1514763807.689103: $GPGSV,3,1,12,22,10,205,27,23,66,288,41,09,33,310,42,03,20,222,39*79
2017-12-31 18:43:27 1514763807.689263: $GPGSV,3,2,12,16,80,037,42,08,13,177,34,14,02,139,13,31,18,087,38*7B
2017-12-31 18:43:27 1514763807.689328: $GPGSV,3,3,12,27,36,145,41,07,08,282,41,26,47,046,46,135,22,240,44*4B
2017-12-31 18:43:27 1514763807.802464: $GPZDA,234328.00,31,12,2017,00,00*6F
2017-12-31 18:43:27 1514763807.802605: $GPGGA,234328,3946.9581,N,08404.9849,W,2,12,0.80,305.22,M,-33.324,M,,*73
2017-12-31 18:43:27 1514763807.802670: $GPRMC,234328,A,3946.9581,N,08404.9849,W,0.0000,0.000,311217,,*3D
2017-12-31 18:43:27 1514763807.802729: $GPGSA,A,3,22,23,9,3,16,8,14,31,27,7,26,135,1.7,0.8,1.3*0C
2017-12-31 18:43:28 1514763808.352093: $GPZDA,234329.00,31,12,2017,00,00*6E
2017-12-31 18:43:28 1514763808.352235: $GPGGA,234329,3946.9581,N,08404.9849,W,2,12,0.80,305.22,M,-33.324,M,,*72
2017-12-31 18:43:28 1514763808.352299: $GPRMC,234329,A,3946.9581,N,08404.9849,W,0.0000,0.000,311217,,*3C
2017-12-31 18:43:28 1514763808.352359: $GPGSA,A,3,22,23,9,3,16,8,14,31,27,7,26,135,1.7,0.8,1.3*0C
2017-12-31 18:43:29 1514763809.388033: $GPZDA,234330.00,31,12,2017,00,00*66
2017-12-31 18:43:29 1514763809.388219: $GPGGA,234330,3946.9581,N,08404.9849,W,2,12,0.80,305.22,M,-33.324,M,,*7A
2017-12-31 18:43:29 1514763809.388286: $GPRMC,234330,A,3946.9581,N,08404.9849,W,0.0000,0.000,311217,,*34
2017-12-31 18:43:29 1514763809.388347: $GPGSA,A,3,22,23,9,3,16,8,14,31,27,7,26,135,1.7,0.8,1.3*0C
2017-12-31 18:43:30 1514763810.724488: $GPGSV,3,1,12,22,10,205,27,23,66,288,40,09,33,310,42,03,20,222,39*78
2017-12-31 18:43:30 1514763810.724650: $GPGSV,3,2,12,16,80,037,42,08,13,177,33,14,02,139,13,31,18,087,38*7C
2017-12-31 18:43:30 1514763810.724716: $GPGSV,3,3,12,27,36,145,42,07,08,282,41,26,47,046,46,135,22,240,44*48
2017-12-31 18:43:30 1514763810.837857: $GPZDA,234331.00,31,12,2017,00,00*67
2017-12-31 18:43:30 1514763810.837987: $GPGGA,234331,3946.9581,N,08404.9849,W,2,12,0.80,305.22,M,-33.324,M,,*7B
2017-12-31 18:43:30 1514763810.838051: $GPRMC,234331,A,3946.9581,N,08404.9849,W,0.0000,0.000,311217,,*35
2017-12-31 18:43:30 1514763810.838110: $GPGSA,A,3,22,23,9,3,16,8,14,31,27,7,26,135,1.7,0.8,1.3*0C
2017-12-31 18:43:31 1514763811.353713: $GPZDA,234332.00,31,12,2017,00,00*64
2017-12-31 18:43:31 1514763811.353878: $GPGGA,234332,3946.9581,N,08404.9849,W,2,12,0.80,305.22,M,-33.324,M,,*78
2017-12-31 18:43:31 1514763811.353943: $GPRMC,234332,A,3946.9581,N,08404.9849,W,0.0000,0.000,311217,,*36
2017-12-31 18:43:31 1514763811.354005: $GPGSA,A,3,22,23,9,3,16,8,14,31,27,7,26,135,1.7,0.8,1.3*0C
2017-12-31 18:43:32 1514763812.379625: $GPZDA,234333.00,31,12,2017,00,00*65
2017-12-31 18:43:32 1514763812.379780: $GPGGA,234333,3946.9581,N,08404.9849,W,2,12,0.80,305.22,M,-33.324,M,,*79
2017-12-31 18:43:32 1514763812.379845: $GPRMC,234333,A,3946.9581,N,08404.9849,W,0.0000,0.000,311217,,*37
2017-12-31 18:43:32 1514763812.379905: $GPGSA,A,3,22,23,9,3,16,8,14,31,27,7,26,135,1.7,0.8,1.3*0C
2017-12-31 18:43:33 1514763813.689071: $GPGSV,3,1,12,22,10,205,26,23,66,288,41,09,33,310,42,03,20,222,39*78
2017-12-31 18:43:33 1514763813.689223: $GPGSV,3,2,12,16,80,037,42,08,13,177,33,14,02,139,12,31,18,087,38*7D
2017-12-31 18:43:33 1514763813.689287: $GPGSV,3,3,12,27,36,145,42,07,08,282,41,26,47,046,46,135,22,240,44*48
2017-12-31 18:43:33 1514763813.801178: $GPZDA,234334.00,31,12,2017,00,00*62
2017-12-31 18:43:33 1514763813.801304: $GPGGA,234334,3946.9581,N,08404.9849,W,2,12,0.80,305.22,M,-33.324,M,,*7E
2017-12-31 18:43:33 1514763813.801367: $GPRMC,234334,A,3946.9581,N,08404.9849,W,0.0000,0.000,311217,,*30
2017-12-31 18:43:33 1514763813.801467: $GPGSA,A,3,22,23,9,3,16,8,14,31,27,7,26,135,1.7,0.8,1.3*0C
2017-12-31 18:43:34 1514763814.353321: $GPZDA,234335.00,31,12,2017,00,00*63
2017-12-31 18:43:34 1514763814.353466: $GPGGA,234335,3946.9581,N,08404.9849,W,2,12,0.80,305.22,M,-33.324,M,,*7F
2017-12-31 18:43:34 1514763814.353530: $GPRMC,234335,A,3946.9581,N,08404.9849,W,0.0000,0.000,311217,,*31
2017-12-31 18:43:34 1514763814.353589: $GPGSA,A,3,22,23,9,3,16,8,14,31,27,7,26,135,1.7,0.8,1.3*0C
2017-12-31 18:43:35 1514763815.358687: $GPZDA,234336.00,31,12,2017,00,00*60
2017-12-31 18:43:35 1514763815.358837: $GPGGA,234336,3946.9581,N,08404.9849,W,2,12,0.80,305.22,M,-33.324,M,,*7C
2017-12-31 18:43:35 1514763815.358902: $GPRMC,234336,A,3946.9581,N,08404.9849,W,0.0000,0.000,311217,,*32
2017-12-31 18:43:35 1514763815.358961: $GPGSA,A,3,22,23,9,3,16,8,14,31,27,7,26,135,1.7,0.8,1.3*0C
2017-12-31 18:43:36 1514763816.724419: $GPGSV,3,1,12,22,10,205,23,23,66,288,41,09,33,310,42,03,20,222,39*7D
2017-12-31 18:43:36 1514763816.724581: $GPGSV,3,2,12,16,80,037,43,08,13,177,32,14,02,139,10,31,18,087,38*7F
2017-12-31 18:43:36 1514763816.724647: $GPGSV,3,3,12,27,36,145,41,07,08,282,41,26,47,046,46,135,22,240,44*4B
2017-12-31 18:43:36 1514763816.837809: $GPZDA,234337.00,31,12,2017,00,00*61
2017-12-31 18:43:36 1514763816.837943: $GPGGA,234337,3946.9581,N,08404.9849,W,2,12,0.80,305.22,M,-33.324,M,,*7D
2017-12-31 18:43:36 1514763816.838008: $GPRMC,234337,A,3946.9581,N,08404.9849,W,0.0000,0.000,311217,,*33
2017-12-31 18:43:36 1514763816.838067: $GPGSA,A,3,22,23,9,3,16,8,14,31,27,7,26,135,1.7,0.8,1.3*0C
2017-12-31 18:43:37 1514763817.389935: $GPZDA,234338.00,31,12,2017,00,00*6E
2017-12-31 18:43:37 1514763817.390082: $GPGGA,234338,3946.9581,N,08404.9849,W,2,12,0.80,305.22,M,-33.324,M,,*72
2017-12-31 18:43:37 1514763817.390150: $GPRMC,234338,A,3946.9581,N,08404.9849,W,0.0000,0.000,311217,,*3C
2017-12-31 18:43:37 1514763817.390213: $GPGSA,A,3,22,23,9,3,16,8,14,31,27,7,26,135,1.7,0.8,1.3*0C
