2017-12-01 18:05:02 1512169502.753203: {"class":"VERSION","release":"3.16","rev":"3.16-4","proto_major":3,"proto_minor":11}
2017-12-01 18:05:02 1512169502.753599: {"class":"DEVICES","devices":[{"class":"DEVICE","path":"/dev/ttyUSB0","driver":"SiRF","subtype":"9\u0006GSD4e_4.1.2-P1_RPATCH.05-F-GPS-4R-1510281 11/03/2015 307","activated":"2017-12-01T23:05:02.685Z","flags":1,"native":1,"bps":4800,"parity":"N","stopbits":1,"cycle":1.00}]}
2017-12-01 18:05:02 1512169502.753717: {"class":"WATCH","enable":true,"json":false,"nmea":true,"raw":0,"scaled":false,"timing":false,"split24":false,"pps":false}
2017-12-01 18:05:03 1512169503.712693: $GPGSV,3,1,12,03,35,306,48,14,61,079,44,16,15,189,41,22,49,283,47*79
2017-12-01 18:05:03 1512169503.712875: $GPGSV,3,2,12,29,07,079,21,25,24,043,42,26,44,174,45,31,74,009,48*79
2017-12-01 18:05:03 1512169503.712942: $GPGSV,3,3,12,32,42,100,44,01,10,259,26,10,05,159,10,138,38,213,46*4D
2017-12-01 18:05:03 1512169503.826180: $GPZDA,230504.00,01,12,2017,00,00*60
2017-12-01 18:05:03 1512169503.826356: $GPGGA,230504,3946.9705,N,08404.9852,W,2,12,0.60,291.63,M,-33.325,M,,*7D
2017-12-01 18:05:03 1512169503.826423: $GPRMC,230504,A,3946.9705,N,08404.9852,W,0.0000,0.000,011217,,*36
2017-12-01 18:05:03 1512169503.826484: $GPGSA,A,3,3,14,16,22,29,25,26,31,32,1,10,138,2.0,0.6,1.5*02
2017-12-01 18:05:04 1512169504.372283: $GPZDA,230505.00,01,12,2017,00,00*61
2017-12-01 18:05:04 1512169504.372474: $GPGGA,230505,3946.9705,N,08404.9852,W,2,12,0.60,291.63,M,-33.325,M,,*7C
2017-12-01 18:05:04 1512169504.372545: $GPRMC,230505,A,3946.9705,N,08404.9852,W,0.0000,0.000,011217,,*37
2017-12-01 18:05:04 1512169504.372607: $GPGSA,A,3,3,14,16,22,29,25,26,31,32,1,10,138,2.0,0.6,1.5*02
2017-12-01 18:05:05 1512169505.372929: $GPZDA,230506.00,01,12,2017,00,00*62
2017-12-01 18:05:05 1512169505.373118: $GPGGA,230506,3946.9705,N,08404.9852,W,2,12,0.60,291.63,M,-33.325,M,,*7F
2017-12-01 18:05:05 1512169505.373190: $GPRMC,230506,A,3946.9705,N,08404.9852,W,0.0000,0.000,011217,,*34
2017-12-01 18:05:05 1512169505.373252: $GPGSA,A,3,3,14,16,22,29,25,26,31,32,1,10,138,2.0,0.6,1.5*02
2017-12-01 18:05:06 1512169506.707448: $GPGSV,3,1,12,03,35,306,48,14,61,079,44,16,15,189,41,22,49,283,47*79
2017-12-01 18:05:06 1512169506.707629: $GPGSV,3,2,12,29,07,079,21,25,24,043,42,26,44,174,44,31,74,009,47*77
2017-12-01 18:05:06 1512169506.707695: $GPGSV,3,3,12,32,42,100,44,01,10,259,26,10,05,159,28,138,38,213,46*46
2017-12-01 18:05:06 1512169506.821148: $GPZDA,230507.00,01,12,2017,00,00*63
2017-12-01 18:05:06 1512169506.821310: $GPGGA,230507,3946.9705,N,08404.9852,W,2,12,0.60,291.63,M,-33.325,M,,*7E
2017-12-01 18:05:06 1512169506.821431: $GPRMC,230507,A,3946.9705,N,08404.9852,W,0.0000,0.000,011217,,*35
2017-12-01 18:05:06 1512169506.821495: $GPGSA,A,3,3,14,16,22,29,25,26,31,32,1,10,138,2.0,0.6,1.5*02
2017-12-01 18:05:07 1512169507.372912: $GPZDA,230508.00,01,12,2017,00,00*6C
2017-12-01 18:05:07 1512169507.373090: $GPGGA,230508,3946.9710,N,08404.9852,W,2,12,0.60,292.27,M,-33.325,M,,*76
2017-12-01 18:05:07 1512169507.373157: $GPRMC,230508,A,3946.9710,N,08404.9852,W,0.0000,0.000,011217,,*3E
2017-12-01 18:05:07 1512169507.373219: $GPGSA,A,3,3,14,16,22,29,25,26,31,32,1,10,138,2.0,0.6,1.5*02
2017-12-01 18:05:08 1512169508.373373: $GPZDA,230509.00,01,12,2017,00,00*6D
2017-12-01 18:05:08 1512169508.373546: $GPGGA,230509,3946.9710,N,08404.9852,W,2,12,0.60,292.27,M,-33.325,M,,*77
2017-12-01 18:05:08 1512169508.373613: $GPRMC,230509,A,3946.9710,N,08404.9852,W,0.0000,0.000,011217,,*3F
2017-12-01 18:05:08 1512169508.373674: $GPGSA,A,3,3,14,16,22,29,25,26,31,32,1,10,138,2.0,0.6,1.5*02
2017-12-01 18:05:09 1512169509.709033: $GPGSV,3,1,12,03,35,306,48,14,61,079,43,16,15,189,41,22,49,283,47*7E
2017-12-01 18:05:09 1512169509.709208: $GPGSV,3,2,12,29,07,079,22,25,24,043,42,26,44,174,45,31,74,009,47*75
2017-12-01 18:05:09 1512169509.709275: $GPGSV,3,3,12,32,42,100,44,01,10,259,27,23,05,297,43,138,38,213,46*4B
2017-12-01 18:05:09 1512169509.823335: $GPZDA,230510.00,01,12,2017,00,00*65
2017-12-01 18:05:09 1512169509.823530: $GPGGA,230510,3946.9710,N,08404.9852,W,2,12,0.60,292.27,M,-33.325,M,,*7F
2017-12-01 18:05:09 1512169509.823647: $GPRMC,230510,A,3946.9710,N,08404.9852,W,0.0000,0.000,011217,,*37
2017-12-01 18:05:09 1512169509.823711: $GPGSA,A,3,3,14,16,22,29,25,26,31,32,1,23,138,2.0,0.6,1.5*02
2017-12-01 18:05:10 1512169510.374425: $GPZDA,230511.00,01,12,2017,00,00*64
2017-12-01 18:05:10 1512169510.374607: $GPGGA,230511,3946.9710,N,08404.9852,W,2,12,0.60,292.27,M,-33.325,M,,*7E
2017-12-01 18:05:10 1512169510.374675: $GPRMC,230511,A,3946.9710,N,08404.9852,W,0.0000,0.000,011217,,*36
2017-12-01 18:05:10 1512169510.374736: $GPGSA,A,3,3,14,16,22,29,25,26,31,32,1,23,138,2.0,0.6,1.5*02
2017-12-01 18:05:11 1512169511.373266: $GPZDA,230512.00,01,12,2017,00,00*67
2017-12-01 18:05:11 1512169511.373443: $GPGGA,230512,3946.9710,N,08404.9852,W,2,12,0.60,292.27,M,-33.325,M,,*7D
2017-12-01 18:05:11 1512169511.373512: $GPRMC,230512,A,3946.9710,N,08404.9852,W,0.0000,0.000,011217,,*35
2017-12-01 18:05:11 1512169511.373573: $GPGSA,A,3,3,14,16,22,29,25,26,31,32,1,23,138,2.0,0.6,1.5*02
2017-12-01 18:05:12 1512169512.709920: $GPGSV,3,1,12,03,35,306,48,14,61,079,43,16,15,189,41,22,49,283,47*7E
2017-12-01 18:05:12 1512169512.710148: $GPGSV,3,2,12,29,07,079,23,25,24,043,43,26,44,174,45,31,74,009,47*75
2017-12-01 18:05:12 1512169512.710218: $GPGSV,3,3,12,32,42,100,43,01,10,259,28,10,05,159,14,138,38,213,46*40
2017-12-01 18:05:12 1512169512.823549: $GPZDA,230513.00,01,12,2017,00,00*66
2017-12-01 18:05:12 1512169512.823718: $GPGGA,230513,3946.9710,N,08404.9852,W,2,12,0.60,292.27,M,-33.325,M,,*7C
2017-12-01 18:05:12 1512169512.823785: $GPRMC,230513,A,3946.9710,N,08404.9852,W,0.0000,0.000,011217,,*34
2017-12-01 18:05:12 1512169512.823845: $GPGSA,A,3,3,14,16,22,29,25,26,31,32,1,10,138,2.0,0.6,1.5*02
2017-12-01 18:05:13 1512169513.448923: $GPZDA,230514.00,01,12,2017,00,00*61
2017-12-01 18:05:13 1512169513.449093: $GPGGA,230514,3946.9710,N,08404.9852,W,2,12,0.60,292.27,M,-33.325,M,,*7B
2017-12-01 18:05:13 1512169513.449160: $GPRMC,230514,A,3946.9710,N,08404.9852,W,0.0000,0.000,011217,,*33
2017-12-01 18:05:13 1512169513.449221: $GPGSA,A,3,3,14,16,22,29,25,26,31,32,1,10,138,2.0,0.6,1.5*02
2017-12-01 18:05:14 1512169514.372356: $GPZDA,230515.00,01,12,2017,00,00*60
2017-12-01 18:05:14 1512169514.372526: $GPGGA,230515,3946.9710,N,08404.9852,W,2,12,0.60,292.27,M,-33.325,M,,*7A
2017-12-01 18:05:14 1512169514.372592: $GPRMC,230515,A,3946.9710,N,08404.9852,W,0.0000,0.000,011217,,*32
2017-12-01 18:05:14 1512169514.372653: $GPGSA,A,3,3,14,16,22,29,25,26,31,32,1,10,138,2.0,0.6,1.5*02
2017-12-01 18:05:15 1512169515.708915: $GPGSV,3,1,12,03,35,306,47,14,61,079,43,16,15,189,42,22,49,283,47*72
2017-12-01 18:05:15 1512169515.709096: $GPGSV,3,2,12,29,07,079,23,25,24,043,43,26,44,174,45,31,74,009,47*75
2017-12-01 18:05:15 1512169515.709163: $GPGSV,3,3,12,32,42,100,43,01,10,259,31,23,05,297,42,138,38,213,46*4A
2017-12-01 18:05:15 1512169515.821439: $GPZDA,230516.00,01,12,2017,00,00*63
2017-12-01 18:05:15 1512169515.821607: $GPGGA,230516,3946.9710,N,08404.9852,W,2,12,0.60,292.27,M,-33.325,M,,*79
2017-12-01 18:05:15 1512169515.821673: $GPRMC,230516,A,3946.9710,N,08404.9852,W,0.0000,0.000,011217,,*31
2017-12-01 18:05:15 1512169515.821734: $GPGSA,A,3,3,14,16,22,29,25,26,31,32,1,23,138,2.0,0.6,1.5*02
2017-12-01 18:05:16 1512169516.376800: $GPZDA,230517.00,01,12,2017,00,00*62
2017-12-01 18:05:16 1512169516.376983: $GPGGA,230517,3946.9706,N,08404.9853,W,2,12,0.80,293.04,M,-33.325,M,,*70
2017-12-01 18:05:16 1512169516.377052: $GPRMC,230517,A,3946.9706,N,08404.9853,W,0.0000,0.000,011217,,*36
2017-12-01 18:05:16 1512169516.377116: $GPGSA,A,3,3,14,16,22,29,25,26,31,32,1,23,138,2.0,0.8,1.5*0C
2017-12-01 18:05:17 1512169517.374382: $GPZDA,230518.00,01,12,2017,00,00*6D
2017-12-01 18:05:17 1512169517.374551: $GPGGA,230518,3946.9706,N,08404.9853,W,2,12,0.60,293.04,M,-33.325,M,,*71
2017-12-01 18:05:17 1512169517.374619: $GPRMC,230518,A,3946.9706,N,08404.9853,W,0.0000,0.000,011217,,*39
2017-12-01 18:05:17 1512169517.374680: $GPGSA,A,3,3,14,16,22,29,25,26,31,32,1,23,138,2.0,0.6,1.5*02
2017-12-01 18:05:18 1512169518.705502: $GPGSV,3,1,12,03,35,306,47,14,61,079,43,16,15,189,42,22,49,283,46*73
2017-12-01 18:05:18 1512169518.705682: $GPGSV,3,2,12,29,07,079,22,25,24,043,42,26,44,174,45,31,74,009,47*75
2017-12-01 18:05:18 1512169518.705750: $GPGSV,3,3,12,32,42,100,43,01,10,259,30,10,05,159,25,138,38,213,46*4B
2017-12-01 18:05:18 1512169518.819269: $GPZDA,230519.00,01,12,2017,00,00*6C
2017-12-01 18:05:18 1512169518.819446: $GPGGA,230519,3946.9710,N,08404.9853,W,2,12,0.60,293.68,M,-33.325,M,,*7D
2017-12-01 18:05:18 1512169518.819513: $GPRMC,230519,A,3946.9710,N,08404.9853,W,0.0000,0.000,011217,,*3F
2017-12-01 18:05:18 1512169518.819574: $GPGSA,A,3,3,14,16,22,29,25,26,31,32,1,10,138,2.0,0.6,1.5*02
2017-12-01 18:05:19 1512169519.377265: $GPZDA,230520.00,01,12,2017,00,00*66
2017-12-01 18:05:19 1512169519.377430: $GPGGA,230520,3946.9710,N,08404.9853,W,2,12,0.60,293.68,M,-33.325,M,,*77
2017-12-01 18:05:19 1512169519.377496: $GPRMC,230520,A,3946.9710,N,08404.9853,W,0.0000,0.000,011217,,*35
2017-12-01 18:05:19 1512169519.377558: $GPGSA,A,3,3,14,16,22,29,25,26,31,32,1,10,138,2.0,0.6,1.5*02
2017-12-01 18:05:20 1512169520.376898: $GPZDA,230521.00,01,12,2017,00,00*67
2017-12-01 18:05:20 1512169520.377131: $GPGGA,230521,3946.9710,N,08404.9853,W,2,12,0.80,293.68,M,-33.325,M,,*78
2017-12-01 18:05:20 1512169520.377227: $GPRMC,230521,A,3946.9710,N,08404.9853,W,0.0000,0.000,011217,,*34
2017-12-01 18:05:20 1512169520.377291: $GPGSA,A,3,3,14,16,22,29,25,26,31,32,1,10,138,2.0,0.8,1.5*0C
2017-12-01 18:05:21 1512169521.717651: $GPGSV,3,1,12,03,35,306,47,14,61,079,44,16,15,189,42,22,49,283,47*75
2017-12-01 18:05:21 1512169521.717833: $GPGSV,3,2,12,29,07,079,07,25,24,043,42,26,44,174,45,31,74,009,47*72
2017-12-01 18:05:21 1512169521.717898: $GPGSV,3,3,12,32,42,100,43,01,10,259,22,10,05,159,02,138,38,213,46*4D
2017-12-01 18:05:21 1512169521.830941: $GPZDA,230522.00,01,12,2017,00,00*64
2017-12-01 18:05:21 1512169521.831102: $GPGGA,230522,3946.9710,N,08404.9853,W,2,11,0.80,293.68,M,-33.325,M,,*78
2017-12-01 18:05:21 1512169521.831169: $GPRMC,230522,A,3946.9710,N,08404.9853,W,0.0000,0.000,011217,,*37
2017-12-01 18:05:21 1512169521.831230: $GPGSA,A,3,3,14,16,22,29,25,26,31,32,1,138,,2.0,0.8,1.5*0D
2017-12-01 18:05:22 1512169522.375596: $GPZDA,230523.00,01,12,2017,00,00*65
2017-12-01 18:05:22 1512169522.375775: $GPGGA,230523,3946.9710,N,08404.9853,W,2,11,0.80,293.68,M,-33.325,M,,*79
2017-12-01 18:05:22 1512169522.375843: $GPRMC,230523,A,3946.9710,N,08404.9853,W,0.0000,0.000,011217,,*36
2017-12-01 18:05:22 1512169522.375905: $GPGSA,A,3,3,14,16,22,29,25,26,31,32,1,138,,2.0,0.8,1.5*0D
