2017-12-31 17:05:36 1514757936.970189: {"class":"VERSION","release":"3.16","rev":"3.16-4","proto_major":3,"proto_minor":11}
2017-12-31 17:05:36 1514757936.970531: {"class":"DEVICES","devices":[{"class":"DEVICE","path":"/dev/ttyUSB0","driver":"SiRF","activated":"2017-12-31T22:05:36.935Z","flags":1,"native":1,"bps":4800,"parity":"N","stopbits":1,"cycle":1.00}]}
2017-12-31 17:05:36 1514757936.970630: {"class":"WATCH","enable":true,"json":false,"nmea":true,"raw":0,"scaled":false,"timing":false,"split24":false,"pps":false}
2017-12-31 17:05:37 1514757937.337280: $GPZDA,220538.00,31,12,2017,00,00*6D
2017-12-31 17:05:37 1514757937.337450: $GPGGA,220538,3946.9587,N,08404.9854,W,2,10,1.00,302.21,M,-33.324,M,,*74
2017-12-31 17:05:37 1514757937.337515: $GPRMC,220538,A,3946.9587,N,08404.9854,W,0.0000,0.000,311217,,*35
2017-12-31 17:05:37 1514757937.337576: $GPGSA,A,3,22,23,3,16,29,31,14,32,26,135,,,1.7,1.0,1.3*3C
2017-12-31 17:05:38 1514757938.338083: $GPZDA,220539.00,31,12,2017,00,00*6C
2017-12-31 17:05:38 1514757938.338253: $GPGGA,220539,3946.9587,N,08404.9854,W,2,10,1.00,302.21,M,-33.324,M,,*75
2017-12-31 17:05:38 1514757938.338320: $GPRMC,220539,A,3946.9587,N,08404.9854,W,0.0000,0.000,311217,,*34
2017-12-31 17:05:38 1514757938.338381: $GPGSA,A,3,22,23,3,16,29,31,14,32,26,135,,,1.7,1.0,1.3*3C
2017-12-31 17:05:39 1514757939.680988: $GPGSV,3,1,11,22,44,238,42,23,28,307,37,25,01,037,07,03,46,270,39*74
2017-12-31 17:05:39 1514757939.681146: $GPGSV,3,2,11,16,47,190,44,29,14,054,36,31,49,051,50,14,40,114,37*71
2017-12-31 17:05:39 1514757939.681212: $GPGSV,3,3,11,32,18,123,40,26,75,139,46,135,22,240,42*7D
2017-12-31 17:05:39 1514757939.794361: $GPZDA,220540.00,31,12,2017,00,00*62
2017-12-31 17:05:39 1514757939.794496: $GPGGA,220540,3946.9587,N,08404.9854,W,2,11,1.00,302.21,M,-33.324,M,,*7A
2017-12-31 17:05:39 1514757939.794561: $GPRMC,220540,A,3946.9587,N,08404.9854,W,0.0000,0.000,311217,,*3A
2017-12-31 17:05:39 1514757939.794622: $GPGSA,A,3,22,23,25,3,16,29,31,14,32,26,135,,1.7,1.0,1.3*3B
2017-12-31 17:05:40 1514757940.419782: $GPZDA,220541.00,31,12,2017,00,00*63
2017-12-31 17:05:40 1514757940.419948: $GPGGA,220541,3946.9587,N,08404.9854,W,2,11,1.00,302.21,M,-33.324,M,,*7B
2017-12-31 17:05:40 1514757940.420015: $GPRMC,220541,A,3946.9587,N,08404.9854,W,0.0000,0.000,311217,,*3B
2017-12-31 17:05:40 1514757940.420075: $GPGSA,A,3,22,23,25,3,16,29,31,14,32,26,135,,1.7,1.0,1.3*3B
2017-12-31 17:05:41 1514757941.359477: $GPZDA,220542.00,31,12,2017,00,00*60
2017-12-31 17:05:41 1514757941.359654: $GPGGA,220542,3946.9587,N,08404.9854,W,2,11,1.00,302.21,M,-33.324,M,,*78
2017-12-31 17:05:41 1514757941.359721: $GPRMC,220542,A,3946.9587,N,08404.9854,W,0.0000,0.000,311217,,*38
2017-12-31 17:05:41 1514757941.359784: $GPGSA,A,3,22,23,25,3,16,29,31,14,32,26,135,,1.7,1.0,1.3*3B
2017-12-31 17:05:42 1514757942.696299: $GPGSV,3,1,11,22,44,238,42,23,28,307,37,25,01,037,09,03,46,270,39*7A
2017-12-31 17:05:42 1514757942.696477: $GPGSV,3,2,11,16,47,190,44,29,14,054,35,31,49,051,50,14,40,114,36*73
2017-12-31 17:05:42 1514757942.696543: $GPGSV,3,3,11,32,18,123,40,26,75,139,46,135,22,240,42*7D
2017-12-31 17:05:42 1514757942.809942: $GPZDA,220543.00,31,12,2017,00,00*61
2017-12-31 17:05:42 1514757942.810085: $GPGGA,220543,3946.9587,N,08404.9854,W,2,11,1.00,302.21,M,-33.324,M,,*79
2017-12-31 17:05:42 1514757942.810153: $GPRMC,220543,A,3946.9587,N,08404.9854,W,0.0000,0.000,311217,,*39
2017-12-31 17:05:42 1514757942.810216: $GPGSA,A,3,22,23,25,3,16,29,31,14,32,26,135,,1.7,1.0,1.3*3B
2017-12-31 17:05:43 1514757943.353325: $GPZDA,220544.00,31,12,2017,00,00*66
2017-12-31 17:05:43 1514757943.353506: $GPGGA,220544,3946.9587,N,08404.9854,W,2,11,1.00,302.21,M,-33.324,M,,*7E
2017-12-31 17:05:43 1514757943.353574: $GPRMC,220544,A,3946.9587,N,08404.9854,W,0.0000,0.000,311217,,*3E
2017-12-31 17:05:43 1514757943.353636: $GPGSA,A,3,22,23,25,3,16,29,31,14,32,26,135,,1.7,1.0,1.3*3B
2017-12-31 17:05:44 1514757944.359213: $GPZDA,220545.00,31,12,2017,00,00*67
2017-12-31 17:05:44 1514757944.359378: $GPGGA,220545,3946.9587,N,08404.9854,W,2,11,1.00,302.21,M,-33.324,M,,*7F
2017-12-31 17:05:44 1514757944.359496: $GPRMC,220545,A,3946.9587,N,08404.9854,W,0.0000,0.000,311217,,*3F
2017-12-31 17:05:44 1514757944.359558: $GPGSA,A,3,22,23,25,3,16,29,31,14,32,26,135,,1.7,1.0,1.3*3B
2017-12-31 17:05:45 1514757945.695412: $GPGSV,3,1,11,22,44,238,42,23,28,307,38,25,01,037,11,03,46,270,39*7C
2017-12-31 17:05:45 1514757945.695592: $GPGSV,3,2,11,16,47,190,44,29,14,054,34,31,49,051,50,14,40,114,36*72
2017-12-31 17:05:45 1514757945.695659: $GPGSV,3,3,11,32,18,123,40,26,75,139,47,135,22,240,42*7C
2017-12-31 17:05:45 1514757945.809013: $GPZDA,220546.00,31,12,2017,00,00*64
2017-12-31 17:05:45 1514757945.809157: $GPGGA,220546,3946.9587,N,08404.9854,W,2,11,1.00,302.21,M,-33.324,M,,*7C
2017-12-31 17:05:45 1514757945.809224: $GPRMC,220546,A,3946.9587,N,08404.9854,W,0.0000,0.000,311217,,*3C
2017-12-31 17:05:45 1514757945.809286: $GPGSA,A,3,22,23,25,3,16,29,31,14,32,26,135,,1.7,1.0,1.3*3B
2017-12-31 17:05:46 1514757946.343646: $GPZDA,220547.00,31,12,2017,00,00*65
2017-12-31 17:05:46 1514757946.343842: $GPGGA,220547,3946.9587,N,08404.9854,W,2,11,1.00,302.21,M,-33.324,M,,*7D
2017-12-31 17:05:46 1514757946.343913: $GPRMC,220547,A,3946.9587,N,08404.9854,W,0.0000,0.000,311217,,*3D
2017-12-31 17:05:46 1514757946.343979: $GPGSA,A,3,22,23,25,3,16,29,31,14,32,26,135,,1.7,1.0,1.3*3B
