2017-12-29 11:43:10 1514565790.329424: {"class":"VERSION","release":"3.16","rev":"3.16-4","proto_major":3,"proto_minor":11}
2017-12-29 11:43:10 1514565790.329878: {"class":"DEVICES","devices":[{"class":"DEVICE","path":"/dev/ttyUSB0","driver":"SiRF","subtype":"9\u0006GSD4e_4.1.2-P1_RPATCH.05-F-GPS-4R-1510281 11/03/2015 307","activated":"2017-12-29T16:43:10.245Z","flags":1,"native":1,"bps":4800,"parity":"N","stopbits":1,"cycle":1.00}]}
2017-12-29 11:43:10 1514565790.330045: {"class":"WATCH","enable":true,"json":false,"nmea":true,"raw":0,"scaled":false,"timing":false,"split24":false,"pps":false}
2017-12-29 11:43:10 1514565790.371268: $GPZDA,164311.00,29,12,2017,00,00*6A
2017-12-29 11:43:10 1514565790.371506: $GPGGA,164311,3946.9636,N,08404.9883,W,2,11,0.80,311.74,M,-33.324,M,,*73
2017-12-29 11:43:10 1514565790.371576: $GPRMC,164311,A,3946.9636,N,08404.9883,W,0.0000,0.000,291217,,*31
2017-12-29 11:43:10 1514565790.371638: $GPGSA,A,3,8,10,15,18,20,21,24,27,32,14,138,,1.7,0.8,1.3*36
2017-12-29 11:43:11 1514565791.696146: $GPGSV,3,1,11,08,08,313,26,10,51,310,46,15,27,057,48,18,77,016,45*7B
2017-12-29 11:43:11 1514565791.696330: $GPGSV,3,2,11,20,26,105,49,21,51,183,47,24,53,090,51,27,16,277,34*73
2017-12-29 11:43:11 1514565791.696399: $GPGSV,3,3,11,32,31,246,35,14,12,238,35,138,38,213,45*75
2017-12-29 11:43:11 1514565791.809501: $GPZDA,164312.00,29,12,2017,00,00*69
2017-12-29 11:43:11 1514565791.809650: $GPGGA,164312,3946.9636,N,08404.9883,W,2,11,0.80,311.74,M,-33.324,M,,*70
2017-12-29 11:43:11 1514565791.809717: $GPRMC,164312,A,3946.9636,N,08404.9883,W,0.0000,0.000,291217,,*32
2017-12-29 11:43:11 1514565791.809778: $GPGSA,A,3,8,10,15,18,20,21,24,27,32,14,138,,1.7,0.8,1.3*36
2017-12-29 11:43:12 1514565792.360398: $GPZDA,164313.00,29,12,2017,00,00*68
2017-12-29 11:43:12 1514565792.360579: $GPGGA,164313,3946.9636,N,08404.9883,W,2,11,0.80,311.74,M,-33.324,M,,*71
2017-12-29 11:43:12 1514565792.360651: $GPRMC,164313,A,3946.9636,N,08404.9883,W,0.0000,0.000,291217,,*33
2017-12-29 11:43:12 1514565792.360714: $GPGSA,A,3,8,10,15,18,20,21,24,27,32,14,138,,1.7,0.8,1.3*36
2017-12-29 11:43:13 1514565793.361269: $GPZDA,164314.00,29,12,2017,00,00*6F
2017-12-29 11:43:13 1514565793.361445: $GPGGA,164314,3946.9633,N,08404.9884,W,2,11,0.80,312.51,M,-33.324,M,,*70
2017-12-29 11:43:13 1514565793.361514: $GPRMC,164314,A,3946.9633,N,08404.9884,W,0.0000,0.000,291217,,*36
2017-12-29 11:43:13 1514565793.361578: $GPGSA,A,3,8,10,15,18,20,21,24,27,32,14,138,,1.7,0.8,1.3*36
2017-12-29 11:43:14 1514565794.694444: $GPGSV,3,1,11,08,08,313,26,10,51,310,45,15,27,057,48,18,77,016,45*78
2017-12-29 11:43:14 1514565794.694629: $GPGSV,3,2,11,20,26,105,49,21,51,183,47,24,53,090,51,27,16,277,34*73
2017-12-29 11:43:14 1514565794.694696: $GPGSV,3,3,11,32,31,246,35,14,12,238,35,138,38,213,46*76
2017-12-29 11:43:14 1514565794.807789: $GPZDA,164315.00,29,12,2017,00,00*6E
2017-12-29 11:43:14 1514565794.807928: $GPGGA,164315,3946.9633,N,08404.9884,W,2,11,0.80,312.51,M,-33.324,M,,*71
2017-12-29 11:43:14 1514565794.807994: $GPRMC,164315,A,3946.9633,N,08404.9884,W,0.0000,0.000,291217,,*37
2017-12-29 11:43:14 1514565794.808057: $GPGSA,A,3,8,10,15,18,20,21,24,27,32,14,138,,1.7,0.8,1.3*36
2017-12-29 11:43:15 1514565795.436205: $GPZDA,164316.00,29,12,2017,00,00*6D
2017-12-29 11:43:15 1514565795.436387: $GPGGA,164316,3946.9633,N,08404.9884,W,2,11,0.80,312.51,M,-33.324,M,,*72
2017-12-29 11:43:15 1514565795.436456: $GPRMC,164316,A,3946.9633,N,08404.9884,W,0.0000,0.000,291217,,*34
2017-12-29 11:43:15 1514565795.436519: $GPGSA,A,3,8,10,15,18,20,21,24,27,32,14,138,,1.7,0.8,1.3*36
2017-12-29 11:43:16 1514565796.355380: $GPZDA,164317.00,29,12,2017,00,00*6C
2017-12-29 11:43:16 1514565796.355553: $GPGGA,164317,3946.9632,N,08404.9877,W,2,11,0.80,312.58,M,-33.324,M,,*77
2017-12-29 11:43:16 1514565796.355624: $GPRMC,164317,A,3946.9632,N,08404.9877,W,0.0000,0.000,291217,,*38
2017-12-29 11:43:16 1514565796.355687: $GPGSA,A,3,8,10,15,18,20,21,24,27,32,14,138,,1.7,0.8,1.3*36
2017-12-29 11:43:17 1514565797.696078: $GPGSV,3,1,11,08,08,313,32,10,51,310,45,15,27,057,48,18,77,016,45*7D
2017-12-29 11:43:17 1514565797.696303: $GPGSV,3,2,11,20,26,105,49,21,51,183,47,24,53,090,51,27,16,277,33*74
2017-12-29 11:43:17 1514565797.696370: $GPGSV,3,3,11,32,31,246,35,14,12,238,35,138,38,213,45*75
2017-12-29 11:43:17 1514565797.809524: $GPZDA,164318.00,29,12,2017,00,00*63
2017-12-29 11:43:17 1514565797.809692: $GPGGA,164318,3946.9632,N,08404.9877,W,2,11,0.80,312.58,M,-33.324,M,,*78
2017-12-29 11:43:17 1514565797.809758: $GPRMC,164318,A,3946.9632,N,08404.9877,W,0.0000,0.000,291217,,*37
2017-12-29 11:43:17 1514565797.809819: $GPGSA,A,3,8,10,15,18,20,21,24,27,32,14,138,,1.7,0.8,1.3*36
2017-12-29 11:43:18 1514565798.359322: $GPZDA,164319.00,29,12,2017,00,00*62
2017-12-29 11:43:18 1514565798.359496: $GPGGA,164319,3946.9632,N,08404.9877,W,2,11,0.80,312.58,M,-33.324,M,,*79
2017-12-29 11:43:18 1514565798.359562: $GPRMC,164319,A,3946.9632,N,08404.9877,W,0.0000,0.000,291217,,*36
2017-12-29 11:43:18 1514565798.359623: $GPGSA,A,3,8,10,15,18,20,21,24,27,32,14,138,,1.7,0.8,1.3*36
2017-12-29 11:43:19 1514565799.362440: $GPZDA,164320.00,29,12,2017,00,00*68
2017-12-29 11:43:19 1514565799.362609: $GPGGA,164320,3946.9632,N,08404.9864,W,2,11,0.80,314.15,M,-33.324,M,,*7E
2017-12-29 11:43:19 1514565799.362675: $GPRMC,164320,A,3946.9632,N,08404.9864,W,0.1567,9.200,291217,,*30
2017-12-29 11:43:19 1514565799.362736: $GPGSA,A,3,8,10,15,18,20,21,24,27,32,14,138,,1.7,0.8,1.3*36
2017-12-29 11:43:20 1514565800.696495: $GPGSV,3,1,11,08,08,313,33,10,51,310,45,15,27,057,48,18,77,016,46*7F
2017-12-29 11:43:20 1514565800.696676: $GPGSV,3,2,11,20,26,105,49,21,51,183,47,24,53,090,51,27,16,277,33*74
2017-12-29 11:43:20 1514565800.696743: $GPGSV,3,3,11,32,31,246,36,14,12,238,35,138,38,213,45*76
2017-12-29 11:43:20 1514565800.810127: $GPZDA,164321.00,29,12,2017,00,00*69
2017-12-29 11:43:20 1514565800.810274: $GPGGA,164321,3946.9632,N,08404.9864,W,2,11,0.80,314.15,M,-33.324,M,,*7F
2017-12-29 11:43:20 1514565800.810340: $GPRMC,164321,A,3946.9632,N,08404.9864,W,0.0000,0.000,291217,,*3F
2017-12-29 11:43:20 1514565800.810401: $GPGSA,A,3,8,10,15,18,20,21,24,27,32,14,138,,1.7,0.8,1.3*36
2017-12-29 11:43:21 1514565801.360945: $GPZDA,164322.00,29,12,2017,00,00*6A
2017-12-29 11:43:21 1514565801.361160: $GPGGA,164322,3946.9632,N,08404.9864,W,2,11,0.80,314.15,M,-33.324,M,,*7C
2017-12-29 11:43:21 1514565801.361230: $GPRMC,164322,A,3946.9632,N,08404.9864,W,0.0000,0.000,291217,,*3C
2017-12-29 11:43:21 1514565801.361291: $GPGSA,A,3,8,10,15,18,20,21,24,27,32,14,138,,1.7,0.8,1.3*36
2017-12-29 11:43:22 1514565802.359310: $GPZDA,164323.00,29,12,2017,00,00*6B
2017-12-29 11:43:22 1514565802.359496: $GPGGA,164323,3946.9632,N,08404.9864,W,2,11,0.80,314.15,M,-33.324,M,,*7D
2017-12-29 11:43:22 1514565802.359565: $GPRMC,164323,A,3946.9632,N,08404.9864,W,0.0000,0.000,291217,,*3D
2017-12-29 11:43:22 1514565802.359628: $GPGSA,A,3,8,10,15,18,20,21,24,27,32,14,138,,1.7,0.8,1.3*36
2017-12-29 11:43:23 1514565803.696090: $GPGSV,3,1,11,08,08,313,36,10,51,310,45,15,27,057,48,18,77,016,46*7A
2017-12-29 11:43:23 1514565803.696275: $GPGSV,3,2,11,20,26,105,49,21,51,183,47,24,53,090,51,27,16,277,26*70
2017-12-29 11:43:23 1514565803.696343: $GPGSV,3,3,11,32,31,246,35,14,12,238,35,138,38,213,45*75
2017-12-29 11:43:23 1514565803.809740: $GPZDA,164324.00,29,12,2017,00,00*6C
2017-12-29 11:43:23 1514565803.809909: $GPGGA,164324,3946.9632,N,08404.9864,W,2,11,0.80,314.15,M,-33.324,M,,*7A
2017-12-29 11:43:23 1514565803.809978: $GPRMC,164324,A,3946.9632,N,08404.9864,W,0.0000,0.000,291217,,*3A
2017-12-29 11:43:23 1514565803.810040: $GPGSA,A,3,8,10,15,18,20,21,24,27,32,14,138,,1.7,0.8,1.3*36
2017-12-29 11:43:24 1514565804.376562: $GPZDA,164325.00,29,12,2017,00,00*6D
2017-12-29 11:43:24 1514565804.376732: $GPGGA,164325,3946.9629,N,08404.9864,W,2,11,0.80,314.91,M,-33.324,M,,*7D
2017-12-29 11:43:24 1514565804.376801: $GPRMC,164325,A,3946.9629,N,08404.9864,W,0.0000,0.000,291217,,*31
2017-12-29 11:43:24 1514565804.376864: $GPGSA,A,3,8,10,15,18,20,21,24,27,32,14,138,,1.7,0.8,1.3*36
