2017-11-15 19:30:42 1510792242.937983: {"class":"VERSION","release":"3.17","rev":"3.17","proto_major":3,"proto_minor":12}
2017-11-15 19:30:42 1510792242.938821: {"class":"DEVICES","devices":[{"class":"DEVICE","path":"/dev/ttyUSB0","driver":"SiRF","subtype":"9\u0006GSD4e_4.1.2-P1_RPATCH.05-F-GPS-4R-1510281 11/03/2015 307","activated":"2017-11-16T00:30:42.937Z","flags":1,"native":1,"bps":4800,"parity":"N","stopbits":1,"cycle":1.00}]}
2017-11-15 19:30:42 1510792242.939027: {"class":"WATCH","enable":true,"json":false,"nmea":true,"raw":0,"scaled":false,"timing":false,"split24":false,"pps":false}
2017-11-15 19:30:43 1510792243.329699: $GPZDA,003042.00,16,11,2017,00,00*60
2017-11-15 19:30:43 1510792243.329885: $GPGGA,003042,3946.9558,N,08404.9507,W,1,08,1.20,280.74,M,-33.324,M,,*75
2017-11-15 19:30:43 1510792243.329948: $GPRMC,003042,A,3946.9558,N,08404.9507,W,0.2422,273.794,161117,,*3B
2017-11-15 19:30:43 1510792243.330021: $GPGSA,A,3,32,1,16,26,31,3,23,22,,,,,3.4,1.2,2.9*3E
2017-11-15 19:30:44 1510792244.346932: $GPZDA,003043.00,16,11,2017,00,00*61
2017-11-15 19:30:44 1510792244.347114: $GPGGA,003043,3946.9561,N,08404.9506,W,1,08,1.20,279.97,M,-33.324,M,,*74
2017-11-15 19:30:44 1510792244.347176: $GPRMC,003043,A,3946.9561,N,08404.9506,W,0.0000,0.000,161117,,*3B
2017-11-15 19:30:44 1510792244.347231: $GPGSA,A,3,32,1,16,26,31,3,23,22,,,,,3.4,1.2,2.9*3E
2017-11-15 19:30:45 1510792245.682560: $GPGSV,3,1,11,32,36,108,24,01,05,252,10,16,23,190,16,26,53,172,07*78
2017-11-15 19:30:45 1510792245.682731: $GPGSV,3,2,11,29,11,070,04,31,67,025,18,03,40,298,21,14,55,093,00*75
2017-11-15 19:30:45 1510792245.682789: $GPGSV,3,3,11,23,11,301,14,25,17,040,00,22,50,270,21*49
2017-11-15 19:30:45 1510792245.796098: $GPZDA,003044.00,16,11,2017,00,00*66
2017-11-15 19:30:45 1510792245.796371: $GPGGA,003044,3946.9561,N,08404.9506,W,1,07,1.60,279.97,M,-33.324,M,,*78
2017-11-15 19:30:45 1510792245.796431: $GPRMC,003044,A,3946.9561,N,08404.9506,W,0.2422,93.794,161117,,*0A
2017-11-15 19:30:45 1510792245.796486: $GPGSA,A,3,32,1,26,31,3,23,22,,,,,,3.4,1.6,2.9*3D
2017-11-15 19:30:46 1510792246.421386: $GPZDA,003045.00,16,11,2017,00,00*67
2017-11-15 19:30:46 1510792246.421546: $GPGGA,003045,3946.9565,N,08404.9506,W,1,07,1.60,280.61,M,-33.324,M,,*72
2017-11-15 19:30:46 1510792246.421607: $GPRMC,003045,A,3946.9565,N,08404.9506,W,0.8054,68.645,161117,,*09
2017-11-15 19:30:46 1510792246.421663: $GPGSA,A,3,32,1,26,31,3,23,22,,,,,,3.4,1.6,2.9*3D
2017-11-15 19:30:47 1510792247.329686: $GPZDA,003046.00,16,11,2017,00,00*64
2017-11-15 19:30:47 1510792247.329864: $GPGGA,003046,3946.9565,N,08404.9506,W,1,07,1.40,280.61,M,-33.324,M,,*73
2017-11-15 19:30:47 1510792247.329925: $GPRMC,003046,A,3946.9565,N,08404.9506,W,0.8054,68.645,161117,,*0A
2017-11-15 19:30:47 1510792247.329998: $GPGSA,A,3,32,1,26,31,3,23,22,,,,,,3.4,1.4,2.9*3F
2017-11-15 19:30:48 1510792248.665455: $GPGSV,3,1,11,32,36,108,24,01,05,252,08,16,23,190,15,26,53,172,13*77
2017-11-15 19:30:48 1510792248.665643: $GPGSV,3,2,11,14,55,093,00,31,67,025,17,03,40,298,21,25,17,040,00*77
2017-11-15 19:30:48 1510792248.665704: $GPGSV,3,3,11,23,11,301,13,29,11,070,00,22,50,270,21*47
2017-11-15 19:30:48 1510792248.778769: $GPZDA,003047.00,16,11,2017,00,00*65
2017-11-15 19:30:48 1510792248.778949: $GPGGA,003047,3946.9565,N,08404.9499,W,1,08,1.40,280.69,M,-33.324,M,,*72
2017-11-15 19:30:48 1510792248.779027: $GPRMC,003047,A,3946.9565,N,08404.9499,W,0.7267,93.794,161117,,*08
2017-11-15 19:30:48 1510792248.779084: $GPGSA,A,3,32,1,16,26,31,3,23,22,,,,,3.4,1.4,2.9*38
2017-11-15 19:30:49 1510792249.345921: $GPZDA,003048.00,16,11,2017,00,00*6A
2017-11-15 19:30:49 1510792249.346103: $GPGGA,003048,3946.9572,N,08404.9498,W,1,08,1.40,280.57,M,-33.324,M,,*77
2017-11-15 19:30:49 1510792249.346163: $GPRMC,003048,A,3946.9572,N,08404.9498,W,0.4844,93.794,161117,,*08
2017-11-15 19:30:49 1510792249.346219: $GPGSA,A,3,32,1,16,26,31,3,23,22,,,,,3.4,1.4,2.9*38
2017-11-15 19:30:50 1510792250.346877: $GPZDA,003049.00,16,11,2017,00,00*6B
2017-11-15 19:30:50 1510792250.347054: $GPGGA,003049,3946.9572,N,08404.9498,W,1,08,1.40,280.57,M,-33.324,M,,*76
2017-11-15 19:30:50 1510792250.347165: $GPRMC,003049,A,3946.9572,N,08404.9498,W,0.4844,93.794,161117,,*09
2017-11-15 19:30:50 1510792250.347222: $GPGSA,A,3,32,1,16,26,31,3,23,22,,,,,3.4,1.4,2.9*38
2017-11-15 19:30:51 1510792251.682048: $GPGSV,3,1,11,32,36,108,24,01,05,252,08,16,23,190,16,26,53,172,11*76
2017-11-15 19:30:51 1510792251.682232: $GPGSV,3,2,11,14,55,093,00,31,67,025,14,03,40,298,21,25,17,040,00*74
2017-11-15 19:30:51 1510792251.682294: $GPGSV,3,3,11,23,11,301,13,29,11,070,00,22,50,270,21*47
2017-11-15 19:30:51 1510792251.795411: $GPZDA,003050.00,16,11,2017,00,00*63
2017-11-15 19:30:51 1510792251.795592: $GPGGA,003050,3946.9572,N,08404.9498,W,1,08,1.40,280.57,M,-33.324,M,,*7E
2017-11-15 19:30:51 1510792251.795656: $GPRMC,003050,A,3946.9572,N,08404.9498,W,0.8905,57.384,161117,,*04
2017-11-15 19:30:51 1510792251.795714: $GPGSA,A,3,32,1,16,26,31,3,23,22,,,,,3.4,1.4,2.9*38
2017-11-15 19:30:52 1510792252.346368: $GPZDA,003051.00,16,11,2017,00,00*62
2017-11-15 19:30:52 1510792252.346530: $GPGGA,003051,3946.9576,N,08404.9491,W,1,08,2.60,281.29,M,-33.324,M,,*7B
2017-11-15 19:30:52 1510792252.346593: $GPRMC,003051,A,3946.9576,N,08404.9491,W,1.2621,39.347,161117,,*0D
2017-11-15 19:30:52 1510792252.346651: $GPGSA,A,3,32,1,16,26,31,3,23,22,,,,,3.4,2.6,2.9*39
