2017-11-15 19:16:35 1510791395.363289: {"class":"VERSION","release":"3.17","rev":"3.17","proto_major":3,"proto_minor":12}
2017-11-15 19:16:35 1510791395.363833: {"class":"DEVICES","devices":[{"class":"DEVICE","path":"/dev/ttyUSB0","driver":"SiRF","subtype":"9\u0006GSD4e_4.1.2-P1_RPATCH.05-F-GPS-4R-1510281 11/03/2015 307","activated":"2017-11-16T00:16:35.329Z","flags":1,"native":1,"bps":4800,"parity":"N","stopbits":1,"cycle":1.00}]}
2017-11-15 19:16:35 1510791395.363998: {"class":"WATCH","enable":true,"json":false,"nmea":true,"raw":0,"scaled":false,"timing":false,"split24":false,"pps":false}
2017-11-15 19:16:36 1510791396.667170: $GPGSV,3,1,11,32,41,102,18,14,59,084,26,22,49,280,23,26,46,175,11*77
2017-11-15 19:16:36 1510791396.667379: $GPGSV,3,2,11,31,72,013,18,16,16,190,05,03,36,304,21,01,09,256,05*77
2017-11-15 19:16:36 1510791396.667467: $GPGSV,3,3,11,29,09,076,04,25,22,042,00,23,07,298,00*4A
2017-11-15 19:16:36 1510791396.780328: $GPZDA,001635.00,16,11,2017,00,00*64
2017-11-15 19:16:36 1510791396.780510: $GPGGA,001635,3946.9728,N,08404.9428,W,1,06,1.40,292.83,M,-33.324,M,,*7B
2017-11-15 19:16:36 1510791396.780570: $GPRMC,001635,A,3946.9728,N,08404.9428,W,0.2422,273.795,161117,,*37
2017-11-15 19:16:36 1510791396.780627: $GPGSA,A,3,32,14,22,26,31,3,,,,,,,3.4,1.4,2.9*0A
2017-11-15 19:16:37 1510791397.331123: $GPZDA,001636.00,16,11,2017,00,00*67
2017-11-15 19:16:37 1510791397.331300: $GPGGA,001636,3946.9724,N,08404.9428,W,1,06,1.40,292.19,M,-33.324,M,,*77
2017-11-15 19:16:37 1510791397.331365: $GPRMC,001636,A,3946.9724,N,08404.9428,W,0.3423,4.197,161117,,*3E
2017-11-15 19:16:37 1510791397.331424: $GPGSA,A,3,32,14,22,26,31,3,,,,,,,3.4,1.4,2.9*0A
2017-11-15 19:16:38 1510791398.330900: $GPZDA,001637.00,16,11,2017,00,00*66
2017-11-15 19:16:38 1510791398.331088: $GPGGA,001637,3946.9724,N,08404.9428,W,1,06,1.40,292.19,M,-33.324,M,,*76
2017-11-15 19:16:38 1510791398.331151: $GPRMC,001637,A,3946.9724,N,08404.9428,W,0.4207,39.347,161117,,*09
2017-11-15 19:16:38 1510791398.331209: $GPGSA,A,3,32,14,22,26,31,3,,,,,,,3.4,1.4,2.9*0A
2017-11-15 19:16:39 1510791399.665426: $GPGSV,3,1,11,32,41,102,18,14,59,084,26,22,49,280,23,26,46,175,12*74
2017-11-15 19:16:39 1510791399.665596: $GPGSV,3,2,11,31,72,013,19,16,16,190,04,03,36,304,22,01,09,256,04*75
2017-11-15 19:16:39 1510791399.665658: $GPGSV,3,3,11,29,09,076,04,25,22,042,00,23,07,298,00*4A
2017-11-15 19:16:39 1510791399.778765: $GPZDA,001638.00,16,11,2017,00,00*69
2017-11-15 19:16:39 1510791399.778947: $GPGGA,001638,3946.9716,N,08404.9429,W,1,06,1.40,292.32,M,-33.324,M,,*70
2017-11-15 19:16:39 1510791399.779028: $GPRMC,001638,A,3946.9716,N,08404.9429,W,0.2422,93.795,161117,,*0A
2017-11-15 19:16:39 1510791399.779088: $GPGSA,A,3,32,14,22,26,31,3,,,,,,,3.4,1.4,2.9*0A
2017-11-15 19:16:40 1510791400.332281: $GPZDA,001639.00,16,11,2017,00,00*68
2017-11-15 19:16:40 1510791400.332465: $GPGGA,001639,3946.9716,N,08404.9429,W,1,06,1.40,292.32,M,-33.324,M,,*71
2017-11-15 19:16:40 1510791400.332532: $GPRMC,001639,A,3946.9716,N,08404.9429,W,0.4844,93.795,161117,,*01
2017-11-15 19:16:40 1510791400.332595: $GPGSA,A,3,32,14,22,26,31,3,,,,,,,3.4,1.4,2.9*0A
2017-11-15 19:16:41 1510791401.330071: $GPZDA,001640.00,16,11,2017,00,00*66
2017-11-15 19:16:41 1510791401.330240: $GPGGA,001640,3946.9712,N,08404.9429,W,1,06,1.40,291.68,M,-33.324,M,,*77
2017-11-15 19:16:41 1510791401.330304: $GPRMC,001640,A,3946.9712,N,08404.9429,W,0.4844,93.795,161117,,*0B
2017-11-15 19:16:41 1510791401.330364: $GPGSA,A,3,32,14,22,26,31,3,,,,,,,3.4,1.4,2.9*0A
2017-11-15 19:16:42 1510791402.665769: $GPGSV,3,1,11,32,41,102,19,14,59,084,26,22,49,280,23,26,46,175,14*73
2017-11-15 19:16:42 1510791402.665926: $GPGSV,3,2,11,31,72,013,19,16,16,190,04,03,36,304,22,01,09,256,04*75
2017-11-15 19:16:42 1510791402.665991: $GPGSV,3,3,11,29,09,076,05,25,22,042,00,23,07,298,00*4B
2017-11-15 19:16:42 1510791402.779108: $GPZDA,001641.00,16,11,2017,00,00*67
2017-11-15 19:16:42 1510791402.779274: $GPGGA,001641,3946.9712,N,08404.9429,W,1,06,1.40,291.68,M,-33.324,M,,*76
2017-11-15 19:16:42 1510791402.779339: $GPRMC,001641,A,3946.9712,N,08404.9429,W,0.5912,129.173,161117,,*37
2017-11-15 19:16:42 1510791402.779449: $GPGSA,A,3,32,14,22,26,31,3,,,,,,,3.4,1.4,2.9*0A
2017-11-15 19:16:43 1510791403.346230: $GPZDA,001642.00,16,11,2017,00,00*64
2017-11-15 19:16:43 1510791403.346376: $GPGGA,001642,3946.9704,N,08404.9423,W,1,06,1.40,291.88,M,-33.324,M,,*76
2017-11-15 19:16:43 1510791403.346437: $GPRMC,001642,A,3946.9704,N,08404.9423,W,0.5306,114.352,161117,,*39
2017-11-15 19:16:43 1510791403.346493: $GPGSA,A,3,32,14,22,26,31,3,,,,,,,3.4,1.4,2.9*0A
2017-11-15 19:16:44 1510791404.347148: $GPZDA,001643.00,16,11,2017,00,00*65
2017-11-15 19:16:44 1510791404.347310: $GPGGA,001643,3946.9704,N,08404.9423,W,1,06,1.40,291.88,M,-33.324,M,,*77
2017-11-15 19:16:44 1510791404.347371: $GPRMC,001643,A,3946.9704,N,08404.9423,W,0.4844,93.795,161117,,*05
2017-11-15 19:16:44 1510791404.347428: $GPGSA,A,3,32,14,22,26,31,3,,,,,,,3.4,1.4,2.9*0A
