2017-11-16 16:45:31 1510868731.983674: {"class":"VERSION","release":"3.17","rev":"3.17","proto_major":3,"proto_minor":12}
2017-11-16 16:45:31 1510868731.984168: {"class":"DEVICES","devices":[{"class":"DEVICE","path":"/dev/ttyUSB0","driver":"SiRF","subtype":"9\u0006GSD4e_4.1.2-P1_RPATCH.05-F-GPS-4R-1510281 11/03/2015 307","activated":"2017-11-16T21:45:31.585Z","flags":1,"native":1,"bps":4800,"parity":"N","stopbits":1,"cycle":1.00}]}
2017-11-16 16:45:31 1510868731.984289: {"class":"WATCH","enable":true,"json":false,"nmea":true,"raw":0,"scaled":false,"timing":false,"split24":false,"pps":false}
2017-11-16 16:45:32 1510868732.779123: $GPGSV,3,1,12,01,13,319,40,10,71,129,49,11,11,303,34,12,25,073,47*70
2017-11-16 16:45:32 1510868732.779290: $GPGSV,3,2,12,14,54,289,44,18,39,135,45,24,15,045,46,25,29,115,42*77
2017-11-16 16:45:32 1510868732.779350: $GPGSV,3,3,12,31,33,211,46,32,67,324,51,22,01,310,31,138,38,213,44*49
2017-11-16 16:45:32 1510868732.892387: $GPZDA,214531.00,16,11,2017,00,00*65
2017-11-16 16:45:32 1510868732.892552: $GPGGA,214531,3946.9580,N,08404.9815,W,2,12,0.80,307.02,M,-33.324,M,,*77
2017-11-16 16:45:32 1510868732.892611: $GPRMC,214531,A,3946.9580,N,08404.9815,W,0.0000,0.000,161117,,*3F
2017-11-16 16:45:32 1510868732.892667: $GPGSA,A,3,1,10,11,12,14,18,24,25,31,32,22,138,1.6,0.8,1.3*38
2017-11-16 16:45:33 1510868733.442288: $GPZDA,214532.00,16,11,2017,00,00*66
2017-11-16 16:45:33 1510868733.442451: $GPGGA,214532,3946.9580,N,08404.9815,W,2,12,0.80,307.02,M,-33.324,M,,*74
2017-11-16 16:45:33 1510868733.442528: $GPRMC,214532,A,3946.9580,N,08404.9815,W,0.0000,0.000,161117,,*3C
2017-11-16 16:45:33 1510868733.442585: $GPGSA,A,3,1,10,11,12,14,18,24,25,31,32,22,138,1.6,0.8,1.3*38
2017-11-16 16:45:34 1510868734.436769: $GPZDA,214533.00,16,11,2017,00,00*67
2017-11-16 16:45:34 1510868734.436917: $GPGGA,214533,3946.9580,N,08404.9815,W,2,12,0.80,307.02,M,-33.324,M,,*75
2017-11-16 16:45:34 1510868734.436978: $GPRMC,214533,A,3946.9580,N,08404.9815,W,0.0000,0.000,161117,,*3D
2017-11-16 16:45:34 1510868734.437050: $GPGSA,A,3,1,10,11,12,14,18,24,25,31,32,22,138,1.6,0.8,1.3*38
2017-11-16 16:45:35 1510868735.780029: $GPGSV,3,1,12,01,13,319,39,10,71,129,49,11,11,303,34,12,25,073,47*7E
2017-11-16 16:45:35 1510868735.780191: $GPGSV,3,2,12,14,54,289,44,18,39,135,45,24,15,045,46,25,29,115,43*76
2017-11-16 16:45:35 1510868735.780251: $GPGSV,3,3,12,31,33,211,45,32,67,324,51,22,01,310,28,138,38,213,44*42
2017-11-16 16:45:35 1510868735.893418: $GPZDA,214534.00,16,11,2017,00,00*60
2017-11-16 16:45:35 1510868735.893587: $GPGGA,214534,3946.9580,N,08404.9815,W,2,12,0.80,307.02,M,-33.324,M,,*72
2017-11-16 16:45:35 1510868735.893648: $GPRMC,214534,A,3946.9580,N,08404.9815,W,0.0000,0.000,161117,,*3A
2017-11-16 16:45:35 1510868735.893723: $GPGSA,A,3,1,10,11,12,14,18,24,25,31,32,22,138,1.6,0.8,1.3*38
2017-11-16 16:45:36 1510868736.518725: $GPZDA,214535.00,16,11,2017,00,00*61
2017-11-16 16:45:36 1510868736.518893: $GPGGA,214535,3946.9580,N,08404.9815,W,2,12,0.80,307.02,M,-33.324,M,,*73
2017-11-16 16:45:36 1510868736.518954: $GPRMC,214535,A,3946.9580,N,08404.9815,W,0.0000,0.000,161117,,*3B
2017-11-16 16:45:36 1510868736.519010: $GPGSA,A,3,1,10,11,12,14,18,24,25,31,32,22,138,1.6,0.8,1.3*38
2017-11-16 16:45:37 1510868737.442080: $GPZDA,214536.00,16,11,2017,00,00*62
2017-11-16 16:45:37 1510868737.442244: $GPGGA,214536,3946.9580,N,08404.9815,W,2,12,0.80,307.02,M,-33.324,M,,*70
2017-11-16 16:45:37 1510868737.442305: $GPRMC,214536,A,3946.9580,N,08404.9815,W,0.0000,0.000,161117,,*38
2017-11-16 16:45:37 1510868737.442361: $GPGSA,A,3,1,10,11,12,14,18,24,25,31,32,22,138,1.6,0.8,1.3*38
2017-11-16 16:45:38 1510868738.779172: $GPGSV,3,1,12,01,13,319,39,10,71,129,49,11,11,303,34,12,25,073,47*7E
2017-11-16 16:45:38 1510868738.779335: $GPGSV,3,2,12,14,54,289,44,18,39,135,45,24,15,045,46,25,29,115,43*76
2017-11-16 16:45:38 1510868738.779394: $GPGSV,3,3,12,31,33,211,45,32,67,324,51,22,01,310,27,138,38,213,44*4D
2017-11-16 16:45:38 1510868738.892492: $GPZDA,214537.00,16,11,2017,00,00*63
2017-11-16 16:45:38 1510868738.892657: $GPGGA,214537,3946.9580,N,08404.9815,W,2,12,0.80,307.02,M,-33.324,M,,*71
2017-11-16 16:45:38 1510868738.892768: $GPRMC,214537,A,3946.9580,N,08404.9815,W,0.0000,0.000,161117,,*39
2017-11-16 16:45:38 1510868738.892825: $GPGSA,A,3,1,10,11,12,14,18,24,25,31,32,22,138,1.6,0.8,1.3*38
2017-11-16 16:45:39 1510868739.443358: $GPZDA,214538.00,16,11,2017,00,00*6C
2017-11-16 16:45:39 1510868739.443523: $GPGGA,214538,3946.9580,N,08404.9815,W,2,12,0.80,307.02,M,-33.324,M,,*7E
2017-11-16 16:45:39 1510868739.443583: $GPRMC,214538,A,3946.9580,N,08404.9815,W,0.0000,0.000,161117,,*36
2017-11-16 16:45:39 1510868739.443638: $GPGSA,A,3,1,10,11,12,14,18,24,25,31,32,22,138,1.6,0.8,1.3*38
2017-11-16 16:45:40 1510868740.443009: $GPZDA,214539.00,16,11,2017,00,00*6D
2017-11-16 16:45:40 1510868740.443175: $GPGGA,214539,3946.9580,N,08404.9815,W,2,12,0.80,307.02,M,-33.324,M,,*7F
2017-11-16 16:45:40 1510868740.443236: $GPRMC,214539,A,3946.9580,N,08404.9815,W,0.0000,0.000,161117,,*37
2017-11-16 16:45:40 1510868740.443292: $GPGSA,A,3,1,10,11,12,14,18,24,25,31,32,22,138,1.6,0.8,1.3*38
2017-11-16 16:45:41 1510868741.778381: $GPGSV,3,1,12,01,13,319,38,10,71,129,49,11,11,303,33,12,25,073,47*78
2017-11-16 16:45:41 1510868741.778550: $GPGSV,3,2,12,14,54,289,44,18,39,135,45,24,15,045,46,25,29,115,43*76
2017-11-16 16:45:41 1510868741.778610: $GPGSV,3,3,12,31,33,211,45,32,67,324,51,22,01,310,29,138,38,213,44*43
2017-11-16 16:45:41 1510868741.891988: $GPZDA,214540.00,16,11,2017,00,00*63
2017-11-16 16:45:41 1510868741.892143: $GPGGA,214540,3946.9580,N,08404.9815,W,2,12,0.80,307.02,M,-33.324,M,,*71
2017-11-16 16:45:41 1510868741.892203: $GPRMC,214540,A,3946.9580,N,08404.9815,W,0.0000,0.000,161117,,*39
2017-11-16 16:45:41 1510868741.892259: $GPGSA,A,3,1,10,11,12,14,18,24,25,31,32,22,138,1.6,0.8,1.3*38
