2017-11-16 17:10:41 1510870241.163124: {"class":"VERSION","release":"3.17","rev":"3.17","proto_major":3,"proto_minor":12}
2017-11-16 17:10:41 1510870241.163558: {"class":"DEVICES","devices":[{"class":"DEVICE","path":"/dev/ttyUSB0","driver":"SiRF","subtype":"9\u0006GSD4e_4.1.2-P1_RPATCH.05-F-GPS-4R-1510281 11/03/2015 307","activated":"2017-11-16T22:10:40.715Z","flags":1,"native":1,"bps":4800,"parity":"N","stopbits":1,"cycle":1.00}]}
2017-11-16 17:10:41 1510870241.163670: {"class":"WATCH","enable":true,"json":false,"nmea":true,"raw":0,"scaled":false,"timing":false,"split24":false,"pps":false}
2017-11-16 17:10:41 1510870241.415791: $GPZDA,221040.00,16,11,2017,00,00*60
2017-11-16 17:10:41 1510870241.415979: $GPGGA,221040,3946.9568,N,08404.9826,W,2,11,0.80,312.81,M,-33.324,M,,*78
2017-11-16 17:10:41 1510870241.416040: $GPRMC,221040,A,3946.9568,N,08404.9826,W,0.0000,0.000,161117,,*3C
2017-11-16 17:10:41 1510870241.416097: $GPGSA,A,3,1,10,11,12,14,18,22,25,31,32,138,,1.6,0.8,1.3*3E
2017-11-16 17:10:42 1510870242.751463: $GPGSV,3,1,12,01,19,310,44,10,59,142,47,11,10,291,28,12,25,060,50*7C
2017-11-16 17:10:42 1510870242.751631: $GPGSV,3,2,12,14,61,309,46,18,28,141,45,22,11,312,34,24,05,046,00*71
2017-11-16 17:10:42 1510870242.751691: $GPGSV,3,3,12,25,36,103,46,31,45,217,49,32,70,358,49,138,38,213,44*46
2017-11-16 17:10:42 1510870242.864727: $GPZDA,221041.00,16,11,2017,00,00*61
2017-11-16 17:10:42 1510870242.864899: $GPGGA,221041,3946.9568,N,08404.9826,W,2,11,0.80,312.81,M,-33.324,M,,*79
2017-11-16 17:10:42 1510870242.864960: $GPRMC,221041,A,3946.9568,N,08404.9826,W,0.0000,0.000,161117,,*3D
2017-11-16 17:10:42 1510870242.865057: $GPGSA,A,3,1,10,11,12,14,18,22,25,31,32,138,,1.6,0.8,1.3*3E
2017-11-16 17:10:43 1510870243.415689: $GPZDA,221042.00,16,11,2017,00,00*62
2017-11-16 17:10:43 1510870243.415862: $GPGGA,221042,3946.9568,N,08404.9826,W,2,11,1.00,312.81,M,-33.324,M,,*73
2017-11-16 17:10:43 1510870243.415923: $GPRMC,221042,A,3946.9568,N,08404.9826,W,0.0000,0.000,161117,,*3E
2017-11-16 17:10:43 1510870243.415978: $GPGSA,A,3,1,10,11,12,14,18,22,25,31,32,138,,1.6,1.0,1.3*37
2017-11-16 17:10:44 1510870244.416525: $GPZDA,221043.00,16,11,2017,00,00*63
2017-11-16 17:10:44 1510870244.416693: $GPGGA,221043,3946.9568,N,08404.9826,W,2,11,0.80,312.81,M,-33.324,M,,*7B
2017-11-16 17:10:44 1510870244.416756: $GPRMC,221043,A,3946.9568,N,08404.9826,W,0.0000,0.000,161117,,*3F
2017-11-16 17:10:44 1510870244.416811: $GPGSA,A,3,1,10,11,12,14,18,22,25,31,32,138,,1.6,0.8,1.3*3E
2017-11-16 17:10:45 1510870245.746181: $GPGSV,3,1,12,01,19,310,44,10,59,142,47,24,05,046,29,12,25,060,50*77
2017-11-16 17:10:45 1510870245.746365: $GPGSV,3,2,12,14,61,309,46,18,28,141,45,22,11,312,36,11,10,291,25*7E
2017-11-16 17:10:45 1510870245.746425: $GPGSV,3,3,12,25,36,103,46,31,45,217,49,32,70,358,49,138,38,213,44*46
2017-11-16 17:10:45 1510870245.859600: $GPZDA,221044.00,16,11,2017,00,00*64
2017-11-16 17:10:45 1510870245.859758: $GPGGA,221044,3946.9568,N,08404.9826,W,2,12,0.80,312.81,M,-33.324,M,,*7F
2017-11-16 17:10:45 1510870245.859818: $GPRMC,221044,A,3946.9568,N,08404.9826,W,0.0000,0.000,161117,,*38
2017-11-16 17:10:45 1510870245.859873: $GPGSA,A,3,1,10,24,12,14,18,22,11,25,31,32,138,1.6,0.8,1.3*38
2017-11-16 17:10:46 1510870246.484742: $GPZDA,221045.00,16,11,2017,00,00*65
2017-11-16 17:10:46 1510870246.484896: $GPGGA,221045,3946.9568,N,08404.9826,W,2,12,1.00,312.81,M,-33.324,M,,*77
2017-11-16 17:10:46 1510870246.484956: $GPRMC,221045,A,3946.9568,N,08404.9826,W,0.0000,0.000,161117,,*39
2017-11-16 17:10:46 1510870246.485072: $GPGSA,A,3,1,10,24,12,14,18,22,11,25,31,32,138,1.6,1.0,1.3*31
2017-11-16 17:10:47 1510870247.398118: $GPZDA,221046.00,16,11,2017,00,00*66
2017-11-16 17:10:47 1510870247.398295: $GPGGA,221046,3946.9568,N,08404.9826,W,2,12,1.00,312.81,M,-33.324,M,,*74
2017-11-16 17:10:47 1510870247.398356: $GPRMC,221046,A,3946.9568,N,08404.9826,W,0.0000,0.000,161117,,*3A
2017-11-16 17:10:47 1510870247.398411: $GPGSA,A,3,1,10,24,12,14,18,22,11,25,31,32,138,1.6,1.0,1.3*31
2017-11-16 17:10:48 1510870248.736456: $GPGSV,3,1,12,01,19,310,44,10,59,142,47,24,05,046,20,12,25,060,50*7E
2017-11-16 17:10:48 1510870248.736671: $GPGSV,3,2,12,14,61,309,46,18,28,141,45,22,11,312,37,11,10,291,00*78
2017-11-16 17:10:48 1510870248.736734: $GPGSV,3,3,12,25,36,103,46,31,45,217,49,32,70,358,49,138,38,213,43*41
2017-11-16 17:10:48 1510870248.850147: $GPZDA,221047.00,16,11,2017,00,00*67
2017-11-16 17:10:48 1510870248.850303: $GPGGA,221047,3946.9568,N,08404.9826,W,2,11,0.80,312.81,M,-33.324,M,,*7F
2017-11-16 17:10:48 1510870248.850364: $GPRMC,221047,A,3946.9568,N,08404.9826,W,0.0000,0.000,161117,,*3B
2017-11-16 17:10:48 1510870248.850420: $GPGSA,A,3,1,10,24,12,14,18,22,25,31,32,138,,1.6,0.8,1.3*38
2017-11-16 17:10:49 1510870249.399363: $GPZDA,221048.00,16,11,2017,00,00*68
2017-11-16 17:10:49 1510870249.399522: $GPGGA,221048,3946.9568,N,08404.9826,W,2,11,0.80,312.81,M,-33.324,M,,*70
2017-11-16 17:10:49 1510870249.399583: $GPRMC,221048,A,3946.9568,N,08404.9826,W,0.0000,0.000,161117,,*34
2017-11-16 17:10:49 1510870249.399638: $GPGSA,A,3,1,10,24,12,14,18,22,25,31,32,138,,1.6,0.8,1.3*38
2017-11-16 17:10:50 1510870250.399061: $GPZDA,221049.00,16,11,2017,00,00*69
2017-11-16 17:10:50 1510870250.399229: $GPGGA,221049,3946.9568,N,08404.9826,W,2,11,1.00,312.81,M,-33.324,M,,*78
2017-11-16 17:10:50 1510870250.399290: $GPRMC,221049,A,3946.9568,N,08404.9826,W,0.0000,0.000,161117,,*35
2017-11-16 17:10:50 1510870250.399346: $GPGSA,A,3,1,10,24,12,14,18,22,25,31,32,138,,1.6,1.0,1.3*31
