2017-12-14 11:42:08 1513269728.021796: {"class":"VERSION","release":"3.16","rev":"3.16-4","proto_major":3,"proto_minor":11}
2017-12-14 11:42:08 1513269728.022207: {"class":"DEVICES","devices":[{"class":"DEVICE","path":"/dev/ttyUSB0","driver":"SiRF","subtype":"9\u0006GSD4e_4.1.2-P1_RPATCH.05-F-GPS-4R-1510281 11/03/2015 307","activated":"2017-12-14T16:42:07.289Z","flags":1,"native":1,"bps":4800,"parity":"N","stopbits":1,"cycle":1.00}]}
2017-12-14 11:42:08 1513269728.022342: {"class":"WATCH","enable":true,"json":false,"nmea":true,"raw":0,"scaled":false,"timing":false,"split24":false,"pps":false}
2017-12-14 11:42:08 1513269728.482359: $GPGSV,3,1,11,24,40,132,28,15,53,049,24,18,60,310,19,20,46,081,15*72
2017-12-14 11:42:08 1513269728.482532: $GPGSV,3,2,11,10,29,289,00,21,78,220,21,27,18,306,11,13,22,045,00*74
2017-12-14 11:42:08 1513269728.482596: $GPGSV,3,3,11,32,08,229,00,29,04,187,00,138,38,213,00*79
2017-12-14 11:42:08 1513269728.595687: $GPZDA,164209.00,14,12,2017,00,00*6C
2017-12-14 11:42:08 1513269728.595861: $GPGGA,164209,3946.9476,N,08404.9469,W,1,06,2.00,339.52,M,-33.324,M,,*74
2017-12-14 11:42:08 1513269728.595927: $GPRMC,164209,A,3946.9476,N,08404.9469,W,0.1867,180.000,141217,,*38
2017-12-14 11:42:08 1513269728.595990: $GPGSA,A,3,24,15,18,20,21,27,,,,,,,6.6,2.0,6.2*3B
2017-12-14 11:42:09 1513269729.147194: $GPZDA,164210.00,14,12,2017,00,00*64
2017-12-14 11:42:09 1513269729.147354: $GPGGA,164210,3946.9480,N,08404.9469,W,1,06,2.00,340.16,M,-33.324,M,,*7B
2017-12-14 11:42:09 1513269729.147421: $GPRMC,164210,A,3946.9480,N,08404.9469,W,0.5467,339.487,141217,,*3A
2017-12-14 11:42:09 1513269729.147483: $GPGSA,A,3,24,15,18,20,21,27,,,,,,,6.6,2.0,6.2*3B
2017-12-14 11:42:10 1513269730.147333: $GPZDA,164211.00,14,12,2017,00,00*65
2017-12-14 11:42:10 1513269730.147503: $GPGGA,164211,3946.9480,N,08404.9476,W,1,06,2.00,340.08,M,-33.324,M,,*7B
2017-12-14 11:42:10 1513269730.147568: $GPRMC,164211,A,3946.9480,N,08404.9476,W,0.9605,334.849,141217,,*3C
2017-12-14 11:42:10 1513269730.147633: $GPGSA,A,3,24,15,18,20,21,27,,,,,,,6.6,2.0,6.2*3B
2017-12-14 11:42:11 1513269731.483425: $GPGSV,3,1,11,24,40,132,28,15,53,049,24,18,60,310,19,20,46,081,16*71
2017-12-14 11:42:11 1513269731.483606: $GPGSV,3,2,11,10,29,289,00,21,78,220,22,27,18,306,15,13,22,045,00*73
2017-12-14 11:42:11 1513269731.483675: $GPGSV,3,3,11,32,08,229,00,29,04,187,00,138,38,213,00*79
2017-12-14 11:42:11 1513269731.596799: $GPZDA,164212.00,14,12,2017,00,00*66
2017-12-14 11:42:11 1513269731.596936: $GPGGA,164212,3946.9473,N,08404.9477,W,1,06,2.00,340.21,M,-33.324,M,,*7E
2017-12-14 11:42:11 1513269731.597002: $GPRMC,164212,A,3946.9473,N,08404.9477,W,0.4844,273.794,141217,,*39
2017-12-14 11:42:11 1513269731.597063: $GPGSA,A,3,24,15,18,20,21,27,,,,,,,6.6,2.0,6.2*3B
2017-12-14 11:42:12 1513269732.147783: $GPZDA,164213.00,14,12,2017,00,00*67
2017-12-14 11:42:12 1513269732.147982: $GPGGA,164213,3946.9473,N,08404.9477,W,1,06,2.00,340.21,M,-33.324,M,,*7F
2017-12-14 11:42:12 1513269732.148053: $GPRMC,164213,A,3946.9473,N,08404.9477,W,0.2959,234.767,141217,,*3C
2017-12-14 11:42:12 1513269732.148117: $GPGSA,A,3,24,15,18,20,21,27,,,,,,,6.6,2.0,6.2*3B
2017-12-14 11:42:13 1513269733.149058: $GPZDA,164214.00,14,12,2017,00,00*60
2017-12-14 11:42:13 1513269733.149232: $GPGGA,164214,3946.9473,N,08404.9477,W,1,06,2.00,340.21,M,-33.324,M,,*78
2017-12-14 11:42:13 1513269733.149298: $GPRMC,164214,A,3946.9473,N,08404.9477,W,0.1867,180.000,141217,,*3E
2017-12-14 11:42:13 1513269733.149360: $GPGSA,A,3,24,15,18,20,21,27,,,,,,,6.6,2.0,6.2*3B
2017-12-14 11:42:14 1513269734.484190: $GPGSV,3,1,11,24,40,132,28,15,53,049,24,18,60,310,18,20,46,081,16*70
2017-12-14 11:42:14 1513269734.484382: $GPGSV,3,2,11,10,29,289,00,21,78,220,22,27,18,306,14,13,22,045,00*72
2017-12-14 11:42:14 1513269734.484453: $GPGSV,3,3,11,32,08,229,00,29,04,187,00,138,38,213,00*79
2017-12-14 11:42:14 1513269734.596256: $GPZDA,164215.00,14,12,2017,00,00*61
2017-12-14 11:42:14 1513269734.596416: $GPGGA,164215,3946.9469,N,08404.9477,W,1,06,2.00,340.97,M,-33.324,M,,*7F
2017-12-14 11:42:14 1513269734.596483: $GPRMC,164215,A,3946.9469,N,08404.9477,W,0.8054,248.645,141217,,*35
2017-12-14 11:42:14 1513269734.596598: $GPGSA,A,3,24,15,18,20,21,27,,,,,,,6.6,2.0,6.2*3B
2017-12-14 11:42:15 1513269735.148782: $GPZDA,164216.00,14,12,2017,00,00*62
2017-12-14 11:42:15 1513269735.592822: $GPGGA,164216,3946.9466,N,08404.9484,W,1,06,2.00,340.25,M,-33.324,M,,*76
2017-12-14 11:42:15 1513269735.592987: $GPRMC,164216,A,3946.9466,N,08404.9484,W,1.1294,223.341,141217,,*3F
2017-12-14 11:42:15 1513269735.593050: $GPGSA,A,3,24,15,18,20,21,27,,,,,,,6.6,2.0,6.2*3B
2017-12-14 11:42:16 1513269736.148930: $GPZDA,164217.00,14,12,2017,00,00*63
2017-12-14 11:42:16 1513269736.149115: $GPGGA,164217,3946.9462,N,08404.9492,W,1,06,2.00,340.94,M,-33.324,M,,*7E
2017-12-14 11:42:16 1513269736.149184: $GPRMC,164217,A,3946.9462,N,08404.9492,W,1.2621,219.347,141217,,*3B
2017-12-14 11:42:16 1513269736.149246: $GPGSA,A,3,24,15,18,20,21,27,,,,,,,6.6,2.0,6.2*3B
2017-12-14 11:42:17 1513269737.484676: $GPGSV,3,1,11,24,40,132,28,15,53,049,24,18,60,310,18,20,46,081,17*71
2017-12-14 11:42:17 1513269737.484862: $GPGSV,3,2,11,10,29,289,00,21,78,220,21,27,18,306,14,13,22,045,00*71
2017-12-14 11:42:17 1513269737.484928: $GPGSV,3,3,11,32,08,229,00,29,04,187,00,138,38,213,00*79
2017-12-14 11:42:17 1513269737.598110: $GPZDA,164218.00,14,12,2017,00,00*6C
2017-12-14 11:42:17 1513269737.598251: $GPGGA,164218,3946.9459,N,08404.9500,W,1,06,2.00,341.62,M,-33.324,M,,*7B
2017-12-14 11:42:17 1513269737.598319: $GPRMC,164218,A,3946.9459,N,08404.9500,W,1.3954,244.414,141217,,*33
2017-12-14 11:42:17 1513269737.598379: $GPGSA,A,3,24,15,18,20,21,27,,,,,,,6.6,2.0,6.2*3B
2017-12-14 11:42:18 1513269738.148228: $GPZDA,164219.00,14,12,2017,00,00*6D
2017-12-14 11:42:18 1513269738.148408: $GPGGA,164219,3946.9463,N,08404.9499,W,1,06,2.00,340.86,M,-33.324,M,,*79
2017-12-14 11:42:18 1513269738.148476: $GPRMC,164219,A,3946.9463,N,08404.9499,W,0.5951,238.684,141217,,*38
2017-12-14 11:42:18 1513269738.148537: $GPGSA,A,3,24,15,18,20,21,27,,,,,,,6.6,2.0,6.2*3B
2017-12-14 11:42:19 1513269739.148280: $GPZDA,164220.00,14,12,2017,00,00*67
2017-12-14 11:42:19 1513269739.148454: $GPGGA,164220,3946.9460,N,08404.9507,W,1,06,2.00,341.54,M,-33.324,M,,*78
2017-12-14 11:42:19 1513269739.148520: $GPRMC,164220,A,3946.9460,N,08404.9507,W,1.2357,266.543,141217,,*3E
2017-12-14 11:42:19 1513269739.148583: $GPGSA,A,3,24,15,18,20,21,27,,,,,,,6.6,2.0,6.2*3B
2017-12-14 11:42:20 1513269740.483251: $GPGSV,3,1,11,24,40,132,28,15,53,049,24,18,60,310,18,20,46,081,17*71
2017-12-14 11:42:20 1513269740.483448: $GPGSV,3,2,11,10,29,289,00,21,78,220,21,27,18,306,15,13,22,045,00*70
2017-12-14 11:42:20 1513269740.483514: $GPGSV,3,3,11,32,08,229,00,29,04,187,00,138,38,213,00*79
2017-12-14 11:42:20 1513269740.596735: $GPZDA,164221.00,14,12,2017,00,00*66
2017-12-14 11:42:20 1513269740.596937: $GPGGA,164221,3946.9460,N,08404.9507,W,1,06,2.00,341.54,M,-33.324,M,,*79
2017-12-14 11:42:20 1513269740.597006: $GPRMC,164221,A,3946.9460,N,08404.9507,W,0.8054,248.645,141217,,*3D
2017-12-14 11:42:20 1513269740.597070: $GPGSA,A,3,24,15,18,20,21,27,,,,,,,6.6,2.0,6.2*3B
2017-12-14 11:42:21 1513269741.146805: $GPZDA,164222.00,14,12,2017,00,00*65
2017-12-14 11:42:21 1513269741.146987: $GPGGA,164222,3946.9456,N,08404.9507,W,1,06,2.00,340.90,M,-33.324,M,,*76
2017-12-14 11:42:21 1513269741.147056: $GPRMC,164222,A,3946.9456,N,08404.9507,W,0.5951,238.684,141217,,*30
2017-12-14 11:42:21 1513269741.147116: $GPGSA,A,3,24,15,18,20,21,27,,,,,,,6.6,2.0,6.2*3B
2017-12-14 11:42:22 1513269742.147713: $GPZDA,164223.00,14,12,2017,00,00*64
2017-12-14 11:42:22 1513269742.147884: $GPGGA,164223,3946.9449,N,08404.9521,W,1,06,2.00,340.87,M,-33.324,M,,*7B
2017-12-14 11:42:22 1513269742.147950: $GPRMC,164223,A,3946.9449,N,08404.9521,W,1.1902,238.684,141217,,*38
2017-12-14 11:42:22 1513269742.148010: $GPGSA,A,3,24,15,18,20,21,27,,,,,,,6.6,2.0,6.2*3B
2017-12-14 11:42:23 1513269743.485129: $GPGSV,3,1,11,24,40,132,27,15,53,049,24,18,60,310,18,20,46,081,18*71
2017-12-14 11:42:23 1513269743.485284: $GPGSV,3,2,11,10,29,289,00,21,78,220,21,27,18,306,16,13,22,045,00*73
2017-12-14 11:42:23 1513269743.485385: $GPGSV,3,3,11,32,08,229,00,29,04,187,00,138,38,213,00*79
2017-12-14 11:42:23 1513269743.598712: $GPZDA,164224.00,14,12,2017,00,00*63
2017-12-14 11:42:23 1513269743.598870: $GPGGA,164224,3946.9449,N,08404.9521,W,1,06,2.00,340.87,M,-33.324,M,,*7C
2017-12-14 11:42:23 1513269743.598934: $GPRMC,164224,A,3946.9449,N,08404.9521,W,0.7267,273.794,141217,,*3F
2017-12-14 11:42:23 1513269743.598995: $GPGSA,A,3,24,15,18,20,21,27,,,,,,,6.6,2.0,6.2*3B
2017-12-14 11:42:24 1513269744.148643: $GPZDA,164225.00,14,12,2017,00,00*62
2017-12-14 11:42:24 1513269744.148814: $GPGGA,164225,3946.9453,N,08404.9521,W,1,06,2.00,341.51,M,-33.324,M,,*7C
2017-12-14 11:42:24 1513269744.148880: $GPRMC,164225,A,3946.9453,N,08404.9521,W,0.3423,4.197,141217,,*30
2017-12-14 11:42:24 1513269744.148941: $GPGSA,A,3,24,15,18,20,21,27,,,,,,,6.6,2.0,6.2*3B
2017-12-14 11:42:25 1513269745.640239: $GPZDA,164226.00,14,12,2017,00,00*61
2017-12-14 11:42:25 1513269745.640410: $GPGGA,164226,3946.9453,N,08404.9521,W,1,06,2.00,341.51,M,-33.324,M,,*7F
2017-12-14 11:42:25 1513269745.640476: $GPRMC,164226,A,3946.9453,N,08404.9521,W,1.1385,29.379,141217,,*06
2017-12-14 11:42:25 1513269745.640537: $GPGSA,A,3,24,15,18,20,21,27,,,,,,,6.6,2.0,6.2*3B
2017-12-14 11:42:26 1513269746.483879: $GPGSV,3,1,11,24,40,130,27,15,52,049,24,18,60,310,18,20,46,081,18*72
2017-12-14 11:42:26 1513269746.484057: $GPGSV,3,2,11,10,29,289,00,21,77,219,21,27,18,306,16,13,21,045,00*75
2017-12-14 11:42:26 1513269746.484122: $GPGSV,3,3,11,32,08,229,00,29,03,187,00,138,38,213,00*7E
2017-12-14 11:42:26 1513269746.597495: $GPZDA,164227.00,14,12,2017,00,00*60
2017-12-14 11:42:26 1513269746.597621: $GPGGA,164227,3946.9445,N,08404.9522,W,1,06,2.00,341.63,M,-33.324,M,,*7B
2017-12-14 11:42:26 1513269746.597685: $GPRMC,164227,A,3946.9445,N,08404.9522,W,0.3423,4.197,141217,,*36
2017-12-14 11:42:26 1513269746.597745: $GPGSA,A,3,24,15,18,20,21,27,,,,,,,6.6,2.0,6.2*3B
2017-12-14 11:42:27 1513269747.148160: $GPZDA,164228.00,14,12,2017,00,00*6F
2017-12-14 11:42:27 1513269747.148325: $GPGGA,164228,3946.9445,N,08404.9522,W,1,06,2.00,341.63,M,-33.324,M,,*74
2017-12-14 11:42:27 1513269747.148391: $GPRMC,164228,A,3946.9445,N,08404.9522,W,0.9019,18.875,141217,,*06
2017-12-14 11:42:27 1513269747.148452: $GPGSA,A,3,24,15,18,20,21,27,,,,,,,6.6,2.0,6.2*3B
