2017-11-16 15:52:04 1510865524.776373: {"class":"VERSION","release":"3.17","rev":"3.17","proto_major":3,"proto_minor":12}
2017-11-16 15:52:04 1510865524.776823: {"class":"DEVICES","devices":[{"class":"DEVICE","path":"/dev/ttyUSB0","driver":"SiRF","subtype":"9\u0006GSD4e_4.1.2-P1_RPATCH.05-F-GPS-4R-1510281 11/03/2015 307","activated":"2017-11-16T20:52:04.714Z","flags":1,"native":1,"bps":4800,"parity":"N","stopbits":1,"cycle":1.00}]}
2017-11-16 15:52:04 1510865524.776933: {"class":"WATCH","enable":true,"json":false,"nmea":true,"raw":0,"scaled":false,"timing":false,"split24":false,"pps":false}
2017-11-16 15:52:04 1510865524.830486: $GPZDA,205203.00,16,11,2017,00,00*63
2017-11-16 15:52:04 1510865524.830640: $GPGGA,205203,3946.9582,N,08404.9844,W,2,12,1.20,308.11,M,-33.324,M,,*71
2017-11-16 15:52:04 1510865524.830701: $GPRMC,205203,A,3946.9582,N,08404.9844,W,0.0000,0.000,161117,,*3F
2017-11-16 15:52:04 1510865524.830757: $GPGSA,A,3,11,10,14,8,18,25,21,24,31,32,12,138,1.6,1.2,1.3*39
2017-11-16 15:52:05 1510865525.370886: $GPZDA,205204.00,16,11,2017,00,00*64
2017-11-16 15:52:05 1510865525.371106: $GPGGA,205204,3946.9582,N,08404.9844,W,2,12,1.20,308.11,M,-33.324,M,,*76
2017-11-16 15:52:05 1510865525.371170: $GPRMC,205204,A,3946.9582,N,08404.9844,W,0.0000,0.000,161117,,*38
2017-11-16 15:52:05 1510865525.371226: $GPGSA,A,3,11,10,14,8,18,25,21,24,31,32,12,138,1.6,1.2,1.3*39
2017-11-16 15:52:06 1510865526.383978: $GPZDA,205205.00,16,11,2017,00,00*65
2017-11-16 15:52:06 1510865526.384149: $GPGGA,205205,3946.9582,N,08404.9844,W,2,12,1.20,308.11,M,-33.324,M,,*77
2017-11-16 15:52:06 1510865526.384210: $GPRMC,205205,A,3946.9582,N,08404.9844,W,0.0000,0.000,161117,,*39
2017-11-16 15:52:06 1510865526.384266: $GPGSA,A,3,11,10,14,8,18,25,21,24,31,32,12,138,1.6,1.2,1.3*39
2017-11-16 15:52:07 1510865527.708273: $GPGSV,3,1,12,11,03,322,36,10,79,355,51,14,37,264,46,08,02,283,22*75
2017-11-16 15:52:07 1510865527.708440: $GPGSV,3,2,12,18,62,112,49,25,11,135,32,21,18,177,39,24,36,051,50*7B
2017-11-16 15:52:07 1510865527.708501: $GPGSV,3,3,12,31,09,204,30,32,54,279,46,12,16,097,42,138,38,213,44*47
2017-11-16 15:52:07 1510865527.821865: $GPZDA,205206.00,16,11,2017,00,00*66
2017-11-16 15:52:07 1510865527.822044: $GPGGA,205206,3946.9582,N,08404.9844,W,2,12,1.20,308.11,M,-33.324,M,,*74
2017-11-16 15:52:07 1510865527.822123: $GPRMC,205206,A,3946.9582,N,08404.9844,W,0.0000,0.000,161117,,*3A
2017-11-16 15:52:07 1510865527.822179: $GPGSA,A,3,11,10,14,8,18,25,21,24,31,32,12,138,1.6,1.2,1.3*39
2017-11-16 15:52:08 1510865528.369983: $GPZDA,205207.00,16,11,2017,00,00*67
2017-11-16 15:52:08 1510865528.370164: $GPGGA,205207,3946.9582,N,08404.9844,W,2,12,1.20,308.11,M,-33.324,M,,*75
2017-11-16 15:52:08 1510865528.370227: $GPRMC,205207,A,3946.9582,N,08404.9844,W,0.0000,0.000,161117,,*3B
2017-11-16 15:52:08 1510865528.370360: $GPGSA,A,3,11,10,14,8,18,25,21,24,31,32,12,138,1.6,1.2,1.3*39
2017-11-16 15:52:09 1510865529.366043: $GPZDA,205208.00,16,11,2017,00,00*68
2017-11-16 15:52:09 1510865529.366235: $GPGGA,205208,3946.9582,N,08404.9844,W,2,12,1.20,308.11,M,-33.324,M,,*7A
2017-11-16 15:52:09 1510865529.366298: $GPRMC,205208,A,3946.9582,N,08404.9844,W,0.0000,0.000,161117,,*34
2017-11-16 15:52:09 1510865529.366355: $GPGSA,A,3,11,10,14,8,18,25,21,24,31,32,12,138,1.6,1.2,1.3*39
2017-11-16 15:52:10 1510865530.704146: $GPGSV,3,1,12,11,03,322,35,10,79,355,50,14,37,264,45,08,02,283,23*75
2017-11-16 15:52:10 1510865530.704315: $GPGSV,3,2,12,18,62,112,49,25,11,135,32,21,18,177,39,24,36,051,50*7B
2017-11-16 15:52:10 1510865530.704392: $GPGSV,3,3,12,31,09,204,24,32,54,279,46,12,16,097,42,138,38,213,44*42
2017-11-16 15:52:10 1510865530.817693: $GPZDA,205209.00,16,11,2017,00,00*69
2017-11-16 15:52:10 1510865530.817852: $GPGGA,205209,3946.9582,N,08404.9844,W,2,11,1.20,308.11,M,-33.324,M,,*78
2017-11-16 15:52:10 1510865530.817932: $GPRMC,205209,A,3946.9582,N,08404.9844,W,0.0000,0.000,161117,,*35
2017-11-16 15:52:10 1510865530.817991: $GPGSA,A,3,11,10,14,8,18,25,21,24,32,12,138,,1.6,1.2,1.3*3B
2017-11-16 15:52:11 1510865531.443097: $GPZDA,205210.00,16,11,2017,00,00*61
2017-11-16 15:52:11 1510865531.443304: $GPGGA,205210,3946.9582,N,08404.9844,W,2,11,1.20,308.11,M,-33.324,M,,*70
2017-11-16 15:52:11 1510865531.443367: $GPRMC,205210,A,3946.9582,N,08404.9844,W,0.0000,0.000,161117,,*3D
2017-11-16 15:52:11 1510865531.443423: $GPGSA,A,3,11,10,14,8,18,25,21,24,32,12,138,,1.6,1.2,1.3*3B
2017-11-16 15:52:12 1510865532.369962: $GPZDA,205211.00,16,11,2017,00,00*60
2017-11-16 15:52:12 1510865532.370152: $GPGGA,205211,3946.9582,N,08404.9844,W,2,11,1.20,308.11,M,-33.324,M,,*71
2017-11-16 15:52:12 1510865532.370215: $GPRMC,205211,A,3946.9582,N,08404.9844,W,0.0000,0.000,161117,,*3C
2017-11-16 15:52:12 1510865532.370272: $GPGSA,A,3,11,10,14,8,18,25,21,24,32,12,138,,1.6,1.2,1.3*3B
2017-11-16 15:52:13 1510865533.723384: $GPGSV,3,1,12,11,03,322,29,10,79,355,50,14,37,264,45,15,03,072,24*7E
2017-11-16 15:52:13 1510865533.723552: $GPGSV,3,2,12,18,62,112,49,25,11,135,31,21,18,177,40,24,36,051,50*76
2017-11-16 15:52:13 1510865533.723612: $GPGSV,3,3,12,31,09,204,31,32,54,279,46,12,16,097,41,138,38,213,44*45
2017-11-16 15:52:13 1510865533.837088: $GPZDA,205212.00,16,11,2017,00,00*63
2017-11-16 15:52:13 1510865533.837326: $GPGGA,205212,3946.9582,N,08404.9844,W,2,12,1.20,308.11,M,-33.324,M,,*71
2017-11-16 15:52:13 1510865533.837389: $GPRMC,205212,A,3946.9582,N,08404.9844,W,0.0000,0.000,161117,,*3F
2017-11-16 15:52:13 1510865533.837445: $GPGSA,A,3,11,10,14,15,18,25,21,24,31,32,12,138,1.6,1.2,1.3*05
