2017-11-16 15:20:02 1510863602.686392: {"class":"VERSION","release":"3.17","rev":"3.17","proto_major":3,"proto_minor":12}
2017-11-16 15:20:02 1510863602.686837: {"class":"DEVICES","devices":[{"class":"DEVICE","path":"/dev/ttyUSB0","driver":"SiRF","subtype":"9\u0006GSD4e_4.1.2-P1_RPATCH.05-F-GPS-4R-1510281 11/03/2015 307","activated":"2017-11-16T20:20:02.513Z","flags":1,"native":1,"bps":4800,"parity":"N","stopbits":1,"cycle":1.00}]}
2017-11-16 15:20:02 1510863602.686948: {"class":"WATCH","enable":true,"json":false,"nmea":true,"raw":0,"scaled":false,"timing":false,"split24":false,"pps":false}
2017-11-16 15:20:03 1510863603.373019: $GPZDA,202002.00,16,11,2017,00,00*67
2017-11-16 15:20:03 1510863603.373199: $GPGGA,202002,3946.9578,N,08404.9857,W,2,12,0.80,305.91,M,-33.324,M,,*7C
2017-11-16 15:20:03 1510863603.373263: $GPRMC,202002,A,3946.9578,N,08404.9857,W,0.0000,0.000,161117,,*3C
2017-11-16 15:20:03 1510863603.373319: $GPGSA,A,3,8,10,14,15,18,20,21,24,27,32,12,138,1.6,0.8,1.3*34
2017-11-16 15:20:04 1510863604.710053: $GPGSV,3,1,12,08,06,295,35,10,67,327,51,14,27,252,46,15,13,064,37*7B
2017-11-16 15:20:04 1510863604.710226: $GPGSV,3,2,12,18,72,087,47,20,10,117,23,21,32,180,46,24,46,061,50*71
2017-11-16 15:20:04 1510863604.710328: $GPGSV,3,3,12,27,08,262,33,32,44,262,48,12,08,109,31,138,38,213,45*4B
2017-11-16 15:20:04 1510863604.823664: $GPZDA,202003.00,16,11,2017,00,00*66
2017-11-16 15:20:04 1510863604.823817: $GPGGA,202003,3946.9578,N,08404.9857,W,2,12,0.80,305.91,M,-33.324,M,,*7D
2017-11-16 15:20:04 1510863604.823879: $GPRMC,202003,A,3946.9578,N,08404.9857,W,0.0000,0.000,161117,,*3D
2017-11-16 15:20:04 1510863604.823935: $GPGSA,A,3,8,10,14,15,18,20,21,24,27,32,12,138,1.6,0.8,1.3*34
2017-11-16 15:20:05 1510863605.374104: $GPZDA,202004.00,16,11,2017,00,00*61
2017-11-16 15:20:05 1510863605.374285: $GPGGA,202004,3946.9578,N,08404.9857,W,2,12,0.80,305.91,M,-33.324,M,,*7A
2017-11-16 15:20:05 1510863605.374350: $GPRMC,202004,A,3946.9578,N,08404.9857,W,0.0000,0.000,161117,,*3A
2017-11-16 15:20:05 1510863605.374407: $GPGSA,A,3,8,10,14,15,18,20,21,24,27,32,12,138,1.6,0.8,1.3*34
2017-11-16 15:20:06 1510863606.374507: $GPZDA,202005.00,16,11,2017,00,00*60
2017-11-16 15:20:06 1510863606.374690: $GPGGA,202005,3946.9578,N,08404.9857,W,2,12,0.80,305.91,M,-33.324,M,,*7B
2017-11-16 15:20:06 1510863606.374752: $GPRMC,202005,A,3946.9578,N,08404.9857,W,0.0000,0.000,161117,,*3B
2017-11-16 15:20:06 1510863606.374808: $GPGSA,A,3,8,10,14,15,18,20,21,24,27,32,12,138,1.6,0.8,1.3*34
2017-11-16 15:20:07 1510863607.710251: $GPGSV,3,1,12,08,06,295,35,10,67,327,51,14,27,252,46,15,13,064,37*7B
2017-11-16 15:20:07 1510863607.710471: $GPGSV,3,2,12,18,72,087,47,20,10,117,22,21,32,180,46,24,46,061,50*70
2017-11-16 15:20:07 1510863607.710532: $GPGSV,3,3,12,27,08,262,34,32,44,262,48,12,08,109,31,138,38,213,44*4D
2017-11-16 15:20:07 1510863607.823792: $GPZDA,202006.00,16,11,2017,00,00*63
2017-11-16 15:20:07 1510863607.823954: $GPGGA,202006,3946.9578,N,08404.9857,W,2,12,0.80,305.91,M,-33.324,M,,*78
2017-11-16 15:20:07 1510863607.824016: $GPRMC,202006,A,3946.9578,N,08404.9857,W,0.0000,0.000,161117,,*38
2017-11-16 15:20:07 1510863607.824074: $GPGSA,A,3,8,10,14,15,18,20,21,24,27,32,12,138,1.6,0.8,1.3*34
2017-11-16 15:20:08 1510863608.373762: $GPZDA,202007.00,16,11,2017,00,00*62
2017-11-16 15:20:08 1510863608.376210: $GPGGA,202007,3946.9578,N,08404.9857,W,2,12,0.80,305.91,M,-33.324,M,,*79
2017-11-16 15:20:08 1510863608.376262: $GPRMC,202007,A,3946.9578,N,08404.9857,W,0.0000,0.000,161117,,*39
2017-11-16 15:20:08 1510863608.376291: $GPGSA,A,3,8,10,14,15,18,20,21,24,27,32,12,138,1.6,0.8,1.3*34
2017-11-16 15:20:09 1510863609.367127: $GPZDA,202008.00,16,11,2017,00,00*6D
2017-11-16 15:20:09 1510863609.367239: $GPGGA,202008,3946.9578,N,08404.9857,W,2,12,0.80,305.91,M,-33.324,M,,*76
2017-11-16 15:20:09 1510863609.367270: $GPRMC,202008,A,3946.9578,N,08404.9857,W,0.0000,0.000,161117,,*36
2017-11-16 15:20:09 1510863609.367298: $GPGSA,A,3,8,10,14,15,18,20,21,24,27,32,12,138,1.6,0.8,1.3*34
2017-11-16 15:20:10 1510863610.708631: $GPGSV,3,1,12,08,06,295,33,10,67,327,51,14,27,252,46,15,13,064,37*7D
2017-11-16 15:20:10 1510863610.708854: $GPGSV,3,2,12,18,72,087,47,20,10,117,22,21,32,180,46,24,46,061,50*70
2017-11-16 15:20:10 1510863610.708917: $GPGSV,3,3,12,27,08,262,34,32,44,262,48,12,08,109,31,138,38,213,45*4C
2017-11-16 15:20:10 1510863610.821825: $GPZDA,202009.00,16,11,2017,00,00*6C
2017-11-16 15:20:10 1510863610.821999: $GPGGA,202009,3946.9578,N,08404.9857,W,2,12,0.80,305.91,M,-33.324,M,,*77
2017-11-16 15:20:10 1510863610.822061: $GPRMC,202009,A,3946.9578,N,08404.9857,W,0.0000,0.000,161117,,*37
2017-11-16 15:20:10 1510863610.822117: $GPGSA,A,3,8,10,14,15,18,20,21,24,27,32,12,138,1.6,0.8,1.3*34
2017-11-16 15:20:11 1510863611.447169: $GPZDA,202010.00,16,11,2017,00,00*64
2017-11-16 15:20:11 1510863611.447334: $GPGGA,202010,3946.9578,N,08404.9857,W,2,12,0.80,305.91,M,-33.324,M,,*7F
2017-11-16 15:20:11 1510863611.447396: $GPRMC,202010,A,3946.9578,N,08404.9857,W,0.0000,0.000,161117,,*3F
2017-11-16 15:20:11 1510863611.447452: $GPGSA,A,3,8,10,14,15,18,20,21,24,27,32,12,138,1.6,0.8,1.3*34
2017-11-16 15:20:12 1510863612.374525: $GPZDA,202011.00,16,11,2017,00,00*65
2017-11-16 15:20:12 1510863612.374684: $GPGGA,202011,3946.9578,N,08404.9857,W,2,12,0.80,305.91,M,-33.324,M,,*7E
2017-11-16 15:20:12 1510863612.374744: $GPRMC,202011,A,3946.9578,N,08404.9857,W,0.0000,0.000,161117,,*3E
2017-11-16 15:20:12 1510863612.374800: $GPGSA,A,3,8,10,14,15,18,20,21,24,27,32,12,138,1.6,0.8,1.3*34
