2017-11-16 17:38:31 1510871911.721115: {"class":"VERSION","release":"3.17","rev":"3.17","proto_major":3,"proto_minor":12}
2017-11-16 17:38:31 1510871911.721532: {"class":"DEVICES","devices":[{"class":"DEVICE","path":"/dev/ttyUSB0","driver":"SiRF","subtype":"9\u0006GSD4e_4.1.2-P1_RPATCH.05-F-GPS-4R-1510281 11/03/2015 307","activated":"2017-11-16T22:38:31.638Z","flags":1,"native":1,"bps":4800,"parity":"N","stopbits":1,"cycle":1.00}]}
2017-11-16 17:38:31 1510871911.721640: {"class":"WATCH","enable":true,"json":false,"nmea":true,"raw":0,"scaled":false,"timing":false,"split24":false,"pps":false}
2017-11-16 17:38:32 1510871912.417916: $GPZDA,223831.00,16,11,2017,00,00*6C
2017-11-16 17:38:32 1510871912.418078: $GPGGA,223831,3946.9576,N,08404.9841,W,2,12,0.80,303.26,M,-33.324,M,,*74
2017-11-16 17:38:32 1510871912.418138: $GPRMC,223831,A,3946.9576,N,08404.9841,W,0.0000,0.000,161117,,*3E
2017-11-16 17:38:32 1510871912.418194: $GPGSA,A,3,1,10,22,12,14,18,26,11,25,31,32,138,1.6,0.8,1.3*3A
2017-11-16 17:38:33 1510871913.754731: $GPGSV,3,1,12,01,22,298,06,10,46,148,46,22,21,312,43,12,21,048,50*7D
2017-11-16 17:38:33 1510871913.754918: $GPGSV,3,2,12,14,67,333,47,18,16,145,41,26,04,183,24,11,08,280,37*7E
2017-11-16 17:38:33 1510871913.754982: $GPGSV,3,3,12,25,40,087,49,31,58,228,47,32,68,033,49,138,38,213,44*4C
2017-11-16 17:38:33 1510871913.868238: $GPZDA,223832.00,16,11,2017,00,00*6F
2017-11-16 17:38:33 1510871913.868392: $GPGGA,223832,3946.9576,N,08404.9841,W,2,12,0.80,303.26,M,-33.324,M,,*77
2017-11-16 17:38:33 1510871913.868452: $GPRMC,223832,A,3946.9576,N,08404.9841,W,0.0000,0.000,161117,,*3D
2017-11-16 17:38:33 1510871913.868508: $GPGSA,A,3,1,10,22,12,14,18,26,11,25,31,32,138,1.6,0.8,1.3*3A
2017-11-16 17:38:34 1510871914.397289: $GPZDA,223833.00,16,11,2017,00,00*6E
2017-11-16 17:38:34 1510871914.397462: $GPGGA,223833,3946.9576,N,08404.9841,W,2,12,0.80,303.26,M,-33.324,M,,*76
2017-11-16 17:38:34 1510871914.397613: $GPRMC,223833,A,3946.9576,N,08404.9841,W,0.0000,0.000,161117,,*3C
2017-11-16 17:38:34 1510871914.397707: $GPGSA,A,3,1,10,22,12,14,18,26,11,25,31,32,138,1.6,0.8,1.3*3A
2017-11-16 17:38:35 1510871915.429912: $GPZDA,223834.00,16,11,2017,00,00*69
2017-11-16 17:38:35 1510871915.430070: $GPGGA,223834,3946.9576,N,08404.9841,W,2,12,0.80,303.26,M,-33.324,M,,*71
2017-11-16 17:38:35 1510871915.430131: $GPRMC,223834,A,3946.9576,N,08404.9841,W,0.0000,0.000,161117,,*3B
2017-11-16 17:38:35 1510871915.430187: $GPGSA,A,3,1,10,22,12,14,18,26,11,25,31,32,138,1.6,0.8,1.3*3A
2017-11-16 17:38:36 1510871916.754939: $GPGSV,3,1,12,01,22,298,06,10,46,148,46,22,21,312,43,12,21,048,50*7D
2017-11-16 17:38:36 1510871916.755156: $GPGSV,3,2,12,14,67,333,47,18,16,145,40,26,04,183,24,11,08,280,38*70
2017-11-16 17:38:36 1510871916.755220: $GPGSV,3,3,12,25,40,087,49,31,58,228,47,32,68,033,49,138,38,213,44*4C
2017-11-16 17:38:36 1510871916.868236: $GPZDA,223835.00,16,11,2017,00,00*68
2017-11-16 17:38:36 1510871916.868388: $GPGGA,223835,3946.9576,N,08404.9841,W,2,11,0.80,303.26,M,-33.324,M,,*73
2017-11-16 17:38:36 1510871916.868449: $GPRMC,223835,A,3946.9576,N,08404.9841,W,0.0000,0.000,161117,,*3A
2017-11-16 17:38:36 1510871916.868505: $GPGSA,A,3,10,22,12,14,18,26,11,25,31,32,138,,1.6,0.8,1.3*0B
2017-11-16 17:38:37 1510871917.396695: $GPZDA,223836.00,16,11,2017,00,00*6B
2017-11-16 17:38:37 1510871917.396874: $GPGGA,223836,3946.9576,N,08404.9841,W,2,11,0.80,303.26,M,-33.324,M,,*70
2017-11-16 17:38:37 1510871917.396937: $GPRMC,223836,A,3946.9576,N,08404.9841,W,0.0000,0.000,161117,,*39
2017-11-16 17:38:37 1510871917.396993: $GPGSA,A,3,10,22,12,14,18,26,11,25,31,32,138,,1.6,0.8,1.3*0B
2017-11-16 17:38:38 1510871918.389468: $GPZDA,223837.00,16,11,2017,00,00*6A
2017-11-16 17:38:38 1510871918.389797: $GPGGA,223837,3946.9576,N,08404.9841,W,2,11,0.80,303.26,M,-33.324,M,,*71
2017-11-16 17:38:38 1510871918.389889: $GPRMC,223837,A,3946.9576,N,08404.9841,W,0.0000,0.000,161117,,*38
2017-11-16 17:38:38 1510871918.389960: $GPGSA,A,3,10,22,12,14,18,26,11,25,31,32,138,,1.6,0.8,1.3*0B
2017-11-16 17:38:39 1510871919.730902: $GPGSV,3,1,12,03,01,316,17,10,46,148,46,22,21,312,43,12,21,048,50*79
2017-11-16 17:38:39 1510871919.731133: $GPGSV,3,2,12,14,67,333,47,18,16,145,40,26,04,183,24,11,08,280,38*70
2017-11-16 17:38:39 1510871919.731198: $GPGSV,3,3,12,25,40,087,48,31,58,228,47,32,68,033,49,138,38,213,43*4A
2017-11-16 17:38:39 1510871919.844202: $GPZDA,223838.00,16,11,2017,00,00*65
2017-11-16 17:38:39 1510871919.844369: $GPGGA,223838,3946.9576,N,08404.9841,W,2,11,0.80,303.26,M,-33.324,M,,*7E
2017-11-16 17:38:39 1510871919.844430: $GPRMC,223838,A,3946.9576,N,08404.9841,W,0.0000,0.000,161117,,*37
2017-11-16 17:38:39 1510871919.844486: $GPGSA,A,3,10,22,12,14,18,26,11,25,31,32,138,,1.6,0.8,1.3*0B
2017-11-16 17:38:40 1510871920.417600: $GPZDA,223839.00,16,11,2017,00,00*64
2017-11-16 17:38:40 1510871920.417781: $GPGGA,223839,3946.9576,N,08404.9841,W,2,11,0.80,303.26,M,-33.324,M,,*7F
2017-11-16 17:38:40 1510871920.417842: $GPRMC,223839,A,3946.9576,N,08404.9841,W,0.0000,0.000,161117,,*36
2017-11-16 17:38:40 1510871920.417898: $GPGSA,A,3,10,22,12,14,18,26,11,25,31,32,138,,1.6,0.8,1.3*0B
2017-11-16 17:38:41 1510871921.419543: $GPZDA,223840.00,16,11,2017,00,00*6A
2017-11-16 17:38:41 1510871921.419734: $GPGGA,223840,3946.9576,N,08404.9841,W,2,11,0.80,303.26,M,-33.324,M,,*71
2017-11-16 17:38:41 1510871921.419798: $GPRMC,223840,A,3946.9576,N,08404.9841,W,0.0000,0.000,161117,,*38
2017-11-16 17:38:41 1510871921.419856: $GPGSA,A,3,10,22,12,14,18,26,11,25,31,32,138,,1.6,0.8,1.3*0B
