2017-12-29 14:55:07 1514577307.111746: {"class":"VERSION","release":"3.16","rev":"3.16-4","proto_major":3,"proto_minor":11}
2017-12-29 14:55:07 1514577307.112097: {"class":"DEVICES","devices":[{"class":"DEVICE","path":"/dev/ttyUSB0","driver":"SiRF","subtype":"9\u0006GSD4e_4.1.2-P1_RPATCH.05-F-GPS-4R-1510281 11/03/2015 307","activated":"2017-12-29T19:55:06.530Z","flags":1,"native":1,"bps":4800,"parity":"N","stopbits":1,"cycle":1.00}]}
2017-12-29 14:55:07 1514577307.112212: {"class":"WATCH","enable":true,"json":false,"nmea":true,"raw":0,"scaled":false,"timing":false,"split24":false,"pps":false}
2017-12-29 14:55:07 1514577307.386988: $GPZDA,195508.00,29,12,2017,00,00*6A
2017-12-29 14:55:07 1514577307.387158: $GPGGA,195508,3946.9594,N,08404.9839,W,2,12,0.80,302.24,M,-33.324,M,,*7D
2017-12-29 14:55:07 1514577307.387224: $GPRMC,195508,A,3946.9594,N,08404.9839,W,0.0000,0.000,291217,,*3B
2017-12-29 14:55:07 1514577307.387285: $GPGSA,A,3,1,3,10,18,12,14,22,25,31,32,26,138,1.7,0.8,1.3*08
2017-12-29 14:55:08 1514577308.716197: $GPGSV,3,1,12,01,22,292,38,03,08,316,41,10,39,151,47,18,09,147,34*79
2017-12-29 14:55:08 1514577308.716375: $GPGSV,3,2,12,12,18,042,43,14,69,346,43,22,27,310,41,25,41,079,51*76
2017-12-29 14:55:08 1514577308.716443: $GPGSV,3,3,12,31,66,235,46,32,64,051,51,26,11,180,30,138,38,213,43*45
2017-12-29 14:55:08 1514577308.829857: $GPZDA,195509.00,29,12,2017,00,00*6B
2017-12-29 14:55:08 1514577308.830027: $GPGGA,195509,3946.9594,N,08404.9839,W,2,12,0.80,302.24,M,-33.324,M,,*7C
2017-12-29 14:55:08 1514577308.830093: $GPRMC,195509,A,3946.9594,N,08404.9839,W,0.0000,0.000,291217,,*3A
2017-12-29 14:55:08 1514577308.830153: $GPGSA,A,3,1,3,10,18,12,14,22,25,31,32,26,138,1.7,0.8,1.3*08
2017-12-29 14:55:09 1514577309.455219: $GPZDA,195510.00,29,12,2017,00,00*63
2017-12-29 14:55:09 1514577309.455377: $GPGGA,195510,3946.9594,N,08404.9839,W,2,12,0.80,302.24,M,-33.324,M,,*74
2017-12-29 14:55:09 1514577309.455442: $GPRMC,195510,A,3946.9594,N,08404.9839,W,0.0000,0.000,291217,,*32
2017-12-29 14:55:09 1514577309.455502: $GPGSA,A,3,1,3,10,18,12,14,22,25,31,32,26,138,1.7,0.8,1.3*08
2017-12-29 14:55:10 1514577310.388603: $GPZDA,195511.00,29,12,2017,00,00*62
2017-12-29 14:55:10 1514577310.388771: $GPGGA,195511,3946.9594,N,08404.9839,W,2,12,0.80,302.24,M,-33.324,M,,*75
2017-12-29 14:55:10 1514577310.388836: $GPRMC,195511,A,3946.9594,N,08404.9839,W,0.0000,0.000,291217,,*33
2017-12-29 14:55:10 1514577310.388896: $GPGSA,A,3,1,3,10,18,12,14,22,25,31,32,26,138,1.7,0.8,1.3*08
2017-12-29 14:55:11 1514577311.722801: $GPGSV,3,1,12,01,22,292,37,03,08,316,41,10,39,151,48,18,09,147,34*79
2017-12-29 14:55:11 1514577311.722959: $GPGSV,3,2,12,12,18,042,43,14,69,346,43,22,27,310,41,25,41,079,51*76
2017-12-29 14:55:11 1514577311.723023: $GPGSV,3,3,12,31,66,235,46,32,64,051,51,26,11,180,30,138,38,213,43*45
2017-12-29 14:55:11 1514577311.836761: $GPZDA,195512.00,29,12,2017,00,00*61
2017-12-29 14:55:11 1514577311.836931: $GPGGA,195512,3946.9594,N,08404.9839,W,2,12,0.80,302.24,M,-33.324,M,,*76
2017-12-29 14:55:11 1514577311.836995: $GPRMC,195512,A,3946.9594,N,08404.9839,W,0.0000,0.000,291217,,*30
2017-12-29 14:55:11 1514577311.837055: $GPGSA,A,3,1,3,10,18,12,14,22,25,31,32,26,138,1.7,0.8,1.3*08
2017-12-29 14:55:12 1514577312.388288: $GPZDA,195513.00,29,12,2017,00,00*60
2017-12-29 14:55:12 1514577312.388438: $GPGGA,195513,3946.9594,N,08404.9839,W,2,12,0.80,302.24,M,-33.324,M,,*77
2017-12-29 14:55:12 1514577312.388504: $GPRMC,195513,A,3946.9594,N,08404.9839,W,0.0000,0.000,291217,,*31
2017-12-29 14:55:12 1514577312.388566: $GPGSA,A,3,1,3,10,18,12,14,22,25,31,32,26,138,1.7,0.8,1.3*08
2017-12-29 14:55:13 1514577313.388160: $GPZDA,195514.00,29,12,2017,00,00*67
2017-12-29 14:55:13 1514577313.388348: $GPGGA,195514,3946.9594,N,08404.9839,W,2,12,0.80,302.24,M,-33.324,M,,*70
2017-12-29 14:55:13 1514577313.388416: $GPRMC,195514,A,3946.9594,N,08404.9839,W,0.0000,0.000,291217,,*36
2017-12-29 14:55:13 1514577313.388478: $GPGSA,A,3,1,3,10,18,12,14,22,25,31,32,26,138,1.7,0.8,1.3*08
2017-12-29 14:55:14 1514577314.724388: $GPGSV,3,1,12,01,22,292,37,03,08,316,41,10,39,151,48,18,09,147,34*79
2017-12-29 14:55:14 1514577314.724606: $GPGSV,3,2,12,12,18,042,42,14,69,346,44,22,27,310,40,25,41,079,51*71
2017-12-29 14:55:14 1514577314.724676: $GPGSV,3,3,12,31,66,235,46,32,64,051,51,26,11,180,30,138,38,213,43*45
2017-12-29 14:55:14 1514577314.836731: $GPZDA,195515.00,29,12,2017,00,00*66
2017-12-29 14:55:14 1514577314.836844: $GPGGA,195515,3946.9594,N,08404.9839,W,2,12,0.80,302.24,M,-33.324,M,,*71
2017-12-29 14:55:14 1514577314.836906: $GPRMC,195515,A,3946.9594,N,08404.9839,W,0.0000,0.000,291217,,*37
2017-12-29 14:55:14 1514577314.836965: $GPGSA,A,3,1,3,10,18,12,14,22,25,31,32,26,138,1.7,0.8,1.3*08
2017-12-29 14:55:15 1514577315.386374: $GPZDA,195516.00,29,12,2017,00,00*65
2017-12-29 14:55:15 1514577315.386546: $GPGGA,195516,3946.9594,N,08404.9839,W,2,12,0.80,302.24,M,-33.324,M,,*72
2017-12-29 14:55:15 1514577315.386612: $GPRMC,195516,A,3946.9594,N,08404.9839,W,0.0000,0.000,291217,,*34
2017-12-29 14:55:15 1514577315.386672: $GPGSA,A,3,1,3,10,18,12,14,22,25,31,32,26,138,1.7,0.8,1.3*08
2017-12-29 14:55:16 1514577316.386058: $GPZDA,195517.00,29,12,2017,00,00*64
2017-12-29 14:55:16 1514577316.386219: $GPGGA,195517,3946.9594,N,08404.9839,W,2,12,0.80,302.24,M,-33.324,M,,*73
2017-12-29 14:55:16 1514577316.386284: $GPRMC,195517,A,3946.9594,N,08404.9839,W,0.0000,0.000,291217,,*35
2017-12-29 14:55:16 1514577316.386344: $GPGSA,A,3,1,3,10,18,12,14,22,25,31,32,26,138,1.7,0.8,1.3*08
