2018-01-11 20:10:56 1515719456.163292: {"class":"VERSION","release":"3.16","rev":"3.16-4","proto_major":3,"proto_minor":11}
2018-01-11 20:10:56 1515719456.163642: {"class":"DEVICES","devices":[{"class":"DEVICE","path":"/dev/ttyUSB0","driver":"SiRF","subtype":"9\u0006GSD4e_4.1.2-P1_RPATCH.05-F-GPS-4R-1510281 11/03/2015 307","activated":"2018-01-12T01:10:55.499Z","flags":1,"native":1,"bps":4800,"parity":"N","stopbits":1,"cycle":1.00}]}
2018-01-11 20:10:56 1515719456.163757: {"class":"WATCH","enable":true,"json":false,"nmea":true,"raw":0,"scaled":false,"timing":false,"split24":false,"pps":false}
2018-01-11 20:10:56 1515719456.357502: $GPZDA,011057.00,12,01,2018,00,00*6D
2018-01-11 20:10:56 1515719456.357673: $GPGGA,011057,3946.9569,N,08404.9826,W,2,10,0.80,299.97,M,-33.324,M,,*7A
2018-01-11 20:10:56 1515719456.357738: $GPRMC,011057,A,3946.9569,N,08404.9826,W,0.0000,0.000,120118,,*30
2018-01-11 20:10:56 1515719456.357800: $GPGSA,A,3,7,8,9,11,16,23,27,28,30,138,,,4.0,0.8,3.5*3E
2018-01-11 20:10:57 1515719457.708045: $GPGSV,3,1,10,07,55,315,44,08,73,132,46,09,48,229,43,11,20,168,48*7E
2018-01-11 20:10:57 1515719457.708216: $GPGSV,3,2,10,16,23,060,46,23,29,189,46,27,47,052,49,28,14,258,38*74
2018-01-11 20:10:57 1515719457.708283: $GPGSV,3,3,10,30,29,306,34,138,38,213,45*42
2018-01-11 20:10:57 1515719457.821682: $GPZDA,011058.00,12,01,2018,00,00*62
2018-01-11 20:10:57 1515719457.821817: $GPGGA,011058,3946.9569,N,08404.9826,W,2,10,0.80,299.97,M,-33.324,M,,*75
2018-01-11 20:10:57 1515719457.821884: $GPRMC,011058,A,3946.9569,N,08404.9826,W,0.0000,0.000,120118,,*3F
2018-01-11 20:10:57 1515719457.821945: $GPGSA,A,3,7,8,9,11,16,23,27,28,30,138,,,4.0,0.8,3.5*3E
2018-01-11 20:10:58 1515719458.447968: $GPZDA,011059.00,12,01,2018,00,00*63
2018-01-11 20:10:58 1515719458.448159: $GPGGA,011059,3946.9569,N,08404.9826,W,2,10,0.80,299.97,M,-33.324,M,,*74
2018-01-11 20:10:58 1515719458.448227: $GPRMC,011059,A,3946.9569,N,08404.9826,W,0.0000,0.000,120118,,*3E
2018-01-11 20:10:58 1515719458.448291: $GPGSA,A,3,7,8,9,11,16,23,27,28,30,138,,,4.0,0.8,3.5*3E
2018-01-11 20:10:59 1515719459.357593: $GPZDA,011100.00,12,01,2018,00,00*6E
2018-01-11 20:10:59 1515719459.357748: $GPGGA,011100,3946.9569,N,08404.9826,W,2,10,0.80,299.97,M,-33.324,M,,*79
2018-01-11 20:10:59 1515719459.357814: $GPRMC,011100,A,3946.9569,N,08404.9826,W,0.0000,0.000,120118,,*33
2018-01-11 20:10:59 1515719459.357875: $GPGSA,A,3,7,8,9,11,16,23,27,28,30,138,,,4.0,0.8,3.5*3E
2018-01-11 20:11:00 1515719460.689558: $GPGSV,3,1,10,07,55,315,44,08,73,132,46,09,48,229,44,11,20,168,48*79
2018-01-11 20:11:00 1515719460.689752: $GPGSV,3,2,10,16,23,060,46,23,29,189,46,27,47,052,49,28,14,258,38*74
2018-01-11 20:11:00 1515719460.689820: $GPGSV,3,3,10,30,29,306,34,138,38,213,45*42
2018-01-11 20:11:00 1515719460.801682: $GPZDA,011101.00,12,01,2018,00,00*6F
2018-01-11 20:11:00 1515719460.801827: $GPGGA,011101,3946.9569,N,08404.9826,W,2,10,0.80,299.97,M,-33.324,M,,*78
2018-01-11 20:11:00 1515719460.801893: $GPRMC,011101,A,3946.9569,N,08404.9826,W,0.0000,0.000,120118,,*32
2018-01-11 20:11:00 1515719460.801954: $GPGSA,A,3,7,8,9,11,16,23,27,28,30,138,,,4.0,0.8,3.5*3E
2018-01-11 20:11:01 1515719461.357556: $GPZDA,011102.00,12,01,2018,00,00*6C
2018-01-11 20:11:01 1515719461.357719: $GPGGA,011102,3946.9569,N,08404.9826,W,2,10,0.80,299.97,M,-33.324,M,,*7B
2018-01-11 20:11:01 1515719461.357786: $GPRMC,011102,A,3946.9569,N,08404.9826,W,0.0000,0.000,120118,,*31
2018-01-11 20:11:01 1515719461.357846: $GPGSA,A,3,7,8,9,11,16,23,27,28,30,138,,,4.0,0.8,3.5*3E
2018-01-11 20:11:02 1515719462.352156: $GPZDA,011103.00,12,01,2018,00,00*6D
2018-01-11 20:11:02 1515719462.352324: $GPGGA,011103,3946.9569,N,08404.9826,W,2,10,0.80,299.97,M,-33.324,M,,*7A
2018-01-11 20:11:02 1515719462.352394: $GPRMC,011103,A,3946.9569,N,08404.9826,W,0.0000,0.000,120118,,*30
2018-01-11 20:11:02 1515719462.352454: $GPGSA,A,3,7,8,9,11,16,23,27,28,30,138,,,4.0,0.8,3.5*3E
2018-01-11 20:11:03 1515719463.693622: $GPGSV,3,1,10,07,55,315,44,08,73,132,46,09,48,229,44,11,20,168,48*79
2018-01-11 20:11:03 1515719463.693775: $GPGSV,3,2,10,16,23,060,46,23,29,189,46,27,47,052,49,28,14,258,38*74
2018-01-11 20:11:03 1515719463.693897: $GPGSV,3,3,10,30,29,306,34,138,38,213,45*42
2018-01-11 20:11:03 1515719463.807009: $GPZDA,011104.00,12,01,2018,00,00*6A
2018-01-11 20:11:03 1515719463.807134: $GPGGA,011104,3946.9569,N,08404.9826,W,2,10,0.80,299.97,M,-33.324,M,,*7D
2018-01-11 20:11:03 1515719463.807198: $GPRMC,011104,A,3946.9569,N,08404.9826,W,0.0000,0.000,120118,,*37
2018-01-11 20:11:03 1515719463.807262: $GPGSA,A,3,7,8,9,11,16,23,27,28,30,138,,,4.0,0.8,3.5*3E
2018-01-11 20:11:04 1515719464.374132: $GPZDA,011105.00,12,01,2018,00,00*6B
2018-01-11 20:11:04 1515719464.374298: $GPGGA,011105,3946.9569,N,08404.9826,W,2,10,0.80,299.97,M,-33.324,M,,*7C
2018-01-11 20:11:04 1515719464.374367: $GPRMC,011105,A,3946.9569,N,08404.9826,W,0.0000,0.000,120118,,*36
2018-01-11 20:11:04 1515719464.374427: $GPGSA,A,3,7,8,9,11,16,23,27,28,30,138,,,4.0,0.8,3.5*3E
2018-01-11 20:11:05 1515719465.373765: $GPZDA,011106.00,12,01,2018,00,00*68
2018-01-11 20:11:05 1515719465.373938: $GPGGA,011106,3946.9569,N,08404.9826,W,2,10,0.80,299.97,M,-33.324,M,,*7F
2018-01-11 20:11:05 1515719465.374005: $GPRMC,011106,A,3946.9569,N,08404.9826,W,0.0000,0.000,120118,,*35
2018-01-11 20:11:05 1515719465.374066: $GPGSA,A,3,7,8,9,11,16,23,27,28,30,138,,,4.0,0.8,3.5*3E
2018-01-11 20:11:06 1515719466.691985: $GPGSV,3,1,10,07,55,315,44,08,73,132,46,09,48,229,44,11,20,168,48*79
2018-01-11 20:11:06 1515719466.692141: $GPGSV,3,2,10,16,23,060,46,23,29,189,46,27,47,052,48,28,14,258,37*7A
2018-01-11 20:11:06 1515719466.692208: $GPGSV,3,3,10,30,29,306,34,138,38,213,45*42
2018-01-11 20:11:06 1515719466.805359: $GPZDA,011107.00,12,01,2018,00,00*69
2018-01-11 20:11:06 1515719466.805471: $GPGGA,011107,3946.9569,N,08404.9826,W,2,10,0.80,299.97,M,-33.324,M,,*7E
2018-01-11 20:11:06 1515719466.805535: $GPRMC,011107,A,3946.9569,N,08404.9826,W,0.0000,0.000,120118,,*34
2018-01-11 20:11:06 1515719466.805596: $GPGSA,A,3,7,8,9,11,16,23,27,28,30,138,,,4.0,0.8,3.5*3E
