2017-11-15 19:50:43 1510793443.562415: {"class":"VERSION","release":"3.17","rev":"3.17","proto_major":3,"proto_minor":12}
2017-11-15 19:50:43 1510793443.563362: {"class":"DEVICES","devices":[{"class":"DEVICE","path":"/dev/ttyUSB0","driver":"SiRF","subtype":"9\u0006GSD4e_4.1.2-P1_RPATCH.05-F-GPS-4R-1510281 11/03/2015 307","activated":"2017-11-16T00:50:43.488Z","flags":1,"native":1,"bps":4800,"parity":"N","stopbits":1,"cycle":1.00}]}
2017-11-15 19:50:43 1510793443.563480: {"class":"WATCH","enable":true,"json":false,"nmea":true,"raw":0,"scaled":false,"timing":false,"split24":false,"pps":false}
2017-11-15 19:50:44 1510793444.329575: $GPZDA,005043.00,16,11,2017,00,00*67
2017-11-15 19:50:44 1510793444.329753: $GPGGA,005043,3946.9529,N,08404.9486,W,1,08,1.00,302.82,M,-33.324,M,,*7C
2017-11-15 19:50:44 1510793444.329818: $GPRMC,005043,A,3946.9529,N,08404.9486,W,0.0000,0.000,161117,,*38
2017-11-15 19:50:44 1510793444.329874: $GPGSA,A,3,32,16,31,26,14,22,23,3,,,,,3.4,1.0,2.9*08
2017-11-15 19:50:45 1510793445.682518: $GPGSV,3,1,11,32,29,114,18,16,31,190,15,31,61,037,24,26,62,168,26*79
2017-11-15 19:50:45 1510793445.682705: $GPGSV,3,2,11,14,48,103,22,22,49,256,21,29,13,063,00,23,18,304,18*76
2017-11-15 19:50:45 1510793445.682766: $GPGSV,3,3,11,03,43,289,18,25,10,037,00,01,01,246,00*45
2017-11-15 19:50:45 1510793445.794632: $GPZDA,005044.00,16,11,2017,00,00*60
2017-11-15 19:50:45 1510793445.794805: $GPGGA,005044,3946.9529,N,08404.9486,W,1,08,1.00,302.82,M,-33.324,M,,*7B
2017-11-15 19:50:45 1510793445.794865: $GPRMC,005044,A,3946.9529,N,08404.9486,W,0.5951,58.684,161117,,*00
2017-11-15 19:50:45 1510793445.794921: $GPGSA,A,3,32,16,31,26,14,22,23,3,,,,,3.4,1.0,2.9*08
2017-11-15 19:50:46 1510793446.421213: $GPZDA,005045.00,16,11,2017,00,00*61
2017-11-15 19:50:46 1510793446.421408: $GPGGA,005045,3946.9529,N,08404.9486,W,1,08,1.00,302.82,M,-33.324,M,,*7A
2017-11-15 19:50:46 1510793446.421469: $GPRMC,005045,A,3946.9529,N,08404.9486,W,0.9019,18.875,161117,,*0C
2017-11-15 19:50:46 1510793446.421525: $GPGSA,A,3,32,16,31,26,14,22,23,3,,,,,3.4,1.0,2.9*08
2017-11-15 19:50:47 1510793447.329612: $GPZDA,005046.00,16,11,2017,00,00*62
2017-11-15 19:50:47 1510793447.329844: $GPGGA,005046,3946.9532,N,08404.9485,W,1,08,1.00,302.06,M,-33.324,M,,*7C
2017-11-15 19:50:47 1510793447.329907: $GPRMC,005046,A,3946.9532,N,08404.9485,W,0.8414,39.347,161117,,*07
2017-11-15 19:50:47 1510793447.329963: $GPGSA,A,3,32,16,31,26,14,22,23,3,,,,,3.4,1.0,2.9*08
2017-11-15 19:50:48 1510793448.665365: $GPGSV,3,1,11,32,29,114,18,16,31,190,15,31,61,037,24,26,62,168,27*78
2017-11-15 19:50:48 1510793448.665538: $GPGSV,3,2,11,14,48,103,23,22,49,256,21,29,13,063,00,23,18,304,18*77
2017-11-15 19:50:48 1510793448.665598: $GPGSV,3,3,11,03,43,289,18,25,10,037,00,01,01,246,00*45
2017-11-15 19:50:48 1510793448.778642: $GPZDA,005047.00,16,11,2017,00,00*63
2017-11-15 19:50:48 1510793448.778772: $GPGGA,005047,3946.9532,N,08404.9485,W,1,08,1.00,302.06,M,-33.324,M,,*7D
2017-11-15 19:50:48 1510793448.778832: $GPRMC,005047,A,3946.9532,N,08404.9485,W,0.4207,39.347,161117,,*0E
2017-11-15 19:50:48 1510793448.778887: $GPGSA,A,3,32,16,31,26,14,22,23,3,,,,,3.4,1.0,2.9*08
2017-11-15 19:50:49 1510793449.347152: $GPZDA,005048.00,16,11,2017,00,00*6C
2017-11-15 19:50:49 1510793449.347317: $GPGGA,005048,3946.9532,N,08404.9485,W,1,08,1.00,302.06,M,-33.324,M,,*72
2017-11-15 19:50:49 1510793449.347377: $GPRMC,005048,A,3946.9532,N,08404.9485,W,0.2422,93.794,161117,,*0C
2017-11-15 19:50:49 1510793449.347432: $GPGSA,A,3,32,16,31,26,14,22,23,3,,,,,3.4,1.0,2.9*08
2017-11-15 19:50:50 1510793450.330442: $GPZDA,005049.00,16,11,2017,00,00*6D
2017-11-15 19:50:50 1510793450.330655: $GPGGA,005049,3946.9528,N,08404.9485,W,1,08,1.00,301.42,M,-33.324,M,,*7B
2017-11-15 19:50:50 1510793450.330717: $GPRMC,005049,A,3946.9528,N,08404.9485,W,0.3423,184.197,161117,,*34
2017-11-15 19:50:50 1510793450.330773: $GPGSA,A,3,32,16,31,26,14,22,23,3,,,,,3.4,1.0,2.9*08
2017-11-15 19:50:51 1510793451.681993: $GPGSV,3,1,11,32,29,114,18,16,31,190,15,31,61,037,24,26,62,168,27*78
2017-11-15 19:50:51 1510793451.682169: $GPGSV,3,2,11,14,48,103,23,22,49,256,21,29,13,063,00,23,18,304,18*77
2017-11-15 19:50:51 1510793451.682282: $GPGSV,3,3,11,03,43,289,17,25,10,037,00,01,01,246,00*4A
2017-11-15 19:50:51 1510793451.794000: $GPZDA,005050.00,16,11,2017,00,00*65
2017-11-15 19:50:51 1510793451.794128: $GPGGA,005050,3946.9528,N,08404.9485,W,1,08,1.00,301.42,M,-33.324,M,,*73
2017-11-15 19:50:51 1510793451.794189: $GPRMC,005050,A,3946.9528,N,08404.9485,W,0.1867,180.000,161117,,*39
2017-11-15 19:50:51 1510793451.794244: $GPGSA,A,3,32,16,31,26,14,22,23,3,,,,,3.4,1.0,2.9*08
2017-11-15 19:50:52 1510793452.328664: $GPZDA,005051.00,16,11,2017,00,00*64
2017-11-15 19:50:52 1510793452.328915: $GPGGA,005051,3946.9524,N,08404.9485,W,1,08,1.00,300.78,M,-33.324,M,,*76
2017-11-15 19:50:52 1510793452.328983: $GPRMC,005051,A,3946.9524,N,08404.9485,W,0.0000,0.000,161117,,*35
2017-11-15 19:50:52 1510793452.329040: $GPGSA,A,3,32,16,31,26,14,22,23,3,,,,,3.4,1.0,2.9*08
2017-11-15 19:50:53 1510793453.344558: $GPZDA,005052.00,16,11,2017,00,00*67
2017-11-15 19:50:53 1510793453.344729: $GPGGA,005052,3946.9524,N,08404.9492,W,1,08,1.00,300.70,M,-33.324,M,,*7B
2017-11-15 19:50:53 1510793453.344790: $GPRMC,005052,A,3946.9524,N,08404.9492,W,0.1867,180.000,161117,,*31
2017-11-15 19:50:53 1510793453.344846: $GPGSA,A,3,32,16,31,26,14,22,23,3,,,,,3.4,1.0,2.9*08
