2017-11-16 17:31:13 1510871473.261092: {"class":"VERSION","release":"3.17","rev":"3.17","proto_major":3,"proto_minor":12}
2017-11-16 17:31:13 1510871473.261619: {"class":"DEVICES","devices":[{"class":"DEVICE","path":"/dev/ttyUSB0","driver":"SiRF","subtype":"9\u0006GSD4e_4.1.2-P1_RPATCH.05-F-GPS-4R-1510281 11/03/2015 307","activated":"2017-11-16T22:31:13.246Z","flags":1,"native":1,"bps":4800,"parity":"N","stopbits":1,"cycle":1.00}]}
2017-11-16 17:31:13 1510871473.261737: {"class":"WATCH","enable":true,"json":false,"nmea":true,"raw":0,"scaled":false,"timing":false,"split24":false,"pps":false}
2017-11-16 17:31:13 1510871473.423365: $GPZDA,223112.00,16,11,2017,00,00*64
2017-11-16 17:31:13 1510871473.427578: $GPGGA,223112,3946.9572,N,08404.9835,W,2,11,0.80,304.10,M,-33.324,M,,*7A
2017-11-16 17:31:13 1510871473.427699: $GPRMC,223112,A,3946.9572,N,08404.9835,W,0.0000,0.000,161117,,*31
2017-11-16 17:31:13 1510871473.427758: $GPGSA,A,3,1,10,22,12,14,18,11,25,31,32,138,,1.6,0.8,1.3*3E
2017-11-16 17:31:14 1510871474.416714: $GPZDA,223113.00,16,11,2017,00,00*65
2017-11-16 17:31:14 1510871474.416869: $GPGGA,223113,3946.9572,N,08404.9835,W,2,11,0.80,304.10,M,-33.324,M,,*7B
2017-11-16 17:31:14 1510871474.416929: $GPRMC,223113,A,3946.9572,N,08404.9835,W,0.0000,0.000,161117,,*30
2017-11-16 17:31:14 1510871474.416985: $GPGSA,A,3,1,10,22,12,14,18,11,25,31,32,138,,1.6,0.8,1.3*3E
2017-11-16 17:31:15 1510871475.760151: $GPGSV,3,1,12,01,21,301,36,10,48,148,50,22,18,312,46,12,22,051,51*70
2017-11-16 17:31:15 1510871475.760332: $GPGSV,3,2,12,14,66,327,48,18,19,144,39,26,01,183,00,11,08,282,41*74
2017-11-16 17:31:15 1510871475.760392: $GPGSV,3,3,12,25,39,091,48,31,55,225,49,32,69,025,50,138,38,213,45*45
2017-11-16 17:31:15 1510871475.873264: $GPZDA,223114.00,16,11,2017,00,00*62
2017-11-16 17:31:15 1510871475.873438: $GPGGA,223114,3946.9572,N,08404.9835,W,2,11,0.80,304.10,M,-33.324,M,,*7C
2017-11-16 17:31:15 1510871475.873499: $GPRMC,223114,A,3946.9572,N,08404.9835,W,0.0000,0.000,161117,,*37
2017-11-16 17:31:15 1510871475.873555: $GPGSA,A,3,1,10,22,12,14,18,11,25,31,32,138,,1.6,0.8,1.3*3E
2017-11-16 17:31:16 1510871476.498635: $GPZDA,223115.00,16,11,2017,00,00*63
2017-11-16 17:31:16 1510871476.498798: $GPGGA,223115,3946.9572,N,08404.9835,W,2,11,0.80,304.10,M,-33.324,M,,*7D
2017-11-16 17:31:16 1510871476.498859: $GPRMC,223115,A,3946.9572,N,08404.9835,W,0.0000,0.000,161117,,*36
2017-11-16 17:31:16 1510871476.498914: $GPGSA,A,3,1,10,22,12,14,18,11,25,31,32,138,,1.6,0.8,1.3*3E
2017-11-16 17:31:17 1510871477.423217: $GPZDA,223116.00,16,11,2017,00,00*60
2017-11-16 17:31:17 1510871477.423385: $GPGGA,223116,3946.9572,N,08404.9835,W,2,11,0.80,304.10,M,-33.324,M,,*7E
2017-11-16 17:31:17 1510871477.423446: $GPRMC,223116,A,3946.9572,N,08404.9835,W,0.0000,0.000,161117,,*35
2017-11-16 17:31:17 1510871477.423501: $GPGSA,A,3,1,10,22,12,14,18,11,25,31,32,138,,1.6,0.8,1.3*3E
2017-11-16 17:31:18 1510871478.737939: $GPGSV,3,1,12,01,21,301,36,10,48,148,50,22,18,312,46,12,22,051,51*70
2017-11-16 17:31:18 1510871478.738110: $GPGSV,3,2,12,14,66,327,48,18,19,144,38,26,01,183,00,11,08,282,41*75
2017-11-16 17:31:18 1510871478.738171: $GPGSV,3,3,12,25,39,091,47,31,55,225,48,32,69,025,50,138,38,213,44*4A
2017-11-16 17:31:18 1510871478.851296: $GPZDA,223117.00,16,11,2017,00,00*61
2017-11-16 17:31:18 1510871478.851484: $GPGGA,223117,3946.9572,N,08404.9835,W,2,11,0.80,304.10,M,-33.324,M,,*7F
2017-11-16 17:31:18 1510871478.851546: $GPRMC,223117,A,3946.9572,N,08404.9835,W,0.0000,0.000,161117,,*34
2017-11-16 17:31:18 1510871478.851601: $GPGSA,A,3,1,10,22,12,14,18,11,25,31,32,138,,1.6,0.8,1.3*3E
2017-11-16 17:31:19 1510871479.424982: $GPZDA,223118.00,16,11,2017,00,00*6E
2017-11-16 17:31:19 1510871479.425404: $GPGGA,223118,3946.9572,N,08404.9835,W,2,11,0.80,304.10,M,-33.324,M,,*70
2017-11-16 17:31:19 1510871479.425549: $GPRMC,223118,A,3946.9572,N,08404.9835,W,0.0000,0.000,161117,,*3B
2017-11-16 17:31:19 1510871479.425677: $GPGSA,A,3,1,10,22,12,14,18,11,25,31,32,138,,1.6,0.8,1.3*3E
2017-11-16 17:31:20 1510871480.405925: $GPZDA,223119.00,16,11,2017,00,00*6F
2017-11-16 17:31:20 1510871480.406176: $GPGGA,223119,3946.9572,N,08404.9835,W,2,11,0.80,304.10,M,-33.324,M,,*71
2017-11-16 17:31:20 1510871480.406240: $GPRMC,223119,A,3946.9572,N,08404.9835,W,0.0000,0.000,161117,,*3A
2017-11-16 17:31:20 1510871480.406296: $GPGSA,A,3,1,10,22,12,14,18,11,25,31,32,138,,1.6,0.8,1.3*3E
2017-11-16 17:31:21 1510871481.759450: $GPGSV,3,1,12,01,21,301,36,10,48,148,50,22,18,312,46,12,22,051,51*70
2017-11-16 17:31:21 1510871481.759617: $GPGSV,3,2,12,14,66,327,48,18,19,144,39,26,01,183,22,11,08,282,41*74
2017-11-16 17:31:21 1510871481.759679: $GPGSV,3,3,12,25,39,091,47,31,55,225,48,32,69,025,49,138,38,213,44*42
2017-11-16 17:31:21 1510871481.872754: $GPZDA,223120.00,16,11,2017,00,00*65
2017-11-16 17:31:21 1510871481.872911: $GPGGA,223120,3946.9572,N,08404.9835,W,2,12,0.80,304.10,M,-33.324,M,,*78
2017-11-16 17:31:21 1510871481.872997: $GPRMC,223120,A,3946.9572,N,08404.9835,W,0.0000,0.000,161117,,*30
2017-11-16 17:31:21 1510871481.873054: $GPGSA,A,3,1,10,22,12,14,18,26,11,25,31,32,138,1.6,0.8,1.3*3A
2017-11-16 17:31:22 1510871482.424289: $GPZDA,223121.00,16,11,2017,00,00*64
2017-11-16 17:31:22 1510871482.424468: $GPGGA,223121,3946.9572,N,08404.9835,W,2,12,0.80,304.10,M,-33.324,M,,*79
2017-11-16 17:31:22 1510871482.424530: $GPRMC,223121,A,3946.9572,N,08404.9835,W,0.0000,0.000,161117,,*31
2017-11-16 17:31:22 1510871482.424586: $GPGSA,A,3,1,10,22,12,14,18,26,11,25,31,32,138,1.6,0.8,1.3*3A
2017-11-16 17:31:22 1510871482.424640: $GPGBS,223121,2.07,M,2.72,M,7.42,M*3C
