2017-12-29 10:57:28 1514563048.456480: {"class":"VERSION","release":"3.16","rev":"3.16-4","proto_major":3,"proto_minor":11}
2017-12-29 10:57:28 1514563048.456942: {"class":"DEVICES","devices":[{"class":"DEVICE","path":"/dev/ttyUSB0","driver":"SiRF","subtype":"9\u0006GSD4e_4.1.2-P1_RPATCH.05-F-GPS-4R-1510281 11/03/2015 307","activated":"2017-12-29T15:57:28.198Z","flags":1,"native":1,"bps":4800,"parity":"N","stopbits":1,"cycle":1.00}]}
2017-12-29 10:57:28 1514563048.457065: {"class":"WATCH","enable":true,"json":false,"nmea":true,"raw":0,"scaled":false,"timing":false,"split24":false,"pps":false}
2017-12-29 10:57:28 1514563048.996504: $GPZDA,155729.67,29,12,2017,00,00*66
2017-12-29 10:57:28 1514563048.996686: $GPGGA,155729,3946.9591,N,08404.9859,W,1,11,1.40,299.96,M,-33.324,M,,*74
2017-12-29 10:57:28 1514563048.996753: $GPRMC,155729,A,3946.9591,N,08404.9859,W,0.0000,0.000,291217,,*35
2017-12-29 10:57:28 1514563048.996814: $GPGSA,A,3,10,13,15,18,20,21,24,27,32,8,138,,1.7,1.4,1.3*3C
2017-12-29 10:57:28 1514563048.996871: $GPGBS,155729,10.91,M,10.38,M,30.89,M*02
2017-12-29 10:57:29 1514563049.918043: $GPZDA,155730.16,29,12,2017,00,00*68
2017-12-29 10:57:29 1514563049.918207: $GPGGA,155730,3946.9591,N,08404.9859,W,1,11,1.40,299.96,M,-33.324,M,,*7C
2017-12-29 10:57:29 1514563049.918274: $GPRMC,155730,A,3946.9591,N,08404.9859,W,0.0814,322.014,291217,,*36
2017-12-29 10:57:29 1514563049.918335: $GPGSA,A,3,10,13,15,18,20,21,24,27,32,8,138,,1.7,1.4,1.3*3C
2017-12-29 10:57:29 1514563049.918393: $GPGBS,155730,10.91,M,10.38,M,30.89,M*0A
2017-12-29 10:57:31 1514563051.290306: $GPGSV,3,1,11,10,35,295,44,13,15,046,41,15,45,051,50,18,66,321,44*7E
2017-12-29 10:57:31 1514563051.290492: $GPGSV,3,2,11,20,41,087,51,21,72,201,47,24,46,123,50,27,19,298,36*78
2017-12-29 10:57:31 1514563051.290559: $GPGSV,3,3,11,32,14,232,31,08,02,330,19,138,38,213,04*7B
2017-12-29 10:57:31 1514563051.403681: $GPZDA,155731.00,29,12,2017,00,00*6E
2017-12-29 10:57:31 1514563051.403822: $GPGGA,155731,3946.9590,N,08404.9852,W,1,11,1.00,300.04,M,-33.324,M,,*79
2017-12-29 10:57:31 1514563051.403887: $GPRMC,155731,A,3946.9590,N,08404.9852,W,0.2172,85.763,291217,,*0F
2017-12-29 10:57:31 1514563051.403947: $GPGSA,A,3,10,13,15,18,20,21,24,27,32,8,138,,1.7,1.0,1.3*38
2017-12-29 10:57:31 1514563051.806950: $GPZDA,155732.00,29,12,2017,00,00*6D
2017-12-29 10:57:31 1514563051.807107: $GPGGA,155732,3946.9590,N,08404.9852,W,1,11,1.00,300.04,M,-33.324,M,,*7A
2017-12-29 10:57:31 1514563051.807173: $GPRMC,155732,A,3946.9590,N,08404.9852,W,0.0407,322.014,291217,,*30
2017-12-29 10:57:31 1514563051.807235: $GPGSA,A,3,10,13,15,18,20,21,24,27,32,8,138,,1.7,1.0,1.3*38
2017-12-29 10:57:31 1514563051.807293: $GPGBS,155732,10.91,M,10.38,M,30.89,M*08
2017-12-29 10:57:32 1514563052.395320: $GPZDA,155733.00,29,12,2017,00,00*6C
2017-12-29 10:57:32 1514563052.395496: $GPGGA,155733,3946.9594,N,08404.9852,W,1,11,1.00,300.68,M,-33.324,M,,*75
2017-12-29 10:57:32 1514563052.395564: $GPRMC,155733,A,3946.9594,N,08404.9852,W,0.1567,189.200,291217,,*37
2017-12-29 10:57:32 1514563052.395654: $GPGSA,A,3,10,13,15,18,20,21,24,27,32,8,138,,1.7,1.0,1.3*38
2017-12-29 10:57:32 1514563052.395714: $GPGBS,155733,10.91,M,10.38,M,30.89,M*09
2017-12-29 10:57:33 1514563053.729296: $GPGSV,3,1,11,10,35,295,44,13,15,046,41,15,45,051,50,18,66,321,44*7E
2017-12-29 10:57:33 1514563053.729447: $GPGSV,3,2,11,20,41,087,51,21,72,201,47,24,46,123,50,27,19,298,36*78
2017-12-29 10:57:33 1514563053.729531: $GPGSV,3,3,11,32,14,232,32,08,02,330,32,138,38,213,46*77
2017-12-29 10:57:33 1514563053.842646: $GPZDA,155734.00,29,12,2017,00,00*6B
2017-12-29 10:57:33 1514563053.842773: $GPGGA,155734,3946.9594,N,08404.9852,W,1,11,1.00,300.68,M,-33.324,M,,*72
2017-12-29 10:57:33 1514563053.842840: $GPRMC,155734,A,3946.9594,N,08404.9852,W,0.5075,72.256,291217,,*04
2017-12-29 10:57:33 1514563053.842900: $GPGSA,A,3,10,13,15,18,20,21,24,27,32,8,138,,1.7,1.0,1.3*38
2017-12-29 10:57:34 1514563054.394796: $GPZDA,155735.00,29,12,2017,00,00*6A
2017-12-29 10:57:34 1514563054.394960: $GPGGA,155735,3946.9594,N,08404.9845,W,1,11,1.00,300.76,M,-33.324,M,,*7A
2017-12-29 10:57:34 1514563054.395082: $GPRMC,155735,A,3946.9594,N,08404.9845,W,0.4315,34.066,291217,,*04
2017-12-29 10:57:34 1514563054.395145: $GPGSA,A,3,10,13,15,18,20,21,24,27,32,8,138,,1.7,1.0,1.3*38
2017-12-29 10:57:35 1514563055.394322: $GPZDA,155736.00,29,12,2017,00,00*69
2017-12-29 10:57:35 1514563055.394492: $GPGGA,155736,3946.9594,N,08404.9845,W,1,11,1.00,300.76,M,-33.324,M,,*79
2017-12-29 10:57:35 1514563055.394560: $GPRMC,155736,A,3946.9594,N,08404.9845,W,0.4315,34.066,291217,,*07
2017-12-29 10:57:35 1514563055.394639: $GPGSA,A,3,10,13,15,18,20,21,24,27,32,8,138,,1.7,1.0,1.3*38
2017-12-29 10:57:35 1514563055.394700: $GPGBS,155736,10.91,M,10.38,M,30.89,M*0C
2017-12-29 10:57:36 1514563056.731322: $GPGSV,3,1,11,10,35,295,43,13,15,046,40,15,45,051,49,18,66,321,43*77
2017-12-29 10:57:36 1514563056.731514: $GPGSV,3,2,11,20,41,087,50,21,72,201,46,24,46,123,49,27,19,298,35*73
2017-12-29 10:57:36 1514563056.731606: $GPGSV,3,3,11,32,14,232,29,08,02,330,30,138,38,213,46*7F
2017-12-29 10:57:36 1514563056.844889: $GPZDA,155737.00,29,12,2017,00,00*68
2017-12-29 10:57:36 1514563056.845007: $GPGGA,155737,3946.9594,N,08404.9845,W,1,11,1.00,300.76,M,-33.324,M,,*78
2017-12-29 10:57:36 1514563056.845071: $GPRMC,155737,A,3946.9594,N,08404.9845,W,0.0000,0.000,291217,,*32
2017-12-29 10:57:36 1514563056.845131: $GPGSA,A,3,10,13,15,18,20,21,24,27,32,8,138,,1.7,1.0,1.3*38
2017-12-29 10:57:37 1514563057.396992: $GPZDA,155738.00,29,12,2017,00,00*67
2017-12-29 10:57:37 1514563057.397126: $GPGGA,155738,3946.9601,N,08404.9838,W,2,11,1.60,300.72,M,-33.324,M,,*73
2017-12-29 10:57:37 1514563057.397191: $GPRMC,155738,A,3946.9601,N,08404.9838,W,0.0000,0.000,291217,,*38
2017-12-29 10:57:37 1514563057.397251: $GPGSA,A,3,10,13,15,18,20,21,24,27,32,8,138,,1.7,1.6,1.3*3E
2017-12-29 10:57:38 1514563058.398695: $GPZDA,155739.00,29,12,2017,00,00*66
2017-12-29 10:57:38 1514563058.398839: $GPGGA,155739,3946.9601,N,08404.9838,W,2,11,1.00,300.72,M,-33.324,M,,*74
2017-12-29 10:57:38 1514563058.398904: $GPRMC,155739,A,3946.9601,N,08404.9838,W,0.0000,0.000,291217,,*39
2017-12-29 10:57:38 1514563058.398965: $GPGSA,A,3,10,13,15,18,20,21,24,27,32,8,138,,1.7,1.0,1.3*38
2017-12-29 10:57:39 1514563059.731666: $GPGSV,3,1,11,10,35,295,43,13,15,046,40,15,45,051,49,18,66,321,44*70
2017-12-29 10:57:39 1514563059.731845: $GPGSV,3,2,11,20,41,087,50,21,72,201,46,24,46,123,49,27,19,298,35*73
2017-12-29 10:57:39 1514563059.731912: $GPGSV,3,3,11,32,14,232,30,08,02,330,28,138,38,213,45*7D
2017-12-29 10:57:39 1514563059.845022: $GPZDA,155740.00,29,12,2017,00,00*68
2017-12-29 10:57:39 1514563059.845155: $GPGGA,155740,3946.9601,N,08404.9838,W,2,11,1.00,300.72,M,-33.324,M,,*7A
2017-12-29 10:57:39 1514563059.845222: $GPRMC,155740,A,3946.9601,N,08404.9838,W,0.0000,0.000,291217,,*37
2017-12-29 10:57:39 1514563059.845283: $GPGSA,A,3,10,13,15,18,20,21,24,27,32,8,138,,1.7,1.0,1.3*38
2017-12-29 10:57:40 1514563060.394638: $GPZDA,155741.00,29,12,2017,00,00*69
2017-12-29 10:57:40 1514563060.394785: $GPGGA,155741,3946.9601,N,08404.9838,W,2,11,1.00,300.72,M,-33.324,M,,*7B
2017-12-29 10:57:40 1514563060.394852: $GPRMC,155741,A,3946.9601,N,08404.9838,W,0.0000,0.000,291217,,*36
2017-12-29 10:57:40 1514563060.394913: $GPGSA,A,3,10,13,15,18,20,21,24,27,32,8,138,,1.7,1.0,1.3*38
2017-12-29 10:57:41 1514563061.395827: $GPZDA,155742.00,29,12,2017,00,00*6A
2017-12-29 10:57:41 1514563061.399112: $GPGGA,155742,3946.9601,N,08404.9838,W,2,11,1.00,300.72,M,-33.324,M,,*78
2017-12-29 10:57:41 1514563061.399214: $GPRMC,155742,A,3946.9601,N,08404.9838,W,0.0000,0.000,291217,,*35
2017-12-29 10:57:41 1514563061.399276: $GPGSA,A,3,10,13,15,18,20,21,24,27,32,8,138,,1.7,1.0,1.3*38
2017-12-29 10:57:42 1514563062.733783: $GPGSV,3,1,11,10,35,295,44,13,15,046,40,15,45,051,49,18,66,321,44*77
2017-12-29 10:57:42 1514563062.733941: $GPGSV,3,2,11,20,41,087,50,21,72,201,47,24,46,123,50,27,19,298,35*7A
2017-12-29 10:57:42 1514563062.734005: $GPGSV,3,3,11,32,14,232,30,08,02,330,28,138,38,213,45*7D
2017-12-29 10:57:42 1514563062.847107: $GPZDA,155743.00,29,12,2017,00,00*6B
2017-12-29 10:57:42 1514563062.847297: $GPGGA,155743,3946.9601,N,08404.9838,W,2,11,1.00,300.72,M,-33.324,M,,*79
2017-12-29 10:57:42 1514563062.847365: $GPRMC,155743,A,3946.9601,N,08404.9838,W,0.0000,0.000,291217,,*34
2017-12-29 10:57:42 1514563062.847425: $GPGSA,A,3,10,13,15,18,20,21,24,27,32,8,138,,1.7,1.0,1.3*38
2017-12-29 10:57:43 1514563063.472794: $GPZDA,155744.00,29,12,2017,00,00*6C
2017-12-29 10:57:43 1514563063.472948: $GPGGA,155744,3946.9601,N,08404.9838,W,2,11,1.00,300.72,M,-33.324,M,,*7E
2017-12-29 10:57:43 1514563063.473014: $GPRMC,155744,A,3946.9601,N,08404.9838,W,0.0000,0.000,291217,,*33
2017-12-29 10:57:43 1514563063.473074: $GPGSA,A,3,10,13,15,18,20,21,24,27,32,8,138,,1.7,1.0,1.3*38
2017-12-29 10:57:44 1514563064.397428: $GPZDA,155745.00,29,12,2017,00,00*6D
2017-12-29 10:57:44 1514563064.397591: $GPGGA,155745,3946.9601,N,08404.9838,W,2,11,1.00,300.72,M,-33.324,M,,*7F
2017-12-29 10:57:44 1514563064.397657: $GPRMC,155745,A,3946.9601,N,08404.9838,W,0.0000,0.000,291217,,*32
2017-12-29 10:57:44 1514563064.397717: $GPGSA,A,3,10,13,15,18,20,21,24,27,32,8,138,,1.7,1.0,1.3*38
2017-12-29 10:57:45 1514563065.732935: $GPGSV,3,1,11,10,35,295,44,13,15,046,40,15,45,051,49,18,66,321,44*77
2017-12-29 10:57:45 1514563065.733094: $GPGSV,3,2,11,20,41,087,50,21,72,201,47,24,46,123,50,27,19,298,34*7B
2017-12-29 10:57:45 1514563065.733158: $GPGSV,3,3,11,32,14,232,31,08,02,330,20,138,38,213,45*74
2017-12-29 10:57:45 1514563065.846578: $GPZDA,155746.00,29,12,2017,00,00*6E
2017-12-29 10:57:45 1514563065.846720: $GPGGA,155746,3946.9601,N,08404.9838,W,2,11,1.00,300.72,M,-33.324,M,,*7C
2017-12-29 10:57:45 1514563065.846787: $GPRMC,155746,A,3946.9601,N,08404.9838,W,0.0000,0.000,291217,,*31
2017-12-29 10:57:45 1514563065.846847: $GPGSA,A,3,10,13,15,18,20,21,24,27,32,8,138,,1.7,1.0,1.3*38
2017-12-29 10:57:46 1514563066.398736: $GPZDA,155747.00,29,12,2017,00,00*6F
2017-12-29 10:57:46 1514563066.398893: $GPGGA,155747,3946.9601,N,08404.9838,W,2,11,1.00,300.72,M,-33.324,M,,*7D
2017-12-29 10:57:46 1514563066.398981: $GPRMC,155747,A,3946.9601,N,08404.9838,W,0.0000,0.000,291217,,*30
2017-12-29 10:57:46 1514563066.399045: $GPGSA,A,3,10,13,15,18,20,21,24,27,32,8,138,,1.7,1.0,1.3*38
2017-12-29 10:57:47 1514563067.398212: $GPZDA,155748.00,29,12,2017,00,00*60
2017-12-29 10:57:47 1514563067.398366: $GPGGA,155748,3946.9601,N,08404.9838,W,2,11,1.00,300.72,M,-33.324,M,,*72
2017-12-29 10:57:47 1514563067.398431: $GPRMC,155748,A,3946.9601,N,08404.9838,W,0.0000,0.000,291217,,*3F
2017-12-29 10:57:47 1514563067.398492: $GPGSA,A,3,10,13,15,18,20,21,24,27,32,8,138,,1.7,1.0,1.3*38
2017-12-29 10:57:47 1514563067.398549: $GPGBS,155748,2.73,M,2.59,M,7.72,M*3E
