2017-12-31 18:48:03 1514764083.221539: {"class":"VERSION","release":"3.16","rev":"3.16-4","proto_major":3,"proto_minor":11}
2017-12-31 18:48:03 1514764083.221881: {"class":"DEVICES","devices":[{"class":"DEVICE","path":"/dev/ttyUSB0","driver":"SiRF","activated":"2017-12-31T23:48:03.174Z","flags":1,"native":1,"bps":4800,"parity":"N","stopbits":1,"cycle":1.00}]}
2017-12-31 18:48:03 1514764083.221982: {"class":"WATCH","enable":true,"json":false,"nmea":true,"raw":0,"scaled":false,"timing":false,"split24":false,"pps":false}
2017-12-31 18:48:03 1514764083.687776: $GPGSV,3,1,11,22,08,204,23,23,68,282,41,09,36,310,41,03,18,220,39*7D
2017-12-31 18:48:03 1514764083.687935: $GPGSV,3,2,11,16,77,036,43,08,16,175,35,31,16,088,33,27,39,144,41*79
2017-12-31 18:48:03 1514764083.688000: $GPGSV,3,3,11,07,10,285,46,26,45,048,44,135,22,240,44*7A
2017-12-31 18:48:03 1514764083.801206: $GPZDA,234804.00,31,12,2017,00,00*6A
2017-12-31 18:48:03 1514764083.801323: $GPGGA,234804,3946.9581,N,08404.9862,W,2,11,0.80,303.66,M,-33.324,M,,*7A
2017-12-31 18:48:03 1514764083.801388: $GPRMC,234804,A,3946.9581,N,08404.9862,W,0.0000,0.000,311217,,*31
2017-12-31 18:48:03 1514764083.801448: $GPGSA,A,3,22,23,9,3,16,8,31,27,7,26,135,,1.7,0.8,1.3*09
2017-12-31 18:48:04 1514764084.352439: $GPZDA,234805.00,31,12,2017,00,00*6B
2017-12-31 18:48:04 1514764084.352599: $GPGGA,234805,3946.9581,N,08404.9862,W,2,11,0.80,303.66,M,-33.324,M,,*7B
2017-12-31 18:48:04 1514764084.352665: $GPRMC,234805,A,3946.9581,N,08404.9862,W,0.0000,0.000,311217,,*30
2017-12-31 18:48:04 1514764084.352726: $GPGSA,A,3,22,23,9,3,16,8,31,27,7,26,135,,1.7,0.8,1.3*09
2017-12-31 18:48:05 1514764085.352670: $GPZDA,234806.00,31,12,2017,00,00*68
2017-12-31 18:48:05 1514764085.352836: $GPGGA,234806,3946.9581,N,08404.9862,W,2,11,0.80,303.66,M,-33.324,M,,*78
2017-12-31 18:48:05 1514764085.352903: $GPRMC,234806,A,3946.9581,N,08404.9862,W,0.0000,0.000,311217,,*33
2017-12-31 18:48:05 1514764085.352964: $GPGSA,A,3,22,23,9,3,16,8,31,27,7,26,135,,1.7,0.8,1.3*09
2017-12-31 18:48:06 1514764086.689409: $GPGSV,3,1,11,22,08,204,23,23,68,282,41,09,36,310,41,03,18,220,40*73
2017-12-31 18:48:06 1514764086.689585: $GPGSV,3,2,11,16,77,036,42,08,16,175,35,31,16,088,32,27,39,144,40*78
2017-12-31 18:48:06 1514764086.689652: $GPGSV,3,3,11,07,10,285,46,26,45,048,43,135,22,240,44*7D
2017-12-31 18:48:06 1514764086.802856: $GPZDA,234807.00,31,12,2017,00,00*69
2017-12-31 18:48:06 1514764086.802970: $GPGGA,234807,3946.9581,N,08404.9862,W,2,11,0.80,303.66,M,-33.324,M,,*79
2017-12-31 18:48:06 1514764086.803034: $GPRMC,234807,A,3946.9581,N,08404.9862,W,0.0000,0.000,311217,,*32
2017-12-31 18:48:06 1514764086.803095: $GPGSA,A,3,22,23,9,3,16,8,31,27,7,26,135,,1.7,0.8,1.3*09
2017-12-31 18:48:07 1514764087.927179: $GPZDA,234808.00,31,12,2017,00,00*66
2017-12-31 18:48:07 1514764087.927363: $GPGGA,234808,3946.9585,N,08404.9862,W,2,11,0.80,304.30,M,-33.324,M,,*76
2017-12-31 18:48:07 1514764087.927433: $GPRMC,234808,A,3946.9585,N,08404.9862,W,0.0000,0.000,311217,,*39
2017-12-31 18:48:07 1514764087.927494: $GPGSA,A,3,22,23,9,3,16,8,31,27,7,26,135,,1.7,0.8,1.3*09
2017-12-31 18:48:07 1514764087.927553: $GPGBS,234808,2.22,M,3.43,M,7.66,M*3A
2017-12-31 18:48:08 1514764088.378038: $GPZDA,234809.00,31,12,2017,00,00*67
2017-12-31 18:48:08 1514764088.378207: $GPGGA,234809,3946.9585,N,08404.9862,W,2,11,0.80,304.30,M,-33.324,M,,*77
2017-12-31 18:48:08 1514764088.378274: $GPRMC,234809,A,3946.9585,N,08404.9862,W,0.0000,0.000,311217,,*38
2017-12-31 18:48:08 1514764088.378336: $GPGSA,A,3,22,23,9,3,16,8,31,27,7,26,135,,1.7,0.8,1.3*09
2017-12-31 18:48:08 1514764088.378394: $GPGBS,234809,2.22,M,3.43,M,7.66,M*3B
2017-12-31 18:48:09 1514764089.689604: $GPGSV,3,1,11,22,08,204,18,23,68,282,42,09,36,310,42,03,18,220,40*7B
2017-12-31 18:48:09 1514764089.689771: $GPGSV,3,2,11,16,77,036,43,08,16,175,35,31,16,088,37,27,39,144,40*7C
2017-12-31 18:48:09 1514764089.689836: $GPGSV,3,3,11,07,10,285,46,26,45,048,44,135,22,240,42*7C
2017-12-31 18:48:09 1514764089.803360: $GPZDA,234810.00,31,12,2017,00,00*6F
2017-12-31 18:48:09 1514764089.803500: $GPGGA,234810,3946.9585,N,08404.9862,W,2,11,0.80,304.30,M,-33.324,M,,*7F
2017-12-31 18:48:09 1514764089.803619: $GPRMC,234810,A,3946.9585,N,08404.9862,W,0.0000,0.000,311217,,*30
2017-12-31 18:48:09 1514764089.803681: $GPGSA,A,3,22,23,9,3,16,8,31,27,7,26,135,,1.7,0.8,1.3*09
2017-12-31 18:48:10 1514764090.428722: $GPZDA,234811.00,31,12,2017,00,00*6E
2017-12-31 18:48:10 1514764090.428906: $GPGGA,234811,3946.9585,N,08404.9862,W,2,11,0.80,304.30,M,-33.324,M,,*7E
2017-12-31 18:48:10 1514764090.428975: $GPRMC,234811,A,3946.9585,N,08404.9862,W,0.0000,0.000,311217,,*31
2017-12-31 18:48:10 1514764090.429037: $GPGSA,A,3,22,23,9,3,16,8,31,27,7,26,135,,1.7,0.8,1.3*09
2017-12-31 18:48:11 1514764091.354212: $GPZDA,234812.00,31,12,2017,00,00*6D
2017-12-31 18:48:11 1514764091.354388: $GPGGA,234812,3946.9585,N,08404.9862,W,2,11,0.80,304.30,M,-33.324,M,,*7D
2017-12-31 18:48:11 1514764091.354455: $GPRMC,234812,A,3946.9585,N,08404.9862,W,0.0000,0.000,311217,,*32
2017-12-31 18:48:11 1514764091.354517: $GPGSA,A,3,22,23,9,3,16,8,31,27,7,26,135,,1.7,0.8,1.3*09
2017-12-31 18:48:12 1514764092.681184: $GPGSV,3,1,11,22,08,204,25,23,68,282,41,09,36,310,41,03,18,220,40*75
2017-12-31 18:48:12 1514764092.681340: $GPGSV,3,2,11,16,77,036,43,08,16,175,35,31,16,088,36,27,39,144,40*7D
2017-12-31 18:48:12 1514764092.681405: $GPGSV,3,3,11,07,10,285,46,26,45,048,44,135,22,240,44*7A
2017-12-31 18:48:12 1514764092.794818: $GPZDA,234813.00,31,12,2017,00,00*6C
2017-12-31 18:48:12 1514764092.794964: $GPGGA,234813,3946.9585,N,08404.9862,W,2,11,0.80,304.30,M,-33.324,M,,*7C
2017-12-31 18:48:12 1514764092.795030: $GPRMC,234813,A,3946.9585,N,08404.9862,W,0.0000,0.000,311217,,*33
2017-12-31 18:48:12 1514764092.795091: $GPGSA,A,3,22,23,9,3,16,8,31,27,7,26,135,,1.7,0.8,1.3*09
