2017-11-16 14:26:14 1510860374.486271: {"class":"VERSION","release":"3.17","rev":"3.17","proto_major":3,"proto_minor":12}
2017-11-16 14:26:14 1510860374.486810: {"class":"DEVICES","devices":[{"class":"DEVICE","path":"/dev/ttyUSB0","driver":"SiRF","subtype":"9\u0006GSD4e_4.1.2-P1_RPATCH.05-F-GPS-4R-1510281 11/03/2015 307","activated":"2017-11-16T19:26:14.423Z","flags":1,"native":1,"bps":4800,"parity":"N","stopbits":1,"cycle":1.00}]}
2017-11-16 14:26:14 1510860374.486920: {"class":"WATCH","enable":true,"json":false,"nmea":true,"raw":0,"scaled":false,"timing":false,"split24":false,"pps":false}
2017-11-16 14:26:14 1510860374.536793: $GPZDA,192613.00,16,11,2017,00,00*6B
2017-11-16 14:26:14 1510860374.536943: $GPGGA,192613,3946.9569,N,08404.9849,W,2,11,0.80,303.30,M,-33.324,M,,*71
2017-11-16 14:26:14 1510860374.537003: $GPRMC,192613,A,3946.9569,N,08404.9849,W,0.0000,0.000,161117,,*3F
2017-11-16 14:26:14 1510860374.537059: $GPGSA,A,3,8,10,15,18,21,20,24,27,32,14,138,,1.6,0.8,1.3*37
2017-11-16 14:26:15 1510860375.872620: $GPGSV,3,1,12,08,07,318,33,10,46,306,47,13,03,051,00,15,33,054,50*7D
2017-11-16 14:26:15 1510860375.872793: $GPGSV,3,2,12,18,74,349,46,21,58,187,46,20,29,100,46,24,52,102,48*7B
2017-11-16 14:26:15 1510860375.872853: $GPGSV,3,3,12,27,18,283,41,32,25,241,46,14,08,235,34,138,38,213,44*46
2017-11-16 14:26:15 1510860375.984685: $GPZDA,192614.00,16,11,2017,00,00*6C
2017-11-16 14:26:15 1510860375.984844: $GPGGA,192614,3946.9569,N,08404.9849,W,2,11,0.80,303.30,M,-33.324,M,,*76
2017-11-16 14:26:15 1510860375.984905: $GPRMC,192614,A,3946.9569,N,08404.9849,W,0.0000,0.000,161117,,*38
2017-11-16 14:26:15 1510860375.984979: $GPGSA,A,3,8,10,15,18,21,20,24,27,32,14,138,,1.6,0.8,1.3*37
2017-11-16 14:26:16 1510860376.504256: $GPZDA,192615.00,16,11,2017,00,00*6D
2017-11-16 14:26:16 1510860376.504417: $GPGGA,192615,3946.9569,N,08404.9849,W,2,11,0.80,303.30,M,-33.324,M,,*77
2017-11-16 14:26:16 1510860376.504478: $GPRMC,192615,A,3946.9569,N,08404.9849,W,0.0000,0.000,161117,,*39
2017-11-16 14:26:16 1510860376.504534: $GPGSA,A,3,8,10,15,18,21,20,24,27,32,14,138,,1.6,0.8,1.3*37
2017-11-16 14:26:17 1510860377.504356: $GPZDA,192616.00,16,11,2017,00,00*6E
2017-11-16 14:26:17 1510860377.504518: $GPGGA,192616,3946.9569,N,08404.9849,W,2,11,0.80,303.30,M,-33.324,M,,*74
2017-11-16 14:26:17 1510860377.504578: $GPRMC,192616,A,3946.9569,N,08404.9849,W,0.0000,0.000,161117,,*3A
2017-11-16 14:26:17 1510860377.504633: $GPGSA,A,3,8,10,15,18,21,20,24,27,32,14,138,,1.6,0.8,1.3*37
2017-11-16 14:26:18 1510860378.840983: $GPGSV,3,1,12,08,07,318,32,10,46,306,48,13,03,051,00,15,33,054,50*73
2017-11-16 14:26:18 1510860378.841173: $GPGSV,3,2,12,18,74,349,46,21,58,187,46,20,29,100,46,24,52,102,48*7B
2017-11-16 14:26:18 1510860378.841234: $GPGSV,3,3,12,27,18,283,41,32,25,241,46,14,08,235,34,138,38,213,44*46
2017-11-16 14:26:18 1510860378.954315: $GPZDA,192617.00,16,11,2017,00,00*6F
2017-11-16 14:26:18 1510860378.954476: $GPGGA,192617,3946.9569,N,08404.9849,W,2,11,0.80,303.30,M,-33.324,M,,*75
2017-11-16 14:26:18 1510860378.954537: $GPRMC,192617,A,3946.9569,N,08404.9849,W,0.0000,0.000,161117,,*3B
2017-11-16 14:26:18 1510860378.954593: $GPGSA,A,3,8,10,15,18,21,20,24,27,32,14,138,,1.6,0.8,1.3*37
2017-11-16 14:26:19 1510860379.581054: $GPZDA,192618.00,16,11,2017,00,00*60
2017-11-16 14:26:19 1510860379.581246: $GPGGA,192618,3946.9569,N,08404.9849,W,2,11,0.80,303.30,M,-33.324,M,,*7A
2017-11-16 14:26:19 1510860379.581308: $GPRMC,192618,A,3946.9569,N,08404.9849,W,0.0000,0.000,161117,,*34
2017-11-16 14:26:19 1510860379.581364: $GPGSA,A,3,8,10,15,18,21,20,24,27,32,14,138,,1.6,0.8,1.3*37
2017-11-16 14:26:20 1510860380.499301: $GPZDA,192619.00,16,11,2017,00,00*61
2017-11-16 14:26:20 1510860380.499476: $GPGGA,192619,3946.9569,N,08404.9849,W,2,11,0.80,303.30,M,-33.324,M,,*7B
2017-11-16 14:26:20 1510860380.499537: $GPRMC,192619,A,3946.9569,N,08404.9849,W,0.0000,0.000,161117,,*35
2017-11-16 14:26:20 1510860380.499594: $GPGSA,A,3,8,10,15,18,21,20,24,27,32,14,138,,1.6,0.8,1.3*37
2017-11-16 14:26:21 1510860381.841370: $GPGSV,3,1,12,08,07,318,32,10,46,306,48,13,03,051,00,15,33,054,50*73
2017-11-16 14:26:21 1510860381.841584: $GPGSV,3,2,12,18,74,349,46,21,58,187,45,20,29,100,46,24,52,102,48*78
2017-11-16 14:26:21 1510860381.841645: $GPGSV,3,3,12,27,18,283,41,32,25,241,46,14,08,235,34,138,38,213,44*46
2017-11-16 14:26:21 1510860381.954700: $GPZDA,192620.00,16,11,2017,00,00*6B
2017-11-16 14:26:21 1510860381.954875: $GPGGA,192620,3946.9569,N,08404.9849,W,2,11,0.80,303.30,M,-33.324,M,,*71
2017-11-16 14:26:21 1510860381.954936: $GPRMC,192620,A,3946.9569,N,08404.9849,W,0.0000,0.000,161117,,*3F
2017-11-16 14:26:21 1510860381.954992: $GPGSA,A,3,8,10,15,18,21,20,24,27,32,14,138,,1.6,0.8,1.3*37
2017-11-16 14:26:22 1510860382.505562: $GPZDA,192621.00,16,11,2017,00,00*6A
2017-11-16 14:26:22 1510860382.505724: $GPGGA,192621,3946.9569,N,08404.9849,W,2,11,0.80,303.30,M,-33.324,M,,*70
2017-11-16 14:26:22 1510860382.505786: $GPRMC,192621,A,3946.9569,N,08404.9849,W,0.0000,0.000,161117,,*3E
2017-11-16 14:26:22 1510860382.505842: $GPGSA,A,3,8,10,15,18,21,20,24,27,32,14,138,,1.6,0.8,1.3*37
2017-11-16 14:26:23 1510860383.505238: $GPZDA,192622.00,16,11,2017,00,00*69
2017-11-16 14:26:23 1510860383.505404: $GPGGA,192622,3946.9569,N,08404.9849,W,2,11,0.80,303.30,M,-33.324,M,,*73
2017-11-16 14:26:23 1510860383.505464: $GPRMC,192622,A,3946.9569,N,08404.9849,W,0.0000,0.000,161117,,*3D
2017-11-16 14:26:23 1510860383.505520: $GPGSA,A,3,8,10,15,18,21,20,24,27,32,14,138,,1.6,0.8,1.3*37
2017-11-16 14:26:24 1510860384.843063: $GPGSV,3,1,12,08,07,318,23,10,46,306,47,13,03,051,00,15,33,054,51*7D
2017-11-16 14:26:24 1510860384.843248: $GPGSV,3,2,12,18,74,349,46,21,58,187,45,20,29,100,46,24,52,102,48*78
2017-11-16 14:26:24 1510860384.843310: $GPGSV,3,3,12,27,18,283,42,32,25,241,46,14,08,235,33,138,38,213,42*44
2017-11-16 14:26:24 1510860384.956453: $GPZDA,192623.00,16,11,2017,00,00*68
2017-11-16 14:26:24 1510860384.956606: $GPGGA,192623,3946.9569,N,08404.9849,W,2,11,0.80,303.30,M,-33.324,M,,*72
2017-11-16 14:26:24 1510860384.956667: $GPRMC,192623,A,3946.9569,N,08404.9849,W,0.0000,0.000,161117,,*3C
2017-11-16 14:26:24 1510860384.956723: $GPGSA,A,3,8,10,15,18,21,20,24,27,32,14,138,,1.6,0.8,1.3*37
2017-11-16 14:26:25 1510860385.504712: $GPZDA,192624.00,16,11,2017,00,00*6F
2017-11-16 14:26:25 1510860385.504914: $GPGGA,192624,3946.9569,N,08404.9849,W,2,11,1.00,303.30,M,-33.324,M,,*7C
2017-11-16 14:26:25 1510860385.505020: $GPRMC,192624,A,3946.9569,N,08404.9849,W,0.0000,0.000,161117,,*3B
2017-11-16 14:26:25 1510860385.505108: $GPGSA,A,3,8,10,15,18,21,20,24,27,32,14,138,,1.6,1.0,1.3*3E
2017-11-16 14:26:26 1510860386.505659: $GPZDA,192625.00,16,11,2017,00,00*6E
2017-11-16 14:26:26 1510860386.505825: $GPGGA,192625,3946.9569,N,08404.9849,W,2,11,0.80,303.30,M,-33.324,M,,*74
2017-11-16 14:26:26 1510860386.505888: $GPRMC,192625,A,3946.9569,N,08404.9849,W,0.0000,0.000,161117,,*3A
2017-11-16 14:26:26 1510860386.505945: $GPGSA,A,3,8,10,15,18,21,20,24,27,32,14,138,,1.6,0.8,1.3*37
2017-11-16 14:26:27 1510860387.840347: $GPGSV,3,1,12,08,07,318,29,10,46,306,47,13,03,051,00,15,33,054,51*77
2017-11-16 14:26:27 1510860387.840698: $GPGSV,3,2,12,18,74,349,46,21,58,187,45,20,29,100,46,24,52,102,48*78
2017-11-16 14:26:27 1510860387.840817: $GPGSV,3,3,12,27,18,283,41,32,25,241,46,14,08,235,34,138,38,213,42*40
2017-11-16 14:26:27 1510860387.953648: $GPZDA,192626.00,16,11,2017,00,00*6D
2017-11-16 14:26:27 1510860387.953805: $GPGGA,192626,3946.9569,N,08404.9849,W,2,11,0.80,303.30,M,-33.324,M,,*77
2017-11-16 14:26:27 1510860387.953865: $GPRMC,192626,A,3946.9569,N,08404.9849,W,0.0000,0.000,161117,,*39
2017-11-16 14:26:27 1510860387.953920: $GPGSA,A,3,8,10,15,18,21,20,24,27,32,14,138,,1.6,0.8,1.3*37
2017-11-16 14:26:28 1510860388.506161: $GPZDA,192627.00,16,11,2017,00,00*6C
2017-11-16 14:26:28 1510860388.506347: $GPGGA,192627,3946.9569,N,08404.9849,W,2,11,0.80,303.30,M,-33.324,M,,*76
2017-11-16 14:26:28 1510860388.506408: $GPRMC,192627,A,3946.9569,N,08404.9849,W,0.0000,0.000,161117,,*38
2017-11-16 14:26:28 1510860388.506464: $GPGSA,A,3,8,10,15,18,21,20,24,27,32,14,138,,1.6,0.8,1.3*37
2017-11-16 14:26:29 1510860389.504977: $GPZDA,192628.00,16,11,2017,00,00*63
2017-11-16 14:26:29 1510860389.505197: $GPGGA,192628,3946.9569,N,08404.9849,W,2,11,0.80,303.30,M,-33.324,M,,*79
2017-11-16 14:26:29 1510860389.505259: $GPRMC,192628,A,3946.9569,N,08404.9849,W,0.0000,0.000,161117,,*37
2017-11-16 14:26:29 1510860389.505315: $GPGSA,A,3,8,10,15,18,21,20,24,27,32,14,138,,1.6,0.8,1.3*37
2017-11-16 14:26:30 1510860390.841880: $GPGSV,3,1,12,08,07,318,33,10,46,306,47,13,03,051,00,15,33,054,51*7C
2017-11-16 14:26:30 1510860390.842050: $GPGSV,3,2,12,18,74,349,46,21,58,187,45,20,29,100,45,24,52,102,48*7B
2017-11-16 14:26:30 1510860390.842111: $GPGSV,3,3,12,27,18,283,42,32,25,241,45,14,08,235,34,138,38,213,43*41
2017-11-16 14:26:30 1510860390.955830: $GPZDA,192629.00,16,11,2017,00,00*62
2017-11-16 14:26:30 1510860390.955993: $GPGGA,192629,3946.9569,N,08404.9849,W,2,11,0.80,303.30,M,-33.324,M,,*78
2017-11-16 14:26:30 1510860390.956052: $GPRMC,192629,A,3946.9569,N,08404.9849,W,0.0000,0.000,161117,,*36
2017-11-16 14:26:30 1510860390.956108: $GPGSA,A,3,8,10,15,18,21,20,24,27,32,14,138,,1.6,0.8,1.3*37
2017-11-16 14:26:31 1510860391.504733: $GPZDA,192630.00,16,11,2017,00,00*6A
2017-11-16 14:26:31 1510860391.504904: $GPGGA,192630,3946.9569,N,08404.9849,W,2,11,0.80,303.30,M,-33.324,M,,*70
2017-11-16 14:26:31 1510860391.504966: $GPRMC,192630,A,3946.9569,N,08404.9849,W,0.0000,0.000,161117,,*3E
2017-11-16 14:26:31 1510860391.505022: $GPGSA,A,3,8,10,15,18,21,20,24,27,32,14,138,,1.6,0.8,1.3*37
2017-11-16 14:26:32 1510860392.535658: $GPZDA,192631.00,16,11,2017,00,00*6B
2017-11-16 14:26:32 1510860392.535837: $GPGGA,192631,3946.9569,N,08404.9849,W,2,11,0.80,303.30,M,-33.324,M,,*71
2017-11-16 14:26:32 1510860392.535900: $GPRMC,192631,A,3946.9569,N,08404.9849,W,0.0000,0.000,161117,,*3F
2017-11-16 14:26:32 1510860392.535955: $GPGSA,A,3,8,10,15,18,21,20,24,27,32,14,138,,1.6,0.8,1.3*37
2017-11-16 14:26:33 1510860393.840278: $GPGSV,3,1,12,08,07,318,40,10,46,306,47,13,03,051,00,15,33,054,50*79
2017-11-16 14:26:33 1510860393.840495: $GPGSV,3,2,12,18,74,349,46,21,58,187,45,20,29,100,45,24,52,102,48*7B
2017-11-16 14:26:33 1510860393.840555: $GPGSV,3,3,12,27,18,283,42,32,25,241,45,14,08,235,34,138,38,213,44*46
2017-11-16 14:26:33 1510860393.954252: $GPZDA,192632.00,16,11,2017,00,00*68
2017-11-16 14:26:33 1510860393.954419: $GPGGA,192632,3946.9569,N,08404.9849,W,2,11,0.80,303.30,M,-33.324,M,,*72
2017-11-16 14:26:33 1510860393.954482: $GPRMC,192632,A,3946.9569,N,08404.9849,W,0.0000,0.000,161117,,*3C
2017-11-16 14:26:33 1510860393.954538: $GPGSA,A,3,8,10,15,18,21,20,24,27,32,14,138,,1.6,0.8,1.3*37
2017-11-16 14:26:34 1510860394.580220: $GPZDA,192633.00,16,11,2017,00,00*69
2017-11-16 14:26:34 1510860394.580439: $GPGGA,192633,3946.9569,N,08404.9849,W,2,11,0.80,303.30,M,-33.324,M,,*73
2017-11-16 14:26:34 1510860394.580504: $GPRMC,192633,A,3946.9569,N,08404.9849,W,0.0000,0.000,161117,,*3D
2017-11-16 14:26:34 1510860394.580560: $GPGSA,A,3,8,10,15,18,21,20,24,27,32,14,138,,1.6,0.8,1.3*37
2017-11-16 14:26:35 1510860395.534830: $GPZDA,192634.00,16,11,2017,00,00*6E
2017-11-16 14:26:35 1510860395.535005: $GPGGA,192634,3946.9569,N,08404.9849,W,2,11,0.80,303.30,M,-33.324,M,,*74
2017-11-16 14:26:35 1510860395.535068: $GPRMC,192634,A,3946.9569,N,08404.9849,W,0.0000,0.000,161117,,*3A
2017-11-16 14:26:35 1510860395.535124: $GPGSA,A,3,8,10,15,18,21,20,24,27,32,14,138,,1.6,0.8,1.3*37
2017-11-16 14:26:36 1510860396.868158: $GPGSV,3,1,12,08,07,318,41,10,46,306,47,13,03,051,00,15,33,054,51*79
2017-11-16 14:26:36 1510860396.868333: $GPGSV,3,2,12,18,74,349,46,21,58,187,45,20,29,100,45,24,52,102,47*74
2017-11-16 14:26:36 1510860396.868394: $GPGSV,3,3,12,27,18,283,41,32,25,241,44,14,08,235,35,138,38,213,43*42
2017-11-16 14:26:36 1510860396.981608: $GPZDA,192635.00,16,11,2017,00,00*6F
2017-11-16 14:26:36 1510860396.981771: $GPGGA,192635,3946.9569,N,08404.9849,W,2,11,0.80,303.30,M,-33.324,M,,*75
2017-11-16 14:26:36 1510860396.981832: $GPRMC,192635,A,3946.9569,N,08404.9849,W,0.0000,0.000,161117,,*3B
2017-11-16 14:26:36 1510860396.981888: $GPGSA,A,3,8,10,15,18,21,20,24,27,32,14,138,,1.6,0.8,1.3*37
2017-11-16 14:26:37 1510860397.536669: $GPZDA,192636.00,16,11,2017,00,00*6C
2017-11-16 14:26:37 1510860397.536835: $GPGGA,192636,3946.9569,N,08404.9849,W,2,11,0.80,303.30,M,-33.324,M,,*76
2017-11-16 14:26:37 1510860397.536896: $GPRMC,192636,A,3946.9569,N,08404.9849,W,0.0000,0.000,161117,,*38
2017-11-16 14:26:37 1510860397.536952: $GPGSA,A,3,8,10,15,18,21,20,24,27,32,14,138,,1.6,0.8,1.3*37
2017-11-16 14:26:38 1510860398.504632: $GPZDA,192637.00,16,11,2017,00,00*6D
2017-11-16 14:26:38 1510860398.504794: $GPGGA,192637,3946.9569,N,08404.9849,W,2,11,0.80,303.30,M,-33.324,M,,*77
2017-11-16 14:26:38 1510860398.504854: $GPRMC,192637,A,3946.9569,N,08404.9849,W,0.0000,0.000,161117,,*39
2017-11-16 14:26:38 1510860398.504910: $GPGSA,A,3,8,10,15,18,21,20,24,27,32,14,138,,1.6,0.8,1.3*37
2017-11-16 14:26:39 1510860399.839896: $GPGSV,3,1,12,08,07,318,42,10,46,306,47,13,03,051,00,15,33,054,51*7A
2017-11-16 14:26:39 1510860399.840047: $GPGSV,3,2,12,18,74,349,46,21,58,187,45,20,29,100,45,24,52,102,47*74
2017-11-16 14:26:39 1510860399.840107: $GPGSV,3,3,12,27,18,283,41,32,25,241,45,14,08,235,35,138,38,213,44*44
2017-11-16 14:26:39 1510860399.953274: $GPZDA,192638.00,16,11,2017,00,00*62
2017-11-16 14:26:39 1510860399.953449: $GPGGA,192638,3946.9569,N,08404.9849,W,2,11,0.80,303.30,M,-33.324,M,,*78
2017-11-16 14:26:39 1510860399.953511: $GPRMC,192638,A,3946.9569,N,08404.9849,W,0.0000,0.000,161117,,*36
2017-11-16 14:26:39 1510860399.953566: $GPGSA,A,3,8,10,15,18,21,20,24,27,32,14,138,,1.6,0.8,1.3*37
2017-11-16 14:26:40 1510860400.506604: $GPZDA,192639.00,16,11,2017,00,00*63
2017-11-16 14:26:40 1510860400.506767: $GPGGA,192639,3946.9569,N,08404.9849,W,2,11,0.80,303.30,M,-33.324,M,,*79
2017-11-16 14:26:40 1510860400.506829: $GPRMC,192639,A,3946.9569,N,08404.9849,W,0.0000,0.000,161117,,*37
2017-11-16 14:26:40 1510860400.506884: $GPGSA,A,3,8,10,15,18,21,20,24,27,32,14,138,,1.6,0.8,1.3*37
2017-11-16 14:26:41 1510860401.504932: $GPZDA,192640.00,16,11,2017,00,00*6D
2017-11-16 14:26:41 1510860401.505096: $GPGGA,192640,3946.9569,N,08404.9849,W,2,11,0.80,303.30,M,-33.324,M,,*77
2017-11-16 14:26:41 1510860401.505158: $GPRMC,192640,A,3946.9569,N,08404.9849,W,0.0000,0.000,161117,,*39
2017-11-16 14:26:41 1510860401.505214: $GPGSA,A,3,8,10,15,18,21,20,24,27,32,14,138,,1.6,0.8,1.3*37
2017-11-16 14:26:42 1510860402.873363: $GPGSV,3,1,12,08,07,318,42,10,46,306,47,13,03,051,17,15,33,054,51*7C
2017-11-16 14:26:42 1510860402.873549: $GPGSV,3,2,12,18,74,349,46,21,58,187,46,20,29,100,46,24,52,102,47*74
2017-11-16 14:26:42 1510860402.873611: $GPGSV,3,3,12,27,18,283,41,32,25,241,45,14,08,235,36,138,38,213,44*47
2017-11-16 14:26:42 1510860402.987041: $GPZDA,192641.00,16,11,2017,00,00*6C
2017-11-16 14:26:42 1510860402.987198: $GPGGA,192641,3946.9569,N,08404.9849,W,2,12,0.80,303.30,M,-33.324,M,,*75
2017-11-16 14:26:42 1510860402.987260: $GPRMC,192641,A,3946.9569,N,08404.9849,W,0.0000,0.000,161117,,*38
2017-11-16 14:26:42 1510860402.987339: $GPGSA,A,3,8,10,13,15,18,21,20,24,27,32,14,138,1.6,0.8,1.3*35
2017-11-16 14:26:43 1510860403.504134: $GPZDA,192642.00,16,11,2017,00,00*6F
2017-11-16 14:26:43 1510860403.504313: $GPGGA,192642,3946.9569,N,08404.9849,W,2,12,0.80,303.30,M,-33.324,M,,*76
2017-11-16 14:26:43 1510860403.504375: $GPRMC,192642,A,3946.9569,N,08404.9849,W,0.0000,0.000,161117,,*3B
2017-11-16 14:26:43 1510860403.504449: $GPGSA,A,3,8,10,13,15,18,21,20,24,27,32,14,138,1.6,0.8,1.3*35
2017-11-16 14:26:44 1510860404.529127: $GPZDA,192643.00,16,11,2017,00,00*6E
2017-11-16 14:26:44 1510860404.529307: $GPGGA,192643,3946.9569,N,08404.9849,W,2,12,0.80,303.30,M,-33.324,M,,*77
2017-11-16 14:26:44 1510860404.529371: $GPRMC,192643,A,3946.9569,N,08404.9849,W,0.0000,0.000,161117,,*3A
2017-11-16 14:26:44 1510860404.529444: $GPGSA,A,3,8,10,13,15,18,21,20,24,27,32,14,138,1.6,0.8,1.3*35
