2017-11-15 19:01:15 1510790475.402027: {"class":"VERSION","release":"3.17","rev":"3.17","proto_major":3,"proto_minor":12}
2017-11-15 19:01:15 1510790475.402531: {"class":"DEVICES","devices":[{"class":"DEVICE","path":"/dev/ttyUSB0","driver":"SiRF","subtype":"9\u0006GSD4e_4.1.2-P1_RPATCH.05-F-GPS-4R-1510281 11/03/2015 307","activated":"2017-11-16T00:01:15.213Z","flags":1,"native":1,"bps":4800,"parity":"N","stopbits":1,"cycle":1.00}]}
2017-11-15 19:01:15 1510790475.402653: {"class":"WATCH","enable":true,"json":false,"nmea":true,"raw":0,"scaled":false,"timing":false,"split24":false,"pps":false}
2017-11-15 19:01:15 1510790475.662613: $GPGSV,3,1,12,16,09,190,11,14,63,070,20,32,46,094,00,10,09,159,00*70
2017-11-15 19:01:15 1510790475.662786: $GPGSV,3,2,12,31,77,349,19,26,38,177,16,22,47,289,17,25,27,046,13*72
2017-11-15 19:01:15 1510790475.662848: $GPGSV,3,3,12,29,05,082,14,03,31,310,00,01,13,262,00,133,44,201,00*4F
2017-11-15 19:01:15 1510790475.776069: $GPZDA,000114.00,16,11,2017,00,00*61
2017-11-15 19:01:15 1510790475.776237: $GPGGA,000114,3946.9656,N,08404.9597,W,1,06,4.40,307.27,M,-33.324,M,,*75
2017-11-15 19:01:15 1510790475.776304: $GPRMC,000114,A,3946.9656,N,08404.9597,W,0.8359,148.778,161117,,*36
2017-11-15 19:01:15 1510790475.776361: $GPGSA,A,3,14,31,26,22,25,29,,,,,,,3.4,4.4,2.9*31
2017-11-15 19:01:16 1510790476.401383: $GPZDA,000115.00,16,11,2017,00,00*60
2017-11-15 19:01:16 1510790476.401543: $GPGGA,000115,3946.9652,N,08404.9590,W,1,06,4.40,306.71,M,-33.324,M,,*75
2017-11-15 19:01:16 1510790476.401603: $GPRMC,000115,A,3946.9652,N,08404.9590,W,1.2538,148.778,161117,,*3E
2017-11-15 19:01:16 1510790476.401660: $GPGSA,A,3,14,31,26,22,25,29,,,,,,,3.4,4.4,2.9*31
2017-11-15 19:01:17 1510790477.324925: $GPRMC,000116,V,3946.9644,N,08404.9591,W,1.2538,148.778,161117,,*2C
2017-11-15 19:01:17 1510790477.325092: $GPGSA,A,1,14,31,26,22,25,29,,,,,,,,,,*3D
2017-11-15 19:01:18 1510790478.661712: $GPGSV,3,1,12,32,46,094,00,14,63,070,20,10,09,159,00,03,31,310,00*75
2017-11-15 19:01:18 1510790478.661884: $GPGSV,3,2,12,31,77,349,18,26,38,177,15,22,47,289,17,25,27,046,11*72
2017-11-15 19:01:18 1510790478.661944: $GPGSV,3,3,12,29,05,082,14,01,13,262,00,16,09,190,00,133,44,201,00*4A
2017-11-15 19:01:18 1510790478.774133: $GPRMC,000117,V,3946.9636,N,08404.9592,W,1.1323,158.868,161117,,*2B
2017-11-15 19:01:18 1510790478.774309: $GPGSA,A,1,14,31,26,22,25,29,,,,,,,,,,*3D
2017-11-15 19:01:19 1510790479.325053: $GPRMC,000118,V,3946.9629,N,08404.9586,W,1.4168,152.696,161117,,*22
2017-11-15 19:01:19 1510790479.325233: $GPGSA,A,1,14,31,26,22,25,29,,,,,,,,,,*3D
2017-11-15 19:01:20 1510790480.327060: $GPRMC,000119,V,3946.9621,N,08404.9586,W,1.7754,168.363,161117,,*27
2017-11-15 19:01:20 1510790480.327236: $GPGSA,A,1,14,31,26,22,25,29,,,,,,,,,,*3D
2017-11-15 19:01:21 1510790481.662258: $GPGSV,3,1,12,32,46,094,06,14,63,070,20,10,09,159,00,03,31,310,00*73
2017-11-15 19:01:21 1510790481.662457: $GPGSV,3,2,12,31,77,349,17,26,38,177,14,22,47,289,18,25,27,046,11*73
2017-11-15 19:01:21 1510790481.662517: $GPGSV,3,3,12,29,05,082,14,01,13,262,00,16,09,190,00,133,44,201,00*4A
2017-11-15 19:01:21 1510790481.774595: $GPRMC,000120,V,3946.9613,N,08404.9587,W,1.9132,176.511,161117,,*29
2017-11-15 19:01:21 1510790481.774761: $GPGSA,A,1,14,31,26,22,25,29,,,,,,,,,,*3D
2017-11-15 19:01:22 1510790482.325318: $GPRMC,000121,V,3946.9605,N,08404.9581,W,2.4397,160.449,161117,,*21
2017-11-15 19:01:22 1510790482.325482: $GPGSA,A,1,14,31,26,22,25,29,,,,,,,,,,*3D
2017-11-15 19:01:23 1510790483.326090: $GPZDA,000122.00,16,11,2017,00,00*64
2017-11-15 19:01:23 1510790483.326275: $GPGGA,000122,3946.9594,N,08404.9581,W,1,06,4.40,307.10,M,-33.324,M,,*7E
2017-11-15 19:01:23 1510790483.326335: $GPRMC,000122,A,3946.9594,N,08404.9581,W,2.7565,163.316,161117,,*38
2017-11-15 19:01:23 1510790483.326392: $GPGSA,A,3,14,31,26,22,25,29,,,,,,,3.4,4.4,2.9*31
2017-11-15 19:01:23 1510790483.326443: $GPGBS,000122,13.59,M,20.35,M,67.34,M*03
2017-11-15 19:01:24 1510790484.661722: $GPGSV,3,1,11,32,46,094,04,14,63,070,21,10,09,159,00,03,31,310,00*73
2017-11-15 19:01:24 1510790484.661892: $GPGSV,3,2,11,31,77,349,16,26,38,177,13,22,47,289,18,25,27,046,10*77
2017-11-15 19:01:24 1510790484.662004: $GPGSV,3,3,11,29,05,082,14,01,13,262,00,16,09,190,00*4B
2017-11-15 19:01:24 1510790484.775365: $GPZDA,000123.00,16,11,2017,00,00*65
2017-11-15 19:01:24 1510790484.775525: $GPGGA,000123,3946.9578,N,08404.9576,W,1,06,4.40,307.42,M,-33.324,M,,*72
2017-11-15 19:01:24 1510790484.775585: $GPRMC,000123,A,3946.9578,N,08404.9576,W,3.3771,153.792,161117,,*3A
2017-11-15 19:01:24 1510790484.775641: $GPGSA,A,3,14,31,26,22,25,29,,,,,,,3.4,4.4,2.9*31
2017-11-15 19:01:25 1510790485.328069: $GPZDA,000124.00,16,11,2017,00,00*62
2017-11-15 19:01:25 1510790485.328249: $GPGGA,000124,3946.9570,N,08404.9570,W,1,06,4.40,307.63,M,-33.324,M,,*78
2017-11-15 19:01:25 1510790485.328310: $GPRMC,000124,A,3946.9570,N,08404.9570,W,2.9660,148.686,161117,,*37
2017-11-15 19:01:25 1510790485.328366: $GPGSA,A,3,14,31,26,22,25,29,,,,,,,3.4,4.4,2.9*31
