2017-12-31 18:08:21 1514761701.511358: {"class":"VERSION","release":"3.16","rev":"3.16-4","proto_major":3,"proto_minor":11}
2017-12-31 18:08:21 1514761701.511706: {"class":"DEVICES","devices":[{"class":"DEVICE","path":"/dev/ttyUSB0","driver":"SiRF","activated":"2017-12-31T23:08:21.235Z","flags":1,"native":1,"bps":4800,"parity":"N","stopbits":1,"cycle":1.00}]}
2017-12-31 18:08:21 1514761701.511806: {"class":"WATCH","enable":true,"json":false,"nmea":true,"raw":0,"scaled":false,"timing":false,"split24":false,"pps":false}
2017-12-31 18:08:21 1514761701.684875: $GPGSV,3,1,11,22,22,214,41,23,53,306,46,09,20,312,39,03,32,234,44*7F
2017-12-31 18:08:21 1514761701.685054: $GPGSV,3,2,11,16,80,189,44,29,05,031,34,14,15,133,34,31,29,075,41*75
2017-12-31 18:08:21 1514761701.685120: $GPGSV,3,3,11,27,22,154,33,26,62,051,49,135,22,240,44*74
2017-12-31 18:08:21 1514761701.798472: $GPZDA,230822.00,31,12,2017,00,00*6A
2017-12-31 18:08:21 1514761701.798626: $GPGGA,230822,3946.9561,N,08404.9874,W,2,11,0.60,308.17,M,-33.324,M,,*70
2017-12-31 18:08:21 1514761701.798692: $GPRMC,230822,A,3946.9561,N,08404.9874,W,0.0000,0.000,311217,,*38
2017-12-31 18:08:21 1514761701.798752: $GPGSA,A,3,22,23,9,3,16,29,14,31,27,26,135,,1.7,0.6,1.3*06
2017-12-31 18:08:22 1514761702.376786: $GPZDA,230823.00,31,12,2017,00,00*6B
2017-12-31 18:08:22 1514761702.376947: $GPGGA,230823,3946.9561,N,08404.9874,W,2,11,0.60,308.17,M,-33.324,M,,*71
2017-12-31 18:08:22 1514761702.377014: $GPRMC,230823,A,3946.9561,N,08404.9874,W,0.0000,0.000,311217,,*39
2017-12-31 18:08:22 1514761702.377075: $GPGSA,A,3,22,23,9,3,16,29,14,31,27,26,135,,1.7,0.6,1.3*06
2017-12-31 18:08:23 1514761703.377689: $GPZDA,230824.00,31,12,2017,00,00*6C
2017-12-31 18:08:23 1514761703.377859: $GPGGA,230824,3946.9561,N,08404.9874,W,2,11,0.60,308.17,M,-33.324,M,,*76
2017-12-31 18:08:23 1514761703.377926: $GPRMC,230824,A,3946.9561,N,08404.9874,W,0.0000,0.000,311217,,*3E
2017-12-31 18:08:23 1514761703.377988: $GPGSA,A,3,22,23,9,3,16,29,14,31,27,26,135,,1.7,0.6,1.3*06
2017-12-31 18:08:24 1514761704.683099: $GPGSV,3,1,11,22,22,214,41,23,53,306,46,09,20,312,38,03,32,234,44*7E
2017-12-31 18:08:24 1514761704.683280: $GPGSV,3,2,11,16,80,189,44,29,05,031,27,14,15,133,34,31,29,075,41*77
2017-12-31 18:08:24 1514761704.683346: $GPGSV,3,3,11,27,22,154,33,26,62,051,49,135,22,240,43*73
2017-12-31 18:08:24 1514761704.796763: $GPZDA,230825.00,31,12,2017,00,00*6D
2017-12-31 18:08:24 1514761704.796933: $GPGGA,230825,3946.9561,N,08404.9874,W,2,11,0.60,308.17,M,-33.324,M,,*77
2017-12-31 18:08:24 1514761704.797000: $GPRMC,230825,A,3946.9561,N,08404.9874,W,0.0000,0.000,311217,,*3F
2017-12-31 18:08:24 1514761704.797061: $GPGSA,A,3,22,23,9,3,16,29,14,31,27,26,135,,1.7,0.6,1.3*06
2017-12-31 18:08:25 1514761705.422088: $GPZDA,230826.00,31,12,2017,00,00*6E
2017-12-31 18:08:25 1514761705.422259: $GPGGA,230826,3946.9561,N,08404.9874,W,2,11,0.60,308.17,M,-33.324,M,,*74
2017-12-31 18:08:25 1514761705.422344: $GPRMC,230826,A,3946.9561,N,08404.9874,W,0.0000,0.000,311217,,*3C
2017-12-31 18:08:25 1514761705.422426: $GPGSA,A,3,22,23,9,3,16,29,14,31,27,26,135,,1.7,0.6,1.3*06
2017-12-31 18:08:26 1514761706.349250: $GPZDA,230827.00,31,12,2017,00,00*6F
2017-12-31 18:08:26 1514761706.349418: $GPGGA,230827,3946.9561,N,08404.9874,W,2,11,0.60,308.17,M,-33.324,M,,*75
2017-12-31 18:08:26 1514761706.349486: $GPRMC,230827,A,3946.9561,N,08404.9874,W,0.0000,0.000,311217,,*3D
2017-12-31 18:08:26 1514761706.349547: $GPGSA,A,3,22,23,9,3,16,29,14,31,27,26,135,,1.7,0.6,1.3*06
2017-12-31 18:08:27 1514761707.684708: $GPGSV,3,1,11,22,22,214,41,23,53,306,46,09,20,312,34,03,32,234,44*72
2017-12-31 18:08:27 1514761707.684864: $GPGSV,3,2,11,16,80,189,44,29,05,031,26,14,15,133,34,31,29,075,41*76
2017-12-31 18:08:27 1514761707.684929: $GPGSV,3,3,11,27,22,154,33,26,62,051,49,135,22,240,45*75
2017-12-31 18:08:27 1514761707.798395: $GPZDA,230828.00,31,12,2017,00,00*60
2017-12-31 18:08:27 1514761707.798565: $GPGGA,230828,3946.9561,N,08404.9874,W,2,11,0.60,308.17,M,-33.324,M,,*7A
2017-12-31 18:08:27 1514761707.798631: $GPRMC,230828,A,3946.9561,N,08404.9874,W,0.0000,0.000,311217,,*32
2017-12-31 18:08:27 1514761707.798745: $GPGSA,A,3,22,23,9,3,16,29,14,31,27,26,135,,1.7,0.6,1.3*06
2017-12-31 18:08:28 1514761708.347987: $GPZDA,230829.00,31,12,2017,00,00*61
2017-12-31 18:08:28 1514761708.348146: $GPGGA,230829,3946.9561,N,08404.9874,W,2,11,0.60,308.17,M,-33.324,M,,*7B
2017-12-31 18:08:28 1514761708.348211: $GPRMC,230829,A,3946.9561,N,08404.9874,W,0.0000,0.000,311217,,*33
2017-12-31 18:08:28 1514761708.348272: $GPGSA,A,3,22,23,9,3,16,29,14,31,27,26,135,,1.7,0.6,1.3*06
2017-12-31 18:08:29 1514761709.348623: $GPZDA,230830.00,31,12,2017,00,00*69
2017-12-31 18:08:29 1514761709.348794: $GPGGA,230830,3946.9561,N,08404.9874,W,2,11,0.60,308.17,M,-33.324,M,,*73
2017-12-31 18:08:29 1514761709.348860: $GPRMC,230830,A,3946.9561,N,08404.9874,W,0.0000,0.000,311217,,*3B
2017-12-31 18:08:29 1514761709.348921: $GPGSA,A,3,22,23,9,3,16,29,14,31,27,26,135,,1.7,0.6,1.3*06
2017-12-31 18:08:30 1514761710.678819: $GPGSV,3,1,11,22,22,214,40,23,53,306,45,09,20,312,37,03,32,234,44*73
2017-12-31 18:08:30 1514761710.679012: $GPGSV,3,2,11,16,80,189,44,29,05,031,32,14,15,133,33,31,29,075,41*74
2017-12-31 18:08:30 1514761710.679100: $GPGSV,3,3,11,27,22,154,33,26,62,051,48,135,22,240,44*75
2017-12-31 18:08:30 1514761710.791197: $GPZDA,230831.00,31,12,2017,00,00*68
2017-12-31 18:08:30 1514761710.791352: $GPGGA,230831,3946.9561,N,08404.9874,W,2,11,0.60,308.17,M,-33.324,M,,*72
2017-12-31 18:08:30 1514761710.791418: $GPRMC,230831,A,3946.9561,N,08404.9874,W,0.0000,0.000,311217,,*3A
2017-12-31 18:08:30 1514761710.791478: $GPGSA,A,3,22,23,9,3,16,29,14,31,27,26,135,,1.7,0.6,1.3*06
2017-12-31 18:08:31 1514761711.349627: $GPZDA,230832.00,31,12,2017,00,00*6B
2017-12-31 18:08:31 1514761711.349790: $GPGGA,230832,3946.9561,N,08404.9874,W,2,11,0.60,308.17,M,-33.324,M,,*71
2017-12-31 18:08:31 1514761711.349858: $GPRMC,230832,A,3946.9561,N,08404.9874,W,0.0000,0.000,311217,,*39
2017-12-31 18:08:31 1514761711.349919: $GPGSA,A,3,22,23,9,3,16,29,14,31,27,26,135,,1.7,0.6,1.3*06
