2018-01-11 20:11:52 1515719512.080634: {"class":"VERSION","release":"3.16","rev":"3.16-4","proto_major":3,"proto_minor":11}
2018-01-11 20:11:52 1515719512.080995: {"class":"DEVICES","devices":[{"class":"DEVICE","path":"/dev/ttyUSB0","driver":"SiRF","subtype":"9\u0006GSD4e_4.1.2-P1_RPATCH.05-F-GPS-4R-1510281 11/03/2015 307","activated":"2018-01-12T01:11:51.489Z","flags":1,"native":1,"bps":4800,"parity":"N","stopbits":1,"cycle":1.00}]}
2018-01-11 20:11:52 1515719512.081110: {"class":"WATCH","enable":true,"json":false,"nmea":true,"raw":0,"scaled":false,"timing":false,"split24":false,"pps":false}
2018-01-11 20:11:52 1515719512.348507: $GPZDA,011153.00,12,01,2018,00,00*68
2018-01-11 20:11:52 1515719512.348679: $GPGGA,011153,3946.9590,N,08404.9866,W,2,10,0.80,298.48,M,-33.324,M,,*7E
2018-01-11 20:11:52 1515719512.348744: $GPRMC,011153,A,3946.9590,N,08404.9866,W,0.0000,0.000,120118,,*37
2018-01-11 20:11:52 1515719512.348805: $GPGSA,A,3,7,8,9,11,16,23,27,28,30,138,,,4.0,0.8,3.5*3E
2018-01-11 20:11:53 1515719513.685353: $GPGSV,3,1,10,07,56,315,42,08,74,130,46,09,47,229,42,11,20,168,48*70
2018-01-11 20:11:53 1515719513.685503: $GPGSV,3,2,10,16,23,060,46,23,29,189,46,27,47,052,48,28,14,258,37*7A
2018-01-11 20:11:53 1515719513.685568: $GPGSV,3,3,10,30,29,306,31,138,38,213,45*47
2018-01-11 20:11:53 1515719513.798786: $GPZDA,011154.00,12,01,2018,00,00*6F
2018-01-11 20:11:53 1515719513.798905: $GPGGA,011154,3946.9590,N,08404.9866,W,2,10,0.80,298.48,M,-33.324,M,,*79
2018-01-11 20:11:53 1515719513.798969: $GPRMC,011154,A,3946.9590,N,08404.9866,W,0.0000,0.000,120118,,*30
2018-01-11 20:11:53 1515719513.799131: $GPGSA,A,3,7,8,9,11,16,23,27,28,30,138,,,4.0,0.8,3.5*3E
2018-01-11 20:11:54 1515719514.349777: $GPZDA,011155.00,12,01,2018,00,00*6E
2018-01-11 20:11:54 1515719514.349944: $GPGGA,011155,3946.9590,N,08404.9866,W,2,10,0.80,298.48,M,-33.324,M,,*78
2018-01-11 20:11:54 1515719514.350011: $GPRMC,011155,A,3946.9590,N,08404.9866,W,0.0000,0.000,120118,,*31
2018-01-11 20:11:54 1515719514.350071: $GPGSA,A,3,7,8,9,11,16,23,27,28,30,138,,,4.0,0.8,3.5*3E
2018-01-11 20:11:55 1515719515.348834: $GPZDA,011156.00,12,01,2018,00,00*6D
2018-01-11 20:11:55 1515719515.348996: $GPGGA,011156,3946.9590,N,08404.9866,W,2,10,0.80,298.48,M,-33.324,M,,*7B
2018-01-11 20:11:55 1515719515.349118: $GPRMC,011156,A,3946.9590,N,08404.9866,W,0.0000,0.000,120118,,*32
2018-01-11 20:11:55 1515719515.349181: $GPGSA,A,3,7,8,9,11,16,23,27,28,30,138,,,4.0,0.8,3.5*3E
2018-01-11 20:11:56 1515719516.681995: $GPGSV,3,1,10,07,56,315,42,08,74,130,46,09,47,229,42,11,20,168,48*70
2018-01-11 20:11:56 1515719516.682168: $GPGSV,3,2,10,16,23,060,46,23,29,189,47,27,47,052,48,28,14,258,38*74
2018-01-11 20:11:56 1515719516.682235: $GPGSV,3,3,10,30,29,306,32,138,38,213,45*44
2018-01-11 20:11:56 1515719516.795378: $GPZDA,011157.00,12,01,2018,00,00*6C
2018-01-11 20:11:56 1515719516.795506: $GPGGA,011157,3946.9590,N,08404.9866,W,2,10,0.80,298.48,M,-33.324,M,,*7A
2018-01-11 20:11:56 1515719516.795586: $GPRMC,011157,A,3946.9590,N,08404.9866,W,0.0000,0.000,120118,,*33
2018-01-11 20:11:56 1515719516.795648: $GPGSA,A,3,7,8,9,11,16,23,27,28,30,138,,,4.0,0.8,3.5*3E
2018-01-11 20:11:57 1515719517.348808: $GPZDA,011158.00,12,01,2018,00,00*63
2018-01-11 20:11:57 1515719517.348982: $GPGGA,011158,3946.9590,N,08404.9866,W,2,10,0.80,298.48,M,-33.324,M,,*75
2018-01-11 20:11:57 1515719517.349105: $GPRMC,011158,A,3946.9590,N,08404.9866,W,0.0000,0.000,120118,,*3C
2018-01-11 20:11:57 1515719517.349169: $GPGSA,A,3,7,8,9,11,16,23,27,28,30,138,,,4.0,0.8,3.5*3E
2018-01-11 20:11:58 1515719518.349768: $GPZDA,011159.00,12,01,2018,00,00*62
2018-01-11 20:11:58 1515719518.349902: $GPGGA,011159,3946.9590,N,08404.9866,W,2,10,0.80,298.48,M,-33.324,M,,*74
2018-01-11 20:11:58 1515719518.349983: $GPRMC,011159,A,3946.9590,N,08404.9866,W,0.0000,0.000,120118,,*3D
2018-01-11 20:11:58 1515719518.350045: $GPGSA,A,3,7,8,9,11,16,23,27,28,30,138,,,4.0,0.8,3.5*3E
2018-01-11 20:11:59 1515719519.684117: $GPGSV,3,1,10,07,56,315,42,08,74,130,46,09,47,229,42,11,20,168,48*70
2018-01-11 20:11:59 1515719519.684283: $GPGSV,3,2,10,16,23,060,46,23,29,189,47,27,47,052,48,28,14,258,37*7B
2018-01-11 20:11:59 1515719519.684396: $GPGSV,3,3,10,30,29,306,32,138,38,213,44*45
2018-01-11 20:11:59 1515719519.797578: $GPZDA,011200.00,12,01,2018,00,00*6D
2018-01-11 20:11:59 1515719519.797721: $GPGGA,011200,3946.9590,N,08404.9866,W,2,10,0.80,298.48,M,-33.324,M,,*7B
2018-01-11 20:11:59 1515719519.797789: $GPRMC,011200,A,3946.9590,N,08404.9866,W,0.0000,0.000,120118,,*32
2018-01-11 20:11:59 1515719519.797852: $GPGSA,A,3,7,8,9,11,16,23,27,28,30,138,,,4.0,0.8,3.5*3E
2018-01-11 20:12:00 1515719520.422814: $GPZDA,011201.00,12,01,2018,00,00*6C
2018-01-11 20:12:00 1515719520.422992: $GPGGA,011201,3946.9590,N,08404.9866,W,2,10,0.80,298.48,M,-33.324,M,,*7A
2018-01-11 20:12:00 1515719520.423059: $GPRMC,011201,A,3946.9590,N,08404.9866,W,0.0000,0.000,120118,,*33
2018-01-11 20:12:00 1515719520.423121: $GPGSA,A,3,7,8,9,11,16,23,27,28,30,138,,,4.0,0.8,3.5*3E
2018-01-11 20:12:01 1515719521.841976: $GPZDA,011202.00,12,01,2018,00,00*6F
2018-01-11 20:12:02 1515719522.210880: $GPGGA,011202,3946.9594,N,08404.9859,W,2,10,0.80,299.20,M,-33.324,M,,*7E
2018-01-11 20:12:02 1515719522.211037: $GPRMC,011202,A,3946.9594,N,08404.9859,W,0.0000,0.000,120118,,*38
2018-01-11 20:12:02 1515719522.211108: $GPGSA,A,3,7,8,9,11,16,23,27,28,30,138,,,4.0,0.8,3.5*3E
2018-01-11 20:12:02 1515719522.683931: $GPGSV,3,1,10,07,56,315,42,08,74,129,46,09,47,228,42,11,20,168,48*79
2018-01-11 20:12:02 1515719522.684087: $GPGSV,3,2,10,16,22,060,46,23,28,189,47,27,47,052,48,28,14,259,38*75
2018-01-11 20:12:02 1515719522.684155: $GPGSV,3,3,10,30,29,306,32,138,38,213,45*44
2018-01-11 20:12:02 1515719522.796020: $GPZDA,011203.00,12,01,2018,00,00*6E
2018-01-11 20:12:02 1515719522.796150: $GPGGA,011203,3946.9594,N,08404.9859,W,2,10,0.80,299.20,M,-33.324,M,,*7F
2018-01-11 20:12:02 1515719522.796217: $GPRMC,011203,A,3946.9594,N,08404.9859,W,0.0000,0.000,120118,,*39
2018-01-11 20:12:02 1515719522.796281: $GPGSA,A,3,7,8,9,11,16,23,27,28,30,138,,,4.0,0.8,3.5*3E
2018-01-11 20:12:03 1515719523.348487: $GPZDA,011204.00,12,01,2018,00,00*69
2018-01-11 20:12:03 1515719523.348659: $GPGGA,011204,3946.9594,N,08404.9859,W,2,10,0.80,299.20,M,-33.324,M,,*78
2018-01-11 20:12:03 1515719523.348733: $GPRMC,011204,A,3946.9594,N,08404.9859,W,0.0000,0.000,120118,,*3E
2018-01-11 20:12:03 1515719523.348797: $GPGSA,A,3,7,8,9,11,16,23,27,28,30,138,,,4.0,0.8,3.5*3E
