2017-11-15 19:27:11 1510792031.223471: {"class":"VERSION","release":"3.17","rev":"3.17","proto_major":3,"proto_minor":12}
2017-11-15 19:27:11 1510792031.224047: {"class":"DEVICES","devices":[{"class":"DEVICE","path":"/dev/ttyUSB0","driver":"SiRF","subtype":"9\u0006GSD4e_4.1.2-P1_RPATCH.05-F-GPS-4R-1510281 11/03/2015 307","activated":"2017-11-16T00:27:11.215Z","flags":1,"native":1,"bps":4800,"parity":"N","stopbits":1,"cycle":1.00}]}
2017-11-15 19:27:11 1510792031.224162: {"class":"WATCH","enable":true,"json":false,"nmea":true,"raw":0,"scaled":false,"timing":false,"split24":false,"pps":false}
2017-11-15 19:27:11 1510792031.328374: $GPZDA,002710.00,16,11,2017,00,00*61
2017-11-15 19:27:11 1510792031.328543: $GPGGA,002710,3946.9614,N,08404.9432,W,1,07,1.40,269.86,M,-33.324,M,,*7B
2017-11-15 19:27:11 1510792031.328604: $GPRMC,002710,A,3946.9614,N,08404.9432,W,0.4844,93.795,161117,,*01
2017-11-15 19:27:11 1510792031.328659: $GPGSA,A,3,32,31,16,26,29,22,23,,,,,,3.4,1.4,2.9*31
2017-11-15 19:27:12 1510792032.680459: $GPGSV,3,1,11,32,37,106,21,31,68,022,21,16,21,190,16,26,52,172,27*7C
2017-11-15 19:27:12 1510792032.680629: $GPGSV,3,2,11,14,56,091,00,29,10,072,13,22,50,273,20,03,39,300,00*70
2017-11-15 19:27:12 1510792032.680689: $GPGSV,3,3,11,23,10,300,11,25,18,040,00,01,06,253,00*43
2017-11-15 19:27:12 1510792032.794158: $GPZDA,002711.00,16,11,2017,00,00*60
2017-11-15 19:27:12 1510792032.794318: $GPGGA,002711,3946.9614,N,08404.9432,W,1,07,1.40,269.86,M,-33.324,M,,*7A
2017-11-15 19:27:12 1510792032.794379: $GPRMC,002711,A,3946.9614,N,08404.9432,W,0.4179,148.778,161117,,*33
2017-11-15 19:27:12 1510792032.794435: $GPGSA,A,3,32,31,16,26,29,22,23,,,,,,3.4,1.4,2.9*31
2017-11-15 19:27:13 1510792033.346278: $GPZDA,002712.00,16,11,2017,00,00*63
2017-11-15 19:27:13 1510792033.346438: $GPGGA,002712,3946.9614,N,08404.9432,W,1,07,1.40,269.86,M,-33.324,M,,*79
2017-11-15 19:27:13 1510792033.346498: $GPRMC,002712,A,3946.9614,N,08404.9432,W,0.5306,114.352,161117,,*3E
2017-11-15 19:27:13 1510792033.346553: $GPGSA,A,3,32,31,16,26,29,22,23,,,,,,3.4,1.4,2.9*31
2017-11-15 19:27:14 1510792034.345524: $GPZDA,002713.00,16,11,2017,00,00*62
2017-11-15 19:27:14 1510792034.345689: $GPGGA,002713,3946.9614,N,08404.9432,W,1,07,1.40,269.86,M,-33.324,M,,*78
2017-11-15 19:27:14 1510792034.345751: $GPRMC,002713,A,3946.9614,N,08404.9432,W,0.7267,93.795,161117,,*0A
2017-11-15 19:27:14 1510792034.345807: $GPGSA,A,3,32,31,16,26,29,22,23,,,,,,3.4,1.4,2.9*31
2017-11-15 19:27:15 1510792035.681328: $GPGSV,3,1,11,32,37,106,22,31,68,022,22,16,21,190,16,26,52,172,27*7C
2017-11-15 19:27:15 1510792035.728822: $GPGSV,3,2,11,01,06,253,02,29,10,072,12,22,50,273,19,14,56,091,00*70
2017-11-15 19:27:15 1510792035.728934: $GPGSV,3,3,11,23,10,300,11,03,39,300,00,25,18,040,00*4A
2017-11-15 19:27:15 1510792035.794621: $GPZDA,002714.00,16,11,2017,00,00*65
2017-11-15 19:27:15 1510792035.794767: $GPGGA,002714,3946.9610,N,08404.9426,W,1,07,1.40,270.70,M,-33.324,M,,*7F
2017-11-15 19:27:15 1510792035.794826: $GPRMC,002714,A,3946.9610,N,08404.9426,W,0.2422,93.795,161117,,*0E
2017-11-15 19:27:15 1510792035.794881: $GPGSA,A,3,32,31,16,26,29,22,23,,,,,,3.4,1.4,2.9*31
2017-11-15 19:27:16 1510792036.420275: $GPZDA,002715.00,16,11,2017,00,00*64
2017-11-15 19:27:16 1510792036.420433: $GPGGA,002715,3946.9610,N,08404.9433,W,1,07,1.40,270.62,M,-33.324,M,,*79
2017-11-15 19:27:16 1510792036.420493: $GPRMC,002715,A,3946.9610,N,08404.9433,W,0.0000,0.000,161117,,*3C
2017-11-15 19:27:16 1510792036.420549: $GPGSA,A,3,32,31,16,26,29,22,23,,,,,,3.4,1.4,2.9*31
2017-11-15 19:27:17 1510792037.346122: $GPZDA,002716.00,16,11,2017,00,00*67
2017-11-15 19:27:17 1510792037.346289: $GPGGA,002716,3946.9610,N,08404.9433,W,1,07,1.40,270.62,M,-33.324,M,,*7A
2017-11-15 19:27:17 1510792037.346352: $GPRMC,002716,A,3946.9610,N,08404.9433,W,0.4844,273.795,161117,,*3E
2017-11-15 19:27:17 1510792037.346407: $GPGSA,A,3,32,31,16,26,29,22,23,,,,,,3.4,1.4,2.9*31
2017-11-15 19:27:18 1510792038.682895: $GPGSV,3,1,11,32,37,106,22,31,68,022,22,16,21,190,17,26,52,172,27*7D
2017-11-15 19:27:18 1510792038.683070: $GPGSV,3,2,11,01,06,253,04,29,10,072,11,22,50,273,18,14,56,091,00*74
2017-11-15 19:27:18 1510792038.683180: $GPGSV,3,3,11,23,10,300,10,03,39,300,00,25,18,040,00*4B
2017-11-15 19:27:18 1510792038.796522: $GPZDA,002717.00,16,11,2017,00,00*66
2017-11-15 19:27:18 1510792038.796683: $GPGGA,002717,3946.9610,N,08404.9433,W,1,07,1.40,270.62,M,-33.324,M,,*7B
2017-11-15 19:27:18 1510792038.796798: $GPRMC,002717,A,3946.9610,N,08404.9433,W,0.4844,273.795,161117,,*3F
2017-11-15 19:27:18 1510792038.796861: $GPGSA,A,3,32,31,16,26,29,22,23,,,,,,3.4,1.4,2.9*31
2017-11-15 19:27:19 1510792039.347442: $GPZDA,002718.00,16,11,2017,00,00*69
2017-11-15 19:27:19 1510792039.347603: $GPGGA,002718,3946.9610,N,08404.9440,W,1,07,1.40,270.54,M,-33.324,M,,*75
2017-11-15 19:27:19 1510792039.347665: $GPRMC,002718,A,3946.9610,N,08404.9440,W,0.4844,273.795,161117,,*34
2017-11-15 19:27:19 1510792039.347722: $GPGSA,A,3,32,31,16,26,29,22,23,,,,,,3.4,1.4,2.9*31
2017-11-15 19:27:20 1510792040.329504: $GPZDA,002719.00,16,11,2017,00,00*68
2017-11-15 19:27:20 1510792040.329667: $GPGGA,002719,3946.9610,N,08404.9440,W,1,07,1.40,270.54,M,-33.324,M,,*74
2017-11-15 19:27:20 1510792040.329728: $GPRMC,002719,A,3946.9610,N,08404.9440,W,0.9988,284.546,161117,,*3D
2017-11-15 19:27:20 1510792040.329784: $GPGSA,A,3,32,31,16,26,29,22,23,,,,,,3.4,1.4,2.9*31
