2017-12-29 15:01:01 1514577661.931314: {"class":"VERSION","release":"3.16","rev":"3.16-4","proto_major":3,"proto_minor":11}
2017-12-29 15:01:01 1514577661.931687: {"class":"DEVICES","devices":[{"class":"DEVICE","path":"/dev/ttyUSB0","driver":"SiRF","subtype":"9\u0006GSD4e_4.1.2-P1_RPATCH.05-F-GPS-4R-1510281 11/03/2015 307","activated":"2017-12-29T20:01:01.543Z","flags":1,"native":1,"bps":4800,"parity":"N","stopbits":1,"cycle":1.00}]}
2017-12-29 15:01:01 1514577661.931805: {"class":"WATCH","enable":true,"json":false,"nmea":true,"raw":0,"scaled":false,"timing":false,"split24":false,"pps":false}
2017-12-29 15:01:02 1514577662.400809: $GPZDA,200103.00,29,12,2017,00,00*6A
2017-12-29 15:01:02 1514577662.400977: $GPGGA,200103,3946.9585,N,08404.9839,W,2,12,0.80,299.56,M,-33.324,M,,*7B
2017-12-29 15:01:02 1514577662.401100: $GPRMC,200103,A,3946.9585,N,08404.9839,W,0.0000,0.000,291217,,*3B
2017-12-29 15:01:02 1514577662.401172: $GPGSA,A,3,1,3,10,11,12,14,22,25,31,32,18,138,1.7,0.8,1.3*0C
2017-12-29 15:01:03 1514577663.739063: $GPGSV,3,1,12,01,22,289,40,03,10,316,37,10,36,153,49,26,13,180,27*78
2017-12-29 15:01:03 1514577663.739217: $GPGSV,3,2,12,12,17,040,43,14,70,354,43,22,29,310,41,25,41,075,51*72
2017-12-29 15:01:03 1514577663.739285: $GPGSV,3,3,12,31,69,240,46,32,63,057,51,18,07,147,26,138,38,213,43*4F
2017-12-29 15:01:03 1514577663.852399: $GPZDA,200104.00,29,12,2017,00,00*6D
2017-12-29 15:01:03 1514577663.852526: $GPGGA,200104,3946.9585,N,08404.9839,W,2,12,0.80,299.56,M,-33.324,M,,*7C
2017-12-29 15:01:03 1514577663.852612: $GPRMC,200104,A,3946.9585,N,08404.9839,W,0.0000,0.000,291217,,*3C
2017-12-29 15:01:03 1514577663.852675: $GPGSA,A,3,1,3,10,26,12,14,22,25,31,32,18,138,1.7,0.8,1.3*08
2017-12-29 15:01:04 1514577664.477769: $GPZDA,200105.00,29,12,2017,00,00*6C
2017-12-29 15:01:04 1514577664.477933: $GPGGA,200105,3946.9585,N,08404.9839,W,2,12,0.80,299.56,M,-33.324,M,,*7D
2017-12-29 15:01:04 1514577664.478002: $GPRMC,200105,A,3946.9585,N,08404.9839,W,0.0000,0.000,291217,,*3D
2017-12-29 15:01:04 1514577664.478063: $GPGSA,A,3,1,3,10,26,12,14,22,25,31,32,18,138,1.7,0.8,1.3*08
2017-12-29 15:01:05 1514577665.402429: $GPZDA,200106.00,29,12,2017,00,00*6F
2017-12-29 15:01:05 1514577665.402592: $GPGGA,200106,3946.9585,N,08404.9839,W,2,12,0.80,299.56,M,-33.324,M,,*7E
2017-12-29 15:01:05 1514577665.402657: $GPRMC,200106,A,3946.9585,N,08404.9839,W,0.0000,0.000,291217,,*3E
2017-12-29 15:01:05 1514577665.402719: $GPGSA,A,3,1,3,10,26,12,14,22,25,31,32,18,138,1.7,0.8,1.3*08
2017-12-29 15:01:06 1514577666.739397: $GPGSV,3,1,12,01,22,289,39,03,10,316,37,10,36,153,49,26,13,180,28*79
2017-12-29 15:01:06 1514577666.739547: $GPGSV,3,2,12,12,17,040,43,14,70,354,43,22,29,310,42,25,41,075,51*71
2017-12-29 15:01:06 1514577666.739613: $GPGSV,3,3,12,31,69,240,46,32,63,057,51,18,07,147,27,138,38,213,43*4E
2017-12-29 15:01:06 1514577666.852779: $GPZDA,200107.00,29,12,2017,00,00*6E
2017-12-29 15:01:06 1514577666.852911: $GPGGA,200107,3946.9585,N,08404.9839,W,2,12,0.80,299.56,M,-33.324,M,,*7F
2017-12-29 15:01:06 1514577666.852978: $GPRMC,200107,A,3946.9585,N,08404.9839,W,0.0000,0.000,291217,,*3F
2017-12-29 15:01:06 1514577666.853038: $GPGSA,A,3,1,3,10,26,12,14,22,25,31,32,18,138,1.7,0.8,1.3*08
2017-12-29 15:01:07 1514577667.403647: $GPZDA,200108.00,29,12,2017,00,00*61
2017-12-29 15:01:07 1514577667.403817: $GPGGA,200108,3946.9585,N,08404.9839,W,2,12,0.80,299.56,M,-33.324,M,,*70
2017-12-29 15:01:07 1514577667.403886: $GPRMC,200108,A,3946.9585,N,08404.9839,W,0.0000,0.000,291217,,*30
2017-12-29 15:01:07 1514577667.403948: $GPGSA,A,3,1,3,10,26,12,14,22,25,31,32,18,138,1.7,0.8,1.3*08
2017-12-29 15:01:08 1514577668.400757: $GPZDA,200109.00,29,12,2017,00,00*60
2017-12-29 15:01:08 1514577668.400939: $GPGGA,200109,3946.9585,N,08404.9839,W,2,12,0.80,299.56,M,-33.324,M,,*71
2017-12-29 15:01:08 1514577668.401006: $GPRMC,200109,A,3946.9585,N,08404.9839,W,0.0000,0.000,291217,,*31
2017-12-29 15:01:08 1514577668.401135: $GPGSA,A,3,1,3,10,26,12,14,22,25,31,32,18,138,1.7,0.8,1.3*08
2017-12-29 15:01:09 1514577669.738520: $GPGSV,3,1,12,01,22,289,39,03,10,316,38,10,36,153,49,26,13,180,28*76
2017-12-29 15:01:09 1514577669.738752: $GPGSV,3,2,12,12,17,040,43,14,70,354,43,22,29,310,42,25,41,075,51*71
2017-12-29 15:01:09 1514577669.738827: $GPGSV,3,3,12,31,69,240,46,32,63,057,51,18,07,147,27,138,38,213,44*49
2017-12-29 15:01:09 1514577669.850608: $GPZDA,200110.00,29,12,2017,00,00*68
2017-12-29 15:01:09 1514577669.850748: $GPGGA,200110,3946.9585,N,08404.9839,W,2,12,0.80,299.56,M,-33.324,M,,*79
2017-12-29 15:01:09 1514577669.850817: $GPRMC,200110,A,3946.9585,N,08404.9839,W,0.0000,0.000,291217,,*39
2017-12-29 15:01:09 1514577669.850877: $GPGSA,A,3,1,3,10,26,12,14,22,25,31,32,18,138,1.7,0.8,1.3*08
2017-12-29 15:01:10 1514577670.403999: $GPZDA,200111.00,29,12,2017,00,00*69
2017-12-29 15:01:10 1514577670.404167: $GPGGA,200111,3946.9585,N,08404.9839,W,2,12,0.80,299.56,M,-33.324,M,,*78
2017-12-29 15:01:10 1514577670.404232: $GPRMC,200111,A,3946.9585,N,08404.9839,W,0.0000,0.000,291217,,*38
2017-12-29 15:01:10 1514577670.404295: $GPGSA,A,3,1,3,10,26,12,14,22,25,31,32,18,138,1.7,0.8,1.3*08
2017-12-29 15:01:11 1514577671.403608: $GPZDA,200112.00,29,12,2017,00,00*6A
2017-12-29 15:01:11 1514577671.403779: $GPGGA,200112,3946.9585,N,08404.9839,W,2,12,0.80,299.56,M,-33.324,M,,*7B
2017-12-29 15:01:11 1514577671.403848: $GPRMC,200112,A,3946.9585,N,08404.9839,W,0.0000,0.000,291217,,*3B
2017-12-29 15:01:11 1514577671.403911: $GPGSA,A,3,1,3,10,26,12,14,22,25,31,32,18,138,1.7,0.8,1.3*08
