2017-12-01 16:45:03 1512164703.257553: {"class":"VERSION","release":"3.16","rev":"3.16-4","proto_major":3,"proto_minor":11}
2017-12-01 16:45:03 1512164703.257938: {"class":"DEVICES","devices":[{"class":"DEVICE","path":"/dev/ttyUSB0","driver":"SiRF","subtype":"9\u0006GSD4e_4.1.2-P1_RPATCH.05-F-GPS-4R-1510281 11/03/2015 307","activated":"2017-12-01T21:45:03.232Z","flags":1,"native":1,"bps":4800,"parity":"N","stopbits":1,"cycle":1.00}]}
2017-12-01 16:45:03 1512164703.258154: {"class":"WATCH","enable":true,"json":false,"nmea":true,"raw":0,"scaled":false,"timing":false,"split24":false,"pps":false}
2017-12-01 16:45:03 1512164703.409495: $GPZDA,214504.00,01,12,2017,00,00*66
2017-12-01 16:45:03 1512164703.409671: $GPGGA,214504,3946.9653,N,08404.9734,W,2,12,0.80,300.19,M,-33.324,M,,*7D
2017-12-01 16:45:03 1512164703.409737: $GPRMC,214504,A,3946.9653,N,08404.9734,W,0.0000,0.000,011217,,*3D
2017-12-01 16:45:03 1512164703.409798: $GPGSA,A,3,1,10,14,22,31,32,25,11,12,18,26,138,2.0,0.8,1.5*39
2017-12-01 16:45:04 1512164704.745166: $GPGSV,3,1,12,01,22,294,42,10,41,151,42,14,68,343,45,22,24,310,41*78
2017-12-01 16:45:04 1512164704.745361: $GPGSV,3,2,12,31,63,232,50,32,66,045,48,25,41,081,23,11,06,276,28*73
2017-12-01 16:45:04 1512164704.745428: $GPGSV,3,3,12,12,19,043,29,18,12,145,23,26,08,181,28,138,38,213,35*4F
2017-12-01 16:45:04 1512164704.858645: $GPZDA,214505.00,01,12,2017,00,00*67
2017-12-01 16:45:04 1512164704.858817: $GPGGA,214505,3946.9657,N,08404.9734,W,2,12,0.80,300.83,M,-33.324,M,,*7B
2017-12-01 16:45:04 1512164704.858884: $GPRMC,214505,A,3946.9657,N,08404.9734,W,0.1567,189.200,011217,,*3F
2017-12-01 16:45:04 1512164704.858945: $GPGSA,A,3,1,10,14,22,31,32,25,11,12,18,26,138,2.0,0.8,1.5*39
2017-12-01 16:45:05 1512164705.408174: $GPZDA,214506.00,01,12,2017,00,00*64
2017-12-01 16:45:05 1512164705.408359: $GPGGA,214506,3946.9656,N,08404.9727,W,2,12,0.80,299.50,M,-33.324,M,,*74
2017-12-01 16:45:05 1512164705.408429: $GPRMC,214506,A,3946.9656,N,08404.9727,W,0.1867,0.000,011217,,*30
2017-12-01 16:45:05 1512164705.408491: $GPGSA,A,3,1,10,14,22,31,32,25,11,12,18,26,138,2.0,0.8,1.5*39
2017-12-01 16:45:06 1512164706.410249: $GPZDA,214507.00,01,12,2017,00,00*65
2017-12-01 16:45:06 1512164706.410435: $GPGGA,214507,3946.9656,N,08404.9727,W,2,12,0.80,299.50,M,-33.324,M,,*75
2017-12-01 16:45:06 1512164706.410503: $GPRMC,214507,A,3946.9656,N,08404.9727,W,0.0000,0.000,011217,,*39
2017-12-01 16:45:06 1512164706.410566: $GPGSA,A,3,1,10,14,22,31,32,25,11,12,18,26,138,2.0,0.8,1.5*39
2017-12-01 16:45:07 1512164707.748501: $GPGSV,3,1,12,01,22,294,42,10,41,151,42,14,68,343,45,22,24,310,41*78
2017-12-01 16:45:07 1512164707.748705: $GPGSV,3,2,12,31,63,232,50,32,66,045,48,25,41,081,21,11,06,276,29*70
2017-12-01 16:45:07 1512164707.748774: $GPGSV,3,3,12,12,19,043,28,18,12,145,23,26,08,181,29,138,38,213,38*42
2017-12-01 16:45:07 1512164707.861892: $GPZDA,214508.00,01,12,2017,00,00*6A
2017-12-01 16:45:07 1512164707.862079: $GPGGA,214508,3946.9656,N,08404.9727,W,2,12,0.80,299.50,M,-33.324,M,,*7A
2017-12-01 16:45:07 1512164707.862146: $GPRMC,214508,A,3946.9656,N,08404.9727,W,0.0000,0.000,011217,,*36
2017-12-01 16:45:07 1512164707.862210: $GPGSA,A,3,1,10,14,22,31,32,25,11,12,18,26,138,2.0,0.8,1.5*39
2017-12-01 16:45:08 1512164708.488880: $GPZDA,214509.00,01,12,2017,00,00*6B
2017-12-01 16:45:08 1512164708.489064: $GPGGA,214509,3946.9656,N,08404.9727,W,2,12,0.80,299.50,M,-33.324,M,,*7B
2017-12-01 16:45:08 1512164708.489131: $GPRMC,214509,A,3946.9656,N,08404.9727,W,0.0000,0.000,011217,,*37
2017-12-01 16:45:08 1512164708.489197: $GPGSA,A,3,1,10,14,22,31,32,25,11,12,18,26,138,2.0,0.8,1.5*39
2017-12-01 16:45:09 1512164709.410744: $GPZDA,214510.00,01,12,2017,00,00*63
2017-12-01 16:45:09 1512164709.410917: $GPGGA,214510,3946.9656,N,08404.9727,W,2,12,0.80,299.50,M,-33.324,M,,*73
2017-12-01 16:45:09 1512164709.410983: $GPRMC,214510,A,3946.9656,N,08404.9727,W,0.0000,0.000,011217,,*3F
2017-12-01 16:45:09 1512164709.411045: $GPGSA,A,3,1,10,14,22,31,32,25,11,12,18,26,138,2.0,0.8,1.5*39
2017-12-01 16:45:10 1512164710.747694: $GPGSV,3,1,12,01,22,294,42,10,41,151,42,14,68,343,45,22,24,310,41*78
2017-12-01 16:45:10 1512164710.747945: $GPGSV,3,2,12,31,63,232,49,32,66,045,48,25,41,081,22,11,06,276,19*78
2017-12-01 16:45:10 1512164710.748017: $GPGSV,3,3,12,12,19,043,27,18,12,145,22,26,08,181,28,138,38,213,40*42
2017-12-01 16:45:10 1512164710.861026: $GPZDA,214511.00,01,12,2017,00,00*62
2017-12-01 16:45:10 1512164710.861184: $GPGGA,214511,3946.9656,N,08404.9727,W,2,12,0.80,299.50,M,-33.324,M,,*72
2017-12-01 16:45:10 1512164710.861250: $GPRMC,214511,A,3946.9656,N,08404.9727,W,0.0000,0.000,011217,,*3E
2017-12-01 16:45:10 1512164710.861311: $GPGSA,A,3,1,10,14,22,31,32,25,11,12,18,26,138,2.0,0.8,1.5*39
2017-12-01 16:45:11 1512164711.414852: $GPZDA,214512.00,01,12,2017,00,00*61
2017-12-01 16:45:11 1512164711.415036: $GPGGA,214512,3946.9656,N,08404.9727,W,2,12,0.80,299.50,M,-33.324,M,,*71
2017-12-01 16:45:11 1512164711.415126: $GPRMC,214512,A,3946.9656,N,08404.9727,W,0.0000,0.000,011217,,*3D
2017-12-01 16:45:11 1512164711.415190: $GPGSA,A,3,1,10,14,22,31,32,25,11,12,18,26,138,2.0,0.8,1.5*39
2017-12-01 16:45:12 1512164712.772301: $GPZDA,214513.00,01,12,2017,00,00*60
2017-12-01 16:45:12 1512164712.772472: $GPGGA,214513,3946.9656,N,08404.9727,W,2,12,0.80,299.50,M,-33.324,M,,*70
2017-12-01 16:45:12 1512164712.772537: $GPRMC,214513,A,3946.9656,N,08404.9727,W,0.0000,0.000,011217,,*3C
2017-12-01 16:45:12 1512164712.772598: $GPGSA,A,3,1,10,14,22,31,32,25,11,12,18,26,138,2.0,0.8,1.5*39
2017-12-01 16:45:12 1512164712.772657: $GPGBS,214513,2.67,M,3.86,M,8.82,M*32
2017-12-01 16:45:13 1512164713.905598: $GPGSV,3,1,12,01,22,294,41,10,41,151,42,14,69,343,45,22,25,310,42*78
2017-12-01 16:45:13 1512164713.905781: $GPGSV,3,2,12,31,63,232,49,32,66,046,49,25,41,081,24,11,06,276,30*77
2017-12-01 16:45:13 1512164713.905847: $GPGSV,3,3,12,12,19,043,28,18,11,145,15,26,08,181,28,138,38,213,40*4A
2017-12-01 16:45:14 1512164714.018936: $GPZDA,214514.00,01,12,2017,00,00*67
2017-12-01 16:45:14 1512164714.019078: $GPGGA,214514,3946.9647,N,08404.9733,W,2,12,0.80,296.74,M,-33.324,M,,*7B
2017-12-01 16:45:14 1512164714.019144: $GPRMC,214514,A,3946.9647,N,08404.9733,W,0.0000,0.000,011217,,*3E
2017-12-01 16:45:14 1512164714.019204: $GPGSA,A,3,1,10,14,22,31,32,25,11,12,18,26,138,2.0,0.8,1.5*39
2017-12-01 16:45:14 1512164714.471233: $GPZDA,214515.00,01,12,2017,00,00*66
2017-12-01 16:45:14 1512164714.471454: $GPGGA,214515,3946.9647,N,08404.9733,W,2,12,0.80,296.74,M,-33.324,M,,*7A
2017-12-01 16:45:14 1512164714.471524: $GPRMC,214515,A,3946.9647,N,08404.9733,W,0.0000,0.000,011217,,*3F
2017-12-01 16:45:14 1512164714.471585: $GPGSA,A,3,1,10,14,22,31,32,25,11,12,18,26,138,2.0,0.8,1.5*39
2017-12-01 16:45:15 1512164715.414599: $GPZDA,214516.00,01,12,2017,00,00*65
2017-12-01 16:45:15 1512164715.414781: $GPGGA,214516,3946.9647,N,08404.9733,W,2,12,0.80,296.74,M,-33.324,M,,*79
2017-12-01 16:45:15 1512164715.414848: $GPRMC,214516,A,3946.9647,N,08404.9733,W,0.0000,0.000,011217,,*3C
2017-12-01 16:45:15 1512164715.414910: $GPGSA,A,3,1,10,14,22,31,32,25,11,12,18,26,138,2.0,0.8,1.5*39
2017-12-01 16:45:16 1512164716.751515: $GPGSV,3,1,12,01,22,294,40,10,41,151,41,14,69,343,44,22,25,310,41*78
2017-12-01 16:45:16 1512164716.751696: $GPGSV,3,2,12,31,63,232,49,32,66,046,48,25,41,081,29,11,06,276,29*73
2017-12-01 16:45:16 1512164716.751761: $GPGSV,3,3,12,12,19,043,28,18,11,145,11,26,08,181,28,138,38,213,38*41
2017-12-01 16:45:16 1512164716.864787: $GPZDA,214517.00,01,12,2017,00,00*64
2017-12-01 16:45:16 1512164716.864928: $GPGGA,214517,3946.9644,N,08404.9741,W,2,12,0.80,297.43,M,-33.324,M,,*7B
2017-12-01 16:45:16 1512164716.864993: $GPRMC,214517,A,3946.9644,N,08404.9741,W,0.0000,0.000,011217,,*3B
2017-12-01 16:45:16 1512164716.865053: $GPGSA,A,3,1,10,14,22,31,32,25,11,12,18,26,138,2.0,0.8,1.5*39
2017-12-01 16:45:17 1512164717.414613: $GPZDA,214518.00,01,12,2017,00,00*6B
2017-12-01 16:45:17 1512164717.414778: $GPGGA,214518,3946.9644,N,08404.9741,W,2,12,0.80,297.43,M,-33.324,M,,*74
2017-12-01 16:45:17 1512164717.414846: $GPRMC,214518,A,3946.9644,N,08404.9741,W,0.0000,0.000,011217,,*34
2017-12-01 16:45:17 1512164717.414906: $GPGSA,A,3,1,10,14,22,31,32,25,11,12,18,26,138,2.0,0.8,1.5*39
2017-12-01 16:45:18 1512164718.412349: $GPZDA,214519.00,01,12,2017,00,00*6A
2017-12-01 16:45:18 1512164718.412508: $GPGGA,214519,3946.9644,N,08404.9741,W,2,12,0.80,297.43,M,-33.324,M,,*75
2017-12-01 16:45:18 1512164718.412574: $GPRMC,214519,A,3946.9644,N,08404.9741,W,0.0000,0.000,011217,,*35
2017-12-01 16:45:18 1512164718.412634: $GPGSA,A,3,1,10,14,22,31,32,25,11,12,18,26,138,2.0,0.8,1.5*39
2017-12-01 16:45:19 1512164719.751806: $GPGSV,3,1,12,01,22,294,40,10,41,151,41,14,69,343,44,22,25,310,41*78
2017-12-01 16:45:19 1512164719.751989: $GPGSV,3,2,12,31,63,232,50,32,66,046,48,25,41,081,29,11,06,276,29*7B
2017-12-01 16:45:19 1512164719.752056: $GPGSV,3,3,12,12,19,043,29,18,11,145,04,26,08,181,28,138,38,213,40*4B
2017-12-01 16:45:19 1512164719.865180: $GPZDA,214520.00,01,12,2017,00,00*60
2017-12-01 16:45:19 1512164719.865353: $GPGGA,214520,3946.9644,N,08404.9741,W,2,11,0.80,297.43,M,-33.324,M,,*7C
2017-12-01 16:45:19 1512164719.865419: $GPRMC,214520,A,3946.9644,N,08404.9741,W,0.0000,0.000,011217,,*3F
2017-12-01 16:45:19 1512164719.865480: $GPGSA,A,3,1,10,14,22,31,32,25,11,12,26,138,,2.0,0.8,1.5*30
2017-12-01 16:45:20 1512164720.416056: $GPZDA,214521.00,01,12,2017,00,00*61
2017-12-01 16:45:20 1512164720.416233: $GPGGA,214521,3946.9644,N,08404.9741,W,2,11,0.80,297.43,M,-33.324,M,,*7D
2017-12-01 16:45:20 1512164720.416298: $GPRMC,214521,A,3946.9644,N,08404.9741,W,0.0000,0.000,011217,,*3E
2017-12-01 16:45:20 1512164720.416359: $GPGSA,A,3,1,10,14,22,31,32,25,11,12,26,138,,2.0,0.8,1.5*30
2017-12-01 16:45:21 1512164721.414439: $GPZDA,214522.00,01,12,2017,00,00*62
2017-12-01 16:45:21 1512164721.414611: $GPGGA,214522,3946.9644,N,08404.9741,W,2,11,0.80,297.43,M,-33.324,M,,*7E
2017-12-01 16:45:21 1512164721.414678: $GPRMC,214522,A,3946.9644,N,08404.9741,W,0.0000,0.000,011217,,*3D
2017-12-01 16:45:21 1512164721.414739: $GPGSA,A,3,1,10,14,22,31,32,25,11,12,26,138,,2.0,0.8,1.5*30
2017-12-01 16:45:22 1512164722.750189: $GPGSV,3,1,12,01,22,294,39,10,41,151,42,14,69,343,44,22,25,310,42*76
2017-12-01 16:45:22 1512164722.750371: $GPGSV,3,2,12,31,63,232,50,32,66,046,48,25,41,081,29,11,06,276,29*7B
2017-12-01 16:45:22 1512164722.750436: $GPGSV,3,3,12,12,19,043,30,18,11,145,05,26,08,181,28,138,38,213,41*43
2017-12-01 16:45:22 1512164722.863511: $GPZDA,214523.00,01,12,2017,00,00*63
2017-12-01 16:45:22 1512164722.863652: $GPGGA,214523,3946.9648,N,08404.9741,W,2,11,0.80,298.07,M,-33.324,M,,*7C
2017-12-01 16:45:22 1512164722.863718: $GPRMC,214523,A,3946.9648,N,08404.9741,W,0.0000,0.000,011217,,*30
2017-12-01 16:45:22 1512164722.863779: $GPGSA,A,3,1,10,14,22,31,32,25,11,12,26,138,,2.0,0.8,1.5*30
