2017-12-01 16:36:30 1512164190.646815: {"class":"VERSION","release":"3.16","rev":"3.16-4","proto_major":3,"proto_minor":11}
2017-12-01 16:36:30 1512164190.647204: {"class":"DEVICES","devices":[{"class":"DEVICE","path":"/dev/ttyUSB0","driver":"SiRF","subtype":"9\u0006GSD4e_4.1.2-P1_RPATCH.05-F-GPS-4R-1510281 11/03/2015 307","activated":"2017-12-01T21:36:30.536Z","flags":1,"native":1,"bps":4800,"parity":"N","stopbits":1,"cycle":1.00}]}
2017-12-01 16:36:30 1512164190.647328: {"class":"WATCH","enable":true,"json":false,"nmea":true,"raw":0,"scaled":false,"timing":false,"split24":false,"pps":false}
2017-12-01 16:36:30 1512164190.649790: $GPZDA,213631.30,01,12,2017,00,00*67
2017-12-01 16:36:30 1512164190.649898: $GPGGA,213631,3946.9636,N,08404.9765,W,1,11,1.80,300.89,M,-33.324,M,,*70
2017-12-01 16:36:30 1512164190.649962: $GPRMC,213631,A,3946.9636,N,08404.9765,W,0.5075,72.256,011217,,*0B
2017-12-01 16:36:30 1512164190.650022: $GPGSA,A,3,1,10,14,22,26,31,32,11,12,25,138,,2.0,1.8,1.5*31
2017-12-01 16:36:32 1512164192.089606: $GPGSV,3,1,12,01,22,297,33,10,45,150,36,14,67,334,37,22,21,312,37*77
2017-12-01 16:36:32 1512164192.089788: $GPGSV,3,2,12,31,59,228,41,32,67,036,39,25,40,087,00,12,21,048,00*77
2017-12-01 16:36:32 1512164192.089856: $GPGSV,3,3,12,18,15,145,00,11,07,280,00,26,05,183,00,138,38,213,00*40
2017-12-01 16:36:32 1512164192.203303: $GPZDA,213631.99,01,12,2017,00,00*64
2017-12-01 16:36:32 1512164192.203464: $GPGGA,213631,3946.9631,N,08404.9765,W,1,06,1.80,300.25,M,-33.324,M,,*77
2017-12-01 16:36:32 1512164192.203531: $GPRMC,213631,A,3946.9631,N,08404.9765,W,0.0000,0.000,011217,,*3F
2017-12-01 16:36:32 1512164192.203592: $GPGSA,A,3,1,10,14,22,31,32,,,,,,,2.0,1.8,1.5*0B
2017-12-01 16:36:33 1512164193.032100: $GPZDA,213633.00,01,12,2017,00,00*66
2017-12-01 16:36:33 1512164193.032280: $GPGGA,213633,3946.9632,N,08404.9765,W,1,06,1.00,301.65,M,-33.324,M,,*7B
2017-12-01 16:36:33 1512164193.032350: $GPRMC,213633,A,3946.9632,N,08404.9765,W,0.0407,142.013,011217,,*38
2017-12-01 16:36:33 1512164193.032412: $GPGSA,A,3,1,10,14,22,31,32,,,,,,,2.0,1.0,1.5*03
2017-12-01 16:36:33 1512164193.032470: $GPGBS,213633,10.70,M,15.43,M,35.28,M*01
2017-12-01 16:36:33 1512164193.287533: $GPZDA,213634.00,01,12,2017,00,00*61
2017-12-01 16:36:33 1512164193.287703: $GPGGA,213634,3946.9629,N,08404.9773,W,1,06,1.00,302.34,M,-33.324,M,,*76
2017-12-01 16:36:33 1512164193.287770: $GPRMC,213634,A,3946.9629,N,08404.9773,W,0.3106,69.940,011217,,*02
2017-12-01 16:36:33 1512164193.287831: $GPGSA,A,3,1,10,14,22,31,32,,,,,,,2.0,1.0,1.5*03
2017-12-01 16:36:33 1512164193.287887: $GPGBS,213634,10.70,M,15.43,M,35.28,M*06
2017-12-01 16:36:34 1512164194.778157: $GPGSV,3,1,12,01,22,297,41,10,45,150,43,14,67,334,44,22,21,312,44*70
2017-12-01 16:36:34 1512164194.778320: $GPGSV,3,2,12,31,59,228,50,32,67,036,48,11,07,280,30,12,21,046,28*77
2017-12-01 16:36:34 1512164194.778387: $GPGSV,3,3,12,25,40,087,30,26,05,183,33,18,15,145,00,138,38,213,25*45
2017-12-01 16:36:34 1512164194.891670: $GPZDA,213635.00,01,12,2017,00,00*60
2017-12-01 16:36:34 1512164194.891835: $GPGGA,213635,3946.9633,N,08404.9773,W,1,11,1.00,302.98,M,-33.324,M,,*7C
2017-12-01 16:36:34 1512164194.891901: $GPRMC,213635,A,3946.9633,N,08404.9773,W,0.2710,100.223,011217,,*38
2017-12-01 16:36:34 1512164194.891963: $GPGSA,A,3,1,10,14,22,31,32,11,12,25,26,138,,2.0,1.0,1.5*39
2017-12-01 16:36:35 1512164195.516620: $GPZDA,213636.00,01,12,2017,00,00*63
2017-12-01 16:36:35 1512164195.516799: $GPGGA,213636,3946.9633,N,08404.9773,W,1,11,1.00,302.98,M,-33.324,M,,*7F
2017-12-01 16:36:35 1512164195.516868: $GPRMC,213636,A,3946.9633,N,08404.9773,W,0.2710,100.223,011217,,*3B
2017-12-01 16:36:35 1512164195.516929: $GPGSA,A,3,1,10,14,22,31,32,11,12,25,26,138,,2.0,1.0,1.5*39
2017-12-01 16:36:36 1512164196.446548: $GPZDA,213637.00,01,12,2017,00,00*62
2017-12-01 16:36:36 1512164196.446723: $GPGGA,213637,3946.9630,N,08404.9774,W,1,11,1.00,303.74,M,-33.324,M,,*79
2017-12-01 16:36:36 1512164196.446791: $GPRMC,213637,A,3946.9630,N,08404.9774,W,0.0000,0.000,011217,,*38
2017-12-01 16:36:36 1512164196.446854: $GPGSA,A,3,1,10,14,22,31,32,11,12,25,26,138,,2.0,1.0,1.5*39
2017-12-01 16:36:36 1512164196.446964: $GPGBS,213637,10.70,M,15.43,M,35.28,M*05
2017-12-01 16:36:37 1512164197.780539: $GPGSV,3,1,12,01,22,297,42,10,45,150,43,14,67,334,44,22,21,312,43*74
2017-12-01 16:36:37 1512164197.780723: $GPGSV,3,2,12,31,59,228,50,32,67,036,49,11,07,280,30,12,21,046,27*79
2017-12-01 16:36:37 1512164197.780791: $GPGSV,3,3,12,25,40,087,31,26,05,183,32,18,15,145,00,138,38,213,40*46
2017-12-01 16:36:37 1512164197.893897: $GPZDA,213638.00,01,12,2017,00,00*6D
2017-12-01 16:36:37 1512164197.894043: $GPGGA,213638,3946.9630,N,08404.9774,W,1,11,1.00,303.74,M,-33.324,M,,*76
2017-12-01 16:36:37 1512164197.894110: $GPRMC,213638,A,3946.9630,N,08404.9774,W,0.0000,0.000,011217,,*37
2017-12-01 16:36:37 1512164197.894171: $GPGSA,A,3,1,10,14,22,31,32,11,12,25,26,138,,2.0,1.0,1.5*39
2017-12-01 16:36:38 1512164198.446169: $GPZDA,213639.00,01,12,2017,00,00*6C
2017-12-01 16:36:38 1512164198.446353: $GPGGA,213639,3946.9630,N,08404.9774,W,1,11,1.00,303.74,M,-33.324,M,,*77
2017-12-01 16:36:38 1512164198.446424: $GPRMC,213639,A,3946.9630,N,08404.9774,W,0.0000,0.000,011217,,*36
2017-12-01 16:36:38 1512164198.446490: $GPGSA,A,3,1,10,14,22,31,32,11,12,25,26,138,,2.0,1.0,1.5*39
2017-12-01 16:36:39 1512164199.447058: $GPZDA,213640.00,01,12,2017,00,00*62
2017-12-01 16:36:39 1512164199.447238: $GPGGA,213640,3946.9630,N,08404.9774,W,1,11,1.00,303.74,M,-33.324,M,,*79
2017-12-01 16:36:39 1512164199.447306: $GPRMC,213640,A,3946.9630,N,08404.9774,W,0.0000,0.000,011217,,*38
2017-12-01 16:36:39 1512164199.447373: $GPGSA,A,3,1,10,14,22,31,32,11,12,25,26,138,,2.0,1.0,1.5*39
2017-12-01 16:36:40 1512164200.782476: $GPGSV,3,1,12,01,22,297,41,10,45,150,43,14,67,334,43,22,21,312,44*77
2017-12-01 16:36:40 1512164200.782655: $GPGSV,3,2,12,31,59,228,50,32,67,036,49,11,07,280,30,12,21,046,28*76
2017-12-01 16:36:40 1512164200.782749: $GPGSV,3,3,12,25,40,087,32,26,05,183,32,18,15,145,00,138,38,213,40*45
2017-12-01 16:36:40 1512164200.895640: $GPZDA,213641.00,01,12,2017,00,00*63
2017-12-01 16:36:40 1512164200.895809: $GPGGA,213641,3946.9633,N,08404.9759,W,2,11,1.20,303.13,M,-33.324,M,,*74
2017-12-01 16:36:40 1512164200.895876: $GPRMC,213641,A,3946.9633,N,08404.9759,W,0.0000,0.000,011217,,*35
2017-12-01 16:36:40 1512164200.895937: $GPGSA,A,3,1,10,14,22,31,32,11,12,25,26,138,,2.0,1.2,1.5*3B
2017-12-01 16:36:41 1512164201.446484: $GPZDA,213642.00,01,12,2017,00,00*60
2017-12-01 16:36:41 1512164201.446657: $GPGGA,213642,3946.9633,N,08404.9759,W,2,11,0.80,303.13,M,-33.324,M,,*7C
2017-12-01 16:36:41 1512164201.446748: $GPRMC,213642,A,3946.9633,N,08404.9759,W,0.0000,0.000,011217,,*36
2017-12-01 16:36:41 1512164201.446809: $GPGSA,A,3,1,10,14,22,31,32,11,12,25,26,138,,2.0,0.8,1.5*30
2017-12-01 16:36:42 1512164202.448676: $GPZDA,213643.00,01,12,2017,00,00*61
2017-12-01 16:36:42 1512164202.448849: $GPGGA,213643,3946.9637,N,08404.9759,W,2,11,0.80,303.77,M,-33.324,M,,*7B
2017-12-01 16:36:42 1512164202.448915: $GPRMC,213643,A,3946.9637,N,08404.9759,W,0.0000,0.000,011217,,*33
2017-12-01 16:36:42 1512164202.448977: $GPGSA,A,3,1,10,14,22,31,32,11,12,25,26,138,,2.0,0.8,1.5*30
2017-12-01 16:36:43 1512164203.784313: $GPGSV,3,1,12,01,22,297,41,10,45,150,42,14,67,334,43,22,21,312,44*76
2017-12-01 16:36:43 1512164203.784519: $GPGSV,3,2,12,31,59,228,50,32,67,036,48,11,07,280,31,12,21,046,28*76
2017-12-01 16:36:43 1512164203.784589: $GPGSV,3,3,12,25,40,087,32,26,05,183,33,18,15,145,00,138,38,213,38*4B
2017-12-01 16:36:43 1512164203.898057: $GPZDA,213644.00,01,12,2017,00,00*66
2017-12-01 16:36:43 1512164203.898212: $GPGGA,213644,3946.9637,N,08404.9766,W,2,11,0.80,303.69,M,-33.324,M,,*7F
2017-12-01 16:36:43 1512164203.898298: $GPRMC,213644,A,3946.9637,N,08404.9766,W,0.0000,0.000,011217,,*38
2017-12-01 16:36:43 1512164203.898363: $GPGSA,A,3,1,10,14,22,31,32,11,12,25,26,138,,2.0,0.8,1.5*30
2017-12-01 16:36:44 1512164204.448525: $GPZDA,213645.00,01,12,2017,00,00*67
2017-12-01 16:36:44 1512164204.448697: $GPGGA,213645,3946.9639,N,08404.9751,W,2,11,0.80,301.68,M,-33.324,M,,*77
2017-12-01 16:36:44 1512164204.448814: $GPRMC,213645,A,3946.9639,N,08404.9751,W,0.1567,189.200,011217,,*34
2017-12-01 16:36:44 1512164204.448877: $GPGSA,A,3,1,10,14,22,31,32,11,12,25,26,138,,2.0,0.8,1.5*30
2017-12-01 16:36:45 1512164205.447647: $GPZDA,213646.00,01,12,2017,00,00*64
2017-12-01 16:36:45 1512164205.447829: $GPGGA,213646,3946.9639,N,08404.9751,W,2,11,0.80,301.68,M,-33.324,M,,*74
2017-12-01 16:36:45 1512164205.447897: $GPRMC,213646,A,3946.9639,N,08404.9751,W,0.0000,0.000,011217,,*30
2017-12-01 16:36:45 1512164205.447959: $GPGSA,A,3,1,10,14,22,31,32,11,12,25,26,138,,2.0,0.8,1.5*30
2017-12-01 16:36:46 1512164206.782136: $GPGSV,3,1,12,01,22,297,41,10,45,150,43,14,67,334,43,22,21,312,45*76
2017-12-01 16:36:46 1512164206.782302: $GPGSV,3,2,12,31,59,228,50,32,67,036,48,11,07,280,31,12,21,046,29*77
2017-12-01 16:36:46 1512164206.782373: $GPGSV,3,3,12,25,40,087,32,26,05,183,33,18,15,145,00,138,38,213,40*44
2017-12-01 16:36:46 1512164206.895568: $GPZDA,213647.00,01,12,2017,00,00*65
2017-12-01 16:36:46 1512164206.895748: $GPGGA,213647,3946.9639,N,08404.9751,W,2,11,0.80,301.68,M,-33.324,M,,*75
2017-12-01 16:36:46 1512164206.895817: $GPRMC,213647,A,3946.9639,N,08404.9751,W,0.0000,0.000,011217,,*31
2017-12-01 16:36:46 1512164206.895878: $GPGSA,A,3,1,10,14,22,31,32,11,12,25,26,138,,2.0,0.8,1.5*30
2017-12-01 16:36:47 1512164207.447646: $GPZDA,213648.00,01,12,2017,00,00*6A
2017-12-01 16:36:47 1512164207.447829: $GPGGA,213648,3946.9639,N,08404.9751,W,2,11,0.80,301.68,M,-33.324,M,,*7A
2017-12-01 16:36:47 1512164207.447894: $GPRMC,213648,A,3946.9639,N,08404.9751,W,0.0000,0.000,011217,,*3E
2017-12-01 16:36:47 1512164207.447957: $GPGSA,A,3,1,10,14,22,31,32,11,12,25,26,138,,2.0,0.8,1.5*30
2017-12-01 16:36:48 1512164208.448445: $GPZDA,213649.00,01,12,2017,00,00*6B
2017-12-01 16:36:48 1512164208.448628: $GPGGA,213649,3946.9641,N,08404.9741,W,2,11,0.80,298.19,M,-33.324,M,,*72
2017-12-01 16:36:48 1512164208.448697: $GPRMC,213649,A,3946.9641,N,08404.9741,W,0.1867,180.000,011217,,*30
2017-12-01 16:36:48 1512164208.448758: $GPGSA,A,3,1,10,14,22,31,32,11,12,25,26,138,,2.0,0.8,1.5*30
2017-12-01 16:36:48 1512164208.448818: $GPGBS,213649,2.67,M,3.86,M,8.82,M*39
2017-12-01 16:36:49 1512164209.784217: $GPGSV,3,1,12,01,22,297,41,10,45,150,42,14,67,334,43,22,21,312,45*77
2017-12-01 16:36:49 1512164209.784400: $GPGSV,3,2,12,31,59,228,50,32,67,036,48,11,07,280,32,12,21,046,30*7C
2017-12-01 16:36:49 1512164209.784467: $GPGSV,3,3,12,25,40,087,31,26,05,183,33,18,15,145,00,138,38,213,41*46
2017-12-01 16:36:49 1512164209.897581: $GPZDA,213650.00,01,12,2017,00,00*63
2017-12-01 16:36:49 1512164209.897728: $GPGGA,213650,3946.9637,N,08404.9742,W,2,11,0.80,298.95,M,-33.324,M,,*7C
2017-12-01 16:36:49 1512164209.897794: $GPRMC,213650,A,3946.9637,N,08404.9742,W,0.0000,0.000,011217,,*3B
2017-12-01 16:36:49 1512164209.897854: $GPGSA,A,3,1,10,14,22,31,32,11,12,25,26,138,,2.0,0.8,1.5*30
2017-12-01 16:36:50 1512164210.523031: $GPZDA,213651.00,01,12,2017,00,00*62
2017-12-01 16:36:50 1512164210.523203: $GPGGA,213651,3946.9637,N,08404.9742,W,2,11,0.80,298.95,M,-33.324,M,,*7D
2017-12-01 16:36:50 1512164210.523270: $GPRMC,213651,A,3946.9637,N,08404.9742,W,0.0000,0.000,011217,,*3A
2017-12-01 16:36:50 1512164210.523361: $GPGSA,A,3,1,10,14,22,31,32,11,12,25,26,138,,2.0,0.8,1.5*30
