2017-12-14 12:25:59 1513272359.052518: {"class":"VERSION","release":"3.16","rev":"3.16-4","proto_major":3,"proto_minor":11}
2017-12-14 12:25:59 1513272359.052879: {"class":"DEVICES","devices":[{"class":"DEVICE","path":"/dev/ttyUSB0","driver":"SiRF","subtype":"9\u0006GSD4e_4.1.2-P1_RPATCH.05-F-GPS-4R-1510281 11/03/2015 307","activated":"2017-12-14T17:25:58.289Z","flags":1,"native":1,"bps":4800,"parity":"N","stopbits":1,"cycle":1.00}]}
2017-12-14 12:25:59 1513272359.052994: {"class":"WATCH","enable":true,"json":false,"nmea":true,"raw":0,"scaled":false,"timing":false,"split24":false,"pps":false}
2017-12-14 12:25:59 1513272359.485699: $GPGSV,3,1,12,24,52,105,28,21,59,186,19,10,44,304,26,15,34,054,16*78
2017-12-14 12:25:59 1513272359.485960: $GPGSV,3,2,12,18,73,346,23,20,31,099,25,08,06,319,12,32,24,240,16*71
2017-12-14 12:25:59 1513272359.486039: $GPGSV,3,3,12,27,18,286,00,14,06,234,00,13,05,049,00,138,38,213,00*47
2017-12-14 12:25:59 1513272359.599116: $GPZDA,172600.00,14,12,2017,00,00*66
2017-12-14 12:25:59 1513272359.599287: $GPGGA,172600,3946.9625,N,08404.9278,W,1,07,2.20,336.08,M,-33.324,M,,*7F
2017-12-14 12:25:59 1513272359.599352: $GPRMC,172600,A,3946.9625,N,08404.9278,W,2.4246,28.102,141217,,*0E
2017-12-14 12:25:59 1513272359.599411: $GPGSA,A,3,24,21,10,15,18,20,8,,,,,,6.6,2.2,6.2*05
2017-12-14 12:26:00 1513272360.149101: $GPZDA,172601.00,14,12,2017,00,00*67
2017-12-14 12:26:00 1513272360.149285: $GPGGA,172601,3946.9628,N,08404.9270,W,1,07,2.20,335.39,M,-33.324,M,,*7A
2017-12-14 12:26:00 1513272360.149351: $GPRMC,172601,A,3946.9628,N,08404.9270,W,2.2616,30.331,141217,,*06
2017-12-14 12:26:00 1513272360.149411: $GPGSA,A,3,24,21,10,15,18,20,8,,,,,,6.6,2.2,6.2*05
2017-12-14 12:26:01 1513272361.649961: $GPZDA,172602.00,14,12,2017,00,00*64
2017-12-14 12:26:01 1513272361.650136: $GPGGA,172602,3946.9636,N,08404.9270,W,1,07,2.20,335.27,M,-33.324,M,,*79
2017-12-14 12:26:01 1513272361.650201: $GPRMC,172602,A,3946.9636,N,08404.9270,W,2.1162,31.860,141217,,*03
2017-12-14 12:26:01 1513272361.650262: $GPGSA,A,3,24,21,10,15,18,20,8,,,,,,6.6,2.2,6.2*05
2017-12-14 12:26:02 1513272362.484937: $GPGSV,3,1,12,24,52,105,28,21,59,186,18,10,44,304,25,15,34,054,16*7A
2017-12-14 12:26:02 1513272362.485120: $GPGSV,3,2,12,18,73,346,23,20,31,099,26,08,07,319,11,32,24,240,00*77
2017-12-14 12:26:02 1513272362.485185: $GPGSV,3,3,12,27,18,286,00,14,06,234,00,13,05,049,00,138,38,213,00*47
2017-12-14 12:26:02 1513272362.598283: $GPZDA,172603.00,14,12,2017,00,00*65
2017-12-14 12:26:02 1513272362.598413: $GPGGA,172603,3946.9636,N,08404.9270,W,1,07,2.20,335.27,M,-33.324,M,,*78
2017-12-14 12:26:02 1513272362.598477: $GPRMC,172603,A,3946.9636,N,08404.9270,W,1.8867,11.992,141217,,*0A
2017-12-14 12:26:02 1513272362.598536: $GPGSA,A,3,24,21,10,15,18,20,8,,,,,,6.6,2.2,6.2*05
2017-12-14 12:26:03 1513272363.149277: $GPZDA,172604.00,14,12,2017,00,00*62
2017-12-14 12:26:03 1513272363.149470: $GPGGA,172604,3946.9643,N,08404.9269,W,1,07,2.40,335.15,M,-33.324,M,,*72
2017-12-14 12:26:03 1513272363.149539: $GPRMC,172604,A,3946.9643,N,08404.9269,W,1.7157,28.752,141217,,*0A
2017-12-14 12:26:03 1513272363.149600: $GPGSA,A,3,24,21,10,15,18,20,8,,,,,,6.6,2.4,6.2*03
2017-12-14 12:26:04 1513272364.149278: $GPZDA,172605.00,14,12,2017,00,00*63
2017-12-14 12:26:04 1513272364.149450: $GPGGA,172605,3946.9643,N,08404.9262,W,1,07,2.40,335.22,M,-33.324,M,,*7C
2017-12-14 12:26:04 1513272364.149515: $GPRMC,172605,A,3946.9643,N,08404.9262,W,1.4115,34.536,141217,,*08
2017-12-14 12:26:04 1513272364.149576: $GPGSA,A,3,24,21,10,15,18,20,8,,,,,,6.6,2.4,6.2*03
2017-12-14 12:26:05 1513272365.485530: $GPGSV,3,1,12,24,52,105,27,21,59,186,16,10,44,304,25,15,34,054,16*7B
2017-12-14 12:26:05 1513272365.485701: $GPGSV,3,2,12,18,73,346,23,20,31,099,26,08,07,319,12,32,24,240,00*74
2017-12-14 12:26:05 1513272365.485766: $GPGSV,3,3,12,27,18,286,00,14,06,234,00,13,05,049,00,138,38,213,00*47
2017-12-14 12:26:05 1513272365.599063: $GPZDA,172606.00,14,12,2017,00,00*60
2017-12-14 12:26:05 1513272365.599232: $GPGGA,172606,3946.9647,N,08404.9262,W,1,07,2.40,335.86,M,-33.324,M,,*75
2017-12-14 12:26:05 1513272365.599350: $GPRMC,172606,A,3946.9647,N,08404.9262,W,1.4115,34.536,141217,,*0F
2017-12-14 12:26:05 1513272365.599412: $GPGSA,A,3,24,21,10,15,18,20,8,,,,,,6.6,2.4,6.2*03
2017-12-14 12:26:06 1513272366.149120: $GPZDA,172607.00,14,12,2017,00,00*61
2017-12-14 12:26:06 1513272366.149293: $GPGGA,172607,3946.9647,N,08404.9262,W,1,07,2.40,335.86,M,-33.324,M,,*74
2017-12-14 12:26:06 1513272366.149359: $GPRMC,172607,A,3946.9647,N,08404.9262,W,1.5738,12.547,141217,,*04
2017-12-14 12:26:06 1513272366.149419: $GPGSA,A,3,24,21,10,15,18,20,8,,,,,,6.6,2.4,6.2*03
2017-12-14 12:26:07 1513272367.149200: $GPZDA,172608.00,14,12,2017,00,00*6E
2017-12-14 12:26:07 1513272367.149371: $GPGGA,172608,3946.9651,N,08404.9262,W,1,07,2.40,336.50,M,-33.324,M,,*74
2017-12-14 12:26:07 1513272367.149438: $GPRMC,172608,A,3946.9651,N,08404.9262,W,1.4555,23.637,141217,,*02
2017-12-14 12:26:07 1513272367.149498: $GPGSA,A,3,24,21,10,15,18,20,8,,,,,,6.6,2.4,6.2*03
2017-12-14 12:26:08 1513272368.486153: $GPGSV,3,1,12,24,52,105,27,21,59,186,15,10,44,304,25,15,34,054,17*79
2017-12-14 12:26:08 1513272368.486302: $GPGSV,3,2,12,18,73,346,23,20,31,099,26,08,07,319,10,32,24,240,04*72
2017-12-14 12:26:08 1513272368.486366: $GPGSV,3,3,12,27,18,286,00,14,06,234,00,13,05,049,00,138,38,213,00*47
2017-12-14 12:26:08 1513272368.599555: $GPZDA,172609.00,14,12,2017,00,00*6F
2017-12-14 12:26:08 1513272368.599714: $GPGGA,172609,3946.9651,N,08404.9262,W,1,07,2.40,336.50,M,-33.324,M,,*75
2017-12-14 12:26:08 1513272368.599779: $GPRMC,172609,A,3946.9651,N,08404.9262,W,1.4555,23.637,141217,,*03
2017-12-14 12:26:08 1513272368.599840: $GPGSA,A,3,24,21,10,15,18,20,8,,,,,,6.6,2.4,6.2*03
2017-12-14 12:26:09 1513272369.149680: $GPZDA,172610.00,14,12,2017,00,00*67
2017-12-14 12:26:09 1513272369.149849: $GPGGA,172610,3946.9655,N,08404.9261,W,1,07,2.40,335.74,M,-33.324,M,,*7F
2017-12-14 12:26:09 1513272369.149915: $GPRMC,172610,A,3946.9655,N,08404.9261,W,1.3044,25.352,141217,,*0E
2017-12-14 12:26:09 1513272369.149998: $GPGSA,A,3,24,21,10,15,18,20,8,,,,,,6.6,2.4,6.2*03
2017-12-14 12:26:10 1513272370.149779: $GPZDA,172611.00,14,12,2017,00,00*66
2017-12-14 12:26:10 1513272370.149965: $GPGGA,172611,3946.9659,N,08404.9261,W,1,07,2.40,336.38,M,-33.324,M,,*79
2017-12-14 12:26:10 1513272370.150032: $GPRMC,172611,A,3946.9659,N,08404.9261,W,1.2621,39.347,141217,,*0E
2017-12-14 12:26:10 1513272370.150109: $GPGSA,A,3,24,21,10,15,18,20,8,,,,,,6.6,2.4,6.2*03
2017-12-14 12:26:11 1513272371.488505: $GPGSV,3,1,12,24,52,105,27,21,59,186,14,10,44,304,24,15,34,054,18*76
2017-12-14 12:26:11 1513272371.488680: $GPGSV,3,2,12,18,73,346,23,20,31,099,26,08,07,319,09,32,24,240,14*7B
2017-12-14 12:26:11 1513272371.488744: $GPGSV,3,3,12,27,18,286,00,14,06,234,00,13,05,049,00,138,38,213,00*47
2017-12-14 12:26:11 1513272371.601982: $GPZDA,172612.00,14,12,2017,00,00*65
2017-12-14 12:26:11 1513272371.602235: $GPGGA,172612,3946.9659,N,08404.9261,W,1,08,1.40,336.38,M,-33.324,M,,*76
2017-12-14 12:26:11 1513272371.602325: $GPRMC,172612,A,3946.9659,N,08404.9261,W,1.1385,29.379,141217,,*09
2017-12-14 12:26:11 1513272371.602387: $GPGSA,A,3,24,21,10,15,18,20,8,32,,,,,6.6,1.4,6.2*01
2017-12-14 12:26:12 1513272372.150805: $GPZDA,172613.00,14,12,2017,00,00*64
2017-12-14 12:26:12 1513272372.150988: $GPGGA,172613,3946.9655,N,08404.9261,W,1,08,1.40,335.74,M,-33.324,M,,*70
2017-12-14 12:26:12 1513272372.151071: $GPRMC,172613,A,3946.9655,N,08404.9261,W,0.4844,93.795,141217,,*01
2017-12-14 12:26:12 1513272372.151133: $GPGSA,A,3,24,21,10,15,18,20,8,32,,,,,6.6,1.4,6.2*01
2017-12-14 12:26:13 1513272373.152973: $GPZDA,172614.00,14,12,2017,00,00*63
2017-12-14 12:26:13 1513272373.153226: $GPGGA,172614,3946.9651,N,08404.9262,W,1,08,1.40,336.50,M,-33.324,M,,*75
2017-12-14 12:26:13 1513272373.153368: $GPRMC,172614,A,3946.9651,N,08404.9262,W,0.4207,39.347,141217,,*07
2017-12-14 12:26:13 1513272373.153492: $GPGSA,A,3,24,21,10,15,18,20,8,32,,,,,6.6,1.4,6.2*01
2017-12-14 12:26:14 1513272374.487877: $GPGSV,3,1,12,24,52,105,27,27,18,286,00,10,44,304,24,15,34,054,18*73
2017-12-14 12:26:14 1513272374.488064: $GPGSV,3,2,12,18,73,346,23,20,31,099,26,08,07,319,09,32,24,240,15*7A
2017-12-14 12:26:14 1513272374.488168: $GPGSV,3,3,12,14,06,234,00,13,05,049,00,21,59,186,00,138,38,213,00*47
2017-12-14 12:26:14 1513272374.601264: $GPZDA,172615.00,14,12,2017,00,00*62
2017-12-14 12:26:14 1513272374.601414: $GPGGA,172615,3946.9652,N,08404.9269,W,1,07,1.40,336.43,M,-33.324,M,,*71
2017-12-14 12:26:14 1513272374.601479: $GPRMC,172615,A,3946.9652,N,08404.9269,W,0.5774,27.515,141217,,*00
2017-12-14 12:26:14 1513272374.601539: $GPGSA,A,3,24,10,15,18,20,8,32,,,,,,6.6,1.4,6.2*02
2017-12-14 12:26:15 1513272375.156635: $GPZDA,172616.00,14,12,2017,00,00*61
2017-12-14 12:26:15 1513272375.156819: $GPGGA,172616,3946.9647,N,08404.9269,W,1,07,1.40,335.79,M,-33.324,M,,*7C
2017-12-14 12:26:15 1513272375.156884: $GPRMC,172616,A,3946.9647,N,08404.9269,W,0.2422,93.795,141217,,*05
2017-12-14 12:26:15 1513272375.156966: $GPGSA,A,3,24,10,15,18,20,8,32,,,,,,6.6,1.4,6.2*02
2017-12-14 12:26:16 1513272376.150517: $GPZDA,172617.00,14,12,2017,00,00*60
2017-12-14 12:26:16 1513272376.150685: $GPGGA,172617,3946.9647,N,08404.9269,W,1,07,2.40,335.79,M,-33.324,M,,*7E
2017-12-14 12:26:16 1513272376.150751: $GPRMC,172617,A,3946.9647,N,08404.9269,W,0.4179,328.779,141217,,*38
2017-12-14 12:26:16 1513272376.150811: $GPGSA,A,3,24,10,15,18,20,8,32,,,,,,6.6,2.4,6.2*01
2017-12-14 12:26:17 1513272377.486479: $GPGSV,3,1,12,24,52,105,27,13,05,049,14,10,44,304,24,15,34,054,18*7C
2017-12-14 12:26:17 1513272377.486661: $GPGSV,3,2,12,18,73,346,23,20,31,099,26,08,07,319,10,32,24,240,08*7E
2017-12-14 12:26:17 1513272377.486727: $GPGSV,3,3,12,27,18,286,00,14,06,234,00,21,59,186,00,138,38,213,00*4D
2017-12-14 12:26:17 1513272377.600149: $GPZDA,172618.00,14,12,2017,00,00*6F
2017-12-14 12:26:17 1513272377.600314: $GPGGA,172618,3946.9648,N,08404.9276,W,1,07,2.40,335.71,M,-33.324,M,,*78
2017-12-14 12:26:17 1513272377.600380: $GPRMC,172618,A,3946.9648,N,08404.9276,W,0.1867,0.000,141217,,*35
2017-12-14 12:26:17 1513272377.600440: $GPGSA,A,3,24,10,15,18,20,8,32,,,,,,6.6,2.4,6.2*01
2017-12-14 12:26:18 1513272378.153380: $GPZDA,172619.00,14,12,2017,00,00*6E
2017-12-14 12:26:18 1513272378.153558: $GPGGA,172619,3946.9648,N,08404.9276,W,1,07,1.40,335.71,M,-33.324,M,,*7A
2017-12-14 12:26:18 1513272378.153642: $GPRMC,172619,A,3946.9648,N,08404.9276,W,0.7246,344.668,141217,,*30
2017-12-14 12:26:18 1513272378.153704: $GPGSA,A,3,24,10,15,18,20,8,32,,,,,,6.6,1.4,6.2*02
