2017-11-15 19:16:21 1510791381.272032: {"class":"VERSION","release":"3.17","rev":"3.17","proto_major":3,"proto_minor":12}
2017-11-15 19:16:21 1510791381.272492: {"class":"DEVICES","devices":[{"class":"DEVICE","path":"/dev/ttyUSB0","driver":"SiRF","subtype":"9\u0006GSD4e_4.1.2-P1_RPATCH.05-F-GPS-4R-1510281 11/03/2015 307","activated":"2017-11-16T00:16:21.218Z","flags":1,"native":1,"bps":4800,"parity":"N","stopbits":1,"cycle":1.00}]}
2017-11-15 19:16:21 1510791381.272606: {"class":"WATCH","enable":true,"json":false,"nmea":true,"raw":0,"scaled":false,"timing":false,"split24":false,"pps":false}
2017-11-15 19:16:21 1510791381.666516: $GPGSV,3,1,11,32,41,102,14,14,59,084,26,22,49,280,23,26,46,175,10*7A
2017-11-15 19:16:21 1510791381.666684: $GPGSV,3,2,11,31,72,013,18,16,16,190,08,03,36,304,19,01,09,256,04*70
2017-11-15 19:16:21 1510791381.666805: $GPGSV,3,3,11,25,22,042,00,29,09,076,00,23,07,298,00*4E
2017-11-15 19:16:21 1510791381.779798: $GPZDA,001620.00,16,11,2017,00,00*60
2017-11-15 19:16:21 1510791381.779949: $GPGGA,001620,3946.9733,N,08404.9429,W,1,07,1.40,294.88,M,-33.324,M,,*78
2017-11-15 19:16:21 1510791381.780007: $GPRMC,001620,A,3946.9733,N,08404.9429,W,0.3423,4.197,161117,,*3E
2017-11-15 19:16:21 1510791381.780062: $GPGSA,A,3,32,14,22,26,31,16,3,,,,,,3.4,1.4,2.9*0D
2017-11-15 19:16:22 1510791382.347134: $GPZDA,001621.00,16,11,2017,00,00*61
2017-11-15 19:16:22 1510791382.347298: $GPGGA,001621,3946.9733,N,08404.9429,W,1,07,1.40,294.88,M,-33.324,M,,*79
2017-11-15 19:16:22 1510791382.347357: $GPRMC,001621,A,3946.9733,N,08404.9429,W,0.4207,39.347,161117,,*09
2017-11-15 19:16:22 1510791382.347412: $GPGSA,A,3,32,14,22,26,31,16,3,,,,,,3.4,1.4,2.9*0D
2017-11-15 19:16:23 1510791383.346572: $GPZDA,001622.00,16,11,2017,00,00*62
2017-11-15 19:16:23 1510791383.346780: $GPGGA,001622,3946.9736,N,08404.9428,W,1,07,1.40,294.11,M,-33.324,M,,*7E
2017-11-15 19:16:23 1510791383.346850: $GPRMC,001622,A,3946.9736,N,08404.9428,W,1.3044,25.352,161117,,*04
2017-11-15 19:16:23 1510791383.346907: $GPGSA,A,3,32,14,22,26,31,16,3,,,,,,3.4,1.4,2.9*0D
2017-11-15 19:16:24 1510791384.682517: $GPGSV,3,1,11,32,41,102,16,14,59,084,26,22,49,280,23,26,46,175,09*70
2017-11-15 19:16:24 1510791384.682681: $GPGSV,3,2,11,31,72,013,19,16,16,190,07,03,36,304,20,01,09,256,04*74
2017-11-15 19:16:24 1510791384.682740: $GPGSV,3,3,11,25,22,042,00,29,09,076,00,23,07,298,00*4E
2017-11-15 19:16:24 1510791384.795846: $GPZDA,001623.00,16,11,2017,00,00*63
2017-11-15 19:16:24 1510791384.796024: $GPGGA,001623,3946.9736,N,08404.9428,W,1,07,1.40,294.11,M,-33.324,M,,*7F
2017-11-15 19:16:24 1510791384.796088: $GPRMC,001623,A,3946.9736,N,08404.9428,W,1.5494,42.258,161117,,*00
2017-11-15 19:16:24 1510791384.796146: $GPGSA,A,3,32,14,22,26,31,16,3,,,,,,3.4,1.4,2.9*0D
2017-11-15 19:16:25 1510791385.330461: $GPZDA,001624.00,16,11,2017,00,00*64
2017-11-15 19:16:25 1510791385.330632: $GPGGA,001624,3946.9744,N,08404.9420,W,1,07,1.40,294.07,M,-33.324,M,,*72
2017-11-15 19:16:25 1510791385.330699: $GPRMC,001624,A,3946.9744,N,08404.9420,W,1.2621,39.347,161117,,*02
2017-11-15 19:16:25 1510791385.330757: $GPGSA,A,3,32,14,22,26,31,16,3,,,,,,3.4,1.4,2.9*0D
2017-11-15 19:16:26 1510791386.347187: $GPZDA,001625.00,16,11,2017,00,00*65
2017-11-15 19:16:26 1510791386.347346: $GPGGA,001625,3946.9744,N,08404.9420,W,1,07,3.40,294.07,M,-33.324,M,,*71
2017-11-15 19:16:26 1510791386.347406: $GPRMC,001625,A,3946.9744,N,08404.9420,W,1.0018,50.691,161117,,*0C
2017-11-15 19:16:26 1510791386.347462: $GPGSA,A,3,32,14,22,26,31,16,3,,,,,,3.4,3.4,2.9*0F
2017-11-15 19:16:27 1510791387.682839: $GPGSV,3,1,11,32,41,102,17,14,59,084,26,22,49,280,23,26,46,175,06*7E
2017-11-15 19:16:27 1510791387.683043: $GPGSV,3,2,11,31,72,013,19,16,16,190,06,03,36,304,20,01,09,256,04*75
2017-11-15 19:16:27 1510791387.683105: $GPGSV,3,3,11,25,22,042,00,29,09,076,00,23,07,298,00*4E
2017-11-15 19:16:27 1510791387.796256: $GPZDA,001626.00,16,11,2017,00,00*66
2017-11-15 19:16:27 1510791387.796444: $GPGGA,001626,3946.9744,N,08404.9420,W,1,06,3.40,294.07,M,-33.324,M,,*73
2017-11-15 19:16:27 1510791387.796506: $GPRMC,001626,A,3946.9744,N,08404.9420,W,0.8414,39.347,161117,,*0F
2017-11-15 19:16:27 1510791387.796612: $GPGSA,A,3,32,14,22,31,16,3,,,,,,,3.4,3.4,2.9*0B
2017-11-15 19:16:28 1510791388.330805: $GPZDA,001627.00,16,11,2017,00,00*67
2017-11-15 19:16:28 1510791388.330985: $GPGGA,001627,3946.9744,N,08404.9420,W,1,06,3.40,294.07,M,-33.324,M,,*72
2017-11-15 19:16:28 1510791388.331064: $GPRMC,001627,A,3946.9744,N,08404.9420,W,1.1385,29.379,161117,,*05
2017-11-15 19:16:28 1510791388.331121: $GPGSA,A,3,32,14,22,31,16,3,,,,,,,3.4,3.4,2.9*0B
2017-11-15 19:16:29 1510791389.330462: $GPZDA,001628.00,16,11,2017,00,00*68
2017-11-15 19:16:29 1510791389.330637: $GPGGA,001628,3946.9747,N,08404.9420,W,1,06,1.40,293.30,M,-33.324,M,,*7F
2017-11-15 19:16:29 1510791389.330699: $GPRMC,001628,A,3946.9747,N,08404.9420,W,1.1385,29.379,161117,,*09
2017-11-15 19:16:29 1510791389.330755: $GPGSA,A,3,32,14,22,31,16,3,,,,,,,3.4,1.4,2.9*09
2017-11-15 19:16:30 1510791390.666229: $GPGSV,3,1,11,32,41,102,16,14,59,084,26,22,49,280,23,26,46,175,08*71
2017-11-15 19:16:30 1510791390.666377: $GPGSV,3,2,11,31,72,013,19,16,16,190,07,03,36,304,21,01,09,256,04*75
2017-11-15 19:16:30 1510791390.666437: $GPGSV,3,3,11,25,22,042,00,29,09,076,00,23,07,298,00*4E
2017-11-15 19:16:30 1510791390.779564: $GPZDA,001629.00,16,11,2017,00,00*69
2017-11-15 19:16:30 1510791390.779742: $GPGGA,001629,3946.9747,N,08404.9420,W,1,07,1.40,293.30,M,-33.324,M,,*7F
2017-11-15 19:16:30 1510791390.779803: $GPRMC,001629,A,3946.9747,N,08404.9420,W,0.7278,23.636,161117,,*08
2017-11-15 19:16:30 1510791390.779859: $GPGSA,A,3,32,14,22,26,31,16,3,,,,,,3.4,1.4,2.9*0D
