2017-12-01 17:56:53 1512169013.146895: {"class":"VERSION","release":"3.16","rev":"3.16-4","proto_major":3,"proto_minor":11}
2017-12-01 17:56:53 1512169013.147361: {"class":"DEVICES","devices":[{"class":"DEVICE","path":"/dev/ttyUSB0","driver":"SiRF","subtype":"9\u0006GSD4e_4.1.2-P1_RPATCH.05-F-GPS-4R-1510281 11/03/2015 307","activated":"2017-12-01T22:56:52.689Z","flags":1,"native":1,"bps":4800,"parity":"N","stopbits":1,"cycle":1.00}]}
2017-12-01 17:56:53 1512169013.147481: {"class":"WATCH","enable":true,"json":false,"nmea":true,"raw":0,"scaled":false,"timing":false,"split24":false,"pps":false}
2017-12-01 17:56:53 1512169013.375975: $GPZDA,225654.00,01,12,2017,00,00*62
2017-12-01 17:56:53 1512169013.376167: $GPGGA,225654,3946.9732,N,08404.9854,W,2,12,0.80,299.69,M,-33.325,M,,*71
2017-12-01 17:56:53 1512169013.376252: $GPRMC,225654,A,3946.9732,N,08404.9854,W,0.0000,0.000,011217,,*36
2017-12-01 17:56:53 1512169013.376314: $GPGSA,A,3,1,3,10,14,16,22,29,25,26,31,32,138,2.0,0.8,1.5*0C
2017-12-01 17:56:54 1512169014.711265: $GPGSV,3,1,12,01,12,262,35,03,32,309,48,10,09,159,40,14,63,072,42*7C
2017-12-01 17:56:54 1512169014.711529: $GPGSV,3,2,12,16,11,189,41,22,47,288,46,29,06,082,22,25,27,046,42*7B
2017-12-01 17:56:54 1512169014.711600: $GPGSV,3,3,12,26,40,175,45,31,76,357,46,32,45,096,44,138,38,213,45*47
2017-12-01 17:56:54 1512169014.824893: $GPZDA,225655.00,01,12,2017,00,00*63
2017-12-01 17:56:54 1512169014.825054: $GPGGA,225655,3946.9732,N,08404.9854,W,2,12,0.80,299.69,M,-33.325,M,,*70
2017-12-01 17:56:54 1512169014.825120: $GPRMC,225655,A,3946.9732,N,08404.9854,W,0.0000,0.000,011217,,*37
2017-12-01 17:56:54 1512169014.825182: $GPGSA,A,3,1,3,10,14,16,22,29,25,26,31,32,138,2.0,0.8,1.5*0C
2017-12-01 17:56:55 1512169015.374581: $GPZDA,225656.00,01,12,2017,00,00*60
2017-12-01 17:56:55 1512169015.374750: $GPGGA,225656,3946.9732,N,08404.9854,W,2,12,0.80,299.69,M,-33.325,M,,*73
2017-12-01 17:56:55 1512169015.374816: $GPRMC,225656,A,3946.9732,N,08404.9854,W,0.0000,0.000,011217,,*34
2017-12-01 17:56:55 1512169015.374877: $GPGSA,A,3,1,3,10,14,16,22,29,25,26,31,32,138,2.0,0.8,1.5*0C
2017-12-01 17:56:56 1512169016.374180: $GPZDA,225657.00,01,12,2017,00,00*61
2017-12-01 17:56:56 1512169016.374346: $GPGGA,225657,3946.9732,N,08404.9854,W,2,12,0.80,299.69,M,-33.325,M,,*72
2017-12-01 17:56:56 1512169016.374411: $GPRMC,225657,A,3946.9732,N,08404.9854,W,0.0000,0.000,011217,,*35
2017-12-01 17:56:56 1512169016.374472: $GPGSA,A,3,1,3,10,14,16,22,29,25,26,31,32,138,2.0,0.8,1.5*0C
2017-12-01 17:56:57 1512169017.710863: $GPGSV,3,1,12,01,12,262,36,03,32,309,47,10,09,159,40,14,63,072,42*70
2017-12-01 17:56:57 1512169017.711049: $GPGSV,3,2,12,16,11,189,41,22,47,288,46,29,06,082,22,25,27,046,41*78
2017-12-01 17:56:57 1512169017.711115: $GPGSV,3,3,12,26,40,175,44,31,76,357,46,32,45,096,44,138,38,213,45*46
2017-12-01 17:56:57 1512169017.824233: $GPZDA,225658.00,01,12,2017,00,00*6E
2017-12-01 17:56:57 1512169017.824405: $GPGGA,225658,3946.9732,N,08404.9854,W,2,12,0.80,299.69,M,-33.325,M,,*7D
2017-12-01 17:56:57 1512169017.824472: $GPRMC,225658,A,3946.9732,N,08404.9854,W,0.0000,0.000,011217,,*3A
2017-12-01 17:56:57 1512169017.824534: $GPGSA,A,3,1,3,10,14,16,22,29,25,26,31,32,138,2.0,0.8,1.5*0C
2017-12-01 17:56:58 1512169018.449664: $GPZDA,225659.00,01,12,2017,00,00*6F
2017-12-01 17:56:58 1512169018.449829: $GPGGA,225659,3946.9732,N,08404.9854,W,2,12,0.80,299.69,M,-33.325,M,,*7C
2017-12-01 17:56:58 1512169018.449896: $GPRMC,225659,A,3946.9732,N,08404.9854,W,0.0000,0.000,011217,,*3B
2017-12-01 17:56:58 1512169018.449958: $GPGSA,A,3,1,3,10,14,16,22,29,25,26,31,32,138,2.0,0.8,1.5*0C
2017-12-01 17:56:59 1512169019.375577: $GPZDA,225700.00,01,12,2017,00,00*62
2017-12-01 17:56:59 1512169019.375753: $GPGGA,225700,3946.9732,N,08404.9854,W,2,12,0.80,299.69,M,-33.325,M,,*71
2017-12-01 17:56:59 1512169019.375822: $GPRMC,225700,A,3946.9732,N,08404.9854,W,0.0000,0.000,011217,,*36
2017-12-01 17:56:59 1512169019.375883: $GPGSA,A,3,1,3,10,14,16,22,29,25,26,31,32,138,2.0,0.8,1.5*0C
2017-12-01 17:57:00 1512169020.707509: $GPGSV,3,1,12,01,12,262,36,03,32,309,48,10,09,159,40,14,63,072,42*7F
2017-12-01 17:57:00 1512169020.707738: $GPGSV,3,2,12,16,11,189,41,22,47,288,46,29,06,082,22,25,27,046,42*7B
2017-12-01 17:57:00 1512169020.707809: $GPGSV,3,3,12,26,40,175,45,31,76,357,46,32,45,096,44,138,38,213,45*47
2017-12-01 17:57:00 1512169020.820834: $GPZDA,225701.00,01,12,2017,00,00*63
2017-12-01 17:57:00 1512169020.821022: $GPGGA,225701,3946.9732,N,08404.9854,W,2,12,0.80,299.69,M,-33.325,M,,*70
2017-12-01 17:57:00 1512169020.821123: $GPRMC,225701,A,3946.9732,N,08404.9854,W,0.0000,0.000,011217,,*37
2017-12-01 17:57:00 1512169020.821187: $GPGSA,A,3,1,3,10,14,16,22,29,25,26,31,32,138,2.0,0.8,1.5*0C
2017-12-01 17:57:01 1512169021.903294: $GPZDA,225702.00,01,12,2017,00,00*60
2017-12-01 17:57:01 1512169021.903465: $GPGGA,225702,3946.9736,N,08404.9846,W,2,12,0.80,299.00,M,-33.325,M,,*7B
2017-12-01 17:57:01 1512169021.903531: $GPRMC,225702,A,3946.9736,N,08404.9846,W,0.0000,0.000,011217,,*33
2017-12-01 17:57:01 1512169021.903593: $GPGSA,A,3,1,3,10,14,16,22,29,25,26,31,32,138,2.0,0.8,1.5*0C
2017-12-01 17:57:02 1512169022.376653: $GPZDA,225703.00,01,12,2017,00,00*61
2017-12-01 17:57:02 1512169022.376837: $GPGGA,225703,3946.9736,N,08404.9846,W,2,12,0.80,299.00,M,-33.325,M,,*7A
2017-12-01 17:57:02 1512169022.376953: $GPRMC,225703,A,3946.9736,N,08404.9846,W,0.0000,0.000,011217,,*32
2017-12-01 17:57:02 1512169022.377019: $GPGSA,A,3,1,3,10,14,16,22,29,25,26,31,32,138,2.0,0.8,1.5*0C
2017-12-01 17:57:03 1512169023.711664: $GPGSV,3,1,12,01,12,262,35,03,32,309,48,10,08,159,40,14,63,072,42*7D
2017-12-01 17:57:03 1512169023.711857: $GPGSV,3,2,12,16,11,189,41,22,47,288,46,29,06,082,25,25,27,046,42*7C
2017-12-01 17:57:03 1512169023.711947: $GPGSV,3,3,12,26,40,175,46,31,76,358,46,32,45,096,44,138,38,213,45*4B
2017-12-01 17:57:03 1512169023.825015: $GPZDA,225704.00,01,12,2017,00,00*66
2017-12-01 17:57:03 1512169023.825199: $GPGGA,225704,3946.9736,N,08404.9846,W,2,12,0.80,299.00,M,-33.325,M,,*7D
2017-12-01 17:57:03 1512169023.825270: $GPRMC,225704,A,3946.9736,N,08404.9846,W,0.0000,0.000,011217,,*35
2017-12-01 17:57:03 1512169023.825334: $GPGSA,A,3,1,3,10,14,16,22,29,25,26,31,32,138,2.0,0.8,1.5*0C
2017-12-01 17:57:04 1512169024.373365: $GPZDA,225705.00,01,12,2017,00,00*67
2017-12-01 17:57:04 1512169024.373529: $GPGGA,225705,3946.9736,N,08404.9846,W,2,12,0.80,299.00,M,-33.325,M,,*7C
2017-12-01 17:57:04 1512169024.373600: $GPRMC,225705,A,3946.9736,N,08404.9846,W,0.0000,0.000,011217,,*34
2017-12-01 17:57:04 1512169024.373665: $GPGSA,A,3,1,3,10,14,16,22,29,25,26,31,32,138,2.0,0.8,1.5*0C
2017-12-01 17:57:05 1512169025.375870: $GPZDA,225706.00,01,12,2017,00,00*64
2017-12-01 17:57:05 1512169025.376080: $GPGGA,225706,3946.9736,N,08404.9846,W,2,12,0.80,299.00,M,-33.325,M,,*7F
2017-12-01 17:57:05 1512169025.376150: $GPRMC,225706,A,3946.9736,N,08404.9846,W,0.0000,0.000,011217,,*37
2017-12-01 17:57:05 1512169025.376214: $GPGSA,A,3,1,3,10,14,16,22,29,25,26,31,32,138,2.0,0.8,1.5*0C
2017-12-01 17:57:06 1512169026.711217: $GPGSV,3,1,12,01,12,262,35,03,32,309,47,10,08,159,40,14,63,072,41*71
2017-12-01 17:57:06 1512169026.711417: $GPGSV,3,2,12,16,11,189,41,22,47,288,46,29,06,082,24,25,27,046,42*7D
2017-12-01 17:57:06 1512169026.711561: $GPGSV,3,3,12,26,40,175,46,31,76,358,46,32,45,096,44,138,38,213,46*48
2017-12-01 17:57:06 1512169026.824827: $GPZDA,225707.00,01,12,2017,00,00*65
2017-12-01 17:57:06 1512169026.825052: $GPGGA,225707,3946.9736,N,08404.9846,W,2,12,0.80,299.00,M,-33.325,M,,*7E
2017-12-01 17:57:06 1512169026.825124: $GPRMC,225707,A,3946.9736,N,08404.9846,W,0.0000,0.000,011217,,*36
2017-12-01 17:57:06 1512169026.825188: $GPGSA,A,3,1,3,10,14,16,22,29,25,26,31,32,138,2.0,0.8,1.5*0C
2017-12-01 17:57:07 1512169027.375827: $GPZDA,225708.00,01,12,2017,00,00*6A
2017-12-01 17:57:08 1512169028.334155: $GPGGA,225708,3946.9736,N,08404.9846,W,2,12,0.80,299.00,M,-33.325,M,,*71
2017-12-01 17:57:08 1512169028.334322: $GPRMC,225708,A,3946.9736,N,08404.9846,W,0.0000,0.000,011217,,*39
2017-12-01 17:57:08 1512169028.334389: $GPGSA,A,3,1,3,10,14,16,22,29,25,26,31,32,138,2.0,0.8,1.5*0C
2017-12-01 17:57:08 1512169028.372509: $GPZDA,225709.00,01,12,2017,00,00*6B
2017-12-01 17:57:08 1512169028.372662: $GPGGA,225709,3946.9736,N,08404.9846,W,2,12,0.80,299.00,M,-33.325,M,,*70
2017-12-01 17:57:08 1512169028.372729: $GPRMC,225709,A,3946.9736,N,08404.9846,W,0.0000,0.000,011217,,*38
2017-12-01 17:57:08 1512169028.372789: $GPGSA,A,3,1,3,10,14,16,22,29,25,26,31,32,138,2.0,0.8,1.5*0C
2017-12-01 17:57:09 1512169029.711710: $GPGSV,3,1,12,01,12,262,35,03,32,309,47,10,08,159,39,14,63,072,41*7F
2017-12-01 17:57:09 1512169029.711914: $GPGSV,3,2,12,16,11,189,41,22,47,288,46,29,06,082,24,25,27,046,41*7E
2017-12-01 17:57:09 1512169029.711999: $GPGSV,3,3,12,26,40,175,45,31,76,358,46,32,45,096,44,138,38,213,46*4B
2017-12-01 17:57:09 1512169029.825413: $GPZDA,225710.00,01,12,2017,00,00*63
2017-12-01 17:57:09 1512169029.825569: $GPGGA,225710,3946.9736,N,08404.9846,W,2,12,0.80,299.00,M,-33.325,M,,*78
2017-12-01 17:57:09 1512169029.825635: $GPRMC,225710,A,3946.9736,N,08404.9846,W,0.0000,0.000,011217,,*30
2017-12-01 17:57:09 1512169029.825696: $GPGSA,A,3,1,3,10,14,16,22,29,25,26,31,32,138,2.0,0.8,1.5*0C
2017-12-01 17:57:10 1512169030.374680: $GPZDA,225711.00,01,12,2017,00,00*62
2017-12-01 17:57:10 1512169030.374873: $GPGGA,225711,3946.9736,N,08404.9846,W,2,12,0.80,299.00,M,-33.325,M,,*79
2017-12-01 17:57:10 1512169030.374969: $GPRMC,225711,A,3946.9736,N,08404.9846,W,0.0000,0.000,011217,,*31
2017-12-01 17:57:10 1512169030.375052: $GPGSA,A,3,1,3,10,14,16,22,29,25,26,31,32,138,2.0,0.8,1.5*0C
2017-12-01 17:57:11 1512169031.377162: $GPZDA,225712.00,01,12,2017,00,00*61
2017-12-01 17:57:11 1512169031.377454: $GPGGA,225712,3946.9736,N,08404.9846,W,2,12,0.80,299.00,M,-33.325,M,,*7A
2017-12-01 17:57:11 1512169031.377593: $GPRMC,225712,A,3946.9736,N,08404.9846,W,0.0000,0.000,011217,,*32
2017-12-01 17:57:11 1512169031.377697: $GPGSA,A,3,1,3,10,14,16,22,29,25,26,31,32,138,2.0,0.8,1.5*0C
2017-12-01 17:57:12 1512169032.710008: $GPGSV,3,1,12,01,12,262,36,03,32,309,47,10,08,159,39,14,63,072,41*7C
2017-12-01 17:57:12 1512169032.710170: $GPGSV,3,2,12,16,11,189,41,22,47,288,46,29,06,082,24,25,27,046,41*7E
2017-12-01 17:57:12 1512169032.710237: $GPGSV,3,3,12,26,40,175,45,31,76,358,47,32,45,096,44,138,38,213,45*49
2017-12-01 17:57:12 1512169032.823353: $GPZDA,225713.00,01,12,2017,00,00*60
2017-12-01 17:57:12 1512169032.823525: $GPGGA,225713,3946.9736,N,08404.9846,W,2,12,0.80,299.00,M,-33.325,M,,*7B
2017-12-01 17:57:12 1512169032.823592: $GPRMC,225713,A,3946.9736,N,08404.9846,W,0.0000,0.000,011217,,*33
2017-12-01 17:57:12 1512169032.823653: $GPGSA,A,3,1,3,10,14,16,22,29,25,26,31,32,138,2.0,0.8,1.5*0C
