2017-12-31 16:51:41 1514757101.797811: {"class":"VERSION","release":"3.16","rev":"3.16-4","proto_major":3,"proto_minor":11}
2017-12-31 16:51:41 1514757101.798169: {"class":"DEVICES","devices":[{"class":"DEVICE","path":"/dev/ttyUSB0","driver":"SiRF","activated":"2017-12-31T21:51:41.485Z","flags":1,"native":1,"bps":4800,"parity":"N","stopbits":1,"cycle":1.00}]}
2017-12-31 16:51:41 1514757101.798268: {"class":"WATCH","enable":true,"json":false,"nmea":true,"raw":0,"scaled":false,"timing":false,"split24":false,"pps":false}
2017-12-31 16:51:42 1514757102.688466: $GPGSV,3,1,11,22,47,247,44,23,22,306,41,25,07,037,27,03,46,280,38*79
2017-12-31 16:51:42 1514757102.688633: $GPGSV,3,2,11,16,39,190,47,29,14,060,26,31,55,045,51,14,45,108,44*78
2017-12-31 16:51:42 1514757102.688698: $GPGSV,3,3,11,32,24,118,42,26,69,157,43,135,22,240,44*7E
2017-12-31 16:51:42 1514757102.801861: $GPZDA,215143.00,31,12,2017,00,00*63
2017-12-31 16:51:42 1514757102.802028: $GPGGA,215143,3946.9581,N,08404.9855,W,2,11,0.80,303.74,M,-33.324,M,,*74
2017-12-31 16:51:42 1514757102.802093: $GPRMC,215143,A,3946.9581,N,08404.9855,W,0.0000,0.000,311217,,*3C
2017-12-31 16:51:42 1514757102.802153: $GPGSA,A,3,22,23,25,3,16,29,31,14,32,26,135,,1.7,0.8,1.3*32
2017-12-31 16:51:43 1514757103.360574: $GPZDA,215144.00,31,12,2017,00,00*64
2017-12-31 16:51:43 1514757103.360731: $GPGGA,215144,3946.9581,N,08404.9855,W,2,11,0.80,303.74,M,-33.324,M,,*73
2017-12-31 16:51:43 1514757103.360796: $GPRMC,215144,A,3946.9581,N,08404.9855,W,0.0000,0.000,311217,,*3B
2017-12-31 16:51:43 1514757103.360856: $GPGSA,A,3,22,23,25,3,16,29,31,14,32,26,135,,1.7,0.8,1.3*32
2017-12-31 16:51:44 1514757104.343867: $GPZDA,215145.00,31,12,2017,00,00*65
2017-12-31 16:51:44 1514757104.344033: $GPGGA,215145,3946.9581,N,08404.9855,W,2,11,0.80,303.74,M,-33.324,M,,*72
2017-12-31 16:51:44 1514757104.344099: $GPRMC,215145,A,3946.9581,N,08404.9855,W,0.0000,0.000,311217,,*3A
2017-12-31 16:51:44 1514757104.344159: $GPGSA,A,3,22,23,25,3,16,29,31,14,32,26,135,,1.7,0.8,1.3*32
2017-12-31 16:51:45 1514757105.680072: $GPGSV,3,1,11,22,47,247,43,23,22,306,41,25,07,037,27,03,46,280,38*7E
2017-12-31 16:51:45 1514757105.680242: $GPGSV,3,2,11,16,39,190,47,29,14,060,27,31,55,045,51,14,45,108,44*79
2017-12-31 16:51:45 1514757105.680311: $GPGSV,3,3,11,32,24,118,42,26,69,157,43,135,22,240,43*79
2017-12-31 16:51:45 1514757105.792429: $GPZDA,215146.00,31,12,2017,00,00*66
2017-12-31 16:51:45 1514757105.792570: $GPGGA,215146,3946.9581,N,08404.9855,W,2,11,0.80,303.74,M,-33.324,M,,*71
2017-12-31 16:51:45 1514757105.792639: $GPRMC,215146,A,3946.9581,N,08404.9855,W,0.0000,0.000,311217,,*39
2017-12-31 16:51:45 1514757105.792702: $GPGSA,A,3,22,23,25,3,16,29,31,14,32,26,135,,1.7,0.8,1.3*32
2017-12-31 16:51:46 1514757106.344585: $GPZDA,215147.00,31,12,2017,00,00*67
2017-12-31 16:51:46 1514757106.344754: $GPGGA,215147,3946.9581,N,08404.9855,W,2,11,0.80,303.74,M,-33.324,M,,*70
2017-12-31 16:51:46 1514757106.344823: $GPRMC,215147,A,3946.9581,N,08404.9855,W,0.0000,0.000,311217,,*38
2017-12-31 16:51:46 1514757106.344887: $GPGSA,A,3,22,23,25,3,16,29,31,14,32,26,135,,1.7,0.8,1.3*32
2017-12-31 16:51:47 1514757107.345450: $GPZDA,215148.00,31,12,2017,00,00*68
2017-12-31 16:51:47 1514757107.345638: $GPGGA,215148,3946.9581,N,08404.9855,W,2,11,0.80,303.74,M,-33.324,M,,*7F
2017-12-31 16:51:47 1514757107.345707: $GPRMC,215148,A,3946.9581,N,08404.9855,W,0.0000,0.000,311217,,*37
2017-12-31 16:51:47 1514757107.345770: $GPGSA,A,3,22,23,25,3,16,29,31,14,32,26,135,,1.7,0.8,1.3*32
2017-12-31 16:51:48 1514757108.672171: $GPGSV,3,1,11,22,47,247,43,23,22,306,42,25,07,037,28,03,46,280,38*72
2017-12-31 16:51:48 1514757108.672324: $GPGSV,3,2,11,16,39,190,47,29,14,060,28,31,55,045,51,14,45,108,44*76
2017-12-31 16:51:48 1514757108.672408: $GPGSV,3,3,11,32,24,118,43,26,69,157,44,135,22,240,44*78
2017-12-31 16:51:48 1514757108.785770: $GPZDA,215149.00,31,12,2017,00,00*69
2017-12-31 16:51:48 1514757108.785897: $GPGGA,215149,3946.9581,N,08404.9855,W,2,11,0.80,303.74,M,-33.324,M,,*7E
2017-12-31 16:51:48 1514757108.785964: $GPRMC,215149,A,3946.9581,N,08404.9855,W,0.0000,0.000,311217,,*36
2017-12-31 16:51:48 1514757108.786081: $GPGSA,A,3,22,23,25,3,16,29,31,14,32,26,135,,1.7,0.8,1.3*32
2017-12-31 16:51:49 1514757109.361635: $GPZDA,215150.00,31,12,2017,00,00*61
2017-12-31 16:51:49 1514757109.361800: $GPGGA,215150,3946.9581,N,08404.9855,W,2,11,0.80,303.74,M,-33.324,M,,*76
2017-12-31 16:51:49 1514757109.361866: $GPRMC,215150,A,3946.9581,N,08404.9855,W,0.0000,0.000,311217,,*3E
2017-12-31 16:51:49 1514757109.361927: $GPGSA,A,3,22,23,25,3,16,29,31,14,32,26,135,,1.7,0.8,1.3*32
2017-12-31 16:51:50 1514757110.344559: $GPZDA,215151.00,31,12,2017,00,00*60
2017-12-31 16:51:50 1514757110.344725: $GPGGA,215151,3946.9581,N,08404.9855,W,2,11,0.80,303.74,M,-33.324,M,,*77
2017-12-31 16:51:50 1514757110.344791: $GPRMC,215151,A,3946.9581,N,08404.9855,W,0.0000,0.000,311217,,*3F
2017-12-31 16:51:50 1514757110.344852: $GPGSA,A,3,22,23,25,3,16,29,31,14,32,26,135,,1.7,0.8,1.3*32
2017-12-31 16:51:51 1514757111.680006: $GPGSV,3,1,11,22,47,247,44,23,22,306,42,25,07,037,28,03,46,280,38*75
2017-12-31 16:51:51 1514757111.680187: $GPGSV,3,2,11,16,39,190,47,29,14,060,28,31,55,045,51,14,45,108,44*76
2017-12-31 16:51:51 1514757111.680253: $GPGSV,3,3,11,32,24,118,43,26,69,157,44,135,22,240,43*7F
2017-12-31 16:51:51 1514757111.792428: $GPZDA,215152.00,31,12,2017,00,00*63
2017-12-31 16:51:51 1514757111.792610: $GPGGA,215152,3946.9581,N,08404.9855,W,2,11,0.80,303.74,M,-33.324,M,,*74
2017-12-31 16:51:51 1514757111.792674: $GPRMC,215152,A,3946.9581,N,08404.9855,W,0.0000,0.000,311217,,*3C
2017-12-31 16:51:51 1514757111.792735: $GPGSA,A,3,22,23,25,3,16,29,31,14,32,26,135,,1.7,0.8,1.3*32
