2017-12-01 15:45:42 1512161142.986899: {"class":"VERSION","release":"3.16","rev":"3.16-4","proto_major":3,"proto_minor":11}
2017-12-01 15:45:42 1512161142.987816: {"class":"DEVICES","devices":[{"class":"DEVICE","path":"/dev/ttyUSB0","driver":"SiRF","subtype":"9\u0006GSD4e_4.1.2-P1_RPATCH.05-F-GPS-4R-1510281 11/03/2015 307","activated":"2017-12-01T20:45:42.701Z","flags":1,"native":1,"bps":4800,"parity":"N","stopbits":1,"cycle":1.00}]}
2017-12-01 15:45:42 1512161142.987950: {"class":"WATCH","enable":true,"json":false,"nmea":true,"raw":0,"scaled":false,"timing":false,"split24":false,"pps":false}
2017-12-01 15:45:43 1512161143.382650: $GPZDA,204544.00,01,12,2017,00,00*63
2017-12-01 15:45:43 1512161143.382826: $GPGGA,204544,3946.9586,N,08404.9842,W,2,12,0.80,293.10,M,-33.324,M,,*7F
2017-12-01 15:45:43 1512161143.382899: $GPRMC,204544,A,3946.9586,N,08404.9842,W,0.0000,0.000,011217,,*3D
2017-12-01 15:45:43 1512161143.382960: $GPGSA,A,3,1,10,11,12,14,18,22,24,25,31,32,138,2.0,0.8,1.5*3B
2017-12-01 15:45:44 1512161144.721736: $GPGSV,3,1,12,01,14,318,37,10,69,132,47,11,11,301,38,12,25,072,38*7C
2017-12-01 15:45:44 1512161144.721918: $GPGSV,3,2,12,14,55,292,42,18,37,135,47,22,03,310,37,24,14,045,35*79
2017-12-01 15:45:44 1512161144.721989: $GPGSV,3,3,12,25,30,114,42,31,35,211,50,32,68,330,48,138,38,213,46*4F
2017-12-01 15:45:44 1512161144.835451: $GPZDA,204545.00,01,12,2017,00,00*62
2017-12-01 15:45:44 1512161144.835622: $GPGGA,204545,3946.9586,N,08404.9842,W,2,12,0.80,293.10,M,-33.324,M,,*7E
2017-12-01 15:45:44 1512161144.835688: $GPRMC,204545,A,3946.9586,N,08404.9842,W,0.0000,0.000,011217,,*3C
2017-12-01 15:45:44 1512161144.835751: $GPGSA,A,3,1,10,11,12,14,18,22,24,25,31,32,138,2.0,0.8,1.5*3B
2017-12-01 15:45:45 1512161145.387567: $GPZDA,204546.00,01,12,2017,00,00*61
2017-12-01 15:45:45 1512161145.387729: $GPGGA,204546,3946.9586,N,08404.9842,W,2,12,0.80,293.10,M,-33.324,M,,*7D
2017-12-01 15:45:45 1512161145.387795: $GPRMC,204546,A,3946.9586,N,08404.9842,W,0.0000,0.000,011217,,*3F
2017-12-01 15:45:45 1512161145.387858: $GPGSA,A,3,1,10,11,12,14,18,22,24,25,31,32,138,2.0,0.8,1.5*3B
2017-12-01 15:45:46 1512161146.386942: $GPZDA,204547.00,01,12,2017,00,00*60
2017-12-01 15:45:46 1512161146.387120: $GPGGA,204547,3946.9586,N,08404.9842,W,2,12,0.80,293.10,M,-33.324,M,,*7C
2017-12-01 15:45:46 1512161146.387186: $GPRMC,204547,A,3946.9586,N,08404.9842,W,0.0000,0.000,011217,,*3E
2017-12-01 15:45:46 1512161146.387248: $GPGSA,A,3,1,10,11,12,14,18,22,24,25,31,32,138,2.0,0.8,1.5*3B
2017-12-01 15:45:47 1512161147.722557: $GPGSV,3,1,12,01,14,318,37,10,69,132,48,11,11,301,39,12,25,072,37*7D
2017-12-01 15:45:47 1512161147.722723: $GPGSV,3,2,12,14,55,292,42,18,37,135,47,22,03,310,32,24,14,045,35*7C
2017-12-01 15:45:47 1512161147.722789: $GPGSV,3,3,12,25,30,114,42,31,35,211,50,32,68,330,48,138,38,213,46*4F
2017-12-01 15:45:47 1512161147.836163: $GPZDA,204548.00,01,12,2017,00,00*6F
2017-12-01 15:45:47 1512161147.836309: $GPGGA,204548,3946.9586,N,08404.9842,W,2,12,0.80,293.10,M,-33.324,M,,*73
2017-12-01 15:45:47 1512161147.836377: $GPRMC,204548,A,3946.9586,N,08404.9842,W,0.0000,0.000,011217,,*31
2017-12-01 15:45:47 1512161147.836437: $GPGSA,A,3,1,10,11,12,14,18,22,24,25,31,32,138,2.0,0.8,1.5*3B
2017-12-01 15:45:48 1512161148.461294: $GPZDA,204549.00,01,12,2017,00,00*6E
2017-12-01 15:45:48 1512161148.461516: $GPGGA,204549,3946.9586,N,08404.9835,W,2,12,0.80,293.18,M,-33.324,M,,*7A
2017-12-01 15:45:48 1512161148.461588: $GPRMC,204549,A,3946.9586,N,08404.9835,W,0.0000,0.000,011217,,*30
2017-12-01 15:45:48 1512161148.461650: $GPGSA,A,3,1,10,11,12,14,18,22,24,25,31,32,138,2.0,0.8,1.5*3B
2017-12-01 15:45:49 1512161149.383761: $GPZDA,204550.00,01,12,2017,00,00*66
2017-12-01 15:45:49 1512161149.383950: $GPGGA,204550,3946.9587,N,08404.9843,W,2,12,0.80,294.50,M,-33.324,M,,*79
2017-12-01 15:45:49 1512161149.384022: $GPRMC,204550,A,3946.9587,N,08404.9843,W,0.0000,0.000,011217,,*38
2017-12-01 15:45:49 1512161149.384085: $GPGSA,A,3,1,10,11,12,14,18,22,24,25,31,32,138,2.0,0.8,1.5*3B
2017-12-01 15:45:50 1512161150.718018: $GPGSV,3,1,12,01,14,318,38,10,69,132,47,11,11,301,40,12,25,072,38*7C
2017-12-01 15:45:50 1512161150.718253: $GPGSV,3,2,12,14,55,292,42,18,37,135,47,22,03,310,35,24,14,045,35*7B
2017-12-01 15:45:50 1512161150.718325: $GPGSV,3,3,12,25,30,114,41,31,35,211,50,32,68,330,47,138,38,213,46*43
2017-12-01 15:45:50 1512161150.831768: $GPZDA,204551.00,01,12,2017,00,00*67
2017-12-01 15:45:50 1512161150.831944: $GPGGA,204551,3946.9587,N,08404.9843,W,2,12,0.80,294.50,M,-33.324,M,,*78
2017-12-01 15:45:50 1512161150.832014: $GPRMC,204551,A,3946.9587,N,08404.9843,W,0.0000,0.000,011217,,*39
2017-12-01 15:45:50 1512161150.832076: $GPGSA,A,3,1,10,11,12,14,18,22,24,25,31,32,138,2.0,0.8,1.5*3B
2017-12-01 15:45:51 1512161151.386284: $GPZDA,204552.00,01,12,2017,00,00*64
2017-12-01 15:45:51 1512161151.386454: $GPGGA,204552,3946.9587,N,08404.9843,W,2,12,0.80,294.50,M,-33.324,M,,*7B
2017-12-01 15:45:51 1512161151.386521: $GPRMC,204552,A,3946.9587,N,08404.9843,W,0.0000,0.000,011217,,*3A
2017-12-01 15:45:51 1512161151.386584: $GPGSA,A,3,1,10,11,12,14,18,22,24,25,31,32,138,2.0,0.8,1.5*3B
2017-12-01 15:45:52 1512161152.386614: $GPZDA,204553.00,01,12,2017,00,00*65
2017-12-01 15:45:52 1512161152.386872: $GPGGA,204553,3946.9587,N,08404.9843,W,2,12,0.80,294.50,M,-33.324,M,,*7A
2017-12-01 15:45:52 1512161152.386944: $GPRMC,204553,A,3946.9587,N,08404.9843,W,0.0000,0.000,011217,,*3B
2017-12-01 15:45:52 1512161152.387022: $GPGSA,A,3,1,10,11,12,14,18,22,24,25,31,32,138,2.0,0.8,1.5*3B
2017-12-01 15:45:53 1512161153.723385: $GPGSV,3,1,12,01,14,318,38,10,69,132,47,11,11,301,40,12,25,072,38*7C
2017-12-01 15:45:53 1512161153.723565: $GPGSV,3,2,12,14,55,292,42,18,37,135,48,22,03,310,36,24,14,045,36*74
2017-12-01 15:45:53 1512161153.723632: $GPGSV,3,3,12,25,30,114,41,31,35,211,50,32,68,330,47,138,38,213,45*40
2017-12-01 15:45:53 1512161153.836932: $GPZDA,204554.00,01,12,2017,00,00*62
2017-12-01 15:45:53 1512161153.837099: $GPGGA,204554,3946.9587,N,08404.9843,W,2,12,0.80,294.50,M,-33.324,M,,*7D
2017-12-01 15:45:53 1512161153.837165: $GPRMC,204554,A,3946.9587,N,08404.9843,W,0.0000,0.000,011217,,*3C
2017-12-01 15:45:53 1512161153.837244: $GPGSA,A,3,1,10,11,12,14,18,22,24,25,31,32,138,2.0,0.8,1.5*3B
2017-12-01 15:45:54 1512161154.387853: $GPZDA,204555.00,01,12,2017,00,00*63
2017-12-01 15:45:54 1512161154.389426: $GPGGA,204555,3946.9587,N,08404.9843,W,2,12,0.80,294.50,M,-33.324,M,,*7C
2017-12-01 15:45:54 1512161154.389522: $GPRMC,204555,A,3946.9587,N,08404.9843,W,0.0000,0.000,011217,,*3D
2017-12-01 15:45:54 1512161154.389586: $GPGSA,A,3,1,10,11,12,14,18,22,24,25,31,32,138,2.0,0.8,1.5*3B
2017-12-01 15:45:55 1512161155.387188: $GPZDA,204556.00,01,12,2017,00,00*60
2017-12-01 15:45:55 1512161155.387367: $GPGGA,204556,3946.9587,N,08404.9843,W,2,12,0.80,294.50,M,-33.324,M,,*7F
2017-12-01 15:45:55 1512161155.387434: $GPRMC,204556,A,3946.9587,N,08404.9843,W,0.0000,0.000,011217,,*3E
2017-12-01 15:45:55 1512161155.387495: $GPGSA,A,3,1,10,11,12,14,18,22,24,25,31,32,138,2.0,0.8,1.5*3B
2017-12-01 15:45:56 1512161156.721704: $GPGSV,3,1,12,01,14,318,38,10,69,132,47,11,11,301,40,12,25,072,38*7C
2017-12-01 15:45:56 1512161156.721910: $GPGSV,3,2,12,14,55,292,42,18,37,135,48,22,03,310,35,24,14,045,36*77
2017-12-01 15:45:56 1512161156.721994: $GPGSV,3,3,12,25,30,114,41,31,35,211,50,32,68,330,47,138,38,213,46*43
2017-12-01 15:45:56 1512161156.836418: $GPZDA,204557.00,01,12,2017,00,00*61
2017-12-01 15:45:56 1512161156.836630: $GPGGA,204557,3946.9587,N,08404.9843,W,2,12,0.80,294.50,M,-33.324,M,,*7E
2017-12-01 15:45:56 1512161156.836700: $GPRMC,204557,A,3946.9587,N,08404.9843,W,0.0000,0.000,011217,,*3F
2017-12-01 15:45:56 1512161156.836762: $GPGSA,A,3,1,10,11,12,14,18,22,24,25,31,32,138,2.0,0.8,1.5*3B
2017-12-01 15:45:57 1512161157.387174: $GPZDA,204558.00,01,12,2017,00,00*6E
2017-12-01 15:45:57 1512161157.387352: $GPGGA,204558,3946.9587,N,08404.9843,W,2,12,0.80,294.50,M,-33.324,M,,*71
2017-12-01 15:45:57 1512161157.387418: $GPRMC,204558,A,3946.9587,N,08404.9843,W,0.0000,0.000,011217,,*30
2017-12-01 15:45:57 1512161157.387479: $GPGSA,A,3,1,10,11,12,14,18,22,24,25,31,32,138,2.0,0.8,1.5*3B
2017-12-01 15:45:58 1512161158.387824: $GPZDA,204559.00,01,12,2017,00,00*6F
2017-12-01 15:45:58 1512161158.388027: $GPGGA,204559,3946.9584,N,08404.9843,W,2,12,0.80,295.27,M,-33.324,M,,*72
2017-12-01 15:45:58 1512161158.388097: $GPRMC,204559,A,3946.9584,N,08404.9843,W,0.0000,0.000,011217,,*32
2017-12-01 15:45:58 1512161158.388158: $GPGSA,A,3,1,10,11,12,14,18,22,24,25,31,32,138,2.0,0.8,1.5*3B
2017-12-01 15:45:59 1512161159.722159: $GPGSV,3,1,12,01,14,318,39,10,69,132,47,11,11,301,39,12,25,072,38*73
2017-12-01 15:45:59 1512161159.722349: $GPGSV,3,2,12,14,55,292,42,18,37,135,48,22,03,310,42,24,14,045,37*76
2017-12-01 15:45:59 1512161159.722436: $GPGSV,3,3,12,25,30,114,41,31,35,211,50,32,68,330,48,138,38,213,46*4C
2017-12-01 15:45:59 1512161159.835948: $GPZDA,204600.00,01,12,2017,00,00*60
2017-12-01 15:45:59 1512161159.836118: $GPGGA,204600,3946.9584,N,08404.9843,W,2,12,0.80,295.27,M,-33.324,M,,*7D
2017-12-01 15:45:59 1512161159.836185: $GPRMC,204600,A,3946.9584,N,08404.9843,W,0.0000,0.000,011217,,*3D
2017-12-01 15:45:59 1512161159.836246: $GPGSA,A,3,1,10,11,12,14,18,22,24,25,31,32,138,2.0,0.8,1.5*3B
2017-12-01 15:46:00 1512161160.380461: $GPZDA,204601.00,01,12,2017,00,00*61
2017-12-01 15:46:00 1512161160.380631: $GPGGA,204601,3946.9583,N,08404.9836,W,2,12,0.80,295.35,M,-33.324,M,,*7A
2017-12-01 15:46:00 1512161160.380698: $GPRMC,204601,A,3946.9583,N,08404.9836,W,0.0000,0.000,011217,,*39
2017-12-01 15:46:00 1512161160.380758: $GPGSA,A,3,1,10,11,12,14,18,22,24,25,31,32,138,2.0,0.8,1.5*3B
2017-12-01 15:46:01 1512161161.388827: $GPZDA,204602.00,01,12,2017,00,00*62
2017-12-01 15:46:01 1512161161.389012: $GPGGA,204602,3946.9583,N,08404.9836,W,2,12,0.80,295.35,M,-33.324,M,,*79
2017-12-01 15:46:01 1512161161.389079: $GPRMC,204602,A,3946.9583,N,08404.9836,W,0.0000,0.000,011217,,*3A
2017-12-01 15:46:01 1512161161.389140: $GPGSA,A,3,1,10,11,12,14,18,22,24,25,31,32,138,2.0,0.8,1.5*3B
2017-12-01 15:46:02 1512161162.717884: $GPGSV,3,1,12,01,14,318,38,10,69,132,48,11,11,301,39,12,25,072,38*7D
2017-12-01 15:46:02 1512161162.718085: $GPGSV,3,2,12,14,55,292,42,18,37,135,47,22,03,310,40,24,14,045,37*7B
2017-12-01 15:46:02 1512161162.718152: $GPGSV,3,3,12,25,30,114,42,31,35,211,49,32,68,330,48,138,38,213,46*47
2017-12-01 15:46:02 1512161162.831445: $GPZDA,204603.00,01,12,2017,00,00*63
2017-12-01 15:46:02 1512161162.831616: $GPGGA,204603,3946.9583,N,08404.9836,W,2,12,0.80,295.35,M,-33.324,M,,*78
2017-12-01 15:46:02 1512161162.831683: $GPRMC,204603,A,3946.9583,N,08404.9836,W,0.0000,0.000,011217,,*3B
2017-12-01 15:46:02 1512161162.831744: $GPGSA,A,3,1,10,11,12,14,18,22,24,25,31,32,138,2.0,0.8,1.5*3B
