2017-12-01 16:27:54 1512163674.086919: {"class":"VERSION","release":"3.16","rev":"3.16-4","proto_major":3,"proto_minor":11}
2017-12-01 16:27:54 1512163674.087337: {"class":"DEVICES","devices":[{"class":"DEVICE","path":"/dev/ttyUSB0","driver":"SiRF","subtype":"9\u0006GSD4e_4.1.2-P1_RPATCH.05-F-GPS-4R-1510281 11/03/2015 307","activated":"2017-12-01T21:27:53.534Z","flags":1,"native":1,"bps":4800,"parity":"N","stopbits":1,"cycle":1.00}]}
2017-12-01 16:27:54 1512163674.087464: {"class":"WATCH","enable":true,"json":false,"nmea":true,"raw":0,"scaled":false,"timing":false,"split24":false,"pps":false}
2017-12-01 16:27:54 1512163674.723823: $GPGSV,3,1,12,01,21,301,43,10,49,147,44,14,65,324,43,22,18,312,44*7C
2017-12-01 16:27:54 1512163674.724007: $GPGSV,3,2,12,25,39,093,29,31,55,223,50,32,69,025,49,11,09,283,28*7D
2017-12-01 16:27:54 1512163674.724074: $GPGSV,3,3,12,18,19,144,13,12,22,051,20,26,01,183,25,138,38,213,33*44
2017-12-01 16:27:54 1512163674.837481: $GPZDA,212755.00,01,12,2017,00,00*66
2017-12-01 16:27:54 1512163674.837635: $GPGGA,212755,3946.9640,N,08404.9734,W,2,12,0.80,298.27,M,-33.324,M,,*72
2017-12-01 16:27:54 1512163674.837700: $GPRMC,212755,A,3946.9640,N,08404.9734,W,0.0000,0.000,011217,,*3F
2017-12-01 16:27:54 1512163674.837761: $GPGSA,A,3,1,10,14,22,25,31,32,11,18,12,26,138,2.0,0.8,1.5*39
2017-12-01 16:27:55 1512163675.462704: $GPZDA,212756.00,01,12,2017,00,00*65
2017-12-01 16:27:55 1512163675.462878: $GPGGA,212756,3946.9640,N,08404.9734,W,2,12,0.80,298.27,M,-33.324,M,,*71
2017-12-01 16:27:55 1512163675.462945: $GPRMC,212756,A,3946.9640,N,08404.9734,W,0.0000,0.000,011217,,*3C
2017-12-01 16:27:55 1512163675.463005: $GPGSA,A,3,1,10,14,22,25,31,32,11,18,12,26,138,2.0,0.8,1.5*39
2017-12-01 16:27:56 1512163676.390029: $GPZDA,212757.00,01,12,2017,00,00*64
2017-12-01 16:27:56 1512163676.390200: $GPGGA,212757,3946.9640,N,08404.9734,W,2,12,0.80,298.27,M,-33.324,M,,*70
2017-12-01 16:27:56 1512163676.390265: $GPRMC,212757,A,3946.9640,N,08404.9734,W,0.0000,0.000,011217,,*3D
2017-12-01 16:27:56 1512163676.390327: $GPGSA,A,3,1,10,14,22,25,31,32,11,18,12,26,138,2.0,0.8,1.5*39
2017-12-01 16:27:57 1512163677.730478: $GPGSV,3,1,12,01,21,301,43,10,49,147,44,14,65,324,43,22,18,312,44*7C
2017-12-01 16:27:57 1512163677.730643: $GPGSV,3,2,12,25,39,093,29,31,55,223,50,32,69,025,49,11,09,283,24*71
2017-12-01 16:27:57 1512163677.730710: $GPGSV,3,3,12,18,19,144,23,12,22,051,22,26,01,183,24,138,38,213,38*4F
2017-12-01 16:27:57 1512163677.843834: $GPZDA,212758.00,01,12,2017,00,00*6B
2017-12-01 16:27:57 1512163677.844011: $GPGGA,212758,3946.9640,N,08404.9734,W,2,12,0.80,298.27,M,-33.324,M,,*7F
2017-12-01 16:27:57 1512163677.844078: $GPRMC,212758,A,3946.9640,N,08404.9734,W,0.0000,0.000,011217,,*32
2017-12-01 16:27:57 1512163677.844138: $GPGSA,A,3,1,10,14,22,25,31,32,11,18,12,26,138,2.0,0.8,1.5*39
2017-12-01 16:27:58 1512163678.377201: $GPZDA,212759.00,01,12,2017,00,00*6A
2017-12-01 16:27:58 1512163678.377388: $GPGGA,212759,3946.9640,N,08404.9734,W,2,12,0.80,298.27,M,-33.324,M,,*7E
2017-12-01 16:27:58 1512163678.377456: $GPRMC,212759,A,3946.9640,N,08404.9734,W,0.0000,0.000,011217,,*33
2017-12-01 16:27:58 1512163678.377518: $GPGSA,A,3,1,10,14,22,25,31,32,11,18,12,26,138,2.0,0.8,1.5*39
2017-12-01 16:27:59 1512163679.378398: $GPZDA,212800.00,01,12,2017,00,00*69
2017-12-01 16:27:59 1512163679.378572: $GPGGA,212800,3946.9640,N,08404.9734,W,2,12,0.80,298.27,M,-33.324,M,,*7D
2017-12-01 16:27:59 1512163679.378639: $GPRMC,212800,A,3946.9640,N,08404.9734,W,0.0000,0.000,011217,,*30
2017-12-01 16:27:59 1512163679.378700: $GPGSA,A,3,1,10,14,22,25,31,32,11,18,12,26,138,2.0,0.8,1.5*39
2017-12-01 16:28:00 1512163680.714563: $GPGSV,3,1,12,01,21,301,43,10,49,147,44,14,65,324,43,22,18,312,44*7C
2017-12-01 16:28:00 1512163680.714745: $GPGSV,3,2,12,25,39,093,24,31,55,223,50,32,69,025,49,11,09,283,29*71
2017-12-01 16:28:00 1512163680.714811: $GPGSV,3,3,12,18,19,144,00,12,22,051,23,26,01,183,24,138,38,213,40*40
2017-12-01 16:28:00 1512163680.828025: $GPZDA,212801.00,01,12,2017,00,00*68
2017-12-01 16:28:00 1512163680.828163: $GPGGA,212801,3946.9640,N,08404.9734,W,2,11,1.00,298.27,M,-33.324,M,,*76
2017-12-01 16:28:00 1512163680.828282: $GPRMC,212801,A,3946.9640,N,08404.9734,W,0.0000,0.000,011217,,*31
2017-12-01 16:28:00 1512163680.828345: $GPGSA,A,3,1,10,14,22,25,31,32,11,12,26,138,,2.0,1.0,1.5*39
2017-12-01 16:28:01 1512163681.372855: $GPZDA,212802.00,01,12,2017,00,00*6B
2017-12-01 16:28:01 1512163681.373000: $GPGGA,212802,3946.9640,N,08404.9734,W,2,11,1.00,298.27,M,-33.324,M,,*75
2017-12-01 16:28:01 1512163681.373066: $GPRMC,212802,A,3946.9640,N,08404.9734,W,0.0000,0.000,011217,,*32
2017-12-01 16:28:01 1512163681.373128: $GPGSA,A,3,1,10,14,22,25,31,32,11,12,26,138,,2.0,1.0,1.5*39
2017-12-01 16:28:02 1512163682.372589: $GPZDA,212803.00,01,12,2017,00,00*6A
2017-12-01 16:28:02 1512163682.372760: $GPGGA,212803,3946.9640,N,08404.9734,W,2,11,1.00,298.27,M,-33.324,M,,*74
2017-12-01 16:28:02 1512163682.372827: $GPRMC,212803,A,3946.9640,N,08404.9734,W,0.0000,0.000,011217,,*33
2017-12-01 16:28:02 1512163682.372888: $GPGSA,A,3,1,10,14,22,25,31,32,11,12,26,138,,2.0,1.0,1.5*39
2017-12-01 16:28:03 1512163683.714271: $GPGSV,3,1,12,01,21,301,44,10,49,147,44,14,65,324,42,22,18,312,43*7D
2017-12-01 16:28:03 1512163683.714454: $GPGSV,3,2,12,25,39,093,24,31,55,223,50,32,69,025,49,11,09,283,30*79
2017-12-01 16:28:03 1512163683.714521: $GPGSV,3,3,12,18,19,144,00,12,22,051,24,26,01,183,24,138,38,213,40*47
2017-12-01 16:28:03 1512163683.827913: $GPZDA,212804.00,01,12,2017,00,00*6D
2017-12-01 16:28:03 1512163683.828083: $GPGGA,212804,3946.9640,N,08404.9734,W,2,11,1.00,298.27,M,-33.324,M,,*73
2017-12-01 16:28:03 1512163683.828149: $GPRMC,212804,A,3946.9640,N,08404.9734,W,0.0000,0.000,011217,,*34
2017-12-01 16:28:03 1512163683.828230: $GPGSA,A,3,1,10,14,22,25,31,32,11,12,26,138,,2.0,1.0,1.5*39
2017-12-01 16:28:04 1512163684.377436: $GPZDA,212805.00,01,12,2017,00,00*6C
2017-12-01 16:28:04 1512163684.381525: $GPGGA,212805,3946.9640,N,08404.9734,W,2,11,1.00,298.27,M,-33.324,M,,*72
2017-12-01 16:28:04 1512163684.381698: $GPRMC,212805,A,3946.9640,N,08404.9734,W,0.0000,0.000,011217,,*35
2017-12-01 16:28:04 1512163684.381766: $GPGSA,A,3,1,10,14,22,25,31,32,11,12,26,138,,2.0,1.0,1.5*39
2017-12-01 16:28:05 1512163685.377864: $GPZDA,212806.00,01,12,2017,00,00*6F
2017-12-01 16:28:05 1512163685.378035: $GPGGA,212806,3946.9640,N,08404.9734,W,2,11,1.00,298.27,M,-33.324,M,,*71
2017-12-01 16:28:05 1512163685.378101: $GPRMC,212806,A,3946.9640,N,08404.9734,W,0.0000,0.000,011217,,*36
2017-12-01 16:28:05 1512163685.378162: $GPGSA,A,3,1,10,14,22,25,31,32,11,12,26,138,,2.0,1.0,1.5*39
2017-12-01 16:28:06 1512163686.708308: $GPGSV,3,1,12,01,21,301,43,10,49,147,43,14,65,324,43,22,18,312,44*7B
2017-12-01 16:28:06 1512163686.708503: $GPGSV,3,2,12,25,39,093,24,31,55,223,50,32,69,025,49,11,09,283,31*78
2017-12-01 16:28:06 1512163686.708571: $GPGSV,3,3,12,18,19,144,10,12,22,051,25,26,01,183,24,138,38,213,38*48
2017-12-01 16:28:06 1512163686.822003: $GPZDA,212807.00,01,12,2017,00,00*6E
2017-12-01 16:28:06 1512163686.822159: $GPGGA,212807,3946.9640,N,08404.9734,W,2,11,1.00,298.27,M,-33.324,M,,*70
2017-12-01 16:28:06 1512163686.822245: $GPRMC,212807,A,3946.9640,N,08404.9734,W,0.0000,0.000,011217,,*37
2017-12-01 16:28:06 1512163686.822307: $GPGSA,A,3,1,10,14,22,25,31,32,11,12,26,138,,2.0,1.0,1.5*39
2017-12-01 16:28:07 1512163687.380512: $GPZDA,212808.00,01,12,2017,00,00*61
2017-12-01 16:28:07 1512163687.380681: $GPGGA,212808,3946.9640,N,08404.9734,W,2,11,0.80,298.27,M,-33.324,M,,*76
2017-12-01 16:28:07 1512163687.380748: $GPRMC,212808,A,3946.9640,N,08404.9734,W,0.0000,0.000,011217,,*38
2017-12-01 16:28:07 1512163687.380810: $GPGSA,A,3,1,10,14,22,25,31,32,11,12,26,138,,2.0,0.8,1.5*30
2017-12-01 16:28:08 1512163688.372368: $GPZDA,212809.00,01,12,2017,00,00*60
2017-12-01 16:28:08 1512163688.372520: $GPGGA,212809,3946.9640,N,08404.9734,W,2,11,0.80,298.27,M,-33.324,M,,*77
2017-12-01 16:28:08 1512163688.372587: $GPRMC,212809,A,3946.9640,N,08404.9734,W,0.0000,0.000,011217,,*39
2017-12-01 16:28:08 1512163688.372649: $GPGSA,A,3,1,10,14,22,25,31,32,11,12,26,138,,2.0,0.8,1.5*30
2017-12-01 16:28:09 1512163689.712911: $GPGSV,3,1,12,01,21,301,43,10,49,147,44,14,65,324,42,22,18,312,44*7D
2017-12-01 16:28:09 1512163689.713075: $GPGSV,3,2,12,25,39,093,25,31,55,223,50,32,69,025,48,11,09,283,31*78
2017-12-01 16:28:09 1512163689.713141: $GPGSV,3,3,12,18,19,144,20,12,22,051,25,26,01,183,24,138,38,213,39*4A
2017-12-01 16:28:09 1512163689.826314: $GPZDA,212810.00,01,12,2017,00,00*68
2017-12-01 16:28:09 1512163689.826509: $GPGGA,212810,3946.9640,N,08404.9734,W,2,12,0.80,298.27,M,-33.324,M,,*7C
2017-12-01 16:28:09 1512163689.826576: $GPRMC,212810,A,3946.9640,N,08404.9734,W,0.0000,0.000,011217,,*31
2017-12-01 16:28:09 1512163689.826638: $GPGSA,A,3,1,10,14,22,25,31,32,11,18,12,26,138,2.0,0.8,1.5*39
2017-12-01 16:28:10 1512163690.451702: $GPZDA,212811.00,01,12,2017,00,00*69
2017-12-01 16:28:10 1512163690.451877: $GPGGA,212811,3946.9640,N,08404.9734,W,2,12,0.80,298.27,M,-33.324,M,,*7D
2017-12-01 16:28:10 1512163690.451946: $GPRMC,212811,A,3946.9640,N,08404.9734,W,0.0000,0.000,011217,,*30
2017-12-01 16:28:10 1512163690.452007: $GPGSA,A,3,1,10,14,22,25,31,32,11,18,12,26,138,2.0,0.8,1.5*39
2017-12-01 16:28:11 1512163691.378422: $GPZDA,212812.00,01,12,2017,00,00*6A
2017-12-01 16:28:11 1512163691.378618: $GPGGA,212812,3946.9640,N,08404.9734,W,2,12,1.20,298.27,M,-33.324,M,,*75
2017-12-01 16:28:11 1512163691.378685: $GPRMC,212812,A,3946.9640,N,08404.9734,W,0.0000,0.000,011217,,*33
2017-12-01 16:28:11 1512163691.378854: $GPGSA,A,3,1,10,14,22,25,31,32,11,18,12,26,138,2.0,1.2,1.5*32
2017-12-01 16:28:12 1512163692.713286: $GPGSV,3,1,12,01,21,301,43,10,49,147,44,14,65,324,42,22,18,312,44*7D
2017-12-01 16:28:12 1512163692.713483: $GPGSV,3,2,12,25,39,093,30,31,55,223,50,32,69,025,48,11,09,283,32*7F
2017-12-01 16:28:12 1512163692.713549: $GPGSV,3,3,12,18,19,144,21,12,22,051,20,26,01,183,23,138,38,213,41*46
2017-12-01 16:28:12 1512163692.826632: $GPZDA,212813.00,01,12,2017,00,00*6B
2017-12-01 16:28:12 1512163692.826797: $GPGGA,212813,3946.9640,N,08404.9734,W,2,12,0.80,298.27,M,-33.324,M,,*7F
2017-12-01 16:28:12 1512163692.826863: $GPRMC,212813,A,3946.9640,N,08404.9734,W,0.0000,0.000,011217,,*32
2017-12-01 16:28:12 1512163692.826923: $GPGSA,A,3,1,10,14,22,25,31,32,11,18,12,26,138,2.0,0.8,1.5*39
2017-12-01 16:28:13 1512163693.377855: $GPZDA,212814.00,01,12,2017,00,00*6C
2017-12-01 16:28:13 1512163693.378016: $GPGGA,212814,3946.9640,N,08404.9734,W,2,12,1.20,298.27,M,-33.324,M,,*73
2017-12-01 16:28:13 1512163693.378083: $GPRMC,212814,A,3946.9640,N,08404.9734,W,0.0000,0.000,011217,,*35
2017-12-01 16:28:13 1512163693.378144: $GPGSA,A,3,1,10,14,22,25,31,32,11,18,12,26,138,2.0,1.2,1.5*32
