2017-12-01 12:06:22 1512147982.976761: {"class":"VERSION","release":"3.16","rev":"3.16-4","proto_major":3,"proto_minor":11}
2017-12-01 12:06:22 1512147982.979001: {"class":"DEVICES","devices":[{"class":"DEVICE","path":"/dev/ttyUSB0","driver":"SiRF","subtype":"9\u0006GSD4e_4.1.2-P1_RPATCH.05-F-GPS-4R-1510281 11/03/2015 307","activated":"2017-12-01T17:06:22.495Z","flags":1,"native":1,"bps":4800,"parity":"N","stopbits":1,"cycle":1.00}]}
2017-12-01 12:06:22 1512147982.979168: {"class":"WATCH","enable":true,"json":false,"nmea":true,"raw":0,"scaled":false,"timing":false,"split24":false,"pps":false}
2017-12-01 12:06:23 1512147983.354797: $GPZDA,170624.00,01,12,2017,00,00*66
2017-12-01 12:06:23 1512147983.354968: $GPGGA,170624,3946.9581,N,08404.9818,W,2,11,0.80,300.56,M,-33.324,M,,*78
2017-12-01 12:06:23 1512147983.355034: $GPRMC,170624,A,3946.9581,N,08404.9818,W,0.0000,0.000,011217,,*30
2017-12-01 12:06:23 1512147983.355096: $GPGSA,A,3,10,13,15,18,20,21,24,27,29,5,138,,2.0,0.8,1.5*34
2017-12-01 12:06:24 1512147984.690284: $GPGSV,3,1,12,10,20,279,40,13,34,046,44,15,66,054,45,18,50,295,46*70
2017-12-01 12:06:24 1512147984.690468: $GPGSV,3,2,12,20,55,064,46,21,75,289,44,24,29,142,45,27,14,318,42*7C
2017-12-01 12:06:24 1512147984.690534: $GPGSV,3,3,12,29,15,192,31,05,07,084,22,04,04,135,00,138,38,213,46*47
2017-12-01 12:06:24 1512147984.803695: $GPZDA,170625.00,01,12,2017,00,00*67
2017-12-01 12:06:24 1512147984.803873: $GPGGA,170625,3946.9581,N,08404.9818,W,2,11,0.80,300.56,M,-33.324,M,,*79
2017-12-01 12:06:24 1512147984.803942: $GPRMC,170625,A,3946.9581,N,08404.9818,W,0.0000,0.000,011217,,*31
2017-12-01 12:06:24 1512147984.804005: $GPGSA,A,3,10,13,15,18,20,21,24,27,29,5,138,,2.0,0.8,1.5*34
2017-12-01 12:06:25 1512147985.429284: $GPZDA,170626.00,01,12,2017,00,00*64
2017-12-01 12:06:25 1512147985.429459: $GPGGA,170626,3946.9581,N,08404.9818,W,2,11,0.80,300.56,M,-33.324,M,,*7A
2017-12-01 12:06:25 1512147985.429527: $GPRMC,170626,A,3946.9581,N,08404.9818,W,0.0000,0.000,011217,,*32
2017-12-01 12:06:25 1512147985.429590: $GPGSA,A,3,10,13,15,18,20,21,24,27,29,5,138,,2.0,0.8,1.5*34
2017-12-01 12:06:26 1512147986.355160: $GPZDA,170627.00,01,12,2017,00,00*65
2017-12-01 12:06:26 1512147986.355343: $GPGGA,170627,3946.9581,N,08404.9818,W,2,11,0.80,300.56,M,-33.324,M,,*7B
2017-12-01 12:06:26 1512147986.355409: $GPRMC,170627,A,3946.9581,N,08404.9818,W,0.0000,0.000,011217,,*33
2017-12-01 12:06:26 1512147986.355472: $GPGSA,A,3,10,13,15,18,20,21,24,27,29,5,138,,2.0,0.8,1.5*34
2017-12-01 12:06:27 1512147987.690695: $GPGSV,3,1,12,10,20,279,40,13,34,046,44,15,66,054,44,18,50,295,46*71
2017-12-01 12:06:27 1512147987.690870: $GPGSV,3,2,12,20,55,064,45,21,75,289,44,24,29,142,45,27,14,318,41*7C
2017-12-01 12:06:27 1512147987.690942: $GPGSV,3,3,12,29,15,192,31,05,07,084,22,04,04,135,00,138,38,213,46*47
2017-12-01 12:06:27 1512147987.804397: $GPZDA,170628.00,01,12,2017,00,00*6A
2017-12-01 12:06:27 1512147987.804571: $GPGGA,170628,3946.9581,N,08404.9818,W,2,11,0.80,300.56,M,-33.324,M,,*74
2017-12-01 12:06:27 1512147987.804641: $GPRMC,170628,A,3946.9581,N,08404.9818,W,0.0000,0.000,011217,,*3C
2017-12-01 12:06:27 1512147987.804706: $GPGSA,A,3,10,13,15,18,20,21,24,27,29,5,138,,2.0,0.8,1.5*34
2017-12-01 12:06:28 1512147988.373639: $GPZDA,170629.00,01,12,2017,00,00*6B
2017-12-01 12:06:28 1512147988.373815: $GPGGA,170629,3946.9581,N,08404.9818,W,2,11,0.80,300.56,M,-33.324,M,,*75
2017-12-01 12:06:28 1512147988.373885: $GPRMC,170629,A,3946.9581,N,08404.9818,W,0.0000,0.000,011217,,*3D
2017-12-01 12:06:28 1512147988.373950: $GPGSA,A,3,10,13,15,18,20,21,24,27,29,5,138,,2.0,0.8,1.5*34
2017-12-01 12:06:29 1512147989.369750: $GPZDA,170630.00,01,12,2017,00,00*63
2017-12-01 12:06:29 1512147989.369929: $GPGGA,170630,3946.9581,N,08404.9818,W,2,11,0.80,300.56,M,-33.324,M,,*7D
2017-12-01 12:06:29 1512147989.370000: $GPRMC,170630,A,3946.9581,N,08404.9818,W,0.0000,0.000,011217,,*35
2017-12-01 12:06:29 1512147989.370069: $GPGSA,A,3,10,13,15,18,20,21,24,27,29,5,138,,2.0,0.8,1.5*34
2017-12-01 12:06:30 1512147990.690971: $GPGSV,3,1,12,10,20,279,40,13,34,046,44,15,66,054,44,18,50,295,46*71
2017-12-01 12:06:30 1512147990.691218: $GPGSV,3,2,12,20,55,064,45,21,75,289,44,24,29,142,45,27,14,318,41*7C
2017-12-01 12:06:30 1512147990.691290: $GPGSV,3,3,12,29,15,192,30,05,07,084,23,04,04,135,00,138,38,213,46*47
2017-12-01 12:06:30 1512147990.804606: $GPZDA,170631.00,01,12,2017,00,00*62
2017-12-01 12:06:30 1512147990.804755: $GPGGA,170631,3946.9581,N,08404.9818,W,2,11,0.80,300.56,M,-33.324,M,,*7C
2017-12-01 12:06:30 1512147990.804821: $GPRMC,170631,A,3946.9581,N,08404.9818,W,0.0000,0.000,011217,,*34
2017-12-01 12:06:30 1512147990.804883: $GPGSA,A,3,10,13,15,18,20,21,24,27,29,5,138,,2.0,0.8,1.5*34
2017-12-01 12:06:31 1512147991.355599: $GPZDA,170632.00,01,12,2017,00,00*61
2017-12-01 12:06:31 1512147991.355771: $GPGGA,170632,3946.9581,N,08404.9818,W,2,11,0.80,300.56,M,-33.324,M,,*7F
2017-12-01 12:06:31 1512147991.355837: $GPRMC,170632,A,3946.9581,N,08404.9818,W,0.0000,0.000,011217,,*37
2017-12-01 12:06:31 1512147991.355901: $GPGSA,A,3,10,13,15,18,20,21,24,27,29,5,138,,2.0,0.8,1.5*34
2017-12-01 12:06:32 1512147992.353981: $GPZDA,170633.00,01,12,2017,00,00*60
2017-12-01 12:06:32 1512147992.354169: $GPGGA,170633,3946.9577,N,08404.9819,W,2,11,0.80,301.33,M,-33.324,M,,*74
2017-12-01 12:06:32 1512147992.354241: $GPRMC,170633,A,3946.9577,N,08404.9819,W,0.0000,0.000,011217,,*3E
2017-12-01 12:06:32 1512147992.354305: $GPGSA,A,3,10,13,15,18,20,21,24,27,29,5,138,,2.0,0.8,1.5*34
