2017-11-16 15:30:47 1510864247.256270: {"class":"VERSION","release":"3.17","rev":"3.17","proto_major":3,"proto_minor":12}
2017-11-16 15:30:47 1510864247.256696: {"class":"DEVICES","devices":[{"class":"DEVICE","path":"/dev/ttyUSB0","driver":"SiRF","subtype":"9\u0006GSD4e_4.1.2-P1_RPATCH.05-F-GPS-4R-1510281 11/03/2015 307","activated":"2017-11-16T20:30:47.215Z","flags":1,"native":1,"bps":4800,"parity":"N","stopbits":1,"cycle":1.00}]}
2017-11-16 15:30:47 1510864247.256803: {"class":"WATCH","enable":true,"json":false,"nmea":true,"raw":0,"scaled":false,"timing":false,"split24":false,"pps":false}
2017-11-16 15:30:47 1510864247.393064: $GPZDA,203046.00,16,11,2017,00,00*66
2017-11-16 15:30:47 1510864247.393236: $GPGGA,203046,3946.9568,N,08404.9860,W,2,12,0.80,309.61,M,-33.324,M,,*7B
2017-11-16 15:30:47 1510864247.393297: $GPRMC,203046,A,3946.9568,N,08404.9860,W,0.0000,0.000,161117,,*38
2017-11-16 15:30:47 1510864247.393353: $GPGSA,A,3,8,10,14,20,18,15,21,24,27,32,12,138,1.6,0.8,1.3*34
2017-11-16 15:30:48 1510864248.367657: $GPZDA,203047.00,16,11,2017,00,00*67
2017-11-16 15:30:48 1510864248.367816: $GPGGA,203047,3946.9568,N,08404.9860,W,2,12,0.80,309.61,M,-33.324,M,,*7A
2017-11-16 15:30:48 1510864248.367877: $GPRMC,203047,A,3946.9568,N,08404.9860,W,0.0000,0.000,161117,,*39
2017-11-16 15:30:48 1510864248.367933: $GPGSA,A,3,8,10,14,20,18,15,21,24,27,32,12,138,1.6,0.8,1.3*34
2017-11-16 15:30:49 1510864249.720899: $GPGSV,3,1,12,08,05,292,38,10,70,333,51,14,30,255,45,20,07,118,27*7B
2017-11-16 15:30:49 1510864249.721070: $GPGSV,3,2,12,18,70,097,47,15,10,067,28,21,28,180,42,24,44,057,50*71
2017-11-16 15:30:49 1510864249.721131: $GPGSV,3,3,12,27,05,258,26,32,47,267,47,12,10,106,25,138,38,213,44*40
2017-11-16 15:30:49 1510864249.834226: $GPZDA,203048.00,16,11,2017,00,00*68
2017-11-16 15:30:49 1510864249.834384: $GPGGA,203048,3946.9568,N,08404.9860,W,2,12,0.80,309.61,M,-33.324,M,,*75
2017-11-16 15:30:49 1510864249.834444: $GPRMC,203048,A,3946.9568,N,08404.9860,W,0.0000,0.000,161117,,*36
2017-11-16 15:30:49 1510864249.834500: $GPGSA,A,3,8,10,14,20,18,15,21,24,27,32,12,138,1.6,0.8,1.3*34
2017-11-16 15:30:50 1510864250.366406: $GPZDA,203049.00,16,11,2017,00,00*69
2017-11-16 15:30:50 1510864250.366580: $GPGGA,203049,3946.9568,N,08404.9860,W,2,12,0.80,309.61,M,-33.324,M,,*74
2017-11-16 15:30:50 1510864250.366641: $GPRMC,203049,A,3946.9568,N,08404.9860,W,0.0000,0.000,161117,,*37
2017-11-16 15:30:50 1510864250.366698: $GPGSA,A,3,8,10,14,20,18,15,21,24,27,32,12,138,1.6,0.8,1.3*34
2017-11-16 15:30:51 1510864251.382963: $GPZDA,203050.00,16,11,2017,00,00*61
2017-11-16 15:30:51 1510864251.383107: $GPGGA,203050,3946.9568,N,08404.9860,W,2,12,0.80,309.61,M,-33.324,M,,*7C
2017-11-16 15:30:51 1510864251.383188: $GPRMC,203050,A,3946.9568,N,08404.9860,W,0.0000,0.000,161117,,*3F
2017-11-16 15:30:51 1510864251.383245: $GPGSA,A,3,8,10,14,20,18,15,21,24,27,32,12,138,1.6,0.8,1.3*34
2017-11-16 15:30:52 1510864252.696229: $GPGSV,3,1,12,08,05,292,38,10,70,333,51,14,30,255,45,20,07,118,26*7A
2017-11-16 15:30:52 1510864252.696387: $GPGSV,3,2,12,18,70,097,47,15,10,067,28,21,28,180,42,24,44,057,50*71
2017-11-16 15:30:52 1510864252.696447: $GPGSV,3,3,12,27,05,258,26,32,47,267,47,12,10,106,25,138,38,213,43*47
2017-11-16 15:30:52 1510864252.809575: $GPZDA,203051.00,16,11,2017,00,00*60
2017-11-16 15:30:52 1510864252.809738: $GPGGA,203051,3946.9568,N,08404.9860,W,2,12,0.80,309.61,M,-33.324,M,,*7D
2017-11-16 15:30:52 1510864252.809798: $GPRMC,203051,A,3946.9568,N,08404.9860,W,0.0000,0.000,161117,,*3E
2017-11-16 15:30:52 1510864252.809854: $GPGSA,A,3,8,10,14,20,18,15,21,24,27,32,12,138,1.6,0.8,1.3*34
2017-11-16 15:30:53 1510864253.384142: $GPZDA,203052.00,16,11,2017,00,00*63
2017-11-16 15:30:53 1510864253.384325: $GPGGA,203052,3946.9568,N,08404.9860,W,2,12,0.80,309.61,M,-33.324,M,,*7E
2017-11-16 15:30:53 1510864253.388655: $GPRMC,203052,A,3946.9568,N,08404.9860,W,0.0000,0.000,161117,,*3D
2017-11-16 15:30:53 1510864253.388728: $GPGSA,A,3,8,10,14,20,18,15,21,24,27,32,12,138,1.6,0.8,1.3*34
2017-11-16 15:30:54 1510864254.366256: $GPZDA,203053.00,16,11,2017,00,00*62
2017-11-16 15:30:54 1510864254.366476: $GPGGA,203053,3946.9568,N,08404.9860,W,2,12,0.80,309.61,M,-33.324,M,,*7F
2017-11-16 15:30:54 1510864254.366538: $GPRMC,203053,A,3946.9568,N,08404.9860,W,0.0000,0.000,161117,,*3C
2017-11-16 15:30:54 1510864254.366595: $GPGSA,A,3,8,10,14,20,18,15,21,24,27,32,12,138,1.6,0.8,1.3*34
2017-11-16 15:30:55 1510864255.703315: $GPGSV,3,1,12,08,05,292,38,10,70,333,50,14,30,255,45,20,07,118,25*78
2017-11-16 15:30:55 1510864255.703483: $GPGSV,3,2,12,18,70,097,47,15,10,067,27,21,28,180,42,24,44,057,50*7E
2017-11-16 15:30:55 1510864255.703543: $GPGSV,3,3,12,27,05,258,27,32,47,267,47,12,10,106,19,138,38,213,44*4E
2017-11-16 15:30:55 1510864255.816572: $GPZDA,203054.00,16,11,2017,00,00*65
2017-11-16 15:30:55 1510864255.816738: $GPGGA,203054,3946.9568,N,08404.9860,W,2,12,0.80,309.61,M,-33.324,M,,*78
2017-11-16 15:30:55 1510864255.816800: $GPRMC,203054,A,3946.9568,N,08404.9860,W,0.0000,0.000,161117,,*3B
2017-11-16 15:30:55 1510864255.816856: $GPGSA,A,3,8,10,14,20,18,15,21,24,27,32,12,138,1.6,0.8,1.3*34
2017-11-16 15:30:56 1510864256.441999: $GPZDA,203055.00,16,11,2017,00,00*64
2017-11-16 15:30:56 1510864256.442179: $GPGGA,203055,3946.9568,N,08404.9860,W,2,12,0.80,309.61,M,-33.324,M,,*79
2017-11-16 15:30:56 1510864256.442242: $GPRMC,203055,A,3946.9568,N,08404.9860,W,0.0000,0.000,161117,,*3A
2017-11-16 15:30:56 1510864256.442299: $GPGSA,A,3,8,10,14,20,18,15,21,24,27,32,12,138,1.6,0.8,1.3*34
