2017-11-15 18:28:12 1510788492.794770: {"class":"VERSION","release":"3.17","rev":"3.17","proto_major":3,"proto_minor":12}
2017-11-15 18:28:12 1510788492.795209: {"class":"DEVICES","devices":[{"class":"DEVICE","path":"/dev/ttyUSB0","driver":"SiRF","subtype":"9\u0006GSD4e_4.1.2-P1_RPATCH.05-F-GPS-4R-1510281 11/03/2015 307","activated":"2017-11-15T23:28:12.776Z","flags":1,"native":1,"bps":4800,"parity":"N","stopbits":1,"cycle":1.00}]}
2017-11-15 18:28:12 1510788492.795332: {"class":"WATCH","enable":true,"json":false,"nmea":true,"raw":0,"scaled":false,"timing":false,"split24":false,"pps":false}
2017-11-15 18:28:13 1510788493.328301: $GPZDA,232812.00,15,11,2017,00,00*6E
2017-11-15 18:28:13 1510788493.328467: $GPGGA,232812,3946.9626,N,08404.9565,W,1,06,4.80,295.32,M,-33.324,M,,*71
2017-11-15 18:28:13 1510788493.328528: $GPRMC,232812,A,3946.9626,N,08404.9565,W,0.7246,164.668,151117,,*3D
2017-11-15 18:28:13 1510788493.328585: $GPGSA,A,3,10,14,25,31,32,22,,,,,,,3.4,4.8,2.9*32
2017-11-15 18:28:14 1510788494.327962: $GPZDA,232813.00,15,11,2017,00,00*6F
2017-11-15 18:28:14 1510788494.328129: $GPGGA,232813,3946.9626,N,08404.9565,W,1,06,4.80,295.32,M,-33.324,M,,*70
2017-11-15 18:28:14 1510788494.328191: $GPRMC,232813,A,3946.9626,N,08404.9565,W,0.9060,167.792,151117,,*33
2017-11-15 18:28:14 1510788494.328247: $GPGSA,A,3,10,14,25,31,32,22,,,,,,,3.4,4.8,2.9*32
2017-11-15 18:28:15 1510788495.663801: $GPGSV,3,1,11,10,24,156,14,14,69,034,24,25,36,058,18,26,23,178,14*78
2017-11-15 18:28:15 1510788495.663970: $GPGSV,3,2,11,31,77,270,28,32,57,076,11,01,19,276,00,22,38,304,17*77
2017-11-15 18:28:15 1510788495.664032: $GPGSV,3,3,11,03,19,316,00,12,08,033,00,135,23,238,00*72
2017-11-15 18:28:15 1510788495.777370: $GPZDA,232814.00,15,11,2017,00,00*68
2017-11-15 18:28:15 1510788495.777530: $GPGGA,232814,3946.9626,N,08404.9565,W,1,07,1.20,295.32,M,-33.324,M,,*79
2017-11-15 18:28:15 1510788495.777591: $GPRMC,232814,A,3946.9626,N,08404.9565,W,0.4207,219.347,151117,,*3C
2017-11-15 18:28:15 1510788495.777647: $GPGSA,A,3,10,14,25,26,31,32,22,,,,,,3.4,1.2,2.9*39
2017-11-15 18:28:16 1510788496.402786: $GPZDA,232815.00,15,11,2017,00,00*69
2017-11-15 18:28:16 1510788496.402958: $GPGGA,232815,3946.9622,N,08404.9566,W,1,07,1.20,296.08,M,-33.324,M,,*75
2017-11-15 18:28:16 1510788496.403017: $GPRMC,232815,A,3946.9622,N,08404.9566,W,0.6846,184.197,151117,,*3F
2017-11-15 18:28:16 1510788496.403074: $GPGSA,A,3,10,14,25,26,31,32,22,,,,,,3.4,1.2,2.9*39
2017-11-15 18:28:17 1510788497.358333: $GPZDA,232816.00,15,11,2017,00,00*6A
2017-11-15 18:28:17 1510788497.358495: $GPGGA,232816,3946.9622,N,08404.9566,W,1,07,1.20,296.08,M,-33.324,M,,*76
2017-11-15 18:28:17 1510788497.358558: $GPRMC,232816,A,3946.9622,N,08404.9566,W,1.0002,154.331,151117,,*30
2017-11-15 18:28:17 1510788497.358614: $GPGSA,A,3,10,14,25,26,31,32,22,,,,,,3.4,1.2,2.9*39
2017-11-15 18:28:18 1510788498.664063: $GPGSV,3,1,11,10,24,156,13,14,69,034,24,25,36,058,18,26,23,178,13*78
2017-11-15 18:28:18 1510788498.664229: $GPGSV,3,2,11,31,77,270,28,32,57,076,11,01,19,276,00,22,38,304,17*77
2017-11-15 18:28:18 1510788498.664289: $GPGSV,3,3,11,03,19,316,00,12,08,033,00,135,23,238,00*72
2017-11-15 18:28:18 1510788498.777802: $GPZDA,232817.00,15,11,2017,00,00*6B
2017-11-15 18:28:18 1510788498.777922: $GPGGA,232817,3946.9618,N,08404.9566,W,1,07,1.20,295.44,M,-33.324,M,,*75
2017-11-15 18:28:18 1510788498.777979: $GPRMC,232817,A,3946.9618,N,08404.9566,W,0.5857,158.291,151117,,*33
2017-11-15 18:28:18 1510788498.778034: $GPGSA,A,3,10,14,25,26,31,32,22,,,,,,3.4,1.2,2.9*39
2017-11-15 18:28:19 1510788499.359488: $GPZDA,232818.00,15,11,2017,00,00*64
2017-11-15 18:28:19 1510788499.359631: $GPGGA,232818,3946.9622,N,08404.9566,W,1,07,1.20,296.08,M,-33.324,M,,*78
2017-11-15 18:28:19 1510788499.359692: $GPRMC,232818,A,3946.9622,N,08404.9566,W,0.1567,189.201,151117,,*3A
2017-11-15 18:28:19 1510788499.359748: $GPGSA,A,3,10,14,25,26,31,32,22,,,,,,3.4,1.2,2.9*39
2017-11-15 18:28:20 1510788500.327927: $GPZDA,232819.00,15,11,2017,00,00*65
2017-11-15 18:28:20 1510788500.328096: $GPGGA,232819,3946.9622,N,08404.9566,W,1,07,1.20,296.08,M,-33.324,M,,*79
2017-11-15 18:28:20 1510788500.328212: $GPRMC,232819,A,3946.9622,N,08404.9566,W,0.4179,328.778,151117,,*37
2017-11-15 18:28:20 1510788500.328270: $GPGSA,A,3,10,14,25,26,31,32,22,,,,,,3.4,1.2,2.9*39
2017-11-15 18:28:21 1510788501.664412: $GPGSV,3,1,11,10,24,156,12,14,69,034,24,25,36,058,18,26,23,178,12*78
2017-11-15 18:28:21 1510788501.664602: $GPGSV,3,2,11,31,77,270,28,32,57,076,13,01,19,276,00,22,38,304,16*74
2017-11-15 18:28:21 1510788501.664663: $GPGSV,3,3,11,03,19,316,00,12,08,033,00,135,23,238,00*72
2017-11-15 18:28:21 1510788501.777940: $GPZDA,232820.00,15,11,2017,00,00*6F
2017-11-15 18:28:21 1510788501.778099: $GPGGA,232820,3946.9622,N,08404.9566,W,1,07,1.20,296.08,M,-33.324,M,,*73
2017-11-15 18:28:21 1510788501.778160: $GPRMC,232820,A,3946.9622,N,08404.9566,W,0.0000,0.000,151117,,*37
2017-11-15 18:28:21 1510788501.778232: $GPGSA,A,3,10,14,25,26,31,32,22,,,,,,3.4,1.2,2.9*39
2017-11-15 18:28:22 1510788502.358966: $GPZDA,232821.00,15,11,2017,00,00*6E
2017-11-15 18:28:22 1510788502.359139: $GPGGA,232821,3946.9622,N,08404.9566,W,1,07,1.20,296.08,M,-33.324,M,,*72
2017-11-15 18:28:22 1510788502.359200: $GPRMC,232821,A,3946.9622,N,08404.9566,W,0.4844,273.794,151117,,*36
2017-11-15 18:28:22 1510788502.359256: $GPGSA,A,3,10,14,25,26,31,32,22,,,,,,3.4,1.2,2.9*39
