2017-12-31 18:05:20 1514761520.568282: {"class":"VERSION","release":"3.16","rev":"3.16-4","proto_major":3,"proto_minor":11}
2017-12-31 18:05:20 1514761520.568630: {"class":"DEVICES","devices":[{"class":"DEVICE","path":"/dev/ttyUSB0","driver":"SiRF","activated":"2017-12-31T23:05:20.487Z","flags":1,"native":1,"bps":4800,"parity":"N","stopbits":1,"cycle":1.00}]}
2017-12-31 18:05:20 1514761520.568728: {"class":"WATCH","enable":true,"json":false,"nmea":true,"raw":0,"scaled":false,"timing":false,"split24":false,"pps":false}
2017-12-31 18:05:21 1514761521.710975: $GPGSV,3,1,11,22,23,216,38,23,52,307,45,09,19,312,39,03,33,235,44*7B
2017-12-31 18:05:21 1514761521.711133: $GPGSV,3,2,11,16,79,190,44,29,06,031,32,14,16,132,34,31,29,073,42*79
2017-12-31 18:05:21 1514761521.711200: $GPGSV,3,3,11,27,21,154,31,26,64,051,49,135,22,240,44*73
2017-12-31 18:05:21 1514761521.824570: $GPZDA,230522.00,31,12,2017,00,00*67
2017-12-31 18:05:21 1514761521.824695: $GPGGA,230522,3946.9561,N,08404.9874,W,2,11,0.60,308.17,M,-33.324,M,,*7D
2017-12-31 18:05:21 1514761521.824759: $GPRMC,230522,A,3946.9561,N,08404.9874,W,0.0000,0.000,311217,,*35
2017-12-31 18:05:21 1514761521.824820: $GPGSA,A,3,22,23,9,3,16,29,14,31,27,26,135,,1.7,0.6,1.3*06
2017-12-31 18:05:22 1514761522.346687: $GPZDA,230523.00,31,12,2017,00,00*66
2017-12-31 18:05:22 1514761522.346828: $GPGGA,230523,3946.9561,N,08404.9874,W,2,11,0.60,308.17,M,-33.324,M,,*7C
2017-12-31 18:05:22 1514761522.346895: $GPRMC,230523,A,3946.9561,N,08404.9874,W,0.0000,0.000,311217,,*34
2017-12-31 18:05:22 1514761522.346955: $GPGSA,A,3,22,23,9,3,16,29,14,31,27,26,135,,1.7,0.6,1.3*06
2017-12-31 18:05:23 1514761523.346339: $GPZDA,230524.00,31,12,2017,00,00*61
2017-12-31 18:05:23 1514761523.346497: $GPGGA,230524,3946.9561,N,08404.9874,W,2,11,0.60,308.17,M,-33.324,M,,*7B
2017-12-31 18:05:23 1514761523.346567: $GPRMC,230524,A,3946.9561,N,08404.9874,W,0.0000,0.000,311217,,*33
2017-12-31 18:05:23 1514761523.346628: $GPGSA,A,3,22,23,9,3,16,29,14,31,27,26,135,,1.7,0.6,1.3*06
2017-12-31 18:05:24 1514761524.704332: $GPGSV,3,1,11,22,23,216,37,23,52,307,45,09,19,312,39,03,33,235,44*74
2017-12-31 18:05:24 1514761524.704519: $GPGSV,3,2,11,16,79,190,44,29,06,031,23,14,16,132,34,31,29,073,40*7B
2017-12-31 18:05:24 1514761524.704586: $GPGSV,3,3,11,27,21,154,31,26,64,051,49,135,22,240,44*73
2017-12-31 18:05:24 1514761524.817738: $GPZDA,230525.00,31,12,2017,00,00*60
2017-12-31 18:05:24 1514761524.817873: $GPGGA,230525,3946.9561,N,08404.9874,W,2,11,0.60,308.17,M,-33.324,M,,*7A
2017-12-31 18:05:24 1514761524.817939: $GPRMC,230525,A,3946.9561,N,08404.9874,W,0.0000,0.000,311217,,*32
2017-12-31 18:05:24 1514761524.818001: $GPGSA,A,3,22,23,9,3,16,29,14,31,27,26,135,,1.7,0.6,1.3*06
2017-12-31 18:05:25 1514761525.443097: $GPZDA,230526.00,31,12,2017,00,00*63
2017-12-31 18:05:25 1514761525.443258: $GPGGA,230526,3946.9561,N,08404.9874,W,2,11,0.60,308.17,M,-33.324,M,,*79
2017-12-31 18:05:25 1514761525.443324: $GPRMC,230526,A,3946.9561,N,08404.9874,W,0.0000,0.000,311217,,*31
2017-12-31 18:05:25 1514761525.443386: $GPGSA,A,3,22,23,9,3,16,29,14,31,27,26,135,,1.7,0.6,1.3*06
2017-12-31 18:05:26 1514761526.346440: $GPZDA,230527.00,31,12,2017,00,00*62
2017-12-31 18:05:26 1514761526.346613: $GPGGA,230527,3946.9561,N,08404.9874,W,2,11,0.60,308.17,M,-33.324,M,,*78
2017-12-31 18:05:26 1514761526.346679: $GPRMC,230527,A,3946.9561,N,08404.9874,W,0.0000,0.000,311217,,*30
2017-12-31 18:05:26 1514761526.346742: $GPGSA,A,3,22,23,9,3,16,29,14,31,27,26,135,,1.7,0.6,1.3*06
2017-12-31 18:05:27 1514761527.710924: $GPGSV,3,1,11,22,23,216,37,23,52,307,45,09,19,312,40,03,33,235,44*7A
2017-12-31 18:05:27 1514761527.711095: $GPGSV,3,2,11,16,79,190,44,29,06,031,24,14,16,132,34,31,29,073,41*7D
2017-12-31 18:05:27 1514761527.711162: $GPGSV,3,3,11,27,21,154,31,26,64,051,49,135,22,240,44*73
2017-12-31 18:05:27 1514761527.824252: $GPZDA,230528.00,31,12,2017,00,00*6D
2017-12-31 18:05:27 1514761527.824391: $GPGGA,230528,3946.9561,N,08404.9874,W,2,11,0.60,308.17,M,-33.324,M,,*77
2017-12-31 18:05:27 1514761527.824456: $GPRMC,230528,A,3946.9561,N,08404.9874,W,0.0000,0.000,311217,,*3F
2017-12-31 18:05:27 1514761527.824578: $GPGSA,A,3,22,23,9,3,16,29,14,31,27,26,135,,1.7,0.6,1.3*06
2017-12-31 18:05:28 1514761528.346713: $GPZDA,230529.00,31,12,2017,00,00*6C
2017-12-31 18:05:28 1514761528.346895: $GPGGA,230529,3946.9561,N,08404.9874,W,2,11,0.60,308.17,M,-33.324,M,,*76
2017-12-31 18:05:28 1514761528.346960: $GPRMC,230529,A,3946.9561,N,08404.9874,W,0.0000,0.000,311217,,*3E
2017-12-31 18:05:28 1514761528.347022: $GPGSA,A,3,22,23,9,3,16,29,14,31,27,26,135,,1.7,0.6,1.3*06
2017-12-31 18:05:29 1514761529.346309: $GPZDA,230530.00,31,12,2017,00,00*64
2017-12-31 18:05:29 1514761529.346485: $GPGGA,230530,3946.9561,N,08404.9874,W,2,11,0.60,308.17,M,-33.324,M,,*7E
2017-12-31 18:05:29 1514761529.346553: $GPRMC,230530,A,3946.9561,N,08404.9874,W,0.0000,0.000,311217,,*36
2017-12-31 18:05:29 1514761529.346616: $GPGSA,A,3,22,23,9,3,16,29,14,31,27,26,135,,1.7,0.6,1.3*06
