2017-11-16 14:18:17 1510859897.537302: {"class":"VERSION","release":"3.17","rev":"3.17","proto_major":3,"proto_minor":12}
2017-11-16 14:18:17 1510859897.537778: {"class":"DEVICES","devices":[{"class":"DEVICE","path":"/dev/ttyUSB0","driver":"SiRF","subtype":"9\u0006GSD4e_4.1.2-P1_RPATCH.05-F-GPS-4R-1510281 11/03/2015 307","activated":"2017-11-16T19:18:17.504Z","flags":1,"native":1,"bps":4800,"parity":"N","stopbits":1,"cycle":1.00}]}
2017-11-16 14:18:17 1510859897.537887: {"class":"WATCH","enable":true,"json":false,"nmea":true,"raw":0,"scaled":false,"timing":false,"split24":false,"pps":false}
2017-11-16 14:18:18 1510859898.873890: $GPGSV,3,1,12,08,06,321,36,10,42,301,42,13,07,049,24,15,36,052,51*7C
2017-11-16 14:18:18 1510859898.874043: $GPGSV,3,2,12,18,72,339,46,21,62,189,46,20,32,097,45,24,51,108,48*72
2017-11-16 14:18:18 1510859898.874103: $GPGSV,3,3,12,27,19,288,42,32,21,238,44,14,05,232,26,138,38,213,44*4E
2017-11-16 14:18:18 1510859898.987207: $GPZDA,191817.00,16,11,2017,00,00*62
2017-11-16 14:18:18 1510859898.987418: $GPGGA,191817,3946.9562,N,08404.9851,W,2,12,0.80,304.83,M,-33.324,M,,*76
2017-11-16 14:18:18 1510859898.987496: $GPRMC,191817,A,3946.9562,N,08404.9851,W,0.0000,0.000,161117,,*34
2017-11-16 14:18:18 1510859898.987554: $GPGSA,A,3,8,10,13,15,18,21,20,24,27,32,14,138,1.6,0.8,1.3*35
2017-11-16 14:18:19 1510859899.612673: $GPZDA,191818.00,16,11,2017,00,00*6D
2017-11-16 14:18:19 1510859899.612827: $GPGGA,191818,3946.9562,N,08404.9851,W,2,12,0.80,304.83,M,-33.324,M,,*79
2017-11-16 14:18:19 1510859899.612889: $GPRMC,191818,A,3946.9562,N,08404.9851,W,0.0000,0.000,161117,,*3B
2017-11-16 14:18:19 1510859899.612945: $GPGSA,A,3,8,10,13,15,18,21,20,24,27,32,14,138,1.6,0.8,1.3*35
2017-11-16 14:18:20 1510859900.500278: $GPZDA,191819.00,16,11,2017,00,00*6C
2017-11-16 14:18:20 1510859900.500498: $GPGGA,191819,3946.9562,N,08404.9851,W,2,12,0.80,304.83,M,-33.324,M,,*78
2017-11-16 14:18:20 1510859900.500558: $GPRMC,191819,A,3946.9562,N,08404.9851,W,0.0000,0.000,161117,,*3A
2017-11-16 14:18:20 1510859900.500614: $GPGSA,A,3,8,10,13,15,18,21,20,24,27,32,14,138,1.6,0.8,1.3*35
2017-11-16 14:18:21 1510859901.841723: $GPGSV,3,1,12,08,06,321,29,10,42,301,42,13,07,049,23,15,36,052,51*75
2017-11-16 14:18:21 1510859901.841893: $GPGSV,3,2,12,18,72,339,46,21,62,189,47,20,32,097,45,24,51,108,48*73
2017-11-16 14:18:21 1510859901.841952: $GPGSV,3,3,12,27,19,288,42,32,21,238,44,14,05,232,00,138,38,213,45*4B
2017-11-16 14:18:21 1510859901.955057: $GPZDA,191820.00,16,11,2017,00,00*66
2017-11-16 14:18:21 1510859901.955229: $GPGGA,191820,3946.9562,N,08404.9851,W,2,11,0.80,304.83,M,-33.324,M,,*71
2017-11-16 14:18:21 1510859901.955291: $GPRMC,191820,A,3946.9562,N,08404.9851,W,0.0000,0.000,161117,,*30
2017-11-16 14:18:21 1510859901.955348: $GPGSA,A,3,8,10,13,15,18,21,20,24,27,32,138,,1.6,0.8,1.3*30
2017-11-16 14:18:22 1510859902.539597: $GPZDA,191821.00,16,11,2017,00,00*67
2017-11-16 14:18:22 1510859902.539761: $GPGGA,191821,3946.9562,N,08404.9851,W,2,11,0.80,304.83,M,-33.324,M,,*70
2017-11-16 14:18:22 1510859902.539842: $GPRMC,191821,A,3946.9562,N,08404.9851,W,0.0000,0.000,161117,,*31
2017-11-16 14:18:22 1510859902.539898: $GPGSA,A,3,8,10,13,15,18,21,20,24,27,32,138,,1.6,0.8,1.3*30
2017-11-16 14:18:23 1510859903.504192: $GPZDA,191822.00,16,11,2017,00,00*64
2017-11-16 14:18:23 1510859903.504354: $GPGGA,191822,3946.9562,N,08404.9851,W,2,11,0.80,304.83,M,-33.324,M,,*73
2017-11-16 14:18:23 1510859903.504415: $GPRMC,191822,A,3946.9562,N,08404.9851,W,0.0000,0.000,161117,,*32
2017-11-16 14:18:23 1510859903.504472: $GPGSA,A,3,8,10,13,15,18,21,20,24,27,32,138,,1.6,0.8,1.3*30
2017-11-16 14:18:24 1510859904.843162: $GPGSV,3,1,12,08,06,321,35,10,42,301,42,13,07,049,23,15,36,052,51*78
2017-11-16 14:18:24 1510859904.843304: $GPGSV,3,2,12,18,72,339,46,21,62,189,47,20,32,097,44,24,51,108,48*72
2017-11-16 14:18:24 1510859904.843364: $GPGSV,3,3,12,27,19,288,42,32,21,238,45,14,05,232,00,138,38,213,42*4D
2017-11-16 14:18:24 1510859904.956663: $GPZDA,191823.00,16,11,2017,00,00*65
2017-11-16 14:18:24 1510859904.956860: $GPGGA,191823,3946.9562,N,08404.9851,W,2,11,0.80,304.83,M,-33.324,M,,*72
2017-11-16 14:18:24 1510859904.956973: $GPRMC,191823,A,3946.9562,N,08404.9851,W,0.0000,0.000,161117,,*33
2017-11-16 14:18:24 1510859904.957031: $GPGSA,A,3,8,10,13,15,18,21,20,24,27,32,138,,1.6,0.8,1.3*30
2017-11-16 14:18:25 1510859905.532364: $GPZDA,191824.00,16,11,2017,00,00*62
2017-11-16 14:18:25 1510859905.532528: $GPGGA,191824,3946.9562,N,08404.9851,W,2,11,0.80,304.83,M,-33.324,M,,*75
2017-11-16 14:18:25 1510859905.532589: $GPRMC,191824,A,3946.9562,N,08404.9851,W,0.0000,0.000,161117,,*34
2017-11-16 14:18:25 1510859905.532645: $GPGSA,A,3,8,10,13,15,18,21,20,24,27,32,138,,1.6,0.8,1.3*30
2017-11-16 14:18:26 1510859906.530746: $GPZDA,191825.00,16,11,2017,00,00*63
2017-11-16 14:18:26 1510859906.534814: $GPGGA,191825,3946.9562,N,08404.9851,W,2,11,0.80,304.83,M,-33.324,M,,*74
2017-11-16 14:18:26 1510859906.534909: $GPRMC,191825,A,3946.9562,N,08404.9851,W,0.0000,0.000,161117,,*35
2017-11-16 14:18:26 1510859906.534968: $GPGSA,A,3,8,10,13,15,18,21,20,24,27,32,138,,1.6,0.8,1.3*30
2017-11-16 14:18:27 1510859907.840166: $GPGSV,3,1,12,08,06,321,38,10,42,301,43,13,07,049,24,15,36,052,51*73
2017-11-16 14:18:27 1510859907.840411: $GPGSV,3,2,12,18,72,339,46,21,62,189,47,20,32,097,45,24,51,108,48*73
2017-11-16 14:18:27 1510859907.840485: $GPGSV,3,3,12,27,19,288,42,32,21,238,45,14,05,232,23,138,38,213,44*4A
2017-11-16 14:18:27 1510859907.953508: $GPZDA,191826.00,16,11,2017,00,00*60
2017-11-16 14:18:27 1510859907.953694: $GPGGA,191826,3946.9562,N,08404.9851,W,2,11,0.80,304.83,M,-33.324,M,,*77
2017-11-16 14:18:27 1510859907.953775: $GPRMC,191826,A,3946.9562,N,08404.9851,W,0.0000,0.000,161117,,*36
2017-11-16 14:18:27 1510859907.953834: $GPGSA,A,3,8,10,13,15,18,21,20,24,27,32,138,,1.6,0.8,1.3*30
2017-11-16 14:18:28 1510859908.536911: $GPZDA,191827.00,16,11,2017,00,00*61
2017-11-16 14:18:28 1510859908.537094: $GPGGA,191827,3946.9562,N,08404.9851,W,2,11,0.80,304.83,M,-33.324,M,,*76
2017-11-16 14:18:28 1510859908.537158: $GPRMC,191827,A,3946.9562,N,08404.9851,W,0.0000,0.000,161117,,*37
2017-11-16 14:18:28 1510859908.537218: $GPGSA,A,3,8,10,13,15,18,21,20,24,27,32,138,,1.6,0.8,1.3*30
2017-11-16 14:18:29 1510859909.537174: $GPZDA,191828.00,16,11,2017,00,00*6E
2017-11-16 14:18:29 1510859909.537330: $GPGGA,191828,3946.9562,N,08404.9851,W,2,11,0.80,304.83,M,-33.324,M,,*79
2017-11-16 14:18:29 1510859909.537393: $GPRMC,191828,A,3946.9562,N,08404.9851,W,0.0000,0.000,161117,,*38
2017-11-16 14:18:29 1510859909.537452: $GPGSA,A,3,8,10,13,15,18,21,20,24,27,32,138,,1.6,0.8,1.3*30
2017-11-16 14:18:30 1510859910.841750: $GPGSV,3,1,12,08,07,319,39,10,43,303,43,13,06,049,24,15,35,052,51*79
2017-11-16 14:18:30 1510859910.841929: $GPGSV,3,2,12,18,72,342,46,21,61,189,47,20,31,097,45,24,52,106,48*72
2017-11-16 14:18:30 1510859910.841993: $GPGSV,3,3,12,27,19,286,41,32,22,240,45,14,06,234,00,138,38,213,44*4F
2017-11-16 14:18:30 1510859910.955032: $GPZDA,191829.00,16,11,2017,00,00*6F
2017-11-16 14:18:30 1510859910.955200: $GPGGA,191829,3946.9562,N,08404.9851,W,2,11,0.80,304.83,M,-33.324,M,,*78
2017-11-16 14:18:30 1510859910.955265: $GPRMC,191829,A,3946.9562,N,08404.9851,W,0.0000,0.000,161117,,*39
2017-11-16 14:18:30 1510859910.955324: $GPGSA,A,3,8,10,13,15,18,21,20,24,27,32,138,,1.6,0.8,1.3*30
2017-11-16 14:18:31 1510859911.543913: $GPZDA,191830.00,16,11,2017,00,00*67
2017-11-16 14:18:31 1510859911.550875: $GPGGA,191830,3946.9562,N,08404.9851,W,2,11,0.80,304.83,M,-33.324,M,,*70
2017-11-16 14:18:31 1510859911.550984: $GPRMC,191830,A,3946.9562,N,08404.9851,W,0.0000,0.000,161117,,*31
2017-11-16 14:18:31 1510859911.551058: $GPGSA,A,3,8,10,13,15,18,21,20,24,27,32,138,,1.6,0.8,1.3*30
