2017-12-29 14:53:27 1514577207.830021: {"class":"VERSION","release":"3.16","rev":"3.16-4","proto_major":3,"proto_minor":11}
2017-12-29 14:53:27 1514577207.830379: {"class":"DEVICES","devices":[{"class":"DEVICE","path":"/dev/ttyUSB0","driver":"SiRF","subtype":"9\u0006GSD4e_4.1.2-P1_RPATCH.05-F-GPS-4R-1510281 11/03/2015 307","activated":"2017-12-29T19:53:27.470Z","flags":1,"native":1,"bps":4800,"parity":"N","stopbits":1,"cycle":1.00}]}
2017-12-29 14:53:27 1514577207.830493: {"class":"WATCH","enable":true,"json":false,"nmea":true,"raw":0,"scaled":false,"timing":false,"split24":false,"pps":false}
2017-12-29 14:53:28 1514577208.665894: $GPGSV,3,1,12,01,22,292,34,03,07,316,41,10,39,151,48,12,18,043,46*7F
2017-12-29 14:53:28 1514577208.666067: $GPGSV,3,2,12,14,69,345,43,22,26,310,42,25,41,081,51,31,66,234,46*7E
2017-12-29 14:53:28 1514577208.666132: $GPGSV,3,3,12,32,65,049,50,18,10,145,29,26,10,180,20,138,38,213,42*4A
2017-12-29 14:53:28 1514577208.779657: $GPZDA,195329.00,29,12,2017,00,00*6F
2017-12-29 14:53:28 1514577208.779798: $GPGGA,195329,3946.9578,N,08404.9866,W,2,12,0.80,296.56,M,-33.324,M,,*79
2017-12-29 14:53:28 1514577208.779862: $GPRMC,195329,A,3946.9578,N,08404.9866,W,0.0000,0.000,291217,,*36
2017-12-29 14:53:28 1514577208.779922: $GPGSA,A,3,1,3,10,12,14,22,25,31,32,18,26,138,1.7,0.8,1.3*08
2017-12-29 14:53:29 1514577209.328863: $GPZDA,195330.00,29,12,2017,00,00*67
2017-12-29 14:53:29 1514577209.329037: $GPGGA,195330,3946.9578,N,08404.9866,W,2,12,0.80,296.56,M,-33.324,M,,*71
2017-12-29 14:53:29 1514577209.329104: $GPRMC,195330,A,3946.9578,N,08404.9866,W,0.0000,0.000,291217,,*3E
2017-12-29 14:53:29 1514577209.329165: $GPGSA,A,3,1,3,10,12,14,22,25,31,32,18,26,138,1.7,0.8,1.3*08
2017-12-29 14:53:30 1514577210.328690: $GPZDA,195331.00,29,12,2017,00,00*66
2017-12-29 14:53:30 1514577210.328866: $GPGGA,195331,3946.9577,N,08404.9859,W,2,12,0.80,296.64,M,-33.324,M,,*72
2017-12-29 14:53:30 1514577210.328937: $GPRMC,195331,A,3946.9577,N,08404.9859,W,0.0000,0.000,291217,,*3C
2017-12-29 14:53:30 1514577210.328997: $GPGSA,A,3,1,3,10,12,14,22,25,31,32,18,26,138,1.7,0.8,1.3*08
2017-12-29 14:53:31 1514577211.666390: $GPGSV,3,1,12,01,22,292,34,03,07,316,42,10,39,151,49,12,18,043,45*7E
2017-12-29 14:53:31 1514577211.666564: $GPGSV,3,2,12,14,69,345,42,22,26,310,42,25,41,081,51,31,66,234,46*7F
2017-12-29 14:53:31 1514577211.666646: $GPGSV,3,3,12,32,65,049,50,18,10,145,29,26,10,180,20,138,38,213,42*4A
2017-12-29 14:53:31 1514577211.780087: $GPZDA,195332.00,29,12,2017,00,00*65
2017-12-29 14:53:31 1514577211.780233: $GPGGA,195332,3946.9582,N,08404.9859,W,2,12,0.80,297.28,M,-33.324,M,,*72
2017-12-29 14:53:31 1514577211.780299: $GPRMC,195332,A,3946.9582,N,08404.9859,W,0.0000,0.000,291217,,*35
2017-12-29 14:53:31 1514577211.780360: $GPGSA,A,3,1,3,10,12,14,22,25,31,32,18,26,138,1.7,0.8,1.3*08
2017-12-29 14:53:32 1514577212.329453: $GPZDA,195333.00,29,12,2017,00,00*64
2017-12-29 14:53:32 1514577212.329616: $GPGGA,195333,3946.9582,N,08404.9859,W,2,12,0.80,297.28,M,-33.324,M,,*73
2017-12-29 14:53:32 1514577212.329683: $GPRMC,195333,A,3946.9582,N,08404.9859,W,0.0000,0.000,291217,,*34
2017-12-29 14:53:32 1514577212.329744: $GPGSA,A,3,1,3,10,12,14,22,25,31,32,18,26,138,1.7,0.8,1.3*08
2017-12-29 14:53:33 1514577213.329623: $GPZDA,195334.00,29,12,2017,00,00*63
2017-12-29 14:53:33 1514577213.329796: $GPGGA,195334,3946.9582,N,08404.9859,W,2,12,0.80,297.28,M,-33.324,M,,*74
2017-12-29 14:53:33 1514577213.329861: $GPRMC,195334,A,3946.9582,N,08404.9859,W,0.0000,0.000,291217,,*33
2017-12-29 14:53:33 1514577213.329922: $GPGSA,A,3,1,3,10,12,14,22,25,31,32,18,26,138,1.7,0.8,1.3*08
2017-12-29 14:53:34 1514577214.663514: $GPGSV,3,1,12,01,22,292,35,03,07,316,41,10,39,151,48,12,18,043,45*7D
2017-12-29 14:53:34 1514577214.663688: $GPGSV,3,2,12,14,69,345,42,22,26,310,42,25,41,081,51,31,66,234,45*7C
2017-12-29 14:53:34 1514577214.663752: $GPGSV,3,3,12,32,65,049,50,18,10,145,30,26,10,180,27,138,38,213,44*43
2017-12-29 14:53:34 1514577214.776903: $GPZDA,195335.00,29,12,2017,00,00*62
2017-12-29 14:53:34 1514577214.777054: $GPGGA,195335,3946.9582,N,08404.9859,W,2,12,0.80,297.28,M,-33.324,M,,*75
2017-12-29 14:53:34 1514577214.777193: $GPRMC,195335,A,3946.9582,N,08404.9859,W,0.0000,0.000,291217,,*32
2017-12-29 14:53:34 1514577214.777257: $GPGSA,A,3,1,3,10,12,14,22,25,31,32,18,26,138,1.7,0.8,1.3*08
2017-12-29 14:53:35 1514577215.330284: $GPZDA,195336.00,29,12,2017,00,00*61
2017-12-29 14:53:35 1514577215.330466: $GPGGA,195336,3946.9578,N,08404.9859,W,2,12,0.80,298.04,M,-33.324,M,,*72
2017-12-29 14:53:35 1514577215.330535: $GPRMC,195336,A,3946.9578,N,08404.9859,W,0.0000,0.000,291217,,*34
2017-12-29 14:53:35 1514577215.330596: $GPGSA,A,3,1,3,10,12,14,22,25,31,32,18,26,138,1.7,0.8,1.3*08
2017-12-29 14:53:36 1514577216.329392: $GPZDA,195337.00,29,12,2017,00,00*60
2017-12-29 14:53:36 1514577216.329558: $GPGGA,195337,3946.9578,N,08404.9859,W,2,12,0.80,298.04,M,-33.324,M,,*73
2017-12-29 14:53:36 1514577216.329623: $GPRMC,195337,A,3946.9578,N,08404.9859,W,0.0000,0.000,291217,,*35
2017-12-29 14:53:36 1514577216.329684: $GPGSA,A,3,1,3,10,12,14,22,25,31,32,18,26,138,1.7,0.8,1.3*08
2017-12-29 14:53:37 1514577217.665065: $GPGSV,3,1,12,01,22,292,35,03,07,316,41,10,39,151,48,12,18,043,44*7C
2017-12-29 14:53:37 1514577217.665263: $GPGSV,3,2,12,14,69,345,42,22,26,310,42,25,41,081,51,31,66,234,46*7F
2017-12-29 14:53:37 1514577217.665329: $GPGSV,3,3,12,32,65,049,51,18,10,145,30,26,10,180,21,138,38,213,43*43
2017-12-29 14:53:37 1514577217.778480: $GPZDA,195338.00,29,12,2017,00,00*6F
2017-12-29 14:53:37 1514577217.778637: $GPGGA,195338,3946.9578,N,08404.9859,W,2,12,0.80,298.04,M,-33.324,M,,*7C
2017-12-29 14:53:37 1514577217.778703: $GPRMC,195338,A,3946.9578,N,08404.9859,W,0.0000,0.000,291217,,*3A
2017-12-29 14:53:37 1514577217.778764: $GPGSA,A,3,1,3,10,12,14,22,25,31,32,18,26,138,1.7,0.8,1.3*08
2017-12-29 14:53:38 1514577218.331867: $GPZDA,195339.00,29,12,2017,00,00*6E
2017-12-29 14:53:38 1514577218.332042: $GPGGA,195339,3946.9578,N,08404.9859,W,2,12,0.80,298.04,M,-33.324,M,,*7D
2017-12-29 14:53:38 1514577218.332126: $GPRMC,195339,A,3946.9578,N,08404.9859,W,0.0000,0.000,291217,,*3B
2017-12-29 14:53:38 1514577218.332188: $GPGSA,A,3,1,3,10,12,14,22,25,31,32,18,26,138,1.7,0.8,1.3*08
2017-12-29 14:53:39 1514577219.334053: $GPZDA,195340.00,29,12,2017,00,00*60
2017-12-29 14:53:39 1514577219.334232: $GPGGA,195340,3946.9578,N,08404.9859,W,2,12,0.80,298.04,M,-33.324,M,,*73
2017-12-29 14:53:39 1514577219.334298: $GPRMC,195340,A,3946.9578,N,08404.9859,W,0.0000,0.000,291217,,*35
2017-12-29 14:53:39 1514577219.334359: $GPGSA,A,3,1,3,10,12,14,22,25,31,32,18,26,138,1.7,0.8,1.3*08
2017-12-29 14:53:40 1514577220.669758: $GPGSV,3,1,12,01,22,292,35,03,07,316,41,10,39,151,48,12,18,043,44*7C
2017-12-29 14:53:40 1514577220.669955: $GPGSV,3,2,12,14,69,345,42,22,26,310,42,25,41,081,51,31,66,234,46*7F
2017-12-29 14:53:40 1514577220.670022: $GPGSV,3,3,12,32,65,049,51,18,10,145,31,26,10,180,23,138,38,213,42*41
2017-12-29 14:53:40 1514577220.783499: $GPZDA,195341.00,29,12,2017,00,00*61
2017-12-29 14:53:40 1514577220.783666: $GPGGA,195341,3946.9578,N,08404.9859,W,2,12,0.80,298.04,M,-33.324,M,,*72
2017-12-29 14:53:40 1514577220.783733: $GPRMC,195341,A,3946.9578,N,08404.9859,W,0.0000,0.000,291217,,*34
2017-12-29 14:53:40 1514577220.783794: $GPGSA,A,3,1,3,10,12,14,22,25,31,32,18,26,138,1.7,0.8,1.3*08
2017-12-29 14:53:41 1514577221.408403: $GPZDA,195342.00,29,12,2017,00,00*62
2017-12-29 14:53:41 1514577221.408576: $GPGGA,195342,3946.9578,N,08404.9859,W,2,12,0.80,298.04,M,-33.324,M,,*71
2017-12-29 14:53:41 1514577221.408643: $GPRMC,195342,A,3946.9578,N,08404.9859,W,0.0000,0.000,291217,,*37
2017-12-29 14:53:41 1514577221.408704: $GPGSA,A,3,1,3,10,12,14,22,25,31,32,18,26,138,1.7,0.8,1.3*08
2017-12-29 14:53:42 1514577222.332086: $GPZDA,195343.00,29,12,2017,00,00*63
2017-12-29 14:53:42 1514577222.332257: $GPGGA,195343,3946.9578,N,08404.9859,W,2,12,0.80,298.04,M,-33.324,M,,*70
2017-12-29 14:53:42 1514577222.332323: $GPRMC,195343,A,3946.9578,N,08404.9859,W,0.0000,0.000,291217,,*36
2017-12-29 14:53:42 1514577222.332383: $GPGSA,A,3,1,3,10,12,14,22,25,31,32,18,26,138,1.7,0.8,1.3*08
2017-12-29 14:53:43 1514577223.665084: $GPGSV,3,1,12,01,22,292,36,03,07,316,41,10,39,151,48,12,18,043,44*7F
2017-12-29 14:53:43 1514577223.665398: $GPGSV,3,2,12,14,69,345,42,22,26,310,42,25,41,081,51,31,66,234,46*7F
2017-12-29 14:53:43 1514577223.665469: $GPGSV,3,3,12,32,65,049,51,18,10,145,31,26,10,180,24,138,38,213,43*47
2017-12-29 14:53:43 1514577223.778796: $GPZDA,195344.00,29,12,2017,00,00*64
2017-12-29 14:53:43 1514577223.778988: $GPGGA,195344,3946.9578,N,08404.9859,W,2,12,0.80,298.04,M,-33.324,M,,*77
2017-12-29 14:53:43 1514577223.779082: $GPRMC,195344,A,3946.9578,N,08404.9859,W,0.0000,0.000,291217,,*31
2017-12-29 14:53:43 1514577223.779144: $GPGSA,A,3,1,3,10,12,14,22,25,31,32,18,26,138,1.7,0.8,1.3*08
2017-12-29 14:53:44 1514577224.333445: $GPZDA,195345.00,29,12,2017,00,00*65
2017-12-29 14:53:44 1514577224.333612: $GPGGA,195345,3946.9578,N,08404.9859,W,2,12,0.80,298.04,M,-33.324,M,,*76
2017-12-29 14:53:44 1514577224.333677: $GPRMC,195345,A,3946.9578,N,08404.9859,W,0.0000,0.000,291217,,*30
2017-12-29 14:53:44 1514577224.333738: $GPGSA,A,3,1,3,10,12,14,22,25,31,32,18,26,138,1.7,0.8,1.3*08
2017-12-29 14:53:45 1514577225.333119: $GPZDA,195346.00,29,12,2017,00,00*66
2017-12-29 14:53:45 1514577225.333274: $GPGGA,195346,3946.9578,N,08404.9859,W,2,12,0.80,298.04,M,-33.324,M,,*75
2017-12-29 14:53:45 1514577225.333341: $GPRMC,195346,A,3946.9578,N,08404.9859,W,0.0000,0.000,291217,,*33
2017-12-29 14:53:45 1514577225.333402: $GPGSA,A,3,1,3,10,12,14,22,25,31,32,18,26,138,1.7,0.8,1.3*08
2017-12-29 14:53:46 1514577226.668020: $GPGSV,3,1,12,01,22,292,36,03,07,316,42,10,39,151,48,12,18,043,44*7C
2017-12-29 14:53:46 1514577226.668199: $GPGSV,3,2,12,14,69,345,42,22,26,310,42,25,41,081,51,31,66,234,46*7F
2017-12-29 14:53:46 1514577226.668264: $GPGSV,3,3,12,32,65,049,51,18,10,145,31,26,10,180,24,138,38,213,42*46
2017-12-29 14:53:46 1514577226.781329: $GPZDA,195347.00,29,12,2017,00,00*67
2017-12-29 14:53:46 1514577226.781513: $GPGGA,195347,3946.9578,N,08404.9859,W,2,12,0.80,298.04,M,-33.324,M,,*74
2017-12-29 14:53:46 1514577226.781580: $GPRMC,195347,A,3946.9578,N,08404.9859,W,0.0000,0.000,291217,,*32
2017-12-29 14:53:46 1514577226.781641: $GPGSA,A,3,1,3,10,12,14,22,25,31,32,18,26,138,1.7,0.8,1.3*08
2017-12-29 14:53:47 1514577227.333394: $GPZDA,195348.00,29,12,2017,00,00*68
2017-12-29 14:53:47 1514577227.333569: $GPGGA,195348,3946.9578,N,08404.9859,W,2,12,0.80,298.04,M,-33.324,M,,*7B
2017-12-29 14:53:47 1514577227.333635: $GPRMC,195348,A,3946.9578,N,08404.9859,W,0.0000,0.000,291217,,*3D
2017-12-29 14:53:47 1514577227.333695: $GPGSA,A,3,1,3,10,12,14,22,25,31,32,18,26,138,1.7,0.8,1.3*08
