2017-12-01 12:07:34 1512148054.794106: {"class":"VERSION","release":"3.16","rev":"3.16-4","proto_major":3,"proto_minor":11}
2017-12-01 12:07:34 1512148054.794504: {"class":"DEVICES","devices":[{"class":"DEVICE","path":"/dev/ttyUSB0","driver":"SiRF","subtype":"9\u0006GSD4e_4.1.2-P1_RPATCH.05-F-GPS-4R-1510281 11/03/2015 307","activated":"2017-12-01T17:07:34.757Z","flags":1,"native":1,"bps":4800,"parity":"N","stopbits":1,"cycle":1.00}]}
2017-12-01 12:07:34 1512148054.794628: {"class":"WATCH","enable":true,"json":false,"nmea":true,"raw":0,"scaled":false,"timing":false,"split24":false,"pps":false}
2017-12-01 12:07:34 1512148054.871173: $GPZDA,170735.00,01,12,2017,00,00*67
2017-12-01 12:07:34 1512148054.871341: $GPGGA,170735,3946.9575,N,08404.9860,W,2,11,0.80,298.81,M,-33.324,M,,*77
2017-12-01 12:07:34 1512148054.871478: $GPRMC,170735,A,3946.9575,N,08404.9860,W,0.0000,0.000,011217,,*35
2017-12-01 12:07:34 1512148054.871540: $GPGSA,A,3,10,13,15,18,20,21,24,27,5,29,138,,2.0,0.8,1.5*34
2017-12-01 12:07:35 1512148055.423562: $GPZDA,170736.00,01,12,2017,00,00*64
2017-12-01 12:07:35 1512148055.423727: $GPGGA,170736,3946.9575,N,08404.9860,W,2,11,0.80,298.81,M,-33.324,M,,*74
2017-12-01 12:07:35 1512148055.423793: $GPRMC,170736,A,3946.9575,N,08404.9860,W,0.0000,0.000,011217,,*36
2017-12-01 12:07:35 1512148055.423855: $GPGSA,A,3,10,13,15,18,20,21,24,27,5,29,138,,2.0,0.8,1.5*34
2017-12-01 12:07:36 1512148056.407901: $GPZDA,170737.00,01,12,2017,00,00*65
2017-12-01 12:07:36 1512148056.408079: $GPGGA,170737,3946.9575,N,08404.9860,W,2,11,0.80,298.81,M,-33.324,M,,*75
2017-12-01 12:07:36 1512148056.408148: $GPRMC,170737,A,3946.9575,N,08404.9860,W,0.0000,0.000,011217,,*37
2017-12-01 12:07:36 1512148056.408210: $GPGSA,A,3,10,13,15,18,20,21,24,27,5,29,138,,2.0,0.8,1.5*34
2017-12-01 12:07:37 1512148057.759877: $GPGSV,3,1,12,10,20,279,37,13,33,046,44,15,66,054,44,18,51,295,46*77
2017-12-01 12:07:37 1512148057.760057: $GPGSV,3,2,12,20,55,066,45,21,76,288,44,24,29,142,44,27,14,316,42*70
2017-12-01 12:07:37 1512148057.760124: $GPGSV,3,3,12,05,07,084,21,29,14,192,31,04,04,135,00,138,38,213,46*45
2017-12-01 12:07:37 1512148057.873242: $GPZDA,170738.00,01,12,2017,00,00*6A
2017-12-01 12:07:37 1512148057.873400: $GPGGA,170738,3946.9575,N,08404.9860,W,2,11,0.80,298.81,M,-33.324,M,,*7A
2017-12-01 12:07:37 1512148057.873465: $GPRMC,170738,A,3946.9575,N,08404.9860,W,0.0000,0.000,011217,,*38
2017-12-01 12:07:37 1512148057.873526: $GPGSA,A,3,10,13,15,18,20,21,24,27,5,29,138,,2.0,0.8,1.5*34
2017-12-01 12:07:38 1512148058.498975: $GPZDA,170739.00,01,12,2017,00,00*6B
2017-12-01 12:07:38 1512148058.499128: $GPGGA,170739,3946.9575,N,08404.9860,W,2,11,0.80,298.81,M,-33.324,M,,*7B
2017-12-01 12:07:38 1512148058.499193: $GPRMC,170739,A,3946.9575,N,08404.9860,W,0.0000,0.000,011217,,*39
2017-12-01 12:07:38 1512148058.499253: $GPGSA,A,3,10,13,15,18,20,21,24,27,5,29,138,,2.0,0.8,1.5*34
2017-12-01 12:07:39 1512148059.407395: $GPZDA,170740.00,01,12,2017,00,00*65
2017-12-01 12:07:39 1512148059.407550: $GPGGA,170740,3946.9575,N,08404.9860,W,2,11,0.80,298.81,M,-33.324,M,,*75
2017-12-01 12:07:39 1512148059.407614: $GPRMC,170740,A,3946.9575,N,08404.9860,W,0.0000,0.000,011217,,*37
2017-12-01 12:07:39 1512148059.407674: $GPGSA,A,3,10,13,15,18,20,21,24,27,5,29,138,,2.0,0.8,1.5*34
2017-12-01 12:07:40 1512148060.758963: $GPGSV,3,1,12,10,20,279,37,13,33,046,44,15,66,054,43,18,51,295,47*71
2017-12-01 12:07:40 1512148060.759146: $GPGSV,3,2,12,20,55,066,45,21,76,288,44,24,29,142,44,27,14,316,42*70
2017-12-01 12:07:40 1512148060.759212: $GPGSV,3,3,12,05,07,084,20,29,14,192,30,04,04,135,00,138,38,213,46*45
2017-12-01 12:07:40 1512148060.872478: $GPZDA,170741.00,01,12,2017,00,00*64
2017-12-01 12:07:40 1512148060.872663: $GPGGA,170741,3946.9575,N,08404.9860,W,2,11,0.80,298.81,M,-33.324,M,,*74
2017-12-01 12:07:40 1512148060.872731: $GPRMC,170741,A,3946.9575,N,08404.9860,W,0.0000,0.000,011217,,*36
2017-12-01 12:07:40 1512148060.872792: $GPGSA,A,3,10,13,15,18,20,21,24,27,5,29,138,,2.0,0.8,1.5*34
2017-12-01 12:07:41 1512148061.406989: $GPZDA,170742.00,01,12,2017,00,00*67
2017-12-01 12:07:41 1512148061.407213: $GPGGA,170742,3946.9575,N,08404.9860,W,2,11,0.80,298.81,M,-33.324,M,,*77
2017-12-01 12:07:41 1512148061.407281: $GPRMC,170742,A,3946.9575,N,08404.9860,W,0.0000,0.000,011217,,*35
2017-12-01 12:07:41 1512148061.407342: $GPGSA,A,3,10,13,15,18,20,21,24,27,5,29,138,,2.0,0.8,1.5*34
2017-12-01 12:07:42 1512148062.401633: $GPZDA,170743.00,01,12,2017,00,00*66
2017-12-01 12:07:42 1512148062.401806: $GPGGA,170743,3946.9575,N,08404.9860,W,2,11,0.80,298.81,M,-33.324,M,,*76
2017-12-01 12:07:42 1512148062.401872: $GPRMC,170743,A,3946.9575,N,08404.9860,W,0.0000,0.000,011217,,*34
2017-12-01 12:07:42 1512148062.401953: $GPGSA,A,3,10,13,15,18,20,21,24,27,5,29,138,,2.0,0.8,1.5*34
2017-12-01 12:07:43 1512148063.758294: $GPGSV,3,1,12,10,20,279,38,13,33,046,44,15,66,054,44,18,51,295,47*79
2017-12-01 12:07:43 1512148063.758459: $GPGSV,3,2,12,20,55,066,45,21,76,288,44,24,29,142,44,27,14,316,42*70
2017-12-01 12:07:43 1512148063.758526: $GPGSV,3,3,12,05,07,084,20,29,14,192,30,04,04,135,00,138,38,213,47*44
2017-12-01 12:07:43 1512148063.871662: $GPZDA,170744.00,01,12,2017,00,00*61
2017-12-01 12:07:43 1512148063.871860: $GPGGA,170744,3946.9575,N,08404.9860,W,2,11,0.80,298.81,M,-33.324,M,,*71
2017-12-01 12:07:43 1512148063.871928: $GPRMC,170744,A,3946.9575,N,08404.9860,W,0.0000,0.000,011217,,*33
2017-12-01 12:07:43 1512148063.871990: $GPGSA,A,3,10,13,15,18,20,21,24,27,5,29,138,,2.0,0.8,1.5*34
2017-12-01 12:07:44 1512148064.407691: $GPZDA,170745.00,01,12,2017,00,00*60
2017-12-01 12:07:44 1512148064.407860: $GPGGA,170745,3946.9575,N,08404.9860,W,2,11,0.80,298.81,M,-33.324,M,,*70
2017-12-01 12:07:44 1512148064.407927: $GPRMC,170745,A,3946.9575,N,08404.9860,W,0.0000,0.000,011217,,*32
2017-12-01 12:07:44 1512148064.407989: $GPGSA,A,3,10,13,15,18,20,21,24,27,5,29,138,,2.0,0.8,1.5*34
