2017-12-01 12:09:30 1512148170.386890: {"class":"VERSION","release":"3.16","rev":"3.16-4","proto_major":3,"proto_minor":11}
2017-12-01 12:09:30 1512148170.387275: {"class":"DEVICES","devices":[{"class":"DEVICE","path":"/dev/ttyUSB0","driver":"SiRF","subtype":"9\u0006GSD4e_4.1.2-P1_RPATCH.05-F-GPS-4R-1510281 11/03/2015 307","activated":"2017-12-01T17:09:30.037Z","flags":1,"native":1,"bps":4800,"parity":"N","stopbits":1,"cycle":1.00}]}
2017-12-01 12:09:30 1512148170.387392: {"class":"WATCH","enable":true,"json":false,"nmea":true,"raw":0,"scaled":false,"timing":false,"split24":false,"pps":false}
2017-12-01 12:09:30 1512148170.642961: $GPZDA,170931.33,01,12,2017,00,00*6D
2017-12-01 12:09:30 1512148170.643133: $GPGGA,170931,3946.9628,N,08404.9789,W,1,11,0.80,305.75,M,-33.324,M,,*73
2017-12-01 12:09:30 1512148170.643199: $GPRMC,170931,A,3946.9628,N,08404.9789,W,0.3423,4.197,011217,,*31
2017-12-01 12:09:30 1512148170.643260: $GPGSA,A,3,10,13,15,18,20,21,24,27,29,5,138,,2.0,0.8,1.5*34
2017-12-01 12:09:31 1512148171.910908: $GPGSV,3,1,12,10,21,280,34,13,32,046,38,15,64,052,35,18,52,297,37*7C
2017-12-01 12:09:31 1512148171.911089: $GPGSV,3,2,12,20,54,067,37,21,77,283,36,24,30,141,36,27,15,316,34*74
2017-12-01 12:09:31 1512148171.911158: $GPGSV,3,3,12,29,13,190,25,05,06,085,08,04,03,135,00,138,38,213,00*4B
2017-12-01 12:09:32 1512148172.024225: $GPZDA,170932.02,01,12,2017,00,00*6C
2017-12-01 12:09:32 1512148172.024407: $GPGGA,170932,3946.9628,N,08404.9789,W,1,09,0.80,305.75,M,-33.324,M,,*79
2017-12-01 12:09:32 1512148172.024495: $GPRMC,170932,A,3946.9628,N,08404.9789,W,0.2758,128.233,011217,,*3E
2017-12-01 12:09:32 1512148172.024560: $GPGSA,A,3,10,13,15,18,20,21,24,27,29,,,,2.0,0.8,1.5*3B
2017-12-01 12:09:32 1512148172.831031: $GPZDA,170933.00,01,12,2017,00,00*6F
2017-12-01 12:09:32 1512148172.831224: $GPGGA,170933,3946.9625,N,08404.9797,W,1,09,0.80,306.43,M,-33.324,M,,*7C
2017-12-01 12:09:32 1512148172.831293: $GPRMC,170933,A,3946.9625,N,08404.9797,W,0.2422,93.794,011217,,*0A
2017-12-01 12:09:32 1512148172.831414: $GPGSA,A,3,10,13,15,18,20,21,24,27,29,,,,2.0,0.8,1.5*3B
2017-12-01 12:09:32 1512148172.831482: $GPGBS,170933,10.70,M,15.43,M,35.28,M*08
2017-12-01 12:09:33 1512148173.333245: $GPZDA,170934.00,01,12,2017,00,00*68
2017-12-01 12:09:33 1512148173.333427: $GPGGA,170934,3946.9621,N,08404.9797,W,1,09,0.80,307.20,M,-33.324,M,,*7B
2017-12-01 12:09:33 1512148173.333511: $GPRMC,170934,A,3946.9621,N,08404.9797,W,0.1867,0.000,011217,,*37
2017-12-01 12:09:33 1512148173.333575: $GPGSA,A,3,10,13,15,18,20,21,24,27,29,,,,2.0,0.8,1.5*3B
2017-12-01 12:09:33 1512148173.333634: $GPGBS,170934,10.70,M,15.43,M,35.28,M*0F
2017-12-01 12:09:34 1512148174.668577: $GPGSV,3,1,12,10,21,280,42,13,32,046,46,15,64,052,44,18,52,297,45*77
2017-12-01 12:09:34 1512148174.668759: $GPGSV,3,2,12,20,54,067,45,21,77,283,44,24,30,141,43,27,15,316,43*76
2017-12-01 12:09:34 1512148174.668826: $GPGSV,3,3,12,29,13,190,31,05,06,085,28,04,03,135,00,138,38,213,46*4E
2017-12-01 12:09:34 1512148174.782068: $GPZDA,170935.00,01,12,2017,00,00*69
2017-12-01 12:09:34 1512148174.782228: $GPGGA,170935,3946.9618,N,08404.9805,W,1,11,0.80,307.88,M,-33.324,M,,*7F
2017-12-01 12:09:34 1512148174.782294: $GPRMC,170935,A,3946.9618,N,08404.9805,W,0.1867,0.000,011217,,*38
2017-12-01 12:09:34 1512148174.782355: $GPGSA,A,3,10,13,15,18,20,21,24,27,29,5,138,,2.0,0.8,1.5*34
2017-12-01 12:09:35 1512148175.407924: $GPZDA,170936.00,01,12,2017,00,00*6A
2017-12-01 12:09:35 1512148175.408095: $GPGGA,170936,3946.9615,N,08404.9806,W,1,11,0.80,308.65,M,-33.324,M,,*7E
2017-12-01 12:09:35 1512148175.408162: $GPRMC,170936,A,3946.9615,N,08404.9806,W,0.1867,0.000,011217,,*35
2017-12-01 12:09:35 1512148175.408224: $GPGSA,A,3,10,13,15,18,20,21,24,27,29,5,138,,2.0,0.8,1.5*34
2017-12-01 12:09:36 1512148176.332372: $GPZDA,170937.00,01,12,2017,00,00*6B
2017-12-01 12:09:36 1512148176.332545: $GPGGA,170937,3946.9611,N,08404.9813,W,1,11,0.80,307.93,M,-33.324,M,,*79
2017-12-01 12:09:36 1512148176.332614: $GPRMC,170937,A,3946.9611,N,08404.9813,W,0.0000,0.000,011217,,*3C
2017-12-01 12:09:36 1512148176.332675: $GPGSA,A,3,10,13,15,18,20,21,24,27,29,5,138,,2.0,0.8,1.5*34
2017-12-01 12:09:37 1512148177.670059: $GPGSV,3,1,12,10,21,280,42,13,32,046,45,15,64,052,44,18,52,297,45*74
2017-12-01 12:09:37 1512148177.670213: $GPGSV,3,2,12,20,54,067,45,21,77,283,44,24,30,141,44,27,15,316,44*76
2017-12-01 12:09:37 1512148177.670280: $GPGSV,3,3,12,29,13,190,30,05,06,085,28,04,03,135,00,138,38,213,46*4F
2017-12-01 12:09:37 1512148177.783543: $GPZDA,170938.00,01,12,2017,00,00*64
2017-12-01 12:09:37 1512148177.783746: $GPGGA,170938,3946.9611,N,08404.9813,W,1,11,0.80,307.93,M,-33.324,M,,*76
2017-12-01 12:09:37 1512148177.783842: $GPRMC,170938,A,3946.9611,N,08404.9813,W,0.0000,0.000,011217,,*33
2017-12-01 12:09:37 1512148177.783906: $GPGSA,A,3,10,13,15,18,20,21,24,27,29,5,138,,2.0,0.8,1.5*34
2017-12-01 12:09:38 1512148178.333063: $GPZDA,170939.00,01,12,2017,00,00*65
2017-12-01 12:09:38 1512148178.333248: $GPGGA,170939,3946.9608,N,08404.9814,W,1,11,0.80,308.69,M,-33.324,M,,*72
2017-12-01 12:09:38 1512148178.333317: $GPRMC,170939,A,3946.9608,N,08404.9814,W,0.0000,0.000,011217,,*3D
2017-12-01 12:09:38 1512148178.333379: $GPGSA,A,3,10,13,15,18,20,21,24,27,29,5,138,,2.0,0.8,1.5*34
2017-12-01 12:09:39 1512148179.336853: $GPZDA,170940.00,01,12,2017,00,00*6B
2017-12-01 12:09:39 1512148179.337041: $GPGGA,170940,3946.9604,N,08404.9821,W,1,11,0.80,307.98,M,-33.324,M,,*77
2017-12-01 12:09:39 1512148179.337110: $GPRMC,170940,A,3946.9604,N,08404.9821,W,0.0000,0.000,011217,,*39
2017-12-01 12:09:39 1512148179.337171: $GPGSA,A,3,10,13,15,18,20,21,24,27,29,5,138,,2.0,0.8,1.5*34
