2017-11-16 14:54:20 1510862060.156589: {"class":"VERSION","release":"3.17","rev":"3.17","proto_major":3,"proto_minor":12}
2017-11-16 14:54:20 1510862060.157005: {"class":"DEVICES","devices":[{"class":"DEVICE","path":"/dev/ttyUSB0","driver":"SiRF","subtype":"9\u0006GSD4e_4.1.2-P1_RPATCH.05-F-GPS-4R-1510281 11/03/2015 307","activated":"2017-11-16T19:54:19.709Z","flags":1,"native":1,"bps":4800,"parity":"N","stopbits":1,"cycle":1.00}]}
2017-11-16 14:54:20 1510862060.157116: {"class":"WATCH","enable":true,"json":false,"nmea":true,"raw":0,"scaled":false,"timing":false,"split24":false,"pps":false}
2017-11-16 14:54:20 1510862060.485728: $GPZDA,195419.00,16,11,2017,00,00*64
2017-11-16 14:54:20 1510862060.485896: $GPGGA,195419,3946.9575,N,08404.9848,W,2,11,0.80,301.77,M,-33.324,M,,*73
2017-11-16 14:54:20 1510862060.485958: $GPRMC,195419,A,3946.9575,N,08404.9848,W,0.0000,0.000,161117,,*3C
2017-11-16 14:54:20 1510862060.486014: $GPGSA,A,3,8,10,15,18,21,20,24,27,32,14,138,,1.6,0.8,1.3*37
2017-11-16 14:54:21 1510862061.827843: $GPGSV,3,1,11,08,08,306,34,10,56,315,50,15,22,058,50,18,77,040,45*79
2017-11-16 14:54:21 1510862061.828010: $GPGSV,3,2,11,21,45,183,47,20,19,109,45,24,52,079,48,27,14,271,40*73
2017-11-16 14:54:21 1510862061.828071: $GPGSV,3,3,11,32,35,252,46,14,18,243,42,138,38,213,44*77
2017-11-16 14:54:21 1510862061.941232: $GPZDA,195420.00,16,11,2017,00,00*6E
2017-11-16 14:54:21 1510862061.941395: $GPGGA,195420,3946.9575,N,08404.9848,W,2,11,0.80,301.77,M,-33.324,M,,*79
2017-11-16 14:54:21 1510862061.941457: $GPRMC,195420,A,3946.9575,N,08404.9848,W,0.0000,0.000,161117,,*36
2017-11-16 14:54:21 1510862061.941513: $GPGSA,A,3,8,10,15,18,21,20,24,27,32,14,138,,1.6,0.8,1.3*37
2017-11-16 14:54:22 1510862062.529516: $GPZDA,195421.00,16,11,2017,00,00*6F
2017-11-16 14:54:22 1510862062.529681: $GPGGA,195421,3946.9575,N,08404.9848,W,2,11,0.80,301.77,M,-33.324,M,,*78
2017-11-16 14:54:22 1510862062.529743: $GPRMC,195421,A,3946.9575,N,08404.9848,W,0.0000,0.000,161117,,*37
2017-11-16 14:54:22 1510862062.529798: $GPGSA,A,3,8,10,15,18,21,20,24,27,32,14,138,,1.6,0.8,1.3*37
2017-11-16 14:54:23 1510862063.529379: $GPZDA,195422.00,16,11,2017,00,00*6C
2017-11-16 14:54:23 1510862063.529563: $GPGGA,195422,3946.9575,N,08404.9848,W,2,11,0.80,301.77,M,-33.324,M,,*7B
2017-11-16 14:54:23 1510862063.529626: $GPRMC,195422,A,3946.9575,N,08404.9848,W,0.0000,0.000,161117,,*34
2017-11-16 14:54:23 1510862063.529684: $GPGSA,A,3,8,10,15,18,21,20,24,27,32,14,138,,1.6,0.8,1.3*37
2017-11-16 14:54:24 1510862064.829669: $GPGSV,3,1,11,08,08,306,34,10,56,315,50,15,22,058,50,18,77,040,45*79
2017-11-16 14:54:24 1510862064.829859: $GPGSV,3,2,11,21,45,183,47,20,19,109,45,24,52,079,49,27,14,271,40*72
2017-11-16 14:54:24 1510862064.829942: $GPGSV,3,3,11,32,35,252,46,14,18,243,42,138,38,213,44*77
2017-11-16 14:54:24 1510862064.943741: $GPZDA,195423.00,16,11,2017,00,00*6D
2017-11-16 14:54:24 1510862064.943904: $GPGGA,195423,3946.9575,N,08404.9848,W,2,11,0.80,301.77,M,-33.324,M,,*7A
2017-11-16 14:54:24 1510862064.943984: $GPRMC,195423,A,3946.9575,N,08404.9848,W,0.0000,0.000,161117,,*35
2017-11-16 14:54:24 1510862064.944042: $GPGSA,A,3,8,10,15,18,21,20,24,27,32,14,138,,1.6,0.8,1.3*37
2017-11-16 14:54:25 1510862065.493754: $GPZDA,195424.00,16,11,2017,00,00*6A
2017-11-16 14:54:25 1510862065.493925: $GPGGA,195424,3946.9575,N,08404.9848,W,2,11,0.80,301.77,M,-33.324,M,,*7D
2017-11-16 14:54:25 1510862065.493989: $GPRMC,195424,A,3946.9575,N,08404.9848,W,0.0000,0.000,161117,,*32
2017-11-16 14:54:25 1510862065.494044: $GPGSA,A,3,8,10,15,18,21,20,24,27,32,14,138,,1.6,0.8,1.3*37
2017-11-16 14:54:26 1510862066.492248: $GPZDA,195425.00,16,11,2017,00,00*6B
2017-11-16 14:54:26 1510862066.492405: $GPGGA,195425,3946.9575,N,08404.9848,W,2,11,0.80,301.77,M,-33.324,M,,*7C
2017-11-16 14:54:26 1510862066.492470: $GPRMC,195425,A,3946.9575,N,08404.9848,W,0.0000,0.000,161117,,*33
2017-11-16 14:54:26 1510862066.492526: $GPGSA,A,3,8,10,15,18,21,20,24,27,32,14,138,,1.6,0.8,1.3*37
2017-11-16 14:54:27 1510862067.828054: $GPGSV,3,1,11,08,08,306,34,10,56,315,50,15,22,058,49,18,77,040,44*70
2017-11-16 14:54:27 1510862067.828298: $GPGSV,3,2,11,21,45,183,47,20,19,109,45,24,52,079,48,27,14,271,40*73
2017-11-16 14:54:27 1510862067.828364: $GPGSV,3,3,11,32,35,252,46,14,18,243,42,138,38,213,43*70
2017-11-16 14:54:27 1510862067.941413: $GPZDA,195426.00,16,11,2017,00,00*68
2017-11-16 14:54:27 1510862067.941592: $GPGGA,195426,3946.9575,N,08404.9848,W,2,11,0.80,301.77,M,-33.324,M,,*7F
2017-11-16 14:54:27 1510862067.941654: $GPRMC,195426,A,3946.9575,N,08404.9848,W,0.0000,0.000,161117,,*30
2017-11-16 14:54:27 1510862067.941710: $GPGSA,A,3,8,10,15,18,21,20,24,27,32,14,138,,1.6,0.8,1.3*37
2017-11-16 14:54:28 1510862068.492271: $GPZDA,195427.00,16,11,2017,00,00*69
2017-11-16 14:54:28 1510862068.492473: $GPGGA,195427,3946.9575,N,08404.9848,W,2,11,0.80,301.77,M,-33.324,M,,*7E
2017-11-16 14:54:28 1510862068.492539: $GPRMC,195427,A,3946.9575,N,08404.9848,W,0.0000,0.000,161117,,*31
2017-11-16 14:54:28 1510862068.492601: $GPGSA,A,3,8,10,15,18,21,20,24,27,32,14,138,,1.6,0.8,1.3*37
2017-11-16 14:54:29 1510862069.492615: $GPZDA,195428.00,16,11,2017,00,00*66
2017-11-16 14:54:29 1510862069.492805: $GPGGA,195428,3946.9575,N,08404.9848,W,2,11,0.80,301.77,M,-33.324,M,,*71
2017-11-16 14:54:29 1510862069.492893: $GPRMC,195428,A,3946.9575,N,08404.9848,W,0.0000,0.000,161117,,*3E
2017-11-16 14:54:29 1510862069.492953: $GPGSA,A,3,8,10,15,18,21,20,24,27,32,14,138,,1.6,0.8,1.3*37
