2017-12-31 16:53:52 1514757232.756715: {"class":"VERSION","release":"3.16","rev":"3.16-4","proto_major":3,"proto_minor":11}
2017-12-31 16:53:52 1514757232.757051: {"class":"DEVICES","devices":[{"class":"DEVICE","path":"/dev/ttyUSB0","driver":"SiRF","activated":"2017-12-31T21:53:52.501Z","flags":1,"native":1,"bps":4800,"parity":"N","stopbits":1,"cycle":1.00}]}
2017-12-31 16:53:52 1514757232.757207: {"class":"WATCH","enable":true,"json":false,"nmea":true,"raw":0,"scaled":false,"timing":false,"split24":false,"pps":false}
2017-12-31 16:53:53 1514757233.360597: $GPZDA,215354.00,31,12,2017,00,00*67
2017-12-31 16:53:53 1514757233.360748: $GPGGA,215354,3946.9581,N,08404.9855,W,2,11,0.80,303.74,M,-33.324,M,,*70
2017-12-31 16:53:53 1514757233.360813: $GPRMC,215354,A,3946.9581,N,08404.9855,W,0.0000,0.000,311217,,*38
2017-12-31 16:53:53 1514757233.360874: $GPGSA,A,3,22,23,25,3,16,29,31,14,32,26,135,,1.7,0.8,1.3*32
2017-12-31 16:53:54 1514757234.679797: $GPGSV,3,1,11,22,47,246,42,23,24,306,41,25,05,037,21,03,46,277,37*7B
2017-12-31 16:53:54 1514757234.679957: $GPGSV,3,2,11,16,41,190,46,29,14,060,23,31,53,046,51,14,44,109,42*70
2017-12-31 16:53:54 1514757234.680021: $GPGSV,3,3,11,32,22,120,46,26,70,154,43,135,22,240,43*7B
2017-12-31 16:53:54 1514757234.793447: $GPZDA,215355.00,31,12,2017,00,00*66
2017-12-31 16:53:54 1514757234.793617: $GPGGA,215355,3946.9581,N,08404.9855,W,2,11,0.80,303.74,M,-33.324,M,,*71
2017-12-31 16:53:54 1514757234.793683: $GPRMC,215355,A,3946.9581,N,08404.9855,W,0.0000,0.000,311217,,*39
2017-12-31 16:53:54 1514757234.793744: $GPGSA,A,3,22,23,25,3,16,29,31,14,32,26,135,,1.7,0.8,1.3*32
2017-12-31 16:53:55 1514757235.419276: $GPZDA,215356.00,31,12,2017,00,00*65
2017-12-31 16:53:55 1514757235.419423: $GPGGA,215356,3946.9581,N,08404.9855,W,2,11,0.80,303.74,M,-33.324,M,,*72
2017-12-31 16:53:55 1514757235.419489: $GPRMC,215356,A,3946.9581,N,08404.9855,W,0.0000,0.000,311217,,*3A
2017-12-31 16:53:55 1514757235.419550: $GPGSA,A,3,22,23,25,3,16,29,31,14,32,26,135,,1.7,0.8,1.3*32
2017-12-31 16:53:56 1514757236.352185: $GPZDA,215357.00,31,12,2017,00,00*64
2017-12-31 16:53:56 1514757236.352353: $GPGGA,215357,3946.9581,N,08404.9855,W,2,11,0.80,303.74,M,-33.324,M,,*73
2017-12-31 16:53:56 1514757236.352420: $GPRMC,215357,A,3946.9581,N,08404.9855,W,0.0000,0.000,311217,,*3B
2017-12-31 16:53:56 1514757236.352480: $GPGSA,A,3,22,23,25,3,16,29,31,14,32,26,135,,1.7,0.8,1.3*32
2017-12-31 16:53:57 1514757237.696384: $GPGSV,3,1,11,22,47,246,42,23,24,306,41,25,05,037,22,03,46,277,38*77
2017-12-31 16:53:57 1514757237.696555: $GPGSV,3,2,11,16,41,190,46,29,14,060,24,31,53,046,51,14,44,109,42*77
2017-12-31 16:53:57 1514757237.696621: $GPGSV,3,3,11,32,22,120,46,26,70,154,44,135,22,240,43*7C
2017-12-31 16:53:57 1514757237.810016: $GPZDA,215358.00,31,12,2017,00,00*6B
2017-12-31 16:53:57 1514757237.810192: $GPGGA,215358,3946.9581,N,08404.9855,W,2,11,0.80,303.74,M,-33.324,M,,*7C
2017-12-31 16:53:57 1514757237.810272: $GPRMC,215358,A,3946.9581,N,08404.9855,W,0.0000,0.000,311217,,*34
2017-12-31 16:53:57 1514757237.810335: $GPGSA,A,3,22,23,25,3,16,29,31,14,32,26,135,,1.7,0.8,1.3*32
2017-12-31 16:53:58 1514757238.343407: $GPZDA,215359.00,31,12,2017,00,00*6A
2017-12-31 16:53:58 1514757238.343565: $GPGGA,215359,3946.9581,N,08404.9855,W,2,11,0.80,303.74,M,-33.324,M,,*7D
2017-12-31 16:53:58 1514757238.343631: $GPRMC,215359,A,3946.9581,N,08404.9855,W,0.0000,0.000,311217,,*35
2017-12-31 16:53:58 1514757238.343692: $GPGSA,A,3,22,23,25,3,16,29,31,14,32,26,135,,1.7,0.8,1.3*32
2017-12-31 16:53:59 1514757239.360529: $GPZDA,215400.00,31,12,2017,00,00*61
2017-12-31 16:53:59 1514757239.360695: $GPGGA,215400,3946.9581,N,08404.9855,W,2,11,0.80,303.74,M,-33.324,M,,*76
2017-12-31 16:53:59 1514757239.360776: $GPRMC,215400,A,3946.9581,N,08404.9855,W,0.0000,0.000,311217,,*3E
2017-12-31 16:53:59 1514757239.360837: $GPGSA,A,3,22,23,25,3,16,29,31,14,32,26,135,,1.7,0.8,1.3*32
2017-12-31 16:54:00 1514757240.679242: $GPGSV,3,1,11,22,47,246,42,23,24,306,42,25,05,037,21,03,46,277,38*77
2017-12-31 16:54:00 1514757240.679397: $GPGSV,3,2,11,16,41,190,46,29,14,060,28,31,53,046,51,14,44,109,42*7B
2017-12-31 16:54:00 1514757240.679500: $GPGSV,3,3,11,32,22,120,46,26,70,154,44,135,22,240,43*7C
2017-12-31 16:54:00 1514757240.792849: $GPZDA,215401.00,31,12,2017,00,00*60
2017-12-31 16:54:00 1514757240.793021: $GPGGA,215401,3946.9581,N,08404.9855,W,2,11,0.80,303.74,M,-33.324,M,,*77
2017-12-31 16:54:00 1514757240.793087: $GPRMC,215401,A,3946.9581,N,08404.9855,W,0.0000,0.000,311217,,*3F
2017-12-31 16:54:00 1514757240.793148: $GPGSA,A,3,22,23,25,3,16,29,31,14,32,26,135,,1.7,0.8,1.3*32
2017-12-31 16:54:01 1514757241.344991: $GPZDA,215402.00,31,12,2017,00,00*63
2017-12-31 16:54:01 1514757241.345170: $GPGGA,215402,3946.9581,N,08404.9855,W,2,11,0.80,303.74,M,-33.324,M,,*74
2017-12-31 16:54:01 1514757241.345235: $GPRMC,215402,A,3946.9581,N,08404.9855,W,0.0000,0.000,311217,,*3C
2017-12-31 16:54:01 1514757241.345311: $GPGSA,A,3,22,23,25,3,16,29,31,14,32,26,135,,1.7,0.8,1.3*32
2017-12-31 16:54:02 1514757242.344673: $GPZDA,215403.00,31,12,2017,00,00*62
2017-12-31 16:54:02 1514757242.344838: $GPGGA,215403,3946.9581,N,08404.9855,W,2,11,0.80,303.74,M,-33.324,M,,*75
2017-12-31 16:54:02 1514757242.344906: $GPRMC,215403,A,3946.9581,N,08404.9855,W,0.0000,0.000,311217,,*3D
2017-12-31 16:54:02 1514757242.344967: $GPGSA,A,3,22,23,25,3,16,29,31,14,32,26,135,,1.7,0.8,1.3*32
