2017-12-01 11:51:58 1512147118.097038: {"class":"VERSION","release":"3.16","rev":"3.16-4","proto_major":3,"proto_minor":11}
2017-12-01 11:51:58 1512147118.097471: {"class":"DEVICES","devices":[{"class":"DEVICE","path":"/dev/ttyUSB0","driver":"SiRF","subtype":"9\u0006GSD4e_4.1.2-P1_RPATCH.05-F-GPS-4R-1510281 11/03/2015 307","activated":"2017-12-01T16:51:57.548Z","flags":1,"native":1,"bps":4800,"parity":"N","stopbits":1,"cycle":1.00}]}
2017-12-01 11:51:58 1512147118.097586: {"class":"WATCH","enable":true,"json":false,"nmea":true,"raw":0,"scaled":false,"timing":false,"split24":false,"pps":false}
2017-12-01 11:51:58 1512147118.412972: $GPZDA,165159.00,01,12,2017,00,00*6F
2017-12-01 11:51:58 1512147118.413147: $GPGGA,165159,3946.9584,N,08404.9857,W,2,11,0.80,295.11,M,-33.324,M,,*71
2017-12-01 11:51:58 1512147118.413214: $GPRMC,165159,A,3946.9584,N,08404.9857,W,0.0000,0.000,011217,,*37
2017-12-01 11:51:58 1512147118.413274: $GPGSA,A,3,10,13,15,18,20,21,24,27,29,5,138,,2.0,0.8,1.5*34
2017-12-01 11:51:59 1512147119.743725: $GPGSV,3,1,12,10,15,274,38,13,39,048,45,15,72,063,46,18,46,289,45*7D
2017-12-01 11:51:59 1512147119.743938: $GPGSV,3,2,12,20,60,057,45,21,70,301,46,24,23,147,44,27,11,322,42*7D
2017-12-01 11:51:59 1512147119.744007: $GPGSV,3,3,12,29,20,193,45,05,11,079,23,04,09,132,00,138,38,213,46*4D
2017-12-01 11:51:59 1512147119.857062: $GPZDA,165200.00,01,12,2017,00,00*60
2017-12-01 11:51:59 1512147119.857236: $GPGGA,165200,3946.9584,N,08404.9857,W,2,11,0.80,295.11,M,-33.324,M,,*7E
2017-12-01 11:51:59 1512147119.857302: $GPRMC,165200,A,3946.9584,N,08404.9857,W,0.0000,0.000,011217,,*38
2017-12-01 11:51:59 1512147119.857362: $GPGSA,A,3,10,13,15,18,20,21,24,27,29,5,138,,2.0,0.8,1.5*34
2017-12-01 11:52:00 1512147120.409226: $GPZDA,165201.00,01,12,2017,00,00*61
2017-12-01 11:52:00 1512147120.409394: $GPGGA,165201,3946.9584,N,08404.9857,W,2,11,0.80,295.11,M,-33.324,M,,*7F
2017-12-01 11:52:00 1512147120.409461: $GPRMC,165201,A,3946.9584,N,08404.9857,W,0.0000,0.000,011217,,*39
2017-12-01 11:52:00 1512147120.409523: $GPGSA,A,3,10,13,15,18,20,21,24,27,29,5,138,,2.0,0.8,1.5*34
2017-12-01 11:52:01 1512147121.426723: $GPZDA,165202.00,01,12,2017,00,00*62
2017-12-01 11:52:01 1512147121.426956: $GPGGA,165202,3946.9584,N,08404.9857,W,2,11,0.80,295.11,M,-33.324,M,,*7C
2017-12-01 11:52:01 1512147121.427028: $GPRMC,165202,A,3946.9584,N,08404.9857,W,0.0000,0.000,011217,,*3A
2017-12-01 11:52:01 1512147121.427155: $GPGSA,A,3,10,13,15,18,20,21,24,27,29,5,138,,2.0,0.8,1.5*34
2017-12-01 11:52:02 1512147122.742850: $GPGSV,3,1,12,10,15,274,39,13,39,048,45,15,72,063,46,18,46,289,45*7C
2017-12-01 11:52:02 1512147122.743013: $GPGSV,3,2,12,20,60,057,45,21,70,301,46,24,23,147,44,27,11,322,42*7D
2017-12-01 11:52:02 1512147122.743078: $GPGSV,3,3,12,29,20,193,45,05,11,079,28,04,09,132,00,138,38,213,46*46
2017-12-01 11:52:02 1512147122.856137: $GPZDA,165203.00,01,12,2017,00,00*63
2017-12-01 11:52:02 1512147122.856306: $GPGGA,165203,3946.9584,N,08404.9857,W,2,11,0.80,295.11,M,-33.324,M,,*7D
2017-12-01 11:52:02 1512147122.856372: $GPRMC,165203,A,3946.9584,N,08404.9857,W,0.0000,0.000,011217,,*3B
2017-12-01 11:52:02 1512147122.856433: $GPGSA,A,3,10,13,15,18,20,21,24,27,29,5,138,,2.0,0.8,1.5*34
2017-12-01 11:52:03 1512147123.408275: $GPZDA,165204.00,01,12,2017,00,00*64
2017-12-01 11:52:03 1512147123.408458: $GPGGA,165204,3946.9584,N,08404.9857,W,2,11,0.80,295.11,M,-33.324,M,,*7A
2017-12-01 11:52:03 1512147123.408524: $GPRMC,165204,A,3946.9584,N,08404.9857,W,0.0000,0.000,011217,,*3C
2017-12-01 11:52:03 1512147123.408586: $GPGSA,A,3,10,13,15,18,20,21,24,27,29,5,138,,2.0,0.8,1.5*34
2017-12-01 11:52:04 1512147124.424133: $GPZDA,165205.00,01,12,2017,00,00*65
2017-12-01 11:52:04 1512147124.424303: $GPGGA,165205,3946.9584,N,08404.9857,W,2,11,0.80,295.11,M,-33.324,M,,*7B
2017-12-01 11:52:04 1512147124.424370: $GPRMC,165205,A,3946.9584,N,08404.9857,W,0.0000,0.000,011217,,*3D
2017-12-01 11:52:04 1512147124.424431: $GPGSA,A,3,10,13,15,18,20,21,24,27,29,5,138,,2.0,0.8,1.5*34
2017-12-01 11:52:05 1512147125.764866: $GPGSV,3,1,12,10,15,274,40,13,39,048,45,15,72,063,46,18,46,289,45*72
2017-12-01 11:52:05 1512147125.765111: $GPGSV,3,2,12,20,60,057,45,21,70,301,45,24,23,147,44,27,11,322,42*7E
2017-12-01 11:52:05 1512147125.765178: $GPGSV,3,3,12,29,20,193,44,05,11,079,28,04,09,132,00,138,38,213,46*47
2017-12-01 11:52:05 1512147125.878291: $GPZDA,165206.00,01,12,2017,00,00*66
2017-12-01 11:52:05 1512147125.878452: $GPGGA,165206,3946.9584,N,08404.9857,W,2,11,0.80,295.11,M,-33.324,M,,*78
2017-12-01 11:52:05 1512147125.878519: $GPRMC,165206,A,3946.9584,N,08404.9857,W,0.0000,0.000,011217,,*3E
2017-12-01 11:52:05 1512147125.878580: $GPGSA,A,3,10,13,15,18,20,21,24,27,29,5,138,,2.0,0.8,1.5*34
2017-12-01 11:52:06 1512147126.503640: $GPZDA,165207.00,01,12,2017,00,00*67
2017-12-01 11:52:06 1512147126.503838: $GPGGA,165207,3946.9581,N,08404.9858,W,2,11,0.80,295.87,M,-33.324,M,,*7C
2017-12-01 11:52:06 1512147126.503924: $GPRMC,165207,A,3946.9581,N,08404.9858,W,0.0000,0.000,011217,,*35
2017-12-01 11:52:06 1512147126.503987: $GPGSA,A,3,10,13,15,18,20,21,24,27,29,5,138,,2.0,0.8,1.5*34
2017-12-01 11:52:07 1512147127.408320: $GPZDA,165208.00,01,12,2017,00,00*68
2017-12-01 11:52:07 1512147127.408503: $GPGGA,165208,3946.9581,N,08404.9858,W,2,11,0.80,295.87,M,-33.324,M,,*73
2017-12-01 11:52:07 1512147127.408598: $GPRMC,165208,A,3946.9581,N,08404.9858,W,0.0000,0.000,011217,,*3A
2017-12-01 11:52:07 1512147127.408668: $GPGSA,A,3,10,13,15,18,20,21,24,27,29,5,138,,2.0,0.8,1.5*34
