2017-12-01 12:29:53 1512149393.426901: {"class":"VERSION","release":"3.16","rev":"3.16-4","proto_major":3,"proto_minor":11}
2017-12-01 12:29:53 1512149393.427321: {"class":"DEVICES","devices":[{"class":"DEVICE","path":"/dev/ttyUSB0","driver":"SiRF","subtype":"9\u0006GSD4e_4.1.2-P1_RPATCH.05-F-GPS-4R-1510281 11/03/2015 307","activated":"2017-12-01T17:29:53.396Z","flags":1,"native":1,"bps":4800,"parity":"N","stopbits":1,"cycle":1.00}]}
2017-12-01 12:29:53 1512149393.427444: {"class":"WATCH","enable":true,"json":false,"nmea":true,"raw":0,"scaled":false,"timing":false,"split24":false,"pps":false}
2017-12-01 12:29:54 1512149394.359158: $GPZDA,172955.00,01,12,2017,00,00*6D
2017-12-01 12:29:54 1512149394.359329: $GPGGA,172955,3946.9553,N,08404.9864,W,2,11,0.80,301.99,M,-33.324,M,,*75
2017-12-01 12:29:54 1512149394.359395: $GPRMC,172955,A,3946.9553,N,08404.9864,W,0.0000,0.000,011217,,*3F
2017-12-01 12:29:54 1512149394.359456: $GPGSA,A,3,10,13,15,18,20,21,24,27,29,32,138,,2.0,0.8,1.5*00
2017-12-01 12:29:55 1512149395.697098: $GPGSV,3,1,11,10,27,286,37,13,24,045,43,15,56,049,46,18,58,306,46*7E
2017-12-01 12:29:55 1512149395.697282: $GPGSV,3,2,11,20,48,078,45,21,79,238,43,24,38,133,47,27,18,309,37*76
2017-12-01 12:29:55 1512149395.697349: $GPGSV,3,3,11,29,05,187,26,32,05,228,27,138,38,213,46*77
2017-12-01 12:29:55 1512149395.810449: $GPZDA,172956.00,01,12,2017,00,00*6E
2017-12-01 12:29:55 1512149395.810666: $GPGGA,172956,3946.9553,N,08404.9864,W,2,11,0.80,301.99,M,-33.324,M,,*76
2017-12-01 12:29:55 1512149395.810739: $GPRMC,172956,A,3946.9553,N,08404.9864,W,0.0000,0.000,011217,,*3C
2017-12-01 12:29:55 1512149395.810832: $GPGSA,A,3,10,13,15,18,20,21,24,27,29,32,138,,2.0,0.8,1.5*00
2017-12-01 12:29:56 1512149396.436165: $GPZDA,172957.00,01,12,2017,00,00*6F
2017-12-01 12:29:56 1512149396.436334: $GPGGA,172957,3946.9553,N,08404.9864,W,2,11,1.20,301.99,M,-33.324,M,,*7C
2017-12-01 12:29:56 1512149396.436401: $GPRMC,172957,A,3946.9553,N,08404.9864,W,0.0000,0.000,011217,,*3D
2017-12-01 12:29:56 1512149396.436462: $GPGSA,A,3,10,13,15,18,20,21,24,27,29,32,138,,2.0,1.2,1.5*0B
2017-12-01 12:29:57 1512149397.358030: $GPZDA,172958.00,01,12,2017,00,00*60
2017-12-01 12:29:57 1512149397.358217: $GPGGA,172958,3946.9553,N,08404.9864,W,2,11,1.20,301.99,M,-33.324,M,,*73
2017-12-01 12:29:57 1512149397.358329: $GPRMC,172958,A,3946.9553,N,08404.9864,W,0.0000,0.000,011217,,*32
2017-12-01 12:29:57 1512149397.358394: $GPGSA,A,3,10,13,15,18,20,21,24,27,29,32,138,,2.0,1.2,1.5*0B
2017-12-01 12:29:58 1512149398.694975: $GPGSV,3,1,11,10,27,286,38,13,24,045,42,15,56,049,46,18,58,306,46*70
2017-12-01 12:29:58 1512149398.695156: $GPGSV,3,2,11,20,48,078,45,21,79,238,43,24,38,133,47,27,18,309,37*76
2017-12-01 12:29:58 1512149398.695223: $GPGSV,3,3,11,32,05,228,21,29,05,187,00,138,38,213,46*75
2017-12-01 12:29:58 1512149398.808304: $GPZDA,172959.00,01,12,2017,00,00*61
2017-12-01 12:29:58 1512149398.808442: $GPGGA,172959,3946.9553,N,08404.9864,W,2,10,1.20,301.99,M,-33.324,M,,*73
2017-12-01 12:29:58 1512149398.808509: $GPRMC,172959,A,3946.9553,N,08404.9864,W,0.0000,0.000,011217,,*33
2017-12-01 12:29:58 1512149398.808570: $GPGSA,A,3,10,13,15,18,20,21,24,27,32,138,,,2.0,1.2,1.5*00
2017-12-01 12:29:59 1512149399.377032: $GPZDA,173000.00,01,12,2017,00,00*65
2017-12-01 12:29:59 1512149399.377235: $GPGGA,173000,3946.9553,N,08404.9864,W,2,10,1.20,301.99,M,-33.324,M,,*77
2017-12-01 12:29:59 1512149399.377331: $GPRMC,173000,A,3946.9553,N,08404.9864,W,0.0000,0.000,011217,,*37
2017-12-01 12:29:59 1512149399.377426: $GPGSA,A,3,10,13,15,18,20,21,24,27,32,138,,,2.0,1.2,1.5*00
2017-12-01 12:30:00 1512149400.377613: $GPZDA,173001.00,01,12,2017,00,00*64
2017-12-01 12:30:00 1512149400.377796: $GPGGA,173001,3946.9553,N,08404.9864,W,2,10,1.20,301.99,M,-33.324,M,,*76
2017-12-01 12:30:00 1512149400.377864: $GPRMC,173001,A,3946.9553,N,08404.9864,W,0.0000,0.000,011217,,*36
2017-12-01 12:30:00 1512149400.377926: $GPGSA,A,3,10,13,15,18,20,21,24,27,32,138,,,2.0,1.2,1.5*00
2017-12-01 12:30:01 1512149401.695325: $GPGSV,3,1,11,10,27,286,38,13,24,045,43,15,56,049,47,18,58,306,46*70
2017-12-01 12:30:01 1512149401.695560: $GPGSV,3,2,11,20,48,078,45,21,79,238,42,24,38,133,47,27,18,309,38*78
2017-12-01 12:30:01 1512149401.695631: $GPGSV,3,3,11,32,05,228,25,29,05,187,00,138,38,213,47*70
2017-12-01 12:30:01 1512149401.808822: $GPZDA,173002.00,01,12,2017,00,00*67
2017-12-01 12:30:01 1512149401.808996: $GPGGA,173002,3946.9553,N,08404.9864,W,2,10,1.20,301.99,M,-33.324,M,,*75
2017-12-01 12:30:01 1512149401.809065: $GPRMC,173002,A,3946.9553,N,08404.9864,W,0.0000,0.000,011217,,*35
2017-12-01 12:30:01 1512149401.809127: $GPGSA,A,3,10,13,15,18,20,21,24,27,32,138,,,2.0,1.2,1.5*00
2017-12-01 12:30:02 1512149402.358617: $GPZDA,173003.00,01,12,2017,00,00*66
2017-12-01 12:30:02 1512149402.358839: $GPGGA,173003,3946.9553,N,08404.9864,W,2,10,0.80,301.99,M,-33.324,M,,*7F
2017-12-01 12:30:02 1512149402.358930: $GPRMC,173003,A,3946.9553,N,08404.9864,W,0.0000,0.000,011217,,*34
2017-12-01 12:30:02 1512149402.358995: $GPGSA,A,3,10,13,15,18,20,21,24,27,32,138,,,2.0,0.8,1.5*0B
2017-12-01 12:30:03 1512149403.359581: $GPZDA,173004.00,01,12,2017,00,00*61
2017-12-01 12:30:03 1512149403.359753: $GPGGA,173004,3946.9553,N,08404.9864,W,2,10,0.80,301.99,M,-33.324,M,,*78
2017-12-01 12:30:03 1512149403.359819: $GPRMC,173004,A,3946.9553,N,08404.9864,W,0.0000,0.000,011217,,*33
2017-12-01 12:30:03 1512149403.359880: $GPGSA,A,3,10,13,15,18,20,21,24,27,32,138,,,2.0,0.8,1.5*0B
