2017-12-31 18:09:22 1514761762.313331: {"class":"VERSION","release":"3.16","rev":"3.16-4","proto_major":3,"proto_minor":11}
2017-12-31 18:09:22 1514761762.313692: {"class":"DEVICES","devices":[{"class":"DEVICE","path":"/dev/ttyUSB0","driver":"SiRF","activated":"2017-12-31T23:09:22.263Z","flags":1,"native":1,"bps":4800,"parity":"N","stopbits":1,"cycle":1.00}]}
2017-12-31 18:09:22 1514761762.313791: {"class":"WATCH","enable":true,"json":false,"nmea":true,"raw":0,"scaled":false,"timing":false,"split24":false,"pps":false}
2017-12-31 18:09:22 1514761762.376221: $GPZDA,230923.00,31,12,2017,00,00*6A
2017-12-31 18:09:22 1514761762.376374: $GPGGA,230923,3946.9561,N,08404.9874,W,2,11,0.60,308.17,M,-33.324,M,,*70
2017-12-31 18:09:22 1514761762.376442: $GPRMC,230923,A,3946.9561,N,08404.9874,W,0.0000,0.000,311217,,*38
2017-12-31 18:09:22 1514761762.376502: $GPGSA,A,3,22,23,9,3,16,29,14,31,27,26,135,,1.7,0.6,1.3*06
2017-12-31 18:09:23 1514761763.375878: $GPZDA,230924.00,31,12,2017,00,00*6D
2017-12-31 18:09:23 1514761763.376055: $GPGGA,230924,3946.9561,N,08404.9874,W,2,11,0.60,308.17,M,-33.324,M,,*77
2017-12-31 18:09:23 1514761763.376121: $GPRMC,230924,A,3946.9561,N,08404.9874,W,0.0000,0.000,311217,,*3F
2017-12-31 18:09:23 1514761763.376183: $GPGSA,A,3,22,23,9,3,16,29,14,31,27,26,135,,1.7,0.6,1.3*06
2017-12-31 18:09:24 1514761764.682972: $GPGSV,3,1,11,22,22,214,42,23,53,306,44,09,20,312,39,03,32,234,44*7E
2017-12-31 18:09:24 1514761764.683154: $GPGSV,3,2,11,16,80,189,44,29,05,031,33,14,15,133,37,31,29,075,41*71
2017-12-31 18:09:24 1514761764.683222: $GPGSV,3,3,11,27,22,154,36,26,62,051,49,135,22,240,42*77
2017-12-31 18:09:24 1514761764.796320: $GPZDA,230925.00,31,12,2017,00,00*6C
2017-12-31 18:09:24 1514761764.796482: $GPGGA,230925,3946.9561,N,08404.9874,W,2,11,0.60,308.17,M,-33.324,M,,*76
2017-12-31 18:09:24 1514761764.796550: $GPRMC,230925,A,3946.9561,N,08404.9874,W,0.0000,0.000,311217,,*3E
2017-12-31 18:09:24 1514761764.796615: $GPGSA,A,3,22,23,9,3,16,29,14,31,27,26,135,,1.7,0.6,1.3*06
2017-12-31 18:09:25 1514761765.421729: $GPZDA,230926.00,31,12,2017,00,00*6F
2017-12-31 18:09:26 1514761766.274996: $GPGGA,230926,3946.9561,N,08404.9874,W,2,11,0.60,308.17,M,-33.324,M,,*75
2017-12-31 18:09:26 1514761766.275156: $GPRMC,230926,A,3946.9561,N,08404.9874,W,0.0000,0.000,311217,,*3D
2017-12-31 18:09:26 1514761766.275221: $GPGSA,A,3,22,23,9,3,16,29,14,31,27,26,135,,1.7,0.6,1.3*06
2017-12-31 18:09:26 1514761766.348830: $GPZDA,230927.00,31,12,2017,00,00*6E
2017-12-31 18:09:26 1514761766.349017: $GPGGA,230927,3946.9561,N,08404.9874,W,2,11,0.60,308.17,M,-33.324,M,,*74
2017-12-31 18:09:26 1514761766.349085: $GPRMC,230927,A,3946.9561,N,08404.9874,W,0.0000,0.000,311217,,*3C
2017-12-31 18:09:26 1514761766.349147: $GPGSA,A,3,22,23,9,3,16,29,14,31,27,26,135,,1.7,0.6,1.3*06
2017-12-31 18:09:27 1514761767.684505: $GPGSV,3,1,11,22,22,214,42,23,53,306,44,09,20,312,38,03,32,234,45*7E
2017-12-31 18:09:27 1514761767.684697: $GPGSV,3,2,11,16,80,189,44,29,05,031,26,14,15,133,37,31,29,075,40*74
2017-12-31 18:09:27 1514761767.684765: $GPGSV,3,3,11,27,22,154,35,26,62,051,50,135,22,240,44*7A
2017-12-31 18:09:27 1514761767.796648: $GPZDA,230928.00,31,12,2017,00,00*61
2017-12-31 18:09:27 1514761767.796783: $GPGGA,230928,3946.9561,N,08404.9874,W,2,11,0.60,308.17,M,-33.324,M,,*7B
2017-12-31 18:09:27 1514761767.796850: $GPRMC,230928,A,3946.9561,N,08404.9874,W,0.0000,0.000,311217,,*33
2017-12-31 18:09:27 1514761767.796912: $GPGSA,A,3,22,23,9,3,16,29,14,31,27,26,135,,1.7,0.6,1.3*06
2017-12-31 18:09:28 1514761768.347862: $GPZDA,230929.00,31,12,2017,00,00*60
2017-12-31 18:09:28 1514761768.348031: $GPGGA,230929,3946.9561,N,08404.9874,W,2,11,0.60,308.17,M,-33.324,M,,*7A
2017-12-31 18:09:28 1514761768.348097: $GPRMC,230929,A,3946.9561,N,08404.9874,W,0.0000,0.000,311217,,*32
2017-12-31 18:09:28 1514761768.348159: $GPGSA,A,3,22,23,9,3,16,29,14,31,27,26,135,,1.7,0.6,1.3*06
2017-12-31 18:09:29 1514761769.348538: $GPZDA,230930.00,31,12,2017,00,00*68
2017-12-31 18:09:29 1514761769.348715: $GPGGA,230930,3946.9561,N,08404.9874,W,2,11,0.60,308.17,M,-33.324,M,,*72
2017-12-31 18:09:29 1514761769.348838: $GPRMC,230930,A,3946.9561,N,08404.9874,W,0.0000,0.000,311217,,*3A
2017-12-31 18:09:29 1514761769.348901: $GPGSA,A,3,22,23,9,3,16,29,14,31,27,26,135,,1.7,0.6,1.3*06
2017-12-31 18:09:30 1514761770.684862: $GPGSV,3,1,11,22,22,214,41,23,53,306,44,09,20,312,38,03,32,234,45*7D
2017-12-31 18:09:30 1514761770.685040: $GPGSV,3,2,11,16,80,189,44,29,05,031,29,14,15,133,37,31,29,075,40*7B
2017-12-31 18:09:30 1514761770.685105: $GPGSV,3,3,11,27,22,154,35,26,62,051,50,135,22,240,44*7A
2017-12-31 18:09:30 1514761770.798303: $GPZDA,230931.00,31,12,2017,00,00*69
2017-12-31 18:09:30 1514761770.798455: $GPGGA,230931,3946.9561,N,08404.9874,W,2,11,0.60,308.17,M,-33.324,M,,*73
2017-12-31 18:09:30 1514761770.798525: $GPRMC,230931,A,3946.9561,N,08404.9874,W,0.0000,0.000,311217,,*3B
2017-12-31 18:09:30 1514761770.798586: $GPGSA,A,3,22,23,9,3,16,29,14,31,27,26,135,,1.7,0.6,1.3*06
2017-12-31 18:09:31 1514761771.349125: $GPZDA,230932.00,31,12,2017,00,00*6A
2017-12-31 18:09:31 1514761771.349310: $GPGGA,230932,3946.9561,N,08404.9874,W,2,11,0.60,308.17,M,-33.324,M,,*70
2017-12-31 18:09:31 1514761771.349380: $GPRMC,230932,A,3946.9561,N,08404.9874,W,0.0000,0.000,311217,,*38
2017-12-31 18:09:31 1514761771.349441: $GPGSA,A,3,22,23,9,3,16,29,14,31,27,26,135,,1.7,0.6,1.3*06
