2017-12-01 12:19:04 1512148744.214501: {"class":"VERSION","release":"3.16","rev":"3.16-4","proto_major":3,"proto_minor":11}
2017-12-01 12:19:04 1512148744.214880: {"class":"DEVICES","devices":[{"class":"DEVICE","path":"/dev/ttyUSB0","driver":"SiRF","subtype":"9\u0006GSD4e_4.1.2-P1_RPATCH.05-F-GPS-4R-1510281 11/03/2015 307","activated":"2017-12-01T17:19:04.017Z","flags":1,"native":1,"bps":4800,"parity":"N","stopbits":1,"cycle":1.00}]}
2017-12-01 12:19:04 1512148744.215000: {"class":"WATCH","enable":true,"json":false,"nmea":true,"raw":0,"scaled":false,"timing":false,"split24":false,"pps":false}
2017-12-01 12:19:04 1512148744.427729: $GPZDA,171905.00,01,12,2017,00,00*6B
2017-12-01 12:19:04 1512148744.427913: $GPGGA,171905,3946.9574,N,08404.9840,W,2,11,0.80,300.45,M,-33.324,M,,*70
2017-12-01 12:19:04 1512148744.428000: $GPRMC,171905,A,3946.9574,N,08404.9840,W,0.0000,0.000,011217,,*3A
2017-12-01 12:19:04 1512148744.428063: $GPGSA,A,3,10,13,15,18,20,21,24,27,5,32,138,,2.0,0.8,1.5*3E
2017-12-01 12:19:05 1512148745.409840: $GPZDA,171906.00,01,12,2017,00,00*68
2017-12-01 12:19:05 1512148745.410020: $GPGGA,171906,3946.9574,N,08404.9840,W,2,11,0.80,300.45,M,-33.324,M,,*73
2017-12-01 12:19:05 1512148745.410088: $GPRMC,171906,A,3946.9574,N,08404.9840,W,0.0000,0.000,011217,,*39
2017-12-01 12:19:05 1512148745.410149: $GPGSA,A,3,10,13,15,18,20,21,24,27,5,32,138,,2.0,0.8,1.5*3E
2017-12-01 12:19:06 1512148746.764369: $GPGSV,3,1,12,10,24,283,41,13,28,045,45,15,60,051,45,18,55,301,46*75
2017-12-01 12:19:06 1512148746.764562: $GPGSV,3,2,12,20,51,072,44,21,78,265,42,24,34,138,48,27,16,312,41*73
2017-12-01 12:19:06 1512148746.764631: $GPGSV,3,3,12,05,03,088,21,29,09,189,26,32,01,225,24,138,38,213,45*4A
2017-12-01 12:19:06 1512148746.878087: $GPZDA,171907.00,01,12,2017,00,00*69
2017-12-01 12:19:06 1512148746.878228: $GPGGA,171907,3946.9574,N,08404.9840,W,2,12,0.80,300.45,M,-33.324,M,,*71
2017-12-01 12:19:06 1512148746.878295: $GPRMC,171907,A,3946.9574,N,08404.9840,W,0.0000,0.000,011217,,*38
2017-12-01 12:19:06 1512148746.878358: $GPGSA,A,3,10,13,15,18,20,21,24,27,5,29,32,138,2.0,0.8,1.5*35
2017-12-01 12:19:07 1512148747.503419: $GPZDA,171908.00,01,12,2017,00,00*66
2017-12-01 12:19:07 1512148747.503592: $GPGGA,171908,3946.9570,N,08404.9840,W,2,12,0.80,299.81,M,-33.324,M,,*73
2017-12-01 12:19:07 1512148747.503664: $GPRMC,171908,A,3946.9570,N,08404.9840,W,0.0000,0.000,011217,,*33
2017-12-01 12:19:07 1512148747.503736: $GPGSA,A,3,10,13,15,18,20,21,24,27,5,29,32,138,2.0,0.8,1.5*35
2017-12-01 12:19:08 1512148748.410182: $GPZDA,171909.00,01,12,2017,00,00*67
2017-12-01 12:19:08 1512148748.410377: $GPGGA,171909,3946.9570,N,08404.9840,W,2,12,0.80,299.81,M,-33.324,M,,*72
2017-12-01 12:19:08 1512148748.410446: $GPRMC,171909,A,3946.9570,N,08404.9840,W,0.0000,0.000,011217,,*32
2017-12-01 12:19:08 1512148748.410511: $GPGSA,A,3,10,13,15,18,20,21,24,27,5,29,32,138,2.0,0.8,1.5*35
2017-12-01 12:19:09 1512148749.762197: $GPGSV,3,1,12,10,24,283,41,13,28,045,45,15,60,051,45,18,55,301,46*75
2017-12-01 12:19:09 1512148749.762361: $GPGSV,3,2,12,20,51,072,44,21,78,265,42,24,34,138,48,27,16,312,41*73
2017-12-01 12:19:09 1512148749.762430: $GPGSV,3,3,12,05,03,088,21,29,09,189,27,32,01,225,24,138,38,213,45*4B
2017-12-01 12:19:09 1512148749.874458: $GPZDA,171910.00,01,12,2017,00,00*6F
2017-12-01 12:19:09 1512148749.874625: $GPGGA,171910,3946.9570,N,08404.9840,W,2,12,0.80,299.81,M,-33.324,M,,*7A
2017-12-01 12:19:09 1512148749.874694: $GPRMC,171910,A,3946.9570,N,08404.9840,W,0.0000,0.000,011217,,*3A
2017-12-01 12:19:09 1512148749.874758: $GPGSA,A,3,10,13,15,18,20,21,24,27,5,29,32,138,2.0,0.8,1.5*35
2017-12-01 12:19:10 1512148750.410321: $GPZDA,171911.00,01,12,2017,00,00*6E
2017-12-01 12:19:10 1512148750.410501: $GPGGA,171911,3946.9570,N,08404.9840,W,2,12,0.80,299.81,M,-33.324,M,,*7B
2017-12-01 12:19:10 1512148750.410571: $GPRMC,171911,A,3946.9570,N,08404.9840,W,0.0000,0.000,011217,,*3B
2017-12-01 12:19:10 1512148750.410635: $GPGSA,A,3,10,13,15,18,20,21,24,27,5,29,32,138,2.0,0.8,1.5*35
2017-12-01 12:19:11 1512148751.411162: $GPZDA,171912.00,01,12,2017,00,00*6D
2017-12-01 12:19:11 1512148751.411473: $GPGGA,171912,3946.9570,N,08404.9840,W,2,12,0.80,299.81,M,-33.324,M,,*78
2017-12-01 12:19:11 1512148751.411559: $GPRMC,171912,A,3946.9570,N,08404.9840,W,0.0000,0.000,011217,,*38
2017-12-01 12:19:11 1512148751.411621: $GPGSA,A,3,10,13,15,18,20,21,24,27,5,29,32,138,2.0,0.8,1.5*35
2017-12-01 12:19:12 1512148752.763906: $GPGSV,3,1,12,10,24,283,41,13,28,045,45,15,60,051,45,18,55,301,46*75
2017-12-01 12:19:12 1512148752.764087: $GPGSV,3,2,12,20,51,072,44,21,78,265,42,24,34,138,48,27,16,312,41*73
2017-12-01 12:19:12 1512148752.764155: $GPGSV,3,3,12,05,03,088,21,29,09,189,27,32,01,225,25,138,38,213,47*48
2017-12-01 12:19:12 1512148752.877288: $GPZDA,171913.00,01,12,2017,00,00*6C
2017-12-01 12:19:12 1512148752.877445: $GPGGA,171913,3946.9570,N,08404.9840,W,2,12,0.80,299.81,M,-33.324,M,,*79
2017-12-01 12:19:12 1512148752.877509: $GPRMC,171913,A,3946.9570,N,08404.9840,W,0.0000,0.000,011217,,*39
2017-12-01 12:19:12 1512148752.877570: $GPGSA,A,3,10,13,15,18,20,21,24,27,5,29,32,138,2.0,0.8,1.5*35
2017-12-01 12:19:13 1512148753.425758: $GPZDA,171914.00,01,12,2017,00,00*6B
2017-12-01 12:19:13 1512148753.425930: $GPGGA,171914,3946.9570,N,08404.9840,W,2,12,0.80,299.81,M,-33.324,M,,*7E
2017-12-01 12:19:13 1512148753.425997: $GPRMC,171914,A,3946.9570,N,08404.9840,W,0.0000,0.000,011217,,*3E
2017-12-01 12:19:13 1512148753.426058: $GPGSA,A,3,10,13,15,18,20,21,24,27,5,29,32,138,2.0,0.8,1.5*35
