2017-11-16 17:05:45 1510869945.830351: {"class":"VERSION","release":"3.17","rev":"3.17","proto_major":3,"proto_minor":12}
2017-11-16 17:05:45 1510869945.830825: {"class":"DEVICES","devices":[{"class":"DEVICE","path":"/dev/ttyUSB0","driver":"SiRF","subtype":"9\u0006GSD4e_4.1.2-P1_RPATCH.05-F-GPS-4R-1510281 11/03/2015 307","activated":"2017-11-16T22:05:45.732Z","flags":1,"native":1,"bps":4800,"parity":"N","stopbits":1,"cycle":1.00}]}
2017-11-16 17:05:45 1510869945.830943: {"class":"WATCH","enable":true,"json":false,"nmea":true,"raw":0,"scaled":false,"timing":false,"split24":false,"pps":false}
2017-11-16 17:05:45 1510869945.847110: $GPZDA,220544.00,16,11,2017,00,00*60
2017-11-16 17:05:45 1510869945.847283: $GPGGA,220544,3946.9579,N,08404.9818,W,2,12,0.80,312.00,M,-33.324,M,,*7F
2017-11-16 17:05:45 1510869945.847349: $GPRMC,220544,A,3946.9579,N,08404.9818,W,0.0000,0.000,161117,,*31
2017-11-16 17:05:45 1510869945.847405: $GPGSA,A,3,1,10,11,12,14,18,22,24,25,31,32,138,1.6,0.8,1.3*38
2017-11-16 17:05:46 1510869946.471375: $GPZDA,220545.00,16,11,2017,00,00*61
2017-11-16 17:05:46 1510869946.471547: $GPGGA,220545,3946.9579,N,08404.9818,W,2,12,0.80,312.00,M,-33.324,M,,*7E
2017-11-16 17:05:46 1510869946.471610: $GPRMC,220545,A,3946.9579,N,08404.9818,W,0.0000,0.000,161117,,*30
2017-11-16 17:05:46 1510869946.471667: $GPGSA,A,3,1,10,11,12,14,18,22,24,25,31,32,138,1.6,0.8,1.3*38
2017-11-16 17:05:47 1510869947.397169: $GPZDA,220546.00,16,11,2017,00,00*62
2017-11-16 17:05:47 1510869947.397342: $GPGGA,220546,3946.9579,N,08404.9818,W,2,12,0.80,312.00,M,-33.324,M,,*7D
2017-11-16 17:05:47 1510869947.397404: $GPRMC,220546,A,3946.9579,N,08404.9818,W,0.0000,0.000,161117,,*33
2017-11-16 17:05:47 1510869947.397459: $GPGSA,A,3,1,10,11,12,14,18,22,24,25,31,32,138,1.6,0.8,1.3*38
2017-11-16 17:05:48 1510869948.750521: $GPGSV,3,1,12,01,18,312,39,10,60,141,49,11,11,292,26,12,25,061,50*7F
2017-11-16 17:05:48 1510869948.750691: $GPGSV,3,2,12,14,60,306,46,18,29,139,44,22,09,312,37,24,07,046,30*7B
2017-11-16 17:05:48 1510869948.750751: $GPGSV,3,3,12,25,35,105,46,31,43,217,48,32,70,352,49,138,38,213,44*4E
2017-11-16 17:05:48 1510869948.863805: $GPZDA,220547.00,16,11,2017,00,00*63
2017-11-16 17:05:48 1510869948.863964: $GPGGA,220547,3946.9579,N,08404.9818,W,2,12,0.80,312.00,M,-33.324,M,,*7C
2017-11-16 17:05:48 1510869948.864024: $GPRMC,220547,A,3946.9579,N,08404.9818,W,0.0000,0.000,161117,,*32
2017-11-16 17:05:48 1510869948.864080: $GPGSA,A,3,1,10,11,12,14,18,22,24,25,31,32,138,1.6,0.8,1.3*38
2017-11-16 17:05:49 1510869949.397722: $GPZDA,220548.00,16,11,2017,00,00*6C
2017-11-16 17:05:49 1510869949.397882: $GPGGA,220548,3946.9579,N,08404.9818,W,2,12,0.80,312.00,M,-33.324,M,,*73
2017-11-16 17:05:49 1510869949.397945: $GPRMC,220548,A,3946.9579,N,08404.9818,W,0.0000,0.000,161117,,*3D
2017-11-16 17:05:49 1510869949.398002: $GPGSA,A,3,1,10,11,12,14,18,22,24,25,31,32,138,1.6,0.8,1.3*38
2017-11-16 17:05:50 1510869950.396818: $GPZDA,220549.00,16,11,2017,00,00*6D
2017-11-16 17:05:50 1510869950.396997: $GPGGA,220549,3946.9579,N,08404.9818,W,2,12,0.80,312.00,M,-33.324,M,,*72
2017-11-16 17:05:50 1510869950.397057: $GPRMC,220549,A,3946.9579,N,08404.9818,W,0.0000,0.000,161117,,*3C
2017-11-16 17:05:50 1510869950.397113: $GPGSA,A,3,1,10,11,12,14,18,22,24,25,31,32,138,1.6,0.8,1.3*38
2017-11-16 17:05:51 1510869951.749562: $GPGSV,3,1,12,01,18,312,39,10,60,141,49,11,11,292,28,12,25,061,50*71
2017-11-16 17:05:51 1510869951.749735: $GPGSV,3,2,12,14,60,306,46,18,29,139,43,22,09,312,37,24,07,046,30*7C
2017-11-16 17:05:51 1510869951.749795: $GPGSV,3,3,12,25,35,105,45,31,43,217,47,32,70,352,49,138,38,213,43*45
2017-11-16 17:05:51 1510869951.862921: $GPZDA,220550.00,16,11,2017,00,00*65
2017-11-16 17:05:51 1510869951.863104: $GPGGA,220550,3946.9579,N,08404.9818,W,2,12,0.80,312.00,M,-33.324,M,,*7A
2017-11-16 17:05:51 1510869951.863166: $GPRMC,220550,A,3946.9579,N,08404.9818,W,0.0000,0.000,161117,,*34
2017-11-16 17:05:51 1510869951.863222: $GPGSA,A,3,1,10,11,12,14,18,22,24,25,31,32,138,1.6,0.8,1.3*38
2017-11-16 17:05:52 1510869952.413772: $GPZDA,220551.00,16,11,2017,00,00*64
2017-11-16 17:05:52 1510869952.414002: $GPGGA,220551,3946.9579,N,08404.9818,W,2,12,0.80,312.00,M,-33.324,M,,*7B
2017-11-16 17:05:52 1510869952.414066: $GPRMC,220551,A,3946.9579,N,08404.9818,W,0.0000,0.000,161117,,*35
2017-11-16 17:05:52 1510869952.414123: $GPGSA,A,3,1,10,11,12,14,18,22,24,25,31,32,138,1.6,0.8,1.3*38
2017-11-16 17:05:53 1510869953.413932: $GPZDA,220552.00,16,11,2017,00,00*67
2017-11-16 17:05:53 1510869953.414279: $GPGGA,220552,3946.9579,N,08404.9818,W,2,12,0.80,312.00,M,-33.324,M,,*78
2017-11-16 17:05:53 1510869953.414417: $GPRMC,220552,A,3946.9579,N,08404.9818,W,0.0000,0.000,161117,,*36
2017-11-16 17:05:53 1510869953.414548: $GPGSA,A,3,1,10,11,12,14,18,22,24,25,31,32,138,1.6,0.8,1.3*38
2017-11-16 17:05:54 1510869954.750533: $GPGSV,3,1,12,01,18,312,40,10,60,141,48,11,11,292,22,12,25,061,50*74
2017-11-16 17:05:54 1510869954.750811: $GPGSV,3,2,12,14,60,306,46,18,29,139,44,22,09,312,37,24,07,046,30*7B
2017-11-16 17:05:54 1510869954.750928: $GPGSV,3,3,12,25,35,105,45,31,43,217,47,32,70,352,49,138,38,213,43*45
2017-11-16 17:05:54 1510869954.863779: $GPZDA,220553.00,16,11,2017,00,00*66
2017-11-16 17:05:54 1510869954.863945: $GPGGA,220553,3946.9579,N,08404.9818,W,2,12,0.80,312.00,M,-33.324,M,,*79
2017-11-16 17:05:54 1510869954.864006: $GPRMC,220553,A,3946.9579,N,08404.9818,W,0.0000,0.000,161117,,*37
2017-11-16 17:05:54 1510869954.864063: $GPGSA,A,3,1,10,11,12,14,18,22,24,25,31,32,138,1.6,0.8,1.3*38
2017-11-16 17:05:55 1510869955.414811: $GPZDA,220554.00,16,11,2017,00,00*61
2017-11-16 17:05:55 1510869955.414977: $GPGGA,220554,3946.9579,N,08404.9818,W,2,12,0.80,312.00,M,-33.324,M,,*7E
2017-11-16 17:05:55 1510869955.415100: $GPRMC,220554,A,3946.9579,N,08404.9818,W,0.0000,0.000,161117,,*30
2017-11-16 17:05:55 1510869955.415159: $GPGSA,A,3,1,10,11,12,14,18,22,24,25,31,32,138,1.6,0.8,1.3*38
