2017-12-31 18:15:05 1514762105.330005: {"class":"VERSION","release":"3.16","rev":"3.16-4","proto_major":3,"proto_minor":11}
2017-12-31 18:15:05 1514762105.330379: {"class":"DEVICES","devices":[{"class":"DEVICE","path":"/dev/ttyUSB0","driver":"SiRF","activated":"2017-12-31T23:15:05.270Z","flags":1,"native":1,"bps":4800,"parity":"N","stopbits":1,"cycle":1.00}]}
2017-12-31 18:15:05 1514762105.330480: {"class":"WATCH","enable":true,"json":false,"nmea":true,"raw":0,"scaled":false,"timing":false,"split24":false,"pps":false}
2017-12-31 18:15:05 1514762105.384309: $GPZDA,231506.00,31,12,2017,00,00*60
2017-12-31 18:15:05 1514762105.384452: $GPGGA,231506,3946.9567,N,08404.9865,W,2,12,0.80,306.72,M,-33.324,M,,*7C
2017-12-31 18:15:05 1514762105.384518: $GPRMC,231506,A,3946.9567,N,08404.9865,W,0.0000,0.000,311217,,*34
2017-12-31 18:15:05 1514762105.384578: $GPGSA,A,3,22,23,9,3,16,8,14,31,27,29,26,135,1.7,0.8,1.3*30
2017-12-31 18:15:06 1514762106.687357: $GPGSV,3,1,12,22,20,213,32,23,56,304,46,09,23,312,42,03,30,232,43*76
2017-12-31 18:15:06 1514762106.687536: $GPGSV,3,2,12,16,84,183,43,08,02,180,21,14,13,135,33,31,26,076,46*78
2017-12-31 18:15:06 1514762106.687602: $GPGSV,3,3,12,27,25,153,36,29,04,028,29,26,59,049,48,135,22,240,43*4B
2017-12-31 18:15:06 1514762106.800664: $GPZDA,231507.00,31,12,2017,00,00*61
2017-12-31 18:15:06 1514762106.800823: $GPGGA,231507,3946.9567,N,08404.9865,W,2,12,0.80,306.72,M,-33.324,M,,*7D
2017-12-31 18:15:06 1514762106.800889: $GPRMC,231507,A,3946.9567,N,08404.9865,W,0.0000,0.000,311217,,*35
2017-12-31 18:15:06 1514762106.800970: $GPGSA,A,3,22,23,9,3,16,8,14,31,27,29,26,135,1.7,0.8,1.3*30
2017-12-31 18:15:07 1514762107.385581: $GPZDA,231508.00,31,12,2017,00,00*6E
2017-12-31 18:15:07 1514762107.385753: $GPGGA,231508,3946.9567,N,08404.9865,W,2,12,0.80,306.72,M,-33.324,M,,*72
2017-12-31 18:15:07 1514762107.385819: $GPRMC,231508,A,3946.9567,N,08404.9865,W,0.0000,0.000,311217,,*3A
2017-12-31 18:15:07 1514762107.385894: $GPGSA,A,3,22,23,9,3,16,8,14,31,27,29,26,135,1.7,0.8,1.3*30
2017-12-31 18:15:08 1514762108.344136: $GPZDA,231509.00,31,12,2017,00,00*6F
2017-12-31 18:15:08 1514762108.344317: $GPGGA,231509,3946.9567,N,08404.9865,W,2,12,0.80,306.72,M,-33.324,M,,*73
2017-12-31 18:15:08 1514762108.344383: $GPRMC,231509,A,3946.9567,N,08404.9865,W,0.0000,0.000,311217,,*3B
2017-12-31 18:15:08 1514762108.344444: $GPGSA,A,3,22,23,9,3,16,8,14,31,27,29,26,135,1.7,0.8,1.3*30
2017-12-31 18:15:09 1514762109.686966: $GPGSV,3,1,12,22,20,213,32,23,56,304,45,09,23,312,42,03,30,232,44*72
2017-12-31 18:15:09 1514762109.687213: $GPGSV,3,2,12,16,84,183,43,08,02,180,21,14,13,135,33,31,26,076,46*78
2017-12-31 18:15:09 1514762109.687285: $GPGSV,3,3,12,27,25,153,36,29,04,028,30,26,59,049,48,135,22,240,45*45
2017-12-31 18:15:09 1514762109.800644: $GPZDA,231510.00,31,12,2017,00,00*67
2017-12-31 18:15:09 1514762109.800790: $GPGGA,231510,3946.9567,N,08404.9865,W,2,12,0.80,306.72,M,-33.324,M,,*7B
2017-12-31 18:15:09 1514762109.800856: $GPRMC,231510,A,3946.9567,N,08404.9865,W,0.0000,0.000,311217,,*33
2017-12-31 18:15:09 1514762109.800917: $GPGSA,A,3,22,23,9,3,16,8,14,31,27,29,26,135,1.7,0.8,1.3*30
2017-12-31 18:15:10 1514762110.426050: $GPZDA,231511.00,31,12,2017,00,00*66
2017-12-31 18:15:10 1514762110.426235: $GPGGA,231511,3946.9567,N,08404.9865,W,2,12,0.80,306.72,M,-33.324,M,,*7A
2017-12-31 18:15:10 1514762110.426301: $GPRMC,231511,A,3946.9567,N,08404.9865,W,0.0000,0.000,311217,,*32
2017-12-31 18:15:10 1514762110.426361: $GPGSA,A,3,22,23,9,3,16,8,14,31,27,29,26,135,1.7,0.8,1.3*30
2017-12-31 18:15:11 1514762111.350636: $GPZDA,231512.00,31,12,2017,00,00*65
2017-12-31 18:15:11 1514762111.350803: $GPGGA,231512,3946.9567,N,08404.9865,W,2,12,0.80,306.72,M,-33.324,M,,*79
2017-12-31 18:15:11 1514762111.350868: $GPRMC,231512,A,3946.9567,N,08404.9865,W,0.0000,0.000,311217,,*31
2017-12-31 18:15:11 1514762111.350953: $GPGSA,A,3,22,23,9,3,16,8,14,31,27,29,26,135,1.7,0.8,1.3*30
2017-12-31 18:15:12 1514762112.686087: $GPGSV,3,1,12,22,20,213,32,23,56,304,46,09,23,312,42,03,30,232,43*76
2017-12-31 18:15:12 1514762112.686243: $GPGSV,3,2,12,16,84,183,44,08,02,180,21,14,13,135,33,31,26,076,46*7F
2017-12-31 18:15:12 1514762112.686363: $GPGSV,3,3,12,27,25,153,36,29,04,028,31,26,59,049,48,135,22,240,44*45
2017-12-31 18:15:12 1514762112.799724: $GPZDA,231513.00,31,12,2017,00,00*64
2017-12-31 18:15:12 1514762112.799861: $GPGGA,231513,3946.9563,N,08404.9865,W,2,12,0.80,306.08,M,-33.324,M,,*71
2017-12-31 18:15:12 1514762112.799947: $GPRMC,231513,A,3946.9563,N,08404.9865,W,0.0000,0.000,311217,,*34
2017-12-31 18:15:12 1514762112.800009: $GPGSA,A,3,22,23,9,3,16,8,14,31,27,29,26,135,1.7,0.8,1.3*30
2017-12-31 18:15:13 1514762113.353171: $GPZDA,231514.00,31,12,2017,00,00*63
2017-12-31 18:15:13 1514762113.353378: $GPGGA,231514,3946.9563,N,08404.9865,W,2,12,0.80,306.08,M,-33.324,M,,*76
2017-12-31 18:15:13 1514762113.353466: $GPRMC,231514,A,3946.9563,N,08404.9865,W,0.0000,0.000,311217,,*33
2017-12-31 18:15:13 1514762113.353529: $GPGSA,A,3,22,23,9,3,16,8,14,31,27,29,26,135,1.7,0.8,1.3*30
2017-12-31 18:15:14 1514762114.351603: $GPZDA,231515.00,31,12,2017,00,00*62
2017-12-31 18:15:14 1514762114.351772: $GPGGA,231515,3946.9563,N,08404.9865,W,2,12,0.80,306.08,M,-33.324,M,,*77
2017-12-31 18:15:14 1514762114.351838: $GPRMC,231515,A,3946.9563,N,08404.9865,W,0.0000,0.000,311217,,*32
2017-12-31 18:15:14 1514762114.351917: $GPGSA,A,3,22,23,9,3,16,8,14,31,27,29,26,135,1.7,0.8,1.3*30
