2017-12-01 18:13:14 1512169994.567143: {"class":"VERSION","release":"3.16","rev":"3.16-4","proto_major":3,"proto_minor":11}
2017-12-01 18:13:14 1512169994.567526: {"class":"DEVICES","devices":[{"class":"DEVICE","path":"/dev/ttyUSB0","driver":"SiRF","subtype":"9\u0006GSD4e_4.1.2-P1_RPATCH.05-F-GPS-4R-1510281 11/03/2015 307","activated":"2017-12-01T23:13:14.557Z","flags":1,"native":1,"bps":4800,"parity":"N","stopbits":1,"cycle":1.00}]}
2017-12-01 18:13:14 1512169994.567639: {"class":"WATCH","enable":true,"json":false,"nmea":true,"raw":0,"scaled":false,"timing":false,"split24":false,"pps":false}
2017-12-01 18:13:15 1512169995.754133: $GPGSV,3,1,12,01,08,256,32,03,37,303,45,14,59,085,42,16,18,189,42*7D
2017-12-01 18:13:15 1512169995.754319: $GPGSV,3,2,12,22,50,277,46,23,08,298,43,25,21,042,40,26,48,174,46*7D
2017-12-01 18:13:15 1512169995.754387: $GPGSV,3,3,12,31,71,018,47,32,39,103,42,29,09,076,26,138,38,213,46*4F
2017-12-01 18:13:15 1512169995.867528: $GPZDA,231316.00,01,12,2017,00,00*64
2017-12-01 18:13:15 1512169995.867693: $GPGGA,231316,3946.9706,N,08404.9846,W,2,12,0.60,294.52,M,-33.325,M,,*78
2017-12-01 18:13:15 1512169995.867759: $GPRMC,231316,A,3946.9706,N,08404.9846,W,0.0000,0.000,011217,,*34
2017-12-01 18:13:15 1512169995.867820: $GPGSA,A,3,1,3,14,16,22,23,25,26,31,32,29,138,2.0,0.6,1.5*02
2017-12-01 18:13:16 1512169996.418390: $GPZDA,231317.00,01,12,2017,00,00*65
2017-12-01 18:13:16 1512169996.418556: $GPGGA,231317,3946.9711,N,08404.9846,W,2,12,0.60,295.16,M,-33.325,M,,*7E
2017-12-01 18:13:16 1512169996.418622: $GPRMC,231317,A,3946.9711,N,08404.9846,W,0.0000,0.000,011217,,*33
2017-12-01 18:13:16 1512169996.418683: $GPGSA,A,3,1,3,14,16,22,23,25,26,31,32,29,138,2.0,0.6,1.5*02
2017-12-01 18:13:17 1512169997.416757: $GPZDA,231318.00,01,12,2017,00,00*6A
2017-12-01 18:13:17 1512169997.416932: $GPGGA,231318,3946.9711,N,08404.9846,W,2,12,0.60,295.16,M,-33.325,M,,*71
2017-12-01 18:13:17 1512169997.417000: $GPRMC,231318,A,3946.9711,N,08404.9846,W,0.0000,0.000,011217,,*3C
2017-12-01 18:13:17 1512169997.417061: $GPGSA,A,3,1,3,14,16,22,23,25,26,31,32,29,138,2.0,0.6,1.5*02
2017-12-01 18:13:18 1512169998.752526: $GPGSV,3,1,12,01,08,256,32,03,37,303,46,14,59,085,42,16,18,189,42*7E
2017-12-01 18:13:18 1512169998.752716: $GPGSV,3,2,12,22,50,277,45,23,08,298,43,25,21,042,40,26,48,174,45*7D
2017-12-01 18:13:18 1512169998.752783: $GPGSV,3,3,12,31,71,018,47,32,39,103,43,29,09,076,27,138,38,213,46*4F
2017-12-01 18:13:18 1512169998.865885: $GPZDA,231319.00,01,12,2017,00,00*6B
2017-12-01 18:13:18 1512169998.866078: $GPGGA,231319,3946.9707,N,08404.9847,W,2,12,0.60,295.93,M,-33.325,M,,*7B
2017-12-01 18:13:18 1512169998.866171: $GPRMC,231319,A,3946.9707,N,08404.9847,W,0.2422,93.794,011217,,*0D
2017-12-01 18:13:18 1512169998.866232: $GPGSA,A,3,1,3,14,16,22,23,25,26,31,32,29,138,2.0,0.6,1.5*02
2017-12-01 18:13:19 1512169999.491316: $GPZDA,231320.00,01,12,2017,00,00*61
2017-12-01 18:13:19 1512169999.491523: $GPGGA,231320,3946.9707,N,08404.9847,W,2,12,0.60,295.93,M,-33.325,M,,*71
2017-12-01 18:13:19 1512169999.491590: $GPRMC,231320,A,3946.9707,N,08404.9847,W,0.0000,0.000,011217,,*31
2017-12-01 18:13:19 1512169999.491651: $GPGSA,A,3,1,3,14,16,22,23,25,26,31,32,29,138,2.0,0.6,1.5*02
2017-12-01 18:13:20 1512170000.418732: $GPZDA,231321.00,01,12,2017,00,00*60
2017-12-01 18:13:20 1512170000.418900: $GPGGA,231321,3946.9707,N,08404.9847,W,2,12,0.60,295.93,M,-33.325,M,,*70
2017-12-01 18:13:20 1512170000.418989: $GPRMC,231321,A,3946.9707,N,08404.9847,W,0.0000,0.000,011217,,*30
2017-12-01 18:13:20 1512170000.419052: $GPGSA,A,3,1,3,14,16,22,23,25,26,31,32,29,138,2.0,0.6,1.5*02
2017-12-01 18:13:21 1512170001.756532: $GPGSV,3,1,12,01,08,256,31,03,37,303,46,14,59,085,42,16,18,189,42*7D
2017-12-01 18:13:21 1512170001.756714: $GPGSV,3,2,12,22,50,277,46,23,08,298,44,25,21,042,40,26,48,174,46*7A
2017-12-01 18:13:21 1512170001.756780: $GPGSV,3,3,12,31,71,018,46,32,39,103,42,29,09,076,28,138,38,213,46*40
2017-12-01 18:13:21 1512170001.869908: $GPZDA,231322.00,01,12,2017,00,00*63
2017-12-01 18:13:21 1512170001.870063: $GPGGA,231322,3946.9707,N,08404.9847,W,2,12,0.60,295.93,M,-33.325,M,,*73
2017-12-01 18:13:21 1512170001.870194: $GPRMC,231322,A,3946.9707,N,08404.9847,W,0.0000,0.000,011217,,*33
2017-12-01 18:13:21 1512170001.870256: $GPGSA,A,3,1,3,14,16,22,23,25,26,31,32,29,138,2.0,0.6,1.5*02
2017-12-01 18:13:22 1512170002.421091: $GPZDA,231323.00,01,12,2017,00,00*62
2017-12-01 18:13:22 1512170002.421320: $GPGGA,231323,3946.9707,N,08404.9847,W,2,12,0.80,295.93,M,-33.325,M,,*7C
2017-12-01 18:13:22 1512170002.421476: $GPRMC,231323,A,3946.9707,N,08404.9847,W,0.0000,0.000,011217,,*32
2017-12-01 18:13:22 1512170002.421556: $GPGSA,A,3,1,3,14,16,22,23,25,26,31,32,29,138,2.0,0.8,1.5*0C
2017-12-01 18:13:23 1512170003.418229: $GPZDA,231324.00,01,12,2017,00,00*65
2017-12-01 18:13:23 1512170003.418403: $GPGGA,231324,3946.9707,N,08404.9847,W,2,12,0.80,295.93,M,-33.325,M,,*7B
2017-12-01 18:13:23 1512170003.418469: $GPRMC,231324,A,3946.9707,N,08404.9847,W,0.0000,0.000,011217,,*35
2017-12-01 18:13:23 1512170003.418530: $GPGSA,A,3,1,3,14,16,22,23,25,26,31,32,29,138,2.0,0.8,1.5*0C
2017-12-01 18:13:25 1512170005.284491: $GPGSV,3,1,12,01,08,256,32,03,37,303,46,14,58,085,42,16,19,189,43*7F
2017-12-01 18:13:25 1512170005.284675: $GPGSV,3,2,12,22,50,277,46,23,08,298,43,25,21,042,40,26,49,174,46*7C
2017-12-01 18:13:25 1512170005.284742: $GPGSV,3,3,12,31,71,018,47,32,39,103,41,29,09,076,07,138,38,213,45*4C
2017-12-01 18:13:25 1512170005.397863: $GPZDA,231325.00,01,12,2017,00,00*64
2017-12-01 18:13:25 1512170005.398100: $GPGGA,231325,3946.9707,N,08404.9847,W,2,11,0.80,295.93,M,-33.325,M,,*79
2017-12-01 18:13:25 1512170005.398169: $GPRMC,231325,A,3946.9707,N,08404.9847,W,0.0000,0.000,011217,,*34
2017-12-01 18:13:25 1512170005.398230: $GPGSA,A,3,1,3,14,16,22,23,25,26,31,32,138,,2.0,0.8,1.5*07
2017-12-01 18:13:25 1512170005.848978: $GPZDA,231326.00,01,12,2017,00,00*67
2017-12-01 18:13:25 1512170005.849321: $GPGGA,231326,3946.9707,N,08404.9847,W,2,11,0.80,295.93,M,-33.325,M,,*7A
2017-12-01 18:13:25 1512170005.849446: $GPRMC,231326,A,3946.9707,N,08404.9847,W,0.0000,0.000,011217,,*37
2017-12-01 18:13:25 1512170005.849543: $GPGSA,A,3,1,3,14,16,22,23,25,26,31,32,138,,2.0,0.8,1.5*07
2017-12-01 18:13:26 1512170006.418364: $GPZDA,231327.00,01,12,2017,00,00*66
2017-12-01 18:13:26 1512170006.418545: $GPGGA,231327,3946.9707,N,08404.9847,W,2,11,0.80,295.93,M,-33.325,M,,*7B
2017-12-01 18:13:26 1512170006.422632: $GPRMC,231327,A,3946.9707,N,08404.9847,W,0.0000,0.000,011217,,*36
2017-12-01 18:13:26 1512170006.422734: $GPGSA,A,3,1,3,14,16,22,23,25,26,31,32,138,,2.0,0.8,1.5*07
2017-12-01 18:13:27 1512170007.754215: $GPGSV,3,1,12,01,08,256,31,03,37,303,46,14,58,085,42,16,19,189,43*7C
2017-12-01 18:13:27 1512170007.754398: $GPGSV,3,2,12,22,50,277,46,23,08,298,43,25,21,042,40,26,49,174,46*7C
2017-12-01 18:13:27 1512170007.754464: $GPGSV,3,3,12,31,71,018,47,32,39,103,41,10,02,159,23,138,38,213,46*44
2017-12-01 18:13:27 1512170007.867539: $GPZDA,231328.00,01,12,2017,00,00*69
2017-12-01 18:13:27 1512170007.867680: $GPGGA,231328,3946.9707,N,08404.9840,W,2,12,0.80,296.01,M,-33.325,M,,*78
2017-12-01 18:13:27 1512170007.867745: $GPRMC,231328,A,3946.9707,N,08404.9840,W,0.0000,0.000,011217,,*3E
2017-12-01 18:13:27 1512170007.867806: $GPGSA,A,3,1,3,14,16,22,23,25,26,31,32,10,138,2.0,0.8,1.5*06
2017-12-01 18:13:28 1512170008.418437: $GPZDA,231329.00,01,12,2017,00,00*68
2017-12-01 18:13:28 1512170008.418613: $GPGGA,231329,3946.9707,N,08404.9840,W,2,12,0.80,296.01,M,-33.325,M,,*79
2017-12-01 18:13:28 1512170008.418680: $GPRMC,231329,A,3946.9707,N,08404.9840,W,0.0000,0.000,011217,,*3F
2017-12-01 18:13:28 1512170008.418740: $GPGSA,A,3,1,3,14,16,22,23,25,26,31,32,10,138,2.0,0.8,1.5*06
2017-12-01 18:13:29 1512170009.417587: $GPZDA,231330.00,01,12,2017,00,00*60
2017-12-01 18:13:29 1512170009.417764: $GPGGA,231330,3946.9707,N,08404.9840,W,2,12,0.80,296.01,M,-33.325,M,,*71
2017-12-01 18:13:29 1512170009.417832: $GPRMC,231330,A,3946.9707,N,08404.9840,W,0.0000,0.000,011217,,*37
2017-12-01 18:13:29 1512170009.417923: $GPGSA,A,3,1,3,14,16,22,23,25,26,31,32,10,138,2.0,0.8,1.5*06
2017-12-01 18:13:30 1512170010.754522: $GPGSV,3,1,12,01,08,256,31,03,37,303,46,14,58,085,42,16,19,189,42*7D
2017-12-01 18:13:30 1512170010.754682: $GPGSV,3,2,12,22,50,277,46,23,08,298,43,25,21,042,39,26,49,174,46*72
2017-12-01 18:13:30 1512170010.754748: $GPGSV,3,3,12,31,71,018,46,32,39,103,41,10,02,159,24,138,38,213,46*42
2017-12-01 18:13:30 1512170010.867938: $GPZDA,231331.00,01,12,2017,00,00*61
2017-12-01 18:13:30 1512170010.868121: $GPGGA,231331,3946.9707,N,08404.9840,W,2,12,0.80,296.01,M,-33.325,M,,*70
2017-12-01 18:13:30 1512170010.868188: $GPRMC,231331,A,3946.9707,N,08404.9840,W,0.0000,0.000,011217,,*36
2017-12-01 18:13:30 1512170010.868249: $GPGSA,A,3,1,3,14,16,22,23,25,26,31,32,10,138,2.0,0.8,1.5*06
2017-12-01 18:13:31 1512170011.424049: $GPZDA,231332.00,01,12,2017,00,00*62
2017-12-01 18:13:31 1512170011.424228: $GPGGA,231332,3946.9707,N,08404.9840,W,2,12,0.80,296.01,M,-33.325,M,,*73
2017-12-01 18:13:31 1512170011.427847: $GPRMC,231332,A,3946.9707,N,08404.9840,W,0.0000,0.000,011217,,*35
2017-12-01 18:13:31 1512170011.427997: $GPGSA,A,3,1,3,14,16,22,23,25,26,31,32,10,138,2.0,0.8,1.5*06
2017-12-01 18:13:32 1512170012.416172: $GPZDA,231333.00,01,12,2017,00,00*63
2017-12-01 18:13:32 1512170012.416339: $GPGGA,231333,3946.9707,N,08404.9840,W,2,12,0.80,296.01,M,-33.325,M,,*72
2017-12-01 18:13:32 1512170012.416405: $GPRMC,231333,A,3946.9707,N,08404.9840,W,0.0000,0.000,011217,,*34
2017-12-01 18:13:32 1512170012.416466: $GPGSA,A,3,1,3,14,16,22,23,25,26,31,32,10,138,2.0,0.8,1.5*06
2017-12-01 18:13:33 1512170013.753006: $GPGSV,3,1,12,01,08,256,32,03,37,303,46,14,58,085,42,16,19,189,43*7F
2017-12-01 18:13:33 1512170013.753187: $GPGSV,3,2,12,22,50,277,46,23,08,298,43,25,21,042,39,26,49,174,46*72
2017-12-01 18:13:33 1512170013.753255: $GPGSV,3,3,12,31,71,018,47,32,39,103,41,10,02,159,24,138,38,213,46*43
2017-12-01 18:13:33 1512170013.866276: $GPZDA,231334.00,01,12,2017,00,00*64
2017-12-01 18:13:33 1512170013.866440: $GPGGA,231334,3946.9707,N,08404.9840,W,2,12,0.80,296.01,M,-33.325,M,,*75
2017-12-01 18:13:33 1512170013.866506: $GPRMC,231334,A,3946.9707,N,08404.9840,W,0.0000,0.000,011217,,*33
2017-12-01 18:13:33 1512170013.866568: $GPGSA,A,3,1,3,14,16,22,23,25,26,31,32,10,138,2.0,0.8,1.5*06
2017-12-01 18:13:34 1512170014.491948: $GPZDA,231335.00,01,12,2017,00,00*65
2017-12-01 18:13:34 1512170014.492138: $GPGGA,231335,3946.9707,N,08404.9840,W,2,12,0.80,296.01,M,-33.325,M,,*74
2017-12-01 18:13:34 1512170014.492205: $GPRMC,231335,A,3946.9707,N,08404.9840,W,0.0000,0.000,011217,,*32
2017-12-01 18:13:34 1512170014.492266: $GPGSA,A,3,1,3,14,16,22,23,25,26,31,32,10,138,2.0,0.8,1.5*06
