2017-12-31 19:00:40 1514764840.156680: {"class":"VERSION","release":"3.16","rev":"3.16-4","proto_major":3,"proto_minor":11}
2017-12-31 19:00:40 1514764840.157034: {"class":"DEVICES","devices":[{"class":"DEVICE","path":"/dev/ttyUSB0","driver":"SiRF","activated":"2018-01-01T00:00:40.116Z","flags":1,"native":1,"bps":4800,"parity":"N","stopbits":1,"cycle":1.00}]}
2017-12-31 19:00:40 1514764840.157189: {"class":"WATCH","enable":true,"json":false,"nmea":true,"raw":0,"scaled":false,"timing":false,"split24":false,"pps":false}
2017-12-31 19:00:40 1514764840.427303: $GPZDA,000041.00,01,01,2018,00,00*68
2017-12-31 19:00:40 1514764840.427467: $GPGGA,000041,3946.9578,N,08404.9824,W,2,11,0.80,310.52,M,-33.324,M,,*77
2017-12-31 19:00:40 1514764840.427532: $GPRMC,000041,A,3946.9578,N,08404.9824,W,0.0000,0.000,010118,,*37
2017-12-31 19:00:40 1514764840.427593: $GPGSA,A,3,22,23,9,3,16,8,31,27,7,26,135,,1.7,0.8,1.3*09
2017-12-31 19:00:41 1514764841.352848: $GPZDA,000042.00,01,01,2018,00,00*6B
2017-12-31 19:00:41 1514764841.353006: $GPGGA,000042,3946.9578,N,08404.9824,W,2,11,0.80,310.52,M,-33.324,M,,*74
2017-12-31 19:00:41 1514764841.353072: $GPRMC,000042,A,3946.9578,N,08404.9824,W,0.0000,0.000,010118,,*34
2017-12-31 19:00:41 1514764841.353132: $GPGSA,A,3,22,23,9,3,16,8,31,27,7,26,135,,1.7,0.8,1.3*09
2017-12-31 19:00:42 1514764842.689800: $GPGSV,3,1,11,22,04,201,29,23,70,267,36,09,40,307,32,03,14,217,26*79
2017-12-31 19:00:42 1514764842.689995: $GPGSV,3,2,11,16,72,036,44,08,21,174,44,31,13,091,30,27,44,139,37*77
2017-12-31 19:00:42 1514764842.690085: $GPGSV,3,3,11,07,13,288,45,26,40,048,46,135,22,240,44*70
2017-12-31 19:00:42 1514764842.801938: $GPZDA,000043.00,01,01,2018,00,00*6A
2017-12-31 19:00:42 1514764842.802073: $GPGGA,000043,3946.9578,N,08404.9824,W,2,11,0.80,310.52,M,-33.324,M,,*75
2017-12-31 19:00:42 1514764842.802138: $GPRMC,000043,A,3946.9578,N,08404.9824,W,0.0000,0.000,010118,,*35
2017-12-31 19:00:42 1514764842.802198: $GPGSA,A,3,22,23,9,3,16,8,31,27,7,26,135,,1.7,0.8,1.3*09
2017-12-31 19:00:43 1514764843.346891: $GPZDA,000044.00,01,01,2018,00,00*6D
2017-12-31 19:00:43 1514764843.347052: $GPGGA,000044,3946.9578,N,08404.9824,W,2,11,0.80,310.52,M,-33.324,M,,*72
2017-12-31 19:00:43 1514764843.347175: $GPRMC,000044,A,3946.9578,N,08404.9824,W,0.0000,0.000,010118,,*32
2017-12-31 19:00:43 1514764843.347239: $GPGSA,A,3,22,23,9,3,16,8,31,27,7,26,135,,1.7,0.8,1.3*09
2017-12-31 19:00:44 1514764844.352604: $GPZDA,000045.00,01,01,2018,00,00*6C
2017-12-31 19:00:44 1514764844.352781: $GPGGA,000045,3946.9578,N,08404.9824,W,2,11,0.80,310.52,M,-33.324,M,,*73
2017-12-31 19:00:44 1514764844.352849: $GPRMC,000045,A,3946.9578,N,08404.9824,W,0.0000,0.000,010118,,*33
2017-12-31 19:00:44 1514764844.352910: $GPGSA,A,3,22,23,9,3,16,8,31,27,7,26,135,,1.7,0.8,1.3*09
2017-12-31 19:00:45 1514764845.690135: $GPGSV,3,1,11,22,04,201,24,23,70,267,36,09,40,307,33,03,14,217,26*75
2017-12-31 19:00:45 1514764845.690315: $GPGSV,3,2,11,16,72,036,44,08,21,174,44,31,13,091,30,27,44,139,38*78
2017-12-31 19:00:45 1514764845.690381: $GPGSV,3,3,11,07,13,288,45,26,40,048,46,135,22,240,44*70
2017-12-31 19:00:45 1514764845.802306: $GPZDA,000046.00,01,01,2018,00,00*6F
2017-12-31 19:00:45 1514764845.802449: $GPGGA,000046,3946.9578,N,08404.9824,W,2,11,0.80,310.52,M,-33.324,M,,*70
2017-12-31 19:00:45 1514764845.802516: $GPRMC,000046,A,3946.9578,N,08404.9824,W,0.0000,0.000,010118,,*30
2017-12-31 19:00:45 1514764845.802593: $GPGSA,A,3,22,23,9,3,16,8,31,27,7,26,135,,1.7,0.8,1.3*09
2017-12-31 19:00:46 1514764846.354562: $GPZDA,000047.00,01,01,2018,00,00*6E
2017-12-31 19:00:46 1514764846.354734: $GPGGA,000047,3946.9578,N,08404.9824,W,2,11,0.80,310.52,M,-33.324,M,,*71
2017-12-31 19:00:46 1514764846.354801: $GPRMC,000047,A,3946.9578,N,08404.9824,W,0.0000,0.000,010118,,*31
2017-12-31 19:00:46 1514764846.354863: $GPGSA,A,3,22,23,9,3,16,8,31,27,7,26,135,,1.7,0.8,1.3*09
2017-12-31 19:00:47 1514764847.352779: $GPZDA,000048.00,01,01,2018,00,00*61
2017-12-31 19:00:47 1514764847.352947: $GPGGA,000048,3946.9578,N,08404.9824,W,2,11,0.80,310.52,M,-33.324,M,,*7E
2017-12-31 19:00:47 1514764847.353067: $GPRMC,000048,A,3946.9578,N,08404.9824,W,0.0000,0.000,010118,,*3E
2017-12-31 19:00:47 1514764847.353130: $GPGSA,A,3,22,23,9,3,16,8,31,27,7,26,135,,1.7,0.8,1.3*09
2017-12-31 19:00:48 1514764848.682274: $GPGSV,3,1,11,22,04,201,27,23,70,267,42,09,40,307,16,03,14,217,26*72
2017-12-31 19:00:48 1514764848.682462: $GPGSV,3,2,11,16,72,036,44,08,21,174,44,31,13,091,29,27,44,139,39*71
2017-12-31 19:00:48 1514764848.682546: $GPGSV,3,3,11,07,13,288,45,26,40,048,46,135,22,240,44*70
2017-12-31 19:00:48 1514764848.795956: $GPZDA,000049.00,01,01,2018,00,00*60
2017-12-31 19:00:48 1514764848.796096: $GPGGA,000049,3946.9578,N,08404.9824,W,2,11,0.80,310.52,M,-33.324,M,,*7F
2017-12-31 19:00:48 1514764848.796163: $GPRMC,000049,A,3946.9578,N,08404.9824,W,0.0000,0.000,010118,,*3F
2017-12-31 19:00:48 1514764848.796224: $GPGSA,A,3,22,23,9,3,16,8,31,27,7,26,135,,1.7,0.8,1.3*09
2017-12-31 19:00:49 1514764849.354011: $GPZDA,000050.00,01,01,2018,00,00*68
2017-12-31 19:00:49 1514764849.354182: $GPGGA,000050,3946.9578,N,08404.9824,W,2,11,0.80,310.52,M,-33.324,M,,*77
2017-12-31 19:00:49 1514764849.354249: $GPRMC,000050,A,3946.9578,N,08404.9824,W,0.0000,0.000,010118,,*37
2017-12-31 19:00:49 1514764849.354311: $GPGSA,A,3,22,23,9,3,16,8,31,27,7,26,135,,1.7,0.8,1.3*09
