2018-01-11 19:55:02 1515718502.286018: {"class":"VERSION","release":"3.16","rev":"3.16-4","proto_major":3,"proto_minor":11}
2018-01-11 19:55:02 1515718502.286374: {"class":"DEVICES","devices":[{"class":"DEVICE","path":"/dev/ttyUSB0","driver":"SiRF","subtype":"9\u0006GSD4e_4.1.2-P1_RPATCH.05-F-GPS-4R-1510281 11/03/2015 307","activated":"2018-01-12T00:55:02.273Z","flags":1,"native":1,"bps":4800,"parity":"N","stopbits":1,"cycle":1.00}]}
2018-01-11 19:55:02 1515718502.286490: {"class":"WATCH","enable":true,"json":false,"nmea":true,"raw":0,"scaled":false,"timing":false,"split24":false,"pps":false}
2018-01-11 19:55:02 1515718502.383843: $GPZDA,005503.00,12,01,2018,00,00*6C
2018-01-11 19:55:02 1515718502.384015: $GPGGA,005503,3946.9568,N,08404.9809,W,2,10,0.80,306.59,M,-33.324,M,,*72
2018-01-11 19:55:02 1515718502.384083: $GPRMC,005503,A,3946.9568,N,08404.9809,W,0.0000,0.000,120118,,*3D
2018-01-11 19:55:02 1515718502.384144: $GPGSA,A,3,7,8,9,11,16,23,27,28,30,138,,,4.0,0.8,3.5*3E
2018-01-11 19:55:03 1515718503.380676: $GPZDA,005504.00,12,01,2018,00,00*6B
2018-01-11 19:55:03 1515718503.380842: $GPGGA,005504,3946.9568,N,08404.9809,W,2,10,0.80,306.59,M,-33.324,M,,*75
2018-01-11 19:55:03 1515718503.380911: $GPRMC,005504,A,3946.9568,N,08404.9809,W,0.2422,93.794,120118,,*0C
2018-01-11 19:55:03 1515718503.380972: $GPGSA,A,3,7,8,9,11,16,23,27,28,30,138,,,4.0,0.8,3.5*3E
2018-01-11 19:55:03 1515718503.381031: $GPGBS,005504,3.65,M,6.21,M,20.10,M*0C
2018-01-11 19:55:04 1515718504.715755: $GPGSV,3,1,11,07,49,312,42,08,68,150,45,09,53,240,42,11,14,169,34*77
2018-01-11 19:55:04 1515718504.715928: $GPGSV,3,2,11,16,28,055,46,23,36,192,48,27,53,060,50,28,09,253,33*72
2018-01-11 19:55:04 1515718504.715993: $GPGSV,3,3,11,30,23,303,39,26,03,069,00,138,38,213,47*7B
2018-01-11 19:55:04 1515718504.829470: $GPZDA,005505.00,12,01,2018,00,00*6A
2018-01-11 19:55:04 1515718504.829603: $GPGGA,005505,3946.9569,N,08404.9809,W,2,10,0.80,307.99,M,-33.324,M,,*78
2018-01-11 19:55:04 1515718504.829673: $GPRMC,005505,A,3946.9569,N,08404.9809,W,0.2422,93.794,120118,,*0C
2018-01-11 19:55:04 1515718504.829733: $GPGSA,A,3,7,8,9,11,16,23,27,28,30,138,,,4.0,0.8,3.5*3E
2018-01-11 19:55:05 1515718505.380407: $GPZDA,005506.00,12,01,2018,00,00*69
2018-01-11 19:55:05 1515718505.380584: $GPGGA,005506,3946.9572,N,08404.9809,W,2,10,0.80,307.23,M,-33.324,M,,*70
2018-01-11 19:55:05 1515718505.380656: $GPRMC,005506,A,3946.9572,N,08404.9809,W,0.0000,0.000,120118,,*33
2018-01-11 19:55:05 1515718505.380717: $GPGSA,A,3,7,8,9,11,16,23,27,28,30,138,,,4.0,0.8,3.5*3E
2018-01-11 19:55:06 1515718506.380013: $GPZDA,005507.00,12,01,2018,00,00*68
2018-01-11 19:55:06 1515718506.380195: $GPGGA,005507,3946.9572,N,08404.9809,W,2,10,0.80,307.23,M,-33.324,M,,*71
2018-01-11 19:55:06 1515718506.380266: $GPRMC,005507,A,3946.9572,N,08404.9809,W,0.0000,0.000,120118,,*32
2018-01-11 19:55:06 1515718506.380329: $GPGSA,A,3,7,8,9,11,16,23,27,28,30,138,,,4.0,0.8,3.5*3E
2018-01-11 19:55:07 1515718507.717852: $GPGSV,3,1,11,07,49,312,42,08,68,150,45,09,53,240,42,11,14,169,34*77
2018-01-11 19:55:07 1515718507.718020: $GPGSV,3,2,11,16,28,055,46,23,36,192,48,27,53,060,50,28,09,253,33*72
2018-01-11 19:55:07 1515718507.718087: $GPGSV,3,3,11,30,23,303,40,26,03,069,00,138,38,213,45*77
2018-01-11 19:55:07 1515718507.831492: $GPZDA,005508.00,12,01,2018,00,00*67
2018-01-11 19:55:07 1515718507.831627: $GPGGA,005508,3946.9572,N,08404.9809,W,2,10,0.80,307.23,M,-33.324,M,,*7E
2018-01-11 19:55:07 1515718507.831695: $GPRMC,005508,A,3946.9572,N,08404.9809,W,0.0000,0.000,120118,,*3D
2018-01-11 19:55:07 1515718507.831758: $GPGSA,A,3,7,8,9,11,16,23,27,28,30,138,,,4.0,0.8,3.5*3E
2018-01-11 19:55:08 1515718508.380780: $GPZDA,005509.00,12,01,2018,00,00*66
2018-01-11 19:55:08 1515718508.380954: $GPGGA,005509,3946.9572,N,08404.9809,W,2,10,0.80,307.23,M,-33.324,M,,*7F
2018-01-11 19:55:08 1515718508.381024: $GPRMC,005509,A,3946.9572,N,08404.9809,W,0.0000,0.000,120118,,*3C
2018-01-11 19:55:08 1515718508.381087: $GPGSA,A,3,7,8,9,11,16,23,27,28,30,138,,,4.0,0.8,3.5*3E
2018-01-11 19:55:09 1515718509.381161: $GPZDA,005510.00,12,01,2018,00,00*6E
2018-01-11 19:55:09 1515718509.381389: $GPGGA,005510,3946.9572,N,08404.9809,W,2,10,0.80,307.23,M,-33.324,M,,*77
2018-01-11 19:55:09 1515718509.381458: $GPRMC,005510,A,3946.9572,N,08404.9809,W,0.0000,0.000,120118,,*34
2018-01-11 19:55:09 1515718509.381523: $GPGSA,A,3,7,8,9,11,16,23,27,28,30,138,,,4.0,0.8,3.5*3E
2018-01-11 19:55:10 1515718510.718145: $GPGSV,3,1,11,07,49,312,42,08,68,150,45,09,53,240,42,11,14,169,34*77
2018-01-11 19:55:10 1515718510.718301: $GPGSV,3,2,11,16,28,055,46,23,36,192,48,27,53,060,50,28,09,253,33*72
2018-01-11 19:55:10 1515718510.718368: $GPGSV,3,3,11,30,23,303,40,26,03,069,00,138,38,213,45*77
2018-01-11 19:55:10 1515718510.830246: $GPZDA,005511.00,12,01,2018,00,00*6F
2018-01-11 19:55:10 1515718510.830365: $GPGGA,005511,3946.9572,N,08404.9809,W,2,10,0.80,307.23,M,-33.324,M,,*76
2018-01-11 19:55:10 1515718510.830428: $GPRMC,005511,A,3946.9572,N,08404.9809,W,0.0000,0.000,120118,,*35
2018-01-11 19:55:10 1515718510.830492: $GPGSA,A,3,7,8,9,11,16,23,27,28,30,138,,,4.0,0.8,3.5*3E
2018-01-11 19:55:11 1515718511.383629: $GPZDA,005512.00,12,01,2018,00,00*6C
2018-01-11 19:55:11 1515718511.383824: $GPGGA,005512,3946.9572,N,08404.9809,W,2,10,0.80,307.23,M,-33.324,M,,*75
2018-01-11 19:55:11 1515718511.383893: $GPRMC,005512,A,3946.9572,N,08404.9809,W,0.0000,0.000,120118,,*36
2018-01-11 19:55:11 1515718511.383955: $GPGSA,A,3,7,8,9,11,16,23,27,28,30,138,,,4.0,0.8,3.5*3E
