2017-12-01 17:10:45 1512166245.637220: {"class":"VERSION","release":"3.16","rev":"3.16-4","proto_major":3,"proto_minor":11}
2017-12-01 17:10:45 1512166245.637635: {"class":"DEVICES","devices":[{"class":"DEVICE","path":"/dev/ttyUSB0","driver":"SiRF","subtype":"9\u0006GSD4e_4.1.2-P1_RPATCH.05-F-GPS-4R-1510281 11/03/2015 307","activated":"2017-12-01T22:10:45.568Z","flags":1,"native":1,"bps":4800,"parity":"N","stopbits":1,"cycle":1.00}]}
2017-12-01 17:10:45 1512166245.637761: {"class":"WATCH","enable":true,"json":false,"nmea":true,"raw":0,"scaled":false,"timing":false,"split24":false,"pps":false}
2017-12-01 17:10:45 1512166245.681810: $GPZDA,221046.33,01,12,2017,00,00*63
2017-12-01 17:10:45 1512166245.681954: $GPGGA,221046,3946.9669,N,08404.9743,W,1,12,1.40,292.00,M,-33.324,M,,*7D
2017-12-01 17:10:45 1512166245.682020: $GPRMC,221046,A,3946.9669,N,08404.9743,W,0.6012,62.539,011217,,*0F
2017-12-01 17:10:45 1512166245.682082: $GPGSA,A,3,1,3,10,12,14,22,26,31,32,11,25,138,2.0,1.4,1.5*0E
2017-12-01 17:10:47 1512166247.121880: $GPGSV,3,1,12,01,21,282,36,03,15,316,32,10,29,154,29,14,70,018,36*7A
2017-12-01 17:10:47 1512166247.122064: $GPGSV,3,2,12,22,34,307,35,26,19,178,28,31,74,255,38,32,59,069,40*78
2017-12-01 17:10:47 1512166247.122131: $GPGSV,3,3,12,25,39,066,00,12,12,036,00,11,02,267,00,138,38,213,00*42
2017-12-01 17:10:47 1512166247.235261: $GPZDA,221047.02,01,12,2017,00,00*60
2017-12-01 17:10:47 1512166247.235429: $GPGGA,221047,3946.9669,N,08404.9743,W,1,08,1.40,292.00,M,-33.324,M,,*77
2017-12-01 17:10:47 1512166247.235496: $GPRMC,221047,A,3946.9669,N,08404.9743,W,0.2422,93.794,011217,,*06
2017-12-01 17:10:47 1512166247.235556: $GPGSA,A,3,1,3,10,14,22,26,31,32,,,,,2.0,1.4,1.5*30
2017-12-01 17:10:48 1512166248.065536: $GPZDA,221048.00,01,12,2017,00,00*6D
2017-12-01 17:10:48 1512166248.065708: $GPGGA,221048,3946.9664,N,08404.9743,W,1,08,1.00,291.36,M,-33.324,M,,*77
2017-12-01 17:10:48 1512166248.065774: $GPRMC,221048,A,3946.9664,N,08404.9743,W,0.4137,224.854,011217,,*3E
2017-12-01 17:10:48 1512166248.065836: $GPGSA,A,3,1,3,10,14,22,26,31,32,,,,,2.0,1.0,1.5*34
2017-12-01 17:10:48 1512166248.065893: $GPGBS,221048,10.70,M,15.43,M,35.28,M*0A
2017-12-01 17:10:48 1512166248.516442: $GPZDA,221049.00,01,12,2017,00,00*6C
2017-12-01 17:10:48 1512166248.516614: $GPGGA,221049,3946.9661,N,08404.9743,W,1,08,0.80,292.12,M,-33.324,M,,*7F
2017-12-01 17:10:48 1512166248.516681: $GPRMC,221049,A,3946.9661,N,08404.9743,W,0.3734,180.000,011217,,*3C
2017-12-01 17:10:48 1512166248.516743: $GPGSA,A,3,1,3,10,14,22,26,31,32,,,,,2.0,0.8,1.5*3D
2017-12-01 17:10:48 1512166248.516800: $GPGBS,221049,10.70,M,15.43,M,35.28,M*0B
2017-12-01 17:10:49 1512166249.707131: $GPGSV,3,1,12,01,21,282,45,03,15,316,41,10,29,154,35,14,70,018,46*70
2017-12-01 17:10:49 1512166249.707316: $GPGSV,3,2,12,22,34,307,44,26,19,178,34,31,74,255,49,32,59,069,50*74
2017-12-01 17:10:49 1512166249.707383: $GPGSV,3,3,12,12,12,036,23,25,39,066,30,11,02,267,26,138,38,213,00*44
2017-12-01 17:10:49 1512166249.820562: $GPZDA,221050.00,01,12,2017,00,00*64
2017-12-01 17:10:49 1512166249.820730: $GPGGA,221050,3946.9657,N,08404.9736,W,1,11,0.80,291.56,M,-33.324,M,,*7B
2017-12-01 17:10:49 1512166249.820797: $GPRMC,221050,A,3946.9657,N,08404.9736,W,0.0000,0.000,011217,,*39
2017-12-01 17:10:49 1512166249.820858: $GPGSA,A,3,1,3,10,14,22,26,31,32,12,25,11,,2.0,0.8,1.5*39
2017-12-01 17:10:50 1512166250.445917: $GPZDA,221051.00,01,12,2017,00,00*65
2017-12-01 17:10:50 1512166250.446110: $GPGGA,221051,3946.9657,N,08404.9736,W,1,11,0.80,291.56,M,-33.324,M,,*7A
2017-12-01 17:10:50 1512166250.446203: $GPRMC,221051,A,3946.9657,N,08404.9736,W,0.0000,0.000,011217,,*38
2017-12-01 17:10:50 1512166250.446267: $GPGSA,A,3,1,3,10,14,22,26,31,32,12,25,11,,2.0,0.8,1.5*39
2017-12-01 17:10:51 1512166251.371858: $GPZDA,221052.00,01,12,2017,00,00*66
2017-12-01 17:10:51 1512166251.372038: $GPGGA,221052,3946.9652,N,08404.9736,W,1,11,0.80,290.92,M,-33.324,M,,*75
2017-12-01 17:10:51 1512166251.372108: $GPRMC,221052,A,3946.9652,N,08404.9736,W,0.0000,0.000,011217,,*3E
2017-12-01 17:10:51 1512166251.372170: $GPGSA,A,3,1,3,10,14,22,26,31,32,12,25,11,,2.0,0.8,1.5*39
2017-12-01 17:10:52 1512166252.706136: $GPGSV,3,1,12,01,21,282,44,03,15,316,41,10,29,154,35,14,70,018,46*71
2017-12-01 17:10:52 1512166252.706316: $GPGSV,3,2,12,22,34,307,44,26,19,178,34,31,74,255,49,32,59,069,49*7C
2017-12-01 17:10:52 1512166252.706382: $GPGSV,3,3,12,12,12,036,11,25,39,066,30,11,02,267,17,138,38,213,41*42
2017-12-01 17:10:52 1512166252.819737: $GPZDA,221053.00,01,12,2017,00,00*67
2017-12-01 17:10:52 1512166252.819906: $GPGGA,221053,3946.9652,N,08404.9736,W,1,11,1.00,290.92,M,-33.324,M,,*7D
2017-12-01 17:10:52 1512166252.819972: $GPRMC,221053,A,3946.9652,N,08404.9736,W,0.0000,0.000,011217,,*3F
2017-12-01 17:10:52 1512166252.820033: $GPGSA,A,3,1,3,10,14,22,26,31,32,25,11,138,,2.0,1.0,1.5*09
2017-12-01 17:10:53 1512166253.372020: $GPZDA,221054.00,01,12,2017,00,00*60
2017-12-01 17:10:53 1512166253.372200: $GPGGA,221054,3946.9652,N,08404.9736,W,1,11,1.00,290.92,M,-33.324,M,,*7A
2017-12-01 17:10:53 1512166253.372266: $GPRMC,221054,A,3946.9652,N,08404.9736,W,0.1867,180.000,011217,,*39
2017-12-01 17:10:53 1512166253.372328: $GPGSA,A,3,1,3,10,14,22,26,31,32,25,11,138,,2.0,1.0,1.5*09
2017-12-01 17:10:54 1512166254.372950: $GPZDA,221055.00,01,12,2017,00,00*61
2017-12-01 17:10:54 1512166254.373127: $GPGGA,221055,3946.9652,N,08404.9736,W,1,11,1.00,290.92,M,-33.324,M,,*7B
2017-12-01 17:10:54 1512166254.373194: $GPRMC,221055,A,3946.9652,N,08404.9736,W,0.0000,0.000,011217,,*39
2017-12-01 17:10:54 1512166254.373256: $GPGSA,A,3,1,3,10,14,22,26,31,32,25,11,138,,2.0,1.0,1.5*09
2017-12-01 17:10:55 1512166255.710227: $GPGSV,3,1,12,01,21,282,44,03,15,316,41,10,29,154,31,14,70,018,46*75
2017-12-01 17:10:55 1512166255.710410: $GPGSV,3,2,12,22,34,307,45,26,19,178,34,31,74,255,48,32,59,069,49*7C
2017-12-01 17:10:55 1512166255.710477: $GPGSV,3,3,12,12,12,036,09,25,39,066,30,11,02,267,21,138,38,213,40*4F
2017-12-01 17:10:55 1512166255.822778: $GPZDA,221056.00,01,12,2017,00,00*62
2017-12-01 17:10:55 1512166255.822959: $GPGGA,221056,3946.9648,N,08404.9736,W,1,12,0.80,290.28,M,-33.324,M,,*78
2017-12-01 17:10:55 1512166255.823025: $GPRMC,221056,A,3946.9648,N,08404.9736,W,0.0000,0.000,011217,,*31
2017-12-01 17:10:55 1512166255.823085: $GPGSA,A,3,1,3,10,14,22,26,31,32,12,25,11,138,2.0,0.8,1.5*03
2017-12-01 17:10:56 1512166256.372079: $GPZDA,221057.00,01,12,2017,00,00*63
2017-12-01 17:10:56 1512166256.372259: $GPGGA,221057,3946.9648,N,08404.9729,W,1,12,0.80,290.36,M,-33.324,M,,*78
2017-12-01 17:10:56 1512166256.372327: $GPRMC,221057,A,3946.9648,N,08404.9729,W,0.0000,0.000,011217,,*3E
2017-12-01 17:10:56 1512166256.372387: $GPGSA,A,3,1,3,10,14,22,26,31,32,12,25,11,138,2.0,0.8,1.5*03
2017-12-01 17:10:57 1512166257.373201: $GPZDA,221058.00,01,12,2017,00,00*6C
2017-12-01 17:10:57 1512166257.373363: $GPGGA,221058,3946.9632,N,08404.9724,W,2,12,1.20,290.69,M,-33.324,M,,*75
2017-12-01 17:10:57 1512166257.373429: $GPRMC,221058,A,3946.9632,N,08404.9724,W,0.0000,0.000,011217,,*31
2017-12-01 17:10:57 1512166257.373490: $GPGSA,A,3,1,3,10,14,22,26,31,32,12,25,11,138,2.0,1.2,1.5*08
2017-12-01 17:10:58 1512166258.709830: $GPGSV,3,1,12,01,21,282,43,03,15,316,41,10,29,154,32,14,70,018,46*71
2017-12-01 17:10:58 1512166258.710010: $GPGSV,3,2,12,22,34,307,44,26,19,178,35,31,74,255,48,32,59,069,49*7C
2017-12-01 17:10:58 1512166258.710077: $GPGSV,3,3,12,12,12,036,22,25,39,066,30,11,02,267,22,138,38,213,39*4B
2017-12-01 17:10:58 1512166258.823223: $GPZDA,221059.00,01,12,2017,00,00*6D
2017-12-01 17:10:58 1512166258.823403: $GPGGA,221059,3946.9632,N,08404.9724,W,2,12,1.00,290.69,M,-33.324,M,,*76
2017-12-01 17:10:58 1512166258.823472: $GPRMC,221059,A,3946.9632,N,08404.9724,W,0.0000,0.000,011217,,*30
2017-12-01 17:10:58 1512166258.823534: $GPGSA,A,3,1,3,10,14,22,26,31,32,12,25,11,138,2.0,1.0,1.5*0A
2017-12-01 17:10:59 1512166259.374088: $GPZDA,221100.00,01,12,2017,00,00*60
2017-12-01 17:10:59 1512166259.374267: $GPGGA,221100,3946.9632,N,08404.9724,W,2,12,0.80,290.69,M,-33.324,M,,*72
2017-12-01 17:10:59 1512166259.374335: $GPRMC,221100,A,3946.9632,N,08404.9724,W,0.0000,0.000,011217,,*3D
2017-12-01 17:10:59 1512166259.374447: $GPGSA,A,3,1,3,10,14,22,26,31,32,12,25,11,138,2.0,0.8,1.5*03
2017-12-01 17:11:00 1512166260.372288: $GPZDA,221101.00,01,12,2017,00,00*61
2017-12-01 17:11:00 1512166260.372457: $GPGGA,221101,3946.9632,N,08404.9724,W,2,12,0.80,290.69,M,-33.324,M,,*73
2017-12-01 17:11:00 1512166260.372524: $GPRMC,221101,A,3946.9632,N,08404.9724,W,0.0000,0.000,011217,,*3C
2017-12-01 17:11:00 1512166260.372585: $GPGSA,A,3,1,3,10,14,22,26,31,32,12,25,11,138,2.0,0.8,1.5*03
2017-12-01 17:11:01 1512166261.711482: $GPGSV,3,1,12,01,21,282,44,03,15,316,41,10,29,154,33,14,70,018,45*74
2017-12-01 17:11:01 1512166261.711663: $GPGSV,3,2,12,22,34,307,44,26,19,178,35,31,74,255,48,32,59,069,49*7C
2017-12-01 17:11:01 1512166261.711730: $GPGSV,3,3,12,12,12,036,23,25,39,066,29,11,02,267,22,138,38,213,41*4D
2017-12-01 17:11:01 1512166261.825053: $GPZDA,221102.00,01,12,2017,00,00*62
2017-12-01 17:11:01 1512166261.825191: $GPGGA,221102,3946.9632,N,08404.9724,W,2,12,0.80,290.69,M,-33.324,M,,*70
2017-12-01 17:11:01 1512166261.825258: $GPRMC,221102,A,3946.9632,N,08404.9724,W,0.0000,0.000,011217,,*3F
2017-12-01 17:11:01 1512166261.825318: $GPGSA,A,3,1,3,10,14,22,26,31,32,12,25,11,138,2.0,0.8,1.5*03
2017-12-01 17:11:02 1512166262.374839: $GPZDA,221103.00,01,12,2017,00,00*63
2017-12-01 17:11:02 1512166262.375038: $GPGGA,221103,3946.9632,N,08404.9724,W,2,12,0.80,290.69,M,-33.324,M,,*71
2017-12-01 17:11:02 1512166262.375106: $GPRMC,221103,A,3946.9632,N,08404.9724,W,0.0000,0.000,011217,,*3E
2017-12-01 17:11:02 1512166262.375168: $GPGSA,A,3,1,3,10,14,22,26,31,32,12,25,11,138,2.0,0.8,1.5*03
2017-12-01 17:11:03 1512166263.370320: $GPZDA,221104.00,01,12,2017,00,00*64
2017-12-01 17:11:03 1512166263.370489: $GPGGA,221104,3946.9636,N,08404.9724,W,2,12,0.80,291.33,M,-33.324,M,,*7C
2017-12-01 17:11:03 1512166263.370557: $GPRMC,221104,A,3946.9636,N,08404.9724,W,0.2422,93.794,011217,,*0B
2017-12-01 17:11:03 1512166263.370619: $GPGSA,A,3,1,3,10,14,22,26,31,32,12,25,11,138,2.0,0.8,1.5*03
2017-12-01 17:11:04 1512166264.707166: $GPGSV,3,1,12,01,21,282,43,03,15,316,40,10,29,154,34,14,70,018,45*75
2017-12-01 17:11:04 1512166264.707346: $GPGSV,3,2,12,22,34,307,45,26,19,178,37,31,74,255,47,32,59,069,48*71
2017-12-01 17:11:04 1512166264.707413: $GPGSV,3,3,12,12,12,036,22,25,39,066,26,11,02,267,26,138,38,213,43*45
2017-12-01 17:11:04 1512166264.820621: $GPZDA,221105.00,01,12,2017,00,00*65
2017-12-01 17:11:04 1512166264.820792: $GPGGA,221105,3946.9636,N,08404.9724,W,2,12,0.80,291.33,M,-33.324,M,,*7D
2017-12-01 17:11:04 1512166264.820858: $GPRMC,221105,A,3946.9636,N,08404.9724,W,0.2422,93.794,011217,,*0A
2017-12-01 17:11:04 1512166264.820919: $GPGSA,A,3,1,3,10,14,22,26,31,32,12,25,11,138,2.0,0.8,1.5*03
2017-12-01 17:11:05 1512166265.446117: $GPZDA,221106.00,01,12,2017,00,00*66
2017-12-01 17:11:05 1512166265.446278: $GPGGA,221106,3946.9645,N,08404.9724,W,2,12,0.80,292.61,M,-33.324,M,,*7E
2017-12-01 17:11:05 1512166265.446345: $GPRMC,221106,A,3946.9645,N,08404.9724,W,0.0000,0.000,011217,,*3B
2017-12-01 17:11:05 1512166265.446407: $GPGSA,A,3,1,3,10,14,22,26,31,32,12,25,11,138,2.0,0.8,1.5*03
