2017-11-16 17:06:14 1510869974.070550: {"class":"VERSION","release":"3.17","rev":"3.17","proto_major":3,"proto_minor":12}
2017-11-16 17:06:14 1510869974.071000: {"class":"DEVICES","devices":[{"class":"DEVICE","path":"/dev/ttyUSB0","driver":"SiRF","subtype":"9\u0006GSD4e_4.1.2-P1_RPATCH.05-F-GPS-4R-1510281 11/03/2015 307","activated":"2017-11-16T22:06:14.056Z","flags":1,"native":1,"bps":4800,"parity":"N","stopbits":1,"cycle":1.00}]}
2017-11-16 17:06:14 1510869974.071120: {"class":"WATCH","enable":true,"json":false,"nmea":true,"raw":0,"scaled":false,"timing":false,"split24":false,"pps":false}
2017-11-16 17:06:14 1510869974.391476: $GPZDA,220613.00,16,11,2017,00,00*61
2017-11-16 17:06:14 1510869974.391654: $GPGGA,220613,3946.9579,N,08404.9818,W,2,12,1.00,312.00,M,-33.324,M,,*77
2017-11-16 17:06:14 1510869974.391737: $GPRMC,220613,A,3946.9579,N,08404.9818,W,0.0000,0.000,161117,,*30
2017-11-16 17:06:14 1510869974.391795: $GPGSA,A,3,1,10,11,12,14,18,22,24,25,31,32,138,1.6,1.0,1.3*31
2017-11-16 17:06:15 1510869975.733529: $GPGSV,3,1,12,01,18,312,44,10,60,141,48,11,10,292,37,12,25,061,48*7C
2017-11-16 17:06:15 1510869975.733700: $GPGSV,3,2,12,14,60,306,46,18,29,139,44,22,09,312,26,24,06,046,32*78
2017-11-16 17:06:15 1510869975.733759: $GPGSV,3,3,12,25,35,105,46,31,43,217,47,32,70,354,50,138,38,213,44*4F
2017-11-16 17:06:15 1510869975.845671: $GPZDA,220614.00,16,11,2017,00,00*66
2017-11-16 17:06:15 1510869975.845847: $GPGGA,220614,3946.9579,N,08404.9818,W,2,12,1.00,312.00,M,-33.324,M,,*70
2017-11-16 17:06:15 1510869975.845908: $GPRMC,220614,A,3946.9579,N,08404.9818,W,0.0000,0.000,161117,,*37
2017-11-16 17:06:15 1510869975.845964: $GPGSA,A,3,1,10,11,12,14,18,22,24,25,31,32,138,1.6,1.0,1.3*31
2017-11-16 17:06:16 1510869976.472243: $GPZDA,220615.00,16,11,2017,00,00*67
2017-11-16 17:06:16 1510869976.472408: $GPGGA,220615,3946.9579,N,08404.9818,W,2,12,0.80,312.00,M,-33.324,M,,*78
2017-11-16 17:06:16 1510869976.472469: $GPRMC,220615,A,3946.9579,N,08404.9818,W,0.0000,0.000,161117,,*36
2017-11-16 17:06:16 1510869976.472525: $GPGSA,A,3,1,10,11,12,14,18,22,24,25,31,32,138,1.6,0.8,1.3*38
2017-11-16 17:06:17 1510869977.396998: $GPZDA,220616.00,16,11,2017,00,00*64
2017-11-16 17:06:17 1510869977.397168: $GPGGA,220616,3946.9579,N,08404.9818,W,2,12,0.80,312.00,M,-33.324,M,,*7B
2017-11-16 17:06:17 1510869977.397229: $GPRMC,220616,A,3946.9579,N,08404.9818,W,0.0000,0.000,161117,,*35
2017-11-16 17:06:17 1510869977.397285: $GPGSA,A,3,1,10,11,12,14,18,22,24,25,31,32,138,1.6,0.8,1.3*38
2017-11-16 17:06:18 1510869978.733956: $GPGSV,3,1,12,01,18,312,43,10,60,141,48,11,10,292,39,12,25,061,49*74
2017-11-16 17:06:18 1510869978.734099: $GPGSV,3,2,12,14,60,306,46,18,29,139,44,22,09,312,26,24,06,046,32*78
2017-11-16 17:06:18 1510869978.734159: $GPGSV,3,3,12,25,35,105,46,31,43,217,47,32,70,354,50,138,38,213,44*4F
2017-11-16 17:06:18 1510869978.847318: $GPZDA,220617.00,16,11,2017,00,00*65
2017-11-16 17:06:18 1510869978.847486: $GPGGA,220617,3946.9579,N,08404.9818,W,2,12,0.80,312.00,M,-33.324,M,,*7A
2017-11-16 17:06:18 1510869978.847548: $GPRMC,220617,A,3946.9579,N,08404.9818,W,0.0000,0.000,161117,,*34
2017-11-16 17:06:18 1510869978.847604: $GPGSA,A,3,1,10,11,12,14,18,22,24,25,31,32,138,1.6,0.8,1.3*38
2017-11-16 17:06:19 1510869979.398111: $GPZDA,220618.00,16,11,2017,00,00*6A
2017-11-16 17:06:19 1510869979.401911: $GPGGA,220618,3946.9579,N,08404.9818,W,2,12,0.80,312.00,M,-33.324,M,,*75
2017-11-16 17:06:19 1510869979.402002: $GPRMC,220618,A,3946.9579,N,08404.9818,W,0.0000,0.000,161117,,*3B
2017-11-16 17:06:19 1510869979.402060: $GPGSA,A,3,1,10,11,12,14,18,22,24,25,31,32,138,1.6,0.8,1.3*38
2017-11-16 17:06:20 1510869980.397773: $GPZDA,220619.00,16,11,2017,00,00*6B
2017-11-16 17:06:20 1510869980.397932: $GPGGA,220619,3946.9579,N,08404.9818,W,2,12,0.80,312.00,M,-33.324,M,,*74
2017-11-16 17:06:20 1510869980.397993: $GPRMC,220619,A,3946.9579,N,08404.9818,W,0.0000,0.000,161117,,*3A
2017-11-16 17:06:20 1510869980.398049: $GPGSA,A,3,1,10,11,12,14,18,22,24,25,31,32,138,1.6,0.8,1.3*38
2017-11-16 17:06:21 1510869981.733021: $GPGSV,3,1,12,01,18,312,43,10,60,141,47,11,10,292,40,12,25,061,49*75
2017-11-16 17:06:21 1510869981.733237: $GPGSV,3,2,12,14,60,306,45,18,29,139,44,22,09,312,25,24,06,046,33*79
2017-11-16 17:06:21 1510869981.733300: $GPGSV,3,3,12,25,35,105,46,31,43,217,47,32,70,354,50,138,38,213,43*48
2017-11-16 17:06:21 1510869981.846590: $GPZDA,220620.00,16,11,2017,00,00*61
2017-11-16 17:06:21 1510869981.846750: $GPGGA,220620,3946.9579,N,08404.9818,W,2,12,0.80,312.00,M,-33.324,M,,*7E
2017-11-16 17:06:21 1510869981.846811: $GPRMC,220620,A,3946.9579,N,08404.9818,W,0.0000,0.000,161117,,*30
2017-11-16 17:06:21 1510869981.846866: $GPGSA,A,3,1,10,11,12,14,18,22,24,25,31,32,138,1.6,0.8,1.3*38
2017-11-16 17:06:22 1510869982.397292: $GPZDA,220621.00,16,11,2017,00,00*60
2017-11-16 17:06:22 1510869982.397460: $GPGGA,220621,3946.9579,N,08404.9818,W,2,12,0.80,312.00,M,-33.324,M,,*7F
2017-11-16 17:06:22 1510869982.397521: $GPRMC,220621,A,3946.9579,N,08404.9818,W,0.0000,0.000,161117,,*31
2017-11-16 17:06:22 1510869982.397577: $GPGSA,A,3,1,10,11,12,14,18,22,24,25,31,32,138,1.6,0.8,1.3*38
2017-11-16 17:06:23 1510869983.397084: $GPZDA,220622.00,16,11,2017,00,00*63
2017-11-16 17:06:23 1510869983.397230: $GPGGA,220622,3946.9579,N,08404.9818,W,2,12,0.80,312.00,M,-33.324,M,,*7C
2017-11-16 17:06:23 1510869983.397291: $GPRMC,220622,A,3946.9579,N,08404.9818,W,0.0000,0.000,161117,,*32
2017-11-16 17:06:23 1510869983.397346: $GPGSA,A,3,1,10,11,12,14,18,22,24,25,31,32,138,1.6,0.8,1.3*38
