2017-12-29 11:51:15 1514566275.066097: {"class":"VERSION","release":"3.16","rev":"3.16-4","proto_major":3,"proto_minor":11}
2017-12-29 11:51:15 1514566275.066446: {"class":"DEVICES","devices":[{"class":"DEVICE","path":"/dev/ttyUSB0","driver":"SiRF","subtype":"9\u0006GSD4e_4.1.2-P1_RPATCH.05-F-GPS-4R-1510281 11/03/2015 307","activated":"2017-12-29T16:51:15.001Z","flags":1,"native":1,"bps":4800,"parity":"N","stopbits":1,"cycle":1.00}]}
2017-12-29 11:51:15 1514566275.066567: {"class":"WATCH","enable":true,"json":false,"nmea":true,"raw":0,"scaled":false,"timing":false,"split24":false,"pps":false}
2017-12-29 11:51:15 1514566275.412130: $GPZDA,165116.00,29,12,2017,00,00*6E
2017-12-29 11:51:15 1514566275.412288: $GPGGA,165116,3946.9610,N,08404.9860,W,2,11,0.80,316.00,M,-33.324,M,,*7A
2017-12-29 11:51:15 1514566275.412355: $GPRMC,165116,A,3946.9610,N,08404.9860,W,0.0000,0.000,291217,,*3C
2017-12-29 11:51:15 1514566275.412416: $GPGSA,A,3,8,10,15,18,20,21,24,27,32,14,138,,1.7,0.8,1.3*36
2017-12-29 11:51:16 1514566276.407305: $GPZDA,165117.00,29,12,2017,00,00*6F
2017-12-29 11:51:16 1514566276.407481: $GPGGA,165117,3946.9610,N,08404.9860,W,2,11,0.80,316.00,M,-33.324,M,,*7B
2017-12-29 11:51:16 1514566276.407552: $GPRMC,165117,A,3946.9610,N,08404.9860,W,0.0000,0.000,291217,,*3D
2017-12-29 11:51:16 1514566276.407619: $GPGSA,A,3,8,10,15,18,20,21,24,27,32,14,138,,1.7,0.8,1.3*36
2017-12-29 11:51:17 1514566277.749178: $GPGSV,3,1,11,08,08,310,32,10,54,313,47,15,24,058,44,18,77,033,45*7D
2017-12-29 11:51:17 1514566277.749365: $GPGSV,3,2,11,20,23,106,49,21,47,183,47,24,53,082,50,27,15,274,25*70
2017-12-29 11:51:17 1514566277.749430: $GPGSV,3,3,11,32,34,249,35,14,15,241,39,138,38,213,45*7A
2017-12-29 11:51:17 1514566277.861579: $GPZDA,165118.00,29,12,2017,00,00*60
2017-12-29 11:51:17 1514566277.861735: $GPGGA,165118,3946.9610,N,08404.9860,W,2,11,0.80,316.00,M,-33.324,M,,*74
2017-12-29 11:51:17 1514566277.861801: $GPRMC,165118,A,3946.9610,N,08404.9860,W,0.0000,0.000,291217,,*32
2017-12-29 11:51:17 1514566277.861863: $GPGSA,A,3,8,10,15,18,20,21,24,27,32,14,138,,1.7,0.8,1.3*36
2017-12-29 11:51:18 1514566278.413686: $GPZDA,165119.00,29,12,2017,00,00*61
2017-12-29 11:51:18 1514566278.413867: $GPGGA,165119,3946.9604,N,08404.9845,W,2,11,0.80,314.12,M,-33.324,M,,*76
2017-12-29 11:51:18 1514566278.413936: $GPRMC,165119,A,3946.9604,N,08404.9845,W,0.2758,128.233,291217,,*30
2017-12-29 11:51:18 1514566278.413998: $GPGSA,A,3,8,10,15,18,20,21,24,27,32,14,138,,1.7,0.8,1.3*36
2017-12-29 11:51:19 1514566279.413028: $GPZDA,165120.00,29,12,2017,00,00*6B
2017-12-29 11:51:19 1514566279.413210: $GPGGA,165120,3946.9600,N,08404.9845,W,2,11,0.80,313.48,M,-33.324,M,,*70
2017-12-29 11:51:19 1514566279.413278: $GPRMC,165120,A,3946.9600,N,08404.9845,W,0.0000,0.000,291217,,*3F
2017-12-29 11:51:19 1514566279.413341: $GPGSA,A,3,8,10,15,18,20,21,24,27,32,14,138,,1.7,0.8,1.3*36
2017-12-29 11:51:20 1514566280.748757: $GPGSV,3,1,11,08,08,310,32,10,54,313,46,15,24,058,44,18,77,033,45*7C
2017-12-29 11:51:20 1514566280.748939: $GPGSV,3,2,11,20,23,106,49,21,47,183,47,24,53,082,50,27,15,274,25*70
2017-12-29 11:51:20 1514566280.749004: $GPGSV,3,3,11,32,34,249,36,14,15,241,39,138,38,213,45*79
2017-12-29 11:51:20 1514566280.862175: $GPZDA,165121.00,29,12,2017,00,00*6A
2017-12-29 11:51:20 1514566280.862325: $GPGGA,165121,3946.9600,N,08404.9845,W,2,11,0.80,313.48,M,-33.324,M,,*71
2017-12-29 11:51:20 1514566280.862390: $GPRMC,165121,A,3946.9600,N,08404.9845,W,0.0000,0.000,291217,,*3E
2017-12-29 11:51:20 1514566280.862457: $GPGSA,A,3,8,10,15,18,20,21,24,27,32,14,138,,1.7,0.8,1.3*36
2017-12-29 11:51:21 1514566281.487511: $GPZDA,165122.00,29,12,2017,00,00*69
2017-12-29 11:51:21 1514566281.487695: $GPGGA,165122,3946.9600,N,08404.9845,W,2,11,0.80,313.48,M,-33.324,M,,*72
2017-12-29 11:51:21 1514566281.487763: $GPRMC,165122,A,3946.9600,N,08404.9845,W,0.0000,0.000,291217,,*3D
2017-12-29 11:51:21 1514566281.487825: $GPGSA,A,3,8,10,15,18,20,21,24,27,32,14,138,,1.7,0.8,1.3*36
2017-12-29 11:51:22 1514566282.412544: $GPZDA,165123.00,29,12,2017,00,00*68
2017-12-29 11:51:22 1514566282.412702: $GPGGA,165123,3946.9600,N,08404.9845,W,2,11,0.80,313.48,M,-33.324,M,,*73
2017-12-29 11:51:22 1514566282.412822: $GPRMC,165123,A,3946.9600,N,08404.9845,W,0.0000,0.000,291217,,*3C
2017-12-29 11:51:22 1514566282.412886: $GPGSA,A,3,8,10,15,18,20,21,24,27,32,14,138,,1.7,0.8,1.3*36
2017-12-29 11:51:23 1514566283.747919: $GPGSV,3,1,11,08,08,310,32,10,54,313,46,15,24,058,44,18,77,033,45*7C
2017-12-29 11:51:23 1514566283.748098: $GPGSV,3,2,11,20,23,106,49,21,47,183,47,24,53,082,50,27,15,274,25*70
2017-12-29 11:51:23 1514566283.748164: $GPGSV,3,3,11,32,34,249,36,14,15,241,39,138,38,213,44*78
2017-12-29 11:51:23 1514566283.861566: $GPZDA,165124.00,29,12,2017,00,00*6F
2017-12-29 11:51:23 1514566283.861712: $GPGGA,165124,3946.9600,N,08404.9845,W,2,11,0.80,313.48,M,-33.324,M,,*74
2017-12-29 11:51:23 1514566283.861779: $GPRMC,165124,A,3946.9600,N,08404.9845,W,0.0000,0.000,291217,,*3B
2017-12-29 11:51:23 1514566283.861840: $GPGSA,A,3,8,10,15,18,20,21,24,27,32,14,138,,1.7,0.8,1.3*36
2017-12-29 11:51:24 1514566284.413588: $GPZDA,165125.00,29,12,2017,00,00*6E
2017-12-29 11:51:24 1514566284.413760: $GPGGA,165125,3946.9600,N,08404.9845,W,2,11,0.80,313.48,M,-33.324,M,,*75
2017-12-29 11:51:24 1514566284.413827: $GPRMC,165125,A,3946.9600,N,08404.9845,W,0.0000,0.000,291217,,*3A
2017-12-29 11:51:24 1514566284.413890: $GPGSA,A,3,8,10,15,18,20,21,24,27,32,14,138,,1.7,0.8,1.3*36
2017-12-29 11:51:25 1514566285.413229: $GPZDA,165126.00,29,12,2017,00,00*6D
2017-12-29 11:51:25 1514566285.413404: $GPGGA,165126,3946.9600,N,08404.9845,W,2,11,0.80,313.48,M,-33.324,M,,*76
2017-12-29 11:51:25 1514566285.413471: $GPRMC,165126,A,3946.9600,N,08404.9845,W,0.0000,0.000,291217,,*39
2017-12-29 11:51:25 1514566285.413535: $GPGSA,A,3,8,10,15,18,20,21,24,27,32,14,138,,1.7,0.8,1.3*36
2017-12-29 11:51:26 1514566286.748245: $GPGSV,3,1,11,08,08,310,33,10,54,313,46,15,24,058,44,18,77,033,45*7D
2017-12-29 11:51:26 1514566286.748428: $GPGSV,3,2,11,20,23,106,49,21,47,183,47,24,53,082,50,27,15,274,14*72
2017-12-29 11:51:26 1514566286.748498: $GPGSV,3,3,11,32,34,249,36,14,15,241,39,138,38,213,44*78
2017-12-29 11:51:26 1514566286.861686: $GPZDA,165127.00,29,12,2017,00,00*6C
2017-12-29 11:51:26 1514566286.861829: $GPGGA,165127,3946.9600,N,08404.9845,W,2,11,0.80,313.48,M,-33.324,M,,*77
2017-12-29 11:51:26 1514566286.861895: $GPRMC,165127,A,3946.9600,N,08404.9845,W,0.0000,0.000,291217,,*38
2017-12-29 11:51:26 1514566286.861956: $GPGSA,A,3,8,10,15,18,20,21,24,27,32,14,138,,1.7,0.8,1.3*36
2017-12-29 11:51:27 1514566287.407513: $GPZDA,165128.00,29,12,2017,00,00*63
2017-12-29 11:51:27 1514566287.407672: $GPGGA,165128,3946.9600,N,08404.9845,W,2,11,0.80,313.48,M,-33.324,M,,*78
2017-12-29 11:51:27 1514566287.407740: $GPRMC,165128,A,3946.9600,N,08404.9845,W,0.0000,0.000,291217,,*37
2017-12-29 11:51:27 1514566287.407800: $GPGSA,A,3,8,10,15,18,20,21,24,27,32,14,138,,1.7,0.8,1.3*36
2017-12-29 11:51:28 1514566288.412182: $GPZDA,165129.00,29,12,2017,00,00*62
2017-12-29 11:51:28 1514566288.412355: $GPGGA,165129,3946.9600,N,08404.9845,W,2,11,0.80,313.48,M,-33.324,M,,*79
2017-12-29 11:51:28 1514566288.412424: $GPRMC,165129,A,3946.9600,N,08404.9845,W,0.0000,0.000,291217,,*36
2017-12-29 11:51:28 1514566288.412488: $GPGSA,A,3,8,10,15,18,20,21,24,27,32,14,138,,1.7,0.8,1.3*36
2017-12-29 11:51:29 1514566289.764096: $GPGSV,3,1,11,08,08,310,34,10,54,313,46,15,24,058,44,18,77,033,45*7A
2017-12-29 11:51:29 1514566289.764274: $GPGSV,3,2,11,20,23,106,49,21,47,183,47,24,53,082,50,27,15,274,29*7C
2017-12-29 11:51:29 1514566289.764344: $GPGSV,3,3,11,32,34,249,36,14,15,241,39,138,38,213,44*78
2017-12-29 11:51:29 1514566289.877933: $GPZDA,165130.00,29,12,2017,00,00*6A
2017-12-29 11:51:29 1514566289.878095: $GPGGA,165130,3946.9600,N,08404.9845,W,2,11,0.80,313.48,M,-33.324,M,,*71
2017-12-29 11:51:29 1514566289.878171: $GPRMC,165130,A,3946.9600,N,08404.9845,W,0.0000,0.000,291217,,*3E
2017-12-29 11:51:29 1514566289.878235: $GPGSA,A,3,8,10,15,18,20,21,24,27,32,14,138,,1.7,0.8,1.3*36
