2017-11-15 18:31:44 1510788704.434387: {"class":"VERSION","release":"3.17","rev":"3.17","proto_major":3,"proto_minor":12}
2017-11-15 18:31:44 1510788704.434876: {"class":"DEVICES","devices":[{"class":"DEVICE","path":"/dev/ttyUSB0","driver":"SiRF","subtype":"9\u0006GSD4e_4.1.2-P1_RPATCH.05-F-GPS-4R-1510281 11/03/2015 307","activated":"2017-11-15T23:31:44.366Z","flags":1,"native":1,"bps":4800,"parity":"N","stopbits":1,"cycle":1.00}]}
2017-11-15 18:31:44 1510788704.434992: {"class":"WATCH","enable":true,"json":false,"nmea":true,"raw":0,"scaled":false,"timing":false,"split24":false,"pps":false}
2017-11-15 18:31:45 1510788705.698940: $GPGSV,3,1,11,25,36,057,22,14,69,037,11,22,39,303,17,26,25,178,12*77
2017-11-15 18:31:45 1510788705.699126: $GPGSV,3,2,11,31,77,276,21,32,56,078,16,01,19,276,12,10,22,156,10*7B
2017-11-15 18:31:45 1510788705.699185: $GPGSV,3,3,11,03,20,315,12,12,07,033,00,135,23,238,00*77
2017-11-15 18:31:45 1510788705.812110: $GPZDA,233144.00,15,11,2017,00,00*65
2017-11-15 18:31:45 1510788705.812280: $GPGGA,233144,3946.9623,N,08404.9455,W,1,09,1.00,286.55,M,-33.324,M,,*7C
2017-11-15 18:31:45 1510788705.812341: $GPRMC,233144,A,3946.9623,N,08404.9455,W,0.4844,273.794,151117,,*3D
2017-11-15 18:31:45 1510788705.812397: $GPGSA,A,3,25,14,22,26,31,32,1,10,3,,,,3.4,1.0,2.9*39
2017-11-15 18:31:46 1510788706.437530: $GPZDA,233145.00,15,11,2017,00,00*64
2017-11-15 18:31:46 1510788706.437695: $GPGGA,233145,3946.9623,N,08404.9462,W,1,09,1.00,286.47,M,-33.324,M,,*7A
2017-11-15 18:31:46 1510788706.437756: $GPRMC,233145,A,3946.9623,N,08404.9462,W,0.4844,273.794,151117,,*38
2017-11-15 18:31:46 1510788706.437812: $GPGSA,A,3,25,14,22,26,31,32,1,10,3,,,,3.4,1.0,2.9*39
2017-11-15 18:31:47 1510788707.328365: $GPZDA,233146.00,15,11,2017,00,00*67
2017-11-15 18:31:47 1510788707.328536: $GPGGA,233146,3946.9616,N,08404.9470,W,1,09,1.00,286.52,M,-33.324,M,,*78
2017-11-15 18:31:47 1510788707.328597: $GPRMC,233146,A,3946.9616,N,08404.9470,W,0.2422,273.794,151117,,*34
2017-11-15 18:31:47 1510788707.328652: $GPGSA,A,3,25,14,22,26,31,32,1,10,3,,,,3.4,1.0,2.9*39
2017-11-15 18:31:48 1510788708.699169: $GPGSV,3,1,11,25,36,057,22,14,69,037,11,22,39,303,12,26,25,178,12*72
2017-11-15 18:31:48 1510788708.699335: $GPGSV,3,2,11,31,77,276,21,32,56,078,15,01,19,276,12,10,22,156,10*78
2017-11-15 18:31:48 1510788708.699395: $GPGSV,3,3,11,03,20,315,12,12,07,033,00,135,23,238,00*77
2017-11-15 18:31:48 1510788708.812465: $GPZDA,233147.00,15,11,2017,00,00*66
2017-11-15 18:31:48 1510788708.812634: $GPGGA,233147,3946.9616,N,08404.9470,W,1,09,1.00,286.52,M,-33.324,M,,*79
2017-11-15 18:31:48 1510788708.812693: $GPRMC,233147,A,3946.9616,N,08404.9470,W,0.4844,273.794,151117,,*3F
2017-11-15 18:31:48 1510788708.812749: $GPGSA,A,3,25,14,22,26,31,32,1,10,3,,,,3.4,1.0,2.9*39
2017-11-15 18:31:49 1510788709.330118: $GPZDA,233148.00,15,11,2017,00,00*69
2017-11-15 18:31:49 1510788709.330303: $GPGGA,233148,3946.9612,N,08404.9470,W,1,09,1.00,287.28,M,-33.324,M,,*7E
2017-11-15 18:31:49 1510788709.330384: $GPRMC,233148,A,3946.9612,N,08404.9470,W,0.0000,0.000,151117,,*34
2017-11-15 18:31:49 1510788709.330441: $GPGSA,A,3,25,14,22,26,31,32,1,10,3,,,,3.4,1.0,2.9*39
2017-11-15 18:31:50 1510788710.329231: $GPZDA,233149.00,15,11,2017,00,00*68
2017-11-15 18:31:50 1510788710.329399: $GPGGA,233149,3946.9613,N,08404.9477,W,1,09,1.00,287.20,M,-33.324,M,,*71
2017-11-15 18:31:50 1510788710.329461: $GPRMC,233149,A,3946.9613,N,08404.9477,W,0.2422,93.794,151117,,*05
2017-11-15 18:31:50 1510788710.329516: $GPGSA,A,3,25,14,22,26,31,32,1,10,3,,,,3.4,1.0,2.9*39
2017-11-15 18:31:51 1510788711.698268: $GPGSV,3,1,11,25,36,057,22,14,69,037,11,22,39,303,12,26,25,178,10*70
2017-11-15 18:31:51 1510788711.698454: $GPGSV,3,2,11,31,77,276,22,32,56,078,16,01,19,276,11,10,22,156,10*7B
2017-11-15 18:31:51 1510788711.698514: $GPGSV,3,3,11,03,20,315,11,12,07,033,00,135,23,238,00*74
2017-11-15 18:31:51 1510788711.811606: $GPZDA,233150.00,15,11,2017,00,00*60
2017-11-15 18:31:51 1510788711.811767: $GPGGA,233150,3946.9605,N,08404.9478,W,1,09,1.00,287.33,M,-33.324,M,,*73
2017-11-15 18:31:51 1510788711.811826: $GPRMC,233150,A,3946.9605,N,08404.9478,W,0.7267,93.794,151117,,*07
2017-11-15 18:31:51 1510788711.811932: $GPGSA,A,3,25,14,22,26,31,32,1,10,3,,,,3.4,1.0,2.9*39
2017-11-15 18:31:52 1510788712.328731: $GPZDA,233151.00,15,11,2017,00,00*61
2017-11-15 18:31:52 1510788712.328884: $GPGGA,233151,3946.9605,N,08404.9478,W,1,09,1.00,287.33,M,-33.324,M,,*72
2017-11-15 18:31:52 1510788712.328945: $GPRMC,233151,A,3946.9605,N,08404.9478,W,0.5912,129.173,151117,,*32
2017-11-15 18:31:52 1510788712.329000: $GPGSA,A,3,25,14,22,26,31,32,1,10,3,,,,3.4,1.0,2.9*39
2017-11-15 18:31:53 1510788713.363727: $GPZDA,233152.00,15,11,2017,00,00*62
2017-11-15 18:31:53 1510788713.363876: $GPGGA,233152,3946.9602,N,08404.9479,W,1,09,1.00,288.09,M,-33.324,M,,*71
2017-11-15 18:31:53 1510788713.363951: $GPRMC,233152,A,3946.9602,N,08404.9479,W,0.8011,119.090,151117,,*3F
2017-11-15 18:31:53 1510788713.364008: $GPGSA,A,3,25,14,22,26,31,32,1,10,3,,,,3.4,1.0,2.9*39
