2017-12-29 11:28:16 1514564896.530599: {"class":"VERSION","release":"3.16","rev":"3.16-4","proto_major":3,"proto_minor":11}
2017-12-29 11:28:16 1514564896.531304: {"class":"DEVICES","devices":[{"class":"DEVICE","path":"/dev/ttyUSB0","driver":"SiRF","subtype":"9\u0006GSD4e_4.1.2-P1_RPATCH.05-F-GPS-4R-1510281 11/03/2015 307","activated":"2017-12-29T16:28:16.285Z","flags":1,"native":1,"bps":4800,"parity":"N","stopbits":1,"cycle":1.00}]}
2017-12-29 11:28:16 1514564896.531435: {"class":"WATCH","enable":true,"json":false,"nmea":true,"raw":0,"scaled":false,"timing":false,"split24":false,"pps":false}
2017-12-29 11:28:16 1514564896.735112: $GPGSV,3,1,12,08,07,319,29,10,45,304,41,15,33,054,45,18,74,351,41*79
2017-12-29 11:28:16 1514564896.735286: $GPGSV,3,2,12,20,31,099,47,21,58,186,41,24,52,102,45,27,18,285,39*76
2017-12-29 11:28:16 1514564896.735352: $GPGSV,3,3,12,32,25,241,34,13,04,049,18,14,07,235,00,138,38,213,44*49
2017-12-29 11:28:16 1514564896.848488: $GPZDA,162817.00,29,12,2017,00,00*61
2017-12-29 11:28:16 1514564896.848670: $GPGGA,162817,3946.9576,N,08404.9817,W,1,11,1.00,323.44,M,-33.324,M,,*7A
2017-12-29 11:28:16 1514564896.848736: $GPRMC,162817,A,3946.9576,N,08404.9817,W,0.0000,0.000,291217,,*30
2017-12-29 11:28:16 1514564896.848797: $GPGSA,A,3,8,10,15,18,20,21,24,27,32,13,138,,1.7,1.0,1.3*38
2017-12-29 11:28:17 1514564897.381815: $GPZDA,162818.00,29,12,2017,00,00*6E
2017-12-29 11:28:17 1514564897.381998: $GPGGA,162818,3946.9576,N,08404.9817,W,1,11,1.00,323.44,M,-33.324,M,,*75
2017-12-29 11:28:17 1514564897.382064: $GPRMC,162818,A,3946.9576,N,08404.9817,W,0.0000,0.000,291217,,*3F
2017-12-29 11:28:17 1514564897.382125: $GPGSA,A,3,8,10,15,18,20,21,24,27,32,13,138,,1.7,1.0,1.3*38
2017-12-29 11:28:18 1514564898.398888: $GPZDA,162819.00,29,12,2017,00,00*6F
2017-12-29 11:28:18 1514564898.399058: $GPGGA,162819,3946.9576,N,08404.9817,W,1,11,1.00,323.44,M,-33.324,M,,*74
2017-12-29 11:28:18 1514564898.399123: $GPRMC,162819,A,3946.9576,N,08404.9817,W,0.0000,0.000,291217,,*3E
2017-12-29 11:28:18 1514564898.399184: $GPGSA,A,3,8,10,15,18,20,21,24,27,32,13,138,,1.7,1.0,1.3*38
2017-12-29 11:28:19 1514564899.734537: $GPGSV,3,1,12,08,07,319,30,10,45,304,42,15,33,054,45,18,74,351,40*73
2017-12-29 11:28:19 1514564899.734693: $GPGSV,3,2,12,20,31,099,47,21,58,186,41,24,52,102,45,27,18,285,39*76
2017-12-29 11:28:19 1514564899.734759: $GPGSV,3,3,12,32,25,241,34,14,07,235,00,13,04,049,00,138,38,213,45*41
2017-12-29 11:28:19 1514564899.847913: $GPZDA,162820.00,29,12,2017,00,00*65
2017-12-29 11:28:19 1514564899.848095: $GPGGA,162820,3946.9576,N,08404.9817,W,1,10,1.00,323.44,M,-33.324,M,,*7F
2017-12-29 11:28:19 1514564899.848162: $GPRMC,162820,A,3946.9576,N,08404.9817,W,0.0000,0.000,291217,,*34
2017-12-29 11:28:19 1514564899.848223: $GPGSA,A,3,8,10,15,18,20,21,24,27,32,138,,,1.7,1.0,1.3*3A
2017-12-29 11:28:20 1514564900.473315: $GPZDA,162821.00,29,12,2017,00,00*64
2017-12-29 11:28:20 1514564900.478444: $GPGGA,162821,3946.9576,N,08404.9817,W,1,10,1.00,323.44,M,-33.324,M,,*7E
2017-12-29 11:28:20 1514564900.478571: $GPRMC,162821,A,3946.9576,N,08404.9817,W,0.0000,0.000,291217,,*35
2017-12-29 11:28:20 1514564900.478654: $GPGSA,A,3,8,10,15,18,20,21,24,27,32,138,,,1.7,1.0,1.3*3A
2017-12-29 11:28:21 1514564901.394151: $GPZDA,162822.00,29,12,2017,00,00*67
2017-12-29 11:28:21 1514564901.394342: $GPGGA,162822,3946.9576,N,08404.9817,W,1,10,1.00,323.44,M,-33.324,M,,*7D
2017-12-29 11:28:21 1514564901.394426: $GPRMC,162822,A,3946.9576,N,08404.9817,W,0.0000,0.000,291217,,*36
2017-12-29 11:28:21 1514564901.394489: $GPGSA,A,3,8,10,15,18,20,21,24,27,32,138,,,1.7,1.0,1.3*3A
2017-12-29 11:28:22 1514564902.718597: $GPGSV,3,1,12,08,07,319,30,10,45,304,42,15,33,054,45,18,74,351,40*73
2017-12-29 11:28:22 1514564902.718778: $GPGSV,3,2,12,20,31,099,47,21,58,186,42,24,52,102,45,27,18,285,40*7B
2017-12-29 11:28:22 1514564902.718845: $GPGSV,3,3,12,32,25,241,35,14,07,235,18,13,04,049,00,138,38,213,46*4A
2017-12-29 11:28:22 1514564902.832159: $GPZDA,162823.00,29,12,2017,00,00*66
2017-12-29 11:28:22 1514564902.832339: $GPGGA,162823,3946.9576,N,08404.9817,W,1,10,1.00,323.44,M,-33.324,M,,*7C
2017-12-29 11:28:22 1514564902.832477: $GPRMC,162823,A,3946.9576,N,08404.9817,W,0.0000,0.000,291217,,*37
2017-12-29 11:28:22 1514564902.832541: $GPGSA,A,3,8,10,15,18,20,21,24,27,32,138,,,1.7,1.0,1.3*3A
2017-12-29 11:28:23 1514564903.400372: $GPZDA,162824.00,29,12,2017,00,00*61
2017-12-29 11:28:23 1514564903.400534: $GPGGA,162824,3946.9576,N,08404.9817,W,1,10,1.00,323.44,M,-33.324,M,,*7B
2017-12-29 11:28:23 1514564903.400601: $GPRMC,162824,A,3946.9576,N,08404.9817,W,0.0000,0.000,291217,,*30
2017-12-29 11:28:23 1514564903.400662: $GPGSA,A,3,8,10,15,18,20,21,24,27,32,138,,,1.7,1.0,1.3*3A
2017-12-29 11:28:24 1514564904.399962: $GPZDA,162825.00,29,12,2017,00,00*60
2017-12-29 11:28:24 1514564904.400128: $GPGGA,162825,3946.9576,N,08404.9817,W,1,10,1.00,323.44,M,-33.324,M,,*7A
2017-12-29 11:28:24 1514564904.400213: $GPRMC,162825,A,3946.9576,N,08404.9817,W,0.0000,0.000,291217,,*31
2017-12-29 11:28:24 1514564904.400274: $GPGSA,A,3,8,10,15,18,20,21,24,27,32,138,,,1.7,1.0,1.3*3A
2017-12-29 11:28:25 1514564905.723832: $GPGSV,3,1,12,08,07,319,30,10,45,304,41,15,33,054,44,18,74,351,40*71
2017-12-29 11:28:25 1514564905.723987: $GPGSV,3,2,12,20,31,099,46,21,58,186,41,24,52,102,45,27,18,285,40*79
2017-12-29 11:28:25 1514564905.724051: $GPGSV,3,3,12,32,25,241,35,13,04,049,12,14,07,235,00,138,38,213,45*43
2017-12-29 11:28:25 1514564905.837287: $GPZDA,162826.00,29,12,2017,00,00*63
2017-12-29 11:28:25 1514564905.837456: $GPGGA,162826,3946.9576,N,08404.9817,W,1,10,1.00,323.44,M,-33.324,M,,*79
2017-12-29 11:28:25 1514564905.837522: $GPRMC,162826,A,3946.9576,N,08404.9817,W,0.0000,0.000,291217,,*32
2017-12-29 11:28:25 1514564905.837584: $GPGSA,A,3,8,10,15,18,20,21,24,27,32,138,,,1.7,1.0,1.3*3A
2017-12-29 11:28:26 1514564906.381869: $GPZDA,162827.00,29,12,2017,00,00*62
2017-12-29 11:28:26 1514564906.382043: $GPGGA,162827,3946.9576,N,08404.9817,W,1,10,1.00,323.44,M,-33.324,M,,*78
2017-12-29 11:28:26 1514564906.382134: $GPRMC,162827,A,3946.9576,N,08404.9817,W,0.3423,184.197,291217,,*37
2017-12-29 11:28:26 1514564906.382197: $GPGSA,A,3,8,10,15,18,20,21,24,27,32,138,,,1.7,1.0,1.3*3A
2017-12-29 11:28:27 1514564907.381455: $GPZDA,162828.00,29,12,2017,00,00*6D
2017-12-29 11:28:27 1514564907.381624: $GPGGA,162828,3946.9576,N,08404.9817,W,1,10,1.00,323.44,M,-33.324,M,,*77
2017-12-29 11:28:27 1514564907.381690: $GPRMC,162828,A,3946.9576,N,08404.9817,W,0.0000,0.000,291217,,*3C
2017-12-29 11:28:27 1514564907.381750: $GPGSA,A,3,8,10,15,18,20,21,24,27,32,138,,,1.7,1.0,1.3*3A
2017-12-29 11:28:28 1514564908.712105: $GPGSV,3,1,12,08,07,319,30,10,45,304,42,15,33,054,44,18,74,351,40*72
2017-12-29 11:28:28 1514564908.712308: $GPGSV,3,2,12,20,31,099,46,21,58,186,42,24,52,102,46,27,18,285,41*78
2017-12-29 11:28:28 1514564908.712374: $GPGSV,3,3,12,32,25,241,35,14,07,235,00,13,04,049,00,138,38,213,45*40
2017-12-29 11:28:28 1514564908.824237: $GPZDA,162829.00,29,12,2017,00,00*6C
2017-12-29 11:28:28 1514564908.824387: $GPGGA,162829,3946.9576,N,08404.9817,W,1,10,1.00,323.44,M,-33.324,M,,*76
2017-12-29 11:28:28 1514564908.824452: $GPRMC,162829,A,3946.9576,N,08404.9817,W,0.0000,0.000,291217,,*3D
2017-12-29 11:28:28 1514564908.824513: $GPGSA,A,3,8,10,15,18,20,21,24,27,32,138,,,1.7,1.0,1.3*3A
2017-12-29 11:28:29 1514564909.381471: $GPZDA,162830.00,29,12,2017,00,00*64
2017-12-29 11:28:29 1514564909.381638: $GPGGA,162830,3946.9576,N,08404.9817,W,1,10,1.00,323.44,M,-33.324,M,,*7E
2017-12-29 11:28:29 1514564909.381705: $GPRMC,162830,A,3946.9576,N,08404.9817,W,0.0000,0.000,291217,,*35
2017-12-29 11:28:29 1514564909.381766: $GPGSA,A,3,8,10,15,18,20,21,24,27,32,138,,,1.7,1.0,1.3*3A
2017-12-29 11:28:30 1514564910.381739: $GPZDA,162831.00,29,12,2017,00,00*65
2017-12-29 11:28:30 1514564910.381904: $GPGGA,162831,3946.9576,N,08404.9817,W,1,10,1.00,323.44,M,-33.324,M,,*7F
2017-12-29 11:28:30 1514564910.381971: $GPRMC,162831,A,3946.9576,N,08404.9817,W,0.0000,0.000,291217,,*34
2017-12-29 11:28:30 1514564910.382031: $GPGSA,A,3,8,10,15,18,20,21,24,27,32,138,,,1.7,1.0,1.3*3A
