2017-11-15 19:14:56 1510791296.422105: {"class":"VERSION","release":"3.17","rev":"3.17","proto_major":3,"proto_minor":12}
2017-11-15 19:14:56 1510791296.422594: {"class":"DEVICES","devices":[{"class":"DEVICE","path":"/dev/ttyUSB0","driver":"SiRF","subtype":"9\u0006GSD4e_4.1.2-P1_RPATCH.05-F-GPS-4R-1510281 11/03/2015 307","activated":"2017-11-16T00:14:56.369Z","flags":1,"native":1,"bps":4800,"parity":"N","stopbits":1,"cycle":1.00}]}
2017-11-15 19:14:56 1510791296.422709: {"class":"WATCH","enable":true,"json":false,"nmea":true,"raw":0,"scaled":false,"timing":false,"split24":false,"pps":false}
2017-11-15 19:14:57 1510791297.667668: $GPGSV,3,1,12,32,42,100,20,14,60,081,23,22,49,282,11,26,45,175,22*74
2017-11-15 19:14:57 1510791297.667843: $GPGSV,3,2,12,31,73,009,24,16,15,190,14,03,35,306,17,01,10,258,06*73
2017-11-15 19:14:57 1510791297.667902: $GPGSV,3,3,12,29,08,078,10,25,23,043,00,23,06,297,00,133,44,201,00*4F
2017-11-15 19:14:57 1510791297.779720: $GPZDA,001456.00,16,11,2017,00,00*63
2017-11-15 19:14:57 1510791297.779889: $GPGGA,001456,3946.9656,N,08404.9547,W,1,08,1.40,305.65,M,-33.324,M,,*75
2017-11-15 19:14:57 1510791297.779951: $GPRMC,001456,A,3946.9656,N,08404.9547,W,0.0000,0.000,161117,,*3B
2017-11-15 19:14:57 1510791297.780007: $GPGSA,A,3,32,14,22,26,31,16,3,1,,,,,3.4,1.4,2.9*3C
2017-11-15 19:14:58 1510791298.330680: $GPZDA,001457.00,16,11,2017,00,00*62
2017-11-15 19:14:58 1510791298.330846: $GPGGA,001457,3946.9657,N,08404.9554,W,1,08,1.40,305.57,M,-33.324,M,,*76
2017-11-15 19:14:58 1510791298.330908: $GPRMC,001457,A,3946.9657,N,08404.9554,W,0.2422,273.794,161117,,*33
2017-11-15 19:14:58 1510791298.330966: $GPGSA,A,3,32,14,22,26,31,16,3,1,,,,,3.4,1.4,2.9*3C
2017-11-15 19:14:59 1510791299.330481: $GPZDA,001458.00,16,11,2017,00,00*6D
2017-11-15 19:14:59 1510791299.330653: $GPGGA,001458,3946.9661,N,08404.9554,W,1,08,1.40,306.21,M,-33.324,M,,*7E
2017-11-15 19:14:59 1510791299.330717: $GPRMC,001458,A,3946.9661,N,08404.9554,W,0.7246,344.668,161117,,*3F
2017-11-15 19:14:59 1510791299.330773: $GPGSA,A,3,32,14,22,26,31,16,3,1,,,,,3.4,1.4,2.9*3C
2017-11-15 19:15:00 1510791300.667296: $GPGSV,3,1,12,32,42,100,19,14,60,081,23,22,49,282,12,26,45,175,22*7D
2017-11-15 19:15:00 1510791300.667472: $GPGSV,3,2,12,31,73,009,24,16,15,190,07,03,35,306,17,01,10,258,06*71
2017-11-15 19:15:00 1510791300.667537: $GPGSV,3,3,12,29,08,078,10,25,23,043,00,23,06,297,00,133,44,201,00*4F
2017-11-15 19:15:00 1510791300.780570: $GPZDA,001459.00,16,11,2017,00,00*6C
2017-11-15 19:15:00 1510791300.780748: $GPGGA,001459,3946.9661,N,08404.9554,W,1,09,1.20,306.21,M,-33.324,M,,*78
2017-11-15 19:15:00 1510791300.780812: $GPRMC,001459,A,3946.9661,N,08404.9554,W,0.6846,4.197,161117,,*35
2017-11-15 19:15:00 1510791300.780869: $GPGSA,A,3,32,14,22,26,31,16,3,1,29,,,,3.4,1.2,2.9*31
2017-11-15 19:15:01 1510791301.405888: $GPZDA,001500.00,16,11,2017,00,00*61
2017-11-15 19:15:01 1510791301.406069: $GPGGA,001500,3946.9664,N,08404.9553,W,1,09,1.20,305.45,M,-33.324,M,,*76
2017-11-15 19:15:01 1510791301.406132: $GPRMC,001500,A,3946.9664,N,08404.9553,W,0.4207,39.347,161117,,*06
2017-11-15 19:15:01 1510791301.406190: $GPGSA,A,3,32,14,22,26,31,16,3,1,29,,,,3.4,1.2,2.9*31
2017-11-15 19:15:02 1510791302.329317: $GPZDA,001501.00,16,11,2017,00,00*60
2017-11-15 19:15:02 1510791302.329493: $GPGGA,001501,3946.9665,N,08404.9560,W,1,09,1.20,305.37,M,-33.324,M,,*73
2017-11-15 19:15:02 1510791302.329557: $GPRMC,001501,A,3946.9665,N,08404.9560,W,0.0000,0.000,161117,,*3D
2017-11-15 19:15:02 1510791302.329613: $GPGSA,A,3,32,14,22,26,31,16,3,1,29,,,,3.4,1.2,2.9*31
2017-11-15 19:15:03 1510791303.681428: $GPGSV,3,1,12,32,42,100,19,14,60,081,23,22,49,282,13,26,45,175,22*7C
2017-11-15 19:15:03 1510791303.681599: $GPGSV,3,2,12,31,73,009,24,16,15,190,09,03,35,306,17,01,10,258,08*71
2017-11-15 19:15:03 1510791303.681660: $GPGSV,3,3,12,29,08,078,08,25,23,043,00,23,06,297,00,133,44,201,00*46
2017-11-15 19:15:03 1510791303.794692: $GPZDA,001502.00,16,11,2017,00,00*63
2017-11-15 19:15:03 1510791303.794850: $GPGGA,001502,3946.9665,N,08404.9560,W,1,09,1.00,305.37,M,-33.324,M,,*72
2017-11-15 19:15:03 1510791303.794966: $GPRMC,001502,A,3946.9665,N,08404.9560,W,0.0000,0.000,161117,,*3E
2017-11-15 19:15:03 1510791303.795028: $GPGSA,A,3,32,14,22,26,31,16,3,1,29,,,,3.4,1.0,2.9*33
2017-11-15 19:15:04 1510791304.330540: $GPZDA,001503.00,16,11,2017,00,00*62
2017-11-15 19:15:04 1510791304.330704: $GPGGA,001503,3946.9665,N,08404.9560,W,1,09,0.80,305.37,M,-33.324,M,,*7A
2017-11-15 19:15:04 1510791304.330766: $GPRMC,001503,A,3946.9665,N,08404.9560,W,0.0000,0.000,161117,,*3F
2017-11-15 19:15:04 1510791304.330822: $GPGSA,A,3,32,14,22,26,31,16,3,1,29,,,,3.4,0.8,2.9*3A
2017-11-15 19:15:05 1510791305.346494: $GPZDA,001504.00,16,11,2017,00,00*65
2017-11-15 19:15:05 1510791305.346789: $GPGGA,001504,3946.9665,N,08404.9560,W,1,09,0.80,305.37,M,-33.324,M,,*7D
2017-11-15 19:15:05 1510791305.346875: $GPRMC,001504,A,3946.9665,N,08404.9560,W,0.1867,180.000,161117,,*39
2017-11-15 19:15:05 1510791305.346941: $GPGSA,A,3,32,14,22,26,31,16,3,1,29,,,,3.4,0.8,2.9*3A
