2018-01-12 19:58:01 1515805081.753552: {"class":"VERSION","release":"3.16","rev":"3.16-4","proto_major":3,"proto_minor":11}
2018-01-12 19:58:01 1515805081.754093: {"class":"DEVICES","devices":[{"class":"DEVICE","path":"/dev/ttyUSB0","driver":"SiRF","subtype":"9\u0006GSD4e_4.1.2-P1_RPATCH.05-F-GPS-4R-1510281 11/03/2015 307","activated":"2018-01-13T00:58:01.300Z","flags":1,"native":1,"bps":4800,"parity":"N","stopbits":1,"cycle":1.00}]}
2018-01-12 19:58:01 1515805081.754215: {"class":"WATCH","enable":true,"json":false,"nmea":true,"raw":0,"scaled":false,"timing":false,"split24":false,"pps":false}
2018-01-12 19:58:02 1515805082.159140: $GPZDA,005803.00,13,01,2018,00,00*60
2018-01-12 19:58:02 1515805082.159314: $GPGGA,005803,3946.9597,N,08404.9477,W,1,09,0.80,309.56,M,-33.324,M,,*71
2018-01-12 19:58:02 1515805082.159381: $GPRMC,005803,A,3946.9597,N,08404.9477,W,0.3423,184.197,130118,,*30
2018-01-12 19:58:02 1515805082.159443: $GPGSA,A,3,7,23,27,8,11,9,30,16,26,,,,4.8,0.8,4.6*06
2018-01-12 19:58:03 1515805083.495079: $GPGSV,3,1,11,07,51,313,27,23,33,190,24,27,51,057,26,08,70,144,25*7D
2018-01-12 19:58:03 1515805083.495280: $GPGSV,3,2,11,11,16,169,17,09,51,235,16,30,25,304,12,16,26,057,11*78
2018-01-12 19:58:03 1515805083.495349: $GPGSV,3,3,11,26,01,070,05,28,11,255,00,138,38,213,00*77
2018-01-12 19:58:03 1515805083.608800: $GPZDA,005804.00,13,01,2018,00,00*67
2018-01-12 19:58:03 1515805083.608972: $GPGGA,005804,3946.9593,N,08404.9478,W,1,08,0.80,310.33,M,-33.324,M,,*77
2018-01-12 19:58:03 1515805083.609038: $GPRMC,005804,A,3946.9593,N,08404.9478,W,0.4207,219.347,130118,,*33
2018-01-12 19:58:03 1515805083.609103: $GPGSA,A,3,7,23,27,8,11,9,30,16,,,,,4.8,0.8,4.6*02
2018-01-12 19:58:04 1515805084.158536: $GPZDA,005805.00,13,01,2018,00,00*66
2018-01-12 19:58:04 1515805084.158701: $GPGGA,005805,3946.9593,N,08404.9478,W,1,08,0.80,310.33,M,-33.324,M,,*76
2018-01-12 19:58:04 1515805084.158767: $GPRMC,005805,A,3946.9593,N,08404.9478,W,0.0000,0.000,130118,,*39
2018-01-12 19:58:04 1515805084.158830: $GPGSA,A,3,7,23,27,8,11,9,30,16,,,,,4.8,0.8,4.6*02
2018-01-12 19:58:05 1515805085.178510: $GPZDA,005806.00,13,01,2018,00,00*65
2018-01-12 19:58:05 1515805085.178665: $GPGGA,005806,3946.9594,N,08404.9485,W,1,08,0.80,310.25,M,-33.324,M,,*77
2018-01-12 19:58:05 1515805085.178733: $GPRMC,005806,A,3946.9594,N,08404.9485,W,0.1867,0.000,130118,,*37
2018-01-12 19:58:05 1515805085.178794: $GPGSA,A,3,7,23,27,8,11,9,30,16,,,,,4.8,0.8,4.6*02
2018-01-12 19:58:06 1515805086.514426: $GPGSV,3,1,11,07,51,313,27,23,33,190,24,27,51,057,26,08,70,144,26*7E
2018-01-12 19:58:06 1515805086.514600: $GPGSV,3,2,11,11,16,169,17,09,51,235,11,30,25,304,11,16,26,057,10*7D
2018-01-12 19:58:06 1515805086.514670: $GPGSV,3,3,11,26,01,070,04,28,11,255,00,138,38,213,00*76
2018-01-12 19:58:06 1515805086.627776: $GPZDA,005807.00,13,01,2018,00,00*64
2018-01-12 19:58:06 1515805086.628010: $GPGGA,005807,3946.9594,N,08404.9485,W,1,08,0.80,310.25,M,-33.324,M,,*76
2018-01-12 19:58:06 1515805086.628218: $GPRMC,005807,A,3946.9594,N,08404.9485,W,0.3423,184.197,130118,,*3A
2018-01-12 19:58:06 1515805086.628289: $GPGSA,A,3,7,23,27,8,11,9,30,16,,,,,4.8,0.8,4.6*02
2018-01-12 19:58:07 1515805087.179264: $GPZDA,005808.00,13,01,2018,00,00*6B
2018-01-12 19:58:07 1515805087.179452: $GPGGA,005808,3946.9593,N,08404.9478,W,1,08,0.80,310.33,M,-33.324,M,,*7B
2018-01-12 19:58:07 1515805087.179521: $GPRMC,005808,A,3946.9593,N,08404.9478,W,0.4179,148.778,130118,,*3A
2018-01-12 19:58:07 1515805087.179587: $GPGSA,A,3,7,23,27,8,11,9,30,16,,,,,4.8,0.8,4.6*02
2018-01-12 19:58:08 1515805088.178146: $GPZDA,005809.00,13,01,2018,00,00*6A
2018-01-12 19:58:08 1515805088.178362: $GPGGA,005809,3946.9593,N,08404.9478,W,1,08,0.80,310.33,M,-33.324,M,,*7A
2018-01-12 19:58:08 1515805088.178435: $GPRMC,005809,A,3946.9593,N,08404.9478,W,0.2422,93.794,130118,,*03
2018-01-12 19:58:08 1515805088.178499: $GPGSA,A,3,7,23,27,8,11,9,30,16,,,,,4.8,0.8,4.6*02
2018-01-12 19:58:09 1515805089.514240: $GPGSV,3,1,11,07,51,313,26,23,33,190,24,27,51,057,26,08,70,144,26*7F
2018-01-12 19:58:09 1515805089.514427: $GPGSV,3,2,11,11,16,169,17,09,51,235,12,30,25,304,12,16,26,057,11*7C
2018-01-12 19:58:09 1515805089.514555: $GPGSV,3,3,11,26,01,070,04,28,11,255,08,138,38,213,00*7E
2018-01-12 19:58:09 1515805089.627627: $GPZDA,005810.00,13,01,2018,00,00*62
2018-01-12 19:58:09 1515805089.627804: $GPGGA,005810,3946.9597,N,08404.9478,W,1,08,0.80,310.97,M,-33.324,M,,*78
2018-01-12 19:58:09 1515805089.627871: $GPRMC,005810,A,3946.9597,N,08404.9478,W,0.8414,39.347,130118,,*0A
2018-01-12 19:58:09 1515805089.627933: $GPGSA,A,3,7,23,27,8,11,9,30,16,,,,,4.8,0.8,4.6*02
2018-01-12 19:58:10 1515805090.158857: $GPZDA,005811.00,13,01,2018,00,00*63
2018-01-12 19:58:10 1515805090.159032: $GPGGA,005811,3946.9597,N,08404.9478,W,1,08,0.80,310.97,M,-33.324,M,,*79
2018-01-12 19:58:10 1515805090.159102: $GPRMC,005811,A,3946.9597,N,08404.9478,W,0.8414,39.347,130118,,*0B
2018-01-12 19:58:10 1515805090.159168: $GPGSA,A,3,7,23,27,8,11,9,30,16,,,,,4.8,0.8,4.6*02
2018-01-12 19:58:11 1515805091.156244: $GPZDA,005812.00,13,01,2018,00,00*60
2018-01-12 19:58:11 1515805091.156447: $GPGGA,005812,3946.9597,N,08404.9478,W,1,08,1.00,310.97,M,-33.324,M,,*73
2018-01-12 19:58:11 1515805091.156520: $GPRMC,005812,A,3946.9597,N,08404.9478,W,0.8709,3.298,130118,,*3D
2018-01-12 19:58:11 1515805091.156583: $GPGSA,A,3,7,23,27,8,11,9,30,16,,,,,4.8,1.0,4.6*0B
2018-01-12 19:58:12 1515805092.494872: $GPGSV,3,1,11,07,51,313,26,23,33,190,19,27,51,057,26,08,70,144,25*72
2018-01-12 19:58:12 1515805092.495061: $GPGSV,3,2,11,11,16,169,17,09,51,235,13,30,25,304,12,16,26,057,11*7D
2018-01-12 19:58:12 1515805092.495128: $GPGSV,3,3,11,26,01,070,12,28,11,255,00,138,38,213,00*71
2018-01-12 19:58:12 1515805092.607012: $GPZDA,005813.00,13,01,2018,00,00*61
2018-01-12 19:58:12 1515805092.607199: $GPGGA,005813,3946.9601,N,08404.9478,W,1,09,0.80,311.61,M,-33.324,M,,*7E
2018-01-12 19:58:12 1515805092.607269: $GPRMC,005813,A,3946.9601,N,08404.9478,W,1.0534,350.904,130118,,*3E
2018-01-12 19:58:12 1515805092.607330: $GPGSA,A,3,7,23,27,8,11,9,30,16,26,,,,4.8,0.8,4.6*06
2018-01-12 19:58:13 1515805093.179608: $GPZDA,005814.00,13,01,2018,00,00*66
2018-01-12 19:58:13 1515805093.179785: $GPGGA,005814,3946.9602,N,08404.9485,W,1,09,0.80,311.53,M,-33.324,M,,*79
2018-01-12 19:58:13 1515805093.179852: $GPRMC,005814,A,3946.9602,N,08404.9485,W,1.0002,334.331,130118,,*36
2018-01-12 19:58:13 1515805093.179915: $GPGSA,A,3,7,23,27,8,11,9,30,16,26,,,,4.8,0.8,4.6*06
2018-01-12 19:58:14 1515805094.181030: $GPZDA,005815.00,13,01,2018,00,00*67
2018-01-12 19:58:14 1515805094.181214: $GPGGA,005815,3946.9605,N,08404.9484,W,1,09,1.00,310.76,M,-33.324,M,,*71
2018-01-12 19:58:14 1515805094.181283: $GPRMC,005815,A,3946.9605,N,08404.9484,W,1.0002,334.331,130118,,*31
2018-01-12 19:58:14 1515805094.181344: $GPGSA,A,3,7,23,27,8,11,9,30,16,26,,,,4.8,1.0,4.6*0F
2018-01-12 19:58:15 1515805095.516784: $GPGSV,3,1,11,07,51,313,26,23,33,190,06,27,51,057,26,08,70,144,25*7C
2018-01-12 19:58:15 1515805095.516979: $GPGSV,3,2,11,11,16,169,17,09,51,235,14,30,25,304,12,16,26,057,12*79
2018-01-12 19:58:15 1515805095.517054: $GPGSV,3,3,11,26,01,070,12,28,11,255,02,120,07,103,00*74
2018-01-12 19:58:15 1515805095.630082: $GPZDA,005816.00,13,01,2018,00,00*64
2018-01-12 19:58:15 1515805095.630261: $GPGGA,005816,3946.9605,N,08404.9484,W,1,09,1.00,310.76,M,-33.324,M,,*72
2018-01-12 19:58:15 1515805095.630327: $GPRMC,005816,A,3946.9605,N,08404.9484,W,0.3423,4.197,130118,,*39
2018-01-12 19:58:15 1515805095.630389: $GPGSA,A,3,7,23,27,8,11,9,30,16,26,,,,4.8,1.0,4.6*0F
2018-01-12 19:58:16 1515805096.178958: $GPZDA,005817.00,13,01,2018,00,00*65
2018-01-12 19:58:16 1515805096.179134: $GPGGA,005817,3946.9605,N,08404.9484,W,1,09,0.80,310.76,M,-33.324,M,,*7A
2018-01-12 19:58:16 1515805096.179201: $GPRMC,005817,A,3946.9605,N,08404.9484,W,0.4179,328.778,130118,,*3F
2018-01-12 19:58:16 1515805096.179264: $GPGSA,A,3,7,23,27,8,11,9,30,16,26,,,,4.8,0.8,4.6*06
2018-01-12 19:58:17 1515805097.179120: $GPZDA,005818.00,13,01,2018,00,00*6A
2018-01-12 19:58:17 1515805097.179297: $GPGGA,005818,3946.9609,N,08404.9484,W,1,09,0.80,311.40,M,-33.324,M,,*7D
2018-01-12 19:58:17 1515805097.179416: $GPRMC,005818,A,3946.9609,N,08404.9484,W,0.3423,4.197,130118,,*3B
2018-01-12 19:58:17 1515805097.179479: $GPGSA,A,3,7,23,27,8,11,9,30,16,26,,,,4.8,0.8,4.6*06
2018-01-12 19:58:18 1515805098.515329: $GPGSV,3,1,11,07,51,313,26,23,33,190,19,27,51,057,25,08,70,144,25*71
2018-01-12 19:58:18 1515805098.515515: $GPGSV,3,2,11,11,16,169,17,09,51,235,14,30,25,304,12,16,26,057,11*7A
2018-01-12 19:58:18 1515805098.515582: $GPGSV,3,3,11,26,01,070,04,28,11,255,00,120,07,103,00*71
2018-01-12 19:58:18 1515805098.628681: $GPZDA,005819.00,13,01,2018,00,00*6B
2018-01-12 19:58:18 1515805098.628858: $GPGGA,005819,3946.9609,N,08404.9484,W,1,08,0.80,311.40,M,-33.324,M,,*7D
2018-01-12 19:58:18 1515805098.628925: $GPRMC,005819,A,3946.9609,N,08404.9484,W,0.1867,0.000,130118,,*3F
2018-01-12 19:58:18 1515805098.628987: $GPGSA,A,3,7,23,27,8,11,9,30,16,,,,,4.8,0.8,4.6*02
2018-01-12 19:58:19 1515805099.157572: $GPZDA,005820.00,13,01,2018,00,00*61
2018-01-12 19:58:19 1515805099.157757: $GPGGA,005820,3946.9609,N,08404.9484,W,1,08,1.00,311.40,M,-33.324,M,,*7E
2018-01-12 19:58:19 1515805099.157825: $GPRMC,005820,A,3946.9609,N,08404.9484,W,0.1867,0.000,130118,,*35
2018-01-12 19:58:19 1515805099.157888: $GPGSA,A,3,7,23,27,8,11,9,30,16,,,,,4.8,1.0,4.6*0B
2018-01-12 19:58:20 1515805100.172199: $GPZDA,005821.00,13,01,2018,00,00*60
2018-01-12 19:58:20 1515805100.172376: $GPGGA,005821,3946.9609,N,08404.9484,W,1,08,1.00,311.40,M,-33.324,M,,*7F
2018-01-12 19:58:20 1515805100.172444: $GPRMC,005821,A,3946.9609,N,08404.9484,W,0.0000,0.000,130118,,*3C
2018-01-12 19:58:20 1515805100.172506: $GPGSA,A,3,7,23,27,8,11,9,30,16,,,,,4.8,1.0,4.6*0B
2018-01-12 19:58:21 1515805101.514720: $GPGSV,3,1,11,07,51,313,26,23,33,190,15,27,51,057,25,08,70,144,25*7D
2018-01-12 19:58:21 1515805101.514901: $GPGSV,3,2,11,11,16,169,17,09,51,235,13,30,25,304,12,16,26,057,11*7D
2018-01-12 19:58:21 1515805101.514969: $GPGSV,3,3,11,26,01,070,04,28,11,255,00,120,07,103,00*71
2018-01-12 19:58:21 1515805101.628474: $GPZDA,005822.00,13,01,2018,00,00*63
2018-01-12 19:58:21 1515805101.628631: $GPGGA,005822,3946.9606,N,08404.9485,W,1,08,0.80,312.17,M,-33.324,M,,*7A
2018-01-12 19:58:21 1515805101.628697: $GPRMC,005822,A,3946.9606,N,08404.9485,W,0.0000,0.000,130118,,*31
2018-01-12 19:58:21 1515805101.628758: $GPGSA,A,3,7,23,27,8,11,9,30,16,,,,,4.8,0.8,4.6*02
