2018-01-11 19:43:20 1515717800.824956: {"class":"VERSION","release":"3.16","rev":"3.16-4","proto_major":3,"proto_minor":11}
2018-01-11 19:43:20 1515717800.825298: {"class":"DEVICES","devices":[{"class":"DEVICE","path":"/dev/ttyUSB0","driver":"SiRF","subtype":"9\u0006GSD4e_4.1.2-P1_RPATCH.05-F-GPS-4R-1510281 11/03/2015 307","activated":"2018-01-12T00:43:20.647Z","flags":1,"native":1,"bps":4800,"parity":"N","stopbits":1,"cycle":1.00}]}
2018-01-11 19:43:20 1515717800.825413: {"class":"WATCH","enable":true,"json":false,"nmea":true,"raw":0,"scaled":false,"timing":false,"split24":false,"pps":false}
2018-01-11 19:43:21 1515717801.424441: $GPZDA,004322.00,12,01,2018,00,00*68
2018-01-11 19:43:21 1515717801.424600: $GPGGA,004322,3946.9608,N,08404.9854,W,2,10,0.80,305.41,M,-33.324,M,,*71
2018-01-11 19:43:21 1515717801.424665: $GPRMC,004322,A,3946.9608,N,08404.9854,W,0.0000,0.000,120118,,*34
2018-01-11 19:43:21 1515717801.424726: $GPGSA,A,3,7,8,9,11,16,23,27,30,28,138,,,4.0,0.8,3.5*3E
2018-01-11 19:43:22 1515717802.758796: $GPGSV,3,1,12,07,44,309,41,08,62,159,46,09,55,249,42,11,09,172,31*7C
2018-01-11 19:43:22 1515717802.758970: $GPGSV,3,2,12,16,33,052,48,23,42,195,48,27,56,069,49,30,18,301,33*7D
2018-01-11 19:43:22 1515717802.759093: $GPGSV,3,3,12,28,05,249,24,26,07,066,20,21,01,031,00,138,38,213,45*4D
2018-01-11 19:43:22 1515717802.872693: $GPZDA,004323.00,12,01,2018,00,00*69
2018-01-11 19:43:22 1515717802.872863: $GPGGA,004323,3946.9608,N,08404.9854,W,2,11,0.80,305.41,M,-33.324,M,,*71
2018-01-11 19:43:22 1515717802.872929: $GPRMC,004323,A,3946.9608,N,08404.9854,W,0.0000,0.000,120118,,*35
2018-01-11 19:43:22 1515717802.872989: $GPGSA,A,3,7,8,9,11,16,23,27,30,28,26,138,,4.0,0.8,3.5*3A
2018-01-11 19:43:23 1515717803.438338: $GPZDA,004324.00,12,01,2018,00,00*6E
2018-01-11 19:43:23 1515717803.438486: $GPGGA,004324,3946.9608,N,08404.9854,W,2,11,0.80,305.41,M,-33.324,M,,*76
2018-01-11 19:43:23 1515717803.438551: $GPRMC,004324,A,3946.9608,N,08404.9854,W,0.0000,0.000,120118,,*32
2018-01-11 19:43:23 1515717803.438611: $GPGSA,A,3,7,8,9,11,16,23,27,30,28,26,138,,4.0,0.8,3.5*3A
2018-01-11 19:43:24 1515717804.422637: $GPZDA,004325.00,12,01,2018,00,00*6F
2018-01-11 19:43:24 1515717804.422816: $GPGGA,004325,3946.9608,N,08404.9854,W,2,11,0.80,305.41,M,-33.324,M,,*77
2018-01-11 19:43:24 1515717804.422882: $GPRMC,004325,A,3946.9608,N,08404.9854,W,0.0000,0.000,120118,,*33
2018-01-11 19:43:24 1515717804.422942: $GPGSA,A,3,7,8,9,11,16,23,27,30,28,26,138,,4.0,0.8,3.5*3A
2018-01-11 19:43:25 1515717805.756601: $GPGSV,3,1,12,07,44,309,41,08,62,159,46,09,55,249,42,11,09,172,31*7C
2018-01-11 19:43:25 1515717805.756766: $GPGSV,3,2,12,16,33,052,47,23,42,195,48,27,56,069,49,30,18,301,34*75
2018-01-11 19:43:25 1515717805.756832: $GPGSV,3,3,12,28,05,249,23,26,07,066,19,21,01,031,00,138,38,213,44*41
2018-01-11 19:43:25 1515717805.870043: $GPZDA,004326.00,12,01,2018,00,00*6C
2018-01-11 19:43:25 1515717805.870211: $GPGGA,004326,3946.9608,N,08404.9854,W,2,11,0.80,305.41,M,-33.324,M,,*74
2018-01-11 19:43:25 1515717805.870277: $GPRMC,004326,A,3946.9608,N,08404.9854,W,0.0000,0.000,120118,,*30
2018-01-11 19:43:25 1515717805.870336: $GPGSA,A,3,7,8,9,11,16,23,27,30,28,26,138,,4.0,0.8,3.5*3A
2018-01-11 19:43:26 1515717806.416095: $GPZDA,004327.00,12,01,2018,00,00*6D
2018-01-11 19:43:26 1515717806.416241: $GPGGA,004327,3946.9608,N,08404.9854,W,2,11,0.80,305.41,M,-33.324,M,,*75
2018-01-11 19:43:26 1515717806.416306: $GPRMC,004327,A,3946.9608,N,08404.9854,W,0.0000,0.000,120118,,*31
2018-01-11 19:43:26 1515717806.416366: $GPGSA,A,3,7,8,9,11,16,23,27,30,28,26,138,,4.0,0.8,3.5*3A
2018-01-11 19:43:27 1515717807.438027: $GPZDA,004328.00,12,01,2018,00,00*62
2018-01-11 19:43:27 1515717807.438183: $GPGGA,004328,3946.9608,N,08404.9854,W,2,11,0.80,305.41,M,-33.324,M,,*7A
2018-01-11 19:43:27 1515717807.438248: $GPRMC,004328,A,3946.9608,N,08404.9854,W,0.0000,0.000,120118,,*3E
2018-01-11 19:43:27 1515717807.438307: $GPGSA,A,3,7,8,9,11,16,23,27,30,28,26,138,,4.0,0.8,3.5*3A
2018-01-11 19:43:28 1515717808.756204: $GPGSV,3,1,12,07,44,309,41,08,62,159,46,09,55,249,42,11,09,172,31*7C
2018-01-11 19:43:28 1515717808.756425: $GPGSV,3,2,12,16,33,052,47,23,42,195,48,27,56,069,49,30,18,301,34*75
2018-01-11 19:43:28 1515717808.756493: $GPGSV,3,3,12,28,05,249,18,26,07,066,18,21,01,031,00,138,38,213,44*48
