2017-11-16 15:18:08 1510863488.343040: {"class":"VERSION","release":"3.17","rev":"3.17","proto_major":3,"proto_minor":12}
2017-11-16 15:18:08 1510863488.343296: {"class":"DEVICES","devices":[{"class":"DEVICE","path":"/dev/ttyUSB0","driver":"SiRF","subtype":"9\u0006GSD4e_4.1.2-P1_RPATCH.05-F-GPS-4R-1510281 11/03/2015 307","activated":"2017-11-16T20:18:08.274Z","flags":1,"native":1,"bps":4800,"parity":"N","stopbits":1,"cycle":1.00}]}
2017-11-16 15:18:08 1510863488.343371: {"class":"WATCH","enable":true,"json":false,"nmea":true,"raw":0,"scaled":false,"timing":false,"split24":false,"pps":false}
2017-11-16 15:18:08 1510863488.387330: $GPZDA,201807.00,16,11,2017,00,00*69
2017-11-16 15:18:08 1510863488.387444: $GPGGA,201807,3946.9573,N,08404.9850,W,2,12,0.80,305.35,M,-33.324,M,,*70
2017-11-16 15:18:08 1510863488.387476: $GPRMC,201807,A,3946.9573,N,08404.9850,W,0.0000,0.000,161117,,*3E
2017-11-16 15:18:08 1510863488.387504: $GPGSA,A,3,8,10,14,15,18,20,21,24,27,32,12,138,1.6,0.8,1.3*34
2017-11-16 15:18:09 1510863489.393713: $GPZDA,201808.00,16,11,2017,00,00*66
2017-11-16 15:18:09 1510863489.393881: $GPGGA,201808,3946.9573,N,08404.9850,W,2,12,0.80,305.35,M,-33.324,M,,*7F
2017-11-16 15:18:09 1510863489.393942: $GPRMC,201808,A,3946.9573,N,08404.9850,W,0.0000,0.000,161117,,*31
2017-11-16 15:18:09 1510863489.393997: $GPGSA,A,3,8,10,14,15,18,20,21,24,27,32,12,138,1.6,0.8,1.3*34
2017-11-16 15:18:10 1510863490.727784: $GPGSV,3,1,12,08,07,297,31,10,66,325,51,14,26,250,46,15,14,064,34*78
2017-11-16 15:18:10 1510863490.727890: $GPGSV,3,2,12,18,73,084,46,20,11,115,26,21,33,180,45,24,47,063,49*7D
2017-11-16 15:18:10 1510863490.727920: $GPGSV,3,3,12,27,08,262,40,32,43,261,48,12,07,109,16,138,38,213,44*40
2017-11-16 15:18:10 1510863490.841273: $GPZDA,201809.00,16,11,2017,00,00*67
2017-11-16 15:18:10 1510863490.841434: $GPGGA,201809,3946.9573,N,08404.9850,W,2,12,0.80,305.35,M,-33.324,M,,*7E
2017-11-16 15:18:10 1510863490.841494: $GPRMC,201809,A,3946.9573,N,08404.9850,W,0.0000,0.000,161117,,*30
2017-11-16 15:18:10 1510863490.841550: $GPGSA,A,3,8,10,14,15,18,20,21,24,27,32,12,138,1.6,0.8,1.3*34
2017-11-16 15:18:11 1510863491.466588: $GPZDA,201810.00,16,11,2017,00,00*6F
2017-11-16 15:18:11 1510863491.466750: $GPGGA,201810,3946.9573,N,08404.9850,W,2,12,0.80,305.35,M,-33.324,M,,*76
2017-11-16 15:18:11 1510863491.466810: $GPRMC,201810,A,3946.9573,N,08404.9850,W,0.0000,0.000,161117,,*38
2017-11-16 15:18:11 1510863491.466865: $GPGSA,A,3,8,10,14,15,18,20,21,24,27,32,12,138,1.6,0.8,1.3*34
2017-11-16 15:18:12 1510863492.392995: $GPZDA,201811.00,16,11,2017,00,00*6E
2017-11-16 15:18:12 1510863492.393106: $GPGGA,201811,3946.9573,N,08404.9850,W,2,12,0.80,305.35,M,-33.324,M,,*77
2017-11-16 15:18:12 1510863492.393137: $GPRMC,201811,A,3946.9573,N,08404.9850,W,0.0000,0.000,161117,,*39
2017-11-16 15:18:12 1510863492.393165: $GPGSA,A,3,8,10,14,15,18,20,21,24,27,32,12,138,1.6,0.8,1.3*34
2017-11-16 15:18:13 1510863493.730702: $GPGSV,3,1,12,08,07,297,35,10,66,325,51,14,26,250,46,15,14,064,34*7C
2017-11-16 15:18:13 1510863493.730879: $GPGSV,3,2,12,18,73,084,47,20,11,115,26,21,33,180,45,24,47,063,49*7C
2017-11-16 15:18:13 1510863493.730939: $GPGSV,3,3,12,27,08,262,39,32,43,261,47,12,07,109,18,138,38,213,43*48
2017-11-16 15:18:13 1510863493.844056: $GPZDA,201812.00,16,11,2017,00,00*6D
2017-11-16 15:18:13 1510863493.844225: $GPGGA,201812,3946.9573,N,08404.9850,W,2,12,0.80,305.35,M,-33.324,M,,*74
2017-11-16 15:18:13 1510863493.844286: $GPRMC,201812,A,3946.9573,N,08404.9850,W,0.0000,0.000,161117,,*3A
2017-11-16 15:18:13 1510863493.844342: $GPGSA,A,3,8,10,14,15,18,20,21,24,27,32,12,138,1.6,0.8,1.3*34
2017-11-16 15:18:14 1510863494.376139: $GPZDA,201813.00,16,11,2017,00,00*6C
2017-11-16 15:18:14 1510863494.376306: $GPGGA,201813,3946.9573,N,08404.9850,W,2,12,0.80,305.35,M,-33.324,M,,*75
2017-11-16 15:18:14 1510863494.376367: $GPRMC,201813,A,3946.9573,N,08404.9850,W,0.0000,0.000,161117,,*3B
2017-11-16 15:18:14 1510863494.376423: $GPGSA,A,3,8,10,14,15,18,20,21,24,27,32,12,138,1.6,0.8,1.3*34
2017-11-16 15:18:15 1510863495.391973: $GPZDA,201814.00,16,11,2017,00,00*6B
2017-11-16 15:18:15 1510863495.392256: $GPGGA,201814,3946.9573,N,08404.9850,W,2,12,0.80,305.35,M,-33.324,M,,*72
2017-11-16 15:18:15 1510863495.392323: $GPRMC,201814,A,3946.9573,N,08404.9850,W,0.0000,0.000,161117,,*3C
2017-11-16 15:18:15 1510863495.392407: $GPGSA,A,3,8,10,14,15,18,20,21,24,27,32,12,138,1.6,0.8,1.3*34
2017-11-16 15:18:16 1510863496.729703: $GPGSV,3,1,12,08,07,297,36,10,66,325,51,14,26,250,46,15,14,064,31*7A
2017-11-16 15:18:16 1510863496.729871: $GPGSV,3,2,12,18,73,084,47,20,11,115,26,21,33,180,44,24,47,063,49*7D
2017-11-16 15:18:16 1510863496.729931: $GPGSV,3,3,12,27,08,262,39,32,43,261,47,12,07,109,23,138,38,213,44*47
2017-11-16 15:18:16 1510863496.843141: $GPZDA,201815.00,16,11,2017,00,00*6A
2017-11-16 15:18:16 1510863496.843352: $GPGGA,201815,3946.9573,N,08404.9850,W,2,12,0.80,305.35,M,-33.324,M,,*73
2017-11-16 15:18:16 1510863496.843415: $GPRMC,201815,A,3946.9573,N,08404.9850,W,0.0000,0.000,161117,,*3D
2017-11-16 15:18:16 1510863496.843491: $GPGSA,A,3,8,10,14,15,18,20,21,24,27,32,12,138,1.6,0.8,1.3*34
2017-11-16 15:18:17 1510863497.378035: $GPZDA,201816.00,16,11,2017,00,00*69
2017-11-16 15:18:17 1510863497.378206: $GPGGA,201816,3946.9573,N,08404.9850,W,2,12,0.80,305.35,M,-33.324,M,,*70
2017-11-16 15:18:17 1510863497.378267: $GPRMC,201816,A,3946.9573,N,08404.9850,W,0.0000,0.000,161117,,*3E
2017-11-16 15:18:17 1510863497.378359: $GPGSA,A,3,8,10,14,15,18,20,21,24,27,32,12,138,1.6,0.8,1.3*34
