2017-11-16 14:17:39 1510859859.158410: {"class":"VERSION","release":"3.17","rev":"3.17","proto_major":3,"proto_minor":12}
2017-11-16 14:17:39 1510859859.158965: {"class":"DEVICES","devices":[{"class":"DEVICE","path":"/dev/ttyUSB0","driver":"SiRF","subtype":"9\u0006GSD4e_4.1.2-P1_RPATCH.05-F-GPS-4R-1510281 11/03/2015 307","activated":"2017-11-16T19:17:38.817Z","flags":1,"native":1,"bps":4800,"parity":"N","stopbits":1,"cycle":1.00}]}
2017-11-16 14:17:39 1510859859.159155: {"class":"WATCH","enable":true,"json":false,"nmea":true,"raw":0,"scaled":false,"timing":false,"split24":false,"pps":false}
2017-11-16 14:17:39 1510859859.875237: $GPGSV,3,1,12,08,06,321,42,10,42,301,44,13,07,049,22,15,36,052,51*7F
2017-11-16 14:17:39 1510859859.875409: $GPGSV,3,2,12,18,72,339,47,21,62,189,46,20,32,097,45,24,51,108,48*73
2017-11-16 14:17:39 1510859859.875469: $GPGSV,3,3,12,27,19,288,39,32,21,238,46,14,05,232,00,138,38,213,44*44
2017-11-16 14:17:39 1510859859.988579: $GPZDA,191738.00,16,11,2017,00,00*60
2017-11-16 14:17:39 1510859859.988778: $GPGGA,191738,3946.9562,N,08404.9851,W,2,11,0.80,304.83,M,-33.324,M,,*77
2017-11-16 14:17:39 1510859859.988841: $GPRMC,191738,A,3946.9562,N,08404.9851,W,0.0000,0.000,161117,,*36
2017-11-16 14:17:39 1510859859.988898: $GPGSA,A,3,8,10,13,15,18,21,20,24,27,32,138,,1.6,0.8,1.3*30
2017-11-16 14:17:40 1510859860.540779: $GPZDA,191739.00,16,11,2017,00,00*61
2017-11-16 14:17:40 1510859860.540944: $GPGGA,191739,3946.9562,N,08404.9851,W,2,11,0.80,304.83,M,-33.324,M,,*76
2017-11-16 14:17:40 1510859860.541006: $GPRMC,191739,A,3946.9562,N,08404.9851,W,0.0000,0.000,161117,,*37
2017-11-16 14:17:40 1510859860.541061: $GPGSA,A,3,8,10,13,15,18,21,20,24,27,32,138,,1.6,0.8,1.3*30
2017-11-16 14:17:41 1510859861.537765: $GPZDA,191740.00,16,11,2017,00,00*6F
2017-11-16 14:17:41 1510859861.537926: $GPGGA,191740,3946.9562,N,08404.9851,W,2,11,0.80,304.83,M,-33.324,M,,*78
2017-11-16 14:17:41 1510859861.537987: $GPRMC,191740,A,3946.9562,N,08404.9851,W,0.0000,0.000,161117,,*39
2017-11-16 14:17:41 1510859861.538043: $GPGSA,A,3,8,10,13,15,18,21,20,24,27,32,138,,1.6,0.8,1.3*30
2017-11-16 14:17:42 1510859862.875978: $GPGSV,3,1,12,08,06,321,42,10,42,301,44,13,07,049,22,15,36,052,51*7F
2017-11-16 14:17:42 1510859862.876117: $GPGSV,3,2,12,18,72,339,46,21,62,189,46,20,32,097,45,24,51,108,48*72
2017-11-16 14:17:42 1510859862.876176: $GPGSV,3,3,12,27,19,288,39,32,21,238,45,14,05,232,00,138,38,213,46*45
2017-11-16 14:17:42 1510859862.989357: $GPZDA,191741.00,16,11,2017,00,00*6E
2017-11-16 14:17:42 1510859862.989555: $GPGGA,191741,3946.9562,N,08404.9851,W,2,11,0.80,304.83,M,-33.324,M,,*79
2017-11-16 14:17:42 1510859862.989633: $GPRMC,191741,A,3946.9562,N,08404.9851,W,0.0000,0.000,161117,,*38
2017-11-16 14:17:42 1510859862.989691: $GPGSA,A,3,8,10,13,15,18,21,20,24,27,32,138,,1.6,0.8,1.3*30
2017-11-16 14:17:43 1510859863.505148: $GPZDA,191742.00,16,11,2017,00,00*6D
2017-11-16 14:17:43 1510859863.505308: $GPGGA,191742,3946.9562,N,08404.9851,W,2,11,0.80,304.83,M,-33.324,M,,*7A
2017-11-16 14:17:43 1510859863.505370: $GPRMC,191742,A,3946.9562,N,08404.9851,W,0.0000,0.000,161117,,*3B
2017-11-16 14:17:43 1510859863.505426: $GPGSA,A,3,8,10,13,15,18,21,20,24,27,32,138,,1.6,0.8,1.3*30
2017-11-16 14:17:44 1510859864.500564: $GPZDA,191743.00,16,11,2017,00,00*6C
2017-11-16 14:17:44 1510859864.500738: $GPGGA,191743,3946.9562,N,08404.9851,W,2,11,0.80,304.83,M,-33.324,M,,*7B
2017-11-16 14:17:44 1510859864.500801: $GPRMC,191743,A,3946.9562,N,08404.9851,W,0.0000,0.000,161117,,*3A
2017-11-16 14:17:44 1510859864.500856: $GPGSA,A,3,8,10,13,15,18,21,20,24,27,32,138,,1.6,0.8,1.3*30
2017-11-16 14:17:45 1510859865.876224: $GPGSV,3,1,12,08,06,321,42,10,42,301,44,13,07,049,22,15,36,052,51*7F
2017-11-16 14:17:45 1510859865.876414: $GPGSV,3,2,12,18,72,339,47,21,62,189,46,20,32,097,45,24,51,108,48*73
2017-11-16 14:17:45 1510859865.876476: $GPGSV,3,3,12,27,19,288,39,32,21,238,45,14,05,232,00,138,38,213,44*47
2017-11-16 14:17:45 1510859865.988301: $GPZDA,191744.00,16,11,2017,00,00*6B
2017-11-16 14:17:45 1510859865.988496: $GPGGA,191744,3946.9562,N,08404.9851,W,2,11,0.80,304.83,M,-33.324,M,,*7C
2017-11-16 14:17:45 1510859865.988610: $GPRMC,191744,A,3946.9562,N,08404.9851,W,0.0000,0.000,161117,,*3D
2017-11-16 14:17:45 1510859865.988669: $GPGSA,A,3,8,10,13,15,18,21,20,24,27,32,138,,1.6,0.8,1.3*30
2017-11-16 14:17:46 1510859866.537893: $GPZDA,191745.00,16,11,2017,00,00*6A
2017-11-16 14:17:46 1510859866.538050: $GPGGA,191745,3946.9557,N,08404.9851,W,2,11,0.80,304.19,M,-33.324,M,,*78
2017-11-16 14:17:46 1510859866.538112: $GPRMC,191745,A,3946.9557,N,08404.9851,W,0.0000,0.000,161117,,*3A
2017-11-16 14:17:46 1510859866.538168: $GPGSA,A,3,8,10,13,15,18,21,20,24,27,32,138,,1.6,0.8,1.3*30
2017-11-16 14:17:47 1510859867.538720: $GPZDA,191746.00,16,11,2017,00,00*69
2017-11-16 14:17:47 1510859867.538883: $GPGGA,191746,3946.9557,N,08404.9851,W,2,11,0.80,304.19,M,-33.324,M,,*7B
2017-11-16 14:17:47 1510859867.538943: $GPRMC,191746,A,3946.9557,N,08404.9851,W,0.0000,0.000,161117,,*39
2017-11-16 14:17:47 1510859867.538999: $GPGSA,A,3,8,10,13,15,18,21,20,24,27,32,138,,1.6,0.8,1.3*30
2017-11-16 14:17:48 1510859868.843188: $GPGSV,3,1,12,08,06,321,41,10,42,301,44,13,07,049,23,15,36,052,51*7D
2017-11-16 14:17:48 1510859868.843392: $GPGSV,3,2,12,18,72,339,47,21,62,189,46,20,32,097,45,24,51,108,48*73
2017-11-16 14:17:48 1510859868.843455: $GPGSV,3,3,12,27,19,288,40,32,21,238,45,14,05,232,00,138,38,213,44*49
2017-11-16 14:17:48 1510859868.956623: $GPZDA,191747.00,16,11,2017,00,00*68
2017-11-16 14:17:48 1510859868.956785: $GPGGA,191747,3946.9557,N,08404.9851,W,2,11,0.80,304.19,M,-33.324,M,,*7A
2017-11-16 14:17:48 1510859868.956847: $GPRMC,191747,A,3946.9557,N,08404.9851,W,0.0000,0.000,161117,,*38
2017-11-16 14:17:48 1510859868.956903: $GPGSA,A,3,8,10,13,15,18,21,20,24,27,32,138,,1.6,0.8,1.3*30
2017-11-16 14:17:49 1510859869.582160: $GPZDA,191748.00,16,11,2017,00,00*67
2017-11-16 14:17:49 1510859869.582463: $GPGGA,191748,3946.9557,N,08404.9851,W,2,11,0.80,304.19,M,-33.324,M,,*75
2017-11-16 14:17:49 1510859869.582583: $GPRMC,191748,A,3946.9557,N,08404.9851,W,0.0000,0.000,161117,,*37
2017-11-16 14:17:49 1510859869.582681: $GPGSA,A,3,8,10,13,15,18,21,20,24,27,32,138,,1.6,0.8,1.3*30
2017-11-16 14:17:50 1510859870.506498: $GPZDA,191749.00,16,11,2017,00,00*66
2017-11-16 14:17:50 1510859870.506677: $GPGGA,191749,3946.9557,N,08404.9851,W,2,11,0.80,304.19,M,-33.324,M,,*74
2017-11-16 14:17:50 1510859870.506738: $GPRMC,191749,A,3946.9557,N,08404.9851,W,0.0000,0.000,161117,,*36
2017-11-16 14:17:50 1510859870.506793: $GPGSA,A,3,8,10,13,15,18,21,20,24,27,32,138,,1.6,0.8,1.3*30
2017-11-16 14:17:51 1510859871.842265: $GPGSV,3,1,12,08,06,321,34,10,42,301,44,13,07,049,23,15,36,052,51*7F
2017-11-16 14:17:51 1510859871.842439: $GPGSV,3,2,12,18,72,339,47,21,62,189,46,20,32,097,45,24,51,108,48*73
2017-11-16 14:17:51 1510859871.842502: $GPGSV,3,3,12,27,19,288,40,32,21,238,45,14,05,232,00,138,38,213,44*49
2017-11-16 14:17:51 1510859871.955850: $GPZDA,191750.00,16,11,2017,00,00*6E
2017-11-16 14:17:51 1510859871.956008: $GPGGA,191750,3946.9557,N,08404.9851,W,2,11,0.80,304.19,M,-33.324,M,,*7C
2017-11-16 14:17:51 1510859871.956085: $GPRMC,191750,A,3946.9557,N,08404.9851,W,0.0000,0.000,161117,,*3E
2017-11-16 14:17:51 1510859871.956143: $GPGSA,A,3,8,10,13,15,18,21,20,24,27,32,138,,1.6,0.8,1.3*30
2017-11-16 14:17:52 1510859872.506401: $GPZDA,191751.00,16,11,2017,00,00*6F
2017-11-16 14:17:52 1510859872.506585: $GPGGA,191751,3946.9557,N,08404.9851,W,2,11,0.80,304.19,M,-33.324,M,,*7D
2017-11-16 14:17:52 1510859872.506648: $GPRMC,191751,A,3946.9557,N,08404.9851,W,0.0000,0.000,161117,,*3F
2017-11-16 14:17:52 1510859872.506704: $GPGSA,A,3,8,10,13,15,18,21,20,24,27,32,138,,1.6,0.8,1.3*30
2017-11-16 14:17:53 1510859873.507170: $GPZDA,191752.00,16,11,2017,00,00*6C
2017-11-16 14:17:53 1510859873.507339: $GPGGA,191752,3946.9557,N,08404.9851,W,2,11,0.80,304.19,M,-33.324,M,,*7E
2017-11-16 14:17:53 1510859873.507400: $GPRMC,191752,A,3946.9557,N,08404.9851,W,0.0000,0.000,161117,,*3C
2017-11-16 14:17:53 1510859873.507455: $GPGSA,A,3,8,10,13,15,18,21,20,24,27,32,138,,1.6,0.8,1.3*30
