2017-12-14 11:55:23 1513270523.421728: {"class":"VERSION","release":"3.16","rev":"3.16-4","proto_major":3,"proto_minor":11}
2017-12-14 11:55:23 1513270523.422120: {"class":"DEVICES","devices":[{"class":"DEVICE","path":"/dev/ttyUSB0","driver":"SiRF","subtype":"9\u0006GSD4e_4.1.2-P1_RPATCH.05-F-GPS-4R-1510281 11/03/2015 307","activated":"2017-12-14T16:55:23.341Z","flags":1,"native":1,"bps":4800,"parity":"N","stopbits":1,"cycle":1.00}]}
2017-12-14 11:55:23 1513270523.422249: {"class":"WATCH","enable":true,"json":false,"nmea":true,"raw":0,"scaled":false,"timing":false,"split24":false,"pps":false}
2017-12-14 11:55:24 1513270524.217154: $GPZDA,165525.00,14,12,2017,00,00*64
2017-12-14 11:55:24 1513270524.217336: $GPGGA,165525,3946.9585,N,08404.9657,W,1,06,2.00,352.74,M,-33.324,M,,*77
2017-12-14 11:55:24 1513270524.217401: $GPRMC,165525,A,3946.9585,N,08404.9657,W,0.4844,273.794,141217,,*33
2017-12-14 11:55:24 1513270524.217462: $GPGSA,A,3,20,24,15,27,21,8,,,,,,,6.6,2.0,6.2*0A
2017-12-14 11:55:25 1513270525.537035: $GPGSV,3,1,11,20,42,085,24,24,44,126,21,15,47,049,14,27,19,300,11*75
2017-12-14 11:55:25 1513270525.537241: $GPGSV,3,2,11,21,73,202,22,13,17,046,00,18,64,318,05,10,33,292,08*7D
2017-12-14 11:55:25 1513270525.537309: $GPGSV,3,3,11,32,12,232,00,08,02,330,00,120,07,103,00*74
2017-12-14 11:55:25 1513270525.650471: $GPZDA,165526.00,14,12,2017,00,00*67
2017-12-14 11:55:25 1513270525.650627: $GPGGA,165526,3946.9585,N,08404.9657,W,1,05,2.00,352.74,M,-33.324,M,,*77
2017-12-14 11:55:25 1513270525.650709: $GPRMC,165526,A,3946.9585,N,08404.9657,W,0.7267,273.794,141217,,*38
2017-12-14 11:55:25 1513270525.650772: $GPGSA,A,3,20,24,15,27,21,,,,,,,,6.6,2.0,6.2*32
2017-12-14 11:55:26 1513270526.216906: $GPZDA,165527.00,14,12,2017,00,00*66
2017-12-14 11:55:26 1513270526.217083: $GPGGA,165527,3946.9585,N,08404.9657,W,1,05,2.00,352.74,M,-33.324,M,,*76
2017-12-14 11:55:26 1513270526.217150: $GPRMC,165527,A,3946.9585,N,08404.9657,W,0.7621,287.945,141217,,*36
2017-12-14 11:55:26 1513270526.217212: $GPGSA,A,3,20,24,15,27,21,,,,,,,,6.6,2.0,6.2*32
2017-12-14 11:55:27 1513270527.217008: $GPZDA,165528.00,14,12,2017,00,00*69
2017-12-14 11:55:27 1513270527.217192: $GPGGA,165528,3946.9588,N,08404.9649,W,1,05,2.00,352.05,M,-33.324,M,,*7D
2017-12-14 11:55:27 1513270527.217275: $GPRMC,165528,A,3946.9588,N,08404.9649,W,0.7238,320.710,141217,,*35
2017-12-14 11:55:27 1513270527.217336: $GPGSA,A,3,20,24,15,27,21,,,,,,,,6.6,2.0,6.2*32
2017-12-14 11:55:28 1513270528.536384: $GPGSV,3,1,11,20,42,085,24,24,44,126,21,15,47,049,14,27,19,300,11*75
2017-12-14 11:55:28 1513270528.536549: $GPGSV,3,2,11,21,73,202,20,08,02,330,11,18,64,318,04,10,33,292,09*73
2017-12-14 11:55:28 1513270528.536615: $GPGSV,3,3,11,13,17,046,00,32,12,232,00,120,07,103,00*78
2017-12-14 11:55:28 1513270528.649850: $GPZDA,165529.00,14,12,2017,00,00*68
2017-12-14 11:55:28 1513270528.650036: $GPGGA,165529,3946.9592,N,08404.9642,W,1,05,2.00,352.77,M,-33.324,M,,*79
2017-12-14 11:55:28 1513270528.650103: $GPRMC,165529,A,3946.9592,N,08404.9642,W,1.2381,352.270,141217,,*35
2017-12-14 11:55:28 1513270528.650164: $GPGSA,A,3,20,24,15,27,21,,,,,,,,6.6,2.0,6.2*32
2017-12-14 11:55:29 1513270529.217543: $GPZDA,165530.00,14,12,2017,00,00*60
2017-12-14 11:55:29 1513270529.217701: $GPGGA,165530,3946.9595,N,08404.9635,W,1,05,2.00,352.09,M,-33.324,M,,*7F
2017-12-14 11:55:29 1513270529.217767: $GPRMC,165530,A,3946.9595,N,08404.9635,W,0.8414,39.347,141217,,*01
2017-12-14 11:55:29 1513270529.217849: $GPGSA,A,3,20,24,15,27,21,,,,,,,,6.6,2.0,6.2*32
2017-12-14 11:55:30 1513270530.220115: $GPZDA,165531.00,14,12,2017,00,00*61
2017-12-14 11:55:30 1513270530.220282: $GPGGA,165531,3946.9599,N,08404.9628,W,1,05,2.00,352.81,M,-33.324,M,,*7E
2017-12-14 11:55:30 1513270530.220348: $GPRMC,165531,A,3946.9599,N,08404.9628,W,1.2621,39.347,141217,,*0F
2017-12-14 11:55:30 1513270530.220409: $GPGSA,A,3,20,24,15,27,21,,,,,,,,6.6,2.0,6.2*32
2017-12-14 11:55:31 1513270531.553792: $GPGSV,3,1,11,20,42,085,24,24,44,126,21,15,47,049,16,27,19,300,06*71
2017-12-14 11:55:31 1513270531.553943: $GPGSV,3,2,11,21,73,202,21,13,17,046,00,18,64,318,08,10,33,292,12*78
2017-12-14 11:55:31 1513270531.554042: $GPGSV,3,3,11,32,12,232,00,08,02,330,00,120,07,103,00*74
2017-12-14 11:55:31 1513270531.667237: $GPZDA,165532.00,14,12,2017,00,00*62
2017-12-14 11:55:31 1513270531.667365: $GPGGA,165532,3946.9599,N,08404.9621,W,1,06,1.80,352.89,M,-33.324,M,,*74
2017-12-14 11:55:31 1513270531.667430: $GPRMC,165532,A,3946.9599,N,08404.9621,W,0.8414,39.347,141217,,*0A
2017-12-14 11:55:31 1513270531.667491: $GPGSA,A,3,20,24,15,27,21,10,,,,,,,6.6,1.8,6.2*38
2017-12-14 11:55:32 1513270532.219875: $GPZDA,165533.00,14,12,2017,00,00*63
2017-12-14 11:55:32 1513270532.220167: $GPGGA,165533,3946.9606,N,08404.9613,W,1,06,1.80,352.84,M,-33.324,M,,*7C
2017-12-14 11:55:32 1513270532.220310: $GPRMC,165533,A,3946.9606,N,08404.9613,W,0.5774,27.515,141217,,*09
2017-12-14 11:55:32 1513270532.220414: $GPGSA,A,3,20,24,15,27,21,10,,,,,,,6.6,1.8,6.2*38
2017-12-14 11:55:33 1513270533.203709: $GPZDA,165534.00,14,12,2017,00,00*64
2017-12-14 11:55:33 1513270533.203899: $GPGGA,165534,3946.9605,N,08404.9606,W,1,06,1.80,352.92,M,-33.324,M,,*7B
2017-12-14 11:55:33 1513270533.203981: $GPRMC,165534,A,3946.9605,N,08404.9606,W,0.7153,2.007,141217,,*39
2017-12-14 11:55:33 1513270533.204044: $GPGSA,A,3,20,24,15,27,21,10,,,,,,,6.6,1.8,6.2*38
2017-12-14 11:55:34 1513270534.555617: $GPGSV,3,1,11,20,42,085,24,24,44,126,22,15,47,049,16,27,19,300,06*72
2017-12-14 11:55:34 1513270534.555790: $GPGSV,3,2,11,21,73,202,21,13,17,046,00,18,64,318,11,10,33,292,12*70
2017-12-14 11:55:34 1513270534.555877: $GPGSV,3,3,11,32,12,232,00,08,02,330,00,120,07,103,00*74
2017-12-14 11:55:34 1513270534.669068: $GPZDA,165535.00,14,12,2017,00,00*65
2017-12-14 11:55:34 1513270534.669234: $GPGGA,165535,3946.9609,N,08404.9599,W,1,07,1.80,353.64,M,-33.324,M,,*7A
2017-12-14 11:55:34 1513270534.669299: $GPRMC,165535,A,3946.9609,N,08404.9599,W,0.5287,2.716,141217,,*3E
2017-12-14 11:55:34 1513270534.669360: $GPGSA,A,3,20,24,15,27,21,18,10,,,,,,6.6,1.8,6.2*31
2017-12-14 11:55:35 1513270535.220445: $GPZDA,165536.00,14,12,2017,00,00*66
2017-12-14 11:55:35 1513270535.220596: $GPGGA,165536,3946.9612,N,08404.9591,W,1,07,1.80,352.95,M,-33.324,M,,*74
2017-12-14 11:55:35 1513270535.220661: $GPRMC,165536,A,3946.9612,N,08404.9591,W,0.5774,27.515,141217,,*00
2017-12-14 11:55:35 1513270535.220722: $GPGSA,A,3,20,24,15,27,21,18,10,,,,,,6.6,1.8,6.2*31
2017-12-14 11:55:36 1513270536.220660: $GPZDA,165537.00,14,12,2017,00,00*67
2017-12-14 11:55:36 1513270536.220850: $GPGGA,165537,3946.9612,N,08404.9584,W,1,07,1.80,353.03,M,-33.324,M,,*7F
2017-12-14 11:55:36 1513270536.220919: $GPRMC,165537,A,3946.9612,N,08404.9584,W,0.2422,93.794,141217,,*06
2017-12-14 11:55:36 1513270536.220997: $GPGSA,A,3,20,24,15,27,21,18,10,,,,,,6.6,1.8,6.2*31
2017-12-14 11:55:37 1513270537.539336: $GPGSV,3,1,11,20,42,085,24,24,44,126,22,15,47,049,17,27,19,300,05*70
2017-12-14 11:55:37 1513270537.539511: $GPGSV,3,2,11,21,73,202,21,13,17,046,00,18,64,318,11,10,33,292,13*71
2017-12-14 11:55:37 1513270537.539577: $GPGSV,3,3,11,32,12,232,00,08,02,330,00,120,07,103,00*74
2017-12-14 11:55:37 1513270537.653223: $GPZDA,165538.00,14,12,2017,00,00*68
2017-12-14 11:55:37 1513270537.653387: $GPGGA,165538,3946.9612,N,08404.9577,W,1,06,1.80,353.11,M,-33.324,M,,*7E
2017-12-14 11:55:37 1513270537.653453: $GPRMC,165538,A,3946.9612,N,08404.9577,W,0.1567,189.201,141217,,*35
2017-12-14 11:55:37 1513270537.653514: $GPGSA,A,3,20,24,15,21,18,10,,,,,,,6.6,1.8,6.2*34
2017-12-14 11:55:38 1513270538.202581: $GPZDA,165539.00,14,12,2017,00,00*69
2017-12-14 11:55:38 1513270538.202747: $GPGGA,165539,3946.9612,N,08404.9577,W,1,06,1.80,353.11,M,-33.324,M,,*7F
2017-12-14 11:55:38 1513270538.202834: $GPRMC,165539,A,3946.9612,N,08404.9577,W,0.1567,189.201,141217,,*34
2017-12-14 11:55:38 1513270538.202898: $GPGSA,A,3,20,24,15,21,18,10,,,,,,,6.6,1.8,6.2*34
2017-12-14 11:55:39 1513270539.203988: $GPZDA,165540.00,14,12,2017,00,00*67
2017-12-14 11:55:39 1513270539.204152: $GPGGA,165540,3946.9615,N,08404.9570,W,1,06,1.80,353.83,M,-33.324,M,,*7A
2017-12-14 11:55:39 1513270539.204218: $GPRMC,165540,A,3946.9615,N,08404.9570,W,0.1567,189.201,141217,,*3A
2017-12-14 11:55:39 1513270539.204331: $GPGSA,A,3,20,24,15,21,18,10,,,,,,,6.6,1.8,6.2*34
2017-12-14 11:55:40 1513270540.539895: $GPGSV,3,1,11,20,42,085,25,24,44,126,22,15,47,049,18,27,19,300,04*7F
2017-12-14 11:55:40 1513270540.540087: $GPGSV,3,2,11,21,73,202,21,13,17,046,00,18,64,318,11,10,33,292,14*76
2017-12-14 11:55:40 1513270540.540153: $GPGSV,3,3,11,32,12,232,00,08,02,330,00,120,07,103,00*74
2017-12-14 11:55:40 1513270540.653320: $GPZDA,165541.00,14,12,2017,00,00*66
2017-12-14 11:55:40 1513270540.653464: $GPGGA,165541,3946.9615,N,08404.9564,W,1,06,1.80,353.91,M,-33.324,M,,*7D
2017-12-14 11:55:40 1513270540.653530: $GPRMC,165541,A,3946.9615,N,08404.9564,W,0.2959,54.767,141217,,*08
2017-12-14 11:55:40 1513270540.653590: $GPGSA,A,3,20,24,15,21,18,10,,,,,,,6.6,1.8,6.2*34
2017-12-14 11:55:41 1513270541.203581: $GPZDA,165542.00,14,12,2017,00,00*65
2017-12-14 11:55:41 1513270541.203757: $GPGGA,165542,3946.9615,N,08404.9557,W,1,06,1.80,353.99,M,-33.324,M,,*76
2017-12-14 11:55:41 1513270541.203854: $GPRMC,165542,A,3946.9615,N,08404.9557,W,0.4315,34.066,141217,,*0F
2017-12-14 11:55:41 1513270541.203917: $GPGSA,A,3,20,24,15,21,18,10,,,,,,,6.6,1.8,6.2*34
2017-12-14 11:55:42 1513270542.203566: $GPZDA,165543.00,14,12,2017,00,00*64
2017-12-14 11:55:42 1513270542.203742: $GPGGA,165543,3946.9614,N,08404.9550,W,1,06,1.80,354.07,M,-33.324,M,,*71
2017-12-14 11:55:42 1513270542.203835: $GPRMC,165543,A,3946.9614,N,08404.9550,W,0.4315,34.066,141217,,*08
2017-12-14 11:55:42 1513270542.203898: $GPGSA,A,3,20,24,15,21,18,10,,,,,,,6.6,1.8,6.2*34
