2017-11-15 19:52:08 1510793528.122545: {"class":"VERSION","release":"3.17","rev":"3.17","proto_major":3,"proto_minor":12}
2017-11-15 19:52:08 1510793528.123017: {"class":"DEVICES","devices":[{"class":"DEVICE","path":"/dev/ttyUSB0","driver":"SiRF","subtype":"9\u0006GSD4e_4.1.2-P1_RPATCH.05-F-GPS-4R-1510281 11/03/2015 307","activated":"2017-11-16T00:52:07.489Z","flags":1,"native":1,"bps":4800,"parity":"N","stopbits":1,"cycle":1.00}]}
2017-11-15 19:52:08 1510793528.123130: {"class":"WATCH","enable":true,"json":false,"nmea":true,"raw":0,"scaled":false,"timing":false,"split24":false,"pps":false}
2017-11-15 19:52:08 1510793528.330836: $GPZDA,005207.00,16,11,2017,00,00*65
2017-11-15 19:52:08 1510793528.331030: $GPGGA,005207,3946.9540,N,08404.9602,W,1,07,1.20,297.14,M,-33.324,M,,*70
2017-11-15 19:52:08 1510793528.331098: $GPRMC,005207,A,3946.9540,N,08404.9602,W,0.7621,287.945,161117,,*3C
2017-11-15 19:52:08 1510793528.331155: $GPGSA,A,3,32,16,31,26,14,22,23,,,,,,3.4,1.2,2.9*39
2017-11-15 19:52:09 1510793529.681235: $GPGSV,3,1,11,32,28,115,07,16,33,190,12,31,59,039,16,26,64,166,27*7F
2017-11-15 19:52:09 1510793529.681378: $GPGSV,3,2,11,14,47,105,21,22,49,255,16,03,44,288,04,23,19,304,20*78
2017-11-15 19:52:09 1510793529.681439: $GPGSV,3,3,11,29,13,061,00,25,09,037,00,138,38,213,00*7C
2017-11-15 19:52:09 1510793529.794554: $GPZDA,005208.00,16,11,2017,00,00*6A
2017-11-15 19:52:09 1510793529.794717: $GPGGA,005208,3946.9540,N,08404.9602,W,1,07,1.20,297.14,M,-33.324,M,,*7F
2017-11-15 19:52:09 1510793529.794779: $GPRMC,005208,A,3946.9540,N,08404.9602,W,0.4844,273.794,161117,,*34
2017-11-15 19:52:09 1510793529.794838: $GPGSA,A,3,32,16,31,26,14,22,23,,,,,,3.4,1.2,2.9*39
2017-11-15 19:52:10 1510793530.329196: $GPZDA,005209.00,16,11,2017,00,00*6B
2017-11-15 19:52:10 1510793530.329363: $GPGGA,005209,3946.9540,N,08404.9602,W,1,07,1.20,297.14,M,-33.324,M,,*7E
2017-11-15 19:52:10 1510793530.329428: $GPRMC,005209,A,3946.9540,N,08404.9602,W,0.0000,0.000,161117,,*35
2017-11-15 19:52:10 1510793530.329484: $GPGSA,A,3,32,16,31,26,14,22,23,,,,,,3.4,1.2,2.9*39
2017-11-15 19:52:11 1510793531.330817: $GPZDA,005210.00,16,11,2017,00,00*63
2017-11-15 19:52:11 1510793531.330992: $GPGGA,005210,3946.9544,N,08404.9602,W,1,07,1.20,297.78,M,-33.324,M,,*78
2017-11-15 19:52:11 1510793531.331058: $GPRMC,005210,A,3946.9544,N,08404.9602,W,0.4207,39.347,161117,,*02
2017-11-15 19:52:11 1510793531.331114: $GPGSA,A,3,32,16,31,26,14,22,23,,,,,,3.4,1.2,2.9*39
2017-11-15 19:52:12 1510793532.665360: $GPGSV,3,1,11,32,28,115,04,16,33,190,11,31,59,039,16,26,64,166,27*7F
2017-11-15 19:52:12 1510793532.665536: $GPGSV,3,2,11,14,47,105,21,22,49,255,16,03,44,288,16,23,19,304,20*7B
2017-11-15 19:52:12 1510793532.665596: $GPGSV,3,3,11,29,13,061,00,25,09,037,00,138,38,213,00*7C
2017-11-15 19:52:12 1510793532.778612: $GPZDA,005211.00,16,11,2017,00,00*62
2017-11-15 19:52:12 1510793532.778735: $GPGGA,005211,3946.9548,N,08404.9601,W,1,07,1.20,297.01,M,-33.324,M,,*78
2017-11-15 19:52:12 1510793532.778799: $GPRMC,005211,A,3946.9548,N,08404.9601,W,0.5951,58.684,161117,,*08
2017-11-15 19:52:12 1510793532.778853: $GPGSA,A,3,16,31,26,14,22,3,23,,,,,,3.4,1.2,2.9*0B
2017-11-15 19:52:13 1510793533.346064: $GPZDA,005212.00,16,11,2017,00,00*61
2017-11-15 19:52:13 1510793533.346237: $GPGGA,005212,3946.9547,N,08404.9594,W,1,07,1.20,297.09,M,-33.324,M,,*73
2017-11-15 19:52:13 1510793533.346300: $GPRMC,005212,A,3946.9547,N,08404.9594,W,0.4844,93.794,161117,,*08
2017-11-15 19:52:13 1510793533.346355: $GPGSA,A,3,16,31,26,14,22,3,23,,,,,,3.4,1.2,2.9*0B
2017-11-15 19:52:14 1510793534.329206: $GPZDA,005213.00,16,11,2017,00,00*60
2017-11-15 19:52:14 1510793534.329373: $GPGGA,005213,3946.9547,N,08404.9594,W,1,07,1.20,297.09,M,-33.324,M,,*72
2017-11-15 19:52:14 1510793534.329437: $GPRMC,005213,A,3946.9547,N,08404.9594,W,0.2422,93.794,161117,,*03
2017-11-15 19:52:14 1510793534.329493: $GPGSA,A,3,16,31,26,14,22,3,23,,,,,,3.4,1.2,2.9*0B
2017-11-15 19:52:15 1510793535.666232: $GPGSV,3,1,11,32,28,115,04,16,33,190,10,31,59,039,16,26,64,166,27*7E
2017-11-15 19:52:15 1510793535.666405: $GPGSV,3,2,11,14,47,105,21,22,49,255,16,03,44,288,17,23,19,304,20*7A
2017-11-15 19:52:15 1510793535.666517: $GPGSV,3,3,11,29,13,061,00,25,09,037,00,138,38,213,00*7C
2017-11-15 19:52:15 1510793535.779523: $GPZDA,005214.00,16,11,2017,00,00*67
2017-11-15 19:52:15 1510793535.779687: $GPGGA,005214,3946.9547,N,08404.9594,W,1,07,1.20,297.09,M,-33.324,M,,*75
2017-11-15 19:52:15 1510793535.779749: $GPRMC,005214,A,3946.9547,N,08404.9594,W,0.4844,273.794,161117,,*32
2017-11-15 19:52:15 1510793535.779808: $GPGSA,A,3,16,31,26,14,22,3,23,,,,,,3.4,1.2,2.9*0B
2017-11-15 19:52:16 1510793536.405162: $GPZDA,005215.00,16,11,2017,00,00*66
2017-11-15 19:52:16 1510793536.405326: $GPGGA,005215,3946.9547,N,08404.9594,W,1,07,1.20,297.09,M,-33.324,M,,*74
2017-11-15 19:52:16 1510793536.405388: $GPRMC,005215,A,3946.9547,N,08404.9594,W,0.2422,93.794,161117,,*05
2017-11-15 19:52:16 1510793536.405443: $GPGSA,A,3,16,31,26,14,22,3,23,,,,,,3.4,1.2,2.9*0B
2017-11-15 19:52:17 1510793537.346194: $GPZDA,005216.00,16,11,2017,00,00*65
2017-11-15 19:52:17 1510793537.346357: $GPGGA,005216,3946.9547,N,08404.9594,W,1,07,1.20,297.09,M,-33.324,M,,*77
2017-11-15 19:52:17 1510793537.346420: $GPRMC,005216,A,3946.9547,N,08404.9594,W,0.4179,148.778,161117,,*3E
2017-11-15 19:52:17 1510793537.346476: $GPGSA,A,3,16,31,26,14,22,3,23,,,,,,3.4,1.2,2.9*0B
