2017-12-31 17:03:26 1514757806.858914: {"class":"VERSION","release":"3.16","rev":"3.16-4","proto_major":3,"proto_minor":11}
2017-12-31 17:03:26 1514757806.859299: {"class":"DEVICES","devices":[{"class":"DEVICE","path":"/dev/ttyUSB0","driver":"SiRF","activated":"2017-12-31T22:03:26.517Z","flags":1,"native":1,"bps":4800,"parity":"N","stopbits":1,"cycle":1.00}]}
2017-12-31 17:03:26 1514757806.859420: {"class":"WATCH","enable":true,"json":false,"nmea":true,"raw":0,"scaled":false,"timing":false,"split24":false,"pps":false}
2017-12-31 17:03:27 1514757807.679875: $GPGSV,3,1,11,22,44,240,41,23,27,307,38,25,02,037,15,03,46,271,40*77
2017-12-31 17:03:27 1514757807.680045: $GPGSV,3,2,11,16,46,190,44,29,14,055,31,31,50,051,51,14,41,114,37*7E
2017-12-31 17:03:27 1514757807.680113: $GPGSV,3,3,11,32,19,121,42,26,74,144,46,135,22,240,42*77
2017-12-31 17:03:27 1514757807.792039: $GPZDA,220328.00,31,12,2017,00,00*6A
2017-12-31 17:03:27 1514757807.792227: $GPGGA,220328,3946.9587,N,08404.9854,W,2,11,1.00,302.21,M,-33.324,M,,*72
2017-12-31 17:03:27 1514757807.792312: $GPRMC,220328,A,3946.9587,N,08404.9854,W,0.0000,0.000,311217,,*32
2017-12-31 17:03:27 1514757807.792375: $GPGSA,A,3,22,23,25,3,16,29,31,14,32,26,135,,1.7,1.0,1.3*3B
2017-12-31 17:03:28 1514757808.359181: $GPZDA,220329.00,31,12,2017,00,00*6B
2017-12-31 17:03:28 1514757808.359357: $GPGGA,220329,3946.9587,N,08404.9854,W,2,11,1.00,302.21,M,-33.324,M,,*73
2017-12-31 17:03:28 1514757808.359424: $GPRMC,220329,A,3946.9587,N,08404.9854,W,0.0000,0.000,311217,,*33
2017-12-31 17:03:28 1514757808.359486: $GPGSA,A,3,22,23,25,3,16,29,31,14,32,26,135,,1.7,1.0,1.3*3B
2017-12-31 17:03:29 1514757809.361330: $GPZDA,220330.00,31,12,2017,00,00*63
2017-12-31 17:03:29 1514757809.361489: $GPGGA,220330,3946.9587,N,08404.9854,W,2,11,1.00,302.21,M,-33.324,M,,*7B
2017-12-31 17:03:29 1514757809.361556: $GPRMC,220330,A,3946.9587,N,08404.9854,W,0.0000,0.000,311217,,*3B
2017-12-31 17:03:29 1514757809.361617: $GPGSA,A,3,22,23,25,3,16,29,31,14,32,26,135,,1.7,1.0,1.3*3B
2017-12-31 17:03:30 1514757810.678975: $GPGSV,3,1,11,22,44,240,41,23,27,307,38,25,02,037,15,03,46,271,40*77
2017-12-31 17:03:30 1514757810.679149: $GPGSV,3,2,11,16,46,190,44,29,14,055,30,31,50,051,51,14,41,114,37*7F
2017-12-31 17:03:30 1514757810.679217: $GPGSV,3,3,11,32,19,121,42,26,74,144,46,135,22,240,42*77
2017-12-31 17:03:30 1514757810.792374: $GPZDA,220331.00,31,12,2017,00,00*62
2017-12-31 17:03:30 1514757810.792525: $GPGGA,220331,3946.9587,N,08404.9854,W,2,11,1.00,302.21,M,-33.324,M,,*7A
2017-12-31 17:03:30 1514757810.792615: $GPRMC,220331,A,3946.9587,N,08404.9854,W,0.0000,0.000,311217,,*3A
2017-12-31 17:03:30 1514757810.792677: $GPGSA,A,3,22,23,25,3,16,29,31,14,32,26,135,,1.7,1.0,1.3*3B
2017-12-31 17:03:31 1514757811.344590: $GPZDA,220332.00,31,12,2017,00,00*61
2017-12-31 17:03:31 1514757811.344751: $GPGGA,220332,3946.9587,N,08404.9854,W,2,11,1.00,302.21,M,-33.324,M,,*79
2017-12-31 17:03:31 1514757811.344818: $GPRMC,220332,A,3946.9587,N,08404.9854,W,0.0000,0.000,311217,,*39
2017-12-31 17:03:31 1514757811.344881: $GPGSA,A,3,22,23,25,3,16,29,31,14,32,26,135,,1.7,1.0,1.3*3B
2017-12-31 17:03:32 1514757812.344422: $GPZDA,220333.00,31,12,2017,00,00*60
2017-12-31 17:03:32 1514757812.344586: $GPGGA,220333,3946.9587,N,08404.9854,W,2,11,1.00,302.21,M,-33.324,M,,*78
2017-12-31 17:03:32 1514757812.344654: $GPRMC,220333,A,3946.9587,N,08404.9854,W,0.0000,0.000,311217,,*38
2017-12-31 17:03:32 1514757812.344716: $GPGSA,A,3,22,23,25,3,16,29,31,14,32,26,135,,1.7,1.0,1.3*3B
2017-12-31 17:03:33 1514757813.679806: $GPGSV,3,1,11,22,44,240,41,23,27,307,38,25,02,037,14,03,46,271,40*76
2017-12-31 17:03:33 1514757813.679950: $GPGSV,3,2,11,16,46,190,44,29,14,055,30,31,50,051,51,14,41,114,37*7F
2017-12-31 17:03:33 1514757813.680018: $GPGSV,3,3,11,32,19,121,42,26,74,144,46,135,22,240,43*76
2017-12-31 17:03:33 1514757813.793140: $GPZDA,220334.00,31,12,2017,00,00*67
2017-12-31 17:03:33 1514757813.793278: $GPGGA,220334,3946.9587,N,08404.9854,W,2,11,1.00,302.21,M,-33.324,M,,*7F
2017-12-31 17:03:33 1514757813.793345: $GPRMC,220334,A,3946.9587,N,08404.9854,W,0.0000,0.000,311217,,*3F
2017-12-31 17:03:33 1514757813.793455: $GPGSA,A,3,22,23,25,3,16,29,31,14,32,26,135,,1.7,1.0,1.3*3B
2017-12-31 17:03:34 1514757814.344040: $GPZDA,220335.00,31,12,2017,00,00*66
2017-12-31 17:03:34 1514757814.344199: $GPGGA,220335,3946.9587,N,08404.9854,W,2,11,1.00,302.21,M,-33.324,M,,*7E
2017-12-31 17:03:34 1514757814.344269: $GPRMC,220335,A,3946.9587,N,08404.9854,W,0.0000,0.000,311217,,*3E
2017-12-31 17:03:34 1514757814.344330: $GPGSA,A,3,22,23,25,3,16,29,31,14,32,26,135,,1.7,1.0,1.3*3B
2017-12-31 17:03:35 1514757815.343299: $GPZDA,220336.00,31,12,2017,00,00*65
2017-12-31 17:03:35 1514757815.343459: $GPGGA,220336,3946.9587,N,08404.9854,W,2,11,1.00,302.21,M,-33.324,M,,*7D
2017-12-31 17:03:35 1514757815.343526: $GPRMC,220336,A,3946.9587,N,08404.9854,W,0.0000,0.000,311217,,*3D
2017-12-31 17:03:35 1514757815.343590: $GPGSA,A,3,22,23,25,3,16,29,31,14,32,26,135,,1.7,1.0,1.3*3B
