2017-12-31 17:00:59 1514757659.096521: {"class":"VERSION","release":"3.16","rev":"3.16-4","proto_major":3,"proto_minor":11}
2017-12-31 17:00:59 1514757659.096856: {"class":"DEVICES","devices":[{"class":"DEVICE","path":"/dev/ttyUSB0","driver":"SiRF","activated":"2017-12-31T22:00:58.501Z","flags":1,"native":1,"bps":4800,"parity":"N","stopbits":1,"cycle":1.00}]}
2017-12-31 17:00:59 1514757659.096954: {"class":"WATCH","enable":true,"json":false,"nmea":true,"raw":0,"scaled":false,"timing":false,"split24":false,"pps":false}
2017-12-31 17:00:59 1514757659.360097: $GPZDA,220100.00,31,12,2017,00,00*62
2017-12-31 17:00:59 1514757659.360268: $GPGGA,220100,3946.9584,N,08404.9855,W,2,10,1.00,302.98,M,-33.324,M,,*7B
2017-12-31 17:00:59 1514757659.360337: $GPRMC,220100,A,3946.9584,N,08404.9855,W,0.0000,0.000,311217,,*38
2017-12-31 17:00:59 1514757659.360398: $GPGSA,A,3,22,23,25,3,16,31,14,32,26,135,,,1.7,1.0,1.3*30
2017-12-31 17:01:00 1514757660.672582: $GPGSV,3,1,11,22,45,243,40,23,26,307,41,25,03,037,22,03,46,274,41*7A
2017-12-31 17:01:00 1514757660.672763: $GPGSV,3,2,11,16,44,190,44,29,14,057,26,31,51,049,51,14,42,112,39*7B
2017-12-31 17:01:00 1514757660.672828: $GPGSV,3,3,11,32,20,121,44,26,73,148,46,135,22,240,42*70
2017-12-31 17:01:00 1514757660.784935: $GPZDA,220101.00,31,12,2017,00,00*63
2017-12-31 17:01:00 1514757660.785074: $GPGGA,220101,3946.9584,N,08404.9855,W,2,11,1.00,302.98,M,-33.324,M,,*7B
2017-12-31 17:01:00 1514757660.785138: $GPRMC,220101,A,3946.9584,N,08404.9855,W,0.0000,0.000,311217,,*39
2017-12-31 17:01:00 1514757660.785198: $GPGSA,A,3,22,23,25,3,16,29,31,14,32,26,135,,1.7,1.0,1.3*3B
2017-12-31 17:01:01 1514757661.344581: $GPZDA,220102.00,31,12,2017,00,00*60
2017-12-31 17:01:01 1514757661.344744: $GPGGA,220102,3946.9584,N,08404.9855,W,2,11,1.00,302.98,M,-33.324,M,,*78
2017-12-31 17:01:01 1514757661.344810: $GPRMC,220102,A,3946.9584,N,08404.9855,W,0.0000,0.000,311217,,*3A
2017-12-31 17:01:01 1514757661.344871: $GPGSA,A,3,22,23,25,3,16,29,31,14,32,26,135,,1.7,1.0,1.3*3B
2017-12-31 17:01:02 1514757662.336688: $GPZDA,220103.00,31,12,2017,00,00*61
2017-12-31 17:01:02 1514757662.336847: $GPGGA,220103,3946.9584,N,08404.9855,W,2,11,1.00,302.98,M,-33.324,M,,*79
2017-12-31 17:01:02 1514757662.336914: $GPRMC,220103,A,3946.9584,N,08404.9855,W,0.0000,0.000,311217,,*3B
2017-12-31 17:01:02 1514757662.336975: $GPGSA,A,3,22,23,25,3,16,29,31,14,32,26,135,,1.7,1.0,1.3*3B
2017-12-31 17:01:03 1514757663.679682: $GPGSV,3,1,11,22,45,243,40,23,26,307,40,25,03,037,22,03,46,274,41*7B
2017-12-31 17:01:03 1514757663.679844: $GPGSV,3,2,11,16,44,190,44,29,14,057,26,31,51,049,51,14,42,112,39*7B
2017-12-31 17:01:03 1514757663.679910: $GPGSV,3,3,11,32,20,121,44,26,73,148,46,135,22,240,43*71
2017-12-31 17:01:03 1514757663.793263: $GPZDA,220104.00,31,12,2017,00,00*66
2017-12-31 17:01:03 1514757663.793394: $GPGGA,220104,3946.9584,N,08404.9855,W,2,11,1.00,302.98,M,-33.324,M,,*7E
2017-12-31 17:01:03 1514757663.793474: $GPRMC,220104,A,3946.9584,N,08404.9855,W,0.0000,0.000,311217,,*3C
2017-12-31 17:01:03 1514757663.793537: $GPGSA,A,3,22,23,25,3,16,29,31,14,32,26,135,,1.7,1.0,1.3*3B
2017-12-31 17:01:04 1514757664.342916: $GPZDA,220105.00,31,12,2017,00,00*67
2017-12-31 17:01:04 1514757664.343074: $GPGGA,220105,3946.9584,N,08404.9855,W,2,11,1.00,302.98,M,-33.324,M,,*7F
2017-12-31 17:01:04 1514757664.343139: $GPRMC,220105,A,3946.9584,N,08404.9855,W,0.0000,0.000,311217,,*3D
2017-12-31 17:01:04 1514757664.343216: $GPGSA,A,3,22,23,25,3,16,29,31,14,32,26,135,,1.7,1.0,1.3*3B
2017-12-31 17:01:05 1514757665.344540: $GPZDA,220106.00,31,12,2017,00,00*64
2017-12-31 17:01:05 1514757665.344722: $GPGGA,220106,3946.9584,N,08404.9855,W,2,11,1.00,302.98,M,-33.324,M,,*7C
2017-12-31 17:01:05 1514757665.344808: $GPRMC,220106,A,3946.9584,N,08404.9855,W,0.0000,0.000,311217,,*3E
2017-12-31 17:01:05 1514757665.344871: $GPGSA,A,3,22,23,25,3,16,29,31,14,32,26,135,,1.7,1.0,1.3*3B
2017-12-31 17:01:06 1514757666.688769: $GPGSV,3,1,11,22,45,243,41,23,26,307,40,25,03,037,22,03,46,274,41*7A
2017-12-31 17:01:06 1514757666.688948: $GPGSV,3,2,11,16,44,190,44,29,14,057,25,31,51,049,50,14,42,112,38*78
2017-12-31 17:01:06 1514757666.689068: $GPGSV,3,3,11,32,20,121,44,26,73,148,46,135,22,240,42*70
2017-12-31 17:01:06 1514757666.802364: $GPZDA,220107.00,31,12,2017,00,00*65
2017-12-31 17:01:06 1514757666.802515: $GPGGA,220107,3946.9584,N,08404.9855,W,2,11,1.00,302.98,M,-33.324,M,,*7D
2017-12-31 17:01:06 1514757666.802581: $GPRMC,220107,A,3946.9584,N,08404.9855,W,0.0000,0.000,311217,,*3F
2017-12-31 17:01:06 1514757666.802642: $GPGSA,A,3,22,23,25,3,16,29,31,14,32,26,135,,1.7,1.0,1.3*3B
2017-12-31 17:01:07 1514757667.337021: $GPZDA,220108.00,31,12,2017,00,00*6A
2017-12-31 17:01:07 1514757667.337233: $GPGGA,220108,3946.9584,N,08404.9855,W,2,11,1.00,302.98,M,-33.324,M,,*72
2017-12-31 17:01:07 1514757667.337301: $GPRMC,220108,A,3946.9584,N,08404.9855,W,0.0000,0.000,311217,,*30
2017-12-31 17:01:07 1514757667.337362: $GPGSA,A,3,22,23,25,3,16,29,31,14,32,26,135,,1.7,1.0,1.3*3B
2017-12-31 17:01:08 1514757668.360374: $GPZDA,220109.00,31,12,2017,00,00*6B
2017-12-31 17:01:08 1514757668.360547: $GPGGA,220109,3946.9584,N,08404.9855,W,2,11,1.00,302.98,M,-33.324,M,,*73
2017-12-31 17:01:08 1514757668.360613: $GPRMC,220109,A,3946.9584,N,08404.9855,W,0.0000,0.000,311217,,*31
2017-12-31 17:01:08 1514757668.360674: $GPGSA,A,3,22,23,25,3,16,29,31,14,32,26,135,,1.7,1.0,1.3*3B
