2017-12-31 16:46:43 1514756803.824886: {"class":"VERSION","release":"3.16","rev":"3.16-4","proto_major":3,"proto_minor":11}
2017-12-31 16:46:43 1514756803.825232: {"class":"DEVICES","devices":[{"class":"DEVICE","path":"/dev/ttyUSB0","driver":"SiRF","activated":"2017-12-31T21:46:43.477Z","flags":1,"native":1,"bps":4800,"parity":"N","stopbits":1,"cycle":1.00}]}
2017-12-31 16:46:43 1514756803.825330: {"class":"WATCH","enable":true,"json":false,"nmea":true,"raw":0,"scaled":false,"timing":false,"split24":false,"pps":false}
2017-12-31 16:46:44 1514756804.337205: $GPZDA,214645.00,31,12,2017,00,00*63
2017-12-31 16:46:44 1514756804.337370: $GPGGA,214645,3946.9576,N,08404.9848,W,2,11,0.80,303.18,M,-33.324,M,,*7A
2017-12-31 16:46:44 1514756804.337435: $GPRMC,214645,A,3946.9576,N,08404.9848,W,0.0000,0.000,311217,,*38
2017-12-31 16:46:44 1514756804.337495: $GPGSA,A,3,22,23,25,3,16,29,31,14,32,26,135,,1.7,0.8,1.3*32
2017-12-31 16:46:45 1514756805.679650: $GPGSV,3,1,11,22,48,250,45,23,21,306,43,25,08,037,36,03,45,283,23*75
2017-12-31 16:46:45 1514756805.679815: $GPGSV,3,2,11,16,37,189,47,29,13,063,14,31,56,043,52,14,47,106,46*73
2017-12-31 16:46:45 1514756805.679881: $GPGSV,3,3,11,32,25,117,43,26,67,160,41,135,22,240,44*79
2017-12-31 16:46:45 1514756805.793303: $GPZDA,214646.00,31,12,2017,00,00*60
2017-12-31 16:46:45 1514756805.793451: $GPGGA,214646,3946.9576,N,08404.9848,W,2,11,0.80,303.18,M,-33.324,M,,*79
2017-12-31 16:46:45 1514756805.793515: $GPRMC,214646,A,3946.9576,N,08404.9848,W,0.0000,0.000,311217,,*3B
2017-12-31 16:46:45 1514756805.793574: $GPGSA,A,3,22,23,25,3,16,29,31,14,32,26,135,,1.7,0.8,1.3*32
2017-12-31 16:46:46 1514756806.344172: $GPZDA,214647.00,31,12,2017,00,00*61
2017-12-31 16:46:46 1514756806.344333: $GPGGA,214647,3946.9576,N,08404.9848,W,2,11,0.80,303.18,M,-33.324,M,,*78
2017-12-31 16:46:46 1514756806.344398: $GPRMC,214647,A,3946.9576,N,08404.9848,W,0.0000,0.000,311217,,*3A
2017-12-31 16:46:46 1514756806.344458: $GPGSA,A,3,22,23,25,3,16,29,31,14,32,26,135,,1.7,0.8,1.3*32
2017-12-31 16:46:47 1514756807.360058: $GPZDA,214648.00,31,12,2017,00,00*6E
2017-12-31 16:46:47 1514756807.360235: $GPGGA,214648,3946.9576,N,08404.9848,W,2,11,0.80,303.18,M,-33.324,M,,*77
2017-12-31 16:46:47 1514756807.360301: $GPRMC,214648,A,3946.9576,N,08404.9848,W,0.0000,0.000,311217,,*35
2017-12-31 16:46:47 1514756807.360360: $GPGSA,A,3,22,23,25,3,16,29,31,14,32,26,135,,1.7,0.8,1.3*32
2017-12-31 16:46:48 1514756808.679258: $GPGSV,3,1,11,22,48,250,45,23,21,306,43,25,08,037,36,03,45,283,33*74
2017-12-31 16:46:48 1514756808.679417: $GPGSV,3,2,11,16,37,189,47,29,13,063,15,31,56,043,52,14,47,106,46*72
2017-12-31 16:46:48 1514756808.679482: $GPGSV,3,3,11,32,25,117,44,26,67,160,41,135,22,240,43*79
2017-12-31 16:46:48 1514756808.792853: $GPZDA,214649.00,31,12,2017,00,00*6F
2017-12-31 16:46:48 1514756808.792983: $GPGGA,214649,3946.9576,N,08404.9848,W,2,11,0.80,303.18,M,-33.324,M,,*76
2017-12-31 16:46:48 1514756808.793047: $GPRMC,214649,A,3946.9576,N,08404.9848,W,0.0000,0.000,311217,,*34
2017-12-31 16:46:48 1514756808.793107: $GPGSA,A,3,22,23,25,3,16,29,31,14,32,26,135,,1.7,0.8,1.3*32
2017-12-31 16:46:49 1514756809.345005: $GPZDA,214650.00,31,12,2017,00,00*67
2017-12-31 16:46:49 1514756809.345170: $GPGGA,214650,3946.9576,N,08404.9848,W,2,11,0.80,303.18,M,-33.324,M,,*7E
2017-12-31 16:46:49 1514756809.345236: $GPRMC,214650,A,3946.9576,N,08404.9848,W,0.0000,0.000,311217,,*3C
2017-12-31 16:46:49 1514756809.345296: $GPGSA,A,3,22,23,25,3,16,29,31,14,32,26,135,,1.7,0.8,1.3*32
2017-12-31 16:46:50 1514756810.360389: $GPZDA,214651.00,31,12,2017,00,00*66
2017-12-31 16:46:50 1514756810.360550: $GPGGA,214651,3946.9576,N,08404.9848,W,2,11,0.80,303.18,M,-33.324,M,,*7F
2017-12-31 16:46:50 1514756810.360616: $GPRMC,214651,A,3946.9576,N,08404.9848,W,0.0000,0.000,311217,,*3D
2017-12-31 16:46:50 1514756810.360675: $GPGSA,A,3,22,23,25,3,16,29,31,14,32,26,135,,1.7,0.8,1.3*32
2017-12-31 16:46:51 1514756811.679578: $GPGSV,3,1,11,22,48,250,45,23,21,306,43,25,08,037,36,03,45,283,32*75
2017-12-31 16:46:51 1514756811.679730: $GPGSV,3,2,11,16,37,189,47,29,13,063,21,31,56,043,52,14,47,106,46*75
2017-12-31 16:46:51 1514756811.679849: $GPGSV,3,3,11,32,25,117,44,26,67,160,41,135,22,240,44*7E
2017-12-31 16:46:51 1514756811.793205: $GPZDA,214652.00,31,12,2017,00,00*65
2017-12-31 16:46:51 1514756811.793321: $GPGGA,214652,3946.9576,N,08404.9848,W,2,11,0.80,303.18,M,-33.324,M,,*7C
2017-12-31 16:46:51 1514756811.793384: $GPRMC,214652,A,3946.9576,N,08404.9848,W,0.0000,0.000,311217,,*3E
2017-12-31 16:46:51 1514756811.793444: $GPGSA,A,3,22,23,25,3,16,29,31,14,32,26,135,,1.7,0.8,1.3*32
2017-12-31 16:46:52 1514756812.360550: $GPZDA,214653.00,31,12,2017,00,00*64
2017-12-31 16:46:52 1514756812.360705: $GPGGA,214653,3946.9576,N,08404.9848,W,2,11,0.80,303.18,M,-33.324,M,,*7D
2017-12-31 16:46:52 1514756812.360771: $GPRMC,214653,A,3946.9576,N,08404.9848,W,0.0000,0.000,311217,,*3F
2017-12-31 16:46:52 1514756812.360832: $GPGSA,A,3,22,23,25,3,16,29,31,14,32,26,135,,1.7,0.8,1.3*32
2017-12-31 16:46:53 1514756813.344728: $GPZDA,214654.00,31,12,2017,00,00*63
2017-12-31 16:46:53 1514756813.344893: $GPGGA,214654,3946.9576,N,08404.9848,W,2,11,0.80,303.18,M,-33.324,M,,*7A
2017-12-31 16:46:53 1514756813.344960: $GPRMC,214654,A,3946.9576,N,08404.9848,W,0.0000,0.000,311217,,*38
2017-12-31 16:46:53 1514756813.345021: $GPGSA,A,3,22,23,25,3,16,29,31,14,32,26,135,,1.7,0.8,1.3*32
