2017-12-01 14:06:00 1512155160.247015: {"class":"VERSION","release":"3.16","rev":"3.16-4","proto_major":3,"proto_minor":11}
2017-12-01 14:06:00 1512155160.247465: {"class":"DEVICES","devices":[{"class":"DEVICE","path":"/dev/ttyUSB0","driver":"SiRF","subtype":"9\u0006GSD4e_4.1.2-P1_RPATCH.05-F-GPS-4R-1510281 11/03/2015 307","activated":"2017-12-01T19:06:00.188Z","flags":1,"native":1,"bps":4800,"parity":"N","stopbits":1,"cycle":1.00}]}
2017-12-01 14:06:00 1512155160.247670: {"class":"WATCH","enable":true,"json":false,"nmea":true,"raw":0,"scaled":false,"timing":false,"split24":false,"pps":false}
2017-12-01 14:06:00 1512155160.702943: $GPGSV,3,1,12,10,62,321,49,14,23,247,41,15,17,063,36,18,75,069,42*70
2017-12-01 14:06:00 1512155160.703116: $GPGSV,3,2,12,20,15,112,32,21,37,180,44,24,50,069,48,27,11,267,42*70
2017-12-01 14:06:00 1512155160.703194: $GPGSV,3,3,12,32,40,256,44,08,07,301,27,12,04,114,16,138,38,213,47*40
2017-12-01 14:06:00 1512155160.814805: $GPZDA,190601.00,01,12,2017,00,00*6F
2017-12-01 14:06:00 1512155160.814989: $GPGGA,190601,3946.9558,N,08404.9831,W,2,12,0.80,307.24,M,-33.324,M,,*7F
2017-12-01 14:06:00 1512155160.815056: $GPRMC,190601,A,3946.9558,N,08404.9831,W,0.0000,0.000,011217,,*36
2017-12-01 14:06:00 1512155160.815118: $GPGSA,A,3,10,14,15,18,20,21,24,27,32,8,12,138,2.0,0.8,1.5*37
2017-12-01 14:06:01 1512155161.365921: $GPZDA,190602.00,01,12,2017,00,00*6C
2017-12-01 14:06:01 1512155161.366092: $GPGGA,190602,3946.9558,N,08404.9831,W,2,12,0.80,307.24,M,-33.324,M,,*7C
2017-12-01 14:06:01 1512155161.366159: $GPRMC,190602,A,3946.9558,N,08404.9831,W,0.0000,0.000,011217,,*35
2017-12-01 14:06:01 1512155161.366220: $GPGSA,A,3,10,14,15,18,20,21,24,27,32,8,12,138,2.0,0.8,1.5*37
2017-12-01 14:06:02 1512155162.336692: $GPZDA,190603.00,01,12,2017,00,00*6D
2017-12-01 14:06:02 1512155162.336948: $GPGGA,190603,3946.9558,N,08404.9831,W,2,12,0.80,307.24,M,-33.324,M,,*7D
2017-12-01 14:06:02 1512155162.337053: $GPRMC,190603,A,3946.9558,N,08404.9831,W,0.0000,0.000,011217,,*34
2017-12-01 14:06:02 1512155162.337117: $GPGSA,A,3,10,14,15,18,20,21,24,27,32,8,12,138,2.0,0.8,1.5*37
2017-12-01 14:06:03 1512155163.673073: $GPGSV,3,1,12,10,62,321,49,14,23,247,41,15,17,063,35,18,75,069,42*73
2017-12-01 14:06:03 1512155163.673253: $GPGSV,3,2,12,20,15,112,32,21,37,180,44,24,50,069,48,27,11,267,42*70
2017-12-01 14:06:03 1512155163.673320: $GPGSV,3,3,12,32,40,256,44,08,07,301,28,12,04,114,10,138,38,213,46*48
2017-12-01 14:06:03 1512155163.786644: $GPZDA,190604.00,01,12,2017,00,00*6A
2017-12-01 14:06:03 1512155163.786804: $GPGGA,190604,3946.9558,N,08404.9831,W,2,12,0.80,307.24,M,-33.324,M,,*7A
2017-12-01 14:06:03 1512155163.786872: $GPRMC,190604,A,3946.9558,N,08404.9831,W,0.0000,0.000,011217,,*33
2017-12-01 14:06:03 1512155163.786933: $GPGSA,A,3,10,14,15,18,20,21,24,27,32,8,12,138,2.0,0.8,1.5*37
2017-12-01 14:06:04 1512155164.337472: $GPZDA,190605.00,01,12,2017,00,00*6B
2017-12-01 14:06:04 1512155164.337641: $GPGGA,190605,3946.9558,N,08404.9831,W,2,12,0.80,307.24,M,-33.324,M,,*7B
2017-12-01 14:06:04 1512155164.337708: $GPRMC,190605,A,3946.9558,N,08404.9831,W,0.0000,0.000,011217,,*32
2017-12-01 14:06:04 1512155164.337769: $GPGSA,A,3,10,14,15,18,20,21,24,27,32,8,12,138,2.0,0.8,1.5*37
2017-12-01 14:06:05 1512155165.335841: $GPZDA,190606.00,01,12,2017,00,00*68
2017-12-01 14:06:05 1512155165.336015: $GPGGA,190606,3946.9558,N,08404.9831,W,2,12,0.80,307.24,M,-33.324,M,,*78
2017-12-01 14:06:05 1512155165.336083: $GPRMC,190606,A,3946.9558,N,08404.9831,W,0.0000,0.000,011217,,*31
2017-12-01 14:06:05 1512155165.336144: $GPGSA,A,3,10,14,15,18,20,21,24,27,32,8,12,138,2.0,0.8,1.5*37
2017-12-01 14:06:06 1512155166.666360: $GPGSV,3,1,12,10,62,321,50,14,23,247,39,15,17,063,34,18,75,069,42*75
2017-12-01 14:06:06 1512155166.666544: $GPGSV,3,2,12,20,15,112,32,21,37,180,44,24,50,069,48,27,11,267,42*70
2017-12-01 14:06:06 1512155166.666611: $GPGSV,3,3,12,32,40,256,44,08,07,301,28,12,04,114,10,138,38,213,46*48
2017-12-01 14:06:06 1512155166.779730: $GPZDA,190607.00,01,12,2017,00,00*69
2017-12-01 14:06:06 1512155166.779909: $GPGGA,190607,3946.9558,N,08404.9831,W,2,12,0.80,307.24,M,-33.324,M,,*79
2017-12-01 14:06:06 1512155166.780026: $GPRMC,190607,A,3946.9558,N,08404.9831,W,0.0000,0.000,011217,,*30
2017-12-01 14:06:06 1512155166.780089: $GPGSA,A,3,10,14,15,18,20,21,24,27,32,8,12,138,2.0,0.8,1.5*37
2017-12-01 14:06:07 1512155167.453645: $GPZDA,190608.00,01,12,2017,00,00*66
2017-12-01 14:06:07 1512155167.454004: $GPGGA,190608,3946.9558,N,08404.9831,W,2,12,0.80,307.24,M,-33.324,M,,*76
2017-12-01 14:06:07 1512155167.457470: $GPRMC,190608,A,3946.9558,N,08404.9831,W,0.0000,0.000,011217,,*3F
2017-12-01 14:06:07 1512155167.457594: $GPGSA,A,3,10,14,15,18,20,21,24,27,32,8,12,138,2.0,0.8,1.5*37
2017-12-01 14:06:07 1512155167.457660: $GPGBS,190608,2.67,M,3.86,M,8.82,M*34
2017-12-01 14:06:08 1512155168.337630: $GPZDA,190609.00,01,12,2017,00,00*67
2017-12-01 14:06:08 1512155168.337810: $GPGGA,190609,3946.9558,N,08404.9831,W,2,12,0.80,307.24,M,-33.324,M,,*77
2017-12-01 14:06:08 1512155168.337881: $GPRMC,190609,A,3946.9558,N,08404.9831,W,0.0000,0.000,011217,,*3E
2017-12-01 14:06:08 1512155168.338877: $GPGSA,A,3,10,14,15,18,20,21,24,27,32,8,12,138,2.0,0.8,1.5*37
2017-12-01 14:06:08 1512155168.338954: $GPGBS,190609,2.67,M,3.86,M,8.82,M*35
2017-12-01 14:06:09 1512155169.672100: $GPGSV,3,1,12,10,62,321,50,14,23,247,39,15,17,063,34,18,75,069,42*75
2017-12-01 14:06:09 1512155169.672280: $GPGSV,3,2,12,20,15,112,32,21,37,180,43,24,50,069,48,27,11,267,42*77
2017-12-01 14:06:09 1512155169.672351: $GPGSV,3,3,12,32,40,256,44,08,07,301,27,12,04,114,16,138,38,213,46*41
2017-12-01 14:06:09 1512155169.785708: $GPZDA,190610.00,01,12,2017,00,00*6F
2017-12-01 14:06:09 1512155169.785889: $GPGGA,190610,3946.9558,N,08404.9831,W,2,12,0.80,307.24,M,-33.324,M,,*7F
2017-12-01 14:06:09 1512155169.785957: $GPRMC,190610,A,3946.9558,N,08404.9831,W,0.0000,0.000,011217,,*36
2017-12-01 14:06:09 1512155169.786020: $GPGSA,A,3,10,14,15,18,20,21,24,27,32,8,12,138,2.0,0.8,1.5*37
2017-12-01 14:06:10 1512155170.336256: $GPZDA,190611.00,01,12,2017,00,00*6E
2017-12-01 14:06:10 1512155170.336428: $GPGGA,190611,3946.9558,N,08404.9831,W,2,12,0.80,307.24,M,-33.324,M,,*7E
2017-12-01 14:06:10 1512155170.336496: $GPRMC,190611,A,3946.9558,N,08404.9831,W,0.0000,0.000,011217,,*37
2017-12-01 14:06:10 1512155170.336558: $GPGSA,A,3,10,14,15,18,20,21,24,27,32,8,12,138,2.0,0.8,1.5*37
2017-12-01 14:06:11 1512155171.338597: $GPZDA,190612.00,01,12,2017,00,00*6D
2017-12-01 14:06:11 1512155171.338781: $GPGGA,190612,3946.9558,N,08404.9831,W,2,12,0.80,307.24,M,-33.324,M,,*7D
2017-12-01 14:06:11 1512155171.338848: $GPRMC,190612,A,3946.9558,N,08404.9831,W,0.0000,0.000,011217,,*34
2017-12-01 14:06:11 1512155171.338913: $GPGSA,A,3,10,14,15,18,20,21,24,27,32,8,12,138,2.0,0.8,1.5*37
2017-12-01 14:06:12 1512155172.667925: $GPGSV,3,1,12,10,62,321,50,14,23,247,40,15,17,063,34,18,75,069,42*7B
2017-12-01 14:06:12 1512155172.668156: $GPGSV,3,2,12,20,15,112,32,21,37,180,43,24,50,069,48,27,11,267,42*77
2017-12-01 14:06:12 1512155172.668248: $GPGSV,3,3,12,32,40,256,44,08,07,301,27,12,04,114,00,138,38,213,47*47
2017-12-01 14:06:12 1512155172.781207: $GPZDA,190613.00,01,12,2017,00,00*6C
2017-12-01 14:06:12 1512155172.781415: $GPGGA,190613,3946.9558,N,08404.9831,W,2,11,0.80,307.24,M,-33.324,M,,*7F
2017-12-01 14:06:12 1512155172.781494: $GPRMC,190613,A,3946.9558,N,08404.9831,W,0.0000,0.000,011217,,*35
2017-12-01 14:06:12 1512155172.781558: $GPGSA,A,3,10,14,15,18,20,21,24,27,32,8,138,,2.0,0.8,1.5*34
2017-12-01 14:06:13 1512155173.406658: $GPZDA,190614.00,01,12,2017,00,00*6B
2017-12-01 14:06:13 1512155173.406836: $GPGGA,190614,3946.9558,N,08404.9831,W,2,11,0.80,307.24,M,-33.324,M,,*78
2017-12-01 14:06:13 1512155173.406905: $GPRMC,190614,A,3946.9558,N,08404.9831,W,0.0000,0.000,011217,,*32
2017-12-01 14:06:13 1512155173.406966: $GPGSA,A,3,10,14,15,18,20,21,24,27,32,8,138,,2.0,0.8,1.5*34
2017-12-01 14:06:14 1512155174.337064: $GPZDA,190615.00,01,12,2017,00,00*6A
2017-12-01 14:06:14 1512155174.337306: $GPGGA,190615,3946.9558,N,08404.9831,W,2,11,0.80,307.24,M,-33.324,M,,*79
2017-12-01 14:06:14 1512155174.337405: $GPRMC,190615,A,3946.9558,N,08404.9831,W,0.0000,0.000,011217,,*33
2017-12-01 14:06:14 1512155174.337549: $GPGSA,A,3,10,14,15,18,20,21,24,27,32,8,138,,2.0,0.8,1.5*34
