2017-12-29 10:56:14 1514562974.716598: {"class":"VERSION","release":"3.16","rev":"3.16-4","proto_major":3,"proto_minor":11}
2017-12-29 10:56:14 1514562974.716953: {"class":"DEVICES","devices":[{"class":"DEVICE","path":"/dev/ttyUSB0","driver":"SiRF","subtype":"9\u0006GSD4e_4.1.2-P1_RPATCH.05-F-GPS-4R-1510281 11/03/2015 307","activated":"2017-12-29T15:56:14.675Z","flags":1,"native":1,"bps":4800,"parity":"N","stopbits":1,"cycle":1.00}]}
2017-12-29 10:56:14 1514562974.717069: {"class":"WATCH","enable":true,"json":false,"nmea":true,"raw":0,"scaled":false,"timing":false,"split24":false,"pps":false}
2017-12-29 10:56:14 1514562974.789616: $GPZDA,155615.00,29,12,2017,00,00*69
2017-12-29 10:56:14 1514562974.789757: $GPGGA,155615,3946.9605,N,08404.9811,W,2,10,0.80,304.48,M,-33.324,M,,*71
2017-12-29 10:56:14 1514562974.789822: $GPRMC,155615,A,3946.9605,N,08404.9811,W,0.0000,0.000,291217,,*39
2017-12-29 10:56:14 1514562974.789882: $GPGSA,A,3,10,13,15,18,20,21,24,27,32,138,,,1.7,0.8,1.3*09
2017-12-29 10:56:15 1514562975.338811: $GPZDA,155616.00,29,12,2017,00,00*6A
2017-12-29 10:56:15 1514562975.338973: $GPGGA,155616,3946.9605,N,08404.9811,W,2,10,0.80,304.48,M,-33.324,M,,*72
2017-12-29 10:56:15 1514562975.339040: $GPRMC,155616,A,3946.9605,N,08404.9811,W,0.0000,0.000,291217,,*3A
2017-12-29 10:56:15 1514562975.339101: $GPGSA,A,3,10,13,15,18,20,21,24,27,32,138,,,1.7,0.8,1.3*09
2017-12-29 10:56:16 1514562976.341805: $GPZDA,155617.00,29,12,2017,00,00*6B
2017-12-29 10:56:16 1514562976.341998: $GPGGA,155617,3946.9601,N,08404.9811,W,2,10,0.80,303.84,M,-33.324,M,,*70
2017-12-29 10:56:16 1514562976.342068: $GPRMC,155617,A,3946.9601,N,08404.9811,W,0.0000,0.000,291217,,*3F
2017-12-29 10:56:16 1514562976.342130: $GPGSA,A,3,10,13,15,18,20,21,24,27,32,138,,,1.7,0.8,1.3*09
2017-12-29 10:56:17 1514562977.673622: $GPGSV,3,1,11,10,34,294,42,13,15,046,39,15,46,051,50,18,65,321,44*77
2017-12-29 10:56:17 1514562977.673790: $GPGSV,3,2,11,20,42,087,50,21,73,202,46,24,45,123,50,27,19,298,35*79
2017-12-29 10:56:17 1514562977.673857: $GPGSV,3,3,11,32,14,232,24,08,02,330,28,138,38,213,44*79
2017-12-29 10:56:17 1514562977.787380: $GPZDA,155618.00,29,12,2017,00,00*64
2017-12-29 10:56:17 1514562977.787540: $GPGGA,155618,3946.9601,N,08404.9811,W,2,11,0.80,303.84,M,-33.324,M,,*7E
2017-12-29 10:56:17 1514562977.787606: $GPRMC,155618,A,3946.9601,N,08404.9811,W,0.0000,0.000,291217,,*30
2017-12-29 10:56:17 1514562977.787666: $GPGSA,A,3,10,13,15,18,20,21,24,27,32,8,138,,1.7,0.8,1.3*31
2017-12-29 10:56:18 1514562978.339450: $GPZDA,155619.00,29,12,2017,00,00*65
2017-12-29 10:56:18 1514562978.339630: $GPGGA,155619,3946.9601,N,08404.9811,W,2,11,0.80,303.84,M,-33.324,M,,*7F
2017-12-29 10:56:18 1514562978.339698: $GPRMC,155619,A,3946.9601,N,08404.9811,W,0.0000,0.000,291217,,*31
2017-12-29 10:56:18 1514562978.339759: $GPGSA,A,3,10,13,15,18,20,21,24,27,32,8,138,,1.7,0.8,1.3*31
2017-12-29 10:56:19 1514562979.342897: $GPZDA,155620.00,29,12,2017,00,00*6F
2017-12-29 10:56:19 1514562979.343063: $GPGGA,155620,3946.9596,N,08404.9811,W,2,11,0.80,301.80,M,-33.324,M,,*7E
2017-12-29 10:56:19 1514562979.343130: $GPRMC,155620,A,3946.9596,N,08404.9811,W,0.0000,0.000,291217,,*36
2017-12-29 10:56:19 1514562979.343191: $GPGSA,A,3,10,13,15,18,20,21,24,27,32,8,138,,1.7,0.8,1.3*31
2017-12-29 10:56:20 1514562980.677018: $GPGSV,3,1,11,10,34,294,42,13,15,046,39,15,46,051,50,18,65,321,44*77
2017-12-29 10:56:20 1514562980.677186: $GPGSV,3,2,11,20,42,087,50,21,73,202,46,24,45,123,50,27,19,298,34*78
2017-12-29 10:56:20 1514562980.677253: $GPGSV,3,3,11,32,14,232,22,08,02,330,29,138,38,213,44*7E
2017-12-29 10:56:20 1514562980.790434: $GPZDA,155621.00,29,12,2017,00,00*6E
2017-12-29 10:56:20 1514562980.790586: $GPGGA,155621,3946.9596,N,08404.9811,W,2,11,0.80,301.80,M,-33.324,M,,*7F
2017-12-29 10:56:20 1514562980.790653: $GPRMC,155621,A,3946.9596,N,08404.9811,W,0.0000,0.000,291217,,*37
2017-12-29 10:56:20 1514562980.790713: $GPGSA,A,3,10,13,15,18,20,21,24,27,32,8,138,,1.7,0.8,1.3*31
2017-12-29 10:56:21 1514562981.415857: $GPZDA,155622.00,29,12,2017,00,00*6D
2017-12-29 10:56:21 1514562981.416023: $GPGGA,155622,3946.9596,N,08404.9811,W,2,11,0.80,301.80,M,-33.324,M,,*7C
2017-12-29 10:56:21 1514562981.416143: $GPRMC,155622,A,3946.9596,N,08404.9811,W,0.0000,0.000,291217,,*34
2017-12-29 10:56:21 1514562981.416205: $GPGSA,A,3,10,13,15,18,20,21,24,27,32,8,138,,1.7,0.8,1.3*31
2017-12-29 10:56:22 1514562982.337855: $GPZDA,155623.00,29,12,2017,00,00*6C
2017-12-29 10:56:22 1514562982.338041: $GPGGA,155623,3946.9596,N,08404.9811,W,2,11,0.80,301.80,M,-33.324,M,,*7D
2017-12-29 10:56:22 1514562982.338108: $GPRMC,155623,A,3946.9596,N,08404.9811,W,0.0000,0.000,291217,,*35
2017-12-29 10:56:22 1514562982.338168: $GPGSA,A,3,10,13,15,18,20,21,24,27,32,8,138,,1.7,0.8,1.3*31
2017-12-29 10:56:23 1514562983.676092: $GPGSV,3,1,11,10,34,294,43,13,15,046,39,15,46,051,50,18,65,321,44*76
2017-12-29 10:56:23 1514562983.676246: $GPGSV,3,2,11,20,42,087,50,21,73,202,46,24,45,123,50,27,19,298,35*79
2017-12-29 10:56:23 1514562983.676312: $GPGSV,3,3,11,32,14,232,25,08,02,330,30,138,38,213,46*73
2017-12-29 10:56:23 1514562983.789783: $GPZDA,155624.00,29,12,2017,00,00*6B
2017-12-29 10:56:23 1514562983.789943: $GPGGA,155624,3946.9596,N,08404.9811,W,2,11,0.80,301.80,M,-33.324,M,,*7A
2017-12-29 10:56:23 1514562983.790007: $GPRMC,155624,A,3946.9596,N,08404.9811,W,0.0000,0.000,291217,,*32
2017-12-29 10:56:23 1514562983.790067: $GPGSA,A,3,10,13,15,18,20,21,24,27,32,8,138,,1.7,0.8,1.3*31
2017-12-29 10:56:24 1514562984.340618: $GPZDA,155625.00,29,12,2017,00,00*6A
2017-12-29 10:56:24 1514562984.340781: $GPGGA,155625,3946.9596,N,08404.9811,W,2,11,0.80,301.80,M,-33.324,M,,*7B
2017-12-29 10:56:24 1514562984.340848: $GPRMC,155625,A,3946.9596,N,08404.9811,W,0.0000,0.000,291217,,*33
2017-12-29 10:56:24 1514562984.340908: $GPGSA,A,3,10,13,15,18,20,21,24,27,32,8,138,,1.7,0.8,1.3*31
2017-12-29 10:56:25 1514562985.341549: $GPZDA,155626.00,29,12,2017,00,00*69
2017-12-29 10:56:25 1514562985.341708: $GPGGA,155626,3946.9596,N,08404.9811,W,2,11,0.80,301.80,M,-33.324,M,,*78
2017-12-29 10:56:25 1514562985.341774: $GPRMC,155626,A,3946.9596,N,08404.9811,W,0.0000,0.000,291217,,*30
2017-12-29 10:56:25 1514562985.341835: $GPGSA,A,3,10,13,15,18,20,21,24,27,32,8,138,,1.7,0.8,1.3*31
2017-12-29 10:56:26 1514562986.675210: $GPGSV,3,1,11,10,34,294,43,13,15,046,39,15,46,051,50,18,65,321,44*76
2017-12-29 10:56:26 1514562986.675377: $GPGSV,3,2,11,20,42,087,50,21,73,202,47,24,45,123,50,27,19,298,36*7B
2017-12-29 10:56:26 1514562986.675444: $GPGSV,3,3,11,32,14,232,25,08,02,330,29,138,38,213,44*79
2017-12-29 10:56:26 1514562986.788839: $GPZDA,155627.00,29,12,2017,00,00*68
2017-12-29 10:56:26 1514562986.788980: $GPGGA,155627,3946.9596,N,08404.9811,W,2,11,0.80,301.80,M,-33.324,M,,*79
2017-12-29 10:56:26 1514562986.789043: $GPRMC,155627,A,3946.9596,N,08404.9811,W,0.0000,0.000,291217,,*31
2017-12-29 10:56:26 1514562986.789103: $GPGSA,A,3,10,13,15,18,20,21,24,27,32,8,138,,1.7,0.8,1.3*31
2017-12-29 10:56:27 1514562987.340818: $GPZDA,155628.00,29,12,2017,00,00*67
2017-12-29 10:56:27 1514562987.342607: $GPGGA,155628,3946.9596,N,08404.9811,W,2,11,0.80,301.80,M,-33.324,M,,*76
2017-12-29 10:56:27 1514562987.342734: $GPRMC,155628,A,3946.9596,N,08404.9811,W,0.0000,0.000,291217,,*3E
2017-12-29 10:56:27 1514562987.342816: $GPGSA,A,3,10,13,15,18,20,21,24,27,32,8,138,,1.7,0.8,1.3*31
2017-12-29 10:56:28 1514562988.339413: $GPZDA,155629.00,29,12,2017,00,00*66
2017-12-29 10:56:28 1514562988.339570: $GPGGA,155629,3946.9596,N,08404.9811,W,2,11,0.80,301.80,M,-33.324,M,,*77
2017-12-29 10:56:28 1514562988.339654: $GPRMC,155629,A,3946.9596,N,08404.9811,W,0.0000,0.000,291217,,*3F
2017-12-29 10:56:28 1514562988.339716: $GPGSA,A,3,10,13,15,18,20,21,24,27,32,8,138,,1.7,0.8,1.3*31
2017-12-29 10:56:29 1514562989.676099: $GPGSV,3,1,11,10,34,294,43,13,15,046,39,15,46,051,50,18,65,321,44*76
2017-12-29 10:56:29 1514562989.676260: $GPGSV,3,2,11,20,42,087,50,21,73,202,47,24,45,123,50,27,19,298,35*78
2017-12-29 10:56:29 1514562989.676345: $GPGSV,3,3,11,32,14,232,24,08,02,330,29,138,38,213,44*78
2017-12-29 10:56:29 1514562989.788510: $GPZDA,155630.00,29,12,2017,00,00*6E
2017-12-29 10:56:29 1514562989.788671: $GPGGA,155630,3946.9596,N,08404.9811,W,2,11,0.80,301.80,M,-33.324,M,,*7F
2017-12-29 10:56:29 1514562989.788780: $GPRMC,155630,A,3946.9596,N,08404.9811,W,0.0000,0.000,291217,,*37
2017-12-29 10:56:29 1514562989.788862: $GPGSA,A,3,10,13,15,18,20,21,24,27,32,8,138,,1.7,0.8,1.3*31
2017-12-29 10:56:30 1514562990.339405: $GPZDA,155631.00,29,12,2017,00,00*6F
2017-12-29 10:56:30 1514562990.339577: $GPGGA,155631,3946.9596,N,08404.9811,W,2,11,0.80,301.80,M,-33.324,M,,*7E
2017-12-29 10:56:30 1514562990.339658: $GPRMC,155631,A,3946.9596,N,08404.9811,W,0.0000,0.000,291217,,*36
2017-12-29 10:56:30 1514562990.339720: $GPGSA,A,3,10,13,15,18,20,21,24,27,32,8,138,,1.7,0.8,1.3*31
2017-12-29 10:56:31 1514562991.342267: $GPZDA,155632.00,29,12,2017,00,00*6C
2017-12-29 10:56:31 1514562991.342432: $GPGGA,155632,3946.9596,N,08404.9811,W,2,11,0.80,301.80,M,-33.324,M,,*7D
2017-12-29 10:56:31 1514562991.342498: $GPRMC,155632,A,3946.9596,N,08404.9811,W,0.0000,0.000,291217,,*35
2017-12-29 10:56:31 1514562991.342559: $GPGSA,A,3,10,13,15,18,20,21,24,27,32,8,138,,1.7,0.8,1.3*31
2017-12-29 10:56:32 1514562992.677678: $GPGSV,3,1,11,10,34,294,44,13,15,046,39,15,46,051,49,18,65,321,44*79
2017-12-29 10:56:32 1514562992.677852: $GPGSV,3,2,11,20,42,087,50,21,73,202,46,24,45,123,50,27,19,298,35*79
2017-12-29 10:56:32 1514562992.677919: $GPGSV,3,3,11,32,14,232,24,08,02,330,00,138,38,213,44*73
2017-12-29 10:56:32 1514562992.791376: $GPZDA,155633.00,29,12,2017,00,00*6D
2017-12-29 10:56:32 1514562992.791520: $GPGGA,155633,3946.9596,N,08404.9811,W,2,10,0.80,301.80,M,-33.324,M,,*7D
2017-12-29 10:56:32 1514562992.791584: $GPRMC,155633,A,3946.9596,N,08404.9811,W,0.0000,0.000,291217,,*34
2017-12-29 10:56:32 1514562992.791643: $GPGSA,A,3,10,13,15,18,20,21,24,27,32,138,,,1.7,0.8,1.3*09
2017-12-29 10:56:33 1514562993.340961: $GPZDA,155634.00,29,12,2017,00,00*6A
2017-12-29 10:56:33 1514562993.341172: $GPGGA,155634,3946.9596,N,08404.9811,W,2,10,0.80,301.80,M,-33.324,M,,*7A
2017-12-29 10:56:33 1514562993.341240: $GPRMC,155634,A,3946.9596,N,08404.9811,W,0.0000,0.000,291217,,*33
2017-12-29 10:56:33 1514562993.341301: $GPGSA,A,3,10,13,15,18,20,21,24,27,32,138,,,1.7,0.8,1.3*09
2017-12-29 10:56:34 1514562994.344332: $GPZDA,155635.00,29,12,2017,00,00*6B
2017-12-29 10:56:34 1514562994.344495: $GPGGA,155635,3946.9596,N,08404.9811,W,2,10,0.80,301.80,M,-33.324,M,,*7B
2017-12-29 10:56:34 1514562994.344560: $GPRMC,155635,A,3946.9596,N,08404.9811,W,0.0000,0.000,291217,,*32
2017-12-29 10:56:34 1514562994.344621: $GPGSA,A,3,10,13,15,18,20,21,24,27,32,138,,,1.7,0.8,1.3*09
