2017-12-01 13:08:30 1512151710.316780: {"class":"VERSION","release":"3.16","rev":"3.16-4","proto_major":3,"proto_minor":11}
2017-12-01 13:08:30 1512151710.317259: {"class":"DEVICES","devices":[{"class":"DEVICE","path":"/dev/ttyUSB0","driver":"SiRF","subtype":"9\u0006GSD4e_4.1.2-P1_RPATCH.05-F-GPS-4R-1510281 11/03/2015 307","activated":"2017-12-01T18:08:30.292Z","flags":1,"native":1,"bps":4800,"parity":"N","stopbits":1,"cycle":1.00}]}
2017-12-01 13:08:30 1512151710.317458: {"class":"WATCH","enable":true,"json":false,"nmea":true,"raw":0,"scaled":false,"timing":false,"split24":false,"pps":false}
2017-12-01 13:08:30 1512151710.406421: $GPZDA,180831.00,01,12,2017,00,00*63
2017-12-01 13:08:30 1512151710.406585: $GPGGA,180831,3946.9567,N,08404.9854,W,2,12,0.80,299.01,M,-33.324,M,,*7D
2017-12-01 13:08:30 1512151710.406651: $GPRMC,180831,A,3946.9567,N,08404.9854,W,0.0000,0.000,011217,,*35
2017-12-01 13:08:30 1512151710.406712: $GPGSA,A,3,10,15,18,20,21,24,27,32,8,13,14,138,2.0,0.8,1.5*36
2017-12-01 13:08:31 1512151711.394389: $GPZDA,180832.00,01,12,2017,00,00*60
2017-12-01 13:08:31 1512151711.394545: $GPGGA,180832,3946.9567,N,08404.9854,W,2,12,0.80,299.01,M,-33.324,M,,*7E
2017-12-01 13:08:31 1512151711.394613: $GPRMC,180832,A,3946.9567,N,08404.9854,W,0.0000,0.000,011217,,*36
2017-12-01 13:08:31 1512151711.394674: $GPGSA,A,3,10,15,18,20,21,24,27,32,8,13,14,138,2.0,0.8,1.5*36
2017-12-01 13:08:32 1512151712.746478: $GPGSV,3,1,12,10,40,300,43,15,39,052,48,18,70,333,45,20,35,094,45*78
2017-12-01 13:08:32 1512151712.746660: $GPGSV,3,2,12,21,65,190,45,24,50,112,47,27,19,291,40,32,19,237,39*76
2017-12-01 13:08:32 1512151712.746726: $GPGSV,3,3,12,08,05,324,33,13,09,048,09,14,03,231,00,138,38,213,46*49
2017-12-01 13:08:32 1512151712.859970: $GPZDA,180833.00,01,12,2017,00,00*61
2017-12-01 13:08:32 1512151712.860138: $GPGGA,180833,3946.9567,N,08404.9854,W,2,11,0.80,299.01,M,-33.324,M,,*7C
2017-12-01 13:08:32 1512151712.860203: $GPRMC,180833,A,3946.9567,N,08404.9854,W,0.0000,0.000,011217,,*37
2017-12-01 13:08:32 1512151712.860264: $GPGSA,A,3,10,15,18,20,21,24,27,32,8,13,138,,2.0,0.8,1.5*33
2017-12-01 13:08:33 1512151713.485153: $GPZDA,180834.00,01,12,2017,00,00*66
2017-12-01 13:08:33 1512151713.485315: $GPGGA,180834,3946.9567,N,08404.9854,W,2,11,0.80,299.01,M,-33.324,M,,*7B
2017-12-01 13:08:33 1512151713.485382: $GPRMC,180834,A,3946.9567,N,08404.9854,W,0.0000,0.000,011217,,*30
2017-12-01 13:08:33 1512151713.485442: $GPGSA,A,3,10,15,18,20,21,24,27,32,8,13,138,,2.0,0.8,1.5*33
2017-12-01 13:08:34 1512151714.395136: $GPZDA,180835.00,01,12,2017,00,00*67
2017-12-01 13:08:34 1512151714.395323: $GPGGA,180835,3946.9567,N,08404.9854,W,2,11,0.80,299.01,M,-33.324,M,,*7A
2017-12-01 13:08:34 1512151714.395392: $GPRMC,180835,A,3946.9567,N,08404.9854,W,0.0000,0.000,011217,,*31
2017-12-01 13:08:34 1512151714.395453: $GPGSA,A,3,10,15,18,20,21,24,27,32,8,13,138,,2.0,0.8,1.5*33
2017-12-01 13:08:35 1512151715.750611: $GPGSV,3,1,12,10,40,300,43,15,39,052,47,18,70,333,45,20,35,094,45*77
2017-12-01 13:08:35 1512151715.750825: $GPGSV,3,2,12,21,65,190,45,24,50,112,47,27,19,291,40,32,19,237,40*78
2017-12-01 13:08:35 1512151715.750909: $GPGSV,3,3,12,08,05,324,33,13,09,048,14,14,03,231,05,138,38,213,46*40
2017-12-01 13:08:35 1512151715.863967: $GPZDA,180836.00,01,12,2017,00,00*64
2017-12-01 13:08:35 1512151715.864142: $GPGGA,180836,3946.9567,N,08404.9854,W,2,11,0.80,299.01,M,-33.324,M,,*79
2017-12-01 13:08:35 1512151715.864208: $GPRMC,180836,A,3946.9567,N,08404.9854,W,0.0000,0.000,011217,,*32
2017-12-01 13:08:35 1512151715.864269: $GPGSA,A,3,10,15,18,20,21,24,27,32,8,13,138,,2.0,0.8,1.5*33
2017-12-01 13:08:36 1512151716.391406: $GPZDA,180837.00,01,12,2017,00,00*65
2017-12-01 13:08:36 1512151716.391576: $GPGGA,180837,3946.9567,N,08404.9854,W,2,11,0.80,299.01,M,-33.324,M,,*78
2017-12-01 13:08:36 1512151716.391642: $GPRMC,180837,A,3946.9567,N,08404.9854,W,0.0000,0.000,011217,,*33
2017-12-01 13:08:36 1512151716.391704: $GPGSA,A,3,10,15,18,20,21,24,27,32,8,13,138,,2.0,0.8,1.5*33
2017-12-01 13:08:37 1512151717.394787: $GPZDA,180838.00,01,12,2017,00,00*6A
2017-12-01 13:08:37 1512151717.801791: $GPGGA,180838,3946.9567,N,08404.9854,W,2,11,0.80,299.01,M,-33.324,M,,*77
2017-12-01 13:08:37 1512151717.801955: $GPRMC,180838,A,3946.9567,N,08404.9854,W,0.0000,0.000,011217,,*3C
2017-12-01 13:08:37 1512151717.802021: $GPGSA,A,3,10,15,18,20,21,24,27,32,8,13,138,,2.0,0.8,1.5*33
2017-12-01 13:08:38 1512151718.747214: $GPGSV,3,1,12,10,40,300,43,15,39,052,48,18,70,333,45,20,35,094,45*78
2017-12-01 13:08:38 1512151718.747395: $GPGSV,3,2,12,21,65,190,45,24,50,112,47,27,19,291,40,32,19,237,39*76
2017-12-01 13:08:38 1512151718.747461: $GPGSV,3,3,12,08,05,324,34,13,09,048,16,14,03,231,19,138,38,213,47*49
2017-12-01 13:08:38 1512151718.860589: $GPZDA,180839.00,01,12,2017,00,00*6B
2017-12-01 13:08:38 1512151718.860804: $GPGGA,180839,3946.9567,N,08404.9854,W,2,12,0.80,299.01,M,-33.324,M,,*75
2017-12-01 13:08:38 1512151718.860888: $GPRMC,180839,A,3946.9567,N,08404.9854,W,0.0000,0.000,011217,,*3D
2017-12-01 13:08:38 1512151718.860952: $GPGSA,A,3,10,15,18,20,21,24,27,32,8,13,14,138,2.0,0.8,1.5*36
2017-12-01 13:08:39 1512151719.395196: $GPZDA,180840.00,01,12,2017,00,00*65
2017-12-01 13:08:39 1512151719.395365: $GPGGA,180840,3946.9567,N,08404.9854,W,2,12,0.80,299.01,M,-33.324,M,,*7B
2017-12-01 13:08:39 1512151719.395432: $GPRMC,180840,A,3946.9567,N,08404.9854,W,0.0000,0.000,011217,,*33
2017-12-01 13:08:39 1512151719.395492: $GPGSA,A,3,10,15,18,20,21,24,27,32,8,13,14,138,2.0,0.8,1.5*36
