2017-11-16 15:18:23 1510863503.286158: {"class":"VERSION","release":"3.17","rev":"3.17","proto_major":3,"proto_minor":12}
2017-11-16 15:18:23 1510863503.286613: {"class":"DEVICES","devices":[{"class":"DEVICE","path":"/dev/ttyUSB0","driver":"SiRF","subtype":"9\u0006GSD4e_4.1.2-P1_RPATCH.05-F-GPS-4R-1510281 11/03/2015 307","activated":"2017-11-16T20:18:23.263Z","flags":1,"native":1,"bps":4800,"parity":"N","stopbits":1,"cycle":1.00}]}
2017-11-16 15:18:23 1510863503.286732: {"class":"WATCH","enable":true,"json":false,"nmea":true,"raw":0,"scaled":false,"timing":false,"split24":false,"pps":false}
2017-11-16 15:18:23 1510863503.376494: $GPZDA,201822.00,16,11,2017,00,00*6E
2017-11-16 15:18:23 1510863503.376662: $GPGGA,201822,3946.9573,N,08404.9850,W,2,12,0.80,305.35,M,-33.324,M,,*77
2017-11-16 15:18:23 1510863503.376726: $GPRMC,201822,A,3946.9573,N,08404.9850,W,0.0000,0.000,161117,,*39
2017-11-16 15:18:23 1510863503.376782: $GPGSA,A,3,8,10,14,15,18,20,21,24,27,32,12,138,1.6,0.8,1.3*34
2017-11-16 15:18:24 1510863504.377580: $GPZDA,201823.00,16,11,2017,00,00*6F
2017-11-16 15:18:24 1510863504.377744: $GPGGA,201823,3946.9573,N,08404.9850,W,2,12,0.80,305.35,M,-33.324,M,,*76
2017-11-16 15:18:24 1510863504.377805: $GPRMC,201823,A,3946.9573,N,08404.9850,W,0.0000,0.000,161117,,*38
2017-11-16 15:18:24 1510863504.377862: $GPGSA,A,3,8,10,14,15,18,20,21,24,27,32,12,138,1.6,0.8,1.3*34
2017-11-16 15:18:25 1510863505.714754: $GPGSV,3,1,12,08,07,297,37,10,66,325,51,14,26,250,46,15,14,064,30*7A
2017-11-16 15:18:25 1510863505.714923: $GPGSV,3,2,12,18,73,084,47,20,11,115,28,21,33,180,45,24,47,063,50*7A
2017-11-16 15:18:25 1510863505.714996: $GPGSV,3,3,12,27,08,262,39,32,43,261,48,12,07,109,23,138,38,213,44*48
2017-11-16 15:18:25 1510863505.827996: $GPZDA,201824.00,16,11,2017,00,00*68
2017-11-16 15:18:25 1510863505.828167: $GPGGA,201824,3946.9573,N,08404.9850,W,2,12,0.80,305.35,M,-33.324,M,,*71
2017-11-16 15:18:25 1510863505.828260: $GPRMC,201824,A,3946.9573,N,08404.9850,W,0.0000,0.000,161117,,*3F
2017-11-16 15:18:25 1510863505.828331: $GPGSA,A,3,8,10,14,15,18,20,21,24,27,32,12,138,1.6,0.8,1.3*34
2017-11-16 15:18:26 1510863506.454709: $GPZDA,201825.00,16,11,2017,00,00*69
2017-11-16 15:18:26 1510863506.454871: $GPGGA,201825,3946.9573,N,08404.9850,W,2,12,0.80,305.35,M,-33.324,M,,*70
2017-11-16 15:18:26 1510863506.454932: $GPRMC,201825,A,3946.9573,N,08404.9850,W,0.0000,0.000,161117,,*3E
2017-11-16 15:18:26 1510863506.454988: $GPGSA,A,3,8,10,14,15,18,20,21,24,27,32,12,138,1.6,0.8,1.3*34
2017-11-16 15:18:27 1510863507.376693: $GPZDA,201826.00,16,11,2017,00,00*6A
2017-11-16 15:18:27 1510863507.376892: $GPGGA,201826,3946.9573,N,08404.9850,W,2,12,0.80,305.35,M,-33.324,M,,*73
2017-11-16 15:18:27 1510863507.376954: $GPRMC,201826,A,3946.9573,N,08404.9850,W,0.0000,0.000,161117,,*3D
2017-11-16 15:18:27 1510863507.377015: $GPGSA,A,3,8,10,14,15,18,20,21,24,27,32,12,138,1.6,0.8,1.3*34
2017-11-16 15:18:28 1510863508.713563: $GPGSV,3,1,12,08,07,297,38,10,66,325,51,14,26,250,46,15,14,064,30*75
2017-11-16 15:18:28 1510863508.713730: $GPGSV,3,2,12,18,73,084,47,20,11,115,28,21,33,180,44,24,47,063,50*7B
2017-11-16 15:18:28 1510863508.713791: $GPGSV,3,3,12,27,08,262,39,32,43,261,47,12,07,109,23,138,38,213,44*47
2017-11-16 15:18:28 1510863508.826794: $GPZDA,201827.00,16,11,2017,00,00*6B
2017-11-16 15:18:28 1510863508.826983: $GPGGA,201827,3946.9573,N,08404.9850,W,2,12,0.80,305.35,M,-33.324,M,,*72
2017-11-16 15:18:28 1510863508.827045: $GPRMC,201827,A,3946.9573,N,08404.9850,W,0.0000,0.000,161117,,*3C
2017-11-16 15:18:28 1510863508.827102: $GPGSA,A,3,8,10,14,15,18,20,21,24,27,32,12,138,1.6,0.8,1.3*34
2017-11-16 15:18:29 1510863509.377852: $GPZDA,201828.00,16,11,2017,00,00*64
2017-11-16 15:18:29 1510863509.378039: $GPGGA,201828,3946.9573,N,08404.9850,W,2,12,0.80,305.35,M,-33.324,M,,*7D
2017-11-16 15:18:29 1510863509.378107: $GPRMC,201828,A,3946.9573,N,08404.9850,W,0.0000,0.000,161117,,*33
2017-11-16 15:18:29 1510863509.378177: $GPGSA,A,3,8,10,14,15,18,20,21,24,27,32,12,138,1.6,0.8,1.3*34
2017-11-16 15:18:30 1510863510.376418: $GPZDA,201829.00,16,11,2017,00,00*65
2017-11-16 15:18:30 1510863510.376626: $GPGGA,201829,3946.9573,N,08404.9850,W,2,12,0.80,305.35,M,-33.324,M,,*7C
2017-11-16 15:18:30 1510863510.376688: $GPRMC,201829,A,3946.9573,N,08404.9850,W,0.0000,0.000,161117,,*32
2017-11-16 15:18:30 1510863510.376745: $GPGSA,A,3,8,10,14,15,18,20,21,24,27,32,12,138,1.6,0.8,1.3*34
2017-11-16 15:18:31 1510863511.712500: $GPGSV,3,1,12,08,07,297,38,10,66,325,51,14,26,250,46,15,14,064,29*7D
2017-11-16 15:18:31 1510863511.712668: $GPGSV,3,2,12,18,73,084,47,20,11,115,28,21,33,180,44,24,47,063,49*73
2017-11-16 15:18:31 1510863511.712729: $GPGSV,3,3,12,27,08,262,39,32,43,261,47,12,07,109,24,138,38,213,44*40
2017-11-16 15:18:31 1510863511.825767: $GPZDA,201830.00,16,11,2017,00,00*6D
2017-11-16 15:18:31 1510863511.825967: $GPGGA,201830,3946.9573,N,08404.9850,W,2,12,0.80,305.35,M,-33.324,M,,*74
2017-11-16 15:18:31 1510863511.826030: $GPRMC,201830,A,3946.9573,N,08404.9850,W,0.0000,0.000,161117,,*3A
2017-11-16 15:18:31 1510863511.826086: $GPGSA,A,3,8,10,14,15,18,20,21,24,27,32,12,138,1.6,0.8,1.3*34
2017-11-16 15:18:32 1510863512.376634: $GPZDA,201831.00,16,11,2017,00,00*6C
2017-11-16 15:18:32 1510863512.376851: $GPGGA,201831,3946.9573,N,08404.9850,W,2,12,0.80,305.35,M,-33.324,M,,*75
2017-11-16 15:18:32 1510863512.376917: $GPRMC,201831,A,3946.9573,N,08404.9850,W,0.0000,0.000,161117,,*3B
2017-11-16 15:18:32 1510863512.376992: $GPGSA,A,3,8,10,14,15,18,20,21,24,27,32,12,138,1.6,0.8,1.3*34
