2017-12-29 10:53:37 1514562817.576832: {"class":"VERSION","release":"3.16","rev":"3.16-4","proto_major":3,"proto_minor":11}
2017-12-29 10:53:37 1514562817.577232: {"class":"DEVICES","devices":[{"class":"DEVICE","path":"/dev/ttyUSB0","driver":"SiRF","subtype":"9\u0006GSD4e_4.1.2-P1_RPATCH.05-F-GPS-4R-1510281 11/03/2015 307","activated":"2017-12-29T15:53:37.545Z","flags":1,"native":1,"bps":4800,"parity":"N","stopbits":1,"cycle":1.00}]}
2017-12-29 10:53:37 1514562817.577361: {"class":"WATCH","enable":true,"json":false,"nmea":true,"raw":0,"scaled":false,"timing":false,"split24":false,"pps":false}
2017-12-29 10:53:38 1514562818.743131: $GPGSV,3,1,11,10,33,294,42,13,16,046,43,15,47,049,50,18,64,318,44*7D
2017-12-29 10:53:38 1514562818.743286: $GPGSV,3,2,11,20,42,085,50,21,74,205,47,24,44,124,50,27,19,300,33*7A
2017-12-29 10:53:38 1514562818.743352: $GPGSV,3,3,11,32,13,232,30,08,01,330,08,138,38,213,44*7A
2017-12-29 10:53:38 1514562818.856544: $GPZDA,155339.00,29,12,2017,00,00*62
2017-12-29 10:53:38 1514562818.856693: $GPGGA,155339,3946.9593,N,08404.9818,W,2,10,0.80,301.08,M,-33.324,M,,*7E
2017-12-29 10:53:38 1514562818.856758: $GPRMC,155339,A,3946.9593,N,08404.9818,W,0.0000,0.000,291217,,*37
2017-12-29 10:53:38 1514562818.856819: $GPGSA,A,3,10,13,15,18,20,21,24,27,32,138,,,1.7,0.8,1.3*09
2017-12-29 10:53:39 1514562819.481941: $GPZDA,155340.00,29,12,2017,00,00*6C
2017-12-29 10:53:39 1514562819.482098: $GPGGA,155340,3946.9593,N,08404.9818,W,2,10,0.80,301.08,M,-33.324,M,,*70
2017-12-29 10:53:39 1514562819.482163: $GPRMC,155340,A,3946.9593,N,08404.9818,W,0.0000,0.000,291217,,*39
2017-12-29 10:53:39 1514562819.482224: $GPGSA,A,3,10,13,15,18,20,21,24,27,32,138,,,1.7,0.8,1.3*09
2017-12-29 10:53:40 1514562820.399086: $GPZDA,155341.00,29,12,2017,00,00*6D
2017-12-29 10:53:40 1514562820.399237: $GPGGA,155341,3946.9597,N,08404.9818,W,2,10,0.80,301.72,M,-33.324,M,,*78
2017-12-29 10:53:40 1514562820.399303: $GPRMC,155341,A,3946.9597,N,08404.9818,W,0.0000,0.000,291217,,*3C
2017-12-29 10:53:40 1514562820.399363: $GPGSA,A,3,10,13,15,18,20,21,24,27,32,138,,,1.7,0.8,1.3*09
2017-12-29 10:53:41 1514562821.739776: $GPGSV,3,1,11,10,33,294,42,13,16,046,43,15,47,049,50,18,64,318,44*7D
2017-12-29 10:53:41 1514562821.739952: $GPGSV,3,2,11,20,42,085,50,21,74,205,47,24,44,124,51,27,19,300,34*7C
2017-12-29 10:53:41 1514562821.740018: $GPGSV,3,3,11,32,13,232,29,08,01,330,29,138,38,213,44*71
2017-12-29 10:53:41 1514562821.853125: $GPZDA,155342.00,29,12,2017,00,00*6E
2017-12-29 10:53:41 1514562821.853257: $GPGGA,155342,3946.9593,N,08404.9818,W,2,11,0.80,302.48,M,-33.324,M,,*74
2017-12-29 10:53:41 1514562821.853321: $GPRMC,155342,A,3946.9593,N,08404.9818,W,0.0000,0.000,291217,,*3B
2017-12-29 10:53:41 1514562821.853381: $GPGSA,A,3,10,13,15,18,20,21,24,27,32,8,138,,1.7,0.8,1.3*31
2017-12-29 10:53:42 1514562822.365495: $GPZDA,155343.00,29,12,2017,00,00*6F
2017-12-29 10:53:42 1514562822.365636: $GPGGA,155343,3946.9593,N,08404.9818,W,2,11,0.80,302.48,M,-33.324,M,,*75
2017-12-29 10:53:42 1514562822.365701: $GPRMC,155343,A,3946.9593,N,08404.9818,W,0.0000,0.000,291217,,*3A
2017-12-29 10:53:42 1514562822.365761: $GPGSA,A,3,10,13,15,18,20,21,24,27,32,8,138,,1.7,0.8,1.3*31
2017-12-29 10:53:43 1514562823.405173: $GPZDA,155344.00,29,12,2017,00,00*68
2017-12-29 10:53:43 1514562823.405347: $GPGGA,155344,3946.9593,N,08404.9818,W,2,11,0.80,302.48,M,-33.324,M,,*72
2017-12-29 10:53:43 1514562823.405414: $GPRMC,155344,A,3946.9593,N,08404.9818,W,0.0000,0.000,291217,,*3D
2017-12-29 10:53:43 1514562823.405474: $GPGSA,A,3,10,13,15,18,20,21,24,27,32,8,138,,1.7,0.8,1.3*31
2017-12-29 10:53:44 1514562824.740143: $GPGSV,3,1,11,10,33,294,43,13,16,046,42,15,47,049,50,18,64,318,44*7D
2017-12-29 10:53:44 1514562824.740319: $GPGSV,3,2,11,20,42,085,50,21,74,205,47,24,44,124,50,27,19,300,36*7F
2017-12-29 10:53:44 1514562824.740385: $GPGSV,3,3,11,32,13,232,28,08,01,330,30,138,38,213,46*7A
2017-12-29 10:53:44 1514562824.853612: $GPZDA,155345.00,29,12,2017,00,00*69
2017-12-29 10:53:44 1514562824.853750: $GPGGA,155345,3946.9593,N,08404.9818,W,2,11,0.80,302.48,M,-33.324,M,,*73
2017-12-29 10:53:44 1514562824.853886: $GPRMC,155345,A,3946.9593,N,08404.9818,W,0.0000,0.000,291217,,*3C
2017-12-29 10:53:44 1514562824.853949: $GPGSA,A,3,10,13,15,18,20,21,24,27,32,8,138,,1.7,0.8,1.3*31
2017-12-29 10:53:45 1514562825.403504: $GPZDA,155346.00,29,12,2017,00,00*6A
2017-12-29 10:53:45 1514562825.403682: $GPGGA,155346,3946.9597,N,08404.9818,W,2,11,0.80,301.72,M,-33.324,M,,*7E
2017-12-29 10:53:45 1514562825.403748: $GPRMC,155346,A,3946.9597,N,08404.9818,W,0.0000,0.000,291217,,*3B
2017-12-29 10:53:45 1514562825.403808: $GPGSA,A,3,10,13,15,18,20,21,24,27,32,8,138,,1.7,0.8,1.3*31
2017-12-29 10:53:46 1514562826.403114: $GPZDA,155347.00,29,12,2017,00,00*6B
2017-12-29 10:53:46 1514562826.403266: $GPGGA,155347,3946.9597,N,08404.9818,W,2,11,0.80,301.72,M,-33.324,M,,*7F
2017-12-29 10:53:46 1514562826.403332: $GPRMC,155347,A,3946.9597,N,08404.9818,W,0.0000,0.000,291217,,*3A
2017-12-29 10:53:46 1514562826.403413: $GPGSA,A,3,10,13,15,18,20,21,24,27,32,8,138,,1.7,0.8,1.3*31
2017-12-29 10:53:47 1514562827.702267: $GPGSV,3,1,11,10,33,294,43,13,16,046,42,15,47,049,50,18,64,318,44*7D
2017-12-29 10:53:47 1514562827.702461: $GPGSV,3,2,11,20,42,085,50,21,74,205,47,24,44,124,51,27,19,300,38*70
2017-12-29 10:53:47 1514562827.702543: $GPGSV,3,3,11,32,13,232,28,08,01,330,30,138,38,213,44*78
2017-12-29 10:53:47 1514562827.815951: $GPZDA,155348.00,29,12,2017,00,00*64
2017-12-29 10:53:47 1514562827.816088: $GPGGA,155348,3946.9597,N,08404.9818,W,2,11,0.80,301.72,M,-33.324,M,,*70
2017-12-29 10:53:47 1514562827.816153: $GPRMC,155348,A,3946.9597,N,08404.9818,W,0.0000,0.000,291217,,*35
2017-12-29 10:53:47 1514562827.816213: $GPGSA,A,3,10,13,15,18,20,21,24,27,32,8,138,,1.7,0.8,1.3*31
2017-12-29 10:53:48 1514562828.405612: $GPZDA,155349.00,29,12,2017,00,00*65
2017-12-29 10:53:48 1514562828.405767: $GPGGA,155349,3946.9593,N,08404.9818,W,2,11,0.80,302.48,M,-33.324,M,,*7F
2017-12-29 10:53:48 1514562828.405854: $GPRMC,155349,A,3946.9593,N,08404.9818,W,0.0000,0.000,291217,,*30
2017-12-29 10:53:48 1514562828.405917: $GPGSA,A,3,10,13,15,18,20,21,24,27,32,8,138,,1.7,0.8,1.3*31
2017-12-29 10:53:49 1514562829.404765: $GPZDA,155350.00,29,12,2017,00,00*6D
2017-12-29 10:53:49 1514562829.404921: $GPGGA,155350,3946.9593,N,08404.9818,W,2,11,0.80,302.48,M,-33.324,M,,*77
2017-12-29 10:53:49 1514562829.404987: $GPRMC,155350,A,3946.9593,N,08404.9818,W,0.0000,0.000,291217,,*38
2017-12-29 10:53:49 1514562829.405047: $GPGSA,A,3,10,13,15,18,20,21,24,27,32,8,138,,1.7,0.8,1.3*31
2017-12-29 10:53:50 1514562830.701459: $GPGSV,3,1,11,10,33,294,44,13,16,046,43,15,47,049,50,18,64,318,45*7A
2017-12-29 10:53:50 1514562830.701632: $GPGSV,3,2,11,20,42,085,51,21,74,205,47,24,44,124,51,27,19,300,39*70
2017-12-29 10:53:50 1514562830.701697: $GPGSV,3,3,11,32,13,232,28,08,01,330,30,138,38,213,45*79
2017-12-29 10:53:50 1514562830.815059: $GPZDA,155351.00,29,12,2017,00,00*6C
2017-12-29 10:53:50 1514562830.815196: $GPGGA,155351,3946.9593,N,08404.9818,W,2,11,0.80,302.48,M,-33.324,M,,*76
2017-12-29 10:53:50 1514562830.815261: $GPRMC,155351,A,3946.9593,N,08404.9818,W,0.0000,0.000,291217,,*39
2017-12-29 10:53:50 1514562830.815322: $GPGSA,A,3,10,13,15,18,20,21,24,27,32,8,138,,1.7,0.8,1.3*31
2017-12-29 10:53:51 1514562831.398507: $GPZDA,155352.00,29,12,2017,00,00*6F
2017-12-29 10:53:51 1514562831.398676: $GPGGA,155352,3946.9593,N,08404.9818,W,2,11,0.80,302.48,M,-33.324,M,,*75
2017-12-29 10:53:51 1514562831.398743: $GPRMC,155352,A,3946.9593,N,08404.9818,W,0.0000,0.000,291217,,*3A
2017-12-29 10:53:51 1514562831.398804: $GPGSA,A,3,10,13,15,18,20,21,24,27,32,8,138,,1.7,0.8,1.3*31
2017-12-29 10:53:52 1514562832.405625: $GPZDA,155353.00,29,12,2017,00,00*6E
2017-12-29 10:53:52 1514562832.405779: $GPGGA,155353,3946.9593,N,08404.9818,W,2,11,0.80,302.48,M,-33.324,M,,*74
2017-12-29 10:53:52 1514562832.405845: $GPRMC,155353,A,3946.9593,N,08404.9818,W,0.0000,0.000,291217,,*3B
2017-12-29 10:53:52 1514562832.405905: $GPGSA,A,3,10,13,15,18,20,21,24,27,32,8,138,,1.7,0.8,1.3*31
