2018-01-11 19:47:33 1515718053.238540: {"class":"VERSION","release":"3.16","rev":"3.16-4","proto_major":3,"proto_minor":11}
2018-01-11 19:47:33 1515718053.238920: {"class":"DEVICES","devices":[{"class":"DEVICE","path":"/dev/ttyUSB0","driver":"SiRF","subtype":"9\u0006GSD4e_4.1.2-P1_RPATCH.05-F-GPS-4R-1510281 11/03/2015 307","activated":"2018-01-12T00:47:33.188Z","flags":1,"native":1,"bps":4800,"parity":"N","stopbits":1,"cycle":1.00}]}
2018-01-11 19:47:33 1515718053.239142: {"class":"WATCH","enable":true,"json":false,"nmea":true,"raw":0,"scaled":false,"timing":false,"split24":false,"pps":false}
2018-01-11 19:47:33 1515718053.702721: $GPGSV,3,1,12,07,45,310,38,08,64,156,45,09,54,246,44,16,31,054,48*7E
2018-01-11 19:47:33 1515718053.702883: $GPGSV,3,2,12,23,40,193,48,27,55,066,50,11,11,171,32,26,06,066,00*7D
2018-01-11 19:47:33 1515718053.702948: $GPGSV,3,3,12,28,06,250,18,30,20,301,39,21,01,030,00,138,38,213,44*41
2018-01-11 19:47:33 1515718053.816420: $GPZDA,004734.00,12,01,2018,00,00*6B
2018-01-11 19:47:33 1515718053.816537: $GPGGA,004734,3946.9571,N,08404.9817,W,2,10,0.80,296.47,M,-33.324,M,,*75
2018-01-11 19:47:33 1515718053.816599: $GPRMC,004734,A,3946.9571,N,08404.9817,W,0.0000,0.000,120118,,*3D
2018-01-11 19:47:33 1515718053.816658: $GPGSA,A,3,7,8,9,16,23,27,11,28,30,138,,,4.0,0.8,3.5*3E
2018-01-11 19:47:34 1515718054.351050: $GPZDA,004735.00,12,01,2018,00,00*6A
2018-01-11 19:47:34 1515718054.351217: $GPGGA,004735,3946.9571,N,08404.9817,W,2,10,0.80,296.47,M,-33.324,M,,*74
2018-01-11 19:47:34 1515718054.351282: $GPRMC,004735,A,3946.9571,N,08404.9817,W,0.0000,0.000,120118,,*3C
2018-01-11 19:47:34 1515718054.351343: $GPGSA,A,3,7,8,9,16,23,27,11,28,30,138,,,4.0,0.8,3.5*3E
2018-01-11 19:47:35 1515718055.365636: $GPZDA,004736.00,12,01,2018,00,00*69
2018-01-11 19:47:35 1515718055.365792: $GPGGA,004736,3946.9571,N,08404.9817,W,2,10,0.80,296.47,M,-33.324,M,,*77
2018-01-11 19:47:35 1515718055.365858: $GPRMC,004736,A,3946.9571,N,08404.9817,W,0.0000,0.000,120118,,*3F
2018-01-11 19:47:35 1515718055.365933: $GPGSA,A,3,7,8,9,16,23,27,11,28,30,138,,,4.0,0.8,3.5*3E
2018-01-11 19:47:36 1515718056.707326: $GPGSV,3,1,12,07,45,310,38,08,64,156,45,09,54,246,44,16,31,054,48*7E
2018-01-11 19:47:36 1515718056.707499: $GPGSV,3,2,12,23,40,193,48,27,55,066,50,11,11,171,32,26,06,066,01*7C
2018-01-11 19:47:36 1515718056.707565: $GPGSV,3,3,12,28,06,250,17,30,20,301,39,21,01,030,00,138,38,213,45*4F
2018-01-11 19:47:36 1515718056.820939: $GPZDA,004737.00,12,01,2018,00,00*68
2018-01-11 19:47:36 1515718056.821071: $GPGGA,004737,3946.9571,N,08404.9817,W,2,10,0.80,296.47,M,-33.324,M,,*76
2018-01-11 19:47:36 1515718056.821136: $GPRMC,004737,A,3946.9571,N,08404.9817,W,0.0000,0.000,120118,,*3E
2018-01-11 19:47:36 1515718056.821196: $GPGSA,A,3,7,8,9,16,23,27,11,28,30,138,,,4.0,0.8,3.5*3E
2018-01-11 19:47:37 1515718057.378078: $GPZDA,004738.00,12,01,2018,00,00*67
2018-01-11 19:47:37 1515718057.378277: $GPGGA,004738,3946.9571,N,08404.9817,W,2,10,0.80,296.47,M,-33.324,M,,*79
2018-01-11 19:47:37 1515718057.378348: $GPRMC,004738,A,3946.9571,N,08404.9817,W,0.0000,0.000,120118,,*31
2018-01-11 19:47:37 1515718057.378412: $GPGSA,A,3,7,8,9,16,23,27,11,28,30,138,,,4.0,0.8,3.5*3E
2018-01-11 19:47:38 1515718058.365989: $GPZDA,004739.00,12,01,2018,00,00*66
2018-01-11 19:47:38 1515718058.366168: $GPGGA,004739,3946.9571,N,08404.9817,W,2,10,0.80,296.47,M,-33.324,M,,*78
2018-01-11 19:47:38 1515718058.366239: $GPRMC,004739,A,3946.9571,N,08404.9817,W,0.0000,0.000,120118,,*30
2018-01-11 19:47:38 1515718058.366302: $GPGSA,A,3,7,8,9,16,23,27,11,28,30,138,,,4.0,0.8,3.5*3E
2018-01-11 19:47:39 1515718059.702668: $GPGSV,3,1,12,07,45,310,39,08,64,156,45,09,54,246,44,16,31,054,48*7F
2018-01-11 19:47:39 1515718059.702835: $GPGSV,3,2,12,23,40,193,48,27,55,066,50,11,11,171,32,26,06,066,18*74
2018-01-11 19:47:39 1515718059.702903: $GPGSV,3,3,12,28,06,250,18,30,20,301,38,21,01,030,00,138,38,213,44*40
2018-01-11 19:47:39 1515718059.816037: $GPZDA,004740.00,12,01,2018,00,00*68
2018-01-11 19:47:39 1515718059.816165: $GPGGA,004740,3946.9571,N,08404.9817,W,2,11,0.80,296.47,M,-33.324,M,,*77
2018-01-11 19:47:39 1515718059.816286: $GPRMC,004740,A,3946.9571,N,08404.9817,W,0.0000,0.000,120118,,*3E
2018-01-11 19:47:39 1515718059.816349: $GPGSA,A,3,7,8,9,16,23,27,11,26,28,30,138,,4.0,0.8,3.5*3A
2018-01-11 19:47:40 1515718060.355805: $GPZDA,004741.00,12,01,2018,00,00*69
2018-01-11 19:47:40 1515718060.355986: $GPGGA,004741,3946.9571,N,08404.9817,W,2,11,0.80,296.47,M,-33.324,M,,*76
2018-01-11 19:47:40 1515718060.356055: $GPRMC,004741,A,3946.9571,N,08404.9817,W,0.0000,0.000,120118,,*3F
2018-01-11 19:47:40 1515718060.356117: $GPGSA,A,3,7,8,9,16,23,27,11,26,28,30,138,,4.0,0.8,3.5*3A
2018-01-11 19:47:41 1515718061.350669: $GPZDA,004742.00,12,01,2018,00,00*6A
2018-01-11 19:47:41 1515718061.350839: $GPGGA,004742,3946.9571,N,08404.9817,W,2,11,0.80,296.47,M,-33.324,M,,*75
2018-01-11 19:47:41 1515718061.350905: $GPRMC,004742,A,3946.9571,N,08404.9817,W,0.0000,0.000,120118,,*3C
2018-01-11 19:47:41 1515718061.350965: $GPGSA,A,3,7,8,9,16,23,27,11,26,28,30,138,,4.0,0.8,3.5*3A
