2017-12-14 11:49:59 1513270199.507418: {"class":"VERSION","release":"3.16","rev":"3.16-4","proto_major":3,"proto_minor":11}
2017-12-14 11:49:59 1513270199.507807: {"class":"DEVICES","devices":[{"class":"DEVICE","path":"/dev/ttyUSB0","driver":"SiRF","subtype":"9\u0006GSD4e_4.1.2-P1_RPATCH.05-F-GPS-4R-1510281 11/03/2015 307","activated":"2017-12-14T16:49:59.464Z","flags":1,"native":1,"bps":4800,"parity":"N","stopbits":1,"cycle":1.00}]}
2017-12-14 11:49:59 1513270199.507921: {"class":"WATCH","enable":true,"json":false,"nmea":true,"raw":0,"scaled":false,"timing":false,"split24":false,"pps":false}
2017-12-14 11:50:00 1513270200.484990: $GPGSV,3,1,12,24,43,127,27,15,49,049,27,10,32,291,18,18,62,315,19*78
2017-12-14 11:50:00 1513270200.485163: $GPGSV,3,2,12,20,44,084,23,32,11,231,10,27,19,303,14,21,75,208,20*75
2017-12-14 11:50:00 1513270200.485228: $GPGSV,3,3,12,13,19,046,00,29,01,186,00,08,01,331,00,138,38,213,00*4E
2017-12-14 11:50:00 1513270200.598382: $GPZDA,165001.00,14,12,2017,00,00*67
2017-12-14 11:50:00 1513270200.598573: $GPGGA,165001,3946.9422,N,08404.9509,W,1,08,1.40,390.60,M,-33.324,M,,*72
2017-12-14 11:50:00 1513270200.598656: $GPRMC,165001,A,3946.9422,N,08404.9509,W,0.0000,0.000,141217,,*34
2017-12-14 11:50:00 1513270200.598719: $GPGSA,A,3,24,15,10,18,20,32,27,21,,,,,6.6,1.4,6.2*3C
2017-12-14 11:50:01 1513270201.148507: $GPZDA,165002.00,14,12,2017,00,00*64
2017-12-14 11:50:01 1513270201.148667: $GPGGA,165002,3946.9425,N,08404.9508,W,1,08,1.40,389.84,M,-33.324,M,,*75
2017-12-14 11:50:01 1513270201.148734: $GPRMC,165002,A,3946.9425,N,08404.9508,W,0.0000,0.000,141217,,*31
2017-12-14 11:50:01 1513270201.148795: $GPGSA,A,3,24,15,10,18,20,32,27,21,,,,,6.6,1.4,6.2*3C
2017-12-14 11:50:02 1513270202.148638: $GPZDA,165003.00,14,12,2017,00,00*65
2017-12-14 11:50:02 1513270202.148805: $GPGGA,165003,3946.9425,N,08404.9508,W,1,08,1.40,389.84,M,-33.324,M,,*74
2017-12-14 11:50:02 1513270202.148891: $GPRMC,165003,A,3946.9425,N,08404.9508,W,0.0000,0.000,141217,,*30
2017-12-14 11:50:02 1513270202.148953: $GPGSA,A,3,24,15,10,18,20,32,27,21,,,,,6.6,1.4,6.2*3C
2017-12-14 11:50:03 1513270203.486147: $GPGSV,3,1,12,24,43,127,27,15,49,049,27,10,32,291,18,18,62,315,19*78
2017-12-14 11:50:03 1513270203.486322: $GPGSV,3,2,12,20,44,084,24,32,11,231,10,27,19,303,14,21,75,208,20*72
2017-12-14 11:50:03 1513270203.486420: $GPGSV,3,3,12,13,19,046,00,29,01,186,00,08,01,331,00,138,38,213,00*4E
2017-12-14 11:50:03 1513270203.599673: $GPZDA,165004.00,14,12,2017,00,00*62
2017-12-14 11:50:03 1513270203.599843: $GPGGA,165004,3946.9425,N,08404.9508,W,1,08,1.40,389.84,M,-33.324,M,,*73
2017-12-14 11:50:03 1513270203.599911: $GPRMC,165004,A,3946.9425,N,08404.9508,W,0.0000,0.000,141217,,*37
2017-12-14 11:50:03 1513270203.599972: $GPGSA,A,3,24,15,10,18,20,32,27,21,,,,,6.6,1.4,6.2*3C
2017-12-14 11:50:04 1513270204.149749: $GPZDA,165005.00,14,12,2017,00,00*63
2017-12-14 11:50:04 1513270204.149909: $GPGGA,165005,3946.9425,N,08404.9508,W,1,08,1.40,389.84,M,-33.324,M,,*72
2017-12-14 11:50:04 1513270204.149975: $GPRMC,165005,A,3946.9425,N,08404.9508,W,0.0000,0.000,141217,,*36
2017-12-14 11:50:04 1513270204.150036: $GPGSA,A,3,24,15,10,18,20,32,27,21,,,,,6.6,1.4,6.2*3C
2017-12-14 11:50:05 1513270205.165659: $GPZDA,165006.00,14,12,2017,00,00*60
2017-12-14 11:50:05 1513270205.165836: $GPGGA,165006,3946.9425,N,08404.9508,W,1,08,1.40,389.84,M,-33.324,M,,*71
2017-12-14 11:50:05 1513270205.165903: $GPRMC,165006,A,3946.9425,N,08404.9508,W,0.0000,0.000,141217,,*35
2017-12-14 11:50:05 1513270205.165963: $GPGSA,A,3,24,15,10,18,20,32,27,21,,,,,6.6,1.4,6.2*3C
2017-12-14 11:50:06 1513270206.485403: $GPGSV,3,1,12,24,43,127,28,15,49,049,28,10,32,291,19,18,62,315,18*78
2017-12-14 11:50:06 1513270206.485580: $GPGSV,3,2,12,20,44,084,24,32,11,231,10,27,19,303,14,21,75,208,20*72
2017-12-14 11:50:06 1513270206.485681: $GPGSV,3,3,12,13,19,046,00,29,01,186,00,08,01,331,00,138,38,213,00*4E
2017-12-14 11:50:06 1513270206.599068: $GPZDA,165007.00,14,12,2017,00,00*61
2017-12-14 11:50:06 1513270206.599236: $GPGGA,165007,3946.9421,N,08404.9508,W,1,08,1.40,389.20,M,-33.324,M,,*7A
2017-12-14 11:50:06 1513270206.599356: $GPRMC,165007,A,3946.9421,N,08404.9508,W,0.5774,207.515,141217,,*35
2017-12-14 11:50:06 1513270206.599419: $GPGSA,A,3,24,15,10,18,20,32,27,21,,,,,6.6,1.4,6.2*3C
2017-12-14 11:50:07 1513270207.166667: $GPZDA,165008.00,14,12,2017,00,00*6E
2017-12-14 11:50:07 1513270207.166831: $GPGGA,165008,3946.9425,N,08404.9508,W,1,08,1.40,388.43,M,-33.324,M,,*75
2017-12-14 11:50:07 1513270207.166897: $GPRMC,165008,A,3946.9425,N,08404.9508,W,0.0000,0.000,141217,,*3B
2017-12-14 11:50:07 1513270207.166957: $GPGSA,A,3,24,15,10,18,20,32,27,21,,,,,6.6,1.4,6.2*3C
2017-12-14 11:50:08 1513270208.151561: $GPZDA,165009.00,14,12,2017,00,00*6F
2017-12-14 11:50:08 1513270208.151751: $GPGGA,165009,3946.9425,N,08404.9508,W,1,08,1.40,388.43,M,-33.324,M,,*74
2017-12-14 11:50:08 1513270208.151817: $GPRMC,165009,A,3946.9425,N,08404.9508,W,0.0000,0.000,141217,,*3A
2017-12-14 11:50:08 1513270208.151879: $GPGSA,A,3,24,15,10,18,20,32,27,21,,,,,6.6,1.4,6.2*3C
2017-12-14 11:50:09 1513270209.501520: $GPGSV,3,1,12,24,43,127,28,15,49,049,28,10,32,291,20,18,62,315,18*72
2017-12-14 11:50:09 1513270209.501710: $GPGSV,3,2,12,20,44,084,24,32,11,231,09,27,19,303,14,21,75,208,20*7A
2017-12-14 11:50:09 1513270209.501775: $GPGSV,3,3,12,13,19,046,00,29,01,186,00,08,01,331,00,138,38,213,00*4E
2017-12-14 11:50:09 1513270209.614910: $GPZDA,165010.00,14,12,2017,00,00*67
2017-12-14 11:50:09 1513270209.615095: $GPGGA,165010,3946.9425,N,08404.9508,W,1,08,1.40,388.43,M,-33.324,M,,*7C
2017-12-14 11:50:09 1513270209.615160: $GPRMC,165010,A,3946.9425,N,08404.9508,W,0.0000,0.000,141217,,*32
2017-12-14 11:50:09 1513270209.615221: $GPGSA,A,3,24,15,10,18,20,32,27,21,,,,,6.6,1.4,6.2*3C
2017-12-14 11:50:10 1513270210.165942: $GPZDA,165011.00,14,12,2017,00,00*66
2017-12-14 11:50:10 1513270210.166146: $GPGGA,165011,3946.9420,N,08404.9508,W,1,08,1.40,387.79,M,-33.324,M,,*7E
2017-12-14 11:50:10 1513270210.166214: $GPRMC,165011,A,3946.9420,N,08404.9508,W,0.0000,0.000,141217,,*36
2017-12-14 11:50:10 1513270210.166275: $GPGSA,A,3,24,15,10,18,20,32,27,21,,,,,6.6,1.4,6.2*3C
2017-12-14 11:50:11 1513270211.166275: $GPZDA,165012.00,14,12,2017,00,00*65
2017-12-14 11:50:11 1513270211.166448: $GPGGA,165012,3946.9424,N,08404.9507,W,1,08,1.40,387.03,M,-33.324,M,,*7B
2017-12-14 11:50:11 1513270211.166513: $GPRMC,165012,A,3946.9424,N,08404.9507,W,0.2422,93.794,141217,,*08
2017-12-14 11:50:11 1513270211.166574: $GPGSA,A,3,24,15,10,18,20,32,27,21,,,,,6.6,1.4,6.2*3C
2017-12-14 11:50:12 1513270212.502153: $GPGSV,3,1,12,24,43,127,28,15,49,049,27,10,32,291,20,18,62,315,14*71
2017-12-14 11:50:12 1513270212.502337: $GPGSV,3,2,12,20,44,084,24,32,11,231,09,27,19,303,13,21,75,208,20*7D
2017-12-14 11:50:12 1513270212.502403: $GPGSV,3,3,12,13,19,046,00,29,01,186,00,08,01,331,00,138,38,213,00*4E
2017-12-14 11:50:12 1513270212.614295: $GPZDA,165013.00,14,12,2017,00,00*64
2017-12-14 11:50:12 1513270212.614436: $GPGGA,165013,3946.9424,N,08404.9507,W,1,08,1.40,387.03,M,-33.324,M,,*7A
2017-12-14 11:50:12 1513270212.614502: $GPRMC,165013,A,3946.9424,N,08404.9507,W,0.0000,0.000,141217,,*3F
2017-12-14 11:50:12 1513270212.614562: $GPGSA,A,3,24,15,10,18,20,32,27,21,,,,,6.6,1.4,6.2*3C
2017-12-14 11:50:13 1513270213.166878: $GPZDA,165014.00,14,12,2017,00,00*63
2017-12-14 11:50:13 1513270213.167047: $GPGGA,165014,3946.9424,N,08404.9507,W,1,08,1.40,387.03,M,-33.324,M,,*7D
2017-12-14 11:50:13 1513270213.167114: $GPRMC,165014,A,3946.9424,N,08404.9507,W,0.0000,0.000,141217,,*38
2017-12-14 11:50:13 1513270213.167174: $GPGSA,A,3,24,15,10,18,20,32,27,21,,,,,6.6,1.4,6.2*3C
2017-12-14 11:50:14 1513270214.165779: $GPZDA,165015.00,14,12,2017,00,00*62
2017-12-14 11:50:14 1513270214.165939: $GPGGA,165015,3946.9427,N,08404.9506,W,1,08,1.40,386.26,M,-33.324,M,,*78
2017-12-14 11:50:14 1513270214.166004: $GPRMC,165015,A,3946.9427,N,08404.9506,W,0.0000,0.000,141217,,*3B
2017-12-14 11:50:14 1513270214.166065: $GPGSA,A,3,24,15,10,18,20,32,27,21,,,,,6.6,1.4,6.2*3C
2017-12-14 11:50:15 1513270215.501500: $GPGSV,3,1,12,24,43,127,27,15,49,049,27,10,32,291,20,18,62,315,14*7E
2017-12-14 11:50:15 1513270215.501735: $GPGSV,3,2,12,20,44,084,24,32,11,231,08,27,19,303,13,21,75,208,20*7C
2017-12-14 11:50:15 1513270215.501803: $GPGSV,3,3,12,13,19,046,00,29,01,186,00,08,01,331,00,120,07,103,00*49
2017-12-14 11:50:15 1513270215.614840: $GPZDA,165016.00,14,12,2017,00,00*61
2017-12-14 11:50:15 1513270215.615006: $GPGGA,165016,3946.9423,N,08404.9506,W,1,08,1.40,385.62,M,-33.324,M,,*7C
2017-12-14 11:50:15 1513270215.615073: $GPRMC,165016,A,3946.9423,N,08404.9506,W,0.2422,93.794,141217,,*0A
2017-12-14 11:50:15 1513270215.615134: $GPGSA,A,3,24,15,10,18,20,32,27,21,,,,,6.6,1.4,6.2*3C
2017-12-14 11:50:16 1513270216.150024: $GPZDA,165017.00,14,12,2017,00,00*60
2017-12-14 11:50:16 1513270216.150192: $GPGGA,165017,3946.9423,N,08404.9506,W,1,08,1.40,385.62,M,-33.324,M,,*7D
2017-12-14 11:50:16 1513270216.150257: $GPRMC,165017,A,3946.9423,N,08404.9506,W,0.5951,58.684,141217,,*02
2017-12-14 11:50:16 1513270216.150317: $GPGSA,A,3,24,15,10,18,20,32,27,21,,,,,6.6,1.4,6.2*3C
2017-12-14 11:50:17 1513270217.165121: $GPZDA,165018.00,14,12,2017,00,00*6F
2017-12-14 11:50:17 1513270217.165287: $GPGGA,165018,3946.9427,N,08404.9505,W,1,08,1.40,384.86,M,-33.324,M,,*7E
2017-12-14 11:50:17 1513270217.165353: $GPRMC,165018,A,3946.9427,N,08404.9505,W,0.3423,4.197,141217,,*38
2017-12-14 11:50:17 1513270217.165413: $GPGSA,A,3,24,15,10,18,20,32,27,21,,,,,6.6,1.4,6.2*3C
2017-12-14 11:50:18 1513270218.486317: $GPGSV,3,1,12,24,43,127,27,15,49,049,27,10,32,291,20,18,62,315,14*7E
2017-12-14 11:50:18 1513270218.486497: $GPGSV,3,2,12,20,44,084,24,32,11,231,08,27,19,303,12,21,75,208,20*7D
2017-12-14 11:50:18 1513270218.486563: $GPGSV,3,3,12,13,19,046,00,29,01,186,00,08,01,331,00,120,07,103,00*49
2017-12-14 11:50:18 1513270218.599714: $GPZDA,165019.00,14,12,2017,00,00*6E
2017-12-14 11:50:18 1513270218.599880: $GPGGA,165019,3946.9427,N,08404.9505,W,1,08,1.40,384.86,M,-33.324,M,,*7F
2017-12-14 11:50:18 1513270218.599947: $GPRMC,165019,A,3946.9427,N,08404.9505,W,0.0000,0.000,141217,,*34
2017-12-14 11:50:18 1513270218.600008: $GPGSA,A,3,24,15,10,18,20,32,27,21,,,,,6.6,1.4,6.2*3C
2017-12-14 11:50:19 1513270219.164868: $GPZDA,165020.00,14,12,2017,00,00*64
2017-12-14 11:50:19 1513270219.165036: $GPGGA,165020,3946.9430,N,08404.9505,W,1,08,1.80,384.10,M,-33.324,M,,*70
2017-12-14 11:50:19 1513270219.165101: $GPRMC,165020,A,3946.9430,N,08404.9505,W,0.3423,4.197,141217,,*35
2017-12-14 11:50:19 1513270219.165162: $GPGSA,A,3,24,15,10,18,20,32,27,21,,,,,6.6,1.8,6.2*30
