2018-01-11 19:40:32 1515717632.415831: {"class":"VERSION","release":"3.16","rev":"3.16-4","proto_major":3,"proto_minor":11}
2018-01-11 19:40:32 1515717632.416170: {"class":"DEVICES","devices":[{"class":"DEVICE","path":"/dev/ttyUSB0","driver":"SiRF","subtype":"9\u0006GSD4e_4.1.2-P1_RPATCH.05-F-GPS-4R-1510281 11/03/2015 307","activated":"2018-01-12T00:40:32.363Z","flags":1,"native":1,"bps":4800,"parity":"N","stopbits":1,"cycle":1.00}]}
2018-01-11 19:40:32 1515717632.416283: {"class":"WATCH","enable":true,"json":false,"nmea":true,"raw":0,"scaled":false,"timing":false,"split24":false,"pps":false}
2018-01-11 19:40:32 1515717632.477587: $GPZDA,004033.00,12,01,2018,00,00*6B
2018-01-11 19:40:32 1515717632.477724: $GPGGA,004033,3946.9586,N,08404.9821,W,2,11,0.80,318.26,M,-33.324,M,,*79
2018-01-11 19:40:32 1515717632.477788: $GPRMC,004033,A,3946.9586,N,08404.9821,W,0.0000,0.000,120118,,*30
2018-01-11 19:40:32 1515717632.477848: $GPGSA,A,3,7,8,9,16,23,27,30,11,26,28,138,,4.0,0.8,3.5*3A
2018-01-11 19:40:33 1515717633.385930: $GPZDA,004034.00,12,01,2018,00,00*6C
2018-01-11 19:40:33 1515717633.386080: $GPGGA,004034,3946.9586,N,08404.9821,W,2,11,0.80,318.26,M,-33.324,M,,*7E
2018-01-11 19:40:33 1515717633.386145: $GPRMC,004034,A,3946.9586,N,08404.9821,W,0.0000,0.000,120118,,*37
2018-01-11 19:40:33 1515717633.386205: $GPGSA,A,3,7,8,9,16,23,27,30,11,26,28,138,,4.0,0.8,3.5*3A
2018-01-11 19:40:34 1515717634.737619: $GPGSV,3,1,12,07,43,309,37,08,61,159,46,09,56,250,41,16,34,052,48*75
2018-01-11 19:40:34 1515717634.737786: $GPGSV,3,2,12,23,43,195,47,27,57,070,49,30,17,300,33,11,09,172,29*7E
2018-01-11 19:40:34 1515717634.737853: $GPGSV,3,3,12,26,08,064,30,21,01,033,00,28,04,249,19,138,38,213,45*4C
2018-01-11 19:40:34 1515717634.850960: $GPZDA,004035.00,12,01,2018,00,00*6D
2018-01-11 19:40:34 1515717634.851110: $GPGGA,004035,3946.9590,N,08404.9821,W,2,11,0.80,318.90,M,-33.324,M,,*75
2018-01-11 19:40:34 1515717634.851175: $GPRMC,004035,A,3946.9590,N,08404.9821,W,0.0000,0.000,120118,,*31
2018-01-11 19:40:34 1515717634.851236: $GPGSA,A,3,7,8,9,16,23,27,30,11,26,28,138,,4.0,0.8,3.5*3A
2018-01-11 19:40:35 1515717635.385607: $GPZDA,004036.00,12,01,2018,00,00*6E
2018-01-11 19:40:35 1515717635.385773: $GPGGA,004036,3946.9590,N,08404.9821,W,2,11,0.80,318.90,M,-33.324,M,,*76
2018-01-11 19:40:35 1515717635.385858: $GPRMC,004036,A,3946.9590,N,08404.9821,W,0.0000,0.000,120118,,*32
2018-01-11 19:40:35 1515717635.385920: $GPGSA,A,3,7,8,9,16,23,27,30,11,26,28,138,,4.0,0.8,3.5*3A
2018-01-11 19:40:36 1515717636.378985: $GPZDA,004037.00,12,01,2018,00,00*6F
2018-01-11 19:40:36 1515717636.379217: $GPGGA,004037,3946.9586,N,08404.9821,W,2,11,0.80,319.66,M,-33.324,M,,*78
2018-01-11 19:40:36 1515717636.379299: $GPRMC,004037,A,3946.9586,N,08404.9821,W,0.0000,0.000,120118,,*34
2018-01-11 19:40:36 1515717636.379361: $GPGSA,A,3,7,8,9,16,23,27,30,11,26,28,138,,4.0,0.8,3.5*3A
2018-01-11 19:40:37 1515717637.717875: $GPGSV,3,1,12,07,43,309,38,08,61,159,46,09,56,250,41,16,34,052,48*7A
2018-01-11 19:40:37 1515717637.718048: $GPGSV,3,2,12,23,43,195,47,27,57,070,49,30,17,300,32,11,09,172,29*7F
2018-01-11 19:40:37 1515717637.718113: $GPGSV,3,3,12,26,08,064,30,21,01,033,00,28,04,249,20,138,38,213,44*47
2018-01-11 19:40:37 1515717637.831317: $GPZDA,004038.00,12,01,2018,00,00*60
2018-01-11 19:40:37 1515717637.831464: $GPGGA,004038,3946.9586,N,08404.9821,W,2,11,0.80,319.66,M,-33.324,M,,*77
2018-01-11 19:40:37 1515717637.831530: $GPRMC,004038,A,3946.9586,N,08404.9821,W,0.0000,0.000,120118,,*3B
2018-01-11 19:40:37 1515717637.831590: $GPGSA,A,3,7,8,9,16,23,27,30,11,26,28,138,,4.0,0.8,3.5*3A
2018-01-11 19:40:38 1515717638.402411: $GPZDA,004039.00,12,01,2018,00,00*61
2018-01-11 19:40:38 1515717638.402561: $GPGGA,004039,3946.9586,N,08404.9821,W,2,11,0.80,319.66,M,-33.324,M,,*76
2018-01-11 19:40:38 1515717638.402627: $GPRMC,004039,A,3946.9586,N,08404.9821,W,0.0000,0.000,120118,,*3A
2018-01-11 19:40:38 1515717638.402688: $GPGSA,A,3,7,8,9,16,23,27,30,11,26,28,138,,4.0,0.8,3.5*3A
2018-01-11 19:40:39 1515717639.388279: $GPZDA,004040.00,12,01,2018,00,00*6F
2018-01-11 19:40:39 1515717639.388433: $GPGGA,004040,3946.9586,N,08404.9821,W,2,11,0.80,319.66,M,-33.324,M,,*78
2018-01-11 19:40:39 1515717639.388550: $GPRMC,004040,A,3946.9586,N,08404.9821,W,0.0000,0.000,120118,,*34
2018-01-11 19:40:39 1515717639.388612: $GPGSA,A,3,7,8,9,16,23,27,30,11,26,28,138,,4.0,0.8,3.5*3A
