2017-11-15 19:05:02 1510790702.082334: {"class":"VERSION","release":"3.17","rev":"3.17","proto_major":3,"proto_minor":12}
2017-11-15 19:05:02 1510790702.082793: {"class":"DEVICES","devices":[{"class":"DEVICE","path":"/dev/ttyUSB0","driver":"SiRF","subtype":"9\u0006GSD4e_4.1.2-P1_RPATCH.05-F-GPS-4R-1510281 11/03/2015 307","activated":"2017-11-16T00:05:01.562Z","flags":1,"native":1,"bps":4800,"parity":"N","stopbits":1,"cycle":1.00}]}
2017-11-15 19:05:02 1510790702.082910: {"class":"WATCH","enable":true,"json":false,"nmea":true,"raw":0,"scaled":false,"timing":false,"split24":false,"pps":false}
2017-11-15 19:05:02 1510790702.345372: $GPZDA,000501.00,16,11,2017,00,00*61
2017-11-15 19:05:02 1510790702.345538: $GPGGA,000501,3946.9589,N,08404.9432,W,1,08,1.40,290.94,M,-33.324,M,,*76
2017-11-15 19:05:02 1510790702.345600: $GPRMC,000501,A,3946.9589,N,08404.9432,W,1.5746,174.845,161117,,*31
2017-11-15 19:05:02 1510790702.345657: $GPGSA,A,3,32,14,3,26,31,16,22,1,,,,,3.4,1.4,2.9*3C
2017-11-15 19:05:03 1510790703.682550: $GPGSV,3,1,11,32,45,096,19,14,63,073,18,03,32,309,20,26,40,175,15*7C
2017-11-15 19:05:03 1510790703.682739: $GPGSV,3,2,11,31,76,355,27,16,11,190,18,22,47,288,16,25,26,045,00*7F
2017-11-15 19:05:03 1510790703.682798: $GPGSV,3,3,11,10,08,159,00,01,12,262,09,29,06,081,00*44
2017-11-15 19:05:03 1510790703.795781: $GPZDA,000502.00,16,11,2017,00,00*62
2017-11-15 19:05:03 1510790703.795963: $GPGGA,000502,3946.9586,N,08404.9433,W,1,08,1.40,291.70,M,-33.324,M,,*70
2017-11-15 19:05:03 1510790703.796025: $GPRMC,000502,A,3946.9586,N,08404.9433,W,1.3921,194.217,161117,,*36
2017-11-15 19:05:03 1510790703.796101: $GPGSA,A,3,32,14,3,26,31,16,22,1,,,,,3.4,1.4,2.9*3C
2017-11-15 19:05:04 1510790704.345396: $GPZDA,000503.00,16,11,2017,00,00*63
2017-11-15 19:05:04 1510790704.345563: $GPGGA,000503,3946.9581,N,08404.9433,W,1,08,1.40,291.06,M,-33.324,M,,*77
2017-11-15 19:05:04 1510790704.345625: $GPRMC,000503,A,3946.9581,N,08404.9433,W,1.3921,194.217,161117,,*30
2017-11-15 19:05:04 1510790704.345682: $GPGSA,A,3,32,14,3,26,31,16,22,1,,,,,3.4,1.4,2.9*3C
2017-11-15 19:05:05 1510790705.346256: $GPZDA,000504.00,16,11,2017,00,00*64
2017-11-15 19:05:05 1510790705.346421: $GPGGA,000504,3946.9582,N,08404.9440,W,1,08,1.40,290.99,M,-33.324,M,,*70
2017-11-15 19:05:05 1510790705.346483: $GPRMC,000504,A,3946.9582,N,08404.9440,W,1.4555,203.636,161117,,*32
2017-11-15 19:05:05 1510790705.346540: $GPGSA,A,3,32,14,3,26,31,16,22,1,,,,,3.4,1.4,2.9*3C
2017-11-15 19:05:06 1510790706.681720: $GPGSV,3,1,11,32,45,096,19,14,63,073,18,03,32,309,20,26,40,175,16*7F
2017-11-15 19:05:06 1510790706.681934: $GPGSV,3,2,11,31,76,355,27,16,11,190,18,22,47,288,16,25,26,045,00*7F
2017-11-15 19:05:06 1510790706.682008: $GPGSV,3,3,11,10,08,159,00,01,12,262,09,29,06,081,00*44
2017-11-15 19:05:06 1510790706.795068: $GPZDA,000505.00,16,11,2017,00,00*65
2017-11-15 19:05:06 1510790706.795253: $GPGGA,000505,3946.9582,N,08404.9440,W,1,08,1.40,290.99,M,-33.324,M,,*71
2017-11-15 19:05:06 1510790706.795314: $GPRMC,000505,A,3946.9582,N,08404.9440,W,1.4115,214.536,161117,,*36
2017-11-15 19:05:06 1510790706.795370: $GPGSA,A,3,32,14,3,26,31,16,22,1,,,,,3.4,1.4,2.9*3C
2017-11-15 19:05:07 1510790707.329508: $GPZDA,000506.00,16,11,2017,00,00*66
2017-11-15 19:05:07 1510790707.329656: $GPGGA,000506,3946.9574,N,08404.9440,W,1,08,1.40,291.11,M,-33.324,M,,*7A
2017-11-15 19:05:07 1510790707.329717: $GPRMC,000506,A,3946.9574,N,08404.9440,W,0.9929,212.499,161117,,*35
2017-11-15 19:05:07 1510790707.329774: $GPGSA,A,3,32,14,3,26,31,16,22,1,,,,,3.4,1.4,2.9*3C
2017-11-15 19:05:08 1510790708.345349: $GPZDA,000507.00,16,11,2017,00,00*67
2017-11-15 19:05:08 1510790708.345518: $GPGGA,000507,3946.9574,N,08404.9440,W,1,08,1.40,291.11,M,-33.324,M,,*7B
2017-11-15 19:05:08 1510790708.345579: $GPRMC,000507,A,3946.9574,N,08404.9440,W,1.0567,197.448,161117,,*38
2017-11-15 19:05:08 1510790708.345635: $GPGSA,A,3,32,14,3,26,31,16,22,1,,,,,3.4,1.4,2.9*3C
2017-11-15 19:05:09 1510790709.682527: $GPGSV,3,1,11,32,45,096,19,14,63,073,18,03,32,309,20,26,40,175,16*7F
2017-11-15 19:05:09 1510790709.682697: $GPGSV,3,2,11,31,76,355,27,16,11,190,18,22,47,288,16,25,26,045,00*7F
2017-11-15 19:05:09 1510790709.682809: $GPGSV,3,3,11,10,08,159,00,01,12,262,10,29,06,081,00*4C
2017-11-15 19:05:09 1510790709.796041: $GPZDA,000508.00,16,11,2017,00,00*68
2017-11-15 19:05:09 1510790709.796206: $GPGGA,000508,3946.9574,N,08404.9440,W,1,08,1.40,291.11,M,-33.324,M,,*74
2017-11-15 19:05:09 1510790709.796266: $GPRMC,000508,A,3946.9574,N,08404.9440,W,0.6846,184.197,161117,,*3B
2017-11-15 19:05:09 1510790709.796322: $GPGSA,A,3,32,14,3,26,31,16,22,1,,,,,3.4,1.4,2.9*3C
2017-11-15 19:05:10 1510790710.345334: $GPZDA,000509.00,16,11,2017,00,00*69
2017-11-15 19:05:10 1510790710.345504: $GPGGA,000509,3946.9578,N,08404.9440,W,1,08,1.40,291.75,M,-33.324,M,,*7B
2017-11-15 19:05:10 1510790710.345568: $GPRMC,000509,A,3946.9578,N,08404.9440,W,0.3006,242.540,161117,,*38
2017-11-15 19:05:10 1510790710.345624: $GPGSA,A,3,32,14,3,26,31,16,22,1,,,,,3.4,1.4,2.9*3C
2017-11-15 19:05:11 1510790711.345696: $GPZDA,000510.00,16,11,2017,00,00*61
2017-11-15 19:05:11 1510790711.345865: $GPGGA,000510,3946.9582,N,08404.9440,W,1,08,1.40,290.99,M,-33.324,M,,*75
2017-11-15 19:05:11 1510790711.345929: $GPRMC,000510,A,3946.9582,N,08404.9440,W,0.4179,328.778,161117,,*3F
2017-11-15 19:05:11 1510790711.346002: $GPGSA,A,3,32,14,3,26,31,16,22,1,,,,,3.4,1.4,2.9*3C
