2018-01-12 03:45:11 1515746711.918421: {"class":"VERSION","release":"3.16","rev":"3.16-4","proto_major":3,"proto_minor":11}
2018-01-12 03:45:11 1515746711.918819: {"class":"DEVICES","devices":[{"class":"DEVICE","path":"/dev/ttyUSB0","driver":"SiRF","subtype":"9\u0006GSD4e_4.1.2-P1_RPATCH.05-F-GPS-4R-1510281 11/03/2015 307","activated":"2018-01-12T08:45:11.914Z","flags":1,"native":1,"bps":4800,"parity":"N","stopbits":1,"cycle":1.00}]}
2018-01-12 03:45:11 1515746711.918953: {"class":"WATCH","enable":true,"json":false,"nmea":true,"raw":0,"scaled":false,"timing":false,"split24":false,"pps":false}
2018-01-12 03:45:13 1515746713.013669: $GPZDA,084513.70,12,01,2018,00,00*63
2018-01-12 03:45:13 1515746713.013829: $GPGGA,084513,3946.9576,N,08404.9809,W,1,10,1.00,307.87,M,-33.324,M,,*7D
2018-01-12 03:45:13 1515746713.013895: $GPRMC,084513,A,3946.9576,N,08404.9809,W,0.1977,122.604,120118,,*31
2018-01-12 03:45:13 1515746713.013957: $GPGSA,A,3,2,5,6,9,12,17,19,25,23,138,,,2.4,1.0,2.1*0F
2018-01-12 03:45:13 1515746713.014014: $GPGBS,084513,11.98,M,14.47,M,47.88,M*01
2018-01-12 03:45:14 1515746714.281820: $GPGSV,3,1,11,02,67,298,38,05,32,195,39,06,60,037,34,09,16,084,33*72
2018-01-12 03:45:14 1515746714.281995: $GPGSV,3,2,11,12,53,282,41,17,27,109,35,19,45,099,30,25,22,315,35*71
2018-01-12 03:45:14 1515746714.282061: $GPGSV,3,3,11,23,09,051,00,04,42,265,00,138,38,213,00*77
2018-01-12 03:45:14 1515746714.395256: $GPZDA,084514.38,12,01,2018,00,00*68
2018-01-12 03:45:14 1515746714.395422: $GPGGA,084514,3946.9581,N,08404.9816,W,1,08,1.00,308.43,M,-33.324,M,,*72
2018-01-12 03:45:14 1515746714.395506: $GPRMC,084514,A,3946.9581,N,08404.9816,W,0.3372,150.407,120118,,*39
2018-01-12 03:45:14 1515746714.395569: $GPGSA,A,3,2,5,6,9,12,17,19,25,,,,,2.4,1.0,2.1*34
2018-01-12 03:45:15 1515746715.201687: $GPZDA,084515.00,12,01,2018,00,00*62
2018-01-12 03:45:15 1515746715.201858: $GPGGA,084515,3946.9581,N,08404.9816,W,1,08,1.00,308.43,M,-33.324,M,,*73
2018-01-12 03:45:15 1515746715.201924: $GPRMC,084515,A,3946.9581,N,08404.9816,W,0.1324,202.230,120118,,*3F
2018-01-12 03:45:15 1515746715.201985: $GPGSA,A,3,2,5,6,9,12,17,19,25,,,,,2.4,1.0,2.1*34
2018-01-12 03:45:15 1515746715.202042: $GPGBS,084515,11.98,M,14.47,M,47.88,M*07
2018-01-12 03:45:15 1515746715.652785: $GPZDA,084516.00,12,01,2018,00,00*61
2018-01-12 03:45:15 1515746715.652984: $GPGGA,084516,3946.9584,N,08404.9815,W,1,08,0.80,307.66,M,-33.324,M,,*77
2018-01-12 03:45:15 1515746715.653058: $GPRMC,084516,A,3946.9584,N,08404.9815,W,0.0407,322.013,120118,,*3D
2018-01-12 03:45:15 1515746715.653121: $GPGSA,A,3,2,5,6,9,12,17,19,25,,,,,2.4,0.8,2.1*3D
2018-01-12 03:45:15 1515746715.653189: $GPGBS,084516,11.98,M,14.47,M,47.88,M*04
2018-01-12 03:45:16 1515746716.738485: $GPGSV,3,1,11,02,67,298,48,05,32,195,49,06,60,037,43,09,16,084,41*77
2018-01-12 03:45:16 1515746716.739489: $GPGSV,3,2,11,12,53,282,51,17,27,109,45,19,45,099,37,25,22,315,44*76
2018-01-12 03:45:16 1515746716.739625: $GPGSV,3,3,11,23,09,051,29,04,42,265,00,138,38,213,40*78
2018-01-12 03:45:16 1515746716.851000: $GPZDA,084517.00,12,01,2018,00,00*60
2018-01-12 03:45:16 1515746716.851228: $GPGGA,084517,3946.9584,N,08404.9822,W,1,10,0.80,307.58,M,-33.324,M,,*76
2018-01-12 03:45:16 1515746716.851298: $GPRMC,084517,A,3946.9584,N,08404.9822,W,0.0000,0.000,120118,,*3A
2018-01-12 03:45:16 1515746716.851373: $GPGSA,A,3,2,5,6,9,12,17,19,25,23,138,,,2.4,0.8,2.1*06
2018-01-12 03:45:17 1515746717.477510: $GPZDA,084518.00,12,01,2018,00,00*6F
2018-01-12 03:45:17 1515746717.477686: $GPGGA,084518,3946.9584,N,08404.9822,W,1,10,0.80,307.58,M,-33.324,M,,*79
2018-01-12 03:45:17 1515746717.477753: $GPRMC,084518,A,3946.9584,N,08404.9822,W,0.0000,0.000,120118,,*35
2018-01-12 03:45:17 1515746717.477815: $GPGSA,A,3,2,5,6,9,12,17,19,25,23,138,,,2.4,0.8,2.1*06
2018-01-12 03:45:18 1515746718.406911: $GPZDA,084519.00,12,01,2018,00,00*6E
2018-01-12 03:45:18 1515746718.407103: $GPGGA,084519,3946.9588,N,08404.9828,W,1,10,0.80,306.74,M,-33.324,M,,*71
2018-01-12 03:45:18 1515746718.407174: $GPRMC,084519,A,3946.9588,N,08404.9828,W,0.0000,0.000,120118,,*32
2018-01-12 03:45:18 1515746718.407311: $GPGSA,A,3,2,5,6,9,12,17,19,25,23,138,,,2.4,0.8,2.1*06
2018-01-12 03:45:19 1515746719.738575: $GPGSV,3,1,11,02,67,298,48,05,32,195,49,06,60,037,43,09,16,084,41*77
2018-01-12 03:45:19 1515746719.738757: $GPGSV,3,2,11,12,53,282,50,17,27,109,45,19,45,099,37,25,22,315,44*77
2018-01-12 03:45:19 1515746719.738823: $GPGSV,3,3,11,23,09,051,29,04,42,265,00,138,38,213,40*78
2018-01-12 03:45:19 1515746719.852035: $GPZDA,084520.00,12,01,2018,00,00*64
2018-01-12 03:45:19 1515746719.852212: $GPGGA,084520,3946.9588,N,08404.9828,W,1,10,0.80,306.74,M,-33.324,M,,*7B
2018-01-12 03:45:19 1515746719.852280: $GPRMC,084520,A,3946.9588,N,08404.9828,W,0.0000,0.000,120118,,*38
2018-01-12 03:45:19 1515746719.852342: $GPGSA,A,3,2,5,6,9,12,17,19,25,23,138,,,2.4,0.8,2.1*06
2018-01-12 03:45:20 1515746720.407784: $GPZDA,084521.00,12,01,2018,00,00*65
2018-01-12 03:45:20 1515746720.407962: $GPGGA,084521,3946.9584,N,08404.9828,W,1,10,0.80,306.10,M,-33.324,M,,*74
2018-01-12 03:45:20 1515746720.408031: $GPRMC,084521,A,3946.9584,N,08404.9828,W,0.0000,0.000,120118,,*35
2018-01-12 03:45:20 1515746720.408095: $GPGSA,A,3,2,5,6,9,12,17,19,25,23,138,,,2.4,0.8,2.1*06
2018-01-12 03:45:21 1515746721.402399: $GPZDA,084522.00,12,01,2018,00,00*66
2018-01-12 03:45:21 1515746721.402585: $GPGGA,084522,3946.9588,N,08404.9834,W,1,10,0.80,305.26,M,-33.324,M,,*70
2018-01-12 03:45:21 1515746721.402653: $GPRMC,084522,A,3946.9588,N,08404.9834,W,0.0000,0.000,120118,,*37
2018-01-12 03:45:21 1515746721.402717: $GPGSA,A,3,2,5,6,9,12,17,19,25,23,138,,,2.4,0.8,2.1*06
2018-01-12 03:45:22 1515746722.738890: $GPGSV,3,1,11,02,67,298,48,05,32,195,48,06,60,037,44,09,16,084,41*71
2018-01-12 03:45:22 1515746722.739069: $GPGSV,3,2,11,12,53,282,50,17,27,109,44,19,45,099,38,25,22,315,44*79
2018-01-12 03:45:22 1515746722.739135: $GPGSV,3,3,11,23,09,051,29,04,42,265,00,138,38,213,35*7A
2018-01-12 03:45:22 1515746722.852401: $GPZDA,084523.00,12,01,2018,00,00*67
2018-01-12 03:45:22 1515746722.852582: $GPGGA,084523,3946.9588,N,08404.9834,W,1,10,0.80,305.26,M,-33.324,M,,*71
2018-01-12 03:45:22 1515746722.852650: $GPRMC,084523,A,3946.9588,N,08404.9834,W,0.0000,0.000,120118,,*36
2018-01-12 03:45:22 1515746722.852713: $GPGSA,A,3,2,5,6,9,12,17,19,25,23,138,,,2.4,0.8,2.1*06
2018-01-12 03:45:23 1515746723.406949: $GPZDA,084524.00,12,01,2018,00,00*60
2018-01-12 03:45:23 1515746723.407122: $GPGGA,084524,3946.9588,N,08404.9834,W,1,10,0.80,305.26,M,-33.324,M,,*76
2018-01-12 03:45:23 1515746723.407188: $GPRMC,084524,A,3946.9588,N,08404.9834,W,0.0000,0.000,120118,,*31
2018-01-12 03:45:23 1515746723.407249: $GPGSA,A,3,2,5,6,9,12,17,19,25,23,138,,,2.4,0.8,2.1*06
2018-01-12 03:45:24 1515746724.404160: $GPZDA,084525.00,12,01,2018,00,00*61
2018-01-12 03:45:24 1515746724.404370: $GPGGA,084525,3946.9596,N,08404.9854,W,2,10,2.80,303.49,M,-33.324,M,,*70
2018-01-12 03:45:24 1515746724.404438: $GPRMC,084525,A,3946.9596,N,08404.9854,W,0.0000,0.000,120118,,*39
2018-01-12 03:45:24 1515746724.404499: $GPGSA,A,3,2,5,6,9,12,17,19,25,23,138,,,2.4,2.8,2.1*04
2018-01-12 03:45:25 1515746725.739838: $GPGSV,3,1,11,02,67,298,48,05,32,195,49,06,60,037,44,09,16,084,41*70
2018-01-12 03:45:25 1515746725.740017: $GPGSV,3,2,11,12,53,282,51,17,27,109,44,19,45,099,38,25,22,315,44*78
2018-01-12 03:45:25 1515746725.740084: $GPGSV,3,3,11,23,09,051,28,04,42,265,00,138,38,213,38*76
2018-01-12 03:45:25 1515746725.853457: $GPZDA,084526.00,12,01,2018,00,00*62
2018-01-12 03:45:25 1515746725.853627: $GPGGA,084526,3946.9596,N,08404.9854,W,2,10,2.80,303.49,M,-33.324,M,,*73
2018-01-12 03:45:25 1515746725.853695: $GPRMC,084526,A,3946.9596,N,08404.9854,W,0.5951,58.684,120118,,*05
2018-01-12 03:45:25 1515746725.853756: $GPGSA,A,3,2,5,6,9,12,17,19,25,23,138,,,2.4,2.8,2.1*04
2018-01-12 03:45:26 1515746726.406491: $GPZDA,084527.00,12,01,2018,00,00*63
2018-01-12 03:45:26 1515746726.406666: $GPGGA,084527,3946.9596,N,08404.9854,W,2,10,2.80,303.49,M,-33.324,M,,*72
2018-01-12 03:45:26 1515746726.406732: $GPRMC,084527,A,3946.9596,N,08404.9854,W,0.0000,0.000,120118,,*3B
2018-01-12 03:45:26 1515746726.406793: $GPGSA,A,3,2,5,6,9,12,17,19,25,23,138,,,2.4,2.8,2.1*04
2018-01-12 03:45:27 1515746727.405687: $GPZDA,084528.00,12,01,2018,00,00*6C
2018-01-12 03:45:27 1515746727.405857: $GPGGA,084528,3946.9596,N,08404.9854,W,2,10,0.80,303.49,M,-33.324,M,,*7F
2018-01-12 03:45:27 1515746727.405923: $GPRMC,084528,A,3946.9596,N,08404.9854,W,0.0000,0.000,120118,,*34
2018-01-12 03:45:27 1515746727.405984: $GPGSA,A,3,2,5,6,9,12,17,19,25,23,138,,,2.4,0.8,2.1*06
2018-01-12 03:45:28 1515746728.745499: $GPGSV,3,1,11,02,67,298,48,05,32,195,49,06,60,037,44,09,16,084,41*70
2018-01-12 03:45:28 1515746728.745684: $GPGSV,3,2,11,12,53,282,51,17,27,109,45,19,45,099,38,25,22,315,44*79
2018-01-12 03:45:28 1515746728.745841: $GPGSV,3,3,11,23,09,051,28,04,42,265,00,138,38,213,40*79
2018-01-12 03:45:28 1515746728.858604: $GPZDA,084529.00,12,01,2018,00,00*6D
2018-01-12 03:45:28 1515746728.858776: $GPGGA,084529,3946.9596,N,08404.9854,W,2,10,0.80,303.49,M,-33.324,M,,*7E
2018-01-12 03:45:28 1515746728.858842: $GPRMC,084529,A,3946.9596,N,08404.9854,W,0.0000,0.000,120118,,*35
2018-01-12 03:45:28 1515746728.858903: $GPGSA,A,3,2,5,6,9,12,17,19,25,23,138,,,2.4,0.8,2.1*06
2018-01-12 03:45:29 1515746729.404515: $GPZDA,084530.00,12,01,2018,00,00*65
2018-01-12 03:45:29 1515746729.404684: $GPGGA,084530,3946.9596,N,08404.9854,W,2,10,0.80,303.49,M,-33.324,M,,*76
2018-01-12 03:45:29 1515746729.404751: $GPRMC,084530,A,3946.9596,N,08404.9854,W,0.0000,0.000,120118,,*3D
2018-01-12 03:45:29 1515746729.404812: $GPGSA,A,3,2,5,6,9,12,17,19,25,23,138,,,2.4,0.8,2.1*06
2018-01-12 03:45:30 1515746730.404174: $GPZDA,084531.00,12,01,2018,00,00*64
2018-01-12 03:45:30 1515746730.404386: $GPGGA,084531,3946.9596,N,08404.9854,W,2,10,0.80,303.49,M,-33.324,M,,*77
2018-01-12 03:45:30 1515746730.404452: $GPRMC,084531,A,3946.9596,N,08404.9854,W,0.0000,0.000,120118,,*3C
2018-01-12 03:45:30 1515746730.404514: $GPGSA,A,3,2,5,6,9,12,17,19,25,23,138,,,2.4,0.8,2.1*06
2018-01-12 03:45:31 1515746731.744960: $GPGSV,3,1,11,02,67,298,48,05,32,195,49,06,60,037,45,09,16,084,41*71
2018-01-12 03:45:31 1515746731.745140: $GPGSV,3,2,11,12,53,282,51,17,27,109,45,19,45,099,38,25,22,315,44*79
2018-01-12 03:45:31 1515746731.745207: $GPGSV,3,3,11,23,09,051,28,04,42,265,00,138,38,213,38*76
2018-01-12 03:45:31 1515746731.856875: $GPZDA,084532.00,12,01,2018,00,00*67
2018-01-12 03:45:31 1515746731.862193: $GPGGA,084532,3946.9596,N,08404.9854,W,2,10,0.80,303.49,M,-33.324,M,,*74
2018-01-12 03:45:31 1515746731.862288: $GPRMC,084532,A,3946.9596,N,08404.9854,W,0.0000,0.000,120118,,*3F
2018-01-12 03:45:31 1515746731.862352: $GPGSA,A,3,2,5,6,9,12,17,19,25,23,138,,,2.4,0.8,2.1*06
