2017-12-29 14:50:31 1514577031.223475: {"class":"VERSION","release":"3.16","rev":"3.16-4","proto_major":3,"proto_minor":11}
2017-12-29 14:50:31 1514577031.223831: {"class":"DEVICES","devices":[{"class":"DEVICE","path":"/dev/ttyUSB0","driver":"SiRF","subtype":"9\u0006GSD4e_4.1.2-P1_RPATCH.05-F-GPS-4R-1510281 11/03/2015 307","activated":"2017-12-29T19:50:31.168Z","flags":1,"native":1,"bps":4800,"parity":"N","stopbits":1,"cycle":1.00}]}
2017-12-29 14:50:31 1514577031.223948: {"class":"WATCH","enable":true,"json":false,"nmea":true,"raw":0,"scaled":false,"timing":false,"split24":false,"pps":false}
2017-12-29 14:50:32 1514577032.224490: $GPGSV,3,1,12,01,22,294,39,26,09,180,22,10,40,151,49,11,06,277,34*76
2017-12-29 14:50:32 1514577032.224673: $GPGSV,3,2,12,12,19,043,46,14,68,342,43,18,11,145,33,22,25,310,42*76
2017-12-29 14:50:32 1514577032.224742: $GPGSV,3,3,12,25,41,082,52,31,64,232,47,32,65,048,51,138,38,213,43*49
2017-12-29 14:50:32 1514577032.337888: $GPZDA,195032.00,29,12,2017,00,00*66
2017-12-29 14:50:32 1514577032.338050: $GPGGA,195032,3946.9571,N,08404.9771,W,2,12,0.80,302.65,M,-33.324,M,,*7C
2017-12-29 14:50:32 1514577032.338117: $GPRMC,195032,A,3946.9571,N,08404.9771,W,0.3155,129.994,291217,,*33
2017-12-29 14:50:32 1514577032.338180: $GPGSA,A,3,1,26,10,11,12,14,18,22,25,31,32,138,1.7,0.8,1.3*3B
2017-12-29 14:50:32 1514577032.789023: $GPZDA,195033.00,29,12,2017,00,00*67
2017-12-29 14:50:32 1514577032.789194: $GPGGA,195033,3946.9571,N,08404.9771,W,2,12,0.80,302.65,M,-33.324,M,,*7D
2017-12-29 14:50:32 1514577032.789260: $GPRMC,195033,A,3946.9571,N,08404.9771,W,0.0000,0.000,291217,,*3E
2017-12-29 14:50:32 1514577032.789323: $GPGSA,A,3,1,26,10,11,12,14,18,22,25,31,32,138,1.7,0.8,1.3*3B
2017-12-29 14:50:33 1514577033.367601: $GPZDA,195034.00,29,12,2017,00,00*60
2017-12-29 14:50:33 1514577033.367774: $GPGGA,195034,3946.9571,N,08404.9771,W,2,12,0.80,302.65,M,-33.324,M,,*7A
2017-12-29 14:50:33 1514577033.367839: $GPRMC,195034,A,3946.9571,N,08404.9771,W,0.0000,0.000,291217,,*39
2017-12-29 14:50:33 1514577033.367900: $GPGSA,A,3,1,26,10,11,12,14,18,22,25,31,32,138,1.7,0.8,1.3*3B
2017-12-29 14:50:34 1514577034.704137: $GPGSV,3,1,12,01,22,294,38,26,09,180,22,10,40,151,49,03,06,316,38*7E
2017-12-29 14:50:34 1514577034.704320: $GPGSV,3,2,12,12,19,043,46,14,68,342,43,18,11,145,33,22,25,310,42*76
2017-12-29 14:50:34 1514577034.704387: $GPGSV,3,3,12,25,41,082,52,31,64,232,47,32,65,048,51,138,38,213,43*49
2017-12-29 14:50:34 1514577034.816255: $GPZDA,195035.00,29,12,2017,00,00*61
2017-12-29 14:50:34 1514577034.816425: $GPGGA,195035,3946.9571,N,08404.9771,W,2,12,0.80,302.65,M,-33.324,M,,*7B
2017-12-29 14:50:34 1514577034.816492: $GPRMC,195035,A,3946.9571,N,08404.9771,W,0.0000,0.000,291217,,*38
2017-12-29 14:50:34 1514577034.816553: $GPGSA,A,3,1,26,10,3,12,14,18,22,25,31,32,138,1.7,0.8,1.3*08
2017-12-29 14:50:35 1514577035.442915: $GPZDA,195036.00,29,12,2017,00,00*62
2017-12-29 14:50:35 1514577035.443060: $GPGGA,195036,3946.9571,N,08404.9771,W,2,12,0.80,302.65,M,-33.324,M,,*78
2017-12-29 14:50:35 1514577035.443128: $GPRMC,195036,A,3946.9571,N,08404.9771,W,0.0000,0.000,291217,,*3B
2017-12-29 14:50:35 1514577035.443189: $GPGSA,A,3,1,26,10,3,12,14,18,22,25,31,32,138,1.7,0.8,1.3*08
2017-12-29 14:50:36 1514577036.359977: $GPZDA,195037.00,29,12,2017,00,00*63
2017-12-29 14:50:36 1514577036.360175: $GPGGA,195037,3946.9571,N,08404.9771,W,2,12,0.80,302.65,M,-33.324,M,,*79
2017-12-29 14:50:36 1514577036.360262: $GPRMC,195037,A,3946.9571,N,08404.9771,W,0.0000,0.000,291217,,*3A
2017-12-29 14:50:36 1514577036.360325: $GPGSA,A,3,1,26,10,3,12,14,18,22,25,31,32,138,1.7,0.8,1.3*08
2017-12-29 14:50:37 1514577037.698243: $GPGSV,3,1,12,01,22,294,38,26,09,180,23,10,40,151,49,03,06,316,38*7F
2017-12-29 14:50:37 1514577037.698426: $GPGSV,3,2,12,12,19,043,46,14,68,342,43,18,11,145,33,22,25,310,42*76
2017-12-29 14:50:37 1514577037.698493: $GPGSV,3,3,12,25,41,082,52,31,64,232,46,32,65,048,50,138,38,213,45*4F
2017-12-29 14:50:37 1514577037.811756: $GPZDA,195038.00,29,12,2017,00,00*6C
2017-12-29 14:50:37 1514577037.811921: $GPGGA,195038,3946.9571,N,08404.9771,W,2,12,0.80,302.65,M,-33.324,M,,*76
2017-12-29 14:50:37 1514577037.812038: $GPRMC,195038,A,3946.9571,N,08404.9771,W,0.0000,0.000,291217,,*35
2017-12-29 14:50:37 1514577037.812100: $GPGSA,A,3,1,26,10,3,12,14,18,22,25,31,32,138,1.7,0.8,1.3*08
2017-12-29 14:50:38 1514577038.367527: $GPZDA,195039.00,29,12,2017,00,00*6D
2017-12-29 14:50:38 1514577038.367718: $GPGGA,195039,3946.9571,N,08404.9771,W,2,12,0.80,302.65,M,-33.324,M,,*77
2017-12-29 14:50:38 1514577038.367786: $GPRMC,195039,A,3946.9571,N,08404.9771,W,0.0000,0.000,291217,,*34
2017-12-29 14:50:38 1514577038.367848: $GPGSA,A,3,1,26,10,3,12,14,18,22,25,31,32,138,1.7,0.8,1.3*08
2017-12-29 14:50:39 1514577039.365933: $GPZDA,195040.00,29,12,2017,00,00*63
2017-12-29 14:50:39 1514577039.366118: $GPGGA,195040,3946.9571,N,08404.9771,W,2,12,0.80,302.65,M,-33.324,M,,*79
2017-12-29 14:50:39 1514577039.366185: $GPRMC,195040,A,3946.9571,N,08404.9771,W,0.0000,0.000,291217,,*3A
2017-12-29 14:50:39 1514577039.366245: $GPGSA,A,3,1,26,10,3,12,14,18,22,25,31,32,138,1.7,0.8,1.3*08
2017-12-29 14:50:40 1514577040.702429: $GPGSV,3,1,12,01,22,294,38,26,09,180,23,10,40,151,49,03,06,316,38*7F
2017-12-29 14:50:40 1514577040.702593: $GPGSV,3,2,12,12,19,043,46,14,68,342,43,18,11,145,33,22,25,310,42*76
2017-12-29 14:50:40 1514577040.702658: $GPGSV,3,3,12,25,41,082,52,31,64,232,47,32,65,048,51,138,38,213,44*4E
2017-12-29 14:50:40 1514577040.816003: $GPZDA,195041.00,29,12,2017,00,00*62
2017-12-29 14:50:40 1514577040.816172: $GPGGA,195041,3946.9571,N,08404.9771,W,2,12,0.80,302.65,M,-33.324,M,,*78
2017-12-29 14:50:40 1514577040.816238: $GPRMC,195041,A,3946.9571,N,08404.9771,W,0.0000,0.000,291217,,*3B
2017-12-29 14:50:40 1514577040.816298: $GPGSA,A,3,1,26,10,3,12,14,18,22,25,31,32,138,1.7,0.8,1.3*08
2017-12-29 14:50:41 1514577041.368045: $GPZDA,195042.00,29,12,2017,00,00*61
2017-12-29 14:50:41 1514577041.368231: $GPGGA,195042,3946.9571,N,08404.9771,W,2,12,0.80,302.65,M,-33.324,M,,*7B
2017-12-29 14:50:41 1514577041.368318: $GPRMC,195042,A,3946.9571,N,08404.9771,W,0.0000,0.000,291217,,*38
2017-12-29 14:50:41 1514577041.368381: $GPGSA,A,3,1,26,10,3,12,14,18,22,25,31,32,138,1.7,0.8,1.3*08
2017-12-29 14:50:42 1514577042.367524: $GPZDA,195043.00,29,12,2017,00,00*60
2017-12-29 14:50:42 1514577042.367697: $GPGGA,195043,3946.9571,N,08404.9771,W,2,12,0.80,302.65,M,-33.324,M,,*7A
2017-12-29 14:50:42 1514577042.367762: $GPRMC,195043,A,3946.9571,N,08404.9771,W,0.0000,0.000,291217,,*39
2017-12-29 14:50:42 1514577042.367823: $GPGSA,A,3,1,26,10,3,12,14,18,22,25,31,32,138,1.7,0.8,1.3*08
2017-12-29 14:50:43 1514577043.703482: $GPGSV,3,1,12,01,22,294,38,26,09,180,23,10,40,151,49,03,06,316,38*7F
2017-12-29 14:50:43 1514577043.703676: $GPGSV,3,2,12,12,19,043,46,14,68,342,43,18,11,145,33,22,25,310,41*75
2017-12-29 14:50:43 1514577043.703744: $GPGSV,3,3,12,25,41,082,52,31,64,232,47,32,65,048,51,138,38,213,43*49
2017-12-29 14:50:43 1514577043.816728: $GPZDA,195044.00,29,12,2017,00,00*67
2017-12-29 14:50:43 1514577043.816905: $GPGGA,195044,3946.9571,N,08404.9771,W,2,12,0.80,302.65,M,-33.324,M,,*7D
2017-12-29 14:50:43 1514577043.816972: $GPRMC,195044,A,3946.9571,N,08404.9771,W,0.0000,0.000,291217,,*3E
2017-12-29 14:50:43 1514577043.817033: $GPGSA,A,3,1,26,10,3,12,14,18,22,25,31,32,138,1.7,0.8,1.3*08
2017-12-29 14:50:44 1514577044.360230: $GPZDA,195045.00,29,12,2017,00,00*66
2017-12-29 14:50:44 1514577044.360388: $GPGGA,195045,3946.9571,N,08404.9771,W,2,12,0.80,302.65,M,-33.324,M,,*7C
2017-12-29 14:50:44 1514577044.360453: $GPRMC,195045,A,3946.9571,N,08404.9771,W,0.0000,0.000,291217,,*3F
2017-12-29 14:50:44 1514577044.360514: $GPGSA,A,3,1,26,10,3,12,14,18,22,25,31,32,138,1.7,0.8,1.3*08
2017-12-29 14:50:45 1514577045.367798: $GPZDA,195046.00,29,12,2017,00,00*65
2017-12-29 14:50:45 1514577045.367972: $GPGGA,195046,3946.9571,N,08404.9771,W,2,12,0.80,302.65,M,-33.324,M,,*7F
2017-12-29 14:50:45 1514577045.368039: $GPRMC,195046,A,3946.9571,N,08404.9771,W,0.0000,0.000,291217,,*3C
2017-12-29 14:50:45 1514577045.368100: $GPGSA,A,3,1,26,10,3,12,14,18,22,25,31,32,138,1.7,0.8,1.3*08
2017-12-29 14:50:46 1514577046.703568: $GPGSV,3,1,12,01,22,294,38,26,09,180,23,10,40,151,49,03,06,316,39*7E
2017-12-29 14:50:46 1514577046.703764: $GPGSV,3,2,12,12,19,043,46,14,68,342,43,18,11,145,33,22,25,310,40*74
2017-12-29 14:50:46 1514577046.703832: $GPGSV,3,3,12,25,41,082,51,31,64,232,48,32,65,048,51,138,38,213,43*45
2017-12-29 14:50:46 1514577046.816906: $GPZDA,195047.00,29,12,2017,00,00*64
2017-12-29 14:50:46 1514577046.817076: $GPGGA,195047,3946.9571,N,08404.9771,W,2,12,0.80,302.65,M,-33.324,M,,*7E
2017-12-29 14:50:46 1514577046.817142: $GPRMC,195047,A,3946.9571,N,08404.9771,W,0.0000,0.000,291217,,*3D
2017-12-29 14:50:46 1514577046.817204: $GPGSA,A,3,1,26,10,3,12,14,18,22,25,31,32,138,1.7,0.8,1.3*08
2017-12-29 14:50:47 1514577047.366513: $GPZDA,195048.00,29,12,2017,00,00*6B
2017-12-29 14:50:47 1514577047.366696: $GPGGA,195048,3946.9571,N,08404.9771,W,2,12,0.80,302.65,M,-33.324,M,,*71
2017-12-29 14:50:47 1514577047.366763: $GPRMC,195048,A,3946.9571,N,08404.9771,W,0.0000,0.000,291217,,*32
2017-12-29 14:50:47 1514577047.366823: $GPGSA,A,3,1,26,10,3,12,14,18,22,25,31,32,138,1.7,0.8,1.3*08
2017-12-29 14:50:48 1514577048.366224: $GPZDA,195049.00,29,12,2017,00,00*6A
2017-12-29 14:50:48 1514577048.366396: $GPGGA,195049,3946.9571,N,08404.9771,W,2,12,0.80,302.65,M,-33.324,M,,*70
2017-12-29 14:50:48 1514577048.366461: $GPRMC,195049,A,3946.9571,N,08404.9771,W,0.0000,0.000,291217,,*33
2017-12-29 14:50:48 1514577048.366522: $GPGSA,A,3,1,26,10,3,12,14,18,22,25,31,32,138,1.7,0.8,1.3*08
2017-12-29 14:50:49 1514577049.705757: $GPGSV,3,1,12,01,22,294,37,26,09,180,23,10,40,151,49,03,06,316,40*7F
2017-12-29 14:50:49 1514577049.705938: $GPGSV,3,2,12,12,19,043,46,14,68,342,43,18,11,145,33,22,25,310,40*74
2017-12-29 14:50:49 1514577049.706004: $GPGSV,3,3,12,25,41,082,51,31,64,232,47,32,65,048,51,138,38,213,43*4A
2017-12-29 14:50:49 1514577049.819334: $GPZDA,195050.00,29,12,2017,00,00*62
2017-12-29 14:50:49 1514577049.819487: $GPGGA,195050,3946.9571,N,08404.9771,W,2,12,0.80,302.65,M,-33.324,M,,*78
2017-12-29 14:50:49 1514577049.819553: $GPRMC,195050,A,3946.9571,N,08404.9771,W,0.0000,0.000,291217,,*3B
2017-12-29 14:50:49 1514577049.819613: $GPGSA,A,3,1,26,10,3,12,14,18,22,25,31,32,138,1.7,0.8,1.3*08
2017-12-29 14:50:50 1514577050.444495: $GPZDA,195051.00,29,12,2017,00,00*63
2017-12-29 14:50:50 1514577050.444675: $GPGGA,195051,3946.9571,N,08404.9771,W,2,12,0.80,302.65,M,-33.324,M,,*79
2017-12-29 14:50:50 1514577050.444742: $GPRMC,195051,A,3946.9571,N,08404.9771,W,0.0000,0.000,291217,,*3A
2017-12-29 14:50:50 1514577050.444803: $GPGSA,A,3,1,26,10,3,12,14,18,22,25,31,32,138,1.7,0.8,1.3*08
