2017-11-16 14:56:12 1510862172.857783: {"class":"VERSION","release":"3.17","rev":"3.17","proto_major":3,"proto_minor":12}
2017-11-16 14:56:12 1510862172.858343: {"class":"DEVICES","devices":[{"class":"DEVICE","path":"/dev/ttyUSB0","driver":"SiRF","subtype":"9\u0006GSD4e_4.1.2-P1_RPATCH.05-F-GPS-4R-1510281 11/03/2015 307","activated":"2017-11-16T19:56:12.826Z","flags":1,"native":1,"bps":4800,"parity":"N","stopbits":1,"cycle":1.00}]}
2017-11-16 14:56:12 1510862172.858482: {"class":"WATCH","enable":true,"json":false,"nmea":true,"raw":0,"scaled":false,"timing":false,"split24":false,"pps":false}
2017-11-16 14:56:12 1510862172.939361: $GPZDA,195611.00,16,11,2017,00,00*6E
2017-11-16 14:56:12 1510862172.939514: $GPGGA,195611,3946.9575,N,08404.9848,W,2,11,0.80,301.77,M,-33.324,M,,*79
2017-11-16 14:56:12 1510862172.939573: $GPRMC,195611,A,3946.9575,N,08404.9848,W,0.0000,0.000,161117,,*36
2017-11-16 14:56:12 1510862172.939628: $GPGSA,A,3,8,10,15,18,21,20,24,27,32,14,138,,1.6,0.8,1.3*37
2017-11-16 14:56:13 1510862173.487748: $GPZDA,195612.00,16,11,2017,00,00*6D
2017-11-16 14:56:13 1510862173.487917: $GPGGA,195612,3946.9575,N,08404.9848,W,2,11,0.80,301.77,M,-33.324,M,,*7A
2017-11-16 14:56:13 1510862173.487978: $GPRMC,195612,A,3946.9575,N,08404.9848,W,0.0000,0.000,161117,,*35
2017-11-16 14:56:13 1510862173.488034: $GPGSA,A,3,8,10,15,18,21,20,24,27,32,14,138,,1.6,0.8,1.3*37
2017-11-16 14:56:14 1510862174.494423: $GPZDA,195613.00,16,11,2017,00,00*6C
2017-11-16 14:56:14 1510862174.494565: $GPGGA,195613,3946.9575,N,08404.9848,W,2,11,0.80,301.77,M,-33.324,M,,*7B
2017-11-16 14:56:14 1510862174.494626: $GPRMC,195613,A,3946.9575,N,08404.9848,W,0.0000,0.000,161117,,*34
2017-11-16 14:56:14 1510862174.494682: $GPGSA,A,3,8,10,15,18,21,20,24,27,32,14,138,,1.6,0.8,1.3*37
2017-11-16 14:56:15 1510862175.829022: $GPGSV,3,1,12,08,08,304,33,10,57,316,50,12,01,117,00,15,21,060,50*7C
2017-11-16 14:56:15 1510862175.829189: $GPGSV,3,2,12,18,77,048,45,21,43,181,44,20,18,109,44,24,52,076,48*7C
2017-11-16 14:56:15 1510862175.829248: $GPGSV,3,3,12,27,13,271,43,32,36,252,47,14,19,244,45,138,38,213,44*43
2017-11-16 14:56:15 1510862175.942366: $GPZDA,195614.00,16,11,2017,00,00*6B
2017-11-16 14:56:15 1510862175.942517: $GPGGA,195614,3946.9575,N,08404.9848,W,2,11,0.80,301.77,M,-33.324,M,,*7C
2017-11-16 14:56:15 1510862175.942579: $GPRMC,195614,A,3946.9575,N,08404.9848,W,0.0000,0.000,161117,,*33
2017-11-16 14:56:15 1510862175.942634: $GPGSA,A,3,8,10,15,18,21,20,24,27,32,14,138,,1.6,0.8,1.3*37
2017-11-16 14:56:16 1510862176.493183: $GPZDA,195615.00,16,11,2017,00,00*6A
2017-11-16 14:56:16 1510862176.493340: $GPGGA,195615,3946.9575,N,08404.9848,W,2,11,0.80,301.77,M,-33.324,M,,*7D
2017-11-16 14:56:16 1510862176.493400: $GPRMC,195615,A,3946.9575,N,08404.9848,W,0.0000,0.000,161117,,*32
2017-11-16 14:56:16 1510862176.493455: $GPGSA,A,3,8,10,15,18,21,20,24,27,32,14,138,,1.6,0.8,1.3*37
2017-11-16 14:56:17 1510862177.492822: $GPZDA,195616.00,16,11,2017,00,00*69
2017-11-16 14:56:17 1510862177.492982: $GPGGA,195616,3946.9575,N,08404.9848,W,2,11,0.80,301.77,M,-33.324,M,,*7E
2017-11-16 14:56:17 1510862177.493042: $GPRMC,195616,A,3946.9575,N,08404.9848,W,0.0000,0.000,161117,,*31
2017-11-16 14:56:17 1510862177.493097: $GPGSA,A,3,8,10,15,18,21,20,24,27,32,14,138,,1.6,0.8,1.3*37
2017-11-16 14:56:18 1510862178.829909: $GPGSV,3,1,12,08,08,304,34,10,57,316,50,12,01,117,00,15,21,060,50*7B
2017-11-16 14:56:18 1510862178.830083: $GPGSV,3,2,12,18,77,048,45,21,43,181,44,20,18,109,44,24,52,076,48*7C
2017-11-16 14:56:18 1510862178.830144: $GPGSV,3,3,12,27,13,271,43,32,36,252,46,14,19,244,45,138,38,213,43*45
2017-11-16 14:56:18 1510862178.943208: $GPZDA,195617.00,16,11,2017,00,00*68
2017-11-16 14:56:18 1510862178.943367: $GPGGA,195617,3946.9575,N,08404.9848,W,2,11,0.80,301.77,M,-33.324,M,,*7F
2017-11-16 14:56:18 1510862178.943427: $GPRMC,195617,A,3946.9575,N,08404.9848,W,0.0000,0.000,161117,,*30
2017-11-16 14:56:18 1510862178.943483: $GPGSA,A,3,8,10,15,18,21,20,24,27,32,14,138,,1.6,0.8,1.3*37
2017-11-16 14:56:19 1510862179.568877: $GPZDA,195618.00,16,11,2017,00,00*67
2017-11-16 14:56:19 1510862179.569088: $GPGGA,195618,3946.9575,N,08404.9848,W,2,11,0.80,301.77,M,-33.324,M,,*70
2017-11-16 14:56:19 1510862179.569151: $GPRMC,195618,A,3946.9575,N,08404.9848,W,0.0000,0.000,161117,,*3F
2017-11-16 14:56:19 1510862179.569208: $GPGSA,A,3,8,10,15,18,21,20,24,27,32,14,138,,1.6,0.8,1.3*37
2017-11-16 14:56:20 1510862180.490044: $GPZDA,195619.00,16,11,2017,00,00*66
2017-11-16 14:56:20 1510862180.490214: $GPGGA,195619,3946.9575,N,08404.9848,W,2,11,0.80,301.77,M,-33.324,M,,*71
2017-11-16 14:56:20 1510862180.490476: $GPRMC,195619,A,3946.9575,N,08404.9848,W,0.0000,0.000,161117,,*3E
2017-11-16 14:56:20 1510862180.490545: $GPGSA,A,3,8,10,15,18,21,20,24,27,32,14,138,,1.6,0.8,1.3*37
2017-11-16 14:56:21 1510862181.828994: $GPGSV,3,1,12,08,08,304,35,10,57,316,50,12,01,117,00,15,21,060,49*72
2017-11-16 14:56:21 1510862181.829164: $GPGSV,3,2,12,18,77,048,45,21,43,181,44,20,18,109,44,24,52,076,47*73
2017-11-16 14:56:21 1510862181.829224: $GPGSV,3,3,12,27,13,271,43,32,36,252,46,14,19,244,45,138,38,213,43*45
2017-11-16 14:56:21 1510862181.942680: $GPZDA,195620.00,16,11,2017,00,00*6C
2017-11-16 14:56:21 1510862181.942851: $GPGGA,195620,3946.9575,N,08404.9848,W,2,11,0.80,301.77,M,-33.324,M,,*7B
2017-11-16 14:56:21 1510862181.942913: $GPRMC,195620,A,3946.9575,N,08404.9848,W,0.0000,0.000,161117,,*34
2017-11-16 14:56:21 1510862181.942969: $GPGSA,A,3,8,10,15,18,21,20,24,27,32,14,138,,1.6,0.8,1.3*37
2017-11-16 14:56:22 1510862182.493665: $GPZDA,195621.00,16,11,2017,00,00*6D
2017-11-16 14:56:22 1510862182.493841: $GPGGA,195621,3946.9575,N,08404.9848,W,2,11,0.80,301.77,M,-33.324,M,,*7A
2017-11-16 14:56:22 1510862182.493904: $GPRMC,195621,A,3946.9575,N,08404.9848,W,0.0000,0.000,161117,,*35
2017-11-16 14:56:22 1510862182.493960: $GPGSA,A,3,8,10,15,18,21,20,24,27,32,14,138,,1.6,0.8,1.3*37
