2017-11-16 15:54:14 1510865654.616629: {"class":"VERSION","release":"3.17","rev":"3.17","proto_major":3,"proto_minor":12}
2017-11-16 15:54:14 1510865654.616944: {"class":"DEVICES","devices":[{"class":"DEVICE","path":"/dev/ttyUSB0","driver":"SiRF","subtype":"9\u0006GSD4e_4.1.2-P1_RPATCH.05-F-GPS-4R-1510281 11/03/2015 307","activated":"2017-11-16T20:54:14.507Z","flags":1,"native":1,"bps":4800,"parity":"N","stopbits":1,"cycle":1.00}]}
2017-11-16 15:54:14 1510865654.617012: {"class":"WATCH","enable":true,"json":false,"nmea":true,"raw":0,"scaled":false,"timing":false,"split24":false,"pps":false}
2017-11-16 15:54:15 1510865655.375325: $GPZDA,205414.00,16,11,2017,00,00*63
2017-11-16 15:54:15 1510865655.375491: $GPGGA,205414,3946.9578,N,08404.9844,W,2,12,1.20,307.47,M,-33.324,M,,*78
2017-11-16 15:54:15 1510865655.375552: $GPRMC,205414,A,3946.9578,N,08404.9844,W,0.0000,0.000,161117,,*3A
2017-11-16 15:54:15 1510865655.375609: $GPGSA,A,3,11,10,14,31,18,25,21,24,15,32,12,138,1.6,1.2,1.3*05
2017-11-16 15:54:16 1510865656.702954: $GPGSV,3,1,12,11,04,321,33,10,80,001,50,14,38,264,46,31,10,205,28*73
2017-11-16 15:54:16 1510865656.703068: $GPGSV,3,2,12,18,60,115,48,25,12,133,33,21,16,177,36,24,35,049,50*70
2017-11-16 15:54:16 1510865656.703099: $GPGSV,3,3,12,15,03,073,31,32,55,280,47,12,17,096,46,138,38,213,44*4A
2017-11-16 15:54:16 1510865656.815820: $GPZDA,205415.00,16,11,2017,00,00*62
2017-11-16 15:54:16 1510865656.815937: $GPGGA,205415,3946.9578,N,08404.9844,W,2,12,1.20,307.47,M,-33.324,M,,*79
2017-11-16 15:54:16 1510865656.815969: $GPRMC,205415,A,3946.9578,N,08404.9844,W,0.0000,0.000,161117,,*3B
2017-11-16 15:54:16 1510865656.815997: $GPGSA,A,3,11,10,14,31,18,25,21,24,15,32,12,138,1.6,1.2,1.3*05
2017-11-16 15:54:17 1510865657.367297: $GPZDA,205416.00,16,11,2017,00,00*61
2017-11-16 15:54:17 1510865657.367462: $GPGGA,205416,3946.9578,N,08404.9844,W,2,12,1.20,307.47,M,-33.324,M,,*7A
2017-11-16 15:54:17 1510865657.367523: $GPRMC,205416,A,3946.9578,N,08404.9844,W,0.0000,0.000,161117,,*38
2017-11-16 15:54:17 1510865657.367579: $GPGSA,A,3,11,10,14,31,18,25,21,24,15,32,12,138,1.6,1.2,1.3*05
2017-11-16 15:54:18 1510865658.365655: $GPZDA,205417.00,16,11,2017,00,00*60
2017-11-16 15:54:18 1510865658.365820: $GPGGA,205417,3946.9578,N,08404.9844,W,2,12,1.20,307.47,M,-33.324,M,,*7B
2017-11-16 15:54:18 1510865658.365874: $GPRMC,205417,A,3946.9578,N,08404.9844,W,0.0000,0.000,161117,,*39
2017-11-16 15:54:18 1510865658.365905: $GPGSA,A,3,11,10,14,31,18,25,21,24,15,32,12,138,1.6,1.2,1.3*05
2017-11-16 15:54:19 1510865659.702902: $GPGSV,3,1,12,11,04,321,33,10,80,001,50,14,38,264,45,31,10,205,28*70
2017-11-16 15:54:19 1510865659.703041: $GPGSV,3,2,12,18,60,115,48,25,12,133,33,21,16,177,35,24,35,049,50*73
2017-11-16 15:54:19 1510865659.703073: $GPGSV,3,3,12,15,03,073,31,32,55,280,47,12,17,096,47,138,38,213,44*4B
2017-11-16 15:54:19 1510865659.815587: $GPZDA,205418.00,16,11,2017,00,00*6F
2017-11-16 15:54:19 1510865659.815707: $GPGGA,205418,3946.9578,N,08404.9844,W,2,12,1.20,307.47,M,-33.324,M,,*74
2017-11-16 15:54:19 1510865659.815738: $GPRMC,205418,A,3946.9578,N,08404.9844,W,0.0000,0.000,161117,,*36
2017-11-16 15:54:19 1510865659.815767: $GPGSA,A,3,11,10,14,31,18,25,21,24,15,32,12,138,1.6,1.2,1.3*05
2017-11-16 15:54:20 1510865660.359589: $GPZDA,205419.00,16,11,2017,00,00*6E
2017-11-16 15:54:20 1510865660.359767: $GPGGA,205419,3946.9578,N,08404.9844,W,2,12,1.20,307.47,M,-33.324,M,,*75
2017-11-16 15:54:20 1510865660.359829: $GPRMC,205419,A,3946.9578,N,08404.9844,W,0.0000,0.000,161117,,*37
2017-11-16 15:54:20 1510865660.359886: $GPGSA,A,3,11,10,14,31,18,25,21,24,15,32,12,138,1.6,1.2,1.3*05
2017-11-16 15:54:21 1510865661.367689: $GPZDA,205420.00,16,11,2017,00,00*64
2017-11-16 15:54:21 1510865661.367849: $GPGGA,205420,3946.9578,N,08404.9844,W,2,12,1.20,307.47,M,-33.324,M,,*7F
2017-11-16 15:54:21 1510865661.367912: $GPRMC,205420,A,3946.9578,N,08404.9844,W,0.0000,0.000,161117,,*3D
2017-11-16 15:54:21 1510865661.367968: $GPGSA,A,3,11,10,14,31,18,25,21,24,15,32,12,138,1.6,1.2,1.3*05
2017-11-16 15:54:22 1510865662.701990: $GPGSV,3,1,12,11,04,321,33,10,80,001,51,14,38,264,45,31,10,205,28*71
2017-11-16 15:54:22 1510865662.702224: $GPGSV,3,2,12,18,60,115,48,25,12,133,33,21,16,177,35,24,35,049,50*73
2017-11-16 15:54:22 1510865662.702290: $GPGSV,3,3,12,15,03,073,31,32,55,280,47,12,17,096,47,138,38,213,45*4A
2017-11-16 15:54:22 1510865662.815333: $GPZDA,205421.00,16,11,2017,00,00*65
2017-11-16 15:54:22 1510865662.815516: $GPGGA,205421,3946.9578,N,08404.9844,W,2,12,1.20,307.47,M,-33.324,M,,*7E
2017-11-16 15:54:22 1510865662.815579: $GPRMC,205421,A,3946.9578,N,08404.9844,W,0.0000,0.000,161117,,*3C
2017-11-16 15:54:22 1510865662.815651: $GPGSA,A,3,11,10,14,31,18,25,21,24,15,32,12,138,1.6,1.2,1.3*05
2017-11-16 15:54:23 1510865663.382474: $GPZDA,205422.00,16,11,2017,00,00*66
2017-11-16 15:54:23 1510865663.382673: $GPGGA,205422,3946.9578,N,08404.9844,W,2,12,1.20,307.47,M,-33.324,M,,*7D
2017-11-16 15:54:23 1510865663.382737: $GPRMC,205422,A,3946.9578,N,08404.9844,W,0.0000,0.000,161117,,*3F
2017-11-16 15:54:23 1510865663.382794: $GPGSA,A,3,11,10,14,31,18,25,21,24,15,32,12,138,1.6,1.2,1.3*05
2017-11-16 15:54:24 1510865664.383294: $GPZDA,205423.00,16,11,2017,00,00*67
2017-11-16 15:54:24 1510865664.383465: $GPGGA,205423,3946.9578,N,08404.9844,W,2,12,1.20,307.47,M,-33.324,M,,*7C
2017-11-16 15:54:24 1510865664.383568: $GPRMC,205423,A,3946.9578,N,08404.9844,W,0.0000,0.000,161117,,*3E
2017-11-16 15:54:24 1510865664.383628: $GPGSA,A,3,11,10,14,31,18,25,21,24,15,32,12,138,1.6,1.2,1.3*05
