2017-12-01 16:02:26 1512162146.696790: {"class":"VERSION","release":"3.16","rev":"3.16-4","proto_major":3,"proto_minor":11}
2017-12-01 16:02:26 1512162146.697227: {"class":"DEVICES","devices":[{"class":"DEVICE","path":"/dev/ttyUSB0","driver":"SiRF","subtype":"9\u0006GSD4e_4.1.2-P1_RPATCH.05-F-GPS-4R-1510281 11/03/2015 307","activated":"2017-12-01T21:02:26.584Z","flags":1,"native":1,"bps":4800,"parity":"N","stopbits":1,"cycle":1.00}]}
2017-12-01 16:02:26 1512162146.697362: {"class":"WATCH","enable":true,"json":false,"nmea":true,"raw":0,"scaled":false,"timing":false,"split24":false,"pps":false}
2017-12-01 16:02:27 1512162147.422723: $GPZDA,210228.00,01,12,2017,00,00*6B
2017-12-01 16:02:27 1512162147.422892: $GPGGA,210228,3946.9576,N,08404.9839,W,2,12,0.80,311.12,M,-33.324,M,,*7D
2017-12-01 16:02:27 1512162147.422959: $GPRMC,210228,A,3946.9576,N,08404.9839,W,0.0000,0.000,011217,,*36
2017-12-01 16:02:27 1512162147.423021: $GPGSA,A,3,1,10,11,12,14,18,25,31,32,22,24,138,2.0,0.8,1.5*3B
2017-12-01 16:02:28 1512162148.759368: $GPGSV,3,1,12,01,18,312,38,10,61,139,48,11,10,294,26,12,25,063,41*74
2017-12-01 16:02:28 1512162148.759568: $GPGSV,3,2,12,14,59,303,44,18,30,139,43,25,34,106,48,31,43,216,47*7C
2017-12-01 16:02:28 1512162148.759659: $GPGSV,3,3,12,32,70,351,47,22,09,312,29,24,07,046,28,138,38,213,45*43
2017-12-01 16:02:28 1512162148.873034: $GPZDA,210229.00,01,12,2017,00,00*6A
2017-12-01 16:02:28 1512162148.873221: $GPGGA,210229,3946.9576,N,08404.9839,W,2,12,0.80,311.12,M,-33.324,M,,*7C
2017-12-01 16:02:28 1512162148.873288: $GPRMC,210229,A,3946.9576,N,08404.9839,W,0.0000,0.000,011217,,*37
2017-12-01 16:02:28 1512162148.873349: $GPGSA,A,3,1,10,11,12,14,18,25,31,32,22,24,138,2.0,0.8,1.5*3B
2017-12-01 16:02:29 1512162149.423508: $GPZDA,210230.00,01,12,2017,00,00*62
2017-12-01 16:02:29 1512162149.423677: $GPGGA,210230,3946.9576,N,08404.9839,W,2,12,0.80,311.12,M,-33.324,M,,*74
2017-12-01 16:02:29 1512162149.423744: $GPRMC,210230,A,3946.9576,N,08404.9839,W,0.0000,0.000,011217,,*3F
2017-12-01 16:02:29 1512162149.423805: $GPGSA,A,3,1,10,11,12,14,18,25,31,32,22,24,138,2.0,0.8,1.5*3B
2017-12-01 16:02:30 1512162150.421868: $GPZDA,210231.00,01,12,2017,00,00*63
2017-12-01 16:02:30 1512162150.422060: $GPGGA,210231,3946.9576,N,08404.9839,W,2,12,0.80,311.12,M,-33.324,M,,*75
2017-12-01 16:02:30 1512162150.422145: $GPRMC,210231,A,3946.9576,N,08404.9839,W,0.0000,0.000,011217,,*3E
2017-12-01 16:02:30 1512162150.422206: $GPGSA,A,3,1,10,11,12,14,18,25,31,32,22,24,138,2.0,0.8,1.5*3B
2017-12-01 16:02:31 1512162151.758857: $GPGSV,3,1,12,01,18,312,39,10,61,139,48,11,10,294,32,12,25,063,42*73
2017-12-01 16:02:31 1512162151.759054: $GPGSV,3,2,12,14,59,303,44,18,30,139,42,25,34,106,48,31,43,216,47*7D
2017-12-01 16:02:31 1512162151.759137: $GPGSV,3,3,12,32,70,351,47,22,09,312,25,24,07,046,28,138,38,213,45*4F
2017-12-01 16:02:31 1512162151.872543: $GPZDA,210232.00,01,12,2017,00,00*60
2017-12-01 16:02:31 1512162151.872706: $GPGGA,210232,3946.9576,N,08404.9839,W,2,12,0.80,311.12,M,-33.324,M,,*76
2017-12-01 16:02:31 1512162151.872771: $GPRMC,210232,A,3946.9576,N,08404.9839,W,0.0000,0.000,011217,,*3D
2017-12-01 16:02:31 1512162151.872833: $GPGSA,A,3,1,10,11,12,14,18,25,31,32,22,24,138,2.0,0.8,1.5*3B
2017-12-01 16:02:32 1512162152.497552: $GPZDA,210233.00,01,12,2017,00,00*61
2017-12-01 16:02:32 1512162152.497722: $GPGGA,210233,3946.9576,N,08404.9839,W,2,12,0.80,311.12,M,-33.324,M,,*77
2017-12-01 16:02:32 1512162152.497789: $GPRMC,210233,A,3946.9576,N,08404.9839,W,0.0000,0.000,011217,,*3C
2017-12-01 16:02:32 1512162152.497851: $GPGSA,A,3,1,10,11,12,14,18,25,31,32,22,24,138,2.0,0.8,1.5*3B
2017-12-01 16:02:33 1512162153.423536: $GPZDA,210234.00,01,12,2017,00,00*66
2017-12-01 16:02:33 1512162153.423708: $GPGGA,210234,3946.9576,N,08404.9839,W,2,12,0.80,311.12,M,-33.324,M,,*70
2017-12-01 16:02:33 1512162153.423775: $GPRMC,210234,A,3946.9576,N,08404.9839,W,0.0000,0.000,011217,,*3B
2017-12-01 16:02:33 1512162153.423836: $GPGSA,A,3,1,10,11,12,14,18,25,31,32,22,24,138,2.0,0.8,1.5*3B
2017-12-01 16:02:34 1512162154.759268: $GPGSV,3,1,12,01,18,312,40,10,61,139,48,11,10,294,32,12,25,063,42*7D
2017-12-01 16:02:34 1512162154.759502: $GPGSV,3,2,12,14,59,303,44,18,30,139,43,25,34,106,48,31,43,216,47*7C
2017-12-01 16:02:34 1512162154.759572: $GPGSV,3,3,12,32,70,351,46,22,09,312,26,24,07,046,28,138,38,213,46*4E
2017-12-01 16:02:34 1512162154.872649: $GPZDA,210235.00,01,12,2017,00,00*67
2017-12-01 16:02:34 1512162154.872825: $GPGGA,210235,3946.9576,N,08404.9839,W,2,12,0.80,311.12,M,-33.324,M,,*71
2017-12-01 16:02:34 1512162154.872892: $GPRMC,210235,A,3946.9576,N,08404.9839,W,0.0000,0.000,011217,,*3A
2017-12-01 16:02:34 1512162154.872974: $GPGSA,A,3,1,10,11,12,14,18,25,31,32,22,24,138,2.0,0.8,1.5*3B
2017-12-01 16:02:35 1512162155.422233: $GPZDA,210236.00,01,12,2017,00,00*64
2017-12-01 16:02:35 1512162155.422404: $GPGGA,210236,3946.9576,N,08404.9839,W,2,12,0.80,311.12,M,-33.324,M,,*72
2017-12-01 16:02:35 1512162155.422471: $GPRMC,210236,A,3946.9576,N,08404.9839,W,0.0000,0.000,011217,,*39
2017-12-01 16:02:35 1512162155.422532: $GPGSA,A,3,1,10,11,12,14,18,25,31,32,22,24,138,2.0,0.8,1.5*3B
2017-12-01 16:02:36 1512162156.422291: $GPZDA,210237.00,01,12,2017,00,00*65
2017-12-01 16:02:36 1512162156.422461: $GPGGA,210237,3946.9576,N,08404.9839,W,2,12,0.80,311.12,M,-33.324,M,,*73
2017-12-01 16:02:36 1512162156.422528: $GPRMC,210237,A,3946.9576,N,08404.9839,W,0.0000,0.000,011217,,*38
2017-12-01 16:02:36 1512162156.422589: $GPGSA,A,3,1,10,11,12,14,18,25,31,32,22,24,138,2.0,0.8,1.5*3B
2017-12-01 16:02:37 1512162157.767013: $GPGSV,3,1,12,01,18,312,40,10,61,139,48,11,10,294,32,12,25,063,43*7C
2017-12-01 16:02:37 1512162157.767211: $GPGSV,3,2,12,14,59,303,44,18,30,139,43,25,34,106,48,31,43,216,47*7C
2017-12-01 16:02:37 1512162157.767278: $GPGSV,3,3,12,32,70,351,47,22,09,312,01,24,07,046,28,138,38,213,45*49
2017-12-01 16:02:37 1512162157.880490: $GPZDA,210238.00,01,12,2017,00,00*6A
2017-12-01 16:02:37 1512162157.880669: $GPGGA,210238,3946.9576,N,08404.9839,W,2,11,0.80,311.12,M,-33.324,M,,*7F
2017-12-01 16:02:37 1512162157.880737: $GPRMC,210238,A,3946.9576,N,08404.9839,W,0.0000,0.000,011217,,*37
2017-12-01 16:02:37 1512162157.880799: $GPGSA,A,3,1,10,11,12,14,18,25,31,32,24,138,,2.0,0.8,1.5*3B
2017-12-01 16:02:38 1512162158.421849: $GPZDA,210239.00,01,12,2017,00,00*6B
2017-12-01 16:02:38 1512162158.422122: $GPGGA,210239,3946.9576,N,08404.9839,W,2,11,0.80,311.12,M,-33.324,M,,*7E
2017-12-01 16:02:38 1512162158.422219: $GPRMC,210239,A,3946.9576,N,08404.9839,W,0.0000,0.000,011217,,*36
2017-12-01 16:02:38 1512162158.422281: $GPGSA,A,3,1,10,11,12,14,18,25,31,32,24,138,,2.0,0.8,1.5*3B
2017-12-01 16:02:39 1512162159.422269: $GPZDA,210240.00,01,12,2017,00,00*65
2017-12-01 16:02:39 1512162159.422440: $GPGGA,210240,3946.9576,N,08404.9839,W,2,11,0.80,311.12,M,-33.324,M,,*70
2017-12-01 16:02:39 1512162159.422507: $GPRMC,210240,A,3946.9576,N,08404.9839,W,0.0000,0.000,011217,,*38
2017-12-01 16:02:39 1512162159.422567: $GPGSA,A,3,1,10,11,12,14,18,25,31,32,24,138,,2.0,0.8,1.5*3B
2017-12-01 16:02:40 1512162160.759124: $GPGSV,3,1,12,01,18,312,40,10,61,139,48,11,10,294,32,12,25,063,43*7C
2017-12-01 16:02:40 1512162160.759278: $GPGSV,3,2,12,14,59,303,44,18,30,139,43,25,34,106,48,31,43,216,47*7C
2017-12-01 16:02:40 1512162160.759343: $GPGSV,3,3,12,32,70,351,47,22,09,312,29,24,07,046,28,138,38,213,46*40
2017-12-01 16:02:40 1512162160.872599: $GPZDA,210241.00,01,12,2017,00,00*64
2017-12-01 16:02:40 1512162160.872771: $GPGGA,210241,3946.9576,N,08404.9839,W,2,12,0.80,311.12,M,-33.324,M,,*72
2017-12-01 16:02:40 1512162160.872837: $GPRMC,210241,A,3946.9576,N,08404.9839,W,0.0000,0.000,011217,,*39
2017-12-01 16:02:40 1512162160.872898: $GPGSA,A,3,1,10,11,12,14,18,25,31,32,22,24,138,2.0,0.8,1.5*3B
2017-12-01 16:02:41 1512162161.423426: $GPZDA,210242.00,01,12,2017,00,00*67
2017-12-01 16:02:41 1512162161.423599: $GPGGA,210242,3946.9572,N,08404.9839,W,2,12,0.80,311.89,M,-33.324,M,,*77
2017-12-01 16:02:41 1512162161.423666: $GPRMC,210242,A,3946.9572,N,08404.9839,W,0.0000,0.000,011217,,*3E
2017-12-01 16:02:41 1512162161.423726: $GPGSA,A,3,1,10,11,12,14,18,25,31,32,22,24,138,2.0,0.8,1.5*3B
2017-12-01 16:02:42 1512162162.425442: $GPZDA,210243.00,01,12,2017,00,00*66
2017-12-01 16:02:42 1512162162.425706: $GPGGA,210243,3946.9572,N,08404.9839,W,2,12,0.80,311.89,M,-33.324,M,,*76
2017-12-01 16:02:42 1512162162.425777: $GPRMC,210243,A,3946.9572,N,08404.9839,W,0.0000,0.000,011217,,*3F
2017-12-01 16:02:42 1512162162.425840: $GPGSA,A,3,1,10,11,12,14,18,25,31,32,22,24,138,2.0,0.8,1.5*3B
2017-12-01 16:02:43 1512162163.758253: $GPGSV,3,1,12,01,18,312,41,10,61,139,48,11,10,294,33,12,25,063,43*7C
2017-12-01 16:02:43 1512162163.758434: $GPGSV,3,2,12,14,59,303,44,18,30,139,43,25,34,106,48,31,43,216,48*73
2017-12-01 16:02:43 1512162163.758499: $GPGSV,3,3,12,32,70,351,47,22,09,312,32,24,07,046,27,138,38,213,46*45
2017-12-01 16:02:43 1512162163.871662: $GPZDA,210244.00,01,12,2017,00,00*61
2017-12-01 16:02:43 1512162163.871830: $GPGGA,210244,3946.9572,N,08404.9839,W,2,12,0.80,311.89,M,-33.324,M,,*71
2017-12-01 16:02:43 1512162163.871919: $GPRMC,210244,A,3946.9572,N,08404.9839,W,0.0000,0.000,011217,,*38
2017-12-01 16:02:43 1512162163.871982: $GPGSA,A,3,1,10,11,12,14,18,25,31,32,22,24,138,2.0,0.8,1.5*3B
2017-12-01 16:02:44 1512162164.423950: $GPZDA,210245.00,01,12,2017,00,00*60
2017-12-01 16:02:44 1512162164.424126: $GPGGA,210245,3946.9572,N,08404.9839,W,2,12,0.80,311.89,M,-33.324,M,,*70
2017-12-01 16:02:44 1512162164.424194: $GPRMC,210245,A,3946.9572,N,08404.9839,W,0.0000,0.000,011217,,*39
2017-12-01 16:02:44 1512162164.424255: $GPGSA,A,3,1,10,11,12,14,18,25,31,32,22,24,138,2.0,0.8,1.5*3B
2017-12-01 16:02:45 1512162165.423421: $GPZDA,210246.00,01,12,2017,00,00*63
2017-12-01 16:02:45 1512162165.423590: $GPGGA,210246,3946.9572,N,08404.9839,W,2,12,0.80,311.89,M,-33.324,M,,*73
2017-12-01 16:02:45 1512162165.423657: $GPRMC,210246,A,3946.9572,N,08404.9839,W,0.0000,0.000,011217,,*3A
2017-12-01 16:02:45 1512162165.423718: $GPGSA,A,3,1,10,11,12,14,18,25,31,32,22,24,138,2.0,0.8,1.5*3B
