2018-01-12 02:40:32 1515742832.414802: {"class":"VERSION","release":"3.16","rev":"3.16-4","proto_major":3,"proto_minor":11}
2018-01-12 02:40:32 1515742832.415146: {"class":"DEVICES","devices":[{"class":"DEVICE","path":"/dev/ttyUSB0","driver":"SiRF","subtype":"9\u0006GSD4e_4.1.2-P1_RPATCH.05-F-GPS-4R-1510281 11/03/2015 307","activated":"2018-01-12T07:40:32.268Z","flags":1,"native":1,"bps":4800,"parity":"N","stopbits":1,"cycle":1.00}]}
2018-01-12 02:40:32 1515742832.415257: {"class":"WATCH","enable":true,"json":false,"nmea":true,"raw":0,"scaled":false,"timing":false,"split24":false,"pps":false}
2018-01-12 02:40:32 1515742832.877074: $GPZDA,074033.56,12,01,2018,00,00*6F
2018-01-12 02:40:32 1515742832.877242: $GPGGA,074033,3946.9621,N,08404.9833,W,1,12,2.00,294.73,M,-33.324,M,,*7C
2018-01-12 02:40:32 1515742832.877307: $GPRMC,074033,A,3946.9621,N,08404.9833,W,0.7153,2.007,120118,,*3F
2018-01-12 02:40:32 1515742832.877368: $GPGSA,A,3,2,3,6,12,17,19,24,5,9,28,23,138,2.4,2.0,2.1*34
2018-01-12 02:40:32 1515742832.877426: $GPGBS,074033,11.98,M,14.47,M,47.88,M*09
2018-01-12 02:40:33 1515742833.981053: $GPZDA,074034.24,12,01,2018,00,00*6D
2018-01-12 02:40:33 1515742833.981221: $GPGGA,074034,3946.9617,N,08404.9833,W,1,12,2.00,294.09,M,-33.324,M,,*73
2018-01-12 02:40:33 1515742833.981288: $GPRMC,074034,A,3946.9617,N,08404.9833,W,0.2710,100.223,120118,,*3E
2018-01-12 02:40:33 1515742833.981349: $GPGSA,A,3,2,3,6,12,17,19,24,5,9,28,23,138,2.4,2.0,2.1*34
2018-01-12 02:40:35 1515742835.297119: $GPGSV,3,1,12,02,48,252,17,03,12,037,16,06,79,313,20,12,34,313,20*7A
2018-01-12 02:40:35 1515742835.297303: $GPGSV,3,2,12,17,48,081,18,19,64,054,17,24,15,265,00,28,12,150,00*72
2018-01-12 02:40:35 1515742835.297370: $GPGSV,3,3,12,04,19,243,00,05,04,195,00,23,03,075,00,138,38,213,00*4E
2018-01-12 02:40:35 1515742835.410727: $GPZDA,074035.00,12,01,2018,00,00*6A
2018-01-12 02:40:35 1515742835.410867: $GPGGA,074035,3946.9613,N,08404.9833,W,1,06,2.00,293.45,M,-33.324,M,,*7C
2018-01-12 02:40:35 1515742835.410931: $GPRMC,074035,A,3946.9613,N,08404.9833,W,0.4989,147.677,120118,,*35
2018-01-12 02:40:35 1515742835.410992: $GPGSA,A,3,2,3,6,12,17,19,,,,,,,2.4,2.0,2.1*0F
2018-01-12 02:40:35 1515742835.861657: $GPZDA,074036.00,12,01,2018,00,00*69
2018-01-12 02:40:35 1515742835.861821: $GPGGA,074036,3946.9609,N,08404.9840,W,1,06,1.60,292.73,M,-33.324,M,,*71
2018-01-12 02:40:35 1515742835.861888: $GPRMC,074036,A,3946.9609,N,08404.9840,W,0.6248,157.245,120118,,*39
2018-01-12 02:40:35 1515742835.861949: $GPGSA,A,3,2,3,6,12,17,19,,,,,,,2.4,1.6,2.1*0A
2018-01-12 02:40:36 1515742836.366251: $GPZDA,074037.00,12,01,2018,00,00*68
2018-01-12 02:40:36 1515742836.366413: $GPGGA,074037,3946.9605,N,08404.9840,W,1,06,1.60,292.09,M,-33.324,M,,*71
2018-01-12 02:40:36 1515742836.366478: $GPRMC,074037,A,3946.9605,N,08404.9840,W,0.4584,148.179,120118,,*33
2018-01-12 02:40:36 1515742836.366539: $GPGSA,A,3,2,3,6,12,17,19,,,,,,,2.4,1.6,2.1*0A
2018-01-12 02:40:37 1515742837.702479: $GPGSV,3,1,12,02,48,252,43,03,12,037,41,06,79,313,52,12,34,313,50*7B
2018-01-12 02:40:37 1515742837.702638: $GPGSV,3,2,12,17,48,081,45,19,64,054,43,05,04,195,20,09,02,108,15*7D
2018-01-12 02:40:37 1515742837.702703: $GPGSV,3,3,12,23,03,075,21,24,15,265,29,28,12,150,00,138,38,213,40*49
2018-01-12 02:40:37 1515742837.816076: $GPZDA,074038.00,12,01,2018,00,00*67
2018-01-12 02:40:37 1515742837.816217: $GPGGA,074038,3946.9601,N,08404.9840,W,1,11,1.60,291.45,M,-33.324,M,,*77
2018-01-12 02:40:37 1515742837.816283: $GPRMC,074038,A,3946.9601,N,08404.9840,W,0.0407,142.014,120118,,*36
2018-01-12 02:40:37 1515742837.816344: $GPGSA,A,3,2,3,6,12,17,19,5,9,23,24,138,,2.4,1.6,2.1*3B
2018-01-12 02:40:38 1515742838.371960: $GPZDA,074039.00,12,01,2018,00,00*66
2018-01-12 02:40:38 1515742838.372109: $GPGGA,074039,3946.9600,N,08404.9839,W,1,11,0.80,290.04,M,-33.324,M,,*72
2018-01-12 02:40:38 1515742838.372174: $GPRMC,074039,A,3946.9600,N,08404.9839,W,0.0407,142.014,120118,,*38
2018-01-12 02:40:38 1515742838.372235: $GPGSA,A,3,2,3,6,12,17,19,5,9,23,24,138,,2.4,0.8,2.1*34
