2017-12-14 12:01:59 1513270919.723714: {"class":"VERSION","release":"3.16","rev":"3.16-4","proto_major":3,"proto_minor":11}
2017-12-14 12:01:59 1513270919.724080: {"class":"DEVICES","devices":[{"class":"DEVICE","path":"/dev/ttyUSB0","driver":"SiRF","subtype":"9\u0006GSD4e_4.1.2-P1_RPATCH.05-F-GPS-4R-1510281 11/03/2015 307","activated":"2017-12-14T17:01:59.714Z","flags":1,"native":1,"bps":4800,"parity":"N","stopbits":1,"cycle":1.00}]}
2017-12-14 12:01:59 1513270919.724199: {"class":"WATCH","enable":true,"json":false,"nmea":true,"raw":0,"scaled":false,"timing":false,"split24":false,"pps":false}
2017-12-14 12:02:00 1513270920.228418: $GPZDA,170201.00,14,12,2017,00,00*61
2017-12-14 12:02:00 1513270920.228592: $GPGGA,170201,3946.9550,N,08404.9343,W,1,05,2.00,340.26,M,-33.324,M,,*7D
2017-12-14 12:02:00 1513270920.228660: $GPRMC,170201,A,3946.9550,N,08404.9343,W,1.5545,32.064,141217,,*0D
2017-12-14 12:02:00 1513270920.228721: $GPGSA,A,3,15,20,24,10,27,,,,,,,,6.6,2.0,6.2*30
2017-12-14 12:02:01 1513270921.207201: $GPRMC,170202,V,3946.9554,N,08404.9336,W,1.6828,39.347,141217,,*13
2017-12-14 12:02:01 1513270921.207386: $GPGSA,A,1,15,20,24,10,27,,,,,,,,,,,*36
2017-12-14 12:02:02 1513270922.563233: $GPGSV,3,1,11,13,14,046,00,15,44,051,27,18,66,322,15,20,40,088,20*71
2017-12-14 12:02:02 1513270922.563408: $GPGSV,3,2,11,24,46,121,18,10,35,295,07,27,19,297,06,32,15,234,09*77
2017-12-14 12:02:02 1513270922.563475: $GPGSV,3,3,11,21,71,196,00,08,03,328,00,120,07,103,00*76
2017-12-14 12:02:02 1513270922.677136: $GPZDA,170203.00,14,12,2017,00,00*63
2017-12-14 12:02:02 1513270922.677296: $GPGGA,170203,3946.9554,N,08404.9336,W,1,05,2.40,340.98,M,-33.324,M,,*78
2017-12-14 12:02:02 1513270922.677364: $GPRMC,170203,A,3946.9554,N,08404.9336,W,0.8709,3.298,141217,,*3C
2017-12-14 12:02:02 1513270922.677426: $GPGSA,A,3,15,18,20,24,10,,,,,,,,6.6,2.4,6.2*38
2017-12-14 12:02:02 1513270922.677484: $GPGBS,170203,24.66,M,21.80,M,143.40,M*36
2017-12-14 12:02:03 1513270923.223196: $GPRMC,170204,V,3946.9557,N,08404.9342,W,0.9060,347.792,141217,,*29
2017-12-14 12:02:03 1513270923.223349: $GPGSA,A,1,15,18,20,24,10,,,,,,,,,,,*3A
2017-12-14 12:02:04 1513270924.230586: $GPZDA,170205.00,14,12,2017,00,00*65
2017-12-14 12:02:04 1513270924.230746: $GPGGA,170205,3946.9557,N,08404.9342,W,1,05,2.40,340.14,M,-33.324,M,,*7A
2017-12-14 12:02:04 1513270924.230814: $GPRMC,170205,A,3946.9557,N,08404.9342,W,0.4179,328.779,141217,,*37
2017-12-14 12:02:04 1513270924.230876: $GPGSA,A,3,15,18,20,24,10,,,,,,,,6.6,2.4,6.2*38
2017-12-14 12:02:04 1513270924.230936: $GPGBS,170205,24.66,M,21.80,M,143.40,M*30
2017-12-14 12:02:05 1513270925.560033: $GPGSV,3,1,11,13,14,046,13,15,44,051,27,18,66,322,07,20,40,088,20*70
2017-12-14 12:02:05 1513270925.560211: $GPGSV,3,2,11,24,46,121,18,10,35,295,07,27,19,297,04,32,15,234,00*7C
2017-12-14 12:02:05 1513270925.560280: $GPGSV,3,3,11,21,71,196,00,08,03,328,00,120,07,103,00*76
2017-12-14 12:02:05 1513270925.672525: $GPRMC,170206,V,3946.9554,N,08404.9343,W,0.4179,328.779,141217,,*21
2017-12-14 12:02:05 1513270925.672698: $GPGSA,A,1,15,18,20,24,10,,,,,,,,,,,*3A
2017-12-14 12:02:06 1513270926.207605: $GPRMC,170207,V,3946.9554,N,08404.9350,W,0.4179,328.779,141217,,*22
2017-12-14 12:02:06 1513270926.207779: $GPGSA,A,1,15,18,20,24,10,,,,,,,,,,,*3A
2017-12-14 12:02:07 1513270927.228885: $GPZDA,170208.07,14,12,2017,00,00*6F
2017-12-14 12:02:07 1513270927.229070: $GPGGA,170208,3946.9558,N,08404.9349,W,1,05,2.00,340.06,M,-33.324,M,,*74
2017-12-14 12:02:07 1513270927.229142: $GPRMC,170208,A,3946.9558,N,08404.9349,W,1.1391,323.662,141217,,*3E
2017-12-14 12:02:07 1513270927.229206: $GPGSA,A,3,15,18,20,24,10,,,,,,,,6.6,2.0,6.2*3C
2017-12-14 12:02:08 1513270928.563745: $GPGSV,3,1,11,13,14,046,12,15,44,051,27,08,03,328,10,20,40,088,19*75
2017-12-14 12:02:08 1513270928.563927: $GPGSV,3,2,11,24,46,121,20,10,35,295,16,27,19,297,04,21,71,196,21*7F
2017-12-14 12:02:08 1513270928.563998: $GPGSV,3,3,11,18,66,322,00,32,15,234,00,120,07,103,00*75
2017-12-14 12:02:08 1513270928.677134: $GPZDA,170209.07,14,12,2017,00,00*6E
2017-12-14 12:02:08 1513270928.677288: $GPGGA,170209,3946.9558,N,08404.9349,W,1,05,2.00,340.06,M,-33.324,M,,*75
2017-12-14 12:02:08 1513270928.677401: $GPRMC,170209,A,3946.9558,N,08404.9349,W,0.8359,328.779,141217,,*33
2017-12-14 12:02:08 1513270928.677463: $GPGSA,A,3,15,20,24,10,21,,,,,,,,6.6,2.0,6.2*36
2017-12-14 12:02:09 1513270929.229691: $GPZDA,170210.00,14,12,2017,00,00*61
2017-12-14 12:02:09 1513270929.229890: $GPGGA,170210,3946.9558,N,08404.9356,W,1,05,2.00,339.98,M,-33.324,M,,*7A
2017-12-14 12:02:09 1513270929.229959: $GPRMC,170210,A,3946.9558,N,08404.9356,W,0.9060,347.792,141217,,*31
2017-12-14 12:02:09 1513270929.230037: $GPGSA,A,3,15,20,24,10,21,,,,,,,,6.6,2.0,6.2*36
2017-12-14 12:02:10 1513270930.209349: $GPZDA,170211.00,14,12,2017,00,00*60
2017-12-14 12:02:11 1513270931.034554: $GPGGA,170211,3946.9558,N,08404.9356,W,1,05,2.00,339.98,M,-33.324,M,,*7B
2017-12-14 12:02:11 1513270931.034721: $GPRMC,170211,A,3946.9558,N,08404.9356,W,0.8414,39.347,141217,,*00
2017-12-14 12:02:11 1513270931.034786: $GPGSA,A,3,15,20,24,10,21,,,,,,,,6.6,2.0,6.2*36
2017-12-14 12:02:11 1513270931.550517: $GPGSV,3,1,11,32,15,234,01,15,44,051,27,08,03,328,10,20,40,088,18*73
2017-12-14 12:02:11 1513270931.550687: $GPGSV,3,2,11,24,46,121,21,10,35,295,17,27,19,297,04,21,71,196,21*7F
2017-12-14 12:02:11 1513270931.550752: $GPGSV,3,3,11,18,66,322,00,13,14,046,00,120,07,103,00*70
2017-12-14 12:02:11 1513270931.663984: $GPZDA,170212.00,14,12,2017,00,00*63
2017-12-14 12:02:11 1513270931.664130: $GPGGA,170212,3946.9558,N,08404.9349,W,1,06,2.00,340.06,M,-33.324,M,,*7C
2017-12-14 12:02:11 1513270931.664195: $GPRMC,170212,A,3946.9558,N,08404.9349,W,0.5951,58.684,141217,,*01
2017-12-14 12:02:11 1513270931.664273: $GPGSA,A,3,15,8,20,24,10,21,,,,,,,6.6,2.0,6.2*0E
2017-12-14 12:02:12 1513270932.211631: $GPZDA,170213.00,14,12,2017,00,00*62
2017-12-14 12:02:12 1513270932.211809: $GPGGA,170213,3946.9558,N,08404.9349,W,1,06,2.00,340.06,M,-33.324,M,,*7D
2017-12-14 12:02:12 1513270932.211901: $GPRMC,170213,A,3946.9558,N,08404.9349,W,0.4207,39.347,141217,,*04
2017-12-14 12:02:12 1513270932.211981: $GPGSA,A,3,15,8,20,24,10,21,,,,,,,6.6,2.0,6.2*0E
2017-12-14 12:02:13 1513270933.211707: $GPZDA,170214.00,14,12,2017,00,00*65
2017-12-14 12:02:13 1513270933.211900: $GPGGA,170214,3946.9555,N,08404.9357,W,1,06,2.00,340.74,M,-33.324,M,,*7D
2017-12-14 12:02:13 1513270933.211985: $GPRMC,170214,A,3946.9555,N,08404.9357,W,0.2422,273.795,141217,,*31
2017-12-14 12:02:13 1513270933.212047: $GPGSA,A,3,15,8,20,24,10,21,,,,,,,6.6,2.0,6.2*0E
2017-12-14 12:02:14 1513270934.546637: $GPGSV,3,1,11,32,15,234,11,15,44,051,27,18,66,322,13,20,40,088,18*79
2017-12-14 12:02:14 1513270934.546811: $GPGSV,3,2,11,24,46,121,21,10,35,295,18,27,19,297,04,21,71,196,21*70
2017-12-14 12:02:14 1513270934.546898: $GPGSV,3,3,11,13,14,046,00,08,03,328,00,120,07,103,00*78
2017-12-14 12:02:14 1513270934.660072: $GPZDA,170215.00,14,12,2017,00,00*64
2017-12-14 12:02:14 1513270934.660243: $GPGGA,170215,3946.9551,N,08404.9357,W,1,05,2.00,340.11,M,-33.324,M,,*78
2017-12-14 12:02:14 1513270934.660310: $GPRMC,170215,A,3946.9551,N,08404.9357,W,0.2959,234.768,141217,,*34
2017-12-14 12:02:14 1513270934.660371: $GPGSA,A,3,15,20,24,10,21,,,,,,,,6.6,2.0,6.2*36
2017-12-14 12:02:15 1513270935.214753: $GPZDA,170216.00,14,12,2017,00,00*67
2017-12-14 12:02:15 1513270935.214940: $GPGGA,170216,3946.9551,N,08404.9357,W,1,05,1.80,340.11,M,-33.324,M,,*70
2017-12-14 12:02:15 1513270935.215028: $GPRMC,170216,A,3946.9551,N,08404.9357,W,0.4844,93.795,141217,,*01
2017-12-14 12:02:15 1513270935.215092: $GPGSA,A,3,15,20,24,10,21,,,,,,,,6.6,1.8,6.2*3D
2017-12-14 12:02:16 1513270936.213646: $GPZDA,170217.00,14,12,2017,00,00*66
2017-12-14 12:02:16 1513270936.213814: $GPGGA,170217,3946.9547,N,08404.9351,W,1,05,1.80,340.95,M,-33.324,M,,*7C
2017-12-14 12:02:16 1513270936.213881: $GPRMC,170217,A,3946.9547,N,08404.9351,W,0.5306,114.353,141217,,*3D
2017-12-14 12:02:16 1513270936.213942: $GPGSA,A,3,15,20,24,10,21,,,,,,,,6.6,1.8,6.2*3D
2017-12-14 12:02:17 1513270937.549786: $GPGSV,3,1,11,32,15,234,11,15,44,051,27,18,66,322,12,20,40,088,17*77
2017-12-14 12:02:17 1513270937.550018: $GPGSV,3,2,11,24,46,121,21,10,35,295,19,27,19,297,04,21,71,196,21*71
2017-12-14 12:02:17 1513270937.550089: $GPGSV,3,3,11,13,14,046,00,08,03,328,00,120,07,103,00*78
2017-12-14 12:02:17 1513270937.663256: $GPZDA,170218.00,14,12,2017,00,00*69
2017-12-14 12:02:17 1513270937.663391: $GPGGA,170218,3946.9543,N,08404.9351,W,1,06,1.80,340.31,M,-33.324,M,,*7A
2017-12-14 12:02:17 1513270937.663456: $GPRMC,170218,A,3946.9543,N,08404.9351,W,0.3155,129.994,141217,,*3B
2017-12-14 12:02:17 1513270937.663516: $GPGSA,A,3,32,15,20,24,10,21,,,,,,,6.6,1.8,6.2*3C
2017-12-14 12:02:18 1513270938.214939: $GPZDA,170219.00,14,12,2017,00,00*68
2017-12-14 12:02:18 1513270938.215109: $GPGGA,170219,3946.9543,N,08404.9351,W,1,06,1.80,340.31,M,-33.324,M,,*7B
2017-12-14 12:02:18 1513270938.215177: $GPRMC,170219,A,3946.9543,N,08404.9351,W,0.1867,180.000,141217,,*37
2017-12-14 12:02:18 1513270938.215238: $GPGSA,A,3,32,15,20,24,10,21,,,,,,,6.6,1.8,6.2*3C
2017-12-14 12:02:19 1513270939.217199: $GPZDA,170220.00,14,12,2017,00,00*62
2017-12-14 12:02:19 1513270939.217381: $GPGGA,170220,3946.9539,N,08404.9358,W,1,06,1.80,339.59,M,-33.324,M,,*75
2017-12-14 12:02:19 1513270939.217449: $GPRMC,170220,A,3946.9539,N,08404.9358,W,0.2422,273.795,141217,,*33
2017-12-14 12:02:19 1513270939.217511: $GPGSA,A,3,32,15,20,24,10,21,,,,,,,6.6,1.8,6.2*3C
