2017-11-16 15:07:06 1510862826.116646: {"class":"VERSION","release":"3.17","rev":"3.17","proto_major":3,"proto_minor":12}
2017-11-16 15:07:06 1510862826.117170: {"class":"DEVICES","devices":[{"class":"DEVICE","path":"/dev/ttyUSB0","driver":"SiRF","subtype":"9\u0006GSD4e_4.1.2-P1_RPATCH.05-F-GPS-4R-1510281 11/03/2015 307","activated":"2017-11-16T20:07:05.736Z","flags":1,"native":1,"bps":4800,"parity":"N","stopbits":1,"cycle":1.00}]}
2017-11-16 15:07:06 1510862826.117278: {"class":"WATCH","enable":true,"json":false,"nmea":true,"raw":0,"scaled":false,"timing":false,"split24":false,"pps":false}
2017-11-16 15:07:06 1510862826.421537: $GPZDA,200705.00,16,11,2017,00,00*65
2017-11-16 15:07:06 1510862826.421789: $GPGGA,200705,3946.9592,N,08404.9843,W,2,12,0.80,296.55,M,-33.324,M,,*7C
2017-11-16 15:07:06 1510862826.421860: $GPRMC,200705,A,3946.9592,N,08404.9843,W,0.0000,0.000,161117,,*3F
2017-11-16 15:07:06 1510862826.421932: $GPGSA,A,3,8,10,14,15,18,20,21,24,27,32,12,138,1.6,0.8,1.3*34
2017-11-16 15:07:07 1510862827.762726: $GPGSV,3,1,12,08,07,300,29,10,62,321,51,14,23,247,44,15,17,063,41*79
2017-11-16 15:07:07 1510862827.762913: $GPGSV,3,2,12,18,76,069,46,20,14,114,39,21,38,181,46,24,50,069,49*74
2017-11-16 15:07:07 1510862827.762975: $GPGSV,3,3,12,27,11,267,44,32,40,258,48,12,04,114,02,138,38,213,44*4A
2017-11-16 15:07:07 1510862827.876065: $GPZDA,200706.00,16,11,2017,00,00*66
2017-11-16 15:07:07 1510862827.876240: $GPGGA,200706,3946.9592,N,08404.9843,W,2,11,0.80,296.55,M,-33.324,M,,*7C
2017-11-16 15:07:07 1510862827.876301: $GPRMC,200706,A,3946.9592,N,08404.9843,W,0.0000,0.000,161117,,*3C
2017-11-16 15:07:07 1510862827.876357: $GPGSA,A,3,8,10,14,15,18,20,21,24,27,32,138,,1.6,0.8,1.3*37
2017-11-16 15:07:08 1510862828.400860: $GPZDA,200707.00,16,11,2017,00,00*67
2017-11-16 15:07:08 1510862828.401038: $GPGGA,200707,3946.9592,N,08404.9843,W,2,11,0.80,296.55,M,-33.324,M,,*7D
2017-11-16 15:07:08 1510862828.401098: $GPRMC,200707,A,3946.9592,N,08404.9843,W,0.0000,0.000,161117,,*3D
2017-11-16 15:07:08 1510862828.401154: $GPGSA,A,3,8,10,14,15,18,20,21,24,27,32,138,,1.6,0.8,1.3*37
2017-11-16 15:07:09 1510862829.422309: $GPZDA,200708.00,16,11,2017,00,00*68
2017-11-16 15:07:09 1510862829.422490: $GPGGA,200708,3946.9592,N,08404.9843,W,2,11,0.80,296.55,M,-33.324,M,,*72
2017-11-16 15:07:09 1510862829.422552: $GPRMC,200708,A,3946.9592,N,08404.9843,W,0.0000,0.000,161117,,*32
2017-11-16 15:07:09 1510862829.422608: $GPGSA,A,3,8,10,14,15,18,20,21,24,27,32,138,,1.6,0.8,1.3*37
2017-11-16 15:07:10 1510862830.757056: $GPGSV,3,1,12,08,07,300,30,10,62,321,51,14,23,247,44,15,17,063,41*71
2017-11-16 15:07:10 1510862830.757223: $GPGSV,3,2,12,18,76,069,46,20,14,114,39,21,38,181,46,24,50,069,49*74
2017-11-16 15:07:10 1510862830.757283: $GPGSV,3,3,12,27,11,267,44,32,40,258,48,12,04,114,18,138,38,213,44*41
2017-11-16 15:07:10 1510862830.870343: $GPZDA,200709.00,16,11,2017,00,00*69
2017-11-16 15:07:10 1510862830.870536: $GPGGA,200709,3946.9592,N,08404.9843,W,2,12,0.80,296.55,M,-33.324,M,,*70
2017-11-16 15:07:10 1510862830.870600: $GPRMC,200709,A,3946.9592,N,08404.9843,W,0.0000,0.000,161117,,*33
2017-11-16 15:07:10 1510862830.870656: $GPGSA,A,3,8,10,14,15,18,20,21,24,27,32,12,138,1.6,0.8,1.3*34
2017-11-16 15:07:11 1510862831.496200: $GPZDA,200710.00,16,11,2017,00,00*61
2017-11-16 15:07:11 1510862831.496373: $GPGGA,200710,3946.9592,N,08404.9843,W,2,12,0.80,296.55,M,-33.324,M,,*78
2017-11-16 15:07:11 1510862831.496434: $GPRMC,200710,A,3946.9592,N,08404.9843,W,0.0000,0.000,161117,,*3B
2017-11-16 15:07:11 1510862831.496490: $GPGSA,A,3,8,10,14,15,18,20,21,24,27,32,12,138,1.6,0.8,1.3*34
2017-11-16 15:07:12 1510862832.421623: $GPZDA,200711.00,16,11,2017,00,00*60
2017-11-16 15:07:12 1510862832.421806: $GPGGA,200711,3946.9592,N,08404.9843,W,2,12,0.80,296.55,M,-33.324,M,,*79
2017-11-16 15:07:12 1510862832.421870: $GPRMC,200711,A,3946.9592,N,08404.9843,W,0.0000,0.000,161117,,*3A
2017-11-16 15:07:12 1510862832.421926: $GPGSA,A,3,8,10,14,15,18,20,21,24,27,32,12,138,1.6,0.8,1.3*34
2017-11-16 15:07:13 1510862833.758349: $GPGSV,3,1,12,08,07,300,30,10,62,321,51,14,23,247,44,15,17,063,41*71
2017-11-16 15:07:13 1510862833.758566: $GPGSV,3,2,12,18,76,069,46,20,14,114,39,21,38,181,46,24,50,069,48*75
2017-11-16 15:07:13 1510862833.758629: $GPGSV,3,3,12,27,11,267,44,32,40,258,47,12,04,114,14,138,38,213,44*42
2017-11-16 15:07:13 1510862833.871669: $GPZDA,200712.00,16,11,2017,00,00*63
2017-11-16 15:07:13 1510862833.871832: $GPGGA,200712,3946.9592,N,08404.9843,W,2,12,0.80,296.55,M,-33.324,M,,*7A
2017-11-16 15:07:13 1510862833.871892: $GPRMC,200712,A,3946.9592,N,08404.9843,W,0.0000,0.000,161117,,*39
2017-11-16 15:07:13 1510862833.871948: $GPGSA,A,3,8,10,14,15,18,20,21,24,27,32,12,138,1.6,0.8,1.3*34
2017-11-16 15:07:14 1510862834.414964: $GPZDA,200713.00,16,11,2017,00,00*62
2017-11-16 15:07:14 1510862834.415137: $GPGGA,200713,3946.9592,N,08404.9843,W,2,12,0.80,296.55,M,-33.324,M,,*7B
2017-11-16 15:07:14 1510862834.415197: $GPRMC,200713,A,3946.9592,N,08404.9843,W,0.0000,0.000,161117,,*38
2017-11-16 15:07:14 1510862834.415252: $GPGSA,A,3,8,10,14,15,18,20,21,24,27,32,12,138,1.6,0.8,1.3*34
2017-11-16 15:07:15 1510862835.420899: $GPZDA,200714.00,16,11,2017,00,00*65
2017-11-16 15:07:15 1510862835.421071: $GPGGA,200714,3946.9592,N,08404.9843,W,2,12,0.80,296.55,M,-33.324,M,,*7C
2017-11-16 15:07:15 1510862835.421150: $GPRMC,200714,A,3946.9592,N,08404.9843,W,0.0000,0.000,161117,,*3F
2017-11-16 15:07:15 1510862835.421209: $GPGSA,A,3,8,10,14,15,18,20,21,24,27,32,12,138,1.6,0.8,1.3*34
