2017-12-29 10:39:38 1514561978.008067: {"class":"VERSION","release":"3.16","rev":"3.16-4","proto_major":3,"proto_minor":11}
2017-12-29 10:39:38 1514561978.008461: {"class":"DEVICES","devices":[{"class":"DEVICE","path":"/dev/ttyUSB0","driver":"SiRF","subtype":"9\u0006GSD4e_4.1.2-P1_RPATCH.05-F-GPS-4R-1510281 11/03/2015 307","activated":"2017-12-29T15:39:37.986Z","flags":1,"native":1,"bps":4800,"parity":"N","stopbits":1,"cycle":1.00}]}
2017-12-29 10:39:38 1514561978.008593: {"class":"WATCH","enable":true,"json":false,"nmea":true,"raw":0,"scaled":false,"timing":false,"split24":false,"pps":false}
2017-12-29 10:39:38 1514561978.421208: $GPZDA,153939.00,29,12,2017,00,00*6E
2017-12-29 10:39:38 1514561978.421387: $GPGGA,153939,3946.9654,N,08404.9773,W,2,11,0.80,331.09,M,-33.324,M,,*7B
2017-12-29 10:39:38 1514561978.421452: $GPRMC,153939,A,3946.9654,N,08404.9773,W,0.0000,0.000,291217,,*31
2017-12-29 10:39:38 1514561978.421513: $GPGSA,A,3,10,13,15,18,20,21,24,27,29,32,138,,1.7,0.8,1.3*02
2017-12-29 10:39:39 1514561979.422117: $GPZDA,153940.00,29,12,2017,00,00*60
2017-12-29 10:39:39 1514561979.422311: $GPGGA,153940,3946.9654,N,08404.9773,W,2,11,0.80,331.09,M,-33.324,M,,*75
2017-12-29 10:39:39 1514561979.422380: $GPRMC,153940,A,3946.9654,N,08404.9773,W,0.0000,0.000,291217,,*3F
2017-12-29 10:39:39 1514561979.422441: $GPGSA,A,3,10,13,15,18,20,21,24,27,29,32,138,,1.7,0.8,1.3*02
2017-12-29 10:39:40 1514561980.756252: $GPGSV,3,1,11,10,29,288,42,13,22,045,45,15,53,049,50,18,60,310,43*77
2017-12-29 10:39:40 1514561980.756406: $GPGSV,3,2,11,20,47,079,48,21,78,228,47,24,40,132,49,27,18,306,39*70
2017-12-29 10:39:40 1514561980.756471: $GPGSV,3,3,11,29,04,187,34,32,08,229,27,138,38,213,45*7A
2017-12-29 10:39:40 1514561980.869888: $GPZDA,153941.00,29,12,2017,00,00*61
2017-12-29 10:39:40 1514561980.870021: $GPGGA,153941,3946.9654,N,08404.9773,W,2,11,0.80,331.09,M,-33.324,M,,*74
2017-12-29 10:39:40 1514561980.870107: $GPRMC,153941,A,3946.9654,N,08404.9773,W,0.0000,0.000,291217,,*3E
2017-12-29 10:39:40 1514561980.870169: $GPGSA,A,3,10,13,15,18,20,21,24,27,29,32,138,,1.7,0.8,1.3*02
2017-12-29 10:39:41 1514561981.495282: $GPZDA,153942.00,29,12,2017,00,00*62
2017-12-29 10:39:41 1514561981.495438: $GPGGA,153942,3946.9654,N,08404.9773,W,2,11,0.80,331.09,M,-33.324,M,,*77
2017-12-29 10:39:41 1514561981.495505: $GPRMC,153942,A,3946.9654,N,08404.9773,W,0.0000,0.000,291217,,*3D
2017-12-29 10:39:41 1514561981.495566: $GPGSA,A,3,10,13,15,18,20,21,24,27,29,32,138,,1.7,0.8,1.3*02
2017-12-29 10:39:42 1514561982.422439: $GPZDA,153943.00,29,12,2017,00,00*63
2017-12-29 10:39:42 1514561982.422596: $GPGGA,153943,3946.9654,N,08404.9773,W,2,11,0.80,331.09,M,-33.324,M,,*76
2017-12-29 10:39:42 1514561982.422661: $GPRMC,153943,A,3946.9654,N,08404.9773,W,0.0000,0.000,291217,,*3C
2017-12-29 10:39:42 1514561982.422722: $GPGSA,A,3,10,13,15,18,20,21,24,27,29,32,138,,1.7,0.8,1.3*02
2017-12-29 10:39:43 1514561983.757836: $GPGSV,3,1,11,10,29,288,43,13,22,045,45,15,53,049,51,18,60,310,42*76
2017-12-29 10:39:43 1514561983.757984: $GPGSV,3,2,11,20,47,079,48,21,78,228,47,24,40,132,48,27,18,306,39*71
2017-12-29 10:39:43 1514561983.758067: $GPGSV,3,3,11,29,04,187,34,32,08,229,33,138,38,213,46*7C
2017-12-29 10:39:43 1514561983.871539: $GPZDA,153944.00,29,12,2017,00,00*64
2017-12-29 10:39:43 1514561983.871675: $GPGGA,153944,3946.9654,N,08404.9773,W,2,11,0.80,331.09,M,-33.324,M,,*71
2017-12-29 10:39:43 1514561983.871740: $GPRMC,153944,A,3946.9654,N,08404.9773,W,0.0000,0.000,291217,,*3B
2017-12-29 10:39:43 1514561983.871801: $GPGSA,A,3,10,13,15,18,20,21,24,27,29,32,138,,1.7,0.8,1.3*02
2017-12-29 10:39:44 1514561984.422447: $GPZDA,153945.00,29,12,2017,00,00*65
2017-12-29 10:39:44 1514561984.427732: $GPGGA,153945,3946.9654,N,08404.9773,W,2,11,0.80,331.09,M,-33.324,M,,*70
2017-12-29 10:39:44 1514561984.427833: $GPRMC,153945,A,3946.9654,N,08404.9773,W,0.0000,0.000,291217,,*3A
2017-12-29 10:39:44 1514561984.427896: $GPGSA,A,3,10,13,15,18,20,21,24,27,29,32,138,,1.7,0.8,1.3*02
2017-12-29 10:39:45 1514561985.420754: $GPZDA,153946.00,29,12,2017,00,00*66
2017-12-29 10:39:45 1514561985.420913: $GPGGA,153946,3946.9654,N,08404.9773,W,2,11,0.80,331.09,M,-33.324,M,,*73
2017-12-29 10:39:45 1514561985.421104: $GPRMC,153946,A,3946.9654,N,08404.9773,W,0.0000,0.000,291217,,*39
2017-12-29 10:39:45 1514561985.421194: $GPGSA,A,3,10,13,15,18,20,21,24,27,29,32,138,,1.7,0.8,1.3*02
2017-12-29 10:39:46 1514561986.756948: $GPGSV,3,1,11,10,29,288,43,13,22,045,45,15,53,049,51,18,60,310,42*76
2017-12-29 10:39:46 1514561986.757130: $GPGSV,3,2,11,20,47,079,49,21,78,228,47,24,40,132,49,27,18,306,39*71
2017-12-29 10:39:46 1514561986.757213: $GPGSV,3,3,11,29,04,187,34,32,08,229,34,138,38,213,45*78
2017-12-29 10:39:46 1514561986.870586: $GPZDA,153947.00,29,12,2017,00,00*67
2017-12-29 10:39:46 1514561986.870720: $GPGGA,153947,3946.9654,N,08404.9773,W,2,11,0.80,331.09,M,-33.324,M,,*72
2017-12-29 10:39:46 1514561986.870785: $GPRMC,153947,A,3946.9654,N,08404.9773,W,0.0000,0.000,291217,,*38
2017-12-29 10:39:46 1514561986.870846: $GPGSA,A,3,10,13,15,18,20,21,24,27,29,32,138,,1.7,0.8,1.3*02
2017-12-29 10:39:47 1514561987.425250: $GPZDA,153948.00,29,12,2017,00,00*68
2017-12-29 10:39:47 1514561987.425408: $GPGGA,153948,3946.9654,N,08404.9773,W,2,11,0.80,331.09,M,-33.324,M,,*7D
2017-12-29 10:39:47 1514561987.425475: $GPRMC,153948,A,3946.9654,N,08404.9773,W,0.0000,0.000,291217,,*37
2017-12-29 10:39:47 1514561987.425535: $GPGSA,A,3,10,13,15,18,20,21,24,27,29,32,138,,1.7,0.8,1.3*02
