2017-11-15 19:28:07 1510792087.762232: {"class":"VERSION","release":"3.17","rev":"3.17","proto_major":3,"proto_minor":12}
2017-11-15 19:28:07 1510792087.762701: {"class":"DEVICES","devices":[{"class":"DEVICE","path":"/dev/ttyUSB0","driver":"SiRF","subtype":"9\u0006GSD4e_4.1.2-P1_RPATCH.05-F-GPS-4R-1510281 11/03/2015 307","activated":"2017-11-16T00:28:07.471Z","flags":1,"native":1,"bps":4800,"parity":"N","stopbits":1,"cycle":1.00}]}
2017-11-15 19:28:07 1510792087.762823: {"class":"WATCH","enable":true,"json":false,"nmea":true,"raw":0,"scaled":false,"timing":false,"split24":false,"pps":false}
2017-11-15 19:28:08 1510792088.347327: $GPZDA,002807.00,16,11,2017,00,00*68
2017-11-15 19:28:08 1510792088.347500: $GPGGA,002807,3946.9643,N,08404.9517,W,1,07,1.40,274.15,M,-33.324,M,,*70
2017-11-15 19:28:08 1510792088.347561: $GPRMC,002807,A,3946.9643,N,08404.9517,W,1.4763,87.730,161117,,*0D
2017-11-15 19:28:08 1510792088.347616: $GPGSA,A,3,32,31,16,26,29,14,23,,,,,,3.4,1.4,2.9*34
2017-11-15 19:28:09 1510792089.684248: $GPGSV,3,1,12,32,37,106,22,31,68,022,21,16,21,190,13,26,52,172,20*7E
2017-11-15 19:28:09 1510792089.684418: $GPGSV,3,2,12,01,06,253,04,29,10,072,08,03,39,300,17,14,56,091,19*71
2017-11-15 19:28:09 1510792089.684478: $GPGSV,3,3,12,23,10,300,12,25,18,040,04,22,50,273,00,135,23,238,00*48
2017-11-15 19:28:09 1510792089.797912: $GPZDA,002808.00,16,11,2017,00,00*67
2017-11-15 19:28:09 1510792089.798077: $GPGGA,002808,3946.9640,N,08404.9510,W,1,08,1.40,275.00,M,-33.324,M,,*71
2017-11-15 19:28:09 1510792089.798153: $GPRMC,002808,A,3946.9640,N,08404.9510,W,1.4763,87.730,161117,,*06
2017-11-15 19:28:09 1510792089.798211: $GPGSA,A,3,32,31,16,26,29,3,14,23,,,,,3.4,1.4,2.9*07
2017-11-15 19:28:10 1510792090.347525: $GPZDA,002809.00,16,11,2017,00,00*66
2017-11-15 19:28:10 1510792090.347687: $GPGGA,002809,3946.9640,N,08404.9510,W,1,08,1.60,275.00,M,-33.324,M,,*72
2017-11-15 19:28:10 1510792090.347765: $GPRMC,002809,A,3946.9640,N,08404.9510,W,0.9959,84.784,161117,,*00
2017-11-15 19:28:10 1510792090.347822: $GPGSA,A,3,32,31,16,26,29,3,14,23,,,,,3.4,1.6,2.9*05
2017-11-15 19:28:11 1510792091.330355: $GPZDA,002810.00,16,11,2017,00,00*6E
2017-11-15 19:28:11 1510792091.330518: $GPGGA,002810,3946.9639,N,08404.9503,W,1,08,1.60,275.08,M,-33.324,M,,*7E
2017-11-15 19:28:11 1510792091.330595: $GPRMC,002810,A,3946.9639,N,08404.9503,W,0.8054,68.645,161117,,*0F
2017-11-15 19:28:11 1510792091.330652: $GPGSA,A,3,32,31,16,26,29,3,14,23,,,,,3.4,1.6,2.9*05
2017-11-15 19:28:12 1510792092.683291: $GPGSV,3,1,12,32,37,106,22,31,68,022,21,16,21,190,13,26,52,172,20*7E
2017-11-15 19:28:12 1510792092.683462: $GPGSV,3,2,12,01,06,253,04,29,10,072,07,03,39,300,17,14,56,091,19*7E
2017-11-15 19:28:12 1510792092.683523: $GPGSV,3,3,12,23,10,300,12,25,18,040,05,22,50,273,12,135,23,238,00*4A
2017-11-15 19:28:12 1510792092.796589: $GPZDA,002811.00,16,11,2017,00,00*6F
2017-11-15 19:28:12 1510792092.796797: $GPGGA,002811,3946.9643,N,08404.9503,W,1,09,1.40,274.31,M,-33.324,M,,*7A
2017-11-15 19:28:12 1510792092.796866: $GPRMC,002811,A,3946.9643,N,08404.9503,W,1.1385,29.379,161117,,*0B
2017-11-15 19:28:12 1510792092.796922: $GPGSA,A,3,32,31,16,26,29,3,14,23,22,,,,3.4,1.4,2.9*07
2017-11-15 19:28:13 1510792093.347509: $GPZDA,002812.00,16,11,2017,00,00*6C
2017-11-15 19:28:13 1510792093.347681: $GPGGA,002812,3946.9647,N,08404.9503,W,1,09,1.40,274.95,M,-33.324,M,,*73
2017-11-15 19:28:13 1510792093.350355: $GPRMC,002812,A,3946.9647,N,08404.9503,W,1.8640,27.140,161117,,*0F
2017-11-15 19:28:13 1510792093.350429: $GPGSA,A,3,32,31,16,26,29,3,14,23,22,,,,3.4,1.4,2.9*07
2017-11-15 19:28:14 1510792094.330863: $GPZDA,002813.00,16,11,2017,00,00*6D
2017-11-15 19:28:14 1510792094.331038: $GPGGA,002813,3946.9651,N,08404.9503,W,1,09,1.40,275.59,M,-33.324,M,,*74
2017-11-15 19:28:14 1510792094.331100: $GPRMC,002813,A,3946.9651,N,08404.9503,W,1.5545,32.064,161117,,*01
2017-11-15 19:28:14 1510792094.331156: $GPGSA,A,3,32,31,16,26,29,3,14,23,22,,,,3.4,1.4,2.9*07
2017-11-15 19:28:15 1510792095.666637: $GPGSV,3,1,12,32,37,106,22,31,68,022,21,16,21,190,15,26,52,172,19*72
2017-11-15 19:28:15 1510792095.666911: $GPGSV,3,2,12,01,06,253,00,29,10,072,04,03,39,300,17,14,56,091,19*79
2017-11-15 19:28:15 1510792095.666974: $GPGSV,3,3,12,23,10,300,13,25,18,040,04,22,50,273,14,135,23,238,00*4C
2017-11-15 19:28:15 1510792095.778782: $GPZDA,002814.00,16,11,2017,00,00*6A
2017-11-15 19:28:15 1510792095.778952: $GPGGA,002814,3946.9651,N,08404.9496,W,1,08,1.40,275.67,M,-33.324,M,,*72
2017-11-15 19:28:15 1510792095.779013: $GPRMC,002814,A,3946.9651,N,08404.9496,W,1.1385,29.379,161117,,*00
2017-11-15 19:28:15 1510792095.779070: $GPGSA,A,3,32,31,16,26,3,14,23,22,,,,,3.4,1.4,2.9*0C
2017-11-15 19:28:16 1510792096.405372: $GPZDA,002815.00,16,11,2017,00,00*6B
2017-11-15 19:28:16 1510792096.405567: $GPGGA,002815,3946.9651,N,08404.9496,W,1,08,1.40,275.67,M,-33.324,M,,*73
2017-11-15 19:28:16 1510792096.405629: $GPRMC,002815,A,3946.9651,N,08404.9496,W,0.8414,39.347,161117,,*0A
2017-11-15 19:28:16 1510792096.405700: $GPGSA,A,3,32,31,16,26,3,14,23,22,,,,,3.4,1.4,2.9*0C
2017-11-15 19:28:17 1510792097.347637: $GPZDA,002816.00,16,11,2017,00,00*68
2017-11-15 19:28:17 1510792097.347826: $GPGGA,002816,3946.9651,N,08404.9496,W,1,08,1.40,275.67,M,-33.324,M,,*70
2017-11-15 19:28:17 1510792097.347890: $GPRMC,002816,A,3946.9651,N,08404.9496,W,0.2422,93.794,161117,,*0C
2017-11-15 19:28:17 1510792097.347947: $GPGSA,A,3,32,31,16,26,3,14,23,22,,,,,3.4,1.4,2.9*0C
