2017-11-15 18:38:41 1510789121.363896: {"class":"VERSION","release":"3.17","rev":"3.17","proto_major":3,"proto_minor":12}
2017-11-15 18:38:41 1510789121.364372: {"class":"DEVICES","devices":[{"class":"DEVICE","path":"/dev/ttyUSB0","driver":"SiRF","subtype":"9\u0006GSD4e_4.1.2-P1_RPATCH.05-F-GPS-4R-1510281 11/03/2015 307","activated":"2017-11-15T23:38:41.328Z","flags":1,"native":1,"bps":4800,"parity":"N","stopbits":1,"cycle":1.00}]}
2017-11-15 18:38:41 1510789121.364488: {"class":"WATCH","enable":true,"json":false,"nmea":true,"raw":0,"scaled":false,"timing":false,"split24":false,"pps":false}
2017-11-15 18:38:42 1510789122.664026: $GPGSV,3,1,11,25,34,055,17,14,68,046,16,22,41,301,05,32,54,082,17*7D
2017-11-15 18:38:42 1510789122.664194: $GPGSV,3,2,11,31,79,291,23,26,27,178,18,03,22,315,00,10,20,157,06*7B
2017-11-15 18:38:42 1510789122.664253: $GPGSV,3,3,11,01,18,273,00,12,05,031,00,138,38,213,00*72
2017-11-15 18:38:42 1510789122.777674: $GPZDA,233841.00,15,11,2017,00,00*69
2017-11-15 18:38:42 1510789122.777835: $GPGGA,233841,3946.9519,N,08404.9612,W,1,05,2.80,300.24,M,-33.324,M,,*75
2017-11-15 18:38:42 1510789122.777896: $GPRMC,233841,A,3946.9519,N,08404.9612,W,0.4844,273.794,151117,,*3A
2017-11-15 18:38:42 1510789122.777952: $GPGSA,A,3,25,14,32,31,26,,,,,,,,3.4,2.8,2.9*31
2017-11-15 18:38:43 1510789123.329496: $GPZDA,233842.00,15,11,2017,00,00*6A
2017-11-15 18:38:43 1510789123.329674: $GPGGA,233842,3946.9519,N,08404.9619,W,1,05,4.20,300.16,M,-33.324,M,,*70
2017-11-15 18:38:43 1510789123.329736: $GPRMC,233842,A,3946.9519,N,08404.9619,W,0.5951,238.684,151117,,*39
2017-11-15 18:38:43 1510789123.329792: $GPGSA,A,3,25,14,32,31,26,,,,,,,,3.4,4.2,2.9*3D
2017-11-15 18:38:44 1510789124.329255: $GPZDA,233843.00,15,11,2017,00,00*6B
2017-11-15 18:38:44 1510789124.329414: $GPGGA,233843,3946.9519,N,08404.9619,W,1,05,2.80,300.16,M,-33.324,M,,*7D
2017-11-15 18:38:44 1510789124.329475: $GPRMC,233843,A,3946.9519,N,08404.9619,W,0.7278,203.636,151117,,*3B
2017-11-15 18:38:44 1510789124.329531: $GPGSA,A,3,25,14,32,31,26,,,,,,,,3.4,2.8,2.9*31
2017-11-15 18:38:45 1510789125.698731: $GPGSV,3,1,11,25,34,055,17,14,68,046,17,22,41,301,04,32,54,082,18*72
2017-11-15 18:38:45 1510789125.698907: $GPGSV,3,2,11,31,79,291,23,26,27,178,17,03,22,315,00,10,20,157,06*74
2017-11-15 18:38:45 1510789125.698967: $GPGSV,3,3,11,01,18,273,00,12,05,031,00,135,23,238,00*7C
2017-11-15 18:38:45 1510789125.812030: $GPZDA,233844.00,15,11,2017,00,00*6C
2017-11-15 18:38:45 1510789125.812188: $GPGGA,233844,3946.9512,N,08404.9620,W,1,05,2.80,300.28,M,-33.324,M,,*76
2017-11-15 18:38:45 1510789125.812248: $GPRMC,233844,A,3946.9512,N,08404.9620,W,0.4179,148.778,151117,,*3B
2017-11-15 18:38:45 1510789125.812304: $GPGSA,A,3,25,14,32,31,26,,,,,,,,3.4,2.8,2.9*31
2017-11-15 18:38:46 1510789126.437632: $GPZDA,233845.00,15,11,2017,00,00*6D
2017-11-15 18:38:46 1510789126.437794: $GPGGA,233845,3946.9515,N,08404.9619,W,1,05,1.20,299.52,M,-33.324,M,,*7F
2017-11-15 18:38:46 1510789126.437854: $GPRMC,233845,A,3946.9515,N,08404.9619,W,0.1567,9.201,151117,,*36
2017-11-15 18:38:46 1510789126.437927: $GPGSA,A,3,25,14,32,31,26,,,,,,,,3.4,1.2,2.9*38
2017-11-15 18:38:47 1510789127.363825: $GPZDA,233846.00,15,11,2017,00,00*6E
2017-11-15 18:38:47 1510789127.363986: $GPGGA,233846,3946.9515,N,08404.9619,W,1,05,1.20,299.52,M,-33.324,M,,*7C
2017-11-15 18:38:47 1510789127.364046: $GPRMC,233846,A,3946.9515,N,08404.9619,W,0.1867,180.000,151117,,*3B
2017-11-15 18:38:47 1510789127.364102: $GPGSA,A,3,25,14,32,31,26,,,,,,,,3.4,1.2,2.9*38
2017-11-15 18:38:48 1510789128.666563: $GPGSV,3,1,11,25,34,055,17,14,68,046,16,22,41,301,12,32,54,082,18*74
2017-11-15 18:38:48 1510789128.666823: $GPGSV,3,2,11,31,79,291,23,26,27,178,18,03,22,315,00,10,20,157,04*79
2017-11-15 18:38:48 1510789128.666936: $GPGSV,3,3,11,01,18,273,00,12,05,031,00,135,23,238,00*7C
2017-11-15 18:38:48 1510789128.780145: $GPZDA,233847.00,15,11,2017,00,00*6F
2017-11-15 18:38:48 1510789128.780291: $GPGGA,233847,3946.9516,N,08404.9626,W,1,06,1.20,299.44,M,-33.324,M,,*76
2017-11-15 18:38:48 1510789128.780352: $GPRMC,233847,A,3946.9516,N,08404.9626,W,0.2959,234.767,151117,,*30
2017-11-15 18:38:48 1510789128.780458: $GPGSA,A,3,25,14,22,32,31,26,,,,,,,3.4,1.2,2.9*38
2017-11-15 18:38:49 1510789129.364820: $GPZDA,233848.00,15,11,2017,00,00*60
2017-11-15 18:38:49 1510789129.364977: $GPGGA,233848,3946.9516,N,08404.9633,W,1,06,1.20,299.36,M,-33.324,M,,*78
2017-11-15 18:38:49 1510789129.365038: $GPRMC,233848,A,3946.9516,N,08404.9633,W,0.7103,225.706,151117,,*3E
2017-11-15 18:38:49 1510789129.365094: $GPGSA,A,3,25,14,22,32,31,26,,,,,,,3.4,1.2,2.9*38
2017-11-15 18:38:50 1510789130.333459: $GPZDA,233849.00,15,11,2017,00,00*61
2017-11-15 18:38:50 1510789130.333627: $GPGGA,233849,3946.9513,N,08404.9634,W,1,06,1.20,300.12,M,-33.324,M,,*7C
2017-11-15 18:38:50 1510789130.333687: $GPRMC,233849,A,3946.9513,N,08404.9634,W,0.4207,219.347,151117,,*37
2017-11-15 18:38:50 1510789130.333744: $GPGSA,A,3,25,14,22,32,31,26,,,,,,,3.4,1.2,2.9*38
2017-11-15 18:38:51 1510789131.699411: $GPGSV,3,1,11,25,34,055,17,14,68,046,16,22,41,301,09,32,54,082,19*7F
2017-11-15 18:38:51 1510789131.699583: $GPGSV,3,2,11,31,79,291,23,26,27,178,00,10,20,157,04,03,22,315,00*70
2017-11-15 18:38:51 1510789131.699643: $GPGSV,3,3,11,01,18,273,00,12,05,031,00,135,23,238,00*7C
2017-11-15 18:38:51 1510789131.812983: $GPZDA,233850.00,15,11,2017,00,00*69
2017-11-15 18:38:51 1510789131.813119: $GPGGA,233850,3946.9513,N,08404.9634,W,1,05,5.00,300.12,M,-33.324,M,,*71
2017-11-15 18:38:51 1510789131.813179: $GPRMC,233850,A,3946.9513,N,08404.9634,W,0.5617,211.295,151117,,*3D
2017-11-15 18:38:51 1510789131.813234: $GPGSA,A,3,25,14,22,32,31,,,,,,,,3.4,5.0,2.9*3A
2017-11-15 18:38:52 1510789132.364813: $GPZDA,233851.00,15,11,2017,00,00*68
2017-11-15 18:38:52 1510789132.364964: $GPGGA,233851,3946.9513,N,08404.9641,W,1,05,5.00,300.05,M,-33.324,M,,*74
2017-11-15 18:38:52 1510789132.365025: $GPRMC,233851,A,3946.9513,N,08404.9641,W,0.1567,189.201,151117,,*31
2017-11-15 18:38:52 1510789132.365081: $GPGSA,A,3,25,14,22,32,31,,,,,,,,3.4,5.0,2.9*3A
2017-11-15 18:38:53 1510789133.328192: $GPZDA,233852.00,15,11,2017,00,00*6B
2017-11-15 18:38:53 1510789133.328354: $GPGGA,233852,3946.9513,N,08404.9641,W,1,05,5.00,300.05,M,-33.324,M,,*77
2017-11-15 18:38:53 1510789133.328414: $GPRMC,233852,A,3946.9513,N,08404.9641,W,0.3155,309.994,151117,,*38
2017-11-15 18:38:53 1510789133.328470: $GPGSA,A,3,25,14,22,32,31,,,,,,,,3.4,5.0,2.9*3A
2017-11-15 18:38:54 1510789134.698962: $GPGSV,3,1,11,25,34,055,17,14,68,046,16,22,41,301,10,32,54,082,19*77
2017-11-15 18:38:54 1510789134.699145: $GPGSV,3,2,11,31,79,291,23,03,22,315,08,26,27,178,00,10,20,157,06*7A
2017-11-15 18:38:54 1510789134.699205: $GPGSV,3,3,11,01,18,273,00,12,05,031,00,135,23,238,00*7C
2017-11-15 18:38:54 1510789134.812516: $GPZDA,233853.00,15,11,2017,00,00*6A
2017-11-15 18:38:54 1510789134.812657: $GPGGA,233853,3946.9513,N,08404.9641,W,1,06,4.20,300.05,M,-33.324,M,,*76
2017-11-15 18:38:54 1510789134.812732: $GPRMC,233853,A,3946.9513,N,08404.9641,W,0.3155,309.994,151117,,*39
2017-11-15 18:38:54 1510789134.812790: $GPGSA,A,3,25,14,22,32,31,10,,,,,,,3.4,4.2,2.9*38
2017-11-15 18:38:55 1510789135.363535: $GPZDA,233854.00,15,11,2017,00,00*6D
2017-11-15 18:38:55 1510789135.363699: $GPGGA,233854,3946.9513,N,08404.9641,W,1,06,4.20,300.05,M,-33.324,M,,*71
2017-11-15 18:38:55 1510789135.363761: $GPRMC,233854,A,3946.9513,N,08404.9641,W,0.0000,0.000,151117,,*32
2017-11-15 18:38:55 1510789135.363817: $GPGSA,A,3,25,14,22,32,31,10,,,,,,,3.4,4.2,2.9*38
2017-11-15 18:38:56 1510789136.363537: $GPZDA,233855.00,15,11,2017,00,00*6C
2017-11-15 18:38:56 1510789136.363763: $GPGGA,233855,3946.9513,N,08404.9641,W,1,06,4.20,300.05,M,-33.324,M,,*70
2017-11-15 18:38:56 1510789136.363824: $GPRMC,233855,A,3946.9513,N,08404.9641,W,0.4179,148.778,151117,,*3D
2017-11-15 18:38:56 1510789136.363879: $GPGSA,A,3,25,14,22,32,31,10,,,,,,,3.4,4.2,2.9*38
