2017-12-01 17:16:28 1512166588.776771: {"class":"VERSION","release":"3.16","rev":"3.16-4","proto_major":3,"proto_minor":11}
2017-12-01 17:16:28 1512166588.777227: {"class":"DEVICES","devices":[{"class":"DEVICE","path":"/dev/ttyUSB0","driver":"SiRF","subtype":"9\u0006GSD4e_4.1.2-P1_RPATCH.05-F-GPS-4R-1510281 11/03/2015 307","activated":"2017-12-01T22:16:28.580Z","flags":1,"native":1,"bps":4800,"parity":"N","stopbits":1,"cycle":1.00}]}
2017-12-01 17:16:28 1512166588.777347: {"class":"WATCH","enable":true,"json":false,"nmea":true,"raw":0,"scaled":false,"timing":false,"split24":false,"pps":false}
2017-12-01 17:16:29 1512166589.772332: $GPGSV,3,1,11,01,20,279,41,03,17,316,39,10,26,156,39,14,70,025,45*73
2017-12-01 17:16:29 1512166589.772491: $GPGSV,3,2,11,22,36,306,42,26,21,178,37,31,76,262,47,32,58,072,48*70
2017-12-01 17:16:29 1512166589.772556: $GPGSV,3,3,11,12,10,034,32,25,38,063,32,138,38,213,34*73
2017-12-01 17:16:29 1512166589.884444: $GPZDA,221630.00,01,12,2017,00,00*64
2017-12-01 17:16:29 1512166589.884628: $GPGGA,221630,3946.9654,N,08404.9758,W,2,11,0.80,292.09,M,-33.324,M,,*7A
2017-12-01 17:16:29 1512166589.884696: $GPRMC,221630,A,3946.9654,N,08404.9758,W,0.0000,0.000,011217,,*32
2017-12-01 17:16:29 1512166589.884759: $GPGSA,A,3,1,3,10,14,22,26,31,32,12,25,138,,2.0,0.8,1.5*03
2017-12-01 17:16:30 1512166590.511182: $GPZDA,221631.00,01,12,2017,00,00*65
2017-12-01 17:16:30 1512166590.511426: $GPGGA,221631,3946.9654,N,08404.9758,W,2,11,0.80,292.09,M,-33.324,M,,*7B
2017-12-01 17:16:30 1512166590.511508: $GPRMC,221631,A,3946.9654,N,08404.9758,W,0.0000,0.000,011217,,*33
2017-12-01 17:16:30 1512166590.511569: $GPGSA,A,3,1,3,10,14,22,26,31,32,12,25,138,,2.0,0.8,1.5*03
2017-12-01 17:16:31 1512166591.439553: $GPZDA,221632.00,01,12,2017,00,00*66
2017-12-01 17:16:31 1512166591.439728: $GPGGA,221632,3946.9654,N,08404.9758,W,2,11,0.80,292.09,M,-33.324,M,,*78
2017-12-01 17:16:31 1512166591.439796: $GPRMC,221632,A,3946.9654,N,08404.9758,W,0.0000,0.000,011217,,*30
2017-12-01 17:16:31 1512166591.439859: $GPGSA,A,3,1,3,10,14,22,26,31,32,12,25,138,,2.0,0.8,1.5*03
2017-12-01 17:16:32 1512166592.775295: $GPGSV,3,1,11,01,20,279,42,03,17,316,38,10,26,156,39,14,70,025,45*71
2017-12-01 17:16:32 1512166592.775492: $GPGSV,3,2,11,22,36,306,42,26,21,178,36,31,76,262,47,32,58,072,48*71
2017-12-01 17:16:32 1512166592.775560: $GPGSV,3,3,11,12,10,034,32,25,38,063,32,138,38,213,38*7F
2017-12-01 17:16:32 1512166592.887794: $GPZDA,221633.00,01,12,2017,00,00*67
2017-12-01 17:16:32 1512166592.887946: $GPGGA,221633,3946.9654,N,08404.9758,W,2,11,0.80,292.09,M,-33.324,M,,*79
2017-12-01 17:16:32 1512166592.888014: $GPRMC,221633,A,3946.9654,N,08404.9758,W,0.0000,0.000,011217,,*31
2017-12-01 17:16:32 1512166592.888074: $GPGSA,A,3,1,3,10,14,22,26,31,32,12,25,138,,2.0,0.8,1.5*03
2017-12-01 17:16:33 1512166593.457059: $GPZDA,221634.00,01,12,2017,00,00*60
2017-12-01 17:16:33 1512166593.457236: $GPGGA,221634,3946.9654,N,08404.9758,W,2,11,0.80,292.09,M,-33.324,M,,*7E
2017-12-01 17:16:33 1512166593.457304: $GPRMC,221634,A,3946.9654,N,08404.9758,W,0.0000,0.000,011217,,*36
2017-12-01 17:16:33 1512166593.457367: $GPGSA,A,3,1,3,10,14,22,26,31,32,12,25,138,,2.0,0.8,1.5*03
2017-12-01 17:16:34 1512166594.437909: $GPZDA,221635.00,01,12,2017,00,00*61
2017-12-01 17:16:34 1512166594.438085: $GPGGA,221635,3946.9654,N,08404.9758,W,2,11,0.80,292.09,M,-33.324,M,,*7F
2017-12-01 17:16:34 1512166594.438151: $GPRMC,221635,A,3946.9654,N,08404.9758,W,0.0000,0.000,011217,,*37
2017-12-01 17:16:34 1512166594.438214: $GPGSA,A,3,1,3,10,14,22,26,31,32,12,25,138,,2.0,0.8,1.5*03
2017-12-01 17:16:35 1512166595.794568: $GPGSV,3,1,11,01,20,279,41,03,17,316,38,10,26,156,39,14,70,025,45*72
2017-12-01 17:16:35 1512166595.794769: $GPGSV,3,2,11,22,36,306,42,26,21,178,36,31,76,262,47,32,58,072,48*71
2017-12-01 17:16:35 1512166595.794837: $GPGSV,3,3,11,12,10,034,31,25,38,063,32,138,38,213,39*7D
2017-12-01 17:16:35 1512166595.907786: $GPZDA,221636.00,01,12,2017,00,00*62
2017-12-01 17:16:35 1512166595.907973: $GPGGA,221636,3946.9658,N,08404.9758,W,2,11,0.80,292.73,M,-33.324,M,,*7D
2017-12-01 17:16:35 1512166595.908093: $GPRMC,221636,A,3946.9658,N,08404.9758,W,0.0000,0.000,011217,,*38
2017-12-01 17:16:35 1512166595.908156: $GPGSA,A,3,1,3,10,14,22,26,31,32,12,25,138,,2.0,0.8,1.5*03
2017-12-01 17:16:36 1512166596.459906: $GPZDA,221637.00,01,12,2017,00,00*63
2017-12-01 17:16:36 1512166596.460087: $GPGGA,221637,3946.9658,N,08404.9758,W,2,11,0.80,292.73,M,-33.324,M,,*7C
2017-12-01 17:16:36 1512166596.460154: $GPRMC,221637,A,3946.9658,N,08404.9758,W,0.0000,0.000,011217,,*39
2017-12-01 17:16:36 1512166596.460217: $GPGSA,A,3,1,3,10,14,22,26,31,32,12,25,138,,2.0,0.8,1.5*03
2017-12-01 17:16:37 1512166597.457409: $GPZDA,221638.00,01,12,2017,00,00*6C
2017-12-01 17:16:37 1512166597.457588: $GPGGA,221638,3946.9658,N,08404.9758,W,2,11,0.80,292.73,M,-33.324,M,,*73
2017-12-01 17:16:37 1512166597.457656: $GPRMC,221638,A,3946.9658,N,08404.9758,W,0.0000,0.000,011217,,*36
2017-12-01 17:16:37 1512166597.457718: $GPGSA,A,3,1,3,10,14,22,26,31,32,12,25,138,,2.0,0.8,1.5*03
2017-12-01 17:16:38 1512166598.792844: $GPGSV,3,1,11,01,20,279,42,03,17,316,38,10,26,156,38,14,70,025,45*70
2017-12-01 17:16:38 1512166598.793042: $GPGSV,3,2,11,22,36,306,41,26,21,178,35,31,76,262,47,32,58,072,48*71
2017-12-01 17:16:38 1512166598.793109: $GPGSV,3,3,11,12,10,034,24,25,38,063,32,138,38,213,40*77
2017-12-01 17:16:38 1512166598.906216: $GPZDA,221639.00,01,12,2017,00,00*6D
2017-12-01 17:16:38 1512166598.906387: $GPGGA,221639,3946.9658,N,08404.9758,W,2,11,0.80,292.73,M,-33.324,M,,*72
2017-12-01 17:16:38 1512166598.906470: $GPRMC,221639,A,3946.9658,N,08404.9758,W,0.0000,0.000,011217,,*37
2017-12-01 17:16:38 1512166598.906532: $GPGSA,A,3,1,3,10,14,22,26,31,32,12,25,138,,2.0,0.8,1.5*03
2017-12-01 17:16:39 1512166599.439589: $GPZDA,221640.00,01,12,2017,00,00*63
2017-12-01 17:16:39 1512166599.439772: $GPGGA,221640,3946.9658,N,08404.9758,W,2,11,0.80,292.73,M,-33.324,M,,*7C
2017-12-01 17:16:39 1512166599.439857: $GPRMC,221640,A,3946.9658,N,08404.9758,W,0.0000,0.000,011217,,*39
2017-12-01 17:16:39 1512166599.439919: $GPGSA,A,3,1,3,10,14,22,26,31,32,12,25,138,,2.0,0.8,1.5*03
2017-12-01 17:16:40 1512166600.439917: $GPZDA,221641.00,01,12,2017,00,00*62
2017-12-01 17:16:40 1512166600.440096: $GPGGA,221641,3946.9658,N,08404.9758,W,2,11,0.80,292.73,M,-33.324,M,,*7D
2017-12-01 17:16:40 1512166600.440163: $GPRMC,221641,A,3946.9658,N,08404.9758,W,0.0000,0.000,011217,,*38
2017-12-01 17:16:40 1512166600.440224: $GPGSA,A,3,1,3,10,14,22,26,31,32,12,25,138,,2.0,0.8,1.5*03
2017-12-01 17:16:41 1512166601.774454: $GPGSV,3,1,11,01,20,279,43,03,17,316,39,10,26,156,38,14,70,025,45*70
2017-12-01 17:16:41 1512166601.774619: $GPGSV,3,2,11,22,36,306,41,26,21,178,36,31,76,262,47,32,58,072,47*7D
2017-12-01 17:16:41 1512166601.774686: $GPGSV,3,3,11,12,10,034,26,25,38,063,32,138,38,213,38*7A
2017-12-01 17:16:41 1512166601.887873: $GPZDA,221642.00,01,12,2017,00,00*61
2017-12-01 17:16:41 1512166601.888039: $GPGGA,221642,3946.9658,N,08404.9758,W,2,11,0.80,292.73,M,-33.324,M,,*7E
2017-12-01 17:16:41 1512166601.888106: $GPRMC,221642,A,3946.9658,N,08404.9758,W,0.0000,0.000,011217,,*3B
2017-12-01 17:16:41 1512166601.888167: $GPGSA,A,3,1,3,10,14,22,26,31,32,12,25,138,,2.0,0.8,1.5*03
2017-12-01 17:16:42 1512166602.458715: $GPZDA,221643.00,01,12,2017,00,00*60
2017-12-01 17:16:42 1512166602.458885: $GPGGA,221643,3946.9658,N,08404.9758,W,2,11,0.80,292.73,M,-33.324,M,,*7F
2017-12-01 17:16:42 1512166602.458951: $GPRMC,221643,A,3946.9658,N,08404.9758,W,0.0000,0.000,011217,,*3A
2017-12-01 17:16:42 1512166602.459012: $GPGSA,A,3,1,3,10,14,22,26,31,32,12,25,138,,2.0,0.8,1.5*03
2017-12-01 17:16:43 1512166603.459778: $GPZDA,221644.00,01,12,2017,00,00*67
2017-12-01 17:16:43 1512166603.459985: $GPGGA,221644,3946.9658,N,08404.9758,W,2,11,0.80,292.73,M,-33.324,M,,*78
2017-12-01 17:16:43 1512166603.460055: $GPRMC,221644,A,3946.9658,N,08404.9758,W,0.0000,0.000,011217,,*3D
2017-12-01 17:16:43 1512166603.460117: $GPGSA,A,3,1,3,10,14,22,26,31,32,12,25,138,,2.0,0.8,1.5*03
2017-12-01 17:16:44 1512166604.797856: $GPGSV,3,1,11,01,20,279,44,03,17,316,39,10,26,156,38,14,70,025,45*77
2017-12-01 17:16:44 1512166604.798363: $GPGSV,3,2,11,22,36,306,41,26,21,178,36,31,76,262,48,32,58,072,48*7D
2017-12-01 17:16:44 1512166604.798607: $GPGSV,3,3,11,12,10,034,26,25,38,063,32,138,38,213,40*75
2017-12-01 17:16:44 1512166604.911149: $GPZDA,221645.00,01,12,2017,00,00*66
2017-12-01 17:16:44 1512166604.911335: $GPGGA,221645,3946.9658,N,08404.9758,W,2,11,0.80,292.73,M,-33.324,M,,*79
2017-12-01 17:16:44 1512166604.911480: $GPRMC,221645,A,3946.9658,N,08404.9758,W,0.0000,0.000,011217,,*3C
2017-12-01 17:16:44 1512166604.911543: $GPGSA,A,3,1,3,10,14,22,26,31,32,12,25,138,,2.0,0.8,1.5*03
2017-12-01 17:16:45 1512166605.536515: $GPZDA,221646.00,01,12,2017,00,00*65
2017-12-01 17:16:45 1512166605.536702: $GPGGA,221646,3946.9658,N,08404.9758,W,2,11,0.80,292.73,M,-33.324,M,,*7A
2017-12-01 17:16:45 1512166605.536770: $GPRMC,221646,A,3946.9658,N,08404.9758,W,0.0000,0.000,011217,,*3F
2017-12-01 17:16:45 1512166605.536831: $GPGSA,A,3,1,3,10,14,22,26,31,32,12,25,138,,2.0,0.8,1.5*03
2017-12-01 17:16:46 1512166606.441145: $GPZDA,221647.00,01,12,2017,00,00*64
2017-12-01 17:16:46 1512166606.441324: $GPGGA,221647,3946.9658,N,08404.9758,W,2,11,0.80,292.73,M,-33.324,M,,*7B
2017-12-01 17:16:46 1512166606.441471: $GPRMC,221647,A,3946.9658,N,08404.9758,W,0.0000,0.000,011217,,*3E
2017-12-01 17:16:46 1512166606.441535: $GPGSA,A,3,1,3,10,14,22,26,31,32,12,25,138,,2.0,0.8,1.5*03
2017-12-01 17:16:47 1512166607.798071: $GPGSV,3,1,11,01,20,279,44,03,17,316,39,10,26,156,39,14,70,025,45*76
2017-12-01 17:16:47 1512166607.798251: $GPGSV,3,2,11,22,36,306,42,26,21,178,36,31,76,262,48,32,58,072,48*7E
2017-12-01 17:16:47 1512166607.798338: $GPGSV,3,3,11,12,10,034,25,25,38,063,31,138,38,213,41*74
2017-12-01 17:16:47 1512166607.911544: $GPZDA,221648.00,01,12,2017,00,00*6B
2017-12-01 17:16:47 1512166607.911676: $GPGGA,221648,3946.9658,N,08404.9758,W,2,11,0.80,292.73,M,-33.324,M,,*74
2017-12-01 17:16:47 1512166607.911742: $GPRMC,221648,A,3946.9658,N,08404.9758,W,0.0000,0.000,011217,,*31
2017-12-01 17:16:47 1512166607.911802: $GPGSA,A,3,1,3,10,14,22,26,31,32,12,25,138,,2.0,0.8,1.5*03
2017-12-01 17:16:48 1512166608.464041: $GPZDA,221649.00,01,12,2017,00,00*6A
2017-12-01 17:16:48 1512166608.464233: $GPGGA,221649,3946.9658,N,08404.9758,W,2,11,0.80,292.73,M,-33.324,M,,*75
2017-12-01 17:16:48 1512166608.464349: $GPRMC,221649,A,3946.9658,N,08404.9758,W,0.0000,0.000,011217,,*30
2017-12-01 17:16:48 1512166608.464452: $GPGSA,A,3,1,3,10,14,22,26,31,32,12,25,138,,2.0,0.8,1.5*03
