2017-11-15 18:35:09 1510788909.795467: {"class":"VERSION","release":"3.17","rev":"3.17","proto_major":3,"proto_minor":12}
2017-11-15 18:35:09 1510788909.795926: {"class":"DEVICES","devices":[{"class":"DEVICE","path":"/dev/ttyUSB0","driver":"SiRF","subtype":"9\u0006GSD4e_4.1.2-P1_RPATCH.05-F-GPS-4R-1510281 11/03/2015 307","activated":"2017-11-15T23:35:09.776Z","flags":1,"native":1,"bps":4800,"parity":"N","stopbits":1,"cycle":1.00}]}
2017-11-15 18:35:09 1510788909.796041: {"class":"WATCH","enable":true,"json":false,"nmea":true,"raw":0,"scaled":false,"timing":false,"split24":false,"pps":false}
2017-11-15 18:35:10 1510788910.362820: $GPZDA,233509.00,15,11,2017,00,00*68
2017-11-15 18:35:10 1510788910.362960: $GPGGA,233509,3946.9526,N,08404.9493,W,1,06,1.20,289.26,M,-33.324,M,,*7B
2017-11-15 18:35:10 1510788910.363022: $GPRMC,233509,A,3946.9526,N,08404.9493,W,0.2422,273.794,151117,,*36
2017-11-15 18:35:10 1510788910.363078: $GPGSA,A,3,25,14,1,31,32,10,,,,,,,3.4,1.2,2.9*0C
2017-11-15 18:35:11 1510788911.363132: $GPZDA,233510.00,15,11,2017,00,00*60
2017-11-15 18:35:11 1510788911.363298: $GPGGA,233510,3946.9526,N,08404.9493,W,1,06,1.20,289.26,M,-33.324,M,,*73
2017-11-15 18:35:11 1510788911.363359: $GPRMC,233510,A,3946.9526,N,08404.9493,W,0.3423,184.197,151117,,*30
2017-11-15 18:35:11 1510788911.363414: $GPGSA,A,3,25,14,1,31,32,10,,,,,,,3.4,1.2,2.9*0C
2017-11-15 18:35:12 1510788912.665179: $GPGSV,3,1,11,25,35,055,24,14,69,042,20,22,40,301,09,01,18,274,13*76
2017-11-15 18:35:12 1510788912.665347: $GPGSV,3,2,11,31,78,283,24,32,55,079,16,03,21,315,00,10,21,157,16*73
2017-11-15 18:35:12 1510788912.665405: $GPGSV,3,3,11,26,26,178,04,12,06,031,00,138,38,213,00*75
2017-11-15 18:35:12 1510788912.778974: $GPZDA,233511.00,15,11,2017,00,00*61
2017-11-15 18:35:12 1510788912.779136: $GPGGA,233511,3946.9522,N,08404.9493,W,1,07,1.20,288.62,M,-33.324,M,,*76
2017-11-15 18:35:12 1510788912.779198: $GPRMC,233511,A,3946.9522,N,08404.9493,W,0.3423,184.197,151117,,*35
2017-11-15 18:35:12 1510788912.779254: $GPGSA,A,3,25,14,22,1,31,32,10,,,,,,3.4,1.2,2.9*0C
2017-11-15 18:35:13 1510788913.363475: $GPZDA,233512.00,15,11,2017,00,00*62
2017-11-15 18:35:13 1510788913.363653: $GPGGA,233512,3946.9522,N,08404.9493,W,1,07,1.20,288.62,M,-33.324,M,,*75
2017-11-15 18:35:13 1510788913.363714: $GPRMC,233512,A,3946.9522,N,08404.9493,W,0.2422,273.794,151117,,*38
2017-11-15 18:35:13 1510788913.363770: $GPGSA,A,3,25,14,22,1,31,32,10,,,,,,3.4,1.2,2.9*0C
2017-11-15 18:35:14 1510788914.329076: $GPZDA,233513.00,15,11,2017,00,00*63
2017-11-15 18:35:14 1510788914.329237: $GPGGA,233513,3946.9519,N,08404.9494,W,1,07,1.20,289.38,M,-33.324,M,,*75
2017-11-15 18:35:14 1510788914.329298: $GPRMC,233513,A,3946.9519,N,08404.9494,W,0.6846,184.197,151117,,*32
2017-11-15 18:35:14 1510788914.329354: $GPGSA,A,3,25,14,22,1,31,32,10,,,,,,3.4,1.2,2.9*0C
2017-11-15 18:35:15 1510788915.698544: $GPGSV,3,1,11,25,35,055,24,14,69,042,20,22,40,301,13,01,18,274,13*7D
2017-11-15 18:35:15 1510788915.698733: $GPGSV,3,2,11,31,78,283,24,32,55,079,16,03,21,315,00,10,21,157,16*73
2017-11-15 18:35:15 1510788915.698794: $GPGSV,3,3,11,26,26,178,07,12,06,031,00,135,23,238,00*78
2017-11-15 18:35:15 1510788915.810690: $GPZDA,233514.00,15,11,2017,00,00*64
2017-11-15 18:35:15 1510788915.810852: $GPGGA,233514,3946.9514,N,08404.9487,W,1,07,1.20,288.82,M,-33.324,M,,*7D
2017-11-15 18:35:15 1510788915.810913: $GPRMC,233514,A,3946.9514,N,08404.9487,W,0.7246,164.668,151117,,*38
2017-11-15 18:35:15 1510788915.810969: $GPGSA,A,3,25,14,22,1,31,32,10,,,,,,3.4,1.2,2.9*0C
2017-11-15 18:35:16 1510788916.437334: $GPZDA,233515.00,15,11,2017,00,00*65
2017-11-15 18:35:16 1510788916.437496: $GPGGA,233515,3946.9514,N,08404.9487,W,1,07,1.20,288.82,M,-33.324,M,,*7C
2017-11-15 18:35:16 1510788916.437558: $GPRMC,233515,A,3946.9514,N,08404.9487,W,0.8359,148.778,151117,,*37
2017-11-15 18:35:16 1510788916.437614: $GPGSA,A,3,25,14,22,1,31,32,10,,,,,,3.4,1.2,2.9*0C
2017-11-15 18:35:17 1510788917.328255: $GPZDA,233516.00,15,11,2017,00,00*66
2017-11-15 18:35:17 1510788917.328424: $GPGGA,233516,3946.9510,N,08404.9480,W,1,07,1.20,288.26,M,-33.324,M,,*72
2017-11-15 18:35:17 1510788917.328539: $GPRMC,233516,A,3946.9510,N,08404.9480,W,1.3084,135.525,151117,,*3E
2017-11-15 18:35:17 1510788917.328613: $GPGSA,A,3,25,14,22,1,31,32,10,,,,,,3.4,1.2,2.9*0C
2017-11-15 18:35:18 1510788918.663904: $GPGSV,3,1,11,25,35,055,24,14,69,042,20,22,40,301,12,01,18,274,12*7D
2017-11-15 18:35:18 1510788918.664088: $GPGSV,3,2,11,31,78,283,24,32,55,079,15,03,21,315,00,10,21,157,17*71
2017-11-15 18:35:18 1510788918.664150: $GPGSV,3,3,11,26,26,178,06,12,06,031,00,135,23,238,00*79
2017-11-15 18:35:18 1510788918.777701: $GPZDA,233517.00,15,11,2017,00,00*67
2017-11-15 18:35:18 1510788918.777862: $GPGGA,233517,3946.9506,N,08404.9480,W,1,07,1.20,289.03,M,-33.324,M,,*72
2017-11-15 18:35:18 1510788918.777922: $GPRMC,233517,A,3946.9506,N,08404.9480,W,1.7178,138.722,151117,,*36
2017-11-15 18:35:18 1510788918.777979: $GPGSA,A,3,25,14,22,1,31,32,10,,,,,,3.4,1.2,2.9*0C
2017-11-15 18:35:19 1510788919.328535: $GPZDA,233518.00,15,11,2017,00,00*68
2017-11-15 18:35:19 1510788919.328709: $GPGGA,233518,3946.9502,N,08404.9473,W,1,07,1.20,288.47,M,-33.324,M,,*74
2017-11-15 18:35:19 1510788919.330649: $GPRMC,233518,A,3946.9502,N,08404.9473,W,1.1824,129.173,151117,,*35
2017-11-15 18:35:19 1510788919.330765: $GPGSA,A,3,25,14,22,1,31,32,10,,,,,,3.4,1.2,2.9*0C
2017-11-15 18:35:20 1510788920.364031: $GPZDA,233519.00,15,11,2017,00,00*69
2017-11-15 18:35:20 1510788920.364193: $GPGGA,233519,3946.9502,N,08404.9473,W,1,07,1.20,288.47,M,-33.324,M,,*75
2017-11-15 18:35:20 1510788920.364254: $GPRMC,233519,A,3946.9502,N,08404.9473,W,0.8359,148.778,151117,,*37
2017-11-15 18:35:20 1510788920.364310: $GPGSA,A,3,25,14,22,1,31,32,10,,,,,,3.4,1.2,2.9*0C
2017-11-15 18:35:21 1510788921.699259: $GPGSV,3,1,11,25,35,055,24,14,69,042,20,22,40,301,11,01,18,274,13*7F
2017-11-15 18:35:21 1510788921.699431: $GPGSV,3,2,11,31,78,283,25,32,55,079,15,03,21,315,00,10,21,157,17*70
2017-11-15 18:35:21 1510788921.699492: $GPGSV,3,3,11,26,26,178,06,12,06,031,00,135,23,238,00*79
2017-11-15 18:35:21 1510788921.812592: $GPZDA,233520.00,15,11,2017,00,00*63
2017-11-15 18:35:21 1510788921.812733: $GPGGA,233520,3946.9502,N,08404.9473,W,1,08,1.20,288.47,M,-33.324,M,,*70
2017-11-15 18:35:21 1510788921.812794: $GPRMC,233520,A,3946.9502,N,08404.9473,W,0.4844,93.794,151117,,*03
2017-11-15 18:35:21 1510788921.812849: $GPGSA,A,3,25,14,22,1,31,32,10,26,,,,,3.4,1.2,2.9*08
2017-11-15 18:35:22 1510788922.328491: $GPZDA,233521.00,15,11,2017,00,00*62
2017-11-15 18:35:22 1510788922.328662: $GPGGA,233521,3946.9501,N,08404.9466,W,1,08,1.20,288.54,M,-33.324,M,,*74
2017-11-15 18:35:22 1510788922.328725: $GPRMC,233521,A,3946.9501,N,08404.9466,W,1.0298,74.382,151117,,*01
2017-11-15 18:35:22 1510788922.328781: $GPGSA,A,3,25,14,22,1,31,32,10,26,,,,,3.4,1.2,2.9*08
2017-11-15 18:35:23 1510788923.361843: $GPZDA,233522.00,15,11,2017,00,00*61
2017-11-15 18:35:23 1510788923.362004: $GPGGA,233522,3946.9501,N,08404.9459,W,1,08,1.20,288.62,M,-33.324,M,,*7E
2017-11-15 18:35:23 1510788923.362065: $GPRMC,233522,A,3946.9501,N,08404.9459,W,1.1902,58.684,151117,,*0A
2017-11-15 18:35:23 1510788923.362121: $GPGSA,A,3,25,14,22,1,31,32,10,26,,,,,3.4,1.2,2.9*08
2017-11-15 18:35:24 1510788924.663868: $GPGSV,3,1,11,25,35,055,24,14,69,042,20,12,06,031,15,01,18,274,12*7B
2017-11-15 18:35:24 1510788924.664055: $GPGSV,3,2,11,31,78,283,25,32,55,079,15,22,40,301,00,10,21,157,17*71
2017-11-15 18:35:24 1510788924.664116: $GPGSV,3,3,11,26,26,178,10,03,21,315,00,135,23,238,00*7E
2017-11-15 18:35:24 1510788924.777223: $GPZDA,233523.00,15,11,2017,00,00*60
2017-11-15 18:35:24 1510788924.777386: $GPGGA,233523,3946.9501,N,08404.9459,W,1,07,1.20,288.62,M,-33.324,M,,*70
2017-11-15 18:35:24 1510788924.777447: $GPRMC,233523,A,3946.9501,N,08404.9459,W,1.1385,29.379,151117,,*0F
2017-11-15 18:35:24 1510788924.777503: $GPGSA,A,3,25,14,1,31,32,10,26,,,,,,3.4,1.2,2.9*08
