2018-01-12 02:52:25 1515743545.913771: {"class":"VERSION","release":"3.16","rev":"3.16-4","proto_major":3,"proto_minor":11}
2018-01-12 02:52:25 1515743545.914113: {"class":"DEVICES","devices":[{"class":"DEVICE","path":"/dev/ttyUSB0","driver":"SiRF","subtype":"9\u0006GSD4e_4.1.2-P1_RPATCH.05-F-GPS-4R-1510281 11/03/2015 307","activated":"2018-01-12T07:52:25.651Z","flags":1,"native":1,"bps":4800,"parity":"N","stopbits":1,"cycle":1.00}]}
2018-01-12 02:52:25 1515743545.914298: {"class":"WATCH","enable":true,"json":false,"nmea":true,"raw":0,"scaled":false,"timing":false,"split24":false,"pps":false}
2018-01-12 02:52:26 1515743546.664224: $GPGSV,3,1,12,02,52,258,45,06,78,342,51,12,38,310,51,17,45,087,44*7D
2018-01-12 02:52:26 1515743546.664406: $GPGSV,3,2,12,19,61,064,42,24,13,261,36,25,03,322,31,03,09,036,28*74
2018-01-12 02:52:26 1515743546.664471: $GPGSV,3,3,12,05,08,195,23,28,07,151,13,23,05,072,00,138,38,213,38*4A
2018-01-12 02:52:26 1515743546.777745: $GPZDA,075227.00,12,01,2018,00,00*6A
2018-01-12 02:52:26 1515743546.777916: $GPGGA,075227,3946.9615,N,08404.9843,W,2,10,1.00,311.83,M,-33.324,M,,*7B
2018-01-12 02:52:26 1515743546.777980: $GPRMC,075227,A,3946.9615,N,08404.9843,W,0.0000,0.000,120118,,*3C
2018-01-12 02:52:26 1515743546.778041: $GPGSA,A,3,2,6,12,17,19,24,25,3,5,138,,,2.4,1.0,2.1*02
2018-01-12 02:52:27 1515743547.329662: $GPZDA,075228.00,12,01,2018,00,00*65
2018-01-12 02:52:27 1515743547.329830: $GPGGA,075228,3946.9615,N,08404.9843,W,2,10,1.00,311.83,M,-33.324,M,,*74
2018-01-12 02:52:27 1515743547.329895: $GPRMC,075228,A,3946.9615,N,08404.9843,W,0.0000,0.000,120118,,*33
2018-01-12 02:52:27 1515743547.329956: $GPGSA,A,3,2,6,12,17,19,24,25,3,5,138,,,2.4,1.0,2.1*02
2018-01-12 02:52:28 1515743548.331810: $GPZDA,075229.00,12,01,2018,00,00*64
2018-01-12 02:52:28 1515743548.331976: $GPGGA,075229,3946.9615,N,08404.9843,W,2,10,1.00,311.83,M,-33.324,M,,*75
2018-01-12 02:52:28 1515743548.332042: $GPRMC,075229,A,3946.9615,N,08404.9843,W,0.0000,0.000,120118,,*32
2018-01-12 02:52:28 1515743548.332102: $GPGSA,A,3,2,6,12,17,19,24,25,3,5,138,,,2.4,1.0,2.1*02
2018-01-12 02:52:29 1515743549.668859: $GPGSV,3,1,12,02,52,258,46,06,78,342,51,12,38,310,51,17,45,087,44*7E
2018-01-12 02:52:29 1515743549.669050: $GPGSV,3,2,12,19,61,064,41,24,13,261,35,25,03,322,31,03,09,036,24*78
2018-01-12 02:52:29 1515743549.669117: $GPGSV,3,3,12,05,08,195,23,28,07,151,16,09,04,103,00,138,38,213,37*4E
2018-01-12 02:52:29 1515743549.782351: $GPZDA,075230.00,12,01,2018,00,00*6C
2018-01-12 02:52:29 1515743549.782518: $GPGGA,075230,3946.9615,N,08404.9843,W,2,11,1.00,311.83,M,-33.324,M,,*7C
2018-01-12 02:52:29 1515743549.782584: $GPRMC,075230,A,3946.9615,N,08404.9843,W,0.0000,0.000,120118,,*3A
2018-01-12 02:52:29 1515743549.782645: $GPGSA,A,3,2,6,12,17,19,24,25,3,5,28,138,,2.4,1.0,2.1*08
2018-01-12 02:52:30 1515743550.330528: $GPZDA,075231.00,12,01,2018,00,00*6D
2018-01-12 02:52:30 1515743550.330705: $GPGGA,075231,3946.9615,N,08404.9843,W,2,11,1.00,311.83,M,-33.324,M,,*7D
2018-01-12 02:52:30 1515743550.330772: $GPRMC,075231,A,3946.9615,N,08404.9843,W,0.0000,0.000,120118,,*3B
2018-01-12 02:52:30 1515743550.330833: $GPGSA,A,3,2,6,12,17,19,24,25,3,5,28,138,,2.4,1.0,2.1*08
2018-01-12 02:52:31 1515743551.332318: $GPZDA,075232.00,12,01,2018,00,00*6E
2018-01-12 02:52:31 1515743551.332488: $GPGGA,075232,3946.9615,N,08404.9843,W,2,11,1.00,311.83,M,-33.324,M,,*7E
2018-01-12 02:52:31 1515743551.332554: $GPRMC,075232,A,3946.9615,N,08404.9843,W,0.0000,0.000,120118,,*38
2018-01-12 02:52:31 1515743551.332614: $GPGSA,A,3,2,6,12,17,19,24,25,3,5,28,138,,2.4,1.0,2.1*08
2018-01-12 02:52:32 1515743552.669245: $GPGSV,3,1,12,02,52,258,45,06,78,342,51,12,38,310,51,17,45,087,43*7A
2018-01-12 02:52:32 1515743552.669439: $GPGSV,3,2,12,19,61,064,41,24,13,261,36,25,03,322,31,03,09,036,24*7B
2018-01-12 02:52:32 1515743552.669504: $GPGSV,3,3,12,05,08,195,23,28,07,151,16,23,05,072,00,138,38,213,40*40
2018-01-12 02:52:32 1515743552.782622: $GPZDA,075233.00,12,01,2018,00,00*6F
2018-01-12 02:52:32 1515743552.782789: $GPGGA,075233,3946.9615,N,08404.9843,W,2,11,1.00,311.83,M,-33.324,M,,*7F
2018-01-12 02:52:32 1515743552.782908: $GPRMC,075233,A,3946.9615,N,08404.9843,W,0.0000,0.000,120118,,*39
2018-01-12 02:52:32 1515743552.782971: $GPGSA,A,3,2,6,12,17,19,24,25,3,5,28,138,,2.4,1.0,2.1*08
2018-01-12 02:52:33 1515743553.371132: $GPZDA,075234.00,12,01,2018,00,00*68
2018-01-12 02:52:33 1515743553.371302: $GPGGA,075234,3946.9615,N,08404.9843,W,2,11,1.00,311.83,M,-33.324,M,,*78
2018-01-12 02:52:33 1515743553.371368: $GPRMC,075234,A,3946.9615,N,08404.9843,W,0.0000,0.000,120118,,*3E
2018-01-12 02:52:33 1515743553.371429: $GPGSA,A,3,2,6,12,17,19,24,25,3,5,28,138,,2.4,1.0,2.1*08
2018-01-12 02:52:34 1515743554.362258: $GPZDA,075235.00,12,01,2018,00,00*69
2018-01-12 02:52:34 1515743554.362441: $GPGGA,075235,3946.9615,N,08404.9843,W,2,11,1.00,311.83,M,-33.324,M,,*79
2018-01-12 02:52:34 1515743554.362509: $GPRMC,075235,A,3946.9615,N,08404.9843,W,0.0000,0.000,120118,,*3F
2018-01-12 02:52:34 1515743554.362570: $GPGSA,A,3,2,6,12,17,19,24,25,3,5,28,138,,2.4,1.0,2.1*08
2018-01-12 02:52:35 1515743555.703215: $GPGSV,3,1,12,02,52,258,45,06,78,342,51,12,38,310,51,17,45,087,43*7A
2018-01-12 02:52:35 1515743555.703392: $GPGSV,3,2,12,19,61,064,41,24,13,261,36,25,03,322,31,03,09,036,24*7B
2018-01-12 02:52:35 1515743555.703457: $GPGSV,3,3,12,05,08,195,28,28,07,151,00,23,05,072,00,138,38,213,34*4F
2018-01-12 02:52:35 1515743555.815640: $GPZDA,075236.00,12,01,2018,00,00*6A
2018-01-12 02:52:35 1515743555.815809: $GPGGA,075236,3946.9615,N,08404.9843,W,2,10,1.00,311.83,M,-33.324,M,,*7B
2018-01-12 02:52:35 1515743555.815874: $GPRMC,075236,A,3946.9615,N,08404.9843,W,0.0000,0.000,120118,,*3C
2018-01-12 02:52:35 1515743555.815935: $GPGSA,A,3,2,6,12,17,19,24,25,3,5,138,,,2.4,1.0,2.1*02
2018-01-12 02:52:36 1515743556.462052: $GPZDA,075237.00,12,01,2018,00,00*6B
2018-01-12 02:52:36 1515743556.462247: $GPGGA,075237,3946.9615,N,08404.9843,W,2,10,1.00,311.83,M,-33.324,M,,*7A
2018-01-12 02:52:36 1515743556.462314: $GPRMC,075237,A,3946.9615,N,08404.9843,W,0.0000,0.000,120118,,*3D
2018-01-12 02:52:36 1515743556.462375: $GPGSA,A,3,2,6,12,17,19,24,25,3,5,138,,,2.4,1.0,2.1*02
2018-01-12 02:52:37 1515743557.472776: $GPZDA,075238.00,12,01,2018,00,00*64
2018-01-12 02:52:37 1515743557.472937: $GPGGA,075238,3946.9615,N,08404.9843,W,2,10,1.00,311.83,M,-33.324,M,,*75
2018-01-12 02:52:37 1515743557.473003: $GPRMC,075238,A,3946.9615,N,08404.9843,W,0.0000,0.000,120118,,*32
2018-01-12 02:52:37 1515743557.473064: $GPGSA,A,3,2,6,12,17,19,24,25,3,5,138,,,2.4,1.0,2.1*02
2018-01-12 02:52:38 1515743558.802322: $GPGSV,3,1,12,02,52,258,46,06,78,342,51,12,38,310,51,17,45,087,43*79
2018-01-12 02:52:38 1515743558.802504: $GPGSV,3,2,12,19,61,064,41,24,13,261,36,25,03,322,31,03,09,036,23*7C
2018-01-12 02:52:38 1515743558.802569: $GPGSV,3,3,12,05,08,195,28,28,07,151,00,23,05,072,00,138,38,213,37*4C
2018-01-12 02:52:38 1515743558.915943: $GPZDA,075239.00,12,01,2018,00,00*65
2018-01-12 02:52:38 1515743558.916125: $GPGGA,075239,3946.9615,N,08404.9843,W,2,10,1.00,311.83,M,-33.324,M,,*74
2018-01-12 02:52:38 1515743558.916194: $GPRMC,075239,A,3946.9615,N,08404.9843,W,0.0000,0.000,120118,,*33
2018-01-12 02:52:38 1515743558.916257: $GPGSA,A,3,2,6,12,17,19,24,25,3,5,138,,,2.4,1.0,2.1*02
2018-01-12 02:52:39 1515743559.466755: $GPZDA,075240.00,12,01,2018,00,00*6B
2018-01-12 02:52:39 1515743559.466945: $GPGGA,075240,3946.9619,N,08404.9843,W,2,10,1.00,312.47,M,-33.324,M,,*7D
2018-01-12 02:52:39 1515743559.467012: $GPRMC,075240,A,3946.9619,N,08404.9843,W,0.0000,0.000,120118,,*31
2018-01-12 02:52:39 1515743559.467075: $GPGSA,A,3,2,6,12,17,19,24,25,3,5,138,,,2.4,1.0,2.1*02
2018-01-12 02:52:40 1515743560.467741: $GPZDA,075241.00,12,01,2018,00,00*6A
2018-01-12 02:52:40 1515743560.467941: $GPGGA,075241,3946.9619,N,08404.9843,W,2,10,1.00,312.47,M,-33.324,M,,*7C
2018-01-12 02:52:40 1515743560.468028: $GPRMC,075241,A,3946.9619,N,08404.9843,W,0.0000,0.000,120118,,*30
2018-01-12 02:52:40 1515743560.468092: $GPGSA,A,3,2,6,12,17,19,24,25,3,5,138,,,2.4,1.0,2.1*02
2018-01-12 02:52:41 1515743561.805381: $GPGSV,3,1,12,02,52,258,46,06,78,342,51,12,38,310,51,17,45,087,43*79
2018-01-12 02:52:41 1515743561.805615: $GPGSV,3,2,12,19,61,064,41,24,13,261,37,25,03,322,31,03,09,036,16*7B
2018-01-12 02:52:41 1515743561.805683: $GPGSV,3,3,12,05,08,195,28,28,07,151,00,23,05,072,00,138,38,213,39*42
2018-01-12 02:52:41 1515743561.917683: $GPZDA,075242.00,12,01,2018,00,00*69
2018-01-12 02:52:41 1515743561.917827: $GPGGA,075242,3946.9619,N,08404.9843,W,2,10,1.00,312.47,M,-33.324,M,,*7F
2018-01-12 02:52:41 1515743561.917892: $GPRMC,075242,A,3946.9619,N,08404.9843,W,0.0000,0.000,120118,,*33
2018-01-12 02:52:41 1515743561.917952: $GPGSA,A,3,2,6,12,17,19,24,25,3,5,138,,,2.4,1.0,2.1*02
2018-01-12 02:52:42 1515743562.432274: $GPZDA,075243.00,12,01,2018,00,00*68
2018-01-12 02:52:42 1515743562.432444: $GPGGA,075243,3946.9619,N,08404.9843,W,2,10,1.00,312.47,M,-33.324,M,,*7E
2018-01-12 02:52:42 1515743562.432509: $GPRMC,075243,A,3946.9619,N,08404.9843,W,0.0000,0.000,120118,,*32
2018-01-12 02:52:42 1515743562.432570: $GPGSA,A,3,2,6,12,17,19,24,25,3,5,138,,,2.4,1.0,2.1*02
2018-01-12 02:52:43 1515743563.466851: $GPZDA,075244.00,12,01,2018,00,00*6F
2018-01-12 02:52:43 1515743563.467009: $GPGGA,075244,3946.9619,N,08404.9843,W,2,10,1.00,312.47,M,-33.324,M,,*79
2018-01-12 02:52:43 1515743563.467074: $GPRMC,075244,A,3946.9619,N,08404.9843,W,0.0000,0.000,120118,,*35
2018-01-12 02:52:43 1515743563.467135: $GPGSA,A,3,2,6,12,17,19,24,25,3,5,138,,,2.4,1.0,2.1*02
2018-01-12 02:52:44 1515743564.763868: $GPGSV,3,1,12,02,52,258,46,06,78,342,51,12,38,310,51,17,45,087,42*78
2018-01-12 02:52:44 1515743564.764031: $GPGSV,3,2,12,19,61,064,40,24,13,261,37,25,03,322,31,03,09,036,19*75
2018-01-12 02:52:44 1515743564.764095: $GPGSV,3,3,12,05,08,195,28,28,07,151,00,23,05,072,00,138,38,213,38*43
2018-01-12 02:52:44 1515743564.877229: $GPZDA,075245.00,12,01,2018,00,00*6E
2018-01-12 02:52:44 1515743564.877391: $GPGGA,075245,3946.9623,N,08404.9843,W,2,10,1.00,313.11,M,-33.324,M,,*73
2018-01-12 02:52:44 1515743564.877456: $GPRMC,075245,A,3946.9623,N,08404.9843,W,0.0000,0.000,120118,,*3D
2018-01-12 02:52:44 1515743564.877516: $GPGSA,A,3,2,6,12,17,19,24,25,3,5,138,,,2.4,1.0,2.1*02
2018-01-12 02:52:45 1515743565.471866: $GPZDA,075246.00,12,01,2018,00,00*6D
2018-01-12 02:52:45 1515743565.508116: $GPGGA,075246,3946.9623,N,08404.9843,W,2,10,1.00,313.11,M,-33.324,M,,*70
2018-01-12 02:52:45 1515743565.508229: $GPRMC,075246,A,3946.9623,N,08404.9843,W,0.0000,0.000,120118,,*3E
2018-01-12 02:52:45 1515743565.508292: $GPGSA,A,3,2,6,12,17,19,24,25,3,5,138,,,2.4,1.0,2.1*02
