2018-01-11 19:42:20 1515717740.676234: {"class":"VERSION","release":"3.16","rev":"3.16-4","proto_major":3,"proto_minor":11}
2018-01-11 19:42:20 1515717740.676572: {"class":"DEVICES","devices":[{"class":"DEVICE","path":"/dev/ttyUSB0","driver":"SiRF","subtype":"9\u0006GSD4e_4.1.2-P1_RPATCH.05-F-GPS-4R-1510281 11/03/2015 307","activated":"2018-01-12T00:42:20.633Z","flags":1,"native":1,"bps":4800,"parity":"N","stopbits":1,"cycle":1.00}]}
2018-01-11 19:42:20 1515717740.676686: {"class":"WATCH","enable":true,"json":false,"nmea":true,"raw":0,"scaled":false,"timing":false,"split24":false,"pps":false}
2018-01-11 19:42:21 1515717741.417609: $GPZDA,004222.00,12,01,2018,00,00*69
2018-01-11 19:42:21 1515717741.417772: $GPGGA,004222,3946.9601,N,08404.9862,W,2,10,0.80,305.46,M,-33.324,M,,*7B
2018-01-11 19:42:21 1515717741.417837: $GPRMC,004222,A,3946.9601,N,08404.9862,W,0.0000,0.000,120118,,*39
2018-01-11 19:42:21 1515717741.417897: $GPGSA,A,3,7,8,9,11,16,23,27,30,28,138,,,4.0,0.8,3.5*3E
2018-01-11 19:42:22 1515717742.751872: $GPGSV,3,1,12,07,44,309,38,08,62,159,46,09,55,249,41,11,09,172,31*71
2018-01-11 19:42:22 1515717742.752052: $GPGSV,3,2,12,16,33,052,47,23,42,195,47,27,56,069,50,30,18,301,33*75
2018-01-11 19:42:22 1515717742.752118: $GPGSV,3,3,12,28,05,249,24,26,07,066,00,21,01,031,00,138,38,213,45*4F
2018-01-11 19:42:22 1515717742.865236: $GPZDA,004223.00,12,01,2018,00,00*68
2018-01-11 19:42:22 1515717742.865374: $GPGGA,004223,3946.9601,N,08404.9869,W,2,10,0.80,305.38,M,-33.324,M,,*78
2018-01-11 19:42:22 1515717742.865439: $GPRMC,004223,A,3946.9601,N,08404.9869,W,0.0000,0.000,120118,,*33
2018-01-11 19:42:22 1515717742.865499: $GPGSA,A,3,7,8,9,11,16,23,27,30,28,138,,,4.0,0.8,3.5*3E
2018-01-11 19:42:23 1515717743.419924: $GPZDA,004224.00,12,01,2018,00,00*6F
2018-01-11 19:42:23 1515717743.420079: $GPGGA,004224,3946.9601,N,08404.9869,W,2,10,0.80,305.38,M,-33.324,M,,*7F
2018-01-11 19:42:23 1515717743.420145: $GPRMC,004224,A,3946.9601,N,08404.9869,W,0.0000,0.000,120118,,*34
2018-01-11 19:42:23 1515717743.420205: $GPGSA,A,3,7,8,9,11,16,23,27,30,28,138,,,4.0,0.8,3.5*3E
2018-01-11 19:42:24 1515717744.425647: $GPZDA,004225.00,12,01,2018,00,00*6E
2018-01-11 19:42:24 1515717744.425817: $GPGGA,004225,3946.9601,N,08404.9869,W,2,10,0.80,305.38,M,-33.324,M,,*7E
2018-01-11 19:42:24 1515717744.425883: $GPRMC,004225,A,3946.9601,N,08404.9869,W,0.0000,0.000,120118,,*35
2018-01-11 19:42:24 1515717744.425943: $GPGSA,A,3,7,8,9,11,16,23,27,30,28,138,,,4.0,0.8,3.5*3E
2018-01-11 19:42:24 1515717744.425999: $GPGBS,004225,3.65,M,6.21,M,20.10,M*09
2018-01-11 19:42:25 1515717745.752082: $GPGSV,3,1,12,07,44,309,37,08,62,159,46,09,55,249,41,11,09,172,31*7E
2018-01-11 19:42:25 1515717745.752275: $GPGSV,3,2,12,16,33,052,47,23,42,195,46,27,56,069,50,30,18,301,33*74
2018-01-11 19:42:25 1515717745.752342: $GPGSV,3,3,12,28,05,249,24,26,07,066,00,21,01,031,00,138,38,213,44*4E
2018-01-11 19:42:25 1515717745.865453: $GPZDA,004226.00,12,01,2018,00,00*6D
2018-01-11 19:42:25 1515717745.865598: $GPGGA,004226,3946.9601,N,08404.9869,W,2,10,0.80,305.38,M,-33.324,M,,*7D
2018-01-11 19:42:25 1515717745.865663: $GPRMC,004226,A,3946.9601,N,08404.9869,W,0.0000,0.000,120118,,*36
2018-01-11 19:42:25 1515717745.865741: $GPGSA,A,3,7,8,9,11,16,23,27,30,28,138,,,4.0,0.8,3.5*3E
2018-01-11 19:42:26 1515717746.416328: $GPZDA,004227.00,12,01,2018,00,00*6C
2018-01-11 19:42:26 1515717746.416497: $GPGGA,004227,3946.9601,N,08404.9869,W,2,10,0.80,305.38,M,-33.324,M,,*7C
2018-01-11 19:42:26 1515717746.416564: $GPRMC,004227,A,3946.9601,N,08404.9869,W,0.0000,0.000,120118,,*37
2018-01-11 19:42:26 1515717746.416642: $GPGSA,A,3,7,8,9,11,16,23,27,30,28,138,,,4.0,0.8,3.5*3E
2018-01-11 19:42:27 1515717747.417522: $GPZDA,004228.00,12,01,2018,00,00*63
2018-01-11 19:42:27 1515717747.417681: $GPGGA,004228,3946.9601,N,08404.9869,W,2,10,0.80,305.38,M,-33.324,M,,*73
2018-01-11 19:42:27 1515717747.417747: $GPRMC,004228,A,3946.9601,N,08404.9869,W,0.0000,0.000,120118,,*38
2018-01-11 19:42:27 1515717747.417807: $GPGSA,A,3,7,8,9,11,16,23,27,30,28,138,,,4.0,0.8,3.5*3E
