2017-12-01 16:09:23 1512162563.866862: {"class":"VERSION","release":"3.16","rev":"3.16-4","proto_major":3,"proto_minor":11}
2017-12-01 16:09:23 1512162563.867299: {"class":"DEVICES","devices":[{"class":"DEVICE","path":"/dev/ttyUSB0","driver":"SiRF","subtype":"9\u0006GSD4e_4.1.2-P1_RPATCH.05-F-GPS-4R-1510281 11/03/2015 307","activated":"2017-12-01T21:09:23.527Z","flags":1,"native":1,"bps":4800,"parity":"N","stopbits":1,"cycle":1.00}]}
2017-12-01 16:09:23 1512162563.867450: {"class":"WATCH","enable":true,"json":false,"nmea":true,"raw":0,"scaled":false,"timing":false,"split24":false,"pps":false}
2017-12-01 16:09:24 1512162564.386055: $GPZDA,210925.00,01,12,2017,00,00*6D
2017-12-01 16:09:24 1512162564.386267: $GPGGA,210925,3946.9576,N,08404.9833,W,2,11,0.80,312.61,M,-33.324,M,,*75
2017-12-01 16:09:24 1512162564.386367: $GPRMC,210925,A,3946.9576,N,08404.9833,W,0.0000,0.000,011217,,*3A
2017-12-01 16:09:24 1512162564.386470: $GPGSA,A,3,10,11,12,14,18,22,25,31,1,24,138,,2.0,0.8,1.5*3A
2017-12-01 16:09:25 1512162565.724714: $GPGSV,3,1,11,10,58,142,49,11,10,291,28,12,25,060,44,14,61,309,44*76
2017-12-01 16:09:25 1512162565.724896: $GPGSV,3,2,11,18,27,141,44,22,11,312,33,25,36,103,48,31,46,217,49*75
2017-12-01 16:09:25 1512162565.724962: $GPGSV,3,3,11,01,19,310,36,24,05,046,26,138,38,213,45*72
2017-12-01 16:09:25 1512162565.838471: $GPZDA,210926.00,01,12,2017,00,00*6E
2017-12-01 16:09:25 1512162565.838661: $GPGGA,210926,3946.9576,N,08404.9833,W,2,11,0.80,312.61,M,-33.324,M,,*76
2017-12-01 16:09:25 1512162565.838728: $GPRMC,210926,A,3946.9576,N,08404.9833,W,0.0000,0.000,011217,,*39
2017-12-01 16:09:25 1512162565.838789: $GPGSA,A,3,10,11,12,14,18,22,25,31,1,24,138,,2.0,0.8,1.5*3A
2017-12-01 16:09:26 1512162566.387718: $GPZDA,210927.00,01,12,2017,00,00*6F
2017-12-01 16:09:26 1512162566.387897: $GPGGA,210927,3946.9576,N,08404.9833,W,2,11,0.80,312.61,M,-33.324,M,,*77
2017-12-01 16:09:26 1512162566.388015: $GPRMC,210927,A,3946.9576,N,08404.9833,W,0.0000,0.000,011217,,*38
2017-12-01 16:09:26 1512162566.388079: $GPGSA,A,3,10,11,12,14,18,22,25,31,1,24,138,,2.0,0.8,1.5*3A
2017-12-01 16:09:27 1512162567.386347: $GPZDA,210928.00,01,12,2017,00,00*60
2017-12-01 16:09:27 1512162567.386555: $GPGGA,210928,3946.9576,N,08404.9833,W,2,11,0.80,312.61,M,-33.324,M,,*78
2017-12-01 16:09:27 1512162567.386623: $GPRMC,210928,A,3946.9576,N,08404.9833,W,0.0000,0.000,011217,,*37
2017-12-01 16:09:27 1512162567.386685: $GPGSA,A,3,10,11,12,14,18,22,25,31,1,24,138,,2.0,0.8,1.5*3A
2017-12-01 16:09:28 1512162568.740569: $GPGSV,3,1,11,10,58,142,48,11,10,291,28,12,25,060,44,14,61,309,44*77
2017-12-01 16:09:28 1512162568.744700: $GPGSV,3,2,11,18,27,141,44,22,11,312,32,25,36,103,48,31,46,217,49*74
2017-12-01 16:09:28 1512162568.744817: $GPGSV,3,3,11,01,19,310,36,24,05,046,26,138,38,213,45*72
2017-12-01 16:09:28 1512162568.854258: $GPZDA,210929.00,01,12,2017,00,00*61
2017-12-01 16:09:28 1512162568.854464: $GPGGA,210929,3946.9576,N,08404.9833,W,2,11,0.80,312.61,M,-33.324,M,,*79
2017-12-01 16:09:28 1512162568.854549: $GPRMC,210929,A,3946.9576,N,08404.9833,W,0.0000,0.000,011217,,*36
2017-12-01 16:09:28 1512162568.854611: $GPGSA,A,3,10,11,12,14,18,22,25,31,1,24,138,,2.0,0.8,1.5*3A
2017-12-01 16:09:29 1512162569.404859: $GPZDA,210930.00,01,12,2017,00,00*69
2017-12-01 16:09:29 1512162569.405052: $GPGGA,210930,3946.9576,N,08404.9833,W,2,11,0.80,312.61,M,-33.324,M,,*71
2017-12-01 16:09:29 1512162569.405121: $GPRMC,210930,A,3946.9576,N,08404.9833,W,0.0000,0.000,011217,,*3E
2017-12-01 16:09:29 1512162569.405183: $GPGSA,A,3,10,11,12,14,18,22,25,31,1,24,138,,2.0,0.8,1.5*3A
2017-12-01 16:09:30 1512162570.403973: $GPZDA,210931.00,01,12,2017,00,00*68
2017-12-01 16:09:30 1512162570.404162: $GPGGA,210931,3946.9576,N,08404.9833,W,2,11,0.80,312.61,M,-33.324,M,,*70
2017-12-01 16:09:30 1512162570.404231: $GPRMC,210931,A,3946.9576,N,08404.9833,W,0.0000,0.000,011217,,*3F
2017-12-01 16:09:30 1512162570.404292: $GPGSA,A,3,10,11,12,14,18,22,25,31,1,24,138,,2.0,0.8,1.5*3A
2017-12-01 16:09:31 1512162571.739704: $GPGSV,3,1,11,10,58,142,48,11,10,291,23,12,25,060,44,14,61,309,44*7C
2017-12-01 16:09:31 1512162571.739940: $GPGSV,3,2,11,18,27,141,44,22,11,312,32,25,36,103,47,31,46,217,50*73
2017-12-01 16:09:31 1512162571.740009: $GPGSV,3,3,11,01,19,310,36,24,05,046,26,138,38,213,46*71
2017-12-01 16:09:31 1512162571.853224: $GPZDA,210932.00,01,12,2017,00,00*6B
2017-12-01 16:09:31 1512162571.853413: $GPGGA,210932,3946.9576,N,08404.9833,W,2,11,0.80,312.61,M,-33.324,M,,*73
2017-12-01 16:09:31 1512162571.853481: $GPRMC,210932,A,3946.9576,N,08404.9833,W,0.0000,0.000,011217,,*3C
2017-12-01 16:09:31 1512162571.853561: $GPGSA,A,3,10,11,12,14,18,22,25,31,1,24,138,,2.0,0.8,1.5*3A
2017-12-01 16:09:32 1512162572.402814: $GPZDA,210933.00,01,12,2017,00,00*6A
2017-12-01 16:09:32 1512162572.402992: $GPGGA,210933,3946.9576,N,08404.9833,W,2,11,0.80,312.61,M,-33.324,M,,*72
2017-12-01 16:09:32 1512162572.403061: $GPRMC,210933,A,3946.9576,N,08404.9833,W,0.0000,0.000,011217,,*3D
2017-12-01 16:09:32 1512162572.403123: $GPGSA,A,3,10,11,12,14,18,22,25,31,1,24,138,,2.0,0.8,1.5*3A
2017-12-01 16:09:33 1512162573.388614: $GPZDA,210934.00,01,12,2017,00,00*6D
2017-12-01 16:09:33 1512162573.388791: $GPGGA,210934,3946.9576,N,08404.9833,W,2,11,0.80,312.61,M,-33.324,M,,*75
2017-12-01 16:09:33 1512162573.388860: $GPRMC,210934,A,3946.9576,N,08404.9833,W,0.0000,0.000,011217,,*3A
2017-12-01 16:09:33 1512162573.388922: $GPGSA,A,3,10,11,12,14,18,22,25,31,1,24,138,,2.0,0.8,1.5*3A
2017-12-01 16:09:34 1512162574.723049: $GPGSV,3,1,11,10,58,142,48,11,10,291,31,12,25,060,44,14,61,309,44*7F
2017-12-01 16:09:34 1512162574.723235: $GPGSV,3,2,11,18,27,141,44,22,11,312,33,25,36,103,48,31,46,217,49*75
2017-12-01 16:09:34 1512162574.723302: $GPGSV,3,3,11,01,19,310,36,24,05,046,00,138,38,213,45*76
2017-12-01 16:09:34 1512162574.836436: $GPZDA,210935.00,01,12,2017,00,00*6C
2017-12-01 16:09:34 1512162574.836631: $GPGGA,210935,3946.9576,N,08404.9833,W,2,10,0.80,312.61,M,-33.324,M,,*75
2017-12-01 16:09:34 1512162574.836704: $GPRMC,210935,A,3946.9576,N,08404.9833,W,0.0000,0.000,011217,,*3B
2017-12-01 16:09:34 1512162574.836767: $GPGSA,A,3,10,11,12,14,18,22,25,31,1,138,,,2.0,0.8,1.5*3C
2017-12-01 16:09:35 1512162575.461974: $GPZDA,210936.00,01,12,2017,00,00*6F
2017-12-01 16:09:35 1512162575.462147: $GPGGA,210936,3946.9576,N,08404.9833,W,2,10,0.80,312.61,M,-33.324,M,,*76
2017-12-01 16:09:35 1512162575.462215: $GPRMC,210936,A,3946.9576,N,08404.9833,W,0.0000,0.000,011217,,*38
2017-12-01 16:09:35 1512162575.462277: $GPGSA,A,3,10,11,12,14,18,22,25,31,1,138,,,2.0,0.8,1.5*3C
2017-12-01 16:09:36 1512162576.405186: $GPZDA,210937.00,01,12,2017,00,00*6E
2017-12-01 16:09:36 1512162576.405359: $GPGGA,210937,3946.9576,N,08404.9826,W,2,10,0.80,312.69,M,-33.324,M,,*7B
2017-12-01 16:09:36 1512162576.405426: $GPRMC,210937,A,3946.9576,N,08404.9826,W,0.0000,0.000,011217,,*3D
2017-12-01 16:09:36 1512162576.405488: $GPGSA,A,3,10,11,12,14,18,22,25,31,1,138,,,2.0,0.8,1.5*3C
2017-12-01 16:09:37 1512162577.724790: $GPGSV,3,1,11,10,58,142,48,11,10,291,24,12,25,060,44,14,61,309,44*7B
2017-12-01 16:09:37 1512162577.724982: $GPGSV,3,2,11,18,27,141,44,22,11,312,33,25,36,103,48,31,46,217,50*7D
2017-12-01 16:09:37 1512162577.725051: $GPGSV,3,3,11,01,19,310,36,24,05,046,25,138,38,213,46*72
2017-12-01 16:09:37 1512162577.838033: $GPZDA,210938.00,01,12,2017,00,00*61
2017-12-01 16:09:37 1512162577.838206: $GPGGA,210938,3946.9576,N,08404.9826,W,2,11,0.80,312.69,M,-33.324,M,,*75
2017-12-01 16:09:37 1512162577.838273: $GPRMC,210938,A,3946.9576,N,08404.9826,W,0.0000,0.000,011217,,*32
2017-12-01 16:09:37 1512162577.838334: $GPGSA,A,3,10,11,12,14,18,22,25,31,1,24,138,,2.0,0.8,1.5*3A
2017-12-01 16:09:38 1512162578.401464: $GPZDA,210939.00,01,12,2017,00,00*60
2017-12-01 16:09:38 1512162578.401680: $GPGGA,210939,3946.9580,N,08404.9826,W,2,11,0.80,313.33,M,-33.324,M,,*73
2017-12-01 16:09:38 1512162578.401750: $GPRMC,210939,A,3946.9580,N,08404.9826,W,0.0000,0.000,011217,,*3A
2017-12-01 16:09:38 1512162578.401811: $GPGSA,A,3,10,11,12,14,18,22,25,31,1,24,138,,2.0,0.8,1.5*3A
2017-12-01 16:09:39 1512162579.403623: $GPZDA,210940.00,01,12,2017,00,00*6E
2017-12-01 16:09:39 1512162579.403792: $GPGGA,210940,3946.9580,N,08404.9826,W,2,11,0.80,313.33,M,-33.324,M,,*7D
2017-12-01 16:09:39 1512162579.403908: $GPRMC,210940,A,3946.9580,N,08404.9826,W,0.0000,0.000,011217,,*34
2017-12-01 16:09:39 1512162579.403971: $GPGSA,A,3,10,11,12,14,18,22,25,31,1,24,138,,2.0,0.8,1.5*3A
2017-12-01 16:09:40 1512162580.740024: $GPGSV,3,1,11,10,58,142,48,11,10,291,24,12,25,060,44,14,61,309,44*7B
2017-12-01 16:09:40 1512162580.740205: $GPGSV,3,2,11,18,27,141,44,22,11,312,36,25,36,103,48,31,46,217,50*78
2017-12-01 16:09:40 1512162580.740273: $GPGSV,3,3,11,01,19,310,32,24,05,046,25,138,38,213,46*76
2017-12-01 16:09:40 1512162580.853479: $GPZDA,210941.00,01,12,2017,00,00*6F
2017-12-01 16:09:40 1512162580.853652: $GPGGA,210941,3946.9576,N,08404.9826,W,2,11,0.80,312.69,M,-33.324,M,,*7B
2017-12-01 16:09:40 1512162580.853719: $GPRMC,210941,A,3946.9576,N,08404.9826,W,0.0000,0.000,011217,,*3C
2017-12-01 16:09:40 1512162580.853780: $GPGSA,A,3,10,11,12,14,18,22,25,31,1,24,138,,2.0,0.8,1.5*3A
2017-12-01 16:09:41 1512162581.388072: $GPZDA,210942.00,01,12,2017,00,00*6C
2017-12-01 16:09:41 1512162581.388246: $GPGGA,210942,3946.9580,N,08404.9826,W,2,11,0.80,313.33,M,-33.324,M,,*7F
2017-12-01 16:09:41 1512162581.388335: $GPRMC,210942,A,3946.9580,N,08404.9826,W,0.0000,0.000,011217,,*36
2017-12-01 16:09:41 1512162581.388399: $GPGSA,A,3,10,11,12,14,18,22,25,31,1,24,138,,2.0,0.8,1.5*3A
2017-12-01 16:09:42 1512162582.403934: $GPZDA,210943.00,01,12,2017,00,00*6D
2017-12-01 16:09:42 1512162582.404098: $GPGGA,210943,3946.9580,N,08404.9826,W,2,11,0.80,313.33,M,-33.324,M,,*7E
2017-12-01 16:09:42 1512162582.404165: $GPRMC,210943,A,3946.9580,N,08404.9826,W,0.0000,0.000,011217,,*37
2017-12-01 16:09:42 1512162582.404227: $GPGSA,A,3,10,11,12,14,18,22,25,31,1,24,138,,2.0,0.8,1.5*3A
2017-12-01 16:09:43 1512162583.740907: $GPGSV,3,1,11,10,58,142,49,11,10,291,14,12,25,060,44,14,61,309,44*79
2017-12-01 16:09:43 1512162583.741101: $GPGSV,3,2,11,18,27,141,44,22,11,312,36,25,36,103,48,31,46,217,49*70
2017-12-01 16:09:43 1512162583.741173: $GPGSV,3,3,11,01,19,310,34,24,05,046,26,138,38,213,45*70
2017-12-01 16:09:43 1512162583.854727: $GPZDA,210944.00,01,12,2017,00,00*6A
2017-12-01 16:09:43 1512162583.854898: $GPGGA,210944,3946.9580,N,08404.9826,W,2,11,0.80,313.33,M,-33.324,M,,*79
2017-12-01 16:09:43 1512162583.854965: $GPRMC,210944,A,3946.9580,N,08404.9826,W,0.0000,0.000,011217,,*30
2017-12-01 16:09:43 1512162583.855025: $GPGSA,A,3,10,11,12,14,18,22,25,31,1,24,138,,2.0,0.8,1.5*3A
