2017-11-16 17:42:31 1510872151.880438: {"class":"VERSION","release":"3.17","rev":"3.17","proto_major":3,"proto_minor":12}
2017-11-16 17:42:31 1510872151.880902: {"class":"DEVICES","devices":[{"class":"DEVICE","path":"/dev/ttyUSB0","driver":"SiRF","subtype":"9\u0006GSD4e_4.1.2-P1_RPATCH.05-F-GPS-4R-1510281 11/03/2015 307","activated":"2017-11-16T22:42:31.610Z","flags":1,"native":1,"bps":4800,"parity":"N","stopbits":1,"cycle":1.00}]}
2017-11-16 17:42:31 1510872151.881020: {"class":"WATCH","enable":true,"json":false,"nmea":true,"raw":0,"scaled":false,"timing":false,"split24":false,"pps":false}
2017-11-16 17:42:32 1510872152.394438: $GPZDA,224231.00,16,11,2017,00,00*61
2017-11-16 17:42:32 1510872152.394612: $GPGGA,224231,3946.9575,N,08404.9841,W,2,12,0.80,301.85,M,-33.324,M,,*71
2017-11-16 17:42:32 1510872152.394694: $GPRMC,224231,A,3946.9575,N,08404.9841,W,0.0000,0.000,161117,,*30
2017-11-16 17:42:32 1510872152.394752: $GPGSA,A,3,1,10,22,12,14,18,26,11,25,31,32,138,1.6,0.8,1.3*3A
2017-11-16 17:42:33 1510872153.730159: $GPGSV,3,1,12,01,22,295,32,10,43,150,44,22,23,312,42,12,20,045,49*7E
2017-11-16 17:42:33 1510872153.730328: $GPGSV,3,2,12,14,68,339,46,18,14,145,35,26,06,183,26,11,07,277,41*7D
2017-11-16 17:42:33 1510872153.730387: $GPGSV,3,3,12,25,40,084,48,31,60,229,47,32,67,039,50,138,38,213,44*49
2017-11-16 17:42:33 1510872153.842214: $GPZDA,224232.00,16,11,2017,00,00*62
2017-11-16 17:42:33 1510872153.842372: $GPGGA,224232,3946.9575,N,08404.9841,W,2,12,0.80,301.85,M,-33.324,M,,*72
2017-11-16 17:42:33 1510872153.842432: $GPRMC,224232,A,3946.9575,N,08404.9841,W,0.0000,0.000,161117,,*33
2017-11-16 17:42:33 1510872153.842486: $GPGSA,A,3,1,10,22,12,14,18,26,11,25,31,32,138,1.6,0.8,1.3*3A
2017-11-16 17:42:34 1510872154.393192: $GPZDA,224233.00,16,11,2017,00,00*63
2017-11-16 17:42:34 1510872154.393368: $GPGGA,224233,3946.9575,N,08404.9841,W,2,12,0.80,301.85,M,-33.324,M,,*73
2017-11-16 17:42:34 1510872154.393429: $GPRMC,224233,A,3946.9575,N,08404.9841,W,0.0000,0.000,161117,,*32
2017-11-16 17:42:34 1510872154.393485: $GPGSA,A,3,1,10,22,12,14,18,26,11,25,31,32,138,1.6,0.8,1.3*3A
2017-11-16 17:42:35 1510872155.394262: $GPZDA,224234.00,16,11,2017,00,00*64
2017-11-16 17:42:35 1510872155.394424: $GPGGA,224234,3946.9575,N,08404.9841,W,2,12,0.80,301.85,M,-33.324,M,,*74
2017-11-16 17:42:35 1510872155.394483: $GPRMC,224234,A,3946.9575,N,08404.9841,W,0.0000,0.000,161117,,*35
2017-11-16 17:42:35 1510872155.394538: $GPGSA,A,3,1,10,22,12,14,18,26,11,25,31,32,138,1.6,0.8,1.3*3A
2017-11-16 17:42:36 1510872156.730518: $GPGSV,3,1,12,01,22,295,33,10,43,150,44,22,23,312,42,12,20,045,49*7F
2017-11-16 17:42:36 1510872156.730686: $GPGSV,3,2,12,14,68,339,46,18,14,145,35,26,06,183,26,11,07,277,41*7D
2017-11-16 17:42:36 1510872156.730746: $GPGSV,3,3,12,25,40,084,49,31,60,229,48,32,67,039,50,138,38,213,44*47
2017-11-16 17:42:36 1510872156.844142: $GPZDA,224235.00,16,11,2017,00,00*65
2017-11-16 17:42:36 1510872156.844303: $GPGGA,224235,3946.9579,N,08404.9841,W,2,12,0.80,302.49,M,-33.324,M,,*7A
2017-11-16 17:42:36 1510872156.844363: $GPRMC,224235,A,3946.9579,N,08404.9841,W,0.0000,0.000,161117,,*38
2017-11-16 17:42:36 1510872156.844419: $GPGSA,A,3,1,10,22,12,14,18,26,11,25,31,32,138,1.6,0.8,1.3*3A
2017-11-16 17:42:37 1510872157.394673: $GPZDA,224236.00,16,11,2017,00,00*66
2017-11-16 17:42:37 1510872157.394890: $GPGGA,224236,3946.9579,N,08404.9841,W,2,12,0.80,302.49,M,-33.324,M,,*79
2017-11-16 17:42:37 1510872157.394972: $GPRMC,224236,A,3946.9579,N,08404.9841,W,0.0000,0.000,161117,,*3B
2017-11-16 17:42:37 1510872157.395128: $GPGSA,A,3,1,10,22,12,14,18,26,11,25,31,32,138,1.6,0.8,1.3*3A
2017-11-16 17:42:38 1510872158.393308: $GPZDA,224237.00,16,11,2017,00,00*67
2017-11-16 17:42:38 1510872158.393468: $GPGGA,224237,3946.9579,N,08404.9841,W,2,12,0.80,302.49,M,-33.324,M,,*78
2017-11-16 17:42:38 1510872158.393529: $GPRMC,224237,A,3946.9579,N,08404.9841,W,0.0000,0.000,161117,,*3A
2017-11-16 17:42:38 1510872158.393585: $GPGSA,A,3,1,10,22,12,14,18,26,11,25,31,32,138,1.6,0.8,1.3*3A
2017-11-16 17:42:39 1510872159.723901: $GPGSV,3,1,12,01,22,295,26,10,43,150,44,22,23,312,42,12,20,045,49*7B
2017-11-16 17:42:39 1510872159.724111: $GPGSV,3,2,12,14,68,339,46,18,14,145,35,26,06,183,27,11,07,277,41*7C
2017-11-16 17:42:39 1510872159.724173: $GPGSV,3,3,12,25,40,084,48,31,60,229,48,32,67,039,50,138,38,213,43*41
2017-11-16 17:42:39 1510872159.837433: $GPZDA,224238.00,16,11,2017,00,00*68
2017-11-16 17:42:39 1510872159.837601: $GPGGA,224238,3946.9579,N,08404.9841,W,2,12,0.80,302.49,M,-33.324,M,,*77
2017-11-16 17:42:39 1510872159.837669: $GPRMC,224238,A,3946.9579,N,08404.9841,W,0.0000,0.000,161117,,*35
2017-11-16 17:42:39 1510872159.837726: $GPGSA,A,3,1,10,22,12,14,18,26,11,25,31,32,138,1.6,0.8,1.3*3A
2017-11-16 17:42:40 1510872160.415601: $GPZDA,224239.00,16,11,2017,00,00*69
2017-11-16 17:42:40 1510872160.415787: $GPGGA,224239,3946.9579,N,08404.9841,W,2,12,0.80,302.49,M,-33.324,M,,*76
2017-11-16 17:42:40 1510872160.415848: $GPRMC,224239,A,3946.9579,N,08404.9841,W,0.0000,0.000,161117,,*34
2017-11-16 17:42:40 1510872160.415905: $GPGSA,A,3,1,10,22,12,14,18,26,11,25,31,32,138,1.6,0.8,1.3*3A
2017-11-16 17:42:41 1510872161.393650: $GPZDA,224240.00,16,11,2017,00,00*67
2017-11-16 17:42:41 1510872161.393825: $GPGGA,224240,3946.9579,N,08404.9841,W,2,12,0.80,302.49,M,-33.324,M,,*78
2017-11-16 17:42:41 1510872161.393887: $GPRMC,224240,A,3946.9579,N,08404.9841,W,0.0000,0.000,161117,,*3A
2017-11-16 17:42:41 1510872161.393943: $GPGSA,A,3,1,10,22,12,14,18,26,11,25,31,32,138,1.6,0.8,1.3*3A
