2017-11-15 18:36:26 1510788986.392091: {"class":"VERSION","release":"3.17","rev":"3.17","proto_major":3,"proto_minor":12}
2017-11-15 18:36:26 1510788986.392583: {"class":"DEVICES","devices":[{"class":"DEVICE","path":"/dev/ttyUSB0","driver":"SiRF","subtype":"9\u0006GSD4e_4.1.2-P1_RPATCH.05-F-GPS-4R-1510281 11/03/2015 307","activated":"2017-11-15T23:36:26.361Z","flags":1,"native":1,"bps":4800,"parity":"N","stopbits":1,"cycle":1.00}]}
2017-11-15 18:36:26 1510788986.392706: {"class":"WATCH","enable":true,"json":false,"nmea":true,"raw":0,"scaled":false,"timing":false,"split24":false,"pps":false}
2017-11-15 18:36:27 1510788987.664336: $GPGSV,3,1,10,25,35,055,17,14,69,042,17,22,40,301,20,01,18,274,18*73
2017-11-15 18:36:27 1510788987.664510: $GPGSV,3,2,10,31,78,283,26,32,55,079,12,03,21,315,14,10,21,157,18*7F
2017-11-15 18:36:27 1510788987.664569: $GPGSV,3,3,10,26,26,178,07,12,06,031,00*76
2017-11-15 18:36:27 1510788987.777924: $GPZDA,233626.00,15,11,2017,00,00*66
2017-11-15 18:36:27 1510788987.778076: $GPGGA,233626,3946.9562,N,08404.9505,W,1,08,1.20,290.65,M,-33.324,M,,*7A
2017-11-15 18:36:27 1510788987.778140: $GPRMC,233626,A,3946.9562,N,08404.9505,W,0.9929,212.499,151117,,*32
2017-11-15 18:36:27 1510788987.778196: $GPGSA,A,3,25,14,22,1,31,32,10,26,,,,,3.4,1.2,2.9*08
2017-11-15 18:36:28 1510788988.328580: $GPZDA,233627.00,15,11,2017,00,00*67
2017-11-15 18:36:28 1510788988.328747: $GPGGA,233627,3946.9559,N,08404.9512,W,1,08,1.20,291.33,M,-33.324,M,,*77
2017-11-15 18:36:28 1510788988.328809: $GPRMC,233627,A,3946.9559,N,08404.9512,W,0.7278,203.636,151117,,*3B
2017-11-15 18:36:28 1510788988.328867: $GPGSA,A,3,25,14,22,1,31,32,10,26,,,,,3.4,1.2,2.9*08
2017-11-15 18:36:29 1510788989.329439: $GPZDA,233628.00,15,11,2017,00,00*68
2017-11-15 18:36:29 1510788989.329612: $GPGGA,233628,3946.9559,N,08404.9512,W,1,08,1.20,291.33,M,-33.324,M,,*78
2017-11-15 18:36:29 1510788989.329673: $GPRMC,233628,A,3946.9559,N,08404.9512,W,0.6846,184.197,151117,,*32
2017-11-15 18:36:29 1510788989.329729: $GPGSA,A,3,25,14,22,1,31,32,10,26,,,,,3.4,1.2,2.9*08
2017-11-15 18:36:30 1510788990.697689: $GPGSV,3,1,10,25,35,055,14,14,69,042,17,22,40,301,21,01,18,274,18*71
2017-11-15 18:36:30 1510788990.697859: $GPGSV,3,2,10,31,78,283,26,32,55,079,12,12,06,031,15,10,21,157,18*7E
2017-11-15 18:36:30 1510788990.697918: $GPGSV,3,3,10,26,26,178,11,03,21,315,00*71
2017-11-15 18:36:30 1510788990.812473: $GPZDA,233629.00,15,11,2017,00,00*69
2017-11-15 18:36:30 1510788990.812637: $GPGGA,233629,3946.9559,N,08404.9512,W,1,08,1.20,291.33,M,-33.324,M,,*79
2017-11-15 18:36:30 1510788990.812698: $GPRMC,233629,A,3946.9559,N,08404.9512,W,0.4179,148.778,151117,,*33
2017-11-15 18:36:30 1510788990.812753: $GPGSA,A,3,25,14,22,1,31,32,10,26,,,,,3.4,1.2,2.9*08
2017-11-15 18:36:31 1510788991.436458: $GPZDA,233630.00,15,11,2017,00,00*61
2017-11-15 18:36:31 1510788991.436621: $GPGGA,233630,3946.9559,N,08404.9519,W,1,08,1.20,291.25,M,-33.324,M,,*7D
2017-11-15 18:36:31 1510788991.436681: $GPRMC,233630,A,3946.9559,N,08404.9519,W,0.1867,180.000,151117,,*3F
2017-11-15 18:36:31 1510788991.436801: $GPGSA,A,3,25,14,22,1,31,32,10,26,,,,,3.4,1.2,2.9*08
2017-11-15 18:36:32 1510788992.362959: $GPZDA,233631.00,15,11,2017,00,00*60
2017-11-15 18:36:32 1510788992.363127: $GPGGA,233631,3946.9559,N,08404.9519,W,1,08,1.20,291.25,M,-33.324,M,,*7C
2017-11-15 18:36:32 1510788992.363187: $GPRMC,233631,A,3946.9559,N,08404.9519,W,0.3423,184.197,151117,,*3B
2017-11-15 18:36:32 1510788992.363243: $GPGSA,A,3,25,14,22,1,31,32,10,26,,,,,3.4,1.2,2.9*08
2017-11-15 18:36:32 1510788992.363294: $GPGBS,233631,13.59,M,20.35,M,67.34,M*04
2017-11-15 18:36:33 1510788993.661161: $GPGSV,3,1,10,25,34,055,01,14,68,046,03,22,41,301,04,01,18,273,03*7F
2017-11-15 18:36:33 1510788993.661345: $GPGSV,3,2,10,31,79,291,05,32,54,082,01,12,05,031,03,10,20,157,03*75
2017-11-15 18:36:33 1510788993.661405: $GPGSV,3,3,10,26,27,178,01,03,22,315,00*72
2017-11-15 18:36:33 1510788993.774487: $GPZDA,233632.00,15,11,2017,00,00*63
2017-11-15 18:36:33 1510788993.774644: $GPGGA,233632,3946.9559,N,08404.9519,W,1,05,3.00,291.25,M,-33.324,M,,*72
2017-11-15 18:36:33 1510788993.774756: $GPRMC,233632,A,3946.9559,N,08404.9519,W,0.4179,148.778,151117,,*32
2017-11-15 18:36:33 1510788993.774813: $GPGSA,A,3,14,22,1,31,10,,,,,,,,3.4,3.0,2.9*0A
2017-11-15 18:36:34 1510788994.361653: $GPZDA,233633.00,15,11,2017,00,00*62
2017-11-15 18:36:34 1510788994.361816: $GPGGA,233633,3946.9559,N,08404.9519,W,1,05,3.00,291.25,M,-33.324,M,,*73
2017-11-15 18:36:34 1510788994.361876: $GPRMC,233633,A,3946.9559,N,08404.9519,W,0.4179,148.778,151117,,*33
2017-11-15 18:36:34 1510788994.361931: $GPGSA,A,3,14,22,1,31,10,,,,,,,,3.4,3.0,2.9*0A
2017-11-15 18:36:35 1510788995.362778: $GPZDA,233634.00,15,11,2017,00,00*65
2017-11-15 18:36:35 1510788995.362942: $GPGGA,233634,3946.9559,N,08404.9519,W,1,05,3.00,291.25,M,-33.324,M,,*74
2017-11-15 18:36:35 1510788995.363002: $GPRMC,233634,A,3946.9559,N,08404.9519,W,0.1867,180.000,151117,,*3B
2017-11-15 18:36:35 1510788995.363057: $GPGSA,A,3,14,22,1,31,10,,,,,,,,3.4,3.0,2.9*0A
2017-11-15 18:36:36 1510788996.697814: $GPGSV,3,1,10,25,34,055,01,14,68,046,18,22,41,301,20,01,18,273,17*76
2017-11-15 18:36:36 1510788996.697986: $GPGSV,3,2,10,31,79,291,27,32,54,082,01,03,22,315,00,10,20,157,18*7C
2017-11-15 18:36:36 1510788996.698045: $GPGSV,3,3,10,26,27,178,01,12,05,031,00*72
2017-11-15 18:36:36 1510788996.811283: $GPZDA,233635.00,15,11,2017,00,00*64
2017-11-15 18:36:36 1510788996.811450: $GPGGA,233635,3946.9564,N,08404.9519,W,1,05,3.00,291.89,M,-33.324,M,,*7D
2017-11-15 18:36:36 1510788996.811511: $GPRMC,233635,A,3946.9564,N,08404.9519,W,0.2422,93.794,151117,,*03
2017-11-15 18:36:36 1510788996.811567: $GPGSA,A,3,14,22,1,31,10,,,,,,,,3.4,3.0,2.9*0A
2017-11-15 18:36:37 1510788997.333471: $GPZDA,233636.00,15,11,2017,00,00*67
2017-11-15 18:36:37 1510788997.333618: $GPGGA,233636,3946.9564,N,08404.9519,W,1,05,3.00,291.89,M,-33.324,M,,*7E
2017-11-15 18:36:37 1510788997.333678: $GPRMC,233636,A,3946.9564,N,08404.9519,W,0.7278,23.636,151117,,*0E
2017-11-15 18:36:37 1510788997.333734: $GPGSA,A,3,14,22,1,31,10,,,,,,,,3.4,3.0,2.9*0A
2017-11-15 18:36:38 1510788998.327881: $GPZDA,233637.00,15,11,2017,00,00*66
2017-11-15 18:36:38 1510788998.328066: $GPGGA,233637,3946.9568,N,08404.9526,W,1,05,3.00,292.45,M,-33.324,M,,*7C
2017-11-15 18:36:38 1510788998.328131: $GPRMC,233637,A,3946.9568,N,08404.9526,W,0.8709,3.298,151117,,*31
2017-11-15 18:36:38 1510788998.328210: $GPGSA,A,3,14,22,1,31,10,,,,,,,,3.4,3.0,2.9*0A
2017-11-15 18:36:39 1510788999.663616: $GPGSV,3,1,09,25,34,055,01,14,68,046,19,22,41,301,20,01,18,273,17*7F
2017-11-15 18:36:39 1510788999.663787: $GPGSV,3,2,09,31,79,291,28,32,54,082,01,10,20,157,17,26,27,178,01*7E
2017-11-15 18:36:39 1510788999.663847: $GPGSV,3,3,09,03,22,315,00*44
2017-11-15 18:36:39 1510788999.776948: $GPZDA,233638.00,15,11,2017,00,00*69
2017-11-15 18:36:39 1510788999.777107: $GPGGA,233638,3946.9568,N,08404.9526,W,1,05,3.00,292.45,M,-33.324,M,,*73
2017-11-15 18:36:39 1510788999.777199: $GPRMC,233638,A,3946.9568,N,08404.9526,W,0.7278,23.636,151117,,*00
2017-11-15 18:36:39 1510788999.777257: $GPGSA,A,3,14,22,1,31,10,,,,,,,,3.4,3.0,2.9*0A
2017-11-15 18:36:40 1510789000.329082: $GPZDA,233639.00,15,11,2017,00,00*68
2017-11-15 18:36:40 1510789000.329285: $GPGGA,233639,3946.9572,N,08404.9525,W,1,05,3.00,291.69,M,-33.324,M,,*77
2017-11-15 18:36:40 1510789000.329348: $GPRMC,233639,A,3946.9572,N,08404.9525,W,0.8414,39.347,151117,,*02
2017-11-15 18:36:40 1510789000.329405: $GPGSA,A,3,14,22,1,31,10,,,,,,,,3.4,3.0,2.9*0A
2017-11-15 18:36:41 1510789001.328369: $GPZDA,233640.00,15,11,2017,00,00*66
2017-11-15 18:36:41 1510789001.328530: $GPGGA,233640,3946.9576,N,08404.9525,W,1,05,3.00,292.33,M,-33.324,M,,*71
2017-11-15 18:36:41 1510789001.328590: $GPRMC,233640,A,3946.9576,N,08404.9525,W,1.0567,17.448,151117,,*00
2017-11-15 18:36:41 1510789001.328645: $GPGSA,A,3,14,22,1,31,10,,,,,,,,3.4,3.0,2.9*0A
