2017-12-14 11:47:32 1513270052.834259: {"class":"VERSION","release":"3.16","rev":"3.16-4","proto_major":3,"proto_minor":11}
2017-12-14 11:47:32 1513270052.834731: {"class":"DEVICES","devices":[{"class":"DEVICE","path":"/dev/ttyUSB0","driver":"SiRF","subtype":"9\u0006GSD4e_4.1.2-P1_RPATCH.05-F-GPS-4R-1510281 11/03/2015 307","activated":"2017-12-14T16:47:32.415Z","flags":1,"native":1,"bps":4800,"parity":"N","stopbits":1,"cycle":1.00}]}
2017-12-14 11:47:32 1513270052.834854: {"class":"WATCH","enable":true,"json":false,"nmea":true,"raw":0,"scaled":false,"timing":false,"split24":false,"pps":false}
2017-12-14 11:47:33 1513270053.701936: $GPRMC,164734,V,18000.0000,N,00000.0000,W,0.0000,0.000,141217,,*12
2017-12-14 11:47:33 1513270053.702138: $GPGSA,A,1,10,15,18,20,24,32,,,,,,,,,,*3B
2017-12-14 11:47:34 1513270054.817790: $GPRMC,164735,V,3946.9463,N,08404.9502,W,0.0000,0.000,141217,,*2C
2017-12-14 11:47:34 1513270054.817965: $GPGSA,A,1,10,15,18,20,24,32,,,,,,,,,,*3B
2017-12-14 11:47:35 1513270055.408817: $GPGSV,3,1,10,10,31,291,08,15,50,049,08,18,62,313,20,20,44,082,03*7A
2017-12-14 11:47:35 1513270055.408992: $GPGSV,3,2,10,24,42,129,02,13,19,045,00,27,19,303,00,32,10,231,00*77
2017-12-14 11:47:35 1513270055.409056: $GPGSV,3,3,10,21,76,211,00,29,01,186,00*7D
2017-12-14 11:47:35 1513270055.521167: $GPRMC,164735,V,3946.9417,N,08404.9468,W,2.3874,156.344,141217,,*29
2017-12-14 11:47:35 1513270055.521333: $GPGSA,A,1,10,15,18,20,24,,,,,,,,,,,*3A
2017-12-14 11:47:36 1513270056.072562: $GPRMC,164736,V,3946.9412,N,08404.9481,W,1.5930,50.741,141217,,*1A
2017-12-14 11:47:36 1513270056.072731: $GPGSA,A,1,10,15,18,20,24,,,,,,,,,,,*3A
2017-12-14 11:47:36 1513270056.328756: $GPZDA,164736.79,14,12,2017,00,00*6B
2017-12-14 11:47:36 1513270056.328929: $GPGGA,164736,3946.9412,N,08404.9481,W,1,05,2.00,300.63,M,-33.324,M,,*72
2017-12-14 11:47:36 1513270056.328994: $GPRMC,164736,A,3946.9412,N,08404.9481,W,0.9543,80.672,141217,,*04
2017-12-14 11:47:36 1513270056.329054: $GPGSA,A,3,10,15,18,20,24,,,,,,,,6.6,2.0,6.2*3C
2017-12-14 11:47:36 1513270056.329110: $GPGBS,164736,24.66,M,21.80,M,143.40,M*30
2017-12-14 11:47:37 1513270057.093193: $GPGSV,3,1,11,10,31,291,19,15,50,049,22,18,62,313,24,20,44,082,18*7D
2017-12-14 11:47:37 1513270057.093365: $GPGSV,3,2,11,24,42,129,17,13,19,045,00,27,19,303,00,32,10,231,00*72
2017-12-14 11:47:37 1513270057.093431: $GPGSV,3,3,11,21,76,211,00,29,01,186,00,138,38,213,00*7D
2017-12-14 11:47:37 1513270057.206675: $GPZDA,164737.00,14,12,2017,00,00*64
2017-12-14 11:47:37 1513270057.206839: $GPGGA,164737,3946.9408,N,08404.9475,W,1,05,2.00,301.48,M,-33.324,M,,*7B
2017-12-14 11:47:37 1513270057.206905: $GPRMC,164737,A,3946.9408,N,08404.9475,W,0.9357,144.021,141217,,*3F
2017-12-14 11:47:37 1513270057.206964: $GPGSA,A,3,10,15,18,20,24,,,,,,,,6.6,2.0,6.2*3C
2017-12-14 11:47:37 1513270057.460893: $GPZDA,164738.00,14,12,2017,00,00*6B
2017-12-14 11:47:37 1513270057.461056: $GPGGA,164738,3946.9412,N,08404.9475,W,1,05,1.80,302.12,M,-33.324,M,,*78
2017-12-14 11:47:37 1513270057.461121: $GPRMC,164738,A,3946.9412,N,08404.9475,W,0.8732,136.615,141217,,*39
2017-12-14 11:47:37 1513270057.461182: $GPGSA,A,3,10,15,18,20,24,,,,,,,,6.6,1.8,6.2*37
2017-12-14 11:47:38 1513270058.233536: $GPZDA,164739.00,14,12,2017,00,00*6A
2017-12-14 11:47:38 1513270058.762283: $GPGGA,164739,3946.9406,N,08404.9484,W,1,05,1.80,304.97,M,-33.324,M,,*79
2017-12-14 11:47:38 1513270058.762434: $GPRMC,164739,A,3946.9406,N,08404.9484,W,0.9128,191.076,141217,,*31
2017-12-14 11:47:38 1513270058.762499: $GPGSA,A,3,10,15,18,20,24,,,,,,,,6.6,1.8,6.2*37
2017-12-14 11:47:39 1513270059.562961: $GPGSV,3,1,11,10,31,291,20,15,50,049,21,18,62,313,24,20,44,082,17*7B
2017-12-14 11:47:39 1513270059.563136: $GPGSV,3,2,11,24,42,129,17,27,19,303,11,13,19,045,00,32,10,231,00*72
2017-12-14 11:47:39 1513270059.563201: $GPGSV,3,3,11,21,76,211,00,29,01,186,00,138,38,213,00*7D
2017-12-14 11:47:39 1513270059.676846: $GPZDA,164740.00,14,12,2017,00,00*64
2017-12-14 11:47:39 1513270059.677012: $GPGGA,164740,3946.9403,N,08404.9484,W,1,06,1.80,305.73,M,-33.324,M,,*7A
2017-12-14 11:47:39 1513270059.677130: $GPRMC,164740,A,3946.9403,N,08404.9484,W,1.0694,190.801,141217,,*3B
2017-12-14 11:47:39 1513270059.677192: $GPGSA,A,3,10,15,18,20,24,27,,,,,,,6.6,1.8,6.2*32
2017-12-14 11:47:40 1513270060.228081: $GPZDA,164741.00,14,12,2017,00,00*65
2017-12-14 11:47:40 1513270060.228234: $GPGGA,164741,3946.9399,N,08404.9485,W,1,06,1.80,306.50,M,-33.324,M,,*7C
2017-12-14 11:47:40 1513270060.228316: $GPRMC,164741,A,3946.9399,N,08404.9485,W,1.4080,179.339,141217,,*3F
2017-12-14 11:47:40 1513270060.228379: $GPGSA,A,3,10,15,18,20,24,27,,,,,,,6.6,1.8,6.2*32
2017-12-14 11:47:41 1513270061.226456: $GPZDA,164742.00,14,12,2017,00,00*66
2017-12-14 11:47:41 1513270061.226624: $GPGGA,164742,3946.9397,N,08404.9494,W,1,06,2.00,308.59,M,-33.324,M,,*7D
2017-12-14 11:47:41 1513270061.226690: $GPRMC,164742,A,3946.9397,N,08404.9494,W,1.4529,198.754,141217,,*34
2017-12-14 11:47:41 1513270061.226750: $GPGSA,A,3,10,15,18,20,24,27,,,,,,,6.6,2.0,6.2*39
2017-12-14 11:47:42 1513270062.562300: $GPGSV,3,1,11,10,31,291,20,15,50,049,21,18,62,313,24,20,44,082,16*7A
2017-12-14 11:47:42 1513270062.562463: $GPGSV,3,2,11,24,42,129,17,27,19,303,04,13,19,045,00,32,10,231,00*76
2017-12-14 11:47:42 1513270062.562527: $GPGSV,3,3,11,21,76,211,00,29,01,186,00,138,38,213,00*7D
2017-12-14 11:47:42 1513270062.675616: $GPZDA,164743.00,14,12,2017,00,00*67
2017-12-14 11:47:42 1513270062.675746: $GPGGA,164743,3946.9395,N,08404.9496,W,1,05,2.00,312.16,M,-33.324,M,,*7F
2017-12-14 11:47:42 1513270062.675809: $GPRMC,164743,A,3946.9395,N,08404.9496,W,1.3535,226.118,141217,,*37
2017-12-14 11:47:42 1513270062.675869: $GPGSA,A,3,10,15,18,20,24,,,,,,,,6.6,2.0,6.2*3C
2017-12-14 11:47:43 1513270063.228634: $GPZDA,164744.00,14,12,2017,00,00*60
2017-12-14 11:47:43 1513270063.937628: $GPGGA,164744,3946.9389,N,08404.9504,W,1,05,2.00,313.61,M,-33.324,M,,*7E
2017-12-14 11:47:43 1513270063.937822: $GPRMC,164744,A,3946.9389,N,08404.9504,W,1.9096,220.583,141217,,*31
2017-12-14 11:47:43 1513270063.937889: $GPGSA,A,3,10,15,18,20,24,,,,,,,,6.6,2.0,6.2*3C
2017-12-14 11:47:44 1513270064.225002: $GPZDA,164745.00,14,12,2017,00,00*61
2017-12-14 11:47:44 1513270064.225170: $GPGGA,164745,3946.9386,N,08404.9513,W,1,05,2.00,315.70,M,-33.324,M,,*70
2017-12-14 11:47:44 1513270064.225237: $GPRMC,164745,A,3946.9386,N,08404.9513,W,1.8241,234.441,141217,,*3A
2017-12-14 11:47:44 1513270064.225296: $GPGSA,A,3,10,15,18,20,24,,,,,,,,6.6,2.0,6.2*3C
2017-12-14 11:47:45 1513270065.560868: $GPGSV,3,1,11,10,31,291,20,15,50,049,20,18,62,313,24,20,44,082,14*79
2017-12-14 11:47:45 1513270065.561045: $GPGSV,3,2,11,24,42,129,18,27,19,303,04,13,19,045,00,32,10,231,00*79
2017-12-14 11:47:45 1513270065.561110: $GPGSV,3,3,11,21,76,211,00,29,01,186,00,138,38,213,00*7D
2017-12-14 11:47:45 1513270065.674349: $GPZDA,164746.00,14,12,2017,00,00*62
2017-12-14 11:47:45 1513270065.674519: $GPGGA,164746,3946.9384,N,08404.9515,W,1,05,2.00,319.27,M,-33.324,M,,*79
2017-12-14 11:47:45 1513270065.674585: $GPRMC,164746,A,3946.9384,N,08404.9515,W,1.3499,227.836,141217,,*3B
2017-12-14 11:47:45 1513270065.674646: $GPGSA,A,3,10,15,18,20,24,,,,,,,,6.6,2.0,6.2*3C
2017-12-14 11:47:46 1513270066.224238: $GPZDA,164747.00,14,12,2017,00,00*63
2017-12-14 11:47:46 1513270066.224405: $GPGGA,164747,3946.9382,N,08404.9523,W,1,05,2.00,321.36,M,-33.324,M,,*70
2017-12-14 11:47:46 1513270066.224471: $GPRMC,164747,A,3946.9382,N,08404.9523,W,0.8330,241.766,141217,,*3D
2017-12-14 11:47:46 1513270066.224532: $GPGSA,A,3,10,15,18,20,24,,,,,,,,6.6,2.0,6.2*3C
2017-12-14 11:47:47 1513270067.224377: $GPZDA,164748.00,14,12,2017,00,00*6C
2017-12-14 11:47:47 1513270067.224533: $GPGGA,164748,3946.9383,N,08404.9524,W,1,05,2.00,322.77,M,-33.324,M,,*7F
2017-12-14 11:47:47 1513270067.224598: $GPRMC,164748,A,3946.9383,N,08404.9524,W,0.9329,277.265,141217,,*3E
2017-12-14 11:47:47 1513270067.224658: $GPGSA,A,3,10,15,18,20,24,,,,,,,,6.6,2.0,6.2*3C
2017-12-14 11:47:48 1513270068.560298: $GPGSV,3,1,11,10,31,291,20,15,50,049,20,18,62,313,23,20,44,082,13*79
2017-12-14 11:47:48 1513270068.560491: $GPGSV,3,2,11,24,42,129,19,27,19,303,04,13,19,045,00,32,10,231,00*78
2017-12-14 11:47:48 1513270068.560670: $GPGSV,3,3,11,21,76,211,00,29,01,186,00,138,38,213,00*7D
2017-12-14 11:47:48 1513270068.673962: $GPZDA,164749.00,14,12,2017,00,00*6D
2017-12-14 11:47:48 1513270068.674117: $GPGGA,164749,3946.9377,N,08404.9534,W,1,05,2.00,327.02,M,-33.324,M,,*73
2017-12-14 11:47:48 1513270068.674182: $GPRMC,164749,A,3946.9377,N,08404.9534,W,0.9365,234.132,141217,,*3B
2017-12-14 11:47:48 1513270068.674326: $GPGSA,A,3,10,15,18,20,24,,,,,,,,6.6,2.0,6.2*3C
2017-12-14 11:47:49 1513270069.224094: $GPZDA,164750.00,14,12,2017,00,00*65
2017-12-14 11:47:49 1513270069.224261: $GPGGA,164750,3946.9375,N,08404.9542,W,1,05,2.20,329.11,M,-33.324,M,,*76
2017-12-14 11:47:49 1513270069.224326: $GPRMC,164750,A,3946.9375,N,08404.9542,W,1.4755,224.035,141217,,*3C
2017-12-14 11:47:49 1513270069.224386: $GPGSA,A,3,10,15,18,20,24,,,,,,,,6.6,2.2,6.2*3E
2017-12-14 11:47:50 1513270070.225519: $GPZDA,164751.00,14,12,2017,00,00*64
2017-12-14 11:47:50 1513270070.225690: $GPGGA,164751,3946.9376,N,08404.9544,W,1,05,2.20,331.92,M,-33.324,M,,*70
2017-12-14 11:47:50 1513270070.225756: $GPRMC,164751,A,3946.9376,N,08404.9544,W,1.7924,254.314,141217,,*34
2017-12-14 11:47:50 1513270070.225815: $GPGSA,A,3,10,15,18,20,24,,,,,,,,6.6,2.2,6.2*3E
2017-12-14 11:47:51 1513270071.559519: $GPGSV,3,1,11,10,31,291,21,15,50,049,19,18,62,313,23,20,44,082,13*72
2017-12-14 11:47:51 1513270071.559715: $GPGSV,3,2,11,24,42,129,19,27,19,303,04,13,19,045,00,32,10,231,00*78
2017-12-14 11:47:51 1513270071.559780: $GPGSV,3,3,11,21,76,211,00,29,01,186,00,138,38,213,00*7D
2017-12-14 11:47:51 1513270071.673220: $GPZDA,164752.00,14,12,2017,00,00*67
2017-12-14 11:47:51 1513270071.673409: $GPGGA,164752,3946.9378,N,08404.9551,W,1,05,2.20,333.25,M,-33.324,M,,*77
2017-12-14 11:47:51 1513270071.673477: $GPRMC,164752,A,3946.9378,N,08404.9551,W,1.7012,271.465,141217,,*37
2017-12-14 11:47:51 1513270071.673556: $GPGSA,A,3,10,15,18,20,24,,,,,,,,6.6,2.2,6.2*3E
2017-12-14 11:47:52 1513270072.224271: $GPZDA,164753.00,14,12,2017,00,00*66
2017-12-14 11:47:52 1513270072.224465: $GPGGA,164753,3946.9383,N,08404.9559,W,1,05,2.20,335.21,M,-33.324,M,,*78
2017-12-14 11:47:52 1513270072.224548: $GPRMC,164753,A,3946.9383,N,08404.9559,W,1.4454,277.238,141217,,*37
2017-12-14 11:47:52 1513270072.224610: $GPGSA,A,3,10,15,18,20,24,,,,,,,,6.6,2.2,6.2*3E
