2017-12-29 11:17:09 1514564229.207895: {"class":"VERSION","release":"3.16","rev":"3.16-4","proto_major":3,"proto_minor":11}
2017-12-29 11:17:09 1514564229.208227: {"class":"DEVICES","devices":[{"class":"DEVICE","path":"/dev/ttyUSB0","driver":"SiRF","subtype":"9\u0006GSD4e_4.1.2-P1_RPATCH.05-F-GPS-4R-1510281 11/03/2015 307","activated":"2017-12-29T16:17:08.903Z","flags":1,"native":1,"bps":4800,"parity":"N","stopbits":1,"cycle":1.00}]}
2017-12-29 11:17:09 1514564229.208341: {"class":"WATCH","enable":true,"json":false,"nmea":true,"raw":0,"scaled":false,"timing":false,"split24":false,"pps":false}
2017-12-29 11:17:09 1514564229.887849: $GPZDA,161710.55,29,12,2017,00,00*6A
2017-12-29 11:17:09 1514564229.888013: $GPGGA,161710,3946.9533,N,08404.9808,W,1,11,1.00,337.83,M,-33.324,M,,*70
2017-12-29 11:17:09 1514564229.888080: $GPRMC,161710,A,3946.9533,N,08404.9808,W,0.3133,9.200,291217,,*3D
2017-12-29 11:17:09 1514564229.888142: $GPGSA,A,3,10,15,18,20,21,24,27,32,8,13,138,,1.7,1.0,1.3*38
2017-12-29 11:17:09 1514564229.888201: $GPGBS,161710,10.91,M,10.38,M,30.89,M*0F
2017-12-29 11:17:10 1514564230.969324: $GPZDA,161711.23,29,12,2017,00,00*6A
2017-12-29 11:17:10 1514564230.969493: $GPGGA,161711,3946.9526,N,08404.9840,W,1,11,1.00,344.01,M,-33.324,M,,*77
2017-12-29 11:17:10 1514564230.969576: $GPRMC,161711,A,3946.9526,N,08404.9840,W,0.7070,48.986,291217,,*06
2017-12-29 11:17:10 1514564230.969638: $GPGSA,A,3,10,15,18,20,21,24,27,32,8,13,138,,1.7,1.0,1.3*38
2017-12-29 11:17:12 1514564232.111866: $GPGSV,3,1,12,08,05,322,35,10,42,301,44,15,37,052,48,18,71,339,43*7F
2017-12-29 11:17:12 1514564232.112046: $GPGSV,3,2,12,20,34,096,50,21,63,189,46,24,51,109,48,27,19,289,38*73
2017-12-29 11:17:12 1514564232.112129: $GPGSV,3,3,12,32,22,238,39,13,07,048,00,14,03,232,00,138,38,213,00*45
2017-12-29 11:17:12 1514564232.225276: $GPZDA,161712.00,29,12,2017,00,00*68
2017-12-29 11:17:12 1514564232.225453: $GPGGA,161712,3946.9526,N,08404.9846,W,1,09,1.00,342.53,M,-33.324,M,,*7A
2017-12-29 11:17:12 1514564232.225521: $GPRMC,161712,A,3946.9526,N,08404.9846,W,0.3006,62.539,291217,,*06
2017-12-29 11:17:12 1514564232.225581: $GPGSA,A,3,8,10,15,18,20,21,24,27,32,,,,1.7,1.0,1.3*00
2017-12-29 11:17:12 1514564232.677444: $GPZDA,161713.00,29,12,2017,00,00*69
2017-12-29 11:17:12 1514564232.677619: $GPGGA,161713,3946.9533,N,08404.9846,W,1,09,1.00,342.41,M,-33.324,M,,*7C
2017-12-29 11:17:12 1514564232.677685: $GPRMC,161713,A,3946.9533,N,08404.9846,W,0.3133,9.200,291217,,*34
2017-12-29 11:17:12 1514564232.677746: $GPGSA,A,3,8,10,15,18,20,21,24,27,32,,,,1.7,1.0,1.3*00
2017-12-29 11:17:13 1514564233.377423: $GPZDA,161714.00,29,12,2017,00,00*6E
2017-12-29 11:17:13 1514564233.377587: $GPGGA,161714,3946.9540,N,08404.9844,W,1,09,1.00,340.88,M,-33.324,M,,*7A
2017-12-29 11:17:13 1514564233.377652: $GPRMC,161714,A,3946.9540,N,08404.9844,W,0.0000,0.000,291217,,*3C
2017-12-29 11:17:13 1514564233.377712: $GPGSA,A,3,8,10,15,18,20,21,24,27,32,,,,1.7,1.0,1.3*00
2017-12-29 11:17:14 1514564234.712236: $GPGSV,3,1,12,08,05,322,34,10,42,301,43,15,37,052,48,18,71,339,42*78
2017-12-29 11:17:14 1514564234.712400: $GPGSV,3,2,12,20,34,096,49,21,63,189,45,24,51,109,47,27,19,289,38*77
2017-12-29 11:17:14 1514564234.712465: $GPGSV,3,3,12,32,22,238,39,13,07,048,00,14,03,232,00,138,38,213,46*47
2017-12-29 11:17:14 1514564234.825691: $GPZDA,161715.00,29,12,2017,00,00*6F
2017-12-29 11:17:14 1514564234.825857: $GPGGA,161715,3946.9539,N,08404.9837,W,1,10,1.00,339.55,M,-33.324,M,,*77
2017-12-29 11:17:14 1514564234.825938: $GPRMC,161715,A,3946.9539,N,08404.9837,W,0.0000,0.000,291217,,*37
2017-12-29 11:17:14 1514564234.826000: $GPGSA,A,3,8,10,15,18,20,21,24,27,32,138,,,1.7,1.0,1.3*3A
2017-12-29 11:17:15 1514564235.376512: $GPZDA,161716.00,29,12,2017,00,00*6C
2017-12-29 11:17:15 1514564235.376675: $GPGGA,161716,3946.9546,N,08404.9835,W,1,10,1.00,338.02,M,-33.324,M,,*7D
2017-12-29 11:17:15 1514564235.376740: $GPRMC,161716,A,3946.9546,N,08404.9835,W,0.0000,0.000,291217,,*3E
2017-12-29 11:17:15 1514564235.376825: $GPGSA,A,3,8,10,15,18,20,21,24,27,32,138,,,1.7,1.0,1.3*3A
2017-12-29 11:17:16 1514564236.378559: $GPZDA,161717.00,29,12,2017,00,00*6D
2017-12-29 11:17:16 1514564236.378802: $GPGGA,161717,3946.9549,N,08404.9834,W,1,10,1.00,337.26,M,-33.324,M,,*7B
2017-12-29 11:17:16 1514564236.378873: $GPRMC,161717,A,3946.9549,N,08404.9834,W,0.0000,0.000,291217,,*31
2017-12-29 11:17:16 1514564236.378950: $GPGSA,A,3,8,10,15,18,20,21,24,27,32,138,,,1.7,1.0,1.3*3A
2017-12-29 11:17:16 1514564236.379009: $GPGBS,161717,10.91,M,10.38,M,30.89,M*08
2017-12-29 11:17:17 1514564237.718053: $GPGSV,3,1,12,08,05,322,30,10,42,301,42,15,37,052,47,18,71,339,42*72
2017-12-29 11:17:17 1514564237.718213: $GPGSV,3,2,12,20,34,096,49,21,63,189,45,24,51,109,46,27,19,289,39*77
2017-12-29 11:17:17 1514564237.718281: $GPGSV,3,3,12,32,22,238,39,13,07,048,13,14,03,232,01,138,38,213,47*45
2017-12-29 11:17:17 1514564237.831458: $GPZDA,161718.00,29,12,2017,00,00*62
2017-12-29 11:17:17 1514564237.831601: $GPGGA,161718,3946.9549,N,08404.9834,W,1,10,1.00,335.86,M,-33.324,M,,*7C
2017-12-29 11:17:17 1514564237.831667: $GPRMC,161718,A,3946.9549,N,08404.9834,W,0.0000,0.000,291217,,*3E
2017-12-29 11:17:17 1514564237.831727: $GPGSA,A,3,8,10,15,18,20,21,24,27,32,138,,,1.7,1.0,1.3*3A
2017-12-29 11:17:18 1514564238.378492: $GPZDA,161719.00,29,12,2017,00,00*63
2017-12-29 11:17:18 1514564238.378657: $GPGGA,161719,3946.9552,N,08404.9833,W,1,10,1.00,335.09,M,-33.324,M,,*77
2017-12-29 11:17:18 1514564238.378740: $GPRMC,161719,A,3946.9552,N,08404.9833,W,0.0000,0.000,291217,,*32
2017-12-29 11:17:18 1514564238.378823: $GPGSA,A,3,8,10,15,18,20,21,24,27,32,138,,,1.7,1.0,1.3*3A
2017-12-29 11:17:19 1514564239.378912: $GPZDA,161720.00,29,12,2017,00,00*69
2017-12-29 11:17:19 1514564239.379075: $GPGGA,161720,3946.9584,N,08404.9823,W,2,10,1.60,321.83,M,-33.324,M,,*75
2017-12-29 11:17:19 1514564239.379141: $GPRMC,161720,A,3946.9584,N,08404.9823,W,0.0000,0.000,291217,,*32
2017-12-29 11:17:19 1514564239.379201: $GPGSA,A,3,8,10,15,18,20,21,24,27,32,138,,,1.7,1.6,1.3*3C
2017-12-29 11:17:20 1514564240.714673: $GPGSV,3,1,12,08,05,322,30,10,42,301,42,15,37,052,47,18,71,339,42*72
2017-12-29 11:17:20 1514564240.714845: $GPGSV,3,2,12,20,34,096,49,21,63,189,45,24,51,109,46,27,19,289,38*76
2017-12-29 11:17:20 1514564240.714927: $GPGSV,3,3,12,32,22,238,39,13,07,048,00,14,03,232,00,138,38,213,46*47
2017-12-29 11:17:20 1514564240.828341: $GPZDA,161721.00,29,12,2017,00,00*68
2017-12-29 11:17:20 1514564240.828480: $GPGGA,161721,3946.9584,N,08404.9823,W,2,10,1.00,321.83,M,-33.324,M,,*72
2017-12-29 11:17:20 1514564240.828545: $GPRMC,161721,A,3946.9584,N,08404.9823,W,0.0000,0.000,291217,,*33
2017-12-29 11:17:20 1514564240.828606: $GPGSA,A,3,8,10,15,18,20,21,24,27,32,138,,,1.7,1.0,1.3*3A
2017-12-29 11:17:21 1514564241.378895: $GPZDA,161722.00,29,12,2017,00,00*6B
2017-12-29 11:17:21 1514564241.379065: $GPGGA,161722,3946.9584,N,08404.9823,W,2,10,1.00,321.83,M,-33.324,M,,*71
2017-12-29 11:17:21 1514564241.379133: $GPRMC,161722,A,3946.9584,N,08404.9823,W,0.0000,0.000,291217,,*30
2017-12-29 11:17:21 1514564241.379193: $GPGSA,A,3,8,10,15,18,20,21,24,27,32,138,,,1.7,1.0,1.3*3A
2017-12-29 11:17:22 1514564242.378514: $GPZDA,161723.00,29,12,2017,00,00*6A
2017-12-29 11:17:22 1514564242.378674: $GPGGA,161723,3946.9584,N,08404.9823,W,2,10,1.00,321.83,M,-33.324,M,,*70
2017-12-29 11:17:22 1514564242.378760: $GPRMC,161723,A,3946.9584,N,08404.9823,W,0.0000,0.000,291217,,*31
2017-12-29 11:17:22 1514564242.378823: $GPGSA,A,3,8,10,15,18,20,21,24,27,32,138,,,1.7,1.0,1.3*3A
2017-12-29 11:17:23 1514564243.715443: $GPGSV,3,1,12,08,05,322,29,10,42,301,41,15,37,052,47,18,71,339,42*79
2017-12-29 11:17:23 1514564243.715601: $GPGSV,3,2,12,20,34,096,49,21,63,189,44,24,51,109,46,27,19,289,38*77
2017-12-29 11:17:23 1514564243.715667: $GPGSV,3,3,12,32,22,238,39,13,07,048,00,14,03,232,00,138,38,213,45*44
2017-12-29 11:17:23 1514564243.828812: $GPZDA,161724.00,29,12,2017,00,00*6D
2017-12-29 11:17:23 1514564243.828981: $GPGGA,161724,3946.9584,N,08404.9823,W,2,10,1.00,321.83,M,-33.324,M,,*77
2017-12-29 11:17:23 1514564243.829047: $GPRMC,161724,A,3946.9584,N,08404.9823,W,0.0000,0.000,291217,,*36
2017-12-29 11:17:23 1514564243.829156: $GPGSA,A,3,8,10,15,18,20,21,24,27,32,138,,,1.7,1.0,1.3*3A
2017-12-29 11:17:24 1514564244.454202: $GPZDA,161725.00,29,12,2017,00,00*6C
2017-12-29 11:17:24 1514564244.454356: $GPGGA,161725,3946.9584,N,08404.9823,W,2,10,1.00,321.83,M,-33.324,M,,*76
2017-12-29 11:17:24 1514564244.454421: $GPRMC,161725,A,3946.9584,N,08404.9823,W,0.0000,0.000,291217,,*37
2017-12-29 11:17:24 1514564244.454483: $GPGSA,A,3,8,10,15,18,20,21,24,27,32,138,,,1.7,1.0,1.3*3A
2017-12-29 11:17:25 1514564245.387563: $GPZDA,161726.00,29,12,2017,00,00*6F
2017-12-29 11:17:25 1514564245.387745: $GPGGA,161726,3946.9579,N,08404.9823,W,2,10,1.00,321.19,M,-33.324,M,,*74
2017-12-29 11:17:25 1514564245.387814: $GPRMC,161726,A,3946.9579,N,08404.9823,W,0.0000,0.000,291217,,*36
2017-12-29 11:17:25 1514564245.387891: $GPGSA,A,3,8,10,15,18,20,21,24,27,32,138,,,1.7,1.0,1.3*3A
2017-12-29 11:17:26 1514564246.714559: $GPGSV,3,1,12,08,05,322,29,10,42,301,41,15,37,052,47,18,71,339,42*79
2017-12-29 11:17:26 1514564246.714713: $GPGSV,3,2,12,20,34,096,49,21,63,189,44,24,51,109,46,27,19,289,38*77
2017-12-29 11:17:26 1514564246.714799: $GPGSV,3,3,12,32,22,238,38,13,07,048,00,14,03,232,00,138,38,213,46*46
2017-12-29 11:17:26 1514564246.827934: $GPZDA,161727.00,29,12,2017,00,00*6E
2017-12-29 11:17:26 1514564246.828067: $GPGGA,161727,3946.9582,N,08404.9821,W,2,10,1.00,319.02,M,-33.324,M,,*72
2017-12-29 11:17:26 1514564246.828133: $GPRMC,161727,A,3946.9582,N,08404.9821,W,0.0000,0.000,291217,,*31
2017-12-29 11:17:26 1514564246.828194: $GPGSA,A,3,8,10,15,18,20,21,24,27,32,138,,,1.7,1.0,1.3*3A
2017-12-29 11:17:27 1514564247.380109: $GPZDA,161728.00,29,12,2017,00,00*61
2017-12-29 11:17:27 1514564247.380301: $GPGGA,161728,3946.9582,N,08404.9828,W,2,10,1.00,317.54,M,-33.324,M,,*79
2017-12-29 11:17:27 1514564247.380388: $GPRMC,161728,A,3946.9582,N,08404.9828,W,0.0000,0.000,291217,,*37
2017-12-29 11:17:27 1514564247.380450: $GPGSA,A,3,8,10,15,18,20,21,24,27,32,138,,,1.7,1.0,1.3*3A
2017-12-29 11:17:28 1514564248.378379: $GPZDA,161729.00,29,12,2017,00,00*60
2017-12-29 11:17:28 1514564248.378542: $GPGGA,161729,3946.9581,N,08404.9827,W,2,10,1.00,316.13,M,-33.324,M,,*76
2017-12-29 11:17:28 1514564248.378610: $GPRMC,161729,A,3946.9581,N,08404.9827,W,0.0000,0.000,291217,,*3A
2017-12-29 11:17:28 1514564248.378670: $GPGSA,A,3,8,10,15,18,20,21,24,27,32,138,,,1.7,1.0,1.3*3A
2017-12-29 11:17:28 1514564248.378729: $GPGBS,161729,2.73,M,2.59,M,7.72,M*3E
2017-12-29 11:17:29 1514564249.714824: $GPGSV,3,1,12,08,05,322,29,10,42,301,41,15,37,052,46,18,71,339,41*7B
2017-12-29 11:17:29 1514564249.714987: $GPGSV,3,2,12,20,34,096,48,21,63,189,44,24,51,109,46,27,19,289,39*77
2017-12-29 11:17:29 1514564249.715053: $GPGSV,3,3,12,32,22,238,38,14,03,232,15,13,07,048,00,138,38,213,45*41
2017-12-29 11:17:29 1514564249.828493: $GPZDA,161730.00,29,12,2017,00,00*68
2017-12-29 11:17:29 1514564249.828618: $GPGGA,161730,3946.9585,N,08404.9826,W,2,10,1.20,315.37,M,-33.324,M,,*7C
2017-12-29 11:17:29 1514564249.828682: $GPRMC,161730,A,3946.9585,N,08404.9826,W,0.4179,328.778,291217,,*3D
2017-12-29 11:17:29 1514564249.828743: $GPGSA,A,3,8,10,15,18,20,21,24,27,32,138,,,1.7,1.2,1.3*38
2017-12-29 11:17:30 1514564250.379393: $GPZDA,161731.00,29,12,2017,00,00*69
2017-12-29 11:17:30 1514564250.379546: $GPGGA,161731,3946.9580,N,08404.9826,W,2,10,1.20,314.73,M,-33.324,M,,*79
2017-12-29 11:17:30 1514564250.379612: $GPRMC,161731,A,3946.9580,N,08404.9826,W,0.1867,180.000,291217,,*32
2017-12-29 11:17:30 1514564250.379673: $GPGSA,A,3,8,10,15,18,20,21,24,27,32,138,,,1.7,1.2,1.3*38
2017-12-29 11:17:31 1514564251.380267: $GPZDA,161732.00,29,12,2017,00,00*6A
2017-12-29 11:17:31 1514564251.380424: $GPGGA,161732,3946.9575,N,08404.9825,W,2,10,1.20,311.28,M,-33.324,M,,*78
2017-12-29 11:17:31 1514564251.380490: $GPRMC,161732,A,3946.9575,N,08404.9825,W,0.2202,173.469,291217,,*35
2017-12-29 11:17:31 1514564251.380550: $GPGSA,A,3,8,10,15,18,20,21,24,27,32,138,,,1.7,1.2,1.3*38
2017-12-29 11:17:32 1514564252.715675: $GPGSV,3,1,12,08,05,322,29,10,42,301,41,15,37,052,47,18,71,339,42*79
2017-12-29 11:17:32 1514564252.715882: $GPGSV,3,2,12,20,34,096,48,21,63,189,44,24,51,109,46,27,19,289,38*76
2017-12-29 11:17:32 1514564252.715950: $GPGSV,3,3,12,32,22,238,37,13,07,048,00,14,03,232,00,138,38,213,45*4A
2017-12-29 11:17:32 1514564252.829418: $GPZDA,161733.00,29,12,2017,00,00*6B
2017-12-29 11:17:32 1514564252.829544: $GPGGA,161733,3946.9575,N,08404.9825,W,2,10,1.20,311.28,M,-33.324,M,,*79
2017-12-29 11:17:32 1514564252.829609: $GPRMC,161733,A,3946.9575,N,08404.9825,W,0.0000,0.000,291217,,*38
2017-12-29 11:17:32 1514564252.829669: $GPGSA,A,3,8,10,15,18,20,21,24,27,32,138,,,1.7,1.2,1.3*38
2017-12-29 11:17:33 1514564253.380247: $GPZDA,161734.00,29,12,2017,00,00*6C
2017-12-29 11:17:33 1514564253.380401: $GPGGA,161734,3946.9575,N,08404.9825,W,2,10,1.20,311.28,M,-33.324,M,,*7E
2017-12-29 11:17:33 1514564253.380467: $GPRMC,161734,A,3946.9575,N,08404.9825,W,0.0000,0.000,291217,,*3F
2017-12-29 11:17:33 1514564253.380526: $GPGSA,A,3,8,10,15,18,20,21,24,27,32,138,,,1.7,1.2,1.3*38
