2017-11-16 13:27:08 1510856828.916450: {"class":"VERSION","release":"3.17","rev":"3.17","proto_major":3,"proto_minor":12}
2017-11-16 13:27:08 1510856828.916853: {"class":"DEVICES","devices":[{"class":"DEVICE","path":"/dev/ttyUSB0","driver":"SiRF","subtype":"9\u0006GSD4e_4.1.2-P1_RPATCH.05-F-GPS-4R-1510281 11/03/2015 307","activated":"2017-11-16T18:27:08.407Z","flags":1,"native":1,"bps":4800,"parity":"N","stopbits":1,"cycle":1.00}]}
2017-11-16 13:27:08 1510856828.916962: {"class":"WATCH","enable":true,"json":false,"nmea":true,"raw":0,"scaled":false,"timing":false,"split24":false,"pps":false}
2017-11-16 13:27:09 1510856829.627924: $GPGSV,3,1,12,10,26,286,40,13,26,045,45,15,57,049,51,18,57,304,47*73
2017-11-16 13:27:09 1510856829.628093: $GPGSV,3,2,12,20,48,076,48,21,79,252,46,24,36,135,43,27,17,309,44*78
2017-11-16 13:27:09 1510856829.628151: $GPGSV,3,3,12,29,06,187,20,05,02,090,24,32,04,226,22,138,38,213,45*40
2017-11-16 13:27:09 1510856829.741528: $GPZDA,182708.00,16,11,2017,00,00*61
2017-11-16 13:27:09 1510856829.741651: $GPGGA,182708,3946.9615,N,08404.9845,W,2,12,0.80,303.96,M,-33.324,M,,*70
2017-11-16 13:27:09 1510856829.741710: $GPRMC,182708,A,3946.9615,N,08404.9845,W,0.0000,0.000,161117,,*31
2017-11-16 13:27:09 1510856829.741765: $GPGSA,A,3,10,13,15,18,20,21,24,27,29,5,32,138,1.6,0.8,1.3*36
2017-11-16 13:27:10 1510856830.366573: $GPZDA,182709.00,16,11,2017,00,00*60
2017-11-16 13:27:10 1510856830.366753: $GPGGA,182709,3946.9615,N,08404.9845,W,2,12,0.80,303.96,M,-33.324,M,,*71
2017-11-16 13:27:10 1510856830.366818: $GPRMC,182709,A,3946.9615,N,08404.9845,W,0.0000,0.000,161117,,*30
2017-11-16 13:27:10 1510856830.366874: $GPGSA,A,3,10,13,15,18,20,21,24,27,29,5,32,138,1.6,0.8,1.3*36
2017-11-16 13:27:11 1510856831.271332: $GPZDA,182710.00,16,11,2017,00,00*68
2017-11-16 13:27:11 1510856831.271498: $GPGGA,182710,3946.9615,N,08404.9845,W,2,12,0.80,303.96,M,-33.324,M,,*79
2017-11-16 13:27:11 1510856831.271560: $GPRMC,182710,A,3946.9615,N,08404.9845,W,0.0000,0.000,161117,,*38
2017-11-16 13:27:11 1510856831.271616: $GPGSA,A,3,10,13,15,18,20,21,24,27,29,5,32,138,1.6,0.8,1.3*36
2017-11-16 13:27:12 1510856832.606964: $GPGSV,3,1,12,10,26,286,42,13,26,045,45,15,57,049,51,18,57,304,47*71
2017-11-16 13:27:12 1510856832.607121: $GPGSV,3,2,12,20,48,076,48,21,79,252,46,24,36,135,42,27,17,309,44*79
2017-11-16 13:27:12 1510856832.607181: $GPGSV,3,3,12,29,06,187,24,05,02,090,24,32,04,226,22,138,38,213,45*44
2017-11-16 13:27:12 1510856832.720364: $GPZDA,182711.00,16,11,2017,00,00*69
2017-11-16 13:27:12 1510856832.720530: $GPGGA,182711,3946.9615,N,08404.9845,W,2,12,0.80,303.96,M,-33.324,M,,*78
2017-11-16 13:27:12 1510856832.720596: $GPRMC,182711,A,3946.9615,N,08404.9845,W,0.0000,0.000,161117,,*39
2017-11-16 13:27:12 1510856832.720653: $GPGSA,A,3,10,13,15,18,20,21,24,27,29,5,32,138,1.6,0.8,1.3*36
2017-11-16 13:27:13 1510856833.267649: $GPZDA,182712.00,16,11,2017,00,00*6A
2017-11-16 13:27:13 1510856833.267806: $GPGGA,182712,3946.9615,N,08404.9845,W,2,12,0.80,303.96,M,-33.324,M,,*7B
2017-11-16 13:27:13 1510856833.267869: $GPRMC,182712,A,3946.9615,N,08404.9845,W,0.0000,0.000,161117,,*3A
2017-11-16 13:27:13 1510856833.267925: $GPGSA,A,3,10,13,15,18,20,21,24,27,29,5,32,138,1.6,0.8,1.3*36
2017-11-16 13:27:14 1510856834.272324: $GPZDA,182713.00,16,11,2017,00,00*6B
2017-11-16 13:27:14 1510856834.272500: $GPGGA,182713,3946.9615,N,08404.9845,W,2,12,0.80,303.96,M,-33.324,M,,*7A
2017-11-16 13:27:14 1510856834.272561: $GPRMC,182713,A,3946.9615,N,08404.9845,W,0.0000,0.000,161117,,*3B
2017-11-16 13:27:14 1510856834.272617: $GPGSA,A,3,10,13,15,18,20,21,24,27,29,5,32,138,1.6,0.8,1.3*36
2017-11-16 13:27:15 1510856835.607156: $GPGSV,3,1,12,10,26,286,42,13,26,045,45,15,57,049,51,18,57,304,47*71
2017-11-16 13:27:15 1510856835.607313: $GPGSV,3,2,12,20,48,076,48,21,79,252,46,24,36,135,42,27,17,309,43*7E
2017-11-16 13:27:15 1510856835.607373: $GPGSV,3,3,12,29,06,187,26,05,02,090,23,32,04,226,22,138,38,213,44*40
2017-11-16 13:27:15 1510856835.722026: $GPZDA,182714.00,16,11,2017,00,00*6C
2017-11-16 13:27:15 1510856835.722206: $GPGGA,182714,3946.9615,N,08404.9845,W,2,12,0.80,303.96,M,-33.324,M,,*7D
2017-11-16 13:27:15 1510856835.722318: $GPRMC,182714,A,3946.9615,N,08404.9845,W,0.0000,0.000,161117,,*3C
2017-11-16 13:27:15 1510856835.722375: $GPGSA,A,3,10,13,15,18,20,21,24,27,29,5,32,138,1.6,0.8,1.3*36
2017-11-16 13:27:16 1510856836.271588: $GPZDA,182715.00,16,11,2017,00,00*6D
2017-11-16 13:27:16 1510856836.271736: $GPGGA,182715,3946.9615,N,08404.9845,W,2,12,0.80,303.96,M,-33.324,M,,*7C
2017-11-16 13:27:16 1510856836.271796: $GPRMC,182715,A,3946.9615,N,08404.9845,W,0.0000,0.000,161117,,*3D
2017-11-16 13:27:16 1510856836.271852: $GPGSA,A,3,10,13,15,18,20,21,24,27,29,5,32,138,1.6,0.8,1.3*36
2017-11-16 13:27:17 1510856837.272132: $GPZDA,182716.00,16,11,2017,00,00*6E
2017-11-16 13:27:17 1510856837.272301: $GPGGA,182716,3946.9615,N,08404.9845,W,2,12,0.80,303.96,M,-33.324,M,,*7F
2017-11-16 13:27:17 1510856837.272363: $GPRMC,182716,A,3946.9615,N,08404.9845,W,0.0000,0.000,161117,,*3E
2017-11-16 13:27:17 1510856837.272419: $GPGSA,A,3,10,13,15,18,20,21,24,27,29,5,32,138,1.6,0.8,1.3*36
2017-11-16 13:27:18 1510856838.607945: $GPGSV,3,1,12,10,26,286,41,13,26,045,45,15,57,049,51,18,57,304,47*72
2017-11-16 13:27:18 1510856838.608100: $GPGSV,3,2,12,20,48,076,48,21,79,252,46,24,36,135,42,27,17,309,43*7E
2017-11-16 13:27:18 1510856838.608160: $GPGSV,3,3,12,29,06,187,24,05,02,090,22,32,04,226,28,138,38,213,43*4E
2017-11-16 13:27:18 1510856838.721537: $GPZDA,182717.00,16,11,2017,00,00*6F
2017-11-16 13:27:18 1510856838.721714: $GPGGA,182717,3946.9615,N,08404.9845,W,2,12,0.80,303.96,M,-33.324,M,,*7E
2017-11-16 13:27:18 1510856838.721776: $GPRMC,182717,A,3946.9615,N,08404.9845,W,0.0000,0.000,161117,,*3F
2017-11-16 13:27:18 1510856838.721832: $GPGSA,A,3,10,13,15,18,20,21,24,27,29,5,32,138,1.6,0.8,1.3*36
2017-11-16 13:27:19 1510856839.266049: $GPZDA,182718.00,16,11,2017,00,00*60
2017-11-16 13:27:19 1510856839.266209: $GPGGA,182718,3946.9615,N,08404.9845,W,2,12,0.80,303.96,M,-33.324,M,,*71
2017-11-16 13:27:19 1510856839.266271: $GPRMC,182718,A,3946.9615,N,08404.9845,W,0.0000,0.000,161117,,*30
2017-11-16 13:27:19 1510856839.266343: $GPGSA,A,3,10,13,15,18,20,21,24,27,29,5,32,138,1.6,0.8,1.3*36
2017-11-16 13:27:20 1510856840.271678: $GPZDA,182719.00,16,11,2017,00,00*61
2017-11-16 13:27:20 1510856840.271881: $GPGGA,182719,3946.9615,N,08404.9845,W,2,12,0.80,303.96,M,-33.324,M,,*70
2017-11-16 13:27:20 1510856840.271944: $GPRMC,182719,A,3946.9615,N,08404.9845,W,0.0000,0.000,161117,,*31
2017-11-16 13:27:20 1510856840.272000: $GPGSA,A,3,10,13,15,18,20,21,24,27,29,5,32,138,1.6,0.8,1.3*36
2017-11-16 13:27:21 1510856841.606856: $GPGSV,3,1,12,10,26,286,41,13,26,045,45,15,57,049,51,18,57,304,47*72
2017-11-16 13:27:21 1510856841.607027: $GPGSV,3,2,12,20,48,076,48,21,79,252,46,24,36,135,42,27,17,309,43*7E
2017-11-16 13:27:21 1510856841.607087: $GPGSV,3,3,12,29,06,187,23,05,02,090,22,32,04,226,29,138,38,213,45*4E
2017-11-16 13:27:21 1510856841.720378: $GPZDA,182720.00,16,11,2017,00,00*6B
2017-11-16 13:27:21 1510856841.720562: $GPGGA,182720,3946.9615,N,08404.9845,W,2,12,0.80,303.96,M,-33.324,M,,*7A
2017-11-16 13:27:21 1510856841.720626: $GPRMC,182720,A,3946.9615,N,08404.9845,W,0.0000,0.000,161117,,*3B
2017-11-16 13:27:21 1510856841.720682: $GPGSA,A,3,10,13,15,18,20,21,24,27,29,5,32,138,1.6,0.8,1.3*36
2017-11-16 13:27:22 1510856842.271006: $GPZDA,182721.00,16,11,2017,00,00*6A
2017-11-16 13:27:22 1510856842.271183: $GPGGA,182721,3946.9615,N,08404.9845,W,2,12,0.80,303.96,M,-33.324,M,,*7B
2017-11-16 13:27:22 1510856842.271246: $GPRMC,182721,A,3946.9615,N,08404.9845,W,0.0000,0.000,161117,,*3A
2017-11-16 13:27:22 1510856842.271302: $GPGSA,A,3,10,13,15,18,20,21,24,27,29,5,32,138,1.6,0.8,1.3*36
2017-11-16 13:27:23 1510856843.270645: $GPZDA,182722.00,16,11,2017,00,00*69
2017-11-16 13:27:23 1510856843.270813: $GPGGA,182722,3946.9615,N,08404.9845,W,2,12,0.80,303.96,M,-33.324,M,,*78
2017-11-16 13:27:23 1510856843.270875: $GPRMC,182722,A,3946.9615,N,08404.9845,W,0.0000,0.000,161117,,*39
2017-11-16 13:27:23 1510856843.270932: $GPGSA,A,3,10,13,15,18,20,21,24,27,29,5,32,138,1.6,0.8,1.3*36
