2017-12-29 14:51:29 1514577089.352992: {"class":"VERSION","release":"3.16","rev":"3.16-4","proto_major":3,"proto_minor":11}
2017-12-29 14:51:29 1514577089.353480: {"class":"DEVICES","devices":[{"class":"DEVICE","path":"/dev/ttyUSB0","driver":"SiRF","subtype":"9\u0006GSD4e_4.1.2-P1_RPATCH.05-F-GPS-4R-1510281 11/03/2015 307","activated":"2017-12-29T19:51:29.295Z","flags":1,"native":1,"bps":4800,"parity":"N","stopbits":1,"cycle":1.00}]}
2017-12-29 14:51:29 1514577089.353597: {"class":"WATCH","enable":true,"json":false,"nmea":true,"raw":0,"scaled":false,"timing":false,"split24":false,"pps":false}
2017-12-29 14:51:29 1514577089.991820: $GPZDA,195130.42,29,12,2017,00,00*63
2017-12-29 14:51:29 1514577089.991983: $GPGGA,195130,3946.9548,N,08404.9797,W,1,12,1.00,307.76,M,-33.324,M,,*70
2017-12-29 14:51:29 1514577089.992050: $GPRMC,195130,A,3946.9548,N,08404.9797,W,0.2710,280.223,291217,,*33
2017-12-29 14:51:29 1514577089.992111: $GPGSA,A,3,1,26,10,3,12,14,18,22,25,31,32,138,1.7,1.0,1.3*01
2017-12-29 14:51:29 1514577089.992194: $GPGBS,195130,10.91,M,10.38,M,30.89,M*00
2017-12-29 14:51:31 1514577091.278071: $GPGSV,3,1,12,01,22,294,36,03,07,316,34,10,40,151,48,12,19,043,44*74
2017-12-29 14:51:31 1514577091.278258: $GPGSV,3,2,12,14,68,343,42,22,25,310,43,25,41,081,52,31,65,232,47*7D
2017-12-29 14:51:31 1514577091.278343: $GPGSV,3,3,12,32,65,048,50,18,11,145,32,26,09,180,06,138,38,213,00*4A
2017-12-29 14:51:31 1514577091.391748: $GPZDA,195131.00,29,12,2017,00,00*64
2017-12-29 14:51:31 1514577091.391905: $GPGGA,195131,3946.9548,N,08404.9797,W,1,10,0.80,307.76,M,-33.324,M,,*7A
2017-12-29 14:51:31 1514577091.391970: $GPRMC,195131,A,3946.9548,N,08404.9797,W,0.2172,85.763,291217,,*06
2017-12-29 14:51:31 1514577091.392030: $GPGSA,A,3,1,3,10,12,14,22,25,31,32,18,,,1.7,0.8,1.3*36
2017-12-29 14:51:32 1514577092.015731: $GPZDA,195132.00,29,12,2017,00,00*67
2017-12-29 14:51:32 1514577092.015904: $GPGGA,195132,3946.9556,N,08404.9803,W,1,10,0.80,307.56,M,-33.324,M,,*76
2017-12-29 14:51:32 1514577092.015972: $GPRMC,195132,A,3946.9556,N,08404.9803,W,0.1867,0.000,291217,,*39
2017-12-29 14:51:32 1514577092.016033: $GPGSA,A,3,1,3,10,12,14,22,25,31,32,18,,,1.7,0.8,1.3*36
2017-12-29 14:51:32 1514577092.016090: $GPGBS,195132,10.91,M,10.38,M,30.89,M*02
2017-12-29 14:51:32 1514577092.466792: $GPZDA,195133.00,29,12,2017,00,00*66
2017-12-29 14:51:32 1514577092.466945: $GPGGA,195133,3946.9560,N,08404.9802,W,1,10,0.80,306.79,M,-33.324,M,,*7F
2017-12-29 14:51:32 1514577092.467012: $GPRMC,195133,A,3946.9560,N,08404.9802,W,0.0000,0.000,291217,,*34
2017-12-29 14:51:32 1514577092.467072: $GPGSA,A,3,1,3,10,12,14,22,25,31,32,18,,,1.7,0.8,1.3*36
2017-12-29 14:51:32 1514577092.467160: $GPGBS,195133,10.91,M,10.38,M,30.89,M*03
2017-12-29 14:51:33 1514577093.766648: $GPGSV,3,1,12,01,22,294,07,03,07,316,07,10,40,151,10,12,19,043,09*72
2017-12-29 14:51:33 1514577093.766815: $GPGSV,3,2,12,14,68,343,08,22,25,310,08,25,41,081,10,31,65,232,09*70
2017-12-29 14:51:33 1514577093.766881: $GPGSV,3,3,12,32,65,048,10,18,11,145,06,26,09,180,06,138,38,213,10*48
2017-12-29 14:51:33 1514577093.880340: $GPZDA,195134.00,29,12,2017,00,00*61
2017-12-29 14:51:33 1514577093.880480: $GPGGA,195134,3946.9560,N,08404.9802,W,1,12,0.80,306.79,M,-33.324,M,,*7A
2017-12-29 14:51:33 1514577093.880545: $GPRMC,195134,A,3946.9560,N,08404.9802,W,0.0000,0.000,291217,,*33
2017-12-29 14:51:33 1514577093.880605: $GPGSA,A,3,1,3,10,12,14,22,25,31,32,18,26,138,1.7,0.8,1.3*08
2017-12-29 14:51:34 1514577094.334939: $GPZDA,195135.00,29,12,2017,00,00*60
2017-12-29 14:51:34 1514577094.335117: $GPGGA,195135,3946.9563,N,08404.9802,W,1,12,0.80,306.03,M,-33.324,M,,*75
2017-12-29 14:51:34 1514577094.335185: $GPRMC,195135,A,3946.9563,N,08404.9802,W,0.0000,0.000,291217,,*31
2017-12-29 14:51:34 1514577094.335263: $GPGSA,A,3,1,3,10,12,14,22,25,31,32,18,26,138,1.7,0.8,1.3*08
2017-12-29 14:51:35 1514577095.335755: $GPZDA,195136.00,29,12,2017,00,00*63
2017-12-29 14:51:35 1514577095.335911: $GPGGA,195136,3946.9567,N,08404.9802,W,1,12,0.80,306.67,M,-33.324,M,,*70
2017-12-29 14:51:35 1514577095.335977: $GPRMC,195136,A,3946.9567,N,08404.9802,W,0.0000,0.000,291217,,*36
2017-12-29 14:51:35 1514577095.336108: $GPGSA,A,3,1,3,10,12,14,22,25,31,32,18,26,138,1.7,0.8,1.3*08
2017-12-29 14:51:35 1514577095.336170: $GPGBS,195136,10.91,M,10.38,M,30.89,M*06
2017-12-29 14:51:36 1514577096.669830: $GPGSV,3,1,12,01,22,294,37,03,07,316,35,10,40,151,48,12,19,043,44*74
2017-12-29 14:51:36 1514577096.669979: $GPGSV,3,2,12,14,68,343,42,22,25,310,43,25,41,081,52,31,65,232,47*7D
2017-12-29 14:51:36 1514577096.670045: $GPGSV,3,3,12,32,65,048,50,18,11,145,32,26,09,180,30,138,38,213,44*4F
2017-12-29 14:51:36 1514577096.782359: $GPZDA,195137.00,29,12,2017,00,00*62
2017-12-29 14:51:36 1514577096.782516: $GPGGA,195137,3946.9567,N,08404.9802,W,1,12,0.80,306.67,M,-33.324,M,,*71
2017-12-29 14:51:36 1514577096.782582: $GPRMC,195137,A,3946.9567,N,08404.9802,W,0.0000,0.000,291217,,*37
2017-12-29 14:51:36 1514577096.782643: $GPGSA,A,3,1,3,10,12,14,22,25,31,32,18,26,138,1.7,0.8,1.3*08
2017-12-29 14:51:37 1514577097.334467: $GPZDA,195138.00,29,12,2017,00,00*6D
2017-12-29 14:51:37 1514577097.334629: $GPGGA,195138,3946.9572,N,08404.9802,W,1,12,0.80,307.31,M,-33.324,M,,*78
2017-12-29 14:51:37 1514577097.334695: $GPRMC,195138,A,3946.9572,N,08404.9802,W,0.0000,0.000,291217,,*3C
2017-12-29 14:51:37 1514577097.334756: $GPGSA,A,3,1,3,10,12,14,22,25,31,32,18,26,138,1.7,0.8,1.3*08
2017-12-29 14:51:38 1514577098.334784: $GPZDA,195139.00,29,12,2017,00,00*6C
2017-12-29 14:51:38 1514577098.334945: $GPGGA,195139,3946.9575,N,08404.9801,W,1,12,0.80,306.54,M,-33.324,M,,*7F
2017-12-29 14:51:38 1514577098.335011: $GPRMC,195139,A,3946.9575,N,08404.9801,W,0.0000,0.000,291217,,*39
2017-12-29 14:51:38 1514577098.335093: $GPGSA,A,3,1,3,10,12,14,22,25,31,32,18,26,138,1.7,0.8,1.3*08
