2018-01-11 20:16:24 1515719784.139466: {"class":"VERSION","release":"3.16","rev":"3.16-4","proto_major":3,"proto_minor":11}
2018-01-11 20:16:24 1515719784.139826: {"class":"DEVICES","devices":[{"class":"DEVICE","path":"/dev/ttyUSB0","driver":"SiRF","subtype":"9\u0006GSD4e_4.1.2-P1_RPATCH.05-F-GPS-4R-1510281 11/03/2015 307","activated":"2018-01-12T01:16:23.646Z","flags":1,"native":1,"bps":4800,"parity":"N","stopbits":1,"cycle":1.00}]}
2018-01-11 20:16:24 1515719784.139940: {"class":"WATCH","enable":true,"json":false,"nmea":true,"raw":0,"scaled":false,"timing":false,"split24":false,"pps":false}
2018-01-11 20:16:24 1515719784.666525: $GPGSV,3,1,11,07,58,315,42,08,75,121,46,09,46,226,42,11,22,166,46*72
2018-01-11 20:16:24 1515719784.666694: $GPGSV,3,2,11,16,21,061,41,23,26,189,49,27,45,051,50,30,31,307,32*77
2018-01-11 20:16:24 1515719784.666759: $GPGSV,3,3,11,28,16,259,35,01,01,162,00,138,38,213,45*79
2018-01-11 20:16:24 1515719784.779960: $GPZDA,011625.00,12,01,2018,00,00*6E
2018-01-11 20:16:24 1515719784.780079: $GPGGA,011625,3946.9596,N,08404.9854,W,2,10,0.80,303.49,M,-33.324,M,,*7D
2018-01-11 20:16:24 1515719784.780143: $GPRMC,011625,A,3946.9596,N,08404.9854,W,0.0000,0.000,120118,,*36
2018-01-11 20:16:24 1515719784.780202: $GPGSA,A,3,7,8,9,11,16,23,27,30,28,138,,,4.0,0.8,3.5*3E
2018-01-11 20:16:25 1515719785.332064: $GPZDA,011626.00,12,01,2018,00,00*6D
2018-01-11 20:16:25 1515719785.332216: $GPGGA,011626,3946.9596,N,08404.9854,W,2,10,0.80,303.49,M,-33.324,M,,*7E
2018-01-11 20:16:25 1515719785.332281: $GPRMC,011626,A,3946.9596,N,08404.9854,W,0.0000,0.000,120118,,*35
2018-01-11 20:16:25 1515719785.332341: $GPGSA,A,3,7,8,9,11,16,23,27,30,28,138,,,4.0,0.8,3.5*3E
2018-01-11 20:16:26 1515719786.329244: $GPZDA,011627.00,12,01,2018,00,00*6C
2018-01-11 20:16:26 1515719786.329399: $GPGGA,011627,3946.9596,N,08404.9854,W,2,10,0.80,303.49,M,-33.324,M,,*7F
2018-01-11 20:16:26 1515719786.329464: $GPRMC,011627,A,3946.9596,N,08404.9854,W,0.0000,0.000,120118,,*34
2018-01-11 20:16:26 1515719786.329524: $GPGSA,A,3,7,8,9,11,16,23,27,30,28,138,,,4.0,0.8,3.5*3E
2018-01-11 20:16:27 1515719787.669922: $GPGSV,3,1,11,07,58,315,42,08,75,121,46,09,46,226,42,11,22,166,46*72
2018-01-11 20:16:27 1515719787.670081: $GPGSV,3,2,11,16,21,061,41,23,26,189,49,27,45,051,50,30,31,307,33*76
2018-01-11 20:16:27 1515719787.670145: $GPGSV,3,3,11,28,16,259,36,01,01,162,00,138,38,213,45*7A
2018-01-11 20:16:27 1515719787.783566: $GPZDA,011628.00,12,01,2018,00,00*63
2018-01-11 20:16:27 1515719787.783692: $GPGGA,011628,3946.9596,N,08404.9854,W,2,10,0.80,303.49,M,-33.324,M,,*70
2018-01-11 20:16:27 1515719787.783755: $GPRMC,011628,A,3946.9596,N,08404.9854,W,0.0000,0.000,120118,,*3B
2018-01-11 20:16:27 1515719787.783815: $GPGSA,A,3,7,8,9,11,16,23,27,30,28,138,,,4.0,0.8,3.5*3E
2018-01-11 20:16:28 1515719788.334243: $GPZDA,011629.00,12,01,2018,00,00*62
2018-01-11 20:16:28 1515719788.334412: $GPGGA,011629,3946.9596,N,08404.9854,W,2,10,0.80,303.49,M,-33.324,M,,*71
2018-01-11 20:16:28 1515719788.334478: $GPRMC,011629,A,3946.9596,N,08404.9854,W,0.0000,0.000,120118,,*3A
2018-01-11 20:16:28 1515719788.334538: $GPGSA,A,3,7,8,9,11,16,23,27,30,28,138,,,4.0,0.8,3.5*3E
2018-01-11 20:16:29 1515719789.334890: $GPZDA,011630.00,12,01,2018,00,00*6A
2018-01-11 20:16:29 1515719789.335068: $GPGGA,011630,3946.9596,N,08404.9854,W,2,10,0.80,303.49,M,-33.324,M,,*79
2018-01-11 20:16:29 1515719789.335153: $GPRMC,011630,A,3946.9596,N,08404.9854,W,0.0000,0.000,120118,,*32
2018-01-11 20:16:29 1515719789.335216: $GPGSA,A,3,7,8,9,11,16,23,27,30,28,138,,,4.0,0.8,3.5*3E
2018-01-11 20:16:30 1515719790.665270: $GPGSV,3,1,11,07,58,315,42,08,75,121,46,09,46,226,42,11,22,166,46*72
2018-01-11 20:16:30 1515719790.665432: $GPGSV,3,2,11,16,21,061,41,23,26,189,49,27,45,051,50,30,31,307,33*76
2018-01-11 20:16:30 1515719790.665499: $GPGSV,3,3,11,28,16,259,36,01,01,162,00,138,38,213,44*7B
2018-01-11 20:16:30 1515719790.778709: $GPZDA,011631.00,12,01,2018,00,00*6B
2018-01-11 20:16:30 1515719790.778846: $GPGGA,011631,3946.9596,N,08404.9854,W,2,10,0.80,303.49,M,-33.324,M,,*78
2018-01-11 20:16:30 1515719790.778912: $GPRMC,011631,A,3946.9596,N,08404.9854,W,0.0000,0.000,120118,,*33
2018-01-11 20:16:30 1515719790.779081: $GPGSA,A,3,7,8,9,11,16,23,27,30,28,138,,,4.0,0.8,3.5*3E
2018-01-11 20:16:31 1515719791.334887: $GPZDA,011632.00,12,01,2018,00,00*68
2018-01-11 20:16:31 1515719791.335050: $GPGGA,011632,3946.9596,N,08404.9854,W,2,10,0.80,303.49,M,-33.324,M,,*7B
2018-01-11 20:16:31 1515719791.335116: $GPRMC,011632,A,3946.9596,N,08404.9854,W,0.0000,0.000,120118,,*30
2018-01-11 20:16:31 1515719791.335176: $GPGSA,A,3,7,8,9,11,16,23,27,30,28,138,,,4.0,0.8,3.5*3E
2018-01-11 20:16:32 1515719792.334598: $GPZDA,011633.00,12,01,2018,00,00*69
2018-01-11 20:16:32 1515719792.334767: $GPGGA,011633,3946.9596,N,08404.9854,W,2,10,0.80,303.49,M,-33.324,M,,*7A
2018-01-11 20:16:32 1515719792.334834: $GPRMC,011633,A,3946.9596,N,08404.9854,W,0.0000,0.000,120118,,*31
2018-01-11 20:16:32 1515719792.334893: $GPGSA,A,3,7,8,9,11,16,23,27,30,28,138,,,4.0,0.8,3.5*3E
2018-01-11 20:16:33 1515719793.679894: $GPGSV,3,1,11,07,58,315,43,08,75,121,46,09,46,226,42,11,22,166,46*73
2018-01-11 20:16:33 1515719793.680057: $GPGSV,3,2,11,16,21,061,42,23,26,189,49,27,45,051,50,30,31,307,33*75
2018-01-11 20:16:33 1515719793.680124: $GPGSV,3,3,11,28,16,259,37,01,01,162,00,138,38,213,45*7B
2018-01-11 20:16:33 1515719793.793286: $GPZDA,011634.00,12,01,2018,00,00*6E
2018-01-11 20:16:33 1515719793.793406: $GPGGA,011634,3946.9596,N,08404.9854,W,2,10,0.80,303.49,M,-33.324,M,,*7D
2018-01-11 20:16:33 1515719793.793469: $GPRMC,011634,A,3946.9596,N,08404.9854,W,0.0000,0.000,120118,,*36
2018-01-11 20:16:33 1515719793.793529: $GPGSA,A,3,7,8,9,11,16,23,27,30,28,138,,,4.0,0.8,3.5*3E
2018-01-11 20:16:34 1515719794.418900: $GPZDA,011635.00,12,01,2018,00,00*6F
2018-01-11 20:16:34 1515719794.419123: $GPGGA,011635,3946.9596,N,08404.9854,W,2,10,0.80,303.49,M,-33.324,M,,*7C
2018-01-11 20:16:34 1515719794.419218: $GPRMC,011635,A,3946.9596,N,08404.9854,W,0.0000,0.000,120118,,*37
2018-01-11 20:16:34 1515719794.419281: $GPGSA,A,3,7,8,9,11,16,23,27,30,28,138,,,4.0,0.8,3.5*3E
2018-01-11 20:16:35 1515719795.334729: $GPZDA,011636.00,12,01,2018,00,00*6C
2018-01-11 20:16:35 1515719795.334898: $GPGGA,011636,3946.9596,N,08404.9854,W,2,10,0.80,303.49,M,-33.324,M,,*7F
2018-01-11 20:16:35 1515719795.334964: $GPRMC,011636,A,3946.9596,N,08404.9854,W,0.0000,0.000,120118,,*34
2018-01-11 20:16:35 1515719795.335024: $GPGSA,A,3,7,8,9,11,16,23,27,30,28,138,,,4.0,0.8,3.5*3E
