2017-12-01 14:36:47 1512157007.696694: {"class":"VERSION","release":"3.16","rev":"3.16-4","proto_major":3,"proto_minor":11}
2017-12-01 14:36:47 1512157007.697102: {"class":"DEVICES","devices":[{"class":"DEVICE","path":"/dev/ttyUSB0","driver":"SiRF","subtype":"9\u0006GSD4e_4.1.2-P1_RPATCH.05-F-GPS-4R-1510281 11/03/2015 307","activated":"2017-12-01T19:36:47.481Z","flags":1,"native":1,"bps":4800,"parity":"N","stopbits":1,"cycle":1.00}]}
2017-12-01 14:36:47 1512157007.697233: {"class":"WATCH","enable":true,"json":false,"nmea":true,"raw":0,"scaled":false,"timing":false,"split24":false,"pps":false}
2017-12-01 14:36:48 1512157008.711693: $GPGSV,3,1,12,10,74,340,47,12,13,102,34,14,33,258,41,18,66,105,46*7B
2017-12-01 14:36:48 1512157008.711874: $GPGSV,3,2,12,21,23,178,44,24,40,054,48,32,50,273,46,25,07,138,23*73
2017-12-01 14:36:48 1512157008.711942: $GPGSV,3,3,12,20,04,121,24,15,07,069,24,31,04,204,24,138,38,213,47*46
2017-12-01 14:36:48 1512157008.825002: $GPZDA,193649.00,01,12,2017,00,00*60
2017-12-01 14:36:48 1512157008.825177: $GPGGA,193649,3946.9595,N,08404.9875,W,2,12,1.20,291.18,M,-33.324,M,,*7B
2017-12-01 14:36:48 1512157008.825244: $GPRMC,193649,A,3946.9595,N,08404.9875,W,0.0000,0.000,011217,,*38
2017-12-01 14:36:48 1512157008.825307: $GPGSA,A,3,10,12,14,18,21,24,32,25,20,15,31,138,2.0,1.2,1.5*04
2017-12-01 14:36:49 1512157009.450675: $GPZDA,193650.00,01,12,2017,00,00*68
2017-12-01 14:36:49 1512157009.450861: $GPGGA,193650,3946.9595,N,08404.9875,W,2,12,1.40,291.18,M,-33.324,M,,*75
2017-12-01 14:36:49 1512157009.450931: $GPRMC,193650,A,3946.9595,N,08404.9875,W,0.0000,0.000,011217,,*30
2017-12-01 14:36:49 1512157009.450993: $GPGSA,A,3,10,12,14,18,21,24,32,25,20,15,31,138,2.0,1.4,1.5*02
2017-12-01 14:36:50 1512157010.332557: $GPZDA,193651.00,01,12,2017,00,00*69
2017-12-01 14:36:50 1512157010.332729: $GPGGA,193651,3946.9595,N,08404.9875,W,2,12,1.20,291.18,M,-33.324,M,,*72
2017-12-01 14:36:50 1512157010.332797: $GPRMC,193651,A,3946.9595,N,08404.9875,W,0.0000,0.000,011217,,*31
2017-12-01 14:36:50 1512157010.332858: $GPGSA,A,3,10,12,14,18,21,24,32,25,20,15,31,138,2.0,1.2,1.5*04
2017-12-01 14:36:51 1512157011.673239: $GPGSV,3,1,12,10,74,340,47,12,13,102,34,14,33,258,41,18,66,105,46*7B
2017-12-01 14:36:51 1512157011.673425: $GPGSV,3,2,12,21,23,178,44,24,40,054,47,32,50,273,45,25,07,138,22*7E
2017-12-01 14:36:51 1512157011.673494: $GPGSV,3,3,12,20,04,121,24,15,07,069,23,31,04,204,24,138,38,213,47*41
2017-12-01 14:36:51 1512157011.786585: $GPZDA,193652.00,01,12,2017,00,00*6A
2017-12-01 14:36:51 1512157011.786728: $GPGGA,193652,3946.9595,N,08404.9875,W,2,12,1.20,291.18,M,-33.324,M,,*71
2017-12-01 14:36:51 1512157011.786794: $GPRMC,193652,A,3946.9595,N,08404.9875,W,0.0000,0.000,011217,,*32
2017-12-01 14:36:51 1512157011.786855: $GPGSA,A,3,10,12,14,18,21,24,32,25,20,15,31,138,2.0,1.2,1.5*04
2017-12-01 14:36:52 1512157012.338761: $GPZDA,193653.00,01,12,2017,00,00*6B
2017-12-01 14:36:52 1512157012.348324: $GPGGA,193653,3946.9595,N,08404.9875,W,2,12,1.20,291.18,M,-33.324,M,,*70
2017-12-01 14:36:52 1512157012.348463: $GPRMC,193653,A,3946.9595,N,08404.9875,W,0.0000,0.000,011217,,*33
2017-12-01 14:36:52 1512157012.348527: $GPGSA,A,3,10,12,14,18,21,24,32,25,20,15,31,138,2.0,1.2,1.5*04
2017-12-01 14:36:53 1512157013.375871: $GPZDA,193654.00,01,12,2017,00,00*6C
2017-12-01 14:36:53 1512157013.376043: $GPGGA,193654,3946.9595,N,08404.9875,W,2,12,1.20,291.18,M,-33.324,M,,*77
2017-12-01 14:36:53 1512157013.376111: $GPRMC,193654,A,3946.9595,N,08404.9875,W,0.0000,0.000,011217,,*34
2017-12-01 14:36:53 1512157013.376173: $GPGSA,A,3,10,12,14,18,21,24,32,25,20,15,31,138,2.0,1.2,1.5*04
2017-12-01 14:36:54 1512157014.712468: $GPGSV,3,1,12,10,74,340,47,12,13,102,33,14,33,258,41,18,66,105,46*7C
2017-12-01 14:36:54 1512157014.712668: $GPGSV,3,2,12,21,23,178,44,24,40,054,47,32,50,273,45,25,07,138,22*7E
2017-12-01 14:36:54 1512157014.712737: $GPGSV,3,3,12,20,04,121,24,15,07,069,14,31,04,204,13,138,38,213,47*41
2017-12-01 14:36:54 1512157014.825754: $GPZDA,193655.00,01,12,2017,00,00*6D
2017-12-01 14:36:54 1512157014.825927: $GPGGA,193655,3946.9595,N,08404.9875,W,2,11,1.20,291.18,M,-33.324,M,,*75
2017-12-01 14:36:54 1512157014.826043: $GPRMC,193655,A,3946.9595,N,08404.9875,W,0.0000,0.000,011217,,*35
2017-12-01 14:36:54 1512157014.826106: $GPGSA,A,3,10,12,14,18,21,24,32,25,20,31,138,,2.0,1.2,1.5*00
2017-12-01 14:36:55 1512157015.340678: $GPZDA,193656.00,01,12,2017,00,00*6E
2017-12-01 14:36:55 1512157015.340847: $GPGGA,193656,3946.9599,N,08404.9875,W,2,11,1.20,291.82,M,-33.324,M,,*79
2017-12-01 14:36:55 1512157015.340915: $GPRMC,193656,A,3946.9599,N,08404.9875,W,0.0000,0.000,011217,,*3A
2017-12-01 14:36:55 1512157015.340979: $GPGSA,A,3,10,12,14,18,21,24,32,25,20,31,138,,2.0,1.2,1.5*00
2017-12-01 14:36:56 1512157016.366526: $GPZDA,193657.00,01,12,2017,00,00*6F
2017-12-01 14:36:56 1512157016.366678: $GPGGA,193657,3946.9599,N,08404.9875,W,2,11,1.00,291.82,M,-33.324,M,,*7A
2017-12-01 14:36:56 1512157016.366744: $GPRMC,193657,A,3946.9599,N,08404.9875,W,0.0000,0.000,011217,,*3B
2017-12-01 14:36:56 1512157016.366806: $GPGSA,A,3,10,12,14,18,21,24,32,25,20,31,138,,2.0,1.0,1.5*02
2017-12-01 14:36:57 1512157017.674467: $GPGSV,3,1,12,10,74,340,46,12,13,102,33,14,33,258,40,18,66,105,46*7C
2017-12-01 14:36:57 1512157017.674647: $GPGSV,3,2,12,21,23,178,44,24,40,054,48,32,50,273,45,25,07,138,22*71
2017-12-01 14:36:57 1512157017.674716: $GPGSV,3,3,12,20,04,121,24,15,07,069,22,31,04,204,19,138,38,213,47*4E
2017-12-01 14:36:57 1512157017.788120: $GPZDA,193658.00,01,12,2017,00,00*60
2017-12-01 14:36:57 1512157017.788275: $GPGGA,193658,3946.9599,N,08404.9875,W,2,12,1.00,291.82,M,-33.324,M,,*76
2017-12-01 14:36:57 1512157017.788347: $GPRMC,193658,A,3946.9599,N,08404.9875,W,0.0000,0.000,011217,,*34
2017-12-01 14:36:57 1512157017.788411: $GPGSA,A,3,10,12,14,18,21,24,32,25,20,15,31,138,2.0,1.0,1.5*06
2017-12-01 14:36:58 1512157018.339005: $GPZDA,193659.00,01,12,2017,00,00*61
2017-12-01 14:36:58 1512157018.339174: $GPGGA,193659,3946.9599,N,08404.9875,W,2,12,1.20,291.82,M,-33.324,M,,*75
2017-12-01 14:36:58 1512157018.339239: $GPRMC,193659,A,3946.9599,N,08404.9875,W,0.0000,0.000,011217,,*35
2017-12-01 14:36:58 1512157018.339302: $GPGSA,A,3,10,12,14,18,21,24,32,25,20,15,31,138,2.0,1.2,1.5*04
2017-12-01 14:36:59 1512157019.374400: $GPZDA,193700.00,01,12,2017,00,00*6C
2017-12-01 14:36:59 1512157019.374582: $GPGGA,193700,3946.9599,N,08404.9875,W,2,12,1.20,291.82,M,-33.324,M,,*78
2017-12-01 14:36:59 1512157019.374651: $GPRMC,193700,A,3946.9599,N,08404.9875,W,0.0000,0.000,011217,,*38
2017-12-01 14:36:59 1512157019.374712: $GPGSA,A,3,10,12,14,18,21,24,32,25,20,15,31,138,2.0,1.2,1.5*04
2017-12-01 14:37:00 1512157020.668663: $GPGSV,3,1,12,10,74,340,47,12,13,102,33,14,33,258,40,18,66,105,46*7D
2017-12-01 14:37:00 1512157020.668849: $GPGSV,3,2,12,21,23,178,44,24,40,054,47,32,50,273,45,25,07,138,22*7E
2017-12-01 14:37:00 1512157020.668917: $GPGSV,3,3,12,20,04,121,24,15,07,069,13,31,04,204,20,138,38,213,46*47
2017-12-01 14:37:00 1512157020.782433: $GPZDA,193701.00,01,12,2017,00,00*6D
2017-12-01 14:37:00 1512157020.782627: $GPGGA,193701,3946.9599,N,08404.9875,W,2,11,1.20,291.82,M,-33.324,M,,*7A
2017-12-01 14:37:00 1512157020.782697: $GPRMC,193701,A,3946.9599,N,08404.9875,W,0.0000,0.000,011217,,*39
2017-12-01 14:37:00 1512157020.782758: $GPGSA,A,3,10,12,14,18,21,24,32,25,20,31,138,,2.0,1.2,1.5*00
2017-12-01 14:37:01 1512157021.371971: $GPZDA,193702.00,01,12,2017,00,00*6E
2017-12-01 14:37:01 1512157021.372142: $GPGGA,193702,3946.9599,N,08404.9875,W,2,11,1.20,291.82,M,-33.324,M,,*79
2017-12-01 14:37:01 1512157021.372212: $GPRMC,193702,A,3946.9599,N,08404.9875,W,0.0000,0.000,011217,,*3A
2017-12-01 14:37:01 1512157021.372274: $GPGSA,A,3,10,12,14,18,21,24,32,25,20,31,138,,2.0,1.2,1.5*00
2017-12-01 14:37:02 1512157022.375546: $GPZDA,193703.00,01,12,2017,00,00*6F
2017-12-01 14:37:02 1512157022.375741: $GPGGA,193703,3946.9599,N,08404.9875,W,2,11,1.20,291.82,M,-33.324,M,,*78
2017-12-01 14:37:02 1512157022.375810: $GPRMC,193703,A,3946.9599,N,08404.9875,W,0.0000,0.000,011217,,*3B
2017-12-01 14:37:02 1512157022.375875: $GPGSA,A,3,10,12,14,18,21,24,32,25,20,31,138,,2.0,1.2,1.5*00
2017-12-01 14:37:03 1512157023.674629: $GPGSV,3,1,12,10,74,340,47,12,13,102,32,14,33,258,40,18,66,105,46*7C
2017-12-01 14:37:03 1512157023.674849: $GPGSV,3,2,12,21,23,178,44,24,40,054,47,32,50,273,45,25,07,138,22*7E
2017-12-01 14:37:03 1512157023.674922: $GPGSV,3,3,12,20,04,121,24,08,04,289,32,31,04,204,24,138,38,213,47*42
2017-12-01 14:37:03 1512157023.787849: $GPZDA,193704.00,01,12,2017,00,00*68
2017-12-01 14:37:03 1512157023.788026: $GPGGA,193704,3946.9599,N,08404.9875,W,2,12,1.20,291.82,M,-33.324,M,,*7C
2017-12-01 14:37:03 1512157023.788093: $GPRMC,193704,A,3946.9599,N,08404.9875,W,0.0000,0.000,011217,,*3C
2017-12-01 14:37:03 1512157023.788156: $GPGSA,A,3,10,12,14,18,21,24,32,25,20,8,31,138,2.0,1.2,1.5*38
2017-12-01 14:37:04 1512157024.413493: $GPZDA,193705.00,01,12,2017,00,00*69
2017-12-01 14:37:04 1512157024.413666: $GPGGA,193705,3946.9599,N,08404.9875,W,2,12,1.20,291.82,M,-33.324,M,,*7D
2017-12-01 14:37:04 1512157024.413733: $GPRMC,193705,A,3946.9599,N,08404.9875,W,0.0000,0.000,011217,,*3D
2017-12-01 14:37:04 1512157024.413796: $GPGSA,A,3,10,12,14,18,21,24,32,25,20,8,31,138,2.0,1.2,1.5*38
2017-12-01 14:37:05 1512157025.376861: $GPZDA,193706.00,01,12,2017,00,00*6A
2017-12-01 14:37:05 1512157025.377038: $GPGGA,193706,3946.9599,N,08404.9875,W,2,12,1.20,291.82,M,-33.324,M,,*7E
2017-12-01 14:37:05 1512157025.377106: $GPRMC,193706,A,3946.9599,N,08404.9875,W,0.0000,0.000,011217,,*3E
2017-12-01 14:37:05 1512157025.377169: $GPGSA,A,3,10,12,14,18,21,24,32,25,20,8,31,138,2.0,1.2,1.5*38
2017-12-01 14:37:06 1512157026.714820: $GPGSV,3,1,12,10,74,340,47,12,13,102,32,14,33,258,40,18,66,105,46*7C
2017-12-01 14:37:06 1512157026.715001: $GPGSV,3,2,12,21,23,178,44,24,40,054,48,32,50,273,44,25,07,138,23*71
2017-12-01 14:37:06 1512157026.715084: $GPGSV,3,3,12,20,04,121,23,15,07,069,13,31,04,204,25,138,38,213,47*44
2017-12-01 14:37:06 1512157026.828528: $GPZDA,193707.00,01,12,2017,00,00*6B
2017-12-01 14:37:06 1512157026.828704: $GPGGA,193707,3946.9599,N,08404.9875,W,2,12,1.00,291.82,M,-33.324,M,,*7D
2017-12-01 14:37:06 1512157026.828772: $GPRMC,193707,A,3946.9599,N,08404.9875,W,0.0000,0.000,011217,,*3F
2017-12-01 14:37:06 1512157026.828832: $GPGSA,A,3,10,12,14,18,21,24,32,25,20,15,31,138,2.0,1.0,1.5*06
2017-12-01 14:37:07 1512157027.332947: $GPZDA,193708.00,01,12,2017,00,00*64
2017-12-01 14:37:07 1512157027.333126: $GPGGA,193708,3946.9599,N,08404.9875,W,2,12,1.00,291.82,M,-33.324,M,,*72
2017-12-01 14:37:07 1512157027.333196: $GPRMC,193708,A,3946.9599,N,08404.9875,W,0.0000,0.000,011217,,*30
2017-12-01 14:37:07 1512157027.333260: $GPGSA,A,3,10,12,14,18,21,24,32,25,20,15,31,138,2.0,1.0,1.5*06
2017-12-01 14:37:08 1512157028.339071: $GPZDA,193709.00,01,12,2017,00,00*65
2017-12-01 14:37:08 1512157028.339249: $GPGGA,193709,3946.9599,N,08404.9868,W,2,12,1.00,291.89,M,-33.324,M,,*74
2017-12-01 14:37:08 1512157028.339320: $GPRMC,193709,A,3946.9599,N,08404.9868,W,0.0000,0.000,011217,,*3D
2017-12-01 14:37:08 1512157028.339383: $GPGSA,A,3,10,12,14,18,21,24,32,25,20,15,31,138,2.0,1.0,1.5*06
2017-12-01 14:37:09 1512157029.675347: $GPGSV,3,1,12,10,74,340,47,12,13,102,32,14,33,258,41,18,66,105,46*7D
2017-12-01 14:37:09 1512157029.675544: $GPGSV,3,2,12,21,23,178,44,24,40,054,48,32,50,273,44,25,07,138,24*76
2017-12-01 14:37:09 1512157029.675613: $GPGSV,3,3,12,20,04,121,23,15,07,069,06,31,04,204,25,138,38,213,48*4F
2017-12-01 14:37:09 1512157029.787610: $GPZDA,193710.00,01,12,2017,00,00*6D
2017-12-01 14:37:09 1512157029.787785: $GPGGA,193710,3946.9599,N,08404.9868,W,2,11,1.20,291.89,M,-33.324,M,,*7D
2017-12-01 14:37:09 1512157029.787852: $GPRMC,193710,A,3946.9599,N,08404.9868,W,0.0000,0.000,011217,,*35
2017-12-01 14:37:09 1512157029.787914: $GPGSA,A,3,10,12,14,18,21,24,32,25,20,31,138,,2.0,1.2,1.5*00
2017-12-01 14:37:10 1512157030.338229: $GPZDA,193711.00,01,12,2017,00,00*6C
2017-12-01 14:37:10 1512157030.338417: $GPGGA,193711,3946.9599,N,08404.9868,W,2,11,1.00,291.89,M,-33.324,M,,*7E
2017-12-01 14:37:10 1512157030.338486: $GPRMC,193711,A,3946.9599,N,08404.9868,W,0.0000,0.000,011217,,*34
2017-12-01 14:37:10 1512157030.338549: $GPGSA,A,3,10,12,14,18,21,24,32,25,20,31,138,,2.0,1.0,1.5*02
2017-12-01 14:37:11 1512157031.337871: $GPZDA,193712.00,01,12,2017,00,00*6F
2017-12-01 14:37:11 1512157031.338058: $GPGGA,193712,3946.9599,N,08404.9868,W,2,11,1.00,291.89,M,-33.324,M,,*7D
2017-12-01 14:37:11 1512157031.338129: $GPRMC,193712,A,3946.9599,N,08404.9868,W,0.0000,0.000,011217,,*37
2017-12-01 14:37:11 1512157031.338190: $GPGSA,A,3,10,12,14,18,21,24,32,25,20,31,138,,2.0,1.0,1.5*02
2017-12-01 14:37:12 1512157032.674880: $GPGSV,3,1,12,10,74,340,46,12,13,102,30,14,33,258,42,18,66,105,46*7D
2017-12-01 14:37:12 1512157032.675061: $GPGSV,3,2,12,21,23,178,45,24,40,054,48,32,50,273,44,25,07,138,25*76
2017-12-01 14:37:12 1512157032.675128: $GPGSV,3,3,12,20,04,121,23,15,07,069,18,31,04,204,24,138,38,213,47*4E
