2017-12-29 11:29:54 1514564994.395889: {"class":"VERSION","release":"3.16","rev":"3.16-4","proto_major":3,"proto_minor":11}
2017-12-29 11:29:54 1514564994.396265: {"class":"DEVICES","devices":[{"class":"DEVICE","path":"/dev/ttyUSB0","driver":"SiRF","subtype":"9\u0006GSD4e_4.1.2-P1_RPATCH.05-F-GPS-4R-1510281 11/03/2015 307","activated":"2017-12-29T16:29:54.350Z","flags":1,"native":1,"bps":4800,"parity":"N","stopbits":1,"cycle":1.00}]}
2017-12-29 11:29:54 1514564994.396392: {"class":"WATCH","enable":true,"json":false,"nmea":true,"raw":0,"scaled":false,"timing":false,"split24":false,"pps":false}
2017-12-29 11:29:54 1514564994.462483: $GPZDA,162955.00,29,12,2017,00,00*66
2017-12-29 11:29:54 1514564994.462621: $GPGGA,162955,3946.9638,N,08404.9827,W,2,10,1.00,362.85,M,-33.324,M,,*7D
2017-12-29 11:29:54 1514564994.462686: $GPRMC,162955,A,3946.9638,N,08404.9827,W,0.0000,0.000,291217,,*3D
2017-12-29 11:29:54 1514564994.462746: $GPGSA,A,3,8,10,15,18,20,21,24,27,32,138,,,1.7,1.0,1.3*3A
2017-12-29 11:29:55 1514564995.392913: $GPZDA,162956.00,29,12,2017,00,00*65
2017-12-29 11:29:55 1514564995.393086: $GPGGA,162956,3946.9638,N,08404.9827,W,2,10,1.00,362.85,M,-33.324,M,,*7E
2017-12-29 11:29:55 1514564995.393154: $GPRMC,162956,A,3946.9638,N,08404.9827,W,0.0000,0.000,291217,,*3E
2017-12-29 11:29:55 1514564995.393214: $GPGSA,A,3,8,10,15,18,20,21,24,27,32,138,,,1.7,1.0,1.3*3A
2017-12-29 11:29:56 1514564996.727896: $GPGSV,3,1,12,08,07,318,39,10,46,306,47,15,32,054,49,18,75,354,45*73
2017-12-29 11:29:56 1514564996.728127: $GPGSV,3,2,12,20,30,100,50,21,57,186,46,24,52,100,50,27,18,283,43*75
2017-12-29 11:29:56 1514564996.728194: $GPGSV,3,3,12,32,26,243,40,14,08,235,00,13,03,051,00,138,38,213,45*42
2017-12-29 11:29:56 1514564996.840996: $GPZDA,162957.00,29,12,2017,00,00*64
2017-12-29 11:29:56 1514564996.841211: $GPGGA,162957,3946.9638,N,08404.9827,W,2,10,1.00,362.85,M,-33.324,M,,*7F
2017-12-29 11:29:56 1514564996.841278: $GPRMC,162957,A,3946.9638,N,08404.9827,W,0.0000,0.000,291217,,*3F
2017-12-29 11:29:56 1514564996.841338: $GPGSA,A,3,8,10,15,18,20,21,24,27,32,138,,,1.7,1.0,1.3*3A
2017-12-29 11:29:57 1514564997.393041: $GPZDA,162958.00,29,12,2017,00,00*6B
2017-12-29 11:29:57 1514564997.393218: $GPGGA,162958,3946.9638,N,08404.9827,W,2,10,1.00,362.85,M,-33.324,M,,*70
2017-12-29 11:29:57 1514564997.393283: $GPRMC,162958,A,3946.9638,N,08404.9827,W,0.0000,0.000,291217,,*30
2017-12-29 11:29:57 1514564997.393343: $GPGSA,A,3,8,10,15,18,20,21,24,27,32,138,,,1.7,1.0,1.3*3A
2017-12-29 11:29:58 1514564998.391463: $GPZDA,162959.00,29,12,2017,00,00*6A
2017-12-29 11:29:58 1514564998.391646: $GPGGA,162959,3946.9634,N,08404.9827,W,2,10,1.20,362.21,M,-33.324,M,,*71
2017-12-29 11:29:58 1514564998.391733: $GPRMC,162959,A,3946.9634,N,08404.9827,W,0.0000,0.000,291217,,*3D
2017-12-29 11:29:58 1514564998.391796: $GPGSA,A,3,8,10,15,18,20,21,24,27,32,138,,,1.7,1.2,1.3*38
2017-12-29 11:29:59 1514564999.726816: $GPGSV,3,1,12,08,07,318,38,10,46,306,46,15,32,054,49,18,75,354,44*72
2017-12-29 11:29:59 1514564999.726990: $GPGSV,3,2,12,20,30,100,50,21,57,186,46,24,52,100,50,27,18,283,43*75
2017-12-29 11:29:59 1514564999.727055: $GPGSV,3,3,12,32,26,243,39,14,08,235,26,13,03,051,00,138,38,213,45*48
2017-12-29 11:29:59 1514564999.840175: $GPZDA,163000.00,29,12,2017,00,00*6E
2017-12-29 11:29:59 1514564999.840348: $GPGGA,163000,3946.9634,N,08404.9827,W,2,11,1.20,362.21,M,-33.324,M,,*74
2017-12-29 11:29:59 1514564999.840414: $GPRMC,163000,A,3946.9634,N,08404.9827,W,0.0000,0.000,291217,,*39
2017-12-29 11:29:59 1514564999.840474: $GPGSA,A,3,8,10,15,18,20,21,24,27,32,14,138,,1.7,1.2,1.3*3D
2017-12-29 11:30:00 1514565000.392360: $GPZDA,163001.00,29,12,2017,00,00*6F
2017-12-29 11:30:00 1514565000.392529: $GPGGA,163001,3946.9634,N,08404.9827,W,2,11,1.20,362.21,M,-33.324,M,,*75
2017-12-29 11:30:00 1514565000.392595: $GPRMC,163001,A,3946.9634,N,08404.9827,W,0.0000,0.000,291217,,*38
2017-12-29 11:30:00 1514565000.392656: $GPGSA,A,3,8,10,15,18,20,21,24,27,32,14,138,,1.7,1.2,1.3*3D
2017-12-29 11:30:01 1514565001.391856: $GPZDA,163002.00,29,12,2017,00,00*6C
2017-12-29 11:30:01 1514565001.392094: $GPGGA,163002,3946.9634,N,08404.9827,W,2,11,1.20,362.21,M,-33.324,M,,*76
2017-12-29 11:30:01 1514565001.392168: $GPRMC,163002,A,3946.9634,N,08404.9827,W,0.0000,0.000,291217,,*3B
2017-12-29 11:30:01 1514565001.392229: $GPGSA,A,3,8,10,15,18,20,21,24,27,32,14,138,,1.7,1.2,1.3*3D
2017-12-29 11:30:02 1514565002.726342: $GPGSV,3,1,12,08,07,318,37,10,46,306,46,15,32,054,49,18,75,354,44*7D
2017-12-29 11:30:02 1514565002.726522: $GPGSV,3,2,12,20,30,100,50,21,57,186,46,24,52,100,50,27,18,283,43*75
2017-12-29 11:30:02 1514565002.726588: $GPGSV,3,3,12,32,26,243,40,14,08,235,26,13,03,051,00,138,38,213,45*46
2017-12-29 11:30:02 1514565002.839716: $GPZDA,163003.00,29,12,2017,00,00*6D
2017-12-29 11:30:02 1514565002.839870: $GPGGA,163003,3946.9634,N,08404.9827,W,2,11,1.20,362.21,M,-33.324,M,,*77
2017-12-29 11:30:02 1514565002.839935: $GPRMC,163003,A,3946.9634,N,08404.9827,W,0.0000,0.000,291217,,*3A
2017-12-29 11:30:02 1514565002.839995: $GPGSA,A,3,8,10,15,18,20,21,24,27,32,14,138,,1.7,1.2,1.3*3D
2017-12-29 11:30:03 1514565003.394285: $GPZDA,163004.00,29,12,2017,00,00*6A
2017-12-29 11:30:03 1514565003.396835: $GPGGA,163004,3946.9638,N,08404.9827,W,2,11,1.20,362.85,M,-33.324,M,,*72
2017-12-29 11:30:03 1514565003.396942: $GPRMC,163004,A,3946.9638,N,08404.9827,W,0.0000,0.000,291217,,*31
2017-12-29 11:30:03 1514565003.397006: $GPGSA,A,3,8,10,15,18,20,21,24,27,32,14,138,,1.7,1.2,1.3*3D
2017-12-29 11:30:04 1514565004.388486: $GPZDA,163005.00,29,12,2017,00,00*6B
2017-12-29 11:30:04 1514565004.388653: $GPGGA,163005,3946.9638,N,08404.9827,W,2,11,1.20,362.85,M,-33.324,M,,*73
2017-12-29 11:30:04 1514565004.388720: $GPRMC,163005,A,3946.9638,N,08404.9827,W,0.0000,0.000,291217,,*30
2017-12-29 11:30:04 1514565004.388781: $GPGSA,A,3,8,10,15,18,20,21,24,27,32,14,138,,1.7,1.2,1.3*3D
2017-12-29 11:30:05 1514565005.730321: $GPGSV,3,1,12,08,07,318,37,10,46,306,46,15,32,054,48,18,75,354,45*7D
2017-12-29 11:30:05 1514565005.730498: $GPGSV,3,2,12,20,30,100,50,21,57,186,46,24,52,100,50,27,18,283,44*72
2017-12-29 11:30:05 1514565005.730564: $GPGSV,3,3,12,32,26,243,40,14,08,235,26,13,03,051,00,138,38,213,45*46
2017-12-29 11:30:05 1514565005.843659: $GPZDA,163006.00,29,12,2017,00,00*68
2017-12-29 11:30:05 1514565005.843833: $GPGGA,163006,3946.9638,N,08404.9827,W,2,11,1.20,362.85,M,-33.324,M,,*70
2017-12-29 11:30:05 1514565005.843899: $GPRMC,163006,A,3946.9638,N,08404.9827,W,0.0000,0.000,291217,,*33
2017-12-29 11:30:05 1514565005.843958: $GPGSA,A,3,8,10,15,18,20,21,24,27,32,14,138,,1.7,1.2,1.3*3D
2017-12-29 11:30:06 1514565006.393433: $GPZDA,163007.00,29,12,2017,00,00*69
2017-12-29 11:30:06 1514565006.393605: $GPGGA,163007,3946.9638,N,08404.9827,W,2,11,1.20,362.85,M,-33.324,M,,*71
2017-12-29 11:30:06 1514565006.393672: $GPRMC,163007,A,3946.9638,N,08404.9827,W,0.0000,0.000,291217,,*32
2017-12-29 11:30:06 1514565006.393732: $GPGSA,A,3,8,10,15,18,20,21,24,27,32,14,138,,1.7,1.2,1.3*3D
2017-12-29 11:30:07 1514565007.394174: $GPZDA,163008.00,29,12,2017,00,00*66
2017-12-29 11:30:07 1514565007.394346: $GPGGA,163008,3946.9638,N,08404.9827,W,2,11,1.20,362.85,M,-33.324,M,,*7E
2017-12-29 11:30:07 1514565007.394413: $GPRMC,163008,A,3946.9638,N,08404.9827,W,0.0000,0.000,291217,,*3D
2017-12-29 11:30:07 1514565007.394474: $GPGSA,A,3,8,10,15,18,20,21,24,27,32,14,138,,1.7,1.2,1.3*3D
2017-12-29 11:30:08 1514565008.729875: $GPGSV,3,1,12,08,07,318,37,10,46,306,46,15,32,054,48,18,75,354,44*7C
2017-12-29 11:30:08 1514565008.730062: $GPGSV,3,2,12,20,30,100,50,21,57,186,45,24,52,100,50,27,18,283,44*71
2017-12-29 11:30:08 1514565008.730128: $GPGSV,3,3,12,32,26,243,39,14,08,235,27,13,03,051,00,138,38,213,45*49
2017-12-29 11:30:08 1514565008.843207: $GPZDA,163009.00,29,12,2017,00,00*67
2017-12-29 11:30:08 1514565008.843352: $GPGGA,163009,3946.9634,N,08404.9827,W,1,11,1.20,362.21,M,-33.324,M,,*7E
2017-12-29 11:30:08 1514565008.843416: $GPRMC,163009,A,3946.9634,N,08404.9827,W,0.0000,0.000,291217,,*30
2017-12-29 11:30:08 1514565008.843476: $GPGSA,A,3,8,10,15,18,20,21,24,27,32,14,138,,1.7,1.2,1.3*3D
