2018-01-12 03:26:36 1515745596.705768: {"class":"VERSION","release":"3.16","rev":"3.16-4","proto_major":3,"proto_minor":11}
2018-01-12 03:26:36 1515745596.706142: {"class":"DEVICES","devices":[{"class":"DEVICE","path":"/dev/ttyUSB0","driver":"SiRF","subtype":"9\u0006GSD4e_4.1.2-P1_RPATCH.05-F-GPS-4R-1510281 11/03/2015 307","activated":"2018-01-12T08:26:36.445Z","flags":1,"native":1,"bps":4800,"parity":"N","stopbits":1,"cycle":1.00}]}
2018-01-12 03:26:36 1515745596.706265: {"class":"WATCH","enable":true,"json":false,"nmea":true,"raw":0,"scaled":false,"timing":false,"split24":false,"pps":false}
2018-01-12 03:26:37 1515745597.045204: $GPZDA,082637.73,12,01,2018,00,00*63
2018-01-12 03:26:37 1515745597.045372: $GPGGA,082637,3946.9535,N,08404.9851,W,1,11,1.00,288.92,M,-33.324,M,,*77
2018-01-12 03:26:37 1515745597.045438: $GPRMC,082637,A,3946.9535,N,08404.9851,W,0.1867,0.000,120118,,*3B
2018-01-12 03:26:37 1515745597.045500: $GPGSA,A,3,2,5,6,12,17,19,25,9,23,24,138,,2.4,1.0,2.1*09
2018-01-12 03:26:38 1515745598.126625: $GPZDA,082638.42,12,01,2018,00,00*6E
2018-01-12 03:26:38 1515745598.126788: $GPGGA,082638,3946.9535,N,08404.9851,W,1,11,1.00,288.92,M,-33.324,M,,*78
2018-01-12 03:26:38 1515745598.126874: $GPRMC,082638,A,3946.9535,N,08404.9851,W,0.0407,322.014,120118,,*39
2018-01-12 03:26:38 1515745598.126936: $GPGSA,A,3,2,5,6,12,17,19,25,9,23,24,138,,2.4,1.0,2.1*09
2018-01-12 03:26:38 1515745598.127012: $GPGBS,082638,11.98,M,14.47,M,47.88,M*0D
2018-01-12 03:26:39 1515745599.268771: $GPGSV,3,1,12,02,63,282,46,05,23,195,44,06,67,025,48,12,50,295,51*7C
2018-01-12 03:26:39 1515745599.269011: $GPGSV,3,2,12,17,33,102,46,19,51,090,41,25,16,319,44,09,12,091,13*77
2018-01-12 03:26:39 1515745599.269104: $GPGSV,3,3,12,23,08,058,00,04,36,258,00,24,04,247,00,138,38,213,00*42
2018-01-12 03:26:39 1515745599.382241: $GPZDA,082639.00,12,01,2018,00,00*69
2018-01-12 03:26:39 1515745599.382398: $GPGGA,082639,3946.9535,N,08404.9851,W,1,07,1.00,288.92,M,-33.324,M,,*7E
2018-01-12 03:26:39 1515745599.382468: $GPRMC,082639,A,3946.9535,N,08404.9851,W,0.2422,93.794,120118,,*0B
2018-01-12 03:26:39 1515745599.382533: $GPGSA,A,3,2,5,6,12,17,19,25,,,,,,2.4,1.0,2.1*0D
2018-01-12 03:26:39 1515745599.833065: $GPZDA,082640.00,12,01,2018,00,00*67
2018-01-12 03:26:39 1515745599.833238: $GPGGA,082640,3946.9539,N,08404.9851,W,1,07,0.80,289.56,M,-33.324,M,,*7C
2018-01-12 03:26:39 1515745599.833325: $GPRMC,082640,A,3946.9539,N,08404.9851,W,0.1867,0.000,120118,,*37
2018-01-12 03:26:39 1515745599.833389: $GPGSA,A,3,2,5,6,12,17,19,25,,,,,,2.4,0.8,2.1*04
2018-01-12 03:26:40 1515745600.340225: $GPZDA,082641.00,12,01,2018,00,00*66
2018-01-12 03:26:40 1515745600.340391: $GPGGA,082641,3946.9536,N,08404.9852,W,1,07,0.80,290.32,M,-33.324,M,,*7B
2018-01-12 03:26:40 1515745600.340461: $GPRMC,082641,A,3946.9536,N,08404.9852,W,0.0000,0.000,120118,,*32
2018-01-12 03:26:40 1515745600.340524: $GPGSA,A,3,2,5,6,12,17,19,25,,,,,,2.4,0.8,2.1*04
2018-01-12 03:26:41 1515745601.679142: $GPGSV,3,1,12,02,63,282,47,05,23,195,44,06,67,025,49,12,50,295,51*7C
2018-01-12 03:26:41 1515745601.679310: $GPGSV,3,2,12,17,33,102,46,19,51,090,40,25,16,319,45,09,12,091,32*74
2018-01-12 03:26:41 1515745601.679395: $GPGSV,3,3,12,23,08,058,23,24,04,247,17,04,36,258,00,138,38,213,40*41
2018-01-12 03:26:41 1515745601.792545: $GPZDA,082642.00,12,01,2018,00,00*65
2018-01-12 03:26:41 1515745601.792846: $GPGGA,082642,3946.9540,N,08404.9852,W,1,11,0.80,290.96,M,-33.324,M,,*70
2018-01-12 03:26:41 1515745601.792922: $GPRMC,082642,A,3946.9540,N,08404.9852,W,0.0000,0.000,120118,,*30
2018-01-12 03:26:41 1515745601.793003: $GPGSA,A,3,2,5,6,12,17,19,25,9,23,24,138,,2.4,0.8,2.1*00
2018-01-12 03:26:42 1515745602.343416: $GPZDA,082643.00,12,01,2018,00,00*64
2018-01-12 03:26:42 1515745602.343597: $GPGGA,082643,3946.9540,N,08404.9852,W,1,11,0.80,290.96,M,-33.324,M,,*71
2018-01-12 03:26:42 1515745602.343667: $GPRMC,082643,A,3946.9540,N,08404.9852,W,0.0000,0.000,120118,,*31
2018-01-12 03:26:42 1515745602.343731: $GPGSA,A,3,2,5,6,12,17,19,25,9,23,24,138,,2.4,0.8,2.1*00
