2017-12-01 11:46:26 1512146786.216918: {"class":"VERSION","release":"3.16","rev":"3.16-4","proto_major":3,"proto_minor":11}
2017-12-01 11:46:26 1512146786.217328: {"class":"DEVICES","devices":[{"class":"DEVICE","path":"/dev/ttyUSB0","driver":"SiRF","subtype":"9\u0006GSD4e_4.1.2-P1_RPATCH.05-F-GPS-4R-1510281 11/03/2015 307","activated":"2017-12-01T16:46:26.154Z","flags":1,"native":1,"bps":4800,"parity":"N","stopbits":1,"cycle":1.00}]}
2017-12-01 11:46:26 1512146786.217460: {"class":"WATCH","enable":true,"json":false,"nmea":true,"raw":0,"scaled":false,"timing":false,"split24":false,"pps":false}
2017-12-01 11:46:27 1512146787.049464: $GPZDA,164627.49,01,12,2017,00,00*6D
2017-12-01 11:46:27 1512146787.049634: $GPGGA,164627,3946.9592,N,08404.9808,W,1,11,0.80,284.10,M,-33.324,M,,*71
2017-12-01 11:46:27 1512146787.049699: $GPRMC,164627,A,3946.9592,N,08404.9808,W,0.0000,0.000,011217,,*35
2017-12-01 11:46:27 1512146787.049761: $GPGSA,A,3,10,13,15,18,20,21,24,27,29,5,138,,2.0,0.8,1.5*34
2017-12-01 11:46:27 1512146787.049820: $GPGBS,164627,10.70,M,15.43,M,35.28,M*07
2017-12-01 11:46:28 1512146788.191832: $GPGSV,3,1,12,05,13,078,32,13,42,049,48,15,74,069,46,18,44,286,45*7A
2017-12-01 11:46:28 1512146788.192013: $GPGSV,3,2,12,20,61,052,44,21,68,304,46,24,21,148,44,27,09,324,41*75
2017-12-01 11:46:28 1512146788.192079: $GPGSV,3,3,12,29,23,195,46,10,14,273,34,04,11,130,00,138,38,213,00*4D
2017-12-01 11:46:28 1512146788.305414: $GPZDA,164628.00,01,12,2017,00,00*6F
2017-12-01 11:46:28 1512146788.305568: $GPGGA,164628,3946.9592,N,08404.9809,W,1,10,0.80,285.51,M,-33.324,M,,*7A
2017-12-01 11:46:28 1512146788.305634: $GPRMC,164628,A,3946.9592,N,08404.9809,W,0.0000,0.000,011217,,*3B
2017-12-01 11:46:28 1512146788.305695: $GPGSA,A,3,5,13,15,18,20,21,24,27,29,10,,,2.0,0.8,1.5*0E
2017-12-01 11:46:28 1512146788.756302: $GPZDA,164629.00,01,12,2017,00,00*6E
2017-12-01 11:46:28 1512146788.756473: $GPGGA,164629,3946.9589,N,08404.9817,W,1,10,0.80,286.19,M,-33.324,M,,*71
2017-12-01 11:46:28 1512146788.756540: $GPRMC,164629,A,3946.9589,N,08404.9817,W,0.0000,0.000,011217,,*3F
2017-12-01 11:46:28 1512146788.756600: $GPGSA,A,3,5,13,15,18,20,21,24,27,29,10,,,2.0,0.8,1.5*0E
2017-12-01 11:46:29 1512146789.413527: $GPZDA,164630.00,01,12,2017,00,00*66
2017-12-01 11:46:29 1512146789.413695: $GPGGA,164630,3946.9590,N,08404.9817,W,1,10,0.80,287.60,M,-33.324,M,,*7E
2017-12-01 11:46:29 1512146789.413762: $GPRMC,164630,A,3946.9590,N,08404.9817,W,0.0000,0.000,011217,,*3F
2017-12-01 11:46:29 1512146789.413823: $GPGSA,A,3,5,13,15,18,20,21,24,27,29,10,,,2.0,0.8,1.5*0E
2017-12-01 11:46:30 1512146790.748430: $GPGSV,3,1,12,05,13,078,31,13,42,049,47,15,74,069,45,18,44,286,45*75
2017-12-01 11:46:30 1512146790.748611: $GPGSV,3,2,12,20,61,052,44,21,68,304,46,24,21,148,44,27,09,324,40*74
2017-12-01 11:46:30 1512146790.748676: $GPGSV,3,3,12,29,23,195,46,10,14,273,36,04,11,130,11,138,38,213,47*4C
2017-12-01 11:46:30 1512146790.862195: $GPZDA,164631.00,01,12,2017,00,00*67
2017-12-01 11:46:30 1512146790.862365: $GPGGA,164631,3946.9587,N,08404.9818,W,1,11,0.80,288.36,M,-33.324,M,,*7B
2017-12-01 11:46:30 1512146790.862431: $GPRMC,164631,A,3946.9587,N,08404.9818,W,0.0000,0.000,011217,,*37
2017-12-01 11:46:30 1512146790.862492: $GPGSA,A,3,5,13,15,18,20,21,24,27,29,10,138,,2.0,0.8,1.5*34
2017-12-01 11:46:31 1512146791.407778: $GPZDA,164632.00,01,12,2017,00,00*64
2017-12-01 11:46:31 1512146791.407953: $GPGGA,164632,3946.9588,N,08404.9826,W,1,11,0.80,289.69,M,-33.324,M,,*71
2017-12-01 11:46:31 1512146791.408023: $GPRMC,164632,A,3946.9588,N,08404.9826,W,0.0000,0.000,011217,,*36
2017-12-01 11:46:31 1512146791.408086: $GPGSA,A,3,5,13,15,18,20,21,24,27,29,10,138,,2.0,0.8,1.5*34
2017-12-01 11:46:32 1512146792.413537: $GPZDA,164633.00,01,12,2017,00,00*65
2017-12-01 11:46:32 1512146792.413726: $GPGGA,164633,3946.9588,N,08404.9826,W,1,11,0.80,289.69,M,-33.324,M,,*70
2017-12-01 11:46:32 1512146792.413793: $GPRMC,164633,A,3946.9588,N,08404.9826,W,0.0000,0.000,011217,,*37
2017-12-01 11:46:32 1512146792.413872: $GPGSA,A,3,5,13,15,18,20,21,24,27,29,10,138,,2.0,0.8,1.5*34
2017-12-01 11:46:32 1512146792.413982: $GPGBS,164633,10.70,M,15.43,M,35.28,M*02
2017-12-01 11:46:33 1512146793.750358: $GPGSV,3,1,12,05,13,078,31,13,42,049,47,15,74,069,45,18,44,286,45*75
2017-12-01 11:46:33 1512146793.750556: $GPGSV,3,2,12,20,61,052,44,21,68,304,46,24,21,148,43,27,09,324,41*72
2017-12-01 11:46:33 1512146793.750625: $GPGSV,3,3,12,29,23,195,46,10,14,273,36,04,11,130,07,138,38,213,47*4B
2017-12-01 11:46:33 1512146793.864032: $GPZDA,164634.00,01,12,2017,00,00*62
2017-12-01 11:46:33 1512146793.864201: $GPGGA,164634,3946.9584,N,08404.9826,W,1,11,0.80,290.45,M,-33.324,M,,*7D
2017-12-01 11:46:33 1512146793.864269: $GPRMC,164634,A,3946.9584,N,08404.9826,W,0.0000,0.000,011217,,*3C
2017-12-01 11:46:33 1512146793.864330: $GPGSA,A,3,5,13,15,18,20,21,24,27,29,10,138,,2.0,0.8,1.5*34
2017-12-01 11:46:34 1512146794.413719: $GPZDA,164635.00,01,12,2017,00,00*63
2017-12-01 11:46:34 1512146794.414136: $GPGGA,164635,3946.9588,N,08404.9826,W,1,11,0.80,291.09,M,-33.324,M,,*79
2017-12-01 11:46:34 1512146794.414265: $GPRMC,164635,A,3946.9588,N,08404.9826,W,0.2422,93.794,011217,,*07
2017-12-01 11:46:34 1512146794.414396: $GPGSA,A,3,5,13,15,18,20,21,24,27,29,10,138,,2.0,0.8,1.5*34
2017-12-01 11:46:35 1512146795.414129: $GPZDA,164636.00,01,12,2017,00,00*60
2017-12-01 11:46:35 1512146795.414316: $GPGGA,164636,3946.9585,N,08404.9827,W,1,11,0.80,291.85,M,-33.324,M,,*72
2017-12-01 11:46:35 1512146795.414387: $GPRMC,164636,A,3946.9585,N,08404.9827,W,0.0000,0.000,011217,,*3E
2017-12-01 11:46:35 1512146795.414452: $GPGSA,A,3,5,13,15,18,20,21,24,27,29,10,138,,2.0,0.8,1.5*34
