2017-12-01 12:26:46 1512149206.307843: {"class":"VERSION","release":"3.16","rev":"3.16-4","proto_major":3,"proto_minor":11}
2017-12-01 12:26:46 1512149206.308446: {"class":"DEVICES","devices":[{"class":"DEVICE","path":"/dev/ttyUSB0","driver":"SiRF","subtype":"9\u0006GSD4e_4.1.2-P1_RPATCH.05-F-GPS-4R-1510281 11/03/2015 307","activated":"2017-12-01T17:26:46.237Z","flags":1,"native":1,"bps":4800,"parity":"N","stopbits":1,"cycle":1.00}]}
2017-12-01 12:26:46 1512149206.308564: {"class":"WATCH","enable":true,"json":false,"nmea":true,"raw":0,"scaled":false,"timing":false,"split24":false,"pps":false}
2017-12-01 12:26:46 1512149206.686822: $GPGSV,3,1,12,10,26,286,40,13,25,045,43,15,57,049,46,18,57,304,45*72
2017-12-01 12:26:46 1512149206.690737: $GPGSV,3,2,12,20,49,076,47,21,79,246,41,24,37,135,47,29,07,189,31*76
2017-12-01 12:26:46 1512149206.690849: $GPGSV,3,3,12,27,17,309,35,32,04,226,25,05,01,090,17,138,38,213,46*49
2017-12-01 12:26:46 1512149206.800288: $GPZDA,172647.00,01,12,2017,00,00*61
2017-12-01 12:26:46 1512149206.800465: $GPGGA,172647,3946.9578,N,08404.9840,W,2,12,0.80,301.09,M,-33.324,M,,*7C
2017-12-01 12:26:46 1512149206.800533: $GPRMC,172647,A,3946.9578,N,08404.9840,W,0.0000,0.000,011217,,*3C
2017-12-01 12:26:46 1512149206.800616: $GPGSA,A,3,10,13,15,18,20,21,24,29,27,32,5,138,2.0,0.8,1.5*35
2017-12-01 12:26:47 1512149207.353271: $GPZDA,172648.00,01,12,2017,00,00*6E
2017-12-01 12:26:47 1512149207.353608: $GPGGA,172648,3946.9578,N,08404.9840,W,2,12,0.80,301.09,M,-33.324,M,,*73
2017-12-01 12:26:47 1512149207.353760: $GPRMC,172648,A,3946.9578,N,08404.9840,W,0.0000,0.000,011217,,*33
2017-12-01 12:26:47 1512149207.353863: $GPGSA,A,3,10,13,15,18,20,21,24,29,27,32,5,138,2.0,0.8,1.5*35
2017-12-01 12:26:48 1512149208.337844: $GPZDA,172649.00,01,12,2017,00,00*6F
2017-12-01 12:26:48 1512149208.338178: $GPGGA,172649,3946.9578,N,08404.9840,W,2,12,0.80,301.09,M,-33.324,M,,*72
2017-12-01 12:26:48 1512149208.338318: $GPRMC,172649,A,3946.9578,N,08404.9840,W,0.0000,0.000,011217,,*32
2017-12-01 12:26:48 1512149208.338423: $GPGSA,A,3,10,13,15,18,20,21,24,29,27,32,5,138,2.0,0.8,1.5*35
2017-12-01 12:26:49 1512149209.688936: $GPGSV,3,1,12,10,26,286,40,13,25,045,43,15,57,049,46,18,57,304,45*72
2017-12-01 12:26:49 1512149209.689117: $GPGSV,3,2,12,20,49,076,47,21,79,246,41,24,37,135,47,29,07,189,32*75
2017-12-01 12:26:49 1512149209.689185: $GPGSV,3,3,12,27,17,309,28,32,04,226,25,05,01,090,17,138,38,213,46*45
2017-12-01 12:26:49 1512149209.801468: $GPZDA,172650.00,01,12,2017,00,00*67
2017-12-01 12:26:49 1512149209.801661: $GPGGA,172650,3946.9578,N,08404.9840,W,2,12,0.80,301.09,M,-33.324,M,,*7A
2017-12-01 12:26:49 1512149209.801746: $GPRMC,172650,A,3946.9578,N,08404.9840,W,0.0000,0.000,011217,,*3A
2017-12-01 12:26:49 1512149209.801808: $GPGSA,A,3,10,13,15,18,20,21,24,29,27,32,5,138,2.0,0.8,1.5*35
2017-12-01 12:26:50 1512149210.428013: $GPZDA,172651.00,01,12,2017,00,00*66
2017-12-01 12:26:50 1512149210.428174: $GPGGA,172651,3946.9578,N,08404.9840,W,2,12,0.80,301.09,M,-33.324,M,,*7B
2017-12-01 12:26:50 1512149210.428239: $GPRMC,172651,A,3946.9578,N,08404.9840,W,0.0000,0.000,011217,,*3B
2017-12-01 12:26:50 1512149210.428300: $GPGSA,A,3,10,13,15,18,20,21,24,29,27,32,5,138,2.0,0.8,1.5*35
2017-12-01 12:26:51 1512149211.335988: $GPZDA,172652.00,01,12,2017,00,00*65
2017-12-01 12:26:51 1512149211.336208: $GPGGA,172652,3946.9578,N,08404.9840,W,2,12,0.80,301.09,M,-33.324,M,,*78
2017-12-01 12:26:51 1512149211.336282: $GPRMC,172652,A,3946.9578,N,08404.9840,W,0.0000,0.000,011217,,*38
2017-12-01 12:26:51 1512149211.336344: $GPGSA,A,3,10,13,15,18,20,21,24,29,27,32,5,138,2.0,0.8,1.5*35
2017-12-01 12:26:52 1512149212.687964: $GPGSV,3,1,12,10,26,286,40,13,25,045,42,15,57,049,46,18,57,304,46*70
2017-12-01 12:26:52 1512149212.688146: $GPGSV,3,2,12,20,49,076,47,21,79,246,41,24,37,135,47,29,07,189,33*74
2017-12-01 12:26:52 1512149212.688213: $GPGSV,3,3,12,27,17,309,29,32,04,226,25,05,01,090,17,138,38,213,46*44
2017-12-01 12:26:52 1512149212.801572: $GPZDA,172653.00,01,12,2017,00,00*64
2017-12-01 12:26:52 1512149212.801796: $GPGGA,172653,3946.9583,N,08404.9840,W,2,12,0.80,301.73,M,-33.324,M,,*70
2017-12-01 12:26:52 1512149212.801914: $GPRMC,172653,A,3946.9583,N,08404.9840,W,0.0000,0.000,011217,,*3D
2017-12-01 12:26:52 1512149212.801977: $GPGSA,A,3,10,13,15,18,20,21,24,29,27,32,5,138,2.0,0.8,1.5*35
2017-12-01 12:26:53 1512149213.336548: $GPZDA,172654.00,01,12,2017,00,00*63
2017-12-01 12:26:53 1512149213.336825: $GPGGA,172654,3946.9583,N,08404.9840,W,2,12,0.80,301.73,M,-33.324,M,,*77
2017-12-01 12:26:53 1512149213.336933: $GPRMC,172654,A,3946.9583,N,08404.9840,W,0.0000,0.000,011217,,*3A
2017-12-01 12:26:53 1512149213.337034: $GPGSA,A,3,10,13,15,18,20,21,24,29,27,32,5,138,2.0,0.8,1.5*35
2017-12-01 12:26:54 1512149214.329577: $GPZDA,172655.00,01,12,2017,00,00*62
2017-12-01 12:26:54 1512149214.329794: $GPGGA,172655,3946.9583,N,08404.9840,W,2,12,0.80,301.73,M,-33.324,M,,*76
2017-12-01 12:26:54 1512149214.329863: $GPRMC,172655,A,3946.9583,N,08404.9840,W,0.0000,0.000,011217,,*3B
2017-12-01 12:26:54 1512149214.329924: $GPGSA,A,3,10,13,15,18,20,21,24,29,27,32,5,138,2.0,0.8,1.5*35
2017-12-01 12:26:55 1512149215.689691: $GPGSV,3,1,12,10,26,286,40,13,25,045,42,15,57,049,46,18,57,304,46*70
2017-12-01 12:26:55 1512149215.690049: $GPGSV,3,2,12,20,49,076,47,21,79,246,41,24,37,135,47,29,07,189,34*73
2017-12-01 12:26:55 1512149215.690175: $GPGSV,3,3,12,27,17,309,29,32,04,226,18,05,01,090,18,138,38,213,46*45
2017-12-01 12:26:55 1512149215.802992: $GPZDA,172656.00,01,12,2017,00,00*61
2017-12-01 12:26:55 1512149215.803168: $GPGGA,172656,3946.9583,N,08404.9840,W,2,12,0.80,301.73,M,-33.324,M,,*75
2017-12-01 12:26:55 1512149215.803236: $GPRMC,172656,A,3946.9583,N,08404.9840,W,0.0000,0.000,011217,,*38
2017-12-01 12:26:55 1512149215.803297: $GPGSA,A,3,10,13,15,18,20,21,24,29,27,32,5,138,2.0,0.8,1.5*35
