2017-12-29 15:02:18 1514577738.271602: {"class":"VERSION","release":"3.16","rev":"3.16-4","proto_major":3,"proto_minor":11}
2017-12-29 15:02:18 1514577738.272016: {"class":"DEVICES","devices":[{"class":"DEVICE","path":"/dev/ttyUSB0","driver":"SiRF","subtype":"9\u0006GSD4e_4.1.2-P1_RPATCH.05-F-GPS-4R-1510281 11/03/2015 307","activated":"2017-12-29T20:02:18.262Z","flags":1,"native":1,"bps":4800,"parity":"N","stopbits":1,"cycle":1.00}]}
2017-12-29 15:02:18 1514577738.272132: {"class":"WATCH","enable":true,"json":false,"nmea":true,"raw":0,"scaled":false,"timing":false,"split24":false,"pps":false}
2017-12-29 15:02:18 1514577738.375362: $GPZDA,200219.00,29,12,2017,00,00*62
2017-12-29 15:02:18 1514577738.375514: $GPGGA,200219,3946.9577,N,08404.9832,W,2,12,0.80,299.76,M,-33.324,M,,*77
2017-12-29 15:02:18 1514577738.375579: $GPRMC,200219,A,3946.9577,N,08404.9832,W,0.0000,0.000,291217,,*35
2017-12-29 15:02:18 1514577738.375640: $GPGSA,A,3,3,10,1,12,14,22,25,31,32,18,11,138,1.7,0.8,1.3*0C
2017-12-29 15:02:19 1514577739.710977: $GPGSV,3,1,12,03,11,316,39,10,35,153,50,01,22,288,36,12,16,040,44*76
2017-12-29 15:02:19 1514577739.711212: $GPGSV,3,2,12,14,70,357,43,22,29,309,42,25,41,075,50,31,69,240,46*74
2017-12-29 15:02:19 1514577739.711280: $GPGSV,3,3,12,32,62,058,50,18,06,147,27,11,04,273,34,138,38,213,43*4C
2017-12-29 15:02:19 1514577739.823206: $GPZDA,200220.00,29,12,2017,00,00*68
2017-12-29 15:02:19 1514577739.823362: $GPGGA,200220,3946.9577,N,08404.9832,W,2,12,0.80,299.76,M,-33.324,M,,*7D
2017-12-29 15:02:19 1514577739.823427: $GPRMC,200220,A,3946.9577,N,08404.9832,W,0.0000,0.000,291217,,*3F
2017-12-29 15:02:19 1514577739.823487: $GPGSA,A,3,3,10,1,12,14,22,25,31,32,18,11,138,1.7,0.8,1.3*0C
2017-12-29 15:02:20 1514577740.373979: $GPZDA,200221.00,29,12,2017,00,00*69
2017-12-29 15:02:20 1514577740.374166: $GPGGA,200221,3946.9577,N,08404.9832,W,2,12,0.80,299.76,M,-33.324,M,,*7C
2017-12-29 15:02:20 1514577740.374234: $GPRMC,200221,A,3946.9577,N,08404.9832,W,0.0000,0.000,291217,,*3E
2017-12-29 15:02:20 1514577740.374294: $GPGSA,A,3,3,10,1,12,14,22,25,31,32,18,11,138,1.7,0.8,1.3*0C
2017-12-29 15:02:21 1514577741.374955: $GPZDA,200222.00,29,12,2017,00,00*6A
2017-12-29 15:02:21 1514577741.375126: $GPGGA,200222,3946.9577,N,08404.9832,W,2,12,0.80,299.76,M,-33.324,M,,*7F
2017-12-29 15:02:21 1514577741.375192: $GPRMC,200222,A,3946.9577,N,08404.9832,W,0.0000,0.000,291217,,*3D
2017-12-29 15:02:21 1514577741.375252: $GPGSA,A,3,3,10,1,12,14,22,25,31,32,18,11,138,1.7,0.8,1.3*0C
2017-12-29 15:02:22 1514577742.711345: $GPGSV,3,1,12,03,11,316,39,10,35,153,50,01,22,288,37,12,16,040,44*77
2017-12-29 15:02:22 1514577742.711527: $GPGSV,3,2,12,14,70,357,43,22,29,309,42,25,41,075,50,31,69,240,46*74
2017-12-29 15:02:22 1514577742.711595: $GPGSV,3,3,12,32,62,058,50,18,06,147,27,11,04,273,35,138,38,213,43*4D
2017-12-29 15:02:22 1514577742.824837: $GPZDA,200223.00,29,12,2017,00,00*6B
2017-12-29 15:02:22 1514577742.825036: $GPGGA,200223,3946.9577,N,08404.9832,W,2,12,0.80,299.76,M,-33.324,M,,*7E
2017-12-29 15:02:22 1514577742.825105: $GPRMC,200223,A,3946.9577,N,08404.9832,W,0.0000,0.000,291217,,*3C
2017-12-29 15:02:22 1514577742.825167: $GPGSA,A,3,3,10,1,12,14,22,25,31,32,18,11,138,1.7,0.8,1.3*0C
2017-12-29 15:02:23 1514577743.375980: $GPZDA,200224.00,29,12,2017,00,00*6C
2017-12-29 15:02:23 1514577743.376182: $GPGGA,200224,3946.9577,N,08404.9832,W,2,12,0.80,299.76,M,-33.324,M,,*79
2017-12-29 15:02:23 1514577743.376249: $GPRMC,200224,A,3946.9577,N,08404.9832,W,0.0000,0.000,291217,,*3B
2017-12-29 15:02:23 1514577743.376310: $GPGSA,A,3,3,10,1,12,14,22,25,31,32,18,11,138,1.7,0.8,1.3*0C
2017-12-29 15:02:24 1514577744.376405: $GPZDA,200225.00,29,12,2017,00,00*6D
2017-12-29 15:02:24 1514577744.376629: $GPGGA,200225,3946.9577,N,08404.9832,W,2,12,0.80,299.76,M,-33.324,M,,*78
2017-12-29 15:02:24 1514577744.376719: $GPRMC,200225,A,3946.9577,N,08404.9832,W,0.0000,0.000,291217,,*3A
2017-12-29 15:02:24 1514577744.376783: $GPGSA,A,3,3,10,1,12,14,22,25,31,32,18,11,138,1.7,0.8,1.3*0C
2017-12-29 15:02:25 1514577745.710905: $GPGSV,3,1,12,03,11,316,40,10,35,153,50,01,22,288,38,12,16,040,44*76
2017-12-29 15:02:25 1514577745.711174: $GPGSV,3,2,12,14,70,357,43,22,29,309,42,25,41,075,50,31,69,240,46*74
2017-12-29 15:02:25 1514577745.711252: $GPGSV,3,3,12,32,62,058,50,18,06,147,26,11,04,273,35,138,38,213,44*4B
2017-12-29 15:02:25 1514577745.824598: $GPZDA,200226.00,29,12,2017,00,00*6E
2017-12-29 15:02:25 1514577745.824732: $GPGGA,200226,3946.9577,N,08404.9832,W,2,12,0.80,299.76,M,-33.324,M,,*7B
2017-12-29 15:02:25 1514577745.824797: $GPRMC,200226,A,3946.9577,N,08404.9832,W,0.0000,0.000,291217,,*39
2017-12-29 15:02:25 1514577745.824857: $GPGSA,A,3,3,10,1,12,14,22,25,31,32,18,11,138,1.7,0.8,1.3*0C
2017-12-29 15:02:26 1514577746.375107: $GPZDA,200227.00,29,12,2017,00,00*6F
2017-12-29 15:02:26 1514577746.375295: $GPGGA,200227,3946.9577,N,08404.9832,W,2,12,0.80,299.76,M,-33.324,M,,*7A
2017-12-29 15:02:26 1514577746.375366: $GPRMC,200227,A,3946.9577,N,08404.9832,W,0.0000,0.000,291217,,*38
2017-12-29 15:02:26 1514577746.375427: $GPGSA,A,3,3,10,1,12,14,22,25,31,32,18,11,138,1.7,0.8,1.3*0C
2017-12-29 15:02:27 1514577747.375883: $GPZDA,200228.00,29,12,2017,00,00*60
2017-12-29 15:02:27 1514577747.376057: $GPGGA,200228,3946.9577,N,08404.9832,W,2,12,0.80,299.76,M,-33.324,M,,*75
2017-12-29 15:02:27 1514577747.376124: $GPRMC,200228,A,3946.9577,N,08404.9832,W,0.0000,0.000,291217,,*37
2017-12-29 15:02:27 1514577747.376185: $GPGSA,A,3,3,10,1,12,14,22,25,31,32,18,11,138,1.7,0.8,1.3*0C
2017-12-29 15:02:28 1514577748.711374: $GPGSV,3,1,12,03,11,316,39,10,35,153,49,01,22,288,38,12,16,040,44*70
2017-12-29 15:02:28 1514577748.711567: $GPGSV,3,2,12,14,70,357,43,22,29,309,42,25,41,075,50,31,69,240,46*74
2017-12-29 15:02:28 1514577748.711634: $GPGSV,3,3,12,32,62,058,50,18,06,147,26,11,04,273,36,138,38,213,43*4F
2017-12-29 15:02:28 1514577748.824927: $GPZDA,200229.00,29,12,2017,00,00*61
2017-12-29 15:02:28 1514577748.825087: $GPGGA,200229,3946.9577,N,08404.9832,W,2,12,0.80,299.76,M,-33.324,M,,*74
2017-12-29 15:02:28 1514577748.825153: $GPRMC,200229,A,3946.9577,N,08404.9832,W,0.0000,0.000,291217,,*36
2017-12-29 15:02:28 1514577748.825213: $GPGSA,A,3,3,10,1,12,14,22,25,31,32,18,11,138,1.7,0.8,1.3*0C
2017-12-29 15:02:29 1514577749.374642: $GPZDA,200230.00,29,12,2017,00,00*69
2017-12-29 15:02:29 1514577749.374892: $GPGGA,200230,3946.9577,N,08404.9832,W,2,12,0.80,299.76,M,-33.324,M,,*7C
2017-12-29 15:02:29 1514577749.374983: $GPRMC,200230,A,3946.9577,N,08404.9832,W,0.0000,0.000,291217,,*3E
2017-12-29 15:02:29 1514577749.375046: $GPGSA,A,3,3,10,1,12,14,22,25,31,32,18,11,138,1.7,0.8,1.3*0C
2017-12-29 15:02:30 1514577750.375478: $GPZDA,200231.00,29,12,2017,00,00*68
2017-12-29 15:02:30 1514577750.375650: $GPGGA,200231,3946.9577,N,08404.9832,W,2,12,0.80,299.76,M,-33.324,M,,*7D
2017-12-29 15:02:30 1514577750.375715: $GPRMC,200231,A,3946.9577,N,08404.9832,W,0.0000,0.000,291217,,*3F
2017-12-29 15:02:30 1514577750.375776: $GPGSA,A,3,3,10,1,12,14,22,25,31,32,18,11,138,1.7,0.8,1.3*0C
2017-12-29 15:02:31 1514577751.712112: $GPGSV,3,1,12,03,11,316,39,10,35,153,50,01,22,288,38,12,16,040,44*78
2017-12-29 15:02:31 1514577751.712295: $GPGSV,3,2,12,14,70,357,43,22,29,309,42,25,41,075,50,31,69,240,46*74
2017-12-29 15:02:31 1514577751.712361: $GPGSV,3,3,12,32,62,058,50,18,06,147,26,11,04,273,36,138,38,213,43*4F
2017-12-29 15:02:31 1514577751.825463: $GPZDA,200232.00,29,12,2017,00,00*6B
2017-12-29 15:02:31 1514577751.825597: $GPGGA,200232,3946.9577,N,08404.9832,W,2,12,0.80,299.76,M,-33.324,M,,*7E
2017-12-29 15:02:31 1514577751.825661: $GPRMC,200232,A,3946.9577,N,08404.9832,W,0.0000,0.000,291217,,*3C
2017-12-29 15:02:31 1514577751.825722: $GPGSA,A,3,3,10,1,12,14,22,25,31,32,18,11,138,1.7,0.8,1.3*0C
2017-12-29 15:02:32 1514577752.451134: $GPZDA,200233.00,29,12,2017,00,00*6A
2017-12-29 15:02:32 1514577752.451351: $GPGGA,200233,3946.9577,N,08404.9832,W,2,12,0.80,299.76,M,-33.324,M,,*7F
2017-12-29 15:02:32 1514577752.451443: $GPRMC,200233,A,3946.9577,N,08404.9832,W,0.0000,0.000,291217,,*3D
2017-12-29 15:02:32 1514577752.451513: $GPGSA,A,3,3,10,1,12,14,22,25,31,32,18,11,138,1.7,0.8,1.3*0C
2017-12-29 15:02:33 1514577753.383274: $GPZDA,200234.00,29,12,2017,00,00*6D
2017-12-29 15:02:33 1514577753.383447: $GPGGA,200234,3946.9577,N,08404.9832,W,2,12,0.80,299.76,M,-33.324,M,,*78
2017-12-29 15:02:33 1514577753.383513: $GPRMC,200234,A,3946.9577,N,08404.9832,W,0.0000,0.000,291217,,*3A
2017-12-29 15:02:33 1514577753.383573: $GPGSA,A,3,3,10,1,12,14,22,25,31,32,18,11,138,1.7,0.8,1.3*0C
2017-12-29 15:02:34 1514577754.713690: $GPGSV,3,1,12,03,11,316,39,10,35,153,49,01,22,288,39,12,16,040,43*76
2017-12-29 15:02:34 1514577754.713885: $GPGSV,3,2,12,14,70,357,43,22,29,309,42,25,41,075,50,31,69,240,46*74
2017-12-29 15:02:34 1514577754.713952: $GPGSV,3,3,12,32,62,058,50,18,06,147,26,11,04,273,36,138,38,213,43*4F
2017-12-29 15:02:34 1514577754.827061: $GPZDA,200235.00,29,12,2017,00,00*6C
2017-12-29 15:02:34 1514577754.827209: $GPGGA,200235,3946.9577,N,08404.9832,W,2,12,0.80,299.76,M,-33.324,M,,*79
2017-12-29 15:02:34 1514577754.827275: $GPRMC,200235,A,3946.9577,N,08404.9832,W,0.0000,0.000,291217,,*3B
2017-12-29 15:02:34 1514577754.827336: $GPGSA,A,3,3,10,1,12,14,22,25,31,32,18,11,138,1.7,0.8,1.3*0C
2017-12-29 15:02:35 1514577755.380586: $GPZDA,200236.00,29,12,2017,00,00*6F
2017-12-29 15:02:35 1514577755.380756: $GPGGA,200236,3946.9577,N,08404.9832,W,2,12,0.80,299.76,M,-33.324,M,,*7A
2017-12-29 15:02:35 1514577755.380823: $GPRMC,200236,A,3946.9577,N,08404.9832,W,0.0000,0.000,291217,,*38
2017-12-29 15:02:35 1514577755.380884: $GPGSA,A,3,3,10,1,12,14,22,25,31,32,18,11,138,1.7,0.8,1.3*0C
2017-12-29 15:02:36 1514577756.374102: $GPZDA,200237.00,29,12,2017,00,00*6E
2017-12-29 15:02:36 1514577756.374273: $GPGGA,200237,3946.9577,N,08404.9832,W,2,12,0.80,299.76,M,-33.324,M,,*7B
2017-12-29 15:02:36 1514577756.374342: $GPRMC,200237,A,3946.9577,N,08404.9832,W,0.0000,0.000,291217,,*39
2017-12-29 15:02:36 1514577756.374403: $GPGSA,A,3,3,10,1,12,14,22,25,31,32,18,11,138,1.7,0.8,1.3*0C
2017-12-29 15:02:37 1514577757.709036: $GPGSV,3,1,12,03,11,316,39,10,35,153,49,01,22,288,39,12,16,040,43*76
2017-12-29 15:02:37 1514577757.709229: $GPGSV,3,2,12,14,70,357,43,22,29,309,42,25,41,075,50,31,69,240,47*75
2017-12-29 15:02:37 1514577757.709296: $GPGSV,3,3,12,32,62,058,50,18,06,147,26,11,04,273,36,138,38,213,43*4F
2017-12-29 15:02:37 1514577757.822740: $GPZDA,200238.00,29,12,2017,00,00*61
2017-12-29 15:02:37 1514577757.822907: $GPGGA,200238,3946.9577,N,08404.9832,W,2,12,0.80,299.76,M,-33.324,M,,*74
2017-12-29 15:02:37 1514577757.822974: $GPRMC,200238,A,3946.9577,N,08404.9832,W,0.0000,0.000,291217,,*36
2017-12-29 15:02:37 1514577757.823035: $GPGSA,A,3,3,10,1,12,14,22,25,31,32,18,11,138,1.7,0.8,1.3*0C
