2017-11-16 14:50:19 1510861819.648370: {"class":"VERSION","release":"3.17","rev":"3.17","proto_major":3,"proto_minor":12}
2017-11-16 14:50:19 1510861819.648967: {"class":"DEVICES","devices":[{"class":"DEVICE","path":"/dev/ttyUSB0","driver":"SiRF","subtype":"9\u0006GSD4e_4.1.2-P1_RPATCH.05-F-GPS-4R-1510281 11/03/2015 307","activated":"2017-11-16T19:50:19.603Z","flags":1,"native":1,"bps":4800,"parity":"N","stopbits":1,"cycle":1.00}]}
2017-11-16 14:50:19 1510861819.649113: {"class":"WATCH","enable":true,"json":false,"nmea":true,"raw":0,"scaled":false,"timing":false,"split24":false,"pps":false}
2017-11-16 14:50:20 1510861820.484015: $GPZDA,195019.00,16,11,2017,00,00*60
2017-11-16 14:50:20 1510861820.484177: $GPGGA,195019,3946.9572,N,08404.9841,W,2,11,0.80,302.62,M,-33.324,M,,*7E
2017-11-16 14:50:20 1510861820.484238: $GPRMC,195019,A,3946.9572,N,08404.9841,W,0.0000,0.000,161117,,*36
2017-11-16 14:50:20 1510861820.484294: $GPGSA,A,3,8,10,15,18,21,20,24,27,32,14,138,,1.6,0.8,1.3*37
2017-11-16 14:50:21 1510861821.826079: $GPGSV,3,1,11,08,08,307,29,10,55,313,50,15,24,058,50,18,77,033,45*73
2017-11-16 14:50:21 1510861821.826226: $GPGSV,3,2,11,21,46,183,47,20,21,108,41,24,53,081,48,27,14,273,42*78
2017-11-16 14:50:21 1510861821.826286: $GPGSV,3,3,11,32,33,250,46,14,17,241,42,138,38,213,44*7E
2017-11-16 14:50:21 1510861821.939516: $GPZDA,195020.00,16,11,2017,00,00*6A
2017-11-16 14:50:21 1510861821.939673: $GPGGA,195020,3946.9572,N,08404.9841,W,2,11,0.80,302.62,M,-33.324,M,,*74
2017-11-16 14:50:21 1510861821.939753: $GPRMC,195020,A,3946.9572,N,08404.9841,W,0.0000,0.000,161117,,*3C
2017-11-16 14:50:21 1510861821.939810: $GPGSA,A,3,8,10,15,18,21,20,24,27,32,14,138,,1.6,0.8,1.3*37
2017-11-16 14:50:22 1510861822.527790: $GPZDA,195021.00,16,11,2017,00,00*6B
2017-11-16 14:50:22 1510861822.527973: $GPGGA,195021,3946.9572,N,08404.9841,W,2,11,0.80,302.62,M,-33.324,M,,*75
2017-11-16 14:50:22 1510861822.528035: $GPRMC,195021,A,3946.9572,N,08404.9841,W,0.0000,0.000,161117,,*3D
2017-11-16 14:50:22 1510861822.528091: $GPGSA,A,3,8,10,15,18,21,20,24,27,32,14,138,,1.6,0.8,1.3*37
2017-11-16 14:50:23 1510861823.489926: $GPZDA,195022.00,16,11,2017,00,00*68
2017-11-16 14:50:23 1510861823.490100: $GPGGA,195022,3946.9572,N,08404.9841,W,2,11,0.80,302.62,M,-33.324,M,,*76
2017-11-16 14:50:23 1510861823.490164: $GPRMC,195022,A,3946.9572,N,08404.9841,W,0.0000,0.000,161117,,*3E
2017-11-16 14:50:23 1510861823.490221: $GPGSA,A,3,8,10,15,18,21,20,24,27,32,14,138,,1.6,0.8,1.3*37
2017-11-16 14:50:24 1510861824.865147: $GPGSV,3,1,11,08,08,307,30,10,55,313,50,15,24,058,50,18,77,033,45*7B
2017-11-16 14:50:24 1510861824.865304: $GPGSV,3,2,11,21,46,183,47,20,21,108,41,24,53,081,48,27,14,273,42*78
2017-11-16 14:50:24 1510861824.865365: $GPGSV,3,3,11,32,33,250,46,14,17,241,43,138,38,213,42*79
2017-11-16 14:50:24 1510861824.978501: $GPZDA,195023.00,16,11,2017,00,00*69
2017-11-16 14:50:24 1510861824.978694: $GPGGA,195023,3946.9572,N,08404.9841,W,2,11,0.80,302.62,M,-33.324,M,,*77
2017-11-16 14:50:24 1510861824.978756: $GPRMC,195023,A,3946.9572,N,08404.9841,W,0.0000,0.000,161117,,*3F
2017-11-16 14:50:24 1510861824.978830: $GPGSA,A,3,8,10,15,18,21,20,24,27,32,14,138,,1.6,0.8,1.3*37
2017-11-16 14:50:25 1510861825.526848: $GPZDA,195024.00,16,11,2017,00,00*6E
2017-11-16 14:50:25 1510861825.527009: $GPGGA,195024,3946.9572,N,08404.9841,W,2,11,0.80,302.62,M,-33.324,M,,*70
2017-11-16 14:50:25 1510861825.527071: $GPRMC,195024,A,3946.9572,N,08404.9841,W,0.0000,0.000,161117,,*38
2017-11-16 14:50:25 1510861825.527146: $GPGSA,A,3,8,10,15,18,21,20,24,27,32,14,138,,1.6,0.8,1.3*37
2017-11-16 14:50:26 1510861826.489116: $GPZDA,195025.00,16,11,2017,00,00*6F
2017-11-16 14:50:26 1510861826.489274: $GPGGA,195025,3946.9572,N,08404.9841,W,2,11,0.80,302.62,M,-33.324,M,,*71
2017-11-16 14:50:26 1510861826.489335: $GPRMC,195025,A,3946.9572,N,08404.9841,W,0.0000,0.000,161117,,*39
2017-11-16 14:50:26 1510861826.489390: $GPGSA,A,3,8,10,15,18,21,20,24,27,32,14,138,,1.6,0.8,1.3*37
2017-11-16 14:50:27 1510861827.824727: $GPGSV,3,1,11,08,08,307,34,10,55,313,50,15,24,058,50,18,77,033,45*7F
2017-11-16 14:50:27 1510861827.824977: $GPGSV,3,2,11,21,46,183,46,20,21,108,41,24,53,081,48,27,14,273,43*78
2017-11-16 14:50:27 1510861827.825039: $GPGSV,3,3,11,32,33,250,45,14,17,241,43,138,38,213,43*7B
2017-11-16 14:50:27 1510861827.938081: $GPZDA,195026.00,16,11,2017,00,00*6C
2017-11-16 14:50:27 1510861827.938243: $GPGGA,195026,3946.9572,N,08404.9841,W,2,11,0.80,302.62,M,-33.324,M,,*72
2017-11-16 14:50:27 1510861827.938304: $GPRMC,195026,A,3946.9572,N,08404.9841,W,0.0000,0.000,161117,,*3A
2017-11-16 14:50:27 1510861827.938360: $GPGSA,A,3,8,10,15,18,21,20,24,27,32,14,138,,1.6,0.8,1.3*37
2017-11-16 14:50:28 1510861828.488922: $GPZDA,195027.00,16,11,2017,00,00*6D
2017-11-16 14:50:28 1510861828.489083: $GPGGA,195027,3946.9572,N,08404.9841,W,2,11,0.80,302.62,M,-33.324,M,,*73
2017-11-16 14:50:28 1510861828.489144: $GPRMC,195027,A,3946.9572,N,08404.9841,W,0.0000,0.000,161117,,*3B
2017-11-16 14:50:28 1510861828.489200: $GPGSA,A,3,8,10,15,18,21,20,24,27,32,14,138,,1.6,0.8,1.3*37
2017-11-16 14:50:29 1510861829.489546: $GPZDA,195028.00,16,11,2017,00,00*62
2017-11-16 14:50:29 1510861829.489752: $GPGGA,195028,3946.9572,N,08404.9841,W,2,11,0.80,302.62,M,-33.324,M,,*7C
2017-11-16 14:50:29 1510861829.489816: $GPRMC,195028,A,3946.9572,N,08404.9841,W,0.0000,0.000,161117,,*34
2017-11-16 14:50:29 1510861829.489872: $GPGSA,A,3,8,10,15,18,21,20,24,27,32,14,138,,1.6,0.8,1.3*37
