2017-12-31 18:07:49 1514761669.317980: {"class":"VERSION","release":"3.16","rev":"3.16-4","proto_major":3,"proto_minor":11}
2017-12-31 18:07:49 1514761669.318339: {"class":"DEVICES","devices":[{"class":"DEVICE","path":"/dev/ttyUSB0","driver":"SiRF","activated":"2017-12-31T23:07:49.234Z","flags":1,"native":1,"bps":4800,"parity":"N","stopbits":1,"cycle":1.00}]}
2017-12-31 18:07:49 1514761669.318439: {"class":"WATCH","enable":true,"json":false,"nmea":true,"raw":0,"scaled":false,"timing":false,"split24":false,"pps":false}
2017-12-31 18:07:49 1514761669.347834: $GPZDA,230750.00,31,12,2017,00,00*60
2017-12-31 18:07:49 1514761669.347966: $GPGGA,230750,3946.9561,N,08404.9874,W,2,11,0.60,308.17,M,-33.324,M,,*7A
2017-12-31 18:07:49 1514761669.348031: $GPRMC,230750,A,3946.9561,N,08404.9874,W,0.0000,0.000,311217,,*32
2017-12-31 18:07:49 1514761669.348090: $GPGSA,A,3,22,23,9,3,16,29,14,31,27,26,135,,1.7,0.6,1.3*06
2017-12-31 18:07:50 1514761670.346565: $GPZDA,230751.00,31,12,2017,00,00*61
2017-12-31 18:07:50 1514761670.346740: $GPGGA,230751,3946.9561,N,08404.9874,W,2,11,0.60,308.17,M,-33.324,M,,*7B
2017-12-31 18:07:50 1514761670.346806: $GPRMC,230751,A,3946.9561,N,08404.9874,W,0.0000,0.000,311217,,*33
2017-12-31 18:07:50 1514761670.346867: $GPGSA,A,3,22,23,9,3,16,29,14,31,27,26,135,,1.7,0.6,1.3*06
2017-12-31 18:07:51 1514761671.711114: $GPGSV,3,1,11,22,23,216,40,23,52,307,46,09,19,312,41,03,33,235,45*79
2017-12-31 18:07:51 1514761671.711262: $GPGSV,3,2,11,16,79,190,44,29,06,031,33,14,16,132,36,31,29,073,40*78
2017-12-31 18:07:51 1514761671.711328: $GPGSV,3,3,11,27,21,154,31,26,64,051,48,135,22,240,44*72
2017-12-31 18:07:51 1514761671.823301: $GPZDA,230752.00,31,12,2017,00,00*62
2017-12-31 18:07:51 1514761671.827573: $GPGGA,230752,3946.9561,N,08404.9874,W,2,11,0.60,308.17,M,-33.324,M,,*78
2017-12-31 18:07:51 1514761671.827698: $GPRMC,230752,A,3946.9561,N,08404.9874,W,0.0000,0.000,311217,,*30
2017-12-31 18:07:51 1514761671.827762: $GPGSA,A,3,22,23,9,3,16,29,14,31,27,26,135,,1.7,0.6,1.3*06
2017-12-31 18:07:52 1514761672.375419: $GPZDA,230753.00,31,12,2017,00,00*63
2017-12-31 18:07:52 1514761672.375598: $GPGGA,230753,3946.9561,N,08404.9874,W,2,11,0.60,308.17,M,-33.324,M,,*79
2017-12-31 18:07:52 1514761672.375667: $GPRMC,230753,A,3946.9561,N,08404.9874,W,0.0000,0.000,311217,,*31
2017-12-31 18:07:52 1514761672.375727: $GPGSA,A,3,22,23,9,3,16,29,14,31,27,26,135,,1.7,0.6,1.3*06
2017-12-31 18:07:53 1514761673.346160: $GPZDA,230754.00,31,12,2017,00,00*64
2017-12-31 18:07:53 1514761673.346331: $GPGGA,230754,3946.9561,N,08404.9874,W,2,11,0.60,308.17,M,-33.324,M,,*7E
2017-12-31 18:07:53 1514761673.346399: $GPRMC,230754,A,3946.9561,N,08404.9874,W,0.0000,0.000,311217,,*36
2017-12-31 18:07:53 1514761673.346460: $GPGSA,A,3,22,23,9,3,16,29,14,31,27,26,135,,1.7,0.6,1.3*06
2017-12-31 18:07:54 1514761674.681916: $GPGSV,3,1,11,22,23,216,40,23,52,307,46,09,19,312,41,03,33,235,45*79
2017-12-31 18:07:54 1514761674.682075: $GPGSV,3,2,11,16,79,190,44,29,06,031,35,14,16,132,36,31,29,073,41*7F
2017-12-31 18:07:54 1514761674.682140: $GPGSV,3,3,11,27,21,154,32,26,64,051,48,135,22,240,44*71
2017-12-31 18:07:54 1514761674.795523: $GPZDA,230755.00,31,12,2017,00,00*65
2017-12-31 18:07:54 1514761674.795659: $GPGGA,230755,3946.9561,N,08404.9874,W,2,11,0.60,308.17,M,-33.324,M,,*7F
2017-12-31 18:07:54 1514761674.795724: $GPRMC,230755,A,3946.9561,N,08404.9874,W,0.0000,0.000,311217,,*37
2017-12-31 18:07:54 1514761674.795784: $GPGSA,A,3,22,23,9,3,16,29,14,31,27,26,135,,1.7,0.6,1.3*06
2017-12-31 18:07:55 1514761675.421030: $GPZDA,230756.00,31,12,2017,00,00*66
2017-12-31 18:07:55 1514761675.421182: $GPGGA,230756,3946.9561,N,08404.9874,W,2,11,0.60,308.17,M,-33.324,M,,*7C
2017-12-31 18:07:55 1514761675.421248: $GPRMC,230756,A,3946.9561,N,08404.9874,W,0.0000,0.000,311217,,*34
2017-12-31 18:07:55 1514761675.421308: $GPGSA,A,3,22,23,9,3,16,29,14,31,27,26,135,,1.7,0.6,1.3*06
2017-12-31 18:07:56 1514761676.339023: $GPZDA,230757.00,31,12,2017,00,00*67
2017-12-31 18:07:56 1514761676.339191: $GPGGA,230757,3946.9561,N,08404.9874,W,2,11,0.60,308.17,M,-33.324,M,,*7D
2017-12-31 18:07:56 1514761676.339310: $GPRMC,230757,A,3946.9561,N,08404.9874,W,0.0000,0.000,311217,,*35
2017-12-31 18:07:56 1514761676.339372: $GPGSA,A,3,22,23,9,3,16,29,14,31,27,26,135,,1.7,0.6,1.3*06
2017-12-31 18:07:57 1514761677.682278: $GPGSV,3,1,11,22,23,216,40,23,52,307,47,09,19,312,41,03,33,235,45*78
2017-12-31 18:07:57 1514761677.682428: $GPGSV,3,2,11,16,79,190,44,29,06,031,35,14,16,132,36,31,29,073,41*7F
2017-12-31 18:07:57 1514761677.682492: $GPGSV,3,3,11,27,21,154,32,26,64,051,49,135,22,240,43*77
2017-12-31 18:07:57 1514761677.795624: $GPZDA,230758.00,31,12,2017,00,00*68
2017-12-31 18:07:57 1514761677.795768: $GPGGA,230758,3946.9561,N,08404.9874,W,2,11,0.60,308.17,M,-33.324,M,,*72
2017-12-31 18:07:57 1514761677.795835: $GPRMC,230758,A,3946.9561,N,08404.9874,W,0.0000,0.000,311217,,*3A
2017-12-31 18:07:57 1514761677.795896: $GPGSA,A,3,22,23,9,3,16,29,14,31,27,26,135,,1.7,0.6,1.3*06
2017-12-31 18:07:58 1514761678.374333: $GPZDA,230759.00,31,12,2017,00,00*69
2017-12-31 18:07:58 1514761678.374503: $GPGGA,230759,3946.9561,N,08404.9874,W,2,11,0.60,308.17,M,-33.324,M,,*73
2017-12-31 18:07:58 1514761678.374569: $GPRMC,230759,A,3946.9561,N,08404.9874,W,0.0000,0.000,311217,,*3B
2017-12-31 18:07:58 1514761678.374629: $GPGSA,A,3,22,23,9,3,16,29,14,31,27,26,135,,1.7,0.6,1.3*06
