2017-11-15 19:41:32 1510792892.415911: {"class":"VERSION","release":"3.17","rev":"3.17","proto_major":3,"proto_minor":12}
2017-11-15 19:41:32 1510792892.416408: {"class":"DEVICES","devices":[{"class":"DEVICE","path":"/dev/ttyUSB0","driver":"SiRF","subtype":"9\u0006GSD4e_4.1.2-P1_RPATCH.05-F-GPS-4R-1510281 11/03/2015 307","activated":"2017-11-16T00:41:32.381Z","flags":1,"native":1,"bps":4800,"parity":"N","stopbits":1,"cycle":1.00}]}
2017-11-15 19:41:32 1510792892.416529: {"class":"WATCH","enable":true,"json":false,"nmea":true,"raw":0,"scaled":false,"timing":false,"split24":false,"pps":false}
2017-11-15 19:41:33 1510792893.679985: $GPGSV,3,1,11,32,32,111,10,16,27,190,21,14,52,097,00,26,58,171,07*77
2017-11-15 19:41:33 1510792893.680162: $GPGSV,3,2,11,22,50,264,00,31,64,031,12,29,12,067,13,03,42,294,00*7D
2017-11-15 19:41:33 1510792893.680222: $GPGSV,3,3,11,23,14,303,00,25,13,039,00,01,03,249,00*4F
2017-11-15 19:41:33 1510792893.793348: $GPZDA,004132.00,16,11,2017,00,00*61
2017-11-15 19:41:33 1510792893.793507: $GPGGA,004132,3946.9582,N,08404.9497,W,1,05,2.20,292.52,M,-33.324,M,,*72
2017-11-15 19:41:33 1510792893.793567: $GPRMC,004132,A,3946.9582,N,08404.9497,W,0.4207,39.347,161117,,*04
2017-11-15 19:41:33 1510792893.793622: $GPGSA,A,3,32,16,26,31,29,,,,,,,,3.4,2.2,2.9*35
2017-11-15 19:41:34 1510792894.405488: $GPZDA,004133.00,16,11,2017,00,00*60
2017-11-15 19:41:34 1510792894.405666: $GPGGA,004133,3946.9582,N,08404.9497,W,1,05,2.20,292.52,M,-33.324,M,,*73
2017-11-15 19:41:34 1510792894.405727: $GPRMC,004133,A,3946.9582,N,08404.9497,W,0.2422,93.794,161117,,*08
2017-11-15 19:41:34 1510792894.405805: $GPGSA,A,3,32,16,26,31,29,,,,,,,,3.4,2.2,2.9*35
2017-11-15 19:41:34 1510792894.405859: $GPGBS,004133,13.59,M,20.35,M,67.34,M*07
2017-11-15 19:41:35 1510792895.345135: $GPZDA,004134.00,16,11,2017,00,00*67
2017-11-15 19:41:35 1510792895.345298: $GPGGA,004134,3946.9582,N,08404.9497,W,1,05,2.20,292.52,M,-33.324,M,,*74
2017-11-15 19:41:35 1510792895.345359: $GPRMC,004134,A,3946.9582,N,08404.9497,W,0.4949,112.165,161117,,*39
2017-11-15 19:41:35 1510792895.345415: $GPGSA,A,3,32,16,26,31,29,,,,,,,,3.4,2.2,2.9*35
2017-11-15 19:41:35 1510792895.345466: $GPGBS,004134,13.59,M,20.35,M,67.34,M*00
2017-11-15 19:41:36 1510792896.665378: $GPGSV,3,1,12,32,31,112,10,16,28,190,22,14,51,100,00,26,59,169,06*7D
2017-11-15 19:41:36 1510792896.665550: $GPGSV,3,2,12,22,50,261,00,31,63,033,11,29,12,066,12,03,42,292,00*7B
2017-11-15 19:41:36 1510792896.665611: $GPGSV,3,3,12,23,15,303,00,25,12,039,00,01,02,249,00,138,38,213,00*4C
2017-11-15 19:41:36 1510792896.778888: $GPZDA,004135.00,16,11,2017,00,00*66
2017-11-15 19:41:36 1510792896.779066: $GPGGA,004135,3946.9582,N,08404.9490,W,1,05,2.20,292.60,M,-33.324,M,,*73
2017-11-15 19:41:36 1510792896.779126: $GPRMC,004135,A,3946.9582,N,08404.9490,W,0.6831,140.632,161117,,*31
2017-11-15 19:41:36 1510792896.779182: $GPGSA,A,3,32,16,26,31,29,,,,,,,,3.4,2.2,2.9*35
2017-11-15 19:41:37 1510792897.329677: $GPZDA,004136.00,16,11,2017,00,00*65
2017-11-15 19:41:37 1510792897.329858: $GPGGA,004136,3946.9582,N,08404.9490,W,1,05,2.00,292.60,M,-33.324,M,,*72
2017-11-15 19:41:37 1510792897.329935: $GPRMC,004136,A,3946.9582,N,08404.9490,W,0.5912,129.173,161117,,*3C
2017-11-15 19:41:37 1510792897.329992: $GPGSA,A,3,32,16,26,31,29,,,,,,,,3.4,2.0,2.9*37
2017-11-15 19:41:38 1510792898.328327: $GPZDA,004137.00,16,11,2017,00,00*64
2017-11-15 19:41:38 1510792898.328482: $GPGGA,004137,3946.9574,N,08404.9491,W,1,05,2.00,292.72,M,-33.324,M,,*78
2017-11-15 19:41:38 1510792898.328544: $GPRMC,004137,A,3946.9574,N,08404.9491,W,0.6831,140.632,161117,,*3B
2017-11-15 19:41:38 1510792898.328601: $GPGSA,A,3,32,16,26,31,29,,,,,,,,3.4,2.0,2.9*37
2017-11-15 19:41:39 1510792899.681867: $GPGSV,3,1,12,32,31,112,10,16,28,190,22,14,51,100,00,26,59,169,09*72
2017-11-15 19:41:39 1510792899.682056: $GPGSV,3,2,12,22,50,261,00,31,63,033,10,29,12,066,12,03,42,292,00*7A
2017-11-15 19:41:39 1510792899.682116: $GPGSV,3,3,12,23,15,303,00,25,12,039,00,01,02,249,00,138,38,213,00*4C
2017-11-15 19:41:39 1510792899.795198: $GPZDA,004138.00,16,11,2017,00,00*6B
2017-11-15 19:41:39 1510792899.795413: $GPGGA,004138,3946.9574,N,08404.9484,W,1,05,2.00,292.80,M,-33.324,M,,*7E
2017-11-15 19:41:39 1510792899.795477: $GPRMC,004138,A,3946.9574,N,08404.9484,W,0.6831,140.632,161117,,*30
2017-11-15 19:41:39 1510792899.795534: $GPGSA,A,3,32,16,26,31,29,,,,,,,,3.4,2.0,2.9*37
2017-11-15 19:41:40 1510792900.344818: $GPZDA,004139.00,16,11,2017,00,00*6A
2017-11-15 19:41:40 1510792900.344994: $GPGGA,004139,3946.9574,N,08404.9484,W,1,05,2.00,292.80,M,-33.324,M,,*7F
2017-11-15 19:41:40 1510792900.345056: $GPRMC,004139,A,3946.9574,N,08404.9484,W,0.7955,149.124,161117,,*3A
2017-11-15 19:41:40 1510792900.345112: $GPGSA,A,3,32,16,26,31,29,,,,,,,,3.4,2.0,2.9*37
2017-11-15 19:41:41 1510792901.328939: $GPZDA,004140.00,16,11,2017,00,00*64
2017-11-15 19:41:41 1510792901.329106: $GPGGA,004140,3946.9578,N,08404.9484,W,1,05,2.00,293.44,M,-33.324,M,,*74
2017-11-15 19:41:41 1510792901.329168: $GPRMC,004140,A,3946.9578,N,08404.9484,W,0.4583,89.998,161117,,*0E
2017-11-15 19:41:41 1510792901.329224: $GPGSA,A,3,32,16,26,31,29,,,,,,,,3.4,2.0,2.9*37
