2017-11-15 19:46:29 1510793189.424267: {"class":"VERSION","release":"3.17","rev":"3.17","proto_major":3,"proto_minor":12}
2017-11-15 19:46:29 1510793189.425010: {"class":"DEVICES","devices":[{"class":"DEVICE","path":"/dev/ttyUSB0","driver":"SiRF","subtype":"9\u0006GSD4e_4.1.2-P1_RPATCH.05-F-GPS-4R-1510281 11/03/2015 307","activated":"2017-11-16T00:46:29.383Z","flags":1,"native":1,"bps":4800,"parity":"N","stopbits":1,"cycle":1.00}]}
2017-11-15 19:46:29 1510793189.425322: {"class":"WATCH","enable":true,"json":false,"nmea":true,"raw":0,"scaled":false,"timing":false,"split24":false,"pps":false}
2017-11-15 19:46:30 1510793190.665347: $GPGSV,3,1,12,32,30,114,19,16,30,190,22,22,50,259,19,26,61,169,25*73
2017-11-15 19:46:30 1510793190.665556: $GPGSV,3,2,12,14,49,102,19,31,62,034,08,29,12,064,11,23,16,303,07*7A
2017-11-15 19:46:30 1510793190.665618: $GPGSV,3,3,12,03,43,291,16,25,11,039,00,01,01,247,00,120,07,103,00*49
2017-11-15 19:46:30 1510793190.778736: $GPZDA,004629.00,16,11,2017,00,00*6C
2017-11-15 19:46:30 1510793190.778897: $GPGGA,004629,3946.9722,N,08404.9440,W,1,08,1.40,350.50,M,-33.324,M,,*78
2017-11-15 19:46:30 1510793190.778958: $GPRMC,004629,A,3946.9722,N,08404.9440,W,0.5951,58.684,161117,,*0F
2017-11-15 19:46:30 1510793190.779013: $GPGSA,A,3,32,16,22,26,14,31,23,3,,,,,3.4,1.4,2.9*0C
2017-11-15 19:46:31 1510793191.404056: $GPZDA,004630.00,16,11,2017,00,00*64
2017-11-15 19:46:31 1510793191.404223: $GPGGA,004630,3946.9721,N,08404.9433,W,1,08,1.20,350.58,M,-33.324,M,,*79
2017-11-15 19:46:31 1510793191.404285: $GPRMC,004630,A,3946.9721,N,08404.9433,W,1.0018,50.691,161117,,*0C
2017-11-15 19:46:31 1510793191.404340: $GPGSA,A,3,32,16,22,26,14,31,23,3,,,,,3.4,1.2,2.9*0A
2017-11-15 19:46:32 1510793192.346168: $GPZDA,004631.00,16,11,2017,00,00*65
2017-11-15 19:46:32 1510793192.346336: $GPGGA,004631,3946.9721,N,08404.9433,W,1,08,1.20,350.58,M,-33.324,M,,*78
2017-11-15 19:46:32 1510793192.346422: $GPRMC,004631,A,3946.9721,N,08404.9433,W,0.8054,68.645,161117,,*0E
2017-11-15 19:46:32 1510793192.346479: $GPGSA,A,3,32,16,22,26,14,31,23,3,,,,,3.4,1.2,2.9*0A
2017-11-15 19:46:33 1510793193.665724: $GPGSV,3,1,12,32,30,114,18,16,30,190,22,22,50,259,18,26,61,169,25*73
2017-11-15 19:46:33 1510793193.665895: $GPGSV,3,2,12,14,49,102,19,31,62,034,08,29,12,064,12,23,16,303,07*79
2017-11-15 19:46:33 1510793193.665955: $GPGSV,3,3,12,03,43,291,16,25,11,039,00,01,01,247,00,120,07,103,00*49
2017-11-15 19:46:33 1510793193.778962: $GPZDA,004632.00,16,11,2017,00,00*66
2017-11-15 19:46:33 1510793193.779112: $GPGGA,004632,3946.9721,N,08404.9426,W,1,09,1.20,350.66,M,-33.324,M,,*73
2017-11-15 19:46:33 1510793193.779172: $GPRMC,004632,A,3946.9721,N,08404.9426,W,0.8953,59.978,161117,,*04
2017-11-15 19:46:33 1510793193.779227: $GPGSA,A,3,32,16,22,26,14,31,29,23,3,,,,3.4,1.2,2.9*01
2017-11-15 19:46:34 1510793194.346281: $GPZDA,004633.00,16,11,2017,00,00*67
2017-11-15 19:46:34 1510793194.346959: $GPGGA,004633,3946.9721,N,08404.9426,W,1,09,1.00,350.66,M,-33.324,M,,*70
2017-11-15 19:46:34 1510793194.349132: $GPRMC,004633,A,3946.9721,N,08404.9426,W,0.4207,39.347,161117,,*03
2017-11-15 19:46:34 1510793194.349245: $GPGSA,A,3,32,16,22,26,14,31,29,23,3,,,,3.4,1.0,2.9*03
2017-11-15 19:46:35 1510793195.330799: $GPZDA,004634.00,16,11,2017,00,00*60
2017-11-15 19:46:35 1510793195.330995: $GPGGA,004634,3946.9721,N,08404.9426,W,1,09,1.00,350.66,M,-33.324,M,,*77
2017-11-15 19:46:35 1510793195.331060: $GPRMC,004634,A,3946.9721,N,08404.9426,W,0.4207,39.347,161117,,*04
2017-11-15 19:46:35 1510793195.331116: $GPGSA,A,3,32,16,22,26,14,31,29,23,3,,,,3.4,1.0,2.9*03
2017-11-15 19:46:36 1510793196.669976: $GPGSV,3,1,11,32,30,114,18,16,30,190,22,22,50,259,18,26,61,169,25*70
2017-11-15 19:46:36 1510793196.670160: $GPGSV,3,2,11,14,49,102,20,31,62,034,08,29,12,064,13,23,16,303,10*77
2017-11-15 19:46:36 1510793196.670219: $GPGSV,3,3,11,03,43,291,16,25,11,039,00,01,01,247,00*4C
2017-11-15 19:46:36 1510793196.783164: $GPZDA,004635.00,16,11,2017,00,00*61
2017-11-15 19:46:36 1510793196.783345: $GPGGA,004635,3946.9721,N,08404.9426,W,1,09,1.00,350.66,M,-33.324,M,,*76
2017-11-15 19:46:36 1510793196.783508: $GPRMC,004635,A,3946.9721,N,08404.9426,W,0.2422,93.795,161117,,*09
2017-11-15 19:46:36 1510793196.783567: $GPGSA,A,3,32,16,22,26,14,31,29,23,3,,,,3.4,1.0,2.9*03
2017-11-15 19:46:37 1510793197.346805: $GPZDA,004636.00,16,11,2017,00,00*62
2017-11-15 19:46:37 1510793197.346961: $GPGGA,004636,3946.9721,N,08404.9426,W,1,09,1.00,350.66,M,-33.324,M,,*75
2017-11-15 19:46:37 1510793197.347022: $GPRMC,004636,A,3946.9721,N,08404.9426,W,0.2959,54.768,161117,,*02
2017-11-15 19:46:37 1510793197.347077: $GPGSA,A,3,32,16,22,26,14,31,29,23,3,,,,3.4,1.0,2.9*03
2017-11-15 19:46:38 1510793198.330203: $GPZDA,004637.00,16,11,2017,00,00*63
2017-11-15 19:46:38 1510793198.330383: $GPGGA,004637,3946.9717,N,08404.9426,W,1,09,1.00,350.02,M,-33.324,M,,*73
2017-11-15 19:46:38 1510793198.330445: $GPRMC,004637,A,3946.9717,N,08404.9426,W,0.2422,93.795,161117,,*0E
2017-11-15 19:46:38 1510793198.330518: $GPGSA,A,3,32,16,22,26,14,31,29,23,3,,,,3.4,1.0,2.9*03
