2017-11-16 15:55:47 1510865747.266503: {"class":"VERSION","release":"3.17","rev":"3.17","proto_major":3,"proto_minor":12}
2017-11-16 15:55:47 1510865747.266806: {"class":"DEVICES","devices":[{"class":"DEVICE","path":"/dev/ttyUSB0","driver":"SiRF","subtype":"9\u0006GSD4e_4.1.2-P1_RPATCH.05-F-GPS-4R-1510281 11/03/2015 307","activated":"2017-11-16T20:55:47.253Z","flags":1,"native":1,"bps":4800,"parity":"N","stopbits":1,"cycle":1.00}]}
2017-11-16 15:55:47 1510865747.266879: {"class":"WATCH","enable":true,"json":false,"nmea":true,"raw":0,"scaled":false,"timing":false,"split24":false,"pps":false}
2017-11-16 15:55:47 1510865747.366502: $GPZDA,205546.00,16,11,2017,00,00*65
2017-11-16 15:55:47 1510865747.366627: $GPGGA,205546,3946.9585,N,08404.9843,W,2,12,0.80,307.35,M,-33.324,M,,*75
2017-11-16 15:55:47 1510865747.366666: $GPRMC,205546,A,3946.9585,N,08404.9843,W,0.0000,0.000,161117,,*39
2017-11-16 15:55:47 1510865747.366697: $GPGSA,A,3,11,10,14,31,18,25,21,24,15,32,12,138,1.6,0.8,1.3*0E
2017-11-16 15:55:48 1510865748.384096: $GPZDA,205547.00,16,11,2017,00,00*64
2017-11-16 15:55:48 1510865748.384271: $GPGGA,205547,3946.9585,N,08404.9843,W,2,12,0.80,307.35,M,-33.324,M,,*74
2017-11-16 15:55:48 1510865748.384334: $GPRMC,205547,A,3946.9585,N,08404.9843,W,0.0000,0.000,161117,,*38
2017-11-16 15:55:48 1510865748.384389: $GPGSA,A,3,11,10,14,31,18,25,21,24,15,32,12,138,1.6,0.8,1.3*0E
2017-11-16 15:55:49 1510865749.704499: $GPGSV,3,1,12,11,05,319,38,10,81,009,50,14,39,265,45,31,11,205,25*74
2017-11-16 15:55:50 1510865750.223381: $GPGSV,3,2,12,18,59,117,49,25,13,132,34,21,15,177,34,24,34,049,50*7E
2017-11-16 15:55:50 1510865750.223520: $GPGSV,3,3,12,15,02,075,30,32,55,283,48,12,17,094,48,138,38,213,45*4D
2017-11-16 15:55:50 1510865750.223630: $GPZDA,205548.00,16,11,2017,00,00*6B
2017-11-16 15:55:50 1510865750.223684: $GPGGA,205548,3946.9585,N,08404.9843,W,2,12,0.80,307.35,M,-33.324,M,,*7B
2017-11-16 15:55:50 1510865750.223741: $GPRMC,205548,A,3946.9585,N,08404.9843,W,0.0000,0.000,161117,,*37
2017-11-16 15:55:50 1510865750.223795: $GPGSA,A,3,11,10,14,31,18,25,21,24,15,32,12,138,1.6,0.8,1.3*0E
2017-11-16 15:55:50 1510865750.382415: $GPZDA,205549.00,16,11,2017,00,00*6A
2017-11-16 15:55:50 1510865750.382594: $GPGGA,205549,3946.9585,N,08404.9843,W,2,12,0.80,307.35,M,-33.324,M,,*7A
2017-11-16 15:55:50 1510865750.382657: $GPRMC,205549,A,3946.9585,N,08404.9843,W,0.0000,0.000,161117,,*36
2017-11-16 15:55:50 1510865750.382713: $GPGSA,A,3,11,10,14,31,18,25,21,24,15,32,12,138,1.6,0.8,1.3*0E
2017-11-16 15:55:51 1510865751.366545: $GPZDA,205550.00,16,11,2017,00,00*62
2017-11-16 15:55:51 1510865751.366729: $GPGGA,205550,3946.9585,N,08404.9843,W,2,12,0.80,307.35,M,-33.324,M,,*72
2017-11-16 15:55:51 1510865751.366790: $GPRMC,205550,A,3946.9585,N,08404.9843,W,0.0000,0.000,161117,,*3E
2017-11-16 15:55:51 1510865751.366846: $GPGSA,A,3,11,10,14,31,18,25,21,24,15,32,12,138,1.6,0.8,1.3*0E
2017-11-16 15:55:52 1510865752.712375: $GPGSV,3,1,12,11,05,319,37,10,81,009,50,14,39,265,44,31,11,205,25*7A
2017-11-16 15:55:52 1510865752.712544: $GPGSV,3,2,12,18,59,117,48,25,13,132,35,21,15,177,34,24,34,049,50*7E
2017-11-16 15:55:52 1510865752.712604: $GPGSV,3,3,12,15,02,075,30,32,55,283,48,12,17,094,48,138,38,213,44*4C
2017-11-16 15:55:52 1510865752.826192: $GPZDA,205551.00,16,11,2017,00,00*63
2017-11-16 15:55:52 1510865752.826386: $GPGGA,205551,3946.9585,N,08404.9843,W,2,12,0.80,307.35,M,-33.324,M,,*73
2017-11-16 15:55:52 1510865752.826453: $GPRMC,205551,A,3946.9585,N,08404.9843,W,0.0000,0.000,161117,,*3F
2017-11-16 15:55:52 1510865752.826509: $GPGSA,A,3,11,10,14,31,18,25,21,24,15,32,12,138,1.6,0.8,1.3*0E
2017-11-16 15:55:53 1510865753.367852: $GPZDA,205552.00,16,11,2017,00,00*60
2017-11-16 15:55:53 1510865753.368027: $GPGGA,205552,3946.9585,N,08404.9843,W,2,12,0.80,307.35,M,-33.324,M,,*70
2017-11-16 15:55:53 1510865753.368089: $GPRMC,205552,A,3946.9585,N,08404.9843,W,0.0000,0.000,161117,,*3C
2017-11-16 15:55:53 1510865753.368146: $GPGSA,A,3,11,10,14,31,18,25,21,24,15,32,12,138,1.6,0.8,1.3*0E
2017-11-16 15:55:54 1510865754.366226: $GPZDA,205553.00,16,11,2017,00,00*61
2017-11-16 15:55:54 1510865754.366491: $GPGGA,205553,3946.9585,N,08404.9843,W,2,12,0.80,307.35,M,-33.324,M,,*71
2017-11-16 15:55:54 1510865754.366557: $GPRMC,205553,A,3946.9585,N,08404.9843,W,0.0000,0.000,161117,,*3D
2017-11-16 15:55:54 1510865754.366613: $GPGSA,A,3,11,10,14,31,18,25,21,24,15,32,12,138,1.6,0.8,1.3*0E
2017-11-16 15:55:55 1510865755.703250: $GPGSV,3,1,12,11,05,319,36,10,81,009,50,14,39,265,44,31,11,205,25*7B
2017-11-16 15:55:55 1510865755.703455: $GPGSV,3,2,12,18,59,117,48,25,13,132,34,21,15,177,33,24,34,049,50*78
2017-11-16 15:55:55 1510865755.703516: $GPGSV,3,3,12,15,02,075,28,32,55,283,48,12,17,094,48,138,38,213,45*44
2017-11-16 15:55:55 1510865755.816584: $GPZDA,205554.00,16,11,2017,00,00*66
2017-11-16 15:55:55 1510865755.816786: $GPGGA,205554,3946.9585,N,08404.9843,W,2,12,0.80,307.35,M,-33.324,M,,*76
2017-11-16 15:55:55 1510865755.816874: $GPRMC,205554,A,3946.9585,N,08404.9843,W,0.0000,0.000,161117,,*3A
2017-11-16 15:55:55 1510865755.816931: $GPGSA,A,3,11,10,14,31,18,25,21,24,15,32,12,138,1.6,0.8,1.3*0E
2017-11-16 15:55:56 1510865756.441948: $GPZDA,205555.00,16,11,2017,00,00*67
2017-11-16 15:55:56 1510865756.442108: $GPGGA,205555,3946.9585,N,08404.9843,W,2,12,0.80,307.35,M,-33.324,M,,*77
2017-11-16 15:55:56 1510865756.442170: $GPRMC,205555,A,3946.9585,N,08404.9843,W,0.0000,0.000,161117,,*3B
2017-11-16 15:55:56 1510865756.442225: $GPGSA,A,3,11,10,14,31,18,25,21,24,15,32,12,138,1.6,0.8,1.3*0E
