2018-01-11 19:48:39 1515718119.230189: {"class":"VERSION","release":"3.16","rev":"3.16-4","proto_major":3,"proto_minor":11}
2018-01-11 19:48:39 1515718119.230587: {"class":"DEVICES","devices":[{"class":"DEVICE","path":"/dev/ttyUSB0","driver":"SiRF","subtype":"9\u0006GSD4e_4.1.2-P1_RPATCH.05-F-GPS-4R-1510281 11/03/2015 307","activated":"2018-01-12T00:48:38.552Z","flags":1,"native":1,"bps":4800,"parity":"N","stopbits":1,"cycle":1.00}]}
2018-01-11 19:48:39 1515718119.230698: {"class":"WATCH","enable":true,"json":false,"nmea":true,"raw":0,"scaled":false,"timing":false,"split24":false,"pps":false}
2018-01-11 19:48:39 1515718119.411807: $GPZDA,004840.00,12,01,2018,00,00*67
2018-01-11 19:48:39 1515718119.411980: $GPGGA,004840,3946.9564,N,08404.9813,W,2,11,0.80,313.73,M,-33.324,M,,*73
2018-01-11 19:48:39 1515718119.412047: $GPRMC,004840,A,3946.9564,N,08404.9813,W,0.0000,0.000,120118,,*31
2018-01-11 19:48:39 1515718119.412107: $GPGSA,A,3,7,8,9,16,23,27,30,11,26,28,138,,4.0,0.8,3.5*3A
2018-01-11 19:48:40 1515718120.747907: $GPGSV,3,1,11,07,46,310,43,08,65,154,45,09,54,244,44,16,31,054,46*7D
2018-01-11 19:48:40 1515718120.748083: $GPGSV,3,2,11,23,39,193,48,27,55,064,49,30,21,303,36,11,12,171,30*7C
2018-01-11 19:48:40 1515718120.748151: $GPGSV,3,3,11,26,05,067,16,28,07,250,28,138,38,213,45*7E
2018-01-11 19:48:40 1515718120.861623: $GPZDA,004841.00,12,01,2018,00,00*66
2018-01-11 19:48:40 1515718120.861737: $GPGGA,004841,3946.9564,N,08404.9813,W,2,11,0.80,313.73,M,-33.324,M,,*72
2018-01-11 19:48:40 1515718120.861800: $GPRMC,004841,A,3946.9564,N,08404.9813,W,0.0000,0.000,120118,,*30
2018-01-11 19:48:40 1515718120.861859: $GPGSA,A,3,7,8,9,16,23,27,30,11,26,28,138,,4.0,0.8,3.5*3A
2018-01-11 19:48:41 1515718121.411356: $GPZDA,004842.00,12,01,2018,00,00*65
2018-01-11 19:48:41 1515718121.411531: $GPGGA,004842,3946.9560,N,08404.9813,W,2,11,0.80,313.09,M,-33.324,M,,*78
2018-01-11 19:48:41 1515718121.411599: $GPRMC,004842,A,3946.9560,N,08404.9813,W,0.0000,0.000,120118,,*37
2018-01-11 19:48:41 1515718121.411659: $GPGSA,A,3,7,8,9,16,23,27,30,11,26,28,138,,4.0,0.8,3.5*3A
2018-01-11 19:48:42 1515718122.415839: $GPZDA,004843.00,12,01,2018,00,00*64
2018-01-11 19:48:42 1515718122.415996: $GPGGA,004843,3946.9560,N,08404.9813,W,2,11,0.80,313.09,M,-33.324,M,,*79
2018-01-11 19:48:42 1515718122.416062: $GPRMC,004843,A,3946.9560,N,08404.9813,W,0.0000,0.000,120118,,*36
2018-01-11 19:48:42 1515718122.416123: $GPGSA,A,3,7,8,9,16,23,27,30,11,26,28,138,,4.0,0.8,3.5*3A
2018-01-11 19:48:43 1515718123.758829: $GPGSV,3,1,11,07,46,310,42,08,65,154,45,09,54,244,44,16,31,054,46*7C
2018-01-11 19:48:43 1515718123.759015: $GPGSV,3,2,11,23,39,193,48,27,55,064,49,30,21,303,35,11,12,171,31*7E
2018-01-11 19:48:43 1515718123.759141: $GPGSV,3,3,11,26,05,067,18,28,07,250,28,138,38,213,44*71
2018-01-11 19:48:43 1515718123.872612: $GPZDA,004844.00,12,01,2018,00,00*63
2018-01-11 19:48:43 1515718123.872758: $GPGGA,004844,3946.9564,N,08404.9813,W,2,11,0.80,313.73,M,-33.324,M,,*77
2018-01-11 19:48:43 1515718123.872824: $GPRMC,004844,A,3946.9564,N,08404.9813,W,0.0000,0.000,120118,,*35
2018-01-11 19:48:43 1515718123.872885: $GPGSA,A,3,7,8,9,16,23,27,30,11,26,28,138,,4.0,0.8,3.5*3A
2018-01-11 19:48:44 1515718124.422009: $GPZDA,004845.00,12,01,2018,00,00*62
2018-01-11 19:48:44 1515718124.422216: $GPGGA,004845,3946.9564,N,08404.9813,W,2,11,0.80,313.73,M,-33.324,M,,*76
2018-01-11 19:48:44 1515718124.422283: $GPRMC,004845,A,3946.9564,N,08404.9813,W,0.0000,0.000,120118,,*34
2018-01-11 19:48:44 1515718124.422344: $GPGSA,A,3,7,8,9,16,23,27,30,11,26,28,138,,4.0,0.8,3.5*3A
2018-01-11 19:48:45 1515718125.427405: $GPZDA,004846.00,12,01,2018,00,00*61
2018-01-11 19:48:45 1515718125.427578: $GPGGA,004846,3946.9564,N,08404.9813,W,2,11,0.80,313.73,M,-33.324,M,,*75
2018-01-11 19:48:45 1515718125.427645: $GPRMC,004846,A,3946.9564,N,08404.9813,W,0.0000,0.000,120118,,*37
2018-01-11 19:48:45 1515718125.427705: $GPGSA,A,3,7,8,9,16,23,27,30,11,26,28,138,,4.0,0.8,3.5*3A
2018-01-11 19:48:46 1515718126.762899: $GPGSV,3,1,11,07,46,310,42,08,65,154,45,09,54,244,43,16,31,054,46*7B
2018-01-11 19:48:46 1515718126.763170: $GPGSV,3,2,11,23,39,193,49,27,55,064,49,30,21,303,35,11,12,171,31*7F
2018-01-11 19:48:46 1515718126.763242: $GPGSV,3,3,11,26,05,067,19,28,07,250,29,138,38,213,45*70
2018-01-11 19:48:46 1515718126.876467: $GPZDA,004847.00,12,01,2018,00,00*60
2018-01-11 19:48:46 1515718126.876621: $GPGGA,004847,3946.9567,N,08404.9812,W,2,11,0.80,312.97,M,-33.324,M,,*7D
2018-01-11 19:48:46 1515718126.876687: $GPRMC,004847,A,3946.9567,N,08404.9812,W,0.0000,0.000,120118,,*34
2018-01-11 19:48:46 1515718126.876747: $GPGSA,A,3,7,8,9,16,23,27,30,11,26,28,138,,4.0,0.8,3.5*3A
2018-01-11 19:48:47 1515718127.428769: $GPZDA,004848.00,12,01,2018,00,00*6F
2018-01-11 19:48:47 1515718127.428938: $GPGGA,004848,3946.9567,N,08404.9812,W,2,11,0.80,312.97,M,-33.324,M,,*72
2018-01-11 19:48:47 1515718127.429089: $GPRMC,004848,A,3946.9567,N,08404.9812,W,0.0000,0.000,120118,,*3B
2018-01-11 19:48:47 1515718127.429177: $GPGSA,A,3,7,8,9,16,23,27,30,11,26,28,138,,4.0,0.8,3.5*3A
