2017-12-29 10:48:46 1514562526.055891: {"class":"VERSION","release":"3.16","rev":"3.16-4","proto_major":3,"proto_minor":11}
2017-12-29 10:48:46 1514562526.056226: {"class":"DEVICES","devices":[{"class":"DEVICE","path":"/dev/ttyUSB0","driver":"SiRF","subtype":"9\u0006GSD4e_4.1.2-P1_RPATCH.05-F-GPS-4R-1510281 11/03/2015 307","activated":"2017-12-29T15:48:45.984Z","flags":1,"native":1,"bps":4800,"parity":"N","stopbits":1,"cycle":1.00}]}
2017-12-29 10:48:46 1514562526.056340: {"class":"WATCH","enable":true,"json":false,"nmea":true,"raw":0,"scaled":false,"timing":false,"split24":false,"pps":false}
2017-12-29 10:48:46 1514562526.437150: $GPZDA,154847.00,29,12,2017,00,00*61
2017-12-29 10:48:46 1514562526.437318: $GPGGA,154847,3946.9603,N,08404.9833,W,2,11,0.80,305.01,M,-33.324,M,,*72
2017-12-29 10:48:46 1514562526.437383: $GPRMC,154847,A,3946.9603,N,08404.9833,W,0.0000,0.000,291217,,*37
2017-12-29 10:48:46 1514562526.437443: $GPGSA,A,3,10,13,15,18,20,21,24,27,32,29,138,,1.7,0.8,1.3*02
2017-12-29 10:48:47 1514562527.439284: $GPZDA,154848.00,29,12,2017,00,00*6E
2017-12-29 10:48:47 1514562527.439453: $GPGGA,154848,3946.9603,N,08404.9833,W,2,11,0.80,305.01,M,-33.324,M,,*7D
2017-12-29 10:48:47 1514562527.439518: $GPRMC,154848,A,3946.9603,N,08404.9833,W,0.0000,0.000,291217,,*38
2017-12-29 10:48:47 1514562527.439578: $GPGSA,A,3,10,13,15,18,20,21,24,27,32,29,138,,1.7,0.8,1.3*02
2017-12-29 10:48:48 1514562528.779755: $GPGSV,3,1,11,10,32,291,41,13,19,046,44,15,49,049,50,18,63,315,44*76
2017-12-29 10:48:48 1514562528.779903: $GPGSV,3,2,11,20,44,084,50,21,76,211,47,24,43,127,50,27,19,303,40*79
2017-12-29 10:48:48 1514562528.779967: $GPGSV,3,3,11,32,11,231,31,29,01,186,30,138,38,213,44*7D
2017-12-29 10:48:48 1514562528.893369: $GPZDA,154849.00,29,12,2017,00,00*6F
2017-12-29 10:48:48 1514562528.893494: $GPGGA,154849,3946.9603,N,08404.9833,W,2,11,0.80,305.01,M,-33.324,M,,*7C
2017-12-29 10:48:48 1514562528.893558: $GPRMC,154849,A,3946.9603,N,08404.9833,W,0.0000,0.000,291217,,*39
2017-12-29 10:48:48 1514562528.893617: $GPGSA,A,3,10,13,15,18,20,21,24,27,32,29,138,,1.7,0.8,1.3*02
2017-12-29 10:48:49 1514562529.518768: $GPZDA,154850.00,29,12,2017,00,00*67
2017-12-29 10:48:49 1514562529.518918: $GPGGA,154850,3946.9603,N,08404.9833,W,2,11,0.80,305.01,M,-33.324,M,,*74
2017-12-29 10:48:49 1514562529.518982: $GPRMC,154850,A,3946.9603,N,08404.9833,W,0.0000,0.000,291217,,*31
2017-12-29 10:48:49 1514562529.519042: $GPGSA,A,3,10,13,15,18,20,21,24,27,32,29,138,,1.7,0.8,1.3*02
2017-12-29 10:48:50 1514562530.402194: $GPZDA,154851.00,29,12,2017,00,00*66
2017-12-29 10:48:50 1514562530.402354: $GPGGA,154851,3946.9603,N,08404.9833,W,2,11,0.80,305.01,M,-33.324,M,,*75
2017-12-29 10:48:50 1514562530.402420: $GPRMC,154851,A,3946.9603,N,08404.9833,W,0.0000,0.000,291217,,*30
2017-12-29 10:48:50 1514562530.402481: $GPGSA,A,3,10,13,15,18,20,21,24,27,32,29,138,,1.7,0.8,1.3*02
2017-12-29 10:48:51 1514562531.775113: $GPGSV,3,1,11,10,32,291,40,13,19,046,44,15,49,049,50,18,63,315,44*77
2017-12-29 10:48:51 1514562531.775270: $GPGSV,3,2,11,20,44,084,50,21,76,211,47,24,43,127,50,27,19,303,40*79
2017-12-29 10:48:51 1514562531.775336: $GPGSV,3,3,11,32,11,231,31,29,01,186,27,138,38,213,45*7A
2017-12-29 10:48:51 1514562531.888731: $GPZDA,154852.00,29,12,2017,00,00*65
2017-12-29 10:48:51 1514562531.888859: $GPGGA,154852,3946.9603,N,08404.9833,W,2,11,0.80,305.01,M,-33.324,M,,*76
2017-12-29 10:48:51 1514562531.888922: $GPRMC,154852,A,3946.9603,N,08404.9833,W,0.0000,0.000,291217,,*33
2017-12-29 10:48:51 1514562531.888981: $GPGSA,A,3,10,13,15,18,20,21,24,27,32,29,138,,1.7,0.8,1.3*02
2017-12-29 10:48:52 1514562532.438392: $GPZDA,154853.00,29,12,2017,00,00*64
2017-12-29 10:48:52 1514562532.438548: $GPGGA,154853,3946.9603,N,08404.9833,W,2,11,0.80,305.01,M,-33.324,M,,*77
2017-12-29 10:48:52 1514562532.438614: $GPRMC,154853,A,3946.9603,N,08404.9833,W,0.0000,0.000,291217,,*32
2017-12-29 10:48:52 1514562532.438675: $GPGSA,A,3,10,13,15,18,20,21,24,27,32,29,138,,1.7,0.8,1.3*02
2017-12-29 10:48:53 1514562533.404257: $GPZDA,154854.00,29,12,2017,00,00*63
2017-12-29 10:48:53 1514562533.404406: $GPGGA,154854,3946.9603,N,08404.9833,W,2,11,0.80,305.01,M,-33.324,M,,*70
2017-12-29 10:48:53 1514562533.404525: $GPRMC,154854,A,3946.9603,N,08404.9833,W,0.0000,0.000,291217,,*35
2017-12-29 10:48:53 1514562533.404587: $GPGSA,A,3,10,13,15,18,20,21,24,27,32,29,138,,1.7,0.8,1.3*02
2017-12-29 10:48:54 1514562534.774221: $GPGSV,3,1,11,10,32,291,41,13,19,046,44,15,49,049,50,18,63,315,44*76
2017-12-29 10:48:54 1514562534.774387: $GPGSV,3,2,11,20,44,084,50,21,76,211,47,24,43,127,50,27,19,303,40*79
2017-12-29 10:48:54 1514562534.774452: $GPGSV,3,3,11,32,11,231,32,29,01,186,00,138,38,213,45*7C
2017-12-29 10:48:54 1514562534.887825: $GPZDA,154855.00,29,12,2017,00,00*62
2017-12-29 10:48:54 1514562534.887947: $GPGGA,154855,3946.9603,N,08404.9833,W,2,10,0.80,305.01,M,-33.324,M,,*70
2017-12-29 10:48:54 1514562534.888011: $GPRMC,154855,A,3946.9603,N,08404.9833,W,0.0000,0.000,291217,,*34
2017-12-29 10:48:54 1514562534.888070: $GPGSA,A,3,10,13,15,18,20,21,24,27,32,138,,,1.7,0.8,1.3*09
2017-12-29 10:48:55 1514562535.402520: $GPZDA,154856.00,29,12,2017,00,00*61
2017-12-29 10:48:55 1514562535.402706: $GPGGA,154856,3946.9603,N,08404.9833,W,2,10,0.80,305.01,M,-33.324,M,,*73
2017-12-29 10:48:55 1514562535.402773: $GPRMC,154856,A,3946.9603,N,08404.9833,W,0.0000,0.000,291217,,*37
2017-12-29 10:48:55 1514562535.402834: $GPGSA,A,3,10,13,15,18,20,21,24,27,32,138,,,1.7,0.8,1.3*09
2017-12-29 10:48:56 1514562536.438350: $GPZDA,154857.00,29,12,2017,00,00*60
2017-12-29 10:48:56 1514562536.438518: $GPGGA,154857,3946.9603,N,08404.9833,W,2,10,0.80,305.01,M,-33.324,M,,*72
2017-12-29 10:48:56 1514562536.438584: $GPRMC,154857,A,3946.9603,N,08404.9833,W,0.0000,0.000,291217,,*36
2017-12-29 10:48:56 1514562536.438644: $GPGSA,A,3,10,13,15,18,20,21,24,27,32,138,,,1.7,0.8,1.3*09
2017-12-29 10:48:57 1514562537.773837: $GPGSV,3,1,11,10,32,291,41,13,19,046,44,15,49,049,50,18,63,315,44*76
2017-12-29 10:48:57 1514562537.773999: $GPGSV,3,2,11,20,44,084,50,21,76,211,47,24,43,127,50,27,19,303,40*79
2017-12-29 10:48:57 1514562537.774065: $GPGSV,3,3,11,32,11,231,32,29,01,186,16,138,38,213,45*7B
2017-12-29 10:48:57 1514562537.887454: $GPZDA,154858.00,29,12,2017,00,00*6F
2017-12-29 10:48:57 1514562537.887587: $GPGGA,154858,3946.9603,N,08404.9833,W,2,10,0.80,305.01,M,-33.324,M,,*7D
2017-12-29 10:48:57 1514562537.887650: $GPRMC,154858,A,3946.9603,N,08404.9833,W,0.0000,0.000,291217,,*39
2017-12-29 10:48:57 1514562537.887710: $GPGSA,A,3,10,13,15,18,20,21,24,27,32,138,,,1.7,0.8,1.3*09
2017-12-29 10:48:58 1514562538.399589: $GPZDA,154859.00,29,12,2017,00,00*6E
2017-12-29 10:48:58 1514562538.399742: $GPGGA,154859,3946.9603,N,08404.9833,W,2,10,0.80,305.01,M,-33.324,M,,*7C
2017-12-29 10:48:58 1514562538.399806: $GPRMC,154859,A,3946.9603,N,08404.9833,W,0.0000,0.000,291217,,*38
2017-12-29 10:48:58 1514562538.399865: $GPGSA,A,3,10,13,15,18,20,21,24,27,32,138,,,1.7,0.8,1.3*09
2017-12-29 10:48:59 1514562539.439740: $GPZDA,154900.00,29,12,2017,00,00*63
2017-12-29 10:48:59 1514562539.439911: $GPGGA,154900,3946.9603,N,08404.9833,W,2,10,0.80,305.01,M,-33.324,M,,*71
2017-12-29 10:48:59 1514562539.439977: $GPRMC,154900,A,3946.9603,N,08404.9833,W,0.0000,0.000,291217,,*35
2017-12-29 10:48:59 1514562539.440038: $GPGSA,A,3,10,13,15,18,20,21,24,27,32,138,,,1.7,0.8,1.3*09
2017-12-29 10:49:00 1514562540.737969: $GPGSV,3,1,11,10,32,291,41,13,19,046,44,15,49,049,50,18,63,315,44*76
2017-12-29 10:49:00 1514562540.738144: $GPGSV,3,2,11,20,44,084,50,21,76,211,47,24,43,127,50,27,19,303,40*79
2017-12-29 10:49:00 1514562540.738209: $GPGSV,3,3,11,32,11,231,32,29,01,186,25,138,38,213,45*7B
2017-12-29 10:49:00 1514562540.850337: $GPZDA,154901.00,29,12,2017,00,00*62
2017-12-29 10:49:00 1514562540.850447: $GPGGA,154901,3946.9603,N,08404.9833,W,2,11,0.80,305.01,M,-33.324,M,,*71
2017-12-29 10:49:00 1514562540.850510: $GPRMC,154901,A,3946.9603,N,08404.9833,W,0.0000,0.000,291217,,*34
2017-12-29 10:49:00 1514562540.850570: $GPGSA,A,3,10,13,15,18,20,21,24,27,32,29,138,,1.7,0.8,1.3*02
