2017-12-31 18:55:44 1514764544.340479: {"class":"VERSION","release":"3.16","rev":"3.16-4","proto_major":3,"proto_minor":11}
2017-12-31 18:55:44 1514764544.340826: {"class":"DEVICES","devices":[{"class":"DEVICE","path":"/dev/ttyUSB0","driver":"SiRF","activated":"2017-12-31T23:55:44.278Z","flags":1,"native":1,"bps":4800,"parity":"N","stopbits":1,"cycle":1.00}]}
2017-12-31 18:55:44 1514764544.340924: {"class":"WATCH","enable":true,"json":false,"nmea":true,"raw":0,"scaled":false,"timing":false,"split24":false,"pps":false}
2017-12-31 18:55:44 1514764544.391641: $GPZDA,235545.00,31,12,2017,00,00*63
2017-12-31 18:55:44 1514764544.391775: $GPGGA,235545,3946.9582,N,08404.9817,W,2,11,0.80,311.24,M,-33.324,M,,*77
2017-12-31 18:55:44 1514764544.391840: $GPRMC,235545,A,3946.9582,N,08404.9817,W,0.0000,0.000,311217,,*39
2017-12-31 18:55:44 1514764544.391900: $GPGSA,A,3,22,23,9,3,16,8,31,27,7,26,135,,1.7,0.8,1.3*09
2017-12-31 18:55:45 1514764545.728190: $GPGSV,3,1,11,22,06,202,20,23,69,274,40,09,38,309,35,03,16,219,33*74
2017-12-31 18:55:45 1514764545.728371: $GPGSV,3,2,11,16,74,036,44,08,18,175,43,31,15,090,26,27,42,141,41*75
2017-12-31 18:55:45 1514764545.728437: $GPGSV,3,3,11,07,12,286,32,26,42,048,48,135,22,240,42*75
2017-12-31 18:55:45 1514764545.841777: $GPZDA,235546.00,31,12,2017,00,00*60
2017-12-31 18:55:45 1514764545.841902: $GPGGA,235546,3946.9582,N,08404.9817,W,2,11,0.80,311.24,M,-33.324,M,,*74
2017-12-31 18:55:45 1514764545.841965: $GPRMC,235546,A,3946.9582,N,08404.9817,W,0.0000,0.000,311217,,*3A
2017-12-31 18:55:45 1514764545.842026: $GPGSA,A,3,22,23,9,3,16,8,31,27,7,26,135,,1.7,0.8,1.3*09
2017-12-31 18:55:46 1514764546.392685: $GPZDA,235547.00,31,12,2017,00,00*61
2017-12-31 18:55:46 1514764546.392853: $GPGGA,235547,3946.9582,N,08404.9817,W,2,11,0.80,311.24,M,-33.324,M,,*75
2017-12-31 18:55:46 1514764546.392919: $GPRMC,235547,A,3946.9582,N,08404.9817,W,0.0000,0.000,311217,,*3B
2017-12-31 18:55:46 1514764546.392980: $GPGSA,A,3,22,23,9,3,16,8,31,27,7,26,135,,1.7,0.8,1.3*09
2017-12-31 18:55:47 1514764547.391033: $GPZDA,235548.00,31,12,2017,00,00*6E
2017-12-31 18:55:47 1514764547.391203: $GPGGA,235548,3946.9582,N,08404.9817,W,2,11,1.00,311.24,M,-33.324,M,,*73
2017-12-31 18:55:47 1514764547.391269: $GPRMC,235548,A,3946.9582,N,08404.9817,W,0.0000,0.000,311217,,*34
2017-12-31 18:55:47 1514764547.391330: $GPGSA,A,3,22,23,9,3,16,8,31,27,7,26,135,,1.7,1.0,1.3*00
2017-12-31 18:55:48 1514764548.720276: $GPGSV,3,1,11,22,06,202,21,23,69,274,39,09,38,309,35,03,16,219,33*7B
2017-12-31 18:55:48 1514764548.720441: $GPGSV,3,2,11,16,74,036,45,08,18,175,43,31,15,090,23,27,42,141,41*71
2017-12-31 18:55:48 1514764548.720507: $GPGSV,3,3,11,07,12,286,33,26,42,048,48,135,22,240,44*72
2017-12-31 18:55:48 1514764548.833875: $GPZDA,235549.00,31,12,2017,00,00*6F
2017-12-31 18:55:48 1514764548.834012: $GPGGA,235549,3946.9582,N,08404.9817,W,2,11,0.80,311.24,M,-33.324,M,,*7B
2017-12-31 18:55:48 1514764548.834076: $GPRMC,235549,A,3946.9582,N,08404.9817,W,0.0000,0.000,311217,,*35
2017-12-31 18:55:48 1514764548.834136: $GPGSA,A,3,22,23,9,3,16,8,31,27,7,26,135,,1.7,0.8,1.3*09
2017-12-31 18:55:49 1514764549.353507: $GPZDA,235550.00,31,12,2017,00,00*67
2017-12-31 18:55:49 1514764549.353679: $GPGGA,235550,3946.9582,N,08404.9817,W,2,11,0.80,311.24,M,-33.324,M,,*73
2017-12-31 18:55:49 1514764549.353746: $GPRMC,235550,A,3946.9582,N,08404.9817,W,0.0000,0.000,311217,,*3D
2017-12-31 18:55:49 1514764549.353806: $GPGSA,A,3,22,23,9,3,16,8,31,27,7,26,135,,1.7,0.8,1.3*09
2017-12-31 18:55:50 1514764550.392406: $GPZDA,235551.00,31,12,2017,00,00*66
2017-12-31 18:55:50 1514764550.392582: $GPGGA,235551,3946.9582,N,08404.9817,W,2,11,0.80,311.24,M,-33.324,M,,*72
2017-12-31 18:55:50 1514764550.392649: $GPRMC,235551,A,3946.9582,N,08404.9817,W,0.0000,0.000,311217,,*3C
2017-12-31 18:55:50 1514764550.392709: $GPGSA,A,3,22,23,9,3,16,8,31,27,7,26,135,,1.7,0.8,1.3*09
2017-12-31 18:55:51 1514764551.728145: $GPGSV,3,1,11,22,06,202,23,23,69,274,39,09,38,309,35,03,16,219,34*7E
2017-12-31 18:55:51 1514764551.728305: $GPGSV,3,2,11,16,74,036,45,08,18,175,43,31,15,090,28,27,42,141,40*7B
2017-12-31 18:55:51 1514764551.728413: $GPGSV,3,3,11,07,12,286,34,26,42,048,48,135,22,240,44*75
2017-12-31 18:55:51 1514764551.841470: $GPZDA,235552.00,31,12,2017,00,00*65
2017-12-31 18:55:51 1514764551.841598: $GPGGA,235552,3946.9582,N,08404.9817,W,2,11,0.80,311.24,M,-33.324,M,,*71
2017-12-31 18:55:51 1514764551.841663: $GPRMC,235552,A,3946.9582,N,08404.9817,W,0.0000,0.000,311217,,*3F
2017-12-31 18:55:51 1514764551.841724: $GPGSA,A,3,22,23,9,3,16,8,31,27,7,26,135,,1.7,0.8,1.3*09
2017-12-31 18:55:52 1514764552.352435: $GPZDA,235553.00,31,12,2017,00,00*64
2017-12-31 18:55:52 1514764552.352612: $GPGGA,235553,3946.9582,N,08404.9817,W,2,11,0.80,311.24,M,-33.324,M,,*70
2017-12-31 18:55:52 1514764552.352684: $GPRMC,235553,A,3946.9582,N,08404.9817,W,0.0000,0.000,311217,,*3E
2017-12-31 18:55:52 1514764552.352748: $GPGSA,A,3,22,23,9,3,16,8,31,27,7,26,135,,1.7,0.8,1.3*09
2017-12-31 18:55:53 1514764553.392272: $GPZDA,235554.00,31,12,2017,00,00*63
2017-12-31 18:55:53 1514764553.392447: $GPGGA,235554,3946.9582,N,08404.9824,W,2,11,0.80,311.16,M,-33.324,M,,*76
2017-12-31 18:55:53 1514764553.392516: $GPRMC,235554,A,3946.9582,N,08404.9824,W,0.0000,0.000,311217,,*39
2017-12-31 18:55:53 1514764553.392580: $GPGSA,A,3,22,23,9,3,16,8,31,27,7,26,135,,1.7,0.8,1.3*09
