2017-12-01 16:58:31 1512165511.007433: {"class":"VERSION","release":"3.16","rev":"3.16-4","proto_major":3,"proto_minor":11}
2017-12-01 16:58:31 1512165511.007815: {"class":"DEVICES","devices":[{"class":"DEVICE","path":"/dev/ttyUSB0","driver":"SiRF","subtype":"9\u0006GSD4e_4.1.2-P1_RPATCH.05-F-GPS-4R-1510281 11/03/2015 307","activated":"2017-12-01T21:58:30.537Z","flags":1,"native":1,"bps":4800,"parity":"N","stopbits":1,"cycle":1.00}]}
2017-12-01 16:58:31 1512165511.007949: {"class":"WATCH","enable":true,"json":false,"nmea":true,"raw":0,"scaled":false,"timing":false,"split24":false,"pps":false}
2017-12-01 16:58:31 1512165511.404877: $GPZDA,215832.00,01,12,2017,00,00*6F
2017-12-01 16:58:31 1512165511.405074: $GPGGA,215832,3946.9636,N,08404.9771,W,2,11,0.60,300.81,M,-33.324,M,,*7A
2017-12-01 16:58:31 1512165511.405142: $GPRMC,215832,A,3946.9636,N,08404.9771,W,0.0000,0.000,011217,,*36
2017-12-01 16:58:31 1512165511.405203: $GPGSA,A,3,1,3,10,12,22,26,31,32,18,25,138,,2.0,0.6,1.5*01
2017-12-01 16:58:32 1512165512.734660: $GPGSV,3,1,11,01,22,288,41,03,10,316,40,10,35,153,39,12,16,039,28*71
2017-12-01 16:58:32 1512165512.734863: $GPGSV,3,2,11,22,29,309,41,26,13,180,36,31,69,241,48,32,63,058,50*7C
2017-12-01 16:58:32 1512165512.734932: $GPGSV,3,3,11,18,06,147,23,25,40,073,29,138,38,213,36*7D
2017-12-01 16:58:32 1512165512.846844: $GPZDA,215833.00,01,12,2017,00,00*6E
2017-12-01 16:58:32 1512165512.847032: $GPGGA,215833,3946.9636,N,08404.9771,W,2,11,0.60,300.81,M,-33.324,M,,*7B
2017-12-01 16:58:32 1512165512.847099: $GPRMC,215833,A,3946.9636,N,08404.9771,W,0.0000,0.000,011217,,*37
2017-12-01 16:58:32 1512165512.847161: $GPGSA,A,3,1,3,10,12,22,26,31,32,18,25,138,,2.0,0.6,1.5*01
2017-12-01 16:58:33 1512165513.403981: $GPZDA,215834.00,01,12,2017,00,00*69
2017-12-01 16:58:33 1512165513.404156: $GPGGA,215834,3946.9636,N,08404.9771,W,2,11,0.60,300.81,M,-33.324,M,,*7C
2017-12-01 16:58:33 1512165513.404224: $GPRMC,215834,A,3946.9636,N,08404.9771,W,0.0000,0.000,011217,,*30
2017-12-01 16:58:33 1512165513.404285: $GPGSA,A,3,1,3,10,12,22,26,31,32,18,25,138,,2.0,0.6,1.5*01
2017-12-01 16:58:34 1512165514.402406: $GPZDA,215835.00,01,12,2017,00,00*68
2017-12-01 16:58:34 1512165514.402542: $GPGGA,215835,3946.9636,N,08404.9771,W,2,11,0.60,300.81,M,-33.324,M,,*7D
2017-12-01 16:58:34 1512165514.402608: $GPRMC,215835,A,3946.9636,N,08404.9771,W,0.0000,0.000,011217,,*31
2017-12-01 16:58:34 1512165514.402669: $GPGSA,A,3,1,3,10,12,22,26,31,32,18,25,138,,2.0,0.6,1.5*01
2017-12-01 16:58:35 1512165515.755533: $GPGSV,3,1,11,01,22,288,41,03,10,316,39,10,35,153,39,12,16,039,28*7F
2017-12-01 16:58:35 1512165515.755711: $GPGSV,3,2,11,22,29,309,40,26,13,180,35,31,69,241,48,32,63,058,50*7E
2017-12-01 16:58:35 1512165515.755777: $GPGSV,3,3,11,18,06,147,23,25,40,073,28,138,38,213,39*73
2017-12-01 16:58:35 1512165515.867675: $GPZDA,215836.00,01,12,2017,00,00*6B
2017-12-01 16:58:35 1512165515.867839: $GPGGA,215836,3946.9636,N,08404.9771,W,2,11,0.60,300.81,M,-33.324,M,,*7E
2017-12-01 16:58:35 1512165515.867906: $GPRMC,215836,A,3946.9636,N,08404.9771,W,0.0000,0.000,011217,,*32
2017-12-01 16:58:35 1512165515.867983: $GPGSA,A,3,1,3,10,12,22,26,31,32,18,25,138,,2.0,0.6,1.5*01
2017-12-01 16:58:36 1512165516.397323: $GPZDA,215837.00,01,12,2017,00,00*6A
2017-12-01 16:58:36 1512165516.397500: $GPGGA,215837,3946.9636,N,08404.9771,W,2,11,0.60,300.81,M,-33.324,M,,*7F
2017-12-01 16:58:36 1512165516.397568: $GPRMC,215837,A,3946.9636,N,08404.9771,W,0.0000,0.000,011217,,*33
2017-12-01 16:58:36 1512165516.397628: $GPGSA,A,3,1,3,10,12,22,26,31,32,18,25,138,,2.0,0.6,1.5*01
2017-12-01 16:58:37 1512165517.422028: $GPZDA,215838.00,01,12,2017,00,00*65
2017-12-01 16:58:37 1512165517.422201: $GPGGA,215838,3946.9636,N,08404.9771,W,2,11,0.60,300.81,M,-33.324,M,,*70
2017-12-01 16:58:37 1512165517.422268: $GPRMC,215838,A,3946.9636,N,08404.9771,W,0.0000,0.000,011217,,*3C
2017-12-01 16:58:37 1512165517.422330: $GPGSA,A,3,1,3,10,12,22,26,31,32,18,25,138,,2.0,0.6,1.5*01
2017-12-01 16:58:38 1512165518.754753: $GPGSV,3,1,11,01,22,288,41,03,10,316,40,10,35,153,38,12,16,039,27*7F
2017-12-01 16:58:38 1512165518.755020: $GPGSV,3,2,11,22,29,309,41,26,13,180,35,31,69,241,48,32,63,058,50*7F
2017-12-01 16:58:38 1512165518.755091: $GPGSV,3,3,11,18,06,147,22,25,40,073,28,138,38,213,40*7C
2017-12-01 16:58:38 1512165518.868313: $GPZDA,215839.00,01,12,2017,00,00*64
2017-12-01 16:58:38 1512165518.868500: $GPGGA,215839,3946.9636,N,08404.9771,W,2,11,0.60,300.81,M,-33.324,M,,*71
2017-12-01 16:58:38 1512165518.868568: $GPRMC,215839,A,3946.9636,N,08404.9771,W,0.0000,0.000,011217,,*3D
2017-12-01 16:58:38 1512165518.868630: $GPGSA,A,3,1,3,10,12,22,26,31,32,18,25,138,,2.0,0.6,1.5*01
2017-12-01 16:58:39 1512165519.419083: $GPZDA,215840.00,01,12,2017,00,00*6A
2017-12-01 16:58:39 1512165519.419252: $GPGGA,215840,3946.9636,N,08404.9771,W,2,11,0.60,300.81,M,-33.324,M,,*7F
2017-12-01 16:58:39 1512165519.419320: $GPRMC,215840,A,3946.9636,N,08404.9771,W,0.0000,0.000,011217,,*33
2017-12-01 16:58:39 1512165519.419381: $GPGSA,A,3,1,3,10,12,22,26,31,32,18,25,138,,2.0,0.6,1.5*01
2017-12-01 16:58:40 1512165520.419908: $GPZDA,215841.00,01,12,2017,00,00*6B
2017-12-01 16:58:40 1512165520.420087: $GPGGA,215841,3946.9636,N,08404.9771,W,2,11,0.60,300.81,M,-33.324,M,,*7E
2017-12-01 16:58:40 1512165520.420154: $GPRMC,215841,A,3946.9636,N,08404.9771,W,0.0000,0.000,011217,,*32
2017-12-01 16:58:40 1512165520.420215: $GPGSA,A,3,1,3,10,12,22,26,31,32,18,25,138,,2.0,0.6,1.5*01
2017-12-01 16:58:41 1512165521.740618: $GPGSV,3,1,11,01,22,288,40,03,10,316,39,10,35,153,38,12,16,039,27*70
2017-12-01 16:58:41 1512165521.740825: $GPGSV,3,2,11,22,29,309,42,26,13,180,35,31,69,241,47,32,63,058,50*73
2017-12-01 16:58:41 1512165521.740893: $GPGSV,3,3,11,18,06,147,22,25,40,073,27,138,38,213,40*73
2017-12-01 16:58:41 1512165521.852827: $GPZDA,215842.00,01,12,2017,00,00*68
2017-12-01 16:58:41 1512165521.853031: $GPGGA,215842,3946.9636,N,08404.9771,W,2,11,0.60,300.81,M,-33.324,M,,*7D
2017-12-01 16:58:41 1512165521.853099: $GPRMC,215842,A,3946.9636,N,08404.9771,W,0.0000,0.000,011217,,*31
2017-12-01 16:58:41 1512165521.853160: $GPGSA,A,3,1,3,10,12,22,26,31,32,18,25,138,,2.0,0.6,1.5*01
2017-12-01 16:58:42 1512165522.479432: $GPZDA,215843.00,01,12,2017,00,00*69
2017-12-01 16:58:42 1512165522.479599: $GPGGA,215843,3946.9636,N,08404.9771,W,2,11,0.60,300.81,M,-33.324,M,,*7C
2017-12-01 16:58:42 1512165522.479667: $GPRMC,215843,A,3946.9636,N,08404.9771,W,0.0000,0.000,011217,,*30
2017-12-01 16:58:42 1512165522.479728: $GPGSA,A,3,1,3,10,12,22,26,31,32,18,25,138,,2.0,0.6,1.5*01
2017-12-01 16:58:43 1512165523.405363: $GPZDA,215844.00,01,12,2017,00,00*6E
2017-12-01 16:58:43 1512165523.405537: $GPGGA,215844,3946.9636,N,08404.9771,W,2,11,0.60,300.81,M,-33.324,M,,*7B
2017-12-01 16:58:43 1512165523.405604: $GPRMC,215844,A,3946.9636,N,08404.9771,W,0.0000,0.000,011217,,*37
2017-12-01 16:58:43 1512165523.405665: $GPGSA,A,3,1,3,10,12,22,26,31,32,18,25,138,,2.0,0.6,1.5*01
2017-12-01 16:58:44 1512165524.755976: $GPGSV,3,1,11,01,22,288,40,03,10,316,40,10,35,153,39,12,16,039,27*7F
2017-12-01 16:58:44 1512165524.756160: $GPGSV,3,2,11,22,29,309,42,26,13,180,35,31,69,241,47,32,63,058,49*7B
2017-12-01 16:58:44 1512165524.756227: $GPGSV,3,3,11,18,06,147,22,25,40,073,22,138,38,213,39*78
2017-12-01 16:58:44 1512165524.869352: $GPZDA,215845.00,01,12,2017,00,00*6F
2017-12-01 16:58:44 1512165524.869494: $GPGGA,215845,3946.9636,N,08404.9771,W,2,11,0.60,300.81,M,-33.324,M,,*7A
2017-12-01 16:58:44 1512165524.869561: $GPRMC,215845,A,3946.9636,N,08404.9771,W,0.0000,0.000,011217,,*36
2017-12-01 16:58:44 1512165524.869664: $GPGSA,A,3,1,3,10,12,22,26,31,32,18,25,138,,2.0,0.6,1.5*01
2017-12-01 16:58:45 1512165525.405524: $GPZDA,215846.00,01,12,2017,00,00*6C
2017-12-01 16:58:45 1512165525.405707: $GPGGA,215846,3946.9636,N,08404.9771,W,2,11,0.60,300.81,M,-33.324,M,,*79
2017-12-01 16:58:45 1512165525.405796: $GPRMC,215846,A,3946.9636,N,08404.9771,W,0.0000,0.000,011217,,*35
2017-12-01 16:58:45 1512165525.405859: $GPGSA,A,3,1,3,10,12,22,26,31,32,18,25,138,,2.0,0.6,1.5*01
2017-12-01 16:58:46 1512165526.420080: $GPZDA,215847.00,01,12,2017,00,00*6D
2017-12-01 16:58:46 1512165526.420252: $GPGGA,215847,3946.9636,N,08404.9771,W,2,11,0.60,300.81,M,-33.324,M,,*78
2017-12-01 16:58:46 1512165526.420367: $GPRMC,215847,A,3946.9636,N,08404.9771,W,0.0000,0.000,011217,,*34
2017-12-01 16:58:46 1512165526.420429: $GPGSA,A,3,1,3,10,12,22,26,31,32,18,25,138,,2.0,0.6,1.5*01
2017-12-01 16:58:47 1512165527.755203: $GPGSV,3,1,11,01,22,288,40,03,10,316,40,10,35,153,38,12,16,039,26*7F
2017-12-01 16:58:47 1512165527.755417: $GPGSV,3,2,11,22,29,309,42,26,13,180,35,31,69,241,47,32,63,058,50*73
2017-12-01 16:58:47 1512165527.755483: $GPGSV,3,3,11,18,06,147,22,25,40,073,22,138,38,213,41*77
2017-12-01 16:58:47 1512165527.868462: $GPZDA,215848.00,01,12,2017,00,00*62
2017-12-01 16:58:47 1512165527.868642: $GPGGA,215848,3946.9636,N,08404.9771,W,2,11,0.60,300.81,M,-33.324,M,,*77
2017-12-01 16:58:47 1512165527.868709: $GPRMC,215848,A,3946.9636,N,08404.9771,W,0.0000,0.000,011217,,*3B
2017-12-01 16:58:47 1512165527.868804: $GPGSA,A,3,1,3,10,12,22,26,31,32,18,25,138,,2.0,0.6,1.5*01
2017-12-01 16:58:48 1512165528.420594: $GPZDA,215849.00,01,12,2017,00,00*63
2017-12-01 16:58:48 1512165528.420799: $GPGGA,215849,3946.9636,N,08404.9771,W,2,11,0.60,300.81,M,-33.324,M,,*76
2017-12-01 16:58:48 1512165528.420899: $GPRMC,215849,A,3946.9636,N,08404.9771,W,0.0000,0.000,011217,,*3A
2017-12-01 16:58:48 1512165528.420963: $GPGSA,A,3,1,3,10,12,22,26,31,32,18,25,138,,2.0,0.6,1.5*01
2017-12-01 16:58:49 1512165529.406693: $GPZDA,215850.00,01,12,2017,00,00*6B
2017-12-01 16:58:49 1512165529.406899: $GPGGA,215850,3946.9636,N,08404.9771,W,2,11,0.60,300.81,M,-33.324,M,,*7E
2017-12-01 16:58:49 1512165529.406968: $GPRMC,215850,A,3946.9636,N,08404.9771,W,0.0000,0.000,011217,,*32
2017-12-01 16:58:49 1512165529.407029: $GPGSA,A,3,1,3,10,12,22,26,31,32,18,25,138,,2.0,0.6,1.5*01
2017-12-01 16:58:50 1512165530.755998: $GPGSV,3,1,11,01,22,288,40,03,10,316,40,10,35,153,38,12,16,039,26*7F
2017-12-01 16:58:50 1512165530.756184: $GPGSV,3,2,11,22,29,309,43,26,13,180,36,31,69,241,47,32,63,058,50*71
2017-12-01 16:58:50 1512165530.756251: $GPGSV,3,3,11,18,06,147,22,25,40,073,23,138,38,213,41*76
2017-12-01 16:58:50 1512165530.869600: $GPZDA,215851.00,01,12,2017,00,00*6A
2017-12-01 16:58:50 1512165530.869854: $GPGGA,215851,3946.9636,N,08404.9771,W,2,11,0.60,300.81,M,-33.324,M,,*7F
2017-12-01 16:58:50 1512165530.869947: $GPRMC,215851,A,3946.9636,N,08404.9771,W,0.0000,0.000,011217,,*33
2017-12-01 16:58:50 1512165530.870009: $GPGSA,A,3,1,3,10,12,22,26,31,32,18,25,138,,2.0,0.6,1.5*01
