2017-11-16 14:52:41 1510861961.166820: {"class":"VERSION","release":"3.17","rev":"3.17","proto_major":3,"proto_minor":12}
2017-11-16 14:52:41 1510861961.167279: {"class":"DEVICES","devices":[{"class":"DEVICE","path":"/dev/ttyUSB0","driver":"SiRF","subtype":"9\u0006GSD4e_4.1.2-P1_RPATCH.05-F-GPS-4R-1510281 11/03/2015 307","activated":"2017-11-16T19:52:40.632Z","flags":1,"native":1,"bps":4800,"parity":"N","stopbits":1,"cycle":1.00}]}
2017-11-16 14:52:41 1510861961.167401: {"class":"WATCH","enable":true,"json":false,"nmea":true,"raw":0,"scaled":false,"timing":false,"split24":false,"pps":false}
2017-11-16 14:52:41 1510861961.490775: $GPZDA,195240.00,16,11,2017,00,00*6E
2017-11-16 14:52:41 1510861961.490960: $GPGGA,195240,3946.9572,N,08404.9841,W,2,11,0.80,302.62,M,-33.324,M,,*70
2017-11-16 14:52:41 1510861961.491020: $GPRMC,195240,A,3946.9572,N,08404.9841,W,0.0000,0.000,161117,,*38
2017-11-16 14:52:41 1510861961.491076: $GPGSA,A,3,8,10,15,18,21,20,24,27,32,14,138,,1.6,0.8,1.3*37
2017-11-16 14:52:42 1510861962.828951: $GPGSV,3,1,11,08,08,306,17,10,56,315,50,15,22,058,50,18,77,040,45*78
2017-11-16 14:52:42 1510861962.829133: $GPGSV,3,2,11,21,45,183,47,20,19,109,42,24,52,079,50,27,14,271,40*7D
2017-11-16 14:52:42 1510861962.829194: $GPGSV,3,3,11,32,35,252,48,14,18,243,43,138,38,213,44*78
2017-11-16 14:52:42 1510861962.942340: $GPZDA,195241.00,16,11,2017,00,00*6F
2017-11-16 14:52:42 1510861962.942517: $GPGGA,195241,3946.9572,N,08404.9841,W,2,11,0.80,302.62,M,-33.324,M,,*71
2017-11-16 14:52:42 1510861962.942579: $GPRMC,195241,A,3946.9572,N,08404.9841,W,0.0000,0.000,161117,,*39
2017-11-16 14:52:42 1510861962.942635: $GPGSA,A,3,8,10,15,18,21,20,24,27,32,14,138,,1.6,0.8,1.3*37
2017-11-16 14:52:43 1510861963.490971: $GPZDA,195242.00,16,11,2017,00,00*6C
2017-11-16 14:52:43 1510861963.491143: $GPGGA,195242,3946.9572,N,08404.9841,W,2,11,0.80,302.62,M,-33.324,M,,*72
2017-11-16 14:52:43 1510861963.491220: $GPRMC,195242,A,3946.9572,N,08404.9841,W,0.0000,0.000,161117,,*3A
2017-11-16 14:52:43 1510861963.491278: $GPGSA,A,3,8,10,15,18,21,20,24,27,32,14,138,,1.6,0.8,1.3*37
2017-11-16 14:52:44 1510861964.486112: $GPZDA,195243.00,16,11,2017,00,00*6D
2017-11-16 14:52:44 1510861964.486273: $GPGGA,195243,3946.9572,N,08404.9848,W,2,11,0.80,302.54,M,-33.324,M,,*7F
2017-11-16 14:52:44 1510861964.486334: $GPRMC,195243,A,3946.9572,N,08404.9848,W,0.0000,0.000,161117,,*32
2017-11-16 14:52:44 1510861964.486390: $GPGSA,A,3,8,10,15,18,21,20,24,27,32,14,138,,1.6,0.8,1.3*37
2017-11-16 14:52:45 1510861965.826903: $GPGSV,3,1,11,08,08,306,20,10,56,315,50,15,22,058,50,18,77,040,45*7C
2017-11-16 14:52:45 1510861965.827070: $GPGSV,3,2,11,21,45,183,47,20,19,109,42,24,52,079,50,27,14,271,40*7D
2017-11-16 14:52:45 1510861965.827130: $GPGSV,3,3,11,32,35,252,48,14,18,243,42,138,38,213,43*7E
2017-11-16 14:52:45 1510861965.940128: $GPZDA,195244.00,16,11,2017,00,00*6A
2017-11-16 14:52:45 1510861965.940331: $GPGGA,195244,3946.9572,N,08404.9848,W,2,11,0.80,302.54,M,-33.324,M,,*78
2017-11-16 14:52:45 1510861965.940400: $GPRMC,195244,A,3946.9572,N,08404.9848,W,0.0000,0.000,161117,,*35
2017-11-16 14:52:45 1510861965.940457: $GPGSA,A,3,8,10,15,18,21,20,24,27,32,14,138,,1.6,0.8,1.3*37
2017-11-16 14:52:46 1510861966.491136: $GPZDA,195245.00,16,11,2017,00,00*6B
2017-11-16 14:52:46 1510861966.491305: $GPGGA,195245,3946.9572,N,08404.9848,W,2,11,0.80,302.54,M,-33.324,M,,*79
2017-11-16 14:52:46 1510861966.491366: $GPRMC,195245,A,3946.9572,N,08404.9848,W,0.0000,0.000,161117,,*34
2017-11-16 14:52:46 1510861966.491422: $GPGSA,A,3,8,10,15,18,21,20,24,27,32,14,138,,1.6,0.8,1.3*37
2017-11-16 14:52:47 1510861967.492014: $GPZDA,195246.00,16,11,2017,00,00*68
2017-11-16 14:52:47 1510861967.492174: $GPGGA,195246,3946.9572,N,08404.9848,W,2,11,0.80,302.54,M,-33.324,M,,*7A
2017-11-16 14:52:47 1510861967.492236: $GPRMC,195246,A,3946.9572,N,08404.9848,W,0.0000,0.000,161117,,*37
2017-11-16 14:52:47 1510861967.492292: $GPGSA,A,3,8,10,15,18,21,20,24,27,32,14,138,,1.6,0.8,1.3*37
2017-11-16 14:52:48 1510861968.829042: $GPGSV,3,1,11,08,08,306,24,10,56,315,50,15,22,058,50,18,77,040,45*78
2017-11-16 14:52:48 1510861968.829261: $GPGSV,3,2,11,21,45,183,47,20,19,109,42,24,52,079,48,27,14,271,40*74
2017-11-16 14:52:48 1510861968.829323: $GPGSV,3,3,11,32,35,252,47,14,18,243,42,138,38,213,43*71
2017-11-16 14:52:48 1510861968.942331: $GPZDA,195247.00,16,11,2017,00,00*69
2017-11-16 14:52:48 1510861968.942505: $GPGGA,195247,3946.9572,N,08404.9848,W,2,11,0.80,302.54,M,-33.324,M,,*7B
2017-11-16 14:52:48 1510861968.942565: $GPRMC,195247,A,3946.9572,N,08404.9848,W,0.0000,0.000,161117,,*36
2017-11-16 14:52:48 1510861968.942621: $GPGSA,A,3,8,10,15,18,21,20,24,27,32,14,138,,1.6,0.8,1.3*37
2017-11-16 14:52:49 1510861969.567761: $GPZDA,195248.00,16,11,2017,00,00*66
2017-11-16 14:52:49 1510861969.567925: $GPGGA,195248,3946.9572,N,08404.9848,W,2,11,0.80,302.54,M,-33.324,M,,*74
2017-11-16 14:52:49 1510861969.567988: $GPRMC,195248,A,3946.9572,N,08404.9848,W,0.0000,0.000,161117,,*39
2017-11-16 14:52:49 1510861969.568043: $GPGSA,A,3,8,10,15,18,21,20,24,27,32,14,138,,1.6,0.8,1.3*37
2017-11-16 14:52:50 1510861970.486107: $GPZDA,195249.00,16,11,2017,00,00*67
2017-11-16 14:52:50 1510861970.486281: $GPGGA,195249,3946.9572,N,08404.9848,W,2,11,0.80,302.54,M,-33.324,M,,*75
2017-11-16 14:52:50 1510861970.486363: $GPRMC,195249,A,3946.9572,N,08404.9848,W,0.0000,0.000,161117,,*38
2017-11-16 14:52:50 1510861970.486421: $GPGSA,A,3,8,10,15,18,21,20,24,27,32,14,138,,1.6,0.8,1.3*37
