2017-11-16 17:23:51 1510871031.730487: {"class":"VERSION","release":"3.17","rev":"3.17","proto_major":3,"proto_minor":12}
2017-11-16 17:23:51 1510871031.730953: {"class":"DEVICES","devices":[{"class":"DEVICE","path":"/dev/ttyUSB0","driver":"SiRF","subtype":"9\u0006GSD4e_4.1.2-P1_RPATCH.05-F-GPS-4R-1510281 11/03/2015 307","activated":"2017-11-16T22:23:51.287Z","flags":1,"native":1,"bps":4800,"parity":"N","stopbits":1,"cycle":1.00}]}
2017-11-16 17:23:51 1510871031.731068: {"class":"WATCH","enable":true,"json":false,"nmea":true,"raw":0,"scaled":false,"timing":false,"split24":false,"pps":false}
2017-11-16 17:23:51 1510871031.736838: $GPGSV,3,1,12,01,20,304,37,10,53,145,49,22,15,312,44,12,23,054,50*70
2017-11-16 17:23:51 1510871031.736927: $GPGSV,3,2,12,14,64,318,46,18,22,142,41,24,01,048,00,11,09,286,36*74
2017-11-16 17:23:51 1510871031.736985: $GPGSV,3,3,12,25,38,096,47,31,51,222,49,32,69,013,49,138,38,213,44*43
2017-11-16 17:23:51 1510871031.850272: $GPZDA,222350.00,16,11,2017,00,00*61
2017-11-16 17:23:51 1510871031.850436: $GPGGA,222350,3946.9574,N,08404.9830,W,2,11,0.80,308.39,M,-33.324,M,,*7B
2017-11-16 17:23:51 1510871031.850496: $GPRMC,222350,A,3946.9574,N,08404.9830,W,0.0000,0.000,161117,,*37
2017-11-16 17:23:51 1510871031.850551: $GPGSA,A,3,1,10,22,12,14,18,11,25,31,32,138,,1.6,0.8,1.3*3E
2017-11-16 17:23:52 1510871032.403573: $GPZDA,222351.00,16,11,2017,00,00*60
2017-11-16 17:23:52 1510871032.403753: $GPGGA,222351,3946.9574,N,08404.9830,W,2,11,0.80,308.39,M,-33.324,M,,*7A
2017-11-16 17:23:52 1510871032.403816: $GPRMC,222351,A,3946.9574,N,08404.9830,W,0.0000,0.000,161117,,*36
2017-11-16 17:23:52 1510871032.403870: $GPGSA,A,3,1,10,22,12,14,18,11,25,31,32,138,,1.6,0.8,1.3*3E
2017-11-16 17:23:53 1510871033.401934: $GPZDA,222352.00,16,11,2017,00,00*63
2017-11-16 17:23:53 1510871033.402100: $GPGGA,222352,3946.9574,N,08404.9830,W,2,11,0.80,308.39,M,-33.324,M,,*79
2017-11-16 17:23:53 1510871033.402162: $GPRMC,222352,A,3946.9574,N,08404.9830,W,0.0000,0.000,161117,,*35
2017-11-16 17:23:53 1510871033.402218: $GPGSA,A,3,1,10,22,12,14,18,11,25,31,32,138,,1.6,0.8,1.3*3E
2017-11-16 17:23:54 1510871034.739102: $GPGSV,3,1,12,01,20,304,38,10,53,145,49,22,15,312,44,12,23,054,50*7F
2017-11-16 17:23:54 1510871034.739281: $GPGSV,3,2,12,14,64,318,47,18,22,142,41,24,01,048,00,11,09,286,37*74
2017-11-16 17:23:54 1510871034.739341: $GPGSV,3,3,12,25,38,096,48,31,51,222,49,32,69,013,49,138,38,213,44*4C
2017-11-16 17:23:54 1510871034.852276: $GPZDA,222353.00,16,11,2017,00,00*62
2017-11-16 17:23:54 1510871034.852436: $GPGGA,222353,3946.9574,N,08404.9830,W,2,11,0.80,308.39,M,-33.324,M,,*78
2017-11-16 17:23:54 1510871034.852498: $GPRMC,222353,A,3946.9574,N,08404.9830,W,0.0000,0.000,161117,,*34
2017-11-16 17:23:54 1510871034.852553: $GPGSA,A,3,1,10,22,12,14,18,11,25,31,32,138,,1.6,0.8,1.3*3E
2017-11-16 17:23:55 1510871035.401892: $GPZDA,222354.00,16,11,2017,00,00*65
2017-11-16 17:23:55 1510871035.402056: $GPGGA,222354,3946.9574,N,08404.9830,W,2,11,0.80,308.39,M,-33.324,M,,*7F
2017-11-16 17:23:55 1510871035.402118: $GPRMC,222354,A,3946.9574,N,08404.9830,W,0.0000,0.000,161117,,*33
2017-11-16 17:23:55 1510871035.402173: $GPGSA,A,3,1,10,22,12,14,18,11,25,31,32,138,,1.6,0.8,1.3*3E
2017-11-16 17:23:56 1510871036.396264: $GPZDA,222355.00,16,11,2017,00,00*64
2017-11-16 17:23:56 1510871036.396414: $GPGGA,222355,3946.9574,N,08404.9830,W,2,11,0.80,308.39,M,-33.324,M,,*7E
2017-11-16 17:23:56 1510871036.396473: $GPRMC,222355,A,3946.9574,N,08404.9830,W,0.0000,0.000,161117,,*32
2017-11-16 17:23:56 1510871036.396529: $GPGSA,A,3,1,10,22,12,14,18,11,25,31,32,138,,1.6,0.8,1.3*3E
2017-11-16 17:23:57 1510871037.736825: $GPGSV,3,1,12,01,20,304,38,10,53,145,49,22,15,312,44,12,23,054,51*7E
2017-11-16 17:23:57 1510871037.736992: $GPGSV,3,2,12,14,64,318,46,18,22,142,41,24,01,048,00,11,09,286,37*75
2017-11-16 17:23:57 1510871037.737051: $GPGSV,3,3,12,25,38,096,48,31,51,222,49,32,69,013,49,138,38,213,44*4C
2017-11-16 17:23:57 1510871037.850104: $GPZDA,222356.00,16,11,2017,00,00*67
2017-11-16 17:23:57 1510871037.850265: $GPGGA,222356,3946.9574,N,08404.9830,W,2,11,0.80,308.39,M,-33.324,M,,*7D
2017-11-16 17:23:57 1510871037.850378: $GPRMC,222356,A,3946.9574,N,08404.9830,W,0.0000,0.000,161117,,*31
2017-11-16 17:23:57 1510871037.850436: $GPGSA,A,3,1,10,22,12,14,18,11,25,31,32,138,,1.6,0.8,1.3*3E
2017-11-16 17:23:58 1510871038.402390: $GPZDA,222357.00,16,11,2017,00,00*66
2017-11-16 17:23:58 1510871038.402553: $GPGGA,222357,3946.9570,N,08404.9830,W,2,11,0.80,307.75,M,-33.324,M,,*7F
2017-11-16 17:23:58 1510871038.402615: $GPRMC,222357,A,3946.9570,N,08404.9830,W,0.0000,0.000,161117,,*34
2017-11-16 17:23:58 1510871038.402670: $GPGSA,A,3,1,10,22,12,14,18,11,25,31,32,138,,1.6,0.8,1.3*3E
2017-11-16 17:23:59 1510871039.401952: $GPZDA,222358.00,16,11,2017,00,00*69
2017-11-16 17:23:59 1510871039.402118: $GPGGA,222358,3946.9570,N,08404.9830,W,2,11,0.80,307.75,M,-33.324,M,,*70
2017-11-16 17:23:59 1510871039.402180: $GPRMC,222358,A,3946.9570,N,08404.9830,W,0.0000,0.000,161117,,*3B
2017-11-16 17:23:59 1510871039.402236: $GPGSA,A,3,1,10,22,12,14,18,11,25,31,32,138,,1.6,0.8,1.3*3E
2017-11-16 17:24:00 1510871040.738046: $GPGSV,3,1,12,01,20,304,38,10,53,145,49,22,15,312,44,12,23,054,51*7E
2017-11-16 17:24:00 1510871040.738269: $GPGSV,3,2,12,14,64,318,46,18,22,142,41,24,01,048,00,11,09,286,37*75
2017-11-16 17:24:00 1510871040.738358: $GPGSV,3,3,12,25,38,096,47,31,51,222,49,32,69,013,49,138,38,213,44*43
2017-11-16 17:24:00 1510871040.851042: $GPZDA,222359.00,16,11,2017,00,00*68
2017-11-16 17:24:00 1510871040.851208: $GPGGA,222359,3946.9570,N,08404.9830,W,2,11,0.80,307.75,M,-33.324,M,,*71
2017-11-16 17:24:00 1510871040.851270: $GPRMC,222359,A,3946.9570,N,08404.9830,W,0.0000,0.000,161117,,*3A
2017-11-16 17:24:00 1510871040.851326: $GPGSA,A,3,1,10,22,12,14,18,11,25,31,32,138,,1.6,0.8,1.3*3E
2017-11-16 17:24:01 1510871041.476380: $GPZDA,222400.00,16,11,2017,00,00*63
2017-11-16 17:24:01 1510871041.476546: $GPGGA,222400,3946.9570,N,08404.9830,W,2,11,0.80,307.75,M,-33.324,M,,*7A
2017-11-16 17:24:01 1510871041.476607: $GPRMC,222400,A,3946.9570,N,08404.9830,W,0.0000,0.000,161117,,*31
2017-11-16 17:24:01 1510871041.476662: $GPGSA,A,3,1,10,22,12,14,18,11,25,31,32,138,,1.6,0.8,1.3*3E
