2017-12-01 12:22:24 1512148944.128037: {"class":"VERSION","release":"3.16","rev":"3.16-4","proto_major":3,"proto_minor":11}
2017-12-01 12:22:24 1512148944.128407: {"class":"DEVICES","devices":[{"class":"DEVICE","path":"/dev/ttyUSB0","driver":"SiRF","subtype":"9\u0006GSD4e_4.1.2-P1_RPATCH.05-F-GPS-4R-1510281 11/03/2015 307","activated":"2017-12-01T17:22:23.987Z","flags":1,"native":1,"bps":4800,"parity":"N","stopbits":1,"cycle":1.00}]}
2017-12-01 12:22:24 1512148944.128519: {"class":"WATCH","enable":true,"json":false,"nmea":true,"raw":0,"scaled":false,"timing":false,"split24":false,"pps":false}
2017-12-01 12:22:24 1512148944.396114: $GPZDA,172225.00,01,12,2017,00,00*61
2017-12-01 12:22:24 1512148944.396295: $GPGGA,172225,3946.9582,N,08404.9829,W,2,11,0.80,294.02,M,-33.324,M,,*73
2017-12-01 12:22:24 1512148944.396383: $GPRMC,172225,A,3946.9582,N,08404.9829,W,0.0000,0.000,011217,,*36
2017-12-01 12:22:24 1512148944.396447: $GPGSA,A,3,10,13,15,18,20,21,24,29,27,32,138,,2.0,0.8,1.5*00
2017-12-01 12:22:25 1512148945.399488: $GPZDA,172226.00,01,12,2017,00,00*62
2017-12-01 12:22:25 1512148945.399657: $GPGGA,172226,3946.9582,N,08404.9829,W,2,11,0.80,294.02,M,-33.324,M,,*70
2017-12-01 12:22:25 1512148945.399725: $GPRMC,172226,A,3946.9582,N,08404.9829,W,0.0000,0.000,011217,,*35
2017-12-01 12:22:25 1512148945.399787: $GPGSA,A,3,10,13,15,18,20,21,24,29,27,32,138,,2.0,0.8,1.5*00
2017-12-01 12:22:26 1512148946.720188: $GPGSV,3,1,12,10,25,285,39,13,27,045,45,15,59,051,46,18,56,303,46*7A
2017-12-01 12:22:26 1512148946.720344: $GPGSV,3,2,12,20,50,073,45,21,79,258,41,24,35,136,47,29,08,189,24*7C
2017-12-01 12:22:26 1512148946.720409: $GPGSV,3,3,12,27,17,312,35,32,02,226,22,05,02,088,04,138,38,213,45*49
2017-12-01 12:22:26 1512148946.833656: $GPZDA,172227.00,01,12,2017,00,00*63
2017-12-01 12:22:26 1512148946.833834: $GPGGA,172227,3946.9582,N,08404.9829,W,2,11,0.80,294.02,M,-33.324,M,,*71
2017-12-01 12:22:26 1512148946.833900: $GPRMC,172227,A,3946.9582,N,08404.9829,W,0.0000,0.000,011217,,*34
2017-12-01 12:22:26 1512148946.833962: $GPGSA,A,3,10,13,15,18,20,21,24,29,27,32,138,,2.0,0.8,1.5*00
2017-12-01 12:22:27 1512148947.401945: $GPZDA,172228.00,01,12,2017,00,00*6C
2017-12-01 12:22:27 1512148947.402128: $GPGGA,172228,3946.9582,N,08404.9829,W,2,11,0.80,294.02,M,-33.324,M,,*7E
2017-12-01 12:22:27 1512148947.402196: $GPRMC,172228,A,3946.9582,N,08404.9829,W,0.0000,0.000,011217,,*3B
2017-12-01 12:22:27 1512148947.402257: $GPGSA,A,3,10,13,15,18,20,21,24,29,27,32,138,,2.0,0.8,1.5*00
2017-12-01 12:22:28 1512148948.401017: $GPZDA,172229.00,01,12,2017,00,00*6D
2017-12-01 12:22:28 1512148948.401202: $GPGGA,172229,3946.9582,N,08404.9829,W,2,11,0.80,294.02,M,-33.324,M,,*7F
2017-12-01 12:22:28 1512148948.401270: $GPRMC,172229,A,3946.9582,N,08404.9829,W,0.0000,0.000,011217,,*3A
2017-12-01 12:22:28 1512148948.401331: $GPGSA,A,3,10,13,15,18,20,21,24,29,27,32,138,,2.0,0.8,1.5*00
2017-12-01 12:22:29 1512148949.719280: $GPGSV,3,1,12,10,25,285,40,13,27,045,44,15,59,051,46,18,56,303,46*75
2017-12-01 12:22:29 1512148949.719467: $GPGSV,3,2,12,20,50,073,45,21,79,258,41,24,35,136,48,29,08,189,22*75
2017-12-01 12:22:29 1512148949.719535: $GPGSV,3,3,12,27,17,312,35,32,02,226,26,05,02,088,21,138,38,213,45*4A
2017-12-01 12:22:29 1512148949.832618: $GPZDA,172230.00,01,12,2017,00,00*65
2017-12-01 12:22:29 1512148949.832740: $GPGGA,172230,3946.9582,N,08404.9829,W,2,11,0.80,294.02,M,-33.324,M,,*77
2017-12-01 12:22:29 1512148949.832806: $GPRMC,172230,A,3946.9582,N,08404.9829,W,0.0000,0.000,011217,,*32
2017-12-01 12:22:29 1512148949.832867: $GPGSA,A,3,10,13,15,18,20,21,24,29,27,32,138,,2.0,0.8,1.5*00
2017-12-01 12:22:30 1512148950.402330: $GPZDA,172231.00,01,12,2017,00,00*64
2017-12-01 12:22:30 1512148950.402501: $GPGGA,172231,3946.9582,N,08404.9829,W,2,11,0.80,294.02,M,-33.324,M,,*76
2017-12-01 12:22:30 1512148950.402569: $GPRMC,172231,A,3946.9582,N,08404.9829,W,0.0000,0.000,011217,,*33
2017-12-01 12:22:30 1512148950.402629: $GPGSA,A,3,10,13,15,18,20,21,24,29,27,32,138,,2.0,0.8,1.5*00
2017-12-01 12:22:31 1512148951.384354: $GPZDA,172232.00,01,12,2017,00,00*67
2017-12-01 12:22:31 1512148951.384578: $GPGGA,172232,3946.9582,N,08404.9829,W,2,11,0.80,294.02,M,-33.324,M,,*75
2017-12-01 12:22:31 1512148951.384648: $GPRMC,172232,A,3946.9582,N,08404.9829,W,0.0000,0.000,011217,,*30
2017-12-01 12:22:31 1512148951.384708: $GPGSA,A,3,10,13,15,18,20,21,24,29,27,32,138,,2.0,0.8,1.5*00
2017-12-01 12:22:32 1512148952.720126: $GPGSV,3,1,12,10,25,285,39,13,27,045,45,15,59,051,46,18,56,303,46*7A
2017-12-01 12:22:32 1512148952.720307: $GPGSV,3,2,12,20,50,073,45,21,79,258,41,24,35,136,48,29,08,189,29*7E
2017-12-01 12:22:32 1512148952.720374: $GPGSV,3,3,12,27,17,312,36,32,02,226,27,05,02,088,00,138,38,213,46*48
2017-12-01 12:22:32 1512148952.833800: $GPZDA,172233.00,01,12,2017,00,00*66
2017-12-01 12:22:32 1512148952.833973: $GPGGA,172233,3946.9582,N,08404.9829,W,2,11,0.80,294.02,M,-33.324,M,,*74
2017-12-01 12:22:32 1512148952.834040: $GPRMC,172233,A,3946.9582,N,08404.9829,W,0.0000,0.000,011217,,*31
2017-12-01 12:22:32 1512148952.834101: $GPGSA,A,3,10,13,15,18,20,21,24,29,27,32,138,,2.0,0.8,1.5*00
2017-12-01 12:22:33 1512148953.459172: $GPZDA,172234.00,01,12,2017,00,00*61
2017-12-01 12:22:33 1512148953.459345: $GPGGA,172234,3946.9582,N,08404.9829,W,2,11,0.80,294.02,M,-33.324,M,,*73
2017-12-01 12:22:33 1512148953.459412: $GPRMC,172234,A,3946.9582,N,08404.9829,W,0.0000,0.000,011217,,*36
2017-12-01 12:22:33 1512148953.459473: $GPGSA,A,3,10,13,15,18,20,21,24,29,27,32,138,,2.0,0.8,1.5*00
