2017-11-16 15:10:30 1510863030.437183: {"class":"VERSION","release":"3.17","rev":"3.17","proto_major":3,"proto_minor":12}
2017-11-16 15:10:30 1510863030.437637: {"class":"DEVICES","devices":[{"class":"DEVICE","path":"/dev/ttyUSB0","driver":"SiRF","subtype":"9\u0006GSD4e_4.1.2-P1_RPATCH.05-F-GPS-4R-1510281 11/03/2015 307","activated":"2017-11-16T20:10:30.405Z","flags":1,"native":1,"bps":4800,"parity":"N","stopbits":1,"cycle":1.00}]}
2017-11-16 15:10:30 1510863030.437776: {"class":"WATCH","enable":true,"json":false,"nmea":true,"raw":0,"scaled":false,"timing":false,"split24":false,"pps":false}
2017-11-16 15:10:31 1510863031.742717: $GPGSV,3,1,12,08,07,300,34,10,63,322,50,14,24,249,44,15,16,063,38*70
2017-11-16 15:10:31 1510863031.742908: $GPGSV,3,2,12,18,75,073,47,20,13,114,32,21,36,181,44,24,49,067,50*73
2017-11-16 15:10:31 1510863031.742984: $GPGSV,3,3,12,27,10,265,42,32,41,258,47,12,05,112,24,138,38,213,44*42
2017-11-16 15:10:31 1510863031.855873: $GPZDA,201030.00,16,11,2017,00,00*65
2017-11-16 15:10:31 1510863031.856043: $GPGGA,201030,3946.9582,N,08404.9846,W,2,12,0.80,300.25,M,-33.324,M,,*71
2017-11-16 15:10:31 1510863031.856105: $GPRMC,201030,A,3946.9582,N,08404.9846,W,0.0000,0.000,161117,,*3B
2017-11-16 15:10:31 1510863031.856179: $GPGSA,A,3,8,10,14,15,18,20,21,24,27,32,12,138,1.6,0.8,1.3*34
2017-11-16 15:10:32 1510863032.390543: $GPZDA,201031.00,16,11,2017,00,00*64
2017-11-16 15:10:32 1510863032.390725: $GPGGA,201031,3946.9582,N,08404.9846,W,2,12,0.80,300.25,M,-33.324,M,,*70
2017-11-16 15:10:32 1510863032.390787: $GPRMC,201031,A,3946.9582,N,08404.9846,W,0.0000,0.000,161117,,*3A
2017-11-16 15:10:32 1510863032.390843: $GPGSA,A,3,8,10,14,15,18,20,21,24,27,32,12,138,1.6,0.8,1.3*34
2017-11-16 15:10:33 1510863033.402667: $GPZDA,201032.00,16,11,2017,00,00*67
2017-11-16 15:10:33 1510863033.402839: $GPGGA,201032,3946.9582,N,08404.9846,W,2,12,0.80,300.25,M,-33.324,M,,*73
2017-11-16 15:10:33 1510863033.402901: $GPRMC,201032,A,3946.9582,N,08404.9846,W,0.0000,0.000,161117,,*39
2017-11-16 15:10:33 1510863033.402957: $GPGSA,A,3,8,10,14,15,18,20,21,24,27,32,12,138,1.6,0.8,1.3*34
2017-11-16 15:10:34 1510863034.742465: $GPGSV,3,1,12,08,07,300,35,10,63,322,50,14,24,249,44,15,16,063,39*70
2017-11-16 15:10:34 1510863034.742653: $GPGSV,3,2,12,18,75,073,46,20,13,114,32,21,36,181,44,24,49,067,50*72
2017-11-16 15:10:34 1510863034.742713: $GPGSV,3,3,12,27,10,265,42,32,41,258,47,12,05,112,25,138,38,213,44*43
2017-11-16 15:10:34 1510863034.855360: $GPZDA,201033.00,16,11,2017,00,00*66
2017-11-16 15:10:34 1510863034.855587: $GPGGA,201033,3946.9582,N,08404.9846,W,2,12,0.80,300.25,M,-33.324,M,,*72
2017-11-16 15:10:34 1510863034.855648: $GPRMC,201033,A,3946.9582,N,08404.9846,W,0.0000,0.000,161117,,*38
2017-11-16 15:10:34 1510863034.855705: $GPGSA,A,3,8,10,14,15,18,20,21,24,27,32,12,138,1.6,0.8,1.3*34
2017-11-16 15:10:35 1510863035.389985: $GPZDA,201034.00,16,11,2017,00,00*61
2017-11-16 15:10:35 1510863035.390169: $GPGGA,201034,3946.9582,N,08404.9846,W,2,12,0.80,300.25,M,-33.324,M,,*75
2017-11-16 15:10:35 1510863035.390231: $GPRMC,201034,A,3946.9582,N,08404.9846,W,0.0000,0.000,161117,,*3F
2017-11-16 15:10:35 1510863035.390486: $GPGSA,A,3,8,10,14,15,18,20,21,24,27,32,12,138,1.6,0.8,1.3*34
2017-11-16 15:10:36 1510863036.407763: $GPZDA,201035.00,16,11,2017,00,00*60
2017-11-16 15:10:36 1510863036.407945: $GPGGA,201035,3946.9582,N,08404.9846,W,2,12,0.80,300.25,M,-33.324,M,,*74
2017-11-16 15:10:36 1510863036.408008: $GPRMC,201035,A,3946.9582,N,08404.9846,W,0.0000,0.000,161117,,*3E
2017-11-16 15:10:36 1510863036.408064: $GPGSA,A,3,8,10,14,15,18,20,21,24,27,32,12,138,1.6,0.8,1.3*34
2017-11-16 15:10:37 1510863037.743470: $GPGSV,3,1,12,08,07,300,36,10,63,322,50,14,24,249,44,15,16,063,39*73
2017-11-16 15:10:37 1510863037.743639: $GPGSV,3,2,12,18,75,073,47,20,13,114,31,21,36,181,44,24,49,067,49*78
2017-11-16 15:10:37 1510863037.743700: $GPGSV,3,3,12,27,10,265,42,32,41,258,47,12,05,112,25,138,38,213,44*43
2017-11-16 15:10:37 1510863037.856959: $GPZDA,201036.00,16,11,2017,00,00*63
2017-11-16 15:10:37 1510863037.857137: $GPGGA,201036,3946.9582,N,08404.9846,W,2,12,0.80,300.25,M,-33.324,M,,*77
2017-11-16 15:10:37 1510863037.857249: $GPRMC,201036,A,3946.9582,N,08404.9846,W,0.0000,0.000,161117,,*3D
2017-11-16 15:10:37 1510863037.857307: $GPGSA,A,3,8,10,14,15,18,20,21,24,27,32,12,138,1.6,0.8,1.3*34
2017-11-16 15:10:38 1510863038.400040: $GPZDA,201037.00,16,11,2017,00,00*62
2017-11-16 15:10:38 1510863038.400213: $GPGGA,201037,3946.9582,N,08404.9846,W,2,12,0.80,300.25,M,-33.324,M,,*76
2017-11-16 15:10:38 1510863038.400274: $GPRMC,201037,A,3946.9582,N,08404.9846,W,0.0000,0.000,161117,,*3C
2017-11-16 15:10:38 1510863038.400424: $GPGSA,A,3,8,10,14,15,18,20,21,24,27,32,12,138,1.6,0.8,1.3*34
2017-11-16 15:10:39 1510863039.405880: $GPZDA,201038.00,16,11,2017,00,00*6D
2017-11-16 15:10:39 1510863039.406055: $GPGGA,201038,3946.9582,N,08404.9846,W,2,12,0.80,300.25,M,-33.324,M,,*79
2017-11-16 15:10:39 1510863039.406116: $GPRMC,201038,A,3946.9582,N,08404.9846,W,0.0000,0.000,161117,,*33
2017-11-16 15:10:39 1510863039.406172: $GPGSA,A,3,8,10,14,15,18,20,21,24,27,32,12,138,1.6,0.8,1.3*34
