2017-12-29 14:45:20 1514576720.541391: {"class":"VERSION","release":"3.16","rev":"3.16-4","proto_major":3,"proto_minor":11}
2017-12-29 14:45:20 1514576720.541813: {"class":"DEVICES","devices":[{"class":"DEVICE","path":"/dev/ttyUSB0","driver":"SiRF","subtype":"9\u0006GSD4e_4.1.2-P1_RPATCH.05-F-GPS-4R-1510281 11/03/2015 307","activated":"2017-12-29T19:45:20.234Z","flags":1,"native":1,"bps":4800,"parity":"N","stopbits":1,"cycle":1.00}]}
2017-12-29 14:45:20 1514576720.541927: {"class":"WATCH","enable":true,"json":false,"nmea":true,"raw":0,"scaled":false,"timing":false,"split24":false,"pps":false}
2017-12-29 14:45:20 1514576720.683145: $GPGSV,3,1,12,01,22,297,38,26,07,181,24,10,43,150,50,11,07,279,35*79
2017-12-29 14:45:20 1514576720.683324: $GPGSV,3,2,12,12,20,046,46,14,67,336,42,18,13,145,41,22,23,312,38*7A
2017-12-29 14:45:20 1514576720.683390: $GPGSV,3,3,12,25,41,085,51,31,62,229,47,32,66,042,50,138,38,213,43*49
2017-12-29 14:45:20 1514576720.796458: $GPZDA,194521.00,29,12,2017,00,00*60
2017-12-29 14:45:20 1514576720.796595: $GPGGA,194521,3946.9585,N,08404.9832,W,2,12,0.80,299.64,M,-33.324,M,,*7B
2017-12-29 14:45:20 1514576720.796660: $GPRMC,194521,A,3946.9585,N,08404.9832,W,0.0000,0.000,291217,,*3A
2017-12-29 14:45:20 1514576720.796721: $GPGSA,A,3,1,26,10,11,12,14,18,22,25,31,32,138,1.7,0.8,1.3*3B
2017-12-29 14:45:21 1514576721.386128: $GPZDA,194522.00,29,12,2017,00,00*63
2017-12-29 14:45:21 1514576721.386284: $GPGGA,194522,3946.9585,N,08404.9832,W,2,12,0.80,299.64,M,-33.324,M,,*78
2017-12-29 14:45:21 1514576721.386351: $GPRMC,194522,A,3946.9585,N,08404.9832,W,0.0000,0.000,291217,,*39
2017-12-29 14:45:21 1514576721.386412: $GPGSA,A,3,1,26,10,11,12,14,18,22,25,31,32,138,1.7,0.8,1.3*3B
2017-12-29 14:45:22 1514576722.385755: $GPZDA,194523.00,29,12,2017,00,00*62
2017-12-29 14:45:22 1514576722.385916: $GPGGA,194523,3946.9585,N,08404.9832,W,2,12,0.80,299.64,M,-33.324,M,,*79
2017-12-29 14:45:22 1514576722.385984: $GPRMC,194523,A,3946.9585,N,08404.9832,W,0.0000,0.000,291217,,*38
2017-12-29 14:45:22 1514576722.386046: $GPGSA,A,3,1,26,10,11,12,14,18,22,25,31,32,138,1.7,0.8,1.3*3B
2017-12-29 14:45:23 1514576723.682740: $GPGSV,3,1,12,01,22,297,38,26,07,181,24,10,43,150,50,11,07,279,35*79
2017-12-29 14:45:23 1514576723.682916: $GPGSV,3,2,12,12,20,046,46,14,67,336,42,18,13,145,41,22,23,312,39*7B
2017-12-29 14:45:23 1514576723.682983: $GPGSV,3,3,12,25,41,085,51,31,62,229,47,32,66,042,50,138,38,213,44*4E
2017-12-29 14:45:23 1514576723.796352: $GPZDA,194524.00,29,12,2017,00,00*65
2017-12-29 14:45:23 1514576723.796485: $GPGGA,194524,3946.9585,N,08404.9832,W,2,12,0.80,299.64,M,-33.324,M,,*7E
2017-12-29 14:45:23 1514576723.796548: $GPRMC,194524,A,3946.9585,N,08404.9832,W,0.0000,0.000,291217,,*3F
2017-12-29 14:45:23 1514576723.796608: $GPGSA,A,3,1,26,10,11,12,14,18,22,25,31,32,138,1.7,0.8,1.3*3B
2017-12-29 14:45:24 1514576724.421789: $GPZDA,194525.00,29,12,2017,00,00*64
2017-12-29 14:45:24 1514576724.421953: $GPGGA,194525,3946.9585,N,08404.9832,W,2,12,0.80,299.64,M,-33.324,M,,*7F
2017-12-29 14:45:24 1514576724.422020: $GPRMC,194525,A,3946.9585,N,08404.9832,W,0.0000,0.000,291217,,*3E
2017-12-29 14:45:24 1514576724.422081: $GPGSA,A,3,1,26,10,11,12,14,18,22,25,31,32,138,1.7,0.8,1.3*3B
2017-12-29 14:45:25 1514576725.387608: $GPZDA,194526.00,29,12,2017,00,00*67
2017-12-29 14:45:25 1514576725.387778: $GPGGA,194526,3946.9585,N,08404.9832,W,2,12,0.80,299.64,M,-33.324,M,,*7C
2017-12-29 14:45:25 1514576725.387864: $GPRMC,194526,A,3946.9585,N,08404.9832,W,0.0000,0.000,291217,,*3D
2017-12-29 14:45:25 1514576725.387927: $GPGSA,A,3,1,26,10,11,12,14,18,22,25,31,32,138,1.7,0.8,1.3*3B
2017-12-29 14:45:26 1514576726.721919: $GPGSV,3,1,12,01,22,297,38,26,07,181,24,10,43,150,50,11,07,279,36*7A
2017-12-29 14:45:26 1514576726.722098: $GPGSV,3,2,12,12,20,046,46,14,67,336,42,18,13,145,41,22,23,312,39*7B
2017-12-29 14:45:26 1514576726.722164: $GPGSV,3,3,12,25,41,085,51,31,62,229,47,32,66,042,50,138,38,213,42*48
2017-12-29 14:45:26 1514576726.835582: $GPZDA,194527.00,29,12,2017,00,00*66
2017-12-29 14:45:26 1514576726.835699: $GPGGA,194527,3946.9585,N,08404.9832,W,2,12,0.80,299.64,M,-33.324,M,,*7D
2017-12-29 14:45:26 1514576726.835810: $GPRMC,194527,A,3946.9585,N,08404.9832,W,0.0000,0.000,291217,,*3C
2017-12-29 14:45:26 1514576726.835872: $GPGSA,A,3,1,26,10,11,12,14,18,22,25,31,32,138,1.7,0.8,1.3*3B
2017-12-29 14:45:27 1514576727.385187: $GPZDA,194528.00,29,12,2017,00,00*69
2017-12-29 14:45:27 1514576727.385339: $GPGGA,194528,3946.9585,N,08404.9832,W,2,12,0.80,299.64,M,-33.324,M,,*72
2017-12-29 14:45:27 1514576727.385405: $GPRMC,194528,A,3946.9585,N,08404.9832,W,0.0000,0.000,291217,,*33
2017-12-29 14:45:27 1514576727.385467: $GPGSA,A,3,1,26,10,11,12,14,18,22,25,31,32,138,1.7,0.8,1.3*3B
2017-12-29 14:45:28 1514576728.384844: $GPZDA,194529.00,29,12,2017,00,00*68
2017-12-29 14:45:28 1514576728.385000: $GPGGA,194529,3946.9585,N,08404.9832,W,2,12,0.80,299.64,M,-33.324,M,,*73
2017-12-29 14:45:28 1514576728.385065: $GPRMC,194529,A,3946.9585,N,08404.9832,W,0.0000,0.000,291217,,*32
2017-12-29 14:45:28 1514576728.385126: $GPGSA,A,3,1,26,10,11,12,14,18,22,25,31,32,138,1.7,0.8,1.3*3B
2017-12-29 14:45:29 1514576729.684721: $GPGSV,3,1,12,01,22,297,37,26,07,181,24,10,43,150,50,11,07,279,36*75
2017-12-29 14:45:29 1514576729.684900: $GPGSV,3,2,12,12,20,046,46,14,67,336,42,18,13,145,41,22,23,312,38*7A
2017-12-29 14:45:29 1514576729.684965: $GPGSV,3,3,12,25,41,085,51,31,62,229,47,32,66,042,50,138,38,213,42*48
2017-12-29 14:45:29 1514576729.798368: $GPZDA,194530.00,29,12,2017,00,00*60
2017-12-29 14:45:29 1514576729.798494: $GPGGA,194530,3946.9585,N,08404.9832,W,2,12,0.80,299.64,M,-33.324,M,,*7B
2017-12-29 14:45:29 1514576729.798558: $GPRMC,194530,A,3946.9585,N,08404.9832,W,0.0000,0.000,291217,,*3A
2017-12-29 14:45:29 1514576729.798618: $GPGSA,A,3,1,26,10,11,12,14,18,22,25,31,32,138,1.7,0.8,1.3*3B
2017-12-29 14:45:30 1514576730.349326: $GPZDA,194531.00,29,12,2017,00,00*61
2017-12-29 14:45:30 1514576730.349494: $GPGGA,194531,3946.9585,N,08404.9832,W,2,12,0.80,299.64,M,-33.324,M,,*7A
2017-12-29 14:45:30 1514576730.349560: $GPRMC,194531,A,3946.9585,N,08404.9832,W,0.0000,0.000,291217,,*3B
2017-12-29 14:45:30 1514576730.349622: $GPGSA,A,3,1,26,10,11,12,14,18,22,25,31,32,138,1.7,0.8,1.3*3B
