2017-11-16 17:30:29 1510871429.721405: {"class":"VERSION","release":"3.17","rev":"3.17","proto_major":3,"proto_minor":12}
2017-11-16 17:30:29 1510871429.721868: {"class":"DEVICES","devices":[{"class":"DEVICE","path":"/dev/ttyUSB0","driver":"SiRF","subtype":"9\u0006GSD4e_4.1.2-P1_RPATCH.05-F-GPS-4R-1510281 11/03/2015 307","activated":"2017-11-16T22:30:29.565Z","flags":1,"native":1,"bps":4800,"parity":"N","stopbits":1,"cycle":1.00}]}
2017-11-16 17:30:29 1510871429.721983: {"class":"WATCH","enable":true,"json":false,"nmea":true,"raw":0,"scaled":false,"timing":false,"split24":false,"pps":false}
2017-11-16 17:30:30 1510871430.762157: $GPGSV,3,1,12,01,21,301,32,10,48,148,50,22,18,312,45,12,22,051,51*77
2017-11-16 17:30:30 1510871430.762352: $GPGSV,3,2,12,14,66,327,47,18,19,144,39,26,01,183,00,11,08,282,41*7B
2017-11-16 17:30:30 1510871430.762415: $GPGSV,3,3,12,25,39,091,48,31,55,225,48,32,69,025,49,138,38,213,44*4D
2017-11-16 17:30:30 1510871430.875548: $GPZDA,223029.00,16,11,2017,00,00*6D
2017-11-16 17:30:30 1510871430.875710: $GPGGA,223029,3946.9569,N,08404.9836,W,2,11,0.80,304.87,M,-33.324,M,,*74
2017-11-16 17:30:30 1510871430.875770: $GPRMC,223029,A,3946.9569,N,08404.9836,W,0.0000,0.000,161117,,*31
2017-11-16 17:30:30 1510871430.875826: $GPGSA,A,3,1,10,22,12,14,18,11,25,31,32,138,,1.6,0.8,1.3*3E
2017-11-16 17:30:31 1510871431.500851: $GPZDA,223030.00,16,11,2017,00,00*65
2017-11-16 17:30:31 1510871431.501012: $GPGGA,223030,3946.9569,N,08404.9836,W,2,11,0.80,304.87,M,-33.324,M,,*7C
2017-11-16 17:30:31 1510871431.501073: $GPRMC,223030,A,3946.9569,N,08404.9836,W,0.0000,0.000,161117,,*39
2017-11-16 17:30:31 1510871431.501130: $GPGSA,A,3,1,10,22,12,14,18,11,25,31,32,138,,1.6,0.8,1.3*3E
2017-11-16 17:30:32 1510871432.425562: $GPZDA,223031.00,16,11,2017,00,00*64
2017-11-16 17:30:32 1510871432.425724: $GPGGA,223031,3946.9569,N,08404.9836,W,2,11,0.80,304.87,M,-33.324,M,,*7D
2017-11-16 17:30:32 1510871432.425784: $GPRMC,223031,A,3946.9569,N,08404.9836,W,0.0000,0.000,161117,,*38
2017-11-16 17:30:32 1510871432.425840: $GPGSA,A,3,1,10,22,12,14,18,11,25,31,32,138,,1.6,0.8,1.3*3E
2017-11-16 17:30:33 1510871433.737496: $GPGSV,3,1,12,01,21,301,32,10,48,148,50,22,18,312,45,12,22,051,51*77
2017-11-16 17:30:33 1510871433.737684: $GPGSV,3,2,12,14,66,327,48,18,19,144,38,26,01,183,00,11,08,282,42*76
2017-11-16 17:30:33 1510871433.737747: $GPGSV,3,3,12,25,39,091,48,31,55,225,49,32,69,025,49,138,38,213,44*4C
2017-11-16 17:30:33 1510871433.851285: $GPZDA,223032.00,16,11,2017,00,00*67
2017-11-16 17:30:33 1510871433.851446: $GPGGA,223032,3946.9569,N,08404.9836,W,2,11,0.80,304.87,M,-33.324,M,,*7E
2017-11-16 17:30:33 1510871433.851508: $GPRMC,223032,A,3946.9569,N,08404.9836,W,0.0000,0.000,161117,,*3B
2017-11-16 17:30:33 1510871433.851564: $GPGSA,A,3,1,10,22,12,14,18,11,25,31,32,138,,1.6,0.8,1.3*3E
2017-11-16 17:30:34 1510871434.401732: $GPZDA,223033.00,16,11,2017,00,00*66
2017-11-16 17:30:34 1510871434.401891: $GPGGA,223033,3946.9569,N,08404.9836,W,2,11,0.80,304.87,M,-33.324,M,,*7F
2017-11-16 17:30:34 1510871434.401952: $GPRMC,223033,A,3946.9569,N,08404.9836,W,0.0000,0.000,161117,,*3A
2017-11-16 17:30:34 1510871434.402008: $GPGSA,A,3,1,10,22,12,14,18,11,25,31,32,138,,1.6,0.8,1.3*3E
2017-11-16 17:30:35 1510871435.402661: $GPZDA,223034.00,16,11,2017,00,00*61
2017-11-16 17:30:35 1510871435.402824: $GPGGA,223034,3946.9569,N,08404.9836,W,2,11,0.80,304.87,M,-33.324,M,,*78
2017-11-16 17:30:35 1510871435.402887: $GPRMC,223034,A,3946.9569,N,08404.9836,W,0.0000,0.000,161117,,*3D
2017-11-16 17:30:35 1510871435.402943: $GPGSA,A,3,1,10,22,12,14,18,11,25,31,32,138,,1.6,0.8,1.3*3E
2017-11-16 17:30:36 1510871436.739159: $GPGSV,3,1,12,01,21,301,32,10,48,148,50,22,18,312,45,12,22,051,51*77
2017-11-16 17:30:36 1510871436.739326: $GPGSV,3,2,12,14,66,327,48,18,19,144,38,26,01,183,00,11,08,282,41*75
2017-11-16 17:30:36 1510871436.739387: $GPGSV,3,3,12,25,39,091,48,31,55,225,49,32,69,025,49,138,38,213,44*4C
2017-11-16 17:30:36 1510871436.851206: $GPZDA,223035.00,16,11,2017,00,00*60
2017-11-16 17:30:36 1510871436.851371: $GPGGA,223035,3946.9569,N,08404.9836,W,2,11,0.80,304.87,M,-33.324,M,,*79
2017-11-16 17:30:36 1510871436.851483: $GPRMC,223035,A,3946.9569,N,08404.9836,W,0.0000,0.000,161117,,*3C
2017-11-16 17:30:36 1510871436.851541: $GPGSA,A,3,1,10,22,12,14,18,11,25,31,32,138,,1.6,0.8,1.3*3E
2017-11-16 17:30:37 1510871437.403332: $GPZDA,223036.00,16,11,2017,00,00*63
2017-11-16 17:30:37 1510871437.403497: $GPGGA,223036,3946.9569,N,08404.9836,W,2,11,0.80,304.87,M,-33.324,M,,*7A
2017-11-16 17:30:37 1510871437.403558: $GPRMC,223036,A,3946.9569,N,08404.9836,W,0.0000,0.000,161117,,*3F
2017-11-16 17:30:37 1510871437.403615: $GPGSA,A,3,1,10,22,12,14,18,11,25,31,32,138,,1.6,0.8,1.3*3E
2017-11-16 17:30:38 1510871438.395498: $GPZDA,223037.00,16,11,2017,00,00*62
2017-11-16 17:30:38 1510871438.395663: $GPGGA,223037,3946.9572,N,08404.9835,W,2,11,0.80,304.10,M,-33.324,M,,*7C
2017-11-16 17:30:38 1510871438.395724: $GPRMC,223037,A,3946.9572,N,08404.9835,W,0.0000,0.000,161117,,*37
2017-11-16 17:30:38 1510871438.395780: $GPGSA,A,3,1,10,22,12,14,18,11,25,31,32,138,,1.6,0.8,1.3*3E
2017-11-16 17:30:39 1510871439.738724: $GPGSV,3,1,12,01,21,301,32,10,48,148,49,22,18,312,45,12,22,051,51*7F
2017-11-16 17:30:39 1510871439.738892: $GPGSV,3,2,12,14,66,327,48,18,19,144,39,26,01,183,00,11,08,282,41*74
2017-11-16 17:30:39 1510871439.738952: $GPGSV,3,3,12,25,39,091,48,31,55,225,49,32,69,025,49,138,38,213,44*4C
