2017-12-31 18:37:27 1514763447.990597: {"class":"VERSION","release":"3.16","rev":"3.16-4","proto_major":3,"proto_minor":11}
2017-12-31 18:37:27 1514763447.990940: {"class":"DEVICES","devices":[{"class":"DEVICE","path":"/dev/ttyUSB0","driver":"SiRF","activated":"2017-12-31T23:37:27.942Z","flags":1,"native":1,"bps":4800,"parity":"N","stopbits":1,"cycle":1.00}]}
2017-12-31 18:37:27 1514763447.991038: {"class":"WATCH","enable":true,"json":false,"nmea":true,"raw":0,"scaled":false,"timing":false,"split24":false,"pps":false}
2017-12-31 18:37:28 1514763448.352205: $GPZDA,233729.00,31,12,2017,00,00*6D
2017-12-31 18:37:28 1514763448.352366: $GPGGA,233729,3946.9578,N,08404.9830,W,2,12,0.80,309.03,M,-33.324,M,,*76
2017-12-31 18:37:28 1514763448.352431: $GPRMC,233729,A,3946.9578,N,08404.9830,W,0.0000,0.000,311217,,*37
2017-12-31 18:37:28 1514763448.352491: $GPGSA,A,3,22,23,9,3,16,8,14,31,27,7,26,135,1.7,0.8,1.3*0C
2017-12-31 18:37:29 1514763449.351589: $GPZDA,233730.00,31,12,2017,00,00*65
2017-12-31 18:37:29 1514763449.351763: $GPGGA,233730,3946.9578,N,08404.9830,W,2,12,0.80,309.03,M,-33.324,M,,*7E
2017-12-31 18:37:29 1514763449.351832: $GPRMC,233730,A,3946.9578,N,08404.9830,W,0.0000,0.000,311217,,*3F
2017-12-31 18:37:29 1514763449.351892: $GPGSA,A,3,22,23,9,3,16,8,14,31,27,7,26,135,1.7,0.8,1.3*0C
2017-12-31 18:37:30 1514763450.688100: $GPGSV,3,1,12,22,12,207,25,23,64,292,38,09,31,312,42,03,22,225,37*77
2017-12-31 18:37:30 1514763450.688253: $GPGSV,3,2,12,16,83,042,42,08,11,177,26,14,04,138,20,31,20,084,42*79
2017-12-31 18:37:30 1514763450.688318: $GPGSV,3,3,12,27,34,147,41,07,06,280,45,26,50,046,47,135,22,240,44*44
2017-12-31 18:37:30 1514763450.801488: $GPZDA,233731.00,31,12,2017,00,00*64
2017-12-31 18:37:30 1514763450.801589: $GPGGA,233731,3946.9578,N,08404.9830,W,2,12,0.80,309.03,M,-33.324,M,,*7F
2017-12-31 18:37:30 1514763450.801652: $GPRMC,233731,A,3946.9578,N,08404.9830,W,0.0000,0.000,311217,,*3E
2017-12-31 18:37:30 1514763450.801711: $GPGSA,A,3,22,23,9,3,16,8,14,31,27,7,26,135,1.7,0.8,1.3*0C
2017-12-31 18:37:31 1514763451.353958: $GPZDA,233732.00,31,12,2017,00,00*67
2017-12-31 18:37:31 1514763451.354122: $GPGGA,233732,3946.9578,N,08404.9830,W,2,12,0.80,309.03,M,-33.324,M,,*7C
2017-12-31 18:37:31 1514763451.354187: $GPRMC,233732,A,3946.9578,N,08404.9830,W,0.0000,0.000,311217,,*3D
2017-12-31 18:37:31 1514763451.354248: $GPGSA,A,3,22,23,9,3,16,8,14,31,27,7,26,135,1.7,0.8,1.3*0C
2017-12-31 18:37:32 1514763452.344806: $GPZDA,233733.00,31,12,2017,00,00*66
2017-12-31 18:37:32 1514763452.344964: $GPGGA,233733,3946.9578,N,08404.9830,W,2,12,0.80,309.03,M,-33.324,M,,*7D
2017-12-31 18:37:32 1514763452.345028: $GPRMC,233733,A,3946.9578,N,08404.9830,W,0.0000,0.000,311217,,*3C
2017-12-31 18:37:32 1514763452.345089: $GPGSA,A,3,22,23,9,3,16,8,14,31,27,7,26,135,1.7,0.8,1.3*0C
2017-12-31 18:37:33 1514763453.723931: $GPGSV,3,1,12,22,12,207,25,23,64,292,37,09,31,312,42,03,22,225,37*78
2017-12-31 18:37:33 1514763453.785738: $GPGSV,3,2,12,16,83,042,42,08,11,177,27,14,04,138,20,31,20,084,42*78
2017-12-31 18:37:33 1514763453.785840: $GPGSV,3,3,12,27,34,147,41,07,06,280,45,26,50,046,47,135,22,240,44*44
2017-12-31 18:37:33 1514763453.837712: $GPZDA,233734.00,31,12,2017,00,00*61
2017-12-31 18:37:33 1514763453.837848: $GPGGA,233734,3946.9578,N,08404.9830,W,2,12,0.80,309.03,M,-33.324,M,,*7A
2017-12-31 18:37:33 1514763453.837912: $GPRMC,233734,A,3946.9578,N,08404.9830,W,0.0000,0.000,311217,,*3B
2017-12-31 18:37:33 1514763453.837971: $GPGSA,A,3,22,23,9,3,16,8,14,31,27,7,26,135,1.7,0.8,1.3*0C
2017-12-31 18:37:34 1514763454.352252: $GPZDA,233735.00,31,12,2017,00,00*60
2017-12-31 18:37:34 1514763454.352425: $GPGGA,233735,3946.9578,N,08404.9830,W,2,12,0.80,309.03,M,-33.324,M,,*7B
2017-12-31 18:37:34 1514763454.352491: $GPRMC,233735,A,3946.9578,N,08404.9830,W,0.0000,0.000,311217,,*3A
2017-12-31 18:37:34 1514763454.352551: $GPGSA,A,3,22,23,9,3,16,8,14,31,27,7,26,135,1.7,0.8,1.3*0C
2017-12-31 18:37:35 1514763455.352653: $GPZDA,233736.00,31,12,2017,00,00*63
2017-12-31 18:37:35 1514763455.352819: $GPGGA,233736,3946.9578,N,08404.9830,W,2,12,0.80,309.03,M,-33.324,M,,*78
2017-12-31 18:37:35 1514763455.352940: $GPRMC,233736,A,3946.9578,N,08404.9830,W,0.0000,0.000,311217,,*39
2017-12-31 18:37:35 1514763455.353003: $GPGSA,A,3,22,23,9,3,16,8,14,31,27,7,26,135,1.7,0.8,1.3*0C
2017-12-31 18:37:36 1514763456.680556: $GPGSV,3,1,12,22,12,207,25,23,64,292,39,09,31,312,43,03,22,225,38*78
2017-12-31 18:37:36 1514763456.680711: $GPGSV,3,2,12,16,83,042,42,08,11,177,27,14,04,138,21,31,20,084,42*79
2017-12-31 18:37:36 1514763456.680774: $GPGSV,3,3,12,27,34,147,41,07,06,280,45,26,50,046,47,135,22,240,43*43
2017-12-31 18:37:36 1514763456.794223: $GPZDA,233737.00,31,12,2017,00,00*62
2017-12-31 18:37:36 1514763456.794360: $GPGGA,233737,3946.9578,N,08404.9830,W,2,12,0.80,309.03,M,-33.324,M,,*79
2017-12-31 18:37:36 1514763456.794423: $GPRMC,233737,A,3946.9578,N,08404.9830,W,0.0000,0.000,311217,,*38
2017-12-31 18:37:36 1514763456.794483: $GPGSA,A,3,22,23,9,3,16,8,14,31,27,7,26,135,1.7,0.8,1.3*0C
2017-12-31 18:37:37 1514763457.397684: $GPZDA,233738.00,31,12,2017,00,00*6D
2017-12-31 18:37:37 1514763457.397847: $GPGGA,233738,3946.9578,N,08404.9830,W,2,12,0.80,309.03,M,-33.324,M,,*76
2017-12-31 18:37:37 1514763457.397912: $GPRMC,233738,A,3946.9578,N,08404.9830,W,0.0000,0.000,311217,,*37
2017-12-31 18:37:37 1514763457.397972: $GPGSA,A,3,22,23,9,3,16,8,14,31,27,7,26,135,1.7,0.8,1.3*0C
