2017-11-16 13:56:28 1510858588.386981: {"class":"VERSION","release":"3.17","rev":"3.17","proto_major":3,"proto_minor":12}
2017-11-16 13:56:28 1510858588.387447: {"class":"DEVICES","devices":[{"class":"DEVICE","path":"/dev/ttyUSB0","driver":"SiRF","subtype":"9\u0006GSD4e_4.1.2-P1_RPATCH.05-F-GPS-4R-1510281 11/03/2015 307","activated":"2017-11-16T18:56:28.301Z","flags":1,"native":1,"bps":4800,"parity":"N","stopbits":1,"cycle":1.00}]}
2017-11-16 13:56:28 1510858588.387571: {"class":"WATCH","enable":true,"json":false,"nmea":true,"raw":0,"scaled":false,"timing":false,"split24":false,"pps":false}
2017-11-16 13:56:28 1510858588.750156: $GPGSV,3,1,11,10,35,295,42,13,15,046,42,15,45,051,51,18,65,321,49*74
2017-11-16 13:56:28 1510858588.750332: $GPGSV,3,2,11,20,39,088,48,21,72,202,47,24,46,123,45,27,19,298,37*76
2017-11-16 13:56:28 1510858588.750399: $GPGSV,3,3,11,32,14,232,38,08,03,328,21,138,38,213,44*75
2017-11-16 13:56:28 1510858588.863502: $GPZDA,185627.00,16,11,2017,00,00*6A
2017-11-16 13:56:28 1510858588.863645: $GPGGA,185627,3946.9608,N,08404.9834,W,2,11,1.00,307.05,M,-33.324,M,,*75
2017-11-16 13:56:28 1510858588.863704: $GPRMC,185627,A,3946.9608,N,08404.9834,W,0.0000,0.000,161117,,*30
2017-11-16 13:56:28 1510858588.863759: $GPGSA,A,3,10,13,15,18,20,21,24,27,32,8,138,,1.6,1.0,1.3*39
2017-11-16 13:56:29 1510858589.389667: $GPZDA,185628.00,16,11,2017,00,00*65
2017-11-16 13:56:29 1510858589.389840: $GPGGA,185628,3946.9608,N,08404.9834,W,2,11,1.00,307.05,M,-33.324,M,,*7A
2017-11-16 13:56:29 1510858589.389905: $GPRMC,185628,A,3946.9608,N,08404.9834,W,0.0000,0.000,161117,,*3F
2017-11-16 13:56:29 1510858589.389961: $GPGSA,A,3,10,13,15,18,20,21,24,27,32,8,138,,1.6,1.0,1.3*39
2017-11-16 13:56:30 1510858590.383209: $GPZDA,185629.00,16,11,2017,00,00*64
2017-11-16 13:56:30 1510858590.383369: $GPGGA,185629,3946.9608,N,08404.9834,W,2,11,1.00,307.05,M,-33.324,M,,*7B
2017-11-16 13:56:30 1510858590.383430: $GPRMC,185629,A,3946.9608,N,08404.9834,W,0.0000,0.000,161117,,*3E
2017-11-16 13:56:30 1510858590.383486: $GPGSA,A,3,10,13,15,18,20,21,24,27,32,8,138,,1.6,1.0,1.3*39
2017-11-16 13:56:31 1510858591.753224: $GPGSV,3,1,11,10,35,295,42,13,15,046,41,15,45,051,51,18,65,321,48*76
2017-11-16 13:56:31 1510858591.753391: $GPGSV,3,2,11,20,39,088,48,21,72,202,47,24,46,123,46,27,19,298,36*74
2017-11-16 13:56:31 1510858591.753453: $GPGSV,3,3,11,32,14,232,38,08,03,328,22,138,38,213,44*76
2017-11-16 13:56:31 1510858591.866557: $GPZDA,185630.00,16,11,2017,00,00*6C
2017-11-16 13:56:31 1510858591.866736: $GPGGA,185630,3946.9608,N,08404.9834,W,2,11,1.00,307.05,M,-33.324,M,,*73
2017-11-16 13:56:31 1510858591.866797: $GPRMC,185630,A,3946.9608,N,08404.9834,W,0.0000,0.000,161117,,*36
2017-11-16 13:56:31 1510858591.866853: $GPGSA,A,3,10,13,15,18,20,21,24,27,32,8,138,,1.6,1.0,1.3*39
2017-11-16 13:56:32 1510858592.492149: $GPZDA,185631.00,16,11,2017,00,00*6D
2017-11-16 13:56:32 1510858592.492319: $GPGGA,185631,3946.9608,N,08404.9834,W,2,11,1.00,307.05,M,-33.324,M,,*72
2017-11-16 13:56:32 1510858592.492379: $GPRMC,185631,A,3946.9608,N,08404.9834,W,0.0000,0.000,161117,,*37
2017-11-16 13:56:32 1510858592.492437: $GPGSA,A,3,10,13,15,18,20,21,24,27,32,8,138,,1.6,1.0,1.3*39
2017-11-16 13:56:33 1510858593.391479: $GPZDA,185632.00,16,11,2017,00,00*6E
2017-11-16 13:56:33 1510858593.391587: $GPGGA,185632,3946.9608,N,08404.9834,W,2,11,1.00,307.05,M,-33.324,M,,*71
2017-11-16 13:56:33 1510858593.391624: $GPRMC,185632,A,3946.9608,N,08404.9834,W,0.0000,0.000,161117,,*34
2017-11-16 13:56:33 1510858593.391653: $GPGSA,A,3,10,13,15,18,20,21,24,27,32,8,138,,1.6,1.0,1.3*39
2017-11-16 13:56:34 1510858594.726939: $GPGSV,3,1,11,10,35,295,42,13,15,046,41,15,45,051,51,18,65,321,48*76
2017-11-16 13:56:34 1510858594.727109: $GPGSV,3,2,11,20,39,088,48,21,72,202,47,24,46,123,45,27,19,298,37*76
2017-11-16 13:56:34 1510858594.727169: $GPGSV,3,3,11,32,14,232,38,08,03,328,23,138,38,213,43*70
2017-11-16 13:56:34 1510858594.840329: $GPZDA,185633.00,16,11,2017,00,00*6F
2017-11-16 13:56:34 1510858594.840510: $GPGGA,185633,3946.9608,N,08404.9834,W,2,11,1.00,307.05,M,-33.324,M,,*70
2017-11-16 13:56:34 1510858594.840622: $GPRMC,185633,A,3946.9608,N,08404.9834,W,0.0000,0.000,161117,,*35
2017-11-16 13:56:34 1510858594.840680: $GPGSA,A,3,10,13,15,18,20,21,24,27,32,8,138,,1.6,1.0,1.3*39
2017-11-16 13:56:35 1510858595.416350: $GPZDA,185634.00,16,11,2017,00,00*68
2017-11-16 13:56:35 1510858595.416514: $GPGGA,185634,3946.9608,N,08404.9834,W,2,11,1.00,307.05,M,-33.324,M,,*77
2017-11-16 13:56:35 1510858595.416575: $GPRMC,185634,A,3946.9608,N,08404.9834,W,0.0000,0.000,161117,,*32
2017-11-16 13:56:35 1510858595.416631: $GPGSA,A,3,10,13,15,18,20,21,24,27,32,8,138,,1.6,1.0,1.3*39
2017-11-16 13:56:36 1510858596.386868: $GPZDA,185635.00,16,11,2017,00,00*69
2017-11-16 13:56:36 1510858596.387026: $GPGGA,185635,3946.9608,N,08404.9834,W,2,11,1.00,307.05,M,-33.324,M,,*76
2017-11-16 13:56:36 1510858596.387088: $GPRMC,185635,A,3946.9608,N,08404.9834,W,0.0000,0.000,161117,,*33
2017-11-16 13:56:36 1510858596.387144: $GPGSA,A,3,10,13,15,18,20,21,24,27,32,8,138,,1.6,1.0,1.3*39
2017-11-16 13:56:37 1510858597.754436: $GPGSV,3,1,11,10,35,295,41,13,15,046,40,15,45,051,51,18,65,321,48*74
2017-11-16 13:56:37 1510858597.754628: $GPGSV,3,2,11,20,39,088,48,21,72,202,46,24,46,123,45,27,19,298,35*75
2017-11-16 13:56:37 1510858597.754690: $GPGSV,3,3,11,32,14,232,37,08,03,328,24,138,38,213,43*78
2017-11-16 13:56:37 1510858597.867750: $GPZDA,185636.00,16,11,2017,00,00*6A
2017-11-16 13:56:37 1510858597.867933: $GPGGA,185636,3946.9608,N,08404.9834,W,2,11,1.00,307.05,M,-33.324,M,,*75
2017-11-16 13:56:37 1510858597.867995: $GPRMC,185636,A,3946.9608,N,08404.9834,W,0.0000,0.000,161117,,*30
2017-11-16 13:56:37 1510858597.868050: $GPGSA,A,3,10,13,15,18,20,21,24,27,32,8,138,,1.6,1.0,1.3*39
2017-11-16 13:56:38 1510858598.392564: $GPZDA,185637.00,16,11,2017,00,00*6B
2017-11-16 13:56:38 1510858598.399824: $GPGGA,185637,3946.9608,N,08404.9834,W,2,11,1.00,307.05,M,-33.324,M,,*74
2017-11-16 13:56:38 1510858598.399919: $GPRMC,185637,A,3946.9608,N,08404.9834,W,0.0000,0.000,161117,,*31
2017-11-16 13:56:38 1510858598.399978: $GPGSA,A,3,10,13,15,18,20,21,24,27,32,8,138,,1.6,1.0,1.3*39
2017-11-16 13:56:39 1510858599.418799: $GPZDA,185638.00,16,11,2017,00,00*64
2017-11-16 13:56:39 1510858599.418960: $GPGGA,185638,3946.9608,N,08404.9834,W,2,11,1.00,307.05,M,-33.324,M,,*7B
2017-11-16 13:56:39 1510858599.419021: $GPRMC,185638,A,3946.9608,N,08404.9834,W,0.0000,0.000,161117,,*3E
2017-11-16 13:56:39 1510858599.419077: $GPGSA,A,3,10,13,15,18,20,21,24,27,32,8,138,,1.6,1.0,1.3*39
2017-11-16 13:56:40 1510858600.729998: $GPGSV,3,1,11,10,35,295,36,13,15,046,40,15,45,051,51,18,65,321,48*74
2017-11-16 13:56:40 1510858600.730183: $GPGSV,3,2,11,20,39,088,47,21,72,202,46,24,46,123,45,27,19,298,34*7B
2017-11-16 13:56:40 1510858600.730247: $GPGSV,3,3,11,32,14,232,37,08,03,328,24,138,38,213,43*78
2017-11-16 13:56:40 1510858600.843405: $GPZDA,185639.00,16,11,2017,00,00*65
2017-11-16 13:56:40 1510858600.843584: $GPGGA,185639,3946.9608,N,08404.9834,W,2,11,1.00,307.05,M,-33.324,M,,*7A
2017-11-16 13:56:40 1510858600.843666: $GPRMC,185639,A,3946.9608,N,08404.9834,W,0.0000,0.000,161117,,*3F
2017-11-16 13:56:40 1510858600.843726: $GPGSA,A,3,10,13,15,18,20,21,24,27,32,8,138,,1.6,1.0,1.3*39
2017-11-16 13:56:41 1510858601.418238: $GPZDA,185640.00,16,11,2017,00,00*6B
2017-11-16 13:56:41 1510858601.418403: $GPGGA,185640,3946.9608,N,08404.9834,W,2,11,1.00,307.05,M,-33.324,M,,*74
2017-11-16 13:56:41 1510858601.418467: $GPRMC,185640,A,3946.9608,N,08404.9834,W,0.0000,0.000,161117,,*31
2017-11-16 13:56:41 1510858601.418545: $GPGSA,A,3,10,13,15,18,20,21,24,27,32,8,138,,1.6,1.0,1.3*39
2017-11-16 13:56:42 1510858602.393811: $GPZDA,185641.00,16,11,2017,00,00*6A
2017-11-16 13:56:42 1510858602.393985: $GPGGA,185641,3946.9608,N,08404.9834,W,2,11,1.00,307.05,M,-33.324,M,,*75
2017-11-16 13:56:42 1510858602.394051: $GPRMC,185641,A,3946.9608,N,08404.9834,W,0.0000,0.000,161117,,*30
2017-11-16 13:56:42 1510858602.394113: $GPGSA,A,3,10,13,15,18,20,21,24,27,32,8,138,,1.6,1.0,1.3*39
