2017-12-29 11:20:04 1514564404.990071: {"class":"VERSION","release":"3.16","rev":"3.16-4","proto_major":3,"proto_minor":11}
2017-12-29 11:20:04 1514564404.990397: {"class":"DEVICES","devices":[{"class":"DEVICE","path":"/dev/ttyUSB0","driver":"SiRF","subtype":"9\u0006GSD4e_4.1.2-P1_RPATCH.05-F-GPS-4R-1510281 11/03/2015 307","activated":"2017-12-29T16:20:04.550Z","flags":1,"native":1,"bps":4800,"parity":"N","stopbits":1,"cycle":1.00}]}
2017-12-29 11:20:04 1514564404.990509: {"class":"WATCH","enable":true,"json":false,"nmea":true,"raw":0,"scaled":false,"timing":false,"split24":false,"pps":false}
2017-12-29 11:20:05 1514564405.381553: $GPZDA,162006.00,29,12,2017,00,00*69
2017-12-29 11:20:05 1514564405.381717: $GPGGA,162006,3946.9569,N,08404.9855,W,2,10,1.20,326.74,M,-33.324,M,,*7C
2017-12-29 11:20:05 1514564405.381782: $GPRMC,162006,A,3946.9569,N,08404.9855,W,0.0000,0.000,291217,,*30
2017-12-29 11:20:05 1514564405.381842: $GPGSA,A,3,8,10,15,18,20,21,24,27,32,138,,,1.7,1.2,1.3*38
2017-12-29 11:20:06 1514564406.743207: $GPGSV,3,1,12,08,06,322,34,10,42,301,41,15,36,052,44,18,72,340,40*7B
2017-12-29 11:20:06 1514564406.743365: $GPGSV,3,2,12,20,34,096,46,21,62,189,42,24,51,108,45,27,19,288,30*74
2017-12-29 11:20:06 1514564406.743430: $GPGSV,3,3,12,32,22,238,25,13,07,049,29,14,04,232,07,138,38,213,44*42
2017-12-29 11:20:06 1514564406.856793: $GPZDA,162007.00,29,12,2017,00,00*68
2017-12-29 11:20:06 1514564406.856920: $GPGGA,162007,3946.9569,N,08404.9855,W,2,11,1.20,326.74,M,-33.324,M,,*7C
2017-12-29 11:20:06 1514564406.856985: $GPRMC,162007,A,3946.9569,N,08404.9855,W,0.0000,0.000,291217,,*31
2017-12-29 11:20:06 1514564406.857045: $GPGSA,A,3,8,10,15,18,20,21,24,27,32,13,138,,1.7,1.2,1.3*3A
2017-12-29 11:20:07 1514564407.482344: $GPZDA,162008.00,29,12,2017,00,00*67
2017-12-29 11:20:07 1514564407.482512: $GPGGA,162008,3946.9569,N,08404.9855,W,2,11,1.20,326.74,M,-33.324,M,,*73
2017-12-29 11:20:07 1514564407.482577: $GPRMC,162008,A,3946.9569,N,08404.9855,W,0.0000,0.000,291217,,*3E
2017-12-29 11:20:07 1514564407.482637: $GPGSA,A,3,8,10,15,18,20,21,24,27,32,13,138,,1.7,1.2,1.3*3A
2017-12-29 11:20:08 1514564408.401922: $GPZDA,162009.00,29,12,2017,00,00*66
2017-12-29 11:20:08 1514564408.402083: $GPGGA,162009,3946.9569,N,08404.9855,W,2,11,1.20,326.74,M,-33.324,M,,*72
2017-12-29 11:20:08 1514564408.402149: $GPRMC,162009,A,3946.9569,N,08404.9855,W,0.0000,0.000,291217,,*3F
2017-12-29 11:20:08 1514564408.402209: $GPGSA,A,3,8,10,15,18,20,21,24,27,32,13,138,,1.7,1.2,1.3*3A
2017-12-29 11:20:09 1514564409.738541: $GPGSV,3,1,12,08,06,322,34,10,42,301,42,15,36,052,45,18,72,340,40*79
2017-12-29 11:20:09 1514564409.738683: $GPGSV,3,2,12,20,34,096,47,21,62,189,42,24,51,108,45,27,19,288,31*74
2017-12-29 11:20:09 1514564409.738746: $GPGSV,3,3,12,32,22,238,26,13,07,049,00,14,04,232,00,138,38,213,44*4D
2017-12-29 11:20:09 1514564409.852346: $GPZDA,162010.00,29,12,2017,00,00*6E
2017-12-29 11:20:09 1514564409.852482: $GPGGA,162010,3946.9569,N,08404.9855,W,2,10,1.20,326.74,M,-33.324,M,,*7B
2017-12-29 11:20:09 1514564409.852546: $GPRMC,162010,A,3946.9569,N,08404.9855,W,0.0000,0.000,291217,,*37
2017-12-29 11:20:09 1514564409.852607: $GPGSA,A,3,8,10,15,18,20,21,24,27,32,138,,,1.7,1.2,1.3*38
2017-12-29 11:20:10 1514564410.390710: $GPZDA,162011.00,29,12,2017,00,00*6F
2017-12-29 11:20:10 1514564410.390865: $GPGGA,162011,3946.9569,N,08404.9855,W,2,10,1.20,326.74,M,-33.324,M,,*7A
2017-12-29 11:20:10 1514564410.390929: $GPRMC,162011,A,3946.9569,N,08404.9855,W,0.0000,0.000,291217,,*36
2017-12-29 11:20:10 1514564410.390989: $GPGSA,A,3,8,10,15,18,20,21,24,27,32,138,,,1.7,1.2,1.3*38
2017-12-29 11:20:11 1514564411.404003: $GPZDA,162012.00,29,12,2017,00,00*6C
2017-12-29 11:20:11 1514564411.404163: $GPGGA,162012,3946.9569,N,08404.9855,W,2,10,1.20,326.74,M,-33.324,M,,*79
2017-12-29 11:20:11 1514564411.404230: $GPRMC,162012,A,3946.9569,N,08404.9855,W,0.0000,0.000,291217,,*35
2017-12-29 11:20:11 1514564411.404290: $GPGSA,A,3,8,10,15,18,20,21,24,27,32,138,,,1.7,1.2,1.3*38
2017-12-29 11:20:12 1514564412.731470: $GPGSV,3,1,12,08,06,322,34,10,42,301,41,15,36,052,45,18,72,340,40*7A
2017-12-29 11:20:12 1514564412.731678: $GPGSV,3,2,12,20,34,096,46,21,62,189,42,24,51,108,45,27,19,288,33*77
2017-12-29 11:20:12 1514564412.731746: $GPGSV,3,3,12,32,22,238,27,14,04,232,21,13,07,049,06,138,38,213,46*4B
2017-12-29 11:20:12 1514564412.845076: $GPZDA,162013.00,29,12,2017,00,00*6D
2017-12-29 11:20:12 1514564412.845213: $GPGGA,162013,3946.9569,N,08404.9855,W,2,11,1.20,326.74,M,-33.324,M,,*79
2017-12-29 11:20:12 1514564412.845276: $GPRMC,162013,A,3946.9569,N,08404.9855,W,0.0000,0.000,291217,,*34
2017-12-29 11:20:12 1514564412.845336: $GPGSA,A,3,8,10,15,18,20,21,24,27,32,14,138,,1.7,1.2,1.3*3D
2017-12-29 11:20:13 1514564413.403150: $GPZDA,162014.00,29,12,2017,00,00*6A
2017-12-29 11:20:13 1514564413.403312: $GPGGA,162014,3946.9569,N,08404.9855,W,2,11,1.20,326.74,M,-33.324,M,,*7E
2017-12-29 11:20:13 1514564413.403378: $GPRMC,162014,A,3946.9569,N,08404.9855,W,0.0000,0.000,291217,,*33
2017-12-29 11:20:13 1514564413.403439: $GPGSA,A,3,8,10,15,18,20,21,24,27,32,14,138,,1.7,1.2,1.3*3D
2017-12-29 11:20:14 1514564414.404290: $GPZDA,162015.00,29,12,2017,00,00*6B
2017-12-29 11:20:14 1514564414.404459: $GPGGA,162015,3946.9569,N,08404.9855,W,2,11,1.20,326.74,M,-33.324,M,,*7F
2017-12-29 11:20:14 1514564414.404523: $GPRMC,162015,A,3946.9569,N,08404.9855,W,0.0000,0.000,291217,,*32
2017-12-29 11:20:14 1514564414.404583: $GPGSA,A,3,8,10,15,18,20,21,24,27,32,14,138,,1.7,1.2,1.3*3D
2017-12-29 11:20:15 1514564415.732271: $GPGSV,3,1,12,08,06,322,34,10,42,301,42,15,36,052,45,18,72,340,41*78
2017-12-29 11:20:15 1514564415.732432: $GPGSV,3,2,12,20,34,096,47,21,62,189,42,24,51,108,45,27,19,288,35*70
2017-12-29 11:20:15 1514564415.732497: $GPGSV,3,3,12,32,22,238,27,13,07,049,00,14,04,232,00,138,38,213,45*4D
2017-12-29 11:20:15 1514564415.845860: $GPZDA,162016.00,29,12,2017,00,00*68
2017-12-29 11:20:15 1514564415.849548: $GPGGA,162016,3946.9569,N,08404.9855,W,1,10,1.00,326.74,M,-33.324,M,,*7C
2017-12-29 11:20:15 1514564415.849641: $GPRMC,162016,A,3946.9569,N,08404.9855,W,0.0000,0.000,291217,,*31
2017-12-29 11:20:15 1514564415.849703: $GPGSA,A,3,8,10,15,18,20,21,24,27,32,138,,,1.7,1.0,1.3*3A
2017-12-29 11:20:16 1514564416.396853: $GPZDA,162017.00,29,12,2017,00,00*69
2017-12-29 11:20:16 1514564416.397018: $GPGGA,162017,3946.9569,N,08404.9855,W,1,10,1.00,326.74,M,-33.324,M,,*7D
2017-12-29 11:20:16 1514564416.397084: $GPRMC,162017,A,3946.9569,N,08404.9855,W,0.0000,0.000,291217,,*30
2017-12-29 11:20:16 1514564416.397144: $GPGSA,A,3,8,10,15,18,20,21,24,27,32,138,,,1.7,1.0,1.3*3A
2017-12-29 11:20:17 1514564417.380902: $GPZDA,162018.00,29,12,2017,00,00*66
2017-12-29 11:20:17 1514564417.381120: $GPGGA,162018,3946.9569,N,08404.9855,W,1,10,1.00,326.74,M,-33.324,M,,*72
2017-12-29 11:20:17 1514564417.381194: $GPRMC,162018,A,3946.9569,N,08404.9855,W,0.0000,0.000,291217,,*3F
2017-12-29 11:20:17 1514564417.381255: $GPGSA,A,3,8,10,15,18,20,21,24,27,32,138,,,1.7,1.0,1.3*3A
2017-12-29 11:20:18 1514564418.731440: $GPGSV,3,1,12,08,06,322,34,10,42,301,42,15,36,052,45,18,72,340,41*78
2017-12-29 11:20:18 1514564418.731603: $GPGSV,3,2,12,20,34,096,47,21,62,189,42,24,51,108,45,27,19,288,36*73
2017-12-29 11:20:18 1514564418.731669: $GPGSV,3,3,12,32,22,238,27,13,07,049,06,14,04,232,00,138,38,213,44*4A
2017-12-29 11:20:18 1514564418.845071: $GPZDA,162019.00,29,12,2017,00,00*67
2017-12-29 11:20:18 1514564418.845209: $GPGGA,162019,3946.9569,N,08404.9855,W,1,10,1.00,326.74,M,-33.324,M,,*73
2017-12-29 11:20:18 1514564418.845273: $GPRMC,162019,A,3946.9569,N,08404.9855,W,0.0000,0.000,291217,,*3E
2017-12-29 11:20:18 1514564418.845333: $GPGSA,A,3,8,10,15,18,20,21,24,27,32,138,,,1.7,1.0,1.3*3A
2017-12-29 11:20:19 1514564419.412282: $GPZDA,162020.00,29,12,2017,00,00*6D
2017-12-29 11:20:19 1514564419.412450: $GPGGA,162020,3946.9569,N,08404.9855,W,1,10,1.00,326.74,M,-33.324,M,,*79
2017-12-29 11:20:19 1514564419.412515: $GPRMC,162020,A,3946.9569,N,08404.9855,W,0.2422,273.794,291217,,*3E
2017-12-29 11:20:19 1514564419.412575: $GPGSA,A,3,8,10,15,18,20,21,24,27,32,138,,,1.7,1.0,1.3*3A
2017-12-29 11:20:20 1514564420.406762: $GPZDA,162021.00,29,12,2017,00,00*6C
2017-12-29 11:20:20 1514564420.406980: $GPGGA,162021,3946.9569,N,08404.9855,W,1,10,1.00,326.74,M,-33.324,M,,*78
2017-12-29 11:20:20 1514564420.407049: $GPRMC,162021,A,3946.9569,N,08404.9855,W,0.2422,93.794,291217,,*03
2017-12-29 11:20:20 1514564420.407110: $GPGSA,A,3,8,10,15,18,20,21,24,27,32,138,,,1.7,1.0,1.3*3A
2017-12-29 11:20:21 1514564421.718477: $GPGSV,3,1,12,08,06,322,33,10,42,301,42,15,36,052,45,18,72,340,41*7F
2017-12-29 11:20:21 1514564421.718630: $GPGSV,3,2,12,20,34,096,47,21,62,189,42,24,51,108,45,27,19,288,36*73
2017-12-29 11:20:21 1514564421.718710: $GPGSV,3,3,12,32,22,238,27,14,04,232,00,13,07,049,03,138,38,213,44*4F
2017-12-29 11:20:21 1514564421.832125: $GPZDA,162022.00,29,12,2017,00,00*6F
2017-12-29 11:20:21 1514564421.832255: $GPGGA,162022,3946.9569,N,08404.9855,W,1,10,1.00,326.74,M,-33.324,M,,*7B
2017-12-29 11:20:21 1514564421.832319: $GPRMC,162022,A,3946.9569,N,08404.9855,W,0.0000,0.000,291217,,*36
2017-12-29 11:20:21 1514564421.832379: $GPGSA,A,3,8,10,15,18,20,21,24,27,32,138,,,1.7,1.0,1.3*3A
2017-12-29 11:20:22 1514564422.457520: $GPZDA,162023.00,29,12,2017,00,00*6E
2017-12-29 11:20:22 1514564422.457679: $GPGGA,162023,3946.9569,N,08404.9855,W,1,10,1.00,326.74,M,-33.324,M,,*7A
2017-12-29 11:20:22 1514564422.457744: $GPRMC,162023,A,3946.9569,N,08404.9855,W,0.0000,0.000,291217,,*37
2017-12-29 11:20:22 1514564422.457805: $GPGSA,A,3,8,10,15,18,20,21,24,27,32,138,,,1.7,1.0,1.3*3A
2017-12-29 11:20:23 1514564423.403359: $GPZDA,162024.00,29,12,2017,00,00*69
2017-12-29 11:20:23 1514564423.403512: $GPGGA,162024,3946.9569,N,08404.9855,W,1,10,1.00,326.74,M,-33.324,M,,*7D
2017-12-29 11:20:23 1514564423.403576: $GPRMC,162024,A,3946.9569,N,08404.9855,W,0.0000,0.000,291217,,*30
2017-12-29 11:20:23 1514564423.403636: $GPGSA,A,3,8,10,15,18,20,21,24,27,32,138,,,1.7,1.0,1.3*3A
2017-12-29 11:20:24 1514564424.721378: $GPGSV,3,1,12,08,06,322,33,10,42,301,41,15,36,052,44,18,72,340,41*7D
2017-12-29 11:20:24 1514564424.721544: $GPGSV,3,2,12,20,34,096,47,21,62,189,42,24,51,108,45,27,19,288,36*73
2017-12-29 11:20:24 1514564424.721609: $GPGSV,3,3,12,32,22,238,28,13,07,049,00,14,04,232,00,138,38,213,44*43
2017-12-29 11:20:24 1514564424.834946: $GPZDA,162025.00,29,12,2017,00,00*68
2017-12-29 11:20:24 1514564424.835074: $GPGGA,162025,3946.9569,N,08404.9855,W,1,10,1.00,326.74,M,-33.324,M,,*7C
2017-12-29 11:20:24 1514564424.835137: $GPRMC,162025,A,3946.9569,N,08404.9855,W,0.0000,0.000,291217,,*31
2017-12-29 11:20:24 1514564424.835197: $GPGSA,A,3,8,10,15,18,20,21,24,27,32,138,,,1.7,1.0,1.3*3A
2017-12-29 11:20:25 1514564425.403352: $GPZDA,162026.00,29,12,2017,00,00*6B
2017-12-29 11:20:25 1514564425.403505: $GPGGA,162026,3946.9565,N,08404.9856,W,1,10,1.00,327.50,M,-33.324,M,,*77
2017-12-29 11:20:25 1514564425.403569: $GPRMC,162026,A,3946.9565,N,08404.9856,W,0.0000,0.000,291217,,*3D
2017-12-29 11:20:25 1514564425.403629: $GPGSA,A,3,8,10,15,18,20,21,24,27,32,138,,,1.7,1.0,1.3*3A
2017-12-29 11:20:26 1514564426.387975: $GPZDA,162027.00,29,12,2017,00,00*6A
2017-12-29 11:20:26 1514564426.388133: $GPGGA,162027,3946.9565,N,08404.9856,W,1,10,1.00,327.50,M,-33.324,M,,*76
2017-12-29 11:20:26 1514564426.388199: $GPRMC,162027,A,3946.9565,N,08404.9856,W,0.0000,0.000,291217,,*3C
2017-12-29 11:20:26 1514564426.388260: $GPGSA,A,3,8,10,15,18,20,21,24,27,32,138,,,1.7,1.0,1.3*3A
2017-12-29 11:20:27 1514564427.734269: $GPGSV,3,1,12,08,06,322,29,10,42,301,41,15,36,052,45,18,72,340,41*77
2017-12-29 11:20:27 1514564427.734431: $GPGSV,3,2,12,20,34,096,47,21,62,189,43,24,51,108,45,27,19,288,37*73
2017-12-29 11:20:27 1514564427.734496: $GPGSV,3,3,12,32,22,238,30,13,07,049,00,14,04,232,00,138,38,213,44*4A
2017-12-29 11:20:27 1514564427.846691: $GPZDA,162028.00,29,12,2017,00,00*65
2017-12-29 11:20:27 1514564427.846821: $GPGGA,162028,3946.9565,N,08404.9849,W,1,10,1.00,327.58,M,-33.324,M,,*7F
2017-12-29 11:20:27 1514564427.846885: $GPRMC,162028,A,3946.9565,N,08404.9849,W,0.0000,0.000,291217,,*3D
2017-12-29 11:20:27 1514564427.846944: $GPGSA,A,3,8,10,15,18,20,21,24,27,32,138,,,1.7,1.0,1.3*3A
2017-12-29 11:20:28 1514564428.397545: $GPZDA,162029.00,29,12,2017,00,00*64
2017-12-29 11:20:28 1514564428.397711: $GPGGA,162029,3946.9565,N,08404.9849,W,1,10,1.00,327.58,M,-33.324,M,,*7E
2017-12-29 11:20:28 1514564428.397777: $GPRMC,162029,A,3946.9565,N,08404.9849,W,0.0000,0.000,291217,,*3C
2017-12-29 11:20:28 1514564428.397837: $GPGSA,A,3,8,10,15,18,20,21,24,27,32,138,,,1.7,1.0,1.3*3A
2017-12-29 11:20:29 1514564429.387203: $GPZDA,162030.00,29,12,2017,00,00*6C
2017-12-29 11:20:29 1514564429.387371: $GPGGA,162030,3946.9565,N,08404.9849,W,1,10,1.00,327.58,M,-33.324,M,,*76
2017-12-29 11:20:29 1514564429.387436: $GPRMC,162030,A,3946.9565,N,08404.9849,W,0.0000,0.000,291217,,*34
2017-12-29 11:20:29 1514564429.387496: $GPGSA,A,3,8,10,15,18,20,21,24,27,32,138,,,1.7,1.0,1.3*3A
