2017-12-01 12:16:26 1512148586.466819: {"class":"VERSION","release":"3.16","rev":"3.16-4","proto_major":3,"proto_minor":11}
2017-12-01 12:16:26 1512148586.467269: {"class":"DEVICES","devices":[{"class":"DEVICE","path":"/dev/ttyUSB0","driver":"SiRF","subtype":"9\u0006GSD4e_4.1.2-P1_RPATCH.05-F-GPS-4R-1510281 11/03/2015 307","activated":"2017-12-01T17:16:26.461Z","flags":1,"native":1,"bps":4800,"parity":"N","stopbits":1,"cycle":1.00}]}
2017-12-01 12:16:26 1512148586.467407: {"class":"WATCH","enable":true,"json":false,"nmea":true,"raw":0,"scaled":false,"timing":false,"split24":false,"pps":false}
2017-12-01 12:16:26 1512148586.796387: $GPZDA,171627.00,01,12,2017,00,00*64
2017-12-01 12:16:26 1512148586.796563: $GPGGA,171627,3946.9578,N,08404.9826,W,2,12,0.80,301.25,M,-33.324,M,,*77
2017-12-01 12:16:26 1512148586.796631: $GPRMC,171627,A,3946.9578,N,08404.9826,W,0.0000,0.000,011217,,*39
2017-12-01 12:16:26 1512148586.796691: $GPGSA,A,3,10,13,15,18,20,21,24,27,5,29,32,138,2.0,0.8,1.5*35
2017-12-01 12:16:27 1512148587.368607: $GPZDA,171628.00,01,12,2017,00,00*6B
2017-12-01 12:16:27 1512148587.368803: $GPGGA,171628,3946.9578,N,08404.9826,W,2,12,0.80,301.25,M,-33.324,M,,*78
2017-12-01 12:16:27 1512148587.368872: $GPRMC,171628,A,3946.9578,N,08404.9826,W,0.0000,0.000,011217,,*36
2017-12-01 12:16:27 1512148587.368934: $GPGSA,A,3,10,13,15,18,20,21,24,27,5,29,32,138,2.0,0.8,1.5*35
2017-12-01 12:16:28 1512148588.706730: $GPGSV,3,1,12,10,23,283,42,13,29,045,43,15,61,051,46,18,54,300,45*77
2017-12-01 12:16:28 1512148588.706912: $GPGSV,3,2,12,20,52,072,45,21,78,270,43,24,33,139,47,27,16,313,42*7F
2017-12-01 12:16:28 1512148588.706978: $GPGSV,3,3,12,05,04,087,20,29,10,190,31,32,01,225,21,138,38,213,45*40
2017-12-01 12:16:28 1512148588.820221: $GPZDA,171629.00,01,12,2017,00,00*6A
2017-12-01 12:16:28 1512148588.820413: $GPGGA,171629,3946.9578,N,08404.9826,W,2,12,0.80,301.25,M,-33.324,M,,*79
2017-12-01 12:16:28 1512148588.820479: $GPRMC,171629,A,3946.9578,N,08404.9826,W,0.0000,0.000,011217,,*37
2017-12-01 12:16:28 1512148588.820540: $GPGSA,A,3,10,13,15,18,20,21,24,27,5,29,32,138,2.0,0.8,1.5*35
2017-12-01 12:16:29 1512148589.383771: $GPZDA,171630.00,01,12,2017,00,00*62
2017-12-01 12:16:29 1512148589.383956: $GPGGA,171630,3946.9578,N,08404.9826,W,2,12,0.80,301.25,M,-33.324,M,,*71
2017-12-01 12:16:29 1512148589.384025: $GPRMC,171630,A,3946.9578,N,08404.9826,W,0.0000,0.000,011217,,*3F
2017-12-01 12:16:29 1512148589.384086: $GPGSA,A,3,10,13,15,18,20,21,24,27,5,29,32,138,2.0,0.8,1.5*35
2017-12-01 12:16:30 1512148590.362693: $GPZDA,171631.00,01,12,2017,00,00*63
2017-12-01 12:16:30 1512148590.362878: $GPGGA,171631,3946.9578,N,08404.9826,W,2,12,0.80,301.25,M,-33.324,M,,*70
2017-12-01 12:16:30 1512148590.362947: $GPRMC,171631,A,3946.9578,N,08404.9826,W,0.0000,0.000,011217,,*3E
2017-12-01 12:16:30 1512148590.363008: $GPGSA,A,3,10,13,15,18,20,21,24,27,5,29,32,138,2.0,0.8,1.5*35
2017-12-01 12:16:31 1512148591.705836: $GPGSV,3,1,12,10,23,283,42,13,29,045,42,15,61,051,45,18,54,300,45*75
2017-12-01 12:16:31 1512148591.705994: $GPGSV,3,2,12,20,52,072,45,21,78,270,43,24,33,139,47,27,16,313,42*7F
2017-12-01 12:16:31 1512148591.706060: $GPGSV,3,3,12,05,04,087,20,29,10,190,31,32,01,225,21,138,38,213,45*40
2017-12-01 12:16:31 1512148591.818033: $GPZDA,171632.00,01,12,2017,00,00*60
2017-12-01 12:16:31 1512148591.818191: $GPGGA,171632,3946.9578,N,08404.9826,W,2,12,0.80,301.25,M,-33.324,M,,*73
2017-12-01 12:16:31 1512148591.818256: $GPRMC,171632,A,3946.9578,N,08404.9826,W,0.0000,0.000,011217,,*3D
2017-12-01 12:16:31 1512148591.818316: $GPGSA,A,3,10,13,15,18,20,21,24,27,5,29,32,138,2.0,0.8,1.5*35
2017-12-01 12:16:32 1512148592.385435: $GPZDA,171633.00,01,12,2017,00,00*61
2017-12-01 12:16:32 1512148592.385822: $GPGGA,171633,3946.9578,N,08404.9826,W,2,12,0.80,301.25,M,-33.324,M,,*72
2017-12-01 12:16:32 1512148592.389947: $GPRMC,171633,A,3946.9578,N,08404.9826,W,0.0000,0.000,011217,,*3C
2017-12-01 12:16:32 1512148592.390025: $GPGSA,A,3,10,13,15,18,20,21,24,27,5,29,32,138,2.0,0.8,1.5*35
2017-12-01 12:16:33 1512148593.384689: $GPZDA,171634.00,01,12,2017,00,00*66
2017-12-01 12:16:33 1512148593.384927: $GPGGA,171634,3946.9578,N,08404.9826,W,2,12,0.80,301.25,M,-33.324,M,,*75
2017-12-01 12:16:33 1512148593.384997: $GPRMC,171634,A,3946.9578,N,08404.9826,W,0.0000,0.000,011217,,*3B
2017-12-01 12:16:33 1512148593.385057: $GPGSA,A,3,10,13,15,18,20,21,24,27,5,29,32,138,2.0,0.8,1.5*35
2017-12-01 12:16:34 1512148594.704292: $GPGSV,3,1,12,10,23,283,42,13,29,045,43,15,61,051,46,18,54,300,45*77
2017-12-01 12:16:34 1512148594.704469: $GPGSV,3,2,12,20,52,072,45,21,78,270,43,24,33,139,47,27,16,313,42*7F
2017-12-01 12:16:34 1512148594.704535: $GPGSV,3,3,12,05,04,087,20,29,10,190,31,32,01,225,20,138,38,213,46*42
2017-12-01 12:16:34 1512148594.817654: $GPZDA,171635.00,01,12,2017,00,00*67
2017-12-01 12:16:34 1512148594.817823: $GPGGA,171635,3946.9578,N,08404.9826,W,2,12,0.80,301.25,M,-33.324,M,,*74
2017-12-01 12:16:34 1512148594.817889: $GPRMC,171635,A,3946.9578,N,08404.9826,W,0.0000,0.000,011217,,*3A
2017-12-01 12:16:34 1512148594.817949: $GPGSA,A,3,10,13,15,18,20,21,24,27,5,29,32,138,2.0,0.8,1.5*35
2017-12-01 12:16:35 1512148595.442971: $GPZDA,171636.00,01,12,2017,00,00*64
2017-12-01 12:16:35 1512148595.443160: $GPGGA,171636,3946.9578,N,08404.9826,W,2,12,0.80,301.25,M,-33.324,M,,*77
2017-12-01 12:16:35 1512148595.443243: $GPRMC,171636,A,3946.9578,N,08404.9826,W,0.0000,0.000,011217,,*39
2017-12-01 12:16:35 1512148595.443304: $GPGSA,A,3,10,13,15,18,20,21,24,27,5,29,32,138,2.0,0.8,1.5*35
2017-12-01 12:16:36 1512148596.371472: $GPZDA,171637.00,01,12,2017,00,00*65
2017-12-01 12:16:36 1512148596.371649: $GPGGA,171637,3946.9578,N,08404.9826,W,2,12,0.80,301.25,M,-33.324,M,,*76
2017-12-01 12:16:36 1512148596.371717: $GPRMC,171637,A,3946.9578,N,08404.9826,W,0.0000,0.000,011217,,*38
2017-12-01 12:16:36 1512148596.371779: $GPGSA,A,3,10,13,15,18,20,21,24,27,5,29,32,138,2.0,0.8,1.5*35
