2017-12-31 16:55:07 1514757307.886900: {"class":"VERSION","release":"3.16","rev":"3.16-4","proto_major":3,"proto_minor":11}
2017-12-31 16:55:07 1514757307.887824: {"class":"DEVICES","devices":[{"class":"DEVICE","path":"/dev/ttyUSB0","driver":"SiRF","activated":"2017-12-31T21:55:07.485Z","flags":1,"native":1,"bps":4800,"parity":"N","stopbits":1,"cycle":1.00}]}
2017-12-31 16:55:07 1514757307.888277: {"class":"WATCH","enable":true,"json":false,"nmea":true,"raw":0,"scaled":false,"timing":false,"split24":false,"pps":false}
2017-12-31 16:55:08 1514757308.336775: $GPZDA,215509.00,31,12,2017,00,00*69
2017-12-31 16:55:08 1514757308.336944: $GPGGA,215509,3946.9581,N,08404.9855,W,2,11,0.80,303.74,M,-33.324,M,,*7E
2017-12-31 16:55:08 1514757308.337010: $GPRMC,215509,A,3946.9581,N,08404.9855,W,0.0000,0.000,311217,,*36
2017-12-31 16:55:08 1514757308.337072: $GPGSA,A,3,22,23,25,3,16,29,31,14,32,26,135,,1.7,0.8,1.3*32
2017-12-31 16:55:09 1514757309.679740: $GPGSV,3,1,11,22,47,246,41,23,24,306,39,25,05,037,20,03,46,277,38*79
2017-12-31 16:55:09 1514757309.679929: $GPGSV,3,2,11,16,41,190,46,29,14,060,25,31,53,046,51,14,44,109,42*76
2017-12-31 16:55:09 1514757309.679995: $GPGSV,3,3,11,32,22,120,44,26,70,154,43,135,22,240,43*79
2017-12-31 16:55:09 1514757309.793356: $GPZDA,215510.00,31,12,2017,00,00*61
2017-12-31 16:55:09 1514757309.793514: $GPGGA,215510,3946.9581,N,08404.9855,W,2,11,0.80,303.74,M,-33.324,M,,*76
2017-12-31 16:55:09 1514757309.793581: $GPRMC,215510,A,3946.9581,N,08404.9855,W,0.0000,0.000,311217,,*3E
2017-12-31 16:55:09 1514757309.793641: $GPGSA,A,3,22,23,25,3,16,29,31,14,32,26,135,,1.7,0.8,1.3*32
2017-12-31 16:55:10 1514757310.420020: $GPZDA,215511.00,31,12,2017,00,00*60
2017-12-31 16:55:10 1514757310.420188: $GPGGA,215511,3946.9581,N,08404.9855,W,2,11,0.80,303.74,M,-33.324,M,,*77
2017-12-31 16:55:10 1514757310.420254: $GPRMC,215511,A,3946.9581,N,08404.9855,W,0.0000,0.000,311217,,*3F
2017-12-31 16:55:10 1514757310.420336: $GPGSA,A,3,22,23,25,3,16,29,31,14,32,26,135,,1.7,0.8,1.3*32
2017-12-31 16:55:11 1514757311.359631: $GPZDA,215512.00,31,12,2017,00,00*63
2017-12-31 16:55:11 1514757311.359794: $GPGGA,215512,3946.9581,N,08404.9855,W,2,11,0.80,303.74,M,-33.324,M,,*74
2017-12-31 16:55:11 1514757311.359862: $GPRMC,215512,A,3946.9581,N,08404.9855,W,0.0000,0.000,311217,,*3C
2017-12-31 16:55:11 1514757311.359923: $GPGSA,A,3,22,23,25,3,16,29,31,14,32,26,135,,1.7,0.8,1.3*32
2017-12-31 16:55:12 1514757312.678843: $GPGSV,3,1,11,22,47,246,41,23,24,306,38,25,05,037,20,03,46,277,38*78
2017-12-31 16:55:12 1514757312.679004: $GPGSV,3,2,11,16,41,190,46,29,14,060,25,31,53,046,51,14,44,109,42*76
2017-12-31 16:55:12 1514757312.679071: $GPGSV,3,3,11,32,22,120,44,26,70,154,43,135,22,240,43*79
2017-12-31 16:55:12 1514757312.792445: $GPZDA,215513.00,31,12,2017,00,00*62
2017-12-31 16:55:12 1514757312.792574: $GPGGA,215513,3946.9581,N,08404.9855,W,2,11,0.80,303.74,M,-33.324,M,,*75
2017-12-31 16:55:12 1514757312.792640: $GPRMC,215513,A,3946.9581,N,08404.9855,W,0.0000,0.000,311217,,*3D
2017-12-31 16:55:12 1514757312.792701: $GPGSA,A,3,22,23,25,3,16,29,31,14,32,26,135,,1.7,0.8,1.3*32
2017-12-31 16:55:13 1514757313.344610: $GPZDA,215514.00,31,12,2017,00,00*65
2017-12-31 16:55:13 1514757313.344768: $GPGGA,215514,3946.9581,N,08404.9855,W,2,11,0.80,303.74,M,-33.324,M,,*72
2017-12-31 16:55:13 1514757313.344835: $GPRMC,215514,A,3946.9581,N,08404.9855,W,0.0000,0.000,311217,,*3A
2017-12-31 16:55:13 1514757313.344896: $GPGSA,A,3,22,23,25,3,16,29,31,14,32,26,135,,1.7,0.8,1.3*32
2017-12-31 16:55:14 1514757314.353128: $GPZDA,215515.00,31,12,2017,00,00*64
2017-12-31 16:55:14 1514757314.353312: $GPGGA,215515,3946.9581,N,08404.9855,W,2,11,0.80,303.74,M,-33.324,M,,*73
2017-12-31 16:55:14 1514757314.353396: $GPRMC,215515,A,3946.9581,N,08404.9855,W,0.0000,0.000,311217,,*3B
2017-12-31 16:55:14 1514757314.353459: $GPGSA,A,3,22,23,25,3,16,29,31,14,32,26,135,,1.7,0.8,1.3*32
2017-12-31 16:55:15 1514757315.679158: $GPGSV,3,1,11,22,47,246,41,23,24,306,39,25,05,037,20,03,46,277,39*78
2017-12-31 16:55:15 1514757315.679364: $GPGSV,3,2,11,16,41,190,46,29,14,060,26,31,53,046,51,14,44,109,42*75
2017-12-31 16:55:15 1514757315.679483: $GPGSV,3,3,11,32,22,120,44,26,70,154,43,135,22,240,43*79
2017-12-31 16:55:15 1514757315.792581: $GPZDA,215516.00,31,12,2017,00,00*67
2017-12-31 16:55:15 1514757315.792735: $GPGGA,215516,3946.9581,N,08404.9855,W,2,11,0.80,303.74,M,-33.324,M,,*70
2017-12-31 16:55:15 1514757315.792802: $GPRMC,215516,A,3946.9581,N,08404.9855,W,0.0000,0.000,311217,,*38
2017-12-31 16:55:15 1514757315.792864: $GPGSA,A,3,22,23,25,3,16,29,31,14,32,26,135,,1.7,0.8,1.3*32
2017-12-31 16:55:16 1514757316.343460: $GPZDA,215517.00,31,12,2017,00,00*66
2017-12-31 16:55:16 1514757316.343619: $GPGGA,215517,3946.9581,N,08404.9855,W,2,11,0.80,303.74,M,-33.324,M,,*71
2017-12-31 16:55:16 1514757316.343685: $GPRMC,215517,A,3946.9581,N,08404.9855,W,0.0000,0.000,311217,,*39
2017-12-31 16:55:16 1514757316.343747: $GPGSA,A,3,22,23,25,3,16,29,31,14,32,26,135,,1.7,0.8,1.3*32
2017-12-31 16:55:17 1514757317.344727: $GPZDA,215518.00,31,12,2017,00,00*69
2017-12-31 16:55:17 1514757317.344886: $GPGGA,215518,3946.9581,N,08404.9855,W,2,11,0.80,303.74,M,-33.324,M,,*7E
2017-12-31 16:55:17 1514757317.344953: $GPRMC,215518,A,3946.9581,N,08404.9855,W,0.0000,0.000,311217,,*36
2017-12-31 16:55:17 1514757317.345014: $GPGSA,A,3,22,23,25,3,16,29,31,14,32,26,135,,1.7,0.8,1.3*32
