2017-11-15 19:35:11 1510792511.522454: {"class":"VERSION","release":"3.17","rev":"3.17","proto_major":3,"proto_minor":12}
2017-11-15 19:35:11 1510792511.522959: {"class":"DEVICES","devices":[{"class":"DEVICE","path":"/dev/ttyUSB0","driver":"SiRF","subtype":"9\u0006GSD4e_4.1.2-P1_RPATCH.05-F-GPS-4R-1510281 11/03/2015 307","activated":"2017-11-16T00:35:11.470Z","flags":1,"native":1,"bps":4800,"parity":"N","stopbits":1,"cycle":1.00}]}
2017-11-15 19:35:11 1510792511.523073: {"class":"WATCH","enable":true,"json":false,"nmea":true,"raw":0,"scaled":false,"timing":false,"split24":false,"pps":false}
2017-11-15 19:35:12 1510792512.666010: $GPGSV,3,1,12,32,35,109,24,14,54,094,04,16,24,190,13,26,55,172,21*74
2017-11-15 19:35:12 1510792512.666180: $GPGSV,3,2,12,29,11,070,09,31,66,027,17,03,40,297,21,23,12,301,15*73
2017-11-15 19:35:12 1510792512.666239: $GPGSV,3,3,12,25,16,039,00,01,05,252,00,22,50,268,18,135,23,238,00*4E
2017-11-15 19:35:12 1510792512.779345: $GPZDA,003511.00,16,11,2017,00,00*63
2017-11-15 19:35:12 1510792512.779502: $GPGGA,003511,3946.9466,N,08404.9543,W,1,08,1.40,293.35,M,-33.324,M,,*7B
2017-11-15 19:35:12 1510792512.779561: $GPRMC,003511,A,3946.9466,N,08404.9543,W,1.7180,158.671,161117,,*3D
2017-11-15 19:35:12 1510792512.779617: $GPGSA,A,3,32,16,26,29,31,3,23,22,,,,,3.4,1.4,2.9*02
2017-11-15 19:35:13 1510792513.331423: $GPZDA,003512.00,16,11,2017,00,00*60
2017-11-15 19:35:13 1510792513.331617: $GPGGA,003512,3946.9466,N,08404.9543,W,1,08,1.40,293.35,M,-33.324,M,,*78
2017-11-15 19:35:13 1510792513.334813: $GPRMC,003512,A,3946.9466,N,08404.9543,W,1.2381,172.270,161117,,*35
2017-11-15 19:35:13 1510792513.334892: $GPGSA,A,3,32,16,26,29,31,3,23,22,,,,,3.4,1.4,2.9*02
2017-11-15 19:35:14 1510792514.331129: $GPZDA,003513.00,16,11,2017,00,00*61
2017-11-15 19:35:14 1510792514.331295: $GPGGA,003513,3946.9458,N,08404.9543,W,1,08,1.40,293.48,M,-33.324,M,,*7E
2017-11-15 19:35:14 1510792514.331356: $GPRMC,003513,A,3946.9458,N,08404.9543,W,1.2132,183.551,161117,,*39
2017-11-15 19:35:14 1510792514.331412: $GPGSA,A,3,32,16,26,29,31,3,23,22,,,,,3.4,1.4,2.9*02
2017-11-15 19:35:15 1510792515.666896: $GPGSV,3,1,12,32,35,109,24,14,54,094,05,16,24,190,14,26,55,172,21*72
2017-11-15 19:35:15 1510792515.667066: $GPGSV,3,2,12,29,11,070,10,31,66,027,17,03,40,297,21,23,12,301,15*7B
2017-11-15 19:35:15 1510792515.667127: $GPGSV,3,3,12,25,16,039,00,01,05,252,00,22,50,268,19,135,23,238,00*4F
2017-11-15 19:35:15 1510792515.780499: $GPZDA,003514.00,16,11,2017,00,00*66
2017-11-15 19:35:15 1510792515.780659: $GPGGA,003514,3946.9450,N,08404.9544,W,1,08,1.40,293.60,M,-33.324,M,,*7C
2017-11-15 19:35:15 1510792515.780719: $GPRMC,003514,A,3946.9450,N,08404.9544,W,1.0269,184.197,161117,,*37
2017-11-15 19:35:15 1510792515.780774: $GPGSA,A,3,32,16,26,29,31,3,23,22,,,,,3.4,1.4,2.9*02
2017-11-15 19:35:16 1510792516.405564: $GPZDA,003515.00,16,11,2017,00,00*67
2017-11-15 19:35:16 1510792516.405728: $GPGGA,003515,3946.9451,N,08404.9551,W,1,08,1.60,293.52,M,-33.324,M,,*7B
2017-11-15 19:35:16 1510792516.405787: $GPRMC,003515,A,3946.9451,N,08404.9551,W,1.3044,205.352,161117,,*3C
2017-11-15 19:35:16 1510792516.405842: $GPGSA,A,3,32,16,26,29,31,3,23,22,,,,,3.4,1.6,2.9*00
2017-11-15 19:35:17 1510792517.346391: $GPZDA,003516.00,16,11,2017,00,00*64
2017-11-15 19:35:17 1510792517.346555: $GPGGA,003516,3946.9443,N,08404.9552,W,1,08,1.60,293.65,M,-33.324,M,,*7C
2017-11-15 19:35:17 1510792517.346616: $GPRMC,003516,A,3946.9443,N,08404.9552,W,1.5738,192.547,161117,,*3A
2017-11-15 19:35:17 1510792517.346672: $GPGSA,A,3,32,16,26,29,31,3,23,22,,,,,3.4,1.6,2.9*00
2017-11-15 19:35:18 1510792518.665890: $GPGSV,3,1,12,32,35,109,23,14,54,094,04,16,24,190,16,26,55,172,21*76
2017-11-15 19:35:18 1510792518.666050: $GPGSV,3,2,12,25,16,039,00,31,66,027,17,03,40,297,21,23,12,301,15*7C
2017-11-15 19:35:18 1510792518.666109: $GPGSV,3,3,12,29,11,070,00,01,05,252,00,22,50,268,19,135,23,238,00*49
2017-11-15 19:35:18 1510792518.779222: $GPZDA,003517.00,16,11,2017,00,00*65
2017-11-15 19:35:18 1510792518.779386: $GPGGA,003517,3946.9436,N,08404.9559,W,1,07,1.60,293.69,M,-33.324,M,,*77
2017-11-15 19:35:18 1510792518.779516: $GPRMC,003517,A,3946.9436,N,08404.9559,W,1.7820,199.971,161117,,*34
2017-11-15 19:35:18 1510792518.779574: $GPGSA,A,3,32,16,26,31,3,23,22,,,,,,3.4,1.6,2.9*0B
2017-11-15 19:35:19 1510792519.330210: $GPZDA,003518.00,16,11,2017,00,00*6A
2017-11-15 19:35:19 1510792519.330384: $GPGGA,003518,3946.9432,N,08404.9559,W,1,07,1.60,293.05,M,-33.324,M,,*76
2017-11-15 19:35:19 1510792519.330445: $GPRMC,003518,A,3946.9432,N,08404.9559,W,2.1833,203.636,161117,,*34
2017-11-15 19:35:19 1510792519.330502: $GPGSA,A,3,32,16,26,31,3,23,22,,,,,,3.4,1.6,2.9*0B
2017-11-15 19:35:20 1510792520.329811: $GPZDA,003519.00,16,11,2017,00,00*6B
2017-11-15 19:35:20 1510792520.329974: $GPGGA,003519,3946.9425,N,08404.9567,W,1,07,1.60,293.10,M,-33.324,M,,*78
2017-11-15 19:35:20 1510792520.330034: $GPRMC,003519,A,3946.9425,N,08404.9567,W,2.0320,204.738,161117,,*3E
2017-11-15 19:35:20 1510792520.330090: $GPGSA,A,3,32,16,26,31,3,23,22,,,,,,3.4,1.6,2.9*0B
