2017-12-01 15:50:10 1512161410.857333: {"class":"VERSION","release":"3.16","rev":"3.16-4","proto_major":3,"proto_minor":11}
2017-12-01 15:50:10 1512161410.857756: {"class":"DEVICES","devices":[{"class":"DEVICE","path":"/dev/ttyUSB0","driver":"SiRF","subtype":"9\u0006GSD4e_4.1.2-P1_RPATCH.05-F-GPS-4R-1510281 11/03/2015 307","activated":"2017-12-01T20:50:10.548Z","flags":1,"native":1,"bps":4800,"parity":"N","stopbits":1,"cycle":1.00}]}
2017-12-01 15:50:10 1512161410.857874: {"class":"WATCH","enable":true,"json":false,"nmea":true,"raw":0,"scaled":false,"timing":false,"split24":false,"pps":false}
2017-12-01 15:50:11 1512161411.744063: $GPGSV,3,1,12,01,15,316,38,10,68,133,48,12,25,069,36,14,56,294,41*72
2017-12-01 15:50:11 1512161411.748048: $GPGSV,3,2,12,18,35,136,47,24,12,045,30,25,31,112,43,31,37,213,49*7F
2017-12-01 15:50:11 1512161411.748165: $GPGSV,3,3,12,32,68,334,48,11,11,300,25,22,04,310,36,138,38,213,46*49
2017-12-01 15:50:11 1512161411.857516: $GPZDA,205012.00,01,12,2017,00,00*64
2017-12-01 15:50:11 1512161411.857689: $GPGGA,205012,3946.9573,N,08404.9869,W,2,12,0.80,302.30,M,-33.324,M,,*70
2017-12-01 15:50:11 1512161411.857756: $GPRMC,205012,A,3946.9573,N,08404.9869,W,0.0000,0.000,011217,,*39
2017-12-01 15:50:11 1512161411.857819: $GPGSA,A,3,1,10,12,14,18,24,25,31,32,11,22,138,2.0,0.8,1.5*3B
2017-12-01 15:50:12 1512161412.418477: $GPZDA,205013.00,01,12,2017,00,00*65
2017-12-01 15:50:12 1512161412.418649: $GPGGA,205013,3946.9573,N,08404.9869,W,2,12,0.80,302.30,M,-33.324,M,,*71
2017-12-01 15:50:12 1512161412.418718: $GPRMC,205013,A,3946.9573,N,08404.9869,W,0.0000,0.000,011217,,*38
2017-12-01 15:50:12 1512161412.418778: $GPGSA,A,3,1,10,12,14,18,24,25,31,32,11,22,138,2.0,0.8,1.5*3B
2017-12-01 15:50:13 1512161413.425164: $GPZDA,205014.00,01,12,2017,00,00*62
2017-12-01 15:50:13 1512161413.425336: $GPGGA,205014,3946.9573,N,08404.9869,W,2,12,0.80,302.30,M,-33.324,M,,*76
2017-12-01 15:50:13 1512161413.425404: $GPRMC,205014,A,3946.9573,N,08404.9869,W,0.0000,0.000,011217,,*3F
2017-12-01 15:50:13 1512161413.425467: $GPGSA,A,3,1,10,12,14,18,24,25,31,32,11,22,138,2.0,0.8,1.5*3B
2017-12-01 15:50:14 1512161414.760777: $GPGSV,3,1,12,01,15,316,39,10,68,133,48,12,25,069,36,14,56,294,41*73
2017-12-01 15:50:14 1512161414.760943: $GPGSV,3,2,12,18,35,136,47,24,12,045,30,25,31,112,44,31,37,213,49*78
2017-12-01 15:50:14 1512161414.761010: $GPGSV,3,3,12,32,68,334,48,11,11,300,25,22,04,310,36,138,38,213,46*49
2017-12-01 15:50:14 1512161414.872991: $GPZDA,205015.00,01,12,2017,00,00*63
2017-12-01 15:50:14 1512161414.873162: $GPGGA,205015,3946.9573,N,08404.9869,W,2,12,0.80,302.30,M,-33.324,M,,*77
2017-12-01 15:50:14 1512161414.873229: $GPRMC,205015,A,3946.9573,N,08404.9869,W,0.0000,0.000,011217,,*3E
2017-12-01 15:50:14 1512161414.873309: $GPGSA,A,3,1,10,12,14,18,24,25,31,32,11,22,138,2.0,0.8,1.5*3B
2017-12-01 15:50:15 1512161415.423827: $GPZDA,205016.00,01,12,2017,00,00*60
2017-12-01 15:50:15 1512161415.424006: $GPGGA,205016,3946.9573,N,08404.9869,W,2,12,0.80,302.30,M,-33.324,M,,*74
2017-12-01 15:50:15 1512161415.424095: $GPRMC,205016,A,3946.9573,N,08404.9869,W,0.0000,0.000,011217,,*3D
2017-12-01 15:50:15 1512161415.424161: $GPGSA,A,3,1,10,12,14,18,24,25,31,32,11,22,138,2.0,0.8,1.5*3B
2017-12-01 15:50:16 1512161416.423446: $GPZDA,205017.00,01,12,2017,00,00*61
2017-12-01 15:50:16 1512161416.423618: $GPGGA,205017,3946.9573,N,08404.9869,W,2,12,0.80,302.30,M,-33.324,M,,*75
2017-12-01 15:50:16 1512161416.423684: $GPRMC,205017,A,3946.9573,N,08404.9869,W,0.0000,0.000,011217,,*3C
2017-12-01 15:50:16 1512161416.423744: $GPGSA,A,3,1,10,12,14,18,24,25,31,32,11,22,138,2.0,0.8,1.5*3B
2017-12-01 15:50:17 1512161417.744125: $GPGSV,3,1,12,01,15,316,39,10,68,133,48,12,25,069,36,14,56,294,42*70
2017-12-01 15:50:17 1512161417.744309: $GPGSV,3,2,12,18,35,136,47,24,12,045,30,25,31,112,43,31,37,213,49*7F
2017-12-01 15:50:17 1512161417.744392: $GPGSV,3,3,12,32,68,334,48,11,11,300,25,22,04,310,36,138,38,213,46*49
2017-12-01 15:50:17 1512161417.857513: $GPZDA,205018.00,01,12,2017,00,00*6E
2017-12-01 15:50:17 1512161417.857700: $GPGGA,205018,3946.9573,N,08404.9869,W,2,12,0.80,302.30,M,-33.324,M,,*7A
2017-12-01 15:50:17 1512161417.857822: $GPRMC,205018,A,3946.9573,N,08404.9869,W,0.0000,0.000,011217,,*33
2017-12-01 15:50:17 1512161417.857885: $GPGSA,A,3,1,10,12,14,18,24,25,31,32,11,22,138,2.0,0.8,1.5*3B
2017-12-01 15:50:18 1512161418.483158: $GPZDA,205019.00,01,12,2017,00,00*6F
2017-12-01 15:50:18 1512161418.483330: $GPGGA,205019,3946.9573,N,08404.9869,W,2,12,0.80,302.30,M,-33.324,M,,*7B
2017-12-01 15:50:18 1512161418.483397: $GPRMC,205019,A,3946.9573,N,08404.9869,W,0.0000,0.000,011217,,*32
2017-12-01 15:50:18 1512161418.483458: $GPGSA,A,3,1,10,12,14,18,24,25,31,32,11,22,138,2.0,0.8,1.5*3B
2017-12-01 15:50:19 1512161419.407958: $GPZDA,205020.00,01,12,2017,00,00*65
2017-12-01 15:50:19 1512161419.408127: $GPGGA,205020,3946.9573,N,08404.9869,W,2,12,0.80,302.30,M,-33.324,M,,*71
2017-12-01 15:50:19 1512161419.408193: $GPRMC,205020,A,3946.9573,N,08404.9869,W,0.0000,0.000,011217,,*38
2017-12-01 15:50:19 1512161419.408255: $GPGSA,A,3,1,10,12,14,18,24,25,31,32,11,22,138,2.0,0.8,1.5*3B
2017-12-01 15:50:20 1512161420.737172: $GPGSV,3,1,12,01,15,316,40,10,68,133,47,12,25,069,38,14,56,294,42*7F
2017-12-01 15:50:20 1512161420.737372: $GPGSV,3,2,12,18,35,136,47,24,12,045,30,25,31,112,43,31,37,213,49*7F
2017-12-01 15:50:20 1512161420.737441: $GPGSV,3,3,12,32,68,334,48,11,11,300,15,22,04,310,35,138,38,213,45*4A
2017-12-01 15:50:20 1512161420.849593: $GPZDA,205021.00,01,12,2017,00,00*64
2017-12-01 15:50:20 1512161420.849762: $GPGGA,205021,3946.9573,N,08404.9869,W,2,12,0.80,302.30,M,-33.324,M,,*70
2017-12-01 15:50:20 1512161420.849828: $GPRMC,205021,A,3946.9573,N,08404.9869,W,0.0000,0.000,011217,,*39
2017-12-01 15:50:20 1512161420.849889: $GPGSA,A,3,1,10,12,14,18,24,25,31,32,11,22,138,2.0,0.8,1.5*3B
2017-12-01 15:50:21 1512161421.407962: $GPZDA,205022.00,01,12,2017,00,00*67
2017-12-01 15:50:21 1512161421.408132: $GPGGA,205022,3946.9573,N,08404.9869,W,2,12,0.80,302.30,M,-33.324,M,,*73
2017-12-01 15:50:21 1512161421.408198: $GPRMC,205022,A,3946.9573,N,08404.9869,W,0.0000,0.000,011217,,*3A
2017-12-01 15:50:21 1512161421.408259: $GPGSA,A,3,1,10,12,14,18,24,25,31,32,11,22,138,2.0,0.8,1.5*3B
2017-12-01 15:50:22 1512161422.407593: $GPZDA,205023.00,01,12,2017,00,00*66
2017-12-01 15:50:22 1512161422.407757: $GPGGA,205023,3946.9573,N,08404.9869,W,2,12,0.80,302.30,M,-33.324,M,,*72
2017-12-01 15:50:22 1512161422.407826: $GPRMC,205023,A,3946.9573,N,08404.9869,W,0.0000,0.000,011217,,*3B
2017-12-01 15:50:22 1512161422.407887: $GPGSA,A,3,1,10,12,14,18,24,25,31,32,11,22,138,2.0,0.8,1.5*3B
2017-12-01 15:50:23 1512161423.743809: $GPGSV,3,1,12,01,15,316,40,10,68,133,48,12,25,069,38,14,56,294,42*70
2017-12-01 15:50:23 1512161423.743999: $GPGSV,3,2,12,18,35,136,47,24,12,045,30,25,31,112,43,31,37,213,49*7F
2017-12-01 15:50:23 1512161423.744067: $GPGSV,3,3,12,32,68,334,48,11,11,300,26,22,04,310,35,138,38,213,46*49
2017-12-01 15:50:23 1512161423.857397: $GPZDA,205024.00,01,12,2017,00,00*61
2017-12-01 15:50:23 1512161423.857566: $GPGGA,205024,3946.9573,N,08404.9869,W,2,12,0.80,302.30,M,-33.324,M,,*75
2017-12-01 15:50:23 1512161423.857632: $GPRMC,205024,A,3946.9573,N,08404.9869,W,0.0000,0.000,011217,,*3C
2017-12-01 15:50:23 1512161423.857693: $GPGSA,A,3,1,10,12,14,18,24,25,31,32,11,22,138,2.0,0.8,1.5*3B
2017-12-01 15:50:24 1512161424.406985: $GPZDA,205025.00,01,12,2017,00,00*60
2017-12-01 15:50:24 1512161424.407161: $GPGGA,205025,3946.9573,N,08404.9869,W,2,12,0.80,302.30,M,-33.324,M,,*74
2017-12-01 15:50:24 1512161424.407228: $GPRMC,205025,A,3946.9573,N,08404.9869,W,0.0000,0.000,011217,,*3D
2017-12-01 15:50:24 1512161424.407290: $GPGSA,A,3,1,10,12,14,18,24,25,31,32,11,22,138,2.0,0.8,1.5*3B
2017-12-01 15:50:25 1512161425.409001: $GPZDA,205026.00,01,12,2017,00,00*63
2017-12-01 15:50:25 1512161425.409170: $GPGGA,205026,3946.9573,N,08404.9869,W,2,12,0.80,302.30,M,-33.324,M,,*77
2017-12-01 15:50:25 1512161425.409237: $GPRMC,205026,A,3946.9573,N,08404.9869,W,0.0000,0.000,011217,,*3E
2017-12-01 15:50:25 1512161425.409299: $GPGSA,A,3,1,10,12,14,18,24,25,31,32,11,22,138,2.0,0.8,1.5*3B
2017-12-01 15:50:26 1512161426.738331: $GPGSV,3,1,12,01,15,316,41,10,68,133,47,12,25,069,37,14,56,294,42*71
2017-12-01 15:50:26 1512161426.738531: $GPGSV,3,2,12,18,35,136,47,24,12,045,30,25,31,112,43,31,37,213,50*77
2017-12-01 15:50:26 1512161426.738603: $GPGSV,3,3,12,32,68,334,48,11,11,300,00,22,04,310,35,138,38,213,47*4C
2017-12-01 15:50:26 1512161426.852088: $GPZDA,205027.00,01,12,2017,00,00*62
2017-12-01 15:50:26 1512161426.852272: $GPGGA,205027,3946.9573,N,08404.9869,W,2,11,0.80,302.30,M,-33.324,M,,*75
2017-12-01 15:50:26 1512161426.852344: $GPRMC,205027,A,3946.9573,N,08404.9869,W,0.0000,0.000,011217,,*3F
2017-12-01 15:50:26 1512161426.852408: $GPGSA,A,3,1,10,12,14,18,24,25,31,32,22,138,,2.0,0.8,1.5*3B
2017-12-01 15:50:27 1512161427.407785: $GPZDA,205028.00,01,12,2017,00,00*6D
2017-12-01 15:50:27 1512161427.407963: $GPGGA,205028,3946.9573,N,08404.9862,W,2,11,0.80,302.38,M,-33.324,M,,*79
2017-12-01 15:50:27 1512161427.408036: $GPRMC,205028,A,3946.9573,N,08404.9862,W,0.0000,0.000,011217,,*3B
2017-12-01 15:50:27 1512161427.408100: $GPGSA,A,3,1,10,12,14,18,24,25,31,32,22,138,,2.0,0.8,1.5*3B
2017-12-01 15:50:28 1512161428.407286: $GPZDA,205029.00,01,12,2017,00,00*6C
2017-12-01 15:50:28 1512161428.407471: $GPGGA,205029,3946.9573,N,08404.9862,W,2,11,0.80,302.38,M,-33.324,M,,*78
2017-12-01 15:50:28 1512161428.407543: $GPRMC,205029,A,3946.9573,N,08404.9862,W,0.0000,0.000,011217,,*3A
2017-12-01 15:50:28 1512161428.407608: $GPGSA,A,3,1,10,12,14,18,24,25,31,32,22,138,,2.0,0.8,1.5*3B
2017-12-01 15:50:29 1512161429.744016: $GPGSV,3,1,12,01,15,316,41,10,68,133,48,12,25,069,38,14,56,294,42*71
2017-12-01 15:50:29 1512161429.744225: $GPGSV,3,2,12,18,35,136,47,24,12,045,30,25,31,112,43,31,37,213,49*7F
2017-12-01 15:50:29 1512161429.744327: $GPGSV,3,3,12,32,68,334,47,11,11,300,00,22,04,310,34,138,38,213,45*40
2017-12-01 15:50:29 1512161429.857394: $GPZDA,205030.00,01,12,2017,00,00*64
2017-12-01 15:50:29 1512161429.857568: $GPGGA,205030,3946.9573,N,08404.9862,W,2,11,0.80,302.38,M,-33.324,M,,*70
2017-12-01 15:50:29 1512161429.857638: $GPRMC,205030,A,3946.9573,N,08404.9862,W,0.0000,0.000,011217,,*32
2017-12-01 15:50:29 1512161429.857702: $GPGSA,A,3,1,10,12,14,18,24,25,31,32,22,138,,2.0,0.8,1.5*3B
2017-12-01 15:50:30 1512161430.408033: $GPZDA,205031.00,01,12,2017,00,00*65
2017-12-01 15:50:30 1512161430.408209: $GPGGA,205031,3946.9573,N,08404.9862,W,2,11,0.80,302.38,M,-33.324,M,,*71
2017-12-01 15:50:30 1512161430.408282: $GPRMC,205031,A,3946.9573,N,08404.9862,W,0.0000,0.000,011217,,*33
2017-12-01 15:50:30 1512161430.408347: $GPGSA,A,3,1,10,12,14,18,24,25,31,32,22,138,,2.0,0.8,1.5*3B
