2017-12-29 14:41:41 1514576501.380915: {"class":"VERSION","release":"3.16","rev":"3.16-4","proto_major":3,"proto_minor":11}
2017-12-29 14:41:41 1514576501.381342: {"class":"DEVICES","devices":[{"class":"DEVICE","path":"/dev/ttyUSB0","driver":"SiRF","subtype":"9\u0006GSD4e_4.1.2-P1_RPATCH.05-F-GPS-4R-1510281 11/03/2015 307","activated":"2017-12-29T19:41:41.369Z","flags":1,"native":1,"bps":4800,"parity":"N","stopbits":1,"cycle":1.00}]}
2017-12-29 14:41:41 1514576501.381459: {"class":"WATCH","enable":true,"json":false,"nmea":true,"raw":0,"scaled":false,"timing":false,"split24":false,"pps":false}
2017-12-29 14:41:42 1514576502.706682: $GPGSV,3,1,12,01,22,298,38,11,07,280,30,10,45,150,51,12,21,048,47*70
2017-12-29 14:41:42 1514576502.706874: $GPGSV,3,2,12,14,67,331,42,18,15,145,45,22,22,312,40,25,40,088,51*77
2017-12-29 14:41:42 1514576502.706941: $GPGSV,3,3,12,31,60,228,47,32,67,037,49,26,05,181,28,138,38,213,42*48
2017-12-29 14:41:42 1514576502.820225: $GPZDA,194143.00,29,12,2017,00,00*60
2017-12-29 14:41:42 1514576502.820380: $GPGGA,194143,3946.9578,N,08404.9840,W,2,12,0.80,301.09,M,-33.324,M,,*77
2017-12-29 14:41:42 1514576502.820444: $GPRMC,194143,A,3946.9578,N,08404.9840,W,0.0000,0.000,291217,,*3D
2017-12-29 14:41:42 1514576502.820503: $GPGSA,A,3,1,11,10,12,14,18,22,25,31,32,26,138,1.7,0.8,1.3*3B
2017-12-29 14:41:43 1514576503.369759: $GPZDA,194144.00,29,12,2017,00,00*67
2017-12-29 14:41:43 1514576503.369934: $GPGGA,194144,3946.9578,N,08404.9840,W,2,12,0.80,301.09,M,-33.324,M,,*70
2017-12-29 14:41:43 1514576503.370001: $GPRMC,194144,A,3946.9578,N,08404.9840,W,0.0000,0.000,291217,,*3A
2017-12-29 14:41:43 1514576503.370062: $GPGSA,A,3,1,11,10,12,14,18,22,25,31,32,26,138,1.7,0.8,1.3*3B
2017-12-29 14:41:44 1514576504.366859: $GPZDA,194145.00,29,12,2017,00,00*66
2017-12-29 14:41:44 1514576504.367040: $GPGGA,194145,3946.9578,N,08404.9840,W,2,12,0.80,301.09,M,-33.324,M,,*71
2017-12-29 14:41:44 1514576504.367107: $GPRMC,194145,A,3946.9578,N,08404.9840,W,0.0000,0.000,291217,,*3B
2017-12-29 14:41:44 1514576504.367167: $GPGSA,A,3,1,11,10,12,14,18,22,25,31,32,26,138,1.7,0.8,1.3*3B
2017-12-29 14:41:45 1514576505.706271: $GPGSV,3,1,12,01,22,298,38,11,07,280,31,10,45,150,50,12,21,048,47*70
2017-12-29 14:41:45 1514576505.706467: $GPGSV,3,2,12,14,67,331,42,18,15,145,45,22,22,312,40,25,40,088,51*77
2017-12-29 14:41:45 1514576505.706533: $GPGSV,3,3,12,31,60,228,46,32,67,037,48,26,05,181,28,138,38,213,42*48
2017-12-29 14:41:45 1514576505.819718: $GPZDA,194146.00,29,12,2017,00,00*65
2017-12-29 14:41:45 1514576505.819885: $GPGGA,194146,3946.9578,N,08404.9840,W,2,12,0.80,301.09,M,-33.324,M,,*72
2017-12-29 14:41:45 1514576505.819951: $GPRMC,194146,A,3946.9578,N,08404.9840,W,0.0000,0.000,291217,,*38
2017-12-29 14:41:45 1514576505.820011: $GPGSA,A,3,1,11,10,12,14,18,22,25,31,32,26,138,1.7,0.8,1.3*3B
2017-12-29 14:41:46 1514576506.370904: $GPZDA,194147.00,29,12,2017,00,00*64
2017-12-29 14:41:46 1514576506.374371: $GPGGA,194147,3946.9578,N,08404.9840,W,2,12,0.80,301.09,M,-33.324,M,,*73
2017-12-29 14:41:46 1514576506.374495: $GPRMC,194147,A,3946.9578,N,08404.9840,W,0.0000,0.000,291217,,*39
2017-12-29 14:41:46 1514576506.374559: $GPGSA,A,3,1,11,10,12,14,18,22,25,31,32,26,138,1.7,0.8,1.3*3B
2017-12-29 14:41:47 1514576507.370016: $GPZDA,194148.00,29,12,2017,00,00*6B
2017-12-29 14:41:47 1514576507.370184: $GPGGA,194148,3946.9578,N,08404.9840,W,2,12,0.80,301.09,M,-33.324,M,,*7C
2017-12-29 14:41:47 1514576507.370250: $GPRMC,194148,A,3946.9578,N,08404.9840,W,0.0000,0.000,291217,,*36
2017-12-29 14:41:47 1514576507.370311: $GPGSA,A,3,1,11,10,12,14,18,22,25,31,32,26,138,1.7,0.8,1.3*3B
2017-12-29 14:41:48 1514576508.704117: $GPGSV,3,1,12,01,22,298,38,11,07,280,32,10,45,150,50,12,21,048,46*72
2017-12-29 14:41:48 1514576508.704311: $GPGSV,3,2,12,14,67,331,42,18,15,145,44,22,22,312,40,25,40,088,50*77
2017-12-29 14:41:48 1514576508.704378: $GPGSV,3,3,12,31,60,228,46,32,67,037,48,26,05,181,29,138,38,213,44*4F
2017-12-29 14:41:48 1514576508.817813: $GPZDA,194149.00,29,12,2017,00,00*6A
2017-12-29 14:41:48 1514576508.817977: $GPGGA,194149,3946.9570,N,08404.9840,W,2,12,0.80,299.81,M,-33.324,M,,*75
2017-12-29 14:41:48 1514576508.818096: $GPRMC,194149,A,3946.9570,N,08404.9840,W,0.0000,0.000,291217,,*3F
2017-12-29 14:41:48 1514576508.818158: $GPGSA,A,3,1,11,10,12,14,18,22,25,31,32,26,138,1.7,0.8,1.3*3B
2017-12-29 14:41:49 1514576509.370047: $GPZDA,194150.00,29,12,2017,00,00*62
2017-12-29 14:41:49 1514576509.370217: $GPGGA,194150,3946.9570,N,08404.9840,W,2,12,0.80,299.81,M,-33.324,M,,*7D
2017-12-29 14:41:49 1514576509.370283: $GPRMC,194150,A,3946.9570,N,08404.9840,W,0.0000,0.000,291217,,*37
2017-12-29 14:41:49 1514576509.370343: $GPGSA,A,3,1,11,10,12,14,18,22,25,31,32,26,138,1.7,0.8,1.3*3B
2017-12-29 14:41:50 1514576510.370490: $GPZDA,194151.00,29,12,2017,00,00*63
2017-12-29 14:41:50 1514576510.370665: $GPGGA,194151,3946.9570,N,08404.9840,W,2,12,0.80,299.81,M,-33.324,M,,*7C
2017-12-29 14:41:50 1514576510.370734: $GPRMC,194151,A,3946.9570,N,08404.9840,W,0.0000,0.000,291217,,*36
2017-12-29 14:41:50 1514576510.370795: $GPGSA,A,3,1,11,10,12,14,18,22,25,31,32,26,138,1.7,0.8,1.3*3B
2017-12-29 14:41:51 1514576511.704968: $GPGSV,3,1,12,01,22,298,38,11,07,280,33,10,45,150,50,12,21,048,46*73
2017-12-29 14:41:51 1514576511.709264: $GPGSV,3,2,12,14,67,331,42,18,15,145,44,22,22,312,40,25,40,088,51*76
2017-12-29 14:41:51 1514576511.709365: $GPGSV,3,3,12,31,60,228,46,32,67,037,48,26,05,181,29,138,38,213,43*48
2017-12-29 14:41:51 1514576511.818608: $GPZDA,194152.00,29,12,2017,00,00*60
2017-12-29 14:41:51 1514576511.818764: $GPGGA,194152,3946.9570,N,08404.9840,W,2,12,0.80,299.81,M,-33.324,M,,*7F
2017-12-29 14:41:51 1514576511.818831: $GPRMC,194152,A,3946.9570,N,08404.9840,W,0.0000,0.000,291217,,*35
2017-12-29 14:41:51 1514576511.818891: $GPGSA,A,3,1,11,10,12,14,18,22,25,31,32,26,138,1.7,0.8,1.3*3B
2017-12-29 14:41:52 1514576512.443916: $GPZDA,194153.00,29,12,2017,00,00*61
2017-12-29 14:41:52 1514576512.444107: $GPGGA,194153,3946.9570,N,08404.9840,W,2,12,0.80,299.81,M,-33.324,M,,*7E
2017-12-29 14:41:52 1514576512.444175: $GPRMC,194153,A,3946.9570,N,08404.9840,W,0.0000,0.000,291217,,*34
2017-12-29 14:41:52 1514576512.444237: $GPGSA,A,3,1,11,10,12,14,18,22,25,31,32,26,138,1.7,0.8,1.3*3B
2017-12-29 14:41:53 1514576513.370825: $GPZDA,194154.00,29,12,2017,00,00*66
2017-12-29 14:41:53 1514576513.370997: $GPGGA,194154,3946.9570,N,08404.9840,W,2,12,0.80,299.81,M,-33.324,M,,*79
2017-12-29 14:41:53 1514576513.371117: $GPRMC,194154,A,3946.9570,N,08404.9840,W,0.0000,0.000,291217,,*33
2017-12-29 14:41:53 1514576513.371180: $GPGSA,A,3,1,11,10,12,14,18,22,25,31,32,26,138,1.7,0.8,1.3*3B
2017-12-29 14:41:54 1514576514.705401: $GPGSV,3,1,12,01,22,298,37,11,07,280,33,10,45,150,50,12,21,048,46*7C
2017-12-29 14:41:54 1514576514.705582: $GPGSV,3,2,12,14,67,331,42,18,15,145,44,22,22,312,40,25,40,088,51*76
2017-12-29 14:41:54 1514576514.705647: $GPGSV,3,3,12,31,60,228,47,32,67,037,49,26,05,181,29,138,38,213,42*49
2017-12-29 14:41:54 1514576514.818769: $GPZDA,194155.00,29,12,2017,00,00*67
2017-12-29 14:41:54 1514576514.818939: $GPGGA,194155,3946.9570,N,08404.9840,W,2,12,0.80,299.81,M,-33.324,M,,*78
2017-12-29 14:41:54 1514576514.819006: $GPRMC,194155,A,3946.9570,N,08404.9840,W,0.0000,0.000,291217,,*32
2017-12-29 14:41:54 1514576514.819067: $GPGSA,A,3,1,11,10,12,14,18,22,25,31,32,26,138,1.7,0.8,1.3*3B
2017-12-29 14:41:55 1514576515.370790: $GPZDA,194156.00,29,12,2017,00,00*64
2017-12-29 14:41:55 1514576515.370964: $GPGGA,194156,3946.9570,N,08404.9840,W,2,12,0.80,299.81,M,-33.324,M,,*7B
2017-12-29 14:41:55 1514576515.371031: $GPRMC,194156,A,3946.9570,N,08404.9840,W,0.0000,0.000,291217,,*31
2017-12-29 14:41:55 1514576515.371153: $GPGSA,A,3,1,11,10,12,14,18,22,25,31,32,26,138,1.7,0.8,1.3*3B
2017-12-29 14:41:56 1514576516.367228: $GPZDA,194157.00,29,12,2017,00,00*65
2017-12-29 14:41:56 1514576516.367411: $GPGGA,194157,3946.9570,N,08404.9840,W,2,12,0.80,299.81,M,-33.324,M,,*7A
2017-12-29 14:41:56 1514576516.367482: $GPRMC,194157,A,3946.9570,N,08404.9840,W,0.0000,0.000,291217,,*30
2017-12-29 14:41:56 1514576516.367543: $GPGSA,A,3,1,11,10,12,14,18,22,25,31,32,26,138,1.7,0.8,1.3*3B
2017-12-29 14:41:57 1514576517.706928: $GPGSV,3,1,12,01,22,298,37,11,07,280,34,10,45,150,50,12,21,048,46*7B
2017-12-29 14:41:57 1514576517.707108: $GPGSV,3,2,12,14,67,331,42,18,15,145,44,22,22,312,40,25,40,088,51*76
2017-12-29 14:41:57 1514576517.707173: $GPGSV,3,3,12,31,60,228,47,32,67,037,49,26,05,181,30,138,38,213,43*40
2017-12-29 14:41:57 1514576517.820330: $GPZDA,194158.00,29,12,2017,00,00*6A
2017-12-29 14:41:57 1514576517.820510: $GPGGA,194158,3946.9570,N,08404.9840,W,2,12,0.80,299.81,M,-33.324,M,,*75
2017-12-29 14:41:57 1514576517.820577: $GPRMC,194158,A,3946.9570,N,08404.9840,W,0.0000,0.000,291217,,*3F
2017-12-29 14:41:57 1514576517.820638: $GPGSA,A,3,1,11,10,12,14,18,22,25,31,32,26,138,1.7,0.8,1.3*3B
2017-12-29 14:41:58 1514576518.371213: $GPZDA,194159.00,29,12,2017,00,00*6B
2017-12-29 14:41:58 1514576518.371395: $GPGGA,194159,3946.9570,N,08404.9840,W,2,12,0.80,299.81,M,-33.324,M,,*74
2017-12-29 14:41:58 1514576518.371465: $GPRMC,194159,A,3946.9570,N,08404.9840,W,0.0000,0.000,291217,,*3E
2017-12-29 14:41:58 1514576518.371527: $GPGSA,A,3,1,11,10,12,14,18,22,25,31,32,26,138,1.7,0.8,1.3*3B
2017-12-29 14:41:59 1514576519.369550: $GPZDA,194200.00,29,12,2017,00,00*64
2017-12-29 14:41:59 1514576519.369719: $GPGGA,194200,3946.9570,N,08404.9840,W,2,12,0.80,299.81,M,-33.324,M,,*7B
2017-12-29 14:41:59 1514576519.369786: $GPRMC,194200,A,3946.9570,N,08404.9840,W,0.0000,0.000,291217,,*31
2017-12-29 14:41:59 1514576519.369847: $GPGSA,A,3,1,11,10,12,14,18,22,25,31,32,26,138,1.7,0.8,1.3*3B
2017-12-29 14:42:00 1514576520.705284: $GPGSV,3,1,12,01,22,298,37,11,07,280,34,10,45,150,50,12,21,048,46*7B
2017-12-29 14:42:00 1514576520.705451: $GPGSV,3,2,12,14,67,331,42,18,15,145,44,22,22,312,39,25,40,088,51*78
2017-12-29 14:42:00 1514576520.705516: $GPGSV,3,3,12,31,60,228,47,32,67,037,49,26,05,181,30,138,38,213,42*41
2017-12-29 14:42:00 1514576520.818739: $GPZDA,194201.00,29,12,2017,00,00*65
2017-12-29 14:42:00 1514576520.818909: $GPGGA,194201,3946.9570,N,08404.9840,W,2,12,0.80,299.81,M,-33.324,M,,*7A
2017-12-29 14:42:00 1514576520.818977: $GPRMC,194201,A,3946.9570,N,08404.9840,W,0.0000,0.000,291217,,*30
2017-12-29 14:42:00 1514576520.819038: $GPGSA,A,3,1,11,10,12,14,18,22,25,31,32,26,138,1.7,0.8,1.3*3B
