2017-11-16 17:08:34 1510870114.600577: {"class":"VERSION","release":"3.17","rev":"3.17","proto_major":3,"proto_minor":12}
2017-11-16 17:08:34 1510870114.601045: {"class":"DEVICES","devices":[{"class":"DEVICE","path":"/dev/ttyUSB0","driver":"SiRF","subtype":"9\u0006GSD4e_4.1.2-P1_RPATCH.05-F-GPS-4R-1510281 11/03/2015 307","activated":"2017-11-16T22:08:34.538Z","flags":1,"native":1,"bps":4800,"parity":"N","stopbits":1,"cycle":1.00}]}
2017-11-16 17:08:34 1510870114.601175: {"class":"WATCH","enable":true,"json":false,"nmea":true,"raw":0,"scaled":false,"timing":false,"split24":false,"pps":false}
2017-11-16 17:08:35 1510870115.397692: $GPZDA,220834.00,16,11,2017,00,00*6A
2017-11-16 17:08:35 1510870115.397856: $GPGGA,220834,3946.9568,N,08404.9826,W,2,12,0.80,312.81,M,-33.324,M,,*71
2017-11-16 17:08:35 1510870115.397918: $GPRMC,220834,A,3946.9568,N,08404.9826,W,0.0000,0.000,161117,,*36
2017-11-16 17:08:35 1510870115.397974: $GPGSA,A,3,1,10,11,12,14,18,22,24,25,31,32,138,1.6,0.8,1.3*38
2017-11-16 17:08:36 1510870116.735632: $GPGSV,3,1,12,01,18,312,37,10,60,141,48,11,10,292,37,12,25,061,50*71
2017-11-16 17:08:36 1510870116.735801: $GPGSV,3,2,12,14,60,306,47,18,29,139,44,22,09,312,34,24,06,046,36*7E
2017-11-16 17:08:36 1510870116.735861: $GPGSV,3,3,12,25,35,105,47,31,43,217,48,32,70,354,50,138,38,213,44*41
2017-11-16 17:08:36 1510870116.848980: $GPZDA,220835.00,16,11,2017,00,00*6B
2017-11-16 17:08:36 1510870116.849151: $GPGGA,220835,3946.9568,N,08404.9826,W,2,12,0.80,312.81,M,-33.324,M,,*70
2017-11-16 17:08:36 1510870116.849214: $GPRMC,220835,A,3946.9568,N,08404.9826,W,0.0000,0.000,161117,,*37
2017-11-16 17:08:36 1510870116.849272: $GPGSA,A,3,1,10,11,12,14,18,22,24,25,31,32,138,1.6,0.8,1.3*38
2017-11-16 17:08:37 1510870117.398595: $GPZDA,220836.00,16,11,2017,00,00*68
2017-11-16 17:08:37 1510870117.398760: $GPGGA,220836,3946.9568,N,08404.9826,W,2,12,0.80,312.81,M,-33.324,M,,*73
2017-11-16 17:08:37 1510870117.398822: $GPRMC,220836,A,3946.9568,N,08404.9826,W,0.0000,0.000,161117,,*34
2017-11-16 17:08:37 1510870117.398878: $GPGSA,A,3,1,10,11,12,14,18,22,24,25,31,32,138,1.6,0.8,1.3*38
2017-11-16 17:08:38 1510870118.391934: $GPZDA,220837.00,16,11,2017,00,00*69
2017-11-16 17:08:38 1510870118.392111: $GPGGA,220837,3946.9568,N,08404.9826,W,2,12,0.80,312.81,M,-33.324,M,,*72
2017-11-16 17:08:38 1510870118.392175: $GPRMC,220837,A,3946.9568,N,08404.9826,W,0.0000,0.000,161117,,*35
2017-11-16 17:08:38 1510870118.392231: $GPGSA,A,3,1,10,11,12,14,18,22,24,25,31,32,138,1.6,0.8,1.3*38
2017-11-16 17:08:39 1510870119.734096: $GPGSV,3,1,12,01,18,312,38,10,60,141,47,11,10,292,38,12,25,061,50*7E
2017-11-16 17:08:39 1510870119.734284: $GPGSV,3,2,12,14,60,306,47,18,29,139,44,22,09,312,33,24,06,046,36*79
2017-11-16 17:08:39 1510870119.734344: $GPGSV,3,3,12,25,35,105,46,31,43,217,48,32,70,354,50,138,38,213,44*40
2017-11-16 17:08:39 1510870119.847313: $GPZDA,220838.00,16,11,2017,00,00*66
2017-11-16 17:08:39 1510870119.847480: $GPGGA,220838,3946.9568,N,08404.9826,W,2,12,0.80,312.81,M,-33.324,M,,*7D
2017-11-16 17:08:39 1510870119.847542: $GPRMC,220838,A,3946.9568,N,08404.9826,W,0.0000,0.000,161117,,*3A
2017-11-16 17:08:39 1510870119.847598: $GPGSA,A,3,1,10,11,12,14,18,22,24,25,31,32,138,1.6,0.8,1.3*38
2017-11-16 17:08:40 1510870120.398211: $GPZDA,220839.00,16,11,2017,00,00*67
2017-11-16 17:08:40 1510870120.398374: $GPGGA,220839,3946.9568,N,08404.9826,W,2,12,0.80,312.81,M,-33.324,M,,*7C
2017-11-16 17:08:40 1510870120.398436: $GPRMC,220839,A,3946.9568,N,08404.9826,W,0.0000,0.000,161117,,*3B
2017-11-16 17:08:40 1510870120.398492: $GPGSA,A,3,1,10,11,12,14,18,22,24,25,31,32,138,1.6,0.8,1.3*38
2017-11-16 17:08:41 1510870121.397727: $GPZDA,220840.00,16,11,2017,00,00*69
2017-11-16 17:08:41 1510870121.397881: $GPGGA,220840,3946.9568,N,08404.9826,W,2,12,0.80,312.81,M,-33.324,M,,*72
2017-11-16 17:08:41 1510870121.397941: $GPRMC,220840,A,3946.9568,N,08404.9826,W,0.0000,0.000,161117,,*35
2017-11-16 17:08:41 1510870121.397997: $GPGSA,A,3,1,10,11,12,14,18,22,24,25,31,32,138,1.6,0.8,1.3*38
2017-11-16 17:08:42 1510870122.734421: $GPGSV,3,1,12,01,18,312,39,10,60,141,47,11,10,292,36,12,25,061,50*71
2017-11-16 17:08:42 1510870122.734650: $GPGSV,3,2,12,14,60,306,47,18,29,139,44,22,09,312,33,24,06,046,36*79
2017-11-16 17:08:42 1510870122.734712: $GPGSV,3,3,12,25,35,105,46,31,43,217,48,32,70,354,50,138,38,213,44*40
2017-11-16 17:08:42 1510870122.848005: $GPZDA,220841.00,16,11,2017,00,00*68
2017-11-16 17:08:42 1510870122.848168: $GPGGA,220841,3946.9568,N,08404.9826,W,2,12,0.80,312.81,M,-33.324,M,,*73
2017-11-16 17:08:42 1510870122.848228: $GPRMC,220841,A,3946.9568,N,08404.9826,W,0.0000,0.000,161117,,*34
2017-11-16 17:08:42 1510870122.848286: $GPGSA,A,3,1,10,11,12,14,18,22,24,25,31,32,138,1.6,0.8,1.3*38
2017-11-16 17:08:43 1510870123.398527: $GPZDA,220842.00,16,11,2017,00,00*6B
2017-11-16 17:08:43 1510870123.398702: $GPGGA,220842,3946.9568,N,08404.9826,W,2,12,0.80,312.81,M,-33.324,M,,*70
2017-11-16 17:08:43 1510870123.398765: $GPRMC,220842,A,3946.9568,N,08404.9826,W,0.0000,0.000,161117,,*37
2017-11-16 17:08:43 1510870123.398822: $GPGSA,A,3,1,10,11,12,14,18,22,24,25,31,32,138,1.6,0.8,1.3*38
2017-11-16 17:08:44 1510870124.393162: $GPZDA,220843.00,16,11,2017,00,00*6A
2017-11-16 17:08:44 1510870124.393344: $GPGGA,220843,3946.9568,N,08404.9826,W,2,12,0.80,312.81,M,-33.324,M,,*71
2017-11-16 17:08:44 1510870124.393405: $GPRMC,220843,A,3946.9568,N,08404.9826,W,0.0000,0.000,161117,,*36
2017-11-16 17:08:44 1510870124.393461: $GPGSA,A,3,1,10,11,12,14,18,22,24,25,31,32,138,1.6,0.8,1.3*38
