2017-12-01 16:33:38 1512164018.796756: {"class":"VERSION","release":"3.16","rev":"3.16-4","proto_major":3,"proto_minor":11}
2017-12-01 16:33:38 1512164018.797145: {"class":"DEVICES","devices":[{"class":"DEVICE","path":"/dev/ttyUSB0","driver":"SiRF","subtype":"9\u0006GSD4e_4.1.2-P1_RPATCH.05-F-GPS-4R-1510281 11/03/2015 307","activated":"2017-12-01T21:33:38.722Z","flags":1,"native":1,"bps":4800,"parity":"N","stopbits":1,"cycle":1.00}]}
2017-12-01 16:33:38 1512164018.797266: {"class":"WATCH","enable":true,"json":false,"nmea":true,"raw":0,"scaled":false,"timing":false,"split24":false,"pps":false}
2017-12-01 16:33:39 1512164019.399725: $GPZDA,213340.00,01,12,2017,00,00*67
2017-12-01 16:33:39 1512164019.399903: $GPGGA,213340,3946.9655,N,08404.9735,W,2,10,1.00,288.75,M,-33.324,M,,*7B
2017-12-01 16:33:39 1512164019.399970: $GPRMC,213340,A,3946.9655,N,08404.9735,W,0.0000,0.000,011217,,*3B
2017-12-01 16:33:39 1512164019.400032: $GPGSA,A,3,1,10,14,22,26,31,32,11,12,138,,,2.0,1.0,1.5*3E
2017-12-01 16:33:40 1512164020.736697: $GPGSV,3,1,12,01,22,298,41,10,46,148,43,14,67,331,44,22,20,312,40*75
2017-12-01 16:33:40 1512164020.736880: $GPGSV,3,2,12,26,04,183,37,31,58,226,50,32,68,033,48,11,08,280,28*72
2017-12-01 16:33:40 1512164020.736951: $GPGSV,3,3,12,12,21,048,23,18,16,144,02,25,40,088,25,138,38,213,35*49
2017-12-01 16:33:40 1512164020.850150: $GPZDA,213341.00,01,12,2017,00,00*66
2017-12-01 16:33:40 1512164020.850328: $GPGGA,213341,3946.9655,N,08404.9735,W,2,11,1.00,288.75,M,-33.324,M,,*7B
2017-12-01 16:33:40 1512164020.850398: $GPRMC,213341,A,3946.9655,N,08404.9735,W,0.0000,0.000,011217,,*3A
2017-12-01 16:33:40 1512164020.850460: $GPGSA,A,3,1,10,14,22,26,31,32,11,12,25,138,,2.0,1.0,1.5*39
2017-12-01 16:33:41 1512164021.400959: $GPZDA,213342.00,01,12,2017,00,00*65
2017-12-01 16:33:41 1512164021.401116: $GPGGA,213342,3946.9655,N,08404.9735,W,2,11,1.00,288.75,M,-33.324,M,,*78
2017-12-01 16:33:41 1512164021.401182: $GPRMC,213342,A,3946.9655,N,08404.9735,W,0.0000,0.000,011217,,*39
2017-12-01 16:33:41 1512164021.401243: $GPGSA,A,3,1,10,14,22,26,31,32,11,12,25,138,,2.0,1.0,1.5*39
2017-12-01 16:33:42 1512164022.401851: $GPZDA,213343.00,01,12,2017,00,00*64
2017-12-01 16:33:42 1512164022.402026: $GPGGA,213343,3946.9655,N,08404.9735,W,2,11,1.00,288.75,M,-33.324,M,,*79
2017-12-01 16:33:42 1512164022.402093: $GPRMC,213343,A,3946.9655,N,08404.9735,W,0.0000,0.000,011217,,*38
2017-12-01 16:33:42 1512164022.402154: $GPGSA,A,3,1,10,14,22,26,31,32,11,12,25,138,,2.0,1.0,1.5*39
2017-12-01 16:33:43 1512164023.736313: $GPGSV,3,1,12,01,22,298,42,10,46,148,43,14,67,331,44,22,20,312,40*76
2017-12-01 16:33:43 1512164023.736502: $GPGSV,3,2,12,26,04,183,37,31,58,226,50,32,68,033,48,11,08,280,28*72
2017-12-01 16:33:43 1512164023.736571: $GPGSV,3,3,12,12,21,048,24,18,16,144,02,25,40,088,17,138,38,213,38*42
2017-12-01 16:33:43 1512164023.849670: $GPZDA,213344.00,01,12,2017,00,00*63
2017-12-01 16:33:43 1512164023.849847: $GPGGA,213344,3946.9655,N,08404.9735,W,2,10,1.00,288.75,M,-33.324,M,,*7F
2017-12-01 16:33:43 1512164023.849916: $GPRMC,213344,A,3946.9655,N,08404.9735,W,0.0000,0.000,011217,,*3F
2017-12-01 16:33:43 1512164023.849976: $GPGSA,A,3,1,10,14,22,26,31,32,11,12,138,,,2.0,1.0,1.5*3E
2017-12-01 16:33:44 1512164024.475030: $GPZDA,213345.00,01,12,2017,00,00*62
2017-12-01 16:33:44 1512164024.475203: $GPGGA,213345,3946.9655,N,08404.9735,W,2,10,1.00,288.75,M,-33.324,M,,*7E
2017-12-01 16:33:44 1512164024.475270: $GPRMC,213345,A,3946.9655,N,08404.9735,W,0.0000,0.000,011217,,*3E
2017-12-01 16:33:44 1512164024.475332: $GPGSA,A,3,1,10,14,22,26,31,32,11,12,138,,,2.0,1.0,1.5*3E
2017-12-01 16:33:45 1512164025.402550: $GPZDA,213346.00,01,12,2017,00,00*61
2017-12-01 16:33:45 1512164025.402721: $GPGGA,213346,3946.9655,N,08404.9735,W,2,10,1.00,288.75,M,-33.324,M,,*7D
2017-12-01 16:33:45 1512164025.402788: $GPRMC,213346,A,3946.9655,N,08404.9735,W,0.0000,0.000,011217,,*3D
2017-12-01 16:33:45 1512164025.402849: $GPGSA,A,3,1,10,14,22,26,31,32,11,12,138,,,2.0,1.0,1.5*3E
2017-12-01 16:33:46 1512164026.736667: $GPGSV,3,1,12,01,22,298,42,10,46,148,43,14,67,331,44,22,20,312,39*78
2017-12-01 16:33:46 1512164026.736900: $GPGSV,3,2,12,26,04,183,36,31,58,226,50,32,68,033,47,11,08,280,34*71
2017-12-01 16:33:46 1512164026.736970: $GPGSV,3,3,12,12,21,048,24,25,40,088,00,18,16,144,00,138,38,213,39*47
2017-12-01 16:33:46 1512164026.850027: $GPZDA,213347.00,01,12,2017,00,00*60
2017-12-01 16:33:46 1512164026.850206: $GPGGA,213347,3946.9655,N,08404.9728,W,2,10,1.00,288.83,M,-33.324,M,,*79
2017-12-01 16:33:46 1512164026.850272: $GPRMC,213347,A,3946.9655,N,08404.9728,W,0.0000,0.000,011217,,*30
2017-12-01 16:33:46 1512164026.850334: $GPGSA,A,3,1,10,14,22,26,31,32,11,12,138,,,2.0,1.0,1.5*3E
2017-12-01 16:33:47 1512164027.401196: $GPZDA,213348.00,01,12,2017,00,00*6F
2017-12-01 16:33:47 1512164027.401414: $GPGGA,213348,3946.9655,N,08404.9728,W,2,10,1.00,288.83,M,-33.324,M,,*76
2017-12-01 16:33:47 1512164027.401490: $GPRMC,213348,A,3946.9655,N,08404.9728,W,0.0000,0.000,011217,,*3F
2017-12-01 16:33:47 1512164027.401552: $GPGSA,A,3,1,10,14,22,26,31,32,11,12,138,,,2.0,1.0,1.5*3E
2017-12-01 16:33:48 1512164028.398125: $GPZDA,213349.00,01,12,2017,00,00*6E
2017-12-01 16:33:48 1512164028.398302: $GPGGA,213349,3946.9655,N,08404.9728,W,2,10,1.00,288.83,M,-33.324,M,,*77
2017-12-01 16:33:48 1512164028.398370: $GPRMC,213349,A,3946.9655,N,08404.9728,W,0.0000,0.000,011217,,*3E
2017-12-01 16:33:48 1512164028.398431: $GPGSA,A,3,1,10,14,22,26,31,32,11,12,138,,,2.0,1.0,1.5*3E
2017-12-01 16:33:49 1512164029.735810: $GPGSV,3,1,12,01,22,298,42,10,46,148,43,14,67,331,43,22,20,312,40*71
2017-12-01 16:33:49 1512164029.735983: $GPGSV,3,2,12,26,04,183,37,31,58,226,50,32,68,033,48,11,08,280,29*73
2017-12-01 16:33:49 1512164029.736049: $GPGSV,3,3,12,12,21,048,24,25,40,088,15,18,16,144,00,138,38,213,39*43
2017-12-01 16:33:49 1512164029.849590: $GPZDA,213350.00,01,12,2017,00,00*66
2017-12-01 16:33:49 1512164029.849762: $GPGGA,213350,3946.9645,N,08404.9720,W,2,11,1.00,284.82,M,-33.324,M,,*7A
2017-12-01 16:33:49 1512164029.849830: $GPRMC,213350,A,3946.9645,N,08404.9720,W,0.0000,0.000,011217,,*3F
2017-12-01 16:33:49 1512164029.849891: $GPGSA,A,3,1,10,14,22,26,31,32,11,12,25,138,,2.0,1.0,1.5*39
2017-12-01 16:33:50 1512164030.400156: $GPZDA,213351.00,01,12,2017,00,00*67
2017-12-01 16:33:50 1512164030.400325: $GPGGA,213351,3946.9645,N,08404.9720,W,2,11,1.00,284.82,M,-33.324,M,,*7B
2017-12-01 16:33:50 1512164030.400392: $GPRMC,213351,A,3946.9645,N,08404.9720,W,0.0000,0.000,011217,,*3E
2017-12-01 16:33:50 1512164030.400453: $GPGSA,A,3,1,10,14,22,26,31,32,11,12,25,138,,2.0,1.0,1.5*39
2017-12-01 16:33:51 1512164031.399770: $GPZDA,213352.00,01,12,2017,00,00*64
2017-12-01 16:33:51 1512164031.399962: $GPGGA,213352,3946.9645,N,08404.9720,W,2,11,1.00,284.82,M,-33.324,M,,*78
2017-12-01 16:33:51 1512164031.400031: $GPRMC,213352,A,3946.9645,N,08404.9720,W,0.0000,0.000,011217,,*3D
2017-12-01 16:33:51 1512164031.400091: $GPGSA,A,3,1,10,14,22,26,31,32,11,12,25,138,,2.0,1.0,1.5*39
2017-12-01 16:33:52 1512164032.736801: $GPGSV,3,1,12,01,22,298,41,10,46,148,43,14,67,331,43,22,20,312,39*7C
2017-12-01 16:33:52 1512164032.736987: $GPGSV,3,2,12,26,04,183,37,31,58,226,50,32,68,033,47,11,08,280,29*7C
2017-12-01 16:33:52 1512164032.737053: $GPGSV,3,3,12,12,21,048,24,25,40,088,24,18,16,144,16,138,38,213,38*47
2017-12-01 16:33:52 1512164032.850176: $GPZDA,213353.00,01,12,2017,00,00*65
2017-12-01 16:33:52 1512164032.850346: $GPGGA,213353,3946.9645,N,08404.9720,W,2,11,1.00,284.82,M,-33.324,M,,*79
2017-12-01 16:33:52 1512164032.850413: $GPRMC,213353,A,3946.9645,N,08404.9720,W,0.0000,0.000,011217,,*3C
2017-12-01 16:33:52 1512164032.850475: $GPGSA,A,3,1,10,14,22,26,31,32,11,12,25,138,,2.0,1.0,1.5*39
2017-12-01 16:33:53 1512164033.402348: $GPZDA,213354.00,01,12,2017,00,00*62
2017-12-01 16:33:53 1512164033.402512: $GPGGA,213354,3946.9645,N,08404.9720,W,2,11,1.40,284.82,M,-33.324,M,,*7A
2017-12-01 16:33:53 1512164033.402581: $GPRMC,213354,A,3946.9645,N,08404.9720,W,0.0000,0.000,011217,,*3B
2017-12-01 16:33:53 1512164033.402643: $GPGSA,A,3,1,10,14,22,26,31,32,11,12,25,138,,2.0,1.4,1.5*3D
2017-12-01 16:33:54 1512164034.400532: $GPZDA,213355.00,01,12,2017,00,00*63
2017-12-01 16:33:54 1512164034.400765: $GPGGA,213355,3946.9649,N,08404.9720,W,2,11,1.00,285.46,M,-33.324,M,,*7A
2017-12-01 16:33:54 1512164034.400835: $GPRMC,213355,A,3946.9649,N,08404.9720,W,0.0000,0.000,011217,,*36
2017-12-01 16:33:54 1512164034.400896: $GPGSA,A,3,1,10,14,22,26,31,32,11,12,25,138,,2.0,1.0,1.5*39
2017-12-01 16:33:55 1512164035.737136: $GPGSV,3,1,12,01,22,298,41,10,46,148,44,14,67,331,43,22,20,312,40*75
2017-12-01 16:33:55 1512164035.737297: $GPGSV,3,2,12,26,04,183,37,31,58,226,50,32,68,033,47,11,08,280,27*72
2017-12-01 16:33:55 1512164035.737366: $GPGSV,3,3,12,12,21,048,25,25,40,088,00,18,16,144,00,138,38,213,40*48
2017-12-01 16:33:55 1512164035.850783: $GPZDA,213356.00,01,12,2017,00,00*60
2017-12-01 16:33:55 1512164035.850958: $GPGGA,213356,3946.9649,N,08404.9720,W,2,10,1.00,285.46,M,-33.324,M,,*78
2017-12-01 16:33:55 1512164035.851024: $GPRMC,213356,A,3946.9649,N,08404.9720,W,0.0000,0.000,011217,,*35
2017-12-01 16:33:55 1512164035.851084: $GPGSA,A,3,1,10,14,22,26,31,32,11,12,138,,,2.0,1.0,1.5*3E
2017-12-01 16:33:56 1512164036.397881: $GPZDA,213357.00,01,12,2017,00,00*61
2017-12-01 16:33:56 1512164036.398057: $GPGGA,213357,3946.9645,N,08404.9720,W,2,10,1.00,286.23,M,-33.324,M,,*75
2017-12-01 16:33:56 1512164036.398124: $GPRMC,213357,A,3946.9645,N,08404.9720,W,0.0000,0.000,011217,,*38
2017-12-01 16:33:56 1512164036.398185: $GPGSA,A,3,1,10,14,22,26,31,32,11,12,138,,,2.0,1.0,1.5*3E
2017-12-01 16:33:57 1512164037.401053: $GPZDA,213358.00,01,12,2017,00,00*6E
2017-12-01 16:33:57 1512164037.401242: $GPGGA,213358,3946.9645,N,08404.9720,W,2,10,1.00,286.23,M,-33.324,M,,*7A
2017-12-01 16:33:57 1512164037.401311: $GPRMC,213358,A,3946.9645,N,08404.9720,W,0.0000,0.000,011217,,*37
2017-12-01 16:33:57 1512164037.401469: $GPGSA,A,3,1,10,14,22,26,31,32,11,12,138,,,2.0,1.0,1.5*3E
2017-12-01 16:33:58 1512164038.736804: $GPGSV,3,1,12,01,22,298,41,10,46,148,44,14,67,331,43,22,20,312,41*74
2017-12-01 16:33:58 1512164038.736991: $GPGSV,3,2,12,26,04,183,37,31,58,226,50,32,68,033,48,11,08,280,26*7C
2017-12-01 16:33:58 1512164038.737059: $GPGSV,3,3,12,12,21,048,26,25,40,088,00,18,16,144,00,138,38,213,40*4B
