2017-12-29 11:38:57 1514565537.256494: {"class":"VERSION","release":"3.16","rev":"3.16-4","proto_major":3,"proto_minor":11}
2017-12-29 11:38:57 1514565537.256833: {"class":"DEVICES","devices":[{"class":"DEVICE","path":"/dev/ttyUSB0","driver":"SiRF","subtype":"9\u0006GSD4e_4.1.2-P1_RPATCH.05-F-GPS-4R-1510281 11/03/2015 307","activated":"2017-12-29T16:38:57.016Z","flags":1,"native":1,"bps":4800,"parity":"N","stopbits":1,"cycle":1.00}]}
2017-12-29 11:38:57 1514565537.256946: {"class":"WATCH","enable":true,"json":false,"nmea":true,"raw":0,"scaled":false,"timing":false,"split24":false,"pps":false}
2017-12-29 11:38:57 1514565537.441726: $GPZDA,163858.00,29,12,2017,00,00*6B
2017-12-29 11:38:57 1514565537.441891: $GPGGA,163858,3946.9582,N,08404.9819,W,2,10,1.00,326.89,M,-33.324,M,,*73
2017-12-29 11:38:57 1514565537.441957: $GPRMC,163858,A,3946.9582,N,08404.9819,W,0.0000,0.000,291217,,*3F
2017-12-29 11:38:57 1514565537.442017: $GPGSA,A,3,8,10,15,18,20,21,24,27,32,138,,,1.7,1.0,1.3*3A
2017-12-29 11:38:58 1514565538.430028: $GPZDA,163859.00,29,12,2017,00,00*6A
2017-12-29 11:38:58 1514565538.430203: $GPGGA,163859,3946.9582,N,08404.9819,W,2,10,1.00,326.89,M,-33.324,M,,*72
2017-12-29 11:38:58 1514565538.430270: $GPRMC,163859,A,3946.9582,N,08404.9819,W,0.0000,0.000,291217,,*3E
2017-12-29 11:38:58 1514565538.430330: $GPGSA,A,3,8,10,15,18,20,21,24,27,32,138,,,1.7,1.0,1.3*3A
2017-12-29 11:38:59 1514565539.779021: $GPGSV,3,1,11,08,07,315,41,10,50,309,46,15,28,055,50,18,76,010,45*79
2017-12-29 11:38:59 1514565539.779199: $GPGSV,3,2,11,20,27,103,48,21,53,184,46,24,53,093,51,27,17,279,37*7E
2017-12-29 11:38:59 1514565539.779265: $GPGSV,3,3,11,32,30,246,37,14,11,238,00,138,38,213,45*73
2017-12-29 11:38:59 1514565539.892464: $GPZDA,163900.00,29,12,2017,00,00*67
2017-12-29 11:38:59 1514565539.892651: $GPGGA,163900,3946.9582,N,08404.9819,W,2,10,1.00,326.89,M,-33.324,M,,*7F
2017-12-29 11:38:59 1514565539.892719: $GPRMC,163900,A,3946.9582,N,08404.9819,W,0.0000,0.000,291217,,*33
2017-12-29 11:38:59 1514565539.892780: $GPGSA,A,3,8,10,15,18,20,21,24,27,32,138,,,1.7,1.0,1.3*3A
2017-12-29 11:39:00 1514565540.444632: $GPZDA,163901.00,29,12,2017,00,00*66
2017-12-29 11:39:00 1514565540.444780: $GPGGA,163901,3946.9582,N,08404.9819,W,2,10,1.00,326.89,M,-33.324,M,,*7E
2017-12-29 11:39:00 1514565540.444846: $GPRMC,163901,A,3946.9582,N,08404.9819,W,0.0000,0.000,291217,,*32
2017-12-29 11:39:00 1514565540.444907: $GPGSA,A,3,8,10,15,18,20,21,24,27,32,138,,,1.7,1.0,1.3*3A
2017-12-29 11:39:01 1514565541.424200: $GPZDA,163902.00,29,12,2017,00,00*65
2017-12-29 11:39:01 1514565541.424393: $GPGGA,163902,3946.9582,N,08404.9819,W,2,10,1.00,326.89,M,-33.324,M,,*7D
2017-12-29 11:39:01 1514565541.424477: $GPRMC,163902,A,3946.9582,N,08404.9819,W,0.0000,0.000,291217,,*31
2017-12-29 11:39:01 1514565541.424538: $GPGSA,A,3,8,10,15,18,20,21,24,27,32,138,,,1.7,1.0,1.3*3A
2017-12-29 11:39:02 1514565542.759904: $GPGSV,3,1,11,08,07,315,41,10,50,309,45,15,28,055,50,18,76,010,45*7A
2017-12-29 11:39:02 1514565542.760083: $GPGSV,3,2,11,20,27,103,48,21,53,184,46,24,53,093,51,27,17,279,38*71
2017-12-29 11:39:02 1514565542.760150: $GPGSV,3,3,11,32,30,246,38,14,11,238,28,138,38,213,46*75
2017-12-29 11:39:02 1514565542.873411: $GPZDA,163903.00,29,12,2017,00,00*64
2017-12-29 11:39:02 1514565542.873596: $GPGGA,163903,3946.9582,N,08404.9819,W,2,11,1.00,326.89,M,-33.324,M,,*7D
2017-12-29 11:39:02 1514565542.873664: $GPRMC,163903,A,3946.9582,N,08404.9819,W,0.0000,0.000,291217,,*30
2017-12-29 11:39:02 1514565542.873725: $GPGSA,A,3,8,10,15,18,20,21,24,27,32,14,138,,1.7,1.0,1.3*3F
2017-12-29 11:39:03 1514565543.425448: $GPZDA,163904.00,29,12,2017,00,00*63
2017-12-29 11:39:03 1514565543.425616: $GPGGA,163904,3946.9582,N,08404.9819,W,2,11,1.00,326.89,M,-33.324,M,,*7A
2017-12-29 11:39:03 1514565543.425682: $GPRMC,163904,A,3946.9582,N,08404.9819,W,0.0000,0.000,291217,,*37
2017-12-29 11:39:03 1514565543.425742: $GPGSA,A,3,8,10,15,18,20,21,24,27,32,14,138,,1.7,1.0,1.3*3F
2017-12-29 11:39:04 1514565544.419702: $GPZDA,163905.00,29,12,2017,00,00*62
2017-12-29 11:39:04 1514565544.419874: $GPGGA,163905,3946.9579,N,08404.9820,W,2,11,1.00,327.65,M,-33.324,M,,*76
2017-12-29 11:39:04 1514565544.419992: $GPRMC,163905,A,3946.9579,N,08404.9820,W,0.0000,0.000,291217,,*38
2017-12-29 11:39:04 1514565544.420054: $GPGSA,A,3,8,10,15,18,20,21,24,27,32,14,138,,1.7,1.0,1.3*3F
2017-12-29 11:39:05 1514565545.760348: $GPGSV,3,1,11,08,07,315,41,10,50,309,45,15,28,055,50,18,76,010,45*7A
2017-12-29 11:39:05 1514565545.760510: $GPGSV,3,2,11,20,27,103,48,21,53,184,46,24,53,093,51,27,17,279,38*71
2017-12-29 11:39:05 1514565545.760575: $GPGSV,3,3,11,32,30,246,38,14,11,238,00,138,38,213,45*7C
2017-12-29 11:39:05 1514565545.873762: $GPZDA,163906.00,29,12,2017,00,00*61
2017-12-29 11:39:05 1514565545.873947: $GPGGA,163906,3946.9579,N,08404.9820,W,2,10,1.00,327.65,M,-33.324,M,,*74
2017-12-29 11:39:05 1514565545.874015: $GPRMC,163906,A,3946.9579,N,08404.9820,W,0.0000,0.000,291217,,*3B
2017-12-29 11:39:05 1514565545.874076: $GPGSA,A,3,8,10,15,18,20,21,24,27,32,138,,,1.7,1.0,1.3*3A
2017-12-29 11:39:06 1514565546.425786: $GPZDA,163907.00,29,12,2017,00,00*60
2017-12-29 11:39:06 1514565546.425971: $GPGGA,163907,3946.9579,N,08404.9820,W,2,10,1.00,327.65,M,-33.324,M,,*75
2017-12-29 11:39:06 1514565546.426038: $GPRMC,163907,A,3946.9579,N,08404.9820,W,0.0000,0.000,291217,,*3A
2017-12-29 11:39:06 1514565546.426099: $GPGSA,A,3,8,10,15,18,20,21,24,27,32,138,,,1.7,1.0,1.3*3A
2017-12-29 11:39:07 1514565547.429123: $GPZDA,163908.00,29,12,2017,00,00*6F
2017-12-29 11:39:07 1514565547.429294: $GPGGA,163908,3946.9579,N,08404.9820,W,2,10,1.00,327.65,M,-33.324,M,,*7A
2017-12-29 11:39:07 1514565547.429360: $GPRMC,163908,A,3946.9579,N,08404.9820,W,0.0000,0.000,291217,,*35
2017-12-29 11:39:07 1514565547.429420: $GPGSA,A,3,8,10,15,18,20,21,24,27,32,138,,,1.7,1.0,1.3*3A
2017-12-29 11:39:08 1514565548.763678: $GPGSV,3,1,11,08,07,315,41,10,50,309,44,15,28,055,50,18,76,010,45*7B
2017-12-29 11:39:08 1514565548.763836: $GPGSV,3,2,11,20,27,103,48,21,53,184,46,24,53,093,51,27,17,279,38*71
2017-12-29 11:39:08 1514565548.763901: $GPGSV,3,3,11,32,30,246,38,14,11,238,20,138,38,213,45*7E
2017-12-29 11:39:08 1514565548.877150: $GPZDA,163909.00,29,12,2017,00,00*6E
2017-12-29 11:39:08 1514565548.877331: $GPGGA,163909,3946.9579,N,08404.9820,W,2,11,1.00,327.65,M,-33.324,M,,*7A
2017-12-29 11:39:08 1514565548.877399: $GPRMC,163909,A,3946.9579,N,08404.9820,W,0.0000,0.000,291217,,*34
2017-12-29 11:39:08 1514565548.877459: $GPGSA,A,3,8,10,15,18,20,21,24,27,32,14,138,,1.7,1.0,1.3*3F
2017-12-29 11:39:09 1514565549.502488: $GPZDA,163910.00,29,12,2017,00,00*66
2017-12-29 11:39:09 1514565549.502661: $GPGGA,163910,3946.9579,N,08404.9820,W,2,11,1.00,327.65,M,-33.324,M,,*72
2017-12-29 11:39:09 1514565549.502729: $GPRMC,163910,A,3946.9579,N,08404.9820,W,0.0000,0.000,291217,,*3C
2017-12-29 11:39:09 1514565549.502789: $GPGSA,A,3,8,10,15,18,20,21,24,27,32,14,138,,1.7,1.0,1.3*3F
2017-12-29 11:39:10 1514565550.419546: $GPZDA,163911.00,29,12,2017,00,00*67
2017-12-29 11:39:10 1514565550.419722: $GPGGA,163911,3946.9579,N,08404.9820,W,2,11,1.00,327.65,M,-33.324,M,,*73
2017-12-29 11:39:10 1514565550.419789: $GPRMC,163911,A,3946.9579,N,08404.9820,W,0.0000,0.000,291217,,*3D
2017-12-29 11:39:10 1514565550.419849: $GPGSA,A,3,8,10,15,18,20,21,24,27,32,14,138,,1.7,1.0,1.3*3F
2017-12-29 11:39:11 1514565551.761616: $GPGSV,3,1,11,08,07,315,42,10,50,309,44,15,28,055,50,18,76,010,45*78
2017-12-29 11:39:11 1514565551.761793: $GPGSV,3,2,11,20,27,103,47,21,53,184,46,24,53,093,51,27,17,279,38*7E
2017-12-29 11:39:11 1514565551.761857: $GPGSV,3,3,11,32,30,246,37,14,11,238,21,138,38,213,44*71
2017-12-29 11:39:11 1514565551.875296: $GPZDA,163912.00,29,12,2017,00,00*64
2017-12-29 11:39:11 1514565551.875449: $GPGGA,163912,3946.9578,N,08404.9813,W,2,11,1.00,327.73,M,-33.324,M,,*76
2017-12-29 11:39:11 1514565551.875515: $GPRMC,163912,A,3946.9578,N,08404.9813,W,0.0000,0.000,291217,,*3F
2017-12-29 11:39:11 1514565551.875575: $GPGSA,A,3,8,10,15,18,20,21,24,27,32,14,138,,1.7,1.0,1.3*3F
