2017-12-01 17:14:01 1512166441.224113: {"class":"VERSION","release":"3.16","rev":"3.16-4","proto_major":3,"proto_minor":11}
2017-12-01 17:14:01 1512166441.224511: {"class":"DEVICES","devices":[{"class":"DEVICE","path":"/dev/ttyUSB0","driver":"SiRF","subtype":"9\u0006GSD4e_4.1.2-P1_RPATCH.05-F-GPS-4R-1510281 11/03/2015 307","activated":"2017-12-01T22:14:01.214Z","flags":1,"native":1,"bps":4800,"parity":"N","stopbits":1,"cycle":1.00}]}
2017-12-01 17:14:01 1512166441.224631: {"class":"WATCH","enable":true,"json":false,"nmea":true,"raw":0,"scaled":false,"timing":false,"split24":false,"pps":false}
2017-12-01 17:14:02 1512166442.177575: $GPZDA,221402.41,01,12,2017,00,00*62
2017-12-01 17:14:02 1512166442.177759: $GPGGA,221402,3946.9593,N,08404.9857,W,1,11,0.80,321.31,M,-33.324,M,,*70
2017-12-01 17:14:02 1512166442.177826: $GPRMC,221402,A,3946.9593,N,08404.9857,W,0.1567,189.200,011217,,*3E
2017-12-01 17:14:02 1512166442.177887: $GPGSA,A,3,1,3,10,12,14,22,26,31,32,11,138,,2.0,0.8,1.5*04
2017-12-01 17:14:03 1512166443.342627: $GPGSV,3,1,12,01,20,280,41,03,16,316,42,10,27,156,37,12,11,034,33*74
2017-12-01 17:14:03 1512166443.342803: $GPGSV,3,2,12,14,70,022,46,22,35,306,43,26,20,178,40,31,75,259,48*71
2017-12-01 17:14:03 1512166443.342871: $GPGSV,3,3,12,32,58,070,49,11,01,265,06,25,38,063,00,138,38,213,00*42
2017-12-01 17:14:03 1512166443.456243: $GPZDA,221403.00,01,12,2017,00,00*66
2017-12-01 17:14:03 1512166443.456410: $GPGGA,221403,3946.9593,N,08404.9857,W,1,09,0.80,321.31,M,-33.324,M,,*78
2017-12-01 17:14:03 1512166443.456476: $GPRMC,221403,A,3946.9593,N,08404.9857,W,0.0000,0.000,011217,,*38
2017-12-01 17:14:03 1512166443.456537: $GPGSA,A,3,1,3,10,12,14,22,26,31,32,,,,2.0,0.8,1.5*3E
2017-12-01 17:14:03 1512166443.906797: $GPZDA,221404.00,01,12,2017,00,00*61
2017-12-01 17:14:03 1512166443.906950: $GPGGA,221404,3946.9593,N,08404.9857,W,1,09,0.80,321.31,M,-33.324,M,,*7F
2017-12-01 17:14:03 1512166443.907017: $GPRMC,221404,A,3946.9593,N,08404.9857,W,0.0000,0.000,011217,,*3F
2017-12-01 17:14:03 1512166443.907078: $GPGSA,A,3,1,3,10,12,14,22,26,31,32,,,,2.0,0.8,1.5*3E
2017-12-01 17:14:04 1512166444.360469: $GPZDA,221405.00,01,12,2017,00,00*60
2017-12-01 17:14:04 1512166444.360637: $GPGGA,221405,3946.9593,N,08404.9857,W,1,09,0.80,321.31,M,-33.324,M,,*7E
2017-12-01 17:14:04 1512166444.360704: $GPRMC,221405,A,3946.9593,N,08404.9857,W,0.0000,0.000,011217,,*3E
2017-12-01 17:14:04 1512166444.360766: $GPGSA,A,3,1,3,10,12,14,22,26,31,32,,,,2.0,0.8,1.5*3E
2017-12-01 17:14:05 1512166445.701714: $GPGSV,3,1,12,01,20,280,41,03,16,316,41,10,27,156,34,12,11,034,32*75
2017-12-01 17:14:05 1512166445.701899: $GPGSV,3,2,12,14,70,022,45,22,35,306,41,26,20,178,38,31,75,259,47*70
2017-12-01 17:14:05 1512166445.701968: $GPGSV,3,3,12,32,58,070,48,11,01,265,31,25,38,063,08,138,38,213,00*4F
2017-12-01 17:14:05 1512166445.815139: $GPZDA,221406.00,01,12,2017,00,00*63
2017-12-01 17:14:05 1512166445.815294: $GPGGA,221406,3946.9593,N,08404.9864,W,1,10,0.80,321.23,M,-33.324,M,,*76
2017-12-01 17:14:05 1512166445.815359: $GPRMC,221406,A,3946.9593,N,08404.9864,W,0.1867,180.000,011217,,*3C
2017-12-01 17:14:05 1512166445.815419: $GPGSA,A,3,1,3,10,12,14,22,26,31,32,11,,,2.0,0.8,1.5*3E
2017-12-01 17:14:06 1512166446.363395: $GPZDA,221407.00,01,12,2017,00,00*62
2017-12-01 17:14:06 1512166446.366950: $GPGGA,221407,3946.9597,N,08404.9863,W,1,10,0.80,320.47,M,-33.324,M,,*77
2017-12-01 17:14:06 1512166446.367061: $GPRMC,221407,A,3946.9597,N,08404.9863,W,0.0000,0.000,011217,,*3F
2017-12-01 17:14:06 1512166446.367125: $GPGSA,A,3,1,3,10,12,14,22,26,31,32,11,,,2.0,0.8,1.5*3E
2017-12-01 17:14:07 1512166447.365428: $GPZDA,221408.00,01,12,2017,00,00*6D
2017-12-01 17:14:07 1512166447.365600: $GPGGA,221408,3946.9597,N,08404.9863,W,1,10,0.80,320.47,M,-33.324,M,,*78
2017-12-01 17:14:07 1512166447.365667: $GPRMC,221408,A,3946.9597,N,08404.9863,W,0.0000,0.000,011217,,*30
2017-12-01 17:14:07 1512166447.365729: $GPGSA,A,3,1,3,10,12,14,22,26,31,32,11,,,2.0,0.8,1.5*3E
2017-12-01 17:14:07 1512166447.365786: $GPGBS,221408,10.70,M,15.43,M,35.28,M*0A
2017-12-01 17:14:08 1512166448.699921: $GPGSV,3,1,12,01,20,280,40,03,16,316,40,10,27,156,33,12,11,034,31*71
2017-12-01 17:14:08 1512166448.700157: $GPGSV,3,2,12,14,70,022,45,22,35,306,42,26,20,178,38,31,75,259,47*73
2017-12-01 17:14:08 1512166448.700227: $GPGSV,3,3,12,32,58,070,48,11,01,265,28,25,38,063,00,138,38,213,40*4B
2017-12-01 17:14:08 1512166448.813341: $GPZDA,221409.00,01,12,2017,00,00*6C
2017-12-01 17:14:08 1512166448.813519: $GPGGA,221409,3946.9596,N,08404.9856,W,1,11,0.80,320.55,M,-33.324,M,,*7C
2017-12-01 17:14:08 1512166448.813586: $GPRMC,221409,A,3946.9596,N,08404.9856,W,0.0000,0.000,011217,,*36
2017-12-01 17:14:08 1512166448.813647: $GPGSA,A,3,1,3,10,12,14,22,26,31,32,11,138,,2.0,0.8,1.5*04
2017-12-01 17:14:09 1512166449.366712: $GPZDA,221410.00,01,12,2017,00,00*64
2017-12-01 17:14:09 1512166449.366883: $GPGGA,221410,3946.9600,N,08404.9856,W,1,11,0.80,319.78,M,-33.324,M,,*7D
2017-12-01 17:14:09 1512166449.366950: $GPRMC,221410,A,3946.9600,N,08404.9856,W,0.0000,0.000,011217,,*32
2017-12-01 17:14:09 1512166449.367011: $GPGSA,A,3,1,3,10,12,14,22,26,31,32,11,138,,2.0,0.8,1.5*04
2017-12-01 17:14:10 1512166450.365787: $GPZDA,221411.00,01,12,2017,00,00*65
2017-12-01 17:14:10 1512166450.365958: $GPGGA,221411,3946.9600,N,08404.9856,W,1,11,0.80,319.78,M,-33.324,M,,*7C
2017-12-01 17:14:10 1512166450.366024: $GPRMC,221411,A,3946.9600,N,08404.9856,W,0.0000,0.000,011217,,*33
2017-12-01 17:14:10 1512166450.366085: $GPGSA,A,3,1,3,10,12,14,22,26,31,32,11,138,,2.0,0.8,1.5*04
2017-12-01 17:14:11 1512166451.702767: $GPGSV,3,1,12,01,20,280,40,03,16,316,40,10,27,156,28,12,11,034,31*7B
2017-12-01 17:14:11 1512166451.782844: $GPGSV,3,2,12,14,70,022,45,22,35,306,42,26,20,178,38,31,75,259,47*73
2017-12-01 17:14:11 1512166451.783057: $GPGSV,3,3,12,32,58,070,48,11,01,265,26,25,38,063,29,138,38,213,40*4E
2017-12-01 17:14:11 1512166451.816149: $GPZDA,221412.00,01,12,2017,00,00*66
2017-12-01 17:14:11 1512166451.816320: $GPGGA,221412,3946.9605,N,08404.9846,W,2,12,1.60,315.52,M,-33.324,M,,*70
2017-12-01 17:14:11 1512166451.816386: $GPRMC,221412,A,3946.9605,N,08404.9846,W,0.0000,0.000,011217,,*34
2017-12-01 17:14:11 1512166451.816447: $GPGSA,A,3,1,3,10,12,14,22,26,31,32,11,25,138,2.0,1.6,1.5*0C
2017-12-01 17:14:12 1512166452.364545: $GPZDA,221413.00,01,12,2017,00,00*67
2017-12-01 17:14:12 1512166452.364715: $GPGGA,221413,3946.9596,N,08404.9839,W,2,12,1.60,314.32,M,-33.324,M,,*77
2017-12-01 17:14:12 1512166452.364781: $GPRMC,221413,A,3946.9596,N,08404.9839,W,0.2422,93.794,011217,,*02
2017-12-01 17:14:12 1512166452.364842: $GPGSA,A,3,1,3,10,12,14,22,26,31,32,11,25,138,2.0,1.6,1.5*0C
2017-12-01 17:14:13 1512166453.366294: $GPZDA,221414.00,01,12,2017,00,00*60
2017-12-01 17:14:13 1512166453.366530: $GPGGA,221414,3946.9605,N,08404.9822,W,1,12,0.80,310.78,M,-33.324,M,,*75
2017-12-01 17:14:13 1512166453.366604: $GPRMC,221414,A,3946.9605,N,08404.9822,W,0.0000,0.000,011217,,*30
2017-12-01 17:14:13 1512166453.366691: $GPGSA,A,3,1,3,10,12,14,22,26,31,32,11,25,138,2.0,0.8,1.5*03
2017-12-01 17:14:14 1512166454.701126: $GPGSV,3,1,12,01,20,280,40,03,16,316,41,10,27,156,31,12,11,034,25*77
2017-12-01 17:14:14 1512166454.701308: $GPGSV,3,2,12,14,70,022,45,22,35,306,42,26,20,178,38,31,75,259,47*73
2017-12-01 17:14:14 1512166454.701432: $GPGSV,3,3,12,32,58,070,48,11,01,265,27,25,38,063,00,138,38,213,38*4B
2017-12-01 17:14:14 1512166454.814465: $GPZDA,221415.00,01,12,2017,00,00*61
2017-12-01 17:14:14 1512166454.814644: $GPGGA,221415,3946.9605,N,08404.9822,W,1,11,0.80,310.78,M,-33.324,M,,*77
2017-12-01 17:14:14 1512166454.814713: $GPRMC,221415,A,3946.9605,N,08404.9822,W,0.0000,0.000,011217,,*31
2017-12-01 17:14:14 1512166454.814774: $GPGSA,A,3,1,3,10,12,14,22,26,31,32,11,138,,2.0,0.8,1.5*04
2017-12-01 17:14:15 1512166455.439987: $GPZDA,221416.00,01,12,2017,00,00*62
2017-12-01 17:14:15 1512166455.440163: $GPGGA,221416,3946.9605,N,08404.9815,W,2,11,0.80,310.86,M,-33.324,M,,*72
2017-12-01 17:14:15 1512166455.440232: $GPRMC,221416,A,3946.9605,N,08404.9815,W,0.0000,0.000,011217,,*36
2017-12-01 17:14:15 1512166455.440293: $GPGSA,A,3,1,3,10,12,14,22,26,31,32,11,138,,2.0,0.8,1.5*04
2017-12-01 17:14:16 1512166456.369529: $GPZDA,221417.00,01,12,2017,00,00*63
2017-12-01 17:14:16 1512166456.369702: $GPGGA,221417,3946.9605,N,08404.9815,W,2,11,0.80,310.86,M,-33.324,M,,*73
2017-12-01 17:14:16 1512166456.369769: $GPRMC,221417,A,3946.9605,N,08404.9815,W,0.0000,0.000,011217,,*37
2017-12-01 17:14:16 1512166456.369830: $GPGSA,A,3,1,3,10,12,14,22,26,31,32,11,138,,2.0,0.8,1.5*04
2017-12-01 17:14:17 1512166457.702812: $GPGSV,3,1,12,01,20,280,41,03,16,316,42,10,27,156,33,12,11,034,26*74
2017-12-01 17:14:17 1512166457.702992: $GPGSV,3,2,12,14,70,022,44,22,35,306,42,26,20,178,38,31,75,259,47*72
2017-12-01 17:14:17 1512166457.703058: $GPGSV,3,3,12,32,58,070,49,11,01,265,27,25,38,063,00,138,38,213,40*45
2017-12-01 17:14:17 1512166457.814887: $GPZDA,221418.00,01,12,2017,00,00*6C
2017-12-01 17:14:17 1512166457.815036: $GPGGA,221418,3946.9605,N,08404.9815,W,2,11,0.80,310.86,M,-33.324,M,,*7C
2017-12-01 17:14:17 1512166457.815103: $GPRMC,221418,A,3946.9605,N,08404.9815,W,0.0000,0.000,011217,,*38
2017-12-01 17:14:17 1512166457.815164: $GPGSA,A,3,1,3,10,12,14,22,26,31,32,11,138,,2.0,0.8,1.5*04
2017-12-01 17:14:18 1512166458.367546: $GPZDA,221419.00,01,12,2017,00,00*6D
2017-12-01 17:14:18 1512166458.367713: $GPGGA,221419,3946.9605,N,08404.9815,W,2,11,0.80,310.86,M,-33.324,M,,*7D
2017-12-01 17:14:18 1512166458.367780: $GPRMC,221419,A,3946.9605,N,08404.9815,W,0.0000,0.000,011217,,*39
2017-12-01 17:14:18 1512166458.367840: $GPGSA,A,3,1,3,10,12,14,22,26,31,32,11,138,,2.0,0.8,1.5*04
2017-12-01 17:14:19 1512166459.367701: $GPZDA,221420.00,01,12,2017,00,00*67
2017-12-01 17:14:19 1512166459.367872: $GPGGA,221420,3946.9603,N,08404.9807,W,2,11,0.80,308.13,M,-33.324,M,,*77
2017-12-01 17:14:19 1512166459.367940: $GPRMC,221420,A,3946.9603,N,08404.9807,W,0.1867,180.000,011217,,*37
2017-12-01 17:14:19 1512166459.368001: $GPGSA,A,3,1,3,10,12,14,22,26,31,32,11,138,,2.0,0.8,1.5*04
2017-12-01 17:14:19 1512166459.368060: $GPGBS,221420,2.67,M,3.86,M,8.82,M*35
2017-12-01 17:14:20 1512166460.703012: $GPGSV,3,1,12,01,20,280,41,03,16,316,41,10,27,156,34,12,11,034,26*70
2017-12-01 17:14:20 1512166460.703207: $GPGSV,3,2,12,14,70,022,44,22,35,306,43,26,20,178,38,31,75,259,47*73
2017-12-01 17:14:20 1512166460.703274: $GPGSV,3,3,12,32,58,070,49,11,01,265,32,25,38,063,04,138,38,213,41*44
2017-12-01 17:14:20 1512166460.816327: $GPZDA,221421.00,01,12,2017,00,00*66
2017-12-01 17:14:20 1512166460.816498: $GPGGA,221421,3946.9603,N,08404.9807,W,2,11,0.80,308.13,M,-33.324,M,,*76
2017-12-01 17:14:20 1512166460.816564: $GPRMC,221421,A,3946.9603,N,08404.9807,W,0.0000,0.000,011217,,*37
2017-12-01 17:14:20 1512166460.816625: $GPGSA,A,3,1,3,10,12,14,22,26,31,32,11,138,,2.0,0.8,1.5*04
