2017-12-01 17:48:19 1512168499.203560: {"class":"VERSION","release":"3.16","rev":"3.16-4","proto_major":3,"proto_minor":11}
2017-12-01 17:48:19 1512168499.203972: {"class":"DEVICES","devices":[{"class":"DEVICE","path":"/dev/ttyUSB0","driver":"SiRF","subtype":"9\u0006GSD4e_4.1.2-P1_RPATCH.05-F-GPS-4R-1510281 11/03/2015 307","activated":"2017-12-01T22:48:19.142Z","flags":1,"native":1,"bps":4800,"parity":"N","stopbits":1,"cycle":1.00}]}
2017-12-01 17:48:19 1512168499.204106: {"class":"WATCH","enable":true,"json":false,"nmea":true,"raw":0,"scaled":false,"timing":false,"split24":false,"pps":false}
2017-12-01 17:48:20 1512168500.208938: $GPZDA,224820.44,01,12,2017,00,00*6E
2017-12-01 17:48:20 1512168500.209109: $GPGGA,224820,3946.9759,N,08404.9840,W,1,12,0.80,315.76,M,-33.325,M,,*7D
2017-12-01 17:48:20 1512168500.209176: $GPRMC,224820,A,3946.9759,N,08404.9840,W,0.1324,22.229,011217,,*0F
2017-12-01 17:48:20 1512168500.209237: $GPGSA,A,3,1,3,10,14,22,25,26,29,31,32,16,138,2.0,0.8,1.5*0C
2017-12-01 17:48:20 1512168500.209296: $GPGBS,224820,10.70,M,15.43,M,35.28,M*09
2017-12-01 17:48:21 1512168501.373977: $GPGSV,3,1,12,01,14,265,42,03,29,312,48,10,12,157,43,14,65,064,42*7B
2017-12-01 17:48:21 1512168501.374158: $GPGSV,3,2,12,16,08,189,34,22,45,292,47,32,48,091,00,25,30,048,43*72
2017-12-01 17:48:21 1512168501.374225: $GPGSV,3,3,12,26,36,175,44,29,04,085,35,31,78,342,46,138,38,213,20*45
2017-12-01 17:48:21 1512168501.487324: $GPZDA,224821.00,01,12,2017,00,00*6F
2017-12-01 17:48:21 1512168501.487480: $GPGGA,224821,3946.9758,N,08404.9839,W,1,11,0.80,314.36,M,-33.325,M,,*75
2017-12-01 17:48:21 1512168501.487546: $GPRMC,224821,A,3946.9758,N,08404.9839,W,0.0407,142.012,011217,,*3B
2017-12-01 17:48:21 1512168501.487606: $GPGSA,A,3,1,3,10,14,16,22,25,26,29,31,138,,2.0,0.8,1.5*0D
2017-12-01 17:48:21 1512168501.939844: $GPZDA,224822.00,01,12,2017,00,00*6C
2017-12-01 17:48:21 1512168501.940011: $GPGGA,224822,3946.9757,N,08404.9838,W,1,11,0.80,312.95,M,-33.325,M,,*77
2017-12-01 17:48:21 1512168501.940077: $GPRMC,224822,A,3946.9757,N,08404.9838,W,0.0407,142.012,011217,,*36
2017-12-01 17:48:21 1512168501.940139: $GPGSA,A,3,1,3,10,14,16,22,25,26,29,31,138,,2.0,0.8,1.5*0D
2017-12-01 17:48:22 1512168502.393211: $GPZDA,224823.00,01,12,2017,00,00*6D
2017-12-01 17:48:22 1512168502.393373: $GPGGA,224823,3946.9757,N,08404.9845,W,1,11,0.80,311.47,M,-33.325,M,,*70
2017-12-01 17:48:22 1512168502.393440: $GPRMC,224823,A,3946.9757,N,08404.9845,W,0.0000,0.000,011217,,*3A
2017-12-01 17:48:22 1512168502.393501: $GPGSA,A,3,1,3,10,14,16,22,25,26,29,31,138,,2.0,0.8,1.5*0D
2017-12-01 17:48:23 1512168503.726846: $GPGSV,3,1,12,01,14,265,42,03,29,312,48,10,12,157,44,14,65,064,41*7F
2017-12-01 17:48:23 1512168503.727026: $GPGSV,3,2,12,16,08,189,34,22,45,292,47,32,48,091,00,25,30,048,42*73
2017-12-01 17:48:23 1512168503.727093: $GPGSV,3,3,12,26,36,175,44,29,04,085,34,31,78,342,46,138,38,213,46*44
2017-12-01 17:48:23 1512168503.840264: $GPZDA,224824.00,01,12,2017,00,00*6A
2017-12-01 17:48:23 1512168503.840437: $GPGGA,224824,3946.9753,N,08404.9845,W,1,11,0.80,310.83,M,-33.325,M,,*7A
2017-12-01 17:48:23 1512168503.840503: $GPRMC,224824,A,3946.9753,N,08404.9845,W,0.0000,0.000,011217,,*39
2017-12-01 17:48:23 1512168503.840564: $GPGSA,A,3,1,3,10,14,16,22,25,26,29,31,138,,2.0,0.8,1.5*0D
2017-12-01 17:48:24 1512168504.391498: $GPZDA,224825.00,01,12,2017,00,00*6B
2017-12-01 17:48:24 1512168504.391710: $GPGGA,224825,3946.9752,N,08404.9844,W,1,11,0.80,309.43,M,-33.325,M,,*7F
2017-12-01 17:48:24 1512168504.391799: $GPRMC,224825,A,3946.9752,N,08404.9844,W,0.0000,0.000,011217,,*38
2017-12-01 17:48:24 1512168504.391862: $GPGSA,A,3,1,3,10,14,16,22,25,26,29,31,138,,2.0,0.8,1.5*0D
2017-12-01 17:48:25 1512168505.393082: $GPZDA,224826.00,01,12,2017,00,00*68
2017-12-01 17:48:25 1512168505.393258: $GPGGA,224826,3946.9751,N,08404.9843,W,1,11,0.80,308.02,M,-33.325,M,,*7C
2017-12-01 17:48:25 1512168505.393326: $GPRMC,224826,A,3946.9751,N,08404.9843,W,0.0000,0.000,011217,,*3F
2017-12-01 17:48:25 1512168505.393387: $GPGSA,A,3,1,3,10,14,16,22,25,26,29,31,138,,2.0,0.8,1.5*0D
2017-12-01 17:48:25 1512168505.393497: $GPGBS,224826,10.70,M,15.43,M,35.28,M*0F
2017-12-01 17:48:26 1512168506.738851: $GPGSV,3,1,12,01,14,265,42,03,29,312,47,10,12,157,43,14,65,064,41*77
2017-12-01 17:48:26 1512168506.739032: $GPGSV,3,2,12,16,08,189,30,22,45,292,47,29,04,085,12,25,30,048,42*73
2017-12-01 17:48:26 1512168506.739099: $GPGSV,3,3,12,26,36,175,45,32,48,091,00,31,78,342,46,138,38,213,46*45
2017-12-01 17:48:26 1512168506.851272: $GPZDA,224827.00,01,12,2017,00,00*69
2017-12-01 17:48:26 1512168506.851508: $GPGGA,224827,3946.9747,N,08404.9843,W,1,10,0.80,307.38,M,-33.325,M,,*7D
2017-12-01 17:48:26 1512168506.851582: $GPRMC,224827,A,3946.9747,N,08404.9843,W,0.0000,0.000,011217,,*39
2017-12-01 17:48:26 1512168506.851644: $GPGSA,A,3,1,3,10,14,16,22,25,26,31,138,,,2.0,0.8,1.5*06
2017-12-01 17:48:27 1512168507.393425: $GPZDA,224828.00,01,12,2017,00,00*66
2017-12-01 17:48:27 1512168507.393609: $GPGGA,224828,3946.9746,N,08404.9842,W,1,10,0.80,305.98,M,-33.325,M,,*7A
2017-12-01 17:48:27 1512168507.393676: $GPRMC,224828,A,3946.9746,N,08404.9842,W,0.0000,0.000,011217,,*36
2017-12-01 17:48:27 1512168507.393736: $GPGSA,A,3,1,3,10,14,16,22,25,26,31,138,,,2.0,0.8,1.5*06
2017-12-01 17:48:28 1512168508.397412: $GPZDA,224829.00,01,12,2017,00,00*67
2017-12-01 17:48:28 1512168508.397583: $GPGGA,224829,3946.9734,N,08404.9852,W,2,10,2.00,296.11,M,-33.325,M,,*7C
2017-12-01 17:48:28 1512168508.397650: $GPRMC,224829,A,3946.9734,N,08404.9852,W,0.0000,0.000,011217,,*33
2017-12-01 17:48:28 1512168508.397711: $GPGSA,A,3,1,3,10,14,16,22,25,26,31,138,,,2.0,2.0,1.5*0C
2017-12-01 17:48:29 1512168509.735469: $GPGSV,3,1,12,01,14,265,42,03,29,312,47,10,12,157,43,14,65,064,41*77
2017-12-01 17:48:29 1512168509.735648: $GPGSV,3,2,12,16,08,189,33,22,45,292,48,29,04,085,30,25,30,048,42*7F
2017-12-01 17:48:29 1512168509.735715: $GPGSV,3,3,12,26,36,175,46,32,48,091,00,31,78,342,46,138,38,213,46*46
2017-12-01 17:48:29 1512168509.848792: $GPZDA,224830.00,01,12,2017,00,00*6F
2017-12-01 17:48:29 1512168509.848960: $GPGGA,224830,3946.9734,N,08404.9852,W,2,11,0.80,296.11,M,-33.325,M,,*7F
2017-12-01 17:48:29 1512168509.849027: $GPRMC,224830,A,3946.9734,N,08404.9852,W,0.0000,0.000,011217,,*3B
2017-12-01 17:48:29 1512168509.849088: $GPGSA,A,3,1,3,10,14,16,22,29,25,26,31,138,,2.0,0.8,1.5*0D
2017-12-01 17:48:30 1512168510.393518: $GPZDA,224831.00,01,12,2017,00,00*6E
2017-12-01 17:48:30 1512168510.393689: $GPGGA,224831,3946.9734,N,08404.9852,W,2,11,0.80,296.11,M,-33.325,M,,*7E
2017-12-01 17:48:30 1512168510.393756: $GPRMC,224831,A,3946.9734,N,08404.9852,W,0.0000,0.000,011217,,*3A
2017-12-01 17:48:30 1512168510.393817: $GPGSA,A,3,1,3,10,14,16,22,29,25,26,31,138,,2.0,0.8,1.5*0D
2017-12-01 17:48:31 1512168511.398051: $GPZDA,224832.00,01,12,2017,00,00*6D
2017-12-01 17:48:31 1512168511.398229: $GPGGA,224832,3946.9734,N,08404.9852,W,2,11,0.80,296.11,M,-33.325,M,,*7D
2017-12-01 17:48:31 1512168511.398297: $GPRMC,224832,A,3946.9734,N,08404.9852,W,0.0000,0.000,011217,,*39
2017-12-01 17:48:31 1512168511.398359: $GPGSA,A,3,1,3,10,14,16,22,29,25,26,31,138,,2.0,0.8,1.5*0D
2017-12-01 17:48:32 1512168512.733680: $GPGSV,3,1,11,01,14,265,43,03,29,312,47,10,12,157,43,14,65,064,41*75
2017-12-01 17:48:32 1512168512.733861: $GPGSV,3,2,11,22,45,292,47,16,08,189,30,25,30,048,41,26,36,175,45*71
2017-12-01 17:48:32 1512168512.733928: $GPGSV,3,3,11,32,48,091,00,31,78,342,46,138,38,213,46*75
2017-12-01 17:48:32 1512168512.847110: $GPZDA,224833.00,01,12,2017,00,00*6C
2017-12-01 17:48:32 1512168512.847251: $GPGGA,224833,3946.9734,N,08404.9852,W,2,10,0.80,296.11,M,-33.325,M,,*7D
2017-12-01 17:48:32 1512168512.847316: $GPRMC,224833,A,3946.9734,N,08404.9852,W,0.0000,0.000,011217,,*38
2017-12-01 17:48:32 1512168512.847375: $GPGSA,A,3,1,3,10,14,22,16,25,26,31,138,,,2.0,0.8,1.5*06
2017-12-01 17:48:33 1512168513.472504: $GPZDA,224834.00,01,12,2017,00,00*6B
2017-12-01 17:48:33 1512168513.472675: $GPGGA,224834,3946.9734,N,08404.9852,W,2,10,0.80,296.11,M,-33.325,M,,*7A
2017-12-01 17:48:33 1512168513.472742: $GPRMC,224834,A,3946.9734,N,08404.9852,W,0.0000,0.000,011217,,*3F
2017-12-01 17:48:33 1512168513.472851: $GPGSA,A,3,1,3,10,14,22,16,25,26,31,138,,,2.0,0.8,1.5*06
2017-12-01 17:48:34 1512168514.392255: $GPZDA,224835.00,01,12,2017,00,00*6A
2017-12-01 17:48:34 1512168514.392425: $GPGGA,224835,3946.9734,N,08404.9852,W,2,10,0.80,296.11,M,-33.325,M,,*7B
2017-12-01 17:48:34 1512168514.392492: $GPRMC,224835,A,3946.9734,N,08404.9852,W,0.0000,0.000,011217,,*3E
2017-12-01 17:48:34 1512168514.392553: $GPGSA,A,3,1,3,10,14,22,16,25,26,31,138,,,2.0,0.8,1.5*06
2017-12-01 17:48:35 1512168515.729034: $GPGSV,3,1,12,01,14,265,42,03,29,312,46,10,12,157,43,14,65,064,40*77
2017-12-01 17:48:35 1512168515.729219: $GPGSV,3,2,12,29,04,085,17,22,45,292,47,16,08,189,33,25,30,048,39*79
2017-12-01 17:48:35 1512168515.729287: $GPGSV,3,3,12,26,36,175,44,32,48,091,00,31,78,342,46,138,38,213,47*45
2017-12-01 17:48:35 1512168515.842493: $GPZDA,224836.00,01,12,2017,00,00*69
2017-12-01 17:48:35 1512168515.842647: $GPGGA,224836,3946.9734,N,08404.9852,W,2,11,0.80,296.11,M,-33.325,M,,*79
2017-12-01 17:48:35 1512168515.842712: $GPRMC,224836,A,3946.9734,N,08404.9852,W,0.0000,0.000,011217,,*3D
2017-12-01 17:48:35 1512168515.842773: $GPGSA,A,3,1,3,10,14,29,22,16,25,26,31,138,,2.0,0.8,1.5*0D
2017-12-01 17:48:36 1512168516.391109: $GPZDA,224837.00,01,12,2017,00,00*68
2017-12-01 17:48:36 1512168516.391280: $GPGGA,224837,3946.9734,N,08404.9852,W,2,11,0.80,296.11,M,-33.325,M,,*78
2017-12-01 17:48:36 1512168516.391398: $GPRMC,224837,A,3946.9734,N,08404.9852,W,0.0000,0.000,011217,,*3C
2017-12-01 17:48:36 1512168516.391470: $GPGSA,A,3,1,3,10,14,29,22,16,25,26,31,138,,2.0,0.8,1.5*0D
2017-12-01 17:48:37 1512168517.393303: $GPZDA,224838.00,01,12,2017,00,00*67
2017-12-01 17:48:37 1512168517.393480: $GPGGA,224838,3946.9734,N,08404.9852,W,2,11,0.80,296.11,M,-33.325,M,,*77
2017-12-01 17:48:37 1512168517.393549: $GPRMC,224838,A,3946.9734,N,08404.9852,W,0.0000,0.000,011217,,*33
2017-12-01 17:48:37 1512168517.393614: $GPGSA,A,3,1,3,10,14,29,22,16,25,26,31,138,,2.0,0.8,1.5*0D
2017-12-01 17:48:37 1512168517.393675: $GPGBS,224838,2.67,M,3.86,M,8.82,M*35
2017-12-01 17:48:38 1512168518.734316: $GPGSV,3,1,12,01,14,265,42,03,29,312,46,10,12,157,42,14,65,064,40*76
2017-12-01 17:48:38 1512168518.734498: $GPGSV,3,2,12,29,04,085,25,22,45,292,47,16,08,189,34,25,30,048,40*71
2017-12-01 17:48:38 1512168518.734567: $GPGSV,3,3,12,26,36,175,45,32,48,091,00,31,78,342,46,138,38,213,46*45
2017-12-01 17:48:38 1512168518.847658: $GPZDA,224839.00,01,12,2017,00,00*66
2017-12-01 17:48:38 1512168518.847816: $GPGGA,224839,3946.9734,N,08404.9852,W,2,11,0.80,296.11,M,-33.325,M,,*76
2017-12-01 17:48:38 1512168518.847906: $GPRMC,224839,A,3946.9734,N,08404.9852,W,0.0000,0.000,011217,,*32
2017-12-01 17:48:38 1512168518.847971: $GPGSA,A,3,1,3,10,14,29,22,16,25,26,31,138,,2.0,0.8,1.5*0D
