2018-01-12 04:02:58 1515747778.193068: {"class":"VERSION","release":"3.16","rev":"3.16-4","proto_major":3,"proto_minor":11}
2018-01-12 04:02:58 1515747778.193406: {"class":"DEVICES","devices":[{"class":"DEVICE","path":"/dev/ttyUSB0","driver":"SiRF","subtype":"9\u0006GSD4e_4.1.2-P1_RPATCH.05-F-GPS-4R-1510281 11/03/2015 307","activated":"2018-01-12T09:02:57.622Z","flags":1,"native":1,"bps":4800,"parity":"N","stopbits":1,"cycle":1.00}]}
2018-01-12 04:02:58 1515747778.193519: {"class":"WATCH","enable":true,"json":false,"nmea":true,"raw":0,"scaled":false,"timing":false,"split24":false,"pps":false}
2018-01-12 04:02:58 1515747778.413463: $GPZDA,090259.00,12,01,2018,00,00*68
2018-01-12 04:02:58 1515747778.413638: $GPGGA,090259,3946.9646,N,08404.9696,W,2,11,1.00,306.41,M,-33.324,M,,*70
2018-01-12 04:02:58 1515747778.413703: $GPRMC,090259,A,3946.9646,N,08404.9696,W,0.0000,0.000,120118,,*3E
2018-01-12 04:02:58 1515747778.413764: $GPGSA,A,3,2,5,6,12,25,29,9,17,19,23,138,,2.4,1.0,2.1*04
2018-01-12 04:02:59 1515747779.742709: $GPGSV,3,1,12,02,70,319,44,05,40,196,47,06,54,046,42,12,54,267,48*74
2018-01-12 04:02:59 1515747779.742886: $GPGSV,3,2,12,25,28,309,45,29,04,303,46,09,18,076,23,17,21,115,24*76
2018-01-12 04:02:59 1515747779.742951: $GPGSV,3,3,12,19,39,108,24,23,08,043,28,04,48,274,00,138,38,213,49*46
2018-01-12 04:02:59 1515747779.856315: $GPZDA,090300.00,12,01,2018,00,00*65
2018-01-12 04:02:59 1515747779.856459: $GPGGA,090300,3946.9646,N,08404.9696,W,2,11,1.00,306.41,M,-33.324,M,,*7D
2018-01-12 04:02:59 1515747779.856524: $GPRMC,090300,A,3946.9646,N,08404.9696,W,0.0000,0.000,120118,,*33
2018-01-12 04:02:59 1515747779.856585: $GPGSA,A,3,2,5,6,12,25,29,9,17,19,23,138,,2.4,1.0,2.1*04
2018-01-12 04:03:00 1515747780.404704: $GPZDA,090301.00,12,01,2018,00,00*64
2018-01-12 04:03:00 1515747780.948939: $GPGGA,090301,3946.9646,N,08404.9696,W,2,11,1.00,306.41,M,-33.324,M,,*7C
2018-01-12 04:03:00 1515747780.949092: $GPRMC,090301,A,3946.9646,N,08404.9696,W,0.0000,0.000,120118,,*32
2018-01-12 04:03:00 1515747780.949157: $GPGSA,A,3,2,5,6,12,25,29,9,17,19,23,138,,2.4,1.0,2.1*04
2018-01-12 04:03:01 1515747781.412065: $GPZDA,090302.00,12,01,2018,00,00*67
2018-01-12 04:03:01 1515747781.412215: $GPGGA,090302,3946.9646,N,08404.9696,W,2,11,1.00,306.41,M,-33.324,M,,*7F
2018-01-12 04:03:01 1515747781.412282: $GPRMC,090302,A,3946.9646,N,08404.9696,W,0.0000,0.000,120118,,*31
2018-01-12 04:03:01 1515747781.412343: $GPGSA,A,3,2,5,6,12,25,29,9,17,19,23,138,,2.4,1.0,2.1*04
2018-01-12 04:03:02 1515747782.744480: $GPGSV,3,1,12,02,70,319,44,05,40,196,47,06,54,046,42,12,54,267,48*74
2018-01-12 04:03:02 1515747782.744658: $GPGSV,3,2,12,25,28,309,45,29,04,303,47,09,18,076,23,17,21,115,21*72
2018-01-12 04:03:02 1515747782.744723: $GPGSV,3,3,12,19,39,108,25,23,08,043,29,04,48,274,00,138,38,213,48*47
2018-01-12 04:03:02 1515747782.858049: $GPZDA,090303.00,12,01,2018,00,00*66
2018-01-12 04:03:02 1515747782.858215: $GPGGA,090303,3946.9646,N,08404.9696,W,2,11,1.00,306.41,M,-33.324,M,,*7E
2018-01-12 04:03:02 1515747782.858281: $GPRMC,090303,A,3946.9646,N,08404.9696,W,0.0000,0.000,120118,,*30
2018-01-12 04:03:02 1515747782.858342: $GPGSA,A,3,2,5,6,12,25,29,9,17,19,23,138,,2.4,1.0,2.1*04
2018-01-12 04:03:03 1515747783.411430: $GPZDA,090304.00,12,01,2018,00,00*61
2018-01-12 04:03:03 1515747783.411604: $GPGGA,090304,3946.9646,N,08404.9696,W,2,11,1.00,306.41,M,-33.324,M,,*79
2018-01-12 04:03:03 1515747783.411671: $GPRMC,090304,A,3946.9646,N,08404.9696,W,0.0000,0.000,120118,,*37
2018-01-12 04:03:03 1515747783.411732: $GPGSA,A,3,2,5,6,12,25,29,9,17,19,23,138,,2.4,1.0,2.1*04
2018-01-12 04:03:04 1515747784.409705: $GPZDA,090305.00,12,01,2018,00,00*60
2018-01-12 04:03:04 1515747784.409879: $GPGGA,090305,3946.9646,N,08404.9696,W,2,11,1.00,306.41,M,-33.324,M,,*78
2018-01-12 04:03:04 1515747784.409944: $GPRMC,090305,A,3946.9646,N,08404.9696,W,0.0000,0.000,120118,,*36
2018-01-12 04:03:04 1515747784.410006: $GPGSA,A,3,2,5,6,12,25,29,9,17,19,23,138,,2.4,1.0,2.1*04
2018-01-12 04:03:05 1515747785.744147: $GPGSV,3,1,12,02,70,319,43,05,40,196,47,06,54,046,42,12,54,267,48*73
2018-01-12 04:03:05 1515747785.744449: $GPGSV,3,2,12,25,28,309,45,29,04,303,47,09,18,076,22,17,21,115,00*70
2018-01-12 04:03:05 1515747785.744553: $GPGSV,3,3,12,19,39,108,25,23,08,043,30,04,48,274,00,138,38,213,48*4F
2018-01-12 04:03:05 1515747785.856448: $GPZDA,090306.00,12,01,2018,00,00*63
2018-01-12 04:03:05 1515747785.856610: $GPGGA,090306,3946.9643,N,08404.9697,W,2,10,1.00,307.17,M,-33.324,M,,*7C
2018-01-12 04:03:05 1515747785.856676: $GPRMC,090306,A,3946.9643,N,08404.9697,W,0.0000,0.000,120118,,*31
2018-01-12 04:03:05 1515747785.856737: $GPGSA,A,3,2,5,6,12,25,29,9,19,23,138,,,2.4,1.0,2.1*02
2018-01-12 04:03:06 1515747786.411060: $GPZDA,090307.00,12,01,2018,00,00*62
2018-01-12 04:03:06 1515747786.411229: $GPGGA,090307,3946.9647,N,08404.9697,W,2,10,1.00,307.81,M,-33.324,M,,*76
2018-01-12 04:03:06 1515747786.411295: $GPRMC,090307,A,3946.9647,N,08404.9697,W,0.0000,0.000,120118,,*34
2018-01-12 04:03:06 1515747786.411355: $GPGSA,A,3,2,5,6,12,25,29,9,19,23,138,,,2.4,1.0,2.1*02
2018-01-12 04:03:07 1515747787.407683: $GPZDA,090308.00,12,01,2018,00,00*6D
2018-01-12 04:03:07 1515747787.407833: $GPGGA,090308,3946.9647,N,08404.9697,W,2,10,1.00,307.81,M,-33.324,M,,*79
2018-01-12 04:03:07 1515747787.407900: $GPRMC,090308,A,3946.9647,N,08404.9697,W,0.0000,0.000,120118,,*3B
2018-01-12 04:03:07 1515747787.407961: $GPGSA,A,3,2,5,6,12,25,29,9,19,23,138,,,2.4,1.0,2.1*02
2018-01-12 04:03:08 1515747788.750705: $GPGSV,3,1,12,02,70,319,43,05,40,196,48,06,54,046,42,12,54,267,48*7C
2018-01-12 04:03:08 1515747788.750887: $GPGSV,3,2,12,25,28,309,45,29,04,303,48,09,18,076,19,17,21,115,02*75
2018-01-12 04:03:08 1515747788.750952: $GPGSV,3,3,12,19,39,108,25,23,08,043,31,04,48,274,00,138,38,213,48*4E
2018-01-12 04:03:08 1515747788.864288: $GPZDA,090309.00,12,01,2018,00,00*6C
2018-01-12 04:03:08 1515747788.864457: $GPGGA,090309,3946.9647,N,08404.9697,W,2,10,1.00,307.81,M,-33.324,M,,*78
2018-01-12 04:03:08 1515747788.864523: $GPRMC,090309,A,3946.9647,N,08404.9697,W,0.0000,0.000,120118,,*3A
2018-01-12 04:03:08 1515747788.864584: $GPGSA,A,3,2,5,6,12,25,29,9,19,23,138,,,2.4,1.0,2.1*02
2018-01-12 04:03:09 1515747789.408982: $GPZDA,090310.00,12,01,2018,00,00*64
2018-01-12 04:03:09 1515747789.409152: $GPGGA,090310,3946.9647,N,08404.9697,W,2,10,1.00,307.81,M,-33.324,M,,*70
2018-01-12 04:03:09 1515747789.409218: $GPRMC,090310,A,3946.9647,N,08404.9697,W,0.0000,0.000,120118,,*32
2018-01-12 04:03:09 1515747789.409279: $GPGSA,A,3,2,5,6,12,25,29,9,19,23,138,,,2.4,1.0,2.1*02
2018-01-12 04:03:10 1515747790.407373: $GPZDA,090311.00,12,01,2018,00,00*65
2018-01-12 04:03:10 1515747790.407545: $GPGGA,090311,3946.9647,N,08404.9697,W,2,10,1.00,307.81,M,-33.324,M,,*71
2018-01-12 04:03:10 1515747790.407612: $GPRMC,090311,A,3946.9647,N,08404.9697,W,0.0000,0.000,120118,,*33
2018-01-12 04:03:10 1515747790.407673: $GPGSA,A,3,2,5,6,12,25,29,9,19,23,138,,,2.4,1.0,2.1*02
2018-01-12 04:03:11 1515747791.742995: $GPGSV,3,1,12,02,70,319,43,05,40,196,47,06,54,046,42,12,54,267,49*72
2018-01-12 04:03:11 1515747791.743196: $GPGSV,3,2,12,25,28,309,44,29,04,303,48,09,18,076,18,17,21,115,25*70
2018-01-12 04:03:11 1515747791.743262: $GPGSV,3,3,12,19,39,108,24,23,08,043,31,04,48,274,00,138,38,213,47*40
2018-01-12 04:03:11 1515747791.856293: $GPZDA,090312.00,12,01,2018,00,00*66
2018-01-12 04:03:11 1515747791.856448: $GPGGA,090312,3946.9647,N,08404.9697,W,2,11,1.00,307.81,M,-33.324,M,,*73
2018-01-12 04:03:11 1515747791.856514: $GPRMC,090312,A,3946.9647,N,08404.9697,W,0.0000,0.000,120118,,*30
2018-01-12 04:03:11 1515747791.856575: $GPGSA,A,3,2,5,6,12,25,29,9,17,19,23,138,,2.4,1.0,2.1*04
2018-01-12 04:03:12 1515747792.481919: $GPZDA,090313.00,12,01,2018,00,00*67
2018-01-12 04:03:12 1515747792.482093: $GPGGA,090313,3946.9643,N,08404.9698,W,2,11,1.00,308.57,M,-33.324,M,,*7D
2018-01-12 04:03:12 1515747792.482160: $GPRMC,090313,A,3946.9643,N,08404.9698,W,0.0000,0.000,120118,,*3A
2018-01-12 04:03:12 1515747792.482220: $GPGSA,A,3,2,5,6,12,25,29,9,17,19,23,138,,2.4,1.0,2.1*04
2018-01-12 04:03:13 1515747793.406272: $GPZDA,090314.00,12,01,2018,00,00*60
2018-01-12 04:03:13 1515747793.406487: $GPGGA,090314,3946.9643,N,08404.9698,W,2,11,1.00,308.57,M,-33.324,M,,*7A
2018-01-12 04:03:13 1515747793.406558: $GPRMC,090314,A,3946.9643,N,08404.9698,W,0.0000,0.000,120118,,*3D
2018-01-12 04:03:13 1515747793.406618: $GPGSA,A,3,2,5,6,12,25,29,9,17,19,23,138,,2.4,1.0,2.1*04
2018-01-12 04:03:14 1515747794.741896: $GPGSV,3,1,12,02,70,319,42,05,40,196,47,06,54,046,42,12,54,267,48*72
2018-01-12 04:03:14 1515747794.742046: $GPGSV,3,2,12,25,28,309,44,29,04,303,48,09,18,076,18,17,21,115,24*71
2018-01-12 04:03:14 1515747794.742109: $GPGSV,3,3,12,19,39,108,24,23,08,043,31,04,48,274,00,138,38,213,48*4F
2018-01-12 04:03:14 1515747794.855575: $GPZDA,090315.00,12,01,2018,00,00*61
2018-01-12 04:03:14 1515747794.855743: $GPGGA,090315,3946.9643,N,08404.9698,W,2,11,1.00,308.57,M,-33.324,M,,*7B
2018-01-12 04:03:14 1515747794.855809: $GPRMC,090315,A,3946.9643,N,08404.9698,W,0.0000,0.000,120118,,*3C
2018-01-12 04:03:14 1515747794.855870: $GPGSA,A,3,2,5,6,12,25,29,9,17,19,23,138,,2.4,1.0,2.1*04
2018-01-12 04:03:15 1515747795.407403: $GPZDA,090316.00,12,01,2018,00,00*62
2018-01-12 04:03:15 1515747795.407583: $GPGGA,090316,3946.9643,N,08404.9698,W,2,11,1.00,308.57,M,-33.324,M,,*78
2018-01-12 04:03:15 1515747795.407651: $GPRMC,090316,A,3946.9643,N,08404.9698,W,0.0000,0.000,120118,,*3F
2018-01-12 04:03:15 1515747795.407713: $GPGSA,A,3,2,5,6,12,25,29,9,17,19,23,138,,2.4,1.0,2.1*04
2018-01-12 04:03:16 1515747796.413717: $GPZDA,090317.00,12,01,2018,00,00*63
2018-01-12 04:03:16 1515747796.413888: $GPGGA,090317,3946.9647,N,08404.9698,W,2,11,1.00,309.21,M,-33.324,M,,*7D
2018-01-12 04:03:16 1515747796.413955: $GPRMC,090317,A,3946.9647,N,08404.9698,W,0.0000,0.000,120118,,*3A
2018-01-12 04:03:16 1515747796.414016: $GPGSA,A,3,2,5,6,12,25,29,9,17,19,23,138,,2.4,1.0,2.1*04
2018-01-12 04:03:17 1515747797.743493: $GPGSV,3,1,12,02,70,319,42,05,40,196,47,06,54,046,42,12,54,267,48*72
2018-01-12 04:03:17 1515747797.743681: $GPGSV,3,2,12,25,28,309,43,29,04,303,48,09,18,076,18,17,21,115,15*74
2018-01-12 04:03:17 1515747797.743748: $GPGSV,3,3,12,19,39,108,23,23,08,043,31,04,48,274,00,138,38,213,47*47
2018-01-12 04:03:17 1515747797.857054: $GPZDA,090318.00,12,01,2018,00,00*6C
2018-01-12 04:03:17 1515747797.857226: $GPGGA,090318,3946.9647,N,08404.9698,W,2,11,1.00,309.21,M,-33.324,M,,*72
2018-01-12 04:03:17 1515747797.857291: $GPRMC,090318,A,3946.9647,N,08404.9698,W,0.0000,0.000,120118,,*35
2018-01-12 04:03:17 1515747797.857352: $GPGSA,A,3,2,5,6,12,25,29,9,17,19,23,138,,2.4,1.0,2.1*04
