2017-11-16 16:54:00 1510869240.866862: {"class":"VERSION","release":"3.17","rev":"3.17","proto_major":3,"proto_minor":12}
2017-11-16 16:54:00 1510869240.867327: {"class":"DEVICES","devices":[{"class":"DEVICE","path":"/dev/ttyUSB0","driver":"SiRF","subtype":"9\u0006GSD4e_4.1.2-P1_RPATCH.05-F-GPS-4R-1510281 11/03/2015 307","activated":"2017-11-16T21:54:00.763Z","flags":1,"native":1,"bps":4800,"parity":"N","stopbits":1,"cycle":1.00}]}
2017-11-16 16:54:00 1510869240.867450: {"class":"WATCH","enable":true,"json":false,"nmea":true,"raw":0,"scaled":false,"timing":false,"split24":false,"pps":false}
2017-11-16 16:54:01 1510869241.444813: $GPZDA,215400.00,16,11,2017,00,00*67
2017-11-16 16:54:01 1510869241.444984: $GPGGA,215400,3946.9585,N,08404.9829,W,2,11,0.80,307.50,M,-33.324,M,,*7B
2017-11-16 16:54:01 1510869241.445108: $GPRMC,215400,A,3946.9585,N,08404.9829,W,0.0000,0.000,161117,,*37
2017-11-16 16:54:01 1510869241.445168: $GPGSA,A,3,1,10,11,12,14,18,24,25,31,32,138,,1.6,0.8,1.3*38
2017-11-16 16:54:02 1510869242.780635: $GPGSV,3,1,12,01,15,316,33,10,67,135,50,11,11,298,31,12,25,069,48*7D
2017-11-16 16:54:02 1510869242.780828: $GPGSV,3,2,12,14,56,295,46,18,35,136,35,24,12,045,40,25,31,112,41*7E
2017-11-16 16:54:02 1510869242.780891: $GPGSV,3,3,12,31,37,213,47,32,68,334,51,22,04,310,30,138,38,213,44*44
2017-11-16 16:54:02 1510869242.893917: $GPZDA,215401.00,16,11,2017,00,00*66
2017-11-16 16:54:02 1510869242.894094: $GPGGA,215401,3946.9585,N,08404.9829,W,2,12,0.80,307.50,M,-33.324,M,,*79
2017-11-16 16:54:02 1510869242.894158: $GPRMC,215401,A,3946.9585,N,08404.9829,W,0.0000,0.000,161117,,*36
2017-11-16 16:54:02 1510869242.894214: $GPGSA,A,3,1,10,11,12,14,18,24,25,31,32,22,138,1.6,0.8,1.3*38
2017-11-16 16:54:03 1510869243.446090: $GPZDA,215402.00,16,11,2017,00,00*65
2017-11-16 16:54:03 1510869243.446256: $GPGGA,215402,3946.9585,N,08404.9829,W,2,12,0.80,307.50,M,-33.324,M,,*7A
2017-11-16 16:54:03 1510869243.446318: $GPRMC,215402,A,3946.9585,N,08404.9829,W,0.0000,0.000,161117,,*35
2017-11-16 16:54:03 1510869243.446374: $GPGSA,A,3,1,10,11,12,14,18,24,25,31,32,22,138,1.6,0.8,1.3*38
2017-11-16 16:54:04 1510869244.440764: $GPZDA,215403.00,16,11,2017,00,00*64
2017-11-16 16:54:04 1510869244.440962: $GPGGA,215403,3946.9585,N,08404.9829,W,2,12,0.80,307.50,M,-33.324,M,,*7B
2017-11-16 16:54:04 1510869244.441031: $GPRMC,215403,A,3946.9585,N,08404.9829,W,0.0000,0.000,161117,,*34
2017-11-16 16:54:04 1510869244.441090: $GPGSA,A,3,1,10,11,12,14,18,24,25,31,32,22,138,1.6,0.8,1.3*38
2017-11-16 16:54:05 1510869245.788996: $GPGSV,3,1,12,01,15,316,33,10,67,135,49,11,11,298,31,12,25,069,49*74
2017-11-16 16:54:05 1510869245.789160: $GPGSV,3,2,12,14,56,295,46,18,35,136,34,24,12,045,40,25,31,112,41*7F
2017-11-16 16:54:05 1510869245.789220: $GPGSV,3,3,12,31,37,213,47,32,68,334,51,22,04,310,05,138,38,213,44*42
2017-11-16 16:54:05 1510869245.902248: $GPZDA,215404.00,16,11,2017,00,00*63
2017-11-16 16:54:05 1510869245.902425: $GPGGA,215404,3946.9585,N,08404.9829,W,2,11,0.80,307.50,M,-33.324,M,,*7F
2017-11-16 16:54:05 1510869245.902486: $GPRMC,215404,A,3946.9585,N,08404.9829,W,0.0000,0.000,161117,,*33
2017-11-16 16:54:05 1510869245.902543: $GPGSA,A,3,1,10,11,12,14,18,24,25,31,32,138,,1.6,0.8,1.3*38
2017-11-16 16:54:06 1510869246.527633: $GPZDA,215405.00,16,11,2017,00,00*62
2017-11-16 16:54:06 1510869246.527795: $GPGGA,215405,3946.9585,N,08404.9829,W,2,11,0.80,307.50,M,-33.324,M,,*7E
2017-11-16 16:54:06 1510869246.527856: $GPRMC,215405,A,3946.9585,N,08404.9829,W,0.0000,0.000,161117,,*32
2017-11-16 16:54:06 1510869246.527916: $GPGSA,A,3,1,10,11,12,14,18,24,25,31,32,138,,1.6,0.8,1.3*38
2017-11-16 16:54:07 1510869247.456316: $GPZDA,215406.00,16,11,2017,00,00*61
2017-11-16 16:54:07 1510869247.456490: $GPGGA,215406,3946.9585,N,08404.9829,W,2,11,0.80,307.50,M,-33.324,M,,*7D
2017-11-16 16:54:07 1510869247.456552: $GPRMC,215406,A,3946.9585,N,08404.9829,W,0.0000,0.000,161117,,*31
2017-11-16 16:54:07 1510869247.456608: $GPGSA,A,3,1,10,11,12,14,18,24,25,31,32,138,,1.6,0.8,1.3*38
2017-11-16 16:54:08 1510869248.780719: $GPGSV,3,1,12,01,15,316,38,10,67,135,49,11,11,298,21,12,25,069,48*7F
2017-11-16 16:54:08 1510869248.780935: $GPGSV,3,2,12,14,56,295,46,18,35,136,34,24,12,045,40,25,31,112,42*7C
2017-11-16 16:54:08 1510869248.780998: $GPGSV,3,3,12,31,37,213,47,32,68,334,51,22,04,310,32,138,38,213,44*46
2017-11-16 16:54:08 1510869248.894442: $GPZDA,215407.00,16,11,2017,00,00*60
2017-11-16 16:54:08 1510869248.894600: $GPGGA,215407,3946.9585,N,08404.9829,W,2,12,0.80,307.50,M,-33.324,M,,*7F
2017-11-16 16:54:08 1510869248.894661: $GPRMC,215407,A,3946.9585,N,08404.9829,W,0.0000,0.000,161117,,*30
2017-11-16 16:54:08 1510869248.894717: $GPGSA,A,3,1,10,11,12,14,18,24,25,31,32,22,138,1.6,0.8,1.3*38
2017-11-16 16:54:09 1510869249.443577: $GPZDA,215408.00,16,11,2017,00,00*6F
2017-11-16 16:54:09 1510869249.443736: $GPGGA,215408,3946.9585,N,08404.9829,W,2,12,0.80,307.50,M,-33.324,M,,*70
2017-11-16 16:54:09 1510869249.443797: $GPRMC,215408,A,3946.9585,N,08404.9829,W,0.0000,0.000,161117,,*3F
2017-11-16 16:54:09 1510869249.443854: $GPGSA,A,3,1,10,11,12,14,18,24,25,31,32,22,138,1.6,0.8,1.3*38
2017-11-16 16:54:10 1510869250.444433: $GPZDA,215409.00,16,11,2017,00,00*6E
2017-11-16 16:54:10 1510869250.444630: $GPGGA,215409,3946.9585,N,08404.9829,W,2,12,0.80,307.50,M,-33.324,M,,*71
2017-11-16 16:54:10 1510869250.444694: $GPRMC,215409,A,3946.9585,N,08404.9829,W,0.0000,0.000,161117,,*3E
2017-11-16 16:54:10 1510869250.444750: $GPGSA,A,3,1,10,11,12,14,18,24,25,31,32,22,138,1.6,0.8,1.3*38
