2017-12-31 18:57:58 1514764678.158277: {"class":"VERSION","release":"3.16","rev":"3.16-4","proto_major":3,"proto_minor":11}
2017-12-31 18:57:58 1514764678.158771: {"class":"DEVICES","devices":[{"class":"DEVICE","path":"/dev/ttyUSB0","driver":"SiRF","activated":"2017-12-31T23:57:57.944Z","flags":1,"native":1,"bps":4800,"parity":"N","stopbits":1,"cycle":1.00}]}
2017-12-31 18:57:58 1514764678.158893: {"class":"WATCH","enable":true,"json":false,"nmea":true,"raw":0,"scaled":false,"timing":false,"split24":false,"pps":false}
2017-12-31 18:57:58 1514764678.353334: $GPZDA,235759.00,31,12,2017,00,00*6C
2017-12-31 18:57:58 1514764678.353496: $GPGGA,235759,3946.9579,N,08404.9831,W,2,11,0.80,310.44,M,-33.324,M,,*7F
2017-12-31 18:57:58 1514764678.353561: $GPRMC,235759,A,3946.9579,N,08404.9831,W,0.0000,0.000,311217,,*36
2017-12-31 18:57:58 1514764678.353622: $GPGSA,A,3,22,23,9,3,16,8,31,27,7,26,135,,1.7,0.8,1.3*09
2017-12-31 18:57:59 1514764679.351679: $GPZDA,235800.00,31,12,2017,00,00*6F
2017-12-31 18:57:59 1514764679.351871: $GPGGA,235800,3946.9579,N,08404.9831,W,2,11,0.80,310.44,M,-33.324,M,,*7C
2017-12-31 18:57:59 1514764679.351940: $GPRMC,235800,A,3946.9579,N,08404.9831,W,0.0000,0.000,311217,,*35
2017-12-31 18:57:59 1514764679.352019: $GPGSA,A,3,22,23,9,3,16,8,31,27,7,26,135,,1.7,0.8,1.3*09
2017-12-31 18:58:00 1514764680.687909: $GPGSV,3,1,11,22,05,202,22,23,70,270,39,09,40,307,34,03,15,219,30*77
2017-12-31 18:58:00 1514764680.688098: $GPGSV,3,2,11,16,73,036,46,08,20,175,44,31,14,091,34,27,43,139,41*71
2017-12-31 18:58:00 1514764680.688180: $GPGSV,3,3,11,07,13,286,40,26,41,048,44,135,22,240,43*7F
2017-12-31 18:58:00 1514764680.801515: $GPZDA,235801.00,31,12,2017,00,00*6E
2017-12-31 18:58:00 1514764680.801648: $GPGGA,235801,3946.9579,N,08404.9831,W,2,11,0.80,310.44,M,-33.324,M,,*7D
2017-12-31 18:58:00 1514764680.801714: $GPRMC,235801,A,3946.9579,N,08404.9831,W,0.0000,0.000,311217,,*34
2017-12-31 18:58:00 1514764680.801774: $GPGSA,A,3,22,23,9,3,16,8,31,27,7,26,135,,1.7,0.8,1.3*09
2017-12-31 18:58:01 1514764681.353672: $GPZDA,235802.00,31,12,2017,00,00*6D
2017-12-31 18:58:01 1514764681.353851: $GPGGA,235802,3946.9579,N,08404.9831,W,2,11,0.80,310.44,M,-33.324,M,,*7E
2017-12-31 18:58:01 1514764681.353919: $GPRMC,235802,A,3946.9579,N,08404.9831,W,0.0000,0.000,311217,,*37
2017-12-31 18:58:01 1514764681.353998: $GPGSA,A,3,22,23,9,3,16,8,31,27,7,26,135,,1.7,0.8,1.3*09
2017-12-31 18:58:02 1514764682.353282: $GPZDA,235803.00,31,12,2017,00,00*6C
2017-12-31 18:58:02 1514764682.353455: $GPGGA,235803,3946.9579,N,08404.9831,W,2,11,0.80,310.44,M,-33.324,M,,*7F
2017-12-31 18:58:02 1514764682.353522: $GPRMC,235803,A,3946.9579,N,08404.9831,W,0.0000,0.000,311217,,*36
2017-12-31 18:58:02 1514764682.353583: $GPGSA,A,3,22,23,9,3,16,8,31,27,7,26,135,,1.7,0.8,1.3*09
2017-12-31 18:58:03 1514764683.688788: $GPGSV,3,1,11,22,05,202,24,23,70,270,39,09,40,307,32,03,15,219,30*77
2017-12-31 18:58:03 1514764683.688986: $GPGSV,3,2,11,16,73,036,46,08,20,175,44,31,14,091,34,27,43,139,40*70
2017-12-31 18:58:03 1514764683.689052: $GPGSV,3,3,11,07,13,286,41,26,41,048,44,135,22,240,44*79
2017-12-31 18:58:03 1514764683.802109: $GPZDA,235804.00,31,12,2017,00,00*6B
2017-12-31 18:58:03 1514764683.802238: $GPGGA,235804,3946.9579,N,08404.9831,W,2,11,0.80,310.44,M,-33.324,M,,*78
2017-12-31 18:58:03 1514764683.802304: $GPRMC,235804,A,3946.9579,N,08404.9831,W,0.0000,0.000,311217,,*31
2017-12-31 18:58:03 1514764683.802365: $GPGSA,A,3,22,23,9,3,16,8,31,27,7,26,135,,1.7,0.8,1.3*09
2017-12-31 18:58:04 1514764684.353268: $GPZDA,235805.00,31,12,2017,00,00*6A
2017-12-31 18:58:04 1514764684.353432: $GPGGA,235805,3946.9579,N,08404.9831,W,2,11,0.80,310.44,M,-33.324,M,,*79
2017-12-31 18:58:04 1514764684.353498: $GPRMC,235805,A,3946.9579,N,08404.9831,W,0.0000,0.000,311217,,*30
2017-12-31 18:58:04 1514764684.353559: $GPGSA,A,3,22,23,9,3,16,8,31,27,7,26,135,,1.7,0.8,1.3*09
2017-12-31 18:58:05 1514764685.353443: $GPZDA,235806.00,31,12,2017,00,00*69
2017-12-31 18:58:05 1514764685.353600: $GPGGA,235806,3946.9579,N,08404.9831,W,2,11,0.80,310.44,M,-33.324,M,,*7A
2017-12-31 18:58:05 1514764685.353711: $GPRMC,235806,A,3946.9579,N,08404.9831,W,0.0000,0.000,311217,,*33
2017-12-31 18:58:05 1514764685.353773: $GPGSA,A,3,22,23,9,3,16,8,31,27,7,26,135,,1.7,0.8,1.3*09
2017-12-31 18:58:06 1514764686.682936: $GPGSV,3,1,11,22,05,202,24,23,70,270,33,09,40,307,33,03,15,219,30*7C
2017-12-31 18:58:06 1514764686.683116: $GPGSV,3,2,11,16,73,036,45,08,20,175,44,31,14,091,33,27,43,139,40*74
2017-12-31 18:58:06 1514764686.683184: $GPGSV,3,3,11,07,13,286,43,26,41,048,44,135,22,240,44*7B
2017-12-31 18:58:06 1514764686.796537: $GPZDA,235807.00,31,12,2017,00,00*68
2017-12-31 18:58:06 1514764686.796679: $GPGGA,235807,3946.9579,N,08404.9831,W,2,11,0.80,310.44,M,-33.324,M,,*7B
2017-12-31 18:58:06 1514764686.796745: $GPRMC,235807,A,3946.9579,N,08404.9831,W,0.0000,0.000,311217,,*32
2017-12-31 18:58:06 1514764686.796805: $GPGSA,A,3,22,23,9,3,16,8,31,27,7,26,135,,1.7,0.8,1.3*09
2017-12-31 18:58:07 1514764687.354941: $GPZDA,235808.00,31,12,2017,00,00*67
2017-12-31 18:58:07 1514764687.355107: $GPGGA,235808,3946.9579,N,08404.9831,W,2,11,0.80,310.44,M,-33.324,M,,*74
2017-12-31 18:58:07 1514764687.355174: $GPRMC,235808,A,3946.9579,N,08404.9831,W,0.0000,0.000,311217,,*3D
2017-12-31 18:58:07 1514764687.355236: $GPGSA,A,3,22,23,9,3,16,8,31,27,7,26,135,,1.7,0.8,1.3*09
