2017-11-15 19:28:49 1510792129.864255: {"class":"VERSION","release":"3.17","rev":"3.17","proto_major":3,"proto_minor":12}
2017-11-15 19:28:49 1510792129.864745: {"class":"DEVICES","devices":[{"class":"DEVICE","path":"/dev/ttyUSB0","driver":"SiRF","subtype":"9\u0006GSD4e_4.1.2-P1_RPATCH.05-F-GPS-4R-1510281 11/03/2015 307","activated":"2017-11-16T00:28:49.487Z","flags":1,"native":1,"bps":4800,"parity":"N","stopbits":1,"cycle":1.00}]}
2017-11-15 19:28:49 1510792129.864858: {"class":"WATCH","enable":true,"json":false,"nmea":true,"raw":0,"scaled":false,"timing":false,"split24":false,"pps":false}
2017-11-15 19:28:50 1510792130.345488: $GPZDA,002849.00,16,11,2017,00,00*62
2017-11-15 19:28:50 1510792130.345682: $GPGGA,002849,3946.9569,N,08404.9475,W,1,08,1.40,276.59,M,-33.324,M,,*71
2017-11-15 19:28:50 1510792130.345765: $GPRMC,002849,A,3946.9569,N,08404.9475,W,0.4207,39.347,161117,,*0E
2017-11-15 19:28:50 1510792130.345822: $GPGSA,A,3,32,31,16,26,3,14,23,22,,,,,3.4,1.4,2.9*0C
2017-11-15 19:28:51 1510792131.664241: $GPGSV,3,1,12,32,37,106,19,31,68,022,18,16,21,190,15,26,52,172,22*78
2017-11-15 19:28:51 1510792131.664416: $GPGSV,3,2,12,25,18,040,00,29,10,072,00,03,39,300,17,14,56,091,20*7E
2017-11-15 19:28:51 1510792131.664475: $GPGSV,3,3,12,23,10,300,12,01,06,253,00,22,50,273,14,120,07,103,00*49
2017-11-15 19:28:51 1510792131.777955: $GPZDA,002850.00,16,11,2017,00,00*6A
2017-11-15 19:28:51 1510792131.778140: $GPGGA,002850,3946.9569,N,08404.9475,W,1,08,1.40,276.59,M,-33.324,M,,*79
2017-11-15 19:28:51 1510792131.778228: $GPRMC,002850,A,3946.9569,N,08404.9475,W,0.3423,184.197,161117,,*39
2017-11-15 19:28:51 1510792131.778314: $GPGSA,A,3,32,31,16,26,3,14,23,22,,,,,3.4,1.4,2.9*0C
2017-11-15 19:28:52 1510792132.329695: $GPZDA,002851.00,16,11,2017,00,00*6B
2017-11-15 19:28:52 1510792132.329861: $GPGGA,002851,3946.9566,N,08404.9483,W,1,08,1.40,277.28,M,-33.324,M,,*79
2017-11-15 19:28:52 1510792132.329922: $GPRMC,002851,A,3946.9566,N,08404.9483,W,0.8414,219.347,161117,,*39
2017-11-15 19:28:52 1510792132.329978: $GPGSA,A,3,32,31,16,26,3,14,23,22,,,,,3.4,1.4,2.9*0C
2017-11-15 19:28:53 1510792133.345572: $GPZDA,002852.00,16,11,2017,00,00*68
2017-11-15 19:28:53 1510792133.345740: $GPGGA,002852,3946.9562,N,08404.9483,W,1,08,1.40,276.64,M,-33.324,M,,*77
2017-11-15 19:28:53 1510792133.345800: $GPRMC,002852,A,3946.9562,N,08404.9483,W,1.2361,194.852,161117,,*39
2017-11-15 19:28:53 1510792133.345857: $GPGSA,A,3,32,31,16,26,3,14,23,22,,,,,3.4,1.4,2.9*0C
2017-11-15 19:28:54 1510792134.681357: $GPGSV,3,1,12,32,37,106,19,31,68,022,18,16,21,190,16,26,52,172,22*7B
2017-11-15 19:28:54 1510792134.681530: $GPGSV,3,2,12,25,18,040,00,29,10,072,00,03,39,300,17,14,56,091,20*7E
2017-11-15 19:28:54 1510792134.681590: $GPGSV,3,3,12,23,10,300,12,01,06,253,00,22,50,273,11,120,07,103,00*4C
2017-11-15 19:28:54 1510792134.794662: $GPZDA,002853.00,16,11,2017,00,00*69
2017-11-15 19:28:54 1510792134.794819: $GPGGA,002853,3946.9554,N,08404.9483,W,1,08,1.40,276.76,M,-33.324,M,,*70
2017-11-15 19:28:54 1510792134.794879: $GPRMC,002853,A,3946.9554,N,08404.9483,W,2.0320,204.738,161117,,*30
2017-11-15 19:28:54 1510792134.794935: $GPGSA,A,3,32,31,16,26,3,14,23,22,,,,,3.4,1.4,2.9*0C
2017-11-15 19:28:55 1510792135.345837: $GPZDA,002854.00,16,11,2017,00,00*6E
2017-11-15 19:28:55 1510792135.346024: $GPGGA,002854,3946.9555,N,08404.9490,W,1,08,1.40,276.68,M,-33.324,M,,*7B
2017-11-15 19:28:56 1510792136.005957: $GPRMC,002854,A,3946.9555,N,08404.9490,W,1.9726,213.613,161117,,*32
2017-11-15 19:28:56 1510792136.006141: $GPGSA,A,3,32,31,16,26,3,14,23,22,,,,,3.4,1.4,2.9*0C
2017-11-15 19:28:56 1510792136.328753: $GPZDA,002855.00,16,11,2017,00,00*6F
2017-11-15 19:28:56 1510792136.328913: $GPGGA,002855,3946.9547,N,08404.9491,W,1,08,1.40,276.81,M,-33.324,M,,*7F
2017-11-15 19:28:56 1510792136.328972: $GPRMC,002855,A,3946.9547,N,08404.9491,W,1.4167,227.342,161117,,*39
2017-11-15 19:28:56 1510792136.329029: $GPGSA,A,3,32,31,16,26,3,14,23,22,,,,,3.4,1.4,2.9*0C
2017-11-15 19:28:57 1510792137.681692: $GPGSV,3,1,12,32,37,106,19,31,68,022,18,16,21,190,16,26,52,172,23*7A
2017-11-15 19:28:57 1510792137.681915: $GPGSV,3,2,12,25,18,040,00,29,10,072,00,03,39,300,16,14,56,091,20*7F
2017-11-15 19:28:57 1510792137.681996: $GPGSV,3,3,12,23,10,300,12,01,06,253,00,22,50,273,12,120,07,103,00*4F
2017-11-15 19:28:57 1510792137.795352: $GPZDA,002856.00,16,11,2017,00,00*6C
2017-11-15 19:28:57 1510792137.795522: $GPGGA,002856,3946.9544,N,08404.9492,W,1,08,1.40,277.57,M,-33.324,M,,*76
2017-11-15 19:28:57 1510792137.795583: $GPRMC,002856,A,3946.9544,N,08404.9492,W,1.2867,206.972,161117,,*3F
2017-11-15 19:28:57 1510792137.795661: $GPGSA,A,3,32,31,16,26,3,14,23,22,,,,,3.4,1.4,2.9*0C
2017-11-15 19:28:58 1510792138.328448: $GPZDA,002857.00,16,11,2017,00,00*6D
2017-11-15 19:28:58 1510792138.328646: $GPGGA,002857,3946.9540,N,08404.9499,W,1,08,1.40,276.85,M,-33.324,M,,*76
2017-11-15 19:28:58 1510792138.328714: $GPRMC,002857,A,3946.9540,N,08404.9499,W,1.4555,203.636,161117,,*31
2017-11-15 19:28:58 1510792138.328777: $GPGSA,A,3,32,31,16,26,3,14,23,22,,,,,3.4,1.4,2.9*0C
2017-11-15 19:28:59 1510792139.345779: $GPZDA,002858.00,16,11,2017,00,00*62
2017-11-15 19:28:59 1510792139.345938: $GPGGA,002858,3946.9536,N,08404.9500,W,1,08,1.40,277.62,M,-33.324,M,,*71
2017-11-15 19:28:59 1510792139.346015: $GPRMC,002858,A,3946.9536,N,08404.9500,W,1.1385,209.379,161117,,*34
2017-11-15 19:28:59 1510792139.346073: $GPGSA,A,3,32,31,16,26,3,14,23,22,,,,,3.4,1.4,2.9*0C
