2017-11-16 16:49:19 1510868959.153598: {"class":"VERSION","release":"3.17","rev":"3.17","proto_major":3,"proto_minor":12}
2017-11-16 16:49:19 1510868959.154040: {"class":"DEVICES","devices":[{"class":"DEVICE","path":"/dev/ttyUSB0","driver":"SiRF","subtype":"9\u0006GSD4e_4.1.2-P1_RPATCH.05-F-GPS-4R-1510281 11/03/2015 307","activated":"2017-11-16T21:49:18.587Z","flags":1,"native":1,"bps":4800,"parity":"N","stopbits":1,"cycle":1.00}]}
2017-11-16 16:49:19 1510868959.154157: {"class":"WATCH","enable":true,"json":false,"nmea":true,"raw":0,"scaled":false,"timing":false,"split24":false,"pps":false}
2017-11-16 16:49:19 1510868959.448371: $GPZDA,214918.00,16,11,2017,00,00*62
2017-11-16 16:49:19 1510868959.448530: $GPGGA,214918,3946.9580,N,08404.9822,W,2,12,0.80,306.94,M,-33.324,M,,*7A
2017-11-16 16:49:19 1510868959.448591: $GPRMC,214918,A,3946.9580,N,08404.9822,W,0.0000,0.000,161117,,*3C
2017-11-16 16:49:19 1510868959.448647: $GPGSA,A,3,1,10,11,12,14,18,24,25,31,32,22,138,1.6,0.8,1.3*38
2017-11-16 16:49:20 1510868960.800129: $GPGSV,3,1,12,01,14,318,40,10,68,133,49,11,11,300,20,12,25,070,47*70
2017-11-16 16:49:20 1510868960.800304: $GPGSV,3,2,12,14,56,294,45,18,36,136,43,24,13,045,41,25,30,112,43*7D
2017-11-16 16:49:20 1510868960.800364: $GPGSV,3,3,12,31,35,213,45,32,68,331,51,22,03,310,26,138,38,213,44*41
2017-11-16 16:49:20 1510868960.913655: $GPZDA,214919.00,16,11,2017,00,00*63
2017-11-16 16:49:20 1510868960.913815: $GPGGA,214919,3946.9580,N,08404.9822,W,2,12,0.80,306.94,M,-33.324,M,,*7B
2017-11-16 16:49:20 1510868960.913876: $GPRMC,214919,A,3946.9580,N,08404.9822,W,0.0000,0.000,161117,,*3D
2017-11-16 16:49:20 1510868960.913933: $GPGSA,A,3,1,10,11,12,14,18,24,25,31,32,22,138,1.6,0.8,1.3*38
2017-11-16 16:49:21 1510868961.538966: $GPZDA,214920.00,16,11,2017,00,00*69
2017-11-16 16:49:21 1510868961.539122: $GPGGA,214920,3946.9580,N,08404.9822,W,2,12,0.80,306.94,M,-33.324,M,,*71
2017-11-16 16:49:21 1510868961.539185: $GPRMC,214920,A,3946.9580,N,08404.9822,W,0.0000,0.000,161117,,*37
2017-11-16 16:49:21 1510868961.539242: $GPGSA,A,3,1,10,11,12,14,18,24,25,31,32,22,138,1.6,0.8,1.3*38
2017-11-16 16:49:22 1510868962.446044: $GPZDA,214921.00,16,11,2017,00,00*68
2017-11-16 16:49:22 1510868962.446228: $GPGGA,214921,3946.9584,N,08404.9822,W,2,12,0.80,307.58,M,-33.324,M,,*75
2017-11-16 16:49:22 1510868962.446290: $GPRMC,214921,A,3946.9584,N,08404.9822,W,0.0000,0.000,161117,,*32
2017-11-16 16:49:22 1510868962.446347: $GPGSA,A,3,1,10,11,12,14,18,24,25,31,32,22,138,1.6,0.8,1.3*38
2017-11-16 16:49:23 1510868963.782790: $GPGSV,3,1,12,01,14,318,40,10,68,133,49,11,11,300,22,12,25,070,47*72
2017-11-16 16:49:23 1510868963.782961: $GPGSV,3,2,12,14,56,294,45,18,36,136,43,24,13,045,41,25,30,112,43*7D
2017-11-16 16:49:23 1510868963.783022: $GPGSV,3,3,12,31,35,213,45,32,68,331,51,22,03,310,25,138,38,213,44*42
2017-11-16 16:49:23 1510868963.896510: $GPZDA,214922.00,16,11,2017,00,00*6B
2017-11-16 16:49:23 1510868963.896642: $GPGGA,214922,3946.9584,N,08404.9822,W,2,12,0.80,307.58,M,-33.324,M,,*76
2017-11-16 16:49:23 1510868963.896705: $GPRMC,214922,A,3946.9584,N,08404.9822,W,0.0000,0.000,161117,,*31
2017-11-16 16:49:23 1510868963.896761: $GPGSA,A,3,1,10,11,12,14,18,24,25,31,32,22,138,1.6,0.8,1.3*38
2017-11-16 16:49:24 1510868964.464802: $GPZDA,214923.00,16,11,2017,00,00*6A
2017-11-16 16:49:24 1510868964.464975: $GPGGA,214923,3946.9584,N,08404.9822,W,2,12,0.80,307.58,M,-33.324,M,,*77
2017-11-16 16:49:24 1510868964.465122: $GPRMC,214923,A,3946.9584,N,08404.9822,W,0.0000,0.000,161117,,*30
2017-11-16 16:49:24 1510868964.465229: $GPGSA,A,3,1,10,11,12,14,18,24,25,31,32,22,138,1.6,0.8,1.3*38
2017-11-16 16:49:25 1510868965.446944: $GPZDA,214924.00,16,11,2017,00,00*6D
2017-11-16 16:49:25 1510868965.447108: $GPGGA,214924,3946.9584,N,08404.9822,W,2,12,0.80,307.58,M,-33.324,M,,*70
2017-11-16 16:49:25 1510868965.447173: $GPRMC,214924,A,3946.9584,N,08404.9822,W,0.0000,0.000,161117,,*37
2017-11-16 16:49:25 1510868965.447229: $GPGSA,A,3,1,10,11,12,14,18,24,25,31,32,22,138,1.6,0.8,1.3*38
2017-11-16 16:49:26 1510868966.782153: $GPGSV,3,1,12,01,14,318,41,10,68,133,49,11,11,300,23,12,25,070,47*72
2017-11-16 16:49:26 1510868966.782361: $GPGSV,3,2,12,14,56,294,45,18,36,136,43,24,13,045,41,25,30,112,43*7D
2017-11-16 16:49:26 1510868966.782423: $GPGSV,3,3,12,31,35,213,45,32,68,331,51,22,03,310,17,138,38,213,44*43
2017-11-16 16:49:26 1510868966.895124: $GPZDA,214925.00,16,11,2017,00,00*6C
2017-11-16 16:49:26 1510868966.895300: $GPGGA,214925,3946.9584,N,08404.9822,W,2,12,0.80,307.58,M,-33.324,M,,*71
2017-11-16 16:49:26 1510868966.895364: $GPRMC,214925,A,3946.9584,N,08404.9822,W,0.0000,0.000,161117,,*36
2017-11-16 16:49:26 1510868966.895421: $GPGSA,A,3,1,10,11,12,14,18,24,25,31,32,22,138,1.6,0.8,1.3*38
2017-11-16 16:49:27 1510868967.457224: $GPZDA,214926.00,16,11,2017,00,00*6F
2017-11-16 16:49:27 1510868967.457391: $GPGGA,214926,3946.9584,N,08404.9822,W,2,12,0.80,307.58,M,-33.324,M,,*72
2017-11-16 16:49:27 1510868967.457452: $GPRMC,214926,A,3946.9584,N,08404.9822,W,0.0000,0.000,161117,,*35
2017-11-16 16:49:27 1510868967.457507: $GPGSA,A,3,1,10,11,12,14,18,24,25,31,32,22,138,1.6,0.8,1.3*38
2017-11-16 16:49:28 1510868968.463067: $GPZDA,214927.00,16,11,2017,00,00*6E
2017-11-16 16:49:28 1510868968.463234: $GPGGA,214927,3946.9584,N,08404.9822,W,2,12,0.80,307.58,M,-33.324,M,,*73
2017-11-16 16:49:28 1510868968.463296: $GPRMC,214927,A,3946.9584,N,08404.9822,W,0.0000,0.000,161117,,*34
2017-11-16 16:49:28 1510868968.463352: $GPGSA,A,3,1,10,11,12,14,18,24,25,31,32,22,138,1.6,0.8,1.3*38
