2017-12-01 13:13:48 1512152028.056967: {"class":"VERSION","release":"3.16","rev":"3.16-4","proto_major":3,"proto_minor":11}
2017-12-01 13:13:48 1512152028.057366: {"class":"DEVICES","devices":[{"class":"DEVICE","path":"/dev/ttyUSB0","driver":"SiRF","subtype":"9\u0006GSD4e_4.1.2-P1_RPATCH.05-F-GPS-4R-1510281 11/03/2015 307","activated":"2017-12-01T18:13:47.986Z","flags":1,"native":1,"bps":4800,"parity":"N","stopbits":1,"cycle":1.00}]}
2017-12-01 13:13:48 1512152028.057487: {"class":"WATCH","enable":true,"json":false,"nmea":true,"raw":0,"scaled":false,"timing":false,"split24":false,"pps":false}
2017-12-01 13:13:48 1512152028.446273: $GPZDA,181349.00,01,12,2017,00,00*66
2017-12-01 13:13:48 1512152028.446447: $GPGGA,181349,3946.9579,N,08404.9838,W,2,11,1.00,310.36,M,-33.324,M,,*73
2017-12-01 13:13:48 1512152028.446514: $GPRMC,181349,A,3946.9579,N,08404.9838,W,0.0000,0.000,011217,,*35
2017-12-01 13:13:48 1512152028.446575: $GPGSA,A,3,8,10,15,18,20,21,24,27,32,14,138,,2.0,1.0,1.5*3D
2017-12-01 13:13:49 1512152029.373027: $GPZDA,181350.00,01,12,2017,00,00*6E
2017-12-01 13:13:49 1512152029.373210: $GPGGA,181350,3946.9576,N,08404.9839,W,2,11,1.00,312.53,M,-33.324,M,,*74
2017-12-01 13:13:49 1512152029.373277: $GPRMC,181350,A,3946.9576,N,08404.9839,W,0.1567,9.200,011217,,*3D
2017-12-01 13:13:49 1512152029.373339: $GPGSA,A,3,8,10,15,18,20,21,24,27,32,14,138,,2.0,1.0,1.5*3D
2017-12-01 13:13:50 1512152030.707727: $GPGSV,3,1,12,08,06,321,36,10,42,301,45,15,36,052,47,18,72,339,43*70
2017-12-01 13:13:50 1512152030.707895: $GPGSV,3,2,12,20,33,096,47,21,62,189,45,24,51,108,46,27,19,288,38*7E
2017-12-01 13:13:50 1512152030.707960: $GPGSV,3,3,12,32,22,238,40,14,05,232,09,13,07,049,00,138,38,213,46*47
2017-12-01 13:13:50 1512152030.820886: $GPZDA,181351.00,01,12,2017,00,00*6F
2017-12-01 13:13:50 1512152030.821065: $GPGGA,181351,3946.9576,N,08404.9839,W,2,11,1.00,312.53,M,-33.324,M,,*75
2017-12-01 13:13:50 1512152030.821133: $GPRMC,181351,A,3946.9576,N,08404.9839,W,0.0000,0.000,011217,,*32
2017-12-01 13:13:50 1512152030.821194: $GPGSA,A,3,8,10,15,18,20,21,24,27,32,14,138,,2.0,1.0,1.5*3D
2017-12-01 13:13:51 1512152031.375500: $GPZDA,181352.00,01,12,2017,00,00*6C
2017-12-01 13:13:51 1512152031.375673: $GPGGA,181352,3946.9576,N,08404.9839,W,2,11,1.00,312.53,M,-33.324,M,,*76
2017-12-01 13:13:51 1512152031.375740: $GPRMC,181352,A,3946.9576,N,08404.9839,W,0.0000,0.000,011217,,*31
2017-12-01 13:13:51 1512152031.375801: $GPGSA,A,3,8,10,15,18,20,21,24,27,32,14,138,,2.0,1.0,1.5*3D
2017-12-01 13:13:52 1512152032.371419: $GPZDA,181353.00,01,12,2017,00,00*6D
2017-12-01 13:13:52 1512152032.371595: $GPGGA,181353,3946.9576,N,08404.9839,W,2,11,0.80,312.53,M,-33.324,M,,*7E
2017-12-01 13:13:52 1512152032.371664: $GPRMC,181353,A,3946.9576,N,08404.9839,W,0.0000,0.000,011217,,*30
2017-12-01 13:13:52 1512152032.371726: $GPGSA,A,3,8,10,15,18,20,21,24,27,32,14,138,,2.0,0.8,1.5*34
2017-12-01 13:13:52 1512152032.371785: $GPGBS,181353,2.67,M,3.86,M,8.82,M*3F
2017-12-01 13:13:53 1512152033.706493: $GPGSV,3,1,12,08,06,321,36,10,42,301,45,15,36,052,46,18,72,339,44*76
2017-12-01 13:13:53 1512152033.706670: $GPGSV,3,2,12,20,33,096,46,21,62,189,44,24,51,108,46,27,19,288,38*7E
2017-12-01 13:13:53 1512152033.706735: $GPGSV,3,3,12,32,22,238,39,14,05,232,09,13,07,049,21,138,38,213,46*4A
2017-12-01 13:13:53 1512152033.820117: $GPZDA,181354.00,01,12,2017,00,00*6A
2017-12-01 13:13:53 1512152033.820270: $GPGGA,181354,3946.9576,N,08404.9839,W,2,12,0.80,312.53,M,-33.324,M,,*7A
2017-12-01 13:13:53 1512152033.820336: $GPRMC,181354,A,3946.9576,N,08404.9839,W,0.0000,0.000,011217,,*37
2017-12-01 13:13:53 1512152033.820396: $GPGSA,A,3,8,10,15,18,20,21,24,27,32,14,13,138,2.0,0.8,1.5*36
2017-12-01 13:13:54 1512152034.372117: $GPZDA,181355.00,01,12,2017,00,00*6B
2017-12-01 13:13:54 1512152034.372288: $GPGGA,181355,3946.9576,N,08404.9839,W,2,12,1.00,312.53,M,-33.324,M,,*72
2017-12-01 13:13:54 1512152034.372357: $GPRMC,181355,A,3946.9576,N,08404.9839,W,0.0000,0.000,011217,,*36
2017-12-01 13:13:54 1512152034.372417: $GPGSA,A,3,8,10,15,18,20,21,24,27,32,14,13,138,2.0,1.0,1.5*3F
2017-12-01 13:13:55 1512152035.372861: $GPZDA,181356.00,01,12,2017,00,00*68
2017-12-01 13:13:55 1512152035.373040: $GPGGA,181356,3946.9576,N,08404.9839,W,2,12,1.00,312.53,M,-33.324,M,,*71
2017-12-01 13:13:55 1512152035.373110: $GPRMC,181356,A,3946.9576,N,08404.9839,W,0.0000,0.000,011217,,*35
2017-12-01 13:13:55 1512152035.373172: $GPGSA,A,3,8,10,15,18,20,21,24,27,32,14,13,138,2.0,1.0,1.5*3F
2017-12-01 13:13:56 1512152036.706154: $GPGSV,3,1,12,08,06,321,36,10,42,301,45,15,36,052,46,18,72,339,44*76
2017-12-01 13:13:56 1512152036.706336: $GPGSV,3,2,12,20,33,096,47,21,62,189,44,24,51,108,47,27,19,288,38*7E
2017-12-01 13:13:56 1512152036.706403: $GPGSV,3,3,12,32,22,238,39,14,05,232,10,13,07,049,00,138,38,213,47*40
2017-12-01 13:13:56 1512152036.819562: $GPZDA,181357.00,01,12,2017,00,00*69
2017-12-01 13:13:56 1512152036.819717: $GPGGA,181357,3946.9576,N,08404.9839,W,2,11,1.00,312.53,M,-33.324,M,,*73
2017-12-01 13:13:56 1512152036.819781: $GPRMC,181357,A,3946.9576,N,08404.9839,W,0.0000,0.000,011217,,*34
2017-12-01 13:13:56 1512152036.819842: $GPGSA,A,3,8,10,15,18,20,21,24,27,32,14,138,,2.0,1.0,1.5*3D
2017-12-01 13:13:57 1512152037.371657: $GPZDA,181358.00,01,12,2017,00,00*66
2017-12-01 13:13:57 1512152037.371829: $GPGGA,181358,3946.9576,N,08404.9839,W,2,11,1.00,312.53,M,-33.324,M,,*7C
2017-12-01 13:13:57 1512152037.371898: $GPRMC,181358,A,3946.9576,N,08404.9839,W,0.0000,0.000,011217,,*3B
2017-12-01 13:13:57 1512152037.371960: $GPGSA,A,3,8,10,15,18,20,21,24,27,32,14,138,,2.0,1.0,1.5*3D
