2017-12-29 10:53:18 1514562798.497939: {"class":"VERSION","release":"3.16","rev":"3.16-4","proto_major":3,"proto_minor":11}
2017-12-29 10:53:18 1514562798.498312: {"class":"DEVICES","devices":[{"class":"DEVICE","path":"/dev/ttyUSB0","driver":"SiRF","subtype":"9\u0006GSD4e_4.1.2-P1_RPATCH.05-F-GPS-4R-1510281 11/03/2015 307","activated":"2017-12-29T15:53:18.481Z","flags":1,"native":1,"bps":4800,"parity":"N","stopbits":1,"cycle":1.00}]}
2017-12-29 10:53:18 1514562798.498426: {"class":"WATCH","enable":true,"json":false,"nmea":true,"raw":0,"scaled":false,"timing":false,"split24":false,"pps":false}
2017-12-29 10:53:19 1514562799.375226: $GPZDA,155320.00,29,12,2017,00,00*6A
2017-12-29 10:53:19 1514562799.375390: $GPGGA,155320,3946.9588,N,08404.9818,W,2,11,0.80,300.44,M,-33.324,M,,*74
2017-12-29 10:53:19 1514562799.375457: $GPRMC,155320,A,3946.9588,N,08404.9818,W,0.0000,0.000,291217,,*35
2017-12-29 10:53:19 1514562799.375536: $GPGSA,A,3,10,13,15,18,20,21,24,27,32,8,138,,1.7,0.8,1.3*31
2017-12-29 10:53:20 1514562800.699452: $GPGSV,3,1,11,10,33,294,42,13,16,046,43,15,47,049,50,18,64,318,44*7D
2017-12-29 10:53:20 1514562800.699630: $GPGSV,3,2,11,20,42,085,50,21,74,205,47,24,44,124,50,27,19,300,31*78
2017-12-29 10:53:20 1514562800.699713: $GPGSV,3,3,11,32,13,232,32,08,01,330,00,138,38,213,44*70
2017-12-29 10:53:20 1514562800.811602: $GPZDA,155321.00,29,12,2017,00,00*6B
2017-12-29 10:53:20 1514562800.811765: $GPGGA,155321,3946.9588,N,08404.9818,W,2,10,0.80,300.44,M,-33.324,M,,*74
2017-12-29 10:53:20 1514562800.811831: $GPRMC,155321,A,3946.9588,N,08404.9818,W,0.0000,0.000,291217,,*34
2017-12-29 10:53:20 1514562800.811891: $GPGSA,A,3,10,13,15,18,20,21,24,27,32,138,,,1.7,0.8,1.3*09
2017-12-29 10:53:21 1514562801.362448: $GPZDA,155322.00,29,12,2017,00,00*68
2017-12-29 10:53:21 1514562801.362631: $GPGGA,155322,3946.9588,N,08404.9818,W,2,10,0.80,300.44,M,-33.324,M,,*77
2017-12-29 10:53:21 1514562801.362716: $GPRMC,155322,A,3946.9588,N,08404.9818,W,0.0000,0.000,291217,,*37
2017-12-29 10:53:21 1514562801.362779: $GPGSA,A,3,10,13,15,18,20,21,24,27,32,138,,,1.7,0.8,1.3*09
2017-12-29 10:53:22 1514562802.362112: $GPZDA,155323.00,29,12,2017,00,00*69
2017-12-29 10:53:22 1514562802.362268: $GPGGA,155323,3946.9588,N,08404.9818,W,2,10,0.80,300.44,M,-33.324,M,,*76
2017-12-29 10:53:22 1514562802.362335: $GPRMC,155323,A,3946.9588,N,08404.9818,W,0.0000,0.000,291217,,*36
2017-12-29 10:53:22 1514562802.362396: $GPGSA,A,3,10,13,15,18,20,21,24,27,32,138,,,1.7,0.8,1.3*09
2017-12-29 10:53:23 1514562803.699059: $GPGSV,3,1,11,10,33,294,42,13,16,046,43,15,47,049,50,18,64,318,44*7D
2017-12-29 10:53:23 1514562803.699231: $GPGSV,3,2,11,20,42,085,50,21,74,205,47,24,44,124,50,27,19,300,31*78
2017-12-29 10:53:23 1514562803.699296: $GPGSV,3,3,11,32,13,232,32,08,01,330,00,138,38,213,44*70
2017-12-29 10:53:23 1514562803.812435: $GPZDA,155324.00,29,12,2017,00,00*6E
2017-12-29 10:53:23 1514562803.812584: $GPGGA,155324,3946.9593,N,08404.9818,W,2,10,0.80,301.08,M,-33.324,M,,*72
2017-12-29 10:53:23 1514562803.812676: $GPRMC,155324,A,3946.9593,N,08404.9818,W,0.0000,0.000,291217,,*3B
2017-12-29 10:53:23 1514562803.812738: $GPGSA,A,3,10,13,15,18,20,21,24,27,32,138,,,1.7,0.8,1.3*09
2017-12-29 10:53:24 1514562804.437783: $GPZDA,155325.00,29,12,2017,00,00*6F
2017-12-29 10:53:24 1514562804.437922: $GPGGA,155325,3946.9593,N,08404.9818,W,2,10,0.80,301.08,M,-33.324,M,,*73
2017-12-29 10:53:24 1514562804.437988: $GPRMC,155325,A,3946.9593,N,08404.9818,W,0.0000,0.000,291217,,*3A
2017-12-29 10:53:24 1514562804.438048: $GPGSA,A,3,10,13,15,18,20,21,24,27,32,138,,,1.7,0.8,1.3*09
2017-12-29 10:53:25 1514562805.363697: $GPZDA,155326.00,29,12,2017,00,00*6C
2017-12-29 10:53:25 1514562805.363859: $GPGGA,155326,3946.9593,N,08404.9818,W,2,10,0.80,301.08,M,-33.324,M,,*70
2017-12-29 10:53:25 1514562805.363925: $GPRMC,155326,A,3946.9593,N,08404.9818,W,0.0000,0.000,291217,,*39
2017-12-29 10:53:25 1514562805.363986: $GPGSA,A,3,10,13,15,18,20,21,24,27,32,138,,,1.7,0.8,1.3*09
2017-12-29 10:53:26 1514562806.696911: $GPGSV,3,1,11,10,33,294,42,13,16,046,43,15,47,049,50,18,64,318,43*7A
2017-12-29 10:53:26 1514562806.697150: $GPGSV,3,2,11,20,42,085,50,21,74,205,47,24,44,124,50,27,19,300,32*7B
2017-12-29 10:53:26 1514562806.697218: $GPGSV,3,3,11,32,13,232,31,08,01,330,00,138,38,213,46*71
2017-12-29 10:53:26 1514562806.810259: $GPZDA,155327.00,29,12,2017,00,00*6D
2017-12-29 10:53:26 1514562806.810390: $GPGGA,155327,3946.9593,N,08404.9818,W,2,10,0.80,301.08,M,-33.324,M,,*71
2017-12-29 10:53:26 1514562806.810454: $GPRMC,155327,A,3946.9593,N,08404.9818,W,0.0000,0.000,291217,,*38
2017-12-29 10:53:26 1514562806.810535: $GPGSA,A,3,10,13,15,18,20,21,24,27,32,138,,,1.7,0.8,1.3*09
2017-12-29 10:53:27 1514562807.361195: $GPZDA,155328.00,29,12,2017,00,00*62
2017-12-29 10:53:27 1514562807.361368: $GPGGA,155328,3946.9593,N,08404.9818,W,2,10,0.80,301.08,M,-33.324,M,,*7E
2017-12-29 10:53:27 1514562807.361435: $GPRMC,155328,A,3946.9593,N,08404.9818,W,0.0000,0.000,291217,,*37
2017-12-29 10:53:27 1514562807.361514: $GPGSA,A,3,10,13,15,18,20,21,24,27,32,138,,,1.7,0.8,1.3*09
2017-12-29 10:53:28 1514562808.363292: $GPZDA,155329.00,29,12,2017,00,00*63
2017-12-29 10:53:28 1514562808.363452: $GPGGA,155329,3946.9593,N,08404.9818,W,2,10,0.80,301.08,M,-33.324,M,,*7F
2017-12-29 10:53:28 1514562808.363541: $GPRMC,155329,A,3946.9593,N,08404.9818,W,0.0000,0.000,291217,,*36
2017-12-29 10:53:28 1514562808.363603: $GPGSA,A,3,10,13,15,18,20,21,24,27,32,138,,,1.7,0.8,1.3*09
2017-12-29 10:53:29 1514562809.698524: $GPGSV,3,1,11,10,33,294,42,13,16,046,43,15,47,049,50,18,64,318,44*7D
2017-12-29 10:53:29 1514562809.698709: $GPGSV,3,2,11,20,42,085,51,21,74,205,47,24,44,124,50,27,19,300,32*7A
2017-12-29 10:53:29 1514562809.698775: $GPGSV,3,3,11,32,13,232,31,08,01,330,25,138,38,213,45*75
2017-12-29 10:53:29 1514562809.811984: $GPZDA,155330.00,29,12,2017,00,00*6B
2017-12-29 10:53:29 1514562809.812121: $GPGGA,155330,3946.9593,N,08404.9818,W,2,11,0.80,301.08,M,-33.324,M,,*76
2017-12-29 10:53:29 1514562809.812185: $GPRMC,155330,A,3946.9593,N,08404.9818,W,0.0000,0.000,291217,,*3E
2017-12-29 10:53:29 1514562809.812245: $GPGSA,A,3,10,13,15,18,20,21,24,27,32,8,138,,1.7,0.8,1.3*31
2017-12-29 10:53:30 1514562810.372799: $GPZDA,155331.00,29,12,2017,00,00*6A
2017-12-29 10:53:30 1514562810.372963: $GPGGA,155331,3946.9593,N,08404.9818,W,2,11,0.80,301.08,M,-33.324,M,,*77
2017-12-29 10:53:30 1514562810.373030: $GPRMC,155331,A,3946.9593,N,08404.9818,W,0.0000,0.000,291217,,*3F
2017-12-29 10:53:30 1514562810.373090: $GPGSA,A,3,10,13,15,18,20,21,24,27,32,8,138,,1.7,0.8,1.3*31
2017-12-29 10:53:31 1514562811.365168: $GPZDA,155332.00,29,12,2017,00,00*69
2017-12-29 10:53:31 1514562811.365324: $GPGGA,155332,3946.9593,N,08404.9818,W,2,11,0.80,301.08,M,-33.324,M,,*74
2017-12-29 10:53:31 1514562811.365390: $GPRMC,155332,A,3946.9593,N,08404.9818,W,0.0000,0.000,291217,,*3C
2017-12-29 10:53:31 1514562811.365451: $GPGSA,A,3,10,13,15,18,20,21,24,27,32,8,138,,1.7,0.8,1.3*31
2017-12-29 10:53:32 1514562812.735649: $GPGSV,3,1,11,10,33,294,43,13,16,046,43,15,47,049,50,18,64,318,44*7C
2017-12-29 10:53:32 1514562812.735822: $GPGSV,3,2,11,20,42,085,51,21,74,205,47,24,44,124,50,27,19,300,32*7A
2017-12-29 10:53:32 1514562812.735887: $GPGSV,3,3,11,32,13,232,31,08,01,330,27,138,38,213,44*76
2017-12-29 10:53:32 1514562812.849252: $GPZDA,155333.00,29,12,2017,00,00*68
2017-12-29 10:53:32 1514562812.849376: $GPGGA,155333,3946.9593,N,08404.9818,W,2,11,0.80,301.08,M,-33.324,M,,*75
2017-12-29 10:53:32 1514562812.849441: $GPRMC,155333,A,3946.9593,N,08404.9818,W,0.0000,0.000,291217,,*3D
2017-12-29 10:53:32 1514562812.849526: $GPGSA,A,3,10,13,15,18,20,21,24,27,32,8,138,,1.7,0.8,1.3*31
2017-12-29 10:53:33 1514562813.402653: $GPZDA,155334.00,29,12,2017,00,00*6F
2017-12-29 10:53:33 1514562813.402801: $GPGGA,155334,3946.9593,N,08404.9818,W,2,11,0.80,301.08,M,-33.324,M,,*72
2017-12-29 10:53:33 1514562813.402866: $GPRMC,155334,A,3946.9593,N,08404.9818,W,0.0000,0.000,291217,,*3A
2017-12-29 10:53:33 1514562813.402927: $GPGSA,A,3,10,13,15,18,20,21,24,27,32,8,138,,1.7,0.8,1.3*31
