2017-11-16 16:46:42 1510868802.452767: {"class":"VERSION","release":"3.17","rev":"3.17","proto_major":3,"proto_minor":12}
2017-11-16 16:46:42 1510868802.453174: {"class":"DEVICES","devices":[{"class":"DEVICE","path":"/dev/ttyUSB0","driver":"SiRF","subtype":"9\u0006GSD4e_4.1.2-P1_RPATCH.05-F-GPS-4R-1510281 11/03/2015 307","activated":"2017-11-16T21:46:42.348Z","flags":1,"native":1,"bps":4800,"parity":"N","stopbits":1,"cycle":1.00}]}
2017-11-16 16:46:42 1510868802.453294: {"class":"WATCH","enable":true,"json":false,"nmea":true,"raw":0,"scaled":false,"timing":false,"split24":false,"pps":false}
2017-11-16 16:46:42 1510868802.461623: $GPZDA,214641.00,16,11,2017,00,00*61
2017-11-16 16:46:42 1510868802.461789: $GPGGA,214641,3946.9580,N,08404.9815,W,2,12,0.80,307.02,M,-33.324,M,,*73
2017-11-16 16:46:42 1510868802.461853: $GPRMC,214641,A,3946.9580,N,08404.9815,W,0.0000,0.000,161117,,*3B
2017-11-16 16:46:42 1510868802.461910: $GPGSA,A,3,1,10,11,12,14,18,24,25,31,32,22,138,1.6,0.8,1.3*38
2017-11-16 16:46:43 1510868803.461280: $GPZDA,214642.00,16,11,2017,00,00*62
2017-11-16 16:46:43 1510868803.461456: $GPGGA,214642,3946.9580,N,08404.9815,W,2,12,0.80,307.02,M,-33.324,M,,*70
2017-11-16 16:46:43 1510868803.461520: $GPRMC,214642,A,3946.9580,N,08404.9815,W,0.0000,0.000,161117,,*38
2017-11-16 16:46:43 1510868803.461579: $GPGSA,A,3,1,10,11,12,14,18,24,25,31,32,22,138,1.6,0.8,1.3*38
2017-11-16 16:46:44 1510868804.790666: $GPGSV,3,1,12,01,14,318,40,10,70,132,49,11,11,301,35,12,25,072,47*7F
2017-11-16 16:46:44 1510868804.790826: $GPGSV,3,2,12,14,55,292,45,18,38,135,45,24,14,045,44,25,29,114,42*7E
2017-11-16 16:46:44 1510868804.790888: $GPGSV,3,3,12,31,34,211,46,32,68,328,51,22,02,310,36,138,38,213,45*48
2017-11-16 16:46:44 1510868804.903984: $GPZDA,214643.00,16,11,2017,00,00*63
2017-11-16 16:46:44 1510868804.904155: $GPGGA,214643,3946.9580,N,08404.9815,W,2,12,0.80,307.02,M,-33.324,M,,*71
2017-11-16 16:46:44 1510868804.904218: $GPRMC,214643,A,3946.9580,N,08404.9815,W,0.0000,0.000,161117,,*39
2017-11-16 16:46:44 1510868804.904278: $GPGSA,A,3,1,10,11,12,14,18,24,25,31,32,22,138,1.6,0.8,1.3*38
2017-11-16 16:46:45 1510868805.438613: $GPZDA,214644.00,16,11,2017,00,00*64
2017-11-16 16:46:45 1510868805.438792: $GPGGA,214644,3946.9580,N,08404.9815,W,2,12,0.80,307.02,M,-33.324,M,,*76
2017-11-16 16:46:45 1510868805.438855: $GPRMC,214644,A,3946.9580,N,08404.9815,W,0.0000,0.000,161117,,*3E
2017-11-16 16:46:45 1510868805.438912: $GPGSA,A,3,1,10,11,12,14,18,24,25,31,32,22,138,1.6,0.8,1.3*38
2017-11-16 16:46:46 1510868806.443984: $GPZDA,214645.00,16,11,2017,00,00*65
2017-11-16 16:46:46 1510868806.444153: $GPGGA,214645,3946.9580,N,08404.9815,W,2,12,0.80,307.02,M,-33.324,M,,*77
2017-11-16 16:46:46 1510868806.444213: $GPRMC,214645,A,3946.9580,N,08404.9815,W,0.0000,0.000,161117,,*3F
2017-11-16 16:46:46 1510868806.444273: $GPGSA,A,3,1,10,11,12,14,18,24,25,31,32,22,138,1.6,0.8,1.3*38
2017-11-16 16:46:47 1510868807.797384: $GPGSV,3,1,12,01,14,318,40,10,70,132,49,11,11,301,34,12,25,072,47*7E
2017-11-16 16:46:47 1510868807.797548: $GPGSV,3,2,12,14,55,292,45,18,38,135,45,24,14,045,44,25,29,114,42*7E
2017-11-16 16:46:47 1510868807.797609: $GPGSV,3,3,12,31,34,211,46,32,68,328,51,22,02,310,31,138,38,213,44*4E
2017-11-16 16:46:47 1510868807.910636: $GPZDA,214646.00,16,11,2017,00,00*66
2017-11-16 16:46:47 1510868807.910800: $GPGGA,214646,3946.9580,N,08404.9815,W,2,12,0.80,307.02,M,-33.324,M,,*74
2017-11-16 16:46:47 1510868807.910861: $GPRMC,214646,A,3946.9580,N,08404.9815,W,0.0000,0.000,161117,,*3C
2017-11-16 16:46:47 1510868807.910918: $GPGSA,A,3,1,10,11,12,14,18,24,25,31,32,22,138,1.6,0.8,1.3*38
2017-11-16 16:46:48 1510868808.446531: $GPZDA,214647.00,16,11,2017,00,00*67
2017-11-16 16:46:48 1510868808.446701: $GPGGA,214647,3946.9580,N,08404.9815,W,2,12,0.80,307.02,M,-33.324,M,,*75
2017-11-16 16:46:48 1510868808.446764: $GPRMC,214647,A,3946.9580,N,08404.9815,W,0.0000,0.000,161117,,*3D
2017-11-16 16:46:48 1510868808.446821: $GPGSA,A,3,1,10,11,12,14,18,24,25,31,32,22,138,1.6,0.8,1.3*38
2017-11-16 16:46:49 1510868809.443667: $GPZDA,214648.00,16,11,2017,00,00*68
2017-11-16 16:46:49 1510868809.443911: $GPGGA,214648,3946.9580,N,08404.9815,W,2,12,0.80,307.02,M,-33.324,M,,*7A
2017-11-16 16:46:49 1510868809.443977: $GPRMC,214648,A,3946.9580,N,08404.9815,W,0.0000,0.000,161117,,*32
2017-11-16 16:46:49 1510868809.444034: $GPGSA,A,3,1,10,11,12,14,18,24,25,31,32,22,138,1.6,0.8,1.3*38
2017-11-16 16:46:50 1510868810.780934: $GPGSV,3,1,12,01,14,318,40,10,70,132,49,11,11,301,28,12,25,072,46*72
2017-11-16 16:46:50 1510868810.781102: $GPGSV,3,2,12,14,55,292,45,18,38,135,45,24,14,045,44,25,29,114,42*7E
2017-11-16 16:46:50 1510868810.781163: $GPGSV,3,3,12,31,34,211,46,32,68,328,51,22,02,310,31,138,38,213,44*4E
2017-11-16 16:46:50 1510868810.894057: $GPZDA,214649.00,16,11,2017,00,00*69
2017-11-16 16:46:50 1510868810.894234: $GPGGA,214649,3946.9580,N,08404.9815,W,2,12,0.80,307.02,M,-33.324,M,,*7B
2017-11-16 16:46:50 1510868810.894298: $GPRMC,214649,A,3946.9580,N,08404.9815,W,0.0000,0.000,161117,,*33
2017-11-16 16:46:50 1510868810.894357: $GPGSA,A,3,1,10,11,12,14,18,24,25,31,32,22,138,1.6,0.8,1.3*38
2017-11-16 16:46:51 1510868811.519416: $GPZDA,214650.00,16,11,2017,00,00*61
2017-11-16 16:46:51 1510868811.519587: $GPGGA,214650,3946.9580,N,08404.9815,W,2,12,0.80,307.02,M,-33.324,M,,*73
2017-11-16 16:46:51 1510868811.519647: $GPRMC,214650,A,3946.9580,N,08404.9815,W,0.0000,0.000,161117,,*3B
2017-11-16 16:46:51 1510868811.519705: $GPGSA,A,3,1,10,11,12,14,18,24,25,31,32,22,138,1.6,0.8,1.3*38
2017-11-16 16:46:52 1510868812.439058: $GPZDA,214651.00,16,11,2017,00,00*60
2017-11-16 16:46:52 1510868812.439219: $GPGGA,214651,3946.9580,N,08404.9815,W,2,12,0.80,307.02,M,-33.324,M,,*72
2017-11-16 16:46:52 1510868812.439279: $GPRMC,214651,A,3946.9580,N,08404.9815,W,0.0000,0.000,161117,,*3A
2017-11-16 16:46:52 1510868812.439355: $GPGSA,A,3,1,10,11,12,14,18,24,25,31,32,22,138,1.6,0.8,1.3*38
