2017-11-16 15:36:56 1510864616.467064: {"class":"VERSION","release":"3.17","rev":"3.17","proto_major":3,"proto_minor":12}
2017-11-16 15:36:56 1510864616.467541: {"class":"DEVICES","devices":[{"class":"DEVICE","path":"/dev/ttyUSB0","driver":"SiRF","subtype":"9\u0006GSD4e_4.1.2-P1_RPATCH.05-F-GPS-4R-1510281 11/03/2015 307","activated":"2017-11-16T20:36:56.465Z","flags":1,"native":1,"bps":4800,"parity":"N","stopbits":1,"cycle":1.00}]}
2017-11-16 15:36:56 1510864616.467660: {"class":"WATCH","enable":true,"json":false,"nmea":true,"raw":0,"scaled":false,"timing":false,"split24":false,"pps":false}
2017-11-16 15:36:57 1510864617.375118: $GPZDA,203656.00,16,11,2017,00,00*61
2017-11-16 15:36:57 1510864617.375297: $GPGGA,203656,3946.9568,N,08404.9860,W,2,11,1.40,309.61,M,-33.324,M,,*72
2017-11-16 15:36:57 1510864617.375359: $GPRMC,203656,A,3946.9568,N,08404.9860,W,0.0000,0.000,161117,,*3F
2017-11-16 15:36:57 1510864617.375416: $GPGSA,A,3,8,10,14,18,20,21,24,27,32,12,138,,1.6,1.4,1.3*3D
2017-11-16 15:36:58 1510864618.700502: $GPGSV,3,1,12,08,04,288,35,10,74,340,51,14,33,258,46,31,04,204,39*73
2017-11-16 15:36:58 1510864618.700672: $GPGSV,3,2,12,18,66,105,48,20,04,121,20,21,23,178,44,24,41,054,50*77
2017-11-16 15:36:58 1510864618.700737: $GPGSV,3,3,12,27,03,255,28,32,50,271,47,12,13,102,34,138,38,213,45*42
2017-11-16 15:36:58 1510864618.813760: $GPZDA,203657.00,16,11,2017,00,00*60
2017-11-16 15:36:58 1510864618.813922: $GPGGA,203657,3946.9568,N,08404.9860,W,2,12,1.40,309.61,M,-33.324,M,,*70
2017-11-16 15:36:58 1510864618.813983: $GPRMC,203657,A,3946.9568,N,08404.9860,W,0.0000,0.000,161117,,*3E
2017-11-16 15:36:58 1510864618.814039: $GPGSA,A,3,8,10,14,31,18,20,21,24,27,32,12,138,1.6,1.4,1.3*3F
2017-11-16 15:36:59 1510864619.363262: $GPZDA,203658.00,16,11,2017,00,00*6F
2017-11-16 15:36:59 1510864619.363419: $GPGGA,203658,3946.9568,N,08404.9860,W,2,12,1.40,309.61,M,-33.324,M,,*7F
2017-11-16 15:36:59 1510864619.363479: $GPRMC,203658,A,3946.9568,N,08404.9860,W,0.0000,0.000,161117,,*31
2017-11-16 15:36:59 1510864619.363535: $GPGSA,A,3,8,10,14,31,18,20,21,24,27,32,12,138,1.6,1.4,1.3*3F
2017-11-16 15:37:00 1510864620.375443: $GPZDA,203659.00,16,11,2017,00,00*6E
2017-11-16 15:37:00 1510864620.375640: $GPGGA,203659,3946.9568,N,08404.9860,W,2,12,1.40,309.61,M,-33.324,M,,*7E
2017-11-16 15:37:00 1510864620.375720: $GPRMC,203659,A,3946.9568,N,08404.9860,W,0.0000,0.000,161117,,*30
2017-11-16 15:37:00 1510864620.375778: $GPGSA,A,3,8,10,14,31,18,20,21,24,27,32,12,138,1.6,1.4,1.3*3F
2017-11-16 15:37:01 1510864621.719508: $GPGSV,3,1,12,08,04,288,27,10,74,340,51,14,33,258,45,31,04,204,39*73
2017-11-16 15:37:01 1510864621.719698: $GPGSV,3,2,12,18,66,105,48,20,04,121,20,21,23,178,44,24,41,054,50*77
2017-11-16 15:37:01 1510864621.719760: $GPGSV,3,3,12,27,03,255,30,32,50,271,46,12,13,102,34,138,38,213,44*4B
2017-11-16 15:37:01 1510864621.832824: $GPZDA,203700.00,16,11,2017,00,00*63
2017-11-16 15:37:01 1510864621.832987: $GPGGA,203700,3946.9568,N,08404.9860,W,2,12,1.40,309.61,M,-33.324,M,,*73
2017-11-16 15:37:01 1510864621.833047: $GPRMC,203700,A,3946.9568,N,08404.9860,W,0.0000,0.000,161117,,*3D
2017-11-16 15:37:01 1510864621.833103: $GPGSA,A,3,8,10,14,31,18,20,21,24,27,32,12,138,1.6,1.4,1.3*3F
2017-11-16 15:37:02 1510864622.378666: $GPZDA,203701.00,16,11,2017,00,00*62
2017-11-16 15:37:02 1510864622.378854: $GPGGA,203701,3946.9568,N,08404.9860,W,2,12,1.40,309.61,M,-33.324,M,,*72
2017-11-16 15:37:02 1510864622.378915: $GPRMC,203701,A,3946.9568,N,08404.9860,W,0.0000,0.000,161117,,*3C
2017-11-16 15:37:02 1510864622.379008: $GPGSA,A,3,8,10,14,31,18,20,21,24,27,32,12,138,1.6,1.4,1.3*3F
2017-11-16 15:37:03 1510864623.387016: $GPZDA,203702.00,16,11,2017,00,00*61
2017-11-16 15:37:03 1510864623.387199: $GPGGA,203702,3946.9568,N,08404.9860,W,2,12,1.40,309.61,M,-33.324,M,,*71
2017-11-16 15:37:03 1510864623.387260: $GPRMC,203702,A,3946.9568,N,08404.9860,W,0.0000,0.000,161117,,*3F
2017-11-16 15:37:03 1510864623.387317: $GPGSA,A,3,8,10,14,31,18,20,21,24,27,32,12,138,1.6,1.4,1.3*3F
2017-11-16 15:37:04 1510864624.702739: $GPGSV,3,1,12,08,04,288,27,10,74,340,51,14,33,258,45,31,04,204,40*7D
2017-11-16 15:37:04 1510864624.702958: $GPGSV,3,2,12,18,66,105,48,20,04,121,21,21,23,178,44,24,41,054,50*76
2017-11-16 15:37:04 1510864624.703022: $GPGSV,3,3,12,27,03,255,30,32,50,271,46,12,13,102,33,138,38,213,44*4C
2017-11-16 15:37:04 1510864624.816076: $GPZDA,203703.00,16,11,2017,00,00*60
2017-11-16 15:37:04 1510864624.816219: $GPGGA,203703,3946.9568,N,08404.9860,W,2,12,1.40,309.61,M,-33.324,M,,*70
2017-11-16 15:37:04 1510864624.816282: $GPRMC,203703,A,3946.9568,N,08404.9860,W,0.0000,0.000,161117,,*3E
2017-11-16 15:37:04 1510864624.816338: $GPGSA,A,3,8,10,14,31,18,20,21,24,27,32,12,138,1.6,1.4,1.3*3F
2017-11-16 15:37:05 1510864625.364464: $GPZDA,203704.00,16,11,2017,00,00*67
2017-11-16 15:37:05 1510864625.364665: $GPGGA,203704,3946.9568,N,08404.9860,W,2,12,1.40,309.61,M,-33.324,M,,*77
2017-11-16 15:37:05 1510864625.364728: $GPRMC,203704,A,3946.9568,N,08404.9860,W,0.0000,0.000,161117,,*39
2017-11-16 15:37:05 1510864625.364785: $GPGSA,A,3,8,10,14,31,18,20,21,24,27,32,12,138,1.6,1.4,1.3*3F
2017-11-16 15:37:06 1510864626.366182: $GPZDA,203705.00,16,11,2017,00,00*66
2017-11-16 15:37:06 1510864626.366341: $GPGGA,203705,3946.9568,N,08404.9860,W,2,12,1.40,309.61,M,-33.324,M,,*76
2017-11-16 15:37:06 1510864626.366401: $GPRMC,203705,A,3946.9568,N,08404.9860,W,0.0000,0.000,161117,,*38
2017-11-16 15:37:06 1510864626.366457: $GPGSA,A,3,8,10,14,31,18,20,21,24,27,32,12,138,1.6,1.4,1.3*3F
