2017-11-16 17:21:58 1510870918.250709: {"class":"VERSION","release":"3.17","rev":"3.17","proto_major":3,"proto_minor":12}
2017-11-16 17:21:58 1510870918.251169: {"class":"DEVICES","devices":[{"class":"DEVICE","path":"/dev/ttyUSB0","driver":"SiRF","subtype":"9\u0006GSD4e_4.1.2-P1_RPATCH.05-F-GPS-4R-1510281 11/03/2015 307","activated":"2017-11-16T22:21:58.244Z","flags":1,"native":1,"bps":4800,"parity":"N","stopbits":1,"cycle":1.00}]}
2017-11-16 17:21:58 1510870918.251283: {"class":"WATCH","enable":true,"json":false,"nmea":true,"raw":0,"scaled":false,"timing":false,"split24":false,"pps":false}
2017-11-16 17:21:58 1510870918.421001: $GPZDA,222157.00,16,11,2017,00,00*64
2017-11-16 17:21:58 1510870918.421166: $GPGGA,222157,3946.9570,N,08404.9831,W,2,12,0.80,309.16,M,-33.324,M,,*74
2017-11-16 17:21:58 1510870918.421226: $GPRMC,222157,A,3946.9570,N,08404.9831,W,0.0000,0.000,161117,,*37
2017-11-16 17:21:58 1510870918.421282: $GPGSA,A,3,1,10,22,12,14,18,24,11,25,31,32,138,1.6,0.8,1.3*38
2017-11-16 17:21:59 1510870919.421920: $GPZDA,222158.00,16,11,2017,00,00*6B
2017-11-16 17:21:59 1510870919.422101: $GPGGA,222158,3946.9570,N,08404.9831,W,2,12,0.80,309.16,M,-33.324,M,,*7B
2017-11-16 17:21:59 1510870919.422162: $GPRMC,222158,A,3946.9570,N,08404.9831,W,0.0000,0.000,161117,,*38
2017-11-16 17:21:59 1510870919.422218: $GPGSA,A,3,1,10,22,12,14,18,24,11,25,31,32,138,1.6,0.8,1.3*38
2017-11-16 17:22:00 1510870920.758923: $GPGSV,3,1,12,01,20,304,31,10,53,145,50,22,15,312,40,12,23,054,50*7A
2017-11-16 17:22:00 1510870920.759098: $GPGSV,3,2,12,14,64,318,47,18,22,142,39,24,01,048,12,11,09,286,40*78
2017-11-16 17:22:00 1510870920.759159: $GPGSV,3,3,12,25,38,096,48,31,51,222,49,32,69,013,49,138,38,213,44*4C
2017-11-16 17:22:00 1510870920.872280: $GPZDA,222159.00,16,11,2017,00,00*6A
2017-11-16 17:22:00 1510870920.872457: $GPGGA,222159,3946.9570,N,08404.9831,W,2,12,0.80,309.16,M,-33.324,M,,*7A
2017-11-16 17:22:00 1510870920.872519: $GPRMC,222159,A,3946.9570,N,08404.9831,W,0.0000,0.000,161117,,*39
2017-11-16 17:22:00 1510870920.872591: $GPGSA,A,3,1,10,22,12,14,18,24,11,25,31,32,138,1.6,0.8,1.3*38
2017-11-16 17:22:01 1510870921.497602: $GPZDA,222200.00,16,11,2017,00,00*65
2017-11-16 17:22:01 1510870921.497761: $GPGGA,222200,3946.9570,N,08404.9831,W,2,12,0.80,309.16,M,-33.324,M,,*75
2017-11-16 17:22:01 1510870921.497821: $GPRMC,222200,A,3946.9570,N,08404.9831,W,0.0000,0.000,161117,,*36
2017-11-16 17:22:01 1510870921.497877: $GPGSA,A,3,1,10,22,12,14,18,24,11,25,31,32,138,1.6,0.8,1.3*38
2017-11-16 17:22:02 1510870922.422240: $GPZDA,222201.00,16,11,2017,00,00*64
2017-11-16 17:22:02 1510870922.422419: $GPGGA,222201,3946.9570,N,08404.9831,W,2,12,0.80,309.16,M,-33.324,M,,*74
2017-11-16 17:22:02 1510870922.422482: $GPRMC,222201,A,3946.9570,N,08404.9831,W,0.0000,0.000,161117,,*37
2017-11-16 17:22:02 1510870922.422556: $GPGSA,A,3,1,10,22,12,14,18,24,11,25,31,32,138,1.6,0.8,1.3*38
2017-11-16 17:22:03 1510870923.751768: $GPGSV,3,1,12,01,20,304,31,10,53,145,50,22,15,312,40,12,23,054,50*7A
2017-11-16 17:22:03 1510870923.751941: $GPGSV,3,2,12,14,64,318,47,18,22,142,38,24,01,048,11,11,09,286,40*7A
2017-11-16 17:22:03 1510870923.752003: $GPGSV,3,3,12,25,38,096,48,31,51,222,49,32,69,013,49,138,38,213,44*4C
2017-11-16 17:22:03 1510870923.865148: $GPZDA,222202.00,16,11,2017,00,00*67
2017-11-16 17:22:03 1510870923.865309: $GPGGA,222202,3946.9570,N,08404.9831,W,2,12,0.80,309.16,M,-33.324,M,,*77
2017-11-16 17:22:03 1510870923.865370: $GPRMC,222202,A,3946.9570,N,08404.9831,W,0.0000,0.000,161117,,*34
2017-11-16 17:22:03 1510870923.865446: $GPGSA,A,3,1,10,22,12,14,18,24,11,25,31,32,138,1.6,0.8,1.3*38
2017-11-16 17:22:04 1510870924.422188: $GPZDA,222203.00,16,11,2017,00,00*66
2017-11-16 17:22:04 1510870924.422348: $GPGGA,222203,3946.9570,N,08404.9831,W,2,12,0.80,309.16,M,-33.324,M,,*76
2017-11-16 17:22:04 1510870924.422427: $GPRMC,222203,A,3946.9570,N,08404.9831,W,0.0000,0.000,161117,,*35
2017-11-16 17:22:04 1510870924.422483: $GPGSA,A,3,1,10,22,12,14,18,24,11,25,31,32,138,1.6,0.8,1.3*38
2017-11-16 17:22:05 1510870925.403495: $GPZDA,222204.00,16,11,2017,00,00*61
2017-11-16 17:22:05 1510870925.403784: $GPGGA,222204,3946.9570,N,08404.9831,W,2,12,0.80,309.16,M,-33.324,M,,*71
2017-11-16 17:22:05 1510870925.403852: $GPRMC,222204,A,3946.9570,N,08404.9831,W,0.0000,0.000,161117,,*32
2017-11-16 17:22:05 1510870925.403908: $GPGSA,A,3,1,10,22,12,14,18,24,11,25,31,32,138,1.6,0.8,1.3*38
2017-11-16 17:22:06 1510870926.738389: $GPGSV,3,1,12,01,20,304,31,10,53,145,50,22,15,312,40,12,23,054,50*7A
2017-11-16 17:22:06 1510870926.738575: $GPGSV,3,2,12,14,64,318,47,18,22,142,39,24,01,048,10,11,09,286,39*74
2017-11-16 17:22:06 1510870926.738636: $GPGSV,3,3,12,25,38,096,48,31,51,222,49,32,69,013,49,138,38,213,44*4C
2017-11-16 17:22:06 1510870926.851700: $GPZDA,222205.00,16,11,2017,00,00*60
2017-11-16 17:22:06 1510870926.851864: $GPGGA,222205,3946.9570,N,08404.9831,W,2,12,0.80,309.16,M,-33.324,M,,*70
2017-11-16 17:22:06 1510870926.851925: $GPRMC,222205,A,3946.9570,N,08404.9831,W,0.0000,0.000,161117,,*33
2017-11-16 17:22:06 1510870926.851980: $GPGSA,A,3,1,10,22,12,14,18,24,11,25,31,32,138,1.6,0.8,1.3*38
2017-11-16 17:22:07 1510870927.402570: $GPZDA,222206.00,16,11,2017,00,00*63
2017-11-16 17:22:07 1510870927.402734: $GPGGA,222206,3946.9570,N,08404.9831,W,2,12,0.80,309.16,M,-33.324,M,,*73
2017-11-16 17:22:07 1510870927.402794: $GPRMC,222206,A,3946.9570,N,08404.9831,W,0.0000,0.000,161117,,*30
2017-11-16 17:22:07 1510870927.402850: $GPGSA,A,3,1,10,22,12,14,18,24,11,25,31,32,138,1.6,0.8,1.3*38
