2018-01-12 04:11:00 1515748260.440792: {"class":"VERSION","release":"3.16","rev":"3.16-4","proto_major":3,"proto_minor":11}
2018-01-12 04:11:00 1515748260.441118: {"class":"DEVICES","devices":[{"class":"DEVICE","path":"/dev/ttyUSB0","driver":"SiRF","subtype":"9\u0006GSD4e_4.1.2-P1_RPATCH.05-F-GPS-4R-1510281 11/03/2015 307","activated":"2018-01-12T09:11:00.245Z","flags":1,"native":1,"bps":4800,"parity":"N","stopbits":1,"cycle":1.00}]}
2018-01-12 04:11:00 1515748260.441229: {"class":"WATCH","enable":true,"json":false,"nmea":true,"raw":0,"scaled":false,"timing":false,"split24":false,"pps":false}
2018-01-12 04:11:00 1515748260.848994: $GPZDA,091101.53,12,01,2018,00,00*61
2018-01-12 04:11:00 1515748260.849171: $GPGGA,091101,3946.9635,N,08404.9771,W,1,10,1.60,299.40,M,-33.324,M,,*71
2018-01-12 04:11:00 1515748260.849236: $GPRMC,091101,A,3946.9635,N,08404.9771,W,0.6100,246.300,120118,,*39
2018-01-12 04:11:00 1515748260.849298: $GPGSA,A,3,2,5,6,12,25,29,9,17,19,138,,,2.4,1.6,2.1*03
2018-01-12 04:11:00 1515748260.849357: $GPGBS,091101,11.98,M,14.47,M,47.88,M*02
2018-01-12 04:11:01 1515748261.782367: $GPZDA,091102.22,12,01,2018,00,00*64
2018-01-12 04:11:01 1515748261.782539: $GPGGA,091102,3946.9635,N,08404.9771,W,1,10,1.60,299.40,M,-33.324,M,,*72
2018-01-12 04:11:01 1515748261.782606: $GPRMC,091102,A,3946.9635,N,08404.9771,W,0.1567,189.200,120118,,*39
2018-01-12 04:11:01 1515748261.782668: $GPGSA,A,3,2,5,6,12,25,29,9,17,19,138,,,2.4,1.6,2.1*03
2018-01-12 04:11:01 1515748261.782725: $GPGBS,091102,11.98,M,14.47,M,47.88,M*01
2018-01-12 04:11:02 1515748262.924687: $GPGSV,3,1,12,02,71,331,44,05,45,198,49,06,50,049,48,12,53,259,46*7F
2018-01-12 04:11:02 1515748262.924853: $GPGSV,3,2,12,25,30,306,44,29,07,304,47,09,19,072,09,17,18,118,10*79
2018-01-12 04:11:02 1515748262.924920: $GPGSV,3,3,12,19,36,111,10,23,07,040,07,04,51,279,00,138,38,213,00*4F
2018-01-12 04:11:03 1515748263.038321: $GPZDA,091103.00,12,01,2018,00,00*65
2018-01-12 04:11:03 1515748263.038457: $GPGGA,091103,3946.9636,N,08404.9778,W,1,10,0.80,300.73,M,-33.324,M,,*77
2018-01-12 04:11:03 1515748263.038523: $GPRMC,091103,A,3946.9636,N,08404.9778,W,0.6012,242.539,120118,,*3B
2018-01-12 04:11:03 1515748263.038584: $GPGSA,A,3,2,5,6,12,25,29,9,17,19,23,,,2.4,0.8,2.1*37
2018-01-12 04:11:03 1515748263.489365: $GPZDA,091104.00,12,01,2018,00,00*62
2018-01-12 04:11:03 1515748263.489536: $GPGGA,091104,3946.9637,N,08404.9779,W,1,10,0.80,302.13,M,-33.324,M,,*74
2018-01-12 04:11:03 1515748263.489603: $GPRMC,091104,A,3946.9637,N,08404.9779,W,0.2710,280.223,120118,,*3F
2018-01-12 04:11:03 1515748263.489664: $GPGSA,A,3,2,5,6,12,25,29,9,17,19,23,,,2.4,0.8,2.1*37
2018-01-12 04:11:04 1515748264.342607: $GPZDA,091105.00,12,01,2018,00,00*63
2018-01-12 04:11:04 1515748264.342770: $GPGGA,091105,3946.9641,N,08404.9779,W,1,10,0.80,302.77,M,-33.324,M,,*76
2018-01-12 04:11:04 1515748264.342836: $GPRMC,091105,A,3946.9641,N,08404.9779,W,0.0000,0.000,120118,,*32
2018-01-12 04:11:04 1515748264.342896: $GPGSA,A,3,2,5,6,12,25,29,9,17,19,23,,,2.4,0.8,2.1*37
2018-01-12 04:11:05 1515748265.678810: $GPGSV,3,1,12,02,71,331,44,05,45,198,49,06,50,049,47,12,53,259,46*70
2018-01-12 04:11:05 1515748265.679063: $GPGSV,3,2,12,25,30,306,44,29,07,304,47,09,19,072,22,17,18,118,25*76
2018-01-12 04:11:05 1515748265.679201: $GPGSV,3,3,12,19,36,111,22,23,07,040,20,04,51,279,00,138,38,213,48*47
2018-01-12 04:11:05 1515748265.791189: $GPZDA,091106.00,12,01,2018,00,00*60
2018-01-12 04:11:05 1515748265.791347: $GPGGA,091106,3946.9637,N,08404.9779,W,1,11,0.80,302.13,M,-33.324,M,,*77
2018-01-12 04:11:05 1515748265.791413: $GPRMC,091106,A,3946.9637,N,08404.9779,W,0.0000,0.000,120118,,*30
2018-01-12 04:11:05 1515748265.791474: $GPGSA,A,3,2,5,6,12,25,29,9,17,19,23,138,,2.4,0.8,2.1*0D
2018-01-12 04:11:06 1515748266.344579: $GPZDA,091107.00,12,01,2018,00,00*61
2018-01-12 04:11:06 1515748266.344735: $GPGGA,091107,3946.9640,N,08404.9771,W,1,11,0.80,301.45,M,-33.324,M,,*7E
2018-01-12 04:11:06 1515748266.344800: $GPRMC,091107,A,3946.9640,N,08404.9771,W,0.0000,0.000,120118,,*39
2018-01-12 04:11:06 1515748266.344861: $GPGSA,A,3,2,5,6,12,25,29,9,17,19,23,138,,2.4,0.8,2.1*0D
