2017-11-16 17:31:55 1510871515.493231: {"class":"VERSION","release":"3.17","rev":"3.17","proto_major":3,"proto_minor":12}
2017-11-16 17:31:55 1510871515.493760: {"class":"DEVICES","devices":[{"class":"DEVICE","path":"/dev/ttyUSB0","driver":"SiRF","subtype":"9\u0006GSD4e_4.1.2-P1_RPATCH.05-F-GPS-4R-1510281 11/03/2015 307","activated":"2017-11-16T22:31:55.469Z","flags":1,"native":1,"bps":4800,"parity":"N","stopbits":1,"cycle":1.00}]}
2017-11-16 17:31:55 1510871515.493944: {"class":"WATCH","enable":true,"json":false,"nmea":true,"raw":0,"scaled":false,"timing":false,"split24":false,"pps":false}
2017-11-16 17:31:56 1510871516.394025: $GPZDA,223155.00,16,11,2017,00,00*67
2017-11-16 17:31:56 1510871516.394197: $GPGGA,223155,3946.9572,N,08404.9835,W,2,11,0.80,304.10,M,-33.324,M,,*79
2017-11-16 17:31:56 1510871516.394261: $GPRMC,223155,A,3946.9572,N,08404.9835,W,0.0000,0.000,161117,,*32
2017-11-16 17:31:56 1510871516.394317: $GPGSA,A,3,1,10,22,12,14,18,11,25,31,32,138,,1.6,0.8,1.3*3E
2017-11-16 17:31:57 1510871517.729797: $GPGSV,3,1,12,01,21,301,38,10,48,148,49,22,18,312,43,12,22,051,51*73
2017-11-16 17:31:57 1510871517.730000: $GPGSV,3,2,12,14,66,327,48,18,19,144,40,26,01,183,00,11,08,282,39*75
2017-11-16 17:31:57 1510871517.730078: $GPGSV,3,3,12,25,39,091,48,31,55,225,49,32,69,025,49,138,38,213,44*4C
2017-11-16 17:31:57 1510871517.843140: $GPZDA,223156.00,16,11,2017,00,00*64
2017-11-16 17:31:57 1510871517.843315: $GPGGA,223156,3946.9572,N,08404.9835,W,2,11,0.80,304.10,M,-33.324,M,,*7A
2017-11-16 17:31:57 1510871517.843394: $GPRMC,223156,A,3946.9572,N,08404.9835,W,0.0000,0.000,161117,,*31
2017-11-16 17:31:57 1510871517.843451: $GPGSA,A,3,1,10,22,12,14,18,11,25,31,32,138,,1.6,0.8,1.3*3E
2017-11-16 17:31:58 1510871518.400229: $GPZDA,223157.00,16,11,2017,00,00*65
2017-11-16 17:31:58 1510871518.400407: $GPGGA,223157,3946.9572,N,08404.9835,W,2,11,0.80,304.10,M,-33.324,M,,*7B
2017-11-16 17:31:58 1510871518.400468: $GPRMC,223157,A,3946.9572,N,08404.9835,W,0.0000,0.000,161117,,*30
2017-11-16 17:31:58 1510871518.400525: $GPGSA,A,3,1,10,22,12,14,18,11,25,31,32,138,,1.6,0.8,1.3*3E
2017-11-16 17:31:59 1510871519.399839: $GPZDA,223158.00,16,11,2017,00,00*6A
2017-11-16 17:31:59 1510871519.400016: $GPGGA,223158,3946.9572,N,08404.9835,W,2,11,0.80,304.10,M,-33.324,M,,*74
2017-11-16 17:31:59 1510871519.400078: $GPRMC,223158,A,3946.9572,N,08404.9835,W,0.0000,0.000,161117,,*3F
2017-11-16 17:31:59 1510871519.400134: $GPGSA,A,3,1,10,22,12,14,18,11,25,31,32,138,,1.6,0.8,1.3*3E
2017-11-16 17:32:00 1510871520.736854: $GPGSV,3,1,12,01,21,301,38,10,48,148,49,22,18,312,43,12,22,051,51*73
2017-11-16 17:32:00 1510871520.737054: $GPGSV,3,2,12,14,66,327,47,18,19,144,39,26,01,183,10,11,08,282,38*74
2017-11-16 17:32:00 1510871520.737137: $GPGSV,3,3,12,25,39,091,48,31,55,225,49,32,69,025,49,138,38,213,44*4C
2017-11-16 17:32:00 1510871520.850395: $GPZDA,223159.00,16,11,2017,00,00*6B
2017-11-16 17:32:00 1510871520.850565: $GPGGA,223159,3946.9572,N,08404.9835,W,2,11,0.80,304.10,M,-33.324,M,,*75
2017-11-16 17:32:00 1510871520.850630: $GPRMC,223159,A,3946.9572,N,08404.9835,W,0.0000,0.000,161117,,*3E
2017-11-16 17:32:00 1510871520.850688: $GPGSA,A,3,1,10,22,12,14,18,11,25,31,32,138,,1.6,0.8,1.3*3E
2017-11-16 17:32:01 1510871521.475560: $GPZDA,223200.00,16,11,2017,00,00*64
2017-11-16 17:32:01 1510871521.475727: $GPGGA,223200,3946.9572,N,08404.9835,W,2,11,0.80,304.10,M,-33.324,M,,*7A
2017-11-16 17:32:01 1510871521.475791: $GPRMC,223200,A,3946.9572,N,08404.9835,W,0.0000,0.000,161117,,*31
2017-11-16 17:32:01 1510871521.475849: $GPGSA,A,3,1,10,22,12,14,18,11,25,31,32,138,,1.6,0.8,1.3*3E
2017-11-16 17:32:02 1510871522.416412: $GPZDA,223201.00,16,11,2017,00,00*65
2017-11-16 17:32:02 1510871522.416578: $GPGGA,223201,3946.9572,N,08404.9835,W,2,11,0.80,304.10,M,-33.324,M,,*7B
2017-11-16 17:32:02 1510871522.416643: $GPRMC,223201,A,3946.9572,N,08404.9835,W,0.0000,0.000,161117,,*30
2017-11-16 17:32:02 1510871522.416702: $GPGSA,A,3,1,10,22,12,14,18,11,25,31,32,138,,1.6,0.8,1.3*3E
2017-11-16 17:32:03 1510871523.752138: $GPGSV,3,1,12,01,21,301,38,10,48,148,50,22,18,312,43,12,22,051,51*7B
2017-11-16 17:32:03 1510871523.752357: $GPGSV,3,2,12,14,66,327,47,18,19,144,40,26,01,183,23,11,08,282,38*7A
2017-11-16 17:32:03 1510871523.752421: $GPGSV,3,3,12,25,39,091,47,31,55,225,49,32,69,025,49,138,38,213,44*43
2017-11-16 17:32:03 1510871523.865489: $GPZDA,223202.00,16,11,2017,00,00*66
2017-11-16 17:32:03 1510871523.865649: $GPGGA,223202,3946.9572,N,08404.9835,W,2,12,0.80,304.10,M,-33.324,M,,*7B
2017-11-16 17:32:03 1510871523.865710: $GPRMC,223202,A,3946.9572,N,08404.9835,W,0.0000,0.000,161117,,*33
2017-11-16 17:32:03 1510871523.865766: $GPGSA,A,3,1,10,22,12,14,18,26,11,25,31,32,138,1.6,0.8,1.3*3A
2017-11-16 17:32:04 1510871524.416426: $GPZDA,223203.00,16,11,2017,00,00*67
2017-11-16 17:32:04 1510871524.416586: $GPGGA,223203,3946.9572,N,08404.9835,W,2,12,0.80,304.10,M,-33.324,M,,*7A
2017-11-16 17:32:04 1510871524.416647: $GPRMC,223203,A,3946.9572,N,08404.9835,W,0.0000,0.000,161117,,*32
2017-11-16 17:32:04 1510871524.416704: $GPGSA,A,3,1,10,22,12,14,18,26,11,25,31,32,138,1.6,0.8,1.3*3A
2017-11-16 17:32:05 1510871525.422269: $GPZDA,223204.00,16,11,2017,00,00*60
2017-11-16 17:32:05 1510871525.422456: $GPGGA,223204,3946.9572,N,08404.9835,W,2,12,0.80,304.10,M,-33.324,M,,*7D
2017-11-16 17:32:05 1510871525.422538: $GPRMC,223204,A,3946.9572,N,08404.9835,W,0.0000,0.000,161117,,*35
2017-11-16 17:32:05 1510871525.422597: $GPGSA,A,3,1,10,22,12,14,18,26,11,25,31,32,138,1.6,0.8,1.3*3A
