2017-11-15 18:57:54 1510790274.355635: {"class":"VERSION","release":"3.17","rev":"3.17","proto_major":3,"proto_minor":12}
2017-11-15 18:57:54 1510790274.356106: {"class":"DEVICES","devices":[{"class":"DEVICE","path":"/dev/ttyUSB0","driver":"SiRF","subtype":"9\u0006GSD4e_4.1.2-P1_RPATCH.05-F-GPS-4R-1510281 11/03/2015 307","activated":"2017-11-15T23:57:54.260Z","flags":1,"native":1,"bps":4800,"parity":"N","stopbits":1,"cycle":1.00}]}
2017-11-15 18:57:54 1510790274.356232: {"class":"WATCH","enable":true,"json":false,"nmea":true,"raw":0,"scaled":false,"timing":false,"split24":false,"pps":false}
2017-11-15 18:57:54 1510790274.708258: $GPGSV,3,1,11,10,10,159,08,14,64,069,12,03,30,310,20,32,47,094,14*7F
2017-11-15 18:57:54 1510790274.708428: $GPGSV,3,2,11,31,78,345,21,26,37,177,20,22,46,291,22,16,08,190,08*70
2017-11-15 18:57:54 1510790274.708488: $GPGSV,3,3,11,25,28,046,00,29,05,084,00,01,13,264,15*43
2017-11-15 18:57:54 1510790274.821987: $GPZDA,235753.00,15,11,2017,00,00*63
2017-11-15 18:57:54 1510790274.822137: $GPGGA,235753,3946.9585,N,08404.9566,W,1,09,1.40,315.24,M,-33.324,M,,*7D
2017-11-15 18:57:54 1510790274.822198: $GPRMC,235753,A,3946.9585,N,08404.9566,W,0.2422,273.794,151117,,*3F
2017-11-15 18:57:54 1510790274.822253: $GPGSA,A,3,10,14,3,32,31,26,22,16,1,,,,3.4,1.4,2.9*3D
2017-11-15 18:57:55 1510790275.331215: $GPZDA,235754.00,15,11,2017,00,00*64
2017-11-15 18:57:55 1510790275.331375: $GPGGA,235754,3946.9582,N,08404.9566,W,1,09,1.40,316.01,M,-33.324,M,,*79
2017-11-15 18:57:55 1510790275.331437: $GPRMC,235754,A,3946.9582,N,08404.9566,W,0.4985,185.767,151117,,*3F
2017-11-15 18:57:55 1510790275.331493: $GPGSA,A,3,10,14,3,32,31,26,22,16,1,,,,3.4,1.4,2.9*3D
2017-11-15 18:57:56 1510790276.330377: $GPZDA,235755.00,15,11,2017,00,00*65
2017-11-15 18:57:56 1510790276.330538: $GPGGA,235755,3946.9582,N,08404.9573,W,1,09,1.40,315.93,M,-33.324,M,,*74
2017-11-15 18:57:56 1510790276.330599: $GPRMC,235755,A,3946.9582,N,08404.9573,W,0.2422,273.794,151117,,*3A
2017-11-15 18:57:56 1510790276.330655: $GPGSA,A,3,10,14,3,32,31,26,22,16,1,,,,3.4,1.4,2.9*3D
2017-11-15 18:57:57 1510790277.666135: $GPGSV,3,1,11,10,10,159,09,14,64,069,12,03,30,310,20,32,47,094,16*7C
2017-11-15 18:57:57 1510790277.666316: $GPGSV,3,2,11,31,78,345,22,26,37,177,20,22,46,291,22,16,08,190,06*7D
2017-11-15 18:57:57 1510790277.666375: $GPGSV,3,3,11,25,28,046,00,29,05,084,00,01,13,264,15*43
2017-11-15 18:57:57 1510790277.779408: $GPZDA,235756.00,15,11,2017,00,00*66
2017-11-15 18:57:57 1510790277.779549: $GPGGA,235756,3946.9582,N,08404.9573,W,1,09,1.40,315.93,M,-33.324,M,,*77
2017-11-15 18:57:57 1510790277.779609: $GPRMC,235756,A,3946.9582,N,08404.9573,W,0.3423,4.197,151117,,*3E
2017-11-15 18:57:57 1510790277.779664: $GPGSA,A,3,10,14,3,32,31,26,22,16,1,,,,3.4,1.4,2.9*3D
2017-11-15 18:57:58 1510790278.331567: $GPZDA,235757.00,15,11,2017,00,00*67
2017-11-15 18:57:58 1510790278.331742: $GPGGA,235757,3946.9582,N,08404.9573,W,1,09,1.40,315.93,M,-33.324,M,,*76
2017-11-15 18:57:58 1510790278.331803: $GPRMC,235757,A,3946.9582,N,08404.9573,W,0.5951,58.684,151117,,*0D
2017-11-15 18:57:58 1510790278.331859: $GPGSA,A,3,10,14,3,32,31,26,22,16,1,,,,3.4,1.4,2.9*3D
2017-11-15 18:57:59 1510790279.331215: $GPZDA,235758.00,15,11,2017,00,00*68
2017-11-15 18:57:59 1510790279.331388: $GPGGA,235758,3946.9582,N,08404.9573,W,1,09,1.40,315.93,M,-33.324,M,,*79
2017-11-15 18:57:59 1510790279.331451: $GPRMC,235758,A,3946.9582,N,08404.9573,W,0.0000,0.000,151117,,*3D
2017-11-15 18:57:59 1510790279.331507: $GPGSA,A,3,10,14,3,32,31,26,22,16,1,,,,3.4,1.4,2.9*3D
2017-11-15 18:58:00 1510790280.667156: $GPGSV,3,1,11,10,10,159,08,14,64,069,13,03,30,310,20,32,47,094,17*7D
2017-11-15 18:58:00 1510790280.667330: $GPGSV,3,2,11,31,78,345,22,26,37,177,20,22,46,291,22,16,08,190,05*7E
2017-11-15 18:58:00 1510790280.667390: $GPGSV,3,3,11,25,28,046,00,29,05,084,00,01,13,264,15*43
2017-11-15 18:58:00 1510790280.780543: $GPZDA,235759.00,15,11,2017,00,00*69
2017-11-15 18:58:00 1510790280.780675: $GPGGA,235759,3946.9578,N,08404.9573,W,1,08,1.40,315.29,M,-33.324,M,,*7D
2017-11-15 18:58:00 1510790280.780735: $GPRMC,235759,A,3946.9578,N,08404.9573,W,0.4207,219.347,151117,,*32
2017-11-15 18:58:00 1510790280.780841: $GPGSA,A,3,10,14,3,32,31,26,22,1,,,,,3.4,1.4,2.9*3A
2017-11-15 18:58:01 1510790281.405655: $GPZDA,235800.00,15,11,2017,00,00*6A
2017-11-15 18:58:01 1510790281.405828: $GPGGA,235800,3946.9578,N,08404.9580,W,1,08,1.40,315.21,M,-33.324,M,,*7A
2017-11-15 18:58:01 1510790281.405891: $GPRMC,235800,A,3946.9578,N,08404.9580,W,0.7267,273.794,151117,,*3E
2017-11-15 18:58:01 1510790281.405948: $GPGSA,A,3,10,14,3,32,31,26,22,1,,,,,3.4,1.4,2.9*3A
2017-11-15 18:58:02 1510790282.329097: $GPZDA,235801.00,15,11,2017,00,00*6B
2017-11-15 18:58:02 1510790282.329294: $GPGGA,235801,3946.9578,N,08404.9580,W,1,08,1.40,315.21,M,-33.324,M,,*7B
2017-11-15 18:58:02 1510790282.329359: $GPRMC,235801,A,3946.9578,N,08404.9580,W,0.4844,273.794,151117,,*37
2017-11-15 18:58:02 1510790282.329419: $GPGSA,A,3,10,14,3,32,31,26,22,1,,,,,3.4,1.4,2.9*3A
2017-11-15 18:58:03 1510790283.666096: $GPGSV,3,1,11,10,10,159,06,14,64,069,13,03,30,310,20,32,47,094,22*75
2017-11-15 18:58:03 1510790283.666276: $GPGSV,3,2,11,31,78,345,22,26,37,177,20,22,46,291,22,16,08,190,13*79
2017-11-15 18:58:03 1510790283.666337: $GPGSV,3,3,11,25,28,046,00,29,05,084,00,01,13,264,15*43
2017-11-15 18:58:03 1510790283.779750: $GPZDA,235802.00,15,11,2017,00,00*68
2017-11-15 18:58:03 1510790283.779907: $GPGGA,235802,3946.9579,N,08404.9587,W,1,09,1.40,315.13,M,-33.324,M,,*7E
2017-11-15 18:58:03 1510790283.779967: $GPRMC,235802,A,3946.9579,N,08404.9587,W,0.7278,203.636,151117,,*3A
2017-11-15 18:58:03 1510790283.780023: $GPGSA,A,3,10,14,3,32,31,26,22,16,1,,,,3.4,1.4,2.9*3D
2017-11-15 18:58:04 1510790284.330575: $GPZDA,235803.00,15,11,2017,00,00*69
2017-11-15 18:58:04 1510790284.330720: $GPGGA,235803,3946.9579,N,08404.9587,W,1,09,1.40,315.13,M,-33.324,M,,*7F
2017-11-15 18:58:04 1510790284.330782: $GPRMC,235803,A,3946.9579,N,08404.9587,W,0.1567,189.201,151117,,*35
2017-11-15 18:58:04 1510790284.330838: $GPGSA,A,3,10,14,3,32,31,26,22,16,1,,,,3.4,1.4,2.9*3D
2017-11-15 18:58:05 1510790285.330140: $GPZDA,235804.00,15,11,2017,00,00*6E
2017-11-15 18:58:05 1510790285.459332: $GPGGA,235804,3946.9574,N,08404.9587,W,1,09,1.40,314.49,M,-33.324,M,,*7B
2017-11-15 18:58:05 1510790285.459496: $GPRMC,235804,A,3946.9574,N,08404.9587,W,0.3423,184.197,151117,,*3D
2017-11-15 18:58:05 1510790285.459566: $GPGSA,A,3,10,14,3,32,31,26,22,16,1,,,,3.4,1.4,2.9*3D
2017-11-15 18:58:06 1510790286.666549: $GPGSV,3,1,11,10,10,159,06,14,64,069,12,03,30,310,20,32,47,094,22*74
2017-11-15 18:58:06 1510790286.666767: $GPGSV,3,2,11,31,78,345,22,26,37,177,20,22,46,291,21,16,08,190,13*7A
2017-11-15 18:58:06 1510790286.666839: $GPGSV,3,3,11,29,05,084,18,25,28,046,00,01,13,264,15*4A
2017-11-15 18:58:06 1510790286.780507: $GPZDA,235805.00,15,11,2017,00,00*6F
2017-11-15 18:58:06 1510790286.780812: $GPGGA,235805,3946.9574,N,08404.9587,W,1,10,0.80,314.49,M,-33.324,M,,*7F
2017-11-15 18:58:06 1510790286.780958: $GPRMC,235805,A,3946.9574,N,08404.9587,W,0.1567,189.201,151117,,*3E
2017-11-15 18:58:06 1510790286.781075: $GPGSA,A,3,10,14,3,32,31,26,22,16,29,1,,,3.4,0.8,2.9*3B
2017-11-15 18:58:07 1510790287.330690: $GPZDA,235806.00,15,11,2017,00,00*6C
2017-11-15 18:58:07 1510790287.330855: $GPGGA,235806,3946.9574,N,08404.9587,W,1,10,1.00,314.49,M,-33.324,M,,*75
2017-11-15 18:58:07 1510790287.330919: $GPRMC,235806,A,3946.9574,N,08404.9587,W,0.2422,93.794,151117,,*0D
2017-11-15 18:58:07 1510790287.330978: $GPGSA,A,3,10,14,3,32,31,26,22,16,29,1,,,3.4,1.0,2.9*32
2017-11-15 18:58:08 1510790288.330341: $GPZDA,235807.00,15,11,2017,00,00*6D
2017-11-15 18:58:08 1510790288.330508: $GPGGA,235807,3946.9574,N,08404.9587,W,1,10,1.00,314.49,M,-33.324,M,,*74
2017-11-15 18:58:08 1510790288.330572: $GPRMC,235807,A,3946.9574,N,08404.9587,W,0.2422,93.794,151117,,*0C
2017-11-15 18:58:08 1510790288.330630: $GPGSA,A,3,10,14,3,32,31,26,22,16,29,1,,,3.4,1.0,2.9*32
2017-11-15 18:58:09 1510790289.666075: $GPGSV,3,1,11,10,10,159,06,14,64,069,11,03,30,310,20,32,47,094,22*77
2017-11-15 18:58:09 1510790289.666269: $GPGSV,3,2,11,31,78,345,22,26,37,177,19,22,46,291,21,16,08,190,05*77
2017-11-15 18:58:09 1510790289.666382: $GPGSV,3,3,11,29,05,084,18,25,28,046,00,01,13,264,15*4A
2017-11-15 18:58:09 1510790289.779482: $GPZDA,235808.00,15,11,2017,00,00*62
2017-11-15 18:58:09 1510790289.779646: $GPGGA,235808,3946.9574,N,08404.9587,W,1,08,1.00,314.49,M,-33.324,M,,*72
2017-11-15 18:58:09 1510790289.779707: $GPRMC,235808,A,3946.9574,N,08404.9587,W,0.0000,0.000,151117,,*35
2017-11-15 18:58:09 1510790289.779762: $GPGSA,A,3,14,3,32,31,26,22,29,1,,,,,3.4,1.0,2.9*34
2017-11-15 18:58:10 1510790290.331762: $GPZDA,235809.00,15,11,2017,00,00*63
2017-11-15 18:58:10 1510790290.335320: $GPGGA,235809,3946.9578,N,08404.9580,W,1,08,1.00,313.81,M,-33.324,M,,*7B
2017-11-15 18:58:10 1510790290.335435: $GPRMC,235809,A,3946.9578,N,08404.9580,W,0.4844,93.794,151117,,*03
2017-11-15 18:58:10 1510790290.335509: $GPGSA,A,3,14,3,32,31,26,22,29,1,,,,,3.4,1.0,2.9*34
2017-11-15 18:58:11 1510790291.330687: $GPZDA,235810.00,15,11,2017,00,00*6B
2017-11-15 18:58:11 1510790291.330853: $GPGGA,235810,3946.9578,N,08404.9580,W,1,08,1.00,313.81,M,-33.324,M,,*73
2017-11-15 18:58:11 1510790291.330914: $GPRMC,235810,A,3946.9578,N,08404.9580,W,0.7576,81.914,151117,,*01
2017-11-15 18:58:11 1510790291.330970: $GPGSA,A,3,14,3,32,31,26,22,29,1,,,,,3.4,1.0,2.9*34
2017-11-15 18:58:12 1510790292.666457: $GPGSV,3,1,11,10,10,159,06,14,64,069,12,03,30,310,20,32,47,094,23*75
2017-11-15 18:58:12 1510790292.666628: $GPGSV,3,2,11,31,78,345,23,26,37,177,19,22,46,291,21,16,08,190,11*73
2017-11-15 18:58:12 1510790292.666687: $GPGSV,3,3,11,29,05,084,18,25,28,046,00,01,13,264,16*49
2017-11-15 18:58:12 1510790292.779803: $GPZDA,235811.00,15,11,2017,00,00*6A
2017-11-15 18:58:12 1510790292.779965: $GPGGA,235811,3946.9578,N,08404.9580,W,1,09,0.80,313.81,M,-33.324,M,,*7A
2017-11-15 18:58:12 1510790292.780046: $GPRMC,235811,A,3946.9578,N,08404.9580,W,1.0018,50.691,151117,,*05
2017-11-15 18:58:12 1510790292.780102: $GPGSA,A,3,14,3,32,31,26,22,16,29,1,,,,3.4,0.8,2.9*3A
2017-11-15 18:58:13 1510790293.330746: $GPZDA,235812.00,15,11,2017,00,00*69
2017-11-15 18:58:13 1510790293.330906: $GPGGA,235812,3946.9581,N,08404.9572,W,1,09,1.00,313.12,M,-33.324,M,,*71
2017-11-15 18:58:13 1510790293.330985: $GPRMC,235812,A,3946.9581,N,08404.9572,W,1.2975,53.418,151117,,*0D
2017-11-15 18:58:13 1510790293.331043: $GPGSA,A,3,14,3,32,31,26,22,16,29,1,,,,3.4,1.0,2.9*33
2017-11-15 18:58:14 1510790294.366571: $GPZDA,235813.00,15,11,2017,00,00*68
2017-11-15 18:58:14 1510790294.366800: $GPGGA,235813,3946.9580,N,08404.9565,W,1,09,1.00,313.20,M,-33.324,M,,*76
2017-11-15 18:58:14 1510790294.366870: $GPRMC,235813,A,3946.9580,N,08404.9565,W,1.2621,39.347,151117,,*04
2017-11-15 18:58:14 1510790294.366927: $GPGSA,A,3,14,3,32,31,26,22,16,29,1,,,,3.4,1.0,2.9*33
2017-11-15 18:58:15 1510790295.708556: $GPGSV,3,1,11,10,10,159,06,14,64,069,11,03,30,310,20,32,47,094,23*76
2017-11-15 18:58:15 1510790295.708727: $GPGSV,3,2,11,31,78,345,23,26,37,177,19,22,46,291,22,16,08,190,04*74
2017-11-15 18:58:15 1510790295.708787: $GPGSV,3,3,11,29,05,084,18,25,28,046,00,01,13,264,16*49
2017-11-15 18:58:15 1510790295.820633: $GPZDA,235814.00,15,11,2017,00,00*6F
2017-11-15 18:58:15 1510790295.820765: $GPGGA,235814,3946.9584,N,08404.9564,W,1,08,1.00,312.44,M,-33.324,M,,*76
2017-11-15 18:58:15 1510790295.820825: $GPRMC,235814,A,3946.9584,N,08404.9564,W,1.2621,39.347,151117,,*06
2017-11-15 18:58:15 1510790295.820880: $GPGSA,A,3,14,3,32,31,26,22,29,1,,,,,3.4,1.0,2.9*34
2017-11-15 18:58:16 1510790296.447396: $GPZDA,235815.00,15,11,2017,00,00*6E
2017-11-15 18:58:16 1510790296.447558: $GPGGA,235815,3946.9587,N,08404.9563,W,1,08,1.00,311.67,M,-33.324,M,,*71
2017-11-15 18:58:16 1510790296.447619: $GPRMC,235815,A,3946.9587,N,08404.9563,W,0.7278,23.636,151117,,*07
2017-11-15 18:58:16 1510790296.447674: $GPGSA,A,3,14,3,32,31,26,22,29,1,,,,,3.4,1.0,2.9*34
2017-11-15 18:58:17 1510790297.330662: $GPZDA,235816.00,15,11,2017,00,00*6D
2017-11-15 18:58:17 1510790297.330829: $GPGGA,235816,3946.9591,N,08404.9557,W,1,08,1.00,312.39,M,-33.324,M,,*7A
2017-11-15 18:58:17 1510790297.330938: $GPRMC,235816,A,3946.9591,N,08404.9557,W,0.5774,27.515,151117,,*09
2017-11-15 18:58:17 1510790297.331019: $GPGSA,A,3,14,3,32,31,26,22,29,1,,,,,3.4,1.0,2.9*34
2017-11-15 18:58:18 1510790298.709019: $GPGSV,3,1,11,10,10,159,04,14,64,069,11,03,30,310,20,32,47,094,24*73
2017-11-15 18:58:18 1510790298.709204: $GPGSV,3,2,11,31,78,345,23,26,37,177,19,22,46,291,21,16,08,190,04*77
2017-11-15 18:58:18 1510790298.709263: $GPGSV,3,3,11,29,05,084,18,25,28,046,00,01,13,264,16*49
2017-11-15 18:58:18 1510790298.822645: $GPZDA,235817.00,15,11,2017,00,00*6C
2017-11-15 18:58:18 1510790298.822785: $GPGGA,235817,3946.9591,N,08404.9563,W,1,08,1.00,312.31,M,-33.324,M,,*74
2017-11-15 18:58:18 1510790298.822845: $GPRMC,235817,A,3946.9591,N,08404.9563,W,0.9066,309.458,151117,,*30
2017-11-15 18:58:18 1510790298.822900: $GPGSA,A,3,14,3,32,31,26,22,29,1,,,,,3.4,1.0,2.9*34
2017-11-15 18:58:19 1510790299.374428: $GPZDA,235818.00,15,11,2017,00,00*63
2017-11-15 18:58:19 1510790299.374595: $GPGGA,235818,3946.9587,N,08404.9563,W,1,08,1.00,311.67,M,-33.324,M,,*7C
2017-11-15 18:58:19 1510790299.374655: $GPRMC,235818,A,3946.9587,N,08404.9563,W,0.3155,309.994,151117,,*3E
2017-11-15 18:58:19 1510790299.374711: $GPGSA,A,3,14,3,32,31,26,22,29,1,,,,,3.4,1.0,2.9*34
2017-11-15 18:58:20 1510790300.331961: $GPZDA,235819.00,15,11,2017,00,00*62
2017-11-15 18:58:20 1510790300.332185: $GPGGA,235819,3946.9591,N,08404.9563,W,1,08,1.00,310.91,M,-33.324,M,,*72
2017-11-15 18:58:20 1510790300.332269: $GPRMC,235819,A,3946.9591,N,08404.9563,W,0.1867,180.000,151117,,*35
2017-11-15 18:58:20 1510790300.332349: $GPGSA,A,3,14,3,32,31,26,22,29,1,,,,,3.4,1.0,2.9*34
2017-11-15 18:58:21 1510790301.708022: $GPGSV,3,1,11,25,28,046,00,14,64,069,13,03,30,310,20,32,47,094,24*77
2017-11-15 18:58:21 1510790301.708209: $GPGSV,3,2,11,31,78,345,23,26,37,177,19,22,46,291,20,16,08,190,07*75
2017-11-15 18:58:21 1510790301.708269: $GPGSV,3,3,11,29,05,084,18,10,10,159,00,01,13,264,16*4B
2017-11-15 18:58:21 1510790301.821503: $GPZDA,235820.00,15,11,2017,00,00*68
2017-11-15 18:58:21 1510790301.821677: $GPGGA,235820,3946.9590,N,08404.9556,W,1,09,1.00,310.99,M,-33.324,M,,*76
2017-11-15 18:58:21 1510790301.821739: $GPRMC,235820,A,3946.9590,N,08404.9556,W,0.7238,140.710,151117,,*34
2017-11-15 18:58:21 1510790301.821794: $GPGSA,A,3,14,3,32,31,26,22,16,29,1,,,,3.4,1.0,2.9*33
2017-11-15 18:58:22 1510790302.366443: $GPZDA,235821.00,15,11,2017,00,00*69
2017-11-15 18:58:22 1510790302.366605: $GPGGA,235821,3946.9586,N,08404.9556,W,1,09,1.00,310.35,M,-33.324,M,,*76
2017-11-15 18:58:22 1510790302.366666: $GPRMC,235821,A,3946.9586,N,08404.9556,W,0.4179,148.778,151117,,*31
2017-11-15 18:58:22 1510790302.366776: $GPGSA,A,3,14,3,32,31,26,22,16,29,1,,,,3.4,1.0,2.9*33
2017-11-15 18:58:23 1510790303.329630: $GPZDA,235822.00,15,11,2017,00,00*6A
2017-11-15 18:58:23 1510790303.329826: $GPGGA,235822,3946.9586,N,08404.9556,W,1,09,1.00,310.35,M,-33.324,M,,*75
2017-11-15 18:58:23 1510790303.329893: $GPRMC,235822,A,3946.9586,N,08404.9556,W,0.7278,203.636,151117,,*34
2017-11-15 18:58:23 1510790303.329950: $GPGSA,A,3,14,3,32,31,26,22,16,29,1,,,,3.4,1.0,2.9*33
