2018-01-12 03:15:31 1515744931.248460: {"class":"VERSION","release":"3.16","rev":"3.16-4","proto_major":3,"proto_minor":11}
2018-01-12 03:15:31 1515744931.248804: {"class":"DEVICES","devices":[{"class":"DEVICE","path":"/dev/ttyUSB0","driver":"SiRF","subtype":"9\u0006GSD4e_4.1.2-P1_RPATCH.05-F-GPS-4R-1510281 11/03/2015 307","activated":"2018-01-12T08:15:30.895Z","flags":1,"native":1,"bps":4800,"parity":"N","stopbits":1,"cycle":1.00}]}
2018-01-12 03:15:31 1515744931.248920: {"class":"WATCH","enable":true,"json":false,"nmea":true,"raw":0,"scaled":false,"timing":false,"split24":false,"pps":false}
2018-01-12 03:15:31 1515744931.881890: $GPZDA,081532.57,12,01,2018,00,00*60
2018-01-12 03:15:31 1515744931.882070: $GPGGA,081532,3946.9614,N,08404.9759,W,1,12,1.00,312.01,M,-33.324,M,,*7E
2018-01-12 03:15:31 1515744931.882137: $GPRMC,081532,A,3946.9614,N,08404.9759,W,0.2967,226.893,120118,,*3F
2018-01-12 03:15:31 1515744931.882200: $GPGSA,A,3,2,5,6,12,17,19,24,25,3,23,9,138,2.4,1.0,2.1*3A
2018-01-12 03:15:31 1515744931.882258: $GPGBS,081532,11.98,M,14.47,M,47.88,M*07
2018-01-12 03:15:32 1515744932.986143: $GPZDA,081533.25,12,01,2018,00,00*64
2018-01-12 03:15:32 1515744932.986316: $GPGGA,081533,3946.9587,N,08404.9801,W,1,12,1.00,308.46,M,-33.324,M,,*7C
2018-01-12 03:15:32 1515744932.986382: $GPRMC,081533,A,3946.9587,N,08404.9801,W,0.0814,142.013,120118,,*33
2018-01-12 03:15:32 1515744932.986444: $GPGSA,A,3,2,5,6,12,17,19,24,25,3,23,9,138,2.4,1.0,2.1*3A
2018-01-12 03:15:34 1515744934.150904: $GPGSV,3,1,12,02,60,273,47,05,18,195,45,06,71,016,50,12,46,301,50*7D
2018-01-12 03:15:34 1515744934.151099: $GPGSV,3,2,12,17,37,097,44,19,55,082,43,24,07,252,34,25,12,321,40*71
2018-01-12 03:15:34 1515744934.151164: $GPGSV,3,3,12,09,10,096,10,23,08,063,08,04,32,253,00,138,38,213,00*48
2018-01-12 03:15:34 1515744934.264551: $GPZDA,081534.00,12,01,2018,00,00*64
2018-01-12 03:15:34 1515744934.264717: $GPGGA,081534,3946.9587,N,08404.9814,W,1,08,1.00,305.49,M,-33.324,M,,*76
2018-01-12 03:15:34 1515744934.264783: $GPRMC,081534,A,3946.9587,N,08404.9814,W,0.0814,142.013,120118,,*30
2018-01-12 03:15:34 1515744934.264843: $GPGSA,A,3,2,5,6,12,17,19,24,25,,,,,2.4,1.0,2.1*0B
2018-01-12 03:15:34 1515744934.716563: $GPZDA,081535.00,12,01,2018,00,00*65
2018-01-12 03:15:34 1515744934.716746: $GPGGA,081535,3946.9587,N,08404.9821,W,1,08,0.80,305.42,M,-33.324,M,,*73
2018-01-12 03:15:34 1515744934.716814: $GPRMC,081535,A,3946.9587,N,08404.9821,W,0.4137,44.854,120118,,*07
2018-01-12 03:15:34 1515744934.716876: $GPGSA,A,3,2,5,6,12,17,19,24,25,,,,,2.4,0.8,2.1*02
2018-01-12 03:15:35 1515744935.368612: $GPZDA,081536.00,12,01,2018,00,00*66
2018-01-12 03:15:35 1515744935.368786: $GPGGA,081536,3946.9583,N,08404.9821,W,1,08,0.80,304.78,M,-33.324,M,,*7C
2018-01-12 03:15:35 1515744935.368853: $GPRMC,081536,A,3946.9583,N,08404.9821,W,0.0407,142.014,120118,,*39
2018-01-12 03:15:35 1515744935.368914: $GPGSA,A,3,2,5,6,12,17,19,24,25,,,,,2.4,0.8,2.1*02
2018-01-12 03:15:36 1515744936.711307: $GPGSV,3,1,12,02,60,273,47,05,18,195,45,06,71,016,50,12,46,301,50*7D
2018-01-12 03:15:36 1515744936.711491: $GPGSV,3,2,12,17,37,097,43,19,55,082,42,24,07,252,35,25,12,321,40*76
2018-01-12 03:15:36 1515744936.711557: $GPGSV,3,3,12,09,10,096,24,23,08,063,20,04,32,253,00,138,38,213,00*45
2018-01-12 03:15:36 1515744936.824736: $GPZDA,081537.00,12,01,2018,00,00*67
2018-01-12 03:15:36 1515744936.824916: $GPGGA,081537,3946.9586,N,08404.9833,W,1,10,0.80,302.45,M,-33.324,M,,*7A
2018-01-12 03:15:36 1515744936.824984: $GPRMC,081537,A,3946.9586,N,08404.9833,W,0.2710,100.223,120118,,*39
2018-01-12 03:15:36 1515744936.825046: $GPGSA,A,3,2,5,6,12,17,19,24,25,9,23,,,2.4,0.8,2.1*3A
2018-01-12 03:15:37 1515744937.371189: $GPZDA,081538.00,12,01,2018,00,00*68
2018-01-12 03:15:37 1515744937.371410: $GPGGA,081538,3946.9586,N,08404.9833,W,1,10,0.80,302.45,M,-33.324,M,,*75
2018-01-12 03:15:37 1515744937.371482: $GPRMC,081538,A,3946.9586,N,08404.9833,W,0.0000,0.000,120118,,*30
2018-01-12 03:15:37 1515744937.371547: $GPGSA,A,3,2,5,6,12,17,19,24,25,9,23,,,2.4,0.8,2.1*3A
2018-01-12 03:15:38 1515744938.372504: $GPZDA,081539.00,12,01,2018,00,00*69
2018-01-12 03:15:38 1515744938.372733: $GPGGA,081539,3946.9586,N,08404.9833,W,1,10,0.80,302.45,M,-33.324,M,,*74
2018-01-12 03:15:38 1515744938.372803: $GPRMC,081539,A,3946.9586,N,08404.9833,W,0.0000,0.000,120118,,*31
2018-01-12 03:15:38 1515744938.372864: $GPGSA,A,3,2,5,6,12,17,19,24,25,9,23,,,2.4,0.8,2.1*3A
2018-01-12 03:15:38 1515744938.372921: $GPGBS,081539,11.98,M,14.47,M,47.88,M*0C
2018-01-12 03:15:39 1515744939.706976: $GPGSV,3,1,12,02,60,273,46,05,18,195,45,06,71,016,49,12,46,301,50*74
2018-01-12 03:15:39 1515744939.707169: $GPGSV,3,2,12,17,37,097,44,19,55,082,43,24,07,252,35,25,12,321,40*70
2018-01-12 03:15:39 1515744939.707236: $GPGSV,3,3,12,09,10,096,00,23,08,063,18,04,32,253,00,138,38,213,35*4E
2018-01-12 03:15:39 1515744939.820481: $GPZDA,081540.00,12,01,2018,00,00*67
2018-01-12 03:15:39 1515744939.820678: $GPGGA,081540,3946.9586,N,08404.9833,W,1,09,1.00,302.45,M,-33.324,M,,*7B
2018-01-12 03:15:39 1515744939.820745: $GPRMC,081540,A,3946.9586,N,08404.9833,W,0.0000,0.000,120118,,*3F
2018-01-12 03:15:39 1515744939.820806: $GPGSA,A,3,2,5,6,12,17,19,24,25,138,,,,2.4,1.0,2.1*31
2018-01-12 03:15:40 1515744940.371367: $GPZDA,081541.00,12,01,2018,00,00*66
2018-01-12 03:15:40 1515744940.371547: $GPGGA,081541,3946.9586,N,08404.9832,W,1,09,1.00,301.04,M,-33.324,M,,*7D
2018-01-12 03:15:40 1515744940.371613: $GPRMC,081541,A,3946.9586,N,08404.9832,W,0.0000,0.000,120118,,*3F
2018-01-12 03:15:40 1515744940.371675: $GPGSA,A,3,2,5,6,12,17,19,24,25,138,,,,2.4,1.0,2.1*31
2018-01-12 03:15:41 1515744941.371601: $GPZDA,081542.00,12,01,2018,00,00*65
2018-01-12 03:15:41 1515744941.371795: $GPGGA,081542,3946.9586,N,08404.9832,W,1,09,1.00,301.04,M,-33.324,M,,*7E
2018-01-12 03:15:41 1515744941.371862: $GPRMC,081542,A,3946.9586,N,08404.9832,W,0.0000,0.000,120118,,*3C
2018-01-12 03:15:41 1515744941.371923: $GPGSA,A,3,2,5,6,12,17,19,24,25,138,,,,2.4,1.0,2.1*31
2018-01-12 03:15:42 1515744942.706088: $GPGSV,3,1,12,02,60,273,47,05,18,195,45,06,71,016,50,12,46,301,51*7C
2018-01-12 03:15:42 1515744942.706245: $GPGSV,3,2,12,17,37,097,44,19,55,082,42,24,07,252,35,25,12,321,40*71
2018-01-12 03:15:42 1515744942.706311: $GPGSV,3,3,12,09,10,096,00,23,08,063,00,04,32,253,00,138,38,213,37*45
2018-01-12 03:15:42 1515744942.819577: $GPZDA,081543.00,12,01,2018,00,00*64
2018-01-12 03:15:42 1515744942.819763: $GPGGA,081543,3946.9586,N,08404.9832,W,1,09,1.00,301.04,M,-33.324,M,,*7F
2018-01-12 03:15:42 1515744942.819832: $GPRMC,081543,A,3946.9586,N,08404.9832,W,0.0000,0.000,120118,,*3D
2018-01-12 03:15:42 1515744942.819893: $GPGSA,A,3,2,5,6,12,17,19,24,25,138,,,,2.4,1.0,2.1*31
2018-01-12 03:15:43 1515744943.372975: $GPZDA,081544.00,12,01,2018,00,00*63
2018-01-12 03:15:43 1515744943.373157: $GPGGA,081544,3946.9586,N,08404.9832,W,1,09,1.00,301.04,M,-33.324,M,,*78
2018-01-12 03:15:43 1515744943.373226: $GPRMC,081544,A,3946.9586,N,08404.9832,W,0.0000,0.000,120118,,*3A
2018-01-12 03:15:43 1515744943.373288: $GPGSA,A,3,2,5,6,12,17,19,24,25,138,,,,2.4,1.0,2.1*31
2018-01-12 03:15:44 1515744944.371828: $GPZDA,081545.00,12,01,2018,00,00*62
2018-01-12 03:15:44 1515744944.371940: $GPGGA,081545,3946.9586,N,08404.9832,W,1,09,1.00,301.04,M,-33.324,M,,*79
2018-01-12 03:15:44 1515744944.371973: $GPRMC,081545,A,3946.9586,N,08404.9832,W,0.0000,0.000,120118,,*3B
2018-01-12 03:15:44 1515744944.372004: $GPGSA,A,3,2,5,6,12,17,19,24,25,138,,,,2.4,1.0,2.1*31
2018-01-12 03:15:45 1515744945.708199: $GPGSV,3,1,12,02,60,273,47,05,18,195,45,06,71,016,50,12,46,301,51*7C
2018-01-12 03:15:45 1515744945.708376: $GPGSV,3,2,12,17,37,097,44,19,55,082,42,24,07,252,35,25,12,321,40*71
2018-01-12 03:15:45 1515744945.708443: $GPGSV,3,3,12,09,10,096,00,23,08,063,00,04,32,253,00,138,38,213,38*4A
2018-01-12 03:15:45 1515744945.821607: $GPZDA,081546.00,12,01,2018,00,00*61
2018-01-12 03:15:45 1515744945.821780: $GPGGA,081546,3946.9586,N,08404.9832,W,1,09,1.00,301.04,M,-33.324,M,,*7A
2018-01-12 03:15:45 1515744945.821846: $GPRMC,081546,A,3946.9586,N,08404.9832,W,0.0000,0.000,120118,,*38
2018-01-12 03:15:45 1515744945.821908: $GPGSA,A,3,2,5,6,12,17,19,24,25,138,,,,2.4,1.0,2.1*31
2018-01-12 03:15:46 1515744946.447346: $GPZDA,081547.00,12,01,2018,00,00*60
2018-01-12 03:15:46 1515744946.447519: $GPGGA,081547,3946.9586,N,08404.9832,W,2,09,1.00,301.04,M,-33.324,M,,*78
2018-01-12 03:15:46 1515744946.447586: $GPRMC,081547,A,3946.9586,N,08404.9832,W,0.0000,0.000,120118,,*39
2018-01-12 03:15:46 1515744946.447647: $GPGSA,A,3,2,5,6,12,17,19,24,25,138,,,,2.4,1.0,2.1*31
2018-01-12 03:15:47 1515744947.376743: $GPZDA,081548.00,12,01,2018,00,00*6F
2018-01-12 03:15:47 1515744947.376934: $GPGGA,081548,3946.9586,N,08404.9832,W,2,09,1.00,301.04,M,-33.324,M,,*77
2018-01-12 03:15:47 1515744947.377003: $GPRMC,081548,A,3946.9586,N,08404.9832,W,0.0000,0.000,120118,,*36
2018-01-12 03:15:47 1515744947.377065: $GPGSA,A,3,2,5,6,12,17,19,24,25,138,,,,2.4,1.0,2.1*31
2018-01-12 03:15:48 1515744948.708613: $GPGSV,3,1,12,02,60,273,47,05,18,195,44,06,71,016,50,12,46,301,51*7D
2018-01-12 03:15:48 1515744948.708808: $GPGSV,3,2,12,17,37,097,44,19,55,082,42,24,07,252,34,25,12,321,40*70
2018-01-12 03:15:48 1515744948.708874: $GPGSV,3,3,12,09,10,096,00,23,08,063,00,04,32,253,00,138,38,213,39*4B
2018-01-12 03:15:48 1515744948.820834: $GPZDA,081549.00,12,01,2018,00,00*6E
2018-01-12 03:15:48 1515744948.821006: $GPGGA,081549,3946.9586,N,08404.9832,W,2,09,1.00,301.04,M,-33.324,M,,*76
2018-01-12 03:15:48 1515744948.821073: $GPRMC,081549,A,3946.9586,N,08404.9832,W,0.0000,0.000,120118,,*37
2018-01-12 03:15:48 1515744948.821134: $GPGSA,A,3,2,5,6,12,17,19,24,25,138,,,,2.4,1.0,2.1*31
2018-01-12 03:15:49 1515744949.375332: $GPZDA,081550.00,12,01,2018,00,00*66
2018-01-12 03:15:49 1515744949.375506: $GPGGA,081550,3946.9586,N,08404.9832,W,2,09,1.00,301.04,M,-33.324,M,,*7E
2018-01-12 03:15:49 1515744949.375573: $GPRMC,081550,A,3946.9586,N,08404.9832,W,0.0000,0.000,120118,,*3F
2018-01-12 03:15:49 1515744949.375634: $GPGSA,A,3,2,5,6,12,17,19,24,25,138,,,,2.4,1.0,2.1*31
2018-01-12 03:15:50 1515744950.373766: $GPZDA,081551.00,12,01,2018,00,00*67
2018-01-12 03:15:50 1515744950.374052: $GPGGA,081551,3946.9586,N,08404.9832,W,2,09,1.00,301.04,M,-33.324,M,,*7F
2018-01-12 03:15:50 1515744950.374145: $GPRMC,081551,A,3946.9586,N,08404.9832,W,0.0000,0.000,120118,,*3E
2018-01-12 03:15:50 1515744950.374273: $GPGSA,A,3,2,5,6,12,17,19,24,25,138,,,,2.4,1.0,2.1*31
2018-01-12 03:15:50 1515744950.374335: $GPGBS,081551,3.00,M,3.62,M,11.97,M*0C
