2018-01-12 03:22:33 1515745353.396773: {"class":"VERSION","release":"3.16","rev":"3.16-4","proto_major":3,"proto_minor":11}
2018-01-12 03:22:33 1515745353.397131: {"class":"DEVICES","devices":[{"class":"DEVICE","path":"/dev/ttyUSB0","driver":"SiRF","subtype":"9\u0006GSD4e_4.1.2-P1_RPATCH.05-F-GPS-4R-1510281 11/03/2015 307","activated":"2018-01-12T08:22:33.070Z","flags":1,"native":1,"bps":4800,"parity":"N","stopbits":1,"cycle":1.00}]}
2018-01-12 03:22:33 1515745353.397244: {"class":"WATCH","enable":true,"json":false,"nmea":true,"raw":0,"scaled":false,"timing":false,"split24":false,"pps":false}
2018-01-12 03:22:34 1515745354.043450: $GPZDA,082234.73,12,01,2018,00,00*64
2018-01-12 03:22:34 1515745354.043606: $GPGGA,082234,3946.9611,N,08404.9831,W,1,11,1.00,289.23,M,-33.324,M,,*78
2018-01-12 03:22:34 1515745354.043672: $GPRMC,082234,A,3946.9611,N,08404.9831,W,0.6156,20.604,120118,,*03
2018-01-12 03:22:34 1515745354.043732: $GPGSA,A,3,2,5,6,12,17,19,25,9,23,24,138,,2.4,1.0,2.1*09
2018-01-12 03:22:35 1515745355.124961: $GPZDA,082235.42,12,01,2018,00,00*67
2018-01-12 03:22:35 1515745355.125120: $GPGGA,082235,3946.9611,N,08404.9831,W,1,11,1.00,289.23,M,-33.324,M,,*79
2018-01-12 03:22:35 1515745355.125186: $GPRMC,082235,A,3946.9611,N,08404.9831,W,0.0407,322.013,120118,,*34
2018-01-12 03:22:35 1515745355.125248: $GPGSA,A,3,2,5,6,12,17,19,25,9,23,24,138,,2.4,1.0,2.1*09
2018-01-12 03:22:35 1515745355.125306: $GPGBS,082235,11.98,M,14.47,M,47.88,M*04
2018-01-12 03:22:36 1515745356.267255: $GPGSV,3,1,12,02,62,279,48,05,22,195,43,06,68,022,47,12,49,297,51*7C
2018-01-12 03:22:36 1515745356.267425: $GPGSV,3,2,12,17,35,100,46,19,52,087,40,25,15,319,41,09,12,093,12*72
2018-01-12 03:22:36 1515745356.267492: $GPGSV,3,3,12,23,08,060,00,24,05,249,00,04,34,256,00,138,38,213,00*4A
2018-01-12 03:22:36 1515745356.381013: $GPZDA,082236.00,12,01,2018,00,00*62
2018-01-12 03:22:36 1515745356.381154: $GPGGA,082236,3946.9611,N,08404.9831,W,1,07,1.00,289.23,M,-33.324,M,,*7D
2018-01-12 03:22:36 1515745356.381220: $GPRMC,082236,A,3946.9611,N,08404.9831,W,0.1867,0.000,120118,,*3D
2018-01-12 03:22:36 1515745356.381280: $GPGSA,A,3,2,5,6,12,17,19,25,,,,,,2.4,1.0,2.1*0D
2018-01-12 03:22:36 1515745356.831751: $GPZDA,082237.00,12,01,2018,00,00*63
2018-01-12 03:22:36 1515745356.831921: $GPGGA,082237,3946.9610,N,08404.9830,W,1,07,0.80,287.83,M,-33.324,M,,*71
2018-01-12 03:22:36 1515745356.831987: $GPRMC,082237,A,3946.9610,N,08404.9830,W,0.0407,322.013,120118,,*36
2018-01-12 03:22:36 1515745356.832047: $GPGSA,A,3,2,5,6,12,17,19,25,,,,,,2.4,0.8,2.1*04
2018-01-12 03:22:37 1515745357.340123: $GPZDA,082238.00,12,01,2018,00,00*6C
2018-01-12 03:22:37 1515745357.340288: $GPGGA,082238,3946.9606,N,08404.9830,W,1,07,0.80,287.19,M,-33.324,M,,*7A
2018-01-12 03:22:37 1515745357.340353: $GPRMC,082238,A,3946.9606,N,08404.9830,W,0.0000,0.000,120118,,*3C
2018-01-12 03:22:37 1515745357.340414: $GPGSA,A,3,2,5,6,12,17,19,25,,,,,,2.4,0.8,2.1*04
2018-01-12 03:22:38 1515745358.676348: $GPGSV,3,1,12,02,62,279,48,05,22,195,44,06,68,022,48,12,49,297,51*74
2018-01-12 03:22:38 1515745358.676497: $GPGSV,3,2,12,17,35,100,46,19,52,087,40,25,15,319,42,09,12,093,30*71
2018-01-12 03:22:38 1515745358.676562: $GPGSV,3,3,12,23,08,060,20,24,05,249,19,04,34,256,00,138,38,213,39*4A
2018-01-12 03:22:38 1515745358.789949: $GPZDA,082239.00,12,01,2018,00,00*6D
2018-01-12 03:22:38 1515745358.790094: $GPGGA,082239,3946.9606,N,08404.9830,W,1,11,0.80,287.19,M,-33.324,M,,*7C
2018-01-12 03:22:38 1515745358.790159: $GPRMC,082239,A,3946.9606,N,08404.9830,W,0.0000,0.000,120118,,*3D
2018-01-12 03:22:38 1515745358.790219: $GPGSA,A,3,2,5,6,12,17,19,25,9,23,24,138,,2.4,0.8,2.1*00
2018-01-12 03:22:39 1515745359.342123: $GPZDA,082240.00,12,01,2018,00,00*63
2018-01-12 03:22:39 1515745359.342286: $GPGGA,082240,3946.9602,N,08404.9830,W,1,11,0.80,286.55,M,-33.324,M,,*7F
2018-01-12 03:22:39 1515745359.342352: $GPRMC,082240,A,3946.9602,N,08404.9830,W,0.0000,0.000,120118,,*37
2018-01-12 03:22:39 1515745359.342413: $GPGSA,A,3,2,5,6,12,17,19,25,9,23,24,138,,2.4,0.8,2.1*00
