2017-12-01 16:08:10 1512162490.127255: {"class":"VERSION","release":"3.16","rev":"3.16-4","proto_major":3,"proto_minor":11}
2017-12-01 16:08:10 1512162490.127624: {"class":"DEVICES","devices":[{"class":"DEVICE","path":"/dev/ttyUSB0","driver":"SiRF","subtype":"9\u0006GSD4e_4.1.2-P1_RPATCH.05-F-GPS-4R-1510281 11/03/2015 307","activated":"2017-12-01T21:08:09.520Z","flags":1,"native":1,"bps":4800,"parity":"N","stopbits":1,"cycle":1.00}]}
2017-12-01 16:08:10 1512162490.127736: {"class":"WATCH","enable":true,"json":false,"nmea":true,"raw":0,"scaled":false,"timing":false,"split24":false,"pps":false}
2017-12-01 16:08:10 1512162490.379485: $GPZDA,210811.00,01,12,2017,00,00*6B
2017-12-01 16:08:10 1512162490.379654: $GPGGA,210811,3946.9584,N,08404.9809,W,2,12,0.80,309.15,M,-33.324,M,,*7D
2017-12-01 16:08:10 1512162490.379721: $GPRMC,210811,A,3946.9584,N,08404.9809,W,0.0000,0.000,011217,,*38
2017-12-01 16:08:10 1512162490.379782: $GPGSA,A,3,10,11,12,14,18,22,25,31,32,1,24,138,2.0,0.8,1.5*3B
2017-12-01 16:08:11 1512162491.732462: $GPGSV,3,1,12,10,59,141,49,11,10,292,32,12,25,060,44,14,61,307,45*70
2017-12-01 16:08:11 1512162491.732645: $GPGSV,3,2,12,18,28,139,44,22,10,312,38,25,36,103,48,31,45,217,48*7E
2017-12-01 16:08:11 1512162491.732712: $GPGSV,3,3,12,32,70,358,48,01,18,310,38,24,06,046,31,138,38,213,46*4C
2017-12-01 16:08:11 1512162491.846050: $GPZDA,210812.00,01,12,2017,00,00*68
2017-12-01 16:08:11 1512162491.846191: $GPGGA,210812,3946.9584,N,08404.9809,W,2,12,0.80,309.15,M,-33.324,M,,*7E
2017-12-01 16:08:11 1512162491.846256: $GPRMC,210812,A,3946.9584,N,08404.9809,W,0.0000,0.000,011217,,*3B
2017-12-01 16:08:11 1512162491.846317: $GPGSA,A,3,10,11,12,14,18,22,25,31,32,1,24,138,2.0,0.8,1.5*3B
2017-12-01 16:08:12 1512162492.471523: $GPZDA,210813.00,01,12,2017,00,00*69
2017-12-01 16:08:12 1512162492.471692: $GPGGA,210813,3946.9584,N,08404.9809,W,2,12,0.80,309.15,M,-33.324,M,,*7F
2017-12-01 16:08:12 1512162492.471758: $GPRMC,210813,A,3946.9584,N,08404.9809,W,0.0000,0.000,011217,,*3A
2017-12-01 16:08:12 1512162492.471824: $GPGSA,A,3,10,11,12,14,18,22,25,31,32,1,24,138,2.0,0.8,1.5*3B
2017-12-01 16:08:13 1512162493.396146: $GPZDA,210814.00,01,12,2017,00,00*6E
2017-12-01 16:08:13 1512162493.396321: $GPGGA,210814,3946.9584,N,08404.9809,W,2,12,0.80,309.15,M,-33.324,M,,*78
2017-12-01 16:08:13 1512162493.396388: $GPRMC,210814,A,3946.9584,N,08404.9809,W,0.0000,0.000,011217,,*3D
2017-12-01 16:08:13 1512162493.396450: $GPGSA,A,3,10,11,12,14,18,22,25,31,32,1,24,138,2.0,0.8,1.5*3B
2017-12-01 16:08:14 1512162494.731573: $GPGSV,3,1,12,10,59,141,48,11,10,292,32,12,25,060,44,14,61,307,45*71
2017-12-01 16:08:14 1512162494.731762: $GPGSV,3,2,12,18,28,139,43,22,10,312,38,25,36,103,48,31,45,217,48*79
2017-12-01 16:08:14 1512162494.731831: $GPGSV,3,3,12,32,70,358,48,01,18,310,38,24,06,046,30,138,38,213,46*4D
2017-12-01 16:08:14 1512162494.844929: $GPZDA,210815.00,01,12,2017,00,00*6F
2017-12-01 16:08:14 1512162494.845100: $GPGGA,210815,3946.9584,N,08404.9809,W,2,12,0.80,309.15,M,-33.324,M,,*79
2017-12-01 16:08:14 1512162494.845169: $GPRMC,210815,A,3946.9584,N,08404.9809,W,0.0000,0.000,011217,,*3C
2017-12-01 16:08:14 1512162494.845230: $GPGSA,A,3,10,11,12,14,18,22,25,31,32,1,24,138,2.0,0.8,1.5*3B
2017-12-01 16:08:15 1512162495.397279: $GPZDA,210816.00,01,12,2017,00,00*6C
2017-12-01 16:08:15 1512162495.397453: $GPGGA,210816,3946.9584,N,08404.9809,W,2,12,0.80,309.15,M,-33.324,M,,*7A
2017-12-01 16:08:15 1512162495.397520: $GPRMC,210816,A,3946.9584,N,08404.9809,W,0.0000,0.000,011217,,*3F
2017-12-01 16:08:15 1512162495.397581: $GPGSA,A,3,10,11,12,14,18,22,25,31,32,1,24,138,2.0,0.8,1.5*3B
2017-12-01 16:08:16 1512162496.380679: $GPZDA,210817.00,01,12,2017,00,00*6D
2017-12-01 16:08:16 1512162496.380842: $GPGGA,210817,3946.9584,N,08404.9809,W,2,12,0.80,309.15,M,-33.324,M,,*7B
2017-12-01 16:08:16 1512162496.380910: $GPRMC,210817,A,3946.9584,N,08404.9809,W,0.0000,0.000,011217,,*3E
2017-12-01 16:08:16 1512162496.380970: $GPGSA,A,3,10,11,12,14,18,22,25,31,32,1,24,138,2.0,0.8,1.5*3B
2017-12-01 16:08:17 1512162497.715741: $GPGSV,3,1,12,10,59,141,48,11,10,292,33,12,25,060,45,14,61,307,44*70
2017-12-01 16:08:17 1512162497.716013: $GPGSV,3,2,12,18,28,139,43,22,10,312,37,25,36,103,47,31,45,217,48*79
2017-12-01 16:08:17 1512162497.716085: $GPGSV,3,3,12,32,70,358,48,01,18,310,37,24,06,046,30,138,38,213,46*42
2017-12-01 16:08:17 1512162497.829393: $GPZDA,210818.00,01,12,2017,00,00*62
2017-12-01 16:08:17 1512162497.829561: $GPGGA,210818,3946.9584,N,08404.9809,W,2,12,0.80,309.15,M,-33.324,M,,*74
2017-12-01 16:08:17 1512162497.829628: $GPRMC,210818,A,3946.9584,N,08404.9809,W,0.0000,0.000,011217,,*31
2017-12-01 16:08:17 1512162497.829692: $GPGSA,A,3,10,11,12,14,18,22,25,31,32,1,24,138,2.0,0.8,1.5*3B
2017-12-01 16:08:18 1512162498.382867: $GPZDA,210819.00,01,12,2017,00,00*63
2017-12-01 16:08:18 1512162498.383044: $GPGGA,210819,3946.9585,N,08404.9816,W,2,12,0.80,309.07,M,-33.324,M,,*79
2017-12-01 16:08:18 1512162498.383131: $GPRMC,210819,A,3946.9585,N,08404.9816,W,0.0000,0.000,011217,,*3F
2017-12-01 16:08:18 1512162498.383194: $GPGSA,A,3,10,11,12,14,18,22,25,31,32,1,24,138,2.0,0.8,1.5*3B
2017-12-01 16:08:19 1512162499.379613: $GPZDA,210820.00,01,12,2017,00,00*69
2017-12-01 16:08:19 1512162499.379817: $GPGGA,210820,3946.9585,N,08404.9816,W,2,12,0.80,309.07,M,-33.324,M,,*73
2017-12-01 16:08:19 1512162499.379909: $GPRMC,210820,A,3946.9585,N,08404.9816,W,0.0000,0.000,011217,,*35
2017-12-01 16:08:19 1512162499.379972: $GPGSA,A,3,10,11,12,14,18,22,25,31,32,1,24,138,2.0,0.8,1.5*3B
2017-12-01 16:08:20 1512162500.713984: $GPGSV,3,1,12,10,59,141,48,11,10,292,34,12,25,060,45,14,61,307,44*77
2017-12-01 16:08:20 1512162500.714169: $GPGSV,3,2,12,18,28,139,44,22,10,312,38,25,36,103,48,31,45,217,48*7E
2017-12-01 16:08:20 1512162500.714236: $GPGSV,3,3,12,32,70,358,48,01,18,310,36,24,06,046,30,138,38,213,45*40
2017-12-01 16:08:20 1512162500.827328: $GPZDA,210821.00,01,12,2017,00,00*68
2017-12-01 16:08:20 1512162500.827497: $GPGGA,210821,3946.9585,N,08404.9816,W,2,12,0.80,309.07,M,-33.324,M,,*72
2017-12-01 16:08:20 1512162500.827565: $GPRMC,210821,A,3946.9585,N,08404.9816,W,0.0000,0.000,011217,,*34
2017-12-01 16:08:20 1512162500.827628: $GPGSA,A,3,10,11,12,14,18,22,25,31,32,1,24,138,2.0,0.8,1.5*3B
2017-12-01 16:08:21 1512162501.382019: $GPZDA,210822.00,01,12,2017,00,00*6B
2017-12-01 16:08:21 1512162501.382193: $GPGGA,210822,3946.9585,N,08404.9816,W,2,12,0.80,309.07,M,-33.324,M,,*71
2017-12-01 16:08:21 1512162501.382262: $GPRMC,210822,A,3946.9585,N,08404.9816,W,0.0000,0.000,011217,,*37
2017-12-01 16:08:21 1512162501.382323: $GPGSA,A,3,10,11,12,14,18,22,25,31,32,1,24,138,2.0,0.8,1.5*3B
2017-12-01 16:08:22 1512162502.382627: $GPZDA,210823.00,01,12,2017,00,00*6A
2017-12-01 16:08:22 1512162502.382807: $GPGGA,210823,3946.9585,N,08404.9816,W,2,12,0.80,309.07,M,-33.324,M,,*70
2017-12-01 16:08:22 1512162502.382876: $GPRMC,210823,A,3946.9585,N,08404.9816,W,0.0000,0.000,011217,,*36
2017-12-01 16:08:22 1512162502.382937: $GPGSA,A,3,10,11,12,14,18,22,25,31,32,1,24,138,2.0,0.8,1.5*3B
2017-12-01 16:08:23 1512162503.719391: $GPGSV,3,1,12,10,59,141,48,11,10,292,40,12,25,060,45,14,61,307,44*74
2017-12-01 16:08:23 1512162503.719560: $GPGSV,3,2,12,18,28,139,44,22,10,312,38,25,36,103,48,31,45,217,48*7E
2017-12-01 16:08:23 1512162503.719627: $GPGSV,3,3,12,32,70,358,48,01,18,310,35,24,06,046,30,138,38,213,46*40
2017-12-01 16:08:23 1512162503.832761: $GPZDA,210824.00,01,12,2017,00,00*6D
2017-12-01 16:08:23 1512162503.832941: $GPGGA,210824,3946.9585,N,08404.9816,W,2,12,0.80,309.07,M,-33.324,M,,*77
2017-12-01 16:08:23 1512162503.833010: $GPRMC,210824,A,3946.9585,N,08404.9816,W,0.0000,0.000,011217,,*31
2017-12-01 16:08:23 1512162503.833071: $GPGSA,A,3,10,11,12,14,18,22,25,31,32,1,24,138,2.0,0.8,1.5*3B
2017-12-01 16:08:24 1512162504.383927: $GPZDA,210825.00,01,12,2017,00,00*6C
2017-12-01 16:08:24 1512162504.384113: $GPGGA,210825,3946.9585,N,08404.9816,W,2,12,0.80,309.07,M,-33.324,M,,*76
2017-12-01 16:08:24 1512162504.387562: $GPRMC,210825,A,3946.9585,N,08404.9816,W,0.0000,0.000,011217,,*30
2017-12-01 16:08:24 1512162504.387642: $GPGSA,A,3,10,11,12,14,18,22,25,31,32,1,24,138,2.0,0.8,1.5*3B
2017-12-01 16:08:25 1512162505.383414: $GPZDA,210826.00,01,12,2017,00,00*6F
2017-12-01 16:08:25 1512162505.383632: $GPGGA,210826,3946.9585,N,08404.9816,W,2,12,0.80,309.07,M,-33.324,M,,*75
2017-12-01 16:08:25 1512162505.383703: $GPRMC,210826,A,3946.9585,N,08404.9816,W,0.0000,0.000,011217,,*33
2017-12-01 16:08:25 1512162505.383764: $GPGSA,A,3,10,11,12,14,18,22,25,31,32,1,24,138,2.0,0.8,1.5*3B
2017-12-01 16:08:26 1512162506.717836: $GPGSV,3,1,12,10,59,141,48,11,10,292,39,12,25,060,46,14,61,307,44*79
2017-12-01 16:08:26 1512162506.718027: $GPGSV,3,2,12,18,28,139,44,22,10,312,38,25,36,103,48,31,45,217,49*7F
2017-12-01 16:08:26 1512162506.718094: $GPGSV,3,3,12,32,70,358,47,01,18,310,35,24,06,046,30,138,38,213,46*4F
2017-12-01 16:08:26 1512162506.831443: $GPZDA,210827.00,01,12,2017,00,00*6E
2017-12-01 16:08:26 1512162506.831616: $GPGGA,210827,3946.9585,N,08404.9816,W,2,12,0.80,309.07,M,-33.324,M,,*74
2017-12-01 16:08:26 1512162506.831682: $GPRMC,210827,A,3946.9585,N,08404.9816,W,0.0000,0.000,011217,,*32
2017-12-01 16:08:26 1512162506.831744: $GPGSA,A,3,10,11,12,14,18,22,25,31,32,1,24,138,2.0,0.8,1.5*3B
2017-12-01 16:08:27 1512162507.456785: $GPZDA,210828.00,01,12,2017,00,00*61
2017-12-01 16:08:27 1512162507.456953: $GPGGA,210828,3946.9585,N,08404.9816,W,2,12,0.80,309.07,M,-33.324,M,,*7B
2017-12-01 16:08:27 1512162507.457019: $GPRMC,210828,A,3946.9585,N,08404.9816,W,0.0000,0.000,011217,,*3D
2017-12-01 16:08:27 1512162507.457081: $GPGSA,A,3,10,11,12,14,18,22,25,31,32,1,24,138,2.0,0.8,1.5*3B
2017-12-01 16:08:28 1512162508.383902: $GPZDA,210829.00,01,12,2017,00,00*60
2017-12-01 16:08:28 1512162508.384072: $GPGGA,210829,3946.9585,N,08404.9816,W,2,12,0.80,309.07,M,-33.324,M,,*7A
2017-12-01 16:08:28 1512162508.384139: $GPRMC,210829,A,3946.9585,N,08404.9816,W,0.0000,0.000,011217,,*3C
2017-12-01 16:08:28 1512162508.384201: $GPGSA,A,3,10,11,12,14,18,22,25,31,32,1,24,138,2.0,0.8,1.5*3B
2017-12-01 16:08:29 1512162509.718062: $GPGSV,3,1,12,10,59,141,49,11,10,292,37,12,25,060,45,14,61,307,45*74
2017-12-01 16:08:29 1512162509.718300: $GPGSV,3,2,12,18,28,139,44,22,10,312,38,25,36,103,48,31,45,217,48*7E
2017-12-01 16:08:29 1512162509.718374: $GPGSV,3,3,12,32,70,358,48,01,18,310,30,24,06,046,30,138,38,213,45*46
2017-12-01 16:08:29 1512162509.831849: $GPZDA,210830.00,01,12,2017,00,00*68
2017-12-01 16:08:29 1512162509.832011: $GPGGA,210830,3946.9585,N,08404.9816,W,2,12,0.80,309.07,M,-33.324,M,,*72
2017-12-01 16:08:29 1512162509.832077: $GPRMC,210830,A,3946.9585,N,08404.9816,W,0.0000,0.000,011217,,*34
2017-12-01 16:08:29 1512162509.832138: $GPGSA,A,3,10,11,12,14,18,22,25,31,32,1,24,138,2.0,0.8,1.5*3B
