2017-12-01 15:51:49 1512161509.546980: {"class":"VERSION","release":"3.16","rev":"3.16-4","proto_major":3,"proto_minor":11}
2017-12-01 15:51:49 1512161509.547381: {"class":"DEVICES","devices":[{"class":"DEVICE","path":"/dev/ttyUSB0","driver":"SiRF","subtype":"9\u0006GSD4e_4.1.2-P1_RPATCH.05-F-GPS-4R-1510281 11/03/2015 307","activated":"2017-12-01T20:51:49.309Z","flags":1,"native":1,"bps":4800,"parity":"N","stopbits":1,"cycle":1.00}]}
2017-12-01 15:51:49 1512161509.547506: {"class":"WATCH","enable":true,"json":false,"nmea":true,"raw":0,"scaled":false,"timing":false,"split24":false,"pps":false}
2017-12-01 15:51:49 1512161509.758380: $GPGSV,3,1,12,01,15,316,42,10,67,135,48,11,11,298,28,12,25,069,38*7D
2017-12-01 15:51:49 1512161509.758562: $GPGSV,3,2,12,14,56,295,42,18,35,136,47,25,31,112,42,31,38,213,49*78
2017-12-01 15:51:49 1512161509.758627: $GPGSV,3,3,12,32,69,336,47,22,04,310,33,24,12,045,35,138,38,213,46*46
2017-12-01 15:51:49 1512161509.872046: $GPZDA,205150.00,01,12,2017,00,00*63
2017-12-01 15:51:49 1512161509.872215: $GPGGA,205150,3946.9559,N,08404.9833,W,2,12,0.80,310.05,M,-33.324,M,,*75
2017-12-01 15:51:49 1512161509.872281: $GPRMC,205150,A,3946.9559,N,08404.9833,W,0.0000,0.000,011217,,*39
2017-12-01 15:51:49 1512161509.872342: $GPGSA,A,3,1,10,11,12,14,18,25,31,32,22,24,138,2.0,0.8,1.5*3B
2017-12-01 15:51:50 1512161510.439152: $GPZDA,205151.00,01,12,2017,00,00*62
2017-12-01 15:51:50 1512161510.439325: $GPGGA,205151,3946.9559,N,08404.9833,W,2,12,0.80,310.05,M,-33.324,M,,*74
2017-12-01 15:51:50 1512161510.439392: $GPRMC,205151,A,3946.9559,N,08404.9833,W,0.0000,0.000,011217,,*38
2017-12-01 15:51:50 1512161510.439454: $GPGSA,A,3,1,10,11,12,14,18,25,31,32,22,24,138,2.0,0.8,1.5*3B
2017-12-01 15:51:51 1512161511.439676: $GPZDA,205152.00,01,12,2017,00,00*61
2017-12-01 15:51:51 1512161511.439847: $GPGGA,205152,3946.9559,N,08404.9833,W,2,12,0.80,310.05,M,-33.324,M,,*77
2017-12-01 15:51:51 1512161511.439913: $GPRMC,205152,A,3946.9559,N,08404.9833,W,0.0000,0.000,011217,,*3B
2017-12-01 15:51:51 1512161511.439974: $GPGSA,A,3,1,10,11,12,14,18,25,31,32,22,24,138,2.0,0.8,1.5*3B
2017-12-01 15:51:52 1512161512.775017: $GPGSV,3,1,12,01,15,316,42,10,67,135,48,11,11,298,23,12,25,069,38*76
2017-12-01 15:51:52 1512161512.775186: $GPGSV,3,2,12,14,56,295,42,18,35,136,47,25,31,112,42,31,38,213,48*79
2017-12-01 15:51:52 1512161512.775255: $GPGSV,3,3,12,32,69,336,48,22,04,310,30,24,12,045,35,138,38,213,45*49
2017-12-01 15:51:52 1512161512.888929: $GPZDA,205153.00,01,12,2017,00,00*60
2017-12-01 15:51:52 1512161512.889098: $GPGGA,205153,3946.9559,N,08404.9833,W,2,12,0.80,310.05,M,-33.324,M,,*76
2017-12-01 15:51:52 1512161512.889164: $GPRMC,205153,A,3946.9559,N,08404.9833,W,0.0000,0.000,011217,,*3A
2017-12-01 15:51:52 1512161512.889225: $GPGSA,A,3,1,10,11,12,14,18,25,31,32,22,24,138,2.0,0.8,1.5*3B
2017-12-01 15:51:53 1512161513.439403: $GPZDA,205154.00,01,12,2017,00,00*67
2017-12-01 15:51:53 1512161513.439581: $GPGGA,205154,3946.9559,N,08404.9833,W,2,12,0.80,310.05,M,-33.324,M,,*71
2017-12-01 15:51:53 1512161513.439650: $GPRMC,205154,A,3946.9559,N,08404.9833,W,0.0000,0.000,011217,,*3D
2017-12-01 15:51:53 1512161513.439711: $GPGSA,A,3,1,10,11,12,14,18,25,31,32,22,24,138,2.0,0.8,1.5*3B
2017-12-01 15:51:54 1512161514.440218: $GPZDA,205155.00,01,12,2017,00,00*66
2017-12-01 15:51:54 1512161514.440390: $GPGGA,205155,3946.9559,N,08404.9833,W,2,12,0.80,310.05,M,-33.324,M,,*70
2017-12-01 15:51:54 1512161514.440478: $GPRMC,205155,A,3946.9559,N,08404.9833,W,0.0000,0.000,011217,,*3C
2017-12-01 15:51:54 1512161514.440557: $GPGSA,A,3,1,10,11,12,14,18,25,31,32,22,24,138,2.0,0.8,1.5*3B
2017-12-01 15:51:55 1512161515.759730: $GPGSV,3,1,12,01,15,316,41,10,67,135,47,11,11,298,24,12,25,069,38*7D
2017-12-01 15:51:55 1512161515.759912: $GPGSV,3,2,12,14,56,295,42,18,35,136,47,25,31,112,41,31,38,213,48*7A
2017-12-01 15:51:55 1512161515.759979: $GPGSV,3,3,12,32,69,336,47,22,04,310,30,24,12,045,34,138,38,213,46*44
2017-12-01 15:51:55 1512161515.873611: $GPZDA,205156.00,01,12,2017,00,00*65
2017-12-01 15:51:55 1512161515.873780: $GPGGA,205156,3946.9559,N,08404.9833,W,2,12,0.80,310.05,M,-33.324,M,,*73
2017-12-01 15:51:55 1512161515.873899: $GPRMC,205156,A,3946.9559,N,08404.9833,W,0.0000,0.000,011217,,*3F
2017-12-01 15:51:55 1512161515.873962: $GPGSA,A,3,1,10,11,12,14,18,25,31,32,22,24,138,2.0,0.8,1.5*3B
2017-12-01 15:51:56 1512161516.498415: $GPZDA,205157.00,01,12,2017,00,00*64
2017-12-01 15:51:56 1512161516.498601: $GPGGA,205157,3946.9559,N,08404.9833,W,2,12,0.80,310.05,M,-33.324,M,,*72
2017-12-01 15:51:56 1512161516.498670: $GPRMC,205157,A,3946.9559,N,08404.9833,W,0.0000,0.000,011217,,*3E
2017-12-01 15:51:56 1512161516.498731: $GPGSA,A,3,1,10,11,12,14,18,25,31,32,22,24,138,2.0,0.8,1.5*3B
2017-12-01 15:51:57 1512161517.422213: $GPZDA,205158.00,01,12,2017,00,00*6B
2017-12-01 15:51:57 1512161517.422404: $GPGGA,205158,3946.9560,N,08404.9839,W,2,12,0.80,309.97,M,-33.324,M,,*7E
2017-12-01 15:51:57 1512161517.422473: $GPRMC,205158,A,3946.9560,N,08404.9839,W,0.0000,0.000,011217,,*31
2017-12-01 15:51:57 1512161517.422551: $GPGSA,A,3,1,10,11,12,14,18,25,31,32,22,24,138,2.0,0.8,1.5*3B
2017-12-01 15:51:58 1512161518.757481: $GPGSV,3,1,12,01,15,316,41,10,67,135,47,11,11,298,25,12,25,069,39*7D
2017-12-01 15:51:58 1512161518.757691: $GPGSV,3,2,12,14,56,295,42,18,35,136,47,25,31,112,40,31,38,213,48*7B
2017-12-01 15:51:58 1512161518.757760: $GPGSV,3,3,12,32,69,336,47,22,04,310,31,24,12,045,35,138,38,213,45*47
2017-12-01 15:51:58 1512161518.870869: $GPZDA,205159.00,01,12,2017,00,00*6A
2017-12-01 15:51:58 1512161518.871005: $GPGGA,205159,3946.9560,N,08404.9839,W,2,12,0.80,309.97,M,-33.324,M,,*7F
2017-12-01 15:51:58 1512161518.871072: $GPRMC,205159,A,3946.9560,N,08404.9839,W,0.0000,0.000,011217,,*30
2017-12-01 15:51:58 1512161518.871134: $GPGSA,A,3,1,10,11,12,14,18,25,31,32,22,24,138,2.0,0.8,1.5*3B
2017-12-01 15:51:59 1512161519.423415: $GPZDA,205200.00,01,12,2017,00,00*65
2017-12-01 15:51:59 1512161519.423597: $GPGGA,205200,3946.9560,N,08404.9839,W,2,12,0.80,309.97,M,-33.324,M,,*70
2017-12-01 15:51:59 1512161519.423665: $GPRMC,205200,A,3946.9560,N,08404.9839,W,0.0000,0.000,011217,,*3F
2017-12-01 15:51:59 1512161519.423726: $GPGSA,A,3,1,10,11,12,14,18,25,31,32,22,24,138,2.0,0.8,1.5*3B
2017-12-01 15:52:00 1512161520.424366: $GPZDA,205201.00,01,12,2017,00,00*64
2017-12-01 15:52:00 1512161520.424574: $GPGGA,205201,3946.9560,N,08404.9839,W,2,12,0.80,309.97,M,-33.324,M,,*71
2017-12-01 15:52:00 1512161520.424642: $GPRMC,205201,A,3946.9560,N,08404.9839,W,0.0000,0.000,011217,,*3E
2017-12-01 15:52:00 1512161520.424703: $GPGSA,A,3,1,10,11,12,14,18,25,31,32,22,24,138,2.0,0.8,1.5*3B
2017-12-01 15:52:01 1512161521.759257: $GPGSV,3,1,12,01,15,316,40,10,67,135,47,11,11,298,25,12,25,069,39*7C
2017-12-01 15:52:02 1512161522.501621: $GPGSV,3,2,12,14,56,295,42,18,35,136,47,25,31,112,41,31,38,213,48*7A
2017-12-01 15:52:02 1512161522.501792: $GPGSV,3,3,12,32,69,336,47,22,04,310,14,24,12,045,34,138,38,213,46*42
2017-12-01 15:52:02 1512161522.501897: $GPZDA,205202.00,01,12,2017,00,00*67
2017-12-01 15:52:02 1512161522.501956: $GPGGA,205202,3946.9560,N,08404.9839,W,2,12,0.80,309.97,M,-33.324,M,,*72
2017-12-01 15:52:02 1512161522.502017: $GPRMC,205202,A,3946.9560,N,08404.9839,W,0.0000,0.000,011217,,*3D
2017-12-01 15:52:02 1512161522.502076: $GPGSA,A,3,1,10,11,12,14,18,25,31,32,22,24,138,2.0,0.8,1.5*3B
2017-12-01 15:52:02 1512161522.502134: $GPZDA,205203.00,01,12,2017,00,00*66
2017-12-01 15:52:02 1512161522.502188: $GPGGA,205203,3946.9560,N,08404.9839,W,2,12,0.80,309.97,M,-33.324,M,,*73
2017-12-01 15:52:02 1512161522.502248: $GPRMC,205203,A,3946.9560,N,08404.9839,W,0.0000,0.000,011217,,*3C
2017-12-01 15:52:02 1512161522.502307: $GPGSA,A,3,1,10,11,12,14,18,25,31,32,22,24,138,2.0,0.8,1.5*3B
2017-12-01 15:52:03 1512161523.422994: $GPZDA,205204.00,01,12,2017,00,00*61
2017-12-01 15:52:03 1512161523.423165: $GPGGA,205204,3946.9560,N,08404.9839,W,2,12,0.80,309.97,M,-33.324,M,,*74
2017-12-01 15:52:03 1512161523.423231: $GPRMC,205204,A,3946.9560,N,08404.9839,W,0.0000,0.000,011217,,*3B
2017-12-01 15:52:03 1512161523.423292: $GPGSA,A,3,1,10,11,12,14,18,25,31,32,22,24,138,2.0,0.8,1.5*3B
2017-12-01 15:52:04 1512161524.758706: $GPGSV,3,1,12,01,15,316,40,10,67,135,47,11,11,298,30,12,25,069,39*78
2017-12-01 15:52:04 1512161524.758891: $GPGSV,3,2,12,14,56,295,41,18,35,136,47,25,31,112,40,31,38,213,49*79
2017-12-01 15:52:04 1512161524.758958: $GPGSV,3,3,12,32,69,336,47,22,04,310,30,24,12,045,34,138,38,213,46*44
2017-12-01 15:52:04 1512161524.872122: $GPZDA,205205.00,01,12,2017,00,00*60
2017-12-01 15:52:04 1512161524.872263: $GPGGA,205205,3946.9560,N,08404.9839,W,2,12,0.80,309.97,M,-33.324,M,,*75
2017-12-01 15:52:04 1512161524.872329: $GPRMC,205205,A,3946.9560,N,08404.9839,W,0.0000,0.000,011217,,*3A
2017-12-01 15:52:04 1512161524.872410: $GPGSA,A,3,1,10,11,12,14,18,25,31,32,22,24,138,2.0,0.8,1.5*3B
2017-12-01 15:52:05 1512161525.421763: $GPZDA,205206.00,01,12,2017,00,00*63
2017-12-01 15:52:05 1512161525.421934: $GPGGA,205206,3946.9560,N,08404.9839,W,2,12,0.80,309.97,M,-33.324,M,,*76
2017-12-01 15:52:05 1512161525.422000: $GPRMC,205206,A,3946.9560,N,08404.9839,W,0.0000,0.000,011217,,*39
2017-12-01 15:52:05 1512161525.422062: $GPGSA,A,3,1,10,11,12,14,18,25,31,32,22,24,138,2.0,0.8,1.5*3B
2017-12-01 15:52:06 1512161526.417374: $GPZDA,205207.00,01,12,2017,00,00*62
2017-12-01 15:52:06 1512161526.417563: $GPGGA,205207,3946.9563,N,08404.9839,W,2,12,0.80,309.20,M,-33.324,M,,*78
2017-12-01 15:52:06 1512161526.417631: $GPRMC,205207,A,3946.9563,N,08404.9839,W,0.0000,0.000,011217,,*3B
2017-12-01 15:52:06 1512161526.417693: $GPGSA,A,3,1,10,11,12,14,18,25,31,32,22,24,138,2.0,0.8,1.5*3B
2017-12-01 15:52:07 1512161527.753061: $GPGSV,3,1,12,01,15,316,39,10,67,135,48,11,11,298,33,12,25,069,38*7B
2017-12-01 15:52:07 1512161527.753243: $GPGSV,3,2,12,14,56,295,42,18,35,136,47,25,31,112,40,31,38,213,48*7B
2017-12-01 15:52:07 1512161527.753310: $GPGSV,3,3,12,32,69,336,47,22,04,310,31,24,12,045,34,138,38,213,46*45
2017-12-01 15:52:07 1512161527.866511: $GPZDA,205208.00,01,12,2017,00,00*6D
2017-12-01 15:52:07 1512161527.866684: $GPGGA,205208,3946.9563,N,08404.9839,W,2,12,0.80,309.20,M,-33.324,M,,*77
2017-12-01 15:52:07 1512161527.866751: $GPRMC,205208,A,3946.9563,N,08404.9839,W,0.0000,0.000,011217,,*34
2017-12-01 15:52:07 1512161527.866812: $GPGSA,A,3,1,10,11,12,14,18,25,31,32,22,24,138,2.0,0.8,1.5*3B
2017-12-01 15:52:08 1512161528.422442: $GPZDA,205209.00,01,12,2017,00,00*6C
2017-12-01 15:52:08 1512161528.422637: $GPGGA,205209,3946.9563,N,08404.9839,W,2,12,0.80,309.20,M,-33.324,M,,*76
2017-12-01 15:52:08 1512161528.422704: $GPRMC,205209,A,3946.9563,N,08404.9839,W,0.0000,0.000,011217,,*35
2017-12-01 15:52:08 1512161528.422765: $GPGSA,A,3,1,10,11,12,14,18,25,31,32,22,24,138,2.0,0.8,1.5*3B
2017-12-01 15:52:09 1512161529.422436: $GPZDA,205210.00,01,12,2017,00,00*64
2017-12-01 15:52:09 1512161529.422730: $GPGGA,205210,3946.9563,N,08404.9839,W,2,12,0.80,309.20,M,-33.324,M,,*7E
2017-12-01 15:52:09 1512161529.422994: $GPRMC,205210,A,3946.9563,N,08404.9839,W,0.0000,0.000,011217,,*3D
2017-12-01 15:52:09 1512161529.423204: $GPGSA,A,3,1,10,11,12,14,18,25,31,32,22,24,138,2.0,0.8,1.5*3B
