2018-01-12 02:55:00 1515743700.794535: {"class":"VERSION","release":"3.16","rev":"3.16-4","proto_major":3,"proto_minor":11}
2018-01-12 02:55:00 1515743700.794877: {"class":"DEVICES","devices":[{"class":"DEVICE","path":"/dev/ttyUSB0","driver":"SiRF","subtype":"9\u0006GSD4e_4.1.2-P1_RPATCH.05-F-GPS-4R-1510281 11/03/2015 307","activated":"2018-01-12T07:55:00.489Z","flags":1,"native":1,"bps":4800,"parity":"N","stopbits":1,"cycle":1.00}]}
2018-01-12 02:55:00 1515743700.794989: {"class":"WATCH","enable":true,"json":false,"nmea":true,"raw":0,"scaled":false,"timing":false,"split24":false,"pps":false}
2018-01-12 02:55:01 1515743701.346354: $GPZDA,075502.00,12,01,2018,00,00*6A
2018-01-12 02:55:01 1515743701.346515: $GPGGA,075502,3946.9635,N,08404.9836,W,2,11,0.80,315.10,M,-33.324,M,,*7D
2018-01-12 02:55:01 1515743701.346581: $GPRMC,075502,A,3946.9635,N,08404.9836,W,0.0000,0.000,120118,,*3C
2018-01-12 02:55:01 1515743701.346642: $GPGSA,A,3,2,6,12,17,19,24,3,5,25,28,138,,2.4,0.8,2.1*01
2018-01-12 02:55:02 1515743702.689557: $GPGSV,3,1,12,02,53,259,46,06,77,348,51,12,39,309,51,17,44,088,43*7B
2018-01-12 02:55:02 1515743702.689737: $GPGSV,3,2,12,19,61,067,40,24,12,259,33,03,08,036,28,05,10,193,30*72
2018-01-12 02:55:02 1515743702.689803: $GPGSV,3,3,12,09,05,103,15,25,04,322,29,28,06,151,21,138,38,213,38*4B
2018-01-12 02:55:02 1515743702.803276: $GPZDA,075503.00,12,01,2018,00,00*6B
2018-01-12 02:55:02 1515743702.803439: $GPGGA,075503,3946.9635,N,08404.9836,W,2,12,0.80,315.10,M,-33.324,M,,*7F
2018-01-12 02:55:02 1515743702.803505: $GPRMC,075503,A,3946.9635,N,08404.9836,W,0.0000,0.000,120118,,*3D
2018-01-12 02:55:02 1515743702.803569: $GPGSA,A,3,2,6,12,17,19,24,3,5,9,25,28,138,2.4,0.8,2.1*38
2018-01-12 02:55:03 1515743703.398877: $GPZDA,075504.00,12,01,2018,00,00*6C
2018-01-12 02:55:03 1515743703.399054: $GPGGA,075504,3946.9639,N,08404.9836,W,2,12,0.80,315.74,M,-33.324,M,,*76
2018-01-12 02:55:03 1515743703.399125: $GPRMC,075504,A,3946.9639,N,08404.9836,W,0.0000,0.000,120118,,*36
2018-01-12 02:55:03 1515743703.399190: $GPGSA,A,3,2,6,12,17,19,24,3,5,9,25,28,138,2.4,0.8,2.1*38
2018-01-12 02:55:04 1515743704.393049: $GPZDA,075505.00,12,01,2018,00,00*6D
2018-01-12 02:55:04 1515743704.393230: $GPGGA,075505,3946.9639,N,08404.9836,W,2,12,0.80,315.74,M,-33.324,M,,*77
2018-01-12 02:55:04 1515743704.393299: $GPRMC,075505,A,3946.9639,N,08404.9836,W,0.0000,0.000,120118,,*37
2018-01-12 02:55:04 1515743704.393361: $GPGSA,A,3,2,6,12,17,19,24,3,5,9,25,28,138,2.4,0.8,2.1*38
2018-01-12 02:55:05 1515743705.727396: $GPGSV,3,1,12,02,53,259,46,06,77,348,50,12,39,309,51,17,44,088,43*7A
2018-01-12 02:55:05 1515743705.727594: $GPGSV,3,2,12,19,61,067,40,24,12,259,32,03,08,036,28,05,10,193,30*73
2018-01-12 02:55:05 1515743705.727664: $GPGSV,3,3,12,23,05,070,00,25,04,322,30,28,06,151,21,138,38,213,38*4A
2018-01-12 02:55:05 1515743705.840730: $GPZDA,075506.00,12,01,2018,00,00*6E
2018-01-12 02:55:05 1515743705.840904: $GPGGA,075506,3946.9639,N,08404.9836,W,2,11,0.80,315.74,M,-33.324,M,,*77
2018-01-12 02:55:05 1515743705.840975: $GPRMC,075506,A,3946.9639,N,08404.9836,W,0.0000,0.000,120118,,*34
2018-01-12 02:55:05 1515743705.841039: $GPGSA,A,3,2,6,12,17,19,24,3,5,25,28,138,,2.4,0.8,2.1*01
2018-01-12 02:55:06 1515743706.391691: $GPZDA,075507.00,12,01,2018,00,00*6F
2018-01-12 02:55:06 1515743706.391853: $GPGGA,075507,3946.9639,N,08404.9836,W,2,11,0.80,315.74,M,-33.324,M,,*76
2018-01-12 02:55:06 1515743706.391924: $GPRMC,075507,A,3946.9639,N,08404.9836,W,0.0000,0.000,120118,,*35
2018-01-12 02:55:06 1515743706.391988: $GPGSA,A,3,2,6,12,17,19,24,3,5,25,28,138,,2.4,0.8,2.1*01
2018-01-12 02:55:07 1515743707.393974: $GPZDA,075508.00,12,01,2018,00,00*60
2018-01-12 02:55:07 1515743707.394162: $GPGGA,075508,3946.9639,N,08404.9836,W,2,11,0.80,315.74,M,-33.324,M,,*79
2018-01-12 02:55:07 1515743707.394307: $GPRMC,075508,A,3946.9639,N,08404.9836,W,0.0000,0.000,120118,,*3A
2018-01-12 02:55:07 1515743707.394372: $GPGSA,A,3,2,6,12,17,19,24,3,5,25,28,138,,2.4,0.8,2.1*01
2018-01-12 02:55:08 1515743708.683271: $GPGSV,3,1,12,02,53,259,46,06,77,348,50,12,39,309,51,17,44,088,43*7A
2018-01-12 02:55:08 1515743708.683466: $GPGSV,3,2,12,19,61,067,41,24,12,259,33,03,08,036,29,05,10,193,30*72
2018-01-12 02:55:08 1515743708.683533: $GPGSV,3,3,12,23,05,070,00,25,04,322,29,28,06,151,22,138,38,213,34*4D
2018-01-12 02:55:08 1515743708.796823: $GPZDA,075509.00,12,01,2018,00,00*61
2018-01-12 02:55:08 1515743708.796991: $GPGGA,075509,3946.9639,N,08404.9836,W,2,11,0.80,315.74,M,-33.324,M,,*78
2018-01-12 02:55:08 1515743708.797078: $GPRMC,075509,A,3946.9639,N,08404.9836,W,0.0000,0.000,120118,,*3B
2018-01-12 02:55:08 1515743708.797141: $GPGSA,A,3,2,6,12,17,19,24,3,5,25,28,138,,2.4,0.8,2.1*01
2018-01-12 02:55:09 1515743709.423374: $GPZDA,075510.00,12,01,2018,00,00*69
2018-01-12 02:55:09 1515743709.423546: $GPGGA,075510,3946.9639,N,08404.9836,W,2,11,0.80,315.74,M,-33.324,M,,*70
2018-01-12 02:55:09 1515743709.423612: $GPRMC,075510,A,3946.9639,N,08404.9836,W,0.0000,0.000,120118,,*33
2018-01-12 02:55:09 1515743709.423673: $GPGSA,A,3,2,6,12,17,19,24,3,5,25,28,138,,2.4,0.8,2.1*01
2018-01-12 02:55:10 1515743710.392053: $GPZDA,075511.00,12,01,2018,00,00*68
2018-01-12 02:55:10 1515743710.392238: $GPGGA,075511,3946.9639,N,08404.9836,W,2,11,0.80,315.74,M,-33.324,M,,*71
2018-01-12 02:55:10 1515743710.392305: $GPRMC,075511,A,3946.9639,N,08404.9836,W,0.0000,0.000,120118,,*32
2018-01-12 02:55:10 1515743710.392366: $GPGSA,A,3,2,6,12,17,19,24,3,5,25,28,138,,2.4,0.8,2.1*01
2018-01-12 02:55:11 1515743711.732465: $GPGSV,3,1,12,02,53,259,46,06,77,348,51,12,39,309,51,17,44,088,43*7B
2018-01-12 02:55:11 1515743711.732646: $GPGSV,3,2,12,19,61,067,41,24,12,259,33,03,08,036,30,05,10,193,30*7A
2018-01-12 02:55:11 1515743711.732711: $GPGSV,3,3,12,23,05,070,00,25,04,322,30,28,06,151,22,138,38,213,36*47
2018-01-12 02:55:11 1515743711.846250: $GPZDA,075512.00,12,01,2018,00,00*6B
2018-01-12 02:55:11 1515743711.846416: $GPGGA,075512,3946.9639,N,08404.9836,W,2,11,0.80,315.74,M,-33.324,M,,*72
2018-01-12 02:55:11 1515743711.846482: $GPRMC,075512,A,3946.9639,N,08404.9836,W,0.0000,0.000,120118,,*31
2018-01-12 02:55:11 1515743711.846542: $GPGSA,A,3,2,6,12,17,19,24,3,5,25,28,138,,2.4,0.8,2.1*01
2018-01-12 02:55:12 1515743712.391633: $GPZDA,075513.00,12,01,2018,00,00*6A
2018-01-12 02:55:12 1515743712.391800: $GPGGA,075513,3946.9640,N,08404.9837,W,2,11,0.80,317.15,M,-33.324,M,,*79
2018-01-12 02:55:12 1515743712.391868: $GPRMC,075513,A,3946.9640,N,08404.9837,W,0.0000,0.000,120118,,*3F
2018-01-12 02:55:12 1515743712.391930: $GPGSA,A,3,2,6,12,17,19,24,3,5,25,28,138,,2.4,0.8,2.1*01
2018-01-12 02:55:13 1515743713.352926: $GPZDA,075514.00,12,01,2018,00,00*6D
2018-01-12 02:55:13 1515743713.353123: $GPGGA,075514,3946.9640,N,08404.9837,W,2,11,0.80,317.15,M,-33.324,M,,*7E
2018-01-12 02:55:13 1515743713.353208: $GPRMC,075514,A,3946.9640,N,08404.9837,W,0.0000,0.000,120118,,*38
2018-01-12 02:55:13 1515743713.353269: $GPGSA,A,3,2,6,12,17,19,24,3,5,25,28,138,,2.4,0.8,2.1*01
2018-01-12 02:55:14 1515743714.722742: $GPGSV,3,1,12,02,53,259,46,06,77,348,51,12,39,309,51,17,44,088,44*7C
2018-01-12 02:55:14 1515743714.722924: $GPGSV,3,2,12,19,61,067,41,24,12,259,32,03,08,036,30,05,10,193,30*7B
2018-01-12 02:55:14 1515743714.722989: $GPGSV,3,3,12,23,05,070,00,25,04,322,30,28,06,151,23,138,38,213,38*48
2018-01-12 02:55:14 1515743714.836084: $GPZDA,075515.00,12,01,2018,00,00*6C
2018-01-12 02:55:14 1515743714.836243: $GPGGA,075515,3946.9640,N,08404.9837,W,2,11,0.80,317.15,M,-33.324,M,,*7F
2018-01-12 02:55:14 1515743714.836311: $GPRMC,075515,A,3946.9640,N,08404.9837,W,0.0000,0.000,120118,,*39
2018-01-12 02:55:14 1515743714.836372: $GPGSA,A,3,2,6,12,17,19,24,3,5,25,28,138,,2.4,0.8,2.1*01
2018-01-12 02:55:15 1515743715.357116: $GPZDA,075516.00,12,01,2018,00,00*6F
2018-01-12 02:55:15 1515743715.357319: $GPGGA,075516,3946.9640,N,08404.9837,W,2,11,0.80,317.15,M,-33.324,M,,*7C
2018-01-12 02:55:15 1515743715.357402: $GPRMC,075516,A,3946.9640,N,08404.9837,W,0.0000,0.000,120118,,*3A
2018-01-12 02:55:15 1515743715.357465: $GPGSA,A,3,2,6,12,17,19,24,3,5,25,28,138,,2.4,0.8,2.1*01
2018-01-12 02:55:16 1515743716.398104: $GPZDA,075517.00,12,01,2018,00,00*6E
2018-01-12 02:55:16 1515743716.398346: $GPGGA,075517,3946.9640,N,08404.9837,W,2,11,0.80,317.15,M,-33.324,M,,*7D
2018-01-12 02:55:16 1515743716.398415: $GPRMC,075517,A,3946.9640,N,08404.9837,W,0.0000,0.000,120118,,*3B
2018-01-12 02:55:16 1515743716.398477: $GPGSA,A,3,2,6,12,17,19,24,3,5,25,28,138,,2.4,0.8,2.1*01
2018-01-12 02:55:17 1515743717.727327: $GPGSV,3,1,12,02,53,259,46,06,77,348,51,12,39,309,51,17,44,088,44*7C
2018-01-12 02:55:17 1515743717.727507: $GPGSV,3,2,12,19,61,067,41,24,12,259,32,03,08,036,29,05,10,193,30*73
2018-01-12 02:55:17 1515743717.727572: $GPGSV,3,3,12,23,05,070,00,25,04,322,29,28,06,151,24,138,38,213,40*48
2018-01-12 02:55:17 1515743717.844898: $GPZDA,075518.00,12,01,2018,00,00*61
2018-01-12 02:55:17 1515743717.845298: $GPGGA,075518,3946.9640,N,08404.9837,W,2,11,0.80,317.15,M,-33.324,M,,*72
2018-01-12 02:55:17 1515743717.845459: $GPRMC,075518,A,3946.9640,N,08404.9837,W,0.0000,0.000,120118,,*34
2018-01-12 02:55:17 1515743717.845577: $GPGSA,A,3,2,6,12,17,19,24,3,5,25,28,138,,2.4,0.8,2.1*01
2018-01-12 02:55:18 1515743718.353073: $GPZDA,075519.00,12,01,2018,00,00*60
2018-01-12 02:55:18 1515743718.353262: $GPGGA,075519,3946.9640,N,08404.9837,W,2,11,0.80,317.15,M,-33.324,M,,*73
2018-01-12 02:55:18 1515743718.353328: $GPRMC,075519,A,3946.9640,N,08404.9837,W,0.0000,0.000,120118,,*35
2018-01-12 02:55:18 1515743718.353389: $GPGSA,A,3,2,6,12,17,19,24,3,5,25,28,138,,2.4,0.8,2.1*01
2018-01-12 02:55:19 1515743719.398466: $GPZDA,075520.00,12,01,2018,00,00*6A
2018-01-12 02:55:19 1515743719.398634: $GPGGA,075520,3946.9640,N,08404.9837,W,2,11,0.80,317.15,M,-33.324,M,,*79
2018-01-12 02:55:19 1515743719.398701: $GPRMC,075520,A,3946.9640,N,08404.9837,W,0.0000,0.000,120118,,*3F
2018-01-12 02:55:19 1515743719.398763: $GPGSA,A,3,2,6,12,17,19,24,3,5,25,28,138,,2.4,0.8,2.1*01
2018-01-12 02:55:20 1515743720.690191: $GPGSV,3,1,12,02,53,259,46,06,77,348,51,12,39,309,51,17,44,088,44*7C
2018-01-12 02:55:20 1515743720.690370: $GPGSV,3,2,12,19,61,067,42,24,12,259,32,03,08,036,29,05,10,193,30*70
2018-01-12 02:55:20 1515743720.690436: $GPGSV,3,3,12,09,05,103,26,25,04,322,29,28,06,151,24,138,38,213,38*4E
2018-01-12 02:55:20 1515743720.802541: $GPZDA,075521.00,12,01,2018,00,00*6B
2018-01-12 02:55:20 1515743720.802678: $GPGGA,075521,3946.9647,N,08404.9836,W,2,12,0.80,317.02,M,-33.324,M,,*7B
2018-01-12 02:55:20 1515743720.802743: $GPRMC,075521,A,3946.9647,N,08404.9836,W,0.0000,0.000,120118,,*38
2018-01-12 02:55:20 1515743720.802804: $GPGSA,A,3,2,6,12,17,19,24,3,5,9,25,28,138,2.4,0.8,2.1*38
