2018-01-11 20:12:51 1515719571.018377: {"class":"VERSION","release":"3.16","rev":"3.16-4","proto_major":3,"proto_minor":11}
2018-01-11 20:12:51 1515719571.018739: {"class":"DEVICES","devices":[{"class":"DEVICE","path":"/dev/ttyUSB0","driver":"SiRF","subtype":"9\u0006GSD4e_4.1.2-P1_RPATCH.05-F-GPS-4R-1510281 11/03/2015 307","activated":"2018-01-12T01:12:50.988Z","flags":1,"native":1,"bps":4800,"parity":"N","stopbits":1,"cycle":1.00}]}
2018-01-11 20:12:51 1515719571.018852: {"class":"WATCH","enable":true,"json":false,"nmea":true,"raw":0,"scaled":false,"timing":false,"split24":false,"pps":false}
2018-01-11 20:12:51 1515719571.101913: $GPZDA,011251.79,12,01,2018,00,00*67
2018-01-11 20:12:51 1515719571.102082: $GPGGA,011251,3946.9591,N,08404.9859,W,1,10,1.00,299.96,M,-33.324,M,,*7A
2018-01-11 20:12:51 1515719571.102146: $GPRMC,011251,A,3946.9591,N,08404.9859,W,0.2758,308.233,120118,,*3A
2018-01-11 20:12:51 1515719571.102207: $GPGSA,A,3,7,8,9,11,16,23,27,28,30,138,,,4.0,1.0,3.5*37
2018-01-11 20:12:52 1515719572.138329: $GPZDA,011252.48,12,01,2018,00,00*66
2018-01-11 20:12:52 1515719572.138497: $GPGGA,011252,3946.9590,N,08404.9852,W,1,10,1.00,300.04,M,-33.324,M,,*79
2018-01-11 20:12:52 1515719572.138564: $GPRMC,011252,A,3946.9590,N,08404.9852,W,0.2422,93.794,120118,,*04
2018-01-11 20:12:52 1515719572.138624: $GPGSA,A,3,7,8,9,11,16,23,27,28,30,138,,,4.0,1.0,3.5*37
2018-01-11 20:12:52 1515719572.138681: $GPGBS,011252,14.62,M,24.83,M,80.38,M*04
2018-01-11 20:12:53 1515719573.234500: $GPGSV,3,1,10,07,56,315,40,08,74,127,47,09,47,228,42,11,21,168,47*7A
2018-01-11 20:12:53 1515719573.234674: $GPGSV,3,2,10,16,22,061,46,23,28,189,48,27,46,052,50,28,15,259,40*7D
2018-01-11 20:12:53 1515719573.234740: $GPGSV,3,3,10,30,30,306,04,138,38,213,25*4F
2018-01-11 20:12:53 1515719573.348218: $GPZDA,011253.00,12,01,2018,00,00*6B
2018-01-11 20:12:53 1515719573.348358: $GPGGA,011253,3946.9590,N,08404.9852,W,1,09,1.00,300.04,M,-33.324,M,,*70
2018-01-11 20:12:53 1515719573.348423: $GPRMC,011253,A,3946.9590,N,08404.9852,W,0.0000,0.000,120118,,*33
2018-01-11 20:12:53 1515719573.348483: $GPGSA,A,3,7,8,9,11,16,23,27,28,138,,,,4.0,1.0,3.5*34
2018-01-11 20:12:53 1515719573.799111: $GPZDA,011254.00,12,01,2018,00,00*6C
2018-01-11 20:12:53 1515719573.799293: $GPGGA,011254,3946.9590,N,08404.9852,W,1,09,0.80,300.04,M,-33.324,M,,*7E
2018-01-11 20:12:53 1515719573.799360: $GPRMC,011254,A,3946.9590,N,08404.9852,W,0.0000,0.000,120118,,*34
2018-01-11 20:12:53 1515719573.799421: $GPGSA,A,3,7,8,9,11,16,23,27,28,138,,,,4.0,0.8,3.5*3D
2018-01-11 20:12:54 1515719574.391208: $GPZDA,011255.00,12,01,2018,00,00*6D
2018-01-11 20:12:54 1515719574.391377: $GPGGA,011255,3946.9590,N,08404.9852,W,1,09,0.80,300.04,M,-33.324,M,,*7F
2018-01-11 20:12:54 1515719574.391444: $GPRMC,011255,A,3946.9590,N,08404.9852,W,0.0000,0.000,120118,,*35
2018-01-11 20:12:54 1515719574.391504: $GPGSA,A,3,7,8,9,11,16,23,27,28,138,,,,4.0,0.8,3.5*3D
2018-01-11 20:12:55 1515719575.726070: $GPGSV,3,1,10,07,56,315,42,08,74,127,47,09,47,228,42,11,21,168,47*78
2018-01-11 20:12:55 1515719575.726244: $GPGSV,3,2,10,16,22,061,46,23,28,189,48,27,46,052,50,28,15,259,40*7D
2018-01-11 20:12:55 1515719575.726311: $GPGSV,3,3,10,30,30,306,34,138,38,213,45*4A
2018-01-11 20:12:55 1515719575.839880: $GPZDA,011256.00,12,01,2018,00,00*6E
2018-01-11 20:12:55 1515719575.840020: $GPGGA,011256,3946.9594,N,08404.9852,W,1,10,0.80,299.28,M,-33.324,M,,*7F
2018-01-11 20:12:55 1515719575.840086: $GPRMC,011256,A,3946.9594,N,08404.9852,W,0.0000,0.000,120118,,*32
2018-01-11 20:12:55 1515719575.840146: $GPGSA,A,3,7,8,9,11,16,23,27,28,30,138,,,4.0,0.8,3.5*3E
2018-01-11 20:12:56 1515719576.390836: $GPZDA,011257.00,12,01,2018,00,00*6F
2018-01-11 20:12:56 1515719576.391001: $GPGGA,011257,3946.9590,N,08404.9859,W,1,10,0.80,298.56,M,-33.324,M,,*79
2018-01-11 20:12:56 1515719576.391067: $GPRMC,011257,A,3946.9590,N,08404.9859,W,0.0000,0.000,120118,,*3C
2018-01-11 20:12:56 1515719576.391128: $GPGSA,A,3,7,8,9,11,16,23,27,28,30,138,,,4.0,0.8,3.5*3E
2018-01-11 20:12:57 1515719577.391600: $GPZDA,011258.00,12,01,2018,00,00*60
2018-01-11 20:12:57 1515719577.391807: $GPGGA,011258,3946.9590,N,08404.9859,W,1,10,0.80,298.56,M,-33.324,M,,*76
2018-01-11 20:12:57 1515719577.391875: $GPRMC,011258,A,3946.9590,N,08404.9859,W,0.0000,0.000,120118,,*33
2018-01-11 20:12:57 1515719577.391936: $GPGSA,A,3,7,8,9,11,16,23,27,28,30,138,,,4.0,0.8,3.5*3E
2018-01-11 20:12:57 1515719577.391993: $GPGBS,011258,14.62,M,24.83,M,80.38,M*0E
2018-01-11 20:12:58 1515719578.726797: $GPGSV,3,1,10,07,56,315,42,08,74,127,47,09,47,228,42,11,21,168,47*78
2018-01-11 20:12:58 1515719578.726975: $GPGSV,3,2,10,16,22,061,46,23,28,189,48,27,46,052,50,28,15,259,40*7D
2018-01-11 20:12:58 1515719578.727040: $GPGSV,3,3,10,30,30,306,34,138,38,213,45*4A
2018-01-11 20:12:58 1515719578.840478: $GPZDA,011259.00,12,01,2018,00,00*61
2018-01-11 20:12:58 1515719578.840642: $GPGGA,011259,3946.9590,N,08404.9859,W,1,10,0.80,298.56,M,-33.324,M,,*77
2018-01-11 20:12:58 1515719578.840709: $GPRMC,011259,A,3946.9590,N,08404.9859,W,0.0000,0.000,120118,,*32
2018-01-11 20:12:58 1515719578.840769: $GPGSA,A,3,7,8,9,11,16,23,27,28,30,138,,,4.0,0.8,3.5*3E
2018-01-11 20:12:59 1515719579.391503: $GPZDA,011300.00,12,01,2018,00,00*6C
2018-01-11 20:12:59 1515719579.391657: $GPGGA,011300,3946.9585,N,08404.9864,W,2,10,1.00,295.03,M,-33.324,M,,*77
2018-01-11 20:12:59 1515719579.391723: $GPRMC,011300,A,3946.9585,N,08404.9864,W,0.0000,0.000,120118,,*35
2018-01-11 20:12:59 1515719579.391783: $GPGSA,A,3,7,8,9,11,16,23,27,28,30,138,,,4.0,1.0,3.5*37
2018-01-11 20:13:00 1515719580.391844: $GPZDA,011301.00,12,01,2018,00,00*6D
2018-01-11 20:13:00 1515719580.392013: $GPGGA,011301,3946.9589,N,08404.9864,W,2,10,1.00,295.67,M,-33.324,M,,*78
2018-01-11 20:13:00 1515719580.392079: $GPRMC,011301,A,3946.9589,N,08404.9864,W,0.0000,0.000,120118,,*38
2018-01-11 20:13:00 1515719580.392140: $GPGSA,A,3,7,8,9,11,16,23,27,28,30,138,,,4.0,1.0,3.5*37
2018-01-11 20:13:01 1515719581.727183: $GPGSV,3,1,10,07,56,315,42,08,74,127,47,09,47,228,42,11,21,168,47*78
2018-01-11 20:13:01 1515719581.727367: $GPGSV,3,2,10,16,22,061,46,23,28,189,48,27,46,052,50,28,15,259,40*7D
2018-01-11 20:13:01 1515719581.727432: $GPGSV,3,3,10,30,30,306,34,138,38,213,45*4A
2018-01-11 20:13:01 1515719581.840882: $GPZDA,011302.00,12,01,2018,00,00*6E
2018-01-11 20:13:01 1515719581.841026: $GPGGA,011302,3946.9589,N,08404.9864,W,2,10,1.00,295.67,M,-33.324,M,,*7B
2018-01-11 20:13:01 1515719581.841091: $GPRMC,011302,A,3946.9589,N,08404.9864,W,0.0000,0.000,120118,,*3B
2018-01-11 20:13:01 1515719581.841151: $GPGSA,A,3,7,8,9,11,16,23,27,28,30,138,,,4.0,1.0,3.5*37
2018-01-11 20:13:02 1515719582.391813: $GPZDA,011303.00,12,01,2018,00,00*6F
2018-01-11 20:13:02 1515719582.391984: $GPGGA,011303,3946.9589,N,08404.9864,W,2,10,1.00,295.67,M,-33.324,M,,*7A
2018-01-11 20:13:02 1515719582.392050: $GPRMC,011303,A,3946.9589,N,08404.9864,W,0.0000,0.000,120118,,*3A
2018-01-11 20:13:02 1515719582.392110: $GPGSA,A,3,7,8,9,11,16,23,27,28,30,138,,,4.0,1.0,3.5*37
