2017-12-01 11:54:50 1512147290.117768: {"class":"VERSION","release":"3.16","rev":"3.16-4","proto_major":3,"proto_minor":11}
2017-12-01 11:54:50 1512147290.118141: {"class":"DEVICES","devices":[{"class":"DEVICE","path":"/dev/ttyUSB0","driver":"SiRF","subtype":"9\u0006GSD4e_4.1.2-P1_RPATCH.05-F-GPS-4R-1510281 11/03/2015 307","activated":"2017-12-01T16:54:49.537Z","flags":1,"native":1,"bps":4800,"parity":"N","stopbits":1,"cycle":1.00}]}
2017-12-01 11:54:50 1512147290.118255: {"class":"WATCH","enable":true,"json":false,"nmea":true,"raw":0,"scaled":false,"timing":false,"split24":false,"pps":false}
2017-12-01 11:54:50 1512147290.732619: $GPGSV,3,1,12,13,38,048,45,15,71,061,45,18,47,289,43,20,59,058,44*75
2017-12-01 11:54:50 1512147290.732803: $GPGSV,3,2,12,21,71,300,45,24,24,145,46,27,11,321,39,29,19,193,46*7B
2017-12-01 11:54:50 1512147290.732870: $GPGSV,3,3,12,05,10,081,29,10,16,276,35,04,08,132,00,138,38,213,46*40
2017-12-01 11:54:50 1512147290.846242: $GPZDA,165451.00,01,12,2017,00,00*62
2017-12-01 11:54:50 1512147290.846426: $GPGGA,165451,3946.9557,N,08404.9850,W,2,11,0.80,302.79,M,-33.324,M,,*74
2017-12-01 11:54:50 1512147290.846494: $GPRMC,165451,A,3946.9557,N,08404.9850,W,0.0000,0.000,011217,,*33
2017-12-01 11:54:50 1512147290.846557: $GPGSA,A,3,13,15,18,20,21,24,27,29,5,10,138,,2.0,0.8,1.5*34
2017-12-01 11:54:51 1512147291.398212: $GPZDA,165452.00,01,12,2017,00,00*61
2017-12-01 11:54:51 1512147291.398394: $GPGGA,165452,3946.9557,N,08404.9850,W,2,11,0.80,302.79,M,-33.324,M,,*77
2017-12-01 11:54:51 1512147291.398464: $GPRMC,165452,A,3946.9557,N,08404.9850,W,0.0000,0.000,011217,,*30
2017-12-01 11:54:51 1512147291.398527: $GPGSA,A,3,13,15,18,20,21,24,27,29,5,10,138,,2.0,0.8,1.5*34
2017-12-01 11:54:52 1512147292.397873: $GPZDA,165453.00,01,12,2017,00,00*60
2017-12-01 11:54:52 1512147292.398053: $GPGGA,165453,3946.9557,N,08404.9857,W,2,11,0.80,302.71,M,-33.324,M,,*79
2017-12-01 11:54:52 1512147292.398120: $GPRMC,165453,A,3946.9557,N,08404.9857,W,0.0000,0.000,011217,,*36
2017-12-01 11:54:52 1512147292.398182: $GPGSA,A,3,13,15,18,20,21,24,27,29,5,10,138,,2.0,0.8,1.5*34
2017-12-01 11:54:53 1512147293.748516: $GPGSV,3,1,12,13,38,048,45,15,71,061,45,18,47,289,43,20,59,058,44*75
2017-12-01 11:54:53 1512147293.748698: $GPGSV,3,2,12,21,71,300,45,24,24,145,46,27,11,321,39,29,19,193,46*7B
2017-12-01 11:54:53 1512147293.748767: $GPGSV,3,3,12,05,10,081,29,10,16,276,35,04,08,132,00,138,38,213,46*40
2017-12-01 11:54:53 1512147293.862007: $GPZDA,165454.00,01,12,2017,00,00*67
2017-12-01 11:54:53 1512147293.862194: $GPGGA,165454,3946.9557,N,08404.9857,W,2,11,0.80,302.71,M,-33.324,M,,*7E
2017-12-01 11:54:53 1512147293.862264: $GPRMC,165454,A,3946.9557,N,08404.9857,W,0.0000,0.000,011217,,*31
2017-12-01 11:54:53 1512147293.862331: $GPGSA,A,3,13,15,18,20,21,24,27,29,5,10,138,,2.0,0.8,1.5*34
2017-12-01 11:54:54 1512147294.487281: $GPZDA,165455.00,01,12,2017,00,00*66
2017-12-01 11:54:54 1512147294.487454: $GPGGA,165455,3946.9557,N,08404.9857,W,2,11,0.80,302.71,M,-33.324,M,,*7F
2017-12-01 11:54:54 1512147294.487521: $GPRMC,165455,A,3946.9557,N,08404.9857,W,0.0000,0.000,011217,,*30
2017-12-01 11:54:54 1512147294.487583: $GPGSA,A,3,13,15,18,20,21,24,27,29,5,10,138,,2.0,0.8,1.5*34
2017-12-01 11:54:55 1512147295.398134: $GPZDA,165456.00,01,12,2017,00,00*65
2017-12-01 11:54:55 1512147295.398309: $GPGGA,165456,3946.9557,N,08404.9857,W,2,11,0.80,302.71,M,-33.324,M,,*7C
2017-12-01 11:54:55 1512147295.398379: $GPRMC,165456,A,3946.9557,N,08404.9857,W,0.0000,0.000,011217,,*33
2017-12-01 11:54:55 1512147295.398441: $GPGSA,A,3,13,15,18,20,21,24,27,29,5,10,138,,2.0,0.8,1.5*34
2017-12-01 11:54:56 1512147296.750095: $GPGSV,3,1,12,13,38,048,44,15,71,061,45,18,47,289,43,20,59,058,44*74
2017-12-01 11:54:56 1512147296.750279: $GPGSV,3,2,12,21,71,300,45,24,24,145,46,27,11,321,39,29,19,193,46*7B
2017-12-01 11:54:56 1512147296.750350: $GPGSV,3,3,12,05,10,081,30,10,16,276,35,04,08,132,00,138,38,213,46*48
2017-12-01 11:54:56 1512147296.863611: $GPZDA,165457.00,01,12,2017,00,00*64
2017-12-01 11:54:56 1512147296.863793: $GPGGA,165457,3946.9557,N,08404.9857,W,2,11,0.80,302.71,M,-33.324,M,,*7D
2017-12-01 11:54:56 1512147296.863921: $GPRMC,165457,A,3946.9557,N,08404.9857,W,0.0000,0.000,011217,,*32
2017-12-01 11:54:56 1512147296.863987: $GPGSA,A,3,13,15,18,20,21,24,27,29,5,10,138,,2.0,0.8,1.5*34
2017-12-01 11:54:57 1512147297.413113: $GPZDA,165458.00,01,12,2017,00,00*6B
2017-12-01 11:54:57 1512147297.413278: $GPGGA,165458,3946.9557,N,08404.9857,W,2,11,0.80,302.71,M,-33.324,M,,*72
2017-12-01 11:54:57 1512147297.413349: $GPRMC,165458,A,3946.9557,N,08404.9857,W,0.0000,0.000,011217,,*3D
2017-12-01 11:54:57 1512147297.413411: $GPGSA,A,3,13,15,18,20,21,24,27,29,5,10,138,,2.0,0.8,1.5*34
2017-12-01 11:54:58 1512147298.396495: $GPZDA,165459.00,01,12,2017,00,00*6A
2017-12-01 11:54:58 1512147298.396665: $GPGGA,165459,3946.9557,N,08404.9857,W,2,11,0.80,302.71,M,-33.324,M,,*73
2017-12-01 11:54:58 1512147298.396733: $GPRMC,165459,A,3946.9557,N,08404.9857,W,0.0000,0.000,011217,,*3C
2017-12-01 11:54:58 1512147298.396794: $GPGSA,A,3,13,15,18,20,21,24,27,29,5,10,138,,2.0,0.8,1.5*34
2017-12-01 11:54:59 1512147299.732946: $GPGSV,3,1,12,13,38,048,45,15,71,061,45,18,47,289,43,20,59,058,44*75
2017-12-01 11:54:59 1512147299.733130: $GPGSV,3,2,12,21,71,300,45,24,24,145,46,27,11,321,40,29,19,193,46*75
2017-12-01 11:54:59 1512147299.733198: $GPGSV,3,3,12,05,10,081,29,10,16,276,35,04,08,132,00,138,38,213,46*40
2017-12-01 11:54:59 1512147299.846319: $GPZDA,165500.00,01,12,2017,00,00*67
2017-12-01 11:54:59 1512147299.846500: $GPGGA,165500,3946.9557,N,08404.9857,W,2,11,0.80,302.71,M,-33.324,M,,*7E
2017-12-01 11:54:59 1512147299.846568: $GPRMC,165500,A,3946.9557,N,08404.9857,W,0.0000,0.000,011217,,*31
2017-12-01 11:54:59 1512147299.846630: $GPGSA,A,3,13,15,18,20,21,24,27,29,5,10,138,,2.0,0.8,1.5*34
