2017-11-16 14:13:49 1510859629.916236: {"class":"VERSION","release":"3.17","rev":"3.17","proto_major":3,"proto_minor":12}
2017-11-16 14:13:49 1510859629.916657: {"class":"DEVICES","devices":[{"class":"DEVICE","path":"/dev/ttyUSB0","driver":"SiRF","subtype":"9\u0006GSD4e_4.1.2-P1_RPATCH.05-F-GPS-4R-1510281 11/03/2015 307","activated":"2017-11-16T19:13:49.732Z","flags":1,"native":1,"bps":4800,"parity":"N","stopbits":1,"cycle":1.00}]}
2017-11-16 14:13:49 1510859629.916766: {"class":"WATCH","enable":true,"json":false,"nmea":true,"raw":0,"scaled":false,"timing":false,"split24":false,"pps":false}
2017-11-16 14:13:50 1510859630.514254: $GPZDA,191349.00,16,11,2017,00,00*62
2017-11-16 14:13:50 1510859630.514425: $GPGGA,191349,3946.9554,N,08404.9851,W,2,11,1.00,304.96,M,-33.324,M,,*7D
2017-11-16 14:13:50 1510859630.514487: $GPRMC,191349,A,3946.9554,N,08404.9851,W,0.0000,0.000,161117,,*31
2017-11-16 14:13:50 1510859630.514543: $GPGSA,A,3,10,13,15,18,21,20,24,27,32,14,138,,1.6,1.0,1.3*04
2017-11-16 14:13:51 1510859631.857396: $GPGSV,3,1,12,08,06,322,00,10,41,300,43,13,08,048,29,15,38,052,49*7D
2017-11-16 14:13:51 1510859631.857563: $GPGSV,3,2,12,18,70,334,47,21,65,192,47,20,33,096,48,24,50,111,50*7D
2017-11-16 14:13:51 1510859631.857623: $GPGSV,3,3,12,27,19,289,41,32,20,237,46,14,04,232,14,138,38,213,45*41
2017-11-16 14:13:51 1510859631.971737: $GPZDA,191350.00,16,11,2017,00,00*6A
2017-11-16 14:13:51 1510859631.971951: $GPGGA,191350,3946.9554,N,08404.9851,W,2,11,1.00,304.96,M,-33.324,M,,*75
2017-11-16 14:13:51 1510859631.972068: $GPRMC,191350,A,3946.9554,N,08404.9851,W,0.0000,0.000,161117,,*39
2017-11-16 14:13:51 1510859631.972137: $GPGSA,A,3,10,13,15,18,21,20,24,27,32,14,138,,1.6,1.0,1.3*04
2017-11-16 14:13:52 1510859632.523180: $GPZDA,191351.00,16,11,2017,00,00*6B
2017-11-16 14:13:52 1510859632.523336: $GPGGA,191351,3946.9554,N,08404.9851,W,2,11,0.80,304.96,M,-33.324,M,,*7D
2017-11-16 14:13:52 1510859632.523396: $GPRMC,191351,A,3946.9554,N,08404.9851,W,0.0000,0.000,161117,,*38
2017-11-16 14:13:52 1510859632.523452: $GPGSA,A,3,10,13,15,18,21,20,24,27,32,14,138,,1.6,0.8,1.3*0D
2017-11-16 14:13:53 1510859633.521287: $GPZDA,191352.00,16,11,2017,00,00*68
2017-11-16 14:13:53 1510859633.521423: $GPGGA,191352,3946.9554,N,08404.9851,W,2,11,0.80,304.96,M,-33.324,M,,*7E
2017-11-16 14:13:53 1510859633.521485: $GPRMC,191352,A,3946.9554,N,08404.9851,W,0.0000,0.000,161117,,*3B
2017-11-16 14:13:53 1510859633.521541: $GPGSA,A,3,10,13,15,18,21,20,24,27,32,14,138,,1.6,0.8,1.3*0D
2017-11-16 14:13:54 1510859634.879895: $GPGSV,3,1,12,08,06,322,29,10,41,300,43,13,08,048,29,15,38,052,49*76
2017-11-16 14:13:54 1510859634.880054: $GPGSV,3,2,12,18,70,334,47,21,65,192,47,20,33,096,47,24,50,111,49*7A
2017-11-16 14:13:54 1510859634.880114: $GPGSV,3,3,12,27,19,289,42,32,20,237,46,14,04,232,15,138,38,213,45*43
2017-11-16 14:13:54 1510859634.993374: $GPZDA,191353.00,16,11,2017,00,00*69
2017-11-16 14:13:54 1510859634.993736: $GPGGA,191353,3946.9554,N,08404.9851,W,2,12,0.80,304.96,M,-33.324,M,,*7C
2017-11-16 14:13:54 1510859634.993828: $GPRMC,191353,A,3946.9554,N,08404.9851,W,0.0000,0.000,161117,,*3A
2017-11-16 14:13:54 1510859634.993886: $GPGSA,A,3,8,10,13,15,18,21,20,24,27,32,14,138,1.6,0.8,1.3*35
2017-11-16 14:13:55 1510859635.548048: $GPZDA,191354.00,16,11,2017,00,00*6E
2017-11-16 14:13:55 1510859635.548211: $GPGGA,191354,3946.9554,N,08404.9851,W,2,12,0.80,304.96,M,-33.324,M,,*7B
2017-11-16 14:13:55 1510859635.548271: $GPRMC,191354,A,3946.9554,N,08404.9851,W,0.0000,0.000,161117,,*3D
2017-11-16 14:13:55 1510859635.548327: $GPGSA,A,3,8,10,13,15,18,21,20,24,27,32,14,138,1.6,0.8,1.3*35
2017-11-16 14:13:56 1510859636.542321: $GPZDA,191355.00,16,11,2017,00,00*6F
2017-11-16 14:13:56 1510859636.542509: $GPGGA,191355,3946.9554,N,08404.9851,W,2,12,0.80,304.96,M,-33.324,M,,*7A
2017-11-16 14:13:56 1510859636.542593: $GPRMC,191355,A,3946.9554,N,08404.9851,W,0.0000,0.000,161117,,*3C
2017-11-16 14:13:56 1510859636.542651: $GPGSA,A,3,8,10,13,15,18,21,20,24,27,32,14,138,1.6,0.8,1.3*35
2017-11-16 14:13:57 1510859637.884344: $GPGSV,3,1,12,08,06,322,33,10,41,300,43,13,08,048,29,15,38,052,50*75
2017-11-16 14:13:57 1510859637.884567: $GPGSV,3,2,12,18,70,334,47,21,65,192,47,20,33,096,47,24,50,111,49*7A
2017-11-16 14:13:57 1510859637.884629: $GPGSV,3,3,12,27,19,289,42,32,20,237,46,14,04,232,15,138,38,213,44*42
2017-11-16 14:13:57 1510859637.997852: $GPZDA,191356.00,16,11,2017,00,00*6C
2017-11-16 14:13:57 1510859637.998010: $GPGGA,191356,3946.9554,N,08404.9851,W,2,12,0.80,304.96,M,-33.324,M,,*79
2017-11-16 14:13:57 1510859637.998071: $GPRMC,191356,A,3946.9554,N,08404.9851,W,0.0000,0.000,161117,,*3F
2017-11-16 14:13:57 1510859637.998127: $GPGSA,A,3,8,10,13,15,18,21,20,24,27,32,14,138,1.6,0.8,1.3*35
2017-11-16 14:13:58 1510859638.519874: $GPZDA,191357.00,16,11,2017,00,00*6D
2017-11-16 14:13:58 1510859638.520036: $GPGGA,191357,3946.9554,N,08404.9851,W,2,12,0.80,304.96,M,-33.324,M,,*78
2017-11-16 14:13:58 1510859638.520113: $GPRMC,191357,A,3946.9554,N,08404.9851,W,0.0000,0.000,161117,,*3E
2017-11-16 14:13:58 1510859638.520171: $GPGSA,A,3,8,10,13,15,18,21,20,24,27,32,14,138,1.6,0.8,1.3*35
2017-11-16 14:13:59 1510859639.547397: $GPZDA,191358.00,16,11,2017,00,00*62
2017-11-16 14:13:59 1510859639.547564: $GPGGA,191358,3946.9554,N,08404.9851,W,2,12,0.80,304.96,M,-33.324,M,,*77
2017-11-16 14:13:59 1510859639.547625: $GPRMC,191358,A,3946.9554,N,08404.9851,W,0.0000,0.000,161117,,*31
2017-11-16 14:13:59 1510859639.547682: $GPGSA,A,3,8,10,13,15,18,21,20,24,27,32,14,138,1.6,0.8,1.3*35
2017-11-16 14:14:00 1510859640.856835: $GPGSV,3,1,12,08,06,322,38,10,41,300,42,13,08,048,28,15,38,052,50*7E
2017-11-16 14:14:00 1510859640.857010: $GPGSV,3,2,12,18,70,334,47,21,65,192,47,20,33,096,47,24,50,111,48*7B
2017-11-16 14:14:00 1510859640.857072: $GPGSV,3,3,12,27,19,289,42,32,20,237,46,14,04,232,19,138,38,213,45*4F
2017-11-16 14:14:00 1510859640.970233: $GPZDA,191359.00,16,11,2017,00,00*63
2017-11-16 14:14:00 1510859640.970434: $GPGGA,191359,3946.9554,N,08404.9851,W,2,12,0.80,304.96,M,-33.324,M,,*76
2017-11-16 14:14:00 1510859640.970514: $GPRMC,191359,A,3946.9554,N,08404.9851,W,0.0000,0.000,161117,,*30
2017-11-16 14:14:00 1510859640.970572: $GPGSA,A,3,8,10,13,15,18,21,20,24,27,32,14,138,1.6,0.8,1.3*35
2017-11-16 14:14:01 1510859641.513523: $GPZDA,191400.00,16,11,2017,00,00*68
2017-11-16 14:14:01 1510859641.513704: $GPGGA,191400,3946.9554,N,08404.9851,W,2,12,0.80,304.96,M,-33.324,M,,*7D
2017-11-16 14:14:01 1510859641.513766: $GPRMC,191400,A,3946.9554,N,08404.9851,W,0.0000,0.000,161117,,*3B
2017-11-16 14:14:01 1510859641.513821: $GPGSA,A,3,8,10,13,15,18,21,20,24,27,32,14,138,1.6,0.8,1.3*35
2017-11-16 14:14:02 1510859642.546795: $GPZDA,191401.00,16,11,2017,00,00*69
2017-11-16 14:14:02 1510859642.546964: $GPGGA,191401,3946.9554,N,08404.9851,W,2,12,0.80,304.96,M,-33.324,M,,*7C
2017-11-16 14:14:02 1510859642.547027: $GPRMC,191401,A,3946.9554,N,08404.9851,W,0.0000,0.000,161117,,*3A
2017-11-16 14:14:02 1510859642.547083: $GPGSA,A,3,8,10,13,15,18,21,20,24,27,32,14,138,1.6,0.8,1.3*35
2017-11-16 14:14:03 1510859643.854902: $GPGSV,3,1,12,08,06,322,39,10,41,300,42,13,08,048,28,15,38,052,50*7F
2017-11-16 14:14:03 1510859643.863047: $GPGSV,3,2,12,18,70,334,47,21,65,192,47,20,33,096,46,24,50,111,48*7A
2017-11-16 14:14:03 1510859643.863145: $GPGSV,3,3,12,27,19,289,41,32,20,237,46,14,04,232,00,138,38,213,44*45
2017-11-16 14:14:03 1510859643.968204: $GPZDA,191402.00,16,11,2017,00,00*6A
2017-11-16 14:14:03 1510859643.968363: $GPGGA,191402,3946.9554,N,08404.9851,W,2,11,0.80,304.96,M,-33.324,M,,*7C
2017-11-16 14:14:03 1510859643.968424: $GPRMC,191402,A,3946.9554,N,08404.9851,W,0.0000,0.000,161117,,*39
2017-11-16 14:14:03 1510859643.968480: $GPGSA,A,3,8,10,13,15,18,21,20,24,27,32,138,,1.6,0.8,1.3*30
2017-11-16 14:14:04 1510859644.593802: $GPZDA,191403.00,16,11,2017,00,00*6B
2017-11-16 14:14:04 1510859644.593964: $GPGGA,191403,3946.9554,N,08404.9851,W,2,11,0.80,304.96,M,-33.324,M,,*7D
2017-11-16 14:14:04 1510859644.594025: $GPRMC,191403,A,3946.9554,N,08404.9851,W,0.0000,0.000,161117,,*38
2017-11-16 14:14:04 1510859644.594082: $GPGSA,A,3,8,10,13,15,18,21,20,24,27,32,138,,1.6,0.8,1.3*30
