2017-11-15 19:37:04 1510792624.362326: {"class":"VERSION","release":"3.17","rev":"3.17","proto_major":3,"proto_minor":12}
2017-11-15 19:37:04 1510792624.362785: {"class":"DEVICES","devices":[{"class":"DEVICE","path":"/dev/ttyUSB0","driver":"SiRF","subtype":"9\u0006GSD4e_4.1.2-P1_RPATCH.05-F-GPS-4R-1510281 11/03/2015 307","activated":"2017-11-16T00:37:04.345Z","flags":1,"native":1,"bps":4800,"parity":"N","stopbits":1,"cycle":1.00}]}
2017-11-15 19:37:04 1510792624.362902: {"class":"WATCH","enable":true,"json":false,"nmea":true,"raw":0,"scaled":false,"timing":false,"split24":false,"pps":false}
2017-11-15 19:37:05 1510792625.345075: $GPZDA,003704.00,16,11,2017,00,00*65
2017-11-15 19:37:05 1510792625.345258: $GPGGA,003704,3946.9567,N,08404.9595,W,1,08,1.20,289.62,M,-33.324,M,,*79
2017-11-15 19:37:05 1510792625.345320: $GPRMC,003704,A,3946.9567,N,08404.9595,W,0.7070,48.986,161117,,*08
2017-11-15 19:37:05 1510792625.345375: $GPGSA,A,3,32,14,26,29,31,3,23,22,,,,,3.4,1.2,2.9*06
2017-11-15 19:37:06 1510792626.680151: $GPGSV,3,1,11,32,33,111,23,14,53,096,20,16,25,190,00,26,56,171,22*7C
2017-11-15 19:37:06 1510792626.680325: $GPGSV,3,2,11,29,11,069,15,31,65,030,23,03,41,295,19,23,13,301,10*7B
2017-11-15 19:37:06 1510792626.680385: $GPGSV,3,3,11,25,15,039,00,01,04,250,00,22,50,265,23*47
2017-11-15 19:37:06 1510792626.793680: $GPZDA,003705.00,16,11,2017,00,00*64
2017-11-15 19:37:06 1510792626.793808: $GPGGA,003705,3946.9563,N,08404.9595,W,1,08,1.20,288.98,M,-33.324,M,,*78
2017-11-15 19:37:06 1510792626.793866: $GPRMC,003705,A,3946.9563,N,08404.9595,W,0.3423,4.197,161117,,*3B
2017-11-15 19:37:06 1510792626.793922: $GPGSA,A,3,32,14,26,29,31,3,23,22,,,,,3.4,1.2,2.9*06
2017-11-15 19:37:07 1510792627.345915: $GPZDA,003706.00,16,11,2017,00,00*67
2017-11-15 19:37:07 1510792627.346084: $GPGGA,003706,3946.9563,N,08404.9595,W,1,08,1.20,288.98,M,-33.324,M,,*7B
2017-11-15 19:37:07 1510792627.346144: $GPRMC,003706,A,3946.9563,N,08404.9595,W,0.3423,4.197,161117,,*38
2017-11-15 19:37:07 1510792627.346199: $GPGSA,A,3,32,14,26,29,31,3,23,22,,,,,3.4,1.2,2.9*06
2017-11-15 19:37:08 1510792628.330469: $GPZDA,003707.00,16,11,2017,00,00*66
2017-11-15 19:37:08 1510792628.330645: $GPGGA,003707,3946.9559,N,08404.9595,W,1,08,1.20,288.34,M,-33.324,M,,*75
2017-11-15 19:37:08 1510792628.336319: $GPRMC,003707,A,3946.9559,N,08404.9595,W,0.2422,93.794,161117,,*0B
2017-11-15 19:37:08 1510792628.336386: $GPGSA,A,3,32,14,26,29,31,3,23,22,,,,,3.4,1.2,2.9*06
2017-11-15 19:37:09 1510792629.682246: $GPGSV,3,1,11,32,33,111,23,14,53,096,20,16,25,190,17,26,56,171,22*7A
2017-11-15 19:37:09 1510792629.682417: $GPGSV,3,2,11,29,11,069,15,31,65,030,23,03,41,295,19,23,13,301,10*7B
2017-11-15 19:37:09 1510792629.682477: $GPGSV,3,3,11,25,15,039,00,01,04,250,00,22,50,265,23*47
2017-11-15 19:37:09 1510792629.794350: $GPZDA,003708.00,16,11,2017,00,00*69
2017-11-15 19:37:09 1510792629.794510: $GPGGA,003708,3946.9554,N,08404.9595,W,1,08,1.20,287.70,M,-33.324,M,,*78
2017-11-15 19:37:09 1510792629.794571: $GPRMC,003708,A,3946.9554,N,08404.9595,W,0.3423,184.197,161117,,*3B
2017-11-15 19:37:09 1510792629.794627: $GPGSA,A,3,32,14,26,29,31,3,23,22,,,,,3.4,1.2,2.9*06
2017-11-15 19:37:10 1510792630.346421: $GPZDA,003709.00,16,11,2017,00,00*68
2017-11-15 19:37:10 1510792630.346595: $GPGGA,003709,3946.9551,N,08404.9596,W,1,08,1.20,288.46,M,-33.324,M,,*75
2017-11-15 19:37:10 1510792630.346656: $GPRMC,003709,A,3946.9551,N,08404.9596,W,0.2422,93.794,161117,,*0E
2017-11-15 19:37:10 1510792630.346883: $GPGSA,A,3,32,14,26,29,31,3,23,22,,,,,3.4,1.2,2.9*06
2017-11-15 19:37:11 1510792631.331038: $GPZDA,003710.00,16,11,2017,00,00*60
2017-11-15 19:37:11 1510792631.331213: $GPGGA,003710,3946.9547,N,08404.9596,W,1,08,1.20,287.82,M,-33.324,M,,*7D
2017-11-15 19:37:11 1510792631.331274: $GPRMC,003710,A,3946.9547,N,08404.9596,W,0.0000,0.000,161117,,*37
2017-11-15 19:37:11 1510792631.331330: $GPGSA,A,3,32,14,26,29,31,3,23,22,,,,,3.4,1.2,2.9*06
2017-11-15 19:37:12 1510792632.666416: $GPGSV,3,1,11,32,33,111,23,14,53,096,20,16,25,190,00,26,56,171,22*7C
2017-11-15 19:37:12 1510792632.666561: $GPGSV,3,2,11,29,11,069,15,31,65,030,23,03,41,295,18,23,13,301,11*7B
2017-11-15 19:37:12 1510792632.666660: $GPGSV,3,3,11,25,15,039,00,01,04,250,00,22,50,265,23*47
2017-11-15 19:37:12 1510792632.780003: $GPZDA,003711.00,16,11,2017,00,00*61
2017-11-15 19:37:12 1510792632.780174: $GPGGA,003711,3946.9547,N,08404.9603,W,1,08,1.20,287.74,M,-33.324,M,,*7A
2017-11-15 19:37:12 1510792632.780233: $GPRMC,003711,A,3946.9547,N,08404.9603,W,0.3423,184.197,161117,,*3D
2017-11-15 19:37:12 1510792632.780288: $GPGSA,A,3,32,14,26,29,31,3,23,22,,,,,3.4,1.2,2.9*06
2017-11-15 19:37:13 1510792633.345642: $GPZDA,003712.00,16,11,2017,00,00*62
2017-11-15 19:37:13 1510792633.345818: $GPGGA,003712,3946.9543,N,08404.9603,W,1,08,1.20,287.10,M,-33.324,M,,*7F
2017-11-15 19:37:13 1510792633.345902: $GPRMC,003712,A,3946.9543,N,08404.9603,W,0.2422,273.794,161117,,*34
2017-11-15 19:37:13 1510792633.345961: $GPGSA,A,3,32,14,26,29,31,3,23,22,,,,,3.4,1.2,2.9*06
