2017-11-16 15:07:50 1510862870.575991: {"class":"VERSION","release":"3.17","rev":"3.17","proto_major":3,"proto_minor":12}
2017-11-16 15:07:50 1510862870.576475: {"class":"DEVICES","devices":[{"class":"DEVICE","path":"/dev/ttyUSB0","driver":"SiRF","subtype":"9\u0006GSD4e_4.1.2-P1_RPATCH.05-F-GPS-4R-1510281 11/03/2015 307","activated":"2017-11-16T20:07:50.562Z","flags":1,"native":1,"bps":4800,"parity":"N","stopbits":1,"cycle":1.00}]}
2017-11-16 15:07:50 1510862870.576597: {"class":"WATCH","enable":true,"json":false,"nmea":true,"raw":0,"scaled":false,"timing":false,"split24":false,"pps":false}
2017-11-16 15:07:51 1510862871.399327: $GPZDA,200750.00,16,11,2017,00,00*65
2017-11-16 15:07:51 1510862871.399498: $GPGGA,200750,3946.9593,N,08404.9844,W,2,12,0.80,297.95,M,-33.324,M,,*77
2017-11-16 15:07:51 1510862871.399566: $GPRMC,200750,A,3946.9593,N,08404.9844,W,0.0000,0.000,161117,,*39
2017-11-16 15:07:51 1510862871.399628: $GPGSA,A,3,8,10,14,15,18,20,21,24,27,32,12,138,1.6,0.8,1.3*34
2017-11-16 15:07:52 1510862872.731579: $GPGSV,3,1,12,08,07,300,23,10,62,321,51,14,23,247,43,15,17,063,42*77
2017-11-16 15:07:52 1510862872.731770: $GPGSV,3,2,12,18,76,069,47,20,14,114,37,21,38,181,45,24,50,069,48*79
2017-11-16 15:07:52 1510862872.731834: $GPGSV,3,3,12,27,11,267,43,32,40,258,47,12,04,114,22,138,38,213,45*41
2017-11-16 15:07:52 1510862872.844578: $GPZDA,200751.00,16,11,2017,00,00*64
2017-11-16 15:07:52 1510862872.844744: $GPGGA,200751,3946.9593,N,08404.9844,W,2,12,0.80,297.95,M,-33.324,M,,*76
2017-11-16 15:07:52 1510862872.844807: $GPRMC,200751,A,3946.9593,N,08404.9844,W,0.0000,0.000,161117,,*38
2017-11-16 15:07:52 1510862872.844865: $GPGSA,A,3,8,10,14,15,18,20,21,24,27,32,12,138,1.6,0.8,1.3*34
2017-11-16 15:07:53 1510862873.418293: $GPZDA,200752.00,16,11,2017,00,00*67
2017-11-16 15:07:53 1510862873.418467: $GPGGA,200752,3946.9593,N,08404.9844,W,2,12,0.80,297.95,M,-33.324,M,,*75
2017-11-16 15:07:53 1510862873.418528: $GPRMC,200752,A,3946.9593,N,08404.9844,W,0.0000,0.000,161117,,*3B
2017-11-16 15:07:53 1510862873.418586: $GPGSA,A,3,8,10,14,15,18,20,21,24,27,32,12,138,1.6,0.8,1.3*34
2017-11-16 15:07:54 1510862874.416258: $GPZDA,200753.00,16,11,2017,00,00*66
2017-11-16 15:07:54 1510862874.416431: $GPGGA,200753,3946.9593,N,08404.9844,W,2,12,0.80,297.95,M,-33.324,M,,*74
2017-11-16 15:07:54 1510862874.416494: $GPRMC,200753,A,3946.9593,N,08404.9844,W,0.0000,0.000,161117,,*3A
2017-11-16 15:07:54 1510862874.416550: $GPGSA,A,3,8,10,14,15,18,20,21,24,27,32,12,138,1.6,0.8,1.3*34
2017-11-16 15:07:55 1510862875.736933: $GPGSV,3,1,12,08,07,300,23,10,62,321,51,14,23,247,43,15,17,063,42*77
2017-11-16 15:07:55 1510862875.737143: $GPGSV,3,2,12,18,76,069,47,20,14,114,37,21,38,181,45,24,50,069,48*79
2017-11-16 15:07:55 1510862875.737222: $GPGSV,3,3,12,27,11,267,43,32,40,258,46,12,04,114,08,138,38,213,44*49
2017-11-16 15:07:55 1510862875.850103: $GPZDA,200754.00,16,11,2017,00,00*61
2017-11-16 15:07:55 1510862875.850373: $GPGGA,200754,3946.9593,N,08404.9844,W,2,12,0.80,297.95,M,-33.324,M,,*73
2017-11-16 15:07:55 1510862875.850445: $GPRMC,200754,A,3946.9593,N,08404.9844,W,0.0000,0.000,161117,,*3D
2017-11-16 15:07:55 1510862875.850502: $GPGSA,A,3,8,10,14,15,18,20,21,24,27,32,12,138,1.6,0.8,1.3*34
2017-11-16 15:07:56 1510862876.475493: $GPZDA,200755.00,16,11,2017,00,00*60
2017-11-16 15:07:56 1510862876.475679: $GPGGA,200755,3946.9593,N,08404.9844,W,2,12,0.80,297.95,M,-33.324,M,,*72
2017-11-16 15:07:56 1510862876.475743: $GPRMC,200755,A,3946.9593,N,08404.9844,W,0.0000,0.000,161117,,*3C
2017-11-16 15:07:56 1510862876.475802: $GPGSA,A,3,8,10,14,15,18,20,21,24,27,32,12,138,1.6,0.8,1.3*34
2017-11-16 15:07:57 1510862877.417578: $GPZDA,200756.00,16,11,2017,00,00*63
2017-11-16 15:07:57 1510862877.417774: $GPGGA,200756,3946.9593,N,08404.9844,W,2,12,0.80,297.95,M,-33.324,M,,*71
2017-11-16 15:07:57 1510862877.417843: $GPRMC,200756,A,3946.9593,N,08404.9844,W,0.0000,0.000,161117,,*3F
2017-11-16 15:07:57 1510862877.417901: $GPGSA,A,3,8,10,14,15,18,20,21,24,27,32,12,138,1.6,0.8,1.3*34
2017-11-16 15:07:58 1510862878.752111: $GPGSV,3,1,12,08,07,300,24,10,62,321,51,14,23,247,43,15,17,063,42*70
2017-11-16 15:07:58 1510862878.752332: $GPGSV,3,2,12,18,76,069,47,20,14,114,37,21,38,181,44,24,50,069,48*78
2017-11-16 15:07:58 1510862878.752395: $GPGSV,3,3,12,27,11,267,43,32,40,258,46,12,04,114,17,138,38,213,44*47
2017-11-16 15:07:58 1510862878.866192: $GPZDA,200757.00,16,11,2017,00,00*62
2017-11-16 15:07:58 1510862878.866355: $GPGGA,200757,3946.9593,N,08404.9844,W,2,12,0.80,297.95,M,-33.324,M,,*70
2017-11-16 15:07:58 1510862878.866420: $GPRMC,200757,A,3946.9593,N,08404.9844,W,0.0000,0.000,161117,,*3E
2017-11-16 15:07:58 1510862878.866477: $GPGSA,A,3,8,10,14,15,18,20,21,24,27,32,12,138,1.6,0.8,1.3*34
2017-11-16 15:07:59 1510862879.399065: $GPZDA,200758.00,16,11,2017,00,00*6D
2017-11-16 15:07:59 1510862879.399225: $GPGGA,200758,3946.9593,N,08404.9844,W,2,12,0.80,297.95,M,-33.324,M,,*7F
2017-11-16 15:07:59 1510862879.399288: $GPRMC,200758,A,3946.9593,N,08404.9844,W,0.0000,0.000,161117,,*31
2017-11-16 15:07:59 1510862879.399345: $GPGSA,A,3,8,10,14,15,18,20,21,24,27,32,12,138,1.6,0.8,1.3*34
2017-11-16 15:08:00 1510862880.417152: $GPZDA,200759.00,16,11,2017,00,00*6C
2017-11-16 15:08:00 1510862880.417320: $GPGGA,200759,3946.9593,N,08404.9844,W,2,12,0.80,297.95,M,-33.324,M,,*7E
2017-11-16 15:08:00 1510862880.417400: $GPRMC,200759,A,3946.9593,N,08404.9844,W,0.0000,0.000,161117,,*30
2017-11-16 15:08:00 1510862880.417458: $GPGSA,A,3,8,10,14,15,18,20,21,24,27,32,12,138,1.6,0.8,1.3*34
