2018-01-12 04:03:52 1515747832.773281: {"class":"VERSION","release":"3.16","rev":"3.16-4","proto_major":3,"proto_minor":11}
2018-01-12 04:03:52 1515747832.773698: {"class":"DEVICES","devices":[{"class":"DEVICE","path":"/dev/ttyUSB0","driver":"SiRF","subtype":"9\u0006GSD4e_4.1.2-P1_RPATCH.05-F-GPS-4R-1510281 11/03/2015 307","activated":"2018-01-12T09:03:52.469Z","flags":1,"native":1,"bps":4800,"parity":"N","stopbits":1,"cycle":1.00}]}
2018-01-12 04:03:52 1515747832.773818: {"class":"WATCH","enable":true,"json":false,"nmea":true,"raw":0,"scaled":false,"timing":false,"split24":false,"pps":false}
2018-01-12 04:03:53 1515747833.074017: $GPZDA,090353.76,12,01,2018,00,00*62
2018-01-12 04:03:53 1515747833.074241: $GPGGA,090353,3946.9681,N,08404.9663,W,1,11,1.60,303.29,M,-33.324,M,,*74
2018-01-12 04:03:53 1515747833.074318: $GPRMC,090353,A,3946.9681,N,08404.9663,W,0.5467,339.486,120118,,*37
2018-01-12 04:03:53 1515747833.074384: $GPGSA,A,3,2,5,6,12,25,29,9,17,19,23,138,,2.4,1.6,2.1*02
2018-01-12 04:03:53 1515747833.074446: $GPGBS,090353,11.98,M,14.47,M,47.88,M*06
2018-01-12 04:03:54 1515747834.006074: $GPZDA,090354.44,12,01,2018,00,00*64
2018-01-12 04:03:54 1515747834.006238: $GPGGA,090354,3946.9681,N,08404.9663,W,1,11,1.60,303.29,M,-33.324,M,,*73
2018-01-12 04:03:54 1515747834.006303: $GPRMC,090354,A,3946.9681,N,08404.9663,W,0.2710,280.223,120118,,*3E
2018-01-12 04:03:54 1515747834.006366: $GPGSA,A,3,2,5,6,12,25,29,9,17,19,23,138,,2.4,1.6,2.1*02
2018-01-12 04:03:54 1515747834.006428: $GPGBS,090354,11.98,M,14.47,M,47.88,M*01
2018-01-12 04:03:55 1515747835.148297: $GPGSV,3,1,12,02,70,321,43,05,41,196,49,06,53,046,42,12,54,265,48*72
2018-01-12 04:03:55 1515747835.148474: $GPGSV,3,2,12,25,28,309,47,29,05,303,46,09,18,075,21,17,20,115,05*76
2018-01-12 04:03:55 1515747835.148543: $GPGSV,3,3,12,19,38,108,05,23,08,043,00,04,49,274,00,138,38,213,00*42
2018-01-12 04:03:55 1515747835.261617: $GPZDA,090355.00,12,01,2018,00,00*65
2018-01-12 04:03:55 1515747835.261747: $GPGGA,090355,3946.9681,N,08404.9663,W,1,06,1.60,303.29,M,-33.324,M,,*74
2018-01-12 04:03:55 1515747835.261814: $GPRMC,090355,A,3946.9681,N,08404.9663,W,0.1867,0.000,120118,,*3A
2018-01-12 04:03:55 1515747835.261876: $GPGSA,A,3,2,5,6,12,25,29,,,,,,,2.4,1.6,2.1*0E
2018-01-12 04:03:55 1515747835.712512: $GPZDA,090356.00,12,01,2018,00,00*66
2018-01-12 04:03:55 1515747835.712659: $GPGGA,090356,3946.9682,N,08404.9671,W,1,06,1.00,304.62,M,-33.324,M,,*79
2018-01-12 04:03:55 1515747835.712725: $GPRMC,090356,A,3946.9682,N,08404.9671,W,0.0000,0.000,120118,,*31
2018-01-12 04:03:55 1515747835.712785: $GPGSA,A,3,2,5,6,12,25,29,,,,,,,2.4,1.0,2.1*08
2018-01-12 04:03:56 1515747836.368408: $GPZDA,090357.00,12,01,2018,00,00*67
2018-01-12 04:03:56 1515747836.368579: $GPGGA,090357,3946.9682,N,08404.9671,W,1,06,1.00,304.62,M,-33.324,M,,*78
2018-01-12 04:03:56 1515747836.368648: $GPRMC,090357,A,3946.9682,N,08404.9671,W,0.0000,0.000,120118,,*30
2018-01-12 04:03:56 1515747836.368709: $GPGSA,A,3,2,5,6,12,25,29,,,,,,,2.4,1.0,2.1*08
2018-01-12 04:03:57 1515747837.702414: $GPGSV,3,1,12,02,70,321,43,05,41,196,49,06,53,046,43,12,54,265,48*73
2018-01-12 04:03:57 1515747837.702584: $GPGSV,3,2,12,25,28,309,47,29,05,303,46,09,18,075,22,17,20,115,00*70
2018-01-12 04:03:57 1515747837.702651: $GPGSV,3,3,12,19,38,108,24,23,08,043,00,04,49,274,00,138,38,213,49*4C
2018-01-12 04:03:57 1515747837.815800: $GPZDA,090358.00,12,01,2018,00,00*68
2018-01-12 04:03:57 1515747837.815986: $GPGGA,090358,3946.9683,N,08404.9678,W,1,09,1.00,304.54,M,-33.324,M,,*75
2018-01-12 04:03:57 1515747837.816054: $GPRMC,090358,A,3946.9683,N,08404.9678,W,0.0000,0.000,120118,,*37
2018-01-12 04:03:57 1515747837.816116: $GPGSA,A,3,2,5,6,12,25,29,9,19,138,,,,2.4,1.0,2.1*03
2018-01-12 04:03:58 1515747838.373251: $GPZDA,090359.00,12,01,2018,00,00*69
2018-01-12 04:03:58 1515747838.373400: $GPGGA,090359,3946.9679,N,08404.9679,W,1,09,1.00,305.30,M,-33.324,M,,*73
2018-01-12 04:03:58 1515747838.373470: $GPRMC,090359,A,3946.9679,N,08404.9679,W,0.0000,0.000,120118,,*32
2018-01-12 04:03:58 1515747838.373531: $GPGSA,A,3,2,5,6,12,25,29,9,19,138,,,,2.4,1.0,2.1*03
