2017-12-01 17:33:35 1512167615.706780: {"class":"VERSION","release":"3.16","rev":"3.16-4","proto_major":3,"proto_minor":11}
2017-12-01 17:33:35 1512167615.707207: {"class":"DEVICES","devices":[{"class":"DEVICE","path":"/dev/ttyUSB0","driver":"SiRF","subtype":"9\u0006GSD4e_4.1.2-P1_RPATCH.05-F-GPS-4R-1510281 11/03/2015 307","activated":"2017-12-01T22:33:35.422Z","flags":1,"native":1,"bps":4800,"parity":"N","stopbits":1,"cycle":1.00}]}
2017-12-01 17:33:35 1512167615.707333: {"class":"WATCH","enable":true,"json":false,"nmea":true,"raw":0,"scaled":false,"timing":false,"split24":false,"pps":false}
2017-12-01 17:33:36 1512167616.024280: $GPZDA,223336.67,01,12,2017,00,00*64
2017-12-01 17:33:36 1512167616.024460: $GPGGA,223336,3946.9711,N,08404.9860,W,1,11,1.00,295.00,M,-33.325,M,,*7A
2017-12-01 17:33:36 1512167616.024527: $GPRMC,223336,A,3946.9711,N,08404.9860,W,0.6309,129.994,011217,,*35
2017-12-01 17:33:36 1512167616.024589: $GPGSA,A,3,1,3,10,14,22,25,26,31,32,12,138,,2.0,1.0,1.5*0A
2017-12-01 17:33:37 1512167617.129463: $GPZDA,223337.36,01,12,2017,00,00*61
2017-12-01 17:33:37 1512167617.129643: $GPGGA,223337,3946.9711,N,08404.9860,W,1,11,1.00,295.00,M,-33.325,M,,*7B
2017-12-01 17:33:37 1512167617.129712: $GPRMC,223337,A,3946.9711,N,08404.9860,W,0.3776,149.506,011217,,*3C
2017-12-01 17:33:37 1512167617.129773: $GPGSA,A,3,1,3,10,14,22,25,26,31,32,12,138,,2.0,1.0,1.5*0A
2017-12-01 17:33:37 1512167617.129832: $GPGBS,223337,10.70,M,15.43,M,35.28,M*03
2017-12-01 17:33:38 1512167618.294561: $GPGSV,3,1,12,01,17,271,44,03,24,315,46,10,18,157,43,14,68,048,43*77
2017-12-01 17:33:38 1512167618.294723: $GPGSV,3,2,12,22,41,300,48,25,34,054,44,26,29,177,42,31,79,301,44*76
2017-12-01 17:33:38 1512167618.294789: $GPGSV,3,3,12,32,52,084,45,12,05,031,02,16,02,190,02,138,38,213,29*42
2017-12-01 17:33:38 1512167618.407944: $GPZDA,223338.00,01,12,2017,00,00*6B
2017-12-01 17:33:38 1512167618.408112: $GPGGA,223338,3946.9711,N,08404.9860,W,1,10,1.00,295.00,M,-33.325,M,,*75
2017-12-01 17:33:38 1512167618.408179: $GPRMC,223338,A,3946.9711,N,08404.9860,W,0.1567,189.200,011217,,*3E
2017-12-01 17:33:38 1512167618.408240: $GPGSA,A,3,1,3,10,14,22,25,26,31,32,138,,,2.0,1.0,1.5*09
2017-12-01 17:33:38 1512167618.858825: $GPZDA,223339.00,01,12,2017,00,00*6A
2017-12-01 17:33:38 1512167618.858995: $GPGGA,223339,3946.9711,N,08404.9860,W,1,10,0.80,295.00,M,-33.325,M,,*7D
2017-12-01 17:33:38 1512167618.859078: $GPRMC,223339,A,3946.9711,N,08404.9860,W,0.1567,189.200,011217,,*3F
2017-12-01 17:33:38 1512167618.859142: $GPGSA,A,3,1,3,10,14,22,25,26,31,32,138,,,2.0,0.8,1.5*00
2017-12-01 17:33:39 1512167619.419696: $GPZDA,223340.00,01,12,2017,00,00*64
2017-12-01 17:33:39 1512167619.419866: $GPGGA,223340,3946.9711,N,08404.9860,W,1,10,0.80,295.00,M,-33.325,M,,*73
2017-12-01 17:33:39 1512167619.419934: $GPRMC,223340,A,3946.9711,N,08404.9860,W,0.0000,0.000,011217,,*36
2017-12-01 17:33:39 1512167619.419995: $GPGSA,A,3,1,3,10,14,22,25,26,31,32,138,,,2.0,0.8,1.5*00
2017-12-01 17:33:40 1512167620.757400: $GPGSV,3,1,12,01,17,271,44,03,24,315,45,10,18,157,43,14,68,048,42*75
2017-12-01 17:33:40 1512167620.757595: $GPGSV,3,2,12,22,41,300,48,25,34,054,43,26,29,177,42,31,79,301,45*70
2017-12-01 17:33:40 1512167620.757683: $GPGSV,3,3,12,32,52,084,45,12,05,031,23,16,02,190,18,138,38,213,45*40
2017-12-01 17:33:40 1512167620.871151: $GPZDA,223341.00,01,12,2017,00,00*65
2017-12-01 17:33:40 1512167620.871324: $GPGGA,223341,3946.9711,N,08404.9860,W,1,12,0.80,295.00,M,-33.325,M,,*70
2017-12-01 17:33:40 1512167620.871461: $GPRMC,223341,A,3946.9711,N,08404.9860,W,0.0000,0.000,011217,,*37
2017-12-01 17:33:40 1512167620.871526: $GPGSA,A,3,1,3,10,14,22,25,26,31,32,12,16,138,2.0,0.8,1.5*04
2017-12-01 17:33:41 1512167621.425153: $GPZDA,223342.00,01,12,2017,00,00*66
2017-12-01 17:33:41 1512167621.425478: $GPGGA,223342,3946.9704,N,08404.9848,W,2,12,1.40,296.69,M,-33.325,M,,*7F
2017-12-01 17:33:41 1512167621.425550: $GPRMC,223342,A,3946.9704,N,08404.9848,W,0.0000,0.000,011217,,*3A
2017-12-01 17:33:41 1512167621.425612: $GPGSA,A,3,1,3,10,14,22,25,26,31,32,12,16,138,2.0,1.4,1.5*09
2017-12-01 17:33:42 1512167622.420213: $GPZDA,223343.00,01,12,2017,00,00*67
2017-12-01 17:33:42 1512167622.420384: $GPGGA,223343,3946.9704,N,08404.9848,W,2,12,1.40,296.69,M,-33.325,M,,*7E
2017-12-01 17:33:42 1512167622.420450: $GPRMC,223343,A,3946.9704,N,08404.9848,W,0.0000,0.000,011217,,*3B
2017-12-01 17:33:42 1512167622.420511: $GPGSA,A,3,1,3,10,14,22,25,26,31,32,12,16,138,2.0,1.4,1.5*09
2017-12-01 17:33:42 1512167622.420570: $GPGBS,223343,2.67,M,3.86,M,8.82,M*35
2017-12-01 17:33:43 1512167623.756137: $GPGSV,3,1,12,01,17,271,44,03,24,315,45,10,18,157,43,14,68,048,41*76
2017-12-01 17:33:43 1512167623.756372: $GPGSV,3,2,12,22,41,300,48,25,34,054,43,26,29,177,42,31,79,301,45*70
2017-12-01 17:33:43 1512167623.756457: $GPGSV,3,3,12,32,52,084,45,12,05,031,23,29,01,091,20,138,38,213,45*44
2017-12-01 17:33:43 1512167623.869313: $GPZDA,223344.00,01,12,2017,00,00*60
2017-12-01 17:33:43 1512167623.869483: $GPGGA,223344,3946.9704,N,08404.9848,W,2,12,1.40,296.69,M,-33.325,M,,*79
2017-12-01 17:33:43 1512167623.869550: $GPRMC,223344,A,3946.9704,N,08404.9848,W,0.0000,0.000,011217,,*3C
2017-12-01 17:33:43 1512167623.869610: $GPGSA,A,3,1,3,10,14,22,25,26,31,32,12,29,138,2.0,1.4,1.5*05
2017-12-01 17:33:44 1512167624.421641: $GPZDA,223345.00,01,12,2017,00,00*61
2017-12-01 17:33:44 1512167624.421813: $GPGGA,223345,3946.9704,N,08404.9848,W,2,12,1.40,296.69,M,-33.325,M,,*78
2017-12-01 17:33:44 1512167624.421879: $GPRMC,223345,A,3946.9704,N,08404.9848,W,0.0000,0.000,011217,,*3D
2017-12-01 17:33:44 1512167624.421939: $GPGSA,A,3,1,3,10,14,22,25,26,31,32,12,29,138,2.0,1.4,1.5*05
2017-12-01 17:33:45 1512167625.421595: $GPZDA,223346.00,01,12,2017,00,00*62
2017-12-01 17:33:45 1512167625.421778: $GPGGA,223346,3946.9704,N,08404.9848,W,2,12,0.80,296.69,M,-33.325,M,,*76
2017-12-01 17:33:45 1512167625.421846: $GPRMC,223346,A,3946.9704,N,08404.9848,W,0.0000,0.000,011217,,*3E
2017-12-01 17:33:45 1512167625.421907: $GPGSA,A,3,1,3,10,14,22,25,26,31,32,12,29,138,2.0,0.8,1.5*08
2017-12-01 17:33:46 1512167626.759768: $GPGSV,3,1,12,01,17,271,45,03,24,315,45,10,18,157,43,14,68,048,42*74
2017-12-01 17:33:46 1512167626.759965: $GPGSV,3,2,12,22,41,300,48,25,34,054,43,26,29,177,43,31,79,301,45*71
2017-12-01 17:33:46 1512167626.760032: $GPGSV,3,3,12,32,52,084,45,12,05,031,23,16,02,190,00,138,38,213,46*4A
2017-12-01 17:33:46 1512167626.873450: $GPZDA,223347.00,01,12,2017,00,00*63
2017-12-01 17:33:46 1512167626.873613: $GPGGA,223347,3946.9704,N,08404.9848,W,2,11,0.80,296.69,M,-33.325,M,,*74
2017-12-01 17:33:46 1512167626.873678: $GPRMC,223347,A,3946.9704,N,08404.9848,W,0.0000,0.000,011217,,*3F
2017-12-01 17:33:46 1512167626.873738: $GPGSA,A,3,1,3,10,14,22,25,26,31,32,12,138,,2.0,0.8,1.5*03
2017-12-01 17:33:47 1512167627.421611: $GPZDA,223348.00,01,12,2017,00,00*6C
2017-12-01 17:33:47 1512167627.421783: $GPGGA,223348,3946.9704,N,08404.9848,W,2,11,0.80,296.69,M,-33.325,M,,*7B
2017-12-01 17:33:47 1512167627.421851: $GPRMC,223348,A,3946.9704,N,08404.9848,W,0.0000,0.000,011217,,*30
2017-12-01 17:33:47 1512167627.421913: $GPGSA,A,3,1,3,10,14,22,25,26,31,32,12,138,,2.0,0.8,1.5*03
2017-12-01 17:33:48 1512167628.423614: $GPZDA,223349.00,01,12,2017,00,00*6D
2017-12-01 17:33:48 1512167628.423793: $GPGGA,223349,3946.9711,N,08404.9840,W,2,11,0.80,296.65,M,-33.325,M,,*7A
2017-12-01 17:33:48 1512167628.423859: $GPRMC,223349,A,3946.9711,N,08404.9840,W,0.0000,0.000,011217,,*3D
2017-12-01 17:33:48 1512167628.423921: $GPGSA,A,3,1,3,10,14,22,25,26,31,32,12,138,,2.0,0.8,1.5*03
2017-12-01 17:33:49 1512167629.765562: $GPGSV,3,1,12,01,17,271,45,03,24,315,45,10,18,157,43,14,68,048,42*74
2017-12-01 17:33:49 1512167629.765715: $GPGSV,3,2,12,22,41,300,48,25,34,054,43,26,29,177,42,31,79,301,45*70
2017-12-01 17:33:49 1512167629.765780: $GPGSV,3,3,12,32,52,084,45,12,05,031,23,16,02,190,05,138,38,213,46*4F
2017-12-01 17:33:49 1512167629.879074: $GPZDA,223350.00,01,12,2017,00,00*65
2017-12-01 17:33:49 1512167629.879242: $GPGGA,223350,3946.9711,N,08404.9840,W,2,11,0.80,296.65,M,-33.325,M,,*72
2017-12-01 17:33:49 1512167629.879309: $GPRMC,223350,A,3946.9711,N,08404.9840,W,0.0000,0.000,011217,,*35
2017-12-01 17:33:49 1512167629.879421: $GPGSA,A,3,1,3,10,14,22,25,26,31,32,12,138,,2.0,0.8,1.5*03
2017-12-01 17:33:50 1512167630.504533: $GPZDA,223351.00,01,12,2017,00,00*64
2017-12-01 17:33:50 1512167630.504710: $GPGGA,223351,3946.9711,N,08404.9840,W,2,11,0.80,296.65,M,-33.325,M,,*73
2017-12-01 17:33:50 1512167630.504777: $GPRMC,223351,A,3946.9711,N,08404.9840,W,0.0000,0.000,011217,,*34
2017-12-01 17:33:50 1512167630.504837: $GPGSA,A,3,1,3,10,14,22,25,26,31,32,12,138,,2.0,0.8,1.5*03
2017-12-01 17:33:51 1512167631.421593: $GPZDA,223352.00,01,12,2017,00,00*67
2017-12-01 17:33:51 1512167631.421763: $GPGGA,223352,3946.9711,N,08404.9840,W,2,11,0.80,296.65,M,-33.325,M,,*70
2017-12-01 17:33:51 1512167631.421830: $GPRMC,223352,A,3946.9711,N,08404.9840,W,0.0000,0.000,011217,,*37
2017-12-01 17:33:51 1512167631.421891: $GPGSA,A,3,1,3,10,14,22,25,26,31,32,12,138,,2.0,0.8,1.5*03
2017-12-01 17:33:52 1512167632.757290: $GPGSV,3,1,12,01,17,271,44,03,24,315,44,10,18,157,43,14,68,048,42*74
2017-12-01 17:33:52 1512167632.757474: $GPGSV,3,2,12,22,41,300,48,25,34,054,42,26,29,177,42,31,79,301,46*72
2017-12-01 17:33:52 1512167632.757541: $GPGSV,3,3,12,32,52,084,45,12,05,031,24,16,02,190,00,138,38,213,46*4D
2017-12-01 17:33:52 1512167632.870677: $GPZDA,223353.00,01,12,2017,00,00*66
2017-12-01 17:33:52 1512167632.870823: $GPGGA,223353,3946.9711,N,08404.9840,W,2,11,0.80,296.65,M,-33.325,M,,*71
2017-12-01 17:33:52 1512167632.870888: $GPRMC,223353,A,3946.9711,N,08404.9840,W,0.0000,0.000,011217,,*36
2017-12-01 17:33:52 1512167632.870949: $GPGSA,A,3,1,3,10,14,22,25,26,31,32,12,138,,2.0,0.8,1.5*03
2017-12-01 17:33:53 1512167633.423032: $GPZDA,223354.00,01,12,2017,00,00*61
2017-12-01 17:33:53 1512167633.423204: $GPGGA,223354,3946.9711,N,08404.9840,W,2,11,0.80,296.65,M,-33.325,M,,*76
2017-12-01 17:33:53 1512167633.423272: $GPRMC,223354,A,3946.9711,N,08404.9840,W,0.0000,0.000,011217,,*31
2017-12-01 17:33:53 1512167633.423332: $GPGSA,A,3,1,3,10,14,22,25,26,31,32,12,138,,2.0,0.8,1.5*03
2017-12-01 17:33:54 1512167634.431186: $GPZDA,223355.00,01,12,2017,00,00*60
2017-12-01 17:33:54 1512167634.431406: $GPGGA,223355,3946.9711,N,08404.9840,W,2,11,0.80,296.65,M,-33.325,M,,*77
2017-12-01 17:33:54 1512167634.431485: $GPRMC,223355,A,3946.9711,N,08404.9840,W,0.0000,0.000,011217,,*30
2017-12-01 17:33:54 1512167634.431547: $GPGSA,A,3,1,3,10,14,22,25,26,31,32,12,138,,2.0,0.8,1.5*03
2017-12-01 17:33:54 1512167634.431605: $GPGBS,223355,2.67,M,3.86,M,8.82,M*32
