2017-12-01 13:19:02 1512152342.747324: {"class":"VERSION","release":"3.16","rev":"3.16-4","proto_major":3,"proto_minor":11}
2017-12-01 13:19:02 1512152342.747956: {"class":"DEVICES","devices":[{"class":"DEVICE","path":"/dev/ttyUSB0","driver":"SiRF","subtype":"9\u0006GSD4e_4.1.2-P1_RPATCH.05-F-GPS-4R-1510281 11/03/2015 307","activated":"2017-12-01T18:19:02.308Z","flags":1,"native":1,"bps":4800,"parity":"N","stopbits":1,"cycle":1.00}]}
2017-12-01 13:19:02 1512152342.748112: {"class":"WATCH","enable":true,"json":false,"nmea":true,"raw":0,"scaled":false,"timing":false,"split24":false,"pps":false}
2017-12-01 13:19:02 1512152342.756691: $GPGSV,3,1,12,08,07,319,35,10,44,303,47,15,34,054,47,18,73,345,43*71
2017-12-01 13:19:02 1512152342.756906: $GPGSV,3,2,12,20,31,099,45,21,60,187,45,24,52,105,47,14,06,234,00*70
2017-12-01 13:19:02 1512152342.756975: $GPGSV,3,3,12,32,23,240,42,13,05,049,22,27,18,286,41,138,38,213,46*46
2017-12-01 13:19:02 1512152342.870315: $GPZDA,181903.00,01,12,2017,00,00*62
2017-12-01 13:19:02 1512152342.870477: $GPGGA,181903,3946.9581,N,08404.9849,W,2,11,1.00,305.22,M,-33.324,M,,*77
2017-12-01 13:19:02 1512152342.870546: $GPRMC,181903,A,3946.9581,N,08404.9849,W,0.0000,0.000,011217,,*30
2017-12-01 13:19:02 1512152342.870608: $GPGSA,A,3,8,10,15,18,20,21,24,32,13,27,138,,2.0,1.0,1.5*3A
2017-12-01 13:19:03 1512152343.422558: $GPZDA,181904.00,01,12,2017,00,00*65
2017-12-01 13:19:03 1512152343.422728: $GPGGA,181904,3946.9581,N,08404.9849,W,2,11,0.80,305.22,M,-33.324,M,,*79
2017-12-01 13:19:03 1512152343.422795: $GPRMC,181904,A,3946.9581,N,08404.9849,W,0.0000,0.000,011217,,*37
2017-12-01 13:19:03 1512152343.422857: $GPGSA,A,3,8,10,15,18,20,21,24,32,13,27,138,,2.0,0.8,1.5*33
2017-12-01 13:19:04 1512152344.403374: $GPZDA,181905.00,01,12,2017,00,00*64
2017-12-01 13:19:04 1512152344.403547: $GPGGA,181905,3946.9581,N,08404.9849,W,2,11,1.00,305.22,M,-33.324,M,,*71
2017-12-01 13:19:04 1512152344.403613: $GPRMC,181905,A,3946.9581,N,08404.9849,W,0.0000,0.000,011217,,*36
2017-12-01 13:19:04 1512152344.403692: $GPGSA,A,3,8,10,15,18,20,21,24,32,13,27,138,,2.0,1.0,1.5*3A
2017-12-01 13:19:05 1512152345.758823: $GPGSV,3,1,12,08,07,319,34,10,44,303,47,15,34,054,47,18,73,345,43*70
2017-12-01 13:19:05 1512152345.759019: $GPGSV,3,2,12,20,31,099,45,21,60,187,45,24,52,105,47,14,06,234,11*70
2017-12-01 13:19:05 1512152345.759087: $GPGSV,3,3,12,32,23,240,42,13,05,049,22,27,18,286,41,138,38,213,46*46
2017-12-01 13:19:05 1512152345.872595: $GPZDA,181906.00,01,12,2017,00,00*67
2017-12-01 13:19:05 1512152345.872919: $GPGGA,181906,3946.9581,N,08404.9849,W,2,12,0.80,305.22,M,-33.324,M,,*78
2017-12-01 13:19:05 1512152345.873081: $GPRMC,181906,A,3946.9581,N,08404.9849,W,0.0000,0.000,011217,,*35
2017-12-01 13:19:05 1512152345.873212: $GPGSA,A,3,8,10,15,18,20,21,24,14,32,13,27,138,2.0,0.8,1.5*36
2017-12-01 13:19:06 1512152346.497857: $GPZDA,181907.00,01,12,2017,00,00*66
2017-12-01 13:19:06 1512152346.498046: $GPGGA,181907,3946.9581,N,08404.9849,W,2,12,0.80,305.22,M,-33.324,M,,*79
2017-12-01 13:19:06 1512152346.498114: $GPRMC,181907,A,3946.9581,N,08404.9849,W,0.0000,0.000,011217,,*34
2017-12-01 13:19:06 1512152346.498192: $GPGSA,A,3,8,10,15,18,20,21,24,14,32,13,27,138,2.0,0.8,1.5*36
2017-12-01 13:19:07 1512152347.402508: $GPZDA,181908.00,01,12,2017,00,00*69
2017-12-01 13:19:07 1512152347.402678: $GPGGA,181908,3946.9581,N,08404.9849,W,2,12,0.80,305.22,M,-33.324,M,,*76
2017-12-01 13:19:07 1512152347.402744: $GPRMC,181908,A,3946.9581,N,08404.9849,W,0.0000,0.000,011217,,*3B
2017-12-01 13:19:07 1512152347.402805: $GPGSA,A,3,8,10,15,18,20,21,24,14,32,13,27,138,2.0,0.8,1.5*36
2017-12-01 13:19:08 1512152348.759189: $GPGSV,3,1,12,08,07,319,35,10,44,303,46,15,34,054,47,18,73,345,43*70
2017-12-01 13:19:08 1512152348.759361: $GPGSV,3,2,12,20,31,099,45,21,60,187,45,24,52,105,47,14,06,234,27*75
2017-12-01 13:19:08 1512152348.759427: $GPGSV,3,3,12,32,23,240,42,13,05,049,21,27,18,286,42,138,38,213,46*46
2017-12-01 13:19:08 1512152348.872585: $GPZDA,181909.00,01,12,2017,00,00*68
2017-12-01 13:19:08 1512152348.872754: $GPGGA,181909,3946.9581,N,08404.9849,W,2,12,1.00,305.22,M,-33.324,M,,*7E
2017-12-01 13:19:08 1512152348.872886: $GPRMC,181909,A,3946.9581,N,08404.9849,W,0.0000,0.000,011217,,*3A
2017-12-01 13:19:08 1512152348.872951: $GPGSA,A,3,8,10,15,18,20,21,24,14,32,13,27,138,2.0,1.0,1.5*3F
2017-12-01 13:19:09 1512152349.403706: $GPZDA,181910.00,01,12,2017,00,00*60
2017-12-01 13:19:09 1512152349.403875: $GPGGA,181910,3946.9581,N,08404.9849,W,2,12,1.00,305.22,M,-33.324,M,,*76
2017-12-01 13:19:09 1512152349.403941: $GPRMC,181910,A,3946.9581,N,08404.9849,W,0.0000,0.000,011217,,*32
2017-12-01 13:19:09 1512152349.404028: $GPGSA,A,3,8,10,15,18,20,21,24,14,32,13,27,138,2.0,1.0,1.5*3F
2017-12-01 13:19:10 1512152350.401956: $GPZDA,181911.00,01,12,2017,00,00*61
2017-12-01 13:19:10 1512152350.402304: $GPGGA,181911,3946.9581,N,08404.9849,W,2,12,1.00,305.22,M,-33.324,M,,*77
2017-12-01 13:19:10 1512152350.402446: $GPRMC,181911,A,3946.9581,N,08404.9849,W,0.0000,0.000,011217,,*33
2017-12-01 13:19:10 1512152350.402551: $GPGSA,A,3,8,10,15,18,20,21,24,14,32,13,27,138,2.0,1.0,1.5*3F
2017-12-01 13:19:11 1512152351.737037: $GPGSV,3,1,12,08,07,319,41,10,44,303,46,15,34,054,48,18,73,345,43*7C
2017-12-01 13:19:11 1512152351.737242: $GPGSV,3,2,12,20,31,099,45,21,60,187,45,24,52,105,47,14,06,234,27*75
2017-12-01 13:19:11 1512152351.737330: $GPGSV,3,3,12,32,23,240,42,13,05,049,21,27,18,286,42,138,38,213,47*47
2017-12-01 13:19:11 1512152351.850690: $GPZDA,181912.00,01,12,2017,00,00*62
2017-12-01 13:19:11 1512152351.850859: $GPGGA,181912,3946.9581,N,08404.9849,W,2,11,1.00,305.22,M,-33.324,M,,*77
2017-12-01 13:19:11 1512152351.850926: $GPRMC,181912,A,3946.9581,N,08404.9849,W,0.0000,0.000,011217,,*30
2017-12-01 13:19:11 1512152351.851011: $GPGSA,A,3,8,10,15,18,20,21,24,14,32,27,138,,2.0,1.0,1.5*3D
2017-12-01 13:19:12 1512152352.405062: $GPZDA,181913.00,01,12,2017,00,00*63
2017-12-01 13:19:12 1512152352.405247: $GPGGA,181913,3946.9581,N,08404.9849,W,2,11,1.00,305.22,M,-33.324,M,,*76
2017-12-01 13:19:12 1512152352.405316: $GPRMC,181913,A,3946.9581,N,08404.9849,W,0.0000,0.000,011217,,*31
2017-12-01 13:19:12 1512152352.405378: $GPGSA,A,3,8,10,15,18,20,21,24,14,32,27,138,,2.0,1.0,1.5*3D
