2017-12-31 18:38:47 1514763527.042248: {"class":"VERSION","release":"3.16","rev":"3.16-4","proto_major":3,"proto_minor":11}
2017-12-31 18:38:47 1514763527.042586: {"class":"DEVICES","devices":[{"class":"DEVICE","path":"/dev/ttyUSB0","driver":"SiRF","activated":"2017-12-31T23:38:46.494Z","flags":1,"native":1,"bps":4800,"parity":"N","stopbits":1,"cycle":1.00}]}
2017-12-31 18:38:47 1514763527.042683: {"class":"WATCH","enable":true,"json":false,"nmea":true,"raw":0,"scaled":false,"timing":false,"split24":false,"pps":false}
2017-12-31 18:38:47 1514763527.352543: $GPZDA,233848.00,31,12,2017,00,00*65
2017-12-31 18:38:47 1514763527.352725: $GPGGA,233848,3946.9582,N,08404.9837,W,2,12,0.80,308.19,M,-33.324,M,,*76
2017-12-31 18:38:47 1514763527.352792: $GPRMC,233848,A,3946.9582,N,08404.9837,W,0.0000,0.000,311217,,*3D
2017-12-31 18:38:47 1514763527.352869: $GPGSA,A,3,22,23,9,3,16,8,14,31,27,7,26,135,1.7,0.8,1.3*0C
2017-12-31 18:38:48 1514763528.724530: $GPGSV,3,1,12,22,12,207,27,23,64,292,41,09,31,312,40,03,22,225,34*7A
2017-12-31 18:38:48 1514763528.724705: $GPGSV,3,2,12,16,83,042,41,08,11,177,20,14,04,138,18,31,20,084,37*75
2017-12-31 18:38:48 1514763528.724772: $GPGSV,3,3,12,27,34,147,39,07,06,280,42,26,50,046,46,135,22,240,43*4A
2017-12-31 18:38:48 1514763528.837950: $GPZDA,233849.00,31,12,2017,00,00*64
2017-12-31 18:38:48 1514763528.838075: $GPGGA,233849,3946.9582,N,08404.9837,W,2,12,0.80,308.19,M,-33.324,M,,*77
2017-12-31 18:38:48 1514763528.838139: $GPRMC,233849,A,3946.9582,N,08404.9837,W,0.0000,0.000,311217,,*3C
2017-12-31 18:38:48 1514763528.838200: $GPGSA,A,3,22,23,9,3,16,8,14,31,27,7,26,135,1.7,0.8,1.3*0C
2017-12-31 18:38:49 1514763529.353782: $GPZDA,233850.00,31,12,2017,00,00*6C
2017-12-31 18:38:49 1514763529.353965: $GPGGA,233850,3946.9582,N,08404.9837,W,2,12,0.80,308.19,M,-33.324,M,,*7F
2017-12-31 18:38:49 1514763529.354032: $GPRMC,233850,A,3946.9582,N,08404.9837,W,0.0000,0.000,311217,,*34
2017-12-31 18:38:49 1514763529.354093: $GPGSA,A,3,22,23,9,3,16,8,14,31,27,7,26,135,1.7,0.8,1.3*0C
2017-12-31 18:38:50 1514763530.389161: $GPZDA,233851.00,31,12,2017,00,00*6D
2017-12-31 18:38:50 1514763530.389326: $GPGGA,233851,3946.9582,N,08404.9837,W,2,12,0.80,308.19,M,-33.324,M,,*7E
2017-12-31 18:38:50 1514763530.389392: $GPRMC,233851,A,3946.9582,N,08404.9837,W,0.0000,0.000,311217,,*35
2017-12-31 18:38:50 1514763530.389453: $GPGSA,A,3,22,23,9,3,16,8,14,31,27,7,26,135,1.7,0.8,1.3*0C
2017-12-31 18:38:51 1514763531.688632: $GPGSV,3,1,12,22,12,207,27,23,64,292,41,09,31,312,40,03,22,225,35*7B
2017-12-31 18:38:51 1514763531.688837: $GPGSV,3,2,12,16,83,042,42,08,11,177,21,14,04,138,19,31,20,084,38*79
2017-12-31 18:38:51 1514763531.688904: $GPGSV,3,3,12,27,34,147,39,07,06,280,42,26,50,046,46,135,22,240,43*4A
2017-12-31 18:38:51 1514763531.802031: $GPZDA,233852.00,31,12,2017,00,00*6E
2017-12-31 18:38:51 1514763531.802168: $GPGGA,233852,3946.9578,N,08404.9837,W,2,12,0.80,307.55,M,-33.324,M,,*7F
2017-12-31 18:38:51 1514763531.802233: $GPRMC,233852,A,3946.9578,N,08404.9837,W,0.0000,0.000,311217,,*33
2017-12-31 18:38:51 1514763531.802293: $GPGSA,A,3,22,23,9,3,16,8,14,31,27,7,26,135,1.7,0.8,1.3*0C
2017-12-31 18:38:52 1514763532.389138: $GPZDA,233853.00,31,12,2017,00,00*6F
2017-12-31 18:38:52 1514763532.389300: $GPGGA,233853,3946.9578,N,08404.9837,W,2,12,0.80,307.55,M,-33.324,M,,*7E
2017-12-31 18:38:52 1514763532.389367: $GPRMC,233853,A,3946.9578,N,08404.9837,W,0.0000,0.000,311217,,*32
2017-12-31 18:38:52 1514763532.389427: $GPGSA,A,3,22,23,9,3,16,8,14,31,27,7,26,135,1.7,0.8,1.3*0C
2017-12-31 18:38:53 1514763533.352501: $GPZDA,233854.00,31,12,2017,00,00*68
2017-12-31 18:38:53 1514763533.352676: $GPGGA,233854,3946.9578,N,08404.9837,W,2,12,0.80,307.55,M,-33.324,M,,*79
2017-12-31 18:38:53 1514763533.352743: $GPRMC,233854,A,3946.9578,N,08404.9837,W,0.0000,0.000,311217,,*35
2017-12-31 18:38:53 1514763533.352821: $GPGSA,A,3,22,23,9,3,16,8,14,31,27,7,26,135,1.7,0.8,1.3*0C
2017-12-31 18:38:54 1514763534.688233: $GPGSV,3,1,12,22,12,207,27,23,64,292,41,09,31,312,40,03,22,225,34*7A
2017-12-31 18:38:54 1514763534.688405: $GPGSV,3,2,12,16,83,042,42,08,11,177,21,14,04,138,19,31,20,084,38*79
2017-12-31 18:38:54 1514763534.688523: $GPGSV,3,3,12,27,34,147,39,07,06,280,42,26,50,046,46,135,22,240,44*4D
2017-12-31 18:38:54 1514763534.801599: $GPZDA,233855.00,31,12,2017,00,00*69
2017-12-31 18:38:54 1514763534.801748: $GPGGA,233855,3946.9578,N,08404.9837,W,2,12,0.80,307.55,M,-33.324,M,,*78
2017-12-31 18:38:54 1514763534.801830: $GPRMC,233855,A,3946.9578,N,08404.9837,W,0.0000,0.000,311217,,*34
2017-12-31 18:38:54 1514763534.801892: $GPGSA,A,3,22,23,9,3,16,8,14,31,27,7,26,135,1.7,0.8,1.3*0C
2017-12-31 18:38:55 1514763535.428343: $GPZDA,233856.00,31,12,2017,00,00*6A
2017-12-31 18:38:55 1514763535.428507: $GPGGA,233856,3946.9578,N,08404.9837,W,2,12,0.80,307.55,M,-33.324,M,,*7B
2017-12-31 18:38:55 1514763535.428574: $GPRMC,233856,A,3946.9578,N,08404.9837,W,0.0000,0.000,311217,,*37
2017-12-31 18:38:55 1514763535.428635: $GPGSA,A,3,22,23,9,3,16,8,14,31,27,7,26,135,1.7,0.8,1.3*0C
2017-12-31 18:38:56 1514763536.353112: $GPZDA,233857.00,31,12,2017,00,00*6B
2017-12-31 18:38:56 1514763536.353294: $GPGGA,233857,3946.9578,N,08404.9837,W,2,12,0.80,307.55,M,-33.324,M,,*7A
2017-12-31 18:38:56 1514763536.353362: $GPRMC,233857,A,3946.9578,N,08404.9837,W,0.0000,0.000,311217,,*36
2017-12-31 18:38:56 1514763536.353456: $GPGSA,A,3,22,23,9,3,16,8,14,31,27,7,26,135,1.7,0.8,1.3*0C
