2017-12-01 12:29:10 1512149350.657369: {"class":"VERSION","release":"3.16","rev":"3.16-4","proto_major":3,"proto_minor":11}
2017-12-01 12:29:10 1512149350.657888: {"class":"DEVICES","devices":[{"class":"DEVICE","path":"/dev/ttyUSB0","driver":"SiRF","subtype":"9\u0006GSD4e_4.1.2-P1_RPATCH.05-F-GPS-4R-1510281 11/03/2015 307","activated":"2017-12-01T17:29:10.241Z","flags":1,"native":1,"bps":4800,"parity":"N","stopbits":1,"cycle":1.00}]}
2017-12-01 12:29:10 1512149350.658006: {"class":"WATCH","enable":true,"json":false,"nmea":true,"raw":0,"scaled":false,"timing":false,"split24":false,"pps":false}
2017-12-01 12:29:10 1512149350.701575: $GPGSV,3,1,11,10,27,286,38,13,24,045,44,15,56,049,47,18,58,306,45*74
2017-12-01 12:29:10 1512149350.701722: $GPGSV,3,2,11,20,48,078,45,21,79,238,43,24,38,133,47,27,18,309,33*72
2017-12-01 12:29:10 1512149350.701789: $GPGSV,3,3,11,29,05,187,30,32,05,228,00,138,38,213,46*75
2017-12-01 12:29:10 1512149350.802996: $GPZDA,172911.00,01,12,2017,00,00*6D
2017-12-01 12:29:10 1512149350.803143: $GPGGA,172911,3946.9561,N,08404.9870,W,2,10,0.80,301.79,M,-33.324,M,,*7E
2017-12-01 12:29:10 1512149350.803208: $GPRMC,172911,A,3946.9561,N,08404.9870,W,0.0000,0.000,011217,,*3B
2017-12-01 12:29:10 1512149350.803268: $GPGSA,A,3,10,13,15,18,20,21,24,27,29,138,,,2.0,0.8,1.5*01
2017-12-01 12:29:11 1512149351.428454: $GPZDA,172912.00,01,12,2017,00,00*6E
2017-12-01 12:29:11 1512149351.428642: $GPGGA,172912,3946.9561,N,08404.9870,W,2,10,0.80,301.79,M,-33.324,M,,*7D
2017-12-01 12:29:11 1512149351.428713: $GPRMC,172912,A,3946.9561,N,08404.9870,W,0.0000,0.000,011217,,*38
2017-12-01 12:29:11 1512149351.428791: $GPGSA,A,3,10,13,15,18,20,21,24,27,29,138,,,2.0,0.8,1.5*01
2017-12-01 12:29:12 1512149352.357172: $GPZDA,172913.00,01,12,2017,00,00*6F
2017-12-01 12:29:12 1512149352.357342: $GPGGA,172913,3946.9561,N,08404.9870,W,2,10,0.80,301.79,M,-33.324,M,,*7C
2017-12-01 12:29:12 1512149352.357409: $GPRMC,172913,A,3946.9561,N,08404.9870,W,0.0000,0.000,011217,,*39
2017-12-01 12:29:12 1512149352.357470: $GPGSA,A,3,10,13,15,18,20,21,24,27,29,138,,,2.0,0.8,1.5*01
2017-12-01 12:29:13 1512149353.693824: $GPGSV,3,1,11,10,27,286,38,13,24,045,44,15,56,049,47,18,58,306,45*74
2017-12-01 12:29:13 1512149353.694004: $GPGSV,3,2,11,20,48,078,45,21,79,238,42,24,38,133,47,27,18,309,33*73
2017-12-01 12:29:13 1512149353.694072: $GPGSV,3,3,11,29,05,187,30,32,05,228,00,138,38,213,46*75
2017-12-01 12:29:13 1512149353.806012: $GPZDA,172914.00,01,12,2017,00,00*68
2017-12-01 12:29:13 1512149353.806181: $GPGGA,172914,3946.9561,N,08404.9870,W,2,10,0.80,301.79,M,-33.324,M,,*7B
2017-12-01 12:29:13 1512149353.806248: $GPRMC,172914,A,3946.9561,N,08404.9870,W,0.0000,0.000,011217,,*3E
2017-12-01 12:29:13 1512149353.806308: $GPGSA,A,3,10,13,15,18,20,21,24,27,29,138,,,2.0,0.8,1.5*01
2017-12-01 12:29:14 1512149354.359500: $GPZDA,172915.00,01,12,2017,00,00*69
2017-12-01 12:29:14 1512149354.359785: $GPGGA,172915,3946.9558,N,08404.9871,W,2,10,0.80,302.55,M,-33.324,M,,*7C
2017-12-01 12:29:14 1512149354.359858: $GPRMC,172915,A,3946.9558,N,08404.9871,W,0.0000,0.000,011217,,*34
2017-12-01 12:29:14 1512149354.359919: $GPGSA,A,3,10,13,15,18,20,21,24,27,29,138,,,2.0,0.8,1.5*01
2017-12-01 12:29:15 1512149355.356503: $GPZDA,172916.00,01,12,2017,00,00*6A
2017-12-01 12:29:15 1512149355.356683: $GPGGA,172916,3946.9558,N,08404.9871,W,2,10,0.80,302.55,M,-33.324,M,,*7F
2017-12-01 12:29:15 1512149355.356752: $GPRMC,172916,A,3946.9558,N,08404.9871,W,0.0000,0.000,011217,,*37
2017-12-01 12:29:15 1512149355.356831: $GPGSA,A,3,10,13,15,18,20,21,24,27,29,138,,,2.0,0.8,1.5*01
2017-12-01 12:29:16 1512149356.691849: $GPGSV,3,1,11,10,27,286,39,13,24,045,43,15,56,049,47,18,58,306,45*72
2017-12-01 12:29:16 1512149356.692028: $GPGSV,3,2,11,20,48,078,45,21,79,238,42,24,38,133,47,27,18,309,34*74
2017-12-01 12:29:16 1512149356.692095: $GPGSV,3,3,11,29,05,187,30,32,05,228,26,138,38,213,46*71
2017-12-01 12:29:16 1512149356.805513: $GPZDA,172917.00,01,12,2017,00,00*6B
2017-12-01 12:29:16 1512149356.805704: $GPGGA,172917,3946.9558,N,08404.9871,W,2,11,0.80,302.55,M,-33.324,M,,*7F
2017-12-01 12:29:16 1512149356.805841: $GPRMC,172917,A,3946.9558,N,08404.9871,W,0.0000,0.000,011217,,*36
2017-12-01 12:29:16 1512149356.805904: $GPGSA,A,3,10,13,15,18,20,21,24,27,29,32,138,,2.0,0.8,1.5*00
2017-12-01 12:29:17 1512149357.354803: $GPZDA,172918.00,01,12,2017,00,00*64
2017-12-01 12:29:17 1512149357.354981: $GPGGA,172918,3946.9558,N,08404.9871,W,2,11,0.80,302.55,M,-33.324,M,,*70
2017-12-01 12:29:17 1512149357.355049: $GPRMC,172918,A,3946.9558,N,08404.9871,W,0.0000,0.000,011217,,*39
2017-12-01 12:29:17 1512149357.355110: $GPGSA,A,3,10,13,15,18,20,21,24,27,29,32,138,,2.0,0.8,1.5*00
2017-12-01 12:29:18 1512149358.352327: $GPZDA,172919.00,01,12,2017,00,00*65
2017-12-01 12:29:18 1512149358.352495: $GPGGA,172919,3946.9558,N,08404.9871,W,2,11,0.80,302.55,M,-33.324,M,,*71
2017-12-01 12:29:18 1512149358.352562: $GPRMC,172919,A,3946.9558,N,08404.9871,W,0.0000,0.000,011217,,*38
2017-12-01 12:29:18 1512149358.352646: $GPGSA,A,3,10,13,15,18,20,21,24,27,29,32,138,,2.0,0.8,1.5*00
2017-12-01 12:29:19 1512149359.691335: $GPGSV,3,1,11,10,27,286,39,13,24,045,43,15,56,049,47,18,58,306,45*72
2017-12-01 12:29:19 1512149359.989141: $GPGSV,3,2,11,20,48,078,45,21,79,238,42,24,38,133,47,27,18,309,35*75
2017-12-01 12:29:19 1512149359.989315: $GPGSV,3,3,11,29,05,187,30,32,05,228,27,138,38,213,46*70
2017-12-01 12:29:19 1512149359.989416: $GPZDA,172920.00,01,12,2017,00,00*6F
2017-12-01 12:29:19 1512149359.989474: $GPGGA,172920,3946.9554,N,08404.9871,W,2,11,0.80,301.91,M,-33.324,M,,*7C
2017-12-01 12:29:19 1512149359.989538: $GPRMC,172920,A,3946.9554,N,08404.9871,W,0.1867,180.000,011217,,*3F
2017-12-01 12:29:19 1512149359.989598: $GPGSA,A,3,10,13,15,18,20,21,24,27,29,32,138,,2.0,0.8,1.5*00
2017-12-01 12:29:20 1512149360.359354: $GPZDA,172921.00,01,12,2017,00,00*6E
2017-12-01 12:29:20 1512149360.359539: $GPGGA,172921,3946.9554,N,08404.9871,W,2,11,0.80,301.91,M,-33.324,M,,*7D
2017-12-01 12:29:20 1512149360.359610: $GPRMC,172921,A,3946.9554,N,08404.9871,W,0.0000,0.000,011217,,*3F
2017-12-01 12:29:20 1512149360.359676: $GPGSA,A,3,10,13,15,18,20,21,24,27,29,32,138,,2.0,0.8,1.5*00
