2017-12-01 16:18:23 1512163103.887480: {"class":"VERSION","release":"3.16","rev":"3.16-4","proto_major":3,"proto_minor":11}
2017-12-01 16:18:23 1512163103.887922: {"class":"DEVICES","devices":[{"class":"DEVICE","path":"/dev/ttyUSB0","driver":"SiRF","subtype":"9\u0006GSD4e_4.1.2-P1_RPATCH.05-F-GPS-4R-1510281 11/03/2015 307","activated":"2017-12-01T21:18:23.858Z","flags":1,"native":1,"bps":4800,"parity":"N","stopbits":1,"cycle":1.00}]}
2017-12-01 16:18:23 1512163103.888044: {"class":"WATCH","enable":true,"json":false,"nmea":true,"raw":0,"scaled":false,"timing":false,"split24":false,"pps":false}
2017-12-01 16:18:23 1512163103.972003: $GPZDA,211824.63,01,12,2017,00,00*69
2017-12-01 16:18:23 1512163103.972159: $GPGGA,211824,3946.9605,N,08404.9786,W,1,11,0.80,321.85,M,-33.324,M,,*7B
2017-12-01 16:18:23 1512163103.972228: $GPRMC,211824,A,3946.9605,N,08404.9786,W,0.1176,219.705,011217,,*34
2017-12-01 16:18:23 1512163103.972289: $GPGSA,A,3,10,22,12,14,18,11,25,31,32,1,138,,2.0,0.8,1.5*3D
2017-12-01 16:18:25 1512163105.053464: $GPZDA,211825.32,01,12,2017,00,00*6C
2017-12-01 16:18:25 1512163105.053649: $GPGGA,211825,3946.9600,N,08404.9786,W,1,11,0.80,321.21,M,-33.324,M,,*71
2017-12-01 16:18:25 1512163105.053718: $GPRMC,211825,A,3946.9600,N,08404.9786,W,0.3006,242.539,011217,,*37
2017-12-01 16:18:25 1512163105.053783: $GPGSA,A,3,10,22,12,14,18,11,25,31,32,1,138,,2.0,0.8,1.5*3D
2017-12-01 16:18:25 1512163105.053843: $GPGBS,211825,10.70,M,15.43,M,35.28,M*0A
2017-12-01 16:18:26 1512163106.196351: $GPGSV,3,1,12,10,53,145,47,11,09,286,36,12,24,055,46,14,63,316,46*7D
2017-12-01 16:18:26 1512163106.196596: $GPGSV,3,2,12,18,23,142,46,22,15,312,41,25,38,097,46,31,51,220,49*7C
2017-12-01 16:18:26 1512163106.196686: $GPGSV,3,3,12,32,69,013,47,01,20,306,33,24,02,048,00,138,38,213,00*4A
2017-12-01 16:18:26 1512163106.309955: $GPZDA,211826.00,01,12,2017,00,00*6E
2017-12-01 16:18:26 1512163106.310140: $GPGGA,211826,3946.9600,N,08404.9786,W,1,10,0.80,321.21,M,-33.324,M,,*73
2017-12-01 16:18:26 1512163106.310208: $GPRMC,211826,A,3946.9600,N,08404.9786,W,0.0000,0.000,011217,,*3A
2017-12-01 16:18:26 1512163106.310271: $GPGSA,A,3,10,11,12,14,18,22,25,31,32,1,,,2.0,0.8,1.5*07
2017-12-01 16:18:26 1512163106.761960: $GPZDA,211827.00,01,12,2017,00,00*6F
2017-12-01 16:18:26 1512163106.762134: $GPGGA,211827,3946.9596,N,08404.9786,W,1,10,0.80,320.57,M,-33.324,M,,*7E
2017-12-01 16:18:26 1512163106.762202: $GPRMC,211827,A,3946.9596,N,08404.9786,W,0.2758,128.233,011217,,*36
2017-12-01 16:18:26 1512163106.762265: $GPGSA,A,3,10,11,12,14,18,22,25,31,32,1,,,2.0,0.8,1.5*07
2017-12-01 16:18:27 1512163107.366275: $GPZDA,211828.00,01,12,2017,00,00*60
2017-12-01 16:18:27 1512163107.366462: $GPGGA,211828,3946.9592,N,08404.9793,W,1,10,0.80,319.85,M,-33.324,M,,*74
2017-12-01 16:18:27 1512163107.366536: $GPRMC,211828,A,3946.9592,N,08404.9793,W,0.1867,180.000,011217,,*39
2017-12-01 16:18:27 1512163107.366601: $GPGSA,A,3,10,11,12,14,18,22,25,31,32,1,,,2.0,0.8,1.5*07
2017-12-01 16:18:28 1512163108.698945: $GPGSV,3,1,12,10,53,145,47,11,09,286,36,12,24,055,46,14,63,316,46*7D
2017-12-01 16:18:28 1512163108.703565: $GPGSV,3,2,12,18,23,142,45,22,15,312,40,25,38,097,45,31,51,220,49*7D
2017-12-01 16:18:28 1512163108.703682: $GPGSV,3,3,12,32,69,013,47,01,20,306,34,24,02,048,09,138,38,213,47*47
2017-12-01 16:18:28 1512163108.812477: $GPZDA,211829.00,01,12,2017,00,00*61
2017-12-01 16:18:28 1512163108.812620: $GPGGA,211829,3946.9592,N,08404.9793,W,1,11,0.80,319.85,M,-33.324,M,,*74
2017-12-01 16:18:28 1512163108.812686: $GPRMC,211829,A,3946.9592,N,08404.9793,W,0.0000,0.000,011217,,*39
2017-12-01 16:18:28 1512163108.812748: $GPGSA,A,3,10,11,12,14,18,22,25,31,32,1,138,,2.0,0.8,1.5*3D
2017-12-01 16:18:29 1512163109.363238: $GPZDA,211830.00,01,12,2017,00,00*69
2017-12-01 16:18:29 1512163109.363394: $GPGGA,211830,3946.9589,N,08404.9800,W,1,11,0.80,319.14,M,-33.324,M,,*7B
2017-12-01 16:18:29 1512163109.363463: $GPRMC,211830,A,3946.9589,N,08404.9800,W,0.0000,0.000,011217,,*3E
2017-12-01 16:18:29 1512163109.363528: $GPGSA,A,3,10,11,12,14,18,22,25,31,32,1,138,,2.0,0.8,1.5*3D
2017-12-01 16:18:30 1512163110.362748: $GPZDA,211831.00,01,12,2017,00,00*68
2017-12-01 16:18:30 1512163110.362923: $GPGGA,211831,3946.9585,N,08404.9800,W,1,11,0.80,318.50,M,-33.324,M,,*77
2017-12-01 16:18:30 1512163110.362993: $GPRMC,211831,A,3946.9585,N,08404.9800,W,0.0000,0.000,011217,,*33
2017-12-01 16:18:30 1512163110.363055: $GPGSA,A,3,10,11,12,14,18,22,25,31,32,1,138,,2.0,0.8,1.5*3D
2017-12-01 16:18:30 1512163110.363116: $GPGBS,211831,10.70,M,15.43,M,35.28,M*0F
2017-12-01 16:18:31 1512163111.699884: $GPGSV,3,1,12,10,53,145,47,11,09,286,36,12,24,055,46,14,63,316,46*7D
2017-12-01 16:18:31 1512163111.700081: $GPGSV,3,2,12,18,23,142,45,22,15,312,40,25,38,097,46,31,51,220,49*7E
2017-12-01 16:18:31 1512163111.700147: $GPGSV,3,3,12,32,69,013,48,01,20,306,33,24,02,048,00,138,38,213,47*46
2017-12-01 16:18:31 1512163111.813180: $GPZDA,211832.00,01,12,2017,00,00*6B
2017-12-01 16:18:31 1512163111.813354: $GPGGA,211832,3946.9581,N,08404.9801,W,1,11,0.80,319.26,M,-33.324,M,,*71
2017-12-01 16:18:31 1512163111.813423: $GPRMC,211832,A,3946.9581,N,08404.9801,W,0.0000,0.000,011217,,*35
2017-12-01 16:18:31 1512163111.813487: $GPGSA,A,3,10,11,12,14,18,22,25,31,32,1,138,,2.0,0.8,1.5*3D
2017-12-01 16:18:32 1512163112.363993: $GPZDA,211833.00,01,12,2017,00,00*6A
2017-12-01 16:18:32 1512163112.364165: $GPGGA,211833,3946.9581,N,08404.9801,W,1,11,0.80,319.26,M,-33.324,M,,*70
2017-12-01 16:18:32 1512163112.364234: $GPRMC,211833,A,3946.9581,N,08404.9801,W,0.0000,0.000,011217,,*34
2017-12-01 16:18:32 1512163112.364295: $GPGSA,A,3,10,11,12,14,18,22,25,31,32,1,138,,2.0,0.8,1.5*3D
2017-12-01 16:18:33 1512163113.363112: $GPZDA,211834.00,01,12,2017,00,00*6D
2017-12-01 16:18:33 1512163113.363287: $GPGGA,211834,3946.9577,N,08404.9808,W,1,11,0.80,318.54,M,-33.324,M,,*73
2017-12-01 16:18:33 1512163113.363357: $GPRMC,211834,A,3946.9577,N,08404.9808,W,0.0000,0.000,011217,,*33
2017-12-01 16:18:33 1512163113.363419: $GPGSA,A,3,10,11,12,14,18,22,25,31,32,1,138,,2.0,0.8,1.5*3D
2017-12-01 16:18:34 1512163114.698790: $GPGSV,3,1,12,10,53,145,37,11,09,286,29,12,24,055,36,14,63,316,36*74
2017-12-01 16:18:34 1512163114.698979: $GPGSV,3,2,12,18,23,142,35,22,15,312,32,25,38,097,36,31,51,220,38*7D
2017-12-01 16:18:34 1512163114.699047: $GPGSV,3,3,12,32,69,013,38,01,20,306,27,24,02,048,00,138,38,213,40*43
2017-12-01 16:18:34 1512163114.812288: $GPZDA,211835.00,01,12,2017,00,00*6C
2017-12-01 16:18:34 1512163114.812418: $GPGGA,211835,3946.9577,N,08404.9808,W,1,11,0.80,318.54,M,-33.324,M,,*72
2017-12-01 16:18:34 1512163114.812490: $GPRMC,211835,A,3946.9577,N,08404.9808,W,0.3423,184.197,011217,,*36
2017-12-01 16:18:34 1512163114.812551: $GPGSA,A,3,10,11,12,14,18,22,25,31,32,1,138,,2.0,0.8,1.5*3D
2017-12-01 16:18:35 1512163115.363055: $GPZDA,211836.00,01,12,2017,00,00*6F
2017-12-01 16:18:35 1512163115.363242: $GPGGA,211836,3946.9573,N,08404.9808,W,1,11,0.80,317.90,M,-33.324,M,,*72
2017-12-01 16:18:35 1512163115.363312: $GPRMC,211836,A,3946.9573,N,08404.9808,W,0.0000,0.000,011217,,*35
2017-12-01 16:18:35 1512163115.363377: $GPGSA,A,3,10,11,12,14,18,22,25,31,32,1,138,,2.0,0.8,1.5*3D
2017-12-01 16:18:36 1512163116.361404: $GPZDA,211837.00,01,12,2017,00,00*6E
2017-12-01 16:18:36 1512163116.361596: $GPGGA,211837,3946.9573,N,08404.9808,W,1,11,0.80,317.90,M,-33.324,M,,*73
2017-12-01 16:18:36 1512163116.361665: $GPRMC,211837,A,3946.9573,N,08404.9808,W,0.0000,0.000,011217,,*34
2017-12-01 16:18:36 1512163116.361728: $GPGSA,A,3,10,11,12,14,18,22,25,31,32,1,138,,2.0,0.8,1.5*3D
2017-12-01 16:18:37 1512163117.699750: $GPGSV,3,1,12,10,53,145,46,11,09,286,38,12,24,055,45,14,63,316,45*72
2017-12-01 16:18:37 1512163117.699949: $GPGSV,3,2,12,18,23,142,44,22,15,312,41,25,38,097,46,31,51,220,48*7F
2017-12-01 16:18:37 1512163117.700018: $GPGSV,3,3,12,32,69,013,47,01,20,306,34,24,02,048,00,138,38,213,46*4F
2017-12-01 16:18:37 1512163117.811864: $GPZDA,211838.00,01,12,2017,00,00*61
2017-12-01 16:18:37 1512163117.812037: $GPGGA,211838,3946.9573,N,08404.9808,W,1,11,0.80,317.90,M,-33.324,M,,*7C
2017-12-01 16:18:37 1512163117.812106: $GPRMC,211838,A,3946.9573,N,08404.9808,W,0.0000,0.000,011217,,*3B
2017-12-01 16:18:37 1512163117.812216: $GPGSA,A,3,10,11,12,14,18,22,25,31,32,1,138,,2.0,0.8,1.5*3D
2017-12-01 16:18:38 1512163118.438483: $GPZDA,211839.00,01,12,2017,00,00*60
2017-12-01 16:18:38 1512163118.438658: $GPGGA,211839,3946.9573,N,08404.9808,W,1,11,0.80,317.90,M,-33.324,M,,*7D
2017-12-01 16:18:38 1512163118.438727: $GPRMC,211839,A,3946.9573,N,08404.9808,W,0.0000,0.000,011217,,*3A
2017-12-01 16:18:38 1512163118.438788: $GPGSA,A,3,10,11,12,14,18,22,25,31,32,1,138,,2.0,0.8,1.5*3D
2017-12-01 16:18:39 1512163119.365913: $GPZDA,211840.00,01,12,2017,00,00*6E
2017-12-01 16:18:39 1512163119.366085: $GPGGA,211840,3946.9570,N,08404.9808,W,1,11,0.80,318.67,M,-33.324,M,,*77
2017-12-01 16:18:39 1512163119.366152: $GPRMC,211840,A,3946.9570,N,08404.9808,W,0.0000,0.000,011217,,*37
2017-12-01 16:18:39 1512163119.366214: $GPGSA,A,3,10,11,12,14,18,22,25,31,32,1,138,,2.0,0.8,1.5*3D
2017-12-01 16:18:40 1512163120.698762: $GPGSV,3,1,12,10,53,145,47,11,09,286,38,12,24,055,45,14,63,316,45*73
2017-12-01 16:18:40 1512163120.698950: $GPGSV,3,2,12,18,23,142,44,22,15,312,41,25,38,097,46,31,51,220,49*7E
2017-12-01 16:18:40 1512163120.699019: $GPGSV,3,3,12,32,69,013,46,01,20,306,35,24,02,048,00,138,38,213,46*4F
2017-12-01 16:18:40 1512163120.812198: $GPZDA,211841.00,01,12,2017,00,00*6F
2017-12-01 16:18:40 1512163120.812360: $GPGGA,211841,3946.9554,N,08404.9816,W,2,11,1.40,317.43,M,-33.324,M,,*78
2017-12-01 16:18:40 1512163120.812430: $GPRMC,211841,A,3946.9554,N,08404.9816,W,0.0000,0.000,011217,,*3F
2017-12-01 16:18:40 1512163120.812492: $GPGSA,A,3,10,11,12,14,18,22,25,31,32,1,138,,2.0,1.4,1.5*30
2017-12-01 16:18:41 1512163121.365900: $GPZDA,211842.00,01,12,2017,00,00*6C
2017-12-01 16:18:41 1512163121.366072: $GPGGA,211842,3946.9558,N,08404.9816,W,2,11,0.80,318.07,M,-33.324,M,,*75
2017-12-01 16:18:41 1512163121.366139: $GPRMC,211842,A,3946.9558,N,08404.9816,W,0.0000,0.000,011217,,*30
2017-12-01 16:18:41 1512163121.366201: $GPGSA,A,3,10,11,12,14,18,22,25,31,32,1,138,,2.0,0.8,1.5*3D
2017-12-01 16:18:42 1512163122.368771: $GPZDA,211843.00,01,12,2017,00,00*6D
2017-12-01 16:18:42 1512163122.368947: $GPGGA,211843,3946.9558,N,08404.9816,W,2,11,0.80,318.07,M,-33.324,M,,*74
2017-12-01 16:18:42 1512163122.369013: $GPRMC,211843,A,3946.9558,N,08404.9816,W,0.0000,0.000,011217,,*31
2017-12-01 16:18:42 1512163122.369075: $GPGSA,A,3,10,11,12,14,18,22,25,31,32,1,138,,2.0,0.8,1.5*3D
2017-12-01 16:18:42 1512163122.369134: $GPGBS,211843,2.67,M,3.86,M,8.82,M*3F
2017-12-01 16:18:43 1512163123.706551: $GPGSV,3,1,12,10,53,145,47,11,09,286,38,12,24,055,45,14,63,316,45*73
2017-12-01 16:18:43 1512163123.706707: $GPGSV,3,2,12,18,23,142,44,22,15,312,42,25,38,097,46,31,51,220,49*7D
2017-12-01 16:18:43 1512163123.706774: $GPGSV,3,3,12,32,69,013,47,01,20,306,35,24,02,048,00,138,38,213,45*4D
2017-12-01 16:18:43 1512163123.820270: $GPZDA,211844.00,01,12,2017,00,00*6A
2017-12-01 16:18:43 1512163123.820452: $GPGGA,211844,3946.9558,N,08404.9816,W,2,11,0.80,318.07,M,-33.324,M,,*73
2017-12-01 16:18:43 1512163123.820520: $GPRMC,211844,A,3946.9558,N,08404.9816,W,0.0000,0.000,011217,,*36
2017-12-01 16:18:43 1512163123.820583: $GPGSA,A,3,10,11,12,14,18,22,25,31,32,1,138,,2.0,0.8,1.5*3D
