2017-11-16 14:53:23 1510862003.525918: {"class":"VERSION","release":"3.17","rev":"3.17","proto_major":3,"proto_minor":12}
2017-11-16 14:53:23 1510862003.526468: {"class":"DEVICES","devices":[{"class":"DEVICE","path":"/dev/ttyUSB0","driver":"SiRF","subtype":"9\u0006GSD4e_4.1.2-P1_RPATCH.05-F-GPS-4R-1510281 11/03/2015 307","activated":"2017-11-16T19:53:23.490Z","flags":1,"native":1,"bps":4800,"parity":"N","stopbits":1,"cycle":1.00}]}
2017-11-16 14:53:23 1510862003.526586: {"class":"WATCH","enable":true,"json":false,"nmea":true,"raw":0,"scaled":false,"timing":false,"split24":false,"pps":false}
2017-11-16 14:53:24 1510862004.822841: $GPGSV,3,1,11,08,08,306,34,10,56,315,50,15,22,058,50,18,77,040,44*78
2017-11-16 14:53:24 1510862004.823011: $GPGSV,3,2,11,21,45,183,47,20,19,109,45,24,52,079,49,27,14,271,41*73
2017-11-16 14:53:24 1510862004.823071: $GPGSV,3,3,11,32,35,252,47,14,18,243,41,138,38,213,44*75
2017-11-16 14:53:24 1510862004.936148: $GPZDA,195323.00,16,11,2017,00,00*6A
2017-11-16 14:53:24 1510862004.936318: $GPGGA,195323,3946.9572,N,08404.9848,W,2,11,0.80,302.54,M,-33.324,M,,*78
2017-11-16 14:53:24 1510862004.936384: $GPRMC,195323,A,3946.9572,N,08404.9848,W,0.0000,0.000,161117,,*35
2017-11-16 14:53:24 1510862004.936440: $GPGSA,A,3,8,10,15,18,21,20,24,27,32,14,138,,1.6,0.8,1.3*37
2017-11-16 14:53:25 1510862005.485745: $GPZDA,195324.00,16,11,2017,00,00*6D
2017-11-16 14:53:25 1510862005.485909: $GPGGA,195324,3946.9568,N,08404.9848,W,2,11,0.80,301.90,M,-33.324,M,,*7F
2017-11-16 14:53:25 1510862005.485971: $GPRMC,195324,A,3946.9568,N,08404.9848,W,0.0000,0.000,161117,,*39
2017-11-16 14:53:25 1510862005.486027: $GPGSA,A,3,8,10,15,18,21,20,24,27,32,14,138,,1.6,0.8,1.3*37
2017-11-16 14:53:26 1510862006.491662: $GPZDA,195325.00,16,11,2017,00,00*6C
2017-11-16 14:53:26 1510862006.491832: $GPGGA,195325,3946.9568,N,08404.9848,W,2,11,0.80,301.90,M,-33.324,M,,*7E
2017-11-16 14:53:26 1510862006.491893: $GPRMC,195325,A,3946.9568,N,08404.9848,W,0.0000,0.000,161117,,*38
2017-11-16 14:53:26 1510862006.491948: $GPGSA,A,3,8,10,15,18,21,20,24,27,32,14,138,,1.6,0.8,1.3*37
2017-11-16 14:53:27 1510862007.827426: $GPGSV,3,1,11,08,08,306,34,10,56,315,50,15,22,058,50,18,77,040,44*78
2017-11-16 14:53:27 1510862007.827602: $GPGSV,3,2,11,21,45,183,47,20,19,109,45,24,52,079,49,27,14,271,41*73
2017-11-16 14:53:27 1510862007.827663: $GPGSV,3,3,11,32,35,252,47,14,18,243,41,138,38,213,44*75
2017-11-16 14:53:27 1510862007.940818: $GPZDA,195326.00,16,11,2017,00,00*6F
2017-11-16 14:53:27 1510862007.940993: $GPGGA,195326,3946.9568,N,08404.9848,W,2,11,0.80,301.90,M,-33.324,M,,*7D
2017-11-16 14:53:27 1510862007.941054: $GPRMC,195326,A,3946.9568,N,08404.9848,W,0.0000,0.000,161117,,*3B
2017-11-16 14:53:27 1510862007.941111: $GPGSA,A,3,8,10,15,18,21,20,24,27,32,14,138,,1.6,0.8,1.3*37
2017-11-16 14:53:28 1510862008.530656: $GPZDA,195327.00,16,11,2017,00,00*6E
2017-11-16 14:53:28 1510862008.530829: $GPGGA,195327,3946.9568,N,08404.9848,W,2,11,0.80,301.90,M,-33.324,M,,*7C
2017-11-16 14:53:28 1510862008.530898: $GPRMC,195327,A,3946.9568,N,08404.9848,W,0.0000,0.000,161117,,*3A
2017-11-16 14:53:28 1510862008.530957: $GPGSA,A,3,8,10,15,18,21,20,24,27,32,14,138,,1.6,0.8,1.3*37
2017-11-16 14:53:29 1510862009.492086: $GPZDA,195328.00,16,11,2017,00,00*61
2017-11-16 14:53:29 1510862009.492249: $GPGGA,195328,3946.9568,N,08404.9848,W,2,11,0.80,301.90,M,-33.324,M,,*73
2017-11-16 14:53:29 1510862009.492309: $GPRMC,195328,A,3946.9568,N,08404.9848,W,0.0000,0.000,161117,,*35
2017-11-16 14:53:29 1510862009.492368: $GPGSA,A,3,8,10,15,18,21,20,24,27,32,14,138,,1.6,0.8,1.3*37
2017-11-16 14:53:30 1510862010.867892: $GPGSV,3,1,11,08,08,306,34,10,56,315,50,15,22,058,50,18,77,040,44*78
2017-11-16 14:53:30 1510862010.868057: $GPGSV,3,2,11,21,45,183,47,20,19,109,45,24,52,079,48,27,14,271,41*72
2017-11-16 14:53:30 1510862010.868117: $GPGSV,3,3,11,32,35,252,47,14,18,243,41,138,38,213,43*72
2017-11-16 14:53:30 1510862010.981537: $GPZDA,195329.00,16,11,2017,00,00*60
2017-11-16 14:53:30 1510862010.981699: $GPGGA,195329,3946.9572,N,08404.9848,W,2,11,0.80,302.54,M,-33.324,M,,*72
2017-11-16 14:53:30 1510862010.981824: $GPRMC,195329,A,3946.9572,N,08404.9848,W,0.0000,0.000,161117,,*3F
2017-11-16 14:53:30 1510862010.981882: $GPGSA,A,3,8,10,15,18,21,20,24,27,32,14,138,,1.6,0.8,1.3*37
2017-11-16 14:53:31 1510862011.492361: $GPZDA,195330.00,16,11,2017,00,00*68
2017-11-16 14:53:31 1510862011.492528: $GPGGA,195330,3946.9572,N,08404.9848,W,2,11,0.80,302.54,M,-33.324,M,,*7A
2017-11-16 14:53:31 1510862011.492590: $GPRMC,195330,A,3946.9572,N,08404.9848,W,0.0000,0.000,161117,,*37
2017-11-16 14:53:31 1510862011.492646: $GPGSA,A,3,8,10,15,18,21,20,24,27,32,14,138,,1.6,0.8,1.3*37
2017-11-16 14:53:32 1510862012.522864: $GPZDA,195331.00,16,11,2017,00,00*69
2017-11-16 14:53:32 1510862012.523028: $GPGGA,195331,3946.9572,N,08404.9848,W,2,11,0.80,302.54,M,-33.324,M,,*7B
2017-11-16 14:53:32 1510862012.523090: $GPRMC,195331,A,3946.9572,N,08404.9848,W,0.0000,0.000,161117,,*36
2017-11-16 14:53:32 1510862012.523146: $GPGSA,A,3,8,10,15,18,21,20,24,27,32,14,138,,1.6,0.8,1.3*37
