2017-12-01 13:20:45 1512152445.706843: {"class":"VERSION","release":"3.16","rev":"3.16-4","proto_major":3,"proto_minor":11}
2017-12-01 13:20:45 1512152445.707266: {"class":"DEVICES","devices":[{"class":"DEVICE","path":"/dev/ttyUSB0","driver":"SiRF","subtype":"9\u0006GSD4e_4.1.2-P1_RPATCH.05-F-GPS-4R-1510281 11/03/2015 307","activated":"2017-12-01T18:20:45.303Z","flags":1,"native":1,"bps":4800,"parity":"N","stopbits":1,"cycle":1.00}]}
2017-12-01 13:20:45 1512152445.707383: {"class":"WATCH","enable":true,"json":false,"nmea":true,"raw":0,"scaled":false,"timing":false,"split24":false,"pps":false}
2017-12-01 13:20:45 1512152445.906854: $GPZDA,182046.60,01,12,2017,00,00*6F
2017-12-01 13:20:45 1512152445.907008: $GPGGA,182046,3946.9550,N,08404.9871,W,1,11,1.20,302.67,M,-33.324,M,,*7C
2017-12-01 13:20:45 1512152445.907074: $GPRMC,182046,A,3946.9550,N,08404.9871,W,0.4106,50.498,011217,,*0F
2017-12-01 13:20:45 1512152445.907137: $GPGSA,A,3,8,10,15,18,20,21,24,14,32,13,138,,2.0,1.2,1.5*38
2017-12-01 13:20:45 1512152445.907195: $GPGBS,182046,10.70,M,15.43,M,35.28,M*0E
2017-12-01 13:20:46 1512152446.988134: $GPZDA,182047.28,01,12,2017,00,00*62
2017-12-01 13:20:46 1512152446.988312: $GPGGA,182047,3946.9550,N,08404.9871,W,1,11,1.20,302.67,M,-33.324,M,,*7D
2017-12-01 13:20:46 1512152446.988380: $GPRMC,182047,A,3946.9550,N,08404.9871,W,0.4700,9.200,011217,,*35
2017-12-01 13:20:46 1512152446.988441: $GPGSA,A,3,8,10,15,18,20,21,24,14,32,13,138,,2.0,1.2,1.5*38
2017-12-01 13:20:47 1512152447.933767: $GPGSV,3,1,12,10,45,304,47,15,33,054,49,18,73,348,43,20,30,099,46*72
2017-12-01 13:20:47 1512152447.933960: $GPGSV,3,2,12,21,59,186,45,24,52,103,46,32,24,241,41,08,07,318,12*78
2017-12-01 13:20:47 1512152447.934048: $GPGSV,3,3,12,13,04,049,08,14,07,234,10,27,18,285,00,138,38,213,00*4D
2017-12-01 13:20:48 1512152448.047384: $GPZDA,182048.00,01,12,2017,00,00*67
2017-12-01 13:20:48 1512152448.047555: $GPGGA,182048,3946.9550,N,08404.9864,W,1,10,0.80,302.75,M,-33.324,M,,*7F
2017-12-01 13:20:48 1512152448.047623: $GPRMC,182048,A,3946.9550,N,08404.9864,W,0.3155,129.994,011217,,*3A
2017-12-01 13:20:48 1512152448.047702: $GPGSA,A,3,10,15,18,20,21,24,32,8,13,14,,,2.0,0.8,1.5*09
2017-12-01 13:20:48 1512152448.301303: $GPZDA,182049.00,01,12,2017,00,00*66
2017-12-01 13:20:48 1512152448.301578: $GPGGA,182049,3946.9550,N,08404.9864,W,1,10,0.80,302.75,M,-33.324,M,,*7E
2017-12-01 13:20:48 1512152448.301650: $GPRMC,182049,A,3946.9550,N,08404.9864,W,0.0000,0.000,011217,,*37
2017-12-01 13:20:48 1512152448.301711: $GPGSA,A,3,10,15,18,20,21,24,32,8,13,14,,,2.0,0.8,1.5*09
2017-12-01 13:20:49 1512152449.237706: $GPZDA,182050.00,01,12,2017,00,00*6E
2017-12-01 13:20:49 1512152449.237879: $GPGGA,182050,3946.9546,N,08404.9864,W,1,10,0.80,302.11,M,-33.324,M,,*73
2017-12-01 13:20:49 1512152449.237966: $GPRMC,182050,A,3946.9546,N,08404.9864,W,0.0000,0.000,011217,,*38
2017-12-01 13:20:49 1512152449.238029: $GPGSA,A,3,10,15,18,20,21,24,32,8,13,14,,,2.0,0.8,1.5*09
2017-12-01 13:20:50 1512152450.566878: $GPGSV,3,1,12,10,45,304,48,15,33,054,49,18,73,348,43,20,30,099,45*7E
2017-12-01 13:20:50 1512152450.567102: $GPGSV,3,2,12,21,59,186,45,24,52,103,46,32,24,241,41,08,07,318,30*78
2017-12-01 13:20:50 1512152450.567189: $GPGSV,3,3,12,13,04,049,20,27,18,285,00,14,07,234,00,138,38,213,47*45
2017-12-01 13:20:50 1512152450.680222: $GPZDA,182051.00,01,12,2017,00,00*6F
2017-12-01 13:20:50 1512152450.680414: $GPGGA,182051,3946.9546,N,08404.9864,W,1,10,1.00,302.11,M,-33.324,M,,*7B
2017-12-01 13:20:50 1512152450.680497: $GPRMC,182051,A,3946.9546,N,08404.9864,W,0.0000,0.000,011217,,*39
2017-12-01 13:20:50 1512152450.680559: $GPGSA,A,3,10,15,18,20,21,24,32,8,13,138,,,2.0,1.0,1.5*3F
2017-12-01 13:20:51 1512152451.235356: $GPZDA,182052.00,01,12,2017,00,00*6C
2017-12-01 13:20:51 1512152451.235554: $GPGGA,182052,3946.9549,N,08404.9864,W,1,10,1.00,301.35,M,-33.324,M,,*72
2017-12-01 13:20:51 1512152451.235623: $GPRMC,182052,A,3946.9549,N,08404.9864,W,0.0000,0.000,011217,,*35
2017-12-01 13:20:51 1512152451.235685: $GPGSA,A,3,10,15,18,20,21,24,32,8,13,138,,,2.0,1.0,1.5*3F
2017-12-01 13:20:52 1512152452.240383: $GPZDA,182053.00,01,12,2017,00,00*6D
2017-12-01 13:20:52 1512152452.240578: $GPGGA,182053,3946.9549,N,08404.9864,W,1,10,0.80,301.35,M,-33.324,M,,*7A
2017-12-01 13:20:52 1512152452.240647: $GPRMC,182053,A,3946.9549,N,08404.9864,W,0.0000,0.000,011217,,*34
2017-12-01 13:20:52 1512152452.240709: $GPGSA,A,3,10,15,18,20,21,24,32,8,13,138,,,2.0,0.8,1.5*36
2017-12-01 13:20:52 1512152452.240767: $GPGBS,182053,10.70,M,15.43,M,35.28,M*0A
2017-12-01 13:20:53 1512152453.738532: $GPGSV,3,1,12,10,45,304,48,15,33,054,50,18,73,348,43,20,30,099,45*76
2017-12-01 13:20:53 1512152453.738711: $GPGSV,3,2,12,21,59,186,45,24,52,103,47,32,24,241,41,08,07,318,31*78
2017-12-01 13:20:53 1512152453.738778: $GPGSV,3,3,12,13,04,049,20,27,18,285,35,14,07,234,11,138,38,213,48*4C
2017-12-01 13:20:53 1512152453.850960: $GPZDA,182054.00,01,12,2017,00,00*6A
2017-12-01 13:20:53 1512152453.851129: $GPGGA,182054,3946.9548,N,08404.9862,W,2,12,1.40,298.54,M,-33.324,M,,*70
2017-12-01 13:20:53 1512152453.851196: $GPRMC,182054,A,3946.9548,N,08404.9862,W,0.0000,0.000,011217,,*34
2017-12-01 13:20:53 1512152453.851258: $GPGSA,A,3,10,15,18,20,21,24,32,8,13,27,14,138,2.0,1.4,1.5*3B
2017-12-01 13:20:54 1512152454.403164: $GPZDA,182055.00,01,12,2017,00,00*6B
2017-12-01 13:20:54 1512152454.403362: $GPGGA,182055,3946.9548,N,08404.9862,W,2,12,1.40,298.54,M,-33.324,M,,*71
2017-12-01 13:20:54 1512152454.403429: $GPRMC,182055,A,3946.9548,N,08404.9862,W,0.0000,0.000,011217,,*35
2017-12-01 13:20:54 1512152454.403519: $GPGSA,A,3,10,15,18,20,21,24,32,8,13,27,14,138,2.0,1.4,1.5*3B
2017-12-01 13:20:55 1512152455.402250: $GPZDA,182056.00,01,12,2017,00,00*68
2017-12-01 13:20:55 1512152455.402460: $GPGGA,182056,3946.9548,N,08404.9862,W,2,12,1.40,298.54,M,-33.324,M,,*72
2017-12-01 13:20:55 1512152455.402529: $GPRMC,182056,A,3946.9548,N,08404.9862,W,0.0000,0.000,011217,,*36
2017-12-01 13:20:55 1512152455.402590: $GPGSA,A,3,10,15,18,20,21,24,32,8,13,27,14,138,2.0,1.4,1.5*3B
