2017-11-16 17:34:16 1510871656.588816: {"class":"VERSION","release":"3.17","rev":"3.17","proto_major":3,"proto_minor":12}
2017-11-16 17:34:16 1510871656.589443: {"class":"DEVICES","devices":[{"class":"DEVICE","path":"/dev/ttyUSB0","driver":"SiRF","subtype":"9\u0006GSD4e_4.1.2-P1_RPATCH.05-F-GPS-4R-1510281 11/03/2015 307","activated":"2017-11-16T22:34:16.514Z","flags":1,"native":1,"bps":4800,"parity":"N","stopbits":1,"cycle":1.00}]}
2017-11-16 17:34:16 1510871656.589569: {"class":"WATCH","enable":true,"json":false,"nmea":true,"raw":0,"scaled":false,"timing":false,"split24":false,"pps":false}
2017-11-16 17:34:17 1510871657.424029: $GPZDA,223416.00,16,11,2017,00,00*65
2017-11-16 17:34:17 1510871657.424200: $GPGGA,223416,3946.9576,N,08404.9841,W,2,11,0.80,303.26,M,-33.324,M,,*7E
2017-11-16 17:34:17 1510871657.424264: $GPRMC,223416,A,3946.9576,N,08404.9841,W,0.0000,0.000,161117,,*37
2017-11-16 17:34:17 1510871657.424319: $GPGSA,A,3,1,10,22,12,14,18,11,25,31,32,138,,1.6,0.8,1.3*3E
2017-11-16 17:34:18 1510871658.757349: $GPGSV,3,1,12,01,21,300,33,10,47,148,46,22,19,312,44,12,22,049,50*77
2017-11-16 17:34:18 1510871658.757494: $GPGSV,3,2,12,14,66,330,47,18,17,144,40,26,03,183,00,11,08,280,41*7D
2017-11-16 17:34:18 1510871658.757555: $GPGSV,3,3,12,25,40,088,48,31,56,226,49,32,68,030,49,138,38,213,44*4F
2017-11-16 17:34:18 1510871658.870588: $GPZDA,223417.00,16,11,2017,00,00*64
2017-11-16 17:34:18 1510871658.870762: $GPGGA,223417,3946.9576,N,08404.9841,W,2,11,0.80,303.26,M,-33.324,M,,*7F
2017-11-16 17:34:18 1510871658.870823: $GPRMC,223417,A,3946.9576,N,08404.9841,W,0.0000,0.000,161117,,*36
2017-11-16 17:34:18 1510871658.870879: $GPGSA,A,3,1,10,22,12,14,18,11,25,31,32,138,,1.6,0.8,1.3*3E
2017-11-16 17:34:19 1510871659.405276: $GPZDA,223418.00,16,11,2017,00,00*6B
2017-11-16 17:34:19 1510871659.405438: $GPGGA,223418,3946.9576,N,08404.9841,W,2,11,0.80,303.26,M,-33.324,M,,*70
2017-11-16 17:34:19 1510871659.405500: $GPRMC,223418,A,3946.9576,N,08404.9841,W,0.0000,0.000,161117,,*39
2017-11-16 17:34:19 1510871659.405555: $GPGSA,A,3,1,10,22,12,14,18,11,25,31,32,138,,1.6,0.8,1.3*3E
2017-11-16 17:34:20 1510871660.423568: $GPZDA,223419.00,16,11,2017,00,00*6A
2017-11-16 17:34:20 1510871660.423739: $GPGGA,223419,3946.9576,N,08404.9841,W,2,11,0.80,303.26,M,-33.324,M,,*71
2017-11-16 17:34:20 1510871660.423803: $GPRMC,223419,A,3946.9576,N,08404.9841,W,0.0000,0.000,161117,,*38
2017-11-16 17:34:20 1510871660.423859: $GPGSA,A,3,1,10,22,12,14,18,11,25,31,32,138,,1.6,0.8,1.3*3E
2017-11-16 17:34:21 1510871661.756441: $GPGSV,3,1,11,01,21,300,33,10,47,148,46,22,19,312,44,12,22,049,50*74
2017-11-16 17:34:21 1510871661.756637: $GPGSV,3,2,11,14,66,330,48,18,17,144,40,11,08,280,41,25,40,088,48*73
2017-11-16 17:34:21 1510871661.756698: $GPGSV,3,3,11,31,56,226,49,32,68,030,49,138,38,213,44*73
2017-11-16 17:34:21 1510871661.869763: $GPZDA,223420.00,16,11,2017,00,00*60
2017-11-16 17:34:21 1510871661.869946: $GPGGA,223420,3946.9576,N,08404.9841,W,2,11,0.80,303.26,M,-33.324,M,,*7B
2017-11-16 17:34:21 1510871661.870008: $GPRMC,223420,A,3946.9576,N,08404.9841,W,0.0000,0.000,161117,,*32
2017-11-16 17:34:21 1510871661.870081: $GPGSA,A,3,1,10,22,12,14,18,11,25,31,32,138,,1.6,0.8,1.3*3E
2017-11-16 17:34:22 1510871662.424294: $GPZDA,223421.00,16,11,2017,00,00*61
2017-11-16 17:34:22 1510871662.424451: $GPGGA,223421,3946.9576,N,08404.9841,W,2,11,0.80,303.26,M,-33.324,M,,*7A
2017-11-16 17:34:22 1510871662.424511: $GPRMC,223421,A,3946.9576,N,08404.9841,W,0.0000,0.000,161117,,*33
2017-11-16 17:34:22 1510871662.424567: $GPGSA,A,3,1,10,22,12,14,18,11,25,31,32,138,,1.6,0.8,1.3*3E
2017-11-16 17:34:23 1510871663.401421: $GPZDA,223422.00,16,11,2017,00,00*62
2017-11-16 17:34:23 1510871663.401582: $GPGGA,223422,3946.9576,N,08404.9841,W,2,11,0.80,303.26,M,-33.324,M,,*79
2017-11-16 17:34:23 1510871663.401643: $GPRMC,223422,A,3946.9576,N,08404.9841,W,0.0000,0.000,161117,,*30
2017-11-16 17:34:23 1510871663.401698: $GPGSA,A,3,1,10,22,12,14,18,11,25,31,32,138,,1.6,0.8,1.3*3E
2017-11-16 17:34:24 1510871664.744676: $GPGSV,3,1,11,01,21,300,32,10,47,148,46,22,19,312,44,12,22,049,49*7D
2017-11-16 17:34:24 1510871664.744917: $GPGSV,3,2,11,14,66,330,47,18,17,144,40,11,08,280,40,25,40,088,48*7D
2017-11-16 17:34:24 1510871664.744997: $GPGSV,3,3,11,31,56,226,48,32,68,030,49,138,38,213,43*75
2017-11-16 17:34:24 1510871664.859295: $GPZDA,223423.00,16,11,2017,00,00*63
2017-11-16 17:34:24 1510871664.859470: $GPGGA,223423,3946.9576,N,08404.9841,W,2,11,0.80,303.26,M,-33.324,M,,*78
2017-11-16 17:34:24 1510871664.859529: $GPRMC,223423,A,3946.9576,N,08404.9841,W,0.0000,0.000,161117,,*31
2017-11-16 17:34:24 1510871664.859584: $GPGSA,A,3,1,10,22,12,14,18,11,25,31,32,138,,1.6,0.8,1.3*3E
2017-11-16 17:34:25 1510871665.402870: $GPZDA,223424.00,16,11,2017,00,00*64
2017-11-16 17:34:25 1510871665.403052: $GPGGA,223424,3946.9576,N,08404.9841,W,2,11,0.80,303.26,M,-33.324,M,,*7F
2017-11-16 17:34:25 1510871665.403113: $GPRMC,223424,A,3946.9576,N,08404.9841,W,0.0000,0.000,161117,,*36
2017-11-16 17:34:25 1510871665.403168: $GPGSA,A,3,1,10,22,12,14,18,11,25,31,32,138,,1.6,0.8,1.3*3E
2017-11-16 17:34:26 1510871666.401738: $GPZDA,223425.00,16,11,2017,00,00*65
2017-11-16 17:34:26 1510871666.401939: $GPGGA,223425,3946.9576,N,08404.9841,W,2,11,0.80,303.26,M,-33.324,M,,*7E
2017-11-16 17:34:26 1510871666.402001: $GPRMC,223425,A,3946.9576,N,08404.9841,W,0.0000,0.000,161117,,*37
2017-11-16 17:34:26 1510871666.402057: $GPGSA,A,3,1,10,22,12,14,18,11,25,31,32,138,,1.6,0.8,1.3*3E
