2017-11-15 18:41:14 1510789274.292996: {"class":"VERSION","release":"3.17","rev":"3.17","proto_major":3,"proto_minor":12}
2017-11-15 18:41:14 1510789274.293450: {"class":"DEVICES","devices":[{"class":"DEVICE","path":"/dev/ttyUSB0","driver":"SiRF","subtype":"9\u0006GSD4e_4.1.2-P1_RPATCH.05-F-GPS-4R-1510281 11/03/2015 307","activated":"2017-11-15T23:41:14.217Z","flags":1,"native":1,"bps":4800,"parity":"N","stopbits":1,"cycle":1.00}]}
2017-11-15 18:41:14 1510789274.293567: {"class":"WATCH","enable":true,"json":false,"nmea":true,"raw":0,"scaled":false,"timing":false,"split24":false,"pps":false}
2017-11-15 18:41:14 1510789274.330339: $GPZDA,234113.00,15,11,2017,00,00*60
2017-11-15 18:41:14 1510789274.330488: $GPGGA,234113,3946.9475,N,08404.9749,W,1,08,1.20,311.68,M,-33.324,M,,*74
2017-11-15 18:41:14 1510789274.330549: $GPRMC,234113,A,3946.9475,N,08404.9749,W,0.0000,0.000,151117,,*37
2017-11-15 18:41:14 1510789274.330603: $GPGSA,A,3,25,14,32,31,29,10,26,22,,,,,3.4,1.2,2.9*32
2017-11-15 18:41:15 1510789275.666298: $GPGSV,3,1,11,25,33,054,14,14,68,049,14,03,23,315,14,32,53,084,24*76
2017-11-15 18:41:15 1510789275.666469: $GPGSV,3,2,11,31,79,298,23,01,17,271,04,29,01,090,10,10,18,157,16*7F
2017-11-15 18:41:15 1510789275.666529: $GPGSV,3,3,11,26,29,178,11,22,41,300,24,12,04,031,00*4D
2017-11-15 18:41:15 1510789275.779612: $GPZDA,234114.00,15,11,2017,00,00*67
2017-11-15 18:41:15 1510789275.779795: $GPGGA,234114,3946.9475,N,08404.9749,W,1,09,1.20,311.68,M,-33.324,M,,*72
2017-11-15 18:41:15 1510789275.779874: $GPRMC,234114,A,3946.9475,N,08404.9749,W,0.4179,328.778,151117,,*3A
2017-11-15 18:41:15 1510789275.779935: $GPGSA,A,3,25,14,3,32,31,29,10,26,22,,,,3.4,1.2,2.9*01
2017-11-15 18:41:16 1510789276.405019: $GPZDA,234115.00,15,11,2017,00,00*66
2017-11-15 18:41:16 1510789276.405203: $GPGGA,234115,3946.9475,N,08404.9749,W,1,09,1.20,311.68,M,-33.324,M,,*73
2017-11-15 18:41:16 1510789276.405268: $GPRMC,234115,A,3946.9475,N,08404.9749,W,0.0000,0.000,151117,,*31
2017-11-15 18:41:16 1510789276.405326: $GPGSA,A,3,25,14,3,32,31,29,10,26,22,,,,3.4,1.2,2.9*01
2017-11-15 18:41:17 1510789277.363426: $GPZDA,234116.00,15,11,2017,00,00*65
2017-11-15 18:41:17 1510789277.363594: $GPGGA,234116,3946.9475,N,08404.9749,W,1,09,1.20,311.68,M,-33.324,M,,*70
2017-11-15 18:41:17 1510789277.363658: $GPRMC,234116,A,3946.9475,N,08404.9749,W,0.0000,0.000,151117,,*32
2017-11-15 18:41:17 1510789277.363736: $GPGSA,A,3,25,14,3,32,31,29,10,26,22,,,,3.4,1.2,2.9*01
2017-11-15 18:41:18 1510789278.700418: $GPGSV,3,1,11,25,33,054,14,14,68,049,14,03,23,315,00,32,53,084,23*74
2017-11-15 18:41:18 1510789278.700591: $GPGSV,3,2,11,31,79,298,23,01,17,271,04,29,01,090,09,10,18,157,16*77
2017-11-15 18:41:18 1510789278.700655: $GPGSV,3,3,11,26,29,178,10,22,41,300,24,12,04,031,00*4C
2017-11-15 18:41:18 1510789278.813803: $GPZDA,234117.00,15,11,2017,00,00*64
2017-11-15 18:41:18 1510789278.813993: $GPGGA,234117,3946.9471,N,08404.9750,W,1,08,1.20,312.45,M,-33.324,M,,*70
2017-11-15 18:41:18 1510789278.814057: $GPRMC,234117,A,3946.9471,N,08404.9750,W,0.4179,148.778,151117,,*31
2017-11-15 18:41:18 1510789278.814116: $GPGSA,A,3,25,14,32,31,29,10,26,22,,,,,3.4,1.2,2.9*32
2017-11-15 18:41:19 1510789279.330905: $GPZDA,234118.00,15,11,2017,00,00*6B
2017-11-15 18:41:19 1510789279.331088: $GPGGA,234118,3946.9471,N,08404.9750,W,1,08,1.20,312.45,M,-33.324,M,,*7F
2017-11-15 18:41:19 1510789279.331152: $GPRMC,234118,A,3946.9471,N,08404.9750,W,0.0000,0.000,151117,,*30
2017-11-15 18:41:19 1510789279.331211: $GPGSA,A,3,25,14,32,31,29,10,26,22,,,,,3.4,1.2,2.9*32
2017-11-15 18:41:20 1510789280.365496: $GPZDA,234119.00,15,11,2017,00,00*6A
2017-11-15 18:41:20 1510789280.365659: $GPGGA,234119,3946.9471,N,08404.9750,W,1,08,1.20,312.45,M,-33.324,M,,*7E
2017-11-15 18:41:20 1510789280.365744: $GPRMC,234119,A,3946.9471,N,08404.9750,W,0.2422,273.794,151117,,*3B
2017-11-15 18:41:20 1510789280.365804: $GPGSA,A,3,25,14,32,31,29,10,26,22,,,,,3.4,1.2,2.9*32
2017-11-15 18:41:21 1510789281.700790: $GPGSV,3,1,11,25,33,054,13,14,68,049,14,03,23,315,14,32,53,084,23*76
2017-11-15 18:41:21 1510789281.700979: $GPGSV,3,2,11,31,79,298,23,01,17,271,14,29,01,090,06,10,18,157,17*78
2017-11-15 18:41:21 1510789281.701094: $GPGSV,3,3,11,26,29,178,09,22,41,300,24,16,01,190,17*49
2017-11-15 18:41:21 1510789281.814282: $GPZDA,234120.00,15,11,2017,00,00*60
2017-11-15 18:41:21 1510789281.814462: $GPGGA,234120,3946.9471,N,08404.9750,W,1,09,1.00,312.45,M,-33.324,M,,*77
2017-11-15 18:41:21 1510789281.814526: $GPRMC,234120,A,3946.9471,N,08404.9750,W,0.4844,273.794,151117,,*3B
2017-11-15 18:41:21 1510789281.814582: $GPGSA,A,3,25,14,32,31,1,29,10,26,22,,,,3.4,1.0,2.9*01
2017-11-15 18:41:22 1510789282.329993: $GPZDA,234121.00,15,11,2017,00,00*61
2017-11-15 18:41:22 1510789282.332038: $GPGGA,234121,3946.9471,N,08404.9750,W,1,09,1.00,312.45,M,-33.324,M,,*76
2017-11-15 18:41:22 1510789282.332124: $GPRMC,234121,A,3946.9471,N,08404.9750,W,0.0000,0.000,151117,,*3A
2017-11-15 18:41:22 1510789282.332181: $GPGSA,A,3,25,14,32,31,1,29,10,26,22,,,,3.4,1.0,2.9*01
2017-11-15 18:41:23 1510789283.364603: $GPZDA,234122.00,15,11,2017,00,00*62
2017-11-15 18:41:23 1510789283.364780: $GPGGA,234122,3946.9471,N,08404.9743,W,1,09,1.00,312.53,M,-33.324,M,,*70
2017-11-15 18:41:23 1510789283.364859: $GPRMC,234122,A,3946.9471,N,08404.9743,W,0.5230,76.443,151117,,*0D
2017-11-15 18:41:23 1510789283.364916: $GPGSA,A,3,25,14,32,31,1,29,10,26,22,,,,3.4,1.0,2.9*01
2017-11-15 18:41:24 1510789284.665415: $GPGSV,3,1,11,25,33,054,12,14,68,049,13,03,23,315,00,32,53,084,23*75
2017-11-15 18:41:24 1510789284.665590: $GPGSV,3,2,11,31,79,298,23,01,17,271,15,29,01,090,08,10,18,157,17*77
2017-11-15 18:41:24 1510789284.665650: $GPGSV,3,3,11,26,29,178,08,22,41,300,24,12,04,031,00*45
2017-11-15 18:41:24 1510789284.779139: $GPZDA,234123.00,15,11,2017,00,00*63
2017-11-15 18:41:24 1510789284.779279: $GPGGA,234123,3946.9471,N,08404.9743,W,1,09,1.00,312.53,M,-33.324,M,,*71
2017-11-15 18:41:24 1510789284.779339: $GPRMC,234123,A,3946.9471,N,08404.9743,W,0.9019,18.875,151117,,*08
2017-11-15 18:41:24 1510789284.779394: $GPGSA,A,3,25,14,32,31,1,29,10,26,22,,,,3.4,1.0,2.9*01
2017-11-15 18:41:25 1510789285.363564: $GPZDA,234124.00,15,11,2017,00,00*64
2017-11-15 18:41:25 1510789285.363740: $GPGGA,234124,3946.9475,N,08404.9743,W,1,09,1.00,313.17,M,-33.324,M,,*73
2017-11-15 18:41:25 1510789285.363806: $GPRMC,234124,A,3946.9475,N,08404.9743,W,0.6846,4.197,151117,,*3E
2017-11-15 18:41:25 1510789285.363862: $GPGSA,A,3,25,14,32,31,1,29,10,26,22,,,,3.4,1.0,2.9*01
2017-11-15 18:41:26 1510789286.334163: $GPZDA,234125.00,15,11,2017,00,00*65
2017-11-15 18:41:26 1510789286.334326: $GPGGA,234125,3946.9478,N,08404.9742,W,1,09,1.20,312.40,M,-33.324,M,,*7F
2017-11-15 18:41:26 1510789286.334404: $GPRMC,234125,A,3946.9478,N,08404.9742,W,1.0534,350.904,151117,,*3C
2017-11-15 18:41:26 1510789286.334461: $GPGSA,A,3,25,14,32,31,1,29,10,26,22,,,,3.4,1.2,2.9*03
2017-11-15 18:41:27 1510789287.700923: $GPGSV,3,1,11,25,33,054,11,14,68,049,13,03,23,315,14,32,53,084,22*72
2017-11-15 18:41:27 1510789287.701095: $GPGSV,3,2,11,31,79,298,22,01,17,271,15,29,01,090,08,10,18,157,17*76
2017-11-15 18:41:27 1510789287.701156: $GPGSV,3,3,11,26,29,178,07,22,41,300,23,12,04,031,00*4D
2017-11-15 18:41:27 1510789287.814312: $GPZDA,234126.00,15,11,2017,00,00*66
2017-11-15 18:41:27 1510789287.814476: $GPGGA,234126,3946.9478,N,08404.9742,W,1,09,1.20,312.40,M,-33.324,M,,*7C
2017-11-15 18:41:27 1510789287.814539: $GPRMC,234126,A,3946.9478,N,08404.9742,W,0.5857,338.291,151117,,*3A
2017-11-15 18:41:27 1510789287.814594: $GPGSA,A,3,25,14,32,31,1,29,10,26,22,,,,3.4,1.2,2.9*03
2017-11-15 18:41:28 1510789288.330134: $GPZDA,234127.00,15,11,2017,00,00*67
2017-11-15 18:41:28 1510789288.330309: $GPGGA,234127,3946.9478,N,08404.9735,W,1,09,1.20,312.48,M,-33.324,M,,*75
2017-11-15 18:41:28 1510789288.330371: $GPRMC,234127,A,3946.9478,N,08404.9735,W,0.3423,4.197,151117,,*3B
2017-11-15 18:41:28 1510789288.330427: $GPGSA,A,3,25,14,32,31,1,29,10,26,22,,,,3.4,1.2,2.9*03
