2017-12-01 12:06:38 1512147998.559893: {"class":"VERSION","release":"3.16","rev":"3.16-4","proto_major":3,"proto_minor":11}
2017-12-01 12:06:38 1512147998.560252: {"class":"DEVICES","devices":[{"class":"DEVICE","path":"/dev/ttyUSB0","driver":"SiRF","subtype":"9\u0006GSD4e_4.1.2-P1_RPATCH.05-F-GPS-4R-1510281 11/03/2015 307","activated":"2017-12-01T17:06:38.205Z","flags":1,"native":1,"bps":4800,"parity":"N","stopbits":1,"cycle":1.00}]}
2017-12-01 12:06:38 1512147998.560365: {"class":"WATCH","enable":true,"json":false,"nmea":true,"raw":0,"scaled":false,"timing":false,"split24":false,"pps":false}
2017-12-01 12:06:38 1512147998.809885: $GPZDA,170639.50,01,12,2017,00,00*6F
2017-12-01 12:06:38 1512147998.810058: $GPGGA,170639,3946.9538,N,08404.9805,W,1,11,1.00,308.57,M,-33.324,M,,*79
2017-12-01 12:06:38 1512147998.810124: $GPRMC,170639,A,3946.9538,N,08404.9805,W,0.3155,129.994,011217,,*3E
2017-12-01 12:06:38 1512147998.810187: $GPGSA,A,3,10,13,15,18,20,21,24,27,29,5,138,,2.0,1.0,1.5*3D
2017-12-01 12:06:38 1512147998.810246: $GPGBS,170639,10.70,M,15.43,M,35.28,M*0D
2017-12-01 12:06:39 1512147999.743269: $GPZDA,170640.19,01,12,2017,00,00*6C
2017-12-01 12:06:39 1512147999.743439: $GPGGA,170640,3946.9538,N,08404.9812,W,1,11,1.00,308.49,M,-33.324,M,,*7E
2017-12-01 12:06:39 1512147999.743506: $GPRMC,170640,A,3946.9538,N,08404.9812,W,0.1567,189.200,011217,,*3D
2017-12-01 12:06:39 1512147999.743567: $GPGSA,A,3,10,13,15,18,20,21,24,27,29,5,138,,2.0,1.0,1.5*3D
2017-12-01 12:06:39 1512147999.743625: $GPGBS,170640,10.70,M,15.43,M,35.28,M*03
2017-12-01 12:06:40 1512148000.926838: $GPGSV,3,1,12,10,20,279,37,13,33,046,45,15,66,054,44,18,51,295,46*76
2017-12-01 12:06:40 1512148000.927050: $GPGSV,3,2,12,20,55,066,45,21,76,288,44,24,29,142,44,27,14,316,39*7C
2017-12-01 12:06:40 1512148000.927139: $GPGSV,3,3,12,05,07,084,13,29,14,192,16,04,04,135,00,138,38,213,29*48
2017-12-01 12:06:41 1512148001.041101: $GPZDA,170641.00,01,12,2017,00,00*65
2017-12-01 12:06:41 1512148001.041267: $GPGGA,170641,3946.9534,N,08404.9812,W,1,11,0.80,307.85,M,-33.324,M,,*75
2017-12-01 12:06:41 1512148001.041340: $GPRMC,170641,A,3946.9534,N,08404.9812,W,0.2172,85.763,011217,,*0E
2017-12-01 12:06:41 1512148001.041520: $GPGSA,A,3,10,13,15,18,20,21,24,27,5,29,138,,2.0,0.8,1.5*34
2017-12-01 12:06:41 1512148001.492894: $GPZDA,170642.00,01,12,2017,00,00*66
2017-12-01 12:06:41 1512148001.493086: $GPGGA,170642,3946.9538,N,08404.9819,W,1,11,0.80,307.01,M,-33.324,M,,*7D
2017-12-01 12:06:41 1512148001.493153: $GPRMC,170642,A,3946.9538,N,08404.9819,W,0.0000,0.000,011217,,*33
2017-12-01 12:06:41 1512148001.493216: $GPGSA,A,3,10,13,15,18,20,21,24,27,5,29,138,,2.0,0.8,1.5*34
2017-12-01 12:06:42 1512148002.401954: $GPZDA,170643.00,01,12,2017,00,00*67
2017-12-01 12:06:42 1512148002.402127: $GPGGA,170643,3946.9541,N,08404.9818,W,1,11,0.80,306.24,M,-33.324,M,,*75
2017-12-01 12:06:42 1512148002.402193: $GPRMC,170643,A,3946.9541,N,08404.9818,W,0.0000,0.000,011217,,*3D
2017-12-01 12:06:42 1512148002.402254: $GPGSA,A,3,10,13,15,18,20,21,24,27,5,29,138,,2.0,0.8,1.5*34
2017-12-01 12:06:43 1512148003.737229: $GPGSV,3,1,12,10,20,279,38,13,33,046,44,15,66,054,44,18,51,295,46*78
2017-12-01 12:06:43 1512148003.737412: $GPGSV,3,2,12,20,55,066,45,21,76,288,45,24,29,142,44,27,14,316,39*7D
2017-12-01 12:06:43 1512148003.737479: $GPGSV,3,3,12,05,07,084,26,29,14,192,29,04,04,135,00,138,38,213,46*4B
2017-12-01 12:06:43 1512148003.850607: $GPZDA,170644.00,01,12,2017,00,00*60
2017-12-01 12:06:43 1512148003.850779: $GPGGA,170644,3946.9545,N,08404.9824,W,1,11,0.80,305.40,M,-33.324,M,,*78
2017-12-01 12:06:43 1512148003.850845: $GPRMC,170644,A,3946.9545,N,08404.9824,W,0.0000,0.000,011217,,*31
2017-12-01 12:06:43 1512148003.850906: $GPGSA,A,3,10,13,15,18,20,21,24,27,5,29,138,,2.0,0.8,1.5*34
2017-12-01 12:06:44 1512148004.401509: $GPZDA,170645.00,01,12,2017,00,00*61
2017-12-01 12:06:44 1512148004.401682: $GPGGA,170645,3946.9545,N,08404.9824,W,1,11,0.80,305.40,M,-33.324,M,,*79
2017-12-01 12:06:44 1512148004.401749: $GPRMC,170645,A,3946.9545,N,08404.9824,W,0.0000,0.000,011217,,*30
2017-12-01 12:06:44 1512148004.401861: $GPGSA,A,3,10,13,15,18,20,21,24,27,5,29,138,,2.0,0.8,1.5*34
2017-12-01 12:06:45 1512148005.403464: $GPZDA,170646.00,01,12,2017,00,00*62
2017-12-01 12:06:45 1512148005.403643: $GPGGA,170646,3946.9544,N,08404.9823,W,1,11,0.80,303.99,M,-33.324,M,,*7E
2017-12-01 12:06:45 1512148005.403711: $GPRMC,170646,A,3946.9544,N,08404.9823,W,0.0000,0.000,011217,,*35
2017-12-01 12:06:45 1512148005.403772: $GPGSA,A,3,10,13,15,18,20,21,24,27,5,29,138,,2.0,0.8,1.5*34
2017-12-01 12:06:45 1512148005.403831: $GPGBS,170646,10.70,M,15.43,M,35.28,M*05
2017-12-01 12:06:46 1512148006.737978: $GPGSV,3,1,12,10,20,279,38,13,33,046,45,15,66,054,44,18,51,295,46*79
2017-12-01 12:06:46 1512148006.738169: $GPGSV,3,2,12,20,55,066,45,21,76,288,45,24,29,142,45,27,14,316,38*7D
2017-12-01 12:06:46 1512148006.738237: $GPGSV,3,3,12,05,07,084,26,29,14,192,28,04,04,135,00,138,38,213,47*4B
2017-12-01 12:06:46 1512148006.851482: $GPZDA,170647.00,01,12,2017,00,00*63
2017-12-01 12:06:46 1512148006.851668: $GPGGA,170647,3946.9558,N,08404.9854,W,2,11,1.00,297.73,M,-33.324,M,,*70
2017-12-01 12:06:46 1512148006.851733: $GPRMC,170647,A,3946.9558,N,08404.9854,W,0.0000,0.000,011217,,*39
2017-12-01 12:06:46 1512148006.851794: $GPGSA,A,3,10,13,15,18,20,21,24,27,5,29,138,,2.0,1.0,1.5*3D
2017-12-01 12:06:47 1512148007.403498: $GPZDA,170648.00,01,12,2017,00,00*6C
2017-12-01 12:06:47 1512148007.403674: $GPGGA,170648,3946.9558,N,08404.9854,W,2,11,0.80,297.73,M,-33.324,M,,*76
2017-12-01 12:06:47 1512148007.403741: $GPRMC,170648,A,3946.9558,N,08404.9854,W,0.0000,0.000,011217,,*36
2017-12-01 12:06:47 1512148007.403802: $GPGSA,A,3,10,13,15,18,20,21,24,27,5,29,138,,2.0,0.8,1.5*34
2017-12-01 12:06:48 1512148008.405113: $GPZDA,170649.00,01,12,2017,00,00*6D
2017-12-01 12:06:48 1512148008.405291: $GPGGA,170649,3946.9574,N,08404.9859,W,2,11,0.80,297.40,M,-33.324,M,,*74
2017-12-01 12:06:48 1512148008.405358: $GPRMC,170649,A,3946.9574,N,08404.9859,W,0.0000,0.000,011217,,*34
2017-12-01 12:06:48 1512148008.405420: $GPGSA,A,3,10,13,15,18,20,21,24,27,5,29,138,,2.0,0.8,1.5*34
