2017-12-01 15:33:03 1512160383.457328: {"class":"VERSION","release":"3.16","rev":"3.16-4","proto_major":3,"proto_minor":11}
2017-12-01 15:33:03 1512160383.457802: {"class":"DEVICES","devices":[{"class":"DEVICE","path":"/dev/ttyUSB0","driver":"SiRF","subtype":"9\u0006GSD4e_4.1.2-P1_RPATCH.05-F-GPS-4R-1510281 11/03/2015 307","activated":"2017-12-01T20:33:03.440Z","flags":1,"native":1,"bps":4800,"parity":"N","stopbits":1,"cycle":1.00}]}
2017-12-01 15:33:03 1512160383.457924: {"class":"WATCH","enable":true,"json":false,"nmea":true,"raw":0,"scaled":false,"timing":false,"split24":false,"pps":false}
2017-12-01 15:33:04 1512160384.738240: $GPGSV,3,1,11,01,10,322,40,10,75,121,47,11,10,306,37,12,24,078,44*74
2017-12-01 15:33:04 1512160384.738423: $GPGSV,3,2,11,14,51,285,43,18,43,132,46,24,19,045,41,25,26,120,44*77
2017-12-01 15:33:04 1512160384.738489: $GPGSV,3,3,11,31,29,210,46,32,66,315,49,138,38,213,45*7A
2017-12-01 15:33:04 1512160384.851643: $GPZDA,203305.00,01,12,2017,00,00*67
2017-12-01 15:33:04 1512160384.851815: $GPGGA,203305,3946.9596,N,08404.9850,W,2,11,0.80,295.70,M,-33.324,M,,*7A
2017-12-01 15:33:04 1512160384.851883: $GPRMC,203305,A,3946.9596,N,08404.9850,W,0.0000,0.000,011217,,*3B
2017-12-01 15:33:04 1512160384.851946: $GPGSA,A,3,1,10,11,12,14,18,24,25,31,32,138,,2.0,0.8,1.5*3B
2017-12-01 15:33:05 1512160385.403735: $GPZDA,203306.00,01,12,2017,00,00*64
2017-12-01 15:33:05 1512160385.403936: $GPGGA,203306,3946.9596,N,08404.9850,W,2,11,0.80,295.70,M,-33.324,M,,*79
2017-12-01 15:33:05 1512160385.404029: $GPRMC,203306,A,3946.9596,N,08404.9850,W,0.0000,0.000,011217,,*38
2017-12-01 15:33:05 1512160385.404093: $GPGSA,A,3,1,10,11,12,14,18,24,25,31,32,138,,2.0,0.8,1.5*3B
2017-12-01 15:33:06 1512160386.403347: $GPZDA,203307.00,01,12,2017,00,00*65
2017-12-01 15:33:06 1512160386.403525: $GPGGA,203307,3946.9596,N,08404.9850,W,2,11,0.80,295.70,M,-33.324,M,,*78
2017-12-01 15:33:06 1512160386.403592: $GPRMC,203307,A,3946.9596,N,08404.9850,W,0.0000,0.000,011217,,*39
2017-12-01 15:33:06 1512160386.403655: $GPGSA,A,3,1,10,11,12,14,18,24,25,31,32,138,,2.0,0.8,1.5*3B
2017-12-01 15:33:07 1512160387.755425: $GPGSV,3,1,11,01,10,322,40,10,75,121,47,11,10,306,37,12,24,078,44*74
2017-12-01 15:33:07 1512160387.755605: $GPGSV,3,2,11,14,51,285,42,18,43,132,46,24,19,045,41,25,26,120,44*76
2017-12-01 15:33:07 1512160387.755672: $GPGSV,3,3,11,31,29,210,46,32,66,315,49,138,38,213,45*7A
2017-12-01 15:33:07 1512160387.868840: $GPZDA,203308.00,01,12,2017,00,00*6A
2017-12-01 15:33:07 1512160387.869042: $GPGGA,203308,3946.9596,N,08404.9850,W,2,11,0.80,295.70,M,-33.324,M,,*77
2017-12-01 15:33:07 1512160387.869110: $GPRMC,203308,A,3946.9596,N,08404.9850,W,0.0000,0.000,011217,,*36
2017-12-01 15:33:07 1512160387.869171: $GPGSA,A,3,1,10,11,12,14,18,24,25,31,32,138,,2.0,0.8,1.5*3B
2017-12-01 15:33:08 1512160388.413522: $GPZDA,203309.00,01,12,2017,00,00*6B
2017-12-01 15:33:08 1512160388.413694: $GPGGA,203309,3946.9596,N,08404.9850,W,2,11,0.80,295.70,M,-33.324,M,,*76
2017-12-01 15:33:08 1512160388.413761: $GPRMC,203309,A,3946.9596,N,08404.9850,W,0.0000,0.000,011217,,*37
2017-12-01 15:33:08 1512160388.413822: $GPGSA,A,3,1,10,11,12,14,18,24,25,31,32,138,,2.0,0.8,1.5*3B
2017-12-01 15:33:09 1512160389.420128: $GPZDA,203310.00,01,12,2017,00,00*63
2017-12-01 15:33:09 1512160389.420299: $GPGGA,203310,3946.9596,N,08404.9850,W,2,11,0.80,295.70,M,-33.324,M,,*7E
2017-12-01 15:33:09 1512160389.420365: $GPRMC,203310,A,3946.9596,N,08404.9850,W,0.0000,0.000,011217,,*3F
2017-12-01 15:33:09 1512160389.420426: $GPGSA,A,3,1,10,11,12,14,18,24,25,31,32,138,,2.0,0.8,1.5*3B
2017-12-01 15:33:10 1512160390.755704: $GPGSV,3,1,11,01,10,322,39,10,75,121,47,11,10,306,37,12,24,078,43*7D
2017-12-01 15:33:10 1512160390.755883: $GPGSV,3,2,11,14,51,285,42,18,43,132,46,24,19,045,41,25,26,120,43*71
2017-12-01 15:33:10 1512160390.755951: $GPGSV,3,3,11,31,29,210,46,32,66,315,49,138,38,213,46*79
2017-12-01 15:33:10 1512160390.869116: $GPZDA,203311.00,01,12,2017,00,00*62
2017-12-01 15:33:10 1512160390.869284: $GPGGA,203311,3946.9596,N,08404.9850,W,2,11,0.80,295.70,M,-33.324,M,,*7F
2017-12-01 15:33:10 1512160390.869424: $GPRMC,203311,A,3946.9596,N,08404.9850,W,0.0000,0.000,011217,,*3E
2017-12-01 15:33:10 1512160390.869488: $GPGSA,A,3,1,10,11,12,14,18,24,25,31,32,138,,2.0,0.8,1.5*3B
2017-12-01 15:33:11 1512160391.418724: $GPZDA,203312.00,01,12,2017,00,00*61
2017-12-01 15:33:11 1512160391.418913: $GPGGA,203312,3946.9596,N,08404.9850,W,2,11,0.80,295.70,M,-33.324,M,,*7C
2017-12-01 15:33:11 1512160391.418981: $GPRMC,203312,A,3946.9596,N,08404.9850,W,0.0000,0.000,011217,,*3D
2017-12-01 15:33:11 1512160391.419060: $GPGSA,A,3,1,10,11,12,14,18,24,25,31,32,138,,2.0,0.8,1.5*3B
2017-12-01 15:33:12 1512160392.404652: $GPZDA,203313.00,01,12,2017,00,00*60
2017-12-01 15:33:12 1512160392.404819: $GPGGA,203313,3946.9595,N,08404.9843,W,2,11,0.80,295.78,M,-33.324,M,,*74
2017-12-01 15:33:12 1512160392.404905: $GPRMC,203313,A,3946.9595,N,08404.9843,W,0.0000,0.000,011217,,*3D
2017-12-01 15:33:12 1512160392.404968: $GPGSA,A,3,1,10,11,12,14,18,24,25,31,32,138,,2.0,0.8,1.5*3B
2017-12-01 15:33:13 1512160393.740398: $GPGSV,3,1,11,01,10,322,38,10,75,121,47,11,10,306,36,12,24,078,42*7C
2017-12-01 15:33:13 1512160393.740594: $GPGSV,3,2,11,14,51,285,42,18,43,132,46,24,19,045,41,25,26,120,44*76
2017-12-01 15:33:13 1512160393.740663: $GPGSV,3,3,11,31,29,210,46,32,66,315,49,138,38,213,45*7A
2017-12-01 15:33:13 1512160393.854143: $GPZDA,203314.00,01,12,2017,00,00*67
2017-12-01 15:33:13 1512160393.854314: $GPGGA,203314,3946.9595,N,08404.9843,W,2,11,0.80,295.78,M,-33.324,M,,*73
2017-12-01 15:33:13 1512160393.854380: $GPRMC,203314,A,3946.9595,N,08404.9843,W,0.0000,0.000,011217,,*3A
2017-12-01 15:33:13 1512160393.854441: $GPGSA,A,3,1,10,11,12,14,18,24,25,31,32,138,,2.0,0.8,1.5*3B
2017-12-01 15:33:14 1512160394.479151: $GPZDA,203315.00,01,12,2017,00,00*66
2017-12-01 15:33:14 1512160394.479318: $GPGGA,203315,3946.9595,N,08404.9843,W,2,11,0.80,295.78,M,-33.324,M,,*72
2017-12-01 15:33:14 1512160394.479385: $GPRMC,203315,A,3946.9595,N,08404.9843,W,0.0000,0.000,011217,,*3B
2017-12-01 15:33:14 1512160394.479446: $GPGSA,A,3,1,10,11,12,14,18,24,25,31,32,138,,2.0,0.8,1.5*3B
2017-12-01 15:33:15 1512160395.419043: $GPZDA,203316.00,01,12,2017,00,00*65
2017-12-01 15:33:15 1512160395.419213: $GPGGA,203316,3946.9595,N,08404.9843,W,2,11,0.80,295.78,M,-33.324,M,,*71
2017-12-01 15:33:15 1512160395.419279: $GPRMC,203316,A,3946.9595,N,08404.9843,W,0.0000,0.000,011217,,*38
2017-12-01 15:33:15 1512160395.419341: $GPGSA,A,3,1,10,11,12,14,18,24,25,31,32,138,,2.0,0.8,1.5*3B
2017-12-01 15:33:16 1512160396.738257: $GPGSV,3,1,11,01,10,322,37,10,75,121,47,11,10,306,36,12,24,078,42*73
2017-12-01 15:33:16 1512160396.738436: $GPGSV,3,2,11,14,51,285,42,18,43,132,46,24,19,045,41,25,26,120,43*71
2017-12-01 15:33:16 1512160396.738503: $GPGSV,3,3,11,31,29,210,46,32,66,315,49,138,38,213,45*7A
2017-12-01 15:33:16 1512160396.851701: $GPZDA,203317.00,01,12,2017,00,00*64
2017-12-01 15:33:16 1512160396.851867: $GPGGA,203317,3946.9595,N,08404.9843,W,2,11,0.80,295.78,M,-33.324,M,,*70
2017-12-01 15:33:16 1512160396.851933: $GPRMC,203317,A,3946.9595,N,08404.9843,W,0.0000,0.000,011217,,*39
2017-12-01 15:33:16 1512160396.851993: $GPGSA,A,3,1,10,11,12,14,18,24,25,31,32,138,,2.0,0.8,1.5*3B
2017-12-01 15:33:17 1512160397.419930: $GPZDA,203318.00,01,12,2017,00,00*6B
2017-12-01 15:33:17 1512160397.420104: $GPGGA,203318,3946.9595,N,08404.9843,W,2,11,0.80,295.78,M,-33.324,M,,*7F
2017-12-01 15:33:17 1512160397.420192: $GPRMC,203318,A,3946.9595,N,08404.9843,W,0.0000,0.000,011217,,*36
2017-12-01 15:33:17 1512160397.420255: $GPGSA,A,3,1,10,11,12,14,18,24,25,31,32,138,,2.0,0.8,1.5*3B
2017-12-01 15:33:18 1512160398.420800: $GPZDA,203319.00,01,12,2017,00,00*6A
2017-12-01 15:33:18 1512160398.420974: $GPGGA,203319,3946.9595,N,08404.9843,W,2,11,0.80,295.78,M,-33.324,M,,*7E
2017-12-01 15:33:18 1512160398.421042: $GPRMC,203319,A,3946.9595,N,08404.9843,W,0.0000,0.000,011217,,*37
2017-12-01 15:33:18 1512160398.421103: $GPGSA,A,3,1,10,11,12,14,18,24,25,31,32,138,,2.0,0.8,1.5*3B
2017-12-01 15:33:19 1512160399.756087: $GPGSV,3,1,11,01,10,322,37,10,75,121,48,11,10,306,36,12,24,078,42*7C
2017-12-01 15:33:19 1512160399.756318: $GPGSV,3,2,11,14,51,285,42,18,43,132,46,24,19,045,41,25,26,120,44*76
2017-12-01 15:33:19 1512160399.756388: $GPGSV,3,3,11,31,29,210,47,32,66,315,48,138,38,213,46*79
2017-12-01 15:33:19 1512160399.870591: $GPZDA,203320.00,01,12,2017,00,00*60
2017-12-01 15:33:19 1512160399.870771: $GPGGA,203320,3946.9595,N,08404.9843,W,2,11,0.80,295.78,M,-33.324,M,,*74
2017-12-01 15:33:19 1512160399.870837: $GPRMC,203320,A,3946.9595,N,08404.9843,W,0.0000,0.000,011217,,*3D
2017-12-01 15:33:19 1512160399.870898: $GPGSA,A,3,1,10,11,12,14,18,24,25,31,32,138,,2.0,0.8,1.5*3B
2017-12-01 15:33:20 1512160400.402933: $GPZDA,203321.00,01,12,2017,00,00*61
2017-12-01 15:33:20 1512160400.403130: $GPGGA,203321,3946.9595,N,08404.9843,W,2,11,0.80,295.78,M,-33.324,M,,*75
2017-12-01 15:33:20 1512160400.403198: $GPRMC,203321,A,3946.9595,N,08404.9843,W,0.0000,0.000,011217,,*3C
2017-12-01 15:33:20 1512160400.403259: $GPGSA,A,3,1,10,11,12,14,18,24,25,31,32,138,,2.0,0.8,1.5*3B
2017-12-01 15:33:21 1512160401.421573: $GPZDA,203322.00,01,12,2017,00,00*62
2017-12-01 15:33:21 1512160401.421756: $GPGGA,203322,3946.9595,N,08404.9843,W,2,11,0.80,295.78,M,-33.324,M,,*76
2017-12-01 15:33:21 1512160401.421854: $GPRMC,203322,A,3946.9595,N,08404.9843,W,0.0000,0.000,011217,,*3F
2017-12-01 15:33:21 1512160401.421917: $GPGSA,A,3,1,10,11,12,14,18,24,25,31,32,138,,2.0,0.8,1.5*3B
2017-12-01 15:33:22 1512160402.739487: $GPGSV,3,1,11,01,10,322,37,10,75,121,48,11,10,306,36,12,24,078,43*7D
2017-12-01 15:33:22 1512160402.739649: $GPGSV,3,2,11,14,51,285,42,18,43,132,46,24,19,045,41,25,26,120,44*76
2017-12-01 15:33:22 1512160402.739736: $GPGSV,3,3,11,31,29,210,46,32,66,315,49,138,38,213,45*7A
2017-12-01 15:33:22 1512160402.852788: $GPZDA,203323.00,01,12,2017,00,00*63
2017-12-01 15:33:22 1512160402.853010: $GPGGA,203323,3946.9595,N,08404.9843,W,2,11,0.80,295.78,M,-33.324,M,,*77
2017-12-01 15:33:22 1512160402.853079: $GPRMC,203323,A,3946.9595,N,08404.9843,W,0.0000,0.000,011217,,*3E
2017-12-01 15:33:22 1512160402.853141: $GPGSA,A,3,1,10,11,12,14,18,24,25,31,32,138,,2.0,0.8,1.5*3B
2017-12-01 15:33:23 1512160403.402635: $GPZDA,203324.00,01,12,2017,00,00*64
2017-12-01 15:33:23 1512160403.402825: $GPGGA,203324,3946.9595,N,08404.9843,W,2,11,0.80,295.78,M,-33.324,M,,*70
2017-12-01 15:33:23 1512160403.402893: $GPRMC,203324,A,3946.9595,N,08404.9843,W,0.0000,0.000,011217,,*39
2017-12-01 15:33:23 1512160403.402972: $GPGSA,A,3,1,10,11,12,14,18,24,25,31,32,138,,2.0,0.8,1.5*3B
