2017-11-16 15:15:45 1510863345.187752: {"class":"VERSION","release":"3.17","rev":"3.17","proto_major":3,"proto_minor":12}
2017-11-16 15:15:45 1510863345.188022: {"class":"DEVICES","devices":[{"class":"DEVICE","path":"/dev/ttyUSB0","driver":"SiRF","subtype":"9\u0006GSD4e_4.1.2-P1_RPATCH.05-F-GPS-4R-1510281 11/03/2015 307","activated":"2017-11-16T20:15:44.537Z","flags":1,"native":1,"bps":4800,"parity":"N","stopbits":1,"cycle":1.00}]}
2017-11-16 15:15:45 1510863345.188083: {"class":"WATCH","enable":true,"json":false,"nmea":true,"raw":0,"scaled":false,"timing":false,"split24":false,"pps":false}
2017-11-16 15:15:45 1510863345.394594: $GPZDA,201544.00,16,11,2017,00,00*63
2017-11-16 15:15:45 1510863345.394703: $GPGGA,201544,3946.9580,N,08404.9855,W,2,12,0.80,302.34,M,-33.324,M,,*75
2017-11-16 15:15:45 1510863345.394733: $GPRMC,201544,A,3946.9580,N,08404.9855,W,0.0000,0.000,161117,,*3D
2017-11-16 15:15:45 1510863345.394761: $GPGSA,A,3,8,10,14,15,18,20,21,24,27,32,12,138,1.6,0.8,1.3*34
2017-11-16 15:15:46 1510863346.730590: $GPGSV,3,1,12,08,07,298,34,10,64,324,51,14,25,249,45,15,15,064,33*7F
2017-11-16 15:15:46 1510863346.730764: $GPGSV,3,2,12,18,74,079,46,20,12,115,30,21,35,180,44,24,48,064,49*73
2017-11-16 15:15:46 1510863346.730824: $GPGSV,3,3,12,27,09,264,36,32,42,259,49,12,06,111,33,138,38,213,44*42
2017-11-16 15:15:46 1510863346.843860: $GPZDA,201545.00,16,11,2017,00,00*62
2017-11-16 15:15:46 1510863346.844030: $GPGGA,201545,3946.9580,N,08404.9855,W,2,12,0.80,302.34,M,-33.324,M,,*74
2017-11-16 15:15:46 1510863346.844091: $GPRMC,201545,A,3946.9580,N,08404.9855,W,0.0000,0.000,161117,,*3C
2017-11-16 15:15:46 1510863346.844147: $GPGSA,A,3,8,10,14,15,18,20,21,24,27,32,12,138,1.6,0.8,1.3*34
2017-11-16 15:15:47 1510863347.377124: $GPZDA,201546.00,16,11,2017,00,00*61
2017-11-16 15:15:47 1510863347.377309: $GPGGA,201546,3946.9580,N,08404.9855,W,2,12,0.80,302.34,M,-33.324,M,,*77
2017-11-16 15:15:47 1510863347.377393: $GPRMC,201546,A,3946.9580,N,08404.9855,W,0.0000,0.000,161117,,*3F
2017-11-16 15:15:47 1510863347.377452: $GPGSA,A,3,8,10,14,15,18,20,21,24,27,32,12,138,1.6,0.8,1.3*34
2017-11-16 15:15:48 1510863348.380598: $GPZDA,201547.00,16,11,2017,00,00*60
2017-11-16 15:15:48 1510863348.380781: $GPGGA,201547,3946.9580,N,08404.9855,W,2,12,0.80,302.34,M,-33.324,M,,*76
2017-11-16 15:15:48 1510863348.380842: $GPRMC,201547,A,3946.9580,N,08404.9855,W,0.0000,0.000,161117,,*3E
2017-11-16 15:15:48 1510863348.380898: $GPGSA,A,3,8,10,14,15,18,20,21,24,27,32,12,138,1.6,0.8,1.3*34
2017-11-16 15:15:49 1510863349.717515: $GPGSV,3,1,12,08,07,298,27,10,64,324,51,14,25,249,45,15,15,064,34*7A
2017-11-16 15:15:49 1510863349.717701: $GPGSV,3,2,12,18,74,079,46,20,12,115,30,21,35,180,44,24,48,064,49*73
2017-11-16 15:15:49 1510863349.717762: $GPGSV,3,3,12,27,09,264,30,32,42,259,48,12,06,111,33,138,38,213,44*45
2017-11-16 15:15:49 1510863349.831394: $GPZDA,201548.00,16,11,2017,00,00*6F
2017-11-16 15:15:49 1510863349.831616: $GPGGA,201548,3946.9580,N,08404.9855,W,2,12,0.80,302.34,M,-33.324,M,,*79
2017-11-16 15:15:49 1510863349.831703: $GPRMC,201548,A,3946.9580,N,08404.9855,W,0.0000,0.000,161117,,*31
2017-11-16 15:15:49 1510863349.831760: $GPGSA,A,3,8,10,14,15,18,20,21,24,27,32,12,138,1.6,0.8,1.3*34
2017-11-16 15:15:50 1510863350.379285: $GPZDA,201549.00,16,11,2017,00,00*6E
2017-11-16 15:15:50 1510863350.379446: $GPGGA,201549,3946.9580,N,08404.9855,W,2,12,0.80,302.34,M,-33.324,M,,*78
2017-11-16 15:15:50 1510863350.379530: $GPRMC,201549,A,3946.9580,N,08404.9855,W,0.0000,0.000,161117,,*30
2017-11-16 15:15:50 1510863350.379587: $GPGSA,A,3,8,10,14,15,18,20,21,24,27,32,12,138,1.6,0.8,1.3*34
2017-11-16 15:15:51 1510863351.373280: $GPZDA,201550.00,16,11,2017,00,00*66
2017-11-16 15:15:51 1510863351.373480: $GPGGA,201550,3946.9580,N,08404.9855,W,2,12,0.80,302.34,M,-33.324,M,,*70
2017-11-16 15:15:51 1510863351.373542: $GPRMC,201550,A,3946.9580,N,08404.9855,W,0.0000,0.000,161117,,*38
2017-11-16 15:15:51 1510863351.373614: $GPGSA,A,3,8,10,14,15,18,20,21,24,27,32,12,138,1.6,0.8,1.3*34
2017-11-16 15:15:52 1510863352.716510: $GPGSV,3,1,12,08,07,298,26,10,64,324,51,14,25,249,44,15,15,064,34*7A
2017-11-16 15:15:52 1510863352.716775: $GPGSV,3,2,12,18,74,079,46,20,12,115,30,21,35,180,43,24,48,064,49*74
2017-11-16 15:15:52 1510863352.716845: $GPGSV,3,3,12,27,09,264,32,32,42,259,48,12,06,111,32,138,38,213,44*46
2017-11-16 15:15:52 1510863352.828584: $GPZDA,201551.00,16,11,2017,00,00*67
2017-11-16 15:15:52 1510863352.828745: $GPGGA,201551,3946.9580,N,08404.9855,W,2,12,0.80,302.34,M,-33.324,M,,*71
2017-11-16 15:15:52 1510863352.828805: $GPRMC,201551,A,3946.9580,N,08404.9855,W,0.0000,0.000,161117,,*39
2017-11-16 15:15:52 1510863352.828861: $GPGSA,A,3,8,10,14,15,18,20,21,24,27,32,12,138,1.6,0.8,1.3*34
2017-11-16 15:15:53 1510863353.380753: $GPZDA,201552.00,16,11,2017,00,00*64
2017-11-16 15:15:53 1510863353.380919: $GPGGA,201552,3946.9580,N,08404.9855,W,2,12,0.80,302.34,M,-33.324,M,,*72
2017-11-16 15:15:53 1510863353.380980: $GPRMC,201552,A,3946.9580,N,08404.9855,W,0.0000,0.000,161117,,*3A
2017-11-16 15:15:53 1510863353.381036: $GPGSA,A,3,8,10,14,15,18,20,21,24,27,32,12,138,1.6,0.8,1.3*34
2017-11-16 15:15:54 1510863354.379714: $GPZDA,201553.00,16,11,2017,00,00*65
2017-11-16 15:15:54 1510863354.379880: $GPGGA,201553,3946.9580,N,08404.9855,W,2,12,0.80,302.34,M,-33.324,M,,*73
2017-11-16 15:15:54 1510863354.379940: $GPRMC,201553,A,3946.9580,N,08404.9855,W,0.0000,0.000,161117,,*3B
2017-11-16 15:15:54 1510863354.379996: $GPGSA,A,3,8,10,14,15,18,20,21,24,27,32,12,138,1.6,0.8,1.3*34
