2017-12-29 14:49:00 1514576940.226728: {"class":"VERSION","release":"3.16","rev":"3.16-4","proto_major":3,"proto_minor":11}
2017-12-29 14:49:00 1514576940.227134: {"class":"DEVICES","devices":[{"class":"DEVICE","path":"/dev/ttyUSB0","driver":"SiRF","subtype":"9\u0006GSD4e_4.1.2-P1_RPATCH.05-F-GPS-4R-1510281 11/03/2015 307","activated":"2017-12-29T19:49:00.115Z","flags":1,"native":1,"bps":4800,"parity":"N","stopbits":1,"cycle":1.00}]}
2017-12-29 14:49:00 1514576940.227313: {"class":"WATCH","enable":true,"json":false,"nmea":true,"raw":0,"scaled":false,"timing":false,"split24":false,"pps":false}
2017-12-29 14:49:00 1514576940.426422: $GPZDA,194901.00,29,12,2017,00,00*6E
2017-12-29 14:49:00 1514576940.426581: $GPGGA,194901,3946.9594,N,08404.9762,W,2,12,0.80,302.35,M,-33.324,M,,*78
2017-12-29 14:49:00 1514576940.426647: $GPRMC,194901,A,3946.9594,N,08404.9762,W,0.0000,0.000,291217,,*3E
2017-12-29 14:49:00 1514576940.426707: $GPGSA,A,3,1,10,11,12,14,18,22,25,31,32,26,138,1.7,0.8,1.3*3B
2017-12-29 14:49:01 1514576941.352389: $GPZDA,194902.00,29,12,2017,00,00*6D
2017-12-29 14:49:01 1514576941.352568: $GPGGA,194902,3946.9594,N,08404.9762,W,2,12,0.80,302.35,M,-33.324,M,,*7B
2017-12-29 14:49:01 1514576941.352636: $GPRMC,194902,A,3946.9594,N,08404.9762,W,0.0000,0.000,291217,,*3D
2017-12-29 14:49:01 1514576941.352697: $GPGSA,A,3,1,10,11,12,14,18,22,25,31,32,26,138,1.7,0.8,1.3*3B
2017-12-29 14:49:02 1514576942.685313: $GPGSV,3,1,12,01,22,295,38,10,41,151,49,11,06,277,36,12,19,045,44*7B
2017-12-29 14:49:02 1514576942.685493: $GPGSV,3,2,12,14,68,340,42,18,12,145,36,22,24,312,40,25,41,082,51*70
2017-12-29 14:49:02 1514576942.685561: $GPGSV,3,3,12,31,64,231,46,32,66,045,50,26,08,181,27,138,38,213,43*4A
2017-12-29 14:49:02 1514576942.798625: $GPZDA,194903.00,29,12,2017,00,00*6C
2017-12-29 14:49:02 1514576942.798746: $GPGGA,194903,3946.9594,N,08404.9762,W,2,12,0.80,302.35,M,-33.324,M,,*7A
2017-12-29 14:49:02 1514576942.798813: $GPRMC,194903,A,3946.9594,N,08404.9762,W,0.0000,0.000,291217,,*3C
2017-12-29 14:49:02 1514576942.798876: $GPGSA,A,3,1,10,11,12,14,18,22,25,31,32,26,138,1.7,0.8,1.3*3B
2017-12-29 14:49:03 1514576943.350794: $GPZDA,194904.00,29,12,2017,00,00*6B
2017-12-29 14:49:03 1514576943.350974: $GPGGA,194904,3946.9594,N,08404.9762,W,2,12,0.80,302.35,M,-33.324,M,,*7D
2017-12-29 14:49:03 1514576943.351102: $GPRMC,194904,A,3946.9594,N,08404.9762,W,0.0000,0.000,291217,,*3B
2017-12-29 14:49:03 1514576943.351177: $GPGSA,A,3,1,10,11,12,14,18,22,25,31,32,26,138,1.7,0.8,1.3*3B
2017-12-29 14:49:04 1514576944.351707: $GPZDA,194905.00,29,12,2017,00,00*6A
2017-12-29 14:49:04 1514576944.351887: $GPGGA,194905,3946.9594,N,08404.9762,W,2,12,0.80,302.35,M,-33.324,M,,*7C
2017-12-29 14:49:04 1514576944.351958: $GPRMC,194905,A,3946.9594,N,08404.9762,W,0.0000,0.000,291217,,*3A
2017-12-29 14:49:04 1514576944.352022: $GPGSA,A,3,1,10,11,12,14,18,22,25,31,32,26,138,1.7,0.8,1.3*3B
2017-12-29 14:49:05 1514576945.685643: $GPGSV,3,1,12,01,22,295,38,10,41,151,49,11,06,277,36,12,19,045,45*7A
2017-12-29 14:49:05 1514576945.685808: $GPGSV,3,2,12,14,68,340,42,18,12,145,36,22,24,312,40,25,41,082,51*70
2017-12-29 14:49:05 1514576945.685877: $GPGSV,3,3,12,31,64,231,46,32,66,045,50,26,08,181,28,138,38,213,42*44
2017-12-29 14:49:05 1514576945.799244: $GPZDA,194906.00,29,12,2017,00,00*69
2017-12-29 14:49:05 1514576945.799364: $GPGGA,194906,3946.9594,N,08404.9762,W,2,12,0.80,302.35,M,-33.324,M,,*7F
2017-12-29 14:49:05 1514576945.799431: $GPRMC,194906,A,3946.9594,N,08404.9762,W,0.0000,0.000,291217,,*39
2017-12-29 14:49:05 1514576945.799494: $GPGSA,A,3,1,10,11,12,14,18,22,25,31,32,26,138,1.7,0.8,1.3*3B
2017-12-29 14:49:06 1514576946.350152: $GPZDA,194907.00,29,12,2017,00,00*68
2017-12-29 14:49:06 1514576946.350335: $GPGGA,194907,3946.9594,N,08404.9762,W,2,12,0.80,302.35,M,-33.324,M,,*7E
2017-12-29 14:49:06 1514576946.350423: $GPRMC,194907,A,3946.9594,N,08404.9762,W,0.0000,0.000,291217,,*38
2017-12-29 14:49:06 1514576946.350489: $GPGSA,A,3,1,10,11,12,14,18,22,25,31,32,26,138,1.7,0.8,1.3*3B
2017-12-29 14:49:07 1514576947.353530: $GPZDA,194908.00,29,12,2017,00,00*67
2017-12-29 14:49:07 1514576947.353756: $GPGGA,194908,3946.9594,N,08404.9762,W,2,12,0.80,302.35,M,-33.324,M,,*71
2017-12-29 14:49:07 1514576947.353825: $GPRMC,194908,A,3946.9594,N,08404.9762,W,0.0000,0.000,291217,,*37
2017-12-29 14:49:07 1514576947.353886: $GPGSA,A,3,1,10,11,12,14,18,22,25,31,32,26,138,1.7,0.8,1.3*3B
2017-12-29 14:49:08 1514576948.681521: $GPGSV,3,1,12,01,22,295,39,10,41,151,49,11,06,277,35,12,19,045,45*78
2017-12-29 14:49:08 1514576948.681681: $GPGSV,3,2,12,14,68,340,42,18,12,145,36,22,24,312,39,25,41,082,51*7E
2017-12-29 14:49:08 1514576948.681746: $GPGSV,3,3,12,31,64,231,46,32,66,045,50,26,08,181,28,138,38,213,44*42
2017-12-29 14:49:08 1514576948.795119: $GPZDA,194909.00,29,12,2017,00,00*66
2017-12-29 14:49:08 1514576948.795235: $GPGGA,194909,3946.9594,N,08404.9762,W,2,12,0.80,302.35,M,-33.324,M,,*70
2017-12-29 14:49:08 1514576948.795298: $GPRMC,194909,A,3946.9594,N,08404.9762,W,0.0000,0.000,291217,,*36
2017-12-29 14:49:08 1514576948.795358: $GPGSA,A,3,1,10,11,12,14,18,22,25,31,32,26,138,1.7,0.8,1.3*3B
2017-12-29 14:49:09 1514576949.349788: $GPZDA,194910.00,29,12,2017,00,00*6E
2017-12-29 14:49:09 1514576949.349961: $GPGGA,194910,3946.9594,N,08404.9762,W,2,12,0.80,302.35,M,-33.324,M,,*78
2017-12-29 14:49:09 1514576949.350027: $GPRMC,194910,A,3946.9594,N,08404.9762,W,0.0000,0.000,291217,,*3E
2017-12-29 14:49:09 1514576949.350088: $GPGSA,A,3,1,10,11,12,14,18,22,25,31,32,26,138,1.7,0.8,1.3*3B
