2017-12-01 11:49:33 1512146973.786924: {"class":"VERSION","release":"3.16","rev":"3.16-4","proto_major":3,"proto_minor":11}
2017-12-01 11:49:33 1512146973.787324: {"class":"DEVICES","devices":[{"class":"DEVICE","path":"/dev/ttyUSB0","driver":"SiRF","subtype":"9\u0006GSD4e_4.1.2-P1_RPATCH.05-F-GPS-4R-1510281 11/03/2015 307","activated":"2017-12-01T16:49:33.665Z","flags":1,"native":1,"bps":4800,"parity":"N","stopbits":1,"cycle":1.00}]}
2017-12-01 11:49:33 1512146973.787448: {"class":"WATCH","enable":true,"json":false,"nmea":true,"raw":0,"scaled":false,"timing":false,"split24":false,"pps":false}
2017-12-01 11:49:34 1512146974.349703: $GPZDA,164935.00,01,12,2017,00,00*6C
2017-12-01 11:49:34 1512146974.349898: $GPGGA,164935,3946.9587,N,08404.9849,W,2,11,0.80,293.02,M,-33.324,M,,*7A
2017-12-01 11:49:34 1512146974.349965: $GPRMC,164935,A,3946.9587,N,08404.9849,W,0.1567,189.200,011217,,*3F
2017-12-01 11:49:34 1512146974.350028: $GPGSA,A,3,13,15,18,20,21,24,27,29,10,5,138,,2.0,0.8,1.5*34
2017-12-01 11:49:35 1512146975.680325: $GPGSV,3,1,12,13,40,048,46,15,73,064,46,18,45,288,45,20,60,055,42*79
2017-12-01 11:49:35 1512146975.680499: $GPGSV,3,2,12,21,69,303,46,24,22,147,44,27,10,322,31,29,22,193,44*74
2017-12-01 11:49:35 1512146975.680568: $GPGSV,3,3,12,10,15,274,35,04,10,132,00,05,12,079,20,138,38,213,47*45
2017-12-01 11:49:35 1512146975.794019: $GPZDA,164936.00,01,12,2017,00,00*6F
2017-12-01 11:49:35 1512146975.794194: $GPGGA,164936,3946.9587,N,08404.9850,W,2,11,0.80,294.43,M,-33.324,M,,*73
2017-12-01 11:49:35 1512146975.794261: $GPRMC,164936,A,3946.9587,N,08404.9850,W,0.2422,93.794,011217,,*05
2017-12-01 11:49:35 1512146975.794323: $GPGSA,A,3,13,15,18,20,21,24,27,29,10,5,138,,2.0,0.8,1.5*34
2017-12-01 11:49:36 1512146976.344881: $GPZDA,164937.00,01,12,2017,00,00*6E
2017-12-01 11:49:36 1512146976.345054: $GPGGA,164937,3946.9587,N,08404.9850,W,2,11,0.80,294.43,M,-33.324,M,,*72
2017-12-01 11:49:36 1512146976.345121: $GPRMC,164937,A,3946.9587,N,08404.9850,W,0.0000,0.000,011217,,*32
2017-12-01 11:49:36 1512146976.345182: $GPGSA,A,3,13,15,18,20,21,24,27,29,10,5,138,,2.0,0.8,1.5*34
2017-12-01 11:49:37 1512146977.346998: $GPZDA,164938.00,01,12,2017,00,00*61
2017-12-01 11:49:37 1512146977.347174: $GPGGA,164938,3946.9587,N,08404.9850,W,2,11,0.80,294.43,M,-33.324,M,,*7D
2017-12-01 11:49:37 1512146977.347242: $GPRMC,164938,A,3946.9587,N,08404.9850,W,0.0000,0.000,011217,,*3D
2017-12-01 11:49:37 1512146977.347303: $GPGSA,A,3,13,15,18,20,21,24,27,29,10,5,138,,2.0,0.8,1.5*34
2017-12-01 11:49:38 1512146978.686018: $GPGSV,3,1,12,13,40,048,46,15,73,064,46,18,45,288,46,20,60,055,42*7A
2017-12-01 11:49:38 1512146978.686206: $GPGSV,3,2,12,21,69,303,46,24,22,147,44,27,10,322,31,29,22,193,44*74
2017-12-01 11:49:38 1512146978.686274: $GPGSV,3,3,12,10,15,274,35,04,10,132,00,05,12,079,22,138,38,213,46*46
2017-12-01 11:49:38 1512146978.799628: $GPZDA,164939.00,01,12,2017,00,00*60
2017-12-01 11:49:38 1512146978.799835: $GPGGA,164939,3946.9591,N,08404.9849,W,2,11,0.80,293.66,M,-33.324,M,,*73
2017-12-01 11:49:38 1512146978.799903: $GPRMC,164939,A,3946.9591,N,08404.9849,W,0.0000,0.000,011217,,*33
2017-12-01 11:49:38 1512146978.799965: $GPGSA,A,3,13,15,18,20,21,24,27,29,10,5,138,,2.0,0.8,1.5*34
2017-12-01 11:49:39 1512146979.425691: $GPZDA,164940.00,01,12,2017,00,00*6E
2017-12-01 11:49:39 1512146979.425988: $GPGGA,164940,3946.9591,N,08404.9849,W,2,11,0.80,293.66,M,-33.324,M,,*7D
2017-12-01 11:49:39 1512146979.426103: $GPRMC,164940,A,3946.9591,N,08404.9849,W,0.0000,0.000,011217,,*3D
2017-12-01 11:49:39 1512146979.426186: $GPGSA,A,3,13,15,18,20,21,24,27,29,10,5,138,,2.0,0.8,1.5*34
2017-12-01 11:49:40 1512146980.345650: $GPZDA,164941.00,01,12,2017,00,00*6F
2017-12-01 11:49:40 1512146980.345814: $GPGGA,164941,3946.9591,N,08404.9849,W,2,11,0.80,293.66,M,-33.324,M,,*7C
2017-12-01 11:49:40 1512146980.345881: $GPRMC,164941,A,3946.9591,N,08404.9849,W,0.0000,0.000,011217,,*3C
2017-12-01 11:49:40 1512146980.345941: $GPGSA,A,3,13,15,18,20,21,24,27,29,10,5,138,,2.0,0.8,1.5*34
2017-12-01 11:49:41 1512146981.683927: $GPGSV,3,1,12,13,40,048,46,15,73,064,46,18,45,288,46,20,60,055,42*7A
2017-12-01 11:49:41 1512146981.684194: $GPGSV,3,2,12,21,69,303,46,24,22,147,44,27,10,322,33,29,22,193,44*76
2017-12-01 11:49:41 1512146981.684267: $GPGSV,3,3,12,10,15,274,37,04,10,132,00,05,12,079,27,138,38,213,47*40
2017-12-01 11:49:41 1512146981.797264: $GPZDA,164942.00,01,12,2017,00,00*6C
2017-12-01 11:49:41 1512146981.797434: $GPGGA,164942,3946.9591,N,08404.9849,W,2,11,0.80,293.66,M,-33.324,M,,*7F
2017-12-01 11:49:41 1512146981.797501: $GPRMC,164942,A,3946.9591,N,08404.9849,W,0.0000,0.000,011217,,*3F
2017-12-01 11:49:41 1512146981.797562: $GPGSA,A,3,13,15,18,20,21,24,27,29,10,5,138,,2.0,0.8,1.5*34
2017-12-01 11:49:42 1512146982.350624: $GPZDA,164943.00,01,12,2017,00,00*6D
2017-12-01 11:49:42 1512146982.350799: $GPGGA,164943,3946.9591,N,08404.9849,W,2,11,0.80,293.66,M,-33.324,M,,*7E
2017-12-01 11:49:42 1512146982.350867: $GPRMC,164943,A,3946.9591,N,08404.9849,W,0.0000,0.000,011217,,*3E
2017-12-01 11:49:42 1512146982.350928: $GPGSA,A,3,13,15,18,20,21,24,27,29,10,5,138,,2.0,0.8,1.5*34
2017-12-01 11:49:43 1512146983.350251: $GPZDA,164944.00,01,12,2017,00,00*6A
2017-12-01 11:49:43 1512146983.350425: $GPGGA,164944,3946.9591,N,08404.9849,W,2,11,0.80,293.66,M,-33.324,M,,*79
2017-12-01 11:49:43 1512146983.350492: $GPRMC,164944,A,3946.9591,N,08404.9849,W,0.0000,0.000,011217,,*39
2017-12-01 11:49:43 1512146983.350553: $GPGSA,A,3,13,15,18,20,21,24,27,29,10,5,138,,2.0,0.8,1.5*34
