2017-12-31 18:12:36 1514761956.729654: {"class":"VERSION","release":"3.16","rev":"3.16-4","proto_major":3,"proto_minor":11}
2017-12-31 18:12:36 1514761956.729997: {"class":"DEVICES","devices":[{"class":"DEVICE","path":"/dev/ttyUSB0","driver":"SiRF","activated":"2017-12-31T23:12:36.706Z","flags":1,"native":1,"bps":4800,"parity":"N","stopbits":1,"cycle":1.00}]}
2017-12-31 18:12:36 1514761956.730121: {"class":"WATCH","enable":true,"json":false,"nmea":true,"raw":0,"scaled":false,"timing":false,"split24":false,"pps":false}
2017-12-31 18:12:36 1514761956.819404: $GPZDA,231237.00,31,12,2017,00,00*65
2017-12-31 18:12:36 1514761956.819553: $GPGGA,231237,3946.9557,N,08404.9867,W,2,12,0.80,309.01,M,-33.324,M,,*73
2017-12-31 18:12:36 1514761956.819617: $GPRMC,231237,A,3946.9557,N,08404.9867,W,0.0000,0.000,311217,,*30
2017-12-31 18:12:36 1514761956.819677: $GPGSA,A,3,22,23,9,3,16,29,14,31,27,8,26,135,1.7,0.8,1.3*30
2017-12-31 18:12:37 1514761957.349254: $GPZDA,231238.00,31,12,2017,00,00*6A
2017-12-31 18:12:37 1514761957.349421: $GPGGA,231238,3946.9557,N,08404.9867,W,2,12,0.80,309.01,M,-33.324,M,,*7C
2017-12-31 18:12:37 1514761957.349487: $GPRMC,231238,A,3946.9557,N,08404.9867,W,0.0000,0.000,311217,,*3F
2017-12-31 18:12:37 1514761957.349547: $GPGSA,A,3,22,23,9,3,16,29,14,31,27,8,26,135,1.7,0.8,1.3*30
2017-12-31 18:12:38 1514761958.349678: $GPZDA,231239.00,31,12,2017,00,00*6B
2017-12-31 18:12:38 1514761958.349838: $GPGGA,231239,3946.9557,N,08404.9874,W,2,12,0.80,308.93,M,-33.324,M,,*75
2017-12-31 18:12:38 1514761958.349904: $GPRMC,231239,A,3946.9557,N,08404.9874,W,0.0000,0.000,311217,,*3C
2017-12-31 18:12:38 1514761958.349965: $GPGSA,A,3,22,23,9,3,16,29,14,31,27,8,26,135,1.7,0.8,1.3*30
2017-12-31 18:12:39 1514761959.684158: $GPGSV,3,1,12,22,21,213,35,23,55,306,45,09,21,312,43,03,31,234,43*76
2017-12-31 18:12:39 1514761959.684343: $GPGSV,3,2,12,16,82,187,44,29,05,030,34,14,14,133,36,31,28,076,46*7D
2017-12-31 18:12:39 1514761959.684409: $GPGSV,3,3,12,27,23,153,26,08,01,180,23,26,61,049,49,135,22,240,44*4E
2017-12-31 18:12:39 1514761959.797831: $GPZDA,231240.00,31,12,2017,00,00*65
2017-12-31 18:12:39 1514761959.798014: $GPGGA,231240,3946.9557,N,08404.9874,W,2,12,0.80,308.93,M,-33.324,M,,*7B
2017-12-31 18:12:39 1514761959.798100: $GPRMC,231240,A,3946.9557,N,08404.9874,W,0.0000,0.000,311217,,*32
2017-12-31 18:12:39 1514761959.798162: $GPGSA,A,3,22,23,9,3,16,29,14,31,27,8,26,135,1.7,0.8,1.3*30
2017-12-31 18:12:40 1514761960.424158: $GPZDA,231241.00,31,12,2017,00,00*64
2017-12-31 18:12:40 1514761960.424351: $GPGGA,231241,3946.9557,N,08404.9874,W,2,12,0.80,308.93,M,-33.324,M,,*7A
2017-12-31 18:12:40 1514761960.424417: $GPRMC,231241,A,3946.9557,N,08404.9874,W,0.0000,0.000,311217,,*33
2017-12-31 18:12:40 1514761960.424478: $GPGSA,A,3,22,23,9,3,16,29,14,31,27,8,26,135,1.7,0.8,1.3*30
2017-12-31 18:12:41 1514761961.348758: $GPZDA,231242.00,31,12,2017,00,00*67
2017-12-31 18:12:41 1514761961.348931: $GPGGA,231242,3946.9557,N,08404.9874,W,2,12,0.80,308.93,M,-33.324,M,,*79
2017-12-31 18:12:41 1514761961.348999: $GPRMC,231242,A,3946.9557,N,08404.9874,W,0.0000,0.000,311217,,*30
2017-12-31 18:12:41 1514761961.349085: $GPGSA,A,3,22,23,9,3,16,29,14,31,27,8,26,135,1.7,0.8,1.3*30
2017-12-31 18:12:42 1514761962.684517: $GPGSV,3,1,12,22,21,213,35,23,55,306,45,09,21,312,44,03,31,234,43*71
2017-12-31 18:12:42 1514761962.684685: $GPGSV,3,2,12,16,82,187,44,29,05,030,35,14,14,133,36,31,28,076,45*7F
2017-12-31 18:12:42 1514761962.684751: $GPGSV,3,3,12,27,23,153,34,08,01,180,23,26,61,049,48,135,22,240,44*4C
2017-12-31 18:12:42 1514761962.797910: $GPZDA,231243.00,31,12,2017,00,00*66
2017-12-31 18:12:42 1514761962.798106: $GPGGA,231243,3946.9557,N,08404.9874,W,2,12,0.80,308.93,M,-33.324,M,,*78
2017-12-31 18:12:42 1514761962.798192: $GPRMC,231243,A,3946.9557,N,08404.9874,W,0.0000,0.000,311217,,*31
2017-12-31 18:12:42 1514761962.798255: $GPGSA,A,3,22,23,9,3,16,29,14,31,27,8,26,135,1.7,0.8,1.3*30
2017-12-31 18:12:43 1514761963.349983: $GPZDA,231244.00,31,12,2017,00,00*61
2017-12-31 18:12:43 1514761963.352697: $GPGGA,231244,3946.9557,N,08404.9874,W,2,12,0.80,308.93,M,-33.324,M,,*7F
2017-12-31 18:12:43 1514761963.352843: $GPRMC,231244,A,3946.9557,N,08404.9874,W,0.0000,0.000,311217,,*36
2017-12-31 18:12:43 1514761963.352924: $GPGSA,A,3,22,23,9,3,16,29,14,31,27,8,26,135,1.7,0.8,1.3*30
2017-12-31 18:12:44 1514761964.369605: $GPZDA,231245.00,31,12,2017,00,00*60
2017-12-31 18:12:44 1514761964.369776: $GPGGA,231245,3946.9557,N,08404.9874,W,2,12,0.80,308.93,M,-33.324,M,,*7E
2017-12-31 18:12:44 1514761964.369842: $GPRMC,231245,A,3946.9557,N,08404.9874,W,0.0000,0.000,311217,,*37
2017-12-31 18:12:44 1514761964.369904: $GPGSA,A,3,22,23,9,3,16,29,14,31,27,8,26,135,1.7,0.8,1.3*30
2017-12-31 18:12:45 1514761965.712394: $GPGSV,3,1,12,22,21,213,34,23,55,306,45,09,21,312,44,03,31,234,43*70
2017-12-31 18:12:45 1514761965.712565: $GPGSV,3,2,12,16,82,187,44,29,05,030,36,14,14,133,36,31,28,076,46*7F
2017-12-31 18:12:45 1514761965.712630: $GPGSV,3,3,12,27,23,153,34,08,01,180,23,26,61,049,48,135,22,240,45*4D
2017-12-31 18:12:45 1514761965.825972: $GPZDA,231246.00,31,12,2017,00,00*63
2017-12-31 18:12:45 1514761965.826177: $GPGGA,231246,3946.9557,N,08404.9874,W,2,12,0.80,308.93,M,-33.324,M,,*7D
2017-12-31 18:12:45 1514761965.826245: $GPRMC,231246,A,3946.9557,N,08404.9874,W,0.0000,0.000,311217,,*34
2017-12-31 18:12:45 1514761965.826305: $GPGSA,A,3,22,23,9,3,16,29,14,31,27,8,26,135,1.7,0.8,1.3*30
2017-12-31 18:12:46 1514761966.349310: $GPZDA,231247.00,31,12,2017,00,00*62
2017-12-31 18:12:46 1514761966.349452: $GPGGA,231247,3946.9557,N,08404.9874,W,2,12,0.80,308.93,M,-33.324,M,,*7C
2017-12-31 18:12:46 1514761966.349517: $GPRMC,231247,A,3946.9557,N,08404.9874,W,0.0000,0.000,311217,,*35
2017-12-31 18:12:46 1514761966.349578: $GPGSA,A,3,22,23,9,3,16,29,14,31,27,8,26,135,1.7,0.8,1.3*30
