2017-11-15 19:38:43 1510792723.144329: {"class":"VERSION","release":"3.17","rev":"3.17","proto_major":3,"proto_minor":12}
2017-11-15 19:38:43 1510792723.144801: {"class":"DEVICES","devices":[{"class":"DEVICE","path":"/dev/ttyUSB0","driver":"SiRF","subtype":"9\u0006GSD4e_4.1.2-P1_RPATCH.05-F-GPS-4R-1510281 11/03/2015 307","activated":"2017-11-16T00:38:42.920Z","flags":1,"native":1,"bps":4800,"parity":"N","stopbits":1,"cycle":1.00}]}
2017-11-15 19:38:43 1510792723.144924: {"class":"WATCH","enable":true,"json":false,"nmea":true,"raw":0,"scaled":false,"timing":false,"split24":false,"pps":false}
2017-11-15 19:38:43 1510792723.329081: $GPZDA,003842.00,16,11,2017,00,00*68
2017-11-15 19:38:43 1510792723.329237: $GPGGA,003842,3946.9551,N,08404.9572,W,1,05,1.60,283.72,M,-33.324,M,,*7A
2017-11-15 19:38:43 1510792723.329298: $GPRMC,003842,A,3946.9551,N,08404.9572,W,0.7278,23.636,161117,,*0A
2017-11-15 19:38:43 1510792723.329354: $GPGSA,A,3,32,22,26,31,3,,,,,,,,3.4,1.6,2.9*0D
2017-11-15 19:38:44 1510792724.329994: $GPZDA,003843.00,16,11,2017,00,00*69
2017-11-15 19:38:44 1510792724.330159: $GPGGA,003843,3946.9552,N,08404.9579,W,1,05,1.60,283.64,M,-33.324,M,,*74
2017-11-15 19:38:44 1510792724.330220: $GPRMC,003843,A,3946.9552,N,08404.9579,W,1.0534,350.904,161117,,*33
2017-11-15 19:38:44 1510792724.330277: $GPGSA,A,3,32,22,26,31,3,,,,,,,,3.4,1.6,2.9*0D
2017-11-15 19:38:45 1510792725.664425: $GPGSV,3,1,12,32,32,111,26,01,03,249,04,22,50,264,15,26,58,171,17*7D
2017-11-15 19:38:45 1510792725.664610: $GPGSV,3,2,12,14,52,097,00,31,64,031,26,03,42,294,17,16,27,190,00*77
2017-11-15 19:38:45 1510792725.664671: $GPGSV,3,3,12,23,14,303,00,25,13,039,00,29,12,067,00,135,23,238,00*47
2017-11-15 19:38:45 1510792725.778172: $GPZDA,003844.00,16,11,2017,00,00*6E
2017-11-15 19:38:45 1510792725.778345: $GPGGA,003844,3946.9556,N,08404.9579,W,1,05,1.60,284.28,M,-33.324,M,,*78
2017-11-15 19:38:45 1510792725.778405: $GPRMC,003844,A,3946.9556,N,08404.9579,W,1.3921,14.217,161117,,*01
2017-11-15 19:38:45 1510792725.778461: $GPGSA,A,3,32,22,26,31,3,,,,,,,,3.4,1.6,2.9*0D
2017-11-15 19:38:46 1510792726.404812: $GPZDA,003845.00,16,11,2017,00,00*6F
2017-11-15 19:38:46 1510792726.404973: $GPGGA,003845,3946.9559,N,08404.9571,W,1,05,1.80,283.60,M,-33.324,M,,*7B
2017-11-15 19:38:46 1510792726.405033: $GPRMC,003845,A,3946.9559,N,08404.9571,W,1.1385,29.379,161117,,*06
2017-11-15 19:38:46 1510792726.405089: $GPGSA,A,3,32,22,26,31,3,,,,,,,,3.4,1.8,2.9*03
2017-11-15 19:38:47 1510792727.344332: $GPZDA,003846.00,16,11,2017,00,00*6C
2017-11-15 19:38:47 1510792727.344490: $GPGGA,003846,3946.9559,N,08404.9571,W,1,05,1.80,283.60,M,-33.324,M,,*78
2017-11-15 19:38:47 1510792727.344550: $GPRMC,003846,A,3946.9559,N,08404.9571,W,1.1902,58.684,161117,,*01
2017-11-15 19:38:47 1510792727.344606: $GPGSA,A,3,32,22,26,31,3,,,,,,,,3.4,1.8,2.9*03
2017-11-15 19:38:48 1510792728.679991: $GPGSV,3,1,12,32,32,111,25,01,03,249,04,22,50,264,08,26,58,171,17*72
2017-11-15 19:38:48 1510792728.680212: $GPGSV,3,2,12,14,52,097,00,31,64,031,26,03,42,294,17,16,27,190,00*77
2017-11-15 19:38:48 1510792728.680292: $GPGSV,3,3,12,23,14,303,00,25,13,039,00,29,12,067,00,135,23,238,00*47
2017-11-15 19:38:48 1510792728.793104: $GPZDA,003847.00,16,11,2017,00,00*6D
2017-11-15 19:38:48 1510792728.793259: $GPGGA,003847,3946.9563,N,08404.9571,W,1,05,1.80,284.24,M,-33.324,M,,*77
2017-11-15 19:38:48 1510792728.793319: $GPRMC,003847,A,3946.9563,N,08404.9571,W,1.2621,39.347,161117,,*09
2017-11-15 19:38:48 1510792728.793374: $GPGSA,A,3,32,22,26,31,3,,,,,,,,3.4,1.8,2.9*03
2017-11-15 19:38:49 1510792729.345343: $GPZDA,003848.00,16,11,2017,00,00*62
2017-11-15 19:38:49 1510792729.345722: $GPGGA,003848,3946.9566,N,08404.9564,W,1,05,1.80,283.55,M,-33.324,M,,*78
2017-11-15 19:38:49 1510792729.351753: $GPRMC,003848,A,3946.9566,N,08404.9564,W,1.5933,53.668,161117,,*08
2017-11-15 19:38:49 1510792729.351840: $GPGSA,A,3,32,22,26,31,3,,,,,,,,3.4,1.8,2.9*03
2017-11-15 19:38:50 1510792730.344841: $GPZDA,003849.00,16,11,2017,00,00*63
2017-11-15 19:38:50 1510792730.345001: $GPGGA,003849,3946.9570,N,08404.9564,W,1,05,1.80,284.19,M,-33.324,M,,*71
2017-11-15 19:38:50 1510792730.345129: $GPRMC,003849,A,3946.9570,N,08404.9564,W,1.8343,45.514,161117,,*01
2017-11-15 19:38:50 1510792730.345187: $GPGSA,A,3,32,22,26,31,3,,,,,,,,3.4,1.8,2.9*03
2017-11-15 19:38:51 1510792731.684005: $GPGSV,3,1,12,32,32,111,25,01,03,249,04,22,50,264,07,26,58,171,16*7C
2017-11-15 19:38:51 1510792731.684195: $GPGSV,3,2,12,16,27,190,02,31,64,031,26,03,42,294,17,14,52,097,00*75
2017-11-15 19:38:51 1510792731.684256: $GPGSV,3,3,12,23,14,303,00,25,13,039,00,29,12,067,00,135,23,238,00*47
2017-11-15 19:38:51 1510792731.797318: $GPZDA,003850.00,16,11,2017,00,00*6B
2017-11-15 19:38:51 1510792731.797490: $GPGGA,003850,3946.9570,N,08404.9557,W,1,05,1.80,284.27,M,-33.324,M,,*74
2017-11-15 19:38:51 1510792731.797550: $GPRMC,003850,A,3946.9570,N,08404.9557,W,1.1385,29.379,161117,,*0D
2017-11-15 19:38:51 1510792731.797605: $GPGSA,A,3,32,22,26,31,3,,,,,,,,3.4,1.8,2.9*03
2017-11-15 19:38:52 1510792732.328552: $GPZDA,003851.00,16,11,2017,00,00*6A
2017-11-15 19:38:52 1510792732.328760: $GPGGA,003851,3946.9570,N,08404.9557,W,1,05,1.80,284.27,M,-33.324,M,,*75
2017-11-15 19:38:52 1510792732.328824: $GPRMC,003851,A,3946.9570,N,08404.9557,W,1.2621,39.347,161117,,*08
2017-11-15 19:38:52 1510792732.328892: $GPGSA,A,3,32,22,26,31,3,,,,,,,,3.4,1.8,2.9*03
