2017-11-16 15:25:19 1510863919.325794: {"class":"VERSION","release":"3.17","rev":"3.17","proto_major":3,"proto_minor":12}
2017-11-16 15:25:19 1510863919.326815: {"class":"DEVICES","devices":[{"class":"DEVICE","path":"/dev/ttyUSB0","driver":"SiRF","subtype":"9\u0006GSD4e_4.1.2-P1_RPATCH.05-F-GPS-4R-1510281 11/03/2015 307","activated":"2017-11-16T20:25:19.258Z","flags":1,"native":1,"bps":4800,"parity":"N","stopbits":1,"cycle":1.00}]}
2017-11-16 15:25:19 1510863919.326934: {"class":"WATCH","enable":true,"json":false,"nmea":true,"raw":0,"scaled":false,"timing":false,"split24":false,"pps":false}
2017-11-16 15:25:19 1510863919.706626: $GPGSV,3,1,12,08,06,292,28,10,69,331,51,14,29,253,46,15,11,066,32*73
2017-11-16 15:25:19 1510863919.706834: $GPGSV,3,2,12,18,71,094,47,20,08,118,22,21,29,180,42,24,45,058,51*71
2017-11-16 15:25:19 1510863919.706915: $GPGSV,3,3,12,27,06,259,26,32,46,265,48,12,09,106,33,138,38,213,44*41
2017-11-16 15:25:19 1510863919.820166: $GPZDA,202518.00,16,11,2017,00,00*69
2017-11-16 15:25:19 1510863919.820374: $GPGGA,202518,3946.9572,N,08404.9866,W,2,12,0.80,308.76,M,-33.324,M,,*7E
2017-11-16 15:25:19 1510863919.820442: $GPRMC,202518,A,3946.9572,N,08404.9866,W,0.0000,0.000,161117,,*3A
2017-11-16 15:25:19 1510863919.820497: $GPGSA,A,3,8,10,14,15,18,20,21,24,27,32,12,138,1.6,0.8,1.3*34
2017-11-16 15:25:20 1510863920.369440: $GPZDA,202519.00,16,11,2017,00,00*68
2017-11-16 15:25:20 1510863920.369600: $GPGGA,202519,3946.9572,N,08404.9866,W,2,12,0.80,308.76,M,-33.324,M,,*7F
2017-11-16 15:25:20 1510863920.369660: $GPRMC,202519,A,3946.9572,N,08404.9866,W,0.0000,0.000,161117,,*3B
2017-11-16 15:25:20 1510863920.369718: $GPGSA,A,3,8,10,14,15,18,20,21,24,27,32,12,138,1.6,0.8,1.3*34
2017-11-16 15:25:21 1510863921.363824: $GPZDA,202520.00,16,11,2017,00,00*62
2017-11-16 15:25:21 1510863921.363987: $GPGGA,202520,3946.9572,N,08404.9866,W,2,12,0.80,308.76,M,-33.324,M,,*75
2017-11-16 15:25:21 1510863921.364049: $GPRMC,202520,A,3946.9572,N,08404.9866,W,0.0000,0.000,161117,,*31
2017-11-16 15:25:21 1510863921.364108: $GPGSA,A,3,8,10,14,15,18,20,21,24,27,32,12,138,1.6,0.8,1.3*34
2017-11-16 15:25:22 1510863922.706909: $GPGSV,3,1,12,08,06,292,28,10,69,331,51,14,29,253,46,15,11,066,32*73
2017-11-16 15:25:22 1510863922.707083: $GPGSV,3,2,12,18,71,094,47,20,08,118,21,21,29,180,42,24,45,058,51*72
2017-11-16 15:25:22 1510863922.707147: $GPGSV,3,3,12,27,06,259,27,32,46,265,49,12,09,106,34,138,38,213,45*47
2017-11-16 15:25:22 1510863922.820162: $GPZDA,202521.00,16,11,2017,00,00*63
2017-11-16 15:25:22 1510863922.820376: $GPGGA,202521,3946.9572,N,08404.9866,W,2,12,0.80,308.76,M,-33.324,M,,*74
2017-11-16 15:25:22 1510863922.820447: $GPRMC,202521,A,3946.9572,N,08404.9866,W,0.0000,0.000,161117,,*30
2017-11-16 15:25:22 1510863922.820506: $GPGSA,A,3,8,10,14,15,18,20,21,24,27,32,12,138,1.6,0.8,1.3*34
2017-11-16 15:25:23 1510863923.368880: $GPZDA,202522.00,16,11,2017,00,00*60
2017-11-16 15:25:23 1510863923.369047: $GPGGA,202522,3946.9572,N,08404.9866,W,2,12,0.80,308.76,M,-33.324,M,,*77
2017-11-16 15:25:23 1510863923.369110: $GPRMC,202522,A,3946.9572,N,08404.9866,W,0.0000,0.000,161117,,*33
2017-11-16 15:25:23 1510863923.369168: $GPGSA,A,3,8,10,14,15,18,20,21,24,27,32,12,138,1.6,0.8,1.3*34
2017-11-16 15:25:24 1510863924.386054: $GPZDA,202523.00,16,11,2017,00,00*61
2017-11-16 15:25:24 1510863924.386237: $GPGGA,202523,3946.9572,N,08404.9866,W,2,12,0.80,308.76,M,-33.324,M,,*76
2017-11-16 15:25:24 1510863924.386302: $GPRMC,202523,A,3946.9572,N,08404.9866,W,0.0000,0.000,161117,,*32
2017-11-16 15:25:24 1510863924.386363: $GPGSA,A,3,8,10,14,15,18,20,21,24,27,32,12,138,1.6,0.8,1.3*34
2017-11-16 15:25:25 1510863925.722681: $GPGSV,3,1,12,08,06,292,30,10,69,331,51,14,29,253,46,15,11,066,32*7A
2017-11-16 15:25:25 1510863925.722849: $GPGSV,3,2,12,18,71,094,47,20,08,118,21,21,29,180,42,24,45,058,51*72
2017-11-16 15:25:25 1510863925.722913: $GPGSV,3,3,12,27,06,259,27,32,46,265,48,12,09,106,34,138,38,213,44*47
2017-11-16 15:25:25 1510863925.836003: $GPZDA,202524.00,16,11,2017,00,00*66
2017-11-16 15:25:25 1510863925.836189: $GPGGA,202524,3946.9572,N,08404.9866,W,2,12,0.80,308.76,M,-33.324,M,,*71
2017-11-16 15:25:25 1510863925.836312: $GPRMC,202524,A,3946.9572,N,08404.9866,W,0.0000,0.000,161117,,*35
2017-11-16 15:25:25 1510863925.836371: $GPGSA,A,3,8,10,14,15,18,20,21,24,27,32,12,138,1.6,0.8,1.3*34
2017-11-16 15:25:26 1510863926.461474: $GPZDA,202525.00,16,11,2017,00,00*67
2017-11-16 15:25:26 1510863926.461643: $GPGGA,202525,3946.9572,N,08404.9866,W,2,12,0.80,308.76,M,-33.324,M,,*70
2017-11-16 15:25:26 1510863926.461706: $GPRMC,202525,A,3946.9572,N,08404.9866,W,0.0000,0.000,161117,,*34
2017-11-16 15:25:26 1510863926.461779: $GPGSA,A,3,8,10,14,15,18,20,21,24,27,32,12,138,1.6,0.8,1.3*34
2017-11-16 15:25:27 1510863927.386055: $GPZDA,202526.00,16,11,2017,00,00*64
2017-11-16 15:25:27 1510863927.386200: $GPGGA,202526,3946.9572,N,08404.9866,W,2,12,0.80,308.76,M,-33.324,M,,*73
2017-11-16 15:25:27 1510863927.386262: $GPRMC,202526,A,3946.9572,N,08404.9866,W,0.0000,0.000,161117,,*37
2017-11-16 15:25:27 1510863927.386319: $GPGSA,A,3,8,10,14,15,18,20,21,24,27,32,12,138,1.6,0.8,1.3*34
2017-11-16 15:25:28 1510863928.723130: $GPGSV,3,1,12,08,06,292,30,10,69,331,51,14,29,253,46,15,11,066,32*7A
2017-11-16 15:25:28 1510863928.723297: $GPGSV,3,2,12,18,71,094,47,20,08,118,20,21,29,180,42,24,45,058,51*73
2017-11-16 15:25:28 1510863928.723358: $GPGSV,3,3,12,27,06,259,27,32,46,265,48,12,09,106,34,138,38,213,44*47
2017-11-16 15:25:28 1510863928.835413: $GPZDA,202527.00,16,11,2017,00,00*65
2017-11-16 15:25:28 1510863928.835566: $GPGGA,202527,3946.9572,N,08404.9866,W,2,12,0.80,308.76,M,-33.324,M,,*72
2017-11-16 15:25:28 1510863928.835626: $GPRMC,202527,A,3946.9572,N,08404.9866,W,0.0000,0.000,161117,,*36
2017-11-16 15:25:28 1510863928.835681: $GPGSA,A,3,8,10,14,15,18,20,21,24,27,32,12,138,1.6,0.8,1.3*34
