2017-11-15 19:47:25 1510793245.952769: {"class":"VERSION","release":"3.17","rev":"3.17","proto_major":3,"proto_minor":12}
2017-11-15 19:47:25 1510793245.953261: {"class":"DEVICES","devices":[{"class":"DEVICE","path":"/dev/ttyUSB0","driver":"SiRF","subtype":"9\u0006GSD4e_4.1.2-P1_RPATCH.05-F-GPS-4R-1510281 11/03/2015 307","activated":"2017-11-16T00:47:25.661Z","flags":1,"native":1,"bps":4800,"parity":"N","stopbits":1,"cycle":1.00}]}
2017-11-15 19:47:25 1510793245.953371: {"class":"WATCH","enable":true,"json":false,"nmea":true,"raw":0,"scaled":false,"timing":false,"split24":false,"pps":false}
2017-11-15 19:47:26 1510793246.329131: $GPZDA,004725.00,16,11,2017,00,00*61
2017-11-15 19:47:26 1510793246.329306: $GPGGA,004725,3946.9691,N,08404.9358,W,1,05,1.20,351.19,M,-33.324,M,,*75
2017-11-15 19:47:26 1510793246.329368: $GPRMC,004725,A,3946.9691,N,08404.9358,W,0.4179,148.779,161117,,*35
2017-11-15 19:47:26 1510793246.329424: $GPGSA,A,3,32,16,26,14,3,,,,,,,,3.4,1.2,2.9*09
2017-11-15 19:47:27 1510793247.664637: $GPGSV,3,1,11,32,30,114,23,16,30,190,22,22,50,259,04,26,61,169,21*71
2017-11-15 19:47:27 1510793247.664824: $GPGSV,3,2,11,14,49,102,20,31,62,034,14,29,12,064,00,23,16,303,08*71
2017-11-15 19:47:27 1510793247.664887: $GPGSV,3,3,11,03,43,291,19,25,11,039,00,01,01,247,00*43
2017-11-15 19:47:27 1510793247.778271: $GPZDA,004726.00,16,11,2017,00,00*62
2017-11-15 19:47:27 1510793247.778424: $GPGGA,004726,3946.9686,N,08404.9358,W,1,07,1.20,350.55,M,-33.324,M,,*7B
2017-11-15 19:47:27 1510793247.778484: $GPRMC,004726,A,3946.9686,N,08404.9358,W,0.3423,184.197,161117,,*3B
2017-11-15 19:47:27 1510793247.778540: $GPGSA,A,3,32,16,26,14,31,23,3,,,,,,3.4,1.2,2.9*0A
2017-11-15 19:47:28 1510793248.345388: $GPZDA,004727.00,16,11,2017,00,00*63
2017-11-15 19:47:28 1510793248.345618: $GPGGA,004727,3946.9686,N,08404.9358,W,1,07,1.20,350.55,M,-33.324,M,,*7A
2017-11-15 19:47:28 1510793248.345683: $GPRMC,004727,A,3946.9686,N,08404.9358,W,0.4207,39.347,161117,,*05
2017-11-15 19:47:28 1510793248.345739: $GPGSA,A,3,32,16,26,14,31,23,3,,,,,,3.4,1.2,2.9*0A
2017-11-15 19:47:29 1510793249.329936: $GPZDA,004728.00,16,11,2017,00,00*6C
2017-11-15 19:47:29 1510793249.330093: $GPGGA,004728,3946.9686,N,08404.9358,W,1,07,1.20,350.55,M,-33.324,M,,*75
2017-11-15 19:47:29 1510793249.330154: $GPRMC,004728,A,3946.9686,N,08404.9358,W,0.4207,39.347,161117,,*0A
2017-11-15 19:47:29 1510793249.330209: $GPGSA,A,3,32,16,26,14,31,23,3,,,,,,3.4,1.2,2.9*0A
2017-11-15 19:47:30 1510793250.681679: $GPGSV,3,1,11,32,30,114,23,16,30,190,22,22,50,259,04,26,61,169,21*71
2017-11-15 19:47:30 1510793250.681817: $GPGSV,3,2,11,14,49,102,20,31,62,034,16,29,12,064,00,23,16,303,08*73
2017-11-15 19:47:30 1510793250.681876: $GPGSV,3,3,11,03,43,291,19,25,11,039,00,01,01,247,00*43
2017-11-15 19:47:30 1510793250.795294: $GPZDA,004729.00,16,11,2017,00,00*6D
2017-11-15 19:47:30 1510793250.795451: $GPGGA,004729,3946.9686,N,08404.9358,W,1,06,1.20,350.55,M,-33.324,M,,*75
2017-11-15 19:47:30 1510793250.795510: $GPRMC,004729,A,3946.9686,N,08404.9358,W,0.2422,273.795,161117,,*3B
2017-11-15 19:47:30 1510793250.795566: $GPGSA,A,3,32,16,26,14,23,3,,,,,,,3.4,1.2,2.9*08
2017-11-15 19:47:31 1510793251.420663: $GPZDA,004730.00,16,11,2017,00,00*65
2017-11-15 19:47:31 1510793251.420822: $GPGGA,004730,3946.9686,N,08404.9358,W,1,06,1.20,350.55,M,-33.324,M,,*7D
2017-11-15 19:47:31 1510793251.420883: $GPRMC,004730,A,3946.9686,N,08404.9358,W,0.4179,328.779,161117,,*33
2017-11-15 19:47:31 1510793251.420939: $GPGSA,A,3,32,16,26,14,23,3,,,,,,,3.4,1.2,2.9*08
2017-11-15 19:47:32 1510793252.345351: $GPZDA,004731.00,16,11,2017,00,00*64
2017-11-15 19:47:32 1510793252.345512: $GPGGA,004731,3946.9686,N,08404.9358,W,1,06,1.20,350.55,M,-33.324,M,,*7C
2017-11-15 19:47:32 1510793252.345572: $GPRMC,004731,A,3946.9686,N,08404.9358,W,0.2422,273.795,161117,,*32
2017-11-15 19:47:32 1510793252.345628: $GPGSA,A,3,32,16,26,14,23,3,,,,,,,3.4,1.2,2.9*08
2017-11-15 19:47:33 1510793253.663302: $GPGSV,3,1,11,32,30,114,23,16,30,190,23,31,62,034,00,26,61,169,21*7E
2017-11-15 19:47:33 1510793253.663475: $GPGSV,3,2,11,14,49,102,20,22,50,259,00,29,12,064,12,23,16,303,11*75
2017-11-15 19:47:33 1510793253.663586: $GPGSV,3,3,11,03,43,291,19,25,11,039,00,01,01,247,00*43
2017-11-15 19:47:33 1510793253.776941: $GPZDA,004732.00,16,11,2017,00,00*67
2017-11-15 19:47:33 1510793253.777092: $GPGGA,004732,3946.9679,N,08404.9366,W,1,06,1.20,350.59,M,-33.324,M,,*7E
2017-11-15 19:47:33 1510793253.777152: $GPRMC,004732,A,3946.9679,N,08404.9366,W,0.7278,203.637,161117,,*3E
2017-11-15 19:47:33 1510793253.777208: $GPGSA,A,3,32,16,26,14,23,3,,,,,,,3.4,1.2,2.9*08
2017-11-15 19:47:34 1510793254.343827: $GPZDA,004733.00,16,11,2017,00,00*66
2017-11-15 19:47:34 1510793254.343995: $GPGGA,004733,3946.9679,N,08404.9366,W,1,06,1.20,350.59,M,-33.324,M,,*7F
2017-11-15 19:47:34 1510793254.344076: $GPRMC,004733,A,3946.9679,N,08404.9366,W,0.8709,183.298,161117,,*39
2017-11-15 19:47:34 1510793254.344133: $GPGSA,A,3,32,16,26,14,23,3,,,,,,,3.4,1.2,2.9*08
2017-11-15 19:47:35 1510793255.345975: $GPZDA,004734.00,16,11,2017,00,00*61
2017-11-15 19:47:35 1510793255.346148: $GPGGA,004734,3946.9679,N,08404.9366,W,1,06,1.20,350.59,M,-33.324,M,,*78
2017-11-15 19:47:35 1510793255.346211: $GPRMC,004734,A,3946.9679,N,08404.9366,W,0.5287,182.716,161117,,*32
2017-11-15 19:47:35 1510793255.346267: $GPGSA,A,3,32,16,26,14,23,3,,,,,,,3.4,1.2,2.9*08
