2017-12-01 11:59:53 1512147593.716707: {"class":"VERSION","release":"3.16","rev":"3.16-4","proto_major":3,"proto_minor":11}
2017-12-01 11:59:53 1512147593.717127: {"class":"DEVICES","devices":[{"class":"DEVICE","path":"/dev/ttyUSB0","driver":"SiRF","subtype":"9\u0006GSD4e_4.1.2-P1_RPATCH.05-F-GPS-4R-1510281 11/03/2015 307","activated":"2017-12-01T16:59:53.306Z","flags":1,"native":1,"bps":4800,"parity":"N","stopbits":1,"cycle":1.00}]}
2017-12-01 11:59:53 1512147593.717248: {"class":"WATCH","enable":true,"json":false,"nmea":true,"raw":0,"scaled":false,"timing":false,"split24":false,"pps":false}
2017-12-01 11:59:53 1512147593.756132: $GPGSV,3,1,12,10,18,277,39,13,36,046,44,15,69,057,44,18,49,292,45*78
2017-12-01 11:59:53 1512147593.756300: $GPGSV,3,2,12,20,57,061,45,21,73,295,45,24,26,144,46,27,13,319,43*7F
2017-12-01 11:59:53 1512147593.756365: $GPGSV,3,3,12,29,17,192,43,05,09,082,24,04,06,133,00,138,38,213,46*4A
2017-12-01 11:59:53 1512147593.869969: $GPZDA,165954.00,01,12,2017,00,00*6A
2017-12-01 11:59:53 1512147593.870148: $GPGGA,165954,3946.9586,N,08404.9846,W,2,11,0.80,300.89,M,-33.324,M,,*7A
2017-12-01 11:59:53 1512147593.870213: $GPRMC,165954,A,3946.9586,N,08404.9846,W,0.0000,0.000,011217,,*30
2017-12-01 11:59:53 1512147593.870274: $GPGSA,A,3,10,13,15,18,20,21,24,27,29,5,138,,2.0,0.8,1.5*34
2017-12-01 11:59:54 1512147594.495175: $GPZDA,165955.00,01,12,2017,00,00*6B
2017-12-01 11:59:54 1512147594.495359: $GPGGA,165955,3946.9590,N,08404.9845,W,2,11,0.80,300.12,M,-33.324,M,,*7D
2017-12-01 11:59:54 1512147594.495425: $GPRMC,165955,A,3946.9590,N,08404.9845,W,0.0000,0.000,011217,,*35
2017-12-01 11:59:54 1512147594.495486: $GPGSA,A,3,10,13,15,18,20,21,24,27,29,5,138,,2.0,0.8,1.5*34
2017-12-01 11:59:55 1512147595.422479: $GPZDA,165956.00,01,12,2017,00,00*68
2017-12-01 11:59:55 1512147595.422670: $GPGGA,165956,3946.9590,N,08404.9845,W,2,11,0.80,300.12,M,-33.324,M,,*7E
2017-12-01 11:59:55 1512147595.422737: $GPRMC,165956,A,3946.9590,N,08404.9845,W,0.0000,0.000,011217,,*36
2017-12-01 11:59:55 1512147595.422799: $GPGSA,A,3,10,13,15,18,20,21,24,27,29,5,138,,2.0,0.8,1.5*34
2017-12-01 11:59:56 1512147596.757667: $GPGSV,3,1,12,10,18,277,38,13,36,046,44,15,69,057,44,18,49,292,45*79
2017-12-01 11:59:56 1512147596.757794: $GPGSV,3,2,12,20,57,061,45,21,73,295,46,24,26,144,46,27,13,319,43*7C
2017-12-01 11:59:56 1512147596.757828: $GPGSV,3,3,12,29,17,192,43,05,09,082,24,04,06,133,00,138,38,213,46*4A
2017-12-01 11:59:56 1512147596.870463: $GPZDA,165957.00,01,12,2017,00,00*69
2017-12-01 11:59:56 1512147596.870568: $GPGGA,165957,3946.9590,N,08404.9845,W,2,11,0.80,300.12,M,-33.324,M,,*7F
2017-12-01 11:59:56 1512147596.870603: $GPRMC,165957,A,3946.9590,N,08404.9845,W,0.0000,0.000,011217,,*37
2017-12-01 11:59:56 1512147596.870633: $GPGSA,A,3,10,13,15,18,20,21,24,27,29,5,138,,2.0,0.8,1.5*34
2017-12-01 11:59:57 1512147597.421040: $GPZDA,165958.00,01,12,2017,00,00*66
2017-12-01 11:59:57 1512147597.421205: $GPGGA,165958,3946.9590,N,08404.9845,W,2,11,0.80,300.12,M,-33.324,M,,*70
2017-12-01 11:59:57 1512147597.421271: $GPRMC,165958,A,3946.9590,N,08404.9845,W,0.0000,0.000,011217,,*38
2017-12-01 11:59:57 1512147597.421332: $GPGSA,A,3,10,13,15,18,20,21,24,27,29,5,138,,2.0,0.8,1.5*34
2017-12-01 11:59:58 1512147598.421930: $GPZDA,165959.00,01,12,2017,00,00*67
2017-12-01 11:59:58 1512147598.422058: $GPGGA,165959,3946.9590,N,08404.9845,W,2,11,0.80,300.12,M,-33.324,M,,*71
2017-12-01 11:59:58 1512147598.422123: $GPRMC,165959,A,3946.9590,N,08404.9845,W,0.0000,0.000,011217,,*39
2017-12-01 11:59:58 1512147598.422184: $GPGSA,A,3,10,13,15,18,20,21,24,27,29,5,138,,2.0,0.8,1.5*34
2017-12-01 11:59:59 1512147599.758131: $GPGSV,3,1,12,10,18,277,38,13,36,046,44,15,69,057,44,18,49,292,46*7A
2017-12-01 11:59:59 1512147599.758319: $GPGSV,3,2,12,20,57,061,45,21,73,295,46,24,26,144,46,27,13,319,43*7C
2017-12-01 11:59:59 1512147599.758407: $GPGSV,3,3,12,29,17,192,42,05,09,082,24,04,06,133,00,138,38,213,46*4B
2017-12-01 11:59:59 1512147599.871682: $GPZDA,170000.00,01,12,2017,00,00*66
2017-12-01 11:59:59 1512147599.871851: $GPGGA,170000,3946.9590,N,08404.9845,W,2,11,0.80,300.12,M,-33.324,M,,*70
2017-12-01 11:59:59 1512147599.871967: $GPRMC,170000,A,3946.9590,N,08404.9845,W,0.0000,0.000,011217,,*38
2017-12-01 11:59:59 1512147599.872029: $GPGSA,A,3,10,13,15,18,20,21,24,27,29,5,138,,2.0,0.8,1.5*34
2017-12-01 12:00:00 1512147600.422411: $GPZDA,170001.00,01,12,2017,00,00*67
2017-12-01 12:00:00 1512147600.422582: $GPGGA,170001,3946.9590,N,08404.9845,W,2,11,0.80,300.12,M,-33.324,M,,*71
2017-12-01 12:00:00 1512147600.422650: $GPRMC,170001,A,3946.9590,N,08404.9845,W,0.0000,0.000,011217,,*39
2017-12-01 12:00:00 1512147600.422711: $GPGSA,A,3,10,13,15,18,20,21,24,27,29,5,138,,2.0,0.8,1.5*34
2017-12-01 12:00:01 1512147601.415965: $GPZDA,170002.00,01,12,2017,00,00*64
2017-12-01 12:00:01 1512147601.416135: $GPGGA,170002,3946.9590,N,08404.9845,W,2,11,0.80,300.12,M,-33.324,M,,*72
2017-12-01 12:00:01 1512147601.416202: $GPRMC,170002,A,3946.9590,N,08404.9845,W,0.0000,0.000,011217,,*3A
2017-12-01 12:00:01 1512147601.416263: $GPGSA,A,3,10,13,15,18,20,21,24,27,29,5,138,,2.0,0.8,1.5*34
2017-12-01 12:00:02 1512147602.752737: $GPGSV,3,1,12,10,18,277,38,13,36,046,44,15,69,057,44,18,49,292,45*79
2017-12-01 12:00:02 1512147602.752921: $GPGSV,3,2,12,20,57,061,45,21,73,295,46,24,26,144,46,27,13,319,43*7C
2017-12-01 12:00:02 1512147602.752989: $GPGSV,3,3,12,29,17,192,42,05,09,082,24,04,06,133,00,138,38,213,47*4A
2017-12-01 12:00:02 1512147602.866164: $GPZDA,170003.00,01,12,2017,00,00*65
2017-12-01 12:00:02 1512147602.866323: $GPGGA,170003,3946.9590,N,08404.9845,W,2,11,0.80,300.12,M,-33.324,M,,*73
2017-12-01 12:00:02 1512147602.866389: $GPRMC,170003,A,3946.9590,N,08404.9845,W,0.0000,0.000,011217,,*3B
2017-12-01 12:00:02 1512147602.866449: $GPGSA,A,3,10,13,15,18,20,21,24,27,29,5,138,,2.0,0.8,1.5*34
2017-12-01 12:00:03 1512147603.422571: $GPZDA,170004.00,01,12,2017,00,00*62
2017-12-01 12:00:03 1512147603.422746: $GPGGA,170004,3946.9590,N,08404.9845,W,2,11,0.80,300.12,M,-33.324,M,,*74
2017-12-01 12:00:03 1512147603.422814: $GPRMC,170004,A,3946.9590,N,08404.9845,W,0.0000,0.000,011217,,*3C
2017-12-01 12:00:03 1512147603.422876: $GPGSA,A,3,10,13,15,18,20,21,24,27,29,5,138,,2.0,0.8,1.5*34
