2017-11-16 13:23:57 1510856637.777176: {"class":"VERSION","release":"3.17","rev":"3.17","proto_major":3,"proto_minor":12}
2017-11-16 13:23:57 1510856637.777722: {"class":"DEVICES","devices":[{"class":"DEVICE","path":"/dev/ttyUSB0","driver":"SiRF","subtype":"9\u0006GSD4e_4.1.2-P1_RPATCH.05-F-GPS-4R-1510281 11/03/2015 307","activated":"2017-11-16T18:23:57.766Z","flags":1,"native":1,"bps":4800,"parity":"N","stopbits":1,"cycle":1.00}]}
2017-11-16 13:23:57 1510856637.777857: {"class":"WATCH","enable":true,"json":false,"nmea":true,"raw":0,"scaled":false,"timing":false,"split24":false,"pps":false}
2017-11-16 13:23:58 1510856638.279423: $GPZDA,182357.00,16,11,2017,00,00*6F
2017-11-16 13:23:58 1510856638.279586: $GPGGA,182357,3946.9614,N,08404.9845,W,2,11,0.80,302.56,M,-33.324,M,,*71
2017-11-16 13:23:58 1510856638.279647: $GPRMC,182357,A,3946.9614,N,08404.9845,W,0.0000,0.000,161117,,*3E
2017-11-16 13:23:58 1510856638.279704: $GPGSA,A,3,10,13,15,18,20,21,24,27,29,32,138,,1.6,0.8,1.3*03
2017-11-16 13:23:59 1510856639.284032: $GPZDA,182358.00,16,11,2017,00,00*60
2017-11-16 13:23:59 1510856639.284214: $GPGGA,182358,3946.9614,N,08404.9845,W,2,11,0.80,302.56,M,-33.324,M,,*7E
2017-11-16 13:23:59 1510856639.284280: $GPRMC,182358,A,3946.9614,N,08404.9845,W,0.0000,0.000,161117,,*31
2017-11-16 13:23:59 1510856639.284337: $GPGSA,A,3,10,13,15,18,20,21,24,27,29,32,138,,1.6,0.8,1.3*03
2017-11-16 13:24:00 1510856640.615558: $GPGSV,3,1,12,10,25,285,42,13,27,045,47,15,59,051,50,18,56,303,47*72
2017-11-16 13:24:00 1510856640.615725: $GPGSV,3,2,12,20,49,075,47,21,78,259,47,24,35,136,39,27,17,310,43*7C
2017-11-16 13:24:00 1510856640.615786: $GPGSV,3,3,12,05,02,088,00,29,07,189,32,32,02,226,29,138,38,213,46*4D
2017-11-16 13:24:00 1510856640.729016: $GPZDA,182359.00,16,11,2017,00,00*61
2017-11-16 13:24:00 1510856640.729183: $GPGGA,182359,3946.9614,N,08404.9845,W,2,11,0.80,302.56,M,-33.324,M,,*7F
2017-11-16 13:24:00 1510856640.729248: $GPRMC,182359,A,3946.9614,N,08404.9845,W,0.0000,0.000,161117,,*30
2017-11-16 13:24:00 1510856640.729305: $GPGSA,A,3,10,13,15,18,20,21,24,27,29,32,138,,1.6,0.8,1.3*03
2017-11-16 13:24:01 1510856641.281285: $GPZDA,182400.00,16,11,2017,00,00*6A
2017-11-16 13:24:01 1510856641.281453: $GPGGA,182400,3946.9614,N,08404.9845,W,2,11,0.80,302.56,M,-33.324,M,,*74
2017-11-16 13:24:01 1510856641.281516: $GPRMC,182400,A,3946.9614,N,08404.9845,W,0.0000,0.000,161117,,*3B
2017-11-16 13:24:01 1510856641.281572: $GPGSA,A,3,10,13,15,18,20,21,24,27,29,32,138,,1.6,0.8,1.3*03
2017-11-16 13:24:02 1510856642.299328: $GPZDA,182401.00,16,11,2017,00,00*6B
2017-11-16 13:24:02 1510856642.299487: $GPGGA,182401,3946.9614,N,08404.9845,W,2,11,0.80,302.56,M,-33.324,M,,*75
2017-11-16 13:24:02 1510856642.299548: $GPRMC,182401,A,3946.9614,N,08404.9845,W,0.0000,0.000,161117,,*3A
2017-11-16 13:24:02 1510856642.299604: $GPGSA,A,3,10,13,15,18,20,21,24,27,29,32,138,,1.6,0.8,1.3*03
2017-11-16 13:24:03 1510856643.633770: $GPGSV,3,1,12,10,25,285,43,13,27,045,46,15,59,051,50,18,56,303,47*72
2017-11-16 13:24:03 1510856643.633943: $GPGSV,3,2,12,20,49,075,47,21,78,259,47,24,35,136,39,27,17,310,43*7C
2017-11-16 13:24:03 1510856643.634006: $GPGSV,3,3,12,05,02,088,12,29,07,189,34,32,02,226,29,138,38,213,45*4B
2017-11-16 13:24:03 1510856643.747108: $GPZDA,182402.00,16,11,2017,00,00*68
2017-11-16 13:24:03 1510856643.747270: $GPGGA,182402,3946.9614,N,08404.9845,W,2,11,0.80,302.56,M,-33.324,M,,*76
2017-11-16 13:24:03 1510856643.747332: $GPRMC,182402,A,3946.9614,N,08404.9845,W,0.0000,0.000,161117,,*39
2017-11-16 13:24:03 1510856643.747388: $GPGSA,A,3,10,13,15,18,20,21,24,27,29,32,138,,1.6,0.8,1.3*03
2017-11-16 13:24:04 1510856644.279232: $GPZDA,182403.00,16,11,2017,00,00*69
2017-11-16 13:24:04 1510856644.279402: $GPGGA,182403,3946.9614,N,08404.9845,W,2,11,0.80,302.56,M,-33.324,M,,*77
2017-11-16 13:24:04 1510856644.279463: $GPRMC,182403,A,3946.9614,N,08404.9845,W,0.0000,0.000,161117,,*38
2017-11-16 13:24:04 1510856644.279520: $GPGSA,A,3,10,13,15,18,20,21,24,27,29,32,138,,1.6,0.8,1.3*03
2017-11-16 13:24:05 1510856645.279821: $GPZDA,182404.00,16,11,2017,00,00*6E
2017-11-16 13:24:05 1510856645.280043: $GPGGA,182404,3946.9614,N,08404.9845,W,2,11,0.80,302.56,M,-33.324,M,,*70
2017-11-16 13:24:05 1510856645.280110: $GPRMC,182404,A,3946.9614,N,08404.9845,W,0.0000,0.000,161117,,*3F
2017-11-16 13:24:05 1510856645.280167: $GPGSA,A,3,10,13,15,18,20,21,24,27,29,32,138,,1.6,0.8,1.3*03
2017-11-16 13:24:06 1510856646.634058: $GPGSV,3,1,12,10,25,285,42,13,27,045,47,15,59,051,50,18,56,303,47*72
2017-11-16 13:24:06 1510856646.634252: $GPGSV,3,2,12,20,49,075,47,21,78,259,47,24,35,136,39,27,17,310,44*7B
2017-11-16 13:24:06 1510856646.634317: $GPGSV,3,3,12,05,02,088,21,29,07,189,33,32,02,226,29,138,38,213,44*4D
2017-11-16 13:24:06 1510856646.748698: $GPZDA,182405.00,16,11,2017,00,00*6F
2017-11-16 13:24:06 1510856646.748884: $GPGGA,182405,3946.9614,N,08404.9845,W,2,12,0.80,302.56,M,-33.324,M,,*72
2017-11-16 13:24:06 1510856646.748952: $GPRMC,182405,A,3946.9614,N,08404.9845,W,0.0000,0.000,161117,,*3E
2017-11-16 13:24:06 1510856646.749008: $GPGSA,A,3,10,13,15,18,20,21,24,27,5,29,32,138,1.6,0.8,1.3*36
2017-11-16 13:24:07 1510856647.299503: $GPZDA,182406.00,16,11,2017,00,00*6C
2017-11-16 13:24:07 1510856647.299665: $GPGGA,182406,3946.9614,N,08404.9845,W,2,12,0.80,302.56,M,-33.324,M,,*71
2017-11-16 13:24:07 1510856647.299725: $GPRMC,182406,A,3946.9614,N,08404.9845,W,0.0000,0.000,161117,,*3D
2017-11-16 13:24:07 1510856647.299785: $GPGSA,A,3,10,13,15,18,20,21,24,27,5,29,32,138,1.6,0.8,1.3*36
2017-11-16 13:24:08 1510856648.278999: $GPZDA,182407.00,16,11,2017,00,00*6D
2017-11-16 13:24:08 1510856648.279175: $GPGGA,182407,3946.9614,N,08404.9845,W,2,12,0.80,302.56,M,-33.324,M,,*70
2017-11-16 13:24:08 1510856648.279239: $GPRMC,182407,A,3946.9614,N,08404.9845,W,0.0000,0.000,161117,,*3C
2017-11-16 13:24:08 1510856648.279295: $GPGSA,A,3,10,13,15,18,20,21,24,27,5,29,32,138,1.6,0.8,1.3*36
2017-11-16 13:24:09 1510856649.634749: $GPGSV,3,1,12,10,25,285,42,13,27,045,47,15,59,051,50,18,56,303,46*73
2017-11-16 13:24:09 1510856649.634931: $GPGSV,3,2,12,20,49,075,47,21,78,259,46,24,35,136,40,27,17,310,45*75
2017-11-16 13:24:09 1510856649.634992: $GPGSV,3,3,12,05,02,088,16,29,07,189,34,32,02,226,29,138,38,213,45*4F
2017-11-16 13:24:09 1510856649.748159: $GPZDA,182408.00,16,11,2017,00,00*62
2017-11-16 13:24:09 1510856649.748323: $GPGGA,182408,3946.9614,N,08404.9845,W,2,12,0.80,302.56,M,-33.324,M,,*7F
2017-11-16 13:24:09 1510856649.748386: $GPRMC,182408,A,3946.9614,N,08404.9845,W,0.0000,0.000,161117,,*33
2017-11-16 13:24:09 1510856649.748442: $GPGSA,A,3,10,13,15,18,20,21,24,27,5,29,32,138,1.6,0.8,1.3*36
2017-11-16 13:24:10 1510856650.373420: $GPZDA,182409.00,16,11,2017,00,00*63
2017-11-16 13:24:10 1510856650.373587: $GPGGA,182409,3946.9614,N,08404.9845,W,2,12,0.80,302.56,M,-33.324,M,,*7E
2017-11-16 13:24:10 1510856650.373652: $GPRMC,182409,A,3946.9614,N,08404.9845,W,0.0000,0.000,161117,,*32
2017-11-16 13:24:10 1510856650.373709: $GPGSA,A,3,10,13,15,18,20,21,24,27,5,29,32,138,1.6,0.8,1.3*36
2017-11-16 13:24:11 1510856651.278068: $GPZDA,182410.00,16,11,2017,00,00*6B
2017-11-16 13:24:11 1510856651.278232: $GPGGA,182410,3946.9614,N,08404.9845,W,2,12,0.80,302.56,M,-33.324,M,,*76
2017-11-16 13:24:11 1510856651.278292: $GPRMC,182410,A,3946.9614,N,08404.9845,W,0.0000,0.000,161117,,*3A
2017-11-16 13:24:11 1510856651.278350: $GPGSA,A,3,10,13,15,18,20,21,24,27,5,29,32,138,1.6,0.8,1.3*36
2017-11-16 13:24:12 1510856652.627469: $GPGSV,3,1,12,10,25,285,42,13,27,045,47,15,59,051,51,18,56,303,46*72
2017-11-16 13:24:12 1510856652.627652: $GPGSV,3,2,12,20,49,075,47,21,78,259,46,24,35,136,41,27,17,310,45*74
2017-11-16 13:24:12 1510856652.627714: $GPGSV,3,3,12,05,02,088,21,29,07,189,33,32,02,226,30,138,38,213,44*45
2017-11-16 13:24:12 1510856652.740784: $GPZDA,182411.00,16,11,2017,00,00*6A
2017-11-16 13:24:12 1510856652.740970: $GPGGA,182411,3946.9614,N,08404.9845,W,2,12,0.80,302.56,M,-33.324,M,,*77
2017-11-16 13:24:12 1510856652.741035: $GPRMC,182411,A,3946.9614,N,08404.9845,W,0.0000,0.000,161117,,*3B
2017-11-16 13:24:12 1510856652.741092: $GPGSA,A,3,10,13,15,18,20,21,24,27,5,29,32,138,1.6,0.8,1.3*36
