2017-11-15 19:03:51 1510790631.025694: {"class":"VERSION","release":"3.17","rev":"3.17","proto_major":3,"proto_minor":12}
2017-11-15 19:03:51 1510790631.026150: {"class":"DEVICES","devices":[{"class":"DEVICE","path":"/dev/ttyUSB0","driver":"SiRF","subtype":"9\u0006GSD4e_4.1.2-P1_RPATCH.05-F-GPS-4R-1510281 11/03/2015 307","activated":"2017-11-16T00:03:50.644Z","flags":1,"native":1,"bps":4800,"parity":"N","stopbits":1,"cycle":1.00}]}
2017-11-15 19:03:51 1510790631.026266: {"class":"WATCH","enable":true,"json":false,"nmea":true,"raw":0,"scaled":false,"timing":false,"split24":false,"pps":false}
2017-11-15 19:03:51 1510790631.665776: $GPGSV,3,1,12,32,45,096,23,14,63,073,24,03,32,309,21,26,40,175,16*7B
2017-11-15 19:03:51 1510790631.665955: $GPGSV,3,2,12,31,76,355,29,16,11,190,18,22,47,288,20,25,26,045,00*77
2017-11-15 19:03:51 1510790631.666014: $GPGSV,3,3,12,10,08,159,00,01,12,262,06,29,06,081,00,135,23,238,00*47
2017-11-15 19:03:51 1510790631.778930: $GPZDA,000350.00,16,11,2017,00,00*63
2017-11-15 19:03:51 1510790631.779091: $GPGGA,000350,3946.9713,N,08404.9454,W,1,08,1.40,299.23,M,-33.324,M,,*70
2017-11-15 19:03:51 1510790631.779150: $GPRMC,000350,A,3946.9713,N,08404.9454,W,0.9929,32.499,161117,,*06
2017-11-15 19:03:51 1510790631.779206: $GPGSA,A,3,32,14,3,26,31,16,22,1,,,,,3.4,1.4,2.9*3C
2017-11-15 19:03:52 1510790632.328589: $GPZDA,000351.00,16,11,2017,00,00*62
2017-11-15 19:03:52 1510790632.328758: $GPGGA,000351,3946.9717,N,08404.9453,W,1,08,1.40,298.46,M,-33.324,M,,*70
2017-11-15 19:03:52 1510790632.328818: $GPRMC,000351,A,3946.9717,N,08404.9453,W,1.0018,50.691,161117,,*09
2017-11-15 19:03:52 1510790632.328874: $GPGSA,A,3,32,14,3,26,31,16,22,1,,,,,3.4,1.4,2.9*3C
2017-11-15 19:03:53 1510790633.329452: $GPZDA,000352.00,16,11,2017,00,00*61
2017-11-15 19:03:53 1510790633.329619: $GPGGA,000352,3946.9721,N,08404.9453,W,1,08,1.40,299.10,M,-33.324,M,,*74
2017-11-15 19:03:53 1510790633.329679: $GPRMC,000352,A,3946.9721,N,08404.9453,W,0.9929,32.499,161117,,*02
2017-11-15 19:03:53 1510790633.329735: $GPGSA,A,3,32,14,3,26,31,16,22,1,,,,,3.4,1.4,2.9*3C
2017-11-15 19:03:54 1510790634.665495: $GPGSV,3,1,12,32,45,096,23,14,63,073,23,03,32,309,21,26,40,175,16*7C
2017-11-15 19:03:54 1510790634.665677: $GPGSV,3,2,12,31,76,355,29,16,11,190,18,22,47,288,20,25,26,045,00*77
2017-11-15 19:03:54 1510790634.665768: $GPGSV,3,3,12,10,08,159,00,01,12,262,06,29,06,081,00,120,07,103,00*4E
2017-11-15 19:03:54 1510790634.778663: $GPZDA,000353.00,16,11,2017,00,00*60
2017-11-15 19:03:54 1510790634.778840: $GPGGA,000353,3946.9724,N,08404.9446,W,1,07,1.40,298.42,M,-33.324,M,,*7D
2017-11-15 19:03:54 1510790634.778902: $GPRMC,000353,A,3946.9724,N,08404.9446,W,1.0018,50.691,161117,,*0F
2017-11-15 19:03:54 1510790634.778958: $GPGSA,A,3,32,14,3,26,31,16,22,,,,,,3.4,1.4,2.9*0D
2017-11-15 19:03:55 1510790635.329535: $GPZDA,000354.00,16,11,2017,00,00*67
2017-11-15 19:03:55 1510790635.329712: $GPGGA,000354,3946.9724,N,08404.9446,W,1,07,1.40,298.42,M,-33.324,M,,*7A
2017-11-15 19:03:55 1510790635.329774: $GPRMC,000354,A,3946.9724,N,08404.9446,W,0.8054,68.645,161117,,*0B
2017-11-15 19:03:55 1510790635.329830: $GPGSA,A,3,32,14,3,26,31,16,22,,,,,,3.4,1.4,2.9*0D
2017-11-15 19:03:56 1510790636.329995: $GPZDA,000355.00,16,11,2017,00,00*66
2017-11-15 19:03:56 1510790636.330155: $GPGGA,000355,3946.9728,N,08404.9446,W,1,07,1.40,299.06,M,-33.324,M,,*76
2017-11-15 19:03:56 1510790636.330215: $GPRMC,000355,A,3946.9728,N,08404.9446,W,0.4207,39.347,161117,,*0D
2017-11-15 19:03:56 1510790636.330270: $GPGSA,A,3,32,14,3,26,31,16,22,,,,,,3.4,1.4,2.9*0D
2017-11-15 19:03:57 1510790637.665710: $GPGSV,3,1,12,32,45,096,23,14,63,073,23,03,32,309,21,26,40,175,17*7D
2017-11-15 19:03:57 1510790637.665881: $GPGSV,3,2,12,31,76,355,29,16,11,190,18,22,47,288,19,25,26,045,00*7D
2017-11-15 19:03:57 1510790637.665942: $GPGSV,3,3,12,10,08,159,00,01,12,262,07,29,06,081,00,120,07,103,00*4F
2017-11-15 19:03:57 1510790637.779146: $GPZDA,000356.00,16,11,2017,00,00*65
2017-11-15 19:03:57 1510790637.779307: $GPGGA,000356,3946.9728,N,08404.9446,W,1,08,1.40,299.06,M,-33.324,M,,*7A
2017-11-15 19:03:57 1510790637.779439: $GPRMC,000356,A,3946.9728,N,08404.9446,W,0.3423,4.197,161117,,*38
2017-11-15 19:03:57 1510790637.779499: $GPGSA,A,3,32,14,3,26,31,16,22,1,,,,,3.4,1.4,2.9*3C
2017-11-15 19:03:58 1510790638.329964: $GPZDA,000357.00,16,11,2017,00,00*64
2017-11-15 19:03:58 1510790638.330145: $GPGGA,000357,3946.9728,N,08404.9446,W,1,08,1.40,299.06,M,-33.324,M,,*7B
2017-11-15 19:03:58 1510790638.330206: $GPRMC,000357,A,3946.9728,N,08404.9446,W,0.5912,309.173,161117,,*34
2017-11-15 19:03:58 1510790638.330262: $GPGSA,A,3,32,14,3,26,31,16,22,1,,,,,3.4,1.4,2.9*3C
2017-11-15 19:03:59 1510790639.329913: $GPZDA,000358.00,16,11,2017,00,00*6B
2017-11-15 19:03:59 1510790639.330200: $GPGGA,000358,3946.9729,N,08404.9453,W,1,08,1.40,298.98,M,-33.324,M,,*77
2017-11-15 19:03:59 1510790639.330302: $GPRMC,000358,A,3946.9729,N,08404.9453,W,0.5912,309.173,161117,,*3E
2017-11-15 19:03:59 1510790639.330430: $GPGSA,A,3,32,14,3,26,31,16,22,1,,,,,3.4,1.4,2.9*3C
2017-11-15 19:04:00 1510790640.665336: $GPGSV,3,1,12,32,45,096,23,14,63,073,23,03,32,309,20,26,40,175,17*7C
2017-11-15 19:04:00 1510790640.665542: $GPGSV,3,2,12,31,76,355,29,16,11,190,18,22,47,288,19,23,03,295,10*72
2017-11-15 19:04:00 1510790640.665604: $GPGSV,3,3,12,25,26,045,00,01,12,262,07,10,08,159,00,120,07,103,00*49
2017-11-15 19:04:00 1510790640.778778: $GPZDA,000359.00,16,11,2017,00,00*6A
2017-11-15 19:04:00 1510790640.778953: $GPGGA,000359,3946.9732,N,08404.9452,W,1,08,1.40,298.21,M,-33.324,M,,*7F
2017-11-15 19:04:00 1510790640.779014: $GPRMC,000359,A,3946.9732,N,08404.9452,W,1.1824,309.173,161117,,*35
2017-11-15 19:04:00 1510790640.779071: $GPGSA,A,3,32,14,3,26,31,16,22,1,,,,,3.4,1.4,2.9*3C
