2018-01-11 20:18:20 1515719900.227579: {"class":"VERSION","release":"3.16","rev":"3.16-4","proto_major":3,"proto_minor":11}
2018-01-11 20:18:20 1515719900.227936: {"class":"DEVICES","devices":[{"class":"DEVICE","path":"/dev/ttyUSB0","driver":"SiRF","subtype":"9\u0006GSD4e_4.1.2-P1_RPATCH.05-F-GPS-4R-1510281 11/03/2015 307","activated":"2018-01-12T01:18:19.997Z","flags":1,"native":1,"bps":4800,"parity":"N","stopbits":1,"cycle":1.00}]}
2018-01-11 20:18:20 1515719900.228061: {"class":"WATCH","enable":true,"json":false,"nmea":true,"raw":0,"scaled":false,"timing":false,"split24":false,"pps":false}
2018-01-11 20:18:20 1515719900.406896: $GPZDA,011821.00,12,01,2018,00,00*64
2018-01-11 20:18:20 1515719900.407071: $GPGGA,011821,3946.9578,N,08404.9813,W,2,10,0.80,302.81,M,-33.324,M,,*71
2018-01-11 20:18:20 1515719900.407139: $GPRMC,011821,A,3946.9578,N,08404.9813,W,0.0000,0.000,120118,,*3F
2018-01-11 20:18:20 1515719900.407200: $GPGSA,A,3,7,8,9,11,16,23,27,28,30,138,,,4.0,0.8,3.5*3E
2018-01-11 20:18:21 1515719901.411002: $GPZDA,011822.00,12,01,2018,00,00*67
2018-01-11 20:18:21 1515719901.411169: $GPGGA,011822,3946.9578,N,08404.9813,W,2,10,0.80,302.81,M,-33.324,M,,*72
2018-01-11 20:18:21 1515719901.411236: $GPRMC,011822,A,3946.9578,N,08404.9813,W,0.0000,0.000,120118,,*3C
2018-01-11 20:18:21 1515719901.411297: $GPGSA,A,3,7,8,9,11,16,23,27,28,30,138,,,4.0,0.8,3.5*3E
2018-01-11 20:18:22 1515719902.746732: $GPGSV,3,1,11,07,59,315,43,08,75,118,45,09,45,225,42,11,23,166,46*7A
2018-01-11 20:18:22 1515719902.746903: $GPGSV,3,2,11,16,20,063,40,23,25,189,47,27,44,051,50,28,16,261,42*73
2018-01-11 20:18:22 1515719902.747055: $GPGSV,3,3,11,30,32,307,27,01,01,162,00,138,38,213,46*7C
2018-01-11 20:18:22 1515719902.860411: $GPZDA,011823.00,12,01,2018,00,00*66
2018-01-11 20:18:22 1515719902.860560: $GPGGA,011823,3946.9578,N,08404.9813,W,2,10,0.80,302.81,M,-33.324,M,,*73
2018-01-11 20:18:22 1515719902.860627: $GPRMC,011823,A,3946.9578,N,08404.9813,W,0.0000,0.000,120118,,*3D
2018-01-11 20:18:22 1515719902.860704: $GPGSA,A,3,7,8,9,11,16,23,27,28,30,138,,,4.0,0.8,3.5*3E
2018-01-11 20:18:23 1515719903.413770: $GPZDA,011824.00,12,01,2018,00,00*61
2018-01-11 20:18:23 1515719903.413935: $GPGGA,011824,3946.9578,N,08404.9813,W,2,10,0.80,302.81,M,-33.324,M,,*74
2018-01-11 20:18:23 1515719903.414001: $GPRMC,011824,A,3946.9578,N,08404.9813,W,0.0000,0.000,120118,,*3A
2018-01-11 20:18:23 1515719903.414062: $GPGSA,A,3,7,8,9,11,16,23,27,28,30,138,,,4.0,0.8,3.5*3E
2018-01-11 20:18:24 1515719904.414834: $GPZDA,011825.00,12,01,2018,00,00*60
2018-01-11 20:18:24 1515719904.415004: $GPGGA,011825,3946.9578,N,08404.9813,W,2,10,0.80,302.81,M,-33.324,M,,*75
2018-01-11 20:18:24 1515719904.415069: $GPRMC,011825,A,3946.9578,N,08404.9813,W,0.0000,0.000,120118,,*3B
2018-01-11 20:18:24 1515719904.415129: $GPGSA,A,3,7,8,9,11,16,23,27,28,30,138,,,4.0,0.8,3.5*3E
2018-01-11 20:18:25 1515719905.747626: $GPGSV,3,1,11,07,59,315,44,08,75,118,45,09,45,225,42,11,23,166,47*7C
2018-01-11 20:18:25 1515719905.747811: $GPGSV,3,2,11,16,20,063,40,23,25,189,47,27,44,051,50,28,16,261,42*73
2018-01-11 20:18:25 1515719905.747878: $GPGSV,3,3,11,30,32,307,32,01,01,162,00,138,38,213,45*7B
2018-01-11 20:18:25 1515719905.861298: $GPZDA,011826.00,12,01,2018,00,00*63
2018-01-11 20:18:25 1515719905.861436: $GPGGA,011826,3946.9578,N,08404.9813,W,2,10,0.80,302.81,M,-33.324,M,,*76
2018-01-11 20:18:25 1515719905.861522: $GPRMC,011826,A,3946.9578,N,08404.9813,W,0.0000,0.000,120118,,*38
2018-01-11 20:18:25 1515719905.861585: $GPGSA,A,3,7,8,9,11,16,23,27,28,30,138,,,4.0,0.8,3.5*3E
2018-01-11 20:18:26 1515719906.486344: $GPZDA,011827.00,12,01,2018,00,00*62
2018-01-11 20:18:26 1515719906.486532: $GPGGA,011827,3946.9578,N,08404.9813,W,2,10,0.80,302.81,M,-33.324,M,,*77
2018-01-11 20:18:26 1515719906.486599: $GPRMC,011827,A,3946.9578,N,08404.9813,W,0.0000,0.000,120118,,*39
2018-01-11 20:18:26 1515719906.486677: $GPGSA,A,3,7,8,9,11,16,23,27,28,30,138,,,4.0,0.8,3.5*3E
2018-01-11 20:18:27 1515719907.412210: $GPZDA,011828.00,12,01,2018,00,00*6D
2018-01-11 20:18:27 1515719907.412377: $GPGGA,011828,3946.9578,N,08404.9813,W,2,10,0.80,302.81,M,-33.324,M,,*78
2018-01-11 20:18:27 1515719907.412515: $GPRMC,011828,A,3946.9578,N,08404.9813,W,0.0000,0.000,120118,,*36
2018-01-11 20:18:27 1515719907.412578: $GPGSA,A,3,7,8,9,11,16,23,27,28,30,138,,,4.0,0.8,3.5*3E
2018-01-11 20:18:28 1515719908.747918: $GPGSV,3,1,11,07,59,315,44,08,75,118,45,09,45,225,41,11,23,166,47*7F
2018-01-11 20:18:28 1515719908.748082: $GPGSV,3,2,11,16,20,063,40,23,25,189,47,27,44,051,50,28,16,261,42*73
2018-01-11 20:18:28 1515719908.748148: $GPGSV,3,3,11,30,32,307,30,01,01,162,00,138,38,213,45*79
2018-01-11 20:18:28 1515719908.861336: $GPZDA,011829.00,12,01,2018,00,00*6C
2018-01-11 20:18:28 1515719908.861494: $GPGGA,011829,3946.9578,N,08404.9813,W,2,10,0.80,302.81,M,-33.324,M,,*79
2018-01-11 20:18:28 1515719908.861562: $GPRMC,011829,A,3946.9578,N,08404.9813,W,0.0000,0.000,120118,,*37
2018-01-11 20:18:28 1515719908.861639: $GPGSA,A,3,7,8,9,11,16,23,27,28,30,138,,,4.0,0.8,3.5*3E
2018-01-11 20:18:29 1515719909.412250: $GPZDA,011830.00,12,01,2018,00,00*64
2018-01-11 20:18:29 1515719909.412440: $GPGGA,011830,3946.9578,N,08404.9813,W,2,10,0.80,302.81,M,-33.324,M,,*71
2018-01-11 20:18:29 1515719909.412530: $GPRMC,011830,A,3946.9578,N,08404.9813,W,0.0000,0.000,120118,,*3F
2018-01-11 20:18:29 1515719909.412594: $GPGSA,A,3,7,8,9,11,16,23,27,28,30,138,,,4.0,0.8,3.5*3E
2018-01-11 20:18:30 1515719910.413118: $GPZDA,011831.00,12,01,2018,00,00*65
2018-01-11 20:18:30 1515719910.413289: $GPGGA,011831,3946.9578,N,08404.9813,W,2,10,0.80,302.81,M,-33.324,M,,*70
2018-01-11 20:18:30 1515719910.413359: $GPRMC,011831,A,3946.9578,N,08404.9813,W,0.0000,0.000,120118,,*3E
2018-01-11 20:18:30 1515719910.413422: $GPGSA,A,3,7,8,9,11,16,23,27,28,30,138,,,4.0,0.8,3.5*3E
2018-01-11 20:18:31 1515719911.743282: $GPGSV,3,1,11,07,59,315,44,08,75,118,45,09,45,225,42,11,23,166,47*7C
2018-01-11 20:18:31 1515719911.743438: $GPGSV,3,2,11,16,20,063,40,23,25,189,48,27,44,051,50,28,16,261,42*7C
2018-01-11 20:18:31 1515719911.743506: $GPGSV,3,3,11,30,32,307,30,01,01,162,08,138,38,213,45*71
2018-01-11 20:18:31 1515719911.856899: $GPZDA,011832.00,12,01,2018,00,00*66
2018-01-11 20:18:31 1515719911.857034: $GPGGA,011832,3946.9578,N,08404.9813,W,2,10,0.80,302.81,M,-33.324,M,,*73
2018-01-11 20:18:31 1515719911.857101: $GPRMC,011832,A,3946.9578,N,08404.9813,W,0.0000,0.000,120118,,*3D
2018-01-11 20:18:31 1515719911.857165: $GPGSA,A,3,7,8,9,11,16,23,27,28,30,138,,,4.0,0.8,3.5*3E
