2017-12-01 16:57:42 1512165462.857271: {"class":"VERSION","release":"3.16","rev":"3.16-4","proto_major":3,"proto_minor":11}
2017-12-01 16:57:42 1512165462.857651: {"class":"DEVICES","devices":[{"class":"DEVICE","path":"/dev/ttyUSB0","driver":"SiRF","subtype":"9\u0006GSD4e_4.1.2-P1_RPATCH.05-F-GPS-4R-1510281 11/03/2015 307","activated":"2017-12-01T21:57:42.829Z","flags":1,"native":1,"bps":4800,"parity":"N","stopbits":1,"cycle":1.00}]}
2017-12-01 16:57:42 1512165462.857762: {"class":"WATCH","enable":true,"json":false,"nmea":true,"raw":0,"scaled":false,"timing":false,"split24":false,"pps":false}
2017-12-01 16:57:43 1512165463.007064: $GPZDA,215743.66,01,12,2017,00,00*66
2017-12-01 16:57:43 1512165463.007246: $GPGGA,215743,3946.9644,N,08404.9758,W,1,12,1.40,303.65,M,-33.324,M,,*77
2017-12-01 16:57:43 1512165463.007312: $GPRMC,215743,A,3946.9644,N,08404.9758,W,0.5075,72.256,011217,,*02
2017-12-01 16:57:43 1512165463.007377: $GPGSA,A,3,1,3,10,12,14,22,26,31,32,18,25,138,2.0,1.4,1.5*07
2017-12-01 16:57:44 1512165464.111085: $GPZDA,215744.34,01,12,2017,00,00*66
2017-12-01 16:57:44 1512165464.111265: $GPGGA,215744,3946.9644,N,08404.9758,W,1,12,1.40,303.65,M,-33.324,M,,*70
2017-12-01 16:57:44 1512165464.111334: $GPRMC,215744,A,3946.9644,N,08404.9758,W,0.2959,54.767,011217,,*06
2017-12-01 16:57:44 1512165464.111508: $GPGSA,A,3,1,3,10,12,14,22,26,31,32,18,25,138,2.0,1.4,1.5*07
2017-12-01 16:57:44 1512165464.111571: $GPGBS,215744,10.70,M,15.43,M,35.28,M*06
2017-12-01 16:57:45 1512165465.277498: $GPGSV,3,1,11,01,22,288,43,03,10,316,39,10,35,153,38,12,16,039,07*71
2017-12-01 16:57:45 1512165465.277701: $GPGSV,3,2,11,22,29,309,43,26,13,180,35,31,69,241,49,32,63,058,49*74
2017-12-01 16:57:45 1512165465.277770: $GPGSV,3,3,11,18,06,147,17,25,40,073,06,138,38,213,00*72
2017-12-01 16:57:45 1512165465.390859: $GPZDA,215745.00,01,12,2017,00,00*60
2017-12-01 16:57:45 1512165465.391030: $GPGGA,215745,3946.9644,N,08404.9758,W,1,08,1.20,303.65,M,-33.324,M,,*7C
2017-12-01 16:57:45 1512165465.391098: $GPRMC,215745,A,3946.9644,N,08404.9758,W,0.1567,189.200,011217,,*30
2017-12-01 16:57:45 1512165465.391161: $GPGSA,A,3,1,3,10,22,26,31,32,18,,,,,2.0,1.2,1.5*3A
2017-12-01 16:57:45 1512165465.841927: $GPZDA,215746.00,01,12,2017,00,00*63
2017-12-01 16:57:45 1512165465.842105: $GPGGA,215746,3946.9648,N,08404.9758,W,1,08,1.20,302.88,M,-33.324,M,,*71
2017-12-01 16:57:45 1512165465.842176: $GPRMC,215746,A,3946.9648,N,08404.9758,W,0.1867,180.000,011217,,*39
2017-12-01 16:57:45 1512165465.842242: $GPGSA,A,3,1,3,10,22,26,31,32,18,,,,,2.0,1.2,1.5*3A
2017-12-01 16:57:46 1512165466.397688: $GPZDA,215747.00,01,12,2017,00,00*62
2017-12-01 16:57:46 1512165466.397861: $GPGGA,215747,3946.9644,N,08404.9758,W,1,08,1.20,302.24,M,-33.324,M,,*7A
2017-12-01 16:57:46 1512165466.397927: $GPRMC,215747,A,3946.9644,N,08404.9758,W,0.0000,0.000,011217,,*35
2017-12-01 16:57:46 1512165466.397989: $GPGSA,A,3,1,3,10,22,26,31,32,18,,,,,2.0,1.2,1.5*3A
2017-12-01 16:57:47 1512165467.732789: $GPGSV,3,1,11,01,22,288,42,03,10,316,39,10,35,153,37,11,04,271,39*7C
2017-12-01 16:57:47 1512165467.737348: $GPGSV,3,2,11,22,29,309,42,26,13,180,34,31,69,241,48,32,63,058,50*7D
2017-12-01 16:57:47 1512165467.737462: $GPGSV,3,3,11,18,06,147,29,25,40,073,00,138,38,213,00*79
2017-12-01 16:57:47 1512165467.846159: $GPZDA,215748.00,01,12,2017,00,00*6D
2017-12-01 16:57:47 1512165467.846339: $GPGGA,215748,3946.9644,N,08404.9758,W,1,09,1.20,302.24,M,-33.324,M,,*74
2017-12-01 16:57:47 1512165467.846406: $GPRMC,215748,A,3946.9644,N,08404.9758,W,0.0000,0.000,011217,,*3A
2017-12-01 16:57:47 1512165467.846469: $GPGSA,A,3,1,3,10,11,22,26,31,32,18,,,,2.0,1.2,1.5*3A
2017-12-01 16:57:48 1512165468.399741: $GPZDA,215749.00,01,12,2017,00,00*6C
2017-12-01 16:57:48 1512165468.399912: $GPGGA,215749,3946.9647,N,08404.9757,W,1,09,1.20,301.48,M,-33.324,M,,*70
2017-12-01 16:57:48 1512165468.399980: $GPRMC,215749,A,3946.9647,N,08404.9757,W,0.0000,0.000,011217,,*37
2017-12-01 16:57:48 1512165468.400041: $GPGSA,A,3,1,3,10,11,22,26,31,32,18,,,,2.0,1.2,1.5*3A
2017-12-01 16:57:49 1512165469.397977: $GPZDA,215750.00,01,12,2017,00,00*64
2017-12-01 16:57:49 1512165469.398238: $GPGGA,215750,3946.9647,N,08404.9757,W,1,09,0.80,301.48,M,-33.324,M,,*73
2017-12-01 16:57:49 1512165469.398314: $GPRMC,215750,A,3946.9647,N,08404.9757,W,0.0000,0.000,011217,,*3F
2017-12-01 16:57:49 1512165469.398374: $GPGSA,A,3,1,3,10,11,22,26,31,32,18,,,,2.0,0.8,1.5*31
2017-12-01 16:57:49 1512165469.398434: $GPGBS,215750,10.70,M,15.43,M,35.28,M*03
2017-12-01 16:57:50 1512165470.733529: $GPGSV,3,1,11,01,22,288,42,03,10,316,38,10,35,153,37,11,04,271,39*7D
2017-12-01 16:57:50 1512165470.733715: $GPGSV,3,2,11,22,29,309,42,26,13,180,34,31,69,241,48,32,63,058,49*75
2017-12-01 16:57:50 1512165470.733782: $GPGSV,3,3,11,18,06,147,28,12,16,039,29,138,38,213,42*7C
2017-12-01 16:57:50 1512165470.846858: $GPZDA,215751.00,01,12,2017,00,00*65
2017-12-01 16:57:50 1512165470.847029: $GPGGA,215751,3946.9643,N,08404.9757,W,1,11,0.80,300.84,M,-33.324,M,,*7E
2017-12-01 16:57:50 1512165470.847099: $GPRMC,215751,A,3946.9643,N,08404.9757,W,0.0000,0.000,011217,,*3A
2017-12-01 16:57:50 1512165470.847162: $GPGSA,A,3,1,3,10,11,22,26,31,32,18,12,138,,2.0,0.8,1.5*08
2017-12-01 16:57:51 1512165471.397797: $GPZDA,215752.00,01,12,2017,00,00*66
2017-12-01 16:57:51 1512165471.397969: $GPGGA,215752,3946.9643,N,08404.9764,W,1,11,0.80,300.76,M,-33.324,M,,*70
2017-12-01 16:57:51 1512165471.398037: $GPRMC,215752,A,3946.9643,N,08404.9764,W,0.0000,0.000,011217,,*39
2017-12-01 16:57:51 1512165471.398100: $GPGSA,A,3,1,3,10,11,22,26,31,32,18,12,138,,2.0,0.8,1.5*08
2017-12-01 16:57:52 1512165472.399395: $GPZDA,215753.00,01,12,2017,00,00*67
2017-12-01 16:57:52 1512165472.399574: $GPGGA,215753,3946.9643,N,08404.9764,W,1,11,0.80,300.76,M,-33.324,M,,*71
2017-12-01 16:57:52 1512165472.399641: $GPRMC,215753,A,3946.9643,N,08404.9764,W,0.0000,0.000,011217,,*38
2017-12-01 16:57:52 1512165472.399703: $GPGSA,A,3,1,3,10,11,22,26,31,32,18,12,138,,2.0,0.8,1.5*08
2017-12-01 16:57:53 1512165473.733880: $GPGSV,3,1,11,01,22,288,41,03,10,316,38,10,35,153,37,11,04,271,39*7E
2017-12-01 16:57:53 1512165473.734076: $GPGSV,3,2,11,22,29,309,43,26,13,180,34,31,69,241,47,32,63,058,49*7B
2017-12-01 16:57:53 1512165473.734143: $GPGSV,3,3,11,18,06,147,28,12,16,039,30,138,38,213,40*76
2017-12-01 16:57:53 1512165473.848111: $GPZDA,215754.00,01,12,2017,00,00*60
2017-12-01 16:57:53 1512165473.848301: $GPGGA,215754,3946.9639,N,08404.9770,W,2,11,1.60,298.64,M,-33.324,M,,*71
2017-12-01 16:57:53 1512165473.848371: $GPRMC,215754,A,3946.9639,N,08404.9770,W,0.0000,0.000,011217,,*37
2017-12-01 16:57:53 1512165473.848437: $GPGSA,A,3,1,3,10,11,22,26,31,32,18,12,138,,2.0,1.6,1.5*07
2017-12-01 16:57:54 1512165474.399551: $GPZDA,215755.00,01,12,2017,00,00*61
2017-12-01 16:57:54 1512165474.399726: $GPGGA,215755,3946.9639,N,08404.9770,W,2,11,1.60,298.64,M,-33.324,M,,*70
2017-12-01 16:57:54 1512165474.399796: $GPRMC,215755,A,3946.9639,N,08404.9770,W,0.0000,0.000,011217,,*36
2017-12-01 16:57:54 1512165474.399858: $GPGSA,A,3,1,3,10,11,22,26,31,32,18,12,138,,2.0,1.6,1.5*07
2017-12-01 16:57:55 1512165475.410310: $GPZDA,215756.00,01,12,2017,00,00*62
2017-12-01 16:57:55 1512165475.410500: $GPGGA,215756,3946.9639,N,08404.9770,W,2,11,1.60,298.64,M,-33.324,M,,*73
2017-12-01 16:57:55 1512165475.410570: $GPRMC,215756,A,3946.9639,N,08404.9770,W,0.0000,0.000,011217,,*35
2017-12-01 16:57:55 1512165475.410631: $GPGSA,A,3,1,3,10,11,22,26,31,32,18,12,138,,2.0,1.6,1.5*07
2017-12-01 16:57:56 1512165476.734769: $GPGSV,3,1,11,01,22,288,41,03,10,316,39,10,35,153,37,11,04,271,40*71
2017-12-01 16:57:56 1512165476.734951: $GPGSV,3,2,11,22,29,309,42,26,13,180,34,31,69,241,47,32,63,058,49*7A
2017-12-01 16:57:56 1512165476.735038: $GPGSV,3,3,11,18,06,147,28,12,16,039,30,138,38,213,39*78
2017-12-01 16:57:56 1512165476.848290: $GPZDA,215757.00,01,12,2017,00,00*63
2017-12-01 16:57:56 1512165476.848463: $GPGGA,215757,3946.9639,N,08404.9770,W,2,11,1.60,298.64,M,-33.324,M,,*72
2017-12-01 16:57:56 1512165476.848530: $GPRMC,215757,A,3946.9639,N,08404.9770,W,0.0000,0.000,011217,,*34
2017-12-01 16:57:56 1512165476.848592: $GPGSA,A,3,1,3,10,11,22,26,31,32,18,12,138,,2.0,1.6,1.5*07
2017-12-01 16:57:57 1512165477.473826: $GPZDA,215758.00,01,12,2017,00,00*6C
2017-12-01 16:57:57 1512165477.473985: $GPGGA,215758,3946.9639,N,08404.9770,W,2,11,0.80,298.64,M,-33.324,M,,*72
2017-12-01 16:57:57 1512165477.474073: $GPRMC,215758,A,3946.9639,N,08404.9770,W,0.0000,0.000,011217,,*3B
2017-12-01 16:57:57 1512165477.474136: $GPGSA,A,3,1,3,10,11,22,26,31,32,18,12,138,,2.0,0.8,1.5*08
2017-12-01 16:57:58 1512165478.400887: $GPZDA,215759.00,01,12,2017,00,00*6D
2017-12-01 16:57:58 1512165478.401162: $GPGGA,215759,3946.9639,N,08404.9770,W,2,11,0.80,298.64,M,-33.324,M,,*73
2017-12-01 16:57:58 1512165478.401236: $GPRMC,215759,A,3946.9639,N,08404.9770,W,0.0000,0.000,011217,,*3A
2017-12-01 16:57:58 1512165478.401298: $GPGSA,A,3,1,3,10,11,22,26,31,32,18,12,138,,2.0,0.8,1.5*08
2017-12-01 16:57:59 1512165479.735098: $GPGSV,3,1,11,01,22,288,41,03,10,316,39,10,35,153,36,11,04,271,40*70
2017-12-01 16:57:59 1512165479.735295: $GPGSV,3,2,11,22,29,309,42,26,13,180,34,31,69,241,47,32,63,058,50*72
2017-12-01 16:57:59 1512165479.735362: $GPGSV,3,3,11,18,06,147,28,25,40,073,00,138,38,213,41*7D
2017-12-01 16:57:59 1512165479.848817: $GPZDA,215800.00,01,12,2017,00,00*6E
2017-12-01 16:57:59 1512165479.848983: $GPGGA,215800,3946.9635,N,08404.9771,W,2,10,1.20,299.40,M,-33.324,M,,*70
2017-12-01 16:57:59 1512165479.849074: $GPRMC,215800,A,3946.9635,N,08404.9771,W,0.0000,0.000,011217,,*34
2017-12-01 16:57:59 1512165479.849152: $GPGSA,A,3,1,3,10,11,22,26,31,32,18,138,,,2.0,1.2,1.5*00
2017-12-01 16:58:00 1512165480.403292: $GPZDA,215801.00,01,12,2017,00,00*6F
2017-12-01 16:58:00 1512165480.403479: $GPGGA,215801,3946.9639,N,08404.9771,W,2,10,1.20,300.04,M,-33.324,M,,*7C
2017-12-01 16:58:00 1512165480.403549: $GPRMC,215801,A,3946.9639,N,08404.9771,W,0.0000,0.000,011217,,*39
2017-12-01 16:58:00 1512165480.403612: $GPGSA,A,3,1,3,10,11,22,26,31,32,18,138,,,2.0,1.2,1.5*00
2017-12-01 16:58:01 1512165481.401569: $GPZDA,215802.00,01,12,2017,00,00*6C
2017-12-01 16:58:01 1512165481.401769: $GPGGA,215802,3946.9639,N,08404.9771,W,2,10,0.60,300.04,M,-33.324,M,,*7A
2017-12-01 16:58:01 1512165481.401837: $GPRMC,215802,A,3946.9639,N,08404.9771,W,0.0000,0.000,011217,,*3A
2017-12-01 16:58:01 1512165481.401916: $GPGSA,A,3,1,3,10,11,22,26,31,32,18,138,,,2.0,0.6,1.5*05
2017-12-01 16:58:01 1512165481.401976: $GPGBS,215802,2.67,M,3.86,M,8.82,M*3E
2017-12-01 16:58:02 1512165482.740444: $GPGSV,3,1,11,01,22,288,40,03,10,316,39,10,35,153,36,12,16,039,11*7B
2017-12-01 16:58:02 1512165482.740626: $GPGSV,3,2,11,22,29,309,42,26,13,180,35,31,69,241,46,32,63,058,50*72
2017-12-01 16:58:02 1512165482.740693: $GPGSV,3,3,11,18,06,147,28,11,04,271,41,138,38,213,41*7F
