2017-12-01 14:30:53 1512156653.417113: {"class":"VERSION","release":"3.16","rev":"3.16-4","proto_major":3,"proto_minor":11}
2017-12-01 14:30:53 1512156653.417521: {"class":"DEVICES","devices":[{"class":"DEVICE","path":"/dev/ttyUSB0","driver":"SiRF","subtype":"9\u0006GSD4e_4.1.2-P1_RPATCH.05-F-GPS-4R-1510281 11/03/2015 307","activated":"2017-12-01T19:30:53.400Z","flags":1,"native":1,"bps":4800,"parity":"N","stopbits":1,"cycle":1.00}]}
2017-12-01 14:30:53 1512156653.417637: {"class":"WATCH","enable":true,"json":false,"nmea":true,"raw":0,"scaled":false,"timing":false,"split24":false,"pps":false}
2017-12-01 14:30:54 1512156654.732016: $GPGSV,3,1,12,08,05,291,32,10,72,336,47,14,31,256,43,15,09,067,30*71
2017-12-01 14:30:54 1512156654.732232: $GPGSV,3,2,12,18,68,100,45,21,25,178,44,24,43,055,50,32,48,268,44*73
2017-12-01 14:30:54 1512156654.732300: $GPGSV,3,3,12,20,06,120,14,25,05,139,22,12,11,105,34,138,38,213,47*43
2017-12-01 14:30:54 1512156654.845377: $GPZDA,193055.00,01,12,2017,00,00*6B
2017-12-01 14:30:54 1512156654.845547: $GPGGA,193055,3946.9538,N,08404.9849,W,2,12,0.80,311.67,M,-33.324,M,,*72
2017-12-01 14:30:54 1512156654.845614: $GPRMC,193055,A,3946.9538,N,08404.9849,W,0.0000,0.000,011217,,*3B
2017-12-01 14:30:54 1512156654.845675: $GPGSA,A,3,8,10,14,15,18,21,24,32,20,25,12,138,2.0,0.8,1.5*35
2017-12-01 14:30:55 1512156655.470746: $GPZDA,193056.00,01,12,2017,00,00*68
2017-12-01 14:30:55 1512156655.470905: $GPGGA,193056,3946.9538,N,08404.9849,W,2,12,0.80,311.67,M,-33.324,M,,*71
2017-12-01 14:30:55 1512156655.470973: $GPRMC,193056,A,3946.9538,N,08404.9849,W,0.0000,0.000,011217,,*38
2017-12-01 14:30:55 1512156655.471062: $GPGSA,A,3,8,10,14,15,18,21,24,32,20,25,12,138,2.0,0.8,1.5*35
2017-12-01 14:30:56 1512156656.364405: $GPZDA,193057.00,01,12,2017,00,00*69
2017-12-01 14:30:56 1512156656.364576: $GPGGA,193057,3946.9538,N,08404.9849,W,2,12,0.80,311.67,M,-33.324,M,,*70
2017-12-01 14:30:56 1512156656.364643: $GPRMC,193057,A,3946.9538,N,08404.9849,W,0.0000,0.000,011217,,*39
2017-12-01 14:30:56 1512156656.364704: $GPGSA,A,3,8,10,14,15,18,21,24,32,20,25,12,138,2.0,0.8,1.5*35
2017-12-01 14:30:57 1512156657.696211: $GPGSV,3,1,12,08,05,291,27,10,72,336,47,14,31,256,43,15,09,067,30*75
2017-12-01 14:30:57 1512156657.696389: $GPGSV,3,2,12,18,68,100,45,21,25,178,45,24,43,055,50,32,48,268,44*72
2017-12-01 14:30:57 1512156657.696455: $GPGSV,3,3,12,20,06,120,14,25,05,139,22,12,11,105,34,138,38,213,47*43
2017-12-01 14:30:57 1512156657.809640: $GPZDA,193058.00,01,12,2017,00,00*66
2017-12-01 14:30:57 1512156657.809809: $GPGGA,193058,3946.9538,N,08404.9849,W,2,12,0.80,311.67,M,-33.324,M,,*7F
2017-12-01 14:30:57 1512156657.809875: $GPRMC,193058,A,3946.9538,N,08404.9849,W,0.0000,0.000,011217,,*36
2017-12-01 14:30:57 1512156657.809936: $GPGSA,A,3,8,10,14,15,18,21,24,32,20,25,12,138,2.0,0.8,1.5*35
2017-12-01 14:30:58 1512156658.359523: $GPZDA,193059.00,01,12,2017,00,00*67
2017-12-01 14:30:58 1512156658.359705: $GPGGA,193059,3946.9538,N,08404.9849,W,2,12,0.80,311.67,M,-33.324,M,,*7E
2017-12-01 14:30:58 1512156658.359773: $GPRMC,193059,A,3946.9538,N,08404.9849,W,0.0000,0.000,011217,,*37
2017-12-01 14:30:58 1512156658.359835: $GPGSA,A,3,8,10,14,15,18,21,24,32,20,25,12,138,2.0,0.8,1.5*35
2017-12-01 14:30:59 1512156659.397486: $GPZDA,193100.00,01,12,2017,00,00*6A
2017-12-01 14:30:59 1512156659.397681: $GPGGA,193100,3946.9538,N,08404.9849,W,2,12,0.80,311.67,M,-33.324,M,,*73
2017-12-01 14:30:59 1512156659.397751: $GPRMC,193100,A,3946.9538,N,08404.9849,W,0.0000,0.000,011217,,*3A
2017-12-01 14:30:59 1512156659.397813: $GPGSA,A,3,8,10,14,15,18,21,24,32,20,25,12,138,2.0,0.8,1.5*35
2017-12-01 14:31:00 1512156660.724008: $GPGSV,3,1,12,08,05,291,29,10,72,336,47,14,31,256,42,15,09,067,29*72
2017-12-01 14:31:00 1512156660.724211: $GPGSV,3,2,12,18,68,100,45,21,25,178,44,24,43,055,49,32,48,268,45*7A
2017-12-01 14:31:00 1512156660.724278: $GPGSV,3,3,12,20,06,120,15,25,05,139,23,12,11,105,34,138,38,213,47*43
2017-12-01 14:31:00 1512156660.837364: $GPZDA,193101.00,01,12,2017,00,00*6B
2017-12-01 14:31:00 1512156660.837537: $GPGGA,193101,3946.9538,N,08404.9849,W,2,12,0.80,311.67,M,-33.324,M,,*72
2017-12-01 14:31:00 1512156660.837657: $GPRMC,193101,A,3946.9538,N,08404.9849,W,0.0000,0.000,011217,,*3B
2017-12-01 14:31:00 1512156660.837720: $GPGSA,A,3,8,10,14,15,18,21,24,32,20,25,12,138,2.0,0.8,1.5*35
2017-12-01 14:31:01 1512156661.360737: $GPZDA,193102.00,01,12,2017,00,00*68
2017-12-01 14:31:01 1512156661.360915: $GPGGA,193102,3946.9538,N,08404.9849,W,2,12,0.80,311.67,M,-33.324,M,,*71
2017-12-01 14:31:01 1512156661.360984: $GPRMC,193102,A,3946.9538,N,08404.9849,W,0.0000,0.000,011217,,*38
2017-12-01 14:31:01 1512156661.361071: $GPGSA,A,3,8,10,14,15,18,21,24,32,20,25,12,138,2.0,0.8,1.5*35
2017-12-01 14:31:02 1512156662.396591: $GPZDA,193103.00,01,12,2017,00,00*69
2017-12-01 14:31:02 1512156662.396780: $GPGGA,193103,3946.9538,N,08404.9849,W,2,12,0.80,311.67,M,-33.324,M,,*70
2017-12-01 14:31:02 1512156662.396847: $GPRMC,193103,A,3946.9538,N,08404.9849,W,0.0000,0.000,011217,,*39
2017-12-01 14:31:02 1512156662.396909: $GPGSA,A,3,8,10,14,15,18,21,24,32,20,25,12,138,2.0,0.8,1.5*35
2017-12-01 14:31:03 1512156663.696240: $GPGSV,3,1,12,08,05,291,29,10,72,336,47,14,31,256,43,15,09,067,27*7D
2017-12-01 14:31:03 1512156663.708378: $GPGSV,3,2,12,18,68,100,45,21,25,178,44,24,43,055,49,32,48,268,45*7A
2017-12-01 14:31:03 1512156663.708507: $GPGSV,3,3,12,20,06,120,14,25,05,139,23,12,11,105,34,138,38,213,46*43
2017-12-01 14:31:03 1512156663.809639: $GPZDA,193104.00,01,12,2017,00,00*6E
2017-12-01 14:31:03 1512156663.810024: $GPGGA,193104,3946.9538,N,08404.9849,W,2,12,0.80,311.67,M,-33.324,M,,*77
2017-12-01 14:31:03 1512156663.810098: $GPRMC,193104,A,3946.9538,N,08404.9849,W,0.0000,0.000,011217,,*3E
2017-12-01 14:31:03 1512156663.810176: $GPGSA,A,3,8,10,14,15,18,21,24,32,20,25,12,138,2.0,0.8,1.5*35
2017-12-01 14:31:04 1512156664.361905: $GPZDA,193105.00,01,12,2017,00,00*6F
2017-12-01 14:31:04 1512156664.362063: $GPGGA,193105,3946.9538,N,08404.9849,W,2,12,0.80,311.67,M,-33.324,M,,*76
2017-12-01 14:31:04 1512156664.362131: $GPRMC,193105,A,3946.9538,N,08404.9849,W,0.0000,0.000,011217,,*3F
2017-12-01 14:31:04 1512156664.362211: $GPGSA,A,3,8,10,14,15,18,21,24,32,20,25,12,138,2.0,0.8,1.5*35
2017-12-01 14:31:05 1512156665.399901: $GPZDA,193106.00,01,12,2017,00,00*6C
2017-12-01 14:31:05 1512156665.400087: $GPGGA,193106,3946.9538,N,08404.9849,W,2,12,0.80,311.67,M,-33.324,M,,*75
2017-12-01 14:31:05 1512156665.400183: $GPRMC,193106,A,3946.9538,N,08404.9849,W,0.0000,0.000,011217,,*3C
2017-12-01 14:31:05 1512156665.400246: $GPGSA,A,3,8,10,14,15,18,21,24,32,20,25,12,138,2.0,0.8,1.5*35
2017-12-01 14:31:06 1512156666.700243: $GPGSV,3,1,12,08,05,291,28,10,72,336,48,14,31,256,42,15,09,067,28*7D
2017-12-01 14:31:06 1512156666.700428: $GPGSV,3,2,12,18,68,100,45,21,25,178,44,24,43,055,49,32,48,268,45*7A
2017-12-01 14:31:06 1512156666.700494: $GPGSV,3,3,12,20,06,120,16,25,05,139,24,12,11,105,34,138,38,213,46*46
2017-12-01 14:31:06 1512156666.812669: $GPZDA,193107.00,01,12,2017,00,00*6D
2017-12-01 14:31:06 1512156666.812843: $GPGGA,193107,3946.9538,N,08404.9849,W,2,12,0.80,311.67,M,-33.324,M,,*74
2017-12-01 14:31:06 1512156666.812910: $GPRMC,193107,A,3946.9538,N,08404.9849,W,0.0000,0.000,011217,,*3D
2017-12-01 14:31:06 1512156666.812972: $GPGSA,A,3,8,10,14,15,18,21,24,32,20,25,12,138,2.0,0.8,1.5*35
2017-12-01 14:31:07 1512156667.477242: $GPZDA,193108.00,01,12,2017,00,00*62
2017-12-01 14:31:07 1512156667.477443: $GPGGA,193108,3946.9538,N,08404.9849,W,2,12,0.80,311.67,M,-33.324,M,,*7B
2017-12-01 14:31:07 1512156667.477512: $GPRMC,193108,A,3946.9538,N,08404.9849,W,0.0000,0.000,011217,,*32
2017-12-01 14:31:07 1512156667.477573: $GPGSA,A,3,8,10,14,15,18,21,24,32,20,25,12,138,2.0,0.8,1.5*35
2017-12-01 14:31:07 1512156667.477632: $GPGBS,193108,2.67,M,3.86,M,8.82,M*30
2017-12-01 14:31:08 1512156668.394608: $GPZDA,193109.00,01,12,2017,00,00*63
2017-12-01 14:31:08 1512156668.394781: $GPGGA,193109,3946.9538,N,08404.9849,W,2,12,0.80,311.67,M,-33.324,M,,*7A
2017-12-01 14:31:08 1512156668.394848: $GPRMC,193109,A,3946.9538,N,08404.9849,W,0.0000,0.000,011217,,*33
2017-12-01 14:31:08 1512156668.394910: $GPGSA,A,3,8,10,14,15,18,21,24,32,20,25,12,138,2.0,0.8,1.5*35
2017-12-01 14:31:08 1512156668.395045: $GPGBS,193109,2.67,M,3.86,M,8.82,M*31
2017-12-01 14:31:09 1512156669.696361: $GPGSV,3,1,12,08,05,291,22,10,72,336,47,14,31,256,43,15,09,067,28*79
2017-12-01 14:31:09 1512156669.696545: $GPGSV,3,2,12,18,68,100,45,21,25,178,44,24,43,055,49,32,48,268,45*7A
2017-12-01 14:31:09 1512156669.696612: $GPGSV,3,3,12,20,06,120,22,25,05,139,24,12,11,105,34,138,38,213,47*40
2017-12-01 14:31:09 1512156669.809737: $GPZDA,193110.00,01,12,2017,00,00*6B
2017-12-01 14:31:09 1512156669.809908: $GPGGA,193110,3946.9538,N,08404.9849,W,2,12,0.80,311.67,M,-33.324,M,,*72
2017-12-01 14:31:09 1512156669.809976: $GPRMC,193110,A,3946.9538,N,08404.9849,W,0.0000,0.000,011217,,*3B
2017-12-01 14:31:09 1512156669.810062: $GPGSA,A,3,8,10,14,15,18,21,24,32,20,25,12,138,2.0,0.8,1.5*35
2017-12-01 14:31:10 1512156670.436764: $GPZDA,193111.00,01,12,2017,00,00*6A
2017-12-01 14:31:10 1512156670.436936: $GPGGA,193111,3946.9538,N,08404.9849,W,2,12,0.80,311.67,M,-33.324,M,,*73
2017-12-01 14:31:10 1512156670.437003: $GPRMC,193111,A,3946.9538,N,08404.9849,W,0.0000,0.000,011217,,*3A
2017-12-01 14:31:10 1512156670.437064: $GPGSA,A,3,8,10,14,15,18,21,24,32,20,25,12,138,2.0,0.8,1.5*35
2017-12-01 14:31:11 1512156671.398824: $GPZDA,193112.00,01,12,2017,00,00*69
2017-12-01 14:31:11 1512156671.398998: $GPGGA,193112,3946.9538,N,08404.9849,W,2,12,1.00,311.67,M,-33.324,M,,*79
2017-12-01 14:31:11 1512156671.399065: $GPRMC,193112,A,3946.9538,N,08404.9849,W,0.0000,0.000,011217,,*39
2017-12-01 14:31:11 1512156671.399126: $GPGSA,A,3,8,10,14,15,18,21,24,32,20,25,12,138,2.0,1.0,1.5*3C
2017-12-01 14:31:12 1512156672.734232: $GPGSV,3,1,12,08,05,291,18,10,72,336,47,14,31,256,43,27,05,258,22*79
2017-12-01 14:31:12 1512156672.734393: $GPGSV,3,2,12,18,68,100,45,21,25,178,44,24,43,055,50,32,48,268,45*72
2017-12-01 14:31:12 1512156672.734459: $GPGSV,3,3,12,20,06,120,22,25,05,139,23,12,11,105,34,138,38,213,47*47
2017-12-01 14:31:12 1512156672.847617: $GPZDA,193113.00,01,12,2017,00,00*68
2017-12-01 14:31:12 1512156672.847795: $GPGGA,193113,3946.9538,N,08404.9849,W,2,12,1.00,311.67,M,-33.324,M,,*78
2017-12-01 14:31:12 1512156672.847863: $GPRMC,193113,A,3946.9538,N,08404.9849,W,0.0000,0.000,011217,,*38
2017-12-01 14:31:12 1512156672.847924: $GPGSA,A,3,8,10,14,27,18,21,24,32,20,25,12,138,2.0,1.0,1.5*3D
2017-12-01 14:31:13 1512156673.408446: $GPZDA,193114.00,01,12,2017,00,00*6F
2017-12-01 14:31:13 1512156673.408624: $GPGGA,193114,3946.9538,N,08404.9849,W,2,12,1.00,311.67,M,-33.324,M,,*7F
2017-12-01 14:31:13 1512156673.408692: $GPRMC,193114,A,3946.9538,N,08404.9849,W,0.0000,0.000,011217,,*3F
2017-12-01 14:31:13 1512156673.408752: $GPGSA,A,3,8,10,14,27,18,21,24,32,20,25,12,138,2.0,1.0,1.5*3D
2017-12-01 14:31:14 1512156674.363203: $GPZDA,193115.00,01,12,2017,00,00*6E
2017-12-01 14:31:14 1512156674.363375: $GPGGA,193115,3946.9538,N,08404.9849,W,2,12,1.00,311.67,M,-33.324,M,,*7E
2017-12-01 14:31:14 1512156674.363462: $GPRMC,193115,A,3946.9538,N,08404.9849,W,0.0000,0.000,011217,,*3E
2017-12-01 14:31:14 1512156674.363524: $GPGSA,A,3,8,10,14,27,18,21,24,32,20,25,12,138,2.0,1.0,1.5*3D
2017-12-01 14:31:15 1512156675.695834: $GPGSV,3,1,12,08,05,291,23,10,72,336,47,14,31,256,43,27,05,258,22*71
2017-12-01 14:31:15 1512156675.696045: $GPGSV,3,2,12,18,68,100,45,21,25,178,45,24,43,055,50,32,48,268,45*73
2017-12-01 14:31:15 1512156675.696140: $GPGSV,3,3,12,20,06,120,22,25,05,139,23,12,11,105,33,138,38,213,46*41
2017-12-01 14:31:15 1512156675.809914: $GPZDA,193116.00,01,12,2017,00,00*6D
2017-12-01 14:31:15 1512156675.810156: $GPGGA,193116,3946.9538,N,08404.9849,W,2,12,1.00,311.67,M,-33.324,M,,*7D
2017-12-01 14:31:15 1512156675.810225: $GPRMC,193116,A,3946.9538,N,08404.9849,W,0.0000,0.000,011217,,*3D
2017-12-01 14:31:15 1512156675.810305: $GPGSA,A,3,8,10,14,27,18,21,24,32,20,25,12,138,2.0,1.0,1.5*3D
2017-12-01 14:31:16 1512156676.365944: $GPZDA,193117.00,01,12,2017,00,00*6C
2017-12-01 14:31:16 1512156676.366435: $GPGGA,193117,3946.9538,N,08404.9849,W,2,12,1.00,311.67,M,-33.324,M,,*7C
2017-12-01 14:31:16 1512156676.366566: $GPRMC,193117,A,3946.9538,N,08404.9849,W,0.0000,0.000,011217,,*3C
2017-12-01 14:31:16 1512156676.366631: $GPGSA,A,3,8,10,14,27,18,21,24,32,20,25,12,138,2.0,1.0,1.5*3D
2017-12-01 14:31:17 1512156677.360273: $GPZDA,193118.00,01,12,2017,00,00*63
2017-12-01 14:31:17 1512156677.360455: $GPGGA,193118,3946.9538,N,08404.9849,W,2,12,1.00,311.67,M,-33.324,M,,*73
2017-12-01 14:31:17 1512156677.360541: $GPRMC,193118,A,3946.9538,N,08404.9849,W,0.0000,0.000,011217,,*33
2017-12-01 14:31:17 1512156677.360604: $GPGSA,A,3,8,10,14,27,18,21,24,32,20,25,12,138,2.0,1.0,1.5*3D
