2017-11-16 16:41:04 1510868464.052208: {"class":"VERSION","release":"3.17","rev":"3.17","proto_major":3,"proto_minor":12}
2017-11-16 16:41:04 1510868464.052678: {"class":"DEVICES","devices":[{"class":"DEVICE","path":"/dev/ttyUSB0","driver":"SiRF","subtype":"9\u0006GSD4e_4.1.2-P1_RPATCH.05-F-GPS-4R-1510281 11/03/2015 307","activated":"2017-11-16T21:41:03.592Z","flags":1,"native":1,"bps":4800,"parity":"N","stopbits":1,"cycle":1.00}]}
2017-11-16 16:41:04 1510868464.052795: {"class":"WATCH","enable":true,"json":false,"nmea":true,"raw":0,"scaled":false,"timing":false,"split24":false,"pps":false}
2017-11-16 16:41:04 1510868464.451900: $GPZDA,214103.00,16,11,2017,00,00*60
2017-11-16 16:41:04 1510868464.458785: $GPGGA,214103,3946.9582,N,08404.9820,W,2,11,0.80,303.37,M,-33.324,M,,*77
2017-11-16 16:41:04 1510868464.458896: $GPRMC,214103,A,3946.9582,N,08404.9820,W,0.0000,0.000,161117,,*3E
2017-11-16 16:41:04 1510868464.458956: $GPGSA,A,3,1,10,11,12,14,18,24,25,31,32,138,,1.6,0.8,1.3*38
2017-11-16 16:41:05 1510868465.770397: $GPGSV,3,1,11,01,12,321,40,10,73,127,47,11,10,303,40,12,25,075,48*70
2017-11-16 16:41:05 1510868465.770561: $GPGSV,3,2,11,14,53,288,42,18,40,133,46,24,16,045,49,25,28,117,44*76
2017-11-16 16:41:05 1510868465.770622: $GPGSV,3,3,11,31,31,211,45,32,67,321,50,138,38,213,45*7F
2017-11-16 16:41:05 1510868465.883598: $GPZDA,214104.00,16,11,2017,00,00*67
2017-11-16 16:41:05 1510868465.883812: $GPGGA,214104,3946.9582,N,08404.9820,W,2,11,0.80,303.37,M,-33.324,M,,*70
2017-11-16 16:41:05 1510868465.883875: $GPRMC,214104,A,3946.9582,N,08404.9820,W,0.0000,0.000,161117,,*39
2017-11-16 16:41:05 1510868465.883932: $GPGSA,A,3,1,10,11,12,14,18,24,25,31,32,138,,1.6,0.8,1.3*38
2017-11-16 16:41:06 1510868466.509019: $GPZDA,214105.00,16,11,2017,00,00*66
2017-11-16 16:41:06 1510868466.509199: $GPGGA,214105,3946.9582,N,08404.9820,W,2,11,0.80,303.37,M,-33.324,M,,*71
2017-11-16 16:41:06 1510868466.509261: $GPRMC,214105,A,3946.9582,N,08404.9820,W,0.0000,0.000,161117,,*38
2017-11-16 16:41:06 1510868466.509332: $GPGSA,A,3,1,10,11,12,14,18,24,25,31,32,138,,1.6,0.8,1.3*38
2017-11-16 16:41:07 1510868467.451114: $GPZDA,214106.00,16,11,2017,00,00*65
2017-11-16 16:41:07 1510868467.451278: $GPGGA,214106,3946.9582,N,08404.9820,W,2,11,0.80,303.37,M,-33.324,M,,*72
2017-11-16 16:41:07 1510868467.451339: $GPRMC,214106,A,3946.9582,N,08404.9820,W,0.0000,0.000,161117,,*3B
2017-11-16 16:41:07 1510868467.451395: $GPGSA,A,3,1,10,11,12,14,18,24,25,31,32,138,,1.6,0.8,1.3*38
2017-11-16 16:41:08 1510868468.785644: $GPGSV,3,1,11,01,12,321,39,10,73,127,47,11,10,303,39,12,25,075,47*7F
2017-11-16 16:41:08 1510868468.785847: $GPGSV,3,2,11,14,53,288,42,18,40,133,45,24,16,045,49,25,28,117,44*75
2017-11-16 16:41:08 1510868468.785909: $GPGSV,3,3,11,31,31,211,45,32,67,321,50,138,38,213,44*7E
2017-11-16 16:41:08 1510868468.899183: $GPZDA,214107.00,16,11,2017,00,00*64
2017-11-16 16:41:08 1510868468.899364: $GPGGA,214107,3946.9582,N,08404.9820,W,2,11,0.80,303.37,M,-33.324,M,,*73
2017-11-16 16:41:08 1510868468.899425: $GPRMC,214107,A,3946.9582,N,08404.9820,W,0.0000,0.000,161117,,*3A
2017-11-16 16:41:08 1510868468.899481: $GPGSA,A,3,1,10,11,12,14,18,24,25,31,32,138,,1.6,0.8,1.3*38
2017-11-16 16:41:09 1510868469.451263: $GPZDA,214108.00,16,11,2017,00,00*6B
2017-11-16 16:41:09 1510868469.457452: $GPGGA,214108,3946.9582,N,08404.9820,W,2,11,0.80,303.37,M,-33.324,M,,*7C
2017-11-16 16:41:09 1510868469.457683: $GPRMC,214108,A,3946.9582,N,08404.9820,W,0.0000,0.000,161117,,*35
2017-11-16 16:41:09 1510868469.457816: $GPGSA,A,3,1,10,11,12,14,18,24,25,31,32,138,,1.6,0.8,1.3*38
2017-11-16 16:41:10 1510868470.450903: $GPZDA,214109.00,16,11,2017,00,00*6A
2017-11-16 16:41:10 1510868470.451071: $GPGGA,214109,3946.9582,N,08404.9820,W,2,11,0.80,303.37,M,-33.324,M,,*7D
2017-11-16 16:41:10 1510868470.451132: $GPRMC,214109,A,3946.9582,N,08404.9820,W,0.0000,0.000,161117,,*34
2017-11-16 16:41:10 1510868470.451188: $GPGSA,A,3,1,10,11,12,14,18,24,25,31,32,138,,1.6,0.8,1.3*38
2017-11-16 16:41:11 1510868471.787595: $GPGSV,3,1,11,01,12,321,39,10,73,127,48,11,10,303,38,12,25,075,47*71
2017-11-16 16:41:11 1510868471.787835: $GPGSV,3,2,11,14,53,288,42,18,40,133,45,24,16,045,50,25,28,117,44*7D
2017-11-16 16:41:11 1510868471.787914: $GPGSV,3,3,11,31,31,211,45,32,67,321,50,138,38,213,44*7E
2017-11-16 16:41:11 1510868471.900858: $GPZDA,214110.00,16,11,2017,00,00*62
2017-11-16 16:41:11 1510868471.901039: $GPGGA,214110,3946.9582,N,08404.9820,W,2,11,0.80,303.37,M,-33.324,M,,*75
2017-11-16 16:41:11 1510868471.901100: $GPRMC,214110,A,3946.9582,N,08404.9820,W,0.0000,0.000,161117,,*3C
2017-11-16 16:41:11 1510868471.901156: $GPGSA,A,3,1,10,11,12,14,18,24,25,31,32,138,,1.6,0.8,1.3*38
2017-11-16 16:41:12 1510868472.438667: $GPZDA,214111.00,16,11,2017,00,00*63
2017-11-16 16:41:12 1510868472.438872: $GPGGA,214111,3946.9582,N,08404.9820,W,2,11,0.80,303.37,M,-33.324,M,,*74
2017-11-16 16:41:12 1510868472.438952: $GPRMC,214111,A,3946.9582,N,08404.9820,W,0.0000,0.000,161117,,*3D
2017-11-16 16:41:12 1510868472.439008: $GPGSA,A,3,1,10,11,12,14,18,24,25,31,32,138,,1.6,0.8,1.3*38
2017-11-16 16:41:13 1510868473.434305: $GPZDA,214112.00,16,11,2017,00,00*60
2017-11-16 16:41:13 1510868473.434464: $GPGGA,214112,3946.9582,N,08404.9820,W,2,11,0.80,303.37,M,-33.324,M,,*77
2017-11-16 16:41:13 1510868473.434525: $GPRMC,214112,A,3946.9582,N,08404.9820,W,0.0000,0.000,161117,,*3E
2017-11-16 16:41:13 1510868473.434580: $GPGSA,A,3,1,10,11,12,14,18,24,25,31,32,138,,1.6,0.8,1.3*38
