2017-12-14 12:12:44 1513271564.126628: {"class":"VERSION","release":"3.16","rev":"3.16-4","proto_major":3,"proto_minor":11}
2017-12-14 12:12:44 1513271564.127026: {"class":"DEVICES","devices":[{"class":"DEVICE","path":"/dev/ttyUSB0","driver":"SiRF","subtype":"9\u0006GSD4e_4.1.2-P1_RPATCH.05-F-GPS-4R-1510281 11/03/2015 307","activated":"2017-12-14T17:12:43.350Z","flags":1,"native":1,"bps":4800,"parity":"N","stopbits":1,"cycle":1.00}]}
2017-12-14 12:12:44 1513271564.127141: {"class":"WATCH","enable":true,"json":false,"nmea":true,"raw":0,"scaled":false,"timing":false,"split24":false,"pps":false}
2017-12-14 12:12:44 1513271564.209060: $GPZDA,171245.00,14,12,2017,00,00*60
2017-12-14 12:12:44 1513271564.209210: $GPGGA,171245,3946.9541,N,08404.9497,W,1,07,1.40,375.13,M,-33.324,M,,*77
2017-12-14 12:12:44 1513271564.209277: $GPRMC,171245,A,3946.9541,N,08404.9497,W,0.5274,236.960,141217,,*3D
2017-12-14 12:12:44 1513271564.209369: $GPGSA,A,3,10,15,18,20,24,32,21,,,,,,6.6,1.4,6.2*39
2017-12-14 12:12:45 1513271565.546504: $GPGSV,3,1,12,10,39,300,22,15,40,051,20,18,69,331,19,20,36,093,20*76
2017-12-14 12:12:45 1513271565.546679: $GPGSV,3,2,12,24,49,114,25,32,19,237,13,21,65,190,20,13,10,048,00*7B
2017-12-14 12:12:45 1513271565.546746: $GPGSV,3,3,12,27,19,292,10,08,05,324,00,14,02,231,00,138,38,213,00*41
2017-12-14 12:12:45 1513271565.659899: $GPZDA,171246.00,14,12,2017,00,00*63
2017-12-14 12:12:45 1513271565.660093: $GPGGA,171246,3946.9542,N,08404.9488,W,1,07,1.40,371.63,M,-33.324,M,,*7A
2017-12-14 12:12:45 1513271565.660161: $GPRMC,171246,A,3946.9542,N,08404.9488,W,0.3945,166.605,141217,,*36
2017-12-14 12:12:45 1513271565.660222: $GPGSA,A,3,10,15,18,20,24,32,21,,,,,,6.6,1.4,6.2*39
2017-12-14 12:12:46 1513271566.210047: $GPZDA,171247.00,14,12,2017,00,00*62
2017-12-14 12:12:46 1513271566.210242: $GPGGA,171247,3946.9545,N,08404.9487,W,1,07,1.40,369.46,M,-33.324,M,,*7D
2017-12-14 12:12:46 1513271566.210332: $GPRMC,171247,A,3946.9545,N,08404.9487,W,0.1176,219.707,141217,,*3D
2017-12-14 12:12:46 1513271566.210396: $GPGSA,A,3,10,15,18,20,24,32,21,,,,,,6.6,1.4,6.2*39
2017-12-14 12:12:47 1513271567.210238: $GPZDA,171248.00,14,12,2017,00,00*6D
2017-12-14 12:12:47 1513271567.210409: $GPGGA,171248,3946.9548,N,08404.9479,W,1,07,1.40,368.78,M,-33.324,M,,*72
2017-12-14 12:12:47 1513271567.210475: $GPRMC,171248,A,3946.9548,N,08404.9479,W,0.2710,280.223,141217,,*38
2017-12-14 12:12:47 1513271567.210536: $GPGSA,A,3,10,15,18,20,24,32,21,,,,,,6.6,1.4,6.2*39
2017-12-14 12:12:48 1513271568.546054: $GPGSV,3,1,12,10,39,300,22,15,40,051,20,18,69,331,19,20,36,093,20*76
2017-12-14 12:12:48 1513271568.546250: $GPGSV,3,2,12,24,49,114,25,32,19,237,11,21,65,190,19,27,19,292,00*78
2017-12-14 12:12:48 1513271568.546323: $GPGSV,3,3,12,13,10,048,00,08,05,324,00,14,02,231,00,138,38,213,00*4B
2017-12-14 12:12:48 1513271568.659431: $GPZDA,171249.00,14,12,2017,00,00*6C
2017-12-14 12:12:48 1513271568.659600: $GPGGA,171249,3946.9553,N,08404.9486,W,1,07,1.40,369.34,M,-33.324,M,,*70
2017-12-14 12:12:48 1513271568.659666: $GPRMC,171249,A,3946.9553,N,08404.9486,W,1.0354,317.462,141217,,*38
2017-12-14 12:12:48 1513271568.659726: $GPGSA,A,3,10,15,18,20,24,32,21,,,,,,6.6,1.4,6.2*39
2017-12-14 12:12:49 1513271569.210741: $GPZDA,171250.00,14,12,2017,00,00*64
2017-12-14 12:12:49 1513271569.210915: $GPGGA,171250,3946.9549,N,08404.9480,W,1,07,1.40,370.18,M,-33.324,M,,*73
2017-12-14 12:12:49 1513271569.210981: $GPRMC,171250,A,3946.9549,N,08404.9480,W,0.7153,2.007,141217,,*3E
2017-12-14 12:12:49 1513271569.211041: $GPGSA,A,3,10,15,18,20,24,32,21,,,,,,6.6,1.4,6.2*39
2017-12-14 12:12:50 1513271570.210872: $GPZDA,171251.00,14,12,2017,00,00*65
2017-12-14 12:12:50 1513271570.211039: $GPGGA,171251,3946.9553,N,08404.9480,W,1,07,1.40,370.82,M,-33.324,M,,*7A
2017-12-14 12:12:50 1513271570.211104: $GPRMC,171251,A,3946.9553,N,08404.9480,W,0.5857,338.291,141217,,*3C
2017-12-14 12:12:50 1513271570.211165: $GPGSA,A,3,10,15,18,20,24,32,21,,,,,,6.6,1.4,6.2*39
2017-12-14 12:12:51 1513271571.547086: $GPGSV,3,1,12,10,39,300,22,15,40,051,20,18,69,331,20,20,36,093,19*76
2017-12-14 12:12:51 1513271571.547248: $GPGSV,3,2,12,24,49,114,25,32,19,237,09,21,65,190,19,27,19,292,00*71
2017-12-14 12:12:51 1513271571.547356: $GPGSV,3,3,12,13,10,048,00,08,05,324,00,14,02,231,00,138,38,213,00*4B
2017-12-14 12:12:51 1513271571.659130: $GPZDA,171252.00,14,12,2017,00,00*66
2017-12-14 12:12:51 1513271571.659273: $GPGGA,171252,3946.9553,N,08404.9480,W,1,07,1.40,370.82,M,-33.324,M,,*79
2017-12-14 12:12:51 1513271571.659339: $GPRMC,171252,A,3946.9553,N,08404.9480,W,0.0000,0.000,141217,,*32
2017-12-14 12:12:51 1513271571.659399: $GPGSA,A,3,10,15,18,20,24,32,21,,,,,,6.6,1.4,6.2*39
2017-12-14 12:12:52 1513271572.210808: $GPZDA,171253.00,14,12,2017,00,00*67
2017-12-14 12:12:52 1513271572.210975: $GPGGA,171253,3946.9550,N,08404.9480,W,1,07,1.40,371.59,M,-33.324,M,,*7C
2017-12-14 12:12:52 1513271572.211040: $GPRMC,171253,A,3946.9550,N,08404.9480,W,0.5306,294.352,141217,,*3B
2017-12-14 12:12:52 1513271572.211102: $GPGSA,A,3,10,15,18,20,24,32,21,,,,,,6.6,1.4,6.2*39
2017-12-14 12:12:53 1513271573.210156: $GPZDA,171254.00,14,12,2017,00,00*60
2017-12-14 12:12:53 1513271573.210327: $GPGGA,171254,3946.9546,N,08404.9481,W,1,07,1.40,372.35,M,-33.324,M,,*74
2017-12-14 12:12:53 1513271573.210393: $GPRMC,171254,A,3946.9546,N,08404.9481,W,0.3155,309.994,141217,,*3D
2017-12-14 12:12:53 1513271573.210453: $GPGSA,A,3,10,15,18,20,24,32,21,,,,,,6.6,1.4,6.2*39
2017-12-14 12:12:54 1513271574.547591: $GPGSV,3,1,12,10,39,300,23,15,40,051,20,18,69,331,20,20,36,093,19*77
2017-12-14 12:12:54 1513271574.558839: $GPGSV,3,2,12,24,49,114,25,32,19,237,08,21,65,190,19,27,19,292,00*70
2017-12-14 12:12:54 1513271574.558955: $GPGSV,3,3,12,13,10,048,00,08,05,324,00,14,02,231,00,138,38,213,00*4B
2017-12-14 12:12:54 1513271574.661199: $GPZDA,171255.00,14,12,2017,00,00*61
2017-12-14 12:12:54 1513271574.661365: $GPGGA,171255,3946.9550,N,08404.9481,W,1,07,1.40,372.99,M,-33.324,M,,*74
2017-12-14 12:12:54 1513271574.661430: $GPRMC,171255,A,3946.9550,N,08404.9481,W,0.1867,0.000,141217,,*3F
2017-12-14 12:12:54 1513271574.661490: $GPGSA,A,3,10,15,18,20,24,32,21,,,,,,6.6,1.4,6.2*39
2017-12-14 12:12:55 1513271575.209891: $GPZDA,171256.00,14,12,2017,00,00*62
2017-12-14 12:12:55 1513271575.210067: $GPGGA,171256,3946.9551,N,08404.9482,W,1,07,1.40,374.40,M,-33.324,M,,*77
2017-12-14 12:12:55 1513271575.210132: $GPRMC,171256,A,3946.9551,N,08404.9482,W,0.5306,294.352,141217,,*3D
2017-12-14 12:12:55 1513271575.210194: $GPGSA,A,3,10,15,18,20,24,32,21,,,,,,6.6,1.4,6.2*39
2017-12-14 12:12:56 1513271576.211280: $GPZDA,171257.00,14,12,2017,00,00*63
2017-12-14 12:12:56 1513271576.211440: $GPGGA,171257,3946.9555,N,08404.9482,W,1,07,1.40,375.04,M,-33.324,M,,*73
2017-12-14 12:12:56 1513271576.211505: $GPRMC,171257,A,3946.9555,N,08404.9482,W,0.8763,328.465,141217,,*37
2017-12-14 12:12:56 1513271576.211566: $GPGSA,A,3,10,15,18,20,24,32,21,,,,,,6.6,1.4,6.2*39
2017-12-14 12:12:57 1513271577.546256: $GPGSV,3,1,12,10,39,300,22,15,40,051,20,18,69,331,20,20,36,093,18*77
2017-12-14 12:12:57 1513271577.546440: $GPGSV,3,2,12,24,49,114,25,32,19,237,10,21,65,190,19,27,19,292,00*79
2017-12-14 12:12:57 1513271577.546505: $GPGSV,3,3,12,13,10,048,00,08,05,324,00,14,02,231,00,138,38,213,00*4B
2017-12-14 12:12:57 1513271577.659653: $GPZDA,171258.00,14,12,2017,00,00*6C
2017-12-14 12:12:57 1513271577.659900: $GPGGA,171258,3946.9555,N,08404.9482,W,1,07,1.40,375.04,M,-33.324,M,,*7C
2017-12-14 12:12:57 1513271577.659971: $GPRMC,171258,A,3946.9555,N,08404.9482,W,0.5287,2.716,141217,,*36
2017-12-14 12:12:57 1513271577.660033: $GPGSA,A,3,10,15,18,20,24,32,21,,,,,,6.6,1.4,6.2*39
2017-12-14 12:12:58 1513271578.210802: $GPZDA,171259.00,14,12,2017,00,00*6D
2017-12-14 12:12:58 1513271578.210968: $GPGGA,171259,3946.9559,N,08404.9475,W,1,07,1.40,375.76,M,-33.324,M,,*7C
2017-12-14 12:12:58 1513271578.211033: $GPRMC,171259,A,3946.9559,N,08404.9475,W,0.7103,45.706,141217,,*0C
2017-12-14 12:12:58 1513271578.211094: $GPGSA,A,3,10,15,18,20,24,32,21,,,,,,6.6,1.4,6.2*39
2017-12-14 12:12:59 1513271579.209598: $GPZDA,171300.00,14,12,2017,00,00*60
2017-12-14 12:12:59 1513271579.209768: $GPGGA,171300,3946.9563,N,08404.9475,W,1,07,1.40,376.40,M,-33.324,M,,*7E
2017-12-14 12:12:59 1513271579.209888: $GPRMC,171300,A,3946.9563,N,08404.9475,W,1.2132,3.552,141217,,*3F
2017-12-14 12:12:59 1513271579.209951: $GPGSA,A,3,10,15,18,20,24,32,21,,,,,,6.6,1.4,6.2*39
2017-12-14 12:13:00 1513271580.545569: $GPGSV,3,1,12,10,39,300,23,15,40,051,20,18,69,331,20,20,36,093,18*76
2017-12-14 12:13:00 1513271580.545750: $GPGSV,3,2,12,24,49,114,26,32,19,237,10,21,65,190,20,27,19,292,00*70
2017-12-14 12:13:00 1513271580.545816: $GPGSV,3,3,12,13,10,048,00,08,05,324,00,14,02,231,00,138,38,213,00*4B
2017-12-14 12:13:00 1513271580.658956: $GPZDA,171301.00,14,12,2017,00,00*61
2017-12-14 12:13:00 1513271580.659125: $GPGGA,171301,3946.9563,N,08404.9475,W,1,07,1.40,376.40,M,-33.324,M,,*7F
2017-12-14 12:13:00 1513271580.659190: $GPRMC,171301,A,3946.9563,N,08404.9475,W,1.2361,14.852,141217,,*01
2017-12-14 12:13:00 1513271580.659270: $GPGSA,A,3,10,15,18,20,24,32,21,,,,,,6.6,1.4,6.2*39
2017-12-14 12:13:01 1513271581.213226: $GPZDA,171302.00,14,12,2017,00,00*62
2017-12-14 12:13:01 1513271581.213405: $GPGGA,171302,3946.9563,N,08404.9468,W,1,07,1.40,376.47,M,-33.324,M,,*77
2017-12-14 12:13:01 1513271581.213472: $GPRMC,171302,A,3946.9563,N,08404.9468,W,0.7103,45.706,141217,,*06
2017-12-14 12:13:01 1513271581.213534: $GPGSA,A,3,10,15,18,20,24,32,21,,,,,,6.6,1.4,6.2*39
2017-12-14 12:13:02 1513271582.210711: $GPZDA,171303.00,14,12,2017,00,00*63
2017-12-14 12:13:02 1513271582.210909: $GPGGA,171303,3946.9567,N,08404.9468,W,1,07,1.40,377.11,M,-33.324,M,,*70
2017-12-14 12:13:02 1513271582.210975: $GPRMC,171303,A,3946.9567,N,08404.9468,W,0.2959,54.768,141217,,*09
2017-12-14 12:13:02 1513271582.211037: $GPGSA,A,3,10,15,18,20,24,32,21,,,,,,6.6,1.4,6.2*39
2017-12-14 12:13:03 1513271583.546186: $GPGSV,3,1,12,10,39,300,22,15,40,051,20,18,69,331,19,20,36,093,18*7D
2017-12-14 12:13:03 1513271583.546372: $GPGSV,3,2,12,24,49,114,26,32,19,237,13,21,65,190,21,27,19,292,00*72
2017-12-14 12:13:03 1513271583.546436: $GPGSV,3,3,12,13,10,048,00,08,05,324,00,14,02,231,00,138,38,213,00*4B
2017-12-14 12:13:03 1513271583.659559: $GPZDA,171304.00,14,12,2017,00,00*64
2017-12-14 12:13:03 1513271583.659724: $GPGGA,171304,3946.9567,N,08404.9468,W,1,07,1.40,377.11,M,-33.324,M,,*77
2017-12-14 12:13:03 1513271583.659791: $GPRMC,171304,A,3946.9567,N,08404.9468,W,0.7621,287.945,141217,,*36
2017-12-14 12:13:03 1513271583.659852: $GPGSA,A,3,10,15,18,20,24,32,21,,,,,,6.6,1.4,6.2*39
