2017-11-16 14:08:22 1510859302.787171: {"class":"VERSION","release":"3.17","rev":"3.17","proto_major":3,"proto_minor":12}
2017-11-16 14:08:22 1510859302.787586: {"class":"DEVICES","devices":[{"class":"DEVICE","path":"/dev/ttyUSB0","driver":"SiRF","subtype":"9\u0006GSD4e_4.1.2-P1_RPATCH.05-F-GPS-4R-1510281 11/03/2015 307","activated":"2017-11-16T19:08:22.702Z","flags":1,"native":1,"bps":4800,"parity":"N","stopbits":1,"cycle":1.00}]}
2017-11-16 14:08:22 1510859302.787698: {"class":"WATCH","enable":true,"json":false,"nmea":true,"raw":0,"scaled":false,"timing":false,"split24":false,"pps":false}
2017-11-16 14:08:23 1510859303.533692: $GPZDA,190822.00,16,11,2017,00,00*65
2017-11-16 14:08:23 1510859303.533857: $GPGGA,190822,3946.9569,N,08404.9850,W,2,11,0.80,304.71,M,-33.324,M,,*75
2017-11-16 14:08:23 1510859303.533917: $GPRMC,190822,A,3946.9569,N,08404.9850,W,0.0000,0.000,161117,,*39
2017-11-16 14:08:23 1510859303.533973: $GPGSA,A,3,10,13,15,18,20,21,24,32,8,27,138,,1.6,0.8,1.3*30
2017-11-16 14:08:24 1510859304.898969: $GPGSV,3,1,12,10,39,298,41,13,10,048,32,15,40,051,50,18,69,330,48*70
2017-11-16 14:08:24 1510859304.899143: $GPGSV,3,2,12,20,35,093,47,21,67,193,46,24,49,115,48,32,18,235,45*72
2017-11-16 14:08:24 1510859304.899204: $GPGSV,3,3,12,08,05,324,26,27,19,292,36,14,02,231,00,138,38,213,45*40
2017-11-16 14:08:25 1510859305.012555: $GPZDA,190823.00,16,11,2017,00,00*64
2017-11-16 14:08:25 1510859305.012715: $GPGGA,190823,3946.9569,N,08404.9850,W,2,11,0.80,304.71,M,-33.324,M,,*74
2017-11-16 14:08:25 1510859305.012776: $GPRMC,190823,A,3946.9569,N,08404.9850,W,0.0000,0.000,161117,,*38
2017-11-16 14:08:25 1510859305.012833: $GPGSA,A,3,10,13,15,18,20,21,24,32,8,27,138,,1.6,0.8,1.3*30
2017-11-16 14:08:25 1510859305.534661: $GPZDA,190824.00,16,11,2017,00,00*63
2017-11-16 14:08:25 1510859305.534816: $GPGGA,190824,3946.9569,N,08404.9850,W,2,11,0.80,304.71,M,-33.324,M,,*73
2017-11-16 14:08:25 1510859305.534876: $GPRMC,190824,A,3946.9569,N,08404.9850,W,0.0000,0.000,161117,,*3F
2017-11-16 14:08:25 1510859305.534931: $GPGSA,A,3,10,13,15,18,20,21,24,32,8,27,138,,1.6,0.8,1.3*30
2017-11-16 14:08:26 1510859306.561566: $GPZDA,190825.00,16,11,2017,00,00*62
2017-11-16 14:08:26 1510859306.561728: $GPGGA,190825,3946.9569,N,08404.9850,W,2,11,0.80,304.71,M,-33.324,M,,*72
2017-11-16 14:08:26 1510859306.561789: $GPRMC,190825,A,3946.9569,N,08404.9850,W,0.0000,0.000,161117,,*3E
2017-11-16 14:08:26 1510859306.561845: $GPGSA,A,3,10,13,15,18,20,21,24,32,8,27,138,,1.6,0.8,1.3*30
2017-11-16 14:08:27 1510859307.869973: $GPGSV,3,1,12,10,39,298,42,13,10,048,32,15,40,051,50,18,69,330,48*73
2017-11-16 14:08:27 1510859307.870165: $GPGSV,3,2,12,20,35,093,47,21,67,193,47,24,49,115,47,32,18,235,45*7C
2017-11-16 14:08:27 1510859307.870228: $GPGSV,3,3,12,08,05,324,26,27,19,292,36,14,02,231,00,138,38,213,45*40
2017-11-16 14:08:27 1510859307.981868: $GPZDA,190826.00,16,11,2017,00,00*61
2017-11-16 14:08:27 1510859307.982029: $GPGGA,190826,3946.9569,N,08404.9850,W,2,11,0.80,304.71,M,-33.324,M,,*71
2017-11-16 14:08:27 1510859307.982090: $GPRMC,190826,A,3946.9569,N,08404.9850,W,0.0000,0.000,161117,,*3D
2017-11-16 14:08:27 1510859307.982145: $GPGSA,A,3,10,13,15,18,20,21,24,32,8,27,138,,1.6,0.8,1.3*30
2017-11-16 14:08:28 1510859308.564019: $GPZDA,190827.00,16,11,2017,00,00*60
2017-11-16 14:08:28 1510859308.564184: $GPGGA,190827,3946.9569,N,08404.9850,W,2,11,0.80,304.71,M,-33.324,M,,*70
2017-11-16 14:08:28 1510859308.564245: $GPRMC,190827,A,3946.9569,N,08404.9850,W,0.0000,0.000,161117,,*3C
2017-11-16 14:08:28 1510859308.564301: $GPGSA,A,3,10,13,15,18,20,21,24,32,8,27,138,,1.6,0.8,1.3*30
2017-11-16 14:08:29 1510859309.561914: $GPZDA,190828.00,16,11,2017,00,00*6F
2017-11-16 14:08:29 1510859309.562079: $GPGGA,190828,3946.9569,N,08404.9850,W,2,11,0.80,304.71,M,-33.324,M,,*7F
2017-11-16 14:08:29 1510859309.562141: $GPRMC,190828,A,3946.9569,N,08404.9850,W,0.0000,0.000,161117,,*33
2017-11-16 14:08:29 1510859309.562197: $GPGSA,A,3,10,13,15,18,20,21,24,32,8,27,138,,1.6,0.8,1.3*30
2017-11-16 14:08:30 1510859310.892644: $GPGSV,3,1,12,10,39,298,42,13,10,048,32,15,40,051,51,18,69,330,48*72
2017-11-16 14:08:30 1510859310.892870: $GPGSV,3,2,12,20,35,093,46,21,67,193,47,24,49,115,48,32,18,235,45*72
2017-11-16 14:08:30 1510859310.892933: $GPGSV,3,3,12,08,05,324,27,27,19,292,36,14,02,231,00,138,38,213,44*40
2017-11-16 14:08:31 1510859311.005961: $GPZDA,190829.00,16,11,2017,00,00*6E
2017-11-16 14:08:31 1510859311.006127: $GPGGA,190829,3946.9569,N,08404.9850,W,2,11,0.80,304.71,M,-33.324,M,,*7E
2017-11-16 14:08:31 1510859311.006190: $GPRMC,190829,A,3946.9569,N,08404.9850,W,0.0000,0.000,161117,,*32
2017-11-16 14:08:31 1510859311.006247: $GPGSA,A,3,10,13,15,18,20,21,24,32,8,27,138,,1.6,0.8,1.3*30
2017-11-16 14:08:31 1510859311.618089: $GPZDA,190830.00,16,11,2017,00,00*66
2017-11-16 14:08:31 1510859311.618263: $GPGGA,190830,3946.9569,N,08404.9850,W,2,11,0.80,304.71,M,-33.324,M,,*76
2017-11-16 14:08:31 1510859311.618327: $GPRMC,190830,A,3946.9569,N,08404.9850,W,0.0000,0.000,161117,,*3A
2017-11-16 14:08:31 1510859311.618383: $GPGSA,A,3,10,13,15,18,20,21,24,32,8,27,138,,1.6,0.8,1.3*30
2017-11-16 14:08:31 1510859311.618437: $GPGBS,190830,2.12,M,3.10,M,7.47,M*3A
2017-11-16 14:08:32 1510859312.534046: $GPZDA,190831.00,16,11,2017,00,00*67
2017-11-16 14:08:32 1510859312.534238: $GPGGA,190831,3946.9569,N,08404.9850,W,2,11,0.80,304.71,M,-33.324,M,,*77
2017-11-16 14:08:32 1510859312.534301: $GPRMC,190831,A,3946.9569,N,08404.9850,W,0.0000,0.000,161117,,*3B
2017-11-16 14:08:32 1510859312.534357: $GPGSA,A,3,10,13,15,18,20,21,24,32,8,27,138,,1.6,0.8,1.3*30
2017-11-16 14:08:32 1510859312.534411: $GPGBS,190831,2.12,M,3.10,M,7.47,M*3B
