2017-12-31 16:42:32 1514756552.274776: {"class":"VERSION","release":"3.16","rev":"3.16-4","proto_major":3,"proto_minor":11}
2017-12-31 16:42:32 1514756552.275191: {"class":"DEVICES","devices":[{"class":"DEVICE","path":"/dev/ttyUSB0","driver":"SiRF","activated":"2017-12-31T21:42:32.233Z","flags":1,"native":1,"bps":4800,"parity":"N","stopbits":1,"cycle":1.00}]}
2017-12-31 16:42:32 1514756552.275292: {"class":"WATCH","enable":true,"json":false,"nmea":true,"raw":0,"scaled":false,"timing":false,"split24":false,"pps":false}
2017-12-31 16:42:32 1514756552.346611: $GPZDA,214233.00,31,12,2017,00,00*66
2017-12-31 16:42:32 1514756552.349942: $GPGGA,214233,3946.9579,N,08404.9841,W,2,11,0.80,302.49,M,-33.324,M,,*7C
2017-12-31 16:42:32 1514756552.350057: $GPRMC,214233,A,3946.9579,N,08404.9841,W,0.0000,0.000,311217,,*3B
2017-12-31 16:42:32 1514756552.350123: $GPGSA,A,3,22,23,25,3,16,29,31,14,32,26,135,,1.7,0.8,1.3*32
2017-12-31 16:42:33 1514756553.682447: $GPGSV,3,1,12,22,49,255,44,23,19,304,39,25,11,039,35,03,45,286,31*74
2017-12-31 16:42:33 1514756553.682623: $GPGSV,3,2,12,16,34,189,48,29,13,066,29,01,01,246,12,31,58,040,51*79
2017-12-31 16:42:33 1514756553.682690: $GPGSV,3,3,12,14,49,103,47,32,27,115,39,26,64,163,42,135,22,240,43*4A
2017-12-31 16:42:33 1514756553.795904: $GPZDA,214234.00,31,12,2017,00,00*61
2017-12-31 16:42:33 1514756553.796067: $GPGGA,214234,3946.9579,N,08404.9841,W,2,11,0.80,302.49,M,-33.324,M,,*7B
2017-12-31 16:42:33 1514756553.796133: $GPRMC,214234,A,3946.9579,N,08404.9841,W,0.0000,0.000,311217,,*3C
2017-12-31 16:42:33 1514756553.796195: $GPGSA,A,3,22,23,25,3,16,29,31,14,32,26,135,,1.7,0.8,1.3*32
2017-12-31 16:42:34 1514756554.346892: $GPZDA,214235.00,31,12,2017,00,00*60
2017-12-31 16:42:34 1514756554.347065: $GPGGA,214235,3946.9579,N,08404.9841,W,2,11,0.80,302.49,M,-33.324,M,,*7A
2017-12-31 16:42:34 1514756554.347191: $GPRMC,214235,A,3946.9579,N,08404.9841,W,0.0000,0.000,311217,,*3D
2017-12-31 16:42:34 1514756554.347255: $GPGSA,A,3,22,23,25,3,16,29,31,14,32,26,135,,1.7,0.8,1.3*32
2017-12-31 16:42:35 1514756555.362247: $GPZDA,214236.00,31,12,2017,00,00*63
2017-12-31 16:42:35 1514756555.362418: $GPGGA,214236,3946.9579,N,08404.9841,W,2,11,0.80,302.49,M,-33.324,M,,*79
2017-12-31 16:42:35 1514756555.362485: $GPRMC,214236,A,3946.9579,N,08404.9841,W,0.0000,0.000,311217,,*3E
2017-12-31 16:42:35 1514756555.362546: $GPGSA,A,3,22,23,25,3,16,29,31,14,32,26,135,,1.7,0.8,1.3*32
2017-12-31 16:42:36 1514756556.673943: $GPGSV,3,1,12,22,49,255,44,23,19,304,39,25,11,039,35,03,45,286,34*71
2017-12-31 16:42:36 1514756556.674109: $GPGSV,3,2,12,16,34,189,48,29,13,066,29,01,01,246,00,31,58,040,51*7A
2017-12-31 16:42:36 1514756556.674174: $GPGSV,3,3,12,14,49,103,47,32,27,115,40,26,64,163,42,135,22,240,43*44
2017-12-31 16:42:36 1514756556.787630: $GPZDA,214237.00,31,12,2017,00,00*62
2017-12-31 16:42:36 1514756556.787762: $GPGGA,214237,3946.9579,N,08404.9841,W,2,11,0.80,302.49,M,-33.324,M,,*78
2017-12-31 16:42:36 1514756556.787826: $GPRMC,214237,A,3946.9579,N,08404.9841,W,0.0000,0.000,311217,,*3F
2017-12-31 16:42:36 1514756556.787885: $GPGSA,A,3,22,23,25,3,16,29,31,14,32,26,135,,1.7,0.8,1.3*32
2017-12-31 16:42:37 1514756557.347225: $GPZDA,214238.00,31,12,2017,00,00*6D
2017-12-31 16:42:37 1514756557.347409: $GPGGA,214238,3946.9579,N,08404.9841,W,2,11,0.80,302.49,M,-33.324,M,,*77
2017-12-31 16:42:37 1514756557.347478: $GPRMC,214238,A,3946.9579,N,08404.9841,W,0.0000,0.000,311217,,*30
2017-12-31 16:42:37 1514756557.347539: $GPGSA,A,3,22,23,25,3,16,29,31,14,32,26,135,,1.7,0.8,1.3*32
2017-12-31 16:42:38 1514756558.361822: $GPZDA,214239.00,31,12,2017,00,00*6C
2017-12-31 16:42:38 1514756558.361973: $GPGGA,214239,3946.9579,N,08404.9841,W,2,11,0.80,302.49,M,-33.324,M,,*76
2017-12-31 16:42:38 1514756558.362038: $GPRMC,214239,A,3946.9579,N,08404.9841,W,0.0000,0.000,311217,,*31
2017-12-31 16:42:38 1514756558.362099: $GPGSA,A,3,22,23,25,3,16,29,31,14,32,26,135,,1.7,0.8,1.3*32
2017-12-31 16:42:39 1514756559.682291: $GPGSV,3,1,12,22,49,255,44,23,19,304,40,25,11,039,34,03,45,286,34*7E
2017-12-31 16:42:39 1514756559.682462: $GPGSV,3,2,12,16,34,189,48,29,13,066,28,01,01,246,00,31,58,040,51*7B
2017-12-31 16:42:39 1514756559.682582: $GPGSV,3,3,12,14,49,103,46,32,27,115,40,26,64,163,42,135,22,240,43*45
2017-12-31 16:42:39 1514756559.795904: $GPZDA,214240.00,31,12,2017,00,00*62
2017-12-31 16:42:39 1514756559.796029: $GPGGA,214240,3946.9579,N,08404.9841,W,2,11,0.80,302.49,M,-33.324,M,,*78
2017-12-31 16:42:39 1514756559.796093: $GPRMC,214240,A,3946.9579,N,08404.9841,W,0.0000,0.000,311217,,*3F
2017-12-31 16:42:39 1514756559.796153: $GPGSA,A,3,22,23,25,3,16,29,31,14,32,26,135,,1.7,0.8,1.3*32
2017-12-31 16:42:40 1514756560.421319: $GPZDA,214241.00,31,12,2017,00,00*63
2017-12-31 16:42:40 1514756560.421471: $GPGGA,214241,3946.9579,N,08404.9841,W,2,11,0.80,302.49,M,-33.324,M,,*79
2017-12-31 16:42:40 1514756560.421536: $GPRMC,214241,A,3946.9579,N,08404.9841,W,0.0000,0.000,311217,,*3E
2017-12-31 16:42:40 1514756560.421597: $GPGSA,A,3,22,23,25,3,16,29,31,14,32,26,135,,1.7,0.8,1.3*32
2017-12-31 16:42:41 1514756561.362166: $GPZDA,214242.00,31,12,2017,00,00*60
2017-12-31 16:42:41 1514756561.362336: $GPGGA,214242,3946.9579,N,08404.9841,W,2,11,0.80,302.49,M,-33.324,M,,*7A
2017-12-31 16:42:41 1514756561.362403: $GPRMC,214242,A,3946.9579,N,08404.9841,W,0.0000,0.000,311217,,*3D
2017-12-31 16:42:41 1514756561.362463: $GPGSA,A,3,22,23,25,3,16,29,31,14,32,26,135,,1.7,0.8,1.3*32
