2017-12-14 12:25:34 1513272334.363250: {"class":"VERSION","release":"3.16","rev":"3.16-4","proto_major":3,"proto_minor":11}
2017-12-14 12:25:34 1513272334.363595: {"class":"DEVICES","devices":[{"class":"DEVICE","path":"/dev/ttyUSB0","driver":"SiRF","subtype":"9\u0006GSD4e_4.1.2-P1_RPATCH.05-F-GPS-4R-1510281 11/03/2015 307","activated":"2017-12-14T17:25:34.133Z","flags":1,"native":1,"bps":4800,"parity":"N","stopbits":1,"cycle":1.00}]}
2017-12-14 12:25:34 1513272334.363711: {"class":"WATCH","enable":true,"json":false,"nmea":true,"raw":0,"scaled":false,"timing":false,"split24":false,"pps":false}
2017-12-14 12:25:35 1513272335.424124: $GPRMC,172536,V,18000.0000,N,00000.0000,W,0.0000,0.000,141217,,*15
2017-12-14 12:25:35 1513272335.424299: $GPGSA,A,1,21,10,20,24,18,15,,,,,,,,,,*39
2017-12-14 12:25:36 1513272336.390729: $GPRMC,172537,V,3946.9582,N,08404.9331,W,0.0000,0.000,141217,,*23
2017-12-14 12:25:36 1513272336.390911: $GPGSA,A,1,21,10,20,24,18,15,,,,,,,,,,*39
2017-12-14 12:25:36 1513272336.982913: $GPGSV,3,1,11,24,52,105,29,21,59,186,18,10,44,304,15,15,34,054,10*7D
2017-12-14 12:25:36 1513272336.983089: $GPGSV,3,2,11,18,73,346,15,20,31,099,15,32,24,240,00,27,18,286,00*75
2017-12-14 12:25:36 1513272336.983154: $GPGSV,3,3,11,08,06,319,00,14,06,234,00,13,05,049,00*40
2017-12-14 12:25:37 1513272337.095246: $GPRMC,172537,V,3946.9562,N,08404.9345,W,0.9863,130.486,141217,,*22
2017-12-14 12:25:37 1513272337.095392: $GPGSA,A,1,24,21,10,15,18,20,,,,,,,,,,*39
2017-12-14 12:25:37 1513272337.795459: $GPRMC,172538,V,3946.9549,N,08404.9344,W,0.4207,219.347,141217,,*22
2017-12-14 12:25:37 1513272337.795641: $GPGSA,A,1,24,21,10,15,18,20,,,,,,,,,,*39
2017-12-14 12:25:38 1513272338.210309: $GPZDA,172538.62,14,12,2017,00,00*6A
2017-12-14 12:25:38 1513272338.210479: $GPGGA,172538,3946.9548,N,08404.9343,W,1,06,2.20,353.11,M,-33.324,M,,*7C
2017-12-14 12:25:38 1513272338.210546: $GPRMC,172538,A,3946.9548,N,08404.9343,W,0.8629,34.066,141217,,*0A
2017-12-14 12:25:38 1513272338.210606: $GPGSA,A,3,24,21,10,15,18,20,,,,,,,6.6,2.2,6.2*3D
2017-12-14 12:25:38 1513272338.210662: $GPGBS,172538,24.66,M,21.80,M,143.40,M*3B
2017-12-14 12:25:38 1513272338.974790: $GPGSV,3,1,12,24,52,105,29,21,59,186,22,10,44,304,26,15,34,054,17*70
2017-12-14 12:25:38 1513272338.974971: $GPGSV,3,2,12,18,73,346,22,20,31,099,25,08,06,319,14,32,24,240,13*73
2017-12-14 12:25:38 1513272338.975036: $GPGSV,3,3,12,27,18,286,00,14,06,234,00,13,05,049,00,138,38,213,00*47
2017-12-14 12:25:39 1513272339.088151: $GPZDA,172539.00,14,12,2017,00,00*6F
2017-12-14 12:25:39 1513272339.088327: $GPGGA,172539,3946.9544,N,08404.9343,W,1,08,2.20,352.47,M,-33.324,M,,*7D
2017-12-14 12:25:39 1513272339.088393: $GPRMC,172539,A,3946.9544,N,08404.9343,W,2.1241,9.263,141217,,*3F
2017-12-14 12:25:39 1513272339.088454: $GPGSA,A,3,24,21,10,15,18,20,8,32,,,,,6.6,2.2,6.2*04
2017-12-14 12:25:39 1513272339.342207: $GPZDA,172540.00,14,12,2017,00,00*61
2017-12-14 12:25:39 1513272339.342383: $GPGGA,172540,3946.9548,N,08404.9343,W,1,08,2.20,351.70,M,-33.324,M,,*78
2017-12-14 12:25:39 1513272339.342450: $GPRMC,172540,A,3946.9548,N,08404.9343,W,2.2533,10.018,141217,,*0A
2017-12-14 12:25:39 1513272339.342511: $GPGSA,A,3,24,21,10,15,18,20,8,32,,,,,6.6,2.2,6.2*04
2017-12-14 12:25:40 1513272340.148527: $GPZDA,172541.00,14,12,2017,00,00*60
2017-12-14 12:25:40 1513272340.148699: $GPGGA,172541,3946.9562,N,08404.9341,W,1,08,2.20,350.05,M,-33.324,M,,*70
2017-12-14 12:25:40 1513272340.148765: $GPRMC,172541,A,3946.9562,N,08404.9341,W,2.8093,13.561,141217,,*0C
2017-12-14 12:25:40 1513272340.148825: $GPGSA,A,3,24,21,10,15,18,20,8,32,,,,,6.6,2.2,6.2*04
2017-12-14 12:25:41 1513272341.483484: $GPGSV,3,1,12,24,52,105,29,21,59,186,22,10,44,304,26,15,34,054,16*71
2017-12-14 12:25:41 1513272341.483660: $GPGSV,3,2,12,18,73,346,23,20,31,099,25,32,24,240,00,27,18,286,00*70
2017-12-14 12:25:41 1513272341.483725: $GPGSV,3,3,12,08,06,319,00,14,06,234,00,13,05,049,00,138,38,213,00*42
2017-12-14 12:25:41 1513272341.596897: $GPZDA,172542.00,14,12,2017,00,00*63
2017-12-14 12:25:41 1513272341.597055: $GPGGA,172542,3946.9569,N,08404.9332,W,1,06,2.20,348.60,M,-33.324,M,,*78
2017-12-14 12:25:41 1513272341.597167: $GPRMC,172542,A,3946.9569,N,08404.9332,W,2.2232,21.790,141217,,*0E
2017-12-14 12:25:41 1513272341.597230: $GPGSA,A,3,24,21,10,15,18,20,,,,,,,6.6,2.2,6.2*3D
2017-12-14 12:25:42 1513272342.148283: $GPZDA,172543.00,14,12,2017,00,00*62
2017-12-14 12:25:42 1513272342.148453: $GPGGA,172543,3946.9568,N,08404.9324,W,1,06,2.20,347.27,M,-33.324,M,,*73
2017-12-14 12:25:42 1513272342.148519: $GPRMC,172543,A,3946.9568,N,08404.9324,W,2.1306,30.833,141217,,*0A
2017-12-14 12:25:42 1513272342.148580: $GPGSA,A,3,24,21,10,15,18,20,,,,,,,6.6,2.2,6.2*3D
2017-12-14 12:25:43 1513272343.147975: $GPZDA,172544.00,14,12,2017,00,00*65
2017-12-14 12:25:43 1513272343.148152: $GPGGA,172544,3946.9563,N,08404.9324,W,1,06,2.20,345.23,M,-33.324,M,,*79
2017-12-14 12:25:43 1513272343.148236: $GPRMC,172544,A,3946.9563,N,08404.9324,W,1.0018,50.691,141217,,*08
2017-12-14 12:25:43 1513272343.148297: $GPGSA,A,3,24,21,10,15,18,20,,,,,,,6.6,2.2,6.2*3D
2017-12-14 12:25:44 1513272344.484217: $GPGSV,3,1,12,24,52,105,28,21,59,186,22,10,44,304,26,15,34,054,16*70
2017-12-14 12:25:44 1513272344.484388: $GPGSV,3,2,12,18,73,346,23,20,31,099,25,32,24,240,00,27,18,286,00*70
2017-12-14 12:25:44 1513272344.484454: $GPGSV,3,3,12,08,06,319,00,14,06,234,00,13,05,049,00,138,38,213,00*42
2017-12-14 12:25:44 1513272344.598002: $GPZDA,172545.00,14,12,2017,00,00*64
2017-12-14 12:25:44 1513272344.598205: $GPGGA,172545,3946.9562,N,08404.9323,W,1,06,2.20,343.83,M,-33.324,M,,*72
2017-12-14 12:25:44 1513272344.598273: $GPRMC,172545,A,3946.9562,N,08404.9323,W,0.8905,57.384,141217,,*05
2017-12-14 12:25:44 1513272344.598335: $GPGSA,A,3,24,21,10,15,18,20,,,,,,,6.6,2.2,6.2*3D
2017-12-14 12:25:45 1513272345.147980: $GPZDA,172546.00,14,12,2017,00,00*67
2017-12-14 12:25:45 1513272345.148163: $GPGGA,172546,3946.9564,N,08404.9315,W,1,06,2.20,341.74,M,-33.324,M,,*78
2017-12-14 12:25:45 1513272345.148247: $GPRMC,172546,A,3946.9564,N,08404.9315,W,1.2971,51.620,141217,,*00
2017-12-14 12:25:45 1513272345.148309: $GPGSA,A,3,24,21,10,15,18,20,,,,,,,6.6,2.2,6.2*3D
2017-12-14 12:25:46 1513272346.149231: $GPZDA,172547.00,14,12,2017,00,00*66
2017-12-14 12:25:46 1513272346.149395: $GPGGA,172547,3946.9568,N,08404.9314,W,1,06,2.20,340.97,M,-33.324,M,,*78
2017-12-14 12:25:46 1513272346.149480: $GPRMC,172547,A,3946.9568,N,08404.9314,W,1.2621,39.347,141217,,*0C
2017-12-14 12:25:46 1513272346.149543: $GPGSA,A,3,24,21,10,15,18,20,,,,,,,6.6,2.2,6.2*3D
2017-12-14 12:25:47 1513272347.482738: $GPGSV,3,1,12,24,52,105,28,21,59,186,22,10,44,304,26,15,34,054,16*70
2017-12-14 12:25:47 1513272347.482912: $GPGSV,3,2,12,18,73,346,23,20,31,099,25,32,24,240,00,27,18,286,00*70
2017-12-14 12:25:47 1513272347.482977: $GPGSV,3,3,12,08,06,319,00,14,06,234,00,13,05,049,00,138,38,213,00*42
2017-12-14 12:25:47 1513272347.596186: $GPZDA,172548.00,14,12,2017,00,00*69
2017-12-14 12:25:47 1513272347.596353: $GPGGA,172548,3946.9571,N,08404.9313,W,1,06,2.20,340.21,M,-33.324,M,,*75
2017-12-14 12:25:47 1513272347.596419: $GPRMC,172548,A,3946.9571,N,08404.9313,W,1.4115,34.536,141217,,*07
2017-12-14 12:25:47 1513272347.596480: $GPGSA,A,3,24,21,10,15,18,20,,,,,,,6.6,2.2,6.2*3D
2017-12-14 12:25:48 1513272348.147116: $GPZDA,172549.00,14,12,2017,00,00*68
2017-12-14 12:25:48 1513272348.147300: $GPGGA,172549,3946.9575,N,08404.9313,W,1,06,2.20,340.85,M,-33.324,M,,*7E
2017-12-14 12:25:48 1513272348.147368: $GPRMC,172549,A,3946.9575,N,08404.9313,W,1.3232,23.777,141217,,*02
2017-12-14 12:25:48 1513272348.147429: $GPGSA,A,3,24,21,10,15,18,20,,,,,,,6.6,2.2,6.2*3D
2017-12-14 12:25:49 1513272349.148416: $GPZDA,172550.00,14,12,2017,00,00*60
2017-12-14 12:25:49 1513272349.148581: $GPGGA,172550,3946.9579,N,08404.9312,W,1,06,2.20,340.08,M,-33.324,M,,*7E
2017-12-14 12:25:49 1513272349.148647: $GPRMC,172550,A,3946.9579,N,08404.9312,W,1.0036,48.368,141217,,*05
2017-12-14 12:25:49 1513272349.148708: $GPGSA,A,3,24,21,10,15,18,20,,,,,,,6.6,2.2,6.2*3D
2017-12-14 12:25:50 1513272350.484573: $GPGSV,3,1,12,24,52,105,28,21,59,186,21,10,44,304,26,15,34,054,16*73
2017-12-14 12:25:50 1513272350.484815: $GPGSV,3,2,12,18,73,346,23,20,31,099,25,32,24,240,00,27,18,286,00*70
2017-12-14 12:25:50 1513272350.484882: $GPGSV,3,3,12,08,06,319,00,14,06,234,00,13,05,049,00,138,38,213,00*42
2017-12-14 12:25:50 1513272350.598086: $GPZDA,172551.00,14,12,2017,00,00*61
2017-12-14 12:25:50 1513272350.598265: $GPGGA,172551,3946.9578,N,08404.9312,W,1,06,2.20,338.68,M,-33.324,M,,*77
2017-12-14 12:25:50 1513272350.598330: $GPRMC,172551,A,3946.9578,N,08404.9312,W,0.8905,57.384,141217,,*09
2017-12-14 12:25:50 1513272350.598391: $GPGSA,A,3,24,21,10,15,18,20,,,,,,,6.6,2.2,6.2*3D
2017-12-14 12:25:51 1513272351.148181: $GPZDA,172552.00,14,12,2017,00,00*62
2017-12-14 12:25:51 1513272351.148345: $GPGGA,172552,3946.9578,N,08404.9305,W,1,06,2.20,338.76,M,-33.324,M,,*7D
2017-12-14 12:25:51 1513272351.148410: $GPRMC,172552,A,3946.9578,N,08404.9305,W,1.1548,27.515,141217,,*08
2017-12-14 12:25:51 1513272351.148471: $GPGSA,A,3,24,21,10,15,18,20,,,,,,,6.6,2.2,6.2*3D
2017-12-14 12:25:52 1513272352.148270: $GPZDA,172553.00,14,12,2017,00,00*63
2017-12-14 12:25:52 1513272352.148428: $GPGGA,172553,3946.9585,N,08404.9303,W,1,06,2.20,337.23,M,-33.324,M,,*77
2017-12-14 12:25:52 1513272352.148493: $GPRMC,172553,A,3946.9585,N,08404.9303,W,1.7106,48.623,141217,,*0A
2017-12-14 12:25:52 1513272352.148553: $GPGSA,A,3,24,21,10,15,18,20,,,,,,,6.6,2.2,6.2*3D
2017-12-14 12:25:53 1513272353.485263: $GPGSV,3,1,12,24,52,105,28,21,59,186,20,10,44,304,26,15,34,054,16*72
2017-12-14 12:25:53 1513272353.485601: $GPGSV,3,2,12,18,73,346,23,20,31,099,25,08,06,319,08,32,24,240,00*7D
2017-12-14 12:25:53 1513272353.485724: $GPGSV,3,3,12,27,18,286,00,14,06,234,00,13,05,049,00,138,38,213,00*47
2017-12-14 12:25:53 1513272353.598571: $GPZDA,172554.00,14,12,2017,00,00*64
2017-12-14 12:25:53 1513272353.598731: $GPGGA,172554,3946.9588,N,08404.9296,W,1,06,2.20,336.54,M,-33.324,M,,*71
2017-12-14 12:25:53 1513272353.598797: $GPRMC,172554,A,3946.9588,N,08404.9296,W,2.1868,55.032,141217,,*03
2017-12-14 12:25:53 1513272353.598858: $GPGSA,A,3,24,21,10,15,18,20,,,,,,,6.6,2.2,6.2*3D
2017-12-14 12:25:54 1513272354.148627: $GPZDA,172555.00,14,12,2017,00,00*65
2017-12-14 12:25:54 1513272354.148797: $GPGGA,172555,3946.9599,N,08404.9294,W,1,06,2.20,335.65,M,-33.324,M,,*73
2017-12-14 12:25:54 1513272354.148863: $GPRMC,172555,A,3946.9599,N,08404.9294,W,2.5243,39.347,141217,,*0C
2017-12-14 12:25:54 1513272354.148923: $GPGSA,A,3,24,21,10,15,18,20,,,,,,,6.6,2.2,6.2*3D
