2017-12-01 13:15:56 1512152156.257404: {"class":"VERSION","release":"3.16","rev":"3.16-4","proto_major":3,"proto_minor":11}
2017-12-01 13:15:56 1512152156.257765: {"class":"DEVICES","devices":[{"class":"DEVICE","path":"/dev/ttyUSB0","driver":"SiRF","subtype":"9\u0006GSD4e_4.1.2-P1_RPATCH.05-F-GPS-4R-1510281 11/03/2015 307","activated":"2017-12-01T18:15:56.222Z","flags":1,"native":1,"bps":4800,"parity":"N","stopbits":1,"cycle":1.00}]}
2017-12-01 13:15:56 1512152156.257877: {"class":"WATCH","enable":true,"json":false,"nmea":true,"raw":0,"scaled":false,"timing":false,"split24":false,"pps":false}
2017-12-01 13:15:56 1512152156.399007: $GPZDA,181557.00,01,12,2017,00,00*6F
2017-12-01 13:15:56 1512152156.399167: $GPGGA,181557,3946.9585,N,08404.9838,W,2,11,0.80,298.16,M,-33.324,M,,*73
2017-12-01 13:15:56 1512152156.399234: $GPRMC,181557,A,3946.9585,N,08404.9838,W,0.0000,0.000,011217,,*3F
2017-12-01 13:15:56 1512152156.399295: $GPGSA,A,3,10,15,18,20,21,24,27,32,8,13,138,,2.0,0.8,1.5*33
2017-12-01 13:15:57 1512152157.387497: $GPZDA,181558.00,01,12,2017,00,00*60
2017-12-01 13:15:57 1512152157.387669: $GPGGA,181558,3946.9585,N,08404.9838,W,2,11,0.80,298.16,M,-33.324,M,,*7C
2017-12-01 13:15:57 1512152157.387735: $GPRMC,181558,A,3946.9585,N,08404.9838,W,0.0000,0.000,011217,,*30
2017-12-01 13:15:57 1512152157.387796: $GPGSA,A,3,10,15,18,20,21,24,27,32,8,13,138,,2.0,0.8,1.5*33
2017-12-01 13:15:58 1512152158.740641: $GPGSV,3,1,12,10,43,303,46,15,36,052,47,18,72,340,44,20,32,097,47*7C
2017-12-01 13:15:58 1512152158.740816: $GPGSV,3,2,12,21,61,187,45,24,51,108,46,27,19,288,38,32,22,240,41*7F
2017-12-01 13:15:58 1512152158.740882: $GPGSV,3,3,12,08,06,321,38,13,06,049,27,14,05,232,00,138,38,213,46*43
2017-12-01 13:15:58 1512152158.854055: $GPZDA,181559.00,01,12,2017,00,00*61
2017-12-01 13:15:58 1512152158.854242: $GPGGA,181559,3946.9585,N,08404.9838,W,2,11,0.80,298.16,M,-33.324,M,,*7D
2017-12-01 13:15:58 1512152158.854325: $GPRMC,181559,A,3946.9585,N,08404.9838,W,0.0000,0.000,011217,,*31
2017-12-01 13:15:58 1512152158.854387: $GPGSA,A,3,10,15,18,20,21,24,27,32,8,13,138,,2.0,0.8,1.5*33
2017-12-01 13:15:59 1512152159.479440: $GPZDA,181600.00,01,12,2017,00,00*6E
2017-12-01 13:15:59 1512152159.479602: $GPGGA,181600,3946.9585,N,08404.9838,W,2,11,0.80,298.16,M,-33.324,M,,*72
2017-12-01 13:15:59 1512152159.479669: $GPRMC,181600,A,3946.9585,N,08404.9838,W,0.0000,0.000,011217,,*3E
2017-12-01 13:15:59 1512152159.479730: $GPGSA,A,3,10,15,18,20,21,24,27,32,8,13,138,,2.0,0.8,1.5*33
2017-12-01 13:16:00 1512152160.386518: $GPZDA,181601.00,01,12,2017,00,00*6F
2017-12-01 13:16:00 1512152160.386704: $GPGGA,181601,3946.9585,N,08404.9838,W,2,11,0.80,298.16,M,-33.324,M,,*73
2017-12-01 13:16:00 1512152160.386771: $GPRMC,181601,A,3946.9585,N,08404.9838,W,0.0000,0.000,011217,,*3F
2017-12-01 13:16:00 1512152160.386832: $GPGSA,A,3,10,15,18,20,21,24,27,32,8,13,138,,2.0,0.8,1.5*33
2017-12-01 13:16:01 1512152161.736037: $GPGSV,3,1,12,10,43,303,46,15,36,052,46,18,72,340,44,20,32,097,46*7C
2017-12-01 13:16:01 1512152161.736235: $GPGSV,3,2,12,21,61,187,45,24,51,108,46,27,19,288,38,32,22,240,40*7E
2017-12-01 13:16:01 1512152161.736320: $GPGSV,3,3,12,08,06,321,38,13,06,049,27,14,05,232,00,138,38,213,46*43
2017-12-01 13:16:01 1512152161.849737: $GPZDA,181602.00,01,12,2017,00,00*6C
2017-12-01 13:16:01 1512152161.849889: $GPGGA,181602,3946.9585,N,08404.9838,W,2,11,0.80,298.16,M,-33.324,M,,*70
2017-12-01 13:16:01 1512152161.849956: $GPRMC,181602,A,3946.9585,N,08404.9838,W,0.0000,0.000,011217,,*3C
2017-12-01 13:16:01 1512152161.850017: $GPGSA,A,3,10,15,18,20,21,24,27,32,8,13,138,,2.0,0.8,1.5*33
2017-12-01 13:16:02 1512152162.378969: $GPZDA,181603.00,01,12,2017,00,00*6D
2017-12-01 13:16:02 1512152162.379159: $GPGGA,181603,3946.9585,N,08404.9838,W,2,11,0.80,298.16,M,-33.324,M,,*71
2017-12-01 13:16:02 1512152162.379227: $GPRMC,181603,A,3946.9585,N,08404.9838,W,0.0000,0.000,011217,,*3D
2017-12-01 13:16:02 1512152162.379305: $GPGSA,A,3,10,15,18,20,21,24,27,32,8,13,138,,2.0,0.8,1.5*33
2017-12-01 13:16:03 1512152163.384959: $GPZDA,181604.00,01,12,2017,00,00*6A
2017-12-01 13:16:03 1512152163.385181: $GPGGA,181604,3946.9585,N,08404.9838,W,2,11,0.80,298.16,M,-33.324,M,,*76
2017-12-01 13:16:03 1512152163.385250: $GPRMC,181604,A,3946.9585,N,08404.9838,W,0.0000,0.000,011217,,*3A
2017-12-01 13:16:03 1512152163.385311: $GPGSA,A,3,10,15,18,20,21,24,27,32,8,13,138,,2.0,0.8,1.5*33
2017-12-01 13:16:04 1512152164.741324: $GPGSV,3,1,12,10,43,303,46,15,36,052,47,18,72,340,44,20,32,097,46*7D
2017-12-01 13:16:04 1512152164.741560: $GPGSV,3,2,12,21,61,187,46,24,51,108,46,27,19,288,37,32,22,240,40*72
2017-12-01 13:16:04 1512152164.741647: $GPGSV,3,3,12,08,06,321,37,13,06,049,27,14,05,232,00,138,38,213,47*4D
2017-12-01 13:16:04 1512152164.854672: $GPZDA,181605.00,01,12,2017,00,00*6B
2017-12-01 13:16:04 1512152164.854842: $GPGGA,181605,3946.9585,N,08404.9838,W,2,11,0.80,298.16,M,-33.324,M,,*77
2017-12-01 13:16:04 1512152164.854926: $GPRMC,181605,A,3946.9585,N,08404.9838,W,0.0000,0.000,011217,,*3B
2017-12-01 13:16:04 1512152164.854988: $GPGSA,A,3,10,15,18,20,21,24,27,32,8,13,138,,2.0,0.8,1.5*33
2017-12-01 13:16:05 1512152165.385581: $GPZDA,181606.00,01,12,2017,00,00*68
2017-12-01 13:16:05 1512152165.389933: $GPGGA,181606,3946.9585,N,08404.9838,W,2,11,0.80,298.16,M,-33.324,M,,*74
2017-12-01 13:16:05 1512152165.390043: $GPRMC,181606,A,3946.9585,N,08404.9838,W,0.0000,0.000,011217,,*38
2017-12-01 13:16:05 1512152165.390108: $GPGSA,A,3,10,15,18,20,21,24,27,32,8,13,138,,2.0,0.8,1.5*33
