2017-11-15 18:15:16 1510787716.743779: {"class":"VERSION","release":"3.17","rev":"3.17","proto_major":3,"proto_minor":12}
2017-11-15 18:15:16 1510787716.744238: {"class":"DEVICES","devices":[{"class":"DEVICE","path":"/dev/ttyUSB0","driver":"SiRF","subtype":"9\u0006GSD4e_4.1.2-P1_RPATCH.05-F-GPS-4R-1510281 11/03/2015 307","activated":"2017-11-15T23:15:16.548Z","flags":1,"native":1,"bps":4800,"parity":"N","stopbits":1,"cycle":1.00}]}
2017-11-15 18:15:16 1510787716.744359: {"class":"WATCH","enable":true,"json":false,"nmea":true,"raw":0,"scaled":false,"timing":false,"split24":false,"pps":false}
2017-11-15 18:15:17 1510787717.328972: $GPZDA,231516.00,15,11,2017,00,00*64
2017-11-15 18:15:17 1510787717.329137: $GPGGA,231516,3946.9522,N,08404.9706,W,1,05,1.20,304.19,M,-33.324,M,,*77
2017-11-15 18:15:17 1510787717.329197: $GPRMC,231516,A,3946.9522,N,08404.9706,W,1.0534,170.904,151117,,*33
2017-11-15 18:15:17 1510787717.329253: $GPGSA,A,3,22,1,26,31,25,,,,,,,,3.4,1.2,2.9*0D
2017-11-15 18:15:18 1510787718.697322: $GPGSV,3,1,11,10,30,154,05,22,32,307,19,01,21,283,10,26,17,180,15*74
2017-11-15 18:15:18 1510787718.697507: $GPGSV,3,2,11,31,71,249,22,32,61,064,04,25,39,067,17,11,02,267,04*7C
2017-11-15 18:15:18 1510787718.697568: $GPGSV,3,3,11,14,70,013,00,03,13,316,00,12,13,037,00*49
2017-11-15 18:15:18 1510787718.810627: $GPZDA,231517.00,15,11,2017,00,00*65
2017-11-15 18:15:18 1510787718.810788: $GPGGA,231517,3946.9518,N,08404.9706,W,1,05,1.20,303.55,M,-33.324,M,,*70
2017-11-15 18:15:18 1510787718.810849: $GPRMC,231517,A,3946.9518,N,08404.9706,W,0.9060,167.792,151117,,*30
2017-11-15 18:15:18 1510787718.810905: $GPGSA,A,3,22,1,26,31,25,,,,,,,,3.4,1.2,2.9*0D
2017-11-15 18:15:19 1510787719.360160: $GPZDA,231518.00,15,11,2017,00,00*6A
2017-11-15 18:15:19 1510787719.360325: $GPGGA,231518,3946.9518,N,08404.9699,W,1,05,1.00,303.62,M,-33.324,M,,*7E
2017-11-15 18:15:19 1510787719.360390: $GPRMC,231518,A,3946.9518,N,08404.9699,W,0.9019,198.875,151117,,*30
2017-11-15 18:15:19 1510787719.360446: $GPGSA,A,3,22,1,26,31,25,,,,,,,,3.4,1.0,2.9*0F
2017-11-15 18:15:20 1510787720.328497: $GPZDA,231519.00,15,11,2017,00,00*6B
2017-11-15 18:15:20 1510787720.328659: $GPGGA,231519,3946.9518,N,08404.9699,W,1,05,1.00,303.62,M,-33.324,M,,*7F
2017-11-15 18:15:20 1510787720.328721: $GPRMC,231519,A,3946.9518,N,08404.9699,W,0.9060,167.792,151117,,*39
2017-11-15 18:15:20 1510787720.328777: $GPGSA,A,3,22,1,26,31,25,,,,,,,,3.4,1.0,2.9*0F
2017-11-15 18:15:21 1510787721.663881: $GPGSV,3,1,11,10,30,154,11,22,32,307,19,01,21,283,09,26,17,180,15*79
2017-11-15 18:15:21 1510787721.664051: $GPGSV,3,2,11,31,71,249,22,32,61,064,04,25,39,067,17,14,70,013,00*79
2017-11-15 18:15:21 1510787721.664113: $GPGSV,3,3,11,03,13,316,00,12,13,037,00,18,03,148,00*4E
2017-11-15 18:15:21 1510787721.777176: $GPZDA,231520.00,15,11,2017,00,00*61
2017-11-15 18:15:21 1510787721.777342: $GPGGA,231520,3946.9518,N,08404.9699,W,1,06,1.00,303.62,M,-33.324,M,,*76
2017-11-15 18:15:21 1510787721.777404: $GPRMC,231520,A,3946.9518,N,08404.9699,W,1.0002,154.331,151117,,*32
2017-11-15 18:15:21 1510787721.777460: $GPGSA,A,3,10,22,1,26,31,25,,,,,,,3.4,1.0,2.9*0E
2017-11-15 18:15:22 1510787722.329308: $GPZDA,231521.00,15,11,2017,00,00*60
2017-11-15 18:15:22 1510787722.329473: $GPGGA,231521,3946.9517,N,08404.9692,W,1,06,1.20,303.70,M,-33.324,M,,*72
2017-11-15 18:15:22 1510787722.329533: $GPRMC,231521,A,3946.9517,N,08404.9692,W,0.7238,140.710,151117,,*38
2017-11-15 18:15:22 1510787722.329588: $GPGSA,A,3,10,22,1,26,31,25,,,,,,,3.4,1.2,2.9*0C
2017-11-15 18:15:23 1510787723.329670: $GPZDA,231522.00,15,11,2017,00,00*63
2017-11-15 18:15:23 1510787723.329846: $GPGGA,231522,3946.9517,N,08404.9692,W,1,06,1.40,303.70,M,-33.324,M,,*77
2017-11-15 18:15:23 1510787723.329906: $GPRMC,231522,A,3946.9517,N,08404.9692,W,0.0000,0.000,151117,,*36
2017-11-15 18:15:23 1510787723.329962: $GPGSA,A,3,10,22,1,26,31,25,,,,,,,3.4,1.4,2.9*0A
2017-11-15 18:15:24 1510787724.694655: $GPGSV,3,1,11,10,30,154,04,22,32,307,20,01,21,283,07,26,17,180,15*79
2017-11-15 18:15:24 1510787724.694838: $GPGSV,3,2,11,31,71,249,22,14,70,013,00,25,39,067,18,32,61,064,00*72
2017-11-15 18:15:24 1510787724.694949: $GPGSV,3,3,11,03,13,316,00,12,13,037,00,18,03,148,00*4E
2017-11-15 18:15:24 1510787724.808050: $GPZDA,231523.00,15,11,2017,00,00*62
2017-11-15 18:15:24 1510787724.808209: $GPGGA,231523,3946.9522,N,08404.9692,W,1,05,1.40,304.34,M,-33.324,M,,*74
2017-11-15 18:15:24 1510787724.808270: $GPRMC,231523,A,3946.9522,N,08404.9692,W,0.0000,0.000,151117,,*31
2017-11-15 18:15:24 1510787724.808325: $GPGSA,A,3,22,1,26,31,25,,,,,,,,3.4,1.4,2.9*0B
2017-11-15 18:15:25 1510787725.329264: $GPZDA,231524.00,15,11,2017,00,00*65
2017-11-15 18:15:25 1510787725.329426: $GPGGA,231524,3946.9522,N,08404.9692,W,1,05,1.40,304.34,M,-33.324,M,,*73
2017-11-15 18:15:25 1510787725.329486: $GPRMC,231524,A,3946.9522,N,08404.9692,W,0.2422,93.794,151117,,*00
2017-11-15 18:15:25 1510787725.329542: $GPGSA,A,3,22,1,26,31,25,,,,,,,,3.4,1.4,2.9*0B
2017-11-15 18:15:26 1510787726.329569: $GPZDA,231525.00,15,11,2017,00,00*64
2017-11-15 18:15:26 1510787726.329790: $GPGGA,231525,3946.9525,N,08404.9691,W,1,05,1.20,303.58,M,-33.324,M,,*7D
2017-11-15 18:15:26 1510787726.332351: $GPRMC,231525,A,3946.9525,N,08404.9691,W,0.4207,39.347,151117,,*08
2017-11-15 18:15:26 1510787726.332426: $GPGSA,A,3,22,1,26,31,25,,,,,,,,3.4,1.2,2.9*0D
2017-11-15 18:15:27 1510787727.696293: $GPGSV,3,1,11,10,30,154,09,22,32,307,20,01,21,283,08,26,17,180,14*7A
2017-11-15 18:15:27 1510787727.696465: $GPGSV,3,2,11,31,71,249,22,14,70,013,00,25,39,067,19,32,61,064,00*73
2017-11-15 18:15:27 1510787727.696525: $GPGSV,3,3,11,03,13,316,00,12,13,037,00,18,03,148,00*4E
2017-11-15 18:15:27 1510787727.809674: $GPZDA,231526.00,15,11,2017,00,00*67
2017-11-15 18:15:27 1510787727.809837: $GPGGA,231526,3946.9532,N,08404.9683,W,1,05,1.20,303.53,M,-33.324,M,,*70
2017-11-15 18:15:27 1510787727.809898: $GPRMC,231526,A,3946.9532,N,08404.9683,W,1.2621,39.347,151117,,*09
2017-11-15 18:15:27 1510787727.809954: $GPGSA,A,3,22,1,26,31,25,,,,,,,,3.4,1.2,2.9*0D
2017-11-15 18:15:28 1510787728.329562: $GPZDA,231527.00,15,11,2017,00,00*66
2017-11-15 18:15:28 1510787728.329721: $GPGGA,231527,3946.9536,N,08404.9683,W,1,05,1.00,304.17,M,-33.324,M,,*70
2017-11-15 18:15:28 1510787728.329781: $GPRMC,231527,A,3946.9536,N,08404.9683,W,1.4115,34.535,151117,,*04
2017-11-15 18:15:28 1510787728.329837: $GPGSA,A,3,22,1,26,31,25,,,,,,,,3.4,1.0,2.9*0F
2017-11-15 18:15:29 1510787729.361003: $GPZDA,231528.00,15,11,2017,00,00*69
2017-11-15 18:15:29 1510787729.361181: $GPGGA,231528,3946.9544,N,08404.9676,W,1,05,1.00,304.13,M,-33.324,M,,*74
2017-11-15 18:15:29 1510787729.361243: $GPRMC,231528,A,3946.9544,N,08404.9676,W,1.4555,23.636,151117,,*02
2017-11-15 18:15:29 1510787729.361300: $GPGSA,A,3,22,1,26,31,25,,,,,,,,3.4,1.0,2.9*0F
2017-11-15 18:15:29 1510787729.361351: $GPGBS,231528,13.59,M,20.35,M,67.34,M*0D
2017-11-15 18:15:30 1510787730.695238: $GPGSV,3,1,11,10,29,154,10,22,34,307,20,01,21,282,08,26,18,180,15*73
2017-11-15 18:15:30 1510787730.695407: $GPGSV,3,2,11,31,73,252,22,14,70,018,00,25,39,066,19,32,60,067,00*73
2017-11-15 18:15:30 1510787730.695468: $GPGSV,3,3,11,03,14,316,00,12,12,036,00,11,02,267,00*4F
2017-11-15 18:15:30 1510787730.808823: $GPZDA,231529.00,15,11,2017,00,00*68
2017-11-15 18:15:30 1510787730.808977: $GPGGA,231529,3946.9551,N,08404.9675,W,1,05,1.40,304.00,M,-33.324,M,,*74
2017-11-15 18:15:30 1510787730.809038: $GPRMC,231529,A,3946.9551,N,08404.9675,W,1.2361,14.851,151117,,*08
2017-11-15 18:15:30 1510787730.809093: $GPGSA,A,3,22,1,26,31,25,,,,,,,,3.4,1.4,2.9*0B
2017-11-15 18:15:31 1510787731.435228: $GPZDA,231530.00,15,11,2017,00,00*60
2017-11-15 18:15:31 1510787731.435405: $GPGGA,231530,3946.9551,N,08404.9675,W,1,05,1.20,304.00,M,-33.324,M,,*7A
2017-11-15 18:15:31 1510787731.435467: $GPRMC,231530,A,3946.9551,N,08404.9675,W,0.9060,347.792,151117,,*3D
2017-11-15 18:15:31 1510787731.435523: $GPGSA,A,3,22,1,26,31,25,,,,,,,,3.4,1.2,2.9*0D
2017-11-15 18:15:32 1510787732.361176: $GPZDA,231531.00,15,11,2017,00,00*61
2017-11-15 18:15:32 1510787732.361336: $GPGGA,231531,3946.9559,N,08404.9674,W,1,05,1.40,303.88,M,-33.324,M,,*73
2017-11-15 18:15:32 1510787732.361443: $GPRMC,231531,A,3946.9559,N,08404.9674,W,0.9066,309.458,151117,,*3C
2017-11-15 18:15:32 1510787732.361500: $GPGSA,A,3,22,1,26,31,25,,,,,,,,3.4,1.4,2.9*0B
2017-11-15 18:15:33 1510787733.664315: $GPGSV,3,1,11,10,29,154,10,22,34,307,20,01,21,282,07,26,18,180,15*7C
2017-11-15 18:15:33 1510787733.664485: $GPGSV,3,2,11,31,73,252,22,14,70,018,00,25,39,066,20,32,60,067,00*79
2017-11-15 18:15:33 1510787733.664545: $GPGSV,3,3,11,03,14,316,00,12,12,036,00,11,02,267,00*4F
2017-11-15 18:15:33 1510787733.777949: $GPZDA,231532.00,15,11,2017,00,00*62
2017-11-15 18:15:33 1510787733.778108: $GPGGA,231532,3946.9559,N,08404.9681,W,1,06,1.40,303.80,M,-33.324,M,,*71
2017-11-15 18:15:33 1510787733.778170: $GPRMC,231532,A,3946.9559,N,08404.9681,W,0.9066,309.458,151117,,*35
2017-11-15 18:15:33 1510787733.778226: $GPGSA,A,3,10,22,1,26,31,25,,,,,,,3.4,1.4,2.9*0A
2017-11-15 18:15:34 1510787734.358602: $GPZDA,231533.00,15,11,2017,00,00*63
2017-11-15 18:15:34 1510787734.358764: $GPGGA,231533,3946.9563,N,08404.9681,W,1,06,1.40,304.44,M,-33.324,M,,*76
2017-11-15 18:15:34 1510787734.358823: $GPRMC,231533,A,3946.9563,N,08404.9681,W,0.8011,299.090,151117,,*34
2017-11-15 18:15:34 1510787734.358879: $GPGSA,A,3,10,22,1,26,31,25,,,,,,,3.4,1.4,2.9*0A
2017-11-15 18:15:35 1510787735.328179: $GPZDA,231534.00,15,11,2017,00,00*64
2017-11-15 18:15:35 1510787735.328359: $GPGGA,231534,3946.9567,N,08404.9680,W,1,06,1.40,303.68,M,-33.324,M,,*7D
2017-11-15 18:15:35 1510787735.328422: $GPRMC,231534,A,3946.9567,N,08404.9680,W,0.4179,328.778,151117,,*3F
2017-11-15 18:15:35 1510787735.328478: $GPGSA,A,3,10,22,1,26,31,25,,,,,,,3.4,1.4,2.9*0A
2017-11-15 18:15:36 1510787736.665972: $GPGSV,3,1,11,10,29,154,10,22,34,307,20,01,21,282,08,26,18,180,14*72
2017-11-15 18:15:36 1510787736.666142: $GPGSV,3,2,11,31,73,252,22,32,60,067,12,25,39,066,21,14,70,018,00*7B
2017-11-15 18:15:36 1510787736.666201: $GPGSV,3,3,11,03,14,316,00,12,12,036,00,11,02,267,00*4F
2017-11-15 18:15:36 1510787736.779410: $GPZDA,231535.00,15,11,2017,00,00*65
2017-11-15 18:15:36 1510787736.779570: $GPGGA,231535,3946.9571,N,08404.9680,W,1,06,1.20,304.32,M,-33.324,M,,*75
2017-11-15 18:15:36 1510787736.779631: $GPRMC,231535,A,3946.9571,N,08404.9680,W,0.5857,338.291,151117,,*3E
2017-11-15 18:15:36 1510787736.779687: $GPGSA,A,3,10,22,1,26,31,25,,,,,,,3.4,1.2,2.9*0C
2017-11-15 18:15:37 1510787737.366528: $GPZDA,231536.00,15,11,2017,00,00*66
2017-11-15 18:15:37 1510787737.366687: $GPGGA,231536,3946.9571,N,08404.9680,W,1,06,1.40,304.32,M,-33.324,M,,*70
2017-11-15 18:15:37 1510787737.366812: $GPRMC,231536,A,3946.9571,N,08404.9680,W,0.5857,338.291,151117,,*3D
2017-11-15 18:15:37 1510787737.366870: $GPGSA,A,3,10,22,1,26,31,25,,,,,,,3.4,1.4,2.9*0A
2017-11-15 18:15:38 1510787738.331034: $GPZDA,231537.00,15,11,2017,00,00*67
2017-11-15 18:15:38 1510787738.331355: $GPGGA,231537,3946.9571,N,08404.9687,W,1,06,1.20,304.24,M,-33.324,M,,*77
2017-11-15 18:15:38 1510787738.331455: $GPRMC,231537,A,3946.9571,N,08404.9687,W,0.5912,309.172,151117,,*37
2017-11-15 18:15:38 1510787738.331534: $GPGSA,A,3,10,22,1,26,31,25,,,,,,,3.4,1.2,2.9*0C
2017-11-15 18:15:39 1510787739.665561: $GPGSV,3,1,11,10,29,154,05,22,34,307,20,01,21,282,08,26,18,180,14*76
2017-11-15 18:15:39 1510787739.665732: $GPGSV,3,2,11,31,73,252,22,32,60,067,14,25,39,066,21,14,70,018,00*7D
2017-11-15 18:15:39 1510787739.665793: $GPGSV,3,3,11,03,14,316,00,12,12,036,00,11,02,267,00*4F
2017-11-15 18:15:39 1510787739.778891: $GPZDA,231538.00,15,11,2017,00,00*68
2017-11-15 18:15:39 1510787739.779049: $GPGGA,231538,3946.9579,N,08404.9687,W,1,06,1.20,304.11,M,-33.324,M,,*76
2017-11-15 18:15:39 1510787739.779130: $GPRMC,231538,A,3946.9579,N,08404.9687,W,0.1867,0.000,151117,,*39
2017-11-15 18:15:39 1510787739.779188: $GPGSA,A,3,22,1,26,31,32,25,,,,,,,3.4,1.2,2.9*0C
2017-11-15 18:15:40 1510787740.329734: $GPZDA,231539.00,15,11,2017,00,00*69
2017-11-15 18:15:40 1510787740.329916: $GPGGA,231539,3946.9579,N,08404.9687,W,1,06,1.20,304.11,M,-33.324,M,,*77
2017-11-15 18:15:40 1510787740.329978: $GPRMC,231539,A,3946.9579,N,08404.9687,W,0.4207,219.347,151117,,*3B
2017-11-15 18:15:40 1510787740.330084: $GPGSA,A,3,22,1,26,31,32,25,,,,,,,3.4,1.2,2.9*0C
2017-11-15 18:15:41 1510787741.361468: $GPZDA,231540.00,15,11,2017,00,00*67
2017-11-15 18:15:41 1510787741.361637: $GPGGA,231540,3946.9576,N,08404.9687,W,1,06,1.20,304.88,M,-33.324,M,,*76
2017-11-15 18:15:41 1510787741.361698: $GPRMC,231540,A,3946.9576,N,08404.9687,W,0.5287,182.716,151117,,*32
2017-11-15 18:15:41 1510787741.361754: $GPGSA,A,3,22,1,26,31,32,25,,,,,,,3.4,1.2,2.9*0C
2017-11-15 18:15:42 1510787742.697226: $GPGSV,3,1,11,10,29,154,04,22,34,307,20,01,21,282,08,26,18,180,15*76
2017-11-15 18:15:42 1510787742.697396: $GPGSV,3,2,11,31,73,252,22,32,60,067,16,25,39,066,21,14,70,018,00*7F
2017-11-15 18:15:42 1510787742.697455: $GPGSV,3,3,11,03,14,316,00,12,12,036,00,11,02,267,00*4F
2017-11-15 18:15:42 1510787742.810632: $GPZDA,231541.00,15,11,2017,00,00*66
2017-11-15 18:15:42 1510787742.810810: $GPGGA,231541,3946.9571,N,08404.9687,W,1,06,1.20,304.24,M,-33.324,M,,*76
2017-11-15 18:15:42 1510787742.810872: $GPRMC,231541,A,3946.9571,N,08404.9687,W,0.8709,183.298,151117,,*38
2017-11-15 18:15:42 1510787742.810928: $GPGSA,A,3,22,1,26,31,32,25,,,,,,,3.4,1.2,2.9*0C
2017-11-15 18:15:43 1510787743.330527: $GPZDA,231542.00,15,11,2017,00,00*65
2017-11-15 18:15:43 1510787743.330685: $GPGGA,231542,3946.9571,N,08404.9687,W,1,06,1.20,304.24,M,-33.324,M,,*75
2017-11-15 18:15:43 1510787743.330746: $GPRMC,231542,A,3946.9571,N,08404.9687,W,1.0269,184.197,151117,,*3A
2017-11-15 18:15:43 1510787743.330801: $GPGSA,A,3,22,1,26,31,32,25,,,,,,,3.4,1.2,2.9*0C
2017-11-15 18:15:44 1510787744.361176: $GPZDA,231543.00,15,11,2017,00,00*64
2017-11-15 18:15:44 1510787744.361327: $GPGGA,231543,3946.9571,N,08404.9687,W,1,06,1.20,304.24,M,-33.324,M,,*74
2017-11-15 18:15:44 1510787744.361386: $GPRMC,231543,A,3946.9571,N,08404.9687,W,1.3921,194.217,151117,,*35
2017-11-15 18:15:44 1510787744.361442: $GPGSA,A,3,22,1,26,31,32,25,,,,,,,3.4,1.2,2.9*0C
2017-11-15 18:15:45 1510787745.695637: $GPGSV,3,1,11,10,29,154,04,22,34,307,20,01,21,282,07,26,18,180,15*79
2017-11-15 18:15:45 1510787745.695786: $GPGSV,3,2,11,31,73,252,22,32,60,067,17,25,39,066,21,14,70,018,00*7E
2017-11-15 18:15:45 1510787745.695846: $GPGSV,3,3,11,03,14,316,00,12,12,036,00,11,02,267,00*4F
2017-11-15 18:15:45 1510787745.809267: $GPZDA,231544.00,15,11,2017,00,00*63
2017-11-15 18:15:45 1510787745.809441: $GPGGA,231544,3946.9564,N,08404.9688,W,1,06,1.20,304.36,M,-33.324,M,,*7B
2017-11-15 18:15:45 1510787745.809503: $GPRMC,231544,A,3946.9564,N,08404.9688,W,1.5555,183.693,151117,,*3E
2017-11-15 18:15:45 1510787745.809559: $GPGSA,A,3,22,1,26,31,32,25,,,,,,,3.4,1.2,2.9*0C
2017-11-15 18:15:46 1510787746.434441: $GPZDA,231545.00,15,11,2017,00,00*62
2017-11-15 18:15:46 1510787746.434599: $GPGGA,231545,3946.9564,N,08404.9688,W,1,06,1.20,304.36,M,-33.324,M,,*7A
2017-11-15 18:15:46 1510787746.434658: $GPRMC,231545,A,3946.9564,N,08404.9688,W,1.3082,161.818,151117,,*37
2017-11-15 18:15:46 1510787746.434714: $GPGSA,A,3,22,1,26,31,32,25,,,,,,,3.4,1.2,2.9*0C
2017-11-15 18:15:47 1510787747.329095: $GPZDA,231546.00,15,11,2017,00,00*61
2017-11-15 18:15:47 1510787747.787986: $GPGGA,231546,3946.9560,N,08404.9689,W,1,06,1.20,305.13,M,-33.324,M,,*7A
2017-11-15 18:15:47 1510787747.788144: $GPRMC,231546,A,3946.9560,N,08404.9689,W,1.3888,174.152,151117,,*30
2017-11-15 18:15:47 1510787747.788205: $GPGSA,A,3,22,1,26,31,32,25,,,,,,,3.4,1.2,2.9*0C
