2017-11-15 17:34:03 1510785243.524310: {"class":"VERSION","release":"3.17","rev":"3.17","proto_major":3,"proto_minor":12}
2017-11-15 17:34:03 1510785243.524827: {"class":"DEVICES","devices":[{"class":"DEVICE","path":"/dev/ttyUSB0","driver":"SiRF","subtype":"9\u0006GSD4e_4.1.2-P1_RPATCH.05-F-GPS-4R-1510281 11/03/2015 307","activated":"2017-11-15T22:34:03.515Z","flags":1,"native":1,"bps":4800,"parity":"N","stopbits":1,"cycle":1.00}]}
2017-11-15 17:34:03 1510785243.524941: {"class":"WATCH","enable":true,"json":false,"nmea":true,"raw":0,"scaled":false,"timing":false,"split24":false,"pps":false}
2017-11-15 17:34:03 1510785243.627725: $GPZDA,223402.00,15,11,2017,00,00*63
2017-11-15 17:34:03 1510785243.627873: $GPGGA,223402,3946.9452,N,08404.9466,W,1,07,1.20,330.71,M,-33.324,M,,*78
2017-11-15 17:34:03 1510785243.627934: $GPRMC,223402,A,3946.9452,N,08404.9466,W,0.7278,23.636,151117,,*07
2017-11-15 17:34:03 1510785243.627990: $GPGSA,A,3,10,25,32,14,18,31,22,,,,,,3.4,1.2,2.9*34
2017-11-15 17:34:04 1510785244.151626: $GPZDA,223403.00,15,11,2017,00,00*62
2017-11-15 17:34:04 1510785244.151783: $GPGGA,223403,3946.9456,N,08404.9472,W,1,07,1.20,329.86,M,-33.324,M,,*78
2017-11-15 17:34:04 1510785244.151846: $GPRMC,223403,A,3946.9456,N,08404.9472,W,0.4179,328.778,151117,,*35
2017-11-15 17:34:04 1510785244.151902: $GPGSA,A,3,10,25,32,14,18,31,22,,,,,,3.4,1.2,2.9*34
2017-11-15 17:34:05 1510785245.177769: $GPZDA,223404.00,15,11,2017,00,00*65
2017-11-15 17:34:05 1510785245.177931: $GPGGA,223404,3946.9452,N,08404.9479,W,1,07,1.20,329.14,M,-33.324,M,,*7B
2017-11-15 17:34:05 1510785245.177995: $GPRMC,223404,A,3946.9452,N,08404.9479,W,0.7267,273.794,151117,,*3F
2017-11-15 17:34:05 1510785245.178052: $GPGSA,A,3,10,25,32,14,18,31,22,,,,,,3.4,1.2,2.9*34
2017-11-15 17:34:06 1510785246.486019: $GPGSV,3,1,12,10,49,148,21,25,39,091,25,32,69,025,25,14,66,327,09*7C
2017-11-15 17:34:06 1510785246.486191: $GPGSV,3,2,12,18,19,144,16,26,01,183,04,31,54,225,22,22,18,312,08*70
2017-11-15 17:34:06 1510785246.486252: $GPGSV,3,3,12,12,22,051,00,01,21,301,00,11,08,282,00,120,07,103,00*4B
2017-11-15 17:34:06 1510785246.599635: $GPZDA,223405.00,15,11,2017,00,00*64
2017-11-15 17:34:06 1510785246.599799: $GPGGA,223405,3946.9456,N,08404.9485,W,1,07,1.20,328.30,M,-33.324,M,,*7A
2017-11-15 17:34:06 1510785246.599860: $GPRMC,223405,A,3946.9456,N,08404.9485,W,0.7621,287.945,151117,,*36
2017-11-15 17:34:06 1510785246.599916: $GPGSA,A,3,10,25,32,14,18,31,22,,,,,,3.4,1.2,2.9*34
2017-11-15 17:34:07 1510785247.178573: $GPZDA,223406.00,15,11,2017,00,00*67
2017-11-15 17:34:07 1510785247.178766: $GPGGA,223406,3946.9460,N,08404.9492,W,1,07,1.20,327.46,M,-33.324,M,,*74
2017-11-15 17:34:07 1510785247.178855: $GPRMC,223406,A,3946.9460,N,08404.9492,W,0.7621,287.945,151117,,*36
2017-11-15 17:34:07 1510785247.178917: $GPGSA,A,3,10,25,32,14,18,31,22,,,,,,3.4,1.2,2.9*34
2017-11-15 17:34:08 1510785248.151116: $GPZDA,223407.00,15,11,2017,00,00*66
2017-11-15 17:34:08 1510785248.151278: $GPGGA,223407,3946.9464,N,08404.9498,W,1,07,1.20,326.61,M,-33.324,M,,*7F
2017-11-15 17:34:08 1510785248.151341: $GPRMC,223407,A,3946.9464,N,08404.9498,W,0.5306,294.352,151117,,*35
2017-11-15 17:34:08 1510785248.151399: $GPGSA,A,3,10,25,32,14,18,31,22,,,,,,3.4,1.2,2.9*34
2017-11-15 17:34:09 1510785249.518554: $GPGSV,3,1,12,10,49,148,21,25,39,091,25,32,69,025,25,14,66,327,09*7C
2017-11-15 17:34:09 1510785249.518737: $GPGSV,3,2,12,18,19,144,16,26,01,183,13,31,54,225,22,22,18,312,12*7D
2017-11-15 17:34:09 1510785249.518801: $GPGSV,3,3,12,01,21,301,01,12,22,051,02,11,08,282,00,120,07,103,00*48
2017-11-15 17:34:09 1510785249.632117: $GPZDA,223408.00,15,11,2017,00,00*69
2017-11-15 17:34:09 1510785249.632278: $GPGGA,223408,3946.9467,N,08404.9504,W,1,08,1.20,325.77,M,-33.324,M,,*7C
2017-11-15 17:34:09 1510785249.632360: $GPRMC,223408,A,3946.9467,N,08404.9504,W,0.5912,309.173,151117,,*36
2017-11-15 17:34:09 1510785249.632417: $GPGSA,A,3,10,25,32,14,18,26,31,22,,,,,3.4,1.2,2.9*30
2017-11-15 17:34:10 1510785250.174391: $GPZDA,223409.00,15,11,2017,00,00*68
2017-11-15 17:34:10 1510785250.174569: $GPGGA,223409,3946.9471,N,08404.9503,W,1,08,1.20,325.00,M,-33.324,M,,*7D
2017-11-15 17:34:10 1510785250.174701: $GPRMC,223409,A,3946.9471,N,08404.9503,W,0.8011,299.090,151117,,*34
2017-11-15 17:34:10 1510785250.174759: $GPGSA,A,3,10,25,32,14,18,26,31,22,,,,,3.4,1.2,2.9*30
2017-11-15 17:34:11 1510785251.176355: $GPZDA,223410.00,15,11,2017,00,00*60
2017-11-15 17:34:11 1510785251.176678: $GPGGA,223410,3946.9475,N,08404.9510,W,1,08,1.20,324.16,M,-33.324,M,,*75
2017-11-15 17:34:11 1510785251.176802: $GPRMC,223410,A,3946.9475,N,08404.9510,W,0.5951,238.684,151117,,*32
2017-11-15 17:34:11 1510785251.176861: $GPGSA,A,3,10,25,32,14,18,26,31,22,,,,,3.4,1.2,2.9*30
2017-11-15 17:34:12 1510785252.488489: $GPGSV,3,1,12,10,49,148,21,25,39,091,25,32,69,025,25,14,66,327,10*74
2017-11-15 17:34:12 1510785252.488702: $GPGSV,3,2,12,18,19,144,16,26,01,183,03,31,54,225,23,22,18,312,13*7C
2017-11-15 17:34:12 1510785252.488765: $GPGSV,3,3,12,12,22,051,00,01,21,301,00,11,08,282,00,120,07,103,00*4B
2017-11-15 17:34:12 1510785252.601098: $GPZDA,223411.00,15,11,2017,00,00*61
2017-11-15 17:34:12 1510785252.601263: $GPGGA,223411,3946.9478,N,08404.9516,W,1,07,1.20,323.32,M,-33.324,M,,*71
2017-11-15 17:34:12 1510785252.601346: $GPRMC,223411,A,3946.9478,N,08404.9516,W,0.2422,273.794,151117,,*39
2017-11-15 17:34:12 1510785252.601404: $GPGSA,A,3,10,25,32,14,18,31,22,,,,,,3.4,1.2,2.9*34
2017-11-15 17:34:13 1510785253.175411: $GPZDA,223412.00,15,11,2017,00,00*62
2017-11-15 17:34:13 1510785253.175586: $GPGGA,223412,3946.9478,N,08404.9516,W,1,07,1.20,323.32,M,-33.324,M,,*72
2017-11-15 17:34:13 1510785253.175647: $GPRMC,223412,A,3946.9478,N,08404.9516,W,0.5230,76.444,151117,,*01
2017-11-15 17:34:13 1510785253.175703: $GPGSA,A,3,10,25,32,14,18,31,22,,,,,,3.4,1.2,2.9*34
2017-11-15 17:34:14 1510785254.176443: $GPZDA,223413.00,15,11,2017,00,00*63
2017-11-15 17:34:14 1510785254.176605: $GPGGA,223413,3946.9478,N,08404.9515,W,1,07,1.20,321.91,M,-33.324,M,,*7B
2017-11-15 17:34:14 1510785254.176665: $GPRMC,223413,A,3946.9478,N,08404.9515,W,0.3155,129.994,151117,,*3E
2017-11-15 17:34:14 1510785254.176791: $GPGSA,A,3,10,25,32,14,18,31,22,,,,,,3.4,1.2,2.9*34
2017-11-15 17:34:15 1510785255.486366: $GPGSV,3,1,12,10,49,148,20,25,39,091,24,32,69,025,25,14,66,327,11*75
2017-11-15 17:34:15 1510785255.486555: $GPGSV,3,2,12,18,19,144,16,26,01,183,14,31,54,225,22,22,18,312,13*7B
2017-11-15 17:34:15 1510785255.486616: $GPGSV,3,3,12,12,22,051,00,01,21,301,00,11,08,282,00,120,07,103,00*4B
2017-11-15 17:34:15 1510785255.599825: $GPZDA,223414.00,15,11,2017,00,00*64
2017-11-15 17:34:15 1510785255.599991: $GPGGA,223414,3946.9486,N,08404.9521,W,1,07,1.20,321.71,M,-33.324,M,,*74
2017-11-15 17:34:15 1510785255.600052: $GPRMC,223414,A,3946.9486,N,08404.9521,W,0.4207,39.347,151117,,*08
2017-11-15 17:34:15 1510785255.600108: $GPGSA,A,3,10,25,32,14,18,31,22,,,,,,3.4,1.2,2.9*34
2017-11-15 17:34:16 1510785256.175633: $GPZDA,223415.00,15,11,2017,00,00*65
2017-11-15 17:34:16 1510785256.175788: $GPGGA,223415,3946.9489,N,08404.9521,W,1,07,1.20,320.94,M,-33.324,M,,*70
2017-11-15 17:34:16 1510785256.175849: $GPRMC,223415,A,3946.9489,N,08404.9521,W,0.3155,309.994,151117,,*31
2017-11-15 17:34:16 1510785256.175905: $GPGSA,A,3,10,25,32,14,18,31,22,,,,,,3.4,1.2,2.9*34
2017-11-15 17:34:17 1510785257.175722: $GPZDA,223416.00,15,11,2017,00,00*66
2017-11-15 17:34:17 1510785257.175876: $GPGGA,223416,3946.9493,N,08404.9527,W,1,07,1.20,320.10,M,-33.324,M,,*72
2017-11-15 17:34:17 1510785257.175936: $GPRMC,223416,A,3946.9493,N,08404.9527,W,0.3423,4.197,151117,,*3E
2017-11-15 17:34:17 1510785257.175992: $GPGSA,A,3,10,25,32,14,18,31,22,,,,,,3.4,1.2,2.9*34
2017-11-15 17:34:18 1510785258.513335: $GPGSV,3,1,12,10,49,148,20,25,39,091,24,32,69,025,25,14,66,327,11*75
2017-11-15 17:34:18 1510785258.513505: $GPGSV,3,2,12,18,19,144,16,26,01,183,13,31,54,225,22,22,18,312,12*7D
2017-11-15 17:34:18 1510785258.513566: $GPGSV,3,3,12,12,22,051,00,01,21,301,00,11,08,282,00,120,07,103,00*4B
2017-11-15 17:34:18 1510785258.627080: $GPZDA,223417.00,15,11,2017,00,00*67
2017-11-15 17:34:18 1510785258.627281: $GPGGA,223417,3946.9493,N,08404.9527,W,1,08,1.20,320.10,M,-33.324,M,,*7C
2017-11-15 17:34:18 1510785258.627411: $GPRMC,223417,A,3946.9493,N,08404.9527,W,0.4179,328.778,151117,,*38
2017-11-15 17:34:18 1510785258.627470: $GPGSA,A,3,10,25,32,14,18,26,31,22,,,,,3.4,1.2,2.9*30
2017-11-15 17:34:19 1510785259.151749: $GPZDA,223418.00,15,11,2017,00,00*68
2017-11-15 17:34:19 1510785259.151915: $GPGGA,223418,3946.9497,N,08404.9533,W,1,08,1.20,319.26,M,-33.324,M,,*7D
2017-11-15 17:34:19 1510785259.151976: $GPRMC,223418,A,3946.9497,N,08404.9533,W,0.4179,328.778,151117,,*36
2017-11-15 17:34:19 1510785259.152031: $GPGSA,A,3,10,25,32,14,18,26,31,22,,,,,3.4,1.2,2.9*30
2017-11-15 17:34:20 1510785260.176861: $GPZDA,223419.00,15,11,2017,00,00*69
2017-11-15 17:34:20 1510785260.177029: $GPGGA,223419,3946.9500,N,08404.9533,W,1,08,1.20,318.49,M,-33.324,M,,*7B
2017-11-15 17:34:20 1510785260.177092: $GPRMC,223419,A,3946.9500,N,08404.9533,W,0.4844,273.794,151117,,*32
2017-11-15 17:34:20 1510785260.177148: $GPGSA,A,3,10,25,32,14,18,26,31,22,,,,,3.4,1.2,2.9*30
2017-11-15 17:34:21 1510785261.511353: $GPGSV,3,1,12,10,49,148,20,25,39,091,24,32,69,025,25,14,66,327,11*75
2017-11-15 17:34:21 1510785261.511542: $GPGSV,3,2,12,18,19,144,16,12,22,051,00,31,54,225,22,22,18,312,12*77
2017-11-15 17:34:21 1510785261.511603: $GPGSV,3,3,12,01,21,301,00,11,08,282,00,26,01,183,00,120,07,103,00*43
2017-11-15 17:34:21 1510785261.624726: $GPZDA,223420.00,15,11,2017,00,00*63
2017-11-15 17:34:21 1510785261.624915: $GPGGA,223420,3946.9504,N,08404.9532,W,1,07,1.20,317.73,M,-33.324,M,,*7D
2017-11-15 17:34:21 1510785261.624978: $GPRMC,223420,A,3946.9504,N,08404.9532,W,0.3423,4.197,151117,,*30
2017-11-15 17:34:21 1510785261.625034: $GPGSA,A,3,10,25,32,14,18,31,22,,,,,,3.4,1.2,2.9*34
2017-11-15 17:34:22 1510785262.176036: $GPZDA,223421.00,15,11,2017,00,00*62
2017-11-15 17:34:22 1510785262.176187: $GPGGA,223421,3946.9504,N,08404.9539,W,1,07,1.20,317.65,M,-33.324,M,,*70
2017-11-15 17:34:22 1510785262.176270: $GPRMC,223421,A,3946.9504,N,08404.9539,W,0.3423,4.197,151117,,*3A
2017-11-15 17:34:22 1510785262.176328: $GPGSA,A,3,10,25,32,14,18,31,22,,,,,,3.4,1.2,2.9*34
2017-11-15 17:34:23 1510785263.176160: $GPZDA,223422.00,15,11,2017,00,00*61
2017-11-15 17:34:23 1510785263.176347: $GPGGA,223422,3946.9507,N,08404.9538,W,1,07,1.20,316.88,M,-33.324,M,,*73
2017-11-15 17:34:23 1510785263.176431: $GPRMC,223422,A,3946.9507,N,08404.9538,W,0.0000,0.000,151117,,*36
2017-11-15 17:34:23 1510785263.176488: $GPGSA,A,3,10,25,32,14,18,31,22,,,,,,3.4,1.2,2.9*34
2017-11-15 17:34:24 1510785264.486185: $GPGSV,3,1,12,10,49,148,20,25,39,091,23,32,69,025,25,14,66,327,10*73
2017-11-15 17:34:24 1510785264.486388: $GPGSV,3,2,12,18,19,144,16,12,22,051,06,31,54,225,22,22,18,312,12*71
2017-11-15 17:34:24 1510785264.486451: $GPGSV,3,3,12,01,21,301,00,11,08,282,00,26,01,183,00,138,38,213,00*44
2017-11-15 17:34:24 1510785264.598469: $GPZDA,223423.00,15,11,2017,00,00*60
2017-11-15 17:34:24 1510785264.598688: $GPGGA,223423,3946.9503,N,08404.9538,W,1,07,1.20,316.24,M,-33.324,M,,*70
2017-11-15 17:34:24 1510785264.598766: $GPRMC,223423,A,3946.9503,N,08404.9538,W,0.4207,219.347,151117,,*38
2017-11-15 17:34:24 1510785264.598829: $GPGSA,A,3,10,25,32,14,18,31,22,,,,,,3.4,1.2,2.9*34
2017-11-15 17:34:25 1510785265.175920: $GPZDA,223424.00,15,11,2017,00,00*67
2017-11-15 17:34:25 1510785265.176088: $GPGGA,223424,3946.9507,N,08404.9544,W,1,07,1.20,315.40,M,-33.324,M,,*79
2017-11-15 17:34:25 1510785265.176152: $GPRMC,223424,A,3946.9507,N,08404.9544,W,1.1902,238.684,151117,,*33
2017-11-15 17:34:25 1510785265.176208: $GPGSA,A,3,10,25,32,14,18,31,22,,,,,,3.4,1.2,2.9*34
2017-11-15 17:34:26 1510785266.149487: $GPZDA,223425.00,15,11,2017,00,00*66
2017-11-15 17:34:26 1510785266.149835: $GPGGA,223425,3946.9507,N,08404.9551,W,1,07,2.60,315.32,M,-33.324,M,,*7E
2017-11-15 17:34:26 1510785266.149966: $GPRMC,223425,A,3946.9507,N,08404.9551,W,0.9959,264.784,151117,,*39
2017-11-15 17:34:26 1510785266.150080: $GPGSA,A,3,10,25,32,14,18,31,22,,,,,,3.4,2.6,2.9*33
2017-11-15 17:34:27 1510785267.485673: $GPGSV,3,1,12,10,49,148,20,25,39,091,22,32,69,025,25,14,66,327,11*73
2017-11-15 17:34:27 1510785267.485906: $GPGSV,3,2,12,18,19,144,17,12,22,051,14,31,54,225,22,22,18,312,04*74
2017-11-15 17:34:27 1510785267.485968: $GPGSV,3,3,12,01,21,301,00,11,08,282,00,26,01,183,00,138,38,213,00*44
2017-11-15 17:34:27 1510785267.599101: $GPZDA,223426.00,15,11,2017,00,00*65
2017-11-15 17:34:27 1510785267.599291: $GPGGA,223426,3946.9511,N,08404.9551,W,1,06,2.60,314.56,M,-33.324,M,,*78
2017-11-15 17:34:27 1510785267.599371: $GPRMC,223426,A,3946.9511,N,08404.9551,W,0.2422,273.794,151117,,*30
2017-11-15 17:34:27 1510785267.599429: $GPGSA,A,3,10,25,32,14,18,31,,,,,,,3.4,2.6,2.9*33
2017-11-15 17:34:28 1510785268.147980: $GPZDA,223427.00,15,11,2017,00,00*64
2017-11-15 17:34:28 1510785268.148135: $GPGGA,223427,3946.9507,N,08404.9551,W,1,06,2.60,313.92,M,-33.324,M,,*71
2017-11-15 17:34:28 1510785268.148196: $GPRMC,223427,A,3946.9507,N,08404.9551,W,0.8414,219.347,151117,,*3F
2017-11-15 17:34:28 1510785268.148273: $GPGSA,A,3,10,25,32,14,18,31,,,,,,,3.4,2.6,2.9*33
2017-11-15 17:34:29 1510785269.148118: $GPZDA,223428.00,15,11,2017,00,00*6B
2017-11-15 17:34:29 1510785269.148297: $GPGGA,223428,3946.9507,N,08404.9551,W,1,06,2.60,313.92,M,-33.324,M,,*7E
2017-11-15 17:34:29 1510785269.148376: $GPRMC,223428,A,3946.9507,N,08404.9551,W,0.6846,184.197,151117,,*3D
2017-11-15 17:34:29 1510785269.148433: $GPGSA,A,3,10,25,32,14,18,31,,,,,,,3.4,2.6,2.9*33
2017-11-15 17:34:30 1510785270.484168: $GPGSV,3,1,12,10,49,148,19,25,39,091,22,32,69,025,25,14,66,327,11*79
2017-11-15 17:34:30 1510785270.484375: $GPGSV,3,2,12,18,19,144,17,26,01,183,11,31,54,225,21,22,18,312,04*7A
2017-11-15 17:34:30 1510785270.484437: $GPGSV,3,3,12,12,22,051,00,01,21,301,00,11,08,282,00,138,38,213,00*4C
2017-11-15 17:34:30 1510785270.597675: $GPZDA,223429.00,15,11,2017,00,00*6A
2017-11-15 17:34:30 1510785270.597947: $GPGGA,223429,3946.9507,N,08404.9557,W,1,06,2.60,313.84,M,-33.324,M,,*7E
2017-11-15 17:34:30 1510785270.598070: $GPRMC,223429,A,3946.9507,N,08404.9557,W,0.4207,219.347,151117,,*3F
2017-11-15 17:34:30 1510785270.598184: $GPGSA,A,3,10,25,32,14,18,31,,,,,,,3.4,2.6,2.9*33
2017-11-15 17:34:31 1510785271.148398: $GPZDA,223430.00,15,11,2017,00,00*62
2017-11-15 17:34:31 1510785271.148561: $GPGGA,223430,3946.9503,N,08404.9557,W,1,06,2.60,313.20,M,-33.324,M,,*7C
2017-11-15 17:34:31 1510785271.148621: $GPRMC,223430,A,3946.9503,N,08404.9557,W,0.5951,238.684,151117,,*33
2017-11-15 17:34:31 1510785271.148677: $GPGSA,A,3,10,25,32,14,18,31,,,,,,,3.4,2.6,2.9*33
2017-11-15 17:34:32 1510785272.150023: $GPZDA,223431.00,15,11,2017,00,00*63
2017-11-15 17:34:32 1510785272.150183: $GPGGA,223431,3946.9503,N,08404.9557,W,1,06,2.00,313.20,M,-33.324,M,,*7B
2017-11-15 17:34:32 1510785272.150263: $GPRMC,223431,A,3946.9503,N,08404.9557,W,0.9689,273.794,151117,,*3B
2017-11-15 17:34:32 1510785272.150320: $GPGSA,A,3,10,25,32,14,18,31,,,,,,,3.4,2.0,2.9*35
2017-11-15 17:34:33 1510785273.484974: $GPGSV,3,1,12,10,49,148,19,25,39,091,22,32,69,025,25,14,66,327,12*7A
2017-11-15 17:34:33 1510785273.485178: $GPGSV,3,2,12,18,19,144,17,12,22,051,00,31,54,225,21,22,18,312,04*72
2017-11-15 17:34:33 1510785273.485258: $GPGSV,3,3,12,01,21,301,00,11,08,282,00,26,01,183,00,138,38,213,00*44
2017-11-15 17:34:33 1510785273.598434: $GPZDA,223432.00,15,11,2017,00,00*60
2017-11-15 17:34:33 1510785273.598594: $GPGGA,223432,3946.9503,N,08404.9564,W,1,06,2.00,313.12,M,-33.324,M,,*79
2017-11-15 17:34:33 1510785273.598654: $GPRMC,223432,A,3946.9503,N,08404.9564,W,1.2608,258.042,151117,,*3E
2017-11-15 17:34:33 1510785273.598709: $GPGSA,A,3,10,25,32,14,18,31,,,,,,,3.4,2.0,2.9*35
