2017-11-16 15:25:33 1510863933.585600: {"class":"VERSION","release":"3.17","rev":"3.17","proto_major":3,"proto_minor":12}
2017-11-16 15:25:33 1510863933.586052: {"class":"DEVICES","devices":[{"class":"DEVICE","path":"/dev/ttyUSB0","driver":"SiRF","subtype":"9\u0006GSD4e_4.1.2-P1_RPATCH.05-F-GPS-4R-1510281 11/03/2015 307","activated":"2017-11-16T20:25:33.510Z","flags":1,"native":1,"bps":4800,"parity":"N","stopbits":1,"cycle":1.00}]}
2017-11-16 15:25:33 1510863933.586171: {"class":"WATCH","enable":true,"json":false,"nmea":true,"raw":0,"scaled":false,"timing":false,"split24":false,"pps":false}
2017-11-16 15:25:34 1510863934.721867: $GPGSV,3,1,12,08,06,292,34,10,69,331,51,14,29,253,46,15,11,066,32*7E
2017-11-16 15:25:34 1510863934.722040: $GPGSV,3,2,12,18,71,094,47,20,08,118,19,21,29,180,42,24,45,058,51*79
2017-11-16 15:25:34 1510863934.722118: $GPGSV,3,3,12,27,06,259,26,32,46,265,48,12,09,106,34,138,38,213,44*46
2017-11-16 15:25:34 1510863934.835462: $GPZDA,202533.00,16,11,2017,00,00*60
2017-11-16 15:25:34 1510863934.835641: $GPGGA,202533,3946.9572,N,08404.9866,W,2,12,0.80,308.76,M,-33.324,M,,*77
2017-11-16 15:25:34 1510863934.835705: $GPRMC,202533,A,3946.9572,N,08404.9866,W,0.0000,0.000,161117,,*33
2017-11-16 15:25:34 1510863934.835783: $GPGSA,A,3,8,10,14,15,18,20,21,24,27,32,12,138,1.6,0.8,1.3*34
2017-11-16 15:25:35 1510863935.369875: $GPZDA,202534.00,16,11,2017,00,00*67
2017-11-16 15:25:35 1510863935.370046: $GPGGA,202534,3946.9572,N,08404.9866,W,2,12,0.80,308.76,M,-33.324,M,,*70
2017-11-16 15:25:35 1510863935.370111: $GPRMC,202534,A,3946.9572,N,08404.9866,W,0.0000,0.000,161117,,*34
2017-11-16 15:25:35 1510863935.370185: $GPGSA,A,3,8,10,14,15,18,20,21,24,27,32,12,138,1.6,0.8,1.3*34
2017-11-16 15:25:36 1510863936.368987: $GPZDA,202535.00,16,11,2017,00,00*66
2017-11-16 15:25:36 1510863936.369159: $GPGGA,202535,3946.9572,N,08404.9866,W,2,12,0.80,308.76,M,-33.324,M,,*71
2017-11-16 15:25:36 1510863936.369224: $GPRMC,202535,A,3946.9572,N,08404.9866,W,0.0000,0.000,161117,,*35
2017-11-16 15:25:36 1510863936.369284: $GPGSA,A,3,8,10,14,15,18,20,21,24,27,32,12,138,1.6,0.8,1.3*34
2017-11-16 15:25:37 1510863937.707193: $GPGSV,3,1,12,08,06,292,35,10,69,331,51,14,29,253,46,15,11,066,31*7C
2017-11-16 15:25:37 1510863937.707376: $GPGSV,3,2,12,18,71,094,47,20,08,118,20,21,29,180,42,24,45,058,51*73
2017-11-16 15:25:37 1510863937.707460: $GPGSV,3,3,12,27,06,259,26,32,46,265,48,12,09,106,34,138,38,213,44*46
2017-11-16 15:25:37 1510863937.820542: $GPZDA,202536.00,16,11,2017,00,00*65
2017-11-16 15:25:37 1510863937.820711: $GPGGA,202536,3946.9572,N,08404.9866,W,2,12,0.80,308.76,M,-33.324,M,,*72
2017-11-16 15:25:37 1510863937.820775: $GPRMC,202536,A,3946.9572,N,08404.9866,W,0.0000,0.000,161117,,*36
2017-11-16 15:25:37 1510863937.820834: $GPGSA,A,3,8,10,14,15,18,20,21,24,27,32,12,138,1.6,0.8,1.3*34
2017-11-16 15:25:38 1510863938.361497: $GPZDA,202537.00,16,11,2017,00,00*64
2017-11-16 15:25:38 1510863938.361665: $GPGGA,202537,3946.9572,N,08404.9866,W,2,12,0.80,308.76,M,-33.324,M,,*73
2017-11-16 15:25:38 1510863938.361731: $GPRMC,202537,A,3946.9572,N,08404.9866,W,0.0000,0.000,161117,,*37
2017-11-16 15:25:38 1510863938.361790: $GPGSA,A,3,8,10,14,15,18,20,21,24,27,32,12,138,1.6,0.8,1.3*34
2017-11-16 15:25:39 1510863939.362493: $GPZDA,202538.00,16,11,2017,00,00*6B
2017-11-16 15:25:39 1510863939.362665: $GPGGA,202538,3946.9572,N,08404.9866,W,2,12,0.80,308.76,M,-33.324,M,,*7C
2017-11-16 15:25:39 1510863939.362728: $GPRMC,202538,A,3946.9572,N,08404.9866,W,0.0000,0.000,161117,,*38
2017-11-16 15:25:39 1510863939.362789: $GPGSA,A,3,8,10,14,15,18,20,21,24,27,32,12,138,1.6,0.8,1.3*34
2017-11-16 15:25:40 1510863940.699369: $GPGSV,3,1,12,08,06,292,35,10,69,331,51,14,29,253,46,15,11,066,31*7C
2017-11-16 15:25:40 1510863940.699549: $GPGSV,3,2,12,18,71,094,47,20,08,118,25,21,29,180,42,24,45,058,51*76
2017-11-16 15:25:40 1510863940.699613: $GPGSV,3,3,12,27,06,259,25,32,46,265,48,12,09,106,34,138,38,213,44*45
2017-11-16 15:25:40 1510863940.812660: $GPZDA,202539.00,16,11,2017,00,00*6A
2017-11-16 15:25:40 1510863940.812833: $GPGGA,202539,3946.9572,N,08404.9866,W,2,12,0.80,308.76,M,-33.324,M,,*7D
2017-11-16 15:25:40 1510863940.812975: $GPRMC,202539,A,3946.9572,N,08404.9866,W,0.0000,0.000,161117,,*39
2017-11-16 15:25:40 1510863940.813036: $GPGSA,A,3,8,10,14,15,18,20,21,24,27,32,12,138,1.6,0.8,1.3*34
2017-11-16 15:25:41 1510863941.438009: $GPZDA,202540.00,16,11,2017,00,00*64
2017-11-16 15:25:41 1510863941.438175: $GPGGA,202540,3946.9572,N,08404.9866,W,2,12,0.80,308.76,M,-33.324,M,,*73
2017-11-16 15:25:41 1510863941.438236: $GPRMC,202540,A,3946.9572,N,08404.9866,W,0.0000,0.000,161117,,*37
2017-11-16 15:25:41 1510863941.438291: $GPGSA,A,3,8,10,14,15,18,20,21,24,27,32,12,138,1.6,0.8,1.3*34
2017-11-16 15:25:42 1510863942.385441: $GPZDA,202541.00,16,11,2017,00,00*65
2017-11-16 15:25:42 1510863942.385603: $GPGGA,202541,3946.9572,N,08404.9866,W,2,12,0.80,308.76,M,-33.324,M,,*72
2017-11-16 15:25:42 1510863942.385664: $GPRMC,202541,A,3946.9572,N,08404.9866,W,0.0000,0.000,161117,,*36
2017-11-16 15:25:42 1510863942.385720: $GPGSA,A,3,8,10,14,15,18,20,21,24,27,32,12,138,1.6,0.8,1.3*34
