2017-12-01 11:56:02 1512147362.153713: {"class":"VERSION","release":"3.16","rev":"3.16-4","proto_major":3,"proto_minor":11}
2017-12-01 11:56:02 1512147362.154109: {"class":"DEVICES","devices":[{"class":"DEVICE","path":"/dev/ttyUSB0","driver":"SiRF","subtype":"9\u0006GSD4e_4.1.2-P1_RPATCH.05-F-GPS-4R-1510281 11/03/2015 307","activated":"2017-12-01T16:56:01.944Z","flags":1,"native":1,"bps":4800,"parity":"N","stopbits":1,"cycle":1.00}]}
2017-12-01 11:56:02 1512147362.154232: {"class":"WATCH","enable":true,"json":false,"nmea":true,"raw":0,"scaled":false,"timing":false,"split24":false,"pps":false}
2017-12-01 11:56:02 1512147362.352521: $GPZDA,165603.00,01,12,2017,00,00*67
2017-12-01 11:56:02 1512147362.352702: $GPGGA,165603,3946.9584,N,08404.9843,W,2,11,0.80,295.27,M,-33.324,M,,*79
2017-12-01 11:56:02 1512147362.352770: $GPRMC,165603,A,3946.9584,N,08404.9843,W,0.0000,0.000,011217,,*3A
2017-12-01 11:56:02 1512147362.352831: $GPGSA,A,3,13,15,18,20,21,24,27,29,5,10,138,,2.0,0.8,1.5*34
2017-12-01 11:56:03 1512147363.336146: $GPZDA,165604.00,01,12,2017,00,00*60
2017-12-01 11:56:03 1512147363.336315: $GPGGA,165604,3946.9583,N,08404.9836,W,2,11,0.80,295.35,M,-33.324,M,,*78
2017-12-01 11:56:03 1512147363.336382: $GPRMC,165604,A,3946.9583,N,08404.9836,W,0.0000,0.000,011217,,*38
2017-12-01 11:56:03 1512147363.336443: $GPGSA,A,3,13,15,18,20,21,24,27,29,5,10,138,,2.0,0.8,1.5*34
2017-12-01 11:56:04 1512147364.687824: $GPGSV,3,1,12,13,38,048,45,15,71,060,46,18,47,291,44,20,59,058,44*79
2017-12-01 11:56:04 1512147364.688006: $GPGSV,3,2,12,21,72,300,45,24,25,145,45,27,12,321,40,29,19,193,45*74
2017-12-01 11:56:04 1512147364.688074: $GPGSV,3,3,12,05,10,081,09,10,17,276,40,04,08,132,00,138,38,213,46*41
2017-12-01 11:56:04 1512147364.801490: $GPZDA,165605.00,01,12,2017,00,00*61
2017-12-01 11:56:04 1512147364.801661: $GPGGA,165605,3946.9583,N,08404.9836,W,2,10,0.80,295.35,M,-33.324,M,,*78
2017-12-01 11:56:04 1512147364.801727: $GPRMC,165605,A,3946.9583,N,08404.9836,W,0.0000,0.000,011217,,*39
2017-12-01 11:56:04 1512147364.801789: $GPGSA,A,3,13,15,18,20,21,24,27,29,10,138,,,2.0,0.8,1.5*01
2017-12-01 11:56:05 1512147365.426846: $GPZDA,165606.00,01,12,2017,00,00*62
2017-12-01 11:56:05 1512147365.427018: $GPGGA,165606,3946.9583,N,08404.9836,W,2,10,0.80,295.35,M,-33.324,M,,*7B
2017-12-01 11:56:05 1512147365.427084: $GPRMC,165606,A,3946.9583,N,08404.9836,W,0.0000,0.000,011217,,*3A
2017-12-01 11:56:05 1512147365.427146: $GPGSA,A,3,13,15,18,20,21,24,27,29,10,138,,,2.0,0.8,1.5*01
2017-12-01 11:56:06 1512147366.331459: $GPZDA,165607.00,01,12,2017,00,00*63
2017-12-01 11:56:06 1512147366.334910: $GPGGA,165607,3946.9583,N,08404.9836,W,2,10,0.80,295.35,M,-33.324,M,,*7A
2017-12-01 11:56:06 1512147366.335022: $GPRMC,165607,A,3946.9583,N,08404.9836,W,0.0000,0.000,011217,,*3B
2017-12-01 11:56:06 1512147366.335086: $GPGSA,A,3,13,15,18,20,21,24,27,29,10,138,,,2.0,0.8,1.5*01
2017-12-01 11:56:07 1512147367.694437: $GPGSV,3,1,12,13,38,048,45,15,71,060,45,18,47,291,44,20,59,058,43*7D
2017-12-01 11:56:07 1512147367.694584: $GPGSV,3,2,12,21,72,300,45,24,25,145,45,27,12,321,41,29,19,193,44*74
2017-12-01 11:56:07 1512147367.694649: $GPGSV,3,3,12,05,10,081,17,10,17,276,40,04,08,132,05,138,38,213,46*4B
2017-12-01 11:56:07 1512147367.808079: $GPZDA,165608.00,01,12,2017,00,00*6C
2017-12-01 11:56:07 1512147367.808247: $GPGGA,165608,3946.9583,N,08404.9836,W,2,11,0.80,295.35,M,-33.324,M,,*74
2017-12-01 11:56:07 1512147367.808314: $GPRMC,165608,A,3946.9583,N,08404.9836,W,0.0000,0.000,011217,,*34
2017-12-01 11:56:07 1512147367.808375: $GPGSA,A,3,13,15,18,20,21,24,27,29,5,10,138,,2.0,0.8,1.5*34
2017-12-01 11:56:08 1512147368.336461: $GPZDA,165609.00,01,12,2017,00,00*6D
2017-12-01 11:56:08 1512147368.336632: $GPGGA,165609,3946.9583,N,08404.9836,W,2,11,0.80,295.35,M,-33.324,M,,*75
2017-12-01 11:56:08 1512147368.336699: $GPRMC,165609,A,3946.9583,N,08404.9836,W,0.0000,0.000,011217,,*35
2017-12-01 11:56:08 1512147368.336760: $GPGSA,A,3,13,15,18,20,21,24,27,29,5,10,138,,2.0,0.8,1.5*34
2017-12-01 11:56:09 1512147369.337298: $GPZDA,165610.00,01,12,2017,00,00*65
2017-12-01 11:56:09 1512147369.337518: $GPGGA,165610,3946.9583,N,08404.9836,W,2,11,0.80,295.35,M,-33.324,M,,*7D
2017-12-01 11:56:09 1512147369.337587: $GPRMC,165610,A,3946.9583,N,08404.9836,W,0.0000,0.000,011217,,*3D
2017-12-01 11:56:09 1512147369.337649: $GPGSA,A,3,13,15,18,20,21,24,27,29,5,10,138,,2.0,0.8,1.5*34
2017-12-01 11:56:10 1512147370.689794: $GPGSV,3,1,12,13,38,048,45,15,71,060,46,18,47,291,44,20,59,058,44*79
2017-12-01 11:56:10 1512147370.689974: $GPGSV,3,2,12,21,72,300,45,24,25,145,45,27,12,321,41,29,19,193,44*74
2017-12-01 11:56:10 1512147370.690041: $GPGSV,3,3,12,05,10,081,13,10,17,276,40,04,08,132,00,138,38,213,47*4B
2017-12-01 11:56:10 1512147370.803366: $GPZDA,165611.00,01,12,2017,00,00*64
2017-12-01 11:56:10 1512147370.803496: $GPGGA,165611,3946.9583,N,08404.9836,W,2,11,0.80,295.35,M,-33.324,M,,*7C
2017-12-01 11:56:10 1512147370.803561: $GPRMC,165611,A,3946.9583,N,08404.9836,W,0.0000,0.000,011217,,*3C
2017-12-01 11:56:10 1512147370.803621: $GPGSA,A,3,13,15,18,20,21,24,27,29,5,10,138,,2.0,0.8,1.5*34
2017-12-01 11:56:11 1512147371.335608: $GPZDA,165612.00,01,12,2017,00,00*67
2017-12-01 11:56:11 1512147371.338329: $GPGGA,165612,3946.9583,N,08404.9836,W,2,11,0.80,295.35,M,-33.324,M,,*7F
2017-12-01 11:56:11 1512147371.338435: $GPRMC,165612,A,3946.9583,N,08404.9836,W,0.0000,0.000,011217,,*3F
2017-12-01 11:56:11 1512147371.338500: $GPGSA,A,3,13,15,18,20,21,24,27,29,5,10,138,,2.0,0.8,1.5*34
