2017-11-16 15:26:01 1510863961.687850: {"class":"VERSION","release":"3.17","rev":"3.17","proto_major":3,"proto_minor":12}
2017-11-16 15:26:01 1510863961.688484: {"class":"DEVICES","devices":[{"class":"DEVICE","path":"/dev/ttyUSB0","driver":"SiRF","subtype":"9\u0006GSD4e_4.1.2-P1_RPATCH.05-F-GPS-4R-1510281 11/03/2015 307","activated":"2017-11-16T20:26:01.257Z","flags":1,"native":1,"bps":4800,"parity":"N","stopbits":1,"cycle":1.00}]}
2017-11-16 15:26:01 1510863961.688608: {"class":"WATCH","enable":true,"json":false,"nmea":true,"raw":0,"scaled":false,"timing":false,"split24":false,"pps":false}
2017-11-16 15:26:01 1510863961.707057: $GPGSV,3,1,12,08,06,292,40,10,69,331,51,14,29,253,46,15,11,066,00*7C
2017-11-16 15:26:01 1510863961.707232: $GPGSV,3,2,12,18,71,094,48,20,08,118,30,21,29,180,43,24,45,058,51*7C
2017-11-16 15:26:01 1510863961.707293: $GPGSV,3,3,12,27,06,259,28,32,46,265,48,12,09,106,32,138,38,213,45*4F
2017-11-16 15:26:01 1510863961.820357: $GPZDA,202600.00,16,11,2017,00,00*63
2017-11-16 15:26:01 1510863961.820528: $GPGGA,202600,3946.9572,N,08404.9866,W,2,11,1.00,308.76,M,-33.324,M,,*7E
2017-11-16 15:26:01 1510863961.820590: $GPRMC,202600,A,3946.9572,N,08404.9866,W,0.0000,0.000,161117,,*30
2017-11-16 15:26:01 1510863961.820645: $GPGSA,A,3,8,10,14,18,20,21,24,27,32,12,138,,1.6,1.0,1.3*39
2017-11-16 15:26:02 1510863962.367586: $GPZDA,202601.00,16,11,2017,00,00*62
2017-11-16 15:26:02 1510863962.367750: $GPGGA,202601,3946.9572,N,08404.9866,W,2,11,1.00,308.76,M,-33.324,M,,*7F
2017-11-16 15:26:02 1510863962.367858: $GPRMC,202601,A,3946.9572,N,08404.9866,W,0.0000,0.000,161117,,*31
2017-11-16 15:26:02 1510863962.367918: $GPGSA,A,3,8,10,14,18,20,21,24,27,32,12,138,,1.6,1.0,1.3*39
2017-11-16 15:26:03 1510863963.368596: $GPZDA,202602.00,16,11,2017,00,00*61
2017-11-16 15:26:03 1510863963.368781: $GPGGA,202602,3946.9572,N,08404.9866,W,2,11,0.80,308.76,M,-33.324,M,,*75
2017-11-16 15:26:03 1510863963.368847: $GPRMC,202602,A,3946.9572,N,08404.9866,W,0.0000,0.000,161117,,*32
2017-11-16 15:26:03 1510863963.368906: $GPGSA,A,3,8,10,14,18,20,21,24,27,32,12,138,,1.6,0.8,1.3*30
2017-11-16 15:26:04 1510863964.697844: $GPGSV,3,1,12,08,06,292,40,10,69,331,51,14,29,253,46,15,11,066,24*7A
2017-11-16 15:26:04 1510863964.698012: $GPGSV,3,2,12,18,71,094,48,20,08,118,30,21,29,180,43,24,45,058,51*7C
2017-11-16 15:26:04 1510863964.698072: $GPGSV,3,3,12,27,06,259,28,32,46,265,49,12,09,106,29,138,38,213,45*44
2017-11-16 15:26:04 1510863964.811250: $GPZDA,202603.00,16,11,2017,00,00*60
2017-11-16 15:26:04 1510863964.811430: $GPGGA,202603,3946.9569,N,08404.9867,W,2,12,0.80,309.53,M,-33.324,M,,*7A
2017-11-16 15:26:04 1510863964.811492: $GPRMC,202603,A,3946.9569,N,08404.9867,W,0.0000,0.000,161117,,*38
2017-11-16 15:26:04 1510863964.811548: $GPGSA,A,3,8,10,14,15,18,20,21,24,27,32,12,138,1.6,0.8,1.3*34
2017-11-16 15:26:05 1510863965.368300: $GPZDA,202604.00,16,11,2017,00,00*67
2017-11-16 15:26:05 1510863965.368462: $GPGGA,202604,3946.9569,N,08404.9867,W,2,12,1.00,309.53,M,-33.324,M,,*74
2017-11-16 15:26:05 1510863965.368523: $GPRMC,202604,A,3946.9569,N,08404.9867,W,0.0000,0.000,161117,,*3F
2017-11-16 15:26:05 1510863965.368579: $GPGSA,A,3,8,10,14,15,18,20,21,24,27,32,12,138,1.6,1.0,1.3*3D
2017-11-16 15:26:06 1510863966.367401: $GPZDA,202605.00,16,11,2017,00,00*66
2017-11-16 15:26:06 1510863966.367568: $GPGGA,202605,3946.9569,N,08404.9867,W,2,12,0.80,309.53,M,-33.324,M,,*7C
2017-11-16 15:26:06 1510863966.367630: $GPRMC,202605,A,3946.9569,N,08404.9867,W,0.0000,0.000,161117,,*3E
2017-11-16 15:26:06 1510863966.367687: $GPGSA,A,3,8,10,14,15,18,20,21,24,27,32,12,138,1.6,0.8,1.3*34
2017-11-16 15:26:07 1510863967.707005: $GPGSV,3,1,12,08,06,292,40,10,69,331,51,14,29,253,46,15,11,066,21*7F
2017-11-16 15:26:07 1510863967.707196: $GPGSV,3,2,12,18,71,094,48,20,08,118,31,21,29,180,43,24,45,058,51*7D
2017-11-16 15:26:07 1510863967.707273: $GPGSV,3,3,12,27,06,259,28,32,46,265,48,12,09,106,30,138,38,213,44*4C
2017-11-16 15:26:07 1510863967.820254: $GPZDA,202606.00,16,11,2017,00,00*65
2017-11-16 15:26:07 1510863967.820561: $GPGGA,202606,3946.9569,N,08404.9867,W,2,12,0.80,309.53,M,-33.324,M,,*7F
2017-11-16 15:26:07 1510863967.820772: $GPRMC,202606,A,3946.9569,N,08404.9867,W,0.0000,0.000,161117,,*3D
2017-11-16 15:26:07 1510863967.820871: $GPGSA,A,3,8,10,14,15,18,20,21,24,27,32,12,138,1.6,0.8,1.3*34
2017-11-16 15:26:08 1510863968.362394: $GPZDA,202607.00,16,11,2017,00,00*64
2017-11-16 15:26:08 1510863968.362575: $GPGGA,202607,3946.9569,N,08404.9867,W,2,12,1.00,309.53,M,-33.324,M,,*77
2017-11-16 15:26:08 1510863968.362637: $GPRMC,202607,A,3946.9569,N,08404.9867,W,0.0000,0.000,161117,,*3C
2017-11-16 15:26:08 1510863968.362693: $GPGSA,A,3,8,10,14,15,18,20,21,24,27,32,12,138,1.6,1.0,1.3*3D
2017-11-16 15:26:09 1510863969.363251: $GPZDA,202608.00,16,11,2017,00,00*6B
2017-11-16 15:26:09 1510863969.363417: $GPGGA,202608,3946.9569,N,08404.9867,W,2,12,1.00,309.53,M,-33.324,M,,*78
2017-11-16 15:26:09 1510863969.363478: $GPRMC,202608,A,3946.9569,N,08404.9867,W,0.0000,0.000,161117,,*33
2017-11-16 15:26:09 1510863969.363534: $GPGSA,A,3,8,10,14,15,18,20,21,24,27,32,12,138,1.6,1.0,1.3*3D
2017-11-16 15:26:10 1510863970.705264: $GPGSV,3,1,12,08,06,292,40,10,69,331,51,14,29,253,47,15,11,066,20*7F
2017-11-16 15:26:10 1510863970.705434: $GPGSV,3,2,12,18,71,094,48,20,08,118,31,21,29,180,43,24,45,058,51*7D
2017-11-16 15:26:10 1510863970.705530: $GPGSV,3,3,12,27,06,259,28,32,46,265,48,12,09,106,30,138,38,213,45*4D
2017-11-16 15:26:10 1510863970.818577: $GPZDA,202609.00,16,11,2017,00,00*6A
2017-11-16 15:26:10 1510863970.818760: $GPGGA,202609,3946.9569,N,08404.9867,W,2,12,0.80,309.53,M,-33.324,M,,*70
2017-11-16 15:26:10 1510863970.818821: $GPRMC,202609,A,3946.9569,N,08404.9867,W,0.0000,0.000,161117,,*32
2017-11-16 15:26:10 1510863970.818876: $GPGSA,A,3,8,10,14,15,18,20,21,24,27,32,12,138,1.6,0.8,1.3*34
2017-11-16 15:26:11 1510863971.443931: $GPZDA,202610.00,16,11,2017,00,00*62
2017-11-16 15:26:11 1510863971.444146: $GPGGA,202610,3946.9569,N,08404.9867,W,2,12,0.80,309.53,M,-33.324,M,,*78
2017-11-16 15:26:11 1510863971.444209: $GPRMC,202610,A,3946.9569,N,08404.9867,W,0.0000,0.000,161117,,*3A
2017-11-16 15:26:11 1510863971.444266: $GPGSA,A,3,8,10,14,15,18,20,21,24,27,32,12,138,1.6,0.8,1.3*34
