2017-12-01 15:55:05 1512161705.546895: {"class":"VERSION","release":"3.16","rev":"3.16-4","proto_major":3,"proto_minor":11}
2017-12-01 15:55:05 1512161705.547312: {"class":"DEVICES","devices":[{"class":"DEVICE","path":"/dev/ttyUSB0","driver":"SiRF","subtype":"9\u0006GSD4e_4.1.2-P1_RPATCH.05-F-GPS-4R-1510281 11/03/2015 307","activated":"2017-12-01T20:55:05.523Z","flags":1,"native":1,"bps":4800,"parity":"N","stopbits":1,"cycle":1.00}]}
2017-12-01 15:55:05 1512161705.547434: {"class":"WATCH","enable":true,"json":false,"nmea":true,"raw":0,"scaled":false,"timing":false,"split24":false,"pps":false}
2017-12-01 15:55:06 1512161706.743619: $GPGSV,3,1,12,01,16,315,36,10,65,136,47,11,11,297,32,12,25,066,38*7B
2017-12-01 15:55:06 1512161706.743817: $GPGSV,3,2,12,14,57,298,43,18,33,138,46,22,06,312,40,25,32,111,45*7D
2017-12-01 15:55:06 1512161706.743884: $GPGSV,3,3,12,31,39,214,49,32,69,342,48,24,10,046,28,138,38,213,46*43
2017-12-01 15:55:06 1512161706.857194: $GPZDA,205507.00,01,12,2017,00,00*65
2017-12-01 15:55:06 1512161706.857384: $GPGGA,205507,3946.9582,N,08404.9824,W,2,12,0.80,311.16,M,-33.324,M,,*70
2017-12-01 15:55:06 1512161706.857454: $GPRMC,205507,A,3946.9582,N,08404.9824,W,0.0000,0.000,011217,,*3F
2017-12-01 15:55:06 1512161706.857516: $GPGSA,A,3,1,10,11,12,14,18,22,25,31,32,24,138,2.0,0.8,1.5*3B
2017-12-01 15:55:07 1512161707.482411: $GPZDA,205508.00,01,12,2017,00,00*6A
2017-12-01 15:55:07 1512161707.482587: $GPGGA,205508,3946.9582,N,08404.9824,W,2,12,0.80,311.16,M,-33.324,M,,*7F
2017-12-01 15:55:07 1512161707.482657: $GPRMC,205508,A,3946.9582,N,08404.9824,W,0.0000,0.000,011217,,*30
2017-12-01 15:55:07 1512161707.482721: $GPGSA,A,3,1,10,11,12,14,18,22,25,31,32,24,138,2.0,0.8,1.5*3B
2017-12-01 15:55:08 1512161708.409484: $GPZDA,205509.00,01,12,2017,00,00*6B
2017-12-01 15:55:08 1512161708.409671: $GPGGA,205509,3946.9582,N,08404.9824,W,2,12,0.80,311.16,M,-33.324,M,,*7E
2017-12-01 15:55:08 1512161708.409741: $GPRMC,205509,A,3946.9582,N,08404.9824,W,0.0000,0.000,011217,,*31
2017-12-01 15:55:08 1512161708.409807: $GPGSA,A,3,1,10,11,12,14,18,22,25,31,32,24,138,2.0,0.8,1.5*3B
2017-12-01 15:55:09 1512161709.744098: $GPGSV,3,1,12,01,16,315,31,10,65,136,47,11,11,297,33,12,25,066,38*7D
2017-12-01 15:55:09 1512161709.744276: $GPGSV,3,2,12,14,57,298,43,18,33,138,46,22,06,312,40,25,32,111,45*7D
2017-12-01 15:55:09 1512161709.744347: $GPGSV,3,3,12,31,39,214,48,32,69,342,48,24,10,046,28,138,38,213,45*41
2017-12-01 15:55:09 1512161709.857452: $GPZDA,205510.00,01,12,2017,00,00*63
2017-12-01 15:55:09 1512161709.857622: $GPGGA,205510,3946.9582,N,08404.9824,W,2,12,0.80,311.16,M,-33.324,M,,*76
2017-12-01 15:55:09 1512161709.857709: $GPRMC,205510,A,3946.9582,N,08404.9824,W,0.0000,0.000,011217,,*39
2017-12-01 15:55:09 1512161709.857771: $GPGSA,A,3,1,10,11,12,14,18,22,25,31,32,24,138,2.0,0.8,1.5*3B
2017-12-01 15:55:10 1512161710.392093: $GPZDA,205511.00,01,12,2017,00,00*62
2017-12-01 15:55:10 1512161710.398098: $GPGGA,205511,3946.9582,N,08404.9824,W,2,12,0.80,311.16,M,-33.324,M,,*77
2017-12-01 15:55:10 1512161710.398209: $GPRMC,205511,A,3946.9582,N,08404.9824,W,0.0000,0.000,011217,,*38
2017-12-01 15:55:10 1512161710.398287: $GPGSA,A,3,1,10,11,12,14,18,22,25,31,32,24,138,2.0,0.8,1.5*3B
2017-12-01 15:55:11 1512161711.393163: $GPZDA,205512.00,01,12,2017,00,00*61
2017-12-01 15:55:11 1512161711.393332: $GPGGA,205512,3946.9582,N,08404.9824,W,2,12,0.80,311.16,M,-33.324,M,,*74
2017-12-01 15:55:11 1512161711.393401: $GPRMC,205512,A,3946.9582,N,08404.9824,W,0.0000,0.000,011217,,*3B
2017-12-01 15:55:11 1512161711.393462: $GPGSA,A,3,1,10,11,12,14,18,22,25,31,32,24,138,2.0,0.8,1.5*3B
2017-12-01 15:55:12 1512161712.728120: $GPGSV,3,1,12,01,16,315,31,10,65,136,47,11,11,297,34,12,25,066,39*7B
2017-12-01 15:55:12 1512161712.728303: $GPGSV,3,2,12,14,57,298,43,18,33,138,46,22,06,312,39,25,32,111,44*72
2017-12-01 15:55:12 1512161712.728371: $GPGSV,3,3,12,31,39,214,49,32,69,342,48,24,10,046,28,138,38,213,46*43
2017-12-01 15:55:12 1512161712.841559: $GPZDA,205513.00,01,12,2017,00,00*60
2017-12-01 15:55:12 1512161712.841760: $GPGGA,205513,3946.9582,N,08404.9824,W,2,12,0.80,311.16,M,-33.324,M,,*75
2017-12-01 15:55:12 1512161712.841896: $GPRMC,205513,A,3946.9582,N,08404.9824,W,0.0000,0.000,011217,,*3A
2017-12-01 15:55:12 1512161712.841959: $GPGSA,A,3,1,10,11,12,14,18,22,25,31,32,24,138,2.0,0.8,1.5*3B
2017-12-01 15:55:13 1512161713.396371: $GPZDA,205514.00,01,12,2017,00,00*67
2017-12-01 15:55:13 1512161713.396531: $GPGGA,205514,3946.9582,N,08404.9824,W,2,12,0.80,311.16,M,-33.324,M,,*72
2017-12-01 15:55:13 1512161713.396598: $GPRMC,205514,A,3946.9582,N,08404.9824,W,0.0000,0.000,011217,,*3D
2017-12-01 15:55:13 1512161713.396687: $GPGSA,A,3,1,10,11,12,14,18,22,25,31,32,24,138,2.0,0.8,1.5*3B
2017-12-01 15:55:14 1512161714.389497: $GPZDA,205515.00,01,12,2017,00,00*66
2017-12-01 15:55:14 1512161714.389708: $GPGGA,205515,3946.9583,N,08404.9831,W,2,12,0.80,311.08,M,-33.324,M,,*79
2017-12-01 15:55:14 1512161714.389796: $GPRMC,205515,A,3946.9583,N,08404.9831,W,0.0000,0.000,011217,,*39
2017-12-01 15:55:14 1512161714.389858: $GPGSA,A,3,1,10,11,12,14,18,22,25,31,32,24,138,2.0,0.8,1.5*3B
2017-12-01 15:55:15 1512161715.731535: $GPGSV,3,1,12,01,16,315,31,10,65,136,47,11,11,297,34,12,25,066,40*75
2017-12-01 15:55:15 1512161715.731748: $GPGSV,3,2,12,14,57,298,43,18,33,138,46,22,06,312,39,25,32,111,44*72
2017-12-01 15:55:15 1512161715.731832: $GPGSV,3,3,12,31,39,214,48,32,69,342,48,24,10,046,28,138,38,213,45*41
2017-12-01 15:55:15 1512161715.844836: $GPZDA,205516.00,01,12,2017,00,00*65
2017-12-01 15:55:15 1512161715.845011: $GPGGA,205516,3946.9583,N,08404.9831,W,2,12,0.80,311.08,M,-33.324,M,,*7A
2017-12-01 15:55:15 1512161715.845079: $GPRMC,205516,A,3946.9583,N,08404.9831,W,0.0000,0.000,011217,,*3A
2017-12-01 15:55:15 1512161715.845141: $GPGSA,A,3,1,10,11,12,14,18,22,25,31,32,24,138,2.0,0.8,1.5*3B
2017-12-01 15:55:16 1512161716.396186: $GPZDA,205517.00,01,12,2017,00,00*64
2017-12-01 15:55:16 1512161716.396360: $GPGGA,205517,3946.9583,N,08404.9831,W,2,12,0.80,311.08,M,-33.324,M,,*7B
2017-12-01 15:55:16 1512161716.396428: $GPRMC,205517,A,3946.9583,N,08404.9831,W,0.0000,0.000,011217,,*3B
2017-12-01 15:55:16 1512161716.396488: $GPGSA,A,3,1,10,11,12,14,18,22,25,31,32,24,138,2.0,0.8,1.5*3B
2017-12-01 15:55:17 1512161717.395134: $GPZDA,205518.00,01,12,2017,00,00*6B
2017-12-01 15:55:17 1512161717.395308: $GPGGA,205518,3946.9583,N,08404.9831,W,2,12,0.80,311.08,M,-33.324,M,,*74
2017-12-01 15:55:17 1512161717.395374: $GPRMC,205518,A,3946.9583,N,08404.9831,W,0.0000,0.000,011217,,*34
2017-12-01 15:55:17 1512161717.395436: $GPGSA,A,3,1,10,11,12,14,18,22,25,31,32,24,138,2.0,0.8,1.5*3B
2017-12-01 15:55:18 1512161718.729320: $GPGSV,3,1,12,01,16,315,31,10,65,136,47,11,11,297,35,12,25,066,39*7A
2017-12-01 15:55:18 1512161718.729503: $GPGSV,3,2,12,14,57,298,43,18,33,138,47,22,06,312,38,25,32,111,44*72
2017-12-01 15:55:18 1512161718.729569: $GPGSV,3,3,12,31,39,214,48,32,69,342,48,24,10,046,27,138,38,213,46*4D
2017-12-01 15:55:18 1512161718.842957: $GPZDA,205519.00,01,12,2017,00,00*6A
2017-12-01 15:55:18 1512161718.843089: $GPGGA,205519,3946.9583,N,08404.9831,W,2,12,0.80,311.08,M,-33.324,M,,*75
2017-12-01 15:55:18 1512161718.843155: $GPRMC,205519,A,3946.9583,N,08404.9831,W,0.0000,0.000,011217,,*35
2017-12-01 15:55:18 1512161718.843216: $GPGSA,A,3,1,10,11,12,14,18,22,25,31,32,24,138,2.0,0.8,1.5*3B
2017-12-01 15:55:19 1512161719.391155: $GPZDA,205520.00,01,12,2017,00,00*60
2017-12-01 15:55:19 1512161719.391329: $GPGGA,205520,3946.9583,N,08404.9831,W,2,12,0.80,311.08,M,-33.324,M,,*7F
2017-12-01 15:55:19 1512161719.391480: $GPRMC,205520,A,3946.9583,N,08404.9831,W,0.0000,0.000,011217,,*3F
2017-12-01 15:55:19 1512161719.391543: $GPGSA,A,3,1,10,11,12,14,18,22,25,31,32,24,138,2.0,0.8,1.5*3B
2017-12-01 15:55:20 1512161720.395723: $GPZDA,205521.00,01,12,2017,00,00*61
2017-12-01 15:55:20 1512161720.395922: $GPGGA,205521,3946.9579,N,08404.9831,W,2,12,0.80,310.44,M,-33.324,M,,*72
2017-12-01 15:55:20 1512161720.395993: $GPRMC,205521,A,3946.9579,N,08404.9831,W,0.0000,0.000,011217,,*3B
2017-12-01 15:55:20 1512161720.396054: $GPGSA,A,3,1,10,11,12,14,18,22,25,31,32,24,138,2.0,0.8,1.5*3B
2017-12-01 15:55:21 1512161721.730184: $GPGSV,3,1,12,01,16,315,32,10,65,136,47,11,11,297,35,12,25,066,39*79
2017-12-01 15:55:21 1512161721.730346: $GPGSV,3,2,12,14,57,298,43,18,33,138,47,22,06,312,39,25,32,111,45*72
2017-12-01 15:55:21 1512161721.730413: $GPGSV,3,3,12,31,39,214,49,32,69,342,48,24,10,046,27,138,38,213,46*4C
2017-12-01 15:55:21 1512161721.843864: $GPZDA,205522.00,01,12,2017,00,00*62
2017-12-01 15:55:21 1512161721.844037: $GPGGA,205522,3946.9579,N,08404.9831,W,2,12,0.80,310.44,M,-33.324,M,,*71
2017-12-01 15:55:21 1512161721.844104: $GPRMC,205522,A,3946.9579,N,08404.9831,W,0.0000,0.000,011217,,*38
2017-12-01 15:55:21 1512161721.844165: $GPGSA,A,3,1,10,11,12,14,18,22,25,31,32,24,138,2.0,0.8,1.5*3B
2017-12-01 15:55:22 1512161722.469248: $GPZDA,205523.00,01,12,2017,00,00*63
2017-12-01 15:55:22 1512161722.469440: $GPGGA,205523,3946.9579,N,08404.9831,W,2,12,0.80,310.44,M,-33.324,M,,*70
2017-12-01 15:55:22 1512161722.469543: $GPRMC,205523,A,3946.9579,N,08404.9831,W,0.0000,0.000,011217,,*39
2017-12-01 15:55:22 1512161722.469624: $GPGSA,A,3,1,10,11,12,14,18,22,25,31,32,24,138,2.0,0.8,1.5*3B
2017-12-01 15:55:23 1512161723.396136: $GPZDA,205524.00,01,12,2017,00,00*64
2017-12-01 15:55:23 1512161723.396312: $GPGGA,205524,3946.9579,N,08404.9831,W,2,12,0.80,310.44,M,-33.324,M,,*77
2017-12-01 15:55:23 1512161723.396381: $GPRMC,205524,A,3946.9579,N,08404.9831,W,0.0000,0.000,011217,,*3E
2017-12-01 15:55:23 1512161723.396443: $GPGSA,A,3,1,10,11,12,14,18,22,25,31,32,24,138,2.0,0.8,1.5*3B
2017-12-01 15:55:24 1512161724.725705: $GPGSV,3,1,12,01,16,315,32,10,65,136,47,11,11,297,35,12,25,066,39*79
2017-12-01 15:55:24 1512161724.725930: $GPGSV,3,2,12,14,57,298,44,18,33,138,46,22,06,312,39,25,32,111,45*74
2017-12-01 15:55:24 1512161724.726006: $GPGSV,3,3,12,31,39,214,48,32,69,342,48,24,10,046,27,138,38,213,45*4E
2017-12-01 15:55:24 1512161724.839273: $GPZDA,205525.00,01,12,2017,00,00*65
2017-12-01 15:55:24 1512161724.839424: $GPGGA,205525,3946.9579,N,08404.9831,W,2,12,0.80,310.44,M,-33.324,M,,*76
2017-12-01 15:55:24 1512161724.839490: $GPRMC,205525,A,3946.9579,N,08404.9831,W,0.0000,0.000,011217,,*3F
2017-12-01 15:55:24 1512161724.839551: $GPGSA,A,3,1,10,11,12,14,18,22,25,31,32,24,138,2.0,0.8,1.5*3B
2017-12-01 15:55:25 1512161725.389880: $GPZDA,205526.00,01,12,2017,00,00*66
2017-12-01 15:55:25 1512161725.390036: $GPGGA,205526,3946.9579,N,08404.9831,W,2,12,0.80,310.44,M,-33.324,M,,*75
2017-12-01 15:55:25 1512161725.390103: $GPRMC,205526,A,3946.9579,N,08404.9831,W,0.0000,0.000,011217,,*3C
2017-12-01 15:55:25 1512161725.390164: $GPGSA,A,3,1,10,11,12,14,18,22,25,31,32,24,138,2.0,0.8,1.5*3B
