2017-12-29 10:48:08 1514562488.017066: {"class":"VERSION","release":"3.16","rev":"3.16-4","proto_major":3,"proto_minor":11}
2017-12-29 10:48:08 1514562488.017455: {"class":"DEVICES","devices":[{"class":"DEVICE","path":"/dev/ttyUSB0","driver":"SiRF","subtype":"9\u0006GSD4e_4.1.2-P1_RPATCH.05-F-GPS-4R-1510281 11/03/2015 307","activated":"2017-12-29T15:48:07.556Z","flags":1,"native":1,"bps":4800,"parity":"N","stopbits":1,"cycle":1.00}]}
2017-12-29 10:48:08 1514562488.017571: {"class":"WATCH","enable":true,"json":false,"nmea":true,"raw":0,"scaled":false,"timing":false,"split24":false,"pps":false}
2017-12-29 10:48:08 1514562488.394358: $GPZDA,154809.00,29,12,2017,00,00*6B
2017-12-29 10:48:08 1514562488.394531: $GPGGA,154809,3946.9602,N,08404.9818,W,1,11,0.80,303.76,M,-33.324,M,,*75
2017-12-29 10:48:08 1514562488.394598: $GPRMC,154809,A,3946.9602,N,08404.9818,W,0.0000,0.000,291217,,*35
2017-12-29 10:48:08 1514562488.394661: $GPGSA,A,3,10,13,15,18,20,21,24,27,32,29,138,,1.7,0.8,1.3*02
2017-12-29 10:48:08 1514562488.394720: $GPGBS,154809,10.91,M,10.38,M,30.89,M*0E
2017-12-29 10:48:09 1514562489.732071: $GPGSV,3,1,11,10,32,291,42,13,19,046,43,15,49,049,50,18,63,315,43*75
2017-12-29 10:48:09 1514562489.732229: $GPGSV,3,2,11,20,44,084,50,21,76,211,47,24,43,127,50,27,19,303,35*7B
2017-12-29 10:48:09 1514562489.732294: $GPGSV,3,3,11,32,11,231,31,29,01,186,32,138,38,213,45*7E
2017-12-29 10:48:09 1514562489.845682: $GPZDA,154810.00,29,12,2017,00,00*63
2017-12-29 10:48:09 1514562489.845801: $GPGGA,154810,3946.9602,N,08404.9818,W,1,11,0.80,303.76,M,-33.324,M,,*7D
2017-12-29 10:48:09 1514562489.845891: $GPRMC,154810,A,3946.9602,N,08404.9818,W,0.0000,0.000,291217,,*3D
2017-12-29 10:48:09 1514562489.845953: $GPGSA,A,3,10,13,15,18,20,21,24,27,32,29,138,,1.7,0.8,1.3*02
2017-12-29 10:48:10 1514562490.394088: $GPZDA,154811.00,29,12,2017,00,00*62
2017-12-29 10:48:10 1514562490.394245: $GPGGA,154811,3946.9606,N,08404.9832,W,2,11,1.80,304.24,M,-33.324,M,,*72
2017-12-29 10:48:10 1514562490.394311: $GPRMC,154811,A,3946.9606,N,08404.9832,W,0.0000,0.000,291217,,*30
2017-12-29 10:48:10 1514562490.394371: $GPGSA,A,3,10,13,15,18,20,21,24,27,32,29,138,,1.7,1.8,1.3*03
2017-12-29 10:48:11 1514562491.396205: $GPZDA,154812.00,29,12,2017,00,00*61
2017-12-29 10:48:11 1514562491.396360: $GPGGA,154812,3946.9606,N,08404.9832,W,1,11,0.80,304.24,M,-33.324,M,,*73
2017-12-29 10:48:11 1514562491.396425: $GPRMC,154812,A,3946.9606,N,08404.9832,W,0.0000,0.000,291217,,*33
2017-12-29 10:48:11 1514562491.396486: $GPGSA,A,3,10,13,15,18,20,21,24,27,32,29,138,,1.7,0.8,1.3*02
2017-12-29 10:48:12 1514562492.736668: $GPGSV,3,1,11,10,32,291,42,13,19,046,43,15,49,049,50,18,63,315,43*75
2017-12-29 10:48:12 1514562492.736837: $GPGSV,3,2,11,20,44,084,50,21,76,211,47,24,43,127,51,27,19,303,36*79
2017-12-29 10:48:12 1514562492.736922: $GPGSV,3,3,11,32,11,231,31,29,01,186,32,138,38,213,45*7E
2017-12-29 10:48:12 1514562492.850315: $GPZDA,154813.00,29,12,2017,00,00*60
2017-12-29 10:48:12 1514562492.854177: $GPGGA,154813,3946.9606,N,08404.9832,W,2,11,0.80,304.24,M,-33.324,M,,*71
2017-12-29 10:48:12 1514562492.854279: $GPRMC,154813,A,3946.9606,N,08404.9832,W,0.0000,0.000,291217,,*32
2017-12-29 10:48:12 1514562492.854342: $GPGSA,A,3,10,13,15,18,20,21,24,27,32,29,138,,1.7,0.8,1.3*02
2017-12-29 10:48:13 1514562493.397449: $GPZDA,154814.00,29,12,2017,00,00*67
2017-12-29 10:48:13 1514562493.397604: $GPGGA,154814,3946.9606,N,08404.9832,W,2,11,0.80,304.24,M,-33.324,M,,*76
2017-12-29 10:48:13 1514562493.397668: $GPRMC,154814,A,3946.9606,N,08404.9832,W,0.0000,0.000,291217,,*35
2017-12-29 10:48:13 1514562493.397729: $GPGSA,A,3,10,13,15,18,20,21,24,27,32,29,138,,1.7,0.8,1.3*02
2017-12-29 10:48:14 1514562494.395337: $GPZDA,154815.00,29,12,2017,00,00*66
2017-12-29 10:48:14 1514562494.395500: $GPGGA,154815,3946.9606,N,08404.9832,W,2,11,0.80,304.24,M,-33.324,M,,*77
2017-12-29 10:48:14 1514562494.395565: $GPRMC,154815,A,3946.9606,N,08404.9832,W,0.0000,0.000,291217,,*34
2017-12-29 10:48:14 1514562494.395626: $GPGSA,A,3,10,13,15,18,20,21,24,27,32,29,138,,1.7,0.8,1.3*02
2017-12-29 10:48:15 1514562495.730776: $GPGSV,3,1,11,10,32,291,43,13,19,046,43,15,49,049,50,18,63,315,43*74
2017-12-29 10:48:15 1514562495.731025: $GPGSV,3,2,11,20,44,084,50,21,76,211,47,24,43,127,50,27,19,303,36*78
2017-12-29 10:48:15 1514562495.731144: $GPGSV,3,3,11,32,11,231,31,29,01,186,33,138,38,213,46*7C
2017-12-29 10:48:15 1514562495.844412: $GPZDA,154816.00,29,12,2017,00,00*65
2017-12-29 10:48:15 1514562495.844530: $GPGGA,154816,3946.9606,N,08404.9832,W,2,11,0.80,304.24,M,-33.324,M,,*74
2017-12-29 10:48:15 1514562495.844594: $GPRMC,154816,A,3946.9606,N,08404.9832,W,0.0000,0.000,291217,,*37
2017-12-29 10:48:15 1514562495.844654: $GPGSA,A,3,10,13,15,18,20,21,24,27,32,29,138,,1.7,0.8,1.3*02
2017-12-29 10:48:16 1514562496.397811: $GPZDA,154817.00,29,12,2017,00,00*64
2017-12-29 10:48:16 1514562496.398023: $GPGGA,154817,3946.9606,N,08404.9832,W,2,11,0.80,304.24,M,-33.324,M,,*75
2017-12-29 10:48:16 1514562496.398091: $GPRMC,154817,A,3946.9606,N,08404.9832,W,0.0000,0.000,291217,,*36
2017-12-29 10:48:16 1514562496.398151: $GPGSA,A,3,10,13,15,18,20,21,24,27,32,29,138,,1.7,0.8,1.3*02
2017-12-29 10:48:17 1514562497.398679: $GPZDA,154818.00,29,12,2017,00,00*6B
2017-12-29 10:48:17 1514562497.398872: $GPGGA,154818,3946.9606,N,08404.9832,W,2,11,0.80,304.24,M,-33.324,M,,*7A
2017-12-29 10:48:17 1514562497.398940: $GPRMC,154818,A,3946.9606,N,08404.9832,W,0.0000,0.000,291217,,*39
2017-12-29 10:48:17 1514562497.399019: $GPGSA,A,3,10,13,15,18,20,21,24,27,32,29,138,,1.7,0.8,1.3*02
2017-12-29 10:48:18 1514562498.732898: $GPGSV,3,1,11,10,32,291,43,13,19,046,43,15,49,049,50,18,63,315,43*74
2017-12-29 10:48:18 1514562498.733083: $GPGSV,3,2,11,20,44,084,50,21,76,211,47,24,43,127,51,27,19,303,38*77
2017-12-29 10:48:18 1514562498.733150: $GPGSV,3,3,11,32,11,231,31,29,01,186,32,138,38,213,45*7E
2017-12-29 10:48:18 1514562498.845268: $GPZDA,154819.00,29,12,2017,00,00*6A
2017-12-29 10:48:18 1514562498.845399: $GPGGA,154819,3946.9602,N,08404.9832,W,2,11,0.80,303.60,M,-33.324,M,,*78
2017-12-29 10:48:18 1514562498.845464: $GPRMC,154819,A,3946.9602,N,08404.9832,W,0.0000,0.000,291217,,*3C
2017-12-29 10:48:18 1514562498.845525: $GPGSA,A,3,10,13,15,18,20,21,24,27,32,29,138,,1.7,0.8,1.3*02
2017-12-29 10:48:19 1514562499.471980: $GPZDA,154820.00,29,12,2017,00,00*60
2017-12-29 10:48:19 1514562499.472144: $GPGGA,154820,3946.9602,N,08404.9832,W,2,11,0.80,303.60,M,-33.324,M,,*72
2017-12-29 10:48:19 1514562499.472211: $GPRMC,154820,A,3946.9602,N,08404.9832,W,0.0000,0.000,291217,,*36
2017-12-29 10:48:19 1514562499.472271: $GPGSA,A,3,10,13,15,18,20,21,24,27,32,29,138,,1.7,0.8,1.3*02
2017-12-29 10:48:20 1514562500.397795: $GPZDA,154821.00,29,12,2017,00,00*61
2017-12-29 10:48:20 1514562500.398012: $GPGGA,154821,3946.9602,N,08404.9832,W,2,11,0.80,303.60,M,-33.324,M,,*73
2017-12-29 10:48:20 1514562500.398079: $GPRMC,154821,A,3946.9602,N,08404.9832,W,0.0000,0.000,291217,,*37
2017-12-29 10:48:20 1514562500.398140: $GPGSA,A,3,10,13,15,18,20,21,24,27,32,29,138,,1.7,0.8,1.3*02
2017-12-29 10:48:21 1514562501.732011: $GPGSV,3,1,11,10,32,291,43,13,19,046,43,15,49,049,50,18,63,315,43*74
2017-12-29 10:48:21 1514562501.732174: $GPGSV,3,2,11,20,44,084,50,21,76,211,47,24,43,127,51,27,19,303,38*77
2017-12-29 10:48:21 1514562501.732239: $GPGSV,3,3,11,32,11,231,31,29,01,186,32,138,38,213,45*7E
2017-12-29 10:48:21 1514562501.845666: $GPZDA,154822.00,29,12,2017,00,00*62
2017-12-29 10:48:21 1514562501.845802: $GPGGA,154822,3946.9602,N,08404.9832,W,2,11,0.80,303.60,M,-33.324,M,,*70
2017-12-29 10:48:21 1514562501.845893: $GPRMC,154822,A,3946.9602,N,08404.9832,W,0.0000,0.000,291217,,*34
2017-12-29 10:48:21 1514562501.845980: $GPGSA,A,3,10,13,15,18,20,21,24,27,32,29,138,,1.7,0.8,1.3*02
2017-12-29 10:48:22 1514562502.405008: $GPZDA,154823.00,29,12,2017,00,00*63
2017-12-29 10:48:22 1514562502.405184: $GPGGA,154823,3946.9606,N,08404.9832,W,2,11,0.80,304.24,M,-33.324,M,,*72
2017-12-29 10:48:22 1514562502.405253: $GPRMC,154823,A,3946.9606,N,08404.9832,W,0.0000,0.000,291217,,*31
2017-12-29 10:48:22 1514562502.405358: $GPGSA,A,3,10,13,15,18,20,21,24,27,32,29,138,,1.7,0.8,1.3*02
