2017-11-15 19:43:53 1510793033.728384: {"class":"VERSION","release":"3.17","rev":"3.17","proto_major":3,"proto_minor":12}
2017-11-15 19:43:53 1510793033.728876: {"class":"DEVICES","devices":[{"class":"DEVICE","path":"/dev/ttyUSB0","driver":"SiRF","subtype":"9\u0006GSD4e_4.1.2-P1_RPATCH.05-F-GPS-4R-1510281 11/03/2015 307","activated":"2017-11-16T00:43:53.486Z","flags":1,"native":1,"bps":4800,"parity":"N","stopbits":1,"cycle":1.00}]}
2017-11-15 19:43:53 1510793033.728999: {"class":"WATCH","enable":true,"json":false,"nmea":true,"raw":0,"scaled":false,"timing":false,"split24":false,"pps":false}
2017-11-15 19:43:54 1510793034.681844: $GPGSV,3,1,11,32,31,112,15,16,28,190,23,22,50,261,22,26,59,169,23*7D
2017-11-15 19:43:54 1510793034.682020: $GPGSV,3,2,11,14,51,100,21,31,63,033,16,29,12,066,11,23,15,303,16*71
2017-11-15 19:43:54 1510793034.682081: $GPGSV,3,3,11,03,42,292,18,25,12,039,00,01,02,249,00*4E
2017-11-15 19:43:54 1510793034.795160: $GPZDA,004353.00,16,11,2017,00,00*64
2017-11-15 19:43:54 1510793034.795334: $GPGGA,004353,3946.9628,N,08404.9525,W,1,09,0.80,337.00,M,-33.324,M,,*71
2017-11-15 19:43:54 1510793034.795396: $GPRMC,004353,A,3946.9628,N,08404.9525,W,0.2422,273.794,161117,,*3B
2017-11-15 19:43:54 1510793034.795453: $GPGSA,A,3,32,16,22,26,14,31,29,23,3,,,,3.4,0.8,2.9*0A
2017-11-15 19:43:55 1510793035.346052: $GPZDA,004354.00,16,11,2017,00,00*63
2017-11-15 19:43:55 1510793035.346204: $GPGGA,004354,3946.9627,N,08404.9518,W,1,09,0.80,337.08,M,-33.324,M,,*7F
2017-11-15 19:43:55 1510793035.346270: $GPRMC,004354,A,3946.9627,N,08404.9518,W,0.4207,39.347,161117,,*0C
2017-11-15 19:43:55 1510793035.346327: $GPGSA,A,3,32,16,22,26,14,31,29,23,3,,,,3.4,0.8,2.9*0A
2017-11-15 19:43:56 1510793036.330162: $GPZDA,004355.00,16,11,2017,00,00*62
2017-11-15 19:43:56 1510793036.330336: $GPGGA,004355,3946.9627,N,08404.9518,W,1,09,0.80,337.08,M,-33.324,M,,*7E
2017-11-15 19:43:56 1510793036.330400: $GPRMC,004355,A,3946.9627,N,08404.9518,W,0.2422,93.794,161117,,*00
2017-11-15 19:43:56 1510793036.330455: $GPGSA,A,3,32,16,22,26,14,31,29,23,3,,,,3.4,0.8,2.9*0A
2017-11-15 19:43:57 1510793037.682245: $GPGSV,3,1,11,32,31,112,14,16,28,190,23,22,50,261,23,26,59,169,23*7D
2017-11-15 19:43:57 1510793037.682428: $GPGSV,3,2,11,14,51,100,22,31,63,033,16,29,12,066,10,23,15,303,16*73
2017-11-15 19:43:57 1510793037.682509: $GPGSV,3,3,11,03,42,292,17,25,12,039,00,01,02,249,00*41
2017-11-15 19:43:57 1510793037.795786: $GPZDA,004356.00,16,11,2017,00,00*61
2017-11-15 19:43:57 1510793037.795945: $GPGGA,004356,3946.9627,N,08404.9518,W,1,09,0.80,337.08,M,-33.324,M,,*7D
2017-11-15 19:43:57 1510793037.796005: $GPRMC,004356,A,3946.9627,N,08404.9518,W,0.6846,184.197,161117,,*3B
2017-11-15 19:43:57 1510793037.796061: $GPGSA,A,3,32,16,22,26,14,31,29,23,3,,,,3.4,0.8,2.9*0A
2017-11-15 19:43:58 1510793038.330573: $GPZDA,004357.00,16,11,2017,00,00*60
2017-11-15 19:43:58 1510793038.330736: $GPGGA,004357,3946.9620,N,08404.9519,W,1,09,0.80,337.21,M,-33.324,M,,*71
2017-11-15 19:43:58 1510793038.330796: $GPRMC,004357,A,3946.9620,N,08404.9519,W,0.3423,184.197,161117,,*36
2017-11-15 19:43:58 1510793038.330854: $GPGSA,A,3,32,16,22,26,14,31,29,23,3,,,,3.4,0.8,2.9*0A
2017-11-15 19:43:59 1510793039.346383: $GPZDA,004358.00,16,11,2017,00,00*6F
2017-11-15 19:43:59 1510793039.346534: $GPGGA,004358,3946.9620,N,08404.9519,W,1,09,0.80,337.21,M,-33.324,M,,*7E
2017-11-15 19:43:59 1510793039.346596: $GPRMC,004358,A,3946.9620,N,08404.9519,W,0.3423,184.197,161117,,*39
2017-11-15 19:43:59 1510793039.346653: $GPGSA,A,3,32,16,22,26,14,31,29,23,3,,,,3.4,0.8,2.9*0A
2017-11-15 19:44:00 1510793040.682228: $GPGSV,3,1,11,32,31,112,13,16,28,190,23,22,50,261,23,26,59,169,23*7A
2017-11-15 19:44:00 1510793040.682417: $GPGSV,3,2,11,14,51,100,22,31,63,033,16,29,12,066,09,23,15,303,16*7B
2017-11-15 19:44:00 1510793040.682498: $GPGSV,3,3,11,03,42,292,17,25,12,039,11,01,02,249,00*41
2017-11-15 19:44:00 1510793040.795349: $GPZDA,004359.00,16,11,2017,00,00*6E
2017-11-15 19:44:00 1510793040.795513: $GPGGA,004359,3946.9620,N,08404.9519,W,1,09,0.80,337.21,M,-33.324,M,,*7F
2017-11-15 19:44:00 1510793040.795575: $GPRMC,004359,A,3946.9620,N,08404.9519,W,0.0000,0.000,161117,,*3C
2017-11-15 19:44:00 1510793040.795683: $GPGSA,A,3,32,16,22,26,14,31,29,23,3,,,,3.4,0.8,2.9*0A
2017-11-15 19:44:01 1510793041.420514: $GPZDA,004400.00,16,11,2017,00,00*65
2017-11-15 19:44:01 1510793041.420678: $GPGGA,004400,3946.9624,N,08404.9526,W,1,09,0.80,337.77,M,-33.324,M,,*7F
2017-11-15 19:44:01 1510793041.420740: $GPRMC,004400,A,3946.9624,N,08404.9526,W,0.5857,338.291,161117,,*32
2017-11-15 19:44:01 1510793041.420796: $GPGSA,A,3,32,16,22,26,14,31,29,23,3,,,,3.4,0.8,2.9*0A
2017-11-15 19:44:02 1510793042.346389: $GPZDA,004401.00,16,11,2017,00,00*64
2017-11-15 19:44:02 1510793042.346565: $GPGGA,004401,3946.9624,N,08404.9519,W,1,09,0.80,337.85,M,-33.324,M,,*7F
2017-11-15 19:44:02 1510793042.346628: $GPRMC,004401,A,3946.9624,N,08404.9519,W,0.7278,23.636,161117,,*0A
2017-11-15 19:44:02 1510793042.346684: $GPGSA,A,3,32,16,22,26,14,31,29,23,3,,,,3.4,0.8,2.9*0A
2017-11-15 19:44:03 1510793043.665934: $GPGSV,3,1,11,32,31,112,13,16,28,190,23,22,50,261,22,26,59,169,22*7A
2017-11-15 19:44:03 1510793043.666080: $GPGSV,3,2,11,14,51,100,23,31,63,033,15,29,12,066,07,23,15,303,16*77
2017-11-15 19:44:03 1510793043.666141: $GPGSV,3,3,11,03,42,292,16,25,12,039,11,01,02,249,00*40
