2017-12-01 12:10:40 1512148240.654649: {"class":"VERSION","release":"3.16","rev":"3.16-4","proto_major":3,"proto_minor":11}
2017-12-01 12:10:40 1512148240.655061: {"class":"DEVICES","devices":[{"class":"DEVICE","path":"/dev/ttyUSB0","driver":"SiRF","subtype":"9\u0006GSD4e_4.1.2-P1_RPATCH.05-F-GPS-4R-1510281 11/03/2015 307","activated":"2017-12-01T17:10:40.239Z","flags":1,"native":1,"bps":4800,"parity":"N","stopbits":1,"cycle":1.00}]}
2017-12-01 12:10:40 1512148240.655188: {"class":"WATCH","enable":true,"json":false,"nmea":true,"raw":0,"scaled":false,"timing":false,"split24":false,"pps":false}
2017-12-01 12:10:40 1512148240.688972: $GPGSV,3,1,12,10,21,280,37,13,32,046,44,15,64,052,43,18,52,297,47*72
2017-12-01 12:10:40 1512148240.689101: $GPGSV,3,2,12,20,54,067,46,21,77,283,43,24,30,141,44,27,15,316,38*79
2017-12-01 12:10:40 1512148240.689164: $GPGSV,3,3,12,29,13,190,32,05,06,085,20,04,03,135,00,138,38,213,46*45
2017-12-01 12:10:40 1512148240.802686: $GPZDA,171041.00,01,12,2017,00,00*62
2017-12-01 12:10:40 1512148240.802855: $GPGGA,171041,3946.9582,N,08404.9851,W,2,11,0.80,308.03,M,-33.324,M,,*7A
2017-12-01 12:10:40 1512148240.802920: $GPRMC,171041,A,3946.9582,N,08404.9851,W,0.0000,0.000,011217,,*3A
2017-12-01 12:10:40 1512148240.802981: $GPGSA,A,3,10,13,15,18,20,21,24,27,29,5,138,,2.0,0.8,1.5*34
2017-12-01 12:10:41 1512148241.338250: $GPZDA,171042.00,01,12,2017,00,00*61
2017-12-01 12:10:41 1512148241.338425: $GPGGA,171042,3946.9582,N,08404.9851,W,2,11,0.80,308.03,M,-33.324,M,,*79
2017-12-01 12:10:41 1512148241.338492: $GPRMC,171042,A,3946.9582,N,08404.9851,W,0.0000,0.000,011217,,*39
2017-12-01 12:10:41 1512148241.338554: $GPGSA,A,3,10,13,15,18,20,21,24,27,29,5,138,,2.0,0.8,1.5*34
2017-12-01 12:10:42 1512148242.339204: $GPZDA,171043.00,01,12,2017,00,00*60
2017-12-01 12:10:42 1512148242.339396: $GPGGA,171043,3946.9582,N,08404.9851,W,2,11,0.80,308.03,M,-33.324,M,,*78
2017-12-01 12:10:42 1512148242.339464: $GPRMC,171043,A,3946.9582,N,08404.9851,W,0.0000,0.000,011217,,*38
2017-12-01 12:10:42 1512148242.339525: $GPGSA,A,3,10,13,15,18,20,21,24,27,29,5,138,,2.0,0.8,1.5*34
2017-12-01 12:10:43 1512148243.676304: $GPGSV,3,1,12,10,21,280,37,13,32,046,44,15,64,052,43,18,52,297,46*73
2017-12-01 12:10:43 1512148243.676507: $GPGSV,3,2,12,20,54,067,46,21,77,283,43,24,30,141,44,27,15,316,38*79
2017-12-01 12:10:43 1512148243.676574: $GPGSV,3,3,12,29,13,190,32,05,06,085,20,04,03,135,00,138,38,213,46*45
2017-12-01 12:10:43 1512148243.789792: $GPZDA,171044.00,01,12,2017,00,00*67
2017-12-01 12:10:43 1512148243.789968: $GPGGA,171044,3946.9582,N,08404.9851,W,2,11,0.80,308.03,M,-33.324,M,,*7F
2017-12-01 12:10:43 1512148243.790053: $GPRMC,171044,A,3946.9582,N,08404.9851,W,0.0000,0.000,011217,,*3F
2017-12-01 12:10:43 1512148243.790116: $GPGSA,A,3,10,13,15,18,20,21,24,27,29,5,138,,2.0,0.8,1.5*34
2017-12-01 12:10:44 1512148244.331940: $GPZDA,171045.00,01,12,2017,00,00*66
2017-12-01 12:10:44 1512148244.332114: $GPGGA,171045,3946.9582,N,08404.9851,W,2,11,0.80,308.03,M,-33.324,M,,*7E
2017-12-01 12:10:44 1512148244.332182: $GPRMC,171045,A,3946.9582,N,08404.9851,W,0.0000,0.000,011217,,*3E
2017-12-01 12:10:44 1512148244.332263: $GPGSA,A,3,10,13,15,18,20,21,24,27,29,5,138,,2.0,0.8,1.5*34
2017-12-01 12:10:45 1512148245.354516: $GPZDA,171046.00,01,12,2017,00,00*65
2017-12-01 12:10:45 1512148245.354699: $GPGGA,171046,3946.9582,N,08404.9851,W,2,11,0.80,308.03,M,-33.324,M,,*7D
2017-12-01 12:10:45 1512148245.354769: $GPRMC,171046,A,3946.9582,N,08404.9851,W,0.0000,0.000,011217,,*3D
2017-12-01 12:10:45 1512148245.354830: $GPGSA,A,3,10,13,15,18,20,21,24,27,29,5,138,,2.0,0.8,1.5*34
2017-12-01 12:10:46 1512148246.683509: $GPGSV,3,1,12,10,21,280,38,13,32,046,44,15,64,052,43,18,52,297,46*7C
2017-12-01 12:10:46 1512148246.683703: $GPGSV,3,2,12,20,54,067,46,21,77,283,43,24,30,141,44,27,15,316,39*78
2017-12-01 12:10:46 1512148246.683770: $GPGSV,3,3,12,29,13,190,33,05,06,085,21,04,03,135,00,138,38,213,46*45
2017-12-01 12:10:46 1512148246.791536: $GPZDA,171047.00,01,12,2017,00,00*64
2017-12-01 12:10:46 1512148246.791705: $GPGGA,171047,3946.9582,N,08404.9851,W,2,11,0.80,308.03,M,-33.324,M,,*7C
2017-12-01 12:10:46 1512148246.791822: $GPRMC,171047,A,3946.9582,N,08404.9851,W,0.0000,0.000,011217,,*3C
2017-12-01 12:10:46 1512148246.791885: $GPGSA,A,3,10,13,15,18,20,21,24,27,29,5,138,,2.0,0.8,1.5*34
2017-12-01 12:10:47 1512148247.338564: $GPZDA,171048.00,01,12,2017,00,00*6B
2017-12-01 12:10:47 1512148247.338737: $GPGGA,171048,3946.9582,N,08404.9851,W,2,11,0.80,308.03,M,-33.324,M,,*73
2017-12-01 12:10:47 1512148247.338807: $GPRMC,171048,A,3946.9582,N,08404.9851,W,0.0000,0.000,011217,,*33
2017-12-01 12:10:47 1512148247.338867: $GPGSA,A,3,10,13,15,18,20,21,24,27,29,5,138,,2.0,0.8,1.5*34
2017-12-01 12:10:48 1512148248.357914: $GPZDA,171049.00,01,12,2017,00,00*6A
2017-12-01 12:10:48 1512148248.358098: $GPGGA,171049,3946.9582,N,08404.9851,W,2,11,0.80,308.03,M,-33.324,M,,*72
2017-12-01 12:10:48 1512148248.358167: $GPRMC,171049,A,3946.9582,N,08404.9851,W,0.0000,0.000,011217,,*32
2017-12-01 12:10:48 1512148248.358229: $GPGSA,A,3,10,13,15,18,20,21,24,27,29,5,138,,2.0,0.8,1.5*34
2017-12-01 12:10:49 1512148249.692328: $GPGSV,3,1,12,10,21,280,38,13,32,046,44,15,64,052,44,18,52,297,46*7B
2017-12-01 12:10:49 1512148249.692509: $GPGSV,3,2,12,20,54,067,46,21,77,283,43,24,30,141,44,27,15,316,40*76
2017-12-01 12:10:49 1512148249.692576: $GPGSV,3,3,12,29,13,190,33,05,06,085,21,04,03,135,00,138,38,213,47*44
2017-12-01 12:10:49 1512148249.804467: $GPZDA,171050.00,01,12,2017,00,00*62
2017-12-01 12:10:49 1512148249.804648: $GPGGA,171050,3946.9582,N,08404.9851,W,2,11,0.80,308.03,M,-33.324,M,,*7A
2017-12-01 12:10:49 1512148249.804715: $GPRMC,171050,A,3946.9582,N,08404.9851,W,0.0000,0.000,011217,,*3A
2017-12-01 12:10:49 1512148249.804778: $GPGSA,A,3,10,13,15,18,20,21,24,27,29,5,138,,2.0,0.8,1.5*34
2017-12-01 12:10:50 1512148250.431117: $GPZDA,171051.00,01,12,2017,00,00*63
2017-12-01 12:10:50 1512148250.431315: $GPGGA,171051,3946.9582,N,08404.9851,W,2,11,0.80,308.03,M,-33.324,M,,*7B
2017-12-01 12:10:50 1512148250.431460: $GPRMC,171051,A,3946.9582,N,08404.9851,W,0.0000,0.000,011217,,*3B
2017-12-01 12:10:50 1512148250.431526: $GPGSA,A,3,10,13,15,18,20,21,24,27,29,5,138,,2.0,0.8,1.5*34
