2018-01-11 20:06:55 1515719215.975270: {"class":"VERSION","release":"3.16","rev":"3.16-4","proto_major":3,"proto_minor":11}
2018-01-11 20:06:55 1515719215.975626: {"class":"DEVICES","devices":[{"class":"DEVICE","path":"/dev/ttyUSB0","driver":"SiRF","subtype":"9\u0006GSD4e_4.1.2-P1_RPATCH.05-F-GPS-4R-1510281 11/03/2015 307","activated":"2018-01-12T01:06:55.512Z","flags":1,"native":1,"bps":4800,"parity":"N","stopbits":1,"cycle":1.00}]}
2018-01-11 20:06:55 1515719215.975741: {"class":"WATCH","enable":true,"json":false,"nmea":true,"raw":0,"scaled":false,"timing":false,"split24":false,"pps":false}
2018-01-11 20:06:56 1515719216.352421: $GPZDA,010657.00,12,01,2018,00,00*6A
2018-01-11 20:06:56 1515719216.352598: $GPGGA,010657,3946.9564,N,08404.9823,W,2,10,0.80,305.79,M,-33.324,M,,*71
2018-01-11 20:06:56 1515719216.352666: $GPRMC,010657,A,3946.9564,N,08404.9823,W,0.0000,0.000,120118,,*3F
2018-01-11 20:06:56 1515719216.352726: $GPGSA,A,3,7,8,9,11,16,23,27,28,30,138,,,4.0,0.8,3.5*3E
2018-01-11 20:06:56 1515719216.352784: $GPGBS,010657,3.65,M,6.21,M,20.10,M*0D
2018-01-11 20:06:57 1515719217.685959: $GPGSV,3,1,10,07,54,313,42,08,72,138,46,09,49,231,44,11,18,168,46*7E
2018-01-11 20:06:57 1515719217.686112: $GPGSV,3,2,10,16,24,058,44,23,31,190,47,27,49,054,50,28,13,256,31*7A
2018-01-11 20:06:57 1515719217.686180: $GPGSV,3,3,10,30,27,306,37,138,38,213,45*4F
2018-01-11 20:06:57 1515719217.798052: $GPZDA,010658.00,12,01,2018,00,00*65
2018-01-11 20:06:57 1515719217.798174: $GPGGA,010658,3946.9564,N,08404.9823,W,2,10,0.80,305.79,M,-33.324,M,,*7E
2018-01-11 20:06:57 1515719217.798238: $GPRMC,010658,A,3946.9564,N,08404.9823,W,0.0000,0.000,120118,,*30
2018-01-11 20:06:57 1515719217.798298: $GPGSA,A,3,7,8,9,11,16,23,27,28,30,138,,,4.0,0.8,3.5*3E
2018-01-11 20:06:58 1515719218.350259: $GPZDA,010659.00,12,01,2018,00,00*64
2018-01-11 20:06:58 1515719218.350452: $GPGGA,010659,3946.9564,N,08404.9823,W,2,10,0.80,305.79,M,-33.324,M,,*7F
2018-01-11 20:06:58 1515719218.350523: $GPRMC,010659,A,3946.9564,N,08404.9823,W,0.0000,0.000,120118,,*31
2018-01-11 20:06:58 1515719218.350586: $GPGSA,A,3,7,8,9,11,16,23,27,28,30,138,,,4.0,0.8,3.5*3E
2018-01-11 20:06:59 1515719219.351090: $GPZDA,010700.00,12,01,2018,00,00*69
2018-01-11 20:06:59 1515719219.351254: $GPGGA,010700,3946.9564,N,08404.9823,W,2,10,0.80,305.79,M,-33.324,M,,*72
2018-01-11 20:06:59 1515719219.351320: $GPRMC,010700,A,3946.9564,N,08404.9823,W,0.0000,0.000,120118,,*3C
2018-01-11 20:06:59 1515719219.351381: $GPGSA,A,3,7,8,9,11,16,23,27,28,30,138,,,4.0,0.8,3.5*3E
2018-01-11 20:07:00 1515719220.684326: $GPGSV,3,1,10,07,54,313,41,08,72,138,46,09,49,231,44,11,18,168,46*7D
2018-01-11 20:07:00 1515719220.684525: $GPGSV,3,2,10,16,24,058,44,23,31,190,47,27,49,054,50,28,13,256,31*7A
2018-01-11 20:07:00 1515719220.684595: $GPGSV,3,3,10,30,27,306,38,138,38,213,44*41
2018-01-11 20:07:00 1515719220.798041: $GPZDA,010701.00,12,01,2018,00,00*68
2018-01-11 20:07:00 1515719220.798184: $GPGGA,010701,3946.9564,N,08404.9823,W,2,10,0.80,305.79,M,-33.324,M,,*73
2018-01-11 20:07:00 1515719220.798250: $GPRMC,010701,A,3946.9564,N,08404.9823,W,0.0000,0.000,120118,,*3D
2018-01-11 20:07:00 1515719220.798310: $GPGSA,A,3,7,8,9,11,16,23,27,28,30,138,,,4.0,0.8,3.5*3E
2018-01-11 20:07:01 1515719221.351517: $GPZDA,010702.00,12,01,2018,00,00*6B
2018-01-11 20:07:01 1515719221.351693: $GPGGA,010702,3946.9564,N,08404.9823,W,2,10,0.80,305.79,M,-33.324,M,,*70
2018-01-11 20:07:01 1515719221.351762: $GPRMC,010702,A,3946.9564,N,08404.9823,W,0.0000,0.000,120118,,*3E
2018-01-11 20:07:01 1515719221.351823: $GPGSA,A,3,7,8,9,11,16,23,27,28,30,138,,,4.0,0.8,3.5*3E
2018-01-11 20:07:02 1515719222.359342: $GPZDA,010703.00,12,01,2018,00,00*6A
2018-01-11 20:07:02 1515719222.359511: $GPGGA,010703,3946.9568,N,08404.9822,W,2,10,0.80,305.02,M,-33.324,M,,*70
2018-01-11 20:07:02 1515719222.359578: $GPRMC,010703,A,3946.9568,N,08404.9822,W,0.0000,0.000,120118,,*32
2018-01-11 20:07:02 1515719222.359640: $GPGSA,A,3,7,8,9,11,16,23,27,28,30,138,,,4.0,0.8,3.5*3E
2018-01-11 20:07:03 1515719223.687203: $GPGSV,3,1,10,07,54,313,41,08,72,138,46,09,49,231,45,11,18,168,46*7C
2018-01-11 20:07:03 1515719223.687441: $GPGSV,3,2,10,16,24,058,44,23,31,190,46,27,49,054,50,28,13,256,31*7B
2018-01-11 20:07:03 1515719223.687516: $GPGSV,3,3,10,30,27,306,38,138,38,213,45*40
2018-01-11 20:07:03 1515719223.800867: $GPZDA,010704.00,12,01,2018,00,00*6D
2018-01-11 20:07:03 1515719223.801012: $GPGGA,010704,3946.9568,N,08404.9822,W,2,10,0.80,305.02,M,-33.324,M,,*77
2018-01-11 20:07:03 1515719223.801172: $GPRMC,010704,A,3946.9568,N,08404.9822,W,0.0000,0.000,120118,,*35
2018-01-11 20:07:03 1515719223.801237: $GPGSA,A,3,7,8,9,11,16,23,27,28,30,138,,,4.0,0.8,3.5*3E
2018-01-11 20:07:04 1515719224.351737: $GPZDA,010705.00,12,01,2018,00,00*6C
2018-01-11 20:07:04 1515719224.351886: $GPGGA,010705,3946.9568,N,08404.9822,W,2,10,0.80,305.02,M,-33.324,M,,*76
2018-01-11 20:07:04 1515719224.351952: $GPRMC,010705,A,3946.9568,N,08404.9822,W,0.0000,0.000,120118,,*34
2018-01-11 20:07:04 1515719224.352013: $GPGSA,A,3,7,8,9,11,16,23,27,28,30,138,,,4.0,0.8,3.5*3E
2018-01-11 20:07:05 1515719225.350149: $GPZDA,010706.00,12,01,2018,00,00*6F
2018-01-11 20:07:05 1515719225.350317: $GPGGA,010706,3946.9568,N,08404.9822,W,2,10,0.80,305.02,M,-33.324,M,,*75
2018-01-11 20:07:05 1515719225.350384: $GPRMC,010706,A,3946.9568,N,08404.9822,W,0.0000,0.000,120118,,*37
2018-01-11 20:07:05 1515719225.350444: $GPGSA,A,3,7,8,9,11,16,23,27,28,30,138,,,4.0,0.8,3.5*3E
2018-01-11 20:07:06 1515719226.685600: $GPGSV,3,1,10,07,54,313,41,08,72,138,46,09,49,231,44,11,18,168,47*7C
2018-01-11 20:07:06 1515719226.685767: $GPGSV,3,2,10,16,24,058,44,23,31,190,47,27,49,054,50,28,13,256,31*7A
2018-01-11 20:07:06 1515719226.685834: $GPGSV,3,3,10,30,27,306,37,138,38,213,45*4F
2018-01-11 20:07:06 1515719226.799188: $GPZDA,010707.00,12,01,2018,00,00*6E
2018-01-11 20:07:06 1515719226.799326: $GPGGA,010707,3946.9568,N,08404.9822,W,2,10,0.80,305.02,M,-33.324,M,,*74
2018-01-11 20:07:06 1515719226.799392: $GPRMC,010707,A,3946.9568,N,08404.9822,W,0.0000,0.000,120118,,*36
2018-01-11 20:07:06 1515719226.799452: $GPGSA,A,3,7,8,9,11,16,23,27,28,30,138,,,4.0,0.8,3.5*3E
