2018-01-11 20:05:04 1515719104.489363: {"class":"VERSION","release":"3.16","rev":"3.16-4","proto_major":3,"proto_minor":11}
2018-01-11 20:05:04 1515719104.489783: {"class":"DEVICES","devices":[{"class":"DEVICE","path":"/dev/ttyUSB0","driver":"SiRF","subtype":"9\u0006GSD4e_4.1.2-P1_RPATCH.05-F-GPS-4R-1510281 11/03/2015 307","activated":"2018-01-12T01:05:03.964Z","flags":1,"native":1,"bps":4800,"parity":"N","stopbits":1,"cycle":1.00}]}
2018-01-11 20:05:04 1515719104.489897: {"class":"WATCH","enable":true,"json":false,"nmea":true,"raw":0,"scaled":false,"timing":false,"split24":false,"pps":false}
2018-01-11 20:05:04 1515719104.753397: $GPZDA,010505.44,12,01,2018,00,00*6E
2018-01-11 20:05:04 1515719104.753572: $GPGGA,010505,3946.9625,N,08404.9830,W,1,10,0.80,303.23,M,-33.324,M,,*7B
2018-01-11 20:05:04 1515719104.753639: $GPRMC,010505,A,3946.9625,N,08404.9830,W,0.5467,339.486,120118,,*3C
2018-01-11 20:05:04 1515719104.753699: $GPGSA,A,3,7,8,9,11,16,23,27,28,30,138,,,4.0,0.8,3.5*3E
2018-01-11 20:05:04 1515719104.753757: $GPGBS,010505,14.62,M,24.83,M,80.38,M*00
2018-01-11 20:05:06 1515719106.147250: $GPGSV,3,1,10,07,53,313,16,08,72,139,18,09,50,232,17,11,18,168,18*74
2018-01-11 20:05:06 1515719106.147402: $GPGSV,3,2,10,16,25,058,18,23,31,190,18,27,49,055,20,28,12,256,15*79
2018-01-11 20:05:06 1515719106.147467: $GPGSV,3,3,10,30,27,306,14,138,38,213,00*4F
2018-01-11 20:05:06 1515719106.260840: $GPZDA,010505.94,12,01,2018,00,00*63
2018-01-11 20:05:06 1515719106.260953: $GPGGA,010505,3946.9629,N,08404.9830,W,1,09,0.80,303.87,M,-33.324,M,,*71
2018-01-11 20:05:06 1515719106.261017: $GPRMC,010505,A,3946.9629,N,08404.9830,W,0.1567,9.200,120118,,*3D
2018-01-11 20:05:06 1515719106.261076: $GPGSA,A,3,7,8,9,11,16,23,27,28,30,,,,4.0,0.8,3.5*04
2018-01-11 20:05:07 1515719107.044947: $GPZDA,010507.00,12,01,2018,00,00*6C
2018-01-11 20:05:07 1515719107.045130: $GPGGA,010507,3946.9629,N,08404.9823,W,1,09,0.80,303.95,M,-33.324,M,,*72
2018-01-11 20:05:07 1515719107.045197: $GPRMC,010507,A,3946.9629,N,08404.9823,W,0.1867,180.000,120118,,*32
2018-01-11 20:05:07 1515719107.045259: $GPGSA,A,3,7,8,9,11,16,23,27,28,30,,,,4.0,0.8,3.5*04
2018-01-11 20:05:07 1515719107.045317: $GPGBS,010507,14.62,M,24.83,M,80.38,M*02
2018-01-11 20:05:07 1515719107.298762: $GPZDA,010508.00,12,01,2018,00,00*63
2018-01-11 20:05:07 1515719107.298911: $GPGGA,010508,3946.9625,N,08404.9824,W,1,09,0.80,304.71,M,-33.324,M,,*7B
2018-01-11 20:05:07 1515719107.298975: $GPRMC,010508,A,3946.9625,N,08404.9824,W,0.0000,0.000,120118,,*37
2018-01-11 20:05:07 1515719107.299101: $GPGSA,A,3,7,8,9,11,16,23,27,28,30,,,,4.0,0.8,3.5*04
2018-01-11 20:05:07 1515719107.299161: $GPGBS,010508,14.62,M,24.83,M,80.38,M*0D
2018-01-11 20:05:08 1515719108.691711: $GPGSV,3,1,10,07,53,313,41,08,72,139,45,09,50,232,44,11,18,168,45*70
2018-01-11 20:05:08 1515719108.691886: $GPGSV,3,2,10,16,25,058,46,23,31,190,46,27,49,055,50,28,12,256,39*70
2018-01-11 20:05:08 1515719108.691951: $GPGSV,3,3,10,30,27,306,33,138,38,213,46*48
2018-01-11 20:05:08 1515719108.805334: $GPZDA,010509.00,12,01,2018,00,00*62
2018-01-11 20:05:08 1515719108.805466: $GPGGA,010509,3946.9625,N,08404.9824,W,1,10,0.80,304.71,M,-33.324,M,,*72
2018-01-11 20:05:08 1515719108.805530: $GPRMC,010509,A,3946.9625,N,08404.9824,W,0.0000,0.000,120118,,*36
2018-01-11 20:05:08 1515719108.805590: $GPGSA,A,3,7,8,9,11,16,23,27,28,30,138,,,4.0,0.8,3.5*3E
2018-01-11 20:05:09 1515719109.430698: $GPZDA,010510.00,12,01,2018,00,00*6A
2018-01-11 20:05:09 1515719109.430835: $GPGGA,010510,3946.9600,N,08404.9807,W,2,10,2.40,308.90,M,-33.324,M,,*72
2018-01-11 20:05:09 1515719109.430900: $GPRMC,010510,A,3946.9600,N,08404.9807,W,0.0000,0.000,120118,,*38
2018-01-11 20:05:09 1515719109.430960: $GPGSA,A,3,7,8,9,11,16,23,27,28,30,138,,,4.0,2.4,3.5*30
2018-01-11 20:05:10 1515719110.356331: $GPZDA,010511.00,12,01,2018,00,00*6B
2018-01-11 20:05:10 1515719110.356483: $GPGGA,010511,3946.9600,N,08404.9807,W,2,10,1.40,308.90,M,-33.324,M,,*70
2018-01-11 20:05:10 1515719110.356549: $GPRMC,010511,A,3946.9600,N,08404.9807,W,0.0000,0.000,120118,,*39
2018-01-11 20:05:10 1515719110.356610: $GPGSA,A,3,7,8,9,11,16,23,27,28,30,138,,,4.0,1.4,3.5*33
2018-01-11 20:05:10 1515719110.356723: $GPGBS,010511,3.65,M,6.21,M,20.10,M*0C
2018-01-11 20:05:11 1515719111.693179: $GPGSV,3,1,10,07,53,313,41,08,72,139,46,09,50,232,43,11,18,168,45*74
2018-01-11 20:05:11 1515719111.693353: $GPGSV,3,2,10,16,25,058,45,23,31,190,46,27,49,055,50,28,12,256,39*73
2018-01-11 20:05:11 1515719111.693419: $GPGSV,3,3,10,30,27,306,34,138,38,213,45*4C
2018-01-11 20:05:11 1515719111.805298: $GPZDA,010512.00,12,01,2018,00,00*68
2018-01-11 20:05:11 1515719111.805457: $GPGGA,010512,3946.9600,N,08404.9807,W,2,10,0.80,308.90,M,-33.324,M,,*7E
2018-01-11 20:05:11 1515719111.805522: $GPRMC,010512,A,3946.9600,N,08404.9807,W,0.0000,0.000,120118,,*3A
2018-01-11 20:05:11 1515719111.805583: $GPGSA,A,3,7,8,9,11,16,23,27,28,30,138,,,4.0,0.8,3.5*3E
2018-01-11 20:05:12 1515719112.357542: $GPZDA,010513.00,12,01,2018,00,00*69
2018-01-11 20:05:12 1515719112.357707: $GPGGA,010513,3946.9600,N,08404.9807,W,2,10,0.80,308.90,M,-33.324,M,,*7F
2018-01-11 20:05:12 1515719112.357774: $GPRMC,010513,A,3946.9600,N,08404.9807,W,0.0000,0.000,120118,,*3B
2018-01-11 20:05:12 1515719112.357834: $GPGSA,A,3,7,8,9,11,16,23,27,28,30,138,,,4.0,0.8,3.5*3E
2018-01-11 20:05:13 1515719113.358313: $GPZDA,010514.00,12,01,2018,00,00*6E
2018-01-11 20:05:13 1515719113.358481: $GPGGA,010514,3946.9600,N,08404.9807,W,2,10,0.80,308.90,M,-33.324,M,,*78
2018-01-11 20:05:13 1515719113.358548: $GPRMC,010514,A,3946.9600,N,08404.9807,W,0.0000,0.000,120118,,*3C
2018-01-11 20:05:13 1515719113.358609: $GPGSA,A,3,7,8,9,11,16,23,27,28,30,138,,,4.0,0.8,3.5*3E
2018-01-11 20:05:14 1515719114.693512: $GPGSV,3,1,10,07,53,313,41,08,72,139,46,09,50,232,43,11,18,168,45*74
2018-01-11 20:05:14 1515719114.693690: $GPGSV,3,2,10,16,25,058,46,23,31,190,46,27,49,055,50,28,12,256,38*71
2018-01-11 20:05:14 1515719114.693755: $GPGSV,3,3,10,30,27,306,34,138,38,213,45*4C
2018-01-11 20:05:14 1515719114.806869: $GPZDA,010515.00,12,01,2018,00,00*6F
2018-01-11 20:05:14 1515719114.807004: $GPGGA,010515,3946.9600,N,08404.9807,W,2,10,0.80,308.90,M,-33.324,M,,*79
2018-01-11 20:05:14 1515719114.807068: $GPRMC,010515,A,3946.9600,N,08404.9807,W,0.0000,0.000,120118,,*3D
2018-01-11 20:05:14 1515719114.807128: $GPGSA,A,3,7,8,9,11,16,23,27,28,30,138,,,4.0,0.8,3.5*3E
2018-01-11 20:05:15 1515719115.357998: $GPZDA,010516.00,12,01,2018,00,00*6C
2018-01-11 20:05:15 1515719115.358147: $GPGGA,010516,3946.9600,N,08404.9807,W,2,10,0.80,308.90,M,-33.324,M,,*7A
2018-01-11 20:05:15 1515719115.358212: $GPRMC,010516,A,3946.9600,N,08404.9807,W,0.0000,0.000,120118,,*3E
2018-01-11 20:05:15 1515719115.358289: $GPGSA,A,3,7,8,9,11,16,23,27,28,30,138,,,4.0,0.8,3.5*3E
