2017-12-31 16:45:30 1514756730.085946: {"class":"VERSION","release":"3.16","rev":"3.16-4","proto_major":3,"proto_minor":11}
2017-12-31 16:45:30 1514756730.086515: {"class":"DEVICES","devices":[{"class":"DEVICE","path":"/dev/ttyUSB0","driver":"SiRF","activated":"2017-12-31T21:45:29.661Z","flags":1,"native":1,"bps":4800,"parity":"N","stopbits":1,"cycle":1.00}]}
2017-12-31 16:45:30 1514756730.086622: {"class":"WATCH","enable":true,"json":false,"nmea":true,"raw":0,"scaled":false,"timing":false,"split24":false,"pps":false}
2017-12-31 16:45:30 1514756730.681743: $GPGSV,3,1,11,22,49,253,44,23,20,304,44,25,09,039,31,03,45,285,35*7B
2017-12-31 16:45:30 1514756730.681900: $GPGSV,3,2,11,16,35,189,48,29,13,064,24,31,57,042,52,14,48,105,46*76
2017-12-31 16:45:30 1514756730.681967: $GPGSV,3,3,11,32,26,115,41,26,66,162,43,135,22,240,43*7C
2017-12-31 16:45:30 1514756730.795348: $GPZDA,214531.00,31,12,2017,00,00*63
2017-12-31 16:45:30 1514756730.795483: $GPGGA,214531,3946.9576,N,08404.9848,W,2,11,0.80,303.18,M,-33.324,M,,*7A
2017-12-31 16:45:30 1514756730.795548: $GPRMC,214531,A,3946.9576,N,08404.9848,W,0.0000,0.000,311217,,*38
2017-12-31 16:45:30 1514756730.795610: $GPGSA,A,3,22,23,25,3,16,29,31,14,32,26,135,,1.7,0.8,1.3*32
2017-12-31 16:45:31 1514756731.362538: $GPZDA,214532.00,31,12,2017,00,00*60
2017-12-31 16:45:31 1514756731.362706: $GPGGA,214532,3946.9576,N,08404.9848,W,2,11,0.80,303.18,M,-33.324,M,,*79
2017-12-31 16:45:31 1514756731.362772: $GPRMC,214532,A,3946.9576,N,08404.9848,W,0.0000,0.000,311217,,*3B
2017-12-31 16:45:31 1514756731.362835: $GPGSA,A,3,22,23,25,3,16,29,31,14,32,26,135,,1.7,0.8,1.3*32
2017-12-31 16:45:32 1514756732.362109: $GPZDA,214533.00,31,12,2017,00,00*61
2017-12-31 16:45:32 1514756732.362270: $GPGGA,214533,3946.9576,N,08404.9848,W,2,11,0.80,303.18,M,-33.324,M,,*78
2017-12-31 16:45:32 1514756732.362338: $GPRMC,214533,A,3946.9576,N,08404.9848,W,0.0000,0.000,311217,,*3A
2017-12-31 16:45:32 1514756732.362398: $GPGSA,A,3,22,23,25,3,16,29,31,14,32,26,135,,1.7,0.8,1.3*32
2017-12-31 16:45:33 1514756733.681298: $GPGSV,3,1,11,22,49,253,44,23,20,304,44,25,09,039,32,03,45,285,35*78
2017-12-31 16:45:33 1514756733.681482: $GPGSV,3,2,11,16,35,189,48,29,13,064,24,31,57,042,52,14,48,105,46*76
2017-12-31 16:45:33 1514756733.681549: $GPGSV,3,3,11,32,26,115,41,26,66,162,43,135,22,240,44*7B
2017-12-31 16:45:33 1514756733.795029: $GPZDA,214534.00,31,12,2017,00,00*66
2017-12-31 16:45:33 1514756733.795177: $GPGGA,214534,3946.9576,N,08404.9848,W,2,11,0.80,303.18,M,-33.324,M,,*7F
2017-12-31 16:45:33 1514756733.795244: $GPRMC,214534,A,3946.9576,N,08404.9848,W,0.0000,0.000,311217,,*3D
2017-12-31 16:45:33 1514756733.795323: $GPGSA,A,3,22,23,25,3,16,29,31,14,32,26,135,,1.7,0.8,1.3*32
2017-12-31 16:45:34 1514756734.362286: $GPZDA,214535.00,31,12,2017,00,00*67
2017-12-31 16:45:34 1514756734.362455: $GPGGA,214535,3946.9576,N,08404.9848,W,2,11,0.80,303.18,M,-33.324,M,,*7E
2017-12-31 16:45:34 1514756734.362521: $GPRMC,214535,A,3946.9576,N,08404.9848,W,0.0000,0.000,311217,,*3C
2017-12-31 16:45:34 1514756734.362584: $GPGSA,A,3,22,23,25,3,16,29,31,14,32,26,135,,1.7,0.8,1.3*32
2017-12-31 16:45:35 1514756735.346033: $GPZDA,214536.00,31,12,2017,00,00*64
2017-12-31 16:45:35 1514756735.346520: $GPGGA,214536,3946.9576,N,08404.9848,W,2,11,0.80,303.18,M,-33.324,M,,*7D
2017-12-31 16:45:35 1514756735.346606: $GPRMC,214536,A,3946.9576,N,08404.9848,W,0.0000,0.000,311217,,*3F
2017-12-31 16:45:35 1514756735.346670: $GPGSA,A,3,22,23,25,3,16,29,31,14,32,26,135,,1.7,0.8,1.3*32
2017-12-31 16:45:36 1514756736.682896: $GPGSV,3,1,11,22,49,253,44,23,20,304,44,25,09,039,32,03,45,285,35*78
2017-12-31 16:45:36 1514756736.683075: $GPGSV,3,2,11,16,35,189,48,29,13,064,25,31,57,042,52,14,48,105,46*77
2017-12-31 16:45:36 1514756736.683143: $GPGSV,3,3,11,32,26,115,41,26,66,162,43,135,22,240,43*7C
2017-12-31 16:45:36 1514756736.796282: $GPZDA,214537.00,31,12,2017,00,00*65
2017-12-31 16:45:36 1514756736.796422: $GPGGA,214537,3946.9576,N,08404.9848,W,2,11,0.80,303.18,M,-33.324,M,,*7C
2017-12-31 16:45:36 1514756736.796488: $GPRMC,214537,A,3946.9576,N,08404.9848,W,0.0000,0.000,311217,,*3E
2017-12-31 16:45:36 1514756736.796606: $GPGSA,A,3,22,23,25,3,16,29,31,14,32,26,135,,1.7,0.8,1.3*32
2017-12-31 16:45:37 1514756737.347260: $GPZDA,214538.00,31,12,2017,00,00*6A
2017-12-31 16:45:37 1514756737.347420: $GPGGA,214538,3946.9576,N,08404.9848,W,2,11,0.80,303.18,M,-33.324,M,,*73
2017-12-31 16:45:37 1514756737.347488: $GPRMC,214538,A,3946.9576,N,08404.9848,W,0.0000,0.000,311217,,*31
2017-12-31 16:45:37 1514756737.347552: $GPGSA,A,3,22,23,25,3,16,29,31,14,32,26,135,,1.7,0.8,1.3*32
2017-12-31 16:45:38 1514756738.355530: $GPZDA,214539.00,31,12,2017,00,00*6B
2017-12-31 16:45:38 1514756738.355703: $GPGGA,214539,3946.9576,N,08404.9848,W,2,11,0.80,303.18,M,-33.324,M,,*72
2017-12-31 16:45:38 1514756738.355770: $GPRMC,214539,A,3946.9576,N,08404.9848,W,0.0000,0.000,311217,,*30
2017-12-31 16:45:38 1514756738.355833: $GPGSA,A,3,22,23,25,3,16,29,31,14,32,26,135,,1.7,0.8,1.3*32
2017-12-31 16:45:39 1514756739.682491: $GPGSV,3,1,11,22,49,253,43,23,20,304,43,25,09,039,32,03,45,285,36*7B
2017-12-31 16:45:39 1514756739.682658: $GPGSV,3,2,11,16,35,189,48,29,13,064,26,31,57,042,52,14,48,105,46*74
2017-12-31 16:45:39 1514756739.682724: $GPGSV,3,3,11,32,26,115,42,26,66,162,42,135,22,240,44*79
2017-12-31 16:45:39 1514756739.795843: $GPZDA,214540.00,31,12,2017,00,00*65
2017-12-31 16:45:39 1514756739.795995: $GPGGA,214540,3946.9576,N,08404.9848,W,2,11,0.80,303.18,M,-33.324,M,,*7C
2017-12-31 16:45:39 1514756739.796062: $GPRMC,214540,A,3946.9576,N,08404.9848,W,0.0000,0.000,311217,,*3E
2017-12-31 16:45:39 1514756739.796123: $GPGSA,A,3,22,23,25,3,16,29,31,14,32,26,135,,1.7,0.8,1.3*32
