2017-11-16 17:39:42 1510871982.150649: {"class":"VERSION","release":"3.17","rev":"3.17","proto_major":3,"proto_minor":12}
2017-11-16 17:39:42 1510871982.151097: {"class":"DEVICES","devices":[{"class":"DEVICE","path":"/dev/ttyUSB0","driver":"SiRF","subtype":"9\u0006GSD4e_4.1.2-P1_RPATCH.05-F-GPS-4R-1510281 11/03/2015 307","activated":"2017-11-16T22:39:41.559Z","flags":1,"native":1,"bps":4800,"parity":"N","stopbits":1,"cycle":1.00}]}
2017-11-16 17:39:42 1510871982.151261: {"class":"WATCH","enable":true,"json":false,"nmea":true,"raw":0,"scaled":false,"timing":false,"split24":false,"pps":false}
2017-11-16 17:39:42 1510871982.753576: $GPGSV,3,1,12,01,22,297,34,10,44,150,46,22,22,312,40,12,20,046,48*7E
2017-11-16 17:39:42 1510871982.753765: $GPGSV,3,2,12,14,68,337,48,18,15,145,40,26,05,183,22,11,07,279,41*77
2017-11-16 17:39:42 1510871982.753825: $GPGSV,3,3,12,25,40,085,49,31,59,228,48,32,67,037,50,138,38,213,44*43
2017-11-16 17:39:42 1510871982.866877: $GPZDA,223941.00,16,11,2017,00,00*6A
2017-11-16 17:39:42 1510871982.867029: $GPGGA,223941,3946.9576,N,08404.9841,W,2,12,0.80,303.26,M,-33.324,M,,*72
2017-11-16 17:39:42 1510871982.867089: $GPRMC,223941,A,3946.9576,N,08404.9841,W,0.0000,0.000,161117,,*38
2017-11-16 17:39:42 1510871982.867143: $GPGSA,A,3,1,10,22,12,14,18,26,11,25,31,32,138,1.6,0.8,1.3*3A
2017-11-16 17:39:43 1510871983.395950: $GPZDA,223942.00,16,11,2017,00,00*69
2017-11-16 17:39:43 1510871983.396262: $GPGGA,223942,3946.9576,N,08404.9841,W,2,12,0.80,303.26,M,-33.324,M,,*71
2017-11-16 17:39:43 1510871983.396394: $GPRMC,223942,A,3946.9576,N,08404.9841,W,0.0000,0.000,161117,,*3B
2017-11-16 17:39:43 1510871983.396578: $GPGSA,A,3,1,10,22,12,14,18,26,11,25,31,32,138,1.6,0.8,1.3*3A
2017-11-16 17:39:44 1510871984.417517: $GPZDA,223943.00,16,11,2017,00,00*68
2017-11-16 17:39:44 1510871984.417722: $GPGGA,223943,3946.9576,N,08404.9841,W,2,12,0.80,303.26,M,-33.324,M,,*70
2017-11-16 17:39:44 1510871984.417783: $GPRMC,223943,A,3946.9576,N,08404.9841,W,0.0000,0.000,161117,,*3A
2017-11-16 17:39:44 1510871984.417839: $GPGSA,A,3,1,10,22,12,14,18,26,11,25,31,32,138,1.6,0.8,1.3*3A
2017-11-16 17:39:45 1510871985.753175: $GPGSV,3,1,12,01,22,297,36,10,44,150,46,22,22,312,41,12,20,046,48*7D
2017-11-16 17:39:45 1510871985.753345: $GPGSV,3,2,12,14,68,337,48,18,15,145,40,26,05,183,22,11,07,279,41*77
2017-11-16 17:39:45 1510871985.753405: $GPGSV,3,3,12,25,40,085,49,31,59,228,48,32,67,037,50,138,38,213,44*43
2017-11-16 17:39:45 1510871985.866479: $GPZDA,223944.00,16,11,2017,00,00*6F
2017-11-16 17:39:45 1510871985.866630: $GPGGA,223944,3946.9576,N,08404.9841,W,2,12,0.80,303.26,M,-33.324,M,,*77
2017-11-16 17:39:45 1510871985.866690: $GPRMC,223944,A,3946.9576,N,08404.9841,W,0.0000,0.000,161117,,*3D
2017-11-16 17:39:45 1510871985.866745: $GPGSA,A,3,1,10,22,12,14,18,26,11,25,31,32,138,1.6,0.8,1.3*3A
2017-11-16 17:39:46 1510871986.492112: $GPZDA,223945.00,16,11,2017,00,00*6E
2017-11-16 17:39:46 1510871986.492272: $GPGGA,223945,3946.9576,N,08404.9841,W,2,12,0.80,303.26,M,-33.324,M,,*76
2017-11-16 17:39:46 1510871986.492333: $GPRMC,223945,A,3946.9576,N,08404.9841,W,0.0000,0.000,161117,,*3C
2017-11-16 17:39:46 1510871986.492388: $GPGSA,A,3,1,10,22,12,14,18,26,11,25,31,32,138,1.6,0.8,1.3*3A
2017-11-16 17:39:47 1510871987.418976: $GPZDA,223946.00,16,11,2017,00,00*6D
2017-11-16 17:39:47 1510871987.419162: $GPGGA,223946,3946.9576,N,08404.9841,W,2,12,0.80,303.26,M,-33.324,M,,*75
2017-11-16 17:39:47 1510871987.419224: $GPRMC,223946,A,3946.9576,N,08404.9841,W,0.0000,0.000,161117,,*3F
2017-11-16 17:39:47 1510871987.419280: $GPGSA,A,3,1,10,22,12,14,18,26,11,25,31,32,138,1.6,0.8,1.3*3A
2017-11-16 17:39:48 1510871988.753494: $GPGSV,3,1,12,01,22,297,36,10,44,150,46,22,22,312,41,12,20,046,48*7D
2017-11-16 17:39:48 1510871988.753679: $GPGSV,3,2,12,14,68,337,48,18,15,145,40,26,05,183,00,11,07,279,42*74
2017-11-16 17:39:48 1510871988.753739: $GPGSV,3,3,12,25,40,085,50,31,59,228,48,32,67,037,50,138,38,213,44*4B
2017-11-16 17:39:48 1510871988.867272: $GPZDA,223947.00,16,11,2017,00,00*6C
2017-11-16 17:39:48 1510871988.867613: $GPGGA,223947,3946.9576,N,08404.9841,W,2,11,0.80,303.26,M,-33.324,M,,*77
2017-11-16 17:39:48 1510871988.867850: $GPRMC,223947,A,3946.9576,N,08404.9841,W,0.0000,0.000,161117,,*3E
2017-11-16 17:39:48 1510871988.867975: $GPGSA,A,3,1,10,22,12,14,18,11,25,31,32,138,,1.6,0.8,1.3*3E
2017-11-16 17:39:49 1510871989.418923: $GPZDA,223948.00,16,11,2017,00,00*63
2017-11-16 17:39:49 1510871989.419089: $GPGGA,223948,3946.9576,N,08404.9841,W,2,11,0.80,303.26,M,-33.324,M,,*78
2017-11-16 17:39:49 1510871989.419149: $GPRMC,223948,A,3946.9576,N,08404.9841,W,0.0000,0.000,161117,,*31
2017-11-16 17:39:49 1510871989.419204: $GPGSA,A,3,1,10,22,12,14,18,11,25,31,32,138,,1.6,0.8,1.3*3E
2017-11-16 17:39:50 1510871990.394781: $GPZDA,223949.00,16,11,2017,00,00*62
2017-11-16 17:39:50 1510871990.394948: $GPGGA,223949,3946.9576,N,08404.9841,W,2,11,0.80,303.26,M,-33.324,M,,*79
2017-11-16 17:39:50 1510871990.395053: $GPRMC,223949,A,3946.9576,N,08404.9841,W,0.0000,0.000,161117,,*30
2017-11-16 17:39:50 1510871990.395120: $GPGSA,A,3,1,10,22,12,14,18,11,25,31,32,138,,1.6,0.8,1.3*3E
2017-11-16 17:39:51 1510871991.747561: $GPGSV,3,1,12,01,22,297,36,10,44,150,46,22,22,312,40,12,20,046,48*7C
2017-11-16 17:39:51 1510871991.747743: $GPGSV,3,2,12,14,68,337,48,18,15,145,40,03,02,316,28,11,07,279,41*73
2017-11-16 17:39:51 1510871991.747808: $GPGSV,3,3,12,25,40,085,49,31,59,228,48,32,67,037,50,138,38,213,44*43
2017-11-16 17:39:51 1510871991.860922: $GPZDA,223950.00,16,11,2017,00,00*6A
2017-11-16 17:39:51 1510871991.861112: $GPGGA,223950,3946.9576,N,08404.9841,W,2,12,0.80,303.26,M,-33.324,M,,*72
2017-11-16 17:39:51 1510871991.861179: $GPRMC,223950,A,3946.9576,N,08404.9841,W,0.0000,0.000,161117,,*38
2017-11-16 17:39:51 1510871991.861238: $GPGSA,A,3,1,10,22,12,14,18,3,11,25,31,32,138,1.6,0.8,1.3*0D
