2017-11-15 19:02:11 1510790531.642793: {"class":"VERSION","release":"3.17","rev":"3.17","proto_major":3,"proto_minor":12}
2017-11-15 19:02:11 1510790531.643221: {"class":"DEVICES","devices":[{"class":"DEVICE","path":"/dev/ttyUSB0","driver":"SiRF","subtype":"9\u0006GSD4e_4.1.2-P1_RPATCH.05-F-GPS-4R-1510281 11/03/2015 307","activated":"2017-11-16T00:02:11.472Z","flags":1,"native":1,"bps":4800,"parity":"N","stopbits":1,"cycle":1.00}]}
2017-11-15 19:02:11 1510790531.643328: {"class":"WATCH","enable":true,"json":false,"nmea":true,"raw":0,"scaled":false,"timing":false,"split24":false,"pps":false}
2017-11-15 19:02:12 1510790532.667751: $GPGSV,3,1,11,32,46,096,21,14,63,072,25,03,31,309,20,26,39,175,04*76
2017-11-15 19:02:12 1510790532.667927: $GPGSV,3,2,11,31,77,352,24,16,10,190,10,22,47,289,22,25,27,046,13*75
2017-11-15 19:02:12 1510790532.667986: $GPGSV,3,3,11,29,06,082,14,01,12,262,00,10,09,159,00*4A
2017-11-15 19:02:12 1510790532.779882: $GPZDA,000211.00,16,11,2017,00,00*67
2017-11-15 19:02:12 1510790532.780044: $GPGGA,000211,3946.9627,N,08404.9494,W,1,08,1.00,307.42,M,-33.324,M,,*7B
2017-11-15 19:02:12 1510790532.780103: $GPRMC,000211,A,3946.9627,N,08404.9494,W,0.1567,9.201,161117,,*39
2017-11-15 19:02:12 1510790532.780158: $GPGSA,A,3,32,14,3,31,16,22,25,29,,,,,3.4,1.0,2.9*01
2017-11-15 19:02:13 1510790533.332079: $GPZDA,000212.00,16,11,2017,00,00*64
2017-11-15 19:02:13 1510790533.332249: $GPGGA,000212,3946.9627,N,08404.9494,W,1,08,1.00,307.42,M,-33.324,M,,*78
2017-11-15 19:02:13 1510790533.332311: $GPRMC,000212,A,3946.9627,N,08404.9494,W,0.1567,9.201,161117,,*3A
2017-11-15 19:02:13 1510790533.332366: $GPGSA,A,3,32,14,3,31,16,22,25,29,,,,,3.4,1.0,2.9*01
2017-11-15 19:02:14 1510790534.330374: $GPZDA,000213.00,16,11,2017,00,00*65
2017-11-15 19:02:14 1510790534.330536: $GPGGA,000213,3946.9631,N,08404.9494,W,1,08,1.00,306.66,M,-33.324,M,,*79
2017-11-15 19:02:14 1510790534.330596: $GPRMC,000213,A,3946.9631,N,08404.9494,W,0.3006,62.540,161117,,*03
2017-11-15 19:02:14 1510790534.330652: $GPGSA,A,3,32,14,3,31,16,22,25,29,,,,,3.4,1.0,2.9*01
2017-11-15 19:02:15 1510790535.665801: $GPGSV,3,1,11,32,46,096,21,14,63,072,26,03,31,309,20,26,39,175,04*75
2017-11-15 19:02:15 1510790535.666019: $GPGSV,3,2,11,31,77,352,24,16,10,190,11,22,47,289,22,25,27,046,13*74
2017-11-15 19:02:15 1510790535.671872: $GPGSV,3,3,11,29,06,082,14,01,12,262,00,10,09,159,00*4A
2017-11-15 19:02:15 1510790535.779144: $GPZDA,000214.00,16,11,2017,00,00*62
2017-11-15 19:02:15 1510790535.779310: $GPGGA,000214,3946.9631,N,08404.9494,W,1,08,1.00,306.66,M,-33.324,M,,*7E
2017-11-15 19:02:15 1510790535.779371: $GPRMC,000214,A,3946.9631,N,08404.9494,W,0.5951,58.684,161117,,*0B
2017-11-15 19:02:15 1510790535.779427: $GPGSA,A,3,32,14,3,31,16,22,25,29,,,,,3.4,1.0,2.9*01
2017-11-15 19:02:16 1510790536.404705: $GPZDA,000215.00,16,11,2017,00,00*63
2017-11-15 19:02:16 1510790536.404885: $GPGGA,000215,3946.9630,N,08404.9487,W,1,08,1.00,306.74,M,-33.324,M,,*7F
2017-11-15 19:02:16 1510790536.404947: $GPRMC,000215,A,3946.9630,N,08404.9487,W,0.7267,93.794,161117,,*02
2017-11-15 19:02:16 1510790536.405019: $GPGSA,A,3,32,14,3,31,16,22,25,29,,,,,3.4,1.0,2.9*01
2017-11-15 19:02:17 1510790537.329342: $GPZDA,000216.00,16,11,2017,00,00*60
2017-11-15 19:02:17 1510790537.329503: $GPGGA,000216,3946.9630,N,08404.9487,W,1,08,2.00,306.74,M,-33.324,M,,*7F
2017-11-15 19:02:17 1510790537.329563: $GPRMC,000216,A,3946.9630,N,08404.9487,W,0.5075,72.257,161117,,*07
2017-11-15 19:02:17 1510790537.329619: $GPGSA,A,3,32,14,3,31,16,22,25,29,,,,,3.4,2.0,2.9*02
2017-11-15 19:02:18 1510790538.665068: $GPGSV,3,1,11,32,46,096,22,14,63,072,26,03,31,309,21,26,39,175,06*75
2017-11-15 19:02:18 1510790538.665267: $GPGSV,3,2,11,31,77,352,25,16,10,190,10,22,47,289,22,25,27,046,13*74
2017-11-15 19:02:18 1510790538.665356: $GPGSV,3,3,11,29,06,082,14,01,12,262,00,10,09,159,00*4A
2017-11-15 19:02:18 1510790538.778252: $GPZDA,000217.00,16,11,2017,00,00*61
2017-11-15 19:02:18 1510790538.778417: $GPGGA,000217,3946.9631,N,08404.9494,W,1,09,1.00,306.66,M,-33.324,M,,*7C
2017-11-15 19:02:18 1510790538.778479: $GPRMC,000217,A,3946.9631,N,08404.9494,W,0.1867,0.000,161117,,*3F
2017-11-15 19:02:18 1510790538.778589: $GPGSA,A,3,32,14,3,26,31,16,22,25,29,,,,3.4,1.0,2.9*05
2017-11-15 19:02:19 1510790539.329201: $GPZDA,000218.00,16,11,2017,00,00*6E
2017-11-15 19:02:19 1510790539.329572: $GPGGA,000218,3946.9635,N,08404.9494,W,1,09,1.00,307.30,M,-33.324,M,,*75
2017-11-15 19:02:19 1510790539.329694: $GPRMC,000218,A,3946.9635,N,08404.9494,W,0.4179,328.778,161117,,*36
2017-11-15 19:02:19 1510790539.329808: $GPGSA,A,3,32,14,3,26,31,16,22,25,29,,,,3.4,1.0,2.9*05
2017-11-15 19:02:20 1510790540.330028: $GPZDA,000219.00,16,11,2017,00,00*6F
2017-11-15 19:02:20 1510790540.330229: $GPGGA,000219,3946.9635,N,08404.9494,W,1,09,1.00,307.30,M,-33.324,M,,*74
2017-11-15 19:02:20 1510790540.330293: $GPRMC,000219,A,3946.9635,N,08404.9494,W,0.4207,39.347,161117,,*06
2017-11-15 19:02:20 1510790540.330349: $GPGSA,A,3,32,14,3,26,31,16,22,25,29,,,,3.4,1.0,2.9*05
