2017-11-16 17:29:33 1510871373.372400: {"class":"VERSION","release":"3.17","rev":"3.17","proto_major":3,"proto_minor":12}
2017-11-16 17:29:33 1510871373.372865: {"class":"DEVICES","devices":[{"class":"DEVICE","path":"/dev/ttyUSB0","driver":"SiRF","subtype":"9\u0006GSD4e_4.1.2-P1_RPATCH.05-F-GPS-4R-1510281 11/03/2015 307","activated":"2017-11-16T22:29:33.309Z","flags":1,"native":1,"bps":4800,"parity":"N","stopbits":1,"cycle":1.00}]}
2017-11-16 17:29:33 1510871373.372981: {"class":"WATCH","enable":true,"json":false,"nmea":true,"raw":0,"scaled":false,"timing":false,"split24":false,"pps":false}
2017-11-16 17:29:33 1510871373.758615: $GPGSV,3,1,11,01,21,303,40,10,50,147,49,22,17,312,42,12,23,051,50*75
2017-11-16 17:29:33 1510871373.758782: $GPGSV,3,2,11,14,65,324,48,18,20,144,39,11,09,283,37,25,39,093,48*78
2017-11-16 17:29:33 1510871373.758841: $GPGSV,3,3,11,31,53,223,48,32,69,022,50,138,38,213,44*78
2017-11-16 17:29:33 1510871373.871887: $GPZDA,222932.00,16,11,2017,00,00*6F
2017-11-16 17:29:33 1510871373.872048: $GPGGA,222932,3946.9573,N,08404.9836,W,2,11,0.80,305.51,M,-33.324,M,,*77
2017-11-16 17:29:33 1510871373.872108: $GPRMC,222932,A,3946.9573,N,08404.9836,W,0.0000,0.000,161117,,*38
2017-11-16 17:29:33 1510871373.872164: $GPGSA,A,3,1,10,22,12,14,18,11,25,31,32,138,,1.6,0.8,1.3*3E
2017-11-16 17:29:34 1510871374.421544: $GPZDA,222933.00,16,11,2017,00,00*6E
2017-11-16 17:29:34 1510871374.421702: $GPGGA,222933,3946.9573,N,08404.9836,W,2,11,0.80,305.51,M,-33.324,M,,*76
2017-11-16 17:29:34 1510871374.421763: $GPRMC,222933,A,3946.9573,N,08404.9836,W,0.0000,0.000,161117,,*39
2017-11-16 17:29:34 1510871374.421819: $GPGSA,A,3,1,10,22,12,14,18,11,25,31,32,138,,1.6,0.8,1.3*3E
2017-11-16 17:29:35 1510871375.421113: $GPZDA,222934.00,16,11,2017,00,00*69
2017-11-16 17:29:35 1510871375.421280: $GPGGA,222934,3946.9573,N,08404.9836,W,2,11,0.80,305.51,M,-33.324,M,,*71
2017-11-16 17:29:35 1510871375.421340: $GPRMC,222934,A,3946.9573,N,08404.9836,W,0.0000,0.000,161117,,*3E
2017-11-16 17:29:35 1510871375.421397: $GPGSA,A,3,1,10,22,12,14,18,11,25,31,32,138,,1.6,0.8,1.3*3E
2017-11-16 17:29:36 1510871376.758951: $GPGSV,3,1,11,01,21,303,41,10,50,147,49,22,17,312,42,12,23,051,50*74
2017-11-16 17:29:36 1510871376.759124: $GPGSV,3,2,11,14,65,324,48,18,20,144,39,11,09,283,37,25,39,093,49*79
2017-11-16 17:29:36 1510871376.759183: $GPGSV,3,3,11,31,53,223,48,32,69,022,50,138,38,213,45*79
2017-11-16 17:29:36 1510871376.870984: $GPZDA,222935.00,16,11,2017,00,00*68
2017-11-16 17:29:36 1510871376.871132: $GPGGA,222935,3946.9573,N,08404.9836,W,2,11,0.80,305.51,M,-33.324,M,,*70
2017-11-16 17:29:36 1510871376.871192: $GPRMC,222935,A,3946.9573,N,08404.9836,W,0.0000,0.000,161117,,*3F
2017-11-16 17:29:36 1510871376.871247: $GPGSA,A,3,1,10,22,12,14,18,11,25,31,32,138,,1.6,0.8,1.3*3E
2017-11-16 17:29:37 1510871377.401835: $GPZDA,222936.00,16,11,2017,00,00*6B
2017-11-16 17:29:37 1510871377.402026: $GPGGA,222936,3946.9573,N,08404.9836,W,2,11,0.80,305.51,M,-33.324,M,,*73
2017-11-16 17:29:37 1510871377.402108: $GPRMC,222936,A,3946.9573,N,08404.9836,W,0.0000,0.000,161117,,*3C
2017-11-16 17:29:37 1510871377.402166: $GPGSA,A,3,1,10,22,12,14,18,11,25,31,32,138,,1.6,0.8,1.3*3E
2017-11-16 17:29:38 1510871378.421465: $GPZDA,222937.00,16,11,2017,00,00*6A
2017-11-16 17:29:38 1510871378.421641: $GPGGA,222937,3946.9573,N,08404.9836,W,2,11,0.80,305.51,M,-33.324,M,,*72
2017-11-16 17:29:38 1510871378.421703: $GPRMC,222937,A,3946.9573,N,08404.9836,W,0.0000,0.000,161117,,*3D
2017-11-16 17:29:38 1510871378.421759: $GPGSA,A,3,1,10,22,12,14,18,11,25,31,32,138,,1.6,0.8,1.3*3E
2017-11-16 17:29:39 1510871379.757378: $GPGSV,3,1,11,01,21,303,41,10,50,147,50,22,17,312,42,12,23,051,50*7C
2017-11-16 17:29:39 1510871379.757545: $GPGSV,3,2,11,14,65,324,48,18,20,144,39,11,09,283,38,25,39,093,48*77
2017-11-16 17:29:39 1510871379.757604: $GPGSV,3,3,11,31,53,223,49,32,69,022,49,138,38,213,44*71
2017-11-16 17:29:39 1510871379.870596: $GPZDA,222938.00,16,11,2017,00,00*65
2017-11-16 17:29:39 1510871379.870744: $GPGGA,222938,3946.9573,N,08404.9836,W,2,11,0.80,305.51,M,-33.324,M,,*7D
2017-11-16 17:29:39 1510871379.870871: $GPRMC,222938,A,3946.9573,N,08404.9836,W,0.0000,0.000,161117,,*32
2017-11-16 17:29:39 1510871379.870928: $GPGSA,A,3,1,10,22,12,14,18,11,25,31,32,138,,1.6,0.8,1.3*3E
2017-11-16 17:29:40 1510871380.415237: $GPZDA,222939.00,16,11,2017,00,00*64
2017-11-16 17:29:40 1510871380.415405: $GPGGA,222939,3946.9573,N,08404.9836,W,2,11,0.80,305.51,M,-33.324,M,,*7C
2017-11-16 17:29:40 1510871380.415468: $GPRMC,222939,A,3946.9573,N,08404.9836,W,0.0000,0.000,161117,,*33
2017-11-16 17:29:40 1510871380.415523: $GPGSA,A,3,1,10,22,12,14,18,11,25,31,32,138,,1.6,0.8,1.3*3E
2017-11-16 17:29:41 1510871381.421812: $GPZDA,222940.00,16,11,2017,00,00*6A
2017-11-16 17:29:41 1510871381.421980: $GPGGA,222940,3946.9573,N,08404.9836,W,2,11,0.80,305.51,M,-33.324,M,,*72
2017-11-16 17:29:41 1510871381.422040: $GPRMC,222940,A,3946.9573,N,08404.9836,W,0.0000,0.000,161117,,*3D
2017-11-16 17:29:41 1510871381.422096: $GPGSA,A,3,1,10,22,12,14,18,11,25,31,32,138,,1.6,0.8,1.3*3E
2017-11-16 17:29:42 1510871382.738903: $GPGSV,3,1,11,01,21,303,40,10,50,147,49,22,17,312,42,12,23,051,50*75
2017-11-16 17:29:42 1510871382.739070: $GPGSV,3,2,11,14,65,324,48,18,20,144,40,11,09,283,38,25,39,093,48*79
2017-11-16 17:29:42 1510871382.739128: $GPGSV,3,3,11,31,53,223,49,32,69,022,50,138,38,213,44*79
2017-11-16 17:29:42 1510871382.850950: $GPZDA,222941.00,16,11,2017,00,00*6B
2017-11-16 17:29:42 1510871382.851115: $GPGGA,222941,3946.9573,N,08404.9836,W,2,11,0.80,305.51,M,-33.324,M,,*73
2017-11-16 17:29:42 1510871382.851175: $GPRMC,222941,A,3946.9573,N,08404.9836,W,0.0000,0.000,161117,,*3C
2017-11-16 17:29:42 1510871382.851232: $GPGSA,A,3,1,10,22,12,14,18,11,25,31,32,138,,1.6,0.8,1.3*3E
2017-11-16 17:29:43 1510871383.401817: $GPZDA,222942.00,16,11,2017,00,00*68
2017-11-16 17:29:43 1510871383.401992: $GPGGA,222942,3946.9573,N,08404.9836,W,2,11,0.80,305.51,M,-33.324,M,,*70
2017-11-16 17:29:43 1510871383.402055: $GPRMC,222942,A,3946.9573,N,08404.9836,W,0.0000,0.000,161117,,*3F
2017-11-16 17:29:43 1510871383.402111: $GPGSA,A,3,1,10,22,12,14,18,11,25,31,32,138,,1.6,0.8,1.3*3E
