2017-12-01 11:35:24 1512146124.017469: {"class":"VERSION","release":"3.16","rev":"3.16-4","proto_major":3,"proto_minor":11}
2017-12-01 11:35:24 1512146124.017905: {"class":"DEVICES","devices":[{"class":"DEVICE","path":"/dev/ttyUSB0","driver":"SiRF","subtype":"9\u0006GSD4e_4.1.2-P1_RPATCH.05-F-GPS-4R-1510281 11/03/2015 307","activated":"2017-12-01T16:35:23.389Z","flags":1,"native":1,"bps":4800,"parity":"N","stopbits":1,"cycle":1.00}]}
2017-12-01 11:35:24 1512146124.018020: {"class":"WATCH","enable":true,"json":false,"nmea":true,"raw":0,"scaled":false,"timing":false,"split24":false,"pps":false}
2017-12-01 11:35:24 1512146124.582594: $GPGSV,3,1,11,05,16,075,39,13,46,052,47,15,78,087,48,18,41,282,46*7B
2017-12-01 11:35:24 1512146124.582771: $GPGSV,3,2,11,20,65,043,42,21,63,307,46,24,17,150,43,27,06,327,30*7D
2017-12-01 11:35:24 1512146124.582836: $GPGSV,3,3,11,29,28,196,45,10,10,270,27,138,38,213,46*74
2017-12-01 11:35:24 1512146124.696261: $GPZDA,163525.00,01,12,2017,00,00*66
2017-12-01 11:35:24 1512146124.696433: $GPGGA,163525,3946.9539,N,08404.9833,W,2,11,0.80,306.85,M,-33.324,M,,*7A
2017-12-01 11:35:24 1512146124.696500: $GPRMC,163525,A,3946.9539,N,08404.9833,W,0.0000,0.000,011217,,*3A
2017-12-01 11:35:24 1512146124.696560: $GPGSA,A,3,5,13,15,18,20,21,24,27,29,10,138,,2.0,0.8,1.5*34
2017-12-01 11:35:25 1512146125.249595: $GPZDA,163526.00,01,12,2017,00,00*65
2017-12-01 11:35:25 1512146125.249763: $GPGGA,163526,3946.9539,N,08404.9833,W,2,11,0.80,306.85,M,-33.324,M,,*79
2017-12-01 11:35:25 1512146125.249830: $GPRMC,163526,A,3946.9539,N,08404.9833,W,0.0000,0.000,011217,,*39
2017-12-01 11:35:25 1512146125.249890: $GPGSA,A,3,5,13,15,18,20,21,24,27,29,10,138,,2.0,0.8,1.5*34
2017-12-01 11:35:26 1512146126.249778: $GPZDA,163527.00,01,12,2017,00,00*64
2017-12-01 11:35:26 1512146126.249953: $GPGGA,163527,3946.9539,N,08404.9833,W,2,11,0.80,306.85,M,-33.324,M,,*78
2017-12-01 11:35:26 1512146126.250021: $GPRMC,163527,A,3946.9539,N,08404.9833,W,0.0000,0.000,011217,,*38
2017-12-01 11:35:26 1512146126.250081: $GPGSA,A,3,5,13,15,18,20,21,24,27,29,10,138,,2.0,0.8,1.5*34
2017-12-01 11:35:27 1512146127.583166: $GPGSV,3,1,11,05,16,075,39,13,46,052,47,15,78,087,48,18,41,282,46*7B
2017-12-01 11:35:27 1512146127.583350: $GPGSV,3,2,11,20,65,043,42,21,63,307,46,24,17,150,43,27,06,327,30*7D
2017-12-01 11:35:27 1512146127.583417: $GPGSV,3,3,11,29,28,196,45,10,10,270,28,138,38,213,46*7B
2017-12-01 11:35:27 1512146127.696807: $GPZDA,163528.00,01,12,2017,00,00*6B
2017-12-01 11:35:27 1512146127.696975: $GPGGA,163528,3946.9539,N,08404.9833,W,2,11,0.80,306.85,M,-33.324,M,,*77
2017-12-01 11:35:27 1512146127.697041: $GPRMC,163528,A,3946.9539,N,08404.9833,W,0.0000,0.000,011217,,*37
2017-12-01 11:35:27 1512146127.697101: $GPGSA,A,3,5,13,15,18,20,21,24,27,29,10,138,,2.0,0.8,1.5*34
2017-12-01 11:35:28 1512146128.248185: $GPZDA,163529.00,01,12,2017,00,00*6A
2017-12-01 11:35:28 1512146128.248354: $GPGGA,163529,3946.9539,N,08404.9833,W,2,11,0.80,306.85,M,-33.324,M,,*76
2017-12-01 11:35:28 1512146128.248420: $GPRMC,163529,A,3946.9539,N,08404.9833,W,0.0000,0.000,011217,,*36
2017-12-01 11:35:28 1512146128.248481: $GPGSA,A,3,5,13,15,18,20,21,24,27,29,10,138,,2.0,0.8,1.5*34
2017-12-01 11:35:29 1512146129.249249: $GPZDA,163530.00,01,12,2017,00,00*62
2017-12-01 11:35:29 1512146129.249425: $GPGGA,163530,3946.9539,N,08404.9833,W,2,11,0.80,306.85,M,-33.324,M,,*7E
2017-12-01 11:35:29 1512146129.249491: $GPRMC,163530,A,3946.9539,N,08404.9833,W,0.0000,0.000,011217,,*3E
2017-12-01 11:35:29 1512146129.249551: $GPGSA,A,3,5,13,15,18,20,21,24,27,29,10,138,,2.0,0.8,1.5*34
2017-12-01 11:35:30 1512146130.586280: $GPGSV,3,1,11,05,16,075,39,13,46,052,47,15,78,087,48,18,41,282,46*7B
2017-12-01 11:35:30 1512146130.586463: $GPGSV,3,2,11,20,65,043,42,21,63,307,46,24,17,150,42,27,06,327,33*7F
2017-12-01 11:35:30 1512146130.586528: $GPGSV,3,3,11,29,28,196,46,10,10,270,20,138,38,213,46*70
2017-12-01 11:35:30 1512146130.699985: $GPZDA,163531.00,01,12,2017,00,00*63
2017-12-01 11:35:30 1512146130.700152: $GPGGA,163531,3946.9539,N,08404.9833,W,2,11,0.80,306.85,M,-33.324,M,,*7F
2017-12-01 11:35:30 1512146130.700275: $GPRMC,163531,A,3946.9539,N,08404.9833,W,0.0000,0.000,011217,,*3F
2017-12-01 11:35:30 1512146130.700337: $GPGSA,A,3,5,13,15,18,20,21,24,27,29,10,138,,2.0,0.8,1.5*34
2017-12-01 11:35:31 1512146131.250007: $GPZDA,163532.00,01,12,2017,00,00*60
2017-12-01 11:35:31 1512146131.250188: $GPGGA,163532,3946.9539,N,08404.9833,W,2,11,0.80,306.85,M,-33.324,M,,*7C
2017-12-01 11:35:31 1512146131.250360: $GPRMC,163532,A,3946.9539,N,08404.9833,W,0.0000,0.000,011217,,*3C
2017-12-01 11:35:31 1512146131.250443: $GPGSA,A,3,5,13,15,18,20,21,24,27,29,10,138,,2.0,0.8,1.5*34
2017-12-01 11:35:32 1512146132.246194: $GPZDA,163533.00,01,12,2017,00,00*61
2017-12-01 11:35:32 1512146132.246405: $GPGGA,163533,3946.9539,N,08404.9833,W,2,11,0.80,306.85,M,-33.324,M,,*7D
2017-12-01 11:35:32 1512146132.246474: $GPRMC,163533,A,3946.9539,N,08404.9833,W,0.0000,0.000,011217,,*3D
2017-12-01 11:35:32 1512146132.246535: $GPGSA,A,3,5,13,15,18,20,21,24,27,29,10,138,,2.0,0.8,1.5*34
2017-12-01 11:35:33 1512146133.586084: $GPGSV,3,1,11,05,16,075,39,13,46,052,47,15,78,087,48,18,41,282,46*7B
2017-12-01 11:35:33 1512146133.586289: $GPGSV,3,2,11,20,65,043,42,21,63,307,45,24,17,150,42,27,06,327,35*7A
2017-12-01 11:35:33 1512146133.586383: $GPGSV,3,3,11,29,28,196,46,10,10,270,26,138,38,213,46*76
2017-12-01 11:35:33 1512146133.699468: $GPZDA,163534.00,01,12,2017,00,00*66
2017-12-01 11:35:33 1512146133.699641: $GPGGA,163534,3946.9539,N,08404.9833,W,2,11,0.80,306.85,M,-33.324,M,,*7A
2017-12-01 11:35:33 1512146133.699708: $GPRMC,163534,A,3946.9539,N,08404.9833,W,0.0000,0.000,011217,,*3A
2017-12-01 11:35:33 1512146133.699769: $GPGSA,A,3,5,13,15,18,20,21,24,27,29,10,138,,2.0,0.8,1.5*34
