2017-11-16 16:47:10 1510868830.590914: {"class":"VERSION","release":"3.17","rev":"3.17","proto_major":3,"proto_minor":12}
2017-11-16 16:47:10 1510868830.591375: {"class":"DEVICES","devices":[{"class":"DEVICE","path":"/dev/ttyUSB0","driver":"SiRF","subtype":"9\u0006GSD4e_4.1.2-P1_RPATCH.05-F-GPS-4R-1510281 11/03/2015 307","activated":"2017-11-16T21:47:10.578Z","flags":1,"native":1,"bps":4800,"parity":"N","stopbits":1,"cycle":1.00}]}
2017-11-16 16:47:10 1510868830.591495: {"class":"WATCH","enable":true,"json":false,"nmea":true,"raw":0,"scaled":false,"timing":false,"split24":false,"pps":false}
2017-11-16 16:47:11 1510868831.782147: $GPGSV,3,1,12,01,14,318,38,10,70,132,49,11,11,301,33,12,25,072,47*76
2017-11-16 16:47:11 1510868831.782314: $GPGSV,3,2,12,14,55,292,45,18,38,135,45,24,14,045,45,25,29,114,43*7E
2017-11-16 16:47:11 1510868831.782374: $GPGSV,3,3,12,31,34,211,46,32,68,328,51,22,02,310,33,138,38,213,45*4D
2017-11-16 16:47:11 1510868831.895733: $GPZDA,214710.00,16,11,2017,00,00*64
2017-11-16 16:47:11 1510868831.895888: $GPGGA,214710,3946.9580,N,08404.9815,W,2,12,0.80,307.02,M,-33.324,M,,*76
2017-11-16 16:47:11 1510868831.895948: $GPRMC,214710,A,3946.9580,N,08404.9815,W,0.0000,0.000,161117,,*3E
2017-11-16 16:47:11 1510868831.896004: $GPGSA,A,3,1,10,11,12,14,18,24,25,31,32,22,138,1.6,0.8,1.3*38
2017-11-16 16:47:12 1510868832.447719: $GPZDA,214711.00,16,11,2017,00,00*65
2017-11-16 16:47:12 1510868832.447888: $GPGGA,214711,3946.9580,N,08404.9815,W,2,12,0.80,307.02,M,-33.324,M,,*77
2017-11-16 16:47:12 1510868832.447951: $GPRMC,214711,A,3946.9580,N,08404.9815,W,0.0000,0.000,161117,,*3F
2017-11-16 16:47:12 1510868832.448008: $GPGSA,A,3,1,10,11,12,14,18,24,25,31,32,22,138,1.6,0.8,1.3*38
2017-11-16 16:47:13 1510868833.444747: $GPZDA,214712.00,16,11,2017,00,00*66
2017-11-16 16:47:13 1510868833.444909: $GPGGA,214712,3946.9580,N,08404.9815,W,2,12,0.80,307.02,M,-33.324,M,,*74
2017-11-16 16:47:13 1510868833.444970: $GPRMC,214712,A,3946.9580,N,08404.9815,W,0.0000,0.000,161117,,*3C
2017-11-16 16:47:13 1510868833.445075: $GPGSA,A,3,1,10,11,12,14,18,24,25,31,32,22,138,1.6,0.8,1.3*38
2017-11-16 16:47:14 1510868834.775578: $GPGSV,3,1,12,01,14,318,38,10,70,132,49,11,11,301,33,12,25,072,47*76
2017-11-16 16:47:14 1510868834.775750: $GPGSV,3,2,12,14,55,292,45,18,38,135,45,24,14,045,45,25,29,114,43*7E
2017-11-16 16:47:14 1510868834.775809: $GPGSV,3,3,12,31,34,211,46,32,68,328,51,22,02,310,32,138,38,213,45*4C
2017-11-16 16:47:14 1510868834.889159: $GPZDA,214713.00,16,11,2017,00,00*67
2017-11-16 16:47:14 1510868834.889310: $GPGGA,214713,3946.9580,N,08404.9815,W,2,12,0.80,307.02,M,-33.324,M,,*75
2017-11-16 16:47:14 1510868834.889370: $GPRMC,214713,A,3946.9580,N,08404.9815,W,0.0000,0.000,161117,,*3D
2017-11-16 16:47:14 1510868834.889425: $GPGSA,A,3,1,10,11,12,14,18,24,25,31,32,22,138,1.6,0.8,1.3*38
2017-11-16 16:47:15 1510868835.441289: $GPZDA,214714.00,16,11,2017,00,00*60
2017-11-16 16:47:15 1510868835.441447: $GPGGA,214714,3946.9580,N,08404.9815,W,2,12,0.80,307.02,M,-33.324,M,,*72
2017-11-16 16:47:15 1510868835.441509: $GPRMC,214714,A,3946.9580,N,08404.9815,W,0.0000,0.000,161117,,*3A
2017-11-16 16:47:15 1510868835.441565: $GPGSA,A,3,1,10,11,12,14,18,24,25,31,32,22,138,1.6,0.8,1.3*38
2017-11-16 16:47:16 1510868836.446694: $GPZDA,214715.00,16,11,2017,00,00*61
2017-11-16 16:47:16 1510868836.446859: $GPGGA,214715,3946.9580,N,08404.9815,W,2,12,0.80,307.02,M,-33.324,M,,*73
2017-11-16 16:47:16 1510868836.446920: $GPRMC,214715,A,3946.9580,N,08404.9815,W,0.0000,0.000,161117,,*3B
2017-11-16 16:47:16 1510868836.446975: $GPGSA,A,3,1,10,11,12,14,18,24,25,31,32,22,138,1.6,0.8,1.3*38
2017-11-16 16:47:17 1510868837.781047: $GPGSV,3,1,12,01,14,318,37,10,70,132,49,11,11,301,33,12,25,072,47*79
2017-11-16 16:47:17 1510868837.781216: $GPGSV,3,2,12,14,55,292,45,18,38,135,45,24,14,045,45,25,29,114,42*7F
2017-11-16 16:47:17 1510868837.781276: $GPGSV,3,3,12,31,34,211,46,32,68,328,51,22,02,310,32,138,38,213,44*4D
2017-11-16 16:47:17 1510868837.894266: $GPZDA,214716.00,16,11,2017,00,00*62
2017-11-16 16:47:17 1510868837.894418: $GPGGA,214716,3946.9580,N,08404.9815,W,2,12,0.80,307.02,M,-33.324,M,,*70
2017-11-16 16:47:17 1510868837.894532: $GPRMC,214716,A,3946.9580,N,08404.9815,W,0.0000,0.000,161117,,*38
2017-11-16 16:47:17 1510868837.894590: $GPGSA,A,3,1,10,11,12,14,18,24,25,31,32,22,138,1.6,0.8,1.3*38
2017-11-16 16:47:18 1510868838.446415: $GPZDA,214717.00,16,11,2017,00,00*63
2017-11-16 16:47:18 1510868838.446584: $GPGGA,214717,3946.9580,N,08404.9815,W,2,12,0.80,307.02,M,-33.324,M,,*71
2017-11-16 16:47:18 1510868838.446647: $GPRMC,214717,A,3946.9580,N,08404.9815,W,0.0000,0.000,161117,,*39
2017-11-16 16:47:18 1510868838.446703: $GPGSA,A,3,1,10,11,12,14,18,24,25,31,32,22,138,1.6,0.8,1.3*38
2017-11-16 16:47:19 1510868839.446224: $GPZDA,214718.00,16,11,2017,00,00*6C
2017-11-16 16:47:19 1510868839.446387: $GPGGA,214718,3946.9580,N,08404.9815,W,2,12,0.80,307.02,M,-33.324,M,,*7E
2017-11-16 16:47:19 1510868839.446447: $GPRMC,214718,A,3946.9580,N,08404.9815,W,0.0000,0.000,161117,,*36
2017-11-16 16:47:19 1510868839.446502: $GPGSA,A,3,1,10,11,12,14,18,24,25,31,32,22,138,1.6,0.8,1.3*38
