2017-11-15 19:01:43 1510790503.462290: {"class":"VERSION","release":"3.17","rev":"3.17","proto_major":3,"proto_minor":12}
2017-11-15 19:01:43 1510790503.462805: {"class":"DEVICES","devices":[{"class":"DEVICE","path":"/dev/ttyUSB0","driver":"SiRF","subtype":"9\u0006GSD4e_4.1.2-P1_RPATCH.05-F-GPS-4R-1510281 11/03/2015 307","activated":"2017-11-16T00:01:43.445Z","flags":1,"native":1,"bps":4800,"parity":"N","stopbits":1,"cycle":1.00}]}
2017-11-15 19:01:43 1510790503.462917: {"class":"WATCH","enable":true,"json":false,"nmea":true,"raw":0,"scaled":false,"timing":false,"split24":false,"pps":false}
2017-11-15 19:01:44 1510790504.328181: $GPZDA,000143.00,16,11,2017,00,00*63
2017-11-15 19:01:44 1510790504.328360: $GPGGA,000143,3946.9543,N,08404.9559,W,1,07,4.40,308.92,M,-33.324,M,,*72
2017-11-15 19:01:44 1510790504.328420: $GPRMC,000143,A,3946.9543,N,08404.9559,W,0.4315,34.066,161117,,*07
2017-11-15 19:01:44 1510790504.328476: $GPGSA,A,3,32,14,3,31,22,25,29,,,,,,3.4,4.4,2.9*07
2017-11-15 19:01:45 1510790505.665073: $GPGSV,3,1,11,32,46,096,18,14,63,072,23,03,31,309,18,26,39,175,14*70
2017-11-15 19:01:45 1510790505.665247: $GPGSV,3,2,11,31,77,352,16,01,12,262,00,22,47,289,21,25,27,046,11*7E
2017-11-15 19:01:45 1510790505.665307: $GPGSV,3,3,11,29,06,082,12,16,10,190,00,10,09,159,00*46
2017-11-15 19:01:45 1510790505.778394: $GPZDA,000144.00,16,11,2017,00,00*64
2017-11-15 19:01:45 1510790505.778565: $GPGGA,000144,3946.9543,N,08404.9559,W,1,07,4.40,308.92,M,-33.324,M,,*75
2017-11-15 19:01:45 1510790505.778626: $GPRMC,000144,A,3946.9543,N,08404.9559,W,0.5774,27.515,161117,,*01
2017-11-15 19:01:45 1510790505.778681: $GPGSA,A,3,32,14,3,31,22,25,29,,,,,,3.4,4.4,2.9*07
2017-11-15 19:01:46 1510790506.404336: $GPZDA,000145.00,16,11,2017,00,00*65
2017-11-15 19:01:46 1510790506.404494: $GPGGA,000145,3946.9543,N,08404.9559,W,1,07,4.40,308.92,M,-33.324,M,,*74
2017-11-15 19:01:46 1510790506.404565: $GPRMC,000145,A,3946.9543,N,08404.9559,W,1.0018,50.691,161117,,*06
2017-11-15 19:01:46 1510790506.404624: $GPGSA,A,3,32,14,3,31,22,25,29,,,,,,3.4,4.4,2.9*07
2017-11-15 19:01:47 1510790507.329746: $GPZDA,000146.00,16,11,2017,00,00*66
2017-11-15 19:01:47 1510790507.329906: $GPGGA,000146,3946.9543,N,08404.9552,W,1,07,1.20,309.00,M,-33.324,M,,*75
2017-11-15 19:01:47 1510790507.329967: $GPRMC,000146,A,3946.9543,N,08404.9552,W,0.8054,68.645,161117,,*0D
2017-11-15 19:01:47 1510790507.330027: $GPGSA,A,3,32,14,3,31,22,25,29,,,,,,3.4,1.2,2.9*04
2017-11-15 19:01:48 1510790508.665521: $GPGSV,3,1,11,32,46,096,19,14,63,072,23,03,31,309,18,26,39,175,13*76
2017-11-15 19:01:48 1510790508.665691: $GPGSV,3,2,11,31,77,352,18,01,12,262,00,22,47,289,21,25,27,046,10*71
2017-11-15 19:01:48 1510790508.665751: $GPGSV,3,3,11,29,06,082,10,16,10,190,00,10,09,159,00*44
2017-11-15 19:01:48 1510790508.779008: $GPZDA,000147.00,16,11,2017,00,00*67
2017-11-15 19:01:48 1510790508.779189: $GPGGA,000147,3946.9543,N,08404.9552,W,1,08,1.20,309.00,M,-33.324,M,,*7B
2017-11-15 19:01:48 1510790508.779252: $GPRMC,000147,A,3946.9543,N,08404.9552,W,1.4167,47.342,161117,,*0F
2017-11-15 19:01:48 1510790508.779311: $GPGSA,A,3,32,14,3,26,31,22,25,29,,,,,3.4,1.2,2.9*00
2017-11-15 19:01:49 1510790509.331117: $GPZDA,000148.00,16,11,2017,00,00*68
2017-11-15 19:01:49 1510790509.331292: $GPGGA,000148,3946.9543,N,08404.9552,W,1,08,1.20,309.00,M,-33.324,M,,*74
2017-11-15 19:01:49 1510790509.331357: $GPRMC,000148,A,3946.9543,N,08404.9552,W,0.8953,59.978,161117,,*0E
2017-11-15 19:01:49 1510790509.331415: $GPGSA,A,3,32,14,3,26,31,22,25,29,,,,,3.4,1.2,2.9*00
2017-11-15 19:01:50 1510790510.331144: $GPZDA,000149.00,16,11,2017,00,00*69
2017-11-15 19:01:50 1510790510.331322: $GPGGA,000149,3946.9546,N,08404.9544,W,1,08,1.20,308.32,M,-33.324,M,,*77
2017-11-15 19:01:50 1510790510.331385: $GPRMC,000149,A,3946.9546,N,08404.9544,W,0.5230,76.444,161117,,*01
2017-11-15 19:01:50 1510790510.331440: $GPGSA,A,3,32,14,3,26,31,22,25,29,,,,,3.4,1.2,2.9*00
2017-11-15 19:01:51 1510790511.665801: $GPGSV,3,1,11,32,46,096,19,14,63,072,23,03,31,309,19,26,39,175,13*77
2017-11-15 19:01:51 1510790511.665985: $GPGSV,3,2,11,31,77,352,19,16,10,190,04,22,47,289,22,25,27,046,09*75
2017-11-15 19:01:51 1510790511.666097: $GPGSV,3,3,11,29,06,082,10,01,12,262,00,10,09,159,00*4E
2017-11-15 19:01:51 1510790511.779142: $GPZDA,000150.00,16,11,2017,00,00*61
2017-11-15 19:01:51 1510790511.779302: $GPGGA,000150,3946.9546,N,08404.9544,W,1,08,1.20,308.32,M,-33.324,M,,*7F
2017-11-15 19:01:51 1510790511.779362: $GPRMC,000150,A,3946.9546,N,08404.9544,W,0.5230,76.444,161117,,*09
2017-11-15 19:01:51 1510790511.779418: $GPGSA,A,3,32,14,3,26,31,22,25,29,,,,,3.4,1.2,2.9*00
2017-11-15 19:01:52 1510790512.333749: $GPZDA,000151.00,16,11,2017,00,00*60
2017-11-15 19:01:52 1510790512.333929: $GPGGA,000151,3946.9546,N,08404.9544,W,1,08,1.20,308.32,M,-33.324,M,,*7E
2017-11-15 19:01:52 1510790512.333991: $GPRMC,000151,A,3946.9546,N,08404.9544,W,0.8953,59.978,161117,,*04
2017-11-15 19:01:52 1510790512.334048: $GPGSA,A,3,32,14,3,26,31,22,25,29,,,,,3.4,1.2,2.9*00
2017-11-15 19:01:53 1510790513.331288: $GPZDA,000152.00,16,11,2017,00,00*63
2017-11-15 19:01:53 1510790513.331499: $GPGGA,000152,3946.9546,N,08404.9537,W,1,08,1.20,308.40,M,-33.324,M,,*7C
2017-11-15 19:01:53 1510790513.331563: $GPRMC,000152,A,3946.9546,N,08404.9537,W,0.8054,68.645,161117,,*0E
2017-11-15 19:01:53 1510790513.331619: $GPGSA,A,3,32,14,3,26,31,22,25,29,,,,,3.4,1.2,2.9*00
