2018-01-11 20:10:38 1515719438.165695: {"class":"VERSION","release":"3.16","rev":"3.16-4","proto_major":3,"proto_minor":11}
2018-01-11 20:10:38 1515719438.166050: {"class":"DEVICES","devices":[{"class":"DEVICE","path":"/dev/ttyUSB0","driver":"SiRF","subtype":"9\u0006GSD4e_4.1.2-P1_RPATCH.05-F-GPS-4R-1510281 11/03/2015 307","activated":"2018-01-12T01:10:37.685Z","flags":1,"native":1,"bps":4800,"parity":"N","stopbits":1,"cycle":1.00}]}
2018-01-11 20:10:38 1515719438.166167: {"class":"WATCH","enable":true,"json":false,"nmea":true,"raw":0,"scaled":false,"timing":false,"split24":false,"pps":false}
2018-01-11 20:10:38 1515719438.369823: $GPZDA,011039.00,12,01,2018,00,00*65
2018-01-11 20:10:38 1515719438.369989: $GPGGA,011039,3946.9574,N,08404.9833,W,2,10,0.80,300.53,M,-33.324,M,,*73
2018-01-11 20:10:38 1515719438.370054: $GPRMC,011039,A,3946.9574,N,08404.9833,W,0.0000,0.000,120118,,*30
2018-01-11 20:10:38 1515719438.370115: $GPGSA,A,3,7,8,9,11,16,23,27,28,30,138,,,4.0,0.8,3.5*3E
2018-01-11 20:10:39 1515719439.706485: $GPGSV,3,1,10,07,55,315,44,08,73,133,46,09,48,229,42,11,20,168,48*7E
2018-01-11 20:10:39 1515719439.706652: $GPGSV,3,2,10,16,23,060,45,23,29,190,46,27,48,054,50,28,14,258,38*7E
2018-01-11 20:10:39 1515719439.706719: $GPGSV,3,3,10,30,29,306,33,138,38,213,45*45
2018-01-11 20:10:39 1515719439.820200: $GPZDA,011040.00,12,01,2018,00,00*6B
2018-01-11 20:10:39 1515719439.820328: $GPGGA,011040,3946.9574,N,08404.9833,W,2,10,0.80,300.53,M,-33.324,M,,*7D
2018-01-11 20:10:39 1515719439.820391: $GPRMC,011040,A,3946.9574,N,08404.9833,W,0.0000,0.000,120118,,*3E
2018-01-11 20:10:39 1515719439.820451: $GPGSA,A,3,7,8,9,11,16,23,27,28,30,138,,,4.0,0.8,3.5*3E
2018-01-11 20:10:40 1515719440.371044: $GPZDA,011041.00,12,01,2018,00,00*6A
2018-01-11 20:10:40 1515719440.371200: $GPGGA,011041,3946.9574,N,08404.9833,W,2,10,0.80,300.53,M,-33.324,M,,*7C
2018-01-11 20:10:40 1515719440.371266: $GPRMC,011041,A,3946.9574,N,08404.9833,W,0.0000,0.000,120118,,*3F
2018-01-11 20:10:40 1515719440.371326: $GPGSA,A,3,7,8,9,11,16,23,27,28,30,138,,,4.0,0.8,3.5*3E
2018-01-11 20:10:41 1515719441.353302: $GPZDA,011042.00,12,01,2018,00,00*69
2018-01-11 20:10:41 1515719441.353452: $GPGGA,011042,3946.9574,N,08404.9833,W,2,10,0.80,300.53,M,-33.324,M,,*7F
2018-01-11 20:10:41 1515719441.353516: $GPRMC,011042,A,3946.9574,N,08404.9833,W,0.0000,0.000,120118,,*3C
2018-01-11 20:10:41 1515719441.353577: $GPGSA,A,3,7,8,9,11,16,23,27,28,30,138,,,4.0,0.8,3.5*3E
2018-01-11 20:10:42 1515719442.689865: $GPGSV,3,1,10,07,55,315,44,08,73,133,46,09,48,229,43,11,20,168,48*7F
2018-01-11 20:10:42 1515719442.690022: $GPGSV,3,2,10,16,23,060,46,23,29,190,46,27,48,054,50,28,14,258,38*7D
2018-01-11 20:10:42 1515719442.690087: $GPGSV,3,3,10,30,29,306,34,138,38,213,45*42
2018-01-11 20:10:42 1515719442.803621: $GPZDA,011043.00,12,01,2018,00,00*68
2018-01-11 20:10:42 1515719442.803744: $GPGGA,011043,3946.9574,N,08404.9833,W,2,10,0.80,300.53,M,-33.324,M,,*7E
2018-01-11 20:10:42 1515719442.803807: $GPRMC,011043,A,3946.9574,N,08404.9833,W,0.0000,0.000,120118,,*3D
2018-01-11 20:10:42 1515719442.803866: $GPGSA,A,3,7,8,9,11,16,23,27,28,30,138,,,4.0,0.8,3.5*3E
2018-01-11 20:10:43 1515719443.429009: $GPZDA,011044.00,12,01,2018,00,00*6F
2018-01-11 20:10:43 1515719443.429222: $GPGGA,011044,3946.9574,N,08404.9833,W,2,10,0.80,300.53,M,-33.324,M,,*79
2018-01-11 20:10:43 1515719443.429287: $GPRMC,011044,A,3946.9574,N,08404.9833,W,0.0000,0.000,120118,,*3A
2018-01-11 20:10:43 1515719443.429348: $GPGSA,A,3,7,8,9,11,16,23,27,28,30,138,,,4.0,0.8,3.5*3E
2018-01-11 20:10:44 1515719444.352289: $GPZDA,011045.00,12,01,2018,00,00*6E
2018-01-11 20:10:44 1515719444.352453: $GPGGA,011045,3946.9574,N,08404.9833,W,2,10,0.80,300.53,M,-33.324,M,,*78
2018-01-11 20:10:44 1515719444.352518: $GPRMC,011045,A,3946.9574,N,08404.9833,W,0.0000,0.000,120118,,*3B
2018-01-11 20:10:44 1515719444.352578: $GPGSA,A,3,7,8,9,11,16,23,27,28,30,138,,,4.0,0.8,3.5*3E
2018-01-11 20:10:45 1515719445.705267: $GPGSV,3,1,10,07,55,315,44,08,73,133,46,09,48,229,43,11,20,168,48*7F
2018-01-11 20:10:45 1515719445.705434: $GPGSV,3,2,10,16,23,060,46,23,29,190,45,27,48,054,50,28,14,258,38*7E
2018-01-11 20:10:45 1515719445.705550: $GPGSV,3,3,10,30,29,306,34,138,38,213,45*42
2018-01-11 20:10:45 1515719445.818585: $GPZDA,011046.00,12,01,2018,00,00*6D
2018-01-11 20:10:45 1515719445.818712: $GPGGA,011046,3946.9574,N,08404.9833,W,2,10,0.80,300.53,M,-33.324,M,,*7B
2018-01-11 20:10:45 1515719445.818777: $GPRMC,011046,A,3946.9574,N,08404.9833,W,0.0000,0.000,120118,,*38
2018-01-11 20:10:45 1515719445.818838: $GPGSA,A,3,7,8,9,11,16,23,27,28,30,138,,,4.0,0.8,3.5*3E
2018-01-11 20:10:46 1515719446.369504: $GPZDA,011047.00,12,01,2018,00,00*6C
2018-01-11 20:10:46 1515719446.369686: $GPGGA,011047,3946.9574,N,08404.9833,W,2,10,0.80,300.53,M,-33.324,M,,*7A
2018-01-11 20:10:46 1515719446.369753: $GPRMC,011047,A,3946.9574,N,08404.9833,W,0.0000,0.000,120118,,*39
2018-01-11 20:10:46 1515719446.369814: $GPGSA,A,3,7,8,9,11,16,23,27,28,30,138,,,4.0,0.8,3.5*3E
2018-01-11 20:10:47 1515719447.354073: $GPZDA,011048.00,12,01,2018,00,00*63
2018-01-11 20:10:47 1515719447.354241: $GPGGA,011048,3946.9574,N,08404.9833,W,2,10,0.80,300.53,M,-33.324,M,,*75
2018-01-11 20:10:47 1515719447.354306: $GPRMC,011048,A,3946.9574,N,08404.9833,W,0.0000,0.000,120118,,*36
2018-01-11 20:10:47 1515719447.354367: $GPGSA,A,3,7,8,9,11,16,23,27,28,30,138,,,4.0,0.8,3.5*3E
2018-01-11 20:10:48 1515719448.706792: $GPGSV,3,1,10,07,55,315,44,08,73,133,46,09,48,229,43,11,20,168,48*7F
2018-01-11 20:10:48 1515719448.706946: $GPGSV,3,2,10,16,23,060,46,23,29,190,45,27,48,054,50,28,14,258,38*7E
2018-01-11 20:10:48 1515719448.707010: $GPGSV,3,3,10,30,29,306,34,138,38,213,45*42
2018-01-11 20:10:48 1515719448.820622: $GPZDA,011049.00,12,01,2018,00,00*62
2018-01-11 20:10:48 1515719448.820747: $GPGGA,011049,3946.9574,N,08404.9833,W,2,10,0.80,300.53,M,-33.324,M,,*74
2018-01-11 20:10:48 1515719448.820811: $GPRMC,011049,A,3946.9574,N,08404.9833,W,0.0000,0.000,120118,,*37
2018-01-11 20:10:48 1515719448.820871: $GPGSA,A,3,7,8,9,11,16,23,27,28,30,138,,,4.0,0.8,3.5*3E
