2017-11-16 15:30:16 1510864216.722341: {"class":"VERSION","release":"3.17","rev":"3.17","proto_major":3,"proto_minor":12}
2017-11-16 15:30:16 1510864216.722820: {"class":"DEVICES","devices":[{"class":"DEVICE","path":"/dev/ttyUSB0","driver":"SiRF","subtype":"9\u0006GSD4e_4.1.2-P1_RPATCH.05-F-GPS-4R-1510281 11/03/2015 307","activated":"2017-11-16T20:30:16.697Z","flags":1,"native":1,"bps":4800,"parity":"N","stopbits":1,"cycle":1.00}]}
2017-11-16 15:30:16 1510864216.722943: {"class":"WATCH","enable":true,"json":false,"nmea":true,"raw":0,"scaled":false,"timing":false,"split24":false,"pps":false}
2017-11-16 15:30:16 1510864216.810658: $GPZDA,203015.00,16,11,2017,00,00*60
2017-11-16 15:30:16 1510864216.810805: $GPGGA,203015,3946.9568,N,08404.9860,W,2,12,0.80,309.61,M,-33.324,M,,*7D
2017-11-16 15:30:16 1510864216.810864: $GPRMC,203015,A,3946.9568,N,08404.9860,W,0.0000,0.000,161117,,*3E
2017-11-16 15:30:16 1510864216.810919: $GPGSA,A,3,8,10,14,20,18,15,21,24,27,32,12,138,1.6,0.8,1.3*34
2017-11-16 15:30:17 1510864217.367805: $GPZDA,203016.00,16,11,2017,00,00*63
2017-11-16 15:30:17 1510864217.367960: $GPGGA,203016,3946.9568,N,08404.9860,W,2,12,0.80,309.61,M,-33.324,M,,*7E
2017-11-16 15:30:17 1510864217.368022: $GPRMC,203016,A,3946.9568,N,08404.9860,W,0.0000,0.000,161117,,*3D
2017-11-16 15:30:17 1510864217.368078: $GPGSA,A,3,8,10,14,20,18,15,21,24,27,32,12,138,1.6,0.8,1.3*34
2017-11-16 15:30:18 1510864218.366130: $GPZDA,203017.00,16,11,2017,00,00*62
2017-11-16 15:30:18 1510864218.366284: $GPGGA,203017,3946.9568,N,08404.9860,W,2,12,0.80,309.61,M,-33.324,M,,*7F
2017-11-16 15:30:18 1510864218.366347: $GPRMC,203017,A,3946.9568,N,08404.9860,W,0.0000,0.000,161117,,*3C
2017-11-16 15:30:18 1510864218.366406: $GPGSA,A,3,8,10,14,20,18,15,21,24,27,32,12,138,1.6,0.8,1.3*34
2017-11-16 15:30:19 1510864219.704395: $GPGSV,3,1,12,08,05,292,37,10,70,333,50,14,30,255,45,20,07,118,21*73
2017-11-16 15:30:19 1510864219.704545: $GPGSV,3,2,12,18,70,097,47,15,10,067,30,21,28,180,42,24,44,057,50*78
2017-11-16 15:30:19 1510864219.704608: $GPGSV,3,3,12,27,05,258,21,32,47,267,47,12,10,106,34,138,38,213,45*46
2017-11-16 15:30:19 1510864219.817677: $GPZDA,203018.00,16,11,2017,00,00*6D
2017-11-16 15:30:19 1510864219.817849: $GPGGA,203018,3946.9568,N,08404.9860,W,2,12,0.80,309.61,M,-33.324,M,,*70
2017-11-16 15:30:19 1510864219.817929: $GPRMC,203018,A,3946.9568,N,08404.9860,W,0.0000,0.000,161117,,*33
2017-11-16 15:30:19 1510864219.817989: $GPGSA,A,3,8,10,14,20,18,15,21,24,27,32,12,138,1.6,0.8,1.3*34
2017-11-16 15:30:20 1510864220.368617: $GPZDA,203019.00,16,11,2017,00,00*6C
2017-11-16 15:30:20 1510864220.368801: $GPGGA,203019,3946.9568,N,08404.9860,W,2,12,0.80,309.61,M,-33.324,M,,*71
2017-11-16 15:30:20 1510864220.368865: $GPRMC,203019,A,3946.9568,N,08404.9860,W,0.0000,0.000,161117,,*32
2017-11-16 15:30:20 1510864220.368925: $GPGSA,A,3,8,10,14,20,18,15,21,24,27,32,12,138,1.6,0.8,1.3*34
2017-11-16 15:30:21 1510864221.361476: $GPZDA,203020.00,16,11,2017,00,00*66
2017-11-16 15:30:21 1510864221.361647: $GPGGA,203020,3946.9568,N,08404.9860,W,2,12,0.80,309.61,M,-33.324,M,,*7B
2017-11-16 15:30:21 1510864221.361714: $GPRMC,203020,A,3946.9568,N,08404.9860,W,0.0000,0.000,161117,,*38
2017-11-16 15:30:21 1510864221.361774: $GPGSA,A,3,8,10,14,20,18,15,21,24,27,32,12,138,1.6,0.8,1.3*34
2017-11-16 15:30:22 1510864222.701025: $GPGSV,3,1,12,08,05,292,37,10,70,333,51,14,30,255,45,20,07,118,22*71
2017-11-16 15:30:22 1510864222.701200: $GPGSV,3,2,12,18,70,097,47,15,10,067,30,21,28,180,42,24,44,057,50*78
2017-11-16 15:30:22 1510864222.701262: $GPGSV,3,3,12,27,05,258,13,32,47,267,46,12,10,106,34,138,38,213,44*47
2017-11-16 15:30:22 1510864222.814301: $GPZDA,203021.00,16,11,2017,00,00*67
2017-11-16 15:30:22 1510864222.814465: $GPGGA,203021,3946.9568,N,08404.9860,W,2,12,0.80,309.61,M,-33.324,M,,*7A
2017-11-16 15:30:22 1510864222.814528: $GPRMC,203021,A,3946.9568,N,08404.9860,W,0.0000,0.000,161117,,*39
2017-11-16 15:30:22 1510864222.814607: $GPGSA,A,3,8,10,14,20,18,15,21,24,27,32,12,138,1.6,0.8,1.3*34
2017-11-16 15:30:23 1510864223.366611: $GPZDA,203022.00,16,11,2017,00,00*64
2017-11-16 15:30:23 1510864223.366841: $GPGGA,203022,3946.9568,N,08404.9860,W,2,12,0.80,309.61,M,-33.324,M,,*79
2017-11-16 15:30:23 1510864223.366905: $GPRMC,203022,A,3946.9568,N,08404.9860,W,0.0000,0.000,161117,,*3A
2017-11-16 15:30:23 1510864223.366961: $GPGSA,A,3,8,10,14,20,18,15,21,24,27,32,12,138,1.6,0.8,1.3*34
2017-11-16 15:30:24 1510864224.366000: $GPZDA,203023.00,16,11,2017,00,00*65
2017-11-16 15:30:24 1510864224.366164: $GPGGA,203023,3946.9568,N,08404.9860,W,2,12,0.80,309.61,M,-33.324,M,,*78
2017-11-16 15:30:24 1510864224.366226: $GPRMC,203023,A,3946.9568,N,08404.9860,W,0.0000,0.000,161117,,*3B
2017-11-16 15:30:24 1510864224.366282: $GPGSA,A,3,8,10,14,20,18,15,21,24,27,32,12,138,1.6,0.8,1.3*34
2017-11-16 15:30:25 1510864225.704268: $GPGSV,3,1,12,08,05,292,36,10,70,333,50,14,30,255,45,20,07,118,22*71
2017-11-16 15:30:25 1510864225.704440: $GPGSV,3,2,12,18,70,097,47,15,10,067,30,21,28,180,42,24,44,057,50*78
2017-11-16 15:30:25 1510864225.704499: $GPGSV,3,3,12,27,05,258,16,32,47,267,46,12,10,106,33,138,38,213,44*45
2017-11-16 15:30:25 1510864225.817568: $GPZDA,203024.00,16,11,2017,00,00*62
2017-11-16 15:30:25 1510864225.817748: $GPGGA,203024,3946.9568,N,08404.9860,W,2,12,0.80,309.61,M,-33.324,M,,*7F
2017-11-16 15:30:25 1510864225.817809: $GPRMC,203024,A,3946.9568,N,08404.9860,W,0.0000,0.000,161117,,*3C
2017-11-16 15:30:25 1510864225.817865: $GPGSA,A,3,8,10,14,20,18,15,21,24,27,32,12,138,1.6,0.8,1.3*34
2017-11-16 15:30:26 1510864226.443247: $GPZDA,203025.00,16,11,2017,00,00*63
2017-11-16 15:30:26 1510864226.443559: $GPGGA,203025,3946.9568,N,08404.9860,W,2,12,0.80,309.61,M,-33.324,M,,*7E
2017-11-16 15:30:26 1510864226.443683: $GPRMC,203025,A,3946.9568,N,08404.9860,W,0.0000,0.000,161117,,*3D
2017-11-16 15:30:26 1510864226.443797: $GPGSA,A,3,8,10,14,20,18,15,21,24,27,32,12,138,1.6,0.8,1.3*34
