2017-12-31 19:00:58 1514764858.059254: {"class":"VERSION","release":"3.16","rev":"3.16-4","proto_major":3,"proto_minor":11}
2017-12-31 19:00:58 1514764858.059716: {"class":"DEVICES","devices":[{"class":"DEVICE","path":"/dev/ttyUSB0","driver":"SiRF","activated":"2018-01-01T00:00:57.944Z","flags":1,"native":1,"bps":4800,"parity":"N","stopbits":1,"cycle":1.00}]}
2017-12-31 19:00:58 1514764858.059819: {"class":"WATCH","enable":true,"json":false,"nmea":true,"raw":0,"scaled":false,"timing":false,"split24":false,"pps":false}
2017-12-31 19:00:58 1514764858.354331: $GPZDA,000059.00,01,01,2018,00,00*61
2017-12-31 19:00:58 1514764858.354518: $GPGGA,000059,3946.9574,N,08404.9824,W,2,11,0.80,309.88,M,-33.324,M,,*7D
2017-12-31 19:00:58 1514764858.354585: $GPRMC,000059,A,3946.9574,N,08404.9824,W,0.0000,0.000,010118,,*32
2017-12-31 19:00:58 1514764858.354646: $GPGSA,A,3,22,23,9,3,16,8,31,27,7,26,135,,1.7,0.8,1.3*09
2017-12-31 19:00:59 1514764859.352705: $GPZDA,000100.00,01,01,2018,00,00*6C
2017-12-31 19:00:59 1514764859.352877: $GPGGA,000100,3946.9574,N,08404.9824,W,2,11,0.80,309.88,M,-33.324,M,,*70
2017-12-31 19:00:59 1514764859.352944: $GPRMC,000100,A,3946.9574,N,08404.9824,W,0.0000,0.000,010118,,*3F
2017-12-31 19:00:59 1514764859.353004: $GPGSA,A,3,22,23,9,3,16,8,31,27,7,26,135,,1.7,0.8,1.3*09
2017-12-31 19:01:00 1514764860.681643: $GPGSV,3,1,11,22,04,201,23,23,70,267,38,09,40,307,31,03,14,217,32*7B
2017-12-31 19:01:00 1514764860.681817: $GPGSV,3,2,11,16,72,036,45,08,21,174,43,31,13,091,29,27,44,139,39*77
2017-12-31 19:01:00 1514764860.681883: $GPGSV,3,3,11,07,13,288,40,26,40,048,46,135,22,240,43*72
2017-12-31 19:01:00 1514764860.795031: $GPZDA,000101.00,01,01,2018,00,00*6D
2017-12-31 19:01:00 1514764860.795184: $GPGGA,000101,3946.9574,N,08404.9824,W,2,11,0.80,309.88,M,-33.324,M,,*71
2017-12-31 19:01:00 1514764860.795250: $GPRMC,000101,A,3946.9574,N,08404.9824,W,0.0000,0.000,010118,,*3E
2017-12-31 19:01:00 1514764860.795330: $GPGSA,A,3,22,23,9,3,16,8,31,27,7,26,135,,1.7,0.8,1.3*09
2017-12-31 19:01:01 1514764861.347198: $GPZDA,000102.00,01,01,2018,00,00*6E
2017-12-31 19:01:01 1514764861.347383: $GPGGA,000102,3946.9574,N,08404.9824,W,2,11,0.80,309.88,M,-33.324,M,,*72
2017-12-31 19:01:01 1514764861.347466: $GPRMC,000102,A,3946.9574,N,08404.9824,W,0.0000,0.000,010118,,*3D
2017-12-31 19:01:01 1514764861.347529: $GPGSA,A,3,22,23,9,3,16,8,31,27,7,26,135,,1.7,0.8,1.3*09
2017-12-31 19:01:02 1514764862.346793: $GPZDA,000103.00,01,01,2018,00,00*6F
2017-12-31 19:01:02 1514764862.346944: $GPGGA,000103,3946.9574,N,08404.9824,W,2,11,0.80,309.88,M,-33.324,M,,*73
2017-12-31 19:01:02 1514764862.347009: $GPRMC,000103,A,3946.9574,N,08404.9824,W,0.0000,0.000,010118,,*3C
2017-12-31 19:01:02 1514764862.347069: $GPGSA,A,3,22,23,9,3,16,8,31,27,7,26,135,,1.7,0.8,1.3*09
2017-12-31 19:01:03 1514764863.690041: $GPGSV,3,1,11,22,04,201,23,23,70,267,38,09,40,307,28,03,14,217,32*73
2017-12-31 19:01:03 1514764863.690232: $GPGSV,3,2,11,16,72,036,45,08,21,174,43,31,13,091,29,27,44,139,39*77
2017-12-31 19:01:03 1514764863.690305: $GPGSV,3,3,11,07,13,288,32,26,40,048,46,135,22,240,44*70
2017-12-31 19:01:03 1514764863.802161: $GPZDA,000104.00,01,01,2018,00,00*68
2017-12-31 19:01:03 1514764863.802317: $GPGGA,000104,3946.9574,N,08404.9824,W,2,11,0.80,309.88,M,-33.324,M,,*74
2017-12-31 19:01:03 1514764863.802385: $GPRMC,000104,A,3946.9574,N,08404.9824,W,0.0000,0.000,010118,,*3B
2017-12-31 19:01:03 1514764863.802448: $GPGSA,A,3,22,23,9,3,16,8,31,27,7,26,135,,1.7,0.8,1.3*09
2017-12-31 19:01:04 1514764864.354199: $GPZDA,000105.00,01,01,2018,00,00*69
2017-12-31 19:01:04 1514764864.354394: $GPGGA,000105,3946.9574,N,08404.9824,W,2,11,0.80,309.88,M,-33.324,M,,*75
2017-12-31 19:01:04 1514764864.354463: $GPRMC,000105,A,3946.9574,N,08404.9824,W,0.0000,0.000,010118,,*3A
2017-12-31 19:01:04 1514764864.354525: $GPGSA,A,3,22,23,9,3,16,8,31,27,7,26,135,,1.7,0.8,1.3*09
2017-12-31 19:01:05 1514764865.353309: $GPZDA,000106.00,01,01,2018,00,00*6A
2017-12-31 19:01:05 1514764865.959682: $GPGGA,000106,3946.9574,N,08404.9824,W,2,11,0.80,309.88,M,-33.324,M,,*76
2017-12-31 19:01:05 1514764865.959912: $GPRMC,000106,A,3946.9574,N,08404.9824,W,0.0000,0.000,010118,,*39
2017-12-31 19:01:05 1514764865.959988: $GPGSA,A,3,22,23,9,3,16,8,31,27,7,26,135,,1.7,0.8,1.3*09
2017-12-31 19:01:06 1514764866.689115: $GPGSV,3,1,11,22,04,201,23,23,70,267,36,09,40,307,31,03,14,217,32*75
2017-12-31 19:01:06 1514764866.689293: $GPGSV,3,2,11,16,72,036,45,08,21,174,43,31,13,091,28,27,44,139,40*78
2017-12-31 19:01:06 1514764866.689364: $GPGSV,3,3,11,07,13,288,34,26,40,048,46,135,22,240,45*77
2017-12-31 19:01:06 1514764866.802487: $GPZDA,000107.00,01,01,2018,00,00*6B
2017-12-31 19:01:06 1514764866.802643: $GPGGA,000107,3946.9574,N,08404.9824,W,2,11,0.80,309.88,M,-33.324,M,,*77
2017-12-31 19:01:06 1514764866.802710: $GPRMC,000107,A,3946.9574,N,08404.9824,W,0.0000,0.000,010118,,*38
2017-12-31 19:01:06 1514764866.802772: $GPGSA,A,3,22,23,9,3,16,8,31,27,7,26,135,,1.7,0.8,1.3*09
2017-12-31 19:01:07 1514764867.347046: $GPZDA,000108.00,01,01,2018,00,00*64
2017-12-31 19:01:07 1514764867.347275: $GPGGA,000108,3946.9574,N,08404.9824,W,2,11,0.80,309.88,M,-33.324,M,,*78
2017-12-31 19:01:07 1514764867.347344: $GPRMC,000108,A,3946.9574,N,08404.9824,W,0.0000,0.000,010118,,*37
2017-12-31 19:01:07 1514764867.347409: $GPGSA,A,3,22,23,9,3,16,8,31,27,7,26,135,,1.7,0.8,1.3*09
