2017-11-16 17:04:21 1510869861.320829: {"class":"VERSION","release":"3.17","rev":"3.17","proto_major":3,"proto_minor":12}
2017-11-16 17:04:21 1510869861.321386: {"class":"DEVICES","devices":[{"class":"DEVICE","path":"/dev/ttyUSB0","driver":"SiRF","subtype":"9\u0006GSD4e_4.1.2-P1_RPATCH.05-F-GPS-4R-1510281 11/03/2015 307","activated":"2017-11-16T22:04:21.284Z","flags":1,"native":1,"bps":4800,"parity":"N","stopbits":1,"cycle":1.00}]}
2017-11-16 17:04:21 1510869861.321521: {"class":"WATCH","enable":true,"json":false,"nmea":true,"raw":0,"scaled":false,"timing":false,"split24":false,"pps":false}
2017-11-16 17:04:21 1510869861.734084: $GPGSV,3,1,12,01,18,312,41,10,61,139,48,11,11,294,25,12,25,063,50*78
2017-11-16 17:04:21 1510869861.734430: $GPGSV,3,2,12,14,60,304,46,18,30,139,43,25,35,106,45,31,42,216,49*70
2017-11-16 17:04:21 1510869861.734563: $GPGSV,3,3,12,32,70,351,50,22,09,312,35,24,07,046,30,138,38,213,44*40
2017-11-16 17:04:21 1510869861.847268: $GPZDA,220420.00,16,11,2017,00,00*63
2017-11-16 17:04:21 1510869861.847418: $GPGGA,220420,3946.9590,N,08404.9817,W,2,12,0.80,312.52,M,-33.324,M,,*73
2017-11-16 17:04:21 1510869861.847498: $GPRMC,220420,A,3946.9590,N,08404.9817,W,0.0000,0.000,161117,,*3A
2017-11-16 17:04:21 1510869861.847556: $GPGSA,A,3,1,10,11,12,14,18,25,31,32,22,24,138,1.6,0.8,1.3*38
2017-11-16 17:04:22 1510869862.398525: $GPZDA,220421.00,16,11,2017,00,00*62
2017-11-16 17:04:22 1510869862.398691: $GPGGA,220421,3946.9590,N,08404.9817,W,2,12,0.80,312.52,M,-33.324,M,,*72
2017-11-16 17:04:22 1510869862.398752: $GPRMC,220421,A,3946.9590,N,08404.9817,W,0.0000,0.000,161117,,*3B
2017-11-16 17:04:22 1510869862.398808: $GPGSA,A,3,1,10,11,12,14,18,25,31,32,22,24,138,1.6,0.8,1.3*38
2017-11-16 17:04:23 1510869863.396512: $GPZDA,220422.00,16,11,2017,00,00*61
2017-11-16 17:04:23 1510869863.396688: $GPGGA,220422,3946.9590,N,08404.9817,W,2,12,0.80,312.52,M,-33.324,M,,*71
2017-11-16 17:04:23 1510869863.396750: $GPRMC,220422,A,3946.9590,N,08404.9817,W,0.0000,0.000,161117,,*38
2017-11-16 17:04:23 1510869863.396806: $GPGSA,A,3,1,10,11,12,14,18,25,31,32,22,24,138,1.6,0.8,1.3*38
2017-11-16 17:04:24 1510869864.733579: $GPGSV,3,1,12,01,18,312,40,10,61,139,49,11,11,294,29,12,25,063,50*74
2017-11-16 17:04:24 1510869864.733750: $GPGSV,3,2,12,14,60,304,46,18,30,139,43,25,35,106,46,31,42,216,49*73
2017-11-16 17:04:24 1510869864.733810: $GPGSV,3,3,12,32,70,351,50,22,09,312,36,24,07,046,30,138,38,213,45*42
2017-11-16 17:04:24 1510869864.846853: $GPZDA,220423.00,16,11,2017,00,00*60
2017-11-16 17:04:24 1510869864.847014: $GPGGA,220423,3946.9590,N,08404.9817,W,2,12,0.80,312.52,M,-33.324,M,,*70
2017-11-16 17:04:24 1510869864.847075: $GPRMC,220423,A,3946.9590,N,08404.9817,W,0.0000,0.000,161117,,*39
2017-11-16 17:04:24 1510869864.847131: $GPGSA,A,3,1,10,11,12,14,18,25,31,32,22,24,138,1.6,0.8,1.3*38
2017-11-16 17:04:25 1510869865.913883: $GPZDA,220424.00,16,11,2017,00,00*67
2017-11-16 17:04:25 1510869865.914057: $GPGGA,220424,3946.9590,N,08404.9817,W,2,12,0.80,312.52,M,-33.324,M,,*77
2017-11-16 17:04:25 1510869865.914118: $GPRMC,220424,A,3946.9590,N,08404.9817,W,0.0000,0.000,161117,,*3E
2017-11-16 17:04:25 1510869865.914174: $GPGSA,A,3,1,10,11,12,14,18,25,31,32,22,24,138,1.6,0.8,1.3*38
2017-11-16 17:04:26 1510869866.538221: $GPRMC,220425,V,3946.9590,N,08404.9817,W,0.0000,0.000,161117,,*28
2017-11-16 17:04:26 1510869866.538521: $GPGSA,A,1,1,10,11,12,14,18,25,31,32,22,24,138,,,,*35
2017-11-16 17:04:27 1510869867.735889: $GPGSV,3,1,12,01,18,312,13,10,61,141,14,11,11,294,09,12,25,063,16*75
2017-11-16 17:04:27 1510869867.736180: $GPGSV,3,2,12,14,60,304,14,18,30,139,14,22,09,312,11,24,07,046,10*75
2017-11-16 17:04:27 1510869867.736297: $GPGSV,3,3,12,25,35,105,13,31,43,216,14,32,70,351,39,138,38,213,00*42
2017-11-16 17:04:27 1510869867.849294: $GPZDA,220426.00,16,11,2017,00,00*65
2017-11-16 17:04:27 1510869867.849510: $GPGGA,220426,3946.9590,N,08404.9817,W,2,10,1.00,312.52,M,-33.324,M,,*7E
2017-11-16 17:04:27 1510869867.849574: $GPRMC,220426,A,3946.9590,N,08404.9817,W,0.1867,180.000,161117,,*3D
2017-11-16 17:04:27 1510869867.849631: $GPGSA,A,3,1,10,11,12,14,18,22,25,31,32,,,1.6,1.0,1.3*0D
2017-11-16 17:04:27 1510869867.849738: $GPGBS,220426,2.07,M,2.72,M,7.42,M*3D
2017-11-16 17:04:28 1510869868.390115: $GPZDA,220427.07,16,11,2017,00,00*63
2017-11-16 17:04:28 1510869868.390294: $GPGGA,220427,3946.9587,N,08404.9818,W,2,10,0.80,313.28,M,-33.324,M,,*73
2017-11-16 17:04:28 1510869868.390381: $GPRMC,220427,A,3946.9587,N,08404.9818,W,0.0000,0.000,161117,,*34
2017-11-16 17:04:28 1510869868.390439: $GPGSA,A,3,1,10,11,12,14,18,22,25,31,32,,,1.6,0.8,1.3*04
2017-11-16 17:04:28 1510869868.390513: $GPGBS,220427,2.07,M,2.72,M,7.42,M*3C
2017-11-16 17:04:29 1510869869.392121: $GPZDA,220428.00,16,11,2017,00,00*6B
2017-11-16 17:04:29 1510869869.392286: $GPGGA,220428,3946.9590,N,08404.9810,W,2,10,0.80,312.60,M,-33.324,M,,*7F
2017-11-16 17:04:29 1510869869.392368: $GPRMC,220428,A,3946.9590,N,08404.9810,W,0.2422,93.794,161117,,*03
2017-11-16 17:04:29 1510869869.392425: $GPGSA,A,3,1,10,11,12,14,18,22,25,31,32,,,1.6,0.8,1.3*04
2017-11-16 17:04:29 1510869869.392495: $GPGBS,220428,2.07,M,2.72,M,7.42,M*33
2017-11-16 17:04:30 1510869870.727989: $GPGSV,3,1,12,01,18,312,34,10,61,141,48,11,11,294,32,12,25,063,48*7A
2017-11-16 17:04:30 1510869870.728142: $GPGSV,3,2,12,14,60,304,45,18,30,139,41,22,09,312,37,24,07,046,27*71
2017-11-16 17:04:30 1510869870.728203: $GPGSV,3,3,12,25,35,105,45,31,43,216,48,32,70,351,49,138,38,213,45*4E
2017-11-16 17:04:30 1510869870.841364: $GPZDA,220429.00,16,11,2017,00,00*6A
2017-11-16 17:04:30 1510869870.841562: $GPGGA,220429,3946.9582,N,08404.9817,W,2,12,0.80,311.24,M,-33.324,M,,*7B
2017-11-16 17:04:30 1510869870.841625: $GPRMC,220429,A,3946.9582,N,08404.9817,W,0.1867,180.000,161117,,*31
2017-11-16 17:04:30 1510869870.841682: $GPGSA,A,3,1,10,11,12,14,18,22,24,25,31,32,138,1.6,0.8,1.3*38
