2017-12-29 15:04:43 1514577883.573464: {"class":"VERSION","release":"3.16","rev":"3.16-4","proto_major":3,"proto_minor":11}
2017-12-29 15:04:43 1514577883.573849: {"class":"DEVICES","devices":[{"class":"DEVICE","path":"/dev/ttyUSB0","driver":"SiRF","subtype":"9\u0006GSD4e_4.1.2-P1_RPATCH.05-F-GPS-4R-1510281 11/03/2015 307","activated":"2017-12-29T20:04:43.213Z","flags":1,"native":1,"bps":4800,"parity":"N","stopbits":1,"cycle":1.00}]}
2017-12-29 15:04:43 1514577883.573986: {"class":"WATCH","enable":true,"json":false,"nmea":true,"raw":0,"scaled":false,"timing":false,"split24":false,"pps":false}
2017-12-29 15:04:43 1514577883.663325: $GPGSV,3,1,11,01,22,288,37,03,12,316,39,10,34,153,49,18,05,147,18*79
2017-12-29 15:04:43 1514577883.663505: $GPGSV,3,2,11,12,15,039,42,22,30,309,42,25,40,073,49,31,71,243,48*7B
2017-12-29 15:04:43 1514577883.663571: $GPGSV,3,3,11,32,62,060,50,26,15,180,27,138,38,213,42*74
2017-12-29 15:04:43 1514577883.776681: $GPZDA,200444.00,29,12,2017,00,00*6C
2017-12-29 15:04:43 1514577883.776846: $GPGGA,200444,3946.9570,N,08404.9836,W,2,11,0.80,292.02,M,-33.324,M,,*71
2017-12-29 15:04:43 1514577883.776934: $GPRMC,200444,A,3946.9570,N,08404.9836,W,0.0000,0.000,291217,,*38
2017-12-29 15:04:43 1514577883.776996: $GPGSA,A,3,1,3,10,18,12,22,25,31,32,26,138,,1.7,0.8,1.3*0D
2017-12-29 15:04:44 1514577884.402124: $GPZDA,200445.00,29,12,2017,00,00*6D
2017-12-29 15:04:44 1514577884.402293: $GPGGA,200445,3946.9570,N,08404.9836,W,2,11,0.80,292.02,M,-33.324,M,,*70
2017-12-29 15:04:44 1514577884.402363: $GPRMC,200445,A,3946.9570,N,08404.9836,W,0.0000,0.000,291217,,*39
2017-12-29 15:04:44 1514577884.402440: $GPGSA,A,3,1,3,10,18,12,22,25,31,32,26,138,,1.7,0.8,1.3*0D
2017-12-29 15:04:45 1514577885.325696: $GPZDA,200446.00,29,12,2017,00,00*6E
2017-12-29 15:04:45 1514577885.325895: $GPGGA,200446,3946.9570,N,08404.9836,W,2,11,0.80,292.02,M,-33.324,M,,*73
2017-12-29 15:04:45 1514577885.325963: $GPRMC,200446,A,3946.9570,N,08404.9836,W,0.0000,0.000,291217,,*3A
2017-12-29 15:04:45 1514577885.326024: $GPGSA,A,3,1,3,10,18,12,22,25,31,32,26,138,,1.7,0.8,1.3*0D
2017-12-29 15:04:46 1514577886.662407: $GPGSV,3,1,11,01,22,288,37,03,12,316,40,10,34,153,49,18,05,147,18*77
2017-12-29 15:04:46 1514577886.662583: $GPGSV,3,2,11,12,15,039,42,22,30,309,41,25,40,073,49,31,71,243,48*78
2017-12-29 15:04:46 1514577886.662649: $GPGSV,3,3,11,32,62,060,50,26,15,180,27,138,38,213,43*75
2017-12-29 15:04:46 1514577886.776021: $GPZDA,200447.00,29,12,2017,00,00*6F
2017-12-29 15:04:46 1514577886.776153: $GPGGA,200447,3946.9570,N,08404.9836,W,2,11,0.80,292.02,M,-33.324,M,,*72
2017-12-29 15:04:46 1514577886.776218: $GPRMC,200447,A,3946.9570,N,08404.9836,W,0.0000,0.000,291217,,*3B
2017-12-29 15:04:46 1514577886.776279: $GPGSA,A,3,1,3,10,18,12,22,25,31,32,26,138,,1.7,0.8,1.3*0D
2017-12-29 15:04:47 1514577887.326882: $GPZDA,200448.00,29,12,2017,00,00*60
2017-12-29 15:04:47 1514577887.327023: $GPGGA,200448,3946.9570,N,08404.9836,W,2,11,0.80,292.02,M,-33.324,M,,*7D
2017-12-29 15:04:47 1514577887.327089: $GPRMC,200448,A,3946.9570,N,08404.9836,W,0.0000,0.000,291217,,*34
2017-12-29 15:04:47 1514577887.327149: $GPGSA,A,3,1,3,10,18,12,22,25,31,32,26,138,,1.7,0.8,1.3*0D
2017-12-29 15:04:48 1514577888.325181: $GPZDA,200449.00,29,12,2017,00,00*61
2017-12-29 15:04:48 1514577888.325335: $GPGGA,200449,3946.9570,N,08404.9836,W,2,11,0.80,292.02,M,-33.324,M,,*7C
2017-12-29 15:04:48 1514577888.325402: $GPRMC,200449,A,3946.9570,N,08404.9836,W,0.0000,0.000,291217,,*35
2017-12-29 15:04:48 1514577888.325463: $GPGSA,A,3,1,3,10,18,12,22,25,31,32,26,138,,1.7,0.8,1.3*0D
2017-12-29 15:04:48 1514577888.325521: $GPGBS,200449,2.73,M,2.59,M,7.72,M*3F
2017-12-29 15:04:49 1514577889.662636: $GPGSV,3,1,11,01,22,288,36,03,12,316,39,10,34,153,49,18,05,147,20*73
2017-12-29 15:04:49 1514577889.662848: $GPGSV,3,2,11,12,15,039,42,22,30,309,41,25,40,073,49,31,71,243,48*78
2017-12-29 15:04:49 1514577889.662916: $GPGSV,3,3,11,32,62,060,50,26,15,180,27,138,38,213,42*74
2017-12-29 15:04:49 1514577889.776241: $GPZDA,200450.00,29,12,2017,00,00*69
2017-12-29 15:04:49 1514577889.776369: $GPGGA,200450,3946.9567,N,08404.9836,W,2,11,0.80,292.79,M,-33.324,M,,*7E
2017-12-29 15:04:49 1514577889.776490: $GPRMC,200450,A,3946.9567,N,08404.9836,W,0.0000,0.000,291217,,*3B
2017-12-29 15:04:49 1514577889.776553: $GPGSA,A,3,1,3,10,18,12,22,25,31,32,26,138,,1.7,0.8,1.3*0D
2017-12-29 15:04:50 1514577890.327131: $GPZDA,200451.00,29,12,2017,00,00*68
2017-12-29 15:04:50 1514577890.327304: $GPGGA,200451,3946.9567,N,08404.9836,W,2,11,0.80,292.79,M,-33.324,M,,*7F
2017-12-29 15:04:50 1514577890.327371: $GPRMC,200451,A,3946.9567,N,08404.9836,W,0.0000,0.000,291217,,*3A
2017-12-29 15:04:50 1514577890.327432: $GPGSA,A,3,1,3,10,18,12,22,25,31,32,26,138,,1.7,0.8,1.3*0D
2017-12-29 15:04:51 1514577891.326831: $GPZDA,200452.00,29,12,2017,00,00*6B
2017-12-29 15:04:51 1514577891.326997: $GPGGA,200452,3946.9567,N,08404.9836,W,2,11,0.80,292.79,M,-33.324,M,,*7C
2017-12-29 15:04:51 1514577891.327064: $GPRMC,200452,A,3946.9567,N,08404.9836,W,0.0000,0.000,291217,,*39
2017-12-29 15:04:51 1514577891.327125: $GPGSA,A,3,1,3,10,18,12,22,25,31,32,26,138,,1.7,0.8,1.3*0D
2017-12-29 15:04:52 1514577892.660976: $GPGSV,3,1,11,01,22,288,37,03,12,316,40,10,34,153,49,18,05,147,20*7C
2017-12-29 15:04:52 1514577892.661242: $GPGSV,3,2,11,12,15,039,43,22,30,309,41,25,40,073,49,31,71,243,47*76
2017-12-29 15:04:52 1514577892.661310: $GPGSV,3,3,11,32,62,060,50,26,15,180,27,138,38,213,44*72
2017-12-29 15:04:52 1514577892.774591: $GPZDA,200453.00,29,12,2017,00,00*6A
2017-12-29 15:04:52 1514577892.774748: $GPGGA,200453,3946.9567,N,08404.9836,W,2,11,0.80,292.79,M,-33.324,M,,*7D
2017-12-29 15:04:52 1514577892.774831: $GPRMC,200453,A,3946.9567,N,08404.9836,W,0.0000,0.000,291217,,*38
2017-12-29 15:04:52 1514577892.774893: $GPGSA,A,3,1,3,10,18,12,22,25,31,32,26,138,,1.7,0.8,1.3*0D
2017-12-29 15:04:53 1514577893.325497: $GPZDA,200454.00,29,12,2017,00,00*6D
2017-12-29 15:04:53 1514577893.325682: $GPGGA,200454,3946.9567,N,08404.9836,W,2,11,0.80,292.79,M,-33.324,M,,*7A
2017-12-29 15:04:53 1514577893.325751: $GPRMC,200454,A,3946.9567,N,08404.9836,W,0.0000,0.000,291217,,*3F
2017-12-29 15:04:53 1514577893.325829: $GPGSA,A,3,1,3,10,18,12,22,25,31,32,26,138,,1.7,0.8,1.3*0D
