2017-12-01 14:42:41 1512157361.756778: {"class":"VERSION","release":"3.16","rev":"3.16-4","proto_major":3,"proto_minor":11}
2017-12-01 14:42:41 1512157361.757210: {"class":"DEVICES","devices":[{"class":"DEVICE","path":"/dev/ttyUSB0","driver":"SiRF","subtype":"9\u0006GSD4e_4.1.2-P1_RPATCH.05-F-GPS-4R-1510281 11/03/2015 307","activated":"2017-12-01T19:42:41.517Z","flags":1,"native":1,"bps":4800,"parity":"N","stopbits":1,"cycle":1.00}]}
2017-12-01 14:42:41 1512157361.757331: {"class":"WATCH","enable":true,"json":false,"nmea":true,"raw":0,"scaled":false,"timing":false,"split24":false,"pps":false}
2017-12-01 14:42:42 1512157362.755159: $GPGSV,3,1,12,08,03,286,28,10,77,346,46,12,14,100,37,14,35,261,44*72
2017-12-01 14:42:42 1512157362.755375: $GPGSV,3,2,12,18,64,109,46,21,20,177,46,24,38,052,47,32,52,276,44*74
2017-12-01 14:42:42 1512157362.755454: $GPGSV,3,3,12,15,05,070,21,25,09,136,21,31,07,204,35,138,38,213,47*41
2017-12-01 14:42:42 1512157362.868728: $GPZDA,194243.00,01,12,2017,00,00*69
2017-12-01 14:42:42 1512157362.868900: $GPGGA,194243,3946.9589,N,08404.9847,W,2,12,1.00,289.45,M,-33.324,M,,*7D
2017-12-01 14:42:42 1512157362.868968: $GPRMC,194243,A,3946.9589,N,08404.9847,W,0.0000,0.000,011217,,*3D
2017-12-01 14:42:42 1512157362.869028: $GPGSA,A,3,8,10,12,14,18,21,24,32,15,25,31,138,2.0,1.0,1.5*3C
2017-12-01 14:42:43 1512157363.493948: $GPZDA,194244.00,01,12,2017,00,00*6E
2017-12-01 14:42:43 1512157363.494123: $GPGGA,194244,3946.9593,N,08404.9847,W,2,12,1.00,290.09,M,-33.324,M,,*71
2017-12-01 14:42:43 1512157363.494190: $GPRMC,194244,A,3946.9593,N,08404.9847,W,0.0000,0.000,011217,,*31
2017-12-01 14:42:43 1512157363.494251: $GPGSA,A,3,8,10,12,14,18,21,24,32,15,25,31,138,2.0,1.0,1.5*3C
2017-12-01 14:42:44 1512157364.409707: $GPZDA,194245.00,01,12,2017,00,00*6F
2017-12-01 14:42:44 1512157364.409862: $GPGGA,194245,3946.9593,N,08404.9847,W,2,12,1.00,290.09,M,-33.324,M,,*70
2017-12-01 14:42:44 1512157364.409928: $GPRMC,194245,A,3946.9593,N,08404.9847,W,0.0000,0.000,011217,,*30
2017-12-01 14:42:44 1512157364.409990: $GPGSA,A,3,8,10,12,14,18,21,24,32,15,25,31,138,2.0,1.0,1.5*3C
2017-12-01 14:42:45 1512157365.712903: $GPGSV,3,1,12,08,03,286,28,10,77,346,46,12,14,100,37,14,35,261,44*72
2017-12-01 14:42:45 1512157365.713079: $GPGSV,3,2,12,18,64,109,46,21,20,177,46,24,38,052,47,32,52,276,44*74
2017-12-01 14:42:45 1512157365.713146: $GPGSV,3,3,12,15,05,070,20,25,09,136,21,31,07,204,36,138,38,213,47*43
2017-12-01 14:42:45 1512157365.826306: $GPZDA,194246.00,01,12,2017,00,00*6C
2017-12-01 14:42:45 1512157365.826491: $GPGGA,194246,3946.9593,N,08404.9847,W,2,12,1.00,290.09,M,-33.324,M,,*73
2017-12-01 14:42:45 1512157365.826559: $GPRMC,194246,A,3946.9593,N,08404.9847,W,0.0000,0.000,011217,,*33
2017-12-01 14:42:45 1512157365.826621: $GPGSA,A,3,8,10,12,14,18,21,24,32,15,25,31,138,2.0,1.0,1.5*3C
2017-12-01 14:42:46 1512157366.377187: $GPZDA,194247.00,01,12,2017,00,00*6D
2017-12-01 14:42:46 1512157366.377367: $GPGGA,194247,3946.9593,N,08404.9847,W,2,12,1.00,290.09,M,-33.324,M,,*72
2017-12-01 14:42:46 1512157366.377436: $GPRMC,194247,A,3946.9593,N,08404.9847,W,0.0000,0.000,011217,,*32
2017-12-01 14:42:46 1512157366.377497: $GPGSA,A,3,8,10,12,14,18,21,24,32,15,25,31,138,2.0,1.0,1.5*3C
2017-12-01 14:42:47 1512157367.418060: $GPZDA,194248.00,01,12,2017,00,00*62
2017-12-01 14:42:47 1512157367.418236: $GPGGA,194248,3946.9593,N,08404.9847,W,2,12,1.00,290.09,M,-33.324,M,,*7D
2017-12-01 14:42:47 1512157367.418304: $GPRMC,194248,A,3946.9593,N,08404.9847,W,0.0000,0.000,011217,,*3D
2017-12-01 14:42:47 1512157367.418365: $GPGSA,A,3,8,10,12,14,18,21,24,32,15,25,31,138,2.0,1.0,1.5*3C
2017-12-01 14:42:48 1512157368.752027: $GPGSV,3,1,12,08,03,286,18,10,77,346,46,12,14,100,37,14,35,261,44*71
2017-12-01 14:42:48 1512157368.752207: $GPGSV,3,2,12,18,64,109,46,21,20,177,46,24,38,052,48,32,52,276,44*7B
2017-12-01 14:42:48 1512157368.752274: $GPGSV,3,3,12,15,05,070,20,25,09,136,20,31,07,204,35,138,38,213,47*41
2017-12-01 14:42:48 1512157368.864203: $GPZDA,194249.00,01,12,2017,00,00*63
2017-12-01 14:42:48 1512157368.864381: $GPGGA,194249,3946.9593,N,08404.9847,W,2,12,1.00,290.09,M,-33.324,M,,*7C
2017-12-01 14:42:48 1512157368.864506: $GPRMC,194249,A,3946.9593,N,08404.9847,W,0.0000,0.000,011217,,*3C
2017-12-01 14:42:48 1512157368.864570: $GPGSA,A,3,8,10,12,14,18,21,24,32,15,25,31,138,2.0,1.0,1.5*3C
2017-12-01 14:42:49 1512157369.377801: $GPZDA,194250.00,01,12,2017,00,00*6B
2017-12-01 14:42:49 1512157369.377972: $GPGGA,194250,3946.9593,N,08404.9847,W,2,12,1.00,290.09,M,-33.324,M,,*74
2017-12-01 14:42:49 1512157369.378039: $GPRMC,194250,A,3946.9593,N,08404.9847,W,0.0000,0.000,011217,,*34
2017-12-01 14:42:49 1512157369.378100: $GPGSA,A,3,8,10,12,14,18,21,24,32,15,25,31,138,2.0,1.0,1.5*3C
2017-12-01 14:42:50 1512157370.408696: $GPZDA,194251.00,01,12,2017,00,00*6A
2017-12-01 14:42:50 1512157370.408867: $GPGGA,194251,3946.9589,N,08404.9847,W,2,12,1.00,290.85,M,-33.324,M,,*7A
2017-12-01 14:42:50 1512157370.408932: $GPRMC,194251,A,3946.9589,N,08404.9847,W,0.0000,0.000,011217,,*3E
2017-12-01 14:42:50 1512157370.408993: $GPGSA,A,3,8,10,12,14,18,21,24,32,15,25,31,138,2.0,1.0,1.5*3C
2017-12-01 14:42:51 1512157371.722937: $GPGSV,3,1,12,08,03,286,22,10,77,346,46,12,14,100,37,14,35,261,44*78
2017-12-01 14:42:51 1512157371.723114: $GPGSV,3,2,12,18,64,109,46,21,20,177,46,24,38,052,48,32,52,276,44*7B
2017-12-01 14:42:51 1512157371.723180: $GPGSV,3,3,12,15,05,070,19,25,09,136,21,31,07,204,36,138,38,213,47*49
2017-12-01 14:42:51 1512157371.836313: $GPZDA,194252.00,01,12,2017,00,00*69
2017-12-01 14:42:51 1512157371.836498: $GPGGA,194252,3946.9589,N,08404.9847,W,2,12,1.00,290.85,M,-33.324,M,,*79
2017-12-01 14:42:51 1512157371.836566: $GPRMC,194252,A,3946.9589,N,08404.9847,W,0.0000,0.000,011217,,*3D
2017-12-01 14:42:51 1512157371.836626: $GPGSA,A,3,8,10,12,14,18,21,24,32,15,25,31,138,2.0,1.0,1.5*3C
2017-12-01 14:42:52 1512157372.383840: $GPZDA,194253.00,01,12,2017,00,00*68
2017-12-01 14:42:52 1512157372.384023: $GPGGA,194253,3946.9589,N,08404.9847,W,2,12,1.00,290.85,M,-33.324,M,,*78
2017-12-01 14:42:52 1512157372.384091: $GPRMC,194253,A,3946.9589,N,08404.9847,W,0.0000,0.000,011217,,*3C
2017-12-01 14:42:52 1512157372.384152: $GPGSA,A,3,8,10,12,14,18,21,24,32,15,25,31,138,2.0,1.0,1.5*3C
2017-12-01 14:42:53 1512157373.417880: $GPZDA,194254.00,01,12,2017,00,00*6F
2017-12-01 14:42:53 1512157373.418048: $GPGGA,194254,3946.9589,N,08404.9847,W,2,12,1.00,290.85,M,-33.324,M,,*7F
2017-12-01 14:42:53 1512157373.418114: $GPRMC,194254,A,3946.9589,N,08404.9847,W,0.0000,0.000,011217,,*3B
2017-12-01 14:42:53 1512157373.418175: $GPGSA,A,3,8,10,12,14,18,21,24,32,15,25,31,138,2.0,1.0,1.5*3C
2017-12-01 14:42:54 1512157374.710838: $GPGSV,3,1,12,08,03,286,23,10,77,346,47,12,14,100,38,14,35,261,44*77
2017-12-01 14:42:54 1512157374.711017: $GPGSV,3,2,12,18,64,109,46,21,20,177,46,24,38,052,47,32,52,276,45*75
2017-12-01 14:42:54 1512157374.711083: $GPGSV,3,3,12,15,05,070,19,25,09,136,22,31,07,204,36,138,38,213,46*4B
2017-12-01 14:42:54 1512157374.824705: $GPZDA,194255.00,01,12,2017,00,00*6E
2017-12-01 14:42:54 1512157374.824872: $GPGGA,194255,3946.9589,N,08404.9847,W,2,12,1.00,290.85,M,-33.324,M,,*7E
2017-12-01 14:42:54 1512157374.824938: $GPRMC,194255,A,3946.9589,N,08404.9847,W,0.0000,0.000,011217,,*3A
2017-12-01 14:42:54 1512157374.824999: $GPGSA,A,3,8,10,12,14,18,21,24,32,15,25,31,138,2.0,1.0,1.5*3C
2017-12-01 14:42:55 1512157375.384277: $GPZDA,194256.00,01,12,2017,00,00*6D
2017-12-01 14:42:55 1512157375.384466: $GPGGA,194256,3946.9589,N,08404.9847,W,2,12,1.00,290.85,M,-33.324,M,,*7D
2017-12-01 14:42:55 1512157375.384533: $GPRMC,194256,A,3946.9589,N,08404.9847,W,0.0000,0.000,011217,,*39
2017-12-01 14:42:55 1512157375.384594: $GPGSA,A,3,8,10,12,14,18,21,24,32,15,25,31,138,2.0,1.0,1.5*3C
2017-12-01 14:42:56 1512157376.411255: $GPZDA,194257.00,01,12,2017,00,00*6C
2017-12-01 14:42:56 1512157376.411473: $GPGGA,194257,3946.9593,N,08404.9840,W,2,12,1.00,291.57,M,-33.324,M,,*7E
2017-12-01 14:42:56 1512157376.411543: $GPRMC,194257,A,3946.9593,N,08404.9840,W,0.0000,0.000,011217,,*34
2017-12-01 14:42:56 1512157376.411605: $GPGSA,A,3,8,10,12,14,18,21,24,32,15,25,31,138,2.0,1.0,1.5*3C
2017-12-01 14:42:57 1512157377.716723: $GPGSV,3,1,12,08,03,286,30,10,77,346,47,12,14,100,38,14,35,261,44*75
2017-12-01 14:42:57 1512157377.716932: $GPGSV,3,2,12,18,64,109,47,21,20,177,46,24,38,052,48,32,52,276,45*7B
2017-12-01 14:42:57 1512157377.717021: $GPGSV,3,3,12,15,05,070,19,25,09,136,22,31,07,204,36,138,38,213,47*4A
2017-12-01 14:42:57 1512157377.830369: $GPZDA,194258.00,01,12,2017,00,00*63
2017-12-01 14:42:57 1512157377.830539: $GPGGA,194258,3946.9593,N,08404.9840,W,2,12,1.00,291.57,M,-33.324,M,,*71
2017-12-01 14:42:57 1512157377.830607: $GPRMC,194258,A,3946.9593,N,08404.9840,W,0.0000,0.000,011217,,*3B
2017-12-01 14:42:57 1512157377.830667: $GPGSA,A,3,8,10,12,14,18,21,24,32,15,25,31,138,2.0,1.0,1.5*3C
2017-12-01 14:42:58 1512157378.455416: $GPZDA,194259.00,01,12,2017,00,00*62
2017-12-01 14:42:58 1512157378.455580: $GPGGA,194259,3946.9593,N,08404.9840,W,2,12,1.00,291.57,M,-33.324,M,,*70
2017-12-01 14:42:58 1512157378.455647: $GPRMC,194259,A,3946.9593,N,08404.9840,W,0.0000,0.000,011217,,*3A
2017-12-01 14:42:58 1512157378.455709: $GPGSA,A,3,8,10,12,14,18,21,24,32,15,25,31,138,2.0,1.0,1.5*3C
2017-12-01 14:42:59 1512157379.420010: $GPZDA,194300.00,01,12,2017,00,00*6F
2017-12-01 14:42:59 1512157379.420196: $GPGGA,194300,3946.9593,N,08404.9840,W,2,12,1.00,291.57,M,-33.324,M,,*7D
2017-12-01 14:42:59 1512157379.420263: $GPRMC,194300,A,3946.9593,N,08404.9840,W,0.0000,0.000,011217,,*37
2017-12-01 14:42:59 1512157379.420325: $GPGSA,A,3,8,10,12,14,18,21,24,32,15,25,31,138,2.0,1.0,1.5*3C
2017-12-01 14:43:00 1512157380.755773: $GPGSV,3,1,12,08,03,286,31,10,77,346,46,12,14,100,38,14,35,261,44*75
2017-12-01 14:43:00 1512157380.755970: $GPGSV,3,2,12,18,64,109,46,21,20,177,47,24,38,052,48,32,52,276,45*7B
2017-12-01 14:43:00 1512157380.756040: $GPGSV,3,3,12,15,05,070,19,25,09,136,22,31,07,204,36,138,38,213,47*4A
2017-12-01 14:43:00 1512157380.869151: $GPZDA,194301.00,01,12,2017,00,00*6E
2017-12-01 14:43:00 1512157380.869313: $GPGGA,194301,3946.9593,N,08404.9840,W,2,12,1.00,291.57,M,-33.324,M,,*7C
2017-12-01 14:43:00 1512157380.869384: $GPRMC,194301,A,3946.9593,N,08404.9840,W,0.0000,0.000,011217,,*36
2017-12-01 14:43:00 1512157380.869449: $GPGSA,A,3,8,10,12,14,18,21,24,32,15,25,31,138,2.0,1.0,1.5*3C
2017-12-01 14:43:01 1512157381.382692: $GPZDA,194302.00,01,12,2017,00,00*6D
2017-12-01 14:43:01 1512157381.382867: $GPGGA,194302,3946.9593,N,08404.9840,W,2,12,1.00,291.57,M,-33.324,M,,*7F
2017-12-01 14:43:01 1512157381.382937: $GPRMC,194302,A,3946.9593,N,08404.9840,W,0.0000,0.000,011217,,*35
2017-12-01 14:43:01 1512157381.383001: $GPGSA,A,3,8,10,12,14,18,21,24,32,15,25,31,138,2.0,1.0,1.5*3C
2017-12-01 14:43:02 1512157382.382298: $GPZDA,194303.00,01,12,2017,00,00*6C
2017-12-01 14:43:02 1512157382.382473: $GPGGA,194303,3946.9593,N,08404.9840,W,2,12,1.00,291.57,M,-33.324,M,,*7E
2017-12-01 14:43:02 1512157382.382543: $GPRMC,194303,A,3946.9593,N,08404.9840,W,0.0000,0.000,011217,,*34
2017-12-01 14:43:02 1512157382.382607: $GPGSA,A,3,8,10,12,14,18,21,24,32,15,25,31,138,2.0,1.0,1.5*3C
2017-12-01 14:43:03 1512157383.718662: $GPGSV,3,1,12,08,03,286,31,10,77,346,46,12,14,100,38,14,35,261,44*75
2017-12-01 14:43:03 1512157383.718820: $GPGSV,3,2,12,18,64,109,47,21,20,177,47,24,38,052,48,32,52,276,44*7B
2017-12-01 14:43:03 1512157383.718888: $GPGSV,3,3,12,15,05,070,20,25,09,136,22,31,07,204,35,138,38,213,47*43
2017-12-01 14:43:03 1512157383.832808: $GPZDA,194304.00,01,12,2017,00,00*6B
2017-12-01 14:43:03 1512157383.832967: $GPGGA,194304,3946.9593,N,08404.9840,W,2,12,1.00,291.57,M,-33.324,M,,*79
2017-12-01 14:43:03 1512157383.833035: $GPRMC,194304,A,3946.9593,N,08404.9840,W,0.0000,0.000,011217,,*33
2017-12-01 14:43:03 1512157383.833099: $GPGSA,A,3,8,10,12,14,18,21,24,32,15,25,31,138,2.0,1.0,1.5*3C
2017-12-01 14:43:04 1512157384.382822: $GPZDA,194305.00,01,12,2017,00,00*6A
2017-12-01 14:43:04 1512157384.382995: $GPGGA,194305,3946.9590,N,08404.9841,W,2,12,1.00,292.34,M,-33.324,M,,*7C
2017-12-01 14:43:04 1512157384.383064: $GPRMC,194305,A,3946.9590,N,08404.9841,W,0.0000,0.000,011217,,*30
2017-12-01 14:43:04 1512157384.383127: $GPGSA,A,3,8,10,12,14,18,21,24,32,15,25,31,138,2.0,1.0,1.5*3C
2017-12-01 14:43:05 1512157385.381468: $GPZDA,194306.00,01,12,2017,00,00*69
2017-12-01 14:43:05 1512157385.381650: $GPGGA,194306,3946.9590,N,08404.9841,W,2,12,1.00,292.34,M,-33.324,M,,*7F
2017-12-01 14:43:05 1512157385.381718: $GPRMC,194306,A,3946.9590,N,08404.9841,W,0.0000,0.000,011217,,*33
2017-12-01 14:43:05 1512157385.381779: $GPGSA,A,3,8,10,12,14,18,21,24,32,15,25,31,138,2.0,1.0,1.5*3C
2017-12-01 14:43:06 1512157386.717146: $GPGSV,3,1,12,08,03,286,31,10,77,346,46,12,14,100,38,14,35,261,44*75
2017-12-01 14:43:06 1512157386.717328: $GPGSV,3,2,12,18,64,109,47,21,20,177,47,24,38,052,48,32,52,276,44*7B
2017-12-01 14:43:06 1512157386.717397: $GPGSV,3,3,12,15,05,070,21,25,09,136,22,31,07,204,35,138,38,213,46*43
