2017-11-16 17:24:05 1510871045.792759: {"class":"VERSION","release":"3.17","rev":"3.17","proto_major":3,"proto_minor":12}
2017-11-16 17:24:05 1510871045.793263: {"class":"DEVICES","devices":[{"class":"DEVICE","path":"/dev/ttyUSB0","driver":"SiRF","subtype":"9\u0006GSD4e_4.1.2-P1_RPATCH.05-F-GPS-4R-1510281 11/03/2015 307","activated":"2017-11-16T22:24:05.716Z","flags":1,"native":1,"bps":4800,"parity":"N","stopbits":1,"cycle":1.00}]}
2017-11-16 17:24:05 1510871045.793399: {"class":"WATCH","enable":true,"json":false,"nmea":true,"raw":0,"scaled":false,"timing":false,"split24":false,"pps":false}
2017-11-16 17:24:06 1510871046.738415: $GPGSV,3,1,12,01,20,304,40,10,53,145,49,22,15,312,44,12,23,054,51*71
2017-11-16 17:24:06 1510871046.987296: $GPGSV,3,2,12,14,64,318,46,18,22,142,41,24,01,048,00,11,09,286,37*75
2017-11-16 17:24:06 1510871046.987431: $GPGSV,3,3,12,25,38,096,48,31,51,222,49,32,69,013,49,138,38,213,45*4D
2017-11-16 17:24:06 1510871046.987534: $GPZDA,222405.00,16,11,2017,00,00*66
2017-11-16 17:24:06 1510871046.987587: $GPGGA,222405,3946.9570,N,08404.9830,W,2,11,0.80,307.75,M,-33.324,M,,*7F
2017-11-16 17:24:06 1510871046.987659: $GPRMC,222405,A,3946.9570,N,08404.9830,W,0.0000,0.000,161117,,*34
2017-11-16 17:24:06 1510871046.987732: $GPGSA,A,3,1,10,22,12,14,18,11,25,31,32,138,,1.6,0.8,1.3*3E
2017-11-16 17:24:07 1510871047.420162: $GPZDA,222406.00,16,11,2017,00,00*65
2017-11-16 17:24:07 1510871047.420355: $GPGGA,222406,3946.9574,N,08404.9830,W,2,11,0.80,308.39,M,-33.324,M,,*7F
2017-11-16 17:24:07 1510871047.420420: $GPRMC,222406,A,3946.9574,N,08404.9830,W,0.0000,0.000,161117,,*33
2017-11-16 17:24:07 1510871047.420476: $GPGSA,A,3,1,10,22,12,14,18,11,25,31,32,138,,1.6,0.8,1.3*3E
2017-11-16 17:24:08 1510871048.400917: $GPZDA,222407.00,16,11,2017,00,00*64
2017-11-16 17:24:08 1510871048.401081: $GPGGA,222407,3946.9574,N,08404.9830,W,2,11,0.80,308.39,M,-33.324,M,,*7E
2017-11-16 17:24:08 1510871048.401164: $GPRMC,222407,A,3946.9574,N,08404.9830,W,0.0000,0.000,161117,,*32
2017-11-16 17:24:08 1510871048.401222: $GPGSA,A,3,1,10,22,12,14,18,11,25,31,32,138,,1.6,0.8,1.3*3E
2017-11-16 17:24:09 1510871049.736782: $GPGSV,3,1,12,01,20,304,41,10,53,145,49,22,15,312,44,12,23,054,51*70
2017-11-16 17:24:09 1510871049.736949: $GPGSV,3,2,12,14,64,318,47,18,22,142,40,24,01,048,00,11,09,286,39*7B
2017-11-16 17:24:09 1510871049.737009: $GPGSV,3,3,12,25,38,096,48,31,51,222,49,32,69,013,49,138,38,213,44*4C
2017-11-16 17:24:09 1510871049.850164: $GPZDA,222408.00,16,11,2017,00,00*6B
2017-11-16 17:24:09 1510871049.850339: $GPGGA,222408,3946.9574,N,08404.9830,W,2,11,0.80,308.39,M,-33.324,M,,*71
2017-11-16 17:24:09 1510871049.850401: $GPRMC,222408,A,3946.9574,N,08404.9830,W,0.0000,0.000,161117,,*3D
2017-11-16 17:24:09 1510871049.850457: $GPGSA,A,3,1,10,22,12,14,18,11,25,31,32,138,,1.6,0.8,1.3*3E
2017-11-16 17:24:10 1510871050.420916: $GPZDA,222409.00,16,11,2017,00,00*6A
2017-11-16 17:24:10 1510871050.421109: $GPGGA,222409,3946.9574,N,08404.9830,W,2,11,0.80,308.39,M,-33.324,M,,*70
2017-11-16 17:24:10 1510871050.421172: $GPRMC,222409,A,3946.9574,N,08404.9830,W,0.0000,0.000,161117,,*3C
2017-11-16 17:24:10 1510871050.421245: $GPGSA,A,3,1,10,22,12,14,18,11,25,31,32,138,,1.6,0.8,1.3*3E
2017-11-16 17:24:11 1510871051.421288: $GPZDA,222410.00,16,11,2017,00,00*62
2017-11-16 17:24:11 1510871051.421468: $GPGGA,222410,3946.9574,N,08404.9830,W,2,11,0.80,308.39,M,-33.324,M,,*78
2017-11-16 17:24:11 1510871051.421531: $GPRMC,222410,A,3946.9574,N,08404.9830,W,0.0000,0.000,161117,,*34
2017-11-16 17:24:11 1510871051.421587: $GPGSA,A,3,1,10,22,12,14,18,11,25,31,32,138,,1.6,0.8,1.3*3E
2017-11-16 17:24:12 1510871052.758311: $GPGSV,3,1,12,01,20,304,41,10,53,145,49,22,15,312,44,12,23,054,51*70
2017-11-16 17:24:12 1510871052.758478: $GPGSV,3,2,12,14,64,318,46,18,22,142,40,24,01,048,00,11,09,286,40*74
2017-11-16 17:24:12 1510871052.758537: $GPGSV,3,3,12,25,38,096,47,31,51,222,49,32,69,013,49,138,38,213,43*44
2017-11-16 17:24:12 1510871052.871664: $GPZDA,222411.00,16,11,2017,00,00*63
2017-11-16 17:24:12 1510871052.871855: $GPGGA,222411,3946.9574,N,08404.9830,W,2,11,0.80,308.39,M,-33.324,M,,*79
2017-11-16 17:24:12 1510871052.871971: $GPRMC,222411,A,3946.9574,N,08404.9830,W,0.0000,0.000,161117,,*35
2017-11-16 17:24:12 1510871052.872029: $GPGSA,A,3,1,10,22,12,14,18,11,25,31,32,138,,1.6,0.8,1.3*3E
2017-11-16 17:24:13 1510871053.421195: $GPZDA,222412.00,16,11,2017,00,00*60
2017-11-16 17:24:13 1510871053.421375: $GPGGA,222412,3946.9574,N,08404.9830,W,2,11,0.80,308.39,M,-33.324,M,,*7A
2017-11-16 17:24:13 1510871053.421436: $GPRMC,222412,A,3946.9574,N,08404.9830,W,0.0000,0.000,161117,,*36
2017-11-16 17:24:13 1510871053.421492: $GPGSA,A,3,1,10,22,12,14,18,11,25,31,32,138,,1.6,0.8,1.3*3E
2017-11-16 17:24:14 1510871054.414661: $GPZDA,222413.00,16,11,2017,00,00*61
2017-11-16 17:24:14 1510871054.414871: $GPGGA,222413,3946.9574,N,08404.9830,W,2,11,0.80,308.39,M,-33.324,M,,*7B
2017-11-16 17:24:14 1510871054.414931: $GPRMC,222413,A,3946.9574,N,08404.9830,W,0.0000,0.000,161117,,*37
2017-11-16 17:24:14 1510871054.414988: $GPGSA,A,3,1,10,22,12,14,18,11,25,31,32,138,,1.6,0.8,1.3*3E
2017-11-16 17:24:15 1510871055.736660: $GPGSV,3,1,12,01,20,304,40,10,53,145,49,22,15,312,43,12,23,054,51*76
2017-11-16 17:24:15 1510871055.736801: $GPGSV,3,2,12,14,64,318,46,18,22,142,41,24,01,048,00,11,09,286,40*75
2017-11-16 17:24:15 1510871055.736861: $GPGSV,3,3,12,25,38,096,47,31,51,222,49,32,69,013,49,138,38,213,44*43
