2017-12-01 17:57:41 1512169061.367110: {"class":"VERSION","release":"3.16","rev":"3.16-4","proto_major":3,"proto_minor":11}
2017-12-01 17:57:41 1512169061.367527: {"class":"DEVICES","devices":[{"class":"DEVICE","path":"/dev/ttyUSB0","driver":"SiRF","subtype":"9\u0006GSD4e_4.1.2-P1_RPATCH.05-F-GPS-4R-1510281 11/03/2015 307","activated":"2017-12-01T22:57:41.266Z","flags":1,"native":1,"bps":4800,"parity":"N","stopbits":1,"cycle":1.00}]}
2017-12-01 17:57:41 1512169061.367661: {"class":"WATCH","enable":true,"json":false,"nmea":true,"raw":0,"scaled":false,"timing":false,"split24":false,"pps":false}
2017-12-01 17:57:41 1512169061.379572: $GPZDA,225742.00,01,12,2017,00,00*64
2017-12-01 17:57:41 1512169061.379703: $GPGGA,225742,3946.9736,N,08404.9846,W,2,12,0.80,299.00,M,-33.325,M,,*7F
2017-12-01 17:57:41 1512169061.379770: $GPRMC,225742,A,3946.9736,N,08404.9846,W,0.0000,0.000,011217,,*37
2017-12-01 17:57:41 1512169061.379830: $GPGSA,A,3,1,3,10,14,16,22,29,25,26,31,32,138,2.0,0.8,1.5*0C
2017-12-01 17:57:42 1512169062.715321: $GPGSV,3,1,12,01,12,262,38,03,32,309,47,10,08,159,40,14,63,072,42*7F
2017-12-01 17:57:42 1512169062.715515: $GPGSV,3,2,12,16,11,189,39,22,47,288,46,29,06,082,22,25,27,046,42*74
2017-12-01 17:57:42 1512169062.715581: $GPGSV,3,3,12,26,40,175,45,31,76,358,46,32,45,096,44,138,38,213,45*48
2017-12-01 17:57:42 1512169062.828651: $GPZDA,225743.00,01,12,2017,00,00*65
2017-12-01 17:57:42 1512169062.828768: $GPGGA,225743,3946.9736,N,08404.9846,W,2,12,0.80,299.00,M,-33.325,M,,*7E
2017-12-01 17:57:42 1512169062.828833: $GPRMC,225743,A,3946.9736,N,08404.9846,W,0.0000,0.000,011217,,*36
2017-12-01 17:57:42 1512169062.828896: $GPGSA,A,3,1,3,10,14,16,22,29,25,26,31,32,138,2.0,0.8,1.5*0C
2017-12-01 17:57:43 1512169063.454087: $GPZDA,225744.00,01,12,2017,00,00*62
2017-12-01 17:57:43 1512169063.454253: $GPGGA,225744,3946.9736,N,08404.9846,W,2,12,0.80,299.00,M,-33.325,M,,*79
2017-12-01 17:57:43 1512169063.454321: $GPRMC,225744,A,3946.9736,N,08404.9846,W,0.0000,0.000,011217,,*31
2017-12-01 17:57:43 1512169063.454385: $GPGSA,A,3,1,3,10,14,16,22,29,25,26,31,32,138,2.0,0.8,1.5*0C
2017-12-01 17:57:44 1512169064.403674: $GPZDA,225745.00,01,12,2017,00,00*63
2017-12-01 17:57:44 1512169064.403852: $GPGGA,225745,3946.9736,N,08404.9846,W,2,12,0.80,299.00,M,-33.325,M,,*78
2017-12-01 17:57:44 1512169064.403921: $GPRMC,225745,A,3946.9736,N,08404.9846,W,0.0000,0.000,011217,,*30
2017-12-01 17:57:44 1512169064.403983: $GPGSA,A,3,1,3,10,14,16,22,29,25,26,31,32,138,2.0,0.8,1.5*0C
2017-12-01 17:57:45 1512169065.715672: $GPGSV,3,1,12,01,12,262,38,03,32,309,47,10,08,159,40,14,63,072,42*7F
2017-12-01 17:57:45 1512169065.715840: $GPGSV,3,2,12,16,11,189,39,22,47,288,45,29,06,082,22,25,27,046,42*77
2017-12-01 17:57:45 1512169065.715906: $GPGSV,3,3,12,26,40,175,45,31,76,358,47,32,45,096,44,138,38,213,45*49
2017-12-01 17:57:45 1512169065.829057: $GPZDA,225746.00,01,12,2017,00,00*60
2017-12-01 17:57:45 1512169065.829234: $GPGGA,225746,3946.9736,N,08404.9846,W,2,12,0.80,299.00,M,-33.325,M,,*7B
2017-12-01 17:57:45 1512169065.829301: $GPRMC,225746,A,3946.9736,N,08404.9846,W,0.0000,0.000,011217,,*33
2017-12-01 17:57:45 1512169065.829368: $GPGSA,A,3,1,3,10,14,16,22,29,25,26,31,32,138,2.0,0.8,1.5*0C
2017-12-01 17:57:46 1512169066.404893: $GPZDA,225747.00,01,12,2017,00,00*61
2017-12-01 17:57:46 1512169066.405076: $GPGGA,225747,3946.9736,N,08404.9846,W,2,12,0.80,299.00,M,-33.325,M,,*7A
2017-12-01 17:57:46 1512169066.405143: $GPRMC,225747,A,3946.9736,N,08404.9846,W,0.0000,0.000,011217,,*32
2017-12-01 17:57:46 1512169066.405206: $GPGSA,A,3,1,3,10,14,16,22,29,25,26,31,32,138,2.0,0.8,1.5*0C
2017-12-01 17:57:47 1512169067.379766: $GPZDA,225748.00,01,12,2017,00,00*6E
2017-12-01 17:57:47 1512169067.379937: $GPGGA,225748,3946.9736,N,08404.9846,W,2,12,0.80,299.00,M,-33.325,M,,*75
2017-12-01 17:57:47 1512169067.380004: $GPRMC,225748,A,3946.9736,N,08404.9846,W,0.0000,0.000,011217,,*3D
2017-12-01 17:57:47 1512169067.380066: $GPGSA,A,3,1,3,10,14,16,22,29,25,26,31,32,138,2.0,0.8,1.5*0C
2017-12-01 17:57:48 1512169068.708537: $GPGSV,3,1,12,01,12,262,37,03,32,309,47,10,08,159,40,14,63,072,42*70
2017-12-01 17:57:48 1512169068.708769: $GPGSV,3,2,12,16,11,189,39,22,47,288,45,29,06,082,22,25,27,046,42*77
2017-12-01 17:57:48 1512169068.708840: $GPGSV,3,3,12,26,40,175,45,31,76,358,46,32,45,096,43,138,38,213,45*4F
2017-12-01 17:57:48 1512169068.821945: $GPZDA,225749.00,01,12,2017,00,00*6F
2017-12-01 17:57:48 1512169068.822089: $GPGGA,225749,3946.9736,N,08404.9846,W,2,12,0.80,299.00,M,-33.325,M,,*74
2017-12-01 17:57:48 1512169068.822156: $GPRMC,225749,A,3946.9736,N,08404.9846,W,0.0000,0.000,011217,,*3C
2017-12-01 17:57:48 1512169068.822217: $GPGSA,A,3,1,3,10,14,16,22,29,25,26,31,32,138,2.0,0.8,1.5*0C
2017-12-01 17:57:49 1512169069.380481: $GPZDA,225750.00,01,12,2017,00,00*67
2017-12-01 17:57:49 1512169069.380655: $GPGGA,225750,3946.9736,N,08404.9846,W,2,12,0.80,299.00,M,-33.325,M,,*7C
2017-12-01 17:57:49 1512169069.380722: $GPRMC,225750,A,3946.9736,N,08404.9846,W,0.0000,0.000,011217,,*34
2017-12-01 17:57:49 1512169069.380784: $GPGSA,A,3,1,3,10,14,16,22,29,25,26,31,32,138,2.0,0.8,1.5*0C
2017-12-01 17:57:50 1512169070.373606: $GPZDA,225751.00,01,12,2017,00,00*66
2017-12-01 17:57:50 1512169070.373854: $GPGGA,225751,3946.9736,N,08404.9846,W,2,12,0.80,299.00,M,-33.325,M,,*7D
2017-12-01 17:57:50 1512169070.373950: $GPRMC,225751,A,3946.9736,N,08404.9846,W,0.0000,0.000,011217,,*35
2017-12-01 17:57:50 1512169070.374016: $GPGSA,A,3,1,3,10,14,16,22,29,25,26,31,32,138,2.0,0.8,1.5*0C
2017-12-01 17:57:51 1512169071.715633: $GPGSV,3,1,12,01,12,262,36,03,32,309,47,10,08,159,41,14,63,072,42*70
2017-12-01 17:57:51 1512169071.715816: $GPGSV,3,2,12,16,11,189,39,22,47,288,46,23,03,295,32,25,27,046,42*7E
2017-12-01 17:57:51 1512169071.715885: $GPGSV,3,3,12,26,40,175,46,31,76,358,47,32,45,096,43,138,38,213,45*4D
2017-12-01 17:57:51 1512169071.829028: $GPZDA,225752.00,01,12,2017,00,00*65
2017-12-01 17:57:51 1512169071.829195: $GPGGA,225752,3946.9736,N,08404.9846,W,2,12,0.80,299.00,M,-33.325,M,,*7E
2017-12-01 17:57:51 1512169071.829264: $GPRMC,225752,A,3946.9736,N,08404.9846,W,0.0000,0.000,011217,,*36
2017-12-01 17:57:51 1512169071.829326: $GPGSA,A,3,1,3,10,14,16,22,23,25,26,31,32,138,2.0,0.8,1.5*06
2017-12-01 17:57:52 1512169072.379737: $GPZDA,225753.00,01,12,2017,00,00*64
2017-12-01 17:57:52 1512169072.379923: $GPGGA,225753,3946.9736,N,08404.9846,W,2,12,0.80,299.00,M,-33.325,M,,*7F
2017-12-01 17:57:52 1512169072.379993: $GPRMC,225753,A,3946.9736,N,08404.9846,W,0.0000,0.000,011217,,*37
2017-12-01 17:57:52 1512169072.380057: $GPGSA,A,3,1,3,10,14,16,22,23,25,26,31,32,138,2.0,0.8,1.5*06
2017-12-01 17:57:53 1512169073.381431: $GPZDA,225754.00,01,12,2017,00,00*63
2017-12-01 17:57:53 1512169073.381622: $GPGGA,225754,3946.9736,N,08404.9846,W,2,12,0.80,299.00,M,-33.325,M,,*78
2017-12-01 17:57:53 1512169073.381694: $GPRMC,225754,A,3946.9736,N,08404.9846,W,0.0000,0.000,011217,,*30
2017-12-01 17:57:53 1512169073.381761: $GPGSA,A,3,1,3,10,14,16,22,23,25,26,31,32,138,2.0,0.8,1.5*06
2017-12-01 17:57:54 1512169074.716128: $GPGSV,3,1,12,01,12,262,36,03,32,309,47,10,08,159,40,14,63,072,42*71
2017-12-01 17:57:54 1512169074.716315: $GPGSV,3,2,12,16,11,189,39,22,47,288,46,29,06,082,24,25,27,046,42*72
2017-12-01 17:57:54 1512169074.716388: $GPGSV,3,3,12,26,40,175,46,31,76,358,47,32,45,096,43,138,38,213,46*4E
2017-12-01 17:57:54 1512169074.829359: $GPZDA,225755.00,01,12,2017,00,00*62
2017-12-01 17:57:54 1512169074.829522: $GPGGA,225755,3946.9736,N,08404.9846,W,2,12,0.80,299.00,M,-33.325,M,,*79
2017-12-01 17:57:54 1512169074.829590: $GPRMC,225755,A,3946.9736,N,08404.9846,W,0.0000,0.000,011217,,*31
2017-12-01 17:57:54 1512169074.829652: $GPGSA,A,3,1,3,10,14,16,22,29,25,26,31,32,138,2.0,0.8,1.5*0C
2017-12-01 17:57:55 1512169075.373898: $GPZDA,225756.00,01,12,2017,00,00*61
2017-12-01 17:57:55 1512169075.374084: $GPGGA,225756,3946.9736,N,08404.9846,W,2,12,0.80,299.00,M,-33.325,M,,*7A
2017-12-01 17:57:55 1512169075.376529: $GPRMC,225756,A,3946.9736,N,08404.9846,W,0.0000,0.000,011217,,*32
2017-12-01 17:57:55 1512169075.376614: $GPGSA,A,3,1,3,10,14,16,22,29,25,26,31,32,138,2.0,0.8,1.5*0C
2017-12-01 17:57:56 1512169076.372426: $GPZDA,225757.00,01,12,2017,00,00*60
2017-12-01 17:57:56 1512169076.372603: $GPGGA,225757,3946.9736,N,08404.9846,W,2,12,0.80,299.00,M,-33.325,M,,*7B
2017-12-01 17:57:56 1512169076.372671: $GPRMC,225757,A,3946.9736,N,08404.9846,W,0.0000,0.000,011217,,*33
2017-12-01 17:57:56 1512169076.372731: $GPGSA,A,3,1,3,10,14,16,22,29,25,26,31,32,138,2.0,0.8,1.5*0C
2017-12-01 17:57:57 1512169077.715513: $GPGSV,3,1,12,01,12,262,35,03,32,309,47,10,08,159,40,14,63,072,42*72
2017-12-01 17:57:57 1512169077.715692: $GPGSV,3,2,12,16,11,189,40,22,47,288,46,29,06,082,18,25,27,046,41*70
2017-12-01 17:57:57 1512169077.715758: $GPGSV,3,3,12,26,40,175,46,31,76,358,47,32,45,096,43,138,38,213,46*4E
2017-12-01 17:57:57 1512169077.828937: $GPZDA,225758.00,01,12,2017,00,00*6F
2017-12-01 17:57:57 1512169077.829106: $GPGGA,225758,3946.9736,N,08404.9846,W,2,12,0.80,299.00,M,-33.325,M,,*74
2017-12-01 17:57:57 1512169077.829173: $GPRMC,225758,A,3946.9736,N,08404.9846,W,0.0000,0.000,011217,,*3C
2017-12-01 17:57:57 1512169077.829234: $GPGSA,A,3,1,3,10,14,16,22,29,25,26,31,32,138,2.0,0.8,1.5*0C
2017-12-01 17:57:58 1512169078.454542: $GPZDA,225759.00,01,12,2017,00,00*6E
2017-12-01 17:57:58 1512169078.454712: $GPGGA,225759,3946.9736,N,08404.9846,W,2,12,0.80,299.00,M,-33.325,M,,*75
2017-12-01 17:57:58 1512169078.454779: $GPRMC,225759,A,3946.9736,N,08404.9846,W,0.0000,0.000,011217,,*3D
2017-12-01 17:57:58 1512169078.454840: $GPGSA,A,3,1,3,10,14,16,22,29,25,26,31,32,138,2.0,0.8,1.5*0C
2017-12-01 17:57:59 1512169079.379253: $GPZDA,225800.00,01,12,2017,00,00*6D
2017-12-01 17:57:59 1512169079.379430: $GPGGA,225800,3946.9736,N,08404.9846,W,2,12,0.80,299.00,M,-33.325,M,,*76
2017-12-01 17:57:59 1512169079.379496: $GPRMC,225800,A,3946.9736,N,08404.9846,W,0.0000,0.000,011217,,*3E
2017-12-01 17:57:59 1512169079.379557: $GPGSA,A,3,1,3,10,14,16,22,29,25,26,31,32,138,2.0,0.8,1.5*0C
2017-12-01 17:58:00 1512169080.713372: $GPGSV,3,1,12,01,12,262,35,03,32,309,47,10,08,159,40,14,63,072,42*72
2017-12-01 17:58:00 1512169080.713544: $GPGSV,3,2,12,16,11,189,39,22,47,288,46,29,06,082,17,25,27,046,41*71
2017-12-01 17:58:00 1512169080.713609: $GPGSV,3,3,12,26,40,175,46,31,76,358,47,32,45,096,43,138,38,213,46*4E
2017-12-01 17:58:00 1512169080.826720: $GPZDA,225801.00,01,12,2017,00,00*6C
2017-12-01 17:58:00 1512169080.826882: $GPGGA,225801,3946.9736,N,08404.9846,W,2,12,0.80,299.00,M,-33.325,M,,*77
2017-12-01 17:58:00 1512169080.826949: $GPRMC,225801,A,3946.9736,N,08404.9846,W,0.0000,0.000,011217,,*3F
2017-12-01 17:58:00 1512169080.827009: $GPGSA,A,3,1,3,10,14,16,22,29,25,26,31,32,138,2.0,0.8,1.5*0C
