2017-11-16 13:18:07 1510856287.724076: {"class":"VERSION","release":"3.17","rev":"3.17","proto_major":3,"proto_minor":12}
2017-11-16 13:18:07 1510856287.724567: {"class":"DEVICES","devices":[{"class":"DEVICE","path":"/dev/ttyUSB0","driver":"SiRF","subtype":"9\u0006GSD4e_4.1.2-P1_RPATCH.05-F-GPS-4R-1510281 11/03/2015 307","activated":"2017-11-16T18:18:07.457Z","flags":1,"native":1,"bps":4800,"parity":"N","stopbits":1,"cycle":1.00}]}
2017-11-16 13:18:07 1510856287.724690: {"class":"WATCH","enable":true,"json":false,"nmea":true,"raw":0,"scaled":false,"timing":false,"split24":false,"pps":false}
2017-11-16 13:18:08 1510856288.319682: $GPZDA,181807.00,16,11,2017,00,00*62
2017-11-16 13:18:08 1510856288.319833: $GPGGA,181807,3946.9590,N,08404.9845,W,2,11,0.80,300.12,M,-33.324,M,,*71
2017-11-16 13:18:08 1510856288.319894: $GPRMC,181807,A,3946.9590,N,08404.9845,W,0.0000,0.000,161117,,*3C
2017-11-16 13:18:08 1510856288.319950: $GPGSA,A,3,10,13,15,18,20,21,24,27,5,29,138,,1.6,0.8,1.3*37
2017-11-16 13:18:09 1510856289.632593: $GPGSV,3,1,11,10,22,282,43,13,30,045,47,15,62,052,50,18,53,298,46*7A
2017-11-16 13:18:09 1510856289.632734: $GPGSV,3,2,11,20,52,070,47,21,77,276,47,24,32,139,41,27,16,313,40*74
2017-11-16 13:18:09 1510856289.632793: $GPGSV,3,3,11,05,05,087,18,29,10,189,34,138,38,213,46*71
2017-11-16 13:18:09 1510856289.746181: $GPZDA,181808.00,16,11,2017,00,00*6D
2017-11-16 13:18:09 1510856289.746350: $GPGGA,181808,3946.9590,N,08404.9845,W,2,11,0.80,300.12,M,-33.324,M,,*7E
2017-11-16 13:18:09 1510856289.746412: $GPRMC,181808,A,3946.9590,N,08404.9845,W,0.0000,0.000,161117,,*33
2017-11-16 13:18:09 1510856289.746468: $GPGSA,A,3,10,13,15,18,20,21,24,27,5,29,138,,1.6,0.8,1.3*37
2017-11-16 13:18:10 1510856290.371599: $GPZDA,181809.00,16,11,2017,00,00*6C
2017-11-16 13:18:10 1510856290.371758: $GPGGA,181809,3946.9590,N,08404.9845,W,2,11,0.80,300.12,M,-33.324,M,,*7F
2017-11-16 13:18:10 1510856290.371820: $GPRMC,181809,A,3946.9590,N,08404.9845,W,0.0000,0.000,161117,,*32
2017-11-16 13:18:10 1510856290.371876: $GPGSA,A,3,10,13,15,18,20,21,24,27,5,29,138,,1.6,0.8,1.3*37
2017-11-16 13:18:11 1510856291.313831: $GPZDA,181810.00,16,11,2017,00,00*64
2017-11-16 13:18:11 1510856291.314387: $GPGGA,181810,3946.9590,N,08404.9845,W,2,11,0.80,300.12,M,-33.324,M,,*77
2017-11-16 13:18:11 1510856291.322215: $GPRMC,181810,A,3946.9590,N,08404.9845,W,0.0000,0.000,161117,,*3A
2017-11-16 13:18:11 1510856291.322373: $GPGSA,A,3,10,13,15,18,20,21,24,27,5,29,138,,1.6,0.8,1.3*37
2017-11-16 13:18:12 1510856292.649023: $GPGSV,3,1,11,10,22,282,43,13,30,045,47,15,62,052,50,18,53,298,45*79
2017-11-16 13:18:12 1510856292.649196: $GPGSV,3,2,11,20,52,070,47,21,77,276,47,24,32,139,41,27,16,313,39*7A
2017-11-16 13:18:12 1510856292.649257: $GPGSV,3,3,11,05,05,087,17,29,10,189,34,138,38,213,45*7D
2017-11-16 13:18:12 1510856292.762292: $GPZDA,181811.00,16,11,2017,00,00*65
2017-11-16 13:18:12 1510856292.762458: $GPGGA,181811,3946.9590,N,08404.9845,W,2,11,0.80,300.12,M,-33.324,M,,*76
2017-11-16 13:18:12 1510856292.762519: $GPRMC,181811,A,3946.9590,N,08404.9845,W,0.0000,0.000,161117,,*3B
2017-11-16 13:18:12 1510856292.762594: $GPGSA,A,3,10,13,15,18,20,21,24,27,5,29,138,,1.6,0.8,1.3*37
2017-11-16 13:18:13 1510856293.300715: $GPZDA,181812.00,16,11,2017,00,00*66
2017-11-16 13:18:13 1510856293.300881: $GPGGA,181812,3946.9590,N,08404.9845,W,2,11,0.80,300.12,M,-33.324,M,,*75
2017-11-16 13:18:13 1510856293.300946: $GPRMC,181812,A,3946.9590,N,08404.9845,W,0.0000,0.000,161117,,*38
2017-11-16 13:18:13 1510856293.301003: $GPGSA,A,3,10,13,15,18,20,21,24,27,5,29,138,,1.6,0.8,1.3*37
2017-11-16 13:18:14 1510856294.314092: $GPZDA,181813.00,16,11,2017,00,00*67
2017-11-16 13:18:14 1510856294.314276: $GPGGA,181813,3946.9590,N,08404.9845,W,2,11,0.80,300.12,M,-33.324,M,,*74
2017-11-16 13:18:14 1510856294.314339: $GPRMC,181813,A,3946.9590,N,08404.9845,W,0.0000,0.000,161117,,*39
2017-11-16 13:18:14 1510856294.314396: $GPGSA,A,3,10,13,15,18,20,21,24,27,5,29,138,,1.6,0.8,1.3*37
2017-11-16 13:18:15 1510856295.628049: $GPGSV,3,1,11,10,22,282,43,13,30,045,47,15,62,052,50,18,53,298,45*79
2017-11-16 13:18:15 1510856295.628251: $GPGSV,3,2,11,20,52,070,47,21,77,276,47,24,32,139,41,27,16,313,40*74
2017-11-16 13:18:15 1510856295.628314: $GPGSV,3,3,11,05,05,087,16,29,10,189,34,138,38,213,44*7D
2017-11-16 13:18:15 1510856295.741328: $GPZDA,181814.00,16,11,2017,00,00*60
2017-11-16 13:18:15 1510856295.741507: $GPGGA,181814,3946.9590,N,08404.9845,W,2,11,0.80,300.12,M,-33.324,M,,*73
2017-11-16 13:18:15 1510856295.741571: $GPRMC,181814,A,3946.9590,N,08404.9845,W,0.0000,0.000,161117,,*3E
2017-11-16 13:18:15 1510856295.741628: $GPGSA,A,3,10,13,15,18,20,21,24,27,5,29,138,,1.6,0.8,1.3*37
2017-11-16 13:18:16 1510856296.312146: $GPZDA,181815.00,16,11,2017,00,00*61
2017-11-16 13:18:16 1510856296.314941: $GPGGA,181815,3946.9590,N,08404.9845,W,2,11,0.80,300.12,M,-33.324,M,,*72
2017-11-16 13:18:16 1510856296.315046: $GPRMC,181815,A,3946.9590,N,08404.9845,W,0.0000,0.000,161117,,*3F
2017-11-16 13:18:16 1510856296.315105: $GPGSA,A,3,10,13,15,18,20,21,24,27,5,29,138,,1.6,0.8,1.3*37
2017-11-16 13:18:17 1510856297.294242: $GPZDA,181816.00,16,11,2017,00,00*62
2017-11-16 13:18:17 1510856297.294405: $GPGGA,181816,3946.9590,N,08404.9845,W,2,11,0.80,300.12,M,-33.324,M,,*71
2017-11-16 13:18:17 1510856297.294468: $GPRMC,181816,A,3946.9590,N,08404.9845,W,0.0000,0.000,161117,,*3C
2017-11-16 13:18:17 1510856297.294524: $GPGSA,A,3,10,13,15,18,20,21,24,27,5,29,138,,1.6,0.8,1.3*37
