2017-12-01 12:18:08 1512148688.086875: {"class":"VERSION","release":"3.16","rev":"3.16-4","proto_major":3,"proto_minor":11}
2017-12-01 12:18:08 1512148688.087261: {"class":"DEVICES","devices":[{"class":"DEVICE","path":"/dev/ttyUSB0","driver":"SiRF","subtype":"9\u0006GSD4e_4.1.2-P1_RPATCH.05-F-GPS-4R-1510281 11/03/2015 307","activated":"2017-12-01T17:18:07.994Z","flags":1,"native":1,"bps":4800,"parity":"N","stopbits":1,"cycle":1.00}]}
2017-12-01 12:18:08 1512148688.087394: {"class":"WATCH","enable":true,"json":false,"nmea":true,"raw":0,"scaled":false,"timing":false,"split24":false,"pps":false}
2017-12-01 12:18:08 1512148688.131538: $GPZDA,171808.80,01,12,2017,00,00*6F
2017-12-01 12:18:08 1512148688.131702: $GPGGA,171808,3946.9569,N,08404.9849,W,1,11,1.20,303.30,M,-33.324,M,,*70
2017-12-01 12:18:08 1512148688.131785: $GPRMC,171808,A,3946.9569,N,08404.9849,W,0.7480,20.892,011217,,*09
2017-12-01 12:18:08 1512148688.131847: $GPGSA,A,3,10,13,15,18,20,21,24,27,5,32,138,,2.0,1.2,1.5*35
2017-12-01 12:18:08 1512148688.131906: $GPGBS,171808,10.70,M,15.43,M,35.28,M*00
2017-12-01 12:18:09 1512148689.212914: $GPZDA,171809.49,01,12,2017,00,00*6B
2017-12-01 12:18:09 1512148689.213091: $GPGGA,171809,3946.9569,N,08404.9849,W,1,11,1.20,303.30,M,-33.324,M,,*71
2017-12-01 12:18:09 1512148689.213162: $GPRMC,171809,A,3946.9569,N,08404.9849,W,0.2422,93.794,011217,,*04
2017-12-01 12:18:09 1512148689.213222: $GPGSA,A,3,10,13,15,18,20,21,24,27,5,32,138,,2.0,1.2,1.5*35
2017-12-01 12:18:10 1512148690.378000: $GPGSV,3,1,12,10,24,283,38,13,29,045,46,15,60,051,46,18,55,301,44*78
2017-12-01 12:18:10 1512148690.378181: $GPGSV,3,2,12,20,51,072,45,21,78,265,42,24,34,138,47,27,16,312,45*79
2017-12-01 12:18:10 1512148690.378248: $GPGSV,3,3,12,29,10,189,08,05,03,087,00,32,01,225,00,138,38,213,00*45
2017-12-01 12:18:10 1512148690.491738: $GPZDA,171810.00,01,12,2017,00,00*6E
2017-12-01 12:18:10 1512148690.491919: $GPGGA,171810,3946.9569,N,08404.9849,W,1,08,1.20,303.30,M,-33.324,M,,*71
2017-12-01 12:18:10 1512148690.491989: $GPRMC,171810,A,3946.9569,N,08404.9849,W,0.0000,0.000,011217,,*3A
2017-12-01 12:18:10 1512148690.492053: $GPGSA,A,3,10,13,15,18,20,21,24,27,,,,,2.0,1.2,1.5*3B
2017-12-01 12:18:10 1512148690.942224: $GPZDA,171811.00,01,12,2017,00,00*6F
2017-12-01 12:18:10 1512148690.942399: $GPGGA,171811,3946.9569,N,08404.9849,W,1,08,1.20,303.30,M,-33.324,M,,*70
2017-12-01 12:18:10 1512148690.942469: $GPRMC,171811,A,3946.9569,N,08404.9849,W,0.4207,39.346,011217,,*01
2017-12-01 12:18:10 1512148690.942534: $GPGSA,A,3,10,13,15,18,20,21,24,27,,,,,2.0,1.2,1.5*3B
2017-12-01 12:18:11 1512148691.405537: $GPZDA,171812.00,01,12,2017,00,00*6C
2017-12-01 12:18:11 1512148691.405758: $GPGGA,171812,3946.9569,N,08404.9849,W,1,08,1.20,303.30,M,-33.324,M,,*73
2017-12-01 12:18:11 1512148691.405829: $GPRMC,171812,A,3946.9569,N,08404.9849,W,0.0000,0.000,011217,,*38
2017-12-01 12:18:11 1512148691.405893: $GPGSA,A,3,10,13,15,18,20,21,24,27,,,,,2.0,1.2,1.5*3B
2017-12-01 12:18:12 1512148692.743278: $GPGSV,3,1,12,10,24,283,39,13,29,045,45,15,60,051,45,18,55,301,45*78
2017-12-01 12:18:12 1512148692.743463: $GPGSV,3,2,12,20,51,072,45,21,78,265,42,24,34,138,47,27,16,312,44*78
2017-12-01 12:18:12 1512148692.743533: $GPGSV,3,3,12,05,03,087,21,32,01,225,22,29,10,189,22,138,38,213,46*4C
2017-12-01 12:18:12 1512148692.856729: $GPZDA,171813.00,01,12,2017,00,00*6D
2017-12-01 12:18:12 1512148692.856902: $GPGGA,171813,3946.9568,N,08404.9842,W,1,12,0.80,303.38,M,-33.324,M,,*70
2017-12-01 12:18:12 1512148692.856971: $GPRMC,171813,A,3946.9568,N,08404.9842,W,0.1867,0.000,011217,,*3B
2017-12-01 12:18:12 1512148692.857036: $GPGSA,A,3,10,13,15,18,20,21,24,27,5,32,29,138,2.0,0.8,1.5*35
2017-12-01 12:18:13 1512148693.405056: $GPZDA,171814.00,01,12,2017,00,00*6A
2017-12-01 12:18:13 1512148693.405233: $GPGGA,171814,3946.9568,N,08404.9842,W,1,12,1.20,303.38,M,-33.324,M,,*7C
2017-12-01 12:18:13 1512148693.405302: $GPRMC,171814,A,3946.9568,N,08404.9842,W,0.0000,0.000,011217,,*34
2017-12-01 12:18:13 1512148693.405367: $GPGSA,A,3,10,13,15,18,20,21,24,27,5,32,29,138,2.0,1.2,1.5*3E
2017-12-01 12:18:14 1512148694.411255: $GPZDA,171815.00,01,12,2017,00,00*6B
2017-12-01 12:18:14 1512148694.411476: $GPGGA,171815,3946.9572,N,08404.9841,W,1,12,0.80,302.62,M,-33.324,M,,*70
2017-12-01 12:18:14 1512148694.411572: $GPRMC,171815,A,3946.9572,N,08404.9841,W,0.0000,0.000,011217,,*3D
2017-12-01 12:18:14 1512148694.411635: $GPGSA,A,3,10,13,15,18,20,21,24,27,5,32,29,138,2.0,0.8,1.5*35
2017-12-01 12:18:14 1512148694.411712: $GPGBS,171815,10.70,M,15.43,M,35.28,M*0C
2017-12-01 12:18:15 1512148695.742773: $GPGSV,3,1,12,10,24,283,39,13,29,045,45,15,60,051,45,18,55,301,45*78
2017-12-01 12:18:15 1512148695.742961: $GPGSV,3,2,12,20,51,072,45,21,78,265,42,24,34,138,48,27,16,312,44*77
2017-12-01 12:18:15 1512148695.743028: $GPGSV,3,3,12,05,03,087,22,32,01,225,22,29,10,189,24,138,38,213,46*49
2017-12-01 12:18:15 1512148695.856167: $GPZDA,171816.00,01,12,2017,00,00*68
2017-12-01 12:18:15 1512148695.856341: $GPGGA,171816,3946.9572,N,08404.9841,W,1,12,0.80,302.62,M,-33.324,M,,*73
2017-12-01 12:18:15 1512148695.856408: $GPRMC,171816,A,3946.9572,N,08404.9841,W,0.0000,0.000,011217,,*3E
2017-12-01 12:18:15 1512148695.856470: $GPGSA,A,3,10,13,15,18,20,21,24,27,5,32,29,138,2.0,0.8,1.5*35
2017-12-01 12:18:16 1512148696.407044: $GPZDA,171817.00,01,12,2017,00,00*69
2017-12-01 12:18:16 1512148696.407219: $GPGGA,171817,3946.9575,N,08404.9834,W,2,12,1.40,301.93,M,-33.324,M,,*74
2017-12-01 12:18:16 1512148696.407287: $GPRMC,171817,A,3946.9575,N,08404.9834,W,0.0000,0.000,011217,,*3A
2017-12-01 12:18:16 1512148696.407348: $GPGSA,A,3,10,13,15,18,20,21,24,27,5,32,29,138,2.0,1.4,1.5*38
2017-12-01 12:18:17 1512148697.407370: $GPZDA,171818.00,01,12,2017,00,00*66
2017-12-01 12:18:17 1512148697.407568: $GPGGA,171818,3946.9575,N,08404.9834,W,2,12,0.80,301.93,M,-33.324,M,,*76
2017-12-01 12:18:17 1512148697.407637: $GPRMC,171818,A,3946.9575,N,08404.9834,W,0.0000,0.000,011217,,*35
2017-12-01 12:18:17 1512148697.407717: $GPGSA,A,3,10,13,15,18,20,21,24,27,5,32,29,138,2.0,0.8,1.5*35
