2017-12-01 15:20:23 1512159623.146753: {"class":"VERSION","release":"3.16","rev":"3.16-4","proto_major":3,"proto_minor":11}
2017-12-01 15:20:23 1512159623.147277: {"class":"DEVICES","devices":[{"class":"DEVICE","path":"/dev/ttyUSB0","driver":"SiRF","subtype":"9\u0006GSD4e_4.1.2-P1_RPATCH.05-F-GPS-4R-1510281 11/03/2015 307","activated":"2017-12-01T20:20:22.524Z","flags":1,"native":1,"bps":4800,"parity":"N","stopbits":1,"cycle":1.00}]}
2017-12-01 15:20:23 1512159623.147406: {"class":"WATCH","enable":true,"json":false,"nmea":true,"raw":0,"scaled":false,"timing":false,"split24":false,"pps":false}
2017-12-01 15:20:23 1512159623.396355: $GPZDA,202024.00,01,12,2017,00,00*66
2017-12-01 15:20:23 1512159623.396531: $GPGGA,202024,3946.9581,N,08404.9858,W,2,11,0.80,295.87,M,-33.324,M,,*7D
2017-12-01 15:20:23 1512159623.396598: $GPRMC,202024,A,3946.9581,N,08404.9858,W,0.0000,0.000,011217,,*34
2017-12-01 15:20:23 1512159623.396660: $GPGSA,A,3,1,10,11,12,14,18,24,25,31,32,138,,2.0,0.8,1.5*3B
2017-12-01 15:20:24 1512159624.733358: $GPGSV,3,1,12,01,07,325,41,10,80,102,46,11,09,312,41,12,22,084,45*75
2017-12-01 15:20:24 1512159624.733543: $GPGSV,3,2,12,14,47,277,42,18,48,127,48,24,24,046,46,25,21,124,43*70
2017-12-01 15:20:24 1512159624.733610: $GPGSV,3,3,12,31,23,208,44,32,63,303,48,21,04,174,04,138,38,213,46*49
2017-12-01 15:20:24 1512159624.845434: $GPZDA,202025.00,01,12,2017,00,00*67
2017-12-01 15:20:24 1512159624.845566: $GPGGA,202025,3946.9581,N,08404.9858,W,2,11,0.80,295.87,M,-33.324,M,,*7C
2017-12-01 15:20:24 1512159624.845631: $GPRMC,202025,A,3946.9581,N,08404.9858,W,0.0000,0.000,011217,,*35
2017-12-01 15:20:24 1512159624.845693: $GPGSA,A,3,1,10,11,12,14,18,24,25,31,32,138,,2.0,0.8,1.5*3B
2017-12-01 15:20:25 1512159625.472186: $GPZDA,202026.00,01,12,2017,00,00*64
2017-12-01 15:20:25 1512159625.472344: $GPGGA,202026,3946.9581,N,08404.9858,W,2,11,0.80,295.87,M,-33.324,M,,*7F
2017-12-01 15:20:25 1512159625.472413: $GPRMC,202026,A,3946.9581,N,08404.9858,W,0.0000,0.000,011217,,*36
2017-12-01 15:20:25 1512159625.472475: $GPGSA,A,3,1,10,11,12,14,18,24,25,31,32,138,,2.0,0.8,1.5*3B
2017-12-01 15:20:26 1512159626.397974: $GPZDA,202027.00,01,12,2017,00,00*65
2017-12-01 15:20:26 1512159626.398156: $GPGGA,202027,3946.9577,N,08404.9859,W,2,11,0.80,296.64,M,-33.324,M,,*78
2017-12-01 15:20:26 1512159626.398223: $GPRMC,202027,A,3946.9577,N,08404.9859,W,0.0000,0.000,011217,,*3F
2017-12-01 15:20:26 1512159626.398286: $GPGSA,A,3,1,10,11,12,14,18,24,25,31,32,138,,2.0,0.8,1.5*3B
2017-12-01 15:20:27 1512159627.732476: $GPGSV,3,1,12,01,07,325,41,10,80,102,46,11,09,312,41,12,22,084,45*75
2017-12-01 15:20:27 1512159627.732660: $GPGSV,3,2,12,14,47,277,42,18,48,127,48,24,24,046,46,25,21,124,43*70
2017-12-01 15:20:27 1512159627.732727: $GPGSV,3,3,12,31,23,208,44,32,63,303,48,21,04,174,04,138,38,213,45*4A
2017-12-01 15:20:27 1512159627.845855: $GPZDA,202028.00,01,12,2017,00,00*6A
2017-12-01 15:20:27 1512159627.845996: $GPGGA,202028,3946.9577,N,08404.9859,W,2,11,0.80,296.64,M,-33.324,M,,*77
2017-12-01 15:20:27 1512159627.846066: $GPRMC,202028,A,3946.9577,N,08404.9859,W,0.0000,0.000,011217,,*30
2017-12-01 15:20:27 1512159627.846129: $GPGSA,A,3,1,10,11,12,14,18,24,25,31,32,138,,2.0,0.8,1.5*3B
2017-12-01 15:20:28 1512159628.380490: $GPZDA,202029.00,01,12,2017,00,00*6B
2017-12-01 15:20:28 1512159628.380646: $GPGGA,202029,3946.9577,N,08404.9859,W,2,11,0.80,296.64,M,-33.324,M,,*76
2017-12-01 15:20:28 1512159628.380713: $GPRMC,202029,A,3946.9577,N,08404.9859,W,0.0000,0.000,011217,,*31
2017-12-01 15:20:28 1512159628.380776: $GPGSA,A,3,1,10,11,12,14,18,24,25,31,32,138,,2.0,0.8,1.5*3B
2017-12-01 15:20:29 1512159629.382751: $GPZDA,202030.00,01,12,2017,00,00*63
2017-12-01 15:20:30 1512159630.027776: $GPGGA,202030,3946.9577,N,08404.9852,W,2,11,0.80,296.72,M,-33.324,M,,*72
2017-12-01 15:20:30 1512159630.027927: $GPRMC,202030,A,3946.9577,N,08404.9852,W,0.0000,0.000,011217,,*32
2017-12-01 15:20:30 1512159630.027992: $GPGSA,A,3,1,10,11,12,14,18,24,25,31,32,138,,2.0,0.8,1.5*3B
2017-12-01 15:20:30 1512159630.711671: $GPGSV,3,1,12,01,07,325,41,10,80,102,46,11,09,312,40,12,22,084,44*75
2017-12-01 15:20:30 1512159630.711916: $GPGSV,3,2,12,14,47,277,42,18,48,127,48,24,24,046,46,25,21,124,43*70
2017-12-01 15:20:30 1512159630.711986: $GPGSV,3,3,12,31,23,208,44,32,63,303,47,21,04,174,04,138,38,213,46*46
2017-12-01 15:20:30 1512159630.824963: $GPZDA,202031.00,01,12,2017,00,00*62
2017-12-01 15:20:30 1512159630.825150: $GPGGA,202031,3946.9577,N,08404.9852,W,2,11,0.80,296.72,M,-33.324,M,,*73
2017-12-01 15:20:30 1512159630.825218: $GPRMC,202031,A,3946.9577,N,08404.9852,W,0.0000,0.000,011217,,*33
2017-12-01 15:20:30 1512159630.825282: $GPGSA,A,3,1,10,11,12,14,18,24,25,31,32,138,,2.0,0.8,1.5*3B
2017-12-01 15:20:31 1512159631.382528: $GPZDA,202032.00,01,12,2017,00,00*61
2017-12-01 15:20:31 1512159631.382702: $GPGGA,202032,3946.9577,N,08404.9852,W,2,11,0.80,296.72,M,-33.324,M,,*70
2017-12-01 15:20:31 1512159631.382771: $GPRMC,202032,A,3946.9577,N,08404.9852,W,0.0000,0.000,011217,,*30
2017-12-01 15:20:31 1512159631.382833: $GPGSA,A,3,1,10,11,12,14,18,24,25,31,32,138,,2.0,0.8,1.5*3B
2017-12-01 15:20:32 1512159632.380731: $GPZDA,202033.00,01,12,2017,00,00*60
2017-12-01 15:20:32 1512159632.380907: $GPGGA,202033,3946.9577,N,08404.9852,W,2,11,0.80,296.72,M,-33.324,M,,*71
2017-12-01 15:20:32 1512159632.380975: $GPRMC,202033,A,3946.9577,N,08404.9852,W,0.0000,0.000,011217,,*31
2017-12-01 15:20:32 1512159632.381041: $GPGSA,A,3,1,10,11,12,14,18,24,25,31,32,138,,2.0,0.8,1.5*3B
2017-12-01 15:20:33 1512159633.717465: $GPGSV,3,1,12,01,07,325,42,10,80,102,46,11,09,312,40,12,22,084,43*71
2017-12-01 15:20:33 1512159633.717651: $GPGSV,3,2,12,14,47,277,42,18,48,127,48,24,24,046,46,25,21,124,43*70
2017-12-01 15:20:33 1512159633.717718: $GPGSV,3,3,12,31,23,208,44,32,63,303,47,21,04,174,04,138,38,213,45*45
2017-12-01 15:20:33 1512159633.829530: $GPZDA,202034.00,01,12,2017,00,00*67
2017-12-01 15:20:33 1512159633.829663: $GPGGA,202034,3946.9577,N,08404.9852,W,2,11,0.80,296.72,M,-33.324,M,,*76
2017-12-01 15:20:33 1512159633.829729: $GPRMC,202034,A,3946.9577,N,08404.9852,W,0.0000,0.000,011217,,*36
2017-12-01 15:20:33 1512159633.829790: $GPGSA,A,3,1,10,11,12,14,18,24,25,31,32,138,,2.0,0.8,1.5*3B
2017-12-01 15:20:34 1512159634.380921: $GPZDA,202035.00,01,12,2017,00,00*66
2017-12-01 15:20:34 1512159634.381134: $GPGGA,202035,3946.9577,N,08404.9852,W,2,11,0.80,296.72,M,-33.324,M,,*77
2017-12-01 15:20:34 1512159634.381206: $GPRMC,202035,A,3946.9577,N,08404.9852,W,0.0000,0.000,011217,,*37
2017-12-01 15:20:34 1512159634.381272: $GPGSA,A,3,1,10,11,12,14,18,24,25,31,32,138,,2.0,0.8,1.5*3B
2017-12-01 15:20:35 1512159635.379962: $GPZDA,202036.00,01,12,2017,00,00*65
2017-12-01 15:20:35 1512159635.380132: $GPGGA,202036,3946.9577,N,08404.9852,W,2,11,0.80,296.72,M,-33.324,M,,*74
2017-12-01 15:20:35 1512159635.380199: $GPRMC,202036,A,3946.9577,N,08404.9852,W,0.0000,0.000,011217,,*34
2017-12-01 15:20:35 1512159635.380262: $GPGSA,A,3,1,10,11,12,14,18,24,25,31,32,138,,2.0,0.8,1.5*3B
2017-12-01 15:20:36 1512159636.710306: $GPGSV,3,1,12,01,07,325,42,10,80,102,46,11,09,312,34,12,22,084,43*72
2017-12-01 15:20:36 1512159636.710491: $GPGSV,3,2,12,14,47,277,42,18,48,127,48,24,24,046,46,25,21,124,43*70
2017-12-01 15:20:36 1512159636.710559: $GPGSV,3,3,12,31,23,208,44,32,63,303,47,21,04,174,04,138,38,213,46*46
2017-12-01 15:20:36 1512159636.824033: $GPZDA,202037.00,01,12,2017,00,00*64
2017-12-01 15:20:36 1512159636.824223: $GPGGA,202037,3946.9577,N,08404.9852,W,2,11,0.80,296.72,M,-33.324,M,,*75
2017-12-01 15:20:36 1512159636.824291: $GPRMC,202037,A,3946.9577,N,08404.9852,W,0.0000,0.000,011217,,*35
2017-12-01 15:20:36 1512159636.824357: $GPGSA,A,3,1,10,11,12,14,18,24,25,31,32,138,,2.0,0.8,1.5*3B
2017-12-01 15:20:37 1512159637.382157: $GPZDA,202038.00,01,12,2017,00,00*6B
2017-12-01 15:20:37 1512159637.382338: $GPGGA,202038,3946.9577,N,08404.9852,W,2,11,0.80,296.72,M,-33.324,M,,*7A
2017-12-01 15:20:37 1512159637.382406: $GPRMC,202038,A,3946.9577,N,08404.9852,W,0.0000,0.000,011217,,*3A
2017-12-01 15:20:37 1512159637.382469: $GPGSA,A,3,1,10,11,12,14,18,24,25,31,32,138,,2.0,0.8,1.5*3B
2017-12-01 15:20:38 1512159638.380537: $GPZDA,202039.00,01,12,2017,00,00*6A
2017-12-01 15:20:38 1512159638.380787: $GPGGA,202039,3946.9577,N,08404.9852,W,2,11,0.80,296.72,M,-33.324,M,,*7B
2017-12-01 15:20:38 1512159638.380857: $GPRMC,202039,A,3946.9577,N,08404.9852,W,0.0000,0.000,011217,,*3B
2017-12-01 15:20:38 1512159638.380919: $GPGSA,A,3,1,10,11,12,14,18,24,25,31,32,138,,2.0,0.8,1.5*3B
2017-12-01 15:20:39 1512159639.714924: $GPGSV,3,1,12,01,07,325,43,10,80,102,46,11,09,312,40,12,22,084,42*71
2017-12-01 15:20:39 1512159639.715117: $GPGSV,3,2,12,14,47,277,42,18,48,127,48,24,24,046,46,25,21,124,43*70
2017-12-01 15:20:39 1512159639.715184: $GPGSV,3,3,12,31,23,208,44,32,63,303,47,21,04,174,00,138,38,213,46*42
2017-12-01 15:20:39 1512159639.828524: $GPZDA,202040.00,01,12,2017,00,00*64
2017-12-01 15:20:39 1512159639.828672: $GPGGA,202040,3946.9577,N,08404.9852,W,2,11,0.80,296.72,M,-33.324,M,,*75
2017-12-01 15:20:39 1512159639.828740: $GPRMC,202040,A,3946.9577,N,08404.9852,W,0.0000,0.000,011217,,*35
2017-12-01 15:20:39 1512159639.828801: $GPGSA,A,3,1,10,11,12,14,18,24,25,31,32,138,,2.0,0.8,1.5*3B
2017-12-01 15:20:40 1512159640.453739: $GPZDA,202041.00,01,12,2017,00,00*65
2017-12-01 15:20:40 1512159640.453938: $GPGGA,202041,3946.9577,N,08404.9852,W,2,11,0.80,296.72,M,-33.324,M,,*74
2017-12-01 15:20:40 1512159640.454017: $GPRMC,202041,A,3946.9577,N,08404.9852,W,0.0000,0.000,011217,,*34
2017-12-01 15:20:40 1512159640.454085: $GPGSA,A,3,1,10,11,12,14,18,24,25,31,32,138,,2.0,0.8,1.5*3B
2017-12-01 15:20:41 1512159641.380800: $GPZDA,202042.00,01,12,2017,00,00*66
2017-12-01 15:20:41 1512159641.380993: $GPGGA,202042,3946.9577,N,08404.9852,W,2,11,0.80,296.72,M,-33.324,M,,*77
2017-12-01 15:20:41 1512159641.381061: $GPRMC,202042,A,3946.9577,N,08404.9852,W,0.0000,0.000,011217,,*37
2017-12-01 15:20:41 1512159641.381130: $GPGSA,A,3,1,10,11,12,14,18,24,25,31,32,138,,2.0,0.8,1.5*3B
2017-12-01 15:20:42 1512159642.716638: $GPGSV,3,1,12,01,07,325,43,10,80,102,47,11,09,312,32,12,22,084,43*74
2017-12-01 15:20:42 1512159642.716804: $GPGSV,3,2,12,14,47,277,42,18,48,127,48,24,24,046,46,25,21,124,43*70
2017-12-01 15:20:42 1512159642.716872: $GPGSV,3,3,12,31,23,208,44,32,63,303,48,21,04,174,00,138,38,213,45*4E
2017-12-01 15:20:42 1512159642.830040: $GPZDA,202043.00,01,12,2017,00,00*67
2017-12-01 15:20:42 1512159642.830215: $GPGGA,202043,3946.9577,N,08404.9852,W,2,11,0.80,296.72,M,-33.324,M,,*76
2017-12-01 15:20:42 1512159642.830282: $GPRMC,202043,A,3946.9577,N,08404.9852,W,0.0000,0.000,011217,,*36
2017-12-01 15:20:42 1512159642.830345: $GPGSA,A,3,1,10,11,12,14,18,24,25,31,32,138,,2.0,0.8,1.5*3B
