2017-12-01 17:03:00 1512165780.707883: {"class":"VERSION","release":"3.16","rev":"3.16-4","proto_major":3,"proto_minor":11}
2017-12-01 17:03:00 1512165780.708553: {"class":"DEVICES","devices":[{"class":"DEVICE","path":"/dev/ttyUSB0","driver":"SiRF","subtype":"9\u0006GSD4e_4.1.2-P1_RPATCH.05-F-GPS-4R-1510281 11/03/2015 307","activated":"2017-12-01T22:03:00.699Z","flags":1,"native":1,"bps":4800,"parity":"N","stopbits":1,"cycle":1.00}]}
2017-12-01 17:03:00 1512165780.708688: {"class":"WATCH","enable":true,"json":false,"nmea":true,"raw":0,"scaled":false,"timing":false,"split24":false,"pps":false}
2017-12-01 17:03:01 1512165781.414183: $GPZDA,220302.00,01,12,2017,00,00*61
2017-12-01 17:03:01 1512165781.414357: $GPGGA,220302,3946.9644,N,08404.9745,W,2,12,0.80,305.21,M,-33.324,M,,*74
2017-12-01 17:03:01 1512165781.414449: $GPRMC,220302,A,3946.9644,N,08404.9745,W,0.0000,0.000,011217,,*3A
2017-12-01 17:03:01 1512165781.414513: $GPGSA,A,3,1,3,10,18,14,22,26,31,32,25,12,138,2.0,0.8,1.5*0A
2017-12-01 17:03:02 1512165782.747111: $GPGSV,3,1,12,01,21,285,42,03,12,316,43,10,32,154,38,18,04,147,16*73
2017-12-01 17:03:02 1512165782.747283: $GPGSV,3,2,12,14,70,006,45,22,31,309,47,26,15,180,33,31,71,246,49*75
2017-12-01 17:03:02 1512165782.747349: $GPGSV,3,3,12,32,62,061,48,25,40,070,27,12,14,037,22,138,38,213,36*43
2017-12-01 17:03:02 1512165782.860754: $GPZDA,220303.00,01,12,2017,00,00*60
2017-12-01 17:03:02 1512165782.860923: $GPGGA,220303,3946.9644,N,08404.9745,W,2,12,0.80,305.21,M,-33.324,M,,*75
2017-12-01 17:03:02 1512165782.860990: $GPRMC,220303,A,3946.9644,N,08404.9745,W,0.0000,0.000,011217,,*3B
2017-12-01 17:03:02 1512165782.861051: $GPGSA,A,3,1,3,10,18,14,22,26,31,32,25,12,138,2.0,0.8,1.5*0A
2017-12-01 17:03:03 1512165783.410196: $GPZDA,220304.00,01,12,2017,00,00*67
2017-12-01 17:03:03 1512165783.410365: $GPGGA,220304,3946.9644,N,08404.9745,W,2,12,0.80,305.21,M,-33.324,M,,*72
2017-12-01 17:03:03 1512165783.410455: $GPRMC,220304,A,3946.9644,N,08404.9745,W,0.0000,0.000,011217,,*3C
2017-12-01 17:03:03 1512165783.410518: $GPGSA,A,3,1,3,10,18,14,22,26,31,32,25,12,138,2.0,0.8,1.5*0A
2017-12-01 17:03:04 1512165784.412020: $GPZDA,220305.00,01,12,2017,00,00*66
2017-12-01 17:03:04 1512165784.412196: $GPGGA,220305,3946.9644,N,08404.9745,W,2,12,0.80,305.21,M,-33.324,M,,*73
2017-12-01 17:03:04 1512165784.412262: $GPRMC,220305,A,3946.9644,N,08404.9745,W,0.0000,0.000,011217,,*3D
2017-12-01 17:03:04 1512165784.412323: $GPGSA,A,3,1,3,10,18,14,22,26,31,32,25,12,138,2.0,0.8,1.5*0A
2017-12-01 17:03:05 1512165785.747751: $GPGSV,3,1,12,01,21,285,42,03,12,316,43,10,32,154,38,11,03,270,38*76
2017-12-01 17:03:05 1512165785.747934: $GPGSV,3,2,12,14,70,006,45,22,31,309,47,26,15,180,26,31,71,246,48*70
2017-12-01 17:03:05 1512165785.748001: $GPGSV,3,3,12,32,62,061,48,25,40,070,27,12,14,037,22,138,38,213,39*4C
2017-12-01 17:03:05 1512165785.861482: $GPZDA,220306.00,01,12,2017,00,00*65
2017-12-01 17:03:05 1512165785.861668: $GPGGA,220306,3946.9644,N,08404.9745,W,2,12,0.80,305.21,M,-33.324,M,,*70
2017-12-01 17:03:05 1512165785.861735: $GPRMC,220306,A,3946.9644,N,08404.9745,W,0.0000,0.000,011217,,*3E
2017-12-01 17:03:05 1512165785.861796: $GPGSA,A,3,1,3,10,11,14,22,26,31,32,25,12,138,2.0,0.8,1.5*03
2017-12-01 17:03:06 1512165786.487757: $GPZDA,220307.00,01,12,2017,00,00*64
2017-12-01 17:03:06 1512165786.487929: $GPGGA,220307,3946.9644,N,08404.9745,W,2,12,0.80,305.21,M,-33.324,M,,*71
2017-12-01 17:03:06 1512165786.487996: $GPRMC,220307,A,3946.9644,N,08404.9745,W,0.0000,0.000,011217,,*3F
2017-12-01 17:03:06 1512165786.488058: $GPGSA,A,3,1,3,10,11,14,22,26,31,32,25,12,138,2.0,0.8,1.5*03
2017-12-01 17:03:07 1512165787.413986: $GPZDA,220308.00,01,12,2017,00,00*6B
2017-12-01 17:03:07 1512165787.418270: $GPGGA,220308,3946.9644,N,08404.9745,W,2,12,0.80,305.21,M,-33.324,M,,*7E
2017-12-01 17:03:07 1512165787.418382: $GPRMC,220308,A,3946.9644,N,08404.9745,W,0.0000,0.000,011217,,*30
2017-12-01 17:03:07 1512165787.418451: $GPGSA,A,3,1,3,10,11,14,22,26,31,32,25,12,138,2.0,0.8,1.5*03
2017-12-01 17:03:08 1512165788.745548: $GPGSV,3,1,12,01,21,285,42,03,12,316,43,10,32,154,38,11,03,270,36*78
2017-12-01 17:03:08 1512165788.745785: $GPGSV,3,2,12,14,70,006,45,22,31,309,47,26,15,180,26,31,71,246,49*71
2017-12-01 17:03:08 1512165788.745856: $GPGSV,3,3,12,32,62,061,48,25,40,070,23,12,14,037,22,138,38,213,39*48
2017-12-01 17:03:08 1512165788.859345: $GPZDA,220309.00,01,12,2017,00,00*6A
2017-12-01 17:03:08 1512165788.859529: $GPGGA,220309,3946.9644,N,08404.9745,W,2,12,0.80,305.21,M,-33.324,M,,*7F
2017-12-01 17:03:08 1512165788.859615: $GPRMC,220309,A,3946.9644,N,08404.9745,W,0.0000,0.000,011217,,*31
2017-12-01 17:03:08 1512165788.859679: $GPGSA,A,3,1,3,10,11,14,22,26,31,32,25,12,138,2.0,0.8,1.5*03
2017-12-01 17:03:09 1512165789.413511: $GPZDA,220310.00,01,12,2017,00,00*62
2017-12-01 17:03:09 1512165789.413694: $GPGGA,220310,3946.9644,N,08404.9745,W,2,12,0.80,305.21,M,-33.324,M,,*77
2017-12-01 17:03:09 1512165789.413762: $GPRMC,220310,A,3946.9644,N,08404.9745,W,0.0000,0.000,011217,,*39
2017-12-01 17:03:09 1512165789.413824: $GPGSA,A,3,1,3,10,11,14,22,26,31,32,25,12,138,2.0,0.8,1.5*03
2017-12-01 17:03:10 1512165790.413111: $GPZDA,220311.00,01,12,2017,00,00*63
2017-12-01 17:03:10 1512165790.413282: $GPGGA,220311,3946.9644,N,08404.9745,W,2,12,0.80,305.21,M,-33.324,M,,*76
2017-12-01 17:03:10 1512165790.413349: $GPRMC,220311,A,3946.9644,N,08404.9745,W,0.0000,0.000,011217,,*38
2017-12-01 17:03:10 1512165790.413414: $GPGSA,A,3,1,3,10,11,14,22,26,31,32,25,12,138,2.0,0.8,1.5*03
2017-12-01 17:03:11 1512165791.748447: $GPGSV,3,1,12,01,21,285,42,03,12,316,43,10,32,154,38,11,03,270,36*78
2017-12-01 17:03:11 1512165791.748664: $GPGSV,3,2,12,14,70,006,45,22,31,309,47,26,15,180,32,31,71,246,48*75
2017-12-01 17:03:11 1512165791.748735: $GPGSV,3,3,12,32,62,061,47,25,40,070,23,12,14,037,22,138,38,213,39*47
2017-12-01 17:03:11 1512165791.862145: $GPZDA,220312.00,01,12,2017,00,00*60
2017-12-01 17:03:11 1512165791.862321: $GPGGA,220312,3946.9644,N,08404.9745,W,2,12,0.80,305.21,M,-33.324,M,,*75
2017-12-01 17:03:11 1512165791.862393: $GPRMC,220312,A,3946.9644,N,08404.9745,W,0.0000,0.000,011217,,*3B
2017-12-01 17:03:11 1512165791.862460: $GPGSA,A,3,1,3,10,11,14,22,26,31,32,25,12,138,2.0,0.8,1.5*03
2017-12-01 17:03:12 1512165792.414170: $GPZDA,220313.00,01,12,2017,00,00*61
2017-12-01 17:03:12 1512165792.414377: $GPGGA,220313,3946.9644,N,08404.9745,W,2,12,0.80,305.21,M,-33.324,M,,*74
2017-12-01 17:03:12 1512165792.414484: $GPRMC,220313,A,3946.9644,N,08404.9745,W,0.0000,0.000,011217,,*3A
2017-12-01 17:03:12 1512165792.414556: $GPGSA,A,3,1,3,10,11,14,22,26,31,32,25,12,138,2.0,0.8,1.5*03
2017-12-01 17:03:13 1512165793.411327: $GPZDA,220314.00,01,12,2017,00,00*66
2017-12-01 17:03:13 1512165793.411565: $GPGGA,220314,3946.9644,N,08404.9745,W,2,12,0.80,305.21,M,-33.324,M,,*73
2017-12-01 17:03:13 1512165793.411639: $GPRMC,220314,A,3946.9644,N,08404.9745,W,0.0000,0.000,011217,,*3D
2017-12-01 17:03:13 1512165793.411703: $GPGSA,A,3,1,3,10,11,14,22,26,31,32,25,12,138,2.0,0.8,1.5*03
2017-12-01 17:03:14 1512165794.746698: $GPGSV,3,1,12,01,21,285,42,03,12,316,43,10,32,154,38,11,03,270,36*78
2017-12-01 17:03:14 1512165794.746853: $GPGSV,3,2,12,14,70,006,45,22,31,309,47,26,15,180,32,31,71,246,48*75
2017-12-01 17:03:14 1512165794.746921: $GPGSV,3,3,12,32,62,061,47,25,40,070,20,12,14,037,23,138,38,213,38*44
2017-12-01 17:03:14 1512165794.860067: $GPZDA,220315.00,01,12,2017,00,00*67
2017-12-01 17:03:14 1512165794.860245: $GPGGA,220315,3946.9640,N,08404.9745,W,2,12,0.80,304.57,M,-33.324,M,,*76
2017-12-01 17:03:14 1512165794.860314: $GPRMC,220315,A,3946.9640,N,08404.9745,W,0.0000,0.000,011217,,*38
2017-12-01 17:03:14 1512165794.860399: $GPGSA,A,3,1,3,10,11,14,22,26,31,32,25,12,138,2.0,0.8,1.5*03
2017-12-01 17:03:15 1512165795.423458: $GPZDA,220316.00,01,12,2017,00,00*64
2017-12-01 17:03:15 1512165795.423662: $GPGGA,220316,3946.9640,N,08404.9745,W,2,12,0.80,304.57,M,-33.324,M,,*75
2017-12-01 17:03:15 1512165795.423735: $GPRMC,220316,A,3946.9640,N,08404.9745,W,0.0000,0.000,011217,,*3B
2017-12-01 17:03:15 1512165795.423799: $GPGSA,A,3,1,3,10,11,14,22,26,31,32,25,12,138,2.0,0.8,1.5*03
2017-12-01 17:03:16 1512165796.412608: $GPZDA,220317.00,01,12,2017,00,00*65
2017-12-01 17:03:16 1512165796.412795: $GPGGA,220317,3946.9640,N,08404.9745,W,2,12,0.80,304.57,M,-33.324,M,,*74
2017-12-01 17:03:16 1512165796.412863: $GPRMC,220317,A,3946.9640,N,08404.9745,W,0.0000,0.000,011217,,*3A
2017-12-01 17:03:16 1512165796.412924: $GPGSA,A,3,1,3,10,11,14,22,26,31,32,25,12,138,2.0,0.8,1.5*03
2017-12-01 17:03:17 1512165797.749642: $GPGSV,3,1,12,01,21,285,43,03,12,316,43,10,32,154,38,18,04,147,05*70
2017-12-01 17:03:17 1512165797.749838: $GPGSV,3,2,12,14,70,006,45,22,31,309,47,26,15,180,31,31,71,246,49*77
2017-12-01 17:03:17 1512165797.749908: $GPGSV,3,3,12,32,62,061,47,25,40,070,20,12,14,037,23,138,38,213,40*4B
2017-12-01 17:03:17 1512165797.863318: $GPZDA,220318.00,01,12,2017,00,00*6A
2017-12-01 17:03:17 1512165797.863492: $GPGGA,220318,3946.9640,N,08404.9745,W,2,11,0.80,304.57,M,-33.324,M,,*78
2017-12-01 17:03:17 1512165797.863562: $GPRMC,220318,A,3946.9640,N,08404.9745,W,0.0000,0.000,011217,,*35
2017-12-01 17:03:17 1512165797.863628: $GPGSA,A,3,1,3,10,14,22,26,31,32,25,12,138,,2.0,0.8,1.5*03
2017-12-01 17:03:18 1512165798.414182: $GPZDA,220319.00,01,12,2017,00,00*6B
2017-12-01 17:03:18 1512165798.414356: $GPGGA,220319,3946.9640,N,08404.9745,W,2,11,0.80,304.57,M,-33.324,M,,*79
2017-12-01 17:03:18 1512165798.414428: $GPRMC,220319,A,3946.9640,N,08404.9745,W,0.0000,0.000,011217,,*34
2017-12-01 17:03:18 1512165798.414496: $GPGSA,A,3,1,3,10,14,22,26,31,32,25,12,138,,2.0,0.8,1.5*03
2017-12-01 17:03:19 1512165799.937681: $GPZDA,220320.00,01,12,2017,00,00*61
2017-12-01 17:03:19 1512165799.937841: $GPGGA,220320,3946.9643,N,08404.9737,W,2,11,0.80,302.48,M,-33.324,M,,*7D
2017-12-01 17:03:19 1512165799.937911: $GPRMC,220320,A,3946.9643,N,08404.9737,W,0.0000,0.000,011217,,*38
2017-12-01 17:03:19 1512165799.937976: $GPGSA,A,3,1,3,10,14,22,26,31,32,25,12,138,,2.0,0.8,1.5*03
