2018-01-12 05:01:26 1515751286.689131: {"class":"VERSION","release":"3.16","rev":"3.16-4","proto_major":3,"proto_minor":11}
2018-01-12 05:01:26 1515751286.689578: {"class":"DEVICES","devices":[{"class":"DEVICE","path":"/dev/ttyUSB0","driver":"SiRF","subtype":"9\u0006GSD4e_4.1.2-P1_RPATCH.05-F-GPS-4R-1510281 11/03/2015 307","activated":"2018-01-12T10:01:26.480Z","flags":1,"native":1,"bps":4800,"parity":"N","stopbits":1,"cycle":1.00}]}
2018-01-12 05:01:26 1515751286.689718: {"class":"WATCH","enable":true,"json":false,"nmea":true,"raw":0,"scaled":false,"timing":false,"split24":false,"pps":false}
2018-01-12 05:01:27 1515751287.253313: $GPZDA,100127.54,12,01,2018,00,00*6B
2018-01-12 05:01:27 1515751287.253465: $GPGGA,100127,3946.9633,N,08404.9747,W,1,10,2.00,306.10,M,-33.324,M,,*78
2018-01-12 05:01:27 1515751287.253531: $GPRMC,100127,A,3946.9633,N,08404.9747,W,0.0407,322.013,120118,,*31
2018-01-12 05:01:27 1515751287.253593: $GPGSA,A,3,2,5,12,20,25,29,6,9,19,138,,,2.4,2.0,2.1*02
2018-01-12 05:01:28 1515751288.395903: $GPGSV,3,1,12,02,66,034,44,05,70,204,50,12,39,228,52,20,16,225,42*7C
2018-01-12 05:01:28 1515751288.396079: $GPGSV,3,2,12,25,36,280,40,29,26,312,48,06,33,069,03,09,17,049,03*7F
2018-01-12 05:01:28 1515751288.396177: $GPGSV,3,3,12,19,17,127,02,04,66,316,00,13,04,165,00,138,38,213,00*47
2018-01-12 05:01:28 1515751288.509296: $GPZDA,100128.00,12,01,2018,00,00*65
2018-01-12 05:01:28 1515751288.509438: $GPGGA,100128,3946.9633,N,08404.9747,W,1,06,2.00,306.10,M,-33.324,M,,*70
2018-01-12 05:01:28 1515751288.509503: $GPRMC,100128,A,3946.9633,N,08404.9747,W,0.1567,189.200,120118,,*3B
2018-01-12 05:01:28 1515751288.509565: $GPGSA,A,3,2,5,12,20,25,29,,,,,,,2.4,2.0,2.1*3F
2018-01-12 05:01:28 1515751288.960158: $GPZDA,100129.00,12,01,2018,00,00*64
2018-01-12 05:01:28 1515751288.960317: $GPGGA,100129,3946.9633,N,08404.9747,W,1,06,0.80,306.10,M,-33.324,M,,*7B
2018-01-12 05:01:28 1515751288.960384: $GPRMC,100129,A,3946.9633,N,08404.9747,W,0.2422,93.794,120118,,*0B
2018-01-12 05:01:28 1515751288.960445: $GPGSA,A,3,2,5,12,20,25,29,,,,,,,2.4,0.8,2.1*35
2018-01-12 05:01:29 1515751289.412306: $GPZDA,100130.00,12,01,2018,00,00*6C
2018-01-12 05:01:29 1515751289.412469: $GPGGA,100130,3946.9637,N,08404.9746,W,1,06,0.80,305.34,M,-33.324,M,,*73
2018-01-12 05:01:29 1515751289.412535: $GPRMC,100130,A,3946.9637,N,08404.9746,W,0.0000,0.000,120118,,*30
2018-01-12 05:01:29 1515751289.412597: $GPGSA,A,3,2,5,12,20,25,29,,,,,,,2.4,0.8,2.1*35
2018-01-12 05:01:30 1515751290.700026: $GPGSV,3,1,12,02,66,034,45,05,70,204,51,12,39,228,52,20,16,225,42*7C
2018-01-12 05:01:30 1515751290.700201: $GPGSV,3,2,12,25,36,280,42,29,26,312,48,06,33,069,30,09,17,049,28*74
2018-01-12 05:01:30 1515751290.700266: $GPGSV,3,3,12,19,17,127,20,04,66,316,00,13,04,165,00,138,38,213,48*4B
2018-01-12 05:01:30 1515751290.813349: $GPZDA,100131.00,12,01,2018,00,00*6D
2018-01-12 05:01:30 1515751290.813498: $GPGGA,100131,3946.9637,N,08404.9746,W,1,10,0.80,305.34,M,-33.324,M,,*75
2018-01-12 05:01:30 1515751290.813564: $GPRMC,100131,A,3946.9637,N,08404.9746,W,0.0000,0.000,120118,,*31
2018-01-12 05:01:30 1515751290.813625: $GPGSA,A,3,2,5,12,20,25,29,6,9,19,138,,,2.4,0.8,2.1*08
2018-01-12 05:01:31 1515751291.366766: $GPZDA,100132.00,12,01,2018,00,00*6E
2018-01-12 05:01:31 1515751291.366917: $GPGGA,100132,3946.9640,N,08404.9745,W,1,10,0.80,304.57,M,-33.324,M,,*71
2018-01-12 05:01:31 1515751291.366983: $GPRMC,100132,A,3946.9640,N,08404.9745,W,0.0000,0.000,120118,,*31
2018-01-12 05:01:31 1515751291.367044: $GPGSA,A,3,2,5,12,20,25,29,6,9,19,138,,,2.4,0.8,2.1*08
2018-01-12 05:01:32 1515751292.362557: $GPZDA,100133.00,12,01,2018,00,00*6F
2018-01-12 05:01:32 1515751292.362737: $GPGGA,100133,3946.9640,N,08404.9745,W,1,10,0.80,304.57,M,-33.324,M,,*70
2018-01-12 05:01:32 1515751292.362821: $GPRMC,100133,A,3946.9640,N,08404.9745,W,0.0000,0.000,120118,,*30
2018-01-12 05:01:32 1515751292.362883: $GPGSA,A,3,2,5,12,20,25,29,6,9,19,138,,,2.4,0.8,2.1*08
2018-01-12 05:01:32 1515751292.362941: $GPGBS,100133,11.98,M,14.47,M,47.88,M*0A
