2018-01-11 20:03:50 1515719030.269342: {"class":"VERSION","release":"3.16","rev":"3.16-4","proto_major":3,"proto_minor":11}
2018-01-11 20:03:50 1515719030.269707: {"class":"DEVICES","devices":[{"class":"DEVICE","path":"/dev/ttyUSB0","driver":"SiRF","subtype":"9\u0006GSD4e_4.1.2-P1_RPATCH.05-F-GPS-4R-1510281 11/03/2015 307","activated":"2018-01-12T01:03:50.249Z","flags":1,"native":1,"bps":4800,"parity":"N","stopbits":1,"cycle":1.00}]}
2018-01-11 20:03:50 1515719030.269821: {"class":"WATCH","enable":true,"json":false,"nmea":true,"raw":0,"scaled":false,"timing":false,"split24":false,"pps":false}
2018-01-11 20:03:50 1515719030.363239: $GPZDA,010351.00,12,01,2018,00,00*69
2018-01-11 20:03:50 1515719030.363393: $GPGGA,010351,3946.9595,N,08404.9829,W,2,09,0.80,295.94,M,-33.324,M,,*75
2018-01-11 20:03:50 1515719030.363458: $GPRMC,010351,A,3946.9595,N,08404.9829,W,0.0000,0.000,120118,,*38
2018-01-11 20:03:50 1515719030.363519: $GPGSA,A,3,7,8,9,11,16,23,27,28,138,,,,4.0,0.8,3.5*3D
2018-01-11 20:03:51 1515719031.361494: $GPZDA,010352.00,12,01,2018,00,00*6A
2018-01-11 20:03:51 1515719031.361646: $GPGGA,010352,3946.9595,N,08404.9829,W,2,09,0.80,295.94,M,-33.324,M,,*76
2018-01-11 20:03:51 1515719031.361712: $GPRMC,010352,A,3946.9595,N,08404.9829,W,0.0000,0.000,120118,,*3B
2018-01-11 20:03:51 1515719031.361773: $GPGSA,A,3,7,8,9,11,16,23,27,28,138,,,,4.0,0.8,3.5*3D
2018-01-11 20:03:51 1515719031.361830: $GPGBS,010352,3.65,M,6.21,M,20.10,M*0D
2018-01-11 20:03:52 1515719032.700200: $GPGSV,3,1,11,07,52,313,42,08,71,141,45,09,50,234,44,11,17,169,42*70
2018-01-11 20:03:52 1515719032.700398: $GPGSV,3,2,11,16,25,058,44,23,32,190,45,27,50,055,51,28,12,256,36*75
2018-01-11 20:03:52 1515719032.700466: $GPGSV,3,3,11,30,26,304,29,26,01,070,07,138,38,213,45*77
2018-01-11 20:03:52 1515719032.813794: $GPZDA,010353.00,12,01,2018,00,00*6B
2018-01-11 20:03:52 1515719032.813915: $GPGGA,010353,3946.9595,N,08404.9829,W,2,10,0.80,295.94,M,-33.324,M,,*7F
2018-01-11 20:03:52 1515719032.813978: $GPRMC,010353,A,3946.9595,N,08404.9829,W,0.0000,0.000,120118,,*3A
2018-01-11 20:03:52 1515719032.814040: $GPGSA,A,3,7,8,9,11,16,23,27,28,30,138,,,4.0,0.8,3.5*3E
2018-01-11 20:03:53 1515719033.363181: $GPZDA,010354.00,12,01,2018,00,00*6C
2018-01-11 20:03:53 1515719033.363354: $GPGGA,010354,3946.9595,N,08404.9829,W,2,10,0.80,295.94,M,-33.324,M,,*78
2018-01-11 20:03:53 1515719033.363421: $GPRMC,010354,A,3946.9595,N,08404.9829,W,0.0000,0.000,120118,,*3D
2018-01-11 20:03:53 1515719033.363483: $GPGSA,A,3,7,8,9,11,16,23,27,28,30,138,,,4.0,0.8,3.5*3E
2018-01-11 20:03:54 1515719034.361827: $GPZDA,010355.00,12,01,2018,00,00*6D
2018-01-11 20:03:54 1515719034.362001: $GPGGA,010355,3946.9595,N,08404.9829,W,2,10,0.80,295.94,M,-33.324,M,,*79
2018-01-11 20:03:54 1515719034.362067: $GPRMC,010355,A,3946.9595,N,08404.9829,W,0.0000,0.000,120118,,*3C
2018-01-11 20:03:54 1515719034.362130: $GPGSA,A,3,7,8,9,11,16,23,27,28,30,138,,,4.0,0.8,3.5*3E
2018-01-11 20:03:55 1515719035.696029: $GPGSV,3,1,11,07,52,313,42,08,71,141,45,09,50,234,43,11,17,169,43*76
2018-01-11 20:03:55 1515719035.696201: $GPGSV,3,2,11,16,25,058,44,23,32,190,45,27,50,055,51,28,12,256,36*75
2018-01-11 20:03:55 1515719035.696272: $GPGSV,3,3,11,30,26,304,30,26,01,070,22,138,38,213,44*79
2018-01-11 20:03:55 1515719035.809681: $GPZDA,010356.00,12,01,2018,00,00*6E
2018-01-11 20:03:55 1515719035.809803: $GPGGA,010356,3946.9595,N,08404.9829,W,2,11,0.80,295.94,M,-33.324,M,,*7B
2018-01-11 20:03:55 1515719035.809869: $GPRMC,010356,A,3946.9595,N,08404.9829,W,0.0000,0.000,120118,,*3F
2018-01-11 20:03:55 1515719035.809929: $GPGSA,A,3,7,8,9,11,16,23,27,28,30,26,138,,4.0,0.8,3.5*3A
2018-01-11 20:03:56 1515719036.365448: $GPZDA,010357.00,12,01,2018,00,00*6F
2018-01-11 20:03:56 1515719036.365625: $GPGGA,010357,3946.9595,N,08404.9829,W,2,11,0.80,295.94,M,-33.324,M,,*7A
2018-01-11 20:03:56 1515719036.365693: $GPRMC,010357,A,3946.9595,N,08404.9829,W,0.0000,0.000,120118,,*3E
2018-01-11 20:03:56 1515719036.365755: $GPGSA,A,3,7,8,9,11,16,23,27,28,30,26,138,,4.0,0.8,3.5*3A
2018-01-11 20:03:57 1515719037.365666: $GPZDA,010358.00,12,01,2018,00,00*60
2018-01-11 20:03:57 1515719037.365892: $GPGGA,010358,3946.9595,N,08404.9829,W,2,11,0.80,295.94,M,-33.324,M,,*75
2018-01-11 20:03:57 1515719037.365964: $GPRMC,010358,A,3946.9595,N,08404.9829,W,0.0000,0.000,120118,,*31
2018-01-11 20:03:57 1515719037.366025: $GPGSA,A,3,7,8,9,11,16,23,27,28,30,26,138,,4.0,0.8,3.5*3A
2018-01-11 20:03:58 1515719038.701387: $GPGSV,3,1,11,07,52,313,43,08,71,141,45,09,50,234,43,11,17,169,43*77
2018-01-11 20:03:58 1515719038.701546: $GPGSV,3,2,11,16,25,058,45,23,32,190,45,27,50,055,51,28,12,256,36*74
2018-01-11 20:03:58 1515719038.701612: $GPGSV,3,3,11,30,26,304,30,26,01,070,22,138,38,213,45*78
2018-01-11 20:03:58 1515719038.814699: $GPZDA,010359.00,12,01,2018,00,00*61
2018-01-11 20:03:58 1515719038.814822: $GPGGA,010359,3946.9595,N,08404.9829,W,2,11,0.80,295.94,M,-33.324,M,,*74
2018-01-11 20:03:58 1515719038.814887: $GPRMC,010359,A,3946.9595,N,08404.9829,W,0.0000,0.000,120118,,*30
2018-01-11 20:03:58 1515719038.814950: $GPGSA,A,3,7,8,9,11,16,23,27,28,30,26,138,,4.0,0.8,3.5*3A
2018-01-11 20:03:59 1515719039.364646: $GPZDA,010400.00,12,01,2018,00,00*6A
2018-01-11 20:03:59 1515719039.364834: $GPGGA,010400,3946.9595,N,08404.9829,W,2,11,0.80,295.94,M,-33.324,M,,*7F
2018-01-11 20:03:59 1515719039.364903: $GPRMC,010400,A,3946.9595,N,08404.9829,W,0.0000,0.000,120118,,*3B
2018-01-11 20:03:59 1515719039.364966: $GPGSA,A,3,7,8,9,11,16,23,27,28,30,26,138,,4.0,0.8,3.5*3A
2018-01-11 20:04:00 1515719040.365498: $GPZDA,010401.00,12,01,2018,00,00*6B
2018-01-11 20:04:00 1515719040.365674: $GPGGA,010401,3946.9595,N,08404.9829,W,2,11,0.80,295.94,M,-33.324,M,,*7E
2018-01-11 20:04:00 1515719040.365741: $GPRMC,010401,A,3946.9595,N,08404.9829,W,0.0000,0.000,120118,,*3A
2018-01-11 20:04:00 1515719040.365804: $GPGSA,A,3,7,8,9,11,16,23,27,28,30,26,138,,4.0,0.8,3.5*3A
