2017-11-16 13:52:16 1510858336.930671: {"class":"VERSION","release":"3.17","rev":"3.17","proto_major":3,"proto_minor":12}
2017-11-16 13:52:16 1510858336.931616: {"class":"DEVICES","devices":[{"class":"DEVICE","path":"/dev/ttyUSB0","driver":"SiRF","subtype":"9\u0006GSD4e_4.1.2-P1_RPATCH.05-F-GPS-4R-1510281 11/03/2015 307","activated":"2017-11-16T18:52:16.863Z","flags":1,"native":1,"bps":4800,"parity":"N","stopbits":1,"cycle":1.00}]}
2017-11-16 13:52:16 1510858336.931805: {"class":"WATCH","enable":true,"json":false,"nmea":true,"raw":0,"scaled":false,"timing":false,"split24":false,"pps":false}
2017-11-16 13:52:17 1510858337.451081: $GPZDA,185216.00,16,11,2017,00,00*6C
2017-11-16 13:52:17 1510858337.451282: $GPGGA,185216,3946.9608,N,08404.9827,W,2,11,0.80,307.13,M,-33.324,M,,*7F
2017-11-16 13:52:17 1510858337.451364: $GPRMC,185216,A,3946.9608,N,08404.9827,W,0.0000,0.000,161117,,*34
2017-11-16 13:52:17 1510858337.451422: $GPGSA,A,3,10,13,15,18,20,21,24,27,32,8,138,,1.6,0.8,1.3*30
2017-11-16 13:52:18 1510858338.349464: $GPZDA,185217.00,16,11,2017,00,00*6D
2017-11-16 13:52:18 1510858338.349632: $GPGGA,185217,3946.9608,N,08404.9827,W,2,11,0.80,307.13,M,-33.324,M,,*7E
2017-11-16 13:52:18 1510858338.349695: $GPRMC,185217,A,3946.9608,N,08404.9827,W,0.0000,0.000,161117,,*35
2017-11-16 13:52:18 1510858338.349752: $GPGSA,A,3,10,13,15,18,20,21,24,27,32,8,138,,1.6,0.8,1.3*30
2017-11-16 13:52:19 1510858339.712870: $GPGSV,3,1,11,10,34,294,40,13,16,046,46,15,47,049,51,18,64,318,48*70
2017-11-16 13:52:19 1510858339.713051: $GPGSV,3,2,11,20,40,087,48,21,73,205,47,24,45,124,45,27,19,300,33*71
2017-11-16 13:52:19 1510858339.713115: $GPGSV,3,3,11,32,12,232,32,08,02,328,00,138,38,213,44*7B
2017-11-16 13:52:19 1510858339.826198: $GPZDA,185218.00,16,11,2017,00,00*62
2017-11-16 13:52:19 1510858339.826375: $GPGGA,185218,3946.9608,N,08404.9827,W,2,10,0.80,307.13,M,-33.324,M,,*70
2017-11-16 13:52:19 1510858339.826439: $GPRMC,185218,A,3946.9608,N,08404.9827,W,0.0000,0.000,161117,,*3A
2017-11-16 13:52:19 1510858339.826499: $GPGSA,A,3,10,13,15,18,20,21,24,27,32,138,,,1.6,0.8,1.3*08
2017-11-16 13:52:20 1510858340.369610: $GPZDA,185219.00,16,11,2017,00,00*63
2017-11-16 13:52:20 1510858340.369775: $GPGGA,185219,3946.9608,N,08404.9827,W,2,10,0.80,307.13,M,-33.324,M,,*71
2017-11-16 13:52:20 1510858340.369838: $GPRMC,185219,A,3946.9608,N,08404.9827,W,0.0000,0.000,161117,,*3B
2017-11-16 13:52:20 1510858340.369896: $GPGSA,A,3,10,13,15,18,20,21,24,27,32,138,,,1.6,0.8,1.3*08
2017-11-16 13:52:21 1510858341.349293: $GPZDA,185220.00,16,11,2017,00,00*69
2017-11-16 13:52:21 1510858341.349466: $GPGGA,185220,3946.9608,N,08404.9827,W,2,10,0.80,307.13,M,-33.324,M,,*7B
2017-11-16 13:52:21 1510858341.349530: $GPRMC,185220,A,3946.9608,N,08404.9827,W,0.0000,0.000,161117,,*31
2017-11-16 13:52:21 1510858341.349588: $GPGSA,A,3,10,13,15,18,20,21,24,27,32,138,,,1.6,0.8,1.3*08
2017-11-16 13:52:22 1510858342.710982: $GPGSV,3,1,11,10,34,294,40,13,16,046,46,15,47,049,51,18,64,318,48*70
2017-11-16 13:52:22 1510858342.711162: $GPGSV,3,2,11,20,40,087,48,21,73,205,47,24,45,124,45,27,19,300,36*74
2017-11-16 13:52:22 1510858342.711247: $GPGSV,3,3,11,32,12,232,32,08,02,328,00,138,38,213,43*7C
2017-11-16 13:52:22 1510858342.824280: $GPZDA,185221.00,16,11,2017,00,00*68
2017-11-16 13:52:22 1510858342.824434: $GPGGA,185221,3946.9608,N,08404.9827,W,2,10,0.80,307.13,M,-33.324,M,,*7A
2017-11-16 13:52:22 1510858342.824498: $GPRMC,185221,A,3946.9608,N,08404.9827,W,0.0000,0.000,161117,,*30
2017-11-16 13:52:22 1510858342.824557: $GPGSA,A,3,10,13,15,18,20,21,24,27,32,138,,,1.6,0.8,1.3*08
2017-11-16 13:52:23 1510858343.351608: $GPZDA,185222.00,16,11,2017,00,00*6B
2017-11-16 13:52:23 1510858343.351772: $GPGGA,185222,3946.9608,N,08404.9827,W,2,10,0.80,307.13,M,-33.324,M,,*79
2017-11-16 13:52:23 1510858343.351836: $GPRMC,185222,A,3946.9608,N,08404.9827,W,0.0000,0.000,161117,,*33
2017-11-16 13:52:23 1510858343.351894: $GPGSA,A,3,10,13,15,18,20,21,24,27,32,138,,,1.6,0.8,1.3*08
2017-11-16 13:52:24 1510858344.376208: $GPZDA,185223.00,16,11,2017,00,00*6A
2017-11-16 13:52:24 1510858344.376396: $GPGGA,185223,3946.9608,N,08404.9827,W,2,10,0.80,307.13,M,-33.324,M,,*78
2017-11-16 13:52:24 1510858344.376536: $GPRMC,185223,A,3946.9608,N,08404.9827,W,0.0000,0.000,161117,,*32
2017-11-16 13:52:24 1510858344.376596: $GPGSA,A,3,10,13,15,18,20,21,24,27,32,138,,,1.6,0.8,1.3*08
2017-11-16 13:52:25 1510858345.712074: $GPGSV,3,1,11,10,34,294,39,13,16,046,46,15,47,049,51,18,64,318,48*7E
2017-11-16 13:52:25 1510858345.712242: $GPGSV,3,2,11,20,40,087,47,21,73,205,47,24,45,124,45,27,19,300,36*7B
2017-11-16 13:52:25 1510858345.712302: $GPGSV,3,3,11,32,12,232,32,08,02,328,22,138,38,213,43*7C
2017-11-16 13:52:25 1510858345.825643: $GPZDA,185224.00,16,11,2017,00,00*6D
2017-11-16 13:52:25 1510858345.825812: $GPGGA,185224,3946.9608,N,08404.9827,W,2,11,0.80,307.13,M,-33.324,M,,*7E
2017-11-16 13:52:25 1510858345.825873: $GPRMC,185224,A,3946.9608,N,08404.9827,W,0.0000,0.000,161117,,*35
2017-11-16 13:52:25 1510858345.825929: $GPGSA,A,3,10,13,15,18,20,21,24,27,32,8,138,,1.6,0.8,1.3*30
2017-11-16 13:52:26 1510858346.350046: $GPZDA,185225.00,16,11,2017,00,00*6C
2017-11-16 13:52:26 1510858346.350210: $GPGGA,185225,3946.9608,N,08404.9827,W,2,11,0.80,307.13,M,-33.324,M,,*7F
2017-11-16 13:52:26 1510858346.350272: $GPRMC,185225,A,3946.9608,N,08404.9827,W,0.0000,0.000,161117,,*34
2017-11-16 13:52:26 1510858346.350395: $GPGSA,A,3,10,13,15,18,20,21,24,27,32,8,138,,1.6,0.8,1.3*30
