2017-12-14 12:43:37 1513273417.681845: {"class":"VERSION","release":"3.16","rev":"3.16-4","proto_major":3,"proto_minor":11}
2017-12-14 12:43:37 1513273417.682250: {"class":"DEVICES","devices":[{"class":"DEVICE","path":"/dev/ttyUSB0","driver":"SiRF","subtype":"9\u0006GSD4e_4.1.2-P1_RPATCH.05-F-GPS-4R-1510281 11/03/2015 307","activated":"2017-12-14T17:43:37.321Z","flags":1,"native":1,"bps":4800,"parity":"N","stopbits":1,"cycle":1.00}]}
2017-12-14 12:43:37 1513273417.682370: {"class":"WATCH","enable":true,"json":false,"nmea":true,"raw":0,"scaled":false,"timing":false,"split24":false,"pps":false}
2017-12-14 12:43:38 1513273418.610866: $GPRMC,174339,V,18000.0000,N,00000.0000,W,0.0000,0.000,141217,,*1A
2017-12-14 12:43:38 1513273418.611019: $GPGSA,A,1,18,20,24,27,32,10,21,,,,,,,,,*39
2017-12-14 12:43:39 1513273419.566733: $GPRMC,174340,V,3946.9480,N,08404.9377,W,0.0000,0.000,141217,,*22
2017-12-14 12:43:39 1513273419.566907: $GPGSA,A,1,18,20,24,27,32,10,21,,,,,,,,,*39
2017-12-14 12:43:40 1513273420.157735: $GPGSV,3,1,10,21,50,183,15,15,27,057,05,18,77,015,06,20,25,105,06*78
2017-12-14 12:43:40 1513273420.157926: $GPGSV,3,2,10,24,53,090,08,27,16,277,06,32,30,246,07,10,51,310,00*7C
2017-12-14 12:43:40 1513273420.158012: $GPGSV,3,3,10,14,13,238,00,08,08,313,00*77
2017-12-14 12:43:40 1513273420.270100: $GPRMC,174340,V,3946.9472,N,08404.9370,W,0.1628,142.011,141217,,*22
2017-12-14 12:43:40 1513273420.270265: $GPGSA,A,1,21,15,18,20,24,27,32,,,,,,,,,*3C
2017-12-14 12:43:40 1513273420.801332: $GPZDA,174341.30,14,12,2017,00,00*63
2017-12-14 12:43:40 1513273420.801502: $GPGGA,174341,3946.9489,N,08404.9384,W,1,07,2.40,328.79,M,-33.324,M,,*70
2017-12-14 12:43:40 1513273420.801600: $GPRMC,174341,A,3946.9489,N,08404.9384,W,1.1097,33.261,141217,,*0A
2017-12-14 12:43:40 1513273420.801663: $GPGSA,A,3,21,15,18,20,24,27,32,,,,,,6.6,2.4,6.2*3E
2017-12-14 12:43:40 1513273420.801738: $GPGBS,174341,24.66,M,21.80,M,143.40,M*35
2017-12-14 12:43:41 1513273421.055171: $GPZDA,174341.60,14,12,2017,00,00*66
2017-12-14 12:43:41 1513273421.055338: $GPGGA,174341,3946.9489,N,08404.9384,W,1,07,2.40,328.79,M,-33.324,M,,*70
2017-12-14 12:43:41 1513273421.055405: $GPRMC,174341,A,3946.9489,N,08404.9384,W,0.1867,180.000,141217,,*30
2017-12-14 12:43:41 1513273421.055466: $GPGSA,A,3,21,15,18,20,24,27,32,,,,,,6.6,2.4,6.2*3E
2017-12-14 12:43:41 1513273421.055565: $GPGBS,174341,24.66,M,21.80,M,143.40,M*35
2017-12-14 12:43:41 1513273421.819757: $GPGSV,3,1,11,21,50,183,24,10,51,310,00,18,77,015,19,20,25,105,19*7A
2017-12-14 12:43:41 1513273421.819931: $GPGSV,3,2,11,24,53,090,28,27,16,277,20,32,30,246,22,15,27,057,00*78
2017-12-14 12:43:41 1513273421.819995: $GPGSV,3,3,11,14,13,238,00,08,08,312,00,138,38,213,00*76
2017-12-14 12:43:41 1513273421.933051: $GPZDA,174342.00,14,12,2017,00,00*63
2017-12-14 12:43:41 1513273421.933206: $GPGGA,174342,3946.9494,N,08404.9391,W,1,06,2.40,329.35,M,-33.324,M,,*73
2017-12-14 12:43:41 1513273421.933272: $GPRMC,174342,A,3946.9494,N,08404.9391,W,0.5121,307.149,141217,,*35
2017-12-14 12:43:41 1513273421.933333: $GPGSA,A,3,21,18,20,24,27,32,,,,,,,6.6,2.4,6.2*3A
2017-12-14 12:43:42 1513273422.237138: $GPZDA,174343.00,14,12,2017,00,00*62
2017-12-14 12:43:42 1513273422.237308: $GPGGA,174343,3946.9497,N,08404.9391,W,1,06,2.40,328.58,M,-33.324,M,,*7B
2017-12-14 12:43:42 1513273422.237374: $GPRMC,174343,A,3946.9497,N,08404.9391,W,1.1685,354.282,141217,,*39
2017-12-14 12:43:42 1513273422.237436: $GPGSA,A,3,21,18,20,24,27,32,,,,,,,6.6,2.4,6.2*3A
2017-12-14 12:43:43 1513273423.237140: $GPZDA,174344.00,14,12,2017,00,00*65
2017-12-14 12:43:43 1513273423.237312: $GPGGA,174344,3946.9500,N,08404.9390,W,1,06,2.40,327.82,M,-33.324,M,,*7A
2017-12-14 12:43:43 1513273423.237378: $GPRMC,174344,A,3946.9500,N,08404.9390,W,1.1941,343.804,141217,,*35
2017-12-14 12:43:43 1513273423.237440: $GPGSA,A,3,21,18,20,24,27,32,,,,,,,6.6,2.4,6.2*3A
2017-12-14 12:43:44 1513273424.571893: $GPGSV,3,1,11,21,50,183,25,10,51,310,00,18,77,015,19,20,25,105,19*7B
2017-12-14 12:43:44 1513273424.572120: $GPGSV,3,2,11,24,53,090,28,27,16,277,20,32,30,246,23,15,27,057,00*79
2017-12-14 12:43:44 1513273424.572250: $GPGSV,3,3,11,14,13,238,00,08,08,312,00,138,38,213,00*76
2017-12-14 12:43:44 1513273424.685684: $GPZDA,174345.00,14,12,2017,00,00*64
2017-12-14 12:43:44 1513273424.685857: $GPGGA,174345,3946.9508,N,08404.9389,W,1,06,2.40,327.69,M,-33.324,M,,*7E
2017-12-14 12:43:44 1513273424.685928: $GPRMC,174345,A,3946.9508,N,08404.9389,W,0.8813,336.025,141217,,*33
2017-12-14 12:43:44 1513273424.685989: $GPGSA,A,3,21,18,20,24,27,32,,,,,,,6.6,2.4,6.2*3A
2017-12-14 12:43:45 1513273425.237165: $GPZDA,174346.00,14,12,2017,00,00*67
2017-12-14 12:43:45 1513273425.237342: $GPGGA,174346,3946.9511,N,08404.9388,W,1,06,2.40,326.93,M,-33.324,M,,*70
2017-12-14 12:43:45 1513273425.237431: $GPRMC,174346,A,3946.9511,N,08404.9388,W,0.9925,23.262,141217,,*0A
2017-12-14 12:43:45 1513273425.237494: $GPGSA,A,3,21,18,20,24,27,32,,,,,,,6.6,2.4,6.2*3A
2017-12-14 12:43:46 1513273426.235352: $GPZDA,174347.00,14,12,2017,00,00*66
2017-12-14 12:43:46 1513273426.235515: $GPGGA,174347,3946.9515,N,08404.9388,W,1,06,2.40,326.16,M,-33.324,M,,*78
2017-12-14 12:43:46 1513273426.235585: $GPRMC,174347,A,3946.9515,N,08404.9388,W,1.3100,6.589,141217,,*3E
2017-12-14 12:43:46 1513273426.235646: $GPGSA,A,3,21,18,20,24,27,32,,,,,,,6.6,2.4,6.2*3A
2017-12-14 12:43:47 1513273427.575088: $GPGSV,3,1,11,21,50,183,25,15,27,057,02,18,77,015,19,20,25,105,19*7D
2017-12-14 12:43:47 1513273427.575284: $GPGSV,3,2,11,24,53,090,29,27,16,277,19,32,30,246,23,10,51,310,00*76
2017-12-14 12:43:47 1513273427.575353: $GPGSV,3,3,11,14,13,238,00,08,08,312,00,138,38,213,00*76
2017-12-14 12:43:47 1513273427.688345: $GPZDA,174348.00,14,12,2017,00,00*69
2017-12-14 12:43:47 1513273427.688509: $GPGGA,174348,3946.9518,N,08404.9387,W,1,06,2.40,325.40,M,-33.324,M,,*75
2017-12-14 12:43:47 1513273427.688579: $GPRMC,174348,A,3946.9518,N,08404.9387,W,0.9681,7.434,141217,,*30
2017-12-14 12:43:47 1513273427.688639: $GPGSA,A,3,21,18,20,24,27,32,,,,,,,6.6,2.4,6.2*3A
2017-12-14 12:43:48 1513273428.237364: $GPZDA,174349.00,14,12,2017,00,00*68
2017-12-14 12:43:48 1513273428.237536: $GPGGA,174349,3946.9522,N,08404.9386,W,1,06,2.40,324.64,M,-33.324,M,,*7B
2017-12-14 12:43:48 1513273428.237609: $GPRMC,174349,A,3946.9522,N,08404.9386,W,1.1175,49.542,141217,,*06
2017-12-14 12:43:48 1513273428.237674: $GPGSA,A,3,21,18,20,24,27,32,,,,,,,6.6,2.4,6.2*3A
2017-12-14 12:43:49 1513273429.234946: $GPZDA,174350.00,14,12,2017,00,00*60
2017-12-14 12:43:49 1513273429.235130: $GPGGA,174350,3946.9525,N,08404.9385,W,1,06,2.40,323.87,M,-33.324,M,,*7D
2017-12-14 12:43:49 1513273429.235204: $GPRMC,174350,A,3946.9525,N,08404.9385,W,0.8414,25.855,141217,,*01
2017-12-14 12:43:49 1513273429.235270: $GPGSA,A,3,21,18,20,24,27,32,,,,,,,6.6,2.4,6.2*3A
2017-12-14 12:43:50 1513273430.571172: $GPGSV,3,1,11,21,50,183,25,10,51,310,00,18,77,015,19,20,25,105,19*7B
2017-12-14 12:43:50 1513273430.571359: $GPGSV,3,2,11,24,53,090,29,27,16,277,20,32,30,246,23,15,27,057,00*78
2017-12-14 12:43:50 1513273430.571426: $GPGSV,3,3,11,14,13,238,00,08,08,312,00,138,38,213,00*76
2017-12-14 12:43:50 1513273430.684494: $GPZDA,174351.00,14,12,2017,00,00*61
2017-12-14 12:43:50 1513273430.684634: $GPGGA,174351,3946.9536,N,08404.9384,W,1,06,2.40,322.98,M,-33.324,M,,*70
2017-12-14 12:43:50 1513273430.684700: $GPRMC,174351,A,3946.9536,N,08404.9384,W,0.9925,23.262,141217,,*05
2017-12-14 12:43:50 1513273430.684760: $GPGSA,A,3,21,18,20,24,27,32,,,,,,,6.6,2.4,6.2*3A
2017-12-14 12:43:51 1513273431.236711: $GPZDA,174352.00,14,12,2017,00,00*62
2017-12-14 12:43:51 1513273431.236874: $GPGGA,174352,3946.9540,N,08404.9383,W,1,06,2.40,322.22,M,-33.324,M,,*74
2017-12-14 12:43:51 1513273431.236938: $GPRMC,174352,A,3946.9540,N,08404.9383,W,0.9681,7.434,141217,,*32
2017-12-14 12:43:51 1513273431.236999: $GPGSA,A,3,21,18,20,24,27,32,,,,,,,6.6,2.4,6.2*3A
2017-12-14 12:43:52 1513273432.235536: $GPZDA,174353.00,14,12,2017,00,00*63
2017-12-14 12:43:52 1513273432.235721: $GPGGA,174353,3946.9543,N,08404.9383,W,1,06,2.40,321.45,M,-33.324,M,,*74
2017-12-14 12:43:52 1513273432.235788: $GPRMC,174353,A,3946.9543,N,08404.9383,W,0.8334,350.226,141217,,*3E
2017-12-14 12:43:52 1513273432.235900: $GPGSA,A,3,21,18,20,24,27,32,,,,,,,6.6,2.4,6.2*3A
2017-12-14 12:43:53 1513273433.572992: $GPGSV,3,1,11,21,50,183,25,15,27,057,06,18,77,015,18,20,25,105,19*78
2017-12-14 12:43:53 1513273433.573167: $GPGSV,3,2,11,24,53,090,29,27,16,277,19,32,30,246,23,10,51,310,00*76
2017-12-14 12:43:53 1513273433.573232: $GPGSV,3,3,11,14,13,238,00,08,08,312,00,138,38,213,00*76
2017-12-14 12:43:53 1513273433.686445: $GPZDA,174354.00,14,12,2017,00,00*64
2017-12-14 12:43:53 1513273433.686630: $GPGGA,174354,3946.9550,N,08404.9381,W,1,07,2.40,319.92,M,-33.324,M,,*73
2017-12-14 12:43:53 1513273433.686699: $GPRMC,174354,A,3946.9550,N,08404.9381,W,1.0128,21.243,141217,,*09
2017-12-14 12:43:53 1513273433.686759: $GPGSA,A,3,21,15,18,20,24,27,32,,,,,,6.6,2.4,6.2*3E
2017-12-14 12:43:54 1513273434.236491: $GPZDA,174355.00,14,12,2017,00,00*65
2017-12-14 12:43:54 1513273434.236667: $GPGGA,174355,3946.9553,N,08404.9380,W,1,07,2.40,319.16,M,-33.324,M,,*7C
2017-12-14 12:43:54 1513273434.236752: $GPRMC,174355,A,3946.9553,N,08404.9380,W,1.1535,6.234,141217,,*36
2017-12-14 12:43:54 1513273434.236815: $GPGSA,A,3,21,15,18,20,24,27,32,,,,,,6.6,2.4,6.2*3E
2017-12-14 12:43:55 1513273435.235374: $GPZDA,174356.00,14,12,2017,00,00*66
2017-12-14 12:43:55 1513273435.235532: $GPGGA,174356,3946.9561,N,08404.9380,W,1,07,2.40,319.04,M,-33.324,M,,*7D
2017-12-14 12:43:55 1513273435.235597: $GPRMC,174356,A,3946.9561,N,08404.9380,W,1.2700,342.440,141217,,*35
2017-12-14 12:43:55 1513273435.235658: $GPGSA,A,3,21,15,18,20,24,27,32,,,,,,6.6,2.4,6.2*3E
2017-12-14 12:43:56 1513273436.573534: $GPGSV,3,1,11,21,50,183,24,15,27,057,06,18,77,015,18,20,25,105,20*73
2017-12-14 12:43:56 1513273436.573718: $GPGSV,3,2,11,24,53,090,29,27,16,277,19,32,30,246,23,10,51,310,00*76
2017-12-14 12:43:56 1513273436.573783: $GPGSV,3,3,11,14,13,238,00,08,08,312,00,138,38,213,00*76
2017-12-14 12:43:56 1513273436.686877: $GPZDA,174357.00,14,12,2017,00,00*67
2017-12-14 12:43:56 1513273436.687036: $GPGGA,174357,3946.9564,N,08404.9379,W,1,07,2.40,318.27,M,-33.324,M,,*7F
2017-12-14 12:43:56 1513273436.687100: $GPRMC,174357,A,3946.9564,N,08404.9379,W,0.9605,334.850,141217,,*35
2017-12-14 12:43:56 1513273436.687161: $GPGSA,A,3,21,15,18,20,24,27,32,,,,,,6.6,2.4,6.2*3E
2017-12-14 12:43:57 1513273437.235802: $GPZDA,174358.00,14,12,2017,00,00*68
2017-12-14 12:43:57 1513273437.235969: $GPGGA,174358,3946.9572,N,08404.9385,W,1,07,2.40,318.07,M,-33.324,M,,*76
2017-12-14 12:43:57 1513273437.236035: $GPRMC,174358,A,3946.9572,N,08404.9385,W,1.0934,339.487,141217,,*30
2017-12-14 12:43:57 1513273437.236095: $GPGSA,A,3,21,15,18,20,24,27,32,,,,,,6.6,2.4,6.2*3E
