2018-01-12 04:20:32 1515748832.318450: {"class":"VERSION","release":"3.16","rev":"3.16-4","proto_major":3,"proto_minor":11}
2018-01-12 04:20:32 1515748832.318886: {"class":"DEVICES","devices":[{"class":"DEVICE","path":"/dev/ttyUSB0","driver":"SiRF","subtype":"9\u0006GSD4e_4.1.2-P1_RPATCH.05-F-GPS-4R-1510281 11/03/2015 307","activated":"2018-01-12T09:20:32.294Z","flags":1,"native":1,"bps":4800,"parity":"N","stopbits":1,"cycle":1.00}]}
2018-01-12 04:20:32 1515748832.319010: {"class":"WATCH","enable":true,"json":false,"nmea":true,"raw":0,"scaled":false,"timing":false,"split24":false,"pps":false}
2018-01-12 04:20:32 1515748832.407177: $GPZDA,092033.00,12,01,2018,00,00*64
2018-01-12 04:20:32 1515748832.407343: $GPGGA,092033,3946.9651,N,08404.9722,W,2,11,0.80,289.67,M,-33.324,M,,*7F
2018-01-12 04:20:32 1515748832.407410: $GPRMC,092033,A,3946.9651,N,08404.9722,W,0.0000,0.000,120118,,*3A
2018-01-12 04:20:32 1515748832.407471: $GPGSA,A,3,2,5,6,12,25,29,9,17,19,23,138,,2.4,0.8,2.1*0D
2018-01-12 04:20:33 1515748833.747937: $GPGSV,3,1,12,02,71,343,45,05,49,198,49,06,47,054,44,12,52,252,50*7C
2018-01-12 04:20:33 1515748833.748127: $GPGSV,3,2,12,25,32,301,42,29,10,307,45,09,19,067,18,17,15,120,21*7D
2018-01-12 04:20:33 1515748833.748195: $GPGSV,3,3,12,19,32,114,25,23,06,037,20,04,54,283,00,138,38,213,48*40
2018-01-12 04:20:33 1515748833.861708: $GPZDA,092034.00,12,01,2018,00,00*63
2018-01-12 04:20:33 1515748833.861892: $GPGGA,092034,3946.9651,N,08404.9722,W,2,11,0.80,289.67,M,-33.324,M,,*78
2018-01-12 04:20:33 1515748833.861963: $GPRMC,092034,A,3946.9651,N,08404.9722,W,0.0000,0.000,120118,,*3D
2018-01-12 04:20:33 1515748833.862025: $GPGSA,A,3,2,5,6,12,25,29,9,17,19,23,138,,2.4,0.8,2.1*0D
2018-01-12 04:20:34 1515748834.486619: $GPZDA,092035.00,12,01,2018,00,00*62
2018-01-12 04:20:34 1515748834.486801: $GPGGA,092035,3946.9651,N,08404.9722,W,2,11,0.80,289.67,M,-33.324,M,,*79
2018-01-12 04:20:34 1515748834.486870: $GPRMC,092035,A,3946.9651,N,08404.9722,W,0.0000,0.000,120118,,*3C
2018-01-12 04:20:34 1515748834.486934: $GPGSA,A,3,2,5,6,12,25,29,9,17,19,23,138,,2.4,0.8,2.1*0D
2018-01-12 04:20:35 1515748835.412651: $GPZDA,092036.00,12,01,2018,00,00*61
2018-01-12 04:20:35 1515748835.412824: $GPGGA,092036,3946.9651,N,08404.9722,W,2,11,0.80,289.67,M,-33.324,M,,*7A
2018-01-12 04:20:35 1515748835.412891: $GPRMC,092036,A,3946.9651,N,08404.9722,W,0.0000,0.000,120118,,*3F
2018-01-12 04:20:35 1515748835.412955: $GPGSA,A,3,2,5,6,12,25,29,9,17,19,23,138,,2.4,0.8,2.1*0D
2018-01-12 04:20:36 1515748836.743246: $GPGSV,3,1,12,02,71,343,45,05,49,198,49,06,47,054,44,12,52,252,50*7C
2018-01-12 04:20:36 1515748836.743431: $GPGSV,3,2,12,25,32,301,42,29,10,307,45,09,19,067,17,17,15,120,20*73
2018-01-12 04:20:36 1515748836.743498: $GPGSV,3,3,12,19,32,114,25,23,06,037,20,04,54,283,00,138,38,213,47*4F
2018-01-12 04:20:36 1515748836.856618: $GPZDA,092037.00,12,01,2018,00,00*60
2018-01-12 04:20:36 1515748836.856806: $GPGGA,092037,3946.9651,N,08404.9722,W,2,11,0.80,289.67,M,-33.324,M,,*7B
2018-01-12 04:20:36 1515748836.856874: $GPRMC,092037,A,3946.9651,N,08404.9722,W,0.0000,0.000,120118,,*3E
2018-01-12 04:20:36 1515748836.856941: $GPGSA,A,3,2,5,6,12,25,29,9,17,19,23,138,,2.4,0.8,2.1*0D
2018-01-12 04:20:37 1515748837.407477: $GPZDA,092038.00,12,01,2018,00,00*6F
2018-01-12 04:20:37 1515748837.407658: $GPGGA,092038,3946.9651,N,08404.9722,W,2,11,0.80,289.67,M,-33.324,M,,*74
2018-01-12 04:20:37 1515748837.407725: $GPRMC,092038,A,3946.9651,N,08404.9722,W,0.0000,0.000,120118,,*31
2018-01-12 04:20:37 1515748837.407789: $GPGSA,A,3,2,5,6,12,25,29,9,17,19,23,138,,2.4,0.8,2.1*0D
2018-01-12 04:20:38 1515748838.412187: $GPZDA,092039.00,12,01,2018,00,00*6E
2018-01-12 04:20:38 1515748838.412356: $GPGGA,092039,3946.9651,N,08404.9722,W,2,11,0.80,289.67,M,-33.324,M,,*75
2018-01-12 04:20:38 1515748838.412422: $GPRMC,092039,A,3946.9651,N,08404.9722,W,0.0000,0.000,120118,,*30
2018-01-12 04:20:38 1515748838.412483: $GPGSA,A,3,2,5,6,12,25,29,9,17,19,23,138,,2.4,0.8,2.1*0D
2018-01-12 04:20:39 1515748839.749868: $GPGSV,3,1,12,02,71,343,45,05,49,198,49,06,47,054,44,12,52,252,50*7C
2018-01-12 04:20:39 1515748839.750124: $GPGSV,3,2,12,25,32,301,42,29,10,307,45,09,19,067,18,17,15,120,20*7C
2018-01-12 04:20:39 1515748839.750194: $GPGSV,3,3,12,19,32,114,25,23,06,037,20,04,54,283,00,138,38,213,48*40
2018-01-12 04:20:39 1515748839.863543: $GPZDA,092040.00,12,01,2018,00,00*60
2018-01-12 04:20:39 1515748839.863715: $GPGGA,092040,3946.9651,N,08404.9722,W,2,11,0.80,289.67,M,-33.324,M,,*7B
2018-01-12 04:20:39 1515748839.863782: $GPRMC,092040,A,3946.9651,N,08404.9722,W,0.0000,0.000,120118,,*3E
2018-01-12 04:20:39 1515748839.863843: $GPGSA,A,3,2,5,6,12,25,29,9,17,19,23,138,,2.4,0.8,2.1*0D
2018-01-12 04:20:40 1515748840.413173: $GPZDA,092041.00,12,01,2018,00,00*61
2018-01-12 04:20:40 1515748840.413357: $GPGGA,092041,3946.9655,N,08404.9722,W,2,11,0.80,290.31,M,-33.324,M,,*75
2018-01-12 04:20:40 1515748840.413424: $GPRMC,092041,A,3946.9655,N,08404.9722,W,0.0000,0.000,120118,,*3B
2018-01-12 04:20:40 1515748840.413485: $GPGSA,A,3,2,5,6,12,25,29,9,17,19,23,138,,2.4,0.8,2.1*0D
2018-01-12 04:20:41 1515748841.418729: $GPZDA,092042.00,12,01,2018,00,00*62
2018-01-12 04:20:41 1515748841.418926: $GPGGA,092042,3946.9655,N,08404.9722,W,2,11,0.80,290.31,M,-33.324,M,,*76
2018-01-12 04:20:41 1515748841.418996: $GPRMC,092042,A,3946.9655,N,08404.9722,W,0.0000,0.000,120118,,*38
2018-01-12 04:20:41 1515748841.419083: $GPGSA,A,3,2,5,6,12,25,29,9,17,19,23,138,,2.4,0.8,2.1*0D
2018-01-12 04:20:42 1515748842.749567: $GPGSV,3,1,12,02,71,343,45,05,49,198,49,06,47,054,43,12,52,252,50*7B
2018-01-12 04:20:42 1515748842.749777: $GPGSV,3,2,12,25,32,301,42,29,10,307,46,09,19,067,19,17,15,120,16*7B
2018-01-12 04:20:42 1515748842.749843: $GPGSV,3,3,12,19,32,114,25,23,06,037,20,04,54,283,00,138,38,213,47*4F
2018-01-12 04:20:42 1515748842.862838: $GPZDA,092043.00,12,01,2018,00,00*63
2018-01-12 04:20:42 1515748842.863049: $GPGGA,092043,3946.9655,N,08404.9722,W,2,11,1.00,290.31,M,-33.324,M,,*7E
2018-01-12 04:20:42 1515748842.863117: $GPRMC,092043,A,3946.9655,N,08404.9722,W,0.0000,0.000,120118,,*39
2018-01-12 04:20:42 1515748842.863178: $GPGSA,A,3,2,5,6,12,25,29,9,17,19,23,138,,2.4,1.0,2.1*04
2018-01-12 04:20:43 1515748843.411229: $GPZDA,092044.00,12,01,2018,00,00*64
2018-01-12 04:20:43 1515748843.411399: $GPGGA,092044,3946.9655,N,08404.9722,W,2,11,1.00,290.31,M,-33.324,M,,*79
2018-01-12 04:20:43 1515748843.411466: $GPRMC,092044,A,3946.9655,N,08404.9722,W,0.0000,0.000,120118,,*3E
2018-01-12 04:20:43 1515748843.411528: $GPGSA,A,3,2,5,6,12,25,29,9,17,19,23,138,,2.4,1.0,2.1*04
2018-01-12 04:20:44 1515748844.406943: $GPZDA,092045.00,12,01,2018,00,00*65
2018-01-12 04:20:44 1515748844.407133: $GPGGA,092045,3946.9655,N,08404.9722,W,2,11,0.80,290.31,M,-33.324,M,,*71
2018-01-12 04:20:44 1515748844.407224: $GPRMC,092045,A,3946.9655,N,08404.9722,W,0.0000,0.000,120118,,*3F
2018-01-12 04:20:44 1515748844.407299: $GPGSA,A,3,2,5,6,12,25,29,9,17,19,23,138,,2.4,0.8,2.1*0D
2018-01-12 04:20:45 1515748845.748711: $GPGSV,3,1,12,02,71,343,45,05,49,198,49,06,47,054,43,12,52,252,50*7B
2018-01-12 04:20:45 1515748845.748931: $GPGSV,3,2,12,25,32,301,42,29,10,307,46,09,19,067,00,17,15,120,16*73
2018-01-12 04:20:45 1515748845.748998: $GPGSV,3,3,12,19,32,114,20,23,06,037,19,04,54,283,00,138,38,213,47*40
2018-01-12 04:20:45 1515748845.861940: $GPZDA,092046.00,12,01,2018,00,00*66
2018-01-12 04:20:45 1515748845.862125: $GPGGA,092046,3946.9651,N,08404.9715,W,2,10,1.00,289.75,M,-33.324,M,,*72
2018-01-12 04:20:45 1515748845.862194: $GPRMC,092046,A,3946.9651,N,08404.9715,W,0.0000,0.000,120118,,*3C
2018-01-12 04:20:45 1515748845.862256: $GPGSA,A,3,2,5,6,12,25,29,17,19,23,138,,,2.4,1.0,2.1*3D
2018-01-12 04:20:46 1515748846.412801: $GPZDA,092047.00,12,01,2018,00,00*67
2018-01-12 04:20:46 1515748846.412970: $GPGGA,092047,3946.9651,N,08404.9715,W,2,10,1.00,289.75,M,-33.324,M,,*73
2018-01-12 04:20:46 1515748846.413038: $GPRMC,092047,A,3946.9651,N,08404.9715,W,0.0000,0.000,120118,,*3D
2018-01-12 04:20:46 1515748846.413099: $GPGSA,A,3,2,5,6,12,25,29,17,19,23,138,,,2.4,1.0,2.1*3D
2018-01-12 04:20:47 1515748847.414260: $GPZDA,092048.00,12,01,2018,00,00*68
2018-01-12 04:20:47 1515748847.880967: $GPGGA,092048,3946.9651,N,08404.9715,W,2,10,1.00,289.75,M,-33.324,M,,*7C
2018-01-12 04:20:47 1515748847.881124: $GPRMC,092048,A,3946.9651,N,08404.9715,W,0.0000,0.000,120118,,*32
2018-01-12 04:20:47 1515748847.881189: $GPGSA,A,3,2,5,6,12,25,29,17,19,23,138,,,2.4,1.0,2.1*3D
2018-01-12 04:20:48 1515748848.752299: $GPGSV,3,1,12,02,71,343,45,05,49,198,49,06,47,054,43,12,52,252,50*7B
2018-01-12 04:20:48 1515748848.752488: $GPGSV,3,2,12,25,32,301,42,29,10,307,46,09,19,067,00,17,15,120,16*73
2018-01-12 04:20:48 1515748848.752557: $GPGSV,3,3,12,19,32,114,21,23,06,037,19,04,54,283,00,138,38,213,47*41
2018-01-12 04:20:48 1515748848.865474: $GPZDA,092049.00,12,01,2018,00,00*69
2018-01-12 04:20:48 1515748848.865646: $GPGGA,092049,3946.9651,N,08404.9715,W,2,10,0.80,289.75,M,-33.324,M,,*74
2018-01-12 04:20:48 1515748848.865712: $GPRMC,092049,A,3946.9651,N,08404.9715,W,0.0000,0.000,120118,,*33
2018-01-12 04:20:48 1515748848.865773: $GPGSA,A,3,2,5,6,12,25,29,17,19,23,138,,,2.4,0.8,2.1*34
2018-01-12 04:20:49 1515748849.490897: $GPZDA,092050.00,12,01,2018,00,00*61
2018-01-12 04:20:49 1515748849.491069: $GPGGA,092050,3946.9651,N,08404.9715,W,2,10,0.80,289.75,M,-33.324,M,,*7C
2018-01-12 04:20:49 1515748849.491135: $GPRMC,092050,A,3946.9651,N,08404.9715,W,0.0000,0.000,120118,,*3B
2018-01-12 04:20:49 1515748849.491196: $GPGSA,A,3,2,5,6,12,25,29,17,19,23,138,,,2.4,0.8,2.1*34
2018-01-12 04:20:50 1515748850.413128: $GPZDA,092051.00,12,01,2018,00,00*60
2018-01-12 04:20:50 1515748850.413298: $GPGGA,092051,3946.9651,N,08404.9715,W,2,10,0.80,289.75,M,-33.324,M,,*7D
2018-01-12 04:20:50 1515748850.413365: $GPRMC,092051,A,3946.9651,N,08404.9715,W,0.0000,0.000,120118,,*3A
2018-01-12 04:20:50 1515748850.413426: $GPGSA,A,3,2,5,6,12,25,29,17,19,23,138,,,2.4,0.8,2.1*34
2018-01-12 04:20:51 1515748851.752299: $GPGSV,3,1,12,02,71,343,45,05,49,198,48,06,47,054,43,12,52,252,50*7A
2018-01-12 04:20:51 1515748851.752476: $GPGSV,3,2,12,25,32,301,42,29,10,307,46,09,19,067,00,17,15,120,17*72
2018-01-12 04:20:51 1515748851.752543: $GPGSV,3,3,12,19,32,114,22,23,06,037,19,04,54,283,00,138,38,213,46*43
2018-01-12 04:20:51 1515748851.865922: $GPZDA,092052.00,12,01,2018,00,00*63
2018-01-12 04:20:51 1515748851.866093: $GPGGA,092052,3946.9651,N,08404.9715,W,2,10,0.80,289.75,M,-33.324,M,,*7E
2018-01-12 04:20:51 1515748851.866159: $GPRMC,092052,A,3946.9651,N,08404.9715,W,0.0000,0.000,120118,,*39
2018-01-12 04:20:51 1515748851.866221: $GPGSA,A,3,2,5,6,12,25,29,17,19,23,138,,,2.4,0.8,2.1*34
