2017-12-31 17:07:36 1514758056.227841: {"class":"VERSION","release":"3.16","rev":"3.16-4","proto_major":3,"proto_minor":11}
2017-12-31 17:07:36 1514758056.228220: {"class":"DEVICES","devices":[{"class":"DEVICE","path":"/dev/ttyUSB0","driver":"SiRF","activated":"2017-12-31T22:07:36.165Z","flags":1,"native":1,"bps":4800,"parity":"N","stopbits":1,"cycle":1.00}]}
2017-12-31 17:07:36 1514758056.228331: {"class":"WATCH","enable":true,"json":false,"nmea":true,"raw":0,"scaled":false,"timing":false,"split24":false,"pps":false}
2017-12-31 17:07:36 1514758056.679724: $GPGSV,3,1,11,22,44,238,43,23,28,307,36,25,01,037,06,03,46,270,40*7B
2017-12-31 17:07:36 1514758056.679926: $GPGSV,3,2,11,16,47,190,42,29,14,054,34,31,49,051,50,14,40,114,36*74
2017-12-31 17:07:36 1514758056.679993: $GPGSV,3,3,11,32,18,123,40,26,75,139,47,135,22,240,42*7C
2017-12-31 17:07:36 1514758056.793122: $GPZDA,220737.00,31,12,2017,00,00*60
2017-12-31 17:07:36 1514758056.793304: $GPGGA,220737,3946.9587,N,08404.9854,W,2,11,1.00,302.21,M,-33.324,M,,*78
2017-12-31 17:07:36 1514758056.793371: $GPRMC,220737,A,3946.9587,N,08404.9854,W,0.0000,0.000,311217,,*38
2017-12-31 17:07:36 1514758056.793431: $GPGSA,A,3,22,23,25,3,16,29,31,14,32,26,135,,1.7,1.0,1.3*3B
2017-12-31 17:07:37 1514758057.344221: $GPZDA,220738.00,31,12,2017,00,00*6F
2017-12-31 17:07:37 1514758057.344375: $GPGGA,220738,3946.9587,N,08404.9854,W,2,11,1.00,302.21,M,-33.324,M,,*77
2017-12-31 17:07:37 1514758057.344442: $GPRMC,220738,A,3946.9587,N,08404.9854,W,0.0000,0.000,311217,,*37
2017-12-31 17:07:37 1514758057.344502: $GPGSA,A,3,22,23,25,3,16,29,31,14,32,26,135,,1.7,1.0,1.3*3B
2017-12-31 17:07:38 1514758058.361516: $GPZDA,220739.00,31,12,2017,00,00*6E
2017-12-31 17:07:38 1514758058.361669: $GPGGA,220739,3946.9587,N,08404.9854,W,2,11,1.00,302.21,M,-33.324,M,,*76
2017-12-31 17:07:38 1514758058.361734: $GPRMC,220739,A,3946.9587,N,08404.9854,W,0.0000,0.000,311217,,*36
2017-12-31 17:07:38 1514758058.361819: $GPGSA,A,3,22,23,25,3,16,29,31,14,32,26,135,,1.7,1.0,1.3*3B
2017-12-31 17:07:39 1514758059.679327: $GPGSV,3,1,11,22,44,238,42,23,28,307,35,25,01,037,10,03,46,270,40*7E
2017-12-31 17:07:39 1514758059.679476: $GPGSV,3,2,11,16,47,190,43,29,14,054,34,31,49,051,50,14,40,114,37*74
2017-12-31 17:07:39 1514758059.679540: $GPGSV,3,3,11,32,18,123,40,26,75,139,47,135,22,240,42*7C
2017-12-31 17:07:39 1514758059.792920: $GPZDA,220740.00,31,12,2017,00,00*60
2017-12-31 17:07:39 1514758059.793050: $GPGGA,220740,3946.9587,N,08404.9854,W,2,11,1.00,302.21,M,-33.324,M,,*78
2017-12-31 17:07:39 1514758059.793115: $GPRMC,220740,A,3946.9587,N,08404.9854,W,0.0000,0.000,311217,,*38
2017-12-31 17:07:39 1514758059.793175: $GPGSA,A,3,22,23,25,3,16,29,31,14,32,26,135,,1.7,1.0,1.3*3B
2017-12-31 17:07:40 1514758060.418088: $GPZDA,220741.00,31,12,2017,00,00*61
2017-12-31 17:07:40 1514758060.418266: $GPGGA,220741,3946.9587,N,08404.9854,W,2,11,1.00,302.21,M,-33.324,M,,*79
2017-12-31 17:07:40 1514758060.418335: $GPRMC,220741,A,3946.9587,N,08404.9854,W,0.0000,0.000,311217,,*39
2017-12-31 17:07:40 1514758060.418396: $GPGSA,A,3,22,23,25,3,16,29,31,14,32,26,135,,1.7,1.0,1.3*3B
2017-12-31 17:07:41 1514758061.360260: $GPZDA,220742.00,31,12,2017,00,00*62
2017-12-31 17:07:41 1514758061.360423: $GPGGA,220742,3946.9587,N,08404.9854,W,2,11,1.00,302.21,M,-33.324,M,,*7A
2017-12-31 17:07:41 1514758061.360491: $GPRMC,220742,A,3946.9587,N,08404.9854,W,0.0000,0.000,311217,,*3A
2017-12-31 17:07:41 1514758061.360552: $GPGSA,A,3,22,23,25,3,16,29,31,14,32,26,135,,1.7,1.0,1.3*3B
2017-12-31 17:07:42 1514758062.672157: $GPGSV,3,1,11,22,44,238,42,23,28,307,35,25,01,037,09,03,46,270,39*78
2017-12-31 17:07:42 1514758062.672323: $GPGSV,3,2,11,16,47,190,43,29,14,054,34,31,49,051,50,14,40,114,37*74
2017-12-31 17:07:42 1514758062.672388: $GPGSV,3,3,11,32,18,123,40,26,75,139,47,135,22,240,43*7D
2017-12-31 17:07:42 1514758062.785778: $GPZDA,220743.00,31,12,2017,00,00*63
2017-12-31 17:07:42 1514758062.785960: $GPGGA,220743,3946.9587,N,08404.9854,W,2,11,1.00,302.21,M,-33.324,M,,*7B
2017-12-31 17:07:42 1514758062.786026: $GPRMC,220743,A,3946.9587,N,08404.9854,W,0.0000,0.000,311217,,*3B
2017-12-31 17:07:42 1514758062.786139: $GPGSA,A,3,22,23,25,3,16,29,31,14,32,26,135,,1.7,1.0,1.3*3B
2017-12-31 17:07:43 1514758063.344168: $GPZDA,220744.00,31,12,2017,00,00*64
2017-12-31 17:07:43 1514758063.344323: $GPGGA,220744,3946.9587,N,08404.9854,W,2,11,1.00,302.21,M,-33.324,M,,*7C
2017-12-31 17:07:43 1514758063.344388: $GPRMC,220744,A,3946.9587,N,08404.9854,W,0.0000,0.000,311217,,*3C
2017-12-31 17:07:43 1514758063.344449: $GPGSA,A,3,22,23,25,3,16,29,31,14,32,26,135,,1.7,1.0,1.3*3B
2017-12-31 17:07:44 1514758064.360167: $GPZDA,220745.00,31,12,2017,00,00*65
2017-12-31 17:07:44 1514758064.360329: $GPGGA,220745,3946.9587,N,08404.9854,W,2,11,1.00,302.21,M,-33.324,M,,*7D
2017-12-31 17:07:44 1514758064.360396: $GPRMC,220745,A,3946.9587,N,08404.9854,W,0.0000,0.000,311217,,*3D
2017-12-31 17:07:44 1514758064.360457: $GPGSA,A,3,22,23,25,3,16,29,31,14,32,26,135,,1.7,1.0,1.3*3B
2017-12-31 17:07:45 1514758065.680009: $GPGSV,3,1,11,22,44,238,42,23,28,307,36,03,46,270,40,16,47,190,42*74
2017-12-31 17:07:45 1514758065.680160: $GPGSV,3,2,11,29,14,054,34,25,01,037,00,31,49,051,50,14,40,114,37*7D
2017-12-31 17:07:45 1514758065.680225: $GPGSV,3,3,11,32,18,123,40,26,75,139,48,135,22,240,42*73
2017-12-31 17:07:45 1514758065.792112: $GPZDA,220746.00,31,12,2017,00,00*66
2017-12-31 17:07:45 1514758065.792242: $GPGGA,220746,3946.9587,N,08404.9854,W,2,10,1.00,302.21,M,-33.324,M,,*7F
2017-12-31 17:07:45 1514758065.792307: $GPRMC,220746,A,3946.9587,N,08404.9854,W,0.0000,0.000,311217,,*3E
2017-12-31 17:07:45 1514758065.792368: $GPGSA,A,3,22,23,3,16,29,31,14,32,26,135,,,1.7,1.0,1.3*3C
