2017-12-31 18:51:02 1514764262.247653: {"class":"VERSION","release":"3.16","rev":"3.16-4","proto_major":3,"proto_minor":11}
2017-12-31 18:51:02 1514764262.248099: {"class":"DEVICES","devices":[{"class":"DEVICE","path":"/dev/ttyUSB0","driver":"SiRF","activated":"2017-12-31T23:51:02.213Z","flags":1,"native":1,"bps":4800,"parity":"N","stopbits":1,"cycle":1.00}]}
2017-12-31 18:51:02 1514764262.248199: {"class":"WATCH","enable":true,"json":false,"nmea":true,"raw":0,"scaled":false,"timing":false,"split24":false,"pps":false}
2017-12-31 18:51:02 1514764262.392131: $GPZDA,235103.00,31,12,2017,00,00*65
2017-12-31 18:51:02 1514764262.392303: $GPGGA,235103,3946.9570,N,08404.9824,W,2,11,0.80,309.24,M,-33.324,M,,*75
2017-12-31 18:51:02 1514764262.392430: $GPRMC,235103,A,3946.9570,N,08404.9824,W,0.0000,0.000,311217,,*32
2017-12-31 18:51:02 1514764262.392497: $GPGSA,A,3,22,23,9,3,16,8,31,27,7,26,135,,1.7,0.8,1.3*09
2017-12-31 18:51:03 1514764263.687748: $GPGSV,3,1,11,22,08,204,27,23,68,282,39,09,36,310,41,03,18,220,37*78
2017-12-31 18:51:03 1514764263.687937: $GPGSV,3,2,11,16,77,036,43,08,16,175,38,31,16,088,20,27,39,144,41*76
2017-12-31 18:51:03 1514764263.688023: $GPGSV,3,3,11,07,10,285,48,26,45,048,45,135,22,240,44*75
2017-12-31 18:51:03 1514764263.803117: $GPZDA,235104.00,31,12,2017,00,00*62
2017-12-31 18:51:03 1514764263.803452: $GPGGA,235104,3946.9570,N,08404.9824,W,2,11,0.80,309.24,M,-33.324,M,,*72
2017-12-31 18:51:03 1514764263.803590: $GPRMC,235104,A,3946.9570,N,08404.9824,W,0.0000,0.000,311217,,*35
2017-12-31 18:51:03 1514764263.803735: $GPGSA,A,3,22,23,9,3,16,8,31,27,7,26,135,,1.7,0.8,1.3*09
2017-12-31 18:51:04 1514764264.353727: $GPZDA,235105.00,31,12,2017,00,00*63
2017-12-31 18:51:04 1514764264.353894: $GPGGA,235105,3946.9570,N,08404.9824,W,2,11,0.80,309.24,M,-33.324,M,,*73
2017-12-31 18:51:04 1514764264.353964: $GPRMC,235105,A,3946.9570,N,08404.9824,W,0.0000,0.000,311217,,*34
2017-12-31 18:51:04 1514764264.354040: $GPGSA,A,3,22,23,9,3,16,8,31,27,7,26,135,,1.7,0.8,1.3*09
2017-12-31 18:51:05 1514764265.355108: $GPZDA,235106.00,31,12,2017,00,00*60
2017-12-31 18:51:05 1514764265.355280: $GPGGA,235106,3946.9570,N,08404.9824,W,2,11,0.80,309.24,M,-33.324,M,,*70
2017-12-31 18:51:05 1514764265.355349: $GPRMC,235106,A,3946.9570,N,08404.9824,W,0.0000,0.000,311217,,*37
2017-12-31 18:51:05 1514764265.355434: $GPGSA,A,3,22,23,9,3,16,8,31,27,7,26,135,,1.7,0.8,1.3*09
2017-12-31 18:51:06 1514764266.689219: $GPGSV,3,1,11,22,08,204,28,23,68,282,40,09,36,310,41,03,18,220,37*79
2017-12-31 18:51:06 1514764266.689424: $GPGSV,3,2,11,16,77,036,43,08,16,175,39,31,16,088,23,27,39,144,41*74
2017-12-31 18:51:06 1514764266.689495: $GPGSV,3,3,11,07,10,285,47,26,45,048,45,135,22,240,44*7A
2017-12-31 18:51:06 1514764266.802648: $GPZDA,235107.00,31,12,2017,00,00*61
2017-12-31 18:51:06 1514764266.802821: $GPGGA,235107,3946.9570,N,08404.9824,W,2,11,0.80,309.24,M,-33.324,M,,*71
2017-12-31 18:51:06 1514764266.802891: $GPRMC,235107,A,3946.9570,N,08404.9824,W,0.0000,0.000,311217,,*36
2017-12-31 18:51:06 1514764266.802955: $GPGSA,A,3,22,23,9,3,16,8,31,27,7,26,135,,1.7,0.8,1.3*09
2017-12-31 18:51:07 1514764267.353460: $GPZDA,235108.00,31,12,2017,00,00*6E
2017-12-31 18:51:07 1514764267.353632: $GPGGA,235108,3946.9570,N,08404.9824,W,2,11,0.80,309.24,M,-33.324,M,,*7E
2017-12-31 18:51:07 1514764267.353701: $GPRMC,235108,A,3946.9570,N,08404.9824,W,0.0000,0.000,311217,,*39
2017-12-31 18:51:07 1514764267.353765: $GPGSA,A,3,22,23,9,3,16,8,31,27,7,26,135,,1.7,0.8,1.3*09
2017-12-31 18:51:08 1514764268.345387: $GPZDA,235109.00,31,12,2017,00,00*6F
2017-12-31 18:51:08 1514764268.345568: $GPGGA,235109,3946.9570,N,08404.9824,W,2,11,0.80,309.24,M,-33.324,M,,*7F
2017-12-31 18:51:08 1514764268.345637: $GPRMC,235109,A,3946.9570,N,08404.9824,W,0.0000,0.000,311217,,*38
2017-12-31 18:51:08 1514764268.345701: $GPGSA,A,3,22,23,9,3,16,8,31,27,7,26,135,,1.7,0.8,1.3*09
2017-12-31 18:51:08 1514764268.345762: $GPGBS,235109,2.22,M,3.43,M,7.66,M*33
2017-12-31 18:51:09 1514764269.686948: $GPGSV,3,1,11,22,07,204,26,23,69,279,41,09,37,309,40,03,17,220,36*7A
2017-12-31 18:51:09 1514764269.687168: $GPGSV,3,2,11,16,76,036,43,08,17,175,39,31,15,090,17,27,40,142,41*71
2017-12-31 18:51:09 1514764269.687296: $GPGSV,3,3,11,07,11,285,46,26,43,048,44,135,22,240,44*7D
2017-12-31 18:51:09 1514764269.800346: $GPZDA,235110.00,31,12,2017,00,00*67
2017-12-31 18:51:09 1514764269.800526: $GPGGA,235110,3946.9570,N,08404.9824,W,2,11,0.80,309.24,M,-33.324,M,,*77
2017-12-31 18:51:09 1514764269.800593: $GPRMC,235110,A,3946.9570,N,08404.9824,W,0.0000,0.000,311217,,*30
2017-12-31 18:51:09 1514764269.800654: $GPGSA,A,3,22,23,9,3,16,8,31,27,7,26,135,,1.7,0.8,1.3*09
2017-12-31 18:51:10 1514764270.425694: $GPZDA,235111.00,31,12,2017,00,00*66
2017-12-31 18:51:10 1514764270.425870: $GPGGA,235111,3946.9570,N,08404.9824,W,2,11,0.80,309.24,M,-33.324,M,,*76
2017-12-31 18:51:10 1514764270.425936: $GPRMC,235111,A,3946.9570,N,08404.9824,W,0.0000,0.000,311217,,*31
2017-12-31 18:51:10 1514764270.425997: $GPGSA,A,3,22,23,9,3,16,8,31,27,7,26,135,,1.7,0.8,1.3*09
2017-12-31 18:51:11 1514764271.351538: $GPZDA,235112.00,31,12,2017,00,00*65
2017-12-31 18:51:11 1514764271.351710: $GPGGA,235112,3946.9570,N,08404.9824,W,2,11,0.80,309.24,M,-33.324,M,,*75
2017-12-31 18:51:11 1514764271.351776: $GPRMC,235112,A,3946.9570,N,08404.9824,W,0.0000,0.000,311217,,*32
2017-12-31 18:51:11 1514764271.351837: $GPGSA,A,3,22,23,9,3,16,8,31,27,7,26,135,,1.7,0.8,1.3*09
2017-12-31 18:51:12 1514764272.687351: $GPGSV,3,1,11,22,07,204,27,23,69,279,41,09,37,309,41,03,17,220,36*7A
2017-12-31 18:51:12 1514764272.687536: $GPGSV,3,2,11,16,76,036,43,08,17,175,39,31,15,090,18,27,40,142,42*7D
2017-12-31 18:51:12 1514764272.687604: $GPGSV,3,3,11,07,11,285,46,26,43,048,44,135,22,240,44*7D
2017-12-31 18:51:12 1514764272.801028: $GPZDA,235113.00,31,12,2017,00,00*64
2017-12-31 18:51:12 1514764272.801193: $GPGGA,235113,3946.9570,N,08404.9824,W,2,11,0.80,309.24,M,-33.324,M,,*74
2017-12-31 18:51:12 1514764272.801259: $GPRMC,235113,A,3946.9570,N,08404.9824,W,0.0000,0.000,311217,,*33
2017-12-31 18:51:12 1514764272.801320: $GPGSA,A,3,22,23,9,3,16,8,31,27,7,26,135,,1.7,0.8,1.3*09
2017-12-31 18:51:13 1514764273.353057: $GPZDA,235114.00,31,12,2017,00,00*63
2017-12-31 18:51:13 1514764273.353246: $GPGGA,235114,3946.9570,N,08404.9817,W,2,11,0.80,309.32,M,-33.324,M,,*74
2017-12-31 18:51:13 1514764273.353347: $GPRMC,235114,A,3946.9570,N,08404.9817,W,0.0000,0.000,311217,,*34
2017-12-31 18:51:13 1514764273.353413: $GPGSA,A,3,22,23,9,3,16,8,31,27,7,26,135,,1.7,0.8,1.3*09
2017-12-31 18:51:14 1514764274.346244: $GPZDA,235115.00,31,12,2017,00,00*62
2017-12-31 18:51:14 1514764274.346434: $GPGGA,235115,3946.9574,N,08404.9817,W,2,11,0.80,309.96,M,-33.324,M,,*7F
2017-12-31 18:51:14 1514764274.346522: $GPRMC,235115,A,3946.9574,N,08404.9817,W,0.0000,0.000,311217,,*31
2017-12-31 18:51:14 1514764274.346586: $GPGSA,A,3,22,23,9,3,16,8,31,27,7,26,135,,1.7,0.8,1.3*09
2017-12-31 18:51:15 1514764275.687646: $GPGSV,3,1,11,22,07,204,28,23,69,279,41,09,37,309,42,03,17,220,37*77
2017-12-31 18:51:15 1514764275.687827: $GPGSV,3,2,11,16,76,036,43,08,17,175,39,31,15,090,17,27,40,142,41*71
2017-12-31 18:51:15 1514764275.687896: $GPGSV,3,3,11,07,11,285,45,26,43,048,44,135,22,240,44*7E
2017-12-31 18:51:15 1514764275.801034: $GPZDA,235116.00,31,12,2017,00,00*61
2017-12-31 18:51:15 1514764275.801206: $GPGGA,235116,3946.9574,N,08404.9817,W,2,11,0.80,309.96,M,-33.324,M,,*7C
2017-12-31 18:51:15 1514764275.801275: $GPRMC,235116,A,3946.9574,N,08404.9817,W,0.0000,0.000,311217,,*32
2017-12-31 18:51:15 1514764275.801359: $GPGSA,A,3,22,23,9,3,16,8,31,27,7,26,135,,1.7,0.8,1.3*09
2017-12-31 18:51:16 1514764276.352049: $GPZDA,235117.00,31,12,2017,00,00*60
2017-12-31 18:51:16 1514764276.352215: $GPGGA,235117,3946.9574,N,08404.9817,W,2,11,0.80,309.96,M,-33.324,M,,*7D
2017-12-31 18:51:16 1514764276.352303: $GPRMC,235117,A,3946.9574,N,08404.9817,W,0.0000,0.000,311217,,*33
2017-12-31 18:51:16 1514764276.352368: $GPGSA,A,3,22,23,9,3,16,8,31,27,7,26,135,,1.7,0.8,1.3*09
2017-12-31 18:51:17 1514764277.352769: $GPZDA,235118.00,31,12,2017,00,00*6F
2017-12-31 18:51:17 1514764277.353129: $GPGGA,235118,3946.9574,N,08404.9817,W,2,11,0.80,309.96,M,-33.324,M,,*72
2017-12-31 18:51:17 1514764277.353377: $GPRMC,235118,A,3946.9574,N,08404.9817,W,0.0000,0.000,311217,,*3C
2017-12-31 18:51:17 1514764277.353501: $GPGSA,A,3,22,23,9,3,16,8,31,27,7,26,135,,1.7,0.8,1.3*09
2017-12-31 18:51:18 1514764278.688734: $GPGSV,3,1,11,22,07,204,22,23,69,279,42,09,37,309,42,03,17,220,36*7F
2017-12-31 18:51:18 1514764278.688895: $GPGSV,3,2,11,16,76,036,43,08,17,175,39,31,15,090,21,27,40,142,41*74
2017-12-31 18:51:18 1514764278.688980: $GPGSV,3,3,11,07,11,285,45,26,43,048,44,135,22,240,43*79
2017-12-31 18:51:18 1514764278.801052: $GPZDA,235119.00,31,12,2017,00,00*6E
2017-12-31 18:51:18 1514764278.801219: $GPGGA,235119,3946.9574,N,08404.9817,W,2,11,0.80,309.96,M,-33.324,M,,*73
2017-12-31 18:51:18 1514764278.801306: $GPRMC,235119,A,3946.9574,N,08404.9817,W,0.0000,0.000,311217,,*3D
2017-12-31 18:51:18 1514764278.801369: $GPGSA,A,3,22,23,9,3,16,8,31,27,7,26,135,,1.7,0.8,1.3*09
2017-12-31 18:51:19 1514764279.856656: $GPZDA,235120.00,31,12,2017,00,00*64
2017-12-31 18:51:19 1514764279.856825: $GPGGA,235120,3946.9574,N,08404.9817,W,2,11,0.80,309.96,M,-33.324,M,,*79
2017-12-31 18:51:19 1514764279.856892: $GPRMC,235120,A,3946.9574,N,08404.9817,W,0.0000,0.000,311217,,*37
2017-12-31 18:51:19 1514764279.856952: $GPGSA,A,3,22,23,9,3,16,8,31,27,7,26,135,,1.7,0.8,1.3*09
2017-12-31 18:51:20 1514764280.483308: $GPZDA,235121.00,31,12,2017,00,00*65
2017-12-31 18:51:20 1514764280.483493: $GPGGA,235121,3946.9574,N,08404.9817,W,2,11,0.80,309.96,M,-33.324,M,,*78
2017-12-31 18:51:20 1514764280.483561: $GPRMC,235121,A,3946.9574,N,08404.9817,W,0.0000,0.000,311217,,*36
2017-12-31 18:51:20 1514764280.483622: $GPGSA,A,3,22,23,9,3,16,8,31,27,7,26,135,,1.7,0.8,1.3*09
2017-12-31 18:51:21 1514764281.687728: $GPGSV,3,1,11,22,07,204,24,23,69,279,41,09,37,309,41,03,17,220,36*79
2017-12-31 18:51:21 1514764281.687903: $GPGSV,3,2,11,16,76,036,44,08,17,175,39,31,15,090,25,27,40,142,41*77
2017-12-31 18:51:21 1514764281.687969: $GPGSV,3,3,11,07,11,285,44,26,43,048,45,135,22,240,44*7E
2017-12-31 18:51:21 1514764281.801144: $GPZDA,235122.00,31,12,2017,00,00*66
2017-12-31 18:51:21 1514764281.801328: $GPGGA,235122,3946.9574,N,08404.9817,W,2,11,0.80,309.96,M,-33.324,M,,*7B
2017-12-31 18:51:21 1514764281.801411: $GPRMC,235122,A,3946.9574,N,08404.9817,W,0.0000,0.000,311217,,*35
2017-12-31 18:51:21 1514764281.801473: $GPGSA,A,3,22,23,9,3,16,8,31,27,7,26,135,,1.7,0.8,1.3*09
