2017-12-14 11:41:44 1513269704.033450: {"class":"VERSION","release":"3.16","rev":"3.16-4","proto_major":3,"proto_minor":11}
2017-12-14 11:41:44 1513269704.033803: {"class":"DEVICES","devices":[{"class":"DEVICE","path":"/dev/ttyUSB0","driver":"SiRF","subtype":"9\u0006GSD4e_4.1.2-P1_RPATCH.05-F-GPS-4R-1510281 11/03/2015 307","activated":"2017-12-14T16:41:43.335Z","flags":1,"native":1,"bps":4800,"parity":"N","stopbits":1,"cycle":1.00}]}
2017-12-14 11:41:44 1513269704.033918: {"class":"WATCH","enable":true,"json":false,"nmea":true,"raw":0,"scaled":false,"timing":false,"split24":false,"pps":false}
2017-12-14 11:41:44 1513269704.625920: $GPRMC,164145,V,18000.0000,N,00000.0000,W,0.0000,0.000,141217,,*12
2017-12-14 11:41:44 1513269704.626069: $GPGSA,A,1,18,15,20,24,21,,,,,,,,,,,*38
2017-12-14 11:41:45 1513269705.718108: $GPRMC,164146,V,3946.9550,N,08404.9407,W,0.0000,0.000,141217,,*2B
2017-12-14 11:41:45 1513269705.718262: $GPGSA,A,1,18,15,20,24,21,,,,,,,,,,,*38
2017-12-14 11:41:46 1513269706.774008: $GPGSV,3,1,10,24,40,132,27,15,53,049,22,18,60,310,00,20,46,081,00*76
2017-12-14 11:41:46 1513269706.774175: $GPGSV,3,2,10,10,29,289,00,13,22,045,00,27,18,306,00,32,08,229,00*7A
2017-12-14 11:41:46 1513269706.774240: $GPGSV,3,3,10,21,78,220,00,29,04,187,00*75
2017-12-14 11:41:46 1513269706.886412: $GPRMC,164147,V,3946.9550,N,08404.9407,W,0.0000,0.000,141217,,*2A
2017-12-14 11:41:46 1513269706.886573: $GPGSA,A,1,24,15,,,,,,,,,,,,,,*30
2017-12-14 11:41:47 1513269707.141509: $GPRMC,164147,V,3946.9521,N,08404.9444,W,1.6360,71.377,141217,,*1C
2017-12-14 11:41:47 1513269707.141681: $GPGSA,A,1,24,15,,,,,,,,,,,,,,*30
2017-12-14 11:41:47 1513269707.984104: $GPZDA,164148.31,14,12,2017,00,00*68
2017-12-14 11:41:47 1513269707.984274: $GPGGA,164148,3946.9517,N,08404.9431,W,1,02,2.00,341.34,M,-33.324,M,,*72
2017-12-14 11:41:47 1513269707.984339: $GPRMC,164148,A,3946.9517,N,08404.9431,W,2.0031,51.855,141217,,*08
2017-12-14 11:41:47 1513269707.984400: $GPGSA,A,3,24,15,,,,,,,,,,,6.6,2.0,6.2*36
2017-12-14 11:41:47 1513269707.984454: $GPGBS,164148,24.66,M,21.80,M,143.40,M*3F
2017-12-14 11:41:48 1513269708.897908: $GPGSV,3,1,11,24,40,132,28,15,53,049,23,18,60,310,18,20,46,081,16*77
2017-12-14 11:41:48 1513269708.898071: $GPGSV,3,2,11,10,29,289,00,21,78,220,20,13,22,045,10,27,18,306,00*74
2017-12-14 11:41:48 1513269708.898136: $GPGSV,3,3,11,32,08,229,00,29,04,187,00,138,38,213,00*79
2017-12-14 11:41:49 1513269709.011317: $GPZDA,164148.82,14,12,2017,00,00*60
2017-12-14 11:41:49 1513269709.015623: $GPGGA,164148,3946.9502,N,08404.9440,W,1,06,2.00,341.51,M,-33.324,M,,*77
2017-12-14 11:41:49 1513269709.015737: $GPRMC,164148,A,3946.9502,N,08404.9440,W,1.0269,4.197,141217,,*31
2017-12-14 11:41:49 1513269709.015801: $GPGSA,A,3,24,15,18,20,21,13,,,,,,,6.6,2.0,6.2*3C
2017-12-14 11:41:49 1513269709.265189: $GPZDA,164149.00,14,12,2017,00,00*6B
2017-12-14 11:41:49 1513269709.265359: $GPGGA,164149,3946.9502,N,08404.9447,W,1,06,2.00,341.43,M,-33.324,M,,*72
2017-12-14 11:41:49 1513269709.265425: $GPRMC,164149,A,3946.9502,N,08404.9447,W,1.5455,336.153,141217,,*31
2017-12-14 11:41:49 1513269709.265486: $GPGSA,A,3,24,15,18,20,21,13,,,,,,,6.6,2.0,6.2*3C
2017-12-14 11:41:49 1513269709.520533: $GPZDA,164150.00,14,12,2017,00,00*63
2017-12-14 11:41:49 1513269709.520698: $GPGGA,164150,3946.9502,N,08404.9447,W,1,06,2.00,341.43,M,-33.324,M,,*7A
2017-12-14 11:41:49 1513269709.520763: $GPRMC,164150,A,3946.9502,N,08404.9447,W,1.1323,338.868,141217,,*34
2017-12-14 11:41:49 1513269709.520824: $GPGSA,A,3,24,15,18,20,21,13,,,,,,,6.6,2.0,6.2*3C
2017-12-14 11:41:50 1513269710.482646: $GPGSV,3,1,11,24,40,132,27,15,53,049,23,18,60,310,19,20,46,081,15*7A
2017-12-14 11:41:50 1513269710.482813: $GPGSV,3,2,11,10,29,289,00,21,78,220,20,13,22,045,14,27,18,306,00*70
2017-12-14 11:41:50 1513269710.482878: $GPGSV,3,3,11,32,08,229,00,29,04,187,00,138,38,213,00*79
2017-12-14 11:41:50 1513269710.596148: $GPZDA,164151.00,14,12,2017,00,00*62
2017-12-14 11:41:50 1513269710.596314: $GPGGA,164151,3946.9510,N,08404.9439,W,1,06,2.00,341.38,M,-33.324,M,,*7D
2017-12-14 11:41:50 1513269710.596379: $GPRMC,164151,A,3946.9510,N,08404.9439,W,1.2132,3.552,141217,,*31
2017-12-14 11:41:50 1513269710.596492: $GPGSA,A,3,24,15,18,20,21,13,,,,,,,6.6,2.0,6.2*3C
2017-12-14 11:41:51 1513269711.147450: $GPZDA,164152.00,14,12,2017,00,00*61
2017-12-14 11:41:51 1513269711.147610: $GPGGA,164152,3946.9510,N,08404.9439,W,1,06,2.00,341.38,M,-33.324,M,,*7E
2017-12-14 11:41:51 1513269711.147676: $GPRMC,164152,A,3946.9510,N,08404.9439,W,0.7278,23.636,141217,,*08
2017-12-14 11:41:51 1513269711.147737: $GPGSA,A,3,24,15,18,20,21,13,,,,,,,6.6,2.0,6.2*3C
2017-12-14 11:41:52 1513269712.145928: $GPZDA,164153.00,14,12,2017,00,00*60
2017-12-14 11:41:52 1513269712.146103: $GPGGA,164153,3946.9502,N,08404.9447,W,1,06,2.00,341.43,M,-33.324,M,,*79
2017-12-14 11:41:52 1513269712.146169: $GPRMC,164153,A,3946.9502,N,08404.9447,W,0.7070,48.986,141217,,*00
2017-12-14 11:41:52 1513269712.146230: $GPGSA,A,3,24,15,18,20,21,13,,,,,,,6.6,2.0,6.2*3C
2017-12-14 11:41:53 1513269713.482174: $GPGSV,3,1,11,24,40,132,28,15,53,049,23,18,60,310,18,20,46,081,16*77
2017-12-14 11:41:53 1513269713.482339: $GPGSV,3,2,11,10,29,289,00,21,78,220,20,13,22,045,00,27,18,306,00*75
2017-12-14 11:41:53 1513269713.482403: $GPGSV,3,3,11,32,08,229,00,29,04,187,00,138,38,213,00*79
2017-12-14 11:41:53 1513269713.595560: $GPZDA,164154.00,14,12,2017,00,00*67
2017-12-14 11:41:53 1513269713.595699: $GPGGA,164154,3946.9498,N,08404.9447,W,1,05,2.00,340.79,M,-33.324,M,,*77
2017-12-14 11:41:53 1513269713.595764: $GPRMC,164154,A,3946.9498,N,08404.9447,W,0.1567,9.201,141217,,*31
2017-12-14 11:41:53 1513269713.595840: $GPGSA,A,3,24,15,18,20,21,,,,,,,,6.6,2.0,6.2*3E
2017-12-14 11:41:54 1513269714.149644: $GPZDA,164155.00,14,12,2017,00,00*66
2017-12-14 11:41:54 1513269714.149825: $GPGGA,164155,3946.9498,N,08404.9447,W,1,05,2.00,340.79,M,-33.324,M,,*76
2017-12-14 11:41:54 1513269714.149892: $GPRMC,164155,A,3946.9498,N,08404.9447,W,0.7070,48.986,141217,,*04
2017-12-14 11:41:54 1513269714.149952: $GPGSA,A,3,24,15,18,20,21,,,,,,,,6.6,2.0,6.2*3E
2017-12-14 11:41:55 1513269715.145818: $GPZDA,164156.00,14,12,2017,00,00*65
2017-12-14 11:41:55 1513269715.145986: $GPGGA,164156,3946.9498,N,08404.9447,W,1,05,2.00,340.79,M,-33.324,M,,*75
2017-12-14 11:41:55 1513269715.146051: $GPRMC,164156,A,3946.9498,N,08404.9447,W,0.8953,59.978,141217,,*01
2017-12-14 11:41:55 1513269715.146112: $GPGSA,A,3,24,15,18,20,21,,,,,,,,6.6,2.0,6.2*3E
2017-12-14 11:41:56 1513269716.481978: $GPGSV,3,1,11,24,40,132,28,15,53,049,24,18,60,310,18,20,46,081,16*70
2017-12-14 11:41:56 1513269716.482192: $GPGSV,3,2,11,10,29,289,00,21,78,220,21,13,22,045,00,27,18,306,00*74
2017-12-14 11:41:56 1513269716.482259: $GPGSV,3,3,11,32,08,229,00,29,04,187,00,138,38,213,00*79
2017-12-14 11:41:56 1513269716.594608: $GPZDA,164157.00,14,12,2017,00,00*64
2017-12-14 11:41:56 1513269716.594757: $GPGGA,164157,3946.9498,N,08404.9440,W,1,05,2.00,340.87,M,-33.324,M,,*72
2017-12-14 11:41:56 1513269716.594823: $GPRMC,164157,A,3946.9498,N,08404.9440,W,1.1240,45.393,141217,,*04
2017-12-14 11:41:56 1513269716.594883: $GPGSA,A,3,24,15,18,20,21,,,,,,,,6.6,2.0,6.2*3E
2017-12-14 11:41:57 1513269717.146604: $GPZDA,164158.00,14,12,2017,00,00*6B
2017-12-14 11:41:57 1513269717.146766: $GPGGA,164158,3946.9498,N,08404.9440,W,1,05,2.00,340.87,M,-33.324,M,,*7D
2017-12-14 11:41:57 1513269717.146832: $GPRMC,164158,A,3946.9498,N,08404.9440,W,1.7087,49.986,141217,,*06
2017-12-14 11:41:57 1513269717.146892: $GPGSA,A,3,24,15,18,20,21,,,,,,,,6.6,2.0,6.2*3E
2017-12-14 11:41:58 1513269718.146398: $GPZDA,164159.00,14,12,2017,00,00*6A
2017-12-14 11:41:58 1513269718.146566: $GPGGA,164159,3946.9498,N,08404.9440,W,1,05,2.00,340.87,M,-33.324,M,,*7C
2017-12-14 11:41:58 1513269718.146632: $GPRMC,164159,A,3946.9498,N,08404.9440,W,1.4140,48.986,141217,,*0F
2017-12-14 11:41:58 1513269718.146693: $GPGSA,A,3,24,15,18,20,21,,,,,,,,6.6,2.0,6.2*3E
2017-12-14 11:41:59 1513269719.485118: $GPGSV,3,1,11,24,40,132,28,15,53,049,24,18,60,310,19,20,46,081,16*71
2017-12-14 11:41:59 1513269719.498289: $GPGSV,3,2,11,13,22,045,16,21,78,220,21,27,18,306,01,10,29,289,00*72
2017-12-14 11:41:59 1513269719.498467: $GPGSV,3,3,11,32,08,229,00,29,04,187,00,138,38,213,00*79
2017-12-14 11:41:59 1513269719.598509: $GPZDA,164200.00,14,12,2017,00,00*65
2017-12-14 11:41:59 1513269719.598634: $GPGGA,164200,3946.9494,N,08404.9440,W,1,06,2.00,340.23,M,-33.324,M,,*72
2017-12-14 11:41:59 1513269719.598698: $GPRMC,164200,A,3946.9494,N,08404.9440,W,1.8301,46.780,141217,,*01
2017-12-14 11:41:59 1513269719.598758: $GPGSA,A,3,24,15,18,20,13,21,,,,,,,6.6,2.0,6.2*3C
2017-12-14 11:42:00 1513269720.147356: $GPZDA,164201.00,14,12,2017,00,00*64
2017-12-14 11:42:00 1513269720.147526: $GPGGA,164201,3946.9494,N,08404.9447,W,1,06,2.00,340.15,M,-33.324,M,,*71
2017-12-14 11:42:00 1513269720.147592: $GPRMC,164201,A,3946.9494,N,08404.9447,W,1.9601,34.742,141217,,*08
2017-12-14 11:42:00 1513269720.147654: $GPGSA,A,3,24,15,18,20,13,21,,,,,,,6.6,2.0,6.2*3C
2017-12-14 11:42:01 1513269721.147506: $GPZDA,164202.00,14,12,2017,00,00*67
2017-12-14 11:42:01 1513269721.147683: $GPGGA,164202,3946.9494,N,08404.9447,W,1,06,2.00,340.15,M,-33.324,M,,*72
2017-12-14 11:42:01 1513269721.147749: $GPRMC,164202,A,3946.9494,N,08404.9447,W,1.2991,55.212,141217,,*01
2017-12-14 11:42:01 1513269721.147810: $GPGSA,A,3,24,15,18,20,13,21,,,,,,,6.6,2.0,6.2*3C
2017-12-14 11:42:02 1513269722.483097: $GPGSV,3,1,11,24,40,132,28,15,53,049,24,18,60,310,19,20,46,081,15*72
2017-12-14 11:42:02 1513269722.483278: $GPGSV,3,2,11,10,29,289,00,21,78,220,21,27,18,306,14,13,22,045,00*71
2017-12-14 11:42:02 1513269722.483344: $GPGSV,3,3,11,32,08,229,00,29,04,187,00,138,38,213,00*79
2017-12-14 11:42:02 1513269722.596471: $GPZDA,164203.00,14,12,2017,00,00*66
2017-12-14 11:42:02 1513269722.596626: $GPGGA,164203,3946.9494,N,08404.9447,W,1,05,2.00,340.15,M,-33.324,M,,*70
2017-12-14 11:42:02 1513269722.596690: $GPRMC,164203,A,3946.9494,N,08404.9447,W,1.5411,33.487,141217,,*08
2017-12-14 11:42:02 1513269722.596751: $GPGSA,A,3,24,15,18,20,21,,,,,,,,6.6,2.0,6.2*3E
2017-12-14 11:42:03 1513269723.149102: $GPZDA,164204.00,14,12,2017,00,00*61
2017-12-14 11:42:03 1513269723.149281: $GPGGA,164204,3946.9490,N,08404.9453,W,1,05,2.00,339.43,M,-33.324,M,,*7B
2017-12-14 11:42:03 1513269723.149348: $GPRMC,164204,A,3946.9490,N,08404.9453,W,0.8334,42.078,141217,,*00
2017-12-14 11:42:03 1513269723.149409: $GPGSA,A,3,24,15,18,20,21,,,,,,,,6.6,2.0,6.2*3E
