2017-11-16 14:34:46 1510860886.737530: {"class":"VERSION","release":"3.17","rev":"3.17","proto_major":3,"proto_minor":12}
2017-11-16 14:34:46 1510860886.737957: {"class":"DEVICES","devices":[{"class":"DEVICE","path":"/dev/ttyUSB0","driver":"SiRF","subtype":"9\u0006GSD4e_4.1.2-P1_RPATCH.05-F-GPS-4R-1510281 11/03/2015 307","activated":"2017-11-16T19:34:46.661Z","flags":1,"native":1,"bps":4800,"parity":"N","stopbits":1,"cycle":1.00}]}
2017-11-16 14:34:46 1510860886.738069: {"class":"WATCH","enable":true,"json":false,"nmea":true,"raw":0,"scaled":false,"timing":false,"split24":false,"pps":false}
2017-11-16 14:34:47 1510860887.519560: $GPZDA,193446.00,16,11,2017,00,00*68
2017-11-16 14:34:47 1510860887.519726: $GPGGA,193446,3946.9564,N,08404.9849,W,2,11,0.80,302.66,M,-33.324,M,,*7D
2017-11-16 14:34:47 1510860887.519805: $GPRMC,193446,A,3946.9564,N,08404.9849,W,0.0000,0.000,161117,,*31
2017-11-16 14:34:47 1510860887.519863: $GPGSA,A,3,8,10,15,18,21,20,24,27,32,14,138,,1.6,0.8,1.3*37
2017-11-16 14:34:48 1510860888.856658: $GPGSV,3,1,11,08,08,313,37,10,49,309,50,15,29,055,50,18,76,003,45*7D
2017-11-16 14:34:48 1510860888.856794: $GPGSV,3,2,11,21,54,184,46,20,26,103,46,24,53,094,50,27,17,280,41*77
2017-11-16 14:34:48 1510860888.856854: $GPGSV,3,3,11,32,28,244,46,14,11,237,42,138,38,213,44*76
2017-11-16 14:34:48 1510860888.969977: $GPZDA,193447.00,16,11,2017,00,00*69
2017-11-16 14:34:48 1510860888.970138: $GPGGA,193447,3946.9564,N,08404.9849,W,2,11,0.80,302.66,M,-33.324,M,,*7C
2017-11-16 14:34:48 1510860888.970199: $GPRMC,193447,A,3946.9564,N,08404.9849,W,0.0000,0.000,161117,,*30
2017-11-16 14:34:48 1510860888.970255: $GPGSA,A,3,8,10,15,18,21,20,24,27,32,14,138,,1.6,0.8,1.3*37
2017-11-16 14:34:49 1510860889.595391: $GPZDA,193448.00,16,11,2017,00,00*66
2017-11-16 14:34:49 1510860889.595552: $GPGGA,193448,3946.9564,N,08404.9849,W,2,11,0.80,302.66,M,-33.324,M,,*73
2017-11-16 14:34:49 1510860889.595613: $GPRMC,193448,A,3946.9564,N,08404.9849,W,0.0000,0.000,161117,,*3F
2017-11-16 14:34:49 1510860889.595668: $GPGSA,A,3,8,10,15,18,21,20,24,27,32,14,138,,1.6,0.8,1.3*37
2017-11-16 14:34:50 1510860890.520029: $GPZDA,193449.00,16,11,2017,00,00*67
2017-11-16 14:34:50 1510860890.520237: $GPGGA,193449,3946.9564,N,08404.9849,W,2,11,0.80,302.66,M,-33.324,M,,*72
2017-11-16 14:34:50 1510860890.520356: $GPRMC,193449,A,3946.9564,N,08404.9849,W,0.0000,0.000,161117,,*3E
2017-11-16 14:34:50 1510860890.520415: $GPGSA,A,3,8,10,15,18,21,20,24,27,32,14,138,,1.6,0.8,1.3*37
2017-11-16 14:34:51 1510860891.855903: $GPGSV,3,1,11,08,08,313,38,10,49,309,50,15,29,055,50,18,76,003,45*72
2017-11-16 14:34:51 1510860891.856070: $GPGSV,3,2,11,21,54,184,46,20,26,103,46,24,53,094,51,27,17,280,41*76
2017-11-16 14:34:51 1510860891.856130: $GPGSV,3,3,11,32,28,244,46,14,11,237,42,138,38,213,45*77
2017-11-16 14:34:51 1510860891.969186: $GPZDA,193450.00,16,11,2017,00,00*6F
2017-11-16 14:34:51 1510860891.969387: $GPGGA,193450,3946.9564,N,08404.9849,W,2,11,0.80,302.66,M,-33.324,M,,*7A
2017-11-16 14:34:51 1510860891.969466: $GPRMC,193450,A,3946.9564,N,08404.9849,W,0.0000,0.000,161117,,*36
2017-11-16 14:34:51 1510860891.969522: $GPGSA,A,3,8,10,15,18,21,20,24,27,32,14,138,,1.6,0.8,1.3*37
2017-11-16 14:34:52 1510860892.518855: $GPZDA,193451.00,16,11,2017,00,00*6E
2017-11-16 14:34:52 1510860892.519036: $GPGGA,193451,3946.9564,N,08404.9849,W,2,11,0.80,302.66,M,-33.324,M,,*7B
2017-11-16 14:34:52 1510860892.519098: $GPRMC,193451,A,3946.9564,N,08404.9849,W,0.0000,0.000,161117,,*37
2017-11-16 14:34:52 1510860892.519154: $GPGSA,A,3,8,10,15,18,21,20,24,27,32,14,138,,1.6,0.8,1.3*37
2017-11-16 14:34:53 1510860893.521082: $GPZDA,193452.00,16,11,2017,00,00*6D
2017-11-16 14:34:53 1510860893.521231: $GPGGA,193452,3946.9564,N,08404.9849,W,2,11,0.80,302.66,M,-33.324,M,,*78
2017-11-16 14:34:53 1510860893.521294: $GPRMC,193452,A,3946.9564,N,08404.9849,W,0.0000,0.000,161117,,*34
2017-11-16 14:34:53 1510860893.521353: $GPGSA,A,3,8,10,15,18,21,20,24,27,32,14,138,,1.6,0.8,1.3*37
2017-11-16 14:34:54 1510860894.858897: $GPGSV,3,1,11,08,08,313,37,10,49,309,49,15,29,055,50,18,76,003,45*75
2017-11-16 14:34:54 1510860894.859114: $GPGSV,3,2,11,21,54,184,46,20,26,103,46,24,53,094,50,27,17,280,42*74
2017-11-16 14:34:54 1510860894.859174: $GPGSV,3,3,11,32,28,244,47,14,11,237,41,138,38,213,44*74
2017-11-16 14:34:54 1510860894.972222: $GPZDA,193453.00,16,11,2017,00,00*6C
2017-11-16 14:34:54 1510860894.972378: $GPGGA,193453,3946.9564,N,08404.9849,W,2,11,0.80,302.66,M,-33.324,M,,*79
2017-11-16 14:34:54 1510860894.972438: $GPRMC,193453,A,3946.9564,N,08404.9849,W,0.0000,0.000,161117,,*35
2017-11-16 14:34:54 1510860894.972493: $GPGSA,A,3,8,10,15,18,21,20,24,27,32,14,138,,1.6,0.8,1.3*37
2017-11-16 14:34:55 1510860895.520937: $GPZDA,193454.00,16,11,2017,00,00*6B
2017-11-16 14:34:55 1510860895.521096: $GPGGA,193454,3946.9564,N,08404.9849,W,2,11,0.80,302.66,M,-33.324,M,,*7E
2017-11-16 14:34:55 1510860895.521157: $GPRMC,193454,A,3946.9564,N,08404.9849,W,0.0000,0.000,161117,,*32
2017-11-16 14:34:55 1510860895.521213: $GPGSA,A,3,8,10,15,18,21,20,24,27,32,14,138,,1.6,0.8,1.3*37
2017-11-16 14:34:56 1510860896.523033: $GPZDA,193455.00,16,11,2017,00,00*6A
2017-11-16 14:34:56 1510860896.523196: $GPGGA,193455,3946.9564,N,08404.9849,W,2,11,0.80,302.66,M,-33.324,M,,*7F
2017-11-16 14:34:56 1510860896.523257: $GPRMC,193455,A,3946.9564,N,08404.9849,W,0.0000,0.000,161117,,*33
2017-11-16 14:34:56 1510860896.523332: $GPGSA,A,3,8,10,15,18,21,20,24,27,32,14,138,,1.6,0.8,1.3*37
2017-11-16 14:34:57 1510860897.857359: $GPGSV,3,1,11,08,08,313,37,10,49,309,49,15,29,055,50,18,76,003,45*75
2017-11-16 14:34:57 1510860897.857527: $GPGSV,3,2,11,21,54,184,46,20,26,103,46,24,53,094,50,27,17,280,42*74
2017-11-16 14:34:57 1510860897.857588: $GPGSV,3,3,11,32,28,244,47,14,11,237,41,138,38,213,42*72
2017-11-16 14:34:57 1510860897.970988: $GPZDA,193456.00,16,11,2017,00,00*69
2017-11-16 14:34:57 1510860897.971136: $GPGGA,193456,3946.9564,N,08404.9849,W,2,11,0.80,302.66,M,-33.324,M,,*7C
2017-11-16 14:34:57 1510860897.971197: $GPRMC,193456,A,3946.9564,N,08404.9849,W,0.0000,0.000,161117,,*30
2017-11-16 14:34:57 1510860897.971253: $GPGSA,A,3,8,10,15,18,21,20,24,27,32,14,138,,1.6,0.8,1.3*37
2017-11-16 14:34:58 1510860898.520505: $GPZDA,193457.00,16,11,2017,00,00*68
2017-11-16 14:34:58 1510860898.520678: $GPGGA,193457,3946.9564,N,08404.9849,W,2,11,0.80,302.66,M,-33.324,M,,*7D
2017-11-16 14:34:58 1510860898.520762: $GPRMC,193457,A,3946.9564,N,08404.9849,W,0.0000,0.000,161117,,*31
2017-11-16 14:34:58 1510860898.520820: $GPGSA,A,3,8,10,15,18,21,20,24,27,32,14,138,,1.6,0.8,1.3*37
2017-11-16 14:34:59 1510860899.519519: $GPZDA,193458.00,16,11,2017,00,00*67
2017-11-16 14:34:59 1510860899.519712: $GPGGA,193458,3946.9564,N,08404.9849,W,2,11,0.80,302.66,M,-33.324,M,,*72
2017-11-16 14:34:59 1510860899.519776: $GPRMC,193458,A,3946.9564,N,08404.9849,W,0.0000,0.000,161117,,*3E
2017-11-16 14:34:59 1510860899.519832: $GPGSA,A,3,8,10,15,18,21,20,24,27,32,14,138,,1.6,0.8,1.3*37
2017-11-16 14:35:00 1510860900.891575: $GPGSV,3,1,11,08,08,313,34,10,49,309,49,15,29,055,50,18,76,003,45*76
2017-11-16 14:35:00 1510860900.891750: $GPGSV,3,2,11,21,54,184,46,20,26,103,46,24,53,094,50,27,17,280,42*74
2017-11-16 14:35:00 1510860900.891811: $GPGSV,3,3,11,32,28,244,47,14,11,237,41,138,38,213,42*72
2017-11-16 14:35:01 1510860901.004842: $GPZDA,193459.00,16,11,2017,00,00*66
2017-11-16 14:35:01 1510860901.004984: $GPGGA,193459,3946.9564,N,08404.9849,W,2,11,0.80,302.66,M,-33.324,M,,*73
2017-11-16 14:35:01 1510860901.005042: $GPRMC,193459,A,3946.9564,N,08404.9849,W,0.0000,0.000,161117,,*3F
2017-11-16 14:35:01 1510860901.005097: $GPGSA,A,3,8,10,15,18,21,20,24,27,32,14,138,,1.6,0.8,1.3*37
2017-11-16 14:35:01 1510860901.555743: $GPZDA,193500.00,16,11,2017,00,00*6B
2017-11-16 14:35:01 1510860901.555909: $GPGGA,193500,3946.9564,N,08404.9849,W,2,11,0.80,302.66,M,-33.324,M,,*7E
2017-11-16 14:35:01 1510860901.555971: $GPRMC,193500,A,3946.9564,N,08404.9849,W,0.0000,0.000,161117,,*32
2017-11-16 14:35:01 1510860901.556027: $GPGSA,A,3,8,10,15,18,21,20,24,27,32,14,138,,1.6,0.8,1.3*37
2017-11-16 14:35:02 1510860902.555447: $GPZDA,193501.00,16,11,2017,00,00*6A
2017-11-16 14:35:02 1510860902.555659: $GPGGA,193501,3946.9564,N,08404.9849,W,2,11,0.80,302.66,M,-33.324,M,,*7F
2017-11-16 14:35:02 1510860902.555723: $GPRMC,193501,A,3946.9564,N,08404.9849,W,0.0000,0.000,161117,,*33
2017-11-16 14:35:02 1510860902.555780: $GPGSA,A,3,8,10,15,18,21,20,24,27,32,14,138,,1.6,0.8,1.3*37
2017-11-16 14:35:03 1510860903.892567: $GPGSV,3,1,11,08,08,313,34,10,49,309,49,15,29,055,50,18,76,003,45*76
2017-11-16 14:35:03 1510860903.892751: $GPGSV,3,2,11,21,54,184,46,20,26,103,46,24,53,094,49,27,17,280,42*7C
2017-11-16 14:35:03 1510860903.892831: $GPGSV,3,3,11,32,28,244,46,14,11,237,41,138,38,213,44*75
2017-11-16 14:35:04 1510860904.006168: $GPZDA,193502.00,16,11,2017,00,00*69
2017-11-16 14:35:04 1510860904.006306: $GPGGA,193502,3946.9564,N,08404.9849,W,2,11,0.80,302.66,M,-33.324,M,,*7C
2017-11-16 14:35:04 1510860904.006365: $GPRMC,193502,A,3946.9564,N,08404.9849,W,0.0000,0.000,161117,,*30
2017-11-16 14:35:04 1510860904.006421: $GPGSA,A,3,8,10,15,18,21,20,24,27,32,14,138,,1.6,0.8,1.3*37
2017-11-16 14:35:04 1510860904.631312: $GPZDA,193503.00,16,11,2017,00,00*68
2017-11-16 14:35:04 1510860904.631479: $GPGGA,193503,3946.9564,N,08404.9849,W,2,11,0.80,302.66,M,-33.324,M,,*7D
2017-11-16 14:35:04 1510860904.631540: $GPRMC,193503,A,3946.9564,N,08404.9849,W,0.0000,0.000,161117,,*31
2017-11-16 14:35:04 1510860904.631596: $GPGSA,A,3,8,10,15,18,21,20,24,27,32,14,138,,1.6,0.8,1.3*37
2017-11-16 14:35:05 1510860905.521192: $GPZDA,193504.00,16,11,2017,00,00*6F
2017-11-16 14:35:05 1510860905.521379: $GPGGA,193504,3946.9564,N,08404.9849,W,2,11,0.80,302.66,M,-33.324,M,,*7A
2017-11-16 14:35:05 1510860905.521448: $GPRMC,193504,A,3946.9564,N,08404.9849,W,0.0000,0.000,161117,,*36
2017-11-16 14:35:05 1510860905.521511: $GPGSA,A,3,8,10,15,18,21,20,24,27,32,14,138,,1.6,0.8,1.3*37
2017-11-16 14:35:06 1510860906.858103: $GPGSV,3,1,11,08,08,313,39,10,49,309,49,15,29,055,50,18,76,003,45*7B
2017-11-16 14:35:06 1510860906.858273: $GPGSV,3,2,11,21,54,184,46,20,26,103,46,24,53,094,49,27,17,280,42*7C
2017-11-16 14:35:06 1510860906.858333: $GPGSV,3,3,11,32,28,244,46,14,11,237,42,138,38,213,44*76
2017-11-16 14:35:06 1510860906.971443: $GPZDA,193505.00,16,11,2017,00,00*6E
2017-11-16 14:35:06 1510860906.971609: $GPGGA,193505,3946.9564,N,08404.9849,W,2,11,0.80,302.66,M,-33.324,M,,*7B
2017-11-16 14:35:06 1510860906.971672: $GPRMC,193505,A,3946.9564,N,08404.9849,W,0.0000,0.000,161117,,*37
2017-11-16 14:35:06 1510860906.971728: $GPGSA,A,3,8,10,15,18,21,20,24,27,32,14,138,,1.6,0.8,1.3*37
2017-11-16 14:35:07 1510860907.521077: $GPZDA,193506.00,16,11,2017,00,00*6D
2017-11-16 14:35:07 1510860907.521244: $GPGGA,193506,3946.9564,N,08404.9849,W,2,11,0.80,302.66,M,-33.324,M,,*78
2017-11-16 14:35:07 1510860907.521306: $GPRMC,193506,A,3946.9564,N,08404.9849,W,0.0000,0.000,161117,,*34
2017-11-16 14:35:07 1510860907.521363: $GPGSA,A,3,8,10,15,18,21,20,24,27,32,14,138,,1.6,0.8,1.3*37
2017-11-16 14:35:08 1510860908.520716: $GPZDA,193507.00,16,11,2017,00,00*6C
2017-11-16 14:35:08 1510860908.520897: $GPGGA,193507,3946.9564,N,08404.9849,W,2,11,0.80,302.66,M,-33.324,M,,*79
2017-11-16 14:35:08 1510860908.520961: $GPRMC,193507,A,3946.9564,N,08404.9849,W,0.0000,0.000,161117,,*35
2017-11-16 14:35:08 1510860908.521025: $GPGSA,A,3,8,10,15,18,21,20,24,27,32,14,138,,1.6,0.8,1.3*37
2017-11-16 14:35:09 1510860909.891001: $GPGSV,3,1,11,08,08,313,39,10,49,309,48,15,29,055,50,18,76,003,45*7A
2017-11-16 14:35:09 1510860909.891183: $GPGSV,3,2,11,21,54,184,46,20,26,103,46,24,53,094,49,27,17,280,42*7C
2017-11-16 14:35:09 1510860909.891247: $GPGSV,3,3,11,32,28,244,46,14,11,237,42,138,38,213,43*71
2017-11-16 14:35:10 1510860910.004309: $GPZDA,193508.00,16,11,2017,00,00*63
2017-11-16 14:35:10 1510860910.004473: $GPGGA,193508,3946.9564,N,08404.9849,W,2,11,0.80,302.66,M,-33.324,M,,*76
2017-11-16 14:35:10 1510860910.004538: $GPRMC,193508,A,3946.9564,N,08404.9849,W,0.0000,0.000,161117,,*3A
2017-11-16 14:35:10 1510860910.004617: $GPGSA,A,3,8,10,15,18,21,20,24,27,32,14,138,,1.6,0.8,1.3*37
2017-11-16 14:35:10 1510860910.521536: $GPZDA,193509.00,16,11,2017,00,00*62
2017-11-16 14:35:10 1510860910.521745: $GPGGA,193509,3946.9564,N,08404.9849,W,2,11,0.80,302.66,M,-33.324,M,,*77
2017-11-16 14:35:10 1510860910.521809: $GPRMC,193509,A,3946.9564,N,08404.9849,W,0.0000,0.000,161117,,*3B
2017-11-16 14:35:10 1510860910.521865: $GPGSA,A,3,8,10,15,18,21,20,24,27,32,14,138,,1.6,0.8,1.3*37
2017-11-16 14:35:11 1510860911.520213: $GPZDA,193510.00,16,11,2017,00,00*6A
2017-11-16 14:35:11 1510860911.520420: $GPGGA,193510,3946.9564,N,08404.9849,W,2,11,0.80,302.66,M,-33.324,M,,*7F
2017-11-16 14:35:11 1510860911.520483: $GPRMC,193510,A,3946.9564,N,08404.9849,W,0.0000,0.000,161117,,*33
2017-11-16 14:35:11 1510860911.520539: $GPGSA,A,3,8,10,15,18,21,20,24,27,32,14,138,,1.6,0.8,1.3*37
2017-11-16 14:35:12 1510860912.859564: $GPGSV,3,1,11,08,08,313,38,10,49,309,48,15,29,055,50,18,76,003,45*7B
2017-11-16 14:35:12 1510860912.859734: $GPGSV,3,2,11,21,54,184,46,20,26,103,47,24,53,094,49,27,17,280,42*7D
2017-11-16 14:35:12 1510860912.859794: $GPGSV,3,3,11,32,28,244,47,14,11,237,42,138,38,213,45*76
2017-11-16 14:35:12 1510860912.973223: $GPZDA,193511.00,16,11,2017,00,00*6B
2017-11-16 14:35:12 1510860912.973382: $GPGGA,193511,3946.9564,N,08404.9849,W,2,11,0.80,302.66,M,-33.324,M,,*7E
2017-11-16 14:35:12 1510860912.973443: $GPRMC,193511,A,3946.9564,N,08404.9849,W,0.0000,0.000,161117,,*32
2017-11-16 14:35:12 1510860912.973498: $GPGSA,A,3,8,10,15,18,21,20,24,27,32,14,138,,1.6,0.8,1.3*37
2017-11-16 14:35:13 1510860913.555283: $GPZDA,193512.00,16,11,2017,00,00*68
2017-11-16 14:35:13 1510860913.555444: $GPGGA,193512,3946.9564,N,08404.9849,W,2,11,0.80,302.66,M,-33.324,M,,*7D
2017-11-16 14:35:13 1510860913.555504: $GPRMC,193512,A,3946.9564,N,08404.9849,W,0.0000,0.000,161117,,*31
2017-11-16 14:35:13 1510860913.555560: $GPGSA,A,3,8,10,15,18,21,20,24,27,32,14,138,,1.6,0.8,1.3*37
2017-11-16 14:35:14 1510860914.557028: $GPZDA,193513.00,16,11,2017,00,00*69
2017-11-16 14:35:14 1510860914.557241: $GPGGA,193513,3946.9564,N,08404.9849,W,2,11,0.80,302.66,M,-33.324,M,,*7C
2017-11-16 14:35:14 1510860914.557303: $GPRMC,193513,A,3946.9564,N,08404.9849,W,0.0000,0.000,161117,,*30
2017-11-16 14:35:14 1510860914.557359: $GPGSA,A,3,8,10,15,18,21,20,24,27,32,14,138,,1.6,0.8,1.3*37
2017-11-16 14:35:15 1510860915.857496: $GPGSV,3,1,11,08,08,313,38,10,49,309,48,15,29,055,50,18,76,003,46*78
2017-11-16 14:35:15 1510860915.857666: $GPGSV,3,2,11,21,54,184,46,20,26,103,47,24,53,094,49,27,17,280,42*7D
2017-11-16 14:35:15 1510860915.857726: $GPGSV,3,3,11,32,28,244,47,14,11,237,42,138,38,213,45*76
2017-11-16 14:35:15 1510860915.971174: $GPZDA,193514.00,16,11,2017,00,00*6E
2017-11-16 14:35:15 1510860915.971333: $GPGGA,193514,3946.9564,N,08404.9849,W,2,11,0.80,302.66,M,-33.324,M,,*7B
2017-11-16 14:35:15 1510860915.971393: $GPRMC,193514,A,3946.9564,N,08404.9849,W,0.0000,0.000,161117,,*37
2017-11-16 14:35:15 1510860915.971449: $GPGSA,A,3,8,10,15,18,21,20,24,27,32,14,138,,1.6,0.8,1.3*37
2017-11-16 14:35:16 1510860916.522168: $GPZDA,193515.00,16,11,2017,00,00*6F
2017-11-16 14:35:16 1510860916.522344: $GPGGA,193515,3946.9564,N,08404.9849,W,2,11,0.80,302.66,M,-33.324,M,,*7A
2017-11-16 14:35:16 1510860916.522406: $GPRMC,193515,A,3946.9564,N,08404.9849,W,0.0000,0.000,161117,,*36
2017-11-16 14:35:16 1510860916.522462: $GPGSA,A,3,8,10,15,18,21,20,24,27,32,14,138,,1.6,0.8,1.3*37
