2017-12-31 17:46:53 1514760413.444405: {"class":"VERSION","release":"3.16","rev":"3.16-4","proto_major":3,"proto_minor":11}
2017-12-31 17:46:53 1514760413.444746: {"class":"DEVICES","devices":[{"class":"DEVICE","path":"/dev/ttyUSB0","driver":"SiRF","activated":"2017-12-31T22:46:53.383Z","flags":1,"native":1,"bps":4800,"parity":"N","stopbits":1,"cycle":1.00}]}
2017-12-31 17:46:53 1514760413.444845: {"class":"WATCH","enable":true,"json":false,"nmea":true,"raw":0,"scaled":false,"timing":false,"split24":false,"pps":false}
2017-12-31 17:46:54 1514760414.681966: $GPGSV,3,1,12,22,31,222,43,23,44,309,42,09,11,312,39,03,39,244,42*7C
2017-12-31 17:46:54 1514760414.682147: $GPGSV,3,2,12,16,68,192,40,29,10,037,22,14,24,127,25,31,36,066,40*71
2017-12-31 17:46:54 1514760414.682214: $GPGSV,3,3,12,27,13,159,20,32,03,132,17,26,72,063,44,135,22,240,42*45
2017-12-31 17:46:54 1514760414.795535: $GPZDA,224655.00,31,12,2017,00,00*61
2017-12-31 17:46:54 1514760414.795676: $GPGGA,224655,3946.9586,N,08404.9870,W,2,12,0.60,305.63,M,-33.324,M,,*7B
2017-12-31 17:46:54 1514760414.795742: $GPRMC,224655,A,3946.9586,N,08404.9870,W,0.0000,0.000,311217,,*3E
2017-12-31 17:46:54 1514760414.795803: $GPGSA,A,3,22,23,9,3,16,29,14,31,27,32,26,135,1.7,0.6,1.3*07
2017-12-31 17:46:55 1514760415.420778: $GPZDA,224656.00,31,12,2017,00,00*62
2017-12-31 17:46:55 1514760415.420958: $GPGGA,224656,3946.9586,N,08404.9870,W,2,12,0.60,305.63,M,-33.324,M,,*78
2017-12-31 17:46:55 1514760415.421063: $GPRMC,224656,A,3946.9586,N,08404.9870,W,0.0000,0.000,311217,,*3D
2017-12-31 17:46:55 1514760415.421128: $GPGSA,A,3,22,23,9,3,16,29,14,31,27,32,26,135,1.7,0.6,1.3*07
2017-12-31 17:46:56 1514760416.346647: $GPZDA,224657.00,31,12,2017,00,00*63
2017-12-31 17:46:56 1514760416.346812: $GPGGA,224657,3946.9586,N,08404.9870,W,2,12,0.80,305.63,M,-33.324,M,,*77
2017-12-31 17:46:56 1514760416.346878: $GPRMC,224657,A,3946.9586,N,08404.9870,W,0.0000,0.000,311217,,*3C
2017-12-31 17:46:56 1514760416.346939: $GPGSA,A,3,22,23,9,3,16,29,14,31,27,32,26,135,1.7,0.8,1.3*09
2017-12-31 17:46:57 1514760417.707375: $GPGSV,3,1,12,22,31,222,44,23,44,309,43,09,11,312,40,03,39,244,43*75
2017-12-31 17:46:57 1514760417.707537: $GPGSV,3,2,12,16,68,192,42,29,10,037,20,14,24,127,26,31,36,066,41*73
2017-12-31 17:46:57 1514760417.707605: $GPGSV,3,3,12,27,13,159,26,32,03,132,16,26,72,063,45,135,22,240,44*45
2017-12-31 17:46:57 1514760417.820907: $GPZDA,224658.00,31,12,2017,00,00*6C
2017-12-31 17:46:57 1514760417.821039: $GPGGA,224658,3946.9586,N,08404.9870,W,2,12,0.60,305.63,M,-33.324,M,,*76
2017-12-31 17:46:57 1514760417.821105: $GPRMC,224658,A,3946.9586,N,08404.9870,W,0.0000,0.000,311217,,*33
2017-12-31 17:46:57 1514760417.821164: $GPGSA,A,3,22,23,9,3,16,29,14,31,27,32,26,135,1.7,0.6,1.3*07
2017-12-31 17:46:58 1514760418.346664: $GPZDA,224659.00,31,12,2017,00,00*6D
2017-12-31 17:46:58 1514760418.346819: $GPGGA,224659,3946.9582,N,08404.9863,W,2,12,0.60,305.06,M,-33.324,M,,*72
2017-12-31 17:46:58 1514760418.346885: $GPRMC,224659,A,3946.9582,N,08404.9863,W,0.3155,129.994,311217,,*38
2017-12-31 17:46:58 1514760418.346947: $GPGSA,A,3,22,23,9,3,16,29,14,31,27,32,26,135,1.7,0.6,1.3*07
2017-12-31 17:46:59 1514760419.371522: $GPZDA,224700.00,31,12,2017,00,00*60
2017-12-31 17:46:59 1514760419.371683: $GPGGA,224700,3946.9582,N,08404.9863,W,2,12,0.60,305.06,M,-33.324,M,,*7F
2017-12-31 17:46:59 1514760419.371749: $GPRMC,224700,A,3946.9582,N,08404.9863,W,0.0000,0.000,311217,,*39
2017-12-31 17:46:59 1514760419.371810: $GPGSA,A,3,22,23,9,3,16,29,14,31,27,32,26,135,1.7,0.6,1.3*07
2017-12-31 17:47:00 1514760420.706476: $GPGSV,3,1,12,22,31,222,45,23,44,309,44,09,11,312,41,03,39,244,44*75
2017-12-31 17:47:00 1514760420.706714: $GPGSV,3,2,12,16,68,192,43,29,10,037,33,14,24,127,31,31,36,066,41*76
2017-12-31 17:47:00 1514760420.706805: $GPGSV,3,3,12,27,13,159,25,32,03,132,00,26,72,063,46,135,22,240,44*42
2017-12-31 17:47:00 1514760420.820085: $GPZDA,224701.00,31,12,2017,00,00*61
2017-12-31 17:47:00 1514760420.820238: $GPGGA,224701,3946.9582,N,08404.9863,W,2,11,0.60,305.06,M,-33.324,M,,*7D
2017-12-31 17:47:00 1514760420.820309: $GPRMC,224701,A,3946.9582,N,08404.9863,W,0.0000,0.000,311217,,*38
2017-12-31 17:47:00 1514760420.820424: $GPGSA,A,3,22,23,9,3,16,29,14,31,27,26,135,,1.7,0.6,1.3*06
2017-12-31 17:47:01 1514760421.347219: $GPZDA,224702.00,31,12,2017,00,00*62
2017-12-31 17:47:01 1514760421.347371: $GPGGA,224702,3946.9582,N,08404.9863,W,2,11,0.60,305.06,M,-33.324,M,,*7E
2017-12-31 17:47:01 1514760421.347438: $GPRMC,224702,A,3946.9582,N,08404.9863,W,0.0000,0.000,311217,,*3B
2017-12-31 17:47:01 1514760421.347499: $GPGSA,A,3,22,23,9,3,16,29,14,31,27,26,135,,1.7,0.6,1.3*06
2017-12-31 17:47:02 1514760422.373129: $GPZDA,224703.00,31,12,2017,00,00*63
2017-12-31 17:47:02 1514760422.373298: $GPGGA,224703,3946.9582,N,08404.9863,W,2,11,0.60,305.06,M,-33.324,M,,*7F
2017-12-31 17:47:02 1514760422.373368: $GPRMC,224703,A,3946.9582,N,08404.9863,W,0.0000,0.000,311217,,*3A
2017-12-31 17:47:02 1514760422.373429: $GPGSA,A,3,22,23,9,3,16,29,14,31,27,26,135,,1.7,0.6,1.3*06
