2017-11-16 15:39:01 1510864741.206894: {"class":"VERSION","release":"3.17","rev":"3.17","proto_major":3,"proto_minor":12}
2017-11-16 15:39:01 1510864741.207122: {"class":"DEVICES","devices":[{"class":"DEVICE","path":"/dev/ttyUSB0","driver":"SiRF","subtype":"9\u0006GSD4e_4.1.2-P1_RPATCH.05-F-GPS-4R-1510281 11/03/2015 307","activated":"2017-11-16T20:39:01.190Z","flags":1,"native":1,"bps":4800,"parity":"N","stopbits":1,"cycle":1.00}]}
2017-11-16 15:39:01 1510864741.207177: {"class":"WATCH","enable":true,"json":false,"nmea":true,"raw":0,"scaled":false,"timing":false,"split24":false,"pps":false}
2017-11-16 15:39:01 1510864741.703926: $GPGSV,3,1,12,08,04,288,34,10,74,340,51,14,33,258,45,31,04,204,37*7F
2017-11-16 15:39:01 1510864741.704119: $GPGSV,3,2,12,18,66,105,48,20,04,121,17,21,23,178,43,24,40,054,50*75
2017-11-16 15:39:01 1510864741.704186: $GPGSV,3,3,12,25,07,138,25,32,50,271,46,12,13,102,35,138,38,213,44*40
2017-11-16 15:39:01 1510864741.817030: $GPZDA,203900.00,16,11,2017,00,00*6D
2017-11-16 15:39:01 1510864741.817185: $GPGGA,203900,3946.9568,N,08404.9859,W,2,12,1.20,308.20,M,-33.324,M,,*75
2017-11-16 15:39:01 1510864741.817245: $GPRMC,203900,A,3946.9568,N,08404.9859,W,0.0000,0.000,161117,,*39
2017-11-16 15:39:01 1510864741.817301: $GPGSA,A,3,8,10,14,31,18,20,21,24,25,32,12,138,1.6,1.2,1.3*3B
2017-11-16 15:39:02 1510864742.365455: $GPZDA,203901.00,16,11,2017,00,00*6C
2017-11-16 15:39:02 1510864742.369819: $GPGGA,203901,3946.9568,N,08404.9859,W,2,12,1.20,308.20,M,-33.324,M,,*74
2017-11-16 15:39:02 1510864742.369912: $GPRMC,203901,A,3946.9568,N,08404.9859,W,0.0000,0.000,161117,,*38
2017-11-16 15:39:02 1510864742.369971: $GPGSA,A,3,8,10,14,31,18,20,21,24,25,32,12,138,1.6,1.2,1.3*3B
2017-11-16 15:39:03 1510864743.382547: $GPZDA,203902.00,16,11,2017,00,00*6F
2017-11-16 15:39:03 1510864743.382653: $GPGGA,203902,3946.9568,N,08404.9859,W,2,12,1.20,308.20,M,-33.324,M,,*77
2017-11-16 15:39:03 1510864743.382683: $GPRMC,203902,A,3946.9568,N,08404.9859,W,0.0000,0.000,161117,,*3B
2017-11-16 15:39:03 1510864743.382712: $GPGSA,A,3,8,10,14,31,18,20,21,24,25,32,12,138,1.6,1.2,1.3*3B
2017-11-16 15:39:04 1510864744.702626: $GPGSV,3,1,12,08,04,288,34,10,74,340,51,14,33,258,45,31,04,204,37*7F
2017-11-16 15:39:04 1510864744.702812: $GPGSV,3,2,12,18,66,105,48,20,04,121,12,21,23,178,43,24,40,054,49*78
2017-11-16 15:39:04 1510864744.702873: $GPGSV,3,3,12,25,07,138,22,32,50,271,46,12,13,102,35,138,38,213,44*47
2017-11-16 15:39:04 1510864744.815911: $GPZDA,203903.00,16,11,2017,00,00*6E
2017-11-16 15:39:04 1510864744.816093: $GPGGA,203903,3946.9568,N,08404.9859,W,2,12,1.20,308.20,M,-33.324,M,,*76
2017-11-16 15:39:04 1510864744.816155: $GPRMC,203903,A,3946.9568,N,08404.9859,W,0.0000,0.000,161117,,*3A
2017-11-16 15:39:04 1510864744.816211: $GPGSA,A,3,8,10,14,31,18,20,21,24,25,32,12,138,1.6,1.2,1.3*3B
2017-11-16 15:39:05 1510864745.364919: $GPZDA,203904.00,16,11,2017,00,00*69
2017-11-16 15:39:05 1510864745.365024: $GPGGA,203904,3946.9568,N,08404.9859,W,2,12,1.20,308.20,M,-33.324,M,,*71
2017-11-16 15:39:05 1510864745.365055: $GPRMC,203904,A,3946.9568,N,08404.9859,W,0.0000,0.000,161117,,*3D
2017-11-16 15:39:05 1510864745.365084: $GPGSA,A,3,8,10,14,31,18,20,21,24,25,32,12,138,1.6,1.2,1.3*3B
2017-11-16 15:39:06 1510864746.391631: $GPZDA,203905.00,16,11,2017,00,00*68
2017-11-16 15:39:06 1510864746.391751: $GPGGA,203905,3946.9568,N,08404.9859,W,2,12,1.20,308.20,M,-33.324,M,,*70
2017-11-16 15:39:06 1510864746.391782: $GPRMC,203905,A,3946.9568,N,08404.9859,W,0.0000,0.000,161117,,*3C
2017-11-16 15:39:06 1510864746.391810: $GPGSA,A,3,8,10,14,31,18,20,21,24,25,32,12,138,1.6,1.2,1.3*3B
2017-11-16 15:39:07 1510864747.702804: $GPGSV,3,1,12,15,07,069,20,10,74,340,51,14,33,258,44,31,04,204,36*78
2017-11-16 15:39:07 1510864747.702924: $GPGSV,3,2,12,18,66,105,48,08,04,288,34,21,23,178,43,24,40,054,49*76
2017-11-16 15:39:07 1510864747.702956: $GPGSV,3,3,12,25,07,138,22,32,50,271,46,12,13,102,35,138,38,213,44*47
2017-11-16 15:39:07 1510864747.814386: $GPZDA,203906.00,16,11,2017,00,00*6B
2017-11-16 15:39:07 1510864747.814492: $GPGGA,203906,3946.9568,N,08404.9859,W,2,12,1.20,308.20,M,-33.324,M,,*73
2017-11-16 15:39:07 1510864747.814556: $GPRMC,203906,A,3946.9568,N,08404.9859,W,0.0000,0.000,161117,,*3F
2017-11-16 15:39:07 1510864747.814585: $GPGSA,A,3,15,10,14,31,18,8,21,24,25,32,12,138,1.6,1.2,1.3*3D
2017-11-16 15:39:08 1510864748.365913: $GPZDA,203907.00,16,11,2017,00,00*6A
2017-11-16 15:39:08 1510864748.366086: $GPGGA,203907,3946.9568,N,08404.9859,W,2,12,1.20,308.20,M,-33.324,M,,*72
2017-11-16 15:39:08 1510864748.366148: $GPRMC,203907,A,3946.9568,N,08404.9859,W,0.0000,0.000,161117,,*3E
2017-11-16 15:39:08 1510864748.366204: $GPGSA,A,3,15,10,14,31,18,8,21,24,25,32,12,138,1.6,1.2,1.3*3D
2017-11-16 15:39:09 1510864749.366400: $GPZDA,203908.00,16,11,2017,00,00*65
2017-11-16 15:39:09 1510864749.366520: $GPGGA,203908,3946.9568,N,08404.9859,W,2,12,1.20,308.20,M,-33.324,M,,*7D
2017-11-16 15:39:09 1510864749.366553: $GPRMC,203908,A,3946.9568,N,08404.9859,W,0.0000,0.000,161117,,*31
2017-11-16 15:39:09 1510864749.366582: $GPGSA,A,3,15,10,14,31,18,8,21,24,25,32,12,138,1.6,1.2,1.3*3D
2017-11-16 15:39:10 1510864750.700118: $GPGSV,3,1,12,15,07,069,22,10,74,340,51,14,33,258,45,31,04,204,36*7B
2017-11-16 15:39:10 1510864750.700352: $GPGSV,3,2,12,18,66,105,48,08,04,288,32,21,23,178,43,24,40,054,50*78
2017-11-16 15:39:10 1510864750.700442: $GPGSV,3,3,12,25,07,138,21,32,50,271,46,12,13,102,35,138,38,213,44*44
2017-11-16 15:39:10 1510864750.813461: $GPZDA,203909.00,16,11,2017,00,00*64
2017-11-16 15:39:10 1510864750.813621: $GPGGA,203909,3946.9568,N,08404.9859,W,2,12,1.20,308.20,M,-33.324,M,,*7C
2017-11-16 15:39:10 1510864750.813681: $GPRMC,203909,A,3946.9568,N,08404.9859,W,0.0000,0.000,161117,,*30
2017-11-16 15:39:10 1510864750.813757: $GPGSA,A,3,15,10,14,31,18,8,21,24,25,32,12,138,1.6,1.2,1.3*3D
