2017-12-01 14:11:43 1512155503.137354: {"class":"VERSION","release":"3.16","rev":"3.16-4","proto_major":3,"proto_minor":11}
2017-12-01 14:11:43 1512155503.137731: {"class":"DEVICES","devices":[{"class":"DEVICE","path":"/dev/ttyUSB0","driver":"SiRF","subtype":"9\u0006GSD4e_4.1.2-P1_RPATCH.05-F-GPS-4R-1510281 11/03/2015 307","activated":"2017-12-01T19:11:42.659Z","flags":1,"native":1,"bps":4800,"parity":"N","stopbits":1,"cycle":1.00}]}
2017-12-01 14:11:43 1512155503.137844: {"class":"WATCH","enable":true,"json":false,"nmea":true,"raw":0,"scaled":false,"timing":false,"split24":false,"pps":false}
2017-12-01 14:11:43 1512155503.349942: $GPZDA,191144.00,01,12,2017,00,00*68
2017-12-01 14:11:43 1512155503.350111: $GPGGA,191144,3946.9532,N,08404.9845,W,2,12,0.80,316.08,M,-33.324,M,,*79
2017-12-01 14:11:43 1512155503.350179: $GPRMC,191144,A,3946.9532,N,08404.9845,W,0.0000,0.000,011217,,*3E
2017-12-01 14:11:43 1512155503.350240: $GPGSA,A,3,8,10,14,15,18,20,21,24,27,32,12,138,2.0,0.8,1.5*37
2017-12-01 14:11:44 1512155504.684150: $GPGSV,3,1,12,08,07,298,40,10,64,324,50,14,25,249,42,15,15,064,35*7C
2017-12-01 14:11:44 1512155504.684321: $GPGSV,3,2,12,18,74,079,42,20,13,115,34,21,34,180,44,24,48,064,48*72
2017-12-01 14:11:44 1512155504.684388: $GPGSV,3,3,12,27,09,264,38,32,42,259,45,12,06,111,27,138,38,213,46*47
2017-12-01 14:11:44 1512155504.797790: $GPZDA,191145.00,01,12,2017,00,00*69
2017-12-01 14:11:44 1512155504.797960: $GPGGA,191145,3946.9536,N,08404.9845,W,2,12,0.80,316.72,M,-33.324,M,,*71
2017-12-01 14:11:44 1512155504.798027: $GPRMC,191145,A,3946.9536,N,08404.9845,W,0.0000,0.000,011217,,*3B
2017-12-01 14:11:44 1512155504.798087: $GPGSA,A,3,8,10,14,15,18,20,21,24,27,32,12,138,2.0,0.8,1.5*37
2017-12-01 14:11:45 1512155505.349934: $GPZDA,191146.00,01,12,2017,00,00*6A
2017-12-01 14:11:45 1512155505.350107: $GPGGA,191146,3946.9536,N,08404.9845,W,2,12,0.80,316.72,M,-33.324,M,,*72
2017-12-01 14:11:45 1512155505.350172: $GPRMC,191146,A,3946.9536,N,08404.9845,W,0.0000,0.000,011217,,*38
2017-12-01 14:11:45 1512155505.350233: $GPGSA,A,3,8,10,14,15,18,20,21,24,27,32,12,138,2.0,0.8,1.5*37
2017-12-01 14:11:46 1512155506.349516: $GPZDA,191147.00,01,12,2017,00,00*6B
2017-12-01 14:11:46 1512155506.349687: $GPGGA,191147,3946.9536,N,08404.9845,W,2,12,0.80,316.72,M,-33.324,M,,*73
2017-12-01 14:11:46 1512155506.349753: $GPRMC,191147,A,3946.9536,N,08404.9845,W,0.0000,0.000,011217,,*39
2017-12-01 14:11:46 1512155506.349813: $GPGSA,A,3,8,10,14,15,18,20,21,24,27,32,12,138,2.0,0.8,1.5*37
2017-12-01 14:11:47 1512155507.683816: $GPGSV,3,1,12,08,07,298,39,10,64,324,50,14,25,249,41,15,15,064,35*71
2017-12-01 14:11:47 1512155507.683997: $GPGSV,3,2,12,18,74,079,42,20,13,115,34,21,34,180,45,24,48,064,48*73
2017-12-01 14:11:47 1512155507.684062: $GPGSV,3,3,12,27,09,264,38,32,42,259,45,12,06,111,26,138,38,213,46*46
2017-12-01 14:11:47 1512155507.797070: $GPZDA,191148.00,01,12,2017,00,00*64
2017-12-01 14:11:47 1512155507.797247: $GPGGA,191148,3946.9536,N,08404.9845,W,2,12,0.80,316.72,M,-33.324,M,,*7C
2017-12-01 14:11:47 1512155507.797312: $GPRMC,191148,A,3946.9536,N,08404.9845,W,0.0000,0.000,011217,,*36
2017-12-01 14:11:47 1512155507.797373: $GPGSA,A,3,8,10,14,15,18,20,21,24,27,32,12,138,2.0,0.8,1.5*37
2017-12-01 14:11:48 1512155508.423668: $GPZDA,191149.00,01,12,2017,00,00*65
2017-12-01 14:11:48 1512155508.423847: $GPGGA,191149,3946.9536,N,08404.9845,W,2,12,0.80,316.72,M,-33.324,M,,*7D
2017-12-01 14:11:48 1512155508.423913: $GPRMC,191149,A,3946.9536,N,08404.9845,W,0.0000,0.000,011217,,*37
2017-12-01 14:11:48 1512155508.423974: $GPGSA,A,3,8,10,14,15,18,20,21,24,27,32,12,138,2.0,0.8,1.5*37
2017-12-01 14:11:49 1512155509.352388: $GPZDA,191150.00,01,12,2017,00,00*6D
2017-12-01 14:11:49 1512155509.352558: $GPGGA,191150,3946.9536,N,08404.9845,W,2,12,0.80,315.32,M,-33.324,M,,*72
2017-12-01 14:11:49 1512155509.352624: $GPRMC,191150,A,3946.9536,N,08404.9845,W,0.0000,0.000,011217,,*3F
2017-12-01 14:11:49 1512155509.352685: $GPGSA,A,3,8,10,14,15,18,20,21,24,27,32,12,138,2.0,0.8,1.5*37
2017-12-01 14:11:50 1512155510.685359: $GPGSV,3,1,12,08,07,298,38,10,64,324,49,14,25,249,41,15,15,064,35*78
2017-12-01 14:11:50 1512155510.685601: $GPGSV,3,2,12,18,74,079,42,20,13,115,34,21,34,180,44,24,48,064,47*7D
2017-12-01 14:11:50 1512155510.685669: $GPGSV,3,3,12,27,09,264,39,32,42,259,45,12,06,111,22,138,38,213,47*42
2017-12-01 14:11:50 1512155510.798660: $GPZDA,191151.00,01,12,2017,00,00*6C
2017-12-01 14:11:50 1512155510.798819: $GPGGA,191151,3946.9536,N,08404.9845,W,2,12,0.80,315.32,M,-33.324,M,,*73
2017-12-01 14:11:50 1512155510.798885: $GPRMC,191151,A,3946.9536,N,08404.9845,W,0.0000,0.000,011217,,*3E
2017-12-01 14:11:50 1512155510.798945: $GPGSA,A,3,8,10,14,15,18,20,21,24,27,32,12,138,2.0,0.8,1.5*37
2017-12-01 14:11:51 1512155511.348277: $GPZDA,191152.00,01,12,2017,00,00*6F
2017-12-01 14:11:51 1512155511.348466: $GPGGA,191152,3946.9536,N,08404.9845,W,2,12,0.80,315.32,M,-33.324,M,,*70
2017-12-01 14:11:51 1512155511.348532: $GPRMC,191152,A,3946.9536,N,08404.9845,W,0.0000,0.000,011217,,*3D
2017-12-01 14:11:51 1512155511.348593: $GPGSA,A,3,8,10,14,15,18,20,21,24,27,32,12,138,2.0,0.8,1.5*37
2017-12-01 14:11:52 1512155512.349333: $GPZDA,191153.00,01,12,2017,00,00*6E
2017-12-01 14:11:52 1512155512.349505: $GPGGA,191153,3946.9536,N,08404.9845,W,2,12,0.80,315.32,M,-33.324,M,,*71
2017-12-01 14:11:52 1512155512.349573: $GPRMC,191153,A,3946.9536,N,08404.9845,W,0.0000,0.000,011217,,*3C
2017-12-01 14:11:52 1512155512.349634: $GPGSA,A,3,8,10,14,15,18,20,21,24,27,32,12,138,2.0,0.8,1.5*37
2017-12-01 14:11:53 1512155513.685666: $GPGSV,3,1,12,08,07,298,37,10,64,324,49,14,25,249,41,15,15,064,35*77
2017-12-01 14:11:53 1512155513.685862: $GPGSV,3,2,12,18,74,079,42,20,13,115,34,21,34,180,44,24,48,064,48*72
2017-12-01 14:11:53 1512155513.685929: $GPGSV,3,3,12,27,09,264,40,32,42,259,45,12,06,111,20,138,38,213,46*4F
2017-12-01 14:11:53 1512155513.799053: $GPZDA,191154.00,01,12,2017,00,00*69
2017-12-01 14:11:53 1512155513.799214: $GPGGA,191154,3946.9536,N,08404.9845,W,2,12,0.80,315.32,M,-33.324,M,,*76
2017-12-01 14:11:53 1512155513.799280: $GPRMC,191154,A,3946.9536,N,08404.9845,W,0.0000,0.000,011217,,*3B
2017-12-01 14:11:53 1512155513.799340: $GPGSA,A,3,8,10,14,15,18,20,21,24,27,32,12,138,2.0,0.8,1.5*37
2017-12-01 14:11:54 1512155514.349961: $GPZDA,191155.00,01,12,2017,00,00*68
2017-12-01 14:11:54 1512155514.350128: $GPGGA,191155,3946.9536,N,08404.9845,W,2,12,0.80,315.32,M,-33.324,M,,*77
2017-12-01 14:11:54 1512155514.350195: $GPRMC,191155,A,3946.9536,N,08404.9845,W,0.0000,0.000,011217,,*3A
2017-12-01 14:11:54 1512155514.350255: $GPGSA,A,3,8,10,14,15,18,20,21,24,27,32,12,138,2.0,0.8,1.5*37
2017-12-01 14:11:55 1512155515.349801: $GPZDA,191156.00,01,12,2017,00,00*6B
2017-12-01 14:11:55 1512155515.349988: $GPGGA,191156,3946.9536,N,08404.9845,W,2,12,0.80,315.32,M,-33.324,M,,*74
2017-12-01 14:11:55 1512155515.350055: $GPRMC,191156,A,3946.9536,N,08404.9845,W,0.0000,0.000,011217,,*39
2017-12-01 14:11:55 1512155515.350116: $GPGSA,A,3,8,10,14,15,18,20,21,24,27,32,12,138,2.0,0.8,1.5*37
2017-12-01 14:11:56 1512155516.679008: $GPGSV,3,1,12,08,07,298,36,10,64,324,49,14,25,249,41,15,15,064,34*77
2017-12-01 14:11:56 1512155516.679170: $GPGSV,3,2,12,18,74,079,43,20,13,115,34,21,34,180,44,24,48,064,48*73
2017-12-01 14:11:56 1512155516.679236: $GPGSV,3,3,12,27,09,264,39,32,42,259,44,12,06,111,22,138,38,213,47*43
2017-12-01 14:11:56 1512155516.792757: $GPZDA,191157.00,01,12,2017,00,00*6A
2017-12-01 14:11:56 1512155516.792943: $GPGGA,191157,3946.9536,N,08404.9845,W,2,12,0.80,315.32,M,-33.324,M,,*75
2017-12-01 14:11:56 1512155516.793012: $GPRMC,191157,A,3946.9536,N,08404.9845,W,0.0000,0.000,011217,,*38
2017-12-01 14:11:56 1512155516.793073: $GPGSA,A,3,8,10,14,15,18,20,21,24,27,32,12,138,2.0,0.8,1.5*37
2017-12-01 14:11:57 1512155517.351110: $GPZDA,191158.00,01,12,2017,00,00*65
2017-12-01 14:11:57 1512155517.351304: $GPGGA,191158,3946.9536,N,08404.9845,W,2,12,0.80,315.32,M,-33.324,M,,*7A
2017-12-01 14:11:57 1512155517.351457: $GPRMC,191158,A,3946.9536,N,08404.9845,W,0.0000,0.000,011217,,*37
2017-12-01 14:11:57 1512155517.351525: $GPGSA,A,3,8,10,14,15,18,20,21,24,27,32,12,138,2.0,0.8,1.5*37
2017-12-01 14:11:58 1512155518.350219: $GPZDA,191159.00,01,12,2017,00,00*64
2017-12-01 14:11:58 1512155518.350389: $GPGGA,191159,3946.9536,N,08404.9845,W,2,12,0.80,315.32,M,-33.324,M,,*7B
2017-12-01 14:11:58 1512155518.350456: $GPRMC,191159,A,3946.9536,N,08404.9845,W,0.0000,0.000,011217,,*36
2017-12-01 14:11:58 1512155518.350517: $GPGSA,A,3,8,10,14,15,18,20,21,24,27,32,12,138,2.0,0.8,1.5*37
2017-12-01 14:11:59 1512155519.684444: $GPGSV,3,1,12,08,07,298,28,10,64,324,49,14,25,249,42,15,15,064,34*7B
2017-12-01 14:11:59 1512155519.684626: $GPGSV,3,2,12,18,74,079,43,20,13,115,34,21,34,180,44,24,48,064,48*73
2017-12-01 14:11:59 1512155519.684693: $GPGSV,3,3,12,27,09,264,39,32,42,259,44,12,06,111,22,138,38,213,46*42
2017-12-01 14:11:59 1512155519.798072: $GPZDA,191200.00,01,12,2017,00,00*6B
2017-12-01 14:11:59 1512155519.798223: $GPGGA,191200,3946.9536,N,08404.9845,W,2,12,0.80,315.32,M,-33.324,M,,*74
2017-12-01 14:11:59 1512155519.798289: $GPRMC,191200,A,3946.9536,N,08404.9845,W,0.0000,0.000,011217,,*39
2017-12-01 14:11:59 1512155519.798350: $GPGSA,A,3,8,10,14,15,18,20,21,24,27,32,12,138,2.0,0.8,1.5*37
2017-12-01 14:12:00 1512155520.348990: $GPZDA,191201.00,01,12,2017,00,00*6A
2017-12-01 14:12:00 1512155520.349175: $GPGGA,191201,3946.9536,N,08404.9845,W,2,12,0.80,315.32,M,-33.324,M,,*75
2017-12-01 14:12:00 1512155520.349242: $GPRMC,191201,A,3946.9536,N,08404.9845,W,0.0000,0.000,011217,,*38
2017-12-01 14:12:00 1512155520.349303: $GPGSA,A,3,8,10,14,15,18,20,21,24,27,32,12,138,2.0,0.8,1.5*37
2017-12-01 14:12:01 1512155521.352377: $GPZDA,191202.00,01,12,2017,00,00*69
2017-12-01 14:12:01 1512155521.352542: $GPGGA,191202,3946.9536,N,08404.9845,W,2,12,0.80,315.32,M,-33.324,M,,*76
2017-12-01 14:12:01 1512155521.352609: $GPRMC,191202,A,3946.9536,N,08404.9845,W,0.0000,0.000,011217,,*3B
2017-12-01 14:12:01 1512155521.352670: $GPGSA,A,3,8,10,14,15,18,20,21,24,27,32,12,138,2.0,0.8,1.5*37
2017-12-01 14:12:02 1512155522.686489: $GPGSV,3,1,12,08,07,298,28,10,64,324,49,14,25,249,42,15,15,064,34*7B
2017-12-01 14:12:02 1512155522.686688: $GPGSV,3,2,12,18,74,079,43,20,13,115,34,21,34,180,45,24,48,064,49*73
2017-12-01 14:12:02 1512155522.686755: $GPGSV,3,3,12,27,09,264,39,32,42,259,44,12,06,111,22,138,38,213,46*42
2017-12-01 14:12:02 1512155522.800261: $GPZDA,191203.00,01,12,2017,00,00*68
2017-12-01 14:12:02 1512155522.800440: $GPGGA,191203,3946.9536,N,08404.9845,W,2,12,0.80,315.32,M,-33.324,M,,*77
2017-12-01 14:12:02 1512155522.800509: $GPRMC,191203,A,3946.9536,N,08404.9845,W,0.0000,0.000,011217,,*3A
2017-12-01 14:12:02 1512155522.800570: $GPGSA,A,3,8,10,14,15,18,20,21,24,27,32,12,138,2.0,0.8,1.5*37
