2017-11-16 17:26:14 1510871174.821157: {"class":"VERSION","release":"3.17","rev":"3.17","proto_major":3,"proto_minor":12}
2017-11-16 17:26:14 1510871174.821574: {"class":"DEVICES","devices":[{"class":"DEVICE","path":"/dev/ttyUSB0","driver":"SiRF","subtype":"9\u0006GSD4e_4.1.2-P1_RPATCH.05-F-GPS-4R-1510281 11/03/2015 307","activated":"2017-11-16T22:26:14.563Z","flags":1,"native":1,"bps":4800,"parity":"N","stopbits":1,"cycle":1.00}]}
2017-11-16 17:26:14 1510871174.821691: {"class":"WATCH","enable":true,"json":false,"nmea":true,"raw":0,"scaled":false,"timing":false,"split24":false,"pps":false}
2017-11-16 17:26:15 1510871175.731563: $GPGSV,3,1,11,01,21,304,34,10,51,147,49,22,16,312,40,12,23,052,50*70
2017-11-16 17:26:15 1510871175.731735: $GPGSV,3,2,11,14,65,321,47,18,21,142,31,11,09,285,40,25,39,094,47*73
2017-11-16 17:26:15 1510871175.731796: $GPGSV,3,3,11,31,52,222,49,32,69,018,49,138,38,213,44*78
2017-11-16 17:26:15 1510871175.845384: $GPZDA,222614.00,16,11,2017,00,00*64
2017-11-16 17:26:15 1510871175.845550: $GPGGA,222614,3946.9573,N,08404.9837,W,2,11,0.80,306.91,M,-33.324,M,,*72
2017-11-16 17:26:15 1510871175.845614: $GPRMC,222614,A,3946.9573,N,08404.9837,W,0.0000,0.000,161117,,*32
2017-11-16 17:26:15 1510871175.845670: $GPGSA,A,3,1,10,22,12,14,18,11,25,31,32,138,,1.6,0.8,1.3*3E
2017-11-16 17:26:16 1510871176.470621: $GPZDA,222615.00,16,11,2017,00,00*65
2017-11-16 17:26:16 1510871176.470769: $GPGGA,222615,3946.9573,N,08404.9837,W,2,11,0.80,306.91,M,-33.324,M,,*73
2017-11-16 17:26:16 1510871176.470831: $GPRMC,222615,A,3946.9573,N,08404.9837,W,0.0000,0.000,161117,,*33
2017-11-16 17:26:16 1510871176.470905: $GPGSA,A,3,1,10,22,12,14,18,11,25,31,32,138,,1.6,0.8,1.3*3E
2017-11-16 17:26:17 1510871177.421348: $GPZDA,222616.00,16,11,2017,00,00*66
2017-11-16 17:26:17 1510871177.421516: $GPGGA,222616,3946.9573,N,08404.9837,W,2,11,0.80,306.91,M,-33.324,M,,*70
2017-11-16 17:26:17 1510871177.421580: $GPRMC,222616,A,3946.9573,N,08404.9837,W,0.0000,0.000,161117,,*30
2017-11-16 17:26:17 1510871177.421637: $GPGSA,A,3,1,10,22,12,14,18,11,25,31,32,138,,1.6,0.8,1.3*3E
2017-11-16 17:26:18 1510871178.758273: $GPGSV,3,1,11,01,21,304,35,10,51,147,49,22,16,312,40,12,23,052,50*71
2017-11-16 17:26:18 1510871178.758445: $GPGSV,3,2,11,14,65,321,47,18,21,142,30,11,09,285,40,25,39,094,47*72
2017-11-16 17:26:18 1510871178.758506: $GPGSV,3,3,11,31,52,222,49,32,69,018,49,138,38,213,44*78
2017-11-16 17:26:18 1510871178.871565: $GPZDA,222617.00,16,11,2017,00,00*67
2017-11-16 17:26:18 1510871178.871799: $GPGGA,222617,3946.9573,N,08404.9837,W,2,11,0.80,306.91,M,-33.324,M,,*71
2017-11-16 17:26:18 1510871178.871860: $GPRMC,222617,A,3946.9573,N,08404.9837,W,0.0000,0.000,161117,,*31
2017-11-16 17:26:18 1510871178.871917: $GPGSA,A,3,1,10,22,12,14,18,11,25,31,32,138,,1.6,0.8,1.3*3E
2017-11-16 17:26:19 1510871179.422830: $GPZDA,222618.00,16,11,2017,00,00*68
2017-11-16 17:26:19 1510871179.422996: $GPGGA,222618,3946.9573,N,08404.9837,W,2,11,0.80,306.91,M,-33.324,M,,*7E
2017-11-16 17:26:19 1510871179.423059: $GPRMC,222618,A,3946.9573,N,08404.9837,W,0.0000,0.000,161117,,*3E
2017-11-16 17:26:19 1510871179.423115: $GPGSA,A,3,1,10,22,12,14,18,11,25,31,32,138,,1.6,0.8,1.3*3E
2017-11-16 17:26:20 1510871180.402437: $GPZDA,222619.00,16,11,2017,00,00*69
2017-11-16 17:26:20 1510871180.402599: $GPGGA,222619,3946.9573,N,08404.9837,W,2,11,0.80,306.91,M,-33.324,M,,*7F
2017-11-16 17:26:20 1510871180.402660: $GPRMC,222619,A,3946.9573,N,08404.9837,W,0.0000,0.000,161117,,*3F
2017-11-16 17:26:20 1510871180.402716: $GPGSA,A,3,1,10,22,12,14,18,11,25,31,32,138,,1.6,0.8,1.3*3E
2017-11-16 17:26:21 1510871181.738697: $GPGSV,3,1,11,01,21,304,36,10,51,147,49,22,16,312,40,12,23,052,50*72
2017-11-16 17:26:21 1510871181.738865: $GPGSV,3,2,11,14,65,321,47,18,21,142,30,11,09,285,40,25,39,094,47*72
2017-11-16 17:26:21 1510871181.738928: $GPGSV,3,3,11,31,52,222,50,32,69,018,49,138,38,213,44*70
2017-11-16 17:26:21 1510871181.852342: $GPZDA,222620.00,16,11,2017,00,00*63
2017-11-16 17:26:21 1510871181.852503: $GPGGA,222620,3946.9573,N,08404.9837,W,2,11,0.80,306.91,M,-33.324,M,,*75
2017-11-16 17:26:21 1510871181.852617: $GPRMC,222620,A,3946.9573,N,08404.9837,W,0.0000,0.000,161117,,*35
2017-11-16 17:26:21 1510871181.852675: $GPGSA,A,3,1,10,22,12,14,18,11,25,31,32,138,,1.6,0.8,1.3*3E
2017-11-16 17:26:22 1510871182.401885: $GPZDA,222621.00,16,11,2017,00,00*62
2017-11-16 17:26:22 1510871182.402052: $GPGGA,222621,3946.9573,N,08404.9837,W,2,11,0.80,306.91,M,-33.324,M,,*74
2017-11-16 17:26:22 1510871182.402112: $GPRMC,222621,A,3946.9573,N,08404.9837,W,0.0000,0.000,161117,,*34
2017-11-16 17:26:22 1510871182.402170: $GPGSA,A,3,1,10,22,12,14,18,11,25,31,32,138,,1.6,0.8,1.3*3E
2017-11-16 17:26:23 1510871183.401394: $GPZDA,222622.00,16,11,2017,00,00*61
2017-11-16 17:26:23 1510871183.401596: $GPGGA,222622,3946.9573,N,08404.9837,W,2,11,0.80,306.91,M,-33.324,M,,*77
2017-11-16 17:26:23 1510871183.401663: $GPRMC,222622,A,3946.9573,N,08404.9837,W,0.0000,0.000,161117,,*37
2017-11-16 17:26:23 1510871183.401719: $GPGSA,A,3,1,10,22,12,14,18,11,25,31,32,138,,1.6,0.8,1.3*3E
2017-11-16 17:26:24 1510871184.738308: $GPGSV,3,1,11,01,21,304,36,10,51,147,49,22,16,312,40,12,23,052,50*72
2017-11-16 17:26:24 1510871184.738478: $GPGSV,3,2,11,14,65,321,47,18,21,142,30,11,09,285,40,25,39,094,47*72
2017-11-16 17:26:24 1510871184.738539: $GPGSV,3,3,11,31,52,222,49,32,69,018,49,138,38,213,44*78
