2017-12-14 12:33:21 1513272801.252032: {"class":"VERSION","release":"3.16","rev":"3.16-4","proto_major":3,"proto_minor":11}
2017-12-14 12:33:21 1513272801.252490: {"class":"DEVICES","devices":[{"class":"DEVICE","path":"/dev/ttyUSB0","driver":"SiRF","subtype":"9\u0006GSD4e_4.1.2-P1_RPATCH.05-F-GPS-4R-1510281 11/03/2015 307","activated":"2017-12-14T17:33:20.332Z","flags":1,"native":1,"bps":4800,"parity":"N","stopbits":1,"cycle":1.00}]}
2017-12-14 12:33:21 1513272801.252606: {"class":"WATCH","enable":true,"json":false,"nmea":true,"raw":0,"scaled":false,"timing":false,"split24":false,"pps":false}
2017-12-14 12:33:21 1513272801.510422: $GPGSV,3,1,12,15,32,054,16,21,56,184,24,20,29,100,23,27,18,283,14*79
2017-12-14 12:33:21 1513272801.510597: $GPGSV,3,2,12,32,26,243,06,24,53,099,24,10,47,306,15,18,75,355,15*74
2017-12-14 12:33:21 1513272801.510662: $GPGSV,3,3,12,14,09,235,00,08,07,316,12,13,02,051,00,120,07,103,00*48
2017-12-14 12:33:21 1513272801.624096: $GPZDA,173322.00,14,12,2017,00,00*62
2017-12-14 12:33:21 1513272801.624241: $GPGGA,173322,3946.9517,N,08404.9456,W,1,07,1.80,347.48,M,-33.324,M,,*78
2017-12-14 12:33:21 1513272801.624305: $GPRMC,173322,A,3946.9517,N,08404.9456,W,0.7070,228.986,141217,,*32
2017-12-14 12:33:21 1513272801.624366: $GPGSA,A,3,15,21,20,27,24,10,18,,,,,,6.6,1.8,6.2*31
2017-12-14 12:33:22 1513272802.191311: $GPZDA,173323.00,14,12,2017,00,00*63
2017-12-14 12:33:22 1513272802.191478: $GPGGA,173323,3946.9518,N,08404.9463,W,1,07,1.80,347.40,M,-33.324,M,,*78
2017-12-14 12:33:22 1513272802.191544: $GPRMC,173323,A,3946.9518,N,08404.9463,W,0.3006,242.540,141217,,*35
2017-12-14 12:33:22 1513272802.191605: $GPGSA,A,3,15,21,20,27,24,10,18,,,,,,6.6,1.8,6.2*31
2017-12-14 12:33:23 1513272803.191665: $GPZDA,173324.00,14,12,2017,00,00*64
2017-12-14 12:33:23 1513272803.191834: $GPGGA,173324,3946.9517,N,08404.9456,W,1,07,1.80,347.48,M,-33.324,M,,*7E
2017-12-14 12:33:23 1513272803.191899: $GPRMC,173324,A,3946.9517,N,08404.9456,W,0.5287,2.716,141217,,*31
2017-12-14 12:33:23 1513272803.191960: $GPGSA,A,3,15,21,20,27,24,10,18,,,,,,6.6,1.8,6.2*31
2017-12-14 12:33:24 1513272804.509918: $GPGSV,3,1,12,15,32,054,15,21,56,184,24,20,29,100,23,27,18,283,15*7B
2017-12-14 12:33:24 1513272804.510103: $GPGSV,3,2,12,32,26,243,05,24,53,099,24,10,47,306,15,18,75,355,15*77
2017-12-14 12:33:24 1513272804.510173: $GPGSV,3,3,12,14,09,235,12,08,07,316,00,13,02,051,00,120,07,103,00*48
2017-12-14 12:33:24 1513272804.623566: $GPZDA,173325.00,14,12,2017,00,00*65
2017-12-14 12:33:24 1513272804.623738: $GPGGA,173325,3946.9517,N,08404.9456,W,1,07,1.80,347.48,M,-33.324,M,,*7F
2017-12-14 12:33:24 1513272804.623827: $GPRMC,173325,A,3946.9517,N,08404.9456,W,1.3044,25.352,141217,,*0B
2017-12-14 12:33:24 1513272804.623893: $GPGSA,A,3,15,21,20,27,24,10,18,,,,,,6.6,1.8,6.2*31
2017-12-14 12:33:25 1513272805.191096: $GPZDA,173326.00,14,12,2017,00,00*66
2017-12-14 12:33:25 1513272805.191266: $GPGGA,173326,3946.9521,N,08404.9455,W,1,07,1.80,346.72,M,-33.324,M,,*72
2017-12-14 12:33:25 1513272805.191335: $GPRMC,173326,A,3946.9521,N,08404.9455,W,1.2361,14.852,141217,,*02
2017-12-14 12:33:25 1513272805.191399: $GPGSA,A,3,15,21,20,27,24,10,18,,,,,,6.6,1.8,6.2*31
2017-12-14 12:33:26 1513272806.191124: $GPZDA,173327.00,14,12,2017,00,00*67
2017-12-14 12:33:26 1513272806.196984: $GPGGA,173327,3946.9525,N,08404.9455,W,1,07,1.80,347.36,M,-33.324,M,,*76
2017-12-14 12:33:26 1513272806.197117: $GPRMC,173327,A,3946.9525,N,08404.9455,W,0.8709,3.298,141217,,*3C
2017-12-14 12:33:26 1513272806.197184: $GPGSA,A,3,15,21,20,27,24,10,18,,,,,,6.6,1.8,6.2*31
2017-12-14 12:33:27 1513272807.528034: $GPGSV,3,1,12,15,32,054,14,21,56,184,24,20,29,100,23,27,18,283,15*7A
2017-12-14 12:33:27 1513272807.528235: $GPGSV,3,2,12,32,26,243,04,24,53,099,25,10,47,306,14,18,75,355,16*75
2017-12-14 12:33:27 1513272807.528306: $GPGSV,3,3,12,14,09,235,11,08,07,316,12,13,02,051,00,120,07,103,00*48
2017-12-14 12:33:27 1513272807.641562: $GPZDA,173328.00,14,12,2017,00,00*68
2017-12-14 12:33:27 1513272807.641721: $GPGGA,173328,3946.9525,N,08404.9455,W,1,08,1.80,347.36,M,-33.324,M,,*76
2017-12-14 12:33:27 1513272807.641859: $GPRMC,173328,A,3946.9525,N,08404.9455,W,1.2621,39.347,141217,,*09
2017-12-14 12:33:27 1513272807.641938: $GPGSA,A,3,15,21,20,27,24,10,18,14,,,,,6.6,1.8,6.2*34
2017-12-14 12:33:28 1513272808.190249: $GPZDA,173329.00,14,12,2017,00,00*69
2017-12-14 12:33:28 1513272808.190419: $GPGGA,173329,3946.9528,N,08404.9447,W,1,08,1.80,346.67,M,-33.324,M,,*7C
2017-12-14 12:33:28 1513272808.190487: $GPRMC,173329,A,3946.9528,N,08404.9447,W,1.0567,17.448,141217,,*01
2017-12-14 12:33:28 1513272808.190549: $GPGSA,A,3,15,21,20,27,24,10,18,14,,,,,6.6,1.8,6.2*34
2017-12-14 12:33:29 1513272809.174119: $GPZDA,173330.00,14,12,2017,00,00*61
2017-12-14 12:33:29 1513272809.174294: $GPGGA,173330,3946.9528,N,08404.9447,W,1,08,1.80,346.67,M,-33.324,M,,*74
2017-12-14 12:33:29 1513272809.174360: $GPRMC,173330,A,3946.9528,N,08404.9447,W,1.1385,29.379,141217,,*0A
2017-12-14 12:33:29 1513272809.174421: $GPGSA,A,3,15,21,20,27,24,10,18,14,,,,,6.6,1.8,6.2*34
2017-12-14 12:33:30 1513272810.527855: $GPGSV,3,1,12,15,32,054,12,21,56,184,24,20,29,100,23,27,18,283,15*7C
2017-12-14 12:33:30 1513272810.528061: $GPGSV,3,2,12,32,26,243,04,24,53,099,25,10,47,306,15,18,75,355,16*74
2017-12-14 12:33:30 1513272810.528128: $GPGSV,3,3,12,13,02,051,16,08,07,316,12,14,09,235,00,120,07,103,00*4F
2017-12-14 12:33:30 1513272810.641238: $GPZDA,173331.00,14,12,2017,00,00*60
2017-12-14 12:33:30 1513272810.641403: $GPGGA,173331,3946.9528,N,08404.9447,W,1,08,1.80,346.67,M,-33.324,M,,*75
2017-12-14 12:33:30 1513272810.641471: $GPRMC,173331,A,3946.9528,N,08404.9447,W,1.0018,50.691,141217,,*00
2017-12-14 12:33:30 1513272810.641531: $GPGSA,A,3,15,21,20,27,24,10,18,8,,,,,6.6,1.8,6.2*09
2017-12-14 12:33:31 1513272811.192694: $GPZDA,173332.00,14,12,2017,00,00*63
2017-12-14 12:33:31 1513272811.192890: $GPGGA,173332,3946.9528,N,08404.9440,W,1,08,1.80,346.75,M,-33.324,M,,*72
2017-12-14 12:33:31 1513272811.192998: $GPRMC,173332,A,3946.9528,N,08404.9440,W,1.3255,71.714,141217,,*03
2017-12-14 12:33:31 1513272811.193063: $GPGSA,A,3,15,21,20,27,24,10,18,8,,,,,6.6,1.8,6.2*09
2017-12-14 12:33:32 1513272812.192315: $GPZDA,173333.00,14,12,2017,00,00*62
2017-12-14 12:33:32 1513272812.192491: $GPGGA,173333,3946.9531,N,08404.9433,W,1,08,1.80,346.07,M,-33.324,M,,*7A
2017-12-14 12:33:32 1513272812.192558: $GPRMC,173333,A,3946.9531,N,08404.9433,W,1.3954,64.414,141217,,*03
2017-12-14 12:33:32 1513272812.192618: $GPGSA,A,3,15,21,20,27,24,10,18,8,,,,,6.6,1.8,6.2*09
2017-12-14 12:33:33 1513272813.512271: $GPGSV,3,1,12,15,32,054,11,21,56,184,24,20,29,100,23,27,18,283,15*7F
2017-12-14 12:33:33 1513272813.512435: $GPGSV,3,2,12,32,26,243,04,24,53,099,25,10,47,306,14,18,75,355,17*74
2017-12-14 12:33:33 1513272813.512500: $GPGSV,3,3,12,14,09,235,00,08,07,316,13,13,02,051,00,120,07,103,00*49
2017-12-14 12:33:33 1513272813.625871: $GPZDA,173334.00,14,12,2017,00,00*65
2017-12-14 12:33:33 1513272813.626054: $GPGGA,173334,3946.9531,N,08404.9433,W,1,08,1.60,346.07,M,-33.324,M,,*73
2017-12-14 12:33:33 1513272813.626120: $GPRMC,173334,A,3946.9531,N,08404.9433,W,1.0298,74.382,141217,,*05
2017-12-14 12:33:33 1513272813.626181: $GPGSA,A,3,15,21,20,27,24,10,18,8,,,,,6.6,1.6,6.2*07
2017-12-14 12:33:34 1513272814.176967: $GPZDA,173335.00,14,12,2017,00,00*64
2017-12-14 12:33:34 1513272814.177140: $GPGGA,173335,3946.9526,N,08404.9426,W,1,08,1.80,345.51,M,-33.324,M,,*7E
2017-12-14 12:33:34 1513272814.177207: $GPRMC,173335,A,3946.9526,N,08404.9426,W,0.5951,58.684,141217,,*01
2017-12-14 12:33:34 1513272814.177267: $GPGSA,A,3,15,21,20,27,24,10,18,8,,,,,6.6,1.8,6.2*09
2017-12-14 12:33:35 1513272815.174594: $GPZDA,173336.00,14,12,2017,00,00*67
2017-12-14 12:33:35 1513272815.174792: $GPGGA,173336,3946.9526,N,08404.9426,W,1,08,1.80,345.51,M,-33.324,M,,*7D
2017-12-14 12:33:35 1513272815.174860: $GPRMC,173336,A,3946.9526,N,08404.9426,W,0.4844,93.795,141217,,*00
2017-12-14 12:33:35 1513272815.174940: $GPGSA,A,3,15,21,20,27,24,10,18,8,,,,,6.6,1.8,6.2*09
2017-12-14 12:33:36 1513272816.508333: $GPGSV,3,1,12,15,32,054,09,21,56,184,24,20,29,100,23,27,18,283,16*75
2017-12-14 12:33:36 1513272816.508557: $GPGSV,3,2,12,32,26,243,04,24,53,099,26,10,47,306,14,18,75,355,17*77
2017-12-14 12:33:36 1513272816.508625: $GPGSV,3,3,12,13,02,051,16,08,07,316,10,14,09,235,00,120,07,103,00*4D
2017-12-14 12:33:36 1513272816.621715: $GPZDA,173337.00,14,12,2017,00,00*66
2017-12-14 12:33:36 1513272816.621904: $GPGGA,173337,3946.9526,N,08404.9426,W,1,06,7.40,345.51,M,-33.324,M,,*78
2017-12-14 12:33:36 1513272816.621972: $GPRMC,173337,A,3946.9526,N,08404.9426,W,0.9689,93.795,141217,,*03
2017-12-14 12:33:36 1513272816.622033: $GPGSA,A,3,21,20,27,24,10,18,,,,,,,6.6,7.4,6.2*3F
2017-12-14 12:33:37 1513272817.171334: $GPZDA,173338.00,14,12,2017,00,00*69
2017-12-14 12:33:37 1513272817.171505: $GPGGA,173338,3946.9522,N,08404.9419,W,1,06,7.40,344.95,M,-33.324,M,,*76
2017-12-14 12:33:37 1513272817.171573: $GPRMC,173338,A,3946.9522,N,08404.9419,W,0.7576,81.915,141217,,*0C
2017-12-14 12:33:37 1513272817.171633: $GPGSA,A,3,21,20,27,24,10,18,,,,,,,6.6,7.4,6.2*3F
2017-12-14 12:33:38 1513272818.172765: $GPZDA,173339.00,14,12,2017,00,00*68
2017-12-14 12:33:38 1513272818.172960: $GPGGA,173339,3946.9522,N,08404.9419,W,1,06,7.40,344.95,M,-33.324,M,,*77
2017-12-14 12:33:38 1513272818.173029: $GPRMC,173339,A,3946.9522,N,08404.9419,W,0.9959,84.785,141217,,*00
2017-12-14 12:33:38 1513272818.173090: $GPGSA,A,3,21,20,27,24,10,18,,,,,,,6.6,7.4,6.2*3F
2017-12-14 12:33:39 1513272819.507687: $GPGSV,3,1,12,15,32,054,05,21,56,184,24,20,29,100,22,27,18,283,16*78
2017-12-14 12:33:39 1513272819.507856: $GPGSV,3,2,12,32,26,243,00,24,53,099,26,10,47,306,15,18,75,355,17*72
2017-12-14 12:33:39 1513272819.507938: $GPGSV,3,3,12,14,09,235,00,08,07,316,10,13,02,051,00,120,07,103,00*4A
2017-12-14 12:33:39 1513272819.621436: $GPZDA,173340.00,14,12,2017,00,00*66
2017-12-14 12:33:39 1513272819.621600: $GPGGA,173340,3946.9521,N,08404.9412,W,1,06,7.40,345.03,M,-33.324,M,,*7F
2017-12-14 12:33:39 1513272819.621666: $GPRMC,173340,A,3946.9521,N,08404.9412,W,1.0298,74.382,141217,,*04
2017-12-14 12:33:39 1513272819.621749: $GPGSA,A,3,21,20,27,24,10,18,,,,,,,6.6,7.4,6.2*3F
2017-12-14 12:33:40 1513272820.172705: $GPZDA,173341.00,14,12,2017,00,00*67
2017-12-14 12:33:40 1513272820.172912: $GPGGA,173341,3946.9521,N,08404.9412,W,1,06,7.40,345.03,M,-33.324,M,,*7E
2017-12-14 12:33:40 1513272820.172981: $GPRMC,173341,A,3946.9521,N,08404.9412,W,0.8054,68.645,141217,,*0D
2017-12-14 12:33:40 1513272820.173041: $GPGSA,A,3,21,20,27,24,10,18,,,,,,,6.6,7.4,6.2*3F
2017-12-14 12:33:41 1513272821.176434: $GPZDA,173342.00,14,12,2017,00,00*64
2017-12-14 12:33:41 1513272821.176600: $GPGGA,173342,3946.9517,N,08404.9405,W,1,06,7.40,344.46,M,-33.324,M,,*7E
2017-12-14 12:33:41 1513272821.176666: $GPRMC,173342,A,3946.9517,N,08404.9405,W,0.9689,93.795,141217,,*02
2017-12-14 12:33:41 1513272821.176747: $GPGSA,A,3,21,20,27,24,10,18,,,,,,,6.6,7.4,6.2*3F
