2017-12-29 14:38:25 1514576305.822023: {"class":"VERSION","release":"3.16","rev":"3.16-4","proto_major":3,"proto_minor":11}
2017-12-29 14:38:25 1514576305.822406: {"class":"DEVICES","devices":[{"class":"DEVICE","path":"/dev/ttyUSB0","driver":"SiRF","subtype":"9\u0006GSD4e_4.1.2-P1_RPATCH.05-F-GPS-4R-1510281 11/03/2015 307","activated":"2017-12-29T19:38:25.781Z","flags":1,"native":1,"bps":4800,"parity":"N","stopbits":1,"cycle":1.00}]}
2017-12-29 14:38:25 1514576305.822538: {"class":"WATCH","enable":true,"json":false,"nmea":true,"raw":0,"scaled":false,"timing":false,"split24":false,"pps":false}
2017-12-29 14:38:25 1514576305.958358: $GPZDA,193826.65,29,12,2017,00,00*6E
2017-12-29 14:38:25 1514576305.958539: $GPGGA,193826,3946.9602,N,08404.9821,W,1,12,0.80,295.90,M,-33.324,M,,*7C
2017-12-29 14:38:25 1514576305.958606: $GPRMC,193826,A,3946.9602,N,08404.9821,W,0.3006,62.539,291217,,*07
2017-12-29 14:38:25 1514576305.958667: $GPGSA,A,3,1,10,12,14,18,22,25,31,32,3,11,138,1.7,0.8,1.3*0C
2017-12-29 14:38:25 1514576305.958726: $GPGBS,193826,10.91,M,10.38,M,30.89,M*08
2017-12-29 14:38:27 1514576307.063303: $GPZDA,193827.33,29,12,2017,00,00*6C
2017-12-29 14:38:27 1514576307.063523: $GPGGA,193827,3946.9602,N,08404.9821,W,1,12,0.80,295.90,M,-33.324,M,,*7D
2017-12-29 14:38:27 1514576307.063591: $GPRMC,193827,A,3946.9602,N,08404.9821,W,0.1867,180.000,291217,,*39
2017-12-29 14:38:27 1514576307.063653: $GPGSA,A,3,1,10,12,14,18,22,25,31,32,3,11,138,1.7,0.8,1.3*0C
2017-12-29 14:38:28 1514576308.275920: $GPGSV,3,1,12,01,22,300,37,10,46,148,52,12,21,049,47,14,66,328,45*74
2017-12-29 14:38:28 1514576308.276094: $GPGSV,3,2,12,18,16,144,48,22,21,312,42,25,40,090,53,31,59,226,50*7C
2017-12-29 14:38:28 1514576308.276161: $GPGSV,3,3,12,32,67,034,49,11,08,282,00,26,04,181,00,138,38,213,00*49
2017-12-29 14:38:28 1514576308.389262: $GPZDA,193828.00,29,12,2017,00,00*63
2017-12-29 14:38:28 1514576308.389436: $GPGGA,193828,3946.9598,N,08404.9822,W,1,09,0.80,296.66,M,-33.324,M,,*71
2017-12-29 14:38:28 1514576308.389525: $GPRMC,193828,A,3946.9598,N,08404.9822,W,0.0000,0.000,291217,,*34
2017-12-29 14:38:28 1514576308.389587: $GPGSA,A,3,1,10,12,14,18,22,25,31,32,,,,1.7,0.8,1.3*05
2017-12-29 14:38:29 1514576309.012372: $GPZDA,193829.00,29,12,2017,00,00*62
2017-12-29 14:38:29 1514576309.012548: $GPGGA,193829,3946.9599,N,08404.9829,W,1,09,0.80,296.58,M,-33.324,M,,*77
2017-12-29 14:38:29 1514576309.012616: $GPRMC,193829,A,3946.9599,N,08404.9829,W,0.0000,0.000,291217,,*3F
2017-12-29 14:38:29 1514576309.012677: $GPGSA,A,3,1,10,12,14,18,22,25,31,32,,,,1.7,0.8,1.3*05
2017-12-29 14:38:29 1514576309.012735: $GPGBS,193829,10.91,M,10.38,M,30.89,M*07
2017-12-29 14:38:29 1514576309.464151: $GPZDA,193830.00,29,12,2017,00,00*6A
2017-12-29 14:38:29 1514576309.464352: $GPGGA,193830,3946.9599,N,08404.9829,W,1,09,0.80,296.58,M,-33.324,M,,*7F
2017-12-29 14:38:29 1514576309.464421: $GPRMC,193830,A,3946.9599,N,08404.9829,W,0.0000,0.000,291217,,*37
2017-12-29 14:38:29 1514576309.464501: $GPGSA,A,3,1,10,12,14,18,22,25,31,32,,,,1.7,0.8,1.3*05
2017-12-29 14:38:29 1514576309.464559: $GPGBS,193830,10.91,M,10.38,M,30.89,M*0F
2017-12-29 14:38:30 1514576310.686889: $GPGSV,3,1,12,01,22,300,36,10,46,148,52,12,21,049,47,14,66,328,45*75
2017-12-29 14:38:30 1514576310.690004: $GPGSV,3,2,12,18,16,144,48,22,21,312,42,25,40,090,53,31,59,226,49*74
2017-12-29 14:38:30 1514576310.690102: $GPGSV,3,3,12,32,67,034,49,11,08,282,31,03,02,316,08,138,38,213,44*4E
2017-12-29 14:38:30 1514576310.799239: $GPZDA,193831.00,29,12,2017,00,00*6B
2017-12-29 14:38:30 1514576310.799404: $GPGGA,193831,3946.9595,N,08404.9829,W,1,11,0.80,297.35,M,-33.324,M,,*71
2017-12-29 14:38:30 1514576310.799488: $GPRMC,193831,A,3946.9595,N,08404.9829,W,0.0000,0.000,291217,,*3A
2017-12-29 14:38:30 1514576310.799549: $GPGSA,A,3,1,10,12,14,18,22,25,31,32,11,138,,1.7,0.8,1.3*3F
2017-12-29 14:38:31 1514576311.350121: $GPZDA,193832.00,29,12,2017,00,00*68
2017-12-29 14:38:31 1514576311.350283: $GPGGA,193832,3946.9591,N,08404.9829,W,1,11,0.80,296.71,M,-33.324,M,,*77
2017-12-29 14:38:31 1514576311.350374: $GPRMC,193832,A,3946.9591,N,08404.9829,W,0.0000,0.000,291217,,*3D
2017-12-29 14:38:31 1514576311.350507: $GPGSA,A,3,1,10,12,14,18,22,25,31,32,11,138,,1.7,0.8,1.3*3F
2017-12-29 14:38:32 1514576312.348383: $GPZDA,193833.00,29,12,2017,00,00*69
2017-12-29 14:38:32 1514576312.348557: $GPGGA,193833,3946.9591,N,08404.9829,W,1,11,0.80,296.71,M,-33.324,M,,*76
2017-12-29 14:38:32 1514576312.348624: $GPRMC,193833,A,3946.9591,N,08404.9829,W,0.0000,0.000,291217,,*3C
2017-12-29 14:38:32 1514576312.348684: $GPGSA,A,3,1,10,12,14,18,22,25,31,32,11,138,,1.7,0.8,1.3*3F
2017-12-29 14:38:32 1514576312.348742: $GPGBS,193833,10.91,M,10.38,M,30.89,M*0C
2017-12-29 14:38:33 1514576313.686356: $GPGSV,3,1,12,01,22,300,35,10,46,148,52,12,21,049,48,14,66,328,45*79
2017-12-29 14:38:33 1514576313.686530: $GPGSV,3,2,12,18,16,144,48,22,21,312,41,25,40,090,53,31,59,226,48*76
2017-12-29 14:38:33 1514576313.686596: $GPGSV,3,3,12,32,67,034,49,11,08,282,31,03,02,316,28,138,38,213,43*4B
2017-12-29 14:38:33 1514576313.798688: $GPZDA,193834.00,29,12,2017,00,00*6E
2017-12-29 14:38:33 1514576313.798811: $GPGGA,193834,3946.9592,N,08404.9836,W,1,12,0.80,296.63,M,-33.324,M,,*7C
2017-12-29 14:38:33 1514576313.798875: $GPRMC,193834,A,3946.9592,N,08404.9836,W,0.0000,0.000,291217,,*36
2017-12-29 14:38:33 1514576313.798936: $GPGSA,A,3,1,10,12,14,18,22,25,31,32,11,3,138,1.7,0.8,1.3*0C
2017-12-29 14:38:34 1514576314.344344: $GPZDA,193835.00,29,12,2017,00,00*6F
2017-12-29 14:38:34 1514576314.344523: $GPGGA,193835,3946.9592,N,08404.9836,W,1,12,0.80,296.63,M,-33.324,M,,*7D
2017-12-29 14:38:34 1514576314.344591: $GPRMC,193835,A,3946.9592,N,08404.9836,W,0.5912,129.172,291217,,*36
2017-12-29 14:38:34 1514576314.344652: $GPGSA,A,3,1,10,12,14,18,22,25,31,32,11,3,138,1.7,0.8,1.3*0C
2017-12-29 14:38:35 1514576315.349999: $GPZDA,193836.00,29,12,2017,00,00*6C
2017-12-29 14:38:35 1514576315.350154: $GPGGA,193836,3946.9588,N,08404.9837,W,1,12,0.80,297.39,M,-33.324,M,,*7A
2017-12-29 14:38:35 1514576315.350220: $GPRMC,193836,A,3946.9588,N,08404.9837,W,0.2422,93.794,291217,,*08
2017-12-29 14:38:35 1514576315.350303: $GPGSA,A,3,1,10,12,14,18,22,25,31,32,11,3,138,1.7,0.8,1.3*0C
