2017-11-16 13:47:20 1510858040.407615: {"class":"VERSION","release":"3.17","rev":"3.17","proto_major":3,"proto_minor":12}
2017-11-16 13:47:20 1510858040.408095: {"class":"DEVICES","devices":[{"class":"DEVICE","path":"/dev/ttyUSB0","driver":"SiRF","subtype":"9\u0006GSD4e_4.1.2-P1_RPATCH.05-F-GPS-4R-1510281 11/03/2015 307","activated":"2017-11-16T18:47:20.373Z","flags":1,"native":1,"bps":4800,"parity":"N","stopbits":1,"cycle":1.00}]}
2017-11-16 13:47:20 1510858040.408215: {"class":"WATCH","enable":true,"json":false,"nmea":true,"raw":0,"scaled":false,"timing":false,"split24":false,"pps":false}
2017-11-16 13:47:21 1510858041.309862: $GPZDA,184720.00,16,11,2017,00,00*6D
2017-11-16 13:47:21 1510858041.310036: $GPGGA,184720,3946.9591,N,08404.9834,W,2,10,0.80,304.49,M,-33.324,M,,*72
2017-11-16 13:47:21 1510858041.310099: $GPRMC,184720,A,3946.9591,N,08404.9834,W,0.0000,0.000,161117,,*34
2017-11-16 13:47:21 1510858041.310155: $GPGSA,A,3,10,13,15,18,20,21,24,27,32,138,,,1.6,0.8,1.3*08
2017-11-16 13:47:22 1510858042.644324: $GPGSV,3,1,11,10,32,292,39,13,18,046,45,15,49,049,51,18,62,315,48*76
2017-11-16 13:47:22 1510858042.644502: $GPGSV,3,2,11,20,42,085,48,21,75,213,46,24,43,127,45,27,19,301,33*75
2017-11-16 13:47:22 1510858042.644565: $GPGSV,3,3,11,32,10,231,22,08,01,331,00,138,38,213,44*70
2017-11-16 13:47:22 1510858042.757658: $GPZDA,184721.00,16,11,2017,00,00*6C
2017-11-16 13:47:22 1510858042.757799: $GPGGA,184721,3946.9591,N,08404.9834,W,2,10,0.80,304.49,M,-33.324,M,,*73
2017-11-16 13:47:22 1510858042.757859: $GPRMC,184721,A,3946.9591,N,08404.9834,W,0.0000,0.000,161117,,*35
2017-11-16 13:47:22 1510858042.757915: $GPGSA,A,3,10,13,15,18,20,21,24,27,32,138,,,1.6,0.8,1.3*08
2017-11-16 13:47:23 1510858043.309921: $GPZDA,184722.00,16,11,2017,00,00*6F
2017-11-16 13:47:23 1510858043.310083: $GPGGA,184722,3946.9591,N,08404.9834,W,2,10,0.80,304.49,M,-33.324,M,,*70
2017-11-16 13:47:23 1510858043.310146: $GPRMC,184722,A,3946.9591,N,08404.9834,W,0.0000,0.000,161117,,*36
2017-11-16 13:47:23 1510858043.310201: $GPGSA,A,3,10,13,15,18,20,21,24,27,32,138,,,1.6,0.8,1.3*08
2017-11-16 13:47:24 1510858044.329755: $GPZDA,184723.00,16,11,2017,00,00*6E
2017-11-16 13:47:24 1510858044.329922: $GPGGA,184723,3946.9591,N,08404.9834,W,2,10,0.80,304.49,M,-33.324,M,,*71
2017-11-16 13:47:24 1510858044.329986: $GPRMC,184723,A,3946.9591,N,08404.9834,W,0.0000,0.000,161117,,*37
2017-11-16 13:47:24 1510858044.330043: $GPGSA,A,3,10,13,15,18,20,21,24,27,32,138,,,1.6,0.8,1.3*08
2017-11-16 13:47:25 1510858045.645905: $GPGSV,3,1,11,10,32,292,40,13,18,046,46,15,49,049,51,18,62,315,48*7B
2017-11-16 13:47:25 1510858045.646084: $GPGSV,3,2,11,20,42,085,48,21,75,213,46,24,43,127,45,27,19,301,32*74
2017-11-16 13:47:25 1510858045.646149: $GPGSV,3,3,11,32,10,231,22,08,01,331,00,138,38,213,43*77
2017-11-16 13:47:25 1510858045.759555: $GPZDA,184724.00,16,11,2017,00,00*69
2017-11-16 13:47:25 1510858045.759715: $GPGGA,184724,3946.9591,N,08404.9834,W,2,10,0.80,304.49,M,-33.324,M,,*76
2017-11-16 13:47:25 1510858045.759777: $GPRMC,184724,A,3946.9591,N,08404.9834,W,0.0000,0.000,161117,,*30
2017-11-16 13:47:25 1510858045.759834: $GPGSA,A,3,10,13,15,18,20,21,24,27,32,138,,,1.6,0.8,1.3*08
2017-11-16 13:47:26 1510858046.335281: $GPZDA,184725.00,16,11,2017,00,00*68
2017-11-16 13:47:26 1510858046.335467: $GPGGA,184725,3946.9591,N,08404.9834,W,2,10,0.80,304.49,M,-33.324,M,,*77
2017-11-16 13:47:26 1510858046.335531: $GPRMC,184725,A,3946.9591,N,08404.9834,W,0.0000,0.000,161117,,*31
2017-11-16 13:47:26 1510858046.335587: $GPGSA,A,3,10,13,15,18,20,21,24,27,32,138,,,1.6,0.8,1.3*08
2017-11-16 13:47:27 1510858047.311211: $GPZDA,184726.00,16,11,2017,00,00*6B
2017-11-16 13:47:27 1510858047.311378: $GPGGA,184726,3946.9591,N,08404.9834,W,2,10,0.80,304.49,M,-33.324,M,,*74
2017-11-16 13:47:27 1510858047.311463: $GPRMC,184726,A,3946.9591,N,08404.9834,W,0.0000,0.000,161117,,*32
2017-11-16 13:47:27 1510858047.311521: $GPGSA,A,3,10,13,15,18,20,21,24,27,32,138,,,1.6,0.8,1.3*08
2017-11-16 13:47:28 1510858048.646820: $GPGSV,3,1,11,10,32,292,40,13,18,046,46,15,49,049,51,18,62,315,48*7B
2017-11-16 13:47:28 1510858048.647059: $GPGSV,3,2,11,20,42,085,48,21,75,213,46,24,43,127,45,27,19,301,33*75
2017-11-16 13:47:28 1510858048.647123: $GPGSV,3,3,11,32,10,231,22,08,01,331,00,138,38,213,44*70
2017-11-16 13:47:28 1510858048.760210: $GPZDA,184727.00,16,11,2017,00,00*6A
2017-11-16 13:47:28 1510858048.760452: $GPGGA,184727,3946.9591,N,08404.9834,W,2,10,0.80,304.49,M,-33.324,M,,*75
2017-11-16 13:47:28 1510858048.760515: $GPRMC,184727,A,3946.9591,N,08404.9834,W,0.0000,0.000,161117,,*33
2017-11-16 13:47:28 1510858048.760571: $GPGSA,A,3,10,13,15,18,20,21,24,27,32,138,,,1.6,0.8,1.3*08
2017-11-16 13:47:29 1510858049.338729: $GPZDA,184728.00,16,11,2017,00,00*65
2017-11-16 13:47:29 1510858049.338929: $GPGGA,184728,3946.9591,N,08404.9834,W,2,10,0.80,304.49,M,-33.324,M,,*7A
2017-11-16 13:47:29 1510858049.338991: $GPRMC,184728,A,3946.9591,N,08404.9834,W,0.0000,0.000,161117,,*3C
2017-11-16 13:47:29 1510858049.339064: $GPGSA,A,3,10,13,15,18,20,21,24,27,32,138,,,1.6,0.8,1.3*08
2017-11-16 13:47:30 1510858050.336016: $GPZDA,184729.00,16,11,2017,00,00*64
2017-11-16 13:47:30 1510858050.336251: $GPGGA,184729,3946.9591,N,08404.9834,W,2,10,0.80,304.49,M,-33.324,M,,*7B
2017-11-16 13:47:30 1510858050.336314: $GPRMC,184729,A,3946.9591,N,08404.9834,W,0.0000,0.000,161117,,*3D
2017-11-16 13:47:30 1510858050.336371: $GPGSA,A,3,10,13,15,18,20,21,24,27,32,138,,,1.6,0.8,1.3*08
