2017-12-01 14:37:47 1512157067.657379: {"class":"VERSION","release":"3.16","rev":"3.16-4","proto_major":3,"proto_minor":11}
2017-12-01 14:37:47 1512157067.657868: {"class":"DEVICES","devices":[{"class":"DEVICE","path":"/dev/ttyUSB0","driver":"SiRF","subtype":"9\u0006GSD4e_4.1.2-P1_RPATCH.05-F-GPS-4R-1510281 11/03/2015 307","activated":"2017-12-01T19:37:47.306Z","flags":1,"native":1,"bps":4800,"parity":"N","stopbits":1,"cycle":1.00}]}
2017-12-01 14:37:47 1512157067.657981: {"class":"WATCH","enable":true,"json":false,"nmea":true,"raw":0,"scaled":false,"timing":false,"split24":false,"pps":false}
2017-12-01 14:37:47 1512157067.911737: $GPZDA,193748.59,01,12,2017,00,00*6C
2017-12-01 14:37:47 1512157067.911931: $GPGGA,193748,3946.9651,N,08404.9819,W,1,12,1.40,325.69,M,-33.324,M,,*77
2017-12-01 14:37:47 1512157067.911998: $GPRMC,193748,A,3946.9651,N,08404.9819,W,0.2365,305.883,011217,,*3E
2017-12-01 14:37:47 1512157067.912061: $GPGSA,A,3,10,12,14,18,21,24,32,15,20,8,31,138,2.0,1.4,1.5*3D
2017-12-01 14:37:47 1512157067.912120: $GPGBS,193748,10.70,M,15.43,M,35.28,M*07
2017-12-01 14:37:49 1512157069.061991: $GPZDA,193749.28,01,12,2017,00,00*6B
2017-12-01 14:37:49 1512157069.062164: $GPGGA,193749,3946.9611,N,08404.9830,W,1,12,1.40,314.15,M,-33.324,M,,*70
2017-12-01 14:37:49 1512157069.062250: $GPRMC,193749,A,3946.9611,N,08404.9830,W,0.2422,93.794,011217,,*01
2017-12-01 14:37:49 1512157069.062314: $GPGSA,A,3,10,12,14,18,21,24,32,15,20,8,31,138,2.0,1.4,1.5*3D
2017-12-01 14:37:50 1512157070.345454: $GPGSV,3,1,12,10,75,342,48,14,34,259,42,18,65,106,46,21,22,178,43*7D
2017-12-01 14:37:50 1512157070.345632: $GPGSV,3,2,12,24,40,054,48,25,07,138,21,31,05,204,32,32,51,273,46*7C
2017-12-01 14:37:50 1512157070.345698: $GPGSV,3,3,12,08,04,288,27,12,13,102,09,15,06,070,09,138,38,213,00*47
2017-12-01 14:37:50 1512157070.459083: $GPZDA,193750.00,01,12,2017,00,00*69
2017-12-01 14:37:50 1512157070.459225: $GPGGA,193750,3946.9601,N,08404.9835,W,1,08,1.40,308.58,M,-33.324,M,,*73
2017-12-01 14:37:50 1512157070.459292: $GPRMC,193750,A,3946.9601,N,08404.9835,W,0.1867,180.000,011217,,*3A
2017-12-01 14:37:50 1512157070.459352: $GPGSA,A,3,10,14,18,21,24,31,32,8,,,,,2.0,1.4,1.5*02
2017-12-01 14:37:50 1512157070.908614: $GPRMC,193751,V,3946.9594,N,08404.9847,W,0.1567,189.200,011217,,*20
2017-12-01 14:37:50 1512157070.908795: $GPGSA,A,1,10,14,18,21,24,31,32,8,,,,,,,,*01
2017-12-01 14:37:51 1512157071.403137: $GPZDA,193752.00,01,12,2017,00,00*6B
2017-12-01 14:37:51 1512157071.403316: $GPGGA,193752,3946.9594,N,08404.9847,W,1,08,1.40,291.49,M,-33.324,M,,*7A
2017-12-01 14:37:51 1512157071.403384: $GPRMC,193752,A,3946.9594,N,08404.9847,W,0.0000,0.000,011217,,*33
2017-12-01 14:37:51 1512157071.403445: $GPGSA,A,3,10,14,18,21,24,31,32,8,,,,,2.0,1.4,1.5*02
2017-12-01 14:37:52 1512157072.738283: $GPGSV,3,1,12,10,75,342,48,14,34,259,42,18,65,106,46,21,22,178,44*7A
2017-12-01 14:37:52 1512157072.738485: $GPGSV,3,2,12,24,40,054,48,20,04,121,25,31,05,204,33,32,51,273,46*77
2017-12-01 14:37:52 1512157072.738574: $GPGSV,3,3,12,08,04,288,25,25,07,138,21,15,06,070,12,138,38,213,00*4D
2017-12-01 14:37:52 1512157072.852081: $GPZDA,193753.00,01,12,2017,00,00*6A
2017-12-01 14:37:52 1512157072.852236: $GPGGA,193753,3946.9594,N,08404.9847,W,1,10,1.40,291.49,M,-33.324,M,,*72
2017-12-01 14:37:52 1512157072.852306: $GPRMC,193753,A,3946.9594,N,08404.9847,W,0.0000,0.000,011217,,*32
2017-12-01 14:37:52 1512157072.852368: $GPGSA,A,3,10,14,18,21,24,20,31,32,8,25,,,2.0,1.4,1.5*07
2017-12-01 14:37:53 1512157073.412868: $GPZDA,193754.00,01,12,2017,00,00*6D
2017-12-01 14:37:53 1512157073.413038: $GPGGA,193754,3946.9593,N,08404.9840,W,1,10,1.40,291.57,M,-33.324,M,,*7A
2017-12-01 14:37:53 1512157073.413103: $GPRMC,193754,A,3946.9593,N,08404.9840,W,0.0000,0.000,011217,,*35
2017-12-01 14:37:53 1512157073.413165: $GPGSA,A,3,10,14,18,21,24,20,31,32,8,25,,,2.0,1.4,1.5*07
2017-12-01 14:37:54 1512157074.403553: $GPZDA,193755.00,01,12,2017,00,00*6C
2017-12-01 14:37:54 1512157074.403725: $GPGGA,193755,3946.9593,N,08404.9840,W,1,10,1.40,291.57,M,-33.324,M,,*7B
2017-12-01 14:37:54 1512157074.403791: $GPRMC,193755,A,3946.9593,N,08404.9840,W,0.0000,0.000,011217,,*34
2017-12-01 14:37:54 1512157074.403901: $GPGSA,A,3,10,14,18,21,24,20,31,32,8,25,,,2.0,1.4,1.5*07
2017-12-01 14:37:54 1512157074.403961: $GPGBS,193755,10.70,M,15.43,M,35.28,M*0B
2017-12-01 14:37:55 1512157075.747763: $GPGSV,3,1,12,10,75,342,48,14,34,259,42,18,65,106,46,21,22,178,44*7A
2017-12-01 14:37:55 1512157075.747924: $GPGSV,3,2,12,24,40,054,48,20,04,121,26,31,05,204,33,32,51,273,45*77
2017-12-01 14:37:55 1512157075.747989: $GPGSV,3,3,12,12,13,102,00,25,07,138,21,15,06,070,00,138,38,213,48*49
2017-12-01 14:37:55 1512157075.861120: $GPZDA,193756.00,01,12,2017,00,00*6F
2017-12-01 14:37:55 1512157075.861278: $GPGGA,193756,3946.9597,N,08404.9840,W,1,10,1.40,292.21,M,-33.324,M,,*7E
2017-12-01 14:37:55 1512157075.861398: $GPRMC,193756,A,3946.9597,N,08404.9840,W,0.0000,0.000,011217,,*33
2017-12-01 14:37:55 1512157075.861469: $GPGSA,A,3,10,14,18,21,24,20,31,32,25,138,,,2.0,1.4,1.5*05
2017-12-01 14:37:56 1512157076.402309: $GPZDA,193757.00,01,12,2017,00,00*6E
2017-12-01 14:37:56 1512157076.402481: $GPGGA,193757,3946.9594,N,08404.9841,W,1,10,1.40,292.98,M,-33.324,M,,*7F
2017-12-01 14:37:56 1512157076.402547: $GPRMC,193757,A,3946.9594,N,08404.9841,W,0.0000,0.000,011217,,*30
2017-12-01 14:37:56 1512157076.402608: $GPGSA,A,3,10,14,18,21,24,20,31,32,25,138,,,2.0,1.4,1.5*05
2017-12-01 14:37:57 1512157077.406230: $GPZDA,193758.00,01,12,2017,00,00*61
2017-12-01 14:37:57 1512157077.406402: $GPGGA,193758,3946.9594,N,08404.9841,W,1,10,1.40,292.98,M,-33.324,M,,*70
2017-12-01 14:37:57 1512157077.406468: $GPRMC,193758,A,3946.9594,N,08404.9841,W,0.0000,0.000,011217,,*3F
2017-12-01 14:37:57 1512157077.406529: $GPGSA,A,3,10,14,18,21,24,20,31,32,25,138,,,2.0,1.4,1.5*05
2017-12-01 14:37:58 1512157078.741848: $GPGSV,3,1,12,10,75,342,48,14,34,259,42,18,65,106,46,21,22,178,44*7A
2017-12-01 14:37:58 1512157078.742055: $GPGSV,3,2,12,24,40,054,47,20,04,121,26,31,05,204,34,32,51,273,46*7C
2017-12-01 14:37:58 1512157078.742123: $GPGSV,3,3,12,08,04,288,35,25,07,138,21,12,13,102,30,138,38,213,48*47
2017-12-01 14:37:58 1512157078.855306: $GPZDA,193759.00,01,12,2017,00,00*60
2017-12-01 14:37:58 1512157078.855462: $GPGGA,193759,3946.9594,N,08404.9841,W,1,11,1.40,292.98,M,-33.324,M,,*70
2017-12-01 14:37:58 1512157078.855528: $GPRMC,193759,A,3946.9594,N,08404.9841,W,0.0000,0.000,011217,,*3E
2017-12-01 14:37:58 1512157078.855588: $GPGSA,A,3,10,14,18,21,24,20,31,32,8,25,138,,2.0,1.4,1.5*3D
2017-12-01 14:37:59 1512157079.402547: $GPZDA,193800.00,01,12,2017,00,00*63
2017-12-01 14:37:59 1512157079.402717: $GPGGA,193800,3946.9594,N,08404.9841,W,1,11,1.00,292.98,M,-33.324,M,,*77
2017-12-01 14:37:59 1512157079.402783: $GPRMC,193800,A,3946.9594,N,08404.9841,W,0.0000,0.000,011217,,*3D
2017-12-01 14:37:59 1512157079.402844: $GPGSA,A,3,10,14,18,21,24,20,31,32,8,25,138,,2.0,1.0,1.5*39
2017-12-01 14:38:00 1512157080.408279: $GPZDA,193801.00,01,12,2017,00,00*62
2017-12-01 14:38:00 1512157080.408457: $GPGGA,193801,3946.9594,N,08404.9841,W,1,11,1.00,292.98,M,-33.324,M,,*76
2017-12-01 14:38:00 1512157080.408523: $GPRMC,193801,A,3946.9594,N,08404.9841,W,0.0000,0.000,011217,,*3C
2017-12-01 14:38:00 1512157080.408584: $GPGSA,A,3,10,14,18,21,24,20,31,32,8,25,138,,2.0,1.0,1.5*39
2017-12-01 14:38:01 1512157081.740320: $GPGSV,3,1,12,10,75,342,48,14,34,259,42,18,65,106,46,21,22,178,44*7A
2017-12-01 14:38:01 1512157081.740497: $GPGSV,3,2,12,24,40,054,47,20,04,121,26,31,05,204,34,32,51,273,46*7C
2017-12-01 14:38:01 1512157081.740564: $GPGSV,3,3,12,08,04,288,35,25,07,138,21,15,06,070,22,138,38,213,47*4C
2017-12-01 14:38:01 1512157081.853933: $GPZDA,193802.00,01,12,2017,00,00*61
2017-12-01 14:38:01 1512157081.854099: $GPGGA,193802,3946.9594,N,08404.9841,W,1,11,1.40,292.98,M,-33.324,M,,*71
2017-12-01 14:38:01 1512157081.854165: $GPRMC,193802,A,3946.9594,N,08404.9841,W,0.0000,0.000,011217,,*3F
2017-12-01 14:38:01 1512157081.854227: $GPGSA,A,3,10,14,18,21,24,20,31,32,8,25,138,,2.0,1.4,1.5*3D
2017-12-01 14:38:02 1512157082.479000: $GPZDA,193803.00,01,12,2017,00,00*60
2017-12-01 14:38:02 1512157082.479230: $GPGGA,193803,3946.9594,N,08404.9841,W,1,11,1.40,292.98,M,-33.324,M,,*70
2017-12-01 14:38:02 1512157082.479302: $GPRMC,193803,A,3946.9594,N,08404.9841,W,0.0000,0.000,011217,,*3E
2017-12-01 14:38:02 1512157082.479363: $GPGSA,A,3,10,14,18,21,24,20,31,32,8,25,138,,2.0,1.4,1.5*3D
2017-12-01 14:38:03 1512157083.399848: $GPZDA,193804.00,01,12,2017,00,00*67
2017-12-01 14:38:03 1512157083.400029: $GPGGA,193804,3946.9595,N,08404.9842,W,1,11,1.00,294.38,M,-33.324,M,,*7D
2017-12-01 14:38:03 1512157083.400096: $GPRMC,193804,A,3946.9595,N,08404.9842,W,0.0000,0.000,011217,,*3B
2017-12-01 14:38:03 1512157083.400178: $GPGSA,A,3,10,14,18,21,24,20,31,32,8,25,138,,2.0,1.0,1.5*39
2017-12-01 14:38:04 1512157084.739349: $GPGSV,3,1,12,10,75,342,47,14,34,259,41,18,65,106,45,21,22,178,44*75
2017-12-01 14:38:04 1512157084.739531: $GPGSV,3,2,12,24,40,054,46,20,04,121,24,31,05,204,33,32,51,273,45*7B
2017-12-01 14:38:04 1512157084.739598: $GPGSV,3,3,12,12,13,102,25,25,07,138,20,15,06,070,21,138,38,213,50*45
2017-12-01 14:38:04 1512157084.852772: $GPZDA,193805.00,01,12,2017,00,00*66
2017-12-01 14:38:04 1512157084.852915: $GPGGA,193805,3946.9590,N,08404.9842,W,1,12,1.00,293.74,M,-33.324,M,,*75
2017-12-01 14:38:04 1512157084.852982: $GPRMC,193805,A,3946.9590,N,08404.9842,W,0.3423,184.197,011217,,*3B
2017-12-01 14:38:04 1512157084.853044: $GPGSA,A,3,10,14,18,21,24,20,31,32,12,25,15,138,2.0,1.0,1.5*06
2017-12-01 14:38:05 1512157085.413656: $GPZDA,193806.00,01,12,2017,00,00*65
2017-12-01 14:38:05 1512157085.413828: $GPGGA,193806,3946.9594,N,08404.9847,W,1,12,1.00,291.49,M,-33.324,M,,*7B
2017-12-01 14:38:05 1512157085.413893: $GPRMC,193806,A,3946.9594,N,08404.9847,W,0.2422,93.794,011217,,*0B
2017-12-01 14:38:05 1512157085.413954: $GPGSA,A,3,10,14,18,21,24,20,31,32,12,25,15,138,2.0,1.0,1.5*06
2017-12-01 14:38:06 1512157086.401928: $GPZDA,193807.00,01,12,2017,00,00*64
2017-12-01 14:38:06 1512157086.402089: $GPGGA,193807,3946.9594,N,08404.9847,W,1,12,1.00,291.49,M,-33.324,M,,*7A
2017-12-01 14:38:06 1512157086.402155: $GPRMC,193807,A,3946.9594,N,08404.9847,W,0.0000,0.000,011217,,*3C
2017-12-01 14:38:06 1512157086.402216: $GPGSA,A,3,10,14,18,21,24,20,31,32,12,25,15,138,2.0,1.0,1.5*06
2017-12-01 14:38:06 1512157086.402275: $GPGBS,193807,10.70,M,15.43,M,35.28,M*03
2017-12-01 14:38:07 1512157087.738696: $GPGSV,3,1,12,10,75,342,47,14,34,259,41,18,65,106,45,21,22,178,44*75
2017-12-01 14:38:07 1512157087.738883: $GPGSV,3,2,12,24,40,054,48,20,04,121,24,31,05,204,35,32,51,273,45*73
2017-12-01 14:38:07 1512157087.738949: $GPGSV,3,3,12,12,13,102,28,25,07,138,23,15,06,070,24,138,38,213,48*47
2017-12-01 14:38:07 1512157087.852142: $GPZDA,193808.00,01,12,2017,00,00*6B
2017-12-01 14:38:07 1512157087.852316: $GPGGA,193808,3946.9594,N,08404.9847,W,1,12,1.00,291.49,M,-33.324,M,,*75
2017-12-01 14:38:07 1512157087.852381: $GPRMC,193808,A,3946.9594,N,08404.9847,W,0.0000,0.000,011217,,*33
2017-12-01 14:38:07 1512157087.852442: $GPGSA,A,3,10,14,18,21,24,20,31,32,12,25,15,138,2.0,1.0,1.5*06
2017-12-01 14:38:08 1512157088.404016: $GPZDA,193809.00,01,12,2017,00,00*6A
2017-12-01 14:38:08 1512157088.404232: $GPGGA,193809,3946.9598,N,08404.9847,W,1,12,1.00,292.13,M,-33.324,M,,*74
2017-12-01 14:38:08 1512157088.404343: $GPRMC,193809,A,3946.9598,N,08404.9847,W,0.0000,0.000,011217,,*3E
2017-12-01 14:38:08 1512157088.404409: $GPGSA,A,3,10,14,18,21,24,20,31,32,12,25,15,138,2.0,1.0,1.5*06
2017-12-01 14:38:09 1512157089.403731: $GPZDA,193810.00,01,12,2017,00,00*62
2017-12-01 14:38:09 1512157089.403902: $GPGGA,193810,3946.9598,N,08404.9847,W,1,12,1.00,292.13,M,-33.324,M,,*7C
2017-12-01 14:38:09 1512157089.403969: $GPRMC,193810,A,3946.9598,N,08404.9847,W,0.0000,0.000,011217,,*36
2017-12-01 14:38:09 1512157089.404051: $GPGSA,A,3,10,14,18,21,24,20,31,32,12,25,15,138,2.0,1.0,1.5*06
2017-12-01 14:38:10 1512157090.737951: $GPGSV,3,1,12,10,75,342,47,14,34,259,41,18,65,106,45,21,22,178,44*75
2017-12-01 14:38:10 1512157090.738155: $GPGSV,3,2,12,24,40,054,48,08,04,288,37,31,05,204,35,32,51,273,44*7A
2017-12-01 14:38:10 1512157090.738222: $GPGSV,3,3,12,12,13,102,29,27,03,255,19,15,06,070,23,138,38,213,47*49
2017-12-01 14:38:10 1512157090.851325: $GPZDA,193811.00,01,12,2017,00,00*63
2017-12-01 14:38:10 1512157090.851521: $GPGGA,193811,3946.9598,N,08404.9847,W,2,12,2.60,292.13,M,-33.324,M,,*7B
2017-12-01 14:38:10 1512157090.851586: $GPRMC,193811,A,3946.9598,N,08404.9847,W,0.0000,0.000,011217,,*37
2017-12-01 14:38:10 1512157090.851647: $GPGSA,A,3,10,14,18,21,24,8,31,32,12,27,15,138,2.0,2.6,1.5*3B
2017-12-01 14:38:11 1512157091.403931: $GPZDA,193812.00,01,12,2017,00,00*60
2017-12-01 14:38:11 1512157091.404298: $GPGGA,193812,3946.9598,N,08404.9847,W,2,12,1.00,292.13,M,-33.324,M,,*7D
2017-12-01 14:38:11 1512157091.404449: $GPRMC,193812,A,3946.9598,N,08404.9847,W,0.0000,0.000,011217,,*34
2017-12-01 14:38:11 1512157091.404580: $GPGSA,A,3,10,14,18,21,24,8,31,32,12,27,15,138,2.0,1.0,1.5*3E
2017-12-01 14:38:12 1512157092.405105: $GPZDA,193813.00,01,12,2017,00,00*61
2017-12-01 14:38:12 1512157092.405333: $GPGGA,193813,3946.9594,N,08404.9848,W,2,12,1.00,292.90,M,-33.324,M,,*74
2017-12-01 14:38:12 1512157092.405405: $GPRMC,193813,A,3946.9594,N,08404.9848,W,0.0000,0.000,011217,,*36
2017-12-01 14:38:12 1512157092.405469: $GPGSA,A,3,10,14,18,21,24,8,31,32,12,27,15,138,2.0,1.0,1.5*3E
