2017-11-16 13:14:20 1510856060.150041: {"class":"VERSION","release":"3.17","rev":"3.17","proto_major":3,"proto_minor":12}
2017-11-16 13:14:20 1510856060.150787: {"class":"DEVICES","devices":[{"class":"DEVICE","path":"/dev/ttyUSB0","driver":"SiRF","subtype":"9\u0006GSD4e_4.1.2-P1_RPATCH.05-F-GPS-4R-1510281 11/03/2015 307","activated":"2017-11-16T18:14:20.120Z","flags":1,"native":1,"bps":4800,"parity":"N","stopbits":1,"cycle":1.00}]}
2017-11-16 13:14:20 1510856060.150980: {"class":"WATCH","enable":true,"json":false,"nmea":true,"raw":0,"scaled":false,"timing":false,"split24":false,"pps":false}
2017-11-16 13:14:20 1510856060.297177: $GPZDA,181419.00,16,11,2017,00,00*61
2017-11-16 13:14:20 1510856060.297338: $GPGGA,181419,3946.9585,N,08404.9851,W,2,11,0.80,296.59,M,-33.324,M,,*72
2017-11-16 13:14:20 1510856060.297416: $GPRMC,181419,A,3946.9585,N,08404.9851,W,0.0000,0.000,161117,,*3E
2017-11-16 13:14:20 1510856060.297473: $GPGSA,A,3,10,13,15,18,20,21,24,27,5,29,138,,1.6,0.8,1.3*37
2017-11-16 13:14:21 1510856061.655464: $GPGSV,3,1,12,10,22,280,43,13,31,045,48,15,64,052,50,18,52,297,44*7F
2017-11-16 13:14:21 1510856061.655632: $GPGSV,3,2,12,20,53,069,47,21,76,282,46,24,31,141,42,27,15,315,34*7C
2017-11-16 13:14:21 1510856061.655691: $GPGSV,3,3,12,05,06,085,13,29,12,190,30,04,02,135,00,138,38,213,46*47
2017-11-16 13:14:21 1510856061.767500: $GPZDA,181420.00,16,11,2017,00,00*6B
2017-11-16 13:14:21 1510856061.767658: $GPGGA,181420,3946.9585,N,08404.9851,W,2,11,0.80,296.59,M,-33.324,M,,*78
2017-11-16 13:14:21 1510856061.767718: $GPRMC,181420,A,3946.9585,N,08404.9851,W,0.0000,0.000,161117,,*34
2017-11-16 13:14:21 1510856061.767773: $GPGSA,A,3,10,13,15,18,20,21,24,27,5,29,138,,1.6,0.8,1.3*37
2017-11-16 13:14:22 1510856062.319602: $GPZDA,181421.00,16,11,2017,00,00*6A
2017-11-16 13:14:22 1510856062.319757: $GPGGA,181421,3946.9585,N,08404.9851,W,2,11,0.80,296.59,M,-33.324,M,,*79
2017-11-16 13:14:22 1510856062.319818: $GPRMC,181421,A,3946.9585,N,08404.9851,W,0.0000,0.000,161117,,*35
2017-11-16 13:14:22 1510856062.319874: $GPGSA,A,3,10,13,15,18,20,21,24,27,5,29,138,,1.6,0.8,1.3*37
2017-11-16 13:14:23 1510856063.301926: $GPZDA,181422.00,16,11,2017,00,00*69
2017-11-16 13:14:23 1510856063.302089: $GPGGA,181422,3946.9585,N,08404.9851,W,2,11,0.80,296.59,M,-33.324,M,,*7A
2017-11-16 13:14:23 1510856063.302150: $GPRMC,181422,A,3946.9585,N,08404.9851,W,0.0000,0.000,161117,,*36
2017-11-16 13:14:23 1510856063.302207: $GPGSA,A,3,10,13,15,18,20,21,24,27,5,29,138,,1.6,0.8,1.3*37
2017-11-16 13:14:24 1510856064.637456: $GPGSV,3,1,12,10,22,280,43,13,31,045,48,15,64,052,50,18,52,297,44*7F
2017-11-16 13:14:24 1510856064.637622: $GPGSV,3,2,12,20,53,069,47,21,76,282,46,24,31,141,42,27,15,315,35*7D
2017-11-16 13:14:24 1510856064.637683: $GPGSV,3,3,12,05,06,085,15,29,12,190,31,04,02,135,00,138,38,213,44*42
2017-11-16 13:14:24 1510856064.750841: $GPZDA,181423.00,16,11,2017,00,00*68
2017-11-16 13:14:24 1510856064.751000: $GPGGA,181423,3946.9585,N,08404.9851,W,2,11,0.80,296.59,M,-33.324,M,,*7B
2017-11-16 13:14:24 1510856064.751060: $GPRMC,181423,A,3946.9585,N,08404.9851,W,0.0000,0.000,161117,,*37
2017-11-16 13:14:24 1510856064.751116: $GPGSA,A,3,10,13,15,18,20,21,24,27,5,29,138,,1.6,0.8,1.3*37
2017-11-16 13:14:25 1510856065.376132: $GPZDA,181424.00,16,11,2017,00,00*6F
2017-11-16 13:14:25 1510856065.376503: $GPGGA,181424,3946.9585,N,08404.9851,W,2,11,0.80,296.59,M,-33.324,M,,*7C
2017-11-16 13:14:25 1510856065.378920: $GPRMC,181424,A,3946.9585,N,08404.9851,W,0.0000,0.000,161117,,*30
2017-11-16 13:14:25 1510856065.378984: $GPGSA,A,3,10,13,15,18,20,21,24,27,5,29,138,,1.6,0.8,1.3*37
2017-11-16 13:14:26 1510856066.305723: $GPZDA,181425.00,16,11,2017,00,00*6E
2017-11-16 13:14:26 1510856066.305893: $GPGGA,181425,3946.9585,N,08404.9851,W,2,11,0.80,296.59,M,-33.324,M,,*7D
2017-11-16 13:14:26 1510856066.305954: $GPRMC,181425,A,3946.9585,N,08404.9851,W,0.0000,0.000,161117,,*31
2017-11-16 13:14:26 1510856066.306010: $GPGSA,A,3,10,13,15,18,20,21,24,27,5,29,138,,1.6,0.8,1.3*37
2017-11-16 13:14:27 1510856067.637659: $GPGSV,3,1,12,10,22,280,43,13,31,045,48,15,64,052,50,18,52,297,44*7F
2017-11-16 13:14:27 1510856067.637872: $GPGSV,3,2,12,20,53,069,47,21,76,282,46,24,31,141,42,27,15,315,40*7F
2017-11-16 13:14:27 1510856067.637935: $GPGSV,3,3,12,05,06,085,16,29,12,190,31,04,02,135,00,138,38,213,44*41
2017-11-16 13:14:27 1510856067.751057: $GPZDA,181426.00,16,11,2017,00,00*6D
2017-11-16 13:14:27 1510856067.751216: $GPGGA,181426,3946.9585,N,08404.9851,W,2,11,0.80,296.59,M,-33.324,M,,*7E
2017-11-16 13:14:27 1510856067.751277: $GPRMC,181426,A,3946.9585,N,08404.9851,W,0.0000,0.000,161117,,*32
2017-11-16 13:14:27 1510856067.751333: $GPGSA,A,3,10,13,15,18,20,21,24,27,5,29,138,,1.6,0.8,1.3*37
2017-11-16 13:14:28 1510856068.306871: $GPZDA,181427.00,16,11,2017,00,00*6C
2017-11-16 13:14:28 1510856068.307030: $GPGGA,181427,3946.9585,N,08404.9851,W,2,11,0.80,296.59,M,-33.324,M,,*7F
2017-11-16 13:14:28 1510856068.307090: $GPRMC,181427,A,3946.9585,N,08404.9851,W,0.0000,0.000,161117,,*33
2017-11-16 13:14:28 1510856068.307146: $GPGSA,A,3,10,13,15,18,20,21,24,27,5,29,138,,1.6,0.8,1.3*37
2017-11-16 13:14:29 1510856069.304003: $GPZDA,181428.00,16,11,2017,00,00*63
2017-11-16 13:14:29 1510856069.304170: $GPGGA,181428,3946.9585,N,08404.9851,W,2,11,0.80,296.59,M,-33.324,M,,*70
2017-11-16 13:14:29 1510856069.304231: $GPRMC,181428,A,3946.9585,N,08404.9851,W,0.0000,0.000,161117,,*3C
2017-11-16 13:14:29 1510856069.304286: $GPGSA,A,3,10,13,15,18,20,21,24,27,5,29,138,,1.6,0.8,1.3*37
