2017-12-01 18:21:25 1512170485.163459: {"class":"VERSION","release":"3.16","rev":"3.16-4","proto_major":3,"proto_minor":11}
2017-12-01 18:21:25 1512170485.163871: {"class":"DEVICES","devices":[{"class":"DEVICE","path":"/dev/ttyUSB0","driver":"SiRF","subtype":"9\u0006GSD4e_4.1.2-P1_RPATCH.05-F-GPS-4R-1510281 11/03/2015 307","activated":"2017-12-01T23:21:24.722Z","flags":1,"native":1,"bps":4800,"parity":"N","stopbits":1,"cycle":1.00}]}
2017-12-01 18:21:25 1512170485.163992: {"class":"WATCH","enable":true,"json":false,"nmea":true,"raw":0,"scaled":false,"timing":false,"split24":false,"pps":false}
2017-12-01 18:21:25 1512170485.410759: $GPZDA,232126.00,01,12,2017,00,00*66
2017-12-01 18:21:25 1512170485.410947: $GPGGA,232126,3946.9704,N,08404.9848,W,2,12,0.80,296.69,M,-33.325,M,,*72
2017-12-01 18:21:25 1512170485.411015: $GPRMC,232126,A,3946.9704,N,08404.9848,W,0.0000,0.000,011217,,*3A
2017-12-01 18:21:25 1512170485.411076: $GPGSA,A,3,1,3,14,16,22,23,25,26,31,32,29,138,2.0,0.8,1.5*0C
2017-12-01 18:21:26 1512170486.746401: $GPGSV,3,1,12,01,06,253,35,03,39,300,47,14,56,090,43,16,22,189,43*7C
2017-12-01 18:21:26 1512170486.746593: $GPGSV,3,2,12,22,50,271,44,23,10,300,41,25,18,040,41,26,52,172,46*76
2017-12-01 18:21:26 1512170486.749630: $GPGSV,3,3,12,31,68,024,47,32,36,106,40,29,10,073,28,138,38,213,45*40
2017-12-01 18:21:26 1512170486.859818: $GPZDA,232127.00,01,12,2017,00,00*67
2017-12-01 18:21:26 1512170486.859986: $GPGGA,232127,3946.9704,N,08404.9848,W,2,12,0.80,296.69,M,-33.325,M,,*73
2017-12-01 18:21:26 1512170486.860074: $GPRMC,232127,A,3946.9704,N,08404.9848,W,0.0000,0.000,011217,,*3B
2017-12-01 18:21:26 1512170486.860138: $GPGSA,A,3,1,3,14,16,22,23,25,26,31,32,29,138,2.0,0.8,1.5*0C
2017-12-01 18:21:27 1512170487.409457: $GPZDA,232128.00,01,12,2017,00,00*68
2017-12-01 18:21:27 1512170487.409628: $GPGGA,232128,3946.9704,N,08404.9848,W,2,12,0.80,296.69,M,-33.325,M,,*7C
2017-12-01 18:21:27 1512170487.409695: $GPRMC,232128,A,3946.9704,N,08404.9848,W,0.0000,0.000,011217,,*34
2017-12-01 18:21:27 1512170487.409756: $GPGSA,A,3,1,3,14,16,22,23,25,26,31,32,29,138,2.0,0.8,1.5*0C
2017-12-01 18:21:28 1512170488.409077: $GPZDA,232129.00,01,12,2017,00,00*69
2017-12-01 18:21:28 1512170488.409249: $GPGGA,232129,3946.9704,N,08404.9848,W,2,12,0.80,296.69,M,-33.325,M,,*7D
2017-12-01 18:21:28 1512170488.409335: $GPRMC,232129,A,3946.9704,N,08404.9848,W,0.0000,0.000,011217,,*35
2017-12-01 18:21:28 1512170488.409398: $GPGSA,A,3,1,3,14,16,22,23,25,26,31,32,29,138,2.0,0.8,1.5*0C
2017-12-01 18:21:29 1512170489.745968: $GPGSV,3,1,12,01,06,253,35,03,39,300,47,14,56,090,43,16,22,189,43*7C
2017-12-01 18:21:29 1512170489.746168: $GPGSV,3,2,12,22,50,271,44,23,10,300,40,25,18,040,42,26,52,172,46*74
2017-12-01 18:21:29 1512170489.746236: $GPGSV,3,3,12,31,68,024,47,32,36,106,41,29,10,073,28,138,38,213,45*41
2017-12-01 18:21:29 1512170489.859305: $GPZDA,232130.00,01,12,2017,00,00*61
2017-12-01 18:21:29 1512170489.859449: $GPGGA,232130,3946.9704,N,08404.9848,W,2,12,0.80,296.69,M,-33.325,M,,*75
2017-12-01 18:21:29 1512170489.859515: $GPRMC,232130,A,3946.9704,N,08404.9848,W,0.0000,0.000,011217,,*3D
2017-12-01 18:21:29 1512170489.859576: $GPGSA,A,3,1,3,14,16,22,23,25,26,31,32,29,138,2.0,0.8,1.5*0C
2017-12-01 18:21:30 1512170490.484727: $GPZDA,232131.00,01,12,2017,00,00*60
2017-12-01 18:21:30 1512170490.484880: $GPGGA,232131,3946.9704,N,08404.9848,W,2,12,0.80,296.69,M,-33.325,M,,*74
2017-12-01 18:21:30 1512170490.484948: $GPRMC,232131,A,3946.9704,N,08404.9848,W,0.0000,0.000,011217,,*3C
2017-12-01 18:21:30 1512170490.485009: $GPGSA,A,3,1,3,14,16,22,23,25,26,31,32,29,138,2.0,0.8,1.5*0C
2017-12-01 18:21:31 1512170491.409311: $GPZDA,232132.00,01,12,2017,00,00*63
2017-12-01 18:21:31 1512170491.409486: $GPGGA,232132,3946.9704,N,08404.9848,W,2,12,0.80,296.69,M,-33.325,M,,*77
2017-12-01 18:21:31 1512170491.409553: $GPRMC,232132,A,3946.9704,N,08404.9848,W,0.0000,0.000,011217,,*3F
2017-12-01 18:21:31 1512170491.409614: $GPGSA,A,3,1,3,14,16,22,23,25,26,31,32,29,138,2.0,0.8,1.5*0C
2017-12-01 18:21:32 1512170492.743801: $GPGSV,3,1,12,01,06,253,35,03,39,300,47,14,56,090,43,16,22,189,43*7C
2017-12-01 18:21:32 1512170492.744037: $GPGSV,3,2,12,22,50,271,44,23,10,300,41,25,18,040,41,26,52,172,46*76
2017-12-01 18:21:32 1512170492.744108: $GPGSV,3,3,12,31,68,024,46,32,36,106,41,29,10,073,28,138,38,213,46*43
2017-12-01 18:21:32 1512170492.856335: $GPZDA,232133.00,01,12,2017,00,00*62
2017-12-01 18:21:32 1512170492.856517: $GPGGA,232133,3946.9704,N,08404.9848,W,2,12,0.80,296.69,M,-33.325,M,,*76
2017-12-01 18:21:32 1512170492.856584: $GPRMC,232133,A,3946.9704,N,08404.9848,W,0.0000,0.000,011217,,*3E
2017-12-01 18:21:32 1512170492.856645: $GPGSA,A,3,1,3,14,16,22,23,25,26,31,32,29,138,2.0,0.8,1.5*0C
2017-12-01 18:21:33 1512170493.410590: $GPZDA,232134.00,01,12,2017,00,00*65
2017-12-01 18:21:33 1512170493.410760: $GPGGA,232134,3946.9704,N,08404.9848,W,2,12,0.80,296.69,M,-33.325,M,,*71
2017-12-01 18:21:33 1512170493.410827: $GPRMC,232134,A,3946.9704,N,08404.9848,W,0.0000,0.000,011217,,*39
2017-12-01 18:21:33 1512170493.410889: $GPGSA,A,3,1,3,14,16,22,23,25,26,31,32,29,138,2.0,0.8,1.5*0C
2017-12-01 18:21:34 1512170494.410178: $GPZDA,232135.00,01,12,2017,00,00*64
2017-12-01 18:21:34 1512170494.410351: $GPGGA,232135,3946.9704,N,08404.9848,W,2,12,0.80,296.69,M,-33.325,M,,*70
2017-12-01 18:21:34 1512170494.410418: $GPRMC,232135,A,3946.9704,N,08404.9848,W,0.0000,0.000,011217,,*38
2017-12-01 18:21:34 1512170494.410479: $GPGSA,A,3,1,3,14,16,22,23,25,26,31,32,29,138,2.0,0.8,1.5*0C
2017-12-01 18:21:35 1512170495.745434: $GPGSV,3,1,12,01,06,253,34,03,39,300,47,14,56,090,43,16,22,189,43*7D
2017-12-01 18:21:35 1512170495.745628: $GPGSV,3,2,12,22,50,271,45,23,10,300,41,25,18,040,42,26,52,172,47*75
2017-12-01 18:21:35 1512170495.745840: $GPGSV,3,3,12,31,68,024,47,32,36,106,40,29,10,073,28,138,38,213,46*43
2017-12-01 18:21:35 1512170495.859041: $GPZDA,232136.00,01,12,2017,00,00*67
2017-12-01 18:21:35 1512170495.859204: $GPGGA,232136,3946.9704,N,08404.9848,W,2,12,0.80,296.69,M,-33.325,M,,*73
2017-12-01 18:21:35 1512170495.859270: $GPRMC,232136,A,3946.9704,N,08404.9848,W,0.0000,0.000,011217,,*3B
2017-12-01 18:21:35 1512170495.859351: $GPGSA,A,3,1,3,14,16,22,23,25,26,31,32,29,138,2.0,0.8,1.5*0C
2017-12-01 18:21:36 1512170496.411165: $GPZDA,232137.00,01,12,2017,00,00*66
2017-12-01 18:21:36 1512170496.411332: $GPGGA,232137,3946.9704,N,08404.9848,W,2,12,0.80,296.69,M,-33.325,M,,*72
2017-12-01 18:21:36 1512170496.411448: $GPRMC,232137,A,3946.9704,N,08404.9848,W,0.0000,0.000,011217,,*3A
2017-12-01 18:21:36 1512170496.411511: $GPGSA,A,3,1,3,14,16,22,23,25,26,31,32,29,138,2.0,0.8,1.5*0C
2017-12-01 18:21:37 1512170497.410775: $GPZDA,232138.00,01,12,2017,00,00*69
2017-12-01 18:21:37 1512170497.410970: $GPGGA,232138,3946.9704,N,08404.9848,W,2,12,0.80,296.69,M,-33.325,M,,*7D
2017-12-01 18:21:37 1512170497.411038: $GPRMC,232138,A,3946.9704,N,08404.9848,W,0.0000,0.000,011217,,*35
2017-12-01 18:21:37 1512170497.411099: $GPGSA,A,3,1,3,14,16,22,23,25,26,31,32,29,138,2.0,0.8,1.5*0C
2017-12-01 18:21:38 1512170498.746282: $GPGSV,3,1,12,01,06,253,34,03,39,300,47,14,56,090,43,16,22,189,44*7A
2017-12-01 18:21:38 1512170498.746464: $GPGSV,3,2,12,22,50,271,45,23,10,300,41,25,18,040,41,26,52,172,47*76
2017-12-01 18:21:38 1512170498.746534: $GPGSV,3,3,12,31,68,024,47,32,36,106,40,29,10,073,27,138,38,213,46*4C
2017-12-01 18:21:38 1512170498.859940: $GPZDA,232139.00,01,12,2017,00,00*68
2017-12-01 18:21:38 1512170498.860117: $GPGGA,232139,3946.9704,N,08404.9848,W,2,12,0.80,296.69,M,-33.325,M,,*7C
2017-12-01 18:21:38 1512170498.860187: $GPRMC,232139,A,3946.9704,N,08404.9848,W,0.0000,0.000,011217,,*34
2017-12-01 18:21:38 1512170498.860248: $GPGSA,A,3,1,3,14,16,22,23,25,26,31,32,29,138,2.0,0.8,1.5*0C
2017-12-01 18:21:39 1512170499.409570: $GPZDA,232140.00,01,12,2017,00,00*66
2017-12-01 18:21:39 1512170499.409739: $GPGGA,232140,3946.9704,N,08404.9848,W,2,12,0.80,296.69,M,-33.325,M,,*72
2017-12-01 18:21:39 1512170499.409807: $GPRMC,232140,A,3946.9704,N,08404.9848,W,0.0000,0.000,011217,,*3A
2017-12-01 18:21:39 1512170499.409869: $GPGSA,A,3,1,3,14,16,22,23,25,26,31,32,29,138,2.0,0.8,1.5*0C
2017-12-01 18:21:40 1512170500.409771: $GPZDA,232141.00,01,12,2017,00,00*67
2017-12-01 18:21:40 1512170500.409972: $GPGGA,232141,3946.9704,N,08404.9848,W,2,12,0.80,296.69,M,-33.325,M,,*73
2017-12-01 18:21:40 1512170500.410047: $GPRMC,232141,A,3946.9704,N,08404.9848,W,0.0000,0.000,011217,,*3B
2017-12-01 18:21:40 1512170500.410113: $GPGSA,A,3,1,3,14,16,22,23,25,26,31,32,29,138,2.0,0.8,1.5*0C
2017-12-01 18:21:41 1512170501.746584: $GPGSV,3,1,12,01,06,253,29,03,39,300,47,14,56,090,43,16,22,189,43*71
2017-12-01 18:21:41 1512170501.746770: $GPGSV,3,2,12,22,50,271,45,23,10,300,42,25,18,040,41,26,52,172,47*75
2017-12-01 18:21:41 1512170501.746843: $GPGSV,3,3,12,31,68,024,47,32,36,106,40,29,10,073,00,138,38,213,46*49
2017-12-01 18:21:41 1512170501.859913: $GPZDA,232142.00,01,12,2017,00,00*64
2017-12-01 18:21:41 1512170501.860105: $GPGGA,232142,3946.9704,N,08404.9848,W,2,11,0.80,296.69,M,-33.325,M,,*73
2017-12-01 18:21:41 1512170501.860176: $GPRMC,232142,A,3946.9704,N,08404.9848,W,0.0000,0.000,011217,,*38
2017-12-01 18:21:41 1512170501.860243: $GPGSA,A,3,1,3,14,16,22,23,25,26,31,32,138,,2.0,0.8,1.5*07
2017-12-01 18:21:42 1512170502.412099: $GPZDA,232143.00,01,12,2017,00,00*65
2017-12-01 18:21:42 1512170502.416833: $GPGGA,232143,3946.9704,N,08404.9848,W,2,11,0.80,296.69,M,-33.325,M,,*72
2017-12-01 18:21:42 1512170502.416955: $GPRMC,232143,A,3946.9704,N,08404.9848,W,0.0000,0.000,011217,,*39
2017-12-01 18:21:42 1512170502.417025: $GPGSA,A,3,1,3,14,16,22,23,25,26,31,32,138,,2.0,0.8,1.5*07
2017-12-01 18:21:43 1512170503.409553: $GPZDA,232144.00,01,12,2017,00,00*62
2017-12-01 18:21:43 1512170503.409726: $GPGGA,232144,3946.9707,N,08404.9847,W,2,11,0.80,295.93,M,-33.325,M,,*7F
2017-12-01 18:21:43 1512170503.409796: $GPRMC,232144,A,3946.9707,N,08404.9847,W,0.0000,0.000,011217,,*32
2017-12-01 18:21:43 1512170503.409860: $GPGSA,A,3,1,3,14,16,22,23,25,26,31,32,138,,2.0,0.8,1.5*07
2017-12-01 18:21:44 1512170504.746239: $GPGSV,3,1,12,01,06,253,30,03,39,300,47,14,56,090,43,16,22,189,43*79
2017-12-01 18:21:44 1512170504.746438: $GPGSV,3,2,12,22,50,271,45,23,10,300,41,25,18,040,41,26,52,172,47*76
2017-12-01 18:21:44 1512170504.746511: $GPGSV,3,3,12,31,68,024,47,32,36,106,40,29,10,073,00,138,38,213,46*49
2017-12-01 18:21:44 1512170504.859843: $GPZDA,232145.00,01,12,2017,00,00*63
2017-12-01 18:21:44 1512170504.860004: $GPGGA,232145,3946.9707,N,08404.9847,W,2,11,0.80,295.93,M,-33.325,M,,*7E
2017-12-01 18:21:44 1512170504.860074: $GPRMC,232145,A,3946.9707,N,08404.9847,W,0.0000,0.000,011217,,*33
2017-12-01 18:21:44 1512170504.860138: $GPGSA,A,3,1,3,14,16,22,23,25,26,31,32,138,,2.0,0.8,1.5*07
