2017-11-15 18:56:45 1510790205.772493: {"class":"VERSION","release":"3.17","rev":"3.17","proto_major":3,"proto_minor":12}
2017-11-15 18:56:45 1510790205.772983: {"class":"DEVICES","devices":[{"class":"DEVICE","path":"/dev/ttyUSB0","driver":"SiRF","subtype":"9\u0006GSD4e_4.1.2-P1_RPATCH.05-F-GPS-4R-1510281 11/03/2015 307","activated":"2017-11-15T23:56:45.708Z","flags":1,"native":1,"bps":4800,"parity":"N","stopbits":1,"cycle":1.00}]}
2017-11-15 18:56:45 1510790205.773109: {"class":"WATCH","enable":true,"json":false,"nmea":true,"raw":0,"scaled":false,"timing":false,"split24":false,"pps":false}
2017-11-15 18:56:45 1510790205.821942: $GPZDA,235644.00,15,11,2017,00,00*64
2017-11-15 18:56:45 1510790205.822095: $GPGGA,235644,3946.9567,N,08404.9531,W,1,09,0.80,313.08,M,-33.324,M,,*71
2017-11-15 18:56:45 1510790205.822155: $GPRMC,235644,A,3946.9567,N,08404.9531,W,0.4207,39.347,151117,,*07
2017-11-15 18:56:45 1510790205.822211: $GPGSA,A,3,10,14,3,32,31,26,22,25,29,,,,3.4,0.8,2.9*0A
2017-11-15 18:56:46 1510790206.447340: $GPZDA,235645.00,15,11,2017,00,00*65
2017-11-15 18:56:46 1510790206.447534: $GPGGA,235645,3946.9567,N,08404.9531,W,1,09,0.80,313.08,M,-33.324,M,,*70
2017-11-15 18:56:46 1510790206.447595: $GPRMC,235645,A,3946.9567,N,08404.9531,W,0.5951,58.684,151117,,*02
2017-11-15 18:56:46 1510790206.447652: $GPGSA,A,3,10,14,3,32,31,26,22,25,29,,,,3.4,0.8,2.9*0A
2017-11-15 18:56:47 1510790207.371921: $GPZDA,235646.00,15,11,2017,00,00*66
2017-11-15 18:56:47 1510790207.372095: $GPGGA,235646,3946.9571,N,08404.9531,W,1,09,1.00,313.72,M,-33.324,M,,*70
2017-11-15 18:56:47 1510790207.376460: $GPRMC,235646,A,3946.9571,N,08404.9531,W,0.5774,27.515,151117,,*0C
2017-11-15 18:56:47 1510790207.376549: $GPGSA,A,3,10,14,3,32,31,26,22,25,29,,,,3.4,1.0,2.9*03
2017-11-15 18:56:48 1510790208.707731: $GPGSV,3,1,12,10,12,159,09,14,65,066,18,03,29,312,15,32,48,093,22*7A
2017-11-15 18:56:48 1510790208.707903: $GPGSV,3,2,12,31,78,337,21,26,36,177,23,22,46,292,07,01,14,265,00*7A
2017-11-15 18:56:48 1510790208.707963: $GPGSV,3,3,12,25,29,048,10,29,04,085,14,16,07,190,00,135,23,238,00*4B
2017-11-15 18:56:48 1510790208.821053: $GPZDA,235647.00,15,11,2017,00,00*67
2017-11-15 18:56:48 1510790208.821221: $GPGGA,235647,3946.9571,N,08404.9531,W,1,09,1.00,313.72,M,-33.324,M,,*71
2017-11-15 18:56:48 1510790208.821282: $GPRMC,235647,A,3946.9571,N,08404.9531,W,0.7278,23.636,151117,,*00
2017-11-15 18:56:48 1510790208.821338: $GPGSA,A,3,10,14,3,32,31,26,22,25,29,,,,3.4,1.0,2.9*03
2017-11-15 18:56:49 1510790209.330727: $GPZDA,235648.00,15,11,2017,00,00*68
2017-11-15 18:56:49 1510790209.330892: $GPGGA,235648,3946.9571,N,08404.9524,W,1,09,1.00,313.80,M,-33.324,M,,*77
2017-11-15 18:56:49 1510790209.330954: $GPRMC,235648,A,3946.9571,N,08404.9524,W,0.8054,68.645,151117,,*03
2017-11-15 18:56:49 1510790209.331010: $GPGSA,A,3,10,14,3,32,31,26,22,25,29,,,,3.4,1.0,2.9*03
2017-11-15 18:56:50 1510790210.372827: $GPZDA,235649.00,15,11,2017,00,00*69
2017-11-15 18:56:50 1510790210.372989: $GPGGA,235649,3946.9571,N,08404.9524,W,1,09,1.00,313.80,M,-33.324,M,,*76
2017-11-15 18:56:50 1510790210.373051: $GPRMC,235649,A,3946.9571,N,08404.9524,W,0.7576,81.915,151117,,*05
2017-11-15 18:56:50 1510790210.373107: $GPGSA,A,3,10,14,3,32,31,26,22,25,29,,,,3.4,1.0,2.9*03
2017-11-15 18:56:51 1510790211.708080: $GPGSV,3,1,12,10,12,159,10,14,65,066,18,03,29,312,15,32,48,093,22*72
2017-11-15 18:56:51 1510790211.708253: $GPGSV,3,2,12,31,78,337,20,26,36,177,23,22,46,292,06,16,07,190,16*70
2017-11-15 18:56:51 1510790211.708313: $GPGSV,3,3,12,25,29,048,11,29,04,085,14,01,14,265,00,120,07,103,00*4E
2017-11-15 18:56:51 1510790211.821734: $GPZDA,235650.00,15,11,2017,00,00*61
2017-11-15 18:56:51 1510790211.821918: $GPGGA,235650,3946.9571,N,08404.9524,W,1,09,1.00,313.80,M,-33.324,M,,*7E
2017-11-15 18:56:51 1510790211.821994: $GPRMC,235650,A,3946.9571,N,08404.9524,W,0.2959,54.767,151117,,*0A
2017-11-15 18:56:51 1510790211.822063: $GPGSA,A,3,10,14,3,32,31,26,22,25,29,,,,3.4,1.0,2.9*03
2017-11-15 18:56:52 1510790212.329894: $GPZDA,235651.00,15,11,2017,00,00*60
2017-11-15 18:56:52 1510790212.330093: $GPGGA,235651,3946.9571,N,08404.9524,W,1,09,1.00,313.80,M,-33.324,M,,*7F
2017-11-15 18:56:52 1510790212.330206: $GPRMC,235651,A,3946.9571,N,08404.9524,W,0.5951,58.684,151117,,*04
2017-11-15 18:56:52 1510790212.330263: $GPGSA,A,3,10,14,3,32,31,26,22,25,29,,,,3.4,1.0,2.9*03
2017-11-15 18:56:53 1510790213.373298: $GPZDA,235652.00,15,11,2017,00,00*63
2017-11-15 18:56:53 1510790213.373496: $GPGGA,235652,3946.9575,N,08404.9524,W,1,09,1.00,314.44,M,-33.324,M,,*77
2017-11-15 18:56:53 1510790213.373558: $GPRMC,235652,A,3946.9575,N,08404.9524,W,0.4179,328.778,151117,,*36
2017-11-15 18:56:53 1510790213.373615: $GPGSA,A,3,10,14,3,32,31,26,22,25,29,,,,3.4,1.0,2.9*03
2017-11-15 18:56:54 1510790214.708950: $GPGSV,3,1,12,10,12,159,10,14,65,066,17,03,29,312,15,32,48,093,22*7D
2017-11-15 18:56:54 1510790214.709121: $GPGSV,3,2,12,31,78,337,20,26,36,177,23,22,46,292,07,16,07,190,17*70
2017-11-15 18:56:54 1510790214.709182: $GPGSV,3,3,12,25,29,048,11,29,04,085,15,01,14,265,00,120,07,103,00*4F
2017-11-15 18:56:54 1510790214.822304: $GPZDA,235653.00,15,11,2017,00,00*62
2017-11-15 18:56:54 1510790214.822514: $GPGGA,235653,3946.9578,N,08404.9523,W,1,09,1.00,313.67,M,-33.324,M,,*7A
2017-11-15 18:56:54 1510790214.822576: $GPRMC,235653,A,3946.9578,N,08404.9523,W,0.6846,4.197,151117,,*30
2017-11-15 18:56:54 1510790214.822632: $GPGSA,A,3,10,14,3,32,31,26,22,25,29,,,,3.4,1.0,2.9*03
2017-11-15 18:56:55 1510790215.330677: $GPZDA,235654.00,15,11,2017,00,00*65
2017-11-15 18:56:55 1510790215.330843: $GPGGA,235654,3946.9578,N,08404.9523,W,1,09,1.00,313.67,M,-33.324,M,,*7D
2017-11-15 18:56:55 1510790215.330904: $GPRMC,235654,A,3946.9578,N,08404.9523,W,0.5857,338.291,151117,,*3D
2017-11-15 18:56:55 1510790215.330960: $GPGSA,A,3,10,14,3,32,31,26,22,25,29,,,,3.4,1.0,2.9*03
2017-11-15 18:56:56 1510790216.331520: $GPZDA,235655.00,15,11,2017,00,00*64
2017-11-15 18:56:56 1510790216.331683: $GPGGA,235655,3946.9583,N,08404.9530,W,1,09,1.00,314.24,M,-33.324,M,,*7A
2017-11-15 18:56:56 1510790216.331743: $GPRMC,235655,A,3946.9583,N,08404.9530,W,0.7246,344.668,151117,,*3B
2017-11-15 18:56:56 1510790216.331800: $GPGSA,A,3,10,14,3,32,31,26,22,25,29,,,,3.4,1.0,2.9*03
2017-11-15 18:56:57 1510790217.666832: $GPGSV,3,1,12,10,12,159,11,14,65,066,17,03,29,312,15,32,48,093,21*7F
2017-11-15 18:56:57 1510790217.667016: $GPGSV,3,2,12,31,78,337,20,26,36,177,24,22,46,292,04,01,14,265,00*7F
2017-11-15 18:56:57 1510790217.668498: $GPGSV,3,3,12,25,29,048,12,29,04,085,15,16,07,190,00,120,07,103,00*41
2017-11-15 18:56:57 1510790217.778893: $GPZDA,235656.00,15,11,2017,00,00*67
2017-11-15 18:56:57 1510790217.779054: $GPGGA,235656,3946.9583,N,08404.9530,W,1,08,1.00,314.24,M,-33.324,M,,*78
2017-11-15 18:56:57 1510790217.779115: $GPRMC,235656,A,3946.9583,N,08404.9530,W,0.5912,309.173,151117,,*34
2017-11-15 18:56:57 1510790217.779171: $GPGSA,A,3,10,14,3,32,31,26,25,29,,,,,3.4,1.0,2.9*03
2017-11-15 18:56:58 1510790218.331280: $GPZDA,235657.00,15,11,2017,00,00*66
2017-11-15 18:56:58 1510790218.331477: $GPGGA,235657,3946.9583,N,08404.9537,W,1,08,1.00,314.16,M,-33.324,M,,*7F
2017-11-15 18:56:58 1510790218.331538: $GPRMC,235657,A,3946.9583,N,08404.9537,W,1.0253,293.297,151117,,*33
2017-11-15 18:56:58 1510790218.331594: $GPGSA,A,3,10,14,3,32,31,26,25,29,,,,,3.4,1.0,2.9*03
2017-11-15 18:56:59 1510790219.373380: $GPZDA,235658.00,15,11,2017,00,00*69
2017-11-15 18:56:59 1510790219.373565: $GPGGA,235658,3946.9580,N,08404.9545,W,1,08,1.00,314.84,M,-33.324,M,,*7D
2017-11-15 18:56:59 1510790219.373625: $GPRMC,235658,A,3946.9580,N,08404.9545,W,0.9689,273.794,151117,,*39
2017-11-15 18:56:59 1510790219.373681: $GPGSA,A,3,10,14,3,32,31,26,25,29,,,,,3.4,1.0,2.9*03
2017-11-15 18:57:00 1510790220.707648: $GPGSV,3,1,12,10,12,159,11,14,65,066,18,03,29,312,15,32,48,093,21*70
2017-11-15 18:57:00 1510790220.707820: $GPGSV,3,2,12,31,78,337,20,26,36,177,24,22,46,292,04,01,14,265,00*7F
2017-11-15 18:57:00 1510790220.707880: $GPGSV,3,3,12,25,29,048,11,29,04,085,15,16,07,190,00,120,07,103,00*42
2017-11-15 18:57:00 1510790220.821583: $GPZDA,235659.00,15,11,2017,00,00*68
2017-11-15 18:57:00 1510790220.821799: $GPGGA,235659,3946.9580,N,08404.9545,W,1,08,1.00,314.84,M,-33.324,M,,*7C
2017-11-15 18:57:00 1510790220.821865: $GPRMC,235659,A,3946.9580,N,08404.9545,W,0.4844,273.794,151117,,*3A
2017-11-15 18:57:00 1510790220.821922: $GPGSA,A,3,10,14,3,32,31,26,25,29,,,,,3.4,1.0,2.9*03
2017-11-15 18:57:01 1510790221.446355: $GPZDA,235700.00,15,11,2017,00,00*65
2017-11-15 18:57:01 1510790221.446542: $GPGGA,235700,3946.9580,N,08404.9545,W,1,08,1.00,314.84,M,-33.324,M,,*71
2017-11-15 18:57:01 1510790221.446605: $GPRMC,235700,A,3946.9580,N,08404.9545,W,0.0000,0.000,151117,,*37
2017-11-15 18:57:01 1510790221.446662: $GPGSA,A,3,10,14,3,32,31,26,25,29,,,,,3.4,1.0,2.9*03
2017-11-15 18:57:02 1510790222.372212: $GPZDA,235701.00,15,11,2017,00,00*64
2017-11-15 18:57:02 1510790222.372400: $GPGGA,235701,3946.9580,N,08404.9545,W,1,08,1.00,314.84,M,-33.324,M,,*70
2017-11-15 18:57:02 1510790222.372483: $GPRMC,235701,A,3946.9580,N,08404.9545,W,0.3423,184.197,151117,,*32
2017-11-15 18:57:02 1510790222.372541: $GPGSA,A,3,10,14,3,32,31,26,25,29,,,,,3.4,1.0,2.9*03
2017-11-15 18:57:03 1510790223.708012: $GPGSV,3,1,12,10,12,159,10,14,65,066,18,03,29,312,15,32,48,093,20*70
2017-11-15 18:57:03 1510790223.708159: $GPGSV,3,2,12,31,78,337,19,26,36,177,24,22,46,292,04,01,14,265,00*75
2017-11-15 18:57:03 1510790223.708219: $GPGSV,3,3,12,25,29,048,11,29,04,085,08,16,07,190,00,120,07,103,00*4E
2017-11-15 18:57:03 1510790223.821358: $GPZDA,235702.00,15,11,2017,00,00*67
2017-11-15 18:57:03 1510790223.821541: $GPGGA,235702,3946.9580,N,08404.9552,W,1,07,1.00,314.76,M,-33.324,M,,*77
2017-11-15 18:57:03 1510790223.821602: $GPRMC,235702,A,3946.9580,N,08404.9552,W,0.3423,184.197,151117,,*37
2017-11-15 18:57:03 1510790223.821659: $GPGSA,A,3,10,14,3,32,31,26,25,,,,,,3.4,1.0,2.9*08
2017-11-15 18:57:04 1510790224.330988: $GPZDA,235703.00,15,11,2017,00,00*66
2017-11-15 18:57:04 1510790224.331148: $GPGGA,235703,3946.9580,N,08404.9545,W,1,07,1.00,314.84,M,-33.324,M,,*7D
2017-11-15 18:57:04 1510790224.331208: $GPRMC,235703,A,3946.9580,N,08404.9545,W,0.5912,129.173,151117,,*34
2017-11-15 18:57:04 1510790224.331265: $GPGSA,A,3,10,14,3,32,31,26,25,,,,,,3.4,1.0,2.9*08
2017-11-15 18:57:05 1510790225.330603: $GPZDA,235704.00,15,11,2017,00,00*61
2017-11-15 18:57:05 1510790225.330751: $GPGGA,235704,3946.9576,N,08404.9545,W,1,07,1.00,315.61,M,-33.324,M,,*79
2017-11-15 18:57:05 1510790225.330812: $GPRMC,235704,A,3946.9576,N,08404.9545,W,0.2422,93.794,151117,,*0C
2017-11-15 18:57:05 1510790225.330869: $GPGSA,A,3,10,14,3,32,31,26,25,,,,,,3.4,1.0,2.9*08
2017-11-15 18:57:06 1510790226.665937: $GPGSV,3,1,12,10,12,159,09,14,65,066,18,03,29,312,16,32,48,093,20*7B
2017-11-15 18:57:06 1510790226.666091: $GPGSV,3,2,12,31,78,337,19,26,36,177,24,22,46,292,12,16,07,190,11*7F
2017-11-15 18:57:06 1510790226.666152: $GPGSV,3,3,12,25,29,048,10,29,04,085,04,01,14,265,00,120,07,103,00*4E
2017-11-15 18:57:06 1510790226.779182: $GPZDA,235705.00,15,11,2017,00,00*60
2017-11-15 18:57:06 1510790226.779368: $GPGGA,235705,3946.9580,N,08404.9545,W,1,08,1.00,314.84,M,-33.324,M,,*74
2017-11-15 18:57:06 1510790226.779449: $GPRMC,235705,A,3946.9580,N,08404.9545,W,0.4207,39.347,151117,,*09
2017-11-15 18:57:06 1510790226.779508: $GPGSA,A,3,10,14,3,32,31,26,22,25,,,,,3.4,1.0,2.9*08
2017-11-15 18:57:07 1510790227.331496: $GPZDA,235706.00,15,11,2017,00,00*63
2017-11-15 18:57:07 1510790227.331831: $GPGGA,235706,3946.9580,N,08404.9545,W,1,08,1.00,314.84,M,-33.324,M,,*77
2017-11-15 18:57:07 1510790227.331974: $GPRMC,235706,A,3946.9580,N,08404.9545,W,0.9929,32.499,151117,,*0F
2017-11-15 18:57:07 1510790227.332088: $GPGSA,A,3,10,14,3,32,31,26,22,25,,,,,3.4,1.0,2.9*08
2017-11-15 18:57:08 1510790228.330974: $GPZDA,235707.00,15,11,2017,00,00*62
2017-11-15 18:57:08 1510790228.332641: $GPGGA,235707,3946.9584,N,08404.9545,W,1,08,1.00,315.48,M,-33.324,M,,*73
2017-11-15 18:57:08 1510790228.332733: $GPRMC,235707,A,3946.9584,N,08404.9545,W,0.8054,68.645,151117,,*04
2017-11-15 18:57:08 1510790228.332792: $GPGSA,A,3,10,14,3,32,31,26,22,25,,,,,3.4,1.0,2.9*08
2017-11-15 18:57:09 1510790229.666746: $GPGSV,3,1,12,10,12,159,10,14,65,066,17,03,29,312,16,32,48,093,20*7C
2017-11-15 18:57:09 1510790229.666972: $GPGSV,3,2,12,31,78,337,19,26,36,177,24,22,46,292,13,01,14,265,00*73
2017-11-15 18:57:09 1510790229.667037: $GPGSV,3,3,12,25,29,048,10,29,04,085,04,16,07,190,00,120,07,103,00*43
2017-11-15 18:57:09 1510790229.778820: $GPZDA,235708.00,15,11,2017,00,00*6D
2017-11-15 18:57:09 1510790229.778991: $GPGGA,235708,3946.9584,N,08404.9545,W,1,08,1.00,315.48,M,-33.324,M,,*7C
2017-11-15 18:57:09 1510790229.779052: $GPRMC,235708,A,3946.9584,N,08404.9545,W,0.2422,93.794,151117,,*0D
2017-11-15 18:57:09 1510790229.779110: $GPGSA,A,3,10,14,3,32,31,26,22,25,,,,,3.4,1.0,2.9*08
2017-11-15 18:57:10 1510790230.329948: $GPZDA,235709.00,15,11,2017,00,00*6C
2017-11-15 18:57:10 1510790230.330112: $GPGGA,235709,3946.9581,N,08404.9545,W,1,08,1.00,316.25,M,-33.324,M,,*70
2017-11-15 18:57:10 1510790230.330172: $GPRMC,235709,A,3946.9581,N,08404.9545,W,0.0000,0.000,151117,,*3F
2017-11-15 18:57:10 1510790230.330227: $GPGSA,A,3,10,14,3,32,31,26,22,25,,,,,3.4,1.0,2.9*08
2017-11-15 18:57:11 1510790231.330064: $GPZDA,235710.00,15,11,2017,00,00*64
2017-11-15 18:57:11 1510790231.330229: $GPGGA,235710,3946.9581,N,08404.9545,W,1,08,0.80,316.25,M,-33.324,M,,*71
2017-11-15 18:57:11 1510790231.330314: $GPRMC,235710,A,3946.9581,N,08404.9545,W,0.2422,93.794,151117,,*01
2017-11-15 18:57:11 1510790231.330372: $GPGSA,A,3,10,14,3,32,31,26,22,25,,,,,3.4,0.8,2.9*01
2017-11-15 18:57:12 1510790232.665860: $GPGSV,3,1,12,10,12,159,09,14,65,066,17,03,29,312,17,32,48,093,19*7F
2017-11-15 18:57:12 1510790232.666017: $GPGSV,3,2,12,31,78,337,18,26,36,177,23,22,46,292,10,01,14,265,00*76
2017-11-15 18:57:12 1510790232.666077: $GPGSV,3,3,12,25,29,048,09,29,04,085,13,16,07,190,00,120,07,103,00*4D
2017-11-15 18:57:12 1510790232.779494: $GPZDA,235711.00,15,11,2017,00,00*65
2017-11-15 18:57:12 1510790232.779653: $GPGGA,235711,3946.9581,N,08404.9545,W,1,09,0.80,316.25,M,-33.324,M,,*71
2017-11-15 18:57:12 1510790232.779714: $GPRMC,235711,A,3946.9581,N,08404.9545,W,0.2959,54.767,151117,,*06
2017-11-15 18:57:12 1510790232.779769: $GPGSA,A,3,10,14,3,32,31,26,22,25,29,,,,3.4,0.8,2.9*0A
2017-11-15 18:57:13 1510790233.330295: $GPZDA,235712.00,15,11,2017,00,00*66
2017-11-15 18:57:13 1510790233.333347: $GPGGA,235712,3946.9581,N,08404.9552,W,1,09,0.80,316.17,M,-33.324,M,,*75
2017-11-15 18:57:13 1510790233.333521: $GPRMC,235712,A,3946.9581,N,08404.9552,W,0.2422,273.794,151117,,*39
2017-11-15 18:57:13 1510790233.333582: $GPGSA,A,3,10,14,3,32,31,26,22,25,29,,,,3.4,0.8,2.9*0A
2017-11-15 18:57:14 1510790234.329993: $GPZDA,235713.00,15,11,2017,00,00*67
2017-11-15 18:57:14 1510790234.330155: $GPGGA,235713,3946.9581,N,08404.9552,W,1,09,0.80,316.17,M,-33.324,M,,*74
2017-11-15 18:57:14 1510790234.330215: $GPRMC,235713,A,3946.9581,N,08404.9552,W,0.2422,273.794,151117,,*38
2017-11-15 18:57:14 1510790234.330271: $GPGSA,A,3,10,14,3,32,31,26,22,25,29,,,,3.4,0.8,2.9*0A
2017-11-15 18:57:15 1510790235.665485: $GPGSV,3,1,12,10,12,159,10,14,65,066,17,03,29,312,17,32,48,093,18*76
2017-11-15 18:57:15 1510790235.665665: $GPGSV,3,2,12,31,78,337,18,26,36,177,23,22,46,292,13,01,14,265,00*75
2017-11-15 18:57:15 1510790235.665738: $GPGSV,3,3,12,25,29,048,09,29,04,085,13,16,07,190,00,120,07,103,00*4D
2017-11-15 18:57:15 1510790235.779101: $GPZDA,235714.00,15,11,2017,00,00*60
2017-11-15 18:57:15 1510790235.779268: $GPGGA,235714,3946.9581,N,08404.9559,W,1,09,0.80,316.09,M,-33.324,M,,*77
2017-11-15 18:57:15 1510790235.779330: $GPRMC,235714,A,3946.9581,N,08404.9559,W,0.4844,273.794,151117,,*3E
2017-11-15 18:57:15 1510790235.779387: $GPGSA,A,3,10,14,3,32,31,26,22,25,29,,,,3.4,0.8,2.9*0A
