2017-12-01 12:07:49 1512148069.007472: {"class":"VERSION","release":"3.16","rev":"3.16-4","proto_major":3,"proto_minor":11}
2017-12-01 12:07:49 1512148069.007838: {"class":"DEVICES","devices":[{"class":"DEVICE","path":"/dev/ttyUSB0","driver":"SiRF","subtype":"9\u0006GSD4e_4.1.2-P1_RPATCH.05-F-GPS-4R-1510281 11/03/2015 307","activated":"2017-12-01T17:07:48.566Z","flags":1,"native":1,"bps":4800,"parity":"N","stopbits":1,"cycle":1.00}]}
2017-12-01 12:07:49 1512148069.007954: {"class":"WATCH","enable":true,"json":false,"nmea":true,"raw":0,"scaled":false,"timing":false,"split24":false,"pps":false}
2017-12-01 12:07:49 1512148069.748139: $GPGSV,3,1,12,10,20,279,37,13,33,046,44,15,66,054,44,18,51,295,47*76
2017-12-01 12:07:49 1512148069.748342: $GPGSV,3,2,12,20,55,066,45,21,76,288,44,24,29,142,44,27,14,316,41*73
2017-12-01 12:07:49 1512148069.748410: $GPGSV,3,3,12,05,07,084,21,29,14,192,29,04,04,135,00,138,38,213,46*4C
2017-12-01 12:07:49 1512148069.862349: $GPZDA,170750.00,01,12,2017,00,00*64
2017-12-01 12:07:49 1512148069.862520: $GPGGA,170750,3946.9575,N,08404.9860,W,2,11,0.80,298.81,M,-33.324,M,,*74
2017-12-01 12:07:49 1512148069.862588: $GPRMC,170750,A,3946.9575,N,08404.9860,W,0.0000,0.000,011217,,*36
2017-12-01 12:07:49 1512148069.862649: $GPGSA,A,3,10,13,15,18,20,21,24,27,5,29,138,,2.0,0.8,1.5*34
2017-12-01 12:07:50 1512148070.406129: $GPZDA,170751.00,01,12,2017,00,00*65
2017-12-01 12:07:50 1512148070.406305: $GPGGA,170751,3946.9575,N,08404.9860,W,2,11,0.80,298.81,M,-33.324,M,,*75
2017-12-01 12:07:50 1512148070.406375: $GPRMC,170751,A,3946.9575,N,08404.9860,W,0.0000,0.000,011217,,*37
2017-12-01 12:07:50 1512148070.406440: $GPGSA,A,3,10,13,15,18,20,21,24,27,5,29,138,,2.0,0.8,1.5*34
2017-12-01 12:07:51 1512148071.406998: $GPZDA,170752.00,01,12,2017,00,00*66
2017-12-01 12:07:51 1512148071.407162: $GPGGA,170752,3946.9575,N,08404.9860,W,2,11,0.80,298.81,M,-33.324,M,,*76
2017-12-01 12:07:51 1512148071.407230: $GPRMC,170752,A,3946.9575,N,08404.9860,W,0.0000,0.000,011217,,*34
2017-12-01 12:07:51 1512148071.407293: $GPGSA,A,3,10,13,15,18,20,21,24,27,5,29,138,,2.0,0.8,1.5*34
2017-12-01 12:07:52 1512148072.742748: $GPGSV,3,1,12,10,20,279,37,13,33,046,44,15,66,054,44,18,51,295,47*76
2017-12-01 12:07:52 1512148072.742932: $GPGSV,3,2,12,20,55,066,45,21,76,288,44,24,29,142,44,27,14,316,40*72
2017-12-01 12:07:52 1512148072.742999: $GPGSV,3,3,12,05,07,084,20,29,14,192,30,04,04,135,00,138,38,213,46*45
2017-12-01 12:07:52 1512148072.856054: $GPZDA,170753.00,01,12,2017,00,00*67
2017-12-01 12:07:52 1512148072.856192: $GPGGA,170753,3946.9575,N,08404.9860,W,2,11,0.80,298.81,M,-33.324,M,,*77
2017-12-01 12:07:52 1512148072.856257: $GPRMC,170753,A,3946.9575,N,08404.9860,W,0.0000,0.000,011217,,*35
2017-12-01 12:07:52 1512148072.856323: $GPGSA,A,3,10,13,15,18,20,21,24,27,5,29,138,,2.0,0.8,1.5*34
2017-12-01 12:07:53 1512148073.481507: $GPZDA,170754.00,01,12,2017,00,00*60
2017-12-01 12:07:53 1512148073.481687: $GPGGA,170754,3946.9575,N,08404.9860,W,2,11,0.80,298.81,M,-33.324,M,,*70
2017-12-01 12:07:53 1512148073.481756: $GPRMC,170754,A,3946.9575,N,08404.9860,W,0.0000,0.000,011217,,*32
2017-12-01 12:07:53 1512148073.481818: $GPGSA,A,3,10,13,15,18,20,21,24,27,5,29,138,,2.0,0.8,1.5*34
2017-12-01 12:07:54 1512148074.407609: $GPZDA,170755.00,01,12,2017,00,00*61
2017-12-01 12:07:54 1512148074.407784: $GPGGA,170755,3946.9575,N,08404.9860,W,2,11,0.80,298.81,M,-33.324,M,,*71
2017-12-01 12:07:54 1512148074.407852: $GPRMC,170755,A,3946.9575,N,08404.9860,W,0.0000,0.000,011217,,*33
2017-12-01 12:07:54 1512148074.407915: $GPGSA,A,3,10,13,15,18,20,21,24,27,5,29,138,,2.0,0.8,1.5*34
2017-12-01 12:07:55 1512148075.743595: $GPGSV,3,1,12,10,20,279,37,13,33,046,44,15,66,054,44,18,51,295,47*76
2017-12-01 12:07:55 1512148075.743951: $GPGSV,3,2,12,20,55,066,45,21,76,288,45,24,29,142,44,27,14,316,40*73
2017-12-01 12:07:55 1512148075.744350: $GPGSV,3,3,12,05,07,084,20,29,14,192,30,04,04,135,00,138,38,213,46*45
2017-12-01 12:07:55 1512148075.856676: $GPZDA,170756.00,01,12,2017,00,00*62
2017-12-01 12:07:55 1512148075.856852: $GPGGA,170756,3946.9575,N,08404.9860,W,2,11,0.80,298.81,M,-33.324,M,,*72
2017-12-01 12:07:55 1512148075.856973: $GPRMC,170756,A,3946.9575,N,08404.9860,W,0.0000,0.000,011217,,*30
2017-12-01 12:07:55 1512148075.857038: $GPGSA,A,3,10,13,15,18,20,21,24,27,5,29,138,,2.0,0.8,1.5*34
2017-12-01 12:07:56 1512148076.423727: $GPZDA,170757.00,01,12,2017,00,00*63
2017-12-01 12:07:56 1512148076.423897: $GPGGA,170757,3946.9575,N,08404.9860,W,2,11,0.80,298.81,M,-33.324,M,,*73
2017-12-01 12:07:56 1512148076.423963: $GPRMC,170757,A,3946.9575,N,08404.9860,W,0.0000,0.000,011217,,*31
2017-12-01 12:07:56 1512148076.424025: $GPGSA,A,3,10,13,15,18,20,21,24,27,5,29,138,,2.0,0.8,1.5*34
2017-12-01 12:07:57 1512148077.423528: $GPZDA,170758.00,01,12,2017,00,00*6C
2017-12-01 12:07:57 1512148077.423697: $GPGGA,170758,3946.9575,N,08404.9860,W,2,11,0.80,298.81,M,-33.324,M,,*7C
2017-12-01 12:07:57 1512148077.423763: $GPRMC,170758,A,3946.9575,N,08404.9860,W,0.0000,0.000,011217,,*3E
2017-12-01 12:07:57 1512148077.423825: $GPGSA,A,3,10,13,15,18,20,21,24,27,5,29,138,,2.0,0.8,1.5*34
2017-12-01 12:07:58 1512148078.742453: $GPGSV,3,1,12,10,20,279,37,13,33,046,44,15,66,054,44,18,51,295,47*76
2017-12-01 12:07:58 1512148078.742633: $GPGSV,3,2,12,20,55,066,45,21,76,288,44,24,29,142,44,27,14,316,39*7C
2017-12-01 12:07:58 1512148078.742699: $GPGSV,3,3,12,05,07,084,20,29,14,192,29,04,04,135,00,138,38,213,46*4D
2017-12-01 12:07:58 1512148078.855553: $GPZDA,170759.00,01,12,2017,00,00*6D
2017-12-01 12:07:58 1512148078.855730: $GPGGA,170759,3946.9575,N,08404.9860,W,2,11,0.80,298.81,M,-33.324,M,,*7D
2017-12-01 12:07:58 1512148078.855798: $GPRMC,170759,A,3946.9575,N,08404.9860,W,0.0000,0.000,011217,,*3F
2017-12-01 12:07:58 1512148078.855860: $GPGSA,A,3,10,13,15,18,20,21,24,27,5,29,138,,2.0,0.8,1.5*34
