2017-12-29 11:31:31 1514565091.367914: {"class":"VERSION","release":"3.16","rev":"3.16-4","proto_major":3,"proto_minor":11}
2017-12-29 11:31:31 1514565091.368258: {"class":"DEVICES","devices":[{"class":"DEVICE","path":"/dev/ttyUSB0","driver":"SiRF","subtype":"9\u0006GSD4e_4.1.2-P1_RPATCH.05-F-GPS-4R-1510281 11/03/2015 307","activated":"2017-12-29T16:31:31.264Z","flags":1,"native":1,"bps":4800,"parity":"N","stopbits":1,"cycle":1.00}]}
2017-12-29 11:31:31 1514565091.368371: {"class":"WATCH","enable":true,"json":false,"nmea":true,"raw":0,"scaled":false,"timing":false,"split24":false,"pps":false}
2017-12-29 11:31:31 1514565091.712989: $GPGSV,3,1,12,08,07,318,40,10,47,306,47,15,31,054,49,18,75,357,46*7F
2017-12-29 11:31:31 1514565091.713145: $GPGSV,3,2,12,20,30,100,52,21,56,186,47,24,53,099,51,27,18,283,30*72
2017-12-29 11:31:31 1514565091.713211: $GPGSV,3,3,12,32,27,243,38,14,08,235,27,13,02,051,00,138,38,213,46*4B
2017-12-29 11:31:31 1514565091.826467: $GPZDA,163132.00,29,12,2017,00,00*6E
2017-12-29 11:31:31 1514565091.826643: $GPGGA,163132,3946.9622,N,08404.9910,W,2,11,1.00,319.54,M,-33.324,M,,*7A
2017-12-29 11:31:31 1514565091.826708: $GPRMC,163132,A,3946.9622,N,08404.9910,W,0.0000,0.000,291217,,*3B
2017-12-29 11:31:31 1514565091.826769: $GPGSA,A,3,8,10,15,18,20,21,24,27,32,14,138,,1.7,1.0,1.3*3F
2017-12-29 11:31:32 1514565092.379826: $GPZDA,163133.02,29,12,2017,00,00*6D
2017-12-29 11:31:32 1514565092.379992: $GPGGA,163133,3946.9622,N,08404.9910,W,2,11,1.20,319.54,M,-33.324,M,,*79
2017-12-29 11:31:32 1514565092.380057: $GPRMC,163133,A,3946.9622,N,08404.9910,W,0.0000,0.000,291217,,*3A
2017-12-29 11:31:32 1514565092.380117: $GPGSA,A,3,8,10,15,18,20,21,24,27,32,14,138,,1.7,1.2,1.3*3D
2017-12-29 11:31:33 1514565093.373095: $GPZDA,163134.02,29,12,2017,00,00*6A
2017-12-29 11:31:33 1514565093.377680: $GPGGA,163134,3946.9622,N,08404.9910,W,2,11,1.20,319.54,M,-33.324,M,,*7E
2017-12-29 11:31:33 1514565093.377787: $GPRMC,163134,A,3946.9622,N,08404.9910,W,0.0000,0.000,291217,,*3D
2017-12-29 11:31:33 1514565093.377867: $GPGSA,A,3,8,10,15,18,20,21,24,27,32,14,138,,1.7,1.2,1.3*3D
2017-12-29 11:31:34 1514565094.718796: $GPGSV,3,1,12,08,07,318,39,10,47,306,47,15,31,054,48,18,75,357,45*73
2017-12-29 11:31:34 1514565094.718969: $GPGSV,3,2,12,20,30,100,50,21,56,186,47,24,53,099,51,27,18,283,31*71
2017-12-29 11:31:34 1514565094.719034: $GPGSV,3,3,12,32,27,243,37,14,08,235,05,13,02,051,00,138,38,213,45*47
2017-12-29 11:31:34 1514565094.832609: $GPZDA,163135.02,29,12,2017,00,00*6B
2017-12-29 11:31:34 1514565094.832909: $GPGGA,163135,3946.9621,N,08404.9909,W,2,10,1.20,318.13,M,-33.324,M,,*77
2017-12-29 11:31:34 1514565094.833031: $GPRMC,163135,A,3946.9621,N,08404.9909,W,0.3423,184.196,291217,,*32
2017-12-29 11:31:34 1514565094.833157: $GPGSA,A,3,8,10,15,18,20,21,24,27,32,138,,,1.7,1.2,1.3*38
2017-12-29 11:31:35 1514565095.375616: $GPZDA,163136.00,29,12,2017,00,00*6A
2017-12-29 11:31:35 1514565095.375786: $GPGGA,163136,3946.9617,N,08404.9909,W,2,10,1.20,317.49,M,-33.324,M,,*71
2017-12-29 11:31:35 1514565095.375851: $GPRMC,163136,A,3946.9617,N,08404.9909,W,0.1867,180.000,291217,,*30
2017-12-29 11:31:35 1514565095.375912: $GPGSA,A,3,8,10,15,18,20,21,24,27,32,138,,,1.7,1.2,1.3*38
2017-12-29 11:31:36 1514565096.379710: $GPZDA,163137.00,29,12,2017,00,00*6B
2017-12-29 11:31:36 1514565096.379889: $GPGGA,163137,3946.9617,N,08404.9909,W,2,10,1.20,317.49,M,-33.324,M,,*70
2017-12-29 11:31:36 1514565096.379958: $GPRMC,163137,A,3946.9617,N,08404.9909,W,0.0000,0.000,291217,,*30
2017-12-29 11:31:36 1514565096.380022: $GPGSA,A,3,8,10,15,18,20,21,24,27,32,138,,,1.7,1.2,1.3*38
2017-12-29 11:31:37 1514565097.715342: $GPGSV,3,1,12,08,07,318,38,10,47,306,47,15,31,054,48,18,75,357,44*73
2017-12-29 11:31:37 1514565097.715540: $GPGSV,3,2,12,20,30,100,51,21,56,186,47,24,53,099,50,27,18,283,32*72
2017-12-29 11:31:37 1514565097.715609: $GPGSV,3,3,12,32,27,243,38,13,02,051,14,14,08,235,23,138,38,213,46*4A
2017-12-29 11:31:37 1514565097.829175: $GPZDA,163138.00,29,12,2017,00,00*64
2017-12-29 11:31:37 1514565097.829365: $GPGGA,163138,3946.9613,N,08404.9909,W,2,11,1.00,316.85,M,-33.324,M,,*79
2017-12-29 11:31:37 1514565097.829504: $GPRMC,163138,A,3946.9613,N,08404.9909,W,0.0000,0.000,291217,,*3B
2017-12-29 11:31:37 1514565097.829566: $GPGSA,A,3,8,10,15,18,20,21,24,27,32,14,138,,1.7,1.0,1.3*3F
2017-12-29 11:31:38 1514565098.380029: $GPZDA,163139.00,29,12,2017,00,00*65
2017-12-29 11:31:38 1514565098.380204: $GPGGA,163139,3946.9613,N,08404.9909,W,2,11,1.20,316.85,M,-33.324,M,,*7A
2017-12-29 11:31:38 1514565098.380292: $GPRMC,163139,A,3946.9613,N,08404.9909,W,0.0000,0.000,291217,,*3A
2017-12-29 11:31:38 1514565098.380354: $GPGSA,A,3,8,10,15,18,20,21,24,27,32,14,138,,1.7,1.2,1.3*3D
2017-12-29 11:31:39 1514565099.378218: $GPZDA,163140.00,29,12,2017,00,00*6B
2017-12-29 11:31:39 1514565099.378404: $GPGGA,163140,3946.9606,N,08404.9893,W,2,11,1.20,312.16,M,-33.324,M,,*7C
2017-12-29 11:31:39 1514565099.378471: $GPRMC,163140,A,3946.9606,N,08404.9893,W,0.2422,93.794,291217,,*04
2017-12-29 11:31:39 1514565099.378532: $GPGSA,A,3,8,10,15,18,20,21,24,27,32,14,138,,1.7,1.2,1.3*3D
2017-12-29 11:31:40 1514565100.717383: $GPGSV,3,1,12,08,07,318,38,10,47,306,47,15,31,054,48,18,75,357,44*73
2017-12-29 11:31:40 1514565100.717562: $GPGSV,3,2,12,20,30,100,51,21,56,186,47,24,53,099,50,27,18,283,33*73
2017-12-29 11:31:40 1514565100.717628: $GPGSV,3,3,12,32,27,243,38,13,02,051,15,14,08,235,05,138,38,213,45*4C
2017-12-29 11:31:40 1514565100.831023: $GPZDA,163141.00,29,12,2017,00,00*6A
2017-12-29 11:31:40 1514565100.831365: $GPGGA,163141,3946.9606,N,08404.9893,W,2,10,1.20,312.16,M,-33.324,M,,*7C
2017-12-29 11:31:40 1514565100.831490: $GPRMC,163141,A,3946.9606,N,08404.9893,W,0.0000,0.000,291217,,*33
2017-12-29 11:31:40 1514565100.831609: $GPGSA,A,3,8,10,15,18,20,21,24,27,32,138,,,1.7,1.2,1.3*38
2017-12-29 11:31:41 1514565101.456371: $GPZDA,163142.00,29,12,2017,00,00*69
2017-12-29 11:31:41 1514565101.456538: $GPGGA,163142,3946.9606,N,08404.9893,W,2,10,1.20,312.16,M,-33.324,M,,*7F
2017-12-29 11:31:41 1514565101.456605: $GPRMC,163142,A,3946.9606,N,08404.9893,W,0.0000,0.000,291217,,*30
2017-12-29 11:31:41 1514565101.456790: $GPGSA,A,3,8,10,15,18,20,21,24,27,32,138,,,1.7,1.2,1.3*38
2017-12-29 11:31:42 1514565102.377425: $GPZDA,163143.00,29,12,2017,00,00*68
2017-12-29 11:31:42 1514565102.377604: $GPGGA,163143,3946.9606,N,08404.9893,W,2,10,1.20,312.16,M,-33.324,M,,*7E
2017-12-29 11:31:42 1514565102.377669: $GPRMC,163143,A,3946.9606,N,08404.9893,W,0.0000,0.000,291217,,*31
2017-12-29 11:31:42 1514565102.377729: $GPGSA,A,3,8,10,15,18,20,21,24,27,32,138,,,1.7,1.2,1.3*38
2017-12-29 11:31:43 1514565103.713944: $GPGSV,3,1,12,08,07,318,37,10,47,306,47,15,31,054,48,18,75,357,44*7C
2017-12-29 11:31:43 1514565103.717808: $GPGSV,3,2,12,20,30,100,51,21,56,186,46,24,53,099,50,27,18,283,33*72
2017-12-29 11:31:43 1514565103.717910: $GPGSV,3,3,12,32,27,243,38,13,02,051,15,14,08,235,00,138,38,213,45*49
2017-12-29 11:31:43 1514565103.827337: $GPZDA,163144.00,29,12,2017,00,00*6F
2017-12-29 11:31:43 1514565103.827529: $GPGGA,163144,3946.9606,N,08404.9893,W,2,11,1.20,312.16,M,-33.324,M,,*78
2017-12-29 11:31:43 1514565103.827596: $GPRMC,163144,A,3946.9606,N,08404.9893,W,0.0000,0.000,291217,,*36
2017-12-29 11:31:43 1514565103.827657: $GPGSA,A,3,8,10,15,18,20,21,24,27,32,13,138,,1.7,1.2,1.3*3A
2017-12-29 11:31:44 1514565104.383166: $GPZDA,163145.00,29,12,2017,00,00*6E
2017-12-29 11:31:44 1514565104.383365: $GPGGA,163145,3946.9606,N,08404.9893,W,2,11,1.20,312.16,M,-33.324,M,,*79
2017-12-29 11:31:44 1514565104.383435: $GPRMC,163145,A,3946.9606,N,08404.9893,W,0.0000,0.000,291217,,*37
2017-12-29 11:31:44 1514565104.383497: $GPGSA,A,3,8,10,15,18,20,21,24,27,32,13,138,,1.7,1.2,1.3*3A
2017-12-29 11:31:45 1514565105.386552: $GPZDA,163146.00,29,12,2017,00,00*6D
2017-12-29 11:31:45 1514565105.386724: $GPGGA,163146,3946.9606,N,08404.9893,W,2,11,1.20,312.16,M,-33.324,M,,*7A
2017-12-29 11:31:45 1514565105.386791: $GPRMC,163146,A,3946.9606,N,08404.9893,W,0.0000,0.000,291217,,*34
2017-12-29 11:31:45 1514565105.386851: $GPGSA,A,3,8,10,15,18,20,21,24,27,32,13,138,,1.7,1.2,1.3*3A
