2017-11-16 16:48:22 1510868902.883730: {"class":"VERSION","release":"3.17","rev":"3.17","proto_major":3,"proto_minor":12}
2017-11-16 16:48:22 1510868902.884238: {"class":"DEVICES","devices":[{"class":"DEVICE","path":"/dev/ttyUSB0","driver":"SiRF","subtype":"9\u0006GSD4e_4.1.2-P1_RPATCH.05-F-GPS-4R-1510281 11/03/2015 307","activated":"2017-11-16T21:48:22.587Z","flags":1,"native":1,"bps":4800,"parity":"N","stopbits":1,"cycle":1.00}]}
2017-11-16 16:48:22 1510868902.884382: {"class":"WATCH","enable":true,"json":false,"nmea":true,"raw":0,"scaled":false,"timing":false,"split24":false,"pps":false}
2017-11-16 16:48:23 1510868903.798677: $GPGSV,3,1,12,01,14,318,42,10,70,132,50,11,11,301,33,12,25,072,46*72
2017-11-16 16:48:23 1510868903.798848: $GPGSV,3,2,12,14,55,292,44,18,38,135,44,24,14,045,43,25,29,114,44*7F
2017-11-16 16:48:23 1510868903.798908: $GPGSV,3,3,12,31,34,211,46,32,68,328,51,22,02,310,36,138,38,213,45*48
2017-11-16 16:48:23 1510868903.911999: $GPZDA,214822.00,16,11,2017,00,00*6A
2017-11-16 16:48:23 1510868903.912154: $GPGGA,214822,3946.9577,N,08404.9823,W,2,12,0.80,307.71,M,-33.324,M,,*71
2017-11-16 16:48:23 1510868903.912214: $GPRMC,214822,A,3946.9577,N,08404.9823,W,0.0000,0.000,161117,,*3D
2017-11-16 16:48:23 1510868903.912270: $GPGSA,A,3,1,10,11,12,14,18,24,25,31,32,22,138,1.6,0.8,1.3*38
2017-11-16 16:48:24 1510868904.464126: $GPZDA,214823.00,16,11,2017,00,00*6B
2017-11-16 16:48:24 1510868904.464283: $GPGGA,214823,3946.9577,N,08404.9823,W,2,12,0.80,307.71,M,-33.324,M,,*70
2017-11-16 16:48:24 1510868904.464343: $GPRMC,214823,A,3946.9577,N,08404.9823,W,0.0000,0.000,161117,,*3C
2017-11-16 16:48:24 1510868904.464399: $GPGSA,A,3,1,10,11,12,14,18,24,25,31,32,22,138,1.6,0.8,1.3*38
2017-11-16 16:48:25 1510868905.462534: $GPZDA,214824.00,16,11,2017,00,00*6C
2017-11-16 16:48:25 1510868905.462714: $GPGGA,214824,3946.9577,N,08404.9823,W,2,12,0.80,307.71,M,-33.324,M,,*77
2017-11-16 16:48:25 1510868905.462775: $GPRMC,214824,A,3946.9577,N,08404.9823,W,0.0000,0.000,161117,,*3B
2017-11-16 16:48:25 1510868905.462831: $GPGSA,A,3,1,10,11,12,14,18,24,25,31,32,22,138,1.6,0.8,1.3*38
2017-11-16 16:48:26 1510868906.792859: $GPGSV,3,1,12,01,14,318,41,10,70,132,50,11,11,301,33,12,25,072,46*71
2017-11-16 16:48:26 1510868906.793024: $GPGSV,3,2,12,14,55,292,45,18,38,135,44,24,14,045,43,25,29,114,44*7E
2017-11-16 16:48:26 1510868906.793084: $GPGSV,3,3,12,31,34,211,46,32,68,328,51,22,02,310,30,138,38,213,45*4E
2017-11-16 16:48:26 1510868906.906217: $GPZDA,214825.00,16,11,2017,00,00*6D
2017-11-16 16:48:26 1510868906.906393: $GPGGA,214825,3946.9577,N,08404.9823,W,2,12,0.80,307.71,M,-33.324,M,,*76
2017-11-16 16:48:26 1510868906.906454: $GPRMC,214825,A,3946.9577,N,08404.9823,W,0.0000,0.000,161117,,*3A
2017-11-16 16:48:26 1510868906.906529: $GPGSA,A,3,1,10,11,12,14,18,24,25,31,32,22,138,1.6,0.8,1.3*38
2017-11-16 16:48:27 1510868907.447049: $GPZDA,214826.00,16,11,2017,00,00*6E
2017-11-16 16:48:27 1510868907.447214: $GPGGA,214826,3946.9577,N,08404.9823,W,2,12,0.80,307.71,M,-33.324,M,,*75
2017-11-16 16:48:27 1510868907.447275: $GPRMC,214826,A,3946.9577,N,08404.9823,W,0.0000,0.000,161117,,*39
2017-11-16 16:48:27 1510868907.447330: $GPGSA,A,3,1,10,11,12,14,18,24,25,31,32,22,138,1.6,0.8,1.3*38
2017-11-16 16:48:28 1510868908.441694: $GPZDA,214827.00,16,11,2017,00,00*6F
2017-11-16 16:48:28 1510868908.441852: $GPGGA,214827,3946.9577,N,08404.9823,W,2,12,0.80,307.71,M,-33.324,M,,*74
2017-11-16 16:48:28 1510868908.441913: $GPRMC,214827,A,3946.9577,N,08404.9823,W,0.0000,0.000,161117,,*38
2017-11-16 16:48:28 1510868908.441969: $GPGSA,A,3,1,10,11,12,14,18,24,25,31,32,22,138,1.6,0.8,1.3*38
2017-11-16 16:48:29 1510868909.798774: $GPGSV,3,1,12,01,14,318,40,10,70,132,49,11,11,301,32,12,25,072,46*79
2017-11-16 16:48:29 1510868909.798936: $GPGSV,3,2,12,14,55,292,45,18,38,135,44,24,14,045,43,25,29,114,44*7E
2017-11-16 16:48:29 1510868909.798997: $GPGSV,3,3,12,31,34,211,46,32,68,328,51,22,02,310,32,138,38,213,44*4D
2017-11-16 16:48:29 1510868909.912073: $GPZDA,214828.00,16,11,2017,00,00*60
2017-11-16 16:48:29 1510868909.912228: $GPGGA,214828,3946.9577,N,08404.9823,W,2,12,0.80,307.71,M,-33.324,M,,*7B
2017-11-16 16:48:29 1510868909.912341: $GPRMC,214828,A,3946.9577,N,08404.9823,W,0.0000,0.000,161117,,*37
2017-11-16 16:48:29 1510868909.912399: $GPGSA,A,3,1,10,11,12,14,18,24,25,31,32,22,138,1.6,0.8,1.3*38
2017-11-16 16:48:30 1510868910.447963: $GPZDA,214829.00,16,11,2017,00,00*61
2017-11-16 16:48:30 1510868910.448119: $GPGGA,214829,3946.9577,N,08404.9823,W,2,12,0.80,307.71,M,-33.324,M,,*7A
2017-11-16 16:48:30 1510868910.448179: $GPRMC,214829,A,3946.9577,N,08404.9823,W,0.0000,0.000,161117,,*36
2017-11-16 16:48:30 1510868910.448234: $GPGSA,A,3,1,10,11,12,14,18,24,25,31,32,22,138,1.6,0.8,1.3*38
2017-11-16 16:48:31 1510868911.447488: $GPZDA,214830.00,16,11,2017,00,00*69
2017-11-16 16:48:31 1510868911.447708: $GPGGA,214830,3946.9577,N,08404.9823,W,2,12,0.80,307.71,M,-33.324,M,,*72
2017-11-16 16:48:31 1510868911.447775: $GPRMC,214830,A,3946.9577,N,08404.9823,W,0.0000,0.000,161117,,*3E
2017-11-16 16:48:31 1510868911.447833: $GPGSA,A,3,1,10,11,12,14,18,24,25,31,32,22,138,1.6,0.8,1.3*38
2017-11-16 16:48:32 1510868912.782915: $GPGSV,3,1,12,01,14,318,38,10,70,132,50,11,11,301,27,12,25,072,46*7A
2017-11-16 16:48:32 1510868912.783086: $GPGSV,3,2,12,14,55,292,44,18,38,135,44,24,14,045,43,25,29,114,44*7F
2017-11-16 16:48:32 1510868912.783146: $GPGSV,3,3,12,31,34,211,46,32,68,328,50,22,02,310,37,138,38,213,44*49
2017-11-16 16:48:32 1510868912.897995: $GPZDA,214831.00,16,11,2017,00,00*68
2017-11-16 16:48:32 1510868912.898303: $GPGGA,214831,3946.9577,N,08404.9823,W,2,12,0.80,307.71,M,-33.324,M,,*73
2017-11-16 16:48:32 1510868912.898434: $GPRMC,214831,A,3946.9577,N,08404.9823,W,0.0000,0.000,161117,,*3F
2017-11-16 16:48:32 1510868912.898533: $GPGSA,A,3,1,10,11,12,14,18,24,25,31,32,22,138,1.6,0.8,1.3*38
