2017-11-16 15:18:37 1510863517.415786: {"class":"VERSION","release":"3.17","rev":"3.17","proto_major":3,"proto_minor":12}
2017-11-16 15:18:37 1510863517.416288: {"class":"DEVICES","devices":[{"class":"DEVICE","path":"/dev/ttyUSB0","driver":"SiRF","subtype":"9\u0006GSD4e_4.1.2-P1_RPATCH.05-F-GPS-4R-1510281 11/03/2015 307","activated":"2017-11-16T20:18:37.266Z","flags":1,"native":1,"bps":4800,"parity":"N","stopbits":1,"cycle":1.00}]}
2017-11-16 15:18:37 1510863517.416407: {"class":"WATCH","enable":true,"json":false,"nmea":true,"raw":0,"scaled":false,"timing":false,"split24":false,"pps":false}
2017-11-16 15:18:37 1510863517.716255: $GPGSV,3,1,12,08,07,297,36,10,66,325,51,14,26,250,46,15,14,064,28*72
2017-11-16 15:18:37 1510863517.716423: $GPGSV,3,2,12,18,73,084,47,20,11,115,29,21,33,180,44,24,47,063,49*72
2017-11-16 15:18:37 1510863517.716483: $GPGSV,3,3,12,27,08,262,40,32,43,261,47,12,07,109,26,138,38,213,44*4C
2017-11-16 15:18:37 1510863517.829486: $GPZDA,201836.00,16,11,2017,00,00*6B
2017-11-16 15:18:37 1510863517.829662: $GPGGA,201836,3946.9573,N,08404.9850,W,2,12,0.80,305.35,M,-33.324,M,,*72
2017-11-16 15:18:37 1510863517.829725: $GPRMC,201836,A,3946.9573,N,08404.9850,W,0.0000,0.000,161117,,*3C
2017-11-16 15:18:37 1510863517.829787: $GPGSA,A,3,8,10,14,15,18,20,21,24,27,32,12,138,1.6,0.8,1.3*34
2017-11-16 15:18:38 1510863518.384354: $GPZDA,201837.00,16,11,2017,00,00*6A
2017-11-16 15:18:38 1510863518.384531: $GPGGA,201837,3946.9573,N,08404.9850,W,2,12,0.80,305.35,M,-33.324,M,,*73
2017-11-16 15:18:38 1510863518.384593: $GPRMC,201837,A,3946.9573,N,08404.9850,W,0.0000,0.000,161117,,*3D
2017-11-16 15:18:38 1510863518.384652: $GPGSA,A,3,8,10,14,15,18,20,21,24,27,32,12,138,1.6,0.8,1.3*34
2017-11-16 15:18:39 1510863519.391672: $GPZDA,201838.00,16,11,2017,00,00*65
2017-11-16 15:18:39 1510863519.391841: $GPGGA,201838,3946.9573,N,08404.9850,W,2,12,0.80,305.35,M,-33.324,M,,*7C
2017-11-16 15:18:39 1510863519.391923: $GPRMC,201838,A,3946.9573,N,08404.9850,W,0.0000,0.000,161117,,*32
2017-11-16 15:18:39 1510863519.391983: $GPGSA,A,3,8,10,14,15,18,20,21,24,27,32,12,138,1.6,0.8,1.3*34
2017-11-16 15:18:40 1510863520.713150: $GPGSV,3,1,12,08,07,297,31,10,66,325,51,14,26,250,46,15,14,064,29*74
2017-11-16 15:18:40 1510863520.713320: $GPGSV,3,2,12,18,73,084,47,20,11,115,29,21,33,180,45,24,47,063,49*73
2017-11-16 15:18:40 1510863520.713398: $GPGSV,3,3,12,27,08,262,40,32,43,261,47,12,07,109,27,138,38,213,45*4C
2017-11-16 15:18:40 1510863520.825179: $GPZDA,201839.00,16,11,2017,00,00*64
2017-11-16 15:18:40 1510863520.825342: $GPGGA,201839,3946.9573,N,08404.9850,W,2,12,0.80,305.35,M,-33.324,M,,*7D
2017-11-16 15:18:40 1510863520.825404: $GPRMC,201839,A,3946.9573,N,08404.9850,W,0.0000,0.000,161117,,*33
2017-11-16 15:18:40 1510863520.825477: $GPGSA,A,3,8,10,14,15,18,20,21,24,27,32,12,138,1.6,0.8,1.3*34
2017-11-16 15:18:41 1510863521.452010: $GPZDA,201840.00,16,11,2017,00,00*6A
2017-11-16 15:18:41 1510863521.452200: $GPGGA,201840,3946.9573,N,08404.9850,W,2,12,0.80,305.35,M,-33.324,M,,*73
2017-11-16 15:18:41 1510863521.452267: $GPRMC,201840,A,3946.9573,N,08404.9850,W,0.0000,0.000,161117,,*3D
2017-11-16 15:18:41 1510863521.452326: $GPGSA,A,3,8,10,14,15,18,20,21,24,27,32,12,138,1.6,0.8,1.3*34
2017-11-16 15:18:42 1510863522.391619: $GPZDA,201841.00,16,11,2017,00,00*6B
2017-11-16 15:18:42 1510863522.391799: $GPGGA,201841,3946.9573,N,08404.9850,W,2,12,1.00,305.35,M,-33.324,M,,*7B
2017-11-16 15:18:42 1510863522.391879: $GPRMC,201841,A,3946.9573,N,08404.9850,W,0.0000,0.000,161117,,*3C
2017-11-16 15:18:42 1510863522.391937: $GPGSA,A,3,8,10,14,15,18,20,21,24,27,32,12,138,1.6,1.0,1.3*3D
2017-11-16 15:18:43 1510863523.728446: $GPGSV,3,1,12,08,07,297,00,10,66,325,51,14,26,250,46,15,14,064,28*77
2017-11-16 15:18:43 1510863523.728621: $GPGSV,3,2,12,18,73,084,47,20,11,115,29,21,33,180,44,24,47,063,49*72
2017-11-16 15:18:43 1510863523.728684: $GPGSV,3,3,12,27,08,262,39,32,43,261,47,12,07,109,27,138,38,213,44*43
2017-11-16 15:18:43 1510863523.841760: $GPZDA,201842.00,16,11,2017,00,00*68
2017-11-16 15:18:43 1510863523.841933: $GPGGA,201842,3946.9573,N,08404.9850,W,2,11,1.00,305.35,M,-33.324,M,,*7B
2017-11-16 15:18:43 1510863523.842052: $GPRMC,201842,A,3946.9573,N,08404.9850,W,0.0000,0.000,161117,,*3F
2017-11-16 15:18:43 1510863523.842111: $GPGSA,A,3,10,14,15,18,20,21,24,27,32,12,138,,1.6,1.0,1.3*05
2017-11-16 15:18:44 1510863524.387525: $GPZDA,201843.00,16,11,2017,00,00*69
2017-11-16 15:18:44 1510863524.387698: $GPGGA,201843,3946.9573,N,08404.9850,W,2,11,0.80,305.35,M,-33.324,M,,*73
2017-11-16 15:18:44 1510863524.387758: $GPRMC,201843,A,3946.9573,N,08404.9850,W,0.0000,0.000,161117,,*3E
2017-11-16 15:18:44 1510863524.387815: $GPGSA,A,3,10,14,15,18,20,21,24,27,32,12,138,,1.6,0.8,1.3*0C
2017-11-16 15:18:45 1510863525.379181: $GPZDA,201844.00,16,11,2017,00,00*6E
2017-11-16 15:18:45 1510863525.379369: $GPGGA,201844,3946.9573,N,08404.9850,W,2,11,0.80,305.35,M,-33.324,M,,*74
2017-11-16 15:18:45 1510863525.379452: $GPRMC,201844,A,3946.9573,N,08404.9850,W,0.0000,0.000,161117,,*39
2017-11-16 15:18:45 1510863525.379545: $GPGSA,A,3,10,14,15,18,20,21,24,27,32,12,138,,1.6,0.8,1.3*0C
2017-11-16 15:18:46 1510863526.711282: $GPGSV,3,1,12,08,07,297,18,10,66,325,51,14,26,250,46,15,14,064,29*7F
2017-11-16 15:18:46 1510863526.711474: $GPGSV,3,2,12,18,73,084,47,20,11,115,29,21,33,180,44,24,47,063,49*72
2017-11-16 15:18:46 1510863526.711536: $GPGSV,3,3,12,27,08,262,39,32,43,261,47,12,07,109,27,138,38,213,44*43
2017-11-16 15:18:46 1510863526.824621: $GPZDA,201845.00,16,11,2017,00,00*6F
2017-11-16 15:18:46 1510863526.824800: $GPGGA,201845,3946.9573,N,08404.9850,W,2,12,0.80,305.35,M,-33.324,M,,*76
2017-11-16 15:18:46 1510863526.824865: $GPRMC,201845,A,3946.9573,N,08404.9850,W,0.0000,0.000,161117,,*38
2017-11-16 15:18:46 1510863526.824922: $GPGSA,A,3,8,10,14,15,18,20,21,24,27,32,12,138,1.6,0.8,1.3*34
2017-11-16 15:18:47 1510863527.391628: $GPZDA,201846.00,16,11,2017,00,00*6C
2017-11-16 15:18:47 1510863527.391818: $GPGGA,201846,3946.9573,N,08404.9850,W,2,12,0.80,305.35,M,-33.324,M,,*75
2017-11-16 15:18:47 1510863527.391909: $GPRMC,201846,A,3946.9573,N,08404.9850,W,0.0000,0.000,161117,,*3B
2017-11-16 15:18:47 1510863527.391973: $GPGSA,A,3,8,10,14,15,18,20,21,24,27,32,12,138,1.6,0.8,1.3*34
