2017-12-29 14:43:23 1514576603.990842: {"class":"VERSION","release":"3.16","rev":"3.16-4","proto_major":3,"proto_minor":11}
2017-12-29 14:43:23 1514576603.991255: {"class":"DEVICES","devices":[{"class":"DEVICE","path":"/dev/ttyUSB0","driver":"SiRF","subtype":"9\u0006GSD4e_4.1.2-P1_RPATCH.05-F-GPS-4R-1510281 11/03/2015 307","activated":"2017-12-29T19:43:23.530Z","flags":1,"native":1,"bps":4800,"parity":"N","stopbits":1,"cycle":1.00}]}
2017-12-29 14:43:23 1514576603.991376: {"class":"WATCH","enable":true,"json":false,"nmea":true,"raw":0,"scaled":false,"timing":false,"split24":false,"pps":false}
2017-12-29 14:43:24 1514576604.390709: $GPZDA,194325.00,29,12,2017,00,00*62
2017-12-29 14:43:24 1514576604.390883: $GPGGA,194325,3946.9596,N,08404.9824,W,2,12,0.80,300.23,M,-33.324,M,,*7E
2017-12-29 14:43:24 1514576604.390949: $GPRMC,194325,A,3946.9596,N,08404.9824,W,0.0000,0.000,291217,,*3D
2017-12-29 14:43:24 1514576604.391011: $GPGSA,A,3,1,10,11,12,14,18,22,25,31,32,26,138,1.7,0.8,1.3*3B
2017-12-29 14:43:25 1514576605.723818: $GPGSV,3,1,12,01,22,297,35,10,44,150,51,11,07,280,37,12,21,046,46*7B
2017-12-29 14:43:25 1514576605.723978: $GPGSV,3,2,12,14,67,333,44,18,14,145,44,22,22,312,41,25,40,087,51*7D
2017-12-29 14:43:25 1514576605.724043: $GPGSV,3,3,12,31,61,228,48,32,67,039,50,26,06,181,28,138,38,213,43*42
2017-12-29 14:43:25 1514576605.837181: $GPZDA,194326.00,29,12,2017,00,00*61
2017-12-29 14:43:25 1514576605.837310: $GPGGA,194326,3946.9596,N,08404.9824,W,2,12,0.80,300.23,M,-33.324,M,,*7D
2017-12-29 14:43:25 1514576605.837376: $GPRMC,194326,A,3946.9596,N,08404.9824,W,0.0000,0.000,291217,,*3E
2017-12-29 14:43:25 1514576605.837436: $GPGSA,A,3,1,10,11,12,14,18,22,25,31,32,26,138,1.7,0.8,1.3*3B
2017-12-29 14:43:26 1514576606.462642: $GPZDA,194327.00,29,12,2017,00,00*60
2017-12-29 14:43:26 1514576606.462806: $GPGGA,194327,3946.9596,N,08404.9824,W,2,12,0.80,300.23,M,-33.324,M,,*7C
2017-12-29 14:43:26 1514576606.462873: $GPRMC,194327,A,3946.9596,N,08404.9824,W,0.0000,0.000,291217,,*3F
2017-12-29 14:43:26 1514576606.462934: $GPGSA,A,3,1,10,11,12,14,18,22,25,31,32,26,138,1.7,0.8,1.3*3B
2017-12-29 14:43:27 1514576607.389776: $GPZDA,194328.00,29,12,2017,00,00*6F
2017-12-29 14:43:27 1514576607.389939: $GPGGA,194328,3946.9596,N,08404.9824,W,2,12,0.80,300.23,M,-33.324,M,,*73
2017-12-29 14:43:27 1514576607.390005: $GPRMC,194328,A,3946.9596,N,08404.9824,W,0.0000,0.000,291217,,*30
2017-12-29 14:43:27 1514576607.390066: $GPGSA,A,3,1,10,11,12,14,18,22,25,31,32,26,138,1.7,0.8,1.3*3B
2017-12-29 14:43:28 1514576608.725421: $GPGSV,3,1,12,01,22,297,35,10,44,150,51,11,07,280,37,12,21,046,46*7B
2017-12-29 14:43:28 1514576608.725596: $GPGSV,3,2,12,14,67,333,44,18,14,145,44,22,22,312,41,25,40,087,51*7D
2017-12-29 14:43:28 1514576608.725663: $GPGSV,3,3,12,31,61,228,48,32,67,039,50,26,06,181,27,138,38,213,43*4D
2017-12-29 14:43:28 1514576608.839051: $GPZDA,194329.00,29,12,2017,00,00*6E
2017-12-29 14:43:28 1514576608.839194: $GPGGA,194329,3946.9596,N,08404.9824,W,2,12,0.80,300.23,M,-33.324,M,,*72
2017-12-29 14:43:28 1514576608.839259: $GPRMC,194329,A,3946.9596,N,08404.9824,W,0.0000,0.000,291217,,*31
2017-12-29 14:43:28 1514576608.839320: $GPGSA,A,3,1,10,11,12,14,18,22,25,31,32,26,138,1.7,0.8,1.3*3B
2017-12-29 14:43:29 1514576609.387449: $GPZDA,194330.00,29,12,2017,00,00*66
2017-12-29 14:43:29 1514576609.387614: $GPGGA,194330,3946.9596,N,08404.9824,W,2,12,0.80,300.23,M,-33.324,M,,*7A
2017-12-29 14:43:29 1514576609.387681: $GPRMC,194330,A,3946.9596,N,08404.9824,W,0.0000,0.000,291217,,*39
2017-12-29 14:43:29 1514576609.387741: $GPGSA,A,3,1,10,11,12,14,18,22,25,31,32,26,138,1.7,0.8,1.3*3B
2017-12-29 14:43:30 1514576610.383319: $GPZDA,194331.00,29,12,2017,00,00*67
2017-12-29 14:43:30 1514576610.383481: $GPGGA,194331,3946.9596,N,08404.9824,W,2,12,0.80,300.23,M,-33.324,M,,*7B
2017-12-29 14:43:30 1514576610.383549: $GPRMC,194331,A,3946.9596,N,08404.9824,W,0.0000,0.000,291217,,*38
2017-12-29 14:43:30 1514576610.383610: $GPGSA,A,3,1,10,11,12,14,18,22,25,31,32,26,138,1.7,0.8,1.3*3B
2017-12-29 14:43:31 1514576611.724519: $GPGSV,3,1,12,01,22,297,36,10,44,150,51,11,07,280,37,12,21,046,46*78
2017-12-29 14:43:31 1514576611.724743: $GPGSV,3,2,12,14,67,333,44,18,14,145,44,22,22,312,41,25,40,087,51*7D
2017-12-29 14:43:31 1514576611.724815: $GPGSV,3,3,12,31,61,228,48,32,67,039,50,26,06,181,27,138,38,213,42*4C
2017-12-29 14:43:31 1514576611.838139: $GPZDA,194332.00,29,12,2017,00,00*64
2017-12-29 14:43:31 1514576611.838270: $GPGGA,194332,3946.9596,N,08404.9824,W,2,12,0.80,300.23,M,-33.324,M,,*78
2017-12-29 14:43:31 1514576611.838335: $GPRMC,194332,A,3946.9596,N,08404.9824,W,0.0000,0.000,291217,,*3B
2017-12-29 14:43:31 1514576611.838397: $GPGSA,A,3,1,10,11,12,14,18,22,25,31,32,26,138,1.7,0.8,1.3*3B
2017-12-29 14:43:32 1514576612.382799: $GPZDA,194333.00,29,12,2017,00,00*65
2017-12-29 14:43:32 1514576612.382953: $GPGGA,194333,3946.9593,N,08404.9825,W,2,12,0.80,301.00,M,-33.324,M,,*7D
2017-12-29 14:43:32 1514576612.383020: $GPRMC,194333,A,3946.9593,N,08404.9825,W,0.0000,0.000,291217,,*3E
2017-12-29 14:43:32 1514576612.383081: $GPGSA,A,3,1,10,11,12,14,18,22,25,31,32,26,138,1.7,0.8,1.3*3B
2017-12-29 14:43:33 1514576613.387401: $GPZDA,194334.00,29,12,2017,00,00*62
2017-12-29 14:43:33 1514576613.387579: $GPGGA,194334,3946.9593,N,08404.9825,W,2,12,0.80,301.00,M,-33.324,M,,*7A
2017-12-29 14:43:33 1514576613.387646: $GPRMC,194334,A,3946.9593,N,08404.9825,W,0.0000,0.000,291217,,*39
2017-12-29 14:43:33 1514576613.387707: $GPGSA,A,3,1,10,11,12,14,18,22,25,31,32,26,138,1.7,0.8,1.3*3B
