2017-11-16 17:11:23 1510870283.461943: {"class":"VERSION","release":"3.17","rev":"3.17","proto_major":3,"proto_minor":12}
2017-11-16 17:11:23 1510870283.462426: {"class":"DEVICES","devices":[{"class":"DEVICE","path":"/dev/ttyUSB0","driver":"SiRF","subtype":"9\u0006GSD4e_4.1.2-P1_RPATCH.05-F-GPS-4R-1510281 11/03/2015 307","activated":"2017-11-16T22:11:23.437Z","flags":1,"native":1,"bps":4800,"parity":"N","stopbits":1,"cycle":1.00}]}
2017-11-16 17:11:23 1510870283.462546: {"class":"WATCH","enable":true,"json":false,"nmea":true,"raw":0,"scaled":false,"timing":false,"split24":false,"pps":false}
2017-11-16 17:11:24 1510870284.736614: $GPGSV,3,1,12,01,19,310,39,10,59,142,47,24,05,046,28,12,25,060,49*74
2017-11-16 17:11:24 1510870284.736794: $GPGSV,3,2,12,14,61,309,46,18,28,141,45,22,11,312,43,11,10,291,32*7A
2017-11-16 17:11:24 1510870284.736856: $GPGSV,3,3,12,25,36,103,48,31,45,217,49,32,70,358,50,138,38,213,44*40
2017-11-16 17:11:24 1510870284.848649: $GPZDA,221123.00,16,11,2017,00,00*64
2017-11-16 17:11:24 1510870284.848819: $GPGGA,221123,3946.9568,N,08404.9826,W,2,12,0.80,312.81,M,-33.324,M,,*7F
2017-11-16 17:11:24 1510870284.848882: $GPRMC,221123,A,3946.9568,N,08404.9826,W,0.0000,0.000,161117,,*38
2017-11-16 17:11:24 1510870284.848938: $GPGSA,A,3,1,10,24,12,14,18,22,11,25,31,32,138,1.6,0.8,1.3*38
2017-11-16 17:11:25 1510870285.400800: $GPZDA,221124.00,16,11,2017,00,00*63
2017-11-16 17:11:25 1510870285.401004: $GPGGA,221124,3946.9568,N,08404.9826,W,2,12,0.80,312.81,M,-33.324,M,,*78
2017-11-16 17:11:25 1510870285.401086: $GPRMC,221124,A,3946.9568,N,08404.9826,W,0.0000,0.000,161117,,*3F
2017-11-16 17:11:25 1510870285.401147: $GPGSA,A,3,1,10,24,12,14,18,22,11,25,31,32,138,1.6,0.8,1.3*38
2017-11-16 17:11:26 1510870286.393669: $GPZDA,221125.00,16,11,2017,00,00*62
2017-11-16 17:11:26 1510870286.393848: $GPGGA,221125,3946.9568,N,08404.9826,W,2,12,0.80,312.81,M,-33.324,M,,*79
2017-11-16 17:11:26 1510870286.393910: $GPRMC,221125,A,3946.9568,N,08404.9826,W,0.0000,0.000,161117,,*3E
2017-11-16 17:11:26 1510870286.393967: $GPGSA,A,3,1,10,24,12,14,18,22,11,25,31,32,138,1.6,0.8,1.3*38
2017-11-16 17:11:27 1510870287.750769: $GPGSV,3,1,12,01,19,310,39,10,59,142,47,24,05,046,28,12,25,060,49*74
2017-11-16 17:11:27 1510870287.750940: $GPGSV,3,2,12,14,61,309,47,18,28,141,45,22,11,312,43,11,10,291,36*7F
2017-11-16 17:11:27 1510870287.751002: $GPGSV,3,3,12,25,36,103,48,31,45,217,49,32,70,358,50,138,38,213,44*40
2017-11-16 17:11:27 1510870287.864037: $GPZDA,221126.00,16,11,2017,00,00*61
2017-11-16 17:11:27 1510870287.864201: $GPGGA,221126,3946.9568,N,08404.9826,W,2,12,0.80,312.81,M,-33.324,M,,*7A
2017-11-16 17:11:27 1510870287.864263: $GPRMC,221126,A,3946.9568,N,08404.9826,W,0.0000,0.000,161117,,*3D
2017-11-16 17:11:27 1510870287.864318: $GPGSA,A,3,1,10,24,12,14,18,22,11,25,31,32,138,1.6,0.8,1.3*38
2017-11-16 17:11:28 1510870288.399894: $GPZDA,221127.00,16,11,2017,00,00*60
2017-11-16 17:11:28 1510870288.400070: $GPGGA,221127,3946.9568,N,08404.9826,W,2,12,0.80,312.81,M,-33.324,M,,*7B
2017-11-16 17:11:28 1510870288.400134: $GPRMC,221127,A,3946.9568,N,08404.9826,W,0.0000,0.000,161117,,*3C
2017-11-16 17:11:28 1510870288.400190: $GPGSA,A,3,1,10,24,12,14,18,22,11,25,31,32,138,1.6,0.8,1.3*38
2017-11-16 17:11:29 1510870289.398365: $GPZDA,221128.00,16,11,2017,00,00*6F
2017-11-16 17:11:29 1510870289.398532: $GPGGA,221128,3946.9568,N,08404.9826,W,2,12,0.80,312.81,M,-33.324,M,,*74
2017-11-16 17:11:29 1510870289.398595: $GPRMC,221128,A,3946.9568,N,08404.9826,W,0.0000,0.000,161117,,*33
2017-11-16 17:11:29 1510870289.398653: $GPGSA,A,3,1,10,24,12,14,18,22,11,25,31,32,138,1.6,0.8,1.3*38
2017-11-16 17:11:30 1510870290.750346: $GPGSV,3,1,12,01,19,310,39,10,59,142,46,24,05,046,28,12,25,060,50*7D
2017-11-16 17:11:30 1510870290.750529: $GPGSV,3,2,12,14,61,309,46,18,28,141,45,22,11,312,43,11,10,291,37*7F
2017-11-16 17:11:30 1510870290.750615: $GPGSV,3,3,12,25,36,103,47,31,45,217,48,32,70,358,50,138,38,213,44*4E
2017-11-16 17:11:30 1510870290.863995: $GPZDA,221129.00,16,11,2017,00,00*6E
2017-11-16 17:11:30 1510870290.864147: $GPGGA,221129,3946.9568,N,08404.9826,W,2,12,0.80,312.81,M,-33.324,M,,*75
2017-11-16 17:11:30 1510870290.864260: $GPRMC,221129,A,3946.9568,N,08404.9826,W,0.0000,0.000,161117,,*32
2017-11-16 17:11:30 1510870290.864318: $GPGSA,A,3,1,10,24,12,14,18,22,11,25,31,32,138,1.6,0.8,1.3*38
2017-11-16 17:11:31 1510870291.490695: $GPZDA,221130.00,16,11,2017,00,00*66
2017-11-16 17:11:31 1510870291.490884: $GPGGA,221130,3946.9568,N,08404.9826,W,2,12,0.80,312.81,M,-33.324,M,,*7D
2017-11-16 17:11:31 1510870291.490945: $GPRMC,221130,A,3946.9568,N,08404.9826,W,0.0000,0.000,161117,,*3A
2017-11-16 17:11:31 1510870291.491001: $GPGSA,A,3,1,10,24,12,14,18,22,11,25,31,32,138,1.6,0.8,1.3*38
2017-11-16 17:11:32 1510870292.415322: $GPZDA,221131.00,16,11,2017,00,00*67
2017-11-16 17:11:32 1510870292.415482: $GPGGA,221131,3946.9568,N,08404.9826,W,2,12,0.80,312.81,M,-33.324,M,,*7C
2017-11-16 17:11:32 1510870292.415560: $GPRMC,221131,A,3946.9568,N,08404.9826,W,0.0000,0.000,161117,,*3B
2017-11-16 17:11:32 1510870292.415637: $GPGSA,A,3,1,10,24,12,14,18,22,11,25,31,32,138,1.6,0.8,1.3*38
