2017-12-01 11:33:13 1512145993.016738: {"class":"VERSION","release":"3.16","rev":"3.16-4","proto_major":3,"proto_minor":11}
2017-12-01 11:33:13 1512145993.017120: {"class":"DEVICES","devices":[{"class":"DEVICE","path":"/dev/ttyUSB0","driver":"SiRF","subtype":"9\u0006GSD4e_4.1.2-P1_RPATCH.05-F-GPS-4R-1510281 11/03/2015 307","activated":"2017-12-01T16:33:12.935Z","flags":1,"native":1,"bps":4800,"parity":"N","stopbits":1,"cycle":1.00}]}
2017-12-01 11:33:13 1512145993.017240: {"class":"WATCH","enable":true,"json":false,"nmea":true,"raw":0,"scaled":false,"timing":false,"split24":false,"pps":false}
2017-12-01 11:33:13 1512145993.349661: $GPZDA,163314.00,01,12,2017,00,00*62
2017-12-01 11:33:13 1512145993.349897: $GPGGA,163314,3946.9548,N,08404.9816,W,2,11,0.80,304.71,M,-33.324,M,,*76
2017-12-01 11:33:13 1512145993.349990: $GPRMC,163314,A,3946.9548,N,08404.9816,W,0.0000,0.000,011217,,*3F
2017-12-01 11:33:13 1512145993.350055: $GPGSA,A,3,5,10,13,15,18,20,21,24,29,27,138,,2.0,0.8,1.5*34
2017-12-01 11:33:14 1512145994.364556: $GPZDA,163315.00,01,12,2017,00,00*63
2017-12-01 11:33:14 1512145994.364726: $GPGGA,163315,3946.9545,N,08404.9817,W,2,11,0.80,305.48,M,-33.324,M,,*70
2017-12-01 11:33:14 1512145994.364792: $GPRMC,163315,A,3946.9545,N,08404.9817,W,0.0000,0.000,011217,,*32
2017-12-01 11:33:14 1512145994.364853: $GPGSA,A,3,5,10,13,15,18,20,21,24,29,27,138,,2.0,0.8,1.5*34
2017-12-01 11:33:15 1512145995.682556: $GPGSV,3,1,12,05,17,073,33,10,10,268,45,13,47,052,46,15,78,093,48*7B
2017-12-01 11:33:15 1512145995.682752: $GPGSV,3,2,12,18,40,282,44,20,65,042,42,21,62,309,46,24,16,151,42*72
2017-12-01 11:33:15 1512145995.682818: $GPGSV,3,3,12,29,29,196,45,27,05,327,35,04,16,127,00,138,38,213,45*42
2017-12-01 11:33:15 1512145995.796145: $GPZDA,163316.00,01,12,2017,00,00*60
2017-12-01 11:33:15 1512145995.796326: $GPGGA,163316,3946.9545,N,08404.9817,W,2,11,0.80,305.48,M,-33.324,M,,*73
2017-12-01 11:33:15 1512145995.796393: $GPRMC,163316,A,3946.9545,N,08404.9817,W,0.0000,0.000,011217,,*31
2017-12-01 11:33:15 1512145995.796454: $GPGSA,A,3,5,10,13,15,18,20,21,24,29,27,138,,2.0,0.8,1.5*34
2017-12-01 11:33:16 1512145996.421698: $GPZDA,163317.00,01,12,2017,00,00*61
2017-12-01 11:33:16 1512145996.421868: $GPGGA,163317,3946.9545,N,08404.9817,W,2,11,0.80,305.48,M,-33.324,M,,*72
2017-12-01 11:33:16 1512145996.421933: $GPRMC,163317,A,3946.9545,N,08404.9817,W,0.0000,0.000,011217,,*30
2017-12-01 11:33:16 1512145996.422012: $GPGSA,A,3,5,10,13,15,18,20,21,24,29,27,138,,2.0,0.8,1.5*34
2017-12-01 11:33:17 1512145997.363793: $GPZDA,163318.00,01,12,2017,00,00*6E
2017-12-01 11:33:17 1512145997.363964: $GPGGA,163318,3946.9545,N,08404.9817,W,2,11,0.80,305.48,M,-33.324,M,,*7D
2017-12-01 11:33:17 1512145997.364032: $GPRMC,163318,A,3946.9545,N,08404.9817,W,0.0000,0.000,011217,,*3F
2017-12-01 11:33:17 1512145997.364092: $GPGSA,A,3,5,10,13,15,18,20,21,24,29,27,138,,2.0,0.8,1.5*34
2017-12-01 11:33:18 1512145998.701639: $GPGSV,3,1,12,05,17,073,27,10,10,268,45,13,47,052,46,15,78,093,48*7E
2017-12-01 11:33:18 1512145998.701866: $GPGSV,3,2,12,18,40,282,44,20,65,042,42,21,62,309,46,24,16,151,43*73
2017-12-01 11:33:18 1512145998.701955: $GPGSV,3,3,12,29,29,196,46,27,05,327,35,04,16,127,00,138,38,213,45*41
2017-12-01 11:33:18 1512145998.814990: $GPZDA,163319.00,01,12,2017,00,00*6F
2017-12-01 11:33:18 1512145998.815163: $GPGGA,163319,3946.9545,N,08404.9817,W,2,11,0.80,305.48,M,-33.324,M,,*7C
2017-12-01 11:33:18 1512145998.815229: $GPRMC,163319,A,3946.9545,N,08404.9817,W,0.0000,0.000,011217,,*3E
2017-12-01 11:33:18 1512145998.815291: $GPGSA,A,3,5,10,13,15,18,20,21,24,29,27,138,,2.0,0.8,1.5*34
2017-12-01 11:33:19 1512145999.350857: $GPZDA,163320.00,01,12,2017,00,00*65
2017-12-01 11:33:19 1512145999.351049: $GPGGA,163320,3946.9545,N,08404.9817,W,2,11,0.80,305.48,M,-33.324,M,,*76
2017-12-01 11:33:19 1512145999.351116: $GPRMC,163320,A,3946.9545,N,08404.9817,W,0.0000,0.000,011217,,*34
2017-12-01 11:33:19 1512145999.351178: $GPGSA,A,3,5,10,13,15,18,20,21,24,29,27,138,,2.0,0.8,1.5*34
2017-12-01 11:33:20 1512146000.350837: $GPZDA,163321.00,01,12,2017,00,00*64
2017-12-01 11:33:20 1512146000.351075: $GPGGA,163321,3946.9549,N,08404.9817,W,2,11,0.80,306.12,M,-33.324,M,,*77
2017-12-01 11:33:20 1512146000.351143: $GPRMC,163321,A,3946.9549,N,08404.9817,W,0.0000,0.000,011217,,*39
2017-12-01 11:33:20 1512146000.351204: $GPGSA,A,3,5,10,13,15,18,20,21,24,29,27,138,,2.0,0.8,1.5*34
2017-12-01 11:33:21 1512146001.683276: $GPGSV,3,1,11,05,17,073,29,10,10,268,45,13,47,052,46,15,78,093,48*73
2017-12-01 11:33:21 1512146001.683487: $GPGSV,3,2,11,18,40,282,44,20,65,042,42,21,62,309,46,24,16,151,42*71
2017-12-01 11:33:21 1512146001.683552: $GPGSV,3,3,11,29,29,196,46,27,05,327,35,138,38,213,46*76
2017-12-01 11:33:21 1512146001.796929: $GPZDA,163322.00,01,12,2017,00,00*67
2017-12-01 11:33:21 1512146001.797097: $GPGGA,163322,3946.9549,N,08404.9817,W,2,11,0.80,306.12,M,-33.324,M,,*74
2017-12-01 11:33:21 1512146001.797163: $GPRMC,163322,A,3946.9549,N,08404.9817,W,0.0000,0.000,011217,,*3A
2017-12-01 11:33:21 1512146001.797223: $GPGSA,A,3,5,10,13,15,18,20,21,24,29,27,138,,2.0,0.8,1.5*34
2017-12-01 11:33:22 1512146002.347802: $GPZDA,163323.00,01,12,2017,00,00*66
2017-12-01 11:33:22 1512146002.347972: $GPGGA,163323,3946.9549,N,08404.9817,W,2,11,0.80,306.12,M,-33.324,M,,*75
2017-12-01 11:33:22 1512146002.348038: $GPRMC,163323,A,3946.9549,N,08404.9817,W,0.0000,0.000,011217,,*3B
2017-12-01 11:33:22 1512146002.348099: $GPGSA,A,3,5,10,13,15,18,20,21,24,29,27,138,,2.0,0.8,1.5*34
