2018-01-12 03:38:10 1515746290.785307: {"class":"VERSION","release":"3.16","rev":"3.16-4","proto_major":3,"proto_minor":11}
2018-01-12 03:38:10 1515746290.785698: {"class":"DEVICES","devices":[{"class":"DEVICE","path":"/dev/ttyUSB0","driver":"SiRF","subtype":"9\u0006GSD4e_4.1.2-P1_RPATCH.05-F-GPS-4R-1510281 11/03/2015 307","activated":"2018-01-12T08:38:10.500Z","flags":1,"native":1,"bps":4800,"parity":"N","stopbits":1,"cycle":1.00}]}
2018-01-12 03:38:10 1515746290.785810: {"class":"WATCH","enable":true,"json":false,"nmea":true,"raw":0,"scaled":false,"timing":false,"split24":false,"pps":false}
2018-01-12 03:38:11 1515746291.106873: $GPZDA,083811.79,12,01,2018,00,00*62
2018-01-12 03:38:11 1515746291.107050: $GPGGA,083811,3946.9580,N,08404.9828,W,1,09,1.00,305.46,M,-33.324,M,,*78
2018-01-12 03:38:11 1515746291.107117: $GPRMC,083811,A,3946.9580,N,08404.9828,W,0.6846,184.197,120118,,*36
2018-01-12 03:38:11 1515746291.107179: $GPGSA,A,3,2,5,6,12,17,19,25,23,138,,,,2.4,1.0,2.1*36
2018-01-12 03:38:11 1515746291.107236: $GPGBS,083811,11.98,M,14.47,M,47.88,M*09
2018-01-12 03:38:12 1515746292.039257: $GPZDA,083812.47,12,01,2018,00,00*6C
2018-01-12 03:38:12 1515746292.043261: $GPGGA,083812,3946.9576,N,08404.9828,W,1,09,1.00,304.82,M,-33.324,M,,*7B
2018-01-12 03:38:12 1515746292.043357: $GPRMC,083812,A,3946.9576,N,08404.9828,W,0.2710,100.223,120118,,*34
2018-01-12 03:38:12 1515746292.043421: $GPGSA,A,3,2,5,6,12,17,19,25,23,138,,,,2.4,1.0,2.1*36
2018-01-12 03:38:12 1515746292.043479: $GPGBS,083812,11.98,M,14.47,M,47.88,M*0A
2018-01-12 03:38:13 1515746293.181546: $GPGSV,3,1,12,02,66,292,47,05,29,195,46,06,62,033,47,12,52,286,52*7F
2018-01-12 03:38:13 1515746293.181716: $GPGSV,3,2,12,17,29,106,44,19,47,096,41,25,20,316,43,23,09,054,06*79
2018-01-12 03:38:13 1515746293.181781: $GPGSV,3,3,12,09,15,087,00,04,40,262,00,24,01,244,00,138,38,213,00*4A
2018-01-12 03:38:13 1515746293.295250: $GPZDA,083813.00,12,01,2018,00,00*6E
2018-01-12 03:38:13 1515746293.295397: $GPGGA,083813,3946.9579,N,08404.9827,W,1,07,1.00,304.06,M,-33.324,M,,*78
2018-01-12 03:38:13 1515746293.295462: $GPRMC,083813,A,3946.9579,N,08404.9827,W,0.4207,39.346,120118,,*09
2018-01-12 03:38:13 1515746293.295522: $GPGSA,A,3,2,5,6,12,17,19,25,,,,,,2.4,1.0,2.1*0D
2018-01-12 03:38:13 1515746293.746069: $GPZDA,083814.00,12,01,2018,00,00*69
2018-01-12 03:38:13 1515746293.746214: $GPGGA,083814,3946.9583,N,08404.9827,W,1,07,1.00,303.29,M,-33.324,M,,*70
2018-01-12 03:38:13 1515746293.746278: $GPRMC,083814,A,3946.9583,N,08404.9827,W,0.2959,54.767,120118,,*01
2018-01-12 03:38:13 1515746293.746338: $GPGSA,A,3,2,5,6,12,17,19,25,,,,,,2.4,1.0,2.1*0D
2018-01-12 03:38:14 1515746294.396976: $GPZDA,083815.00,12,01,2018,00,00*68
2018-01-12 03:38:14 1515746294.397140: $GPGGA,083815,3946.9582,N,08404.9833,W,1,07,1.00,301.81,M,-33.324,M,,*75
2018-01-12 03:38:14 1515746294.397205: $GPRMC,083815,A,3946.9582,N,08404.9833,W,0.0000,0.000,120118,,*34
2018-01-12 03:38:14 1515746294.397264: $GPGSA,A,3,2,5,6,12,17,19,25,,,,,,2.4,1.0,2.1*0D
2018-01-12 03:38:15 1515746295.731938: $GPGSV,3,1,12,02,66,292,47,05,29,195,46,06,62,033,46,12,52,286,52*7E
2018-01-12 03:38:15 1515746295.732071: $GPGSV,3,2,12,17,29,106,44,19,47,096,41,25,20,316,43,23,09,054,29*74
2018-01-12 03:38:15 1515746295.732135: $GPGSV,3,3,12,09,15,087,00,04,40,262,00,24,01,244,00,138,38,213,39*40
2018-01-12 03:38:15 1515746295.845812: $GPZDA,083816.00,12,01,2018,00,00*6B
2018-01-12 03:38:15 1515746295.845971: $GPGGA,083816,3946.9582,N,08404.9833,W,1,09,1.00,301.81,M,-33.324,M,,*78
2018-01-12 03:38:15 1515746295.846035: $GPRMC,083816,A,3946.9582,N,08404.9833,W,0.2422,93.794,120118,,*01
2018-01-12 03:38:15 1515746295.846096: $GPGSA,A,3,2,5,6,12,17,19,25,23,138,,,,2.4,1.0,2.1*36
2018-01-12 03:38:16 1515746296.400241: $GPZDA,083817.00,12,01,2018,00,00*6A
2018-01-12 03:38:16 1515746296.400389: $GPGGA,083817,3946.9578,N,08404.9833,W,1,09,1.00,301.17,M,-33.324,M,,*73
2018-01-12 03:38:16 1515746296.400454: $GPRMC,083817,A,3946.9578,N,08404.9833,W,0.0000,0.000,120118,,*33
2018-01-12 03:38:16 1515746296.400515: $GPGSA,A,3,2,5,6,12,17,19,25,23,138,,,,2.4,1.0,2.1*36
