2017-12-29 10:47:09 1514562429.298803: {"class":"VERSION","release":"3.16","rev":"3.16-4","proto_major":3,"proto_minor":11}
2017-12-29 10:47:09 1514562429.299165: {"class":"DEVICES","devices":[{"class":"DEVICE","path":"/dev/ttyUSB0","driver":"SiRF","subtype":"9\u0006GSD4e_4.1.2-P1_RPATCH.05-F-GPS-4R-1510281 11/03/2015 307","activated":"2017-12-29T15:47:09.240Z","flags":1,"native":1,"bps":4800,"parity":"N","stopbits":1,"cycle":1.00}]}
2017-12-29 10:47:09 1514562429.299377: {"class":"WATCH","enable":true,"json":false,"nmea":true,"raw":0,"scaled":false,"timing":false,"split24":false,"pps":false}
2017-12-29 10:47:09 1514562429.418144: $GPZDA,154710.00,29,12,2017,00,00*6C
2017-12-29 10:47:09 1514562429.418332: $GPGGA,154710,3946.9594,N,08404.9826,W,2,11,0.80,303.81,M,-33.324,M,,*78
2017-12-29 10:47:09 1514562429.418398: $GPRMC,154710,A,3946.9594,N,08404.9826,W,0.0000,0.000,291217,,*33
2017-12-29 10:47:09 1514562429.418459: $GPGSA,A,3,10,13,15,18,20,21,24,27,29,32,138,,1.7,0.8,1.3*02
2017-12-29 10:47:10 1514562430.415586: $GPZDA,154711.00,29,12,2017,00,00*6D
2017-12-29 10:47:10 1514562430.415745: $GPGGA,154711,3946.9594,N,08404.9826,W,2,11,0.80,303.81,M,-33.324,M,,*79
2017-12-29 10:47:10 1514562430.415811: $GPRMC,154711,A,3946.9594,N,08404.9826,W,0.0000,0.000,291217,,*32
2017-12-29 10:47:10 1514562430.415871: $GPGSA,A,3,10,13,15,18,20,21,24,27,29,32,138,,1.7,0.8,1.3*02
2017-12-29 10:47:11 1514562431.750848: $GPGSV,3,1,11,10,31,291,40,13,19,046,42,15,50,049,50,18,62,315,43*7C
2017-12-29 10:47:11 1514562431.751018: $GPGSV,3,2,11,20,45,082,50,21,76,214,47,24,42,129,51,27,19,303,35*77
2017-12-29 10:47:11 1514562431.751146: $GPGSV,3,3,11,29,02,186,34,32,11,231,31,138,38,213,45*7B
2017-12-29 10:47:11 1514562431.864301: $GPZDA,154712.00,29,12,2017,00,00*6E
2017-12-29 10:47:11 1514562431.864425: $GPGGA,154712,3946.9594,N,08404.9826,W,2,11,0.80,303.81,M,-33.324,M,,*7A
2017-12-29 10:47:11 1514562431.864490: $GPRMC,154712,A,3946.9594,N,08404.9826,W,0.0000,0.000,291217,,*31
2017-12-29 10:47:11 1514562431.864550: $GPGSA,A,3,10,13,15,18,20,21,24,27,29,32,138,,1.7,0.8,1.3*02
2017-12-29 10:47:12 1514562432.489680: $GPZDA,154713.00,29,12,2017,00,00*6F
2017-12-29 10:47:12 1514562432.489837: $GPGGA,154713,3946.9594,N,08404.9826,W,2,11,0.80,303.81,M,-33.324,M,,*7B
2017-12-29 10:47:12 1514562432.489903: $GPRMC,154713,A,3946.9594,N,08404.9826,W,0.0000,0.000,291217,,*30
2017-12-29 10:47:12 1514562432.489964: $GPGSA,A,3,10,13,15,18,20,21,24,27,29,32,138,,1.7,0.8,1.3*02
2017-12-29 10:47:13 1514562433.415564: $GPZDA,154714.00,29,12,2017,00,00*68
2017-12-29 10:47:13 1514562433.421290: $GPGGA,154714,3946.9594,N,08404.9826,W,2,11,0.80,303.81,M,-33.324,M,,*7C
2017-12-29 10:47:13 1514562433.421406: $GPRMC,154714,A,3946.9594,N,08404.9826,W,0.0000,0.000,291217,,*37
2017-12-29 10:47:13 1514562433.421468: $GPGSA,A,3,10,13,15,18,20,21,24,27,29,32,138,,1.7,0.8,1.3*02
2017-12-29 10:47:14 1514562434.751338: $GPGSV,3,1,11,10,31,291,40,13,19,046,42,15,50,049,50,18,62,315,44*7B
2017-12-29 10:47:14 1514562434.751499: $GPGSV,3,2,11,20,45,082,50,21,76,214,47,24,42,129,51,27,19,303,36*74
2017-12-29 10:47:14 1514562434.751565: $GPGSV,3,3,11,29,02,186,34,32,11,231,32,138,38,213,45*78
2017-12-29 10:47:14 1514562434.864627: $GPZDA,154715.00,29,12,2017,00,00*69
2017-12-29 10:47:14 1514562434.864748: $GPGGA,154715,3946.9594,N,08404.9826,W,2,11,0.80,303.81,M,-33.324,M,,*7D
2017-12-29 10:47:14 1514562434.864812: $GPRMC,154715,A,3946.9594,N,08404.9826,W,0.0000,0.000,291217,,*36
2017-12-29 10:47:14 1514562434.864872: $GPGSA,A,3,10,13,15,18,20,21,24,27,29,32,138,,1.7,0.8,1.3*02
2017-12-29 10:47:15 1514562435.409339: $GPZDA,154716.00,29,12,2017,00,00*6A
2017-12-29 10:47:15 1514562435.409508: $GPGGA,154716,3946.9594,N,08404.9826,W,2,11,0.80,303.81,M,-33.324,M,,*7E
2017-12-29 10:47:15 1514562435.409575: $GPRMC,154716,A,3946.9594,N,08404.9826,W,0.0000,0.000,291217,,*35
2017-12-29 10:47:15 1514562435.409635: $GPGSA,A,3,10,13,15,18,20,21,24,27,29,32,138,,1.7,0.8,1.3*02
2017-12-29 10:47:16 1514562436.371467: $GPZDA,154717.00,29,12,2017,00,00*6B
2017-12-29 10:47:16 1514562436.371640: $GPGGA,154717,3946.9594,N,08404.9826,W,2,11,0.80,303.81,M,-33.324,M,,*7F
2017-12-29 10:47:16 1514562436.371762: $GPRMC,154717,A,3946.9594,N,08404.9826,W,0.0000,0.000,291217,,*34
2017-12-29 10:47:16 1514562436.371825: $GPGSA,A,3,10,13,15,18,20,21,24,27,29,32,138,,1.7,0.8,1.3*02
2017-12-29 10:47:17 1514562437.746571: $GPGSV,3,1,11,10,31,291,40,13,19,046,42,15,50,049,50,18,62,315,43*7C
2017-12-29 10:47:17 1514562437.746732: $GPGSV,3,2,11,20,45,082,50,21,76,214,47,24,42,129,50,27,19,303,37*74
2017-12-29 10:47:17 1514562437.746799: $GPGSV,3,3,11,29,02,186,34,32,11,231,32,138,38,213,46*7B
2017-12-29 10:47:17 1514562437.860150: $GPZDA,154718.00,29,12,2017,00,00*64
2017-12-29 10:47:17 1514562437.860273: $GPGGA,154718,3946.9594,N,08404.9826,W,2,11,0.80,303.81,M,-33.324,M,,*70
2017-12-29 10:47:17 1514562437.860337: $GPRMC,154718,A,3946.9594,N,08404.9826,W,0.0000,0.000,291217,,*3B
2017-12-29 10:47:17 1514562437.860397: $GPGSA,A,3,10,13,15,18,20,21,24,27,29,32,138,,1.7,0.8,1.3*02
2017-12-29 10:47:18 1514562438.421220: $GPZDA,154719.00,29,12,2017,00,00*65
2017-12-29 10:47:18 1514562438.426623: $GPGGA,154719,3946.9594,N,08404.9826,W,2,11,0.80,303.81,M,-33.324,M,,*71
2017-12-29 10:47:18 1514562438.426722: $GPRMC,154719,A,3946.9594,N,08404.9826,W,0.0000,0.000,291217,,*3A
2017-12-29 10:47:18 1514562438.426786: $GPGSA,A,3,10,13,15,18,20,21,24,27,29,32,138,,1.7,0.8,1.3*02
2017-12-29 10:47:19 1514562439.380689: $GPZDA,154720.00,29,12,2017,00,00*6F
2017-12-29 10:47:19 1514562439.380856: $GPGGA,154720,3946.9594,N,08404.9826,W,2,11,0.80,303.81,M,-33.324,M,,*7B
2017-12-29 10:47:19 1514562439.380938: $GPRMC,154720,A,3946.9594,N,08404.9826,W,0.0000,0.000,291217,,*30
2017-12-29 10:47:19 1514562439.381000: $GPGSA,A,3,10,13,15,18,20,21,24,27,29,32,138,,1.7,0.8,1.3*02
2017-12-29 10:47:20 1514562440.751221: $GPGSV,3,1,11,10,31,291,40,13,19,046,42,15,50,049,50,18,62,315,44*7B
2017-12-29 10:47:20 1514562440.751395: $GPGSV,3,2,11,20,45,082,50,21,76,214,48,24,42,129,51,27,19,303,38*75
2017-12-29 10:47:20 1514562440.751476: $GPGSV,3,3,11,29,02,186,33,32,11,231,32,138,38,213,45*7F
2017-12-29 10:47:20 1514562440.864814: $GPZDA,154721.00,29,12,2017,00,00*6E
2017-12-29 10:47:20 1514562440.864948: $GPGGA,154721,3946.9594,N,08404.9826,W,2,11,0.80,303.81,M,-33.324,M,,*7A
2017-12-29 10:47:20 1514562440.865013: $GPRMC,154721,A,3946.9594,N,08404.9826,W,0.0000,0.000,291217,,*31
2017-12-29 10:47:20 1514562440.865073: $GPGSA,A,3,10,13,15,18,20,21,24,27,29,32,138,,1.7,0.8,1.3*02
2017-12-29 10:47:21 1514562441.376945: $GPZDA,154722.00,29,12,2017,00,00*6D
2017-12-29 10:47:21 1514562441.377111: $GPGGA,154722,3946.9594,N,08404.9826,W,2,11,0.80,303.81,M,-33.324,M,,*79
2017-12-29 10:47:21 1514562441.377177: $GPRMC,154722,A,3946.9594,N,08404.9826,W,0.0000,0.000,291217,,*32
2017-12-29 10:47:21 1514562441.377257: $GPGSA,A,3,10,13,15,18,20,21,24,27,29,32,138,,1.7,0.8,1.3*02
2017-12-29 10:47:22 1514562442.378556: $GPZDA,154723.00,29,12,2017,00,00*6C
2017-12-29 10:47:22 1514562442.378733: $GPGGA,154723,3946.9594,N,08404.9826,W,2,11,0.80,303.81,M,-33.324,M,,*78
2017-12-29 10:47:22 1514562442.378799: $GPRMC,154723,A,3946.9594,N,08404.9826,W,0.0000,0.000,291217,,*33
2017-12-29 10:47:22 1514562442.378860: $GPGSA,A,3,10,13,15,18,20,21,24,27,29,32,138,,1.7,0.8,1.3*02
2017-12-29 10:47:23 1514562443.751565: $GPGSV,3,1,11,10,31,291,40,13,19,046,42,15,50,049,50,18,62,315,44*7B
2017-12-29 10:47:23 1514562443.751752: $GPGSV,3,2,11,20,45,082,50,21,76,214,48,24,42,129,51,27,19,303,38*75
2017-12-29 10:47:23 1514562443.751818: $GPGSV,3,3,11,29,02,186,33,32,11,231,33,138,38,213,45*7E
2017-12-29 10:47:23 1514562443.864887: $GPZDA,154724.00,29,12,2017,00,00*6B
2017-12-29 10:47:23 1514562443.865020: $GPGGA,154724,3946.9594,N,08404.9826,W,2,11,0.80,303.81,M,-33.324,M,,*7F
2017-12-29 10:47:23 1514562443.865086: $GPRMC,154724,A,3946.9594,N,08404.9826,W,0.0000,0.000,291217,,*34
2017-12-29 10:47:23 1514562443.865147: $GPGSA,A,3,10,13,15,18,20,21,24,27,29,32,138,,1.7,0.8,1.3*02
