2017-11-16 15:36:11 1510864571.855846: {"class":"VERSION","release":"3.17","rev":"3.17","proto_major":3,"proto_minor":12}
2017-11-16 15:36:11 1510864571.861475: {"class":"DEVICES","devices":[{"class":"DEVICE","path":"/dev/ttyUSB0","driver":"SiRF","subtype":"9\u0006GSD4e_4.1.2-P1_RPATCH.05-F-GPS-4R-1510281 11/03/2015 307","activated":"2017-11-16T20:36:11.598Z","flags":1,"native":1,"bps":4800,"parity":"N","stopbits":1,"cycle":1.00}]}
2017-11-16 15:36:11 1510864571.861634: {"class":"WATCH","enable":true,"json":false,"nmea":true,"raw":0,"scaled":false,"timing":false,"split24":false,"pps":false}
2017-11-16 15:36:12 1510864572.393493: $GPZDA,203611.00,16,11,2017,00,00*62
2017-11-16 15:36:12 1510864572.393652: $GPGGA,203611,3946.9568,N,08404.9860,W,2,12,1.40,309.61,M,-33.324,M,,*72
2017-11-16 15:36:12 1510864572.393730: $GPRMC,203611,A,3946.9568,N,08404.9860,W,0.0000,0.000,161117,,*3C
2017-11-16 15:36:12 1510864572.393786: $GPGSA,A,3,8,10,14,27,18,20,21,24,31,32,12,138,1.6,1.4,1.3*3F
2017-11-16 15:36:13 1510864573.710596: $GPGSV,3,1,12,08,04,289,30,10,73,337,51,14,32,256,46,15,08,069,01*77
2017-11-16 15:36:13 1510864573.710779: $GPGSV,3,2,12,18,67,102,48,20,05,120,22,21,25,178,44,24,42,055,49*7F
2017-11-16 15:36:13 1510864573.710850: $GPGSV,3,3,12,25,06,139,19,32,49,270,47,12,12,103,36,138,38,213,44*44
2017-11-16 15:36:13 1510864573.822392: $GPZDA,203612.00,16,11,2017,00,00*61
2017-11-16 15:36:13 1510864573.822552: $GPGGA,203612,3946.9568,N,08404.9860,W,2,11,1.40,309.61,M,-33.324,M,,*72
2017-11-16 15:36:13 1510864573.822629: $GPRMC,203612,A,3946.9568,N,08404.9860,W,0.0000,0.000,161117,,*3F
2017-11-16 15:36:13 1510864573.822687: $GPGSA,A,3,8,10,14,18,20,21,24,25,32,12,138,,1.6,1.4,1.3*3F
2017-11-16 15:36:14 1510864574.358231: $GPZDA,203613.00,16,11,2017,00,00*60
2017-11-16 15:36:14 1510864574.358397: $GPGGA,203613,3946.9568,N,08404.9860,W,2,11,1.40,309.61,M,-33.324,M,,*73
2017-11-16 15:36:14 1510864574.358457: $GPRMC,203613,A,3946.9568,N,08404.9860,W,0.0000,0.000,161117,,*3E
2017-11-16 15:36:14 1510864574.358513: $GPGSA,A,3,8,10,14,18,20,21,24,25,32,12,138,,1.6,1.4,1.3*3F
2017-11-16 15:36:15 1510864575.357841: $GPZDA,203614.00,16,11,2017,00,00*67
2017-11-16 15:36:15 1510864575.358004: $GPGGA,203614,3946.9568,N,08404.9860,W,2,11,1.40,309.61,M,-33.324,M,,*74
2017-11-16 15:36:15 1510864575.358066: $GPRMC,203614,A,3946.9568,N,08404.9860,W,0.0000,0.000,161117,,*39
2017-11-16 15:36:15 1510864575.358122: $GPGSA,A,3,8,10,14,18,20,21,24,25,32,12,138,,1.6,1.4,1.3*3F
2017-11-16 15:36:16 1510864576.695659: $GPGSV,3,1,12,08,04,289,30,10,73,337,51,14,32,256,46,27,04,256,21*76
2017-11-16 15:36:16 1510864576.695830: $GPGSV,3,2,12,18,67,102,47,20,05,120,21,21,25,178,44,24,42,055,49*73
2017-11-16 15:36:16 1510864576.695889: $GPGSV,3,3,12,25,06,139,20,32,49,270,47,12,12,103,36,138,38,213,44*4E
2017-11-16 15:36:16 1510864576.809005: $GPZDA,203615.00,16,11,2017,00,00*66
2017-11-16 15:36:16 1510864576.809191: $GPGGA,203615,3946.9568,N,08404.9860,W,2,12,1.40,309.61,M,-33.324,M,,*76
2017-11-16 15:36:16 1510864576.809252: $GPRMC,203615,A,3946.9568,N,08404.9860,W,0.0000,0.000,161117,,*38
2017-11-16 15:36:16 1510864576.809308: $GPGSA,A,3,8,10,14,27,18,20,21,24,25,32,12,138,1.6,1.4,1.3*3A
2017-11-16 15:36:17 1510864577.367889: $GPZDA,203616.00,16,11,2017,00,00*65
2017-11-16 15:36:17 1510864577.368081: $GPGGA,203616,3946.9568,N,08404.9860,W,2,12,1.40,309.61,M,-33.324,M,,*75
2017-11-16 15:36:17 1510864577.368141: $GPRMC,203616,A,3946.9568,N,08404.9860,W,0.0000,0.000,161117,,*3B
2017-11-16 15:36:17 1510864577.368196: $GPGSA,A,3,8,10,14,27,18,20,21,24,25,32,12,138,1.6,1.4,1.3*3A
2017-11-16 15:36:18 1510864578.365745: $GPZDA,203617.00,16,11,2017,00,00*64
2017-11-16 15:36:18 1510864578.365907: $GPGGA,203617,3946.9568,N,08404.9860,W,2,12,1.40,309.61,M,-33.324,M,,*74
2017-11-16 15:36:18 1510864578.365968: $GPRMC,203617,A,3946.9568,N,08404.9860,W,0.0000,0.000,161117,,*3A
2017-11-16 15:36:18 1510864578.366024: $GPGSA,A,3,8,10,14,27,18,20,21,24,25,32,12,138,1.6,1.4,1.3*3A
2017-11-16 15:36:19 1510864579.705259: $GPGSV,3,1,12,08,04,289,30,10,73,337,51,14,32,256,46,27,04,256,22*75
2017-11-16 15:36:19 1510864579.705496: $GPGSV,3,2,12,18,67,102,48,20,05,120,21,21,25,178,44,24,42,055,49*7C
2017-11-16 15:36:19 1510864579.705560: $GPGSV,3,3,12,25,06,139,21,32,49,270,47,12,12,103,37,138,38,213,44*4E
2017-11-16 15:36:19 1510864579.818809: $GPZDA,203618.00,16,11,2017,00,00*6B
2017-11-16 15:36:19 1510864579.818960: $GPGGA,203618,3946.9568,N,08404.9860,W,2,12,1.40,309.61,M,-33.324,M,,*7B
2017-11-16 15:36:19 1510864579.819018: $GPRMC,203618,A,3946.9568,N,08404.9860,W,0.0000,0.000,161117,,*35
2017-11-16 15:36:19 1510864579.819073: $GPGSA,A,3,8,10,14,27,18,20,21,24,25,32,12,138,1.6,1.4,1.3*3A
2017-11-16 15:36:20 1510864580.359407: $GPZDA,203619.00,16,11,2017,00,00*6A
2017-11-16 15:36:20 1510864580.359577: $GPGGA,203619,3946.9568,N,08404.9860,W,2,12,1.40,309.61,M,-33.324,M,,*7A
2017-11-16 15:36:20 1510864580.359638: $GPRMC,203619,A,3946.9568,N,08404.9860,W,0.0000,0.000,161117,,*34
2017-11-16 15:36:20 1510864580.359694: $GPGSA,A,3,8,10,14,27,18,20,21,24,25,32,12,138,1.6,1.4,1.3*3A
2017-11-16 15:36:21 1510864581.389747: $GPZDA,203620.00,16,11,2017,00,00*60
2017-11-16 15:36:21 1510864581.389941: $GPGGA,203620,3946.9568,N,08404.9860,W,2,12,1.40,309.61,M,-33.324,M,,*70
2017-11-16 15:36:21 1510864581.390004: $GPRMC,203620,A,3946.9568,N,08404.9860,W,0.0000,0.000,161117,,*3E
2017-11-16 15:36:21 1510864581.390061: $GPGSA,A,3,8,10,14,27,18,20,21,24,25,32,12,138,1.6,1.4,1.3*3A
