2017-11-16 14:41:51 1510861311.978373: {"class":"VERSION","release":"3.17","rev":"3.17","proto_major":3,"proto_minor":12}
2017-11-16 14:41:51 1510861311.978906: {"class":"DEVICES","devices":[{"class":"DEVICE","path":"/dev/ttyUSB0","driver":"SiRF","subtype":"9\u0006GSD4e_4.1.2-P1_RPATCH.05-F-GPS-4R-1510281 11/03/2015 307","activated":"2017-11-16T19:41:51.955Z","flags":1,"native":1,"bps":4800,"parity":"N","stopbits":1,"cycle":1.00}]}
2017-11-16 14:41:51 1510861311.979040: {"class":"WATCH","enable":true,"json":false,"nmea":true,"raw":0,"scaled":false,"timing":false,"split24":false,"pps":false}
2017-11-16 14:41:52 1510861312.507233: $GPZDA,194151.00,16,11,2017,00,00*6C
2017-11-16 14:41:52 1510861312.507401: $GPGGA,194151,3946.9564,N,08404.9842,W,2,11,0.80,302.74,M,-33.324,M,,*71
2017-11-16 14:41:52 1510861312.507462: $GPRMC,194151,A,3946.9564,N,08404.9842,W,0.0000,0.000,161117,,*3E
2017-11-16 14:41:52 1510861312.507517: $GPGSA,A,3,8,10,15,18,21,20,24,27,32,14,138,,1.6,0.8,1.3*37
2017-11-16 14:41:53 1510861313.506742: $GPZDA,194152.00,16,11,2017,00,00*6F
2017-11-16 14:41:53 1510861313.506955: $GPGGA,194152,3946.9564,N,08404.9842,W,2,11,0.80,302.74,M,-33.324,M,,*72
2017-11-16 14:41:53 1510861313.507019: $GPRMC,194152,A,3946.9564,N,08404.9842,W,0.0000,0.000,161117,,*3D
2017-11-16 14:41:53 1510861313.507076: $GPGSA,A,3,8,10,15,18,21,20,24,27,32,14,138,,1.6,0.8,1.3*37
2017-11-16 14:41:54 1510861314.844455: $GPGSV,3,1,11,08,08,312,33,10,51,310,50,15,27,057,51,18,77,015,45*72
2017-11-16 14:41:54 1510861314.844642: $GPGSV,3,2,11,21,51,184,47,20,24,105,47,24,53,088,48,27,16,277,45*7F
2017-11-16 14:41:54 1510861314.844720: $GPGSV,3,3,11,32,30,247,48,14,14,238,42,138,38,213,44*78
2017-11-16 14:41:54 1510861314.956504: $GPZDA,194153.00,16,11,2017,00,00*6E
2017-11-16 14:41:54 1510861314.956685: $GPGGA,194153,3946.9564,N,08404.9842,W,2,11,0.80,302.74,M,-33.324,M,,*73
2017-11-16 14:41:54 1510861314.956766: $GPRMC,194153,A,3946.9564,N,08404.9842,W,0.0000,0.000,161117,,*3C
2017-11-16 14:41:54 1510861314.956823: $GPGSA,A,3,8,10,15,18,21,20,24,27,32,14,138,,1.6,0.8,1.3*37
2017-11-16 14:41:55 1510861315.541134: $GPZDA,194154.00,16,11,2017,00,00*69
2017-11-16 14:41:55 1510861315.541329: $GPGGA,194154,3946.9564,N,08404.9842,W,2,11,0.80,302.74,M,-33.324,M,,*74
2017-11-16 14:41:55 1510861315.541392: $GPRMC,194154,A,3946.9564,N,08404.9842,W,0.0000,0.000,161117,,*3B
2017-11-16 14:41:55 1510861315.541449: $GPGSA,A,3,8,10,15,18,21,20,24,27,32,14,138,,1.6,0.8,1.3*37
2017-11-16 14:41:56 1510861316.507151: $GPZDA,194155.00,16,11,2017,00,00*68
2017-11-16 14:41:56 1510861316.507333: $GPGGA,194155,3946.9564,N,08404.9842,W,2,11,0.80,302.74,M,-33.324,M,,*75
2017-11-16 14:41:56 1510861316.507398: $GPRMC,194155,A,3946.9564,N,08404.9842,W,0.0000,0.000,161117,,*3A
2017-11-16 14:41:56 1510861316.507479: $GPGSA,A,3,8,10,15,18,21,20,24,27,32,14,138,,1.6,0.8,1.3*37
2017-11-16 14:41:57 1510861317.842675: $GPGSV,3,1,11,08,08,312,32,10,51,310,50,15,27,057,51,18,77,015,44*72
2017-11-16 14:41:57 1510861317.842811: $GPGSV,3,2,11,21,51,184,48,20,24,105,47,24,53,088,48,27,16,277,44*71
2017-11-16 14:41:57 1510861317.842870: $GPGSV,3,3,11,32,30,247,48,14,14,238,42,138,38,213,43*7F
2017-11-16 14:41:57 1510861317.956025: $GPZDA,194156.00,16,11,2017,00,00*6B
2017-11-16 14:41:57 1510861317.956180: $GPGGA,194156,3946.9564,N,08404.9842,W,2,11,0.80,302.74,M,-33.324,M,,*76
2017-11-16 14:41:57 1510861317.956240: $GPRMC,194156,A,3946.9564,N,08404.9842,W,0.0000,0.000,161117,,*39
2017-11-16 14:41:57 1510861317.956296: $GPGSA,A,3,8,10,15,18,21,20,24,27,32,14,138,,1.6,0.8,1.3*37
2017-11-16 14:41:58 1510861318.540898: $GPZDA,194157.00,16,11,2017,00,00*6A
2017-11-16 14:41:58 1510861318.545494: $GPGGA,194157,3946.9564,N,08404.9842,W,2,11,0.80,302.74,M,-33.324,M,,*77
2017-11-16 14:41:58 1510861318.545613: $GPRMC,194157,A,3946.9564,N,08404.9842,W,0.0000,0.000,161117,,*38
2017-11-16 14:41:58 1510861318.545729: $GPGSA,A,3,8,10,15,18,21,20,24,27,32,14,138,,1.6,0.8,1.3*37
2017-11-16 14:41:59 1510861319.541689: $GPZDA,194158.00,16,11,2017,00,00*65
2017-11-16 14:41:59 1510861319.541860: $GPGGA,194158,3946.9564,N,08404.9842,W,2,11,0.80,302.74,M,-33.324,M,,*78
2017-11-16 14:41:59 1510861319.541991: $GPRMC,194158,A,3946.9564,N,08404.9842,W,0.0000,0.000,161117,,*37
2017-11-16 14:41:59 1510861319.542050: $GPGSA,A,3,8,10,15,18,21,20,24,27,32,14,138,,1.6,0.8,1.3*37
2017-11-16 14:42:00 1510861320.844248: $GPGSV,3,1,11,08,08,312,32,10,51,310,50,15,27,057,50,18,77,015,44*73
2017-11-16 14:42:00 1510861320.844427: $GPGSV,3,2,11,21,51,184,47,20,24,105,46,24,53,088,47,27,16,277,44*70
2017-11-16 14:42:00 1510861320.844487: $GPGSV,3,3,11,32,30,247,48,14,14,238,42,138,38,213,43*7F
2017-11-16 14:42:00 1510861320.957300: $GPZDA,194159.00,16,11,2017,00,00*64
2017-11-16 14:42:00 1510861320.957482: $GPGGA,194159,3946.9564,N,08404.9842,W,2,11,0.80,302.74,M,-33.324,M,,*79
2017-11-16 14:42:00 1510861320.957545: $GPRMC,194159,A,3946.9564,N,08404.9842,W,0.0000,0.000,161117,,*36
2017-11-16 14:42:00 1510861320.957601: $GPGSA,A,3,8,10,15,18,21,20,24,27,32,14,138,,1.6,0.8,1.3*37
2017-11-16 14:42:01 1510861321.506870: $GPZDA,194200.00,16,11,2017,00,00*6B
2017-11-16 14:42:01 1510861321.507059: $GPGGA,194200,3946.9564,N,08404.9842,W,2,11,0.80,302.74,M,-33.324,M,,*76
2017-11-16 14:42:01 1510861321.507123: $GPRMC,194200,A,3946.9564,N,08404.9842,W,0.0000,0.000,161117,,*39
2017-11-16 14:42:01 1510861321.507198: $GPGSA,A,3,8,10,15,18,21,20,24,27,32,14,138,,1.6,0.8,1.3*37
