2017-11-16 14:31:20 1510860680.886387: {"class":"VERSION","release":"3.17","rev":"3.17","proto_major":3,"proto_minor":12}
2017-11-16 14:31:20 1510860680.886839: {"class":"DEVICES","devices":[{"class":"DEVICE","path":"/dev/ttyUSB0","driver":"SiRF","subtype":"9\u0006GSD4e_4.1.2-P1_RPATCH.05-F-GPS-4R-1510281 11/03/2015 307","activated":"2017-11-16T19:31:20.652Z","flags":1,"native":1,"bps":4800,"parity":"N","stopbits":1,"cycle":1.00}]}
2017-11-16 14:31:20 1510860680.886949: {"class":"WATCH","enable":true,"json":false,"nmea":true,"raw":0,"scaled":false,"timing":false,"split24":false,"pps":false}
2017-11-16 14:31:21 1510860681.883019: $GPGSV,3,1,12,08,08,315,36,10,48,307,48,13,01,051,00,15,30,055,51*7B
2017-11-16 14:31:21 1510860681.883204: $GPGSV,3,2,12,18,75,358,46,21,55,186,45,20,27,102,47,24,53,096,50*7C
2017-11-16 14:31:21 1510860681.883265: $GPGSV,3,3,12,27,17,282,43,32,27,243,46,14,10,237,38,138,38,213,44*4D
2017-11-16 14:31:21 1510860681.996356: $GPZDA,193120.00,16,11,2017,00,00*6D
2017-11-16 14:31:21 1510860681.996539: $GPGGA,193120,3946.9564,N,08404.9849,W,2,11,0.80,302.66,M,-33.324,M,,*78
2017-11-16 14:31:21 1510860681.996600: $GPRMC,193120,A,3946.9564,N,08404.9849,W,0.0000,0.000,161117,,*34
2017-11-16 14:31:21 1510860681.996656: $GPGSA,A,3,8,10,15,18,21,20,24,27,32,14,138,,1.6,0.8,1.3*37
2017-11-16 14:31:22 1510860682.512250: $GPZDA,193121.00,16,11,2017,00,00*6C
2017-11-16 14:31:22 1510860682.512431: $GPGGA,193121,3946.9564,N,08404.9849,W,2,11,0.80,302.66,M,-33.324,M,,*79
2017-11-16 14:31:22 1510860682.512493: $GPRMC,193121,A,3946.9564,N,08404.9849,W,0.0000,0.000,161117,,*35
2017-11-16 14:31:22 1510860682.512549: $GPGSA,A,3,8,10,15,18,21,20,24,27,32,14,138,,1.6,0.8,1.3*37
2017-11-16 14:31:23 1510860683.512067: $GPZDA,193122.00,16,11,2017,00,00*6F
2017-11-16 14:31:23 1510860683.512249: $GPGGA,193122,3946.9564,N,08404.9849,W,2,11,0.80,302.66,M,-33.324,M,,*7A
2017-11-16 14:31:23 1510860683.512311: $GPRMC,193122,A,3946.9564,N,08404.9849,W,0.0000,0.000,161117,,*36
2017-11-16 14:31:23 1510860683.512367: $GPGSA,A,3,8,10,15,18,21,20,24,27,32,14,138,,1.6,0.8,1.3*37
2017-11-16 14:31:24 1510860684.848541: $GPGSV,3,1,12,08,08,315,37,10,48,307,48,13,01,051,00,15,30,055,51*7A
2017-11-16 14:31:24 1510860684.848720: $GPGSV,3,2,12,18,75,358,46,21,55,186,44,20,27,102,46,24,53,096,51*7D
2017-11-16 14:31:24 1510860684.848781: $GPGSV,3,3,12,27,17,282,44,32,27,243,46,14,10,237,38,138,38,213,44*4A
2017-11-16 14:31:24 1510860684.961993: $GPZDA,193123.00,16,11,2017,00,00*6E
2017-11-16 14:31:24 1510860684.962184: $GPGGA,193123,3946.9564,N,08404.9849,W,2,11,0.80,302.66,M,-33.324,M,,*7B
2017-11-16 14:31:24 1510860684.962262: $GPRMC,193123,A,3946.9564,N,08404.9849,W,0.0000,0.000,161117,,*37
2017-11-16 14:31:24 1510860684.962319: $GPGSA,A,3,8,10,15,18,21,20,24,27,32,14,138,,1.6,0.8,1.3*37
2017-11-16 14:31:25 1510860685.511554: $GPZDA,193124.00,16,11,2017,00,00*69
2017-11-16 14:31:25 1510860685.511727: $GPGGA,193124,3946.9564,N,08404.9849,W,2,11,0.80,302.66,M,-33.324,M,,*7C
2017-11-16 14:31:25 1510860685.511789: $GPRMC,193124,A,3946.9564,N,08404.9849,W,0.0000,0.000,161117,,*30
2017-11-16 14:31:25 1510860685.511844: $GPGSA,A,3,8,10,15,18,21,20,24,27,32,14,138,,1.6,0.8,1.3*37
2017-11-16 14:31:26 1510860686.512312: $GPZDA,193125.00,16,11,2017,00,00*68
2017-11-16 14:31:26 1510860686.512473: $GPGGA,193125,3946.9564,N,08404.9849,W,2,11,0.80,302.66,M,-33.324,M,,*7D
2017-11-16 14:31:26 1510860686.512534: $GPRMC,193125,A,3946.9564,N,08404.9849,W,0.0000,0.000,161117,,*31
2017-11-16 14:31:26 1510860686.512590: $GPGSA,A,3,8,10,15,18,21,20,24,27,32,14,138,,1.6,0.8,1.3*37
2017-11-16 14:31:27 1510860687.848173: $GPGSV,3,1,12,08,08,315,39,10,48,307,48,13,01,051,00,15,30,055,50*75
2017-11-16 14:31:27 1510860687.848362: $GPGSV,3,2,12,18,75,358,46,21,55,186,44,20,27,102,46,24,53,096,50*7C
2017-11-16 14:31:27 1510860687.848425: $GPGSV,3,3,12,27,17,282,44,32,27,243,46,14,10,237,38,138,38,213,44*4A
2017-11-16 14:31:27 1510860687.961594: $GPZDA,193126.00,16,11,2017,00,00*6B
2017-11-16 14:31:27 1510860687.961757: $GPGGA,193126,3946.9564,N,08404.9849,W,2,11,0.80,302.66,M,-33.324,M,,*7E
2017-11-16 14:31:27 1510860687.961875: $GPRMC,193126,A,3946.9564,N,08404.9849,W,0.0000,0.000,161117,,*32
2017-11-16 14:31:27 1510860687.961934: $GPGSA,A,3,8,10,15,18,21,20,24,27,32,14,138,,1.6,0.8,1.3*37
2017-11-16 14:31:28 1510860688.512448: $GPZDA,193127.00,16,11,2017,00,00*6A
2017-11-16 14:31:28 1510860688.512606: $GPGGA,193127,3946.9564,N,08404.9849,W,2,11,0.80,302.66,M,-33.324,M,,*7F
2017-11-16 14:31:28 1510860688.512667: $GPRMC,193127,A,3946.9564,N,08404.9849,W,0.0000,0.000,161117,,*33
2017-11-16 14:31:28 1510860688.512723: $GPGSA,A,3,8,10,15,18,21,20,24,27,32,14,138,,1.6,0.8,1.3*37
2017-11-16 14:31:29 1510860689.512854: $GPZDA,193128.00,16,11,2017,00,00*65
2017-11-16 14:31:29 1510860689.513013: $GPGGA,193128,3946.9564,N,08404.9849,W,2,11,0.80,302.66,M,-33.324,M,,*70
2017-11-16 14:31:29 1510860689.513074: $GPRMC,193128,A,3946.9564,N,08404.9849,W,0.0000,0.000,161117,,*3C
2017-11-16 14:31:29 1510860689.513131: $GPGSA,A,3,8,10,15,18,21,20,24,27,32,14,138,,1.6,0.8,1.3*37
2017-11-16 14:31:30 1510860690.849920: $GPGSV,3,1,12,08,08,315,40,10,48,307,48,13,01,051,00,15,30,055,51*7A
2017-11-16 14:31:30 1510860690.850090: $GPGSV,3,2,12,18,75,358,45,21,55,186,44,20,27,102,46,24,53,096,50*7F
2017-11-16 14:31:30 1510860690.850151: $GPGSV,3,3,12,27,17,282,44,32,27,243,46,14,10,237,38,138,38,213,42*4C
2017-11-16 14:31:30 1510860690.963293: $GPZDA,193129.00,16,11,2017,00,00*64
2017-11-16 14:31:30 1510860690.963461: $GPGGA,193129,3946.9564,N,08404.9849,W,2,11,0.80,302.66,M,-33.324,M,,*71
2017-11-16 14:31:30 1510860690.963523: $GPRMC,193129,A,3946.9564,N,08404.9849,W,0.0000,0.000,161117,,*3D
2017-11-16 14:31:30 1510860690.963579: $GPGSA,A,3,8,10,15,18,21,20,24,27,32,14,138,,1.6,0.8,1.3*37
2017-11-16 14:31:31 1510860691.512813: $GPZDA,193130.00,16,11,2017,00,00*6C
2017-11-16 14:31:31 1510860691.512983: $GPGGA,193130,3946.9564,N,08404.9849,W,2,11,0.80,302.66,M,-33.324,M,,*79
2017-11-16 14:31:31 1510860691.513045: $GPRMC,193130,A,3946.9564,N,08404.9849,W,0.0000,0.000,161117,,*35
2017-11-16 14:31:31 1510860691.513101: $GPGSA,A,3,8,10,15,18,21,20,24,27,32,14,138,,1.6,0.8,1.3*37
2017-11-16 14:31:32 1510860692.513705: $GPZDA,193131.00,16,11,2017,00,00*6D
2017-11-16 14:31:32 1510860692.513867: $GPGGA,193131,3946.9564,N,08404.9849,W,2,11,0.80,302.66,M,-33.324,M,,*78
2017-11-16 14:31:32 1510860692.513930: $GPRMC,193131,A,3946.9564,N,08404.9849,W,0.0000,0.000,161117,,*34
2017-11-16 14:31:32 1510860692.513986: $GPGSA,A,3,8,10,15,18,21,20,24,27,32,14,138,,1.6,0.8,1.3*37
2017-11-16 14:31:33 1510860693.849654: $GPGSV,3,1,12,08,08,315,41,10,48,307,48,13,01,051,00,15,30,055,50*7A
2017-11-16 14:31:33 1510860693.849825: $GPGSV,3,2,12,18,75,358,45,21,55,186,45,20,27,102,46,24,53,096,50*7E
2017-11-16 14:31:33 1510860693.849885: $GPGSV,3,3,12,27,17,282,44,32,27,243,46,14,10,237,38,138,38,213,42*4C
2017-11-16 14:31:33 1510860693.961774: $GPZDA,193132.00,16,11,2017,00,00*6E
2017-11-16 14:31:33 1510860693.961942: $GPGGA,193132,3946.9564,N,08404.9849,W,2,11,0.80,302.66,M,-33.324,M,,*7B
2017-11-16 14:31:33 1510860693.962004: $GPRMC,193132,A,3946.9564,N,08404.9849,W,0.0000,0.000,161117,,*37
2017-11-16 14:31:33 1510860693.962059: $GPGSA,A,3,8,10,15,18,21,20,24,27,32,14,138,,1.6,0.8,1.3*37
2017-11-16 14:31:34 1510860694.588368: $GPZDA,193133.00,16,11,2017,00,00*6F
2017-11-16 14:31:34 1510860694.588540: $GPGGA,193133,3946.9564,N,08404.9849,W,2,11,0.80,302.66,M,-33.324,M,,*7A
2017-11-16 14:31:34 1510860694.588607: $GPRMC,193133,A,3946.9564,N,08404.9849,W,0.0000,0.000,161117,,*36
2017-11-16 14:31:34 1510860694.588666: $GPGSA,A,3,8,10,15,18,21,20,24,27,32,14,138,,1.6,0.8,1.3*37
2017-11-16 14:31:35 1510860695.512932: $GPZDA,193134.00,16,11,2017,00,00*68
2017-11-16 14:31:35 1510860695.513118: $GPGGA,193134,3946.9564,N,08404.9849,W,2,11,0.80,302.66,M,-33.324,M,,*7D
2017-11-16 14:31:35 1510860695.513206: $GPRMC,193134,A,3946.9564,N,08404.9849,W,0.0000,0.000,161117,,*31
2017-11-16 14:31:35 1510860695.513269: $GPGSA,A,3,8,10,15,18,21,20,24,27,32,14,138,,1.6,0.8,1.3*37
2017-11-16 14:31:36 1510860696.850003: $GPGSV,3,1,12,08,08,315,42,10,48,307,48,13,01,051,00,15,30,055,50*79
2017-11-16 14:31:36 1510860696.850229: $GPGSV,3,2,12,18,75,358,45,21,55,186,45,20,27,102,46,24,53,096,50*7E
2017-11-16 14:31:36 1510860696.850335: $GPGSV,3,3,12,27,17,282,44,32,27,243,46,14,10,237,38,138,38,213,43*4D
2017-11-16 14:31:36 1510860696.963906: $GPZDA,193135.00,16,11,2017,00,00*69
2017-11-16 14:31:36 1510860696.964096: $GPGGA,193135,3946.9564,N,08404.9849,W,2,11,0.80,302.66,M,-33.324,M,,*7C
2017-11-16 14:31:36 1510860696.964158: $GPRMC,193135,A,3946.9564,N,08404.9849,W,0.0000,0.000,161117,,*30
2017-11-16 14:31:36 1510860696.964214: $GPGSA,A,3,8,10,15,18,21,20,24,27,32,14,138,,1.6,0.8,1.3*37
2017-11-16 14:31:37 1510860697.511714: $GPZDA,193136.00,16,11,2017,00,00*6A
2017-11-16 14:31:37 1510860697.511873: $GPGGA,193136,3946.9564,N,08404.9849,W,2,11,0.80,302.66,M,-33.324,M,,*7F
2017-11-16 14:31:37 1510860697.511935: $GPRMC,193136,A,3946.9564,N,08404.9849,W,0.0000,0.000,161117,,*33
2017-11-16 14:31:37 1510860697.511991: $GPGSA,A,3,8,10,15,18,21,20,24,27,32,14,138,,1.6,0.8,1.3*37
2017-11-16 14:31:38 1510860698.546355: $GPZDA,193137.00,16,11,2017,00,00*6B
2017-11-16 14:31:38 1510860698.546533: $GPGGA,193137,3946.9564,N,08404.9849,W,2,11,0.80,302.66,M,-33.324,M,,*7E
2017-11-16 14:31:38 1510860698.546597: $GPRMC,193137,A,3946.9564,N,08404.9849,W,0.0000,0.000,161117,,*32
2017-11-16 14:31:38 1510860698.546654: $GPGSA,A,3,8,10,15,18,21,20,24,27,32,14,138,,1.6,0.8,1.3*37
2017-11-16 14:31:39 1510860699.883036: $GPGSV,3,1,12,08,08,315,42,10,48,307,48,13,01,051,00,15,30,055,50*79
2017-11-16 14:31:39 1510860699.883206: $GPGSV,3,2,12,18,75,358,45,21,55,186,45,20,27,102,46,24,53,096,50*7E
2017-11-16 14:31:39 1510860699.883267: $GPGSV,3,3,12,27,17,282,44,32,27,243,46,14,10,237,38,138,38,213,44*4A
2017-11-16 14:31:39 1510860699.996338: $GPZDA,193138.00,16,11,2017,00,00*64
2017-11-16 14:31:39 1510860699.996547: $GPGGA,193138,3946.9564,N,08404.9849,W,2,11,0.80,302.66,M,-33.324,M,,*71
2017-11-16 14:31:39 1510860699.996610: $GPRMC,193138,A,3946.9564,N,08404.9849,W,0.0000,0.000,161117,,*3D
2017-11-16 14:31:39 1510860699.996684: $GPGSA,A,3,8,10,15,18,21,20,24,27,32,14,138,,1.6,0.8,1.3*37
2017-11-16 14:31:40 1510860700.546113: $GPZDA,193139.00,16,11,2017,00,00*65
2017-11-16 14:31:40 1510860700.546265: $GPGGA,193139,3946.9564,N,08404.9849,W,2,11,0.80,302.66,M,-33.324,M,,*70
2017-11-16 14:31:40 1510860700.546326: $GPRMC,193139,A,3946.9564,N,08404.9849,W,0.0000,0.000,161117,,*3C
2017-11-16 14:31:40 1510860700.546382: $GPGSA,A,3,8,10,15,18,21,20,24,27,32,14,138,,1.6,0.8,1.3*37
2017-11-16 14:31:41 1510860701.546910: $GPZDA,193140.00,16,11,2017,00,00*6B
2017-11-16 14:31:41 1510860701.547075: $GPGGA,193140,3946.9564,N,08404.9849,W,2,11,0.80,302.66,M,-33.324,M,,*7E
2017-11-16 14:31:41 1510860701.547136: $GPRMC,193140,A,3946.9564,N,08404.9849,W,0.0000,0.000,161117,,*32
2017-11-16 14:31:41 1510860701.547214: $GPGSA,A,3,8,10,15,18,21,20,24,27,32,14,138,,1.6,0.8,1.3*37
2017-11-16 14:31:42 1510860702.879063: $GPGSV,3,1,12,08,08,315,41,10,48,307,48,13,01,051,00,15,30,055,51*7B
2017-11-16 14:31:42 1510860702.879197: $GPGSV,3,2,12,18,75,358,45,21,55,186,45,20,27,102,46,24,53,096,49*76
2017-11-16 14:31:42 1510860702.879257: $GPGSV,3,3,12,27,17,282,44,32,27,243,46,14,10,237,38,138,38,213,43*4D
2017-11-16 14:31:42 1510860702.992455: $GPZDA,193141.00,16,11,2017,00,00*6A
2017-11-16 14:31:42 1510860702.992629: $GPGGA,193141,3946.9564,N,08404.9849,W,2,11,0.80,302.66,M,-33.324,M,,*7F
2017-11-16 14:31:42 1510860702.992690: $GPRMC,193141,A,3946.9564,N,08404.9849,W,0.0000,0.000,161117,,*33
2017-11-16 14:31:42 1510860702.992750: $GPGSA,A,3,8,10,15,18,21,20,24,27,32,14,138,,1.6,0.8,1.3*37
2017-11-16 14:31:43 1510860703.512071: $GPZDA,193142.00,16,11,2017,00,00*69
2017-11-16 14:31:43 1510860703.512236: $GPGGA,193142,3946.9564,N,08404.9849,W,2,11,0.80,302.66,M,-33.324,M,,*7C
2017-11-16 14:31:43 1510860703.512298: $GPRMC,193142,A,3946.9564,N,08404.9849,W,0.0000,0.000,161117,,*30
2017-11-16 14:31:43 1510860703.512355: $GPGSA,A,3,8,10,15,18,21,20,24,27,32,14,138,,1.6,0.8,1.3*37
2017-11-16 14:31:44 1510860704.515036: $GPZDA,193143.00,16,11,2017,00,00*68
2017-11-16 14:31:44 1510860704.515196: $GPGGA,193143,3946.9564,N,08404.9849,W,2,11,0.80,302.66,M,-33.324,M,,*7D
2017-11-16 14:31:44 1510860704.515259: $GPRMC,193143,A,3946.9564,N,08404.9849,W,0.0000,0.000,161117,,*31
2017-11-16 14:31:44 1510860704.515315: $GPGSA,A,3,8,10,15,18,21,20,24,27,32,14,138,,1.6,0.8,1.3*37
2017-11-16 14:31:45 1510860705.848363: $GPGSV,3,1,12,08,08,315,32,10,48,307,47,13,01,051,00,15,30,055,51*70
2017-11-16 14:31:45 1510860705.848576: $GPGSV,3,2,12,18,75,358,44,21,55,186,45,20,27,102,46,24,53,096,49*77
2017-11-16 14:31:45 1510860705.848659: $GPGSV,3,3,12,27,17,282,44,32,27,243,46,14,10,237,39,138,38,213,43*4C
2017-11-16 14:31:45 1510860705.962106: $GPZDA,193144.00,16,11,2017,00,00*6F
2017-11-16 14:31:45 1510860705.962292: $GPGGA,193144,3946.9564,N,08404.9849,W,2,11,0.80,302.66,M,-33.324,M,,*7A
2017-11-16 14:31:45 1510860705.962356: $GPRMC,193144,A,3946.9564,N,08404.9849,W,0.0000,0.000,161117,,*36
2017-11-16 14:31:45 1510860705.962416: $GPGSA,A,3,8,10,15,18,21,20,24,27,32,14,138,,1.6,0.8,1.3*37
2017-11-16 14:31:46 1510860706.548766: $GPZDA,193145.00,16,11,2017,00,00*6E
2017-11-16 14:31:46 1510860706.548936: $GPGGA,193145,3946.9564,N,08404.9849,W,2,11,0.80,302.66,M,-33.324,M,,*7B
2017-11-16 14:31:46 1510860706.548998: $GPRMC,193145,A,3946.9564,N,08404.9849,W,0.0000,0.000,161117,,*37
2017-11-16 14:31:46 1510860706.549055: $GPGSA,A,3,8,10,15,18,21,20,24,27,32,14,138,,1.6,0.8,1.3*37
2017-11-16 14:31:47 1510860707.514699: $GPZDA,193146.00,16,11,2017,00,00*6D
2017-11-16 14:31:47 1510860707.514866: $GPGGA,193146,3946.9564,N,08404.9849,W,2,11,0.80,302.66,M,-33.324,M,,*78
2017-11-16 14:31:47 1510860707.514928: $GPRMC,193146,A,3946.9564,N,08404.9849,W,0.0000,0.000,161117,,*34
2017-11-16 14:31:47 1510860707.514984: $GPGSA,A,3,8,10,15,18,21,20,24,27,32,14,138,,1.6,0.8,1.3*37
2017-11-16 14:31:48 1510860708.845475: $GPGSV,3,1,12,08,08,315,32,10,48,307,48,13,01,051,00,15,30,055,51*7F
2017-11-16 14:31:48 1510860708.845646: $GPGSV,3,2,12,18,75,358,45,21,55,186,45,20,27,102,47,24,53,096,50*7F
2017-11-16 14:31:48 1510860708.845705: $GPGSV,3,3,12,27,17,282,44,32,27,243,47,14,10,237,39,138,38,213,44*4A
2017-11-16 14:31:48 1510860708.958820: $GPZDA,193147.00,16,11,2017,00,00*6C
2017-11-16 14:31:48 1510860708.958970: $GPGGA,193147,3946.9564,N,08404.9849,W,2,11,0.80,302.66,M,-33.324,M,,*79
2017-11-16 14:31:48 1510860708.959029: $GPRMC,193147,A,3946.9564,N,08404.9849,W,0.0000,0.000,161117,,*35
2017-11-16 14:31:48 1510860708.959085: $GPGSA,A,3,8,10,15,18,21,20,24,27,32,14,138,,1.6,0.8,1.3*37
2017-11-16 14:31:49 1510860709.585427: $GPZDA,193148.00,16,11,2017,00,00*63
2017-11-16 14:31:49 1510860709.585606: $GPGGA,193148,3946.9564,N,08404.9849,W,2,11,0.80,302.66,M,-33.324,M,,*76
2017-11-16 14:31:49 1510860709.585671: $GPRMC,193148,A,3946.9564,N,08404.9849,W,0.0000,0.000,161117,,*3A
2017-11-16 14:31:49 1510860709.585730: $GPGSA,A,3,8,10,15,18,21,20,24,27,32,14,138,,1.6,0.8,1.3*37
2017-11-16 14:31:50 1510860710.548935: $GPZDA,193149.00,16,11,2017,00,00*62
2017-11-16 14:31:50 1510860710.549101: $GPGGA,193149,3946.9564,N,08404.9849,W,2,11,0.80,302.66,M,-33.324,M,,*77
2017-11-16 14:31:50 1510860710.549165: $GPRMC,193149,A,3946.9564,N,08404.9849,W,0.0000,0.000,161117,,*3B
2017-11-16 14:31:50 1510860710.549224: $GPGSA,A,3,8,10,15,18,21,20,24,27,32,14,138,,1.6,0.8,1.3*37
