2017-11-15 18:27:16 1510788436.332039: {"class":"VERSION","release":"3.17","rev":"3.17","proto_major":3,"proto_minor":12}
2017-11-15 18:27:16 1510788436.337184: {"class":"DEVICES","devices":[{"class":"DEVICE","path":"/dev/ttyUSB0","driver":"SiRF","subtype":"9\u0006GSD4e_4.1.2-P1_RPATCH.05-F-GPS-4R-1510281 11/03/2015 307","activated":"2017-11-15T23:27:16.289Z","flags":1,"native":1,"bps":4800,"parity":"N","stopbits":1,"cycle":1.00}]}
2017-11-15 18:27:16 1510788436.337354: {"class":"WATCH","enable":true,"json":false,"nmea":true,"raw":0,"scaled":false,"timing":false,"split24":false,"pps":false}
2017-11-15 18:27:16 1510788436.402912: $GPZDA,232715.00,15,11,2017,00,00*66
2017-11-15 18:27:16 1510788436.403054: $GPGGA,232715,3946.9645,N,08404.9476,W,1,06,1.40,290.92,M,-33.324,M,,*79
2017-11-15 18:27:16 1510788436.403113: $GPRMC,232715,A,3946.9645,N,08404.9476,W,0.4179,328.778,151117,,*35
2017-11-15 18:27:16 1510788436.403168: $GPGSA,A,3,10,14,25,31,32,22,,,,,,,3.4,1.4,2.9*3B
2017-11-15 18:27:17 1510788437.358782: $GPZDA,232716.00,15,11,2017,00,00*65
2017-11-15 18:27:17 1510788437.358940: $GPGGA,232716,3946.9645,N,08404.9476,W,1,06,1.40,290.92,M,-33.324,M,,*7A
2017-11-15 18:27:17 1510788437.359001: $GPRMC,232716,A,3946.9645,N,08404.9476,W,0.7267,273.794,151117,,*34
2017-11-15 18:27:17 1510788437.359056: $GPGSA,A,3,10,14,25,31,32,22,,,,,,,3.4,1.4,2.9*3B
2017-11-15 18:27:18 1510788438.664558: $GPGSV,3,1,10,10,25,156,13,14,70,030,24,25,37,060,18,03,18,316,13*7B
2017-11-15 18:27:18 1510788438.664724: $GPGSV,3,2,10,31,76,265,22,32,57,073,16,26,22,178,00,22,37,304,20*70
2017-11-15 18:27:18 1510788438.664783: $GPGSV,3,3,10,01,20,277,00,12,09,034,00*74
2017-11-15 18:27:18 1510788438.777956: $GPZDA,232717.00,15,11,2017,00,00*64
2017-11-15 18:27:18 1510788438.778109: $GPGGA,232717,3946.9646,N,08404.9483,W,1,07,1.40,290.84,M,-33.324,M,,*74
2017-11-15 18:27:18 1510788438.778168: $GPRMC,232717,A,3946.9646,N,08404.9483,W,1.0298,254.382,151117,,*3C
2017-11-15 18:27:18 1510788438.778223: $GPGSA,A,3,10,14,25,3,31,32,22,,,,,,3.4,1.4,2.9*08
2017-11-15 18:27:19 1510788439.328755: $GPZDA,232718.00,15,11,2017,00,00*6B
2017-11-15 18:27:19 1510788439.328931: $GPGGA,232718,3946.9643,N,08404.9491,W,1,07,1.40,291.52,M,-33.324,M,,*77
2017-11-15 18:27:19 1510788439.328992: $GPRMC,232718,A,3946.9643,N,08404.9491,W,0.9689,273.794,151117,,*3F
2017-11-15 18:27:19 1510788439.329049: $GPGSA,A,3,10,14,25,3,31,32,22,,,,,,3.4,1.4,2.9*08
2017-11-15 18:27:20 1510788440.358365: $GPZDA,232719.00,15,11,2017,00,00*6A
2017-11-15 18:27:20 1510788440.358532: $GPGGA,232719,3946.9638,N,08404.9491,W,1,07,1.40,290.88,M,-33.324,M,,*7C
2017-11-15 18:27:20 1510788440.358594: $GPRMC,232719,A,3946.9638,N,08404.9491,W,0.8054,248.645,151117,,*30
2017-11-15 18:27:20 1510788440.358650: $GPGSA,A,3,10,14,25,3,31,32,22,,,,,,3.4,1.4,2.9*08
2017-11-15 18:27:21 1510788441.695058: $GPGSV,3,1,10,10,25,156,12,14,70,030,24,25,37,060,18,26,22,178,00*7C
2017-11-15 18:27:21 1510788441.695239: $GPGSV,3,2,10,31,76,265,22,32,57,073,16,01,20,277,00,22,37,304,20*7B
2017-11-15 18:27:21 1510788441.695300: $GPGSV,3,3,10,03,18,316,00,12,09,034,00*7B
2017-11-15 18:27:21 1510788441.808362: $GPZDA,232720.00,15,11,2017,00,00*60
2017-11-15 18:27:21 1510788441.808538: $GPGGA,232720,3946.9639,N,08404.9498,W,1,06,1.40,290.81,M,-33.324,M,,*76
2017-11-15 18:27:21 1510788441.808599: $GPRMC,232720,A,3946.9639,N,08404.9498,W,1.0018,230.691,151117,,*35
2017-11-15 18:27:21 1510788441.808654: $GPGSA,A,3,10,14,25,31,32,22,,,,,,,3.4,1.4,2.9*3B
2017-11-15 18:27:22 1510788442.328069: $GPZDA,232721.00,15,11,2017,00,00*61
2017-11-15 18:27:22 1510788442.328245: $GPGGA,232721,3946.9639,N,08404.9498,W,1,06,1.40,290.81,M,-33.324,M,,*77
2017-11-15 18:27:22 1510788442.328307: $GPRMC,232721,A,3946.9639,N,08404.9498,W,0.3423,184.197,151117,,*37
2017-11-15 18:27:22 1510788442.328362: $GPGSA,A,3,10,14,25,31,32,22,,,,,,,3.4,1.4,2.9*3B
2017-11-15 18:27:23 1510788443.327697: $GPZDA,232722.00,15,11,2017,00,00*62
2017-11-15 18:27:23 1510788443.327881: $GPGGA,232722,3946.9636,N,08404.9506,W,1,06,1.40,291.49,M,-33.324,M,,*78
2017-11-15 18:27:23 1510788443.327994: $GPRMC,232722,A,3946.9636,N,08404.9506,W,0.4207,219.347,151117,,*32
2017-11-15 18:27:23 1510788443.328052: $GPGSA,A,3,10,14,25,31,32,22,,,,,,,3.4,1.4,2.9*3B
2017-11-15 18:27:24 1510788444.663421: $GPGSV,3,1,10,10,25,156,12,14,70,030,24,25,37,060,18,03,18,316,14*7D
2017-11-15 18:27:24 1510788444.663568: $GPGSV,3,2,10,31,76,265,23,32,57,073,16,12,09,034,13,22,37,304,20*74
2017-11-15 18:27:24 1510788444.663627: $GPGSV,3,3,10,26,22,178,00,01,20,277,00*73
2017-11-15 18:27:24 1510788444.776803: $GPZDA,232723.00,15,11,2017,00,00*63
2017-11-15 18:27:24 1510788444.776975: $GPGGA,232723,3946.9636,N,08404.9506,W,1,06,1.40,291.49,M,-33.324,M,,*79
2017-11-15 18:27:24 1510788444.777036: $GPRMC,232723,A,3946.9636,N,08404.9506,W,0.7621,287.945,151117,,*3F
2017-11-15 18:27:24 1510788444.777092: $GPGSA,A,3,10,14,25,31,32,22,,,,,,,3.4,1.4,2.9*3B
2017-11-15 18:27:25 1510788445.327699: $GPZDA,232724.00,15,11,2017,00,00*64
2017-11-15 18:27:25 1510788445.327871: $GPGGA,232724,3946.9636,N,08404.9513,W,1,06,1.40,291.41,M,-33.324,M,,*72
2017-11-15 18:27:25 1510788445.327933: $GPRMC,232724,A,3946.9636,N,08404.9513,W,0.2422,273.794,151117,,*31
2017-11-15 18:27:25 1510788445.327989: $GPGSA,A,3,10,14,25,31,32,22,,,,,,,3.4,1.4,2.9*3B
