2017-11-16 15:34:44 1510864484.129527: {"class":"VERSION","release":"3.17","rev":"3.17","proto_major":3,"proto_minor":12}
2017-11-16 15:34:44 1510864484.129781: {"class":"DEVICES","devices":[{"class":"DEVICE","path":"/dev/ttyUSB0","driver":"SiRF","subtype":"9\u0006GSD4e_4.1.2-P1_RPATCH.05-F-GPS-4R-1510281 11/03/2015 307","activated":"2017-11-16T20:34:43.958Z","flags":1,"native":1,"bps":4800,"parity":"N","stopbits":1,"cycle":1.00}]}
2017-11-16 15:34:44 1510864484.129837: {"class":"WATCH","enable":true,"json":false,"nmea":true,"raw":0,"scaled":false,"timing":false,"split24":false,"pps":false}
2017-11-16 15:34:44 1510864484.375700: $GPZDA,203443.00,16,11,2017,00,00*67
2017-11-16 15:34:44 1510864484.375809: $GPGGA,203443,3946.9568,N,08404.9860,W,2,12,1.00,309.61,M,-33.324,M,,*73
2017-11-16 15:34:44 1510864484.375840: $GPRMC,203443,A,3946.9568,N,08404.9860,W,0.0000,0.000,161117,,*39
2017-11-16 15:34:44 1510864484.375868: $GPGSA,A,3,8,10,14,15,18,20,21,24,25,32,12,138,1.6,1.0,1.3*3F
2017-11-16 15:34:45 1510864485.375993: $GPZDA,203444.00,16,11,2017,00,00*60
2017-11-16 15:34:45 1510864485.376191: $GPGGA,203444,3946.9568,N,08404.9860,W,2,12,1.00,309.61,M,-33.324,M,,*74
2017-11-16 15:34:45 1510864485.376254: $GPRMC,203444,A,3946.9568,N,08404.9860,W,0.0000,0.000,161117,,*3E
2017-11-16 15:34:45 1510864485.376311: $GPGSA,A,3,8,10,14,15,18,20,21,24,25,32,12,138,1.6,1.0,1.3*3F
2017-11-16 15:34:46 1510864486.701258: $GPGSV,3,1,12,08,04,289,35,10,73,337,50,14,32,256,46,15,08,069,32*73
2017-11-16 15:34:46 1510864486.701429: $GPGSV,3,2,12,18,67,102,48,20,05,120,24,21,25,178,44,24,42,055,49*79
2017-11-16 15:34:46 1510864486.701490: $GPGSV,3,3,12,25,06,139,08,32,49,270,45,12,12,103,32,138,38,213,44*42
2017-11-16 15:34:46 1510864486.814577: $GPZDA,203445.00,16,11,2017,00,00*61
2017-11-16 15:34:46 1510864486.814736: $GPGGA,203445,3946.9568,N,08404.9860,W,2,12,1.00,309.61,M,-33.324,M,,*75
2017-11-16 15:34:46 1510864486.814797: $GPRMC,203445,A,3946.9568,N,08404.9860,W,0.0000,0.000,161117,,*3F
2017-11-16 15:34:46 1510864486.814853: $GPGSA,A,3,8,10,14,15,18,20,21,24,25,32,12,138,1.6,1.0,1.3*3F
2017-11-16 15:34:47 1510864487.391755: $GPZDA,203446.00,16,11,2017,00,00*62
2017-11-16 15:34:47 1510864487.391921: $GPGGA,203446,3946.9568,N,08404.9860,W,2,12,1.00,309.61,M,-33.324,M,,*76
2017-11-16 15:34:47 1510864487.391983: $GPRMC,203446,A,3946.9568,N,08404.9860,W,0.0000,0.000,161117,,*3C
2017-11-16 15:34:47 1510864487.392061: $GPGSA,A,3,8,10,14,15,18,20,21,24,25,32,12,138,1.6,1.0,1.3*3F
2017-11-16 15:34:48 1510864488.368304: $GPZDA,203447.00,16,11,2017,00,00*63
2017-11-16 15:34:48 1510864488.368468: $GPGGA,203447,3946.9568,N,08404.9860,W,2,12,1.00,309.61,M,-33.324,M,,*77
2017-11-16 15:34:48 1510864488.368521: $GPRMC,203447,A,3946.9568,N,08404.9860,W,0.0000,0.000,161117,,*3D
2017-11-16 15:34:48 1510864488.368567: $GPGSA,A,3,8,10,14,15,18,20,21,24,25,32,12,138,1.6,1.0,1.3*3F
2017-11-16 15:34:49 1510864489.703164: $GPGSV,3,1,12,08,04,289,36,10,73,337,50,14,32,256,45,15,08,069,32*73
2017-11-16 15:34:49 1510864489.703276: $GPGSV,3,2,12,18,67,102,48,20,05,120,25,21,25,178,45,24,42,055,49*79
2017-11-16 15:34:49 1510864489.703306: $GPGSV,3,3,12,25,06,139,16,32,49,270,45,12,12,103,32,138,38,213,44*4D
2017-11-16 15:34:49 1510864489.816014: $GPZDA,203448.00,16,11,2017,00,00*6C
2017-11-16 15:34:49 1510864489.816129: $GPGGA,203448,3946.9568,N,08404.9860,W,2,12,1.00,309.61,M,-33.324,M,,*78
2017-11-16 15:34:49 1510864489.816160: $GPRMC,203448,A,3946.9568,N,08404.9860,W,0.0000,0.000,161117,,*32
2017-11-16 15:34:49 1510864489.816188: $GPGSA,A,3,8,10,14,15,18,20,21,24,25,32,12,138,1.6,1.0,1.3*3F
2017-11-16 15:34:50 1510864490.382521: $GPZDA,203449.00,16,11,2017,00,00*6D
2017-11-16 15:34:50 1510864490.382680: $GPGGA,203449,3946.9568,N,08404.9860,W,2,12,1.00,309.61,M,-33.324,M,,*79
2017-11-16 15:34:50 1510864490.382742: $GPRMC,203449,A,3946.9568,N,08404.9860,W,0.0000,0.000,161117,,*33
2017-11-16 15:34:50 1510864490.382797: $GPGSA,A,3,8,10,14,15,18,20,21,24,25,32,12,138,1.6,1.0,1.3*3F
2017-11-16 15:34:51 1510864491.366789: $GPZDA,203450.00,16,11,2017,00,00*65
2017-11-16 15:34:51 1510864491.367073: $GPGGA,203450,3946.9568,N,08404.9860,W,2,12,1.00,309.61,M,-33.324,M,,*71
2017-11-16 15:34:51 1510864491.367163: $GPRMC,203450,A,3946.9568,N,08404.9860,W,0.0000,0.000,161117,,*3B
2017-11-16 15:34:51 1510864491.367221: $GPGSA,A,3,8,10,14,15,18,20,21,24,25,32,12,138,1.6,1.0,1.3*3F
2017-11-16 15:34:52 1510864492.712576: $GPGSV,3,1,12,08,04,289,38,10,73,337,50,14,32,256,45,15,08,069,31*7E
2017-11-16 15:34:52 1510864492.712747: $GPGSV,3,2,12,18,67,102,48,20,05,120,26,21,25,178,44,24,42,055,49*7B
2017-11-16 15:34:52 1510864492.712808: $GPGSV,3,3,12,25,06,139,21,32,49,270,44,12,12,103,32,138,38,213,44*48
2017-11-16 15:34:52 1510864492.825893: $GPZDA,203451.00,16,11,2017,00,00*64
2017-11-16 15:34:52 1510864492.826115: $GPGGA,203451,3946.9568,N,08404.9860,W,2,12,1.00,309.61,M,-33.324,M,,*70
2017-11-16 15:34:52 1510864492.826177: $GPRMC,203451,A,3946.9568,N,08404.9860,W,0.0000,0.000,161117,,*3A
2017-11-16 15:34:52 1510864492.826233: $GPGSA,A,3,8,10,14,15,18,20,21,24,25,32,12,138,1.6,1.0,1.3*3F
2017-11-16 15:34:53 1510864493.366749: $GPZDA,203452.00,16,11,2017,00,00*67
2017-11-16 15:34:53 1510864493.366903: $GPGGA,203452,3946.9568,N,08404.9860,W,2,12,1.00,309.61,M,-33.324,M,,*73
2017-11-16 15:34:53 1510864493.366983: $GPRMC,203452,A,3946.9568,N,08404.9860,W,0.0000,0.000,161117,,*39
2017-11-16 15:34:53 1510864493.367041: $GPGSA,A,3,8,10,14,15,18,20,21,24,25,32,12,138,1.6,1.0,1.3*3F
