2017-11-16 16:53:46 1510869226.770416: {"class":"VERSION","release":"3.17","rev":"3.17","proto_major":3,"proto_minor":12}
2017-11-16 16:53:46 1510869226.770896: {"class":"DEVICES","devices":[{"class":"DEVICE","path":"/dev/ttyUSB0","driver":"SiRF","subtype":"9\u0006GSD4e_4.1.2-P1_RPATCH.05-F-GPS-4R-1510281 11/03/2015 307","activated":"2017-11-16T21:53:46.602Z","flags":1,"native":1,"bps":4800,"parity":"N","stopbits":1,"cycle":1.00}]}
2017-11-16 16:53:46 1510869226.771015: {"class":"WATCH","enable":true,"json":false,"nmea":true,"raw":0,"scaled":false,"timing":false,"split24":false,"pps":false}
2017-11-16 16:53:47 1510869227.796733: $GPGSV,3,1,12,01,15,316,36,10,67,135,50,11,11,298,35,12,25,069,48*7C
2017-11-16 16:53:47 1510869227.796920: $GPGSV,3,2,12,14,56,295,46,18,35,136,39,24,12,045,39,25,31,112,41*7C
2017-11-16 16:53:47 1510869227.796990: $GPGSV,3,3,12,31,37,213,46,32,68,334,51,22,04,310,00,138,38,213,44*46
2017-11-16 16:53:47 1510869227.909829: $GPZDA,215346.00,16,11,2017,00,00*62
2017-11-16 16:53:47 1510869227.909984: $GPGGA,215346,3946.9585,N,08404.9829,W,2,11,0.80,307.50,M,-33.324,M,,*7E
2017-11-16 16:53:47 1510869227.910045: $GPRMC,215346,A,3946.9585,N,08404.9829,W,0.0000,0.000,161117,,*32
2017-11-16 16:53:47 1510869227.910101: $GPGSA,A,3,1,10,11,12,14,18,24,25,31,32,138,,1.6,0.8,1.3*38
2017-11-16 16:53:48 1510869228.445782: $GPZDA,215347.00,16,11,2017,00,00*63
2017-11-16 16:53:48 1510869228.445942: $GPGGA,215347,3946.9585,N,08404.9829,W,2,11,0.80,307.50,M,-33.324,M,,*7F
2017-11-16 16:53:48 1510869228.446004: $GPRMC,215347,A,3946.9585,N,08404.9829,W,0.0000,0.000,161117,,*33
2017-11-16 16:53:48 1510869228.446076: $GPGSA,A,3,1,10,11,12,14,18,24,25,31,32,138,,1.6,0.8,1.3*38
2017-11-16 16:53:49 1510869229.460353: $GPZDA,215348.00,16,11,2017,00,00*6C
2017-11-16 16:53:49 1510869229.460538: $GPGGA,215348,3946.9585,N,08404.9829,W,2,11,0.80,307.50,M,-33.324,M,,*70
2017-11-16 16:53:49 1510869229.460601: $GPRMC,215348,A,3946.9585,N,08404.9829,W,0.0000,0.000,161117,,*3C
2017-11-16 16:53:49 1510869229.460658: $GPGSA,A,3,1,10,11,12,14,18,24,25,31,32,138,,1.6,0.8,1.3*38
2017-11-16 16:53:50 1510869230.774949: $GPGSV,3,1,12,01,15,316,36,10,67,135,50,11,11,298,35,12,25,069,48*7C
2017-11-16 16:53:50 1510869230.775165: $GPGSV,3,2,12,14,56,295,46,18,35,136,38,24,12,045,39,25,31,112,41*7D
2017-11-16 16:53:50 1510869230.775227: $GPGSV,3,3,12,31,37,213,47,32,68,334,51,22,04,310,00,138,38,213,44*47
2017-11-16 16:53:50 1510869230.888303: $GPZDA,215349.00,16,11,2017,00,00*6D
2017-11-16 16:53:50 1510869230.888478: $GPGGA,215349,3946.9585,N,08404.9829,W,2,11,0.80,307.50,M,-33.324,M,,*71
2017-11-16 16:53:50 1510869230.888540: $GPRMC,215349,A,3946.9585,N,08404.9829,W,0.0000,0.000,161117,,*3D
2017-11-16 16:53:50 1510869230.888595: $GPGSA,A,3,1,10,11,12,14,18,24,25,31,32,138,,1.6,0.8,1.3*38
2017-11-16 16:53:51 1510869231.513714: $GPZDA,215350.00,16,11,2017,00,00*65
2017-11-16 16:53:51 1510869231.513876: $GPGGA,215350,3946.9585,N,08404.9829,W,2,11,0.80,307.50,M,-33.324,M,,*79
2017-11-16 16:53:51 1510869231.513938: $GPRMC,215350,A,3946.9585,N,08404.9829,W,0.0000,0.000,161117,,*35
2017-11-16 16:53:51 1510869231.513994: $GPGSA,A,3,1,10,11,12,14,18,24,25,31,32,138,,1.6,0.8,1.3*38
2017-11-16 16:53:52 1510869232.469225: $GPZDA,215351.00,16,11,2017,00,00*64
2017-11-16 16:53:52 1510869232.469389: $GPGGA,215351,3946.9585,N,08404.9829,W,2,11,0.80,307.50,M,-33.324,M,,*78
2017-11-16 16:53:52 1510869232.469450: $GPRMC,215351,A,3946.9585,N,08404.9829,W,0.0000,0.000,161117,,*34
2017-11-16 16:53:52 1510869232.469519: $GPGSA,A,3,1,10,11,12,14,18,24,25,31,32,138,,1.6,0.8,1.3*38
2017-11-16 16:53:53 1510869233.780323: $GPGSV,3,1,12,01,15,316,35,10,67,135,50,11,11,298,35,12,25,069,48*7F
2017-11-16 16:53:53 1510869233.780489: $GPGSV,3,2,12,14,56,295,46,18,35,136,37,24,12,045,40,25,31,112,41*7C
2017-11-16 16:53:53 1510869233.780550: $GPGSV,3,3,12,31,37,213,46,32,68,334,51,22,04,310,00,138,38,213,44*46
2017-11-16 16:53:53 1510869233.893616: $GPZDA,215352.00,16,11,2017,00,00*67
2017-11-16 16:53:53 1510869233.893777: $GPGGA,215352,3946.9585,N,08404.9829,W,2,11,0.80,307.50,M,-33.324,M,,*7B
2017-11-16 16:53:53 1510869233.893890: $GPRMC,215352,A,3946.9585,N,08404.9829,W,0.0000,0.000,161117,,*37
2017-11-16 16:53:53 1510869233.893966: $GPGSA,A,3,1,10,11,12,14,18,24,25,31,32,138,,1.6,0.8,1.3*38
2017-11-16 16:53:54 1510869234.463734: $GPZDA,215353.00,16,11,2017,00,00*66
2017-11-16 16:53:54 1510869234.463893: $GPGGA,215353,3946.9585,N,08404.9829,W,2,11,0.80,307.50,M,-33.324,M,,*7A
2017-11-16 16:53:54 1510869234.463973: $GPRMC,215353,A,3946.9585,N,08404.9829,W,0.0000,0.000,161117,,*36
2017-11-16 16:53:54 1510869234.464030: $GPGSA,A,3,1,10,11,12,14,18,24,25,31,32,138,,1.6,0.8,1.3*38
2017-11-16 16:53:55 1510869235.463343: $GPZDA,215354.00,16,11,2017,00,00*61
2017-11-16 16:53:55 1510869235.463499: $GPGGA,215354,3946.9585,N,08404.9829,W,2,11,0.80,307.50,M,-33.324,M,,*7D
2017-11-16 16:53:55 1510869235.463560: $GPRMC,215354,A,3946.9585,N,08404.9829,W,0.0000,0.000,161117,,*31
2017-11-16 16:53:55 1510869235.463615: $GPGSA,A,3,1,10,11,12,14,18,24,25,31,32,138,,1.6,0.8,1.3*38
