2018-01-11 20:25:39 1515720339.369114: {"class":"VERSION","release":"3.16","rev":"3.16-4","proto_major":3,"proto_minor":11}
2018-01-11 20:25:39 1515720339.369482: {"class":"DEVICES","devices":[{"class":"DEVICE","path":"/dev/ttyUSB0","driver":"SiRF","subtype":"9\u0006GSD4e_4.1.2-P1_RPATCH.05-F-GPS-4R-1510281 11/03/2015 307","activated":"2018-01-12T01:25:39.244Z","flags":1,"native":1,"bps":4800,"parity":"N","stopbits":1,"cycle":1.00}]}
2018-01-11 20:25:39 1515720339.369594: {"class":"WATCH","enable":true,"json":false,"nmea":true,"raw":0,"scaled":false,"timing":false,"split24":false,"pps":false}
2018-01-11 20:25:39 1515720339.693367: $GPGSV,3,1,11,07,62,316,45,08,75,103,45,09,42,222,40,11,26,165,46*79
2018-01-11 20:25:39 1515720339.693546: $GPGSV,3,2,11,16,18,064,37,23,22,187,47,27,42,049,49,30,35,307,32*7F
2018-01-11 20:25:39 1515720339.693611: $GPGSV,3,3,11,28,18,264,35,01,03,160,19,138,38,213,45*71
2018-01-11 20:25:39 1515720339.806700: $GPZDA,012540.00,12,01,2018,00,00*6D
2018-01-11 20:25:39 1515720339.806828: $GPGGA,012540,3946.9584,N,08404.9830,W,2,11,0.80,296.83,M,-33.324,M,,*75
2018-01-11 20:25:39 1515720339.806893: $GPRMC,012540,A,3946.9584,N,08404.9830,W,0.0000,0.000,120118,,*34
2018-01-11 20:25:39 1515720339.806954: $GPGSA,A,3,7,8,9,11,16,23,27,30,28,1,138,,4.0,0.8,3.5*0F
2018-01-11 20:25:40 1515720340.341431: $GPZDA,012541.00,12,01,2018,00,00*6C
2018-01-11 20:25:40 1515720340.341584: $GPGGA,012541,3946.9584,N,08404.9830,W,2,11,0.80,296.83,M,-33.324,M,,*74
2018-01-11 20:25:40 1515720340.341650: $GPRMC,012541,A,3946.9584,N,08404.9830,W,0.0000,0.000,120118,,*35
2018-01-11 20:25:40 1515720340.341710: $GPGSA,A,3,7,8,9,11,16,23,27,30,28,1,138,,4.0,0.8,3.5*0F
2018-01-11 20:25:41 1515720341.340985: $GPZDA,012542.00,12,01,2018,00,00*6F
2018-01-11 20:25:41 1515720341.341202: $GPGGA,012542,3946.9584,N,08404.9830,W,2,11,0.80,296.83,M,-33.324,M,,*77
2018-01-11 20:25:41 1515720341.341270: $GPRMC,012542,A,3946.9584,N,08404.9830,W,0.0000,0.000,120118,,*36
2018-01-11 20:25:41 1515720341.341331: $GPGSA,A,3,7,8,9,11,16,23,27,30,28,1,138,,4.0,0.8,3.5*0F
2018-01-11 20:25:42 1515720342.678071: $GPGSV,3,1,11,07,62,316,45,08,75,103,45,09,42,222,40,11,26,165,46*79
2018-01-11 20:25:42 1515720342.678242: $GPGSV,3,2,11,16,18,064,37,23,22,187,47,27,42,049,50,30,35,307,26*72
2018-01-11 20:25:42 1515720342.678309: $GPGSV,3,3,11,28,18,264,36,01,03,160,19,138,38,213,45*72
2018-01-11 20:25:42 1515720342.791551: $GPZDA,012543.00,12,01,2018,00,00*6E
2018-01-11 20:25:42 1515720342.791690: $GPGGA,012543,3946.9584,N,08404.9830,W,2,11,0.80,296.83,M,-33.324,M,,*76
2018-01-11 20:25:42 1515720342.791757: $GPRMC,012543,A,3946.9584,N,08404.9830,W,0.0000,0.000,120118,,*37
2018-01-11 20:25:42 1515720342.791819: $GPGSA,A,3,7,8,9,11,16,23,27,30,28,1,138,,4.0,0.8,3.5*0F
2018-01-11 20:25:43 1515720343.338509: $GPZDA,012544.00,12,01,2018,00,00*69
2018-01-11 20:25:43 1515720343.338694: $GPGGA,012544,3946.9584,N,08404.9830,W,2,11,0.80,296.83,M,-33.324,M,,*71
2018-01-11 20:25:43 1515720343.338782: $GPRMC,012544,A,3946.9584,N,08404.9830,W,0.0000,0.000,120118,,*30
2018-01-11 20:25:43 1515720343.338845: $GPGSA,A,3,7,8,9,11,16,23,27,30,28,1,138,,4.0,0.8,3.5*0F
2018-01-11 20:25:44 1515720344.341422: $GPZDA,012545.00,12,01,2018,00,00*68
2018-01-11 20:25:44 1515720344.341577: $GPGGA,012545,3946.9584,N,08404.9830,W,2,11,0.80,296.83,M,-33.324,M,,*70
2018-01-11 20:25:44 1515720344.341645: $GPRMC,012545,A,3946.9584,N,08404.9830,W,0.0000,0.000,120118,,*31
2018-01-11 20:25:44 1515720344.341706: $GPGSA,A,3,7,8,9,11,16,23,27,30,28,1,138,,4.0,0.8,3.5*0F
2018-01-11 20:25:45 1515720345.678353: $GPGSV,3,1,11,07,62,316,44,08,75,103,45,09,42,222,39,11,26,165,46*76
2018-01-11 20:25:45 1515720345.678532: $GPGSV,3,2,11,16,18,064,37,23,22,187,46,27,42,049,50,30,35,307,30*74
2018-01-11 20:25:45 1515720345.678598: $GPGSV,3,3,11,28,18,264,36,01,03,160,19,138,38,213,44*73
2018-01-11 20:25:45 1515720345.792075: $GPZDA,012546.00,12,01,2018,00,00*6B
2018-01-11 20:25:45 1515720345.792214: $GPGGA,012546,3946.9584,N,08404.9830,W,2,11,0.80,296.83,M,-33.324,M,,*73
2018-01-11 20:25:45 1515720345.792281: $GPRMC,012546,A,3946.9584,N,08404.9830,W,0.0000,0.000,120118,,*32
2018-01-11 20:25:45 1515720345.792387: $GPGSA,A,3,7,8,9,11,16,23,27,30,28,1,138,,4.0,0.8,3.5*0F
2018-01-11 20:25:46 1515720346.342958: $GPZDA,012547.00,12,01,2018,00,00*6A
2018-01-11 20:25:46 1515720346.343120: $GPGGA,012547,3946.9584,N,08404.9830,W,2,11,0.80,296.83,M,-33.324,M,,*72
2018-01-11 20:25:46 1515720346.343187: $GPRMC,012547,A,3946.9584,N,08404.9830,W,0.0000,0.000,120118,,*33
2018-01-11 20:25:46 1515720346.343249: $GPGSA,A,3,7,8,9,11,16,23,27,30,28,1,138,,4.0,0.8,3.5*0F
2018-01-11 20:25:47 1515720347.341336: $GPZDA,012548.00,12,01,2018,00,00*65
2018-01-11 20:25:47 1515720347.341492: $GPGGA,012548,3946.9584,N,08404.9830,W,2,11,0.80,296.83,M,-33.324,M,,*7D
2018-01-11 20:25:47 1515720347.341575: $GPRMC,012548,A,3946.9584,N,08404.9830,W,0.0000,0.000,120118,,*3C
2018-01-11 20:25:47 1515720347.341638: $GPGSA,A,3,7,8,9,11,16,23,27,30,28,1,138,,4.0,0.8,3.5*0F
2018-01-11 20:25:48 1515720348.671643: $GPGSV,3,1,11,07,62,316,45,08,75,103,46,09,42,222,40,11,26,165,47*7B
2018-01-11 20:25:48 1515720348.671841: $GPGSV,3,2,11,16,18,064,36,23,22,187,46,27,42,049,50,30,35,307,28*7C
2018-01-11 20:25:48 1515720348.671910: $GPGSV,3,3,11,28,18,264,37,01,03,160,20,138,38,213,45*79
2018-01-11 20:25:48 1515720348.785025: $GPZDA,012549.00,12,01,2018,00,00*64
2018-01-11 20:25:48 1515720348.785184: $GPGGA,012549,3946.9584,N,08404.9830,W,2,11,0.80,296.83,M,-33.324,M,,*7C
2018-01-11 20:25:48 1515720348.785252: $GPRMC,012549,A,3946.9584,N,08404.9830,W,0.0000,0.000,120118,,*3D
2018-01-11 20:25:48 1515720348.785313: $GPGSA,A,3,7,8,9,11,16,23,27,30,28,1,138,,4.0,0.8,3.5*0F
2018-01-11 20:25:49 1515720349.410455: $GPZDA,012550.00,12,01,2018,00,00*6C
2018-01-11 20:25:49 1515720349.410625: $GPGGA,012550,3946.9584,N,08404.9830,W,2,11,0.80,296.83,M,-33.324,M,,*74
2018-01-11 20:25:49 1515720349.410692: $GPRMC,012550,A,3946.9584,N,08404.9830,W,0.0000,0.000,120118,,*35
2018-01-11 20:25:49 1515720349.410755: $GPGSA,A,3,7,8,9,11,16,23,27,30,28,1,138,,4.0,0.8,3.5*0F
2018-01-11 20:25:50 1515720350.337521: $GPZDA,012551.00,12,01,2018,00,00*6D
2018-01-11 20:25:50 1515720350.337688: $GPGGA,012551,3946.9584,N,08404.9830,W,2,11,0.80,296.83,M,-33.324,M,,*75
2018-01-11 20:25:50 1515720350.337757: $GPRMC,012551,A,3946.9584,N,08404.9830,W,0.0000,0.000,120118,,*34
2018-01-11 20:25:50 1515720350.337836: $GPGSA,A,3,7,8,9,11,16,23,27,30,28,1,138,,4.0,0.8,3.5*0F
2018-01-11 20:25:51 1515720351.677002: $GPGSV,3,1,11,07,62,316,45,08,75,103,46,09,42,222,40,11,26,165,46*7A
2018-01-11 20:25:51 1515720351.677194: $GPGSV,3,2,11,16,18,064,36,23,22,187,46,27,42,049,50,30,35,307,27*73
2018-01-11 20:25:51 1515720351.677263: $GPGSV,3,3,11,28,18,264,37,01,03,160,20,138,38,213,45*79
2018-01-11 20:25:51 1515720351.790371: $GPZDA,012552.00,12,01,2018,00,00*6E
2018-01-11 20:25:51 1515720351.790484: $GPGGA,012552,3946.9584,N,08404.9830,W,2,11,0.80,296.83,M,-33.324,M,,*76
2018-01-11 20:25:51 1515720351.790549: $GPRMC,012552,A,3946.9584,N,08404.9830,W,0.0000,0.000,120118,,*37
2018-01-11 20:25:51 1515720351.790610: $GPGSA,A,3,7,8,9,11,16,23,27,30,28,1,138,,4.0,0.8,3.5*0F
2018-01-11 20:25:52 1515720352.341217: $GPZDA,012553.00,12,01,2018,00,00*6F
2018-01-11 20:25:52 1515720352.341390: $GPGGA,012553,3946.9584,N,08404.9830,W,2,11,0.80,296.83,M,-33.324,M,,*77
2018-01-11 20:25:52 1515720352.341458: $GPRMC,012553,A,3946.9584,N,08404.9830,W,0.0000,0.000,120118,,*36
2018-01-11 20:25:52 1515720352.341519: $GPGSA,A,3,7,8,9,11,16,23,27,30,28,1,138,,4.0,0.8,3.5*0F
