2017-11-16 17:11:37 1510870297.613170: {"class":"VERSION","release":"3.17","rev":"3.17","proto_major":3,"proto_minor":12}
2017-11-16 17:11:37 1510870297.613589: {"class":"DEVICES","devices":[{"class":"DEVICE","path":"/dev/ttyUSB0","driver":"SiRF","subtype":"9\u0006GSD4e_4.1.2-P1_RPATCH.05-F-GPS-4R-1510281 11/03/2015 307","activated":"2017-11-16T22:11:37.557Z","flags":1,"native":1,"bps":4800,"parity":"N","stopbits":1,"cycle":1.00}]}
2017-11-16 17:11:37 1510870297.613706: {"class":"WATCH","enable":true,"json":false,"nmea":true,"raw":0,"scaled":false,"timing":false,"split24":false,"pps":false}
2017-11-16 17:11:38 1510870298.392525: $GPZDA,221137.00,16,11,2017,00,00*61
2017-11-16 17:11:38 1510870298.392703: $GPGGA,221137,3946.9568,N,08404.9826,W,2,12,0.80,312.81,M,-33.324,M,,*7A
2017-11-16 17:11:38 1510870298.392765: $GPRMC,221137,A,3946.9568,N,08404.9826,W,0.0000,0.000,161117,,*3D
2017-11-16 17:11:38 1510870298.392823: $GPGSA,A,3,1,10,24,12,14,18,22,11,25,31,32,138,1.6,0.8,1.3*38
2017-11-16 17:11:39 1510870299.734549: $GPGSV,3,1,12,01,19,310,41,10,59,142,47,24,05,046,28,12,25,060,50*73
2017-11-16 17:11:39 1510870299.734729: $GPGSV,3,2,12,14,61,309,46,18,28,141,45,22,11,312,43,11,10,291,38*70
2017-11-16 17:11:39 1510870299.734790: $GPGSV,3,3,12,25,36,103,47,31,45,217,49,32,70,358,49,138,38,213,44*47
2017-11-16 17:11:39 1510870299.847925: $GPZDA,221138.00,16,11,2017,00,00*6E
2017-11-16 17:11:39 1510870299.848116: $GPGGA,221138,3946.9568,N,08404.9826,W,2,12,0.80,312.81,M,-33.324,M,,*75
2017-11-16 17:11:39 1510870299.848180: $GPRMC,221138,A,3946.9568,N,08404.9826,W,0.0000,0.000,161117,,*32
2017-11-16 17:11:39 1510870299.848239: $GPGSA,A,3,1,10,24,12,14,18,22,11,25,31,32,138,1.6,0.8,1.3*38
2017-11-16 17:11:40 1510870300.398750: $GPZDA,221139.00,16,11,2017,00,00*6F
2017-11-16 17:11:40 1510870300.398918: $GPGGA,221139,3946.9568,N,08404.9826,W,2,12,0.80,312.81,M,-33.324,M,,*74
2017-11-16 17:11:40 1510870300.398981: $GPRMC,221139,A,3946.9568,N,08404.9826,W,0.0000,0.000,161117,,*33
2017-11-16 17:11:40 1510870300.399037: $GPGSA,A,3,1,10,24,12,14,18,22,11,25,31,32,138,1.6,0.8,1.3*38
2017-11-16 17:11:41 1510870301.399124: $GPZDA,221140.00,16,11,2017,00,00*61
2017-11-16 17:11:41 1510870301.399288: $GPGGA,221140,3946.9568,N,08404.9826,W,2,12,0.80,312.81,M,-33.324,M,,*7A
2017-11-16 17:11:41 1510870301.399350: $GPRMC,221140,A,3946.9568,N,08404.9826,W,0.0000,0.000,161117,,*3D
2017-11-16 17:11:41 1510870301.399406: $GPGSA,A,3,1,10,24,12,14,18,22,11,25,31,32,138,1.6,0.8,1.3*38
2017-11-16 17:11:42 1510870302.734919: $GPGSV,3,1,12,01,19,310,42,10,59,142,47,24,05,046,28,12,25,060,50*70
2017-11-16 17:11:42 1510870302.735131: $GPGSV,3,2,12,14,61,309,47,18,28,141,45,22,11,312,43,11,10,291,39*70
2017-11-16 17:11:42 1510870302.735197: $GPGSV,3,3,12,25,36,103,47,31,45,217,49,32,70,358,49,138,38,213,44*47
2017-11-16 17:11:42 1510870302.848229: $GPZDA,221141.00,16,11,2017,00,00*60
2017-11-16 17:11:42 1510870302.848392: $GPGGA,221141,3946.9568,N,08404.9826,W,2,12,0.80,312.81,M,-33.324,M,,*7B
2017-11-16 17:11:42 1510870302.848454: $GPRMC,221141,A,3946.9568,N,08404.9826,W,0.0000,0.000,161117,,*3C
2017-11-16 17:11:42 1510870302.848510: $GPGSA,A,3,1,10,24,12,14,18,22,11,25,31,32,138,1.6,0.8,1.3*38
2017-11-16 17:11:43 1510870303.415393: $GPZDA,221142.00,16,11,2017,00,00*63
2017-11-16 17:11:43 1510870303.415542: $GPGGA,221142,3946.9568,N,08404.9826,W,2,12,0.80,312.81,M,-33.324,M,,*78
2017-11-16 17:11:43 1510870303.415607: $GPRMC,221142,A,3946.9568,N,08404.9826,W,0.0000,0.000,161117,,*3F
2017-11-16 17:11:43 1510870303.415663: $GPGSA,A,3,1,10,24,12,14,18,22,11,25,31,32,138,1.6,0.8,1.3*38
2017-11-16 17:11:44 1510870304.399966: $GPZDA,221143.00,16,11,2017,00,00*62
2017-11-16 17:11:44 1510870304.400138: $GPGGA,221143,3946.9568,N,08404.9826,W,2,12,0.80,312.81,M,-33.324,M,,*79
2017-11-16 17:11:44 1510870304.400201: $GPRMC,221143,A,3946.9568,N,08404.9826,W,0.0000,0.000,161117,,*3E
2017-11-16 17:11:44 1510870304.400257: $GPGSA,A,3,1,10,24,12,14,18,22,11,25,31,32,138,1.6,0.8,1.3*38
2017-11-16 17:11:45 1510870305.745800: $GPGSV,3,1,12,01,19,310,42,10,59,142,47,24,05,046,27,12,25,060,50*7F
2017-11-16 17:11:45 1510870305.746017: $GPGSV,3,2,12,14,61,309,46,18,28,141,45,22,11,312,43,11,10,291,39*71
2017-11-16 17:11:45 1510870305.746081: $GPGSV,3,3,12,25,36,103,47,31,45,217,49,32,70,358,49,138,38,213,44*47
2017-11-16 17:11:45 1510870305.859060: $GPZDA,221144.00,16,11,2017,00,00*65
2017-11-16 17:11:45 1510870305.859224: $GPGGA,221144,3946.9568,N,08404.9826,W,2,12,0.80,312.81,M,-33.324,M,,*7E
2017-11-16 17:11:45 1510870305.859284: $GPRMC,221144,A,3946.9568,N,08404.9826,W,0.0000,0.000,161117,,*39
2017-11-16 17:11:45 1510870305.859340: $GPGSA,A,3,1,10,24,12,14,18,22,11,25,31,32,138,1.6,0.8,1.3*38
2017-11-16 17:11:46 1510870306.484830: $GPZDA,221145.00,16,11,2017,00,00*64
2017-11-16 17:11:46 1510870306.484990: $GPGGA,221145,3946.9568,N,08404.9826,W,2,12,0.80,312.81,M,-33.324,M,,*7F
2017-11-16 17:11:46 1510870306.485126: $GPRMC,221145,A,3946.9568,N,08404.9826,W,0.0000,0.000,161117,,*38
2017-11-16 17:11:46 1510870306.485187: $GPGSA,A,3,1,10,24,12,14,18,22,11,25,31,32,138,1.6,0.8,1.3*38
2017-11-16 17:11:47 1510870307.399693: $GPZDA,221146.00,16,11,2017,00,00*67
2017-11-16 17:11:47 1510870307.399876: $GPGGA,221146,3946.9568,N,08404.9826,W,2,12,0.80,312.81,M,-33.324,M,,*7C
2017-11-16 17:11:47 1510870307.399941: $GPRMC,221146,A,3946.9568,N,08404.9826,W,0.0000,0.000,161117,,*3B
2017-11-16 17:11:47 1510870307.399998: $GPGSA,A,3,1,10,24,12,14,18,22,11,25,31,32,138,1.6,0.8,1.3*38
