2017-12-01 12:15:29 1512148529.936773: {"class":"VERSION","release":"3.16","rev":"3.16-4","proto_major":3,"proto_minor":11}
2017-12-01 12:15:29 1512148529.937198: {"class":"DEVICES","devices":[{"class":"DEVICE","path":"/dev/ttyUSB0","driver":"SiRF","subtype":"9\u0006GSD4e_4.1.2-P1_RPATCH.05-F-GPS-4R-1510281 11/03/2015 307","activated":"2017-12-01T17:15:29.512Z","flags":1,"native":1,"bps":4800,"parity":"N","stopbits":1,"cycle":1.00}]}
2017-12-01 12:15:29 1512148529.937323: {"class":"WATCH","enable":true,"json":false,"nmea":true,"raw":0,"scaled":false,"timing":false,"split24":false,"pps":false}
2017-12-01 12:15:30 1512148530.194659: $GPZDA,171531.00,01,12,2017,00,00*60
2017-12-01 12:15:30 1512148530.194836: $GPGGA,171531,3946.9570,N,08404.9827,W,2,11,0.80,301.37,M,-33.324,M,,*7A
2017-12-01 12:15:30 1512148530.194904: $GPRMC,171531,A,3946.9570,N,08404.9827,W,0.0000,0.000,011217,,*34
2017-12-01 12:15:30 1512148530.194965: $GPGSA,A,3,10,13,15,18,20,21,24,27,5,29,138,,2.0,0.8,1.5*34
2017-12-01 12:15:31 1512148531.529659: $GPGSV,3,1,12,10,23,282,38,13,30,045,46,15,62,051,46,18,54,300,47*77
2017-12-01 12:15:31 1512148531.529805: $GPGSV,3,2,12,20,52,070,47,21,78,271,44,24,33,139,48,27,16,313,42*76
2017-12-01 12:15:31 1512148531.529871: $GPGSV,3,3,12,05,04,087,27,29,11,190,29,04,01,136,00,138,38,213,47*4A
2017-12-01 12:15:31 1512148531.643063: $GPZDA,171532.00,01,12,2017,00,00*63
2017-12-01 12:15:31 1512148531.643241: $GPGGA,171532,3946.9574,N,08404.9833,W,2,11,0.80,300.53,M,-33.324,M,,*7B
2017-12-01 12:15:31 1512148531.643313: $GPRMC,171532,A,3946.9574,N,08404.9833,W,0.0000,0.000,011217,,*36
2017-12-01 12:15:31 1512148531.643375: $GPGSA,A,3,10,13,15,18,20,21,24,27,5,29,138,,2.0,0.8,1.5*34
2017-12-01 12:15:32 1512148532.195650: $GPZDA,171533.00,01,12,2017,00,00*62
2017-12-01 12:15:32 1512148532.195833: $GPGGA,171533,3946.9574,N,08404.9833,W,2,11,0.80,300.53,M,-33.324,M,,*7A
2017-12-01 12:15:32 1512148532.195901: $GPRMC,171533,A,3946.9574,N,08404.9833,W,0.0000,0.000,011217,,*37
2017-12-01 12:15:32 1512148532.195962: $GPGSA,A,3,10,13,15,18,20,21,24,27,5,29,138,,2.0,0.8,1.5*34
2017-12-01 12:15:33 1512148533.196037: $GPZDA,171534.00,01,12,2017,00,00*65
2017-12-01 12:15:33 1512148533.196221: $GPGGA,171534,3946.9574,N,08404.9833,W,2,11,0.80,300.53,M,-33.324,M,,*7D
2017-12-01 12:15:33 1512148533.196291: $GPRMC,171534,A,3946.9574,N,08404.9833,W,0.0000,0.000,011217,,*30
2017-12-01 12:15:33 1512148533.196355: $GPGSA,A,3,10,13,15,18,20,21,24,27,5,29,138,,2.0,0.8,1.5*34
2017-12-01 12:15:34 1512148534.531976: $GPGSV,3,1,12,10,23,282,38,13,30,045,45,15,62,051,46,18,54,300,47*74
2017-12-01 12:15:34 1512148534.532156: $GPGSV,3,2,12,20,52,070,47,21,78,271,44,24,33,139,48,27,16,313,42*76
2017-12-01 12:15:34 1512148534.532226: $GPGSV,3,3,12,05,04,087,27,29,11,190,29,04,01,136,00,138,38,213,47*4A
2017-12-01 12:15:34 1512148534.645604: $GPZDA,171535.00,01,12,2017,00,00*64
2017-12-01 12:15:34 1512148534.645765: $GPGGA,171535,3946.9574,N,08404.9833,W,2,11,0.80,300.53,M,-33.324,M,,*7C
2017-12-01 12:15:34 1512148534.645835: $GPRMC,171535,A,3946.9574,N,08404.9833,W,0.0000,0.000,011217,,*31
2017-12-01 12:15:34 1512148534.645899: $GPGSA,A,3,10,13,15,18,20,21,24,27,5,29,138,,2.0,0.8,1.5*34
2017-12-01 12:15:35 1512148535.200216: $GPZDA,171536.00,01,12,2017,00,00*67
2017-12-01 12:15:35 1512148535.200392: $GPGGA,171536,3946.9574,N,08404.9833,W,2,11,0.80,300.53,M,-33.324,M,,*7F
2017-12-01 12:15:35 1512148535.200466: $GPRMC,171536,A,3946.9574,N,08404.9833,W,0.0000,0.000,011217,,*32
2017-12-01 12:15:35 1512148535.200531: $GPGSA,A,3,10,13,15,18,20,21,24,27,5,29,138,,2.0,0.8,1.5*34
2017-12-01 12:15:36 1512148536.359810: $GPZDA,171537.00,01,12,2017,00,00*66
2017-12-01 12:15:36 1512148536.359984: $GPGGA,171537,3946.9574,N,08404.9833,W,2,11,0.80,300.53,M,-33.324,M,,*7E
2017-12-01 12:15:36 1512148536.360053: $GPRMC,171537,A,3946.9574,N,08404.9833,W,0.2422,93.794,011217,,*05
2017-12-01 12:15:36 1512148536.360117: $GPGSA,A,3,10,13,15,18,20,21,24,27,5,29,138,,2.0,0.8,1.5*34
2017-12-01 12:15:37 1512148537.699030: $GPGSV,3,1,12,10,23,282,38,13,30,045,44,15,62,051,45,18,54,300,45*74
2017-12-01 12:15:37 1512148537.699266: $GPGSV,3,2,12,20,52,070,46,21,78,271,42,24,33,139,47,27,16,313,41*7D
2017-12-01 12:15:37 1512148537.699335: $GPGSV,3,3,12,05,04,087,26,29,11,190,28,04,01,136,00,138,38,213,48*45
2017-12-01 12:15:37 1512148537.812426: $GPZDA,171538.00,01,12,2017,00,00*69
2017-12-01 12:15:37 1512148537.812573: $GPGGA,171538,3946.9574,N,08404.9826,W,2,11,0.80,300.61,M,-33.324,M,,*74
2017-12-01 12:15:37 1512148537.812641: $GPRMC,171538,A,3946.9574,N,08404.9826,W,0.1867,180.000,011217,,*39
2017-12-01 12:15:37 1512148537.812703: $GPGSA,A,3,10,13,15,18,20,21,24,27,5,29,138,,2.0,0.8,1.5*34
2017-12-01 12:15:38 1512148538.363395: $GPZDA,171539.00,01,12,2017,00,00*68
2017-12-01 12:15:38 1512148538.363579: $GPGGA,171539,3946.9574,N,08404.9833,W,2,11,0.80,300.53,M,-33.324,M,,*70
2017-12-01 12:15:38 1512148538.363648: $GPRMC,171539,A,3946.9574,N,08404.9833,W,0.0000,0.000,011217,,*3D
2017-12-01 12:15:38 1512148538.363709: $GPGSA,A,3,10,13,15,18,20,21,24,27,5,29,138,,2.0,0.8,1.5*34
2017-12-01 12:15:39 1512148539.362906: $GPZDA,171540.00,01,12,2017,00,00*66
2017-12-01 12:15:39 1512148539.363083: $GPGGA,171540,3946.9574,N,08404.9827,W,2,11,0.80,302.01,M,-33.324,M,,*7E
2017-12-01 12:15:39 1512148539.363151: $GPRMC,171540,A,3946.9574,N,08404.9827,W,0.1867,0.000,011217,,*3E
2017-12-01 12:15:39 1512148539.363211: $GPGSA,A,3,10,13,15,18,20,21,24,27,5,29,138,,2.0,0.8,1.5*34
