2017-12-01 17:13:11 1512166391.643274: {"class":"VERSION","release":"3.16","rev":"3.16-4","proto_major":3,"proto_minor":11}
2017-12-01 17:13:11 1512166391.643723: {"class":"DEVICES","devices":[{"class":"DEVICE","path":"/dev/ttyUSB0","driver":"SiRF","subtype":"9\u0006GSD4e_4.1.2-P1_RPATCH.05-F-GPS-4R-1510281 11/03/2015 307","activated":"2017-12-01T22:13:11.536Z","flags":1,"native":1,"bps":4800,"parity":"N","stopbits":1,"cycle":1.00}]}
2017-12-01 17:13:11 1512166391.643862: {"class":"WATCH","enable":true,"json":false,"nmea":true,"raw":0,"scaled":false,"timing":false,"split24":false,"pps":false}
2017-12-01 17:13:12 1512166392.726682: $GPGSV,3,1,12,01,20,280,42,03,16,316,40,10,28,156,38,12,11,036,27*72
2017-12-01 17:13:12 1512166392.726835: $GPGSV,3,2,12,14,70,021,46,22,35,306,44,26,20,178,40,31,75,258,46*7A
2017-12-01 17:13:12 1512166392.726900: $GPGSV,3,3,12,32,59,070,49,11,01,265,25,25,38,064,00,138,38,213,34*42
2017-12-01 17:13:12 1512166392.840049: $GPZDA,221313.00,01,12,2017,00,00*60
2017-12-01 17:13:12 1512166392.840214: $GPGGA,221313,3946.9632,N,08404.9741,W,2,11,0.80,295.51,M,-33.324,M,,*7C
2017-12-01 17:13:12 1512166392.840279: $GPRMC,221313,A,3946.9632,N,08404.9741,W,0.0000,0.000,011217,,*3E
2017-12-01 17:13:12 1512166392.840340: $GPGSA,A,3,1,3,10,12,14,22,26,31,32,11,138,,2.0,0.8,1.5*04
2017-12-01 17:13:13 1512166393.466686: $GPZDA,221314.00,01,12,2017,00,00*67
2017-12-01 17:13:13 1512166393.466870: $GPGGA,221314,3946.9632,N,08404.9741,W,2,11,0.80,295.51,M,-33.324,M,,*7B
2017-12-01 17:13:13 1512166393.466940: $GPRMC,221314,A,3946.9632,N,08404.9741,W,0.0000,0.000,011217,,*39
2017-12-01 17:13:13 1512166393.467001: $GPGSA,A,3,1,3,10,12,14,22,26,31,32,11,138,,2.0,0.8,1.5*04
2017-12-01 17:13:14 1512166394.396679: $GPZDA,221315.00,01,12,2017,00,00*66
2017-12-01 17:13:14 1512166394.396847: $GPGGA,221315,3946.9632,N,08404.9741,W,2,11,0.80,295.51,M,-33.324,M,,*7A
2017-12-01 17:13:14 1512166394.396913: $GPRMC,221315,A,3946.9632,N,08404.9741,W,0.0000,0.000,011217,,*38
2017-12-01 17:13:14 1512166394.396973: $GPGSA,A,3,1,3,10,12,14,22,26,31,32,11,138,,2.0,0.8,1.5*04
2017-12-01 17:13:15 1512166395.730852: $GPGSV,3,1,12,01,20,280,43,03,16,316,40,10,28,156,38,12,11,036,28*7C
2017-12-01 17:13:15 1512166395.731027: $GPGSV,3,2,12,14,70,021,46,22,35,306,44,26,20,178,39,31,75,258,46*74
2017-12-01 17:13:15 1512166395.731094: $GPGSV,3,3,12,32,59,070,49,11,01,265,29,25,38,064,30,138,38,213,38*41
2017-12-01 17:13:15 1512166395.844512: $GPZDA,221316.00,01,12,2017,00,00*65
2017-12-01 17:13:15 1512166395.844669: $GPGGA,221316,3946.9632,N,08404.9741,W,2,12,0.80,295.51,M,-33.324,M,,*7A
2017-12-01 17:13:15 1512166395.844735: $GPRMC,221316,A,3946.9632,N,08404.9741,W,0.0000,0.000,011217,,*3B
2017-12-01 17:13:15 1512166395.844796: $GPGSA,A,3,1,3,10,12,14,22,26,31,32,11,25,138,2.0,0.8,1.5*03
2017-12-01 17:13:16 1512166396.411756: $GPZDA,221317.00,01,12,2017,00,00*64
2017-12-01 17:13:16 1512166396.411920: $GPGGA,221317,3946.9632,N,08404.9741,W,2,12,0.80,295.51,M,-33.324,M,,*7B
2017-12-01 17:13:16 1512166396.411987: $GPRMC,221317,A,3946.9632,N,08404.9741,W,0.0000,0.000,011217,,*3A
2017-12-01 17:13:16 1512166396.412049: $GPGSA,A,3,1,3,10,12,14,22,26,31,32,11,25,138,2.0,0.8,1.5*03
2017-12-01 17:13:17 1512166397.395910: $GPZDA,221318.00,01,12,2017,00,00*6B
2017-12-01 17:13:17 1512166397.396084: $GPGGA,221318,3946.9632,N,08404.9741,W,2,12,0.80,295.51,M,-33.324,M,,*74
2017-12-01 17:13:17 1512166397.396150: $GPRMC,221318,A,3946.9632,N,08404.9741,W,0.0000,0.000,011217,,*35
2017-12-01 17:13:17 1512166397.396210: $GPGSA,A,3,1,3,10,12,14,22,26,31,32,11,25,138,2.0,0.8,1.5*03
2017-12-01 17:13:18 1512166398.743656: $GPGSV,3,1,12,01,20,280,42,03,16,316,39,10,28,156,38,12,11,036,28*73
2017-12-01 17:13:18 1512166398.743850: $GPGSV,3,2,12,14,70,021,46,22,35,306,44,26,20,178,38,31,75,258,47*74
2017-12-01 17:13:18 1512166398.743916: $GPGSV,3,3,12,32,59,070,49,11,01,265,30,25,38,064,31,138,38,213,40*47
2017-12-01 17:13:18 1512166398.857020: $GPZDA,221319.00,01,12,2017,00,00*6A
2017-12-01 17:13:18 1512166398.857195: $GPGGA,221319,3946.9632,N,08404.9741,W,2,12,0.80,295.51,M,-33.324,M,,*75
2017-12-01 17:13:18 1512166398.857314: $GPRMC,221319,A,3946.9632,N,08404.9741,W,0.0000,0.000,011217,,*34
2017-12-01 17:13:18 1512166398.857377: $GPGSA,A,3,1,3,10,12,14,22,26,31,32,11,25,138,2.0,0.8,1.5*03
2017-12-01 17:13:19 1512166399.414201: $GPZDA,221320.00,01,12,2017,00,00*60
2017-12-01 17:13:19 1512166399.414373: $GPGGA,221320,3946.9632,N,08404.9741,W,2,12,0.80,295.51,M,-33.324,M,,*7F
2017-12-01 17:13:19 1512166399.414441: $GPRMC,221320,A,3946.9632,N,08404.9741,W,0.0000,0.000,011217,,*3E
2017-12-01 17:13:19 1512166399.414502: $GPGSA,A,3,1,3,10,12,14,22,26,31,32,11,25,138,2.0,0.8,1.5*03
2017-12-01 17:13:20 1512166400.411695: $GPZDA,221321.00,01,12,2017,00,00*61
2017-12-01 17:13:20 1512166400.411870: $GPGGA,221321,3946.9632,N,08404.9741,W,2,12,0.80,295.51,M,-33.324,M,,*7E
2017-12-01 17:13:20 1512166400.411938: $GPRMC,221321,A,3946.9632,N,08404.9741,W,0.0000,0.000,011217,,*3F
2017-12-01 17:13:20 1512166400.411999: $GPGSA,A,3,1,3,10,12,14,22,26,31,32,11,25,138,2.0,0.8,1.5*03
2017-12-01 17:13:21 1512166401.748228: $GPGSV,3,1,12,01,20,280,42,03,16,316,39,10,28,156,38,12,11,036,29*72
2017-12-01 17:13:21 1512166401.748415: $GPGSV,3,2,12,14,70,021,46,22,35,306,44,26,20,178,37,31,75,258,46*7A
2017-12-01 17:13:21 1512166401.748483: $GPGSV,3,3,12,32,59,070,49,11,01,265,29,25,38,064,32,138,38,213,40*4C
2017-12-01 17:13:21 1512166401.861988: $GPZDA,221322.00,01,12,2017,00,00*62
2017-12-01 17:13:21 1512166401.862177: $GPGGA,221322,3946.9632,N,08404.9741,W,2,12,0.80,295.51,M,-33.324,M,,*7D
2017-12-01 17:13:21 1512166401.862246: $GPRMC,221322,A,3946.9632,N,08404.9741,W,0.0000,0.000,011217,,*3C
2017-12-01 17:13:21 1512166401.862307: $GPGSA,A,3,1,3,10,12,14,22,26,31,32,11,25,138,2.0,0.8,1.5*03
2017-12-01 17:13:22 1512166402.397926: $GPZDA,221323.00,01,12,2017,00,00*63
2017-12-01 17:13:22 1512166402.398130: $GPGGA,221323,3946.9632,N,08404.9741,W,2,12,0.80,295.51,M,-33.324,M,,*7C
2017-12-01 17:13:22 1512166402.398204: $GPRMC,221323,A,3946.9632,N,08404.9741,W,0.0000,0.000,011217,,*3D
2017-12-01 17:13:22 1512166402.398266: $GPGSA,A,3,1,3,10,12,14,22,26,31,32,11,25,138,2.0,0.8,1.5*03
2017-12-01 17:13:23 1512166403.396648: $GPZDA,221324.00,01,12,2017,00,00*64
2017-12-01 17:13:23 1512166403.396828: $GPGGA,221324,3946.9632,N,08404.9741,W,2,12,0.80,295.51,M,-33.324,M,,*7B
2017-12-01 17:13:23 1512166403.396897: $GPRMC,221324,A,3946.9632,N,08404.9741,W,0.0000,0.000,011217,,*3A
2017-12-01 17:13:23 1512166403.396958: $GPGSA,A,3,1,3,10,12,14,22,26,31,32,11,25,138,2.0,0.8,1.5*03
2017-12-01 17:13:24 1512166404.748597: $GPGSV,3,1,12,01,20,280,43,03,16,316,39,10,28,156,38,12,11,036,29*73
2017-12-01 17:13:24 1512166404.748776: $GPGSV,3,2,12,14,70,021,45,22,35,306,44,26,20,178,37,31,75,258,46*79
2017-12-01 17:13:24 1512166404.748843: $GPGSV,3,3,12,32,59,070,48,11,01,265,29,25,38,064,32,138,38,213,38*42
2017-12-01 17:13:24 1512166404.862067: $GPZDA,221325.00,01,12,2017,00,00*65
2017-12-01 17:13:24 1512166404.862240: $GPGGA,221325,3946.9632,N,08404.9741,W,2,12,0.80,295.51,M,-33.324,M,,*7A
2017-12-01 17:13:24 1512166404.862307: $GPRMC,221325,A,3946.9632,N,08404.9741,W,0.0000,0.000,011217,,*3B
2017-12-01 17:13:24 1512166404.862368: $GPGSA,A,3,1,3,10,12,14,22,26,31,32,11,25,138,2.0,0.8,1.5*03
2017-12-01 17:13:25 1512166405.415448: $GPZDA,221326.00,01,12,2017,00,00*66
2017-12-01 17:13:25 1512166405.415627: $GPGGA,221326,3946.9632,N,08404.9741,W,2,12,0.80,295.51,M,-33.324,M,,*79
2017-12-01 17:13:25 1512166405.415693: $GPRMC,221326,A,3946.9632,N,08404.9741,W,0.0000,0.000,011217,,*38
2017-12-01 17:13:25 1512166405.415753: $GPGSA,A,3,1,3,10,12,14,22,26,31,32,11,25,138,2.0,0.8,1.5*03
2017-12-01 17:13:26 1512166406.412593: $GPZDA,221327.00,01,12,2017,00,00*67
2017-12-01 17:13:26 1512166406.412767: $GPGGA,221327,3946.9632,N,08404.9741,W,2,12,0.80,295.51,M,-33.324,M,,*78
2017-12-01 17:13:26 1512166406.412834: $GPRMC,221327,A,3946.9632,N,08404.9741,W,0.0000,0.000,011217,,*39
2017-12-01 17:13:26 1512166406.412895: $GPGSA,A,3,1,3,10,12,14,22,26,31,32,11,25,138,2.0,0.8,1.5*03
2017-12-01 17:13:27 1512166407.746974: $GPGSV,3,1,12,01,20,280,43,03,16,316,39,10,28,156,38,12,11,036,29*73
2017-12-01 17:13:27 1512166407.747241: $GPGSV,3,2,12,14,70,021,45,22,35,306,44,26,20,178,36,31,75,258,47*79
2017-12-01 17:13:27 1512166407.747316: $GPGSV,3,3,12,32,59,070,48,11,01,265,24,25,38,064,32,138,38,213,40*40
2017-12-01 17:13:27 1512166407.860423: $GPZDA,221328.00,01,12,2017,00,00*68
2017-12-01 17:13:27 1512166407.860583: $GPGGA,221328,3946.9632,N,08404.9741,W,2,12,0.80,295.51,M,-33.324,M,,*77
2017-12-01 17:13:27 1512166407.860650: $GPRMC,221328,A,3946.9632,N,08404.9741,W,0.0000,0.000,011217,,*36
2017-12-01 17:13:27 1512166407.860711: $GPGSA,A,3,1,3,10,12,14,22,26,31,32,11,25,138,2.0,0.8,1.5*03
2017-12-01 17:13:28 1512166408.485730: $GPZDA,221329.00,01,12,2017,00,00*69
2017-12-01 17:13:28 1512166408.485895: $GPGGA,221329,3946.9632,N,08404.9741,W,2,12,0.80,295.51,M,-33.324,M,,*76
2017-12-01 17:13:28 1512166408.485962: $GPRMC,221329,A,3946.9632,N,08404.9741,W,0.0000,0.000,011217,,*37
2017-12-01 17:13:28 1512166408.486022: $GPGSA,A,3,1,3,10,12,14,22,26,31,32,11,25,138,2.0,0.8,1.5*03
2017-12-01 17:13:29 1512166409.412863: $GPZDA,221330.00,01,12,2017,00,00*61
2017-12-01 17:13:29 1512166409.413029: $GPGGA,221330,3946.9632,N,08404.9741,W,2,12,0.80,295.51,M,-33.324,M,,*7E
2017-12-01 17:13:29 1512166409.413095: $GPRMC,221330,A,3946.9632,N,08404.9741,W,0.0000,0.000,011217,,*3F
2017-12-01 17:13:29 1512166409.413156: $GPGSA,A,3,1,3,10,12,14,22,26,31,32,11,25,138,2.0,0.8,1.5*03
2017-12-01 17:13:30 1512166410.748575: $GPGSV,3,1,12,01,20,280,43,03,16,316,39,10,28,156,38,12,11,036,28*72
2017-12-01 17:13:30 1512166410.748758: $GPGSV,3,2,12,14,70,021,45,22,35,306,44,26,20,178,37,31,75,258,47*78
2017-12-01 17:13:30 1512166410.748825: $GPGSV,3,3,12,32,59,070,48,11,01,265,24,25,38,064,32,138,38,213,41*41
2017-12-01 17:13:30 1512166410.862030: $GPZDA,221331.00,01,12,2017,00,00*60
2017-12-01 17:13:30 1512166410.862190: $GPGGA,221331,3946.9632,N,08404.9741,W,2,12,0.80,295.51,M,-33.324,M,,*7F
2017-12-01 17:13:30 1512166410.862256: $GPRMC,221331,A,3946.9632,N,08404.9741,W,0.0000,0.000,011217,,*3E
2017-12-01 17:13:30 1512166410.862317: $GPGSA,A,3,1,3,10,12,14,22,26,31,32,11,25,138,2.0,0.8,1.5*03
2017-12-01 17:13:31 1512166411.412860: $GPZDA,221332.00,01,12,2017,00,00*63
2017-12-01 17:13:31 1512166411.413028: $GPGGA,221332,3946.9632,N,08404.9741,W,2,12,0.80,295.51,M,-33.324,M,,*7C
2017-12-01 17:13:31 1512166411.413096: $GPRMC,221332,A,3946.9632,N,08404.9741,W,0.0000,0.000,011217,,*3D
2017-12-01 17:13:31 1512166411.413157: $GPGSA,A,3,1,3,10,12,14,22,26,31,32,11,25,138,2.0,0.8,1.5*03
