2017-11-16 14:12:22 1510859542.738342: {"class":"VERSION","release":"3.17","rev":"3.17","proto_major":3,"proto_minor":12}
2017-11-16 14:12:22 1510859542.738780: {"class":"DEVICES","devices":[{"class":"DEVICE","path":"/dev/ttyUSB0","driver":"SiRF","subtype":"9\u0006GSD4e_4.1.2-P1_RPATCH.05-F-GPS-4R-1510281 11/03/2015 307","activated":"2017-11-16T19:12:22.699Z","flags":1,"native":1,"bps":4800,"parity":"N","stopbits":1,"cycle":1.00}]}
2017-11-16 14:12:22 1510859542.738937: {"class":"WATCH","enable":true,"json":false,"nmea":true,"raw":0,"scaled":false,"timing":false,"split24":false,"pps":false}
2017-11-16 14:12:23 1510859543.528567: $GPZDA,191222.00,16,11,2017,00,00*6E
2017-11-16 14:12:23 1510859543.528733: $GPGGA,191222,3946.9546,N,08404.9852,W,2,11,0.80,305.08,M,-33.324,M,,*7E
2017-11-16 14:12:23 1510859543.528819: $GPRMC,191222,A,3946.9546,N,08404.9852,W,0.0000,0.000,161117,,*3D
2017-11-16 14:12:23 1510859543.528876: $GPGSA,A,3,8,10,13,15,18,21,20,24,27,32,138,,1.6,0.8,1.3*30
2017-11-16 14:12:24 1510859544.896209: $GPGSV,3,1,12,08,06,322,35,10,41,300,43,13,08,048,21,15,38,052,50*7B
2017-11-16 14:12:24 1510859544.896345: $GPGSV,3,2,12,18,70,334,47,21,65,192,46,20,33,096,46,24,50,111,48*7B
2017-11-16 14:12:24 1510859544.896405: $GPGSV,3,3,12,27,19,289,40,32,20,237,45,14,04,232,00,138,38,213,45*46
2017-11-16 14:12:25 1510859545.009520: $GPZDA,191223.00,16,11,2017,00,00*6F
2017-11-16 14:12:25 1510859545.009730: $GPGGA,191223,3946.9546,N,08404.9852,W,2,11,0.80,305.08,M,-33.324,M,,*7F
2017-11-16 14:12:25 1510859545.009795: $GPRMC,191223,A,3946.9546,N,08404.9852,W,0.0000,0.000,161117,,*3C
2017-11-16 14:12:25 1510859545.009851: $GPGSA,A,3,8,10,13,15,18,21,20,24,27,32,138,,1.6,0.8,1.3*30
2017-11-16 14:12:25 1510859545.556578: $GPZDA,191224.00,16,11,2017,00,00*68
2017-11-16 14:12:25 1510859545.556761: $GPGGA,191224,3946.9546,N,08404.9852,W,2,11,0.80,305.08,M,-33.324,M,,*78
2017-11-16 14:12:25 1510859545.556825: $GPRMC,191224,A,3946.9546,N,08404.9852,W,0.0000,0.000,161117,,*3B
2017-11-16 14:12:25 1510859545.556880: $GPGSA,A,3,8,10,13,15,18,21,20,24,27,32,138,,1.6,0.8,1.3*30
2017-11-16 14:12:26 1510859546.557438: $GPZDA,191225.00,16,11,2017,00,00*69
2017-11-16 14:12:26 1510859546.557619: $GPGGA,191225,3946.9546,N,08404.9852,W,2,11,0.80,305.08,M,-33.324,M,,*79
2017-11-16 14:12:26 1510859546.557685: $GPRMC,191225,A,3946.9546,N,08404.9852,W,0.0000,0.000,161117,,*3A
2017-11-16 14:12:26 1510859546.557741: $GPGSA,A,3,8,10,13,15,18,21,20,24,27,32,138,,1.6,0.8,1.3*30
2017-11-16 14:12:27 1510859547.864196: $GPGSV,3,1,12,08,06,322,37,10,41,300,43,13,08,048,22,15,38,052,50*7A
2017-11-16 14:12:27 1510859547.980366: $GPGSV,3,2,12,18,70,334,47,21,65,192,46,20,33,096,46,24,50,111,48*7B
2017-11-16 14:12:27 1510859547.980523: $GPGSV,3,3,12,27,19,289,40,32,20,237,45,14,04,232,00,138,38,213,44*47
2017-11-16 14:12:27 1510859547.980611: $GPZDA,191226.00,16,11,2017,00,00*6A
2017-11-16 14:12:27 1510859547.980663: $GPGGA,191226,3946.9546,N,08404.9852,W,2,11,0.80,305.08,M,-33.324,M,,*7A
2017-11-16 14:12:27 1510859547.980719: $GPRMC,191226,A,3946.9546,N,08404.9852,W,0.0000,0.000,161117,,*39
2017-11-16 14:12:27 1510859547.980773: $GPGSA,A,3,8,10,13,15,18,21,20,24,27,32,138,,1.6,0.8,1.3*30
2017-11-16 14:12:28 1510859548.532168: $GPZDA,191227.00,16,11,2017,00,00*6B
2017-11-16 14:12:28 1510859548.532339: $GPGGA,191227,3946.9546,N,08404.9852,W,2,11,0.80,305.08,M,-33.324,M,,*7B
2017-11-16 14:12:28 1510859548.532401: $GPRMC,191227,A,3946.9546,N,08404.9852,W,0.0000,0.000,161117,,*38
2017-11-16 14:12:28 1510859548.532458: $GPGSA,A,3,8,10,13,15,18,21,20,24,27,32,138,,1.6,0.8,1.3*30
2017-11-16 14:12:29 1510859549.530091: $GPZDA,191228.00,16,11,2017,00,00*64
2017-11-16 14:12:29 1510859549.530258: $GPGGA,191228,3946.9546,N,08404.9852,W,2,11,0.80,305.08,M,-33.324,M,,*74
2017-11-16 14:12:29 1510859549.530387: $GPRMC,191228,A,3946.9546,N,08404.9852,W,0.0000,0.000,161117,,*37
2017-11-16 14:12:29 1510859549.530447: $GPGSA,A,3,8,10,13,15,18,21,20,24,27,32,138,,1.6,0.8,1.3*30
2017-11-16 14:12:30 1510859550.859179: $GPGSV,3,1,12,08,06,322,38,10,41,300,42,13,08,048,22,15,38,052,50*74
2017-11-16 14:12:30 1510859550.859401: $GPGSV,3,2,12,18,70,334,47,21,65,192,46,20,33,096,46,24,50,111,48*7B
2017-11-16 14:12:30 1510859550.859464: $GPGSV,3,3,12,27,19,289,40,32,20,237,45,14,04,232,18,138,38,213,44*4E
2017-11-16 14:12:30 1510859550.972767: $GPZDA,191229.00,16,11,2017,00,00*65
2017-11-16 14:12:30 1510859550.972919: $GPGGA,191229,3946.9546,N,08404.9852,W,2,12,0.80,305.08,M,-33.324,M,,*76
2017-11-16 14:12:30 1510859550.972978: $GPRMC,191229,A,3946.9546,N,08404.9852,W,0.0000,0.000,161117,,*36
2017-11-16 14:12:30 1510859550.973033: $GPGSA,A,3,8,10,13,15,18,21,20,24,27,32,14,138,1.6,0.8,1.3*35
2017-11-16 14:12:31 1510859551.556086: $GPZDA,191230.00,16,11,2017,00,00*6D
2017-11-16 14:12:31 1510859551.556246: $GPGGA,191230,3946.9546,N,08404.9852,W,2,12,0.80,305.08,M,-33.324,M,,*7E
2017-11-16 14:12:31 1510859551.556306: $GPRMC,191230,A,3946.9546,N,08404.9852,W,0.0000,0.000,161117,,*3E
2017-11-16 14:12:31 1510859551.556362: $GPGSA,A,3,8,10,13,15,18,21,20,24,27,32,14,138,1.6,0.8,1.3*35
2017-11-16 14:12:32 1510859552.529100: $GPZDA,191231.00,16,11,2017,00,00*6C
2017-11-16 14:12:32 1510859552.529269: $GPGGA,191231,3946.9546,N,08404.9852,W,2,12,0.80,305.08,M,-33.324,M,,*7F
2017-11-16 14:12:32 1510859552.529332: $GPRMC,191231,A,3946.9546,N,08404.9852,W,0.0000,0.000,161117,,*3F
2017-11-16 14:12:32 1510859552.529389: $GPGSA,A,3,8,10,13,15,18,21,20,24,27,32,14,138,1.6,0.8,1.3*35
