2017-12-29 14:54:24 1514577264.793055: {"class":"VERSION","release":"3.16","rev":"3.16-4","proto_major":3,"proto_minor":11}
2017-12-29 14:54:24 1514577264.793399: {"class":"DEVICES","devices":[{"class":"DEVICE","path":"/dev/ttyUSB0","driver":"SiRF","subtype":"9\u0006GSD4e_4.1.2-P1_RPATCH.05-F-GPS-4R-1510281 11/03/2015 307","activated":"2017-12-29T19:54:24.780Z","flags":1,"native":1,"bps":4800,"parity":"N","stopbits":1,"cycle":1.00}]}
2017-12-29 14:54:24 1514577264.793513: {"class":"WATCH","enable":true,"json":false,"nmea":true,"raw":0,"scaled":false,"timing":false,"split24":false,"pps":false}
2017-12-29 14:54:24 1514577264.893623: $GPZDA,195425.59,29,12,2017,00,00*68
2017-12-29 14:54:24 1514577264.893795: $GPGGA,195425,3946.9625,N,08404.9793,W,1,12,1.00,300.05,M,-33.324,M,,*7E
2017-12-29 14:54:24 1514577264.893860: $GPRMC,195425,A,3946.9625,N,08404.9793,W,0.1867,0.000,291217,,*3B
2017-12-29 14:54:24 1514577264.893920: $GPGSA,A,3,1,3,10,12,14,22,25,31,32,18,26,138,1.7,1.0,1.3*01
2017-12-29 14:54:25 1514577265.837598: $GPZDA,195426.27,29,12,2017,00,00*62
2017-12-29 14:54:25 1514577265.837778: $GPGGA,195426,3946.9625,N,08404.9786,W,1,12,1.00,300.13,M,-33.324,M,,*7E
2017-12-29 14:54:25 1514577265.837845: $GPRMC,195426,A,3946.9625,N,08404.9786,W,0.1567,189.200,291217,,*33
2017-12-29 14:54:25 1514577265.837905: $GPGSA,A,3,1,3,10,12,14,22,25,31,32,18,26,138,1.7,1.0,1.3*01
2017-12-29 14:54:27 1514577267.322479: $GPGSV,3,1,12,01,22,292,37,03,08,316,41,10,39,151,48,18,09,147,23*7F
2017-12-29 14:54:27 1514577267.322711: $GPGSV,3,2,12,12,18,042,40,14,69,346,42,22,27,310,42,25,41,079,52*74
2017-12-29 14:54:27 1514577267.322781: $GPGSV,3,3,12,31,66,235,46,32,64,051,50,26,11,180,10,138,38,213,00*41
2017-12-29 14:54:27 1514577267.436108: $GPZDA,195427.00,29,12,2017,00,00*66
2017-12-29 14:54:27 1514577267.436238: $GPGGA,195427,3946.9622,N,08404.9787,W,1,10,0.80,300.90,M,-33.324,M,,*79
2017-12-29 14:54:27 1514577267.436306: $GPRMC,195427,A,3946.9622,N,08404.9787,W,0.0000,0.000,291217,,*33
2017-12-29 14:54:27 1514577267.436370: $GPGSA,A,3,1,3,10,18,12,14,22,25,31,32,,,1.7,0.8,1.3*36
2017-12-29 14:54:27 1514577267.862046: $GPZDA,195428.00,29,12,2017,00,00*69
2017-12-29 14:54:27 1514577267.862215: $GPGGA,195428,3946.9622,N,08404.9794,W,1,10,0.80,300.82,M,-33.324,M,,*77
2017-12-29 14:54:27 1514577267.862284: $GPRMC,195428,A,3946.9622,N,08404.9794,W,0.0000,0.000,291217,,*3E
2017-12-29 14:54:27 1514577267.862347: $GPGSA,A,3,1,3,10,18,12,14,22,25,31,32,,,1.7,0.8,1.3*36
2017-12-29 14:54:27 1514577267.862408: $GPGBS,195428,10.91,M,10.38,M,30.89,M*0C
2017-12-29 14:54:28 1514577268.380352: $GPZDA,195429.00,29,12,2017,00,00*68
2017-12-29 14:54:28 1514577268.380536: $GPGGA,195429,3946.9618,N,08404.9801,W,1,10,0.80,300.10,M,-33.324,M,,*77
2017-12-29 14:54:28 1514577268.380606: $GPRMC,195429,A,3946.9618,N,08404.9801,W,0.0000,0.000,291217,,*35
2017-12-29 14:54:28 1514577268.380688: $GPGSA,A,3,1,3,10,18,12,14,22,25,31,32,,,1.7,0.8,1.3*36
2017-12-29 14:54:28 1514577268.380749: $GPGBS,195429,10.91,M,10.38,M,30.89,M*0D
2017-12-29 14:54:29 1514577269.716504: $GPGSV,3,1,12,01,22,292,38,03,08,316,42,10,39,151,49,18,09,147,34*74
2017-12-29 14:54:29 1514577269.716682: $GPGSV,3,2,12,12,18,042,40,14,69,346,43,22,27,310,42,25,41,079,52*75
2017-12-29 14:54:29 1514577269.716751: $GPGSV,3,3,12,31,66,235,46,32,64,051,51,26,11,180,24,138,38,213,46*45
2017-12-29 14:54:29 1514577269.830196: $GPZDA,195430.00,29,12,2017,00,00*60
2017-12-29 14:54:29 1514577269.830367: $GPGGA,195430,3946.9615,N,08404.9802,W,1,12,0.80,300.86,M,-33.324,M,,*7C
2017-12-29 14:54:29 1514577269.830435: $GPRMC,195430,A,3946.9615,N,08404.9802,W,0.0000,0.000,291217,,*33
2017-12-29 14:54:29 1514577269.830521: $GPGSA,A,3,1,3,10,18,12,14,22,25,31,32,26,138,1.7,0.8,1.3*08
2017-12-29 14:54:30 1514577270.382593: $GPZDA,195431.00,29,12,2017,00,00*61
2017-12-29 14:54:30 1514577270.382767: $GPGGA,195431,3946.9615,N,08404.9808,W,1,12,0.80,300.78,M,-33.324,M,,*76
2017-12-29 14:54:30 1514577270.382837: $GPRMC,195431,A,3946.9615,N,08404.9808,W,0.0000,0.000,291217,,*38
2017-12-29 14:54:30 1514577270.382912: $GPGSA,A,3,1,3,10,18,12,14,22,25,31,32,26,138,1.7,0.8,1.3*08
2017-12-29 14:54:31 1514577271.383130: $GPZDA,195432.00,29,12,2017,00,00*62
2017-12-29 14:54:31 1514577271.383325: $GPGGA,195432,3946.9611,N,08404.9815,W,1,12,0.80,300.06,M,-33.324,M,,*74
2017-12-29 14:54:31 1514577271.383413: $GPRMC,195432,A,3946.9611,N,08404.9815,W,0.0000,0.000,291217,,*33
2017-12-29 14:54:31 1514577271.383505: $GPGSA,A,3,1,3,10,18,12,14,22,25,31,32,26,138,1.7,0.8,1.3*08
2017-12-29 14:54:31 1514577271.383566: $GPGBS,195432,10.91,M,10.38,M,30.89,M*07
2017-12-29 14:54:32 1514577272.717215: $GPGSV,3,1,12,01,22,292,38,03,08,316,42,10,39,151,49,18,09,147,34*74
2017-12-29 14:54:32 1514577272.717378: $GPGSV,3,2,12,12,18,042,41,14,69,346,43,22,27,310,42,25,41,079,52*74
2017-12-29 14:54:32 1514577272.717442: $GPGSV,3,3,12,31,66,235,46,32,64,051,51,26,11,180,25,138,38,213,44*46
2017-12-29 14:54:32 1514577272.829686: $GPZDA,195433.00,29,12,2017,00,00*63
2017-12-29 14:54:32 1514577272.829851: $GPGGA,195433,3946.9608,N,08404.9816,W,1,12,0.80,300.83,M,-33.324,M,,*73
2017-12-29 14:54:32 1514577272.829916: $GPRMC,195433,A,3946.9608,N,08404.9816,W,0.0000,0.000,291217,,*39
2017-12-29 14:54:32 1514577272.829977: $GPGSA,A,3,1,3,10,18,12,14,22,25,31,32,26,138,1.7,0.8,1.3*08
2017-12-29 14:54:33 1514577273.381832: $GPZDA,195434.00,29,12,2017,00,00*64
2017-12-29 14:54:33 1514577273.381983: $GPGGA,195434,3946.9608,N,08404.9816,W,1,12,0.80,300.83,M,-33.324,M,,*74
2017-12-29 14:54:33 1514577273.382049: $GPRMC,195434,A,3946.9608,N,08404.9816,W,0.2422,93.794,291217,,*08
2017-12-29 14:54:33 1514577273.382109: $GPGSA,A,3,1,3,10,18,12,14,22,25,31,32,26,138,1.7,0.8,1.3*08
2017-12-29 14:54:34 1514577274.380925: $GPZDA,195435.00,29,12,2017,00,00*65
2017-12-29 14:54:34 1514577274.381136: $GPGGA,195435,3946.9608,N,08404.9823,W,1,12,0.80,300.75,M,-33.324,M,,*7A
2017-12-29 14:54:34 1514577274.381211: $GPRMC,195435,A,3946.9608,N,08404.9823,W,0.0000,0.000,291217,,*39
2017-12-29 14:54:34 1514577274.381272: $GPGSA,A,3,1,3,10,18,12,14,22,25,31,32,26,138,1.7,0.8,1.3*08
