2017-12-14 12:08:59 1513271339.474158: {"class":"VERSION","release":"3.16","rev":"3.16-4","proto_major":3,"proto_minor":11}
2017-12-14 12:08:59 1513271339.474611: {"class":"DEVICES","devices":[{"class":"DEVICE","path":"/dev/ttyUSB0","driver":"SiRF","subtype":"9\u0006GSD4e_4.1.2-P1_RPATCH.05-F-GPS-4R-1510281 11/03/2015 307","activated":"2017-12-14T17:08:58.920Z","flags":1,"native":1,"bps":4800,"parity":"N","stopbits":1,"cycle":1.00}]}
2017-12-14 12:08:59 1513271339.474755: {"class":"WATCH","enable":true,"json":false,"nmea":true,"raw":0,"scaled":false,"timing":false,"split24":false,"pps":false}
2017-12-14 12:09:00 1513271340.210539: $GPRMC,170900,V,18000.0000,N,00000.0000,W,0.0000,0.000,141217,,*1E
2017-12-14 12:09:00 1513271340.210710: $GPGSA,A,1,10,15,18,24,21,20,,,,,,,,,,*39
2017-12-14 12:09:01 1513271341.178294: $GPRMC,170901,V,3946.9577,N,08404.9418,W,0.0000,0.000,141217,,*2E
2017-12-14 12:09:01 1513271341.178440: $GPGSA,A,1,10,15,18,24,21,20,,,,,,,,,,*39
2017-12-14 12:09:02 1513271342.360550: $GPGSV,3,1,10,24,48,117,30,21,67,192,25,10,38,298,23,18,69,328,00*7C
2017-12-14 12:09:02 1513271342.360723: $GPGSV,3,2,10,15,41,051,00,20,37,091,00,27,19,294,00,32,18,235,00*7C
2017-12-14 12:09:02 1513271342.360789: $GPGSV,3,3,10,13,11,048,00,08,04,325,00*7E
2017-12-14 12:09:02 1513271342.472879: $GPRMC,170902,V,3946.9577,N,08404.9418,W,0.0000,0.000,141217,,*2D
2017-12-14 12:09:02 1513271342.473042: $GPGSA,A,1,24,21,10,,,,,,,,,,,,,*36
2017-12-14 12:09:02 1513271342.726755: $GPRMC,170903,V,3946.9577,N,08404.9418,W,0.0000,0.000,141217,,*2C
2017-12-14 12:09:02 1513271342.726926: $GPGSA,A,1,24,21,10,,,,,,,,,,,,,*36
2017-12-14 12:09:02 1513271342.982002: $GPZDA,170903.40,14,12,2017,00,00*6C
2017-12-14 12:09:02 1513271342.982229: $GPGGA,170903,3946.9596,N,08404.9429,W,1,03,2.00,337.85,M,-33.324,M,,*7A
2017-12-14 12:09:02 1513271342.982314: $GPRMC,170903,A,3946.9596,N,08404.9429,W,1.6604,223.461,141217,,*33
2017-12-14 12:09:02 1513271342.982391: $GPGSA,A,3,24,21,10,,,,,,,,,,6.6,2.0,6.2*30
2017-12-14 12:09:02 1513271342.982447: $GPGBS,170903,24.66,M,21.80,M,143.40,M*3D
2017-12-14 12:09:04 1513271344.044922: $GPGSV,3,1,11,24,48,117,30,21,67,192,25,10,38,298,24,15,41,051,18*79
2017-12-14 12:09:04 1513271344.045132: $GPGSV,3,2,11,18,69,328,09,20,37,091,07,27,19,294,00,32,18,235,00*79
2017-12-14 12:09:04 1513271344.045201: $GPGSV,3,3,11,13,11,048,00,08,04,325,00,138,38,213,00*7E
2017-12-14 12:09:04 1513271344.158316: $GPZDA,170903.90,14,12,2017,00,00*61
2017-12-14 12:09:04 1513271344.158514: $GPGGA,170903,3946.9599,N,08404.9428,W,1,06,2.00,335.68,M,-33.324,M,,*70
2017-12-14 12:09:04 1513271344.158582: $GPRMC,170903,A,3946.9599,N,08404.9428,W,2.5241,209.484,141217,,*3B
2017-12-14 12:09:04 1513271344.158643: $GPGSA,A,3,24,21,10,15,18,20,,,,,,,6.6,2.0,6.2*3F
2017-12-14 12:09:04 1513271344.412285: $GPZDA,170904.40,14,12,2017,00,00*6B
2017-12-14 12:09:04 1513271344.412455: $GPGGA,170904,3946.9595,N,08404.9429,W,1,06,2.00,336.44,M,-33.324,M,,*77
2017-12-14 12:09:04 1513271344.412523: $GPRMC,170904,A,3946.9595,N,08404.9429,W,3.2123,213.026,141217,,*37
2017-12-14 12:09:04 1513271344.412584: $GPGSA,A,3,24,21,10,15,18,20,,,,,,,6.6,2.0,6.2*3F
2017-12-14 12:09:04 1513271344.666471: $GPZDA,170905.00,14,12,2017,00,00*6E
2017-12-14 12:09:04 1513271344.666635: $GPGGA,170905,3946.9584,N,08404.9417,W,1,06,2.00,338.89,M,-33.324,M,,*74
2017-12-14 12:09:04 1513271344.666702: $GPRMC,170905,A,3946.9584,N,08404.9417,W,2.4940,211.212,141217,,*36
2017-12-14 12:09:04 1513271344.666763: $GPGSA,A,3,24,21,10,15,18,20,,,,,,,6.6,2.0,6.2*3F
2017-12-14 12:09:05 1513271345.569680: $GPGSV,3,1,11,24,48,117,30,21,67,192,25,10,38,298,24,15,41,051,18*79
2017-12-14 12:09:05 1513271345.569856: $GPGSV,3,2,11,18,69,328,17,20,37,091,15,08,04,325,14,27,19,294,00*74
2017-12-14 12:09:05 1513271345.569923: $GPGSV,3,3,11,32,18,235,00,13,11,048,00,138,38,213,00*7A
2017-12-14 12:09:05 1513271345.683140: $GPZDA,170906.00,14,12,2017,00,00*6D
2017-12-14 12:09:05 1513271345.683319: $GPGGA,170906,3946.9581,N,08404.9418,W,1,07,2.00,339.66,M,-33.324,M,,*7C
2017-12-14 12:09:05 1513271345.683385: $GPRMC,170906,A,3946.9581,N,08404.9418,W,1.4890,220.932,141217,,*3B
2017-12-14 12:09:05 1513271345.683503: $GPGSA,A,3,24,21,10,15,18,20,8,,,,,,6.6,2.0,6.2*07
2017-12-14 12:09:06 1513271346.234445: $GPZDA,170907.00,14,12,2017,00,00*6C
2017-12-14 12:09:06 1513271346.234599: $GPGGA,170907,3946.9588,N,08404.9417,W,1,07,2.00,339.53,M,-33.324,M,,*7D
2017-12-14 12:09:06 1513271346.234665: $GPRMC,170907,A,3946.9588,N,08404.9417,W,1.1189,235.801,141217,,*3D
2017-12-14 12:09:06 1513271346.234726: $GPGSA,A,3,24,21,10,15,18,20,8,,,,,,6.6,2.0,6.2*07
2017-12-14 12:09:07 1513271347.234096: $GPZDA,170908.00,14,12,2017,00,00*63
2017-12-14 12:09:07 1513271347.234290: $GPGGA,170908,3946.9585,N,08404.9411,W,1,07,2.00,340.38,M,-33.324,M,,*7A
2017-12-14 12:09:07 1513271347.234359: $GPRMC,170908,A,3946.9585,N,08404.9411,W,0.7952,213.776,141217,,*3B
2017-12-14 12:09:07 1513271347.234421: $GPGSA,A,3,24,21,10,15,18,20,8,,,,,,6.6,2.0,6.2*07
2017-12-14 12:09:08 1513271348.570265: $GPGSV,3,1,11,24,48,117,30,21,67,192,25,10,38,298,24,15,41,051,18*79
2017-12-14 12:09:08 1513271348.570439: $GPGSV,3,2,11,18,69,328,18,20,37,091,16,08,04,325,12,27,19,294,00*7E
2017-12-14 12:09:08 1513271348.570505: $GPGSV,3,3,11,32,18,235,00,13,11,048,00,138,38,213,00*7A
2017-12-14 12:09:08 1513271348.683946: $GPZDA,170909.00,14,12,2017,00,00*62
2017-12-14 12:09:08 1513271348.684131: $GPGGA,170909,3946.9581,N,08404.9411,W,1,07,2.00,341.14,M,-33.324,M,,*70
2017-12-14 12:09:08 1513271348.684199: $GPRMC,170909,A,3946.9581,N,08404.9411,W,1.1995,192.055,141217,,*3E
2017-12-14 12:09:08 1513271348.684279: $GPGSA,A,3,24,21,10,15,18,20,8,,,,,,6.6,2.0,6.2*07
2017-12-14 12:09:09 1513271349.235340: $GPZDA,170910.00,14,12,2017,00,00*6A
2017-12-14 12:09:09 1513271349.885798: $GPGGA,170910,3946.9575,N,08404.9414,W,1,07,2.00,344.07,M,-33.324,M,,*71
2017-12-14 12:09:09 1513271349.885976: $GPRMC,170910,A,3946.9575,N,08404.9414,W,1.1943,219.454,141217,,*36
2017-12-14 12:09:09 1513271349.886039: $GPGSA,A,3,24,21,10,15,18,20,8,,,,,,6.6,2.0,6.2*07
2017-12-14 12:09:10 1513271350.235446: $GPZDA,170911.00,14,12,2017,00,00*6B
2017-12-14 12:09:10 1513271350.235613: $GPGGA,170911,3946.9564,N,08404.9421,W,1,07,2.00,343.48,M,-33.324,M,,*7A
2017-12-14 12:09:10 1513271350.235679: $GPRMC,170911,A,3946.9564,N,08404.9421,W,1.6486,208.395,141217,,*38
2017-12-14 12:09:10 1513271350.235739: $GPGSA,A,3,24,21,10,15,18,20,8,,,,,,6.6,2.0,6.2*07
2017-12-14 12:09:11 1513271351.571384: $GPGSV,3,1,11,24,48,117,30,21,67,192,25,10,38,298,24,15,41,051,17*76
2017-12-14 12:09:11 1513271351.571558: $GPGSV,3,2,11,18,69,328,18,20,37,091,16,08,04,325,11,27,19,294,00*7D
2017-12-14 12:09:11 1513271351.571623: $GPGSV,3,3,11,32,18,235,00,13,11,048,00,138,38,213,00*7A
2017-12-14 12:09:11 1513271351.684919: $GPZDA,170912.00,14,12,2017,00,00*68
2017-12-14 12:09:11 1513271351.685096: $GPGGA,170912,3946.9553,N,08404.9423,W,1,07,2.00,344.37,M,-33.324,M,,*70
2017-12-14 12:09:11 1513271351.685162: $GPRMC,170912,A,3946.9553,N,08404.9423,W,1.5634,200.296,141217,,*3F
2017-12-14 12:09:11 1513271351.685243: $GPGSA,A,3,24,21,10,15,18,20,8,,,,,,6.6,2.0,6.2*07
2017-12-14 12:09:12 1513271352.235658: $GPZDA,170913.00,14,12,2017,00,00*69
2017-12-14 12:09:12 1513271352.235832: $GPGGA,170913,3946.9549,N,08404.9423,W,1,07,2.00,345.13,M,-33.324,M,,*7D
2017-12-14 12:09:12 1513271352.235899: $GPRMC,170913,A,3946.9549,N,08404.9423,W,1.3437,214.388,141217,,*39
2017-12-14 12:09:12 1513271352.235960: $GPGSA,A,3,24,21,10,15,18,20,8,,,,,,6.6,2.0,6.2*07
2017-12-14 12:09:13 1513271353.234516: $GPZDA,170914.00,14,12,2017,00,00*6E
2017-12-14 12:09:13 1513271353.234686: $GPGGA,170914,3946.9542,N,08404.9431,W,1,07,2.00,345.18,M,-33.324,M,,*79
2017-12-14 12:09:13 1513271353.234752: $GPRMC,170914,A,3946.9542,N,08404.9431,W,1.8526,190.125,141217,,*36
2017-12-14 12:09:13 1513271353.234813: $GPGSA,A,3,24,21,10,15,18,20,8,,,,,,6.6,2.0,6.2*07
2017-12-14 12:09:14 1513271354.570827: $GPGSV,3,1,11,24,48,117,30,21,67,192,25,10,38,298,24,15,41,051,16*77
2017-12-14 12:09:14 1513271354.571004: $GPGSV,3,2,11,18,69,328,18,20,37,091,16,08,04,325,07,27,19,294,00*7A
2017-12-14 12:09:14 1513271354.571135: $GPGSV,3,3,11,32,18,235,00,13,11,048,00,138,38,213,00*7A
2017-12-14 12:09:14 1513271354.684257: $GPZDA,170915.00,14,12,2017,00,00*6F
2017-12-14 12:09:14 1513271354.684427: $GPGGA,170915,3946.9538,N,08404.9432,W,1,06,2.00,345.94,M,-33.324,M,,*73
2017-12-14 12:09:14 1513271354.684494: $GPRMC,170915,A,3946.9538,N,08404.9432,W,1.3437,214.388,141217,,*39
2017-12-14 12:09:14 1513271354.684555: $GPGSA,A,3,24,21,10,15,18,20,,,,,,,6.6,2.0,6.2*3F
2017-12-14 12:09:15 1513271355.236789: $GPZDA,170916.00,14,12,2017,00,00*6C
2017-12-14 12:09:15 1513271355.236982: $GPGGA,170916,3946.9543,N,08404.9432,W,1,06,2.00,346.58,M,-33.324,M,,*7F
2017-12-14 12:09:15 1513271355.237067: $GPRMC,170916,A,3946.9543,N,08404.9432,W,0.9764,256.774,141217,,*39
2017-12-14 12:09:15 1513271355.237129: $GPGSA,A,3,24,21,10,15,18,20,,,,,,,6.6,2.0,6.2*3F
2017-12-14 12:09:16 1513271356.235643: $GPZDA,170917.00,14,12,2017,00,00*6D
2017-12-14 12:09:16 1513271356.235810: $GPGGA,170917,3946.9539,N,08404.9440,W,1,06,2.00,347.27,M,-33.324,M,,*7F
2017-12-14 12:09:16 1513271356.235875: $GPRMC,170917,A,3946.9539,N,08404.9440,W,0.6432,226.572,141217,,*3C
2017-12-14 12:09:16 1513271356.235936: $GPGSA,A,3,24,21,10,15,18,20,,,,,,,6.6,2.0,6.2*3F
2017-12-14 12:09:17 1513271357.569984: $GPGSV,3,1,11,24,48,117,30,21,67,192,25,10,38,298,24,15,41,051,15*74
2017-12-14 12:09:17 1513271357.570193: $GPGSV,3,2,11,18,69,328,18,20,37,091,16,08,04,325,12,27,19,294,00*7E
2017-12-14 12:09:17 1513271357.570260: $GPGSV,3,3,11,32,18,235,00,13,11,048,00,138,38,213,00*7A
2017-12-14 12:09:17 1513271357.683433: $GPZDA,170918.00,14,12,2017,00,00*62
2017-12-14 12:09:17 1513271357.683617: $GPGGA,170918,3946.9536,N,08404.9433,W,1,06,2.00,348.11,M,-33.324,M,,*71
2017-12-14 12:09:17 1513271357.683685: $GPRMC,170918,A,3946.9536,N,08404.9433,W,1.1738,193.578,141217,,*30
2017-12-14 12:09:17 1513271357.683747: $GPGSA,A,3,24,21,10,15,18,20,,,,,,,6.6,2.0,6.2*3F
2017-12-14 12:09:18 1513271358.237259: $GPZDA,170919.00,14,12,2017,00,00*63
2017-12-14 12:09:18 1513271358.237446: $GPGGA,170919,3946.9540,N,08404.9433,W,1,06,2.00,348.75,M,-33.324,M,,*73
2017-12-14 12:09:18 1513271358.237512: $GPRMC,170919,A,3946.9540,N,08404.9433,W,0.6621,202.232,141217,,*3D
2017-12-14 12:09:18 1513271358.237591: $GPGSA,A,3,24,21,10,15,18,20,,,,,,,6.6,2.0,6.2*3F
2017-12-14 12:09:19 1513271359.236120: $GPZDA,170920.00,14,12,2017,00,00*69
2017-12-14 12:09:19 1513271359.236315: $GPGGA,170920,3946.9547,N,08404.9419,W,1,06,2.00,350.19,M,-33.324,M,,*75
2017-12-14 12:09:19 1513271359.236382: $GPRMC,170920,A,3946.9547,N,08404.9419,W,0.3612,51.566,141217,,*0F
2017-12-14 12:09:19 1513271359.236443: $GPGSA,A,3,24,21,10,15,18,20,,,,,,,6.6,2.0,6.2*3F
