2017-12-01 13:58:54 1512154734.156759: {"class":"VERSION","release":"3.16","rev":"3.16-4","proto_major":3,"proto_minor":11}
2017-12-01 13:58:54 1512154734.157181: {"class":"DEVICES","devices":[{"class":"DEVICE","path":"/dev/ttyUSB0","driver":"SiRF","subtype":"9\u0006GSD4e_4.1.2-P1_RPATCH.05-F-GPS-4R-1510281 11/03/2015 307","activated":"2017-12-01T18:58:53.958Z","flags":1,"native":1,"bps":4800,"parity":"N","stopbits":1,"cycle":1.00}]}
2017-12-01 13:58:54 1512154734.157314: {"class":"WATCH","enable":true,"json":false,"nmea":true,"raw":0,"scaled":false,"timing":false,"split24":false,"pps":false}
2017-12-01 13:58:54 1512154734.361278: $GPZDA,185855.00,01,12,2017,00,00*64
2017-12-01 13:58:54 1512154734.361516: $GPGGA,185855,3946.9567,N,08404.9841,W,2,12,0.80,301.98,M,-33.324,M,,*7E
2017-12-01 13:58:54 1512154734.361587: $GPRMC,185855,A,3946.9567,N,08404.9841,W,0.0000,0.000,011217,,*36
2017-12-01 13:58:54 1512154734.361650: $GPGSA,A,3,8,10,14,15,18,20,21,24,27,32,12,138,2.0,0.8,1.5*37
2017-12-01 13:58:55 1512154735.366613: $GPZDA,185856.00,01,12,2017,00,00*67
2017-12-01 13:58:55 1512154735.366790: $GPGGA,185856,3946.9567,N,08404.9841,W,2,12,0.80,301.98,M,-33.324,M,,*7D
2017-12-01 13:58:55 1512154735.366859: $GPRMC,185856,A,3946.9567,N,08404.9841,W,0.0000,0.000,011217,,*35
2017-12-01 13:58:55 1512154735.366924: $GPGSA,A,3,8,10,14,15,18,20,21,24,27,32,12,138,2.0,0.8,1.5*37
2017-12-01 13:58:56 1512154736.700952: $GPGSV,3,1,12,08,08,304,39,10,59,318,50,14,20,244,40,15,20,061,41*72
2017-12-01 13:58:56 1512154736.701140: $GPGSV,3,2,12,18,77,057,42,20,17,111,42,21,40,181,45,24,51,073,48*71
2017-12-01 13:58:56 1512154736.701207: $GPGSV,3,3,12,27,12,270,36,32,38,255,43,12,02,115,20,138,38,213,47*47
2017-12-01 13:58:56 1512154736.814583: $GPZDA,185857.00,01,12,2017,00,00*66
2017-12-01 13:58:56 1512154736.814755: $GPGGA,185857,3946.9567,N,08404.9841,W,2,12,0.80,301.98,M,-33.324,M,,*7C
2017-12-01 13:58:56 1512154736.814827: $GPRMC,185857,A,3946.9567,N,08404.9841,W,0.0000,0.000,011217,,*34
2017-12-01 13:58:56 1512154736.814891: $GPGSA,A,3,8,10,14,15,18,20,21,24,27,32,12,138,2.0,0.8,1.5*37
2017-12-01 13:58:57 1512154737.366727: $GPZDA,185858.00,01,12,2017,00,00*69
2017-12-01 13:58:57 1512154737.992587: $GPGGA,185858,3946.9567,N,08404.9841,W,2,12,0.80,301.98,M,-33.324,M,,*73
2017-12-01 13:58:57 1512154737.992757: $GPRMC,185858,A,3946.9567,N,08404.9841,W,0.0000,0.000,011217,,*3B
2017-12-01 13:58:57 1512154737.992828: $GPGSA,A,3,8,10,14,15,18,20,21,24,27,32,12,138,2.0,0.8,1.5*37
2017-12-01 13:58:58 1512154738.367375: $GPZDA,185859.00,01,12,2017,00,00*68
2017-12-01 13:58:58 1512154738.367553: $GPGGA,185859,3946.9567,N,08404.9841,W,2,12,0.80,301.98,M,-33.324,M,,*72
2017-12-01 13:58:58 1512154738.367621: $GPRMC,185859,A,3946.9567,N,08404.9841,W,0.0000,0.000,011217,,*3A
2017-12-01 13:58:58 1512154738.367685: $GPGSA,A,3,8,10,14,15,18,20,21,24,27,32,12,138,2.0,0.8,1.5*37
2017-12-01 13:58:59 1512154739.701816: $GPGSV,3,1,12,08,08,304,39,10,59,318,50,14,20,244,40,15,20,061,41*72
2017-12-01 13:58:59 1512154739.702004: $GPGSV,3,2,12,18,77,057,42,20,17,111,43,21,40,181,45,24,51,073,47*7F
2017-12-01 13:58:59 1512154739.702072: $GPGSV,3,3,12,27,12,270,30,32,38,255,43,12,02,115,21,138,38,213,47*40
2017-12-01 13:58:59 1512154739.815167: $GPZDA,185900.00,01,12,2017,00,00*65
2017-12-01 13:58:59 1512154739.815312: $GPGGA,185900,3946.9567,N,08404.9841,W,2,12,0.80,301.98,M,-33.324,M,,*7F
2017-12-01 13:58:59 1512154739.815381: $GPRMC,185900,A,3946.9567,N,08404.9841,W,0.0000,0.000,011217,,*37
2017-12-01 13:58:59 1512154739.815442: $GPGSA,A,3,8,10,14,15,18,20,21,24,27,32,12,138,2.0,0.8,1.5*37
2017-12-01 13:59:00 1512154740.440858: $GPZDA,185901.00,01,12,2017,00,00*64
2017-12-01 13:59:00 1512154740.441033: $GPGGA,185901,3946.9567,N,08404.9841,W,2,12,0.80,301.98,M,-33.324,M,,*7E
2017-12-01 13:59:00 1512154740.441100: $GPRMC,185901,A,3946.9567,N,08404.9841,W,0.0000,0.000,011217,,*36
2017-12-01 13:59:00 1512154740.441163: $GPGSA,A,3,8,10,14,15,18,20,21,24,27,32,12,138,2.0,0.8,1.5*37
2017-12-01 13:59:01 1512154741.367964: $GPZDA,185902.00,01,12,2017,00,00*67
2017-12-01 13:59:01 1512154741.368186: $GPGGA,185902,3946.9567,N,08404.9841,W,2,12,0.80,301.98,M,-33.324,M,,*7D
2017-12-01 13:59:01 1512154741.368258: $GPRMC,185902,A,3946.9567,N,08404.9841,W,0.0000,0.000,011217,,*35
2017-12-01 13:59:01 1512154741.368319: $GPGSA,A,3,8,10,14,15,18,20,21,24,27,32,12,138,2.0,0.8,1.5*37
2017-12-01 13:59:02 1512154742.703360: $GPGSV,3,1,12,08,08,304,36,10,59,318,50,14,20,244,40,15,20,061,41*7D
2017-12-01 13:59:02 1512154742.703546: $GPGSV,3,2,12,18,77,057,42,20,17,111,43,21,40,181,45,24,51,073,48*70
2017-12-01 13:59:02 1512154742.703615: $GPGSV,3,3,12,27,12,270,34,32,38,255,43,12,02,115,22,138,38,213,46*46
2017-12-01 13:59:02 1512154742.816822: $GPZDA,185903.00,01,12,2017,00,00*66
2017-12-01 13:59:02 1512154742.816998: $GPGGA,185903,3946.9567,N,08404.9841,W,2,12,0.80,301.98,M,-33.324,M,,*7C
2017-12-01 13:59:02 1512154742.817066: $GPRMC,185903,A,3946.9567,N,08404.9841,W,0.0000,0.000,011217,,*34
2017-12-01 13:59:02 1512154742.817128: $GPGSA,A,3,8,10,14,15,18,20,21,24,27,32,12,138,2.0,0.8,1.5*37
2017-12-01 13:59:03 1512154743.366862: $GPZDA,185904.00,01,12,2017,00,00*61
2017-12-01 13:59:03 1512154743.367045: $GPGGA,185904,3946.9567,N,08404.9841,W,2,12,0.80,301.98,M,-33.324,M,,*7B
2017-12-01 13:59:03 1512154743.367117: $GPRMC,185904,A,3946.9567,N,08404.9841,W,0.0000,0.000,011217,,*33
2017-12-01 13:59:03 1512154743.367178: $GPGSA,A,3,8,10,14,15,18,20,21,24,27,32,12,138,2.0,0.8,1.5*37
2017-12-01 13:59:04 1512154744.366366: $GPZDA,185905.00,01,12,2017,00,00*60
2017-12-01 13:59:04 1512154744.366539: $GPGGA,185905,3946.9567,N,08404.9841,W,2,12,0.80,301.98,M,-33.324,M,,*7A
2017-12-01 13:59:04 1512154744.366608: $GPRMC,185905,A,3946.9567,N,08404.9841,W,0.0000,0.000,011217,,*32
2017-12-01 13:59:04 1512154744.366670: $GPGSA,A,3,8,10,14,15,18,20,21,24,27,32,12,138,2.0,0.8,1.5*37
2017-12-01 13:59:05 1512154745.702483: $GPGSV,3,1,12,08,08,304,31,10,59,318,50,14,20,244,40,15,20,061,41*7A
2017-12-01 13:59:05 1512154745.702665: $GPGSV,3,2,12,18,77,057,42,20,17,111,43,21,40,181,45,24,51,073,47*7F
2017-12-01 13:59:05 1512154745.702735: $GPGSV,3,3,12,27,12,270,36,32,38,255,42,12,02,115,22,138,38,213,47*44
2017-12-01 13:59:05 1512154745.815877: $GPZDA,185906.00,01,12,2017,00,00*63
2017-12-01 13:59:05 1512154745.816014: $GPGGA,185906,3946.9567,N,08404.9841,W,2,12,0.80,301.98,M,-33.324,M,,*79
2017-12-01 13:59:05 1512154745.816082: $GPRMC,185906,A,3946.9567,N,08404.9841,W,0.0000,0.000,011217,,*31
2017-12-01 13:59:05 1512154745.816144: $GPGSA,A,3,8,10,14,15,18,20,21,24,27,32,12,138,2.0,0.8,1.5*37
2017-12-01 13:59:06 1512154746.366757: $GPZDA,185907.00,01,12,2017,00,00*62
2017-12-01 13:59:06 1512154746.366932: $GPGGA,185907,3946.9567,N,08404.9841,W,2,12,0.80,301.98,M,-33.324,M,,*78
2017-12-01 13:59:06 1512154746.367000: $GPRMC,185907,A,3946.9567,N,08404.9841,W,0.0000,0.000,011217,,*30
2017-12-01 13:59:06 1512154746.367060: $GPGSA,A,3,8,10,14,15,18,20,21,24,27,32,12,138,2.0,0.8,1.5*37
2017-12-01 13:59:07 1512154747.368803: $GPZDA,185908.00,01,12,2017,00,00*6D
2017-12-01 13:59:07 1512154747.368986: $GPGGA,185908,3946.9567,N,08404.9841,W,2,12,1.00,301.98,M,-33.324,M,,*7E
2017-12-01 13:59:07 1512154747.369056: $GPRMC,185908,A,3946.9567,N,08404.9841,W,0.0000,0.000,011217,,*3F
2017-12-01 13:59:07 1512154747.369117: $GPGSA,A,3,8,10,14,15,18,20,21,24,27,32,12,138,2.0,1.0,1.5*3E
2017-12-01 13:59:08 1512154748.720891: $GPGSV,3,1,12,08,08,304,00,10,59,318,50,14,20,244,40,15,20,061,41*78
2017-12-01 13:59:08 1512154748.721071: $GPGSV,3,2,12,18,77,057,42,20,17,111,43,21,40,181,45,24,51,073,48*70
2017-12-01 13:59:08 1512154748.721138: $GPGSV,3,3,12,27,12,270,36,32,38,255,42,12,02,115,22,138,38,213,46*45
2017-12-01 13:59:08 1512154748.834265: $GPZDA,185909.00,01,12,2017,00,00*6C
2017-12-01 13:59:08 1512154748.834439: $GPGGA,185909,3946.9567,N,08404.9841,W,2,11,1.00,301.98,M,-33.324,M,,*7C
2017-12-01 13:59:08 1512154748.834505: $GPRMC,185909,A,3946.9567,N,08404.9841,W,0.0000,0.000,011217,,*3E
2017-12-01 13:59:08 1512154748.834566: $GPGSA,A,3,10,14,15,18,20,21,24,27,32,12,138,,2.0,1.0,1.5*06
