2017-12-01 17:45:27 1512168327.427628: {"class":"VERSION","release":"3.16","rev":"3.16-4","proto_major":3,"proto_minor":11}
2017-12-01 17:45:27 1512168327.428234: {"class":"DEVICES","devices":[{"class":"DEVICE","path":"/dev/ttyUSB0","driver":"SiRF","subtype":"9\u0006GSD4e_4.1.2-P1_RPATCH.05-F-GPS-4R-1510281 11/03/2015 307","activated":"2017-12-01T22:45:27.318Z","flags":1,"native":1,"bps":4800,"parity":"N","stopbits":1,"cycle":1.00}]}
2017-12-01 17:45:27 1512168327.428356: {"class":"WATCH","enable":true,"json":false,"nmea":true,"raw":0,"scaled":false,"timing":false,"split24":false,"pps":false}
2017-12-01 17:45:27 1512168327.471601: $GPZDA,224528.00,01,12,2017,00,00*6B
2017-12-01 17:45:27 1512168327.471751: $GPGGA,224528,3946.9733,N,08404.9837,W,2,12,0.80,294.87,M,-33.325,M,,*71
2017-12-01 17:45:27 1512168327.471820: $GPRMC,224528,A,3946.9733,N,08404.9837,W,0.0000,0.000,011217,,*3B
2017-12-01 17:45:27 1512168327.471883: $GPGSA,A,3,1,3,10,14,22,25,26,31,32,16,29,138,2.0,0.8,1.5*0C
2017-12-01 17:45:28 1512168328.768837: $GPGSV,3,1,12,01,15,267,42,03,28,312,45,10,13,157,43,14,66,061,41*70
2017-12-01 17:45:28 1512168328.769025: $GPGSV,3,2,12,22,45,295,47,25,31,049,42,26,35,177,45,31,79,333,46*76
2017-12-01 17:45:28 1512168328.769092: $GPGSV,3,3,12,32,49,090,45,16,06,190,30,29,03,087,27,138,38,213,46*45
2017-12-01 17:45:28 1512168328.882467: $GPZDA,224529.00,01,12,2017,00,00*6A
2017-12-01 17:45:28 1512168328.882606: $GPGGA,224529,3946.9733,N,08404.9837,W,2,12,0.80,294.87,M,-33.325,M,,*70
2017-12-01 17:45:28 1512168328.882671: $GPRMC,224529,A,3946.9733,N,08404.9837,W,0.0000,0.000,011217,,*3A
2017-12-01 17:45:28 1512168328.882732: $GPGSA,A,3,1,3,10,14,22,25,26,31,32,16,29,138,2.0,0.8,1.5*0C
2017-12-01 17:45:29 1512168329.433049: $GPZDA,224530.00,01,12,2017,00,00*62
2017-12-01 17:45:29 1512168329.433243: $GPGGA,224530,3946.9733,N,08404.9837,W,2,12,0.80,294.87,M,-33.325,M,,*78
2017-12-01 17:45:29 1512168329.433311: $GPRMC,224530,A,3946.9733,N,08404.9837,W,0.0000,0.000,011217,,*32
2017-12-01 17:45:29 1512168329.433374: $GPGSA,A,3,1,3,10,14,22,25,26,31,32,16,29,138,2.0,0.8,1.5*0C
2017-12-01 17:45:31 1512168331.318857: $GPZDA,224531.00,01,12,2017,00,00*63
2017-12-01 17:45:31 1512168331.319034: $GPGGA,224531,3946.9740,N,08404.9836,W,2,12,0.80,293.34,M,-33.325,M,,*73
2017-12-01 17:45:31 1512168331.319105: $GPRMC,224531,A,3946.9740,N,08404.9836,W,0.2422,93.794,011217,,*00
2017-12-01 17:45:31 1512168331.319166: $GPGSA,A,3,1,3,10,14,22,25,26,31,32,16,29,138,2.0,0.8,1.5*0C
2017-12-01 17:45:31 1512168331.319227: $GPGBS,224531,2.67,M,3.86,M,8.82,M*31
2017-12-01 17:45:32 1512168332.105637: $GPGSV,3,1,12,01,15,267,42,03,28,312,46,10,13,157,44,14,66,061,41*74
2017-12-01 17:45:32 1512168332.105785: $GPGSV,3,2,12,22,45,294,47,25,30,049,42,26,35,177,45,31,79,334,46*71
2017-12-01 17:45:32 1512168332.105853: $GPGSV,3,3,12,32,49,090,45,16,06,190,30,29,03,087,27,138,38,213,45*46
2017-12-01 17:45:32 1512168332.219018: $GPZDA,224532.00,01,12,2017,00,00*60
2017-12-01 17:45:32 1512168332.219192: $GPGGA,224532,3946.9740,N,08404.9836,W,2,12,0.80,293.34,M,-33.325,M,,*70
2017-12-01 17:45:32 1512168332.219257: $GPRMC,224532,A,3946.9740,N,08404.9836,W,0.0000,0.000,011217,,*35
2017-12-01 17:45:32 1512168332.219318: $GPGSA,A,3,1,3,10,14,22,25,26,31,32,16,29,138,2.0,0.8,1.5*0C
2017-12-01 17:45:32 1512168332.844359: $GPZDA,224533.00,01,12,2017,00,00*61
2017-12-01 17:45:32 1512168332.844532: $GPGGA,224533,3946.9740,N,08404.9836,W,2,12,0.80,293.34,M,-33.325,M,,*71
2017-12-01 17:45:32 1512168332.844601: $GPRMC,224533,A,3946.9740,N,08404.9836,W,0.0000,0.000,011217,,*34
2017-12-01 17:45:32 1512168332.844663: $GPGSA,A,3,1,3,10,14,22,25,26,31,32,16,29,138,2.0,0.8,1.5*0C
2017-12-01 17:45:33 1512168333.432700: $GPZDA,224534.00,01,12,2017,00,00*66
2017-12-01 17:45:33 1512168333.432870: $GPGGA,224534,3946.9740,N,08404.9836,W,2,12,0.80,293.34,M,-33.325,M,,*76
2017-12-01 17:45:33 1512168333.432937: $GPRMC,224534,A,3946.9740,N,08404.9836,W,0.0000,0.000,011217,,*33
2017-12-01 17:45:33 1512168333.432999: $GPGSA,A,3,1,3,10,14,22,25,26,31,32,16,29,138,2.0,0.8,1.5*0C
2017-12-01 17:45:34 1512168334.768369: $GPGSV,3,1,12,01,15,267,42,03,28,312,46,10,13,157,43,14,66,061,41*73
2017-12-01 17:45:34 1512168334.768548: $GPGSV,3,2,12,22,45,294,47,25,30,049,42,26,35,177,45,31,79,334,46*71
2017-12-01 17:45:34 1512168334.768633: $GPGSV,3,3,12,32,49,090,45,16,06,190,31,29,03,087,27,138,38,213,45*47
2017-12-01 17:45:34 1512168334.881753: $GPZDA,224535.00,01,12,2017,00,00*67
2017-12-01 17:45:34 1512168334.881945: $GPGGA,224535,3946.9740,N,08404.9836,W,2,12,0.80,293.34,M,-33.325,M,,*77
2017-12-01 17:45:34 1512168334.882013: $GPRMC,224535,A,3946.9740,N,08404.9836,W,0.0000,0.000,011217,,*32
2017-12-01 17:45:34 1512168334.882074: $GPGSA,A,3,1,3,10,14,22,25,26,31,32,16,29,138,2.0,0.8,1.5*0C
2017-12-01 17:45:35 1512168335.431424: $GPZDA,224536.00,01,12,2017,00,00*64
2017-12-01 17:45:35 1512168335.431596: $GPGGA,224536,3946.9736,N,08404.9836,W,2,12,0.80,292.70,M,-33.325,M,,*74
2017-12-01 17:45:35 1512168335.431662: $GPRMC,224536,A,3946.9736,N,08404.9836,W,0.0000,0.000,011217,,*30
2017-12-01 17:45:35 1512168335.431723: $GPGSA,A,3,1,3,10,14,22,25,26,31,32,16,29,138,2.0,0.8,1.5*0C
2017-12-01 17:45:36 1512168336.433467: $GPZDA,224537.00,01,12,2017,00,00*65
2017-12-01 17:45:36 1512168336.433639: $GPGGA,224537,3946.9736,N,08404.9836,W,2,12,0.80,292.70,M,-33.325,M,,*75
2017-12-01 17:45:36 1512168336.433705: $GPRMC,224537,A,3946.9736,N,08404.9836,W,0.0000,0.000,011217,,*31
2017-12-01 17:45:36 1512168336.433766: $GPGSA,A,3,1,3,10,14,22,25,26,31,32,16,29,138,2.0,0.8,1.5*0C
2017-12-01 17:45:37 1512168337.768774: $GPGSV,3,1,12,01,15,267,42,03,28,312,46,10,13,157,44,14,66,061,41*74
2017-12-01 17:45:37 1512168337.768958: $GPGSV,3,2,12,22,45,294,47,25,30,049,42,26,35,177,45,31,79,334,46*71
2017-12-01 17:45:37 1512168337.769026: $GPGSV,3,3,12,32,49,090,46,16,06,190,31,29,03,087,28,138,38,213,45*4B
2017-12-01 17:45:37 1512168337.882238: $GPZDA,224538.00,01,12,2017,00,00*6A
2017-12-01 17:45:37 1512168337.882422: $GPGGA,224538,3946.9736,N,08404.9836,W,2,12,0.80,292.70,M,-33.325,M,,*7A
2017-12-01 17:45:37 1512168337.882490: $GPRMC,224538,A,3946.9736,N,08404.9836,W,0.0000,0.000,011217,,*3E
2017-12-01 17:45:37 1512168337.882552: $GPGSA,A,3,1,3,10,14,22,25,26,31,32,16,29,138,2.0,0.8,1.5*0C
2017-12-01 17:45:38 1512168338.430573: $GPZDA,224539.00,01,12,2017,00,00*6B
2017-12-01 17:45:38 1512168338.430742: $GPGGA,224539,3946.9736,N,08404.9836,W,2,12,0.80,292.70,M,-33.325,M,,*7B
2017-12-01 17:45:38 1512168338.430809: $GPRMC,224539,A,3946.9736,N,08404.9836,W,0.0000,0.000,011217,,*3F
2017-12-01 17:45:38 1512168338.430870: $GPGSA,A,3,1,3,10,14,22,25,26,31,32,16,29,138,2.0,0.8,1.5*0C
2017-12-01 17:45:39 1512168339.431303: $GPZDA,224540.00,01,12,2017,00,00*65
2017-12-01 17:45:39 1512168339.431530: $GPGGA,224540,3946.9740,N,08404.9836,W,2,12,0.80,293.34,M,-33.325,M,,*75
2017-12-01 17:45:39 1512168339.431599: $GPRMC,224540,A,3946.9740,N,08404.9836,W,0.0000,0.000,011217,,*30
2017-12-01 17:45:39 1512168339.431660: $GPGSA,A,3,1,3,10,14,22,25,26,31,32,16,29,138,2.0,0.8,1.5*0C
2017-12-01 17:45:40 1512168340.769629: $GPGSV,3,1,12,01,15,267,42,03,28,312,46,10,13,157,43,14,66,061,41*73
2017-12-01 17:45:40 1512168340.769808: $GPGSV,3,2,12,22,45,294,47,25,30,049,42,26,35,177,45,31,79,334,46*71
2017-12-01 17:45:40 1512168340.769876: $GPGSV,3,3,12,32,49,090,45,16,06,190,31,29,03,087,28,138,38,213,46*4B
2017-12-01 17:45:40 1512168340.881907: $GPZDA,224541.00,01,12,2017,00,00*64
2017-12-01 17:45:40 1512168340.882078: $GPGGA,224541,3946.9740,N,08404.9836,W,2,12,0.80,293.34,M,-33.325,M,,*74
2017-12-01 17:45:40 1512168340.882143: $GPRMC,224541,A,3946.9740,N,08404.9836,W,0.0000,0.000,011217,,*31
2017-12-01 17:45:40 1512168340.882204: $GPGSA,A,3,1,3,10,14,22,25,26,31,32,16,29,138,2.0,0.8,1.5*0C
2017-12-01 17:45:41 1512168341.432597: $GPZDA,224542.00,01,12,2017,00,00*67
2017-12-01 17:45:41 1512168341.432786: $GPGGA,224542,3946.9740,N,08404.9836,W,2,12,0.80,293.34,M,-33.325,M,,*77
2017-12-01 17:45:41 1512168341.432853: $GPRMC,224542,A,3946.9740,N,08404.9836,W,0.0000,0.000,011217,,*32
2017-12-01 17:45:41 1512168341.432914: $GPGSA,A,3,1,3,10,14,22,25,26,31,32,16,29,138,2.0,0.8,1.5*0C
2017-12-01 17:45:42 1512168342.432918: $GPZDA,224543.00,01,12,2017,00,00*66
2017-12-01 17:45:42 1512168342.433091: $GPGGA,224543,3946.9740,N,08404.9836,W,2,12,0.80,293.34,M,-33.325,M,,*76
2017-12-01 17:45:42 1512168342.433157: $GPRMC,224543,A,3946.9740,N,08404.9836,W,0.0000,0.000,011217,,*33
2017-12-01 17:45:42 1512168342.433218: $GPGSA,A,3,1,3,10,14,22,25,26,31,32,16,29,138,2.0,0.8,1.5*0C
2017-12-01 17:45:43 1512168343.768613: $GPGSV,3,1,12,01,15,267,41,03,28,312,45,10,13,157,43,14,66,061,41*73
2017-12-01 17:45:43 1512168343.768800: $GPGSV,3,2,12,22,45,294,47,25,30,049,42,26,35,177,45,31,79,334,46*71
2017-12-01 17:45:43 1512168343.768866: $GPGSV,3,3,12,32,49,090,46,16,06,190,31,29,03,087,33,138,38,213,46*42
2017-12-01 17:45:43 1512168343.882432: $GPZDA,224544.00,01,12,2017,00,00*61
2017-12-01 17:45:43 1512168343.882581: $GPGGA,224544,3946.9740,N,08404.9836,W,2,12,0.80,293.34,M,-33.325,M,,*71
2017-12-01 17:45:43 1512168343.882652: $GPRMC,224544,A,3946.9740,N,08404.9836,W,0.0000,0.000,011217,,*34
2017-12-01 17:45:43 1512168343.882714: $GPGSA,A,3,1,3,10,14,22,25,26,31,32,16,29,138,2.0,0.8,1.5*0C
2017-12-01 17:45:44 1512168344.431921: $GPZDA,224545.00,01,12,2017,00,00*60
2017-12-01 17:45:44 1512168344.432095: $GPGGA,224545,3946.9740,N,08404.9836,W,2,12,0.80,293.34,M,-33.325,M,,*70
2017-12-01 17:45:44 1512168344.432162: $GPRMC,224545,A,3946.9740,N,08404.9836,W,0.0000,0.000,011217,,*35
2017-12-01 17:45:44 1512168344.432223: $GPGSA,A,3,1,3,10,14,22,25,26,31,32,16,29,138,2.0,0.8,1.5*0C
2017-12-01 17:45:45 1512168345.432516: $GPZDA,224546.00,01,12,2017,00,00*63
2017-12-01 17:45:45 1512168345.432702: $GPGGA,224546,3946.9736,N,08404.9837,W,2,12,0.80,294.10,M,-33.325,M,,*72
2017-12-01 17:45:45 1512168345.432795: $GPRMC,224546,A,3946.9736,N,08404.9837,W,0.0000,0.000,011217,,*36
2017-12-01 17:45:45 1512168345.432860: $GPGSA,A,3,1,3,10,14,22,25,26,31,32,16,29,138,2.0,0.8,1.5*0C
2017-12-01 17:45:46 1512168346.768202: $GPGSV,3,1,12,01,15,267,41,03,28,312,45,10,13,157,43,14,66,061,41*73
2017-12-01 17:45:46 1512168346.768362: $GPGSV,3,2,12,22,45,294,48,25,30,049,42,26,35,177,45,31,79,334,47*7F
2017-12-01 17:45:46 1512168346.768428: $GPGSV,3,3,12,32,49,090,46,16,06,190,31,29,03,087,35,138,38,213,45*47
2017-12-01 17:45:46 1512168346.881632: $GPZDA,224547.00,01,12,2017,00,00*62
2017-12-01 17:45:46 1512168346.881804: $GPGGA,224547,3946.9736,N,08404.9837,W,2,12,0.80,294.10,M,-33.325,M,,*73
2017-12-01 17:45:46 1512168346.881870: $GPRMC,224547,A,3946.9736,N,08404.9837,W,0.0000,0.000,011217,,*37
2017-12-01 17:45:46 1512168346.881932: $GPGSA,A,3,1,3,10,14,22,25,26,31,32,16,29,138,2.0,0.8,1.5*0C
