2017-11-15 19:39:25 1510792765.514134: {"class":"VERSION","release":"3.17","rev":"3.17","proto_major":3,"proto_minor":12}
2017-11-15 19:39:25 1510792765.514610: {"class":"DEVICES","devices":[{"class":"DEVICE","path":"/dev/ttyUSB0","driver":"SiRF","subtype":"9\u0006GSD4e_4.1.2-P1_RPATCH.05-F-GPS-4R-1510281 11/03/2015 307","activated":"2017-11-16T00:39:25.492Z","flags":1,"native":1,"bps":4800,"parity":"N","stopbits":1,"cycle":1.00}]}
2017-11-15 19:39:25 1510792765.514728: {"class":"WATCH","enable":true,"json":false,"nmea":true,"raw":0,"scaled":false,"timing":false,"split24":false,"pps":false}
2017-11-15 19:39:26 1510792766.330140: $GPZDA,003925.00,16,11,2017,00,00*68
2017-11-15 19:39:26 1510792766.330303: $GPGGA,003925,3946.9582,N,08404.9627,W,1,06,1.40,286.16,M,-33.324,M,,*71
2017-11-15 19:39:26 1510792766.330364: $GPRMC,003925,A,3946.9582,N,08404.9627,W,1.3255,251.714,161117,,*3B
2017-11-15 19:39:26 1510792766.330419: $GPGSA,A,3,32,16,22,26,31,3,,,,,,,3.4,1.4,2.9*08
2017-11-15 19:39:27 1510792767.665882: $GPGSV,3,1,12,32,32,111,23,16,27,190,10,22,50,264,04,26,58,171,21*7F
2017-11-15 19:39:27 1510792767.666105: $GPGSV,3,2,12,14,52,097,07,31,64,031,25,03,42,294,17,01,03,249,04*70
2017-11-15 19:39:27 1510792767.666194: $GPGSV,3,3,12,29,12,067,10,23,14,303,00,25,13,039,00,120,07,103,00*4F
2017-11-15 19:39:27 1510792767.779551: $GPZDA,003926.00,16,11,2017,00,00*6B
2017-11-15 19:39:27 1510792767.779724: $GPGGA,003926,3946.9583,N,08404.9634,W,1,06,1.40,286.08,M,-33.324,M,,*7E
2017-11-15 19:39:27 1510792767.779785: $GPRMC,003926,A,3946.9583,N,08404.9634,W,1.0298,254.381,161117,,*34
2017-11-15 19:39:27 1510792767.779841: $GPGSA,A,3,32,16,26,14,31,3,,,,,,,3.4,1.4,2.9*0D
2017-11-15 19:39:28 1510792768.330261: $GPZDA,003927.00,16,11,2017,00,00*6A
2017-11-15 19:39:28 1510792768.330462: $GPGGA,003927,3946.9583,N,08404.9634,W,1,06,1.20,286.08,M,-33.324,M,,*79
2017-11-15 19:39:28 1510792768.330526: $GPRMC,003927,A,3946.9583,N,08404.9634,W,0.4844,273.794,161117,,*3E
2017-11-15 19:39:28 1510792768.330583: $GPGSA,A,3,32,16,26,14,31,3,,,,,,,3.4,1.2,2.9*0B
2017-11-15 19:39:29 1510792769.329929: $GPZDA,003928.00,16,11,2017,00,00*65
2017-11-15 19:39:29 1510792769.330101: $GPGGA,003928,3946.9587,N,08404.9634,W,1,06,1.40,286.72,M,-33.324,M,,*79
2017-11-15 19:39:29 1510792769.330162: $GPRMC,003928,A,3946.9587,N,08404.9634,W,0.2422,273.794,161117,,*3F
2017-11-15 19:39:29 1510792769.330218: $GPGSA,A,3,32,16,26,14,31,3,,,,,,,3.4,1.4,2.9*0D
2017-11-15 19:39:30 1510792770.681803: $GPGSV,3,1,12,32,32,111,22,16,27,190,10,22,50,264,00,26,58,171,21*7A
2017-11-15 19:39:30 1510792770.681969: $GPGSV,3,2,12,14,52,097,07,31,64,031,25,03,42,294,17,01,03,249,04*70
2017-11-15 19:39:30 1510792770.682028: $GPGSV,3,3,12,29,12,067,11,23,14,303,00,25,13,039,00,120,07,103,00*4E
2017-11-15 19:39:30 1510792770.795378: $GPZDA,003929.00,16,11,2017,00,00*64
2017-11-15 19:39:30 1510792770.795538: $GPGGA,003929,3946.9590,N,08404.9633,W,1,07,1.20,285.96,M,-33.324,M,,*77
2017-11-15 19:39:30 1510792770.795598: $GPRMC,003929,A,3946.9590,N,08404.9633,W,0.6846,4.197,161117,,*32
2017-11-15 19:39:30 1510792770.795654: $GPGSA,A,3,32,16,26,14,31,3,29,,,,,,3.4,1.2,2.9*00
2017-11-15 19:39:31 1510792771.420741: $GPZDA,003930.00,16,11,2017,00,00*6C
2017-11-15 19:39:31 1510792771.420915: $GPGGA,003930,3946.9590,N,08404.9633,W,1,07,1.00,285.96,M,-33.324,M,,*7D
2017-11-15 19:39:31 1510792771.420979: $GPRMC,003930,A,3946.9590,N,08404.9633,W,0.9019,18.875,161117,,*0F
2017-11-15 19:39:31 1510792771.421038: $GPGSA,A,3,32,16,26,14,31,3,29,,,,,,3.4,1.0,2.9*02
2017-11-15 19:39:32 1510792772.330411: $GPZDA,003931.00,16,11,2017,00,00*6D
2017-11-15 19:39:32 1510792772.330576: $GPGGA,003931,3946.9598,N,08404.9626,W,1,07,1.00,285.91,M,-33.324,M,,*77
2017-11-15 19:39:32 1510792772.330639: $GPRMC,003931,A,3946.9598,N,08404.9626,W,1.0269,4.197,161117,,*37
2017-11-15 19:39:32 1510792772.330698: $GPGSA,A,3,32,16,26,14,31,3,29,,,,,,3.4,1.0,2.9*02
2017-11-15 19:39:33 1510792773.665817: $GPGSV,3,1,12,32,32,111,22,16,27,190,12,22,50,264,00,26,58,171,22*7B
2017-11-15 19:39:33 1510792773.665989: $GPGSV,3,2,12,14,52,097,09,31,64,031,25,03,42,294,17,01,03,249,04*7E
2017-11-15 19:39:33 1510792773.666102: $GPGSV,3,3,12,29,12,067,09,23,14,303,00,25,13,039,00,120,07,103,00*47
2017-11-15 19:39:33 1510792773.779417: $GPZDA,003932.00,16,11,2017,00,00*6E
2017-11-15 19:39:33 1510792773.779578: $GPGGA,003932,3946.9598,N,08404.9626,W,1,07,1.00,285.91,M,-33.324,M,,*74
2017-11-15 19:39:33 1510792773.779638: $GPRMC,003932,A,3946.9598,N,08404.9626,W,1.0567,17.447,161117,,*07
2017-11-15 19:39:33 1510792773.779694: $GPGSA,A,3,32,16,26,14,31,3,29,,,,,,3.4,1.0,2.9*02
2017-11-15 19:39:34 1510792774.332541: $GPZDA,003933.00,16,11,2017,00,00*6F
2017-11-15 19:39:34 1510792774.332709: $GPGGA,003933,3946.9601,N,08404.9619,W,1,07,1.00,286.63,M,-33.324,M,,*74
2017-11-15 19:39:34 1510792774.332769: $GPRMC,003933,A,3946.9601,N,08404.9619,W,0.8414,39.347,161117,,*0E
2017-11-15 19:39:34 1510792774.332825: $GPGSA,A,3,32,16,26,14,31,3,29,,,,,,3.4,1.0,2.9*02
2017-11-15 19:39:35 1510792775.329617: $GPZDA,003934.00,16,11,2017,00,00*68
2017-11-15 19:39:35 1510792775.329788: $GPGGA,003934,3946.9605,N,08404.9618,W,1,07,1.00,285.87,M,-33.324,M,,*7F
2017-11-15 19:39:35 1510792775.329850: $GPRMC,003934,A,3946.9605,N,08404.9618,W,0.7576,81.914,161117,,*09
2017-11-15 19:39:35 1510792775.329906: $GPGSA,A,3,32,16,26,14,31,3,29,,,,,,3.4,1.0,2.9*02
