2017-11-15 19:53:46 1510793626.715329: {"class":"VERSION","release":"3.17","rev":"3.17","proto_major":3,"proto_minor":12}
2017-11-15 19:53:46 1510793626.715771: {"class":"DEVICES","devices":[{"class":"DEVICE","path":"/dev/ttyUSB0","driver":"SiRF","subtype":"9\u0006GSD4e_4.1.2-P1_RPATCH.05-F-GPS-4R-1510281 11/03/2015 307","activated":"2017-11-16T00:53:46.545Z","flags":1,"native":1,"bps":4800,"parity":"N","stopbits":1,"cycle":1.00}]}
2017-11-15 19:53:46 1510793626.715888: {"class":"WATCH","enable":true,"json":false,"nmea":true,"raw":0,"scaled":false,"timing":false,"split24":false,"pps":false}
2017-11-15 19:53:47 1510793627.345615: $GPZDA,005346.00,16,11,2017,00,00*61
2017-11-15 19:53:47 1510793627.345775: $GPGGA,005346,3946.9461,N,08404.9652,W,1,06,1.20,286.59,M,-33.324,M,,*7B
2017-11-15 19:53:47 1510793627.345838: $GPRMC,005346,A,3946.9461,N,08404.9652,W,1.9975,284.546,161117,,*32
2017-11-15 19:53:47 1510793627.345894: $GPGSA,A,3,16,31,26,14,22,23,,,,,,,3.4,1.2,2.9*38
2017-11-15 19:53:48 1510793628.681464: $GPGSV,3,1,10,03,44,288,12,16,33,190,24,31,59,039,23,26,64,166,17*75
2017-11-15 19:53:48 1510793628.681631: $GPGSV,3,2,10,14,47,105,15,22,49,255,17,32,28,115,00,23,19,304,19*7E
2017-11-15 19:53:48 1510793628.681692: $GPGSV,3,3,10,29,13,061,00,25,09,037,00*7C
2017-11-15 19:53:48 1510793628.794788: $GPZDA,005347.00,16,11,2017,00,00*60
2017-11-15 19:53:48 1510793628.794956: $GPGGA,005347,3946.9461,N,08404.9659,W,1,06,1.20,286.51,M,-33.324,M,,*79
2017-11-15 19:53:48 1510793628.795015: $GPRMC,005347,A,3946.9461,N,08404.9659,W,1.4775,281.039,161117,,*33
2017-11-15 19:53:48 1510793628.795072: $GPGSA,A,3,16,31,26,14,22,23,,,,,,,3.4,1.2,2.9*38
2017-11-15 19:53:49 1510793629.344415: $GPZDA,005348.00,16,11,2017,00,00*6F
2017-11-15 19:53:49 1510793629.344585: $GPGGA,005348,3946.9469,N,08404.9658,W,1,06,1.20,286.39,M,-33.324,M,,*71
2017-11-15 19:53:49 1510793629.344647: $GPRMC,005348,A,3946.9469,N,08404.9658,W,1.3305,297.203,161117,,*3D
2017-11-15 19:53:49 1510793629.344703: $GPGSA,A,3,16,31,26,14,22,23,,,,,,,3.4,1.2,2.9*38
2017-11-15 19:53:50 1510793630.345208: $GPZDA,005349.00,16,11,2017,00,00*6E
2017-11-15 19:53:50 1510793630.345383: $GPGGA,005349,3946.9469,N,08404.9665,W,1,06,1.20,286.31,M,-33.324,M,,*76
2017-11-15 19:53:50 1510793630.345450: $GPRMC,005349,A,3946.9469,N,08404.9665,W,1.4775,281.039,161117,,*3A
2017-11-15 19:53:50 1510793630.345507: $GPGSA,A,3,16,31,26,14,22,23,,,,,,,3.4,1.2,2.9*38
2017-11-15 19:53:51 1510793631.665499: $GPGSV,3,1,10,03,44,288,11,16,33,190,24,31,59,039,23,26,64,166,16*77
2017-11-15 19:53:51 1510793631.665671: $GPGSV,3,2,10,14,47,105,15,22,49,255,17,32,28,115,00,23,19,304,19*7E
2017-11-15 19:53:51 1510793631.665733: $GPGSV,3,3,10,29,13,061,00,25,09,037,00*7C
2017-11-15 19:53:51 1510793631.778838: $GPZDA,005350.00,16,11,2017,00,00*66
2017-11-15 19:53:51 1510793631.779016: $GPGGA,005350,3946.9474,N,08404.9672,W,1,06,1.20,286.87,M,-33.324,M,,*79
2017-11-15 19:53:51 1510793631.779078: $GPRMC,005350,A,3946.9474,N,08404.9672,W,1.9587,269.227,161117,,*31
2017-11-15 19:53:51 1510793631.779134: $GPGSA,A,3,16,31,26,14,22,23,,,,,,,3.4,1.2,2.9*38
2017-11-15 19:53:52 1510793632.328487: $GPZDA,005351.00,16,11,2017,00,00*67
2017-11-15 19:53:52 1510793632.328651: $GPGGA,005351,3946.9474,N,08404.9679,W,1,06,1.20,286.79,M,-33.324,M,,*72
2017-11-15 19:53:52 1510793632.328713: $GPRMC,005351,A,3946.9474,N,08404.9679,W,1.7601,286.017,161117,,*38
2017-11-15 19:53:52 1510793632.328769: $GPGSA,A,3,16,31,26,14,22,23,,,,,,,3.4,1.2,2.9*38
2017-11-15 19:53:53 1510793633.329319: $GPZDA,005352.00,16,11,2017,00,00*64
2017-11-15 19:53:53 1510793633.329502: $GPGGA,005352,3946.9478,N,08404.9679,W,1,06,1.20,287.43,M,-33.324,M,,*75
2017-11-15 19:53:53 1510793633.329565: $GPRMC,005352,A,3946.9478,N,08404.9679,W,1.9587,269.227,161117,,*34
2017-11-15 19:53:53 1510793633.329621: $GPGSA,A,3,16,31,26,14,22,23,,,,,,,3.4,1.2,2.9*38
2017-11-15 19:53:54 1510793634.665166: $GPGSV,3,1,10,03,44,288,11,16,33,190,25,31,59,039,23,26,64,166,16*76
2017-11-15 19:53:54 1510793634.665341: $GPGSV,3,2,10,14,47,105,15,22,49,255,17,32,28,115,00,23,19,304,18*7F
2017-11-15 19:53:54 1510793634.665461: $GPGSV,3,3,10,29,13,061,00,25,09,037,00*7C
2017-11-15 19:53:54 1510793634.778481: $GPZDA,005353.00,16,11,2017,00,00*65
2017-11-15 19:53:54 1510793634.778641: $GPGGA,005353,3946.9479,N,08404.9686,W,1,07,1.20,287.35,M,-33.324,M,,*75
2017-11-15 19:53:54 1510793634.778703: $GPRMC,005353,A,3946.9479,N,08404.9686,W,1.9587,269.227,161117,,*34
2017-11-15 19:53:54 1510793634.778759: $GPGSA,A,3,3,16,31,26,14,22,23,,,,,,3.4,1.2,2.9*0B
2017-11-15 19:53:55 1510793635.345843: $GPZDA,005354.00,16,11,2017,00,00*62
2017-11-15 19:53:55 1510793635.346023: $GPGGA,005354,3946.9479,N,08404.9693,W,1,07,1.20,287.27,M,-33.324,M,,*75
2017-11-15 19:53:55 1510793635.346086: $GPRMC,005354,A,3946.9479,N,08404.9693,W,1.4763,267.730,161117,,*3F
2017-11-15 19:53:55 1510793635.346143: $GPGSA,A,3,3,16,31,26,14,22,23,,,,,,3.4,1.2,2.9*0B
2017-11-15 19:53:56 1510793636.328156: $GPZDA,005355.00,16,11,2017,00,00*63
2017-11-15 19:53:56 1510793636.328339: $GPGGA,005355,3946.9479,N,08404.9693,W,1,07,1.20,287.27,M,-33.324,M,,*74
2017-11-15 19:53:56 1510793636.328400: $GPRMC,005355,A,3946.9479,N,08404.9693,W,1.2357,266.543,161117,,*3C
2017-11-15 19:53:56 1510793636.328460: $GPGSA,A,3,3,16,31,26,14,22,23,,,,,,3.4,1.2,2.9*0B
2017-11-15 19:53:56 1510793636.328512: $GPGBS,005355,13.59,M,20.35,M,67.34,M*04
