2017-12-01 14:22:19 1512156139.117402: {"class":"VERSION","release":"3.16","rev":"3.16-4","proto_major":3,"proto_minor":11}
2017-12-01 14:22:19 1512156139.117786: {"class":"DEVICES","devices":[{"class":"DEVICE","path":"/dev/ttyUSB0","driver":"SiRF","subtype":"9\u0006GSD4e_4.1.2-P1_RPATCH.05-F-GPS-4R-1510281 11/03/2015 307","activated":"2017-12-01T19:22:18.573Z","flags":1,"native":1,"bps":4800,"parity":"N","stopbits":1,"cycle":1.00}]}
2017-12-01 14:22:19 1512156139.117900: {"class":"WATCH","enable":true,"json":false,"nmea":true,"raw":0,"scaled":false,"timing":false,"split24":false,"pps":false}
2017-12-01 14:22:19 1512156139.435965: $GPZDA,192220.00,01,12,2017,00,00*6A
2017-12-01 14:22:19 1512156139.436150: $GPGGA,192220,3946.9557,N,08404.9841,W,2,12,0.80,312.14,M,-33.324,M,,*75
2017-12-01 14:22:19 1512156139.436218: $GPRMC,192220,A,3946.9557,N,08404.9841,W,0.0000,0.000,011217,,*3B
2017-12-01 14:22:19 1512156139.436279: $GPGSA,A,3,8,10,14,18,21,24,32,12,15,20,27,138,2.0,0.8,1.5*37
2017-12-01 14:22:20 1512156140.730553: $GPGSV,3,1,12,08,06,294,23,10,68,330,49,14,28,252,41,18,71,091,44*72
2017-12-01 14:22:20 1512156140.730733: $GPGSV,3,2,12,21,29,178,46,24,45,060,49,32,45,265,45,12,09,108,28*7A
2017-12-01 14:22:20 1512156140.730799: $GPGSV,3,3,12,15,12,066,35,20,09,117,26,27,07,261,32,138,38,213,46*46
2017-12-01 14:22:20 1512156140.843881: $GPZDA,192221.00,01,12,2017,00,00*6B
2017-12-01 14:22:20 1512156140.844041: $GPGGA,192221,3946.9557,N,08404.9841,W,2,12,0.80,312.14,M,-33.324,M,,*74
2017-12-01 14:22:20 1512156140.844110: $GPRMC,192221,A,3946.9557,N,08404.9841,W,0.0000,0.000,011217,,*3A
2017-12-01 14:22:20 1512156140.844171: $GPGSA,A,3,8,10,14,18,21,24,32,12,15,20,27,138,2.0,0.8,1.5*37
2017-12-01 14:22:21 1512156141.470730: $GPZDA,192222.00,01,12,2017,00,00*68
2017-12-01 14:22:21 1512156141.470920: $GPGGA,192222,3946.9557,N,08404.9841,W,2,12,0.80,312.14,M,-33.324,M,,*77
2017-12-01 14:22:21 1512156141.470986: $GPRMC,192222,A,3946.9557,N,08404.9841,W,0.0000,0.000,011217,,*39
2017-12-01 14:22:21 1512156141.471047: $GPGSA,A,3,8,10,14,18,21,24,32,12,15,20,27,138,2.0,0.8,1.5*37
2017-12-01 14:22:22 1512156142.435564: $GPZDA,192223.00,01,12,2017,00,00*69
2017-12-01 14:22:22 1512156142.435750: $GPGGA,192223,3946.9557,N,08404.9841,W,2,12,0.80,312.14,M,-33.324,M,,*76
2017-12-01 14:22:22 1512156142.435817: $GPRMC,192223,A,3946.9557,N,08404.9841,W,0.0000,0.000,011217,,*38
2017-12-01 14:22:22 1512156142.435878: $GPGSA,A,3,8,10,14,18,21,24,32,12,15,20,27,138,2.0,0.8,1.5*37
2017-12-01 14:22:23 1512156143.770981: $GPGSV,3,1,12,08,06,294,26,10,68,330,48,14,28,252,41,18,71,091,44*76
2017-12-01 14:22:23 1512156143.771157: $GPGSV,3,2,12,21,29,178,46,24,45,060,49,32,45,265,45,12,09,108,29*7B
2017-12-01 14:22:23 1512156143.771224: $GPGSV,3,3,12,15,12,066,35,20,09,117,26,27,07,261,32,138,38,213,46*46
2017-12-01 14:22:23 1512156143.884311: $GPZDA,192224.00,01,12,2017,00,00*6E
2017-12-01 14:22:23 1512156143.884484: $GPGGA,192224,3946.9553,N,08404.9842,W,2,12,0.80,312.90,M,-33.324,M,,*7A
2017-12-01 14:22:23 1512156143.884552: $GPRMC,192224,A,3946.9553,N,08404.9842,W,0.0000,0.000,011217,,*38
2017-12-01 14:22:23 1512156143.884612: $GPGSA,A,3,8,10,14,18,21,24,32,12,15,20,27,138,2.0,0.8,1.5*37
2017-12-01 14:22:24 1512156144.436697: $GPZDA,192225.00,01,12,2017,00,00*6F
2017-12-01 14:22:24 1512156144.436946: $GPGGA,192225,3946.9553,N,08404.9842,W,2,12,0.80,312.90,M,-33.324,M,,*7B
2017-12-01 14:22:24 1512156144.437017: $GPRMC,192225,A,3946.9553,N,08404.9842,W,0.0000,0.000,011217,,*39
2017-12-01 14:22:24 1512156144.437079: $GPGSA,A,3,8,10,14,18,21,24,32,12,15,20,27,138,2.0,0.8,1.5*37
2017-12-01 14:22:25 1512156145.402602: $GPZDA,192226.00,01,12,2017,00,00*6C
2017-12-01 14:22:26 1512156146.062064: $GPGGA,192226,3946.9553,N,08404.9842,W,2,12,0.80,312.90,M,-33.324,M,,*78
2017-12-01 14:22:26 1512156146.062241: $GPRMC,192226,A,3946.9553,N,08404.9842,W,0.0000,0.000,011217,,*3A
2017-12-01 14:22:26 1512156146.062308: $GPGSA,A,3,8,10,14,18,21,24,32,12,15,20,27,138,2.0,0.8,1.5*37
2017-12-01 14:22:26 1512156146.730041: $GPGSV,3,1,12,08,06,294,28,10,68,330,48,14,28,252,41,18,71,091,44*78
2017-12-01 14:22:26 1512156146.730285: $GPGSV,3,2,12,21,29,178,45,24,45,060,49,32,45,265,45,12,09,108,30*70
2017-12-01 14:22:26 1512156146.730354: $GPGSV,3,3,12,15,12,066,35,20,09,117,26,27,07,261,32,138,38,213,46*46
2017-12-01 14:22:26 1512156146.843651: $GPZDA,192227.00,01,12,2017,00,00*6D
2017-12-01 14:22:26 1512156146.843796: $GPGGA,192227,3946.9553,N,08404.9842,W,2,12,0.80,312.90,M,-33.324,M,,*79
2017-12-01 14:22:26 1512156146.843863: $GPRMC,192227,A,3946.9553,N,08404.9842,W,0.0000,0.000,011217,,*3B
2017-12-01 14:22:26 1512156146.843923: $GPGSA,A,3,8,10,14,18,21,24,32,12,15,20,27,138,2.0,0.8,1.5*37
2017-12-01 14:22:27 1512156147.402292: $GPZDA,192228.00,01,12,2017,00,00*62
2017-12-01 14:22:27 1512156147.402472: $GPGGA,192228,3946.9553,N,08404.9842,W,2,12,0.80,312.90,M,-33.324,M,,*76
2017-12-01 14:22:27 1512156147.402539: $GPRMC,192228,A,3946.9553,N,08404.9842,W,0.0000,0.000,011217,,*34
2017-12-01 14:22:27 1512156147.402600: $GPGSA,A,3,8,10,14,18,21,24,32,12,15,20,27,138,2.0,0.8,1.5*37
2017-12-01 14:22:28 1512156148.400141: $GPZDA,192229.00,01,12,2017,00,00*63
2017-12-01 14:22:28 1512156148.400311: $GPGGA,192229,3946.9553,N,08404.9842,W,2,12,0.80,312.90,M,-33.324,M,,*77
2017-12-01 14:22:28 1512156148.400378: $GPRMC,192229,A,3946.9553,N,08404.9842,W,0.0000,0.000,011217,,*35
2017-12-01 14:22:28 1512156148.400440: $GPGSA,A,3,8,10,14,18,21,24,32,12,15,20,27,138,2.0,0.8,1.5*37
2017-12-01 14:22:29 1512156149.735934: $GPGSV,3,1,12,08,06,294,29,10,68,330,48,14,28,252,41,18,71,091,44*79
2017-12-01 14:22:29 1512156149.736134: $GPGSV,3,2,12,21,29,178,44,24,45,060,49,32,45,265,45,12,09,108,30*71
2017-12-01 14:22:29 1512156149.736201: $GPGSV,3,3,12,15,12,066,34,20,09,117,26,27,07,261,32,138,38,213,46*47
2017-12-01 14:22:29 1512156149.849789: $GPZDA,192230.00,01,12,2017,00,00*6B
2017-12-01 14:22:29 1512156149.849963: $GPGGA,192230,3946.9553,N,08404.9842,W,2,12,0.80,312.90,M,-33.324,M,,*7F
2017-12-01 14:22:29 1512156149.850030: $GPRMC,192230,A,3946.9553,N,08404.9842,W,0.0000,0.000,011217,,*3D
2017-12-01 14:22:29 1512156149.850091: $GPGSA,A,3,8,10,14,18,21,24,32,12,15,20,27,138,2.0,0.8,1.5*37
2017-12-01 14:22:30 1512156150.400236: $GPZDA,192231.00,01,12,2017,00,00*6A
2017-12-01 14:22:30 1512156150.400613: $GPGGA,192231,3946.9553,N,08404.9842,W,2,12,0.80,312.90,M,-33.324,M,,*7E
2017-12-01 14:22:30 1512156150.407287: $GPRMC,192231,A,3946.9553,N,08404.9842,W,0.0000,0.000,011217,,*3C
2017-12-01 14:22:30 1512156150.407386: $GPGSA,A,3,8,10,14,18,21,24,32,12,15,20,27,138,2.0,0.8,1.5*37
2017-12-01 14:22:31 1512156151.396745: $GPZDA,192232.00,01,12,2017,00,00*69
2017-12-01 14:22:31 1512156151.396935: $GPGGA,192232,3946.9553,N,08404.9842,W,2,12,0.80,312.90,M,-33.324,M,,*7D
2017-12-01 14:22:31 1512156151.397004: $GPRMC,192232,A,3946.9553,N,08404.9842,W,0.0000,0.000,011217,,*3F
2017-12-01 14:22:31 1512156151.397066: $GPGSA,A,3,8,10,14,18,21,24,32,12,15,20,27,138,2.0,0.8,1.5*37
2017-12-01 14:22:32 1512156152.737484: $GPGSV,3,1,12,08,06,294,30,10,68,330,48,14,28,252,41,18,71,091,44*71
2017-12-01 14:22:32 1512156152.737666: $GPGSV,3,2,12,21,29,178,44,24,45,060,49,32,45,265,45,12,09,108,31*70
2017-12-01 14:22:32 1512156152.737733: $GPGSV,3,3,12,15,12,066,34,20,09,117,27,27,07,261,31,138,38,213,47*44
2017-12-01 14:22:32 1512156152.850833: $GPZDA,192233.00,01,12,2017,00,00*68
2017-12-01 14:22:32 1512156152.851021: $GPGGA,192233,3946.9553,N,08404.9842,W,2,12,0.80,312.90,M,-33.324,M,,*7C
2017-12-01 14:22:32 1512156152.851090: $GPRMC,192233,A,3946.9553,N,08404.9842,W,0.0000,0.000,011217,,*3E
2017-12-01 14:22:32 1512156152.851151: $GPGSA,A,3,8,10,14,18,21,24,32,12,15,20,27,138,2.0,0.8,1.5*37
2017-12-01 14:22:33 1512156153.400784: $GPZDA,192234.00,01,12,2017,00,00*6F
2017-12-01 14:22:33 1512156153.400955: $GPGGA,192234,3946.9550,N,08404.9842,W,2,12,0.80,313.67,M,-33.324,M,,*71
2017-12-01 14:22:33 1512156153.401022: $GPRMC,192234,A,3946.9550,N,08404.9842,W,0.0000,0.000,011217,,*3A
2017-12-01 14:22:33 1512156153.401083: $GPGSA,A,3,8,10,14,18,21,24,32,12,15,20,27,138,2.0,0.8,1.5*37
2017-12-01 14:22:34 1512156154.398970: $GPZDA,192235.00,01,12,2017,00,00*6E
2017-12-01 14:22:34 1512156154.399148: $GPGGA,192235,3946.9550,N,08404.9842,W,2,12,0.80,313.67,M,-33.324,M,,*70
2017-12-01 14:22:34 1512156154.399215: $GPRMC,192235,A,3946.9550,N,08404.9842,W,0.0000,0.000,011217,,*3B
2017-12-01 14:22:34 1512156154.399276: $GPGSA,A,3,8,10,14,18,21,24,32,12,15,20,27,138,2.0,0.8,1.5*37
2017-12-01 14:22:35 1512156155.737090: $GPGSV,3,1,12,08,06,294,36,10,68,330,48,14,28,252,41,18,71,091,45*76
2017-12-01 14:22:35 1512156155.737276: $GPGSV,3,2,12,21,29,178,44,24,45,060,50,32,45,265,44,12,09,108,32*7A
2017-12-01 14:22:35 1512156155.737343: $GPGSV,3,3,12,15,12,066,34,20,09,117,27,27,07,261,31,138,38,213,46*45
2017-12-01 14:22:35 1512156155.850641: $GPZDA,192236.00,01,12,2017,00,00*6D
2017-12-01 14:22:35 1512156155.850847: $GPGGA,192236,3946.9550,N,08404.9842,W,2,12,0.80,313.67,M,-33.324,M,,*73
2017-12-01 14:22:35 1512156155.850919: $GPRMC,192236,A,3946.9550,N,08404.9842,W,0.0000,0.000,011217,,*38
2017-12-01 14:22:35 1512156155.850981: $GPGSA,A,3,8,10,14,18,21,24,32,12,15,20,27,138,2.0,0.8,1.5*37
2017-12-01 14:22:36 1512156156.475857: $GPZDA,192237.00,01,12,2017,00,00*6C
2017-12-01 14:22:36 1512156156.476042: $GPGGA,192237,3946.9554,N,08404.9835,W,2,12,0.80,314.38,M,-33.324,M,,*7B
2017-12-01 14:22:36 1512156156.476110: $GPRMC,192237,A,3946.9554,N,08404.9835,W,0.0000,0.000,011217,,*3D
2017-12-01 14:22:36 1512156156.476172: $GPGSA,A,3,8,10,14,18,21,24,32,12,15,20,27,138,2.0,0.8,1.5*37
2017-12-01 14:22:37 1512156157.394259: $GPZDA,192238.00,01,12,2017,00,00*63
2017-12-01 14:22:37 1512156157.394421: $GPGGA,192238,3946.9554,N,08404.9835,W,2,12,0.80,314.38,M,-33.324,M,,*74
2017-12-01 14:22:37 1512156157.394488: $GPRMC,192238,A,3946.9554,N,08404.9835,W,0.0000,0.000,011217,,*32
2017-12-01 14:22:37 1512156157.394549: $GPGSA,A,3,8,10,14,18,21,24,32,12,15,20,27,138,2.0,0.8,1.5*37
2017-12-01 14:22:38 1512156158.734969: $GPGSV,3,1,12,08,06,294,35,10,68,330,48,14,28,252,41,18,71,091,44*74
2017-12-01 14:22:38 1512156158.735150: $GPGSV,3,2,12,21,29,178,45,24,45,060,50,32,45,265,45,12,09,108,32*7A
2017-12-01 14:22:38 1512156158.735217: $GPGSV,3,3,12,15,12,066,34,20,09,117,27,27,07,261,31,138,38,213,46*45
2017-12-01 14:22:38 1512156158.848570: $GPZDA,192239.00,01,12,2017,00,00*62
2017-12-01 14:22:38 1512156158.848741: $GPGGA,192239,3946.9554,N,08404.9835,W,2,12,0.80,314.38,M,-33.324,M,,*75
2017-12-01 14:22:38 1512156158.848808: $GPRMC,192239,A,3946.9554,N,08404.9835,W,0.0000,0.000,011217,,*33
2017-12-01 14:22:38 1512156158.848869: $GPGSA,A,3,8,10,14,18,21,24,32,12,15,20,27,138,2.0,0.8,1.5*37
