2017-12-29 11:53:12 1514566392.207794: {"class":"VERSION","release":"3.16","rev":"3.16-4","proto_major":3,"proto_minor":11}
2017-12-29 11:53:12 1514566392.208143: {"class":"DEVICES","devices":[{"class":"DEVICE","path":"/dev/ttyUSB0","driver":"SiRF","subtype":"9\u0006GSD4e_4.1.2-P1_RPATCH.05-F-GPS-4R-1510281 11/03/2015 307","activated":"2017-12-29T16:53:11.599Z","flags":1,"native":1,"bps":4800,"parity":"N","stopbits":1,"cycle":1.00}]}
2017-12-29 11:53:12 1514566392.208269: {"class":"WATCH","enable":true,"json":false,"nmea":true,"raw":0,"scaled":false,"timing":false,"split24":false,"pps":false}
2017-12-29 11:53:12 1514566392.794351: $GPGSV,3,1,11,08,08,309,37,10,55,313,46,14,16,241,33,15,23,058,46*78
2017-12-29 11:53:12 1514566392.794526: $GPGSV,3,2,11,18,77,037,45,20,22,108,49,21,46,183,47,24,53,082,50*75
2017-12-29 11:53:12 1514566392.794592: $GPGSV,3,3,11,27,14,274,39,32,34,250,37,138,38,213,44*76
2017-12-29 11:53:12 1514566392.907679: $GPZDA,165313.00,29,12,2017,00,00*69
2017-12-29 11:53:12 1514566392.907823: $GPGGA,165313,3946.9620,N,08404.9875,W,2,11,0.80,319.93,M,-33.324,M,,*7F
2017-12-29 11:53:12 1514566392.907890: $GPRMC,165313,A,3946.9620,N,08404.9875,W,0.0000,0.000,291217,,*3C
2017-12-29 11:53:12 1514566392.907950: $GPGSA,A,3,8,10,14,15,18,20,21,24,27,32,138,,1.7,0.8,1.3*36
2017-12-29 11:53:13 1514566393.533306: $GPZDA,165314.00,29,12,2017,00,00*6E
2017-12-29 11:53:13 1514566393.533486: $GPGGA,165314,3946.9620,N,08404.9875,W,2,11,0.80,319.93,M,-33.324,M,,*78
2017-12-29 11:53:13 1514566393.533557: $GPRMC,165314,A,3946.9620,N,08404.9875,W,0.0000,0.000,291217,,*3B
2017-12-29 11:53:13 1514566393.533621: $GPGSA,A,3,8,10,14,15,18,20,21,24,27,32,138,,1.7,0.8,1.3*36
2017-12-29 11:53:14 1514566394.459051: $GPZDA,165315.00,29,12,2017,00,00*6F
2017-12-29 11:53:14 1514566394.459235: $GPGGA,165315,3946.9620,N,08404.9875,W,2,11,0.80,319.93,M,-33.324,M,,*79
2017-12-29 11:53:14 1514566394.459318: $GPRMC,165315,A,3946.9620,N,08404.9875,W,0.0000,0.000,291217,,*3A
2017-12-29 11:53:14 1514566394.459380: $GPGSA,A,3,8,10,14,15,18,20,21,24,27,32,138,,1.7,0.8,1.3*36
2017-12-29 11:53:15 1514566395.789705: $GPGSV,3,1,11,08,08,309,38,10,55,313,46,14,16,241,33,15,23,058,46*77
2017-12-29 11:53:15 1514566395.789882: $GPGSV,3,2,11,18,77,037,45,20,22,108,49,21,46,183,47,24,53,082,50*75
2017-12-29 11:53:15 1514566395.789948: $GPGSV,3,3,11,27,14,274,39,32,34,250,36,138,38,213,46*75
2017-12-29 11:53:15 1514566395.901980: $GPZDA,165316.00,29,12,2017,00,00*6C
2017-12-29 11:53:15 1514566395.902185: $GPGGA,165316,3946.9620,N,08404.9875,W,2,11,0.80,319.93,M,-33.324,M,,*7A
2017-12-29 11:53:15 1514566395.902274: $GPRMC,165316,A,3946.9620,N,08404.9875,W,0.0000,0.000,291217,,*39
2017-12-29 11:53:15 1514566395.902336: $GPGSA,A,3,8,10,14,15,18,20,21,24,27,32,138,,1.7,0.8,1.3*36
2017-12-29 11:53:16 1514566396.436872: $GPZDA,165317.00,29,12,2017,00,00*6D
2017-12-29 11:53:16 1514566396.437026: $GPGGA,165317,3946.9620,N,08404.9875,W,2,11,0.80,319.93,M,-33.324,M,,*7B
2017-12-29 11:53:16 1514566396.437092: $GPRMC,165317,A,3946.9620,N,08404.9875,W,0.0000,0.000,291217,,*38
2017-12-29 11:53:16 1514566396.437177: $GPGSA,A,3,8,10,14,15,18,20,21,24,27,32,138,,1.7,0.8,1.3*36
2017-12-29 11:53:17 1514566397.443998: $GPZDA,165318.00,29,12,2017,00,00*62
2017-12-29 11:53:17 1514566397.444182: $GPGGA,165318,3946.9620,N,08404.9875,W,2,11,0.80,319.93,M,-33.324,M,,*74
2017-12-29 11:53:17 1514566397.444265: $GPRMC,165318,A,3946.9620,N,08404.9875,W,0.0000,0.000,291217,,*37
2017-12-29 11:53:17 1514566397.444327: $GPGSA,A,3,8,10,14,15,18,20,21,24,27,32,138,,1.7,0.8,1.3*36
2017-12-29 11:53:18 1514566398.780056: $GPGSV,3,1,11,08,08,309,38,10,55,313,46,14,16,241,33,15,23,058,46*77
2017-12-29 11:53:18 1514566398.780243: $GPGSV,3,2,11,18,77,037,45,20,22,108,49,21,46,183,47,24,53,082,50*75
2017-12-29 11:53:18 1514566398.780309: $GPGSV,3,3,11,27,14,274,39,32,34,250,36,138,38,213,45*76
2017-12-29 11:53:18 1514566398.893544: $GPZDA,165319.00,29,12,2017,00,00*63
2017-12-29 11:53:18 1514566398.893710: $GPGGA,165319,3946.9624,N,08404.9868,W,2,11,0.80,320.65,M,-33.324,M,,*7E
2017-12-29 11:53:18 1514566398.893830: $GPRMC,165319,A,3946.9624,N,08404.9868,W,0.0000,0.000,291217,,*3E
2017-12-29 11:53:18 1514566398.893894: $GPGSA,A,3,8,10,14,15,18,20,21,24,27,32,138,,1.7,0.8,1.3*36
2017-12-29 11:53:19 1514566399.458248: $GPZDA,165320.00,29,12,2017,00,00*69
2017-12-29 11:53:19 1514566399.458416: $GPGGA,165320,3946.9624,N,08404.9868,W,2,11,0.80,320.65,M,-33.324,M,,*74
2017-12-29 11:53:19 1514566399.458482: $GPRMC,165320,A,3946.9624,N,08404.9868,W,0.0000,0.000,291217,,*34
2017-12-29 11:53:19 1514566399.458542: $GPGSA,A,3,8,10,14,15,18,20,21,24,27,32,138,,1.7,0.8,1.3*36
2017-12-29 11:53:20 1514566400.458906: $GPZDA,165321.00,29,12,2017,00,00*68
2017-12-29 11:53:20 1514566400.459096: $GPGGA,165321,3946.9624,N,08404.9868,W,2,11,0.80,320.65,M,-33.324,M,,*75
2017-12-29 11:53:20 1514566400.459163: $GPRMC,165321,A,3946.9624,N,08404.9868,W,0.0000,0.000,291217,,*35
2017-12-29 11:53:20 1514566400.459242: $GPGSA,A,3,8,10,14,15,18,20,21,24,27,32,138,,1.7,0.8,1.3*36
2017-12-29 11:53:21 1514566401.778509: $GPGSV,3,1,11,08,08,309,36,10,55,313,46,14,16,241,33,15,23,058,46*79
2017-12-29 11:53:21 1514566401.778687: $GPGSV,3,2,11,18,77,037,45,20,22,108,49,21,46,183,46,24,53,082,50*74
2017-12-29 11:53:21 1514566401.778754: $GPGSV,3,3,11,27,14,274,39,32,34,250,36,138,38,213,45*76
2017-12-29 11:53:21 1514566401.892322: $GPZDA,165322.00,29,12,2017,00,00*6B
2017-12-29 11:53:21 1514566401.892642: $GPGGA,165322,3946.9624,N,08404.9868,W,2,11,0.80,320.65,M,-33.324,M,,*76
2017-12-29 11:53:21 1514566401.892764: $GPRMC,165322,A,3946.9624,N,08404.9868,W,0.0000,0.000,291217,,*36
2017-12-29 11:53:21 1514566401.892888: $GPGSA,A,3,8,10,14,15,18,20,21,24,27,32,138,,1.7,0.8,1.3*36
2017-12-29 11:53:22 1514566402.460334: $GPZDA,165323.00,29,12,2017,00,00*6A
2017-12-29 11:53:22 1514566402.460501: $GPGGA,165323,3946.9624,N,08404.9868,W,2,11,0.80,320.65,M,-33.324,M,,*77
2017-12-29 11:53:22 1514566402.460565: $GPRMC,165323,A,3946.9624,N,08404.9868,W,0.0000,0.000,291217,,*37
2017-12-29 11:53:22 1514566402.460626: $GPGSA,A,3,8,10,14,15,18,20,21,24,27,32,138,,1.7,0.8,1.3*36
2017-12-29 11:53:23 1514566403.441947: $GPZDA,165324.00,29,12,2017,00,00*6D
2017-12-29 11:53:24 1514566404.135588: $GPGGA,165324,3946.9624,N,08404.9868,W,2,11,0.80,320.65,M,-33.324,M,,*70
2017-12-29 11:53:24 1514566404.135752: $GPRMC,165324,A,3946.9624,N,08404.9868,W,0.0000,0.000,291217,,*30
2017-12-29 11:53:24 1514566404.135866: $GPGSA,A,3,8,10,14,15,18,20,21,24,27,32,138,,1.7,0.8,1.3*36
2017-12-29 11:53:24 1514566404.778850: $GPGSV,3,1,11,08,08,309,36,10,55,313,46,14,16,241,33,15,23,058,46*79
2017-12-29 11:53:24 1514566404.779020: $GPGSV,3,2,11,18,77,037,45,20,22,108,48,21,46,183,46,24,53,082,50*75
2017-12-29 11:53:24 1514566404.779086: $GPGSV,3,3,11,27,14,274,38,32,34,250,35,138,38,213,44*75
2017-12-29 11:53:24 1514566404.892575: $GPZDA,165325.00,29,12,2017,00,00*6C
2017-12-29 11:53:24 1514566404.892889: $GPGGA,165325,3946.9624,N,08404.9868,W,2,11,0.80,320.65,M,-33.324,M,,*71
2017-12-29 11:53:24 1514566404.893028: $GPRMC,165325,A,3946.9624,N,08404.9868,W,0.0000,0.000,291217,,*31
2017-12-29 11:53:24 1514566404.893162: $GPGSA,A,3,8,10,14,15,18,20,21,24,27,32,138,,1.7,0.8,1.3*36
2017-12-29 11:53:25 1514566405.459384: $GPZDA,165326.00,29,12,2017,00,00*6F
2017-12-29 11:53:25 1514566405.459553: $GPGGA,165326,3946.9624,N,08404.9868,W,2,11,0.80,320.65,M,-33.324,M,,*72
2017-12-29 11:53:25 1514566405.459619: $GPRMC,165326,A,3946.9624,N,08404.9868,W,0.0000,0.000,291217,,*32
2017-12-29 11:53:25 1514566405.459679: $GPGSA,A,3,8,10,14,15,18,20,21,24,27,32,138,,1.7,0.8,1.3*36
2017-12-29 11:53:26 1514566406.460243: $GPZDA,165327.00,29,12,2017,00,00*6E
2017-12-29 11:53:26 1514566406.460406: $GPGGA,165327,3946.9624,N,08404.9868,W,2,11,0.80,320.65,M,-33.324,M,,*73
2017-12-29 11:53:26 1514566406.460470: $GPRMC,165327,A,3946.9624,N,08404.9868,W,0.0000,0.000,291217,,*33
2017-12-29 11:53:26 1514566406.460531: $GPGSA,A,3,8,10,14,15,18,20,21,24,27,32,138,,1.7,0.8,1.3*36
