2017-11-16 15:49:00 1510865340.746313: {"class":"VERSION","release":"3.17","rev":"3.17","proto_major":3,"proto_minor":12}
2017-11-16 15:49:00 1510865340.746783: {"class":"DEVICES","devices":[{"class":"DEVICE","path":"/dev/ttyUSB0","driver":"SiRF","subtype":"9\u0006GSD4e_4.1.2-P1_RPATCH.05-F-GPS-4R-1510281 11/03/2015 307","activated":"2017-11-16T20:49:00.690Z","flags":1,"native":1,"bps":4800,"parity":"N","stopbits":1,"cycle":1.00}]}
2017-11-16 15:49:00 1510865340.746897: {"class":"WATCH","enable":true,"json":false,"nmea":true,"raw":0,"scaled":false,"timing":false,"split24":false,"pps":false}
2017-11-16 15:49:01 1510865341.719650: $GPGSV,3,1,12,11,03,322,36,10,78,351,50,14,36,262,44,31,08,204,33*7B
2017-11-16 15:49:01 1510865341.719840: $GPGSV,3,2,12,18,63,111,48,25,10,135,15,21,19,178,42,24,37,051,50*7F
2017-11-16 15:49:01 1510865341.719902: $GPGSV,3,3,12,08,02,285,28,32,53,277,46,12,15,099,43,138,38,213,44*43
2017-11-16 15:49:01 1510865341.833113: $GPZDA,204900.00,16,11,2017,00,00*6A
2017-11-16 15:49:01 1510865341.833278: $GPGGA,204900,3946.9579,N,08404.9851,W,2,12,1.20,308.80,M,-33.324,M,,*70
2017-11-16 15:49:01 1510865341.833342: $GPRMC,204900,A,3946.9579,N,08404.9851,W,0.0000,0.000,161117,,*36
2017-11-16 15:49:01 1510865341.833398: $GPGSA,A,3,11,10,14,31,18,25,21,24,8,32,12,138,1.6,1.2,1.3*39
2017-11-16 15:49:02 1510865342.358789: $GPZDA,204901.00,16,11,2017,00,00*6B
2017-11-16 15:49:02 1510865342.358956: $GPGGA,204901,3946.9579,N,08404.9851,W,2,12,1.20,308.80,M,-33.324,M,,*71
2017-11-16 15:49:02 1510865342.359018: $GPRMC,204901,A,3946.9579,N,08404.9851,W,0.0000,0.000,161117,,*37
2017-11-16 15:49:02 1510865342.359075: $GPGSA,A,3,11,10,14,31,18,25,21,24,8,32,12,138,1.6,1.2,1.3*39
2017-11-16 15:49:03 1510865343.358398: $GPZDA,204902.00,16,11,2017,00,00*68
2017-11-16 15:49:03 1510865343.358559: $GPGGA,204902,3946.9579,N,08404.9851,W,2,12,1.20,308.80,M,-33.324,M,,*72
2017-11-16 15:49:03 1510865343.358620: $GPRMC,204902,A,3946.9579,N,08404.9851,W,0.0000,0.000,161117,,*34
2017-11-16 15:49:03 1510865343.358677: $GPGSA,A,3,11,10,14,31,18,25,21,24,8,32,12,138,1.6,1.2,1.3*39
2017-11-16 15:49:04 1510865344.721816: $GPGSV,3,1,12,11,03,322,36,10,78,351,50,14,36,262,43,31,08,204,32*7D
2017-11-16 15:49:04 1510865344.722015: $GPGSV,3,2,12,18,63,111,48,25,10,135,15,21,19,178,42,24,37,051,50*7F
2017-11-16 15:49:04 1510865344.722075: $GPGSV,3,3,12,15,04,072,20,32,53,277,46,12,15,099,43,138,38,213,44*4B
2017-11-16 15:49:04 1510865344.835018: $GPZDA,204903.00,16,11,2017,00,00*69
2017-11-16 15:49:04 1510865344.835193: $GPGGA,204903,3946.9579,N,08404.9851,W,2,12,1.20,308.80,M,-33.324,M,,*73
2017-11-16 15:49:04 1510865344.835254: $GPRMC,204903,A,3946.9579,N,08404.9851,W,0.0000,0.000,161117,,*35
2017-11-16 15:49:04 1510865344.835311: $GPGSA,A,3,11,10,14,31,18,25,21,24,15,32,12,138,1.6,1.2,1.3*05
2017-11-16 15:49:05 1510865345.377212: $GPZDA,204904.00,16,11,2017,00,00*6E
2017-11-16 15:49:05 1510865345.377391: $GPGGA,204904,3946.9579,N,08404.9851,W,2,12,1.20,308.80,M,-33.324,M,,*74
2017-11-16 15:49:05 1510865345.377455: $GPRMC,204904,A,3946.9579,N,08404.9851,W,0.0000,0.000,161117,,*32
2017-11-16 15:49:05 1510865345.377513: $GPGSA,A,3,11,10,14,31,18,25,21,24,15,32,12,138,1.6,1.2,1.3*05
2017-11-16 15:49:06 1510865346.382875: $GPZDA,204905.00,16,11,2017,00,00*6F
2017-11-16 15:49:06 1510865346.383034: $GPGGA,204905,3946.9579,N,08404.9851,W,2,12,1.20,308.80,M,-33.324,M,,*75
2017-11-16 15:49:06 1510865346.383095: $GPRMC,204905,A,3946.9579,N,08404.9851,W,0.0000,0.000,161117,,*33
2017-11-16 15:49:06 1510865346.383151: $GPGSA,A,3,11,10,14,31,18,25,21,24,15,32,12,138,1.6,1.2,1.3*05
2017-11-16 15:49:07 1510865347.703366: $GPGSV,3,1,12,11,03,322,36,10,78,351,50,14,36,262,43,31,08,204,32*7D
2017-11-16 15:49:07 1510865347.703549: $GPGSV,3,2,12,18,63,111,48,25,10,135,15,21,19,178,42,24,37,051,50*7F
2017-11-16 15:49:07 1510865347.703612: $GPGSV,3,3,12,15,04,072,20,32,53,277,46,12,15,099,44,138,38,213,45*4D
2017-11-16 15:49:07 1510865347.816645: $GPZDA,204906.00,16,11,2017,00,00*6C
2017-11-16 15:49:07 1510865347.816816: $GPGGA,204906,3946.9579,N,08404.9851,W,2,12,1.20,308.80,M,-33.324,M,,*76
2017-11-16 15:49:07 1510865347.816935: $GPRMC,204906,A,3946.9579,N,08404.9851,W,0.0000,0.000,161117,,*30
2017-11-16 15:49:07 1510865347.816994: $GPGSA,A,3,11,10,14,31,18,25,21,24,15,32,12,138,1.6,1.2,1.3*05
2017-11-16 15:49:08 1510865348.376274: $GPZDA,204907.00,16,11,2017,00,00*6D
2017-11-16 15:49:08 1510865348.376431: $GPGGA,204907,3946.9579,N,08404.9851,W,2,12,1.20,308.80,M,-33.324,M,,*77
2017-11-16 15:49:08 1510865348.376494: $GPRMC,204907,A,3946.9579,N,08404.9851,W,0.0000,0.000,161117,,*31
2017-11-16 15:49:08 1510865348.376551: $GPGSA,A,3,11,10,14,31,18,25,21,24,15,32,12,138,1.6,1.2,1.3*05
2017-11-16 15:49:09 1510865349.360003: $GPZDA,204908.00,16,11,2017,00,00*62
2017-11-16 15:49:09 1510865349.360163: $GPGGA,204908,3946.9579,N,08404.9851,W,2,12,1.20,308.80,M,-33.324,M,,*78
2017-11-16 15:49:09 1510865349.360225: $GPRMC,204908,A,3946.9579,N,08404.9851,W,0.0000,0.000,161117,,*3E
2017-11-16 15:49:09 1510865349.360344: $GPGSA,A,3,11,10,14,31,18,25,21,24,15,32,12,138,1.6,1.2,1.3*05
