2017-12-29 15:01:47 1514577707.534105: {"class":"VERSION","release":"3.16","rev":"3.16-4","proto_major":3,"proto_minor":11}
2017-12-29 15:01:47 1514577707.534498: {"class":"DEVICES","devices":[{"class":"DEVICE","path":"/dev/ttyUSB0","driver":"SiRF","subtype":"9\u0006GSD4e_4.1.2-P1_RPATCH.05-F-GPS-4R-1510281 11/03/2015 307","activated":"2017-12-29T20:01:47.277Z","flags":1,"native":1,"bps":4800,"parity":"N","stopbits":1,"cycle":1.00}]}
2017-12-29 15:01:47 1514577707.534627: {"class":"WATCH","enable":true,"json":false,"nmea":true,"raw":0,"scaled":false,"timing":false,"split24":false,"pps":false}
2017-12-29 15:01:47 1514577707.884450: $GPZDA,200148.58,29,12,2017,00,00*68
2017-12-29 15:01:47 1514577707.884611: $GPGGA,200148,3946.9584,N,08404.9795,W,1,12,1.00,309.31,M,-33.324,M,,*7F
2017-12-29 15:01:47 1514577707.884676: $GPRMC,200148,A,3946.9584,N,08404.9795,W,0.2558,348.707,291217,,*39
2017-12-29 15:01:47 1514577707.884737: $GPGSA,A,3,1,3,10,18,12,14,22,25,31,32,11,138,1.7,1.0,1.3*05
2017-12-29 15:01:47 1514577707.884796: $GPGBS,200148,10.91,M,10.38,M,30.89,M*00
2017-12-29 15:01:48 1514577708.828418: $GPZDA,200149.26,29,12,2017,00,00*60
2017-12-29 15:01:48 1514577708.828601: $GPGGA,200149,3946.9584,N,08404.9795,W,1,12,1.00,309.31,M,-33.324,M,,*7E
2017-12-29 15:01:48 1514577708.828667: $GPRMC,200149,A,3946.9584,N,08404.9795,W,0.2959,54.767,291217,,*0D
2017-12-29 15:01:48 1514577708.828728: $GPGSA,A,3,1,3,10,18,12,14,22,25,31,32,11,138,1.7,1.0,1.3*05
2017-12-29 15:01:48 1514577708.828786: $GPGBS,200149,10.91,M,10.38,M,30.89,M*01
2017-12-29 15:01:50 1514577710.024407: $GPGSV,3,1,12,03,11,316,39,10,35,153,49,01,22,288,13,12,16,040,44*79
2017-12-29 15:01:50 1514577710.024602: $GPGSV,3,2,12,14,70,357,44,22,29,309,42,25,41,075,51,31,69,240,48*7C
2017-12-29 15:01:50 1514577710.024669: $GPGSV,3,3,12,32,62,058,50,18,06,147,11,26,14,180,10,138,38,213,00*42
2017-12-29 15:01:50 1514577710.138157: $GPZDA,200150.00,29,12,2017,00,00*6C
2017-12-29 15:01:50 1514577710.138320: $GPGGA,200150,3946.9584,N,08404.9795,W,1,08,1.00,309.31,M,-33.324,M,,*7D
2017-12-29 15:01:50 1514577710.138387: $GPRMC,200150,A,3946.9584,N,08404.9795,W,0.2758,128.233,291217,,*34
2017-12-29 15:01:50 1514577710.138466: $GPGSA,A,3,3,10,12,14,22,25,31,32,,,,,1.7,1.0,1.3*07
2017-12-29 15:01:50 1514577710.588998: $GPZDA,200151.00,29,12,2017,00,00*6D
2017-12-29 15:01:50 1514577710.589155: $GPGGA,200151,3946.9584,N,08404.9802,W,1,08,0.80,309.23,M,-33.324,M,,*77
2017-12-29 15:01:50 1514577710.589221: $GPRMC,200151,A,3946.9584,N,08404.9802,W,0.1567,189.200,291217,,*32
2017-12-29 15:01:50 1514577710.589304: $GPGSA,A,3,3,10,12,14,22,25,31,32,,,,,1.7,0.8,1.3*0E
2017-12-29 15:01:51 1514577711.383314: $GPZDA,200152.00,29,12,2017,00,00*6E
2017-12-29 15:01:51 1514577711.383494: $GPGGA,200152,3946.9580,N,08404.9802,W,1,08,0.80,308.59,M,-33.324,M,,*7C
2017-12-29 15:01:51 1514577711.383561: $GPRMC,200152,A,3946.9580,N,08404.9802,W,0.0000,0.000,291217,,*32
2017-12-29 15:01:51 1514577711.383622: $GPGSA,A,3,3,10,12,14,22,25,31,32,,,,,1.7,0.8,1.3*0E
2017-12-29 15:01:52 1514577712.709711: $GPGSV,3,1,12,03,11,316,40,10,35,153,49,01,22,288,32,12,16,040,44*74
2017-12-29 15:01:52 1514577712.709867: $GPGSV,3,2,12,14,70,357,44,22,29,309,42,25,41,075,51,31,69,240,48*7C
2017-12-29 15:01:52 1514577712.709933: $GPGSV,3,3,12,32,62,058,50,18,06,147,27,11,04,273,34,138,38,213,44*4B
2017-12-29 15:01:52 1514577712.821880: $GPZDA,200153.00,29,12,2017,00,00*6F
2017-12-29 15:01:52 1514577712.822008: $GPGGA,200153,3946.9584,N,08404.9808,W,1,12,0.80,307.74,M,-33.324,M,,*78
2017-12-29 15:01:52 1514577712.822073: $GPRMC,200153,A,3946.9584,N,08404.9808,W,0.0000,0.000,291217,,*3D
2017-12-29 15:01:52 1514577712.822133: $GPGSA,A,3,3,10,1,12,14,22,25,31,32,18,11,138,1.7,0.8,1.3*0C
2017-12-29 15:01:53 1514577713.380184: $GPZDA,200154.00,29,12,2017,00,00*68
2017-12-29 15:01:53 1514577713.380346: $GPGGA,200154,3946.9580,N,08404.9808,W,1,12,0.80,307.10,M,-33.324,M,,*79
2017-12-29 15:01:53 1514577713.380428: $GPRMC,200154,A,3946.9580,N,08404.9808,W,0.0000,0.000,291217,,*3E
2017-12-29 15:01:53 1514577713.380490: $GPGSA,A,3,3,10,1,12,14,22,25,31,32,18,11,138,1.7,0.8,1.3*0C
2017-12-29 15:01:54 1514577714.374975: $GPZDA,200155.00,29,12,2017,00,00*69
2017-12-29 15:01:54 1514577714.375133: $GPGGA,200155,3946.9583,N,08404.9807,W,1,12,0.80,306.34,M,-33.324,M,,*73
2017-12-29 15:01:54 1514577714.375198: $GPRMC,200155,A,3946.9583,N,08404.9807,W,0.0000,0.000,291217,,*33
2017-12-29 15:01:54 1514577714.375282: $GPGSA,A,3,3,10,1,12,14,22,25,31,32,18,11,138,1.7,0.8,1.3*0C
2017-12-29 15:01:54 1514577714.375343: $GPGBS,200155,10.91,M,10.38,M,30.89,M*0C
2017-12-29 15:01:55 1514577715.710414: $GPGSV,3,1,12,03,11,316,40,10,35,153,50,01,22,288,32,12,16,040,44*7C
2017-12-29 15:01:55 1514577715.710590: $GPGSV,3,2,12,14,70,357,43,22,29,309,41,25,41,075,51,31,69,240,48*78
2017-12-29 15:01:55 1514577715.710657: $GPGSV,3,3,12,32,62,058,50,18,06,147,27,11,04,273,34,138,38,213,44*4B
2017-12-29 15:01:55 1514577715.824035: $GPZDA,200156.00,29,12,2017,00,00*6A
2017-12-29 15:01:55 1514577715.824162: $GPGGA,200156,3946.9579,N,08404.9814,W,1,12,0.80,305.62,M,-33.324,M,,*77
2017-12-29 15:01:55 1514577715.824248: $GPRMC,200156,A,3946.9579,N,08404.9814,W,0.0000,0.000,291217,,*37
2017-12-29 15:01:55 1514577715.824311: $GPGSA,A,3,3,10,1,12,14,22,25,31,32,18,11,138,1.7,0.8,1.3*0C
2017-12-29 15:01:56 1514577716.381205: $GPZDA,200157.00,29,12,2017,00,00*6B
2017-12-29 15:01:56 1514577716.381385: $GPGGA,200157,3946.9579,N,08404.9814,W,1,12,0.80,305.62,M,-33.324,M,,*76
2017-12-29 15:01:56 1514577716.381452: $GPRMC,200157,A,3946.9579,N,08404.9814,W,0.0000,0.000,291217,,*36
2017-12-29 15:01:56 1514577716.381512: $GPGSA,A,3,3,10,1,12,14,22,25,31,32,18,11,138,1.7,0.8,1.3*0C
2017-12-29 15:01:57 1514577717.375304: $GPZDA,200158.00,29,12,2017,00,00*64
2017-12-29 15:01:57 1514577717.375479: $GPGGA,200158,3946.9577,N,08404.9832,W,2,12,1.20,299.76,M,-33.324,M,,*7A
2017-12-29 15:01:57 1514577717.375545: $GPRMC,200158,A,3946.9577,N,08404.9832,W,0.0000,0.000,291217,,*33
2017-12-29 15:01:57 1514577717.375606: $GPGSA,A,3,3,10,1,12,14,22,25,31,32,18,11,138,1.7,1.2,1.3*07
