2017-12-01 18:09:08 1512169748.133188: {"class":"VERSION","release":"3.16","rev":"3.16-4","proto_major":3,"proto_minor":11}
2017-12-01 18:09:08 1512169748.133606: {"class":"DEVICES","devices":[{"class":"DEVICE","path":"/dev/ttyUSB0","driver":"SiRF","subtype":"9\u0006GSD4e_4.1.2-P1_RPATCH.05-F-GPS-4R-1510281 11/03/2015 307","activated":"2017-12-01T23:09:07.530Z","flags":1,"native":1,"bps":4800,"parity":"N","stopbits":1,"cycle":1.00}]}
2017-12-01 18:09:08 1512169748.133728: {"class":"WATCH","enable":true,"json":false,"nmea":true,"raw":0,"scaled":false,"timing":false,"split24":false,"pps":false}
2017-12-01 18:09:08 1512169748.410906: $GPZDA,230909.00,01,12,2017,00,00*61
2017-12-01 18:09:08 1512169748.411084: $GPGGA,230909,3946.9717,N,08404.9849,W,2,12,0.60,300.02,M,-33.325,M,,*7B
2017-12-01 18:09:08 1512169748.411150: $GPRMC,230909,A,3946.9717,N,08404.9849,W,0.0000,0.000,011217,,*3E
2017-12-01 18:09:08 1512169748.411212: $GPGSA,A,3,3,14,16,22,23,25,26,31,32,1,29,138,2.0,0.6,1.5*02
2017-12-01 18:09:09 1512169749.723006: $GPGSV,3,1,12,03,36,306,47,14,60,081,44,16,16,189,43,22,49,282,47*73
2017-12-01 18:09:09 1512169749.723221: $GPGSV,3,2,12,23,06,297,41,25,23,043,42,26,46,174,46,31,72,012,47*73
2017-12-01 18:09:09 1512169749.723341: $GPGSV,3,3,12,32,41,102,43,01,10,258,31,29,08,078,24,138,38,213,46*4E
2017-12-01 18:09:09 1512169749.836246: $GPZDA,230910.00,01,12,2017,00,00*69
2017-12-01 18:09:09 1512169749.836413: $GPGGA,230910,3946.9717,N,08404.9849,W,2,12,0.60,300.02,M,-33.325,M,,*73
2017-12-01 18:09:09 1512169749.836480: $GPRMC,230910,A,3946.9717,N,08404.9849,W,0.0000,0.000,011217,,*36
2017-12-01 18:09:09 1512169749.836541: $GPGSA,A,3,3,14,16,22,23,25,26,31,32,1,29,138,2.0,0.6,1.5*02
2017-12-01 18:09:10 1512169750.461633: $GPZDA,230911.00,01,12,2017,00,00*68
2017-12-01 18:09:10 1512169750.461809: $GPGGA,230911,3946.9717,N,08404.9849,W,2,12,0.60,300.02,M,-33.325,M,,*72
2017-12-01 18:09:10 1512169750.461876: $GPRMC,230911,A,3946.9717,N,08404.9849,W,0.0000,0.000,011217,,*37
2017-12-01 18:09:10 1512169750.461938: $GPGSA,A,3,3,14,16,22,23,25,26,31,32,1,29,138,2.0,0.6,1.5*02
2017-12-01 18:09:11 1512169751.416334: $GPZDA,230912.00,01,12,2017,00,00*6B
2017-12-01 18:09:11 1512169751.416510: $GPGGA,230912,3946.9717,N,08404.9849,W,2,12,0.60,300.02,M,-33.325,M,,*71
2017-12-01 18:09:11 1512169751.416577: $GPRMC,230912,A,3946.9717,N,08404.9849,W,0.0000,0.000,011217,,*34
2017-12-01 18:09:11 1512169751.416638: $GPGSA,A,3,3,14,16,22,23,25,26,31,32,1,29,138,2.0,0.6,1.5*02
2017-12-01 18:09:12 1512169752.753212: $GPGSV,3,1,12,03,36,306,47,14,60,081,43,16,16,189,42,22,49,282,47*75
2017-12-01 18:09:12 1512169752.753407: $GPGSV,3,2,12,23,06,297,41,25,23,043,43,26,46,174,46,31,72,012,47*72
2017-12-01 18:09:12 1512169752.753475: $GPGSV,3,3,12,32,41,102,44,01,10,258,29,29,08,078,21,138,38,213,46*45
2017-12-01 18:09:12 1512169752.866815: $GPZDA,230913.00,01,12,2017,00,00*6A
2017-12-01 18:09:12 1512169752.866957: $GPGGA,230913,3946.9717,N,08404.9849,W,2,12,0.60,300.02,M,-33.325,M,,*70
2017-12-01 18:09:12 1512169752.867042: $GPRMC,230913,A,3946.9717,N,08404.9849,W,0.0000,0.000,011217,,*35
2017-12-01 18:09:12 1512169752.867126: $GPGSA,A,3,3,14,16,22,23,25,26,31,32,1,29,138,2.0,0.6,1.5*02
2017-12-01 18:09:13 1512169753.387693: $GPZDA,230914.00,01,12,2017,00,00*6D
2017-12-01 18:09:13 1512169753.387866: $GPGGA,230914,3946.9717,N,08404.9849,W,2,12,0.60,300.02,M,-33.325,M,,*77
2017-12-01 18:09:13 1512169753.387933: $GPRMC,230914,A,3946.9717,N,08404.9849,W,0.0000,0.000,011217,,*32
2017-12-01 18:09:13 1512169753.387995: $GPGSA,A,3,3,14,16,22,23,25,26,31,32,1,29,138,2.0,0.6,1.5*02
2017-12-01 18:09:14 1512169754.415918: $GPZDA,230915.00,01,12,2017,00,00*6C
2017-12-01 18:09:14 1512169754.416109: $GPGGA,230915,3946.9717,N,08404.9849,W,2,12,0.60,300.02,M,-33.325,M,,*76
2017-12-01 18:09:14 1512169754.416177: $GPRMC,230915,A,3946.9717,N,08404.9849,W,0.0000,0.000,011217,,*33
2017-12-01 18:09:14 1512169754.416256: $GPGSA,A,3,3,14,16,22,23,25,26,31,32,1,29,138,2.0,0.6,1.5*02
2017-12-01 18:09:15 1512169755.724775: $GPGSV,3,1,12,03,36,306,48,14,60,081,43,16,16,189,42,22,49,282,47*7A
2017-12-01 18:09:15 1512169755.725024: $GPGSV,3,2,12,23,06,297,41,25,23,043,43,26,46,174,46,31,72,012,47*72
2017-12-01 18:09:15 1512169755.725122: $GPGSV,3,3,12,32,41,102,43,01,10,258,31,29,08,078,21,138,38,213,46*4B
2017-12-01 18:09:15 1512169755.836907: $GPZDA,230916.00,01,12,2017,00,00*6F
2017-12-01 18:09:15 1512169755.837109: $GPGGA,230916,3946.9717,N,08404.9849,W,2,12,0.60,300.02,M,-33.325,M,,*75
2017-12-01 18:09:15 1512169755.837208: $GPRMC,230916,A,3946.9717,N,08404.9849,W,0.0000,0.000,011217,,*30
2017-12-01 18:09:15 1512169755.837272: $GPGSA,A,3,3,14,16,22,23,25,26,31,32,1,29,138,2.0,0.6,1.5*02
2017-12-01 18:09:16 1512169756.390519: $GPZDA,230917.00,01,12,2017,00,00*6E
2017-12-01 18:09:16 1512169756.390688: $GPGGA,230917,3946.9717,N,08404.9849,W,2,12,0.80,300.02,M,-33.325,M,,*7A
2017-12-01 18:09:16 1512169756.390754: $GPRMC,230917,A,3946.9717,N,08404.9849,W,0.0000,0.000,011217,,*31
2017-12-01 18:09:16 1512169756.390815: $GPGSA,A,3,3,14,16,22,23,25,26,31,32,1,29,138,2.0,0.8,1.5*0C
2017-12-01 18:09:17 1512169757.387414: $GPZDA,230918.00,01,12,2017,00,00*61
2017-12-01 18:09:17 1512169757.387629: $GPGGA,230918,3946.9717,N,08404.9849,W,2,12,0.80,300.02,M,-33.325,M,,*75
2017-12-01 18:09:17 1512169757.394727: $GPRMC,230918,A,3946.9717,N,08404.9849,W,0.0000,0.000,011217,,*3E
2017-12-01 18:09:17 1512169757.394837: $GPGSA,A,3,3,14,16,22,23,25,26,31,32,1,29,138,2.0,0.8,1.5*0C
2017-12-01 18:09:18 1512169758.718257: $GPGSV,3,1,12,03,36,306,48,14,60,081,43,16,16,189,42,22,49,282,48*75
2017-12-01 18:09:18 1512169758.718437: $GPGSV,3,2,12,23,06,297,41,25,23,043,43,26,46,174,46,31,72,012,47*72
2017-12-01 18:09:18 1512169758.718505: $GPGSV,3,3,12,32,41,102,42,01,10,258,31,29,08,078,18,138,38,213,46*40
2017-12-01 18:09:18 1512169758.830450: $GPZDA,230919.00,01,12,2017,00,00*60
2017-12-01 18:09:18 1512169758.830619: $GPGGA,230919,3946.9717,N,08404.9849,W,2,11,0.80,300.02,M,-33.325,M,,*77
2017-12-01 18:09:18 1512169758.830686: $GPRMC,230919,A,3946.9717,N,08404.9849,W,0.0000,0.000,011217,,*3F
2017-12-01 18:09:18 1512169758.830747: $GPGSA,A,3,3,14,16,22,23,25,26,31,32,1,138,,2.0,0.8,1.5*07
2017-12-01 18:09:19 1512169759.390030: $GPZDA,230920.00,01,12,2017,00,00*6A
2017-12-01 18:09:19 1512169759.390198: $GPGGA,230920,3946.9717,N,08404.9849,W,2,11,0.60,300.02,M,-33.325,M,,*73
2017-12-01 18:09:19 1512169759.390266: $GPRMC,230920,A,3946.9717,N,08404.9849,W,0.0000,0.000,011217,,*35
2017-12-01 18:09:19 1512169759.390328: $GPGSA,A,3,3,14,16,22,23,25,26,31,32,1,138,,2.0,0.6,1.5*09
2017-12-01 18:09:20 1512169760.388049: $GPZDA,230921.00,01,12,2017,00,00*6B
2017-12-01 18:09:20 1512169760.388220: $GPGGA,230921,3946.9717,N,08404.9849,W,2,11,0.60,300.02,M,-33.325,M,,*72
2017-12-01 18:09:20 1512169760.388287: $GPRMC,230921,A,3946.9717,N,08404.9849,W,0.0000,0.000,011217,,*34
2017-12-01 18:09:20 1512169760.388348: $GPGSA,A,3,3,14,16,22,23,25,26,31,32,1,138,,2.0,0.6,1.5*09
2017-12-01 18:09:21 1512169761.723544: $GPGSV,3,1,12,03,36,306,47,14,60,081,43,16,16,189,43,22,49,282,47*74
2017-12-01 18:09:21 1512169761.723699: $GPGSV,3,2,12,23,06,297,41,25,23,043,43,26,46,174,46,31,72,012,47*72
2017-12-01 18:09:21 1512169761.723765: $GPGSV,3,3,12,32,41,102,42,01,10,258,31,29,08,078,21,138,38,213,46*4A
2017-12-01 18:09:21 1512169761.836950: $GPZDA,230922.00,01,12,2017,00,00*68
2017-12-01 18:09:21 1512169761.837125: $GPGGA,230922,3946.9717,N,08404.9849,W,2,12,0.60,300.02,M,-33.325,M,,*72
2017-12-01 18:09:21 1512169761.837191: $GPRMC,230922,A,3946.9717,N,08404.9849,W,0.0000,0.000,011217,,*37
2017-12-01 18:09:21 1512169761.837252: $GPGSA,A,3,3,14,16,22,23,25,26,31,32,1,29,138,2.0,0.6,1.5*02
2017-12-01 18:09:22 1512169762.386576: $GPZDA,230923.00,01,12,2017,00,00*69
2017-12-01 18:09:22 1512169762.386764: $GPGGA,230923,3946.9717,N,08404.9849,W,2,12,0.60,300.02,M,-33.325,M,,*73
2017-12-01 18:09:22 1512169762.388127: $GPRMC,230923,A,3946.9717,N,08404.9849,W,0.0000,0.000,011217,,*36
2017-12-01 18:09:22 1512169762.388209: $GPGSA,A,3,3,14,16,22,23,25,26,31,32,1,29,138,2.0,0.6,1.5*02
2017-12-01 18:09:23 1512169763.388021: $GPZDA,230924.00,01,12,2017,00,00*6E
2017-12-01 18:09:23 1512169763.388241: $GPGGA,230924,3946.9717,N,08404.9849,W,2,12,0.80,300.02,M,-33.325,M,,*7A
2017-12-01 18:09:23 1512169763.388313: $GPRMC,230924,A,3946.9717,N,08404.9849,W,0.0000,0.000,011217,,*31
2017-12-01 18:09:23 1512169763.388379: $GPGSA,A,3,3,14,16,22,23,25,26,31,32,1,29,138,2.0,0.8,1.5*0C
2017-12-01 18:09:24 1512169764.718051: $GPGSV,3,1,12,03,36,306,47,14,60,081,43,16,16,189,43,22,49,282,47*74
2017-12-01 18:09:24 1512169764.718240: $GPGSV,3,2,12,23,06,297,42,25,23,043,42,26,46,174,46,31,72,012,47*70
2017-12-01 18:09:24 1512169764.718308: $GPGSV,3,3,12,32,41,102,42,01,10,258,21,29,08,078,17,138,38,213,46*4E
2017-12-01 18:09:24 1512169764.831450: $GPZDA,230925.00,01,12,2017,00,00*6F
2017-12-01 18:09:24 1512169764.831623: $GPGGA,230925,3946.9717,N,08404.9849,W,2,12,0.80,300.02,M,-33.325,M,,*7B
2017-12-01 18:09:24 1512169764.831693: $GPRMC,230925,A,3946.9717,N,08404.9849,W,0.0000,0.000,011217,,*30
2017-12-01 18:09:24 1512169764.831754: $GPGSA,A,3,3,14,16,22,23,25,26,31,32,1,29,138,2.0,0.8,1.5*0C
2017-12-01 18:09:25 1512169765.456861: $GPZDA,230926.00,01,12,2017,00,00*6C
2017-12-01 18:09:25 1512169765.457034: $GPGGA,230926,3946.9717,N,08404.9849,W,2,12,0.60,300.02,M,-33.325,M,,*76
2017-12-01 18:09:25 1512169765.457106: $GPRMC,230926,A,3946.9717,N,08404.9849,W,0.0000,0.000,011217,,*33
2017-12-01 18:09:25 1512169765.457168: $GPGSA,A,3,3,14,16,22,23,25,26,31,32,1,29,138,2.0,0.6,1.5*02
2017-12-01 18:09:26 1512169766.386752: $GPZDA,230927.00,01,12,2017,00,00*6D
2017-12-01 18:09:26 1512169766.386927: $GPGGA,230927,3946.9717,N,08404.9849,W,2,12,0.60,300.02,M,-33.325,M,,*77
2017-12-01 18:09:26 1512169766.386995: $GPRMC,230927,A,3946.9717,N,08404.9849,W,0.0000,0.000,011217,,*32
2017-12-01 18:09:26 1512169766.387060: $GPGSA,A,3,3,14,16,22,23,25,26,31,32,1,29,138,2.0,0.6,1.5*02
2017-12-01 18:09:27 1512169767.723388: $GPGSV,3,1,12,03,36,306,47,14,60,081,43,16,16,189,42,22,49,282,48*7A
2017-12-01 18:09:27 1512169767.723574: $GPGSV,3,2,12,23,06,297,42,25,23,043,42,26,46,174,46,31,72,012,48*7F
2017-12-01 18:09:27 1512169767.723643: $GPGSV,3,3,12,32,41,102,42,01,10,258,32,29,08,078,21,138,38,213,46*49
2017-12-01 18:09:27 1512169767.837405: $GPZDA,230928.00,01,12,2017,00,00*62
2017-12-01 18:09:27 1512169767.837596: $GPGGA,230928,3946.9717,N,08404.9849,W,2,12,0.60,300.02,M,-33.325,M,,*78
2017-12-01 18:09:27 1512169767.837673: $GPRMC,230928,A,3946.9717,N,08404.9849,W,0.0000,0.000,011217,,*3D
2017-12-01 18:09:27 1512169767.837735: $GPGSA,A,3,3,14,16,22,23,25,26,31,32,1,29,138,2.0,0.6,1.5*02
