2017-12-01 11:37:48 1512146268.087237: {"class":"VERSION","release":"3.16","rev":"3.16-4","proto_major":3,"proto_minor":11}
2017-12-01 11:37:48 1512146268.087642: {"class":"DEVICES","devices":[{"class":"DEVICE","path":"/dev/ttyUSB0","driver":"SiRF","subtype":"9\u0006GSD4e_4.1.2-P1_RPATCH.05-F-GPS-4R-1510281 11/03/2015 307","activated":"2017-12-01T16:37:48.070Z","flags":1,"native":1,"bps":4800,"parity":"N","stopbits":1,"cycle":1.00}]}
2017-12-01 11:37:48 1512146268.087756: {"class":"WATCH","enable":true,"json":false,"nmea":true,"raw":0,"scaled":false,"timing":false,"split24":false,"pps":false}
2017-12-01 11:37:48 1512146268.886758: $GPZDA,163749.32,01,12,2017,00,00*6F
2017-12-01 11:37:48 1512146268.886924: $GPGGA,163749,3946.9581,N,08404.9855,W,1,11,0.80,303.74,M,-33.324,M,,*79
2017-12-01 11:37:48 1512146268.886992: $GPRMC,163749,A,3946.9581,N,08404.9855,W,0.3006,62.539,011217,,*0F
2017-12-01 11:37:48 1512146268.887055: $GPGSA,A,3,5,10,13,15,18,20,21,24,27,29,138,,2.0,0.8,1.5*34
2017-12-01 11:37:49 1512146269.831112: $GPGSV,3,1,12,05,15,075,35,10,11,270,39,13,45,051,47,15,77,081,48*76
2017-12-01 11:37:49 1512146269.831306: $GPGSV,3,2,12,18,42,283,44,20,64,046,41,21,65,307,46,24,18,150,42*71
2017-12-01 11:37:49 1512146269.831424: $GPGSV,3,3,12,27,07,325,35,29,27,195,42,04,14,129,00,138,38,213,45*44
2017-12-01 11:37:49 1512146269.944516: $GPZDA,163750.00,01,12,2017,00,00*66
2017-12-01 11:37:49 1512146269.944693: $GPGGA,163750,3946.9576,N,08404.9862,W,1,11,0.80,301.62,M,-33.324,M,,*78
2017-12-01 11:37:49 1512146269.944762: $GPRMC,163750,A,3946.9576,N,08404.9862,W,0.0000,0.000,011217,,*35
2017-12-01 11:37:49 1512146269.944823: $GPGSA,A,3,5,10,13,15,18,20,21,24,27,29,138,,2.0,0.8,1.5*34
2017-12-01 11:37:50 1512146270.199606: $GPZDA,163751.00,01,12,2017,00,00*67
2017-12-01 11:37:50 1512146270.199785: $GPGGA,163751,3946.9569,N,08404.9852,W,1,11,0.80,295.44,M,-33.324,M,,*7C
2017-12-01 11:37:50 1512146270.199854: $GPRMC,163751,A,3946.9569,N,08404.9852,W,0.0000,0.000,011217,,*39
2017-12-01 11:37:50 1512146270.199917: $GPGSA,A,3,5,10,13,15,18,20,21,24,27,29,138,,2.0,0.8,1.5*34
2017-12-01 11:37:51 1512146271.341783: $GPZDA,163752.00,01,12,2017,00,00*64
2017-12-01 11:37:51 1512146271.341959: $GPGGA,163752,3946.9569,N,08404.9852,W,1,11,0.80,295.44,M,-33.324,M,,*7F
2017-12-01 11:37:51 1512146271.342029: $GPRMC,163752,A,3946.9569,N,08404.9852,W,0.0000,0.000,011217,,*3A
2017-12-01 11:37:51 1512146271.342090: $GPGSA,A,3,5,10,13,15,18,20,21,24,27,29,138,,2.0,0.8,1.5*34
2017-12-01 11:37:52 1512146272.677042: $GPGSV,3,1,12,05,15,075,35,10,11,270,40,13,45,051,46,15,77,081,47*76
2017-12-01 11:37:52 1512146272.677233: $GPGSV,3,2,12,18,42,283,44,20,64,046,41,21,65,307,46,24,18,150,42*71
2017-12-01 11:37:52 1512146272.677302: $GPGSV,3,3,12,27,07,325,34,29,27,195,43,04,14,129,00,138,38,213,46*47
2017-12-01 11:37:52 1512146272.790405: $GPZDA,163753.00,01,12,2017,00,00*65
2017-12-01 11:37:52 1512146272.790582: $GPGGA,163753,3946.9579,N,08404.9857,W,1,11,0.80,293.07,M,-33.324,M,,*7B
2017-12-01 11:37:52 1512146272.790650: $GPRMC,163753,A,3946.9579,N,08404.9857,W,0.0000,0.000,011217,,*3F
2017-12-01 11:37:52 1512146272.790712: $GPGSA,A,3,5,10,13,15,18,20,21,24,27,29,138,,2.0,0.8,1.5*34
2017-12-01 11:37:53 1512146273.347430: $GPZDA,163754.00,01,12,2017,00,00*62
2017-12-01 11:37:53 1512146273.347595: $GPGGA,163754,3946.9579,N,08404.9857,W,1,11,0.80,293.07,M,-33.324,M,,*7C
2017-12-01 11:37:53 1512146273.347663: $GPRMC,163754,A,3946.9579,N,08404.9857,W,0.0000,0.000,011217,,*38
2017-12-01 11:37:53 1512146273.347725: $GPGSA,A,3,5,10,13,15,18,20,21,24,27,29,138,,2.0,0.8,1.5*34
2017-12-01 11:37:54 1512146274.340728: $GPZDA,163755.00,01,12,2017,00,00*63
2017-12-01 11:37:54 1512146274.340907: $GPGGA,163755,3946.9579,N,08404.9857,W,1,11,0.80,293.07,M,-33.324,M,,*7D
2017-12-01 11:37:54 1512146274.340977: $GPRMC,163755,A,3946.9579,N,08404.9857,W,0.0000,0.000,011217,,*39
2017-12-01 11:37:54 1512146274.341039: $GPGSA,A,3,5,10,13,15,18,20,21,24,27,29,138,,2.0,0.8,1.5*34
2017-12-01 11:37:54 1512146274.341100: $GPGBS,163755,10.70,M,15.43,M,35.28,M*04
2017-12-01 11:37:55 1512146275.678960: $GPGSV,3,1,12,05,15,075,36,10,11,270,41,13,45,051,46,15,77,081,47*74
2017-12-01 11:37:55 1512146275.679148: $GPGSV,3,2,12,18,42,283,44,20,64,046,42,21,65,307,46,24,18,150,42*72
2017-12-01 11:37:55 1512146275.679219: $GPGSV,3,3,12,27,07,325,34,29,27,195,43,04,14,129,00,138,38,213,47*46
2017-12-01 11:37:55 1512146275.792369: $GPZDA,163756.00,01,12,2017,00,00*60
2017-12-01 11:37:55 1512146275.792545: $GPGGA,163756,3946.9579,N,08404.9857,W,1,11,0.80,293.07,M,-33.324,M,,*7E
2017-12-01 11:37:55 1512146275.792614: $GPRMC,163756,A,3946.9579,N,08404.9857,W,0.0000,0.000,011217,,*3A
2017-12-01 11:37:55 1512146275.792676: $GPGSA,A,3,5,10,13,15,18,20,21,24,27,29,138,,2.0,0.8,1.5*34
2017-12-01 11:37:56 1512146276.346931: $GPZDA,163757.00,01,12,2017,00,00*61
2017-12-01 11:37:56 1512146276.347113: $GPGGA,163757,3946.9576,N,08404.9850,W,1,11,0.80,293.91,M,-33.324,M,,*78
2017-12-01 11:37:56 1512146276.347181: $GPRMC,163757,A,3946.9576,N,08404.9850,W,0.0000,0.000,011217,,*33
2017-12-01 11:37:56 1512146276.347248: $GPGSA,A,3,5,10,13,15,18,20,21,24,27,29,138,,2.0,0.8,1.5*34
2017-12-01 11:37:57 1512146277.342326: $GPZDA,163758.00,01,12,2017,00,00*6E
2017-12-01 11:37:57 1512146277.342504: $GPGGA,163758,3946.9576,N,08404.9850,W,1,11,0.80,293.91,M,-33.324,M,,*77
2017-12-01 11:37:57 1512146277.342576: $GPRMC,163758,A,3946.9576,N,08404.9850,W,0.0000,0.000,011217,,*3C
2017-12-01 11:37:57 1512146277.342638: $GPGSA,A,3,5,10,13,15,18,20,21,24,27,29,138,,2.0,0.8,1.5*34
