2017-12-01 17:14:49 1512166489.795255: {"class":"VERSION","release":"3.16","rev":"3.16-4","proto_major":3,"proto_minor":11}
2017-12-01 17:14:49 1512166489.795652: {"class":"DEVICES","devices":[{"class":"DEVICE","path":"/dev/ttyUSB0","driver":"SiRF","subtype":"9\u0006GSD4e_4.1.2-P1_RPATCH.05-F-GPS-4R-1510281 11/03/2015 307","activated":"2017-12-01T22:14:49.688Z","flags":1,"native":1,"bps":4800,"parity":"N","stopbits":1,"cycle":1.00}]}
2017-12-01 17:14:49 1512166489.795775: {"class":"WATCH","enable":true,"json":false,"nmea":true,"raw":0,"scaled":false,"timing":false,"split24":false,"pps":false}
2017-12-01 17:14:50 1512166490.705260: $GPGSV,3,1,12,01,20,280,41,03,16,316,40,10,27,156,37,12,11,034,28*7C
2017-12-01 17:14:50 1512166490.705441: $GPGSV,3,2,12,14,70,022,45,22,35,306,42,26,20,178,40,31,75,259,48*73
2017-12-01 17:14:50 1512166490.705509: $GPGSV,3,3,12,32,58,070,49,11,01,265,33,25,38,063,00,138,38,213,34*43
2017-12-01 17:14:50 1512166490.818899: $GPZDA,221451.00,01,12,2017,00,00*61
2017-12-01 17:14:50 1512166490.819070: $GPGGA,221451,3946.9618,N,08404.9805,W,2,11,0.80,307.88,M,-33.324,M,,*74
2017-12-01 17:14:50 1512166490.819138: $GPRMC,221451,A,3946.9618,N,08404.9805,W,0.0000,0.000,011217,,*38
2017-12-01 17:14:50 1512166490.819200: $GPGSA,A,3,1,3,10,12,14,22,26,31,32,11,138,,2.0,0.8,1.5*04
2017-12-01 17:14:51 1512166491.365671: $GPZDA,221452.00,01,12,2017,00,00*62
2017-12-01 17:14:51 1512166491.365846: $GPGGA,221452,3946.9618,N,08404.9805,W,2,11,0.80,307.88,M,-33.324,M,,*77
2017-12-01 17:14:51 1512166491.365914: $GPRMC,221452,A,3946.9618,N,08404.9805,W,0.0000,0.000,011217,,*3B
2017-12-01 17:14:51 1512166491.365978: $GPGSA,A,3,1,3,10,12,14,22,26,31,32,11,138,,2.0,0.8,1.5*04
2017-12-01 17:14:52 1512166492.370744: $GPZDA,221453.00,01,12,2017,00,00*63
2017-12-01 17:14:52 1512166492.370921: $GPGGA,221453,3946.9618,N,08404.9805,W,2,11,0.80,307.88,M,-33.324,M,,*76
2017-12-01 17:14:52 1512166492.370992: $GPRMC,221453,A,3946.9618,N,08404.9805,W,0.0000,0.000,011217,,*3A
2017-12-01 17:14:52 1512166492.371053: $GPGSA,A,3,1,3,10,12,14,22,26,31,32,11,138,,2.0,0.8,1.5*04
2017-12-01 17:14:53 1512166493.727363: $GPGSV,3,1,12,01,20,280,41,03,16,316,40,10,27,156,37,12,11,034,29*7D
2017-12-01 17:14:53 1512166493.727546: $GPGSV,3,2,12,14,70,022,45,22,35,306,42,26,20,178,39,31,75,259,48*7D
2017-12-01 17:14:53 1512166493.727614: $GPGSV,3,3,12,32,58,070,49,11,01,265,33,25,38,063,02,138,38,213,38*4D
2017-12-01 17:14:53 1512166493.841042: $GPZDA,221454.00,01,12,2017,00,00*64
2017-12-01 17:14:53 1512166493.841215: $GPGGA,221454,3946.9618,N,08404.9805,W,2,11,0.80,307.88,M,-33.324,M,,*71
2017-12-01 17:14:53 1512166493.841281: $GPRMC,221454,A,3946.9618,N,08404.9805,W,0.0000,0.000,011217,,*3D
2017-12-01 17:14:53 1512166493.841401: $GPGSA,A,3,1,3,10,12,14,22,26,31,32,11,138,,2.0,0.8,1.5*04
2017-12-01 17:14:54 1512166494.370647: $GPZDA,221455.00,01,12,2017,00,00*65
2017-12-01 17:14:54 1512166494.370824: $GPGGA,221455,3946.9618,N,08404.9805,W,2,11,0.80,307.88,M,-33.324,M,,*70
2017-12-01 17:14:54 1512166494.370894: $GPRMC,221455,A,3946.9618,N,08404.9805,W,0.0000,0.000,011217,,*3C
2017-12-01 17:14:54 1512166494.370959: $GPGSA,A,3,1,3,10,12,14,22,26,31,32,11,138,,2.0,0.8,1.5*04
2017-12-01 17:14:55 1512166495.392088: $GPZDA,221456.00,01,12,2017,00,00*66
2017-12-01 17:14:55 1512166495.392266: $GPGGA,221456,3946.9618,N,08404.9805,W,2,11,0.80,307.88,M,-33.324,M,,*73
2017-12-01 17:14:55 1512166495.392335: $GPRMC,221456,A,3946.9618,N,08404.9805,W,0.0000,0.000,011217,,*3F
2017-12-01 17:14:55 1512166495.392396: $GPGSA,A,3,1,3,10,12,14,22,26,31,32,11,138,,2.0,0.8,1.5*04
2017-12-01 17:14:56 1512166496.725195: $GPGSV,3,1,12,01,20,280,41,03,16,316,39,10,27,156,37,12,11,034,29*73
2017-12-01 17:14:56 1512166496.725377: $GPGSV,3,2,12,14,70,022,45,22,35,306,42,26,20,178,38,31,75,259,48*7C
2017-12-01 17:14:56 1512166496.725445: $GPGSV,3,3,12,32,58,070,49,11,01,265,33,25,38,063,00,138,38,213,40*40
2017-12-01 17:14:56 1512166496.838595: $GPZDA,221457.00,01,12,2017,00,00*67
2017-12-01 17:14:56 1512166496.838766: $GPGGA,221457,3946.9618,N,08404.9805,W,2,11,0.80,307.88,M,-33.324,M,,*72
2017-12-01 17:14:56 1512166496.838892: $GPRMC,221457,A,3946.9618,N,08404.9805,W,0.0000,0.000,011217,,*3E
2017-12-01 17:14:56 1512166496.838960: $GPGSA,A,3,1,3,10,12,14,22,26,31,32,11,138,,2.0,0.8,1.5*04
2017-12-01 17:14:57 1512166497.393269: $GPZDA,221458.00,01,12,2017,00,00*68
2017-12-01 17:14:57 1512166497.393452: $GPGGA,221458,3946.9618,N,08404.9805,W,2,11,0.80,307.88,M,-33.324,M,,*7D
2017-12-01 17:14:57 1512166497.393523: $GPRMC,221458,A,3946.9618,N,08404.9805,W,0.0000,0.000,011217,,*31
2017-12-01 17:14:57 1512166497.393587: $GPGSA,A,3,1,3,10,12,14,22,26,31,32,11,138,,2.0,0.8,1.5*04
2017-12-01 17:14:58 1512166498.389231: $GPZDA,221459.00,01,12,2017,00,00*69
2017-12-01 17:14:58 1512166498.389400: $GPGGA,221459,3946.9618,N,08404.9805,W,2,11,0.80,307.88,M,-33.324,M,,*7C
2017-12-01 17:14:58 1512166498.389483: $GPRMC,221459,A,3946.9618,N,08404.9805,W,0.0000,0.000,011217,,*30
2017-12-01 17:14:58 1512166498.389545: $GPGSA,A,3,1,3,10,12,14,22,26,31,32,11,138,,2.0,0.8,1.5*04
2017-12-01 17:14:59 1512166499.707413: $GPGSV,3,1,12,01,20,280,40,03,16,316,39,10,27,156,36,12,11,034,30*7B
2017-12-01 17:14:59 1512166499.707600: $GPGSV,3,2,12,14,70,022,45,22,35,306,41,26,20,178,37,31,75,259,48*70
2017-12-01 17:14:59 1512166499.707666: $GPGSV,3,3,12,32,58,070,49,11,01,265,33,25,38,063,12,138,38,213,40*43
2017-12-01 17:14:59 1512166499.821308: $GPZDA,221500.00,01,12,2017,00,00*64
2017-12-01 17:14:59 1512166499.821580: $GPGGA,221500,3946.9618,N,08404.9805,W,2,12,0.80,307.88,M,-33.324,M,,*72
2017-12-01 17:14:59 1512166499.821647: $GPRMC,221500,A,3946.9618,N,08404.9805,W,0.0000,0.000,011217,,*3D
2017-12-01 17:14:59 1512166499.821708: $GPGSA,A,3,1,3,10,12,14,22,26,31,32,11,25,138,2.0,0.8,1.5*03
2017-12-01 17:15:00 1512166500.446576: $GPZDA,221501.00,01,12,2017,00,00*65
2017-12-01 17:15:00 1512166500.446748: $GPGGA,221501,3946.9618,N,08404.9805,W,2,12,0.80,307.88,M,-33.324,M,,*73
2017-12-01 17:15:00 1512166500.446816: $GPRMC,221501,A,3946.9618,N,08404.9805,W,0.0000,0.000,011217,,*3C
2017-12-01 17:15:00 1512166500.446877: $GPGSA,A,3,1,3,10,12,14,22,26,31,32,11,25,138,2.0,0.8,1.5*03
2017-12-01 17:15:01 1512166501.376403: $GPZDA,221502.00,01,12,2017,00,00*66
2017-12-01 17:15:01 1512166501.376624: $GPGGA,221502,3946.9618,N,08404.9805,W,2,12,0.80,307.88,M,-33.324,M,,*70
2017-12-01 17:15:01 1512166501.376714: $GPRMC,221502,A,3946.9618,N,08404.9805,W,0.0000,0.000,011217,,*3F
2017-12-01 17:15:01 1512166501.376807: $GPGSA,A,3,1,3,10,12,14,22,26,31,32,11,25,138,2.0,0.8,1.5*03
2017-12-01 17:15:02 1512166502.726546: $GPGSV,3,1,12,01,20,280,41,03,16,316,40,10,27,156,36,12,11,034,31*75
2017-12-01 17:15:02 1512166502.726727: $GPGSV,3,2,12,14,70,022,45,22,35,306,41,26,20,178,37,31,75,259,47*7F
2017-12-01 17:15:02 1512166502.726794: $GPGSV,3,3,12,32,58,070,48,11,01,265,30,25,38,063,25,138,38,213,38*4A
2017-12-01 17:15:02 1512166502.839889: $GPZDA,221503.00,01,12,2017,00,00*67
2017-12-01 17:15:02 1512166502.840075: $GPGGA,221503,3946.9614,N,08404.9805,W,2,12,0.80,307.24,M,-33.324,M,,*7B
2017-12-01 17:15:02 1512166502.840144: $GPRMC,221503,A,3946.9614,N,08404.9805,W,0.0000,0.000,011217,,*32
2017-12-01 17:15:02 1512166502.840205: $GPGSA,A,3,1,3,10,12,14,22,26,31,32,11,25,138,2.0,0.8,1.5*03
2017-12-01 17:15:03 1512166503.370783: $GPZDA,221504.00,01,12,2017,00,00*60
2017-12-01 17:15:03 1512166503.370970: $GPGGA,221504,3946.9614,N,08404.9805,W,2,12,0.80,307.24,M,-33.324,M,,*7C
2017-12-01 17:15:03 1512166503.371036: $GPRMC,221504,A,3946.9614,N,08404.9805,W,0.0000,0.000,011217,,*35
2017-12-01 17:15:03 1512166503.371097: $GPGSA,A,3,1,3,10,12,14,22,26,31,32,11,25,138,2.0,0.8,1.5*03
2017-12-01 17:15:04 1512166504.390444: $GPZDA,221505.00,01,12,2017,00,00*61
2017-12-01 17:15:04 1512166504.390619: $GPGGA,221505,3946.9614,N,08404.9805,W,2,12,0.80,307.24,M,-33.324,M,,*7D
2017-12-01 17:15:04 1512166504.390684: $GPRMC,221505,A,3946.9614,N,08404.9805,W,0.0000,0.000,011217,,*34
2017-12-01 17:15:04 1512166504.390745: $GPGSA,A,3,1,3,10,12,14,22,26,31,32,11,25,138,2.0,0.8,1.5*03
2017-12-01 17:15:05 1512166505.726851: $GPGSV,3,1,12,01,20,280,41,03,16,316,40,10,27,156,36,12,11,034,31*75
2017-12-01 17:15:05 1512166505.727095: $GPGSV,3,2,12,14,70,022,45,22,35,306,41,26,20,178,37,31,75,259,48*70
2017-12-01 17:15:05 1512166505.727165: $GPGSV,3,3,12,32,58,070,49,11,01,265,28,25,38,063,27,138,38,213,40*4F
2017-12-01 17:15:05 1512166505.841160: $GPZDA,221506.00,01,12,2017,00,00*62
2017-12-01 17:15:05 1512166505.841331: $GPGGA,221506,3946.9614,N,08404.9805,W,2,12,0.80,307.24,M,-33.324,M,,*7E
2017-12-01 17:15:05 1512166505.841484: $GPRMC,221506,A,3946.9614,N,08404.9805,W,0.0000,0.000,011217,,*37
2017-12-01 17:15:05 1512166505.841552: $GPGSA,A,3,1,3,10,12,14,22,26,31,32,11,25,138,2.0,0.8,1.5*03
2017-12-01 17:15:06 1512166506.389881: $GPZDA,221507.00,01,12,2017,00,00*63
2017-12-01 17:15:06 1512166506.390070: $GPGGA,221507,3946.9614,N,08404.9805,W,2,12,0.80,307.24,M,-33.324,M,,*7F
2017-12-01 17:15:06 1512166506.390140: $GPRMC,221507,A,3946.9614,N,08404.9805,W,0.0000,0.000,011217,,*36
2017-12-01 17:15:06 1512166506.390202: $GPGSA,A,3,1,3,10,12,14,22,26,31,32,11,25,138,2.0,0.8,1.5*03
2017-12-01 17:15:07 1512166507.365876: $GPZDA,221508.00,01,12,2017,00,00*6C
2017-12-01 17:15:07 1512166507.366065: $GPGGA,221508,3946.9614,N,08404.9805,W,2,12,0.80,307.24,M,-33.324,M,,*70
2017-12-01 17:15:07 1512166507.366137: $GPRMC,221508,A,3946.9614,N,08404.9805,W,0.0000,0.000,011217,,*39
2017-12-01 17:15:07 1512166507.366198: $GPGSA,A,3,1,3,10,12,14,22,26,31,32,11,25,138,2.0,0.8,1.5*03
2017-12-01 17:15:08 1512166508.725314: $GPGSV,3,1,12,01,20,280,42,03,16,316,40,10,27,156,36,12,11,034,32*75
2017-12-01 17:15:08 1512166508.725510: $GPGSV,3,2,12,14,70,022,45,22,35,306,42,26,20,178,37,31,75,259,47*7C
2017-12-01 17:15:08 1512166508.725576: $GPGSV,3,3,12,32,58,070,49,11,01,265,27,25,38,063,00,138,38,213,41*44
2017-12-01 17:15:08 1512166508.837727: $GPZDA,221509.00,01,12,2017,00,00*6D
2017-12-01 17:15:08 1512166508.837903: $GPGGA,221509,3946.9614,N,08404.9805,W,2,11,0.80,307.24,M,-33.324,M,,*72
2017-12-01 17:15:08 1512166508.837970: $GPRMC,221509,A,3946.9614,N,08404.9805,W,0.0000,0.000,011217,,*38
2017-12-01 17:15:08 1512166508.838033: $GPGSA,A,3,1,3,10,12,14,22,26,31,32,11,138,,2.0,0.8,1.5*04
2017-12-01 17:15:09 1512166509.389475: $GPZDA,221510.00,01,12,2017,00,00*65
2017-12-01 17:15:09 1512166509.389658: $GPGGA,221510,3946.9614,N,08404.9805,W,2,11,0.80,307.24,M,-33.324,M,,*7A
2017-12-01 17:15:09 1512166509.389726: $GPRMC,221510,A,3946.9614,N,08404.9805,W,0.0000,0.000,011217,,*30
2017-12-01 17:15:09 1512166509.389792: $GPGSA,A,3,1,3,10,12,14,22,26,31,32,11,138,,2.0,0.8,1.5*04
