2017-11-15 19:03:36 1510790616.932699: {"class":"VERSION","release":"3.17","rev":"3.17","proto_major":3,"proto_minor":12}
2017-11-15 19:03:36 1510790616.933161: {"class":"DEVICES","devices":[{"class":"DEVICE","path":"/dev/ttyUSB0","driver":"SiRF","subtype":"9\u0006GSD4e_4.1.2-P1_RPATCH.05-F-GPS-4R-1510281 11/03/2015 307","activated":"2017-11-16T00:03:36.911Z","flags":1,"native":1,"bps":4800,"parity":"N","stopbits":1,"cycle":1.00}]}
2017-11-15 19:03:36 1510790616.933272: {"class":"WATCH","enable":true,"json":false,"nmea":true,"raw":0,"scaled":false,"timing":false,"split24":false,"pps":false}
2017-11-15 19:03:37 1510790617.346945: $GPZDA,000336.00,16,11,2017,00,00*63
2017-11-15 19:03:37 1510790617.347134: $GPGGA,000336,3946.9672,N,08404.9472,W,1,08,1.40,299.05,M,-33.324,M,,*76
2017-11-15 19:03:37 1510790617.364369: $GPRMC,000336,A,3946.9672,N,08404.9472,W,1.5746,354.845,161117,,*30
2017-11-15 19:03:37 1510790617.364455: $GPGSA,A,3,32,14,3,26,31,16,22,1,,,,,3.4,1.4,2.9*3C
2017-11-15 19:03:38 1510790618.345342: $GPZDA,000337.00,16,11,2017,00,00*62
2017-11-15 19:03:38 1510790618.345505: $GPGGA,000337,3946.9676,N,08404.9472,W,1,08,1.40,299.69,M,-33.324,M,,*79
2017-11-15 19:03:38 1510790618.345565: $GPRMC,000337,A,3946.9676,N,08404.9472,W,1.7268,356.134,161117,,*33
2017-11-15 19:03:38 1510790618.345621: $GPGSA,A,3,32,14,3,26,31,16,22,1,,,,,3.4,1.4,2.9*3C
2017-11-15 19:03:39 1510790619.666134: $GPGSV,3,1,12,32,45,096,22,14,63,073,25,03,32,309,22,26,40,175,16*78
2017-11-15 19:03:39 1510790619.666301: $GPGSV,3,2,12,31,76,355,28,16,11,190,17,22,47,288,20,25,26,045,00*79
2017-11-15 19:03:39 1510790619.666362: $GPGSV,3,3,12,10,08,159,00,01,12,262,12,29,06,081,00,135,23,238,00*42
2017-11-15 19:03:39 1510790619.779439: $GPZDA,000338.00,16,11,2017,00,00*6D
2017-11-15 19:03:39 1510790619.779603: $GPGGA,000338,3946.9684,N,08404.9471,W,1,08,1.40,299.57,M,-33.324,M,,*75
2017-11-15 19:03:39 1510790619.779663: $GPRMC,000338,A,3946.9684,N,08404.9471,W,1.5746,354.845,161117,,*34
2017-11-15 19:03:39 1510790619.779719: $GPGSA,A,3,32,14,3,26,31,16,22,1,,,,,3.4,1.4,2.9*3C
2017-11-15 19:03:40 1510790620.330510: $GPZDA,000339.00,16,11,2017,00,00*6C
2017-11-15 19:03:40 1510790620.330676: $GPGGA,000339,3946.9691,N,08404.9470,W,1,08,1.40,299.44,M,-33.324,M,,*73
2017-11-15 19:03:40 1510790620.330737: $GPRMC,000339,A,3946.9691,N,08404.9470,W,1.6300,346.404,161117,,*3F
2017-11-15 19:03:40 1510790620.330793: $GPGSA,A,3,32,14,3,26,31,16,22,1,,,,,3.4,1.4,2.9*3C
2017-11-15 19:03:41 1510790621.329463: $GPZDA,000340.00,16,11,2017,00,00*62
2017-11-15 19:03:41 1510790621.329641: $GPGGA,000340,3946.9691,N,08404.9470,W,1,08,1.40,299.44,M,-33.324,M,,*7D
2017-11-15 19:03:41 1510790621.329703: $GPRMC,000340,A,3946.9691,N,08404.9470,W,1.2132,3.552,161117,,*36
2017-11-15 19:03:41 1510790621.329759: $GPGSA,A,3,32,14,3,26,31,16,22,1,,,,,3.4,1.4,2.9*3C
2017-11-15 19:03:42 1510790622.665318: $GPGSV,3,1,12,32,45,096,22,14,63,073,25,03,32,309,22,26,40,175,16*78
2017-11-15 19:03:42 1510790622.665561: $GPGSV,3,2,12,31,76,355,28,16,11,190,17,22,47,288,20,25,26,045,00*79
2017-11-15 19:03:42 1510790622.665663: $GPGSV,3,3,12,10,08,159,00,01,12,262,12,29,06,081,00,135,23,238,00*42
2017-11-15 19:03:42 1510790622.778520: $GPZDA,000341.00,16,11,2017,00,00*63
2017-11-15 19:03:42 1510790622.778699: $GPGGA,000341,3946.9699,N,08404.9476,W,1,08,1.40,299.24,M,-33.324,M,,*74
2017-11-15 19:03:42 1510790622.778760: $GPRMC,000341,A,3946.9699,N,08404.9476,W,1.3082,341.818,161117,,*34
2017-11-15 19:03:42 1510790622.778816: $GPGSA,A,3,32,14,3,26,31,16,22,1,,,,,3.4,1.4,2.9*3C
2017-11-15 19:03:43 1510790623.331040: $GPZDA,000342.00,16,11,2017,00,00*60
2017-11-15 19:03:43 1510790623.331311: $GPGGA,000342,3946.9699,N,08404.9476,W,1,08,1.40,299.24,M,-33.324,M,,*77
2017-11-15 19:03:43 1510790623.331429: $GPRMC,000342,A,3946.9699,N,08404.9476,W,1.0534,350.904,161117,,*30
2017-11-15 19:03:43 1510790623.331557: $GPGSA,A,3,32,14,3,26,31,16,22,1,,,,,3.4,1.4,2.9*3C
2017-11-15 19:03:44 1510790624.330747: $GPZDA,000343.00,16,11,2017,00,00*61
2017-11-15 19:03:44 1510790624.331043: $GPGGA,000343,3946.9703,N,08404.9476,W,1,08,1.40,299.88,M,-33.324,M,,*72
2017-11-15 19:03:44 1510790624.331167: $GPRMC,000343,A,3946.9703,N,08404.9476,W,0.5287,2.716,161117,,*31
2017-11-15 19:03:44 1510790624.331225: $GPGSA,A,3,32,14,3,26,31,16,22,1,,,,,3.4,1.4,2.9*3C
2017-11-15 19:03:45 1510790625.666309: $GPGSV,3,1,12,32,45,096,22,14,63,073,24,03,32,309,21,26,40,175,16*7A
2017-11-15 19:03:45 1510790625.666655: $GPGSV,3,2,12,31,76,355,28,16,11,190,18,22,47,288,20,25,26,045,00*76
2017-11-15 19:03:45 1510790625.666887: $GPGSV,3,3,12,10,08,159,00,01,12,262,04,29,06,081,00,135,23,238,00*45
2017-11-15 19:03:45 1510790625.779502: $GPZDA,000344.00,16,11,2017,00,00*66
2017-11-15 19:03:45 1510790625.779680: $GPGGA,000344,3946.9707,N,08404.9476,W,1,07,1.40,299.11,M,-33.324,M,,*7E
2017-11-15 19:03:45 1510790625.779741: $GPRMC,000344,A,3946.9707,N,08404.9476,W,0.5951,58.684,161117,,*07
2017-11-15 19:03:45 1510790625.779797: $GPGSA,A,3,32,14,3,26,31,16,22,,,,,,3.4,1.4,2.9*0D
2017-11-15 19:03:46 1510790626.404923: $GPZDA,000345.00,16,11,2017,00,00*67
2017-11-15 19:03:46 1510790626.405089: $GPGGA,000345,3946.9707,N,08404.9469,W,1,07,1.40,299.19,M,-33.324,M,,*79
2017-11-15 19:03:46 1510790626.405150: $GPRMC,000345,A,3946.9707,N,08404.9469,W,0.9689,93.794,161117,,*09
2017-11-15 19:03:46 1510790626.405206: $GPGSA,A,3,32,14,3,26,31,16,22,,,,,,3.4,1.4,2.9*0D
