2017-12-01 13:44:09 1512153849.796809: {"class":"VERSION","release":"3.16","rev":"3.16-4","proto_major":3,"proto_minor":11}
2017-12-01 13:44:09 1512153849.797224: {"class":"DEVICES","devices":[{"class":"DEVICE","path":"/dev/ttyUSB0","driver":"SiRF","subtype":"9\u0006GSD4e_4.1.2-P1_RPATCH.05-F-GPS-4R-1510281 11/03/2015 307","activated":"2017-12-01T18:44:09.713Z","flags":1,"native":1,"bps":4800,"parity":"N","stopbits":1,"cycle":1.00}]}
2017-12-01 13:44:09 1512153849.797352: {"class":"WATCH","enable":true,"json":false,"nmea":true,"raw":0,"scaled":false,"timing":false,"split24":false,"pps":false}
2017-12-01 13:44:09 1512153849.826207: $GPZDA,184410.00,01,12,2017,00,00*68
2017-12-01 13:44:09 1512153849.826364: $GPGGA,184410,3946.9586,N,08404.9859,W,2,11,0.80,299.32,M,-33.324,M,,*77
2017-12-01 13:44:09 1512153849.826432: $GPRMC,184410,A,3946.9586,N,08404.9859,W,0.0000,0.000,011217,,*3C
2017-12-01 13:44:09 1512153849.826494: $GPGSA,A,3,8,10,14,15,18,20,21,24,27,32,138,,2.0,0.8,1.5*34
2017-12-01 13:44:10 1512153850.451892: $GPZDA,184411.00,01,12,2017,00,00*69
2017-12-01 13:44:10 1512153850.452066: $GPGGA,184411,3946.9586,N,08404.9859,W,2,11,0.80,299.32,M,-33.324,M,,*76
2017-12-01 13:44:10 1512153850.452134: $GPRMC,184411,A,3946.9586,N,08404.9859,W,0.0000,0.000,011217,,*3D
2017-12-01 13:44:10 1512153850.452195: $GPGSA,A,3,8,10,14,15,18,20,21,24,27,32,138,,2.0,0.8,1.5*34
2017-12-01 13:44:11 1512153851.376398: $GPZDA,184412.00,01,12,2017,00,00*6A
2017-12-01 13:44:11 1512153851.376577: $GPGGA,184412,3946.9586,N,08404.9859,W,2,11,0.80,299.32,M,-33.324,M,,*75
2017-12-01 13:44:11 1512153851.376649: $GPRMC,184412,A,3946.9586,N,08404.9859,W,0.0000,0.000,011217,,*3E
2017-12-01 13:44:11 1512153851.376710: $GPGSA,A,3,8,10,14,15,18,20,21,24,27,32,138,,2.0,0.8,1.5*34
2017-12-01 13:44:12 1512153852.708225: $GPGSV,3,1,11,08,08,309,32,10,53,313,48,14,15,241,39,15,25,058,46*7A
2017-12-01 13:44:12 1512153852.708411: $GPGSV,3,2,11,18,77,028,43,20,22,106,46,21,47,183,44,24,53,084,48*71
2017-12-01 13:44:12 1512153852.708478: $GPGSV,3,3,11,27,15,274,36,32,33,249,44,138,38,213,46*71
2017-12-01 13:44:12 1512153852.821637: $GPZDA,184413.00,01,12,2017,00,00*6B
2017-12-01 13:44:12 1512153852.821818: $GPGGA,184413,3946.9586,N,08404.9859,W,2,11,0.80,299.32,M,-33.324,M,,*74
2017-12-01 13:44:12 1512153852.821890: $GPRMC,184413,A,3946.9586,N,08404.9859,W,0.0000,0.000,011217,,*3F
2017-12-01 13:44:12 1512153852.821952: $GPGSA,A,3,8,10,14,15,18,20,21,24,27,32,138,,2.0,0.8,1.5*34
2017-12-01 13:44:13 1512153853.372494: $GPZDA,184414.00,01,12,2017,00,00*6C
2017-12-01 13:44:13 1512153853.372681: $GPGGA,184414,3946.9586,N,08404.9859,W,2,11,0.80,299.32,M,-33.324,M,,*73
2017-12-01 13:44:13 1512153853.372753: $GPRMC,184414,A,3946.9586,N,08404.9859,W,0.0000,0.000,011217,,*38
2017-12-01 13:44:13 1512153853.372814: $GPGSA,A,3,8,10,14,15,18,20,21,24,27,32,138,,2.0,0.8,1.5*34
2017-12-01 13:44:14 1512153854.377090: $GPZDA,184415.00,01,12,2017,00,00*6D
2017-12-01 13:44:14 1512153854.377281: $GPGGA,184415,3946.9586,N,08404.9859,W,2,11,0.80,299.32,M,-33.324,M,,*72
2017-12-01 13:44:14 1512153854.377351: $GPRMC,184415,A,3946.9586,N,08404.9859,W,0.0000,0.000,011217,,*39
2017-12-01 13:44:14 1512153854.377413: $GPGSA,A,3,8,10,14,15,18,20,21,24,27,32,138,,2.0,0.8,1.5*34
2017-12-01 13:44:15 1512153855.712372: $GPGSV,3,1,11,08,08,309,19,10,53,313,48,14,15,241,39,15,25,058,46*73
2017-12-01 13:44:15 1512153855.712562: $GPGSV,3,2,11,18,77,028,43,20,22,106,46,21,47,183,44,24,53,084,48*71
2017-12-01 13:44:15 1512153855.712634: $GPGSV,3,3,11,27,15,274,36,32,33,249,44,138,38,213,46*71
2017-12-01 13:44:15 1512153855.824856: $GPZDA,184416.00,01,12,2017,00,00*6E
2017-12-01 13:44:15 1512153855.825048: $GPGGA,184416,3946.9586,N,08404.9859,W,2,11,0.80,299.32,M,-33.324,M,,*71
2017-12-01 13:44:15 1512153855.825117: $GPRMC,184416,A,3946.9586,N,08404.9859,W,0.0000,0.000,011217,,*3A
2017-12-01 13:44:15 1512153855.825179: $GPGSA,A,3,8,10,14,15,18,20,21,24,27,32,138,,2.0,0.8,1.5*34
2017-12-01 13:44:16 1512153856.375818: $GPZDA,184417.00,01,12,2017,00,00*6F
2017-12-01 13:44:16 1512153856.375992: $GPGGA,184417,3946.9586,N,08404.9859,W,2,11,0.80,299.32,M,-33.324,M,,*70
2017-12-01 13:44:16 1512153856.376111: $GPRMC,184417,A,3946.9586,N,08404.9859,W,0.0000,0.000,011217,,*3B
2017-12-01 13:44:16 1512153856.376173: $GPGSA,A,3,8,10,14,15,18,20,21,24,27,32,138,,2.0,0.8,1.5*34
2017-12-01 13:44:17 1512153857.376227: $GPZDA,184418.00,01,12,2017,00,00*60
2017-12-01 13:44:17 1512153857.376402: $GPGGA,184418,3946.9586,N,08404.9859,W,2,11,0.80,299.32,M,-33.324,M,,*7F
2017-12-01 13:44:17 1512153857.376469: $GPRMC,184418,A,3946.9586,N,08404.9859,W,0.0000,0.000,011217,,*34
2017-12-01 13:44:17 1512153857.376536: $GPGSA,A,3,8,10,14,15,18,20,21,24,27,32,138,,2.0,0.8,1.5*34
2017-12-01 13:44:18 1512153858.734463: $GPGSV,3,1,11,08,08,309,30,10,53,313,48,14,15,241,39,15,25,058,46*78
2017-12-01 13:44:18 1512153858.734656: $GPGSV,3,2,11,18,77,028,43,20,22,106,46,21,47,183,44,24,53,084,48*71
2017-12-01 13:44:18 1512153858.734724: $GPGSV,3,3,11,27,15,274,36,32,33,249,44,138,38,213,47*70
2017-12-01 13:44:18 1512153858.848164: $GPZDA,184419.00,01,12,2017,00,00*61
2017-12-01 13:44:18 1512153858.848338: $GPGGA,184419,3946.9586,N,08404.9859,W,2,11,0.80,299.32,M,-33.324,M,,*7E
2017-12-01 13:44:18 1512153858.848405: $GPRMC,184419,A,3946.9586,N,08404.9859,W,0.0000,0.000,011217,,*35
2017-12-01 13:44:18 1512153858.848467: $GPGSA,A,3,8,10,14,15,18,20,21,24,27,32,138,,2.0,0.8,1.5*34
2017-12-01 13:44:19 1512153859.394045: $GPZDA,184420.00,01,12,2017,00,00*6B
2017-12-01 13:44:19 1512153859.394239: $GPGGA,184420,3946.9586,N,08404.9859,W,2,11,0.80,299.32,M,-33.324,M,,*74
2017-12-01 13:44:19 1512153859.394308: $GPRMC,184420,A,3946.9586,N,08404.9859,W,0.0000,0.000,011217,,*3F
2017-12-01 13:44:19 1512153859.394370: $GPGSA,A,3,8,10,14,15,18,20,21,24,27,32,138,,2.0,0.8,1.5*34
