2017-11-16 15:32:57 1510864377.265810: {"class":"VERSION","release":"3.17","rev":"3.17","proto_major":3,"proto_minor":12}
2017-11-16 15:32:57 1510864377.266395: {"class":"DEVICES","devices":[{"class":"DEVICE","path":"/dev/ttyUSB0","driver":"SiRF","subtype":"9\u0006GSD4e_4.1.2-P1_RPATCH.05-F-GPS-4R-1510281 11/03/2015 307","activated":"2017-11-16T20:32:57.255Z","flags":1,"native":1,"bps":4800,"parity":"N","stopbits":1,"cycle":1.00}]}
2017-11-16 15:32:57 1510864377.266525: {"class":"WATCH","enable":true,"json":false,"nmea":true,"raw":0,"scaled":false,"timing":false,"split24":false,"pps":false}
2017-11-16 15:32:57 1510864377.369436: $GPZDA,203256.00,16,11,2017,00,00*65
2017-11-16 15:32:57 1510864377.369633: $GPGGA,203256,3946.9568,N,08404.9860,W,2,12,1.00,309.61,M,-33.324,M,,*71
2017-11-16 15:32:57 1510864377.369695: $GPRMC,203256,A,3946.9568,N,08404.9860,W,0.0000,0.000,161117,,*3B
2017-11-16 15:32:57 1510864377.369751: $GPGSA,A,3,8,10,14,27,18,31,21,24,25,32,12,138,1.6,1.0,1.3*3E
2017-11-16 15:32:58 1510864378.717302: $GPGSV,3,1,12,08,05,291,37,10,72,336,50,14,31,256,46,27,05,258,29*7C
2017-11-16 15:32:58 1510864378.717497: $GPGSV,3,2,12,18,68,099,48,20,06,120,11,21,26,178,44,24,43,057,50*78
2017-11-16 15:32:58 1510864378.717558: $GPGSV,3,3,12,25,05,139,21,32,48,268,47,12,11,105,34,138,38,213,44*43
2017-11-16 15:32:58 1510864378.830771: $GPZDA,203257.00,16,11,2017,00,00*64
2017-11-16 15:32:58 1510864378.830928: $GPGGA,203257,3946.9568,N,08404.9860,W,2,11,1.00,309.61,M,-33.324,M,,*73
2017-11-16 15:32:58 1510864378.830989: $GPRMC,203257,A,3946.9568,N,08404.9860,W,0.0000,0.000,161117,,*3A
2017-11-16 15:32:58 1510864378.831044: $GPGSA,A,3,8,10,14,27,18,21,24,25,32,12,138,,1.6,1.0,1.3*3C
2017-11-16 15:32:59 1510864379.366124: $GPZDA,203258.00,16,11,2017,00,00*6B
2017-11-16 15:32:59 1510864379.366234: $GPGGA,203258,3946.9568,N,08404.9860,W,2,11,1.00,309.61,M,-33.324,M,,*7C
2017-11-16 15:32:59 1510864379.366265: $GPRMC,203258,A,3946.9568,N,08404.9860,W,0.0000,0.000,161117,,*35
2017-11-16 15:32:59 1510864379.366293: $GPGSA,A,3,8,10,14,27,18,21,24,25,32,12,138,,1.6,1.0,1.3*3C
2017-11-16 15:33:00 1510864380.389039: $GPZDA,203259.00,16,11,2017,00,00*6A
2017-11-16 15:33:00 1510864380.389221: $GPGGA,203259,3946.9568,N,08404.9860,W,2,11,1.00,309.61,M,-33.324,M,,*7D
2017-11-16 15:33:00 1510864380.389282: $GPRMC,203259,A,3946.9568,N,08404.9860,W,0.0000,0.000,161117,,*34
2017-11-16 15:33:00 1510864380.389356: $GPGSA,A,3,8,10,14,27,18,21,24,25,32,12,138,,1.6,1.0,1.3*3C
2017-11-16 15:33:01 1510864381.702959: $GPGSV,3,1,12,08,05,291,36,10,72,336,50,14,31,256,46,27,05,258,29*7D
2017-11-16 15:33:01 1510864381.703065: $GPGSV,3,2,12,18,68,099,47,20,06,120,17,21,26,178,44,24,43,057,50*71
2017-11-16 15:33:01 1510864381.703096: $GPGSV,3,3,12,25,05,139,21,32,48,268,47,12,11,105,34,138,38,213,44*43
2017-11-16 15:33:01 1510864381.815773: $GPZDA,203300.00,16,11,2017,00,00*67
2017-11-16 15:33:01 1510864381.815848: $GPGGA,203300,3946.9568,N,08404.9860,W,2,12,1.00,309.61,M,-33.324,M,,*73
2017-11-16 15:33:01 1510864381.815878: $GPRMC,203300,A,3946.9568,N,08404.9860,W,0.0000,0.000,161117,,*39
2017-11-16 15:33:01 1510864381.815905: $GPGSA,A,3,8,10,14,27,18,20,21,24,25,32,12,138,1.6,1.0,1.3*3E
2017-11-16 15:33:02 1510864382.374451: $GPZDA,203301.00,16,11,2017,00,00*66
2017-11-16 15:33:02 1510864382.374547: $GPGGA,203301,3946.9568,N,08404.9860,W,2,12,0.80,309.61,M,-33.324,M,,*7B
2017-11-16 15:33:02 1510864382.374578: $GPRMC,203301,A,3946.9568,N,08404.9860,W,0.0000,0.000,161117,,*38
2017-11-16 15:33:02 1510864382.374606: $GPGSA,A,3,8,10,14,27,18,20,21,24,25,32,12,138,1.6,0.8,1.3*37
2017-11-16 15:33:03 1510864383.382545: $GPZDA,203302.00,16,11,2017,00,00*65
2017-11-16 15:33:03 1510864383.390560: $GPGGA,203302,3946.9568,N,08404.9860,W,2,12,0.80,309.61,M,-33.324,M,,*78
2017-11-16 15:33:03 1510864383.390757: $GPRMC,203302,A,3946.9568,N,08404.9860,W,0.0000,0.000,161117,,*3B
2017-11-16 15:33:03 1510864383.390820: $GPGSA,A,3,8,10,14,27,18,20,21,24,25,32,12,138,1.6,0.8,1.3*37
2017-11-16 15:33:04 1510864384.702875: $GPGSV,3,1,12,08,05,291,28,10,72,336,50,14,31,256,46,27,05,258,30*7A
2017-11-16 15:33:04 1510864384.703080: $GPGSV,3,2,12,18,68,099,47,20,06,120,18,21,26,178,43,24,43,057,50*79
2017-11-16 15:33:04 1510864384.703142: $GPGSV,3,3,12,25,05,139,22,32,48,268,47,12,11,105,33,138,38,213,44*47
2017-11-16 15:33:04 1510864384.816237: $GPZDA,203303.00,16,11,2017,00,00*64
2017-11-16 15:33:04 1510864384.816402: $GPGGA,203303,3946.9568,N,08404.9860,W,2,12,1.00,309.61,M,-33.324,M,,*70
2017-11-16 15:33:04 1510864384.816462: $GPRMC,203303,A,3946.9568,N,08404.9860,W,0.0000,0.000,161117,,*3A
2017-11-16 15:33:04 1510864384.816519: $GPGSA,A,3,8,10,14,27,18,20,21,24,25,32,12,138,1.6,1.0,1.3*3E
2017-11-16 15:33:05 1510864385.367141: $GPZDA,203304.00,16,11,2017,00,00*63
2017-11-16 15:33:05 1510864385.367308: $GPGGA,203304,3946.9568,N,08404.9860,W,2,12,0.80,309.61,M,-33.324,M,,*7E
2017-11-16 15:33:05 1510864385.367369: $GPRMC,203304,A,3946.9568,N,08404.9860,W,0.0000,0.000,161117,,*3D
2017-11-16 15:33:05 1510864385.367425: $GPGSA,A,3,8,10,14,27,18,20,21,24,25,32,12,138,1.6,0.8,1.3*37
2017-11-16 15:33:06 1510864386.381192: $GPZDA,203305.00,16,11,2017,00,00*62
2017-11-16 15:33:06 1510864386.381375: $GPGGA,203305,3946.9568,N,08404.9860,W,2,12,0.80,309.61,M,-33.324,M,,*7F
2017-11-16 15:33:06 1510864386.381440: $GPRMC,203305,A,3946.9568,N,08404.9860,W,0.0000,0.000,161117,,*3C
2017-11-16 15:33:06 1510864386.381499: $GPGSA,A,3,8,10,14,27,18,20,21,24,25,32,12,138,1.6,0.8,1.3*37
