2017-11-15 19:12:49 1510791169.162515: {"class":"VERSION","release":"3.17","rev":"3.17","proto_major":3,"proto_minor":12}
2017-11-15 19:12:49 1510791169.162985: {"class":"DEVICES","devices":[{"class":"DEVICE","path":"/dev/ttyUSB0","driver":"SiRF","subtype":"9\u0006GSD4e_4.1.2-P1_RPATCH.05-F-GPS-4R-1510281 11/03/2015 307","activated":"2017-11-16T00:12:48.922Z","flags":1,"native":1,"bps":4800,"parity":"N","stopbits":1,"cycle":1.00}]}
2017-11-15 19:12:49 1510791169.163115: {"class":"WATCH","enable":true,"json":false,"nmea":true,"raw":0,"scaled":false,"timing":false,"split24":false,"pps":false}
2017-11-15 19:12:49 1510791169.347534: $GPZDA,001248.00,16,11,2017,00,00*6A
2017-11-15 19:12:49 1510791169.352590: $GPGGA,001248,3946.9645,N,08404.9478,W,1,08,1.60,306.57,M,-33.324,M,,*73
2017-11-15 19:12:49 1510791169.352726: $GPRMC,001248,A,3946.9645,N,08404.9478,W,0.9019,198.875,161117,,*36
2017-11-15 19:12:49 1510791169.352814: $GPGSA,A,3,32,14,26,31,16,3,22,29,,,,,3.4,1.6,2.9*04
2017-11-15 19:12:50 1510791170.347023: $GPZDA,001249.00,16,11,2017,00,00*6B
2017-11-15 19:12:50 1510791170.347203: $GPGGA,001249,3946.9638,N,08404.9479,W,1,08,1.60,306.69,M,-33.324,M,,*74
2017-11-15 19:12:50 1510791170.347265: $GPRMC,001249,A,3946.9638,N,08404.9479,W,1.2132,183.552,161117,,*3C
2017-11-15 19:12:50 1510791170.347322: $GPGSA,A,3,32,14,26,31,16,3,22,29,,,,,3.4,1.6,2.9*04
2017-11-15 19:12:50 1510791170.347373: $GPGBS,001249,13.59,M,20.35,M,67.34,M*0C
2017-11-15 19:12:51 1510791171.682970: $GPGSV,3,1,11,32,42,100,22,14,60,081,16,01,10,258,05,26,45,175,20*7E
2017-11-15 19:12:51 1510791171.683145: $GPGSV,3,2,11,31,73,009,22,16,15,190,15,03,35,306,18,22,49,282,06*72
2017-11-15 19:12:51 1510791171.683205: $GPGSV,3,3,11,29,08,078,04,25,23,043,04,23,06,297,00*4F
2017-11-15 19:12:51 1510791171.796291: $GPZDA,001250.00,16,11,2017,00,00*63
2017-11-15 19:12:51 1510791171.796453: $GPGGA,001250,3946.9638,N,08404.9479,W,1,06,1.60,306.69,M,-33.324,M,,*72
2017-11-15 19:12:51 1510791171.796515: $GPRMC,001250,A,3946.9638,N,08404.9479,W,0.7278,203.636,161117,,*37
2017-11-15 19:12:51 1510791171.796571: $GPGSA,A,3,32,14,26,31,16,3,,,,,,,3.4,1.6,2.9*0F
2017-11-15 19:12:52 1510791172.347280: $GPZDA,001251.00,16,11,2017,00,00*62
2017-11-15 19:12:52 1510791172.347441: $GPGGA,001251,3946.9638,N,08404.9479,W,1,06,1.60,306.69,M,-33.324,M,,*73
2017-11-15 19:12:52 1510791172.347501: $GPRMC,001251,A,3946.9638,N,08404.9479,W,0.5951,238.684,161117,,*35
2017-11-15 19:12:52 1510791172.347557: $GPGSA,A,3,32,14,26,31,16,3,,,,,,,3.4,1.6,2.9*0F
2017-11-15 19:12:53 1510791173.348361: $GPZDA,001252.00,16,11,2017,00,00*61
2017-11-15 19:12:53 1510791173.348635: $GPGGA,001252,3946.9638,N,08404.9486,W,1,06,1.60,306.61,M,-33.324,M,,*78
2017-11-15 19:12:53 1510791173.348722: $GPRMC,001252,A,3946.9638,N,08404.9486,W,0.5306,294.352,161117,,*36
2017-11-15 19:12:53 1510791173.348795: $GPGSA,A,3,32,14,26,31,16,3,,,,,,,3.4,1.6,2.9*0F
2017-11-15 19:12:54 1510791174.682589: $GPGSV,3,1,11,32,42,100,22,14,60,081,17,01,10,258,04,26,45,175,20*7E
2017-11-15 19:12:54 1510791174.682765: $GPGSV,3,2,11,31,73,009,21,16,15,190,15,03,35,306,19,22,49,282,05*73
2017-11-15 19:12:54 1510791174.682828: $GPGSV,3,3,11,29,08,078,05,25,23,043,06,23,06,297,00*4C
2017-11-15 19:12:54 1510791174.795951: $GPZDA,001253.00,16,11,2017,00,00*60
2017-11-15 19:12:54 1510791174.796142: $GPGGA,001253,3946.9635,N,08404.9487,W,1,06,1.60,307.38,M,-33.324,M,,*78
2017-11-15 19:12:54 1510791174.796210: $GPRMC,001253,A,3946.9635,N,08404.9487,W,0.4207,219.347,161117,,*3B
2017-11-15 19:12:54 1510791174.796271: $GPGSA,A,3,32,14,26,31,16,3,,,,,,,3.4,1.6,2.9*0F
2017-11-15 19:12:55 1510791175.348069: $GPZDA,001254.00,16,11,2017,00,00*67
2017-11-15 19:12:55 1510791175.348242: $GPGGA,001254,3946.9630,N,08404.9487,W,1,06,1.60,306.74,M,-33.324,M,,*73
2017-11-15 19:12:55 1510791175.348307: $GPRMC,001254,A,3946.9630,N,08404.9487,W,1.0567,197.448,161117,,*30
2017-11-15 19:12:55 1510791175.348367: $GPGSA,A,3,32,14,26,31,16,3,,,,,,,3.4,1.6,2.9*0F
2017-11-15 19:12:56 1510791176.330923: $GPZDA,001255.00,16,11,2017,00,00*66
2017-11-15 19:12:56 1510791176.331151: $GPGGA,001255,3946.9627,N,08404.9487,W,1,06,1.60,307.50,M,-33.324,M,,*73
2017-11-15 19:12:56 1510791176.331215: $GPRMC,001255,A,3946.9627,N,08404.9487,W,1.5494,222.258,161117,,*35
2017-11-15 19:12:56 1510791176.331272: $GPGSA,A,3,32,14,26,31,16,3,,,,,,,3.4,1.6,2.9*0F
2017-11-15 19:12:57 1510791177.684244: $GPGSV,3,1,11,32,42,100,22,14,60,081,17,01,10,258,05,26,45,175,20*7F
2017-11-15 19:12:57 1510791177.684428: $GPGSV,3,2,11,31,73,009,21,16,15,190,15,03,35,306,19,22,49,282,04*72
2017-11-15 19:12:57 1510791177.684490: $GPGSV,3,3,11,29,08,078,04,25,23,043,07,23,06,297,00*4C
2017-11-15 19:12:57 1510791177.797811: $GPZDA,001256.00,16,11,2017,00,00*65
2017-11-15 19:12:57 1510791177.797999: $GPGGA,001256,3946.9623,N,08404.9487,W,1,06,1.60,306.86,M,-33.324,M,,*7E
2017-11-15 19:12:57 1510791177.798061: $GPRMC,001256,A,3946.9623,N,08404.9487,W,1.5545,212.064,161117,,*31
2017-11-15 19:12:57 1510791177.798118: $GPGSA,A,3,32,14,26,31,16,3,,,,,,,3.4,1.6,2.9*0F
2017-11-15 19:12:58 1510791178.347466: $GPZDA,001257.00,16,11,2017,00,00*64
2017-11-15 19:12:58 1510791178.347660: $GPGGA,001257,3946.9620,N,08404.9495,W,1,06,1.60,307.55,M,-33.324,M,,*70
2017-11-15 19:12:58 1510791178.347724: $GPRMC,001257,A,3946.9620,N,08404.9495,W,1.5494,222.258,161117,,*33
2017-11-15 19:12:58 1510791178.347785: $GPGSA,A,3,32,14,26,31,16,3,,,,,,,3.4,1.6,2.9*0F
