2017-11-16 17:23:23 1510871003.430433: {"class":"VERSION","release":"3.17","rev":"3.17","proto_major":3,"proto_minor":12}
2017-11-16 17:23:23 1510871003.430896: {"class":"DEVICES","devices":[{"class":"DEVICE","path":"/dev/ttyUSB0","driver":"SiRF","subtype":"9\u0006GSD4e_4.1.2-P1_RPATCH.05-F-GPS-4R-1510281 11/03/2015 307","activated":"2017-11-16T22:23:23.400Z","flags":1,"native":1,"bps":4800,"parity":"N","stopbits":1,"cycle":1.00}]}
2017-11-16 17:23:23 1510871003.431018: {"class":"WATCH","enable":true,"json":false,"nmea":true,"raw":0,"scaled":false,"timing":false,"split24":false,"pps":false}
2017-11-16 17:23:24 1510871004.758205: $GPGSV,3,1,12,01,20,304,34,10,53,145,49,22,15,312,43,12,23,054,51*75
2017-11-16 17:23:24 1510871004.758405: $GPGSV,3,2,12,14,64,318,47,18,22,142,41,24,01,048,00,11,09,286,37*74
2017-11-16 17:23:24 1510871004.758466: $GPGSV,3,3,12,25,38,096,48,31,51,222,49,32,69,013,49,138,38,213,44*4C
2017-11-16 17:23:24 1510871004.871409: $GPZDA,222323.00,16,11,2017,00,00*65
2017-11-16 17:23:24 1510871004.871581: $GPGGA,222323,3946.9574,N,08404.9830,W,2,11,0.80,308.39,M,-33.324,M,,*7F
2017-11-16 17:23:24 1510871004.871660: $GPRMC,222323,A,3946.9574,N,08404.9830,W,0.0000,0.000,161117,,*33
2017-11-16 17:23:24 1510871004.871718: $GPGSA,A,3,1,10,22,12,14,18,11,25,31,32,138,,1.6,0.8,1.3*3E
2017-11-16 17:23:25 1510871005.403523: $GPZDA,222324.00,16,11,2017,00,00*62
2017-11-16 17:23:25 1510871005.403717: $GPGGA,222324,3946.9574,N,08404.9830,W,2,11,0.80,308.39,M,-33.324,M,,*78
2017-11-16 17:23:25 1510871005.403780: $GPRMC,222324,A,3946.9574,N,08404.9830,W,0.0000,0.000,161117,,*34
2017-11-16 17:23:25 1510871005.403837: $GPGSA,A,3,1,10,22,12,14,18,11,25,31,32,138,,1.6,0.8,1.3*3E
2017-11-16 17:23:26 1510871006.396459: $GPZDA,222325.00,16,11,2017,00,00*63
2017-11-16 17:23:26 1510871006.396639: $GPGGA,222325,3946.9574,N,08404.9830,W,2,11,0.80,308.39,M,-33.324,M,,*79
2017-11-16 17:23:26 1510871006.396702: $GPRMC,222325,A,3946.9574,N,08404.9830,W,0.0000,0.000,161117,,*35
2017-11-16 17:23:26 1510871006.396757: $GPGSA,A,3,1,10,22,12,14,18,11,25,31,32,138,,1.6,0.8,1.3*3E
2017-11-16 17:23:27 1510871007.737279: $GPGSV,3,1,12,01,20,304,35,10,53,145,49,22,15,312,43,12,23,054,50*75
2017-11-16 17:23:27 1510871007.737460: $GPGSV,3,2,12,14,64,318,47,18,22,142,40,24,01,048,00,11,09,286,37*75
2017-11-16 17:23:27 1510871007.737520: $GPGSV,3,3,12,25,38,096,48,31,51,222,49,32,69,013,50,138,38,213,44*44
2017-11-16 17:23:27 1510871007.850572: $GPZDA,222326.00,16,11,2017,00,00*60
2017-11-16 17:23:27 1510871007.850748: $GPGGA,222326,3946.9574,N,08404.9830,W,2,11,0.80,308.39,M,-33.324,M,,*7A
2017-11-16 17:23:27 1510871007.850810: $GPRMC,222326,A,3946.9574,N,08404.9830,W,0.0000,0.000,161117,,*36
2017-11-16 17:23:27 1510871007.850866: $GPGSA,A,3,1,10,22,12,14,18,11,25,31,32,138,,1.6,0.8,1.3*3E
2017-11-16 17:23:28 1510871008.420305: $GPZDA,222327.00,16,11,2017,00,00*61
2017-11-16 17:23:28 1510871008.420480: $GPGGA,222327,3946.9574,N,08404.9830,W,2,11,0.80,308.39,M,-33.324,M,,*7B
2017-11-16 17:23:28 1510871008.420546: $GPRMC,222327,A,3946.9574,N,08404.9830,W,0.0000,0.000,161117,,*37
2017-11-16 17:23:28 1510871008.420602: $GPGSA,A,3,1,10,22,12,14,18,11,25,31,32,138,,1.6,0.8,1.3*3E
2017-11-16 17:23:29 1510871009.421033: $GPZDA,222328.00,16,11,2017,00,00*6E
2017-11-16 17:23:29 1510871009.421198: $GPGGA,222328,3946.9574,N,08404.9830,W,2,11,0.80,308.39,M,-33.324,M,,*74
2017-11-16 17:23:29 1510871009.421260: $GPRMC,222328,A,3946.9574,N,08404.9830,W,0.0000,0.000,161117,,*38
2017-11-16 17:23:29 1510871009.421315: $GPGSA,A,3,1,10,22,12,14,18,11,25,31,32,138,,1.6,0.8,1.3*3E
2017-11-16 17:23:30 1510871010.738114: $GPGSV,3,1,12,01,20,304,36,10,53,145,49,22,15,312,43,12,23,054,50*76
2017-11-16 17:23:30 1510871010.738274: $GPGSV,3,2,12,14,64,318,47,18,22,142,40,24,01,048,00,11,09,286,36*74
2017-11-16 17:23:30 1510871010.738335: $GPGSV,3,3,12,25,38,096,48,31,51,222,49,32,69,013,49,138,38,213,43*4B
2017-11-16 17:23:30 1510871010.851479: $GPZDA,222329.00,16,11,2017,00,00*6F
2017-11-16 17:23:30 1510871010.851647: $GPGGA,222329,3946.9574,N,08404.9830,W,2,11,0.80,308.39,M,-33.324,M,,*75
2017-11-16 17:23:30 1510871010.851760: $GPRMC,222329,A,3946.9574,N,08404.9830,W,0.0000,0.000,161117,,*39
2017-11-16 17:23:30 1510871010.851819: $GPGSA,A,3,1,10,22,12,14,18,11,25,31,32,138,,1.6,0.8,1.3*3E
2017-11-16 17:23:31 1510871011.478115: $GPZDA,222330.00,16,11,2017,00,00*67
2017-11-16 17:23:31 1510871011.478285: $GPGGA,222330,3946.9574,N,08404.9830,W,2,11,0.80,308.39,M,-33.324,M,,*7D
2017-11-16 17:23:31 1510871011.478346: $GPRMC,222330,A,3946.9574,N,08404.9830,W,0.0000,0.000,161117,,*31
2017-11-16 17:23:31 1510871011.478402: $GPGSA,A,3,1,10,22,12,14,18,11,25,31,32,138,,1.6,0.8,1.3*3E
2017-11-16 17:23:32 1510871012.395341: $GPZDA,222331.00,16,11,2017,00,00*66
2017-11-16 17:23:32 1510871012.395537: $GPGGA,222331,3946.9574,N,08404.9830,W,2,11,0.80,308.39,M,-33.324,M,,*7C
2017-11-16 17:23:32 1510871012.395604: $GPRMC,222331,A,3946.9574,N,08404.9830,W,0.0000,0.000,161117,,*30
2017-11-16 17:23:32 1510871012.395661: $GPGSA,A,3,1,10,22,12,14,18,11,25,31,32,138,,1.6,0.8,1.3*3E
