2017-11-16 13:25:52 1510856752.565780: {"class":"VERSION","release":"3.17","rev":"3.17","proto_major":3,"proto_minor":12}
2017-11-16 13:25:52 1510856752.566226: {"class":"DEVICES","devices":[{"class":"DEVICE","path":"/dev/ttyUSB0","driver":"SiRF","subtype":"9\u0006GSD4e_4.1.2-P1_RPATCH.05-F-GPS-4R-1510281 11/03/2015 307","activated":"2017-11-16T18:25:52.416Z","flags":1,"native":1,"bps":4800,"parity":"N","stopbits":1,"cycle":1.00}]}
2017-11-16 13:25:52 1510856752.566336: {"class":"WATCH","enable":true,"json":false,"nmea":true,"raw":0,"scaled":false,"timing":false,"split24":false,"pps":false}
2017-11-16 13:25:53 1510856753.295186: $GPZDA,182552.00,16,11,2017,00,00*6C
2017-11-16 13:25:53 1510856753.295345: $GPGGA,182552,3946.9615,N,08404.9845,W,2,11,0.80,303.96,M,-33.324,M,,*7E
2017-11-16 13:25:53 1510856753.295421: $GPRMC,182552,A,3946.9615,N,08404.9845,W,0.0000,0.000,161117,,*3C
2017-11-16 13:25:53 1510856753.295479: $GPGSA,A,3,10,13,15,18,20,21,24,27,32,29,138,,1.6,0.8,1.3*03
2017-11-16 13:25:54 1510856754.610725: $GPGSV,3,1,12,10,25,285,41,13,27,045,46,15,59,051,50,18,56,303,47*70
2017-11-16 13:25:54 1510856754.610909: $GPGSV,3,2,12,20,49,075,48,21,78,259,46,24,35,136,41,27,17,310,40*7E
2017-11-16 13:25:54 1510856754.610970: $GPGSV,3,3,12,32,02,226,17,29,07,189,32,05,02,088,14,138,38,213,46*45
2017-11-16 13:25:54 1510856754.723996: $GPZDA,182553.00,16,11,2017,00,00*6D
2017-11-16 13:25:54 1510856754.724156: $GPGGA,182553,3946.9615,N,08404.9845,W,2,11,0.80,303.96,M,-33.324,M,,*7F
2017-11-16 13:25:54 1510856754.724218: $GPRMC,182553,A,3946.9615,N,08404.9845,W,0.0000,0.000,161117,,*3D
2017-11-16 13:25:54 1510856754.724273: $GPGSA,A,3,10,13,15,18,20,21,24,27,32,29,138,,1.6,0.8,1.3*03
2017-11-16 13:25:55 1510856755.349687: $GPZDA,182554.00,16,11,2017,00,00*6A
2017-11-16 13:25:55 1510856755.349848: $GPGGA,182554,3946.9615,N,08404.9845,W,2,11,0.80,303.96,M,-33.324,M,,*78
2017-11-16 13:25:55 1510856755.349908: $GPRMC,182554,A,3946.9615,N,08404.9845,W,0.0000,0.000,161117,,*3A
2017-11-16 13:25:55 1510856755.349964: $GPGSA,A,3,10,13,15,18,20,21,24,27,32,29,138,,1.6,0.8,1.3*03
2017-11-16 13:25:56 1510856756.287157: $GPZDA,182555.00,16,11,2017,00,00*6B
2017-11-16 13:25:56 1510856756.287274: $GPGGA,182555,3946.9615,N,08404.9845,W,2,11,0.80,303.96,M,-33.324,M,,*79
2017-11-16 13:25:56 1510856756.287306: $GPRMC,182555,A,3946.9615,N,08404.9845,W,0.0000,0.000,161117,,*3B
2017-11-16 13:25:56 1510856756.287336: $GPGSA,A,3,10,13,15,18,20,21,24,27,32,29,138,,1.6,0.8,1.3*03
2017-11-16 13:25:57 1510856757.630899: $GPGSV,3,1,12,10,25,285,42,13,27,045,46,15,59,051,50,18,56,303,47*73
2017-11-16 13:25:57 1510856757.631072: $GPGSV,3,2,12,20,49,075,48,21,78,259,46,24,35,136,41,27,17,310,40*7E
2017-11-16 13:25:57 1510856757.631132: $GPGSV,3,3,12,32,02,226,18,29,07,189,33,05,02,088,14,138,38,213,45*48
2017-11-16 13:25:57 1510856757.744111: $GPZDA,182556.00,16,11,2017,00,00*68
2017-11-16 13:25:57 1510856757.744280: $GPGGA,182556,3946.9615,N,08404.9845,W,2,11,0.80,303.96,M,-33.324,M,,*7A
2017-11-16 13:25:57 1510856757.744346: $GPRMC,182556,A,3946.9615,N,08404.9845,W,0.0000,0.000,161117,,*38
2017-11-16 13:25:57 1510856757.744402: $GPGSA,A,3,10,13,15,18,20,21,24,27,32,29,138,,1.6,0.8,1.3*03
2017-11-16 13:25:58 1510856758.276294: $GPZDA,182557.00,16,11,2017,00,00*69
2017-11-16 13:25:58 1510856758.276543: $GPGGA,182557,3946.9615,N,08404.9845,W,2,11,0.80,303.96,M,-33.324,M,,*7B
2017-11-16 13:25:58 1510856758.276604: $GPRMC,182557,A,3946.9615,N,08404.9845,W,0.0000,0.000,161117,,*39
2017-11-16 13:25:58 1510856758.276662: $GPGSA,A,3,10,13,15,18,20,21,24,27,32,29,138,,1.6,0.8,1.3*03
2017-11-16 13:25:59 1510856759.294630: $GPZDA,182558.00,16,11,2017,00,00*66
2017-11-16 13:25:59 1510856759.294792: $GPGGA,182558,3946.9615,N,08404.9845,W,2,11,0.80,303.96,M,-33.324,M,,*74
2017-11-16 13:25:59 1510856759.294870: $GPRMC,182558,A,3946.9615,N,08404.9845,W,0.0000,0.000,161117,,*36
2017-11-16 13:25:59 1510856759.294927: $GPGSA,A,3,10,13,15,18,20,21,24,27,32,29,138,,1.6,0.8,1.3*03
2017-11-16 13:26:00 1510856760.611129: $GPGSV,3,1,12,10,25,285,42,13,27,045,46,15,59,051,50,18,56,303,48*7C
2017-11-16 13:26:00 1510856760.611355: $GPGSV,3,2,12,20,49,075,48,21,78,259,46,24,35,136,42,27,17,310,41*7C
2017-11-16 13:26:00 1510856760.611421: $GPGSV,3,3,12,32,02,226,19,29,07,189,32,05,02,088,15,138,38,213,44*48
2017-11-16 13:26:00 1510856760.724497: $GPZDA,182559.00,16,11,2017,00,00*67
2017-11-16 13:26:00 1510856760.724680: $GPGGA,182559,3946.9615,N,08404.9845,W,2,12,0.80,303.96,M,-33.324,M,,*76
2017-11-16 13:26:00 1510856760.724743: $GPRMC,182559,A,3946.9615,N,08404.9845,W,0.0000,0.000,161117,,*37
2017-11-16 13:26:00 1510856760.724804: $GPGSA,A,3,10,13,15,18,20,21,24,27,32,29,5,138,1.6,0.8,1.3*36
2017-11-16 13:26:01 1510856761.295384: $GPZDA,182600.00,16,11,2017,00,00*68
2017-11-16 13:26:01 1510856761.295548: $GPGGA,182600,3946.9615,N,08404.9845,W,2,12,0.80,303.96,M,-33.324,M,,*79
2017-11-16 13:26:01 1510856761.295610: $GPRMC,182600,A,3946.9615,N,08404.9845,W,0.0000,0.000,161117,,*38
2017-11-16 13:26:01 1510856761.295665: $GPGSA,A,3,10,13,15,18,20,21,24,27,32,29,5,138,1.6,0.8,1.3*36
2017-11-16 13:26:02 1510856762.275001: $GPZDA,182601.00,16,11,2017,00,00*69
2017-11-16 13:26:02 1510856762.275158: $GPGGA,182601,3946.9615,N,08404.9845,W,2,12,0.80,303.96,M,-33.324,M,,*78
2017-11-16 13:26:02 1510856762.275222: $GPRMC,182601,A,3946.9615,N,08404.9845,W,0.0000,0.000,161117,,*39
2017-11-16 13:26:02 1510856762.275278: $GPGSA,A,3,10,13,15,18,20,21,24,27,32,29,5,138,1.6,0.8,1.3*36
2017-11-16 13:26:03 1510856763.609433: $GPGSV,3,1,12,10,25,285,41,13,27,045,46,15,59,051,51,18,56,303,47*71
2017-11-16 13:26:03 1510856763.609604: $GPGSV,3,2,12,20,49,075,48,21,78,259,46,24,35,136,42,27,17,310,42*7F
2017-11-16 13:26:03 1510856763.609667: $GPGSV,3,3,12,32,02,226,22,29,07,189,32,05,02,088,16,138,38,213,44*43
2017-11-16 13:26:03 1510856763.722766: $GPZDA,182602.00,16,11,2017,00,00*6A
2017-11-16 13:26:03 1510856763.722928: $GPGGA,182602,3946.9615,N,08404.9845,W,2,12,0.80,303.96,M,-33.324,M,,*7B
2017-11-16 13:26:03 1510856763.722990: $GPRMC,182602,A,3946.9615,N,08404.9845,W,0.0000,0.000,161117,,*3A
2017-11-16 13:26:03 1510856763.723046: $GPGSA,A,3,10,13,15,18,20,21,24,27,32,29,5,138,1.6,0.8,1.3*36
2017-11-16 13:26:04 1510856764.293566: $GPZDA,182603.00,16,11,2017,00,00*6B
2017-11-16 13:26:04 1510856764.293727: $GPGGA,182603,3946.9615,N,08404.9845,W,2,12,0.80,303.96,M,-33.324,M,,*7A
2017-11-16 13:26:04 1510856764.293788: $GPRMC,182603,A,3946.9615,N,08404.9845,W,0.0000,0.000,161117,,*3B
2017-11-16 13:26:04 1510856764.293845: $GPGSA,A,3,10,13,15,18,20,21,24,27,32,29,5,138,1.6,0.8,1.3*36
2017-11-16 13:26:05 1510856765.275111: $GPZDA,182604.00,16,11,2017,00,00*6C
2017-11-16 13:26:05 1510856765.275280: $GPGGA,182604,3946.9615,N,08404.9845,W,2,12,0.80,303.96,M,-33.324,M,,*7D
2017-11-16 13:26:05 1510856765.275342: $GPRMC,182604,A,3946.9615,N,08404.9845,W,0.0000,0.000,161117,,*3C
2017-11-16 13:26:05 1510856765.275397: $GPGSA,A,3,10,13,15,18,20,21,24,27,32,29,5,138,1.6,0.8,1.3*36
2017-11-16 13:26:06 1510856766.604585: $GPGSV,3,1,12,10,25,285,40,13,27,045,46,15,59,051,51,18,56,303,47*70
2017-11-16 13:26:06 1510856766.604758: $GPGSV,3,2,12,20,49,075,48,21,78,259,46,24,35,136,42,27,17,310,42*7F
2017-11-16 13:26:06 1510856766.604817: $GPGSV,3,3,12,32,02,226,26,29,07,189,32,05,02,088,16,138,38,213,45*46
2017-11-16 13:26:06 1510856766.717863: $GPZDA,182605.00,16,11,2017,00,00*6D
2017-11-16 13:26:06 1510856766.718029: $GPGGA,182605,3946.9615,N,08404.9845,W,2,12,0.80,303.96,M,-33.324,M,,*7C
2017-11-16 13:26:06 1510856766.718090: $GPRMC,182605,A,3946.9615,N,08404.9845,W,0.0000,0.000,161117,,*3D
2017-11-16 13:26:06 1510856766.718150: $GPGSA,A,3,10,13,15,18,20,21,24,27,32,29,5,138,1.6,0.8,1.3*36
2017-11-16 13:26:07 1510856767.276360: $GPZDA,182606.00,16,11,2017,00,00*6E
2017-11-16 13:26:07 1510856767.276539: $GPGGA,182606,3946.9615,N,08404.9845,W,2,12,0.80,303.96,M,-33.324,M,,*7F
2017-11-16 13:26:07 1510856767.276603: $GPRMC,182606,A,3946.9615,N,08404.9845,W,0.0000,0.000,161117,,*3E
2017-11-16 13:26:07 1510856767.276658: $GPGSA,A,3,10,13,15,18,20,21,24,27,32,29,5,138,1.6,0.8,1.3*36
