2017-12-31 18:59:14 1514764754.546620: {"class":"VERSION","release":"3.16","rev":"3.16-4","proto_major":3,"proto_minor":11}
2017-12-31 18:59:14 1514764754.547009: {"class":"DEVICES","devices":[{"class":"DEVICE","path":"/dev/ttyUSB0","driver":"SiRF","activated":"2017-12-31T23:59:14.546Z","flags":1,"native":1,"bps":4800,"parity":"N","stopbits":1,"cycle":1.00}]}
2017-12-31 18:59:14 1514764754.547150: {"class":"WATCH","enable":true,"json":false,"nmea":true,"raw":0,"scaled":false,"timing":false,"split24":false,"pps":false}
2017-12-31 18:59:15 1514764755.688577: $GPGSV,3,1,11,22,05,201,26,23,70,270,38,09,40,307,00,03,14,217,32*7B
2017-12-31 18:59:15 1514764755.688746: $GPGSV,3,2,11,16,72,036,45,08,20,175,44,31,13,091,30,27,43,139,40*71
2017-12-31 18:59:15 1514764755.688811: $GPGSV,3,3,11,07,13,288,34,26,40,048,45,135,22,240,43*72
2017-12-31 18:59:15 1514764755.801935: $GPZDA,235916.00,31,12,2017,00,00*69
2017-12-31 18:59:15 1514764755.802061: $GPGGA,235916,3946.9579,N,08404.9831,W,2,10,0.80,310.44,M,-33.324,M,,*7B
2017-12-31 18:59:15 1514764755.802125: $GPRMC,235916,A,3946.9579,N,08404.9831,W,0.0000,0.000,311217,,*33
2017-12-31 18:59:15 1514764755.802185: $GPGSA,A,3,22,23,3,16,8,31,27,7,26,135,,,1.7,0.8,1.3*30
2017-12-31 18:59:16 1514764756.395382: $GPZDA,235917.00,31,12,2017,00,00*68
2017-12-31 18:59:16 1514764756.395551: $GPGGA,235917,3946.9579,N,08404.9831,W,2,10,0.80,310.44,M,-33.324,M,,*7A
2017-12-31 18:59:16 1514764756.395617: $GPRMC,235917,A,3946.9579,N,08404.9831,W,0.0000,0.000,311217,,*32
2017-12-31 18:59:16 1514764756.395678: $GPGSA,A,3,22,23,3,16,8,31,27,7,26,135,,,1.7,0.8,1.3*30
2017-12-31 18:59:17 1514764757.353714: $GPZDA,235918.00,31,12,2017,00,00*67
2017-12-31 18:59:17 1514764757.353866: $GPGGA,235918,3946.9579,N,08404.9831,W,2,10,0.80,310.44,M,-33.324,M,,*75
2017-12-31 18:59:17 1514764757.353931: $GPRMC,235918,A,3946.9579,N,08404.9831,W,0.0000,0.000,311217,,*3D
2017-12-31 18:59:17 1514764757.353991: $GPGSA,A,3,22,23,3,16,8,31,27,7,26,135,,,1.7,0.8,1.3*30
2017-12-31 18:59:18 1514764758.720635: $GPGSV,3,1,11,22,05,201,25,23,70,270,37,09,40,307,23,03,14,217,31*75
2017-12-31 18:59:18 1514764758.720814: $GPGSV,3,2,11,16,72,036,45,08,20,175,44,31,13,091,30,27,43,139,40*71
2017-12-31 18:59:18 1514764758.720880: $GPGSV,3,3,11,07,13,288,34,26,40,048,46,135,22,240,44*76
2017-12-31 18:59:18 1514764758.834029: $GPZDA,235919.00,31,12,2017,00,00*66
2017-12-31 18:59:18 1514764758.834149: $GPGGA,235919,3946.9579,N,08404.9831,W,2,11,0.80,310.44,M,-33.324,M,,*75
2017-12-31 18:59:18 1514764758.834215: $GPRMC,235919,A,3946.9579,N,08404.9831,W,0.0000,0.000,311217,,*3C
2017-12-31 18:59:18 1514764758.834276: $GPGSA,A,3,22,23,9,3,16,8,31,27,7,26,135,,1.7,0.8,1.3*09
2017-12-31 18:59:19 1514764759.353701: $GPZDA,235920.00,31,12,2017,00,00*6C
2017-12-31 18:59:19 1514764759.353877: $GPGGA,235920,3946.9579,N,08404.9831,W,2,11,0.80,310.44,M,-33.324,M,,*7F
2017-12-31 18:59:19 1514764759.353945: $GPRMC,235920,A,3946.9579,N,08404.9831,W,0.0000,0.000,311217,,*36
2017-12-31 18:59:19 1514764759.354006: $GPGSA,A,3,22,23,9,3,16,8,31,27,7,26,135,,1.7,0.8,1.3*09
2017-12-31 18:59:20 1514764760.352823: $GPZDA,235921.00,31,12,2017,00,00*6D
2017-12-31 18:59:20 1514764760.352978: $GPGGA,235921,3946.9579,N,08404.9831,W,2,11,0.80,310.44,M,-33.324,M,,*7E
2017-12-31 18:59:20 1514764760.353045: $GPRMC,235921,A,3946.9579,N,08404.9831,W,0.0000,0.000,311217,,*37
2017-12-31 18:59:20 1514764760.353105: $GPGSA,A,3,22,23,9,3,16,8,31,27,7,26,135,,1.7,0.8,1.3*09
2017-12-31 18:59:21 1514764761.689727: $GPGSV,3,1,11,22,05,201,25,23,70,270,30,09,40,307,28,03,14,217,32*7A
2017-12-31 18:59:21 1514764761.689904: $GPGSV,3,2,11,16,72,036,44,08,20,175,44,31,13,091,30,27,43,139,40*70
2017-12-31 18:59:21 1514764761.689970: $GPGSV,3,3,11,07,13,288,28,26,40,048,46,135,22,240,45*7A
2017-12-31 18:59:21 1514764761.803204: $GPZDA,235922.00,31,12,2017,00,00*6E
2017-12-31 18:59:21 1514764761.803329: $GPGGA,235922,3946.9579,N,08404.9831,W,2,11,0.80,310.44,M,-33.324,M,,*7D
2017-12-31 18:59:21 1514764761.803392: $GPRMC,235922,A,3946.9579,N,08404.9831,W,0.0000,0.000,311217,,*34
2017-12-31 18:59:21 1514764761.803507: $GPGSA,A,3,22,23,9,3,16,8,31,27,7,26,135,,1.7,0.8,1.3*09
2017-12-31 18:59:22 1514764762.352821: $GPZDA,235923.00,31,12,2017,00,00*6F
2017-12-31 18:59:22 1514764762.352991: $GPGGA,235923,3946.9579,N,08404.9831,W,2,11,0.80,310.44,M,-33.324,M,,*7C
2017-12-31 18:59:22 1514764762.353058: $GPRMC,235923,A,3946.9579,N,08404.9831,W,0.0000,0.000,311217,,*35
2017-12-31 18:59:22 1514764762.353118: $GPGSA,A,3,22,23,9,3,16,8,31,27,7,26,135,,1.7,0.8,1.3*09
2017-12-31 18:59:23 1514764763.352421: $GPZDA,235924.00,31,12,2017,00,00*68
2017-12-31 18:59:23 1514764763.352582: $GPGGA,235924,3946.9579,N,08404.9831,W,2,11,0.80,310.44,M,-33.324,M,,*7B
2017-12-31 18:59:23 1514764763.352648: $GPRMC,235924,A,3946.9579,N,08404.9831,W,0.0000,0.000,311217,,*32
2017-12-31 18:59:23 1514764763.352708: $GPGSA,A,3,22,23,9,3,16,8,31,27,7,26,135,,1.7,0.8,1.3*09
