2017-11-16 14:40:41 1510861241.505789: {"class":"VERSION","release":"3.17","rev":"3.17","proto_major":3,"proto_minor":12}
2017-11-16 14:40:41 1510861241.506263: {"class":"DEVICES","devices":[{"class":"DEVICE","path":"/dev/ttyUSB0","driver":"SiRF","subtype":"9\u0006GSD4e_4.1.2-P1_RPATCH.05-F-GPS-4R-1510281 11/03/2015 307","activated":"2017-11-16T19:40:41.399Z","flags":1,"native":1,"bps":4800,"parity":"N","stopbits":1,"cycle":1.00}]}
2017-11-16 14:40:41 1510861241.506381: {"class":"WATCH","enable":true,"json":false,"nmea":true,"raw":0,"scaled":false,"timing":false,"split24":false,"pps":false}
2017-11-16 14:40:41 1510861241.512510: $GPZDA,194040.00,16,11,2017,00,00*6D
2017-11-16 14:40:41 1510861241.512626: $GPGGA,194040,3946.9564,N,08404.9849,W,2,11,0.80,302.66,M,-33.324,M,,*78
2017-11-16 14:40:41 1510861241.512683: $GPRMC,194040,A,3946.9564,N,08404.9849,W,0.0000,0.000,161117,,*34
2017-11-16 14:40:41 1510861241.512738: $GPGSA,A,3,8,10,15,18,21,20,24,27,32,14,138,,1.6,0.8,1.3*37
2017-11-16 14:40:42 1510861242.849465: $GPGSV,3,1,11,08,08,312,28,10,51,310,51,15,27,057,51,18,77,015,44*78
2017-11-16 14:40:42 1510861242.849637: $GPGSV,3,2,11,21,51,184,48,20,24,105,47,24,53,088,50,27,16,277,43*7F
2017-11-16 14:40:42 1510861242.849699: $GPGSV,3,3,11,32,30,247,47,14,14,238,45,138,38,213,44*70
2017-11-16 14:40:42 1510861242.963002: $GPZDA,194041.00,16,11,2017,00,00*6C
2017-11-16 14:40:42 1510861242.963169: $GPGGA,194041,3946.9564,N,08404.9849,W,2,11,0.80,302.66,M,-33.324,M,,*79
2017-11-16 14:40:42 1510861242.963229: $GPRMC,194041,A,3946.9564,N,08404.9849,W,0.0000,0.000,161117,,*35
2017-11-16 14:40:42 1510861242.963286: $GPGSA,A,3,8,10,15,18,21,20,24,27,32,14,138,,1.6,0.8,1.3*37
2017-11-16 14:40:43 1510861243.512327: $GPZDA,194042.00,16,11,2017,00,00*6F
2017-11-16 14:40:43 1510861243.512514: $GPGGA,194042,3946.9564,N,08404.9849,W,2,11,0.80,302.66,M,-33.324,M,,*7A
2017-11-16 14:40:43 1510861243.512576: $GPRMC,194042,A,3946.9564,N,08404.9849,W,0.0000,0.000,161117,,*36
2017-11-16 14:40:43 1510861243.512632: $GPGSA,A,3,8,10,15,18,21,20,24,27,32,14,138,,1.6,0.8,1.3*37
2017-11-16 14:40:44 1510861244.506395: $GPZDA,194043.00,16,11,2017,00,00*6E
2017-11-16 14:40:44 1510861244.506583: $GPGGA,194043,3946.9564,N,08404.9849,W,2,11,0.80,302.66,M,-33.324,M,,*7B
2017-11-16 14:40:44 1510861244.506649: $GPRMC,194043,A,3946.9564,N,08404.9849,W,0.0000,0.000,161117,,*37
2017-11-16 14:40:44 1510861244.506741: $GPGSA,A,3,8,10,15,18,21,20,24,27,32,14,138,,1.6,0.8,1.3*37
2017-11-16 14:40:45 1510861245.848274: $GPGSV,3,1,11,08,08,312,33,10,51,310,51,15,27,057,51,18,77,015,44*72
2017-11-16 14:40:45 1510861245.848447: $GPGSV,3,2,11,21,51,184,48,20,24,105,47,24,53,088,50,27,16,277,43*7F
2017-11-16 14:40:45 1510861245.848511: $GPGSV,3,3,11,32,30,247,47,14,14,238,44,138,38,213,43*76
2017-11-16 14:40:45 1510861245.961750: $GPZDA,194044.00,16,11,2017,00,00*69
2017-11-16 14:40:45 1510861245.961928: $GPGGA,194044,3946.9564,N,08404.9849,W,2,11,0.80,302.66,M,-33.324,M,,*7C
2017-11-16 14:40:45 1510861245.961992: $GPRMC,194044,A,3946.9564,N,08404.9849,W,0.0000,0.000,161117,,*30
2017-11-16 14:40:45 1510861245.962051: $GPGSA,A,3,8,10,15,18,21,20,24,27,32,14,138,,1.6,0.8,1.3*37
2017-11-16 14:40:46 1510861246.513165: $GPZDA,194045.00,16,11,2017,00,00*68
2017-11-16 14:40:46 1510861246.513328: $GPGGA,194045,3946.9564,N,08404.9849,W,2,11,0.80,302.66,M,-33.324,M,,*7D
2017-11-16 14:40:46 1510861246.513410: $GPRMC,194045,A,3946.9564,N,08404.9849,W,0.0000,0.000,161117,,*31
2017-11-16 14:40:46 1510861246.513470: $GPGSA,A,3,8,10,15,18,21,20,24,27,32,14,138,,1.6,0.8,1.3*37
2017-11-16 14:40:47 1510861247.511970: $GPZDA,194046.00,16,11,2017,00,00*6B
2017-11-16 14:40:47 1510861247.512138: $GPGGA,194046,3946.9564,N,08404.9849,W,2,11,0.80,302.66,M,-33.324,M,,*7E
2017-11-16 14:40:47 1510861247.512202: $GPRMC,194046,A,3946.9564,N,08404.9849,W,0.0000,0.000,161117,,*32
2017-11-16 14:40:47 1510861247.512261: $GPGSA,A,3,8,10,15,18,21,20,24,27,32,14,138,,1.6,0.8,1.3*37
2017-11-16 14:40:48 1510861248.848875: $GPGSV,3,1,11,08,08,312,33,10,51,310,51,15,27,057,51,18,77,015,44*72
2017-11-16 14:40:48 1510861248.849071: $GPGSV,3,2,11,21,51,184,48,20,24,105,46,24,53,088,50,27,16,277,43*7E
2017-11-16 14:40:48 1510861248.849133: $GPGSV,3,3,11,32,30,247,47,14,14,238,44,138,38,213,44*71
2017-11-16 14:40:48 1510861248.962174: $GPZDA,194047.00,16,11,2017,00,00*6A
2017-11-16 14:40:48 1510861248.962353: $GPGGA,194047,3946.9564,N,08404.9849,W,2,11,0.80,302.66,M,-33.324,M,,*7F
2017-11-16 14:40:48 1510861248.962430: $GPRMC,194047,A,3946.9564,N,08404.9849,W,0.0000,0.000,161117,,*33
2017-11-16 14:40:48 1510861248.962488: $GPGSA,A,3,8,10,15,18,21,20,24,27,32,14,138,,1.6,0.8,1.3*37
2017-11-16 14:40:49 1510861249.587712: $GPZDA,194048.00,16,11,2017,00,00*65
2017-11-16 14:40:49 1510861249.587885: $GPGGA,194048,3946.9564,N,08404.9849,W,2,11,0.80,302.66,M,-33.324,M,,*70
2017-11-16 14:40:49 1510861249.587947: $GPRMC,194048,A,3946.9564,N,08404.9849,W,0.0000,0.000,161117,,*3C
2017-11-16 14:40:49 1510861249.588002: $GPGSA,A,3,8,10,15,18,21,20,24,27,32,14,138,,1.6,0.8,1.3*37
2017-11-16 14:40:50 1510861250.512026: $GPZDA,194049.00,16,11,2017,00,00*64
2017-11-16 14:40:50 1510861250.512210: $GPGGA,194049,3946.9564,N,08404.9849,W,2,11,0.80,302.66,M,-33.324,M,,*71
2017-11-16 14:40:50 1510861250.512288: $GPRMC,194049,A,3946.9564,N,08404.9849,W,0.0000,0.000,161117,,*3D
2017-11-16 14:40:50 1510861250.512345: $GPGSA,A,3,8,10,15,18,21,20,24,27,32,14,138,,1.6,0.8,1.3*37
