2018-01-12 04:24:35 1515749075.063806: {"class":"VERSION","release":"3.16","rev":"3.16-4","proto_major":3,"proto_minor":11}
2018-01-12 04:24:35 1515749075.064166: {"class":"DEVICES","devices":[{"class":"DEVICE","path":"/dev/ttyUSB0","driver":"SiRF","subtype":"9\u0006GSD4e_4.1.2-P1_RPATCH.05-F-GPS-4R-1510281 11/03/2015 307","activated":"2018-01-12T09:24:35.038Z","flags":1,"native":1,"bps":4800,"parity":"N","stopbits":1,"cycle":1.00}]}
2018-01-12 04:24:35 1515749075.064356: {"class":"WATCH","enable":true,"json":false,"nmea":true,"raw":0,"scaled":false,"timing":false,"split24":false,"pps":false}
2018-01-12 04:24:35 1515749075.151946: $GPZDA,092435.84,12,01,2018,00,00*6A
2018-01-12 04:24:35 1515749075.152129: $GPGGA,092435,3946.9652,N,08404.9760,W,1,09,1.60,295.66,M,-33.324,M,,*71
2018-01-12 04:24:35 1515749075.152197: $GPRMC,092435,A,3946.9652,N,08404.9760,W,0.2365,305.883,120118,,*3A
2018-01-12 04:24:35 1515749075.152261: $GPGSA,A,3,2,5,6,12,25,29,9,23,138,,,,2.4,1.6,2.1*0C
2018-01-12 04:24:35 1515749075.152319: $GPGBS,092435,11.98,M,14.47,M,47.88,M*03
2018-01-12 04:24:36 1515749076.257296: $GPZDA,092436.53,12,01,2018,00,00*63
2018-01-12 04:24:36 1515749076.257461: $GPGGA,092436,3946.9652,N,08404.9760,W,1,09,1.60,295.66,M,-33.324,M,,*72
2018-01-12 04:24:36 1515749076.257527: $GPRMC,092436,A,3946.9652,N,08404.9760,W,0.2758,128.233,120118,,*3F
2018-01-12 04:24:36 1515749076.257590: $GPGSA,A,3,2,5,6,12,25,29,9,23,138,,,,2.4,1.6,2.1*0C
2018-01-12 04:24:37 1515749077.422135: $GPGSV,3,1,12,02,71,349,44,05,51,199,49,06,46,055,40,12,51,249,49*7A
2018-01-12 04:24:37 1515749077.422302: $GPGSV,3,2,12,25,33,300,44,29,12,307,47,19,31,117,00,09,20,066,00*76
2018-01-12 04:24:37 1515749077.422369: $GPGSV,3,3,12,17,13,121,00,23,05,036,00,04,56,286,00,138,38,213,00*47
2018-01-12 04:24:37 1515749077.535784: $GPZDA,092437.00,12,01,2018,00,00*64
2018-01-12 04:24:37 1515749077.535915: $GPGGA,092437,3946.9652,N,08404.9760,W,1,06,1.60,295.66,M,-33.324,M,,*7C
2018-01-12 04:24:37 1515749077.535984: $GPRMC,092437,A,3946.9652,N,08404.9760,W,0.1867,0.000,120118,,*37
2018-01-12 04:24:37 1515749077.536045: $GPGSA,A,3,2,5,6,12,25,29,,,,,,,2.4,1.6,2.1*0E
2018-01-12 04:24:37 1515749077.986612: $GPZDA,092438.00,12,01,2018,00,00*6B
2018-01-12 04:24:37 1515749077.986752: $GPGGA,092438,3946.9652,N,08404.9760,W,1,06,0.80,295.66,M,-33.324,M,,*7C
2018-01-12 04:24:37 1515749077.986818: $GPRMC,092438,A,3946.9652,N,08404.9760,W,0.2172,85.764,120118,,*0E
2018-01-12 04:24:37 1515749077.986881: $GPGSA,A,3,2,5,6,12,25,29,,,,,,,2.4,0.8,2.1*01
2018-01-12 04:24:38 1515749078.438783: $GPZDA,092439.00,12,01,2018,00,00*6A
2018-01-12 04:24:38 1515749078.438956: $GPGGA,092439,3946.9656,N,08404.9760,W,1,06,0.80,296.30,M,-33.324,M,,*79
2018-01-12 04:24:38 1515749078.439022: $GPRMC,092439,A,3946.9656,N,08404.9760,W,0.0000,0.000,120118,,*35
2018-01-12 04:24:38 1515749078.439084: $GPGSA,A,3,2,5,6,12,25,29,,,,,,,2.4,0.8,2.1*01
2018-01-12 04:24:39 1515749079.690022: $GPGSV,3,1,12,02,71,349,45,05,51,199,50,06,46,055,41,12,51,249,50*7A
2018-01-12 04:24:39 1515749079.690203: $GPGSV,3,2,12,25,33,300,44,29,12,307,47,09,20,066,22,17,13,121,25*7A
2018-01-12 04:24:39 1515749079.690270: $GPGSV,3,3,12,20,01,219,19,23,05,036,29,19,31,117,00,138,38,213,48*41
2018-01-12 04:24:39 1515749079.802373: $GPZDA,092440.00,12,01,2018,00,00*64
2018-01-12 04:24:39 1515749079.802484: $GPGGA,092440,3946.9656,N,08404.9753,W,1,11,0.80,296.38,M,-33.324,M,,*79
2018-01-12 04:24:39 1515749079.802549: $GPRMC,092440,A,3946.9656,N,08404.9753,W,0.0000,0.000,120118,,*3B
2018-01-12 04:24:39 1515749079.802610: $GPGSA,A,3,2,5,6,12,25,29,9,17,20,23,138,,2.4,0.8,2.1*07
2018-01-12 04:24:40 1515749080.355832: $GPZDA,092441.00,12,01,2018,00,00*65
2018-01-12 04:24:40 1515749080.356012: $GPGGA,092441,3946.9666,N,08404.9755,W,2,11,1.00,300.47,M,-33.324,M,,*71
2018-01-12 04:24:40 1515749080.356081: $GPRMC,092441,A,3946.9666,N,08404.9755,W,0.0000,0.000,120118,,*3F
2018-01-12 04:24:40 1515749080.356141: $GPGSA,A,3,2,5,6,12,25,29,9,17,20,23,138,,2.4,1.0,2.1*0E
