2017-11-16 16:42:56 1510868576.873247: {"class":"VERSION","release":"3.17","rev":"3.17","proto_major":3,"proto_minor":12}
2017-11-16 16:42:56 1510868576.873735: {"class":"DEVICES","devices":[{"class":"DEVICE","path":"/dev/ttyUSB0","driver":"SiRF","subtype":"9\u0006GSD4e_4.1.2-P1_RPATCH.05-F-GPS-4R-1510281 11/03/2015 307","activated":"2017-11-16T21:42:56.777Z","flags":1,"native":1,"bps":4800,"parity":"N","stopbits":1,"cycle":1.00}]}
2017-11-16 16:42:56 1510868576.873874: {"class":"WATCH","enable":true,"json":false,"nmea":true,"raw":0,"scaled":false,"timing":false,"split24":false,"pps":false}
2017-11-16 16:42:56 1510868576.890852: $GPZDA,214255.00,16,11,2017,00,00*60
2017-11-16 16:42:56 1510868576.891020: $GPGGA,214255,3946.9579,N,08404.9814,W,2,12,0.80,305.62,M,-33.324,M,,*71
2017-11-16 16:42:56 1510868576.891081: $GPRMC,214255,A,3946.9579,N,08404.9814,W,0.0000,0.000,161117,,*3D
2017-11-16 16:42:56 1510868576.891136: $GPGSA,A,3,1,10,11,12,14,18,24,25,31,32,22,138,1.6,0.8,1.3*38
2017-11-16 16:42:57 1510868577.434220: $GPZDA,214256.00,16,11,2017,00,00*63
2017-11-16 16:42:57 1510868577.441918: $GPGGA,214256,3946.9579,N,08404.9814,W,2,12,0.80,305.62,M,-33.324,M,,*72
2017-11-16 16:42:57 1510868577.442040: $GPRMC,214256,A,3946.9579,N,08404.9814,W,0.0000,0.000,161117,,*3E
2017-11-16 16:42:57 1510868577.442100: $GPGSA,A,3,1,10,11,12,14,18,24,25,31,32,22,138,1.6,0.8,1.3*38
2017-11-16 16:42:58 1510868578.433576: $GPZDA,214257.00,16,11,2017,00,00*62
2017-11-16 16:42:58 1510868578.433740: $GPGGA,214257,3946.9579,N,08404.9814,W,2,12,0.80,305.62,M,-33.324,M,,*73
2017-11-16 16:42:58 1510868578.433802: $GPRMC,214257,A,3946.9579,N,08404.9814,W,0.0000,0.000,161117,,*3F
2017-11-16 16:42:58 1510868578.433858: $GPGSA,A,3,1,10,11,12,14,18,24,25,31,32,22,138,1.6,0.8,1.3*38
2017-11-16 16:42:59 1510868579.776992: $GPGSV,3,1,12,01,13,319,37,10,71,129,49,11,11,303,39,12,25,073,48*72
2017-11-16 16:42:59 1510868579.777160: $GPGSV,3,2,12,14,54,289,42,18,39,135,46,24,15,045,49,25,29,115,43*7C
2017-11-16 16:42:59 1510868579.777220: $GPGSV,3,3,12,31,33,211,44,32,67,324,51,22,01,310,28,138,38,213,46*41
2017-11-16 16:42:59 1510868579.889005: $GPZDA,214258.00,16,11,2017,00,00*6D
2017-11-16 16:42:59 1510868579.889159: $GPGGA,214258,3946.9579,N,08404.9814,W,2,12,0.80,305.62,M,-33.324,M,,*7C
2017-11-16 16:42:59 1510868579.889218: $GPRMC,214258,A,3946.9579,N,08404.9814,W,0.0000,0.000,161117,,*30
2017-11-16 16:42:59 1510868579.889274: $GPGSA,A,3,1,10,11,12,14,18,24,25,31,32,22,138,1.6,0.8,1.3*38
2017-11-16 16:43:00 1510868580.441211: $GPZDA,214259.00,16,11,2017,00,00*6C
2017-11-16 16:43:00 1510868580.441373: $GPGGA,214259,3946.9579,N,08404.9814,W,2,12,0.80,305.62,M,-33.324,M,,*7D
2017-11-16 16:43:00 1510868580.441434: $GPRMC,214259,A,3946.9579,N,08404.9814,W,0.0000,0.000,161117,,*31
2017-11-16 16:43:00 1510868580.441490: $GPGSA,A,3,1,10,11,12,14,18,24,25,31,32,22,138,1.6,0.8,1.3*38
2017-11-16 16:43:01 1510868581.439003: $GPZDA,214300.00,16,11,2017,00,00*61
2017-11-16 16:43:01 1510868581.439170: $GPGGA,214300,3946.9583,N,08404.9814,W,2,12,0.80,306.26,M,-33.324,M,,*76
2017-11-16 16:43:01 1510868581.439231: $GPRMC,214300,A,3946.9583,N,08404.9814,W,0.0000,0.000,161117,,*39
2017-11-16 16:43:01 1510868581.439287: $GPGSA,A,3,1,10,11,12,14,18,24,25,31,32,22,138,1.6,0.8,1.3*38
2017-11-16 16:43:02 1510868582.769836: $GPGSV,3,1,12,01,13,319,36,10,71,129,49,11,11,303,38,12,25,073,48*72
2017-11-16 16:43:02 1510868582.770052: $GPGSV,3,2,12,14,54,289,42,18,39,135,46,24,15,045,49,25,29,115,43*7C
2017-11-16 16:43:02 1510868582.770113: $GPGSV,3,3,12,31,33,211,44,32,67,324,51,22,01,310,27,138,38,213,45*4D
2017-11-16 16:43:02 1510868582.883128: $GPZDA,214301.00,16,11,2017,00,00*60
2017-11-16 16:43:02 1510868582.883289: $GPGGA,214301,3946.9583,N,08404.9814,W,2,12,0.80,306.26,M,-33.324,M,,*77
2017-11-16 16:43:02 1510868582.883350: $GPRMC,214301,A,3946.9583,N,08404.9814,W,0.0000,0.000,161117,,*38
2017-11-16 16:43:02 1510868582.883407: $GPGSA,A,3,1,10,11,12,14,18,24,25,31,32,22,138,1.6,0.8,1.3*38
2017-11-16 16:43:03 1510868583.441023: $GPZDA,214302.00,16,11,2017,00,00*63
2017-11-16 16:43:03 1510868583.441275: $GPGGA,214302,3946.9583,N,08404.9814,W,2,12,0.80,306.26,M,-33.324,M,,*74
2017-11-16 16:43:03 1510868583.441341: $GPRMC,214302,A,3946.9583,N,08404.9814,W,0.0000,0.000,161117,,*3B
2017-11-16 16:43:03 1510868583.441418: $GPGSA,A,3,1,10,11,12,14,18,24,25,31,32,22,138,1.6,0.8,1.3*38
2017-11-16 16:43:04 1510868584.435209: $GPZDA,214303.00,16,11,2017,00,00*62
2017-11-16 16:43:04 1510868584.435378: $GPGGA,214303,3946.9583,N,08404.9814,W,2,12,0.80,306.26,M,-33.324,M,,*75
2017-11-16 16:43:04 1510868584.435441: $GPRMC,214303,A,3946.9583,N,08404.9814,W,0.0000,0.000,161117,,*3A
2017-11-16 16:43:04 1510868584.435497: $GPGSA,A,3,1,10,11,12,14,18,24,25,31,32,22,138,1.6,0.8,1.3*38
2017-11-16 16:43:05 1510868585.775746: $GPGSV,3,1,12,01,13,319,36,10,71,129,49,11,11,303,38,12,25,073,47*7D
2017-11-16 16:43:05 1510868585.775931: $GPGSV,3,2,12,14,54,289,42,18,39,135,46,24,15,045,49,25,29,115,43*7C
2017-11-16 16:43:05 1510868585.775992: $GPGSV,3,3,12,31,33,211,44,32,67,324,51,22,01,310,28,138,38,213,44*43
2017-11-16 16:43:05 1510868585.889275: $GPZDA,214304.00,16,11,2017,00,00*65
2017-11-16 16:43:05 1510868585.889420: $GPGGA,214304,3946.9579,N,08404.9814,W,2,12,0.80,305.62,M,-33.324,M,,*74
2017-11-16 16:43:05 1510868585.889479: $GPRMC,214304,A,3946.9579,N,08404.9814,W,0.0000,0.000,161117,,*38
2017-11-16 16:43:05 1510868585.889534: $GPGSA,A,3,1,10,11,12,14,18,24,25,31,32,22,138,1.6,0.8,1.3*38
2017-11-16 16:43:06 1510868586.514699: $GPZDA,214305.00,16,11,2017,00,00*64
2017-11-16 16:43:06 1510868586.514862: $GPGGA,214305,3946.9579,N,08404.9814,W,2,12,0.80,305.62,M,-33.324,M,,*75
2017-11-16 16:43:06 1510868586.514945: $GPRMC,214305,A,3946.9579,N,08404.9814,W,0.0000,0.000,161117,,*39
2017-11-16 16:43:06 1510868586.515002: $GPGSA,A,3,1,10,11,12,14,18,24,25,31,32,22,138,1.6,0.8,1.3*38
