2017-12-31 18:02:04 1514761324.028271: {"class":"VERSION","release":"3.16","rev":"3.16-4","proto_major":3,"proto_minor":11}
2017-12-31 18:02:04 1514761324.028659: {"class":"DEVICES","devices":[{"class":"DEVICE","path":"/dev/ttyUSB0","driver":"SiRF","activated":"2017-12-31T23:02:03.934Z","flags":1,"native":1,"bps":4800,"parity":"N","stopbits":1,"cycle":1.00}]}
2017-12-31 18:02:04 1514761324.028758: {"class":"WATCH","enable":true,"json":false,"nmea":true,"raw":0,"scaled":false,"timing":false,"split24":false,"pps":false}
2017-12-31 18:02:04 1514761324.343908: $GPZDA,230205.00,31,12,2017,00,00*65
2017-12-31 18:02:04 1514761324.344111: $GPGGA,230205,3946.9564,N,08404.9873,W,2,11,0.60,307.40,M,-33.324,M,,*70
2017-12-31 18:02:04 1514761324.344178: $GPRMC,230205,A,3946.9564,N,08404.9873,W,0.0000,0.000,311217,,*35
2017-12-31 18:02:04 1514761324.344239: $GPGSA,A,3,22,23,9,3,16,29,14,31,27,26,135,,1.7,0.6,1.3*06
2017-12-31 18:02:05 1514761325.373088: $GPZDA,230206.00,31,12,2017,00,00*66
2017-12-31 18:02:05 1514761325.373255: $GPGGA,230206,3946.9564,N,08404.9873,W,2,11,0.60,307.40,M,-33.324,M,,*73
2017-12-31 18:02:05 1514761325.373322: $GPRMC,230206,A,3946.9564,N,08404.9873,W,0.0000,0.000,311217,,*36
2017-12-31 18:02:05 1514761325.373383: $GPGSA,A,3,22,23,9,3,16,29,14,31,27,26,135,,1.7,0.6,1.3*06
2017-12-31 18:02:06 1514761326.673745: $GPGSV,3,1,11,22,26,217,42,23,50,307,45,09,16,312,40,03,35,238,44*7A
2017-12-31 18:02:06 1514761326.673893: $GPGSV,3,2,11,16,76,192,44,29,07,033,36,14,19,130,34,31,31,072,35*76
2017-12-31 18:02:06 1514761326.673978: $GPGSV,3,3,11,27,18,156,35,26,66,054,49,135,22,240,43*7F
2017-12-31 18:02:06 1514761326.787196: $GPZDA,230207.00,31,12,2017,00,00*67
2017-12-31 18:02:06 1514761326.787333: $GPGGA,230207,3946.9564,N,08404.9873,W,2,11,0.60,307.40,M,-33.324,M,,*72
2017-12-31 18:02:06 1514761326.787399: $GPRMC,230207,A,3946.9564,N,08404.9873,W,0.0000,0.000,311217,,*37
2017-12-31 18:02:06 1514761326.787459: $GPGSA,A,3,22,23,9,3,16,29,14,31,27,26,135,,1.7,0.6,1.3*06
2017-12-31 18:02:07 1514761327.345506: $GPZDA,230208.00,31,12,2017,00,00*68
2017-12-31 18:02:07 1514761327.345667: $GPGGA,230208,3946.9564,N,08404.9873,W,2,11,0.60,307.40,M,-33.324,M,,*7D
2017-12-31 18:02:07 1514761327.345733: $GPRMC,230208,A,3946.9564,N,08404.9873,W,0.0000,0.000,311217,,*38
2017-12-31 18:02:07 1514761327.345793: $GPGSA,A,3,22,23,9,3,16,29,14,31,27,26,135,,1.7,0.6,1.3*06
2017-12-31 18:02:08 1514761328.372632: $GPZDA,230209.00,31,12,2017,00,00*69
2017-12-31 18:02:08 1514761328.372813: $GPGGA,230209,3946.9564,N,08404.9873,W,2,11,0.60,307.40,M,-33.324,M,,*7C
2017-12-31 18:02:08 1514761328.372880: $GPRMC,230209,A,3946.9564,N,08404.9873,W,0.0000,0.000,311217,,*39
2017-12-31 18:02:08 1514761328.372941: $GPGSA,A,3,22,23,9,3,16,29,14,31,27,26,135,,1.7,0.6,1.3*06
2017-12-31 18:02:09 1514761329.708386: $GPGSV,3,1,11,22,26,217,42,23,50,307,45,09,16,312,40,03,35,238,45*7B
2017-12-31 18:02:09 1514761329.708567: $GPGSV,3,2,11,16,76,192,44,29,07,033,36,14,19,130,35,31,31,072,35*77
2017-12-31 18:02:09 1514761329.708634: $GPGSV,3,3,11,27,18,156,35,26,66,054,49,135,22,240,45*79
2017-12-31 18:02:09 1514761329.821719: $GPZDA,230210.00,31,12,2017,00,00*61
2017-12-31 18:02:09 1514761329.821860: $GPGGA,230210,3946.9564,N,08404.9873,W,2,11,0.60,307.40,M,-33.324,M,,*74
2017-12-31 18:02:09 1514761329.821925: $GPRMC,230210,A,3946.9564,N,08404.9873,W,0.0000,0.000,311217,,*31
2017-12-31 18:02:09 1514761329.821985: $GPGSA,A,3,22,23,9,3,16,29,14,31,27,26,135,,1.7,0.6,1.3*06
2017-12-31 18:02:10 1514761330.448419: $GPZDA,230211.00,31,12,2017,00,00*60
2017-12-31 18:02:10 1514761330.448583: $GPGGA,230211,3946.9561,N,08404.9874,W,2,11,0.60,308.17,M,-33.324,M,,*7A
2017-12-31 18:02:10 1514761330.448648: $GPRMC,230211,A,3946.9561,N,08404.9874,W,0.0000,0.000,311217,,*32
2017-12-31 18:02:10 1514761330.448709: $GPGSA,A,3,22,23,9,3,16,29,14,31,27,26,135,,1.7,0.6,1.3*06
2017-12-31 18:02:11 1514761331.373254: $GPZDA,230212.00,31,12,2017,00,00*63
2017-12-31 18:02:11 1514761331.373412: $GPGGA,230212,3946.9561,N,08404.9874,W,2,11,0.60,308.17,M,-33.324,M,,*79
2017-12-31 18:02:11 1514761331.373530: $GPRMC,230212,A,3946.9561,N,08404.9874,W,0.0000,0.000,311217,,*31
2017-12-31 18:02:11 1514761331.373593: $GPGSA,A,3,22,23,9,3,16,29,14,31,27,26,135,,1.7,0.6,1.3*06
2017-12-31 18:02:12 1514761332.674963: $GPGSV,3,1,11,22,26,217,41,23,50,307,44,09,16,312,39,03,35,238,45*77
2017-12-31 18:02:12 1514761332.675145: $GPGSV,3,2,11,16,76,192,44,29,07,033,36,14,19,130,33,31,31,072,36*72
2017-12-31 18:02:12 1514761332.675211: $GPGSV,3,3,11,27,18,156,35,26,66,054,49,135,22,240,43*7F
2017-12-31 18:02:12 1514761332.788331: $GPZDA,230213.00,31,12,2017,00,00*62
2017-12-31 18:02:12 1514761332.788459: $GPGGA,230213,3946.9561,N,08404.9874,W,2,11,0.60,308.17,M,-33.324,M,,*78
2017-12-31 18:02:12 1514761332.788524: $GPRMC,230213,A,3946.9561,N,08404.9874,W,0.0000,0.000,311217,,*30
2017-12-31 18:02:12 1514761332.788583: $GPGSA,A,3,22,23,9,3,16,29,14,31,27,26,135,,1.7,0.6,1.3*06
2017-12-31 18:02:13 1514761333.388874: $GPZDA,230214.00,31,12,2017,00,00*65
2017-12-31 18:02:13 1514761333.389061: $GPGGA,230214,3946.9561,N,08404.9874,W,2,11,0.60,308.17,M,-33.324,M,,*7F
2017-12-31 18:02:13 1514761333.389127: $GPRMC,230214,A,3946.9561,N,08404.9874,W,0.0000,0.000,311217,,*37
2017-12-31 18:02:13 1514761333.389188: $GPGSA,A,3,22,23,9,3,16,29,14,31,27,26,135,,1.7,0.6,1.3*06
2017-12-31 18:02:13 1514761333.389247: $GPGBS,230214,2.22,M,3.43,M,7.66,M*39
