2017-12-31 17:00:11 1514757611.476615: {"class":"VERSION","release":"3.16","rev":"3.16-4","proto_major":3,"proto_minor":11}
2017-12-31 17:00:11 1514757611.477195: {"class":"DEVICES","devices":[{"class":"DEVICE","path":"/dev/ttyUSB0","driver":"SiRF","activated":"2017-12-31T22:00:11.458Z","flags":1,"native":1,"bps":4800,"parity":"N","stopbits":1,"cycle":1.00}]}
2017-12-31 17:00:11 1514757611.477322: {"class":"WATCH","enable":true,"json":false,"nmea":true,"raw":0,"scaled":false,"timing":false,"split24":false,"pps":false}
2017-12-31 17:00:12 1514757612.671450: $GPGSV,3,1,11,22,45,243,41,23,26,307,43,25,03,037,21,03,46,274,41*7A
2017-12-31 17:00:12 1514757612.671625: $GPGSV,3,2,11,16,44,190,44,29,14,057,00,31,51,049,51,14,42,112,39*7F
2017-12-31 17:00:12 1514757612.671692: $GPGSV,3,3,11,32,20,121,43,26,73,148,46,135,22,240,43*76
2017-12-31 17:00:12 1514757612.784803: $GPZDA,220013.00,31,12,2017,00,00*61
2017-12-31 17:00:12 1514757612.784948: $GPGGA,220013,3946.9584,N,08404.9855,W,2,10,1.00,302.98,M,-33.324,M,,*78
2017-12-31 17:00:12 1514757612.785013: $GPRMC,220013,A,3946.9584,N,08404.9855,W,0.0000,0.000,311217,,*3B
2017-12-31 17:00:12 1514757612.785073: $GPGSA,A,3,22,23,25,3,16,31,14,32,26,135,,,1.7,1.0,1.3*30
2017-12-31 17:00:13 1514757613.344644: $GPZDA,220014.00,31,12,2017,00,00*66
2017-12-31 17:00:13 1514757613.344802: $GPGGA,220014,3946.9584,N,08404.9855,W,2,10,1.00,302.98,M,-33.324,M,,*7F
2017-12-31 17:00:13 1514757613.344868: $GPRMC,220014,A,3946.9584,N,08404.9855,W,0.0000,0.000,311217,,*3C
2017-12-31 17:00:13 1514757613.344929: $GPGSA,A,3,22,23,25,3,16,31,14,32,26,135,,,1.7,1.0,1.3*30
2017-12-31 17:00:14 1514757614.336560: $GPZDA,220015.00,31,12,2017,00,00*67
2017-12-31 17:00:14 1514757614.336743: $GPGGA,220015,3946.9584,N,08404.9855,W,2,10,1.00,302.98,M,-33.324,M,,*7E
2017-12-31 17:00:14 1514757614.336810: $GPRMC,220015,A,3946.9584,N,08404.9855,W,0.0000,0.000,311217,,*3D
2017-12-31 17:00:14 1514757614.336872: $GPGSA,A,3,22,23,25,3,16,31,14,32,26,135,,,1.7,1.0,1.3*30
2017-12-31 17:00:15 1514757615.679278: $GPGSV,3,1,11,22,45,243,41,23,26,307,42,25,03,037,21,03,46,274,41*7B
2017-12-31 17:00:15 1514757615.679470: $GPGSV,3,2,11,16,44,190,44,29,14,057,00,31,51,049,50,14,42,112,39*7E
2017-12-31 17:00:15 1514757615.679555: $GPGSV,3,3,11,32,20,121,44,26,73,148,46,135,22,240,42*70
2017-12-31 17:00:15 1514757615.792647: $GPZDA,220016.00,31,12,2017,00,00*64
2017-12-31 17:00:15 1514757615.792797: $GPGGA,220016,3946.9584,N,08404.9855,W,2,10,1.00,302.98,M,-33.324,M,,*7D
2017-12-31 17:00:15 1514757615.792879: $GPRMC,220016,A,3946.9584,N,08404.9855,W,0.0000,0.000,311217,,*3E
2017-12-31 17:00:15 1514757615.792941: $GPGSA,A,3,22,23,25,3,16,31,14,32,26,135,,,1.7,1.0,1.3*30
2017-12-31 17:00:16 1514757616.359770: $GPZDA,220017.00,31,12,2017,00,00*65
2017-12-31 17:00:16 1514757616.359956: $GPGGA,220017,3946.9584,N,08404.9855,W,2,10,1.00,302.98,M,-33.324,M,,*7C
2017-12-31 17:00:16 1514757616.360025: $GPRMC,220017,A,3946.9584,N,08404.9855,W,0.0000,0.000,311217,,*3F
2017-12-31 17:00:16 1514757616.360086: $GPGSA,A,3,22,23,25,3,16,31,14,32,26,135,,,1.7,1.0,1.3*30
2017-12-31 17:00:17 1514757617.344415: $GPZDA,220018.00,31,12,2017,00,00*6A
2017-12-31 17:00:17 1514757617.344577: $GPGGA,220018,3946.9584,N,08404.9855,W,2,10,1.00,302.98,M,-33.324,M,,*73
2017-12-31 17:00:17 1514757617.344644: $GPRMC,220018,A,3946.9584,N,08404.9855,W,0.0000,0.000,311217,,*30
2017-12-31 17:00:17 1514757617.344705: $GPGSA,A,3,22,23,25,3,16,31,14,32,26,135,,,1.7,1.0,1.3*30
2017-12-31 17:00:18 1514757618.696443: $GPGSV,3,1,11,22,45,243,40,23,26,307,42,25,03,037,21,03,46,274,40*7B
2017-12-31 17:00:18 1514757618.696620: $GPGSV,3,2,11,16,44,190,44,29,14,057,23,31,51,049,51,14,42,112,39*7E
2017-12-31 17:00:18 1514757618.696686: $GPGSV,3,3,11,32,20,121,43,26,73,148,46,135,22,240,42*77
2017-12-31 17:00:18 1514757618.810042: $GPZDA,220019.00,31,12,2017,00,00*6B
2017-12-31 17:00:18 1514757618.810169: $GPGGA,220019,3946.9584,N,08404.9855,W,2,11,1.00,302.98,M,-33.324,M,,*73
2017-12-31 17:00:18 1514757618.810235: $GPRMC,220019,A,3946.9584,N,08404.9855,W,0.0000,0.000,311217,,*31
2017-12-31 17:00:18 1514757618.810351: $GPGSA,A,3,22,23,25,3,16,29,31,14,32,26,135,,1.7,1.0,1.3*3B
2017-12-31 17:00:19 1514757619.338508: $GPZDA,220020.00,31,12,2017,00,00*61
2017-12-31 17:00:19 1514757619.338666: $GPGGA,220020,3946.9584,N,08404.9855,W,2,11,1.00,302.98,M,-33.324,M,,*79
2017-12-31 17:00:19 1514757619.338732: $GPRMC,220020,A,3946.9584,N,08404.9855,W,0.0000,0.000,311217,,*3B
2017-12-31 17:00:19 1514757619.338793: $GPGSA,A,3,22,23,25,3,16,29,31,14,32,26,135,,1.7,1.0,1.3*3B
2017-12-31 17:00:20 1514757620.335063: $GPZDA,220021.00,31,12,2017,00,00*60
2017-12-31 17:00:20 1514757620.335233: $GPGGA,220021,3946.9584,N,08404.9855,W,2,11,1.00,302.98,M,-33.324,M,,*78
2017-12-31 17:00:20 1514757620.335299: $GPRMC,220021,A,3946.9584,N,08404.9855,W,0.0000,0.000,311217,,*3A
2017-12-31 17:00:20 1514757620.335360: $GPGSA,A,3,22,23,25,3,16,29,31,14,32,26,135,,1.7,1.0,1.3*3B
