2017-12-31 18:10:53 1514761853.493028: {"class":"VERSION","release":"3.16","rev":"3.16-4","proto_major":3,"proto_minor":11}
2017-12-31 18:10:53 1514761853.493377: {"class":"DEVICES","devices":[{"class":"DEVICE","path":"/dev/ttyUSB0","driver":"SiRF","activated":"2017-12-31T23:10:53.493Z","flags":1,"native":1,"bps":4800,"parity":"N","stopbits":1,"cycle":1.00}]}
2017-12-31 18:10:53 1514761853.493478: {"class":"WATCH","enable":true,"json":false,"nmea":true,"raw":0,"scaled":false,"timing":false,"split24":false,"pps":false}
2017-12-31 18:10:54 1514761854.706051: $GPGSV,3,1,11,22,22,214,40,23,53,306,46,09,20,312,42,03,32,234,44*72
2017-12-31 18:10:54 1514761854.706247: $GPGSV,3,2,11,16,80,189,42,29,05,031,27,14,15,133,31,31,29,075,44*71
2017-12-31 18:10:54 1514761854.706314: $GPGSV,3,3,11,27,22,154,34,26,62,051,47,135,22,240,43*7A
2017-12-31 18:10:54 1514761854.819706: $GPZDA,231055.00,31,12,2017,00,00*63
2017-12-31 18:10:54 1514761854.819898: $GPGGA,231055,3946.9561,N,08404.9874,W,2,11,0.60,308.17,M,-33.324,M,,*79
2017-12-31 18:10:54 1514761854.819965: $GPRMC,231055,A,3946.9561,N,08404.9874,W,0.0000,0.000,311217,,*31
2017-12-31 18:10:54 1514761854.820043: $GPGSA,A,3,22,23,9,3,16,29,14,31,27,26,135,,1.7,0.6,1.3*06
2017-12-31 18:10:55 1514761855.445066: $GPZDA,231056.00,31,12,2017,00,00*60
2017-12-31 18:10:55 1514761855.445223: $GPGGA,231056,3946.9561,N,08404.9874,W,2,11,0.60,308.17,M,-33.324,M,,*7A
2017-12-31 18:10:55 1514761855.445289: $GPRMC,231056,A,3946.9561,N,08404.9874,W,0.0000,0.000,311217,,*32
2017-12-31 18:10:55 1514761855.445351: $GPGSA,A,3,22,23,9,3,16,29,14,31,27,26,135,,1.7,0.6,1.3*06
2017-12-31 18:10:56 1514761856.348246: $GPZDA,231057.00,31,12,2017,00,00*61
2017-12-31 18:10:56 1514761856.348425: $GPGGA,231057,3946.9561,N,08404.9874,W,2,11,0.60,308.17,M,-33.324,M,,*7B
2017-12-31 18:10:56 1514761856.348495: $GPRMC,231057,A,3946.9561,N,08404.9874,W,0.0000,0.000,311217,,*33
2017-12-31 18:10:56 1514761856.348559: $GPGSA,A,3,22,23,9,3,16,29,14,31,27,26,135,,1.7,0.6,1.3*06
2017-12-31 18:10:57 1514761857.685145: $GPGSV,3,1,11,22,22,214,40,23,53,306,46,09,20,312,42,03,32,234,44*72
2017-12-31 18:10:57 1514761857.888928: $GPGSV,3,2,11,16,80,189,43,29,05,031,35,14,15,133,32,31,29,075,45*71
2017-12-31 18:10:57 1514761857.889146: $GPGSV,3,3,11,27,22,154,34,26,62,051,47,135,22,240,43*7A
2017-12-31 18:10:57 1514761857.889252: $GPZDA,231058.00,31,12,2017,00,00*6E
2017-12-31 18:10:57 1514761857.889314: $GPGGA,231058,3946.9561,N,08404.9874,W,2,11,0.60,308.17,M,-33.324,M,,*74
2017-12-31 18:10:57 1514761857.889379: $GPRMC,231058,A,3946.9561,N,08404.9874,W,0.0000,0.000,311217,,*3C
2017-12-31 18:10:57 1514761857.889441: $GPGSA,A,3,22,23,9,3,16,29,14,31,27,26,135,,1.7,0.6,1.3*06
2017-12-31 18:10:58 1514761858.348349: $GPZDA,231059.00,31,12,2017,00,00*6F
2017-12-31 18:10:58 1514761858.348516: $GPGGA,231059,3946.9561,N,08404.9874,W,2,11,0.60,308.17,M,-33.324,M,,*75
2017-12-31 18:10:58 1514761858.348586: $GPRMC,231059,A,3946.9561,N,08404.9874,W,0.0000,0.000,311217,,*3D
2017-12-31 18:10:58 1514761858.348650: $GPGSA,A,3,22,23,9,3,16,29,14,31,27,26,135,,1.7,0.6,1.3*06
2017-12-31 18:10:59 1514761859.347848: $GPZDA,231100.00,31,12,2017,00,00*62
2017-12-31 18:10:59 1514761859.348028: $GPGGA,231100,3946.9561,N,08404.9874,W,2,11,0.60,308.17,M,-33.324,M,,*78
2017-12-31 18:10:59 1514761859.348100: $GPRMC,231100,A,3946.9561,N,08404.9874,W,0.0000,0.000,311217,,*30
2017-12-31 18:10:59 1514761859.348165: $GPGSA,A,3,22,23,9,3,16,29,14,31,27,26,135,,1.7,0.6,1.3*06
2017-12-31 18:11:00 1514761860.676766: $GPGSV,3,1,11,22,22,214,41,23,53,306,46,09,20,312,41,03,32,234,44*70
2017-12-31 18:11:00 1514761860.676960: $GPGSV,3,2,11,16,80,189,43,29,05,031,36,14,15,133,32,31,29,075,44*73
2017-12-31 18:11:00 1514761860.677031: $GPGSV,3,3,11,27,22,154,34,26,62,051,48,135,22,240,43*75
2017-12-31 18:11:00 1514761860.790379: $GPZDA,231101.00,31,12,2017,00,00*63
2017-12-31 18:11:00 1514761860.790528: $GPGGA,231101,3946.9561,N,08404.9874,W,2,11,0.60,308.17,M,-33.324,M,,*79
2017-12-31 18:11:00 1514761860.790596: $GPRMC,231101,A,3946.9561,N,08404.9874,W,0.0000,0.000,311217,,*31
2017-12-31 18:11:00 1514761860.790713: $GPGSA,A,3,22,23,9,3,16,29,14,31,27,26,135,,1.7,0.6,1.3*06
2017-12-31 18:11:01 1514761861.350042: $GPZDA,231102.00,31,12,2017,00,00*60
2017-12-31 18:11:01 1514761861.350194: $GPGGA,231102,3946.9561,N,08404.9874,W,2,11,0.60,308.17,M,-33.324,M,,*7A
2017-12-31 18:11:01 1514761861.350261: $GPRMC,231102,A,3946.9561,N,08404.9874,W,0.0000,0.000,311217,,*32
2017-12-31 18:11:01 1514761861.350323: $GPGSA,A,3,22,23,9,3,16,29,14,31,27,26,135,,1.7,0.6,1.3*06
2017-12-31 18:11:02 1514761862.349640: $GPZDA,231103.00,31,12,2017,00,00*61
2017-12-31 18:11:02 1514761862.349874: $GPGGA,231103,3946.9561,N,08404.9874,W,2,11,0.60,308.17,M,-33.324,M,,*7B
2017-12-31 18:11:02 1514761862.349968: $GPRMC,231103,A,3946.9561,N,08404.9874,W,0.0000,0.000,311217,,*33
2017-12-31 18:11:02 1514761862.350032: $GPGSA,A,3,22,23,9,3,16,29,14,31,27,26,135,,1.7,0.6,1.3*06
