2017-11-16 17:05:17 1510869917.681321: {"class":"VERSION","release":"3.17","rev":"3.17","proto_major":3,"proto_minor":12}
2017-11-16 17:05:17 1510869917.681767: {"class":"DEVICES","devices":[{"class":"DEVICE","path":"/dev/ttyUSB0","driver":"SiRF","subtype":"9\u0006GSD4e_4.1.2-P1_RPATCH.05-F-GPS-4R-1510281 11/03/2015 307","activated":"2017-11-16T22:05:17.536Z","flags":1,"native":1,"bps":4800,"parity":"N","stopbits":1,"cycle":1.00}]}
2017-11-16 17:05:17 1510869917.681883: {"class":"WATCH","enable":true,"json":false,"nmea":true,"raw":0,"scaled":false,"timing":false,"split24":false,"pps":false}
2017-11-16 17:05:18 1510869918.731994: $GPGSV,3,1,12,01,18,312,43,10,61,141,48,11,11,292,38,12,25,061,49*75
2017-11-16 17:05:18 1510869918.732182: $GPGSV,3,2,12,14,60,304,46,18,29,139,43,22,09,312,40,24,07,046,29*76
2017-11-16 17:05:18 1510869918.732245: $GPGSV,3,3,12,25,35,105,46,31,43,216,48,32,70,352,49,138,38,213,44*4F
2017-11-16 17:05:18 1510869918.845467: $GPZDA,220517.00,16,11,2017,00,00*66
2017-11-16 17:05:18 1510869918.845650: $GPGGA,220517,3946.9578,N,08404.9811,W,2,12,0.80,312.08,M,-33.324,M,,*79
2017-11-16 17:05:18 1510869918.845716: $GPRMC,220517,A,3946.9578,N,08404.9811,W,0.0000,0.000,161117,,*3F
2017-11-16 17:05:18 1510869918.845776: $GPGSA,A,3,1,10,11,12,14,18,22,24,25,31,32,138,1.6,0.8,1.3*38
2017-11-16 17:05:19 1510869919.396168: $GPZDA,220518.00,16,11,2017,00,00*69
2017-11-16 17:05:19 1510869919.396333: $GPGGA,220518,3946.9578,N,08404.9811,W,2,12,0.80,312.08,M,-33.324,M,,*76
2017-11-16 17:05:19 1510869919.396404: $GPRMC,220518,A,3946.9578,N,08404.9811,W,0.0000,0.000,161117,,*30
2017-11-16 17:05:19 1510869919.396460: $GPGSA,A,3,1,10,11,12,14,18,22,24,25,31,32,138,1.6,0.8,1.3*38
2017-11-16 17:05:20 1510869920.397136: $GPZDA,220519.00,16,11,2017,00,00*68
2017-11-16 17:05:20 1510869920.397298: $GPGGA,220519,3946.9578,N,08404.9811,W,2,12,0.80,312.08,M,-33.324,M,,*77
2017-11-16 17:05:20 1510869920.397360: $GPRMC,220519,A,3946.9578,N,08404.9811,W,0.0000,0.000,161117,,*31
2017-11-16 17:05:20 1510869920.397419: $GPGSA,A,3,1,10,11,12,14,18,22,24,25,31,32,138,1.6,0.8,1.3*38
2017-11-16 17:05:21 1510869921.732367: $GPGSV,3,1,12,01,18,312,42,10,61,141,49,11,11,292,38,12,25,061,49*75
2017-11-16 17:05:21 1510869921.732540: $GPGSV,3,2,12,14,60,304,46,18,29,139,43,22,09,312,40,24,07,046,29*76
2017-11-16 17:05:21 1510869921.732602: $GPGSV,3,3,12,25,35,105,46,31,43,216,48,32,70,352,49,138,38,213,44*4F
2017-11-16 17:05:21 1510869921.845693: $GPZDA,220520.00,16,11,2017,00,00*62
2017-11-16 17:05:21 1510869921.845869: $GPGGA,220520,3946.9578,N,08404.9811,W,2,12,0.80,312.08,M,-33.324,M,,*7D
2017-11-16 17:05:21 1510869921.845932: $GPRMC,220520,A,3946.9578,N,08404.9811,W,0.0000,0.000,161117,,*3B
2017-11-16 17:05:21 1510869921.845994: $GPGSA,A,3,1,10,11,12,14,18,22,24,25,31,32,138,1.6,0.8,1.3*38
2017-11-16 17:05:22 1510869922.396528: $GPZDA,220521.00,16,11,2017,00,00*63
2017-11-16 17:05:22 1510869922.396705: $GPGGA,220521,3946.9578,N,08404.9811,W,2,12,0.80,312.08,M,-33.324,M,,*7C
2017-11-16 17:05:22 1510869922.396768: $GPRMC,220521,A,3946.9578,N,08404.9811,W,0.0000,0.000,161117,,*3A
2017-11-16 17:05:22 1510869922.396824: $GPGSA,A,3,1,10,11,12,14,18,22,24,25,31,32,138,1.6,0.8,1.3*38
2017-11-16 17:05:23 1510869923.396237: $GPZDA,220522.00,16,11,2017,00,00*60
2017-11-16 17:05:23 1510869923.396417: $GPGGA,220522,3946.9578,N,08404.9811,W,2,12,0.80,312.08,M,-33.324,M,,*7F
2017-11-16 17:05:23 1510869923.396479: $GPRMC,220522,A,3946.9578,N,08404.9811,W,0.0000,0.000,161117,,*39
2017-11-16 17:05:23 1510869923.396552: $GPGSA,A,3,1,10,11,12,14,18,22,24,25,31,32,138,1.6,0.8,1.3*38
2017-11-16 17:05:24 1510869924.733228: $GPGSV,3,1,12,01,18,312,42,10,61,141,49,11,11,292,39,12,25,061,50*7C
2017-11-16 17:05:24 1510869924.733418: $GPGSV,3,2,12,14,60,304,46,18,29,139,43,22,09,312,39,24,07,046,29*78
2017-11-16 17:05:24 1510869924.733496: $GPGSV,3,3,12,25,35,105,45,31,43,216,48,32,70,352,50,138,38,213,43*43
2017-11-16 17:05:24 1510869924.847015: $GPZDA,220523.00,16,11,2017,00,00*61
2017-11-16 17:05:24 1510869924.847235: $GPGGA,220523,3946.9578,N,08404.9811,W,2,12,0.80,312.08,M,-33.324,M,,*7E
2017-11-16 17:05:24 1510869924.847380: $GPRMC,220523,A,3946.9578,N,08404.9811,W,0.0000,0.000,161117,,*38
2017-11-16 17:05:24 1510869924.847440: $GPGSA,A,3,1,10,11,12,14,18,22,24,25,31,32,138,1.6,0.8,1.3*38
2017-11-16 17:05:25 1510869925.396244: $GPZDA,220524.00,16,11,2017,00,00*66
2017-11-16 17:05:25 1510869925.396422: $GPGGA,220524,3946.9578,N,08404.9811,W,2,12,0.80,312.08,M,-33.324,M,,*79
2017-11-16 17:05:25 1510869925.396500: $GPRMC,220524,A,3946.9578,N,08404.9811,W,0.0000,0.000,161117,,*3F
2017-11-16 17:05:25 1510869925.396558: $GPGSA,A,3,1,10,11,12,14,18,22,24,25,31,32,138,1.6,0.8,1.3*38
2017-11-16 17:05:26 1510869926.397088: $GPZDA,220525.00,16,11,2017,00,00*67
2017-11-16 17:05:26 1510869926.397258: $GPGGA,220525,3946.9579,N,08404.9818,W,2,12,0.80,312.00,M,-33.324,M,,*78
2017-11-16 17:05:26 1510869926.397322: $GPRMC,220525,A,3946.9579,N,08404.9818,W,0.0000,0.000,161117,,*36
2017-11-16 17:05:26 1510869926.397422: $GPGSA,A,3,1,10,11,12,14,18,22,24,25,31,32,138,1.6,0.8,1.3*38
