2017-12-01 12:14:02 1512148442.808142: {"class":"VERSION","release":"3.16","rev":"3.16-4","proto_major":3,"proto_minor":11}
2017-12-01 12:14:02 1512148442.808520: {"class":"DEVICES","devices":[{"class":"DEVICE","path":"/dev/ttyUSB0","driver":"SiRF","subtype":"9\u0006GSD4e_4.1.2-P1_RPATCH.05-F-GPS-4R-1510281 11/03/2015 307","activated":"2017-12-01T17:14:02.704Z","flags":1,"native":1,"bps":4800,"parity":"N","stopbits":1,"cycle":1.00}]}
2017-12-01 12:14:02 1512148442.808633: {"class":"WATCH","enable":true,"json":false,"nmea":true,"raw":0,"scaled":false,"timing":false,"split24":false,"pps":false}
2017-12-01 12:14:03 1512148443.383336: $GPZDA,171404.00,01,12,2017,00,00*67
2017-12-01 12:14:03 1512148443.383500: $GPGGA,171404,3946.9575,N,08404.9836,W,2,11,0.80,294.07,M,-33.324,M,,*76
2017-12-01 12:14:03 1512148443.383567: $GPRMC,171404,A,3946.9575,N,08404.9836,W,0.4207,39.346,011217,,*0C
2017-12-01 12:14:03 1512148443.383629: $GPGSA,A,3,10,13,15,18,20,21,24,27,5,29,138,,2.0,0.8,1.5*34
2017-12-01 12:14:04 1512148444.719025: $GPGSV,3,1,12,10,22,282,39,13,30,045,45,15,62,052,44,18,53,298,46*73
2017-12-01 12:14:04 1512148444.719210: $GPGSV,3,2,12,20,53,070,46,21,78,274,43,24,32,139,45,27,16,315,35*7E
2017-12-01 12:14:04 1512148444.719277: $GPGSV,3,3,12,05,04,087,20,29,11,190,21,04,01,136,00,138,38,213,45*47
2017-12-01 12:14:04 1512148444.832440: $GPZDA,171405.00,01,12,2017,00,00*66
2017-12-01 12:14:04 1512148444.832621: $GPGGA,171405,3946.9575,N,08404.9836,W,2,11,0.80,294.07,M,-33.324,M,,*77
2017-12-01 12:14:04 1512148444.832689: $GPRMC,171405,A,3946.9575,N,08404.9836,W,0.3423,4.197,011217,,*3A
2017-12-01 12:14:04 1512148444.832750: $GPGSA,A,3,10,13,15,18,20,21,24,27,5,29,138,,2.0,0.8,1.5*34
2017-12-01 12:14:05 1512148445.382191: $GPZDA,171406.00,01,12,2017,00,00*65
2017-12-01 12:14:05 1512148445.382400: $GPGGA,171406,3946.9583,N,08404.9836,W,2,11,0.80,293.94,M,-33.324,M,,*70
2017-12-01 12:14:05 1512148445.382468: $GPRMC,171406,A,3946.9583,N,08404.9836,W,0.3423,4.197,011217,,*30
2017-12-01 12:14:05 1512148445.382530: $GPGSA,A,3,10,13,15,18,20,21,24,27,5,29,138,,2.0,0.8,1.5*34
2017-12-01 12:14:06 1512148446.381721: $GPZDA,171407.00,01,12,2017,00,00*64
2017-12-01 12:14:06 1512148446.381916: $GPGGA,171407,3946.9583,N,08404.9836,W,2,11,0.80,293.94,M,-33.324,M,,*71
2017-12-01 12:14:06 1512148446.381988: $GPRMC,171407,A,3946.9583,N,08404.9836,W,0.0000,0.000,011217,,*3C
2017-12-01 12:14:06 1512148446.382050: $GPGSA,A,3,10,13,15,18,20,21,24,27,5,29,138,,2.0,0.8,1.5*34
2017-12-01 12:14:07 1512148447.721058: $GPGSV,3,1,12,10,22,282,40,13,30,045,44,15,62,052,44,18,53,298,46*7C
2017-12-01 12:14:07 1512148447.721247: $GPGSV,3,2,12,20,53,070,46,21,78,274,43,24,32,139,45,27,16,315,34*7F
2017-12-01 12:14:07 1512148447.721314: $GPGSV,3,3,12,05,04,087,21,29,11,190,20,04,01,136,00,138,38,213,46*44
2017-12-01 12:14:07 1512148447.834375: $GPZDA,171408.00,01,12,2017,00,00*6B
2017-12-01 12:14:07 1512148447.834562: $GPGGA,171408,3946.9583,N,08404.9836,W,2,11,0.80,293.94,M,-33.324,M,,*7E
2017-12-01 12:14:07 1512148447.834634: $GPRMC,171408,A,3946.9583,N,08404.9836,W,0.0000,0.000,011217,,*33
2017-12-01 12:14:07 1512148447.834695: $GPGSA,A,3,10,13,15,18,20,21,24,27,5,29,138,,2.0,0.8,1.5*34
2017-12-01 12:14:08 1512148448.459720: $GPZDA,171409.00,01,12,2017,00,00*6A
2017-12-01 12:14:08 1512148448.459896: $GPGGA,171409,3946.9583,N,08404.9836,W,2,11,0.80,293.94,M,-33.324,M,,*7F
2017-12-01 12:14:08 1512148448.459982: $GPRMC,171409,A,3946.9583,N,08404.9836,W,0.0000,0.000,011217,,*32
2017-12-01 12:14:08 1512148448.460045: $GPGSA,A,3,10,13,15,18,20,21,24,27,5,29,138,,2.0,0.8,1.5*34
2017-12-01 12:14:09 1512148449.384367: $GPZDA,171410.00,01,12,2017,00,00*62
2017-12-01 12:14:09 1512148449.384557: $GPGGA,171410,3946.9583,N,08404.9836,W,2,11,0.80,293.94,M,-33.324,M,,*77
2017-12-01 12:14:09 1512148449.384626: $GPRMC,171410,A,3946.9583,N,08404.9836,W,0.0000,0.000,011217,,*3A
2017-12-01 12:14:09 1512148449.384687: $GPGSA,A,3,10,13,15,18,20,21,24,27,5,29,138,,2.0,0.8,1.5*34
2017-12-01 12:14:10 1512148450.721422: $GPGSV,3,1,12,10,22,282,40,13,30,045,44,15,62,052,44,18,53,298,45*7F
2017-12-01 12:14:10 1512148450.721670: $GPGSV,3,2,12,20,53,070,46,21,78,274,43,24,32,139,46,27,16,315,35*7D
2017-12-01 12:14:10 1512148450.721741: $GPGSV,3,3,12,05,04,087,22,29,11,190,20,04,01,136,00,138,38,213,47*46
2017-12-01 12:14:10 1512148450.834705: $GPZDA,171411.00,01,12,2017,00,00*63
2017-12-01 12:14:10 1512148450.834877: $GPGGA,171411,3946.9583,N,08404.9836,W,2,11,0.80,293.94,M,-33.324,M,,*76
2017-12-01 12:14:10 1512148450.834960: $GPRMC,171411,A,3946.9583,N,08404.9836,W,0.0000,0.000,011217,,*3B
2017-12-01 12:14:10 1512148450.835023: $GPGSA,A,3,10,13,15,18,20,21,24,27,5,29,138,,2.0,0.8,1.5*34
2017-12-01 12:14:11 1512148451.389343: $GPZDA,171412.00,01,12,2017,00,00*60
2017-12-01 12:14:11 1512148451.389515: $GPGGA,171412,3946.9583,N,08404.9836,W,2,11,0.80,293.94,M,-33.324,M,,*75
2017-12-01 12:14:11 1512148451.389582: $GPRMC,171412,A,3946.9583,N,08404.9836,W,0.0000,0.000,011217,,*38
2017-12-01 12:14:11 1512148451.389661: $GPGSA,A,3,10,13,15,18,20,21,24,27,5,29,138,,2.0,0.8,1.5*34
2017-12-01 12:14:12 1512148452.388975: $GPZDA,171413.00,01,12,2017,00,00*61
2017-12-01 12:14:12 1512148452.389164: $GPGGA,171413,3946.9583,N,08404.9836,W,2,11,0.80,293.94,M,-33.324,M,,*74
2017-12-01 12:14:12 1512148452.389232: $GPRMC,171413,A,3946.9583,N,08404.9836,W,0.0000,0.000,011217,,*39
2017-12-01 12:14:12 1512148452.389294: $GPGSA,A,3,10,13,15,18,20,21,24,27,5,29,138,,2.0,0.8,1.5*34
