2017-12-29 10:38:12 1514561892.156858: {"class":"VERSION","release":"3.16","rev":"3.16-4","proto_major":3,"proto_minor":11}
2017-12-29 10:38:12 1514561892.157208: {"class":"DEVICES","devices":[{"class":"DEVICE","path":"/dev/ttyUSB0","driver":"SiRF","subtype":"9\u0006GSD4e_4.1.2-P1_RPATCH.05-F-GPS-4R-1510281 11/03/2015 307","activated":"2017-12-29T15:38:11.479Z","flags":1,"native":1,"bps":4800,"parity":"N","stopbits":1,"cycle":1.00}]}
2017-12-29 10:38:12 1514561892.157323: {"class":"WATCH","enable":true,"json":false,"nmea":true,"raw":0,"scaled":false,"timing":false,"split24":false,"pps":false}
2017-12-29 10:38:12 1514561892.712037: $GPGSV,3,1,11,10,28,288,43,13,23,045,45,15,54,049,50,18,60,309,42*78
2017-12-29 10:38:12 1514561892.712219: $GPGSV,3,2,11,20,48,079,48,21,78,231,47,24,39,132,49,27,18,307,40*76
2017-12-29 10:38:12 1514561892.712286: $GPGSV,3,3,11,29,05,187,34,32,07,228,27,138,38,213,44*74
2017-12-29 10:38:12 1514561892.825374: $GPZDA,153813.00,29,12,2017,00,00*67
2017-12-29 10:38:12 1514561892.825509: $GPGGA,153813,3946.9589,N,08404.9811,W,2,11,0.80,301.92,M,-33.324,M,,*7B
2017-12-29 10:38:12 1514561892.825574: $GPRMC,153813,A,3946.9589,N,08404.9811,W,0.0000,0.000,291217,,*30
2017-12-29 10:38:12 1514561892.825636: $GPGSA,A,3,10,13,15,18,20,21,24,27,29,32,138,,1.7,0.8,1.3*02
2017-12-29 10:38:13 1514561893.376271: $GPZDA,153814.00,29,12,2017,00,00*60
2017-12-29 10:38:13 1514561893.376431: $GPGGA,153814,3946.9589,N,08404.9811,W,2,11,0.80,301.92,M,-33.324,M,,*7C
2017-12-29 10:38:13 1514561893.376497: $GPRMC,153814,A,3946.9589,N,08404.9811,W,0.0000,0.000,291217,,*37
2017-12-29 10:38:13 1514561893.376558: $GPGSA,A,3,10,13,15,18,20,21,24,27,29,32,138,,1.7,0.8,1.3*02
2017-12-29 10:38:14 1514561894.376641: $GPZDA,153815.00,29,12,2017,00,00*61
2017-12-29 10:38:14 1514561894.376799: $GPGGA,153815,3946.9589,N,08404.9811,W,2,11,0.80,301.92,M,-33.324,M,,*7D
2017-12-29 10:38:14 1514561894.376867: $GPRMC,153815,A,3946.9589,N,08404.9811,W,0.0000,0.000,291217,,*36
2017-12-29 10:38:14 1514561894.376928: $GPGSA,A,3,10,13,15,18,20,21,24,27,29,32,138,,1.7,0.8,1.3*02
2017-12-29 10:38:15 1514561895.678634: $GPGSV,3,1,11,10,28,288,43,13,23,045,45,15,54,049,50,18,60,309,43*79
2017-12-29 10:38:15 1514561895.678800: $GPGSV,3,2,11,20,48,079,48,21,78,231,47,24,39,132,49,27,18,307,41*77
2017-12-29 10:38:15 1514561895.678867: $GPGSV,3,3,11,29,05,187,34,32,07,228,17,138,38,213,44*77
2017-12-29 10:38:15 1514561895.792289: $GPZDA,153816.00,29,12,2017,00,00*62
2017-12-29 10:38:15 1514561895.792408: $GPGGA,153816,3946.9585,N,08404.9812,W,2,11,0.80,302.69,M,-33.324,M,,*76
2017-12-29 10:38:15 1514561895.792473: $GPRMC,153816,A,3946.9585,N,08404.9812,W,0.0000,0.000,291217,,*3A
2017-12-29 10:38:15 1514561895.792533: $GPGSA,A,3,10,13,15,18,20,21,24,27,29,32,138,,1.7,0.8,1.3*02
2017-12-29 10:38:16 1514561896.376899: $GPZDA,153817.00,29,12,2017,00,00*63
2017-12-29 10:38:16 1514561896.377069: $GPGGA,153817,3946.9590,N,08404.9812,W,2,11,0.80,303.33,M,-33.324,M,,*7D
2017-12-29 10:38:16 1514561896.377135: $GPRMC,153817,A,3946.9590,N,08404.9812,W,0.0000,0.000,291217,,*3F
2017-12-29 10:38:16 1514561896.377197: $GPGSA,A,3,10,13,15,18,20,21,24,27,29,32,138,,1.7,0.8,1.3*02
2017-12-29 10:38:17 1514561897.371543: $GPZDA,153818.00,29,12,2017,00,00*6C
2017-12-29 10:38:17 1514561897.371708: $GPGGA,153818,3946.9590,N,08404.9812,W,2,11,0.80,303.33,M,-33.324,M,,*72
2017-12-29 10:38:17 1514561897.371773: $GPRMC,153818,A,3946.9590,N,08404.9812,W,0.0000,0.000,291217,,*30
2017-12-29 10:38:17 1514561897.371835: $GPGSA,A,3,10,13,15,18,20,21,24,27,29,32,138,,1.7,0.8,1.3*02
2017-12-29 10:38:18 1514561898.713235: $GPGSV,3,1,11,10,28,288,43,13,23,045,45,15,54,049,51,18,60,309,42*79
2017-12-29 10:38:18 1514561898.713408: $GPGSV,3,2,11,20,48,079,48,21,78,231,47,24,39,132,49,27,18,307,42*74
2017-12-29 10:38:18 1514561898.713474: $GPGSV,3,3,11,29,05,187,34,32,07,228,18,138,38,213,45*79
2017-12-29 10:38:18 1514561898.826825: $GPZDA,153819.00,29,12,2017,00,00*6D
2017-12-29 10:38:18 1514561898.826951: $GPGGA,153819,3946.9590,N,08404.9812,W,2,11,0.80,303.33,M,-33.324,M,,*73
2017-12-29 10:38:18 1514561898.827074: $GPRMC,153819,A,3946.9590,N,08404.9812,W,0.0000,0.000,291217,,*31
2017-12-29 10:38:18 1514561898.827139: $GPGSA,A,3,10,13,15,18,20,21,24,27,29,32,138,,1.7,0.8,1.3*02
2017-12-29 10:38:19 1514561899.452273: $GPZDA,153820.00,29,12,2017,00,00*67
2017-12-29 10:38:19 1514561899.452435: $GPGGA,153820,3946.9590,N,08404.9812,W,2,11,0.80,303.33,M,-33.324,M,,*79
2017-12-29 10:38:19 1514561899.452501: $GPRMC,153820,A,3946.9590,N,08404.9812,W,0.0000,0.000,291217,,*3B
2017-12-29 10:38:19 1514561899.452562: $GPGSA,A,3,10,13,15,18,20,21,24,27,29,32,138,,1.7,0.8,1.3*02
2017-12-29 10:38:20 1514561900.376828: $GPZDA,153821.00,29,12,2017,00,00*66
2017-12-29 10:38:20 1514561900.377000: $GPGGA,153821,3946.9590,N,08404.9812,W,2,11,0.80,303.33,M,-33.324,M,,*78
2017-12-29 10:38:20 1514561900.377069: $GPRMC,153821,A,3946.9590,N,08404.9812,W,0.0000,0.000,291217,,*3A
2017-12-29 10:38:20 1514561900.377131: $GPGSA,A,3,10,13,15,18,20,21,24,27,29,32,138,,1.7,0.8,1.3*02
2017-12-29 10:38:21 1514561901.707318: $GPGSV,3,1,11,10,28,288,43,13,23,045,45,15,54,049,50,18,60,309,43*79
2017-12-29 10:38:21 1514561901.707483: $GPGSV,3,2,11,20,48,079,48,21,78,231,47,24,39,132,49,27,18,307,41*77
2017-12-29 10:38:21 1514561901.707548: $GPGSV,3,3,11,29,05,187,34,32,07,228,20,138,38,213,45*72
2017-12-29 10:38:21 1514561901.820903: $GPZDA,153822.00,29,12,2017,00,00*65
2017-12-29 10:38:21 1514561901.821027: $GPGGA,153822,3946.9590,N,08404.9812,W,2,11,0.80,303.33,M,-33.324,M,,*7B
2017-12-29 10:38:21 1514561901.821155: $GPRMC,153822,A,3946.9590,N,08404.9812,W,0.0000,0.000,291217,,*39
2017-12-29 10:38:21 1514561901.821217: $GPGSA,A,3,10,13,15,18,20,21,24,27,29,32,138,,1.7,0.8,1.3*02
