2017-12-29 11:38:19 1514565499.147993: {"class":"VERSION","release":"3.16","rev":"3.16-4","proto_major":3,"proto_minor":11}
2017-12-29 11:38:19 1514565499.148374: {"class":"DEVICES","devices":[{"class":"DEVICE","path":"/dev/ttyUSB0","driver":"SiRF","subtype":"9\u0006GSD4e_4.1.2-P1_RPATCH.05-F-GPS-4R-1510281 11/03/2015 307","activated":"2017-12-29T16:38:18.738Z","flags":1,"native":1,"bps":4800,"parity":"N","stopbits":1,"cycle":1.00}]}
2017-12-29 11:38:19 1514565499.148488: {"class":"WATCH","enable":true,"json":false,"nmea":true,"raw":0,"scaled":false,"timing":false,"split24":false,"pps":false}
2017-12-29 11:38:19 1514565499.423183: $GPRMC,163820,V,3946.9608,N,08404.9853,W,0.0000,0.000,291217,,*28
2017-12-29 11:38:19 1514565499.423373: $GPGSA,A,1,8,10,15,18,20,21,24,27,32,138,,,,,,*3F
2017-12-29 11:38:20 1514565500.761309: $GPGSV,3,1,11,08,07,315,38,10,49,309,46,15,29,055,49,18,76,007,45*70
2017-12-29 11:38:20 1514565500.761489: $GPGSV,3,2,11,20,27,103,48,21,53,184,45,24,53,093,51,27,17,280,36*7A
2017-12-29 11:38:20 1514565500.761554: $GPGSV,3,3,11,32,29,244,38,14,11,237,12,138,38,213,45*7A
2017-12-29 11:38:20 1514565500.874584: $GPZDA,163821.02,29,12,2017,00,00*67
2017-12-29 11:38:20 1514565500.874728: $GPGGA,163821,3946.9608,N,08404.9853,W,2,11,1.00,328.93,M,-33.324,M,,*76
2017-12-29 11:38:20 1514565500.874794: $GPRMC,163821,A,3946.9608,N,08404.9853,W,0.0000,0.000,291217,,*3E
2017-12-29 11:38:20 1514565500.874854: $GPGSA,A,3,8,10,15,18,20,21,24,27,32,14,138,,1.7,1.0,1.3*3F
2017-12-29 11:38:20 1514565500.874912: $GPGBS,163821,2.73,M,2.59,M,7.72,M*3B
2017-12-29 11:38:21 1514565501.423235: $GPZDA,163822.10,29,12,2017,00,00*67
2017-12-29 11:38:21 1514565501.423421: $GPGGA,163822,3946.9603,N,08404.9832,W,2,11,1.00,328.52,M,-33.324,M,,*74
2017-12-29 11:38:21 1514565501.423487: $GPRMC,163822,A,3946.9603,N,08404.9832,W,0.0000,0.000,291217,,*31
2017-12-29 11:38:21 1514565501.423548: $GPGSA,A,3,8,10,15,18,20,21,24,27,32,14,138,,1.7,1.0,1.3*3F
2017-12-29 11:38:21 1514565501.423606: $GPGBS,163822,2.73,M,2.59,M,7.72,M*38
2017-12-29 11:38:22 1514565502.424158: $GPZDA,163823.00,29,12,2017,00,00*67
2017-12-29 11:38:22 1514565502.424342: $GPGGA,163823,3946.9599,N,08404.9832,W,2,11,1.00,327.88,M,-33.324,M,,*7D
2017-12-29 11:38:22 1514565502.424410: $GPRMC,163823,A,3946.9599,N,08404.9832,W,0.1567,189.200,291217,,*37
2017-12-29 11:38:22 1514565502.424471: $GPGSA,A,3,8,10,15,18,20,21,24,27,32,14,138,,1.7,1.0,1.3*3F
2017-12-29 11:38:22 1514565502.424529: $GPGBS,163823,2.73,M,2.59,M,7.72,M*39
2017-12-29 11:38:23 1514565503.760844: $GPGSV,3,1,11,08,07,315,38,10,49,309,46,15,29,055,49,18,76,007,44*71
2017-12-29 11:38:23 1514565503.761071: $GPGSV,3,2,11,20,27,103,48,21,53,184,45,24,53,093,51,27,17,280,36*7A
2017-12-29 11:38:23 1514565503.761170: $GPGSV,3,3,11,32,29,244,38,14,11,237,00,138,38,213,46*7A
2017-12-29 11:38:23 1514565503.874479: $GPZDA,163824.00,29,12,2017,00,00*60
2017-12-29 11:38:23 1514565503.874610: $GPGGA,163824,3946.9598,N,08404.9825,W,2,10,1.00,327.96,M,-33.324,M,,*73
2017-12-29 11:38:23 1514565503.874678: $GPRMC,163824,A,3946.9598,N,08404.9825,W,0.1867,0.000,291217,,*38
2017-12-29 11:38:23 1514565503.874741: $GPGSA,A,3,8,10,15,18,20,21,24,27,32,138,,,1.7,1.0,1.3*3A
2017-12-29 11:38:24 1514565504.499638: $GPZDA,163825.00,29,12,2017,00,00*61
2017-12-29 11:38:24 1514565504.499836: $GPGGA,163825,3946.9598,N,08404.9825,W,2,10,1.00,327.96,M,-33.324,M,,*72
2017-12-29 11:38:24 1514565504.499907: $GPRMC,163825,A,3946.9598,N,08404.9825,W,0.0000,0.000,291217,,*31
2017-12-29 11:38:24 1514565504.499970: $GPGSA,A,3,8,10,15,18,20,21,24,27,32,138,,,1.7,1.0,1.3*3A
2017-12-29 11:38:25 1514565505.424492: $GPZDA,163826.00,29,12,2017,00,00*62
2017-12-29 11:38:25 1514565505.424664: $GPGGA,163826,3946.9598,N,08404.9825,W,2,10,1.00,327.96,M,-33.324,M,,*71
2017-12-29 11:38:25 1514565505.424733: $GPRMC,163826,A,3946.9598,N,08404.9825,W,0.0000,0.000,291217,,*32
2017-12-29 11:38:25 1514565505.424817: $GPGSA,A,3,8,10,15,18,20,21,24,27,32,138,,,1.7,1.0,1.3*3A
2017-12-29 11:38:26 1514565506.761337: $GPGSV,3,1,11,08,07,315,38,10,49,309,46,15,29,055,50,18,76,007,45*78
2017-12-29 11:38:26 1514565506.761525: $GPGSV,3,2,11,20,27,103,48,21,53,184,45,24,53,093,51,27,17,280,36*7A
2017-12-29 11:38:26 1514565506.761592: $GPGSV,3,3,11,32,29,244,38,14,11,237,00,138,38,213,46*7A
2017-12-29 11:38:26 1514565506.875189: $GPZDA,163827.00,29,12,2017,00,00*63
2017-12-29 11:38:26 1514565506.875392: $GPGGA,163827,3946.9598,N,08404.9825,W,2,10,1.00,327.96,M,-33.324,M,,*70
2017-12-29 11:38:26 1514565506.875459: $GPRMC,163827,A,3946.9598,N,08404.9825,W,0.0000,0.000,291217,,*33
2017-12-29 11:38:26 1514565506.875519: $GPGSA,A,3,8,10,15,18,20,21,24,27,32,138,,,1.7,1.0,1.3*3A
2017-12-29 11:38:27 1514565507.420866: $GPZDA,163828.00,29,12,2017,00,00*6C
2017-12-29 11:38:27 1514565507.421133: $GPGGA,163828,3946.9598,N,08404.9825,W,2,10,1.00,327.96,M,-33.324,M,,*7F
2017-12-29 11:38:27 1514565507.421260: $GPRMC,163828,A,3946.9598,N,08404.9825,W,0.0000,0.000,291217,,*3C
2017-12-29 11:38:27 1514565507.421365: $GPGSA,A,3,8,10,15,18,20,21,24,27,32,138,,,1.7,1.0,1.3*3A
2017-12-29 11:38:28 1514565508.420112: $GPZDA,163829.00,29,12,2017,00,00*6D
2017-12-29 11:38:28 1514565508.420328: $GPGGA,163829,3946.9598,N,08404.9825,W,2,10,1.00,327.96,M,-33.324,M,,*7E
2017-12-29 11:38:28 1514565508.420396: $GPRMC,163829,A,3946.9598,N,08404.9825,W,0.0000,0.000,291217,,*3D
2017-12-29 11:38:28 1514565508.420457: $GPGSA,A,3,8,10,15,18,20,21,24,27,32,138,,,1.7,1.0,1.3*3A
2017-12-29 11:38:29 1514565509.760386: $GPGSV,3,1,11,08,07,315,39,10,49,309,46,15,29,055,50,18,76,007,45*79
2017-12-29 11:38:29 1514565509.760577: $GPGSV,3,2,11,20,27,103,48,21,53,184,46,24,53,093,51,27,17,280,36*79
2017-12-29 11:38:29 1514565509.760642: $GPGSV,3,3,11,32,29,244,39,14,11,237,00,138,38,213,45*78
2017-12-29 11:38:29 1514565509.873776: $GPZDA,163830.00,29,12,2017,00,00*65
2017-12-29 11:38:29 1514565509.873959: $GPGGA,163830,3946.9598,N,08404.9825,W,2,10,1.00,327.96,M,-33.324,M,,*76
2017-12-29 11:38:29 1514565509.874024: $GPRMC,163830,A,3946.9598,N,08404.9825,W,0.0000,0.000,291217,,*35
2017-12-29 11:38:29 1514565509.874084: $GPGSA,A,3,8,10,15,18,20,21,24,27,32,138,,,1.7,1.0,1.3*3A
2017-12-29 11:38:30 1514565510.425910: $GPZDA,163831.00,29,12,2017,00,00*64
2017-12-29 11:38:30 1514565510.426095: $GPGGA,163831,3946.9598,N,08404.9825,W,2,10,1.00,327.96,M,-33.324,M,,*77
2017-12-29 11:38:30 1514565510.426160: $GPRMC,163831,A,3946.9598,N,08404.9825,W,0.0000,0.000,291217,,*34
2017-12-29 11:38:30 1514565510.426242: $GPGSA,A,3,8,10,15,18,20,21,24,27,32,138,,,1.7,1.0,1.3*3A
2017-12-29 11:38:31 1514565511.426765: $GPZDA,163832.00,29,12,2017,00,00*67
2017-12-29 11:38:31 1514565511.426933: $GPGGA,163832,3946.9598,N,08404.9825,W,2,10,1.00,327.96,M,-33.324,M,,*74
2017-12-29 11:38:31 1514565511.426998: $GPRMC,163832,A,3946.9598,N,08404.9825,W,0.0000,0.000,291217,,*37
2017-12-29 11:38:31 1514565511.427059: $GPGSA,A,3,8,10,15,18,20,21,24,27,32,138,,,1.7,1.0,1.3*3A
2017-12-29 11:38:32 1514565512.777521: $GPGSV,3,1,11,08,07,315,39,10,49,309,46,15,29,055,50,18,76,007,45*79
2017-12-29 11:38:32 1514565512.777672: $GPGSV,3,2,11,20,27,103,47,21,53,184,46,24,53,093,51,27,17,280,30*70
2017-12-29 11:38:32 1514565512.777737: $GPGSV,3,3,11,32,29,244,38,14,11,237,00,138,38,213,45*79
2017-12-29 11:38:32 1514565512.889666: $GPZDA,163833.00,29,12,2017,00,00*66
2017-12-29 11:38:32 1514565512.889841: $GPGGA,163833,3946.9598,N,08404.9825,W,2,10,1.00,327.96,M,-33.324,M,,*75
2017-12-29 11:38:32 1514565512.889907: $GPRMC,163833,A,3946.9598,N,08404.9825,W,0.0000,0.000,291217,,*36
2017-12-29 11:38:32 1514565512.889968: $GPGSA,A,3,8,10,15,18,20,21,24,27,32,138,,,1.7,1.0,1.3*3A
2017-12-29 11:38:33 1514565513.440532: $GPZDA,163834.00,29,12,2017,00,00*61
2017-12-29 11:38:33 1514565513.440702: $GPGGA,163834,3946.9598,N,08404.9825,W,2,10,1.00,327.96,M,-33.324,M,,*72
2017-12-29 11:38:33 1514565513.440767: $GPRMC,163834,A,3946.9598,N,08404.9825,W,0.0000,0.000,291217,,*31
2017-12-29 11:38:33 1514565513.440827: $GPGSA,A,3,8,10,15,18,20,21,24,27,32,138,,,1.7,1.0,1.3*3A
