2017-12-29 10:45:13 1514562313.185512: {"class":"VERSION","release":"3.16","rev":"3.16-4","proto_major":3,"proto_minor":11}
2017-12-29 10:45:13 1514562313.185861: {"class":"DEVICES","devices":[{"class":"DEVICE","path":"/dev/ttyUSB0","driver":"SiRF","subtype":"9\u0006GSD4e_4.1.2-P1_RPATCH.05-F-GPS-4R-1510281 11/03/2015 307","activated":"2017-12-29T15:45:13.172Z","flags":1,"native":1,"bps":4800,"parity":"N","stopbits":1,"cycle":1.00}]}
2017-12-29 10:45:13 1514562313.185976: {"class":"WATCH","enable":true,"json":false,"nmea":true,"raw":0,"scaled":false,"timing":false,"split24":false,"pps":false}
2017-12-29 10:45:13 1514562313.350076: $GPZDA,154514.00,29,12,2017,00,00*6A
2017-12-29 10:45:13 1514562313.350246: $GPGGA,154514,3946.9608,N,08404.9823,W,2,10,0.80,300.75,M,-33.324,M,,*74
2017-12-29 10:45:13 1514562313.350311: $GPRMC,154514,A,3946.9608,N,08404.9823,W,0.0000,0.000,291217,,*36
2017-12-29 10:45:13 1514562313.350372: $GPGSA,A,3,10,13,15,18,20,21,24,27,32,138,,,1.7,0.8,1.3*09
2017-12-29 10:45:14 1514562314.687677: $GPGSV,3,1,11,10,31,291,42,13,20,045,42,15,51,049,49,18,62,313,44*7F
2017-12-29 10:45:14 1514562314.687855: $GPGSV,3,2,11,20,45,082,50,21,77,217,47,24,41,129,50,27,19,304,38*7D
2017-12-29 10:45:14 1514562314.687920: $GPGSV,3,3,11,32,10,229,21,29,02,187,01,138,38,213,45*75
2017-12-29 10:45:14 1514562314.801449: $GPZDA,154515.00,29,12,2017,00,00*6B
2017-12-29 10:45:14 1514562314.801570: $GPGGA,154515,3946.9604,N,08404.9823,W,2,10,0.80,300.11,M,-33.324,M,,*7B
2017-12-29 10:45:14 1514562314.801635: $GPRMC,154515,A,3946.9604,N,08404.9823,W,0.0000,0.000,291217,,*3B
2017-12-29 10:45:14 1514562314.801694: $GPGSA,A,3,10,13,15,18,20,21,24,27,32,138,,,1.7,0.8,1.3*09
2017-12-29 10:45:15 1514562315.348437: $GPZDA,154516.00,29,12,2017,00,00*68
2017-12-29 10:45:15 1514562315.348595: $GPGGA,154516,3946.9604,N,08404.9823,W,2,10,0.80,300.11,M,-33.324,M,,*78
2017-12-29 10:45:15 1514562315.348662: $GPRMC,154516,A,3946.9604,N,08404.9823,W,0.0000,0.000,291217,,*38
2017-12-29 10:45:15 1514562315.348722: $GPGSA,A,3,10,13,15,18,20,21,24,27,32,138,,,1.7,0.8,1.3*09
2017-12-29 10:45:16 1514562316.343051: $GPZDA,154517.00,29,12,2017,00,00*69
2017-12-29 10:45:16 1514562316.343234: $GPGGA,154517,3946.9604,N,08404.9823,W,2,10,0.80,300.11,M,-33.324,M,,*79
2017-12-29 10:45:16 1514562316.343302: $GPRMC,154517,A,3946.9604,N,08404.9823,W,0.0000,0.000,291217,,*39
2017-12-29 10:45:16 1514562316.343363: $GPGSA,A,3,10,13,15,18,20,21,24,27,32,138,,,1.7,0.8,1.3*09
2017-12-29 10:45:17 1514562317.684801: $GPGSV,3,1,11,10,31,291,42,13,20,045,42,15,51,049,49,18,62,313,44*7F
2017-12-29 10:45:17 1514562317.685002: $GPGSV,3,2,11,20,45,082,50,21,77,217,48,24,41,129,50,27,19,304,30*7A
2017-12-29 10:45:17 1514562317.685071: $GPGSV,3,3,11,32,10,229,25,29,02,187,01,138,38,213,45*71
2017-12-29 10:45:17 1514562317.798386: $GPZDA,154518.00,29,12,2017,00,00*66
2017-12-29 10:45:17 1514562317.798509: $GPGGA,154518,3946.9604,N,08404.9823,W,2,10,0.80,300.11,M,-33.324,M,,*76
2017-12-29 10:45:17 1514562317.798574: $GPRMC,154518,A,3946.9604,N,08404.9823,W,0.0000,0.000,291217,,*36
2017-12-29 10:45:17 1514562317.798634: $GPGSA,A,3,10,13,15,18,20,21,24,27,32,138,,,1.7,0.8,1.3*09
2017-12-29 10:45:18 1514562318.346791: $GPZDA,154519.00,29,12,2017,00,00*67
2017-12-29 10:45:18 1514562318.346959: $GPGGA,154519,3946.9604,N,08404.9823,W,2,10,0.80,300.11,M,-33.324,M,,*77
2017-12-29 10:45:18 1514562318.347025: $GPRMC,154519,A,3946.9604,N,08404.9823,W,0.0000,0.000,291217,,*37
2017-12-29 10:45:18 1514562318.347085: $GPGSA,A,3,10,13,15,18,20,21,24,27,32,138,,,1.7,0.8,1.3*09
2017-12-29 10:45:19 1514562319.350995: $GPZDA,154520.00,29,12,2017,00,00*6D
2017-12-29 10:45:19 1514562319.351204: $GPGGA,154520,3946.9604,N,08404.9823,W,2,10,0.80,300.11,M,-33.324,M,,*7D
2017-12-29 10:45:19 1514562319.351271: $GPRMC,154520,A,3946.9604,N,08404.9823,W,0.0000,0.000,291217,,*3D
2017-12-29 10:45:19 1514562319.351331: $GPGSA,A,3,10,13,15,18,20,21,24,27,32,138,,,1.7,0.8,1.3*09
2017-12-29 10:45:20 1514562320.686431: $GPGSV,3,1,11,10,31,291,42,13,20,045,42,15,51,049,50,18,62,313,44*77
2017-12-29 10:45:20 1514562320.686651: $GPGSV,3,2,11,20,45,082,50,21,77,217,47,24,41,129,50,27,19,304,31*74
2017-12-29 10:45:20 1514562320.686720: $GPGSV,3,3,11,32,10,229,25,29,02,187,01,138,38,213,47*73
2017-12-29 10:45:20 1514562320.800066: $GPZDA,154521.00,29,12,2017,00,00*6C
2017-12-29 10:45:20 1514562320.800204: $GPGGA,154521,3946.9604,N,08404.9823,W,2,10,0.80,300.11,M,-33.324,M,,*7C
2017-12-29 10:45:20 1514562320.800268: $GPRMC,154521,A,3946.9604,N,08404.9823,W,0.0000,0.000,291217,,*3C
2017-12-29 10:45:20 1514562320.800328: $GPGSA,A,3,10,13,15,18,20,21,24,27,32,138,,,1.7,0.8,1.3*09
2017-12-29 10:45:21 1514562321.357170: $GPZDA,154522.00,29,12,2017,00,00*6F
2017-12-29 10:45:21 1514562321.357348: $GPGGA,154522,3946.9604,N,08404.9823,W,2,10,0.80,300.11,M,-33.324,M,,*7F
2017-12-29 10:45:21 1514562321.357415: $GPRMC,154522,A,3946.9604,N,08404.9823,W,0.0000,0.000,291217,,*3F
2017-12-29 10:45:21 1514562321.357477: $GPGSA,A,3,10,13,15,18,20,21,24,27,32,138,,,1.7,0.8,1.3*09
2017-12-29 10:45:22 1514562322.348036: $GPZDA,154523.00,29,12,2017,00,00*6E
2017-12-29 10:45:22 1514562322.348205: $GPGGA,154523,3946.9604,N,08404.9823,W,2,10,0.80,300.11,M,-33.324,M,,*7E
2017-12-29 10:45:22 1514562322.348272: $GPRMC,154523,A,3946.9604,N,08404.9823,W,0.0000,0.000,291217,,*3E
2017-12-29 10:45:22 1514562322.348334: $GPGSA,A,3,10,13,15,18,20,21,24,27,32,138,,,1.7,0.8,1.3*09
2017-12-29 10:45:23 1514562323.684761: $GPGSV,3,1,11,10,31,291,42,13,20,045,42,15,51,049,50,18,62,313,44*77
2017-12-29 10:45:23 1514562323.684919: $GPGSV,3,2,11,20,45,082,50,21,77,217,48,24,41,129,50,27,19,304,16*7E
2017-12-29 10:45:23 1514562323.684986: $GPGSV,3,3,11,32,10,229,28,29,02,187,01,138,38,213,45*7C
2017-12-29 10:45:23 1514562323.798375: $GPZDA,154524.00,29,12,2017,00,00*69
2017-12-29 10:45:23 1514562323.798492: $GPGGA,154524,3946.9604,N,08404.9823,W,2,10,0.80,300.11,M,-33.324,M,,*79
2017-12-29 10:45:23 1514562323.798555: $GPRMC,154524,A,3946.9604,N,08404.9823,W,0.0000,0.000,291217,,*39
2017-12-29 10:45:23 1514562323.798616: $GPGSA,A,3,10,13,15,18,20,21,24,27,32,138,,,1.7,0.8,1.3*09
2017-12-29 10:45:24 1514562324.423766: $GPZDA,154525.00,29,12,2017,00,00*68
2017-12-29 10:45:24 1514562324.423941: $GPGGA,154525,3946.9604,N,08404.9823,W,2,10,0.80,300.11,M,-33.324,M,,*78
2017-12-29 10:45:24 1514562324.424007: $GPRMC,154525,A,3946.9604,N,08404.9823,W,0.0000,0.000,291217,,*38
2017-12-29 10:45:24 1514562324.424069: $GPGSA,A,3,10,13,15,18,20,21,24,27,32,138,,,1.7,0.8,1.3*09
2017-12-29 10:45:25 1514562325.349628: $GPZDA,154526.00,29,12,2017,00,00*6B
2017-12-29 10:45:25 1514562325.349802: $GPGGA,154526,3946.9604,N,08404.9823,W,2,10,0.80,300.11,M,-33.324,M,,*7B
2017-12-29 10:45:25 1514562325.349872: $GPRMC,154526,A,3946.9604,N,08404.9823,W,0.0000,0.000,291217,,*3B
2017-12-29 10:45:25 1514562325.349933: $GPGSA,A,3,10,13,15,18,20,21,24,27,32,138,,,1.7,0.8,1.3*09
2017-12-29 10:45:26 1514562326.683870: $GPGSV,3,1,11,10,31,291,42,13,20,045,42,15,51,049,50,18,62,313,44*77
2017-12-29 10:45:26 1514562326.684052: $GPGSV,3,2,11,20,45,082,50,21,77,217,48,24,41,129,50,27,19,304,19*71
2017-12-29 10:45:26 1514562326.684117: $GPGSV,3,3,11,32,10,229,29,29,02,187,01,138,38,213,45*7D
2017-12-29 10:45:26 1514562326.797462: $GPZDA,154527.00,29,12,2017,00,00*6A
2017-12-29 10:45:26 1514562326.797585: $GPGGA,154527,3946.9604,N,08404.9823,W,2,10,0.80,300.11,M,-33.324,M,,*7A
2017-12-29 10:45:26 1514562326.797650: $GPRMC,154527,A,3946.9604,N,08404.9823,W,0.0000,0.000,291217,,*3A
2017-12-29 10:45:26 1514562326.797714: $GPGSA,A,3,10,13,15,18,20,21,24,27,32,138,,,1.7,0.8,1.3*09
2017-12-29 10:45:27 1514562327.348375: $GPZDA,154528.00,29,12,2017,00,00*65
2017-12-29 10:45:27 1514562327.348544: $GPGGA,154528,3946.9604,N,08404.9823,W,2,10,0.80,300.11,M,-33.324,M,,*75
2017-12-29 10:45:27 1514562327.348610: $GPRMC,154528,A,3946.9604,N,08404.9823,W,0.0000,0.000,291217,,*35
2017-12-29 10:45:27 1514562327.348671: $GPGSA,A,3,10,13,15,18,20,21,24,27,32,138,,,1.7,0.8,1.3*09
