2017-12-31 18:04:48 1514761488.506458: {"class":"VERSION","release":"3.16","rev":"3.16-4","proto_major":3,"proto_minor":11}
2017-12-31 18:04:48 1514761488.506842: {"class":"DEVICES","devices":[{"class":"DEVICE","path":"/dev/ttyUSB0","driver":"SiRF","activated":"2017-12-31T23:04:48.232Z","flags":1,"native":1,"bps":4800,"parity":"N","stopbits":1,"cycle":1.00}]}
2017-12-31 18:04:48 1514761488.506941: {"class":"WATCH","enable":true,"json":false,"nmea":true,"raw":0,"scaled":false,"timing":false,"split24":false,"pps":false}
2017-12-31 18:04:48 1514761488.681985: $GPGSV,3,1,11,22,25,216,41,23,51,307,45,09,18,312,41,03,34,237,44*7B
2017-12-31 18:04:48 1514761488.682157: $GPGSV,3,2,11,16,77,192,44,29,07,033,31,14,18,132,32,31,30,072,40*76
2017-12-31 18:04:48 1514761488.682223: $GPGSV,3,3,11,27,19,156,33,26,65,052,49,135,22,240,43*7D
2017-12-31 18:04:48 1514761488.795316: $GPZDA,230449.00,31,12,2017,00,00*6B
2017-12-31 18:04:48 1514761488.795467: $GPGGA,230449,3946.9561,N,08404.9874,W,2,11,0.60,308.17,M,-33.324,M,,*71
2017-12-31 18:04:48 1514761488.795532: $GPRMC,230449,A,3946.9561,N,08404.9874,W,0.0000,0.000,311217,,*39
2017-12-31 18:04:48 1514761488.795591: $GPGSA,A,3,22,23,9,3,16,29,14,31,27,26,135,,1.7,0.6,1.3*06
2017-12-31 18:04:49 1514761489.347797: $GPZDA,230450.00,31,12,2017,00,00*63
2017-12-31 18:04:49 1514761489.347927: $GPGGA,230450,3946.9561,N,08404.9874,W,2,11,0.60,308.17,M,-33.324,M,,*79
2017-12-31 18:04:49 1514761489.347991: $GPRMC,230450,A,3946.9561,N,08404.9874,W,0.0000,0.000,311217,,*31
2017-12-31 18:04:49 1514761489.348051: $GPGSA,A,3,22,23,9,3,16,29,14,31,27,26,135,,1.7,0.6,1.3*06
2017-12-31 18:04:50 1514761490.346633: $GPZDA,230451.00,31,12,2017,00,00*62
2017-12-31 18:04:50 1514761490.346815: $GPGGA,230451,3946.9561,N,08404.9874,W,2,11,0.60,308.17,M,-33.324,M,,*78
2017-12-31 18:04:50 1514761490.346882: $GPRMC,230451,A,3946.9561,N,08404.9874,W,0.0000,0.000,311217,,*30
2017-12-31 18:04:50 1514761490.346943: $GPGSA,A,3,22,23,9,3,16,29,14,31,27,26,135,,1.7,0.6,1.3*06
2017-12-31 18:04:51 1514761491.709903: $GPGSV,3,1,11,22,25,216,40,23,51,307,45,09,18,312,41,03,34,237,45*7B
2017-12-31 18:04:51 1514761491.710078: $GPGSV,3,2,11,16,77,192,44,29,07,033,28,14,18,132,32,31,30,072,40*7E
2017-12-31 18:04:51 1514761491.710144: $GPGSV,3,3,11,27,19,156,34,26,65,052,49,135,22,240,43*7A
2017-12-31 18:04:51 1514761491.823509: $GPZDA,230452.00,31,12,2017,00,00*61
2017-12-31 18:04:51 1514761491.823664: $GPGGA,230452,3946.9561,N,08404.9874,W,2,11,0.60,308.17,M,-33.324,M,,*7B
2017-12-31 18:04:51 1514761491.823728: $GPRMC,230452,A,3946.9561,N,08404.9874,W,0.0000,0.000,311217,,*33
2017-12-31 18:04:51 1514761491.823787: $GPGSA,A,3,22,23,9,3,16,29,14,31,27,26,135,,1.7,0.6,1.3*06
2017-12-31 18:04:52 1514761492.374351: $GPZDA,230453.00,31,12,2017,00,00*60
2017-12-31 18:04:52 1514761492.374492: $GPGGA,230453,3946.9561,N,08404.9874,W,2,11,0.60,308.17,M,-33.324,M,,*7A
2017-12-31 18:04:52 1514761492.374555: $GPRMC,230453,A,3946.9561,N,08404.9874,W,0.0000,0.000,311217,,*32
2017-12-31 18:04:52 1514761492.374615: $GPGSA,A,3,22,23,9,3,16,29,14,31,27,26,135,,1.7,0.6,1.3*06
2017-12-31 18:04:53 1514761493.346230: $GPZDA,230454.00,31,12,2017,00,00*67
2017-12-31 18:04:53 1514761493.346422: $GPGGA,230454,3946.9561,N,08404.9874,W,2,11,0.60,308.17,M,-33.324,M,,*7D
2017-12-31 18:04:53 1514761493.346494: $GPRMC,230454,A,3946.9561,N,08404.9874,W,0.0000,0.000,311217,,*35
2017-12-31 18:04:53 1514761493.346558: $GPGSA,A,3,22,23,9,3,16,29,14,31,27,26,135,,1.7,0.6,1.3*06
2017-12-31 18:04:54 1514761494.681942: $GPGSV,3,1,11,22,25,216,40,23,51,307,45,09,18,312,41,03,34,237,44*7A
2017-12-31 18:04:54 1514761494.682125: $GPGSV,3,2,11,16,77,192,44,29,07,033,28,14,18,132,32,31,30,072,40*7E
2017-12-31 18:04:54 1514761494.682208: $GPGSV,3,3,11,27,19,156,34,26,65,052,49,135,22,240,43*7A
2017-12-31 18:04:54 1514761494.795601: $GPZDA,230455.00,31,12,2017,00,00*66
2017-12-31 18:04:54 1514761494.795771: $GPGGA,230455,3946.9561,N,08404.9874,W,2,11,0.60,308.17,M,-33.324,M,,*7C
2017-12-31 18:04:54 1514761494.795840: $GPRMC,230455,A,3946.9561,N,08404.9874,W,0.0000,0.000,311217,,*34
2017-12-31 18:04:54 1514761494.795952: $GPGSA,A,3,22,23,9,3,16,29,14,31,27,26,135,,1.7,0.6,1.3*06
2017-12-31 18:04:55 1514761495.420769: $GPZDA,230456.00,31,12,2017,00,00*65
2017-12-31 18:04:55 1514761495.420934: $GPGGA,230456,3946.9561,N,08404.9874,W,2,11,0.60,308.17,M,-33.324,M,,*7F
2017-12-31 18:04:55 1514761495.421000: $GPRMC,230456,A,3946.9561,N,08404.9874,W,0.0000,0.000,311217,,*37
2017-12-31 18:04:55 1514761495.421060: $GPGSA,A,3,22,23,9,3,16,29,14,31,27,26,135,,1.7,0.6,1.3*06
2017-12-31 18:04:56 1514761496.374389: $GPZDA,230457.00,31,12,2017,00,00*64
2017-12-31 18:04:56 1514761496.374547: $GPGGA,230457,3946.9561,N,08404.9874,W,2,11,0.60,308.17,M,-33.324,M,,*7E
2017-12-31 18:04:56 1514761496.374613: $GPRMC,230457,A,3946.9561,N,08404.9874,W,0.0000,0.000,311217,,*36
2017-12-31 18:04:56 1514761496.374674: $GPGSA,A,3,22,23,9,3,16,29,14,31,27,26,135,,1.7,0.6,1.3*06
2017-12-31 18:04:57 1514761497.709825: $GPGSV,3,1,11,22,25,216,40,23,51,307,45,09,18,312,40,03,34,237,44*7B
2017-12-31 18:04:57 1514761497.709981: $GPGSV,3,2,11,16,77,192,44,29,07,033,28,14,18,132,32,31,30,072,40*7E
2017-12-31 18:04:57 1514761497.710045: $GPGSV,3,3,11,27,19,156,33,26,65,052,49,135,22,240,44*7A
2017-12-31 18:04:57 1514761497.823514: $GPZDA,230458.00,31,12,2017,00,00*6B
2017-12-31 18:04:57 1514761497.823670: $GPGGA,230458,3946.9561,N,08404.9874,W,2,11,0.60,308.17,M,-33.324,M,,*71
2017-12-31 18:04:57 1514761497.823736: $GPRMC,230458,A,3946.9561,N,08404.9874,W,0.0000,0.000,311217,,*39
2017-12-31 18:04:57 1514761497.823796: $GPGSA,A,3,22,23,9,3,16,29,14,31,27,26,135,,1.7,0.6,1.3*06
2017-12-31 18:04:58 1514761498.374335: $GPZDA,230459.00,31,12,2017,00,00*6A
2017-12-31 18:04:58 1514761498.374497: $GPGGA,230459,3946.9561,N,08404.9874,W,2,11,0.60,308.17,M,-33.324,M,,*70
2017-12-31 18:04:58 1514761498.374563: $GPRMC,230459,A,3946.9561,N,08404.9874,W,0.0000,0.000,311217,,*38
2017-12-31 18:04:58 1514761498.374623: $GPGSA,A,3,22,23,9,3,16,29,14,31,27,26,135,,1.7,0.6,1.3*06
