2017-12-01 11:48:34 1512146914.586726: {"class":"VERSION","release":"3.16","rev":"3.16-4","proto_major":3,"proto_minor":11}
2017-12-01 11:48:34 1512146914.587155: {"class":"DEVICES","devices":[{"class":"DEVICE","path":"/dev/ttyUSB0","driver":"SiRF","subtype":"9\u0006GSD4e_4.1.2-P1_RPATCH.05-F-GPS-4R-1510281 11/03/2015 307","activated":"2017-12-01T16:48:34.532Z","flags":1,"native":1,"bps":4800,"parity":"N","stopbits":1,"cycle":1.00}]}
2017-12-01 11:48:34 1512146914.587279: {"class":"WATCH","enable":true,"json":false,"nmea":true,"raw":0,"scaled":false,"timing":false,"split24":false,"pps":false}
2017-12-01 11:48:35 1512146915.727527: $GPGSV,3,1,12,10,14,273,38,13,41,049,45,15,74,066,46,18,45,288,46*77
2017-12-01 11:48:35 1512146915.727701: $GPGSV,3,2,12,20,61,054,42,21,69,303,46,24,22,147,43,27,10,322,29*78
2017-12-01 11:48:35 1512146915.727768: $GPGSV,3,3,12,29,22,193,44,05,12,078,30,04,11,132,00,138,38,213,46*47
2017-12-01 11:48:35 1512146915.841126: $GPZDA,164836.00,01,12,2017,00,00*6E
2017-12-01 11:48:35 1512146915.841296: $GPGGA,164836,3946.9570,N,08404.9827,W,2,11,0.80,301.37,M,-33.324,M,,*74
2017-12-01 11:48:35 1512146915.841435: $GPRMC,164836,A,3946.9570,N,08404.9827,W,0.0000,0.000,011217,,*3A
2017-12-01 11:48:35 1512146915.841498: $GPGSA,A,3,10,13,15,18,20,21,24,27,29,5,138,,2.0,0.8,1.5*34
2017-12-01 11:48:36 1512146916.585232: $GPZDA,164837.00,01,12,2017,00,00*6F
2017-12-01 11:48:36 1512146916.585430: $GPGGA,164837,3946.9570,N,08404.9827,W,2,11,0.80,301.37,M,-33.324,M,,*75
2017-12-01 11:48:36 1512146916.585498: $GPRMC,164837,A,3946.9570,N,08404.9827,W,0.0000,0.000,011217,,*3B
2017-12-01 11:48:36 1512146916.585560: $GPGSA,A,3,10,13,15,18,20,21,24,27,29,5,138,,2.0,0.8,1.5*34
2017-12-01 11:48:36 1512146916.585620: $GPGBS,164837,2.67,M,3.86,M,8.82,M*3D
2017-12-01 11:48:37 1512146917.391062: $GPZDA,164838.00,01,12,2017,00,00*60
2017-12-01 11:48:37 1512146917.391239: $GPGGA,164838,3946.9570,N,08404.9827,W,2,11,0.80,301.37,M,-33.324,M,,*7A
2017-12-01 11:48:37 1512146917.391305: $GPRMC,164838,A,3946.9570,N,08404.9827,W,0.0000,0.000,011217,,*34
2017-12-01 11:48:37 1512146917.391430: $GPGSA,A,3,10,13,15,18,20,21,24,27,29,5,138,,2.0,0.8,1.5*34
2017-12-01 11:48:37 1512146917.391492: $GPGBS,164838,2.67,M,3.86,M,8.82,M*32
2017-12-01 11:48:38 1512146918.727049: $GPGSV,3,1,12,10,14,273,37,13,41,049,45,15,74,066,46,18,45,288,46*78
2017-12-01 11:48:38 1512146918.727219: $GPGSV,3,2,12,20,61,054,42,21,69,303,46,24,22,147,43,27,10,322,33*73
2017-12-01 11:48:38 1512146918.727284: $GPGSV,3,3,12,29,22,193,44,05,12,078,30,04,11,132,00,138,38,213,46*47
2017-12-01 11:48:38 1512146918.840283: $GPZDA,164839.00,01,12,2017,00,00*61
2017-12-01 11:48:38 1512146918.840454: $GPGGA,164839,3946.9570,N,08404.9827,W,2,11,0.80,301.37,M,-33.324,M,,*7B
2017-12-01 11:48:38 1512146918.840522: $GPRMC,164839,A,3946.9570,N,08404.9827,W,0.0000,0.000,011217,,*35
2017-12-01 11:48:38 1512146918.840583: $GPGSA,A,3,10,13,15,18,20,21,24,27,29,5,138,,2.0,0.8,1.5*34
2017-12-01 11:48:39 1512146919.391043: $GPZDA,164840.00,01,12,2017,00,00*6F
2017-12-01 11:48:39 1512146919.394037: $GPGGA,164840,3946.9570,N,08404.9827,W,2,11,0.80,301.37,M,-33.324,M,,*75
2017-12-01 11:48:39 1512146919.394172: $GPRMC,164840,A,3946.9570,N,08404.9827,W,0.0000,0.000,011217,,*3B
2017-12-01 11:48:39 1512146919.394237: $GPGSA,A,3,10,13,15,18,20,21,24,27,29,5,138,,2.0,0.8,1.5*34
2017-12-01 11:48:40 1512146920.391035: $GPZDA,164841.00,01,12,2017,00,00*6E
2017-12-01 11:48:40 1512146920.391205: $GPGGA,164841,3946.9570,N,08404.9827,W,2,11,0.80,301.37,M,-33.324,M,,*74
2017-12-01 11:48:40 1512146920.391271: $GPRMC,164841,A,3946.9570,N,08404.9827,W,0.0000,0.000,011217,,*3A
2017-12-01 11:48:40 1512146920.391331: $GPGSA,A,3,10,13,15,18,20,21,24,27,29,5,138,,2.0,0.8,1.5*34
2017-12-01 11:48:41 1512146921.732184: $GPGSV,3,1,12,10,14,273,37,13,41,049,45,15,74,066,45,18,45,288,46*7B
2017-12-01 11:48:41 1512146921.732366: $GPGSV,3,2,12,20,61,054,42,21,69,303,46,24,22,147,43,27,10,322,35*75
2017-12-01 11:48:41 1512146921.732432: $GPGSV,3,3,12,29,22,193,44,05,12,078,30,04,11,132,07,138,38,213,46*40
2017-12-01 11:48:41 1512146921.845574: $GPZDA,164842.00,01,12,2017,00,00*6D
2017-12-01 11:48:41 1512146921.845745: $GPGGA,164842,3946.9570,N,08404.9827,W,2,11,0.80,301.37,M,-33.324,M,,*77
2017-12-01 11:48:41 1512146921.845811: $GPRMC,164842,A,3946.9570,N,08404.9827,W,0.0000,0.000,011217,,*39
2017-12-01 11:48:41 1512146921.845872: $GPGSA,A,3,10,13,15,18,20,21,24,27,29,5,138,,2.0,0.8,1.5*34
2017-12-01 11:48:42 1512146922.396465: $GPZDA,164843.00,01,12,2017,00,00*6C
2017-12-01 11:48:42 1512146922.396633: $GPGGA,164843,3946.9570,N,08404.9827,W,2,11,0.80,301.37,M,-33.324,M,,*76
2017-12-01 11:48:42 1512146922.396699: $GPRMC,164843,A,3946.9570,N,08404.9827,W,0.0000,0.000,011217,,*38
2017-12-01 11:48:42 1512146922.396760: $GPGSA,A,3,10,13,15,18,20,21,24,27,29,5,138,,2.0,0.8,1.5*34
2017-12-01 11:48:43 1512146923.391042: $GPZDA,164844.00,01,12,2017,00,00*6B
2017-12-01 11:48:43 1512146923.391217: $GPGGA,164844,3946.9570,N,08404.9827,W,2,11,0.80,301.37,M,-33.324,M,,*71
2017-12-01 11:48:43 1512146923.391283: $GPRMC,164844,A,3946.9570,N,08404.9827,W,0.0000,0.000,011217,,*3F
2017-12-01 11:48:43 1512146923.391396: $GPGSA,A,3,10,13,15,18,20,21,24,27,29,5,138,,2.0,0.8,1.5*34
