2017-12-01 11:45:42 1512146742.107220: {"class":"VERSION","release":"3.16","rev":"3.16-4","proto_major":3,"proto_minor":11}
2017-12-01 11:45:42 1512146742.107633: {"class":"DEVICES","devices":[{"class":"DEVICE","path":"/dev/ttyUSB0","driver":"SiRF","subtype":"9\u0006GSD4e_4.1.2-P1_RPATCH.05-F-GPS-4R-1510281 11/03/2015 307","activated":"2017-12-01T16:45:41.973Z","flags":1,"native":1,"bps":4800,"parity":"N","stopbits":1,"cycle":1.00}]}
2017-12-01 11:45:42 1512146742.107768: {"class":"WATCH","enable":true,"json":false,"nmea":true,"raw":0,"scaled":false,"timing":false,"split24":false,"pps":false}
2017-12-01 11:45:42 1512146742.377849: $GPZDA,164543.00,01,12,2017,00,00*61
2017-12-01 11:45:42 1512146742.378050: $GPGGA,164543,3946.9559,N,08404.9841,W,2,11,1.00,300.70,M,-33.324,M,,*7B
2017-12-01 11:45:42 1512146742.378140: $GPRMC,164543,A,3946.9559,N,08404.9841,W,0.0000,0.000,011217,,*3E
2017-12-01 11:45:42 1512146742.378203: $GPGSA,A,3,10,13,15,18,20,21,24,27,29,5,138,,2.0,1.0,1.5*3D
2017-12-01 11:45:43 1512146743.386200: $GPZDA,164544.00,01,12,2017,00,00*66
2017-12-01 11:45:43 1512146743.386413: $GPGGA,164544,3946.9559,N,08404.9841,W,2,11,1.00,300.70,M,-33.324,M,,*7C
2017-12-01 11:45:43 1512146743.386480: $GPRMC,164544,A,3946.9559,N,08404.9841,W,0.0000,0.000,011217,,*39
2017-12-01 11:45:43 1512146743.386542: $GPGSA,A,3,10,13,15,18,20,21,24,27,29,5,138,,2.0,1.0,1.5*3D
2017-12-01 11:45:44 1512146744.713324: $GPGSV,3,1,12,10,13,273,38,13,42,049,47,15,75,070,45,18,44,286,45*78
2017-12-01 11:45:44 1512146744.713650: $GPGSV,3,2,12,20,62,052,42,21,68,304,46,24,21,148,43,27,09,324,41*77
2017-12-01 11:45:44 1512146744.713750: $GPGSV,3,3,12,29,23,195,44,05,13,078,15,04,12,130,00,138,38,213,46*47
2017-12-01 11:45:44 1512146744.826553: $GPZDA,164545.00,01,12,2017,00,00*67
2017-12-01 11:45:44 1512146744.826722: $GPGGA,164545,3946.9559,N,08404.9841,W,2,11,1.00,300.70,M,-33.324,M,,*7D
2017-12-01 11:45:44 1512146744.826789: $GPRMC,164545,A,3946.9559,N,08404.9841,W,0.0000,0.000,011217,,*38
2017-12-01 11:45:44 1512146744.826851: $GPGSA,A,3,10,13,15,18,20,21,24,27,29,5,138,,2.0,1.0,1.5*3D
2017-12-01 11:45:45 1512146745.452293: $GPZDA,164546.00,01,12,2017,00,00*64
2017-12-01 11:45:45 1512146745.452463: $GPGGA,164546,3946.9559,N,08404.9841,W,2,11,1.00,300.70,M,-33.324,M,,*7E
2017-12-01 11:45:45 1512146745.452530: $GPRMC,164546,A,3946.9559,N,08404.9841,W,0.0000,0.000,011217,,*3B
2017-12-01 11:45:45 1512146745.452591: $GPGSA,A,3,10,13,15,18,20,21,24,27,29,5,138,,2.0,1.0,1.5*3D
2017-12-01 11:45:46 1512146746.381945: $GPZDA,164547.00,01,12,2017,00,00*65
2017-12-01 11:45:46 1512146746.382312: $GPGGA,164547,3946.9559,N,08404.9841,W,2,11,1.00,300.70,M,-33.324,M,,*7F
2017-12-01 11:45:46 1512146746.382437: $GPRMC,164547,A,3946.9559,N,08404.9841,W,0.0000,0.000,011217,,*3A
2017-12-01 11:45:46 1512146746.382565: $GPGSA,A,3,10,13,15,18,20,21,24,27,29,5,138,,2.0,1.0,1.5*3D
2017-12-01 11:45:47 1512146747.718527: $GPGSV,3,1,12,10,13,273,38,13,42,049,47,15,75,070,44,18,44,286,45*79
2017-12-01 11:45:47 1512146747.718722: $GPGSV,3,2,12,20,62,052,42,21,68,304,46,24,21,148,44,27,09,324,41*70
2017-12-01 11:45:47 1512146747.718790: $GPGSV,3,3,12,29,23,195,44,05,13,078,15,04,12,130,00,138,38,213,46*47
2017-12-01 11:45:47 1512146747.832241: $GPZDA,164548.00,01,12,2017,00,00*6A
2017-12-01 11:45:47 1512146747.832431: $GPGGA,164548,3946.9559,N,08404.9841,W,2,11,1.00,300.70,M,-33.324,M,,*70
2017-12-01 11:45:47 1512146747.832498: $GPRMC,164548,A,3946.9559,N,08404.9841,W,0.0000,0.000,011217,,*35
2017-12-01 11:45:47 1512146747.832559: $GPGSA,A,3,10,13,15,18,20,21,24,27,29,5,138,,2.0,1.0,1.5*3D
2017-12-01 11:45:48 1512146748.380553: $GPZDA,164549.00,01,12,2017,00,00*6B
2017-12-01 11:45:48 1512146748.380720: $GPGGA,164549,3946.9559,N,08404.9841,W,2,11,1.00,300.70,M,-33.324,M,,*71
2017-12-01 11:45:48 1512146748.380801: $GPRMC,164549,A,3946.9559,N,08404.9841,W,0.0000,0.000,011217,,*34
2017-12-01 11:45:48 1512146748.380864: $GPGSA,A,3,10,13,15,18,20,21,24,27,29,5,138,,2.0,1.0,1.5*3D
2017-12-01 11:45:49 1512146749.383637: $GPZDA,164550.00,01,12,2017,00,00*63
2017-12-01 11:45:49 1512146749.383870: $GPGGA,164550,3946.9559,N,08404.9841,W,2,11,1.00,300.70,M,-33.324,M,,*79
2017-12-01 11:45:49 1512146749.383963: $GPRMC,164550,A,3946.9559,N,08404.9841,W,0.0000,0.000,011217,,*3C
2017-12-01 11:45:49 1512146749.384026: $GPGSA,A,3,10,13,15,18,20,21,24,27,29,5,138,,2.0,1.0,1.5*3D
2017-12-01 11:45:50 1512146750.722643: $GPGSV,3,1,12,10,13,273,39,13,42,049,47,15,75,070,45,18,44,286,45*79
2017-12-01 11:45:50 1512146750.722795: $GPGSV,3,2,12,20,62,052,42,21,68,304,46,24,21,148,43,27,09,324,40*76
2017-12-01 11:45:50 1512146750.722860: $GPGSV,3,3,12,29,23,195,44,05,13,078,14,04,12,130,00,138,38,213,47*47
2017-12-01 11:45:50 1512146750.836435: $GPZDA,164551.00,01,12,2017,00,00*62
2017-12-01 11:45:50 1512146750.836613: $GPGGA,164551,3946.9559,N,08404.9841,W,2,11,1.00,300.70,M,-33.324,M,,*78
2017-12-01 11:45:50 1512146750.836682: $GPRMC,164551,A,3946.9559,N,08404.9841,W,0.0000,0.000,011217,,*3D
2017-12-01 11:45:50 1512146750.836743: $GPGSA,A,3,10,13,15,18,20,21,24,27,29,5,138,,2.0,1.0,1.5*3D
2017-12-01 11:45:51 1512146751.386893: $GPZDA,164552.00,01,12,2017,00,00*61
2017-12-01 11:45:51 1512146751.387111: $GPGGA,164552,3946.9559,N,08404.9841,W,2,11,1.00,300.70,M,-33.324,M,,*7B
2017-12-01 11:45:51 1512146751.387197: $GPRMC,164552,A,3946.9559,N,08404.9841,W,0.0000,0.000,011217,,*3E
2017-12-01 11:45:51 1512146751.387261: $GPGSA,A,3,10,13,15,18,20,21,24,27,29,5,138,,2.0,1.0,1.5*3D
