2017-11-16 17:42:59 1510872179.983069: {"class":"VERSION","release":"3.17","rev":"3.17","proto_major":3,"proto_minor":12}
2017-11-16 17:42:59 1510872179.983568: {"class":"DEVICES","devices":[{"class":"DEVICE","path":"/dev/ttyUSB0","driver":"SiRF","subtype":"9\u0006GSD4e_4.1.2-P1_RPATCH.05-F-GPS-4R-1510281 11/03/2015 307","activated":"2017-11-16T22:42:59.535Z","flags":1,"native":1,"bps":4800,"parity":"N","stopbits":1,"cycle":1.00}]}
2017-11-16 17:42:59 1510872179.983706: {"class":"WATCH","enable":true,"json":false,"nmea":true,"raw":0,"scaled":false,"timing":false,"split24":false,"pps":false}
2017-11-16 17:43:00 1510872180.730242: $GPGSV,3,1,12,01,22,295,33,10,43,150,44,22,23,312,42,12,20,045,48*7E
2017-11-16 17:43:00 1510872180.730411: $GPGSV,3,2,12,14,68,339,46,18,14,145,36,26,06,183,28,11,07,277,41*70
2017-11-16 17:43:00 1510872180.730471: $GPGSV,3,3,12,25,40,084,48,31,60,229,48,32,67,039,50,138,38,213,44*46
2017-11-16 17:43:00 1510872180.843498: $GPZDA,224259.00,16,11,2017,00,00*6F
2017-11-16 17:43:00 1510872180.843683: $GPGGA,224259,3946.9579,N,08404.9841,W,2,12,0.80,302.49,M,-33.324,M,,*70
2017-11-16 17:43:00 1510872180.843762: $GPRMC,224259,A,3946.9579,N,08404.9841,W,0.0000,0.000,161117,,*32
2017-11-16 17:43:00 1510872180.843818: $GPGSA,A,3,1,10,22,12,14,18,26,11,25,31,32,138,1.6,0.8,1.3*3A
2017-11-16 17:43:01 1510872181.469013: $GPZDA,224300.00,16,11,2017,00,00*62
2017-11-16 17:43:01 1510872181.469304: $GPGGA,224300,3946.9579,N,08404.9841,W,2,12,0.80,302.49,M,-33.324,M,,*7D
2017-11-16 17:43:01 1510872181.469424: $GPRMC,224300,A,3946.9579,N,08404.9841,W,0.0000,0.000,161117,,*3F
2017-11-16 17:43:01 1510872181.469523: $GPGSA,A,3,1,10,22,12,14,18,26,11,25,31,32,138,1.6,0.8,1.3*3A
2017-11-16 17:43:02 1510872182.387279: $GPZDA,224301.00,16,11,2017,00,00*63
2017-11-16 17:43:02 1510872182.387469: $GPGGA,224301,3946.9579,N,08404.9841,W,2,12,0.80,302.49,M,-33.324,M,,*7C
2017-11-16 17:43:02 1510872182.387532: $GPRMC,224301,A,3946.9579,N,08404.9841,W,0.0000,0.000,161117,,*3E
2017-11-16 17:43:02 1510872182.387645: $GPGSA,A,3,1,10,22,12,14,18,26,11,25,31,32,138,1.6,0.8,1.3*3A
2017-11-16 17:43:03 1510872183.751760: $GPGSV,3,1,12,01,22,295,34,10,43,150,44,22,23,312,42,12,20,045,48*79
2017-11-16 17:43:03 1510872183.751903: $GPGSV,3,2,12,14,68,339,46,18,14,145,36,26,06,183,28,11,07,277,42*73
2017-11-16 17:43:03 1510872183.751963: $GPGSV,3,3,12,25,40,084,49,31,60,229,48,32,67,039,50,138,38,213,44*47
2017-11-16 17:43:03 1510872183.865070: $GPZDA,224302.00,16,11,2017,00,00*60
2017-11-16 17:43:03 1510872183.865308: $GPGGA,224302,3946.9579,N,08404.9841,W,2,12,0.80,302.49,M,-33.324,M,,*7F
2017-11-16 17:43:03 1510872183.865372: $GPRMC,224302,A,3946.9579,N,08404.9841,W,0.0000,0.000,161117,,*3D
2017-11-16 17:43:03 1510872183.865429: $GPGSA,A,3,1,10,22,12,14,18,26,11,25,31,32,138,1.6,0.8,1.3*3A
2017-11-16 17:43:04 1510872184.415973: $GPZDA,224303.00,16,11,2017,00,00*61
2017-11-16 17:43:04 1510872184.416146: $GPGGA,224303,3946.9579,N,08404.9841,W,2,12,0.80,302.49,M,-33.324,M,,*7E
2017-11-16 17:43:04 1510872184.416207: $GPRMC,224303,A,3946.9579,N,08404.9841,W,0.0000,0.000,161117,,*3C
2017-11-16 17:43:04 1510872184.416263: $GPGSA,A,3,1,10,22,12,14,18,26,11,25,31,32,138,1.6,0.8,1.3*3A
2017-11-16 17:43:05 1510872185.394563: $GPZDA,224304.00,16,11,2017,00,00*66
2017-11-16 17:43:05 1510872185.394740: $GPGGA,224304,3946.9579,N,08404.9841,W,2,12,1.00,302.49,M,-33.324,M,,*70
2017-11-16 17:43:05 1510872185.394842: $GPRMC,224304,A,3946.9579,N,08404.9841,W,0.0000,0.000,161117,,*3B
2017-11-16 17:43:05 1510872185.394901: $GPGSA,A,3,1,10,22,12,14,18,26,11,25,31,32,138,1.6,1.0,1.3*33
2017-11-16 17:43:06 1510872186.753347: $GPGSV,3,1,12,01,22,295,34,10,43,150,24,11,07,277,23,12,20,045,48*7C
2017-11-16 17:43:06 1510872186.753546: $GPGSV,3,2,12,14,68,339,40,18,14,145,36,26,06,183,28,22,23,312,23*76
2017-11-16 17:43:06 1510872186.753611: $GPGSV,3,3,12,25,40,084,24,31,60,229,19,32,67,039,25,138,38,213,43*4D
2017-11-16 17:43:06 1510872186.866650: $GPZDA,224305.00,16,11,2017,00,00*67
2017-11-16 17:43:06 1510872186.866805: $GPGGA,224305,3946.9579,N,08404.9841,W,2,12,0.80,302.49,M,-33.324,M,,*78
2017-11-16 17:43:06 1510872186.866925: $GPRMC,224305,A,3946.9579,N,08404.9841,W,0.0000,0.000,161117,,*3A
2017-11-16 17:43:06 1510872186.866984: $GPGSA,A,3,1,10,11,12,14,18,26,22,25,31,32,138,1.6,0.8,1.3*3A
2017-11-16 17:43:07 1510872187.417552: $GPZDA,224306.00,16,11,2017,00,00*64
2017-11-16 17:43:07 1510872187.417762: $GPGGA,224306,3946.9579,N,08404.9841,W,2,12,0.80,302.49,M,-33.324,M,,*7B
2017-11-16 17:43:07 1510872187.417830: $GPRMC,224306,A,3946.9579,N,08404.9841,W,0.0000,0.000,161117,,*39
2017-11-16 17:43:07 1510872187.417887: $GPGSA,A,3,1,10,11,12,14,18,26,22,25,31,32,138,1.6,0.8,1.3*3A
2017-11-16 17:43:08 1510872188.409884: $GPZDA,224307.00,16,11,2017,00,00*65
2017-11-16 17:43:08 1510872188.410049: $GPGGA,224307,3946.9579,N,08404.9841,W,2,12,0.80,302.49,M,-33.324,M,,*7A
2017-11-16 17:43:08 1510872188.410110: $GPRMC,224307,A,3946.9579,N,08404.9841,W,0.0000,0.000,161117,,*38
2017-11-16 17:43:08 1510872188.410166: $GPGSA,A,3,1,10,11,12,14,18,26,22,25,31,32,138,1.6,0.8,1.3*3A
