2017-11-16 14:54:05 1510862045.918223: {"class":"VERSION","release":"3.17","rev":"3.17","proto_major":3,"proto_minor":12}
2017-11-16 14:54:05 1510862045.918739: {"class":"DEVICES","devices":[{"class":"DEVICE","path":"/dev/ttyUSB0","driver":"SiRF","subtype":"9\u0006GSD4e_4.1.2-P1_RPATCH.05-F-GPS-4R-1510281 11/03/2015 307","activated":"2017-11-16T19:54:05.671Z","flags":1,"native":1,"bps":4800,"parity":"N","stopbits":1,"cycle":1.00}]}
2017-11-16 14:54:05 1510862045.918874: {"class":"WATCH","enable":true,"json":false,"nmea":true,"raw":0,"scaled":false,"timing":false,"split24":false,"pps":false}
2017-11-16 14:54:06 1510862046.828680: $GPGSV,3,1,11,08,08,306,27,10,56,315,50,15,22,058,50,18,77,040,45*7B
2017-11-16 14:54:06 1510862046.828831: $GPGSV,3,2,11,21,45,183,47,20,19,109,45,24,52,079,49,27,14,271,40*72
2017-11-16 14:54:06 1510862046.828892: $GPGSV,3,3,11,32,35,252,47,14,18,243,43,138,38,213,44*77
2017-11-16 14:54:06 1510862046.942059: $GPZDA,195405.00,16,11,2017,00,00*69
2017-11-16 14:54:06 1510862046.942250: $GPGGA,195405,3946.9575,N,08404.9848,W,2,11,0.80,301.77,M,-33.324,M,,*7E
2017-11-16 14:54:06 1510862046.942334: $GPRMC,195405,A,3946.9575,N,08404.9848,W,0.0000,0.000,161117,,*31
2017-11-16 14:54:06 1510862046.942392: $GPGSA,A,3,8,10,15,18,21,20,24,27,32,14,138,,1.6,0.8,1.3*37
2017-11-16 14:54:07 1510862047.491780: $GPZDA,195406.00,16,11,2017,00,00*6A
2017-11-16 14:54:07 1510862047.491989: $GPGGA,195406,3946.9575,N,08404.9848,W,2,11,0.80,301.77,M,-33.324,M,,*7D
2017-11-16 14:54:07 1510862047.492076: $GPRMC,195406,A,3946.9575,N,08404.9848,W,0.0000,0.000,161117,,*32
2017-11-16 14:54:07 1510862047.492136: $GPGSA,A,3,8,10,15,18,21,20,24,27,32,14,138,,1.6,0.8,1.3*37
2017-11-16 14:54:08 1510862048.529995: $GPZDA,195407.00,16,11,2017,00,00*6B
2017-11-16 14:54:08 1510862048.530162: $GPGGA,195407,3946.9575,N,08404.9848,W,2,11,0.80,301.77,M,-33.324,M,,*7C
2017-11-16 14:54:08 1510862048.530224: $GPRMC,195407,A,3946.9575,N,08404.9848,W,0.0000,0.000,161117,,*33
2017-11-16 14:54:08 1510862048.530369: $GPGSA,A,3,8,10,15,18,21,20,24,27,32,14,138,,1.6,0.8,1.3*37
2017-11-16 14:54:09 1510862049.866709: $GPGSV,3,1,11,08,08,306,26,10,56,315,50,15,22,058,50,18,77,040,45*7A
2017-11-16 14:54:09 1510862049.866875: $GPGSV,3,2,11,21,45,183,46,20,19,109,45,24,52,079,49,27,14,271,40*73
2017-11-16 14:54:09 1510862049.866935: $GPGSV,3,3,11,32,35,252,47,14,18,243,43,138,38,213,44*77
2017-11-16 14:54:09 1510862049.980054: $GPZDA,195408.00,16,11,2017,00,00*64
2017-11-16 14:54:09 1510862049.980214: $GPGGA,195408,3946.9575,N,08404.9848,W,2,11,0.80,301.77,M,-33.324,M,,*73
2017-11-16 14:54:09 1510862049.980275: $GPRMC,195408,A,3946.9575,N,08404.9848,W,0.0000,0.000,161117,,*3C
2017-11-16 14:54:09 1510862049.980483: $GPGSA,A,3,8,10,15,18,21,20,24,27,32,14,138,,1.6,0.8,1.3*37
2017-11-16 14:54:10 1510862050.529495: $GPZDA,195409.00,16,11,2017,00,00*65
2017-11-16 14:54:10 1510862050.529663: $GPGGA,195409,3946.9575,N,08404.9848,W,2,11,0.80,301.77,M,-33.324,M,,*72
2017-11-16 14:54:10 1510862050.529724: $GPRMC,195409,A,3946.9575,N,08404.9848,W,0.0000,0.000,161117,,*3D
2017-11-16 14:54:10 1510862050.529781: $GPGSA,A,3,8,10,15,18,21,20,24,27,32,14,138,,1.6,0.8,1.3*37
2017-11-16 14:54:11 1510862051.529098: $GPZDA,195410.00,16,11,2017,00,00*6D
2017-11-16 14:54:11 1510862051.529264: $GPGGA,195410,3946.9575,N,08404.9848,W,2,11,0.80,301.77,M,-33.324,M,,*7A
2017-11-16 14:54:11 1510862051.529350: $GPRMC,195410,A,3946.9575,N,08404.9848,W,0.0000,0.000,161117,,*35
2017-11-16 14:54:11 1510862051.529408: $GPGSA,A,3,8,10,15,18,21,20,24,27,32,14,138,,1.6,0.8,1.3*37
2017-11-16 14:54:12 1510862052.861221: $GPGSV,3,1,11,08,08,306,26,10,56,315,50,15,22,058,50,18,77,040,45*7A
2017-11-16 14:54:12 1510862052.861531: $GPGSV,3,2,11,21,45,183,46,20,19,109,45,24,52,079,48,27,14,271,40*72
2017-11-16 14:54:12 1510862052.861646: $GPGSV,3,3,11,32,35,252,47,14,18,243,43,138,38,213,43*70
2017-11-16 14:54:12 1510862052.974543: $GPZDA,195411.00,16,11,2017,00,00*6C
2017-11-16 14:54:12 1510862052.974863: $GPGGA,195411,3946.9575,N,08404.9848,W,2,11,0.80,301.77,M,-33.324,M,,*7B
2017-11-16 14:54:12 1510862052.975107: $GPRMC,195411,A,3946.9575,N,08404.9848,W,0.0000,0.000,161117,,*34
2017-11-16 14:54:12 1510862052.975206: $GPGSA,A,3,8,10,15,18,21,20,24,27,32,14,138,,1.6,0.8,1.3*37
2017-11-16 14:54:13 1510862053.491621: $GPZDA,195412.00,16,11,2017,00,00*6F
2017-11-16 14:54:13 1510862053.491788: $GPGGA,195412,3946.9575,N,08404.9848,W,2,11,0.80,301.77,M,-33.324,M,,*78
2017-11-16 14:54:13 1510862053.491851: $GPRMC,195412,A,3946.9575,N,08404.9848,W,0.0000,0.000,161117,,*37
2017-11-16 14:54:13 1510862053.491907: $GPGSA,A,3,8,10,15,18,21,20,24,27,32,14,138,,1.6,0.8,1.3*37
2017-11-16 14:54:14 1510862054.492037: $GPZDA,195413.00,16,11,2017,00,00*6E
2017-11-16 14:54:14 1510862054.492227: $GPGGA,195413,3946.9575,N,08404.9848,W,2,11,0.80,301.77,M,-33.324,M,,*79
2017-11-16 14:54:14 1510862054.492290: $GPRMC,195413,A,3946.9575,N,08404.9848,W,0.0000,0.000,161117,,*36
2017-11-16 14:54:14 1510862054.492368: $GPGSA,A,3,8,10,15,18,21,20,24,27,32,14,138,,1.6,0.8,1.3*37
2017-11-16 14:54:15 1510862055.827844: $GPGSV,3,1,11,08,08,306,27,10,56,315,50,15,22,058,49,18,77,040,45*73
2017-11-16 14:54:15 1510862055.828031: $GPGSV,3,2,11,21,45,183,46,20,19,109,45,24,52,079,48,27,14,271,41*73
2017-11-16 14:54:15 1510862055.828091: $GPGSV,3,3,11,32,35,252,46,14,18,243,42,138,38,213,44*77
2017-11-16 14:54:15 1510862055.941183: $GPZDA,195414.00,16,11,2017,00,00*69
2017-11-16 14:54:15 1510862055.941378: $GPGGA,195414,3946.9575,N,08404.9848,W,2,11,0.80,301.77,M,-33.324,M,,*7E
2017-11-16 14:54:15 1510862055.941460: $GPRMC,195414,A,3946.9575,N,08404.9848,W,0.0000,0.000,161117,,*31
2017-11-16 14:54:15 1510862055.941518: $GPGSA,A,3,8,10,15,18,21,20,24,27,32,14,138,,1.6,0.8,1.3*37
