2017-12-14 12:06:05 1513271165.293382: {"class":"VERSION","release":"3.16","rev":"3.16-4","proto_major":3,"proto_minor":11}
2017-12-14 12:06:05 1513271165.293731: {"class":"DEVICES","devices":[{"class":"DEVICE","path":"/dev/ttyUSB0","driver":"SiRF","subtype":"9\u0006GSD4e_4.1.2-P1_RPATCH.05-F-GPS-4R-1510281 11/03/2015 307","activated":"2017-12-14T17:06:05.277Z","flags":1,"native":1,"bps":4800,"parity":"N","stopbits":1,"cycle":1.00}]}
2017-12-14 12:06:05 1513271165.293846: {"class":"WATCH","enable":true,"json":false,"nmea":true,"raw":0,"scaled":false,"timing":false,"split24":false,"pps":false}
2017-12-14 12:06:06 1513271166.413190: $GPRMC,170607,V,3946.9498,N,08404.9461,W,0.6012,242.540,141217,,*29
2017-12-14 12:06:06 1513271166.413360: $GPGSA,A,1,24,15,10,20,21,18,,,,,,,,,,*39
2017-12-14 12:06:07 1513271167.749879: $GPGSV,3,1,11,24,48,118,24,15,42,051,24,10,37,297,02,20,38,091,09*7C
2017-12-14 12:06:07 1513271167.750038: $GPGSV,3,2,11,21,68,193,22,18,68,327,16,27,19,295,00,32,17,235,00*78
2017-12-14 12:06:07 1513271167.750103: $GPGSV,3,3,11,13,12,046,00,08,04,327,00,138,38,213,00*71
2017-12-14 12:06:07 1513271167.863381: $GPZDA,170608.00,14,12,2017,00,00*6C
2017-12-14 12:06:07 1513271167.863540: $GPGGA,170608,3946.9502,N,08404.9461,W,1,05,2.40,355.52,M,-33.324,M,,*73
2017-12-14 12:06:07 1513271167.863604: $GPRMC,170608,A,3946.9502,N,08404.9461,W,1.2592,268.069,141217,,*3D
2017-12-14 12:06:07 1513271167.863665: $GPGSA,A,3,24,15,20,21,18,,,,,,,,6.6,2.4,6.2*3A
2017-12-14 12:06:07 1513271167.863721: $GPGBS,170608,24.66,M,21.80,M,143.40,M*39
2017-12-14 12:06:08 1513271168.489941: $GPZDA,170609.09,14,12,2017,00,00*64
2017-12-14 12:06:08 1513271168.490097: $GPGGA,170609,3946.9499,N,08404.9469,W,1,05,2.40,356.20,M,-33.324,M,,*7F
2017-12-14 12:06:08 1513271168.490165: $GPRMC,170609,A,3946.9499,N,08404.9469,W,1.5004,268.992,141217,,*37
2017-12-14 12:06:08 1513271168.490226: $GPGSA,A,3,24,15,20,21,18,,,,,,,,6.6,2.4,6.2*3A
2017-12-14 12:06:08 1513271168.490281: $GPGBS,170609,24.66,M,21.80,M,143.40,M*38
2017-12-14 12:06:09 1513271169.416099: $GPZDA,170610.00,14,12,2017,00,00*65
2017-12-14 12:06:09 1513271169.416316: $GPGGA,170610,3946.9491,N,08404.9476,W,1,05,2.40,354.84,M,-33.324,M,,*7D
2017-12-14 12:06:09 1513271169.416396: $GPRMC,170610,A,3946.9491,N,08404.9476,W,1.7048,245.420,141217,,*38
2017-12-14 12:06:09 1513271169.416482: $GPGSA,A,3,24,15,20,21,18,,,,,,,,6.6,2.4,6.2*3A
2017-12-14 12:06:09 1513271169.416575: $GPGBS,170610,24.66,M,21.80,M,143.40,M*30
2017-12-14 12:06:10 1513271170.750330: $GPGSV,3,1,11,24,48,118,24,15,42,051,25,10,37,297,02,20,38,091,11*74
2017-12-14 12:06:10 1513271170.750515: $GPGSV,3,2,11,21,68,193,22,18,68,327,18,27,19,295,00,32,17,235,00*76
2017-12-14 12:06:10 1513271170.750582: $GPGSV,3,3,11,13,12,046,00,08,04,327,00,138,38,213,00*71
2017-12-14 12:06:10 1513271170.863922: $GPZDA,170611.00,14,12,2017,00,00*64
2017-12-14 12:06:10 1513271170.864078: $GPGGA,170611,3946.9495,N,08404.9482,W,1,05,2.40,354.00,M,-33.324,M,,*7F
2017-12-14 12:06:10 1513271170.864143: $GPRMC,170611,A,3946.9495,N,08404.9482,W,1.9836,270.164,141217,,*3A
2017-12-14 12:06:10 1513271170.864203: $GPGSA,A,3,24,15,20,21,18,,,,,,,,6.6,2.4,6.2*3A
2017-12-14 12:06:11 1513271171.414740: $GPRMC,170612,V,3946.9495,N,08404.9489,W,1.9836,270.164,141217,,*25
2017-12-14 12:06:11 1513271171.414899: $GPGSA,A,1,24,15,20,21,18,,,,,,,,,,,*38
2017-12-14 12:06:12 1513271172.415697: $GPRMC,170613,V,3946.9492,N,08404.9497,W,1.9836,270.164,141217,,*2C
2017-12-14 12:06:12 1513271172.417205: $GPGSA,A,1,24,15,20,21,18,,,,,,,,,,,*38
2017-12-14 12:06:13 1513271173.751942: $GPGSV,3,1,11,24,48,118,24,15,42,051,25,10,37,297,02,20,38,091,06*72
2017-12-14 12:06:13 1513271173.752166: $GPGSV,3,2,11,21,68,193,23,18,68,327,18,27,19,295,00,32,17,235,00*77
2017-12-14 12:06:13 1513271173.752241: $GPGSV,3,3,11,13,12,046,00,08,04,327,00,138,38,213,00*71
2017-12-14 12:06:13 1513271173.864230: $GPRMC,170614,V,3946.9493,N,08404.9504,W,1.9836,270.164,141217,,*21
2017-12-14 12:06:13 1513271173.864345: $GPGSA,A,1,24,15,21,18,,,,,,,,,,,,*3A
2017-12-14 12:06:14 1513271174.413802: $GPRMC,170615,V,3946.9493,N,08404.9511,W,1.9836,270.164,141217,,*24
2017-12-14 12:06:14 1513271174.414036: $GPGSA,A,1,24,15,21,18,,,,,,,,,,,,*3A
2017-12-14 12:06:15 1513271175.414725: $GPRMC,170616,V,3946.9494,N,08404.9519,W,1.9836,270.164,141217,,*28
2017-12-14 12:06:15 1513271175.414904: $GPGSA,A,1,24,15,21,18,,,,,,,,,,,,*3A
2017-12-14 12:06:16 1513271176.751557: $GPGSV,3,1,11,24,48,118,24,15,42,051,25,10,37,297,02,20,38,091,06*72
2017-12-14 12:06:16 1513271176.751736: $GPGSV,3,2,11,21,68,193,23,18,68,327,18,27,19,295,00,32,17,235,00*77
2017-12-14 12:06:16 1513271176.751803: $GPGSV,3,3,11,13,12,046,00,08,04,327,00,138,38,213,00*71
2017-12-14 12:06:16 1513271176.862601: $GPRMC,170617,V,3946.9495,N,08404.9526,W,1.9836,270.163,141217,,*23
2017-12-14 12:06:16 1513271176.862762: $GPGSA,A,1,24,15,21,18,,,,,,,,,,,,*3A
2017-12-14 12:06:17 1513271177.414782: $GPRMC,170618,V,3946.9495,N,08404.9533,W,1.9836,270.163,141217,,*28
2017-12-14 12:06:17 1513271177.414972: $GPGSA,A,1,24,15,21,18,,,,,,,,,,,,*3A
2017-12-14 12:06:18 1513271178.412611: $GPRMC,170619,V,3946.9492,N,08404.9540,W,1.9836,270.163,141217,,*2A
2017-12-14 12:06:18 1513271178.412769: $GPGSA,A,1,24,15,21,18,,,,,,,,,,,,*3A
2017-12-14 12:06:19 1513271179.749439: $GPGSV,3,1,11,24,48,118,24,15,42,051,25,10,37,297,02,20,38,091,04*70
2017-12-14 12:06:19 1513271179.749616: $GPGSV,3,2,11,21,68,193,23,18,68,327,19,27,19,295,00,32,17,235,00*76
2017-12-14 12:06:19 1513271179.749682: $GPGSV,3,3,11,13,12,046,00,08,04,327,00,138,38,213,00*71
2017-12-14 12:06:19 1513271179.861739: $GPRMC,170620,V,3946.9492,N,08404.9547,W,1.9836,270.163,141217,,*27
2017-12-14 12:06:19 1513271179.861892: $GPGSA,A,1,24,15,21,18,,,,,,,,,,,,*3A
2017-12-14 12:06:20 1513271180.413845: $GPRMC,170621,V,3946.9493,N,08404.9554,W,1.9836,270.163,141217,,*25
2017-12-14 12:06:20 1513271180.414026: $GPGSA,A,1,24,15,21,18,,,,,,,,,,,,*3A
2017-12-14 12:06:21 1513271181.414723: $GPRMC,170622,V,3946.9489,N,08404.9562,W,1.9836,270.163,141217,,*28
2017-12-14 12:06:21 1513271181.414902: $GPGSA,A,1,24,15,21,18,,,,,,,,,,,,*3A
2017-12-14 12:06:22 1513271182.750297: $GPGSV,3,1,11,24,48,118,24,15,42,051,25,10,37,297,02,20,38,091,04*70
2017-12-14 12:06:22 1513271182.750494: $GPGSV,3,2,11,21,68,193,24,18,68,327,19,27,19,295,00,32,17,235,00*71
2017-12-14 12:06:22 1513271182.750561: $GPGSV,3,3,11,13,12,046,00,08,04,327,00,138,38,213,00*71
2017-12-14 12:06:22 1513271182.862687: $GPRMC,170623,V,3946.9490,N,08404.9569,W,1.9836,270.163,141217,,*2A
2017-12-14 12:06:22 1513271182.862852: $GPGSA,A,1,24,15,21,18,,,,,,,,,,,,*3A
2017-12-14 12:06:23 1513271183.489268: $GPRMC,170624,V,3946.9494,N,08404.9576,W,1.9836,270.163,141217,,*27
2017-12-14 12:06:23 1513271183.489445: $GPGSA,A,1,24,15,21,18,,,,,,,,,,,,*3A
2017-12-14 12:06:24 1513271184.415134: $GPRMC,170625,V,3946.9495,N,08404.9583,W,1.9836,270.163,141217,,*2D
2017-12-14 12:06:24 1513271184.415312: $GPGSA,A,1,24,15,21,18,,,,,,,,,,,,*3A
