2017-12-01 18:01:22 1512169282.736845: {"class":"VERSION","release":"3.16","rev":"3.16-4","proto_major":3,"proto_minor":11}
2017-12-01 18:01:22 1512169282.737243: {"class":"DEVICES","devices":[{"class":"DEVICE","path":"/dev/ttyUSB0","driver":"SiRF","subtype":"9\u0006GSD4e_4.1.2-P1_RPATCH.05-F-GPS-4R-1510281 11/03/2015 307","activated":"2017-12-01T23:01:22.424Z","flags":1,"native":1,"bps":4800,"parity":"N","stopbits":1,"cycle":1.00}]}
2017-12-01 18:01:22 1512169282.737365: {"class":"WATCH","enable":true,"json":false,"nmea":true,"raw":0,"scaled":false,"timing":false,"split24":false,"pps":false}
2017-12-01 18:01:23 1512169283.032615: $GPZDA,230123.69,01,12,2017,00,00*6E
2017-12-01 18:01:23 1512169283.032813: $GPGGA,230123,3946.9715,N,08404.9864,W,1,12,0.80,302.03,M,-33.325,M,,*78
2017-12-01 18:01:23 1512169283.032883: $GPRMC,230123,A,3946.9715,N,08404.9864,W,0.5124,97.189,011217,,*0F
2017-12-01 18:01:23 1512169283.032947: $GPGSA,A,3,1,3,10,14,16,22,29,25,26,31,32,138,2.0,0.8,1.5*0C
2017-12-01 18:01:23 1512169283.033006: $GPGBS,230123,10.70,M,15.43,M,35.28,M*06
2017-12-01 18:01:24 1512169284.138033: $GPZDA,230124.38,01,12,2017,00,00*6D
2017-12-01 18:01:24 1512169284.138204: $GPGGA,230124,3946.9715,N,08404.9864,W,1,12,0.80,302.03,M,-33.325,M,,*7F
2017-12-01 18:01:24 1512169284.138289: $GPRMC,230124,A,3946.9715,N,08404.9864,W,0.3006,62.539,011217,,*0A
2017-12-01 18:01:24 1512169284.138351: $GPGSA,A,3,1,3,10,14,16,22,29,25,26,31,32,138,2.0,0.8,1.5*0C
2017-12-01 18:01:25 1512169285.302986: $GPGSV,3,1,12,01,11,261,37,03,34,307,47,10,06,159,34,14,62,076,44*76
2017-12-01 18:01:25 1512169285.303134: $GPGSV,3,2,12,16,13,189,41,22,48,285,45,29,07,081,08,25,25,045,44*75
2017-12-01 18:01:25 1512169285.303199: $GPGSV,3,3,12,26,43,175,44,31,75,004,47,32,43,099,45,138,38,213,39*41
2017-12-01 18:01:25 1512169285.416594: $GPZDA,230125.00,01,12,2017,00,00*67
2017-12-01 18:01:25 1512169285.416762: $GPGGA,230125,3946.9715,N,08404.9864,W,1,11,0.80,302.03,M,-33.325,M,,*7D
2017-12-01 18:01:25 1512169285.416828: $GPRMC,230125,A,3946.9715,N,08404.9864,W,0.1567,9.200,011217,,*3B
2017-12-01 18:01:25 1512169285.416889: $GPGSA,A,3,1,3,10,14,16,22,25,26,31,32,138,,2.0,0.8,1.5*07
2017-12-01 18:01:25 1512169285.868662: $GPZDA,230126.00,01,12,2017,00,00*64
2017-12-01 18:01:25 1512169285.868854: $GPGGA,230126,3946.9718,N,08404.9863,W,1,11,0.80,301.26,M,-33.325,M,,*70
2017-12-01 18:01:25 1512169285.868925: $GPRMC,230126,A,3946.9718,N,08404.9863,W,0.1567,9.200,011217,,*32
2017-12-01 18:01:25 1512169285.868990: $GPGSA,A,3,1,3,10,14,16,22,25,26,31,32,138,,2.0,0.8,1.5*07
2017-12-01 18:01:26 1512169286.420758: $GPZDA,230127.00,01,12,2017,00,00*65
2017-12-01 18:01:26 1512169286.420932: $GPGGA,230127,3946.9718,N,08404.9856,W,1,11,0.80,301.34,M,-33.325,M,,*74
2017-12-01 18:01:26 1512169286.421001: $GPRMC,230127,A,3946.9718,N,08404.9856,W,0.0000,0.000,011217,,*3B
2017-12-01 18:01:26 1512169286.421065: $GPGSA,A,3,1,3,10,14,16,22,25,26,31,32,138,,2.0,0.8,1.5*07
2017-12-01 18:01:27 1512169287.756964: $GPGSV,3,1,12,01,11,261,37,03,34,307,47,10,06,159,35,14,62,076,44*77
2017-12-01 18:01:27 1512169287.757175: $GPGSV,3,2,12,16,13,189,40,22,48,285,45,29,07,081,28,25,25,045,43*71
2017-12-01 18:01:27 1512169287.757270: $GPGSV,3,3,12,26,43,175,44,31,75,004,47,32,43,099,45,138,38,213,46*49
2017-12-01 18:01:27 1512169287.870384: $GPZDA,230128.00,01,12,2017,00,00*6A
2017-12-01 18:01:27 1512169287.870551: $GPGGA,230128,3946.9718,N,08404.9856,W,1,12,0.80,301.34,M,-33.325,M,,*78
2017-12-01 18:01:27 1512169287.870621: $GPRMC,230128,A,3946.9718,N,08404.9856,W,0.0000,0.000,011217,,*34
2017-12-01 18:01:27 1512169287.870685: $GPGSA,A,3,1,3,10,14,16,22,29,25,26,31,32,138,2.0,0.8,1.5*0C
2017-12-01 18:01:28 1512169288.422868: $GPZDA,230129.00,01,12,2017,00,00*6B
2017-12-01 18:01:28 1512169288.423003: $GPGGA,230129,3946.9721,N,08404.9856,W,2,12,1.20,300.58,M,-33.325,M,,*70
2017-12-01 18:01:28 1512169288.423071: $GPRMC,230129,A,3946.9721,N,08404.9856,W,0.0000,0.000,011217,,*3F
2017-12-01 18:01:28 1512169288.423135: $GPGSA,A,2,1,3,10,14,16,22,29,25,26,31,32,138,2.0,1.2,1.5*06
2017-12-01 18:01:29 1512169289.421994: $GPZDA,230130.00,01,12,2017,00,00*63
2017-12-01 18:01:29 1512169289.422167: $GPGGA,230130,3946.9721,N,08404.9856,W,2,12,0.80,300.58,M,-33.325,M,,*73
2017-12-01 18:01:29 1512169289.422234: $GPRMC,230130,A,3946.9721,N,08404.9856,W,0.0000,0.000,011217,,*37
2017-12-01 18:01:29 1512169289.422296: $GPGSA,A,3,1,3,10,14,16,22,29,25,26,31,32,138,2.0,0.8,1.5*0C
2017-12-01 18:01:29 1512169289.422355: $GPGBS,230130,2.67,M,3.86,M,8.82,M*31
2017-12-01 18:01:30 1512169290.760287: $GPGSV,3,1,12,01,11,261,38,03,34,307,48,10,06,159,35,14,62,076,43*70
2017-12-01 18:01:30 1512169290.760468: $GPGSV,3,2,12,16,13,189,41,22,48,285,46,29,07,081,28,25,25,045,44*74
2017-12-01 18:01:30 1512169290.760534: $GPGSV,3,3,12,26,43,175,45,31,75,004,46,32,43,099,44,138,38,213,46*48
2017-12-01 18:01:30 1512169290.873614: $GPZDA,230131.00,01,12,2017,00,00*62
2017-12-01 18:01:30 1512169290.873787: $GPGGA,230131,3946.9721,N,08404.9856,W,2,12,0.80,300.58,M,-33.325,M,,*72
2017-12-01 18:01:30 1512169290.873855: $GPRMC,230131,A,3946.9721,N,08404.9856,W,0.0000,0.000,011217,,*36
2017-12-01 18:01:30 1512169290.873916: $GPGSA,A,3,1,3,10,14,16,22,29,25,26,31,32,138,2.0,0.8,1.5*0C
2017-12-01 18:01:31 1512169291.423174: $GPZDA,230132.00,01,12,2017,00,00*61
2017-12-01 18:01:31 1512169291.423354: $GPGGA,230132,3946.9721,N,08404.9856,W,2,12,0.80,300.58,M,-33.325,M,,*71
2017-12-01 18:01:31 1512169291.423441: $GPRMC,230132,A,3946.9721,N,08404.9856,W,0.0000,0.000,011217,,*35
2017-12-01 18:01:31 1512169291.423506: $GPGSA,A,3,1,3,10,14,16,22,29,25,26,31,32,138,2.0,0.8,1.5*0C
2017-12-01 18:01:32 1512169292.421108: $GPZDA,230133.00,01,12,2017,00,00*60
2017-12-01 18:01:32 1512169292.421281: $GPGGA,230133,3946.9721,N,08404.9856,W,2,12,0.80,300.58,M,-33.325,M,,*70
2017-12-01 18:01:32 1512169292.421395: $GPRMC,230133,A,3946.9721,N,08404.9856,W,0.0000,0.000,011217,,*34
2017-12-01 18:01:32 1512169292.421469: $GPGSA,A,3,1,3,10,14,16,22,29,25,26,31,32,138,2.0,0.8,1.5*0C
2017-12-01 18:01:33 1512169293.755496: $GPGSV,3,1,12,01,11,261,11,03,34,307,14,10,06,159,10,14,62,076,13*70
2017-12-01 18:01:33 1512169293.755743: $GPGSV,3,2,12,16,13,189,12,22,48,285,14,29,07,081,08,25,25,045,13*75
2017-12-01 18:01:33 1512169293.755866: $GPGSV,3,3,12,26,43,175,13,31,75,004,14,32,43,099,13,138,38,213,16*4B
2017-12-01 18:01:33 1512169293.868872: $GPZDA,230134.00,01,12,2017,00,00*67
2017-12-01 18:01:33 1512169293.869021: $GPGGA,230134,3946.9726,N,08404.9856,W,2,12,0.80,301.22,M,-33.325,M,,*7C
2017-12-01 18:01:33 1512169293.869197: $GPRMC,230134,A,3946.9726,N,08404.9856,W,0.3423,4.196,011217,,*38
2017-12-01 18:01:33 1512169293.869320: $GPGSA,A,3,1,3,10,14,16,22,29,25,26,31,32,138,2.0,0.8,1.5*0C
2017-12-01 18:01:34 1512169294.419839: $GPZDA,230135.00,01,12,2017,00,00*66
2017-12-01 18:01:34 1512169294.420025: $GPGGA,230135,3946.9726,N,08404.9856,W,2,12,0.80,301.22,M,-33.325,M,,*7D
2017-12-01 18:01:34 1512169294.420097: $GPRMC,230135,A,3946.9726,N,08404.9856,W,0.0000,0.000,011217,,*35
2017-12-01 18:01:34 1512169294.420161: $GPGSA,A,3,1,3,10,14,16,22,29,25,26,31,32,138,2.0,0.8,1.5*0C
2017-12-01 18:01:35 1512169295.418109: $GPZDA,230136.00,01,12,2017,00,00*65
2017-12-01 18:01:35 1512169295.418292: $GPGGA,230136,3946.9733,N,08404.9855,W,2,12,0.80,301.09,M,-33.325,M,,*70
2017-12-01 18:01:35 1512169295.418359: $GPRMC,230136,A,3946.9733,N,08404.9855,W,0.0000,0.000,011217,,*31
2017-12-01 18:01:35 1512169295.418422: $GPGSA,A,3,1,3,10,14,16,22,29,25,26,31,32,138,2.0,0.8,1.5*0C
2017-12-01 18:01:36 1512169296.755089: $GPGSV,3,1,12,01,11,261,37,03,34,307,47,10,06,159,34,14,62,076,44*76
2017-12-01 18:01:36 1512169296.755314: $GPGSV,3,2,12,16,13,189,41,22,48,285,46,29,07,081,23,25,25,045,43*78
2017-12-01 18:01:36 1512169296.755383: $GPGSV,3,3,12,26,43,175,45,31,75,004,47,32,43,099,43,138,38,213,47*4F
2017-12-01 18:01:36 1512169296.868522: $GPZDA,230137.00,01,12,2017,00,00*64
2017-12-01 18:01:36 1512169296.868713: $GPGGA,230137,3946.9733,N,08404.9855,W,2,12,0.80,301.09,M,-33.325,M,,*71
2017-12-01 18:01:36 1512169296.868783: $GPRMC,230137,A,3946.9733,N,08404.9855,W,0.0000,0.000,011217,,*30
2017-12-01 18:01:36 1512169296.868894: $GPGSA,A,3,1,3,10,14,16,22,29,25,26,31,32,138,2.0,0.8,1.5*0C
2017-12-01 18:01:37 1512169297.494035: $GPZDA,230138.00,01,12,2017,00,00*6B
2017-12-01 18:01:37 1512169297.494226: $GPGGA,230138,3946.9733,N,08404.9855,W,2,12,0.80,301.09,M,-33.325,M,,*7E
2017-12-01 18:01:37 1512169297.494311: $GPRMC,230138,A,3946.9733,N,08404.9855,W,0.0000,0.000,011217,,*3F
2017-12-01 18:01:37 1512169297.494373: $GPGSA,A,3,1,3,10,14,16,22,29,25,26,31,32,138,2.0,0.8,1.5*0C
2017-12-01 18:01:38 1512169298.422430: $GPZDA,230139.00,01,12,2017,00,00*6A
2017-12-01 18:01:38 1512169298.422592: $GPGGA,230139,3946.9733,N,08404.9855,W,2,12,0.80,301.09,M,-33.325,M,,*7F
2017-12-01 18:01:38 1512169298.422659: $GPRMC,230139,A,3946.9733,N,08404.9855,W,0.0000,0.000,011217,,*3E
2017-12-01 18:01:38 1512169298.422720: $GPGSA,A,3,1,3,10,14,16,22,29,25,26,31,32,138,2.0,0.8,1.5*0C
2017-12-01 18:01:39 1512169299.758057: $GPGSV,3,1,12,01,11,261,37,03,34,307,47,10,06,159,34,14,62,076,43*71
2017-12-01 18:01:39 1512169299.758271: $GPGSV,3,2,12,16,13,189,41,22,48,285,46,29,07,081,23,25,25,045,42*79
2017-12-01 18:01:39 1512169299.758338: $GPGSV,3,3,12,26,43,175,45,31,75,004,47,32,43,099,44,138,38,213,47*48
2017-12-01 18:01:39 1512169299.871436: $GPZDA,230140.00,01,12,2017,00,00*64
2017-12-01 18:01:39 1512169299.871584: $GPGGA,230140,3946.9733,N,08404.9855,W,2,12,0.80,301.09,M,-33.325,M,,*71
2017-12-01 18:01:39 1512169299.871650: $GPRMC,230140,A,3946.9733,N,08404.9855,W,0.0000,0.000,011217,,*30
2017-12-01 18:01:39 1512169299.871711: $GPGSA,A,3,1,3,10,14,16,22,29,25,26,31,32,138,2.0,0.8,1.5*0C
2017-12-01 18:01:40 1512169300.420939: $GPZDA,230141.00,01,12,2017,00,00*65
2017-12-01 18:01:40 1512169300.421142: $GPGGA,230141,3946.9733,N,08404.9855,W,2,12,0.80,301.09,M,-33.325,M,,*70
2017-12-01 18:01:40 1512169300.421212: $GPRMC,230141,A,3946.9733,N,08404.9855,W,0.0000,0.000,011217,,*31
2017-12-01 18:01:40 1512169300.421292: $GPGSA,A,3,1,3,10,14,16,22,29,25,26,31,32,138,2.0,0.8,1.5*0C
2017-12-01 18:01:41 1512169301.423231: $GPZDA,230142.00,01,12,2017,00,00*66
2017-12-01 18:01:41 1512169301.423403: $GPGGA,230142,3946.9733,N,08404.9855,W,2,12,0.80,301.09,M,-33.325,M,,*73
2017-12-01 18:01:41 1512169301.423471: $GPRMC,230142,A,3946.9733,N,08404.9855,W,0.0000,0.000,011217,,*32
2017-12-01 18:01:41 1512169301.423532: $GPGSA,A,3,1,3,10,14,16,22,29,25,26,31,32,138,2.0,0.8,1.5*0C
2017-12-01 18:01:41 1512169301.423591: $GPGBS,230142,2.67,M,3.86,M,8.82,M*34
