2017-11-16 17:12:48 1510870368.145832: {"class":"VERSION","release":"3.17","rev":"3.17","proto_major":3,"proto_minor":12}
2017-11-16 17:12:48 1510870368.147056: {"class":"DEVICES","devices":[{"class":"DEVICE","path":"/dev/ttyUSB0","driver":"SiRF","subtype":"9\u0006GSD4e_4.1.2-P1_RPATCH.05-F-GPS-4R-1510281 11/03/2015 307","activated":"2017-11-16T22:12:47.557Z","flags":1,"native":1,"bps":4800,"parity":"N","stopbits":1,"cycle":1.00}]}
2017-11-16 17:12:48 1510870368.147431: {"class":"WATCH","enable":true,"json":false,"nmea":true,"raw":0,"scaled":false,"timing":false,"split24":false,"pps":false}
2017-11-16 17:12:48 1510870368.736881: $GPGSV,3,1,12,01,19,309,42,10,57,142,48,24,04,046,00,12,24,058,48*71
2017-11-16 17:12:48 1510870368.737191: $GPGSV,3,2,12,14,62,310,47,18,26,141,46,22,12,312,41,11,10,289,38*7F
2017-11-16 17:12:48 1510870368.737343: $GPGSV,3,3,12,25,36,102,48,31,46,219,49,32,70,001,50,138,38,213,45*42
2017-11-16 17:12:48 1510870368.849935: $GPZDA,221247.00,16,11,2017,00,00*65
2017-11-16 17:12:48 1510870368.850125: $GPGGA,221247,3946.9564,N,08404.9820,W,2,11,0.80,313.65,M,-33.324,M,,*7C
2017-11-16 17:12:48 1510870368.850188: $GPRMC,221247,A,3946.9564,N,08404.9820,W,0.0000,0.000,161117,,*33
2017-11-16 17:12:48 1510870368.850244: $GPGSA,A,3,1,10,12,14,18,22,11,25,31,32,138,,1.6,0.8,1.3*3E
2017-11-16 17:12:49 1510870369.399333: $GPZDA,221248.00,16,11,2017,00,00*6A
2017-11-16 17:12:49 1510870369.399550: $GPGGA,221248,3946.9564,N,08404.9820,W,2,11,0.80,313.65,M,-33.324,M,,*73
2017-11-16 17:12:49 1510870369.399616: $GPRMC,221248,A,3946.9564,N,08404.9820,W,0.0000,0.000,161117,,*3C
2017-11-16 17:12:49 1510870369.399672: $GPGSA,A,3,1,10,12,14,18,22,11,25,31,32,138,,1.6,0.8,1.3*3E
2017-11-16 17:12:50 1510870370.392663: $GPZDA,221249.00,16,11,2017,00,00*6B
2017-11-16 17:12:50 1510870370.392840: $GPGGA,221249,3946.9564,N,08404.9820,W,2,11,0.80,313.65,M,-33.324,M,,*72
2017-11-16 17:12:50 1510870370.392901: $GPRMC,221249,A,3946.9564,N,08404.9820,W,0.0000,0.000,161117,,*3D
2017-11-16 17:12:50 1510870370.392957: $GPGSA,A,3,1,10,12,14,18,22,11,25,31,32,138,,1.6,0.8,1.3*3E
2017-11-16 17:12:51 1510870371.735580: $GPGSV,3,1,12,01,19,309,42,10,57,142,48,24,04,046,00,12,24,058,48*71
2017-11-16 17:12:51 1510870371.735855: $GPGSV,3,2,12,14,62,310,47,18,26,141,45,22,12,312,40,11,10,289,38*7D
2017-11-16 17:12:51 1510870371.735973: $GPGSV,3,3,12,25,36,102,48,31,46,219,50,32,70,001,50,138,38,213,45*4A
2017-11-16 17:12:51 1510870371.848764: $GPZDA,221250.00,16,11,2017,00,00*63
2017-11-16 17:12:51 1510870371.848913: $GPGGA,221250,3946.9564,N,08404.9820,W,2,11,0.80,313.65,M,-33.324,M,,*7A
2017-11-16 17:12:51 1510870371.848974: $GPRMC,221250,A,3946.9564,N,08404.9820,W,0.0000,0.000,161117,,*35
2017-11-16 17:12:51 1510870371.849046: $GPGSA,A,3,1,10,12,14,18,22,11,25,31,32,138,,1.6,0.8,1.3*3E
2017-11-16 17:12:52 1510870372.396209: $GPZDA,221251.00,16,11,2017,00,00*62
2017-11-16 17:12:52 1510870372.396404: $GPGGA,221251,3946.9564,N,08404.9820,W,2,11,0.80,313.65,M,-33.324,M,,*7B
2017-11-16 17:12:52 1510870372.396467: $GPRMC,221251,A,3946.9564,N,08404.9820,W,0.0000,0.000,161117,,*34
2017-11-16 17:12:52 1510870372.396540: $GPGSA,A,3,1,10,12,14,18,22,11,25,31,32,138,,1.6,0.8,1.3*3E
2017-11-16 17:12:53 1510870373.399622: $GPZDA,221252.00,16,11,2017,00,00*61
2017-11-16 17:12:53 1510870373.399789: $GPGGA,221252,3946.9564,N,08404.9820,W,2,11,0.80,313.65,M,-33.324,M,,*78
2017-11-16 17:12:53 1510870373.399850: $GPRMC,221252,A,3946.9564,N,08404.9820,W,0.0000,0.000,161117,,*37
2017-11-16 17:12:53 1510870373.399905: $GPGSA,A,3,1,10,12,14,18,22,11,25,31,32,138,,1.6,0.8,1.3*3E
2017-11-16 17:12:54 1510870374.736502: $GPGSV,3,1,12,01,19,309,42,10,57,142,48,24,04,046,00,12,24,058,49*70
2017-11-16 17:12:54 1510870374.736801: $GPGSV,3,2,12,14,62,310,47,18,26,141,45,22,12,312,40,11,10,289,37*72
2017-11-16 17:12:54 1510870374.736918: $GPGSV,3,3,12,25,36,102,48,31,46,219,50,32,70,001,50,138,38,213,44*4B
2017-11-16 17:12:54 1510870374.849786: $GPZDA,221253.00,16,11,2017,00,00*60
2017-11-16 17:12:54 1510870374.850156: $GPGGA,221253,3946.9564,N,08404.9820,W,2,11,0.80,313.65,M,-33.324,M,,*79
2017-11-16 17:12:54 1510870374.850396: $GPRMC,221253,A,3946.9564,N,08404.9820,W,0.0000,0.000,161117,,*36
2017-11-16 17:12:54 1510870374.850500: $GPGSA,A,3,1,10,12,14,18,22,11,25,31,32,138,,1.6,0.8,1.3*3E
2017-11-16 17:12:55 1510870375.404262: $GPZDA,221254.00,16,11,2017,00,00*67
2017-11-16 17:12:55 1510870375.404464: $GPGGA,221254,3946.9564,N,08404.9820,W,2,11,0.80,313.65,M,-33.324,M,,*7E
2017-11-16 17:12:55 1510870375.404549: $GPRMC,221254,A,3946.9564,N,08404.9820,W,0.0000,0.000,161117,,*31
2017-11-16 17:12:55 1510870375.404609: $GPGSA,A,3,1,10,12,14,18,22,11,25,31,32,138,,1.6,0.8,1.3*3E
2017-11-16 17:12:56 1510870376.399626: $GPZDA,221255.00,16,11,2017,00,00*66
2017-11-16 17:12:56 1510870376.399795: $GPGGA,221255,3946.9564,N,08404.9820,W,2,11,0.80,313.65,M,-33.324,M,,*7F
2017-11-16 17:12:56 1510870376.399860: $GPRMC,221255,A,3946.9564,N,08404.9820,W,0.0000,0.000,161117,,*30
2017-11-16 17:12:56 1510870376.399919: $GPGSA,A,3,1,10,12,14,18,22,11,25,31,32,138,,1.6,0.8,1.3*3E
2017-11-16 17:12:57 1510870377.735519: $GPGSV,3,1,12,01,19,309,42,10,57,142,48,24,04,046,00,12,24,058,49*70
2017-11-16 17:12:57 1510870377.735700: $GPGSV,3,2,12,14,62,310,47,18,26,141,46,22,12,312,40,11,10,289,36*70
2017-11-16 17:12:57 1510870377.735765: $GPGSV,3,3,12,25,36,102,48,31,46,219,50,32,70,001,49,138,38,213,45*42
2017-11-16 17:12:57 1510870377.848749: $GPZDA,221256.00,16,11,2017,00,00*65
2017-11-16 17:12:57 1510870377.848912: $GPGGA,221256,3946.9564,N,08404.9820,W,2,11,0.80,313.65,M,-33.324,M,,*7C
2017-11-16 17:12:57 1510870377.848976: $GPRMC,221256,A,3946.9564,N,08404.9820,W,0.0000,0.000,161117,,*33
2017-11-16 17:12:57 1510870377.849035: $GPGSA,A,3,1,10,12,14,18,22,11,25,31,32,138,,1.6,0.8,1.3*3E
