2018-01-11 20:12:11 1515719531.168237: {"class":"VERSION","release":"3.16","rev":"3.16-4","proto_major":3,"proto_minor":11}
2018-01-11 20:12:11 1515719531.168579: {"class":"DEVICES","devices":[{"class":"DEVICE","path":"/dev/ttyUSB0","driver":"SiRF","subtype":"9\u0006GSD4e_4.1.2-P1_RPATCH.05-F-GPS-4R-1510281 11/03/2015 307","activated":"2018-01-12T01:12:10.506Z","flags":1,"native":1,"bps":4800,"parity":"N","stopbits":1,"cycle":1.00}]}
2018-01-11 20:12:11 1515719531.168825: {"class":"WATCH","enable":true,"json":false,"nmea":true,"raw":0,"scaled":false,"timing":false,"split24":false,"pps":false}
2018-01-11 20:12:11 1515719531.700473: $GPGSV,3,1,10,07,56,315,43,08,74,129,46,09,47,228,42,11,20,168,47*77
2018-01-11 20:12:11 1515719531.700658: $GPGSV,3,2,10,16,22,060,46,23,28,189,47,27,47,052,49,28,14,259,38*74
2018-01-11 20:12:11 1515719531.700726: $GPGSV,3,3,10,30,29,306,32,138,38,213,45*44
2018-01-11 20:12:11 1515719531.814130: $GPZDA,011212.00,12,01,2018,00,00*6E
2018-01-11 20:12:11 1515719531.814269: $GPGGA,011212,3946.9594,N,08404.9859,W,2,10,0.80,299.20,M,-33.324,M,,*7F
2018-01-11 20:12:11 1515719531.814336: $GPRMC,011212,A,3946.9594,N,08404.9859,W,0.0000,0.000,120118,,*39
2018-01-11 20:12:11 1515719531.814398: $GPGSA,A,3,7,8,9,11,16,23,27,28,30,138,,,4.0,0.8,3.5*3E
2018-01-11 20:12:12 1515719532.362508: $GPZDA,011213.00,12,01,2018,00,00*6F
2018-01-11 20:12:12 1515719532.362676: $GPGGA,011213,3946.9594,N,08404.9859,W,2,10,0.80,299.20,M,-33.324,M,,*7E
2018-01-11 20:12:12 1515719532.362744: $GPRMC,011213,A,3946.9594,N,08404.9859,W,0.0000,0.000,120118,,*38
2018-01-11 20:12:12 1515719532.362808: $GPGSA,A,3,7,8,9,11,16,23,27,28,30,138,,,4.0,0.8,3.5*3E
2018-01-11 20:12:13 1515719533.351040: $GPZDA,011214.00,12,01,2018,00,00*68
2018-01-11 20:12:13 1515719533.351200: $GPGGA,011214,3946.9594,N,08404.9859,W,2,10,0.80,299.20,M,-33.324,M,,*79
2018-01-11 20:12:13 1515719533.351265: $GPRMC,011214,A,3946.9594,N,08404.9859,W,0.0000,0.000,120118,,*3F
2018-01-11 20:12:13 1515719533.351326: $GPGSA,A,3,7,8,9,11,16,23,27,28,30,138,,,4.0,0.8,3.5*3E
2018-01-11 20:12:14 1515719534.700035: $GPGSV,3,1,10,07,56,315,43,08,74,129,46,09,47,228,42,11,20,168,47*77
2018-01-11 20:12:14 1515719534.700219: $GPGSV,3,2,10,16,22,060,46,23,28,189,47,27,47,052,50,28,14,259,38*7C
2018-01-11 20:12:14 1515719534.700286: $GPGSV,3,3,10,30,29,306,32,138,38,213,45*44
2018-01-11 20:12:14 1515719534.812160: $GPZDA,011215.00,12,01,2018,00,00*69
2018-01-11 20:12:14 1515719534.812293: $GPGGA,011215,3946.9594,N,08404.9859,W,2,10,0.80,299.20,M,-33.324,M,,*78
2018-01-11 20:12:14 1515719534.812357: $GPRMC,011215,A,3946.9594,N,08404.9859,W,0.0000,0.000,120118,,*3E
2018-01-11 20:12:14 1515719534.812418: $GPGSA,A,3,7,8,9,11,16,23,27,28,30,138,,,4.0,0.8,3.5*3E
2018-01-11 20:12:15 1515719535.438837: $GPZDA,011216.00,12,01,2018,00,00*6A
2018-01-11 20:12:15 1515719535.439019: $GPGGA,011216,3946.9594,N,08404.9859,W,2,10,0.80,299.20,M,-33.324,M,,*7B
2018-01-11 20:12:15 1515719535.439158: $GPRMC,011216,A,3946.9594,N,08404.9859,W,0.0000,0.000,120118,,*3D
2018-01-11 20:12:15 1515719535.439220: $GPGSA,A,3,7,8,9,11,16,23,27,28,30,138,,,4.0,0.8,3.5*3E
2018-01-11 20:12:16 1515719536.364719: $GPZDA,011217.00,12,01,2018,00,00*6B
2018-01-11 20:12:16 1515719536.364892: $GPGGA,011217,3946.9594,N,08404.9859,W,2,10,0.80,299.20,M,-33.324,M,,*7A
2018-01-11 20:12:16 1515719536.364959: $GPRMC,011217,A,3946.9594,N,08404.9859,W,0.0000,0.000,120118,,*3C
2018-01-11 20:12:16 1515719536.365020: $GPGSA,A,3,7,8,9,11,16,23,27,28,30,138,,,4.0,0.8,3.5*3E
2018-01-11 20:12:17 1515719537.701635: $GPGSV,3,1,10,07,56,315,43,08,74,129,46,09,47,228,41,11,20,168,47*74
2018-01-11 20:12:17 1515719537.701802: $GPGSV,3,2,10,16,22,060,46,23,28,189,47,27,47,052,50,28,14,259,38*7C
2018-01-11 20:12:17 1515719537.701868: $GPGSV,3,3,10,30,29,306,33,138,38,213,44*44
2018-01-11 20:12:17 1515719537.815021: $GPZDA,011218.00,12,01,2018,00,00*64
2018-01-11 20:12:17 1515719537.815186: $GPGGA,011218,3946.9594,N,08404.9859,W,2,10,0.80,299.20,M,-33.324,M,,*75
2018-01-11 20:12:17 1515719537.815252: $GPRMC,011218,A,3946.9594,N,08404.9859,W,0.0000,0.000,120118,,*33
2018-01-11 20:12:17 1515719537.815367: $GPGSA,A,3,7,8,9,11,16,23,27,28,30,138,,,4.0,0.8,3.5*3E
2018-01-11 20:12:18 1515719538.349730: $GPZDA,011219.00,12,01,2018,00,00*65
2018-01-11 20:12:18 1515719538.349901: $GPGGA,011219,3946.9594,N,08404.9852,W,2,10,0.80,299.28,M,-33.324,M,,*77
2018-01-11 20:12:18 1515719538.349968: $GPRMC,011219,A,3946.9594,N,08404.9852,W,0.0000,0.000,120118,,*39
2018-01-11 20:12:18 1515719538.350029: $GPGSA,A,3,7,8,9,11,16,23,27,28,30,138,,,4.0,0.8,3.5*3E
2018-01-11 20:12:19 1515719539.365828: $GPZDA,011220.00,12,01,2018,00,00*6F
2018-01-11 20:12:19 1515719539.365997: $GPGGA,011220,3946.9594,N,08404.9852,W,2,10,0.80,299.28,M,-33.324,M,,*7D
2018-01-11 20:12:19 1515719539.366063: $GPRMC,011220,A,3946.9594,N,08404.9852,W,0.0000,0.000,120118,,*33
2018-01-11 20:12:19 1515719539.366125: $GPGSA,A,3,7,8,9,11,16,23,27,28,30,138,,,4.0,0.8,3.5*3E
2018-01-11 20:12:20 1515719540.683271: $GPGSV,3,1,10,07,56,315,43,08,74,129,46,09,47,228,42,11,20,168,47*77
2018-01-11 20:12:20 1515719540.683459: $GPGSV,3,2,10,16,22,060,46,23,28,189,47,27,47,052,50,28,14,259,38*7C
2018-01-11 20:12:20 1515719540.683527: $GPGSV,3,3,10,30,29,306,33,138,38,213,45*45
2018-01-11 20:12:20 1515719540.796877: $GPZDA,011221.00,12,01,2018,00,00*6E
2018-01-11 20:12:20 1515719540.797012: $GPGGA,011221,3946.9594,N,08404.9852,W,2,10,0.80,299.28,M,-33.324,M,,*7C
2018-01-11 20:12:20 1515719540.797077: $GPRMC,011221,A,3946.9594,N,08404.9852,W,0.0000,0.000,120118,,*32
2018-01-11 20:12:20 1515719540.797138: $GPGSA,A,3,7,8,9,11,16,23,27,28,30,138,,,4.0,0.8,3.5*3E
2018-01-11 20:12:21 1515719541.366594: $GPZDA,011222.00,12,01,2018,00,00*6D
2018-01-11 20:12:21 1515719541.366768: $GPGGA,011222,3946.9594,N,08404.9852,W,2,10,0.80,299.28,M,-33.324,M,,*7F
2018-01-11 20:12:21 1515719541.366834: $GPRMC,011222,A,3946.9594,N,08404.9852,W,0.0000,0.000,120118,,*31
2018-01-11 20:12:21 1515719541.366895: $GPGSA,A,3,7,8,9,11,16,23,27,28,30,138,,,4.0,0.8,3.5*3E
2018-01-11 20:12:22 1515719542.366026: $GPZDA,011223.00,12,01,2018,00,00*6C
2018-01-11 20:12:22 1515719542.366197: $GPGGA,011223,3946.9594,N,08404.9852,W,2,10,0.80,299.28,M,-33.324,M,,*7E
2018-01-11 20:12:22 1515719542.366263: $GPRMC,011223,A,3946.9594,N,08404.9852,W,0.0000,0.000,120118,,*30
2018-01-11 20:12:22 1515719542.366323: $GPGSA,A,3,7,8,9,11,16,23,27,28,30,138,,,4.0,0.8,3.5*3E
