2017-11-16 15:41:03 1510864863.878247: {"class":"VERSION","release":"3.17","rev":"3.17","proto_major":3,"proto_minor":12}
2017-11-16 15:41:03 1510864863.878499: {"class":"DEVICES","devices":[{"class":"DEVICE","path":"/dev/ttyUSB0","driver":"SiRF","subtype":"9\u0006GSD4e_4.1.2-P1_RPATCH.05-F-GPS-4R-1510281 11/03/2015 307","activated":"2017-11-16T20:41:03.520Z","flags":1,"native":1,"bps":4800,"parity":"N","stopbits":1,"cycle":1.00}]}
2017-11-16 15:41:03 1510864863.878618: {"class":"WATCH","enable":true,"json":false,"nmea":true,"raw":0,"scaled":false,"timing":false,"split24":false,"pps":false}
2017-11-16 15:41:04 1510864864.695967: $GPGSV,3,1,12,15,06,070,24,10,76,345,51,14,35,259,44,31,05,204,35*77
2017-11-16 15:41:04 1510864864.696076: $GPGSV,3,2,12,18,65,108,48,27,02,253,17,21,22,178,43,24,39,052,50*75
2017-11-16 15:41:04 1510864864.696106: $GPGSV,3,3,12,08,03,286,31,32,51,274,46,12,14,100,34,138,38,213,44*48
2017-11-16 15:41:04 1510864864.807675: $GPZDA,204103.00,16,11,2017,00,00*61
2017-11-16 15:41:04 1510864864.807788: $GPGGA,204103,3946.9568,N,08404.9859,W,2,12,1.00,308.20,M,-33.324,M,,*7B
2017-11-16 15:41:04 1510864864.807821: $GPRMC,204103,A,3946.9568,N,08404.9859,W,0.0000,0.000,161117,,*35
2017-11-16 15:41:04 1510864864.807852: $GPGSA,A,3,15,10,14,31,18,27,21,24,8,32,12,138,1.6,1.0,1.3*3D
2017-11-16 15:41:05 1510864865.367205: $GPZDA,204104.00,16,11,2017,00,00*66
2017-11-16 15:41:05 1510864865.367314: $GPGGA,204104,3946.9568,N,08404.9859,W,2,12,1.00,308.20,M,-33.324,M,,*7C
2017-11-16 15:41:05 1510864865.367345: $GPRMC,204104,A,3946.9568,N,08404.9859,W,0.0000,0.000,161117,,*32
2017-11-16 15:41:05 1510864865.367373: $GPGSA,A,3,15,10,14,31,18,27,21,24,8,32,12,138,1.6,1.0,1.3*3D
2017-11-16 15:41:06 1510864866.365116: $GPZDA,204105.00,16,11,2017,00,00*67
2017-11-16 15:41:06 1510864866.365223: $GPGGA,204105,3946.9568,N,08404.9859,W,2,12,1.00,308.20,M,-33.324,M,,*7D
2017-11-16 15:41:06 1510864866.365254: $GPRMC,204105,A,3946.9568,N,08404.9859,W,0.0000,0.000,161117,,*33
2017-11-16 15:41:06 1510864866.365283: $GPGSA,A,3,15,10,14,31,18,27,21,24,8,32,12,138,1.6,1.0,1.3*3D
2017-11-16 15:41:07 1510864867.719209: $GPGSV,3,1,12,15,06,070,25,10,76,345,51,14,35,259,44,31,05,204,35*76
2017-11-16 15:41:07 1510864867.719411: $GPGSV,3,2,12,18,65,108,47,27,02,253,17,21,22,178,43,24,39,052,50*7A
2017-11-16 15:41:07 1510864867.719485: $GPGSV,3,3,12,08,03,286,31,32,51,274,46,12,14,100,34,138,38,213,44*48
2017-11-16 15:41:07 1510864867.832709: $GPZDA,204106.00,16,11,2017,00,00*64
2017-11-16 15:41:07 1510864867.832926: $GPGGA,204106,3946.9568,N,08404.9859,W,2,12,1.00,308.20,M,-33.324,M,,*7E
2017-11-16 15:41:07 1510864867.832997: $GPRMC,204106,A,3946.9568,N,08404.9859,W,0.0000,0.000,161117,,*30
2017-11-16 15:41:07 1510864867.833058: $GPGSA,A,3,15,10,14,31,18,27,21,24,8,32,12,138,1.6,1.0,1.3*3D
2017-11-16 15:41:08 1510864868.363773: $GPZDA,204107.00,16,11,2017,00,00*65
2017-11-16 15:41:08 1510864868.363869: $GPGGA,204107,3946.9568,N,08404.9859,W,2,12,1.00,308.20,M,-33.324,M,,*7F
2017-11-16 15:41:08 1510864868.363902: $GPRMC,204107,A,3946.9568,N,08404.9859,W,0.0000,0.000,161117,,*31
2017-11-16 15:41:08 1510864868.363932: $GPGSA,A,3,15,10,14,31,18,27,21,24,8,32,12,138,1.6,1.0,1.3*3D
2017-11-16 15:41:09 1510864869.382176: $GPZDA,204108.00,16,11,2017,00,00*6A
2017-11-16 15:41:09 1510864869.382290: $GPGGA,204108,3946.9568,N,08404.9859,W,2,12,1.00,308.20,M,-33.324,M,,*70
2017-11-16 15:41:09 1510864869.382322: $GPRMC,204108,A,3946.9568,N,08404.9859,W,0.0000,0.000,161117,,*3E
2017-11-16 15:41:09 1510864869.382352: $GPGSA,A,3,15,10,14,31,18,27,21,24,8,32,12,138,1.6,1.0,1.3*3D
2017-11-16 15:41:10 1510864870.701184: $GPGSV,3,1,12,15,06,070,26,10,76,345,51,14,35,259,44,31,05,204,35*75
2017-11-16 15:41:10 1510864870.701409: $GPGSV,3,2,12,18,65,108,48,27,02,253,18,21,22,178,43,24,39,052,50*7A
2017-11-16 15:41:10 1510864870.701476: $GPGSV,3,3,12,08,03,286,32,32,51,274,46,12,14,100,34,138,38,213,44*4B
2017-11-16 15:41:10 1510864870.814408: $GPZDA,204109.00,16,11,2017,00,00*6B
2017-11-16 15:41:10 1510864870.814574: $GPGGA,204109,3946.9568,N,08404.9859,W,2,12,1.00,308.20,M,-33.324,M,,*71
2017-11-16 15:41:10 1510864870.814690: $GPRMC,204109,A,3946.9568,N,08404.9859,W,0.0000,0.000,161117,,*3F
2017-11-16 15:41:10 1510864870.814748: $GPGSA,A,3,15,10,14,31,18,27,21,24,8,32,12,138,1.6,1.0,1.3*3D
2017-11-16 15:41:11 1510864871.439416: $GPZDA,204110.00,16,11,2017,00,00*63
2017-11-16 15:41:11 1510864871.439535: $GPGGA,204110,3946.9568,N,08404.9859,W,2,12,1.00,308.20,M,-33.324,M,,*79
2017-11-16 15:41:11 1510864871.439566: $GPRMC,204110,A,3946.9568,N,08404.9859,W,0.0000,0.000,161117,,*37
2017-11-16 15:41:11 1510864871.439594: $GPGSA,A,3,15,10,14,31,18,27,21,24,8,32,12,138,1.6,1.0,1.3*3D
2017-11-16 15:41:12 1510864872.365685: $GPZDA,204111.00,16,11,2017,00,00*62
2017-11-16 15:41:12 1510864872.365794: $GPGGA,204111,3946.9568,N,08404.9859,W,2,12,1.00,308.20,M,-33.324,M,,*78
2017-11-16 15:41:12 1510864872.365825: $GPRMC,204111,A,3946.9568,N,08404.9859,W,0.0000,0.000,161117,,*36
2017-11-16 15:41:12 1510864872.365853: $GPGSA,A,3,15,10,14,31,18,27,21,24,8,32,12,138,1.6,1.0,1.3*3D
2017-11-16 15:41:13 1510864873.706975: $GPGSV,3,1,12,15,06,070,27,10,76,345,51,14,35,259,44,31,05,204,35*74
2017-11-16 15:41:13 1510864873.707168: $GPGSV,3,2,12,18,65,108,48,27,02,253,18,21,22,178,43,24,39,052,50*7A
2017-11-16 15:41:13 1510864873.707230: $GPGSV,3,3,12,08,03,286,32,32,51,274,46,12,14,100,34,138,38,213,44*4B
2017-11-16 15:41:13 1510864873.819372: $GPZDA,204112.00,16,11,2017,00,00*61
2017-11-16 15:41:13 1510864873.819557: $GPGGA,204112,3946.9568,N,08404.9859,W,2,12,1.00,308.20,M,-33.324,M,,*7B
2017-11-16 15:41:13 1510864873.819636: $GPRMC,204112,A,3946.9568,N,08404.9859,W,0.0000,0.000,161117,,*35
2017-11-16 15:41:13 1510864873.819693: $GPGSA,A,3,15,10,14,31,18,27,21,24,8,32,12,138,1.6,1.0,1.3*3D
