2017-12-14 12:14:45 1513271685.782424: {"class":"VERSION","release":"3.16","rev":"3.16-4","proto_major":3,"proto_minor":11}
2017-12-14 12:14:45 1513271685.782793: {"class":"DEVICES","devices":[{"class":"DEVICE","path":"/dev/ttyUSB0","driver":"SiRF","subtype":"9\u0006GSD4e_4.1.2-P1_RPATCH.05-F-GPS-4R-1510281 11/03/2015 307","activated":"2017-12-14T17:14:45.496Z","flags":1,"native":1,"bps":4800,"parity":"N","stopbits":1,"cycle":1.00}]}
2017-12-14 12:14:45 1513271685.782914: {"class":"WATCH","enable":true,"json":false,"nmea":true,"raw":0,"scaled":false,"timing":false,"split24":false,"pps":false}
2017-12-14 12:14:46 1513271686.517684: $GPGSV,3,1,12,24,50,112,30,10,40,300,22,18,70,334,00,20,35,094,19*77
2017-12-14 12:14:46 1513271686.517866: $GPGSV,3,2,12,27,19,291,16,32,20,237,20,21,64,189,26,15,39,052,20*72
2017-12-14 12:14:46 1513271686.517931: $GPGSV,3,3,12,13,09,048,00,08,05,324,00,14,02,231,00,138,38,213,00*43
2017-12-14 12:14:46 1513271686.631380: $GPZDA,171447.00,14,12,2017,00,00*64
2017-12-14 12:14:46 1513271686.631531: $GPGGA,171447,3946.9556,N,08404.9471,W,1,07,1.40,393.65,M,-33.324,M,,*74
2017-12-14 12:14:46 1513271686.631596: $GPRMC,171447,A,3946.9556,N,08404.9471,W,0.7267,93.794,141217,,*0F
2017-12-14 12:14:46 1513271686.631655: $GPGSA,A,3,24,10,20,27,32,21,15,,,,,,6.6,1.4,6.2*35
2017-12-14 12:14:47 1513271687.182484: $GPZDA,171448.00,14,12,2017,00,00*6B
2017-12-14 12:14:47 1513271687.182649: $GPGGA,171448,3946.9556,N,08404.9471,W,1,07,1.40,393.65,M,-33.324,M,,*7B
2017-12-14 12:14:47 1513271687.182716: $GPRMC,171448,A,3946.9556,N,08404.9471,W,0.9988,104.546,141217,,*36
2017-12-14 12:14:47 1513271687.182777: $GPGSA,A,3,24,10,20,27,32,21,15,,,,,,6.6,1.4,6.2*35
2017-12-14 12:14:48 1513271688.181278: $GPZDA,171449.00,14,12,2017,00,00*6A
2017-12-14 12:14:48 1513271688.181484: $GPGGA,171449,3946.9555,N,08404.9464,W,1,07,1.40,393.73,M,-33.324,M,,*7A
2017-12-14 12:14:48 1513271688.181552: $GPRMC,171449,A,3946.9555,N,08404.9464,W,0.5951,58.684,141217,,*0D
2017-12-14 12:14:48 1513271688.181614: $GPGSA,A,3,24,10,20,27,32,21,15,,,,,,6.6,1.4,6.2*35
2017-12-14 12:14:49 1513271689.518847: $GPGSV,3,1,12,24,50,112,30,10,40,300,22,18,70,334,00,20,35,094,19*77
2017-12-14 12:14:49 1513271689.519010: $GPGSV,3,2,12,27,19,291,15,32,20,237,20,21,64,189,26,15,39,052,20*71
2017-12-14 12:14:49 1513271689.519077: $GPGSV,3,3,12,13,09,048,00,08,05,324,00,14,02,231,00,138,38,213,00*43
2017-12-14 12:14:49 1513271689.630947: $GPZDA,171450.00,14,12,2017,00,00*62
2017-12-14 12:14:49 1513271689.631101: $GPGGA,171450,3946.9551,N,08404.9464,W,1,07,1.40,393.09,M,-33.324,M,,*7B
2017-12-14 12:14:49 1513271689.631166: $GPRMC,171450,A,3946.9551,N,08404.9464,W,0.4844,93.794,141217,,*02
2017-12-14 12:14:49 1513271689.631227: $GPGSA,A,3,24,10,20,27,32,21,15,,,,,,6.6,1.4,6.2*35
2017-12-14 12:14:50 1513271690.182375: $GPZDA,171451.00,14,12,2017,00,00*63
2017-12-14 12:14:50 1513271690.182541: $GPGGA,171451,3946.9551,N,08404.9464,W,1,07,1.40,393.09,M,-33.324,M,,*7A
2017-12-14 12:14:50 1513271690.182607: $GPRMC,171451,A,3946.9551,N,08404.9464,W,0.4844,93.794,141217,,*03
2017-12-14 12:14:50 1513271690.182668: $GPGSA,A,3,24,10,20,27,32,21,15,,,,,,6.6,1.4,6.2*35
2017-12-14 12:14:51 1513271691.197051: $GPZDA,171452.00,14,12,2017,00,00*60
2017-12-14 12:14:51 1513271691.197241: $GPGGA,171452,3946.9551,N,08404.9457,W,1,07,1.40,393.17,M,-33.324,M,,*76
2017-12-14 12:14:51 1513271691.197307: $GPRMC,171452,A,3946.9551,N,08404.9457,W,0.9689,93.794,141217,,*02
2017-12-14 12:14:51 1513271691.197368: $GPGSA,A,3,24,10,20,27,32,21,15,,,,,,6.6,1.4,6.2*35
2017-12-14 12:14:52 1513271692.517300: $GPGSV,3,1,12,24,50,112,30,10,40,300,22,18,70,334,00,20,35,094,20*7D
2017-12-14 12:14:52 1513271692.517539: $GPGSV,3,2,12,27,19,291,15,32,20,237,19,21,64,189,26,15,39,052,20*7B
2017-12-14 12:14:52 1513271692.517606: $GPGSV,3,3,12,13,09,048,00,08,05,324,00,14,02,231,00,138,38,213,00*43
2017-12-14 12:14:52 1513271692.630580: $GPZDA,171453.00,14,12,2017,00,00*61
2017-12-14 12:14:52 1513271692.630736: $GPGGA,171453,3946.9551,N,08404.9457,W,1,07,1.40,393.17,M,-33.324,M,,*77
2017-12-14 12:14:52 1513271692.630851: $GPRMC,171453,A,3946.9551,N,08404.9457,W,0.2422,93.794,141217,,*0B
2017-12-14 12:14:52 1513271692.630913: $GPGSA,A,3,24,10,20,27,32,21,15,,,,,,6.6,1.4,6.2*35
2017-12-14 12:14:53 1513271693.198080: $GPZDA,171454.00,14,12,2017,00,00*66
2017-12-14 12:14:53 1513271693.200753: $GPGGA,171454,3946.9551,N,08404.9457,W,1,07,1.40,393.17,M,-33.324,M,,*70
2017-12-14 12:14:53 1513271693.200859: $GPRMC,171454,A,3946.9551,N,08404.9457,W,0.4179,148.778,141217,,*34
2017-12-14 12:14:53 1513271693.200924: $GPGSA,A,3,24,10,20,27,32,21,15,,,,,,6.6,1.4,6.2*35
2017-12-14 12:14:54 1513271694.181972: $GPZDA,171455.00,14,12,2017,00,00*67
2017-12-14 12:14:54 1513271694.182177: $GPGGA,171455,3946.9547,N,08404.9457,W,1,07,1.40,392.53,M,-33.324,M,,*77
2017-12-14 12:14:54 1513271694.182246: $GPRMC,171455,A,3946.9547,N,08404.9457,W,0.4179,148.778,141217,,*32
2017-12-14 12:14:54 1513271694.182308: $GPGSA,A,3,24,10,20,27,32,21,15,,,,,,6.6,1.4,6.2*35
2017-12-14 12:14:55 1513271695.534309: $GPGSV,3,1,12,24,50,112,30,10,40,300,22,18,70,334,17,20,35,094,20*7B
2017-12-14 12:14:55 1513271695.534498: $GPGSV,3,2,12,27,19,291,15,32,20,237,19,21,64,189,26,15,39,052,21*7A
2017-12-14 12:14:55 1513271695.534564: $GPGSV,3,3,12,13,09,048,00,08,05,324,00,14,02,231,00,138,38,213,00*43
2017-12-14 12:14:55 1513271695.647991: $GPZDA,171456.00,14,12,2017,00,00*64
2017-12-14 12:14:55 1513271695.648140: $GPGGA,171456,3946.9547,N,08404.9457,W,1,07,1.40,392.53,M,-33.324,M,,*74
2017-12-14 12:14:55 1513271695.648206: $GPRMC,171456,A,3946.9547,N,08404.9457,W,0.2422,93.794,141217,,*09
2017-12-14 12:14:55 1513271695.648266: $GPGSA,A,3,24,10,20,27,32,21,15,,,,,,6.6,1.4,6.2*35
2017-12-14 12:14:56 1513271696.197563: $GPZDA,171457.00,14,12,2017,00,00*65
2017-12-14 12:14:56 1513271696.197750: $GPGGA,171457,3946.9546,N,08404.9450,W,1,07,1.40,392.61,M,-33.324,M,,*72
2017-12-14 12:14:56 1513271696.197839: $GPRMC,171457,A,3946.9546,N,08404.9450,W,0.4844,93.794,141217,,*04
2017-12-14 12:14:56 1513271696.197900: $GPGSA,A,3,24,10,20,27,32,21,15,,,,,,6.6,1.4,6.2*35
2017-12-14 12:14:57 1513271697.197640: $GPZDA,171458.00,14,12,2017,00,00*6A
2017-12-14 12:14:57 1513271697.197821: $GPGGA,171458,3946.9543,N,08404.9451,W,1,07,1.40,393.38,M,-33.324,M,,*74
2017-12-14 12:14:57 1513271697.197889: $GPRMC,171458,A,3946.9543,N,08404.9451,W,0.4844,93.794,141217,,*0F
2017-12-14 12:14:57 1513271697.197967: $GPGSA,A,3,24,10,20,27,32,21,15,,,,,,6.6,1.4,6.2*35
2017-12-14 12:14:58 1513271698.533602: $GPGSV,3,1,12,24,50,112,30,10,40,300,22,18,70,334,00,20,35,094,21*7C
2017-12-14 12:14:58 1513271698.533810: $GPGSV,3,2,12,27,19,291,14,32,20,237,19,21,64,189,27,15,39,052,21*7A
2017-12-14 12:14:58 1513271698.533877: $GPGSV,3,3,12,13,09,048,00,08,05,324,00,14,02,231,00,138,38,213,00*43
2017-12-14 12:14:58 1513271698.647014: $GPZDA,171459.00,14,12,2017,00,00*6B
2017-12-14 12:14:58 1513271698.647189: $GPGGA,171459,3946.9543,N,08404.9451,W,1,07,1.40,393.38,M,-33.324,M,,*75
2017-12-14 12:14:58 1513271698.647256: $GPRMC,171459,A,3946.9543,N,08404.9451,W,0.5912,129.173,141217,,*32
2017-12-14 12:14:58 1513271698.647317: $GPGSA,A,3,24,10,20,27,32,21,15,,,,,,6.6,1.4,6.2*35
2017-12-14 12:14:59 1513271699.197372: $GPZDA,171500.00,14,12,2017,00,00*66
2017-12-14 12:14:59 1513271699.197543: $GPGGA,171500,3946.9539,N,08404.9451,W,1,07,1.40,392.74,M,-33.324,M,,*7C
2017-12-14 12:14:59 1513271699.197609: $GPRMC,171500,A,3946.9539,N,08404.9451,W,0.3423,184.197,141217,,*36
2017-12-14 12:14:59 1513271699.197668: $GPGSA,A,3,24,10,20,27,32,21,15,,,,,,6.6,1.4,6.2*35
2017-12-14 12:15:00 1513271700.198610: $GPZDA,171501.00,14,12,2017,00,00*67
2017-12-14 12:15:00 1513271700.198805: $GPGGA,171501,3946.9539,N,08404.9451,W,1,07,1.40,392.74,M,-33.324,M,,*7D
2017-12-14 12:15:00 1513271700.198874: $GPRMC,171501,A,3946.9539,N,08404.9451,W,0.2422,273.794,141217,,*39
2017-12-14 12:15:00 1513271700.198951: $GPGSA,A,3,24,10,20,27,32,21,15,,,,,,6.6,1.4,6.2*35
2017-12-14 12:15:01 1513271701.535476: $GPGSV,3,1,12,24,50,112,30,10,40,300,21,18,70,334,16,20,35,094,21*78
2017-12-14 12:15:01 1513271701.535701: $GPGSV,3,2,12,27,19,291,14,32,20,237,18,21,64,189,27,15,39,052,21*7B
2017-12-14 12:15:01 1513271701.535790: $GPGSV,3,3,12,13,09,048,00,08,05,324,00,14,02,231,00,120,07,103,00*44
2017-12-14 12:15:01 1513271701.648933: $GPZDA,171502.00,14,12,2017,00,00*64
2017-12-14 12:15:01 1513271701.649098: $GPGGA,171502,3946.9539,N,08404.9451,W,1,07,1.40,392.74,M,-33.324,M,,*7E
2017-12-14 12:15:01 1513271701.649164: $GPRMC,171502,A,3946.9539,N,08404.9451,W,0.8011,299.090,141217,,*33
2017-12-14 12:15:01 1513271701.649225: $GPGSA,A,3,24,10,20,27,32,21,15,,,,,,6.6,1.4,6.2*35
2017-12-14 12:15:02 1513271702.181864: $GPZDA,171503.00,14,12,2017,00,00*65
2017-12-14 12:15:02 1513271702.182038: $GPGGA,171503,3946.9539,N,08404.9451,W,1,07,1.40,392.74,M,-33.324,M,,*7F
2017-12-14 12:15:02 1513271702.182161: $GPRMC,171503,A,3946.9539,N,08404.9451,W,0.4179,328.778,141217,,*3B
2017-12-14 12:15:02 1513271702.182224: $GPGSA,A,3,24,10,20,27,32,21,15,,,,,,6.6,1.4,6.2*35
2017-12-14 12:15:03 1513271703.197155: $GPZDA,171504.00,14,12,2017,00,00*62
2017-12-14 12:15:03 1513271703.197327: $GPGGA,171504,3946.9539,N,08404.9451,W,1,07,1.40,392.74,M,-33.324,M,,*78
2017-12-14 12:15:03 1513271703.197395: $GPRMC,171504,A,3946.9539,N,08404.9451,W,0.3423,4.197,141217,,*3B
2017-12-14 12:15:03 1513271703.197456: $GPGSA,A,3,24,10,20,27,32,21,15,,,,,,6.6,1.4,6.2*35
2017-12-14 12:15:04 1513271704.516583: $GPGSV,3,1,12,24,50,112,30,10,40,300,21,18,70,334,00,20,35,094,21*7F
2017-12-14 12:15:04 1513271704.516760: $GPGSV,3,2,12,27,19,291,14,32,20,237,18,21,64,189,27,15,39,052,22*78
2017-12-14 12:15:04 1513271704.516825: $GPGSV,3,3,12,13,09,048,00,08,05,324,00,14,02,231,00,120,07,103,00*44
2017-12-14 12:15:04 1513271704.630413: $GPZDA,171505.00,14,12,2017,00,00*63
2017-12-14 12:15:04 1513271704.630597: $GPGGA,171505,3946.9539,N,08404.9451,W,1,07,1.40,392.74,M,-33.324,M,,*79
2017-12-14 12:15:04 1513271704.630664: $GPRMC,171505,A,3946.9539,N,08404.9451,W,0.7267,93.794,141217,,*03
2017-12-14 12:15:04 1513271704.630726: $GPGSA,A,3,24,10,20,27,32,21,15,,,,,,6.6,1.4,6.2*35
2017-12-14 12:15:05 1513271705.197739: $GPZDA,171506.00,14,12,2017,00,00*60
2017-12-14 12:15:05 1513271705.197918: $GPGGA,171506,3946.9539,N,08404.9451,W,1,07,1.40,392.74,M,-33.324,M,,*7A
2017-12-14 12:15:05 1513271705.197985: $GPRMC,171506,A,3946.9539,N,08404.9451,W,0.8414,39.347,141217,,*07
2017-12-14 12:15:05 1513271705.198046: $GPGSA,A,3,24,10,20,27,32,21,15,,,,,,6.6,1.4,6.2*35
