2017-12-01 14:04:04 1512155044.086950: {"class":"VERSION","release":"3.16","rev":"3.16-4","proto_major":3,"proto_minor":11}
2017-12-01 14:04:04 1512155044.087455: {"class":"DEVICES","devices":[{"class":"DEVICE","path":"/dev/ttyUSB0","driver":"SiRF","subtype":"9\u0006GSD4e_4.1.2-P1_RPATCH.05-F-GPS-4R-1510281 11/03/2015 307","activated":"2017-12-01T19:04:03.568Z","flags":1,"native":1,"bps":4800,"parity":"N","stopbits":1,"cycle":1.00}]}
2017-12-01 14:04:04 1512155044.087575: {"class":"WATCH","enable":true,"json":false,"nmea":true,"raw":0,"scaled":false,"timing":false,"split24":false,"pps":false}
2017-12-01 14:04:04 1512155044.398674: $GPZDA,190405.00,01,12,2017,00,00*69
2017-12-01 14:04:04 1512155044.398852: $GPGGA,190405,3946.9565,N,08404.9843,W,2,12,0.80,304.15,M,-33.324,M,,*73
2017-12-01 14:04:04 1512155044.398920: $GPRMC,190405,A,3946.9565,N,08404.9843,W,0.0000,0.000,011217,,*3B
2017-12-01 14:04:04 1512155044.398982: $GPGSA,A,3,10,14,15,18,20,21,24,27,32,8,12,138,2.0,0.8,1.5*37
2017-12-01 14:04:05 1512155045.761824: $GPGSV,3,1,12,10,61,321,50,14,22,246,40,15,18,061,39,18,76,066,42*74
2017-12-01 14:04:05 1512155045.762007: $GPGSV,3,2,12,20,16,112,40,21,38,180,45,24,50,070,48,27,11,267,35*70
2017-12-01 14:04:05 1512155045.762074: $GPGSV,3,3,12,32,39,256,43,08,08,301,31,12,04,114,23,138,38,213,47*47
2017-12-01 14:04:05 1512155045.875102: $GPZDA,190406.00,01,12,2017,00,00*6A
2017-12-01 14:04:05 1512155045.875243: $GPGGA,190406,3946.9565,N,08404.9843,W,2,12,0.80,304.15,M,-33.324,M,,*70
2017-12-01 14:04:05 1512155045.875309: $GPRMC,190406,A,3946.9565,N,08404.9843,W,0.0000,0.000,011217,,*38
2017-12-01 14:04:05 1512155045.875369: $GPGSA,A,3,10,14,15,18,20,21,24,27,32,8,12,138,2.0,0.8,1.5*37
2017-12-01 14:04:06 1512155046.500594: $GPZDA,190407.00,01,12,2017,00,00*6B
2017-12-01 14:04:06 1512155046.500751: $GPGGA,190407,3946.9565,N,08404.9843,W,2,12,0.80,304.15,M,-33.324,M,,*71
2017-12-01 14:04:06 1512155046.500817: $GPRMC,190407,A,3946.9565,N,08404.9843,W,0.0000,0.000,011217,,*39
2017-12-01 14:04:06 1512155046.500878: $GPGSA,A,3,10,14,15,18,20,21,24,27,32,8,12,138,2.0,0.8,1.5*37
2017-12-01 14:04:07 1512155047.396455: $GPZDA,190408.00,01,12,2017,00,00*64
2017-12-01 14:04:07 1512155047.396630: $GPGGA,190408,3946.9565,N,08404.9843,W,2,12,0.80,304.15,M,-33.324,M,,*7E
2017-12-01 14:04:07 1512155047.396698: $GPRMC,190408,A,3946.9565,N,08404.9843,W,0.0000,0.000,011217,,*36
2017-12-01 14:04:07 1512155047.396758: $GPGSA,A,3,10,14,15,18,20,21,24,27,32,8,12,138,2.0,0.8,1.5*37
2017-12-01 14:04:08 1512155048.734715: $GPGSV,3,1,12,10,61,321,50,14,22,246,39,15,18,061,39,18,76,066,42*7A
2017-12-01 14:04:08 1512155048.734897: $GPGSV,3,2,12,20,16,112,40,21,38,180,45,24,50,070,48,27,11,267,35*70
2017-12-01 14:04:08 1512155048.734963: $GPGSV,3,3,12,32,39,256,43,08,08,301,31,12,04,114,23,138,38,213,47*47
2017-12-01 14:04:08 1512155048.848386: $GPZDA,190409.00,01,12,2017,00,00*65
2017-12-01 14:04:08 1512155048.848564: $GPGGA,190409,3946.9565,N,08404.9843,W,2,12,0.80,304.15,M,-33.324,M,,*7F
2017-12-01 14:04:08 1512155048.848631: $GPRMC,190409,A,3946.9565,N,08404.9843,W,0.0000,0.000,011217,,*37
2017-12-01 14:04:08 1512155048.848693: $GPGSA,A,3,10,14,15,18,20,21,24,27,32,8,12,138,2.0,0.8,1.5*37
2017-12-01 14:04:09 1512155049.397892: $GPZDA,190410.00,01,12,2017,00,00*6D
2017-12-01 14:04:09 1512155049.398072: $GPGGA,190410,3946.9565,N,08404.9843,W,2,12,0.80,304.15,M,-33.324,M,,*77
2017-12-01 14:04:09 1512155049.398141: $GPRMC,190410,A,3946.9565,N,08404.9843,W,0.0000,0.000,011217,,*3F
2017-12-01 14:04:09 1512155049.398203: $GPGSA,A,3,10,14,15,18,20,21,24,27,32,8,12,138,2.0,0.8,1.5*37
2017-12-01 14:04:10 1512155050.397273: $GPZDA,190411.00,01,12,2017,00,00*6C
2017-12-01 14:04:10 1512155050.397427: $GPGGA,190411,3946.9565,N,08404.9843,W,2,12,0.80,304.15,M,-33.324,M,,*76
2017-12-01 14:04:10 1512155050.397512: $GPRMC,190411,A,3946.9565,N,08404.9843,W,0.0000,0.000,011217,,*3E
2017-12-01 14:04:10 1512155050.397574: $GPGSA,A,3,10,14,15,18,20,21,24,27,32,8,12,138,2.0,0.8,1.5*37
2017-12-01 14:04:11 1512155051.762544: $GPGSV,3,1,12,10,61,321,50,14,22,246,39,15,18,061,39,18,76,066,42*7A
2017-12-01 14:04:11 1512155051.762787: $GPGSV,3,2,12,20,16,112,40,21,38,180,45,24,50,070,48,27,11,267,35*70
2017-12-01 14:04:11 1512155051.762857: $GPGSV,3,3,12,32,39,256,43,08,08,301,30,12,04,114,23,138,38,213,46*47
2017-12-01 14:04:11 1512155051.875873: $GPZDA,190412.00,01,12,2017,00,00*6F
2017-12-01 14:04:11 1512155051.876041: $GPGGA,190412,3946.9565,N,08404.9843,W,2,12,0.80,304.15,M,-33.324,M,,*75
2017-12-01 14:04:11 1512155051.876108: $GPRMC,190412,A,3946.9565,N,08404.9843,W,0.0000,0.000,011217,,*3D
2017-12-01 14:04:11 1512155051.876168: $GPGSA,A,3,10,14,15,18,20,21,24,27,32,8,12,138,2.0,0.8,1.5*37
2017-12-01 14:04:12 1512155052.400499: $GPZDA,190413.00,01,12,2017,00,00*6E
2017-12-01 14:04:12 1512155052.400675: $GPGGA,190413,3946.9565,N,08404.9843,W,2,12,0.80,304.15,M,-33.324,M,,*74
2017-12-01 14:04:12 1512155052.400742: $GPRMC,190413,A,3946.9565,N,08404.9843,W,0.0000,0.000,011217,,*3C
2017-12-01 14:04:12 1512155052.400825: $GPGSA,A,3,10,14,15,18,20,21,24,27,32,8,12,138,2.0,0.8,1.5*37
2017-12-01 14:04:13 1512155053.426416: $GPZDA,190414.00,01,12,2017,00,00*69
2017-12-01 14:04:13 1512155053.426595: $GPGGA,190414,3946.9565,N,08404.9843,W,2,12,0.80,304.15,M,-33.324,M,,*73
2017-12-01 14:04:13 1512155053.426664: $GPRMC,190414,A,3946.9565,N,08404.9843,W,0.0000,0.000,011217,,*3B
2017-12-01 14:04:13 1512155053.426725: $GPGSA,A,3,10,14,15,18,20,21,24,27,32,8,12,138,2.0,0.8,1.5*37
2017-12-01 14:04:14 1512155054.730894: $GPGSV,3,1,12,10,61,321,50,14,22,246,39,15,18,061,39,18,76,066,42*7A
2017-12-01 14:04:14 1512155054.731078: $GPGSV,3,2,12,20,16,112,40,21,38,180,45,24,50,070,48,27,11,267,37*72
2017-12-01 14:04:14 1512155054.731145: $GPGSV,3,3,12,32,39,256,43,08,08,301,24,12,04,114,23,138,38,213,47*43
2017-12-01 14:04:14 1512155054.844231: $GPZDA,190415.00,01,12,2017,00,00*68
2017-12-01 14:04:14 1512155054.844397: $GPGGA,190415,3946.9565,N,08404.9843,W,2,12,0.80,304.15,M,-33.324,M,,*72
2017-12-01 14:04:14 1512155054.844463: $GPRMC,190415,A,3946.9565,N,08404.9843,W,0.0000,0.000,011217,,*3A
2017-12-01 14:04:14 1512155054.844524: $GPGSA,A,3,10,14,15,18,20,21,24,27,32,8,12,138,2.0,0.8,1.5*37
2017-12-01 14:04:15 1512155055.398910: $GPZDA,190416.00,01,12,2017,00,00*6B
2017-12-01 14:04:15 1512155055.399092: $GPGGA,190416,3946.9565,N,08404.9843,W,2,12,0.80,304.15,M,-33.324,M,,*71
2017-12-01 14:04:15 1512155055.399182: $GPRMC,190416,A,3946.9565,N,08404.9843,W,0.0000,0.000,011217,,*39
2017-12-01 14:04:15 1512155055.399245: $GPGSA,A,3,10,14,15,18,20,21,24,27,32,8,12,138,2.0,0.8,1.5*37
2017-12-01 14:04:16 1512155056.426762: $GPZDA,190417.00,01,12,2017,00,00*6A
2017-12-01 14:04:16 1512155056.426923: $GPGGA,190417,3946.9565,N,08404.9843,W,2,12,0.80,304.15,M,-33.324,M,,*70
2017-12-01 14:04:16 1512155056.426989: $GPRMC,190417,A,3946.9565,N,08404.9843,W,0.0000,0.000,011217,,*38
2017-12-01 14:04:16 1512155056.427050: $GPGSA,A,3,10,14,15,18,20,21,24,27,32,8,12,138,2.0,0.8,1.5*37
2017-12-01 14:04:17 1512155057.733756: $GPGSV,3,1,12,10,61,321,50,14,22,246,39,15,18,061,39,18,76,066,42*7A
2017-12-01 14:04:17 1512155057.733916: $GPGSV,3,2,12,20,16,112,40,21,38,180,45,24,50,070,49,27,11,267,38*7C
2017-12-01 14:04:17 1512155057.733999: $GPGSV,3,3,12,32,39,256,43,08,08,301,22,12,04,114,22,138,38,213,47*44
2017-12-01 14:04:17 1512155057.847215: $GPZDA,190418.00,01,12,2017,00,00*65
2017-12-01 14:04:17 1512155057.847392: $GPGGA,190418,3946.9565,N,08404.9843,W,2,12,0.80,304.15,M,-33.324,M,,*7F
2017-12-01 14:04:17 1512155057.847462: $GPRMC,190418,A,3946.9565,N,08404.9843,W,0.0000,0.000,011217,,*37
2017-12-01 14:04:17 1512155057.847523: $GPGSA,A,3,10,14,15,18,20,21,24,27,32,8,12,138,2.0,0.8,1.5*37
2017-12-01 14:04:18 1512155058.426759: $GPZDA,190419.00,01,12,2017,00,00*64
2017-12-01 14:04:18 1512155058.426936: $GPGGA,190419,3946.9565,N,08404.9843,W,2,12,0.80,304.15,M,-33.324,M,,*7E
2017-12-01 14:04:18 1512155058.427002: $GPRMC,190419,A,3946.9565,N,08404.9843,W,0.0000,0.000,011217,,*36
2017-12-01 14:04:18 1512155058.427064: $GPGSA,A,3,10,14,15,18,20,21,24,27,32,8,12,138,2.0,0.8,1.5*37
