2017-11-15 19:31:11 1510792271.162820: {"class":"VERSION","release":"3.17","rev":"3.17","proto_major":3,"proto_minor":12}
2017-11-15 19:31:11 1510792271.163262: {"class":"DEVICES","devices":[{"class":"DEVICE","path":"/dev/ttyUSB0","driver":"SiRF","subtype":"9\u0006GSD4e_4.1.2-P1_RPATCH.05-F-GPS-4R-1510281 11/03/2015 307","activated":"2017-11-16T00:31:10.661Z","flags":1,"native":1,"bps":4800,"parity":"N","stopbits":1,"cycle":1.00}]}
2017-11-15 19:31:11 1510792271.163369: {"class":"WATCH","enable":true,"json":false,"nmea":true,"raw":0,"scaled":false,"timing":false,"split24":false,"pps":false}
2017-11-15 19:31:11 1510792271.346550: $GPZDA,003110.00,16,11,2017,00,00*66
2017-11-15 19:31:11 1510792271.346840: $GPGGA,003110,3946.9613,N,08404.9446,W,1,08,2.00,282.54,M,-33.324,M,,*7A
2017-11-15 19:31:11 1510792271.346934: $GPRMC,003110,A,3946.9613,N,08404.9446,W,0.7278,203.636,161117,,*37
2017-11-15 19:31:11 1510792271.346992: $GPGSA,A,3,32,16,26,14,31,3,23,22,,,,,3.4,2.0,2.9*0B
2017-11-15 19:31:12 1510792272.666313: $GPGSV,3,1,12,32,36,108,23,01,05,252,04,16,23,190,12,26,53,172,13*78
2017-11-15 19:31:12 1510792272.666479: $GPGSV,3,2,12,14,55,093,18,31,67,025,13,03,40,298,20,25,17,040,00*78
2017-11-15 19:31:12 1510792272.666539: $GPGSV,3,3,12,23,11,301,09,29,11,070,00,22,50,270,17,138,38,213,00*4B
2017-11-15 19:31:12 1510792272.779634: $GPZDA,003111.00,16,11,2017,00,00*67
2017-11-15 19:31:12 1510792272.779809: $GPGGA,003111,3946.9609,N,08404.9446,W,1,08,2.00,281.90,M,-33.324,M,,*7B
2017-11-15 19:31:12 1510792272.779887: $GPRMC,003111,A,3946.9609,N,08404.9446,W,1.0567,197.448,161117,,*37
2017-11-15 19:31:12 1510792272.779945: $GPGSA,A,3,32,16,26,14,31,3,23,22,,,,,3.4,2.0,2.9*0B
2017-11-15 19:31:13 1510792273.345534: $GPZDA,003112.00,16,11,2017,00,00*64
2017-11-15 19:31:13 1510792273.345731: $GPGGA,003112,3946.9609,N,08404.9446,W,1,08,2.00,281.90,M,-33.324,M,,*78
2017-11-15 19:31:13 1510792273.345794: $GPRMC,003112,A,3946.9609,N,08404.9446,W,0.7278,203.636,161117,,*3E
2017-11-15 19:31:13 1510792273.345867: $GPGSA,A,3,32,16,26,14,31,3,23,22,,,,,3.4,2.0,2.9*0B
2017-11-15 19:31:14 1510792274.345185: $GPZDA,003113.00,16,11,2017,00,00*65
2017-11-15 19:31:14 1510792274.345350: $GPGGA,003113,3946.9609,N,08404.9453,W,1,08,2.00,281.82,M,-33.324,M,,*7E
2017-11-15 19:31:14 1510792274.345412: $GPRMC,003113,A,3946.9609,N,08404.9453,W,1.0018,230.691,161117,,*34
2017-11-15 19:31:14 1510792274.345467: $GPGSA,A,3,32,16,26,14,31,3,23,22,,,,,3.4,2.0,2.9*0B
2017-11-15 19:31:15 1510792275.665671: $GPGSV,3,1,12,32,36,108,23,25,17,040,00,16,23,190,14,26,53,172,14*79
2017-11-15 19:31:15 1510792275.665876: $GPGSV,3,2,12,14,55,093,18,31,67,025,12,03,40,298,20,29,11,070,00*70
2017-11-15 19:31:15 1510792275.665937: $GPGSV,3,3,12,23,11,301,08,01,05,252,00,22,50,270,16,138,38,213,00*46
2017-11-15 19:31:15 1510792275.779029: $GPZDA,003114.00,16,11,2017,00,00*62
2017-11-15 19:31:15 1510792275.779214: $GPGGA,003114,3946.9609,N,08404.9453,W,1,08,2.00,281.82,M,-33.324,M,,*79
2017-11-15 19:31:15 1510792275.779276: $GPRMC,003114,A,3946.9609,N,08404.9453,W,0.5951,238.684,161117,,*3F
2017-11-15 19:31:15 1510792275.779333: $GPGSA,A,3,32,16,26,14,31,3,23,22,,,,,3.4,2.0,2.9*0B
2017-11-15 19:31:16 1510792276.404635: $GPZDA,003115.00,16,11,2017,00,00*63
2017-11-15 19:31:16 1510792276.404807: $GPGGA,003115,3946.9605,N,08404.9454,W,1,08,2.00,282.59,M,-33.324,M,,*76
2017-11-15 19:31:16 1510792276.404886: $GPRMC,003115,A,3946.9605,N,08404.9454,W,0.7278,203.636,161117,,*36
2017-11-15 19:31:16 1510792276.404944: $GPGSA,A,3,32,16,26,14,31,3,23,22,,,,,3.4,2.0,2.9*0B
2017-11-15 19:31:17 1510792277.329258: $GPZDA,003116.00,16,11,2017,00,00*60
2017-11-15 19:31:17 1510792277.329423: $GPGGA,003116,3946.9601,N,08404.9454,W,1,08,2.00,281.95,M,-33.324,M,,*72
2017-11-15 19:31:17 1510792277.329485: $GPRMC,003116,A,3946.9601,N,08404.9454,W,0.6846,184.197,161117,,*37
2017-11-15 19:31:17 1510792277.329541: $GPGSA,A,3,32,16,26,14,31,3,23,22,,,,,3.4,2.0,2.9*0B
2017-11-15 19:31:18 1510792278.681059: $GPGSV,3,1,12,32,36,108,23,25,17,040,00,16,23,190,15,26,53,172,15*79
2017-11-15 19:31:18 1510792278.681285: $GPGSV,3,2,12,14,55,093,19,31,67,025,11,03,40,298,19,29,11,070,00*78
2017-11-15 19:31:18 1510792278.681347: $GPGSV,3,3,12,23,11,301,05,01,05,252,00,22,50,270,16,138,38,213,00*4B
2017-11-15 19:31:18 1510792278.794497: $GPZDA,003117.00,16,11,2017,00,00*61
2017-11-15 19:31:18 1510792278.794820: $GPGGA,003117,3946.9601,N,08404.9454,W,1,07,2.00,281.95,M,-33.324,M,,*7C
2017-11-15 19:31:18 1510792278.794969: $GPRMC,003117,A,3946.9601,N,08404.9454,W,0.5857,158.291,161117,,*31
2017-11-15 19:31:18 1510792278.795068: $GPGSA,A,3,32,16,26,14,31,3,22,,,,,,3.4,2.0,2.9*0A
2017-11-15 19:31:19 1510792279.346783: $GPZDA,003118.00,16,11,2017,00,00*6E
2017-11-15 19:31:19 1510792279.346961: $GPGGA,003118,3946.9601,N,08404.9454,W,1,07,2.00,281.95,M,-33.324,M,,*73
2017-11-15 19:31:19 1510792279.347021: $GPRMC,003118,A,3946.9601,N,08404.9454,W,0.4179,148.778,161117,,*39
2017-11-15 19:31:19 1510792279.347077: $GPGSA,A,3,32,16,26,14,31,3,22,,,,,,3.4,2.0,2.9*0A
2017-11-15 19:31:20 1510792280.346296: $GPZDA,003119.00,16,11,2017,00,00*6F
2017-11-15 19:31:20 1510792280.347845: $GPGGA,003119,3946.9601,N,08404.9454,W,1,07,2.00,281.95,M,-33.324,M,,*72
2017-11-15 19:31:20 1510792280.347946: $GPRMC,003119,A,3946.9601,N,08404.9454,W,0.5306,114.352,161117,,*36
2017-11-15 19:31:20 1510792280.348004: $GPGSA,A,3,32,16,26,14,31,3,22,,,,,,3.4,2.0,2.9*0A
