2017-12-14 12:01:34 1513270894.773108: {"class":"VERSION","release":"3.16","rev":"3.16-4","proto_major":3,"proto_minor":11}
2017-12-14 12:01:34 1513270894.773466: {"class":"DEVICES","devices":[{"class":"DEVICE","path":"/dev/ttyUSB0","driver":"SiRF","subtype":"9\u0006GSD4e_4.1.2-P1_RPATCH.05-F-GPS-4R-1510281 11/03/2015 307","activated":"2017-12-14T17:01:34.527Z","flags":1,"native":1,"bps":4800,"parity":"N","stopbits":1,"cycle":1.00}]}
2017-12-14 12:01:34 1513270894.773582: {"class":"WATCH","enable":true,"json":false,"nmea":true,"raw":0,"scaled":false,"timing":false,"split24":false,"pps":false}
2017-12-14 12:01:35 1513270895.549298: $GPGSV,3,1,11,21,71,196,13,15,44,051,24,18,66,322,17,20,40,088,25*79
2017-12-14 12:01:35 1513270895.549476: $GPGSV,3,2,11,24,46,121,23,10,35,295,12,27,19,297,05,32,15,234,00*71
2017-12-14 12:01:35 1513270895.549542: $GPGSV,3,3,11,13,14,046,00,08,03,328,00,138,38,213,00*7F
2017-12-14 12:01:35 1513270895.663047: $GPZDA,170136.00,14,12,2017,00,00*66
2017-12-14 12:01:35 1513270895.663196: $GPGGA,170136,3946.9561,N,08404.9329,W,1,06,1.80,340.94,M,-33.324,M,,*75
2017-12-14 12:01:35 1513270895.663260: $GPRMC,170136,A,3946.9561,N,08404.9329,W,1.0253,113.297,141217,,*3D
2017-12-14 12:01:35 1513270895.663322: $GPGSA,A,3,21,15,18,20,24,10,,,,,,,6.6,1.8,6.2*34
2017-12-14 12:01:36 1513270896.214395: $GPZDA,170137.00,14,12,2017,00,00*67
2017-12-14 12:01:36 1513270896.214565: $GPGGA,170137,3946.9561,N,08404.9322,W,1,06,1.80,341.02,M,-33.324,M,,*71
2017-12-14 12:01:36 1513270896.214631: $GPRMC,170137,A,3946.9561,N,08404.9322,W,1.2375,102.454,141217,,*39
2017-12-14 12:01:36 1513270896.214693: $GPGSA,A,3,21,15,18,20,24,10,,,,,,,6.6,1.8,6.2*34
2017-12-14 12:01:37 1513270897.215699: $GPZDA,170138.00,14,12,2017,00,00*68
2017-12-14 12:01:37 1513270897.215862: $GPGGA,170138,3946.9556,N,08404.9322,W,1,06,1.80,340.38,M,-33.324,M,,*72
2017-12-14 12:01:37 1513270897.215927: $GPRMC,170138,A,3946.9556,N,08404.9322,W,1.7007,124.596,141217,,*3A
2017-12-14 12:01:37 1513270897.215987: $GPGSA,A,3,21,15,18,20,24,10,,,,,,,6.6,1.8,6.2*34
2017-12-14 12:01:38 1513270898.549237: $GPGSV,3,1,11,21,71,196,12,15,44,051,24,18,66,322,16,20,40,088,24*78
2017-12-14 12:01:38 1513270898.549399: $GPGSV,3,2,11,24,46,121,22,10,35,295,12,27,19,297,06,13,14,046,13*74
2017-12-14 12:01:38 1513270898.549465: $GPGSV,3,3,11,32,15,234,00,08,03,328,00,138,38,213,00*7A
2017-12-14 12:01:38 1513270898.662750: $GPZDA,170139.00,14,12,2017,00,00*69
2017-12-14 12:01:38 1513270898.662917: $GPGGA,170139,3946.9553,N,08404.9315,W,1,07,1.80,341.22,M,-33.324,M,,*79
2017-12-14 12:01:38 1513270898.662983: $GPRMC,170139,A,3946.9553,N,08404.9315,W,1.9128,120.878,141217,,*31
2017-12-14 12:01:38 1513270898.663044: $GPGSA,A,3,21,15,18,20,24,10,27,,,,,,6.6,1.8,6.2*31
2017-12-14 12:01:39 1513270899.216580: $GPZDA,170140.00,14,12,2017,00,00*67
2017-12-14 12:01:39 1513270899.216755: $GPGGA,170140,3946.9548,N,08404.9308,W,1,07,1.80,340.66,M,-33.324,M,,*70
2017-12-14 12:01:39 1513270899.216822: $GPRMC,170140,A,3946.9548,N,08404.9308,W,1.8622,142.515,141217,,*37
2017-12-14 12:01:39 1513270899.216883: $GPGSA,A,3,21,15,18,20,24,10,27,,,,,,6.6,1.8,6.2*31
2017-12-14 12:01:40 1513270900.232454: $GPZDA,170141.00,14,12,2017,00,00*66
2017-12-14 12:01:40 1513270900.232622: $GPGGA,170141,3946.9545,N,08404.9309,W,1,07,1.80,341.42,M,-33.324,M,,*7A
2017-12-14 12:01:40 1513270900.232687: $GPRMC,170141,A,3946.9545,N,08404.9309,W,0.9066,129.459,141217,,*38
2017-12-14 12:01:40 1513270900.232748: $GPGSA,A,3,21,15,18,20,24,10,27,,,,,,6.6,1.8,6.2*31
2017-12-14 12:01:41 1513270901.552405: $GPGSV,3,1,11,21,71,196,12,15,44,051,24,18,66,322,13,20,40,088,24*7D
2017-12-14 12:01:41 1513270901.552585: $GPGSV,3,2,11,24,46,121,22,10,35,295,12,27,19,297,08,13,14,046,13*7A
2017-12-14 12:01:41 1513270901.552651: $GPGSV,3,3,11,32,15,234,00,08,03,328,00,138,38,213,00*7A
2017-12-14 12:01:41 1513270901.664520: $GPZDA,170142.00,14,12,2017,00,00*65
2017-12-14 12:01:41 1513270901.664684: $GPGGA,170142,3946.9545,N,08404.9309,W,1,07,1.80,341.42,M,-33.324,M,,*79
2017-12-14 12:01:41 1513270901.664749: $GPRMC,170142,A,3946.9545,N,08404.9309,W,0.3423,184.197,141217,,*34
2017-12-14 12:01:41 1513270901.664862: $GPGSA,A,3,21,15,18,20,24,10,27,,,,,,6.6,1.8,6.2*31
2017-12-14 12:01:42 1513270902.232155: $GPZDA,170143.00,14,12,2017,00,00*64
2017-12-14 12:01:42 1513270902.232338: $GPGGA,170143,3946.9541,N,08404.9316,W,1,07,1.80,340.70,M,-33.324,M,,*72
2017-12-14 12:01:42 1513270902.232404: $GPRMC,170143,A,3946.9541,N,08404.9316,W,0.5951,238.685,141217,,*31
2017-12-14 12:01:42 1513270902.232466: $GPGSA,A,3,21,15,18,20,24,10,27,,,,,,6.6,1.8,6.2*31
2017-12-14 12:01:43 1513270903.214767: $GPZDA,170144.00,14,12,2017,00,00*63
2017-12-14 12:01:43 1513270903.214944: $GPGGA,170144,3946.9541,N,08404.9323,W,1,07,1.80,340.63,M,-33.324,M,,*71
2017-12-14 12:01:43 1513270903.215010: $GPRMC,170144,A,3946.9541,N,08404.9323,W,0.5951,238.685,141217,,*30
2017-12-14 12:01:43 1513270903.215072: $GPGSA,A,3,21,15,18,20,24,10,27,,,,,,6.6,1.8,6.2*31
2017-12-14 12:01:44 1513270904.567227: $GPGSV,3,1,11,32,15,234,00,15,44,051,25,18,66,322,17,20,40,088,23*77
2017-12-14 12:01:44 1513270904.567414: $GPGSV,3,2,11,24,46,121,21,10,35,295,12,27,19,297,08,13,14,046,00*7B
2017-12-14 12:01:44 1513270904.567480: $GPGSV,3,3,11,21,71,196,00,08,03,328,00,138,38,213,00*71
2017-12-14 12:01:44 1513270904.680798: $GPZDA,170145.00,14,12,2017,00,00*62
2017-12-14 12:01:44 1513270904.680980: $GPGGA,170145,3946.9541,N,08404.9323,W,1,06,1.80,340.63,M,-33.324,M,,*71
2017-12-14 12:01:44 1513270904.681047: $GPRMC,170145,A,3946.9541,N,08404.9323,W,0.5951,238.685,141217,,*31
2017-12-14 12:01:44 1513270904.681107: $GPGSA,A,3,15,18,20,24,10,27,,,,,,,6.6,1.8,6.2*32
2017-12-14 12:01:45 1513270905.229015: $GPZDA,170146.00,14,12,2017,00,00*61
2017-12-14 12:01:45 1513270905.229173: $GPGGA,170146,3946.9542,N,08404.9330,W,1,06,1.80,340.55,M,-33.324,M,,*76
2017-12-14 12:01:45 1513270905.229239: $GPRMC,170146,A,3946.9542,N,08404.9330,W,0.2422,273.795,141217,,*32
2017-12-14 12:01:45 1513270905.229300: $GPGSA,A,3,15,18,20,24,10,27,,,,,,,6.6,1.8,6.2*32
2017-12-14 12:01:46 1513270906.229363: $GPZDA,170147.00,14,12,2017,00,00*60
2017-12-14 12:01:46 1513270906.229533: $GPGGA,170147,3946.9538,N,08404.9331,W,1,06,1.80,341.31,M,-33.324,M,,*78
2017-12-14 12:01:46 1513270906.229598: $GPRMC,170147,A,3946.9538,N,08404.9331,W,0.8054,248.645,141217,,*34
2017-12-14 12:01:46 1513270906.229659: $GPGSA,A,3,15,18,20,24,10,27,,,,,,,6.6,1.8,6.2*32
2017-12-14 12:01:47 1513270907.566579: $GPGSV,3,1,11,13,14,046,02,15,44,051,26,18,66,322,17,20,40,088,23*73
2017-12-14 12:01:47 1513270907.566756: $GPGSV,3,2,11,24,46,121,21,10,35,295,05,27,19,297,07,32,15,234,00*77
2017-12-14 12:01:47 1513270907.566821: $GPGSV,3,3,11,21,71,196,00,08,03,328,00,138,38,213,00*71
2017-12-14 12:01:47 1513270907.680252: $GPZDA,170148.00,14,12,2017,00,00*6F
2017-12-14 12:01:47 1513270907.680423: $GPGGA,170148,3946.9534,N,08404.9338,W,1,05,2.40,340.59,M,-33.324,M,,*71
2017-12-14 12:01:47 1513270907.680489: $GPRMC,170148,A,3946.9534,N,08404.9338,W,0.5230,256.444,141217,,*3F
2017-12-14 12:01:47 1513270907.680549: $GPGSA,A,3,15,18,20,24,27,,,,,,,,6.6,2.4,6.2*3C
2017-12-14 12:01:48 1513270908.227856: $GPZDA,170149.00,14,12,2017,00,00*6E
2017-12-14 12:01:48 1513270908.228026: $GPGGA,170149,3946.9535,N,08404.9345,W,1,05,2.40,340.51,M,-33.324,M,,*73
2017-12-14 12:01:48 1513270908.228092: $GPRMC,170149,A,3946.9535,N,08404.9345,W,0.5951,238.684,141217,,*3F
2017-12-14 12:01:48 1513270908.228154: $GPGSA,A,3,15,18,20,24,27,,,,,,,,6.6,2.4,6.2*3C
2017-12-14 12:01:49 1513270909.229447: $GPZDA,170150.00,14,12,2017,00,00*66
2017-12-14 12:01:49 1513270909.229664: $GPGGA,170150,3946.9535,N,08404.9345,W,1,05,2.40,340.51,M,-33.324,M,,*7B
2017-12-14 12:01:49 1513270909.229751: $GPRMC,170150,A,3946.9535,N,08404.9345,W,0.2422,273.795,141217,,*37
2017-12-14 12:01:49 1513270909.229814: $GPGSA,A,3,15,18,20,24,27,,,,,,,,6.6,2.4,6.2*3C
2017-12-14 12:01:50 1513270910.563466: $GPGSV,3,1,11,13,14,046,13,15,44,051,26,18,66,322,17,20,40,088,22*72
2017-12-14 12:01:50 1513270910.563644: $GPGSV,3,2,11,24,46,121,20,10,35,295,04,27,19,297,06,32,15,234,00*76
2017-12-14 12:01:50 1513270910.563761: $GPGSV,3,3,11,21,71,196,00,08,03,328,00,120,07,103,00*76
2017-12-14 12:01:50 1513270910.677160: $GPZDA,170151.00,14,12,2017,00,00*67
2017-12-14 12:01:50 1513270910.677330: $GPGGA,170151,3946.9531,N,08404.9345,W,1,05,2.40,341.28,M,-33.324,M,,*71
2017-12-14 12:01:50 1513270910.677397: $GPRMC,170151,A,3946.9531,N,08404.9345,W,0.3155,309.994,141217,,*35
2017-12-14 12:01:50 1513270910.677458: $GPGSA,A,3,15,18,20,24,27,,,,,,,,6.6,2.4,6.2*3C
2017-12-14 12:01:51 1513270911.210976: $GPZDA,170152.00,14,12,2017,00,00*64
2017-12-14 12:01:51 1513270911.211153: $GPGGA,170152,3946.9532,N,08404.9352,W,1,05,2.40,341.20,M,-33.324,M,,*7F
2017-12-14 12:01:51 1513270911.211219: $GPRMC,170152,A,3946.9532,N,08404.9352,W,0.6846,4.197,141217,,*38
2017-12-14 12:01:51 1513270911.211281: $GPGSA,A,3,15,18,20,24,27,,,,,,,,6.6,2.4,6.2*3C
2017-12-14 12:01:52 1513270912.229976: $GPZDA,170153.00,14,12,2017,00,00*65
2017-12-14 12:01:52 1513270912.230154: $GPGGA,170153,3946.9532,N,08404.9352,W,1,05,2.40,341.20,M,-33.324,M,,*7E
2017-12-14 12:01:52 1513270912.230221: $GPRMC,170153,A,3946.9532,N,08404.9352,W,0.7278,23.637,141217,,*07
2017-12-14 12:01:52 1513270912.230283: $GPGSA,A,3,15,18,20,24,27,,,,,,,,6.6,2.4,6.2*3C
2017-12-14 12:01:53 1513270913.547085: $GPGSV,3,1,11,32,15,234,00,15,44,051,26,18,66,322,17,20,40,088,22*75
2017-12-14 12:01:53 1513270913.547273: $GPGSV,3,2,11,24,46,121,20,10,35,295,05,27,19,297,06,13,14,046,00*72
2017-12-14 12:01:53 1513270913.547355: $GPGSV,3,3,11,21,71,196,00,08,03,328,00,120,07,103,00*76
2017-12-14 12:01:53 1513270913.660745: $GPZDA,170154.00,14,12,2017,00,00*62
2017-12-14 12:01:53 1513270913.660916: $GPGGA,170154,3946.9535,N,08404.9352,W,1,05,2.40,340.43,M,-33.324,M,,*7A
2017-12-14 12:01:53 1513270913.660983: $GPRMC,170154,A,3946.9535,N,08404.9352,W,1.1385,29.379,141217,,*06
2017-12-14 12:01:53 1513270913.661048: $GPGSA,A,3,15,18,20,24,27,,,,,,,,6.6,2.4,6.2*3C
2017-12-14 12:01:54 1513270914.228380: $GPZDA,170155.00,14,12,2017,00,00*63
2017-12-14 12:01:54 1513270914.228563: $GPGGA,170155,3946.9535,N,08404.9352,W,1,05,2.40,340.43,M,-33.324,M,,*7B
2017-12-14 12:01:54 1513270914.231109: $GPRMC,170155,A,3946.9535,N,08404.9352,W,1.4115,34.536,141217,,*08
2017-12-14 12:01:54 1513270914.231195: $GPGSA,A,3,15,18,20,24,27,,,,,,,,6.6,2.4,6.2*3C
