2017-11-16 15:29:05 1510864145.337664: {"class":"VERSION","release":"3.17","rev":"3.17","proto_major":3,"proto_minor":12}
2017-11-16 15:29:05 1510864145.338153: {"class":"DEVICES","devices":[{"class":"DEVICE","path":"/dev/ttyUSB0","driver":"SiRF","subtype":"9\u0006GSD4e_4.1.2-P1_RPATCH.05-F-GPS-4R-1510281 11/03/2015 307","activated":"2017-11-16T20:29:05.271Z","flags":1,"native":1,"bps":4800,"parity":"N","stopbits":1,"cycle":1.00}]}
2017-11-16 15:29:05 1510864145.338273: {"class":"WATCH","enable":true,"json":false,"nmea":true,"raw":0,"scaled":false,"timing":false,"split24":false,"pps":false}
2017-11-16 15:29:05 1510864145.384977: $GPZDA,202904.00,16,11,2017,00,00*68
2017-11-16 15:29:05 1510864145.385138: $GPGGA,202904,3946.9568,N,08404.9860,W,2,12,0.80,309.61,M,-33.324,M,,*75
2017-11-16 15:29:05 1510864145.385198: $GPRMC,202904,A,3946.9568,N,08404.9860,W,0.0000,0.000,161117,,*36
2017-11-16 15:29:05 1510864145.385254: $GPGSA,A,3,8,10,14,20,18,15,21,24,27,32,12,138,1.6,0.8,1.3*34
2017-11-16 15:29:06 1510864146.370360: $GPZDA,202905.00,16,11,2017,00,00*69
2017-11-16 15:29:06 1510864146.370532: $GPGGA,202905,3946.9568,N,08404.9860,W,2,12,0.80,309.61,M,-33.324,M,,*74
2017-11-16 15:29:06 1510864146.370594: $GPRMC,202905,A,3946.9568,N,08404.9860,W,0.0000,0.000,161117,,*37
2017-11-16 15:29:06 1510864146.370650: $GPGSA,A,3,8,10,14,20,18,15,21,24,27,32,12,138,1.6,0.8,1.3*34
2017-11-16 15:29:07 1510864147.706124: $GPGSV,3,1,12,08,05,292,33,10,70,333,50,14,30,255,44,20,07,118,25*72
2017-11-16 15:29:07 1510864147.706304: $GPGSV,3,2,12,18,70,097,47,15,10,067,29,21,28,180,43,24,44,057,50*71
2017-11-16 15:29:07 1510864147.706386: $GPGSV,3,3,12,27,05,258,33,32,47,267,47,12,10,106,29,138,38,213,44*48
2017-11-16 15:29:07 1510864147.818173: $GPZDA,202906.00,16,11,2017,00,00*6A
2017-11-16 15:29:07 1510864147.818334: $GPGGA,202906,3946.9568,N,08404.9860,W,2,12,0.80,309.61,M,-33.324,M,,*77
2017-11-16 15:29:07 1510864147.818394: $GPRMC,202906,A,3946.9568,N,08404.9860,W,0.0000,0.000,161117,,*34
2017-11-16 15:29:07 1510864147.818451: $GPGSA,A,3,8,10,14,20,18,15,21,24,27,32,12,138,1.6,0.8,1.3*34
2017-11-16 15:29:08 1510864148.377768: $GPZDA,202907.00,16,11,2017,00,00*6B
2017-11-16 15:29:08 1510864148.377943: $GPGGA,202907,3946.9568,N,08404.9860,W,2,12,0.80,309.61,M,-33.324,M,,*76
2017-11-16 15:29:08 1510864148.378004: $GPRMC,202907,A,3946.9568,N,08404.9860,W,0.0000,0.000,161117,,*35
2017-11-16 15:29:08 1510864148.378060: $GPGSA,A,3,8,10,14,20,18,15,21,24,27,32,12,138,1.6,0.8,1.3*34
2017-11-16 15:29:09 1510864149.368633: $GPZDA,202908.00,16,11,2017,00,00*64
2017-11-16 15:29:09 1510864149.368805: $GPGGA,202908,3946.9568,N,08404.9860,W,2,12,0.80,309.61,M,-33.324,M,,*79
2017-11-16 15:29:09 1510864149.368867: $GPRMC,202908,A,3946.9568,N,08404.9860,W,0.0000,0.000,161117,,*3A
2017-11-16 15:29:09 1510864149.368923: $GPGSA,A,3,8,10,14,20,18,15,21,24,27,32,12,138,1.6,0.8,1.3*34
2017-11-16 15:29:10 1510864150.720799: $GPGSV,3,1,12,08,05,292,32,10,70,333,50,14,30,255,43,20,07,118,25*74
2017-11-16 15:29:10 1510864150.720983: $GPGSV,3,2,12,18,70,097,47,15,10,067,30,21,28,180,43,24,44,057,50*79
2017-11-16 15:29:10 1510864150.721043: $GPGSV,3,3,12,27,05,258,33,32,47,267,47,12,10,106,29,138,38,213,43*4F
2017-11-16 15:29:10 1510864150.834015: $GPZDA,202909.00,16,11,2017,00,00*65
2017-11-16 15:29:10 1510864150.834180: $GPGGA,202909,3946.9568,N,08404.9860,W,2,12,0.80,309.61,M,-33.324,M,,*78
2017-11-16 15:29:10 1510864150.834242: $GPRMC,202909,A,3946.9568,N,08404.9860,W,0.0000,0.000,161117,,*3B
2017-11-16 15:29:10 1510864150.834298: $GPGSA,A,3,8,10,14,20,18,15,21,24,27,32,12,138,1.6,0.8,1.3*34
2017-11-16 15:29:11 1510864151.459407: $GPZDA,202910.00,16,11,2017,00,00*6D
2017-11-16 15:29:11 1510864151.459583: $GPGGA,202910,3946.9568,N,08404.9860,W,2,12,0.80,309.61,M,-33.324,M,,*70
2017-11-16 15:29:11 1510864151.459645: $GPRMC,202910,A,3946.9568,N,08404.9860,W,0.0000,0.000,161117,,*33
2017-11-16 15:29:11 1510864151.459702: $GPGSA,A,3,8,10,14,20,18,15,21,24,27,32,12,138,1.6,0.8,1.3*34
2017-11-16 15:29:12 1510864152.368963: $GPZDA,202911.00,16,11,2017,00,00*6C
2017-11-16 15:29:12 1510864152.369189: $GPGGA,202911,3946.9568,N,08404.9860,W,2,12,0.80,309.61,M,-33.324,M,,*71
2017-11-16 15:29:12 1510864152.369253: $GPRMC,202911,A,3946.9568,N,08404.9860,W,0.0000,0.000,161117,,*32
2017-11-16 15:29:12 1510864152.369311: $GPGSA,A,3,8,10,14,20,18,15,21,24,27,32,12,138,1.6,0.8,1.3*34
2017-11-16 15:29:13 1510864153.721044: $GPGSV,3,1,12,08,05,292,24,10,70,333,50,14,30,255,43,20,07,118,25*73
2017-11-16 15:29:13 1510864153.721193: $GPGSV,3,2,12,18,70,097,47,15,10,067,30,21,28,180,42,24,44,057,50*78
2017-11-16 15:29:13 1510864153.721254: $GPGSV,3,3,12,27,05,258,33,32,47,267,47,12,10,106,30,138,38,213,44*40
2017-11-16 15:29:13 1510864153.834330: $GPZDA,202912.00,16,11,2017,00,00*6F
2017-11-16 15:29:13 1510864153.834493: $GPGGA,202912,3946.9568,N,08404.9860,W,2,12,0.80,309.61,M,-33.324,M,,*72
2017-11-16 15:29:13 1510864153.834554: $GPRMC,202912,A,3946.9568,N,08404.9860,W,0.0000,0.000,161117,,*31
2017-11-16 15:29:13 1510864153.834610: $GPGSA,A,3,8,10,14,20,18,15,21,24,27,32,12,138,1.6,0.8,1.3*34
2017-11-16 15:29:14 1510864154.366421: $GPZDA,202913.00,16,11,2017,00,00*6E
2017-11-16 15:29:14 1510864154.366582: $GPGGA,202913,3946.9568,N,08404.9860,W,2,12,0.80,309.61,M,-33.324,M,,*73
2017-11-16 15:29:14 1510864154.366642: $GPRMC,202913,A,3946.9568,N,08404.9860,W,0.0000,0.000,161117,,*30
2017-11-16 15:29:14 1510864154.366698: $GPGSA,A,3,8,10,14,20,18,15,21,24,27,32,12,138,1.6,0.8,1.3*34
