2017-12-01 11:44:59 1512146699.856865: {"class":"VERSION","release":"3.16","rev":"3.16-4","proto_major":3,"proto_minor":11}
2017-12-01 11:44:59 1512146699.857276: {"class":"DEVICES","devices":[{"class":"DEVICE","path":"/dev/ttyUSB0","driver":"SiRF","subtype":"9\u0006GSD4e_4.1.2-P1_RPATCH.05-F-GPS-4R-1510281 11/03/2015 307","activated":"2017-12-01T16:44:59.835Z","flags":1,"native":1,"bps":4800,"parity":"N","stopbits":1,"cycle":1.00}]}
2017-12-01 11:44:59 1512146699.857400: {"class":"WATCH","enable":true,"json":false,"nmea":true,"raw":0,"scaled":false,"timing":false,"split24":false,"pps":false}
2017-12-01 11:45:00 1512146700.888303: $GPZDA,164501.57,01,12,2017,00,00*65
2017-12-01 11:45:00 1512146700.888490: $GPGGA,164501,3946.9563,N,08404.9877,W,1,11,1.00,288.86,M,-33.324,M,,*7A
2017-12-01 11:45:00 1512146700.888560: $GPRMC,164501,A,3946.9563,N,08404.9877,W,0.8763,31.534,011217,,*0E
2017-12-01 11:45:00 1512146700.888638: $GPGSA,A,3,10,13,15,18,20,21,24,27,29,5,138,,2.0,1.0,1.5*3D
2017-12-01 11:45:00 1512146700.888698: $GPGBS,164501,10.70,M,15.43,M,35.28,M*00
2017-12-01 11:45:01 1512146701.820998: $GPZDA,164502.26,01,12,2017,00,00*60
2017-12-01 11:45:01 1512146701.821191: $GPGGA,164502,3946.9567,N,08404.9877,W,1,11,1.00,289.50,M,-33.324,M,,*77
2017-12-01 11:45:01 1512146701.821314: $GPRMC,164502,A,3946.9567,N,08404.9877,W,0.2872,195.166,011217,,*30
2017-12-01 11:45:01 1512146701.821815: $GPGSA,A,3,10,13,15,18,20,21,24,27,29,5,138,,2.0,1.0,1.5*3D
2017-12-01 11:45:01 1512146701.821895: $GPGBS,164502,10.70,M,15.43,M,35.28,M*03
2017-12-01 11:45:02 1512146702.962924: $GPGSV,3,1,12,10,13,273,34,13,42,049,46,15,75,070,47,18,44,286,47*75
2017-12-01 11:45:02 1512146702.963105: $GPGSV,3,2,12,20,62,052,43,21,68,304,46,24,21,148,43,27,09,324,40*77
2017-12-01 11:45:02 1512146702.963172: $GPGSV,3,3,12,29,23,195,44,05,13,078,08,04,12,130,00,138,38,213,00*49
2017-12-01 11:45:03 1512146703.076353: $GPZDA,164503.00,01,12,2017,00,00*65
2017-12-01 11:45:03 1512146703.076544: $GPGGA,164503,3946.9564,N,08404.9870,W,1,09,1.00,290.35,M,-33.324,M,,*70
2017-12-01 11:45:03 1512146703.076629: $GPRMC,164503,A,3946.9564,N,08404.9870,W,0.1324,202.230,011217,,*33
2017-12-01 11:45:03 1512146703.076693: $GPGSA,A,3,10,13,15,18,20,21,24,27,29,,,,2.0,1.0,1.5*32
2017-12-01 11:45:03 1512146703.527369: $GPZDA,164504.00,01,12,2017,00,00*62
2017-12-01 11:45:03 1512146703.527562: $GPGGA,164504,3946.9564,N,08404.9870,W,1,09,0.80,290.35,M,-33.324,M,,*7E
2017-12-01 11:45:03 1512146703.527646: $GPRMC,164504,A,3946.9564,N,08404.9870,W,0.3133,189.200,011217,,*31
2017-12-01 11:45:03 1512146703.527709: $GPGSA,A,3,10,13,15,18,20,21,24,27,29,,,,2.0,0.8,1.5*3B
2017-12-01 11:45:04 1512146704.378086: $GPZDA,164505.00,01,12,2017,00,00*63
2017-12-01 11:45:04 1512146704.378264: $GPGGA,164505,3946.9564,N,08404.9870,W,1,09,0.80,290.35,M,-33.324,M,,*7F
2017-12-01 11:45:04 1512146704.378334: $GPRMC,164505,A,3946.9564,N,08404.9870,W,0.0407,322.014,011217,,*35
2017-12-01 11:45:04 1512146704.378396: $GPGSA,A,3,10,13,15,18,20,21,24,27,29,,,,2.0,0.8,1.5*3B
2017-12-01 11:45:05 1512146705.712038: $GPGSV,3,1,12,10,13,273,36,13,42,049,46,15,75,070,46,18,44,286,45*74
2017-12-01 11:45:05 1512146705.712220: $GPGSV,3,2,12,20,62,052,42,21,68,304,45,24,21,148,42,27,09,324,41*75
2017-12-01 11:45:05 1512146705.712287: $GPGSV,3,3,12,29,23,195,44,05,13,078,21,04,12,130,00,138,38,213,46*40
2017-12-01 11:45:05 1512146705.825377: $GPZDA,164506.00,01,12,2017,00,00*60
2017-12-01 11:45:05 1512146705.825665: $GPGGA,164506,3946.9563,N,08404.9863,W,1,11,0.80,290.43,M,-33.324,M,,*71
2017-12-01 11:45:05 1512146705.825736: $GPRMC,164506,A,3946.9563,N,08404.9863,W,0.0407,322.014,011217,,*33
2017-12-01 11:45:05 1512146705.825799: $GPGSA,A,3,10,13,15,18,20,21,24,27,29,5,138,,2.0,0.8,1.5*34
2017-12-01 11:45:06 1512146706.376271: $GPZDA,164507.00,01,12,2017,00,00*61
2017-12-01 11:45:06 1512146706.376455: $GPGGA,164507,3946.9564,N,08404.9864,W,1,11,0.80,291.83,M,-33.324,M,,*7D
2017-12-01 11:45:06 1512146706.376525: $GPRMC,164507,A,3946.9564,N,08404.9864,W,0.0000,0.000,011217,,*37
2017-12-01 11:45:06 1512146706.376590: $GPGSA,A,3,10,13,15,18,20,21,24,27,29,5,138,,2.0,0.8,1.5*34
2017-12-01 11:45:07 1512146707.378328: $GPZDA,164508.00,01,12,2017,00,00*6E
2017-12-01 11:45:07 1512146707.378508: $GPGGA,164508,3946.9564,N,08404.9864,W,1,11,0.80,291.83,M,-33.324,M,,*72
2017-12-01 11:45:07 1512146707.378580: $GPRMC,164508,A,3946.9564,N,08404.9864,W,0.0000,0.000,011217,,*38
2017-12-01 11:45:07 1512146707.378641: $GPGSA,A,3,10,13,15,18,20,21,24,27,29,5,138,,2.0,0.8,1.5*34
2017-12-01 11:45:07 1512146707.378702: $GPGBS,164508,10.70,M,15.43,M,35.28,M*09
2017-12-01 11:45:08 1512146708.714109: $GPGSV,3,1,12,10,13,273,37,13,42,049,46,15,75,070,46,18,44,286,45*75
2017-12-01 11:45:08 1512146708.714286: $GPGSV,3,2,12,20,62,052,42,21,68,304,45,24,21,148,42,27,09,324,42*76
2017-12-01 11:45:08 1512146708.714355: $GPGSV,3,3,12,29,23,195,43,05,13,078,20,04,12,130,00,138,38,213,46*46
2017-12-01 11:45:08 1512146708.827444: $GPZDA,164509.00,01,12,2017,00,00*6F
2017-12-01 11:45:08 1512146708.827631: $GPGGA,164509,3946.9564,N,08404.9864,W,1,11,0.80,291.83,M,-33.324,M,,*73
2017-12-01 11:45:08 1512146708.827699: $GPRMC,164509,A,3946.9564,N,08404.9864,W,0.0000,0.000,011217,,*39
2017-12-01 11:45:08 1512146708.827759: $GPGSA,A,3,10,13,15,18,20,21,24,27,29,5,138,,2.0,0.8,1.5*34
2017-12-01 11:45:09 1512146709.377040: $GPZDA,164510.00,01,12,2017,00,00*67
2017-12-01 11:45:09 1512146709.377214: $GPGGA,164510,3946.9560,N,08404.9858,W,1,11,0.80,292.68,M,-33.324,M,,*76
2017-12-01 11:45:09 1512146709.377280: $GPRMC,164510,A,3946.9560,N,08404.9858,W,0.0000,0.000,011217,,*3A
2017-12-01 11:45:09 1512146709.377341: $GPGSA,A,3,10,13,15,18,20,21,24,27,29,5,138,,2.0,0.8,1.5*34
