2017-11-15 19:17:03 1510791423.594515: {"class":"VERSION","release":"3.17","rev":"3.17","proto_major":3,"proto_minor":12}
2017-11-15 19:17:03 1510791423.595005: {"class":"DEVICES","devices":[{"class":"DEVICE","path":"/dev/ttyUSB0","driver":"SiRF","subtype":"9\u0006GSD4e_4.1.2-P1_RPATCH.05-F-GPS-4R-1510281 11/03/2015 307","activated":"2017-11-16T00:17:03.232Z","flags":1,"native":1,"bps":4800,"parity":"N","stopbits":1,"cycle":1.00}]}
2017-11-15 19:17:03 1510791423.595127: {"class":"WATCH","enable":true,"json":false,"nmea":true,"raw":0,"scaled":false,"timing":false,"split24":false,"pps":false}
2017-11-15 19:17:03 1510791423.681118: $GPGSV,3,1,12,32,41,102,21,14,59,084,26,22,49,280,24,26,46,175,19*71
2017-11-15 19:17:03 1510791423.681258: $GPGSV,3,2,12,31,72,013,20,25,22,042,00,03,36,304,23,01,09,256,10*75
2017-11-15 19:17:03 1510791423.681317: $GPGSV,3,3,12,16,16,190,00,29,09,076,00,23,07,298,00,138,38,213,00*45
2017-11-15 19:17:03 1510791423.794464: $GPZDA,001702.00,16,11,2017,00,00*61
2017-11-15 19:17:03 1510791423.794626: $GPGGA,001702,3946.9647,N,08404.9460,W,1,07,1.40,287.50,M,-33.324,M,,*71
2017-11-15 19:17:03 1510791423.794687: $GPRMC,001702,A,3946.9647,N,08404.9460,W,0.5306,294.352,161117,,*36
2017-11-15 19:17:03 1510791423.794747: $GPGSA,A,3,32,14,22,26,31,3,1,,,,,,3.4,1.4,2.9*3B
2017-11-15 19:17:04 1510791424.347954: $GPZDA,001703.00,16,11,2017,00,00*60
2017-11-15 19:17:04 1510791424.348124: $GPGGA,001703,3946.9647,N,08404.9460,W,1,07,1.40,287.50,M,-33.324,M,,*70
2017-11-15 19:17:04 1510791424.348187: $GPRMC,001703,A,3946.9647,N,08404.9460,W,0.2422,273.794,161117,,*36
2017-11-15 19:17:04 1510791424.348246: $GPGSA,A,3,32,14,22,26,31,3,1,,,,,,3.4,1.4,2.9*3B
2017-11-15 19:17:05 1510791425.331115: $GPZDA,001704.00,16,11,2017,00,00*67
2017-11-15 19:17:05 1510791425.331287: $GPGGA,001704,3946.9643,N,08404.9467,W,1,07,1.40,286.78,M,-33.324,M,,*7F
2017-11-15 19:17:05 1510791425.331349: $GPRMC,001704,A,3946.9643,N,08404.9467,W,0.4179,328.778,161117,,*32
2017-11-15 19:17:05 1510791425.331406: $GPGSA,A,3,32,14,22,26,31,3,1,,,,,,3.4,1.4,2.9*3B
2017-11-15 19:17:06 1510791426.681429: $GPGSV,3,1,12,32,41,102,21,14,59,084,26,22,49,280,24,26,46,175,19*71
2017-11-15 19:17:06 1510791426.681606: $GPGSV,3,2,12,31,72,013,21,16,16,190,10,03,36,304,23,01,09,256,10*7C
2017-11-15 19:17:06 1510791426.681666: $GPGSV,3,3,12,25,22,042,00,29,09,076,00,23,07,298,00,138,38,213,00*4C
2017-11-15 19:17:06 1510791426.794783: $GPZDA,001705.00,16,11,2017,00,00*66
2017-11-15 19:17:06 1510791426.794937: $GPGGA,001705,3946.9643,N,08404.9467,W,1,07,1.40,286.78,M,-33.324,M,,*7E
2017-11-15 19:17:06 1510791426.794999: $GPRMC,001705,A,3946.9643,N,08404.9467,W,0.6846,4.197,161117,,*3E
2017-11-15 19:17:06 1510791426.795055: $GPGSA,A,3,32,14,22,26,31,3,1,,,,,,3.4,1.4,2.9*3B
2017-11-15 19:17:07 1510791427.347099: $GPZDA,001706.00,16,11,2017,00,00*65
2017-11-15 19:17:07 1510791427.347286: $GPGGA,001706,3946.9646,N,08404.9467,W,1,07,1.40,286.02,M,-33.324,M,,*75
2017-11-15 19:17:07 1510791427.347349: $GPRMC,001706,A,3946.9646,N,08404.9467,W,1.5738,12.547,161117,,*02
2017-11-15 19:17:07 1510791427.347406: $GPGSA,A,3,32,14,22,26,31,3,1,,,,,,3.4,1.4,2.9*3B
2017-11-15 19:17:08 1510791428.346468: $GPZDA,001707.00,16,11,2017,00,00*64
2017-11-15 19:17:08 1510791428.346630: $GPGGA,001707,3946.9646,N,08404.9467,W,1,07,1.40,286.02,M,-33.324,M,,*74
2017-11-15 19:17:08 1510791428.346693: $GPRMC,001707,A,3946.9646,N,08404.9467,W,1.9585,18.105,161117,,*03
2017-11-15 19:17:08 1510791428.346811: $GPGSA,A,3,32,14,22,26,31,3,1,,,,,,3.4,1.4,2.9*3B
2017-11-15 19:17:09 1510791429.666163: $GPGSV,3,1,12,32,41,102,21,14,59,084,26,22,49,280,24,26,46,175,19*71
2017-11-15 19:17:09 1510791429.666329: $GPGSV,3,2,12,31,72,013,21,25,22,042,00,03,36,304,23,01,09,256,04*71
2017-11-15 19:17:09 1510791429.666398: $GPGSV,3,3,12,16,16,190,00,29,09,076,00,23,07,298,00,138,38,213,00*45
2017-11-15 19:17:09 1510791429.779334: $GPZDA,001708.00,16,11,2017,00,00*6B
2017-11-15 19:17:09 1510791429.779490: $GPGGA,001708,3946.9654,N,08404.9466,W,1,06,1.40,285.90,M,-33.324,M,,*70
2017-11-15 19:17:09 1510791429.779602: $GPRMC,001708,A,3946.9654,N,08404.9466,W,1.6283,21.001,161117,,*0F
2017-11-15 19:17:09 1510791429.779660: $GPGSA,A,3,32,14,22,26,31,3,,,,,,,3.4,1.4,2.9*0A
2017-11-15 19:17:10 1510791430.346493: $GPZDA,001709.00,16,11,2017,00,00*6A
2017-11-15 19:17:10 1510791430.346658: $GPGGA,001709,3946.9654,N,08404.9466,W,1,06,1.40,285.90,M,-33.324,M,,*71
2017-11-15 19:17:10 1510791430.346768: $GPRMC,001709,A,3946.9654,N,08404.9466,W,1.9132,356.511,161117,,*3F
2017-11-15 19:17:10 1510791430.346832: $GPGSA,A,3,32,14,22,26,31,3,,,,,,,3.4,1.4,2.9*0A
2017-11-15 19:17:11 1510791431.345884: $GPZDA,001710.00,16,11,2017,00,00*62
2017-11-15 19:17:11 1510791431.346067: $GPGGA,001710,3946.9658,N,08404.9472,W,1,06,1.40,285.05,M,-33.324,M,,*7C
2017-11-15 19:17:11 1510791431.346132: $GPRMC,001710,A,3946.9658,N,08404.9472,W,1.5746,354.845,161117,,*39
2017-11-15 19:17:11 1510791431.346208: $GPGSA,A,3,32,14,22,26,31,3,,,,,,,3.4,1.4,2.9*0A
2017-11-15 19:17:12 1510791432.665320: $GPGSV,3,1,12,32,41,102,21,14,59,084,26,22,49,280,24,26,46,175,19*71
2017-11-15 19:17:12 1510791432.665493: $GPGSV,3,2,12,31,72,013,20,25,22,042,00,03,36,304,23,01,09,256,04*70
2017-11-15 19:17:12 1510791432.665555: $GPGSV,3,3,12,16,16,190,00,29,09,076,00,23,07,298,00,138,38,213,00*45
2017-11-15 19:17:12 1510791432.779082: $GPZDA,001711.00,16,11,2017,00,00*63
2017-11-15 19:17:12 1510791432.779258: $GPGGA,001711,3946.9658,N,08404.9472,W,1,06,1.40,285.05,M,-33.324,M,,*7D
2017-11-15 19:17:12 1510791432.779322: $GPRMC,001711,A,3946.9658,N,08404.9472,W,1.6300,346.404,161117,,*37
2017-11-15 19:17:12 1510791432.779380: $GPGSA,A,3,32,14,22,26,31,3,,,,,,,3.4,1.4,2.9*0A
2017-11-15 19:17:13 1510791433.347039: $GPZDA,001712.00,16,11,2017,00,00*60
2017-11-15 19:17:13 1510791433.347203: $GPGGA,001712,3946.9661,N,08404.9471,W,1,06,1.40,284.29,M,-33.324,M,,*78
2017-11-15 19:17:13 1510791433.347263: $GPRMC,001712,A,3946.9661,N,08404.9471,W,1.2361,14.852,161117,,*05
2017-11-15 19:17:13 1510791433.347320: $GPGSA,A,3,32,14,22,26,31,3,,,,,,,3.4,1.4,2.9*0A
