2017-12-31 18:47:16 1514764036.110308: {"class":"VERSION","release":"3.16","rev":"3.16-4","proto_major":3,"proto_minor":11}
2017-12-31 18:47:16 1514764036.110644: {"class":"DEVICES","devices":[{"class":"DEVICE","path":"/dev/ttyUSB0","driver":"SiRF","activated":"2017-12-31T23:47:15.943Z","flags":1,"native":1,"bps":4800,"parity":"N","stopbits":1,"cycle":1.00}]}
2017-12-31 18:47:16 1514764036.110739: {"class":"WATCH","enable":true,"json":false,"nmea":true,"raw":0,"scaled":false,"timing":false,"split24":false,"pps":false}
2017-12-31 18:47:16 1514764036.391731: $GPZDA,234717.00,31,12,2017,00,00*67
2017-12-31 18:47:16 1514764036.391917: $GPGGA,234717,3946.9581,N,08404.9862,W,2,11,0.80,303.66,M,-33.324,M,,*77
2017-12-31 18:47:16 1514764036.392004: $GPRMC,234717,A,3946.9581,N,08404.9862,W,0.0000,0.000,311217,,*3C
2017-12-31 18:47:16 1514764036.392066: $GPGSA,A,3,22,23,9,3,16,8,31,27,7,26,135,,1.7,0.8,1.3*09
2017-12-31 18:47:17 1514764037.391322: $GPZDA,234718.00,31,12,2017,00,00*68
2017-12-31 18:47:17 1514764037.391488: $GPGGA,234718,3946.9581,N,08404.9862,W,2,11,0.80,303.66,M,-33.324,M,,*78
2017-12-31 18:47:17 1514764037.391553: $GPRMC,234718,A,3946.9581,N,08404.9862,W,0.0000,0.000,311217,,*33
2017-12-31 18:47:17 1514764037.391614: $GPGSA,A,3,22,23,9,3,16,8,31,27,7,26,135,,1.7,0.8,1.3*09
2017-12-31 18:47:18 1514764038.689299: $GPGSV,3,1,12,22,09,205,09,23,67,285,40,09,35,310,42,03,19,222,38*7D
2017-12-31 18:47:18 1514764038.689472: $GPGSV,3,2,12,16,79,036,43,08,14,175,36,14,01,139,00,31,17,087,33*7F
2017-12-31 18:47:18 1514764038.689538: $GPGSV,3,3,12,27,38,144,41,07,09,283,38,26,46,048,44,135,22,240,44*47
2017-12-31 18:47:18 1514764038.802902: $GPZDA,234719.00,31,12,2017,00,00*69
2017-12-31 18:47:18 1514764038.803029: $GPGGA,234719,3946.9581,N,08404.9862,W,2,11,0.80,303.66,M,-33.324,M,,*79
2017-12-31 18:47:18 1514764038.803095: $GPRMC,234719,A,3946.9581,N,08404.9862,W,0.0000,0.000,311217,,*32
2017-12-31 18:47:18 1514764038.803155: $GPGSA,A,3,22,23,9,3,16,8,31,27,7,26,135,,1.7,0.8,1.3*09
2017-12-31 18:47:19 1514764039.346293: $GPZDA,234720.00,31,12,2017,00,00*63
2017-12-31 18:47:19 1514764039.346454: $GPGGA,234720,3946.9581,N,08404.9862,W,2,11,0.80,303.66,M,-33.324,M,,*73
2017-12-31 18:47:19 1514764039.346520: $GPRMC,234720,A,3946.9581,N,08404.9862,W,0.0000,0.000,311217,,*38
2017-12-31 18:47:19 1514764039.346580: $GPGSA,A,3,22,23,9,3,16,8,31,27,7,26,135,,1.7,0.8,1.3*09
2017-12-31 18:47:20 1514764040.390425: $GPZDA,234721.00,31,12,2017,00,00*62
2017-12-31 18:47:20 1514764040.390591: $GPGGA,234721,3946.9581,N,08404.9862,W,2,11,0.80,303.66,M,-33.324,M,,*72
2017-12-31 18:47:20 1514764040.390657: $GPRMC,234721,A,3946.9581,N,08404.9862,W,0.0000,0.000,311217,,*39
2017-12-31 18:47:20 1514764040.390717: $GPGSA,A,3,22,23,9,3,16,8,31,27,7,26,135,,1.7,0.8,1.3*09
2017-12-31 18:47:21 1514764041.688372: $GPGSV,3,1,12,22,09,205,00,23,67,285,40,09,35,310,41,03,19,222,39*76
2017-12-31 18:47:21 1514764041.688554: $GPGSV,3,2,12,16,79,036,43,08,14,175,35,14,01,139,00,31,17,087,33*7C
2017-12-31 18:47:21 1514764041.688619: $GPGSV,3,3,12,27,38,144,41,07,09,283,40,26,46,048,44,135,22,240,43*4F
2017-12-31 18:47:21 1514764041.801776: $GPZDA,234722.00,31,12,2017,00,00*61
2017-12-31 18:47:21 1514764041.801961: $GPGGA,234722,3946.9581,N,08404.9862,W,2,10,0.80,303.66,M,-33.324,M,,*70
2017-12-31 18:47:21 1514764041.802029: $GPRMC,234722,A,3946.9581,N,08404.9862,W,0.0000,0.000,311217,,*3A
2017-12-31 18:47:21 1514764041.802089: $GPGSA,A,3,23,9,3,16,8,31,27,7,26,135,,,1.7,0.8,1.3*09
2017-12-31 18:47:22 1514764042.352907: $GPZDA,234723.00,31,12,2017,00,00*60
2017-12-31 18:47:22 1514764042.353063: $GPGGA,234723,3946.9581,N,08404.9862,W,2,10,0.80,303.66,M,-33.324,M,,*71
2017-12-31 18:47:22 1514764042.353126: $GPRMC,234723,A,3946.9581,N,08404.9862,W,0.0000,0.000,311217,,*3B
2017-12-31 18:47:22 1514764042.353186: $GPGSA,A,3,23,9,3,16,8,31,27,7,26,135,,,1.7,0.8,1.3*09
2017-12-31 18:47:23 1514764043.357580: $GPZDA,234724.00,31,12,2017,00,00*67
2017-12-31 18:47:23 1514764043.357747: $GPGGA,234724,3946.9581,N,08404.9862,W,2,10,0.80,303.66,M,-33.324,M,,*76
2017-12-31 18:47:23 1514764043.357865: $GPRMC,234724,A,3946.9581,N,08404.9862,W,0.0000,0.000,311217,,*3C
2017-12-31 18:47:23 1514764043.357927: $GPGSA,A,3,23,9,3,16,8,31,27,7,26,135,,,1.7,0.8,1.3*09
2017-12-31 18:47:24 1514764044.687969: $GPGSV,3,1,12,22,09,205,00,23,67,285,40,09,35,310,41,03,19,222,38*77
2017-12-31 18:47:24 1514764044.688124: $GPGSV,3,2,12,16,79,036,44,08,14,175,35,14,01,139,00,31,17,087,33*7B
2017-12-31 18:47:24 1514764044.688188: $GPGSV,3,3,12,27,38,144,41,07,09,283,40,26,46,048,44,135,22,240,44*48
2017-12-31 18:47:24 1514764044.801309: $GPZDA,234725.00,31,12,2017,00,00*66
2017-12-31 18:47:24 1514764044.801427: $GPGGA,234725,3946.9581,N,08404.9862,W,2,10,0.80,303.66,M,-33.324,M,,*77
2017-12-31 18:47:24 1514764044.801491: $GPRMC,234725,A,3946.9581,N,08404.9862,W,0.0000,0.000,311217,,*3D
2017-12-31 18:47:24 1514764044.801550: $GPGSA,A,3,23,9,3,16,8,31,27,7,26,135,,,1.7,0.8,1.3*09
2017-12-31 18:47:25 1514764045.427005: $GPZDA,234726.00,31,12,2017,00,00*65
2017-12-31 18:47:25 1514764045.427230: $GPGGA,234726,3946.9581,N,08404.9862,W,2,10,0.80,303.66,M,-33.324,M,,*74
2017-12-31 18:47:25 1514764045.427299: $GPRMC,234726,A,3946.9581,N,08404.9862,W,0.0000,0.000,311217,,*3E
2017-12-31 18:47:25 1514764045.427360: $GPGSA,A,3,23,9,3,16,8,31,27,7,26,135,,,1.7,0.8,1.3*09
