2017-12-01 16:44:39 1512164679.188191: {"class":"VERSION","release":"3.16","rev":"3.16-4","proto_major":3,"proto_minor":11}
2017-12-01 16:44:39 1512164679.188567: {"class":"DEVICES","devices":[{"class":"DEVICE","path":"/dev/ttyUSB0","driver":"SiRF","subtype":"9\u0006GSD4e_4.1.2-P1_RPATCH.05-F-GPS-4R-1510281 11/03/2015 307","activated":"2017-12-01T21:44:39.158Z","flags":1,"native":1,"bps":4800,"parity":"N","stopbits":1,"cycle":1.00}]}
2017-12-01 16:44:39 1512164679.188834: {"class":"WATCH","enable":true,"json":false,"nmea":true,"raw":0,"scaled":false,"timing":false,"split24":false,"pps":false}
2017-12-01 16:44:40 1512164680.122732: $GPZDA,214440.36,01,12,2017,00,00*62
2017-12-01 16:44:40 1512164680.122903: $GPGGA,214440,3946.9650,N,08404.9756,W,1,12,1.80,300.72,M,-33.324,M,,*74
2017-12-01 16:44:40 1512164680.122971: $GPRMC,214440,A,3946.9650,N,08404.9756,W,0.1567,189.200,011217,,*3C
2017-12-01 16:44:40 1512164680.123032: $GPGSA,A,3,1,10,14,22,31,32,11,25,26,18,12,138,2.0,1.8,1.5*38
2017-12-01 16:44:40 1512164680.123090: $GPGBS,214440,10.70,M,15.43,M,35.28,M*00
2017-12-01 16:44:41 1512164681.287292: $GPGSV,3,1,12,01,22,294,44,10,41,151,45,14,68,343,45,22,24,310,41*79
2017-12-01 16:44:41 1512164681.287478: $GPGSV,3,2,12,31,63,232,51,32,66,045,50,03,05,316,08,11,06,276,03*72
2017-12-01 16:44:41 1512164681.287545: $GPGSV,3,3,12,12,19,043,08,18,12,145,07,26,08,181,09,138,38,213,00*4F
2017-12-01 16:44:41 1512164681.400883: $GPZDA,214441.00,01,12,2017,00,00*66
2017-12-01 16:44:41 1512164681.401036: $GPGGA,214441,3946.9650,N,08404.9756,W,1,06,1.80,300.72,M,-33.324,M,,*70
2017-12-01 16:44:41 1512164681.401103: $GPRMC,214441,A,3946.9650,N,08404.9756,W,0.2422,93.794,011217,,*0C
2017-12-01 16:44:41 1512164681.401164: $GPGSA,A,3,1,10,14,22,31,32,,,,,,,2.0,1.8,1.5*0B
2017-12-01 16:44:41 1512164681.852947: $GPZDA,214442.00,01,12,2017,00,00*65
2017-12-01 16:44:41 1512164681.853120: $GPGGA,214442,3946.9650,N,08404.9749,W,1,06,0.80,300.80,M,-33.324,M,,*71
2017-12-01 16:44:41 1512164681.853187: $GPRMC,214442,A,3946.9650,N,08404.9749,W,0.0000,0.000,011217,,*37
2017-12-01 16:44:41 1512164681.853248: $GPGSA,A,3,1,10,14,22,31,32,,,,,,,2.0,0.8,1.5*0A
2017-12-01 16:44:42 1512164682.412490: $GPZDA,214443.00,01,12,2017,00,00*64
2017-12-01 16:44:42 1512164682.412656: $GPGGA,214443,3946.9650,N,08404.9749,W,1,06,0.80,300.80,M,-33.324,M,,*70
2017-12-01 16:44:42 1512164682.412724: $GPRMC,214443,A,3946.9650,N,08404.9749,W,0.0000,0.000,011217,,*36
2017-12-01 16:44:42 1512164682.412784: $GPGSA,A,3,1,10,14,22,31,32,,,,,,,2.0,0.8,1.5*0A
2017-12-01 16:44:43 1512164683.750205: $GPGSV,3,1,12,01,22,294,44,10,41,151,43,14,68,343,45,22,24,310,40*7E
2017-12-01 16:44:43 1512164683.750389: $GPGSV,3,2,12,31,63,232,50,32,66,045,49,03,05,316,28,11,06,276,31*78
2017-12-01 16:44:43 1512164683.750456: $GPGSV,3,3,12,12,19,043,24,18,12,145,25,26,08,181,28,138,38,213,42*44
2017-12-01 16:44:43 1512164683.863863: $GPZDA,214444.00,01,12,2017,00,00*63
2017-12-01 16:44:43 1512164683.864018: $GPGGA,214444,3946.9650,N,08404.9749,W,1,12,0.80,300.80,M,-33.324,M,,*72
2017-12-01 16:44:43 1512164683.864085: $GPRMC,214444,A,3946.9650,N,08404.9749,W,0.0000,0.000,011217,,*31
2017-12-01 16:44:43 1512164683.864146: $GPGSA,A,3,1,10,14,22,31,32,3,11,12,18,26,138,2.0,0.8,1.5*0D
2017-12-01 16:44:44 1512164684.413510: $GPZDA,214445.00,01,12,2017,00,00*62
2017-12-01 16:44:45 1512164685.359224: $GPGGA,214445,3946.9650,N,08404.9749,W,1,12,0.80,300.80,M,-33.324,M,,*73
2017-12-01 16:44:45 1512164685.359391: $GPRMC,214445,A,3946.9650,N,08404.9749,W,0.0000,0.000,011217,,*30
2017-12-01 16:44:45 1512164685.359458: $GPGSA,A,3,1,10,14,22,31,32,3,11,12,18,26,138,2.0,0.8,1.5*0D
2017-12-01 16:44:45 1512164685.413991: $GPZDA,214446.00,01,12,2017,00,00*61
2017-12-01 16:44:45 1512164685.414168: $GPGGA,214446,3946.9650,N,08404.9749,W,1,12,0.80,300.80,M,-33.324,M,,*70
2017-12-01 16:44:45 1512164685.414236: $GPRMC,214446,A,3946.9650,N,08404.9749,W,0.0000,0.000,011217,,*33
2017-12-01 16:44:45 1512164685.414297: $GPGSA,A,3,1,10,14,22,31,32,3,11,12,18,26,138,2.0,0.8,1.5*0D
2017-12-01 16:44:45 1512164685.414356: $GPGBS,214446,10.70,M,15.43,M,35.28,M*06
2017-12-01 16:44:46 1512164686.749633: $GPGSV,3,1,12,01,22,294,44,10,41,151,43,14,68,343,44,22,24,310,40*7F
2017-12-01 16:44:46 1512164686.749812: $GPGSV,3,2,12,31,63,232,50,32,66,045,49,03,05,316,29,11,06,276,24*7D
2017-12-01 16:44:46 1512164686.749878: $GPGSV,3,3,12,12,19,043,23,18,12,145,25,26,08,181,28,138,38,213,40*41
2017-12-01 16:44:46 1512164686.862963: $GPZDA,214447.00,01,12,2017,00,00*60
2017-12-01 16:44:46 1512164686.863109: $GPGGA,214447,3946.9650,N,08404.9749,W,1,12,0.80,300.80,M,-33.324,M,,*71
2017-12-01 16:44:46 1512164686.863177: $GPRMC,214447,A,3946.9650,N,08404.9749,W,0.0000,0.000,011217,,*32
2017-12-01 16:44:46 1512164686.863238: $GPGSA,A,3,1,10,14,22,31,32,3,11,12,18,26,138,2.0,0.8,1.5*0D
2017-12-01 16:44:47 1512164687.412671: $GPZDA,214448.00,01,12,2017,00,00*6F
2017-12-01 16:44:47 1512164687.412841: $GPGGA,214448,3946.9647,N,08404.9750,W,1,12,0.80,301.56,M,-33.324,M,,*7A
2017-12-01 16:44:47 1512164687.412908: $GPRMC,214448,A,3946.9647,N,08404.9750,W,0.0000,0.000,011217,,*33
2017-12-01 16:44:47 1512164687.412970: $GPGSA,A,3,1,10,14,22,31,32,3,11,12,18,26,138,2.0,0.8,1.5*0D
2017-12-01 16:44:48 1512164688.414241: $GPZDA,214449.00,01,12,2017,00,00*6E
2017-12-01 16:44:48 1512164688.414423: $GPGGA,214449,3946.9650,N,08404.9749,W,1,12,0.80,300.80,M,-33.324,M,,*7F
2017-12-01 16:44:48 1512164688.414490: $GPRMC,214449,A,3946.9650,N,08404.9749,W,0.0000,0.000,011217,,*3C
2017-12-01 16:44:48 1512164688.414551: $GPGSA,A,3,1,10,14,22,31,32,3,11,12,18,26,138,2.0,0.8,1.5*0D
2017-12-01 16:44:49 1512164689.748797: $GPGSV,3,1,12,01,22,294,43,10,41,151,42,14,68,343,44,22,24,310,42*7B
2017-12-01 16:44:49 1512164689.748976: $GPGSV,3,2,12,31,63,232,50,32,66,045,49,03,05,316,28,11,06,276,32*7B
2017-12-01 16:44:49 1512164689.749065: $GPGSV,3,3,12,12,19,043,22,18,12,145,25,26,08,181,28,138,38,213,40*40
2017-12-01 16:44:49 1512164689.862615: $GPZDA,214450.00,01,12,2017,00,00*66
2017-12-01 16:44:49 1512164689.862783: $GPGGA,214450,3946.9650,N,08404.9749,W,1,12,0.80,300.80,M,-33.324,M,,*77
2017-12-01 16:44:49 1512164689.862849: $GPRMC,214450,A,3946.9650,N,08404.9749,W,0.0000,0.000,011217,,*34
2017-12-01 16:44:49 1512164689.862910: $GPGSA,A,3,1,10,14,22,31,32,3,11,12,18,26,138,2.0,0.8,1.5*0D
2017-12-01 16:44:50 1512164690.413449: $GPZDA,214451.00,01,12,2017,00,00*67
2017-12-01 16:44:50 1512164690.413607: $GPGGA,214451,3946.9650,N,08404.9742,W,1,12,0.80,300.87,M,-33.324,M,,*7A
2017-12-01 16:44:50 1512164690.413674: $GPRMC,214451,A,3946.9650,N,08404.9742,W,0.0000,0.000,011217,,*3E
2017-12-01 16:44:50 1512164690.413736: $GPGSA,A,3,1,10,14,22,31,32,3,11,12,18,26,138,2.0,0.8,1.5*0D
2017-12-01 16:44:51 1512164691.414175: $GPZDA,214452.00,01,12,2017,00,00*64
2017-12-01 16:44:51 1512164691.414346: $GPGGA,214452,3946.9650,N,08404.9742,W,1,12,0.80,300.87,M,-33.324,M,,*79
2017-12-01 16:44:51 1512164691.414413: $GPRMC,214452,A,3946.9650,N,08404.9742,W,0.0000,0.000,011217,,*3D
2017-12-01 16:44:51 1512164691.414473: $GPGSA,A,3,1,10,14,22,31,32,3,11,12,18,26,138,2.0,0.8,1.5*0D
2017-12-01 16:44:52 1512164692.750859: $GPGSV,3,1,12,01,22,294,43,10,41,151,42,14,68,343,44,22,24,310,40*79
2017-12-01 16:44:52 1512164692.751038: $GPGSV,3,2,12,31,63,232,50,32,66,045,48,03,05,316,25,11,06,276,33*76
2017-12-01 16:44:52 1512164692.751106: $GPGSV,3,3,12,12,19,043,22,18,12,145,25,26,08,181,28,138,38,213,39*4E
2017-12-01 16:44:52 1512164692.864237: $GPZDA,214453.00,01,12,2017,00,00*65
2017-12-01 16:44:52 1512164692.864421: $GPGGA,214453,3946.9655,N,08404.9726,W,2,12,1.20,298.10,M,-33.324,M,,*79
2017-12-01 16:44:52 1512164692.864489: $GPRMC,214453,A,3946.9655,N,08404.9726,W,0.0000,0.000,011217,,*3B
2017-12-01 16:44:52 1512164692.864550: $GPGSA,A,3,1,10,14,22,31,32,3,11,12,18,26,138,2.0,1.2,1.5*06
2017-12-01 16:44:53 1512164693.489574: $GPZDA,214454.00,01,12,2017,00,00*62
2017-12-01 16:44:53 1512164693.489751: $GPGGA,214454,3946.9652,N,08404.9727,W,2,12,0.80,298.86,M,-33.324,M,,*7C
2017-12-01 16:44:53 1512164693.489817: $GPRMC,214454,A,3946.9652,N,08404.9727,W,0.0000,0.000,011217,,*3A
2017-12-01 16:44:53 1512164693.489929: $GPGSA,A,3,1,10,14,22,31,32,3,11,12,18,26,138,2.0,0.8,1.5*0D
2017-12-01 16:44:54 1512164694.415461: $GPZDA,214455.00,01,12,2017,00,00*63
2017-12-01 16:44:54 1512164694.415631: $GPGGA,214455,3946.9652,N,08404.9727,W,2,12,0.80,298.86,M,-33.324,M,,*7D
2017-12-01 16:44:54 1512164694.415699: $GPRMC,214455,A,3946.9652,N,08404.9727,W,0.0000,0.000,011217,,*3B
2017-12-01 16:44:54 1512164694.415760: $GPGSA,A,3,1,10,14,22,31,32,3,11,12,18,26,138,2.0,0.8,1.5*0D
2017-12-01 16:44:55 1512164695.752445: $GPGSV,3,1,12,01,22,294,43,10,41,151,42,14,68,343,44,22,24,310,41*78
2017-12-01 16:44:55 1512164695.752628: $GPGSV,3,2,12,31,63,232,51,32,66,045,49,25,41,081,21,11,06,276,33*7B
2017-12-01 16:44:55 1512164695.752694: $GPGSV,3,3,12,12,19,043,27,18,12,145,25,26,08,181,28,138,38,213,41*44
2017-12-01 16:44:55 1512164695.865819: $GPZDA,214456.00,01,12,2017,00,00*60
2017-12-01 16:44:55 1512164695.865959: $GPGGA,214456,3946.9652,N,08404.9727,W,2,12,0.80,298.86,M,-33.324,M,,*7E
2017-12-01 16:44:55 1512164695.866024: $GPRMC,214456,A,3946.9652,N,08404.9727,W,0.0000,0.000,011217,,*38
2017-12-01 16:44:55 1512164695.866085: $GPGSA,A,3,1,10,14,22,31,32,25,11,12,18,26,138,2.0,0.8,1.5*39
2017-12-01 16:44:56 1512164696.414620: $GPZDA,214457.00,01,12,2017,00,00*61
2017-12-01 16:44:56 1512164696.414813: $GPGGA,214457,3946.9652,N,08404.9734,W,2,12,0.80,298.79,M,-33.324,M,,*7D
2017-12-01 16:44:56 1512164696.414879: $GPRMC,214457,A,3946.9652,N,08404.9734,W,0.0000,0.000,011217,,*3B
2017-12-01 16:44:56 1512164696.414941: $GPGSA,A,3,1,10,14,22,31,32,25,11,12,18,26,138,2.0,0.8,1.5*39
2017-12-01 16:44:57 1512164697.414086: $GPZDA,214458.00,01,12,2017,00,00*6E
2017-12-01 16:44:57 1512164697.414249: $GPGGA,214458,3946.9652,N,08404.9734,W,2,12,0.80,298.79,M,-33.324,M,,*72
2017-12-01 16:44:57 1512164697.414315: $GPRMC,214458,A,3946.9652,N,08404.9734,W,0.0000,0.000,011217,,*34
2017-12-01 16:44:57 1512164697.414375: $GPGSA,A,3,1,10,14,22,31,32,25,11,12,18,26,138,2.0,0.8,1.5*39
2017-12-01 16:44:57 1512164697.414433: $GPGBS,214458,2.67,M,3.86,M,8.82,M*3C
2017-12-01 16:44:58 1512164698.750176: $GPGSV,3,1,12,01,22,294,43,10,41,151,41,14,68,343,44,22,24,310,42*78
2017-12-01 16:44:58 1512164698.750363: $GPGSV,3,2,12,31,63,232,50,32,66,045,49,25,41,081,23,11,06,276,26*7C
2017-12-01 16:44:58 1512164698.750429: $GPGSV,3,3,12,12,19,043,30,18,12,145,26,26,08,181,29,138,38,213,41*40
2017-12-01 16:44:58 1512164698.863597: $GPZDA,214459.00,01,12,2017,00,00*6F
2017-12-01 16:44:58 1512164698.863764: $GPGGA,214459,3946.9656,N,08404.9734,W,2,12,0.80,299.42,M,-33.324,M,,*7E
2017-12-01 16:44:58 1512164698.863830: $GPRMC,214459,A,3946.9656,N,08404.9734,W,0.0000,0.000,011217,,*31
2017-12-01 16:44:58 1512164698.863890: $GPGSA,A,3,1,10,14,22,31,32,25,11,12,18,26,138,2.0,0.8,1.5*39
