2017-12-31 17:57:18 1514761038.928702: {"class":"VERSION","release":"3.16","rev":"3.16-4","proto_major":3,"proto_minor":11}
2017-12-31 17:57:18 1514761038.929050: {"class":"DEVICES","devices":[{"class":"DEVICE","path":"/dev/ttyUSB0","driver":"SiRF","activated":"2017-12-31T22:57:18.911Z","flags":1,"native":1,"bps":4800,"parity":"N","stopbits":1,"cycle":1.00}]}
2017-12-31 17:57:18 1514761038.929148: {"class":"WATCH","enable":true,"json":false,"nmea":true,"raw":0,"scaled":false,"timing":false,"split24":false,"pps":false}
2017-12-31 17:57:19 1514761039.371588: $GPZDA,225720.00,31,12,2017,00,00*63
2017-12-31 17:57:19 1514761039.371754: $GPGGA,225720,3946.9567,N,08404.9865,W,2,11,0.60,306.72,M,-33.324,M,,*72
2017-12-31 17:57:19 1514761039.371819: $GPRMC,225720,A,3946.9567,N,08404.9865,W,0.0000,0.000,311217,,*37
2017-12-31 17:57:19 1514761039.371881: $GPGSA,A,3,22,23,9,3,16,29,14,31,27,26,135,,1.7,0.6,1.3*06
2017-12-31 17:57:20 1514761040.344504: $GPZDA,225721.00,31,12,2017,00,00*62
2017-12-31 17:57:20 1514761040.344675: $GPGGA,225721,3946.9567,N,08404.9865,W,2,11,0.60,306.72,M,-33.324,M,,*73
2017-12-31 17:57:20 1514761040.344741: $GPRMC,225721,A,3946.9567,N,08404.9865,W,0.0000,0.000,311217,,*36
2017-12-31 17:57:20 1514761040.344803: $GPGSA,A,3,22,23,9,3,16,29,14,31,27,26,135,,1.7,0.6,1.3*06
2017-12-31 17:57:21 1514761041.680138: $GPGSV,3,1,11,22,26,217,44,23,49,307,44,09,16,312,43,03,36,238,44*75
2017-12-31 17:57:21 1514761041.680304: $GPGSV,3,2,11,16,74,192,43,29,08,034,35,14,20,130,32,31,32,070,43*74
2017-12-31 17:57:21 1514761041.680370: $GPGSV,3,3,11,27,17,156,28,26,67,055,49,135,22,240,43*7C
2017-12-31 17:57:21 1514761041.794025: $GPZDA,225722.00,31,12,2017,00,00*61
2017-12-31 17:57:21 1514761041.794196: $GPGGA,225722,3946.9567,N,08404.9865,W,2,11,0.60,306.72,M,-33.324,M,,*70
2017-12-31 17:57:21 1514761041.794262: $GPRMC,225722,A,3946.9567,N,08404.9865,W,0.0000,0.000,311217,,*35
2017-12-31 17:57:21 1514761041.794323: $GPGSA,A,3,22,23,9,3,16,29,14,31,27,26,135,,1.7,0.6,1.3*06
2017-12-31 17:57:22 1514761042.344461: $GPZDA,225723.00,31,12,2017,00,00*60
2017-12-31 17:57:22 1514761042.344627: $GPGGA,225723,3946.9567,N,08404.9865,W,2,11,0.60,306.72,M,-33.324,M,,*71
2017-12-31 17:57:22 1514761042.344694: $GPRMC,225723,A,3946.9567,N,08404.9865,W,0.0000,0.000,311217,,*34
2017-12-31 17:57:22 1514761042.344755: $GPGSA,A,3,22,23,9,3,16,29,14,31,27,26,135,,1.7,0.6,1.3*06
2017-12-31 17:57:23 1514761043.370390: $GPZDA,225724.00,31,12,2017,00,00*67
2017-12-31 17:57:23 1514761043.370568: $GPGGA,225724,3946.9567,N,08404.9865,W,2,11,0.60,306.72,M,-33.324,M,,*76
2017-12-31 17:57:23 1514761043.370636: $GPRMC,225724,A,3946.9567,N,08404.9865,W,0.0000,0.000,311217,,*33
2017-12-31 17:57:23 1514761043.370696: $GPGSA,A,3,22,23,9,3,16,29,14,31,27,26,135,,1.7,0.6,1.3*06
2017-12-31 17:57:24 1514761044.705964: $GPGSV,3,1,11,22,26,217,44,23,49,307,44,09,16,312,43,03,36,238,44*75
2017-12-31 17:57:25 1514761045.102302: $GPGSV,3,2,11,16,74,192,43,29,08,034,35,14,20,130,31,31,32,070,42*76
2017-12-31 17:57:25 1514761045.102462: $GPGSV,3,3,11,27,17,156,29,26,67,055,49,135,22,240,44*7A
2017-12-31 17:57:25 1514761045.102560: $GPZDA,225725.00,31,12,2017,00,00*66
2017-12-31 17:57:25 1514761045.102617: $GPGGA,225725,3946.9567,N,08404.9865,W,2,11,0.60,306.72,M,-33.324,M,,*77
2017-12-31 17:57:25 1514761045.102679: $GPRMC,225725,A,3946.9567,N,08404.9865,W,0.0000,0.000,311217,,*32
2017-12-31 17:57:25 1514761045.102738: $GPGSA,A,3,22,23,9,3,16,29,14,31,27,26,135,,1.7,0.6,1.3*06
2017-12-31 17:57:25 1514761045.444830: $GPZDA,225726.00,31,12,2017,00,00*65
2017-12-31 17:57:25 1514761045.444998: $GPGGA,225726,3946.9567,N,08404.9865,W,2,11,0.60,306.72,M,-33.324,M,,*74
2017-12-31 17:57:25 1514761045.445065: $GPRMC,225726,A,3946.9567,N,08404.9865,W,0.0000,0.000,311217,,*31
2017-12-31 17:57:25 1514761045.445125: $GPGSA,A,3,22,23,9,3,16,29,14,31,27,26,135,,1.7,0.6,1.3*06
2017-12-31 17:57:26 1514761046.345940: $GPZDA,225727.00,31,12,2017,00,00*64
2017-12-31 17:57:26 1514761046.346124: $GPGGA,225727,3946.9567,N,08404.9865,W,2,11,0.60,306.72,M,-33.324,M,,*75
2017-12-31 17:57:26 1514761046.346245: $GPRMC,225727,A,3946.9567,N,08404.9865,W,0.0000,0.000,311217,,*30
2017-12-31 17:57:26 1514761046.346307: $GPGSA,A,3,22,23,9,3,16,29,14,31,27,26,135,,1.7,0.6,1.3*06
2017-12-31 17:57:27 1514761047.706344: $GPGSV,3,1,11,22,26,217,44,23,49,307,44,09,16,312,43,03,36,238,44*75
2017-12-31 17:57:27 1514761047.706517: $GPGSV,3,2,11,16,74,192,43,29,08,034,22,14,20,130,31,31,32,070,42*70
2017-12-31 17:57:27 1514761047.706584: $GPGSV,3,3,11,27,17,156,30,26,67,055,49,135,22,240,43*75
2017-12-31 17:57:27 1514761047.820039: $GPZDA,225728.00,31,12,2017,00,00*6B
2017-12-31 17:57:27 1514761047.820196: $GPGGA,225728,3946.9567,N,08404.9865,W,2,11,0.60,306.72,M,-33.324,M,,*7A
2017-12-31 17:57:27 1514761047.820261: $GPRMC,225728,A,3946.9567,N,08404.9865,W,0.0000,0.000,311217,,*3F
2017-12-31 17:57:27 1514761047.820322: $GPGSA,A,3,22,23,9,3,16,29,14,31,27,26,135,,1.7,0.6,1.3*06
2017-12-31 17:57:28 1514761048.345910: $GPZDA,225729.00,31,12,2017,00,00*6A
2017-12-31 17:57:28 1514761048.346073: $GPGGA,225729,3946.9567,N,08404.9865,W,2,11,0.60,306.72,M,-33.324,M,,*7B
2017-12-31 17:57:28 1514761048.346153: $GPRMC,225729,A,3946.9567,N,08404.9865,W,0.0000,0.000,311217,,*3E
2017-12-31 17:57:28 1514761048.346216: $GPGSA,A,3,22,23,9,3,16,29,14,31,27,26,135,,1.7,0.6,1.3*06
