2017-11-16 14:22:44 1510860164.678324: {"class":"VERSION","release":"3.17","rev":"3.17","proto_major":3,"proto_minor":12}
2017-11-16 14:22:44 1510860164.678717: {"class":"DEVICES","devices":[{"class":"DEVICE","path":"/dev/ttyUSB0","driver":"SiRF","subtype":"9\u0006GSD4e_4.1.2-P1_RPATCH.05-F-GPS-4R-1510281 11/03/2015 307","activated":"2017-11-16T19:22:44.637Z","flags":1,"native":1,"bps":4800,"parity":"N","stopbits":1,"cycle":1.00}]}
2017-11-16 14:22:44 1510860164.678846: {"class":"WATCH","enable":true,"json":false,"nmea":true,"raw":0,"scaled":false,"timing":false,"split24":false,"pps":false}
2017-11-16 14:22:45 1510860165.842694: $GPGSV,3,1,12,08,07,318,38,10,44,304,48,13,05,049,19,15,34,054,50*79
2017-11-16 14:22:45 1510860165.842866: $GPGSV,3,2,12,18,73,346,46,21,60,187,44,20,30,099,46,24,52,103,48*72
2017-11-16 14:22:45 1510860165.842927: $GPGSV,3,3,12,27,18,285,41,32,23,241,44,14,07,234,14,138,38,213,45*49
2017-11-16 14:22:45 1510860165.956018: $GPZDA,192244.00,16,11,2017,00,00*6D
2017-11-16 14:22:45 1510860165.956161: $GPGGA,192244,3946.9565,N,08404.9850,W,2,11,1.00,304.07,M,-33.324,M,,*79
2017-11-16 14:22:45 1510860165.956226: $GPRMC,192244,A,3946.9565,N,08404.9850,W,0.0000,0.000,161117,,*3D
2017-11-16 14:22:45 1510860165.956282: $GPGSA,A,3,8,10,13,15,18,21,20,24,27,32,138,,1.6,1.0,1.3*39
2017-11-16 14:22:46 1510860166.539731: $GPZDA,192245.00,16,11,2017,00,00*6C
2017-11-16 14:22:46 1510860166.539892: $GPGGA,192245,3946.9565,N,08404.9850,W,2,11,1.00,304.07,M,-33.324,M,,*78
2017-11-16 14:22:46 1510860166.539953: $GPRMC,192245,A,3946.9565,N,08404.9850,W,0.0000,0.000,161117,,*3C
2017-11-16 14:22:46 1510860166.540009: $GPGSA,A,3,8,10,13,15,18,21,20,24,27,32,138,,1.6,1.0,1.3*39
2017-11-16 14:22:47 1510860167.532762: $GPZDA,192246.00,16,11,2017,00,00*6F
2017-11-16 14:22:47 1510860167.532928: $GPGGA,192246,3946.9565,N,08404.9850,W,2,11,1.00,304.07,M,-33.324,M,,*7B
2017-11-16 14:22:47 1510860167.532989: $GPRMC,192246,A,3946.9565,N,08404.9850,W,0.0000,0.000,161117,,*3F
2017-11-16 14:22:47 1510860167.533045: $GPGSA,A,3,8,10,13,15,18,21,20,24,27,32,138,,1.6,1.0,1.3*39
2017-11-16 14:22:48 1510860168.872279: $GPGSV,3,1,12,08,07,318,38,10,44,304,48,13,05,049,20,15,34,054,50*73
2017-11-16 14:22:48 1510860168.872472: $GPGSV,3,2,12,18,73,346,46,21,60,187,45,20,30,099,46,24,52,103,48*73
2017-11-16 14:22:48 1510860168.872557: $GPGSV,3,3,12,27,18,285,41,32,23,241,44,14,07,234,16,138,38,213,45*4B
2017-11-16 14:22:48 1510860168.985595: $GPZDA,192247.00,16,11,2017,00,00*6E
2017-11-16 14:22:48 1510860168.985756: $GPGGA,192247,3946.9565,N,08404.9850,W,2,12,0.80,304.07,M,-33.324,M,,*70
2017-11-16 14:22:48 1510860168.985818: $GPRMC,192247,A,3946.9565,N,08404.9850,W,0.0000,0.000,161117,,*3E
2017-11-16 14:22:48 1510860168.985875: $GPGSA,A,3,8,10,13,15,18,21,20,24,27,32,14,138,1.6,0.8,1.3*35
2017-11-16 14:22:49 1510860169.611046: $GPZDA,192248.00,16,11,2017,00,00*61
2017-11-16 14:22:49 1510860169.611239: $GPGGA,192248,3946.9565,N,08404.9850,W,2,12,1.00,304.07,M,-33.324,M,,*76
2017-11-16 14:22:49 1510860169.611306: $GPRMC,192248,A,3946.9565,N,08404.9850,W,0.0000,0.000,161117,,*31
2017-11-16 14:22:49 1510860169.611366: $GPGSA,A,3,8,10,13,15,18,21,20,24,27,32,14,138,1.6,1.0,1.3*3C
2017-11-16 14:22:50 1510860170.534469: $GPZDA,192249.00,16,11,2017,00,00*60
2017-11-16 14:22:50 1510860170.534633: $GPGGA,192249,3946.9565,N,08404.9850,W,2,12,0.80,304.07,M,-33.324,M,,*7E
2017-11-16 14:22:50 1510860170.534695: $GPRMC,192249,A,3946.9565,N,08404.9850,W,0.0000,0.000,161117,,*30
2017-11-16 14:22:50 1510860170.534751: $GPGSA,A,3,8,10,13,15,18,21,20,24,27,32,14,138,1.6,0.8,1.3*35
2017-11-16 14:22:51 1510860171.868880: $GPGSV,3,1,12,08,07,318,38,10,44,304,48,13,05,049,21,15,34,054,50*72
2017-11-16 14:22:51 1510860171.869052: $GPGSV,3,2,12,18,73,346,46,21,60,187,44,20,30,099,46,24,52,103,48*72
2017-11-16 14:22:51 1510860171.869113: $GPGSV,3,3,12,27,18,285,42,32,23,241,44,14,07,234,30,138,38,213,43*4A
2017-11-16 14:22:51 1510860171.982207: $GPZDA,192250.00,16,11,2017,00,00*68
2017-11-16 14:22:51 1510860171.982386: $GPGGA,192250,3946.9565,N,08404.9850,W,2,12,0.80,304.07,M,-33.324,M,,*76
2017-11-16 14:22:51 1510860171.982498: $GPRMC,192250,A,3946.9565,N,08404.9850,W,0.0000,0.000,161117,,*38
2017-11-16 14:22:51 1510860171.982558: $GPGSA,A,3,8,10,13,15,18,21,20,24,27,32,14,138,1.6,0.8,1.3*35
2017-11-16 14:22:52 1510860172.501812: $GPZDA,192251.00,16,11,2017,00,00*69
2017-11-16 14:22:52 1510860172.501992: $GPGGA,192251,3946.9565,N,08404.9850,W,2,12,0.80,304.07,M,-33.324,M,,*77
2017-11-16 14:22:52 1510860172.502055: $GPRMC,192251,A,3946.9565,N,08404.9850,W,0.0000,0.000,161117,,*39
2017-11-16 14:22:52 1510860172.502111: $GPGSA,A,3,8,10,13,15,18,21,20,24,27,32,14,138,1.6,0.8,1.3*35
2017-11-16 14:22:53 1510860173.501739: $GPZDA,192252.00,16,11,2017,00,00*6A
2017-11-16 14:22:53 1510860173.501904: $GPGGA,192252,3946.9565,N,08404.9850,W,2,12,0.80,304.07,M,-33.324,M,,*74
2017-11-16 14:22:53 1510860173.501966: $GPRMC,192252,A,3946.9565,N,08404.9850,W,0.0000,0.000,161117,,*3A
2017-11-16 14:22:53 1510860173.502023: $GPGSA,A,3,8,10,13,15,18,21,20,24,27,32,14,138,1.6,0.8,1.3*35
2017-11-16 14:22:54 1510860174.838186: $GPGSV,3,1,12,08,07,318,38,10,44,304,48,13,05,049,21,15,34,054,50*72
2017-11-16 14:22:54 1510860174.838362: $GPGSV,3,2,12,18,73,346,46,21,60,187,45,20,30,099,46,24,52,103,48*73
2017-11-16 14:22:54 1510860174.838426: $GPGSV,3,3,12,27,18,285,42,32,23,241,44,14,07,234,31,138,38,213,44*4C
2017-11-16 14:22:54 1510860174.951847: $GPZDA,192253.00,16,11,2017,00,00*6B
2017-11-16 14:22:54 1510860174.952006: $GPGGA,192253,3946.9565,N,08404.9850,W,2,12,0.80,304.07,M,-33.324,M,,*75
2017-11-16 14:22:54 1510860174.952068: $GPRMC,192253,A,3946.9565,N,08404.9850,W,0.0000,0.000,161117,,*3B
2017-11-16 14:22:54 1510860174.952124: $GPGSA,A,3,8,10,13,15,18,21,20,24,27,32,14,138,1.6,0.8,1.3*35
2017-11-16 14:22:55 1510860175.501474: $GPZDA,192254.00,16,11,2017,00,00*6C
2017-11-16 14:22:55 1510860175.501634: $GPGGA,192254,3946.9565,N,08404.9850,W,2,12,0.80,304.07,M,-33.324,M,,*72
2017-11-16 14:22:55 1510860175.501696: $GPRMC,192254,A,3946.9565,N,08404.9850,W,0.0000,0.000,161117,,*3C
2017-11-16 14:22:55 1510860175.501751: $GPGSA,A,3,8,10,13,15,18,21,20,24,27,32,14,138,1.6,0.8,1.3*35
2017-11-16 14:22:56 1510860176.501089: $GPZDA,192255.00,16,11,2017,00,00*6D
2017-11-16 14:22:56 1510860176.501251: $GPGGA,192255,3946.9565,N,08404.9850,W,2,12,0.80,304.07,M,-33.324,M,,*73
2017-11-16 14:22:56 1510860176.501316: $GPRMC,192255,A,3946.9565,N,08404.9850,W,0.0000,0.000,161117,,*3D
2017-11-16 14:22:56 1510860176.501373: $GPGSA,A,3,8,10,13,15,18,21,20,24,27,32,14,138,1.6,0.8,1.3*35
2017-11-16 14:22:57 1510860177.839032: $GPGSV,3,1,12,08,07,318,37,10,44,304,48,13,05,049,21,15,34,054,50*7D
2017-11-16 14:22:57 1510860177.839203: $GPGSV,3,2,12,18,73,346,46,21,60,187,44,20,30,099,46,24,52,103,48*72
2017-11-16 14:22:57 1510860177.839268: $GPGSV,3,3,12,27,18,285,42,32,23,241,44,14,07,234,00,138,38,213,44*4E
2017-11-16 14:22:57 1510860177.952665: $GPZDA,192256.00,16,11,2017,00,00*6E
2017-11-16 14:22:57 1510860177.952828: $GPGGA,192256,3946.9565,N,08404.9850,W,2,11,1.00,304.07,M,-33.324,M,,*7A
2017-11-16 14:22:57 1510860177.952890: $GPRMC,192256,A,3946.9565,N,08404.9850,W,0.0000,0.000,161117,,*3E
2017-11-16 14:22:57 1510860177.952946: $GPGSA,A,3,8,10,13,15,18,21,20,24,27,32,138,,1.6,1.0,1.3*39
2017-11-16 14:22:58 1510860178.508530: $GPZDA,192257.00,16,11,2017,00,00*6F
2017-11-16 14:22:58 1510860178.508709: $GPGGA,192257,3946.9565,N,08404.9850,W,2,11,1.00,304.07,M,-33.324,M,,*7B
2017-11-16 14:22:58 1510860178.508773: $GPRMC,192257,A,3946.9565,N,08404.9850,W,0.0000,0.000,161117,,*3F
2017-11-16 14:22:58 1510860178.508829: $GPGSA,A,3,8,10,13,15,18,21,20,24,27,32,138,,1.6,1.0,1.3*39
2017-11-16 14:22:59 1510860179.502571: $GPZDA,192258.00,16,11,2017,00,00*60
2017-11-16 14:22:59 1510860179.502731: $GPGGA,192258,3946.9565,N,08404.9850,W,2,11,0.80,304.07,M,-33.324,M,,*7D
2017-11-16 14:22:59 1510860179.502808: $GPRMC,192258,A,3946.9565,N,08404.9850,W,0.0000,0.000,161117,,*30
2017-11-16 14:22:59 1510860179.502865: $GPGSA,A,3,8,10,13,15,18,21,20,24,27,32,138,,1.6,0.8,1.3*30
