2018-01-11 20:02:54 1515718974.555719: {"class":"VERSION","release":"3.16","rev":"3.16-4","proto_major":3,"proto_minor":11}
2018-01-11 20:02:54 1515718974.556067: {"class":"DEVICES","devices":[{"class":"DEVICE","path":"/dev/ttyUSB0","driver":"SiRF","subtype":"9\u0006GSD4e_4.1.2-P1_RPATCH.05-F-GPS-4R-1510281 11/03/2015 307","activated":"2018-01-12T01:02:54.292Z","flags":1,"native":1,"bps":4800,"parity":"N","stopbits":1,"cycle":1.00}]}
2018-01-11 20:02:54 1515718974.556185: {"class":"WATCH","enable":true,"json":false,"nmea":true,"raw":0,"scaled":false,"timing":false,"split24":false,"pps":false}
2018-01-11 20:02:54 1515718974.741898: $GPGSV,3,1,11,07,52,313,42,08,71,144,46,09,50,234,43,11,17,169,42*71
2018-01-11 20:02:54 1515718974.742072: $GPGSV,3,2,11,16,26,058,45,23,33,190,45,27,50,057,51,28,11,255,37*75
2018-01-11 20:02:54 1515718974.742138: $GPGSV,3,3,11,30,26,304,33,26,01,070,00,138,38,213,46*78
2018-01-11 20:02:54 1515718974.855307: $GPZDA,010255.00,12,01,2018,00,00*6C
2018-01-11 20:02:54 1515718974.855441: $GPGGA,010255,3946.9584,N,08404.9824,W,2,10,0.80,298.32,M,-33.324,M,,*74
2018-01-11 20:02:54 1515718974.855504: $GPRMC,010255,A,3946.9584,N,08404.9824,W,0.0000,0.000,120118,,*30
2018-01-11 20:02:54 1515718974.855566: $GPGSA,A,3,7,8,9,11,16,23,27,28,30,138,,,4.0,0.8,3.5*3E
2018-01-11 20:02:55 1515718975.408690: $GPZDA,010256.00,12,01,2018,00,00*6F
2018-01-11 20:02:55 1515718975.408851: $GPGGA,010256,3946.9584,N,08404.9824,W,2,10,0.80,298.32,M,-33.324,M,,*77
2018-01-11 20:02:55 1515718975.408918: $GPRMC,010256,A,3946.9584,N,08404.9824,W,0.0000,0.000,120118,,*33
2018-01-11 20:02:55 1515718975.408979: $GPGSA,A,3,7,8,9,11,16,23,27,28,30,138,,,4.0,0.8,3.5*3E
2018-01-11 20:02:56 1515718976.407867: $GPZDA,010257.00,12,01,2018,00,00*6E
2018-01-11 20:02:56 1515718976.408031: $GPGGA,010257,3946.9584,N,08404.9824,W,2,10,0.80,298.32,M,-33.324,M,,*76
2018-01-11 20:02:56 1515718976.408097: $GPRMC,010257,A,3946.9584,N,08404.9824,W,0.0000,0.000,120118,,*32
2018-01-11 20:02:56 1515718976.408159: $GPGSA,A,3,7,8,9,11,16,23,27,28,30,138,,,4.0,0.8,3.5*3E
2018-01-11 20:02:57 1515718977.744798: $GPGSV,3,1,11,07,52,313,42,08,71,144,46,09,50,234,43,11,17,169,42*71
2018-01-11 20:02:57 1515718977.744953: $GPGSV,3,2,11,16,26,058,45,23,33,190,45,27,50,057,51,28,11,255,37*75
2018-01-11 20:02:57 1515718977.745019: $GPGSV,3,3,11,30,26,304,34,26,01,070,00,138,38,213,46*7F
2018-01-11 20:02:57 1515718977.858183: $GPZDA,010258.00,12,01,2018,00,00*61
2018-01-11 20:02:57 1515718977.858303: $GPGGA,010258,3946.9584,N,08404.9824,W,2,10,0.80,298.32,M,-33.324,M,,*79
2018-01-11 20:02:57 1515718977.858367: $GPRMC,010258,A,3946.9584,N,08404.9824,W,0.0000,0.000,120118,,*3D
2018-01-11 20:02:57 1515718977.858429: $GPGSA,A,3,7,8,9,11,16,23,27,28,30,138,,,4.0,0.8,3.5*3E
2018-01-11 20:02:58 1515718978.414302: $GPZDA,010259.00,12,01,2018,00,00*60
2018-01-11 20:02:58 1515718978.414454: $GPGGA,010259,3946.9584,N,08404.9824,W,2,10,0.80,298.32,M,-33.324,M,,*78
2018-01-11 20:02:58 1515718978.414521: $GPRMC,010259,A,3946.9584,N,08404.9824,W,0.0000,0.000,120118,,*3C
2018-01-11 20:02:58 1515718978.414582: $GPGSA,A,3,7,8,9,11,16,23,27,28,30,138,,,4.0,0.8,3.5*3E
2018-01-11 20:02:59 1515718979.391442: $GPZDA,010300.00,12,01,2018,00,00*6D
2018-01-11 20:02:59 1515718979.391596: $GPGGA,010300,3946.9584,N,08404.9824,W,2,10,0.80,298.32,M,-33.324,M,,*75
2018-01-11 20:02:59 1515718979.391665: $GPRMC,010300,A,3946.9584,N,08404.9824,W,0.0000,0.000,120118,,*31
2018-01-11 20:02:59 1515718979.391726: $GPGSA,A,3,7,8,9,11,16,23,27,28,30,138,,,4.0,0.8,3.5*3E
2018-01-11 20:03:00 1515718980.728061: $GPGSV,3,1,11,07,52,313,42,08,71,144,45,09,50,234,42,11,17,169,42*73
2018-01-11 20:03:00 1515718980.728242: $GPGSV,3,2,11,16,26,058,45,23,33,190,45,27,50,057,51,28,11,255,38*7A
2018-01-11 20:03:00 1515718980.728309: $GPGSV,3,3,11,30,26,304,34,26,01,070,00,138,38,213,45*7C
2018-01-11 20:03:00 1515718980.841775: $GPZDA,010301.00,12,01,2018,00,00*6C
2018-01-11 20:03:00 1515718980.841913: $GPGGA,010301,3946.9584,N,08404.9824,W,2,10,0.80,298.32,M,-33.324,M,,*74
2018-01-11 20:03:00 1515718980.841977: $GPRMC,010301,A,3946.9584,N,08404.9824,W,0.0000,0.000,120118,,*30
2018-01-11 20:03:00 1515718980.842115: $GPGSA,A,3,7,8,9,11,16,23,27,28,30,138,,,4.0,0.8,3.5*3E
2018-01-11 20:03:01 1515718981.466886: $GPZDA,010302.00,12,01,2018,00,00*6F
2018-01-11 20:03:01 1515718981.467036: $GPGGA,010302,3946.9584,N,08404.9824,W,2,10,0.80,298.32,M,-33.324,M,,*77
2018-01-11 20:03:01 1515718981.467104: $GPRMC,010302,A,3946.9584,N,08404.9824,W,0.0000,0.000,120118,,*33
2018-01-11 20:03:01 1515718981.467165: $GPGSA,A,3,7,8,9,11,16,23,27,28,30,138,,,4.0,0.8,3.5*3E
2018-01-11 20:03:02 1515718982.391700: $GPZDA,010303.00,12,01,2018,00,00*6E
2018-01-11 20:03:02 1515718982.391867: $GPGGA,010303,3946.9584,N,08404.9824,W,2,10,0.80,298.32,M,-33.324,M,,*76
2018-01-11 20:03:02 1515718982.391933: $GPRMC,010303,A,3946.9584,N,08404.9824,W,0.0000,0.000,120118,,*32
2018-01-11 20:03:02 1515718982.391994: $GPGSA,A,3,7,8,9,11,16,23,27,28,30,138,,,4.0,0.8,3.5*3E
2018-01-11 20:03:03 1515718983.744655: $GPGSV,3,1,11,07,52,313,42,08,71,144,45,09,50,234,42,11,17,169,42*73
2018-01-11 20:03:03 1515718983.744844: $GPGSV,3,2,11,16,26,058,45,23,33,190,45,27,50,057,51,28,11,255,38*7A
2018-01-11 20:03:03 1515718983.744910: $GPGSV,3,3,11,30,26,304,34,26,01,070,11,138,38,213,45*7C
2018-01-11 20:03:03 1515718983.858262: $GPZDA,010304.00,12,01,2018,00,00*69
2018-01-11 20:03:03 1515718983.862963: $GPGGA,010304,3946.9584,N,08404.9824,W,2,10,0.80,298.32,M,-33.324,M,,*71
2018-01-11 20:03:03 1515718983.863064: $GPRMC,010304,A,3946.9584,N,08404.9824,W,0.0000,0.000,120118,,*35
2018-01-11 20:03:03 1515718983.863130: $GPGSA,A,3,7,8,9,11,16,23,27,28,30,138,,,4.0,0.8,3.5*3E
2018-01-11 20:03:04 1515718984.409193: $GPZDA,010305.00,12,01,2018,00,00*68
2018-01-11 20:03:04 1515718984.409347: $GPGGA,010305,3946.9584,N,08404.9824,W,2,10,0.80,298.32,M,-33.324,M,,*70
2018-01-11 20:03:04 1515718984.409412: $GPRMC,010305,A,3946.9584,N,08404.9824,W,0.0000,0.000,120118,,*34
2018-01-11 20:03:04 1515718984.409473: $GPGSA,A,3,7,8,9,11,16,23,27,28,30,138,,,4.0,0.8,3.5*3E
2018-01-11 20:03:05 1515718985.392539: $GPZDA,010306.00,12,01,2018,00,00*6B
2018-01-11 20:03:05 1515718985.392710: $GPGGA,010306,3946.9584,N,08404.9824,W,2,10,0.80,298.32,M,-33.324,M,,*73
2018-01-11 20:03:05 1515718985.392775: $GPRMC,010306,A,3946.9584,N,08404.9824,W,0.0000,0.000,120118,,*37
2018-01-11 20:03:05 1515718985.392837: $GPGSA,A,3,7,8,9,11,16,23,27,28,30,138,,,4.0,0.8,3.5*3E
