2018-01-12 20:09:43 1515805783.291108: {"class":"VERSION","release":"3.16","rev":"3.16-4","proto_major":3,"proto_minor":11}
2018-01-12 20:09:43 1515805783.291461: {"class":"DEVICES","devices":[{"class":"DEVICE","path":"/dev/ttyUSB0","driver":"SiRF","subtype":"9\u0006GSD4e_4.1.2-P1_RPATCH.05-F-GPS-4R-1510281 11/03/2015 307","activated":"2018-01-13T01:09:42.309Z","flags":1,"native":1,"bps":4800,"parity":"N","stopbits":1,"cycle":1.00}]}
2018-01-12 20:09:43 1515805783.291580: {"class":"WATCH","enable":true,"json":false,"nmea":true,"raw":0,"scaled":false,"timing":false,"split24":false,"pps":false}
2018-01-12 20:09:43 1515805783.503804: $GPGSV,3,1,10,08,74,126,30,09,47,228,25,11,21,166,19,23,27,189,21*7F
2018-01-12 20:09:43 1515805783.503984: $GPGSV,3,2,10,27,46,052,26,07,57,315,10,16,22,061,13,30,30,306,00*79
2018-01-12 20:09:43 1515805783.504050: $GPGSV,3,3,10,28,15,259,00,138,38,213,00*49
2018-01-12 20:09:43 1515805783.617474: $GPZDA,010944.00,13,01,2018,00,00*66
2018-01-12 20:09:43 1515805783.617631: $GPGGA,010944,3946.9599,N,08404.9550,W,1,07,1.40,290.23,M,-33.324,M,,*7D
2018-01-12 20:09:43 1515805783.617696: $GPRMC,010944,A,3946.9599,N,08404.9550,W,0.8051,140.841,130118,,*3C
2018-01-12 20:09:43 1515805783.617757: $GPGSA,A,3,8,9,11,23,27,7,16,,,,,,4.8,1.4,4.6*0C
2018-01-12 20:09:44 1515805784.169451: $GPZDA,010945.00,13,01,2018,00,00*67
2018-01-12 20:09:44 1515805784.169642: $GPGGA,010945,3946.9599,N,08404.9550,W,1,07,1.40,290.23,M,-33.324,M,,*7C
2018-01-12 20:09:44 1515805784.169712: $GPRMC,010945,A,3946.9599,N,08404.9550,W,0.4989,147.677,130118,,*31
2018-01-12 20:09:44 1515805784.169773: $GPGSA,A,3,8,9,11,23,27,7,16,,,,,,4.8,1.4,4.6*0C
2018-01-12 20:09:45 1515805785.170016: $GPZDA,010946.00,13,01,2018,00,00*64
2018-01-12 20:09:45 1515805785.170188: $GPGGA,010946,3946.9599,N,08404.9550,W,1,07,1.40,290.23,M,-33.324,M,,*7F
2018-01-12 20:09:45 1515805785.170254: $GPRMC,010946,A,3946.9599,N,08404.9550,W,0.3954,132.450,130118,,*30
2018-01-12 20:09:45 1515805785.170315: $GPGSA,A,3,8,9,11,23,27,7,16,,,,,,4.8,1.4,4.6*0C
2018-01-12 20:09:46 1515805786.504418: $GPGSV,3,1,10,08,74,126,30,09,47,228,25,11,21,166,19,23,27,189,21*7F
2018-01-12 20:09:46 1515805786.504599: $GPGSV,3,2,10,27,46,052,26,07,57,315,12,16,22,061,13,30,30,306,00*7B
2018-01-12 20:09:46 1515805786.504668: $GPGSV,3,3,10,28,15,259,00,138,38,213,00*49
2018-01-12 20:09:46 1515805786.617812: $GPZDA,010947.00,13,01,2018,00,00*65
2018-01-12 20:09:46 1515805786.617987: $GPGGA,010947,3946.9600,N,08404.9557,W,1,07,1.40,290.15,M,-33.324,M,,*7F
2018-01-12 20:09:46 1515805786.618057: $GPRMC,010947,A,3946.9600,N,08404.9557,W,0.2967,226.893,130118,,*31
2018-01-12 20:09:46 1515805786.618121: $GPGSA,A,3,8,9,11,23,27,7,16,,,,,,4.8,1.4,4.6*0C
2018-01-12 20:09:47 1515805787.168184: $GPZDA,010948.00,13,01,2018,00,00*6A
2018-01-12 20:09:47 1515805787.168358: $GPGGA,010948,3946.9600,N,08404.9557,W,1,07,1.40,290.15,M,-33.324,M,,*70
2018-01-12 20:09:47 1515805787.168426: $GPRMC,010948,A,3946.9600,N,08404.9557,W,0.4700,9.201,130118,,*39
2018-01-12 20:09:47 1515805787.168490: $GPGSA,A,3,8,9,11,23,27,7,16,,,,,,4.8,1.4,4.6*0C
2018-01-12 20:09:48 1515805788.169177: $GPZDA,010949.00,13,01,2018,00,00*6B
2018-01-12 20:09:48 1515805788.169367: $GPGGA,010949,3946.9600,N,08404.9557,W,1,07,1.40,290.15,M,-33.324,M,,*71
2018-01-12 20:09:48 1515805788.169439: $GPRMC,010949,A,3946.9600,N,08404.9557,W,0.4137,44.855,130118,,*08
2018-01-12 20:09:48 1515805788.169520: $GPGSA,A,3,8,9,11,23,27,7,16,,,,,,4.8,1.4,4.6*0C
2018-01-12 20:09:48 1515805788.169607: $GPGBS,010949,14.24,M,16.36,M,105.11,M*3E
2018-01-12 20:09:49 1515805789.503687: $GPGSV,3,1,10,08,74,126,30,09,47,228,25,11,21,166,19,23,27,189,21*7F
2018-01-12 20:09:49 1515805789.503871: $GPGSV,3,2,10,27,46,052,26,07,57,315,14,16,22,061,07,28,15,259,10*7C
2018-01-12 20:09:49 1515805789.503955: $GPGSV,3,3,10,30,30,306,00,138,38,213,00*4C
2018-01-12 20:09:49 1515805789.617197: $GPZDA,010950.00,13,01,2018,00,00*63
2018-01-12 20:09:49 1515805789.617350: $GPGGA,010950,3946.9600,N,08404.9558,W,1,08,1.60,291.56,M,-33.324,M,,*7D
2018-01-12 20:09:49 1515805789.617462: $GPRMC,010950,A,3946.9600,N,08404.9558,W,0.4137,44.855,130118,,*0F
2018-01-12 20:09:49 1515805789.617525: $GPGSA,A,3,8,9,11,23,27,7,16,28,,,,,4.8,1.6,4.6*04
2018-01-12 20:09:50 1515805790.165930: $GPZDA,010951.00,13,01,2018,00,00*62
2018-01-12 20:09:50 1515805790.166095: $GPGGA,010951,3946.9600,N,08404.9558,W,1,08,1.60,291.56,M,-33.324,M,,*7C
2018-01-12 20:09:50 1515805790.166162: $GPRMC,010951,A,3946.9600,N,08404.9558,W,0.6012,62.539,130118,,*09
2018-01-12 20:09:50 1515805790.166223: $GPGSA,A,3,8,9,11,23,27,7,16,28,,,,,4.8,1.6,4.6*04
2018-01-12 20:09:51 1515805791.166338: $GPZDA,010952.00,13,01,2018,00,00*61
2018-01-12 20:09:51 1515805791.166501: $GPGGA,010952,3946.9596,N,08404.9552,W,1,08,1.60,292.40,M,-33.324,M,,*7D
2018-01-12 20:09:51 1515805791.166569: $GPRMC,010952,A,3946.9596,N,08404.9552,W,0.7621,107.945,130118,,*3E
2018-01-12 20:09:51 1515805791.166630: $GPGSA,A,3,8,9,11,23,27,7,16,28,,,,,4.8,1.6,4.6*04
2018-01-12 20:09:52 1515805792.502257: $GPGSV,3,1,10,08,74,126,30,09,47,228,25,11,21,166,19,23,27,189,21*7F
2018-01-12 20:09:52 1515805792.502442: $GPGSV,3,2,10,27,46,052,26,07,57,315,16,16,22,061,05,30,30,306,00*78
2018-01-12 20:09:52 1515805792.502508: $GPGSV,3,3,10,28,15,259,00,138,38,213,00*49
2018-01-12 20:09:52 1515805792.615965: $GPZDA,010953.00,13,01,2018,00,00*60
2018-01-12 20:09:52 1515805792.616114: $GPGGA,010953,3946.9596,N,08404.9552,W,1,06,1.60,292.40,M,-33.324,M,,*72
2018-01-12 20:09:52 1515805792.616181: $GPRMC,010953,A,3946.9596,N,08404.9552,W,0.5669,116.262,130118,,*3F
2018-01-12 20:09:52 1515805792.616243: $GPGSA,A,3,8,9,11,23,27,7,,,,,,,4.8,1.6,4.6*09
2018-01-12 20:09:53 1515805793.165881: $GPZDA,010954.00,13,01,2018,00,00*67
2018-01-12 20:09:53 1515805793.167631: $GPGGA,010954,3946.9596,N,08404.9552,W,1,06,1.60,292.40,M,-33.324,M,,*75
2018-01-12 20:09:53 1515805793.167746: $GPRMC,010954,A,3946.9596,N,08404.9552,W,0.0407,142.011,130118,,*30
2018-01-12 20:09:53 1515805793.167810: $GPGSA,A,3,8,9,11,23,27,7,,,,,,,4.8,1.6,4.6*09
2018-01-12 20:09:54 1515805794.168245: $GPZDA,010955.00,13,01,2018,00,00*66
2018-01-12 20:09:54 1515805794.168417: $GPGGA,010955,3946.9596,N,08404.9552,W,1,06,1.60,292.40,M,-33.324,M,,*74
2018-01-12 20:09:54 1515805794.168485: $GPRMC,010955,A,3946.9596,N,08404.9552,W,0.4137,44.855,130118,,*0C
2018-01-12 20:09:54 1515805794.168547: $GPGSA,A,3,8,9,11,23,27,7,,,,,,,4.8,1.6,4.6*09
2018-01-12 20:09:55 1515805795.501610: $GPGSV,3,1,10,08,74,126,30,09,47,228,25,11,21,166,19,23,27,189,21*7F
2018-01-12 20:09:55 1515805795.501794: $GPGSV,3,2,10,27,46,052,27,07,57,315,16,30,30,306,00,28,15,259,13*7E
2018-01-12 20:09:55 1515805795.501859: $GPGSV,3,3,10,16,22,061,00,138,38,213,00*49
2018-01-12 20:09:55 1515805795.615298: $GPZDA,010956.00,13,01,2018,00,00*65
2018-01-12 20:09:55 1515805795.615438: $GPGGA,010956,3946.9593,N,08404.9553,W,1,06,1.60,293.17,M,-33.324,M,,*70
2018-01-12 20:09:55 1515805795.615504: $GPRMC,010956,A,3946.9593,N,08404.9553,W,0.3554,131.360,130118,,*33
2018-01-12 20:09:55 1515805795.615565: $GPGSA,A,3,8,9,11,23,27,7,,,,,,,4.8,1.6,4.6*09
2018-01-12 20:09:56 1515805796.165511: $GPZDA,010957.00,13,01,2018,00,00*64
2018-01-12 20:09:56 1515805796.165727: $GPGGA,010957,3946.9593,N,08404.9553,W,1,06,1.60,293.17,M,-33.324,M,,*71
2018-01-12 20:09:56 1515805796.165799: $GPRMC,010957,A,3946.9593,N,08404.9553,W,0.0407,142.011,130118,,*37
2018-01-12 20:09:56 1515805796.165864: $GPGSA,A,3,8,9,11,23,27,7,,,,,,,4.8,1.6,4.6*09
2018-01-12 20:09:57 1515805797.165689: $GPZDA,010958.00,13,01,2018,00,00*6B
2018-01-12 20:09:57 1515805797.165866: $GPGGA,010958,3946.9597,N,08404.9553,W,1,06,1.60,293.81,M,-33.324,M,,*75
2018-01-12 20:09:57 1515805797.165934: $GPRMC,010958,A,3946.9597,N,08404.9553,W,0.4137,44.855,130118,,*01
2018-01-12 20:09:57 1515805797.165998: $GPGSA,A,3,8,9,11,23,27,7,,,,,,,4.8,1.6,4.6*09
2018-01-12 20:09:58 1515805798.501480: $GPGSV,3,1,10,08,74,126,30,09,47,228,25,11,21,166,19,23,27,189,21*7F
2018-01-12 20:09:58 1515805798.501652: $GPGSV,3,2,10,27,46,052,27,07,57,315,17,30,30,306,00,16,22,061,00*7D
2018-01-12 20:09:58 1515805798.501758: $GPGSV,3,3,10,28,15,259,00,138,38,213,00*49
2018-01-12 20:09:58 1515805798.615180: $GPZDA,010959.00,13,01,2018,00,00*6A
2018-01-12 20:09:58 1515805798.615382: $GPGGA,010959,3946.9597,N,08404.9553,W,1,06,1.60,293.81,M,-33.324,M,,*74
2018-01-12 20:09:58 1515805798.615450: $GPRMC,010959,A,3946.9597,N,08404.9553,W,0.3133,9.201,130118,,*31
2018-01-12 20:09:58 1515805798.615511: $GPGSA,A,3,8,9,11,23,27,7,,,,,,,4.8,1.6,4.6*09
2018-01-12 20:09:59 1515805799.164701: $GPZDA,011000.00,13,01,2018,00,00*6E
2018-01-12 20:09:59 1515805799.164894: $GPGGA,011000,3946.9597,N,08404.9553,W,1,06,1.60,293.81,M,-33.324,M,,*70
2018-01-12 20:09:59 1515805799.164964: $GPRMC,011000,A,3946.9597,N,08404.9553,W,0.3133,9.201,130118,,*35
2018-01-12 20:09:59 1515805799.165026: $GPGSA,A,3,8,9,11,23,27,7,,,,,,,4.8,1.6,4.6*09
2018-01-12 20:10:00 1515805800.165899: $GPZDA,011001.00,13,01,2018,00,00*6F
2018-01-12 20:10:00 1515805800.166072: $GPGGA,011001,3946.9594,N,08404.9553,W,1,06,1.60,294.57,M,-33.324,M,,*7E
2018-01-12 20:10:00 1515805800.166138: $GPRMC,011001,A,3946.9594,N,08404.9553,W,0.1567,9.201,130118,,*30
2018-01-12 20:10:00 1515805800.166199: $GPGSA,A,3,8,9,11,23,27,7,,,,,,,4.8,1.6,4.6*09
2018-01-12 20:10:01 1515805801.991026: $GPGSV,3,1,10,08,74,126,30,09,46,228,25,11,21,166,19,23,27,189,22*7D
2018-01-12 20:10:01 1515805801.991205: $GPGSV,3,2,10,27,46,052,27,07,57,315,18,30,30,306,00,16,22,061,00*72
2018-01-12 20:10:01 1515805801.991272: $GPGSV,3,3,10,28,15,259,00,138,38,213,00*49
2018-01-12 20:10:02 1515805802.104386: $GPZDA,011002.00,13,01,2018,00,00*6C
2018-01-12 20:10:02 1515805802.104534: $GPGGA,011002,3946.9594,N,08404.9553,W,1,06,1.60,294.57,M,-33.324,M,,*7D
2018-01-12 20:10:02 1515805802.104600: $GPRMC,011002,A,3946.9594,N,08404.9553,W,0.2758,308.233,130118,,*3D
2018-01-12 20:10:02 1515805802.104662: $GPGSA,A,3,8,9,11,23,27,7,,,,,,,4.8,1.6,4.6*09
2018-01-12 20:10:02 1515805802.358258: $GPZDA,011003.00,13,01,2018,00,00*6D
2018-01-12 20:10:02 1515805802.358436: $GPGGA,011003,3946.9598,N,08404.9560,W,1,06,1.60,295.13,M,-33.324,M,,*71
2018-01-12 20:10:02 1515805802.358503: $GPRMC,011003,A,3946.9598,N,08404.9560,W,0.4179,328.778,130118,,*3B
2018-01-12 20:10:02 1515805802.358564: $GPGSA,A,3,8,9,11,23,27,7,,,,,,,4.8,1.6,4.6*09
2018-01-12 20:10:03 1515805803.165888: $GPZDA,011004.00,13,01,2018,00,00*6A
2018-01-12 20:10:03 1515805803.166049: $GPGGA,011004,3946.9595,N,08404.9561,W,1,06,1.60,295.90,M,-33.324,M,,*71
2018-01-12 20:10:03 1515805803.166116: $GPRMC,011004,A,3946.9595,N,08404.9561,W,0.4179,328.778,130118,,*30
2018-01-12 20:10:03 1515805803.166176: $GPGSA,A,3,8,9,11,23,27,7,,,,,,,4.8,1.6,4.6*09
