2017-12-01 17:08:18 1512166098.026611: {"class":"VERSION","release":"3.16","rev":"3.16-4","proto_major":3,"proto_minor":11}
2017-12-01 17:08:18 1512166098.027078: {"class":"DEVICES","devices":[{"class":"DEVICE","path":"/dev/ttyUSB0","driver":"SiRF","subtype":"9\u0006GSD4e_4.1.2-P1_RPATCH.05-F-GPS-4R-1510281 11/03/2015 307","activated":"2017-12-01T22:08:17.595Z","flags":1,"native":1,"bps":4800,"parity":"N","stopbits":1,"cycle":1.00}]}
2017-12-01 17:08:18 1512166098.027198: {"class":"WATCH","enable":true,"json":false,"nmea":true,"raw":0,"scaled":false,"timing":false,"split24":false,"pps":false}
2017-12-01 17:08:18 1512166098.448526: $GPZDA,220819.00,01,12,2017,00,00*60
2017-12-01 17:08:18 1512166098.448700: $GPGGA,220819,3946.9662,N,08404.9732,W,2,12,0.80,296.49,M,-33.324,M,,*74
2017-12-01 17:08:18 1512166098.448767: $GPRMC,220819,A,3946.9662,N,08404.9732,W,0.0000,0.000,011217,,*3F
2017-12-01 17:08:18 1512166098.448852: $GPGSA,A,3,1,3,10,14,22,26,31,32,11,12,25,138,2.0,0.8,1.5*03
2017-12-01 17:08:19 1512166099.786410: $GPGSV,3,1,12,01,21,283,40,03,14,316,41,10,30,154,35,14,70,013,46*76
2017-12-01 17:08:19 1512166099.786638: $GPGSV,3,2,12,22,33,307,48,26,18,180,37,31,73,250,47,32,60,066,48*7A
2017-12-01 17:08:19 1512166099.786734: $GPGSV,3,3,12,11,02,268,25,12,13,037,20,25,39,067,29,138,38,213,36*47
2017-12-01 17:08:19 1512166099.899673: $GPZDA,220820.00,01,12,2017,00,00*6A
2017-12-01 17:08:19 1512166099.899862: $GPGGA,220820,3946.9662,N,08404.9732,W,2,12,0.80,296.49,M,-33.324,M,,*7E
2017-12-01 17:08:19 1512166099.899965: $GPRMC,220820,A,3946.9662,N,08404.9732,W,0.0000,0.000,011217,,*35
2017-12-01 17:08:19 1512166099.900029: $GPGSA,A,3,1,3,10,14,22,26,31,32,11,12,25,138,2.0,0.8,1.5*03
2017-12-01 17:08:20 1512166100.448037: $GPZDA,220821.00,01,12,2017,00,00*6B
2017-12-01 17:08:20 1512166100.448207: $GPGGA,220821,3946.9662,N,08404.9732,W,2,12,0.80,296.49,M,-33.324,M,,*7F
2017-12-01 17:08:20 1512166100.448274: $GPRMC,220821,A,3946.9662,N,08404.9732,W,0.0000,0.000,011217,,*34
2017-12-01 17:08:20 1512166100.448353: $GPGSA,A,3,1,3,10,14,22,26,31,32,11,12,25,138,2.0,0.8,1.5*03
2017-12-01 17:08:21 1512166101.453909: $GPZDA,220822.00,01,12,2017,00,00*68
2017-12-01 17:08:21 1512166101.454097: $GPGGA,220822,3946.9662,N,08404.9732,W,2,12,0.80,296.49,M,-33.324,M,,*7C
2017-12-01 17:08:21 1512166101.454164: $GPRMC,220822,A,3946.9662,N,08404.9732,W,0.0000,0.000,011217,,*37
2017-12-01 17:08:21 1512166101.454224: $GPGSA,A,3,1,3,10,14,22,26,31,32,11,12,25,138,2.0,0.8,1.5*03
2017-12-01 17:08:22 1512166102.804397: $GPGSV,3,1,12,01,21,283,40,03,14,316,41,10,30,154,34,14,70,013,46*77
2017-12-01 17:08:22 1512166102.804595: $GPGSV,3,2,12,22,33,307,47,26,18,180,37,31,73,250,48,32,60,066,49*7B
2017-12-01 17:08:22 1512166102.804664: $GPGSV,3,3,12,11,02,268,29,12,13,037,19,25,39,067,28,138,38,213,39*4F
2017-12-01 17:08:22 1512166102.918001: $GPZDA,220823.00,01,12,2017,00,00*69
2017-12-01 17:08:22 1512166102.918144: $GPGGA,220823,3946.9662,N,08404.9732,W,2,12,0.80,296.49,M,-33.324,M,,*7D
2017-12-01 17:08:22 1512166102.918210: $GPRMC,220823,A,3946.9662,N,08404.9732,W,0.0000,0.000,011217,,*36
2017-12-01 17:08:22 1512166102.918271: $GPGSA,A,3,1,3,10,14,22,26,31,32,11,12,25,138,2.0,0.8,1.5*03
2017-12-01 17:08:23 1512166103.454080: $GPZDA,220824.00,01,12,2017,00,00*6E
2017-12-01 17:08:23 1512166103.454278: $GPGGA,220824,3946.9666,N,08404.9731,W,2,12,0.80,295.73,M,-33.324,M,,*77
2017-12-01 17:08:23 1512166103.454347: $GPRMC,220824,A,3946.9666,N,08404.9731,W,0.0000,0.000,011217,,*36
2017-12-01 17:08:23 1512166103.454408: $GPGSA,A,3,1,3,10,14,22,26,31,32,11,12,25,138,2.0,0.8,1.5*03
2017-12-01 17:08:24 1512166104.471865: $GPZDA,220825.00,01,12,2017,00,00*6F
2017-12-01 17:08:24 1512166104.472052: $GPGGA,220825,3946.9666,N,08404.9731,W,2,12,0.80,295.73,M,-33.324,M,,*76
2017-12-01 17:08:24 1512166104.472121: $GPRMC,220825,A,3946.9666,N,08404.9731,W,0.0000,0.000,011217,,*37
2017-12-01 17:08:24 1512166104.472182: $GPGSA,A,3,1,3,10,14,22,26,31,32,11,12,25,138,2.0,0.8,1.5*03
2017-12-01 17:08:25 1512166105.806041: $GPGSV,3,1,12,01,21,283,40,03,14,316,41,10,30,154,34,14,70,013,46*77
2017-12-01 17:08:25 1512166105.806274: $GPGSV,3,2,12,22,33,307,48,26,18,180,37,31,73,250,48,32,60,066,48*75
2017-12-01 17:08:25 1512166105.806345: $GPGSV,3,3,12,11,02,268,29,12,13,037,19,25,39,067,28,138,38,213,39*4F
2017-12-01 17:08:25 1512166105.919805: $GPZDA,220826.00,01,12,2017,00,00*6C
2017-12-01 17:08:25 1512166105.919965: $GPGGA,220826,3946.9666,N,08404.9724,W,2,12,0.80,295.81,M,-33.324,M,,*7C
2017-12-01 17:08:25 1512166105.920030: $GPRMC,220826,A,3946.9666,N,08404.9724,W,0.0000,0.000,011217,,*30
2017-12-01 17:08:25 1512166105.920090: $GPGSA,A,3,1,3,10,14,22,26,31,32,11,12,25,138,2.0,0.8,1.5*03
2017-12-01 17:08:26 1512166106.470322: $GPZDA,220827.00,01,12,2017,00,00*6D
2017-12-01 17:08:26 1512166106.470497: $GPGGA,220827,3946.9666,N,08404.9724,W,2,12,0.80,295.81,M,-33.324,M,,*7D
2017-12-01 17:08:26 1512166106.470564: $GPRMC,220827,A,3946.9666,N,08404.9724,W,0.0000,0.000,011217,,*31
2017-12-01 17:08:26 1512166106.470626: $GPGSA,A,3,1,3,10,14,22,26,31,32,11,12,25,138,2.0,0.8,1.5*03
2017-12-01 17:08:27 1512166107.471673: $GPZDA,220828.00,01,12,2017,00,00*62
2017-12-01 17:08:27 1512166107.471850: $GPGGA,220828,3946.9666,N,08404.9724,W,2,12,0.80,295.81,M,-33.324,M,,*72
2017-12-01 17:08:27 1512166107.471919: $GPRMC,220828,A,3946.9666,N,08404.9724,W,0.0000,0.000,011217,,*3E
2017-12-01 17:08:27 1512166107.471980: $GPGSA,A,3,1,3,10,14,22,26,31,32,11,12,25,138,2.0,0.8,1.5*03
2017-12-01 17:08:28 1512166108.789368: $GPGSV,3,1,12,01,21,283,39,03,14,316,41,10,30,154,33,14,70,013,46*7E
2017-12-01 17:08:28 1512166108.789550: $GPGSV,3,2,12,22,33,307,48,26,18,180,37,31,73,250,47,32,60,066,48*7A
2017-12-01 17:08:28 1512166108.789617: $GPGSV,3,3,12,11,02,268,29,12,13,037,18,25,39,067,28,138,38,213,39*4E
2017-12-01 17:08:28 1512166108.902742: $GPZDA,220829.00,01,12,2017,00,00*63
2017-12-01 17:08:28 1512166108.902888: $GPGGA,220829,3946.9666,N,08404.9724,W,2,12,0.80,295.81,M,-33.324,M,,*73
2017-12-01 17:08:28 1512166108.902954: $GPRMC,220829,A,3946.9666,N,08404.9724,W,0.0000,0.000,011217,,*3F
2017-12-01 17:08:28 1512166108.903014: $GPGSA,A,3,1,3,10,14,22,26,31,32,11,12,25,138,2.0,0.8,1.5*03
2017-12-01 17:08:29 1512166109.528098: $GPZDA,220830.00,01,12,2017,00,00*6B
2017-12-01 17:08:29 1512166109.528289: $GPGGA,220830,3946.9666,N,08404.9724,W,2,12,0.80,295.81,M,-33.324,M,,*7B
2017-12-01 17:08:29 1512166109.528360: $GPRMC,220830,A,3946.9666,N,08404.9724,W,0.0000,0.000,011217,,*37
2017-12-01 17:08:29 1512166109.528421: $GPGSA,A,3,1,3,10,14,22,26,31,32,11,12,25,138,2.0,0.8,1.5*03
2017-12-01 17:08:30 1512166110.449221: $GPZDA,220831.00,01,12,2017,00,00*6A
2017-12-01 17:08:30 1512166110.449397: $GPGGA,220831,3946.9666,N,08404.9724,W,2,12,0.80,295.81,M,-33.324,M,,*7A
2017-12-01 17:08:30 1512166110.449463: $GPRMC,220831,A,3946.9666,N,08404.9724,W,0.0000,0.000,011217,,*36
2017-12-01 17:08:30 1512166110.449524: $GPGSA,A,3,1,3,10,14,22,26,31,32,11,12,25,138,2.0,0.8,1.5*03
2017-12-01 17:08:31 1512166111.807234: $GPGSV,3,1,12,01,21,283,40,03,14,316,42,10,30,154,34,14,70,013,45*77
2017-12-01 17:08:31 1512166111.807416: $GPGSV,3,2,12,22,33,307,47,26,18,180,38,31,73,250,47,32,60,066,48*7A
2017-12-01 17:08:31 1512166111.807484: $GPGSV,3,3,12,11,02,268,30,12,13,037,18,25,39,067,28,138,38,213,38*47
2017-12-01 17:08:31 1512166111.921190: $GPZDA,220832.00,01,12,2017,00,00*69
2017-12-01 17:08:31 1512166111.921405: $GPGGA,220832,3946.9666,N,08404.9724,W,2,12,0.80,295.81,M,-33.324,M,,*79
2017-12-01 17:08:31 1512166111.921480: $GPRMC,220832,A,3946.9666,N,08404.9724,W,0.0000,0.000,011217,,*35
2017-12-01 17:08:31 1512166111.921542: $GPGSA,A,3,1,3,10,14,22,26,31,32,11,12,25,138,2.0,0.8,1.5*03
2017-12-01 17:08:32 1512166112.454062: $GPZDA,220833.00,01,12,2017,00,00*68
2017-12-01 17:08:32 1512166112.454237: $GPGGA,220833,3946.9666,N,08404.9724,W,2,12,0.80,295.81,M,-33.324,M,,*78
2017-12-01 17:08:32 1512166112.454306: $GPRMC,220833,A,3946.9666,N,08404.9724,W,0.0000,0.000,011217,,*34
2017-12-01 17:08:32 1512166112.454368: $GPGSA,A,3,1,3,10,14,22,26,31,32,11,12,25,138,2.0,0.8,1.5*03
2017-12-01 17:08:33 1512166113.471636: $GPZDA,220834.00,01,12,2017,00,00*6F
2017-12-01 17:08:33 1512166113.471807: $GPGGA,220834,3946.9662,N,08404.9725,W,2,12,0.80,296.57,M,-33.324,M,,*72
2017-12-01 17:08:33 1512166113.471874: $GPRMC,220834,A,3946.9662,N,08404.9725,W,0.0000,0.000,011217,,*36
2017-12-01 17:08:33 1512166113.471934: $GPGSA,A,3,1,3,10,14,22,26,31,32,11,12,25,138,2.0,0.8,1.5*03
2017-12-01 17:08:34 1512166114.805076: $GPGSV,3,1,12,01,21,283,40,03,14,316,42,10,30,154,34,14,70,013,45*77
2017-12-01 17:08:34 1512166114.805262: $GPGSV,3,2,12,22,33,307,47,26,18,180,38,31,73,250,47,32,60,066,48*7A
2017-12-01 17:08:34 1512166114.805328: $GPGSV,3,3,12,11,02,268,30,12,13,037,18,25,39,067,28,138,38,213,40*48
2017-12-01 17:08:34 1512166114.918408: $GPZDA,220835.00,01,12,2017,00,00*6E
2017-12-01 17:08:34 1512166114.918552: $GPGGA,220835,3946.9662,N,08404.9725,W,2,12,0.80,296.57,M,-33.324,M,,*73
2017-12-01 17:08:34 1512166114.918617: $GPRMC,220835,A,3946.9662,N,08404.9725,W,0.0000,0.000,011217,,*37
2017-12-01 17:08:34 1512166114.918678: $GPGSA,A,3,1,3,10,14,22,26,31,32,11,12,25,138,2.0,0.8,1.5*03
2017-12-01 17:08:35 1512166115.470576: $GPZDA,220836.00,01,12,2017,00,00*6D
2017-12-01 17:08:35 1512166115.470748: $GPGGA,220836,3946.9662,N,08404.9725,W,2,12,0.80,296.57,M,-33.324,M,,*70
2017-12-01 17:08:35 1512166115.470813: $GPRMC,220836,A,3946.9662,N,08404.9725,W,0.0000,0.000,011217,,*34
2017-12-01 17:08:35 1512166115.470874: $GPGSA,A,3,1,3,10,14,22,26,31,32,11,12,25,138,2.0,0.8,1.5*03
2017-12-01 17:08:36 1512166116.450228: $GPZDA,220837.00,01,12,2017,00,00*6C
2017-12-01 17:08:36 1512166116.450408: $GPGGA,220837,3946.9662,N,08404.9725,W,2,12,0.80,296.57,M,-33.324,M,,*71
2017-12-01 17:08:36 1512166116.450476: $GPRMC,220837,A,3946.9662,N,08404.9725,W,0.0000,0.000,011217,,*35
2017-12-01 17:08:36 1512166116.450538: $GPGSA,A,3,1,3,10,14,22,26,31,32,11,12,25,138,2.0,0.8,1.5*03
2017-12-01 17:08:37 1512166117.807194: $GPGSV,3,1,12,01,21,283,40,03,14,316,42,10,30,154,35,14,70,013,45*76
2017-12-01 17:08:37 1512166117.807378: $GPGSV,3,2,12,22,33,307,47,26,18,180,38,31,73,250,46,32,60,066,48*7B
2017-12-01 17:08:37 1512166117.807444: $GPGSV,3,3,12,11,02,268,30,12,13,037,18,25,39,067,29,138,38,213,40*49
2017-12-01 17:08:37 1512166117.920543: $GPZDA,220838.00,01,12,2017,00,00*63
2017-12-01 17:08:37 1512166117.920699: $GPGGA,220838,3946.9662,N,08404.9725,W,2,12,0.80,296.57,M,-33.324,M,,*7E
2017-12-01 17:08:37 1512166117.920766: $GPRMC,220838,A,3946.9662,N,08404.9725,W,0.0000,0.000,011217,,*3A
2017-12-01 17:08:37 1512166117.920826: $GPGSA,A,3,1,3,10,14,22,26,31,32,11,12,25,138,2.0,0.8,1.5*03
