2017-11-16 15:28:23 1510864103.046320: {"class":"VERSION","release":"3.17","rev":"3.17","proto_major":3,"proto_minor":12}
2017-11-16 15:28:23 1510864103.046809: {"class":"DEVICES","devices":[{"class":"DEVICE","path":"/dev/ttyUSB0","driver":"SiRF","subtype":"9\u0006GSD4e_4.1.2-P1_RPATCH.05-F-GPS-4R-1510281 11/03/2015 307","activated":"2017-11-16T20:28:22.973Z","flags":1,"native":1,"bps":4800,"parity":"N","stopbits":1,"cycle":1.00}]}
2017-11-16 15:28:23 1510864103.046918: {"class":"WATCH","enable":true,"json":false,"nmea":true,"raw":0,"scaled":false,"timing":false,"split24":false,"pps":false}
2017-11-16 15:28:23 1510864103.366100: $GPZDA,202822.00,16,11,2017,00,00*6D
2017-11-16 15:28:23 1510864103.366269: $GPGGA,202822,3946.9572,N,08404.9859,W,2,11,1.00,308.84,M,-33.324,M,,*71
2017-11-16 15:28:23 1510864103.370235: $GPRMC,202822,A,3946.9572,N,08404.9859,W,0.0000,0.000,161117,,*32
2017-11-16 15:28:23 1510864103.370364: $GPGSA,A,3,8,10,14,18,20,21,24,27,32,12,138,,1.6,1.0,1.3*39
2017-11-16 15:28:24 1510864104.384317: $GPZDA,202823.00,16,11,2017,00,00*6C
2017-11-16 15:28:24 1510864104.384514: $GPGGA,202823,3946.9572,N,08404.9859,W,2,11,1.00,308.84,M,-33.324,M,,*70
2017-11-16 15:28:24 1510864104.384576: $GPRMC,202823,A,3946.9572,N,08404.9859,W,0.0000,0.000,161117,,*33
2017-11-16 15:28:24 1510864104.384648: $GPGSA,A,3,8,10,14,18,20,21,24,27,32,12,138,,1.6,1.0,1.3*39
2017-11-16 15:28:25 1510864105.721522: $GPGSV,3,1,12,08,05,292,25,10,70,333,50,14,30,255,44,15,10,067,00*7B
2017-11-16 15:28:25 1510864105.721724: $GPGSV,3,2,12,18,70,097,47,20,07,118,04,21,28,180,42,24,44,057,51*77
2017-11-16 15:28:25 1510864105.721786: $GPGSV,3,3,12,27,05,258,36,32,47,267,49,12,10,106,31,138,38,213,44*4A
2017-11-16 15:28:25 1510864105.834825: $GPZDA,202824.00,16,11,2017,00,00*6B
2017-11-16 15:28:25 1510864105.834985: $GPGGA,202824,3946.9572,N,08404.9859,W,2,10,1.00,308.84,M,-33.324,M,,*76
2017-11-16 15:28:25 1510864105.835045: $GPRMC,202824,A,3946.9572,N,08404.9859,W,0.0000,0.000,161117,,*34
2017-11-16 15:28:25 1510864105.835101: $GPGSA,A,3,8,10,14,18,21,24,27,32,12,138,,,1.6,1.0,1.3*3B
2017-11-16 15:28:26 1510864106.461667: $GPZDA,202825.00,16,11,2017,00,00*6A
2017-11-16 15:28:26 1510864106.461831: $GPGGA,202825,3946.9572,N,08404.9859,W,2,10,1.00,308.84,M,-33.324,M,,*77
2017-11-16 15:28:26 1510864106.461891: $GPRMC,202825,A,3946.9572,N,08404.9859,W,0.0000,0.000,161117,,*35
2017-11-16 15:28:26 1510864106.461947: $GPGSA,A,3,8,10,14,18,21,24,27,32,12,138,,,1.6,1.0,1.3*3B
2017-11-16 15:28:27 1510864107.382536: $GPZDA,202826.00,16,11,2017,00,00*69
2017-11-16 15:28:27 1510864107.382888: $GPGGA,202826,3946.9572,N,08404.9859,W,2,10,1.00,308.84,M,-33.324,M,,*74
2017-11-16 15:28:27 1510864107.383007: $GPRMC,202826,A,3946.9572,N,08404.9859,W,0.0000,0.000,161117,,*36
2017-11-16 15:28:27 1510864107.383129: $GPGSA,A,3,8,10,14,18,21,24,27,32,12,138,,,1.6,1.0,1.3*3B
2017-11-16 15:28:28 1510864108.712909: $GPGSV,3,1,12,08,05,292,32,10,70,333,51,14,30,255,43,15,10,067,00*7B
2017-11-16 15:28:28 1510864108.713090: $GPGSV,3,2,12,18,70,097,47,20,07,118,00,21,28,180,42,24,44,057,51*73
2017-11-16 15:28:28 1510864108.714361: $GPGSV,3,3,12,27,05,258,36,32,47,267,49,12,10,106,31,138,38,213,43*4D
2017-11-16 15:28:28 1510864108.826535: $GPZDA,202827.00,16,11,2017,00,00*68
2017-11-16 15:28:28 1510864108.826728: $GPGGA,202827,3946.9572,N,08404.9859,W,2,10,1.00,308.84,M,-33.324,M,,*75
2017-11-16 15:28:28 1510864108.826789: $GPRMC,202827,A,3946.9572,N,08404.9859,W,0.0000,0.000,161117,,*37
2017-11-16 15:28:28 1510864108.826845: $GPGSA,A,3,8,10,14,18,21,24,27,32,12,138,,,1.6,1.0,1.3*3B
2017-11-16 15:28:29 1510864109.384659: $GPZDA,202828.00,16,11,2017,00,00*67
2017-11-16 15:28:29 1510864109.384826: $GPGGA,202828,3946.9572,N,08404.9859,W,2,10,1.00,308.84,M,-33.324,M,,*7A
2017-11-16 15:28:29 1510864109.384888: $GPRMC,202828,A,3946.9572,N,08404.9859,W,0.0000,0.000,161117,,*38
2017-11-16 15:28:29 1510864109.384944: $GPGSA,A,3,8,10,14,18,21,24,27,32,12,138,,,1.6,1.0,1.3*3B
2017-11-16 15:28:30 1510864110.385464: $GPZDA,202829.00,16,11,2017,00,00*66
2017-11-16 15:28:30 1510864110.385642: $GPGGA,202829,3946.9572,N,08404.9859,W,2,10,1.00,308.84,M,-33.324,M,,*7B
2017-11-16 15:28:30 1510864110.385745: $GPRMC,202829,A,3946.9572,N,08404.9859,W,0.0000,0.000,161117,,*39
2017-11-16 15:28:30 1510864110.385803: $GPGSA,A,3,8,10,14,18,21,24,27,32,12,138,,,1.6,1.0,1.3*3B
2017-11-16 15:28:31 1510864111.703237: $GPGSV,3,1,12,08,05,292,30,10,70,333,50,14,30,255,43,20,07,118,10*70
2017-11-16 15:28:31 1510864111.703440: $GPGSV,3,2,12,18,70,097,47,15,10,067,00,21,28,180,42,24,44,057,51*7A
2017-11-16 15:28:31 1510864111.703531: $GPGSV,3,3,12,27,05,258,36,32,47,267,48,12,10,106,31,138,38,213,44*4B
2017-11-16 15:28:31 1510864111.816569: $GPZDA,202830.00,16,11,2017,00,00*6E
2017-11-16 15:28:31 1510864111.816732: $GPGGA,202830,3946.9568,N,08404.9860,W,2,10,1.00,309.61,M,-33.324,M,,*78
2017-11-16 15:28:31 1510864111.816796: $GPRMC,202830,A,3946.9568,N,08404.9860,W,0.0000,0.000,161117,,*30
2017-11-16 15:28:31 1510864111.816855: $GPGSA,A,3,8,10,14,18,21,24,27,32,12,138,,,1.6,1.0,1.3*3B
2017-11-16 15:28:32 1510864112.367544: $GPZDA,202831.00,16,11,2017,00,00*6F
2017-11-16 15:28:32 1510864112.367750: $GPGGA,202831,3946.9568,N,08404.9860,W,2,10,1.00,309.61,M,-33.324,M,,*79
2017-11-16 15:28:32 1510864112.367822: $GPRMC,202831,A,3946.9568,N,08404.9860,W,0.0000,0.000,161117,,*31
2017-11-16 15:28:32 1510864112.368058: $GPGSA,A,3,8,10,14,18,21,24,27,32,12,138,,,1.6,1.0,1.3*3B
