2017-11-16 17:25:59 1510871159.792743: {"class":"VERSION","release":"3.17","rev":"3.17","proto_major":3,"proto_minor":12}
2017-11-16 17:25:59 1510871159.793186: {"class":"DEVICES","devices":[{"class":"DEVICE","path":"/dev/ttyUSB0","driver":"SiRF","subtype":"9\u0006GSD4e_4.1.2-P1_RPATCH.05-F-GPS-4R-1510281 11/03/2015 307","activated":"2017-11-16T22:25:59.542Z","flags":1,"native":1,"bps":4800,"parity":"N","stopbits":1,"cycle":1.00}]}
2017-11-16 17:25:59 1510871159.793320: {"class":"WATCH","enable":true,"json":false,"nmea":true,"raw":0,"scaled":false,"timing":false,"split24":false,"pps":false}
2017-11-16 17:26:00 1510871160.757429: $GPGSV,3,1,11,01,21,304,35,10,51,147,49,22,16,312,39,12,23,052,50*7F
2017-11-16 17:26:00 1510871160.757607: $GPGSV,3,2,11,14,65,321,47,18,21,142,34,11,09,285,40,25,39,094,48*79
2017-11-16 17:26:00 1510871160.757687: $GPGSV,3,3,11,31,52,222,49,32,69,018,49,138,38,213,45*79
2017-11-16 17:26:00 1510871160.871016: $GPZDA,222559.00,16,11,2017,00,00*6E
2017-11-16 17:26:00 1510871160.871191: $GPGGA,222559,3946.9573,N,08404.9837,W,2,11,0.80,306.91,M,-33.324,M,,*78
2017-11-16 17:26:00 1510871160.871252: $GPRMC,222559,A,3946.9573,N,08404.9837,W,0.0000,0.000,161117,,*38
2017-11-16 17:26:00 1510871160.871308: $GPGSA,A,3,1,10,22,12,14,18,11,25,31,32,138,,1.6,0.8,1.3*3E
2017-11-16 17:26:01 1510871161.496576: $GPZDA,222600.00,16,11,2017,00,00*61
2017-11-16 17:26:01 1510871161.496735: $GPGGA,222600,3946.9573,N,08404.9837,W,2,11,0.80,306.91,M,-33.324,M,,*77
2017-11-16 17:26:01 1510871161.496797: $GPRMC,222600,A,3946.9573,N,08404.9837,W,0.0000,0.000,161117,,*37
2017-11-16 17:26:01 1510871161.496853: $GPGSA,A,3,1,10,22,12,14,18,11,25,31,32,138,,1.6,0.8,1.3*3E
2017-11-16 17:26:02 1510871162.421089: $GPZDA,222601.00,16,11,2017,00,00*60
2017-11-16 17:26:02 1510871162.421249: $GPGGA,222601,3946.9573,N,08404.9837,W,2,11,0.80,306.91,M,-33.324,M,,*76
2017-11-16 17:26:02 1510871162.421311: $GPRMC,222601,A,3946.9573,N,08404.9837,W,0.0000,0.000,161117,,*36
2017-11-16 17:26:02 1510871162.421367: $GPGSA,A,3,1,10,22,12,14,18,11,25,31,32,138,,1.6,0.8,1.3*3E
2017-11-16 17:26:03 1510871163.732824: $GPGSV,3,1,11,01,21,304,35,10,51,147,49,22,16,312,39,12,23,052,50*7F
2017-11-16 17:26:03 1510871163.732993: $GPGSV,3,2,11,14,65,321,48,18,21,142,34,11,09,285,40,25,39,094,48*76
2017-11-16 17:26:03 1510871163.733073: $GPGSV,3,3,11,31,52,222,49,32,69,018,50,138,38,213,45*71
2017-11-16 17:26:03 1510871163.846159: $GPZDA,222602.00,16,11,2017,00,00*63
2017-11-16 17:26:03 1510871163.846350: $GPGGA,222602,3946.9573,N,08404.9837,W,2,11,0.80,306.91,M,-33.324,M,,*75
2017-11-16 17:26:03 1510871163.846412: $GPRMC,222602,A,3946.9573,N,08404.9837,W,0.0000,0.000,161117,,*35
2017-11-16 17:26:03 1510871163.846469: $GPGSA,A,3,1,10,22,12,14,18,11,25,31,32,138,,1.6,0.8,1.3*3E
2017-11-16 17:26:04 1510871164.395788: $GPZDA,222603.00,16,11,2017,00,00*62
2017-11-16 17:26:04 1510871164.395957: $GPGGA,222603,3946.9573,N,08404.9837,W,2,11,0.80,306.91,M,-33.324,M,,*74
2017-11-16 17:26:04 1510871164.396019: $GPRMC,222603,A,3946.9573,N,08404.9837,W,0.0000,0.000,161117,,*34
2017-11-16 17:26:04 1510871164.396098: $GPGSA,A,3,1,10,22,12,14,18,11,25,31,32,138,,1.6,0.8,1.3*3E
2017-11-16 17:26:05 1510871165.402004: $GPZDA,222604.00,16,11,2017,00,00*65
2017-11-16 17:26:05 1510871165.402175: $GPGGA,222604,3946.9573,N,08404.9837,W,2,11,0.80,306.91,M,-33.324,M,,*73
2017-11-16 17:26:05 1510871165.402237: $GPRMC,222604,A,3946.9573,N,08404.9837,W,0.0000,0.000,161117,,*33
2017-11-16 17:26:05 1510871165.402294: $GPGSA,A,3,1,10,22,12,14,18,11,25,31,32,138,,1.6,0.8,1.3*3E
2017-11-16 17:26:06 1510871166.756961: $GPGSV,3,1,11,01,21,304,34,10,51,147,49,22,16,312,39,12,23,052,50*7E
2017-11-16 17:26:06 1510871166.757150: $GPGSV,3,2,11,14,65,321,47,18,21,142,34,11,09,285,40,25,39,094,48*79
2017-11-16 17:26:06 1510871166.757215: $GPGSV,3,3,11,31,52,222,49,32,69,018,49,138,38,213,44*78
2017-11-16 17:26:06 1510871166.870195: $GPZDA,222605.00,16,11,2017,00,00*64
2017-11-16 17:26:06 1510871166.870447: $GPGGA,222605,3946.9573,N,08404.9837,W,2,11,0.80,306.91,M,-33.324,M,,*72
2017-11-16 17:26:06 1510871166.870575: $GPRMC,222605,A,3946.9573,N,08404.9837,W,0.0000,0.000,161117,,*32
2017-11-16 17:26:06 1510871166.870638: $GPGSA,A,3,1,10,22,12,14,18,11,25,31,32,138,,1.6,0.8,1.3*3E
2017-11-16 17:26:07 1510871167.421064: $GPZDA,222606.00,16,11,2017,00,00*67
2017-11-16 17:26:07 1510871167.421245: $GPGGA,222606,3946.9573,N,08404.9837,W,2,11,0.80,306.91,M,-33.324,M,,*71
2017-11-16 17:26:07 1510871167.421311: $GPRMC,222606,A,3946.9573,N,08404.9837,W,0.0000,0.000,161117,,*31
2017-11-16 17:26:07 1510871167.421368: $GPGSA,A,3,1,10,22,12,14,18,11,25,31,32,138,,1.6,0.8,1.3*3E
2017-11-16 17:26:08 1510871168.420681: $GPZDA,222607.00,16,11,2017,00,00*66
2017-11-16 17:26:08 1510871168.420848: $GPGGA,222607,3946.9573,N,08404.9837,W,2,11,0.80,306.91,M,-33.324,M,,*70
2017-11-16 17:26:08 1510871168.420911: $GPRMC,222607,A,3946.9573,N,08404.9837,W,0.0000,0.000,161117,,*30
2017-11-16 17:26:08 1510871168.420967: $GPGSA,A,3,1,10,22,12,14,18,11,25,31,32,138,,1.6,0.8,1.3*3E
2017-11-16 17:26:09 1510871169.731491: $GPGSV,3,1,11,01,21,304,34,10,51,147,49,22,16,312,39,12,23,052,50*7E
2017-11-16 17:26:09 1510871169.731665: $GPGSV,3,2,11,14,65,321,47,18,21,142,34,11,09,285,40,25,39,094,47*76
2017-11-16 17:26:09 1510871169.731726: $GPGSV,3,3,11,31,52,222,49,32,69,018,49,138,38,213,44*78
