2017-12-31 18:35:15 1514763315.501884: {"class":"VERSION","release":"3.16","rev":"3.16-4","proto_major":3,"proto_minor":11}
2017-12-31 18:35:15 1514763315.502227: {"class":"DEVICES","devices":[{"class":"DEVICE","path":"/dev/ttyUSB0","driver":"SiRF","activated":"2017-12-31T23:35:15.238Z","flags":1,"native":1,"bps":4800,"parity":"N","stopbits":1,"cycle":1.00}]}
2017-12-31 18:35:15 1514763315.502432: {"class":"WATCH","enable":true,"json":false,"nmea":true,"raw":0,"scaled":false,"timing":false,"split24":false,"pps":false}
2017-12-31 18:35:15 1514763315.687820: $GPGSV,3,1,12,22,13,207,22,23,64,294,40,09,31,312,42,03,23,225,40*79
2017-12-31 18:35:15 1514763315.687982: $GPGSV,3,2,12,16,84,043,40,08,10,177,23,14,05,138,22,31,20,084,40*78
2017-12-31 18:35:15 1514763315.688047: $GPGSV,3,3,12,27,33,147,42,07,06,280,38,26,50,046,47,135,22,240,44*4A
2017-12-31 18:35:15 1514763315.801411: $GPZDA,233516.00,31,12,2017,00,00*63
2017-12-31 18:35:15 1514763315.801559: $GPGGA,233516,3946.9574,N,08404.9830,W,2,12,0.80,308.39,M,-33.324,M,,*7C
2017-12-31 18:35:15 1514763315.801624: $GPRMC,233516,A,3946.9574,N,08404.9830,W,0.0000,0.000,311217,,*35
2017-12-31 18:35:15 1514763315.801685: $GPGSA,A,3,22,23,9,3,16,8,14,31,27,7,26,135,1.7,0.8,1.3*0C
2017-12-31 18:35:16 1514763316.352307: $GPZDA,233517.00,31,12,2017,00,00*62
2017-12-31 18:35:16 1514763316.352471: $GPGGA,233517,3946.9574,N,08404.9830,W,2,12,0.80,308.39,M,-33.324,M,,*7D
2017-12-31 18:35:16 1514763316.352537: $GPRMC,233517,A,3946.9574,N,08404.9830,W,0.0000,0.000,311217,,*34
2017-12-31 18:35:16 1514763316.352597: $GPGSA,A,3,22,23,9,3,16,8,14,31,27,7,26,135,1.7,0.8,1.3*0C
2017-12-31 18:35:17 1514763317.351930: $GPZDA,233518.00,31,12,2017,00,00*6D
2017-12-31 18:35:17 1514763317.352098: $GPGGA,233518,3946.9574,N,08404.9830,W,2,12,0.80,308.39,M,-33.324,M,,*72
2017-12-31 18:35:17 1514763317.352163: $GPRMC,233518,A,3946.9574,N,08404.9830,W,0.0000,0.000,311217,,*3B
2017-12-31 18:35:17 1514763317.352224: $GPGSA,A,3,22,23,9,3,16,8,14,31,27,7,26,135,1.7,0.8,1.3*0C
2017-12-31 18:35:18 1514763318.723664: $GPGSV,3,1,12,22,13,207,22,23,64,294,39,09,31,312,42,03,23,225,41*76
2017-12-31 18:35:18 1514763318.723827: $GPGSV,3,2,12,16,84,043,40,08,10,177,23,14,05,138,22,31,20,084,40*78
2017-12-31 18:35:18 1514763318.723893: $GPGSV,3,3,12,27,33,147,42,07,06,280,38,26,50,046,47,135,22,240,44*4A
2017-12-31 18:35:18 1514763318.835729: $GPZDA,233519.00,31,12,2017,00,00*6C
2017-12-31 18:35:18 1514763318.835840: $GPGGA,233519,3946.9574,N,08404.9830,W,2,12,0.80,308.39,M,-33.324,M,,*73
2017-12-31 18:35:18 1514763318.835905: $GPRMC,233519,A,3946.9574,N,08404.9830,W,0.0000,0.000,311217,,*3A
2017-12-31 18:35:18 1514763318.835964: $GPGSA,A,3,22,23,9,3,16,8,14,31,27,7,26,135,1.7,0.8,1.3*0C
2017-12-31 18:35:19 1514763319.352859: $GPZDA,233520.00,31,12,2017,00,00*66
2017-12-31 18:35:19 1514763319.353014: $GPGGA,233520,3946.9574,N,08404.9830,W,2,12,0.80,308.39,M,-33.324,M,,*79
2017-12-31 18:35:19 1514763319.353079: $GPRMC,233520,A,3946.9574,N,08404.9830,W,0.0000,0.000,311217,,*30
2017-12-31 18:35:19 1514763319.353140: $GPGSA,A,3,22,23,9,3,16,8,14,31,27,7,26,135,1.7,0.8,1.3*0C
2017-12-31 18:35:20 1514763320.352294: $GPZDA,233521.00,31,12,2017,00,00*67
2017-12-31 18:35:20 1514763320.352457: $GPGGA,233521,3946.9574,N,08404.9830,W,2,12,0.80,308.39,M,-33.324,M,,*78
2017-12-31 18:35:20 1514763320.352523: $GPRMC,233521,A,3946.9574,N,08404.9830,W,0.0000,0.000,311217,,*31
2017-12-31 18:35:20 1514763320.352584: $GPGSA,A,3,22,23,9,3,16,8,14,31,27,7,26,135,1.7,0.8,1.3*0C
2017-12-31 18:35:21 1514763321.724007: $GPGSV,3,1,12,22,13,207,22,23,64,294,40,09,31,312,42,03,23,225,41*78
2017-12-31 18:35:21 1514763321.724202: $GPGSV,3,2,12,16,84,043,40,08,10,177,23,14,05,138,22,31,20,084,41*79
2017-12-31 18:35:21 1514763321.724268: $GPGSV,3,3,12,27,33,147,41,07,06,280,33,26,50,046,47,135,22,240,42*44
2017-12-31 18:35:21 1514763321.837430: $GPZDA,233522.00,31,12,2017,00,00*64
2017-12-31 18:35:21 1514763321.837597: $GPGGA,233522,3946.9574,N,08404.9830,W,2,12,0.80,308.39,M,-33.324,M,,*7B
2017-12-31 18:35:21 1514763321.837663: $GPRMC,233522,A,3946.9574,N,08404.9830,W,0.0000,0.000,311217,,*32
2017-12-31 18:35:21 1514763321.837777: $GPGSA,A,3,22,23,9,3,16,8,14,31,27,7,26,135,1.7,0.8,1.3*0C
2017-12-31 18:35:22 1514763322.351981: $GPZDA,233523.00,31,12,2017,00,00*65
2017-12-31 18:35:22 1514763322.352128: $GPGGA,233523,3946.9574,N,08404.9830,W,2,12,0.80,308.39,M,-33.324,M,,*7A
2017-12-31 18:35:22 1514763322.352193: $GPRMC,233523,A,3946.9574,N,08404.9830,W,0.0000,0.000,311217,,*33
2017-12-31 18:35:22 1514763322.352272: $GPGSA,A,3,22,23,9,3,16,8,14,31,27,7,26,135,1.7,0.8,1.3*0C
2017-12-31 18:35:23 1514763323.352898: $GPZDA,233524.00,31,12,2017,00,00*62
2017-12-31 18:35:23 1514763323.353062: $GPGGA,233524,3946.9574,N,08404.9830,W,2,12,0.80,308.39,M,-33.324,M,,*7D
2017-12-31 18:35:23 1514763323.353128: $GPRMC,233524,A,3946.9574,N,08404.9830,W,0.0000,0.000,311217,,*34
2017-12-31 18:35:23 1514763323.353189: $GPGSA,A,3,22,23,9,3,16,8,14,31,27,7,26,135,1.7,0.8,1.3*0C
2017-12-31 18:35:24 1514763324.688622: $GPGSV,3,1,12,22,13,207,22,23,64,294,40,09,31,312,42,03,23,225,41*78
2017-12-31 18:35:24 1514763324.688803: $GPGSV,3,2,12,16,84,043,41,08,10,177,23,14,05,138,22,31,20,084,41*78
2017-12-31 18:35:24 1514763324.688869: $GPGSV,3,3,12,27,33,147,41,07,06,280,35,26,50,046,47,135,22,240,44*44
2017-12-31 18:35:24 1514763324.801947: $GPZDA,233525.00,31,12,2017,00,00*63
2017-12-31 18:35:24 1514763324.802083: $GPGGA,233525,3946.9574,N,08404.9830,W,2,12,0.80,308.39,M,-33.324,M,,*7C
2017-12-31 18:35:24 1514763324.802149: $GPRMC,233525,A,3946.9574,N,08404.9830,W,0.0000,0.000,311217,,*35
2017-12-31 18:35:24 1514763324.802209: $GPGSA,A,3,22,23,9,3,16,8,14,31,27,7,26,135,1.7,0.8,1.3*0C
2017-12-31 18:35:25 1514763325.427414: $GPZDA,233526.00,31,12,2017,00,00*60
2017-12-31 18:35:25 1514763325.427601: $GPGGA,233526,3946.9574,N,08404.9830,W,2,12,0.80,308.39,M,-33.324,M,,*7F
2017-12-31 18:35:25 1514763325.427671: $GPRMC,233526,A,3946.9574,N,08404.9830,W,0.0000,0.000,311217,,*36
2017-12-31 18:35:25 1514763325.427732: $GPGSA,A,3,22,23,9,3,16,8,14,31,27,7,26,135,1.7,0.8,1.3*0C
