2017-12-29 14:52:25 1514577145.941351: {"class":"VERSION","release":"3.16","rev":"3.16-4","proto_major":3,"proto_minor":11}
2017-12-29 14:52:25 1514577145.941726: {"class":"DEVICES","devices":[{"class":"DEVICE","path":"/dev/ttyUSB0","driver":"SiRF","subtype":"9\u0006GSD4e_4.1.2-P1_RPATCH.05-F-GPS-4R-1510281 11/03/2015 307","activated":"2017-12-29T19:52:25.516Z","flags":1,"native":1,"bps":4800,"parity":"N","stopbits":1,"cycle":1.00}]}
2017-12-29 14:52:25 1514577145.941848: {"class":"WATCH","enable":true,"json":false,"nmea":true,"raw":0,"scaled":false,"timing":false,"split24":false,"pps":false}
2017-12-29 14:52:26 1514577146.374664: $GPZDA,195227.00,29,12,2017,00,00*60
2017-12-29 14:52:26 1514577146.374828: $GPGGA,195227,3946.9593,N,08404.9792,W,2,12,0.80,305.61,M,-33.324,M,,*78
2017-12-29 14:52:26 1514577146.374895: $GPRMC,195227,A,3946.9593,N,08404.9792,W,0.0000,0.000,291217,,*38
2017-12-29 14:52:26 1514577146.374956: $GPGSA,A,3,1,3,10,12,14,22,25,31,32,18,26,138,1.7,0.8,1.3*08
2017-12-29 14:52:27 1514577147.711603: $GPGSV,3,1,12,01,22,294,38,03,07,316,35,10,40,151,49,12,19,043,43*7D
2017-12-29 14:52:27 1514577147.711777: $GPGSV,3,2,12,14,68,343,42,22,25,310,42,25,41,081,51,31,65,232,45*7D
2017-12-29 14:52:27 1514577147.711844: $GPGSV,3,3,12,32,65,048,51,18,11,145,26,26,09,180,25,138,38,213,43*48
2017-12-29 14:52:27 1514577147.825003: $GPZDA,195228.00,29,12,2017,00,00*6F
2017-12-29 14:52:27 1514577147.825133: $GPGGA,195228,3946.9593,N,08404.9792,W,2,12,0.80,305.61,M,-33.324,M,,*77
2017-12-29 14:52:27 1514577147.825199: $GPRMC,195228,A,3946.9593,N,08404.9792,W,0.0000,0.000,291217,,*37
2017-12-29 14:52:27 1514577147.825261: $GPGSA,A,3,1,3,10,12,14,22,25,31,32,18,26,138,1.7,0.8,1.3*08
2017-12-29 14:52:28 1514577148.450407: $GPZDA,195229.00,29,12,2017,00,00*6E
2017-12-29 14:52:28 1514577148.450562: $GPGGA,195229,3946.9589,N,08404.9792,W,2,12,0.80,304.97,M,-33.324,M,,*75
2017-12-29 14:52:28 1514577148.450630: $GPRMC,195229,A,3946.9589,N,08404.9792,W,0.0000,0.000,291217,,*3D
2017-12-29 14:52:28 1514577148.450693: $GPGSA,A,3,1,3,10,12,14,22,25,31,32,18,26,138,1.7,0.8,1.3*08
2017-12-29 14:52:29 1514577149.336334: $GPZDA,195230.00,29,12,2017,00,00*66
2017-12-29 14:52:29 1514577149.342375: $GPGGA,195230,3946.9589,N,08404.9792,W,2,12,0.80,304.97,M,-33.324,M,,*7D
2017-12-29 14:52:29 1514577149.342535: $GPRMC,195230,A,3946.9589,N,08404.9792,W,0.0000,0.000,291217,,*35
2017-12-29 14:52:29 1514577149.342602: $GPGSA,A,3,1,3,10,12,14,22,25,31,32,18,26,138,1.7,0.8,1.3*08
2017-12-29 14:52:30 1514577150.670711: $GPGSV,3,1,12,01,22,294,37,03,07,316,35,10,40,151,48,12,19,043,43*73
2017-12-29 14:52:30 1514577150.670885: $GPGSV,3,2,12,14,68,343,42,22,25,310,41,25,41,081,51,31,65,232,45*7E
2017-12-29 14:52:30 1514577150.670950: $GPGSV,3,3,12,32,65,048,51,18,11,145,26,26,09,180,25,138,38,213,42*49
2017-12-29 14:52:30 1514577150.784207: $GPZDA,195231.00,29,12,2017,00,00*67
2017-12-29 14:52:30 1514577150.784363: $GPGGA,195231,3946.9589,N,08404.9792,W,2,12,0.80,304.97,M,-33.324,M,,*7C
2017-12-29 14:52:30 1514577150.784429: $GPRMC,195231,A,3946.9589,N,08404.9792,W,0.0000,0.000,291217,,*34
2017-12-29 14:52:30 1514577150.784490: $GPGSA,A,3,1,3,10,12,14,22,25,31,32,18,26,138,1.7,0.8,1.3*08
2017-12-29 14:52:31 1514577151.377497: $GPZDA,195232.00,29,12,2017,00,00*64
2017-12-29 14:52:31 1514577151.377661: $GPGGA,195232,3946.9589,N,08404.9792,W,2,12,0.80,304.97,M,-33.324,M,,*7F
2017-12-29 14:52:31 1514577151.377731: $GPRMC,195232,A,3946.9589,N,08404.9792,W,0.0000,0.000,291217,,*37
2017-12-29 14:52:31 1514577151.377793: $GPGSA,A,3,1,3,10,12,14,22,25,31,32,18,26,138,1.7,0.8,1.3*08
2017-12-29 14:52:32 1514577152.335968: $GPZDA,195233.00,29,12,2017,00,00*65
2017-12-29 14:52:32 1514577152.336134: $GPGGA,195233,3946.9589,N,08404.9792,W,2,12,0.80,304.97,M,-33.324,M,,*7E
2017-12-29 14:52:32 1514577152.336202: $GPRMC,195233,A,3946.9589,N,08404.9792,W,0.0000,0.000,291217,,*36
2017-12-29 14:52:32 1514577152.336263: $GPGSA,A,3,1,3,10,12,14,22,25,31,32,18,26,138,1.7,0.8,1.3*08
2017-12-29 14:52:33 1514577153.711084: $GPGSV,3,1,12,01,22,294,37,03,07,316,35,10,40,151,48,12,19,043,43*73
2017-12-29 14:52:33 1514577153.711288: $GPGSV,3,2,12,14,68,343,42,22,25,310,41,25,41,081,51,31,65,232,45*7E
2017-12-29 14:52:33 1514577153.711359: $GPGSV,3,3,12,32,65,048,50,18,11,145,26,26,09,180,24,138,38,213,43*48
2017-12-29 14:52:33 1514577153.824469: $GPZDA,195234.00,29,12,2017,00,00*62
2017-12-29 14:52:33 1514577153.824612: $GPGGA,195234,3946.9589,N,08404.9792,W,2,12,0.80,304.97,M,-33.324,M,,*79
2017-12-29 14:52:33 1514577153.824680: $GPRMC,195234,A,3946.9589,N,08404.9792,W,0.0000,0.000,291217,,*31
2017-12-29 14:52:33 1514577153.824742: $GPGSA,A,3,1,3,10,12,14,22,25,31,32,18,26,138,1.7,0.8,1.3*08
2017-12-29 14:52:34 1514577154.375815: $GPZDA,195235.00,29,12,2017,00,00*63
2017-12-29 14:52:34 1514577154.375978: $GPGGA,195235,3946.9589,N,08404.9792,W,2,12,0.80,304.97,M,-33.324,M,,*78
2017-12-29 14:52:34 1514577154.376046: $GPRMC,195235,A,3946.9589,N,08404.9792,W,0.0000,0.000,291217,,*30
2017-12-29 14:52:34 1514577154.376107: $GPGSA,A,3,1,3,10,12,14,22,25,31,32,18,26,138,1.7,0.8,1.3*08
2017-12-29 14:52:35 1514577155.376294: $GPZDA,195236.00,29,12,2017,00,00*60
2017-12-29 14:52:35 1514577155.376450: $GPGGA,195236,3946.9589,N,08404.9792,W,2,12,0.80,304.97,M,-33.324,M,,*7B
2017-12-29 14:52:35 1514577155.376516: $GPRMC,195236,A,3946.9589,N,08404.9792,W,0.0000,0.000,291217,,*33
2017-12-29 14:52:35 1514577155.376581: $GPGSA,A,3,1,3,10,12,14,22,25,31,32,18,26,138,1.7,0.8,1.3*08
