2017-12-31 17:10:05 1514758205.975329: {"class":"VERSION","release":"3.16","rev":"3.16-4","proto_major":3,"proto_minor":11}
2017-12-31 17:10:05 1514758205.975673: {"class":"DEVICES","devices":[{"class":"DEVICE","path":"/dev/ttyUSB0","driver":"SiRF","activated":"2017-12-31T22:10:05.485Z","flags":1,"native":1,"bps":4800,"parity":"N","stopbits":1,"cycle":1.00}]}
2017-12-31 17:10:05 1514758205.975772: {"class":"WATCH","enable":true,"json":false,"nmea":true,"raw":0,"scaled":false,"timing":false,"split24":false,"pps":false}
2017-12-31 17:10:06 1514758206.672080: $GPGSV,3,1,10,22,43,237,44,23,29,307,42,03,46,268,39,16,48,190,42*71
2017-12-31 17:10:06 1514758206.672257: $GPGSV,3,2,10,29,14,052,29,31,48,052,51,14,39,115,35,32,17,123,40*79
2017-12-31 17:10:06 1514758206.672336: $GPGSV,3,3,10,26,75,136,47,135,22,240,42*4E
2017-12-31 17:10:06 1514758206.785564: $GPZDA,221007.00,31,12,2017,00,00*65
2017-12-31 17:10:06 1514758206.785736: $GPGGA,221007,3946.9583,N,08404.9854,W,2,10,0.80,301.57,M,-33.324,M,,*73
2017-12-31 17:10:06 1514758206.785802: $GPRMC,221007,A,3946.9583,N,08404.9854,W,0.0000,0.000,311217,,*39
2017-12-31 17:10:06 1514758206.785863: $GPGSA,A,3,22,23,3,16,29,31,14,32,26,135,,,1.7,0.8,1.3*35
2017-12-31 17:10:07 1514758207.362499: $GPZDA,221008.00,31,12,2017,00,00*6A
2017-12-31 17:10:07 1514758207.362654: $GPGGA,221008,3946.9583,N,08404.9854,W,2,10,0.80,301.57,M,-33.324,M,,*7C
2017-12-31 17:10:07 1514758207.362736: $GPRMC,221008,A,3946.9583,N,08404.9854,W,0.0000,0.000,311217,,*36
2017-12-31 17:10:07 1514758207.362799: $GPGSA,A,3,22,23,3,16,29,31,14,32,26,135,,,1.7,0.8,1.3*35
2017-12-31 17:10:08 1514758208.344613: $GPZDA,221009.00,31,12,2017,00,00*6B
2017-12-31 17:10:08 1514758208.344787: $GPGGA,221009,3946.9583,N,08404.9854,W,2,10,0.80,301.57,M,-33.324,M,,*7D
2017-12-31 17:10:08 1514758208.344854: $GPRMC,221009,A,3946.9583,N,08404.9854,W,0.0000,0.000,311217,,*37
2017-12-31 17:10:08 1514758208.344914: $GPGSA,A,3,22,23,3,16,29,31,14,32,26,135,,,1.7,0.8,1.3*35
2017-12-31 17:10:09 1514758209.680296: $GPGSV,3,1,10,22,43,237,43,23,29,307,41,03,46,268,39,16,48,190,42*75
2017-12-31 17:10:09 1514758209.680446: $GPGSV,3,2,10,29,14,052,28,31,48,052,51,14,39,115,35,32,17,123,40*78
2017-12-31 17:10:09 1514758209.680511: $GPGSV,3,3,10,26,75,136,47,135,22,240,42*4E
2017-12-31 17:10:09 1514758209.793695: $GPZDA,221010.00,31,12,2017,00,00*63
2017-12-31 17:10:09 1514758209.793865: $GPGGA,221010,3946.9583,N,08404.9854,W,2,10,0.80,301.57,M,-33.324,M,,*75
2017-12-31 17:10:09 1514758209.793931: $GPRMC,221010,A,3946.9583,N,08404.9854,W,0.0000,0.000,311217,,*3F
2017-12-31 17:10:09 1514758209.793992: $GPGSA,A,3,22,23,3,16,29,31,14,32,26,135,,,1.7,0.8,1.3*35
2017-12-31 17:10:10 1514758210.419087: $GPZDA,221011.00,31,12,2017,00,00*62
2017-12-31 17:10:10 1514758210.419274: $GPGGA,221011,3946.9583,N,08404.9854,W,2,10,0.80,301.57,M,-33.324,M,,*74
2017-12-31 17:10:10 1514758210.419340: $GPRMC,221011,A,3946.9583,N,08404.9854,W,0.0000,0.000,311217,,*3E
2017-12-31 17:10:10 1514758210.419401: $GPGSA,A,3,22,23,3,16,29,31,14,32,26,135,,,1.7,0.8,1.3*35
2017-12-31 17:10:11 1514758211.362528: $GPZDA,221012.00,31,12,2017,00,00*61
2017-12-31 17:10:11 1514758211.362698: $GPGGA,221012,3946.9583,N,08404.9854,W,2,10,0.80,301.57,M,-33.324,M,,*77
2017-12-31 17:10:11 1514758211.362766: $GPRMC,221012,A,3946.9583,N,08404.9854,W,0.0000,0.000,311217,,*3D
2017-12-31 17:10:11 1514758211.362827: $GPGSA,A,3,22,23,3,16,29,31,14,32,26,135,,,1.7,0.8,1.3*35
2017-12-31 17:10:12 1514758212.688129: $GPGSV,3,1,10,22,43,237,44,23,29,307,41,03,46,268,39,16,48,190,42*72
2017-12-31 17:10:12 1514758212.688317: $GPGSV,3,2,10,29,14,052,28,31,48,052,51,14,39,115,36,32,17,123,40*7B
2017-12-31 17:10:12 1514758212.688384: $GPGSV,3,3,10,26,75,136,47,135,22,240,42*4E
2017-12-31 17:10:12 1514758212.801857: $GPZDA,221013.00,31,12,2017,00,00*60
2017-12-31 17:10:12 1514758212.802078: $GPGGA,221013,3946.9583,N,08404.9854,W,2,10,0.80,301.57,M,-33.324,M,,*76
2017-12-31 17:10:12 1514758212.802149: $GPRMC,221013,A,3946.9583,N,08404.9854,W,0.0000,0.000,311217,,*3C
2017-12-31 17:10:12 1514758212.802230: $GPGSA,A,3,22,23,3,16,29,31,14,32,26,135,,,1.7,0.8,1.3*35
2017-12-31 17:10:13 1514758213.346424: $GPZDA,221014.00,31,12,2017,00,00*67
2017-12-31 17:10:13 1514758213.346592: $GPGGA,221014,3946.9583,N,08404.9854,W,2,10,0.80,301.57,M,-33.324,M,,*71
2017-12-31 17:10:13 1514758213.346658: $GPRMC,221014,A,3946.9583,N,08404.9854,W,0.0000,0.000,311217,,*3B
2017-12-31 17:10:13 1514758213.346719: $GPGSA,A,3,22,23,3,16,29,31,14,32,26,135,,,1.7,0.8,1.3*35
2017-12-31 17:10:14 1514758214.346077: $GPZDA,221015.00,31,12,2017,00,00*66
2017-12-31 17:10:14 1514758214.346292: $GPGGA,221015,3946.9583,N,08404.9854,W,2,10,0.80,301.57,M,-33.324,M,,*70
2017-12-31 17:10:14 1514758214.346365: $GPRMC,221015,A,3946.9583,N,08404.9854,W,0.0000,0.000,311217,,*3A
2017-12-31 17:10:14 1514758214.346429: $GPGSA,A,3,22,23,3,16,29,31,14,32,26,135,,,1.7,0.8,1.3*35
2017-12-31 17:10:15 1514758215.697282: $GPGSV,3,1,10,22,43,237,43,23,29,307,41,03,46,268,39,16,48,190,42*75
2017-12-31 17:10:15 1514758215.697444: $GPGSV,3,2,10,29,14,052,28,31,48,052,51,14,39,115,36,32,17,123,40*7B
2017-12-31 17:10:15 1514758215.697512: $GPGSV,3,3,10,26,75,136,48,135,22,240,42*41
2017-12-31 17:10:15 1514758215.810858: $GPZDA,221016.00,31,12,2017,00,00*65
2017-12-31 17:10:15 1514758215.811042: $GPGGA,221016,3946.9583,N,08404.9854,W,2,10,0.80,301.57,M,-33.324,M,,*73
2017-12-31 17:10:15 1514758215.811113: $GPRMC,221016,A,3946.9583,N,08404.9854,W,0.0000,0.000,311217,,*39
2017-12-31 17:10:15 1514758215.811194: $GPGSA,A,3,22,23,3,16,29,31,14,32,26,135,,,1.7,0.8,1.3*35
