2017-12-01 12:11:51 1512148311.807166: {"class":"VERSION","release":"3.16","rev":"3.16-4","proto_major":3,"proto_minor":11}
2017-12-01 12:11:51 1512148311.807574: {"class":"DEVICES","devices":[{"class":"DEVICE","path":"/dev/ttyUSB0","driver":"SiRF","subtype":"9\u0006GSD4e_4.1.2-P1_RPATCH.05-F-GPS-4R-1510281 11/03/2015 307","activated":"2017-12-01T17:11:51.698Z","flags":1,"native":1,"bps":4800,"parity":"N","stopbits":1,"cycle":1.00}]}
2017-12-01 12:11:51 1512148311.807702: {"class":"WATCH","enable":true,"json":false,"nmea":true,"raw":0,"scaled":false,"timing":false,"split24":false,"pps":false}
2017-12-01 12:11:51 1512148311.812043: $GPZDA,171152.00,01,12,2017,00,00*61
2017-12-01 12:11:51 1512148311.812175: $GPGGA,171152,3946.9592,N,08404.9850,W,2,11,0.80,296.47,M,-33.324,M,,*7F
2017-12-01 12:11:51 1512148311.812242: $GPRMC,171152,A,3946.9592,N,08404.9850,W,0.0000,0.000,011217,,*39
2017-12-01 12:11:51 1512148311.812302: $GPGSA,A,3,10,13,15,18,20,21,24,27,29,5,138,,2.0,0.8,1.5*34
2017-12-01 12:11:52 1512148312.369152: $GPZDA,171153.00,01,12,2017,00,00*60
2017-12-01 12:11:52 1512148312.369337: $GPGGA,171153,3946.9592,N,08404.9850,W,2,11,0.80,296.47,M,-33.324,M,,*7E
2017-12-01 12:11:52 1512148312.369406: $GPRMC,171153,A,3946.9592,N,08404.9850,W,0.0000,0.000,011217,,*38
2017-12-01 12:11:52 1512148312.369468: $GPGSA,A,3,10,13,15,18,20,21,24,27,29,5,138,,2.0,0.8,1.5*34
2017-12-01 12:11:53 1512148313.363014: $GPZDA,171154.00,01,12,2017,00,00*67
2017-12-01 12:11:53 1512148313.363178: $GPGGA,171154,3946.9592,N,08404.9850,W,2,11,0.80,296.47,M,-33.324,M,,*79
2017-12-01 12:11:53 1512148313.363246: $GPRMC,171154,A,3946.9592,N,08404.9850,W,0.0000,0.000,011217,,*3F
2017-12-01 12:11:53 1512148313.363308: $GPGSA,A,3,10,13,15,18,20,21,24,27,29,5,138,,2.0,0.8,1.5*34
2017-12-01 12:11:54 1512148314.680772: $GPGSV,3,1,12,10,22,280,39,13,31,045,44,15,63,052,44,18,52,297,45*7D
2017-12-01 12:11:54 1512148314.680954: $GPGSV,3,2,12,20,53,069,46,21,77,279,43,24,31,141,44,27,15,315,37*78
2017-12-01 12:11:54 1512148314.681021: $GPGSV,3,3,12,29,12,190,32,05,05,085,14,04,02,135,00,138,38,213,46*41
2017-12-01 12:11:54 1512148314.794124: $GPZDA,171155.00,01,12,2017,00,00*66
2017-12-01 12:11:54 1512148314.794294: $GPGGA,171155,3946.9592,N,08404.9850,W,2,11,0.80,296.47,M,-33.324,M,,*78
2017-12-01 12:11:54 1512148314.794363: $GPRMC,171155,A,3946.9592,N,08404.9850,W,0.0000,0.000,011217,,*3E
2017-12-01 12:11:54 1512148314.794423: $GPGSA,A,3,10,13,15,18,20,21,24,27,29,5,138,,2.0,0.8,1.5*34
2017-12-01 12:11:55 1512148315.363795: $GPZDA,171156.00,01,12,2017,00,00*65
2017-12-01 12:11:55 1512148315.363971: $GPGGA,171156,3946.9592,N,08404.9850,W,2,11,0.80,296.47,M,-33.324,M,,*7B
2017-12-01 12:11:55 1512148315.364037: $GPRMC,171156,A,3946.9592,N,08404.9850,W,0.0000,0.000,011217,,*3D
2017-12-01 12:11:55 1512148315.364100: $GPGSA,A,3,10,13,15,18,20,21,24,27,29,5,138,,2.0,0.8,1.5*34
2017-12-01 12:11:56 1512148316.358000: $GPZDA,171157.00,01,12,2017,00,00*64
2017-12-01 12:11:56 1512148316.358179: $GPGGA,171157,3946.9588,N,08404.9850,W,2,11,0.80,295.83,M,-33.324,M,,*7A
2017-12-01 12:11:56 1512148316.358249: $GPRMC,171157,A,3946.9588,N,08404.9850,W,0.0000,0.000,011217,,*37
2017-12-01 12:11:56 1512148316.358313: $GPGSA,A,3,10,13,15,18,20,21,24,27,29,5,138,,2.0,0.8,1.5*34
2017-12-01 12:11:57 1512148317.682403: $GPGSV,3,1,12,10,22,280,40,13,31,045,43,15,63,052,44,18,52,297,45*74
2017-12-01 12:11:57 1512148317.682583: $GPGSV,3,2,12,20,53,069,46,21,77,279,43,24,31,141,44,27,15,315,38*77
2017-12-01 12:11:57 1512148317.682651: $GPGSV,3,3,12,29,12,190,32,05,05,085,04,04,02,135,00,138,38,213,46*40
2017-12-01 12:11:57 1512148317.795747: $GPZDA,171158.00,01,12,2017,00,00*6B
2017-12-01 12:11:57 1512148317.795927: $GPGGA,171158,3946.9588,N,08404.9850,W,2,10,0.80,295.83,M,-33.324,M,,*74
2017-12-01 12:11:57 1512148317.795994: $GPRMC,171158,A,3946.9588,N,08404.9850,W,0.0000,0.000,011217,,*38
2017-12-01 12:11:57 1512148317.796056: $GPGSA,A,3,10,13,15,18,20,21,24,27,29,138,,,2.0,0.8,1.5*01
2017-12-01 12:11:58 1512148318.361685: $GPZDA,171159.00,01,12,2017,00,00*6A
2017-12-01 12:11:58 1512148318.361920: $GPGGA,171159,3946.9588,N,08404.9850,W,2,10,0.80,295.83,M,-33.324,M,,*75
2017-12-01 12:11:58 1512148318.361991: $GPRMC,171159,A,3946.9588,N,08404.9850,W,0.0000,0.000,011217,,*39
2017-12-01 12:11:58 1512148318.362053: $GPGSA,A,3,10,13,15,18,20,21,24,27,29,138,,,2.0,0.8,1.5*01
2017-12-01 12:11:59 1512148319.351248: $GPZDA,171200.00,01,12,2017,00,00*65
2017-12-01 12:11:59 1512148319.351460: $GPGGA,171200,3946.9588,N,08404.9850,W,2,10,0.80,295.83,M,-33.324,M,,*7A
2017-12-01 12:11:59 1512148319.351532: $GPRMC,171200,A,3946.9588,N,08404.9850,W,0.0000,0.000,011217,,*36
2017-12-01 12:11:59 1512148319.351596: $GPGSA,A,3,10,13,15,18,20,21,24,27,29,138,,,2.0,0.8,1.5*01
2017-12-01 12:12:00 1512148320.698258: $GPGSV,3,1,12,10,22,280,40,13,31,045,44,15,63,052,44,18,52,297,45*73
2017-12-01 12:12:00 1512148320.698441: $GPGSV,3,2,12,20,53,069,46,21,77,279,43,24,31,141,44,27,15,315,40*78
2017-12-01 12:12:00 1512148320.698507: $GPGSV,3,3,12,29,12,190,32,05,05,085,05,04,02,135,00,138,38,213,46*41
2017-12-01 12:12:00 1512148320.811654: $GPZDA,171201.00,01,12,2017,00,00*64
2017-12-01 12:12:00 1512148320.811840: $GPGGA,171201,3946.9588,N,08404.9850,W,2,10,0.80,295.83,M,-33.324,M,,*7B
2017-12-01 12:12:00 1512148320.811910: $GPRMC,171201,A,3946.9588,N,08404.9850,W,0.0000,0.000,011217,,*37
2017-12-01 12:12:00 1512148320.811971: $GPGSA,A,3,10,13,15,18,20,21,24,27,29,138,,,2.0,0.8,1.5*01
2017-12-01 12:12:01 1512148321.436988: $GPZDA,171202.00,01,12,2017,00,00*67
2017-12-01 12:12:01 1512148321.437161: $GPGGA,171202,3946.9588,N,08404.9850,W,2,10,0.80,295.83,M,-33.324,M,,*78
2017-12-01 12:12:01 1512148321.437229: $GPRMC,171202,A,3946.9588,N,08404.9850,W,0.0000,0.000,011217,,*34
2017-12-01 12:12:01 1512148321.437292: $GPGSA,A,3,10,13,15,18,20,21,24,27,29,138,,,2.0,0.8,1.5*01
