2018-01-12 20:03:26 1515805406.526039: {"class":"VERSION","release":"3.16","rev":"3.16-4","proto_major":3,"proto_minor":11}
2018-01-12 20:03:26 1515805406.526411: {"class":"DEVICES","devices":[{"class":"DEVICE","path":"/dev/ttyUSB0","driver":"SiRF","subtype":"9\u0006GSD4e_4.1.2-P1_RPATCH.05-F-GPS-4R-1510281 11/03/2015 307","activated":"2018-01-13T01:03:26.319Z","flags":1,"native":1,"bps":4800,"parity":"N","stopbits":1,"cycle":1.00}]}
2018-01-12 20:03:26 1515805406.526539: {"class":"WATCH","enable":true,"json":false,"nmea":true,"raw":0,"scaled":false,"timing":false,"split24":false,"pps":false}
2018-01-12 20:03:27 1515805407.512878: $GPGSV,3,1,10,27,49,054,19,08,72,138,26,07,54,313,21,09,49,231,20*7A
2018-01-12 20:03:27 1515805407.513062: $GPGSV,3,2,10,16,24,058,10,11,18,168,12,23,31,190,06,30,27,306,00*7F
2018-01-12 20:03:27 1515805407.513128: $GPGSV,3,3,10,28,13,256,00,138,38,213,00*40
2018-01-12 20:03:27 1515805407.626266: $GPZDA,010328.00,13,01,2018,00,00*66
2018-01-12 20:03:27 1515805407.626448: $GPGGA,010328,3946.9697,N,08404.9658,W,1,05,1.80,321.58,M,-33.324,M,,*72
2018-01-12 20:03:27 1515805407.626520: $GPRMC,010328,A,3946.9697,N,08404.9658,W,0.9948,317.276,130118,,*34
2018-01-12 20:03:27 1515805407.626587: $GPGSA,A,3,27,8,7,9,16,,,,,,,,4.8,1.8,4.6*01
2018-01-12 20:03:28 1515805408.194199: $GPZDA,010329.00,13,01,2018,00,00*67
2018-01-12 20:03:28 1515805408.194364: $GPGGA,010329,3946.9697,N,08404.9658,W,1,05,1.80,321.58,M,-33.324,M,,*73
2018-01-12 20:03:28 1515805408.194433: $GPRMC,010329,A,3946.9697,N,08404.9658,W,0.5912,309.172,130118,,*3E
2018-01-12 20:03:28 1515805408.194498: $GPGSA,A,3,27,8,7,9,16,,,,,,,,4.8,1.8,4.6*01
2018-01-12 20:03:29 1515805409.193592: $GPZDA,010330.00,13,01,2018,00,00*6F
2018-01-12 20:03:29 1515805409.193767: $GPGGA,010330,3946.9693,N,08404.9658,W,1,05,1.80,320.94,M,-33.324,M,,*7E
2018-01-12 20:03:29 1515805409.193836: $GPRMC,010330,A,3946.9693,N,08404.9658,W,0.8359,328.778,130118,,*35
2018-01-12 20:03:29 1515805409.193898: $GPGSA,A,3,27,8,7,9,16,,,,,,,,4.8,1.8,4.6*01
2018-01-12 20:03:30 1515805410.529813: $GPGSV,3,1,10,27,49,054,19,08,72,138,25,07,54,313,21,09,49,231,20*79
2018-01-12 20:03:30 1515805410.530086: $GPGSV,3,2,10,16,24,058,10,11,18,168,12,23,31,190,06,30,27,306,00*7F
2018-01-12 20:03:30 1515805410.530156: $GPGSV,3,3,10,28,13,256,00,138,38,213,00*40
2018-01-12 20:03:30 1515805410.643251: $GPZDA,010331.00,13,01,2018,00,00*6E
2018-01-12 20:03:30 1515805410.643426: $GPGGA,010331,3946.9697,N,08404.9657,W,1,05,1.80,320.18,M,-33.324,M,,*70
2018-01-12 20:03:30 1515805410.643494: $GPRMC,010331,A,3946.9697,N,08404.9657,W,0.7246,344.668,130118,,*35
2018-01-12 20:03:30 1515805410.643555: $GPGSA,A,3,27,8,7,9,16,,,,,,,,4.8,1.8,4.6*01
2018-01-12 20:03:31 1515805411.197346: $GPZDA,010332.00,13,01,2018,00,00*6D
2018-01-12 20:03:31 1515805411.197536: $GPGGA,010332,3946.9697,N,08404.9657,W,1,05,1.40,320.18,M,-33.324,M,,*7F
2018-01-12 20:03:31 1515805411.197622: $GPRMC,010332,A,3946.9697,N,08404.9657,W,1.2132,3.551,130118,,*3B
2018-01-12 20:03:31 1515805411.197685: $GPGSA,A,3,27,8,7,9,16,,,,,,,,4.8,1.4,4.6*0D
2018-01-12 20:03:32 1515805412.195924: $GPZDA,010333.00,13,01,2018,00,00*6C
2018-01-12 20:03:32 1515805412.196096: $GPGGA,010333,3946.9696,N,08404.9650,W,1,05,1.40,320.26,M,-33.324,M,,*75
2018-01-12 20:03:32 1515805412.196163: $GPRMC,010333,A,3946.9696,N,08404.9650,W,1.3692,4.197,130118,,*39
2018-01-12 20:03:32 1515805412.196225: $GPGSA,A,3,27,8,7,9,16,,,,,,,,4.8,1.4,4.6*0D
2018-01-12 20:03:33 1515805413.515866: $GPGSV,3,1,10,27,49,054,19,08,72,138,25,07,54,313,22,09,49,231,20*7A
2018-01-12 20:03:33 1515805413.516044: $GPGSV,3,2,10,16,24,058,08,11,18,168,13,23,31,190,04,30,27,306,00*75
2018-01-12 20:03:33 1515805413.516110: $GPGSV,3,3,10,28,13,256,00,138,38,213,00*40
2018-01-12 20:03:33 1515805413.628031: $GPZDA,010334.00,13,01,2018,00,00*6B
2018-01-12 20:03:33 1515805413.628202: $GPGGA,010334,3946.9700,N,08404.9650,W,1,06,1.40,319.49,M,-33.324,M,,*7C
2018-01-12 20:03:33 1515805413.628268: $GPRMC,010334,A,3946.9700,N,08404.9650,W,1.2361,14.851,130118,,*0A
2018-01-12 20:03:33 1515805413.628386: $GPGSA,A,3,27,8,7,9,16,11,,,,,,,4.8,1.4,4.6*0D
2018-01-12 20:03:34 1515805414.181899: $GPZDA,010335.00,13,01,2018,00,00*6A
2018-01-12 20:03:34 1515805414.182070: $GPGGA,010335,3946.9695,N,08404.9643,W,1,06,1.40,318.93,M,-33.324,M,,*74
2018-01-12 20:03:34 1515805414.182136: $GPRMC,010335,A,3946.9695,N,08404.9643,W,1.0567,17.447,130118,,*0E
2018-01-12 20:03:34 1515805414.182197: $GPGSA,A,3,27,8,7,9,16,11,,,,,,,4.8,1.4,4.6*0D
2018-01-12 20:03:35 1515805415.181968: $GPZDA,010336.00,13,01,2018,00,00*69
2018-01-12 20:03:35 1515805415.182140: $GPGGA,010336,3946.9695,N,08404.9643,W,1,06,1.40,318.93,M,-33.324,M,,*77
2018-01-12 20:03:35 1515805415.182207: $GPRMC,010336,A,3946.9695,N,08404.9643,W,1.1385,29.379,130118,,*01
2018-01-12 20:03:35 1515805415.182269: $GPGSA,A,3,27,8,7,9,16,11,,,,,,,4.8,1.4,4.6*0D
2018-01-12 20:03:36 1515805416.531487: $GPGSV,3,1,10,27,49,054,19,08,72,138,24,07,54,313,22,09,49,231,20*7B
2018-01-12 20:03:36 1515805416.531684: $GPGSV,3,2,10,16,24,058,08,11,18,168,14,23,31,190,07,30,27,306,00*71
2018-01-12 20:03:36 1515805416.531750: $GPGSV,3,3,10,28,13,256,00,138,38,213,00*40
2018-01-12 20:03:36 1515805416.643707: $GPZDA,010337.00,13,01,2018,00,00*68
2018-01-12 20:03:36 1515805416.643880: $GPGGA,010337,3946.9694,N,08404.9635,W,1,07,1.60,317.61,M,-33.324,M,,*77
2018-01-12 20:03:36 1515805416.643946: $GPRMC,010337,A,3946.9694,N,08404.9635,W,1.2621,39.347,130118,,*04
2018-01-12 20:03:36 1515805416.644007: $GPGSA,A,3,27,8,7,9,16,11,23,,,,,,4.8,1.6,4.6*0E
2018-01-12 20:03:37 1515805417.197589: $GPZDA,010338.00,13,01,2018,00,00*67
2018-01-12 20:03:37 1515805417.197793: $GPGGA,010338,3946.9694,N,08404.9628,W,1,07,1.60,317.69,M,-33.324,M,,*7C
2018-01-12 20:03:37 1515805417.197883: $GPRMC,010338,A,3946.9694,N,08404.9628,W,0.8414,39.347,130118,,*08
2018-01-12 20:03:37 1515805417.197947: $GPGSA,A,3,27,8,7,9,16,11,23,,,,,,4.8,1.6,4.6*0E
2018-01-12 20:03:38 1515805418.196783: $GPZDA,010339.00,13,01,2018,00,00*66
2018-01-12 20:03:38 1515805418.196954: $GPGGA,010339,3946.9690,N,08404.9628,W,1,07,1.60,317.05,M,-33.324,M,,*73
2018-01-12 20:03:38 1515805418.197021: $GPRMC,010339,A,3946.9690,N,08404.9628,W,0.2422,93.794,130118,,*08
2018-01-12 20:03:38 1515805418.197082: $GPGSA,A,3,27,8,7,9,16,11,23,,,,,,4.8,1.6,4.6*0E
2018-01-12 20:03:39 1515805419.530851: $GPGSV,3,1,10,27,49,054,18,08,72,138,24,07,54,313,22,09,49,231,20*7A
2018-01-12 20:03:39 1515805419.531033: $GPGSV,3,2,10,16,24,058,07,11,18,168,11,23,31,190,07,30,27,306,00*7B
2018-01-12 20:03:39 1515805419.531099: $GPGSV,3,3,10,28,13,256,00,120,07,103,00*47
2018-01-12 20:03:39 1515805419.644279: $GPZDA,010340.00,13,01,2018,00,00*68
2018-01-12 20:03:39 1515805419.644479: $GPGGA,010340,3946.9685,N,08404.9628,W,1,07,1.60,316.41,M,-33.324,M,,*78
2018-01-12 20:03:39 1515805419.644551: $GPRMC,010340,A,3946.9685,N,08404.9628,W,0.0000,0.000,130118,,*34
2018-01-12 20:03:39 1515805419.644612: $GPGSA,A,3,27,8,7,9,16,11,23,,,,,,4.8,1.6,4.6*0E
2018-01-12 20:03:40 1515805420.194528: $GPZDA,010341.00,13,01,2018,00,00*69
2018-01-12 20:03:40 1515805420.194698: $GPGGA,010341,3946.9681,N,08404.9621,W,1,07,1.60,315.85,M,-33.324,M,,*7F
2018-01-12 20:03:40 1515805420.194765: $GPRMC,010341,A,3946.9681,N,08404.9621,W,0.5951,58.684,130118,,*07
2018-01-12 20:03:40 1515805420.194826: $GPGSA,A,3,27,8,7,9,16,11,23,,,,,,4.8,1.6,4.6*0E
2018-01-12 20:03:41 1515805421.194943: $GPZDA,010342.00,13,01,2018,00,00*6A
2018-01-12 20:03:41 1515805421.195109: $GPGGA,010342,3946.9684,N,08404.9620,W,1,07,1.60,315.08,M,-33.324,M,,*7D
2018-01-12 20:03:41 1515805421.195176: $GPRMC,010342,A,3946.9684,N,08404.9620,W,0.4207,39.347,130118,,*04
2018-01-12 20:03:41 1515805421.195238: $GPGSA,A,3,27,8,7,9,16,11,23,,,,,,4.8,1.6,4.6*0E
2018-01-12 20:03:42 1515805422.514460: $GPGSV,3,1,10,27,49,054,18,08,72,138,23,07,54,313,22,09,49,231,20*7D
2018-01-12 20:03:42 1515805422.518211: $GPGSV,3,2,10,16,24,058,05,11,18,168,12,23,31,190,06,28,13,256,12*72
2018-01-12 20:03:42 1515805422.518310: $GPGSV,3,3,10,30,27,306,00,120,07,103,00*4D
2018-01-12 20:03:42 1515805422.627842: $GPZDA,010343.00,13,01,2018,00,00*6B
2018-01-12 20:03:42 1515805422.628073: $GPGGA,010343,3946.9680,N,08404.9620,W,1,06,1.60,314.44,M,-33.324,M,,*70
2018-01-12 20:03:42 1515805422.628145: $GPRMC,010343,A,3946.9680,N,08404.9620,W,0.7278,23.636,130118,,*02
2018-01-12 20:03:42 1515805422.628207: $GPGSA,A,3,27,8,7,9,11,23,,,,,,,4.8,1.6,4.6*09
2018-01-12 20:03:43 1515805423.196936: $GPZDA,010344.00,13,01,2018,00,00*6C
2018-01-12 20:03:43 1515805423.197144: $GPGGA,010344,3946.9676,N,08404.9613,W,1,06,1.60,313.88,M,-33.324,M,,*79
2018-01-12 20:03:43 1515805423.197214: $GPRMC,010344,A,3946.9676,N,08404.9613,W,0.0000,0.000,130118,,*34
2018-01-12 20:03:43 1515805423.197276: $GPGSA,A,3,27,8,7,9,11,23,,,,,,,4.8,1.6,4.6*09
2018-01-12 20:03:44 1515805424.196365: $GPZDA,010345.00,13,01,2018,00,00*6D
2018-01-12 20:03:44 1515805424.196552: $GPGGA,010345,3946.9671,N,08404.9613,W,1,06,1.60,313.24,M,-33.324,M,,*79
2018-01-12 20:03:44 1515805424.196619: $GPRMC,010345,A,3946.9671,N,08404.9613,W,0.8054,248.645,130118,,*32
2018-01-12 20:03:44 1515805424.196682: $GPGSA,A,3,27,8,7,9,11,23,,,,,,,4.8,1.6,4.6*09
2018-01-12 20:03:45 1515805425.532588: $GPGSV,3,1,10,27,49,054,18,08,72,138,21,07,54,313,22,09,49,231,21*7E
2018-01-12 20:03:45 1515805425.532771: $GPGSV,3,2,10,16,24,058,04,11,18,168,12,23,31,190,11,30,27,306,00*7C
2018-01-12 20:03:45 1515805425.532838: $GPGSV,3,3,10,28,13,256,00,120,07,103,00*47
2018-01-12 20:03:45 1515805425.646071: $GPZDA,010346.00,13,01,2018,00,00*6E
2018-01-12 20:03:45 1515805425.646268: $GPGGA,010346,3946.9668,N,08404.9620,W,1,06,1.60,312.52,M,-33.324,M,,*72
2018-01-12 20:03:45 1515805425.646336: $GPRMC,010346,A,3946.9668,N,08404.9620,W,1.0298,254.381,130118,,*32
2018-01-12 20:03:45 1515805425.646398: $GPGSA,A,3,27,8,7,9,11,23,,,,,,,4.8,1.6,4.6*09
2018-01-12 20:03:46 1515805426.196134: $GPZDA,010347.00,13,01,2018,00,00*6F
2018-01-12 20:03:46 1515805426.196312: $GPGGA,010347,3946.9664,N,08404.9620,W,1,06,1.60,311.88,M,-33.324,M,,*7B
2018-01-12 20:03:46 1515805426.196379: $GPRMC,010347,A,3946.9664,N,08404.9620,W,1.1902,238.684,130118,,*3C
2018-01-12 20:03:46 1515805426.196441: $GPGSA,A,3,27,8,7,9,11,23,,,,,,,4.8,1.6,4.6*09
