2018-01-12 03:00:08 1515744008.799266: {"class":"VERSION","release":"3.16","rev":"3.16-4","proto_major":3,"proto_minor":11}
2018-01-12 03:00:08 1515744008.799613: {"class":"DEVICES","devices":[{"class":"DEVICE","path":"/dev/ttyUSB0","driver":"SiRF","subtype":"9\u0006GSD4e_4.1.2-P1_RPATCH.05-F-GPS-4R-1510281 11/03/2015 307","activated":"2018-01-12T08:00:08.724Z","flags":1,"native":1,"bps":4800,"parity":"N","stopbits":1,"cycle":1.00}]}
2018-01-12 03:00:08 1515744008.799738: {"class":"WATCH","enable":true,"json":false,"nmea":true,"raw":0,"scaled":false,"timing":false,"split24":false,"pps":false}
2018-01-12 03:00:08 1515744008.838366: $GPZDA,080009.00,12,01,2018,00,00*6E
2018-01-12 03:00:08 1515744008.838502: $GPGGA,080009,3946.9667,N,08404.9853,W,2,12,0.80,300.12,M,-33.325,M,,*79
2018-01-12 03:00:08 1515744008.838572: $GPRMC,080009,A,3946.9667,N,08404.9853,W,0.0000,0.000,120118,,*3C
2018-01-12 03:00:08 1515744008.838633: $GPGSA,A,3,2,5,6,12,17,19,3,9,24,25,28,138,2.4,0.8,2.1*38
2018-01-12 03:00:09 1515744009.395281: $GPZDA,080010.00,12,01,2018,00,00*66
2018-01-12 03:00:09 1515744009.395448: $GPGGA,080010,3946.9667,N,08404.9853,W,2,12,0.80,300.12,M,-33.325,M,,*71
2018-01-12 03:00:09 1515744009.395515: $GPRMC,080010,A,3946.9667,N,08404.9853,W,0.0000,0.000,120118,,*34
2018-01-12 03:00:09 1515744009.395583: $GPGSA,A,3,2,5,6,12,17,19,3,9,24,25,28,138,2.4,0.8,2.1*38
2018-01-12 03:00:10 1515744010.397786: $GPZDA,080011.00,12,01,2018,00,00*67
2018-01-12 03:00:10 1515744010.397957: $GPGGA,080011,3946.9667,N,08404.9853,W,2,12,0.80,300.12,M,-33.325,M,,*70
2018-01-12 03:00:10 1515744010.398024: $GPRMC,080011,A,3946.9667,N,08404.9853,W,0.0000,0.000,120118,,*35
2018-01-12 03:00:10 1515744010.398085: $GPGSA,A,3,2,5,6,12,17,19,3,9,24,25,28,138,2.4,0.8,2.1*38
2018-01-12 03:00:11 1515744011.736927: $GPGSV,3,1,12,02,55,262,48,05,12,193,27,06,76,357,50,12,41,307,51*7D
2018-01-12 03:00:11 1515744011.737109: $GPGSV,3,2,12,17,42,090,42,19,59,070,42,03,06,034,22,09,06,100,23*7C
2018-01-12 03:00:11 1515744011.737176: $GPGSV,3,3,12,24,11,258,35,25,06,322,36,28,04,153,18,138,38,213,38*48
2018-01-12 03:00:11 1515744011.850207: $GPZDA,080012.00,12,01,2018,00,00*64
2018-01-12 03:00:11 1515744011.850385: $GPGGA,080012,3946.9667,N,08404.9853,W,2,12,1.00,300.12,M,-33.325,M,,*7A
2018-01-12 03:00:11 1515744011.850454: $GPRMC,080012,A,3946.9667,N,08404.9853,W,0.0000,0.000,120118,,*36
2018-01-12 03:00:11 1515744011.850516: $GPGSA,A,3,2,5,6,12,17,19,3,9,24,25,28,138,2.4,1.0,2.1*31
2018-01-12 03:00:12 1515744012.389861: $GPZDA,080013.00,12,01,2018,00,00*65
2018-01-12 03:00:12 1515744012.390035: $GPGGA,080013,3946.9667,N,08404.9853,W,2,12,0.80,300.12,M,-33.325,M,,*72
2018-01-12 03:00:12 1515744012.390100: $GPRMC,080013,A,3946.9667,N,08404.9853,W,0.0000,0.000,120118,,*37
2018-01-12 03:00:12 1515744012.390162: $GPGSA,A,3,2,5,6,12,17,19,3,9,24,25,28,138,2.4,0.8,2.1*38
2018-01-12 03:00:13 1515744013.392926: $GPZDA,080014.00,12,01,2018,00,00*62
2018-01-12 03:00:13 1515744013.393102: $GPGGA,080014,3946.9667,N,08404.9853,W,2,12,0.80,300.12,M,-33.325,M,,*75
2018-01-12 03:00:13 1515744013.393168: $GPRMC,080014,A,3946.9667,N,08404.9853,W,0.0000,0.000,120118,,*30
2018-01-12 03:00:13 1515744013.393229: $GPGSA,A,3,2,5,6,12,17,19,3,9,24,25,28,138,2.4,0.8,2.1*38
2018-01-12 03:00:14 1515744014.729758: $GPGSV,3,1,12,02,55,262,47,05,12,193,24,06,76,357,50,12,41,307,51*71
2018-01-12 03:00:14 1515744014.729936: $GPGSV,3,2,12,17,42,090,42,19,59,070,42,03,06,034,21,09,06,100,22*7E
2018-01-12 03:00:14 1515744014.730002: $GPGSV,3,3,12,24,11,258,35,25,06,322,36,28,04,153,17,138,38,213,40*48
2018-01-12 03:00:14 1515744014.843098: $GPZDA,080015.00,12,01,2018,00,00*63
2018-01-12 03:00:14 1515744014.843235: $GPGGA,080015,3946.9667,N,08404.9853,W,2,12,1.00,300.12,M,-33.325,M,,*7D
2018-01-12 03:00:14 1515744014.843299: $GPRMC,080015,A,3946.9667,N,08404.9853,W,0.0000,0.000,120118,,*31
2018-01-12 03:00:14 1515744014.843359: $GPGSA,A,3,2,5,6,12,17,19,3,9,24,25,28,138,2.4,1.0,2.1*31
2018-01-12 03:00:15 1515744015.393977: $GPZDA,080016.00,12,01,2018,00,00*60
2018-01-12 03:00:15 1515744015.394137: $GPGGA,080016,3946.9667,N,08404.9853,W,2,12,0.80,300.12,M,-33.325,M,,*77
2018-01-12 03:00:15 1515744015.394315: $GPRMC,080016,A,3946.9667,N,08404.9853,W,0.0000,0.000,120118,,*32
2018-01-12 03:00:15 1515744015.394381: $GPGSA,A,3,2,5,6,12,17,19,3,9,24,25,28,138,2.4,0.8,2.1*38
2018-01-12 03:00:16 1515744016.397494: $GPZDA,080017.00,12,01,2018,00,00*61
2018-01-12 03:00:16 1515744016.397645: $GPGGA,080017,3946.9667,N,08404.9853,W,2,12,0.80,300.12,M,-33.325,M,,*76
2018-01-12 03:00:16 1515744016.397711: $GPRMC,080017,A,3946.9667,N,08404.9853,W,0.0000,0.000,120118,,*33
2018-01-12 03:00:16 1515744016.397772: $GPGSA,A,3,2,5,6,12,17,19,3,9,24,25,28,138,2.4,0.8,2.1*38
2018-01-12 03:00:17 1515744017.724404: $GPGSV,3,1,12,02,55,262,47,05,12,193,26,06,76,357,50,12,41,307,51*73
2018-01-12 03:00:17 1515744017.724585: $GPGSV,3,2,12,17,42,090,42,19,59,070,43,03,06,034,20,09,06,100,20*7C
2018-01-12 03:00:17 1515744017.724650: $GPGSV,3,3,12,24,11,258,36,25,06,322,37,28,04,153,10,138,38,213,34*4E
2018-01-12 03:00:17 1515744017.837982: $GPZDA,080018.00,12,01,2018,00,00*6E
2018-01-12 03:00:17 1515744017.838142: $GPGGA,080018,3946.9667,N,08404.9846,W,2,12,0.80,300.20,M,-33.325,M,,*7C
2018-01-12 03:00:17 1515744017.838208: $GPRMC,080018,A,3946.9667,N,08404.9846,W,0.0000,0.000,120118,,*38
2018-01-12 03:00:17 1515744017.838268: $GPGSA,A,3,2,5,6,12,17,19,3,9,24,25,28,138,2.4,0.8,2.1*38
2018-01-12 03:00:18 1515744018.463477: $GPZDA,080019.00,12,01,2018,00,00*6F
2018-01-12 03:00:18 1515744018.463650: $GPGGA,080019,3946.9667,N,08404.9846,W,2,12,0.80,300.20,M,-33.325,M,,*7D
2018-01-12 03:00:18 1515744018.463716: $GPRMC,080019,A,3946.9667,N,08404.9846,W,0.0000,0.000,120118,,*39
2018-01-12 03:00:18 1515744018.463777: $GPGSA,A,3,2,5,6,12,17,19,3,9,24,25,28,138,2.4,0.8,2.1*38
2018-01-12 03:00:19 1515744019.394456: $GPZDA,080020.00,12,01,2018,00,00*65
2018-01-12 03:00:19 1515744019.394627: $GPGGA,080020,3946.9667,N,08404.9846,W,2,12,0.80,300.20,M,-33.325,M,,*77
2018-01-12 03:00:19 1515744019.394694: $GPRMC,080020,A,3946.9667,N,08404.9846,W,0.0000,0.000,120118,,*33
2018-01-12 03:00:19 1515744019.394755: $GPGSA,A,3,2,5,6,12,17,19,3,9,24,25,28,138,2.4,0.8,2.1*38
2018-01-12 03:00:20 1515744020.722185: $GPGSV,3,1,12,02,55,262,47,05,12,193,27,06,76,357,50,12,41,307,51*72
2018-01-12 03:00:20 1515744020.722365: $GPGSV,3,2,12,17,42,090,42,19,59,070,42,03,06,034,00,09,06,100,21*7E
2018-01-12 03:00:20 1515744020.722431: $GPGSV,3,3,12,24,11,258,36,25,06,322,37,23,06,069,00,138,38,213,37*4D
2018-01-12 03:00:20 1515744020.835904: $GPZDA,080021.00,12,01,2018,00,00*64
2018-01-12 03:00:20 1515744020.836042: $GPGGA,080021,3946.9667,N,08404.9846,W,2,10,1.00,300.20,M,-33.325,M,,*7D
2018-01-12 03:00:20 1515744020.836106: $GPRMC,080021,A,3946.9667,N,08404.9846,W,0.0000,0.000,120118,,*32
2018-01-12 03:00:20 1515744020.836166: $GPGSA,A,3,2,5,6,12,17,19,9,24,25,138,,,2.4,1.0,2.1*08
2018-01-12 03:00:21 1515744021.391472: $GPZDA,080022.00,12,01,2018,00,00*67
2018-01-12 03:00:21 1515744021.391646: $GPGGA,080022,3946.9667,N,08404.9846,W,2,10,1.00,300.20,M,-33.325,M,,*7E
2018-01-12 03:00:21 1515744021.391712: $GPRMC,080022,A,3946.9667,N,08404.9846,W,0.0000,0.000,120118,,*31
2018-01-12 03:00:21 1515744021.391773: $GPGSA,A,3,2,5,6,12,17,19,9,24,25,138,,,2.4,1.0,2.1*08
2018-01-12 03:00:22 1515744022.392306: $GPZDA,080023.00,12,01,2018,00,00*66
2018-01-12 03:00:22 1515744022.392471: $GPGGA,080023,3946.9667,N,08404.9846,W,2,10,1.00,300.20,M,-33.325,M,,*7F
2018-01-12 03:00:22 1515744022.392554: $GPRMC,080023,A,3946.9667,N,08404.9846,W,0.0000,0.000,120118,,*30
2018-01-12 03:00:22 1515744022.392616: $GPGSA,A,3,2,5,6,12,17,19,9,24,25,138,,,2.4,1.0,2.1*08
2018-01-12 03:00:23 1515744023.728882: $GPGSV,3,1,12,02,55,262,47,05,12,193,27,06,76,357,50,12,41,307,51*72
2018-01-12 03:00:23 1515744023.729062: $GPGSV,3,2,12,17,42,090,43,19,59,070,42,03,06,034,00,09,06,100,23*7D
2018-01-12 03:00:23 1515744023.729129: $GPGSV,3,3,12,24,11,258,38,25,06,322,37,23,06,069,00,138,38,213,39*4D
2018-01-12 03:00:23 1515744023.841219: $GPZDA,080024.00,12,01,2018,00,00*61
2018-01-12 03:00:23 1515744023.841415: $GPGGA,080024,3946.9667,N,08404.9846,W,2,10,1.00,300.20,M,-33.325,M,,*78
2018-01-12 03:00:23 1515744023.841484: $GPRMC,080024,A,3946.9667,N,08404.9846,W,0.0000,0.000,120118,,*37
2018-01-12 03:00:23 1515744023.841545: $GPGSA,A,3,2,5,6,12,17,19,9,24,25,138,,,2.4,1.0,2.1*08
2018-01-12 03:00:24 1515744024.393370: $GPZDA,080025.00,12,01,2018,00,00*60
2018-01-12 03:00:24 1515744024.393563: $GPGGA,080025,3946.9667,N,08404.9846,W,2,10,1.00,300.20,M,-33.325,M,,*79
2018-01-12 03:00:24 1515744024.393647: $GPRMC,080025,A,3946.9667,N,08404.9846,W,0.0000,0.000,120118,,*36
2018-01-12 03:00:24 1515744024.393711: $GPGSA,A,3,2,5,6,12,17,19,9,24,25,138,,,2.4,1.0,2.1*08
2018-01-12 03:00:25 1515744025.394003: $GPZDA,080026.00,12,01,2018,00,00*63
2018-01-12 03:00:25 1515744025.394171: $GPGGA,080026,3946.9667,N,08404.9846,W,2,10,1.00,300.20,M,-33.325,M,,*7A
2018-01-12 03:00:25 1515744025.394289: $GPRMC,080026,A,3946.9667,N,08404.9846,W,0.0000,0.000,120118,,*35
2018-01-12 03:00:25 1515744025.394351: $GPGSA,A,3,2,5,6,12,17,19,9,24,25,138,,,2.4,1.0,2.1*08
2018-01-12 03:00:26 1515744026.729663: $GPGSV,3,1,12,02,55,262,47,05,12,193,27,06,76,357,50,12,41,307,51*72
2018-01-12 03:00:26 1515744026.729844: $GPGSV,3,2,12,17,42,090,42,19,59,070,42,03,06,034,19,09,06,100,23*74
2018-01-12 03:00:26 1515744026.729910: $GPGSV,3,3,12,24,11,258,38,25,06,322,37,23,06,069,00,138,38,213,39*4D
2018-01-12 03:00:26 1515744026.843020: $GPZDA,080027.00,12,01,2018,00,00*62
2018-01-12 03:00:26 1515744026.843180: $GPGGA,080027,3946.9667,N,08404.9846,W,2,11,0.80,300.20,M,-33.325,M,,*73
2018-01-12 03:00:26 1515744026.843247: $GPRMC,080027,A,3946.9667,N,08404.9846,W,0.0000,0.000,120118,,*34
2018-01-12 03:00:26 1515744026.843308: $GPGSA,A,3,2,5,6,12,17,19,3,9,24,25,138,,2.4,0.8,2.1*32
2018-01-12 03:00:27 1515744027.396888: $GPZDA,080028.00,12,01,2018,00,00*6D
2018-01-12 03:00:27 1515744027.397093: $GPGGA,080028,3946.9667,N,08404.9846,W,2,11,0.80,300.20,M,-33.325,M,,*7C
2018-01-12 03:00:27 1515744027.397160: $GPRMC,080028,A,3946.9667,N,08404.9846,W,0.0000,0.000,120118,,*3B
2018-01-12 03:00:27 1515744027.397222: $GPGSA,A,3,2,5,6,12,17,19,3,9,24,25,138,,2.4,0.8,2.1*32
2018-01-12 03:00:28 1515744028.395927: $GPZDA,080029.00,12,01,2018,00,00*6C
2018-01-12 03:00:28 1515744028.396098: $GPGGA,080029,3946.9667,N,08404.9846,W,2,11,0.80,300.20,M,-33.325,M,,*7D
2018-01-12 03:00:28 1515744028.396164: $GPRMC,080029,A,3946.9667,N,08404.9846,W,0.0000,0.000,120118,,*3A
2018-01-12 03:00:28 1515744028.396225: $GPGSA,A,3,2,5,6,12,17,19,3,9,24,25,138,,2.4,0.8,2.1*32
