2017-12-29 11:36:22 1514565382.096140: {"class":"VERSION","release":"3.16","rev":"3.16-4","proto_major":3,"proto_minor":11}
2017-12-29 11:36:22 1514565382.096497: {"class":"DEVICES","devices":[{"class":"DEVICE","path":"/dev/ttyUSB0","driver":"SiRF","subtype":"9\u0006GSD4e_4.1.2-P1_RPATCH.05-F-GPS-4R-1510281 11/03/2015 307","activated":"2017-12-29T16:36:21.665Z","flags":1,"native":1,"bps":4800,"parity":"N","stopbits":1,"cycle":1.00}]}
2017-12-29 11:36:22 1514565382.096610: {"class":"WATCH","enable":true,"json":false,"nmea":true,"raw":0,"scaled":false,"timing":false,"split24":false,"pps":false}
2017-12-29 11:36:22 1514565382.688054: $GPGSV,3,1,11,08,07,315,37,10,49,307,46,15,29,055,50,18,76,004,45*7A
2017-12-29 11:36:22 1514565382.688210: $GPGSV,3,2,11,20,28,102,49,21,54,184,46,24,53,094,51,32,29,244,39*78
2017-12-29 11:36:22 1514565382.688273: $GPGSV,3,3,11,27,17,280,32,14,10,237,00,138,38,213,45*73
2017-12-29 11:36:22 1514565382.801786: $GPZDA,163623.02,29,12,2017,00,00*6B
2017-12-29 11:36:22 1514565382.801936: $GPGGA,163623,3946.9622,N,08404.9950,W,2,10,1.00,289.93,M,-33.324,M,,*7B
2017-12-29 11:36:22 1514565382.802002: $GPRMC,163623,A,3946.9622,N,08404.9950,W,0.0000,0.000,291217,,*38
2017-12-29 11:36:22 1514565382.802062: $GPGSA,A,3,8,10,15,18,20,21,24,32,27,138,,,1.7,1.0,1.3*3A
2017-12-29 11:36:23 1514565383.352796: $GPZDA,163624.00,29,12,2017,00,00*6E
2017-12-29 11:36:23 1514565383.352994: $GPGGA,163624,3946.9622,N,08404.9943,W,2,10,1.00,291.41,M,-33.324,M,,*78
2017-12-29 11:36:23 1514565383.353064: $GPRMC,163624,A,3946.9622,N,08404.9943,W,0.2422,93.794,291217,,*0B
2017-12-29 11:36:23 1514565383.353147: $GPGSA,A,3,8,10,15,18,20,21,24,32,27,138,,,1.7,1.0,1.3*3A
2017-12-29 11:36:24 1514565384.353484: $GPZDA,163625.00,29,12,2017,00,00*6F
2017-12-29 11:36:24 1514565384.353647: $GPGGA,163625,3946.9622,N,08404.9943,W,2,10,1.00,291.41,M,-33.324,M,,*79
2017-12-29 11:36:24 1514565384.353713: $GPRMC,163625,A,3946.9622,N,08404.9943,W,0.0000,0.000,291217,,*3C
2017-12-29 11:36:24 1514565384.353774: $GPGSA,A,3,8,10,15,18,20,21,24,32,27,138,,,1.7,1.0,1.3*3A
2017-12-29 11:36:25 1514565385.690205: $GPGSV,3,1,11,08,07,315,38,10,49,307,46,15,29,055,50,18,76,004,44*74
2017-12-29 11:36:25 1514565385.690402: $GPGSV,3,2,11,20,28,102,49,21,54,184,46,24,53,094,51,32,29,244,39*78
2017-12-29 11:36:25 1514565385.690487: $GPGSV,3,3,11,27,17,280,34,14,10,237,00,138,38,213,45*75
2017-12-29 11:36:25 1514565385.802813: $GPZDA,163626.00,29,12,2017,00,00*6C
2017-12-29 11:36:25 1514565385.803017: $GPGGA,163626,3946.9622,N,08404.9943,W,2,10,1.00,291.41,M,-33.324,M,,*7A
2017-12-29 11:36:25 1514565385.803088: $GPRMC,163626,A,3946.9622,N,08404.9943,W,0.0000,0.000,291217,,*3F
2017-12-29 11:36:25 1514565385.803152: $GPGSA,A,3,8,10,15,18,20,21,24,32,27,138,,,1.7,1.0,1.3*3A
2017-12-29 11:36:26 1514565386.353253: $GPZDA,163627.00,29,12,2017,00,00*6D
2017-12-29 11:36:26 1514565386.353435: $GPGGA,163627,3946.9619,N,08404.9944,W,2,10,1.00,292.18,M,-33.324,M,,*7B
2017-12-29 11:36:26 1514565386.353506: $GPRMC,163627,A,3946.9619,N,08404.9944,W,0.0000,0.000,291217,,*31
2017-12-29 11:36:26 1514565386.353569: $GPGSA,A,3,8,10,15,18,20,21,24,32,27,138,,,1.7,1.0,1.3*3A
2017-12-29 11:36:27 1514565387.362108: $GPZDA,163628.00,29,12,2017,00,00*62
2017-12-29 11:36:27 1514565387.362210: $GPGGA,163628,3946.9618,N,08404.9937,W,2,10,1.00,292.26,M,-33.324,M,,*7C
2017-12-29 11:36:27 1514565387.362245: $GPRMC,163628,A,3946.9618,N,08404.9937,W,0.0000,0.000,291217,,*3B
2017-12-29 11:36:27 1514565387.362277: $GPGSA,A,3,8,10,15,18,20,21,24,32,27,138,,,1.7,1.0,1.3*3A
2017-12-29 11:36:28 1514565388.686858: $GPGSV,3,1,11,08,07,315,39,10,49,307,45,15,29,055,50,18,76,004,44*76
2017-12-29 11:36:28 1514565388.687040: $GPGSV,3,2,11,20,28,102,49,21,54,184,46,24,53,094,51,32,29,244,40*76
2017-12-29 11:36:28 1514565388.687111: $GPGSV,3,3,11,27,17,280,37,14,10,237,00,138,38,213,45*76
2017-12-29 11:36:28 1514565388.800352: $GPZDA,163629.00,29,12,2017,00,00*63
2017-12-29 11:36:28 1514565388.800529: $GPGGA,163629,3946.9618,N,08404.9937,W,2,10,1.00,292.26,M,-33.324,M,,*7D
2017-12-29 11:36:28 1514565388.800653: $GPRMC,163629,A,3946.9618,N,08404.9937,W,0.0000,0.000,291217,,*3A
2017-12-29 11:36:28 1514565388.800716: $GPGSA,A,3,8,10,15,18,20,21,24,32,27,138,,,1.7,1.0,1.3*3A
2017-12-29 11:36:29 1514565389.354970: $GPZDA,163630.00,29,12,2017,00,00*6B
2017-12-29 11:36:29 1514565389.355142: $GPGGA,163630,3946.9618,N,08404.9937,W,2,10,1.00,292.26,M,-33.324,M,,*75
2017-12-29 11:36:29 1514565389.355209: $GPRMC,163630,A,3946.9618,N,08404.9937,W,0.0000,0.000,291217,,*32
2017-12-29 11:36:29 1514565389.355270: $GPGSA,A,3,8,10,15,18,20,21,24,32,27,138,,,1.7,1.0,1.3*3A
2017-12-29 11:36:30 1514565390.353343: $GPZDA,163631.00,29,12,2017,00,00*6A
2017-12-29 11:36:30 1514565390.353518: $GPGGA,163631,3946.9618,N,08404.9937,W,2,10,1.00,292.26,M,-33.324,M,,*74
2017-12-29 11:36:30 1514565390.353584: $GPRMC,163631,A,3946.9618,N,08404.9937,W,0.0000,0.000,291217,,*33
2017-12-29 11:36:30 1514565390.353645: $GPGSA,A,3,8,10,15,18,20,21,24,32,27,138,,,1.7,1.0,1.3*3A
2017-12-29 11:36:31 1514565391.689016: $GPGSV,3,1,11,08,07,315,40,10,49,307,46,15,29,055,50,18,76,004,44*7B
2017-12-29 11:36:31 1514565391.689199: $GPGSV,3,2,11,20,28,102,49,21,54,184,46,24,53,094,51,32,29,244,40*76
2017-12-29 11:36:31 1514565391.689279: $GPGSV,3,3,11,27,17,280,37,14,10,237,00,138,38,213,45*76
2017-12-29 11:36:31 1514565391.802548: $GPZDA,163632.00,29,12,2017,00,00*69
2017-12-29 11:36:31 1514565391.802728: $GPGGA,163632,3946.9615,N,08404.9938,W,2,10,1.00,293.02,M,-33.324,M,,*72
2017-12-29 11:36:31 1514565391.802795: $GPRMC,163632,A,3946.9615,N,08404.9938,W,0.0000,0.000,291217,,*32
2017-12-29 11:36:31 1514565391.802856: $GPGSA,A,3,8,10,15,18,20,21,24,32,27,138,,,1.7,1.0,1.3*3A
2017-12-29 11:36:32 1514565392.427832: $GPZDA,163633.00,29,12,2017,00,00*68
2017-12-29 11:36:32 1514565392.428002: $GPGGA,163633,3946.9619,N,08404.9931,W,2,10,1.00,293.74,M,-33.324,M,,*77
2017-12-29 11:36:32 1514565392.428070: $GPRMC,163633,A,3946.9619,N,08404.9931,W,0.0000,0.000,291217,,*36
2017-12-29 11:36:32 1514565392.428131: $GPGSA,A,3,8,10,15,18,20,21,24,32,27,138,,,1.7,1.0,1.3*3A
2017-12-29 11:36:33 1514565393.352545: $GPZDA,163634.00,29,12,2017,00,00*6F
2017-12-29 11:36:33 1514565393.352733: $GPGGA,163634,3946.9619,N,08404.9931,W,2,10,1.00,293.74,M,-33.324,M,,*70
2017-12-29 11:36:33 1514565393.352800: $GPRMC,163634,A,3946.9619,N,08404.9931,W,0.0000,0.000,291217,,*31
2017-12-29 11:36:33 1514565393.352863: $GPGSA,A,3,8,10,15,18,20,21,24,32,27,138,,,1.7,1.0,1.3*3A
2017-12-29 11:36:34 1514565394.688221: $GPGSV,3,1,11,08,07,315,40,10,49,307,46,15,29,055,50,18,76,004,44*7B
2017-12-29 11:36:34 1514565394.688383: $GPGSV,3,2,11,20,28,102,49,21,54,184,46,24,53,094,51,32,29,244,40*76
2017-12-29 11:36:34 1514565394.688449: $GPGSV,3,3,11,27,17,280,37,14,10,237,00,138,38,213,45*76
2017-12-29 11:36:34 1514565394.801773: $GPZDA,163635.00,29,12,2017,00,00*6E
2017-12-29 11:36:34 1514565394.801942: $GPGGA,163635,3946.9619,N,08404.9931,W,2,10,1.00,293.74,M,-33.324,M,,*71
2017-12-29 11:36:34 1514565394.802009: $GPRMC,163635,A,3946.9619,N,08404.9931,W,0.0000,0.000,291217,,*30
2017-12-29 11:36:34 1514565394.802070: $GPGSA,A,3,8,10,15,18,20,21,24,32,27,138,,,1.7,1.0,1.3*3A
2017-12-29 11:36:35 1514565395.352715: $GPZDA,163636.00,29,12,2017,00,00*6D
2017-12-29 11:36:35 1514565395.352885: $GPGGA,163636,3946.9615,N,08404.9932,W,2,10,1.00,294.51,M,-33.324,M,,*7D
2017-12-29 11:36:35 1514565395.352952: $GPRMC,163636,A,3946.9615,N,08404.9932,W,0.0000,0.000,291217,,*3C
2017-12-29 11:36:35 1514565395.353014: $GPGSA,A,3,8,10,15,18,20,21,24,32,27,138,,,1.7,1.0,1.3*3A
2017-12-29 11:36:36 1514565396.350944: $GPZDA,163637.00,29,12,2017,00,00*6C
2017-12-29 11:36:36 1514565396.351205: $GPGGA,163637,3946.9615,N,08404.9932,W,2,10,1.00,294.51,M,-33.324,M,,*7C
2017-12-29 11:36:36 1514565396.351285: $GPRMC,163637,A,3946.9615,N,08404.9932,W,0.0000,0.000,291217,,*3D
2017-12-29 11:36:36 1514565396.351353: $GPGSA,A,3,8,10,15,18,20,21,24,32,27,138,,,1.7,1.0,1.3*3A
