2017-12-01 11:40:55 1512146455.837337: {"class":"VERSION","release":"3.16","rev":"3.16-4","proto_major":3,"proto_minor":11}
2017-12-01 11:40:55 1512146455.837795: {"class":"DEVICES","devices":[{"class":"DEVICE","path":"/dev/ttyUSB0","driver":"SiRF","subtype":"9\u0006GSD4e_4.1.2-P1_RPATCH.05-F-GPS-4R-1510281 11/03/2015 307","activated":"2017-12-01T16:40:55.836Z","flags":1,"native":1,"bps":4800,"parity":"N","stopbits":1,"cycle":1.00}]}
2017-12-01 11:40:55 1512146455.837916: {"class":"WATCH","enable":true,"json":false,"nmea":true,"raw":0,"scaled":false,"timing":false,"split24":false,"pps":false}
2017-12-01 11:40:56 1512146456.462462: $GPZDA,164057.00,01,12,2017,00,00*61
2017-12-01 11:40:56 1512146456.462654: $GPGGA,164057,3946.9604,N,08404.9832,W,2,11,0.80,290.76,M,-33.324,M,,*73
2017-12-01 11:40:56 1512146456.462723: $GPRMC,164057,A,3946.9604,N,08404.9832,W,0.0000,0.000,011217,,*31
2017-12-01 11:40:56 1512146456.462802: $GPGSA,A,3,5,10,13,15,18,20,21,24,27,29,138,,2.0,0.8,1.5*34
2017-12-01 11:40:57 1512146457.387037: $GPZDA,164058.00,01,12,2017,00,00*6E
2017-12-01 11:40:57 1512146457.387211: $GPGGA,164058,3946.9604,N,08404.9832,W,2,11,0.80,290.76,M,-33.324,M,,*7C
2017-12-01 11:40:57 1512146457.387278: $GPRMC,164058,A,3946.9604,N,08404.9832,W,0.0000,0.000,011217,,*3E
2017-12-01 11:40:57 1512146457.387339: $GPGSA,A,3,5,10,13,15,18,20,21,24,27,29,138,,2.0,0.8,1.5*34
2017-12-01 11:40:58 1512146458.727731: $GPGSV,3,1,12,05,14,076,35,10,12,271,36,13,44,051,47,15,76,076,48*71
2017-12-01 11:40:58 1512146458.727911: $GPGSV,3,2,12,18,43,285,45,20,63,048,42,21,66,306,46,24,19,150,41*7D
2017-12-01 11:40:58 1512146458.727979: $GPGSV,3,3,12,27,08,325,38,29,25,195,44,04,13,129,00,138,38,213,46*46
2017-12-01 11:40:58 1512146458.841099: $GPZDA,164059.00,01,12,2017,00,00*6F
2017-12-01 11:40:58 1512146458.841280: $GPGGA,164059,3946.9604,N,08404.9832,W,2,11,0.80,290.76,M,-33.324,M,,*7D
2017-12-01 11:40:58 1512146458.841405: $GPRMC,164059,A,3946.9604,N,08404.9832,W,0.0000,0.000,011217,,*3F
2017-12-01 11:40:58 1512146458.841479: $GPGSA,A,3,5,10,13,15,18,20,21,24,27,29,138,,2.0,0.8,1.5*34
2017-12-01 11:40:59 1512146459.393344: $GPZDA,164100.00,01,12,2017,00,00*62
2017-12-01 11:40:59 1512146459.393530: $GPGGA,164100,3946.9604,N,08404.9832,W,2,11,0.80,290.76,M,-33.324,M,,*70
2017-12-01 11:40:59 1512146459.393598: $GPRMC,164100,A,3946.9604,N,08404.9832,W,0.0000,0.000,011217,,*32
2017-12-01 11:40:59 1512146459.393663: $GPGSA,A,3,5,10,13,15,18,20,21,24,27,29,138,,2.0,0.8,1.5*34
2017-12-01 11:41:00 1512146460.387762: $GPZDA,164101.00,01,12,2017,00,00*63
2017-12-01 11:41:00 1512146460.387930: $GPGGA,164101,3946.9604,N,08404.9832,W,2,11,0.80,290.76,M,-33.324,M,,*71
2017-12-01 11:41:00 1512146460.387996: $GPRMC,164101,A,3946.9604,N,08404.9832,W,0.0000,0.000,011217,,*33
2017-12-01 11:41:00 1512146460.388057: $GPGSA,A,3,5,10,13,15,18,20,21,24,27,29,138,,2.0,0.8,1.5*34
2017-12-01 11:41:00 1512146460.388115: $GPGBS,164101,2.67,M,3.86,M,8.82,M*31
2017-12-01 11:41:01 1512146461.722995: $GPGSV,3,1,12,05,14,076,34,10,12,271,35,13,44,051,47,15,76,076,48*73
2017-12-01 11:41:01 1512146461.723311: $GPGSV,3,2,12,18,43,285,45,20,63,048,42,21,66,306,46,24,19,150,41*7D
2017-12-01 11:41:01 1512146461.723460: $GPGSV,3,3,12,27,08,325,38,29,25,195,44,04,13,129,20,138,38,213,46*44
2017-12-01 11:41:01 1512146461.835013: $GPZDA,164102.00,01,12,2017,00,00*60
2017-12-01 11:41:01 1512146461.835171: $GPGGA,164102,3946.9604,N,08404.9832,W,2,11,0.80,290.76,M,-33.324,M,,*72
2017-12-01 11:41:01 1512146461.835241: $GPRMC,164102,A,3946.9604,N,08404.9832,W,0.0000,0.000,011217,,*30
2017-12-01 11:41:01 1512146461.835304: $GPGSA,A,3,5,10,13,15,18,20,21,24,27,29,138,,2.0,0.8,1.5*34
2017-12-01 11:41:02 1512146462.385936: $GPZDA,164103.00,01,12,2017,00,00*61
2017-12-01 11:41:02 1512146462.386104: $GPGGA,164103,3946.9604,N,08404.9832,W,2,11,0.80,290.76,M,-33.324,M,,*73
2017-12-01 11:41:02 1512146462.386174: $GPRMC,164103,A,3946.9604,N,08404.9832,W,0.0000,0.000,011217,,*31
2017-12-01 11:41:02 1512146462.386238: $GPGSA,A,3,5,10,13,15,18,20,21,24,27,29,138,,2.0,0.8,1.5*34
2017-12-01 11:41:03 1512146463.389366: $GPZDA,164104.00,01,12,2017,00,00*66
2017-12-01 11:41:03 1512146463.389534: $GPGGA,164104,3946.9604,N,08404.9832,W,2,11,0.80,290.76,M,-33.324,M,,*74
2017-12-01 11:41:03 1512146463.389620: $GPRMC,164104,A,3946.9604,N,08404.9832,W,0.0000,0.000,011217,,*36
2017-12-01 11:41:03 1512146463.389698: $GPGSA,A,3,5,10,13,15,18,20,21,24,27,29,138,,2.0,0.8,1.5*34
2017-12-01 11:41:04 1512146464.722575: $GPGSV,3,1,12,05,14,076,26,10,12,271,28,13,44,051,37,15,76,076,38*7C
2017-12-01 11:41:04 1512146464.722750: $GPGSV,3,2,12,18,43,285,35,20,63,048,33,21,66,306,36,24,19,150,32*7F
2017-12-01 11:41:04 1512146464.722817: $GPGSV,3,3,12,27,08,325,34,29,25,195,34,04,13,129,00,138,38,213,38*44
2017-12-01 11:41:04 1512146464.836313: $GPZDA,164105.00,01,12,2017,00,00*67
2017-12-01 11:41:04 1512146464.836481: $GPGGA,164105,3946.9604,N,08404.9839,W,2,11,0.80,290.68,M,-33.324,M,,*71
2017-12-01 11:41:04 1512146464.836568: $GPRMC,164105,A,3946.9604,N,08404.9839,W,0.0000,0.000,011217,,*3C
2017-12-01 11:41:04 1512146464.836631: $GPGSA,A,3,5,10,13,15,18,20,21,24,27,29,138,,2.0,0.8,1.5*34
2017-12-01 11:41:05 1512146465.384279: $GPZDA,164106.00,01,12,2017,00,00*64
2017-12-01 11:41:05 1512146465.384456: $GPGGA,164106,3946.9600,N,08404.9839,W,2,11,0.80,290.04,M,-33.324,M,,*7C
2017-12-01 11:41:05 1512146465.384567: $GPRMC,164106,A,3946.9600,N,08404.9839,W,0.0000,0.000,011217,,*3B
2017-12-01 11:41:05 1512146465.384631: $GPGSA,A,3,5,10,13,15,18,20,21,24,27,29,138,,2.0,0.8,1.5*34
