2017-12-01 18:04:12 1512169452.887388: {"class":"VERSION","release":"3.16","rev":"3.16-4","proto_major":3,"proto_minor":11}
2017-12-01 18:04:12 1512169452.887751: {"class":"DEVICES","devices":[{"class":"DEVICE","path":"/dev/ttyUSB0","driver":"SiRF","subtype":"9\u0006GSD4e_4.1.2-P1_RPATCH.05-F-GPS-4R-1510281 11/03/2015 307","activated":"2017-12-01T23:04:12.585Z","flags":1,"native":1,"bps":4800,"parity":"N","stopbits":1,"cycle":1.00}]}
2017-12-01 18:04:12 1512169452.887863: {"class":"WATCH","enable":true,"json":false,"nmea":true,"raw":0,"scaled":false,"timing":false,"split24":false,"pps":false}
2017-12-01 18:04:13 1512169453.474473: $GPZDA,230414.00,01,12,2017,00,00*60
2017-12-01 18:04:13 1512169453.474643: $GPGGA,230414,3946.9728,N,08404.9837,W,2,12,0.80,292.82,M,-33.325,M,,*73
2017-12-01 18:04:13 1512169453.474709: $GPRMC,230414,A,3946.9728,N,08404.9837,W,0.0000,0.000,011217,,*3A
2017-12-01 18:04:13 1512169453.474771: $GPGSA,A,3,1,3,10,14,16,22,23,25,26,31,32,138,2.0,0.8,1.5*06
2017-12-01 18:04:14 1512169454.774849: $GPGSV,3,1,12,01,11,259,31,03,34,307,47,29,07,081,00,14,61,078,44*7E
2017-12-01 18:04:14 1512169454.775036: $GPGSV,3,2,12,16,14,189,43,22,48,285,47,23,05,297,44,25,25,043,43*76
2017-12-01 18:04:14 1512169454.775104: $GPGSV,3,3,12,26,43,175,45,31,74,007,47,32,43,099,44,138,38,213,46*4B
2017-12-01 18:04:14 1512169454.888343: $GPZDA,230415.00,01,12,2017,00,00*61
2017-12-01 18:04:14 1512169454.888513: $GPGGA,230415,3946.9728,N,08404.9837,W,2,11,0.80,292.82,M,-33.325,M,,*71
2017-12-01 18:04:14 1512169454.888580: $GPRMC,230415,A,3946.9728,N,08404.9837,W,0.0000,0.000,011217,,*3B
2017-12-01 18:04:14 1512169454.888641: $GPGSA,A,3,1,3,14,16,22,23,25,26,31,32,138,,2.0,0.8,1.5*07
2017-12-01 18:04:15 1512169455.513865: $GPZDA,230416.00,01,12,2017,00,00*62
2017-12-01 18:04:15 1512169455.514029: $GPGGA,230416,3946.9728,N,08404.9837,W,2,11,0.80,292.82,M,-33.325,M,,*72
2017-12-01 18:04:15 1512169455.514094: $GPRMC,230416,A,3946.9728,N,08404.9837,W,0.0000,0.000,011217,,*38
2017-12-01 18:04:15 1512169455.514155: $GPGSA,A,3,1,3,14,16,22,23,25,26,31,32,138,,2.0,0.8,1.5*07
2017-12-01 18:04:16 1512169456.474795: $GPZDA,230417.00,01,12,2017,00,00*63
2017-12-01 18:04:16 1512169456.474965: $GPGGA,230417,3946.9728,N,08404.9837,W,2,11,0.80,292.82,M,-33.325,M,,*73
2017-12-01 18:04:16 1512169456.475032: $GPRMC,230417,A,3946.9728,N,08404.9837,W,0.0000,0.000,011217,,*39
2017-12-01 18:04:16 1512169456.475093: $GPGSA,A,3,1,3,14,16,22,23,25,26,31,32,138,,2.0,0.8,1.5*07
2017-12-01 18:04:17 1512169457.810182: $GPGSV,3,1,12,01,11,259,29,03,34,307,47,10,06,159,30,14,61,078,43*7C
2017-12-01 18:04:17 1512169457.810365: $GPGSV,3,2,12,16,14,189,42,22,48,285,46,29,07,081,14,25,25,043,43*7E
2017-12-01 18:04:17 1512169457.810434: $GPGSV,3,3,12,26,43,175,45,31,74,007,47,32,43,099,44,138,38,213,46*4B
2017-12-01 18:04:17 1512169457.923941: $GPZDA,230418.00,01,12,2017,00,00*6C
2017-12-01 18:04:17 1512169457.924117: $GPGGA,230418,3946.9728,N,08404.9837,W,2,11,0.80,292.82,M,-33.325,M,,*7C
2017-12-01 18:04:17 1512169457.924184: $GPRMC,230418,A,3946.9728,N,08404.9837,W,0.0000,0.000,011217,,*36
2017-12-01 18:04:17 1512169457.924245: $GPGSA,A,3,1,3,10,14,16,22,25,26,31,32,138,,2.0,0.8,1.5*07
2017-12-01 18:04:18 1512169458.451062: $GPZDA,230419.00,01,12,2017,00,00*6D
2017-12-01 18:04:18 1512169458.451232: $GPGGA,230419,3946.9728,N,08404.9837,W,2,11,0.80,292.82,M,-33.325,M,,*7D
2017-12-01 18:04:18 1512169458.451299: $GPRMC,230419,A,3946.9728,N,08404.9837,W,0.0000,0.000,011217,,*37
2017-12-01 18:04:18 1512169458.451445: $GPGSA,A,3,1,3,10,14,16,22,25,26,31,32,138,,2.0,0.8,1.5*07
2017-12-01 18:04:19 1512169459.475338: $GPZDA,230420.00,01,12,2017,00,00*67
2017-12-01 18:04:19 1512169459.475521: $GPGGA,230420,3946.9728,N,08404.9837,W,2,11,0.60,292.82,M,-33.325,M,,*79
2017-12-01 18:04:19 1512169459.475606: $GPRMC,230420,A,3946.9728,N,08404.9837,W,0.0000,0.000,011217,,*3D
2017-12-01 18:04:19 1512169459.475670: $GPGSA,A,3,1,3,10,14,16,22,25,26,31,32,138,,2.0,0.6,1.5*09
2017-12-01 18:04:20 1512169460.776822: $GPGSV,3,1,12,01,11,259,29,03,34,307,47,10,06,159,29,14,61,078,43*74
2017-12-01 18:04:20 1512169460.777058: $GPGSV,3,2,12,16,14,189,42,22,48,285,46,29,07,081,23,25,25,043,44*7D
2017-12-01 18:04:20 1512169460.777127: $GPGSV,3,3,12,26,43,175,46,31,74,007,47,32,43,099,44,138,38,213,46*48
2017-12-01 18:04:20 1512169460.889182: $GPZDA,230421.00,01,12,2017,00,00*66
2017-12-01 18:04:20 1512169460.889350: $GPGGA,230421,3946.9728,N,08404.9837,W,2,12,0.60,292.82,M,-33.325,M,,*7B
2017-12-01 18:04:20 1512169460.889415: $GPRMC,230421,A,3946.9728,N,08404.9837,W,0.0000,0.000,011217,,*3C
2017-12-01 18:04:20 1512169460.889476: $GPGSA,A,3,1,3,10,14,16,22,29,25,26,31,32,138,2.0,0.6,1.5*02
2017-12-01 18:04:21 1512169461.445163: $GPZDA,230422.00,01,12,2017,00,00*65
2017-12-01 18:04:21 1512169461.445314: $GPGGA,230422,3946.9728,N,08404.9837,W,2,12,0.60,292.82,M,-33.325,M,,*78
2017-12-01 18:04:21 1512169461.445380: $GPRMC,230422,A,3946.9728,N,08404.9837,W,0.0000,0.000,011217,,*3F
2017-12-01 18:04:21 1512169461.445441: $GPGSA,A,3,1,3,10,14,16,22,29,25,26,31,32,138,2.0,0.6,1.5*02
2017-12-01 18:04:22 1512169462.445751: $GPZDA,230423.00,01,12,2017,00,00*64
2017-12-01 18:04:22 1512169462.445925: $GPGGA,230423,3946.9728,N,08404.9837,W,2,12,0.60,292.82,M,-33.325,M,,*79
2017-12-01 18:04:22 1512169462.445992: $GPRMC,230423,A,3946.9728,N,08404.9837,W,0.0000,0.000,011217,,*3E
2017-12-01 18:04:22 1512169462.446054: $GPGSA,A,3,1,3,10,14,16,22,29,25,26,31,32,138,2.0,0.6,1.5*02
2017-12-01 18:04:23 1512169463.781398: $GPGSV,3,1,12,01,11,259,29,03,34,307,47,10,06,159,29,14,61,078,43*74
2017-12-01 18:04:23 1512169463.781558: $GPGSV,3,2,12,16,14,189,42,22,48,285,46,29,07,081,23,25,25,043,43*7A
2017-12-01 18:04:23 1512169463.781624: $GPGSV,3,3,12,26,43,175,46,31,74,007,47,32,43,099,43,138,38,213,46*4F
2017-12-01 18:04:23 1512169463.894730: $GPZDA,230424.00,01,12,2017,00,00*63
2017-12-01 18:04:23 1512169463.894908: $GPGGA,230424,3946.9728,N,08404.9837,W,2,12,0.60,292.82,M,-33.325,M,,*7E
2017-12-01 18:04:23 1512169463.894975: $GPRMC,230424,A,3946.9728,N,08404.9837,W,0.0000,0.000,011217,,*39
2017-12-01 18:04:23 1512169463.895035: $GPGSA,A,3,1,3,10,14,16,22,29,25,26,31,32,138,2.0,0.6,1.5*02
2017-12-01 18:04:24 1512169464.446850: $GPZDA,230425.00,01,12,2017,00,00*62
2017-12-01 18:04:24 1512169464.447025: $GPGGA,230425,3946.9728,N,08404.9837,W,2,12,0.60,292.82,M,-33.325,M,,*7F
2017-12-01 18:04:24 1512169464.447091: $GPRMC,230425,A,3946.9728,N,08404.9837,W,0.0000,0.000,011217,,*38
2017-12-01 18:04:24 1512169464.447152: $GPGSA,A,3,1,3,10,14,16,22,29,25,26,31,32,138,2.0,0.6,1.5*02
2017-12-01 18:04:25 1512169465.446330: $GPZDA,230426.00,01,12,2017,00,00*61
2017-12-01 18:04:25 1512169465.446518: $GPGGA,230426,3946.9728,N,08404.9837,W,2,12,0.80,292.82,M,-33.325,M,,*72
2017-12-01 18:04:25 1512169465.446586: $GPRMC,230426,A,3946.9728,N,08404.9837,W,0.0000,0.000,011217,,*3B
2017-12-01 18:04:25 1512169465.446647: $GPGSA,A,3,1,3,10,14,16,22,29,25,26,31,32,138,2.0,0.8,1.5*0C
2017-12-01 18:04:26 1512169466.789193: $GPGSV,3,1,12,01,11,259,29,03,34,307,47,10,06,159,25,14,61,078,43*78
2017-12-01 18:04:26 1512169466.789372: $GPGSV,3,2,12,16,14,189,42,22,48,285,46,29,07,081,01,25,25,043,43*7A
2017-12-01 18:04:26 1512169466.789439: $GPGSV,3,3,12,26,43,175,46,31,74,007,47,32,43,099,43,138,38,213,47*4E
2017-12-01 18:04:26 1512169466.903116: $GPZDA,230427.00,01,12,2017,00,00*60
2017-12-01 18:04:26 1512169466.903268: $GPGGA,230427,3946.9728,N,08404.9837,W,2,11,0.80,292.82,M,-33.325,M,,*70
2017-12-01 18:04:26 1512169466.903334: $GPRMC,230427,A,3946.9728,N,08404.9837,W,0.0000,0.000,011217,,*3A
2017-12-01 18:04:26 1512169466.903395: $GPGSA,A,3,1,3,10,14,16,22,25,26,31,32,138,,2.0,0.8,1.5*07
2017-12-01 18:04:27 1512169467.446288: $GPZDA,230428.00,01,12,2017,00,00*6F
2017-12-01 18:04:27 1512169467.446443: $GPGGA,230428,3946.9728,N,08404.9837,W,2,11,0.60,292.82,M,-33.325,M,,*71
2017-12-01 18:04:27 1512169467.446509: $GPRMC,230428,A,3946.9728,N,08404.9837,W,0.0000,0.000,011217,,*35
2017-12-01 18:04:27 1512169467.446569: $GPGSA,A,3,1,3,10,14,16,22,25,26,31,32,138,,2.0,0.6,1.5*09
2017-12-01 18:04:28 1512169468.445875: $GPZDA,230429.00,01,12,2017,00,00*6E
2017-12-01 18:04:28 1512169468.446099: $GPGGA,230429,3946.9728,N,08404.9837,W,2,11,0.60,292.82,M,-33.325,M,,*70
2017-12-01 18:04:28 1512169468.446167: $GPRMC,230429,A,3946.9728,N,08404.9837,W,0.0000,0.000,011217,,*34
2017-12-01 18:04:28 1512169468.446229: $GPGSA,A,3,1,3,10,14,16,22,25,26,31,32,138,,2.0,0.6,1.5*09
2017-12-01 18:04:29 1512169469.780092: $GPGSV,3,1,12,01,11,259,29,03,34,307,47,10,06,159,27,14,61,078,43*7A
2017-12-01 18:04:29 1512169469.780272: $GPGSV,3,2,12,16,14,189,42,22,48,285,46,29,07,081,22,25,25,043,42*7A
2017-12-01 18:04:29 1512169469.780338: $GPGSV,3,3,12,26,43,175,46,31,74,007,47,32,43,099,43,138,38,213,47*4E
2017-12-01 18:04:29 1512169469.893758: $GPZDA,230430.00,01,12,2017,00,00*66
2017-12-01 18:04:29 1512169469.893926: $GPGGA,230430,3946.9728,N,08404.9837,W,2,12,0.60,292.82,M,-33.325,M,,*7B
2017-12-01 18:04:29 1512169469.893992: $GPRMC,230430,A,3946.9728,N,08404.9837,W,0.0000,0.000,011217,,*3C
2017-12-01 18:04:29 1512169469.894053: $GPGSA,A,3,1,3,10,14,16,22,29,25,26,31,32,138,2.0,0.6,1.5*02
2017-12-01 18:04:30 1512169470.519062: $GPZDA,230431.00,01,12,2017,00,00*67
2017-12-01 18:04:30 1512169470.519235: $GPGGA,230431,3946.9728,N,08404.9837,W,2,12,0.60,292.82,M,-33.325,M,,*7A
2017-12-01 18:04:30 1512169470.519301: $GPRMC,230431,A,3946.9728,N,08404.9837,W,0.0000,0.000,011217,,*3D
2017-12-01 18:04:30 1512169470.519380: $GPGSA,A,3,1,3,10,14,16,22,29,25,26,31,32,138,2.0,0.6,1.5*02
2017-12-01 18:04:31 1512169471.446637: $GPZDA,230432.00,01,12,2017,00,00*64
2017-12-01 18:04:31 1512169471.446845: $GPGGA,230432,3946.9728,N,08404.9837,W,2,12,0.60,292.82,M,-33.325,M,,*79
2017-12-01 18:04:31 1512169471.446958: $GPRMC,230432,A,3946.9728,N,08404.9837,W,0.0000,0.000,011217,,*3E
2017-12-01 18:04:31 1512169471.447058: $GPGSA,A,3,1,3,10,14,16,22,29,25,26,31,32,138,2.0,0.6,1.5*02
2017-12-01 18:04:32 1512169472.781650: $GPGSV,3,1,12,01,11,259,30,03,34,307,47,10,06,159,27,14,61,078,43*72
2017-12-01 18:04:32 1512169472.781853: $GPGSV,3,2,12,16,14,189,41,22,48,285,47,29,07,081,22,25,25,043,42*78
2017-12-01 18:04:32 1512169472.781924: $GPGSV,3,3,12,26,43,175,46,31,74,007,47,32,43,099,43,138,38,213,46*4F
