2017-11-16 17:27:40 1510871260.443543: {"class":"VERSION","release":"3.17","rev":"3.17","proto_major":3,"proto_minor":12}
2017-11-16 17:27:40 1510871260.444045: {"class":"DEVICES","devices":[{"class":"DEVICE","path":"/dev/ttyUSB0","driver":"SiRF","subtype":"9\u0006GSD4e_4.1.2-P1_RPATCH.05-F-GPS-4R-1510281 11/03/2015 307","activated":"2017-11-16T22:27:40.434Z","flags":1,"native":1,"bps":4800,"parity":"N","stopbits":1,"cycle":1.00}]}
2017-11-16 17:27:40 1510871260.444321: {"class":"WATCH","enable":true,"json":false,"nmea":true,"raw":0,"scaled":false,"timing":false,"split24":false,"pps":false}
2017-11-16 17:27:41 1510871261.420666: $GPZDA,222740.00,16,11,2017,00,00*64
2017-11-16 17:27:41 1510871261.970077: $GPGGA,222740,3946.9573,N,08404.9830,W,2,11,0.80,306.99,M,-33.324,M,,*7D
2017-11-16 17:27:41 1510871261.970213: $GPRMC,222740,A,3946.9573,N,08404.9830,W,0.0000,0.000,161117,,*35
2017-11-16 17:27:41 1510871261.970294: $GPGSA,A,3,1,10,22,12,14,18,11,25,31,32,138,,1.6,0.8,1.3*3E
2017-11-16 17:27:42 1510871262.739488: $GPGSV,3,1,11,01,21,303,37,10,50,147,49,22,17,312,45,12,23,051,51*73
2017-11-16 17:27:42 1510871262.739658: $GPGSV,3,2,11,14,65,324,48,18,20,144,34,11,09,283,44,25,39,093,48*71
2017-11-16 17:27:42 1510871262.739739: $GPGSV,3,3,11,31,53,223,49,32,69,022,49,138,38,213,45*70
2017-11-16 17:27:42 1510871262.852811: $GPZDA,222741.00,16,11,2017,00,00*65
2017-11-16 17:27:42 1510871262.853027: $GPGGA,222741,3946.9573,N,08404.9830,W,2,11,0.80,306.99,M,-33.324,M,,*7C
2017-11-16 17:27:42 1510871262.853093: $GPRMC,222741,A,3946.9573,N,08404.9830,W,0.0000,0.000,161117,,*34
2017-11-16 17:27:42 1510871262.853152: $GPGSA,A,3,1,10,22,12,14,18,11,25,31,32,138,,1.6,0.8,1.3*3E
2017-11-16 17:27:43 1510871263.403202: $GPZDA,222742.00,16,11,2017,00,00*66
2017-11-16 17:27:43 1510871263.403416: $GPGGA,222742,3946.9573,N,08404.9830,W,2,11,0.80,306.99,M,-33.324,M,,*7F
2017-11-16 17:27:43 1510871263.403481: $GPRMC,222742,A,3946.9573,N,08404.9830,W,0.0000,0.000,161117,,*37
2017-11-16 17:27:43 1510871263.403539: $GPGSA,A,3,1,10,22,12,14,18,11,25,31,32,138,,1.6,0.8,1.3*3E
2017-11-16 17:27:44 1510871264.421559: $GPZDA,222743.00,16,11,2017,00,00*67
2017-11-16 17:27:44 1510871264.421740: $GPGGA,222743,3946.9573,N,08404.9830,W,2,11,0.80,306.99,M,-33.324,M,,*7E
2017-11-16 17:27:44 1510871264.421805: $GPRMC,222743,A,3946.9573,N,08404.9830,W,0.0000,0.000,161117,,*36
2017-11-16 17:27:44 1510871264.421863: $GPGSA,A,3,1,10,22,12,14,18,11,25,31,32,138,,1.6,0.8,1.3*3E
2017-11-16 17:27:45 1510871265.738551: $GPGSV,3,1,11,01,21,303,37,10,50,147,50,22,17,312,44,12,23,051,51*7A
2017-11-16 17:27:45 1510871265.738705: $GPGSV,3,2,11,14,65,324,48,18,20,144,33,11,09,283,43,25,39,093,48*71
2017-11-16 17:27:45 1510871265.738767: $GPGSV,3,3,11,31,53,223,50,32,69,022,49,138,38,213,44*79
2017-11-16 17:27:45 1510871265.851934: $GPZDA,222744.00,16,11,2017,00,00*60
2017-11-16 17:27:45 1510871265.852116: $GPGGA,222744,3946.9573,N,08404.9830,W,2,11,0.80,306.99,M,-33.324,M,,*79
2017-11-16 17:27:45 1510871265.852180: $GPRMC,222744,A,3946.9573,N,08404.9830,W,0.0000,0.000,161117,,*31
2017-11-16 17:27:45 1510871265.852259: $GPGSA,A,3,1,10,22,12,14,18,11,25,31,32,138,,1.6,0.8,1.3*3E
2017-11-16 17:27:46 1510871266.477450: $GPZDA,222745.00,16,11,2017,00,00*61
2017-11-16 17:27:46 1510871266.477807: $GPGGA,222745,3946.9573,N,08404.9830,W,2,11,0.80,306.99,M,-33.324,M,,*78
2017-11-16 17:27:46 1510871266.477939: $GPRMC,222745,A,3946.9573,N,08404.9830,W,0.0000,0.000,161117,,*30
2017-11-16 17:27:46 1510871266.478058: $GPGSA,A,3,1,10,22,12,14,18,11,25,31,32,138,,1.6,0.8,1.3*3E
2017-11-16 17:27:47 1510871267.401863: $GPZDA,222746.00,16,11,2017,00,00*62
2017-11-16 17:27:47 1510871267.402032: $GPGGA,222746,3946.9573,N,08404.9830,W,2,11,0.80,306.99,M,-33.324,M,,*7B
2017-11-16 17:27:47 1510871267.402098: $GPRMC,222746,A,3946.9573,N,08404.9830,W,0.0000,0.000,161117,,*33
2017-11-16 17:27:47 1510871267.402157: $GPGSA,A,3,1,10,22,12,14,18,11,25,31,32,138,,1.6,0.8,1.3*3E
2017-11-16 17:27:48 1510871268.758903: $GPGSV,3,1,11,01,21,303,38,10,50,147,50,22,17,312,44,12,23,051,51*75
2017-11-16 17:27:48 1510871268.759139: $GPGSV,3,2,11,14,65,324,47,18,20,144,34,11,09,283,43,25,39,093,48*79
2017-11-16 17:27:48 1510871268.759221: $GPGSV,3,3,11,31,53,223,50,32,69,022,49,138,38,213,44*79
2017-11-16 17:27:48 1510871268.871287: $GPZDA,222747.00,16,11,2017,00,00*63
2017-11-16 17:27:48 1510871268.871473: $GPGGA,222747,3946.9573,N,08404.9830,W,2,11,0.80,306.99,M,-33.324,M,,*7A
2017-11-16 17:27:48 1510871268.871535: $GPRMC,222747,A,3946.9573,N,08404.9830,W,0.0000,0.000,161117,,*32
2017-11-16 17:27:48 1510871268.871590: $GPGSA,A,3,1,10,22,12,14,18,11,25,31,32,138,,1.6,0.8,1.3*3E
2017-11-16 17:27:49 1510871269.421863: $GPZDA,222748.00,16,11,2017,00,00*6C
2017-11-16 17:27:49 1510871269.422028: $GPGGA,222748,3946.9573,N,08404.9830,W,2,11,0.80,306.99,M,-33.324,M,,*75
2017-11-16 17:27:49 1510871269.422089: $GPRMC,222748,A,3946.9573,N,08404.9830,W,0.0000,0.000,161117,,*3D
2017-11-16 17:27:49 1510871269.422145: $GPGSA,A,3,1,10,22,12,14,18,11,25,31,32,138,,1.6,0.8,1.3*3E
2017-11-16 17:27:50 1510871270.421662: $GPZDA,222749.00,16,11,2017,00,00*6D
2017-11-16 17:27:50 1510871270.421839: $GPGGA,222749,3946.9573,N,08404.9830,W,2,11,0.80,306.99,M,-33.324,M,,*74
2017-11-16 17:27:50 1510871270.421900: $GPRMC,222749,A,3946.9573,N,08404.9830,W,0.0000,0.000,161117,,*3C
2017-11-16 17:27:50 1510871270.421957: $GPGSA,A,3,1,10,22,12,14,18,11,25,31,32,138,,1.6,0.8,1.3*3E
