2017-11-16 17:18:41 1510870721.171826: {"class":"VERSION","release":"3.17","rev":"3.17","proto_major":3,"proto_minor":12}
2017-11-16 17:18:41 1510870721.172333: {"class":"DEVICES","devices":[{"class":"DEVICE","path":"/dev/ttyUSB0","driver":"SiRF","subtype":"9\u0006GSD4e_4.1.2-P1_RPATCH.05-F-GPS-4R-1510281 11/03/2015 307","activated":"2017-11-16T22:18:40.736Z","flags":1,"native":1,"bps":4800,"parity":"N","stopbits":1,"cycle":1.00}]}
2017-11-16 17:18:41 1510870721.172457: {"class":"WATCH","enable":true,"json":false,"nmea":true,"raw":0,"scaled":false,"timing":false,"split24":false,"pps":false}
2017-11-16 17:18:41 1510870721.421718: $GPZDA,221840.00,16,11,2017,00,00*68
2017-11-16 17:18:41 1510870721.421876: $GPGGA,221840,3946.9571,N,08404.9825,W,2,11,0.80,310.64,M,-33.324,M,,*72
2017-11-16 17:18:41 1510870721.421936: $GPRMC,221840,A,3946.9571,N,08404.9825,W,0.0000,0.000,161117,,*3F
2017-11-16 17:18:41 1510870721.421991: $GPGSA,A,3,1,10,22,12,14,18,11,25,31,32,138,,1.6,0.8,1.3*3E
2017-11-16 17:18:42 1510870722.757335: $GPGSV,3,1,12,01,20,306,39,10,54,145,49,22,14,312,38,12,24,055,49*7F
2017-11-16 17:18:42 1510870722.757506: $GPGSV,3,2,12,14,63,316,47,18,24,142,41,24,02,048,07,11,10,288,41*78
2017-11-16 17:18:42 1510870722.757566: $GPGSV,3,3,12,25,38,097,47,31,49,220,49,32,70,010,49,138,38,213,44*42
2017-11-16 17:18:42 1510870722.870916: $GPZDA,221841.00,16,11,2017,00,00*69
2017-11-16 17:18:42 1510870722.871075: $GPGGA,221841,3946.9571,N,08404.9825,W,2,11,0.80,310.64,M,-33.324,M,,*73
2017-11-16 17:18:42 1510870722.871135: $GPRMC,221841,A,3946.9571,N,08404.9825,W,0.0000,0.000,161117,,*3E
2017-11-16 17:18:42 1510870722.871191: $GPGSA,A,3,1,10,22,12,14,18,11,25,31,32,138,,1.6,0.8,1.3*3E
2017-11-16 17:18:43 1510870723.401561: $GPZDA,221842.00,16,11,2017,00,00*6A
2017-11-16 17:18:43 1510870723.401731: $GPGGA,221842,3946.9571,N,08404.9825,W,2,11,0.80,310.64,M,-33.324,M,,*70
2017-11-16 17:18:43 1510870723.401792: $GPRMC,221842,A,3946.9571,N,08404.9825,W,0.0000,0.000,161117,,*3D
2017-11-16 17:18:43 1510870723.401869: $GPGSA,A,3,1,10,22,12,14,18,11,25,31,32,138,,1.6,0.8,1.3*3E
2017-11-16 17:18:44 1510870724.394810: $GPZDA,221843.00,16,11,2017,00,00*6B
2017-11-16 17:18:44 1510870724.394964: $GPGGA,221843,3946.9571,N,08404.9825,W,2,11,0.80,310.64,M,-33.324,M,,*71
2017-11-16 17:18:44 1510870724.395089: $GPRMC,221843,A,3946.9571,N,08404.9825,W,0.0000,0.000,161117,,*3C
2017-11-16 17:18:44 1510870724.395155: $GPGSA,A,3,1,10,22,12,14,18,11,25,31,32,138,,1.6,0.8,1.3*3E
2017-11-16 17:18:45 1510870725.738177: $GPGSV,3,1,12,01,20,306,38,10,54,145,48,22,14,312,36,12,24,055,49*71
2017-11-16 17:18:45 1510870725.738355: $GPGSV,3,2,12,14,63,316,47,18,24,142,41,24,02,048,12,11,10,288,42*7F
2017-11-16 17:18:45 1510870725.738417: $GPGSV,3,3,12,25,38,097,47,31,49,220,49,32,70,010,49,138,38,213,44*42
2017-11-16 17:18:45 1510870725.851635: $GPZDA,221844.00,16,11,2017,00,00*6C
2017-11-16 17:18:45 1510870725.851843: $GPGGA,221844,3946.9571,N,08404.9825,W,2,12,0.80,310.64,M,-33.324,M,,*75
2017-11-16 17:18:45 1510870725.851908: $GPRMC,221844,A,3946.9571,N,08404.9825,W,0.0000,0.000,161117,,*3B
2017-11-16 17:18:45 1510870725.851964: $GPGSA,A,3,1,10,22,12,14,18,24,11,25,31,32,138,1.6,0.8,1.3*38
2017-11-16 17:18:46 1510870726.476910: $GPZDA,221845.00,16,11,2017,00,00*6D
2017-11-16 17:18:46 1510870726.477070: $GPGGA,221845,3946.9571,N,08404.9825,W,2,12,0.80,310.64,M,-33.324,M,,*74
2017-11-16 17:18:46 1510870726.477131: $GPRMC,221845,A,3946.9571,N,08404.9825,W,0.0000,0.000,161117,,*3A
2017-11-16 17:18:46 1510870726.477187: $GPGSA,A,3,1,10,22,12,14,18,24,11,25,31,32,138,1.6,0.8,1.3*38
2017-11-16 17:18:47 1510870727.401918: $GPZDA,221846.00,16,11,2017,00,00*6E
2017-11-16 17:18:47 1510870727.966512: $GPGGA,221846,3946.9571,N,08404.9825,W,2,12,0.80,310.64,M,-33.324,M,,*77
2017-11-16 17:18:47 1510870727.966666: $GPRMC,221846,A,3946.9571,N,08404.9825,W,0.0000,0.000,161117,,*39
2017-11-16 17:18:47 1510870727.966726: $GPGSA,A,3,1,10,22,12,14,18,24,11,25,31,32,138,1.6,0.8,1.3*38
2017-11-16 17:18:48 1510870728.737299: $GPGSV,3,1,12,01,20,306,38,10,54,145,48,22,14,312,36,12,24,055,49*71
2017-11-16 17:18:48 1510870728.737541: $GPGSV,3,2,12,14,63,316,47,18,24,142,41,24,02,048,11,11,10,288,41*7F
2017-11-16 17:18:48 1510870728.737605: $GPGSV,3,3,12,25,38,097,47,31,49,220,50,32,70,010,49,138,38,213,43*4D
2017-11-16 17:18:48 1510870728.850624: $GPZDA,221847.00,16,11,2017,00,00*6F
2017-11-16 17:18:48 1510870728.850782: $GPGGA,221847,3946.9571,N,08404.9825,W,2,12,0.80,310.64,M,-33.324,M,,*76
2017-11-16 17:18:48 1510870728.850842: $GPRMC,221847,A,3946.9571,N,08404.9825,W,0.0000,0.000,161117,,*38
2017-11-16 17:18:48 1510870728.850897: $GPGSA,A,3,1,10,22,12,14,18,24,11,25,31,32,138,1.6,0.8,1.3*38
2017-11-16 17:18:49 1510870729.401573: $GPZDA,221848.00,16,11,2017,00,00*60
2017-11-16 17:18:49 1510870729.401736: $GPGGA,221848,3946.9571,N,08404.9825,W,2,12,0.80,310.64,M,-33.324,M,,*79
2017-11-16 17:18:49 1510870729.401798: $GPRMC,221848,A,3946.9571,N,08404.9825,W,0.0000,0.000,161117,,*37
2017-11-16 17:18:49 1510870729.401854: $GPGSA,A,3,1,10,22,12,14,18,24,11,25,31,32,138,1.6,0.8,1.3*38
2017-11-16 17:18:50 1510870730.401043: $GPZDA,221849.00,16,11,2017,00,00*61
2017-11-16 17:18:50 1510870730.401208: $GPGGA,221849,3946.9571,N,08404.9825,W,2,12,0.80,310.64,M,-33.324,M,,*78
2017-11-16 17:18:50 1510870730.401268: $GPRMC,221849,A,3946.9571,N,08404.9825,W,0.0000,0.000,161117,,*36
2017-11-16 17:18:50 1510870730.401323: $GPGSA,A,3,1,10,22,12,14,18,24,11,25,31,32,138,1.6,0.8,1.3*38
