2017-11-16 14:49:23 1510861763.435738: {"class":"VERSION","release":"3.17","rev":"3.17","proto_major":3,"proto_minor":12}
2017-11-16 14:49:23 1510861763.436211: {"class":"DEVICES","devices":[{"class":"DEVICE","path":"/dev/ttyUSB0","driver":"SiRF","subtype":"9\u0006GSD4e_4.1.2-P1_RPATCH.05-F-GPS-4R-1510281 11/03/2015 307","activated":"2017-11-16T19:49:23.414Z","flags":1,"native":1,"bps":4800,"parity":"N","stopbits":1,"cycle":1.00}]}
2017-11-16 14:49:23 1510861763.436326: {"class":"WATCH","enable":true,"json":false,"nmea":true,"raw":0,"scaled":false,"timing":false,"split24":false,"pps":false}
2017-11-16 14:49:23 1510861763.527950: $GPZDA,194922.00,16,11,2017,00,00*60
2017-11-16 14:49:23 1510861763.528120: $GPGGA,194922,3946.9572,N,08404.9841,W,2,11,0.80,302.62,M,-33.324,M,,*7E
2017-11-16 14:49:23 1510861763.528183: $GPRMC,194922,A,3946.9572,N,08404.9841,W,0.0000,0.000,161117,,*36
2017-11-16 14:49:23 1510861763.528239: $GPGSA,A,3,8,10,15,18,21,20,24,27,32,14,138,,1.6,0.8,1.3*37
2017-11-16 14:49:24 1510861764.858286: $GPGSV,3,1,11,08,08,307,25,10,55,313,50,15,24,058,49,18,77,033,45*77
2017-11-16 14:49:24 1510861764.858471: $GPGSV,3,2,11,21,46,183,47,20,21,108,42,24,53,081,50,27,14,273,39*7E
2017-11-16 14:49:24 1510861764.858531: $GPGSV,3,3,11,32,33,250,46,14,17,241,43,138,38,213,44*7F
2017-11-16 14:49:24 1510861764.971580: $GPZDA,194923.00,16,11,2017,00,00*61
2017-11-16 14:49:24 1510861764.971753: $GPGGA,194923,3946.9572,N,08404.9841,W,2,11,0.80,302.62,M,-33.324,M,,*7F
2017-11-16 14:49:24 1510861764.971814: $GPRMC,194923,A,3946.9572,N,08404.9841,W,0.0000,0.000,161117,,*37
2017-11-16 14:49:24 1510861764.971871: $GPGSA,A,3,8,10,15,18,21,20,24,27,32,14,138,,1.6,0.8,1.3*37
2017-11-16 14:49:25 1510861765.527473: $GPZDA,194924.00,16,11,2017,00,00*66
2017-11-16 14:49:25 1510861765.527636: $GPGGA,194924,3946.9572,N,08404.9841,W,2,11,0.80,302.62,M,-33.324,M,,*78
2017-11-16 14:49:25 1510861765.527697: $GPRMC,194924,A,3946.9572,N,08404.9841,W,0.0000,0.000,161117,,*30
2017-11-16 14:49:25 1510861765.527753: $GPGSA,A,3,8,10,15,18,21,20,24,27,32,14,138,,1.6,0.8,1.3*37
2017-11-16 14:49:26 1510861766.489672: $GPZDA,194925.00,16,11,2017,00,00*67
2017-11-16 14:49:26 1510861766.489849: $GPGGA,194925,3946.9572,N,08404.9841,W,2,11,0.80,302.62,M,-33.324,M,,*79
2017-11-16 14:49:26 1510861766.489911: $GPRMC,194925,A,3946.9572,N,08404.9841,W,0.0000,0.000,161117,,*31
2017-11-16 14:49:26 1510861766.489967: $GPGSA,A,3,8,10,15,18,21,20,24,27,32,14,138,,1.6,0.8,1.3*37
2017-11-16 14:49:27 1510861767.826784: $GPGSV,3,1,11,08,08,307,25,10,55,313,50,15,24,058,50,18,77,033,45*7F
2017-11-16 14:49:27 1510861767.826972: $GPGSV,3,2,11,21,46,183,47,20,21,108,42,24,53,081,50,27,14,273,39*7E
2017-11-16 14:49:27 1510861767.827033: $GPGSV,3,3,11,32,33,250,46,14,17,241,43,138,38,213,43*78
2017-11-16 14:49:27 1510861767.939144: $GPZDA,194926.00,16,11,2017,00,00*64
2017-11-16 14:49:27 1510861767.939300: $GPGGA,194926,3946.9572,N,08404.9841,W,2,11,0.80,302.62,M,-33.324,M,,*7A
2017-11-16 14:49:27 1510861767.939370: $GPRMC,194926,A,3946.9572,N,08404.9841,W,0.0000,0.000,161117,,*32
2017-11-16 14:49:27 1510861767.939429: $GPGSA,A,3,8,10,15,18,21,20,24,27,32,14,138,,1.6,0.8,1.3*37
2017-11-16 14:49:28 1510861768.490833: $GPZDA,194927.00,16,11,2017,00,00*65
2017-11-16 14:49:28 1510861768.491001: $GPGGA,194927,3946.9572,N,08404.9841,W,2,11,0.80,302.62,M,-33.324,M,,*7B
2017-11-16 14:49:28 1510861768.491062: $GPRMC,194927,A,3946.9572,N,08404.9841,W,0.0000,0.000,161117,,*33
2017-11-16 14:49:28 1510861768.491118: $GPGSA,A,3,8,10,15,18,21,20,24,27,32,14,138,,1.6,0.8,1.3*37
2017-11-16 14:49:29 1510861769.489835: $GPZDA,194928.00,16,11,2017,00,00*6A
2017-11-16 14:49:29 1510861769.489999: $GPGGA,194928,3946.9572,N,08404.9841,W,2,11,0.80,302.62,M,-33.324,M,,*74
2017-11-16 14:49:29 1510861769.490076: $GPRMC,194928,A,3946.9572,N,08404.9841,W,0.0000,0.000,161117,,*3C
2017-11-16 14:49:29 1510861769.490134: $GPGSA,A,3,8,10,15,18,21,20,24,27,32,14,138,,1.6,0.8,1.3*37
2017-11-16 14:49:30 1510861770.826861: $GPGSV,3,1,11,08,08,307,31,10,55,313,50,15,24,058,49,18,77,033,45*72
2017-11-16 14:49:30 1510861770.827082: $GPGSV,3,2,11,21,46,183,47,20,21,108,42,24,53,081,49,27,14,273,38*77
2017-11-16 14:49:30 1510861770.827144: $GPGSV,3,3,11,32,33,250,46,14,17,241,43,138,38,213,44*7F
2017-11-16 14:49:30 1510861770.940183: $GPZDA,194929.00,16,11,2017,00,00*6B
2017-11-16 14:49:30 1510861770.940422: $GPGGA,194929,3946.9572,N,08404.9841,W,2,11,0.80,302.62,M,-33.324,M,,*75
2017-11-16 14:49:30 1510861770.940515: $GPRMC,194929,A,3946.9572,N,08404.9841,W,0.0000,0.000,161117,,*3D
2017-11-16 14:49:30 1510861770.940574: $GPGSA,A,3,8,10,15,18,21,20,24,27,32,14,138,,1.6,0.8,1.3*37
2017-11-16 14:49:31 1510861771.490205: $GPZDA,194930.00,16,11,2017,00,00*63
2017-11-16 14:49:31 1510861771.490414: $GPGGA,194930,3946.9572,N,08404.9841,W,2,11,0.80,302.62,M,-33.324,M,,*7D
2017-11-16 14:49:31 1510861771.490503: $GPRMC,194930,A,3946.9572,N,08404.9841,W,0.0000,0.000,161117,,*35
2017-11-16 14:49:31 1510861771.490563: $GPGSA,A,3,8,10,15,18,21,20,24,27,32,14,138,,1.6,0.8,1.3*37
2017-11-16 14:49:32 1510861772.522521: $GPZDA,194931.00,16,11,2017,00,00*62
2017-11-16 14:49:32 1510861772.522709: $GPGGA,194931,3946.9572,N,08404.9841,W,2,11,0.80,302.62,M,-33.324,M,,*7C
2017-11-16 14:49:32 1510861772.522770: $GPRMC,194931,A,3946.9572,N,08404.9841,W,0.0000,0.000,161117,,*34
2017-11-16 14:49:32 1510861772.522826: $GPGSA,A,3,8,10,15,18,21,20,24,27,32,14,138,,1.6,0.8,1.3*37
