2017-11-15 18:12:59 1510787579.863446: {"class":"VERSION","release":"3.17","rev":"3.17","proto_major":3,"proto_minor":12}
2017-11-15 18:12:59 1510787579.863895: {"class":"DEVICES","devices":[{"class":"DEVICE","path":"/dev/ttyUSB0","driver":"SiRF","subtype":"9\u0006GSD4e_4.1.2-P1_RPATCH.05-F-GPS-4R-1510281 11/03/2015 307","activated":"2017-11-15T23:12:59.469Z","flags":1,"native":1,"bps":4800,"parity":"N","stopbits":1,"cycle":1.00}]}
2017-11-15 18:12:59 1510787579.864008: {"class":"WATCH","enable":true,"json":false,"nmea":true,"raw":0,"scaled":false,"timing":false,"split24":false,"pps":false}
2017-11-15 18:13:00 1510787580.665695: $GPGSV,3,1,11,10,30,154,09,22,32,307,18,01,21,283,21,26,17,180,15*7B
2017-11-15 18:13:00 1510787580.665870: $GPGSV,3,2,11,31,71,249,14,32,61,064,24,25,39,067,16,03,13,316,00*7A
2017-11-15 18:13:00 1510787580.665930: $GPGSV,3,3,11,12,13,037,00,14,70,013,06,18,03,148,00*4D
2017-11-15 18:13:00 1510787580.779169: $GPZDA,231259.00,15,11,2017,00,00*68
2017-11-15 18:13:00 1510787580.779349: $GPGGA,231259,3946.9578,N,08404.9596,W,1,06,1.20,305.78,M,-33.324,M,,*7A
2017-11-15 18:13:00 1510787580.779412: $GPRMC,231259,A,3946.9578,N,08404.9596,W,0.5774,27.515,151117,,*06
2017-11-15 18:13:00 1510787580.779468: $GPGSA,A,3,10,22,1,31,32,25,,,,,,,3.4,1.2,2.9*09
2017-11-15 18:13:01 1510787581.404425: $GPZDA,231300.00,15,11,2017,00,00*65
2017-11-15 18:13:01 1510787581.404586: $GPGGA,231300,3946.9578,N,08404.9596,W,1,06,1.60,305.78,M,-33.324,M,,*73
2017-11-15 18:13:01 1510787581.404647: $GPRMC,231300,A,3946.9578,N,08404.9596,W,0.5912,309.172,151117,,*3F
2017-11-15 18:13:01 1510787581.404703: $GPGSA,A,3,10,22,1,31,32,25,,,,,,,3.4,1.6,2.9*0D
2017-11-15 18:13:02 1510787582.357867: $GPZDA,231301.00,15,11,2017,00,00*64
2017-11-15 18:13:02 1510787582.358044: $GPGGA,231301,3946.9578,N,08404.9596,W,1,06,1.60,305.78,M,-33.324,M,,*72
2017-11-15 18:13:02 1510787582.358106: $GPRMC,231301,A,3946.9578,N,08404.9596,W,1.3082,341.818,151117,,*30
2017-11-15 18:13:02 1510787582.358162: $GPGSA,A,3,10,22,1,31,32,25,,,,,,,3.4,1.6,2.9*0D
2017-11-15 18:13:03 1510787583.667335: $GPGSV,3,1,11,10,30,154,08,22,32,307,18,01,21,283,21,26,17,180,15*7A
2017-11-15 18:13:03 1510787583.667495: $GPGSV,3,2,11,31,71,249,07,32,61,064,24,25,39,067,16,03,13,316,00*78
2017-11-15 18:13:03 1510787583.667554: $GPGSV,3,3,11,12,13,037,00,14,70,013,04,18,03,148,00*4F
2017-11-15 18:13:03 1510787583.780652: $GPZDA,231302.00,15,11,2017,00,00*67
2017-11-15 18:13:03 1510787583.780811: $GPGGA,231302,3946.9583,N,08404.9596,W,1,07,1.60,306.42,M,-33.324,M,,*7E
2017-11-15 18:13:03 1510787583.780872: $GPRMC,231302,A,3946.9583,N,08404.9596,W,1.2381,352.270,151117,,*30
2017-11-15 18:13:03 1510787583.780928: $GPGSA,A,3,10,22,1,26,31,32,25,,,,,,3.4,1.6,2.9*09
2017-11-15 18:13:04 1510787584.330301: $GPZDA,231303.00,15,11,2017,00,00*66
2017-11-15 18:13:04 1510787584.330463: $GPGGA,231303,3946.9586,N,08404.9595,W,1,07,1.00,305.66,M,-33.324,M,,*7A
2017-11-15 18:13:04 1510787584.330524: $GPRMC,231303,A,3946.9586,N,08404.9595,W,0.8709,3.298,151117,,*39
2017-11-15 18:13:04 1510787584.330580: $GPGSA,A,3,10,22,1,26,31,32,25,,,,,,3.4,1.0,2.9*0F
2017-11-15 18:13:05 1510787585.331169: $GPZDA,231304.00,15,11,2017,00,00*61
2017-11-15 18:13:05 1510787585.331331: $GPGGA,231304,3946.9586,N,08404.9588,W,1,07,1.00,305.74,M,-33.324,M,,*72
2017-11-15 18:13:05 1510787585.331392: $GPRMC,231304,A,3946.9586,N,08404.9588,W,0.9929,32.499,151117,,*0A
2017-11-15 18:13:05 1510787585.331448: $GPGSA,A,3,10,22,1,26,31,32,25,,,,,,3.4,1.0,2.9*0F
2017-11-15 18:13:06 1510787586.665206: $GPGSV,3,1,11,10,30,154,11,22,32,307,18,01,21,283,21,26,17,180,15*72
2017-11-15 18:13:06 1510787586.665377: $GPGSV,3,2,11,31,71,249,12,32,61,064,24,25,39,067,16,03,13,316,00*7C
2017-11-15 18:13:06 1510787586.665437: $GPGSV,3,3,11,12,13,037,00,14,70,013,05,18,03,148,00*4E
2017-11-15 18:13:06 1510787586.778597: $GPZDA,231305.00,15,11,2017,00,00*60
2017-11-15 18:13:06 1510787586.778740: $GPGGA,231305,3946.9586,N,08404.9588,W,1,07,1.00,305.74,M,-33.324,M,,*73
2017-11-15 18:13:06 1510787586.778800: $GPRMC,231305,A,3946.9586,N,08404.9588,W,0.4207,39.347,151117,,*0E
2017-11-15 18:13:06 1510787586.778905: $GPGSA,A,3,10,22,1,26,31,32,25,,,,,,3.4,1.0,2.9*0F
2017-11-15 18:13:07 1510787587.358324: $GPZDA,231306.00,15,11,2017,00,00*63
2017-11-15 18:13:07 1510787587.358492: $GPGGA,231306,3946.9586,N,08404.9588,W,1,07,1.00,305.74,M,-33.324,M,,*70
2017-11-15 18:13:07 1510787587.358553: $GPRMC,231306,A,3946.9586,N,08404.9588,W,0.3155,129.994,151117,,*3A
2017-11-15 18:13:07 1510787587.358609: $GPGSA,A,3,10,22,1,26,31,32,25,,,,,,3.4,1.0,2.9*0F
2017-11-15 18:13:08 1510787588.330653: $GPZDA,231307.00,15,11,2017,00,00*62
2017-11-15 18:13:08 1510787588.330830: $GPGGA,231307,3946.9586,N,08404.9588,W,1,07,1.00,305.74,M,-33.324,M,,*71
2017-11-15 18:13:08 1510787588.330908: $GPRMC,231307,A,3946.9586,N,08404.9588,W,0.4207,219.347,151117,,*3C
2017-11-15 18:13:08 1510787588.330966: $GPGSA,A,3,10,22,1,26,31,32,25,,,,,,3.4,1.0,2.9*0F
2017-11-15 18:13:09 1510787589.693689: $GPGSV,3,1,11,10,30,154,11,22,32,307,18,01,21,283,21,26,17,180,15*72
2017-11-15 18:13:09 1510787589.693877: $GPGSV,3,2,11,31,71,249,12,32,61,064,23,25,39,067,16,03,13,316,00*7B
2017-11-15 18:13:09 1510787589.693938: $GPGSV,3,3,11,12,13,037,00,14,70,013,05,18,03,148,00*4E
2017-11-15 18:13:09 1510787589.807160: $GPZDA,231308.00,15,11,2017,00,00*6D
2017-11-15 18:13:09 1510787589.807319: $GPGGA,231308,3946.9586,N,08404.9588,W,1,07,1.00,305.74,M,-33.324,M,,*7E
2017-11-15 18:13:09 1510787589.807379: $GPRMC,231308,A,3946.9586,N,08404.9588,W,0.5230,256.443,151117,,*3E
2017-11-15 18:13:09 1510787589.807452: $GPGSA,A,3,10,22,1,26,31,32,25,,,,,,3.4,1.0,2.9*0F
2017-11-15 18:13:10 1510787590.358046: $GPZDA,231309.00,15,11,2017,00,00*6C
2017-11-15 18:13:10 1510787590.358195: $GPGGA,231309,3946.9586,N,08404.9588,W,1,07,1.00,305.74,M,-33.324,M,,*7F
2017-11-15 18:13:10 1510787590.358273: $GPRMC,231309,A,3946.9586,N,08404.9588,W,0.2422,273.794,151117,,*33
2017-11-15 18:13:10 1510787590.358329: $GPGSA,A,3,10,22,1,26,31,32,25,,,,,,3.4,1.0,2.9*0F
2017-11-15 18:13:11 1510787591.357247: $GPZDA,231310.00,15,11,2017,00,00*64
2017-11-15 18:13:11 1510787591.357410: $GPGGA,231310,3946.9586,N,08404.9588,W,1,07,1.00,305.74,M,-33.324,M,,*77
2017-11-15 18:13:11 1510787591.357470: $GPRMC,231310,A,3946.9586,N,08404.9588,W,0.2422,273.794,151117,,*3B
2017-11-15 18:13:11 1510787591.357526: $GPGSA,A,3,10,22,1,26,31,32,25,,,,,,3.4,1.0,2.9*0F
2017-11-15 18:13:12 1510787592.694184: $GPGSV,3,1,11,10,30,154,11,22,32,307,18,01,21,283,21,26,17,180,15*72
2017-11-15 18:13:12 1510787592.694353: $GPGSV,3,2,11,31,71,249,14,32,61,064,23,25,39,067,16,03,13,316,00*7D
2017-11-15 18:13:12 1510787592.694412: $GPGSV,3,3,11,12,13,037,00,14,70,013,04,18,03,148,00*4F
2017-11-15 18:13:12 1510787592.807580: $GPZDA,231311.00,15,11,2017,00,00*65
2017-11-15 18:13:12 1510787592.807741: $GPGGA,231311,3946.9585,N,08404.9581,W,1,07,1.00,305.82,M,-33.324,M,,*75
2017-11-15 18:13:12 1510787592.807803: $GPRMC,231311,A,3946.9585,N,08404.9581,W,0.1867,180.000,151117,,*3B
2017-11-15 18:13:12 1510787592.807881: $GPGSA,A,3,10,22,1,26,31,32,25,,,,,,3.4,1.0,2.9*0F
2017-11-15 18:13:13 1510787593.329779: $GPZDA,231312.00,15,11,2017,00,00*66
2017-11-15 18:13:13 1510787593.329996: $GPGGA,231312,3946.9585,N,08404.9581,W,1,07,1.20,305.82,M,-33.324,M,,*74
2017-11-15 18:13:13 1510787593.336922: $GPRMC,231312,A,3946.9585,N,08404.9581,W,0.3423,184.197,151117,,*3D
2017-11-15 18:13:13 1510787593.337097: $GPGSA,A,3,10,22,1,26,31,32,25,,,,,,3.4,1.2,2.9*0D
2017-11-15 18:13:14 1510787594.331103: $GPZDA,231313.00,15,11,2017,00,00*67
2017-11-15 18:13:14 1510787594.331374: $GPGGA,231313,3946.9585,N,08404.9581,W,1,07,1.20,305.82,M,-33.324,M,,*75
2017-11-15 18:13:14 1510787594.331514: $GPRMC,231313,A,3946.9585,N,08404.9581,W,0.2959,234.767,151117,,*3C
2017-11-15 18:13:14 1510787594.331625: $GPGSA,A,3,10,22,1,26,31,32,25,,,,,,3.4,1.2,2.9*0D
2017-11-15 18:13:15 1510787595.664917: $GPGSV,3,1,11,10,30,154,00,22,32,307,18,01,21,283,20,26,17,180,15*73
2017-11-15 18:13:15 1510787595.665105: $GPGSV,3,2,11,31,71,249,15,32,61,064,23,25,39,067,16,03,13,316,00*7C
2017-11-15 18:13:15 1510787595.665213: $GPGSV,3,3,11,12,13,037,00,14,70,013,06,18,03,148,00*4D
2017-11-15 18:13:15 1510787595.778284: $GPZDA,231314.00,15,11,2017,00,00*60
2017-11-15 18:13:15 1510787595.778443: $GPGGA,231314,3946.9582,N,08404.9588,W,1,06,1.20,305.10,M,-33.324,M,,*76
2017-11-15 18:13:15 1510787595.778503: $GPRMC,231314,A,3946.9582,N,08404.9588,W,0.5951,238.684,151117,,*3A
2017-11-15 18:13:15 1510787595.778560: $GPGSA,A,3,22,1,26,31,32,25,,,,,,,3.4,1.2,2.9*0C
2017-11-15 18:13:16 1510787596.403739: $GPZDA,231315.00,15,11,2017,00,00*61
2017-11-15 18:13:16 1510787596.403922: $GPGGA,231315,3946.9578,N,08404.9589,W,1,06,1.20,305.86,M,-33.324,M,,*7C
2017-11-15 18:13:16 1510787596.404002: $GPRMC,231315,A,3946.9578,N,08404.9589,W,1.0018,230.691,151117,,*33
2017-11-15 18:13:16 1510787596.404059: $GPGSA,A,3,22,1,26,31,32,25,,,,,,,3.4,1.2,2.9*0C
2017-11-15 18:13:17 1510787597.357177: $GPZDA,231316.00,15,11,2017,00,00*62
2017-11-15 18:13:17 1510787597.357337: $GPGGA,231316,3946.9578,N,08404.9589,W,1,06,1.20,305.86,M,-33.324,M,,*7F
2017-11-15 18:13:17 1510787597.357397: $GPRMC,231316,A,3946.9578,N,08404.9589,W,0.7278,203.636,151117,,*3F
2017-11-15 18:13:17 1510787597.357454: $GPGSA,A,3,22,1,26,31,32,25,,,,,,,3.4,1.2,2.9*0C
2017-11-15 18:13:18 1510787598.665371: $GPGSV,3,1,11,10,30,154,00,22,32,307,18,01,21,283,20,26,17,180,15*73
2017-11-15 18:13:18 1510787598.665552: $GPGSV,3,2,11,31,71,249,15,32,61,064,23,25,39,067,16,03,13,316,00*7C
2017-11-15 18:13:18 1510787598.665614: $GPGSV,3,3,11,12,13,037,00,14,70,013,05,18,03,148,00*4E
2017-11-15 18:13:18 1510787598.779166: $GPZDA,231317.00,15,11,2017,00,00*63
2017-11-15 18:13:18 1510787598.779330: $GPGGA,231317,3946.9578,N,08404.9589,W,1,06,1.20,305.86,M,-33.324,M,,*7E
2017-11-15 18:13:18 1510787598.779391: $GPRMC,231317,A,3946.9578,N,08404.9589,W,0.4844,273.794,151117,,*36
2017-11-15 18:13:18 1510787598.779447: $GPGSA,A,3,22,1,26,31,32,25,,,,,,,3.4,1.2,2.9*0C
2017-11-15 18:13:19 1510787599.359581: $GPZDA,231318.00,15,11,2017,00,00*6C
2017-11-15 18:13:19 1510787599.359743: $GPGGA,231318,3946.9578,N,08404.9589,W,1,06,1.20,305.86,M,-33.324,M,,*71
2017-11-15 18:13:19 1510787599.359821: $GPRMC,231318,A,3946.9578,N,08404.9589,W,0.3423,4.197,151117,,*34
2017-11-15 18:13:19 1510787599.359879: $GPGSA,A,3,22,1,26,31,32,25,,,,,,,3.4,1.2,2.9*0C
2017-11-15 18:13:20 1510787600.358038: $GPZDA,231319.00,15,11,2017,00,00*6D
2017-11-15 18:13:20 1510787600.358200: $GPGGA,231319,3946.9578,N,08404.9589,W,1,06,1.20,305.86,M,-33.324,M,,*70
2017-11-15 18:13:20 1510787600.358261: $GPRMC,231319,A,3946.9578,N,08404.9589,W,0.9929,32.499,151117,,*06
2017-11-15 18:13:20 1510787600.358316: $GPGSA,A,3,22,1,26,31,32,25,,,,,,,3.4,1.2,2.9*0C
2017-11-15 18:13:21 1510787601.693245: $GPGSV,3,1,11,10,30,154,16,22,32,307,18,01,21,283,20,26,17,180,15*74
2017-11-15 18:13:21 1510787601.693489: $GPGSV,3,2,11,31,71,249,16,32,61,064,22,25,39,067,16,03,13,316,00*7E
2017-11-15 18:13:21 1510787601.693552: $GPGSV,3,3,11,12,13,037,00,14,70,013,04,18,03,148,00*4F
2017-11-15 18:13:21 1510787601.806563: $GPZDA,231320.00,15,11,2017,00,00*67
2017-11-15 18:13:21 1510787601.806840: $GPGGA,231320,3946.9585,N,08404.9581,W,1,06,1.20,305.82,M,-33.324,M,,*74
2017-11-15 18:13:21 1510787601.806917: $GPRMC,231320,A,3946.9585,N,08404.9581,W,1.5494,42.258,151117,,*0C
2017-11-15 18:13:21 1510787601.806979: $GPGSA,A,3,22,1,26,31,32,25,,,,,,,3.4,1.2,2.9*0C
2017-11-15 18:13:22 1510787602.329941: $GPZDA,231321.00,15,11,2017,00,00*66
2017-11-15 18:13:22 1510787602.330156: $GPGGA,231321,3946.9585,N,08404.9575,W,1,06,1.00,305.90,M,-33.324,M,,*7F
2017-11-15 18:13:22 1510787602.330219: $GPRMC,231321,A,3946.9585,N,08404.9575,W,1.4167,47.342,151117,,*01
2017-11-15 18:13:22 1510787602.330276: $GPGSA,A,3,22,1,26,31,32,25,,,,,,,3.4,1.0,2.9*0E
2017-11-15 18:13:23 1510787603.358429: $GPZDA,231322.00,15,11,2017,00,00*65
2017-11-15 18:13:23 1510787603.358578: $GPGGA,231322,3946.9593,N,08404.9574,W,1,06,1.00,305.77,M,-33.324,M,,*73
2017-11-15 18:13:23 1510787603.358639: $GPRMC,231322,A,3946.9593,N,08404.9574,W,1.1385,29.379,151117,,*0F
2017-11-15 18:13:23 1510787603.358742: $GPGSA,A,3,22,1,26,31,32,25,,,,,,,3.4,1.0,2.9*0E
2017-11-15 18:13:24 1510787604.665390: $GPGSV,3,1,11,10,30,154,17,22,32,307,18,01,21,283,20,26,17,180,15*75
2017-11-15 18:13:24 1510787604.665574: $GPGSV,3,2,11,31,71,249,15,32,61,064,22,25,39,067,16,03,13,316,00*7D
2017-11-15 18:13:24 1510787604.665653: $GPGSV,3,3,11,12,13,037,00,14,70,013,04,18,03,148,00*4F
2017-11-15 18:13:24 1510787604.778754: $GPZDA,231323.00,15,11,2017,00,00*64
2017-11-15 18:13:24 1510787604.778932: $GPGGA,231323,3946.9593,N,08404.9574,W,1,07,1.00,305.77,M,-33.324,M,,*73
2017-11-15 18:13:24 1510787604.778993: $GPRMC,231323,A,3946.9593,N,08404.9574,W,0.9929,32.499,151117,,*08
2017-11-15 18:13:24 1510787604.779050: $GPGSA,A,3,10,22,1,26,31,32,25,,,,,,3.4,1.0,2.9*0F
2017-11-15 18:13:25 1510787605.358352: $GPZDA,231324.00,15,11,2017,00,00*63
2017-11-15 18:13:25 1510787605.358516: $GPGGA,231324,3946.9593,N,08404.9574,W,1,07,1.00,305.77,M,-33.324,M,,*74
2017-11-15 18:13:25 1510787605.358576: $GPRMC,231324,A,3946.9593,N,08404.9574,W,0.9019,18.875,151117,,*03
2017-11-15 18:13:25 1510787605.358632: $GPGSA,A,3,10,22,1,26,31,32,25,,,,,,3.4,1.0,2.9*0F
2017-11-15 18:13:26 1510787606.328671: $GPZDA,231325.00,15,11,2017,00,00*62
2017-11-15 18:13:26 1510787606.328835: $GPGGA,231325,3946.9592,N,08404.9567,W,1,07,1.00,305.85,M,-33.324,M,,*7B
2017-11-15 18:13:26 1510787606.328897: $GPRMC,231325,A,3946.9592,N,08404.9567,W,0.7103,45.706,151117,,*06
2017-11-15 18:13:26 1510787606.328952: $GPGSA,A,3,10,22,1,26,31,32,25,,,,,,3.4,1.0,2.9*0F
2017-11-15 18:13:27 1510787607.665718: $GPGSV,3,1,11,10,30,154,17,22,32,307,18,01,21,283,20,26,17,180,14*74
2017-11-15 18:13:27 1510787607.665901: $GPGSV,3,2,11,31,71,249,15,32,61,064,21,25,39,067,17,03,13,316,00*7F
2017-11-15 18:13:27 1510787607.665962: $GPGSV,3,3,11,12,13,037,00,14,70,013,05,18,03,148,00*4E
2017-11-15 18:13:27 1510787607.779047: $GPZDA,231326.00,15,11,2017,00,00*61
2017-11-15 18:13:27 1510787607.779207: $GPGGA,231326,3946.9592,N,08404.9567,W,1,07,1.00,305.85,M,-33.324,M,,*78
2017-11-15 18:13:27 1510787607.779267: $GPRMC,231326,A,3946.9592,N,08404.9567,W,0.4844,93.794,151117,,*0C
2017-11-15 18:13:27 1510787607.779342: $GPGSA,A,3,10,22,1,26,31,32,25,,,,,,3.4,1.0,2.9*0F
2017-11-15 18:13:28 1510787608.358679: $GPZDA,231327.00,15,11,2017,00,00*60
2017-11-15 18:13:28 1510787608.358842: $GPGGA,231327,3946.9592,N,08404.9567,W,1,07,1.00,305.85,M,-33.324,M,,*79
2017-11-15 18:13:28 1510787608.358902: $GPRMC,231327,A,3946.9592,N,08404.9567,W,0.3155,129.994,151117,,*3D
2017-11-15 18:13:28 1510787608.358957: $GPGSA,A,3,10,22,1,26,31,32,25,,,,,,3.4,1.0,2.9*0F
2017-11-15 18:13:29 1510787609.357078: $GPZDA,231328.00,15,11,2017,00,00*6F
2017-11-15 18:13:29 1510787609.357248: $GPGGA,231328,3946.9592,N,08404.9560,W,1,07,1.00,305.93,M,-33.324,M,,*76
2017-11-15 18:13:29 1510787609.357308: $GPRMC,231328,A,3946.9592,N,08404.9560,W,0.5912,129.173,151117,,*39
2017-11-15 18:13:29 1510787609.357364: $GPGSA,A,3,10,22,1,26,31,32,25,,,,,,3.4,1.0,2.9*0F
