2017-11-15 17:31:46 1510785106.746178: {"class":"VERSION","release":"3.17","rev":"3.17","proto_major":3,"proto_minor":12}
2017-11-15 17:31:46 1510785106.746623: {"class":"DEVICES","devices":[{"class":"DEVICE","path":"/dev/ttyUSB0","driver":"SiRF","subtype":"9\u0006GSD4e_4.1.2-P1_RPATCH.05-F-GPS-4R-1510281 11/03/2015 307","activated":"2017-11-15T22:31:46.285Z","flags":1,"native":1,"bps":4800,"parity":"N","stopbits":1,"cycle":1.00}]}
2017-11-15 17:31:46 1510785106.746801: {"class":"WATCH","enable":true,"json":false,"nmea":true,"raw":0,"scaled":false,"timing":false,"split24":false,"pps":false}
2017-11-15 17:31:47 1510785107.146445: $GPZDA,223146.00,15,11,2017,00,00*66
2017-11-15 17:31:47 1510785107.146612: $GPGGA,223146,3946.9517,N,08404.9423,W,1,06,2.80,327.17,M,-33.324,M,,*72
2017-11-15 17:31:47 1510785107.146673: $GPRMC,223146,A,3946.9517,N,08404.9423,W,0.2002,197.121,151117,,*36
2017-11-15 17:31:47 1510785107.146800: $GPGSA,A,3,10,25,32,12,31,14,,,,,,,3.4,2.8,2.9*37
2017-11-15 17:31:48 1510785108.481206: $GPGSV,3,1,11,10,50,147,23,25,39,093,28,32,69,022,20,11,09,283,10*7C
2017-11-15 17:31:48 1510785108.481391: $GPGSV,3,2,11,18,20,144,12,31,53,223,18,14,65,324,10,12,23,051,00*7B
2017-11-15 17:31:48 1510785108.481456: $GPGSV,3,3,11,01,21,303,00,22,17,312,00,138,38,213,00*7C
2017-11-15 17:31:48 1510785108.594544: $GPZDA,223147.00,15,11,2017,00,00*67
2017-11-15 17:31:48 1510785108.594708: $GPGGA,223147,3946.9507,N,08404.9419,W,1,06,2.80,330.95,M,-33.324,M,,*77
2017-11-15 17:31:48 1510785108.594772: $GPRMC,223147,A,3946.9507,N,08404.9419,W,0.8999,171.523,151117,,*30
2017-11-15 17:31:48 1510785108.594830: $GPGSA,A,3,10,25,32,18,31,14,,,,,,,3.4,2.8,2.9*3D
2017-11-15 17:31:49 1510785109.145899: $GPZDA,223148.00,15,11,2017,00,00*68
2017-11-15 17:31:49 1510785109.146094: $GPGGA,223148,3946.9502,N,08404.9415,W,1,06,2.80,335.37,M,-33.324,M,,*7C
2017-11-15 17:31:49 1510785109.146193: $GPRMC,223148,A,3946.9502,N,08404.9415,W,0.8109,152.508,151117,,*3F
2017-11-15 17:31:49 1510785109.146253: $GPGSA,A,3,10,25,32,18,31,14,,,,,,,3.4,2.8,2.9*3D
2017-11-15 17:31:50 1510785110.146054: $GPZDA,223149.00,15,11,2017,00,00*69
2017-11-15 17:31:50 1510785110.151971: $GPGGA,223149,3946.9491,N,08404.9404,W,1,06,2.80,339.22,M,-33.324,M,,*7E
2017-11-15 17:31:50 1510785110.152103: $GPRMC,223149,A,3946.9491,N,08404.9404,W,1.3552,155.318,151117,,*35
2017-11-15 17:31:50 1510785110.152198: $GPGSA,A,3,10,25,32,18,31,14,,,,,,,3.4,2.8,2.9*3D
2017-11-15 17:31:51 1510785111.481830: $GPGSV,3,1,11,10,50,147,22,25,39,093,28,32,69,022,20,12,23,051,11*7A
2017-11-15 17:31:51 1510785111.482026: $GPGSV,3,2,11,18,20,144,12,31,53,223,19,14,65,324,11,01,21,303,00*7F
2017-11-15 17:31:51 1510785111.482092: $GPGSV,3,3,11,22,17,312,00,11,09,283,00,138,38,213,00*7E
2017-11-15 17:31:51 1510785111.595093: $GPZDA,223150.00,15,11,2017,00,00*61
2017-11-15 17:31:51 1510785111.595252: $GPGGA,223150,3946.9481,N,08404.9400,W,1,06,2.80,343.00,M,-33.324,M,,*7E
2017-11-15 17:31:51 1510785111.595315: $GPRMC,223150,A,3946.9481,N,08404.9400,W,2.0735,158.572,151117,,*3C
2017-11-15 17:31:51 1510785111.595374: $GPGSA,A,3,10,25,32,18,31,14,,,,,,,3.4,2.8,2.9*3D
2017-11-15 17:31:52 1510785112.146520: $GPZDA,223151.00,15,11,2017,00,00*60
2017-11-15 17:31:52 1510785112.146691: $GPGGA,223151,3946.9483,N,08404.9411,W,1,06,2.80,337.86,M,-33.324,M,,*70
2017-11-15 17:31:52 1510785112.146812: $GPRMC,223151,A,3946.9483,N,08404.9411,W,1.6052,157.433,151117,,*37
2017-11-15 17:31:52 1510785112.146874: $GPGSA,A,3,10,25,32,18,31,14,,,,,,,3.4,2.8,2.9*3D
2017-11-15 17:31:53 1510785113.153992: $GPZDA,223152.00,15,11,2017,00,00*63
2017-11-15 17:31:53 1510785113.154165: $GPGGA,223152,3946.9491,N,08404.9432,W,1,06,1.80,326.83,M,-33.324,M,,*77
2017-11-15 17:31:53 1510785113.154228: $GPRMC,223152,A,3946.9491,N,08404.9432,W,0.7634,158.245,151117,,*38
2017-11-15 17:31:53 1510785113.154287: $GPGSA,A,3,10,25,32,18,31,14,,,,,,,3.4,1.8,2.9*3E
2017-11-15 17:31:54 1510785114.484202: $GPGSV,3,1,11,10,50,147,22,25,39,093,27,32,69,022,20,12,23,051,12*76
2017-11-15 17:31:54 1510785114.484378: $GPGSV,3,2,11,18,20,144,11,31,53,223,20,14,65,324,11,01,21,303,00*76
2017-11-15 17:31:54 1510785114.484493: $GPGSV,3,3,11,22,17,312,00,11,09,283,00,135,23,238,00*70
2017-11-15 17:31:54 1510785114.597651: $GPZDA,223153.00,15,11,2017,00,00*62
2017-11-15 17:31:54 1510785114.597805: $GPGGA,223153,3946.9491,N,08404.9442,W,1,07,1.80,318.88,M,-33.324,M,,*76
2017-11-15 17:31:54 1510785114.597865: $GPRMC,223153,A,3946.9491,N,08404.9442,W,0.7833,189.201,151117,,*3B
2017-11-15 17:31:54 1510785114.597920: $GPGSA,A,3,10,25,32,12,18,31,14,,,,,,3.4,1.8,2.9*3D
2017-11-15 17:31:55 1510785115.148942: $GPZDA,223154.00,15,11,2017,00,00*65
2017-11-15 17:31:55 1510785115.149119: $GPGGA,223154,3946.9490,N,08404.9447,W,1,07,1.80,315.99,M,-33.324,M,,*78
2017-11-15 17:31:55 1510785115.149182: $GPRMC,223154,A,3946.9490,N,08404.9447,W,0.6872,165.975,151117,,*36
2017-11-15 17:31:55 1510785115.149238: $GPGSA,A,3,10,25,32,12,18,31,14,,,,,,3.4,1.8,2.9*3D
2017-11-15 17:31:56 1510785116.148693: $GPZDA,223155.00,15,11,2017,00,00*64
2017-11-15 17:31:56 1510785116.148863: $GPGGA,223155,3946.9490,N,08404.9447,W,1,07,1.80,315.99,M,-33.324,M,,*79
2017-11-15 17:31:56 1510785116.148924: $GPRMC,223155,A,3946.9490,N,08404.9447,W,0.1567,189.201,151117,,*33
2017-11-15 17:31:56 1510785116.148979: $GPGSA,A,3,10,25,32,12,18,31,14,,,,,,3.4,1.8,2.9*3D
2017-11-15 17:31:57 1510785117.483530: $GPGSV,3,1,11,10,50,147,21,25,39,093,27,32,69,022,20,12,23,051,14*73
2017-11-15 17:31:57 1510785117.483703: $GPGSV,3,2,11,18,20,144,11,31,53,223,21,14,65,324,09,01,21,303,00*7E
2017-11-15 17:31:57 1510785117.483764: $GPGSV,3,3,11,22,17,312,00,11,09,283,00,135,23,238,00*70
2017-11-15 17:31:57 1510785117.597045: $GPZDA,223156.00,15,11,2017,00,00*67
2017-11-15 17:31:57 1510785117.597198: $GPGGA,223156,3946.9487,N,08404.9448,W,1,07,1.80,316.76,M,-33.324,M,,*71
2017-11-15 17:31:57 1510785117.597257: $GPRMC,223156,A,3946.9487,N,08404.9448,W,0.5617,211.295,151117,,*36
2017-11-15 17:31:57 1510785117.597313: $GPGSA,A,3,10,25,32,12,18,31,14,,,,,,3.4,1.8,2.9*3D
2017-11-15 17:31:58 1510785118.149536: $GPZDA,223157.00,15,11,2017,00,00*66
2017-11-15 17:31:58 1510785118.149699: $GPGGA,223157,3946.9483,N,08404.9448,W,1,07,1.80,316.12,M,-33.324,M,,*76
2017-11-15 17:31:58 1510785118.149760: $GPRMC,223157,A,3946.9483,N,08404.9448,W,0.4207,219.347,151117,,*31
2017-11-15 17:31:58 1510785118.149815: $GPGSA,A,3,10,25,32,12,18,31,14,,,,,,3.4,1.8,2.9*3D
2017-11-15 17:31:59 1510785119.150037: $GPZDA,223158.00,15,11,2017,00,00*69
2017-11-15 17:31:59 1510785119.150208: $GPGGA,223158,3946.9483,N,08404.9449,W,1,07,1.80,317.52,M,-33.324,M,,*7D
2017-11-15 17:31:59 1510785119.150269: $GPRMC,223158,A,3946.9483,N,08404.9449,W,0.3006,242.540,151117,,*34
2017-11-15 17:31:59 1510785119.150325: $GPGSA,A,3,10,25,32,12,18,31,14,,,,,,3.4,1.8,2.9*3D
2017-11-15 17:32:00 1510785120.484659: $GPGSV,3,1,11,10,50,147,21,25,39,093,26,32,69,022,20,12,23,051,14*72
2017-11-15 17:32:00 1510785120.484841: $GPGSV,3,2,11,18,20,144,06,31,53,223,22,14,65,324,09,01,21,303,00*7B
2017-11-15 17:32:00 1510785120.484902: $GPGSV,3,3,11,22,17,312,00,11,09,283,00,135,23,238,00*70
2017-11-15 17:32:00 1510785120.598169: $GPZDA,223159.00,15,11,2017,00,00*68
2017-11-15 17:32:00 1510785120.598327: $GPGGA,223159,3946.9484,N,08404.9443,W,1,06,1.80,319.01,M,-33.324,M,,*78
2017-11-15 17:32:00 1510785120.598388: $GPRMC,223159,A,3946.9484,N,08404.9443,W,0.0000,0.000,151117,,*38
2017-11-15 17:32:00 1510785120.598443: $GPGSA,A,3,10,25,32,12,31,14,,,,,,,3.4,1.8,2.9*34
2017-11-15 17:32:01 1510785121.148867: $GPZDA,223200.00,15,11,2017,00,00*67
2017-11-15 17:32:01 1510785121.149033: $GPGGA,223200,3946.9480,N,08404.9443,W,1,06,1.80,319.77,M,-33.324,M,,*72
2017-11-15 17:32:01 1510785121.149094: $GPRMC,223200,A,3946.9480,N,08404.9443,W,0.2758,128.233,151117,,*32
2017-11-15 17:32:01 1510785121.149150: $GPGSA,A,3,10,25,32,12,31,14,,,,,,,3.4,1.8,2.9*34
2017-11-15 17:32:02 1510785122.149107: $GPZDA,223201.00,15,11,2017,00,00*66
2017-11-15 17:32:02 1510785122.149272: $GPGGA,223201,3946.9476,N,08404.9430,W,1,06,1.80,320.69,M,-33.324,M,,*7B
2017-11-15 17:32:02 1510785122.149382: $GPRMC,223201,A,3946.9476,N,08404.9430,W,0.7238,140.710,151117,,*32
2017-11-15 17:32:02 1510785122.149439: $GPGSA,A,3,10,25,32,12,31,14,,,,,,,3.4,1.8,2.9*34
2017-11-15 17:32:03 1510785123.485253: $GPGSV,3,1,11,10,50,147,20,25,39,093,26,32,69,022,20,12,23,051,13*74
2017-11-15 17:32:03 1510785123.485425: $GPGSV,3,2,11,18,20,144,04,31,53,223,23,14,65,324,10,11,09,283,04*76
2017-11-15 17:32:03 1510785123.485485: $GPGSV,3,3,11,01,21,303,00,22,17,312,00,135,23,238,00*72
2017-11-15 17:32:03 1510785123.598594: $GPZDA,223202.00,15,11,2017,00,00*65
2017-11-15 17:32:03 1510785123.598743: $GPGGA,223202,3946.9473,N,08404.9431,W,1,06,1.80,321.46,M,-33.324,M,,*70
2017-11-15 17:32:03 1510785123.598803: $GPRMC,223202,A,3946.9473,N,08404.9431,W,0.7238,140.710,151117,,*35
2017-11-15 17:32:03 1510785123.598858: $GPGSA,A,3,10,25,32,12,31,14,,,,,,,3.4,1.8,2.9*34
2017-11-15 17:32:04 1510785124.149959: $GPZDA,223203.00,15,11,2017,00,00*64
2017-11-15 17:32:04 1510785124.150213: $GPGGA,223203,3946.9473,N,08404.9431,W,1,06,1.80,321.46,M,-33.324,M,,*71
2017-11-15 17:32:04 1510785124.150274: $GPRMC,223203,A,3946.9473,N,08404.9431,W,0.4207,219.347,151117,,*32
2017-11-15 17:32:04 1510785124.150330: $GPGSA,A,3,10,25,32,12,31,14,,,,,,,3.4,1.8,2.9*34
2017-11-15 17:32:05 1510785125.147968: $GPZDA,223204.00,15,11,2017,00,00*63
2017-11-15 17:32:05 1510785125.148130: $GPGGA,223204,3946.9469,N,08404.9425,W,1,06,1.80,322.30,M,-33.324,M,,*7A
2017-11-15 17:32:05 1510785125.148191: $GPRMC,223204,A,3946.9469,N,08404.9425,W,0.2422,93.795,151117,,*07
2017-11-15 17:32:05 1510785125.148246: $GPGSA,A,3,10,25,32,12,31,14,,,,,,,3.4,1.8,2.9*34
2017-11-15 17:32:06 1510785126.484683: $GPGSV,3,1,11,10,50,147,20,25,39,093,26,32,69,022,20,12,23,051,12*75
2017-11-15 17:32:06 1510785126.484850: $GPGSV,3,2,11,18,20,144,04,31,53,223,24,14,65,324,12,11,09,283,04*73
2017-11-15 17:32:06 1510785126.484910: $GPGSV,3,3,11,01,21,303,00,22,17,312,00,135,23,238,00*72
2017-11-15 17:32:06 1510785126.598122: $GPZDA,223205.00,15,11,2017,00,00*62
2017-11-15 17:32:06 1510785126.598288: $GPGGA,223205,3946.9465,N,08404.9418,W,1,06,1.80,323.15,M,-33.324,M,,*7F
2017-11-15 17:32:06 1510785126.598348: $GPRMC,223205,A,3946.9465,N,08404.9418,W,0.5857,158.291,151117,,*3A
2017-11-15 17:32:06 1510785126.598403: $GPGSA,A,3,10,25,32,12,31,14,,,,,,,3.4,1.8,2.9*34
2017-11-15 17:32:07 1510785127.148124: $GPZDA,223206.00,15,11,2017,00,00*61
2017-11-15 17:32:07 1510785127.148303: $GPGGA,223206,3946.9461,N,08404.9412,W,1,06,1.80,323.99,M,-33.324,M,,*76
2017-11-15 17:32:07 1510785127.148365: $GPRMC,223206,A,3946.9461,N,08404.9412,W,0.9060,167.792,151117,,*3D
2017-11-15 17:32:07 1510785127.148422: $GPGSA,A,3,10,25,32,12,31,14,,,,,,,3.4,1.8,2.9*34
2017-11-15 17:32:08 1510785128.148240: $GPZDA,223207.00,15,11,2017,00,00*60
2017-11-15 17:32:08 1510785128.148404: $GPGGA,223207,3946.9458,N,08404.9406,W,1,06,1.80,324.83,M,-33.324,M,,*74
2017-11-15 17:32:08 1510785128.148464: $GPRMC,223207,A,3946.9458,N,08404.9406,W,0.5857,158.291,151117,,*39
2017-11-15 17:32:08 1510785128.148520: $GPGSA,A,3,10,25,32,12,31,14,,,,,,,3.4,1.8,2.9*34
2017-11-15 17:32:09 1510785129.484485: $GPGSV,3,1,11,10,50,147,19,25,39,093,26,32,69,022,20,12,23,051,13*7E
2017-11-15 17:32:09 1510785129.484658: $GPGSV,3,2,11,01,21,303,00,31,53,223,24,14,65,324,11,11,09,283,04*7C
2017-11-15 17:32:09 1510785129.484718: $GPGSV,3,3,11,18,20,144,00,22,17,312,00,135,23,238,00*7A
2017-11-15 17:32:09 1510785129.598901: $GPZDA,223208.00,15,11,2017,00,00*6F
2017-11-15 17:32:09 1510785129.599077: $GPGGA,223208,3946.9458,N,08404.9400,W,1,06,1.80,326.32,M,-33.324,M,,*75
2017-11-15 17:32:09 1510785129.599139: $GPRMC,223208,A,3946.9458,N,08404.9400,W,0.7238,140.710,151117,,*34
2017-11-15 17:32:09 1510785129.599195: $GPGSA,A,3,10,25,32,12,31,14,,,,,,,3.4,1.8,2.9*34
2017-11-15 17:32:10 1510785130.148052: $GPZDA,223209.00,15,11,2017,00,00*6E
2017-11-15 17:32:10 1510785130.148210: $GPGGA,223209,3946.9454,N,08404.9393,W,1,06,1.80,327.16,M,-33.324,M,,*72
2017-11-15 17:32:10 1510785130.148272: $GPRMC,223209,A,3946.9454,N,08404.9393,W,1.1124,122.165,151117,,*3D
2017-11-15 17:32:10 1510785130.148395: $GPGSA,A,3,10,25,32,12,31,14,,,,,,,3.4,1.8,2.9*34
2017-11-15 17:32:11 1510785131.147962: $GPZDA,223210.00,15,11,2017,00,00*66
2017-11-15 17:32:11 1510785131.148138: $GPGGA,223210,3946.9455,N,08404.9387,W,1,06,1.80,328.64,M,-33.324,M,,*74
2017-11-15 17:32:11 1510785131.149392: $GPRMC,223210,A,3946.9455,N,08404.9387,W,1.1391,143.662,151117,,*3A
2017-11-15 17:32:11 1510785131.149462: $GPGSA,A,3,10,25,32,12,31,14,,,,,,,3.4,1.8,2.9*34
2017-11-15 17:32:12 1510785132.485171: $GPGSV,3,1,11,10,50,147,19,25,39,093,25,32,69,022,20,12,23,051,14*7A
2017-11-15 17:32:12 1510785132.485318: $GPGSV,3,2,11,01,21,303,00,31,53,223,25,14,65,324,10,11,09,283,06*7E
2017-11-15 17:32:12 1510785132.485377: $GPGSV,3,3,11,18,20,144,00,22,17,312,00,135,23,238,00*7A
2017-11-15 17:32:12 1510785132.598821: $GPZDA,223211.00,15,11,2017,00,00*67
2017-11-15 17:32:12 1510785132.598982: $GPGGA,223211,3946.9447,N,08404.9382,W,1,06,1.80,330.25,M,-33.324,M,,*7F
2017-11-15 17:32:12 1510785132.599043: $GPRMC,223211,A,3946.9447,N,08404.9382,W,1.0002,154.331,151117,,*30
2017-11-15 17:32:12 1510785132.599098: $GPGSA,A,3,10,25,32,12,31,14,,,,,,,3.4,1.8,2.9*34
2017-11-15 17:32:13 1510785133.150300: $GPZDA,223212.00,15,11,2017,00,00*64
2017-11-15 17:32:13 1510785133.150463: $GPGGA,223212,3946.9443,N,08404.9375,W,1,06,1.80,331.10,M,-33.324,M,,*77
2017-11-15 17:32:13 1510785133.150523: $GPRMC,223212,A,3946.9443,N,08404.9375,W,0.7238,140.710,151117,,*30
2017-11-15 17:32:13 1510785133.150578: $GPGSA,A,3,10,25,32,12,31,14,,,,,,,3.4,1.8,2.9*34
2017-11-15 17:32:14 1510785134.175244: $GPZDA,223213.00,15,11,2017,00,00*65
2017-11-15 17:32:14 1510785134.175401: $GPGGA,223213,3946.9444,N,08404.9376,W,1,06,1.80,332.50,M,-33.324,M,,*75
2017-11-15 17:32:14 1510785134.175460: $GPRMC,223213,A,3946.9444,N,08404.9376,W,0.9066,129.458,151117,,*32
2017-11-15 17:32:14 1510785134.175516: $GPGSA,A,3,10,25,32,12,31,14,,,,,,,3.4,1.8,2.9*34
2017-11-15 17:32:15 1510785135.511191: $GPGSV,3,1,11,10,50,147,19,25,39,093,25,32,69,022,20,12,23,051,15*7B
2017-11-15 17:32:15 1510785135.511363: $GPGSV,3,2,11,01,21,303,00,31,53,223,26,14,65,324,11,11,09,283,05*7F
2017-11-15 17:32:15 1510785135.511423: $GPGSV,3,3,11,18,20,144,00,22,17,312,00,135,23,238,00*7A
2017-11-15 17:32:15 1510785135.624590: $GPZDA,223214.00,15,11,2017,00,00*62
2017-11-15 17:32:15 1510785135.624762: $GPGGA,223214,3946.9445,N,08404.9370,W,1,06,1.80,333.98,M,-33.324,M,,*70
2017-11-15 17:32:15 1510785135.624823: $GPRMC,223214,A,3946.9445,N,08404.9370,W,0.7621,107.945,151117,,*34
2017-11-15 17:32:15 1510785135.624879: $GPGSA,A,3,10,25,32,12,31,14,,,,,,,3.4,1.8,2.9*34
2017-11-15 17:32:16 1510785136.169150: $GPZDA,223215.00,15,11,2017,00,00*63
2017-11-15 17:32:16 1510785136.169325: $GPGGA,223215,3946.9441,N,08404.9364,W,1,06,1.80,334.83,M,-33.324,M,,*7D
2017-11-15 17:32:16 1510785136.171939: $GPRMC,223215,A,3946.9441,N,08404.9364,W,1.0253,113.297,151117,,*32
2017-11-15 17:32:16 1510785136.172013: $GPGSA,A,3,10,25,32,12,31,14,,,,,,,3.4,1.8,2.9*34
