2017-12-01 15:54:41 1512161681.486856: {"class":"VERSION","release":"3.16","rev":"3.16-4","proto_major":3,"proto_minor":11}
2017-12-01 15:54:41 1512161681.487284: {"class":"DEVICES","devices":[{"class":"DEVICE","path":"/dev/ttyUSB0","driver":"SiRF","subtype":"9\u0006GSD4e_4.1.2-P1_RPATCH.05-F-GPS-4R-1510281 11/03/2015 307","activated":"2017-12-01T20:54:41.428Z","flags":1,"native":1,"bps":4800,"parity":"N","stopbits":1,"cycle":1.00}]}
2017-12-01 15:54:41 1512161681.487407: {"class":"WATCH","enable":true,"json":false,"nmea":true,"raw":0,"scaled":false,"timing":false,"split24":false,"pps":false}
2017-12-01 15:54:42 1512161682.726555: $GPGSV,3,1,12,01,16,315,42,10,65,136,47,11,11,297,30,12,25,066,40*75
2017-12-01 15:54:42 1512161682.726749: $GPGSV,3,2,12,14,57,298,43,18,33,138,46,22,06,312,42,25,32,111,45*7F
2017-12-01 15:54:42 1512161682.726817: $GPGSV,3,3,12,31,39,214,49,32,69,342,47,24,10,046,28,138,38,213,46*4C
2017-12-01 15:54:42 1512161682.839673: $GPZDA,205443.00,01,12,2017,00,00*64
2017-12-01 15:54:42 1512161682.839851: $GPGGA,205443,3946.9582,N,08404.9824,W,2,12,0.80,311.16,M,-33.324,M,,*71
2017-12-01 15:54:42 1512161682.839919: $GPRMC,205443,A,3946.9582,N,08404.9824,W,0.0000,0.000,011217,,*3E
2017-12-01 15:54:42 1512161682.839980: $GPGSA,A,3,1,10,11,12,14,18,22,25,31,32,24,138,2.0,0.8,1.5*3B
2017-12-01 15:54:43 1512161683.393357: $GPZDA,205444.00,01,12,2017,00,00*63
2017-12-01 15:54:43 1512161683.393538: $GPGGA,205444,3946.9582,N,08404.9824,W,2,12,0.80,311.16,M,-33.324,M,,*76
2017-12-01 15:54:43 1512161683.393628: $GPRMC,205444,A,3946.9582,N,08404.9824,W,0.0000,0.000,011217,,*39
2017-12-01 15:54:43 1512161683.393691: $GPGSA,A,3,1,10,11,12,14,18,22,25,31,32,24,138,2.0,0.8,1.5*3B
2017-12-01 15:54:44 1512161684.388917: $GPZDA,205445.00,01,12,2017,00,00*62
2017-12-01 15:54:44 1512161684.389089: $GPGGA,205445,3946.9582,N,08404.9824,W,2,12,0.80,311.16,M,-33.324,M,,*77
2017-12-01 15:54:44 1512161684.389155: $GPRMC,205445,A,3946.9582,N,08404.9824,W,0.0000,0.000,011217,,*38
2017-12-01 15:54:44 1512161684.389216: $GPGSA,A,3,1,10,11,12,14,18,22,25,31,32,24,138,2.0,0.8,1.5*3B
2017-12-01 15:54:45 1512161685.742078: $GPGSV,3,1,12,01,16,315,42,10,65,136,47,11,11,297,32,12,25,066,40*77
2017-12-01 15:54:45 1512161685.742261: $GPGSV,3,2,12,14,57,298,43,18,33,138,46,22,06,312,42,25,32,111,45*7F
2017-12-01 15:54:45 1512161685.742329: $GPGSV,3,3,12,31,39,214,48,32,69,342,47,24,10,046,28,138,38,213,45*4E
2017-12-01 15:54:45 1512161685.855552: $GPZDA,205446.00,01,12,2017,00,00*61
2017-12-01 15:54:45 1512161685.855697: $GPGGA,205446,3946.9582,N,08404.9824,W,2,12,0.80,311.16,M,-33.324,M,,*74
2017-12-01 15:54:45 1512161685.855786: $GPRMC,205446,A,3946.9582,N,08404.9824,W,0.0000,0.000,011217,,*3B
2017-12-01 15:54:45 1512161685.855848: $GPGSA,A,3,1,10,11,12,14,18,22,25,31,32,24,138,2.0,0.8,1.5*3B
2017-12-01 15:54:46 1512161686.406724: $GPZDA,205447.00,01,12,2017,00,00*60
2017-12-01 15:54:46 1512161686.407054: $GPGGA,205447,3946.9582,N,08404.9824,W,2,12,0.80,311.16,M,-33.324,M,,*75
2017-12-01 15:54:46 1512161686.407180: $GPRMC,205447,A,3946.9582,N,08404.9824,W,0.0000,0.000,011217,,*3A
2017-12-01 15:54:46 1512161686.407306: $GPGSA,A,3,1,10,11,12,14,18,22,25,31,32,24,138,2.0,0.8,1.5*3B
2017-12-01 15:54:47 1512161687.407987: $GPZDA,205448.00,01,12,2017,00,00*6F
2017-12-01 15:54:47 1512161687.408161: $GPGGA,205448,3946.9582,N,08404.9824,W,2,12,0.80,311.16,M,-33.324,M,,*7A
2017-12-01 15:54:47 1512161687.408228: $GPRMC,205448,A,3946.9582,N,08404.9824,W,0.0000,0.000,011217,,*35
2017-12-01 15:54:47 1512161687.408289: $GPGSA,A,3,1,10,11,12,14,18,22,25,31,32,24,138,2.0,0.8,1.5*3B
2017-12-01 15:54:48 1512161688.743817: $GPGSV,3,1,12,01,16,315,41,10,65,136,47,11,11,297,31,12,25,066,40*77
2017-12-01 15:54:48 1512161688.744057: $GPGSV,3,2,12,14,57,298,43,18,33,138,46,22,06,312,41,25,32,111,44*7D
2017-12-01 15:54:48 1512161688.744124: $GPGSV,3,3,12,31,39,214,49,32,69,342,47,24,10,046,28,138,38,213,46*4C
2017-12-01 15:54:48 1512161688.857100: $GPZDA,205449.00,01,12,2017,00,00*6E
2017-12-01 15:54:48 1512161688.857270: $GPGGA,205449,3946.9582,N,08404.9824,W,2,12,0.80,311.16,M,-33.324,M,,*7B
2017-12-01 15:54:48 1512161688.857389: $GPRMC,205449,A,3946.9582,N,08404.9824,W,0.0000,0.000,011217,,*34
2017-12-01 15:54:48 1512161688.857451: $GPGSA,A,3,1,10,11,12,14,18,22,25,31,32,24,138,2.0,0.8,1.5*3B
2017-12-01 15:54:49 1512161689.407969: $GPZDA,205450.00,01,12,2017,00,00*66
2017-12-01 15:54:49 1512161689.408136: $GPGGA,205450,3946.9582,N,08404.9824,W,2,12,0.80,311.16,M,-33.324,M,,*73
2017-12-01 15:54:49 1512161689.408202: $GPRMC,205450,A,3946.9582,N,08404.9824,W,0.0000,0.000,011217,,*3C
2017-12-01 15:54:49 1512161689.408262: $GPGSA,A,3,1,10,11,12,14,18,22,25,31,32,24,138,2.0,0.8,1.5*3B
2017-12-01 15:54:50 1512161690.390160: $GPZDA,205451.00,01,12,2017,00,00*67
2017-12-01 15:54:50 1512161690.390334: $GPGGA,205451,3946.9582,N,08404.9824,W,2,12,0.80,311.16,M,-33.324,M,,*72
2017-12-01 15:54:50 1512161690.390399: $GPRMC,205451,A,3946.9582,N,08404.9824,W,0.0000,0.000,011217,,*3D
2017-12-01 15:54:50 1512161690.390460: $GPGSA,A,3,1,10,11,12,14,18,22,25,31,32,24,138,2.0,0.8,1.5*3B
2017-12-01 15:54:51 1512161691.727054: $GPGSV,3,1,12,01,16,315,41,10,65,136,47,11,11,297,31,12,25,066,41*76
2017-12-01 15:54:51 1512161691.727236: $GPGSV,3,2,12,14,57,298,43,18,33,138,47,22,06,312,41,25,32,111,44*7C
2017-12-01 15:54:51 1512161691.727302: $GPGSV,3,3,12,31,39,214,48,32,69,342,47,24,10,046,28,138,38,213,45*4E
2017-12-01 15:54:51 1512161691.840420: $GPZDA,205452.00,01,12,2017,00,00*64
2017-12-01 15:54:51 1512161691.840556: $GPGGA,205452,3946.9582,N,08404.9824,W,2,12,0.80,311.16,M,-33.324,M,,*71
2017-12-01 15:54:51 1512161691.840622: $GPRMC,205452,A,3946.9582,N,08404.9824,W,0.0000,0.000,011217,,*3E
2017-12-01 15:54:51 1512161691.840682: $GPGSA,A,3,1,10,11,12,14,18,22,25,31,32,24,138,2.0,0.8,1.5*3B
2017-12-01 15:54:52 1512161692.465876: $GPZDA,205453.00,01,12,2017,00,00*65
2017-12-01 15:54:52 1512161692.466050: $GPGGA,205453,3946.9582,N,08404.9824,W,2,12,0.80,311.16,M,-33.324,M,,*70
2017-12-01 15:54:52 1512161692.466116: $GPRMC,205453,A,3946.9582,N,08404.9824,W,0.0000,0.000,011217,,*3F
2017-12-01 15:54:52 1512161692.466177: $GPGSA,A,3,1,10,11,12,14,18,22,25,31,32,24,138,2.0,0.8,1.5*3B
2017-12-01 15:54:53 1512161693.406696: $GPZDA,205454.00,01,12,2017,00,00*62
2017-12-01 15:54:53 1512161693.406900: $GPGGA,205454,3946.9582,N,08404.9824,W,2,12,0.80,311.16,M,-33.324,M,,*77
2017-12-01 15:54:53 1512161693.406968: $GPRMC,205454,A,3946.9582,N,08404.9824,W,0.0000,0.000,011217,,*38
2017-12-01 15:54:53 1512161693.407028: $GPGSA,A,3,1,10,11,12,14,18,22,25,31,32,24,138,2.0,0.8,1.5*3B
2017-12-01 15:54:54 1512161694.724915: $GPGSV,3,1,12,01,16,315,40,10,65,136,47,11,11,297,31,12,25,066,40*76
2017-12-01 15:54:54 1512161694.725099: $GPGSV,3,2,12,14,57,298,43,18,33,138,47,22,06,312,41,25,32,111,44*7C
2017-12-01 15:54:54 1512161694.725166: $GPGSV,3,3,12,31,39,214,49,32,69,342,47,24,10,046,28,138,38,213,46*4C
2017-12-01 15:54:54 1512161694.838333: $GPZDA,205455.00,01,12,2017,00,00*63
2017-12-01 15:54:54 1512161694.838513: $GPGGA,205455,3946.9582,N,08404.9824,W,2,12,0.80,311.16,M,-33.324,M,,*76
2017-12-01 15:54:54 1512161694.838579: $GPRMC,205455,A,3946.9582,N,08404.9824,W,0.0000,0.000,011217,,*39
2017-12-01 15:54:54 1512161694.838640: $GPGSA,A,3,1,10,11,12,14,18,22,25,31,32,24,138,2.0,0.8,1.5*3B
2017-12-01 15:54:55 1512161695.409149: $GPZDA,205456.00,01,12,2017,00,00*60
2017-12-01 15:54:55 1512161695.409320: $GPGGA,205456,3946.9582,N,08404.9824,W,2,12,0.80,311.16,M,-33.324,M,,*75
2017-12-01 15:54:55 1512161695.409385: $GPRMC,205456,A,3946.9582,N,08404.9824,W,0.0000,0.000,011217,,*3A
2017-12-01 15:54:55 1512161695.409446: $GPGSA,A,3,1,10,11,12,14,18,22,25,31,32,24,138,2.0,0.8,1.5*3B
2017-12-01 15:54:56 1512161696.407547: $GPZDA,205457.00,01,12,2017,00,00*61
2017-12-01 15:54:56 1512161696.407721: $GPGGA,205457,3946.9582,N,08404.9824,W,2,12,0.80,311.16,M,-33.324,M,,*74
2017-12-01 15:54:56 1512161696.407789: $GPRMC,205457,A,3946.9582,N,08404.9824,W,0.0000,0.000,011217,,*3B
2017-12-01 15:54:56 1512161696.407850: $GPGSA,A,3,1,10,11,12,14,18,22,25,31,32,24,138,2.0,0.8,1.5*3B
2017-12-01 15:54:57 1512161697.742779: $GPGSV,3,1,12,01,16,315,40,10,65,136,47,11,11,297,31,12,25,066,39*78
2017-12-01 15:54:57 1512161697.742961: $GPGSV,3,2,12,14,57,298,43,18,33,138,47,22,06,312,41,25,32,111,44*7C
2017-12-01 15:54:57 1512161697.743028: $GPGSV,3,3,12,31,39,214,50,32,69,342,47,24,10,046,28,138,38,213,46*44
2017-12-01 15:54:57 1512161697.856071: $GPZDA,205458.00,01,12,2017,00,00*6E
2017-12-01 15:54:57 1512161697.856201: $GPGGA,205458,3946.9582,N,08404.9824,W,2,12,0.80,311.16,M,-33.324,M,,*7B
2017-12-01 15:54:57 1512161697.856266: $GPRMC,205458,A,3946.9582,N,08404.9824,W,0.0000,0.000,011217,,*34
2017-12-01 15:54:57 1512161697.856326: $GPGSA,A,3,1,10,11,12,14,18,22,25,31,32,24,138,2.0,0.8,1.5*3B
2017-12-01 15:54:58 1512161698.407079: $GPZDA,205459.00,01,12,2017,00,00*6F
2017-12-01 15:54:58 1512161698.407287: $GPGGA,205459,3946.9582,N,08404.9824,W,2,12,0.80,311.16,M,-33.324,M,,*7A
2017-12-01 15:54:58 1512161698.407355: $GPRMC,205459,A,3946.9582,N,08404.9824,W,0.0000,0.000,011217,,*35
2017-12-01 15:54:58 1512161698.407417: $GPGSA,A,3,1,10,11,12,14,18,22,25,31,32,24,138,2.0,0.8,1.5*3B
2017-12-01 15:54:59 1512161699.408002: $GPZDA,205500.00,01,12,2017,00,00*62
2017-12-01 15:54:59 1512161699.408192: $GPGGA,205500,3946.9582,N,08404.9824,W,2,12,0.80,311.16,M,-33.324,M,,*77
2017-12-01 15:54:59 1512161699.408261: $GPRMC,205500,A,3946.9582,N,08404.9824,W,0.0000,0.000,011217,,*38
2017-12-01 15:54:59 1512161699.408322: $GPGSA,A,3,1,10,11,12,14,18,22,25,31,32,24,138,2.0,0.8,1.5*3B
2017-12-01 15:55:00 1512161700.726217: $GPGSV,3,1,12,01,16,315,39,10,65,136,47,11,11,297,31,12,25,066,39*76
2017-12-01 15:55:00 1512161700.726400: $GPGSV,3,2,12,14,57,298,43,18,33,138,46,22,06,312,42,25,32,111,45*7F
2017-12-01 15:55:00 1512161700.726467: $GPGSV,3,3,12,31,39,214,49,32,69,342,47,24,10,046,27,138,38,213,45*40
2017-12-01 15:55:00 1512161700.839641: $GPZDA,205501.00,01,12,2017,00,00*63
2017-12-01 15:55:00 1512161700.839853: $GPGGA,205501,3946.9582,N,08404.9824,W,2,12,0.80,311.16,M,-33.324,M,,*76
2017-12-01 15:55:00 1512161700.839921: $GPRMC,205501,A,3946.9582,N,08404.9824,W,0.0000,0.000,011217,,*39
2017-12-01 15:55:00 1512161700.839983: $GPGSA,A,3,1,10,11,12,14,18,22,25,31,32,24,138,2.0,0.8,1.5*3B
2017-12-01 15:55:01 1512161701.391719: $GPZDA,205502.00,01,12,2017,00,00*60
2017-12-01 15:55:01 1512161701.391904: $GPGGA,205502,3946.9582,N,08404.9824,W,2,12,0.80,311.16,M,-33.324,M,,*75
2017-12-01 15:55:01 1512161701.391972: $GPRMC,205502,A,3946.9582,N,08404.9824,W,0.0000,0.000,011217,,*3A
2017-12-01 15:55:01 1512161701.392033: $GPGSA,A,3,1,10,11,12,14,18,22,25,31,32,24,138,2.0,0.8,1.5*3B
