2017-11-16 16:51:11 1510869071.892621: {"class":"VERSION","release":"3.17","rev":"3.17","proto_major":3,"proto_minor":12}
2017-11-16 16:51:11 1510869071.893068: {"class":"DEVICES","devices":[{"class":"DEVICE","path":"/dev/ttyUSB0","driver":"SiRF","subtype":"9\u0006GSD4e_4.1.2-P1_RPATCH.05-F-GPS-4R-1510281 11/03/2015 307","activated":"2017-11-16T21:51:11.781Z","flags":1,"native":1,"bps":4800,"parity":"N","stopbits":1,"cycle":1.00}]}
2017-11-16 16:51:11 1510869071.893185: {"class":"WATCH","enable":true,"json":false,"nmea":true,"raw":0,"scaled":false,"timing":false,"split24":false,"pps":false}
2017-11-16 16:51:11 1510869071.895466: $GPZDA,215110.00,16,11,2017,00,00*63
2017-11-16 16:51:11 1510869071.895633: $GPGGA,215110,3946.9584,N,08404.9822,W,2,12,0.80,307.58,M,-33.324,M,,*7E
2017-11-16 16:51:11 1510869071.895693: $GPRMC,215110,A,3946.9584,N,08404.9822,W,0.0000,0.000,161117,,*39
2017-11-16 16:51:11 1510869071.895749: $GPGSA,A,3,1,10,11,12,14,18,24,25,31,32,22,138,1.6,0.8,1.3*38
2017-11-16 16:51:12 1510869072.463466: $GPZDA,215111.00,16,11,2017,00,00*62
2017-11-16 16:51:12 1510869072.463635: $GPGGA,215111,3946.9584,N,08404.9822,W,2,12,0.80,307.58,M,-33.324,M,,*7F
2017-11-16 16:51:12 1510869072.463697: $GPRMC,215111,A,3946.9584,N,08404.9822,W,0.0000,0.000,161117,,*38
2017-11-16 16:51:12 1510869072.463753: $GPGSA,A,3,1,10,11,12,14,18,24,25,31,32,22,138,1.6,0.8,1.3*38
2017-11-16 16:51:13 1510869073.460803: $GPZDA,215112.00,16,11,2017,00,00*61
2017-11-16 16:51:13 1510869073.460965: $GPGGA,215112,3946.9584,N,08404.9822,W,2,12,0.80,307.58,M,-33.324,M,,*7C
2017-11-16 16:51:13 1510869073.461025: $GPRMC,215112,A,3946.9584,N,08404.9822,W,0.0000,0.000,161117,,*3B
2017-11-16 16:51:13 1510869073.461081: $GPGSA,A,3,1,10,11,12,14,18,24,25,31,32,22,138,1.6,0.8,1.3*38
2017-11-16 16:51:14 1510869074.781281: $GPGSV,3,1,12,01,14,318,28,10,68,133,48,11,11,300,30,12,25,070,48*71
2017-11-16 16:51:14 1510869074.781449: $GPGSV,3,2,12,14,56,294,45,18,36,136,41,24,13,045,38,25,30,112,41*73
2017-11-16 16:51:14 1510869074.781509: $GPGSV,3,3,12,31,35,213,48,32,68,331,50,22,03,310,00,138,38,213,44*49
2017-11-16 16:51:14 1510869074.894612: $GPZDA,215113.00,16,11,2017,00,00*60
2017-11-16 16:51:14 1510869074.894766: $GPGGA,215113,3946.9584,N,08404.9822,W,2,11,0.80,307.58,M,-33.324,M,,*7E
2017-11-16 16:51:14 1510869074.894827: $GPRMC,215113,A,3946.9584,N,08404.9822,W,0.0000,0.000,161117,,*3A
2017-11-16 16:51:14 1510869074.894883: $GPGSA,A,3,1,10,11,12,14,18,24,25,31,32,138,,1.6,0.8,1.3*38
2017-11-16 16:51:15 1510869075.462655: $GPZDA,215114.00,16,11,2017,00,00*67
2017-11-16 16:51:15 1510869075.462849: $GPGGA,215114,3946.9584,N,08404.9822,W,2,11,0.80,307.58,M,-33.324,M,,*79
2017-11-16 16:51:15 1510869075.462969: $GPRMC,215114,A,3946.9584,N,08404.9822,W,0.0000,0.000,161117,,*3D
2017-11-16 16:51:15 1510869075.463046: $GPGSA,A,3,1,10,11,12,14,18,24,25,31,32,138,,1.6,0.8,1.3*38
2017-11-16 16:51:16 1510869076.441004: $GPZDA,215115.00,16,11,2017,00,00*66
2017-11-16 16:51:16 1510869076.441164: $GPGGA,215115,3946.9584,N,08404.9822,W,2,11,0.80,307.58,M,-33.324,M,,*78
2017-11-16 16:51:16 1510869076.441224: $GPRMC,215115,A,3946.9584,N,08404.9822,W,0.0000,0.000,161117,,*3C
2017-11-16 16:51:16 1510869076.441280: $GPGSA,A,3,1,10,11,12,14,18,24,25,31,32,138,,1.6,0.8,1.3*38
2017-11-16 16:51:17 1510869077.780305: $GPGSV,3,1,12,01,14,318,26,10,68,133,48,11,11,300,30,12,25,070,48*7F
2017-11-16 16:51:17 1510869077.780490: $GPGSV,3,2,12,14,56,294,45,18,36,136,40,24,13,045,38,25,30,112,41*72
2017-11-16 16:51:17 1510869077.780551: $GPGSV,3,3,12,31,35,213,47,32,68,331,50,22,03,310,09,138,38,213,44*4F
2017-11-16 16:51:17 1510869077.893556: $GPZDA,215116.00,16,11,2017,00,00*65
2017-11-16 16:51:17 1510869077.893723: $GPGGA,215116,3946.9584,N,08404.9822,W,2,11,0.80,307.58,M,-33.324,M,,*7B
2017-11-16 16:51:17 1510869077.893785: $GPRMC,215116,A,3946.9584,N,08404.9822,W,0.0000,0.000,161117,,*3F
2017-11-16 16:51:17 1510869077.893841: $GPGSA,A,3,1,10,11,12,14,18,24,25,31,32,138,,1.6,0.8,1.3*38
2017-11-16 16:51:18 1510869078.463235: $GPZDA,215117.00,16,11,2017,00,00*64
2017-11-16 16:51:18 1510869078.463500: $GPGGA,215117,3946.9584,N,08404.9822,W,2,11,0.80,307.58,M,-33.324,M,,*7A
2017-11-16 16:51:18 1510869078.463584: $GPRMC,215117,A,3946.9584,N,08404.9822,W,0.0000,0.000,161117,,*3E
2017-11-16 16:51:18 1510869078.463642: $GPGSA,A,3,1,10,11,12,14,18,24,25,31,32,138,,1.6,0.8,1.3*38
2017-11-16 16:51:19 1510869079.461601: $GPZDA,215118.00,16,11,2017,00,00*6B
2017-11-16 16:51:19 1510869079.461765: $GPGGA,215118,3946.9584,N,08404.9822,W,2,11,0.80,307.58,M,-33.324,M,,*75
2017-11-16 16:51:19 1510869079.461826: $GPRMC,215118,A,3946.9584,N,08404.9822,W,0.0000,0.000,161117,,*31
2017-11-16 16:51:19 1510869079.461882: $GPGSA,A,3,1,10,11,12,14,18,24,25,31,32,138,,1.6,0.8,1.3*38
2017-11-16 16:51:20 1510869080.781119: $GPGSV,3,1,12,01,14,318,34,10,68,133,48,11,11,300,30,12,25,070,48*7C
2017-11-16 16:51:20 1510869080.781291: $GPGSV,3,2,12,14,56,294,45,18,36,136,41,24,13,045,38,25,30,112,41*73
2017-11-16 16:51:20 1510869080.781351: $GPGSV,3,3,12,31,35,213,47,32,68,331,50,22,03,310,00,138,38,213,44*46
2017-11-16 16:51:20 1510869080.894435: $GPZDA,215119.00,16,11,2017,00,00*6A
2017-11-16 16:51:20 1510869080.894594: $GPGGA,215119,3946.9585,N,08404.9829,W,2,11,0.80,307.50,M,-33.324,M,,*76
2017-11-16 16:51:20 1510869080.894655: $GPRMC,215119,A,3946.9585,N,08404.9829,W,0.0000,0.000,161117,,*3A
2017-11-16 16:51:20 1510869080.894711: $GPGSA,A,3,1,10,11,12,14,18,24,25,31,32,138,,1.6,0.8,1.3*38
2017-11-16 16:51:21 1510869081.519820: $GPZDA,215120.00,16,11,2017,00,00*60
2017-11-16 16:51:21 1510869081.519984: $GPGGA,215120,3946.9585,N,08404.9829,W,2,11,0.80,307.50,M,-33.324,M,,*7C
2017-11-16 16:51:21 1510869081.520045: $GPRMC,215120,A,3946.9585,N,08404.9829,W,0.0000,0.000,161117,,*30
2017-11-16 16:51:21 1510869081.520101: $GPGSA,A,3,1,10,11,12,14,18,24,25,31,32,138,,1.6,0.8,1.3*38
