2017-11-16 17:37:21 1510871841.373058: {"class":"VERSION","release":"3.17","rev":"3.17","proto_major":3,"proto_minor":12}
2017-11-16 17:37:21 1510871841.373649: {"class":"DEVICES","devices":[{"class":"DEVICE","path":"/dev/ttyUSB0","driver":"SiRF","subtype":"9\u0006GSD4e_4.1.2-P1_RPATCH.05-F-GPS-4R-1510281 11/03/2015 307","activated":"2017-11-16T22:37:21.304Z","flags":1,"native":1,"bps":4800,"parity":"N","stopbits":1,"cycle":1.00}]}
2017-11-16 17:37:21 1510871841.373784: {"class":"WATCH","enable":true,"json":false,"nmea":true,"raw":0,"scaled":false,"timing":false,"split24":false,"pps":false}
2017-11-16 17:37:21 1510871841.754415: $GPGSV,3,1,12,01,22,298,34,10,46,148,46,22,21,312,42,12,21,048,49*75
2017-11-16 17:37:21 1510871841.754576: $GPGSV,3,2,12,14,67,333,46,18,16,145,41,26,04,183,23,11,08,280,36*79
2017-11-16 17:37:21 1510871841.754638: $GPGSV,3,3,12,25,40,087,49,31,58,228,47,32,68,033,49,138,38,213,44*4C
2017-11-16 17:37:21 1510871841.868145: $GPZDA,223720.00,16,11,2017,00,00*63
2017-11-16 17:37:21 1510871841.868321: $GPGGA,223720,3946.9575,N,08404.9834,W,2,12,0.80,303.34,M,-33.324,M,,*79
2017-11-16 17:37:21 1510871841.868385: $GPRMC,223720,A,3946.9575,N,08404.9834,W,0.0000,0.000,161117,,*30
2017-11-16 17:37:21 1510871841.868442: $GPGSA,A,3,1,10,22,12,14,18,26,11,25,31,32,138,1.6,0.8,1.3*3A
2017-11-16 17:37:22 1510871842.396438: $GPZDA,223721.00,16,11,2017,00,00*62
2017-11-16 17:37:22 1510871842.396598: $GPGGA,223721,3946.9576,N,08404.9841,W,2,12,0.80,303.26,M,-33.324,M,,*7A
2017-11-16 17:37:22 1510871842.396658: $GPRMC,223721,A,3946.9576,N,08404.9841,W,0.0000,0.000,161117,,*30
2017-11-16 17:37:22 1510871842.396715: $GPGSA,A,3,1,10,22,12,14,18,26,11,25,31,32,138,1.6,0.8,1.3*3A
2017-11-16 17:37:23 1510871843.397026: $GPZDA,223722.00,16,11,2017,00,00*61
2017-11-16 17:37:23 1510871843.397198: $GPGGA,223722,3946.9576,N,08404.9841,W,2,12,0.80,303.26,M,-33.324,M,,*79
2017-11-16 17:37:23 1510871843.397259: $GPRMC,223722,A,3946.9576,N,08404.9841,W,0.0000,0.000,161117,,*33
2017-11-16 17:37:23 1510871843.397315: $GPGSA,A,3,1,10,22,12,14,18,26,11,25,31,32,138,1.6,0.8,1.3*3A
2017-11-16 17:37:24 1510871844.732633: $GPGSV,3,1,12,01,22,298,35,10,46,148,46,22,21,312,42,12,21,048,49*74
2017-11-16 17:37:24 1510871844.732793: $GPGSV,3,2,12,14,67,333,46,18,16,145,41,26,04,183,22,11,08,280,36*78
2017-11-16 17:37:24 1510871844.732868: $GPGSV,3,3,12,25,40,087,50,31,58,228,47,32,68,033,49,138,38,213,44*44
2017-11-16 17:37:24 1510871844.845997: $GPZDA,223723.00,16,11,2017,00,00*60
2017-11-16 17:37:24 1510871844.846184: $GPGGA,223723,3946.9576,N,08404.9841,W,2,12,0.80,303.26,M,-33.324,M,,*78
2017-11-16 17:37:24 1510871844.846248: $GPRMC,223723,A,3946.9576,N,08404.9841,W,0.0000,0.000,161117,,*32
2017-11-16 17:37:24 1510871844.846305: $GPGSA,A,3,1,10,22,12,14,18,26,11,25,31,32,138,1.6,0.8,1.3*3A
2017-11-16 17:37:25 1510871845.397155: $GPZDA,223724.00,16,11,2017,00,00*67
2017-11-16 17:37:25 1510871845.401805: $GPGGA,223724,3946.9576,N,08404.9841,W,2,12,0.80,303.26,M,-33.324,M,,*7F
2017-11-16 17:37:25 1510871845.401932: $GPRMC,223724,A,3946.9576,N,08404.9841,W,0.0000,0.000,161117,,*35
2017-11-16 17:37:25 1510871845.401991: $GPGSA,A,3,1,10,22,12,14,18,26,11,25,31,32,138,1.6,0.8,1.3*3A
2017-11-16 17:37:26 1510871846.395995: $GPZDA,223725.00,16,11,2017,00,00*66
2017-11-16 17:37:26 1510871846.396172: $GPGGA,223725,3946.9576,N,08404.9841,W,2,12,0.80,303.26,M,-33.324,M,,*7E
2017-11-16 17:37:26 1510871846.396232: $GPRMC,223725,A,3946.9576,N,08404.9841,W,0.0000,0.000,161117,,*34
2017-11-16 17:37:26 1510871846.396287: $GPGSA,A,3,1,10,22,12,14,18,26,11,25,31,32,138,1.6,0.8,1.3*3A
2017-11-16 17:37:27 1510871847.731732: $GPGSV,3,1,12,01,22,298,35,10,46,148,45,22,21,312,42,12,21,048,49*77
2017-11-16 17:37:27 1510871847.731892: $GPGSV,3,2,12,14,67,333,46,18,16,145,41,26,04,183,22,11,08,280,37*79
2017-11-16 17:37:27 1510871847.731953: $GPGSV,3,3,12,25,40,087,50,31,58,228,48,32,68,033,49,138,38,213,43*4C
2017-11-16 17:37:27 1510871847.844994: $GPZDA,223726.00,16,11,2017,00,00*65
2017-11-16 17:37:27 1510871847.845196: $GPGGA,223726,3946.9576,N,08404.9841,W,2,12,0.80,303.26,M,-33.324,M,,*7D
2017-11-16 17:37:27 1510871847.845313: $GPRMC,223726,A,3946.9576,N,08404.9841,W,0.0000,0.000,161117,,*37
2017-11-16 17:37:27 1510871847.845371: $GPGSA,A,3,1,10,22,12,14,18,26,11,25,31,32,138,1.6,0.8,1.3*3A
2017-11-16 17:37:28 1510871848.397402: $GPZDA,223727.00,16,11,2017,00,00*64
2017-11-16 17:37:28 1510871848.397560: $GPGGA,223727,3946.9576,N,08404.9841,W,2,12,0.80,303.26,M,-33.324,M,,*7C
2017-11-16 17:37:28 1510871848.397621: $GPRMC,223727,A,3946.9576,N,08404.9841,W,0.0000,0.000,161117,,*36
2017-11-16 17:37:28 1510871848.397676: $GPGSA,A,3,1,10,22,12,14,18,26,11,25,31,32,138,1.6,0.8,1.3*3A
2017-11-16 17:37:29 1510871849.396794: $GPZDA,223728.00,16,11,2017,00,00*6B
2017-11-16 17:37:29 1510871849.396959: $GPGGA,223728,3946.9576,N,08404.9841,W,2,12,0.80,303.26,M,-33.324,M,,*73
2017-11-16 17:37:29 1510871849.397020: $GPRMC,223728,A,3946.9576,N,08404.9841,W,0.0000,0.000,161117,,*39
2017-11-16 17:37:29 1510871849.397075: $GPGSA,A,3,1,10,22,12,14,18,26,11,25,31,32,138,1.6,0.8,1.3*3A
2017-11-16 17:37:30 1510871850.732528: $GPGSV,3,1,12,01,22,298,35,10,46,148,45,22,21,312,42,12,21,048,49*77
2017-11-16 17:37:30 1510871850.732685: $GPGSV,3,2,12,14,67,333,46,18,16,145,41,26,04,183,22,11,08,280,36*78
2017-11-16 17:37:30 1510871850.732744: $GPGSV,3,3,12,25,40,087,49,31,58,228,48,32,68,033,49,138,38,213,44*43
2017-11-16 17:37:30 1510871850.846155: $GPZDA,223729.00,16,11,2017,00,00*6A
2017-11-16 17:37:30 1510871850.846298: $GPGGA,223729,3946.9576,N,08404.9841,W,2,12,0.80,303.26,M,-33.324,M,,*72
2017-11-16 17:37:30 1510871850.846358: $GPRMC,223729,A,3946.9576,N,08404.9841,W,0.0000,0.000,161117,,*38
2017-11-16 17:37:30 1510871850.846413: $GPGSA,A,3,1,10,22,12,14,18,26,11,25,31,32,138,1.6,0.8,1.3*3A
