2017-12-01 16:35:40 1512164140.796696: {"class":"VERSION","release":"3.16","rev":"3.16-4","proto_major":3,"proto_minor":11}
2017-12-01 16:35:40 1512164140.797120: {"class":"DEVICES","devices":[{"class":"DEVICE","path":"/dev/ttyUSB0","driver":"SiRF","subtype":"9\u0006GSD4e_4.1.2-P1_RPATCH.05-F-GPS-4R-1510281 11/03/2015 307","activated":"2017-12-01T21:35:40.573Z","flags":1,"native":1,"bps":4800,"parity":"N","stopbits":1,"cycle":1.00}]}
2017-12-01 16:35:40 1512164140.797242: {"class":"WATCH","enable":true,"json":false,"nmea":true,"raw":0,"scaled":false,"timing":false,"split24":false,"pps":false}
2017-12-01 16:35:41 1512164141.767719: $GPGSV,3,1,12,01,22,298,42,10,45,148,44,14,67,333,45,22,21,312,45*75
2017-12-01 16:35:41 1512164141.767897: $GPGSV,3,2,12,26,04,183,31,31,58,228,50,32,68,034,48,11,08,280,33*77
2017-12-01 16:35:41 1512164141.767962: $GPGSV,3,3,12,12,21,048,28,18,16,144,19,25,40,087,29,138,38,213,34*4A
2017-12-01 16:35:41 1512164141.880977: $GPZDA,213542.00,01,12,2017,00,00*63
2017-12-01 16:35:41 1512164141.881150: $GPGGA,213542,3946.9636,N,08404.9758,W,2,12,0.80,302.37,M,-33.324,M,,*7F
2017-12-01 16:35:41 1512164141.881217: $GPRMC,213542,A,3946.9636,N,08404.9758,W,0.0000,0.000,011217,,*31
2017-12-01 16:35:41 1512164141.881278: $GPGSA,A,3,1,10,14,22,26,31,32,11,12,18,25,138,2.0,0.8,1.5*39
2017-12-01 16:35:42 1512164142.506341: $GPZDA,213543.00,01,12,2017,00,00*62
2017-12-01 16:35:42 1512164142.506512: $GPGGA,213543,3946.9636,N,08404.9758,W,2,12,1.20,302.37,M,-33.324,M,,*75
2017-12-01 16:35:42 1512164142.506579: $GPRMC,213543,A,3946.9636,N,08404.9758,W,0.0000,0.000,011217,,*30
2017-12-01 16:35:42 1512164142.506641: $GPGSA,A,3,1,10,14,22,26,31,32,11,12,18,25,138,2.0,1.2,1.5*32
2017-12-01 16:35:43 1512164143.427255: $GPZDA,213544.00,01,12,2017,00,00*65
2017-12-01 16:35:43 1512164143.427419: $GPGGA,213544,3946.9636,N,08404.9758,W,2,12,1.20,302.37,M,-33.324,M,,*72
2017-12-01 16:35:43 1512164143.427486: $GPRMC,213544,A,3946.9636,N,08404.9758,W,0.0000,0.000,011217,,*37
2017-12-01 16:35:43 1512164143.427548: $GPGSA,A,3,1,10,14,22,26,31,32,11,12,18,25,138,2.0,1.2,1.5*32
2017-12-01 16:35:44 1512164144.761762: $GPGSV,3,1,12,01,22,298,42,10,45,148,44,14,67,333,45,22,21,312,45*75
2017-12-01 16:35:44 1512164144.761943: $GPGSV,3,2,12,26,04,183,30,31,58,228,50,32,68,034,48,11,08,280,34*71
2017-12-01 16:35:44 1512164144.762010: $GPGSV,3,3,12,12,21,048,00,18,16,144,17,25,40,087,30,138,38,213,37*45
2017-12-01 16:35:44 1512164144.875028: $GPZDA,213545.00,01,12,2017,00,00*64
2017-12-01 16:35:44 1512164144.875150: $GPGGA,213545,3946.9636,N,08404.9758,W,2,10,1.20,302.37,M,-33.324,M,,*71
2017-12-01 16:35:44 1512164144.875213: $GPRMC,213545,A,3946.9636,N,08404.9758,W,0.0000,0.000,011217,,*36
2017-12-01 16:35:44 1512164144.875273: $GPGSA,A,3,1,10,14,22,26,31,32,11,25,138,,,2.0,1.2,1.5*38
2017-12-01 16:35:45 1512164145.446077: $GPZDA,213546.00,01,12,2017,00,00*67
2017-12-01 16:35:45 1512164145.446256: $GPGGA,213546,3946.9636,N,08404.9758,W,2,10,1.20,302.37,M,-33.324,M,,*72
2017-12-01 16:35:45 1512164145.446322: $GPRMC,213546,A,3946.9636,N,08404.9758,W,0.0000,0.000,011217,,*35
2017-12-01 16:35:45 1512164145.446384: $GPGSA,A,3,1,10,14,22,26,31,32,11,25,138,,,2.0,1.2,1.5*38
2017-12-01 16:35:46 1512164146.446180: $GPZDA,213547.00,01,12,2017,00,00*66
2017-12-01 16:35:46 1512164146.446352: $GPGGA,213547,3946.9636,N,08404.9758,W,2,10,1.20,302.37,M,-33.324,M,,*73
2017-12-01 16:35:46 1512164146.446420: $GPRMC,213547,A,3946.9636,N,08404.9758,W,0.0000,0.000,011217,,*34
2017-12-01 16:35:46 1512164146.446481: $GPGSA,A,3,1,10,14,22,26,31,32,11,25,138,,,2.0,1.2,1.5*38
2017-12-01 16:35:47 1512164147.784690: $GPGSV,3,1,12,01,22,298,42,10,45,148,44,14,67,333,45,22,21,312,44*74
2017-12-01 16:35:47 1512164147.784913: $GPGSV,3,2,12,26,04,183,30,31,58,228,50,32,68,034,49,11,08,280,34*70
2017-12-01 16:35:47 1512164147.784984: $GPGSV,3,3,12,12,21,048,00,18,16,144,00,25,40,087,30,138,38,213,39*4D
2017-12-01 16:35:47 1512164147.898164: $GPZDA,213548.00,01,12,2017,00,00*69
2017-12-01 16:35:47 1512164147.898340: $GPGGA,213548,3946.9636,N,08404.9758,W,2,10,1.20,302.37,M,-33.324,M,,*7C
2017-12-01 16:35:47 1512164147.898530: $GPRMC,213548,A,3946.9636,N,08404.9758,W,0.0000,0.000,011217,,*3B
2017-12-01 16:35:47 1512164147.898597: $GPGSA,A,3,1,10,14,22,26,31,32,11,25,138,,,2.0,1.2,1.5*38
2017-12-01 16:35:48 1512164148.443908: $GPZDA,213549.00,01,12,2017,00,00*68
2017-12-01 16:35:48 1512164148.444078: $GPGGA,213549,3946.9636,N,08404.9758,W,2,10,1.20,302.37,M,-33.324,M,,*7D
2017-12-01 16:35:48 1512164148.444145: $GPRMC,213549,A,3946.9636,N,08404.9758,W,0.0000,0.000,011217,,*3A
2017-12-01 16:35:48 1512164148.444206: $GPGSA,A,3,1,10,14,22,26,31,32,11,25,138,,,2.0,1.2,1.5*38
2017-12-01 16:35:49 1512164149.452304: $GPZDA,213550.00,01,12,2017,00,00*60
2017-12-01 16:35:49 1512164149.452474: $GPGGA,213550,3946.9636,N,08404.9758,W,2,10,1.20,302.37,M,-33.324,M,,*75
2017-12-01 16:35:49 1512164149.452561: $GPRMC,213550,A,3946.9636,N,08404.9758,W,0.0000,0.000,011217,,*32
2017-12-01 16:35:49 1512164149.452624: $GPGSA,A,3,1,10,14,22,26,31,32,11,25,138,,,2.0,1.2,1.5*38
2017-12-01 16:35:50 1512164150.767949: $GPGSV,3,1,12,01,22,298,42,10,45,148,44,14,67,333,45,22,21,312,44*74
2017-12-01 16:35:50 1512164150.768131: $GPGSV,3,2,12,26,04,183,30,31,58,228,49,32,68,034,48,11,08,280,33*7E
2017-12-01 16:35:50 1512164150.768198: $GPGSV,3,3,12,18,16,144,15,12,21,048,00,25,40,087,31,138,38,213,39*48
2017-12-01 16:35:50 1512164150.881417: $GPZDA,213551.00,01,12,2017,00,00*61
2017-12-01 16:35:50 1512164150.881598: $GPGGA,213551,3946.9636,N,08404.9758,W,2,10,1.20,302.37,M,-33.324,M,,*74
2017-12-01 16:35:50 1512164150.881682: $GPRMC,213551,A,3946.9636,N,08404.9758,W,0.0000,0.000,011217,,*33
2017-12-01 16:35:50 1512164150.881744: $GPGSA,A,3,1,10,14,22,26,31,32,11,25,138,,,2.0,1.2,1.5*38
2017-12-01 16:35:51 1512164151.433486: $GPZDA,213552.00,01,12,2017,00,00*62
2017-12-01 16:35:51 1512164151.433702: $GPGGA,213552,3946.9636,N,08404.9758,W,2,10,1.20,302.37,M,-33.324,M,,*77
2017-12-01 16:35:51 1512164151.433769: $GPRMC,213552,A,3946.9636,N,08404.9758,W,0.0000,0.000,011217,,*30
2017-12-01 16:35:51 1512164151.433831: $GPGSA,A,3,1,10,14,22,26,31,32,11,25,138,,,2.0,1.2,1.5*38
2017-12-01 16:35:52 1512164152.436350: $GPZDA,213553.00,01,12,2017,00,00*63
2017-12-01 16:35:52 1512164152.436545: $GPGGA,213553,3946.9636,N,08404.9758,W,2,10,1.20,302.37,M,-33.324,M,,*76
2017-12-01 16:35:52 1512164152.436613: $GPRMC,213553,A,3946.9636,N,08404.9758,W,0.0000,0.000,011217,,*31
2017-12-01 16:35:52 1512164152.436691: $GPGSA,A,3,1,10,14,22,26,31,32,11,25,138,,,2.0,1.2,1.5*38
2017-12-01 16:35:53 1512164153.787306: $GPGSV,3,1,12,01,22,298,41,10,45,148,44,14,67,333,45,22,21,312,44*77
2017-12-01 16:35:53 1512164153.787533: $GPGSV,3,2,12,26,04,183,30,31,58,228,49,32,68,034,48,11,08,280,32*7F
2017-12-01 16:35:53 1512164153.787602: $GPGSV,3,3,12,12,21,048,26,18,16,144,00,25,40,087,32,138,38,213,37*45
2017-12-01 16:35:53 1512164153.899248: $GPZDA,213554.00,01,12,2017,00,00*64
2017-12-01 16:35:53 1512164153.899420: $GPGGA,213554,3946.9636,N,08404.9758,W,2,11,1.00,302.37,M,-33.324,M,,*72
2017-12-01 16:35:53 1512164153.899486: $GPRMC,213554,A,3946.9636,N,08404.9758,W,0.0000,0.000,011217,,*36
2017-12-01 16:35:53 1512164153.899574: $GPGSA,A,3,1,10,14,22,26,31,32,11,12,25,138,,2.0,1.0,1.5*39
2017-12-01 16:35:54 1512164154.436410: $GPZDA,213555.00,01,12,2017,00,00*65
2017-12-01 16:35:54 1512164154.436602: $GPGGA,213555,3946.9636,N,08404.9758,W,2,11,1.00,302.37,M,-33.324,M,,*73
2017-12-01 16:35:54 1512164154.436687: $GPRMC,213555,A,3946.9636,N,08404.9758,W,0.0000,0.000,011217,,*37
2017-12-01 16:35:54 1512164154.436749: $GPGSA,A,3,1,10,14,22,26,31,32,11,12,25,138,,2.0,1.0,1.5*39
2017-12-01 16:35:55 1512164155.449752: $GPZDA,213556.00,01,12,2017,00,00*66
2017-12-01 16:35:55 1512164155.449924: $GPGGA,213556,3946.9636,N,08404.9758,W,2,11,1.00,302.37,M,-33.324,M,,*70
2017-12-01 16:35:55 1512164155.449990: $GPRMC,213556,A,3946.9636,N,08404.9758,W,0.0000,0.000,011217,,*34
2017-12-01 16:35:55 1512164155.450051: $GPGSA,A,3,1,10,14,22,26,31,32,11,12,25,138,,2.0,1.0,1.5*39
2017-12-01 16:35:56 1512164156.779176: $GPGSV,3,1,12,01,22,298,41,10,45,148,44,14,67,333,44,22,21,312,45*77
2017-12-01 16:35:56 1512164156.779416: $GPGSV,3,2,12,26,04,183,30,31,58,228,50,32,68,034,48,11,08,280,32*77
2017-12-01 16:35:56 1512164156.779512: $GPGSV,3,3,12,12,21,048,25,18,16,144,00,25,40,087,33,138,38,213,39*49
2017-12-01 16:35:56 1512164156.891408: $GPZDA,213557.00,01,12,2017,00,00*67
2017-12-01 16:35:56 1512164156.891582: $GPGGA,213557,3946.9636,N,08404.9758,W,2,11,1.00,302.37,M,-33.324,M,,*71
2017-12-01 16:35:56 1512164156.891676: $GPRMC,213557,A,3946.9636,N,08404.9758,W,0.0000,0.000,011217,,*35
2017-12-01 16:35:56 1512164156.891738: $GPGSA,A,3,1,10,14,22,26,31,32,11,12,25,138,,2.0,1.0,1.5*39
2017-12-01 16:35:57 1512164157.518143: $GPZDA,213558.00,01,12,2017,00,00*68
2017-12-01 16:35:57 1512164157.518295: $GPGGA,213558,3946.9636,N,08404.9758,W,2,11,1.00,302.37,M,-33.324,M,,*7E
2017-12-01 16:35:57 1512164157.518360: $GPRMC,213558,A,3946.9636,N,08404.9758,W,0.0000,0.000,011217,,*3A
2017-12-01 16:35:57 1512164157.518422: $GPGSA,A,3,1,10,14,22,26,31,32,11,12,25,138,,2.0,1.0,1.5*39
2017-12-01 16:35:58 1512164158.441337: $GPZDA,213559.00,01,12,2017,00,00*69
2017-12-01 16:35:58 1512164158.443024: $GPGGA,213559,3946.9636,N,08404.9758,W,2,11,1.00,302.37,M,-33.324,M,,*7F
2017-12-01 16:35:58 1512164158.443136: $GPRMC,213559,A,3946.9636,N,08404.9758,W,0.0000,0.000,011217,,*3B
2017-12-01 16:35:58 1512164158.443201: $GPGSA,A,3,1,10,14,22,26,31,32,11,12,25,138,,2.0,1.0,1.5*39
2017-12-01 16:35:59 1512164159.784647: $GPGSV,3,1,12,01,22,298,41,10,45,148,44,14,67,333,44,22,21,312,45*77
2017-12-01 16:35:59 1512164159.784832: $GPGSV,3,2,12,26,04,183,30,31,58,228,50,32,68,034,48,11,08,280,27*73
2017-12-01 16:35:59 1512164159.784921: $GPGSV,3,3,12,12,21,048,26,18,16,144,00,25,40,087,33,138,38,213,41*45
2017-12-01 16:35:59 1512164159.898029: $GPZDA,213600.00,01,12,2017,00,00*66
2017-12-01 16:35:59 1512164159.898201: $GPGGA,213600,3946.9636,N,08404.9758,W,2,11,1.00,302.37,M,-33.324,M,,*70
2017-12-01 16:35:59 1512164159.898267: $GPRMC,213600,A,3946.9636,N,08404.9758,W,0.0000,0.000,011217,,*34
2017-12-01 16:35:59 1512164159.898329: $GPGSA,A,3,1,10,14,22,26,31,32,11,12,25,138,,2.0,1.0,1.5*39
2017-12-01 16:36:00 1512164160.450506: $GPZDA,213601.00,01,12,2017,00,00*67
2017-12-01 16:36:00 1512164160.450691: $GPGGA,213601,3946.9636,N,08404.9758,W,2,11,1.00,302.37,M,-33.324,M,,*71
2017-12-01 16:36:00 1512164160.450759: $GPRMC,213601,A,3946.9636,N,08404.9758,W,0.0000,0.000,011217,,*35
2017-12-01 16:36:00 1512164160.450821: $GPGSA,A,3,1,10,14,22,26,31,32,11,12,25,138,,2.0,1.0,1.5*39
