2018-01-11 19:59:07 1515718747.546259: {"class":"VERSION","release":"3.16","rev":"3.16-4","proto_major":3,"proto_minor":11}
2018-01-11 19:59:07 1515718747.546599: {"class":"DEVICES","devices":[{"class":"DEVICE","path":"/dev/ttyUSB0","driver":"SiRF","subtype":"9\u0006GSD4e_4.1.2-P1_RPATCH.05-F-GPS-4R-1510281 11/03/2015 307","activated":"2018-01-12T00:59:07.247Z","flags":1,"native":1,"bps":4800,"parity":"N","stopbits":1,"cycle":1.00}]}
2018-01-11 19:59:07 1515718747.546711: {"class":"WATCH","enable":true,"json":false,"nmea":true,"raw":0,"scaled":false,"timing":false,"split24":false,"pps":false}
2018-01-11 19:59:08 1515718748.044315: $GPZDA,005908.73,12,01,2018,00,00*6F
2018-01-11 19:59:08 1515718748.044484: $GPGGA,005908,3946.9590,N,08404.9819,W,1,10,0.80,303.25,M,-33.324,M,,*7E
2018-01-11 19:59:08 1515718748.044550: $GPRMC,005908,A,3946.9590,N,08404.9819,W,0.5777,170.898,120118,,*31
2018-01-11 19:59:08 1515718748.044611: $GPGSA,A,3,7,8,9,11,16,23,27,28,30,138,,,4.0,0.8,3.5*3E
2018-01-11 19:59:08 1515718748.044670: $GPGBS,005908,14.62,M,24.83,M,80.38,M*05
2018-01-11 19:59:09 1515718749.103312: $GPZDA,005909.23,12,01,2018,00,00*6B
2018-01-11 19:59:09 1515718749.103482: $GPGGA,005909,3946.9586,N,08404.9820,W,1,10,0.80,304.01,M,-33.324,M,,*73
2018-01-11 19:59:09 1515718749.103549: $GPRMC,005909,A,3946.9586,N,08404.9820,W,0.2365,125.883,120118,,*37
2018-01-11 19:59:09 1515718749.103609: $GPGSA,A,3,7,8,9,11,16,23,27,28,30,138,,,4.0,0.8,3.5*3E
2018-01-11 19:59:10 1515718750.223350: $GPGSV,3,1,11,07,51,313,42,08,70,147,46,09,51,237,42,11,16,169,40*70
2018-01-11 19:59:10 1515718750.223506: $GPGSV,3,2,11,16,27,057,45,23,34,192,46,27,51,058,49,30,24,304,35*72
2018-01-11 19:59:10 1515718750.223572: $GPGSV,3,3,11,28,10,255,00,26,02,069,00,138,38,213,00*78
2018-01-11 19:59:10 1515718750.336794: $GPZDA,005910.00,12,01,2018,00,00*62
2018-01-11 19:59:10 1515718750.336931: $GPGGA,005910,3946.9586,N,08404.9820,W,1,08,0.80,304.01,M,-33.324,M,,*72
2018-01-11 19:59:10 1515718750.336997: $GPRMC,005910,A,3946.9586,N,08404.9820,W,0.0407,322.013,120118,,*3A
2018-01-11 19:59:10 1515718750.337058: $GPGSA,A,3,7,8,9,11,16,23,27,30,,,,,4.0,0.8,3.5*0E
2018-01-11 19:59:10 1515718750.787626: $GPZDA,005911.00,12,01,2018,00,00*63
2018-01-11 19:59:10 1515718750.787787: $GPGGA,005911,3946.9587,N,08404.9827,W,1,08,0.80,303.93,M,-33.324,M,,*79
2018-01-11 19:59:10 1515718750.787852: $GPRMC,005911,A,3946.9587,N,08404.9827,W,0.2172,85.763,120118,,*06
2018-01-11 19:59:10 1515718750.787914: $GPGSA,A,3,7,8,9,11,16,23,27,30,,,,,4.0,0.8,3.5*0E
2018-01-11 19:59:11 1515718751.342222: $GPZDA,005912.00,12,01,2018,00,00*60
2018-01-11 19:59:11 1515718751.342369: $GPGGA,005912,3946.9587,N,08404.9827,W,1,08,0.80,303.93,M,-33.324,M,,*7A
2018-01-11 19:59:11 1515718751.342436: $GPRMC,005912,A,3946.9587,N,08404.9827,W,0.0000,0.000,120118,,*3C
2018-01-11 19:59:11 1515718751.342496: $GPGSA,A,3,7,8,9,11,16,23,27,30,,,,,4.0,0.8,3.5*0E
2018-01-11 19:59:12 1515718752.677483: $GPGSV,3,1,11,07,51,313,42,08,70,147,46,09,51,237,42,11,16,169,40*70
2018-01-11 19:59:12 1515718752.677667: $GPGSV,3,2,11,16,27,057,46,23,34,192,47,27,51,058,50,30,24,304,35*78
2018-01-11 19:59:12 1515718752.677732: $GPGSV,3,3,11,28,10,255,24,26,02,069,00,138,38,213,00*7E
2018-01-11 19:59:12 1515718752.790973: $GPZDA,005913.00,12,01,2018,00,00*61
2018-01-11 19:59:12 1515718752.791099: $GPGGA,005913,3946.9590,N,08404.9826,W,1,09,0.80,303.17,M,-33.324,M,,*71
2018-01-11 19:59:12 1515718752.791163: $GPRMC,005913,A,3946.9590,N,08404.9826,W,0.0000,0.000,120118,,*3A
2018-01-11 19:59:12 1515718752.791223: $GPGSA,A,3,7,8,9,11,16,23,27,30,28,,,,4.0,0.8,3.5*04
2018-01-11 19:59:13 1515718753.344217: $GPZDA,005914.00,12,01,2018,00,00*66
2018-01-11 19:59:13 1515718753.344363: $GPGGA,005914,3946.9586,N,08404.9833,W,1,09,0.80,302.45,M,-33.324,M,,*73
2018-01-11 19:59:13 1515718753.344429: $GPRMC,005914,A,3946.9586,N,08404.9833,W,0.0000,0.000,120118,,*3E
2018-01-11 19:59:13 1515718753.344490: $GPGSA,A,3,7,8,9,11,16,23,27,30,28,,,,4.0,0.8,3.5*04
2018-01-11 19:59:14 1515718754.344998: $GPZDA,005915.00,12,01,2018,00,00*67
2018-01-11 19:59:14 1515718754.345224: $GPGGA,005915,3946.9586,N,08404.9833,W,1,09,0.80,302.45,M,-33.324,M,,*72
2018-01-11 19:59:14 1515718754.345294: $GPRMC,005915,A,3946.9586,N,08404.9833,W,0.0000,0.000,120118,,*3F
2018-01-11 19:59:14 1515718754.345355: $GPGSA,A,3,7,8,9,11,16,23,27,30,28,,,,4.0,0.8,3.5*04
2018-01-11 19:59:14 1515718754.345411: $GPGBS,005915,14.62,M,24.83,M,80.38,M*09
2018-01-11 19:59:15 1515718755.679444: $GPGSV,3,1,11,07,51,313,42,08,70,147,46,09,51,237,43,11,16,169,40*71
2018-01-11 19:59:15 1515718755.679624: $GPGSV,3,2,11,16,27,057,46,23,34,192,47,27,51,058,50,30,24,304,35*78
2018-01-11 19:59:15 1515718755.679691: $GPGSV,3,3,11,28,10,255,24,26,02,069,00,138,38,213,45*7F
2018-01-11 19:59:15 1515718755.792773: $GPZDA,005916.00,12,01,2018,00,00*64
2018-01-11 19:59:15 1515718755.792906: $GPGGA,005916,3946.9587,N,08404.9840,W,1,10,0.80,302.37,M,-33.324,M,,*79
2018-01-11 19:59:15 1515718755.792972: $GPRMC,005916,A,3946.9587,N,08404.9840,W,0.0000,0.000,120118,,*39
2018-01-11 19:59:15 1515718755.793032: $GPGSA,A,3,7,8,9,11,16,23,27,30,28,138,,,4.0,0.8,3.5*3E
2018-01-11 19:59:16 1515718756.342414: $GPZDA,005917.00,12,01,2018,00,00*65
2018-01-11 19:59:16 1515718756.342567: $GPGGA,005917,3946.9587,N,08404.9840,W,1,10,0.80,302.37,M,-33.324,M,,*78
2018-01-11 19:59:16 1515718756.342632: $GPRMC,005917,A,3946.9587,N,08404.9840,W,0.0000,0.000,120118,,*38
2018-01-11 19:59:16 1515718756.342692: $GPGSA,A,3,7,8,9,11,16,23,27,30,28,138,,,4.0,0.8,3.5*3E
2018-01-11 19:59:17 1515718757.344081: $GPZDA,005918.00,12,01,2018,00,00*6A
2018-01-11 19:59:17 1515718757.344248: $GPGGA,005918,3946.9587,N,08404.9840,W,1,10,0.80,302.37,M,-33.324,M,,*77
2018-01-11 19:59:17 1515718757.344315: $GPRMC,005918,A,3946.9587,N,08404.9840,W,0.0000,0.000,120118,,*37
2018-01-11 19:59:17 1515718757.344376: $GPGSA,A,3,7,8,9,11,16,23,27,30,28,138,,,4.0,0.8,3.5*3E
