2017-11-16 17:40:52 1510872052.781500: {"class":"VERSION","release":"3.17","rev":"3.17","proto_major":3,"proto_minor":12}
2017-11-16 17:40:52 1510872052.781947: {"class":"DEVICES","devices":[{"class":"DEVICE","path":"/dev/ttyUSB0","driver":"SiRF","subtype":"9\u0006GSD4e_4.1.2-P1_RPATCH.05-F-GPS-4R-1510281 11/03/2015 307","activated":"2017-11-16T22:40:52.535Z","flags":1,"native":1,"bps":4800,"parity":"N","stopbits":1,"cycle":1.00}]}
2017-11-16 17:40:52 1510872052.782059: {"class":"WATCH","enable":true,"json":false,"nmea":true,"raw":0,"scaled":false,"timing":false,"split24":false,"pps":false}
2017-11-16 17:40:53 1510872053.393373: $GPZDA,224052.00,16,11,2017,00,00*66
2017-11-16 17:40:53 1510872053.393542: $GPGGA,224052,3946.9576,N,08404.9841,W,2,12,0.80,303.26,M,-33.324,M,,*7E
2017-11-16 17:40:53 1510872053.393603: $GPRMC,224052,A,3946.9576,N,08404.9841,W,0.0000,0.000,161117,,*34
2017-11-16 17:40:53 1510872053.393658: $GPGSA,A,3,1,10,22,12,14,18,26,11,25,31,32,138,1.6,0.8,1.3*3A
2017-11-16 17:40:54 1510872054.730320: $GPGSV,3,1,12,01,22,297,35,10,44,150,46,22,22,312,43,12,20,046,50*75
2017-11-16 17:40:54 1510872054.730491: $GPGSV,3,2,12,14,68,337,47,18,15,145,38,26,05,183,27,11,07,279,40*73
2017-11-16 17:40:54 1510872054.730551: $GPGSV,3,3,12,25,40,085,49,31,59,228,46,32,67,037,50,138,38,213,45*4C
2017-11-16 17:40:54 1510872054.843705: $GPZDA,224053.00,16,11,2017,00,00*67
2017-11-16 17:40:54 1510872054.843861: $GPGGA,224053,3946.9576,N,08404.9841,W,2,12,0.80,303.26,M,-33.324,M,,*7F
2017-11-16 17:40:54 1510872054.843921: $GPRMC,224053,A,3946.9576,N,08404.9841,W,0.0000,0.000,161117,,*35
2017-11-16 17:40:54 1510872054.843977: $GPGSA,A,3,1,10,22,12,14,18,26,11,25,31,32,138,1.6,0.8,1.3*3A
2017-11-16 17:40:55 1510872055.394601: $GPZDA,224054.00,16,11,2017,00,00*60
2017-11-16 17:40:55 1510872055.394757: $GPGGA,224054,3946.9576,N,08404.9841,W,2,12,0.80,303.26,M,-33.324,M,,*78
2017-11-16 17:40:55 1510872055.394819: $GPRMC,224054,A,3946.9576,N,08404.9841,W,0.0000,0.000,161117,,*32
2017-11-16 17:40:55 1510872055.394874: $GPGSA,A,3,1,10,22,12,14,18,26,11,25,31,32,138,1.6,0.8,1.3*3A
2017-11-16 17:40:56 1510872056.393710: $GPZDA,224055.00,16,11,2017,00,00*61
2017-11-16 17:40:56 1510872056.393874: $GPGGA,224055,3946.9576,N,08404.9841,W,2,12,0.80,303.26,M,-33.324,M,,*79
2017-11-16 17:40:56 1510872056.393935: $GPRMC,224055,A,3946.9576,N,08404.9841,W,0.0000,0.000,161117,,*33
2017-11-16 17:40:56 1510872056.393990: $GPGSA,A,3,1,10,22,12,14,18,26,11,25,31,32,138,1.6,0.8,1.3*3A
2017-11-16 17:40:57 1510872057.729732: $GPGSV,3,1,12,01,22,297,36,10,44,150,46,22,22,312,43,12,20,046,49*7E
2017-11-16 17:40:57 1510872057.767922: $GPGSV,3,2,12,14,68,337,47,18,15,145,38,26,05,183,27,11,07,279,40*73
2017-11-16 17:40:57 1510872057.768055: $GPGSV,3,3,12,25,40,085,50,31,59,228,47,32,67,037,49,138,38,213,44*4C
2017-11-16 17:40:57 1510872057.842976: $GPZDA,224056.00,16,11,2017,00,00*62
2017-11-16 17:40:57 1510872057.843122: $GPGGA,224056,3946.9576,N,08404.9841,W,2,12,0.80,303.26,M,-33.324,M,,*7A
2017-11-16 17:40:57 1510872057.843181: $GPRMC,224056,A,3946.9576,N,08404.9841,W,0.0000,0.000,161117,,*30
2017-11-16 17:40:57 1510872057.843236: $GPGSA,A,3,1,10,22,12,14,18,26,11,25,31,32,138,1.6,0.8,1.3*3A
2017-11-16 17:40:58 1510872058.393670: $GPZDA,224057.00,16,11,2017,00,00*63
2017-11-16 17:40:58 1510872058.393832: $GPGGA,224057,3946.9576,N,08404.9841,W,2,12,0.80,303.26,M,-33.324,M,,*7B
2017-11-16 17:40:58 1510872058.393892: $GPRMC,224057,A,3946.9576,N,08404.9841,W,0.0000,0.000,161117,,*31
2017-11-16 17:40:58 1510872058.393948: $GPGSA,A,3,1,10,22,12,14,18,26,11,25,31,32,138,1.6,0.8,1.3*3A
2017-11-16 17:40:59 1510872059.415853: $GPZDA,224058.00,16,11,2017,00,00*6C
2017-11-16 17:40:59 1510872059.416012: $GPGGA,224058,3946.9579,N,08404.9841,W,2,12,0.80,302.49,M,-33.324,M,,*73
2017-11-16 17:40:59 1510872059.416072: $GPRMC,224058,A,3946.9579,N,08404.9841,W,0.0000,0.000,161117,,*31
2017-11-16 17:40:59 1510872059.416127: $GPGSA,A,3,1,10,22,12,14,18,26,11,25,31,32,138,1.6,0.8,1.3*3A
2017-11-16 17:41:00 1510872060.730275: $GPGSV,3,1,12,01,22,297,37,10,44,150,46,22,22,312,43,12,20,046,49*7F
2017-11-16 17:41:00 1510872060.730495: $GPGSV,3,2,12,14,68,337,47,18,15,145,38,26,05,183,26,11,07,279,39*7C
2017-11-16 17:41:00 1510872060.730557: $GPGSV,3,3,12,25,40,085,49,31,59,228,47,32,67,037,49,138,38,213,44*44
2017-11-16 17:41:00 1510872060.843637: $GPZDA,224059.00,16,11,2017,00,00*6D
2017-11-16 17:41:00 1510872060.843817: $GPGGA,224059,3946.9579,N,08404.9841,W,2,12,0.80,302.49,M,-33.324,M,,*72
2017-11-16 17:41:00 1510872060.843878: $GPRMC,224059,A,3946.9579,N,08404.9841,W,0.0000,0.000,161117,,*30
2017-11-16 17:41:00 1510872060.843934: $GPGSA,A,3,1,10,22,12,14,18,26,11,25,31,32,138,1.6,0.8,1.3*3A
2017-11-16 17:41:01 1510872061.999021: $GPZDA,224100.00,16,11,2017,00,00*60
