2017-12-01 18:30:48 1512171048.736884: {"class":"VERSION","release":"3.16","rev":"3.16-4","proto_major":3,"proto_minor":11}
2017-12-01 18:30:48 1512171048.737272: {"class":"DEVICES","devices":[{"class":"DEVICE","path":"/dev/ttyUSB0","driver":"SiRF","subtype":"9\u0006GSD4e_4.1.2-P1_RPATCH.05-F-GPS-4R-1510281 11/03/2015 307","activated":"2017-12-01T23:30:48.428Z","flags":1,"native":1,"bps":4800,"parity":"N","stopbits":1,"cycle":1.00}]}
2017-12-01 18:30:48 1512171048.737393: {"class":"WATCH","enable":true,"json":false,"nmea":true,"raw":0,"scaled":false,"timing":false,"split24":false,"pps":false}
2017-12-01 18:30:49 1512171049.032561: $GPZDA,233049.70,01,12,2017,00,00*68
2017-12-01 18:30:49 1512171049.032740: $GPGGA,233049,3946.9737,N,08404.9844,W,1,12,0.80,294.02,M,-33.325,M,,*7B
2017-12-01 18:30:49 1512171049.032807: $GPRMC,233049,A,3946.9737,N,08404.9844,W,0.2959,54.767,011217,,*0F
2017-12-01 18:30:49 1512171049.032868: $GPGSA,A,3,1,3,14,16,22,23,25,26,31,32,29,138,2.0,0.8,1.5*0C
2017-12-01 18:30:50 1512171050.113925: $GPZDA,233050.39,01,12,2017,00,00*6D
2017-12-01 18:30:50 1512171050.114101: $GPGGA,233050,3946.9737,N,08404.9844,W,1,12,0.80,294.02,M,-33.325,M,,*73
2017-12-01 18:30:50 1512171050.114167: $GPRMC,233050,A,3946.9737,N,08404.9844,W,0.2959,54.767,011217,,*07
2017-12-01 18:30:50 1512171050.114228: $GPGSA,A,3,1,3,14,16,22,23,25,26,31,32,29,138,2.0,0.8,1.5*0C
2017-12-01 18:30:50 1512171050.114287: $GPGBS,233050,10.70,M,15.43,M,35.28,M*00
2017-12-01 18:30:51 1512171051.346555: $GPGSV,3,1,12,03,42,295,47,14,53,096,44,16,27,190,44,22,50,265,45*73
2017-12-01 18:30:51 1512171051.346731: $GPGSV,3,2,12,23,14,301,41,25,15,039,40,26,57,169,46,31,64,031,47*7E
2017-12-01 18:30:51 1512171051.346797: $GPGSV,3,3,12,32,33,111,43,01,04,250,08,29,12,069,00,138,38,213,24*47
2017-12-01 18:30:51 1512171051.459864: $GPZDA,233051.00,01,12,2017,00,00*66
2017-12-01 18:30:51 1512171051.460022: $GPGGA,233051,3946.9733,N,08404.9844,W,1,10,0.80,293.38,M,-33.325,M,,*7A
2017-12-01 18:30:51 1512171051.460091: $GPRMC,233051,A,3946.9733,N,08404.9844,W,0.2422,93.794,011217,,*04
2017-12-01 18:30:51 1512171051.460154: $GPGSA,A,3,3,14,16,22,23,25,26,31,32,138,,,2.0,0.8,1.5*36
2017-12-01 18:30:51 1512171051.910785: $GPZDA,233052.00,01,12,2017,00,00*65
2017-12-01 18:30:51 1512171051.910956: $GPGGA,233052,3946.9733,N,08404.9844,W,1,10,0.80,293.38,M,-33.325,M,,*79
2017-12-01 18:30:51 1512171051.911023: $GPRMC,233052,A,3946.9733,N,08404.9844,W,0.0407,322.012,011217,,*32
2017-12-01 18:30:51 1512171051.911085: $GPGSA,A,3,3,14,16,22,23,25,26,31,32,138,,,2.0,0.8,1.5*36
2017-12-01 18:30:52 1512171052.424152: $GPZDA,233053.00,01,12,2017,00,00*64
2017-12-01 18:30:52 1512171052.424322: $GPGGA,233053,3946.9733,N,08404.9844,W,1,10,0.80,293.38,M,-33.325,M,,*78
2017-12-01 18:30:52 1512171052.424391: $GPRMC,233053,A,3946.9733,N,08404.9844,W,0.0000,0.000,011217,,*30
2017-12-01 18:30:52 1512171052.424452: $GPGSA,A,3,3,14,16,22,23,25,26,31,32,138,,,2.0,0.8,1.5*36
2017-12-01 18:30:53 1512171053.760571: $GPGSV,3,1,12,03,42,295,48,14,53,096,43,16,27,190,44,22,50,265,45*7B
2017-12-01 18:30:53 1512171053.760771: $GPGSV,3,2,12,23,14,301,41,25,15,039,40,26,57,169,47,31,64,031,47*7F
2017-12-01 18:30:53 1512171053.760861: $GPGSV,3,3,12,32,33,111,43,01,04,250,25,29,12,069,00,138,38,213,46*4C
2017-12-01 18:30:53 1512171053.874327: $GPZDA,233054.00,01,12,2017,00,00*63
2017-12-01 18:30:53 1512171053.874510: $GPGGA,233054,3946.9733,N,08404.9844,W,1,11,0.80,293.38,M,-33.325,M,,*7E
2017-12-01 18:30:53 1512171053.874582: $GPRMC,233054,A,3946.9733,N,08404.9844,W,0.0000,0.000,011217,,*37
2017-12-01 18:30:53 1512171053.874648: $GPGSA,A,3,3,14,16,22,23,25,26,31,32,1,138,,2.0,0.8,1.5*07
2017-12-01 18:30:54 1512171054.424906: $GPZDA,233055.00,01,12,2017,00,00*62
2017-12-01 18:30:54 1512171054.425077: $GPGGA,233055,3946.9733,N,08404.9844,W,1,11,0.80,293.38,M,-33.325,M,,*7F
2017-12-01 18:30:54 1512171054.425146: $GPRMC,233055,A,3946.9733,N,08404.9844,W,0.0000,0.000,011217,,*36
2017-12-01 18:30:54 1512171054.425207: $GPGSA,A,3,3,14,16,22,23,25,26,31,32,1,138,,2.0,0.8,1.5*07
2017-12-01 18:30:55 1512171055.423125: $GPZDA,233056.00,01,12,2017,00,00*61
2017-12-01 18:30:55 1512171055.423297: $GPGGA,233056,3946.9733,N,08404.9844,W,1,11,0.80,293.38,M,-33.325,M,,*7C
2017-12-01 18:30:55 1512171055.423365: $GPRMC,233056,A,3946.9733,N,08404.9844,W,0.0000,0.000,011217,,*35
2017-12-01 18:30:55 1512171055.423426: $GPGSA,A,3,3,14,16,22,23,25,26,31,32,1,138,,2.0,0.8,1.5*07
2017-12-01 18:30:55 1512171055.423487: $GPGBS,233056,10.70,M,15.43,M,35.28,M*06
2017-12-01 18:30:56 1512171056.763911: $GPGSV,3,1,12,03,42,295,48,14,53,096,43,16,27,190,44,22,50,265,44*7A
2017-12-01 18:30:56 1512171056.764106: $GPGSV,3,2,12,23,14,301,42,25,15,039,40,26,57,169,47,31,64,031,46*7D
2017-12-01 18:30:56 1512171056.764175: $GPGSV,3,3,12,32,33,111,39,01,04,250,24,29,12,069,01,138,38,213,46*41
2017-12-01 18:30:56 1512171056.875917: $GPZDA,233057.00,01,12,2017,00,00*60
2017-12-01 18:30:56 1512171056.876090: $GPGGA,233057,3946.9733,N,08404.9844,W,1,11,0.80,293.38,M,-33.325,M,,*7D
2017-12-01 18:30:56 1512171056.876157: $GPRMC,233057,A,3946.9733,N,08404.9844,W,0.0000,0.000,011217,,*34
2017-12-01 18:30:56 1512171056.876219: $GPGSA,A,3,3,14,16,22,23,25,26,31,32,1,138,,2.0,0.8,1.5*07
2017-12-01 18:30:57 1512171057.425909: $GPZDA,233058.00,01,12,2017,00,00*6F
2017-12-01 18:30:57 1512171057.426081: $GPGGA,233058,3946.9733,N,08404.9844,W,1,11,0.80,293.38,M,-33.325,M,,*72
2017-12-01 18:30:57 1512171057.426148: $GPRMC,233058,A,3946.9733,N,08404.9844,W,0.0000,0.000,011217,,*3B
2017-12-01 18:30:57 1512171057.426210: $GPGSA,A,3,3,14,16,22,23,25,26,31,32,1,138,,2.0,0.8,1.5*07
2017-12-01 18:30:58 1512171058.428891: $GPZDA,233059.00,01,12,2017,00,00*6E
2017-12-01 18:30:58 1512171058.429069: $GPGGA,233059,3946.9729,N,08404.9844,W,2,11,2.20,292.74,M,-33.325,M,,*7A
2017-12-01 18:30:58 1512171058.429136: $GPRMC,233059,A,3946.9729,N,08404.9844,W,0.0000,0.000,011217,,*31
2017-12-01 18:30:58 1512171058.429197: $GPGSA,A,3,3,14,16,22,23,25,26,31,32,1,138,,2.0,2.2,1.5*0F
2017-12-01 18:30:59 1512171059.765376: $GPGSV,3,1,12,03,42,295,48,14,53,096,44,16,27,190,44,22,50,265,44*7D
2017-12-01 18:30:59 1512171059.765566: $GPGSV,3,2,12,23,14,301,42,25,15,039,40,26,57,169,47,31,64,031,46*7D
2017-12-01 18:30:59 1512171059.765634: $GPGSV,3,3,12,32,33,111,40,01,04,250,12,29,12,069,18,138,38,213,46*42
2017-12-01 18:30:59 1512171059.879063: $GPZDA,233100.00,01,12,2017,00,00*63
2017-12-01 18:30:59 1512171059.879203: $GPGGA,233100,3946.9729,N,08404.9844,W,2,11,0.80,292.74,M,-33.325,M,,*7F
2017-12-01 18:30:59 1512171059.879268: $GPRMC,233100,A,3946.9729,N,08404.9844,W,0.0000,0.000,011217,,*3C
2017-12-01 18:30:59 1512171059.879329: $GPGSA,A,3,3,14,16,22,23,25,26,31,32,29,138,,2.0,0.8,1.5*3D
2017-12-01 18:31:00 1512171060.425970: $GPZDA,233101.00,01,12,2017,00,00*62
2017-12-01 18:31:00 1512171060.426134: $GPGGA,233101,3946.9729,N,08404.9844,W,2,11,0.80,292.74,M,-33.325,M,,*7E
2017-12-01 18:31:00 1512171060.426201: $GPRMC,233101,A,3946.9729,N,08404.9844,W,0.0000,0.000,011217,,*3D
2017-12-01 18:31:00 1512171060.426261: $GPGSA,A,3,3,14,16,22,23,25,26,31,32,29,138,,2.0,0.8,1.5*3D
2017-12-01 18:31:01 1512171061.430881: $GPZDA,233102.00,01,12,2017,00,00*61
2017-12-01 18:31:01 1512171061.431055: $GPGGA,233102,3946.9729,N,08404.9844,W,2,11,0.80,292.74,M,-33.325,M,,*7D
2017-12-01 18:31:01 1512171061.431123: $GPRMC,233102,A,3946.9729,N,08404.9844,W,0.0000,0.000,011217,,*3E
2017-12-01 18:31:01 1512171061.431185: $GPGSA,A,3,3,14,16,22,23,25,26,31,32,29,138,,2.0,0.8,1.5*3D
2017-12-01 18:31:02 1512171062.766524: $GPGSV,3,1,12,03,42,295,48,14,53,096,43,16,27,190,44,22,50,265,44*7A
2017-12-01 18:31:02 1512171062.766719: $GPGSV,3,2,12,23,14,301,42,25,15,039,40,26,57,169,47,31,64,031,46*7D
2017-12-01 18:31:02 1512171062.766786: $GPGSV,3,3,12,32,33,111,40,01,04,250,25,29,12,069,18,138,38,213,46*46
2017-12-01 18:31:02 1512171062.879900: $GPZDA,233103.00,01,12,2017,00,00*60
2017-12-01 18:31:02 1512171062.880068: $GPGGA,233103,3946.9729,N,08404.9844,W,2,12,0.80,292.74,M,-33.325,M,,*7F
2017-12-01 18:31:02 1512171062.880134: $GPRMC,233103,A,3946.9729,N,08404.9844,W,0.0000,0.000,011217,,*3F
2017-12-01 18:31:02 1512171062.880244: $GPGSA,A,3,3,14,16,22,23,25,26,31,32,1,29,138,2.0,0.8,1.5*0C
2017-12-01 18:31:03 1512171063.505031: $GPZDA,233104.00,01,12,2017,00,00*67
2017-12-01 18:31:03 1512171063.505211: $GPGGA,233104,3946.9729,N,08404.9844,W,2,12,0.80,292.74,M,-33.325,M,,*78
2017-12-01 18:31:03 1512171063.505281: $GPRMC,233104,A,3946.9729,N,08404.9844,W,0.0000,0.000,011217,,*38
2017-12-01 18:31:03 1512171063.505342: $GPGSA,A,3,3,14,16,22,23,25,26,31,32,1,29,138,2.0,0.8,1.5*0C
2017-12-01 18:31:04 1512171064.423404: $GPZDA,233105.00,01,12,2017,00,00*66
2017-12-01 18:31:04 1512171064.423581: $GPGGA,233105,3946.9729,N,08404.9844,W,2,12,0.80,292.74,M,-33.325,M,,*79
2017-12-01 18:31:04 1512171064.423650: $GPRMC,233105,A,3946.9729,N,08404.9844,W,0.0000,0.000,011217,,*39
2017-12-01 18:31:04 1512171064.423711: $GPGSA,A,3,3,14,16,22,23,25,26,31,32,1,29,138,2.0,0.8,1.5*0C
2017-12-01 18:31:05 1512171065.757844: $GPGSV,3,1,12,03,42,295,48,14,53,096,43,16,27,190,43,22,50,265,44*7D
2017-12-01 18:31:05 1512171065.758027: $GPGSV,3,2,12,23,14,301,42,25,15,039,41,26,57,169,46,31,64,031,46*7D
2017-12-01 18:31:05 1512171065.758094: $GPGSV,3,3,12,32,33,111,40,01,04,250,20,29,12,069,17,138,38,213,47*4D
2017-12-01 18:31:05 1512171065.871172: $GPZDA,233106.00,01,12,2017,00,00*65
2017-12-01 18:31:05 1512171065.871314: $GPGGA,233106,3946.9721,N,08404.9851,W,2,11,0.80,292.79,M,-33.325,M,,*78
2017-12-01 18:31:05 1512171065.871445: $GPRMC,233106,A,3946.9721,N,08404.9851,W,0.2422,93.794,011217,,*00
2017-12-01 18:31:05 1512171065.871513: $GPGSA,A,3,3,14,16,22,23,25,26,31,32,1,138,,2.0,0.8,1.5*07
2017-12-01 18:31:06 1512171066.423522: $GPZDA,233107.00,01,12,2017,00,00*64
2017-12-01 18:31:06 1512171066.423677: $GPGGA,233107,3946.9721,N,08404.9851,W,2,11,0.80,292.79,M,-33.325,M,,*79
2017-12-01 18:31:06 1512171066.423746: $GPRMC,233107,A,3946.9721,N,08404.9851,W,0.0000,0.000,011217,,*37
2017-12-01 18:31:06 1512171066.423807: $GPGSA,A,3,3,14,16,22,23,25,26,31,32,1,138,,2.0,0.8,1.5*07
2017-12-01 18:31:07 1512171067.425489: $GPZDA,233108.00,01,12,2017,00,00*6B
2017-12-01 18:31:07 1512171067.425660: $GPGGA,233108,3946.9721,N,08404.9851,W,2,11,0.80,292.79,M,-33.325,M,,*76
2017-12-01 18:31:07 1512171067.425728: $GPRMC,233108,A,3946.9721,N,08404.9851,W,0.0000,0.000,011217,,*38
2017-12-01 18:31:07 1512171067.425790: $GPGSA,A,3,3,14,16,22,23,25,26,31,32,1,138,,2.0,0.8,1.5*07
2017-12-01 18:31:07 1512171067.425849: $GPGBS,233108,2.67,M,3.86,M,8.82,M*39
