2017-11-16 15:13:50 1510863230.305878: {"class":"VERSION","release":"3.17","rev":"3.17","proto_major":3,"proto_minor":12}
2017-11-16 15:13:50 1510863230.306483: {"class":"DEVICES","devices":[{"class":"DEVICE","path":"/dev/ttyUSB0","driver":"SiRF","subtype":"9\u0006GSD4e_4.1.2-P1_RPATCH.05-F-GPS-4R-1510281 11/03/2015 307","activated":"2017-11-16T20:13:50.263Z","flags":1,"native":1,"bps":4800,"parity":"N","stopbits":1,"cycle":1.00}]}
2017-11-16 15:13:50 1510863230.306604: {"class":"WATCH","enable":true,"json":false,"nmea":true,"raw":0,"scaled":false,"timing":false,"split24":false,"pps":false}
2017-11-16 15:13:50 1510863230.376543: $GPZDA,201349.00,16,11,2017,00,00*68
2017-11-16 15:13:50 1510863230.376702: $GPGGA,201349,3946.9579,N,08404.9847,W,2,12,0.80,301.01,M,-33.324,M,,*7E
2017-11-16 15:13:50 1510863230.376763: $GPRMC,201349,A,3946.9579,N,08404.9847,W,0.0000,0.000,161117,,*33
2017-11-16 15:13:50 1510863230.376819: $GPGSA,A,3,8,10,14,15,18,20,21,24,27,32,12,138,1.6,0.8,1.3*34
2017-11-16 15:13:51 1510863231.398118: $GPZDA,201350.00,16,11,2017,00,00*60
2017-11-16 15:13:51 1510863231.398304: $GPGGA,201350,3946.9579,N,08404.9847,W,2,12,0.80,301.01,M,-33.324,M,,*76
2017-11-16 15:13:51 1510863231.398367: $GPRMC,201350,A,3946.9579,N,08404.9847,W,0.0000,0.000,161117,,*3B
2017-11-16 15:13:51 1510863231.398445: $GPGSA,A,3,8,10,14,15,18,20,21,24,27,32,12,138,1.6,0.8,1.3*34
2017-11-16 15:13:52 1510863232.735151: $GPGSV,3,1,12,08,07,298,21,10,64,324,51,14,25,249,45,15,15,064,34*7C
2017-11-16 15:13:52 1510863232.735388: $GPGSV,3,2,12,18,74,079,47,20,12,115,28,21,35,180,44,24,48,064,50*73
2017-11-16 15:13:52 1510863232.735452: $GPGSV,3,3,12,27,09,264,42,32,42,259,48,12,06,111,27,138,38,213,44*45
2017-11-16 15:13:52 1510863232.848420: $GPZDA,201351.00,16,11,2017,00,00*61
2017-11-16 15:13:52 1510863232.848579: $GPGGA,201351,3946.9579,N,08404.9847,W,2,12,0.80,301.01,M,-33.324,M,,*77
2017-11-16 15:13:52 1510863232.848640: $GPRMC,201351,A,3946.9579,N,08404.9847,W,0.0000,0.000,161117,,*3A
2017-11-16 15:13:52 1510863232.848696: $GPGSA,A,3,8,10,14,15,18,20,21,24,27,32,12,138,1.6,0.8,1.3*34
2017-11-16 15:13:53 1510863233.383431: $GPZDA,201352.00,16,11,2017,00,00*62
2017-11-16 15:13:53 1510863233.383591: $GPGGA,201352,3946.9579,N,08404.9847,W,2,12,0.80,301.01,M,-33.324,M,,*74
2017-11-16 15:13:53 1510863233.383652: $GPRMC,201352,A,3946.9579,N,08404.9847,W,0.0000,0.000,161117,,*39
2017-11-16 15:13:53 1510863233.383708: $GPGSA,A,3,8,10,14,15,18,20,21,24,27,32,12,138,1.6,0.8,1.3*34
2017-11-16 15:13:54 1510863234.398841: $GPZDA,201353.00,16,11,2017,00,00*63
2017-11-16 15:13:54 1510863234.399001: $GPGGA,201353,3946.9579,N,08404.9847,W,2,12,0.80,301.01,M,-33.324,M,,*75
2017-11-16 15:13:54 1510863234.399062: $GPRMC,201353,A,3946.9579,N,08404.9847,W,0.0000,0.000,161117,,*38
2017-11-16 15:13:54 1510863234.399118: $GPGSA,A,3,8,10,14,15,18,20,21,24,27,32,12,138,1.6,0.8,1.3*34
2017-11-16 15:13:55 1510863235.735941: $GPGSV,3,1,12,08,07,298,21,10,64,324,51,14,25,249,45,15,15,064,34*7C
2017-11-16 15:13:55 1510863235.736144: $GPGSV,3,2,12,18,74,079,46,20,12,115,28,21,35,180,44,24,48,064,50*72
2017-11-16 15:13:55 1510863235.736233: $GPGSV,3,3,12,27,09,264,42,32,42,259,48,12,06,111,27,138,38,213,42*43
2017-11-16 15:13:55 1510863235.849672: $GPZDA,201354.00,16,11,2017,00,00*64
2017-11-16 15:13:55 1510863235.849839: $GPGGA,201354,3946.9579,N,08404.9847,W,2,12,0.80,301.01,M,-33.324,M,,*72
2017-11-16 15:13:55 1510863235.849901: $GPRMC,201354,A,3946.9579,N,08404.9847,W,0.0000,0.000,161117,,*3F
2017-11-16 15:13:55 1510863235.849958: $GPGSA,A,3,8,10,14,15,18,20,21,24,27,32,12,138,1.6,0.8,1.3*34
2017-11-16 15:13:56 1510863236.474555: $GPZDA,201355.00,16,11,2017,00,00*65
2017-11-16 15:13:56 1510863236.474719: $GPGGA,201355,3946.9579,N,08404.9847,W,2,12,0.80,301.01,M,-33.324,M,,*73
2017-11-16 15:13:56 1510863236.474781: $GPRMC,201355,A,3946.9579,N,08404.9847,W,0.0000,0.000,161117,,*3E
2017-11-16 15:13:56 1510863236.474837: $GPGSA,A,3,8,10,14,15,18,20,21,24,27,32,12,138,1.6,0.8,1.3*34
2017-11-16 15:13:57 1510863237.382852: $GPZDA,201356.00,16,11,2017,00,00*66
2017-11-16 15:13:57 1510863237.383088: $GPGGA,201356,3946.9579,N,08404.9847,W,2,12,0.80,301.01,M,-33.324,M,,*70
2017-11-16 15:13:57 1510863237.383174: $GPRMC,201356,A,3946.9579,N,08404.9847,W,0.0000,0.000,161117,,*3D
2017-11-16 15:13:57 1510863237.383233: $GPGSA,A,3,8,10,14,15,18,20,21,24,27,32,12,138,1.6,0.8,1.3*34
2017-11-16 15:13:58 1510863238.734928: $GPGSV,3,1,12,08,07,298,21,10,64,324,51,14,25,249,45,15,15,064,35*7D
2017-11-16 15:13:58 1510863238.735236: $GPGSV,3,2,12,18,74,079,47,20,12,115,28,21,35,180,44,24,48,064,49*7B
2017-11-16 15:13:58 1510863238.735355: $GPGSV,3,3,12,27,09,264,42,32,42,259,48,12,06,111,28,138,38,213,43*4D
2017-11-16 15:13:58 1510863238.848167: $GPZDA,201357.00,16,11,2017,00,00*67
2017-11-16 15:13:58 1510863238.848323: $GPGGA,201357,3946.9579,N,08404.9847,W,2,12,0.80,301.01,M,-33.324,M,,*71
2017-11-16 15:13:58 1510863238.848384: $GPRMC,201357,A,3946.9579,N,08404.9847,W,0.0000,0.000,161117,,*3C
2017-11-16 15:13:58 1510863238.848440: $GPGSA,A,3,8,10,14,15,18,20,21,24,27,32,12,138,1.6,0.8,1.3*34
2017-11-16 15:13:59 1510863239.399382: $GPZDA,201358.00,16,11,2017,00,00*68
2017-11-16 15:13:59 1510863239.399566: $GPGGA,201358,3946.9579,N,08404.9847,W,2,12,0.80,301.01,M,-33.324,M,,*7E
2017-11-16 15:13:59 1510863239.399652: $GPRMC,201358,A,3946.9579,N,08404.9847,W,0.0000,0.000,161117,,*33
2017-11-16 15:13:59 1510863239.399720: $GPGSA,A,3,8,10,14,15,18,20,21,24,27,32,12,138,1.6,0.8,1.3*34
