2017-11-15 19:24:50 1510791890.292161: {"class":"VERSION","release":"3.17","rev":"3.17","proto_major":3,"proto_minor":12}
2017-11-15 19:24:50 1510791890.292629: {"class":"DEVICES","devices":[{"class":"DEVICE","path":"/dev/ttyUSB0","driver":"SiRF","subtype":"9\u0006GSD4e_4.1.2-P1_RPATCH.05-F-GPS-4R-1510281 11/03/2015 307","activated":"2017-11-16T00:24:50.235Z","flags":1,"native":1,"bps":4800,"parity":"N","stopbits":1,"cycle":1.00}]}
2017-11-15 19:24:50 1510791890.292753: {"class":"WATCH","enable":true,"json":false,"nmea":true,"raw":0,"scaled":false,"timing":false,"split24":false,"pps":false}
2017-11-15 19:24:50 1510791890.348261: $GPZDA,002449.00,16,11,2017,00,00*6E
2017-11-15 19:24:50 1510791890.348443: $GPGGA,002449,3946.9641,N,08404.9542,W,1,06,1.60,305.98,M,-33.324,M,,*75
2017-11-15 19:24:50 1510791890.348507: $GPRMC,002449,A,3946.9641,N,08404.9542,W,0.3423,4.197,161117,,*38
2017-11-15 19:24:50 1510791890.348567: $GPGSA,A,3,32,31,26,29,22,3,,,,,,,3.4,1.6,2.9*06
2017-11-15 19:24:51 1510791891.667349: $GPGSV,3,1,12,32,38,105,26,31,70,021,22,16,20,190,18,26,50,174,27*76
2017-11-15 19:24:51 1510791891.667521: $GPGSV,3,2,12,14,57,088,15,29,10,073,08,22,50,274,14,03,38,301,19*7D
2017-11-15 19:24:51 1510791891.667584: $GPGSV,3,3,12,25,19,040,14,23,09,300,00,01,07,255,00,135,23,238,00*44
2017-11-15 19:24:51 1510791891.779375: $GPZDA,002450.00,16,11,2017,00,00*66
2017-11-15 19:24:51 1510791891.779557: $GPGGA,002450,3946.9641,N,08404.9542,W,1,07,1.40,305.98,M,-33.324,M,,*7E
2017-11-15 19:24:51 1510791891.779618: $GPRMC,002450,A,3946.9641,N,08404.9542,W,0.7278,23.636,161117,,*05
2017-11-15 19:24:51 1510791891.779690: $GPGSA,A,3,32,31,16,26,29,22,3,,,,,,3.4,1.4,2.9*03
2017-11-15 19:24:52 1510791892.346467: $GPZDA,002451.00,16,11,2017,00,00*67
2017-11-15 19:24:52 1510791892.346664: $GPGGA,002451,3946.9644,N,08404.9541,W,1,07,1.60,305.22,M,-33.324,M,,*7A
2017-11-15 19:24:52 1510791892.346784: $GPRMC,002451,A,3946.9644,N,08404.9541,W,0.6846,4.197,161117,,*3D
2017-11-15 19:24:52 1510791892.346842: $GPGSA,A,3,32,31,16,26,29,22,3,,,,,,3.4,1.6,2.9*01
2017-11-15 19:24:53 1510791893.348997: $GPZDA,002452.00,16,11,2017,00,00*64
2017-11-15 19:24:53 1510791893.349159: $GPGGA,002452,3946.9644,N,08404.9541,W,1,07,1.40,305.22,M,-33.324,M,,*7B
2017-11-15 19:24:53 1510791893.349220: $GPRMC,002452,A,3946.9644,N,08404.9541,W,1.0269,4.197,161117,,*3E
2017-11-15 19:24:53 1510791893.349275: $GPGSA,A,3,32,31,16,26,29,22,3,,,,,,3.4,1.4,2.9*03
2017-11-15 19:24:54 1510791894.683259: $GPGSV,3,1,12,32,38,105,26,31,70,021,22,16,20,190,18,26,50,174,28*79
2017-11-15 19:24:54 1510791894.885209: $GPGSV,3,2,12,14,57,088,00,29,10,073,09,22,50,274,15,03,38,301,19*79
2017-11-15 19:24:54 1510791894.885345: $GPGSV,3,3,12,25,19,040,12,23,09,300,00,01,07,255,00,135,23,238,00*42
2017-11-15 19:24:54 1510791894.885438: $GPZDA,002453.00,16,11,2017,00,00*65
2017-11-15 19:24:54 1510791894.885489: $GPGGA,002453,3946.9648,N,08404.9540,W,1,07,1.60,304.45,M,-33.324,M,,*75
2017-11-15 19:24:54 1510791894.885568: $GPRMC,002453,A,3946.9648,N,08404.9540,W,0.9019,18.875,161117,,*07
2017-11-15 19:24:54 1510791894.885623: $GPGSA,A,3,32,31,16,26,29,22,3,,,,,,3.4,1.6,2.9*01
2017-11-15 19:24:55 1510791895.347568: $GPZDA,002454.00,16,11,2017,00,00*62
2017-11-15 19:24:55 1510791895.347750: $GPGGA,002454,3946.9651,N,08404.9539,W,1,07,1.60,303.69,M,-33.324,M,,*7D
2017-11-15 19:24:55 1510791895.347811: $GPRMC,002454,A,3946.9651,N,08404.9539,W,1.2361,14.852,161117,,*09
2017-11-15 19:24:55 1510791895.347867: $GPGSA,A,3,32,31,16,26,29,22,3,,,,,,3.4,1.6,2.9*01
2017-11-15 19:24:56 1510791896.329312: $GPZDA,002455.00,16,11,2017,00,00*63
2017-11-15 19:24:56 1510791896.329646: $GPGGA,002455,3946.9651,N,08404.9539,W,1,07,1.60,303.69,M,-33.324,M,,*7C
2017-11-15 19:24:56 1510791896.329751: $GPRMC,002455,A,3946.9651,N,08404.9539,W,1.2132,3.551,161117,,*34
2017-11-15 19:24:56 1510791896.329873: $GPGSA,A,3,32,31,16,26,29,22,3,,,,,,3.4,1.6,2.9*01
2017-11-15 19:24:57 1510791897.664722: $GPGSV,3,1,12,32,38,105,27,31,70,021,23,16,20,190,17,26,50,174,28*76
2017-11-15 19:24:57 1510791897.664900: $GPGSV,3,2,12,14,57,088,17,25,19,040,00,22,50,274,14,03,38,301,18*73
2017-11-15 19:24:57 1510791897.665014: $GPGSV,3,3,12,29,10,073,00,23,09,300,00,01,07,255,00,135,23,238,00*44
2017-11-15 19:24:57 1510791897.778101: $GPZDA,002456.00,16,11,2017,00,00*60
2017-11-15 19:24:57 1510791897.778268: $GPGGA,002456,3946.9650,N,08404.9539,W,1,07,1.40,302.28,M,-33.324,M,,*78
2017-11-15 19:24:57 1510791897.778329: $GPRMC,002456,A,3946.9650,N,08404.9539,W,0.6846,4.197,161117,,*30
2017-11-15 19:24:57 1510791897.778385: $GPGSA,A,3,32,31,16,26,14,22,3,,,,,,3.4,1.4,2.9*0D
2017-11-15 19:24:58 1510791898.329342: $GPZDA,002457.00,16,11,2017,00,00*61
2017-11-15 19:24:58 1510791898.329525: $GPGGA,002457,3946.9654,N,08404.9538,W,1,07,1.40,301.52,M,-33.324,M,,*72
2017-11-15 19:24:58 1510791898.329588: $GPRMC,002457,A,3946.9654,N,08404.9538,W,0.9019,18.875,161117,,*01
2017-11-15 19:24:58 1510791898.329673: $GPGSA,A,3,32,31,16,26,14,22,3,,,,,,3.4,1.4,2.9*0D
2017-11-15 19:24:59 1510791899.329374: $GPZDA,002458.00,16,11,2017,00,00*6E
2017-11-15 19:24:59 1510791899.329556: $GPGGA,002458,3946.9654,N,08404.9531,W,1,07,1.40,301.60,M,-33.324,M,,*75
2017-11-15 19:24:59 1510791899.329646: $GPRMC,002458,A,3946.9654,N,08404.9531,W,1.2361,14.852,161117,,*08
2017-11-15 19:24:59 1510791899.329704: $GPGSA,A,3,32,31,16,26,14,22,3,,,,,,3.4,1.4,2.9*0D
