2018-01-11 20:26:01 1515720361.076031: {"class":"VERSION","release":"3.16","rev":"3.16-4","proto_major":3,"proto_minor":11}
2018-01-11 20:26:01 1515720361.076489: {"class":"DEVICES","devices":[{"class":"DEVICE","path":"/dev/ttyUSB0","driver":"SiRF","subtype":"9\u0006GSD4e_4.1.2-P1_RPATCH.05-F-GPS-4R-1510281 11/03/2015 307","activated":"2018-01-12T01:26:01.047Z","flags":1,"native":1,"bps":4800,"parity":"N","stopbits":1,"cycle":1.00}]}
2018-01-11 20:26:01 1515720361.076614: {"class":"WATCH","enable":true,"json":false,"nmea":true,"raw":0,"scaled":false,"timing":false,"split24":false,"pps":false}
2018-01-11 20:26:01 1515720361.161128: $GPZDA,012601.85,12,01,2018,00,00*66
2018-01-11 20:26:01 1515720361.161300: $GPGGA,012601,3946.9551,N,08404.9815,W,1,11,1.00,302.54,M,-33.324,M,,*70
2018-01-11 20:26:01 1515720361.161366: $GPRMC,012601,A,3946.9551,N,08404.9815,W,0.1977,122.604,120118,,*36
2018-01-11 20:26:01 1515720361.161427: $GPGSA,A,3,7,8,9,11,16,23,27,30,28,1,138,,4.0,1.0,3.5*06
2018-01-11 20:26:02 1515720362.219011: $GPZDA,012602.35,12,01,2018,00,00*6E
2018-01-11 20:26:02 1515720362.219228: $GPGGA,012602,3946.9555,N,08404.9821,W,1,11,1.00,301.70,M,-33.324,M,,*75
2018-01-11 20:26:02 1515720362.219295: $GPRMC,012602,A,3946.9555,N,08404.9821,W,0.3423,184.197,120118,,*39
2018-01-11 20:26:02 1515720362.219356: $GPGSA,A,3,7,8,9,11,16,23,27,30,28,1,138,,4.0,1.0,3.5*06
2018-01-11 20:26:02 1515720362.219413: $GPGBS,012602,14.62,M,24.83,M,80.38,M*06
2018-01-11 20:26:03 1515720363.338762: $GPGSV,3,1,11,07,62,316,45,08,75,102,46,09,42,222,42,11,26,165,47*78
2018-01-11 20:26:03 1515720363.338926: $GPGSV,3,2,11,16,18,064,37,23,22,187,47,27,41,048,51,28,19,264,38*7D
2018-01-11 20:26:03 1515720363.338992: $GPGSV,3,3,11,30,35,307,30,01,04,160,02,138,38,213,00*7A
2018-01-11 20:26:03 1515720363.452462: $GPZDA,012603.00,12,01,2018,00,00*69
2018-01-11 20:26:03 1515720363.452638: $GPGGA,012603,3946.9555,N,08404.9821,W,1,09,0.80,301.70,M,-33.324,M,,*74
2018-01-11 20:26:03 1515720363.452723: $GPRMC,012603,A,3946.9555,N,08404.9821,W,0.0000,0.000,120118,,*3C
2018-01-11 20:26:03 1515720363.452786: $GPGSA,A,3,7,8,9,11,16,23,27,28,30,,,,4.0,0.8,3.5*04
2018-01-11 20:26:03 1515720363.903340: $GPZDA,012604.00,12,01,2018,00,00*6E
2018-01-11 20:26:03 1515720363.903500: $GPGGA,012604,3946.9562,N,08404.9827,W,1,09,0.80,300.09,M,-33.324,M,,*7E
2018-01-11 20:26:03 1515720363.903565: $GPRMC,012604,A,3946.9562,N,08404.9827,W,0.1567,9.200,120118,,*37
2018-01-11 20:26:03 1515720363.903626: $GPGSA,A,3,7,8,9,11,16,23,27,28,30,,,,4.0,0.8,3.5*04
2018-01-11 20:26:04 1515720364.357954: $GPZDA,012605.00,12,01,2018,00,00*6F
2018-01-11 20:26:04 1515720364.358112: $GPGGA,012605,3946.9565,N,08404.9826,W,1,09,0.80,299.33,M,-33.324,M,,*71
2018-01-11 20:26:04 1515720364.358177: $GPRMC,012605,A,3946.9565,N,08404.9826,W,0.1567,9.200,120118,,*30
2018-01-11 20:26:04 1515720364.358238: $GPGSA,A,3,7,8,9,11,16,23,27,28,30,,,,4.0,0.8,3.5*04
2018-01-11 20:26:05 1515720365.695436: $GPGSV,3,1,11,07,62,316,45,08,75,102,45,09,42,222,41,11,26,165,47*78
2018-01-11 20:26:05 1515720365.695603: $GPGSV,3,2,11,16,18,064,36,23,22,187,46,27,41,048,50,28,19,264,37*73
2018-01-11 20:26:05 1515720365.695671: $GPGSV,3,3,11,30,35,307,31,01,04,160,21,138,38,213,46*78
2018-01-11 20:26:05 1515720365.809126: $GPZDA,012606.00,12,01,2018,00,00*6C
2018-01-11 20:26:05 1515720365.809252: $GPGGA,012606,3946.9566,N,08404.9833,W,1,11,0.80,299.25,M,-33.324,M,,*7B
2018-01-11 20:26:05 1515720365.809319: $GPRMC,012606,A,3946.9566,N,08404.9833,W,0.0000,0.000,120118,,*3A
2018-01-11 20:26:05 1515720365.809379: $GPGSA,A,3,7,8,9,11,16,23,27,28,30,1,138,,4.0,0.8,3.5*0F
2018-01-11 20:26:06 1515720366.359988: $GPZDA,012607.00,12,01,2018,00,00*6D
2018-01-11 20:26:06 1515720366.360137: $GPGGA,012607,3946.9569,N,08404.9832,W,1,11,0.80,298.48,M,-33.324,M,,*7E
2018-01-11 20:26:06 1515720366.360204: $GPRMC,012607,A,3946.9569,N,08404.9832,W,0.0000,0.000,120118,,*35
2018-01-11 20:26:06 1515720366.360265: $GPGSA,A,3,7,8,9,11,16,23,27,28,30,1,138,,4.0,0.8,3.5*0F
2018-01-11 20:26:07 1515720367.360737: $GPZDA,012608.00,12,01,2018,00,00*62
2018-01-11 20:26:07 1515720367.360935: $GPGGA,012608,3946.9574,N,08404.9839,W,1,11,0.80,299.05,M,-33.324,M,,*7E
2018-01-11 20:26:07 1515720367.361003: $GPRMC,012608,A,3946.9574,N,08404.9839,W,0.2422,273.794,120118,,*37
2018-01-11 20:26:07 1515720367.361065: $GPGSA,A,3,7,8,9,11,16,23,27,28,30,1,138,,4.0,0.8,3.5*0F
2018-01-11 20:26:07 1515720367.361123: $GPGBS,012608,14.62,M,24.83,M,80.38,M*0C
2018-01-11 20:26:08 1515720368.694959: $GPGSV,3,1,11,07,62,316,44,08,75,102,45,09,42,222,40,11,26,165,47*78
2018-01-11 20:26:08 1515720368.695146: $GPGSV,3,2,11,16,18,064,36,23,22,187,46,27,41,048,51,28,19,264,37*72
2018-01-11 20:26:08 1515720368.695213: $GPGSV,3,3,11,30,35,307,33,01,04,160,22,138,38,213,45*7A
2018-01-11 20:26:08 1515720368.808508: $GPZDA,012609.00,12,01,2018,00,00*63
2018-01-11 20:26:08 1515720368.808627: $GPGGA,012609,3946.9577,N,08404.9839,W,1,11,0.80,298.28,M,-33.324,M,,*72
2018-01-11 20:26:08 1515720368.808692: $GPRMC,012609,A,3946.9577,N,08404.9839,W,0.0000,0.000,120118,,*3F
2018-01-11 20:26:08 1515720368.808753: $GPGSA,A,3,7,8,9,11,16,23,27,28,30,1,138,,4.0,0.8,3.5*0F
2018-01-11 20:26:09 1515720369.360692: $GPZDA,012610.00,12,01,2018,00,00*6B
2018-01-11 20:26:09 1515720369.360865: $GPGGA,012610,3946.9605,N,08404.9863,W,2,11,2.80,296.83,M,-33.324,M,,*7D
2018-01-11 20:26:09 1515720369.360931: $GPRMC,012610,A,3946.9605,N,08404.9863,W,0.0000,0.000,120118,,*3E
2018-01-11 20:26:09 1515720369.360992: $GPGSA,A,3,7,8,9,11,16,23,27,28,30,1,138,,4.0,2.8,3.5*0D
2018-01-11 20:26:10 1515720370.361049: $GPZDA,012611.00,12,01,2018,00,00*6A
2018-01-11 20:26:10 1515720370.361211: $GPGGA,012611,3946.9605,N,08404.9863,W,2,11,1.60,296.83,M,-33.324,M,,*71
2018-01-11 20:26:10 1515720370.361278: $GPRMC,012611,A,3946.9605,N,08404.9863,W,0.0000,0.000,120118,,*3F
2018-01-11 20:26:10 1515720370.361338: $GPGSA,A,3,7,8,9,11,16,23,27,28,30,1,138,,4.0,1.6,3.5*00
2018-01-11 20:26:11 1515720371.697760: $GPGSV,3,1,11,07,62,316,44,08,75,102,45,09,42,222,40,11,26,165,47*78
2018-01-11 20:26:11 1515720371.697922: $GPGSV,3,2,11,16,18,064,36,23,22,187,46,27,41,048,51,28,19,264,37*72
2018-01-11 20:26:11 1515720371.697988: $GPGSV,3,3,11,30,35,307,33,01,04,160,22,138,38,213,45*7A
2018-01-11 20:26:11 1515720371.811375: $GPZDA,012612.00,12,01,2018,00,00*69
2018-01-11 20:26:11 1515720371.811508: $GPGGA,012612,3946.9605,N,08404.9863,W,2,11,0.80,296.83,M,-33.324,M,,*7D
2018-01-11 20:26:11 1515720371.811573: $GPRMC,012612,A,3946.9605,N,08404.9863,W,0.0000,0.000,120118,,*3C
2018-01-11 20:26:11 1515720371.811634: $GPGSA,A,3,7,8,9,11,16,23,27,28,30,1,138,,4.0,0.8,3.5*0F
2018-01-11 20:26:12 1515720372.361012: $GPZDA,012613.00,12,01,2018,00,00*68
2018-01-11 20:26:12 1515720372.361180: $GPGGA,012613,3946.9605,N,08404.9863,W,2,11,0.80,296.83,M,-33.324,M,,*7C
2018-01-11 20:26:12 1515720372.361247: $GPRMC,012613,A,3946.9605,N,08404.9863,W,0.0000,0.000,120118,,*3D
2018-01-11 20:26:12 1515720372.361308: $GPGSA,A,3,7,8,9,11,16,23,27,28,30,1,138,,4.0,0.8,3.5*0F
2018-01-11 20:26:13 1515720373.363105: $GPZDA,012614.00,12,01,2018,00,00*6F
2018-01-11 20:26:13 1515720373.363281: $GPGGA,012614,3946.9605,N,08404.9863,W,2,11,0.80,296.83,M,-33.324,M,,*7B
2018-01-11 20:26:13 1515720373.363348: $GPRMC,012614,A,3946.9605,N,08404.9863,W,0.0000,0.000,120118,,*3A
2018-01-11 20:26:13 1515720373.363409: $GPGSA,A,3,7,8,9,11,16,23,27,28,30,1,138,,4.0,0.8,3.5*0F
