2017-12-31 18:08:50 1514761730.405981: {"class":"VERSION","release":"3.16","rev":"3.16-4","proto_major":3,"proto_minor":11}
2017-12-31 18:08:50 1514761730.406331: {"class":"DEVICES","devices":[{"class":"DEVICE","path":"/dev/ttyUSB0","driver":"SiRF","activated":"2017-12-31T23:08:50.385Z","flags":1,"native":1,"bps":4800,"parity":"N","stopbits":1,"cycle":1.00}]}
2017-12-31 18:08:50 1514761730.406437: {"class":"WATCH","enable":true,"json":false,"nmea":true,"raw":0,"scaled":false,"timing":false,"split24":false,"pps":false}
2017-12-31 18:08:51 1514761731.685251: $GPGSV,3,1,11,22,22,214,41,23,53,306,45,09,20,312,37,03,32,234,44*72
2017-12-31 18:08:51 1514761731.685432: $GPGSV,3,2,11,16,80,189,44,29,05,031,23,14,15,133,34,31,29,075,43*71
2017-12-31 18:08:51 1514761731.685497: $GPGSV,3,3,11,27,22,154,35,26,62,051,48,135,22,240,43*74
2017-12-31 18:08:51 1514761731.797831: $GPZDA,230852.00,31,12,2017,00,00*6D
2017-12-31 18:08:51 1514761731.797986: $GPGGA,230852,3946.9561,N,08404.9874,W,2,11,0.60,308.17,M,-33.324,M,,*77
2017-12-31 18:08:51 1514761731.798053: $GPRMC,230852,A,3946.9561,N,08404.9874,W,0.0000,0.000,311217,,*3F
2017-12-31 18:08:51 1514761731.798114: $GPGSA,A,3,22,23,9,3,16,29,14,31,27,26,135,,1.7,0.6,1.3*06
2017-12-31 18:08:52 1514761732.376978: $GPZDA,230853.00,31,12,2017,00,00*6C
2017-12-31 18:08:52 1514761732.377218: $GPGGA,230853,3946.9561,N,08404.9874,W,2,11,0.60,308.17,M,-33.324,M,,*76
2017-12-31 18:08:52 1514761732.377296: $GPRMC,230853,A,3946.9561,N,08404.9874,W,0.0000,0.000,311217,,*3E
2017-12-31 18:08:52 1514761732.377458: $GPGSA,A,3,22,23,9,3,16,29,14,31,27,26,135,,1.7,0.6,1.3*06
2017-12-31 18:08:53 1514761733.377944: $GPZDA,230854.00,31,12,2017,00,00*6B
2017-12-31 18:08:53 1514761733.378141: $GPGGA,230854,3946.9561,N,08404.9874,W,2,11,0.60,308.17,M,-33.324,M,,*71
2017-12-31 18:08:53 1514761733.378213: $GPRMC,230854,A,3946.9561,N,08404.9874,W,0.0000,0.000,311217,,*39
2017-12-31 18:08:53 1514761733.378275: $GPGSA,A,3,22,23,9,3,16,29,14,31,27,26,135,,1.7,0.6,1.3*06
2017-12-31 18:08:54 1514761734.712340: $GPGSV,3,1,11,22,22,214,41,23,53,306,45,09,20,312,38,03,32,234,44*7D
2017-12-31 18:08:54 1514761734.712518: $GPGSV,3,2,11,16,80,189,44,29,05,031,25,14,15,133,34,31,29,075,42*76
2017-12-31 18:08:54 1514761734.712585: $GPGSV,3,3,11,27,22,154,34,26,62,051,48,135,22,240,44*72
2017-12-31 18:08:54 1514761734.825950: $GPZDA,230855.00,31,12,2017,00,00*6A
2017-12-31 18:08:54 1514761734.826094: $GPGGA,230855,3946.9561,N,08404.9874,W,2,11,0.60,308.17,M,-33.324,M,,*70
2017-12-31 18:08:54 1514761734.826161: $GPRMC,230855,A,3946.9561,N,08404.9874,W,0.0000,0.000,311217,,*38
2017-12-31 18:08:54 1514761734.826221: $GPGSA,A,3,22,23,9,3,16,29,14,31,27,26,135,,1.7,0.6,1.3*06
2017-12-31 18:08:55 1514761735.451256: $GPZDA,230856.00,31,12,2017,00,00*69
2017-12-31 18:08:55 1514761735.451429: $GPGGA,230856,3946.9561,N,08404.9874,W,2,11,0.60,308.17,M,-33.324,M,,*73
2017-12-31 18:08:55 1514761735.451495: $GPRMC,230856,A,3946.9561,N,08404.9874,W,0.0000,0.000,311217,,*3B
2017-12-31 18:08:55 1514761735.451556: $GPGSA,A,3,22,23,9,3,16,29,14,31,27,26,135,,1.7,0.6,1.3*06
2017-12-31 18:08:56 1514761736.349762: $GPZDA,230857.00,31,12,2017,00,00*68
2017-12-31 18:08:56 1514761736.349930: $GPGGA,230857,3946.9561,N,08404.9874,W,2,11,0.60,308.17,M,-33.324,M,,*72
2017-12-31 18:08:56 1514761736.349996: $GPRMC,230857,A,3946.9561,N,08404.9874,W,0.0000,0.000,311217,,*3A
2017-12-31 18:08:56 1514761736.350057: $GPGSA,A,3,22,23,9,3,16,29,14,31,27,26,135,,1.7,0.6,1.3*06
2017-12-31 18:08:57 1514761737.685192: $GPGSV,3,1,11,22,22,214,40,23,53,306,45,09,20,312,39,03,32,234,45*7C
2017-12-31 18:08:57 1514761737.685363: $GPGSV,3,2,11,16,80,189,44,29,05,031,31,14,15,133,34,31,29,075,42*73
2017-12-31 18:08:57 1514761737.685429: $GPGSV,3,3,11,27,22,154,35,26,62,051,48,135,22,240,43*74
2017-12-31 18:08:57 1514761737.798823: $GPZDA,230858.00,31,12,2017,00,00*67
2017-12-31 18:08:57 1514761737.798967: $GPGGA,230858,3946.9561,N,08404.9874,W,2,11,0.60,308.17,M,-33.324,M,,*7D
2017-12-31 18:08:57 1514761737.799032: $GPRMC,230858,A,3946.9561,N,08404.9874,W,0.0000,0.000,311217,,*35
2017-12-31 18:08:57 1514761737.799153: $GPGSA,A,3,22,23,9,3,16,29,14,31,27,26,135,,1.7,0.6,1.3*06
2017-12-31 18:08:58 1514761738.349698: $GPZDA,230859.00,31,12,2017,00,00*66
2017-12-31 18:08:58 1514761738.349872: $GPGGA,230859,3946.9561,N,08404.9874,W,2,11,0.60,308.17,M,-33.324,M,,*7C
2017-12-31 18:08:58 1514761738.349939: $GPRMC,230859,A,3946.9561,N,08404.9874,W,0.0000,0.000,311217,,*34
2017-12-31 18:08:58 1514761738.350000: $GPGSA,A,3,22,23,9,3,16,29,14,31,27,26,135,,1.7,0.6,1.3*06
2017-12-31 18:08:59 1514761739.378157: $GPZDA,230900.00,31,12,2017,00,00*6B
2017-12-31 18:08:59 1514761739.378328: $GPGGA,230900,3946.9561,N,08404.9874,W,2,11,0.60,308.17,M,-33.324,M,,*71
2017-12-31 18:08:59 1514761739.378395: $GPRMC,230900,A,3946.9561,N,08404.9874,W,0.0000,0.000,311217,,*39
2017-12-31 18:08:59 1514761739.378457: $GPGSA,A,3,22,23,9,3,16,29,14,31,27,26,135,,1.7,0.6,1.3*06
