2017-11-16 14:14:28 1510859668.067282: {"class":"VERSION","release":"3.17","rev":"3.17","proto_major":3,"proto_minor":12}
2017-11-16 14:14:28 1510859668.067800: {"class":"DEVICES","devices":[{"class":"DEVICE","path":"/dev/ttyUSB0","driver":"SiRF","subtype":"9\u0006GSD4e_4.1.2-P1_RPATCH.05-F-GPS-4R-1510281 11/03/2015 307","activated":"2017-11-16T19:14:28.003Z","flags":1,"native":1,"bps":4800,"parity":"N","stopbits":1,"cycle":1.00}]}
2017-11-16 14:14:28 1510859668.067922: {"class":"WATCH","enable":true,"json":false,"nmea":true,"raw":0,"scaled":false,"timing":false,"split24":false,"pps":false}
2017-11-16 14:14:28 1510859668.517723: $GPZDA,191427.00,16,11,2017,00,00*6D
2017-11-16 14:14:28 1510859668.517890: $GPGGA,191427,3946.9554,N,08404.9851,W,2,11,0.80,304.96,M,-33.324,M,,*7B
2017-11-16 14:14:28 1510859668.517954: $GPRMC,191427,A,3946.9554,N,08404.9851,W,0.0000,0.000,161117,,*3E
2017-11-16 14:14:28 1510859668.518010: $GPGSA,A,3,8,10,13,15,18,21,20,24,27,32,138,,1.6,0.8,1.3*30
2017-11-16 14:14:29 1510859669.519204: $GPZDA,191428.00,16,11,2017,00,00*62
2017-11-16 14:14:30 1510859670.144559: $GPGGA,191428,3946.9554,N,08404.9851,W,2,11,0.80,304.96,M,-33.324,M,,*74
2017-11-16 14:14:30 1510859670.144705: $GPRMC,191428,A,3946.9554,N,08404.9851,W,0.0000,0.000,161117,,*31
2017-11-16 14:14:30 1510859670.144768: $GPGSA,A,3,8,10,13,15,18,21,20,24,27,32,138,,1.6,0.8,1.3*30
2017-11-16 14:14:30 1510859670.856187: $GPGSV,3,1,12,08,06,321,38,10,42,301,42,13,07,049,30,15,37,052,51*76
2017-11-16 14:14:30 1510859670.856366: $GPGSV,3,2,12,18,71,337,47,21,63,190,47,20,32,096,46,24,51,109,48*75
2017-11-16 14:14:30 1510859670.856427: $GPGSV,3,3,12,27,19,288,40,32,21,238,46,14,05,232,00,138,38,213,44*4A
2017-11-16 14:14:30 1510859670.969860: $GPZDA,191429.00,16,11,2017,00,00*63
2017-11-16 14:14:30 1510859670.970001: $GPGGA,191429,3946.9554,N,08404.9851,W,2,11,0.80,304.96,M,-33.324,M,,*75
2017-11-16 14:14:30 1510859670.970062: $GPRMC,191429,A,3946.9554,N,08404.9851,W,0.0000,0.000,161117,,*30
2017-11-16 14:14:30 1510859670.970117: $GPGSA,A,3,8,10,13,15,18,21,20,24,27,32,138,,1.6,0.8,1.3*30
2017-11-16 14:14:31 1510859671.511826: $GPZDA,191430.00,16,11,2017,00,00*6B
2017-11-16 14:14:31 1510859671.512018: $GPGGA,191430,3946.9554,N,08404.9851,W,2,11,0.80,304.96,M,-33.324,M,,*7D
2017-11-16 14:14:31 1510859671.512084: $GPRMC,191430,A,3946.9554,N,08404.9851,W,0.0000,0.000,161117,,*38
2017-11-16 14:14:31 1510859671.512142: $GPGSA,A,3,8,10,13,15,18,21,20,24,27,32,138,,1.6,0.8,1.3*30
2017-11-16 14:14:32 1510859672.513590: $GPZDA,191431.00,16,11,2017,00,00*6A
2017-11-16 14:14:32 1510859672.513829: $GPGGA,191431,3946.9554,N,08404.9851,W,2,11,0.80,304.96,M,-33.324,M,,*7C
2017-11-16 14:14:32 1510859672.513892: $GPRMC,191431,A,3946.9554,N,08404.9851,W,0.0000,0.000,161117,,*39
2017-11-16 14:14:32 1510859672.513949: $GPGSA,A,3,8,10,13,15,18,21,20,24,27,32,138,,1.6,0.8,1.3*30
2017-11-16 14:14:33 1510859673.854400: $GPGSV,3,1,12,08,06,321,38,10,42,301,41,13,07,049,30,15,37,052,51*75
2017-11-16 14:14:33 1510859673.854569: $GPGSV,3,2,12,18,71,337,47,21,63,190,47,20,32,096,46,24,51,109,47*7A
2017-11-16 14:14:33 1510859673.854629: $GPGSV,3,3,12,27,19,288,40,32,21,238,46,14,05,232,00,138,38,213,44*4A
2017-11-16 14:14:33 1510859673.967944: $GPZDA,191432.00,16,11,2017,00,00*69
2017-11-16 14:14:33 1510859673.968106: $GPGGA,191432,3946.9554,N,08404.9851,W,2,11,0.80,304.96,M,-33.324,M,,*7F
2017-11-16 14:14:33 1510859673.968169: $GPRMC,191432,A,3946.9554,N,08404.9851,W,0.0000,0.000,161117,,*3A
2017-11-16 14:14:33 1510859673.968225: $GPGSA,A,3,8,10,13,15,18,21,20,24,27,32,138,,1.6,0.8,1.3*30
2017-11-16 14:14:34 1510859674.593020: $GPZDA,191433.00,16,11,2017,00,00*68
2017-11-16 14:14:34 1510859674.593199: $GPGGA,191433,3946.9554,N,08404.9851,W,2,11,0.80,304.96,M,-33.324,M,,*7E
2017-11-16 14:14:34 1510859674.593262: $GPRMC,191433,A,3946.9554,N,08404.9851,W,0.0000,0.000,161117,,*3B
2017-11-16 14:14:34 1510859674.593319: $GPGSA,A,3,8,10,13,15,18,21,20,24,27,32,138,,1.6,0.8,1.3*30
2017-11-16 14:14:35 1510859675.517431: $GPZDA,191434.00,16,11,2017,00,00*6F
2017-11-16 14:14:35 1510859675.517655: $GPGGA,191434,3946.9554,N,08404.9851,W,2,11,0.80,304.96,M,-33.324,M,,*79
2017-11-16 14:14:35 1510859675.517720: $GPRMC,191434,A,3946.9554,N,08404.9851,W,0.0000,0.000,161117,,*3C
2017-11-16 14:14:35 1510859675.517776: $GPGSA,A,3,8,10,13,15,18,21,20,24,27,32,138,,1.6,0.8,1.3*30
2017-11-16 14:14:36 1510859676.849424: $GPGSV,3,1,12,08,06,321,39,10,42,301,41,13,07,049,30,15,37,052,51*74
2017-11-16 14:14:36 1510859676.849589: $GPGSV,3,2,12,18,71,337,47,21,63,190,47,20,32,096,46,24,51,109,47*7A
2017-11-16 14:14:36 1510859676.849650: $GPGSV,3,3,12,27,19,288,40,32,21,238,46,14,05,232,00,138,38,213,44*4A
2017-11-16 14:14:36 1510859676.962775: $GPZDA,191435.00,16,11,2017,00,00*6E
2017-11-16 14:14:36 1510859676.962930: $GPGGA,191435,3946.9554,N,08404.9851,W,2,11,0.80,304.96,M,-33.324,M,,*78
2017-11-16 14:14:36 1510859676.962990: $GPRMC,191435,A,3946.9554,N,08404.9851,W,0.0000,0.000,161117,,*3D
2017-11-16 14:14:36 1510859676.963046: $GPGSA,A,3,8,10,13,15,18,21,20,24,27,32,138,,1.6,0.8,1.3*30
2017-11-16 14:14:37 1510859677.512291: $GPZDA,191436.00,16,11,2017,00,00*6D
2017-11-16 14:14:37 1510859677.512430: $GPGGA,191436,3946.9554,N,08404.9851,W,2,11,0.80,304.96,M,-33.324,M,,*7B
2017-11-16 14:14:37 1510859677.512492: $GPRMC,191436,A,3946.9554,N,08404.9851,W,0.0000,0.000,161117,,*3E
2017-11-16 14:14:37 1510859677.512548: $GPGSA,A,3,8,10,13,15,18,21,20,24,27,32,138,,1.6,0.8,1.3*30
2017-11-16 14:14:38 1510859678.516879: $GPZDA,191437.00,16,11,2017,00,00*6C
2017-11-16 14:14:38 1510859678.517046: $GPGGA,191437,3946.9554,N,08404.9851,W,2,11,0.80,304.96,M,-33.324,M,,*7A
2017-11-16 14:14:38 1510859678.517108: $GPRMC,191437,A,3946.9554,N,08404.9851,W,0.0000,0.000,161117,,*3F
2017-11-16 14:14:38 1510859678.517165: $GPGSA,A,3,8,10,13,15,18,21,20,24,27,32,138,,1.6,0.8,1.3*30
2017-11-16 14:14:39 1510859679.852374: $GPGSV,3,1,12,08,06,321,40,10,42,301,41,13,07,049,30,15,37,052,51*7A
2017-11-16 14:14:41 1510859681.093983: $GPGSV,3,2,12,18,71,337,47,21,63,190,47,20,32,096,46,24,51,109,47*7A
2017-11-16 14:14:41 1510859681.094120: $GPGSV,3,3,12,27,19,288,40,32,21,238,46,14,05,232,00,138,38,213,44*4A
2017-11-16 14:14:41 1510859681.094222: $GPZDA,191438.00,16,11,2017,00,00*63
2017-11-16 14:14:41 1510859681.094278: $GPGGA,191438,3946.9554,N,08404.9851,W,2,11,0.80,304.96,M,-33.324,M,,*75
2017-11-16 14:14:41 1510859681.094342: $GPRMC,191438,A,3946.9554,N,08404.9851,W,0.0000,0.000,161117,,*30
2017-11-16 14:14:41 1510859681.094400: $GPGSA,A,3,8,10,13,15,18,21,20,24,27,32,138,,1.6,0.8,1.3*30
2017-11-16 14:14:41 1510859681.094460: $GPZDA,191439.00,16,11,2017,00,00*62
2017-11-16 14:14:41 1510859681.094512: $GPGGA,191439,3946.9554,N,08404.9851,W,2,11,0.80,304.96,M,-33.324,M,,*74
2017-11-16 14:14:41 1510859681.094571: $GPRMC,191439,A,3946.9554,N,08404.9851,W,0.0000,0.000,161117,,*31
2017-11-16 14:14:41 1510859681.094628: $GPGSA,A,3,8,10,13,15,18,21,20,24,27,32,138,,1.6,0.8,1.3*30
2017-11-16 14:14:41 1510859681.523189: $GPZDA,191440.00,16,11,2017,00,00*6C
2017-11-16 14:14:41 1510859681.523358: $GPGGA,191440,3946.9554,N,08404.9851,W,2,11,0.80,304.96,M,-33.324,M,,*7A
2017-11-16 14:14:41 1510859681.523426: $GPRMC,191440,A,3946.9554,N,08404.9851,W,0.0000,0.000,161117,,*3F
2017-11-16 14:14:41 1510859681.523485: $GPGSA,A,3,8,10,13,15,18,21,20,24,27,32,138,,1.6,0.8,1.3*30
2017-11-16 14:14:42 1510859682.852645: $GPGSV,3,1,12,08,06,321,41,10,42,301,40,13,07,049,30,15,37,052,51*7A
2017-11-16 14:14:42 1510859682.852835: $GPGSV,3,2,12,18,71,337,47,21,63,190,47,20,32,096,47,24,51,109,47*7B
2017-11-16 14:14:42 1510859682.852901: $GPGSV,3,3,12,27,19,288,40,32,21,238,46,14,05,232,00,138,38,213,44*4A
2017-11-16 14:14:42 1510859682.966030: $GPZDA,191441.00,16,11,2017,00,00*6D
2017-11-16 14:14:42 1510859682.966348: $GPGGA,191441,3946.9554,N,08404.9851,W,2,11,0.80,304.96,M,-33.324,M,,*7B
2017-11-16 14:14:42 1510859682.966469: $GPRMC,191441,A,3946.9554,N,08404.9851,W,0.0000,0.000,161117,,*3E
2017-11-16 14:14:42 1510859682.966603: $GPGSA,A,3,8,10,13,15,18,21,20,24,27,32,138,,1.6,0.8,1.3*30
