2017-12-29 11:32:09 1514565129.625910: {"class":"VERSION","release":"3.16","rev":"3.16-4","proto_major":3,"proto_minor":11}
2017-12-29 11:32:09 1514565129.626293: {"class":"DEVICES","devices":[{"class":"DEVICE","path":"/dev/ttyUSB0","driver":"SiRF","subtype":"9\u0006GSD4e_4.1.2-P1_RPATCH.05-F-GPS-4R-1510281 11/03/2015 307","activated":"2017-12-29T16:32:09.537Z","flags":1,"native":1,"bps":4800,"parity":"N","stopbits":1,"cycle":1.00}]}
2017-12-29 11:32:09 1514565129.626406: {"class":"WATCH","enable":true,"json":false,"nmea":true,"raw":0,"scaled":false,"timing":false,"split24":false,"pps":false}
2017-12-29 11:32:11 1514565131.070481: $GPGSV,3,1,12,08,07,316,34,10,47,306,46,15,31,055,49,18,75,358,45*7E
2017-12-29 11:32:11 1514565131.070665: $GPGSV,3,2,12,20,29,100,50,21,56,186,45,24,53,099,50,27,18,282,40*7D
2017-12-29 11:32:11 1514565131.070751: $GPGSV,3,3,12,32,27,243,40,13,02,051,04,14,09,235,26,138,38,213,45*43
2017-12-29 11:32:11 1514565131.183898: $GPZDA,163211.00,29,12,2017,00,00*6C
2017-12-29 11:32:11 1514565131.788423: $GPGGA,163211,3946.9596,N,08404.9878,W,2,11,1.00,308.23,M,-33.324,M,,*7B
2017-12-29 11:32:11 1514565131.788578: $GPRMC,163211,A,3946.9596,N,08404.9878,W,0.0000,0.000,291217,,*3A
2017-12-29 11:32:11 1514565131.788644: $GPGSA,A,3,8,10,15,18,20,21,24,27,32,14,138,,1.7,1.0,1.3*3F
2017-12-29 11:32:11 1514565131.969298: $GPZDA,163212.00,29,12,2017,00,00*6F
2017-12-29 11:32:11 1514565131.969491: $GPGGA,163212,3946.9596,N,08404.9878,W,2,11,0.80,308.23,M,-33.324,M,,*71
2017-12-29 11:32:11 1514565131.969581: $GPRMC,163212,A,3946.9596,N,08404.9878,W,0.0000,0.000,291217,,*39
2017-12-29 11:32:11 1514565131.969672: $GPGSA,A,3,8,10,15,18,20,21,24,27,32,14,138,,1.7,0.8,1.3*36
2017-12-29 11:32:11 1514565131.969746: $GPGBS,163212,2.73,M,2.59,M,7.72,M*31
2017-12-29 11:32:12 1514565132.421572: $GPZDA,163213.00,29,12,2017,00,00*6E
2017-12-29 11:32:12 1514565132.421745: $GPGGA,163213,3946.9596,N,08404.9878,W,2,11,0.80,308.23,M,-33.324,M,,*70
2017-12-29 11:32:12 1514565132.421811: $GPRMC,163213,A,3946.9596,N,08404.9878,W,0.0000,0.000,291217,,*38
2017-12-29 11:32:12 1514565132.421874: $GPGSA,A,3,8,10,15,18,20,21,24,27,32,14,138,,1.7,0.8,1.3*36
2017-12-29 11:32:12 1514565132.421932: $GPGBS,163213,2.73,M,2.59,M,7.72,M*30
2017-12-29 11:32:13 1514565133.713304: $GPGSV,3,1,12,08,07,316,35,10,47,307,46,15,31,055,49,18,75,358,45*7E
2017-12-29 11:32:13 1514565133.713498: $GPGSV,3,2,12,20,29,100,50,21,56,186,45,24,53,097,50,27,18,282,41*72
2017-12-29 11:32:13 1514565133.713566: $GPGSV,3,3,12,32,27,243,40,13,02,051,12,14,09,235,27,138,38,213,45*45
2017-12-29 11:32:13 1514565133.826717: $GPZDA,163214.00,29,12,2017,00,00*69
2017-12-29 11:32:13 1514565133.826853: $GPGGA,163214,3946.9596,N,08404.9878,W,2,12,0.80,308.23,M,-33.324,M,,*74
2017-12-29 11:32:13 1514565133.826919: $GPRMC,163214,A,3946.9596,N,08404.9878,W,0.0000,0.000,291217,,*3F
2017-12-29 11:32:13 1514565133.826981: $GPGSA,A,3,8,10,15,18,20,21,24,27,32,13,14,138,1.7,0.8,1.3*34
2017-12-29 11:32:14 1514565134.392869: $GPZDA,163215.00,29,12,2017,00,00*68
2017-12-29 11:32:14 1514565134.393057: $GPGGA,163215,3946.9596,N,08404.9878,W,2,12,0.80,308.23,M,-33.324,M,,*75
2017-12-29 11:32:14 1514565134.393124: $GPRMC,163215,A,3946.9596,N,08404.9878,W,0.0000,0.000,291217,,*3E
2017-12-29 11:32:14 1514565134.393187: $GPGSA,A,3,8,10,15,18,20,21,24,27,32,13,14,138,1.7,0.8,1.3*34
2017-12-29 11:32:15 1514565135.393390: $GPZDA,163216.00,29,12,2017,00,00*6B
2017-12-29 11:32:15 1514565135.393573: $GPGGA,163216,3946.9596,N,08404.9878,W,2,12,0.80,308.23,M,-33.324,M,,*76
2017-12-29 11:32:15 1514565135.393642: $GPRMC,163216,A,3946.9596,N,08404.9878,W,0.0000,0.000,291217,,*3D
2017-12-29 11:32:15 1514565135.393702: $GPGSA,A,3,8,10,15,18,20,21,24,27,32,13,14,138,1.7,0.8,1.3*34
2017-12-29 11:32:17 1514565137.085652: $GPGSV,3,1,12,08,07,316,36,10,47,307,45,15,31,055,49,18,75,358,44*7F
2017-12-29 11:32:17 1514565137.085822: $GPGSV,3,2,12,20,29,100,50,21,56,186,45,24,53,097,50,27,18,282,42*71
2017-12-29 11:32:17 1514565137.085890: $GPGSV,3,3,12,32,27,243,40,13,02,051,12,14,09,235,28,138,38,213,46*49
2017-12-29 11:32:17 1514565137.199419: $GPZDA,163217.00,29,12,2017,00,00*6A
2017-12-29 11:32:17 1514565137.199603: $GPGGA,163217,3946.9595,N,08404.9871,W,2,12,0.80,308.31,M,-33.324,M,,*7E
2017-12-29 11:32:17 1514565137.199670: $GPRMC,163217,A,3946.9595,N,08404.9871,W,0.0000,0.000,291217,,*36
2017-12-29 11:32:17 1514565137.199732: $GPGSA,A,3,8,10,15,18,20,21,24,27,32,13,14,138,1.7,0.8,1.3*34
2017-12-29 11:32:17 1514565137.811205: $GPZDA,163218.00,29,12,2017,00,00*65
2017-12-29 11:32:17 1514565137.811399: $GPGGA,163218,3946.9595,N,08404.9871,W,2,12,0.80,308.31,M,-33.324,M,,*71
2017-12-29 11:32:17 1514565137.811468: $GPRMC,163218,A,3946.9595,N,08404.9871,W,0.0000,0.000,291217,,*39
2017-12-29 11:32:17 1514565137.811529: $GPGSA,A,3,8,10,15,18,20,21,24,27,32,13,14,138,1.7,0.8,1.3*34
2017-12-29 11:32:17 1514565137.811589: $GPGBS,163218,2.73,M,2.59,M,7.72,M*3B
2017-12-29 11:32:18 1514565138.393288: $GPZDA,163219.00,29,12,2017,00,00*64
2017-12-29 11:32:18 1514565138.393461: $GPGGA,163219,3946.9595,N,08404.9871,W,2,12,1.00,308.31,M,-33.324,M,,*79
2017-12-29 11:32:18 1514565138.393528: $GPRMC,163219,A,3946.9595,N,08404.9871,W,0.0000,0.000,291217,,*38
2017-12-29 11:32:18 1514565138.393591: $GPGSA,A,3,8,10,15,18,20,21,24,27,32,13,14,138,1.7,1.0,1.3*3D
2017-12-29 11:32:18 1514565138.393650: $GPGBS,163219,2.73,M,2.59,M,7.72,M*3A
2017-12-29 11:32:19 1514565139.731384: $GPGSV,3,1,12,08,07,316,36,10,47,307,45,15,31,055,49,18,75,358,45*7E
2017-12-29 11:32:19 1514565139.731578: $GPGSV,3,2,12,20,29,100,50,21,56,184,45,24,53,097,50,27,17,282,42*7C
2017-12-29 11:32:19 1514565139.731645: $GPGSV,3,3,12,32,27,243,40,13,02,051,11,14,09,235,12,138,38,213,45*40
2017-12-29 11:32:19 1514565139.844816: $GPZDA,163220.00,29,12,2017,00,00*6E
2017-12-29 11:32:19 1514565139.844985: $GPGGA,163220,3946.9595,N,08404.9871,W,2,12,0.80,308.31,M,-33.324,M,,*7A
2017-12-29 11:32:19 1514565139.845052: $GPRMC,163220,A,3946.9595,N,08404.9871,W,0.0000,0.000,291217,,*32
2017-12-29 11:32:19 1514565139.845129: $GPGSA,A,3,8,10,15,18,20,21,24,27,32,13,14,138,1.7,0.8,1.3*34
2017-12-29 11:32:20 1514565140.393387: $GPZDA,163221.00,29,12,2017,00,00*6F
2017-12-29 11:32:20 1514565140.393574: $GPGGA,163221,3946.9595,N,08404.9871,W,2,12,0.80,308.31,M,-33.324,M,,*7B
2017-12-29 11:32:20 1514565140.393643: $GPRMC,163221,A,3946.9595,N,08404.9871,W,0.0000,0.000,291217,,*33
2017-12-29 11:32:20 1514565140.393705: $GPGSA,A,3,8,10,15,18,20,21,24,27,32,13,14,138,1.7,0.8,1.3*34
2017-12-29 11:32:21 1514565141.392667: $GPZDA,163222.00,29,12,2017,00,00*6C
2017-12-29 11:32:21 1514565141.392835: $GPGGA,163222,3946.9595,N,08404.9871,W,2,12,0.80,308.31,M,-33.324,M,,*78
2017-12-29 11:32:21 1514565141.392901: $GPRMC,163222,A,3946.9595,N,08404.9871,W,0.0000,0.000,291217,,*30
2017-12-29 11:32:21 1514565141.392962: $GPGSA,A,3,8,10,15,18,20,21,24,27,32,13,14,138,1.7,0.8,1.3*34
2017-12-29 11:32:22 1514565142.712921: $GPGSV,3,1,12,08,07,316,36,10,47,307,45,15,31,055,49,18,75,358,45*7E
2017-12-29 11:32:22 1514565142.713085: $GPGSV,3,2,12,20,29,100,49,21,56,184,45,24,53,097,50,27,17,282,43*75
2017-12-29 11:32:22 1514565142.713150: $GPGSV,3,3,12,32,27,243,40,13,02,051,06,14,09,235,29,138,38,213,45*4E
2017-12-29 11:32:22 1514565142.826640: $GPZDA,163223.00,29,12,2017,00,00*6D
2017-12-29 11:32:22 1514565142.826817: $GPGGA,163223,3946.9595,N,08404.9871,W,2,11,0.80,308.31,M,-33.324,M,,*7A
2017-12-29 11:32:22 1514565142.826895: $GPRMC,163223,A,3946.9595,N,08404.9871,W,0.0000,0.000,291217,,*31
2017-12-29 11:32:22 1514565142.826969: $GPGSA,A,3,8,10,15,18,20,21,24,27,32,14,138,,1.7,0.8,1.3*36
2017-12-29 11:32:23 1514565143.394762: $GPZDA,163224.00,29,12,2017,00,00*6A
2017-12-29 11:32:23 1514565143.394931: $GPGGA,163224,3946.9599,N,08404.9871,W,2,11,0.80,308.95,M,-33.324,M,,*7F
2017-12-29 11:32:23 1514565143.394998: $GPRMC,163224,A,3946.9599,N,08404.9871,W,0.0000,0.000,291217,,*3A
2017-12-29 11:32:23 1514565143.395059: $GPGSA,A,3,8,10,15,18,20,21,24,27,32,14,138,,1.7,0.8,1.3*36
2017-12-29 11:32:24 1514565144.379640: $GPZDA,163225.00,29,12,2017,00,00*6B
2017-12-29 11:32:24 1514565144.379869: $GPGGA,163225,3946.9599,N,08404.9871,W,2,11,0.80,308.95,M,-33.324,M,,*7E
2017-12-29 11:32:24 1514565144.379937: $GPRMC,163225,A,3946.9599,N,08404.9871,W,0.0000,0.000,291217,,*3B
2017-12-29 11:32:24 1514565144.379998: $GPGSA,A,3,8,10,15,18,20,21,24,27,32,14,138,,1.7,0.8,1.3*36
