2017-12-01 14:01:09 1512154869.317623: {"class":"VERSION","release":"3.16","rev":"3.16-4","proto_major":3,"proto_minor":11}
2017-12-01 14:01:09 1512154869.317997: {"class":"DEVICES","devices":[{"class":"DEVICE","path":"/dev/ttyUSB0","driver":"SiRF","subtype":"9\u0006GSD4e_4.1.2-P1_RPATCH.05-F-GPS-4R-1510281 11/03/2015 307","activated":"2017-12-01T19:01:09.256Z","flags":1,"native":1,"bps":4800,"parity":"N","stopbits":1,"cycle":1.00}]}
2017-12-01 14:01:09 1512154869.318109: {"class":"WATCH","enable":true,"json":false,"nmea":true,"raw":0,"scaled":false,"timing":false,"split24":false,"pps":false}
2017-12-01 14:01:09 1512154869.706247: $GPGSV,3,1,12,10,60,319,50,14,21,246,40,15,19,061,39,18,76,060,43*7B
2017-12-01 14:01:09 1512154869.706447: $GPGSV,3,2,12,20,17,112,43,21,40,181,45,24,51,072,48,27,12,268,42*73
2017-12-01 14:01:09 1512154869.706514: $GPGSV,3,3,12,32,38,255,43,08,08,303,33,12,03,115,24,138,38,213,47*44
2017-12-01 14:01:09 1512154869.818409: $GPZDA,190110.00,01,12,2017,00,00*68
2017-12-01 14:01:09 1512154869.818579: $GPGGA,190110,3946.9560,N,08404.9816,W,2,12,0.80,305.23,M,-33.324,M,,*73
2017-12-01 14:01:09 1512154869.818644: $GPRMC,190110,A,3946.9560,N,08404.9816,W,0.0000,0.000,011217,,*3F
2017-12-01 14:01:09 1512154869.818705: $GPGSA,A,3,10,14,15,18,20,21,24,27,32,8,12,138,2.0,0.8,1.5*37
2017-12-01 14:01:10 1512154870.370543: $GPZDA,190111.00,01,12,2017,00,00*69
2017-12-01 14:01:10 1512154870.370713: $GPGGA,190111,3946.9560,N,08404.9816,W,2,12,0.80,305.23,M,-33.324,M,,*72
2017-12-01 14:01:10 1512154870.370780: $GPRMC,190111,A,3946.9560,N,08404.9816,W,0.0000,0.000,011217,,*3E
2017-12-01 14:01:10 1512154870.370840: $GPGSA,A,3,10,14,15,18,20,21,24,27,32,8,12,138,2.0,0.8,1.5*37
2017-12-01 14:01:11 1512154871.342712: $GPZDA,190112.00,01,12,2017,00,00*6A
2017-12-01 14:01:11 1512154871.342882: $GPGGA,190112,3946.9560,N,08404.9816,W,2,12,0.80,305.23,M,-33.324,M,,*71
2017-12-01 14:01:11 1512154871.342947: $GPRMC,190112,A,3946.9560,N,08404.9816,W,0.0000,0.000,011217,,*3D
2017-12-01 14:01:11 1512154871.343007: $GPGSA,A,3,10,14,15,18,20,21,24,27,32,8,12,138,2.0,0.8,1.5*37
2017-12-01 14:01:12 1512154872.677872: $GPGSV,3,1,12,10,60,319,50,14,21,246,40,15,19,061,39,18,76,060,43*7B
2017-12-01 14:01:12 1512154872.678050: $GPGSV,3,2,12,20,17,112,43,21,40,181,45,24,51,072,48,27,12,268,42*73
2017-12-01 14:01:12 1512154872.678116: $GPGSV,3,3,12,32,38,255,43,08,08,303,34,12,03,115,24,138,38,213,46*42
2017-12-01 14:01:12 1512154872.791290: $GPZDA,190113.00,01,12,2017,00,00*6B
2017-12-01 14:01:12 1512154872.791505: $GPGGA,190113,3946.9556,N,08404.9816,W,2,12,0.80,305.99,M,-33.324,M,,*74
2017-12-01 14:01:12 1512154872.791574: $GPRMC,190113,A,3946.9556,N,08404.9816,W,0.0000,0.000,011217,,*39
2017-12-01 14:01:12 1512154872.791635: $GPGSA,A,3,10,14,15,18,20,21,24,27,32,8,12,138,2.0,0.8,1.5*37
2017-12-01 14:01:13 1512154873.342172: $GPZDA,190114.00,01,12,2017,00,00*6C
2017-12-01 14:01:13 1512154873.342356: $GPGGA,190114,3946.9556,N,08404.9816,W,2,12,0.80,305.99,M,-33.324,M,,*73
2017-12-01 14:01:13 1512154873.342422: $GPRMC,190114,A,3946.9556,N,08404.9816,W,0.0000,0.000,011217,,*3E
2017-12-01 14:01:13 1512154873.342484: $GPGSA,A,3,10,14,15,18,20,21,24,27,32,8,12,138,2.0,0.8,1.5*37
2017-12-01 14:01:14 1512154874.341810: $GPZDA,190115.00,01,12,2017,00,00*6D
2017-12-01 14:01:14 1512154874.341982: $GPGGA,190115,3946.9556,N,08404.9816,W,2,12,0.80,305.99,M,-33.324,M,,*72
2017-12-01 14:01:14 1512154874.342050: $GPRMC,190115,A,3946.9556,N,08404.9816,W,0.0000,0.000,011217,,*3F
2017-12-01 14:01:14 1512154874.342111: $GPGSA,A,3,10,14,15,18,20,21,24,27,32,8,12,138,2.0,0.8,1.5*37
2017-12-01 14:01:15 1512154875.677467: $GPGSV,3,1,12,10,60,319,50,14,21,246,40,15,19,061,40,18,76,060,42*74
2017-12-01 14:01:15 1512154875.677651: $GPGSV,3,2,12,20,17,112,43,21,40,181,45,24,51,072,47,27,12,268,42*7C
2017-12-01 14:01:15 1512154875.677717: $GPGSV,3,3,12,32,38,255,43,08,08,303,39,12,03,115,24,138,38,213,47*4E
2017-12-01 14:01:15 1512154875.790778: $GPZDA,190116.00,01,12,2017,00,00*6E
2017-12-01 14:01:15 1512154875.790916: $GPGGA,190116,3946.9556,N,08404.9816,W,2,12,0.80,305.99,M,-33.324,M,,*71
2017-12-01 14:01:15 1512154875.791033: $GPRMC,190116,A,3946.9556,N,08404.9816,W,0.0000,0.000,011217,,*3C
2017-12-01 14:01:15 1512154875.791095: $GPGSA,A,3,10,14,15,18,20,21,24,27,32,8,12,138,2.0,0.8,1.5*37
2017-12-01 14:01:16 1512154876.342910: $GPZDA,190117.00,01,12,2017,00,00*6F
2017-12-01 14:01:16 1512154876.343133: $GPGGA,190117,3946.9556,N,08404.9816,W,2,12,0.80,305.99,M,-33.324,M,,*70
2017-12-01 14:01:16 1512154876.343204: $GPRMC,190117,A,3946.9556,N,08404.9816,W,0.0000,0.000,011217,,*3D
2017-12-01 14:01:16 1512154876.343288: $GPGSA,A,3,10,14,15,18,20,21,24,27,32,8,12,138,2.0,0.8,1.5*37
2017-12-01 14:01:17 1512154877.340844: $GPZDA,190118.00,01,12,2017,00,00*60
2017-12-01 14:01:17 1512154877.341033: $GPGGA,190118,3946.9556,N,08404.9816,W,2,12,0.80,305.99,M,-33.324,M,,*7F
2017-12-01 14:01:17 1512154877.341102: $GPRMC,190118,A,3946.9556,N,08404.9816,W,0.0000,0.000,011217,,*32
2017-12-01 14:01:17 1512154877.341167: $GPGSA,A,3,10,14,15,18,20,21,24,27,32,8,12,138,2.0,0.8,1.5*37
2017-12-01 14:01:18 1512154878.671651: $GPGSV,3,1,12,10,60,319,50,14,21,246,40,15,19,061,40,18,76,060,42*74
2017-12-01 14:01:18 1512154878.671833: $GPGSV,3,2,12,20,17,112,43,21,40,181,44,24,51,072,48,27,12,268,42*72
2017-12-01 14:01:18 1512154878.671901: $GPGSV,3,3,12,32,38,255,43,08,08,303,38,12,03,115,23,138,38,213,46*49
2017-12-01 14:01:18 1512154878.785416: $GPZDA,190119.00,01,12,2017,00,00*61
2017-12-01 14:01:18 1512154878.785587: $GPGGA,190119,3946.9561,N,08404.9816,W,2,12,0.80,306.63,M,-33.324,M,,*7C
2017-12-01 14:01:18 1512154878.785655: $GPRMC,190119,A,3946.9561,N,08404.9816,W,0.0000,0.000,011217,,*37
2017-12-01 14:01:18 1512154878.785716: $GPGSA,A,3,10,14,15,18,20,21,24,27,32,8,12,138,2.0,0.8,1.5*37
2017-12-01 14:01:19 1512154879.343362: $GPZDA,190120.00,01,12,2017,00,00*6B
2017-12-01 14:01:19 1512154879.343537: $GPGGA,190120,3946.9561,N,08404.9816,W,2,12,0.80,306.63,M,-33.324,M,,*76
2017-12-01 14:01:19 1512154879.343603: $GPRMC,190120,A,3946.9561,N,08404.9816,W,0.0000,0.000,011217,,*3D
2017-12-01 14:01:19 1512154879.343666: $GPGSA,A,3,10,14,15,18,20,21,24,27,32,8,12,138,2.0,0.8,1.5*37
2017-12-01 14:01:20 1512154880.341851: $GPZDA,190121.00,01,12,2017,00,00*6A
2017-12-01 14:01:20 1512154880.342028: $GPGGA,190121,3946.9561,N,08404.9816,W,2,12,0.80,306.63,M,-33.324,M,,*77
2017-12-01 14:01:20 1512154880.342094: $GPRMC,190121,A,3946.9561,N,08404.9816,W,0.0000,0.000,011217,,*3C
2017-12-01 14:01:20 1512154880.342160: $GPGSA,A,3,10,14,15,18,20,21,24,27,32,8,12,138,2.0,0.8,1.5*37
2017-12-01 14:01:21 1512154881.677678: $GPGSV,3,1,12,10,60,319,50,14,21,246,40,15,19,061,40,18,76,060,42*74
2017-12-01 14:01:21 1512154881.677857: $GPGSV,3,2,12,20,17,112,43,21,40,181,44,24,51,072,48,27,12,268,43*73
2017-12-01 14:01:21 1512154881.677921: $GPGSV,3,3,12,32,38,255,42,08,08,303,38,12,03,115,06,138,38,213,47*4E
2017-12-01 14:01:21 1512154881.790884: $GPZDA,190122.00,01,12,2017,00,00*69
2017-12-01 14:01:21 1512154881.791058: $GPGGA,190122,3946.9557,N,08404.9817,W,2,11,0.80,307.40,M,-33.324,M,,*73
2017-12-01 14:01:21 1512154881.791127: $GPRMC,190122,A,3946.9557,N,08404.9817,W,0.0000,0.000,011217,,*3B
2017-12-01 14:01:21 1512154881.791190: $GPGSA,A,3,10,14,15,18,20,21,24,27,32,8,138,,2.0,0.8,1.5*34
2017-12-01 14:01:22 1512154882.416171: $GPZDA,190123.00,01,12,2017,00,00*68
2017-12-01 14:01:22 1512154882.416339: $GPGGA,190123,3946.9557,N,08404.9817,W,2,11,0.80,307.40,M,-33.324,M,,*72
2017-12-01 14:01:22 1512154882.416408: $GPRMC,190123,A,3946.9557,N,08404.9817,W,0.0000,0.000,011217,,*3A
2017-12-01 14:01:22 1512154882.416488: $GPGSA,A,3,10,14,15,18,20,21,24,27,32,8,138,,2.0,0.8,1.5*34
2017-12-01 14:01:23 1512154883.342115: $GPZDA,190124.00,01,12,2017,00,00*6F
2017-12-01 14:01:23 1512154883.342308: $GPGGA,190124,3946.9557,N,08404.9817,W,2,11,0.80,307.40,M,-33.324,M,,*75
2017-12-01 14:01:23 1512154883.342378: $GPRMC,190124,A,3946.9557,N,08404.9817,W,0.0000,0.000,011217,,*3D
2017-12-01 14:01:23 1512154883.342439: $GPGSA,A,3,10,14,15,18,20,21,24,27,32,8,138,,2.0,0.8,1.5*34
