2017-12-31 18:07:36 1514761656.772802: {"class":"VERSION","release":"3.16","rev":"3.16-4","proto_major":3,"proto_minor":11}
2017-12-31 18:07:36 1514761656.773138: {"class":"DEVICES","devices":[{"class":"DEVICE","path":"/dev/ttyUSB0","driver":"SiRF","activated":"2017-12-31T23:07:36.682Z","flags":1,"native":1,"bps":4800,"parity":"N","stopbits":1,"cycle":1.00}]}
2017-12-31 18:07:36 1514761656.773235: {"class":"WATCH","enable":true,"json":false,"nmea":true,"raw":0,"scaled":false,"timing":false,"split24":false,"pps":false}
2017-12-31 18:07:36 1514761656.795812: $GPZDA,230737.00,31,12,2017,00,00*61
2017-12-31 18:07:36 1514761656.795940: $GPGGA,230737,3946.9561,N,08404.9874,W,2,11,0.60,308.17,M,-33.324,M,,*7B
2017-12-31 18:07:36 1514761656.796004: $GPRMC,230737,A,3946.9561,N,08404.9874,W,0.0000,0.000,311217,,*33
2017-12-31 18:07:36 1514761656.796065: $GPGSA,A,3,22,23,9,3,16,29,14,31,27,26,135,,1.7,0.6,1.3*06
2017-12-31 18:07:37 1514761657.347637: $GPZDA,230738.00,31,12,2017,00,00*6E
2017-12-31 18:07:37 1514761657.347791: $GPGGA,230738,3946.9561,N,08404.9874,W,2,11,0.60,308.17,M,-33.324,M,,*74
2017-12-31 18:07:37 1514761657.347857: $GPRMC,230738,A,3946.9561,N,08404.9874,W,0.0000,0.000,311217,,*3C
2017-12-31 18:07:37 1514761657.347917: $GPGSA,A,3,22,23,9,3,16,29,14,31,27,26,135,,1.7,0.6,1.3*06
2017-12-31 18:07:38 1514761658.347520: $GPZDA,230739.00,31,12,2017,00,00*6F
2017-12-31 18:07:38 1514761658.347687: $GPGGA,230739,3946.9561,N,08404.9874,W,2,11,0.60,308.17,M,-33.324,M,,*75
2017-12-31 18:07:38 1514761658.347753: $GPRMC,230739,A,3946.9561,N,08404.9874,W,0.0000,0.000,311217,,*3D
2017-12-31 18:07:38 1514761658.347814: $GPGSA,A,3,22,23,9,3,16,29,14,31,27,26,135,,1.7,0.6,1.3*06
2017-12-31 18:07:39 1514761659.682930: $GPGSV,3,1,11,22,23,216,40,23,52,307,44,09,19,312,42,03,33,235,42*7F
2017-12-31 18:07:39 1514761659.683116: $GPGSV,3,2,11,16,79,190,44,29,06,031,35,14,16,132,35,31,29,073,41*7C
2017-12-31 18:07:39 1514761659.683185: $GPGSV,3,3,11,27,21,154,31,26,64,051,47,135,22,240,43*7A
2017-12-31 18:07:39 1514761659.796564: $GPZDA,230740.00,31,12,2017,00,00*61
2017-12-31 18:07:39 1514761659.796731: $GPGGA,230740,3946.9561,N,08404.9874,W,2,11,0.60,308.17,M,-33.324,M,,*7B
2017-12-31 18:07:39 1514761659.796796: $GPRMC,230740,A,3946.9561,N,08404.9874,W,0.0000,0.000,311217,,*33
2017-12-31 18:07:39 1514761659.796857: $GPGSA,A,3,22,23,9,3,16,29,14,31,27,26,135,,1.7,0.6,1.3*06
2017-12-31 18:07:40 1514761660.421957: $GPZDA,230741.00,31,12,2017,00,00*60
2017-12-31 18:07:40 1514761660.422125: $GPGGA,230741,3946.9561,N,08404.9874,W,2,11,0.60,308.17,M,-33.324,M,,*7A
2017-12-31 18:07:40 1514761660.422190: $GPRMC,230741,A,3946.9561,N,08404.9874,W,0.0000,0.000,311217,,*32
2017-12-31 18:07:40 1514761660.422251: $GPGSA,A,3,22,23,9,3,16,29,14,31,27,26,135,,1.7,0.6,1.3*06
2017-12-31 18:07:41 1514761661.375307: $GPZDA,230742.00,31,12,2017,00,00*63
2017-12-31 18:07:41 1514761661.375493: $GPGGA,230742,3946.9561,N,08404.9874,W,2,11,0.60,308.17,M,-33.324,M,,*79
2017-12-31 18:07:41 1514761661.375560: $GPRMC,230742,A,3946.9561,N,08404.9874,W,0.0000,0.000,311217,,*31
2017-12-31 18:07:41 1514761661.375622: $GPGSA,A,3,22,23,9,3,16,29,14,31,27,26,135,,1.7,0.6,1.3*06
2017-12-31 18:07:42 1514761662.710783: $GPGSV,3,1,11,22,23,216,40,23,52,307,45,09,19,312,42,03,33,235,43*7F
2017-12-31 18:07:42 1514761662.710946: $GPGSV,3,2,11,16,79,190,44,29,06,031,35,14,16,132,36,31,29,073,41*7F
2017-12-31 18:07:42 1514761662.711011: $GPGSV,3,3,11,27,21,154,31,26,64,051,48,135,22,240,44*72
2017-12-31 18:07:42 1514761662.824427: $GPZDA,230743.00,31,12,2017,00,00*62
2017-12-31 18:07:42 1514761662.824606: $GPGGA,230743,3946.9561,N,08404.9874,W,2,11,0.60,308.17,M,-33.324,M,,*78
2017-12-31 18:07:42 1514761662.824671: $GPRMC,230743,A,3946.9561,N,08404.9874,W,0.0000,0.000,311217,,*30
2017-12-31 18:07:42 1514761662.824732: $GPGSA,A,3,22,23,9,3,16,29,14,31,27,26,135,,1.7,0.6,1.3*06
2017-12-31 18:07:43 1514761663.349131: $GPZDA,230744.00,31,12,2017,00,00*65
2017-12-31 18:07:43 1514761663.349296: $GPGGA,230744,3946.9561,N,08404.9874,W,2,11,0.60,308.17,M,-33.324,M,,*7F
2017-12-31 18:07:43 1514761663.349415: $GPRMC,230744,A,3946.9561,N,08404.9874,W,0.0000,0.000,311217,,*37
2017-12-31 18:07:43 1514761663.349477: $GPGSA,A,3,22,23,9,3,16,29,14,31,27,26,135,,1.7,0.6,1.3*06
2017-12-31 18:07:44 1514761664.346227: $GPZDA,230745.00,31,12,2017,00,00*64
2017-12-31 18:07:44 1514761664.346399: $GPGGA,230745,3946.9561,N,08404.9874,W,2,11,0.60,308.17,M,-33.324,M,,*7E
2017-12-31 18:07:44 1514761664.346465: $GPRMC,230745,A,3946.9561,N,08404.9874,W,0.0000,0.000,311217,,*36
2017-12-31 18:07:44 1514761664.346525: $GPGSA,A,3,22,23,9,3,16,29,14,31,27,26,135,,1.7,0.6,1.3*06
2017-12-31 18:07:45 1514761665.682420: $GPGSV,3,1,11,22,23,216,40,23,52,307,46,09,19,312,42,03,33,235,45*7A
2017-12-31 18:07:45 1514761665.682578: $GPGSV,3,2,11,16,79,190,44,29,06,031,29,14,16,132,36,31,29,073,41*72
2017-12-31 18:07:45 1514761665.682643: $GPGSV,3,3,11,27,21,154,31,26,64,051,48,135,22,240,44*72
2017-12-31 18:07:45 1514761665.796051: $GPZDA,230746.00,31,12,2017,00,00*67
2017-12-31 18:07:45 1514761665.796221: $GPGGA,230746,3946.9561,N,08404.9874,W,2,11,0.60,308.17,M,-33.324,M,,*7D
2017-12-31 18:07:45 1514761665.796296: $GPRMC,230746,A,3946.9561,N,08404.9874,W,0.0000,0.000,311217,,*35
2017-12-31 18:07:45 1514761665.796358: $GPGSA,A,3,22,23,9,3,16,29,14,31,27,26,135,,1.7,0.6,1.3*06
2017-12-31 18:07:46 1514761666.346890: $GPZDA,230747.00,31,12,2017,00,00*66
2017-12-31 18:07:46 1514761666.347046: $GPGGA,230747,3946.9561,N,08404.9874,W,2,11,0.60,308.17,M,-33.324,M,,*7C
2017-12-31 18:07:46 1514761666.347174: $GPRMC,230747,A,3946.9561,N,08404.9874,W,0.0000,0.000,311217,,*34
2017-12-31 18:07:46 1514761666.347238: $GPGSA,A,3,22,23,9,3,16,29,14,31,27,26,135,,1.7,0.6,1.3*06
