2017-12-29 14:42:08 1514576528.830733: {"class":"VERSION","release":"3.16","rev":"3.16-4","proto_major":3,"proto_minor":11}
2017-12-29 14:42:08 1514576528.831108: {"class":"DEVICES","devices":[{"class":"DEVICE","path":"/dev/ttyUSB0","driver":"SiRF","subtype":"9\u0006GSD4e_4.1.2-P1_RPATCH.05-F-GPS-4R-1510281 11/03/2015 307","activated":"2017-12-29T19:42:08.510Z","flags":1,"native":1,"bps":4800,"parity":"N","stopbits":1,"cycle":1.00}]}
2017-12-29 14:42:08 1514576528.831232: {"class":"WATCH","enable":true,"json":false,"nmea":true,"raw":0,"scaled":false,"timing":false,"split24":false,"pps":false}
2017-12-29 14:42:09 1514576529.705768: $GPGSV,3,1,12,01,22,298,37,11,07,280,37,10,45,150,50,12,21,048,45*7B
2017-12-29 14:42:09 1514576529.705928: $GPGSV,3,2,12,14,67,333,42,18,14,145,44,22,22,312,39,25,40,087,50*75
2017-12-29 14:42:09 1514576529.705994: $GPGSV,3,3,12,31,61,228,46,32,67,039,48,26,06,181,30,138,38,213,43*4C
2017-12-29 14:42:09 1514576529.819100: $GPZDA,194210.00,29,12,2017,00,00*65
2017-12-29 14:42:09 1514576529.819231: $GPGGA,194210,3946.9570,N,08404.9833,W,2,12,0.80,299.89,M,-33.324,M,,*76
2017-12-29 14:42:09 1514576529.819295: $GPRMC,194210,A,3946.9570,N,08404.9833,W,0.0000,0.000,291217,,*34
2017-12-29 14:42:09 1514576529.819355: $GPGSA,A,3,1,11,10,12,14,18,22,25,31,32,26,138,1.7,0.8,1.3*3B
2017-12-29 14:42:10 1514576530.376304: $GPZDA,194211.00,29,12,2017,00,00*64
2017-12-29 14:42:10 1514576530.376476: $GPGGA,194211,3946.9570,N,08404.9833,W,2,12,0.80,299.89,M,-33.324,M,,*77
2017-12-29 14:42:10 1514576530.376542: $GPRMC,194211,A,3946.9570,N,08404.9833,W,0.0000,0.000,291217,,*35
2017-12-29 14:42:10 1514576530.376604: $GPGSA,A,3,1,11,10,12,14,18,22,25,31,32,26,138,1.7,0.8,1.3*3B
2017-12-29 14:42:11 1514576531.372181: $GPZDA,194212.00,29,12,2017,00,00*67
2017-12-29 14:42:11 1514576531.372349: $GPGGA,194212,3946.9570,N,08404.9833,W,2,12,0.80,299.89,M,-33.324,M,,*74
2017-12-29 14:42:11 1514576531.372415: $GPRMC,194212,A,3946.9570,N,08404.9833,W,0.0000,0.000,291217,,*36
2017-12-29 14:42:11 1514576531.372478: $GPGSA,A,3,1,11,10,12,14,18,22,25,31,32,26,138,1.7,0.8,1.3*3B
2017-12-29 14:42:12 1514576532.702380: $GPGSV,3,1,12,01,22,298,38,11,07,280,38,10,45,150,50,12,21,048,45*7B
2017-12-29 14:42:12 1514576532.702541: $GPGSV,3,2,12,14,67,333,43,18,14,145,44,22,22,312,39,25,40,087,51*75
2017-12-29 14:42:12 1514576532.702609: $GPGSV,3,3,12,31,61,228,47,32,67,039,48,26,06,181,30,138,38,213,42*4C
2017-12-29 14:42:12 1514576532.815735: $GPZDA,194213.00,29,12,2017,00,00*66
2017-12-29 14:42:12 1514576532.815879: $GPGGA,194213,3946.9574,N,08404.9833,W,2,12,0.80,300.53,M,-33.324,M,,*77
2017-12-29 14:42:12 1514576532.815944: $GPRMC,194213,A,3946.9574,N,08404.9833,W,0.0000,0.000,291217,,*33
2017-12-29 14:42:12 1514576532.816005: $GPGSA,A,3,1,11,10,12,14,18,22,25,31,32,26,138,1.7,0.8,1.3*3B
2017-12-29 14:42:13 1514576533.370391: $GPZDA,194214.00,29,12,2017,00,00*61
2017-12-29 14:42:13 1514576533.370548: $GPGGA,194214,3946.9574,N,08404.9833,W,2,12,0.80,300.53,M,-33.324,M,,*70
2017-12-29 14:42:13 1514576533.370612: $GPRMC,194214,A,3946.9574,N,08404.9833,W,0.0000,0.000,291217,,*34
2017-12-29 14:42:13 1514576533.370674: $GPGSA,A,3,1,11,10,12,14,18,22,25,31,32,26,138,1.7,0.8,1.3*3B
2017-12-29 14:42:14 1514576534.369983: $GPZDA,194215.00,29,12,2017,00,00*60
2017-12-29 14:42:14 1514576534.788290: $GPGGA,194215,3946.9574,N,08404.9833,W,2,12,0.80,300.53,M,-33.324,M,,*71
2017-12-29 14:42:14 1514576534.788423: $GPRMC,194215,A,3946.9574,N,08404.9833,W,0.0000,0.000,291217,,*35
2017-12-29 14:42:14 1514576534.788486: $GPGSA,A,3,1,11,10,12,14,18,22,25,31,32,26,138,1.7,0.8,1.3*3B
2017-12-29 14:42:15 1514576535.738215: $GPGSV,3,1,12,01,22,298,38,11,07,280,38,10,45,150,50,12,21,048,46*78
2017-12-29 14:42:15 1514576535.738382: $GPGSV,3,2,12,14,67,333,43,18,14,145,44,22,22,312,39,25,40,087,51*75
2017-12-29 14:42:15 1514576535.738447: $GPGSV,3,3,12,31,61,228,46,32,67,039,49,26,06,181,30,138,38,213,42*4C
2017-12-29 14:42:15 1514576535.851686: $GPZDA,194216.00,29,12,2017,00,00*63
2017-12-29 14:42:15 1514576535.851848: $GPGGA,194216,3946.9574,N,08404.9833,W,2,12,0.80,300.53,M,-33.324,M,,*72
2017-12-29 14:42:15 1514576535.851967: $GPRMC,194216,A,3946.9574,N,08404.9833,W,0.0000,0.000,291217,,*36
2017-12-29 14:42:15 1514576535.852031: $GPGSA,A,3,1,11,10,12,14,18,22,25,31,32,26,138,1.7,0.8,1.3*3B
2017-12-29 14:42:16 1514576536.368728: $GPZDA,194217.00,29,12,2017,00,00*62
2017-12-29 14:42:16 1514576536.368888: $GPGGA,194217,3946.9574,N,08404.9833,W,2,12,0.80,300.53,M,-33.324,M,,*73
2017-12-29 14:42:16 1514576536.368955: $GPRMC,194217,A,3946.9574,N,08404.9833,W,0.0000,0.000,291217,,*37
2017-12-29 14:42:16 1514576536.369016: $GPGSA,A,3,1,11,10,12,14,18,22,25,31,32,26,138,1.7,0.8,1.3*3B
2017-12-29 14:42:17 1514576537.404157: $GPZDA,194218.00,29,12,2017,00,00*6D
2017-12-29 14:42:17 1514576537.404322: $GPGGA,194218,3946.9574,N,08404.9833,W,2,12,0.80,300.53,M,-33.324,M,,*7C
2017-12-29 14:42:17 1514576537.404390: $GPRMC,194218,A,3946.9574,N,08404.9833,W,0.0000,0.000,291217,,*38
2017-12-29 14:42:17 1514576537.404451: $GPGSA,A,3,1,11,10,12,14,18,22,25,31,32,26,138,1.7,0.8,1.3*3B
2017-12-29 14:42:18 1514576538.739812: $GPGSV,3,1,12,01,22,298,38,11,07,280,39,10,45,150,50,12,21,048,46*79
2017-12-29 14:42:18 1514576538.739975: $GPGSV,3,2,12,14,67,333,43,18,14,145,45,22,22,312,39,25,40,087,51*74
2017-12-29 14:42:18 1514576538.740042: $GPGSV,3,3,12,31,61,228,46,32,67,039,48,26,06,181,31,138,38,213,43*4D
