2017-12-29 15:03:58 1514577838.141275: {"class":"VERSION","release":"3.16","rev":"3.16-4","proto_major":3,"proto_minor":11}
2017-12-29 15:03:58 1514577838.141644: {"class":"DEVICES","devices":[{"class":"DEVICE","path":"/dev/ttyUSB0","driver":"SiRF","subtype":"9\u0006GSD4e_4.1.2-P1_RPATCH.05-F-GPS-4R-1510281 11/03/2015 307","activated":"2017-12-29T20:03:57.504Z","flags":1,"native":1,"bps":4800,"parity":"N","stopbits":1,"cycle":1.00}]}
2017-12-29 15:03:58 1514577838.141760: {"class":"WATCH","enable":true,"json":false,"nmea":true,"raw":0,"scaled":false,"timing":false,"split24":false,"pps":false}
2017-12-29 15:03:58 1514577838.364778: $GPZDA,200359.00,29,12,2017,00,00*67
2017-12-29 15:03:58 1514577838.364946: $GPGGA,200359,3946.9576,N,08404.9864,W,2,12,0.80,293.75,M,-33.324,M,,*79
2017-12-29 15:03:58 1514577838.365014: $GPRMC,200359,A,3946.9576,N,08404.9864,W,0.0000,0.000,291217,,*32
2017-12-29 15:03:58 1514577838.365075: $GPGSA,A,3,1,3,10,18,12,14,22,25,31,32,26,138,1.7,0.8,1.3*08
2017-12-29 15:03:59 1514577839.700527: $GPGSV,3,1,12,01,22,288,38,03,11,316,39,10,34,153,49,18,05,147,24*79
2017-12-29 15:03:59 1514577839.700693: $GPGSV,3,2,12,12,16,039,41,14,70,358,44,22,30,309,41,25,40,073,50*72
2017-12-29 15:03:59 1514577839.700759: $GPGSV,3,3,12,31,70,243,47,32,62,060,50,26,15,180,28,138,38,213,42*4B
2017-12-29 15:03:59 1514577839.813856: $GPZDA,200400.00,29,12,2017,00,00*6C
2017-12-29 15:03:59 1514577839.814002: $GPGGA,200400,3946.9576,N,08404.9864,W,2,12,0.80,293.75,M,-33.324,M,,*72
2017-12-29 15:03:59 1514577839.814071: $GPRMC,200400,A,3946.9576,N,08404.9864,W,0.0000,0.000,291217,,*39
2017-12-29 15:03:59 1514577839.814131: $GPGSA,A,3,1,3,10,18,12,14,22,25,31,32,26,138,1.7,0.8,1.3*08
2017-12-29 15:04:00 1514577840.439619: $GPZDA,200401.00,29,12,2017,00,00*6D
2017-12-29 15:04:00 1514577840.439779: $GPGGA,200401,3946.9576,N,08404.9864,W,2,12,0.80,293.75,M,-33.324,M,,*73
2017-12-29 15:04:00 1514577840.439845: $GPRMC,200401,A,3946.9576,N,08404.9864,W,0.0000,0.000,291217,,*38
2017-12-29 15:04:00 1514577840.439905: $GPGSA,A,3,1,3,10,18,12,14,22,25,31,32,26,138,1.7,0.8,1.3*08
2017-12-29 15:04:01 1514577841.365554: $GPZDA,200402.00,29,12,2017,00,00*6E
2017-12-29 15:04:01 1514577841.365713: $GPGGA,200402,3946.9576,N,08404.9864,W,2,12,0.80,293.75,M,-33.324,M,,*70
2017-12-29 15:04:01 1514577841.365779: $GPRMC,200402,A,3946.9576,N,08404.9864,W,0.0000,0.000,291217,,*3B
2017-12-29 15:04:01 1514577841.365839: $GPGSA,A,3,1,3,10,18,12,14,22,25,31,32,26,138,1.7,0.8,1.3*08
2017-12-29 15:04:02 1514577842.699665: $GPGSV,3,1,12,01,22,288,38,03,11,316,39,10,34,153,49,18,05,147,23*7E
2017-12-29 15:04:02 1514577842.699829: $GPGSV,3,2,12,12,16,039,41,14,70,358,44,22,30,309,41,25,40,073,50*72
2017-12-29 15:04:02 1514577842.699895: $GPGSV,3,3,12,31,70,243,47,32,62,060,50,26,15,180,29,138,38,213,43*4B
2017-12-29 15:04:02 1514577842.813359: $GPZDA,200403.00,29,12,2017,00,00*6F
2017-12-29 15:04:02 1514577842.813481: $GPGGA,200403,3946.9576,N,08404.9864,W,2,12,0.80,293.75,M,-33.324,M,,*71
2017-12-29 15:04:02 1514577842.813544: $GPRMC,200403,A,3946.9576,N,08404.9864,W,0.0000,0.000,291217,,*3A
2017-12-29 15:04:02 1514577842.813604: $GPGSA,A,3,1,3,10,18,12,14,22,25,31,32,26,138,1.7,0.8,1.3*08
2017-12-29 15:04:03 1514577843.364261: $GPZDA,200404.00,29,12,2017,00,00*68
2017-12-29 15:04:03 1514577843.364442: $GPGGA,200404,3946.9576,N,08404.9864,W,2,12,0.80,293.75,M,-33.324,M,,*76
2017-12-29 15:04:03 1514577843.364527: $GPRMC,200404,A,3946.9576,N,08404.9864,W,0.0000,0.000,291217,,*3D
2017-12-29 15:04:03 1514577843.364590: $GPGSA,A,3,1,3,10,18,12,14,22,25,31,32,26,138,1.7,0.8,1.3*08
2017-12-29 15:04:04 1514577844.364658: $GPZDA,200405.00,29,12,2017,00,00*69
2017-12-29 15:04:04 1514577844.364817: $GPGGA,200405,3946.9576,N,08404.9864,W,2,12,0.80,293.75,M,-33.324,M,,*77
2017-12-29 15:04:04 1514577844.364884: $GPRMC,200405,A,3946.9576,N,08404.9864,W,0.0000,0.000,291217,,*3C
2017-12-29 15:04:04 1514577844.364945: $GPGSA,A,3,1,3,10,18,12,14,22,25,31,32,26,138,1.7,0.8,1.3*08
2017-12-29 15:04:05 1514577845.698721: $GPGSV,3,1,12,01,22,288,38,03,11,316,38,10,34,153,49,18,05,147,23*7F
2017-12-29 15:04:05 1514577845.698938: $GPGSV,3,2,12,12,16,039,40,14,70,358,43,22,30,309,41,25,40,073,50*74
2017-12-29 15:04:05 1514577845.699008: $GPGSV,3,3,12,31,70,243,47,32,62,060,50,26,15,180,30,138,38,213,43*43
2017-12-29 15:04:05 1514577845.812109: $GPZDA,200406.00,29,12,2017,00,00*6A
2017-12-29 15:04:05 1514577845.812248: $GPGGA,200406,3946.9576,N,08404.9864,W,2,12,0.80,293.75,M,-33.324,M,,*74
2017-12-29 15:04:05 1514577845.812313: $GPRMC,200406,A,3946.9576,N,08404.9864,W,0.0000,0.000,291217,,*3F
2017-12-29 15:04:05 1514577845.812373: $GPGSA,A,3,1,3,10,18,12,14,22,25,31,32,26,138,1.7,0.8,1.3*08
2017-12-29 15:04:06 1514577846.721259: $GPZDA,200407.00,29,12,2017,00,00*6B
2017-12-29 15:04:06 1514577846.721422: $GPGGA,200407,3946.9576,N,08404.9864,W,2,12,0.80,293.75,M,-33.324,M,,*75
2017-12-29 15:04:06 1514577846.721489: $GPRMC,200407,A,3946.9576,N,08404.9864,W,0.0000,0.000,291217,,*3E
2017-12-29 15:04:06 1514577846.721549: $GPGSA,A,3,1,3,10,18,12,14,22,25,31,32,26,138,1.7,0.8,1.3*08
2017-12-29 15:04:06 1514577846.721608: $GPGBS,200407,2.73,M,2.59,M,7.72,M*35
2017-12-29 15:04:07 1514577847.365186: $GPZDA,200408.00,29,12,2017,00,00*64
2017-12-29 15:04:07 1514577847.365355: $GPGGA,200408,3946.9576,N,08404.9864,W,2,12,0.80,293.75,M,-33.324,M,,*7A
2017-12-29 15:04:07 1514577847.365421: $GPRMC,200408,A,3946.9576,N,08404.9864,W,0.0000,0.000,291217,,*31
2017-12-29 15:04:07 1514577847.365481: $GPGSA,A,3,1,3,10,18,12,14,22,25,31,32,26,138,1.7,0.8,1.3*08
