2018-01-12 03:25:20 1515745520.813981: {"class":"VERSION","release":"3.16","rev":"3.16-4","proto_major":3,"proto_minor":11}
2018-01-12 03:25:20 1515745520.814390: {"class":"DEVICES","devices":[{"class":"DEVICE","path":"/dev/ttyUSB0","driver":"SiRF","subtype":"9\u0006GSD4e_4.1.2-P1_RPATCH.05-F-GPS-4R-1510281 11/03/2015 307","activated":"2018-01-12T08:25:20.471Z","flags":1,"native":1,"bps":4800,"parity":"N","stopbits":1,"cycle":1.00}]}
2018-01-12 03:25:20 1515745520.814510: {"class":"WATCH","enable":true,"json":false,"nmea":true,"raw":0,"scaled":false,"timing":false,"split24":false,"pps":false}
2018-01-12 03:25:21 1515745521.076080: $GPZDA,082521.76,12,01,2018,00,00*62
2018-01-12 03:25:21 1515745521.076254: $GPGGA,082521,3946.9579,N,08404.9863,W,1,11,1.00,291.58,M,-33.324,M,,*74
2018-01-12 03:25:21 1515745521.076319: $GPRMC,082521,A,3946.9579,N,08404.9863,W,1.0018,50.691,120118,,*0D
2018-01-12 03:25:21 1515745521.076380: $GPGSA,A,3,2,5,6,12,17,19,25,9,23,24,138,,2.4,1.0,2.1*09
2018-01-12 03:25:21 1515745521.076438: $GPGBS,082521,11.98,M,14.47,M,47.88,M*06
2018-01-12 03:25:22 1515745522.157155: $GPZDA,082522.45,12,01,2018,00,00*61
2018-01-12 03:25:22 1515745522.157323: $GPGGA,082522,3946.9579,N,08404.9863,W,1,11,1.00,291.58,M,-33.324,M,,*77
2018-01-12 03:25:22 1515745522.157389: $GPRMC,082522,A,3946.9579,N,08404.9863,W,0.4207,39.346,120118,,*07
2018-01-12 03:25:22 1515745522.157450: $GPGSA,A,3,2,5,6,12,17,19,25,9,23,24,138,,2.4,1.0,2.1*09
2018-01-12 03:25:23 1515745523.299704: $GPGSV,3,1,12,02,63,280,47,05,23,195,41,06,67,024,48,12,49,295,51*73
2018-01-12 03:25:23 1515745523.299880: $GPGSV,3,2,12,17,34,102,46,19,52,088,42,25,16,319,44,09,12,091,05*7E
2018-01-12 03:25:23 1515745523.299960: $GPGSV,3,3,12,23,08,058,05,24,05,249,05,04,35,258,00,138,38,213,00*4E
2018-01-12 03:25:23 1515745523.413233: $GPZDA,082523.00,12,01,2018,00,00*61
2018-01-12 03:25:23 1515745523.413426: $GPGGA,082523,3946.9579,N,08404.9863,W,1,07,1.00,291.58,M,-33.324,M,,*71
2018-01-12 03:25:23 1515745523.413494: $GPRMC,082523,A,3946.9579,N,08404.9863,W,0.4207,39.346,120118,,*06
2018-01-12 03:25:23 1515745523.413555: $GPGSA,A,3,2,5,6,12,17,19,25,,,,,,2.4,1.0,2.1*0D
2018-01-12 03:25:23 1515745523.865483: $GPZDA,082524.00,12,01,2018,00,00*66
2018-01-12 03:25:23 1515745523.865655: $GPGGA,082524,3946.9579,N,08404.9863,W,1,07,0.80,291.58,M,-33.324,M,,*7F
2018-01-12 03:25:23 1515745523.865723: $GPRMC,082524,A,3946.9579,N,08404.9863,W,0.0000,0.000,120118,,*3B
2018-01-12 03:25:23 1515745523.865783: $GPGSA,A,3,2,5,6,12,17,19,25,,,,,,2.4,0.8,2.1*04
2018-01-12 03:25:24 1515745524.375078: $GPZDA,082525.00,12,01,2018,00,00*67
2018-01-12 03:25:24 1515745524.375264: $GPGGA,082525,3946.9576,N,08404.9863,W,1,07,0.80,292.35,M,-33.324,M,,*79
2018-01-12 03:25:24 1515745524.375348: $GPRMC,082525,A,3946.9576,N,08404.9863,W,0.0000,0.000,120118,,*35
2018-01-12 03:25:24 1515745524.375409: $GPGSA,A,3,2,5,6,12,17,19,25,,,,,,2.4,0.8,2.1*04
2018-01-12 03:25:25 1515745525.708753: $GPGSV,3,1,12,02,63,280,48,05,23,195,42,06,67,024,49,12,49,295,51*7E
2018-01-12 03:25:25 1515745525.708923: $GPGSV,3,2,12,17,34,102,47,19,52,088,42,25,16,319,44,09,12,091,12*79
2018-01-12 03:25:25 1515745525.708989: $GPGSV,3,3,12,23,08,058,22,24,05,249,28,04,35,258,00,138,38,213,40*40
2018-01-12 03:25:25 1515745525.822430: $GPZDA,082526.00,12,01,2018,00,00*64
2018-01-12 03:25:25 1515745525.822616: $GPGGA,082526,3946.9571,N,08404.9863,W,1,11,0.80,291.71,M,-33.324,M,,*79
2018-01-12 03:25:25 1515745525.822683: $GPRMC,082526,A,3946.9571,N,08404.9863,W,0.0000,0.000,120118,,*31
2018-01-12 03:25:25 1515745525.822744: $GPGSA,A,3,2,5,6,12,17,19,25,9,23,24,138,,2.4,0.8,2.1*00
2018-01-12 03:25:26 1515745526.370779: $GPZDA,082527.00,12,01,2018,00,00*65
2018-01-12 03:25:26 1515745526.370947: $GPGGA,082527,3946.9571,N,08404.9863,W,1,11,0.80,291.71,M,-33.324,M,,*78
2018-01-12 03:25:26 1515745526.371012: $GPRMC,082527,A,3946.9571,N,08404.9863,W,0.0000,0.000,120118,,*30
2018-01-12 03:25:26 1515745526.371073: $GPGSA,A,3,2,5,6,12,17,19,25,9,23,24,138,,2.4,0.8,2.1*00
