2017-12-29 11:43:48 1514565828.436657: {"class":"VERSION","release":"3.16","rev":"3.16-4","proto_major":3,"proto_minor":11}
2017-12-29 11:43:48 1514565828.437002: {"class":"DEVICES","devices":[{"class":"DEVICE","path":"/dev/ttyUSB0","driver":"SiRF","subtype":"9\u0006GSD4e_4.1.2-P1_RPATCH.05-F-GPS-4R-1510281 11/03/2015 307","activated":"2017-12-29T16:43:48.416Z","flags":1,"native":1,"bps":4800,"parity":"N","stopbits":1,"cycle":1.00}]}
2017-12-29 11:43:48 1514565828.437118: {"class":"WATCH","enable":true,"json":false,"nmea":true,"raw":0,"scaled":false,"timing":false,"split24":false,"pps":false}
2017-12-29 11:43:49 1514565829.363517: $GPZDA,164350.00,29,12,2017,00,00*6F
2017-12-29 11:43:49 1514565829.363685: $GPGGA,164350,3946.9622,N,08404.9853,W,2,11,0.80,318.00,M,-33.324,M,,*74
2017-12-29 11:43:49 1514565829.363751: $GPRMC,164350,A,3946.9622,N,08404.9853,W,0.0000,0.000,291217,,*3C
2017-12-29 11:43:49 1514565829.363811: $GPGSA,A,3,8,10,15,18,20,21,24,27,32,14,138,,1.7,0.8,1.3*36
2017-12-29 11:43:50 1514565830.712197: $GPGSV,3,1,11,08,08,313,37,10,51,310,46,15,27,057,47,18,77,016,44*75
2017-12-29 11:43:50 1514565830.712379: $GPGSV,3,2,11,20,26,105,49,21,51,183,47,24,53,090,51,27,16,277,31*76
2017-12-29 11:43:50 1514565830.712444: $GPGSV,3,3,11,32,31,246,37,14,12,238,38,138,38,213,44*7B
2017-12-29 11:43:50 1514565830.825861: $GPZDA,164351.00,29,12,2017,00,00*6E
2017-12-29 11:43:50 1514565830.826027: $GPGGA,164351,3946.9622,N,08404.9853,W,2,11,0.80,318.00,M,-33.324,M,,*75
2017-12-29 11:43:50 1514565830.826093: $GPRMC,164351,A,3946.9622,N,08404.9853,W,0.0000,0.000,291217,,*3D
2017-12-29 11:43:50 1514565830.826154: $GPGSA,A,3,8,10,15,18,20,21,24,27,32,14,138,,1.7,0.8,1.3*36
2017-12-29 11:43:51 1514565831.361800: $GPZDA,164352.00,29,12,2017,00,00*6D
2017-12-29 11:43:51 1514565831.361980: $GPGGA,164352,3946.9622,N,08404.9853,W,2,11,0.80,318.00,M,-33.324,M,,*76
2017-12-29 11:43:51 1514565831.362046: $GPRMC,164352,A,3946.9622,N,08404.9853,W,0.0000,0.000,291217,,*3E
2017-12-29 11:43:51 1514565831.362107: $GPGSA,A,3,8,10,15,18,20,21,24,27,32,14,138,,1.7,0.8,1.3*36
2017-12-29 11:43:52 1514565832.377606: $GPZDA,164353.00,29,12,2017,00,00*6C
2017-12-29 11:43:52 1514565832.380545: $GPGGA,164353,3946.9622,N,08404.9853,W,2,11,0.80,318.00,M,-33.324,M,,*77
2017-12-29 11:43:52 1514565832.380647: $GPRMC,164353,A,3946.9622,N,08404.9853,W,0.0000,0.000,291217,,*3F
2017-12-29 11:43:52 1514565832.380711: $GPGSA,A,3,8,10,15,18,20,21,24,27,32,14,138,,1.7,0.8,1.3*36
2017-12-29 11:43:53 1514565833.713039: $GPGSV,3,1,11,08,08,313,36,10,51,310,45,15,27,057,47,18,77,016,44*77
2017-12-29 11:43:53 1514565833.713205: $GPGSV,3,2,11,20,26,105,49,21,51,183,47,24,53,090,51,27,16,277,34*73
2017-12-29 11:43:53 1514565833.713287: $GPGSV,3,3,11,32,31,246,37,14,12,238,38,138,38,213,46*79
2017-12-29 11:43:53 1514565833.826743: $GPZDA,164354.00,29,12,2017,00,00*6B
2017-12-29 11:43:53 1514565833.826911: $GPGGA,164354,3946.9622,N,08404.9853,W,2,11,0.80,318.00,M,-33.324,M,,*70
2017-12-29 11:43:53 1514565833.826976: $GPRMC,164354,A,3946.9622,N,08404.9853,W,0.0000,0.000,291217,,*38
2017-12-29 11:43:53 1514565833.827036: $GPGSA,A,3,8,10,15,18,20,21,24,27,32,14,138,,1.7,0.8,1.3*36
2017-12-29 11:43:54 1514565834.361403: $GPZDA,164355.00,29,12,2017,00,00*6A
2017-12-29 11:43:54 1514565834.361576: $GPGGA,164355,3946.9622,N,08404.9853,W,2,11,0.80,318.00,M,-33.324,M,,*71
2017-12-29 11:43:54 1514565834.361642: $GPRMC,164355,A,3946.9622,N,08404.9853,W,0.0000,0.000,291217,,*39
2017-12-29 11:43:54 1514565834.361703: $GPGSA,A,3,8,10,15,18,20,21,24,27,32,14,138,,1.7,0.8,1.3*36
2017-12-29 11:43:55 1514565835.362651: $GPZDA,164356.00,29,12,2017,00,00*69
2017-12-29 11:43:55 1514565835.362838: $GPGGA,164356,3946.9622,N,08404.9853,W,2,11,0.80,318.00,M,-33.324,M,,*72
2017-12-29 11:43:55 1514565835.362906: $GPRMC,164356,A,3946.9622,N,08404.9853,W,0.0000,0.000,291217,,*3A
2017-12-29 11:43:55 1514565835.362967: $GPGSA,A,3,8,10,15,18,20,21,24,27,32,14,138,,1.7,0.8,1.3*36
2017-12-29 11:43:56 1514565836.697146: $GPGSV,3,1,11,08,08,313,35,10,51,310,45,15,27,057,47,18,77,016,44*74
2017-12-29 11:43:56 1514565836.697400: $GPGSV,3,2,11,20,26,105,49,21,51,183,47,24,53,090,51,27,16,277,34*73
2017-12-29 11:43:56 1514565836.697470: $GPGSV,3,3,11,32,31,246,38,14,12,238,37,138,38,213,45*7A
2017-12-29 11:43:56 1514565836.810533: $GPZDA,164357.00,29,12,2017,00,00*68
2017-12-29 11:43:56 1514565836.810726: $GPGGA,164357,3946.9622,N,08404.9853,W,2,11,0.80,318.00,M,-33.324,M,,*73
2017-12-29 11:43:56 1514565836.810795: $GPRMC,164357,A,3946.9622,N,08404.9853,W,0.0000,0.000,291217,,*3B
2017-12-29 11:43:56 1514565836.810856: $GPGSA,A,3,8,10,15,18,20,21,24,27,32,14,138,,1.7,0.8,1.3*36
2017-12-29 11:43:57 1514565837.360494: $GPZDA,164358.00,29,12,2017,00,00*67
2017-12-29 11:43:57 1514565837.360662: $GPGGA,164358,3946.9622,N,08404.9853,W,2,11,0.80,318.00,M,-33.324,M,,*7C
2017-12-29 11:43:57 1514565837.360729: $GPRMC,164358,A,3946.9622,N,08404.9853,W,0.0000,0.000,291217,,*34
2017-12-29 11:43:57 1514565837.360791: $GPGSA,A,3,8,10,15,18,20,21,24,27,32,14,138,,1.7,0.8,1.3*36
2017-12-29 11:43:58 1514565838.355197: $GPZDA,164359.00,29,12,2017,00,00*66
2017-12-29 11:43:58 1514565838.355358: $GPGGA,164359,3946.9618,N,08404.9853,W,2,11,0.80,318.77,M,-33.324,M,,*74
2017-12-29 11:43:58 1514565838.355424: $GPRMC,164359,A,3946.9618,N,08404.9853,W,0.0000,0.000,291217,,*3C
2017-12-29 11:43:58 1514565838.355484: $GPGSA,A,3,8,10,15,18,20,21,24,27,32,14,138,,1.7,0.8,1.3*36
2017-12-29 11:43:59 1514565839.696740: $GPGSV,3,1,11,08,08,313,28,10,51,310,45,15,27,057,47,18,77,016,45*79
2017-12-29 11:43:59 1514565839.696938: $GPGSV,3,2,11,20,26,105,49,21,51,183,47,24,53,090,51,27,16,277,35*72
2017-12-29 11:43:59 1514565839.697006: $GPGSV,3,3,11,32,31,246,38,14,12,238,37,138,38,213,45*7A
2017-12-29 11:43:59 1514565839.810477: $GPZDA,164400.00,29,12,2017,00,00*6D
2017-12-29 11:43:59 1514565839.810647: $GPGGA,164400,3946.9618,N,08404.9846,W,2,11,1.00,318.85,M,-33.324,M,,*7F
2017-12-29 11:43:59 1514565839.810713: $GPRMC,164400,A,3946.9618,N,08404.9846,W,0.0000,0.000,291217,,*33
2017-12-29 11:43:59 1514565839.810773: $GPGSA,A,3,8,10,15,18,20,21,24,27,32,14,138,,1.7,1.0,1.3*3F
2017-12-29 11:44:00 1514565840.435477: $GPZDA,164401.00,29,12,2017,00,00*6C
2017-12-29 11:44:00 1514565840.435652: $GPGGA,164401,3946.9618,N,08404.9846,W,2,11,1.00,318.85,M,-33.324,M,,*7E
2017-12-29 11:44:00 1514565840.435720: $GPRMC,164401,A,3946.9618,N,08404.9846,W,0.0000,0.000,291217,,*32
2017-12-29 11:44:00 1514565840.435782: $GPGSA,A,3,8,10,15,18,20,21,24,27,32,14,138,,1.7,1.0,1.3*3F
2017-12-29 11:44:01 1514565841.362714: $GPZDA,164402.00,29,12,2017,00,00*6F
2017-12-29 11:44:01 1514565841.362893: $GPGGA,164402,3946.9618,N,08404.9846,W,2,11,1.00,318.85,M,-33.324,M,,*7D
2017-12-29 11:44:01 1514565841.362961: $GPRMC,164402,A,3946.9618,N,08404.9846,W,0.0000,0.000,291217,,*31
2017-12-29 11:44:01 1514565841.363045: $GPGSA,A,3,8,10,15,18,20,21,24,27,32,14,138,,1.7,1.0,1.3*3F
2017-12-29 11:44:02 1514565842.695857: $GPGSV,3,1,11,08,08,313,27,10,51,310,45,15,27,057,47,18,77,016,45*76
2017-12-29 11:44:02 1514565842.697604: $GPGSV,3,2,11,20,26,105,48,21,51,183,47,24,53,090,51,27,16,277,36*70
2017-12-29 11:44:02 1514565842.697705: $GPGSV,3,3,11,32,31,246,37,14,12,238,37,138,38,213,44*74
2017-12-29 11:44:02 1514565842.809552: $GPZDA,164403.00,29,12,2017,00,00*6E
2017-12-29 11:44:02 1514565842.809721: $GPGGA,164403,3946.9618,N,08404.9846,W,2,11,1.00,318.85,M,-33.324,M,,*7C
2017-12-29 11:44:02 1514565842.809787: $GPRMC,164403,A,3946.9618,N,08404.9846,W,0.0000,0.000,291217,,*30
2017-12-29 11:44:02 1514565842.809848: $GPGSA,A,3,8,10,15,18,20,21,24,27,32,14,138,,1.7,1.0,1.3*3F
2017-12-29 11:44:03 1514565843.356639: $GPZDA,164404.00,29,12,2017,00,00*69
2017-12-29 11:44:03 1514565843.356810: $GPGGA,164404,3946.9618,N,08404.9846,W,2,11,1.00,318.85,M,-33.324,M,,*7B
2017-12-29 11:44:03 1514565843.356876: $GPRMC,164404,A,3946.9618,N,08404.9846,W,0.0000,0.000,291217,,*37
2017-12-29 11:44:03 1514565843.356936: $GPGSA,A,3,8,10,15,18,20,21,24,27,32,14,138,,1.7,1.0,1.3*3F
