2017-11-16 14:21:47 1510860107.487416: {"class":"VERSION","release":"3.17","rev":"3.17","proto_major":3,"proto_minor":12}
2017-11-16 14:21:47 1510860107.487916: {"class":"DEVICES","devices":[{"class":"DEVICE","path":"/dev/ttyUSB0","driver":"SiRF","subtype":"9\u0006GSD4e_4.1.2-P1_RPATCH.05-F-GPS-4R-1510281 11/03/2015 307","activated":"2017-11-16T19:21:47.387Z","flags":1,"native":1,"bps":4800,"parity":"N","stopbits":1,"cycle":1.00}]}
2017-11-16 14:21:47 1510860107.488046: {"class":"WATCH","enable":true,"json":false,"nmea":true,"raw":0,"scaled":false,"timing":false,"split24":false,"pps":false}
2017-11-16 14:21:47 1510860107.501170: $GPZDA,192146.00,16,11,2017,00,00*6C
2017-11-16 14:21:47 1510860107.501323: $GPGGA,192146,3946.9565,N,08404.9850,W,2,12,0.80,304.07,M,-33.324,M,,*72
2017-11-16 14:21:47 1510860107.501382: $GPRMC,192146,A,3946.9565,N,08404.9850,W,0.0000,0.000,161117,,*3C
2017-11-16 14:21:47 1510860107.501436: $GPGSA,A,3,8,10,13,15,18,21,20,24,27,32,14,138,1.6,0.8,1.3*35
2017-11-16 14:21:48 1510860108.864432: $GPGSV,3,1,12,08,07,318,40,10,44,304,48,13,05,049,15,15,34,054,51*7B
2017-11-16 14:21:48 1510860108.864603: $GPGSV,3,2,12,18,73,346,47,21,60,187,45,20,30,099,44,24,52,103,48*70
2017-11-16 14:21:48 1510860108.864664: $GPGSV,3,3,12,27,18,285,42,32,23,241,46,14,07,234,32,138,38,213,44*4D
2017-11-16 14:21:48 1510860108.978857: $GPZDA,192147.00,16,11,2017,00,00*6D
2017-11-16 14:21:48 1510860108.979024: $GPGGA,192147,3946.9565,N,08404.9850,W,2,12,0.80,304.07,M,-33.324,M,,*73
2017-11-16 14:21:48 1510860108.979086: $GPRMC,192147,A,3946.9565,N,08404.9850,W,0.0000,0.000,161117,,*3D
2017-11-16 14:21:48 1510860108.979141: $GPGSA,A,3,8,10,13,15,18,21,20,24,27,32,14,138,1.6,0.8,1.3*35
2017-11-16 14:21:49 1510860109.603354: $GPZDA,192148.00,16,11,2017,00,00*62
2017-11-16 14:21:49 1510860109.603529: $GPGGA,192148,3946.9565,N,08404.9850,W,2,12,0.80,304.07,M,-33.324,M,,*7C
2017-11-16 14:21:49 1510860109.603592: $GPRMC,192148,A,3946.9565,N,08404.9850,W,0.0000,0.000,161117,,*32
2017-11-16 14:21:49 1510860109.603660: $GPGSA,A,3,8,10,13,15,18,21,20,24,27,32,14,138,1.6,0.8,1.3*35
2017-11-16 14:21:50 1510860110.533172: $GPZDA,192149.00,16,11,2017,00,00*63
2017-11-16 14:21:50 1510860110.533335: $GPGGA,192149,3946.9565,N,08404.9850,W,2,12,0.80,304.07,M,-33.324,M,,*7D
2017-11-16 14:21:50 1510860110.533396: $GPRMC,192149,A,3946.9565,N,08404.9850,W,0.0000,0.000,161117,,*33
2017-11-16 14:21:50 1510860110.533452: $GPGSA,A,3,8,10,13,15,18,21,20,24,27,32,14,138,1.6,0.8,1.3*35
2017-11-16 14:21:51 1510860111.837236: $GPGSV,3,1,12,08,07,318,40,10,44,304,48,13,05,049,16,15,34,054,50*79
2017-11-16 14:21:51 1510860111.837405: $GPGSV,3,2,12,18,73,346,46,21,60,187,45,20,30,099,44,24,52,103,48*71
2017-11-16 14:21:51 1510860111.837464: $GPGSV,3,3,12,27,18,285,42,32,23,241,46,14,07,234,33,138,38,213,45*4D
2017-11-16 14:21:51 1510860111.950620: $GPZDA,192150.00,16,11,2017,00,00*6B
2017-11-16 14:21:51 1510860111.950791: $GPGGA,192150,3946.9565,N,08404.9850,W,2,12,0.80,304.07,M,-33.324,M,,*75
2017-11-16 14:21:51 1510860111.950852: $GPRMC,192150,A,3946.9565,N,08404.9850,W,0.0000,0.000,161117,,*3B
2017-11-16 14:21:51 1510860111.950908: $GPGSA,A,3,8,10,13,15,18,21,20,24,27,32,14,138,1.6,0.8,1.3*35
2017-11-16 14:21:52 1510860112.533936: $GPZDA,192151.00,16,11,2017,00,00*6A
2017-11-16 14:21:52 1510860112.534101: $GPGGA,192151,3946.9565,N,08404.9850,W,2,12,0.80,304.07,M,-33.324,M,,*74
2017-11-16 14:21:52 1510860112.534163: $GPRMC,192151,A,3946.9565,N,08404.9850,W,0.0000,0.000,161117,,*3A
2017-11-16 14:21:52 1510860112.534219: $GPGSA,A,3,8,10,13,15,18,21,20,24,27,32,14,138,1.6,0.8,1.3*35
2017-11-16 14:21:53 1510860113.502587: $GPZDA,192152.00,16,11,2017,00,00*69
2017-11-16 14:21:53 1510860113.502750: $GPGGA,192152,3946.9565,N,08404.9850,W,2,12,0.80,304.07,M,-33.324,M,,*77
2017-11-16 14:21:53 1510860113.502811: $GPRMC,192152,A,3946.9565,N,08404.9850,W,0.0000,0.000,161117,,*39
2017-11-16 14:21:53 1510860113.502867: $GPGSA,A,3,8,10,13,15,18,21,20,24,27,32,14,138,1.6,0.8,1.3*35
2017-11-16 14:21:54 1510860114.832590: $GPGSV,3,1,12,08,07,318,39,10,44,304,48,13,05,049,15,15,34,054,51*75
2017-11-16 14:21:54 1510860114.832788: $GPGSV,3,2,12,18,73,346,47,21,60,187,45,20,30,099,44,24,52,103,48*70
2017-11-16 14:21:54 1510860114.832850: $GPGSV,3,3,12,27,18,285,42,32,23,241,46,14,07,234,34,138,38,213,43*4C
2017-11-16 14:21:54 1510860114.946575: $GPZDA,192153.00,16,11,2017,00,00*68
2017-11-16 14:21:54 1510860114.946743: $GPGGA,192153,3946.9565,N,08404.9850,W,2,12,0.80,304.07,M,-33.324,M,,*76
2017-11-16 14:21:54 1510860114.946803: $GPRMC,192153,A,3946.9565,N,08404.9850,W,0.0000,0.000,161117,,*38
2017-11-16 14:21:54 1510860114.946859: $GPGSA,A,3,8,10,13,15,18,21,20,24,27,32,14,138,1.6,0.8,1.3*35
2017-11-16 14:21:55 1510860115.533295: $GPZDA,192154.00,16,11,2017,00,00*6F
2017-11-16 14:21:55 1510860115.533456: $GPGGA,192154,3946.9565,N,08404.9850,W,2,12,0.80,304.07,M,-33.324,M,,*71
2017-11-16 14:21:55 1510860115.533516: $GPRMC,192154,A,3946.9565,N,08404.9850,W,0.0000,0.000,161117,,*3F
2017-11-16 14:21:55 1510860115.533572: $GPGSA,A,3,8,10,13,15,18,21,20,24,27,32,14,138,1.6,0.8,1.3*35
2017-11-16 14:21:56 1510860116.532908: $GPZDA,192155.00,16,11,2017,00,00*6E
2017-11-16 14:21:56 1510860116.533069: $GPGGA,192155,3946.9565,N,08404.9850,W,2,12,0.80,304.07,M,-33.324,M,,*70
2017-11-16 14:21:56 1510860116.533129: $GPRMC,192155,A,3946.9565,N,08404.9850,W,0.0000,0.000,161117,,*3E
2017-11-16 14:21:56 1510860116.533185: $GPGSA,A,3,8,10,13,15,18,21,20,24,27,32,14,138,1.6,0.8,1.3*35
2017-11-16 14:21:57 1510860117.869695: $GPGSV,3,1,12,08,07,318,38,10,44,304,47,13,05,049,16,15,34,054,50*79
2017-11-16 14:21:57 1510860117.869864: $GPGSV,3,2,12,18,73,346,47,21,60,187,45,20,30,099,44,24,52,103,48*70
2017-11-16 14:21:57 1510860117.869925: $GPGSV,3,3,12,27,18,285,43,32,23,241,46,14,07,234,34,138,38,213,44*4A
2017-11-16 14:21:57 1510860117.982966: $GPZDA,192156.00,16,11,2017,00,00*6D
2017-11-16 14:21:57 1510860117.983131: $GPGGA,192156,3946.9565,N,08404.9850,W,2,12,0.80,304.07,M,-33.324,M,,*73
2017-11-16 14:21:57 1510860117.983193: $GPRMC,192156,A,3946.9565,N,08404.9850,W,0.0000,0.000,161117,,*3D
2017-11-16 14:21:57 1510860117.983248: $GPGSA,A,3,8,10,13,15,18,21,20,24,27,32,14,138,1.6,0.8,1.3*35
2017-11-16 14:21:58 1510860118.532646: $GPZDA,192157.00,16,11,2017,00,00*6C
2017-11-16 14:21:58 1510860118.532808: $GPGGA,192157,3946.9565,N,08404.9850,W,2,12,0.80,304.07,M,-33.324,M,,*72
2017-11-16 14:21:58 1510860118.532868: $GPRMC,192157,A,3946.9565,N,08404.9850,W,0.0000,0.000,161117,,*3C
2017-11-16 14:21:58 1510860118.532924: $GPGSA,A,3,8,10,13,15,18,21,20,24,27,32,14,138,1.6,0.8,1.3*35
2017-11-16 14:21:59 1510860119.532997: $GPZDA,192158.00,16,11,2017,00,00*63
2017-11-16 14:21:59 1510860119.533143: $GPGGA,192158,3946.9565,N,08404.9850,W,2,12,0.80,304.07,M,-33.324,M,,*7D
2017-11-16 14:21:59 1510860119.533204: $GPRMC,192158,A,3946.9565,N,08404.9850,W,0.0000,0.000,161117,,*33
2017-11-16 14:21:59 1510860119.533260: $GPGSA,A,3,8,10,13,15,18,21,20,24,27,32,14,138,1.6,0.8,1.3*35
2017-11-16 14:22:00 1510860120.870032: $GPGSV,3,1,12,08,07,318,37,10,44,304,47,13,05,049,17,15,34,054,51*76
2017-11-16 14:22:00 1510860120.870199: $GPGSV,3,2,12,18,73,346,47,21,60,187,45,20,30,099,44,24,52,103,48*70
2017-11-16 14:22:00 1510860120.870258: $GPGSV,3,3,12,27,18,285,43,32,23,241,46,14,07,234,34,138,38,213,43*4D
2017-11-16 14:22:00 1510860120.983313: $GPZDA,192159.00,16,11,2017,00,00*62
2017-11-16 14:22:00 1510860120.983474: $GPGGA,192159,3946.9565,N,08404.9850,W,2,12,0.80,304.07,M,-33.324,M,,*7C
2017-11-16 14:22:00 1510860120.983534: $GPRMC,192159,A,3946.9565,N,08404.9850,W,0.0000,0.000,161117,,*32
2017-11-16 14:22:00 1510860120.983593: $GPGSA,A,3,8,10,13,15,18,21,20,24,27,32,14,138,1.6,0.8,1.3*35
2017-11-16 14:22:01 1510860121.501818: $GPZDA,192200.00,16,11,2017,00,00*6D
2017-11-16 14:22:01 1510860121.501991: $GPGGA,192200,3946.9565,N,08404.9850,W,2,12,0.80,304.07,M,-33.324,M,,*73
2017-11-16 14:22:01 1510860121.502052: $GPRMC,192200,A,3946.9565,N,08404.9850,W,0.0000,0.000,161117,,*3D
2017-11-16 14:22:01 1510860121.502108: $GPGSA,A,3,8,10,13,15,18,21,20,24,27,32,14,138,1.6,0.8,1.3*35
2017-11-16 14:22:02 1510860122.502504: $GPZDA,192201.00,16,11,2017,00,00*6C
2017-11-16 14:22:02 1510860122.502670: $GPGGA,192201,3946.9565,N,08404.9850,W,2,12,0.80,304.07,M,-33.324,M,,*72
2017-11-16 14:22:02 1510860122.502731: $GPRMC,192201,A,3946.9565,N,08404.9850,W,0.0000,0.000,161117,,*3C
2017-11-16 14:22:02 1510860122.502787: $GPGSA,A,3,8,10,13,15,18,21,20,24,27,32,14,138,1.6,0.8,1.3*35
