2017-12-31 18:57:42 1514764662.859509: {"class":"VERSION","release":"3.16","rev":"3.16-4","proto_major":3,"proto_minor":11}
2017-12-31 18:57:42 1514764662.859858: {"class":"DEVICES","devices":[{"class":"DEVICE","path":"/dev/ttyUSB0","driver":"SiRF","activated":"2017-12-31T23:57:42.840Z","flags":1,"native":1,"bps":4800,"parity":"N","stopbits":1,"cycle":1.00}]}
2017-12-31 18:57:42 1514764662.859957: {"class":"WATCH","enable":true,"json":false,"nmea":true,"raw":0,"scaled":false,"timing":false,"split24":false,"pps":false}
2017-12-31 18:57:43 1514764663.385468: $GPZDA,235744.00,31,12,2017,00,00*60
2017-12-31 18:57:43 1514764663.385646: $GPGGA,235744,3946.9578,N,08404.9824,W,2,11,0.80,310.52,M,-33.324,M,,*71
2017-12-31 18:57:43 1514764663.385714: $GPRMC,235744,A,3946.9578,N,08404.9824,W,0.0000,0.000,311217,,*3F
2017-12-31 18:57:43 1514764663.385777: $GPGSA,A,3,22,23,9,3,16,8,31,27,7,26,135,,1.7,0.8,1.3*09
2017-12-31 18:57:44 1514764664.392585: $GPZDA,235745.00,31,12,2017,00,00*61
2017-12-31 18:57:44 1514764664.392770: $GPGGA,235745,3946.9578,N,08404.9824,W,2,11,0.80,310.52,M,-33.324,M,,*70
2017-12-31 18:57:44 1514764664.392840: $GPRMC,235745,A,3946.9578,N,08404.9824,W,0.0000,0.000,311217,,*3E
2017-12-31 18:57:44 1514764664.392904: $GPGSA,A,3,22,23,9,3,16,8,31,27,7,26,135,,1.7,0.8,1.3*09
2017-12-31 18:57:45 1514764665.688823: $GPGSV,3,1,11,22,05,202,26,23,70,270,39,09,40,307,33,03,15,219,30*74
2017-12-31 18:57:45 1514764665.689006: $GPGSV,3,2,11,16,73,036,45,08,20,175,44,31,14,091,29,27,43,139,40*7F
2017-12-31 18:57:45 1514764665.689075: $GPGSV,3,3,11,07,13,286,36,26,41,048,44,135,22,240,43*7E
2017-12-31 18:57:45 1514764665.802417: $GPZDA,235746.00,31,12,2017,00,00*62
2017-12-31 18:57:45 1514764665.802548: $GPGGA,235746,3946.9578,N,08404.9824,W,2,11,0.80,310.52,M,-33.324,M,,*73
2017-12-31 18:57:45 1514764665.802615: $GPRMC,235746,A,3946.9578,N,08404.9824,W,0.0000,0.000,311217,,*3D
2017-12-31 18:57:45 1514764665.802678: $GPGSA,A,3,22,23,9,3,16,8,31,27,7,26,135,,1.7,0.8,1.3*09
2017-12-31 18:57:46 1514764666.353325: $GPZDA,235747.00,31,12,2017,00,00*63
2017-12-31 18:57:46 1514764666.353491: $GPGGA,235747,3946.9578,N,08404.9824,W,2,11,0.80,310.52,M,-33.324,M,,*72
2017-12-31 18:57:46 1514764666.353559: $GPRMC,235747,A,3946.9578,N,08404.9824,W,0.0000,0.000,311217,,*3C
2017-12-31 18:57:46 1514764666.353623: $GPGSA,A,3,22,23,9,3,16,8,31,27,7,26,135,,1.7,0.8,1.3*09
2017-12-31 18:57:47 1514764667.354210: $GPZDA,235748.00,31,12,2017,00,00*6C
2017-12-31 18:57:47 1514764667.354383: $GPGGA,235748,3946.9578,N,08404.9824,W,2,11,0.80,310.52,M,-33.324,M,,*7D
2017-12-31 18:57:47 1514764667.354452: $GPRMC,235748,A,3946.9578,N,08404.9824,W,0.0000,0.000,311217,,*33
2017-12-31 18:57:47 1514764667.354515: $GPGSA,A,3,22,23,9,3,16,8,31,27,7,26,135,,1.7,0.8,1.3*09
2017-12-31 18:57:48 1514764668.688442: $GPGSV,3,1,11,22,05,202,26,23,70,270,39,09,40,307,33,03,15,219,31*75
2017-12-31 18:57:48 1514764668.688619: $GPGSV,3,2,11,16,73,036,45,08,20,175,44,31,14,091,30,27,43,139,39*79
2017-12-31 18:57:48 1514764668.688687: $GPGSV,3,3,11,07,13,286,37,26,41,048,44,135,22,240,44*78
2017-12-31 18:57:48 1514764668.802060: $GPZDA,235749.00,31,12,2017,00,00*6D
2017-12-31 18:57:48 1514764668.802237: $GPGGA,235749,3946.9578,N,08404.9824,W,2,11,0.80,310.52,M,-33.324,M,,*7C
2017-12-31 18:57:48 1514764668.802306: $GPRMC,235749,A,3946.9578,N,08404.9824,W,0.0000,0.000,311217,,*32
2017-12-31 18:57:48 1514764668.802368: $GPGSA,A,3,22,23,9,3,16,8,31,27,7,26,135,,1.7,0.8,1.3*09
2017-12-31 18:57:49 1514764669.394153: $GPZDA,235750.00,31,12,2017,00,00*65
2017-12-31 18:57:49 1514764669.394327: $GPGGA,235750,3946.9578,N,08404.9824,W,2,11,0.80,310.52,M,-33.324,M,,*74
2017-12-31 18:57:49 1514764669.395700: $GPRMC,235750,A,3946.9578,N,08404.9824,W,0.0000,0.000,311217,,*3A
2017-12-31 18:57:49 1514764669.395771: $GPGSA,A,3,22,23,9,3,16,8,31,27,7,26,135,,1.7,0.8,1.3*09
2017-12-31 18:57:50 1514764670.353293: $GPZDA,235751.00,31,12,2017,00,00*64
2017-12-31 18:57:50 1514764670.353463: $GPGGA,235751,3946.9578,N,08404.9824,W,2,11,0.80,310.52,M,-33.324,M,,*75
2017-12-31 18:57:50 1514764670.353585: $GPRMC,235751,A,3946.9578,N,08404.9824,W,0.0000,0.000,311217,,*3B
2017-12-31 18:57:50 1514764670.353647: $GPGSA,A,3,22,23,9,3,16,8,31,27,7,26,135,,1.7,0.8,1.3*09
2017-12-31 18:57:51 1514764671.727538: $GPGSV,3,1,11,22,05,202,26,23,70,270,34,09,40,307,39,03,15,219,30*73
2017-12-31 18:57:51 1514764671.727703: $GPGSV,3,2,11,16,73,036,45,08,20,175,44,31,14,091,30,27,43,139,39*79
2017-12-31 18:57:51 1514764671.727768: $GPGSV,3,3,11,07,13,286,38,26,41,048,44,135,22,240,44*77
2017-12-31 18:57:51 1514764671.841138: $GPZDA,235752.00,31,12,2017,00,00*67
2017-12-31 18:57:51 1514764671.841302: $GPGGA,235752,3946.9578,N,08404.9824,W,2,11,0.80,310.52,M,-33.324,M,,*76
2017-12-31 18:57:51 1514764671.841368: $GPRMC,235752,A,3946.9578,N,08404.9824,W,0.0000,0.000,311217,,*38
2017-12-31 18:57:51 1514764671.841428: $GPGSA,A,3,22,23,9,3,16,8,31,27,7,26,135,,1.7,0.8,1.3*09
2017-12-31 18:57:52 1514764672.353239: $GPZDA,235753.00,31,12,2017,00,00*66
2017-12-31 18:57:52 1514764672.353399: $GPGGA,235753,3946.9579,N,08404.9831,W,2,11,0.80,310.44,M,-33.324,M,,*75
2017-12-31 18:57:52 1514764672.353465: $GPRMC,235753,A,3946.9579,N,08404.9831,W,0.0000,0.000,311217,,*3C
2017-12-31 18:57:52 1514764672.353526: $GPGSA,A,3,22,23,9,3,16,8,31,27,7,26,135,,1.7,0.8,1.3*09
