2018-01-12 20:06:10 1515805570.940120: {"class":"VERSION","release":"3.16","rev":"3.16-4","proto_major":3,"proto_minor":11}
2018-01-12 20:06:10 1515805570.940465: {"class":"DEVICES","devices":[{"class":"DEVICE","path":"/dev/ttyUSB0","driver":"SiRF","subtype":"9\u0006GSD4e_4.1.2-P1_RPATCH.05-F-GPS-4R-1510281 11/03/2015 307","activated":"2018-01-13T01:06:10.539Z","flags":1,"native":1,"bps":4800,"parity":"N","stopbits":1,"cycle":1.00}]}
2018-01-12 20:06:10 1515805570.940580: {"class":"WATCH","enable":true,"json":false,"nmea":true,"raw":0,"scaled":false,"timing":false,"split24":false,"pps":false}
2018-01-12 20:06:11 1515805571.224673: $GPZDA,010612.00,13,01,2018,00,00*6A
2018-01-12 20:06:11 1515805571.224843: $GPGGA,010612,3946.9593,N,08404.9475,W,1,07,1.20,293.27,M,-33.324,M,,*7C
2018-01-12 20:06:11 1515805571.224911: $GPRMC,010612,A,3946.9593,N,08404.9475,W,0.5857,158.291,130118,,*31
2018-01-12 20:06:11 1515805571.224973: $GPGSA,A,3,8,9,7,11,30,27,23,,,,,,4.8,1.2,4.6*0E
2018-01-12 20:06:12 1515805572.576696: $GPGSV,3,1,10,08,73,133,25,09,48,229,14,07,55,315,09,11,19,168,04*73
2018-01-12 20:06:12 1515805572.576859: $GPGSV,3,2,10,30,28,306,15,27,48,054,20,23,29,190,16,16,23,060,00*7E
2018-01-12 20:06:12 1515805572.576925: $GPGSV,3,3,10,28,13,258,00,138,38,213,00*4E
2018-01-12 20:06:12 1515805572.690433: $GPZDA,010613.00,13,01,2018,00,00*6B
2018-01-12 20:06:12 1515805572.690570: $GPGGA,010613,3946.9589,N,08404.9476,W,1,06,1.20,294.04,M,-33.324,M,,*72
2018-01-12 20:06:12 1515805572.690636: $GPRMC,010613,A,3946.9589,N,08404.9476,W,0.7621,107.945,130118,,*3D
2018-01-12 20:06:12 1515805572.690696: $GPGSA,A,3,8,9,7,30,27,23,,,,,,,4.8,1.2,4.6*0E
2018-01-12 20:06:13 1515805573.239102: $GPZDA,010614.00,13,01,2018,00,00*6C
2018-01-12 20:06:13 1515805573.239291: $GPGGA,010614,3946.9585,N,08404.9476,W,1,06,1.40,293.40,M,-33.324,M,,*78
2018-01-12 20:06:13 1515805573.239360: $GPRMC,010614,A,3946.9585,N,08404.9476,W,0.9988,104.546,130118,,*38
2018-01-12 20:06:13 1515805573.239421: $GPGSA,A,3,8,9,7,30,27,23,,,,,,,4.8,1.4,4.6*08
2018-01-12 20:06:14 1515805574.238000: $GPZDA,010615.00,13,01,2018,00,00*6D
2018-01-12 20:06:14 1515805574.238195: $GPGGA,010615,3946.9585,N,08404.9476,W,1,06,1.40,293.40,M,-33.324,M,,*79
2018-01-12 20:06:14 1515805574.238292: $GPRMC,010615,A,3946.9585,N,08404.9476,W,0.7238,140.710,130118,,*36
2018-01-12 20:06:14 1515805574.238354: $GPGSA,A,3,8,9,7,30,27,23,,,,,,,4.8,1.4,4.6*08
2018-01-12 20:06:15 1515805575.574022: $GPGSV,3,1,10,08,73,133,25,09,48,229,04,07,55,315,09,11,19,168,05*73
2018-01-12 20:06:15 1515805575.574250: $GPGSV,3,2,10,30,28,306,15,27,48,054,20,23,29,190,16,16,23,060,00*7E
2018-01-12 20:06:15 1515805575.574319: $GPGSV,3,3,10,28,13,258,00,138,38,213,00*4E
2018-01-12 20:06:15 1515805575.687467: $GPZDA,010616.00,13,01,2018,00,00*6E
2018-01-12 20:06:15 1515805575.687614: $GPGGA,010616,3946.9582,N,08404.9477,W,1,05,1.40,294.16,M,-33.324,M,,*7B
2018-01-12 20:06:15 1515805575.687682: $GPRMC,010616,A,3946.9582,N,08404.9477,W,0.5287,182.716,130118,,*3D
2018-01-12 20:06:15 1515805575.687743: $GPGSA,A,3,8,7,30,27,23,,,,,,,,4.8,1.4,4.6*31
2018-01-12 20:06:16 1515805576.237527: $GPZDA,010617.00,13,01,2018,00,00*6F
2018-01-12 20:06:16 1515805576.237680: $GPGGA,010617,3946.9582,N,08404.9477,W,1,05,1.40,294.16,M,-33.324,M,,*7A
2018-01-12 20:06:16 1515805576.237746: $GPRMC,010617,A,3946.9582,N,08404.9477,W,0.5857,158.291,130118,,*36
2018-01-12 20:06:16 1515805576.237807: $GPGSA,A,3,8,7,30,27,23,,,,,,,,4.8,1.4,4.6*31
2018-01-12 20:06:17 1515805577.223948: $GPZDA,010618.00,13,01,2018,00,00*60
2018-01-12 20:06:17 1515805577.224141: $GPGGA,010618,3946.9578,N,08404.9477,W,1,05,1.40,294.93,M,-33.324,M,,*7D
2018-01-12 20:06:17 1515805577.224209: $GPRMC,010618,A,3946.9578,N,08404.9477,W,0.9060,167.792,130118,,*36
2018-01-12 20:06:17 1515805577.224289: $GPGSA,A,3,8,7,30,27,23,,,,,,,,4.8,1.4,4.6*31
2018-01-12 20:06:18 1515805578.559668: $GPGSV,3,1,10,08,73,133,24,09,48,229,04,07,55,315,08,11,19,168,11*76
2018-01-12 20:06:18 1515805578.559849: $GPGSV,3,2,10,30,28,306,15,27,48,054,20,23,29,190,16,16,23,060,00*7E
2018-01-12 20:06:18 1515805578.559969: $GPGSV,3,3,10,28,13,258,00,138,38,213,00*4E
2018-01-12 20:06:18 1515805578.673068: $GPZDA,010619.00,13,01,2018,00,00*61
2018-01-12 20:06:18 1515805578.673296: $GPGGA,010619,3946.9578,N,08404.9484,W,1,06,1.40,294.85,M,-33.324,M,,*74
2018-01-12 20:06:18 1515805578.673366: $GPRMC,010619,A,3946.9578,N,08404.9484,W,0.8359,148.778,130118,,*3A
2018-01-12 20:06:18 1515805578.673428: $GPGSA,A,3,8,7,11,30,27,23,,,,,,,4.8,1.4,4.6*31
2018-01-12 20:06:19 1515805579.223322: $GPZDA,010620.00,13,01,2018,00,00*6B
2018-01-12 20:06:19 1515805579.223512: $GPGGA,010620,3946.9571,N,08404.9485,W,1,06,1.40,294.97,M,-33.324,M,,*75
2018-01-12 20:06:19 1515805579.223582: $GPRMC,010620,A,3946.9571,N,08404.9485,W,1.1391,143.662,130118,,*35
2018-01-12 20:06:19 1515805579.223645: $GPGSA,A,3,8,7,11,30,27,23,,,,,,,4.8,1.4,4.6*31
2018-01-12 20:06:20 1515805580.240821: $GPZDA,010621.00,13,01,2018,00,00*6A
2018-01-12 20:06:20 1515805580.244195: $GPGGA,010621,3946.9567,N,08404.9486,W,1,06,1.20,295.74,M,-33.324,M,,*7A
2018-01-12 20:06:20 1515805580.244320: $GPRMC,010621,A,3946.9567,N,08404.9486,W,1.4168,152.696,130118,,*3A
2018-01-12 20:06:20 1515805580.244401: $GPGSA,A,3,8,7,11,30,27,23,,,,,,,4.8,1.2,4.6*37
2018-01-12 20:06:21 1515805581.577779: $GPGSV,3,1,10,08,73,133,24,09,48,229,13,07,55,315,07,11,19,168,11*7F
2018-01-12 20:06:21 1515805581.577968: $GPGSV,3,2,10,30,28,306,14,27,48,054,20,23,29,190,17,28,13,258,07*7E
2018-01-12 20:06:21 1515805581.578038: $GPGSV,3,3,10,16,23,060,00,120,07,103,00*4E
2018-01-12 20:06:21 1515805581.689861: $GPZDA,010622.00,13,01,2018,00,00*69
2018-01-12 20:06:21 1515805581.689998: $GPGGA,010622,3946.9567,N,08404.9486,W,1,07,1.20,295.74,M,-33.324,M,,*78
2018-01-12 20:06:21 1515805581.690066: $GPRMC,010622,A,3946.9567,N,08404.9486,W,1.4168,152.696,130118,,*39
2018-01-12 20:06:21 1515805581.690130: $GPGSA,A,3,8,9,7,11,30,27,23,,,,,,4.8,1.2,4.6*0E
2018-01-12 20:06:22 1515805582.242543: $GPZDA,010623.00,13,01,2018,00,00*68
2018-01-12 20:06:22 1515805582.242713: $GPGGA,010623,3946.9560,N,08404.9487,W,1,07,1.20,295.86,M,-33.324,M,,*72
2018-01-12 20:06:22 1515805582.242784: $GPRMC,010623,A,3946.9560,N,08404.9487,W,1.1391,143.662,130118,,*34
2018-01-12 20:06:22 1515805582.242849: $GPGSA,A,3,8,9,7,11,30,27,23,,,,,,4.8,1.2,4.6*0E
2018-01-12 20:06:23 1515805583.240173: $GPZDA,010624.00,13,01,2018,00,00*6F
2018-01-12 20:06:23 1515805583.240354: $GPGGA,010624,3946.9559,N,08404.9480,W,1,07,1.20,295.94,M,-33.324,M,,*7B
2018-01-12 20:06:23 1515805583.240427: $GPRMC,010624,A,3946.9559,N,08404.9480,W,1.0253,113.297,130118,,*3B
2018-01-12 20:06:23 1515805583.240491: $GPGSA,A,3,8,9,7,11,30,27,23,,,,,,4.8,1.2,4.6*0E
2018-01-12 20:06:24 1515805584.576396: $GPGSV,3,1,10,08,73,133,24,09,48,229,14,07,55,315,10,11,19,168,04*7A
2018-01-12 20:06:24 1515805584.576557: $GPGSV,3,2,10,30,28,306,14,27,48,054,20,23,29,190,17,16,23,060,00*7E
2018-01-12 20:06:24 1515805584.576626: $GPGSV,3,3,10,28,13,258,00,120,07,103,00*49
2018-01-12 20:06:24 1515805584.689728: $GPZDA,010625.00,13,01,2018,00,00*6E
2018-01-12 20:06:24 1515805584.689867: $GPGGA,010625,3946.9559,N,08404.9480,W,1,06,1.20,295.94,M,-33.324,M,,*7B
2018-01-12 20:06:24 1515805584.689936: $GPRMC,010625,A,3946.9559,N,08404.9480,W,0.7621,107.945,130118,,*3C
2018-01-12 20:06:24 1515805584.690000: $GPGSA,A,3,8,9,7,30,27,23,,,,,,,4.8,1.2,4.6*0E
2018-01-12 20:06:25 1515805585.243688: $GPZDA,010626.00,13,01,2018,00,00*6D
2018-01-12 20:06:25 1515805585.243881: $GPGGA,010626,3946.9556,N,08404.9480,W,1,06,1.20,296.70,M,-33.324,M,,*7E
2018-01-12 20:06:25 1515805585.243972: $GPRMC,010626,A,3946.9556,N,08404.9480,W,0.8011,119.090,130118,,*34
2018-01-12 20:06:25 1515805585.244039: $GPGSA,A,3,8,9,7,30,27,23,,,,,,,4.8,1.2,4.6*0E
2018-01-12 20:06:26 1515805586.223316: $GPZDA,010627.00,13,01,2018,00,00*6C
2018-01-12 20:06:26 1515805586.223498: $GPGGA,010627,3946.9556,N,08404.9480,W,1,06,1.20,296.70,M,-33.324,M,,*7F
2018-01-12 20:06:26 1515805586.223569: $GPRMC,010627,A,3946.9556,N,08404.9480,W,0.5306,114.352,130118,,*3D
2018-01-12 20:06:26 1515805586.223687: $GPGSA,A,3,8,9,7,30,27,23,,,,,,,4.8,1.2,4.6*0E
2018-01-12 20:06:27 1515805587.574633: $GPGSV,3,1,10,08,73,133,24,09,48,229,14,07,55,315,11,16,23,060,00*78
2018-01-12 20:06:27 1515805587.574809: $GPGSV,3,2,10,30,28,306,11,27,48,054,19,23,29,190,17,11,19,168,00*76
2018-01-12 20:06:27 1515805587.574875: $GPGSV,3,3,10,28,13,258,00,120,07,103,00*49
2018-01-12 20:06:27 1515805587.688543: $GPZDA,010628.00,13,01,2018,00,00*63
2018-01-12 20:06:27 1515805587.688719: $GPGGA,010628,3946.9561,N,08404.9487,W,1,06,1.20,297.27,M,-33.324,M,,*70
2018-01-12 20:06:27 1515805587.688786: $GPRMC,010628,A,3946.9561,N,08404.9487,W,0.4207,39.347,130118,,*0A
2018-01-12 20:06:27 1515805587.688848: $GPGSA,A,3,8,9,7,30,27,23,,,,,,,4.8,1.2,4.6*0E
2018-01-12 20:06:28 1515805588.239420: $GPZDA,010629.00,13,01,2018,00,00*62
2018-01-12 20:06:28 1515805588.239599: $GPGGA,010629,3946.9561,N,08404.9487,W,1,06,1.20,297.27,M,-33.324,M,,*71
2018-01-12 20:06:28 1515805588.239667: $GPRMC,010629,A,3946.9561,N,08404.9487,W,0.8414,39.347,130118,,*03
2018-01-12 20:06:28 1515805588.239729: $GPGSA,A,3,8,9,7,30,27,23,,,,,,,4.8,1.2,4.6*0E
2018-01-12 20:06:29 1515805589.238527: $GPZDA,010630.00,13,01,2018,00,00*6A
2018-01-12 20:06:29 1515805589.238680: $GPGGA,010630,3946.9561,N,08404.9487,W,1,06,1.40,297.27,M,-33.324,M,,*7F
2018-01-12 20:06:29 1515805589.238746: $GPRMC,010630,A,3946.9561,N,08404.9487,W,0.8414,39.347,130118,,*0B
2018-01-12 20:06:29 1515805589.238807: $GPGSA,A,3,8,9,7,30,27,23,,,,,,,4.8,1.4,4.6*08
2018-01-12 20:06:30 1515805590.570745: $GPGSV,3,1,10,08,73,133,23,09,48,229,00,07,55,315,12,16,23,060,00*79
2018-01-12 20:06:30 1515805590.570925: $GPGSV,3,2,10,30,28,306,07,27,48,054,19,23,29,190,17,11,19,168,00*71
2018-01-12 20:06:30 1515805590.570995: $GPGSV,3,3,10,28,13,258,00,120,07,103,00*49
2018-01-12 20:06:30 1515805590.684212: $GPZDA,010631.00,13,01,2018,00,00*6B
2018-01-12 20:06:30 1515805590.684389: $GPGGA,010631,3946.9561,N,08404.9487,W,1,04,1.80,297.27,M,-33.324,M,,*70
2018-01-12 20:06:30 1515805590.684460: $GPRMC,010631,A,3946.9561,N,08404.9487,W,0.5951,58.684,130118,,*06
2018-01-12 20:06:30 1515805590.684526: $GPGSA,A,3,8,7,27,23,,,,,,,,,4.8,1.8,4.6*3E
