2017-12-01 13:55:39 1512154539.026693: {"class":"VERSION","release":"3.16","rev":"3.16-4","proto_major":3,"proto_minor":11}
2017-12-01 13:55:39 1512154539.027102: {"class":"DEVICES","devices":[{"class":"DEVICE","path":"/dev/ttyUSB0","driver":"SiRF","subtype":"9\u0006GSD4e_4.1.2-P1_RPATCH.05-F-GPS-4R-1510281 11/03/2015 307","activated":"2017-12-01T18:55:39.003Z","flags":1,"native":1,"bps":4800,"parity":"N","stopbits":1,"cycle":1.00}]}
2017-12-01 13:55:39 1512154539.027223: {"class":"WATCH","enable":true,"json":false,"nmea":true,"raw":0,"scaled":false,"timing":false,"split24":false,"pps":false}
2017-12-01 13:55:39 1512154539.412240: $GPZDA,185540.00,01,12,2017,00,00*6D
2017-12-01 13:55:39 1512154539.412413: $GPGGA,185540,3946.9591,N,08404.9856,W,2,12,0.80,293.58,M,-33.324,M,,*7E
2017-12-01 13:55:39 1512154539.412479: $GPRMC,185540,A,3946.9591,N,08404.9856,W,0.0000,0.000,011217,,*30
2017-12-01 13:55:39 1512154539.412540: $GPGSA,A,3,8,10,14,15,18,20,21,24,32,27,12,138,2.0,0.8,1.5*37
2017-12-01 13:55:40 1512154540.413774: $GPZDA,185541.00,01,12,2017,00,00*6C
2017-12-01 13:55:40 1512154540.413962: $GPGGA,185541,3946.9591,N,08404.9856,W,2,12,0.80,293.58,M,-33.324,M,,*7F
2017-12-01 13:55:40 1512154540.414031: $GPRMC,185541,A,3946.9591,N,08404.9856,W,0.0000,0.000,011217,,*31
2017-12-01 13:55:40 1512154540.414091: $GPGSA,A,3,8,10,14,15,18,20,21,24,32,27,12,138,2.0,0.8,1.5*37
2017-12-01 13:55:41 1512154541.749497: $GPGSV,3,1,12,08,08,304,28,10,58,318,49,14,19,244,37,15,21,060,42*72
2017-12-01 13:55:41 1512154541.749682: $GPGSV,3,2,12,18,77,051,42,20,18,111,44,21,42,181,44,24,52,075,48*78
2017-12-01 13:55:41 1512154541.749748: $GPGSV,3,3,12,32,36,253,42,27,13,270,36,12,01,117,18,138,38,213,46*44
2017-12-01 13:55:41 1512154541.863171: $GPZDA,185542.00,01,12,2017,00,00*6F
2017-12-01 13:55:41 1512154541.863340: $GPGGA,185542,3946.9591,N,08404.9856,W,2,12,0.80,293.58,M,-33.324,M,,*7C
2017-12-01 13:55:41 1512154541.863406: $GPRMC,185542,A,3946.9591,N,08404.9856,W,0.0000,0.000,011217,,*32
2017-12-01 13:55:41 1512154541.863467: $GPGSA,A,3,8,10,14,15,18,20,21,24,32,27,12,138,2.0,0.8,1.5*37
2017-12-01 13:55:42 1512154542.412626: $GPZDA,185543.00,01,12,2017,00,00*6E
2017-12-01 13:55:42 1512154542.412803: $GPGGA,185543,3946.9591,N,08404.9856,W,2,12,0.80,293.58,M,-33.324,M,,*7D
2017-12-01 13:55:42 1512154542.412870: $GPRMC,185543,A,3946.9591,N,08404.9856,W,0.0000,0.000,011217,,*33
2017-12-01 13:55:42 1512154542.412930: $GPGSA,A,3,8,10,14,15,18,20,21,24,32,27,12,138,2.0,0.8,1.5*37
2017-12-01 13:55:43 1512154543.412237: $GPZDA,185544.00,01,12,2017,00,00*69
2017-12-01 13:55:43 1512154543.412412: $GPGGA,185544,3946.9591,N,08404.9856,W,2,12,0.80,293.58,M,-33.324,M,,*7A
2017-12-01 13:55:43 1512154543.412479: $GPRMC,185544,A,3946.9591,N,08404.9856,W,0.0000,0.000,011217,,*34
2017-12-01 13:55:43 1512154543.412540: $GPGSA,A,3,8,10,14,15,18,20,21,24,32,27,12,138,2.0,0.8,1.5*37
2017-12-01 13:55:44 1512154544.748263: $GPGSV,3,1,12,08,08,304,33,10,58,318,49,14,19,244,37,15,21,060,42*78
2017-12-01 13:55:44 1512154544.748440: $GPGSV,3,2,12,18,77,051,42,20,18,111,44,21,42,181,45,24,52,075,47*76
2017-12-01 13:55:44 1512154544.748507: $GPGSV,3,3,12,32,36,253,42,27,13,270,35,12,01,117,17,138,38,213,46*48
2017-12-01 13:55:44 1512154544.861394: $GPZDA,185545.00,01,12,2017,00,00*68
2017-12-01 13:55:44 1512154544.861564: $GPGGA,185545,3946.9591,N,08404.9856,W,2,12,0.80,293.58,M,-33.324,M,,*7B
2017-12-01 13:55:44 1512154544.861631: $GPRMC,185545,A,3946.9591,N,08404.9856,W,0.0000,0.000,011217,,*35
2017-12-01 13:55:44 1512154544.861692: $GPGSA,A,3,8,10,14,15,18,20,21,24,32,27,12,138,2.0,0.8,1.5*37
2017-12-01 13:55:45 1512154545.486924: $GPZDA,185546.00,01,12,2017,00,00*6B
2017-12-01 13:55:45 1512154545.487097: $GPGGA,185546,3946.9591,N,08404.9856,W,2,12,0.80,293.58,M,-33.324,M,,*78
2017-12-01 13:55:45 1512154545.487164: $GPRMC,185546,A,3946.9591,N,08404.9856,W,0.0000,0.000,011217,,*36
2017-12-01 13:55:45 1512154545.487225: $GPGSA,A,3,8,10,14,15,18,20,21,24,32,27,12,138,2.0,0.8,1.5*37
2017-12-01 13:55:46 1512154546.413869: $GPZDA,185547.00,01,12,2017,00,00*6A
2017-12-01 13:55:46 1512154546.414093: $GPGGA,185547,3946.9591,N,08404.9856,W,2,12,0.80,293.58,M,-33.324,M,,*79
2017-12-01 13:55:46 1512154546.414179: $GPRMC,185547,A,3946.9591,N,08404.9856,W,0.0000,0.000,011217,,*37
2017-12-01 13:55:46 1512154546.414241: $GPGSA,A,3,8,10,14,15,18,20,21,24,32,27,12,138,2.0,0.8,1.5*37
2017-12-01 13:55:47 1512154547.749458: $GPGSV,3,1,12,08,08,304,34,10,58,318,49,14,19,244,37,15,21,060,42*7F
2017-12-01 13:55:47 1512154547.749641: $GPGSV,3,2,12,18,77,051,42,20,18,111,44,21,42,181,44,24,52,075,48*78
2017-12-01 13:55:47 1512154547.749707: $GPGSV,3,3,12,32,36,253,43,27,13,270,35,12,01,117,04,138,38,213,46*4B
2017-12-01 13:55:47 1512154547.861633: $GPZDA,185548.00,01,12,2017,00,00*65
2017-12-01 13:55:47 1512154547.861794: $GPGGA,185548,3946.9588,N,08404.9857,W,2,11,0.80,294.35,M,-33.324,M,,*70
2017-12-01 13:55:47 1512154547.861859: $GPRMC,185548,A,3946.9588,N,08404.9857,W,0.0000,0.000,011217,,*31
2017-12-01 13:55:47 1512154547.861920: $GPGSA,A,3,8,10,14,15,18,20,21,24,32,27,138,,2.0,0.8,1.5*34
2017-12-01 13:55:48 1512154548.414447: $GPZDA,185549.00,01,12,2017,00,00*64
2017-12-01 13:55:48 1512154548.414637: $GPGGA,185549,3946.9588,N,08404.9857,W,2,11,0.80,294.35,M,-33.324,M,,*71
2017-12-01 13:55:48 1512154548.414704: $GPRMC,185549,A,3946.9588,N,08404.9857,W,0.0000,0.000,011217,,*30
2017-12-01 13:55:48 1512154548.414766: $GPGSA,A,3,8,10,14,15,18,20,21,24,32,27,138,,2.0,0.8,1.5*34
2017-12-01 13:55:49 1512154549.413428: $GPZDA,185550.00,01,12,2017,00,00*6C
2017-12-01 13:55:49 1512154549.413584: $GPGGA,185550,3946.9588,N,08404.9857,W,2,11,0.80,294.35,M,-33.324,M,,*79
2017-12-01 13:55:49 1512154549.413651: $GPRMC,185550,A,3946.9588,N,08404.9857,W,0.0000,0.000,011217,,*38
2017-12-01 13:55:49 1512154549.413713: $GPGSA,A,3,8,10,14,15,18,20,21,24,32,27,138,,2.0,0.8,1.5*34
2017-12-01 13:55:50 1512154550.749839: $GPGSV,3,1,12,08,08,304,34,10,58,318,49,14,19,244,37,15,21,060,42*7F
2017-12-01 13:55:50 1512154550.750025: $GPGSV,3,2,12,18,77,051,42,20,18,111,44,21,42,181,44,24,52,075,48*78
2017-12-01 13:55:50 1512154550.750092: $GPGSV,3,3,12,32,36,253,43,27,13,270,36,12,01,117,04,138,38,213,47*49
2017-12-01 13:55:50 1512154550.863335: $GPZDA,185551.00,01,12,2017,00,00*6D
2017-12-01 13:55:50 1512154550.863519: $GPGGA,185551,3946.9588,N,08404.9857,W,2,11,0.80,294.35,M,-33.324,M,,*78
2017-12-01 13:55:50 1512154550.863586: $GPRMC,185551,A,3946.9588,N,08404.9857,W,0.0000,0.000,011217,,*39
2017-12-01 13:55:50 1512154550.863647: $GPGSA,A,3,8,10,14,15,18,20,21,24,32,27,138,,2.0,0.8,1.5*34
2017-12-01 13:55:51 1512154551.412869: $GPZDA,185552.00,01,12,2017,00,00*6E
2017-12-01 13:55:51 1512154551.413043: $GPGGA,185552,3946.9588,N,08404.9857,W,2,11,0.80,294.35,M,-33.324,M,,*7B
2017-12-01 13:55:51 1512154551.413109: $GPRMC,185552,A,3946.9588,N,08404.9857,W,0.0000,0.000,011217,,*3A
2017-12-01 13:55:51 1512154551.413170: $GPGSA,A,3,8,10,14,15,18,20,21,24,32,27,138,,2.0,0.8,1.5*34
2017-12-01 13:55:52 1512154552.414334: $GPZDA,185553.00,01,12,2017,00,00*6F
2017-12-01 13:55:52 1512154552.414506: $GPGGA,185553,3946.9588,N,08404.9857,W,2,11,0.80,294.35,M,-33.324,M,,*7A
2017-12-01 13:55:52 1512154552.414571: $GPRMC,185553,A,3946.9588,N,08404.9857,W,0.0000,0.000,011217,,*3B
2017-12-01 13:55:52 1512154552.414632: $GPGSA,A,3,8,10,14,15,18,20,21,24,32,27,138,,2.0,0.8,1.5*34
2017-12-01 13:55:53 1512154553.774594: $GPGSV,3,1,12,08,08,304,39,10,58,318,49,14,19,244,37,15,21,060,42*72
2017-12-01 13:55:53 1512154553.774782: $GPGSV,3,2,12,18,77,051,43,20,18,111,44,21,42,181,45,24,52,075,48*78
2017-12-01 13:55:53 1512154553.774850: $GPGSV,3,3,12,32,36,253,44,27,13,270,36,12,01,117,04,138,38,213,46*4F
2017-12-01 13:55:53 1512154553.888349: $GPZDA,185554.00,01,12,2017,00,00*68
2017-12-01 13:55:53 1512154553.888499: $GPGGA,185554,3946.9588,N,08404.9857,W,2,11,0.80,294.35,M,-33.324,M,,*7D
2017-12-01 13:55:53 1512154553.888564: $GPRMC,185554,A,3946.9588,N,08404.9857,W,0.0000,0.000,011217,,*3C
2017-12-01 13:55:53 1512154553.888625: $GPGSA,A,3,8,10,14,15,18,20,21,24,32,27,138,,2.0,0.8,1.5*34
