2017-12-01 13:46:05 1512153965.376838: {"class":"VERSION","release":"3.16","rev":"3.16-4","proto_major":3,"proto_minor":11}
2017-12-01 13:46:05 1512153965.377337: {"class":"DEVICES","devices":[{"class":"DEVICE","path":"/dev/ttyUSB0","driver":"SiRF","subtype":"9\u0006GSD4e_4.1.2-P1_RPATCH.05-F-GPS-4R-1510281 11/03/2015 307","activated":"2017-12-01T18:46:05.356Z","flags":1,"native":1,"bps":4800,"parity":"N","stopbits":1,"cycle":1.00}]}
2017-12-01 13:46:05 1512153965.377457: {"class":"WATCH","enable":true,"json":false,"nmea":true,"raw":0,"scaled":false,"timing":false,"split24":false,"pps":false}
2017-12-01 13:46:06 1512153966.326589: $GPZDA,184607.00,01,12,2017,00,00*6C
2017-12-01 13:46:06 1512153966.326766: $GPGGA,184607,3946.9555,N,08404.9835,W,2,11,0.80,301.54,M,-33.324,M,,*77
2017-12-01 13:46:06 1512153966.326834: $GPRMC,184607,A,3946.9555,N,08404.9835,W,0.0000,0.000,011217,,*3C
2017-12-01 13:46:06 1512153966.326896: $GPGSA,A,3,10,14,15,18,20,21,24,27,32,8,138,,2.0,0.8,1.5*34
2017-12-01 13:46:07 1512153967.689786: $GPGSV,3,1,11,10,54,313,48,14,16,241,37,15,24,058,45,18,77,031,44*72
2017-12-01 13:46:07 1512153967.689965: $GPGSV,3,2,11,20,22,108,46,21,47,181,44,24,53,082,47,27,15,274,39*7A
2017-12-01 13:46:07 1512153967.690032: $GPGSV,3,3,11,32,33,249,42,08,08,309,27,138,38,213,46*7D
2017-12-01 13:46:07 1512153967.803133: $GPZDA,184608.00,01,12,2017,00,00*63
2017-12-01 13:46:07 1512153967.803333: $GPGGA,184608,3946.9555,N,08404.9835,W,2,11,0.80,301.54,M,-33.324,M,,*78
2017-12-01 13:46:07 1512153967.803401: $GPRMC,184608,A,3946.9555,N,08404.9835,W,0.0000,0.000,011217,,*33
2017-12-01 13:46:07 1512153967.803463: $GPGSA,A,3,10,14,15,18,20,21,24,27,32,8,138,,2.0,0.8,1.5*34
2017-12-01 13:46:08 1512153968.428907: $GPZDA,184609.00,01,12,2017,00,00*62
2017-12-01 13:46:08 1512153968.429147: $GPGGA,184609,3946.9555,N,08404.9835,W,2,11,0.80,301.54,M,-33.324,M,,*79
2017-12-01 13:46:08 1512153968.429239: $GPRMC,184609,A,3946.9555,N,08404.9835,W,0.0000,0.000,011217,,*32
2017-12-01 13:46:08 1512153968.429302: $GPGSA,A,3,10,14,15,18,20,21,24,27,32,8,138,,2.0,0.8,1.5*34
2017-12-01 13:46:09 1512153969.357371: $GPZDA,184610.00,01,12,2017,00,00*6A
2017-12-01 13:46:09 1512153969.357540: $GPGGA,184610,3946.9555,N,08404.9835,W,2,11,0.80,301.54,M,-33.324,M,,*71
2017-12-01 13:46:09 1512153969.357607: $GPRMC,184610,A,3946.9555,N,08404.9835,W,0.0000,0.000,011217,,*3A
2017-12-01 13:46:09 1512153969.357668: $GPGSA,A,3,10,14,15,18,20,21,24,27,32,8,138,,2.0,0.8,1.5*34
2017-12-01 13:46:10 1512153970.692622: $GPGSV,3,1,11,10,54,313,49,14,16,241,37,15,24,058,45,18,77,031,44*73
2017-12-01 13:46:10 1512153970.692807: $GPGSV,3,2,11,20,22,108,46,21,47,181,44,24,53,082,47,27,15,274,39*7A
2017-12-01 13:46:10 1512153970.692874: $GPGSV,3,3,11,32,33,249,42,08,08,309,27,138,38,213,46*7D
2017-12-01 13:46:10 1512153970.806145: $GPZDA,184611.00,01,12,2017,00,00*6B
2017-12-01 13:46:10 1512153970.806411: $GPGGA,184611,3946.9555,N,08404.9835,W,2,11,0.80,301.54,M,-33.324,M,,*70
2017-12-01 13:46:10 1512153970.806540: $GPRMC,184611,A,3946.9555,N,08404.9835,W,0.0000,0.000,011217,,*3B
2017-12-01 13:46:10 1512153970.806660: $GPGSA,A,3,10,14,15,18,20,21,24,27,32,8,138,,2.0,0.8,1.5*34
2017-12-01 13:46:11 1512153971.333499: $GPZDA,184612.00,01,12,2017,00,00*68
2017-12-01 13:46:11 1512153971.333699: $GPGGA,184612,3946.9555,N,08404.9835,W,2,11,0.80,301.54,M,-33.324,M,,*73
2017-12-01 13:46:11 1512153971.333771: $GPRMC,184612,A,3946.9555,N,08404.9835,W,0.0000,0.000,011217,,*38
2017-12-01 13:46:11 1512153971.333910: $GPGSA,A,3,10,14,15,18,20,21,24,27,32,8,138,,2.0,0.8,1.5*34
2017-12-01 13:46:12 1512153972.326541: $GPZDA,184613.00,01,12,2017,00,00*69
2017-12-01 13:46:12 1512153972.326713: $GPGGA,184613,3946.9555,N,08404.9835,W,2,11,0.80,301.54,M,-33.324,M,,*72
2017-12-01 13:46:12 1512153972.326779: $GPRMC,184613,A,3946.9555,N,08404.9835,W,0.0000,0.000,011217,,*39
2017-12-01 13:46:12 1512153972.326841: $GPGSA,A,3,10,14,15,18,20,21,24,27,32,8,138,,2.0,0.8,1.5*34
2017-12-01 13:46:13 1512153973.661766: $GPGSV,3,1,11,10,54,313,49,14,16,241,37,15,24,058,45,18,77,031,44*73
2017-12-01 13:46:13 1512153973.662003: $GPGSV,3,2,11,20,22,108,46,21,47,181,43,24,53,082,47,27,15,274,39*7D
2017-12-01 13:46:13 1512153973.662094: $GPGSV,3,3,11,32,33,249,42,08,08,309,34,138,38,213,47*7E
2017-12-01 13:46:13 1512153973.775179: $GPZDA,184614.00,01,12,2017,00,00*6E
2017-12-01 13:46:13 1512153973.775347: $GPGGA,184614,3946.9555,N,08404.9835,W,2,11,0.80,301.54,M,-33.324,M,,*75
2017-12-01 13:46:13 1512153973.775413: $GPRMC,184614,A,3946.9555,N,08404.9835,W,0.0000,0.000,011217,,*3E
2017-12-01 13:46:13 1512153973.775474: $GPGSA,A,3,10,14,15,18,20,21,24,27,32,8,138,,2.0,0.8,1.5*34
2017-12-01 13:46:14 1512153974.331081: $GPZDA,184615.00,01,12,2017,00,00*6F
2017-12-01 13:46:14 1512153974.331282: $GPGGA,184615,3946.9555,N,08404.9835,W,2,11,0.80,301.54,M,-33.324,M,,*74
2017-12-01 13:46:14 1512153974.331403: $GPRMC,184615,A,3946.9555,N,08404.9835,W,0.0000,0.000,011217,,*3F
2017-12-01 13:46:14 1512153974.331475: $GPGSA,A,3,10,14,15,18,20,21,24,27,32,8,138,,2.0,0.8,1.5*34
2017-12-01 13:46:15 1512153975.331960: $GPZDA,184616.00,01,12,2017,00,00*6C
2017-12-01 13:46:15 1512153975.332164: $GPGGA,184616,3946.9555,N,08404.9835,W,2,11,0.80,301.54,M,-33.324,M,,*77
2017-12-01 13:46:15 1512153975.332233: $GPRMC,184616,A,3946.9555,N,08404.9835,W,0.0000,0.000,011217,,*3C
2017-12-01 13:46:15 1512153975.332294: $GPGSA,A,3,10,14,15,18,20,21,24,27,32,8,138,,2.0,0.8,1.5*34
