2018-01-11 21:06:21 1515722781.344641: {"class":"VERSION","release":"3.16","rev":"3.16-4","proto_major":3,"proto_minor":11}
2018-01-11 21:06:21 1515722781.345078: {"class":"DEVICES","devices":[{"class":"DEVICE","path":"/dev/ttyUSB0","driver":"SiRF","subtype":"9\u0006GSD4e_4.1.2-P1_RPATCH.05-F-GPS-4R-1510281 11/03/2015 307","activated":"2018-01-12T02:06:21.290Z","flags":1,"native":1,"bps":4800,"parity":"N","stopbits":1,"cycle":1.00}]}
2018-01-11 21:06:21 1515722781.345213: {"class":"WATCH","enable":true,"json":false,"nmea":true,"raw":0,"scaled":false,"timing":false,"split24":false,"pps":false}
2018-01-11 21:06:21 1515722781.403752: $GPZDA,020622.00,12,01,2018,00,00*6B
2018-01-11 21:06:21 1515722781.403905: $GPGGA,020622,3946.9596,N,08404.9820,W,2,12,1.00,292.45,M,-33.324,M,,*75
2018-01-11 21:06:21 1515722781.403969: $GPRMC,020622,A,3946.9596,N,08404.9820,W,0.0000,0.000,120118,,*30
2018-01-11 21:06:21 1515722781.404028: $GPGSA,A,3,1,7,8,9,11,27,28,30,13,23,16,138,4.0,1.0,3.5*04
2018-01-11 21:06:22 1515722782.387114: $GPZDA,020623.00,12,01,2018,00,00*6A
2018-01-11 21:06:22 1515722782.387279: $GPGGA,020623,3946.9596,N,08404.9820,W,2,12,1.00,292.45,M,-33.324,M,,*74
2018-01-11 21:06:22 1515722782.387344: $GPRMC,020623,A,3946.9596,N,08404.9820,W,0.0000,0.000,120118,,*31
2018-01-11 21:06:22 1515722782.387402: $GPGSA,A,3,1,7,8,9,11,27,28,30,13,23,16,138,4.0,1.0,3.5*04
2018-01-11 21:06:23 1515722783.738840: $GPGSV,3,1,12,01,19,151,44,07,81,304,44,08,64,052,48,09,26,208,41*7E
2018-01-11 21:06:23 1515722783.739012: $GPGSV,3,2,12,11,43,156,44,27,25,045,48,28,31,279,36,30,52,309,42*78
2018-01-11 21:06:23 1515722783.739148: $GPGSV,3,3,12,13,03,328,12,23,05,181,27,16,05,076,17,138,38,213,45*4D
2018-01-11 21:06:23 1515722783.851231: $GPZDA,020624.00,12,01,2018,00,00*6D
2018-01-11 21:06:23 1515722783.851356: $GPGGA,020624,3946.9596,N,08404.9820,W,2,12,1.00,292.45,M,-33.324,M,,*73
2018-01-11 21:06:23 1515722783.851419: $GPRMC,020624,A,3946.9596,N,08404.9820,W,0.0000,0.000,120118,,*36
2018-01-11 21:06:23 1515722783.851478: $GPGSA,A,3,1,7,8,9,11,27,28,30,13,23,16,138,4.0,1.0,3.5*04
2018-01-11 21:06:24 1515722784.477855: $GPZDA,020625.00,12,01,2018,00,00*6C
2018-01-11 21:06:24 1515722784.478019: $GPGGA,020625,3946.9596,N,08404.9820,W,2,12,1.00,292.45,M,-33.324,M,,*72
2018-01-11 21:06:24 1515722784.478084: $GPRMC,020625,A,3946.9596,N,08404.9820,W,0.0000,0.000,120118,,*37
2018-01-11 21:06:24 1515722784.478144: $GPGSA,A,3,1,7,8,9,11,27,28,30,13,23,16,138,4.0,1.0,3.5*04
2018-01-11 21:06:25 1515722785.404990: $GPZDA,020626.00,12,01,2018,00,00*6F
2018-01-11 21:06:25 1515722785.405179: $GPGGA,020626,3946.9596,N,08404.9820,W,2,12,1.00,292.45,M,-33.324,M,,*71
2018-01-11 21:06:25 1515722785.405245: $GPRMC,020626,A,3946.9596,N,08404.9820,W,0.0000,0.000,120118,,*34
2018-01-11 21:06:25 1515722785.405305: $GPGSA,A,3,1,7,8,9,11,27,28,30,13,23,16,138,4.0,1.0,3.5*04
2018-01-11 21:06:26 1515722786.724214: $GPGSV,3,1,12,01,19,151,44,07,81,304,44,08,64,052,48,09,26,208,41*7E
2018-01-11 21:06:26 1515722786.724370: $GPGSV,3,2,12,11,43,156,44,27,25,045,48,28,31,279,35,30,52,309,42*7B
2018-01-11 21:06:26 1515722786.724433: $GPGSV,3,3,12,13,03,328,04,23,05,181,28,16,05,076,17,138,38,213,45*45
2018-01-11 21:06:26 1515722786.837819: $GPZDA,020627.00,12,01,2018,00,00*6E
2018-01-11 21:06:26 1515722786.837932: $GPGGA,020627,3946.9596,N,08404.9820,W,2,11,1.00,292.45,M,-33.324,M,,*73
2018-01-11 21:06:26 1515722786.837995: $GPRMC,020627,A,3946.9596,N,08404.9820,W,0.0000,0.000,120118,,*35
2018-01-11 21:06:26 1515722786.838054: $GPGSA,A,3,1,7,8,9,11,27,28,30,23,16,138,,4.0,1.0,3.5*06
2018-01-11 21:06:27 1515722787.403750: $GPZDA,020628.00,12,01,2018,00,00*61
2018-01-11 21:06:27 1515722787.403918: $GPGGA,020628,3946.9596,N,08404.9820,W,2,11,1.00,292.45,M,-33.324,M,,*7C
2018-01-11 21:06:27 1515722787.403983: $GPRMC,020628,A,3946.9596,N,08404.9820,W,0.0000,0.000,120118,,*3A
2018-01-11 21:06:27 1515722787.404044: $GPGSA,A,3,1,7,8,9,11,27,28,30,23,16,138,,4.0,1.0,3.5*06
