2017-12-01 17:38:05 1512167885.443313: {"class":"VERSION","release":"3.16","rev":"3.16-4","proto_major":3,"proto_minor":11}
2017-12-01 17:38:05 1512167885.443711: {"class":"DEVICES","devices":[{"class":"DEVICE","path":"/dev/ttyUSB0","driver":"SiRF","subtype":"9\u0006GSD4e_4.1.2-P1_RPATCH.05-F-GPS-4R-1510281 11/03/2015 307","activated":"2017-12-01T22:38:05.442Z","flags":1,"native":1,"bps":4800,"parity":"N","stopbits":1,"cycle":1.00}]}
2017-12-01 17:38:05 1512167885.443836: {"class":"WATCH","enable":true,"json":false,"nmea":true,"raw":0,"scaled":false,"timing":false,"split24":false,"pps":false}
2017-12-01 17:38:06 1512167886.721049: $GPGSV,3,1,12,01,17,270,44,03,25,313,44,10,17,157,43,14,68,052,42*76
2017-12-01 17:38:06 1512167886.721235: $GPGSV,3,2,12,22,42,298,47,25,33,052,42,26,31,177,43,31,80,312,46*73
2017-12-01 17:38:06 1512167886.721303: $GPGSV,3,3,12,32,51,085,44,12,03,030,23,16,03,190,25,138,38,213,46*48
2017-12-01 17:38:06 1512167886.834437: $GPZDA,223807.00,01,12,2017,00,00*6C
2017-12-01 17:38:06 1512167886.834620: $GPGGA,223807,3946.9721,N,08404.9856,W,2,12,1.00,300.58,M,-33.325,M,,*75
2017-12-01 17:38:06 1512167886.834688: $GPRMC,223807,A,3946.9721,N,08404.9856,W,0.0000,0.000,011217,,*38
2017-12-01 17:38:06 1512167886.834750: $GPGSA,A,3,1,3,10,14,22,25,26,31,32,12,16,138,2.0,1.0,1.5*0D
2017-12-01 17:38:07 1512167887.459785: $GPZDA,223808.00,01,12,2017,00,00*63
2017-12-01 17:38:07 1512167887.459958: $GPGGA,223808,3946.9721,N,08404.9856,W,2,12,1.00,300.58,M,-33.325,M,,*7A
2017-12-01 17:38:07 1512167887.460027: $GPRMC,223808,A,3946.9721,N,08404.9856,W,0.0000,0.000,011217,,*37
2017-12-01 17:38:07 1512167887.460088: $GPGSA,A,3,1,3,10,14,22,25,26,31,32,12,16,138,2.0,1.0,1.5*0D
2017-12-01 17:38:08 1512167888.407252: $GPZDA,223809.00,01,12,2017,00,00*62
2017-12-01 17:38:08 1512167888.407427: $GPGGA,223809,3946.9721,N,08404.9856,W,2,12,1.00,300.58,M,-33.325,M,,*7B
2017-12-01 17:38:08 1512167888.407493: $GPRMC,223809,A,3946.9721,N,08404.9856,W,0.0000,0.000,011217,,*36
2017-12-01 17:38:08 1512167888.407554: $GPGSA,A,3,1,3,10,14,22,25,26,31,32,12,16,138,2.0,1.0,1.5*0D
2017-12-01 17:38:09 1512167889.741495: $GPGSV,3,1,12,01,17,270,44,03,25,313,45,10,17,157,43,14,68,052,42*77
2017-12-01 17:38:09 1512167889.741686: $GPGSV,3,2,12,22,42,298,47,25,33,052,42,26,31,177,44,31,80,312,46*74
2017-12-01 17:38:09 1512167889.741753: $GPGSV,3,3,12,32,51,085,45,12,03,030,23,16,03,190,25,138,38,213,46*49
2017-12-01 17:38:09 1512167889.855053: $GPZDA,223810.00,01,12,2017,00,00*6A
2017-12-01 17:38:09 1512167889.855226: $GPGGA,223810,3946.9721,N,08404.9856,W,2,12,1.00,300.58,M,-33.325,M,,*73
2017-12-01 17:38:09 1512167889.855290: $GPRMC,223810,A,3946.9721,N,08404.9856,W,0.0000,0.000,011217,,*3E
2017-12-01 17:38:09 1512167889.855350: $GPGSA,A,3,1,3,10,14,22,25,26,31,32,12,16,138,2.0,1.0,1.5*0D
2017-12-01 17:38:10 1512167890.405679: $GPZDA,223811.00,01,12,2017,00,00*6B
2017-12-01 17:38:10 1512167890.405855: $GPGGA,223811,3946.9721,N,08404.9856,W,2,12,1.00,300.58,M,-33.325,M,,*72
2017-12-01 17:38:10 1512167890.405921: $GPRMC,223811,A,3946.9721,N,08404.9856,W,0.0000,0.000,011217,,*3F
2017-12-01 17:38:10 1512167890.405982: $GPGSA,A,3,1,3,10,14,22,25,26,31,32,12,16,138,2.0,1.0,1.5*0D
2017-12-01 17:38:11 1512167891.410329: $GPZDA,223812.00,01,12,2017,00,00*68
2017-12-01 17:38:11 1512167891.410504: $GPGGA,223812,3946.9721,N,08404.9856,W,2,12,1.00,300.58,M,-33.325,M,,*71
2017-12-01 17:38:11 1512167891.410573: $GPRMC,223812,A,3946.9721,N,08404.9856,W,0.0000,0.000,011217,,*3C
2017-12-01 17:38:11 1512167891.410634: $GPGSA,A,3,1,3,10,14,22,25,26,31,32,12,16,138,2.0,1.0,1.5*0D
2017-12-01 17:38:12 1512167892.714293: $GPGSV,3,1,12,01,17,270,44,03,25,313,45,10,17,157,43,14,68,052,41*74
2017-12-01 17:38:12 1512167892.714474: $GPGSV,3,2,12,22,42,298,48,25,33,052,42,26,31,177,44,31,80,312,45*78
2017-12-01 17:38:12 1512167892.714542: $GPGSV,3,3,12,32,51,085,45,12,03,030,22,16,03,190,26,138,38,213,46*4B
2017-12-01 17:38:12 1512167892.827776: $GPZDA,223813.00,01,12,2017,00,00*69
2017-12-01 17:38:12 1512167892.827943: $GPGGA,223813,3946.9721,N,08404.9856,W,2,12,1.00,300.58,M,-33.325,M,,*70
2017-12-01 17:38:12 1512167892.828080: $GPRMC,223813,A,3946.9721,N,08404.9856,W,0.0000,0.000,011217,,*3D
2017-12-01 17:38:12 1512167892.828144: $GPGSA,A,3,1,3,10,14,22,25,26,31,32,12,16,138,2.0,1.0,1.5*0D
2017-12-01 17:38:13 1512167893.384797: $GPZDA,223814.00,01,12,2017,00,00*6E
2017-12-01 17:38:13 1512167893.384977: $GPGGA,223814,3946.9721,N,08404.9856,W,2,12,1.00,300.58,M,-33.325,M,,*77
2017-12-01 17:38:13 1512167893.385043: $GPRMC,223814,A,3946.9721,N,08404.9856,W,0.0000,0.000,011217,,*3A
2017-12-01 17:38:13 1512167893.385104: $GPGSA,A,3,1,3,10,14,22,25,26,31,32,12,16,138,2.0,1.0,1.5*0D
2017-12-01 17:38:14 1512167894.383259: $GPZDA,223815.00,01,12,2017,00,00*6F
2017-12-01 17:38:14 1512167894.383432: $GPGGA,223815,3946.9721,N,08404.9856,W,2,12,1.00,300.58,M,-33.325,M,,*76
2017-12-01 17:38:14 1512167894.383521: $GPRMC,223815,A,3946.9721,N,08404.9856,W,0.0000,0.000,011217,,*3B
2017-12-01 17:38:14 1512167894.383584: $GPGSA,A,3,1,3,10,14,22,25,26,31,32,12,16,138,2.0,1.0,1.5*0D
2017-12-01 17:38:15 1512167895.720080: $GPGSV,3,1,12,01,17,270,44,03,25,313,45,10,17,157,43,14,68,052,42*77
2017-12-01 17:38:15 1512167895.720270: $GPGSV,3,2,12,22,42,298,48,25,33,052,42,26,31,177,44,31,80,312,46*7B
2017-12-01 17:38:15 1512167895.720337: $GPGSV,3,3,12,32,51,085,45,12,03,030,22,16,03,190,26,138,38,213,46*4B
2017-12-01 17:38:15 1512167895.832236: $GPZDA,223816.00,01,12,2017,00,00*6C
2017-12-01 17:38:15 1512167895.832377: $GPGGA,223816,3946.9721,N,08404.9856,W,2,12,1.00,300.58,M,-33.325,M,,*75
2017-12-01 17:38:15 1512167895.832443: $GPRMC,223816,A,3946.9721,N,08404.9856,W,0.0000,0.000,011217,,*38
2017-12-01 17:38:15 1512167895.832527: $GPGSA,A,3,1,3,10,14,22,25,26,31,32,12,16,138,2.0,1.0,1.5*0D
2017-12-01 17:38:16 1512167896.384388: $GPZDA,223817.00,01,12,2017,00,00*6D
2017-12-01 17:38:16 1512167896.384583: $GPGGA,223817,3946.9721,N,08404.9856,W,2,12,1.00,300.58,M,-33.325,M,,*74
2017-12-01 17:38:16 1512167896.384668: $GPRMC,223817,A,3946.9721,N,08404.9856,W,0.0000,0.000,011217,,*39
2017-12-01 17:38:16 1512167896.384729: $GPGSA,A,3,1,3,10,14,22,25,26,31,32,12,16,138,2.0,1.0,1.5*0D
2017-12-01 17:38:17 1512167897.383552: $GPZDA,223818.00,01,12,2017,00,00*62
2017-12-01 17:38:17 1512167897.383759: $GPGGA,223818,3946.9721,N,08404.9856,W,2,12,1.00,300.58,M,-33.325,M,,*7B
2017-12-01 17:38:17 1512167897.383827: $GPRMC,223818,A,3946.9721,N,08404.9856,W,0.0000,0.000,011217,,*36
2017-12-01 17:38:17 1512167897.383887: $GPGSA,A,3,1,3,10,14,22,25,26,31,32,12,16,138,2.0,1.0,1.5*0D
2017-12-01 17:38:18 1512167898.717896: $GPGSV,3,1,12,01,17,270,44,03,25,313,44,10,17,157,43,14,68,052,42*76
2017-12-01 17:38:18 1512167898.718080: $GPGSV,3,2,12,22,42,298,47,25,33,052,42,26,31,177,44,31,80,312,46*74
2017-12-01 17:38:18 1512167898.718147: $GPGSV,3,3,12,32,51,085,45,12,03,030,22,16,03,190,26,138,38,213,46*4B
2017-12-01 17:38:18 1512167898.831610: $GPZDA,223819.00,01,12,2017,00,00*63
2017-12-01 17:38:18 1512167898.831778: $GPGGA,223819,3946.9721,N,08404.9856,W,2,12,1.00,300.58,M,-33.325,M,,*7A
2017-12-01 17:38:18 1512167898.831843: $GPRMC,223819,A,3946.9721,N,08404.9856,W,0.0000,0.000,011217,,*37
2017-12-01 17:38:18 1512167898.831905: $GPGSA,A,3,1,3,10,14,22,25,26,31,32,12,16,138,2.0,1.0,1.5*0D
2017-12-01 17:38:19 1512167899.384920: $GPZDA,223820.00,01,12,2017,00,00*69
2017-12-01 17:38:19 1512167899.385090: $GPGGA,223820,3946.9721,N,08404.9856,W,2,12,1.00,300.58,M,-33.325,M,,*70
2017-12-01 17:38:19 1512167899.385157: $GPRMC,223820,A,3946.9721,N,08404.9856,W,0.0000,0.000,011217,,*3D
2017-12-01 17:38:19 1512167899.385218: $GPGSA,A,3,1,3,10,14,22,25,26,31,32,12,16,138,2.0,1.0,1.5*0D
2017-12-01 17:38:20 1512167900.378281: $GPZDA,223821.00,01,12,2017,00,00*68
2017-12-01 17:38:20 1512167900.378478: $GPGGA,223821,3946.9721,N,08404.9856,W,2,12,1.00,300.58,M,-33.325,M,,*71
2017-12-01 17:38:20 1512167900.378563: $GPRMC,223821,A,3946.9721,N,08404.9856,W,0.0000,0.000,011217,,*3C
2017-12-01 17:38:20 1512167900.378626: $GPGSA,A,3,1,3,10,14,22,25,26,31,32,12,16,138,2.0,1.0,1.5*0D
2017-12-01 17:38:21 1512167901.718747: $GPGSV,3,1,12,01,17,270,44,03,25,313,44,10,17,157,43,14,68,052,42*76
2017-12-01 17:38:21 1512167901.718930: $GPGSV,3,2,12,22,42,298,48,25,33,052,41,26,31,177,44,31,80,312,46*78
2017-12-01 17:38:21 1512167901.718997: $GPGSV,3,3,12,32,51,085,45,12,03,030,23,16,03,190,26,138,38,213,46*4A
2017-12-01 17:38:21 1512167901.832416: $GPZDA,223822.00,01,12,2017,00,00*6B
2017-12-01 17:38:21 1512167901.832600: $GPGGA,223822,3946.9721,N,08404.9856,W,2,12,1.00,300.58,M,-33.325,M,,*72
2017-12-01 17:38:21 1512167901.832668: $GPRMC,223822,A,3946.9721,N,08404.9856,W,0.0000,0.000,011217,,*3F
2017-12-01 17:38:21 1512167901.832729: $GPGSA,A,3,1,3,10,14,22,25,26,31,32,12,16,138,2.0,1.0,1.5*0D
2017-12-01 17:38:22 1512167902.457491: $GPZDA,223823.00,01,12,2017,00,00*6A
2017-12-01 17:38:22 1512167902.457684: $GPGGA,223823,3946.9721,N,08404.9856,W,2,12,1.00,300.58,M,-33.325,M,,*73
2017-12-01 17:38:22 1512167902.457751: $GPRMC,223823,A,3946.9721,N,08404.9856,W,0.0000,0.000,011217,,*3E
2017-12-01 17:38:22 1512167902.457813: $GPGSA,A,3,1,3,10,14,22,25,26,31,32,12,16,138,2.0,1.0,1.5*0D
2017-12-01 17:38:23 1512167903.383622: $GPZDA,223824.00,01,12,2017,00,00*6D
2017-12-01 17:38:23 1512167903.383811: $GPGGA,223824,3946.9721,N,08404.9856,W,2,12,1.00,300.58,M,-33.325,M,,*74
2017-12-01 17:38:23 1512167903.383880: $GPRMC,223824,A,3946.9721,N,08404.9856,W,0.0000,0.000,011217,,*39
2017-12-01 17:38:23 1512167903.383941: $GPGSA,A,3,1,3,10,14,22,25,26,31,32,12,16,138,2.0,1.0,1.5*0D
2017-12-01 17:38:24 1512167904.712904: $GPGSV,3,1,12,01,17,270,45,03,25,313,44,10,17,157,43,14,68,052,42*77
2017-12-01 17:38:24 1512167904.713088: $GPGSV,3,2,12,22,42,298,48,25,33,052,41,26,31,177,44,31,80,312,46*78
2017-12-01 17:38:24 1512167904.713154: $GPGSV,3,3,12,32,51,085,46,12,03,030,23,16,03,190,26,138,38,213,46*49
2017-12-01 17:38:24 1512167904.826326: $GPZDA,223825.00,01,12,2017,00,00*6C
2017-12-01 17:38:24 1512167904.826514: $GPGGA,223825,3946.9721,N,08404.9856,W,2,12,1.00,300.58,M,-33.325,M,,*75
2017-12-01 17:38:24 1512167904.826581: $GPRMC,223825,A,3946.9721,N,08404.9856,W,0.0000,0.000,011217,,*38
2017-12-01 17:38:24 1512167904.826642: $GPGSA,A,3,1,3,10,14,22,25,26,31,32,12,16,138,2.0,1.0,1.5*0D
2017-12-01 17:38:25 1512167905.384639: $GPZDA,223826.00,01,12,2017,00,00*6F
2017-12-01 17:38:25 1512167905.384829: $GPGGA,223826,3946.9721,N,08404.9856,W,2,12,1.00,300.58,M,-33.325,M,,*76
2017-12-01 17:38:25 1512167905.387384: $GPRMC,223826,A,3946.9721,N,08404.9856,W,0.0000,0.000,011217,,*3B
2017-12-01 17:38:25 1512167905.387508: $GPGSA,A,3,1,3,10,14,22,25,26,31,32,12,16,138,2.0,1.0,1.5*0D
