2017-12-01 17:49:57 1512168597.063031: {"class":"VERSION","release":"3.16","rev":"3.16-4","proto_major":3,"proto_minor":11}
2017-12-01 17:49:57 1512168597.063419: {"class":"DEVICES","devices":[{"class":"DEVICE","path":"/dev/ttyUSB0","driver":"SiRF","subtype":"9\u0006GSD4e_4.1.2-P1_RPATCH.05-F-GPS-4R-1510281 11/03/2015 307","activated":"2017-12-01T22:49:57.059Z","flags":1,"native":1,"bps":4800,"parity":"N","stopbits":1,"cycle":1.00}]}
2017-12-01 17:49:57 1512168597.063578: {"class":"WATCH","enable":true,"json":false,"nmea":true,"raw":0,"scaled":false,"timing":false,"split24":false,"pps":false}
2017-12-01 17:49:58 1512168598.126284: $GPZDA,224958.36,01,12,2017,00,00*65
2017-12-01 17:49:58 1512168598.126450: $GPGGA,224958,3946.9727,N,08404.9864,W,1,11,0.80,303.95,M,-33.325,M,,*75
2017-12-01 17:49:58 1512168598.126516: $GPRMC,224958,A,3946.9727,N,08404.9864,W,0.3133,9.200,011217,,*3A
2017-12-01 17:49:58 1512168598.126577: $GPGSA,A,3,1,3,10,14,29,22,16,25,26,31,138,,2.0,0.8,1.5*0D
2017-12-01 17:49:58 1512168598.126635: $GPGBS,224958,10.70,M,15.43,M,35.28,M*07
2017-12-01 17:49:59 1512168599.292323: $GPGSV,3,1,12,01,14,265,44,03,30,310,48,10,11,159,41,14,65,066,43*7B
2017-12-01 17:49:59 1512168599.292506: $GPGSV,3,2,12,22,46,292,46,16,08,189,31,25,29,048,43,26,37,175,45*7A
2017-12-01 17:49:59 1512168599.292571: $GPGSV,3,3,12,29,04,085,36,31,78,345,46,32,47,093,46,138,38,213,04*4F
2017-12-01 17:49:59 1512168599.404401: $GPZDA,224959.00,01,12,2017,00,00*61
2017-12-01 17:49:59 1512168599.404539: $GPGGA,224959,3946.9727,N,08404.9857,W,1,12,0.80,304.02,M,-33.325,M,,*7E
2017-12-01 17:49:59 1512168599.404604: $GPRMC,224959,A,3946.9727,N,08404.9857,W,0.2710,100.223,011217,,*34
2017-12-01 17:49:59 1512168599.404665: $GPGSA,A,3,1,3,10,14,22,16,25,26,29,31,32,138,2.0,0.8,1.5*0C
2017-12-01 17:49:59 1512168599.856552: $GPZDA,225000.00,01,12,2017,00,00*65
2017-12-01 17:49:59 1512168599.856717: $GPGGA,225000,3946.9726,N,08404.9856,W,1,12,0.80,302.62,M,-33.325,M,,*7A
2017-12-01 17:49:59 1512168599.856784: $GPRMC,225000,A,3946.9726,N,08404.9856,W,0.1567,9.200,011217,,*38
2017-12-01 17:49:59 1512168599.856845: $GPGSA,A,3,1,3,10,14,22,16,25,26,29,31,32,138,2.0,0.8,1.5*0C
2017-12-01 17:50:00 1512168600.410235: $GPZDA,225001.00,01,12,2017,00,00*64
2017-12-01 17:50:00 1512168600.410402: $GPGGA,225001,3946.9726,N,08404.9856,W,1,12,0.80,302.62,M,-33.325,M,,*7B
2017-12-01 17:50:00 1512168600.410469: $GPRMC,225001,A,3946.9726,N,08404.9856,W,0.0000,0.000,011217,,*37
2017-12-01 17:50:00 1512168600.410531: $GPGSA,A,3,1,3,10,14,22,16,25,26,29,31,32,138,2.0,0.8,1.5*0C
2017-12-01 17:50:01 1512168601.746416: $GPGSV,3,1,12,01,14,265,44,03,30,310,48,10,11,159,42,14,65,066,42*79
2017-12-01 17:50:01 1512168601.746595: $GPGSV,3,2,12,22,46,292,47,16,08,189,29,25,29,048,42,26,37,175,45*73
2017-12-01 17:50:01 1512168601.746663: $GPGSV,3,3,12,29,04,085,36,31,78,345,46,32,47,093,46,138,38,213,46*49
2017-12-01 17:50:01 1512168601.859836: $GPZDA,225002.00,01,12,2017,00,00*67
2017-12-01 17:50:01 1512168601.860008: $GPGGA,225002,3946.9730,N,08404.9856,W,1,12,0.80,301.86,M,-33.325,M,,*76
2017-12-01 17:50:01 1512168601.860075: $GPRMC,225002,A,3946.9730,N,08404.9856,W,0.0000,0.000,011217,,*33
2017-12-01 17:50:01 1512168601.860136: $GPGSA,A,3,1,3,10,14,22,16,25,26,29,31,32,138,2.0,0.8,1.5*0C
2017-12-01 17:50:02 1512168602.409454: $GPZDA,225003.00,01,12,2017,00,00*66
2017-12-01 17:50:02 1512168602.409624: $GPGGA,225003,3946.9730,N,08404.9856,W,1,12,0.80,301.86,M,-33.325,M,,*77
2017-12-01 17:50:02 1512168602.409690: $GPRMC,225003,A,3946.9730,N,08404.9856,W,0.0000,0.000,011217,,*32
2017-12-01 17:50:02 1512168602.409751: $GPGSA,A,3,1,3,10,14,22,16,25,26,29,31,32,138,2.0,0.8,1.5*0C
2017-12-01 17:50:03 1512168603.409173: $GPZDA,225004.00,01,12,2017,00,00*61
2017-12-01 17:50:03 1512168603.409342: $GPGGA,225004,3946.9726,N,08404.9856,W,1,12,0.80,301.22,M,-33.325,M,,*79
2017-12-01 17:50:03 1512168603.409409: $GPRMC,225004,A,3946.9726,N,08404.9856,W,0.2422,273.794,011217,,*38
2017-12-01 17:50:03 1512168603.409469: $GPGSA,A,3,1,3,10,14,22,16,25,26,29,31,32,138,2.0,0.8,1.5*0C
2017-12-01 17:50:03 1512168603.409579: $GPGBS,225004,10.70,M,15.43,M,35.28,M*06
2017-12-01 17:50:04 1512168604.744597: $GPGSV,3,1,12,01,14,265,43,03,30,310,47,10,11,159,41,14,65,066,41*71
2017-12-01 17:50:04 1512168604.744777: $GPGSV,3,2,12,22,46,292,46,16,08,189,30,25,29,048,42,26,37,175,45*7A
2017-12-01 17:50:04 1512168604.744844: $GPGSV,3,3,12,29,04,085,36,31,78,345,45,32,47,093,45,138,38,213,45*4A
2017-12-01 17:50:04 1512168604.857999: $GPZDA,225005.00,01,12,2017,00,00*60
2017-12-01 17:50:04 1512168604.860632: $GPGGA,225005,3946.9726,N,08404.9856,W,1,12,0.80,301.22,M,-33.325,M,,*78
2017-12-01 17:50:04 1512168604.860728: $GPRMC,225005,A,3946.9726,N,08404.9856,W,0.0000,0.000,011217,,*33
2017-12-01 17:50:04 1512168604.860791: $GPGSA,A,3,1,3,10,14,22,16,25,26,29,31,32,138,2.0,0.8,1.5*0C
2017-12-01 17:50:05 1512168605.407653: $GPZDA,225006.00,01,12,2017,00,00*63
2017-12-01 17:50:05 1512168605.407829: $GPGGA,225006,3946.9729,N,08404.9855,W,1,12,0.80,300.45,M,-33.325,M,,*77
2017-12-01 17:50:05 1512168605.407897: $GPRMC,225006,A,3946.9729,N,08404.9855,W,0.0000,0.000,011217,,*3C
2017-12-01 17:50:05 1512168605.407958: $GPGSA,A,3,1,3,10,14,22,16,25,26,29,31,32,138,2.0,0.8,1.5*0C
2017-12-01 17:50:06 1512168606.408263: $GPZDA,225007.00,01,12,2017,00,00*62
2017-12-01 17:50:06 1512168606.408432: $GPGGA,225007,3946.9729,N,08404.9855,W,1,12,0.80,300.45,M,-33.325,M,,*76
2017-12-01 17:50:06 1512168606.408500: $GPRMC,225007,A,3946.9729,N,08404.9855,W,0.0000,0.000,011217,,*3D
2017-12-01 17:50:06 1512168606.408561: $GPGSA,A,3,1,3,10,14,22,16,25,26,29,31,32,138,2.0,0.8,1.5*0C
2017-12-01 17:50:07 1512168607.746207: $GPGSV,3,1,12,01,14,265,43,03,30,310,47,10,11,159,41,14,65,066,41*71
2017-12-01 17:50:07 1512168607.746388: $GPGSV,3,2,12,22,46,292,47,16,08,189,31,25,29,048,42,26,37,175,45*7A
2017-12-01 17:50:07 1512168607.746455: $GPGSV,3,3,12,29,04,085,36,31,78,345,46,32,47,093,44,138,38,213,45*48
2017-12-01 17:50:07 1512168607.859877: $GPZDA,225008.00,01,12,2017,00,00*6D
2017-12-01 17:50:07 1512168607.860045: $GPGGA,225008,3946.9725,N,08404.9855,W,1,12,0.80,299.81,M,-33.325,M,,*7C
2017-12-01 17:50:07 1512168607.860112: $GPRMC,225008,A,3946.9725,N,08404.9855,W,0.0000,0.000,011217,,*3E
2017-12-01 17:50:07 1512168607.860173: $GPGSA,A,3,1,3,10,14,22,16,25,26,29,31,32,138,2.0,0.8,1.5*0C
2017-12-01 17:50:08 1512168608.410470: $GPZDA,225009.00,01,12,2017,00,00*6C
2017-12-01 17:50:08 1512168608.410641: $GPGGA,225009,3946.9725,N,08404.9855,W,1,12,0.80,299.81,M,-33.325,M,,*7D
2017-12-01 17:50:08 1512168608.410707: $GPRMC,225009,A,3946.9725,N,08404.9855,W,0.0000,0.000,011217,,*3F
2017-12-01 17:50:08 1512168608.410768: $GPGSA,A,3,1,3,10,14,22,16,25,26,29,31,32,138,2.0,0.8,1.5*0C
2017-12-01 17:50:09 1512168609.410079: $GPZDA,225010.00,01,12,2017,00,00*64
2017-12-01 17:50:09 1512168609.410255: $GPGGA,225010,3946.9728,N,08404.9854,W,1,12,0.80,299.05,M,-33.325,M,,*75
2017-12-01 17:50:09 1512168609.410322: $GPRMC,225010,A,3946.9728,N,08404.9854,W,0.0000,0.000,011217,,*3B
2017-12-01 17:50:09 1512168609.410383: $GPGSA,A,3,1,3,10,14,22,16,25,26,29,31,32,138,2.0,0.8,1.5*0C
2017-12-01 17:50:10 1512168610.745780: $GPGSV,3,1,12,01,14,265,43,03,30,310,46,10,11,159,41,14,65,066,41*70
2017-12-01 17:50:10 1512168610.745966: $GPGSV,3,2,12,22,46,292,47,16,08,189,32,25,29,048,42,26,37,175,45*79
2017-12-01 17:50:10 1512168610.746032: $GPGSV,3,3,12,29,04,085,36,31,78,345,46,32,47,093,45,138,38,213,46*4A
2017-12-01 17:50:10 1512168610.859167: $GPZDA,225011.00,01,12,2017,00,00*65
2017-12-01 17:50:10 1512168610.859306: $GPGGA,225011,3946.9723,N,08404.9846,W,2,12,2.20,297.08,M,-33.325,M,,*74
2017-12-01 17:50:10 1512168610.859372: $GPRMC,225011,A,3946.9723,N,08404.9846,W,0.0000,0.000,011217,,*32
2017-12-01 17:50:10 1512168610.859432: $GPGSA,A,3,1,3,10,14,22,16,25,26,29,31,32,138,2.0,2.2,1.5*04
2017-12-01 17:50:11 1512168611.484947: $GPZDA,225012.00,01,12,2017,00,00*66
2017-12-01 17:50:11 1512168611.485114: $GPGGA,225012,3946.9723,N,08404.9846,W,2,12,0.80,297.08,M,-33.325,M,,*7F
2017-12-01 17:50:11 1512168611.485181: $GPRMC,225012,A,3946.9723,N,08404.9846,W,0.0000,0.000,011217,,*31
2017-12-01 17:50:11 1512168611.485291: $GPGSA,A,3,1,3,10,14,22,16,25,26,29,31,32,138,2.0,0.8,1.5*0C
2017-12-01 17:50:12 1512168612.410678: $GPZDA,225013.00,01,12,2017,00,00*67
2017-12-01 17:50:12 1512168612.410849: $GPGGA,225013,3946.9723,N,08404.9846,W,2,12,0.80,297.08,M,-33.325,M,,*7E
2017-12-01 17:50:12 1512168612.410916: $GPRMC,225013,A,3946.9723,N,08404.9846,W,0.0000,0.000,011217,,*30
2017-12-01 17:50:12 1512168612.410977: $GPGSA,A,3,1,3,10,14,22,16,25,26,29,31,32,138,2.0,0.8,1.5*0C
2017-12-01 17:50:13 1512168613.747413: $GPGSV,3,1,12,01,14,265,43,03,30,310,46,10,11,159,40,14,65,066,41*71
2017-12-01 17:50:13 1512168613.747594: $GPGSV,3,2,12,22,46,292,47,16,08,189,32,25,29,048,41,26,37,175,45*7A
2017-12-01 17:50:13 1512168613.747661: $GPGSV,3,3,12,29,04,085,36,31,78,345,46,32,47,093,45,138,38,213,46*4A
2017-12-01 17:50:13 1512168613.861037: $GPZDA,225014.00,01,12,2017,00,00*60
2017-12-01 17:50:13 1512168613.861205: $GPGGA,225014,3946.9723,N,08404.9846,W,2,12,0.80,297.08,M,-33.325,M,,*79
2017-12-01 17:50:13 1512168613.861271: $GPRMC,225014,A,3946.9723,N,08404.9846,W,0.0000,0.000,011217,,*37
2017-12-01 17:50:13 1512168613.861332: $GPGSA,A,3,1,3,10,14,22,16,25,26,29,31,32,138,2.0,0.8,1.5*0C
2017-12-01 17:50:14 1512168614.410408: $GPZDA,225015.00,01,12,2017,00,00*61
2017-12-01 17:50:14 1512168614.410577: $GPGGA,225015,3946.9723,N,08404.9846,W,2,12,0.80,297.08,M,-33.325,M,,*78
2017-12-01 17:50:14 1512168614.410661: $GPRMC,225015,A,3946.9723,N,08404.9846,W,0.0000,0.000,011217,,*36
2017-12-01 17:50:14 1512168614.410725: $GPGSA,A,3,1,3,10,14,22,16,25,26,29,31,32,138,2.0,0.8,1.5*0C
2017-12-01 17:50:15 1512168615.412377: $GPZDA,225016.00,01,12,2017,00,00*62
2017-12-01 17:50:15 1512168615.412560: $GPGGA,225016,3946.9727,N,08404.9846,W,2,12,0.80,296.32,M,-33.325,M,,*77
2017-12-01 17:50:15 1512168615.412629: $GPRMC,225016,A,3946.9727,N,08404.9846,W,0.0000,0.000,011217,,*31
2017-12-01 17:50:15 1512168615.412691: $GPGSA,A,3,1,3,10,14,22,16,25,26,29,31,32,138,2.0,0.8,1.5*0C
2017-12-01 17:50:15 1512168615.412750: $GPGBS,225016,2.67,M,3.86,M,8.82,M*30
2017-12-01 17:50:16 1512168616.747546: $GPGSV,3,1,12,01,14,265,43,03,30,310,46,10,11,159,40,14,65,066,41*71
2017-12-01 17:50:16 1512168616.747728: $GPGSV,3,2,12,22,46,292,47,16,08,189,31,25,29,048,41,26,37,175,45*79
2017-12-01 17:50:16 1512168616.747796: $GPGSV,3,3,12,29,04,085,36,31,78,345,46,32,47,093,44,138,38,213,45*48
2017-12-01 17:50:16 1512168616.860889: $GPZDA,225017.00,01,12,2017,00,00*63
2017-12-01 17:50:16 1512168616.861031: $GPGGA,225017,3946.9727,N,08404.9846,W,2,12,0.80,296.32,M,-33.325,M,,*76
2017-12-01 17:50:16 1512168616.861097: $GPRMC,225017,A,3946.9727,N,08404.9846,W,0.0000,0.000,011217,,*30
2017-12-01 17:50:16 1512168616.861158: $GPGSA,A,3,1,3,10,14,22,16,25,26,29,31,32,138,2.0,0.8,1.5*0C
