2017-12-29 10:50:04 1514562604.776441: {"class":"VERSION","release":"3.16","rev":"3.16-4","proto_major":3,"proto_minor":11}
2017-12-29 10:50:04 1514562604.776776: {"class":"DEVICES","devices":[{"class":"DEVICE","path":"/dev/ttyUSB0","driver":"SiRF","subtype":"9\u0006GSD4e_4.1.2-P1_RPATCH.05-F-GPS-4R-1510281 11/03/2015 307","activated":"2017-12-29T15:50:04.547Z","flags":1,"native":1,"bps":4800,"parity":"N","stopbits":1,"cycle":1.00}]}
2017-12-29 10:50:04 1514562604.776888: {"class":"WATCH","enable":true,"json":false,"nmea":true,"raw":0,"scaled":false,"timing":false,"split24":false,"pps":false}
2017-12-29 10:50:05 1514562605.407788: $GPZDA,155006.00,29,12,2017,00,00*6D
2017-12-29 10:50:05 1514562605.407964: $GPGGA,155006,3946.9584,N,08404.9834,W,2,10,0.80,304.62,M,-33.324,M,,*70
2017-12-29 10:50:05 1514562605.408031: $GPRMC,155006,A,3946.9584,N,08404.9834,W,0.0000,0.000,291217,,*30
2017-12-29 10:50:05 1514562605.408091: $GPGSA,A,3,10,13,15,18,20,21,24,27,32,138,,,1.7,0.8,1.3*09
2017-12-29 10:50:06 1514562606.746794: $GPGSV,3,1,12,10,32,292,40,13,18,046,44,15,48,049,50,18,63,316,44*74
2017-12-29 10:50:06 1514562606.746960: $GPGSV,3,2,12,20,44,084,50,21,75,210,47,24,43,127,50,27,19,301,41*7B
2017-12-29 10:50:06 1514562606.747025: $GPGSV,3,3,12,32,12,231,29,29,01,186,00,08,01,331,00,138,38,213,44*4F
2017-12-29 10:50:06 1514562606.860145: $GPZDA,155007.00,29,12,2017,00,00*6C
2017-12-29 10:50:06 1514562606.860306: $GPGGA,155007,3946.9584,N,08404.9834,W,2,10,0.80,304.62,M,-33.324,M,,*71
2017-12-29 10:50:06 1514562606.860370: $GPRMC,155007,A,3946.9584,N,08404.9834,W,0.0000,0.000,291217,,*31
2017-12-29 10:50:06 1514562606.860448: $GPGSA,A,3,10,13,15,18,20,21,24,27,32,138,,,1.7,0.8,1.3*09
2017-12-29 10:50:07 1514562607.407227: $GPZDA,155008.00,29,12,2017,00,00*63
2017-12-29 10:50:07 1514562607.407379: $GPGGA,155008,3946.9584,N,08404.9834,W,2,10,0.80,304.62,M,-33.324,M,,*7E
2017-12-29 10:50:07 1514562607.407443: $GPRMC,155008,A,3946.9584,N,08404.9834,W,0.0000,0.000,291217,,*3E
2017-12-29 10:50:07 1514562607.407504: $GPGSA,A,3,10,13,15,18,20,21,24,27,32,138,,,1.7,0.8,1.3*09
2017-12-29 10:50:08 1514562608.408137: $GPZDA,155009.00,29,12,2017,00,00*62
2017-12-29 10:50:08 1514562608.408300: $GPGGA,155009,3946.9584,N,08404.9834,W,2,10,0.80,304.62,M,-33.324,M,,*7F
2017-12-29 10:50:08 1514562608.408367: $GPRMC,155009,A,3946.9584,N,08404.9834,W,0.0000,0.000,291217,,*3F
2017-12-29 10:50:08 1514562608.408426: $GPGSA,A,3,10,13,15,18,20,21,24,27,32,138,,,1.7,0.8,1.3*09
2017-12-29 10:50:09 1514562609.743917: $GPGSV,3,1,12,10,32,292,40,13,18,046,44,15,48,049,50,18,63,316,44*74
2017-12-29 10:50:09 1514562609.744101: $GPGSV,3,2,12,20,44,084,50,21,75,210,47,24,43,127,50,27,19,301,41*7B
2017-12-29 10:50:09 1514562609.744170: $GPGSV,3,3,12,32,12,231,28,08,01,331,23,29,01,186,04,138,38,213,44*4B
2017-12-29 10:50:09 1514562609.857254: $GPZDA,155010.00,29,12,2017,00,00*6A
2017-12-29 10:50:09 1514562609.857414: $GPGGA,155010,3946.9584,N,08404.9834,W,2,11,0.80,304.62,M,-33.324,M,,*76
2017-12-29 10:50:09 1514562609.857480: $GPRMC,155010,A,3946.9584,N,08404.9834,W,0.0000,0.000,291217,,*37
2017-12-29 10:50:09 1514562609.857543: $GPGSA,A,3,10,13,15,18,20,21,24,27,32,8,138,,1.7,0.8,1.3*31
2017-12-29 10:50:10 1514562610.408098: $GPZDA,155011.00,29,12,2017,00,00*6B
2017-12-29 10:50:10 1514562610.412619: $GPGGA,155011,3946.9584,N,08404.9834,W,2,11,0.80,304.62,M,-33.324,M,,*77
2017-12-29 10:50:10 1514562610.412723: $GPRMC,155011,A,3946.9584,N,08404.9834,W,0.0000,0.000,291217,,*36
2017-12-29 10:50:10 1514562610.412789: $GPGSA,A,3,10,13,15,18,20,21,24,27,32,8,138,,1.7,0.8,1.3*31
2017-12-29 10:50:11 1514562611.407265: $GPZDA,155012.00,29,12,2017,00,00*68
2017-12-29 10:50:11 1514562611.407432: $GPGGA,155012,3946.9584,N,08404.9834,W,2,11,0.80,304.62,M,-33.324,M,,*74
2017-12-29 10:50:11 1514562611.407500: $GPRMC,155012,A,3946.9584,N,08404.9834,W,0.0000,0.000,291217,,*35
2017-12-29 10:50:11 1514562611.407563: $GPGSA,A,3,10,13,15,18,20,21,24,27,32,8,138,,1.7,0.8,1.3*31
2017-12-29 10:50:12 1514562612.745521: $GPGSV,3,1,12,10,32,292,40,13,18,046,44,15,48,049,50,18,63,316,44*74
2017-12-29 10:50:12 1514562612.745722: $GPGSV,3,2,12,20,44,084,50,21,75,210,46,24,43,127,50,27,19,301,41*7A
2017-12-29 10:50:12 1514562612.745788: $GPGSV,3,3,12,32,12,231,26,08,01,331,25,29,01,186,24,138,38,213,46*43
2017-12-29 10:50:12 1514562612.857624: $GPZDA,155013.00,29,12,2017,00,00*69
2017-12-29 10:50:12 1514562612.857774: $GPGGA,155013,3946.9584,N,08404.9834,W,2,11,0.80,304.62,M,-33.324,M,,*75
2017-12-29 10:50:12 1514562612.857837: $GPRMC,155013,A,3946.9584,N,08404.9834,W,0.0000,0.000,291217,,*34
2017-12-29 10:50:12 1514562612.857896: $GPGSA,A,3,10,13,15,18,20,21,24,27,32,8,138,,1.7,0.8,1.3*31
2017-12-29 10:50:13 1514562613.408490: $GPZDA,155014.00,29,12,2017,00,00*6E
2017-12-29 10:50:13 1514562613.408630: $GPGGA,155014,3946.9584,N,08404.9834,W,2,11,0.80,304.62,M,-33.324,M,,*72
2017-12-29 10:50:13 1514562613.408694: $GPRMC,155014,A,3946.9584,N,08404.9834,W,0.0000,0.000,291217,,*33
2017-12-29 10:50:13 1514562613.408754: $GPGSA,A,3,10,13,15,18,20,21,24,27,32,8,138,,1.7,0.8,1.3*31
2017-12-29 10:50:14 1514562614.408112: $GPZDA,155015.00,29,12,2017,00,00*6F
2017-12-29 10:50:14 1514562614.408270: $GPGGA,155015,3946.9584,N,08404.9834,W,2,11,0.80,304.62,M,-33.324,M,,*73
2017-12-29 10:50:14 1514562614.408335: $GPRMC,155015,A,3946.9584,N,08404.9834,W,0.0000,0.000,291217,,*32
2017-12-29 10:50:14 1514562614.408395: $GPGSA,A,3,10,13,15,18,20,21,24,27,32,8,138,,1.7,0.8,1.3*31
2017-12-29 10:50:15 1514562615.738877: $GPGSV,3,1,12,10,32,292,40,13,18,046,44,15,48,049,50,18,63,316,44*74
2017-12-29 10:50:15 1514562615.739068: $GPGSV,3,2,12,20,44,084,50,21,75,210,47,24,43,127,50,27,19,301,41*7B
2017-12-29 10:50:15 1514562615.739136: $GPGSV,3,3,12,32,12,231,28,29,01,186,16,08,01,331,00,138,38,213,45*48
2017-12-29 10:50:15 1514562615.852279: $GPZDA,155016.00,29,12,2017,00,00*6C
2017-12-29 10:50:15 1514562615.852448: $GPGGA,155016,3946.9584,N,08404.9834,W,2,11,0.80,304.62,M,-33.324,M,,*70
2017-12-29 10:50:15 1514562615.852515: $GPRMC,155016,A,3946.9584,N,08404.9834,W,0.0000,0.000,291217,,*31
2017-12-29 10:50:15 1514562615.852577: $GPGSA,A,3,10,13,15,18,20,21,24,27,32,29,138,,1.7,0.8,1.3*02
2017-12-29 10:50:16 1514562616.477607: $GPZDA,155017.00,29,12,2017,00,00*6D
2017-12-29 10:50:16 1514562616.477755: $GPGGA,155017,3946.9584,N,08404.9834,W,2,11,0.80,304.62,M,-33.324,M,,*71
2017-12-29 10:50:16 1514562616.477823: $GPRMC,155017,A,3946.9584,N,08404.9834,W,0.0000,0.000,291217,,*30
2017-12-29 10:50:16 1514562616.477886: $GPGSA,A,3,10,13,15,18,20,21,24,27,32,29,138,,1.7,0.8,1.3*02
2017-12-29 10:50:17 1514562617.417225: $GPZDA,155018.00,29,12,2017,00,00*62
2017-12-29 10:50:17 1514562617.417380: $GPGGA,155018,3946.9584,N,08404.9834,W,2,11,0.80,304.62,M,-33.324,M,,*7E
2017-12-29 10:50:17 1514562617.417447: $GPRMC,155018,A,3946.9584,N,08404.9834,W,0.0000,0.000,291217,,*3F
2017-12-29 10:50:17 1514562617.417510: $GPGSA,A,3,10,13,15,18,20,21,24,27,32,29,138,,1.7,0.8,1.3*02
2017-12-29 10:50:18 1514562618.751740: $GPGSV,3,1,12,10,32,292,40,13,18,046,44,15,48,049,49,18,63,316,45*7D
2017-12-29 10:50:18 1514562618.751900: $GPGSV,3,2,12,20,44,084,50,21,75,210,47,24,43,127,50,27,19,301,41*7B
2017-12-29 10:50:18 1514562618.751968: $GPGSV,3,3,12,32,12,231,28,29,01,186,02,08,01,331,00,138,38,213,45*4D
2017-12-29 10:50:18 1514562618.865097: $GPZDA,155019.00,29,12,2017,00,00*63
2017-12-29 10:50:18 1514562618.865260: $GPGGA,155019,3946.9584,N,08404.9834,W,2,10,0.80,304.62,M,-33.324,M,,*7E
2017-12-29 10:50:18 1514562618.865327: $GPRMC,155019,A,3946.9584,N,08404.9834,W,0.0000,0.000,291217,,*3E
2017-12-29 10:50:18 1514562618.865389: $GPGSA,A,3,10,13,15,18,20,21,24,27,32,138,,,1.7,0.8,1.3*09
2017-12-29 10:50:19 1514562619.444695: $GPZDA,155020.00,29,12,2017,00,00*69
2017-12-29 10:50:19 1514562619.444843: $GPGGA,155020,3946.9584,N,08404.9834,W,2,10,0.80,304.62,M,-33.324,M,,*74
2017-12-29 10:50:19 1514562619.444910: $GPRMC,155020,A,3946.9584,N,08404.9834,W,0.0000,0.000,291217,,*34
2017-12-29 10:50:19 1514562619.444973: $GPGSA,A,3,10,13,15,18,20,21,24,27,32,138,,,1.7,0.8,1.3*09
