2017-11-15 19:39:39 1510792779.634206: {"class":"VERSION","release":"3.17","rev":"3.17","proto_major":3,"proto_minor":12}
2017-11-15 19:39:39 1510792779.634674: {"class":"DEVICES","devices":[{"class":"DEVICE","path":"/dev/ttyUSB0","driver":"SiRF","subtype":"9\u0006GSD4e_4.1.2-P1_RPATCH.05-F-GPS-4R-1510281 11/03/2015 307","activated":"2017-11-16T00:39:39.233Z","flags":1,"native":1,"bps":4800,"parity":"N","stopbits":1,"cycle":1.00}]}
2017-11-15 19:39:39 1510792779.634801: {"class":"WATCH","enable":true,"json":false,"nmea":true,"raw":0,"scaled":false,"timing":false,"split24":false,"pps":false}
2017-11-15 19:39:39 1510792779.683288: $GPGSV,3,1,11,32,32,111,21,16,27,190,14,22,50,264,01,26,58,171,23*7D
2017-11-15 19:39:39 1510792779.683451: $GPGSV,3,2,11,14,52,097,10,31,64,031,25,03,42,294,17,23,14,303,00*78
2017-11-15 19:39:39 1510792779.683511: $GPGSV,3,3,11,29,12,067,11,25,13,039,00,01,03,249,00*42
2017-11-15 19:39:39 1510792779.796609: $GPZDA,003938.00,16,11,2017,00,00*64
2017-11-15 19:39:39 1510792779.796861: $GPGGA,003938,3946.9608,N,08404.9604,W,1,07,1.00,286.67,M,-33.324,M,,*7E
2017-11-15 19:39:39 1510792779.796929: $GPRMC,003938,A,3946.9608,N,08404.9604,W,0.2422,93.794,161117,,*05
2017-11-15 19:39:39 1510792779.796986: $GPGSA,A,3,32,16,26,14,31,3,29,,,,,,3.4,1.0,2.9*02
2017-11-15 19:39:40 1510792780.346304: $GPZDA,003939.00,16,11,2017,00,00*65
2017-11-15 19:39:40 1510792780.346482: $GPGGA,003939,3946.9608,N,08404.9604,W,1,07,1.00,286.67,M,-33.324,M,,*7F
2017-11-15 19:39:40 1510792780.346545: $GPRMC,003939,A,3946.9608,N,08404.9604,W,0.3423,4.197,161117,,*3F
2017-11-15 19:39:40 1510792780.346603: $GPGSA,A,3,32,16,26,14,31,3,29,,,,,,3.4,1.0,2.9*02
2017-11-15 19:39:41 1510792781.330361: $GPZDA,003940.00,16,11,2017,00,00*6B
2017-11-15 19:39:41 1510792781.330524: $GPGGA,003940,3946.9611,N,08404.9596,W,1,07,1.00,285.98,M,-33.324,M,,*72
2017-11-15 19:39:41 1510792781.330586: $GPRMC,003940,A,3946.9611,N,08404.9596,W,0.4844,93.794,161117,,*00
2017-11-15 19:39:41 1510792781.330641: $GPGSA,A,3,32,16,26,14,31,3,29,,,,,,3.4,1.0,2.9*02
2017-11-15 19:39:42 1510792782.681120: $GPGSV,3,1,11,32,32,111,20,16,27,190,15,22,50,264,09,26,58,171,23*75
2017-11-15 19:39:42 1510792782.681303: $GPGSV,3,2,11,14,52,097,10,31,64,031,25,03,42,294,17,23,14,303,00*78
2017-11-15 19:39:42 1510792782.681370: $GPGSV,3,3,11,29,12,067,12,25,13,039,00,01,03,249,00*41
2017-11-15 19:39:42 1510792782.794637: $GPZDA,003941.00,16,11,2017,00,00*6A
2017-11-15 19:39:42 1510792782.794802: $GPGGA,003941,3946.9611,N,08404.9596,W,1,07,1.00,285.98,M,-33.324,M,,*73
2017-11-15 19:39:42 1510792782.794865: $GPRMC,003941,A,3946.9611,N,08404.9596,W,0.4844,93.794,161117,,*01
2017-11-15 19:39:42 1510792782.794923: $GPGSA,A,3,32,16,26,14,31,3,29,,,,,,3.4,1.0,2.9*02
2017-11-15 19:39:43 1510792783.330576: $GPZDA,003942.00,16,11,2017,00,00*69
2017-11-15 19:39:43 1510792783.330724: $GPGGA,003942,3946.9611,N,08404.9589,W,1,07,1.00,286.06,M,-33.324,M,,*7A
2017-11-15 19:39:43 1510792783.330787: $GPRMC,003942,A,3946.9611,N,08404.9589,W,0.2422,93.794,161117,,*06
2017-11-15 19:39:43 1510792783.330847: $GPGSA,A,3,32,16,26,14,31,3,29,,,,,,3.4,1.0,2.9*02
2017-11-15 19:39:44 1510792784.331367: $GPZDA,003943.00,16,11,2017,00,00*68
2017-11-15 19:39:44 1510792784.331549: $GPGGA,003943,3946.9611,N,08404.9589,W,1,07,1.00,286.06,M,-33.324,M,,*7B
2017-11-15 19:39:44 1510792784.331613: $GPRMC,003943,A,3946.9611,N,08404.9589,W,0.0000,0.000,161117,,*31
2017-11-15 19:39:44 1510792784.331672: $GPGSA,A,3,32,16,26,14,31,3,29,,,,,,3.4,1.0,2.9*02
2017-11-15 19:39:45 1510792785.683215: $GPGSV,3,1,11,32,32,111,20,16,27,190,15,22,50,264,10,26,58,171,23*7D
2017-11-15 19:39:45 1510792785.683409: $GPGSV,3,2,11,14,52,097,10,31,64,031,25,03,42,294,17,23,14,303,00*78
2017-11-15 19:39:45 1510792785.683490: $GPGSV,3,3,11,29,12,067,12,25,13,039,00,01,03,249,00*41
2017-11-15 19:39:45 1510792785.795497: $GPZDA,003944.00,16,11,2017,00,00*6F
2017-11-15 19:39:45 1510792785.795663: $GPGGA,003944,3946.9611,N,08404.9589,W,1,08,1.00,286.06,M,-33.324,M,,*73
2017-11-15 19:39:45 1510792785.795727: $GPRMC,003944,A,3946.9611,N,08404.9589,W,0.3155,309.994,161117,,*3A
2017-11-15 19:39:45 1510792785.795838: $GPGSA,A,3,32,16,22,26,14,31,3,29,,,,,3.4,1.0,2.9*02
2017-11-15 19:39:46 1510792786.422622: $GPZDA,003945.00,16,11,2017,00,00*6E
2017-11-15 19:39:46 1510792786.422785: $GPGGA,003945,3946.9608,N,08404.9590,W,1,08,1.00,286.82,M,-33.324,M,,*7E
2017-11-15 19:39:46 1510792786.422846: $GPRMC,003945,A,3946.9608,N,08404.9590,W,0.0000,0.000,161117,,*37
2017-11-15 19:39:46 1510792786.422901: $GPGSA,A,3,32,16,22,26,14,31,3,29,,,,,3.4,1.0,2.9*02
2017-11-15 19:39:47 1510792787.346758: $GPZDA,003946.00,16,11,2017,00,00*6D
2017-11-15 19:39:47 1510792787.346936: $GPGGA,003946,3946.9607,N,08404.9583,W,1,08,1.00,286.90,M,-33.324,M,,*73
2017-11-15 19:39:47 1510792787.347000: $GPRMC,003946,A,3946.9607,N,08404.9583,W,0.0000,0.000,161117,,*39
2017-11-15 19:39:47 1510792787.347058: $GPGSA,A,3,32,16,22,26,14,31,3,29,,,,,3.4,1.0,2.9*02
2017-11-15 19:39:48 1510792788.681212: $GPGSV,3,1,11,32,32,111,19,16,27,190,16,22,50,264,09,26,58,171,23*7C
2017-11-15 19:39:48 1510792788.681404: $GPGSV,3,2,11,14,52,097,13,31,64,031,25,03,42,294,16,23,14,303,00*7A
2017-11-15 19:39:48 1510792788.681484: $GPGSV,3,3,11,29,12,067,11,25,13,039,00,01,03,249,00*42
2017-11-15 19:39:48 1510792788.795021: $GPZDA,003947.00,16,11,2017,00,00*6C
2017-11-15 19:39:48 1510792788.795186: $GPGGA,003947,3946.9607,N,08404.9583,W,1,08,1.00,286.90,M,-33.324,M,,*72
2017-11-15 19:39:48 1510792788.795250: $GPRMC,003947,A,3946.9607,N,08404.9583,W,0.2422,93.794,161117,,*0E
2017-11-15 19:39:48 1510792788.795328: $GPGSA,A,3,32,16,22,26,14,31,3,29,,,,,3.4,1.0,2.9*02
2017-11-15 19:39:49 1510792789.346895: $GPZDA,003948.00,16,11,2017,00,00*63
2017-11-15 19:39:49 1510792789.347185: $GPGGA,003948,3946.9607,N,08404.9583,W,1,08,1.00,286.90,M,-33.324,M,,*7D
2017-11-15 19:39:49 1510792789.347335: $GPRMC,003948,A,3946.9607,N,08404.9583,W,0.4179,328.778,161117,,*3D
2017-11-15 19:39:49 1510792789.347443: $GPGSA,A,3,32,16,22,26,14,31,3,29,,,,,3.4,1.0,2.9*02
