2017-11-16 17:08:20 1510870100.421771: {"class":"VERSION","release":"3.17","rev":"3.17","proto_major":3,"proto_minor":12}
2017-11-16 17:08:20 1510870100.422201: {"class":"DEVICES","devices":[{"class":"DEVICE","path":"/dev/ttyUSB0","driver":"SiRF","subtype":"9\u0006GSD4e_4.1.2-P1_RPATCH.05-F-GPS-4R-1510281 11/03/2015 307","activated":"2017-11-16T22:08:20.409Z","flags":1,"native":1,"bps":4800,"parity":"N","stopbits":1,"cycle":1.00}]}
2017-11-16 17:08:20 1510870100.422327: {"class":"WATCH","enable":true,"json":false,"nmea":true,"raw":0,"scaled":false,"timing":false,"split24":false,"pps":false}
2017-11-16 17:08:21 1510870101.750011: $GPGSV,3,1,12,01,18,312,35,10,60,141,47,11,10,292,39,12,25,061,50*72
2017-11-16 17:08:21 1510870101.750187: $GPGSV,3,2,12,14,60,306,46,18,29,139,44,22,09,312,33,24,06,046,35*7B
2017-11-16 17:08:21 1510870101.750247: $GPGSV,3,3,12,25,35,105,47,31,43,217,48,32,70,354,50,138,38,213,44*41
2017-11-16 17:08:21 1510870101.863570: $GPZDA,220820.00,16,11,2017,00,00*6F
2017-11-16 17:08:21 1510870101.863725: $GPGGA,220820,3946.9572,N,08404.9826,W,2,12,0.80,313.45,M,-33.324,M,,*76
2017-11-16 17:08:21 1510870101.863787: $GPRMC,220820,A,3946.9572,N,08404.9826,W,0.0000,0.000,161117,,*38
2017-11-16 17:08:21 1510870101.863844: $GPGSA,A,3,1,10,11,12,14,18,22,24,25,31,32,138,1.6,0.8,1.3*38
2017-11-16 17:08:22 1510870102.397892: $GPZDA,220821.00,16,11,2017,00,00*6E
2017-11-16 17:08:22 1510870102.398087: $GPGGA,220821,3946.9572,N,08404.9826,W,2,12,0.80,313.45,M,-33.324,M,,*77
2017-11-16 17:08:22 1510870102.398170: $GPRMC,220821,A,3946.9572,N,08404.9826,W,0.0000,0.000,161117,,*39
2017-11-16 17:08:22 1510870102.398231: $GPGSA,A,3,1,10,11,12,14,18,22,24,25,31,32,138,1.6,0.8,1.3*38
2017-11-16 17:08:23 1510870103.413725: $GPZDA,220822.00,16,11,2017,00,00*6D
2017-11-16 17:08:23 1510870103.413889: $GPGGA,220822,3946.9572,N,08404.9826,W,2,12,0.80,313.45,M,-33.324,M,,*74
2017-11-16 17:08:23 1510870103.413951: $GPRMC,220822,A,3946.9572,N,08404.9826,W,0.0000,0.000,161117,,*3A
2017-11-16 17:08:23 1510870103.414008: $GPGSA,A,3,1,10,11,12,14,18,22,24,25,31,32,138,1.6,0.8,1.3*38
2017-11-16 17:08:24 1510870104.750806: $GPGSV,3,1,12,01,18,312,35,10,60,141,47,11,10,292,40,12,25,061,50*7C
2017-11-16 17:08:24 1510870104.750973: $GPGSV,3,2,12,14,60,306,46,18,29,139,44,22,09,312,31,24,06,046,36*7A
2017-11-16 17:08:24 1510870104.751033: $GPGSV,3,3,12,25,35,105,47,31,43,217,48,32,70,354,50,138,38,213,44*41
2017-11-16 17:08:24 1510870104.864098: $GPZDA,220823.00,16,11,2017,00,00*6C
2017-11-16 17:08:24 1510870104.864264: $GPGGA,220823,3946.9572,N,08404.9826,W,2,12,0.80,313.45,M,-33.324,M,,*75
2017-11-16 17:08:24 1510870104.864328: $GPRMC,220823,A,3946.9572,N,08404.9826,W,0.0000,0.000,161117,,*3B
2017-11-16 17:08:24 1510870104.864384: $GPGSA,A,3,1,10,11,12,14,18,22,24,25,31,32,138,1.6,0.8,1.3*38
2017-11-16 17:08:25 1510870105.414983: $GPZDA,220824.00,16,11,2017,00,00*6B
2017-11-16 17:08:25 1510870105.415228: $GPGGA,220824,3946.9572,N,08404.9826,W,2,12,0.80,313.45,M,-33.324,M,,*72
2017-11-16 17:08:25 1510870105.415292: $GPRMC,220824,A,3946.9572,N,08404.9826,W,0.0000,0.000,161117,,*3C
2017-11-16 17:08:25 1510870105.415348: $GPGSA,A,3,1,10,11,12,14,18,22,24,25,31,32,138,1.6,0.8,1.3*38
2017-11-16 17:08:26 1510870106.414232: $GPZDA,220825.00,16,11,2017,00,00*6A
2017-11-16 17:08:26 1510870106.414411: $GPGGA,220825,3946.9572,N,08404.9826,W,2,12,0.80,313.45,M,-33.324,M,,*73
2017-11-16 17:08:26 1510870106.414476: $GPRMC,220825,A,3946.9572,N,08404.9826,W,0.0000,0.000,161117,,*3D
2017-11-16 17:08:26 1510870106.414536: $GPGSA,A,3,1,10,11,12,14,18,22,24,25,31,32,138,1.6,0.8,1.3*38
2017-11-16 17:08:27 1510870107.733825: $GPGSV,3,1,12,01,18,312,35,10,60,141,47,11,10,292,40,12,25,061,50*7C
2017-11-16 17:08:27 1510870107.734024: $GPGSV,3,2,12,14,60,306,46,18,29,139,44,22,09,312,32,24,06,046,36*79
2017-11-16 17:08:27 1510870107.734116: $GPGSV,3,3,12,25,35,105,46,31,43,217,48,32,70,354,50,138,38,213,44*40
2017-11-16 17:08:27 1510870107.847148: $GPZDA,220826.00,16,11,2017,00,00*69
2017-11-16 17:08:27 1510870107.847323: $GPGGA,220826,3946.9572,N,08404.9826,W,2,12,0.80,313.45,M,-33.324,M,,*70
2017-11-16 17:08:27 1510870107.847440: $GPRMC,220826,A,3946.9572,N,08404.9826,W,0.0000,0.000,161117,,*3E
2017-11-16 17:08:27 1510870107.847498: $GPGSA,A,3,1,10,11,12,14,18,22,24,25,31,32,138,1.6,0.8,1.3*38
2017-11-16 17:08:28 1510870108.409210: $GPZDA,220827.00,16,11,2017,00,00*68
2017-11-16 17:08:28 1510870108.409372: $GPGGA,220827,3946.9572,N,08404.9826,W,2,12,0.80,313.45,M,-33.324,M,,*71
2017-11-16 17:08:28 1510870108.409434: $GPRMC,220827,A,3946.9572,N,08404.9826,W,0.0000,0.000,161117,,*3F
2017-11-16 17:08:28 1510870108.409490: $GPGSA,A,3,1,10,11,12,14,18,22,24,25,31,32,138,1.6,0.8,1.3*38
2017-11-16 17:08:29 1510870109.415152: $GPZDA,220828.00,16,11,2017,00,00*67
2017-11-16 17:08:29 1510870109.415340: $GPGGA,220828,3946.9572,N,08404.9826,W,2,12,0.80,313.45,M,-33.324,M,,*7E
2017-11-16 17:08:29 1510870109.415405: $GPRMC,220828,A,3946.9572,N,08404.9826,W,0.0000,0.000,161117,,*30
2017-11-16 17:08:29 1510870109.415465: $GPGSA,A,3,1,10,11,12,14,18,22,24,25,31,32,138,1.6,0.8,1.3*38
