2017-12-14 11:44:38 1513269878.963610: {"class":"VERSION","release":"3.16","rev":"3.16-4","proto_major":3,"proto_minor":11}
2017-12-14 11:44:38 1513269878.964092: {"class":"DEVICES","devices":[{"class":"DEVICE","path":"/dev/ttyUSB0","driver":"SiRF","subtype":"9\u0006GSD4e_4.1.2-P1_RPATCH.05-F-GPS-4R-1510281 11/03/2015 307","activated":"2017-12-14T16:44:38.329Z","flags":1,"native":1,"bps":4800,"parity":"N","stopbits":1,"cycle":1.00}]}
2017-12-14 11:44:38 1513269878.964293: {"class":"WATCH","enable":true,"json":false,"nmea":true,"raw":0,"scaled":false,"timing":false,"split24":false,"pps":false}
2017-12-14 11:44:39 1513269879.523865: $GPGSV,3,1,11,24,41,130,24,15,52,049,21,18,61,312,20,10,30,289,20*7E
2017-12-14 11:44:39 1513269879.524061: $GPGSV,3,2,11,27,19,304,16,21,77,216,17,20,45,081,13,32,09,229,13*7E
2017-12-14 11:44:39 1513269879.524126: $GPGSV,3,3,11,13,21,045,00,29,03,187,00,138,38,213,00*7E
2017-12-14 11:44:39 1513269879.637538: $GPZDA,164440.00,14,12,2017,00,00*67
2017-12-14 11:44:39 1513269879.637717: $GPGGA,164440,3946.9514,N,08404.9402,W,1,07,1.80,313.93,M,-33.324,M,,*78
2017-12-14 11:44:39 1513269879.637808: $GPRMC,164440,A,3946.9514,N,08404.9402,W,0.9929,212.499,141217,,*34
2017-12-14 11:44:39 1513269879.637873: $GPGSA,A,3,24,15,18,10,27,21,20,,,,,,6.6,1.8,6.2*31
2017-12-14 11:44:40 1513269880.188923: $GPZDA,164441.00,14,12,2017,00,00*66
2017-12-14 11:44:40 1513269880.189109: $GPGGA,164441,3946.9506,N,08404.9403,W,1,07,1.80,314.05,M,-33.324,M,,*73
2017-12-14 11:44:40 1513269880.189198: $GPRMC,164441,A,3946.9506,N,08404.9403,W,0.4207,219.347,141217,,*32
2017-12-14 11:44:40 1513269880.189264: $GPGSA,A,3,24,15,18,10,27,21,20,,,,,,6.6,1.8,6.2*31
2017-12-14 11:44:41 1513269881.188790: $GPZDA,164442.00,14,12,2017,00,00*65
2017-12-14 11:44:41 1513269881.188974: $GPGGA,164442,3946.9510,N,08404.9402,W,1,07,1.80,313.29,M,-33.324,M,,*7F
2017-12-14 11:44:41 1513269881.189062: $GPRMC,164442,A,3946.9510,N,08404.9402,W,0.5075,252.257,141217,,*3E
2017-12-14 11:44:41 1513269881.189127: $GPGSA,A,3,24,15,18,10,27,21,20,,,,,,6.6,1.8,6.2*31
2017-12-14 11:44:42 1513269882.525064: $GPGSV,3,1,11,24,41,130,24,15,52,049,22,18,61,312,20,10,30,289,21*7C
2017-12-14 11:44:42 1513269882.525288: $GPGSV,3,2,11,27,19,304,16,21,77,216,17,20,45,081,12,32,09,229,10*7C
2017-12-14 11:44:42 1513269882.525364: $GPGSV,3,3,11,13,21,045,00,29,03,187,00,138,38,213,00*7E
2017-12-14 11:44:42 1513269882.638371: $GPZDA,164443.00,14,12,2017,00,00*64
2017-12-14 11:44:42 1513269882.638546: $GPGGA,164443,3946.9509,N,08404.9401,W,1,08,1.80,311.88,M,-33.324,M,,*73
2017-12-14 11:44:42 1513269882.638614: $GPRMC,164443,A,3946.9509,N,08404.9401,W,0.5075,252.257,141217,,*34
2017-12-14 11:44:42 1513269882.638678: $GPGSA,A,3,24,15,18,10,27,21,20,32,,,,,6.6,1.8,6.2*30
2017-12-14 11:44:43 1513269883.189500: $GPZDA,164444.00,14,12,2017,00,00*63
2017-12-14 11:44:44 1513269884.156766: $GPGGA,164444,3946.9509,N,08404.9408,W,1,08,1.80,311.80,M,-33.324,M,,*75
2017-12-14 11:44:44 1513269884.156951: $GPRMC,164444,A,3946.9509,N,08404.9408,W,0.5912,309.173,141217,,*38
2017-12-14 11:44:44 1513269884.157035: $GPGSA,A,3,24,15,18,10,27,21,20,32,,,,,6.6,1.8,6.2*30
2017-12-14 11:44:44 1513269884.189336: $GPZDA,164445.00,14,12,2017,00,00*62
2017-12-14 11:44:44 1513269884.189501: $GPGGA,164445,3946.9513,N,08404.9408,W,1,08,1.80,311.04,M,-33.324,M,,*73
2017-12-14 11:44:44 1513269884.189569: $GPRMC,164445,A,3946.9513,N,08404.9408,W,0.5467,339.487,141217,,*30
2017-12-14 11:44:44 1513269884.189632: $GPGSA,A,3,24,15,18,10,27,21,20,32,,,,,6.6,1.8,6.2*30
2017-12-14 11:44:45 1513269885.525557: $GPGSV,3,1,11,24,41,130,23,15,52,049,22,18,61,312,20,10,30,289,21*7B
2017-12-14 11:44:45 1513269885.525753: $GPGSV,3,2,11,27,19,304,16,21,77,216,17,20,45,081,14,32,09,229,04*7F
2017-12-14 11:44:45 1513269885.525823: $GPGSV,3,3,11,13,21,045,00,29,03,187,00,138,38,213,00*7E
2017-12-14 11:44:45 1513269885.639172: $GPZDA,164446.00,14,12,2017,00,00*61
2017-12-14 11:44:45 1513269885.639307: $GPGGA,164446,3946.9514,N,08404.9415,W,1,07,1.80,312.37,M,-33.324,M,,*77
2017-12-14 11:44:45 1513269885.639374: $GPRMC,164446,A,3946.9514,N,08404.9415,W,0.7246,344.668,141217,,*36
2017-12-14 11:44:45 1513269885.639490: $GPGSA,A,3,24,15,18,10,27,21,20,,,,,,6.6,1.8,6.2*31
2017-12-14 11:44:46 1513269886.189352: $GPZDA,164447.00,14,12,2017,00,00*60
2017-12-14 11:44:46 1513269886.189561: $GPGGA,164447,3946.9510,N,08404.9415,W,1,07,1.80,311.73,M,-33.324,M,,*71
2017-12-14 11:44:46 1513269886.189660: $GPRMC,164447,A,3946.9510,N,08404.9415,W,0.5912,309.173,141217,,*3F
2017-12-14 11:44:46 1513269886.189742: $GPGSA,A,3,24,15,18,10,27,21,20,,,,,,6.6,1.8,6.2*31
2017-12-14 11:44:47 1513269887.189230: $GPZDA,164448.00,14,12,2017,00,00*6F
2017-12-14 11:44:47 1513269887.189403: $GPGGA,164448,3946.9506,N,08404.9423,W,1,07,1.80,312.41,M,-33.324,M,,*7E
2017-12-14 11:44:47 1513269887.189469: $GPRMC,164448,A,3946.9506,N,08404.9423,W,0.4844,273.795,141217,,*33
2017-12-14 11:44:47 1513269887.189529: $GPGSA,A,3,24,15,18,10,27,21,20,,,,,,6.6,1.8,6.2*31
2017-12-14 11:44:48 1513269888.529910: $GPGSV,3,1,11,24,41,130,23,15,52,049,22,18,61,312,20,10,30,289,21*7B
2017-12-14 11:44:48 1513269888.530083: $GPGSV,3,2,11,27,19,304,16,21,77,216,17,20,45,081,14,32,09,229,04*7F
2017-12-14 11:44:48 1513269888.530148: $GPGSV,3,3,11,13,21,045,00,29,03,187,00,138,38,213,00*7E
2017-12-14 11:44:48 1513269888.643608: $GPZDA,164449.00,14,12,2017,00,00*6E
2017-12-14 11:44:48 1513269888.643794: $GPGGA,164449,3946.9506,N,08404.9423,W,1,07,1.80,312.41,M,-33.324,M,,*7F
2017-12-14 11:44:48 1513269888.643877: $GPRMC,164449,A,3946.9506,N,08404.9423,W,0.6846,4.197,141217,,*34
2017-12-14 11:44:48 1513269888.643939: $GPGSA,A,3,24,15,18,10,27,21,20,,,,,,6.6,1.8,6.2*31
2017-12-14 11:44:49 1513269889.188902: $GPZDA,164450.00,14,12,2017,00,00*66
2017-12-14 11:44:49 1513269889.189085: $GPGGA,164450,3946.9506,N,08404.9423,W,1,07,1.80,312.41,M,-33.324,M,,*77
2017-12-14 11:44:49 1513269889.189152: $GPRMC,164450,A,3946.9506,N,08404.9423,W,0.9060,347.792,141217,,*38
2017-12-14 11:44:49 1513269889.189213: $GPGSA,A,3,24,15,18,10,27,21,20,,,,,,6.6,1.8,6.2*31
2017-12-14 11:44:50 1513269890.188814: $GPZDA,164451.00,14,12,2017,00,00*67
2017-12-14 11:44:50 1513269890.188996: $GPGGA,164451,3946.9506,N,08404.9423,W,1,07,1.80,312.41,M,-33.324,M,,*76
2017-12-14 11:44:50 1513269890.189066: $GPRMC,164451,A,3946.9506,N,08404.9423,W,0.6846,4.197,141217,,*3D
2017-12-14 11:44:50 1513269890.189126: $GPGSA,A,3,24,15,18,10,27,21,20,,,,,,6.6,1.8,6.2*31
2017-12-14 11:44:51 1513269891.523506: $GPGSV,3,1,11,24,41,130,22,15,52,049,22,18,61,312,20,10,30,289,21*7A
2017-12-14 11:44:51 1513269891.523684: $GPGSV,3,2,11,27,19,304,16,13,21,045,00,20,45,081,14,32,09,229,04*7F
2017-12-14 11:44:51 1513269891.523751: $GPGSV,3,3,11,21,77,216,00,29,03,187,00,138,38,213,00*78
2017-12-14 11:44:51 1513269891.636844: $GPZDA,164452.00,14,12,2017,00,00*64
2017-12-14 11:44:51 1513269891.636978: $GPGGA,164452,3946.9506,N,08404.9423,W,1,06,1.80,312.41,M,-33.324,M,,*74
2017-12-14 11:44:51 1513269891.637041: $GPRMC,164452,A,3946.9506,N,08404.9423,W,0.0000,0.000,141217,,*39
2017-12-14 11:44:51 1513269891.637104: $GPGSA,A,3,24,15,18,10,27,20,,,,,,,6.6,1.8,6.2*32
2017-12-14 11:44:52 1513269892.189532: $GPZDA,164453.00,14,12,2017,00,00*65
2017-12-14 11:44:52 1513269892.189717: $GPGGA,164453,3946.9503,N,08404.9424,W,1,06,1.80,313.18,M,-33.324,M,,*7A
2017-12-14 11:44:52 1513269892.189786: $GPRMC,164453,A,3946.9503,N,08404.9424,W,0.4179,148.778,141217,,*34
2017-12-14 11:44:52 1513269892.189850: $GPGSA,A,3,24,15,18,10,27,20,,,,,,,6.6,1.8,6.2*32
2017-12-14 11:44:53 1513269893.189421: $GPZDA,164454.00,14,12,2017,00,00*62
2017-12-14 11:44:53 1513269893.189590: $GPGGA,164454,3946.9506,N,08404.9423,W,1,06,1.80,312.41,M,-33.324,M,,*72
2017-12-14 11:44:53 1513269893.189656: $GPRMC,164454,A,3946.9506,N,08404.9423,W,0.5951,58.684,141217,,*00
2017-12-14 11:44:53 1513269893.189720: $GPGSA,A,3,24,15,18,10,27,20,,,,,,,6.6,1.8,6.2*32
2017-12-14 11:44:54 1513269894.525344: $GPGSV,3,1,11,24,41,130,22,15,52,049,22,18,61,312,20,10,30,289,21*7A
2017-12-14 11:44:54 1513269894.525535: $GPGSV,3,2,11,27,19,304,16,13,21,045,00,20,45,081,15,32,09,229,04*7E
2017-12-14 11:44:54 1513269894.525652: $GPGSV,3,3,11,21,77,216,00,29,03,187,00,138,38,213,00*78
2017-12-14 11:44:54 1513269894.639012: $GPZDA,164455.00,14,12,2017,00,00*63
2017-12-14 11:44:54 1513269894.639182: $GPGGA,164455,3946.9510,N,08404.9422,W,1,06,1.80,311.65,M,-33.324,M,,*70
2017-12-14 11:44:54 1513269894.639247: $GPRMC,164455,A,3946.9510,N,08404.9422,W,0.8414,39.347,141217,,*0B
2017-12-14 11:44:54 1513269894.639309: $GPGSA,A,3,24,15,18,10,27,20,,,,,,,6.6,1.8,6.2*32
2017-12-14 11:44:55 1513269895.190129: $GPZDA,164456.00,14,12,2017,00,00*60
2017-12-14 11:44:55 1513269895.190307: $GPGGA,164456,3946.9502,N,08404.9423,W,1,06,1.80,311.77,M,-33.324,M,,*72
2017-12-14 11:44:55 1513269895.190374: $GPRMC,164456,A,3946.9502,N,08404.9423,W,0.2422,93.795,141217,,*0E
2017-12-14 11:44:55 1513269895.190436: $GPGSA,A,3,24,15,18,10,27,20,,,,,,,6.6,1.8,6.2*32
2017-12-14 11:44:56 1513269896.190312: $GPZDA,164457.00,14,12,2017,00,00*61
2017-12-14 11:44:56 1513269896.190488: $GPGGA,164457,3946.9506,N,08404.9423,W,1,06,1.80,312.41,M,-33.324,M,,*71
2017-12-14 11:44:56 1513269896.190557: $GPRMC,164457,A,3946.9506,N,08404.9423,W,0.5287,2.716,141217,,*36
2017-12-14 11:44:56 1513269896.190618: $GPGSA,A,3,24,15,18,10,27,20,,,,,,,6.6,1.8,6.2*32
2017-12-14 11:44:57 1513269897.525285: $GPGSV,3,1,11,24,41,130,21,15,52,049,22,18,61,312,20,10,30,289,21*79
2017-12-14 11:44:57 1513269897.525483: $GPGSV,3,2,11,27,19,304,16,13,21,045,00,20,45,081,16,32,09,229,04*7D
2017-12-14 11:44:57 1513269897.525551: $GPGSV,3,3,11,21,77,216,00,29,03,187,00,138,38,213,00*78
2017-12-14 11:44:57 1513269897.638824: $GPZDA,164458.00,14,12,2017,00,00*6E
2017-12-14 11:44:57 1513269897.638998: $GPGGA,164458,3946.9514,N,08404.9415,W,1,06,1.80,312.37,M,-33.324,M,,*79
2017-12-14 11:44:57 1513269897.639064: $GPRMC,164458,A,3946.9514,N,08404.9415,W,1.1385,29.379,141217,,*0D
2017-12-14 11:44:57 1513269897.639125: $GPGSA,A,3,24,15,18,10,27,20,,,,,,,6.6,1.8,6.2*32
2017-12-14 11:44:58 1513269898.189493: $GPZDA,164459.00,14,12,2017,00,00*6F
2017-12-14 11:44:58 1513269898.189697: $GPGGA,164459,3946.9514,N,08404.9422,W,1,06,1.80,312.29,M,-33.324,M,,*73
2017-12-14 11:44:58 1513269898.189779: $GPRMC,164459,A,3946.9514,N,08404.9422,W,1.3082,341.818,141217,,*3F
2017-12-14 11:44:58 1513269898.189842: $GPGSA,A,3,24,15,18,10,27,20,,,,,,,6.6,1.8,6.2*32
