2017-11-16 17:30:59 1510871459.210993: {"class":"VERSION","release":"3.17","rev":"3.17","proto_major":3,"proto_minor":12}
2017-11-16 17:30:59 1510871459.211431: {"class":"DEVICES","devices":[{"class":"DEVICE","path":"/dev/ttyUSB0","driver":"SiRF","subtype":"9\u0006GSD4e_4.1.2-P1_RPATCH.05-F-GPS-4R-1510281 11/03/2015 307","activated":"2017-11-16T22:30:58.557Z","flags":1,"native":1,"bps":4800,"parity":"N","stopbits":1,"cycle":1.00}]}
2017-11-16 17:30:59 1510871459.211649: {"class":"WATCH","enable":true,"json":false,"nmea":true,"raw":0,"scaled":false,"timing":false,"split24":false,"pps":false}
2017-11-16 17:30:59 1510871459.424687: $GPZDA,223058.00,16,11,2017,00,00*6B
2017-11-16 17:30:59 1510871459.424851: $GPGGA,223058,3946.9572,N,08404.9835,W,2,11,0.80,304.10,M,-33.324,M,,*75
2017-11-16 17:30:59 1510871459.424911: $GPRMC,223058,A,3946.9572,N,08404.9835,W,0.0000,0.000,161117,,*3E
2017-11-16 17:30:59 1510871459.424968: $GPGSA,A,3,1,10,22,12,14,18,11,25,31,32,138,,1.6,0.8,1.3*3E
2017-11-16 17:31:00 1510871460.738952: $GPGSV,3,1,12,01,21,301,36,10,48,148,50,22,18,312,45,12,22,051,51*73
2017-11-16 17:31:00 1510871460.739120: $GPGSV,3,2,12,14,66,327,48,18,19,144,38,26,01,183,00,11,08,282,41*75
2017-11-16 17:31:00 1510871460.739181: $GPGSV,3,3,12,25,39,091,47,31,55,225,48,32,69,025,49,138,38,213,44*42
2017-11-16 17:31:00 1510871460.852521: $GPZDA,223059.00,16,11,2017,00,00*6A
2017-11-16 17:31:00 1510871460.852682: $GPGGA,223059,3946.9572,N,08404.9835,W,2,11,0.80,304.10,M,-33.324,M,,*74
2017-11-16 17:31:00 1510871460.852743: $GPRMC,223059,A,3946.9572,N,08404.9835,W,0.0000,0.000,161117,,*3F
2017-11-16 17:31:00 1510871460.852799: $GPGSA,A,3,1,10,22,12,14,18,11,25,31,32,138,,1.6,0.8,1.3*3E
2017-11-16 17:31:01 1510871461.477979: $GPZDA,223100.00,16,11,2017,00,00*67
2017-11-16 17:31:01 1510871461.478136: $GPGGA,223100,3946.9572,N,08404.9835,W,2,11,0.80,304.10,M,-33.324,M,,*79
2017-11-16 17:31:01 1510871461.478197: $GPRMC,223100,A,3946.9572,N,08404.9835,W,0.0000,0.000,161117,,*32
2017-11-16 17:31:01 1510871461.478253: $GPGSA,A,3,1,10,22,12,14,18,11,25,31,32,138,,1.6,0.8,1.3*3E
2017-11-16 17:31:02 1510871462.401201: $GPZDA,223101.00,16,11,2017,00,00*66
2017-11-16 17:31:02 1510871462.401361: $GPGGA,223101,3946.9572,N,08404.9835,W,2,11,0.80,304.10,M,-33.324,M,,*78
2017-11-16 17:31:02 1510871462.401421: $GPRMC,223101,A,3946.9572,N,08404.9835,W,0.0000,0.000,161117,,*33
2017-11-16 17:31:02 1510871462.401477: $GPGSA,A,3,1,10,22,12,14,18,11,25,31,32,138,,1.6,0.8,1.3*3E
2017-11-16 17:31:03 1510871463.752870: $GPGSV,3,1,12,01,21,301,37,10,48,148,50,22,18,312,46,12,22,051,51*71
2017-11-16 17:31:03 1510871463.753051: $GPGSV,3,2,12,14,66,327,48,18,19,144,38,26,01,183,00,11,08,282,42*76
2017-11-16 17:31:03 1510871463.753113: $GPGSV,3,3,12,25,39,091,47,31,55,225,49,32,69,025,50,138,38,213,44*4B
2017-11-16 17:31:03 1510871463.866217: $GPZDA,223102.00,16,11,2017,00,00*65
2017-11-16 17:31:03 1510871463.866376: $GPGGA,223102,3946.9572,N,08404.9835,W,2,11,0.80,304.10,M,-33.324,M,,*7B
2017-11-16 17:31:03 1510871463.866437: $GPRMC,223102,A,3946.9572,N,08404.9835,W,0.0000,0.000,161117,,*30
2017-11-16 17:31:03 1510871463.866493: $GPGSA,A,3,1,10,22,12,14,18,11,25,31,32,138,,1.6,0.8,1.3*3E
2017-11-16 17:31:04 1510871464.394612: $GPZDA,223103.00,16,11,2017,00,00*64
2017-11-16 17:31:04 1510871464.394789: $GPGGA,223103,3946.9572,N,08404.9835,W,2,11,0.80,304.10,M,-33.324,M,,*7A
2017-11-16 17:31:04 1510871464.394851: $GPRMC,223103,A,3946.9572,N,08404.9835,W,0.0000,0.000,161117,,*31
2017-11-16 17:31:04 1510871464.394907: $GPGSA,A,3,1,10,22,12,14,18,11,25,31,32,138,,1.6,0.8,1.3*3E
2017-11-16 17:31:05 1510871465.424127: $GPZDA,223104.00,16,11,2017,00,00*63
2017-11-16 17:31:05 1510871465.424293: $GPGGA,223104,3946.9572,N,08404.9835,W,2,11,0.80,304.10,M,-33.324,M,,*7D
2017-11-16 17:31:05 1510871465.424355: $GPRMC,223104,A,3946.9572,N,08404.9835,W,0.0000,0.000,161117,,*36
2017-11-16 17:31:05 1510871465.424410: $GPGSA,A,3,1,10,22,12,14,18,11,25,31,32,138,,1.6,0.8,1.3*3E
2017-11-16 17:31:06 1510871466.738194: $GPGSV,3,1,12,01,21,301,37,10,48,148,50,22,18,312,46,12,22,051,51*71
2017-11-16 17:31:06 1510871466.738456: $GPGSV,3,2,12,14,66,327,48,18,19,144,38,26,01,183,00,11,08,282,41*75
2017-11-16 17:31:06 1510871466.738519: $GPGSV,3,3,12,25,39,091,47,31,55,225,49,32,69,025,50,138,38,213,44*4B
2017-11-16 17:31:06 1510871466.851447: $GPZDA,223105.00,16,11,2017,00,00*62
2017-11-16 17:31:06 1510871466.851607: $GPGGA,223105,3946.9572,N,08404.9835,W,2,11,0.80,304.10,M,-33.324,M,,*7C
2017-11-16 17:31:06 1510871466.851665: $GPRMC,223105,A,3946.9572,N,08404.9835,W,0.0000,0.000,161117,,*37
2017-11-16 17:31:06 1510871466.851720: $GPGSA,A,3,1,10,22,12,14,18,11,25,31,32,138,,1.6,0.8,1.3*3E
2017-11-16 17:31:07 1510871467.402300: $GPZDA,223106.00,16,11,2017,00,00*61
2017-11-16 17:31:07 1510871467.402484: $GPGGA,223106,3946.9572,N,08404.9835,W,2,11,0.80,304.10,M,-33.324,M,,*7F
2017-11-16 17:31:07 1510871467.402545: $GPRMC,223106,A,3946.9572,N,08404.9835,W,0.0000,0.000,161117,,*34
2017-11-16 17:31:07 1510871467.402602: $GPGSA,A,3,1,10,22,12,14,18,11,25,31,32,138,,1.6,0.8,1.3*3E
2017-11-16 17:31:08 1510871468.395950: $GPZDA,223107.00,16,11,2017,00,00*60
2017-11-16 17:31:08 1510871468.400287: $GPGGA,223107,3946.9572,N,08404.9835,W,2,11,0.80,304.10,M,-33.324,M,,*7E
2017-11-16 17:31:08 1510871468.400392: $GPRMC,223107,A,3946.9572,N,08404.9835,W,0.0000,0.000,161117,,*35
2017-11-16 17:31:08 1510871468.400451: $GPGSA,A,3,1,10,22,12,14,18,11,25,31,32,138,,1.6,0.8,1.3*3E
