2017-11-16 15:33:26 1510864406.866574: {"class":"VERSION","release":"3.17","rev":"3.17","proto_major":3,"proto_minor":12}
2017-11-16 15:33:26 1510864406.867098: {"class":"DEVICES","devices":[{"class":"DEVICE","path":"/dev/ttyUSB0","driver":"SiRF","subtype":"9\u0006GSD4e_4.1.2-P1_RPATCH.05-F-GPS-4R-1510281 11/03/2015 307","activated":"2017-11-16T20:33:26.599Z","flags":1,"native":1,"bps":4800,"parity":"N","stopbits":1,"cycle":1.00}]}
2017-11-16 15:33:26 1510864406.867229: {"class":"WATCH","enable":true,"json":false,"nmea":true,"raw":0,"scaled":false,"timing":false,"split24":false,"pps":false}
2017-11-16 15:33:27 1510864407.358961: $GPZDA,203326.00,16,11,2017,00,00*63
2017-11-16 15:33:27 1510864407.359133: $GPGGA,203326,3946.9568,N,08404.9860,W,2,11,0.80,309.61,M,-33.324,M,,*7D
2017-11-16 15:33:27 1510864407.359194: $GPRMC,203326,A,3946.9568,N,08404.9860,W,0.0000,0.000,161117,,*3D
2017-11-16 15:33:27 1510864407.359252: $GPGSA,A,3,8,10,14,27,18,20,21,24,32,12,138,,1.6,0.8,1.3*30
2017-11-16 15:33:28 1510864408.719690: $GPGSV,3,1,12,08,05,291,31,10,72,336,50,14,31,256,44,15,09,067,28*7A
2017-11-16 15:33:28 1510864408.719857: $GPGSV,3,2,12,18,68,099,47,20,06,120,21,21,26,178,43,24,43,057,48*7A
2017-11-16 15:33:28 1510864408.719917: $GPGSV,3,3,12,25,05,139,04,32,48,268,48,12,11,105,32,138,38,213,44*4D
2017-11-16 15:33:28 1510864408.832994: $GPZDA,203327.00,16,11,2017,00,00*62
2017-11-16 15:33:28 1510864408.833156: $GPGGA,203327,3946.9568,N,08404.9860,W,2,11,0.80,309.61,M,-33.324,M,,*7C
2017-11-16 15:33:28 1510864408.833220: $GPRMC,203327,A,3946.9568,N,08404.9860,W,0.0000,0.000,161117,,*3C
2017-11-16 15:33:28 1510864408.833276: $GPGSA,A,3,8,10,14,15,18,20,21,24,32,12,138,,1.6,0.8,1.3*31
2017-11-16 15:33:29 1510864409.366356: $GPZDA,203328.00,16,11,2017,00,00*6D
2017-11-16 15:33:29 1510864409.366520: $GPGGA,203328,3946.9568,N,08404.9860,W,2,11,0.80,309.61,M,-33.324,M,,*73
2017-11-16 15:33:29 1510864409.366583: $GPRMC,203328,A,3946.9568,N,08404.9860,W,0.0000,0.000,161117,,*33
2017-11-16 15:33:29 1510864409.366640: $GPGSA,A,3,8,10,14,15,18,20,21,24,32,12,138,,1.6,0.8,1.3*31
2017-11-16 15:33:30 1510864410.382875: $GPZDA,203329.00,16,11,2017,00,00*6C
2017-11-16 15:33:30 1510864410.382983: $GPGGA,203329,3946.9568,N,08404.9860,W,2,11,0.80,309.61,M,-33.324,M,,*72
2017-11-16 15:33:30 1510864410.383013: $GPRMC,203329,A,3946.9568,N,08404.9860,W,0.0000,0.000,161117,,*32
2017-11-16 15:33:30 1510864410.383041: $GPGSA,A,3,8,10,14,15,18,20,21,24,32,12,138,,1.6,0.8,1.3*31
2017-11-16 15:33:31 1510864411.703768: $GPGSV,3,1,12,08,05,291,31,10,72,336,50,14,31,256,44,15,09,067,28*7A
2017-11-16 15:33:31 1510864411.703950: $GPGSV,3,2,12,18,68,099,47,20,06,120,22,21,26,178,44,24,43,057,48*7E
2017-11-16 15:33:31 1510864411.704012: $GPGSV,3,3,12,25,05,139,06,32,48,268,48,12,11,105,32,138,38,213,43*48
2017-11-16 15:33:31 1510864411.817070: $GPZDA,203330.00,16,11,2017,00,00*64
2017-11-16 15:33:31 1510864411.817227: $GPGGA,203330,3946.9568,N,08404.9860,W,2,12,0.80,309.61,M,-33.324,M,,*79
2017-11-16 15:33:31 1510864411.817289: $GPRMC,203330,A,3946.9568,N,08404.9860,W,0.0000,0.000,161117,,*3A
2017-11-16 15:33:31 1510864411.817344: $GPGSA,A,3,8,10,14,15,18,20,21,24,25,32,12,138,1.6,0.8,1.3*36
2017-11-16 15:33:32 1510864412.368545: $GPZDA,203331.00,16,11,2017,00,00*65
2017-11-16 15:33:32 1510864412.368653: $GPGGA,203331,3946.9568,N,08404.9860,W,2,12,1.00,309.61,M,-33.324,M,,*71
2017-11-16 15:33:32 1510864412.368684: $GPRMC,203331,A,3946.9568,N,08404.9860,W,0.0000,0.000,161117,,*3B
2017-11-16 15:33:32 1510864412.368712: $GPGSA,A,3,8,10,14,15,18,20,21,24,25,32,12,138,1.6,1.0,1.3*3F
2017-11-16 15:33:33 1510864413.381938: $GPZDA,203332.00,16,11,2017,00,00*66
2017-11-16 15:33:33 1510864413.382056: $GPGGA,203332,3946.9568,N,08404.9860,W,2,12,0.80,309.61,M,-33.324,M,,*7B
2017-11-16 15:33:33 1510864413.382087: $GPRMC,203332,A,3946.9568,N,08404.9860,W,0.0000,0.000,161117,,*38
2017-11-16 15:33:33 1510864413.382116: $GPGSA,A,3,8,10,14,15,18,20,21,24,25,32,12,138,1.6,0.8,1.3*36
2017-11-16 15:33:34 1510864414.707201: $GPGSV,3,1,12,08,05,291,31,10,72,336,50,14,31,256,44,15,09,067,00*70
2017-11-16 15:33:34 1510864414.707437: $GPGSV,3,2,12,18,68,099,47,20,06,120,05,21,26,178,44,24,43,057,48*7B
2017-11-16 15:33:34 1510864414.707501: $GPGSV,3,3,12,25,05,139,17,32,48,268,48,12,11,105,31,138,38,213,44*4C
2017-11-16 15:33:34 1510864414.820546: $GPZDA,203333.00,16,11,2017,00,00*67
2017-11-16 15:33:34 1510864414.820787: $GPGGA,203333,3946.9568,N,08404.9860,W,2,10,1.00,309.61,M,-33.324,M,,*71
2017-11-16 15:33:34 1510864414.820850: $GPRMC,203333,A,3946.9568,N,08404.9860,W,0.0000,0.000,161117,,*39
2017-11-16 15:33:34 1510864414.820906: $GPGSA,A,3,8,10,14,18,21,24,25,32,12,138,,,1.6,1.0,1.3*39
2017-11-16 15:33:35 1510864415.366307: $GPZDA,203334.00,16,11,2017,00,00*60
2017-11-16 15:33:35 1510864415.366477: $GPGGA,203334,3946.9568,N,08404.9860,W,2,10,0.80,309.61,M,-33.324,M,,*7F
2017-11-16 15:33:35 1510864415.366538: $GPRMC,203334,A,3946.9568,N,08404.9860,W,0.0000,0.000,161117,,*3E
2017-11-16 15:33:35 1510864415.366594: $GPGSA,A,3,8,10,14,18,21,24,25,32,12,138,,,1.6,0.8,1.3*30
2017-11-16 15:33:36 1510864416.366689: $GPZDA,203335.00,16,11,2017,00,00*61
2017-11-16 15:33:36 1510864416.366885: $GPGGA,203335,3946.9568,N,08404.9860,W,2,10,0.80,309.61,M,-33.324,M,,*7E
2017-11-16 15:33:36 1510864416.366969: $GPRMC,203335,A,3946.9568,N,08404.9860,W,0.0000,0.000,161117,,*3F
2017-11-16 15:33:36 1510864416.367028: $GPGSA,A,3,8,10,14,18,21,24,25,32,12,138,,,1.6,0.8,1.3*30
