2017-11-16 15:22:14 1510863734.575669: {"class":"VERSION","release":"3.17","rev":"3.17","proto_major":3,"proto_minor":12}
2017-11-16 15:22:14 1510863734.583666: {"class":"DEVICES","devices":[{"class":"DEVICE","path":"/dev/ttyUSB0","driver":"SiRF","subtype":"9\u0006GSD4e_4.1.2-P1_RPATCH.05-F-GPS-4R-1510281 11/03/2015 307","activated":"2017-11-16T20:22:14.506Z","flags":1,"native":1,"bps":4800,"parity":"N","stopbits":1,"cycle":1.00}]}
2017-11-16 15:22:14 1510863734.583837: {"class":"WATCH","enable":true,"json":false,"nmea":true,"raw":0,"scaled":false,"timing":false,"split24":false,"pps":false}
2017-11-16 15:22:15 1510863735.371294: $GPZDA,202214.00,16,11,2017,00,00*62
2017-11-16 15:22:15 1510863735.371458: $GPGGA,202214,3946.9576,N,08404.9865,W,2,11,0.80,308.00,M,-33.324,M,,*70
2017-11-16 15:22:15 1510863735.371519: $GPRMC,202214,A,3946.9576,N,08404.9865,W,0.0000,0.000,161117,,*36
2017-11-16 15:22:15 1510863735.371575: $GPGSA,A,3,8,10,14,15,18,21,24,27,32,12,138,,1.6,0.8,1.3*36
2017-11-16 15:22:16 1510863736.707536: $GPGSV,3,1,12,08,06,294,39,10,68,330,50,14,28,252,46,15,12,066,35*70
2017-11-16 15:22:16 1510863736.707645: $GPGSV,3,2,12,18,71,090,47,20,09,117,04,21,30,180,45,24,46,060,50*79
2017-11-16 15:22:16 1510863736.707675: $GPGSV,3,3,12,27,07,261,40,32,45,264,48,12,08,108,32,138,38,213,45*46
2017-11-16 15:22:16 1510863736.820524: $GPZDA,202215.00,16,11,2017,00,00*63
2017-11-16 15:22:16 1510863736.820628: $GPGGA,202215,3946.9575,N,08404.9858,W,2,11,0.80,308.08,M,-33.324,M,,*74
2017-11-16 15:22:16 1510863736.820658: $GPRMC,202215,A,3946.9575,N,08404.9858,W,0.0000,0.000,161117,,*3A
2017-11-16 15:22:16 1510863736.820686: $GPGSA,A,3,8,10,14,15,18,21,24,27,32,12,138,,1.6,0.8,1.3*36
2017-11-16 15:22:17 1510863737.371283: $GPZDA,202216.00,16,11,2017,00,00*60
2017-11-16 15:22:17 1510863737.371387: $GPGGA,202216,3946.9575,N,08404.9858,W,2,11,0.80,308.08,M,-33.324,M,,*77
2017-11-16 15:22:17 1510863737.371418: $GPRMC,202216,A,3946.9575,N,08404.9858,W,0.0000,0.000,161117,,*39
2017-11-16 15:22:17 1510863737.371446: $GPGSA,A,3,8,10,14,15,18,21,24,27,32,12,138,,1.6,0.8,1.3*36
2017-11-16 15:22:18 1510863738.369632: $GPZDA,202217.00,16,11,2017,00,00*61
2017-11-16 15:22:18 1510863738.369742: $GPGGA,202217,3946.9575,N,08404.9858,W,2,11,0.80,308.08,M,-33.324,M,,*76
2017-11-16 15:22:18 1510863738.369773: $GPRMC,202217,A,3946.9575,N,08404.9858,W,0.0000,0.000,161117,,*38
2017-11-16 15:22:18 1510863738.369801: $GPGSA,A,3,8,10,14,15,18,21,24,27,32,12,138,,1.6,0.8,1.3*36
2017-11-16 15:22:19 1510863739.723461: $GPGSV,3,1,12,08,06,294,39,10,68,330,51,14,28,252,46,15,12,066,35*71
2017-11-16 15:22:19 1510863739.723568: $GPGSV,3,2,12,18,71,090,47,20,09,117,16,21,30,180,45,24,46,060,50*7A
2017-11-16 15:22:19 1510863739.723599: $GPGSV,3,3,12,27,07,261,40,32,45,264,48,12,08,108,31,138,38,213,44*44
2017-11-16 15:22:19 1510863739.836231: $GPZDA,202218.00,16,11,2017,00,00*6E
2017-11-16 15:22:19 1510863739.836332: $GPGGA,202218,3946.9575,N,08404.9858,W,2,12,0.80,308.08,M,-33.324,M,,*7A
2017-11-16 15:22:19 1510863739.836362: $GPRMC,202218,A,3946.9575,N,08404.9858,W,0.0000,0.000,161117,,*37
2017-11-16 15:22:19 1510863739.836390: $GPGSA,A,3,8,10,14,15,18,20,21,24,27,32,12,138,1.6,0.8,1.3*34
2017-11-16 15:22:20 1510863740.364591: $GPZDA,202219.00,16,11,2017,00,00*6F
2017-11-16 15:22:20 1510863740.364695: $GPGGA,202219,3946.9575,N,08404.9858,W,2,12,0.80,308.08,M,-33.324,M,,*7B
2017-11-16 15:22:20 1510863740.364726: $GPRMC,202219,A,3946.9575,N,08404.9858,W,0.0000,0.000,161117,,*36
2017-11-16 15:22:20 1510863740.364753: $GPGSA,A,3,8,10,14,15,18,20,21,24,27,32,12,138,1.6,0.8,1.3*34
2017-11-16 15:22:21 1510863741.381202: $GPZDA,202220.00,16,11,2017,00,00*65
2017-11-16 15:22:21 1510863741.381323: $GPGGA,202220,3946.9575,N,08404.9858,W,2,12,0.80,308.08,M,-33.324,M,,*71
2017-11-16 15:22:21 1510863741.381354: $GPRMC,202220,A,3946.9575,N,08404.9858,W,0.0000,0.000,161117,,*3C
2017-11-16 15:22:21 1510863741.381382: $GPGSA,A,3,8,10,14,15,18,20,21,24,27,32,12,138,1.6,0.8,1.3*34
2017-11-16 15:22:22 1510863742.706124: $GPGSV,3,1,12,08,06,294,37,10,68,330,50,14,28,252,47,15,12,066,35*7F
2017-11-16 15:22:22 1510863742.706278: $GPGSV,3,2,12,18,71,090,48,20,09,117,16,21,30,180,44,24,46,060,50*74
2017-11-16 15:22:22 1510863742.706310: $GPGSV,3,3,12,27,07,261,40,32,45,264,48,12,08,108,27,138,38,213,44*43
2017-11-16 15:22:22 1510863742.819201: $GPZDA,202221.00,16,11,2017,00,00*64
2017-11-16 15:22:22 1510863742.819335: $GPGGA,202221,3946.9575,N,08404.9858,W,2,12,0.80,308.08,M,-33.324,M,,*70
2017-11-16 15:22:22 1510863742.819378: $GPRMC,202221,A,3946.9575,N,08404.9858,W,0.0000,0.000,161117,,*3D
2017-11-16 15:22:22 1510863742.819408: $GPGSA,A,3,8,10,14,15,18,20,21,24,27,32,12,138,1.6,0.8,1.3*34
2017-11-16 15:22:23 1510863743.386153: $GPZDA,202222.00,16,11,2017,00,00*67
2017-11-16 15:22:23 1510863743.386264: $GPGGA,202222,3946.9575,N,08404.9858,W,2,12,0.80,308.08,M,-33.324,M,,*73
2017-11-16 15:22:23 1510863743.386295: $GPRMC,202222,A,3946.9575,N,08404.9858,W,0.0000,0.000,161117,,*3E
2017-11-16 15:22:23 1510863743.386323: $GPGSA,A,3,8,10,14,15,18,20,21,24,27,32,12,138,1.6,0.8,1.3*34
2017-11-16 15:22:24 1510863744.390015: $GPZDA,202223.00,16,11,2017,00,00*66
2017-11-16 15:22:24 1510863744.390162: $GPGGA,202223,3946.9575,N,08404.9858,W,2,12,0.80,308.08,M,-33.324,M,,*72
2017-11-16 15:22:24 1510863744.390195: $GPRMC,202223,A,3946.9575,N,08404.9858,W,0.0000,0.000,161117,,*3F
2017-11-16 15:22:24 1510863744.390224: $GPGSA,A,3,8,10,14,15,18,20,21,24,27,32,12,138,1.6,0.8,1.3*34
