2017-11-15 19:50:57 1510793457.752201: {"class":"VERSION","release":"3.17","rev":"3.17","proto_major":3,"proto_minor":12}
2017-11-15 19:50:57 1510793457.752681: {"class":"DEVICES","devices":[{"class":"DEVICE","path":"/dev/ttyUSB0","driver":"SiRF","subtype":"9\u0006GSD4e_4.1.2-P1_RPATCH.05-F-GPS-4R-1510281 11/03/2015 307","activated":"2017-11-16T00:50:57.682Z","flags":1,"native":1,"bps":4800,"parity":"N","stopbits":1,"cycle":1.00}]}
2017-11-15 19:50:57 1510793457.752799: {"class":"WATCH","enable":true,"json":false,"nmea":true,"raw":0,"scaled":false,"timing":false,"split24":false,"pps":false}
2017-11-15 19:50:57 1510793457.795476: $GPZDA,005056.00,16,11,2017,00,00*63
2017-11-15 19:50:57 1510793457.795607: $GPGGA,005056,3946.9520,N,08404.9499,W,1,08,1.00,299.98,M,-33.324,M,,*77
2017-11-15 19:50:57 1510793457.795667: $GPRMC,005056,A,3946.9520,N,08404.9499,W,0.4179,328.778,161117,,*31
2017-11-15 19:50:57 1510793457.795723: $GPGSA,A,3,32,16,31,26,14,22,23,3,,,,,3.4,1.0,2.9*08
2017-11-15 19:50:58 1510793458.346257: $GPZDA,005057.00,16,11,2017,00,00*62
2017-11-15 19:50:58 1510793458.346420: $GPGGA,005057,3946.9520,N,08404.9499,W,1,08,1.00,299.98,M,-33.324,M,,*76
2017-11-15 19:50:58 1510793458.346480: $GPRMC,005057,A,3946.9520,N,08404.9499,W,0.3423,184.197,161117,,*3E
2017-11-15 19:50:58 1510793458.346537: $GPGSA,A,3,32,16,31,26,14,22,23,3,,,,,3.4,1.0,2.9*08
2017-11-15 19:50:59 1510793459.329724: $GPZDA,005058.00,16,11,2017,00,00*6D
2017-11-15 19:50:59 1510793459.329900: $GPGGA,005058,3946.9516,N,08404.9499,W,1,08,1.00,299.34,M,-33.324,M,,*7A
2017-11-15 19:50:59 1510793459.329962: $GPRMC,005058,A,3946.9516,N,08404.9499,W,0.5951,238.684,161117,,*3B
2017-11-15 19:50:59 1510793459.330020: $GPGSA,A,3,32,16,31,26,14,22,23,3,,,,,3.4,1.0,2.9*08
2017-11-15 19:51:00 1510793460.665309: $GPGSV,3,1,10,32,28,115,19,16,33,190,16,31,59,039,25,26,64,166,28*7A
2017-11-15 19:51:00 1510793460.665472: $GPGSV,3,2,10,14,47,105,23,22,49,255,21,29,13,061,00,23,19,304,18*7F
2017-11-15 19:51:00 1510793460.665535: $GPGSV,3,3,10,03,44,288,16,25,09,037,00*74
2017-11-15 19:51:00 1510793460.778642: $GPZDA,005059.00,16,11,2017,00,00*6C
2017-11-15 19:51:00 1510793460.778817: $GPGGA,005059,3946.9516,N,08404.9506,W,1,08,1.00,299.26,M,-33.324,M,,*7F
2017-11-15 19:51:00 1510793460.778879: $GPRMC,005059,A,3946.9516,N,08404.9506,W,1.0018,230.691,161117,,*31
2017-11-15 19:51:00 1510793460.778935: $GPGSA,A,3,32,16,31,26,14,22,23,3,,,,,3.4,1.0,2.9*08
2017-11-15 19:51:01 1510793461.404000: $GPZDA,005100.00,16,11,2017,00,00*61
2017-11-15 19:51:01 1510793461.404181: $GPGGA,005100,3946.9512,N,08404.9506,W,1,08,1.00,298.62,M,-33.324,M,,*77
2017-11-15 19:51:01 1510793461.404245: $GPRMC,005100,A,3946.9512,N,08404.9506,W,0.8054,248.645,161117,,*3F
2017-11-15 19:51:01 1510793461.404302: $GPGSA,A,3,32,16,31,26,14,22,23,3,,,,,3.4,1.0,2.9*08
2017-11-15 19:51:02 1510793462.329872: $GPZDA,005101.00,16,11,2017,00,00*60
2017-11-15 19:51:02 1510793462.867590: $GPGGA,005101,3946.9513,N,08404.9513,W,1,08,1.00,298.54,M,-33.324,M,,*76
2017-11-15 19:51:02 1510793462.867772: $GPRMC,005101,A,3946.9513,N,08404.9513,W,0.5306,294.352,161117,,*30
2017-11-15 19:51:02 1510793462.867833: $GPGSA,A,3,32,16,31,26,14,22,23,3,,,,,3.4,1.0,2.9*08
2017-11-15 19:51:03 1510793463.681920: $GPGSV,3,1,10,32,28,115,19,16,33,190,16,31,59,039,25,26,64,166,28*7A
2017-11-15 19:51:03 1510793463.682094: $GPGSV,3,2,10,14,47,105,24,22,49,255,20,29,13,061,00,23,19,304,17*76
2017-11-15 19:51:03 1510793463.682157: $GPGSV,3,3,10,03,44,288,16,25,09,037,00*74
2017-11-15 19:51:03 1510793463.795497: $GPZDA,005102.00,16,11,2017,00,00*63
2017-11-15 19:51:03 1510793463.795650: $GPGGA,005102,3946.9513,N,08404.9513,W,1,08,1.00,298.54,M,-33.324,M,,*75
2017-11-15 19:51:03 1510793463.795712: $GPRMC,005102,A,3946.9513,N,08404.9513,W,0.8359,328.778,161117,,*3E
2017-11-15 19:51:03 1510793463.795768: $GPGSA,A,3,32,16,31,26,14,22,23,3,,,,,3.4,1.0,2.9*08
2017-11-15 19:51:04 1510793464.329951: $GPZDA,005103.00,16,11,2017,00,00*62
2017-11-15 19:51:04 1510793464.330118: $GPGGA,005103,3946.9521,N,08404.9520,W,1,08,1.00,298.34,M,-33.324,M,,*73
2017-11-15 19:51:04 1510793464.330256: $GPRMC,005103,A,3946.9521,N,08404.9520,W,1.1391,323.662,161117,,*33
2017-11-15 19:51:04 1510793464.330314: $GPGSA,A,3,32,16,31,26,14,22,23,3,,,,,3.4,1.0,2.9*08
2017-11-15 19:51:05 1510793465.329501: $GPZDA,005104.00,16,11,2017,00,00*65
2017-11-15 19:51:05 1510793465.329671: $GPGGA,005104,3946.9521,N,08404.9526,W,1,08,1.00,298.26,M,-33.324,M,,*71
2017-11-15 19:51:05 1510793465.329734: $GPRMC,005104,A,3946.9521,N,08404.9526,W,1.7178,318.722,161117,,*3C
2017-11-15 19:51:05 1510793465.329790: $GPGSA,A,3,32,16,31,26,14,22,23,3,,,,,3.4,1.0,2.9*08
2017-11-15 19:51:06 1510793466.682387: $GPGSV,3,1,10,32,28,115,19,16,33,190,17,31,59,039,25,26,64,166,28*7B
2017-11-15 19:51:06 1510793466.682552: $GPGSV,3,2,10,14,47,105,24,22,49,255,20,29,13,061,00,23,19,304,17*76
2017-11-15 19:51:06 1510793466.682614: $GPGSV,3,3,10,03,44,288,15,25,09,037,00*77
2017-11-15 19:51:06 1510793466.795713: $GPZDA,005105.00,16,11,2017,00,00*64
2017-11-15 19:51:06 1510793466.795876: $GPGGA,005105,3946.9521,N,08404.9526,W,1,08,1.00,298.26,M,-33.324,M,,*70
2017-11-15 19:51:06 1510793466.795937: $GPRMC,005105,A,3946.9521,N,08404.9526,W,1.1124,302.165,161117,,*3C
2017-11-15 19:51:06 1510793466.795994: $GPGSA,A,3,32,16,31,26,14,22,23,3,,,,,3.4,1.0,2.9*08
2017-11-15 19:51:07 1510793467.346514: $GPZDA,005106.00,16,11,2017,00,00*67
2017-11-15 19:51:07 1510793467.346678: $GPGGA,005106,3946.9521,N,08404.9533,W,1,08,1.00,298.18,M,-33.324,M,,*7A
2017-11-15 19:51:07 1510793467.346792: $GPRMC,005106,A,3946.9521,N,08404.9533,W,0.9689,273.794,161117,,*3D
2017-11-15 19:51:07 1510793467.346849: $GPGSA,A,3,32,16,31,26,14,22,23,3,,,,,3.4,1.0,2.9*08
