2017-11-16 16:51:25 1510869085.990497: {"class":"VERSION","release":"3.17","rev":"3.17","proto_major":3,"proto_minor":12}
2017-11-16 16:51:25 1510869085.990948: {"class":"DEVICES","devices":[{"class":"DEVICE","path":"/dev/ttyUSB0","driver":"SiRF","subtype":"9\u0006GSD4e_4.1.2-P1_RPATCH.05-F-GPS-4R-1510281 11/03/2015 307","activated":"2017-11-16T21:51:25.761Z","flags":1,"native":1,"bps":4800,"parity":"N","stopbits":1,"cycle":1.00}]}
2017-11-16 16:51:25 1510869085.991066: {"class":"WATCH","enable":true,"json":false,"nmea":true,"raw":0,"scaled":false,"timing":false,"split24":false,"pps":false}
2017-11-16 16:51:26 1510869086.775946: $GPGSV,3,1,12,01,14,318,26,10,68,133,48,11,11,300,30,12,25,070,48*7F
2017-11-16 16:51:26 1510869086.776140: $GPGSV,3,2,12,14,56,294,46,18,36,136,42,24,13,045,39,25,30,112,41*72
2017-11-16 16:51:26 1510869086.776204: $GPGSV,3,3,12,31,35,213,47,32,68,331,50,22,03,310,00,138,38,213,44*46
2017-11-16 16:51:26 1510869086.888924: $GPZDA,215125.00,16,11,2017,00,00*65
2017-11-16 16:51:26 1510869086.889086: $GPGGA,215125,3946.9585,N,08404.9829,W,2,11,0.80,307.50,M,-33.324,M,,*79
2017-11-16 16:51:26 1510869086.889148: $GPRMC,215125,A,3946.9585,N,08404.9829,W,0.0000,0.000,161117,,*35
2017-11-16 16:51:26 1510869086.889204: $GPGSA,A,3,1,10,11,12,14,18,24,25,31,32,138,,1.6,0.8,1.3*38
2017-11-16 16:51:27 1510869087.441074: $GPZDA,215126.00,16,11,2017,00,00*66
2017-11-16 16:51:27 1510869087.441243: $GPGGA,215126,3946.9585,N,08404.9829,W,2,11,0.80,307.50,M,-33.324,M,,*7A
2017-11-16 16:51:27 1510869087.441309: $GPRMC,215126,A,3946.9585,N,08404.9829,W,0.0000,0.000,161117,,*36
2017-11-16 16:51:27 1510869087.441367: $GPGSA,A,3,1,10,11,12,14,18,24,25,31,32,138,,1.6,0.8,1.3*38
2017-11-16 16:51:28 1510869088.445692: $GPZDA,215127.00,16,11,2017,00,00*67
2017-11-16 16:51:28 1510869088.445852: $GPGGA,215127,3946.9585,N,08404.9829,W,2,11,0.80,307.50,M,-33.324,M,,*7B
2017-11-16 16:51:28 1510869088.445930: $GPRMC,215127,A,3946.9585,N,08404.9829,W,0.0000,0.000,161117,,*37
2017-11-16 16:51:28 1510869088.445987: $GPGSA,A,3,1,10,11,12,14,18,24,25,31,32,138,,1.6,0.8,1.3*38
2017-11-16 16:51:29 1510869089.780522: $GPGSV,3,1,12,01,14,318,27,10,68,133,48,11,11,300,37,12,25,070,48*79
2017-11-16 16:51:29 1510869089.780759: $GPGSV,3,2,12,14,56,294,46,18,36,136,41,24,13,045,40,25,30,112,41*7F
2017-11-16 16:51:29 1510869089.780825: $GPGSV,3,3,12,31,35,213,47,32,68,331,51,22,03,310,25,138,38,213,44*40
2017-11-16 16:51:29 1510869089.893455: $GPZDA,215128.00,16,11,2017,00,00*68
2017-11-16 16:51:29 1510869089.893622: $GPGGA,215128,3946.9585,N,08404.9829,W,2,12,0.80,307.50,M,-33.324,M,,*77
2017-11-16 16:51:29 1510869089.893682: $GPRMC,215128,A,3946.9585,N,08404.9829,W,0.0000,0.000,161117,,*38
2017-11-16 16:51:29 1510869089.893738: $GPGSA,A,3,1,10,11,12,14,18,24,25,31,32,22,138,1.6,0.8,1.3*38
2017-11-16 16:51:30 1510869090.445624: $GPZDA,215129.00,16,11,2017,00,00*69
2017-11-16 16:51:30 1510869090.445781: $GPGGA,215129,3946.9585,N,08404.9829,W,2,12,0.80,307.50,M,-33.324,M,,*76
2017-11-16 16:51:30 1510869090.445841: $GPRMC,215129,A,3946.9585,N,08404.9829,W,0.0000,0.000,161117,,*39
2017-11-16 16:51:30 1510869090.445897: $GPGSA,A,3,1,10,11,12,14,18,24,25,31,32,22,138,1.6,0.8,1.3*38
2017-11-16 16:51:31 1510869091.446299: $GPZDA,215130.00,16,11,2017,00,00*61
2017-11-16 16:51:31 1510869091.446469: $GPGGA,215130,3946.9585,N,08404.9829,W,2,12,0.80,307.50,M,-33.324,M,,*7E
2017-11-16 16:51:31 1510869091.446534: $GPRMC,215130,A,3946.9585,N,08404.9829,W,0.0000,0.000,161117,,*31
2017-11-16 16:51:31 1510869091.446590: $GPGSA,A,3,1,10,11,12,14,18,24,25,31,32,22,138,1.6,0.8,1.3*38
2017-11-16 16:51:32 1510869092.775475: $GPGSV,3,1,12,01,14,318,32,10,68,133,48,11,11,300,37,12,25,070,48*7D
2017-11-16 16:51:32 1510869092.775619: $GPGSV,3,2,12,14,56,294,46,18,36,136,41,24,13,045,40,25,30,112,41*7F
2017-11-16 16:51:32 1510869092.775679: $GPGSV,3,3,12,31,35,213,47,32,68,331,51,22,03,310,00,138,38,213,44*47
2017-11-16 16:51:32 1510869092.890083: $GPZDA,215131.00,16,11,2017,00,00*60
2017-11-16 16:51:32 1510869092.890250: $GPGGA,215131,3946.9585,N,08404.9829,W,2,11,0.80,307.50,M,-33.324,M,,*7C
2017-11-16 16:51:32 1510869092.890361: $GPRMC,215131,A,3946.9585,N,08404.9829,W,0.0000,0.000,161117,,*30
2017-11-16 16:51:32 1510869092.890418: $GPGSA,A,3,1,10,11,12,14,18,24,25,31,32,138,,1.6,0.8,1.3*38
2017-11-16 16:51:33 1510869093.438481: $GPZDA,215132.00,16,11,2017,00,00*63
2017-11-16 16:51:33 1510869093.438643: $GPGGA,215132,3946.9585,N,08404.9829,W,2,11,0.80,307.50,M,-33.324,M,,*7F
2017-11-16 16:51:33 1510869093.438704: $GPRMC,215132,A,3946.9585,N,08404.9829,W,0.0000,0.000,161117,,*33
2017-11-16 16:51:33 1510869093.438759: $GPGSA,A,3,1,10,11,12,14,18,24,25,31,32,138,,1.6,0.8,1.3*38
2017-11-16 16:51:34 1510869094.444434: $GPZDA,215133.00,16,11,2017,00,00*62
2017-11-16 16:51:34 1510869094.444618: $GPGGA,215133,3946.9585,N,08404.9829,W,2,11,0.80,307.50,M,-33.324,M,,*7E
2017-11-16 16:51:34 1510869094.444680: $GPRMC,215133,A,3946.9585,N,08404.9829,W,0.0000,0.000,161117,,*32
2017-11-16 16:51:34 1510869094.444737: $GPGSA,A,3,1,10,11,12,14,18,24,25,31,32,138,,1.6,0.8,1.3*38
2017-11-16 16:51:35 1510869095.782557: $GPGSV,3,1,12,01,14,318,36,10,68,133,48,11,11,300,37,12,25,070,48*79
2017-11-16 16:51:35 1510869095.782717: $GPGSV,3,2,12,14,56,294,46,18,36,136,41,24,13,045,40,25,30,112,41*7F
2017-11-16 16:51:35 1510869095.782776: $GPGSV,3,3,12,31,35,213,47,32,68,331,51,22,03,310,00,138,38,213,44*47
2017-11-16 16:51:35 1510869095.894673: $GPZDA,215134.00,16,11,2017,00,00*65
2017-11-16 16:51:35 1510869095.894821: $GPGGA,215134,3946.9585,N,08404.9829,W,2,11,0.80,307.50,M,-33.324,M,,*79
2017-11-16 16:51:35 1510869095.894880: $GPRMC,215134,A,3946.9585,N,08404.9829,W,0.0000,0.000,161117,,*35
2017-11-16 16:51:35 1510869095.894935: $GPGSA,A,3,1,10,11,12,14,18,24,25,31,32,138,,1.6,0.8,1.3*38
