2017-11-16 14:19:14 1510859954.746766: {"class":"VERSION","release":"3.17","rev":"3.17","proto_major":3,"proto_minor":12}
2017-11-16 14:19:14 1510859954.747266: {"class":"DEVICES","devices":[{"class":"DEVICE","path":"/dev/ttyUSB0","driver":"SiRF","subtype":"9\u0006GSD4e_4.1.2-P1_RPATCH.05-F-GPS-4R-1510281 11/03/2015 307","activated":"2017-11-16T19:19:14.638Z","flags":1,"native":1,"bps":4800,"parity":"N","stopbits":1,"cycle":1.00}]}
2017-11-16 14:19:14 1510859954.747382: {"class":"WATCH","enable":true,"json":false,"nmea":true,"raw":0,"scaled":false,"timing":false,"split24":false,"pps":false}
2017-11-16 14:19:15 1510859955.838961: $GPGSV,3,1,12,08,07,319,41,10,43,303,44,13,06,049,23,15,35,052,50*77
2017-11-16 14:19:15 1510859955.839136: $GPGSV,3,2,12,18,72,342,46,21,61,189,46,20,31,097,45,24,52,106,49*72
2017-11-16 14:19:15 1510859955.839195: $GPGSV,3,3,12,27,19,286,38,32,22,240,45,14,06,234,31,138,38,213,45*42
2017-11-16 14:19:15 1510859955.952285: $GPZDA,191914.00,16,11,2017,00,00*60
2017-11-16 14:19:15 1510859955.952447: $GPGGA,191914,3946.9562,N,08404.9851,W,2,12,0.80,304.83,M,-33.324,M,,*74
2017-11-16 14:19:15 1510859955.952509: $GPRMC,191914,A,3946.9562,N,08404.9851,W,0.0000,0.000,161117,,*36
2017-11-16 14:19:15 1510859955.952565: $GPGSA,A,3,8,10,13,15,18,21,20,24,27,32,14,138,1.6,0.8,1.3*35
2017-11-16 14:19:16 1510859956.534428: $GPZDA,191915.00,16,11,2017,00,00*61
2017-11-16 14:19:16 1510859956.534590: $GPGGA,191915,3946.9562,N,08404.9851,W,2,12,0.80,304.83,M,-33.324,M,,*75
2017-11-16 14:19:16 1510859956.534652: $GPRMC,191915,A,3946.9562,N,08404.9851,W,0.0000,0.000,161117,,*37
2017-11-16 14:19:16 1510859956.534707: $GPGSA,A,3,8,10,13,15,18,21,20,24,27,32,14,138,1.6,0.8,1.3*35
2017-11-16 14:19:17 1510859957.535263: $GPZDA,191916.00,16,11,2017,00,00*62
2017-11-16 14:19:17 1510859957.535423: $GPGGA,191916,3946.9562,N,08404.9851,W,2,12,0.80,304.83,M,-33.324,M,,*76
2017-11-16 14:19:17 1510859957.535485: $GPRMC,191916,A,3946.9562,N,08404.9851,W,0.0000,0.000,161117,,*34
2017-11-16 14:19:17 1510859957.535541: $GPGSA,A,3,8,10,13,15,18,21,20,24,27,32,14,138,1.6,0.8,1.3*35
2017-11-16 14:19:18 1510859958.866033: $GPGSV,3,1,12,08,07,319,40,10,43,303,44,13,06,049,23,15,35,052,50*76
2017-11-16 14:19:18 1510859958.866230: $GPGSV,3,2,12,18,72,342,46,21,61,189,47,20,31,097,46,24,52,106,49*70
2017-11-16 14:19:18 1510859958.866311: $GPGSV,3,3,12,27,19,286,38,32,22,240,45,14,06,234,30,138,38,213,45*43
2017-11-16 14:19:18 1510859958.979504: $GPZDA,191917.00,16,11,2017,00,00*63
2017-11-16 14:19:18 1510859958.979703: $GPGGA,191917,3946.9562,N,08404.9851,W,2,12,0.80,304.83,M,-33.324,M,,*77
2017-11-16 14:19:18 1510859958.979788: $GPRMC,191917,A,3946.9562,N,08404.9851,W,0.0000,0.000,161117,,*35
2017-11-16 14:19:18 1510859958.979870: $GPGSA,A,3,8,10,13,15,18,21,20,24,27,32,14,138,1.6,0.8,1.3*35
2017-11-16 14:19:19 1510859959.604850: $GPZDA,191918.00,16,11,2017,00,00*6C
2017-11-16 14:19:19 1510859959.605043: $GPGGA,191918,3946.9562,N,08404.9858,W,2,12,0.80,304.75,M,-33.324,M,,*78
2017-11-16 14:19:19 1510859959.605104: $GPRMC,191918,A,3946.9562,N,08404.9858,W,0.0000,0.000,161117,,*33
2017-11-16 14:19:19 1510859959.605162: $GPGSA,A,3,8,10,13,15,18,21,20,24,27,32,14,138,1.6,0.8,1.3*35
2017-11-16 14:19:20 1510859960.498037: $GPZDA,191919.00,16,11,2017,00,00*6D
2017-11-16 14:19:20 1510859960.498199: $GPGGA,191919,3946.9562,N,08404.9858,W,2,12,0.80,304.75,M,-33.324,M,,*79
2017-11-16 14:19:20 1510859960.498260: $GPRMC,191919,A,3946.9562,N,08404.9858,W,0.0000,0.000,161117,,*32
2017-11-16 14:19:20 1510859960.498316: $GPGSA,A,3,8,10,13,15,18,21,20,24,27,32,14,138,1.6,0.8,1.3*35
2017-11-16 14:19:21 1510859961.840056: $GPGSV,3,1,12,08,07,319,36,10,43,303,43,13,06,049,23,15,35,052,50*70
2017-11-16 14:19:21 1510859961.840226: $GPGSV,3,2,12,18,72,342,46,21,61,189,47,20,31,097,46,24,52,106,49*70
2017-11-16 14:19:21 1510859961.840331: $GPGSV,3,3,12,27,19,286,39,32,22,240,45,14,06,234,00,138,38,213,44*40
2017-11-16 14:19:21 1510859961.952192: $GPZDA,191920.00,16,11,2017,00,00*67
2017-11-16 14:19:21 1510859961.952369: $GPGGA,191920,3946.9562,N,08404.9858,W,2,11,0.80,304.75,M,-33.324,M,,*70
2017-11-16 14:19:21 1510859961.952483: $GPRMC,191920,A,3946.9562,N,08404.9858,W,0.0000,0.000,161117,,*38
2017-11-16 14:19:21 1510859961.952540: $GPGSA,A,3,8,10,13,15,18,21,20,24,27,32,138,,1.6,0.8,1.3*30
2017-11-16 14:19:22 1510859962.534210: $GPZDA,191921.00,16,11,2017,00,00*66
2017-11-16 14:19:22 1510859962.534374: $GPGGA,191921,3946.9562,N,08404.9858,W,2,11,0.80,304.75,M,-33.324,M,,*71
2017-11-16 14:19:22 1510859962.534435: $GPRMC,191921,A,3946.9562,N,08404.9858,W,0.0000,0.000,161117,,*39
2017-11-16 14:19:22 1510859962.534490: $GPGSA,A,3,8,10,13,15,18,21,20,24,27,32,138,,1.6,0.8,1.3*30
2017-11-16 14:19:23 1510859963.533838: $GPZDA,191922.00,16,11,2017,00,00*65
2017-11-16 14:19:23 1510859963.534004: $GPGGA,191922,3946.9562,N,08404.9858,W,2,11,0.80,304.75,M,-33.324,M,,*72
2017-11-16 14:19:23 1510859963.534066: $GPRMC,191922,A,3946.9562,N,08404.9858,W,0.0000,0.000,161117,,*3A
2017-11-16 14:19:23 1510859963.534121: $GPGSA,A,3,8,10,13,15,18,21,20,24,27,32,138,,1.6,0.8,1.3*30
2017-11-16 14:19:24 1510859964.879071: $GPGSV,3,1,12,08,07,319,36,10,43,303,43,13,06,049,22,15,35,052,50*71
2017-11-16 14:19:24 1510859964.879229: $GPGSV,3,2,12,18,72,342,46,21,61,189,47,20,31,097,46,24,52,106,49*70
2017-11-16 14:19:24 1510859964.879290: $GPGSV,3,3,12,27,19,286,39,32,22,240,45,14,06,234,04,138,38,213,45*45
2017-11-16 14:19:24 1510859964.992441: $GPZDA,191923.00,16,11,2017,00,00*64
2017-11-16 14:19:24 1510859964.992619: $GPGGA,191923,3946.9562,N,08404.9858,W,2,11,0.80,304.75,M,-33.324,M,,*73
2017-11-16 14:19:24 1510859964.992685: $GPRMC,191923,A,3946.9562,N,08404.9858,W,0.0000,0.000,161117,,*3B
2017-11-16 14:19:24 1510859964.992745: $GPGSA,A,3,8,10,13,15,18,21,20,24,27,32,138,,1.6,0.8,1.3*30
2017-11-16 14:19:25 1510859965.498238: $GPZDA,191924.00,16,11,2017,00,00*63
2017-11-16 14:19:25 1510859965.498402: $GPGGA,191924,3946.9562,N,08404.9858,W,2,11,0.80,304.75,M,-33.324,M,,*74
2017-11-16 14:19:25 1510859965.498464: $GPRMC,191924,A,3946.9562,N,08404.9858,W,0.0000,0.000,161117,,*3C
2017-11-16 14:19:25 1510859965.498520: $GPGSA,A,3,8,10,13,15,18,21,20,24,27,32,138,,1.6,0.8,1.3*30
2017-11-16 14:19:26 1510859966.529467: $GPZDA,191925.00,16,11,2017,00,00*62
2017-11-16 14:19:26 1510859966.529630: $GPGGA,191925,3946.9562,N,08404.9858,W,2,11,0.80,304.75,M,-33.324,M,,*75
2017-11-16 14:19:26 1510859966.529695: $GPRMC,191925,A,3946.9562,N,08404.9858,W,0.0000,0.000,161117,,*3D
2017-11-16 14:19:26 1510859966.529751: $GPGSA,A,3,8,10,13,15,18,21,20,24,27,32,138,,1.6,0.8,1.3*30
2017-11-16 14:19:27 1510859967.871177: $GPGSV,3,1,12,08,07,319,37,10,43,303,42,13,06,049,23,15,35,052,51*71
2017-11-16 14:19:27 1510859967.871345: $GPGSV,3,2,12,18,72,342,46,21,61,189,47,20,31,097,45,24,52,106,48*72
2017-11-16 14:19:27 1510859967.871406: $GPGSV,3,3,12,27,19,286,39,32,22,240,45,14,06,234,23,138,38,213,44*41
2017-11-16 14:19:27 1510859967.984853: $GPZDA,191926.00,16,11,2017,00,00*61
2017-11-16 14:19:27 1510859967.985011: $GPGGA,191926,3946.9562,N,08404.9858,W,2,12,0.80,304.75,M,-33.324,M,,*75
2017-11-16 14:19:27 1510859967.985071: $GPRMC,191926,A,3946.9562,N,08404.9858,W,0.0000,0.000,161117,,*3E
2017-11-16 14:19:27 1510859967.985127: $GPGSA,A,3,8,10,13,15,18,21,20,24,27,32,14,138,1.6,0.8,1.3*35
2017-11-16 14:19:28 1510859968.535644: $GPZDA,191927.00,16,11,2017,00,00*60
2017-11-16 14:19:28 1510859968.535807: $GPGGA,191927,3946.9562,N,08404.9858,W,2,12,0.80,304.75,M,-33.324,M,,*74
2017-11-16 14:19:28 1510859968.535869: $GPRMC,191927,A,3946.9562,N,08404.9858,W,0.0000,0.000,161117,,*3F
2017-11-16 14:19:28 1510859968.535924: $GPGSA,A,3,8,10,13,15,18,21,20,24,27,32,14,138,1.6,0.8,1.3*35
2017-11-16 14:19:29 1510859969.509374: $GPZDA,191928.00,16,11,2017,00,00*6F
2017-11-16 14:19:29 1510859969.509568: $GPGGA,191928,3946.9562,N,08404.9858,W,2,12,0.80,304.75,M,-33.324,M,,*7B
2017-11-16 14:19:29 1510859969.509633: $GPRMC,191928,A,3946.9562,N,08404.9858,W,0.0000,0.000,161117,,*30
2017-11-16 14:19:29 1510859969.509688: $GPGSA,A,3,8,10,13,15,18,21,20,24,27,32,14,138,1.6,0.8,1.3*35
