2017-11-16 13:16:29 1510856189.019139: {"class":"VERSION","release":"3.17","rev":"3.17","proto_major":3,"proto_minor":12}
2017-11-16 13:16:29 1510856189.019588: {"class":"DEVICES","devices":[{"class":"DEVICE","path":"/dev/ttyUSB0","driver":"SiRF","subtype":"9\u0006GSD4e_4.1.2-P1_RPATCH.05-F-GPS-4R-1510281 11/03/2015 307","activated":"2017-11-16T18:16:28.444Z","flags":1,"native":1,"bps":4800,"parity":"N","stopbits":1,"cycle":1.00}]}
2017-11-16 13:16:29 1510856189.019774: {"class":"WATCH","enable":true,"json":false,"nmea":true,"raw":0,"scaled":false,"timing":false,"split24":false,"pps":false}
2017-11-16 13:16:29 1510856189.320031: $GPZDA,181628.00,16,11,2017,00,00*61
2017-11-16 13:16:29 1510856189.320211: $GPGGA,181628,3946.9585,N,08404.9845,W,2,11,0.80,298.08,M,-33.324,M,,*7D
2017-11-16 13:16:29 1510856189.320272: $GPRMC,181628,A,3946.9585,N,08404.9845,W,0.0000,0.000,161117,,*3B
2017-11-16 13:16:29 1510856189.320392: $GPGSA,A,3,10,13,15,18,20,21,24,27,5,29,138,,1.6,0.8,1.3*37
2017-11-16 13:16:30 1510856190.650219: $GPGSV,3,1,11,10,22,282,44,13,30,045,48,15,62,052,51,18,53,298,45*70
2017-11-16 13:16:30 1510856190.650397: $GPGSV,3,2,11,20,52,070,46,21,77,276,46,24,32,139,41,27,16,313,41*75
2017-11-16 13:16:30 1510856190.650459: $GPGSV,3,3,11,05,05,087,04,29,10,189,30,138,38,213,46*78
2017-11-16 13:16:30 1510856190.763574: $GPZDA,181629.00,16,11,2017,00,00*60
2017-11-16 13:16:30 1510856190.763735: $GPGGA,181629,3946.9585,N,08404.9845,W,2,10,0.80,298.08,M,-33.324,M,,*7D
2017-11-16 13:16:30 1510856190.763796: $GPRMC,181629,A,3946.9585,N,08404.9845,W,0.0000,0.000,161117,,*3A
2017-11-16 13:16:30 1510856190.763852: $GPGSA,A,3,10,13,15,18,20,21,24,27,29,138,,,1.6,0.8,1.3*02
2017-11-16 13:16:31 1510856191.300680: $GPZDA,181630.00,16,11,2017,00,00*68
2017-11-16 13:16:31 1510856191.300844: $GPGGA,181630,3946.9585,N,08404.9845,W,2,10,0.80,298.08,M,-33.324,M,,*75
2017-11-16 13:16:31 1510856191.300928: $GPRMC,181630,A,3946.9585,N,08404.9845,W,0.0000,0.000,161117,,*32
2017-11-16 13:16:31 1510856191.301014: $GPGSA,A,3,10,13,15,18,20,21,24,27,29,138,,,1.6,0.8,1.3*02
2017-11-16 13:16:32 1510856192.297834: $GPZDA,181631.00,16,11,2017,00,00*69
2017-11-16 13:16:32 1510856192.298007: $GPGGA,181631,3946.9585,N,08404.9845,W,2,10,0.80,298.08,M,-33.324,M,,*74
2017-11-16 13:16:32 1510856192.298068: $GPRMC,181631,A,3946.9585,N,08404.9845,W,0.0000,0.000,161117,,*33
2017-11-16 13:16:32 1510856192.298124: $GPGSA,A,3,10,13,15,18,20,21,24,27,29,138,,,1.6,0.8,1.3*02
2017-11-16 13:16:33 1510856193.653444: $GPGSV,3,1,11,10,22,282,45,13,30,045,48,15,62,052,51,18,53,298,44*70
2017-11-16 13:16:33 1510856193.653610: $GPGSV,3,2,11,20,52,070,46,21,77,276,46,24,32,139,41,27,16,313,40*74
2017-11-16 13:16:33 1510856193.653671: $GPGSV,3,3,11,05,05,087,04,29,10,189,30,138,38,213,44*7A
2017-11-16 13:16:33 1510856193.766794: $GPZDA,181632.00,16,11,2017,00,00*6A
2017-11-16 13:16:33 1510856193.766968: $GPGGA,181632,3946.9585,N,08404.9845,W,2,10,0.80,298.08,M,-33.324,M,,*77
2017-11-16 13:16:33 1510856193.767047: $GPRMC,181632,A,3946.9585,N,08404.9845,W,0.0000,0.000,161117,,*30
2017-11-16 13:16:33 1510856193.767105: $GPGSA,A,3,10,13,15,18,20,21,24,27,29,138,,,1.6,0.8,1.3*02
2017-11-16 13:16:34 1510856194.300128: $GPZDA,181633.00,16,11,2017,00,00*6B
2017-11-16 13:16:34 1510856194.300373: $GPGGA,181633,3946.9589,N,08404.9845,W,2,10,0.80,298.72,M,-33.324,M,,*77
2017-11-16 13:16:34 1510856194.300447: $GPRMC,181633,A,3946.9589,N,08404.9845,W,0.0000,0.000,161117,,*3D
2017-11-16 13:16:34 1510856194.300504: $GPGSA,A,3,10,13,15,18,20,21,24,27,29,138,,,1.6,0.8,1.3*02
2017-11-16 13:16:35 1510856195.322948: $GPZDA,181634.00,16,11,2017,00,00*6C
2017-11-16 13:16:35 1510856195.323125: $GPGGA,181634,3946.9589,N,08404.9845,W,2,10,0.80,298.72,M,-33.324,M,,*70
2017-11-16 13:16:35 1510856195.323188: $GPRMC,181634,A,3946.9589,N,08404.9845,W,0.0000,0.000,161117,,*3A
2017-11-16 13:16:35 1510856195.323244: $GPGSA,A,3,10,13,15,18,20,21,24,27,29,138,,,1.6,0.8,1.3*02
2017-11-16 13:16:36 1510856196.627428: $GPGSV,3,1,11,10,22,282,44,13,30,045,48,15,62,052,51,18,53,298,44*71
2017-11-16 13:16:36 1510856196.627645: $GPGSV,3,2,11,20,52,070,46,21,77,276,46,24,32,139,40,27,16,313,41*74
2017-11-16 13:16:36 1510856196.627707: $GPGSV,3,3,11,05,05,087,14,29,10,189,31,138,38,213,44*7A
2017-11-16 13:16:36 1510856196.740787: $GPZDA,181635.00,16,11,2017,00,00*6D
2017-11-16 13:16:36 1510856196.740950: $GPGGA,181635,3946.9589,N,08404.9845,W,2,11,0.80,298.72,M,-33.324,M,,*70
2017-11-16 13:16:36 1510856196.741012: $GPRMC,181635,A,3946.9589,N,08404.9845,W,0.0000,0.000,161117,,*3B
2017-11-16 13:16:36 1510856196.741068: $GPGSA,A,3,10,13,15,18,20,21,24,27,5,29,138,,1.6,0.8,1.3*37
2017-11-16 13:16:37 1510856197.311612: $GPZDA,181636.00,16,11,2017,00,00*6E
2017-11-16 13:16:37 1510856197.311793: $GPGGA,181636,3946.9589,N,08404.9845,W,2,11,0.80,298.72,M,-33.324,M,,*73
2017-11-16 13:16:37 1510856197.311856: $GPRMC,181636,A,3946.9589,N,08404.9845,W,0.0000,0.000,161117,,*38
2017-11-16 13:16:37 1510856197.311913: $GPGSA,A,3,10,13,15,18,20,21,24,27,5,29,138,,1.6,0.8,1.3*37
2017-11-16 13:16:38 1510856198.317415: $GPZDA,181637.00,16,11,2017,00,00*6F
2017-11-16 13:16:38 1510856198.317587: $GPGGA,181637,3946.9589,N,08404.9845,W,2,11,0.80,298.72,M,-33.324,M,,*72
2017-11-16 13:16:38 1510856198.317649: $GPRMC,181637,A,3946.9589,N,08404.9845,W,0.0000,0.000,161117,,*39
2017-11-16 13:16:38 1510856198.317705: $GPGSA,A,3,10,13,15,18,20,21,24,27,5,29,138,,1.6,0.8,1.3*37
