2017-12-29 11:08:46 1514563726.416473: {"class":"VERSION","release":"3.16","rev":"3.16-4","proto_major":3,"proto_minor":11}
2017-12-29 11:08:46 1514563726.416833: {"class":"DEVICES","devices":[{"class":"DEVICE","path":"/dev/ttyUSB0","driver":"SiRF","subtype":"9\u0006GSD4e_4.1.2-P1_RPATCH.05-F-GPS-4R-1510281 11/03/2015 307","activated":"2017-12-29T16:08:46.400Z","flags":1,"native":1,"bps":4800,"parity":"N","stopbits":1,"cycle":1.00}]}
2017-12-29 11:08:46 1514563726.416956: {"class":"WATCH","enable":true,"json":false,"nmea":true,"raw":0,"scaled":false,"timing":false,"split24":false,"pps":false}
2017-12-29 11:08:47 1514563727.401133: $GPZDA,160848.00,29,12,2017,00,00*69
2017-12-29 11:08:47 1514563727.401314: $GPGGA,160848,3946.9578,N,08404.9835,W,2,11,1.20,316.82,M,-33.324,M,,*71
2017-12-29 11:08:47 1514563727.401382: $GPRMC,160848,A,3946.9578,N,08404.9835,W,0.0000,0.000,291217,,*36
2017-12-29 11:08:47 1514563727.401444: $GPGSA,A,3,10,15,18,20,21,24,27,32,8,13,138,,1.7,1.2,1.3*3A
2017-12-29 11:08:48 1514563728.736884: $GPGSV,3,1,11,10,38,298,42,15,41,051,49,18,69,330,42,20,38,091,48*71
2017-12-29 11:08:48 1514563728.737054: $GPGSV,3,2,11,21,68,193,46,24,48,117,46,27,19,294,40,32,18,235,39*73
2017-12-29 11:08:48 1514563728.737121: $GPGSV,3,3,11,08,04,325,33,13,11,048,24,138,38,213,44*78
2017-12-29 11:08:48 1514563728.850583: $GPZDA,160849.00,29,12,2017,00,00*68
2017-12-29 11:08:48 1514563728.850709: $GPGGA,160849,3946.9578,N,08404.9835,W,2,11,1.20,316.82,M,-33.324,M,,*70
2017-12-29 11:08:48 1514563728.850774: $GPRMC,160849,A,3946.9578,N,08404.9835,W,0.0000,0.000,291217,,*37
2017-12-29 11:08:48 1514563728.850837: $GPGSA,A,3,10,15,18,20,21,24,27,32,8,13,138,,1.7,1.2,1.3*3A
2017-12-29 11:08:49 1514563729.475975: $GPZDA,160850.00,29,12,2017,00,00*60
2017-12-29 11:08:49 1514563729.476145: $GPGGA,160850,3946.9578,N,08404.9835,W,2,11,1.20,316.82,M,-33.324,M,,*78
2017-12-29 11:08:49 1514563729.476210: $GPRMC,160850,A,3946.9578,N,08404.9835,W,0.2422,273.794,291217,,*35
2017-12-29 11:08:49 1514563729.476273: $GPGSA,A,3,10,15,18,20,21,24,27,32,8,13,138,,1.7,1.2,1.3*3A
2017-12-29 11:08:50 1514563730.401887: $GPZDA,160851.00,29,12,2017,00,00*61
2017-12-29 11:08:50 1514563730.402036: $GPGGA,160851,3946.9578,N,08404.9835,W,2,11,1.20,316.82,M,-33.324,M,,*79
2017-12-29 11:08:50 1514563730.402102: $GPRMC,160851,A,3946.9578,N,08404.9835,W,0.2422,93.794,291217,,*08
2017-12-29 11:08:50 1514563730.402163: $GPGSA,A,3,10,15,18,20,21,24,27,32,8,13,138,,1.7,1.2,1.3*3A
2017-12-29 11:08:51 1514563731.737249: $GPGSV,3,1,11,10,38,298,42,15,41,051,49,18,69,330,42,20,38,091,48*71
2017-12-29 11:08:51 1514563731.737417: $GPGSV,3,2,11,21,68,193,46,24,48,117,46,27,19,294,40,32,18,235,39*73
2017-12-29 11:08:51 1514563731.737482: $GPGSV,3,3,11,08,04,325,34,13,11,048,24,138,38,213,45*7E
2017-12-29 11:08:51 1514563731.850922: $GPZDA,160852.00,29,12,2017,00,00*62
2017-12-29 11:08:51 1514563731.851090: $GPGGA,160852,3946.9575,N,08404.9842,W,2,11,1.20,317.50,M,-33.324,M,,*79
2017-12-29 11:08:51 1514563731.851165: $GPRMC,160852,A,3946.9575,N,08404.9842,W,0.0000,0.000,291217,,*30
2017-12-29 11:08:51 1514563731.851227: $GPGSA,A,3,10,15,18,20,21,24,27,32,8,13,138,,1.7,1.2,1.3*3A
2017-12-29 11:08:52 1514563732.395533: $GPZDA,160853.00,29,12,2017,00,00*63
2017-12-29 11:08:52 1514563732.395669: $GPGGA,160853,3946.9575,N,08404.9842,W,2,11,1.20,317.50,M,-33.324,M,,*78
2017-12-29 11:08:52 1514563732.395735: $GPRMC,160853,A,3946.9575,N,08404.9842,W,0.0000,0.000,291217,,*31
2017-12-29 11:08:52 1514563732.395799: $GPGSA,A,3,10,15,18,20,21,24,27,32,8,13,138,,1.7,1.2,1.3*3A
2017-12-29 11:08:53 1514563733.402775: $GPZDA,160854.00,29,12,2017,00,00*64
2017-12-29 11:08:53 1514563733.402932: $GPGGA,160854,3946.9575,N,08404.9842,W,2,11,1.80,317.50,M,-33.324,M,,*75
2017-12-29 11:08:53 1514563733.402998: $GPRMC,160854,A,3946.9575,N,08404.9842,W,0.0000,0.000,291217,,*36
2017-12-29 11:08:53 1514563733.403060: $GPGSA,A,3,10,15,18,20,21,24,27,32,8,13,138,,1.7,1.8,1.3*30
2017-12-29 11:08:54 1514563734.738855: $GPGSV,3,1,11,10,38,298,42,15,41,051,49,18,69,330,42,20,38,091,47*7E
2017-12-29 11:08:54 1514563734.739090: $GPGSV,3,2,11,21,68,193,45,24,48,117,46,27,19,294,41,32,18,235,39*71
2017-12-29 11:08:54 1514563734.739160: $GPGSV,3,3,11,08,04,325,34,13,11,048,24,138,38,213,46*7D
2017-12-29 11:08:54 1514563734.852663: $GPZDA,160855.00,29,12,2017,00,00*65
2017-12-29 11:08:54 1514563734.852801: $GPGGA,160855,3946.9575,N,08404.9842,W,2,11,1.80,317.50,M,-33.324,M,,*74
2017-12-29 11:08:54 1514563734.852866: $GPRMC,160855,A,3946.9575,N,08404.9842,W,0.0000,0.000,291217,,*37
2017-12-29 11:08:54 1514563734.852930: $GPGSA,A,3,10,15,18,20,21,24,27,32,8,13,138,,1.7,1.8,1.3*30
2017-12-29 11:08:55 1514563735.402251: $GPZDA,160856.00,29,12,2017,00,00*66
2017-12-29 11:08:55 1514563735.402404: $GPGGA,160856,3946.9575,N,08404.9842,W,2,11,1.80,317.50,M,-33.324,M,,*77
2017-12-29 11:08:55 1514563735.402469: $GPRMC,160856,A,3946.9575,N,08404.9842,W,0.0000,0.000,291217,,*34
2017-12-29 11:08:55 1514563735.402531: $GPGSA,A,3,10,15,18,20,21,24,27,32,8,13,138,,1.7,1.8,1.3*30
2017-12-29 11:08:56 1514563736.401882: $GPZDA,160857.00,29,12,2017,00,00*67
2017-12-29 11:08:56 1514563736.402037: $GPGGA,160857,3946.9575,N,08404.9842,W,2,11,1.80,317.50,M,-33.324,M,,*76
2017-12-29 11:08:56 1514563736.402103: $GPRMC,160857,A,3946.9575,N,08404.9842,W,0.0000,0.000,291217,,*35
2017-12-29 11:08:56 1514563736.402165: $GPGSA,A,3,10,15,18,20,21,24,27,32,8,13,138,,1.7,1.8,1.3*30
2017-12-29 11:08:57 1514563737.738450: $GPGSV,3,1,11,10,38,298,43,15,41,051,49,18,69,330,43,20,38,091,48*71
2017-12-29 11:08:57 1514563737.738628: $GPGSV,3,2,11,21,68,193,46,24,48,117,46,27,19,294,41,32,18,235,38*73
2017-12-29 11:08:57 1514563737.738695: $GPGSV,3,3,11,08,04,325,33,13,11,048,24,138,38,213,45*79
2017-12-29 11:08:57 1514563737.852210: $GPZDA,160858.00,29,12,2017,00,00*68
2017-12-29 11:08:57 1514563737.852341: $GPGGA,160858,3946.9575,N,08404.9842,W,2,11,1.80,317.50,M,-33.324,M,,*79
2017-12-29 11:08:57 1514563737.852407: $GPRMC,160858,A,3946.9575,N,08404.9842,W,0.0000,0.000,291217,,*3A
2017-12-29 11:08:57 1514563737.852466: $GPGSA,A,3,10,15,18,20,21,24,27,32,8,13,138,,1.7,1.8,1.3*30
2017-12-29 11:08:58 1514563738.401818: $GPZDA,160859.00,29,12,2017,00,00*69
2017-12-29 11:08:58 1514563738.401964: $GPGGA,160859,3946.9575,N,08404.9842,W,2,11,1.80,317.50,M,-33.324,M,,*78
2017-12-29 11:08:58 1514563738.402033: $GPRMC,160859,A,3946.9575,N,08404.9842,W,0.0000,0.000,291217,,*3B
2017-12-29 11:08:58 1514563738.402093: $GPGSA,A,3,10,15,18,20,21,24,27,32,8,13,138,,1.7,1.8,1.3*30
2017-12-29 11:08:59 1514563739.408455: $GPZDA,160900.00,29,12,2017,00,00*64
2017-12-29 11:08:59 1514563739.408615: $GPGGA,160900,3946.9575,N,08404.9842,W,2,11,1.80,317.50,M,-33.324,M,,*75
2017-12-29 11:08:59 1514563739.408682: $GPRMC,160900,A,3946.9575,N,08404.9842,W,0.0000,0.000,291217,,*36
2017-12-29 11:08:59 1514563739.408745: $GPGSA,A,3,10,15,18,20,21,24,27,32,8,13,138,,1.7,1.8,1.3*30
2017-12-29 11:09:00 1514563740.737567: $GPGSV,3,1,11,10,38,298,43,15,41,051,49,18,69,330,43,20,38,091,48*71
2017-12-29 11:09:00 1514563740.737731: $GPGSV,3,2,11,21,68,193,46,24,48,117,47,27,19,294,41,32,18,235,37*7D
2017-12-29 11:09:00 1514563740.737800: $GPGSV,3,3,11,08,04,325,33,13,11,048,24,138,38,213,45*79
2017-12-29 11:09:00 1514563740.851292: $GPZDA,160901.00,29,12,2017,00,00*65
2017-12-29 11:09:00 1514563740.851421: $GPGGA,160901,3946.9575,N,08404.9842,W,2,11,1.80,317.50,M,-33.324,M,,*74
2017-12-29 11:09:00 1514563740.851487: $GPRMC,160901,A,3946.9575,N,08404.9842,W,0.0000,0.000,291217,,*37
2017-12-29 11:09:00 1514563740.851546: $GPGSA,A,3,10,15,18,20,21,24,27,32,8,13,138,,1.7,1.8,1.3*30
2017-12-29 11:09:01 1514563741.403382: $GPZDA,160902.00,29,12,2017,00,00*66
2017-12-29 11:09:01 1514563741.403527: $GPGGA,160902,3946.9575,N,08404.9842,W,2,11,1.80,317.50,M,-33.324,M,,*77
2017-12-29 11:09:01 1514563741.403593: $GPRMC,160902,A,3946.9575,N,08404.9842,W,0.0000,0.000,291217,,*34
2017-12-29 11:09:01 1514563741.403656: $GPGSA,A,3,10,15,18,20,21,24,27,32,8,13,138,,1.7,1.8,1.3*30
2017-12-29 11:09:02 1514563742.418087: $GPZDA,160903.00,29,12,2017,00,00*67
2017-12-29 11:09:02 1514563742.418300: $GPGGA,160903,3946.9575,N,08404.9835,W,2,11,1.80,317.58,M,-33.324,M,,*7E
2017-12-29 11:09:02 1514563742.418371: $GPRMC,160903,A,3946.9575,N,08404.9835,W,0.5951,58.684,291217,,*0A
2017-12-29 11:09:02 1514563742.418432: $GPGSA,A,3,10,15,18,20,21,24,27,32,8,13,138,,1.7,1.8,1.3*30
2017-12-29 11:09:03 1514563743.732181: $GPGSV,3,1,11,10,38,298,43,15,41,051,48,18,69,330,42,20,38,091,47*7E
2017-12-29 11:09:03 1514563743.732334: $GPGSV,3,2,11,21,68,193,45,24,48,117,46,27,19,294,41,32,18,235,37*7F
2017-12-29 11:09:03 1514563743.732400: $GPGSV,3,3,11,08,04,325,33,13,11,048,24,138,38,213,45*79
2017-12-29 11:09:03 1514563743.845869: $GPZDA,160904.00,29,12,2017,00,00*60
2017-12-29 11:09:03 1514563743.845997: $GPGGA,160904,3946.9575,N,08404.9835,W,2,11,1.80,317.58,M,-33.324,M,,*79
2017-12-29 11:09:03 1514563743.846061: $GPRMC,160904,A,3946.9575,N,08404.9835,W,0.7267,93.794,291217,,*06
2017-12-29 11:09:03 1514563743.846122: $GPGSA,A,3,10,15,18,20,21,24,27,32,8,13,138,,1.7,1.8,1.3*30
2017-12-29 11:09:04 1514563744.471313: $GPZDA,160905.00,29,12,2017,00,00*61
2017-12-29 11:09:04 1514563744.471485: $GPGGA,160905,3946.9578,N,08404.9835,W,1,11,1.00,316.82,M,-33.324,M,,*78
2017-12-29 11:09:04 1514563744.471551: $GPRMC,160905,A,3946.9578,N,08404.9835,W,0.2422,273.794,291217,,*34
2017-12-29 11:09:04 1514563744.471613: $GPGSA,A,3,10,15,18,20,21,24,27,32,8,13,138,,1.7,1.0,1.3*38
2017-12-29 11:09:05 1514563745.418408: $GPZDA,160906.00,29,12,2017,00,00*62
2017-12-29 11:09:05 1514563745.418566: $GPGGA,160906,3946.9578,N,08404.9835,W,1,11,1.00,316.82,M,-33.324,M,,*7B
2017-12-29 11:09:05 1514563745.418634: $GPRMC,160906,A,3946.9578,N,08404.9835,W,0.1567,9.200,291217,,*33
2017-12-29 11:09:05 1514563745.418695: $GPGSA,A,3,10,15,18,20,21,24,27,32,8,13,138,,1.7,1.0,1.3*38
2017-12-29 11:09:06 1514563746.753800: $GPGSV,3,1,11,10,38,298,42,15,41,051,47,18,69,330,41,20,38,091,46*72
2017-12-29 11:09:06 1514563746.753954: $GPGSV,3,2,11,21,68,193,44,24,48,117,45,27,19,294,40,32,18,235,36*7D
2017-12-29 11:09:06 1514563746.754019: $GPGSV,3,3,11,08,04,325,33,13,11,048,24,138,38,213,44*78
2017-12-29 11:09:06 1514563746.867468: $GPZDA,160907.00,29,12,2017,00,00*63
2017-12-29 11:09:06 1514563746.867597: $GPGGA,160907,3946.9578,N,08404.9835,W,1,11,1.00,316.82,M,-33.324,M,,*7A
2017-12-29 11:09:06 1514563746.867660: $GPRMC,160907,A,3946.9578,N,08404.9835,W,0.0407,142.014,291217,,*3D
2017-12-29 11:09:06 1514563746.867721: $GPGSA,A,3,10,15,18,20,21,24,27,32,8,13,138,,1.7,1.0,1.3*38
2017-12-29 11:09:07 1514563747.428402: $GPZDA,160908.00,29,12,2017,00,00*6C
2017-12-29 11:09:07 1514563747.428551: $GPGGA,160908,3946.9578,N,08404.9835,W,1,11,1.00,316.82,M,-33.324,M,,*75
2017-12-29 11:09:07 1514563747.428617: $GPRMC,160908,A,3946.9578,N,08404.9835,W,0.0000,0.000,291217,,*33
2017-12-29 11:09:07 1514563747.428677: $GPGSA,A,3,10,15,18,20,21,24,27,32,8,13,138,,1.7,1.0,1.3*38
2017-12-29 11:09:08 1514563748.401865: $GPZDA,160909.00,29,12,2017,00,00*6D
2017-12-29 11:09:08 1514563748.402020: $GPGGA,160909,3946.9577,N,08404.9834,W,1,11,1.00,315.42,M,-33.324,M,,*75
2017-12-29 11:09:08 1514563748.402088: $GPRMC,160909,A,3946.9577,N,08404.9834,W,0.0000,0.000,291217,,*3C
2017-12-29 11:09:08 1514563748.402150: $GPGSA,A,3,10,15,18,20,21,24,27,32,8,13,138,,1.7,1.0,1.3*38
2017-12-29 11:09:09 1514563749.754140: $GPGSV,3,1,11,10,38,298,42,15,41,051,48,18,69,330,42,20,38,091,47*7F
2017-12-29 11:09:09 1514563749.754317: $GPGSV,3,2,11,21,68,193,45,24,48,117,46,27,19,294,40,32,18,235,36*7F
2017-12-29 11:09:09 1514563749.754383: $GPGSV,3,3,11,08,04,325,33,13,11,048,25,138,38,213,44*79
2017-12-29 11:09:09 1514563749.867836: $GPZDA,160910.00,29,12,2017,00,00*65
2017-12-29 11:09:09 1514563749.867960: $GPGGA,160910,3946.9577,N,08404.9834,W,1,11,1.00,315.42,M,-33.324,M,,*7D
2017-12-29 11:09:09 1514563749.868024: $GPRMC,160910,A,3946.9577,N,08404.9834,W,0.0000,0.000,291217,,*34
2017-12-29 11:09:09 1514563749.868085: $GPGSA,A,3,10,15,18,20,21,24,27,32,8,13,138,,1.7,1.0,1.3*38
2017-12-29 11:09:10 1514563750.402495: $GPZDA,160911.00,29,12,2017,00,00*64
2017-12-29 11:09:10 1514563750.402679: $GPGGA,160911,3946.9577,N,08404.9834,W,1,11,1.00,315.42,M,-33.324,M,,*7C
2017-12-29 11:09:10 1514563750.402751: $GPRMC,160911,A,3946.9577,N,08404.9834,W,0.0000,0.000,291217,,*35
2017-12-29 11:09:10 1514563750.402814: $GPGSA,A,3,10,15,18,20,21,24,27,32,8,13,138,,1.7,1.0,1.3*38
2017-12-29 11:09:11 1514563751.418390: $GPZDA,160912.00,29,12,2017,00,00*67
2017-12-29 11:09:11 1514563751.418563: $GPGGA,160912,3946.9577,N,08404.9834,W,1,11,1.00,315.42,M,-33.324,M,,*7F
2017-12-29 11:09:11 1514563751.418629: $GPRMC,160912,A,3946.9577,N,08404.9834,W,0.0000,0.000,291217,,*36
2017-12-29 11:09:11 1514563751.418692: $GPGSA,A,3,10,15,18,20,21,24,27,32,8,13,138,,1.7,1.0,1.3*38
