2017-11-16 15:14:46 1510863286.708611: {"class":"VERSION","release":"3.17","rev":"3.17","proto_major":3,"proto_minor":12}
2017-11-16 15:14:46 1510863286.709152: {"class":"DEVICES","devices":[{"class":"DEVICE","path":"/dev/ttyUSB0","driver":"SiRF","subtype":"9\u0006GSD4e_4.1.2-P1_RPATCH.05-F-GPS-4R-1510281 11/03/2015 307","activated":"2017-11-16T20:14:46.284Z","flags":1,"native":1,"bps":4800,"parity":"N","stopbits":1,"cycle":1.00}]}
2017-11-16 15:14:46 1510863286.709287: {"class":"WATCH","enable":true,"json":false,"nmea":true,"raw":0,"scaled":false,"timing":false,"split24":false,"pps":false}
2017-11-16 15:14:46 1510863286.732301: $GPGSV,3,1,12,08,07,298,34,10,64,324,51,14,25,249,46,15,15,064,38*77
2017-11-16 15:14:46 1510863286.732421: $GPGSV,3,2,12,18,74,079,47,20,12,115,31,21,35,180,44,24,48,064,49*73
2017-11-16 15:14:46 1510863286.732481: $GPGSV,3,3,12,27,09,264,41,32,42,259,47,12,06,111,29,138,38,213,45*46
2017-11-16 15:14:46 1510863286.845618: $GPZDA,201445.00,16,11,2017,00,00*63
2017-11-16 15:14:46 1510863286.845777: $GPGGA,201445,3946.9576,N,08404.9855,W,2,12,0.80,301.70,M,-33.324,M,,*7F
2017-11-16 15:14:46 1510863286.845839: $GPRMC,201445,A,3946.9576,N,08404.9855,W,0.0000,0.000,161117,,*34
2017-11-16 15:14:46 1510863286.845895: $GPGSA,A,3,8,10,14,15,18,20,21,24,27,32,12,138,1.6,0.8,1.3*34
2017-11-16 15:14:47 1510863287.396490: $GPZDA,201446.00,16,11,2017,00,00*60
2017-11-16 15:14:47 1510863287.396652: $GPGGA,201446,3946.9576,N,08404.9855,W,2,12,0.80,301.70,M,-33.324,M,,*7C
2017-11-16 15:14:47 1510863287.396715: $GPRMC,201446,A,3946.9576,N,08404.9855,W,0.0000,0.000,161117,,*37
2017-11-16 15:14:47 1510863287.396770: $GPGSA,A,3,8,10,14,15,18,20,21,24,27,32,12,138,1.6,0.8,1.3*34
2017-11-16 15:14:48 1510863288.382932: $GPZDA,201447.00,16,11,2017,00,00*61
2017-11-16 15:14:48 1510863288.383109: $GPGGA,201447,3946.9576,N,08404.9855,W,2,12,0.80,301.70,M,-33.324,M,,*7D
2017-11-16 15:14:48 1510863288.383174: $GPRMC,201447,A,3946.9576,N,08404.9855,W,0.0000,0.000,161117,,*36
2017-11-16 15:14:48 1510863288.383232: $GPGSA,A,3,8,10,14,15,18,20,21,24,27,32,12,138,1.6,0.8,1.3*34
2017-11-16 15:14:49 1510863289.739361: $GPGSV,3,1,12,08,07,298,33,10,64,324,51,14,25,249,46,15,15,064,38*70
2017-11-16 15:14:49 1510863289.739526: $GPGSV,3,2,12,18,74,079,47,20,12,115,31,21,35,180,44,24,48,064,50*7B
2017-11-16 15:14:49 1510863289.739586: $GPGSV,3,3,12,27,09,264,41,32,42,259,48,12,06,111,02,138,38,213,45*40
2017-11-16 15:14:49 1510863289.852809: $GPZDA,201448.00,16,11,2017,00,00*6E
2017-11-16 15:14:49 1510863289.853004: $GPGGA,201448,3946.9576,N,08404.9855,W,2,11,0.80,301.70,M,-33.324,M,,*71
2017-11-16 15:14:49 1510863289.853066: $GPRMC,201448,A,3946.9576,N,08404.9855,W,0.0000,0.000,161117,,*39
2017-11-16 15:14:49 1510863289.853122: $GPGSA,A,3,8,10,14,15,18,20,21,24,27,32,138,,1.6,0.8,1.3*37
2017-11-16 15:14:50 1510863290.397234: $GPZDA,201449.00,16,11,2017,00,00*6F
2017-11-16 15:14:50 1510863290.397411: $GPGGA,201449,3946.9576,N,08404.9855,W,2,11,0.80,301.70,M,-33.324,M,,*70
2017-11-16 15:14:50 1510863290.397474: $GPRMC,201449,A,3946.9576,N,08404.9855,W,0.0000,0.000,161117,,*38
2017-11-16 15:14:50 1510863290.397531: $GPGSA,A,3,8,10,14,15,18,20,21,24,27,32,138,,1.6,0.8,1.3*37
2017-11-16 15:14:51 1510863291.381621: $GPZDA,201450.00,16,11,2017,00,00*67
2017-11-16 15:14:51 1510863291.382001: $GPGGA,201450,3946.9576,N,08404.9855,W,2,11,0.80,301.70,M,-33.324,M,,*78
2017-11-16 15:14:51 1510863291.382143: $GPRMC,201450,A,3946.9576,N,08404.9855,W,0.0000,0.000,161117,,*30
2017-11-16 15:14:51 1510863291.382247: $GPGSA,A,3,8,10,14,15,18,20,21,24,27,32,138,,1.6,0.8,1.3*37
2017-11-16 15:14:52 1510863292.733309: $GPGSV,3,1,12,08,07,298,33,10,64,324,51,14,25,249,46,15,15,064,38*70
2017-11-16 15:14:52 1510863292.733477: $GPGSV,3,2,12,18,74,079,47,20,12,115,31,21,35,180,44,24,48,064,49*73
2017-11-16 15:14:52 1510863292.733541: $GPGSV,3,3,12,27,09,264,40,32,42,259,47,12,06,111,00,138,38,213,44*4D
2017-11-16 15:14:52 1510863292.846638: $GPZDA,201451.00,16,11,2017,00,00*66
2017-11-16 15:14:52 1510863292.846827: $GPGGA,201451,3946.9576,N,08404.9855,W,2,11,0.80,301.70,M,-33.324,M,,*79
2017-11-16 15:14:52 1510863292.846962: $GPRMC,201451,A,3946.9576,N,08404.9855,W,0.0000,0.000,161117,,*31
2017-11-16 15:14:52 1510863292.847022: $GPGSA,A,3,8,10,14,15,18,20,21,24,27,32,138,,1.6,0.8,1.3*37
2017-11-16 15:14:53 1510863293.397508: $GPZDA,201452.00,16,11,2017,00,00*65
2017-11-16 15:14:53 1510863293.400239: $GPGGA,201452,3946.9576,N,08404.9855,W,2,11,0.80,301.70,M,-33.324,M,,*7A
2017-11-16 15:14:53 1510863293.400399: $GPRMC,201452,A,3946.9576,N,08404.9855,W,0.0000,0.000,161117,,*32
2017-11-16 15:14:53 1510863293.400476: $GPGSA,A,3,8,10,14,15,18,20,21,24,27,32,138,,1.6,0.8,1.3*37
2017-11-16 15:14:54 1510863294.397094: $GPZDA,201453.00,16,11,2017,00,00*64
2017-11-16 15:14:54 1510863294.397258: $GPGGA,201453,3946.9576,N,08404.9855,W,2,11,0.80,301.70,M,-33.324,M,,*7B
2017-11-16 15:14:54 1510863294.397319: $GPRMC,201453,A,3946.9576,N,08404.9855,W,0.0000,0.000,161117,,*33
2017-11-16 15:14:54 1510863294.397375: $GPGSA,A,3,8,10,14,15,18,20,21,24,27,32,138,,1.6,0.8,1.3*37
2017-11-16 15:14:55 1510863295.734118: $GPGSV,3,1,12,08,07,298,29,10,64,324,51,14,25,249,46,15,15,064,38*7B
2017-11-16 15:14:55 1510863295.734289: $GPGSV,3,2,12,18,74,079,47,20,12,115,32,21,35,180,44,24,48,064,49*70
2017-11-16 15:14:55 1510863295.734348: $GPGSV,3,3,12,27,09,264,40,32,42,259,47,12,06,111,00,138,38,213,44*4D
2017-11-16 15:14:55 1510863295.847411: $GPZDA,201454.00,16,11,2017,00,00*63
2017-11-16 15:14:55 1510863295.847576: $GPGGA,201454,3946.9576,N,08404.9855,W,2,11,0.80,301.70,M,-33.324,M,,*7C
2017-11-16 15:14:55 1510863295.847660: $GPRMC,201454,A,3946.9576,N,08404.9855,W,0.0000,0.000,161117,,*34
2017-11-16 15:14:55 1510863295.847717: $GPGSA,A,3,8,10,14,15,18,20,21,24,27,32,138,,1.6,0.8,1.3*37
2017-11-16 15:14:56 1510863296.472752: $GPZDA,201455.00,16,11,2017,00,00*62
2017-11-16 15:14:56 1510863296.472933: $GPGGA,201455,3946.9576,N,08404.9855,W,2,11,0.80,301.70,M,-33.324,M,,*7D
2017-11-16 15:14:56 1510863296.472999: $GPRMC,201455,A,3946.9576,N,08404.9855,W,0.0000,0.000,161117,,*35
2017-11-16 15:14:56 1510863296.473059: $GPGSA,A,3,8,10,14,15,18,20,21,24,27,32,138,,1.6,0.8,1.3*37
