2017-12-01 18:05:50 1512169550.976810: {"class":"VERSION","release":"3.16","rev":"3.16-4","proto_major":3,"proto_minor":11}
2017-12-01 18:05:50 1512169550.977203: {"class":"DEVICES","devices":[{"class":"DEVICE","path":"/dev/ttyUSB0","driver":"SiRF","subtype":"9\u0006GSD4e_4.1.2-P1_RPATCH.05-F-GPS-4R-1510281 11/03/2015 307","activated":"2017-12-01T23:05:50.519Z","flags":1,"native":1,"bps":4800,"parity":"N","stopbits":1,"cycle":1.00}]}
2017-12-01 18:05:50 1512169550.977327: {"class":"WATCH","enable":true,"json":false,"nmea":true,"raw":0,"scaled":false,"timing":false,"split24":false,"pps":false}
2017-12-01 18:05:51 1512169551.740450: $GPGSV,3,1,12,03,35,306,46,14,61,079,43,16,15,189,41,22,49,283,46*71
2017-12-01 18:05:51 1512169551.740630: $GPGSV,3,2,12,29,07,079,25,25,24,043,43,26,44,174,45,31,74,009,47*73
2017-12-01 18:05:51 1512169551.740697: $GPGSV,3,3,12,32,42,100,42,01,10,259,29,23,05,297,41,138,38,213,45*42
2017-12-01 18:05:51 1512169551.853798: $GPZDA,230552.00,01,12,2017,00,00*63
2017-12-01 18:05:51 1512169551.853966: $GPGGA,230552,3946.9714,N,08404.9853,W,2,12,0.60,294.32,M,-33.325,M,,*7E
2017-12-01 18:05:51 1512169551.854031: $GPRMC,230552,A,3946.9714,N,08404.9853,W,0.0000,0.000,011217,,*34
2017-12-01 18:05:51 1512169551.854092: $GPGSA,A,3,3,14,16,22,29,25,26,31,32,1,23,138,2.0,0.6,1.5*02
2017-12-01 18:05:52 1512169552.377197: $GPZDA,230553.00,01,12,2017,00,00*62
2017-12-01 18:05:52 1512169552.377370: $GPGGA,230553,3946.9714,N,08404.9853,W,2,12,0.60,294.32,M,-33.325,M,,*7F
2017-12-01 18:05:52 1512169552.377438: $GPRMC,230553,A,3946.9714,N,08404.9853,W,0.0000,0.000,011217,,*35
2017-12-01 18:05:52 1512169552.377499: $GPGSA,A,3,3,14,16,22,29,25,26,31,32,1,23,138,2.0,0.6,1.5*02
2017-12-01 18:05:53 1512169553.377785: $GPZDA,230554.00,01,12,2017,00,00*65
2017-12-01 18:05:53 1512169553.377951: $GPGGA,230554,3946.9714,N,08404.9853,W,2,12,0.60,294.32,M,-33.325,M,,*78
2017-12-01 18:05:53 1512169553.378018: $GPRMC,230554,A,3946.9714,N,08404.9853,W,0.0000,0.000,011217,,*32
2017-12-01 18:05:53 1512169553.378079: $GPGSA,A,3,3,14,16,22,29,25,26,31,32,1,23,138,2.0,0.6,1.5*02
2017-12-01 18:05:54 1512169554.733398: $GPGSV,3,1,12,03,35,306,46,14,61,079,43,16,15,189,41,22,49,283,46*71
2017-12-01 18:05:54 1512169554.733579: $GPGSV,3,2,12,29,07,079,26,25,24,043,43,26,44,174,44,31,74,009,47*71
2017-12-01 18:05:54 1512169554.733646: $GPGSV,3,3,12,32,42,100,43,01,10,259,29,10,05,159,26,138,38,213,45*43
2017-12-01 18:05:54 1512169554.847166: $GPZDA,230555.00,01,12,2017,00,00*64
2017-12-01 18:05:54 1512169554.847343: $GPGGA,230555,3946.9714,N,08404.9853,W,2,12,0.60,294.32,M,-33.325,M,,*79
2017-12-01 18:05:54 1512169554.847411: $GPRMC,230555,A,3946.9714,N,08404.9853,W,0.0000,0.000,011217,,*33
2017-12-01 18:05:54 1512169554.847471: $GPGSA,A,3,3,14,16,22,29,25,26,31,32,1,10,138,2.0,0.6,1.5*02
2017-12-01 18:05:55 1512169555.406599: $GPZDA,230556.00,01,12,2017,00,00*67
2017-12-01 18:05:55 1512169555.406775: $GPGGA,230556,3946.9714,N,08404.9853,W,2,12,0.60,294.32,M,-33.325,M,,*7A
2017-12-01 18:05:55 1512169555.406842: $GPRMC,230556,A,3946.9714,N,08404.9853,W,0.0000,0.000,011217,,*30
2017-12-01 18:05:55 1512169555.406904: $GPGSA,A,3,3,14,16,22,29,25,26,31,32,1,10,138,2.0,0.6,1.5*02
2017-12-01 18:05:56 1512169556.371056: $GPZDA,230557.00,01,12,2017,00,00*66
2017-12-01 18:05:56 1512169556.371226: $GPGGA,230557,3946.9714,N,08404.9853,W,2,12,0.60,294.32,M,-33.325,M,,*7B
2017-12-01 18:05:56 1512169556.371293: $GPRMC,230557,A,3946.9714,N,08404.9853,W,0.0000,0.000,011217,,*31
2017-12-01 18:05:56 1512169556.371452: $GPGSA,A,3,3,14,16,22,29,25,26,31,32,1,10,138,2.0,0.6,1.5*02
2017-12-01 18:05:57 1512169557.740574: $GPGSV,3,1,12,03,35,306,46,14,61,079,43,16,15,189,41,22,49,283,46*71
2017-12-01 18:05:57 1512169557.740756: $GPGSV,3,2,12,29,07,079,27,25,24,043,44,26,44,174,45,31,74,009,46*77
2017-12-01 18:05:57 1512169557.740824: $GPGSV,3,3,12,32,42,100,43,01,10,259,29,23,05,297,41,138,38,213,46*40
2017-12-01 18:05:57 1512169557.853964: $GPZDA,230558.00,01,12,2017,00,00*69
2017-12-01 18:05:57 1512169557.854135: $GPGGA,230558,3946.9714,N,08404.9853,W,2,12,0.60,294.32,M,-33.325,M,,*74
2017-12-01 18:05:57 1512169557.854252: $GPRMC,230558,A,3946.9714,N,08404.9853,W,0.0000,0.000,011217,,*3E
2017-12-01 18:05:57 1512169557.854315: $GPGSA,A,3,3,14,16,22,29,25,26,31,32,1,23,138,2.0,0.6,1.5*02
2017-12-01 18:05:58 1512169558.479264: $GPZDA,230559.00,01,12,2017,00,00*68
2017-12-01 18:05:58 1512169558.479434: $GPGGA,230559,3946.9714,N,08404.9853,W,2,12,0.80,294.32,M,-33.325,M,,*7B
2017-12-01 18:05:58 1512169558.479501: $GPRMC,230559,A,3946.9714,N,08404.9853,W,0.0000,0.000,011217,,*3F
2017-12-01 18:05:58 1512169558.479562: $GPGSA,A,3,3,14,16,22,29,25,26,31,32,1,23,138,2.0,0.8,1.5*0C
2017-12-01 18:05:59 1512169559.376473: $GPZDA,230600.00,01,12,2017,00,00*67
2017-12-01 18:05:59 1512169559.376646: $GPGGA,230600,3946.9714,N,08404.9853,W,2,12,0.60,294.32,M,-33.325,M,,*7A
2017-12-01 18:05:59 1512169559.376712: $GPRMC,230600,A,3946.9714,N,08404.9853,W,0.0000,0.000,011217,,*30
2017-12-01 18:05:59 1512169559.376774: $GPGSA,A,3,3,14,16,22,29,25,26,31,32,1,23,138,2.0,0.6,1.5*02
2017-12-01 18:06:00 1512169560.712117: $GPGSV,3,1,12,03,35,306,46,14,61,079,43,16,15,189,41,22,49,283,47*70
2017-12-01 18:06:00 1512169560.712310: $GPGSV,3,2,12,29,07,079,27,25,24,043,43,26,44,174,45,31,74,009,46*70
2017-12-01 18:06:00 1512169560.712379: $GPGSV,3,3,12,32,42,100,42,01,10,259,29,23,05,297,41,138,38,213,45*42
2017-12-01 18:06:00 1512169560.825816: $GPZDA,230601.00,01,12,2017,00,00*66
2017-12-01 18:06:00 1512169560.825951: $GPGGA,230601,3946.9714,N,08404.9853,W,2,12,0.60,294.32,M,-33.325,M,,*7B
2017-12-01 18:06:00 1512169560.826017: $GPRMC,230601,A,3946.9714,N,08404.9853,W,0.0000,0.000,011217,,*31
2017-12-01 18:06:00 1512169560.826079: $GPGSA,A,3,3,14,16,22,29,25,26,31,32,1,23,138,2.0,0.6,1.5*02
2017-12-01 18:06:01 1512169561.377631: $GPZDA,230602.00,01,12,2017,00,00*65
2017-12-01 18:06:01 1512169561.377808: $GPGGA,230602,3946.9714,N,08404.9853,W,2,12,0.60,294.32,M,-33.325,M,,*78
2017-12-01 18:06:01 1512169561.377895: $GPRMC,230602,A,3946.9714,N,08404.9853,W,0.0000,0.000,011217,,*32
2017-12-01 18:06:01 1512169561.377957: $GPGSA,A,3,3,14,16,22,29,25,26,31,32,1,23,138,2.0,0.6,1.5*02
2017-12-01 18:06:02 1512169562.374808: $GPZDA,230603.00,01,12,2017,00,00*64
2017-12-01 18:06:02 1512169562.374980: $GPGGA,230603,3946.9714,N,08404.9853,W,2,12,0.60,294.32,M,-33.325,M,,*79
2017-12-01 18:06:02 1512169562.375046: $GPRMC,230603,A,3946.9714,N,08404.9853,W,0.0000,0.000,011217,,*33
2017-12-01 18:06:02 1512169562.375107: $GPGSA,A,3,3,14,16,22,29,25,26,31,32,1,23,138,2.0,0.6,1.5*02
2017-12-01 18:06:03 1512169563.712412: $GPGSV,3,1,12,03,35,306,46,14,61,079,43,16,15,189,42,22,49,283,46*72
2017-12-01 18:06:03 1512169563.712596: $GPGSV,3,2,12,29,07,079,21,25,24,043,43,26,44,174,46,31,74,009,47*74
2017-12-01 18:06:03 1512169563.712663: $GPGSV,3,3,12,32,42,100,42,01,10,259,28,23,05,297,40,138,38,213,46*41
2017-12-01 18:06:03 1512169563.825807: $GPZDA,230604.00,01,12,2017,00,00*63
2017-12-01 18:06:03 1512169563.825970: $GPGGA,230604,3946.9714,N,08404.9853,W,2,12,0.60,294.32,M,-33.325,M,,*7E
2017-12-01 18:06:03 1512169563.826035: $GPRMC,230604,A,3946.9714,N,08404.9853,W,0.0000,0.000,011217,,*34
2017-12-01 18:06:03 1512169563.826096: $GPGSA,A,3,3,14,16,22,29,25,26,31,32,1,23,138,2.0,0.6,1.5*02
2017-12-01 18:06:04 1512169564.385383: $GPZDA,230605.00,01,12,2017,00,00*62
2017-12-01 18:06:04 1512169564.385556: $GPGGA,230605,3946.9714,N,08404.9853,W,2,12,0.80,294.32,M,-33.325,M,,*71
2017-12-01 18:06:04 1512169564.385622: $GPRMC,230605,A,3946.9714,N,08404.9853,W,0.0000,0.000,011217,,*35
2017-12-01 18:06:04 1512169564.385702: $GPGSA,A,3,3,14,16,22,29,25,26,31,32,1,23,138,2.0,0.8,1.5*0C
2017-12-01 18:06:05 1512169565.376252: $GPZDA,230606.00,01,12,2017,00,00*61
2017-12-01 18:06:05 1512169565.376468: $GPGGA,230606,3946.9714,N,08404.9853,W,2,12,0.60,294.32,M,-33.325,M,,*7C
2017-12-01 18:06:05 1512169565.376563: $GPRMC,230606,A,3946.9714,N,08404.9853,W,0.0000,0.000,011217,,*36
2017-12-01 18:06:05 1512169565.376630: $GPGSA,A,3,3,14,16,22,29,25,26,31,32,1,23,138,2.0,0.6,1.5*02
2017-12-01 18:06:06 1512169566.709480: $GPGSV,3,1,12,03,35,306,46,14,61,079,42,16,15,189,42,22,49,283,46*73
2017-12-01 18:06:06 1512169566.709664: $GPGSV,3,2,12,29,07,079,17,25,24,043,43,26,44,174,46,31,74,009,46*70
2017-12-01 18:06:06 1512169566.709730: $GPGSV,3,3,12,32,42,100,42,01,10,259,28,10,05,159,10,138,38,213,46*45
2017-12-01 18:06:06 1512169566.822827: $GPZDA,230607.00,01,12,2017,00,00*60
2017-12-01 18:06:06 1512169566.822966: $GPGGA,230607,3946.9714,N,08404.9853,W,2,11,0.80,294.32,M,-33.325,M,,*70
2017-12-01 18:06:06 1512169566.823033: $GPRMC,230607,A,3946.9714,N,08404.9853,W,0.0000,0.000,011217,,*37
2017-12-01 18:06:06 1512169566.823094: $GPGSA,A,3,3,14,16,22,29,25,26,31,32,1,138,,2.0,0.8,1.5*0D
2017-12-01 18:06:07 1512169567.377823: $GPZDA,230608.00,01,12,2017,00,00*6F
2017-12-01 18:06:07 1512169567.377992: $GPGGA,230608,3946.9714,N,08404.9853,W,2,11,0.60,294.32,M,-33.325,M,,*71
2017-12-01 18:06:07 1512169567.378060: $GPRMC,230608,A,3946.9714,N,08404.9853,W,0.0000,0.000,011217,,*38
2017-12-01 18:06:07 1512169567.378121: $GPGSA,A,3,3,14,16,22,29,25,26,31,32,1,138,,2.0,0.6,1.5*03
2017-12-01 18:06:08 1512169568.376585: $GPZDA,230609.00,01,12,2017,00,00*6E
2017-12-01 18:06:08 1512169568.376759: $GPGGA,230609,3946.9714,N,08404.9853,W,2,11,0.60,294.32,M,-33.325,M,,*70
2017-12-01 18:06:08 1512169568.376827: $GPRMC,230609,A,3946.9714,N,08404.9853,W,0.0000,0.000,011217,,*39
2017-12-01 18:06:08 1512169568.376889: $GPGSA,A,3,3,14,16,22,29,25,26,31,32,1,138,,2.0,0.6,1.5*03
2017-12-01 18:06:09 1512169569.713567: $GPGSV,3,1,12,03,35,306,46,14,61,079,42,16,15,189,42,22,49,283,46*73
2017-12-01 18:06:09 1512169569.713753: $GPGSV,3,2,12,29,07,079,17,25,24,043,42,26,44,174,45,31,74,009,46*72
2017-12-01 18:06:09 1512169569.713840: $GPGSV,3,3,12,32,42,100,42,01,10,259,27,10,05,159,21,138,38,213,46*48
2017-12-01 18:06:09 1512169569.827106: $GPZDA,230610.00,01,12,2017,00,00*66
2017-12-01 18:06:09 1512169569.827273: $GPGGA,230610,3946.9714,N,08404.9853,W,2,12,0.60,294.32,M,-33.325,M,,*7B
2017-12-01 18:06:09 1512169569.827339: $GPRMC,230610,A,3946.9714,N,08404.9853,W,0.0000,0.000,011217,,*31
2017-12-01 18:06:09 1512169569.827400: $GPGSA,A,3,3,14,16,22,29,25,26,31,32,1,10,138,2.0,0.6,1.5*02
2017-12-01 18:06:10 1512169570.377854: $GPZDA,230611.00,01,12,2017,00,00*67
2017-12-01 18:06:10 1512169570.378045: $GPGGA,230611,3946.9714,N,08404.9853,W,2,12,0.80,294.32,M,-33.325,M,,*74
2017-12-01 18:06:10 1512169570.379320: $GPRMC,230611,A,3946.9714,N,08404.9853,W,0.0000,0.000,011217,,*30
2017-12-01 18:06:10 1512169570.379422: $GPGSA,A,3,3,14,16,22,29,25,26,31,32,1,10,138,2.0,0.8,1.5*0C
