2018-01-11 19:53:19 1515718399.909243: {"class":"VERSION","release":"3.16","rev":"3.16-4","proto_major":3,"proto_minor":11}
2018-01-11 19:53:19 1515718399.909605: {"class":"DEVICES","devices":[{"class":"DEVICE","path":"/dev/ttyUSB0","driver":"SiRF","subtype":"9\u0006GSD4e_4.1.2-P1_RPATCH.05-F-GPS-4R-1510281 11/03/2015 307","activated":"2018-01-12T00:53:19.806Z","flags":1,"native":1,"bps":4800,"parity":"N","stopbits":1,"cycle":1.00}]}
2018-01-11 19:53:19 1515718399.909718: {"class":"WATCH","enable":true,"json":false,"nmea":true,"raw":0,"scaled":false,"timing":false,"split24":false,"pps":false}
2018-01-11 19:53:19 1515718399.919440: $GPZDA,005320.61,12,01,2018,00,00*6C
2018-01-11 19:53:19 1515718399.919544: $GPGGA,005320,3946.9557,N,08404.9782,W,1,11,0.80,294.95,M,-33.324,M,,*7D
2018-01-11 19:53:19 1515718399.919608: $GPRMC,005320,A,3946.9557,N,08404.9782,W,0.8051,140.841,120118,,*3E
2018-01-11 19:53:19 1515718399.919668: $GPGSA,A,3,7,8,9,16,23,27,30,11,26,28,138,,4.0,0.8,3.5*3A
2018-01-11 19:53:19 1515718399.919726: $GPGBS,005320,14.62,M,24.83,M,80.38,M*05
2018-01-11 19:53:21 1515718401.001078: $GPZDA,005321.29,12,01,2018,00,00*61
2018-01-11 19:53:21 1515718401.001234: $GPGGA,005321,3946.9557,N,08404.9782,W,1,11,0.80,294.95,M,-33.324,M,,*7C
2018-01-11 19:53:21 1515718401.001300: $GPRMC,005321,A,3946.9557,N,08404.9782,W,0.2710,100.223,120118,,*3D
2018-01-11 19:53:21 1515718401.001361: $GPGSA,A,3,7,8,9,16,23,27,30,11,26,28,138,,4.0,0.8,3.5*3A
2018-01-11 19:53:22 1515718402.143417: $GPGSV,3,1,11,07,48,312,41,08,67,151,47,09,53,240,45,11,13,171,34*70
2018-01-11 19:53:22 1515718402.143608: $GPGSV,3,2,11,16,29,055,46,23,37,192,48,27,53,061,50,30,22,303,36*72
2018-01-11 19:53:22 1515718402.143676: $GPGSV,3,3,11,28,08,252,33,26,04,067,08,138,38,213,00*76
2018-01-11 19:53:22 1515718402.257044: $GPZDA,005322.00,12,01,2018,00,00*69
2018-01-11 19:53:22 1515718402.257215: $GPGGA,005322,3946.9557,N,08404.9782,W,1,10,0.80,294.95,M,-33.324,M,,*7E
2018-01-11 19:53:22 1515718402.257281: $GPRMC,005322,A,3946.9557,N,08404.9782,W,0.1567,9.200,120118,,*36
2018-01-11 19:53:22 1515718402.257343: $GPGSA,A,3,7,8,9,11,16,23,27,30,28,26,,,4.0,0.8,3.5*00
2018-01-11 19:53:22 1515718402.707881: $GPZDA,005323.00,12,01,2018,00,00*68
2018-01-11 19:53:22 1515718402.708027: $GPGGA,005323,3946.9561,N,08404.9788,W,1,10,0.80,294.11,M,-33.324,M,,*7C
2018-01-11 19:53:22 1515718402.708094: $GPRMC,005323,A,3946.9561,N,08404.9788,W,0.0000,0.000,120118,,*36
2018-01-11 19:53:22 1515718402.708155: $GPGSA,A,3,7,8,9,11,16,23,27,30,28,26,,,4.0,0.8,3.5*00
2018-01-11 19:53:23 1515718403.407534: $GPZDA,005324.00,12,01,2018,00,00*6F
2018-01-11 19:53:23 1515718403.407702: $GPGGA,005324,3946.9561,N,08404.9788,W,1,10,0.80,294.11,M,-33.324,M,,*7B
2018-01-11 19:53:23 1515718403.407768: $GPRMC,005324,A,3946.9561,N,08404.9788,W,0.0000,0.000,120118,,*31
2018-01-11 19:53:23 1515718403.407829: $GPGSA,A,3,7,8,9,11,16,23,27,30,28,26,,,4.0,0.8,3.5*00
2018-01-11 19:53:24 1515718404.744997: $GPGSV,3,1,11,07,48,312,41,08,67,151,47,09,53,240,45,11,13,171,34*70
2018-01-11 19:53:24 1515718404.745155: $GPGSV,3,2,11,16,29,055,46,23,37,192,48,27,53,061,50,30,22,303,37*73
2018-01-11 19:53:24 1515718404.745222: $GPGSV,3,3,11,28,08,252,34,26,04,067,19,138,38,213,46*73
2018-01-11 19:53:24 1515718404.858596: $GPZDA,005325.00,12,01,2018,00,00*6E
2018-01-11 19:53:24 1515718404.858727: $GPGGA,005325,3946.9561,N,08404.9795,W,1,11,0.80,294.03,M,-33.324,M,,*74
2018-01-11 19:53:24 1515718404.858791: $GPRMC,005325,A,3946.9561,N,08404.9795,W,0.0000,0.000,120118,,*3C
2018-01-11 19:53:24 1515718404.858853: $GPGSA,A,3,7,8,9,11,16,23,27,30,28,26,138,,4.0,0.8,3.5*3A
2018-01-11 19:53:25 1515718405.409573: $GPZDA,005326.00,12,01,2018,00,00*6D
2018-01-11 19:53:25 1515718405.409735: $GPGGA,005326,3946.9569,N,08404.9795,W,1,11,0.80,293.90,M,-33.324,M,,*72
2018-01-11 19:53:25 1515718405.409801: $GPRMC,005326,A,3946.9569,N,08404.9795,W,0.0000,0.000,120118,,*37
2018-01-11 19:53:25 1515718405.409863: $GPGSA,A,3,7,8,9,11,16,23,27,30,28,26,138,,4.0,0.8,3.5*3A
2018-01-11 19:53:26 1515718406.409012: $GPZDA,005327.00,12,01,2018,00,00*6C
2018-01-11 19:53:26 1515718406.409276: $GPGGA,005327,3946.9569,N,08404.9795,W,1,11,0.80,293.90,M,-33.324,M,,*73
2018-01-11 19:53:26 1515718406.409344: $GPRMC,005327,A,3946.9569,N,08404.9795,W,0.0000,0.000,120118,,*36
2018-01-11 19:53:26 1515718406.409405: $GPGSA,A,3,7,8,9,11,16,23,27,30,28,26,138,,4.0,0.8,3.5*3A
2018-01-11 19:53:26 1515718406.409464: $GPGBS,005327,14.62,M,24.83,M,80.38,M*02
2018-01-11 19:53:27 1515718407.745714: $GPGSV,3,1,11,07,48,312,41,08,67,151,47,09,53,240,44,11,13,171,34*71
2018-01-11 19:53:27 1515718407.745902: $GPGSV,3,2,11,16,29,055,46,23,37,192,48,27,53,061,50,30,22,303,37*73
2018-01-11 19:53:27 1515718407.745970: $GPGSV,3,3,11,28,08,252,33,26,04,067,19,138,38,213,46*74
2018-01-11 19:53:27 1515718407.859361: $GPZDA,005328.00,12,01,2018,00,00*63
2018-01-11 19:53:27 1515718407.859494: $GPGGA,005328,3946.9585,N,08404.9821,W,2,11,2.60,293.34,M,-33.324,M,,*7F
2018-01-11 19:53:27 1515718407.859559: $GPRMC,005328,A,3946.9585,N,08404.9821,W,0.0000,0.000,120118,,*3B
2018-01-11 19:53:27 1515718407.859620: $GPGSA,A,3,7,8,9,11,16,23,27,30,28,26,138,,4.0,2.6,3.5*36
2018-01-11 19:53:28 1515718408.409989: $GPZDA,005329.00,12,01,2018,00,00*62
2018-01-11 19:53:28 1515718408.410153: $GPGGA,005329,3946.9585,N,08404.9821,W,2,11,1.20,293.34,M,-33.324,M,,*79
2018-01-11 19:53:28 1515718408.410222: $GPRMC,005329,A,3946.9585,N,08404.9821,W,0.0000,0.000,120118,,*3A
2018-01-11 19:53:28 1515718408.410283: $GPGSA,A,3,7,8,9,11,16,23,27,30,28,26,138,,4.0,1.2,3.5*31
