2017-12-31 18:40:28 1514763628.486236: {"class":"VERSION","release":"3.16","rev":"3.16-4","proto_major":3,"proto_minor":11}
2017-12-31 18:40:28 1514763628.486578: {"class":"DEVICES","devices":[{"class":"DEVICE","path":"/dev/ttyUSB0","driver":"SiRF","activated":"2017-12-31T23:40:28.468Z","flags":1,"native":1,"bps":4800,"parity":"N","stopbits":1,"cycle":1.00}]}
2017-12-31 18:40:28 1514763628.486679: {"class":"WATCH","enable":true,"json":false,"nmea":true,"raw":0,"scaled":false,"timing":false,"split24":false,"pps":false}
2017-12-31 18:40:29 1514763629.354200: $GPZDA,234030.00,31,12,2017,00,00*65
2017-12-31 18:40:29 1514763629.354370: $GPGGA,234030,3946.9585,N,08404.9836,W,2,11,0.80,307.43,M,-33.324,M,,*73
2017-12-31 18:40:29 1514763629.354436: $GPRMC,234030,A,3946.9585,N,08404.9836,W,0.0000,0.000,311217,,*3B
2017-12-31 18:40:29 1514763629.354497: $GPGSA,A,3,22,23,9,3,16,8,31,27,7,26,135,,1.7,0.8,1.3*09
2017-12-31 18:40:30 1514763630.724305: $GPGSV,3,1,12,22,11,205,06,23,65,291,41,09,32,310,41,03,21,223,37*7C
2017-12-31 18:40:30 1514763630.724460: $GPGSV,3,2,12,16,82,039,42,08,12,177,26,14,03,139,00,31,19,085,38*75
2017-12-31 18:40:30 1514763630.724525: $GPGSV,3,3,12,27,35,145,39,07,07,282,43,26,48,046,44,135,22,240,43*40
2017-12-31 18:40:30 1514763630.837990: $GPZDA,234031.00,31,12,2017,00,00*64
2017-12-31 18:40:30 1514763630.838158: $GPGGA,234031,3946.9585,N,08404.9836,W,2,11,0.80,307.43,M,-33.324,M,,*72
2017-12-31 18:40:30 1514763630.838225: $GPRMC,234031,A,3946.9585,N,08404.9836,W,0.0000,0.000,311217,,*3A
2017-12-31 18:40:30 1514763630.838286: $GPGSA,A,3,22,23,9,3,16,8,31,27,7,26,135,,1.7,0.8,1.3*09
2017-12-31 18:40:31 1514763631.527651: $GPZDA,234032.00,31,12,2017,00,00*67
2017-12-31 18:40:31 1514763631.527822: $GPGGA,234032,3946.9585,N,08404.9836,W,2,11,0.80,307.43,M,-33.324,M,,*71
2017-12-31 18:40:31 1514763631.527888: $GPRMC,234032,A,3946.9585,N,08404.9836,W,0.0000,0.000,311217,,*39
2017-12-31 18:40:31 1514763631.527949: $GPGSA,A,3,22,23,9,3,16,8,31,27,7,26,135,,1.7,0.8,1.3*09
2017-12-31 18:40:31 1514763631.528007: $GPGBS,234032,2.22,M,3.43,M,7.66,M*3B
2017-12-31 18:40:32 1514763632.388222: $GPZDA,234033.00,31,12,2017,00,00*66
2017-12-31 18:40:32 1514763632.388405: $GPGGA,234033,3946.9585,N,08404.9836,W,2,11,0.80,307.43,M,-33.324,M,,*70
2017-12-31 18:40:32 1514763632.388474: $GPRMC,234033,A,3946.9585,N,08404.9836,W,0.0000,0.000,311217,,*38
2017-12-31 18:40:32 1514763632.388535: $GPGSA,A,3,22,23,9,3,16,8,31,27,7,26,135,,1.7,0.8,1.3*09
2017-12-31 18:40:32 1514763632.388593: $GPGBS,234033,2.22,M,3.43,M,7.66,M*3A
2017-12-31 18:40:33 1514763633.725114: $GPGSV,3,1,12,22,11,205,15,23,66,289,40,09,33,310,41,03,21,223,37*74
2017-12-31 18:40:33 1514763633.725295: $GPGSV,3,2,12,16,81,039,43,08,13,177,26,14,02,139,00,31,19,085,38*77
2017-12-31 18:40:33 1514763633.725362: $GPGSV,3,3,12,27,36,145,39,07,08,282,43,26,48,046,44,135,22,240,44*4B
2017-12-31 18:40:33 1514763633.838933: $GPZDA,234034.00,31,12,2017,00,00*61
2017-12-31 18:40:33 1514763633.839100: $GPGGA,234034,3946.9581,N,08404.9836,W,2,11,0.80,306.79,M,-33.324,M,,*7B
2017-12-31 18:40:33 1514763633.839166: $GPRMC,234034,A,3946.9581,N,08404.9836,W,0.0000,0.000,311217,,*3B
2017-12-31 18:40:33 1514763633.839226: $GPGSA,A,3,22,23,9,3,16,8,31,27,7,26,135,,1.7,0.8,1.3*09
2017-12-31 18:40:34 1514763634.354637: $GPZDA,234035.00,31,12,2017,00,00*60
2017-12-31 18:40:34 1514763634.354804: $GPGGA,234035,3946.9581,N,08404.9836,W,2,11,0.80,306.79,M,-33.324,M,,*7A
2017-12-31 18:40:34 1514763634.354869: $GPRMC,234035,A,3946.9581,N,08404.9836,W,0.0000,0.000,311217,,*3A
2017-12-31 18:40:34 1514763634.354930: $GPGSA,A,3,22,23,9,3,16,8,31,27,7,26,135,,1.7,0.8,1.3*09
2017-12-31 18:40:35 1514763635.355138: $GPZDA,234036.00,31,12,2017,00,00*63
2017-12-31 18:40:35 1514763635.355312: $GPGGA,234036,3946.9581,N,08404.9836,W,2,11,0.80,306.79,M,-33.324,M,,*79
2017-12-31 18:40:35 1514763635.355377: $GPRMC,234036,A,3946.9581,N,08404.9836,W,0.0000,0.000,311217,,*39
2017-12-31 18:40:35 1514763635.355438: $GPGSA,A,3,22,23,9,3,16,8,31,27,7,26,135,,1.7,0.8,1.3*09
2017-12-31 18:40:36 1514763636.689231: $GPGSV,3,1,12,22,11,205,23,23,66,289,39,09,33,310,41,03,21,223,37*7F
2017-12-31 18:40:36 1514763636.689431: $GPGSV,3,2,12,16,81,039,43,08,13,177,27,14,02,139,00,31,19,085,37*79
2017-12-31 18:40:36 1514763636.689499: $GPGSV,3,3,12,27,36,145,39,07,08,282,43,26,48,046,44,135,22,240,44*4B
2017-12-31 18:40:36 1514763636.802830: $GPZDA,234037.00,31,12,2017,00,00*62
2017-12-31 18:40:36 1514763636.802976: $GPGGA,234037,3946.9581,N,08404.9836,W,2,11,0.80,306.79,M,-33.324,M,,*78
2017-12-31 18:40:36 1514763636.803040: $GPRMC,234037,A,3946.9581,N,08404.9836,W,0.0000,0.000,311217,,*38
2017-12-31 18:40:36 1514763636.803099: $GPGSA,A,3,22,23,9,3,16,8,31,27,7,26,135,,1.7,0.8,1.3*09
2017-12-31 18:40:37 1514763637.347576: $GPZDA,234038.00,31,12,2017,00,00*6D
2017-12-31 18:40:37 1514763637.347741: $GPGGA,234038,3946.9581,N,08404.9836,W,2,11,0.80,306.79,M,-33.324,M,,*77
2017-12-31 18:40:37 1514763637.347808: $GPRMC,234038,A,3946.9581,N,08404.9836,W,0.0000,0.000,311217,,*37
2017-12-31 18:40:37 1514763637.347868: $GPGSA,A,3,22,23,9,3,16,8,31,27,7,26,135,,1.7,0.8,1.3*09
2017-12-31 18:40:38 1514763638.353351: $GPZDA,234039.00,31,12,2017,00,00*6C
2017-12-31 18:40:38 1514763638.353513: $GPGGA,234039,3946.9581,N,08404.9836,W,2,11,0.80,306.79,M,-33.324,M,,*76
2017-12-31 18:40:38 1514763638.353579: $GPRMC,234039,A,3946.9581,N,08404.9836,W,0.0000,0.000,311217,,*36
2017-12-31 18:40:38 1514763638.353640: $GPGSA,A,3,22,23,9,3,16,8,31,27,7,26,135,,1.7,0.8,1.3*09
