2017-11-16 14:23:23 1510860203.065761: {"class":"VERSION","release":"3.17","rev":"3.17","proto_major":3,"proto_minor":12}
2017-11-16 14:23:23 1510860203.066259: {"class":"DEVICES","devices":[{"class":"DEVICE","path":"/dev/ttyUSB0","driver":"SiRF","subtype":"9\u0006GSD4e_4.1.2-P1_RPATCH.05-F-GPS-4R-1510281 11/03/2015 307","activated":"2017-11-16T19:23:22.643Z","flags":1,"native":1,"bps":4800,"parity":"N","stopbits":1,"cycle":1.00}]}
2017-11-16 14:23:23 1510860203.066392: {"class":"WATCH","enable":true,"json":false,"nmea":true,"raw":0,"scaled":false,"timing":false,"split24":false,"pps":false}
2017-11-16 14:23:23 1510860203.533580: $GPZDA,192322.00,16,11,2017,00,00*6C
2017-11-16 14:23:23 1510860203.533746: $GPGGA,192322,3946.9565,N,08404.9850,W,2,12,0.80,304.07,M,-33.324,M,,*72
2017-11-16 14:23:23 1510860203.533807: $GPRMC,192322,A,3946.9565,N,08404.9850,W,0.0000,0.000,161117,,*3C
2017-11-16 14:23:23 1510860203.533863: $GPGSA,A,3,8,10,13,15,18,21,20,24,27,32,14,138,1.6,0.8,1.3*35
2017-11-16 14:23:24 1510860204.833844: $GPGSV,3,1,12,08,07,318,19,10,44,304,48,13,05,049,22,15,34,054,49*7A
2017-11-16 14:23:24 1510860204.834004: $GPGSV,3,2,12,18,73,346,46,21,60,187,45,20,30,099,46,24,52,103,48*73
2017-11-16 14:23:24 1510860204.834064: $GPGSV,3,3,12,27,18,285,43,32,23,241,43,14,07,234,31,138,38,213,45*4B
2017-11-16 14:23:24 1510860204.947215: $GPZDA,192323.00,16,11,2017,00,00*6D
2017-11-16 14:23:24 1510860204.947387: $GPGGA,192323,3946.9565,N,08404.9850,W,2,12,0.80,304.07,M,-33.324,M,,*73
2017-11-16 14:23:24 1510860204.947449: $GPRMC,192323,A,3946.9565,N,08404.9850,W,0.0000,0.000,161117,,*3D
2017-11-16 14:23:24 1510860204.947505: $GPGSA,A,3,8,10,13,15,18,21,20,24,27,32,14,138,1.6,0.8,1.3*35
2017-11-16 14:23:25 1510860205.496883: $GPZDA,192324.00,16,11,2017,00,00*6A
2017-11-16 14:23:25 1510860205.497084: $GPGGA,192324,3946.9565,N,08404.9850,W,2,12,0.80,304.07,M,-33.324,M,,*74
2017-11-16 14:23:25 1510860205.497147: $GPRMC,192324,A,3946.9565,N,08404.9850,W,0.0000,0.000,161117,,*3A
2017-11-16 14:23:25 1510860205.497230: $GPGSA,A,3,8,10,13,15,18,21,20,24,27,32,14,138,1.6,0.8,1.3*35
2017-11-16 14:23:26 1510860206.496506: $GPZDA,192325.00,16,11,2017,00,00*6B
2017-11-16 14:23:26 1510860206.496667: $GPGGA,192325,3946.9565,N,08404.9850,W,2,12,0.80,304.07,M,-33.324,M,,*75
2017-11-16 14:23:26 1510860206.496727: $GPRMC,192325,A,3946.9565,N,08404.9850,W,0.0000,0.000,161117,,*3B
2017-11-16 14:23:26 1510860206.496783: $GPGSA,A,3,8,10,13,15,18,21,20,24,27,32,14,138,1.6,0.8,1.3*35
2017-11-16 14:23:27 1510860207.837264: $GPGSV,3,1,12,08,07,318,28,10,44,304,48,13,05,049,22,15,34,054,48*79
2017-11-16 14:23:27 1510860207.837425: $GPGSV,3,2,12,18,73,346,46,21,60,187,45,20,30,099,46,24,52,103,48*73
2017-11-16 14:23:27 1510860207.837484: $GPGSV,3,3,12,27,18,285,43,32,23,241,43,14,07,234,31,138,38,213,45*4B
2017-11-16 14:23:27 1510860207.950672: $GPZDA,192326.00,16,11,2017,00,00*68
2017-11-16 14:23:27 1510860207.950837: $GPGGA,192326,3946.9565,N,08404.9850,W,2,12,0.80,304.07,M,-33.324,M,,*76
2017-11-16 14:23:27 1510860207.950898: $GPRMC,192326,A,3946.9565,N,08404.9850,W,0.0000,0.000,161117,,*38
2017-11-16 14:23:27 1510860207.950955: $GPGSA,A,3,8,10,13,15,18,21,20,24,27,32,14,138,1.6,0.8,1.3*35
2017-11-16 14:23:28 1510860208.501629: $GPZDA,192327.00,16,11,2017,00,00*69
2017-11-16 14:23:28 1510860208.501817: $GPGGA,192327,3946.9565,N,08404.9850,W,2,12,0.80,304.07,M,-33.324,M,,*77
2017-11-16 14:23:28 1510860208.501883: $GPRMC,192327,A,3946.9565,N,08404.9850,W,0.0000,0.000,161117,,*39
2017-11-16 14:23:28 1510860208.501940: $GPGSA,A,3,8,10,13,15,18,21,20,24,27,32,14,138,1.6,0.8,1.3*35
2017-11-16 14:23:29 1510860209.533113: $GPZDA,192328.00,16,11,2017,00,00*66
2017-11-16 14:23:29 1510860209.533279: $GPGGA,192328,3946.9565,N,08404.9850,W,2,12,0.80,304.07,M,-33.324,M,,*78
2017-11-16 14:23:29 1510860209.533341: $GPRMC,192328,A,3946.9565,N,08404.9850,W,0.0000,0.000,161117,,*36
2017-11-16 14:23:29 1510860209.533416: $GPGSA,A,3,8,10,13,15,18,21,20,24,27,32,14,138,1.6,0.8,1.3*35
2017-11-16 14:23:30 1510860210.833995: $GPGSV,3,1,12,08,07,318,30,10,44,304,47,13,05,049,22,15,34,054,48*7F
2017-11-16 14:23:30 1510860210.834401: $GPGSV,3,2,12,18,73,346,46,21,60,187,45,20,30,099,45,24,52,103,48*70
2017-11-16 14:23:30 1510860210.834504: $GPGSV,3,3,12,27,18,285,43,32,23,241,44,14,07,234,31,138,38,213,45*4C
2017-11-16 14:23:30 1510860210.947324: $GPZDA,192329.00,16,11,2017,00,00*67
2017-11-16 14:23:30 1510860210.947483: $GPGGA,192329,3946.9565,N,08404.9850,W,2,12,0.80,304.07,M,-33.324,M,,*79
2017-11-16 14:23:30 1510860210.947544: $GPRMC,192329,A,3946.9565,N,08404.9850,W,0.0000,0.000,161117,,*37
2017-11-16 14:23:30 1510860210.947599: $GPGSA,A,3,8,10,13,15,18,21,20,24,27,32,14,138,1.6,0.8,1.3*35
2017-11-16 14:23:31 1510860211.533123: $GPZDA,192330.00,16,11,2017,00,00*6F
2017-11-16 14:23:31 1510860211.533303: $GPGGA,192330,3946.9565,N,08404.9850,W,2,12,0.80,304.07,M,-33.324,M,,*71
2017-11-16 14:23:31 1510860211.533364: $GPRMC,192330,A,3946.9565,N,08404.9850,W,0.0000,0.000,161117,,*3F
2017-11-16 14:23:31 1510860211.533420: $GPGSA,A,3,8,10,13,15,18,21,20,24,27,32,14,138,1.6,0.8,1.3*35
2017-11-16 14:23:32 1510860212.527878: $GPZDA,192331.00,16,11,2017,00,00*6E
2017-11-16 14:23:32 1510860212.528055: $GPGGA,192331,3946.9565,N,08404.9850,W,2,12,0.80,304.07,M,-33.324,M,,*70
2017-11-16 14:23:32 1510860212.528117: $GPRMC,192331,A,3946.9565,N,08404.9850,W,0.0000,0.000,161117,,*3E
2017-11-16 14:23:32 1510860212.528190: $GPGSA,A,3,8,10,13,15,18,21,20,24,27,32,14,138,1.6,0.8,1.3*35
2017-11-16 14:23:33 1510860213.869849: $GPGSV,3,1,12,08,07,318,31,10,44,304,47,13,05,049,22,15,34,054,48*7E
2017-11-16 14:23:33 1510860213.870019: $GPGSV,3,2,12,18,73,346,46,21,60,187,45,20,30,099,45,24,52,103,48*70
2017-11-16 14:23:33 1510860213.870100: $GPGSV,3,3,12,27,18,285,43,32,23,241,44,14,07,234,32,138,38,213,42*48
2017-11-16 14:23:33 1510860213.983229: $GPZDA,192332.00,16,11,2017,00,00*6D
2017-11-16 14:23:33 1510860213.983363: $GPGGA,192332,3946.9565,N,08404.9850,W,2,12,0.80,304.07,M,-33.324,M,,*73
2017-11-16 14:23:33 1510860213.983424: $GPRMC,192332,A,3946.9565,N,08404.9850,W,0.0000,0.000,161117,,*3D
2017-11-16 14:23:33 1510860213.983479: $GPGSA,A,3,8,10,13,15,18,21,20,24,27,32,14,138,1.6,0.8,1.3*35
2017-11-16 14:23:34 1510860214.608978: $GPZDA,192333.00,16,11,2017,00,00*6C
2017-11-16 14:23:34 1510860214.609193: $GPGGA,192333,3946.9565,N,08404.9850,W,2,12,0.80,304.07,M,-33.324,M,,*72
2017-11-16 14:23:34 1510860214.609256: $GPRMC,192333,A,3946.9565,N,08404.9850,W,0.0000,0.000,161117,,*3C
2017-11-16 14:23:34 1510860214.609313: $GPGSA,A,3,8,10,13,15,18,21,20,24,27,32,14,138,1.6,0.8,1.3*35
2017-11-16 14:23:35 1510860215.502105: $GPZDA,192334.00,16,11,2017,00,00*6B
2017-11-16 14:23:35 1510860215.502283: $GPGGA,192334,3946.9565,N,08404.9850,W,2,12,0.80,304.07,M,-33.324,M,,*75
2017-11-16 14:23:35 1510860215.502344: $GPRMC,192334,A,3946.9565,N,08404.9850,W,0.0000,0.000,161117,,*3B
2017-11-16 14:23:35 1510860215.502400: $GPGSA,A,3,8,10,13,15,18,21,20,24,27,32,14,138,1.6,0.8,1.3*35
2017-11-16 14:23:36 1510860216.838143: $GPGSV,3,1,12,08,07,318,38,10,44,304,47,13,05,049,22,15,34,054,49*76
2017-11-16 14:23:36 1510860216.838298: $GPGSV,3,2,12,18,73,346,46,21,60,187,45,20,30,099,45,24,52,103,48*70
2017-11-16 14:23:36 1510860216.838358: $GPGSV,3,3,12,27,18,285,43,32,23,241,44,14,07,234,32,138,38,213,43*49
2017-11-16 14:23:36 1510860216.951568: $GPZDA,192335.00,16,11,2017,00,00*6A
2017-11-16 14:23:36 1510860216.951730: $GPGGA,192335,3946.9565,N,08404.9850,W,2,12,0.80,304.07,M,-33.324,M,,*74
2017-11-16 14:23:36 1510860216.951791: $GPRMC,192335,A,3946.9565,N,08404.9850,W,0.0000,0.000,161117,,*3A
2017-11-16 14:23:36 1510860216.951848: $GPGSA,A,3,8,10,13,15,18,21,20,24,27,32,14,138,1.6,0.8,1.3*35
2017-11-16 14:23:37 1510860217.533593: $GPZDA,192336.00,16,11,2017,00,00*69
2017-11-16 14:23:37 1510860217.533760: $GPGGA,192336,3946.9565,N,08404.9850,W,2,12,0.80,304.07,M,-33.324,M,,*77
2017-11-16 14:23:37 1510860217.533843: $GPRMC,192336,A,3946.9565,N,08404.9850,W,0.0000,0.000,161117,,*39
2017-11-16 14:23:37 1510860217.533900: $GPGSA,A,3,8,10,13,15,18,21,20,24,27,32,14,138,1.6,0.8,1.3*35
2017-11-16 14:23:38 1510860218.533088: $GPZDA,192337.00,16,11,2017,00,00*68
2017-11-16 14:23:38 1510860218.533266: $GPGGA,192337,3946.9565,N,08404.9850,W,2,12,0.80,304.07,M,-33.324,M,,*76
2017-11-16 14:23:38 1510860218.533328: $GPRMC,192337,A,3946.9565,N,08404.9850,W,0.0000,0.000,161117,,*38
2017-11-16 14:23:38 1510860218.533384: $GPGSA,A,3,8,10,13,15,18,21,20,24,27,32,14,138,1.6,0.8,1.3*35
2017-11-16 14:23:39 1510860219.868391: $GPGSV,3,1,12,08,07,318,39,10,44,304,47,13,05,049,22,15,34,054,49*77
2017-11-16 14:23:39 1510860219.868555: $GPGSV,3,2,12,18,73,346,46,21,60,187,45,20,30,099,46,24,52,103,48*73
2017-11-16 14:23:39 1510860219.868616: $GPGSV,3,3,12,27,18,285,43,32,23,241,44,14,07,234,33,138,38,213,44*4F
2017-11-16 14:23:39 1510860219.981749: $GPZDA,192338.00,16,11,2017,00,00*67
2017-11-16 14:23:39 1510860219.981917: $GPGGA,192338,3946.9565,N,08404.9850,W,2,12,0.80,304.07,M,-33.324,M,,*79
2017-11-16 14:23:39 1510860219.981979: $GPRMC,192338,A,3946.9565,N,08404.9850,W,0.0000,0.000,161117,,*37
2017-11-16 14:23:39 1510860219.982059: $GPGSA,A,3,8,10,13,15,18,21,20,24,27,32,14,138,1.6,0.8,1.3*35
2017-11-16 14:23:40 1510860220.533865: $GPZDA,192339.00,16,11,2017,00,00*66
2017-11-16 14:23:40 1510860220.534066: $GPGGA,192339,3946.9565,N,08404.9850,W,2,12,0.80,304.07,M,-33.324,M,,*78
2017-11-16 14:23:40 1510860220.534128: $GPRMC,192339,A,3946.9565,N,08404.9850,W,0.0000,0.000,161117,,*36
2017-11-16 14:23:40 1510860220.534201: $GPGSA,A,3,8,10,13,15,18,21,20,24,27,32,14,138,1.6,0.8,1.3*35
2017-11-16 14:23:41 1510860221.533510: $GPZDA,192340.00,16,11,2017,00,00*68
2017-11-16 14:23:41 1510860221.533658: $GPGGA,192340,3946.9565,N,08404.9850,W,2,12,0.80,304.07,M,-33.324,M,,*76
2017-11-16 14:23:41 1510860221.533719: $GPRMC,192340,A,3946.9565,N,08404.9850,W,0.0000,0.000,161117,,*38
2017-11-16 14:23:41 1510860221.533775: $GPGSA,A,3,8,10,13,15,18,21,20,24,27,32,14,138,1.6,0.8,1.3*35
2017-11-16 14:23:42 1510860222.870606: $GPGSV,3,1,12,08,07,318,38,10,44,304,47,13,05,049,17,15,34,054,49*70
2017-11-16 14:23:42 1510860222.870742: $GPGSV,3,2,12,18,73,346,46,21,60,187,46,20,30,099,46,24,52,103,48*70
2017-11-16 14:23:42 1510860222.870802: $GPGSV,3,3,12,27,18,285,43,32,23,241,43,14,07,234,33,138,38,213,44*48
2017-11-16 14:23:42 1510860222.984985: $GPZDA,192341.00,16,11,2017,00,00*69
2017-11-16 14:23:42 1510860222.985290: $GPGGA,192341,3946.9565,N,08404.9850,W,2,12,0.80,304.07,M,-33.324,M,,*77
2017-11-16 14:23:42 1510860222.985354: $GPRMC,192341,A,3946.9565,N,08404.9850,W,0.0000,0.000,161117,,*39
2017-11-16 14:23:42 1510860222.985410: $GPGSA,A,3,8,10,13,15,18,21,20,24,27,32,14,138,1.6,0.8,1.3*35
2017-11-16 14:23:43 1510860223.501057: $GPZDA,192342.00,16,11,2017,00,00*6A
2017-11-16 14:23:43 1510860223.501251: $GPGGA,192342,3946.9565,N,08404.9850,W,2,12,0.80,304.07,M,-33.324,M,,*74
2017-11-16 14:23:43 1510860223.501316: $GPRMC,192342,A,3946.9565,N,08404.9850,W,0.0000,0.000,161117,,*3A
2017-11-16 14:23:43 1510860223.501373: $GPGSA,A,3,8,10,13,15,18,21,20,24,27,32,14,138,1.6,0.8,1.3*35
2017-11-16 14:23:44 1510860224.501400: $GPZDA,192343.00,16,11,2017,00,00*6B
2017-11-16 14:23:44 1510860224.501568: $GPGGA,192343,3946.9565,N,08404.9850,W,2,12,0.80,304.07,M,-33.324,M,,*75
2017-11-16 14:23:44 1510860224.501629: $GPRMC,192343,A,3946.9565,N,08404.9850,W,0.0000,0.000,161117,,*3B
2017-11-16 14:23:44 1510860224.501685: $GPGSA,A,3,8,10,13,15,18,21,20,24,27,32,14,138,1.6,0.8,1.3*35
2017-11-16 14:23:45 1510860225.837184: $GPGSV,3,1,12,08,07,318,39,10,44,304,47,13,05,049,00,15,34,054,50*7F
2017-11-16 14:23:45 1510860225.837343: $GPGSV,3,2,12,18,73,346,46,21,60,187,45,20,30,099,46,24,52,103,48*73
2017-11-16 14:23:45 1510860225.837403: $GPGSV,3,3,12,27,18,285,43,32,23,241,44,14,07,234,34,138,38,213,43*4F
2017-11-16 14:23:45 1510860225.950538: $GPZDA,192344.00,16,11,2017,00,00*6C
2017-11-16 14:23:45 1510860225.950692: $GPGGA,192344,3946.9569,N,08404.9849,W,2,11,0.80,303.30,M,-33.324,M,,*76
2017-11-16 14:23:45 1510860225.950754: $GPRMC,192344,A,3946.9569,N,08404.9849,W,0.0000,0.000,161117,,*38
2017-11-16 14:23:45 1510860225.950810: $GPGSA,A,3,8,10,15,18,21,20,24,27,32,14,138,,1.6,0.8,1.3*37
2017-11-16 14:23:46 1510860226.501440: $GPZDA,192345.00,16,11,2017,00,00*6D
2017-11-16 14:23:46 1510860226.501590: $GPGGA,192345,3946.9569,N,08404.9849,W,2,11,0.80,303.30,M,-33.324,M,,*77
2017-11-16 14:23:46 1510860226.501651: $GPRMC,192345,A,3946.9569,N,08404.9849,W,0.0000,0.000,161117,,*39
2017-11-16 14:23:46 1510860226.501707: $GPGSA,A,3,8,10,15,18,21,20,24,27,32,14,138,,1.6,0.8,1.3*37
2017-11-16 14:23:47 1510860227.502574: $GPZDA,192346.00,16,11,2017,00,00*6E
2017-11-16 14:23:47 1510860227.502736: $GPGGA,192346,3946.9569,N,08404.9849,W,2,11,0.80,303.30,M,-33.324,M,,*74
2017-11-16 14:23:47 1510860227.502798: $GPRMC,192346,A,3946.9569,N,08404.9849,W,0.0000,0.000,161117,,*3A
2017-11-16 14:23:47 1510860227.502855: $GPGSA,A,3,8,10,15,18,21,20,24,27,32,14,138,,1.6,0.8,1.3*37
2017-11-16 14:23:48 1510860228.835581: $GPGSV,3,1,12,08,07,318,38,10,44,304,47,13,05,049,00,15,34,054,50*7E
2017-11-16 14:23:48 1510860228.835740: $GPGSV,3,2,12,18,73,346,46,21,60,187,45,20,30,099,46,24,52,103,48*73
2017-11-16 14:23:48 1510860228.835801: $GPGSV,3,3,12,27,18,285,42,32,23,241,43,14,07,234,34,138,38,213,44*4E
2017-11-16 14:23:48 1510860228.949238: $GPZDA,192347.00,16,11,2017,00,00*6F
2017-11-16 14:23:48 1510860228.949401: $GPGGA,192347,3946.9565,N,08404.9850,W,2,11,0.80,304.07,M,-33.324,M,,*72
2017-11-16 14:23:48 1510860228.949462: $GPRMC,192347,A,3946.9565,N,08404.9850,W,0.0000,0.000,161117,,*3F
2017-11-16 14:23:48 1510860228.949518: $GPGSA,A,3,8,10,15,18,21,20,24,27,32,14,138,,1.6,0.8,1.3*37
2017-11-16 14:23:49 1510860229.574382: $GPZDA,192348.00,16,11,2017,00,00*60
2017-11-16 14:23:49 1510860229.574542: $GPGGA,192348,3946.9565,N,08404.9850,W,2,11,0.80,304.07,M,-33.324,M,,*7D
2017-11-16 14:23:49 1510860229.574602: $GPRMC,192348,A,3946.9565,N,08404.9850,W,0.0000,0.000,161117,,*30
2017-11-16 14:23:49 1510860229.574657: $GPGSA,A,3,8,10,15,18,21,20,24,27,32,14,138,,1.6,0.8,1.3*37
2017-11-16 14:23:50 1510860230.501413: $GPZDA,192349.00,16,11,2017,00,00*61
2017-11-16 14:23:50 1510860230.501580: $GPGGA,192349,3946.9565,N,08404.9850,W,2,11,0.80,304.07,M,-33.324,M,,*7C
2017-11-16 14:23:50 1510860230.501641: $GPRMC,192349,A,3946.9565,N,08404.9850,W,0.0000,0.000,161117,,*31
2017-11-16 14:23:50 1510860230.501697: $GPGSA,A,3,8,10,15,18,21,20,24,27,32,14,138,,1.6,0.8,1.3*37
2017-11-16 14:23:51 1510860231.843514: $GPGSV,3,1,12,08,07,318,38,10,44,304,47,13,05,049,02,15,34,054,50*7C
2017-11-16 14:23:51 1510860231.843725: $GPGSV,3,2,12,18,73,346,46,21,60,187,45,20,30,099,46,24,52,103,48*73
2017-11-16 14:23:51 1510860231.843790: $GPGSV,3,3,12,27,18,285,42,32,23,241,44,14,07,234,34,138,38,213,44*49
2017-11-16 14:23:51 1510860231.956722: $GPZDA,192350.00,16,11,2017,00,00*69
2017-11-16 14:23:51 1510860231.956876: $GPGGA,192350,3946.9565,N,08404.9850,W,2,11,0.80,304.07,M,-33.324,M,,*74
2017-11-16 14:23:51 1510860231.956937: $GPRMC,192350,A,3946.9565,N,08404.9850,W,0.0000,0.000,161117,,*39
2017-11-16 14:23:51 1510860231.956993: $GPGSA,A,3,8,10,15,18,21,20,24,27,32,14,138,,1.6,0.8,1.3*37
2017-11-16 14:23:52 1510860232.503863: $GPZDA,192351.00,16,11,2017,00,00*68
2017-11-16 14:23:52 1510860232.504046: $GPGGA,192351,3946.9565,N,08404.9850,W,2,11,0.80,304.07,M,-33.324,M,,*75
2017-11-16 14:23:52 1510860232.504109: $GPRMC,192351,A,3946.9565,N,08404.9850,W,0.0000,0.000,161117,,*38
2017-11-16 14:23:52 1510860232.504181: $GPGSA,A,3,8,10,15,18,21,20,24,27,32,14,138,,1.6,0.8,1.3*37
