2017-11-15 19:26:00 1510791960.676805: {"class":"VERSION","release":"3.17","rev":"3.17","proto_major":3,"proto_minor":12}
2017-11-15 19:26:00 1510791960.677329: {"class":"DEVICES","devices":[{"class":"DEVICE","path":"/dev/ttyUSB0","driver":"SiRF","subtype":"9\u0006GSD4e_4.1.2-P1_RPATCH.05-F-GPS-4R-1510281 11/03/2015 307","activated":"2017-11-16T00:26:00.666Z","flags":1,"native":1,"bps":4800,"parity":"N","stopbits":1,"cycle":1.00}]}
2017-11-15 19:26:00 1510791960.677459: {"class":"WATCH","enable":true,"json":false,"nmea":true,"raw":0,"scaled":false,"timing":false,"split24":false,"pps":false}
2017-11-15 19:26:00 1510791960.779208: $GPZDA,002559.00,16,11,2017,00,00*6E
2017-11-15 19:26:00 1510791960.779366: $GPGGA,002559,3946.9592,N,08404.9475,W,1,06,1.80,268.35,M,-33.324,M,,*7E
2017-11-15 19:26:00 1510791960.779427: $GPRMC,002559,A,3946.9592,N,08404.9475,W,0.4207,39.347,161117,,*06
2017-11-15 19:26:00 1510791960.779485: $GPGSA,A,3,32,31,16,26,14,22,,,,,,,3.4,1.8,2.9*32
2017-11-15 19:26:01 1510791961.404633: $GPZDA,002600.00,16,11,2017,00,00*61
2017-11-15 19:26:01 1510791961.404798: $GPGGA,002600,3946.9592,N,08404.9475,W,1,06,1.80,268.35,M,-33.324,M,,*71
2017-11-15 19:26:01 1510791961.404860: $GPRMC,002600,A,3946.9592,N,08404.9475,W,0.4207,39.347,161117,,*09
2017-11-15 19:26:01 1510791961.404916: $GPGSA,A,3,32,31,16,26,14,22,,,,,,,3.4,1.8,2.9*32
2017-11-15 19:26:02 1510791962.329606: $GPZDA,002601.00,16,11,2017,00,00*60
2017-11-15 19:26:02 1510791962.329765: $GPGGA,002601,3946.9588,N,08404.9475,W,1,06,1.80,267.71,M,-33.324,M,,*74
2017-11-15 19:26:02 1510791962.329826: $GPRMC,002601,A,3946.9588,N,08404.9475,W,0.4179,328.778,161117,,*32
2017-11-15 19:26:02 1510791962.329882: $GPGSA,A,3,32,31,16,26,14,22,,,,,,,3.4,1.8,2.9*32
2017-11-15 19:26:03 1510791963.681304: $GPGSV,3,1,11,32,38,105,25,31,70,021,23,16,20,190,13,26,50,174,29*72
2017-11-15 19:26:03 1510791963.681477: $GPGSV,3,2,11,14,57,088,18,29,10,073,12,22,50,274,21,03,38,301,06*70
2017-11-15 19:26:03 1510791963.681537: $GPGSV,3,3,11,25,19,040,00,23,09,300,00,01,07,255,00*4D
2017-11-15 19:26:03 1510791963.794954: $GPZDA,002602.00,16,11,2017,00,00*63
2017-11-15 19:26:03 1510791963.795126: $GPGGA,002602,3946.9592,N,08404.9475,W,1,05,1.80,268.35,M,-33.324,M,,*70
2017-11-15 19:26:03 1510791963.795189: $GPRMC,002602,A,3946.9592,N,08404.9475,W,1.0002,334.331,161117,,*36
2017-11-15 19:26:03 1510791963.795246: $GPGSA,A,3,32,31,26,14,22,,,,,,,,3.4,1.8,2.9*35
2017-11-15 19:26:04 1510791964.332036: $GPZDA,002603.00,16,11,2017,00,00*62
2017-11-15 19:26:04 1510791964.332209: $GPGGA,002603,3946.9596,N,08404.9475,W,1,05,1.80,267.59,M,-33.324,M,,*70
2017-11-15 19:26:04 1510791964.332270: $GPRMC,002603,A,3946.9596,N,08404.9475,W,1.8120,347.792,161117,,*33
2017-11-15 19:26:04 1510791964.332327: $GPGSA,A,3,32,31,26,14,22,,,,,,,,3.4,1.8,2.9*35
2017-11-15 19:26:05 1510791965.344171: $GPZDA,002604.00,16,11,2017,00,00*65
2017-11-15 19:26:05 1510791965.344339: $GPGGA,002604,3946.9599,N,08404.9481,W,1,05,1.80,266.75,M,-33.324,M,,*7C
2017-11-15 19:26:05 1510791965.344399: $GPRMC,002604,A,3946.9599,N,08404.9481,W,1.9587,349.465,161117,,*3D
2017-11-15 19:26:05 1510791965.344456: $GPGSA,A,3,32,31,26,14,22,,,,,,,,3.4,1.8,2.9*35
2017-11-15 19:26:06 1510791966.666628: $GPGSV,3,1,11,32,38,105,24,31,70,021,22,16,20,190,11,26,50,174,29*70
2017-11-15 19:26:06 1510791966.666840: $GPGSV,3,2,11,14,57,088,18,29,10,073,13,22,50,274,21,03,38,301,06*71
2017-11-15 19:26:06 1510791966.666901: $GPGSV,3,3,11,25,19,040,00,23,09,300,00,01,07,255,00*4D
2017-11-15 19:26:06 1510791966.780986: $GPZDA,002605.00,16,11,2017,00,00*64
2017-11-15 19:26:06 1510791966.781149: $GPGGA,002605,3946.9604,N,08404.9481,W,1,08,1.60,267.39,M,-33.324,M,,*70
2017-11-15 19:26:06 1510791966.781211: $GPRMC,002605,A,3946.9604,N,08404.9481,W,1.6300,346.404,161117,,*35
2017-11-15 19:26:06 1510791966.781267: $GPGSA,A,3,32,31,16,26,14,29,22,3,,,,,3.4,1.6,2.9*04
2017-11-15 19:26:07 1510791967.345861: $GPZDA,002606.00,16,11,2017,00,00*67
2017-11-15 19:26:07 1510791967.346026: $GPGGA,002606,3946.9607,N,08404.9480,W,1,08,1.60,266.62,M,-33.324,M,,*7E
2017-11-15 19:26:07 1510791967.346140: $GPRMC,002606,A,3946.9607,N,08404.9480,W,1.7180,338.671,161117,,*36
2017-11-15 19:26:07 1510791967.346199: $GPGSA,A,3,32,31,16,26,14,29,22,3,,,,,3.4,1.6,2.9*04
2017-11-15 19:26:08 1510791968.345457: $GPZDA,002607.00,16,11,2017,00,00*66
2017-11-15 19:26:08 1510791968.345621: $GPGGA,002607,3946.9607,N,08404.9480,W,1,08,1.60,266.62,M,-33.324,M,,*7F
2017-11-15 19:26:08 1510791968.345682: $GPRMC,002607,A,3946.9607,N,08404.9480,W,1.0002,334.331,161117,,*36
2017-11-15 19:26:08 1510791968.345738: $GPGSA,A,3,32,31,16,26,14,29,22,3,,,,,3.4,1.6,2.9*04
2017-11-15 19:26:09 1510791969.666234: $GPGSV,3,1,11,32,38,105,24,31,70,021,22,16,20,190,12,26,50,174,29*73
2017-11-15 19:26:09 1510791969.666411: $GPGSV,3,2,11,14,57,088,18,29,10,073,13,22,50,274,21,03,38,301,06*71
2017-11-15 19:26:09 1510791969.666473: $GPGSV,3,3,11,25,19,040,00,23,09,300,00,01,07,255,00*4D
2017-11-15 19:26:09 1510791969.779558: $GPZDA,002608.00,16,11,2017,00,00*69
2017-11-15 19:26:09 1510791969.779736: $GPGGA,002608,3946.9607,N,08404.9487,W,1,08,1.60,266.54,M,-33.324,M,,*72
2017-11-15 19:26:09 1510791969.779799: $GPRMC,002608,A,3946.9607,N,08404.9487,W,0.5912,309.173,161117,,*38
2017-11-15 19:26:09 1510791969.779855: $GPGSA,A,3,32,31,16,26,14,29,22,3,,,,,3.4,1.6,2.9*04
2017-11-15 19:26:10 1510791970.345435: $GPZDA,002609.00,16,11,2017,00,00*68
2017-11-15 19:26:10 1510791970.345609: $GPGGA,002609,3946.9610,N,08404.9480,W,1,08,1.80,265.86,M,-33.324,M,,*70
2017-11-15 19:26:10 1510791970.348614: $GPRMC,002609,A,3946.9610,N,08404.9480,W,1.0269,4.197,161117,,*3F
2017-11-15 19:26:10 1510791970.348695: $GPGSA,A,3,32,31,16,26,14,29,22,3,,,,,3.4,1.8,2.9*0A
