2017-12-14 11:57:26 1513270646.653181: {"class":"VERSION","release":"3.16","rev":"3.16-4","proto_major":3,"proto_minor":11}
2017-12-14 11:57:26 1513270646.653529: {"class":"DEVICES","devices":[{"class":"DEVICE","path":"/dev/ttyUSB0","driver":"SiRF","subtype":"9\u0006GSD4e_4.1.2-P1_RPATCH.05-F-GPS-4R-1510281 11/03/2015 307","activated":"2017-12-14T16:57:26.280Z","flags":1,"native":1,"bps":4800,"parity":"N","stopbits":1,"cycle":1.00}]}
2017-12-14 11:57:26 1513270646.653648: {"class":"WATCH","enable":true,"json":false,"nmea":true,"raw":0,"scaled":false,"timing":false,"split24":false,"pps":false}
2017-12-14 11:57:27 1513270647.570849: $GPRMC,165728,V,18000.0000,N,00000.0000,W,0.0000,0.000,141217,,*1E
2017-12-14 11:57:27 1513270647.571026: $GPGSA,A,1,20,15,24,10,18,32,21,,,,,,,,,*38
2017-12-14 11:57:28 1513270648.664439: $GPRMC,165729,V,3946.9620,N,08404.9409,W,0.0000,0.000,141217,,*2F
2017-12-14 11:57:28 1513270648.664624: $GPGSA,A,1,20,15,24,10,18,32,21,,,,,,,,,*38
2017-12-14 11:57:29 1513270649.255255: $GPGSV,3,1,10,20,41,087,30,10,34,294,08,15,46,051,09,18,65,319,07*7D
2017-12-14 11:57:29 1513270649.255432: $GPGSV,3,2,10,24,45,123,10,27,19,298,00,13,15,046,00,32,14,232,00*72
2017-12-14 11:57:29 1513270649.255499: $GPGSV,3,3,10,21,72,199,00,08,02,330,00*75
2017-12-14 11:57:29 1513270649.367604: $GPRMC,165729,V,3946.9606,N,08404.9444,W,2.6672,322.010,141217,,*27
2017-12-14 11:57:29 1513270649.367761: $GPGSA,A,1,20,10,15,18,24,,,,,,,,,,,*3A
2017-12-14 11:57:29 1513270649.896486: $GPRMC,165730,V,3946.9590,N,08404.9469,W,1.2825,299.423,141217,,*22
2017-12-14 11:57:29 1513270649.896649: $GPGSA,A,1,20,10,15,18,24,,,,,,,,,,,*3A
2017-12-14 11:57:30 1513270650.151417: $GPZDA,165730.66,14,12,2017,00,00*62
2017-12-14 11:57:30 1513270650.151577: $GPGGA,165730,3946.9591,N,08404.9457,W,1,05,1.80,348.33,M,-33.324,M,,*76
2017-12-14 11:57:30 1513270650.151646: $GPRMC,165730,A,3946.9591,N,08404.9457,W,1.4994,256.658,141217,,*39
2017-12-14 11:57:30 1513270650.151711: $GPGSA,A,3,20,10,15,18,24,,,,,,,,6.6,1.8,6.2*37
2017-12-14 11:57:30 1513270650.151767: $GPGBS,165730,24.66,M,21.80,M,143.40,M*37
2017-12-14 11:57:30 1513270650.915887: $GPGSV,3,1,11,20,41,087,30,10,34,294,19,15,46,051,23,18,65,319,17*75
2017-12-14 11:57:30 1513270650.916053: $GPGSV,3,2,11,24,45,123,24,27,19,298,00,13,15,046,00,32,14,232,00*74
2017-12-14 11:57:30 1513270650.916119: $GPGSV,3,3,11,21,72,199,00,08,02,330,00,138,38,213,00*75
2017-12-14 11:57:31 1513270651.029503: $GPZDA,165731.00,14,12,2017,00,00*63
2017-12-14 11:57:31 1513270651.029716: $GPGGA,165731,3946.9575,N,08404.9458,W,1,05,1.80,347.17,M,-33.324,M,,*7B
2017-12-14 11:57:31 1513270651.029785: $GPRMC,165731,A,3946.9575,N,08404.9458,W,0.7482,251.336,141217,,*3F
2017-12-14 11:57:31 1513270651.029847: $GPGSA,A,3,20,10,15,18,24,,,,,,,,6.6,1.8,6.2*37
2017-12-14 11:57:31 1513270651.284460: $GPZDA,165732.00,14,12,2017,00,00*60
2017-12-14 11:57:31 1513270651.284641: $GPGGA,165732,3946.9586,N,08404.9450,W,1,05,1.80,347.77,M,-33.324,M,,*7A
2017-12-14 11:57:31 1513270651.284713: $GPRMC,165732,A,3946.9586,N,08404.9450,W,0.6624,276.054,141217,,*35
2017-12-14 11:57:31 1513270651.284773: $GPGSA,A,3,20,10,15,18,24,,,,,,,,6.6,1.8,6.2*37
2017-12-14 11:57:32 1513270652.192020: $GPZDA,165733.00,14,12,2017,00,00*61
2017-12-14 11:57:32 1513270652.192237: $GPGGA,165733,3946.9583,N,08404.9451,W,1,05,1.80,348.53,M,-33.324,M,,*76
2017-12-14 11:57:32 1513270652.192307: $GPRMC,165733,A,3946.9583,N,08404.9451,W,0.6913,278.480,141217,,*38
2017-12-14 11:57:32 1513270652.192368: $GPGSA,A,3,20,10,15,18,24,,,,,,,,6.6,1.8,6.2*37
2017-12-14 11:57:33 1513270653.528114: $GPGSV,3,1,11,20,41,087,30,10,34,294,19,15,46,051,24,18,65,319,16*73
2017-12-14 11:57:33 1513270653.528292: $GPGSV,3,2,11,24,45,123,24,27,19,298,00,13,15,046,00,32,14,232,00*74
2017-12-14 11:57:33 1513270653.528358: $GPGSV,3,3,11,21,72,199,00,08,02,330,00,138,38,213,00*75
2017-12-14 11:57:33 1513270653.641463: $GPZDA,165734.00,14,12,2017,00,00*66
2017-12-14 11:57:33 1513270653.641595: $GPGGA,165734,3946.9575,N,08404.9444,W,1,05,1.80,348.74,M,-33.324,M,,*79
2017-12-14 11:57:33 1513270653.641721: $GPRMC,165734,A,3946.9575,N,08404.9444,W,0.6290,180.804,141217,,*36
2017-12-14 11:57:33 1513270653.641783: $GPGSA,A,3,20,10,15,18,24,,,,,,,,6.6,1.8,6.2*37
2017-12-14 11:57:34 1513270654.192013: $GPZDA,165735.00,14,12,2017,00,00*67
2017-12-14 11:57:34 1513270654.192301: $GPGGA,165735,3946.9568,N,08404.9446,W,1,05,1.80,350.26,M,-33.324,M,,*78
2017-12-14 11:57:34 1513270654.192369: $GPRMC,165735,A,3946.9568,N,08404.9446,W,0.4818,284.175,141217,,*39
2017-12-14 11:57:34 1513270654.192431: $GPGSA,A,3,20,10,15,18,24,,,,,,,,6.6,1.8,6.2*37
2017-12-14 11:57:35 1513270655.192697: $GPZDA,165736.00,14,12,2017,00,00*64
2017-12-14 11:57:35 1513270655.192876: $GPGGA,165736,3946.9564,N,08404.9446,W,1,05,1.80,349.62,M,-33.324,M,,*7F
2017-12-14 11:57:35 1513270655.192946: $GPRMC,165736,A,3946.9564,N,08404.9446,W,0.2122,289.224,141217,,*3A
2017-12-14 11:57:35 1513270655.193007: $GPGSA,A,3,20,10,15,18,24,,,,,,,,6.6,1.8,6.2*37
2017-12-14 11:57:36 1513270656.530149: $GPGSV,3,1,11,20,41,087,30,10,34,294,19,15,46,051,24,18,65,319,16*73
2017-12-14 11:57:36 1513270656.530325: $GPGSV,3,2,11,24,45,123,25,32,14,232,11,27,19,298,00,13,15,046,00*75
2017-12-14 11:57:36 1513270656.530391: $GPGSV,3,3,11,21,72,199,00,08,02,330,00,138,38,213,00*75
2017-12-14 11:57:36 1513270656.643549: $GPZDA,165737.00,14,12,2017,00,00*65
2017-12-14 11:57:36 1513270656.643729: $GPGGA,165737,3946.9568,N,08404.9446,W,1,06,1.80,350.26,M,-33.324,M,,*79
2017-12-14 11:57:36 1513270656.643799: $GPRMC,165737,A,3946.9568,N,08404.9446,W,0.7736,47.983,141217,,*07
2017-12-14 11:57:36 1513270656.643860: $GPGSA,A,3,20,10,15,18,24,32,,,,,,,6.6,1.8,6.2*36
2017-12-14 11:57:37 1513270657.193641: $GPZDA,165738.00,14,12,2017,00,00*6A
2017-12-14 11:57:37 1513270657.193830: $GPGGA,165738,3946.9564,N,08404.9446,W,1,06,1.80,349.62,M,-33.324,M,,*72
2017-12-14 11:57:37 1513270657.193897: $GPRMC,165738,A,3946.9564,N,08404.9446,W,0.6316,123.833,141217,,*3A
2017-12-14 11:57:37 1513270657.193960: $GPGSA,A,3,20,10,15,18,24,32,,,,,,,6.6,1.8,6.2*36
2017-12-14 11:57:38 1513270658.192543: $GPZDA,165739.00,14,12,2017,00,00*6B
2017-12-14 11:57:38 1513270658.192715: $GPGGA,165739,3946.9563,N,08404.9445,W,1,06,1.80,348.22,M,-33.324,M,,*72
2017-12-14 11:57:38 1513270658.192783: $GPRMC,165739,A,3946.9563,N,08404.9445,W,0.3572,120.437,141217,,*35
2017-12-14 11:57:38 1513270658.192844: $GPGSA,A,3,20,10,15,18,24,32,,,,,,,6.6,1.8,6.2*36
2017-12-14 11:57:39 1513270659.529978: $GPGSV,3,1,11,20,41,087,30,10,34,294,19,15,46,051,24,18,65,319,17*72
2017-12-14 11:57:39 1513270659.530155: $GPGSV,3,2,11,24,45,123,25,32,14,232,10,27,19,298,00,13,15,046,00*74
2017-12-14 11:57:39 1513270659.530221: $GPGSV,3,3,11,21,72,199,00,08,02,330,00,138,38,213,00*75
2017-12-14 11:57:39 1513270659.642233: $GPZDA,165740.00,14,12,2017,00,00*65
2017-12-14 11:57:39 1513270659.642404: $GPGGA,165740,3946.9564,N,08404.9440,W,1,05,1.80,351.11,M,-33.324,M,,*75
2017-12-14 11:57:39 1513270659.642469: $GPRMC,165740,A,3946.9564,N,08404.9440,W,0.1391,162.741,141217,,*34
2017-12-14 11:57:39 1513270659.642531: $GPGSA,A,3,20,10,15,18,24,,,,,,,,6.6,1.8,6.2*37
2017-12-14 11:57:40 1513270660.193046: $GPZDA,165741.00,14,12,2017,00,00*64
2017-12-14 11:57:40 1513270660.193223: $GPGGA,165741,3946.9567,N,08404.9438,W,1,05,1.80,348.94,M,-33.324,M,,*7D
2017-12-14 11:57:40 1513270660.193291: $GPRMC,165741,A,3946.9567,N,08404.9438,W,0.5839,109.717,141217,,*3A
2017-12-14 11:57:40 1513270660.193352: $GPGSA,A,3,20,10,15,18,24,,,,,,,,6.6,1.8,6.2*37
2017-12-14 11:57:41 1513270661.193181: $GPZDA,165742.00,14,12,2017,00,00*67
2017-12-14 11:57:41 1513270661.193356: $GPGGA,165742,3946.9567,N,08404.9438,W,1,05,1.80,348.94,M,-33.324,M,,*7E
2017-12-14 11:57:41 1513270661.193424: $GPRMC,165742,A,3946.9567,N,08404.9438,W,0.1778,158.094,141217,,*3F
2017-12-14 11:57:41 1513270661.193485: $GPGSA,A,3,20,10,15,18,24,,,,,,,,6.6,1.8,6.2*37
2017-12-14 11:57:42 1513270662.530585: $GPGSV,3,1,11,20,41,087,30,10,34,294,19,15,46,051,24,18,65,319,17*72
2017-12-14 11:57:42 1513270662.530779: $GPGSV,3,2,11,24,45,123,25,27,19,298,00,13,15,046,00,32,14,232,00*75
2017-12-14 11:57:42 1513270662.530899: $GPGSV,3,3,11,21,72,199,00,08,02,330,00,138,38,213,00*75
2017-12-14 11:57:42 1513270662.644086: $GPZDA,165743.00,14,12,2017,00,00*66
2017-12-14 11:57:42 1513270662.644285: $GPGGA,165743,3946.9566,N,08404.9437,W,1,05,1.80,347.53,M,-33.324,M,,*75
2017-12-14 11:57:42 1513270662.644351: $GPRMC,165743,A,3946.9566,N,08404.9437,W,0.1239,109.998,141217,,*31
2017-12-14 11:57:42 1513270662.644413: $GPGSA,A,3,20,10,15,18,24,,,,,,,,6.6,1.8,6.2*37
2017-12-14 11:57:43 1513270663.194119: $GPZDA,165744.00,14,12,2017,00,00*61
2017-12-14 11:57:43 1513270663.194294: $GPGGA,165744,3946.9565,N,08404.9436,W,1,05,1.80,344.73,M,-33.324,M,,*71
2017-12-14 11:57:43 1513270663.194360: $GPRMC,165744,A,3946.9565,N,08404.9436,W,0.1599,117.754,141217,,*38
2017-12-14 11:57:43 1513270663.194423: $GPGSA,A,3,20,10,15,18,24,,,,,,,,6.6,1.8,6.2*37
2017-12-14 11:57:44 1513270664.193041: $GPZDA,165745.00,14,12,2017,00,00*60
2017-12-14 11:57:44 1513270664.193207: $GPGGA,165745,3946.9557,N,08404.9436,W,1,05,1.80,343.45,M,-33.324,M,,*73
2017-12-14 11:57:44 1513270664.193275: $GPRMC,165745,A,3946.9557,N,08404.9436,W,0.9483,174.470,141217,,*3A
2017-12-14 11:57:44 1513270664.193335: $GPGSA,A,3,20,10,15,18,24,,,,,,,,6.6,1.8,6.2*37
2017-12-14 11:57:45 1513270665.528588: $GPGSV,3,1,11,20,41,087,30,10,34,294,20,15,46,051,24,18,65,319,17*78
2017-12-14 11:57:45 1513270665.528761: $GPGSV,3,2,11,24,45,123,26,27,19,298,00,13,15,046,00,32,14,232,00*76
2017-12-14 11:57:45 1513270665.528827: $GPGSV,3,3,11,21,72,199,00,08,02,330,00,138,38,213,00*75
2017-12-14 11:57:45 1513270665.641976: $GPZDA,165746.00,14,12,2017,00,00*63
2017-12-14 11:57:45 1513270665.642182: $GPGGA,165746,3946.9549,N,08404.9437,W,1,05,1.80,343.57,M,-33.324,M,,*7D
2017-12-14 11:57:45 1513270665.642252: $GPRMC,165746,A,3946.9549,N,08404.9437,W,1.6231,187.093,141217,,*33
2017-12-14 11:57:45 1513270665.642314: $GPGSA,A,3,20,10,15,18,24,,,,,,,,6.6,1.8,6.2*37
2017-12-14 11:57:46 1513270666.192175: $GPZDA,165747.00,14,12,2017,00,00*62
2017-12-14 11:57:46 1513270666.192364: $GPGGA,165747,3946.9545,N,08404.9437,W,1,05,1.80,342.93,M,-33.324,M,,*79
2017-12-14 11:57:46 1513270666.192433: $GPRMC,165747,A,3946.9545,N,08404.9437,W,1.4735,177.420,141217,,*3E
2017-12-14 11:57:46 1513270666.192496: $GPGSA,A,3,20,10,15,18,24,,,,,,,,6.6,1.8,6.2*37
