2017-11-15 19:20:35 1510791635.168757: {"class":"VERSION","release":"3.17","rev":"3.17","proto_major":3,"proto_minor":12}
2017-11-15 19:20:35 1510791635.169747: {"class":"DEVICES","devices":[{"class":"DEVICE","path":"/dev/ttyUSB0","driver":"SiRF","subtype":"9\u0006GSD4e_4.1.2-P1_RPATCH.05-F-GPS-4R-1510281 11/03/2015 307","activated":"2017-11-16T00:20:35.168Z","flags":1,"native":1,"bps":4800,"parity":"N","stopbits":1,"cycle":1.00}]}
2017-11-15 19:20:35 1510791635.169957: {"class":"WATCH","enable":true,"json":false,"nmea":true,"raw":0,"scaled":false,"timing":false,"split24":false,"pps":false}
2017-11-15 19:20:35 1510791635.345431: $GPZDA,002034.00,16,11,2017,00,00*60
2017-11-15 19:20:35 1510791635.345595: $GPGGA,002034,3946.9614,N,08404.9518,W,1,07,1.40,283.92,M,-33.324,M,,*72
2017-11-15 19:20:35 1510791635.345656: $GPRMC,002034,A,3946.9614,N,08404.9518,W,0.8054,68.645,161117,,*04
2017-11-15 19:20:35 1510791635.345729: $GPGSA,A,3,32,14,22,26,31,29,3,,,,,,3.4,1.4,2.9*01
2017-11-15 19:20:36 1510791636.665661: $GPGSV,3,1,12,32,39,105,24,14,58,087,23,22,50,276,21,26,49,174,26*7D
2017-11-15 19:20:36 1510791636.665864: $GPGSV,3,2,12,31,71,018,23,29,09,075,15,25,20,042,00,03,37,303,15*73
2017-11-15 19:20:36 1510791636.665926: $GPGSV,3,3,12,16,18,190,00,23,08,298,00,01,08,255,00,138,38,213,00*4C
2017-11-15 19:20:36 1510791636.779136: $GPZDA,002035.00,16,11,2017,00,00*61
2017-11-15 19:20:36 1510791636.779325: $GPGGA,002035,3946.9618,N,08404.9518,W,1,07,1.40,284.56,M,-33.324,M,,*70
2017-11-15 19:20:36 1510791636.779387: $GPRMC,002035,A,3946.9618,N,08404.9518,W,0.8953,59.978,161117,,*04
2017-11-15 19:20:36 1510791636.779443: $GPGSA,A,3,32,14,22,26,31,29,3,,,,,,3.4,1.4,2.9*01
2017-11-15 19:20:37 1510791637.331257: $GPZDA,002036.00,16,11,2017,00,00*62
2017-11-15 19:20:37 1510791637.331436: $GPGGA,002036,3946.9621,N,08404.9510,W,1,07,1.40,283.87,M,-33.324,M,,*7A
2017-11-15 19:20:37 1510791637.331497: $GPRMC,002036,A,3946.9621,N,08404.9510,W,0.7576,81.915,161117,,*0F
2017-11-15 19:20:37 1510791637.331553: $GPGSA,A,3,32,14,22,26,31,29,3,,,,,,3.4,1.4,2.9*01
2017-11-15 19:20:38 1510791638.349555: $GPZDA,002037.00,16,11,2017,00,00*63
2017-11-15 19:20:38 1510791638.349735: $GPGGA,002037,3946.9617,N,08404.9510,W,1,07,1.40,283.23,M,-33.324,M,,*70
2017-11-15 19:20:38 1510791638.349797: $GPRMC,002037,A,3946.9617,N,08404.9510,W,0.4179,148.778,161117,,*32
2017-11-15 19:20:38 1510791638.349870: $GPGSA,A,3,32,14,22,26,31,29,3,,,,,,3.4,1.4,2.9*01
2017-11-15 19:20:39 1510791639.666530: $GPGSV,3,1,12,32,39,105,23,14,58,087,23,22,50,276,21,26,49,174,25*79
2017-11-15 19:20:39 1510791639.666758: $GPGSV,3,2,12,31,71,018,23,29,09,075,15,16,18,190,18,03,37,303,16*7C
2017-11-15 19:20:39 1510791639.666854: $GPGSV,3,3,12,25,20,042,00,23,08,298,00,01,08,255,00,138,38,213,00*49
2017-11-15 19:20:39 1510791639.779912: $GPZDA,002038.00,16,11,2017,00,00*6C
2017-11-15 19:20:39 1510791639.780081: $GPGGA,002038,3946.9616,N,08404.9503,W,1,07,1.40,283.31,M,-33.324,M,,*7F
2017-11-15 19:20:39 1510791639.780142: $GPRMC,002038,A,3946.9616,N,08404.9503,W,0.7621,107.945,161117,,*3C
2017-11-15 19:20:39 1510791639.780197: $GPGSA,A,3,32,14,22,26,31,29,3,,,,,,3.4,1.4,2.9*01
2017-11-15 19:20:40 1510791640.345754: $GPZDA,002039.00,16,11,2017,00,00*6D
2017-11-15 19:20:40 1510791640.345939: $GPGGA,002039,3946.9616,N,08404.9503,W,1,07,1.40,283.31,M,-33.324,M,,*7E
2017-11-15 19:20:40 1510791640.347724: $GPRMC,002039,A,3946.9616,N,08404.9503,W,0.7621,107.945,161117,,*3D
2017-11-15 19:20:40 1510791640.347806: $GPGSA,A,3,32,14,22,26,31,29,3,,,,,,3.4,1.4,2.9*01
2017-11-15 19:20:41 1510791641.347497: $GPZDA,002040.00,16,11,2017,00,00*63
2017-11-15 19:20:41 1510791641.347655: $GPGGA,002040,3946.9616,N,08404.9503,W,1,07,1.40,283.31,M,-33.324,M,,*70
2017-11-15 19:20:41 1510791641.347735: $GPRMC,002040,A,3946.9616,N,08404.9503,W,0.5857,158.291,161117,,*36
2017-11-15 19:20:41 1510791641.347792: $GPGSA,A,3,32,14,22,26,31,29,3,,,,,,3.4,1.4,2.9*01
2017-11-15 19:20:42 1510791642.683165: $GPGSV,3,1,12,32,39,105,23,14,58,087,23,22,50,276,21,26,49,174,25*79
2017-11-15 19:20:42 1510791642.683332: $GPGSV,3,2,12,31,71,018,23,29,09,075,15,25,20,042,00,03,37,303,16*70
2017-11-15 19:20:42 1510791642.683460: $GPGSV,3,3,12,16,18,190,00,23,08,298,00,01,08,255,00,138,38,213,00*4C
2017-11-15 19:20:42 1510791642.796507: $GPZDA,002041.00,16,11,2017,00,00*62
2017-11-15 19:20:42 1510791642.796675: $GPGGA,002041,3946.9616,N,08404.9503,W,1,07,1.40,283.31,M,-33.324,M,,*71
2017-11-15 19:20:42 1510791642.796803: $GPRMC,002041,A,3946.9616,N,08404.9503,W,0.3423,184.197,161117,,*3A
2017-11-15 19:20:42 1510791642.796877: $GPGSA,A,3,32,14,22,26,31,29,3,,,,,,3.4,1.4,2.9*01
2017-11-15 19:20:43 1510791643.331288: $GPZDA,002042.00,16,11,2017,00,00*61
2017-11-15 19:20:43 1510791643.331469: $GPGGA,002042,3946.9616,N,08404.9503,W,1,07,1.40,283.31,M,-33.324,M,,*72
2017-11-15 19:20:43 1510791643.331541: $GPRMC,002042,A,3946.9616,N,08404.9503,W,0.2959,234.768,161117,,*36
2017-11-15 19:20:43 1510791643.331618: $GPGSA,A,3,32,14,22,26,31,29,3,,,,,,3.4,1.4,2.9*01
2017-11-15 19:20:44 1510791644.329629: $GPZDA,002043.00,16,11,2017,00,00*60
2017-11-15 19:20:44 1510791644.329808: $GPGGA,002043,3946.9613,N,08404.9504,W,1,07,1.40,284.08,M,-33.324,M,,*7C
2017-11-15 19:20:44 1510791644.329870: $GPRMC,002043,A,3946.9613,N,08404.9504,W,0.7278,203.636,161117,,*36
2017-11-15 19:20:44 1510791644.329926: $GPGSA,A,3,32,14,22,26,31,29,3,,,,,,3.4,1.4,2.9*01
