2017-12-01 18:09:33 1512169773.772743: {"class":"VERSION","release":"3.16","rev":"3.16-4","proto_major":3,"proto_minor":11}
2017-12-01 18:09:33 1512169773.773170: {"class":"DEVICES","devices":[{"class":"DEVICE","path":"/dev/ttyUSB0","driver":"SiRF","subtype":"9\u0006GSD4e_4.1.2-P1_RPATCH.05-F-GPS-4R-1510281 11/03/2015 307","activated":"2017-12-01T23:09:33.402Z","flags":1,"native":1,"bps":4800,"parity":"N","stopbits":1,"cycle":1.00}]}
2017-12-01 18:09:33 1512169773.773303: {"class":"WATCH","enable":true,"json":false,"nmea":true,"raw":0,"scaled":false,"timing":false,"split24":false,"pps":false}
2017-12-01 18:09:34 1512169774.004710: $GPZDA,230934.67,01,12,2017,00,00*6E
2017-12-01 18:09:34 1512169774.004887: $GPGGA,230934,3946.9704,N,08404.9835,W,1,12,0.80,299.66,M,-33.325,M,,*72
2017-12-01 18:09:34 1512169774.004953: $GPRMC,230934,A,3946.9704,N,08404.9835,W,0.4137,224.854,011217,,*35
2017-12-01 18:09:34 1512169774.005015: $GPGSA,A,3,3,14,16,22,23,25,26,31,32,1,29,138,2.0,0.8,1.5*0C
2017-12-01 18:09:35 1512169775.108992: $GPZDA,230935.36,01,12,2017,00,00*6B
2017-12-01 18:09:35 1512169775.109181: $GPGGA,230935,3946.9704,N,08404.9835,W,1,12,0.80,298.25,M,-33.325,M,,*75
2017-12-01 18:09:35 1512169775.109250: $GPRMC,230935,A,3946.9704,N,08404.9835,W,0.1867,0.000,011217,,*30
2017-12-01 18:09:35 1512169775.109310: $GPGSA,A,3,3,14,16,22,23,25,26,31,32,1,29,138,2.0,0.8,1.5*0C
2017-12-01 18:09:35 1512169775.109369: $GPGBS,230935,10.70,M,15.43,M,35.28,M*09
2017-12-01 18:09:36 1512169776.273497: $GPGSV,3,1,12,03,36,304,46,14,60,082,43,16,17,189,41,22,49,280,47*75
2017-12-01 18:09:36 1512169776.273674: $GPGSV,3,2,12,23,07,298,40,25,22,042,41,26,47,174,45,31,72,015,47*7A
2017-12-01 18:09:36 1512169776.273741: $GPGSV,3,3,12,32,40,102,43,01,09,258,14,29,08,078,03,138,38,213,34*40
2017-12-01 18:09:36 1512169776.386842: $GPZDA,230936.00,01,12,2017,00,00*6D
2017-12-01 18:09:36 1512169776.386989: $GPGGA,230936,3946.9707,N,08404.9834,W,1,10,0.80,297.49,M,-33.325,M,,*73
2017-12-01 18:09:36 1512169776.387056: $GPRMC,230936,A,3946.9707,N,08404.9834,W,0.0407,322.013,011217,,*3B
2017-12-01 18:09:36 1512169776.387117: $GPGSA,A,3,3,14,16,22,23,25,26,31,32,138,,,2.0,0.8,1.5*36
2017-12-01 18:09:36 1512169776.839026: $GPZDA,230937.00,01,12,2017,00,00*6C
2017-12-01 18:09:36 1512169776.839210: $GPGGA,230937,3946.9710,N,08404.9826,W,1,10,0.60,296.80,M,-33.325,M,,*7D
2017-12-01 18:09:36 1512169776.839279: $GPRMC,230937,A,3946.9710,N,08404.9826,W,0.1867,0.000,011217,,*35
2017-12-01 18:09:36 1512169776.839340: $GPGSA,A,3,3,14,16,22,23,25,26,31,32,138,,,2.0,0.6,1.5*38
2017-12-01 18:09:37 1512169777.401135: $GPZDA,230938.00,01,12,2017,00,00*63
2017-12-01 18:09:37 1512169777.401316: $GPGGA,230938,3946.9714,N,08404.9826,W,1,10,0.60,296.04,M,-33.325,M,,*7A
2017-12-01 18:09:37 1512169777.401439: $GPRMC,230938,A,3946.9714,N,08404.9826,W,0.0000,0.000,011217,,*36
2017-12-01 18:09:37 1512169777.401503: $GPGSA,A,3,3,14,16,22,23,25,26,31,32,138,,,2.0,0.6,1.5*38
2017-12-01 18:09:38 1512169778.736351: $GPGSV,3,1,12,03,36,304,47,14,60,082,42,16,17,189,41,22,49,280,47*75
2017-12-01 18:09:38 1512169778.741620: $GPGSV,3,2,12,23,07,298,40,25,22,042,42,26,47,174,45,31,72,015,47*79
2017-12-01 18:09:38 1512169778.741734: $GPGSV,3,3,12,32,40,102,43,01,09,258,32,10,03,159,22,138,38,213,46*41
2017-12-01 18:09:38 1512169778.849789: $GPZDA,230939.00,01,12,2017,00,00*62
2017-12-01 18:09:38 1512169778.849965: $GPGGA,230939,3946.9713,N,08404.9825,W,1,12,0.80,294.64,M,-33.325,M,,*77
2017-12-01 18:09:38 1512169778.850031: $GPRMC,230939,A,3946.9713,N,08404.9825,W,0.0000,0.000,011217,,*33
2017-12-01 18:09:38 1512169778.850092: $GPGSA,A,3,3,14,16,22,23,25,26,31,32,1,10,138,2.0,0.8,1.5*06
2017-12-01 18:09:39 1512169779.403106: $GPZDA,230940.00,01,12,2017,00,00*6C
2017-12-01 18:09:39 1512169779.403282: $GPGGA,230940,3946.9713,N,08404.9825,W,1,12,0.60,294.64,M,-33.325,M,,*77
2017-12-01 18:09:39 1512169779.403350: $GPRMC,230940,A,3946.9713,N,08404.9825,W,0.0000,0.000,011217,,*3D
2017-12-01 18:09:39 1512169779.403411: $GPGSA,A,3,3,14,16,22,23,25,26,31,32,1,10,138,2.0,0.6,1.5*08
2017-12-01 18:09:40 1512169780.400160: $GPZDA,230941.00,01,12,2017,00,00*6D
2017-12-01 18:09:40 1512169780.400335: $GPGGA,230941,3946.9716,N,08404.9824,W,1,12,0.60,293.87,M,-33.325,M,,*78
2017-12-01 18:09:40 1512169780.400402: $GPRMC,230941,A,3946.9716,N,08404.9824,W,0.0000,0.000,011217,,*38
2017-12-01 18:09:40 1512169780.400463: $GPGSA,A,3,3,14,16,22,23,25,26,31,32,1,10,138,2.0,0.6,1.5*08
2017-12-01 18:09:40 1512169780.400523: $GPGBS,230941,10.70,M,15.43,M,35.28,M*0A
2017-12-01 18:09:41 1512169781.735844: $GPGSV,3,1,12,03,36,304,47,14,60,082,42,16,17,189,42,22,49,280,48*79
2017-12-01 18:09:41 1512169781.736024: $GPGSV,3,2,12,23,07,298,41,25,22,042,42,26,47,174,46,31,72,015,47*7B
2017-12-01 18:09:41 1512169781.736092: $GPGSV,3,3,12,32,40,102,38,01,09,258,32,29,08,078,27,138,38,213,46*4B
2017-12-01 18:09:41 1512169781.849177: $GPZDA,230942.00,01,12,2017,00,00*6E
2017-12-01 18:09:41 1512169781.849350: $GPGGA,230942,3946.9735,N,08404.9811,W,2,12,0.80,285.15,M,-33.325,M,,*7D
2017-12-01 18:09:41 1512169781.849417: $GPRMC,230942,A,3946.9735,N,08404.9811,W,0.0000,0.000,011217,,*3C
2017-12-01 18:09:41 1512169781.849477: $GPGSA,A,3,3,14,16,22,23,25,26,31,32,1,29,138,2.0,0.8,1.5*0C
2017-12-01 18:09:42 1512169782.402631: $GPZDA,230943.00,01,12,2017,00,00*6F
2017-12-01 18:09:42 1512169782.402812: $GPGGA,230943,3946.9735,N,08404.9811,W,2,12,0.80,285.15,M,-33.325,M,,*7C
2017-12-01 18:09:42 1512169782.402880: $GPRMC,230943,A,3946.9735,N,08404.9811,W,0.0000,0.000,011217,,*3D
2017-12-01 18:09:42 1512169782.402941: $GPGSA,A,3,3,14,16,22,23,25,26,31,32,1,29,138,2.0,0.8,1.5*0C
2017-12-01 18:09:43 1512169783.402120: $GPZDA,230944.00,01,12,2017,00,00*68
2017-12-01 18:09:43 1512169783.402288: $GPGGA,230944,3946.9735,N,08404.9811,W,2,12,0.80,285.15,M,-33.325,M,,*7B
2017-12-01 18:09:43 1512169783.402355: $GPRMC,230944,A,3946.9735,N,08404.9811,W,0.0000,0.000,011217,,*3A
2017-12-01 18:09:43 1512169783.402416: $GPGSA,A,3,3,14,16,22,23,25,26,31,32,1,29,138,2.0,0.8,1.5*0C
2017-12-01 18:09:44 1512169784.737421: $GPGSV,3,1,12,03,36,304,47,14,60,082,42,16,17,189,42,22,49,280,48*79
2017-12-01 18:09:44 1512169784.737603: $GPGSV,3,2,12,23,07,298,41,25,22,042,42,26,47,174,46,31,72,015,47*7B
2017-12-01 18:09:44 1512169784.737670: $GPGSV,3,3,12,32,40,102,40,01,09,258,32,29,08,078,10,138,38,213,46*40
2017-12-01 18:09:44 1512169784.849556: $GPZDA,230945.00,01,12,2017,00,00*69
2017-12-01 18:09:44 1512169784.849739: $GPGGA,230945,3946.9735,N,08404.9811,W,2,12,0.80,285.15,M,-33.325,M,,*7A
2017-12-01 18:09:44 1512169784.849808: $GPRMC,230945,A,3946.9735,N,08404.9811,W,0.0000,0.000,011217,,*3B
2017-12-01 18:09:44 1512169784.849870: $GPGSA,A,3,3,14,16,22,23,25,26,31,32,1,29,138,2.0,0.8,1.5*0C
2017-12-01 18:09:45 1512169785.400546: $GPZDA,230946.00,01,12,2017,00,00*6A
2017-12-01 18:09:45 1512169785.400722: $GPGGA,230946,3946.9731,N,08404.9811,W,2,12,0.80,285.92,M,-33.325,M,,*72
2017-12-01 18:09:45 1512169785.400789: $GPRMC,230946,A,3946.9731,N,08404.9811,W,0.0000,0.000,011217,,*3C
2017-12-01 18:09:45 1512169785.400851: $GPGSA,A,3,3,14,16,22,23,25,26,31,32,1,29,138,2.0,0.8,1.5*0C
2017-12-01 18:09:46 1512169786.404010: $GPZDA,230947.00,01,12,2017,00,00*6B
2017-12-01 18:09:46 1512169786.404195: $GPGGA,230947,3946.9731,N,08404.9811,W,2,12,0.80,285.92,M,-33.325,M,,*73
2017-12-01 18:09:46 1512169786.404263: $GPRMC,230947,A,3946.9731,N,08404.9811,W,0.0000,0.000,011217,,*3D
2017-12-01 18:09:46 1512169786.404325: $GPGSA,A,3,3,14,16,22,23,25,26,31,32,1,29,138,2.0,0.8,1.5*0C
2017-12-01 18:09:47 1512169787.738375: $GPGSV,3,1,12,03,36,304,47,14,60,082,42,16,17,189,42,22,49,280,48*79
2017-12-01 18:09:47 1512169787.738551: $GPGSV,3,2,12,23,07,298,41,25,22,042,42,26,47,174,47,31,72,015,47*7A
2017-12-01 18:09:47 1512169787.738617: $GPGSV,3,3,12,32,40,102,40,01,09,258,32,10,03,159,22,138,38,213,47*43
2017-12-01 18:09:47 1512169787.851766: $GPZDA,230948.00,01,12,2017,00,00*64
2017-12-01 18:09:47 1512169787.851937: $GPGGA,230948,3946.9731,N,08404.9811,W,2,12,0.80,285.92,M,-33.325,M,,*7C
2017-12-01 18:09:47 1512169787.852004: $GPRMC,230948,A,3946.9731,N,08404.9811,W,0.0000,0.000,011217,,*32
2017-12-01 18:09:47 1512169787.852113: $GPGSA,A,3,3,14,16,22,23,25,26,31,32,1,10,138,2.0,0.8,1.5*06
2017-12-01 18:09:48 1512169788.477265: $GPZDA,230949.00,01,12,2017,00,00*65
2017-12-01 18:09:48 1512169788.477455: $GPGGA,230949,3946.9733,N,08404.9820,W,2,12,0.80,288.65,M,-33.325,M,,*78
2017-12-01 18:09:48 1512169788.477523: $GPRMC,230949,A,3946.9733,N,08404.9820,W,0.0000,0.000,011217,,*33
2017-12-01 18:09:48 1512169788.477584: $GPGSA,A,3,3,14,16,22,23,25,26,31,32,1,10,138,2.0,0.8,1.5*06
2017-12-01 18:09:49 1512169789.400768: $GPZDA,230950.00,01,12,2017,00,00*6D
2017-12-01 18:09:49 1512169789.404977: $GPGGA,230950,3946.9733,N,08404.9820,W,2,12,0.60,288.65,M,-33.325,M,,*7E
2017-12-01 18:09:49 1512169789.405092: $GPRMC,230950,A,3946.9733,N,08404.9820,W,0.0000,0.000,011217,,*3B
2017-12-01 18:09:49 1512169789.405156: $GPGSA,A,3,3,14,16,22,23,25,26,31,32,1,10,138,2.0,0.6,1.5*08
2017-12-01 18:09:50 1512169790.736219: $GPGSV,3,1,12,03,36,304,47,14,60,082,42,16,17,189,42,22,49,280,48*79
2017-12-01 18:09:50 1512169790.736406: $GPGSV,3,2,12,23,07,298,42,25,22,042,42,26,47,174,47,31,72,015,47*79
2017-12-01 18:09:50 1512169790.736473: $GPGSV,3,3,12,32,40,102,42,01,09,258,31,29,08,078,19,138,38,213,47*49
2017-12-01 18:09:50 1512169790.849573: $GPZDA,230951.00,01,12,2017,00,00*6C
2017-12-01 18:09:50 1512169790.849745: $GPGGA,230951,3946.9733,N,08404.9820,W,2,11,0.80,288.65,M,-33.325,M,,*72
2017-12-01 18:09:50 1512169790.849812: $GPRMC,230951,A,3946.9733,N,08404.9820,W,0.0000,0.000,011217,,*3A
2017-12-01 18:09:50 1512169790.849872: $GPGSA,A,3,3,14,16,22,23,25,26,31,32,1,138,,2.0,0.8,1.5*07
2017-12-01 18:09:51 1512169791.403017: $GPZDA,230952.00,01,12,2017,00,00*6F
2017-12-01 18:09:51 1512169791.403193: $GPGGA,230952,3946.9733,N,08404.9820,W,2,11,0.80,288.65,M,-33.325,M,,*71
2017-12-01 18:09:51 1512169791.403261: $GPRMC,230952,A,3946.9733,N,08404.9820,W,0.0000,0.000,011217,,*39
2017-12-01 18:09:51 1512169791.403322: $GPGSA,A,3,3,14,16,22,23,25,26,31,32,1,138,,2.0,0.8,1.5*07
2017-12-01 18:09:52 1512169792.401224: $GPZDA,230953.00,01,12,2017,00,00*6E
2017-12-01 18:09:52 1512169792.401448: $GPGGA,230953,3946.9733,N,08404.9820,W,2,11,0.80,288.65,M,-33.325,M,,*70
2017-12-01 18:09:52 1512169792.401527: $GPRMC,230953,A,3946.9733,N,08404.9820,W,0.0000,0.000,011217,,*38
2017-12-01 18:09:52 1512169792.401590: $GPGSA,A,3,3,14,16,22,23,25,26,31,32,1,138,,2.0,0.8,1.5*07
2017-12-01 18:09:52 1512169792.401649: $GPGBS,230953,2.67,M,3.86,M,8.82,M*3C
2017-12-01 18:09:53 1512169793.737671: $GPGSV,3,1,12,03,36,304,46,14,60,082,43,16,17,189,43,22,49,280,48*78
2017-12-01 18:09:53 1512169793.737851: $GPGSV,3,2,12,23,07,298,42,25,22,042,42,26,47,174,47,31,72,015,48*76
2017-12-01 18:09:53 1512169793.737919: $GPGSV,3,3,12,32,40,102,41,01,09,258,31,10,03,159,23,138,38,213,46*41
