2017-11-15 19:07:23 1510790843.593858: {"class":"VERSION","release":"3.17","rev":"3.17","proto_major":3,"proto_minor":12}
2017-11-15 19:07:23 1510790843.594311: {"class":"DEVICES","devices":[{"class":"DEVICE","path":"/dev/ttyUSB0","driver":"SiRF","subtype":"9\u0006GSD4e_4.1.2-P1_RPATCH.05-F-GPS-4R-1510281 11/03/2015 307","activated":"2017-11-16T00:07:23.471Z","flags":1,"native":1,"bps":4800,"parity":"N","stopbits":1,"cycle":1.00}]}
2017-11-15 19:07:23 1510790843.594431: {"class":"WATCH","enable":true,"json":false,"nmea":true,"raw":0,"scaled":false,"timing":false,"split24":false,"pps":false}
2017-11-15 19:07:24 1510790844.667402: $GPGSV,3,1,12,32,44,097,22,14,62,076,24,29,07,081,15,26,42,175,21*72
2017-11-15 19:07:24 1510790844.667591: $GPGSV,3,2,12,31,75,001,27,16,12,190,17,22,48,286,25,03,33,309,00*7B
2017-11-15 19:07:24 1510790844.667652: $GPGSV,3,3,12,25,25,045,00,01,11,261,00,10,07,159,00,120,07,103,00*42
2017-11-15 19:07:24 1510790844.780694: $GPZDA,000723.00,16,11,2017,00,00*63
2017-11-15 19:07:24 1510790844.780869: $GPGGA,000723,3946.9665,N,08404.9503,W,1,07,1.20,303.83,M,-33.324,M,,*72
2017-11-15 19:07:24 1510790844.780931: $GPRMC,000723,A,3946.9665,N,08404.9503,W,0.8011,299.090,161117,,*38
2017-11-15 19:07:24 1510790844.780987: $GPGSA,A,3,32,14,29,26,31,16,22,,,,,,3.4,1.2,2.9*33
2017-11-15 19:07:25 1510790845.330318: $GPZDA,000724.00,16,11,2017,00,00*64
2017-11-15 19:07:25 1510790845.330490: $GPGGA,000724,3946.9665,N,08404.9503,W,1,07,1.20,303.83,M,-33.324,M,,*75
2017-11-15 19:07:25 1510790845.330552: $GPRMC,000724,A,3946.9665,N,08404.9503,W,0.5857,338.291,161117,,*31
2017-11-15 19:07:25 1510790845.330609: $GPGSA,A,3,32,14,29,26,31,16,22,,,,,,3.4,1.2,2.9*33
2017-11-15 19:07:26 1510790846.329451: $GPZDA,000725.00,16,11,2017,00,00*65
2017-11-15 19:07:26 1510790846.329614: $GPGGA,000725,3946.9665,N,08404.9510,W,1,07,1.20,303.76,M,-33.324,M,,*7C
2017-11-15 19:07:26 1510790846.329675: $GPRMC,000725,A,3946.9665,N,08404.9510,W,0.7246,344.668,161117,,*33
2017-11-15 19:07:26 1510790846.329732: $GPGSA,A,3,32,14,29,26,31,16,22,,,,,,3.4,1.2,2.9*33
2017-11-15 19:07:27 1510790847.680254: $GPGSV,3,1,12,32,44,097,22,14,62,076,24,29,07,081,16,26,42,175,21*71
2017-11-15 19:07:27 1510790847.680426: $GPGSV,3,2,12,31,75,001,27,16,12,190,17,22,48,286,25,03,33,309,00*7B
2017-11-15 19:07:27 1510790847.680487: $GPGSV,3,3,12,25,25,045,00,01,11,261,00,10,07,159,00,120,07,103,00*42
2017-11-15 19:07:27 1510790847.793554: $GPZDA,000726.00,16,11,2017,00,00*66
2017-11-15 19:07:27 1510790847.793721: $GPGGA,000726,3946.9669,N,08404.9510,W,1,07,1.20,304.40,M,-33.324,M,,*71
2017-11-15 19:07:27 1510790847.793783: $GPRMC,000726,A,3946.9669,N,08404.9510,W,0.7238,320.710,161117,,*39
2017-11-15 19:07:27 1510790847.793840: $GPGSA,A,3,32,14,29,26,31,16,22,,,,,,3.4,1.2,2.9*33
2017-11-15 19:07:28 1510790848.344439: $GPZDA,000727.00,16,11,2017,00,00*67
2017-11-15 19:07:28 1510790848.344612: $GPGGA,000727,3946.9665,N,08404.9510,W,1,07,1.20,303.76,M,-33.324,M,,*7E
2017-11-15 19:07:28 1510790848.344673: $GPRMC,000727,A,3946.9665,N,08404.9510,W,0.7267,273.794,161117,,*35
2017-11-15 19:07:28 1510790848.344729: $GPGSA,A,3,32,14,29,26,31,16,22,,,,,,3.4,1.2,2.9*33
2017-11-15 19:07:29 1510790849.329235: $GPZDA,000728.00,16,11,2017,00,00*68
2017-11-15 19:07:29 1510790849.329408: $GPGGA,000728,3946.9662,N,08404.9518,W,1,07,1.20,304.44,M,-33.324,M,,*78
2017-11-15 19:07:29 1510790849.329468: $GPRMC,000728,A,3946.9662,N,08404.9518,W,0.8054,248.645,161117,,*3D
2017-11-15 19:07:29 1510790849.329524: $GPGSA,A,3,32,14,29,26,31,16,22,,,,,,3.4,1.2,2.9*33
2017-11-15 19:07:30 1510790850.679885: $GPGSV,3,1,12,32,44,097,22,14,62,076,24,29,07,081,16,26,42,175,21*71
2017-11-15 19:07:30 1510790850.680055: $GPGSV,3,2,12,31,75,001,28,16,12,190,17,22,48,286,26,03,33,309,00*77
2017-11-15 19:07:30 1510790850.680114: $GPGSV,3,3,12,25,25,045,00,01,11,261,00,10,07,159,00,120,07,103,00*42
2017-11-15 19:07:30 1510790850.793251: $GPZDA,000729.00,16,11,2017,00,00*69
2017-11-15 19:07:30 1510790850.793418: $GPGGA,000729,3946.9662,N,08404.9518,W,1,07,1.20,304.44,M,-33.324,M,,*79
2017-11-15 19:07:30 1510790850.793531: $GPRMC,000729,A,3946.9662,N,08404.9518,W,0.8054,248.645,161117,,*3C
2017-11-15 19:07:30 1510790850.793589: $GPGSA,A,3,32,14,29,26,31,16,22,,,,,,3.4,1.2,2.9*33
2017-11-15 19:07:31 1510790851.418542: $GPZDA,000730.00,16,11,2017,00,00*61
2017-11-15 19:07:31 1510790851.418708: $GPGGA,000730,3946.9662,N,08404.9525,W,1,07,1.20,304.36,M,-33.324,M,,*7A
2017-11-15 19:07:31 1510790851.418769: $GPRMC,000730,A,3946.9662,N,08404.9525,W,0.7267,273.794,161117,,*32
2017-11-15 19:07:31 1510790851.418825: $GPGSA,A,3,32,14,29,26,31,16,22,,,,,,3.4,1.2,2.9*33
2017-11-15 19:07:32 1510790852.345676: $GPZDA,000731.00,16,11,2017,00,00*60
2017-11-15 19:07:32 1510790852.345850: $GPGGA,000731,3946.9658,N,08404.9525,W,1,07,1.20,303.72,M,-33.324,M,,*75
2017-11-15 19:07:32 1510790852.345912: $GPRMC,000731,A,3946.9658,N,08404.9525,W,0.2422,273.794,161117,,*38
2017-11-15 19:07:32 1510790852.345969: $GPGSA,A,3,32,14,29,26,31,16,22,,,,,,3.4,1.2,2.9*33
