2017-12-31 18:02:50 1514761370.737632: {"class":"VERSION","release":"3.16","rev":"3.16-4","proto_major":3,"proto_minor":11}
2017-12-31 18:02:50 1514761370.738003: {"class":"DEVICES","devices":[{"class":"DEVICE","path":"/dev/ttyUSB0","driver":"SiRF","activated":"2017-12-31T23:02:50.516Z","flags":1,"native":1,"bps":4800,"parity":"N","stopbits":1,"cycle":1.00}]}
2017-12-31 18:02:50 1514761370.738113: {"class":"WATCH","enable":true,"json":false,"nmea":true,"raw":0,"scaled":false,"timing":false,"split24":false,"pps":false}
2017-12-31 18:02:51 1514761371.682635: $GPGSV,3,1,11,22,25,216,41,23,51,307,44,09,18,312,34,03,34,237,44*78
2017-12-31 18:02:51 1514761371.682844: $GPGSV,3,2,11,16,77,192,44,29,07,033,33,14,18,132,32,31,30,072,39*7A
2017-12-31 18:02:51 1514761371.682912: $GPGSV,3,3,11,27,19,156,31,26,65,052,50,135,22,240,43*77
2017-12-31 18:02:51 1514761371.796267: $GPZDA,230252.00,31,12,2017,00,00*67
2017-12-31 18:02:51 1514761371.796436: $GPGGA,230252,3946.9561,N,08404.9874,W,2,11,0.60,308.17,M,-33.324,M,,*7D
2017-12-31 18:02:51 1514761371.796502: $GPRMC,230252,A,3946.9561,N,08404.9874,W,0.0000,0.000,311217,,*35
2017-12-31 18:02:51 1514761371.796586: $GPGSA,A,3,22,23,9,3,16,29,14,31,27,26,135,,1.7,0.6,1.3*06
2017-12-31 18:02:52 1514761372.347584: $GPZDA,230253.00,31,12,2017,00,00*66
2017-12-31 18:02:52 1514761372.347749: $GPGGA,230253,3946.9561,N,08404.9874,W,2,11,0.60,308.17,M,-33.324,M,,*7C
2017-12-31 18:02:52 1514761372.347817: $GPRMC,230253,A,3946.9561,N,08404.9874,W,0.0000,0.000,311217,,*34
2017-12-31 18:02:52 1514761372.347877: $GPGSA,A,3,22,23,9,3,16,29,14,31,27,26,135,,1.7,0.6,1.3*06
2017-12-31 18:02:53 1514761373.374374: $GPZDA,230254.00,31,12,2017,00,00*61
2017-12-31 18:02:53 1514761373.374544: $GPGGA,230254,3946.9561,N,08404.9874,W,2,11,0.60,308.17,M,-33.324,M,,*7B
2017-12-31 18:02:53 1514761373.374613: $GPRMC,230254,A,3946.9561,N,08404.9874,W,0.0000,0.000,311217,,*33
2017-12-31 18:02:53 1514761373.374676: $GPGSA,A,3,22,23,9,3,16,29,14,31,27,26,135,,1.7,0.6,1.3*06
2017-12-31 18:02:54 1514761374.676001: $GPGSV,3,1,11,22,25,216,41,23,51,307,45,09,18,312,34,03,34,237,44*79
2017-12-31 18:02:54 1514761374.676174: $GPGSV,3,2,11,16,77,192,44,29,07,033,36,14,18,132,32,31,30,072,39*7F
2017-12-31 18:02:54 1514761374.676241: $GPGSV,3,3,11,27,19,156,30,26,65,052,50,135,22,240,43*76
2017-12-31 18:02:54 1514761374.789762: $GPZDA,230255.00,31,12,2017,00,00*60
2017-12-31 18:02:54 1514761374.789946: $GPGGA,230255,3946.9561,N,08404.9874,W,2,11,0.60,308.17,M,-33.324,M,,*7A
2017-12-31 18:02:54 1514761374.790012: $GPRMC,230255,A,3946.9561,N,08404.9874,W,0.0000,0.000,311217,,*32
2017-12-31 18:02:54 1514761374.790073: $GPGSA,A,3,22,23,9,3,16,29,14,31,27,26,135,,1.7,0.6,1.3*06
2017-12-31 18:02:55 1514761375.415092: $GPZDA,230256.00,31,12,2017,00,00*63
2017-12-31 18:02:55 1514761375.415260: $GPGGA,230256,3946.9561,N,08404.9874,W,2,11,0.60,308.17,M,-33.324,M,,*79
2017-12-31 18:02:55 1514761375.415328: $GPRMC,230256,A,3946.9561,N,08404.9874,W,0.0000,0.000,311217,,*31
2017-12-31 18:02:55 1514761375.415389: $GPGSA,A,3,22,23,9,3,16,29,14,31,27,26,135,,1.7,0.6,1.3*06
2017-12-31 18:02:56 1514761376.374782: $GPZDA,230257.00,31,12,2017,00,00*62
2017-12-31 18:02:56 1514761376.374952: $GPGGA,230257,3946.9561,N,08404.9874,W,2,11,0.60,308.17,M,-33.324,M,,*78
2017-12-31 18:02:56 1514761376.375020: $GPRMC,230257,A,3946.9561,N,08404.9874,W,0.0000,0.000,311217,,*30
2017-12-31 18:02:56 1514761376.375081: $GPGSA,A,3,22,23,9,3,16,29,14,31,27,26,135,,1.7,0.6,1.3*06
2017-12-31 18:02:57 1514761377.681353: $GPGSV,3,1,11,22,25,216,41,23,51,307,45,09,18,312,35,03,34,237,45*79
2017-12-31 18:02:57 1514761377.681518: $GPGSV,3,2,11,16,77,192,44,29,07,033,37,14,18,132,32,31,30,072,38*7F
2017-12-31 18:02:57 1514761377.681587: $GPGSV,3,3,11,27,19,156,30,26,65,052,49,135,22,240,45*78
2017-12-31 18:02:57 1514761377.795080: $GPZDA,230258.00,31,12,2017,00,00*6D
2017-12-31 18:02:57 1514761377.795240: $GPGGA,230258,3946.9561,N,08404.9874,W,2,11,0.60,308.17,M,-33.324,M,,*77
2017-12-31 18:02:57 1514761377.795308: $GPRMC,230258,A,3946.9561,N,08404.9874,W,0.0000,0.000,311217,,*3F
2017-12-31 18:02:57 1514761377.795423: $GPGSA,A,3,22,23,9,3,16,29,14,31,27,26,135,,1.7,0.6,1.3*06
2017-12-31 18:02:58 1514761378.347257: $GPZDA,230259.00,31,12,2017,00,00*6C
2017-12-31 18:02:58 1514761378.347408: $GPGGA,230259,3946.9561,N,08404.9874,W,2,11,0.60,308.17,M,-33.324,M,,*76
2017-12-31 18:02:58 1514761378.347474: $GPRMC,230259,A,3946.9561,N,08404.9874,W,0.0000,0.000,311217,,*3E
2017-12-31 18:02:58 1514761378.347536: $GPGSA,A,3,22,23,9,3,16,29,14,31,27,26,135,,1.7,0.6,1.3*06
2017-12-31 18:02:59 1514761379.375464: $GPZDA,230300.00,31,12,2017,00,00*61
2017-12-31 18:02:59 1514761379.375639: $GPGGA,230300,3946.9561,N,08404.9874,W,2,11,0.80,308.17,M,-33.324,M,,*75
2017-12-31 18:02:59 1514761379.375706: $GPRMC,230300,A,3946.9561,N,08404.9874,W,0.0000,0.000,311217,,*33
2017-12-31 18:02:59 1514761379.375768: $GPGSA,A,3,22,23,9,3,16,29,14,31,27,26,135,,1.7,0.8,1.3*08
2017-12-31 18:03:00 1514761380.704192: $GPGSV,3,1,11,22,25,216,40,23,51,307,45,09,18,312,34,03,34,237,45*79
2017-12-31 18:03:00 1514761380.704366: $GPGSV,3,2,11,16,77,192,44,29,07,033,36,14,18,132,33,31,30,072,38*7F
2017-12-31 18:03:00 1514761380.704432: $GPGSV,3,3,11,27,19,156,31,26,65,052,49,135,22,240,43*7F
