2017-11-15 19:18:00 1510791480.346458: {"class":"VERSION","release":"3.17","rev":"3.17","proto_major":3,"proto_minor":12}
2017-11-15 19:18:00 1510791480.347208: {"class":"DEVICES","devices":[{"class":"DEVICE","path":"/dev/ttyUSB0","driver":"SiRF","subtype":"9\u0006GSD4e_4.1.2-P1_RPATCH.05-F-GPS-4R-1510281 11/03/2015 307","activated":"2017-11-16T00:18:00.216Z","flags":1,"native":1,"bps":4800,"parity":"N","stopbits":1,"cycle":1.00}]}
2017-11-15 19:18:00 1510791480.347337: {"class":"WATCH","enable":true,"json":false,"nmea":true,"raw":0,"scaled":false,"timing":false,"split24":false,"pps":false}
2017-11-15 19:18:00 1510791480.665841: $GPGSV,3,1,12,32,41,102,21,14,59,084,21,22,49,280,22,26,46,175,24*7E
2017-11-15 19:18:00 1510791480.666010: $GPGSV,3,2,12,31,72,013,17,29,09,076,16,03,36,304,22,16,16,190,14*70
2017-11-15 19:18:00 1510791480.666069: $GPGSV,3,3,12,25,22,042,00,01,09,256,00,23,07,298,00,120,07,103,00*41
2017-11-15 19:18:00 1510791480.778153: $GPZDA,001759.00,16,11,2017,00,00*6F
2017-11-15 19:18:00 1510791480.778326: $GPGGA,001759,3946.9575,N,08404.9485,W,1,07,1.20,270.69,M,-33.324,M,,*72
2017-11-15 19:18:00 1510791480.778387: $GPRMC,001759,A,3946.9575,N,08404.9485,W,1.5545,212.064,161117,,*39
2017-11-15 19:18:00 1510791480.778443: $GPGSA,A,3,32,14,22,26,31,29,3,,,,,,3.4,1.2,2.9*07
2017-11-15 19:18:01 1510791481.405070: $GPZDA,001800.00,16,11,2017,00,00*6C
2017-11-15 19:18:01 1510791481.405252: $GPGGA,001800,3946.9567,N,08404.9493,W,1,07,1.20,270.74,M,-33.324,M,,*79
2017-11-15 19:18:01 1510791481.405313: $GPRMC,001800,A,3946.9567,N,08404.9493,W,1.2621,219.347,161117,,*31
2017-11-15 19:18:01 1510791481.405369: $GPGSA,A,3,32,14,22,26,31,29,3,,,,,,3.4,1.2,2.9*07
2017-11-15 19:18:02 1510791482.345995: $GPZDA,001801.00,16,11,2017,00,00*6D
2017-11-15 19:18:02 1510791482.346147: $GPGGA,001801,3946.9563,N,08404.9493,W,1,07,1.20,270.10,M,-33.324,M,,*7E
2017-11-15 19:18:02 1510791482.346217: $GPRMC,001801,A,3946.9563,N,08404.9493,W,1.8311,215.640,161117,,*36
2017-11-15 19:18:02 1510791482.346275: $GPGSA,A,3,32,14,22,26,31,29,3,,,,,,3.4,1.2,2.9*07
2017-11-15 19:18:03 1510791483.666186: $GPGSV,3,1,12,32,41,102,22,14,59,084,21,22,49,280,21,26,46,175,24*7E
2017-11-15 19:18:03 1510791483.666355: $GPGSV,3,2,12,31,72,013,17,29,09,076,15,03,36,304,22,16,16,190,11*76
2017-11-15 19:18:03 1510791483.666414: $GPGSV,3,3,12,25,22,042,00,01,09,256,00,23,07,298,00,120,07,103,00*41
2017-11-15 19:18:03 1510791483.779851: $GPZDA,001802.00,16,11,2017,00,00*6E
2017-11-15 19:18:03 1510791483.780018: $GPGGA,001802,3946.9559,N,08404.9493,W,1,07,1.20,269.46,M,-33.324,M,,*7F
2017-11-15 19:18:03 1510791483.780080: $GPRMC,001802,A,3946.9559,N,08404.9493,W,1.0567,197.448,161117,,*30
2017-11-15 19:18:03 1510791483.780135: $GPGSA,A,3,32,14,22,26,31,29,3,,,,,,3.4,1.2,2.9*07
2017-11-15 19:18:04 1510791484.347007: $GPZDA,001803.00,16,11,2017,00,00*6F
2017-11-15 19:18:04 1510791484.347175: $GPGGA,001803,3946.9556,N,08404.9494,W,1,07,1.20,270.22,M,-33.324,M,,*7C
2017-11-15 19:18:04 1510791484.347236: $GPRMC,001803,A,3946.9556,N,08404.9494,W,0.9019,198.875,161117,,*30
2017-11-15 19:18:04 1510791484.347291: $GPGSA,A,3,32,14,22,26,31,29,3,,,,,,3.4,1.2,2.9*07
2017-11-15 19:18:05 1510791485.346210: $GPZDA,001804.00,16,11,2017,00,00*68
2017-11-15 19:18:05 1510791485.346378: $GPGGA,001804,3946.9551,N,08404.9494,W,1,07,1.20,269.58,M,-33.324,M,,*79
2017-11-15 19:18:05 1510791485.346442: $GPRMC,001804,A,3946.9551,N,08404.9494,W,1.0018,230.691,161117,,*3C
2017-11-15 19:18:05 1510791485.346503: $GPGSA,A,3,32,14,22,26,31,29,3,,,,,,3.4,1.2,2.9*07
2017-11-15 19:18:06 1510791486.682766: $GPGSV,3,1,12,32,41,102,23,14,59,084,21,22,49,280,20,26,46,175,24*7E
2017-11-15 19:18:06 1510791486.682916: $GPGSV,3,2,12,31,72,013,17,29,09,076,15,03,36,304,22,25,22,042,00*7F
2017-11-15 19:18:06 1510791486.682975: $GPGSV,3,3,12,16,16,190,00,01,09,256,00,23,07,298,00,120,07,103,00*48
2017-11-15 19:18:06 1510791486.796369: $GPZDA,001805.00,16,11,2017,00,00*69
2017-11-15 19:18:06 1510791486.796539: $GPGGA,001805,3946.9551,N,08404.9494,W,1,07,1.20,269.58,M,-33.324,M,,*78
2017-11-15 19:18:06 1510791486.796654: $GPRMC,001805,A,3946.9551,N,08404.9494,W,0.7278,203.636,161117,,*32
2017-11-15 19:18:06 1510791486.796777: $GPGSA,A,3,32,14,22,26,31,29,3,,,,,,3.4,1.2,2.9*07
2017-11-15 19:18:07 1510791487.347016: $GPZDA,001806.00,16,11,2017,00,00*6A
2017-11-15 19:18:07 1510791487.347187: $GPGGA,001806,3946.9551,N,08404.9494,W,1,07,1.20,269.58,M,-33.324,M,,*7B
2017-11-15 19:18:07 1510791487.347250: $GPRMC,001806,A,3946.9551,N,08404.9494,W,0.5951,238.684,161117,,*32
2017-11-15 19:18:07 1510791487.347306: $GPGSA,A,3,32,14,22,26,31,29,3,,,,,,3.4,1.2,2.9*07
2017-11-15 19:18:08 1510791488.329088: $GPZDA,001807.00,16,11,2017,00,00*6B
2017-11-15 19:18:08 1510791488.329252: $GPGGA,001807,3946.9547,N,08404.9494,W,1,07,1.20,268.94,M,-33.324,M,,*7C
2017-11-15 19:18:08 1510791488.329313: $GPRMC,001807,A,3946.9547,N,08404.9494,W,0.2422,273.794,161117,,*35
2017-11-15 19:18:08 1510791488.329369: $GPGSA,A,3,32,14,22,26,31,29,3,,,,,,3.4,1.2,2.9*07
2017-11-15 19:18:09 1510791489.682386: $GPGSV,3,1,12,32,41,102,24,14,59,084,21,22,49,280,20,26,46,175,24*79
2017-11-15 19:18:09 1510791489.682580: $GPGSV,3,2,12,31,72,013,16,29,09,076,15,03,36,304,21,25,22,042,00*7D
2017-11-15 19:18:09 1510791489.682642: $GPGSV,3,3,12,16,16,190,00,01,09,256,00,23,07,298,00,120,07,103,00*48
2017-11-15 19:18:09 1510791489.795780: $GPZDA,001808.00,16,11,2017,00,00*64
2017-11-15 19:18:09 1510791489.795952: $GPGGA,001808,3946.9551,N,08404.9493,W,1,07,1.20,268.18,M,-33.324,M,,*77
2017-11-15 19:18:09 1510791489.796013: $GPRMC,001808,A,3946.9551,N,08404.9493,W,0.4179,328.778,161117,,*3A
2017-11-15 19:18:09 1510791489.796069: $GPGSA,A,3,32,14,22,26,31,29,3,,,,,,3.4,1.2,2.9*07
2017-11-15 19:18:10 1510791490.330306: $GPZDA,001809.00,16,11,2017,00,00*65
2017-11-15 19:18:10 1510791490.330475: $GPGGA,001809,3946.9551,N,08404.9500,W,1,07,1.20,268.10,M,-33.324,M,,*75
2017-11-15 19:18:10 1510791490.330536: $GPRMC,001809,A,3946.9551,N,08404.9500,W,0.5951,238.684,161117,,*31
2017-11-15 19:18:10 1510791490.330593: $GPGSA,A,3,32,14,22,26,31,29,3,,,,,,3.4,1.2,2.9*07
