2018-01-11 20:14:28 1515719668.250052: {"class":"VERSION","release":"3.16","rev":"3.16-4","proto_major":3,"proto_minor":11}
2018-01-11 20:14:28 1515719668.250404: {"class":"DEVICES","devices":[{"class":"DEVICE","path":"/dev/ttyUSB0","driver":"SiRF","subtype":"9\u0006GSD4e_4.1.2-P1_RPATCH.05-F-GPS-4R-1510281 11/03/2015 307","activated":"2018-01-12T01:14:28.241Z","flags":1,"native":1,"bps":4800,"parity":"N","stopbits":1,"cycle":1.00}]}
2018-01-11 20:14:28 1515719668.250517: {"class":"WATCH","enable":true,"json":false,"nmea":true,"raw":0,"scaled":false,"timing":false,"split24":false,"pps":false}
2018-01-11 20:14:29 1515719669.301166: $GPZDA,011429.43,12,01,2018,00,00*67
2018-01-11 20:14:29 1515719669.301339: $GPGGA,011429,3946.9579,N,08404.9836,W,1,10,1.00,294.71,M,-33.324,M,,*78
2018-01-11 20:14:29 1515719669.301405: $GPRMC,011429,A,3946.9579,N,08404.9836,W,0.3423,184.197,120118,,*39
2018-01-11 20:14:29 1515719669.301466: $GPGSA,A,3,7,8,9,11,16,23,27,28,30,138,,,4.0,1.0,3.5*37
2018-01-11 20:14:29 1515719669.301524: $GPGBS,011429,14.62,M,24.83,M,80.38,M*0E
2018-01-11 20:14:30 1515719670.421238: $GPGSV,3,1,10,07,57,315,42,08,74,124,47,09,46,228,42,11,21,166,47*75
2018-01-11 20:14:30 1515719670.421400: $GPGSV,3,2,10,16,22,061,44,23,27,189,50,27,46,052,50,28,15,259,38*76
2018-01-11 20:14:30 1515719670.421466: $GPGSV,3,3,10,30,30,306,00,138,38,213,10*4D
2018-01-11 20:14:30 1515719670.534546: $GPZDA,011430.00,12,01,2018,00,00*68
2018-01-11 20:14:30 1515719670.534661: $GPGGA,011430,3946.9579,N,08404.9836,W,1,09,1.00,294.71,M,-33.324,M,,*78
2018-01-11 20:14:30 1515719670.534724: $GPRMC,011430,A,3946.9579,N,08404.9836,W,0.0000,0.000,120118,,*35
2018-01-11 20:14:30 1515719670.534784: $GPGSA,A,3,7,8,9,11,16,23,27,28,138,,,,4.0,1.0,3.5*34
2018-01-11 20:14:30 1515719670.985571: $GPZDA,011431.00,12,01,2018,00,00*69
2018-01-11 20:14:30 1515719670.985743: $GPGGA,011431,3946.9579,N,08404.9843,W,1,09,0.80,294.63,M,-33.324,M,,*71
2018-01-11 20:14:30 1515719670.985808: $GPRMC,011431,A,3946.9579,N,08404.9843,W,0.0000,0.000,120118,,*36
2018-01-11 20:14:30 1515719670.985869: $GPGSA,A,3,7,8,9,11,16,23,27,28,138,,,,4.0,0.8,3.5*3D
2018-01-11 20:14:31 1515719671.437677: $GPZDA,011432.00,12,01,2018,00,00*6A
2018-01-11 20:14:31 1515719671.437837: $GPGGA,011432,3946.9584,N,08404.9843,W,1,09,0.80,295.27,M,-33.324,M,,*71
2018-01-11 20:14:31 1515719671.437903: $GPRMC,011432,A,3946.9584,N,08404.9843,W,0.0000,0.000,120118,,*37
2018-01-11 20:14:31 1515719671.437963: $GPGSA,A,3,7,8,9,11,16,23,27,28,138,,,,4.0,0.8,3.5*3D
2018-01-11 20:14:32 1515719672.680374: $GPGSV,3,1,10,07,57,315,43,08,74,124,47,09,46,228,43,11,21,166,47*75
2018-01-11 20:14:32 1515719672.680541: $GPGSV,3,2,10,16,22,061,45,23,27,189,50,27,46,052,50,28,15,259,38*77
2018-01-11 20:14:32 1515719672.680606: $GPGSV,3,3,10,30,30,306,26,138,38,213,46*4A
2018-01-11 20:14:32 1515719672.792458: $GPZDA,011433.00,12,01,2018,00,00*6B
2018-01-11 20:14:32 1515719672.792586: $GPGGA,011433,3946.9584,N,08404.9843,W,1,10,0.80,295.27,M,-33.324,M,,*78
2018-01-11 20:14:32 1515719672.792649: $GPRMC,011433,A,3946.9584,N,08404.9843,W,0.0000,0.000,120118,,*36
2018-01-11 20:14:32 1515719672.792709: $GPGSA,A,3,7,8,9,11,16,23,27,28,30,138,,,4.0,0.8,3.5*3E
2018-01-11 20:14:33 1515719673.340857: $GPZDA,011434.00,12,01,2018,00,00*6C
2018-01-11 20:14:33 1515719673.341027: $GPGGA,011434,3946.9584,N,08404.9843,W,1,10,0.80,295.27,M,-33.324,M,,*7F
2018-01-11 20:14:33 1515719673.341093: $GPRMC,011434,A,3946.9584,N,08404.9843,W,0.2758,128.233,120118,,*30
2018-01-11 20:14:33 1515719673.341154: $GPGSA,A,3,7,8,9,11,16,23,27,28,30,138,,,4.0,0.8,3.5*3E
2018-01-11 20:14:34 1515719674.342866: $GPZDA,011435.00,12,01,2018,00,00*6D
2018-01-11 20:14:34 1515719674.343039: $GPGGA,011435,3946.9584,N,08404.9843,W,1,10,0.80,295.27,M,-33.324,M,,*7E
2018-01-11 20:14:34 1515719674.343105: $GPRMC,011435,A,3946.9584,N,08404.9843,W,0.0000,0.000,120118,,*30
2018-01-11 20:14:34 1515719674.343165: $GPGSA,A,3,7,8,9,11,16,23,27,28,30,138,,,4.0,0.8,3.5*3E
2018-01-11 20:14:34 1515719674.343223: $GPGBS,011435,14.62,M,24.83,M,80.38,M*03
2018-01-11 20:14:35 1515719675.679854: $GPGSV,3,1,10,07,57,315,42,08,74,124,46,09,46,228,42,11,21,166,46*75
2018-01-11 20:14:35 1515719675.680034: $GPGSV,3,2,10,16,22,061,44,23,27,189,49,27,46,052,50,28,15,259,37*71
2018-01-11 20:14:35 1515719675.680100: $GPGSV,3,3,10,30,30,306,30,138,38,213,45*4E
2018-01-11 20:14:35 1515719675.793162: $GPZDA,011436.00,12,01,2018,00,00*6E
2018-01-11 20:14:35 1515719675.793284: $GPGGA,011436,3946.9591,N,08404.9843,W,1,10,0.80,295.14,M,-33.324,M,,*79
2018-01-11 20:14:35 1515719675.793347: $GPRMC,011436,A,3946.9591,N,08404.9843,W,0.0000,0.000,120118,,*37
2018-01-11 20:14:35 1515719675.793408: $GPGSA,A,3,7,8,9,11,16,23,27,28,30,138,,,4.0,0.8,3.5*3E
2018-01-11 20:14:36 1515719676.344067: $GPZDA,011437.00,12,01,2018,00,00*6F
2018-01-11 20:14:36 1515719676.344244: $GPGGA,011437,3946.9591,N,08404.9843,W,1,10,0.80,295.14,M,-33.324,M,,*78
2018-01-11 20:14:36 1515719676.344311: $GPRMC,011437,A,3946.9591,N,08404.9843,W,0.0000,0.000,120118,,*36
2018-01-11 20:14:36 1515719676.344371: $GPGSA,A,3,7,8,9,11,16,23,27,28,30,138,,,4.0,0.8,3.5*3E
2018-01-11 20:14:37 1515719677.345713: $GPZDA,011438.00,12,01,2018,00,00*60
2018-01-11 20:14:37 1515719677.345883: $GPGGA,011438,3946.9591,N,08404.9843,W,1,10,0.80,295.14,M,-33.324,M,,*77
2018-01-11 20:14:37 1515719677.345949: $GPRMC,011438,A,3946.9591,N,08404.9843,W,0.0000,0.000,120118,,*39
2018-01-11 20:14:37 1515719677.346010: $GPGSA,A,3,7,8,9,11,16,23,27,28,30,138,,,4.0,0.8,3.5*3E
2018-01-11 20:14:38 1515719678.678937: $GPGSV,3,1,10,07,57,315,42,08,74,124,46,09,46,228,42,11,21,166,46*75
2018-01-11 20:14:38 1515719678.679158: $GPGSV,3,2,10,16,22,061,44,23,27,189,49,27,46,052,50,28,15,259,37*71
2018-01-11 20:14:38 1515719678.679227: $GPGSV,3,3,10,30,30,306,30,138,38,213,45*4E
2018-01-11 20:14:38 1515719678.792272: $GPZDA,011439.00,12,01,2018,00,00*61
2018-01-11 20:14:38 1515719678.792406: $GPGGA,011439,3946.9591,N,08404.9843,W,1,10,0.80,295.14,M,-33.324,M,,*76
2018-01-11 20:14:38 1515719678.792487: $GPRMC,011439,A,3946.9591,N,08404.9843,W,0.0000,0.000,120118,,*38
2018-01-11 20:14:38 1515719678.792550: $GPGSA,A,3,7,8,9,11,16,23,27,28,30,138,,,4.0,0.8,3.5*3E
2018-01-11 20:14:39 1515719679.343163: $GPZDA,011440.00,12,01,2018,00,00*6F
2018-01-11 20:14:39 1515719679.343351: $GPGGA,011440,3946.9591,N,08404.9843,W,1,10,0.80,295.14,M,-33.324,M,,*78
2018-01-11 20:14:39 1515719679.343419: $GPRMC,011440,A,3946.9591,N,08404.9843,W,0.0000,0.000,120118,,*36
2018-01-11 20:14:39 1515719679.343480: $GPGSA,A,3,7,8,9,11,16,23,27,28,30,138,,,4.0,0.8,3.5*3E
