2017-12-01 12:00:52 1512147652.667322: {"class":"VERSION","release":"3.16","rev":"3.16-4","proto_major":3,"proto_minor":11}
2017-12-01 12:00:52 1512147652.667707: {"class":"DEVICES","devices":[{"class":"DEVICE","path":"/dev/ttyUSB0","driver":"SiRF","subtype":"9\u0006GSD4e_4.1.2-P1_RPATCH.05-F-GPS-4R-1510281 11/03/2015 307","activated":"2017-12-01T17:00:52.304Z","flags":1,"native":1,"bps":4800,"parity":"N","stopbits":1,"cycle":1.00}]}
2017-12-01 12:00:52 1512147652.667820: {"class":"WATCH","enable":true,"json":false,"nmea":true,"raw":0,"scaled":false,"timing":false,"split24":false,"pps":false}
2017-12-01 12:00:52 1512147652.908819: $GPZDA,170053.60,01,12,2017,00,00*66
2017-12-01 12:00:52 1512147652.908987: $GPGGA,170053,3946.9573,N,08404.9806,W,1,11,1.00,302.25,M,-33.324,M,,*70
2017-12-01 12:00:52 1512147652.909056: $GPRMC,170053,A,3946.9573,N,08404.9806,W,0.2710,100.223,011217,,*32
2017-12-01 12:00:52 1512147652.909120: $GPGSA,A,3,10,13,15,18,20,21,24,27,29,5,138,,2.0,1.0,1.5*3D
2017-12-01 12:00:52 1512147652.909184: $GPGBS,170053,10.70,M,15.43,M,35.28,M*07
2017-12-01 12:00:53 1512147653.841827: $GPZDA,170054.28,01,12,2017,00,00*6D
2017-12-01 12:00:53 1512147653.842001: $GPGGA,170054,3946.9573,N,08404.9806,W,1,11,1.00,302.25,M,-33.324,M,,*77
2017-12-01 12:00:53 1512147653.842072: $GPRMC,170054,A,3946.9573,N,08404.9806,W,0.3155,129.994,011217,,*3F
2017-12-01 12:00:53 1512147653.842133: $GPGSA,A,3,10,13,15,18,20,21,24,27,29,5,138,,2.0,1.0,1.5*3D
2017-12-01 12:00:53 1512147653.842195: $GPGBS,170054,10.70,M,15.43,M,35.28,M*00
2017-12-01 12:00:54 1512147654.984357: $GPGSV,3,1,12,13,36,046,44,15,68,057,44,18,49,292,45,20,57,063,45*7D
2017-12-01 12:00:54 1512147654.984540: $GPGSV,3,2,12,21,74,294,44,24,27,144,46,27,13,319,43,29,17,192,39*72
2017-12-01 12:00:54 1512147654.984607: $GPGSV,3,3,12,10,18,277,30,05,08,082,10,04,06,133,00,138,38,213,00*47
2017-12-01 12:00:55 1512147655.098029: $GPZDA,170055.00,01,12,2017,00,00*66
2017-12-01 12:00:55 1512147655.098210: $GPGGA,170055,3946.9569,N,08404.9806,W,1,09,0.80,301.61,M,-33.324,M,,*7E
2017-12-01 12:00:55 1512147655.098280: $GPRMC,170055,A,3946.9569,N,08404.9806,W,0.3006,62.539,011217,,*07
2017-12-01 12:00:55 1512147655.098341: $GPGSA,A,3,13,15,18,20,21,24,27,29,10,,,,2.0,0.8,1.5*3B
2017-12-01 12:00:55 1512147655.548966: $GPZDA,170056.00,01,12,2017,00,00*65
2017-12-01 12:00:55 1512147655.549126: $GPGGA,170056,3946.9569,N,08404.9813,W,1,09,0.80,301.53,M,-33.324,M,,*78
2017-12-01 12:00:55 1512147655.549198: $GPRMC,170056,A,3946.9569,N,08404.9813,W,0.1867,180.000,011217,,*3F
2017-12-01 12:00:55 1512147655.549259: $GPGSA,A,3,13,15,18,20,21,24,27,29,10,,,,2.0,0.8,1.5*3B
2017-12-01 12:00:56 1512147656.401115: $GPZDA,170057.00,01,12,2017,00,00*64
2017-12-01 12:00:56 1512147656.401286: $GPGGA,170057,3946.9569,N,08404.9813,W,1,09,0.80,301.53,M,-33.324,M,,*79
2017-12-01 12:00:56 1512147656.401410: $GPRMC,170057,A,3946.9569,N,08404.9813,W,0.0000,0.000,011217,,*3F
2017-12-01 12:00:56 1512147656.401482: $GPGSA,A,3,13,15,18,20,21,24,27,29,10,,,,2.0,0.8,1.5*3B
2017-12-01 12:00:57 1512147657.736028: $GPGSV,3,1,12,13,36,046,44,15,68,057,44,18,49,292,46,20,57,063,45*7E
2017-12-01 12:00:57 1512147657.736229: $GPGSV,3,2,12,21,74,294,45,24,27,144,46,27,13,319,44,29,17,192,39*74
2017-12-01 12:00:57 1512147657.736301: $GPGSV,3,3,12,10,18,277,34,05,08,082,26,04,06,133,00,138,38,213,47*45
2017-12-01 12:00:57 1512147657.849590: $GPZDA,170058.00,01,12,2017,00,00*6B
2017-12-01 12:00:57 1512147657.849759: $GPGGA,170058,3946.9569,N,08404.9813,W,1,11,0.80,301.53,M,-33.324,M,,*7F
2017-12-01 12:00:57 1512147657.849826: $GPRMC,170058,A,3946.9569,N,08404.9813,W,0.0000,0.000,011217,,*30
2017-12-01 12:00:57 1512147657.849888: $GPGSA,A,3,13,15,18,20,21,24,27,29,10,5,138,,2.0,0.8,1.5*34
2017-12-01 12:00:58 1512147658.400260: $GPZDA,170059.00,01,12,2017,00,00*6A
2017-12-01 12:00:58 1512147658.400434: $GPGGA,170059,3946.9569,N,08404.9813,W,1,11,0.80,301.53,M,-33.324,M,,*7E
2017-12-01 12:00:58 1512147658.400505: $GPRMC,170059,A,3946.9569,N,08404.9813,W,0.0000,0.000,011217,,*31
2017-12-01 12:00:58 1512147658.400567: $GPGSA,A,3,13,15,18,20,21,24,27,29,10,5,138,,2.0,0.8,1.5*34
2017-12-01 12:00:59 1512147659.407563: $GPZDA,170100.00,01,12,2017,00,00*67
2017-12-01 12:00:59 1512147659.407744: $GPGGA,170100,3946.9570,N,08404.9820,W,1,11,0.80,301.45,M,-33.324,M,,*7C
2017-12-01 12:00:59 1512147659.407812: $GPRMC,170100,A,3946.9570,N,08404.9820,W,0.0000,0.000,011217,,*34
2017-12-01 12:00:59 1512147659.407875: $GPGSA,A,3,13,15,18,20,21,24,27,29,10,5,138,,2.0,0.8,1.5*34
2017-12-01 12:00:59 1512147659.407934: $GPGBS,170100,10.70,M,15.43,M,35.28,M*00
2017-12-01 12:01:00 1512147660.737912: $GPGSV,3,1,12,13,36,046,44,15,68,057,44,18,49,292,46,20,57,063,45*7E
2017-12-01 12:01:00 1512147660.738104: $GPGSV,3,2,12,21,74,294,45,24,27,144,46,27,13,319,44,29,17,192,39*74
2017-12-01 12:01:00 1512147660.738171: $GPGSV,3,3,12,10,18,277,34,05,08,082,27,04,06,133,00,138,38,213,47*44
2017-12-01 12:01:00 1512147660.851640: $GPZDA,170101.00,01,12,2017,00,00*66
2017-12-01 12:01:00 1512147660.851808: $GPGGA,170101,3946.9570,N,08404.9820,W,1,11,0.80,301.45,M,-33.324,M,,*7D
2017-12-01 12:01:00 1512147660.851875: $GPRMC,170101,A,3946.9570,N,08404.9820,W,0.0000,0.000,011217,,*35
2017-12-01 12:01:00 1512147660.851938: $GPGSA,A,3,13,15,18,20,21,24,27,29,10,5,138,,2.0,0.8,1.5*34
2017-12-01 12:01:01 1512147661.401305: $GPZDA,170102.00,01,12,2017,00,00*65
2017-12-01 12:01:01 1512147661.401517: $GPGGA,170102,3946.9570,N,08404.9820,W,1,11,0.80,301.45,M,-33.324,M,,*7E
2017-12-01 12:01:01 1512147661.401586: $GPRMC,170102,A,3946.9570,N,08404.9820,W,0.0000,0.000,011217,,*36
2017-12-01 12:01:01 1512147661.401648: $GPGSA,A,3,13,15,18,20,21,24,27,29,10,5,138,,2.0,0.8,1.5*34
2017-12-01 12:01:02 1512147662.401314: $GPZDA,170103.00,01,12,2017,00,00*64
2017-12-01 12:01:02 1512147662.401543: $GPGGA,170103,3946.9570,N,08404.9820,W,1,11,0.80,301.45,M,-33.324,M,,*7F
2017-12-01 12:01:02 1512147662.401614: $GPRMC,170103,A,3946.9570,N,08404.9820,W,0.0000,0.000,011217,,*37
2017-12-01 12:01:02 1512147662.401676: $GPGSA,A,3,13,15,18,20,21,24,27,29,10,5,138,,2.0,0.8,1.5*34
