2017-12-01 16:53:12 1512165192.677185: {"class":"VERSION","release":"3.16","rev":"3.16-4","proto_major":3,"proto_minor":11}
2017-12-01 16:53:12 1512165192.677874: {"class":"DEVICES","devices":[{"class":"DEVICE","path":"/dev/ttyUSB0","driver":"SiRF","subtype":"9\u0006GSD4e_4.1.2-P1_RPATCH.05-F-GPS-4R-1510281 11/03/2015 307","activated":"2017-12-01T21:53:12.673Z","flags":1,"native":1,"bps":4800,"parity":"N","stopbits":1,"cycle":1.00}]}
2017-12-01 16:53:12 1512165192.678032: {"class":"WATCH","enable":true,"json":false,"nmea":true,"raw":0,"scaled":false,"timing":false,"split24":false,"pps":false}
2017-12-01 16:53:13 1512165193.380958: $GPZDA,215314.00,01,12,2017,00,00*60
2017-12-01 16:53:13 1512165193.381131: $GPGGA,215314,3946.9633,N,08404.9748,W,2,12,0.80,296.83,M,-33.324,M,,*7B
2017-12-01 16:53:13 1512165193.381197: $GPRMC,215314,A,3946.9633,N,08404.9748,W,0.0000,0.000,011217,,*36
2017-12-01 16:53:13 1512165193.381259: $GPGSA,A,3,1,3,10,14,22,31,32,12,18,25,26,138,2.0,0.8,1.5*0A
2017-12-01 16:53:14 1512165194.718155: $GPGSV,3,1,12,01,22,289,43,03,08,318,39,10,37,153,39,14,69,354,46*74
2017-12-01 16:53:14 1512165194.722936: $GPGSV,3,2,12,22,27,310,46,31,66,237,50,32,64,054,48,12,17,042,26*76
2017-12-01 16:53:14 1512165194.723127: $GPGSV,3,3,12,18,08,147,19,25,40,076,28,26,11,180,28,138,38,213,36*4A
2017-12-01 16:53:14 1512165194.831319: $GPZDA,215315.00,01,12,2017,00,00*61
2017-12-01 16:53:14 1512165194.831574: $GPGGA,215315,3946.9633,N,08404.9748,W,2,12,0.80,296.83,M,-33.324,M,,*7A
2017-12-01 16:53:14 1512165194.831643: $GPRMC,215315,A,3946.9633,N,08404.9748,W,0.0000,0.000,011217,,*37
2017-12-01 16:53:14 1512165194.831704: $GPGSA,A,3,1,3,10,14,22,31,32,12,18,25,26,138,2.0,0.8,1.5*0A
2017-12-01 16:53:15 1512165195.383512: $GPZDA,215316.00,01,12,2017,00,00*62
2017-12-01 16:53:15 1512165195.383699: $GPGGA,215316,3946.9633,N,08404.9748,W,2,12,0.80,296.83,M,-33.324,M,,*79
2017-12-01 16:53:15 1512165195.383768: $GPRMC,215316,A,3946.9633,N,08404.9748,W,0.0000,0.000,011217,,*34
2017-12-01 16:53:15 1512165195.383829: $GPGSA,A,3,1,3,10,14,22,31,32,12,18,25,26,138,2.0,0.8,1.5*0A
2017-12-01 16:53:16 1512165196.383289: $GPZDA,215317.00,01,12,2017,00,00*63
2017-12-01 16:53:16 1512165196.383496: $GPGGA,215317,3946.9633,N,08404.9748,W,2,12,0.80,296.83,M,-33.324,M,,*78
2017-12-01 16:53:16 1512165196.383571: $GPRMC,215317,A,3946.9633,N,08404.9748,W,0.0000,0.000,011217,,*35
2017-12-01 16:53:16 1512165196.383642: $GPGSA,A,3,1,3,10,14,22,31,32,12,18,25,26,138,2.0,0.8,1.5*0A
2017-12-01 16:53:17 1512165197.717573: $GPGSV,3,1,12,01,22,289,44,03,08,318,39,10,37,153,39,14,69,354,46*73
2017-12-01 16:53:17 1512165197.717766: $GPGSV,3,2,12,22,27,310,46,31,66,237,49,32,64,054,48,12,17,042,21*79
2017-12-01 16:53:17 1512165197.717836: $GPGSV,3,3,12,18,08,147,18,25,40,076,28,26,11,180,28,138,38,213,39*44
2017-12-01 16:53:17 1512165197.830937: $GPZDA,215318.00,01,12,2017,00,00*6C
2017-12-01 16:53:17 1512165197.831084: $GPGGA,215318,3946.9633,N,08404.9748,W,2,12,0.80,296.83,M,-33.324,M,,*77
2017-12-01 16:53:17 1512165197.831155: $GPRMC,215318,A,3946.9633,N,08404.9748,W,0.0000,0.000,011217,,*3A
2017-12-01 16:53:17 1512165197.831221: $GPGSA,A,3,1,3,10,14,22,31,32,12,18,25,26,138,2.0,0.8,1.5*0A
2017-12-01 16:53:18 1512165198.456331: $GPZDA,215319.00,01,12,2017,00,00*6D
2017-12-01 16:53:18 1512165198.456525: $GPGGA,215319,3946.9633,N,08404.9748,W,2,12,0.80,296.83,M,-33.324,M,,*76
2017-12-01 16:53:18 1512165198.456596: $GPRMC,215319,A,3946.9633,N,08404.9748,W,0.0000,0.000,011217,,*3B
2017-12-01 16:53:18 1512165198.456665: $GPGSA,A,3,1,3,10,14,22,31,32,12,18,25,26,138,2.0,0.8,1.5*0A
2017-12-01 16:53:19 1512165199.384755: $GPZDA,215320.00,01,12,2017,00,00*67
2017-12-01 16:53:19 1512165199.384929: $GPGGA,215320,3946.9636,N,08404.9747,W,2,12,0.80,294.66,M,-33.324,M,,*7F
2017-12-01 16:53:19 1512165199.385000: $GPRMC,215320,A,3946.9636,N,08404.9747,W,0.0000,0.000,011217,,*3B
2017-12-01 16:53:19 1512165199.385065: $GPGSA,A,3,1,3,10,14,22,31,32,12,18,25,26,138,2.0,0.8,1.5*0A
2017-12-01 16:53:20 1512165200.722922: $GPGSV,3,1,12,01,22,289,43,03,08,318,40,10,37,153,39,14,69,354,46*7A
2017-12-01 16:53:20 1512165200.723157: $GPGSV,3,2,12,22,27,310,46,31,66,237,49,32,64,054,48,12,17,042,21*79
2017-12-01 16:53:20 1512165200.723229: $GPGSV,3,3,12,18,08,147,13,25,40,076,28,26,11,180,27,138,38,213,40*4E
2017-12-01 16:53:20 1512165200.836416: $GPZDA,215321.00,01,12,2017,00,00*66
2017-12-01 16:53:20 1512165200.836589: $GPGGA,215321,3946.9636,N,08404.9747,W,2,12,0.80,294.66,M,-33.324,M,,*7E
2017-12-01 16:53:20 1512165200.836659: $GPRMC,215321,A,3946.9636,N,08404.9747,W,0.0000,0.000,011217,,*3A
2017-12-01 16:53:20 1512165200.836722: $GPGSA,A,3,1,3,10,14,22,31,32,12,18,25,26,138,2.0,0.8,1.5*0A
2017-12-01 16:53:21 1512165201.385940: $GPZDA,215322.00,01,12,2017,00,00*65
2017-12-01 16:53:21 1512165201.386134: $GPGGA,215322,3946.9636,N,08404.9747,W,2,12,0.80,294.66,M,-33.324,M,,*7D
2017-12-01 16:53:21 1512165201.386201: $GPRMC,215322,A,3946.9636,N,08404.9747,W,0.0000,0.000,011217,,*39
2017-12-01 16:53:21 1512165201.386264: $GPGSA,A,3,1,3,10,14,22,31,32,12,18,25,26,138,2.0,0.8,1.5*0A
2017-12-01 16:53:22 1512165202.385613: $GPZDA,215323.00,01,12,2017,00,00*64
2017-12-01 16:53:22 1512165202.385784: $GPGGA,215323,3946.9636,N,08404.9747,W,2,12,0.80,294.66,M,-33.324,M,,*7C
2017-12-01 16:53:22 1512165202.385853: $GPRMC,215323,A,3946.9636,N,08404.9747,W,0.0000,0.000,011217,,*38
2017-12-01 16:53:22 1512165202.385915: $GPGSA,A,3,1,3,10,14,22,31,32,12,18,25,26,138,2.0,0.8,1.5*0A
2017-12-01 16:53:23 1512165203.723321: $GPGSV,3,1,12,01,22,289,43,03,08,318,40,10,37,153,39,14,69,354,46*7A
2017-12-01 16:53:23 1512165203.723511: $GPGSV,3,2,12,22,27,310,46,31,66,237,49,32,64,054,48,12,17,042,21*79
2017-12-01 16:53:23 1512165203.723580: $GPGSV,3,3,12,18,08,147,16,25,40,076,28,26,11,180,28,138,38,213,39*4A
2017-12-01 16:53:23 1512165203.836759: $GPZDA,215324.00,01,12,2017,00,00*63
2017-12-01 16:53:23 1512165203.836903: $GPGGA,215324,3946.9636,N,08404.9747,W,2,12,0.80,294.66,M,-33.324,M,,*7B
2017-12-01 16:53:23 1512165203.836972: $GPRMC,215324,A,3946.9636,N,08404.9747,W,0.0000,0.000,011217,,*3F
2017-12-01 16:53:23 1512165203.837032: $GPGSA,A,3,1,3,10,14,22,31,32,12,18,25,26,138,2.0,0.8,1.5*0A
2017-12-01 16:53:24 1512165204.381717: $GPZDA,215325.00,01,12,2017,00,00*62
2017-12-01 16:53:24 1512165204.381887: $GPGGA,215325,3946.9636,N,08404.9747,W,2,12,0.80,294.66,M,-33.324,M,,*7A
2017-12-01 16:53:24 1512165204.381954: $GPRMC,215325,A,3946.9636,N,08404.9747,W,0.0000,0.000,011217,,*3E
2017-12-01 16:53:24 1512165204.382015: $GPGSA,A,3,1,3,10,14,22,31,32,12,18,25,26,138,2.0,0.8,1.5*0A
2017-12-01 16:53:25 1512165205.913600: $GPZDA,215326.00,01,12,2017,00,00*61
2017-12-01 16:53:25 1512165205.913769: $GPGGA,215326,3946.9639,N,08404.9739,W,2,12,0.80,293.98,M,-33.324,M,,*79
2017-12-01 16:53:25 1512165205.913836: $GPRMC,215326,A,3946.9639,N,08404.9739,W,0.1867,0.000,011217,,*33
2017-12-01 16:53:25 1512165205.913898: $GPGSA,A,3,1,3,10,14,22,31,32,12,18,25,26,138,2.0,0.8,1.5*0A
2017-12-01 16:53:26 1512165206.721827: $GPGSV,3,1,12,01,22,289,43,03,08,318,40,10,37,153,39,14,70,354,46*72
2017-12-01 16:53:26 1512165206.721984: $GPGSV,3,2,12,22,28,310,46,31,67,238,49,32,64,054,47,12,17,040,21*75
2017-12-01 16:53:26 1512165206.722049: $GPGSV,3,3,12,18,08,147,16,25,40,076,27,26,12,180,29,138,38,213,38*46
2017-12-01 16:53:26 1512165206.835197: $GPZDA,215327.00,01,12,2017,00,00*60
2017-12-01 16:53:26 1512165206.835370: $GPGGA,215327,3946.9639,N,08404.9739,W,2,12,0.80,293.98,M,-33.324,M,,*78
2017-12-01 16:53:26 1512165206.835438: $GPRMC,215327,A,3946.9639,N,08404.9739,W,0.0000,0.000,011217,,*3A
2017-12-01 16:53:26 1512165206.835501: $GPGSA,A,3,1,3,10,14,22,31,32,12,18,25,26,138,2.0,0.8,1.5*0A
2017-12-01 16:53:27 1512165207.387375: $GPZDA,215328.00,01,12,2017,00,00*6F
2017-12-01 16:53:27 1512165207.387554: $GPGGA,215328,3946.9639,N,08404.9739,W,2,12,0.80,293.98,M,-33.324,M,,*77
2017-12-01 16:53:27 1512165207.387624: $GPRMC,215328,A,3946.9639,N,08404.9739,W,0.0000,0.000,011217,,*35
2017-12-01 16:53:27 1512165207.387686: $GPGSA,A,3,1,3,10,14,22,31,32,12,18,25,26,138,2.0,0.8,1.5*0A
2017-12-01 16:53:28 1512165208.387698: $GPZDA,215329.00,01,12,2017,00,00*6E
2017-12-01 16:53:28 1512165208.387880: $GPGGA,215329,3946.9639,N,08404.9739,W,2,12,0.80,293.98,M,-33.324,M,,*76
2017-12-01 16:53:28 1512165208.387951: $GPRMC,215329,A,3946.9639,N,08404.9739,W,0.0000,0.000,011217,,*34
2017-12-01 16:53:28 1512165208.388012: $GPGSA,A,3,1,3,10,14,22,31,32,12,18,25,26,138,2.0,0.8,1.5*0A
2017-12-01 16:53:29 1512165209.722128: $GPGSV,3,1,12,01,22,289,43,03,08,318,40,10,37,153,39,14,70,354,45*71
2017-12-01 16:53:29 1512165209.722304: $GPGSV,3,2,12,22,28,310,45,31,67,238,50,32,64,054,48,12,17,040,20*70
2017-12-01 16:53:29 1512165209.722371: $GPGSV,3,3,12,18,08,147,17,25,40,076,26,26,12,180,29,138,38,213,40*49
2017-12-01 16:53:29 1512165209.835507: $GPZDA,215330.00,01,12,2017,00,00*66
2017-12-01 16:53:29 1512165209.835661: $GPGGA,215330,3946.9639,N,08404.9739,W,2,12,0.80,293.98,M,-33.324,M,,*7E
2017-12-01 16:53:29 1512165209.835730: $GPRMC,215330,A,3946.9639,N,08404.9739,W,0.0000,0.000,011217,,*3C
2017-12-01 16:53:29 1512165209.835790: $GPGSA,A,3,1,3,10,14,22,31,32,12,18,25,26,138,2.0,0.8,1.5*0A
2017-12-01 16:53:30 1512165210.385265: $GPZDA,215331.00,01,12,2017,00,00*67
2017-12-01 16:53:30 1512165210.385432: $GPGGA,215331,3946.9639,N,08404.9739,W,2,12,0.80,293.98,M,-33.324,M,,*7F
2017-12-01 16:53:30 1512165210.385502: $GPRMC,215331,A,3946.9639,N,08404.9739,W,0.0000,0.000,011217,,*3D
2017-12-01 16:53:30 1512165210.385568: $GPGSA,A,3,1,3,10,14,22,31,32,12,18,25,26,138,2.0,0.8,1.5*0A
2017-12-01 16:53:31 1512165211.388495: $GPZDA,215332.00,01,12,2017,00,00*64
2017-12-01 16:53:31 1512165211.388655: $GPGGA,215332,3946.9639,N,08404.9739,W,2,12,0.80,293.98,M,-33.324,M,,*7C
2017-12-01 16:53:31 1512165211.388723: $GPRMC,215332,A,3946.9639,N,08404.9739,W,0.0000,0.000,011217,,*3E
2017-12-01 16:53:31 1512165211.388784: $GPGSA,A,3,1,3,10,14,22,31,32,12,18,25,26,138,2.0,0.8,1.5*0A
