2018-01-12 04:42:21 1515750141.682170: {"class":"VERSION","release":"3.16","rev":"3.16-4","proto_major":3,"proto_minor":11}
2018-01-12 04:42:21 1515750141.682518: {"class":"DEVICES","devices":[{"class":"DEVICE","path":"/dev/ttyUSB0","driver":"SiRF","subtype":"9\u0006GSD4e_4.1.2-P1_RPATCH.05-F-GPS-4R-1510281 11/03/2015 307","activated":"2018-01-12T09:42:21.468Z","flags":1,"native":1,"bps":4800,"parity":"N","stopbits":1,"cycle":1.00}]}
2018-01-12 04:42:21 1515750141.682633: {"class":"WATCH","enable":true,"json":false,"nmea":true,"raw":0,"scaled":false,"timing":false,"split24":false,"pps":false}
2018-01-12 04:42:22 1515750142.078246: $GPZDA,094222.76,12,01,2018,00,00*61
2018-01-12 04:42:22 1515750142.078410: $GPGGA,094222,3946.9739,N,08404.9777,W,1,11,2.20,338.84,M,-33.325,M,,*78
2018-01-12 04:42:22 1515750142.078475: $GPRMC,094222,A,3946.9739,N,08404.9777,W,0.9988,104.546,120118,,*33
2018-01-12 04:42:22 1515750142.078538: $GPGSA,A,3,2,5,6,12,25,29,17,20,9,19,138,,2.4,2.2,2.1*06
2018-01-12 04:42:22 1515750142.078596: $GPGBS,094222,11.98,M,14.47,M,47.88,M*05
2018-01-12 04:42:23 1515750143.022242: $GPZDA,094223.44,12,01,2018,00,00*61
2018-01-12 04:42:23 1515750143.022409: $GPGGA,094223,3946.9735,N,08404.9777,W,1,11,2.20,338.20,M,-33.325,M,,*7B
2018-01-12 04:42:23 1515750143.022475: $GPRMC,094223,A,3946.9735,N,08404.9777,W,0.3155,129.994,120118,,*30
2018-01-12 04:42:23 1515750143.022538: $GPGSA,A,3,2,5,6,12,25,29,17,20,9,19,138,,2.4,2.2,2.1*06
2018-01-12 04:42:23 1515750143.022597: $GPGBS,094223,11.98,M,14.47,M,47.88,M*04
2018-01-12 04:42:24 1515750144.187118: $GPGSV,3,1,12,02,70,013,42,05,60,201,49,12,46,238,50,20,08,222,35*77
2018-01-12 04:42:24 1515750144.187315: $GPGSV,3,2,12,25,35,291,35,29,19,310,48,06,40,063,06,09,19,058,04*72
2018-01-12 04:42:24 1515750144.187388: $GPGSV,3,3,12,17,06,126,05,19,24,121,05,04,61,300,00,138,38,213,00*42
2018-01-12 04:42:24 1515750144.300475: $GPZDA,094224.00,12,01,2018,00,00*66
2018-01-12 04:42:24 1515750144.300602: $GPGGA,094224,3946.9735,N,08404.9784,W,1,06,2.20,338.12,M,-33.325,M,,*77
2018-01-12 04:42:24 1515750144.300672: $GPRMC,094224,A,3946.9735,N,08404.9784,W,0.3006,62.539,120118,,*09
2018-01-12 04:42:24 1515750144.300736: $GPGSA,A,3,2,5,12,20,25,29,,,,,,,2.4,2.2,2.1*3D
2018-01-12 04:42:24 1515750144.751649: $GPZDA,094225.00,12,01,2018,00,00*67
2018-01-12 04:42:24 1515750144.751823: $GPGGA,094225,3946.9731,N,08404.9784,W,1,06,0.80,337.48,M,-33.325,M,,*7A
2018-01-12 04:42:24 1515750144.751893: $GPRMC,094225,A,3946.9731,N,08404.9784,W,0.0000,0.000,120118,,*32
2018-01-12 04:42:24 1515750144.751957: $GPGSA,A,3,2,5,12,20,25,29,,,,,,,2.4,0.8,2.1*35
2018-01-12 04:42:25 1515750145.366284: $GPZDA,094226.00,12,01,2018,00,00*64
2018-01-12 04:42:25 1515750145.366447: $GPGGA,094226,3946.9731,N,08404.9790,W,1,06,0.80,335.99,M,-33.325,M,,*72
2018-01-12 04:42:25 1515750145.366517: $GPRMC,094226,A,3946.9731,N,08404.9790,W,0.0000,0.000,120118,,*34
2018-01-12 04:42:25 1515750145.366581: $GPGSA,A,3,2,5,12,20,25,29,,,,,,,2.4,0.8,2.1*35
2018-01-12 04:42:26 1515750146.702447: $GPGSV,3,1,12,02,70,013,43,05,60,201,50,12,46,238,51,20,08,222,36*7C
2018-01-12 04:42:26 1515750146.702642: $GPGSV,3,2,12,25,35,291,37,29,19,310,49,06,40,063,31,09,19,058,21*72
2018-01-12 04:42:26 1515750146.702733: $GPGSV,3,3,12,17,06,126,25,19,24,121,26,04,61,300,00,138,38,213,49*4C
2018-01-12 04:42:26 1515750146.816203: $GPZDA,094227.00,12,01,2018,00,00*65
2018-01-12 04:42:26 1515750146.816375: $GPGGA,094227,3946.9727,N,08404.9790,W,1,11,0.80,335.35,M,-33.325,M,,*74
2018-01-12 04:42:26 1515750146.816445: $GPRMC,094227,A,3946.9727,N,08404.9790,W,0.0000,0.000,120118,,*32
2018-01-12 04:42:26 1515750146.816511: $GPGSA,A,3,2,5,12,20,25,29,6,9,17,19,138,,2.4,0.8,2.1*0E
2018-01-12 04:42:27 1515750147.366983: $GPZDA,094228.00,12,01,2018,00,00*6A
2018-01-12 04:42:27 1515750147.367153: $GPGGA,094228,3946.9726,N,08404.9789,W,1,11,0.80,333.95,M,-33.325,M,,*7E
2018-01-12 04:42:27 1515750147.367223: $GPRMC,094228,A,3946.9726,N,08404.9789,W,0.0000,0.000,120118,,*34
2018-01-12 04:42:27 1515750147.367289: $GPGSA,A,3,2,5,12,20,25,29,6,9,17,19,138,,2.4,0.8,2.1*0E
