2017-12-01 12:18:50 1512148730.186742: {"class":"VERSION","release":"3.16","rev":"3.16-4","proto_major":3,"proto_minor":11}
2017-12-01 12:18:50 1512148730.187107: {"class":"DEVICES","devices":[{"class":"DEVICE","path":"/dev/ttyUSB0","driver":"SiRF","subtype":"9\u0006GSD4e_4.1.2-P1_RPATCH.05-F-GPS-4R-1510281 11/03/2015 307","activated":"2017-12-01T17:18:49.550Z","flags":1,"native":1,"bps":4800,"parity":"N","stopbits":1,"cycle":1.00}]}
2017-12-01 12:18:50 1512148730.187222: {"class":"WATCH","enable":true,"json":false,"nmea":true,"raw":0,"scaled":false,"timing":false,"split24":false,"pps":false}
2017-12-01 12:18:50 1512148730.409739: $GPZDA,171851.00,01,12,2017,00,00*6B
2017-12-01 12:18:50 1512148730.409908: $GPGGA,171851,3946.9570,N,08404.9840,W,2,11,0.80,299.81,M,-33.324,M,,*7D
2017-12-01 12:18:50 1512148730.409975: $GPRMC,171851,A,3946.9570,N,08404.9840,W,0.0000,0.000,011217,,*3E
2017-12-01 12:18:50 1512148730.410036: $GPGSA,A,3,10,13,15,18,20,21,24,27,5,29,138,,2.0,0.8,1.5*34
2017-12-01 12:18:51 1512148731.746512: $GPGSV,3,1,12,10,24,283,40,13,28,045,46,15,60,051,45,18,55,301,45*74
2017-12-01 12:18:51 1512148731.746688: $GPGSV,3,2,12,20,51,072,45,21,78,265,42,24,34,138,48,27,16,312,42*71
2017-12-01 12:18:51 1512148731.746754: $GPGSV,3,3,12,05,03,088,20,32,01,225,00,29,09,189,31,138,38,213,46*48
2017-12-01 12:18:51 1512148731.860144: $GPZDA,171852.00,01,12,2017,00,00*68
2017-12-01 12:18:51 1512148731.860300: $GPGGA,171852,3946.9570,N,08404.9840,W,2,11,0.80,299.81,M,-33.324,M,,*7E
2017-12-01 12:18:51 1512148731.860365: $GPRMC,171852,A,3946.9570,N,08404.9840,W,0.0000,0.000,011217,,*3D
2017-12-01 12:18:51 1512148731.860426: $GPGSA,A,3,10,13,15,18,20,21,24,27,5,29,138,,2.0,0.8,1.5*34
2017-12-01 12:18:52 1512148732.486867: $GPZDA,171853.00,01,12,2017,00,00*69
2017-12-01 12:18:52 1512148732.487046: $GPGGA,171853,3946.9570,N,08404.9840,W,2,11,0.80,299.81,M,-33.324,M,,*7F
2017-12-01 12:18:52 1512148732.487112: $GPRMC,171853,A,3946.9570,N,08404.9840,W,0.0000,0.000,011217,,*3C
2017-12-01 12:18:52 1512148732.487173: $GPGSA,A,3,10,13,15,18,20,21,24,27,5,29,138,,2.0,0.8,1.5*34
2017-12-01 12:18:53 1512148733.410106: $GPZDA,171854.00,01,12,2017,00,00*6E
2017-12-01 12:18:53 1512148733.410263: $GPGGA,171854,3946.9570,N,08404.9840,W,2,11,0.80,299.81,M,-33.324,M,,*78
2017-12-01 12:18:53 1512148733.410329: $GPRMC,171854,A,3946.9570,N,08404.9840,W,0.0000,0.000,011217,,*3B
2017-12-01 12:18:53 1512148733.410390: $GPGSA,A,3,10,13,15,18,20,21,24,27,5,29,138,,2.0,0.8,1.5*34
2017-12-01 12:18:54 1512148734.741880: $GPGSV,3,1,12,10,24,283,42,13,28,045,45,15,60,051,45,18,55,301,45*75
2017-12-01 12:18:54 1512148734.742062: $GPGSV,3,2,12,20,51,072,44,21,78,265,42,24,34,138,48,27,16,312,42*70
2017-12-01 12:18:54 1512148734.742127: $GPGSV,3,3,12,05,03,088,20,32,01,225,00,29,09,189,23,138,38,213,45*48
2017-12-01 12:18:54 1512148734.855492: $GPZDA,171855.00,01,12,2017,00,00*6F
2017-12-01 12:18:54 1512148734.855660: $GPGGA,171855,3946.9574,N,08404.9840,W,2,11,0.80,300.45,M,-33.324,M,,*74
2017-12-01 12:18:54 1512148734.855725: $GPRMC,171855,A,3946.9574,N,08404.9840,W,0.0000,0.000,011217,,*3E
2017-12-01 12:18:54 1512148734.855786: $GPGSA,A,3,10,13,15,18,20,21,24,27,5,29,138,,2.0,0.8,1.5*34
2017-12-01 12:18:55 1512148735.410104: $GPZDA,171856.00,01,12,2017,00,00*6C
2017-12-01 12:18:55 1512148735.410274: $GPGGA,171856,3946.9574,N,08404.9840,W,2,11,0.80,300.45,M,-33.324,M,,*77
2017-12-01 12:18:55 1512148735.410341: $GPRMC,171856,A,3946.9574,N,08404.9840,W,0.0000,0.000,011217,,*3D
2017-12-01 12:18:55 1512148735.410401: $GPGSA,A,3,10,13,15,18,20,21,24,27,5,29,138,,2.0,0.8,1.5*34
2017-12-01 12:18:56 1512148736.412202: $GPZDA,171857.00,01,12,2017,00,00*6D
2017-12-01 12:18:56 1512148736.412397: $GPGGA,171857,3946.9574,N,08404.9840,W,2,11,1.20,300.45,M,-33.324,M,,*7D
2017-12-01 12:18:56 1512148736.412469: $GPRMC,171857,A,3946.9574,N,08404.9840,W,0.0000,0.000,011217,,*3C
2017-12-01 12:18:56 1512148736.412533: $GPGSA,A,3,10,13,15,18,20,21,24,27,5,29,138,,2.0,1.2,1.5*3F
2017-12-01 12:18:57 1512148737.749702: $GPGSV,3,1,12,10,24,283,42,13,28,045,45,15,60,051,45,18,55,301,45*75
2017-12-01 12:18:57 1512148737.749939: $GPGSV,3,2,12,20,51,072,44,21,78,265,42,24,34,138,48,27,16,312,43*71
2017-12-01 12:18:57 1512148737.750008: $GPGSV,3,3,12,05,03,088,20,29,09,189,02,32,01,225,00,138,38,213,46*48
2017-12-01 12:18:57 1512148737.864410: $GPZDA,171858.00,01,12,2017,00,00*62
2017-12-01 12:18:57 1512148737.864595: $GPGGA,171858,3946.9574,N,08404.9840,W,2,10,1.20,300.45,M,-33.324,M,,*73
2017-12-01 12:18:57 1512148737.864665: $GPRMC,171858,A,3946.9574,N,08404.9840,W,0.0000,0.000,011217,,*33
2017-12-01 12:18:57 1512148737.864726: $GPGSA,A,3,10,13,15,18,20,21,24,27,5,138,,,2.0,1.2,1.5*34
2017-12-01 12:18:58 1512148738.408973: $GPZDA,171859.00,01,12,2017,00,00*63
2017-12-01 12:18:58 1512148738.409151: $GPGGA,171859,3946.9574,N,08404.9840,W,2,10,1.20,300.45,M,-33.324,M,,*72
2017-12-01 12:18:58 1512148738.409217: $GPRMC,171859,A,3946.9574,N,08404.9840,W,0.0000,0.000,011217,,*32
2017-12-01 12:18:58 1512148738.409278: $GPGSA,A,3,10,13,15,18,20,21,24,27,5,138,,,2.0,1.2,1.5*34
2017-12-01 12:18:59 1512148739.408573: $GPZDA,171900.00,01,12,2017,00,00*6E
2017-12-01 12:18:59 1512148739.937790: $GPGGA,171900,3946.9574,N,08404.9840,W,2,10,1.20,300.45,M,-33.324,M,,*7F
2017-12-01 12:18:59 1512148739.937950: $GPRMC,171900,A,3946.9574,N,08404.9840,W,0.0000,0.000,011217,,*3F
2017-12-01 12:18:59 1512148739.938014: $GPGSA,A,3,10,13,15,18,20,21,24,27,5,138,,,2.0,1.2,1.5*34
