2017-12-01 14:12:07 1512155527.223646: {"class":"VERSION","release":"3.16","rev":"3.16-4","proto_major":3,"proto_minor":11}
2017-12-01 14:12:07 1512155527.224091: {"class":"DEVICES","devices":[{"class":"DEVICE","path":"/dev/ttyUSB0","driver":"SiRF","subtype":"9\u0006GSD4e_4.1.2-P1_RPATCH.05-F-GPS-4R-1510281 11/03/2015 307","activated":"2017-12-01T19:12:07.167Z","flags":1,"native":1,"bps":4800,"parity":"N","stopbits":1,"cycle":1.00}]}
2017-12-01 14:12:07 1512155527.224221: {"class":"WATCH","enable":true,"json":false,"nmea":true,"raw":0,"scaled":false,"timing":false,"split24":false,"pps":false}
2017-12-01 14:12:07 1512155527.345844: $GPZDA,191208.00,01,12,2017,00,00*63
2017-12-01 14:12:07 1512155527.346044: $GPGGA,191208,3946.9536,N,08404.9845,W,2,12,0.80,315.32,M,-33.324,M,,*7C
2017-12-01 14:12:07 1512155527.346117: $GPRMC,191208,A,3946.9536,N,08404.9845,W,0.0000,0.000,011217,,*31
2017-12-01 14:12:07 1512155527.346180: $GPGSA,A,3,8,10,14,15,18,20,21,24,27,32,12,138,2.0,0.8,1.5*37
2017-12-01 14:12:08 1512155528.679712: $GPGSV,3,1,12,08,07,298,28,10,64,324,49,14,25,249,42,15,15,064,33*7C
2017-12-01 14:12:08 1512155528.679900: $GPGSV,3,2,12,18,74,079,43,20,13,115,33,21,34,180,45,24,48,064,48*75
2017-12-01 14:12:08 1512155528.679969: $GPGSV,3,3,12,27,09,264,39,32,42,259,44,12,06,111,22,138,38,213,46*42
2017-12-01 14:12:08 1512155528.795071: $GPZDA,191209.00,01,12,2017,00,00*62
2017-12-01 14:12:08 1512155528.795296: $GPGGA,191209,3946.9536,N,08404.9845,W,2,12,0.80,315.32,M,-33.324,M,,*7D
2017-12-01 14:12:08 1512155528.795391: $GPRMC,191209,A,3946.9536,N,08404.9845,W,0.0000,0.000,011217,,*30
2017-12-01 14:12:08 1512155528.795488: $GPGSA,A,3,8,10,14,15,18,20,21,24,27,32,12,138,2.0,0.8,1.5*37
2017-12-01 14:12:09 1512155529.350620: $GPZDA,191210.00,01,12,2017,00,00*6A
2017-12-01 14:12:09 1512155529.350792: $GPGGA,191210,3946.9536,N,08404.9845,W,2,12,0.80,315.32,M,-33.324,M,,*75
2017-12-01 14:12:09 1512155529.350861: $GPRMC,191210,A,3946.9536,N,08404.9845,W,0.0000,0.000,011217,,*38
2017-12-01 14:12:09 1512155529.350923: $GPGSA,A,3,8,10,14,15,18,20,21,24,27,32,12,138,2.0,0.8,1.5*37
2017-12-01 14:12:10 1512155530.350198: $GPZDA,191211.00,01,12,2017,00,00*6B
2017-12-01 14:12:10 1512155530.350373: $GPGGA,191211,3946.9536,N,08404.9845,W,2,12,0.80,315.32,M,-33.324,M,,*74
2017-12-01 14:12:10 1512155530.350441: $GPRMC,191211,A,3946.9536,N,08404.9845,W,0.0000,0.000,011217,,*39
2017-12-01 14:12:10 1512155530.350505: $GPGSA,A,3,8,10,14,15,18,20,21,24,27,32,12,138,2.0,0.8,1.5*37
2017-12-01 14:12:11 1512155531.713095: $GPGSV,3,1,12,08,07,298,22,10,64,324,50,14,25,249,42,15,15,064,33*7E
2017-12-01 14:12:11 1512155531.713280: $GPGSV,3,2,12,18,74,079,43,20,13,115,33,21,34,180,45,24,48,064,48*75
2017-12-01 14:12:11 1512155531.713347: $GPGSV,3,3,12,27,09,264,39,32,42,259,44,12,06,111,17,138,38,213,46*44
2017-12-01 14:12:11 1512155531.826438: $GPZDA,191212.00,01,12,2017,00,00*68
2017-12-01 14:12:11 1512155531.826611: $GPGGA,191212,3946.9536,N,08404.9845,W,2,12,0.80,315.32,M,-33.324,M,,*77
2017-12-01 14:12:11 1512155531.826678: $GPRMC,191212,A,3946.9536,N,08404.9845,W,0.0000,0.000,011217,,*3A
2017-12-01 14:12:11 1512155531.826741: $GPGSA,A,3,8,10,14,15,18,20,21,24,27,32,12,138,2.0,0.8,1.5*37
2017-12-01 14:12:12 1512155532.372358: $GPZDA,191213.00,01,12,2017,00,00*69
2017-12-01 14:12:12 1512155532.372541: $GPGGA,191213,3946.9536,N,08404.9845,W,2,12,1.00,315.32,M,-33.324,M,,*7F
2017-12-01 14:12:12 1512155532.372612: $GPRMC,191213,A,3946.9536,N,08404.9845,W,0.0000,0.000,011217,,*3B
2017-12-01 14:12:12 1512155532.372674: $GPGSA,A,3,8,10,14,15,18,20,21,24,27,32,12,138,2.0,1.0,1.5*3E
2017-12-01 14:12:13 1512155533.379159: $GPZDA,191214.00,01,12,2017,00,00*6E
2017-12-01 14:12:13 1512155533.379336: $GPGGA,191214,3946.9536,N,08404.9845,W,2,12,0.80,315.32,M,-33.324,M,,*71
2017-12-01 14:12:13 1512155533.379402: $GPRMC,191214,A,3946.9536,N,08404.9845,W,0.0000,0.000,011217,,*3C
2017-12-01 14:12:13 1512155533.379465: $GPGSA,A,3,8,10,14,15,18,20,21,24,27,32,12,138,2.0,0.8,1.5*37
2017-12-01 14:12:14 1512155534.708418: $GPGSV,3,1,12,08,07,298,17,10,64,324,49,14,25,249,41,15,15,064,33*73
2017-12-01 14:12:14 1512155534.708654: $GPGSV,3,2,12,18,74,079,43,20,13,115,33,21,34,180,44,24,48,064,48*74
2017-12-01 14:12:14 1512155534.708727: $GPGSV,3,3,12,27,09,264,39,32,42,259,44,12,06,111,10,138,38,213,47*42
2017-12-01 14:12:14 1512155534.821861: $GPZDA,191215.00,01,12,2017,00,00*6F
2017-12-01 14:12:14 1512155534.822041: $GPGGA,191215,3946.9536,N,08404.9845,W,2,12,0.80,315.32,M,-33.324,M,,*70
2017-12-01 14:12:14 1512155534.822113: $GPRMC,191215,A,3946.9536,N,08404.9845,W,0.0000,0.000,011217,,*3D
2017-12-01 14:12:14 1512155534.822174: $GPGSA,A,3,8,10,14,15,18,20,21,24,27,32,12,138,2.0,0.8,1.5*37
2017-12-01 14:12:15 1512155535.377675: $GPZDA,191216.00,01,12,2017,00,00*6C
2017-12-01 14:12:15 1512155535.377844: $GPGGA,191216,3946.9536,N,08404.9845,W,2,12,0.80,315.32,M,-33.324,M,,*73
2017-12-01 14:12:15 1512155535.377913: $GPRMC,191216,A,3946.9536,N,08404.9845,W,0.0000,0.000,011217,,*3E
2017-12-01 14:12:15 1512155535.377981: $GPGSA,A,3,8,10,14,15,18,20,21,24,27,32,12,138,2.0,0.8,1.5*37
2017-12-01 14:12:16 1512155536.350027: $GPZDA,191217.00,01,12,2017,00,00*6D
2017-12-01 14:12:16 1512155536.350206: $GPGGA,191217,3946.9536,N,08404.9845,W,2,12,1.00,315.32,M,-33.324,M,,*7B
2017-12-01 14:12:16 1512155536.350273: $GPRMC,191217,A,3946.9536,N,08404.9845,W,0.0000,0.000,011217,,*3F
2017-12-01 14:12:16 1512155536.350336: $GPGSA,A,3,8,10,14,15,18,20,21,24,27,32,12,138,2.0,1.0,1.5*3E
2017-12-01 14:12:17 1512155537.715561: $GPGSV,3,1,12,08,07,298,04,10,64,324,49,14,25,249,42,15,15,064,33*72
2017-12-01 14:12:17 1512155537.715739: $GPGSV,3,2,12,18,74,079,43,20,13,115,32,21,34,180,44,24,48,064,48*75
2017-12-01 14:12:17 1512155537.715806: $GPGSV,3,3,12,27,09,264,40,32,42,259,44,12,06,111,11,138,38,213,46*4C
2017-12-01 14:12:17 1512155537.828882: $GPZDA,191218.00,01,12,2017,00,00*62
2017-12-01 14:12:17 1512155537.829058: $GPGGA,191218,3946.9536,N,08404.9845,W,2,11,1.00,315.32,M,-33.324,M,,*77
2017-12-01 14:12:17 1512155537.829127: $GPRMC,191218,A,3946.9536,N,08404.9845,W,0.0000,0.000,011217,,*30
2017-12-01 14:12:17 1512155537.829190: $GPGSA,A,3,10,14,15,18,20,21,24,27,32,12,138,,2.0,1.0,1.5*06
2017-12-01 14:12:18 1512155538.454506: $GPZDA,191219.00,01,12,2017,00,00*63
2017-12-01 14:12:18 1512155538.454696: $GPGGA,191219,3946.9536,N,08404.9845,W,2,11,0.80,315.32,M,-33.324,M,,*7F
2017-12-01 14:12:18 1512155538.454772: $GPRMC,191219,A,3946.9536,N,08404.9845,W,0.0000,0.000,011217,,*31
2017-12-01 14:12:18 1512155538.454851: $GPGSA,A,3,10,14,15,18,20,21,24,27,32,12,138,,2.0,0.8,1.5*0F
2017-12-01 14:12:19 1512155539.350152: $GPZDA,191220.00,01,12,2017,00,00*69
2017-12-01 14:12:19 1512155539.350333: $GPGGA,191220,3946.9536,N,08404.9845,W,2,11,0.80,315.32,M,-33.324,M,,*75
2017-12-01 14:12:19 1512155539.350401: $GPRMC,191220,A,3946.9536,N,08404.9845,W,0.0000,0.000,011217,,*3B
2017-12-01 14:12:19 1512155539.350464: $GPGSA,A,3,10,14,15,18,20,21,24,27,32,12,138,,2.0,0.8,1.5*0F
2017-12-01 14:12:20 1512155540.679639: $GPGSV,3,1,12,08,07,298,26,10,64,324,49,14,25,249,42,15,15,064,32*73
2017-12-01 14:12:20 1512155540.679825: $GPGSV,3,2,12,18,74,079,43,20,13,115,32,21,34,180,44,24,48,064,48*75
2017-12-01 14:12:20 1512155540.679892: $GPGSV,3,3,12,27,09,264,39,32,42,259,44,12,06,111,24,138,38,213,47*45
2017-12-01 14:12:20 1512155540.793567: $GPZDA,191221.00,01,12,2017,00,00*68
2017-12-01 14:12:20 1512155540.793751: $GPGGA,191221,3946.9536,N,08404.9845,W,2,12,0.80,315.32,M,-33.324,M,,*77
2017-12-01 14:12:20 1512155540.793818: $GPRMC,191221,A,3946.9536,N,08404.9845,W,0.0000,0.000,011217,,*3A
2017-12-01 14:12:20 1512155540.793879: $GPGSA,A,3,8,10,14,15,18,20,21,24,27,32,12,138,2.0,0.8,1.5*37
2017-12-01 14:12:21 1512155541.351561: $GPZDA,191222.00,01,12,2017,00,00*6B
2017-12-01 14:12:21 1512155541.351733: $GPGGA,191222,3946.9536,N,08404.9845,W,2,12,0.80,315.32,M,-33.324,M,,*74
2017-12-01 14:12:21 1512155541.351804: $GPRMC,191222,A,3946.9536,N,08404.9845,W,0.0000,0.000,011217,,*39
2017-12-01 14:12:21 1512155541.351866: $GPGSA,A,3,8,10,14,15,18,20,21,24,27,32,12,138,2.0,0.8,1.5*37
2017-12-01 14:12:22 1512155542.351283: $GPZDA,191223.00,01,12,2017,00,00*6A
2017-12-01 14:12:22 1512155542.351557: $GPGGA,191223,3946.9536,N,08404.9845,W,2,12,0.80,315.32,M,-33.324,M,,*75
2017-12-01 14:12:22 1512155542.351626: $GPRMC,191223,A,3946.9536,N,08404.9845,W,0.0000,0.000,011217,,*38
2017-12-01 14:12:22 1512155542.351687: $GPGSA,A,3,8,10,14,15,18,20,21,24,27,32,12,138,2.0,0.8,1.5*37
2017-12-01 14:12:23 1512155543.715102: $GPGSV,3,1,12,08,07,298,29,10,64,324,49,14,25,249,42,15,15,064,32*7C
2017-12-01 14:12:23 1512155543.715278: $GPGSV,3,2,12,18,74,079,43,20,13,115,32,21,34,180,44,24,48,064,48*75
2017-12-01 14:12:23 1512155543.715346: $GPGSV,3,3,12,27,09,264,38,32,42,259,44,12,06,111,23,138,38,213,46*42
2017-12-01 14:12:23 1512155543.828690: $GPZDA,191224.00,01,12,2017,00,00*6D
2017-12-01 14:12:23 1512155543.828862: $GPGGA,191224,3946.9536,N,08404.9845,W,2,12,0.80,315.32,M,-33.324,M,,*72
2017-12-01 14:12:23 1512155543.828928: $GPRMC,191224,A,3946.9536,N,08404.9845,W,0.0000,0.000,011217,,*3F
2017-12-01 14:12:23 1512155543.828989: $GPGSA,A,3,8,10,14,15,18,20,21,24,27,32,12,138,2.0,0.8,1.5*37
2017-12-01 14:12:24 1512155544.350813: $GPZDA,191225.00,01,12,2017,00,00*6C
2017-12-01 14:12:24 1512155544.350984: $GPGGA,191225,3946.9536,N,08404.9845,W,2,12,0.80,315.32,M,-33.324,M,,*73
2017-12-01 14:12:24 1512155544.351050: $GPRMC,191225,A,3946.9536,N,08404.9845,W,0.0000,0.000,011217,,*3E
2017-12-01 14:12:24 1512155544.351111: $GPGSA,A,3,8,10,14,15,18,20,21,24,27,32,12,138,2.0,0.8,1.5*37
2017-12-01 14:12:25 1512155545.381770: $GPZDA,191226.00,01,12,2017,00,00*6F
2017-12-01 14:12:25 1512155545.381943: $GPGGA,191226,3946.9536,N,08404.9845,W,2,12,0.80,315.32,M,-33.324,M,,*70
2017-12-01 14:12:25 1512155545.382011: $GPRMC,191226,A,3946.9536,N,08404.9845,W,0.0000,0.000,011217,,*3D
2017-12-01 14:12:25 1512155545.382072: $GPGSA,A,3,8,10,14,15,18,20,21,24,27,32,12,138,2.0,0.8,1.5*37
2017-12-01 14:12:26 1512155546.687097: $GPGSV,3,1,12,08,07,298,30,10,64,324,49,14,25,249,42,15,15,064,32*74
2017-12-01 14:12:26 1512155546.687282: $GPGSV,3,2,12,18,74,079,43,20,13,115,32,21,34,180,45,24,48,064,49*75
2017-12-01 14:12:26 1512155546.687349: $GPGSV,3,3,12,27,09,264,38,32,42,259,44,12,06,111,22,138,38,213,46*43
2017-12-01 14:12:26 1512155546.800469: $GPZDA,191227.00,01,12,2017,00,00*6E
2017-12-01 14:12:26 1512155546.800633: $GPGGA,191227,3946.9536,N,08404.9845,W,2,12,0.80,315.32,M,-33.324,M,,*71
2017-12-01 14:12:26 1512155546.800701: $GPRMC,191227,A,3946.9536,N,08404.9845,W,0.0000,0.000,011217,,*3C
2017-12-01 14:12:26 1512155546.800762: $GPGSA,A,3,8,10,14,15,18,20,21,24,27,32,12,138,2.0,0.8,1.5*37
