2017-12-01 13:59:13 1512154753.327372: {"class":"VERSION","release":"3.16","rev":"3.16-4","proto_major":3,"proto_minor":11}
2017-12-01 13:59:13 1512154753.327749: {"class":"DEVICES","devices":[{"class":"DEVICE","path":"/dev/ttyUSB0","driver":"SiRF","subtype":"9\u0006GSD4e_4.1.2-P1_RPATCH.05-F-GPS-4R-1510281 11/03/2015 307","activated":"2017-12-01T18:59:13.248Z","flags":1,"native":1,"bps":4800,"parity":"N","stopbits":1,"cycle":1.00}]}
2017-12-01 13:59:13 1512154753.327862: {"class":"WATCH","enable":true,"json":false,"nmea":true,"raw":0,"scaled":false,"timing":false,"split24":false,"pps":false}
2017-12-01 13:59:13 1512154753.361264: $GPZDA,185914.00,01,12,2017,00,00*60
2017-12-01 13:59:13 1512154753.361440: $GPGGA,185914,3946.9567,N,08404.9841,W,2,12,0.80,301.98,M,-33.324,M,,*7A
2017-12-01 13:59:13 1512154753.361508: $GPRMC,185914,A,3946.9567,N,08404.9841,W,0.0000,0.000,011217,,*32
2017-12-01 13:59:13 1512154753.361568: $GPGSA,A,3,8,10,14,15,18,20,21,24,27,32,12,138,2.0,0.8,1.5*37
2017-12-01 13:59:14 1512154754.722035: $GPGSV,3,1,12,08,08,304,35,10,59,318,49,14,20,244,40,15,20,061,40*77
2017-12-01 13:59:14 1512154754.722220: $GPGSV,3,2,12,18,77,057,42,20,17,111,43,21,40,181,45,24,51,073,48*70
2017-12-01 13:59:14 1512154754.722288: $GPGSV,3,3,12,27,12,270,36,32,38,255,42,12,02,115,21,138,38,213,47*47
2017-12-01 13:59:14 1512154754.835431: $GPZDA,185915.00,01,12,2017,00,00*61
2017-12-01 13:59:14 1512154754.835610: $GPGGA,185915,3946.9567,N,08404.9841,W,2,12,0.80,301.98,M,-33.324,M,,*7B
2017-12-01 13:59:14 1512154754.835677: $GPRMC,185915,A,3946.9567,N,08404.9841,W,0.0000,0.000,011217,,*33
2017-12-01 13:59:14 1512154754.835739: $GPGSA,A,3,8,10,14,15,18,20,21,24,27,32,12,138,2.0,0.8,1.5*37
2017-12-01 13:59:15 1512154755.461168: $GPZDA,185916.00,01,12,2017,00,00*62
2017-12-01 13:59:15 1512154755.461385: $GPGGA,185916,3946.9567,N,08404.9841,W,2,12,0.80,301.98,M,-33.324,M,,*78
2017-12-01 13:59:15 1512154755.461462: $GPRMC,185916,A,3946.9567,N,08404.9841,W,0.0000,0.000,011217,,*30
2017-12-01 13:59:15 1512154755.461523: $GPGSA,A,3,8,10,14,15,18,20,21,24,27,32,12,138,2.0,0.8,1.5*37
2017-12-01 13:59:16 1512154756.365711: $GPZDA,185917.00,01,12,2017,00,00*63
2017-12-01 13:59:16 1512154756.365868: $GPGGA,185917,3946.9567,N,08404.9841,W,2,12,0.80,301.98,M,-33.324,M,,*79
2017-12-01 13:59:16 1512154756.365935: $GPRMC,185917,A,3946.9567,N,08404.9841,W,0.0000,0.000,011217,,*31
2017-12-01 13:59:16 1512154756.365995: $GPGSA,A,3,8,10,14,15,18,20,21,24,27,32,12,138,2.0,0.8,1.5*37
2017-12-01 13:59:17 1512154757.702432: $GPGSV,3,1,12,08,08,304,34,10,59,318,49,14,20,244,40,15,20,061,40*76
2017-12-01 13:59:17 1512154757.702616: $GPGSV,3,2,12,18,77,057,42,20,17,111,43,21,40,181,46,24,51,073,47*7C
2017-12-01 13:59:17 1512154757.702682: $GPGSV,3,3,12,27,12,270,31,32,38,255,42,12,02,115,20,138,38,213,47*41
2017-12-01 13:59:17 1512154757.816077: $GPZDA,185918.00,01,12,2017,00,00*6C
2017-12-01 13:59:17 1512154757.816248: $GPGGA,185918,3946.9567,N,08404.9841,W,2,12,0.80,301.98,M,-33.324,M,,*76
2017-12-01 13:59:17 1512154757.816314: $GPRMC,185918,A,3946.9567,N,08404.9841,W,0.0000,0.000,011217,,*3E
2017-12-01 13:59:17 1512154757.816376: $GPGSA,A,3,8,10,14,15,18,20,21,24,27,32,12,138,2.0,0.8,1.5*37
2017-12-01 13:59:18 1512154758.367054: $GPZDA,185919.00,01,12,2017,00,00*6D
2017-12-01 13:59:18 1512154758.367237: $GPGGA,185919,3946.9567,N,08404.9841,W,2,12,0.80,301.98,M,-33.324,M,,*77
2017-12-01 13:59:18 1512154758.367326: $GPRMC,185919,A,3946.9567,N,08404.9841,W,0.0000,0.000,011217,,*3F
2017-12-01 13:59:18 1512154758.367390: $GPGSA,A,3,8,10,14,15,18,20,21,24,27,32,12,138,2.0,0.8,1.5*37
2017-12-01 13:59:19 1512154759.361588: $GPZDA,185920.00,01,12,2017,00,00*67
2017-12-01 13:59:19 1512154759.361765: $GPGGA,185920,3946.9567,N,08404.9841,W,2,12,0.80,301.98,M,-33.324,M,,*7D
2017-12-01 13:59:19 1512154759.361833: $GPRMC,185920,A,3946.9567,N,08404.9841,W,0.0000,0.000,011217,,*35
2017-12-01 13:59:19 1512154759.361894: $GPGSA,A,3,8,10,14,15,18,20,21,24,27,32,12,138,2.0,0.8,1.5*37
2017-12-01 13:59:20 1512154760.726534: $GPGSV,3,1,12,08,08,304,33,10,59,318,49,14,20,244,40,15,20,061,40*71
2017-12-01 13:59:20 1512154760.726772: $GPGSV,3,2,12,18,77,057,42,20,17,111,43,21,40,181,45,24,51,073,47*7F
2017-12-01 13:59:20 1512154760.726843: $GPGSV,3,3,12,27,12,270,33,32,38,255,42,12,02,115,19,138,38,213,46*48
2017-12-01 13:59:20 1512154760.839917: $GPZDA,185921.00,01,12,2017,00,00*66
2017-12-01 13:59:20 1512154760.840094: $GPGGA,185921,3946.9567,N,08404.9841,W,2,12,0.80,301.98,M,-33.324,M,,*7C
2017-12-01 13:59:20 1512154760.840163: $GPRMC,185921,A,3946.9567,N,08404.9841,W,0.0000,0.000,011217,,*34
2017-12-01 13:59:20 1512154760.840223: $GPGSA,A,3,8,10,14,15,18,20,21,24,27,32,12,138,2.0,0.8,1.5*37
2017-12-01 13:59:21 1512154761.367297: $GPZDA,185922.00,01,12,2017,00,00*65
2017-12-01 13:59:21 1512154761.367470: $GPGGA,185922,3946.9567,N,08404.9841,W,2,12,0.80,301.98,M,-33.324,M,,*7F
2017-12-01 13:59:21 1512154761.367537: $GPRMC,185922,A,3946.9567,N,08404.9841,W,0.0000,0.000,011217,,*37
2017-12-01 13:59:21 1512154761.367598: $GPGSA,A,3,8,10,14,15,18,20,21,24,27,32,12,138,2.0,0.8,1.5*37
2017-12-01 13:59:22 1512154762.391715: $GPZDA,185923.00,01,12,2017,00,00*64
2017-12-01 13:59:22 1512154762.391898: $GPGGA,185923,3946.9567,N,08404.9841,W,2,12,0.80,301.98,M,-33.324,M,,*7E
2017-12-01 13:59:22 1512154762.391966: $GPRMC,185923,A,3946.9567,N,08404.9841,W,0.0000,0.000,011217,,*36
2017-12-01 13:59:22 1512154762.392027: $GPGSA,A,3,8,10,14,15,18,20,21,24,27,32,12,138,2.0,0.8,1.5*37
2017-12-01 13:59:23 1512154763.701134: $GPGSV,3,1,12,08,08,304,34,10,59,318,49,14,20,244,41,15,20,061,40*77
2017-12-01 13:59:23 1512154763.768963: $GPGSV,3,2,12,18,77,057,42,20,17,111,43,21,40,181,45,24,51,073,47*7F
2017-12-01 13:59:23 1512154763.769112: $GPGSV,3,3,12,27,12,270,35,32,38,255,42,12,02,115,19,138,38,213,47*4F
2017-12-01 13:59:23 1512154763.814494: $GPZDA,185924.00,01,12,2017,00,00*63
2017-12-01 13:59:23 1512154763.814633: $GPGGA,185924,3946.9567,N,08404.9841,W,2,12,0.80,301.98,M,-33.324,M,,*79
2017-12-01 13:59:23 1512154763.814699: $GPRMC,185924,A,3946.9567,N,08404.9841,W,0.0000,0.000,011217,,*31
2017-12-01 13:59:23 1512154763.814760: $GPGSA,A,3,8,10,14,15,18,20,21,24,27,32,12,138,2.0,0.8,1.5*37
2017-12-01 13:59:24 1512154764.365370: $GPZDA,185925.00,01,12,2017,00,00*62
2017-12-01 13:59:24 1512154764.365547: $GPGGA,185925,3946.9567,N,08404.9841,W,2,12,0.80,301.98,M,-33.324,M,,*78
2017-12-01 13:59:24 1512154764.365615: $GPRMC,185925,A,3946.9567,N,08404.9841,W,0.0000,0.000,011217,,*30
2017-12-01 13:59:24 1512154764.365677: $GPGSA,A,3,8,10,14,15,18,20,21,24,27,32,12,138,2.0,0.8,1.5*37
2017-12-01 13:59:25 1512154765.393262: $GPZDA,185926.00,01,12,2017,00,00*61
2017-12-01 13:59:25 1512154765.393440: $GPGGA,185926,3946.9567,N,08404.9841,W,2,12,0.80,301.98,M,-33.324,M,,*7B
2017-12-01 13:59:25 1512154765.393508: $GPRMC,185926,A,3946.9567,N,08404.9841,W,0.0000,0.000,011217,,*33
2017-12-01 13:59:25 1512154765.393570: $GPGSA,A,3,8,10,14,15,18,20,21,24,27,32,12,138,2.0,0.8,1.5*37
2017-12-01 13:59:26 1512154766.696478: $GPGSV,3,1,12,08,08,304,34,10,59,318,49,14,20,244,41,15,20,061,40*77
2017-12-01 13:59:26 1512154766.696666: $GPGSV,3,2,12,18,77,057,42,20,17,111,43,21,40,181,45,24,51,073,48*70
2017-12-01 13:59:26 1512154766.696735: $GPGSV,3,3,12,27,12,270,37,32,38,255,42,12,02,115,18,138,38,213,47*4C
2017-12-01 13:59:26 1512154766.810112: $GPZDA,185927.00,01,12,2017,00,00*60
2017-12-01 13:59:26 1512154766.810240: $GPGGA,185927,3946.9567,N,08404.9841,W,2,12,0.80,301.98,M,-33.324,M,,*7A
2017-12-01 13:59:26 1512154766.810306: $GPRMC,185927,A,3946.9567,N,08404.9841,W,0.0000,0.000,011217,,*32
2017-12-01 13:59:26 1512154766.810366: $GPGSA,A,3,8,10,14,15,18,20,21,24,27,32,12,138,2.0,0.8,1.5*37
2017-12-01 13:59:27 1512154767.390863: $GPZDA,185928.00,01,12,2017,00,00*6F
2017-12-01 13:59:27 1512154767.391040: $GPGGA,185928,3946.9567,N,08404.9841,W,2,12,0.80,301.98,M,-33.324,M,,*75
2017-12-01 13:59:27 1512154767.391108: $GPRMC,185928,A,3946.9567,N,08404.9841,W,0.0000,0.000,011217,,*3D
2017-12-01 13:59:27 1512154767.391170: $GPGSA,A,3,8,10,14,15,18,20,21,24,27,32,12,138,2.0,0.8,1.5*37
