2017-12-01 13:54:21 1512154461.023226: {"class":"VERSION","release":"3.16","rev":"3.16-4","proto_major":3,"proto_minor":11}
2017-12-01 13:54:21 1512154461.023627: {"class":"DEVICES","devices":[{"class":"DEVICE","path":"/dev/ttyUSB0","driver":"SiRF","subtype":"9\u0006GSD4e_4.1.2-P1_RPATCH.05-F-GPS-4R-1510281 11/03/2015 307","activated":"2017-12-01T18:54:20.533Z","flags":1,"native":1,"bps":4800,"parity":"N","stopbits":1,"cycle":1.00}]}
2017-12-01 13:54:21 1512154461.023752: {"class":"WATCH","enable":true,"json":false,"nmea":true,"raw":0,"scaled":false,"timing":false,"split24":false,"pps":false}
2017-12-01 13:54:21 1512154461.760069: $GPGSV,3,1,12,10,57,316,50,14,19,243,40,15,21,060,44,18,77,048,43*75
2017-12-01 13:54:21 1512154461.760248: $GPGSV,3,2,12,20,19,109,45,21,43,181,45,24,52,076,48,27,13,271,34*7D
2017-12-01 13:54:21 1512154461.760314: $GPGSV,3,3,12,32,36,252,42,08,08,306,37,12,01,117,00,138,38,213,47*4B
2017-12-01 13:54:21 1512154461.873735: $GPZDA,185422.00,01,12,2017,00,00*68
2017-12-01 13:54:21 1512154461.873906: $GPGGA,185422,3946.9566,N,08404.9833,W,2,11,0.80,299.25,M,-33.324,M,,*73
2017-12-01 13:54:21 1512154461.873973: $GPRMC,185422,A,3946.9566,N,08404.9833,W,0.0000,0.000,011217,,*3E
2017-12-01 13:54:21 1512154461.874034: $GPGSA,A,3,10,14,15,18,20,21,24,27,32,8,138,,2.0,0.8,1.5*34
2017-12-01 13:54:22 1512154462.498864: $GPZDA,185423.00,01,12,2017,00,00*69
2017-12-01 13:54:22 1512154462.499043: $GPGGA,185423,3946.9566,N,08404.9833,W,2,11,0.80,299.25,M,-33.324,M,,*72
2017-12-01 13:54:22 1512154462.499110: $GPRMC,185423,A,3946.9566,N,08404.9833,W,0.0000,0.000,011217,,*3F
2017-12-01 13:54:22 1512154462.499171: $GPGSA,A,3,10,14,15,18,20,21,24,27,32,8,138,,2.0,0.8,1.5*34
2017-12-01 13:54:23 1512154463.399874: $GPZDA,185424.00,01,12,2017,00,00*6E
2017-12-01 13:54:23 1512154463.400063: $GPGGA,185424,3946.9566,N,08404.9833,W,2,11,0.80,299.25,M,-33.324,M,,*75
2017-12-01 13:54:23 1512154463.400132: $GPRMC,185424,A,3946.9566,N,08404.9833,W,0.0000,0.000,011217,,*38
2017-12-01 13:54:23 1512154463.400193: $GPGSA,A,3,10,14,15,18,20,21,24,27,32,8,138,,2.0,0.8,1.5*34
2017-12-01 13:54:24 1512154464.735535: $GPGSV,3,1,12,10,57,316,49,14,19,243,40,15,21,060,44,18,77,048,43*7D
2017-12-01 13:54:24 1512154464.735697: $GPGSV,3,2,12,20,19,109,45,21,43,181,45,24,52,076,48,27,13,271,34*7D
2017-12-01 13:54:24 1512154464.735763: $GPGSV,3,3,12,32,36,252,42,08,08,306,36,12,01,117,00,138,38,213,46*4B
2017-12-01 13:54:24 1512154464.848838: $GPZDA,185425.00,01,12,2017,00,00*6F
2017-12-01 13:54:24 1512154464.849020: $GPGGA,185425,3946.9566,N,08404.9833,W,2,11,0.80,299.25,M,-33.324,M,,*74
2017-12-01 13:54:24 1512154464.849088: $GPRMC,185425,A,3946.9566,N,08404.9833,W,0.0000,0.000,011217,,*39
2017-12-01 13:54:24 1512154464.849149: $GPGSA,A,3,10,14,15,18,20,21,24,27,32,8,138,,2.0,0.8,1.5*34
2017-12-01 13:54:25 1512154465.393477: $GPZDA,185426.00,01,12,2017,00,00*6C
2017-12-01 13:54:25 1512154465.393647: $GPGGA,185426,3946.9566,N,08404.9833,W,2,11,0.80,299.25,M,-33.324,M,,*77
2017-12-01 13:54:25 1512154465.393713: $GPRMC,185426,A,3946.9566,N,08404.9833,W,0.0000,0.000,011217,,*3A
2017-12-01 13:54:25 1512154465.393775: $GPGSA,A,3,10,14,15,18,20,21,24,27,32,8,138,,2.0,0.8,1.5*34
2017-12-01 13:54:26 1512154466.394396: $GPZDA,185427.00,01,12,2017,00,00*6D
2017-12-01 13:54:26 1512154466.394567: $GPGGA,185427,3946.9566,N,08404.9833,W,2,11,0.80,299.25,M,-33.324,M,,*76
2017-12-01 13:54:26 1512154466.394634: $GPRMC,185427,A,3946.9566,N,08404.9833,W,0.0000,0.000,011217,,*3B
2017-12-01 13:54:26 1512154466.394694: $GPGSA,A,3,10,14,15,18,20,21,24,27,32,8,138,,2.0,0.8,1.5*34
2017-12-01 13:54:27 1512154467.760828: $GPGSV,3,1,12,10,57,316,49,14,19,243,40,15,21,060,44,18,77,048,43*7D
2017-12-01 13:54:27 1512154467.761020: $GPGSV,3,2,12,20,19,109,45,21,43,181,45,24,52,076,48,27,13,271,34*7D
2017-12-01 13:54:27 1512154467.761088: $GPGSV,3,3,12,32,36,252,42,08,08,306,36,12,01,117,00,138,38,213,46*4B
2017-12-01 13:54:27 1512154467.874296: $GPZDA,185428.00,01,12,2017,00,00*62
2017-12-01 13:54:27 1512154467.874467: $GPGGA,185428,3946.9566,N,08404.9833,W,2,11,0.80,299.25,M,-33.324,M,,*79
2017-12-01 13:54:27 1512154467.874585: $GPRMC,185428,A,3946.9566,N,08404.9833,W,0.0000,0.000,011217,,*34
2017-12-01 13:54:27 1512154467.874648: $GPGSA,A,3,10,14,15,18,20,21,24,27,32,8,138,,2.0,0.8,1.5*34
2017-12-01 13:54:28 1512154468.398919: $GPZDA,185429.00,01,12,2017,00,00*63
2017-12-01 13:54:28 1512154468.399086: $GPGGA,185429,3946.9566,N,08404.9833,W,2,11,0.80,299.25,M,-33.324,M,,*78
2017-12-01 13:54:28 1512154468.399153: $GPRMC,185429,A,3946.9566,N,08404.9833,W,0.0000,0.000,011217,,*35
2017-12-01 13:54:28 1512154468.399214: $GPGSA,A,3,10,14,15,18,20,21,24,27,32,8,138,,2.0,0.8,1.5*34
2017-12-01 13:54:29 1512154469.425997: $GPZDA,185430.00,01,12,2017,00,00*6B
2017-12-01 13:54:29 1512154469.426238: $GPGGA,185430,3946.9566,N,08404.9833,W,2,11,0.80,299.25,M,-33.324,M,,*70
2017-12-01 13:54:29 1512154469.426309: $GPRMC,185430,A,3946.9566,N,08404.9833,W,0.0000,0.000,011217,,*3D
2017-12-01 13:54:29 1512154469.426372: $GPGSA,A,3,10,14,15,18,20,21,24,27,32,8,138,,2.0,0.8,1.5*34
2017-12-01 13:54:30 1512154470.736665: $GPGSV,3,1,12,10,57,316,49,14,19,243,40,15,21,060,45,18,77,048,43*7C
2017-12-01 13:54:30 1512154470.736826: $GPGSV,3,2,12,20,19,109,45,21,43,181,45,24,52,076,48,27,13,271,34*7D
2017-12-01 13:54:30 1512154470.736892: $GPGSV,3,3,12,32,36,252,42,08,08,306,35,12,01,117,00,138,38,213,46*48
2017-12-01 13:54:30 1512154470.850062: $GPZDA,185431.00,01,12,2017,00,00*6A
2017-12-01 13:54:30 1512154470.850233: $GPGGA,185431,3946.9566,N,08404.9833,W,2,11,0.80,299.25,M,-33.324,M,,*71
2017-12-01 13:54:30 1512154470.850299: $GPRMC,185431,A,3946.9566,N,08404.9833,W,0.0000,0.000,011217,,*3C
2017-12-01 13:54:30 1512154470.850360: $GPGSA,A,3,10,14,15,18,20,21,24,27,32,8,138,,2.0,0.8,1.5*34
2017-12-01 13:54:31 1512154471.400972: $GPZDA,185432.00,01,12,2017,00,00*69
2017-12-01 13:54:31 1512154471.401149: $GPGGA,185432,3946.9566,N,08404.9833,W,2,11,0.80,299.25,M,-33.324,M,,*72
2017-12-01 13:54:31 1512154471.401214: $GPRMC,185432,A,3946.9566,N,08404.9833,W,0.0000,0.000,011217,,*3F
2017-12-01 13:54:31 1512154471.401276: $GPGSA,A,3,10,14,15,18,20,21,24,27,32,8,138,,2.0,0.8,1.5*34
2017-12-01 13:54:32 1512154472.423765: $GPZDA,185433.00,01,12,2017,00,00*68
2017-12-01 13:54:32 1512154472.423938: $GPGGA,185433,3946.9566,N,08404.9833,W,2,11,0.80,299.25,M,-33.324,M,,*73
2017-12-01 13:54:32 1512154472.424004: $GPRMC,185433,A,3946.9566,N,08404.9833,W,0.0000,0.000,011217,,*3E
2017-12-01 13:54:32 1512154472.424066: $GPGSA,A,3,10,14,15,18,20,21,24,27,32,8,138,,2.0,0.8,1.5*34
2017-12-01 13:54:33 1512154473.740780: $GPGSV,3,1,12,10,57,316,48,14,19,243,39,15,21,060,44,18,77,048,43*72
2017-12-01 13:54:33 1512154473.740981: $GPGSV,3,2,12,20,19,109,45,21,43,181,45,24,52,076,49,27,13,271,35*7D
2017-12-01 13:54:33 1512154473.741048: $GPGSV,3,3,12,32,36,252,42,08,08,306,28,12,01,117,06,138,38,213,47*43
2017-12-01 13:54:33 1512154473.854173: $GPZDA,185434.00,01,12,2017,00,00*6F
2017-12-01 13:54:33 1512154473.854349: $GPGGA,185434,3946.9566,N,08404.9833,W,2,11,0.80,299.25,M,-33.324,M,,*74
2017-12-01 13:54:33 1512154473.854416: $GPRMC,185434,A,3946.9566,N,08404.9833,W,0.0000,0.000,011217,,*39
2017-12-01 13:54:33 1512154473.854477: $GPGSA,A,3,10,14,15,18,20,21,24,27,32,8,138,,2.0,0.8,1.5*34
2017-12-01 13:54:34 1512154474.426540: $GPZDA,185435.00,01,12,2017,00,00*6E
2017-12-01 13:54:34 1512154474.426732: $GPGGA,185435,3946.9566,N,08404.9833,W,2,11,0.80,299.25,M,-33.324,M,,*75
2017-12-01 13:54:34 1512154474.426818: $GPRMC,185435,A,3946.9566,N,08404.9833,W,0.0000,0.000,011217,,*38
2017-12-01 13:54:34 1512154474.426881: $GPGSA,A,3,10,14,15,18,20,21,24,27,32,8,138,,2.0,0.8,1.5*34
2017-12-01 13:54:35 1512154475.423513: $GPZDA,185436.00,01,12,2017,00,00*6D
2017-12-01 13:54:35 1512154475.423688: $GPGGA,185436,3946.9566,N,08404.9833,W,2,11,0.80,299.25,M,-33.324,M,,*76
2017-12-01 13:54:35 1512154475.423759: $GPRMC,185436,A,3946.9566,N,08404.9833,W,0.0000,0.000,011217,,*3B
2017-12-01 13:54:35 1512154475.423820: $GPGSA,A,3,10,14,15,18,20,21,24,27,32,8,138,,2.0,0.8,1.5*34
