2018-01-11 20:04:08 1515719048.388436: {"class":"VERSION","release":"3.16","rev":"3.16-4","proto_major":3,"proto_minor":11}
2018-01-11 20:04:08 1515719048.388779: {"class":"DEVICES","devices":[{"class":"DEVICE","path":"/dev/ttyUSB0","driver":"SiRF","subtype":"9\u0006GSD4e_4.1.2-P1_RPATCH.05-F-GPS-4R-1510281 11/03/2015 307","activated":"2018-01-12T01:04:08.363Z","flags":1,"native":1,"bps":4800,"parity":"N","stopbits":1,"cycle":1.00}]}
2018-01-11 20:04:08 1515719048.388895: {"class":"WATCH","enable":true,"json":false,"nmea":true,"raw":0,"scaled":false,"timing":false,"split24":false,"pps":false}
2018-01-11 20:04:09 1515719049.368034: $GPZDA,010410.00,12,01,2018,00,00*6B
2018-01-11 20:04:09 1515719049.368205: $GPGGA,010410,3946.9595,N,08404.9829,W,2,10,0.80,295.94,M,-33.324,M,,*7F
2018-01-11 20:04:09 1515719049.368271: $GPRMC,010410,A,3946.9595,N,08404.9829,W,0.0000,0.000,120118,,*3A
2018-01-11 20:04:09 1515719049.368333: $GPGSA,A,3,7,8,9,11,16,23,27,28,30,138,,,4.0,0.8,3.5*3E
2018-01-11 20:04:10 1515719050.701312: $GPGSV,3,1,11,07,52,313,43,08,71,141,45,09,50,234,43,11,17,169,43*77
2018-01-11 20:04:10 1515719050.701479: $GPGSV,3,2,11,16,25,058,45,23,32,190,46,27,50,055,50,28,12,256,40*77
2018-01-11 20:04:10 1515719050.701546: $GPGSV,3,3,11,30,26,304,34,26,01,070,00,138,38,213,46*7F
2018-01-11 20:04:10 1515719050.815038: $GPZDA,010411.00,12,01,2018,00,00*6A
2018-01-11 20:04:10 1515719050.815161: $GPGGA,010411,3946.9595,N,08404.9829,W,2,10,0.80,295.94,M,-33.324,M,,*7E
2018-01-11 20:04:10 1515719050.815225: $GPRMC,010411,A,3946.9595,N,08404.9829,W,0.0000,0.000,120118,,*3B
2018-01-11 20:04:10 1515719050.815285: $GPGSA,A,3,7,8,9,11,16,23,27,28,30,138,,,4.0,0.8,3.5*3E
2018-01-11 20:04:11 1515719051.364580: $GPZDA,010412.00,12,01,2018,00,00*69
2018-01-11 20:04:11 1515719051.364714: $GPGGA,010412,3946.9595,N,08404.9829,W,2,10,0.80,295.94,M,-33.324,M,,*7D
2018-01-11 20:04:11 1515719051.364778: $GPRMC,010412,A,3946.9595,N,08404.9829,W,0.0000,0.000,120118,,*38
2018-01-11 20:04:11 1515719051.364838: $GPGSA,A,3,7,8,9,11,16,23,27,28,30,138,,,4.0,0.8,3.5*3E
2018-01-11 20:04:12 1515719052.366334: $GPZDA,010413.00,12,01,2018,00,00*68
2018-01-11 20:04:12 1515719052.371344: $GPGGA,010413,3946.9595,N,08404.9829,W,2,10,0.80,295.94,M,-33.324,M,,*7C
2018-01-11 20:04:12 1515719052.371453: $GPRMC,010413,A,3946.9595,N,08404.9829,W,0.0000,0.000,120118,,*39
2018-01-11 20:04:12 1515719052.371516: $GPGSA,A,3,7,8,9,11,16,23,27,28,30,138,,,4.0,0.8,3.5*3E
2018-01-11 20:04:13 1515719053.697873: $GPGSV,3,1,11,07,52,313,43,08,71,141,44,09,50,234,43,11,17,169,43*76
2018-01-11 20:04:13 1515719053.698038: $GPGSV,3,2,11,16,25,058,45,23,32,190,45,27,50,055,50,28,12,256,40*74
2018-01-11 20:04:13 1515719053.698104: $GPGSV,3,3,11,30,26,304,34,26,01,070,00,138,38,213,45*7C
2018-01-11 20:04:13 1515719053.811601: $GPZDA,010414.00,12,01,2018,00,00*6F
2018-01-11 20:04:13 1515719053.811710: $GPGGA,010414,3946.9595,N,08404.9829,W,2,10,0.80,295.94,M,-33.324,M,,*7B
2018-01-11 20:04:13 1515719053.811773: $GPRMC,010414,A,3946.9595,N,08404.9829,W,0.0000,0.000,120118,,*3E
2018-01-11 20:04:13 1515719053.811833: $GPGSA,A,3,7,8,9,11,16,23,27,28,30,138,,,4.0,0.8,3.5*3E
2018-01-11 20:04:14 1515719054.362483: $GPZDA,010415.00,12,01,2018,00,00*6E
2018-01-11 20:04:14 1515719054.362621: $GPGGA,010415,3946.9595,N,08404.9829,W,2,10,0.80,297.35,M,-33.324,M,,*73
2018-01-11 20:04:14 1515719054.362686: $GPRMC,010415,A,3946.9595,N,08404.9829,W,0.0000,0.000,120118,,*3F
2018-01-11 20:04:14 1515719054.362746: $GPGSA,A,3,7,8,9,11,16,23,27,28,30,138,,,4.0,0.8,3.5*3E
2018-01-11 20:04:15 1515719055.364637: $GPZDA,010416.00,12,01,2018,00,00*6D
2018-01-11 20:04:15 1515719055.364793: $GPGGA,010416,3946.9595,N,08404.9829,W,2,10,0.80,297.35,M,-33.324,M,,*70
2018-01-11 20:04:15 1515719055.364859: $GPRMC,010416,A,3946.9595,N,08404.9829,W,0.0000,0.000,120118,,*3C
2018-01-11 20:04:15 1515719055.364919: $GPGSA,A,3,7,8,9,11,16,23,27,28,30,138,,,4.0,0.8,3.5*3E
2018-01-11 20:04:16 1515719056.701272: $GPGSV,3,1,11,07,52,313,43,08,71,141,45,09,50,234,43,11,17,169,43*77
2018-01-11 20:04:16 1515719056.701453: $GPGSV,3,2,11,16,25,058,45,23,32,190,45,27,50,055,50,28,12,256,40*74
2018-01-11 20:04:16 1515719056.701574: $GPGSV,3,3,11,30,26,304,34,26,01,070,00,138,38,213,45*7C
2018-01-11 20:04:16 1515719056.814868: $GPZDA,010417.00,12,01,2018,00,00*6C
2018-01-11 20:04:16 1515719056.815002: $GPGGA,010417,3946.9595,N,08404.9829,W,2,10,0.80,297.35,M,-33.324,M,,*71
2018-01-11 20:04:16 1515719056.815069: $GPRMC,010417,A,3946.9595,N,08404.9829,W,0.0000,0.000,120118,,*3D
2018-01-11 20:04:16 1515719056.815130: $GPGSA,A,3,7,8,9,11,16,23,27,28,30,138,,,4.0,0.8,3.5*3E
2018-01-11 20:04:17 1515719057.440321: $GPZDA,010418.00,12,01,2018,00,00*63
2018-01-11 20:04:17 1515719057.440500: $GPGGA,010418,3946.9595,N,08404.9829,W,2,10,0.80,297.35,M,-33.324,M,,*7E
2018-01-11 20:04:17 1515719057.440568: $GPRMC,010418,A,3946.9595,N,08404.9829,W,0.0000,0.000,120118,,*32
2018-01-11 20:04:17 1515719057.440650: $GPGSA,A,3,7,8,9,11,16,23,27,28,30,138,,,4.0,0.8,3.5*3E
2018-01-11 20:04:18 1515719058.366127: $GPZDA,010419.00,12,01,2018,00,00*62
2018-01-11 20:04:18 1515719058.366272: $GPGGA,010419,3946.9595,N,08404.9829,W,2,10,0.80,297.35,M,-33.324,M,,*7F
2018-01-11 20:04:18 1515719058.366338: $GPRMC,010419,A,3946.9595,N,08404.9829,W,0.0000,0.000,120118,,*33
2018-01-11 20:04:18 1515719058.366399: $GPGSA,A,3,7,8,9,11,16,23,27,28,30,138,,,4.0,0.8,3.5*3E
