2017-12-29 14:57:48 1514577468.842353: {"class":"VERSION","release":"3.16","rev":"3.16-4","proto_major":3,"proto_minor":11}
2017-12-29 14:57:48 1514577468.842769: {"class":"DEVICES","devices":[{"class":"DEVICE","path":"/dev/ttyUSB0","driver":"SiRF","subtype":"9\u0006GSD4e_4.1.2-P1_RPATCH.05-F-GPS-4R-1510281 11/03/2015 307","activated":"2017-12-29T19:57:48.610Z","flags":1,"native":1,"bps":4800,"parity":"N","stopbits":1,"cycle":1.00}]}
2017-12-29 14:57:48 1514577468.842884: {"class":"WATCH","enable":true,"json":false,"nmea":true,"raw":0,"scaled":false,"timing":false,"split24":false,"pps":false}
2017-12-29 14:57:49 1514577469.390912: $GPZDA,195750.00,29,12,2017,00,00*65
2017-12-29 14:57:49 1514577469.391126: $GPGGA,195750,3946.9580,N,08404.9841,W,2,11,0.80,303.90,M,-33.324,M,,*75
2017-12-29 14:57:49 1514577469.391201: $GPRMC,195750,A,3946.9580,N,08404.9841,W,0.0000,0.000,291217,,*3E
2017-12-29 14:57:49 1514577469.391263: $GPGSA,A,3,1,3,10,18,12,14,22,25,31,32,138,,1.7,0.8,1.3*0C
2017-12-29 14:57:50 1514577470.731765: $GPGSV,3,1,12,01,22,291,34,03,09,316,42,10,37,153,48,18,08,147,30*72
2017-12-29 14:57:50 1514577470.731918: $GPGSV,3,2,12,12,17,042,42,14,69,351,43,22,28,310,38,25,41,078,51*7E
2017-12-29 14:57:50 1514577470.731983: $GPGSV,3,3,12,31,67,237,46,32,64,054,50,11,05,274,35,138,38,213,43*4E
2017-12-29 14:57:50 1514577470.843906: $GPZDA,195751.00,29,12,2017,00,00*64
2017-12-29 14:57:50 1514577470.844075: $GPGGA,195751,3946.9580,N,08404.9841,W,2,12,0.80,303.90,M,-33.324,M,,*77
2017-12-29 14:57:50 1514577470.844141: $GPRMC,195751,A,3946.9580,N,08404.9841,W,0.0000,0.000,291217,,*3F
2017-12-29 14:57:50 1514577470.844201: $GPGSA,A,3,1,3,10,18,12,14,22,25,31,32,11,138,1.7,0.8,1.3*0C
2017-12-29 14:57:51 1514577471.394777: $GPZDA,195752.00,29,12,2017,00,00*67
2017-12-29 14:57:51 1514577471.394927: $GPGGA,195752,3946.9580,N,08404.9841,W,2,12,0.80,303.90,M,-33.324,M,,*74
2017-12-29 14:57:51 1514577471.394993: $GPRMC,195752,A,3946.9580,N,08404.9841,W,0.0000,0.000,291217,,*3C
2017-12-29 14:57:51 1514577471.395054: $GPGSA,A,3,1,3,10,18,12,14,22,25,31,32,11,138,1.7,0.8,1.3*0C
2017-12-29 14:57:52 1514577472.394395: $GPZDA,195753.00,29,12,2017,00,00*66
2017-12-29 14:57:52 1514577472.394551: $GPGGA,195753,3946.9580,N,08404.9841,W,2,12,0.80,303.90,M,-33.324,M,,*75
2017-12-29 14:57:52 1514577472.394638: $GPRMC,195753,A,3946.9580,N,08404.9841,W,0.0000,0.000,291217,,*3D
2017-12-29 14:57:52 1514577472.394699: $GPGSA,A,3,1,3,10,18,12,14,22,25,31,32,11,138,1.7,0.8,1.3*0C
2017-12-29 14:57:53 1514577473.732130: $GPGSV,3,1,12,01,22,291,34,03,09,316,42,10,37,153,48,18,08,147,30*72
2017-12-29 14:57:53 1514577473.735248: $GPGSV,3,2,12,12,17,042,41,14,69,351,43,22,28,310,38,25,41,078,51*7D
2017-12-29 14:57:53 1514577473.735375: $GPGSV,3,3,12,31,67,237,46,32,64,054,50,11,05,274,35,138,38,213,43*4E
2017-12-29 14:57:53 1514577473.845597: $GPZDA,195754.00,29,12,2017,00,00*61
2017-12-29 14:57:53 1514577473.845773: $GPGGA,195754,3946.9580,N,08404.9841,W,2,12,0.80,303.90,M,-33.324,M,,*72
2017-12-29 14:57:53 1514577473.845841: $GPRMC,195754,A,3946.9580,N,08404.9841,W,0.0000,0.000,291217,,*3A
2017-12-29 14:57:53 1514577473.845919: $GPGSA,A,3,1,3,10,18,12,14,22,25,31,32,11,138,1.7,0.8,1.3*0C
2017-12-29 14:57:54 1514577474.917727: $GPZDA,195755.00,29,12,2017,00,00*60
2017-12-29 14:57:54 1514577474.917902: $GPGGA,195755,3946.9580,N,08404.9848,W,2,12,0.80,303.82,M,-33.324,M,,*79
2017-12-29 14:57:54 1514577474.917970: $GPRMC,195755,A,3946.9580,N,08404.9848,W,0.0000,0.000,291217,,*32
2017-12-29 14:57:54 1514577474.918030: $GPGSA,A,3,1,3,10,18,12,14,22,25,31,32,11,138,1.7,0.8,1.3*0C
2017-12-29 14:57:55 1514577475.396081: $GPZDA,195756.00,29,12,2017,00,00*63
2017-12-29 14:57:55 1514577475.396234: $GPGGA,195756,3946.9580,N,08404.9848,W,2,12,0.80,303.82,M,-33.324,M,,*7A
2017-12-29 14:57:55 1514577475.396318: $GPRMC,195756,A,3946.9580,N,08404.9848,W,0.0000,0.000,291217,,*31
2017-12-29 14:57:55 1514577475.396379: $GPGSA,A,3,1,3,10,18,12,14,22,25,31,32,11,138,1.7,0.8,1.3*0C
2017-12-29 14:57:56 1514577476.725509: $GPGSV,3,1,12,01,22,291,34,03,09,316,42,10,37,153,48,18,08,147,30*72
2017-12-29 14:57:56 1514577476.725734: $GPGSV,3,2,12,12,17,042,41,14,69,351,43,22,28,310,38,25,41,078,51*7D
2017-12-29 14:57:56 1514577476.725805: $GPGSV,3,3,12,31,68,237,46,32,63,055,50,26,12,180,19,138,38,213,44*44
2017-12-29 14:57:56 1514577476.838950: $GPZDA,195757.00,29,12,2017,00,00*62
2017-12-29 14:57:56 1514577476.839118: $GPGGA,195757,3946.9576,N,08404.9842,W,2,12,0.80,304.66,M,-33.324,M,,*75
2017-12-29 14:57:56 1514577476.839186: $GPRMC,195757,A,3946.9576,N,08404.9842,W,0.0000,0.000,291217,,*33
2017-12-29 14:57:56 1514577476.839247: $GPGSA,A,3,1,3,10,18,12,14,22,25,31,32,26,138,1.7,0.8,1.3*08
2017-12-29 14:57:57 1514577477.397362: $GPZDA,195758.00,29,12,2017,00,00*6D
2017-12-29 14:57:57 1514577477.397545: $GPGGA,195758,3946.9576,N,08404.9842,W,2,12,0.80,304.66,M,-33.324,M,,*7A
2017-12-29 14:57:57 1514577477.397615: $GPRMC,195758,A,3946.9576,N,08404.9842,W,0.0000,0.000,291217,,*3C
2017-12-29 14:57:57 1514577477.397679: $GPGSA,A,3,1,3,10,18,12,14,22,25,31,32,26,138,1.7,0.8,1.3*08
2017-12-29 14:57:58 1514577478.395450: $GPZDA,195759.00,29,12,2017,00,00*6C
2017-12-29 14:57:58 1514577478.395633: $GPGGA,195759,3946.9576,N,08404.9842,W,2,12,0.80,304.66,M,-33.324,M,,*7B
2017-12-29 14:57:58 1514577478.395702: $GPRMC,195759,A,3946.9576,N,08404.9842,W,0.0000,0.000,291217,,*3D
2017-12-29 14:57:58 1514577478.395764: $GPGSA,A,3,1,3,10,18,12,14,22,25,31,32,26,138,1.7,0.8,1.3*08
