2017-12-01 17:12:23 1512166343.413236: {"class":"VERSION","release":"3.16","rev":"3.16-4","proto_major":3,"proto_minor":11}
2017-12-01 17:12:23 1512166343.413642: {"class":"DEVICES","devices":[{"class":"DEVICE","path":"/dev/ttyUSB0","driver":"SiRF","subtype":"9\u0006GSD4e_4.1.2-P1_RPATCH.05-F-GPS-4R-1510281 11/03/2015 307","activated":"2017-12-01T22:12:22.992Z","flags":1,"native":1,"bps":4800,"parity":"N","stopbits":1,"cycle":1.00}]}
2017-12-01 17:12:23 1512166343.413776: {"class":"WATCH","enable":true,"json":false,"nmea":true,"raw":0,"scaled":false,"timing":false,"split24":false,"pps":false}
2017-12-01 17:12:23 1512166343.598296: $GPZDA,221224.25,01,12,2017,00,00*62
2017-12-01 17:12:23 1512166343.598467: $GPGGA,221224,3946.9599,N,08404.9818,W,1,11,0.80,315.20,M,-33.324,M,,*74
2017-12-01 17:12:23 1512166343.598534: $GPRMC,221224,A,3946.9599,N,08404.9818,W,0.8334,42.077,011217,,*00
2017-12-01 17:12:23 1512166343.598595: $GPGSA,A,3,1,3,10,14,22,26,31,32,12,11,138,,2.0,0.8,1.5*04
2017-12-01 17:12:25 1512166345.039174: $GPGSV,3,1,12,01,20,280,35,03,16,316,33,10,28,154,30,12,11,036,26*7D
2017-12-01 17:12:25 1512166345.039330: $GPGSV,3,2,12,14,70,019,37,22,34,306,33,26,20,178,30,31,74,256,38*77
2017-12-01 17:12:25 1512166345.039397: $GPGSV,3,3,12,32,59,070,40,25,38,064,00,11,01,265,00,138,38,213,00*4B
2017-12-01 17:12:25 1512166345.151690: $GPZDA,221224.93,01,12,2017,00,00*6F
2017-12-01 17:12:25 1512166345.151863: $GPGGA,221224,3946.9599,N,08404.9818,W,1,09,0.80,315.20,M,-33.324,M,,*7D
2017-12-01 17:12:25 1512166345.151929: $GPRMC,221224,A,3946.9599,N,08404.9818,W,0.2710,100.223,011217,,*3C
2017-12-01 17:12:25 1512166345.151990: $GPGSA,A,3,1,3,10,12,14,22,26,31,32,,,,2.0,0.8,1.5*3E
2017-12-01 17:12:25 1512166345.981657: $GPZDA,221226.00,01,12,2017,00,00*67
2017-12-01 17:12:25 1512166345.981848: $GPGGA,221226,3946.9602,N,08404.9810,W,1,09,0.80,314.51,M,-33.324,M,,*71
2017-12-01 17:12:25 1512166345.981915: $GPRMC,221226,A,3946.9602,N,08404.9810,W,0.2710,100.223,011217,,*37
2017-12-01 17:12:25 1512166345.981976: $GPGSA,A,3,1,3,10,12,14,22,26,31,32,,,,2.0,0.8,1.5*3E
2017-12-01 17:12:25 1512166345.982033: $GPGBS,221226,10.70,M,15.43,M,35.28,M*00
2017-12-01 17:12:26 1512166346.235889: $GPZDA,221227.00,01,12,2017,00,00*66
2017-12-01 17:12:26 1512166346.236058: $GPGGA,221227,3946.9602,N,08404.9809,W,1,09,0.80,313.11,M,-33.324,M,,*7B
2017-12-01 17:12:26 1512166346.236124: $GPRMC,221227,A,3946.9602,N,08404.9809,W,0.0407,142.013,011217,,*3E
2017-12-01 17:12:26 1512166346.236186: $GPGSA,A,3,1,3,10,12,14,22,26,31,32,,,,2.0,0.8,1.5*3E
2017-12-01 17:12:26 1512166346.236243: $GPGBS,221227,10.70,M,15.43,M,35.28,M*01
2017-12-01 17:12:27 1512166347.726156: $GPGSV,3,1,12,01,20,280,45,03,16,316,41,10,28,154,36,12,11,036,31*7F
2017-12-01 17:12:27 1512166347.726338: $GPGSV,3,2,12,14,70,019,46,22,35,306,42,26,20,178,36,31,74,256,47*78
2017-12-01 17:12:27 1512166347.726405: $GPGSV,3,3,12,32,59,070,50,11,01,265,26,25,38,064,32,138,38,213,04*4B
2017-12-01 17:12:27 1512166347.839582: $GPZDA,221228.00,01,12,2017,00,00*69
2017-12-01 17:12:27 1512166347.839751: $GPGGA,221228,3946.9605,N,08404.9809,W,1,12,0.80,312.35,M,-33.324,M,,*7E
2017-12-01 17:12:27 1512166347.839821: $GPRMC,221228,A,3946.9605,N,08404.9809,W,0.0000,0.000,011217,,*30
2017-12-01 17:12:27 1512166347.839882: $GPGSA,A,3,1,3,10,12,14,22,26,31,32,11,25,138,2.0,0.8,1.5*03
2017-12-01 17:12:28 1512166348.464928: $GPZDA,221229.00,01,12,2017,00,00*68
2017-12-01 17:12:28 1512166348.467745: $GPGGA,221229,3946.9608,N,08404.9801,W,1,12,0.80,311.66,M,-33.324,M,,*7F
2017-12-01 17:12:28 1512166348.467866: $GPRMC,221229,A,3946.9608,N,08404.9801,W,0.1567,9.200,011217,,*3A
2017-12-01 17:12:28 1512166348.467930: $GPGSA,A,3,1,3,10,12,14,22,26,31,32,11,25,138,2.0,0.8,1.5*03
2017-12-01 17:12:29 1512166349.393178: $GPZDA,221230.00,01,12,2017,00,00*60
2017-12-01 17:12:29 1512166349.393355: $GPGGA,221230,3946.9608,N,08404.9800,W,1,12,0.80,310.26,M,-33.324,M,,*73
2017-12-01 17:12:29 1512166349.393422: $GPRMC,221230,A,3946.9608,N,08404.9800,W,0.0000,0.000,011217,,*3D
2017-12-01 17:12:29 1512166349.393483: $GPGSA,A,3,1,3,10,12,14,22,26,31,32,11,25,138,2.0,0.8,1.5*03
2017-12-01 17:12:29 1512166349.393595: $GPGBS,221230,10.70,M,15.43,M,35.28,M*07
2017-12-01 17:12:30 1512166350.731815: $GPGSV,3,1,12,01,20,280,44,03,16,316,40,10,28,154,36,12,11,036,31*7F
2017-12-01 17:12:30 1512166350.731998: $GPGSV,3,2,12,14,70,019,46,22,35,306,43,26,20,178,36,31,74,256,48*76
2017-12-01 17:12:30 1512166350.732073: $GPGSV,3,3,12,32,59,070,50,11,01,265,22,25,38,064,32,138,38,213,41*4E
2017-12-01 17:12:30 1512166350.841418: $GPZDA,221231.00,01,12,2017,00,00*61
2017-12-01 17:12:30 1512166350.841601: $GPGGA,221231,3946.9611,N,08404.9800,W,1,12,0.80,309.49,M,-33.324,M,,*7B
2017-12-01 17:12:30 1512166350.841670: $GPRMC,221231,A,3946.9611,N,08404.9800,W,0.0000,0.000,011217,,*34
2017-12-01 17:12:30 1512166350.841731: $GPGSA,A,3,1,3,10,12,14,22,26,31,32,11,25,138,2.0,0.8,1.5*03
2017-12-01 17:12:31 1512166351.392283: $GPZDA,221232.00,01,12,2017,00,00*62
2017-12-01 17:12:31 1512166351.392450: $GPGGA,221232,3946.9614,N,08404.9792,W,1,12,0.80,308.81,M,-33.324,M,,*7C
2017-12-01 17:12:31 1512166351.392517: $GPRMC,221232,A,3946.9614,N,08404.9792,W,0.0000,0.000,011217,,*36
2017-12-01 17:12:31 1512166351.392578: $GPGSA,A,3,1,3,10,12,14,22,26,31,32,11,25,138,2.0,0.8,1.5*03
2017-12-01 17:12:32 1512166352.390325: $GPZDA,221233.00,01,12,2017,00,00*63
2017-12-01 17:12:32 1512166352.390495: $GPGGA,221233,3946.9613,N,08404.9791,W,1,12,0.80,307.40,M,-33.324,M,,*7B
2017-12-01 17:12:32 1512166352.390562: $GPRMC,221233,A,3946.9613,N,08404.9791,W,0.0000,0.000,011217,,*33
2017-12-01 17:12:32 1512166352.390623: $GPGSA,A,3,1,3,10,12,14,22,26,31,32,11,25,138,2.0,0.8,1.5*03
2017-12-01 17:12:33 1512166353.724261: $GPGSV,3,1,12,01,20,280,13,03,16,316,12,10,28,154,10,12,11,036,09*75
2017-12-01 17:12:33 1512166353.724447: $GPGSV,3,2,12,14,70,019,14,22,35,306,13,26,20,178,11,31,74,256,14*78
2017-12-01 17:12:33 1512166353.724534: $GPGSV,3,3,12,32,59,070,14,11,01,265,07,25,38,064,09,138,38,213,14*41
2017-12-01 17:12:33 1512166353.837884: $GPZDA,221234.00,01,12,2017,00,00*64
2017-12-01 17:12:33 1512166353.838031: $GPGGA,221234,3946.9617,N,08404.9790,W,1,12,0.80,306.64,M,-33.324,M,,*7E
2017-12-01 17:12:33 1512166353.838097: $GPRMC,221234,A,3946.9617,N,08404.9790,W,0.2422,93.794,011217,,*07
2017-12-01 17:12:33 1512166353.838158: $GPGSA,A,3,1,3,10,12,14,22,26,31,32,11,25,138,2.0,0.8,1.5*03
2017-12-01 17:12:34 1512166354.390187: $GPZDA,221235.00,01,12,2017,00,00*65
2017-12-01 17:12:34 1512166354.390360: $GPGGA,221235,3946.9620,N,08404.9790,W,1,12,0.80,305.87,M,-33.324,M,,*75
2017-12-01 17:12:34 1512166354.390427: $GPRMC,221235,A,3946.9620,N,08404.9790,W,0.3006,62.539,011217,,*0A
2017-12-01 17:12:34 1512166354.390488: $GPGSA,A,3,1,3,10,12,14,22,26,31,32,11,25,138,2.0,0.8,1.5*03
2017-12-01 17:12:35 1512166355.388384: $GPZDA,221236.00,01,12,2017,00,00*66
2017-12-01 17:12:35 1512166355.388550: $GPGGA,221236,3946.9616,N,08404.9783,W,1,12,0.80,305.31,M,-33.324,M,,*7C
2017-12-01 17:12:35 1512166355.388616: $GPRMC,221236,A,3946.9616,N,08404.9783,W,0.2422,93.794,011217,,*06
2017-12-01 17:12:35 1512166355.388677: $GPGSA,A,3,1,3,10,12,14,22,26,31,32,11,25,138,2.0,0.8,1.5*03
2017-12-01 17:12:36 1512166356.726405: $GPGSV,3,1,12,01,20,280,43,03,16,316,41,10,28,154,36,12,11,036,27*7E
2017-12-01 17:12:36 1512166356.726585: $GPGSV,3,2,12,14,70,019,45,22,35,306,43,26,20,178,37,31,74,256,47*7B
2017-12-01 17:12:36 1512166356.726652: $GPGSV,3,3,12,32,59,070,48,11,01,265,26,25,38,064,32,138,38,213,38*4D
2017-12-01 17:12:36 1512166356.840222: $GPZDA,221237.00,01,12,2017,00,00*67
2017-12-01 17:12:36 1512166356.840407: $GPGGA,221237,3946.9619,N,08404.9782,W,1,12,0.80,304.55,M,-33.324,M,,*70
2017-12-01 17:12:36 1512166356.840474: $GPRMC,221237,A,3946.9619,N,08404.9782,W,0.0000,0.000,011217,,*3F
2017-12-01 17:12:36 1512166356.840535: $GPGSA,A,3,1,3,10,12,14,22,26,31,32,11,25,138,2.0,0.8,1.5*03
2017-12-01 17:12:37 1512166357.392207: $GPZDA,221238.00,01,12,2017,00,00*68
2017-12-01 17:12:37 1512166357.392375: $GPGGA,221238,3946.9623,N,08404.9781,W,1,12,0.80,303.78,M,-33.324,M,,*7D
2017-12-01 17:12:37 1512166357.392491: $GPRMC,221238,A,3946.9623,N,08404.9781,W,0.0000,0.000,011217,,*3A
2017-12-01 17:12:37 1512166357.392553: $GPGSA,A,3,1,3,10,12,14,22,26,31,32,11,25,138,2.0,0.8,1.5*03
2017-12-01 17:12:38 1512166358.389905: $GPZDA,221239.00,01,12,2017,00,00*69
2017-12-01 17:12:38 1512166358.390073: $GPGGA,221239,3946.9622,N,08404.9774,W,1,12,0.80,303.86,M,-33.324,M,,*76
2017-12-01 17:12:38 1512166358.390140: $GPRMC,221239,A,3946.9622,N,08404.9774,W,0.0000,0.000,011217,,*30
2017-12-01 17:12:38 1512166358.390202: $GPGSA,A,3,1,3,10,12,14,22,26,31,32,11,25,138,2.0,0.8,1.5*03
2017-12-01 17:12:39 1512166359.726931: $GPGSV,3,1,12,01,20,280,43,03,16,316,41,10,28,154,37,12,11,036,25*7D
2017-12-01 17:12:39 1512166359.727113: $GPGSV,3,2,12,14,70,019,45,22,35,306,43,26,20,178,37,31,74,256,47*7B
2017-12-01 17:12:39 1512166359.727183: $GPGSV,3,3,12,32,59,070,49,11,01,265,26,25,38,064,33,138,38,213,40*42
2017-12-01 17:12:39 1512166359.840623: $GPZDA,221240.00,01,12,2017,00,00*67
2017-12-01 17:12:39 1512166359.840764: $GPGGA,221240,3946.9633,N,08404.9748,W,2,12,1.20,296.83,M,-33.324,M,,*77
2017-12-01 17:12:39 1512166359.840830: $GPRMC,221240,A,3946.9633,N,08404.9748,W,0.0000,0.000,011217,,*31
2017-12-01 17:12:39 1512166359.840889: $GPGSA,A,3,1,3,10,12,14,22,26,31,32,11,25,138,2.0,1.2,1.5*08
2017-12-01 17:12:40 1512166360.391113: $GPZDA,221241.00,01,12,2017,00,00*66
2017-12-01 17:12:40 1512166360.391287: $GPGGA,221241,3946.9633,N,08404.9748,W,2,12,1.00,296.83,M,-33.324,M,,*74
2017-12-01 17:12:40 1512166360.391410: $GPRMC,221241,A,3946.9633,N,08404.9748,W,0.0000,0.000,011217,,*30
2017-12-01 17:12:40 1512166360.391481: $GPGSA,A,3,1,3,10,12,14,22,26,31,32,11,25,138,2.0,1.0,1.5*0A
2017-12-01 17:12:41 1512166361.393390: $GPZDA,221242.00,01,12,2017,00,00*65
2017-12-01 17:12:41 1512166361.393564: $GPGGA,221242,3946.9633,N,08404.9748,W,2,12,0.80,296.83,M,-33.324,M,,*7E
2017-12-01 17:12:41 1512166361.393632: $GPRMC,221242,A,3946.9633,N,08404.9748,W,0.0000,0.000,011217,,*33
2017-12-01 17:12:41 1512166361.393694: $GPGSA,A,3,1,3,10,12,14,22,26,31,32,11,25,138,2.0,0.8,1.5*03
2017-12-01 17:12:41 1512166361.393752: $GPGBS,221242,2.67,M,3.86,M,8.82,M*37
2017-12-01 17:12:42 1512166362.728880: $GPGSV,3,1,12,01,20,280,43,03,16,316,41,10,28,154,37,12,11,036,18*73
2017-12-01 17:12:42 1512166362.729061: $GPGSV,3,2,12,14,70,019,45,22,35,306,44,26,20,178,37,31,74,256,47*7C
2017-12-01 17:12:42 1512166362.729129: $GPGSV,3,3,12,32,59,070,49,11,01,265,26,25,38,064,33,138,38,213,41*43
2017-12-01 17:12:42 1512166362.842708: $GPZDA,221243.00,01,12,2017,00,00*64
2017-12-01 17:12:42 1512166362.842874: $GPGGA,221243,3946.9633,N,08404.9748,W,2,12,0.80,296.83,M,-33.324,M,,*7F
2017-12-01 17:12:42 1512166362.842941: $GPRMC,221243,A,3946.9633,N,08404.9748,W,0.0000,0.000,011217,,*32
2017-12-01 17:12:42 1512166362.843002: $GPGSA,A,3,1,3,10,12,14,22,26,31,32,11,25,138,2.0,0.8,1.5*03
2017-12-01 17:12:43 1512166363.467934: $GPZDA,221244.00,01,12,2017,00,00*63
2017-12-01 17:12:43 1512166363.468109: $GPGGA,221244,3946.9633,N,08404.9748,W,2,12,0.80,296.83,M,-33.324,M,,*78
2017-12-01 17:12:43 1512166363.468176: $GPRMC,221244,A,3946.9633,N,08404.9748,W,0.0000,0.000,011217,,*35
2017-12-01 17:12:43 1512166363.468237: $GPGSA,A,3,1,3,10,12,14,22,26,31,32,11,25,138,2.0,0.8,1.5*03
