2017-12-29 14:48:45 1514576925.931915: {"class":"VERSION","release":"3.16","rev":"3.16-4","proto_major":3,"proto_minor":11}
2017-12-29 14:48:45 1514576925.932257: {"class":"DEVICES","devices":[{"class":"DEVICE","path":"/dev/ttyUSB0","driver":"SiRF","subtype":"9\u0006GSD4e_4.1.2-P1_RPATCH.05-F-GPS-4R-1510281 11/03/2015 307","activated":"2017-12-29T19:48:45.560Z","flags":1,"native":1,"bps":4800,"parity":"N","stopbits":1,"cycle":1.00}]}
2017-12-29 14:48:45 1514576925.932368: {"class":"WATCH","enable":true,"json":false,"nmea":true,"raw":0,"scaled":false,"timing":false,"split24":false,"pps":false}
2017-12-29 14:48:46 1514576926.346023: $GPZDA,194847.00,29,12,2017,00,00*6D
2017-12-29 14:48:46 1514576926.346189: $GPGGA,194847,3946.9604,N,08404.9764,W,2,12,0.80,307.84,M,-33.324,M,,*78
2017-12-29 14:48:46 1514576926.346255: $GPRMC,194847,A,3946.9604,N,08404.9764,W,0.0000,0.000,291217,,*31
2017-12-29 14:48:46 1514576926.346315: $GPGSA,A,3,1,10,11,12,14,18,22,25,31,32,26,138,1.7,0.8,1.3*3B
2017-12-29 14:48:47 1514576927.682699: $GPGSV,3,1,12,01,22,295,36,10,41,151,49,11,06,277,39,12,19,045,44*7A
2017-12-29 14:48:47 1514576927.682882: $GPGSV,3,2,12,14,68,340,42,18,12,145,36,22,24,312,40,25,41,082,51*70
2017-12-29 14:48:47 1514576927.682953: $GPGSV,3,3,12,31,64,231,47,32,66,045,50,26,08,181,22,138,38,213,43*4E
2017-12-29 14:48:47 1514576927.796278: $GPZDA,194848.00,29,12,2017,00,00*62
2017-12-29 14:48:47 1514576927.796398: $GPGGA,194848,3946.9604,N,08404.9764,W,2,12,0.80,307.84,M,-33.324,M,,*77
2017-12-29 14:48:47 1514576927.796465: $GPRMC,194848,A,3946.9604,N,08404.9764,W,0.0000,0.000,291217,,*3E
2017-12-29 14:48:47 1514576927.796528: $GPGSA,A,3,1,10,11,12,14,18,22,25,31,32,26,138,1.7,0.8,1.3*3B
2017-12-29 14:48:48 1514576928.347194: $GPZDA,194849.00,29,12,2017,00,00*63
2017-12-29 14:48:48 1514576928.347360: $GPGGA,194849,3946.9604,N,08404.9764,W,2,12,0.80,307.84,M,-33.324,M,,*76
2017-12-29 14:48:48 1514576928.347430: $GPRMC,194849,A,3946.9604,N,08404.9764,W,0.0000,0.000,291217,,*3F
2017-12-29 14:48:48 1514576928.347493: $GPGSA,A,3,1,10,11,12,14,18,22,25,31,32,26,138,1.7,0.8,1.3*3B
2017-12-29 14:48:49 1514576929.347961: $GPZDA,194850.00,29,12,2017,00,00*6B
2017-12-29 14:48:49 1514576929.348129: $GPGGA,194850,3946.9594,N,08404.9762,W,2,12,0.80,302.35,M,-33.324,M,,*7D
2017-12-29 14:48:49 1514576929.348198: $GPRMC,194850,A,3946.9594,N,08404.9762,W,0.1867,180.000,291217,,*3A
2017-12-29 14:48:49 1514576929.348262: $GPGSA,A,3,1,10,11,12,14,18,22,25,31,32,26,138,1.7,0.8,1.3*3B
2017-12-29 14:48:49 1514576929.348323: $GPGBS,194850,2.73,M,2.59,M,7.72,M*35
2017-12-29 14:48:50 1514576930.679166: $GPGSV,3,1,12,01,22,295,35,10,41,151,49,11,06,277,38,12,19,045,44*78
2017-12-29 14:48:50 1514576930.679325: $GPGSV,3,2,12,14,68,340,42,18,12,145,36,22,24,312,40,25,41,082,51*70
2017-12-29 14:48:50 1514576930.679394: $GPGSV,3,3,12,31,64,231,47,32,66,045,50,26,08,181,23,138,38,213,43*4F
2017-12-29 14:48:50 1514576930.792764: $GPZDA,194851.00,29,12,2017,00,00*6A
2017-12-29 14:48:50 1514576930.792900: $GPGGA,194851,3946.9594,N,08404.9762,W,2,12,0.80,302.35,M,-33.324,M,,*7C
2017-12-29 14:48:50 1514576930.792967: $GPRMC,194851,A,3946.9594,N,08404.9762,W,0.0000,0.000,291217,,*3A
2017-12-29 14:48:50 1514576930.793030: $GPGSA,A,3,1,10,11,12,14,18,22,25,31,32,26,138,1.7,0.8,1.3*3B
2017-12-29 14:48:51 1514576931.351217: $GPZDA,194852.00,29,12,2017,00,00*69
2017-12-29 14:48:51 1514576931.351387: $GPGGA,194852,3946.9594,N,08404.9762,W,2,12,0.80,302.35,M,-33.324,M,,*7F
2017-12-29 14:48:51 1514576931.351455: $GPRMC,194852,A,3946.9594,N,08404.9762,W,0.0000,0.000,291217,,*39
2017-12-29 14:48:51 1514576931.351519: $GPGSA,A,3,1,10,11,12,14,18,22,25,31,32,26,138,1.7,0.8,1.3*3B
2017-12-29 14:48:52 1514576932.350773: $GPZDA,194853.00,29,12,2017,00,00*68
2017-12-29 14:48:52 1514576932.350934: $GPGGA,194853,3946.9594,N,08404.9762,W,2,12,0.80,302.35,M,-33.324,M,,*7E
2017-12-29 14:48:52 1514576932.351003: $GPRMC,194853,A,3946.9594,N,08404.9762,W,0.0000,0.000,291217,,*38
2017-12-29 14:48:52 1514576932.351130: $GPGSA,A,3,1,10,11,12,14,18,22,25,31,32,26,138,1.7,0.8,1.3*3B
2017-12-29 14:48:53 1514576933.684995: $GPGSV,3,1,12,01,22,295,36,10,41,151,50,11,06,277,38,12,19,045,44*73
2017-12-29 14:48:53 1514576933.685163: $GPGSV,3,2,12,14,68,340,42,18,12,145,36,22,24,312,40,25,41,082,51*70
2017-12-29 14:48:53 1514576933.685230: $GPGSV,3,3,12,31,64,231,47,32,66,045,50,26,08,181,24,138,38,213,43*48
2017-12-29 14:48:53 1514576933.798605: $GPZDA,194854.00,29,12,2017,00,00*6F
2017-12-29 14:48:53 1514576933.798740: $GPGGA,194854,3946.9594,N,08404.9762,W,2,12,0.80,302.35,M,-33.324,M,,*79
2017-12-29 14:48:53 1514576933.798805: $GPRMC,194854,A,3946.9594,N,08404.9762,W,0.0000,0.000,291217,,*3F
2017-12-29 14:48:53 1514576933.798865: $GPGSA,A,3,1,10,11,12,14,18,22,25,31,32,26,138,1.7,0.8,1.3*3B
2017-12-29 14:48:54 1514576934.343306: $GPZDA,194855.00,29,12,2017,00,00*6E
2017-12-29 14:48:54 1514576934.343463: $GPGGA,194855,3946.9594,N,08404.9762,W,2,12,0.80,302.35,M,-33.324,M,,*78
2017-12-29 14:48:54 1514576934.343528: $GPRMC,194855,A,3946.9594,N,08404.9762,W,0.0000,0.000,291217,,*3E
2017-12-29 14:48:54 1514576934.343589: $GPGSA,A,3,1,10,11,12,14,18,22,25,31,32,26,138,1.7,0.8,1.3*3B
2017-12-29 14:48:55 1514576935.352467: $GPZDA,194856.00,29,12,2017,00,00*6D
2017-12-29 14:48:55 1514576935.352619: $GPGGA,194856,3946.9594,N,08404.9762,W,2,12,0.80,302.35,M,-33.324,M,,*7B
2017-12-29 14:48:55 1514576935.352685: $GPRMC,194856,A,3946.9594,N,08404.9762,W,0.0000,0.000,291217,,*3D
2017-12-29 14:48:55 1514576935.352745: $GPGSA,A,3,1,10,11,12,14,18,22,25,31,32,26,138,1.7,0.8,1.3*3B
