2018-01-11 21:05:53 1515722753.084790: {"class":"VERSION","release":"3.16","rev":"3.16-4","proto_major":3,"proto_minor":11}
2018-01-11 21:05:53 1515722753.085138: {"class":"DEVICES","devices":[{"class":"DEVICE","path":"/dev/ttyUSB0","driver":"SiRF","subtype":"9\u0006GSD4e_4.1.2-P1_RPATCH.05-F-GPS-4R-1510281 11/03/2015 307","activated":"2018-01-12T02:05:52.523Z","flags":1,"native":1,"bps":4800,"parity":"N","stopbits":1,"cycle":1.00}]}
2018-01-11 21:05:53 1515722753.085250: {"class":"WATCH","enable":true,"json":false,"nmea":true,"raw":0,"scaled":false,"timing":false,"split24":false,"pps":false}
2018-01-11 21:05:53 1515722753.719679: $GPGSV,3,1,12,01,18,151,45,07,81,306,45,08,64,054,47,09,26,210,42*7E
2018-01-11 21:05:53 1515722753.719835: $GPGSV,3,2,12,11,43,156,45,27,25,045,48,28,31,277,37,30,52,309,43*77
2018-01-11 21:05:53 1515722753.719900: $GPGSV,3,3,12,13,03,328,31,23,06,181,22,16,06,076,17,138,38,213,45*49
2018-01-11 21:05:53 1515722753.833267: $GPZDA,020554.00,12,01,2018,00,00*69
2018-01-11 21:05:53 1515722753.833385: $GPGGA,020554,3946.9597,N,08404.9833,W,2,12,1.00,292.29,M,-33.324,M,,*7E
2018-01-11 21:05:53 1515722753.833448: $GPRMC,020554,A,3946.9597,N,08404.9833,W,0.0000,0.000,120118,,*31
2018-01-11 21:05:53 1515722753.833508: $GPGSA,A,3,1,7,8,9,11,27,28,30,13,23,16,138,4.0,1.0,3.5*04
2018-01-11 21:05:54 1515722754.458681: $GPZDA,020555.00,12,01,2018,00,00*68
2018-01-11 21:05:54 1515722754.458839: $GPGGA,020555,3946.9597,N,08404.9833,W,2,12,1.00,292.29,M,-33.324,M,,*7F
2018-01-11 21:05:54 1515722754.458904: $GPRMC,020555,A,3946.9597,N,08404.9833,W,0.0000,0.000,120118,,*30
2018-01-11 21:05:54 1515722754.458963: $GPGSA,A,3,1,7,8,9,11,27,28,30,13,23,16,138,4.0,1.0,3.5*04
2018-01-11 21:05:55 1515722755.382054: $GPZDA,020556.00,12,01,2018,00,00*6B
2018-01-11 21:05:55 1515722755.382215: $GPGGA,020556,3946.9597,N,08404.9833,W,2,12,1.00,292.29,M,-33.324,M,,*7C
2018-01-11 21:05:55 1515722755.382279: $GPRMC,020556,A,3946.9597,N,08404.9833,W,0.0000,0.000,120118,,*33
2018-01-11 21:05:55 1515722755.382340: $GPGSA,A,3,1,7,8,9,11,27,28,30,13,23,16,138,4.0,1.0,3.5*04
2018-01-11 21:05:56 1515722756.716278: $GPGSV,3,1,12,01,18,151,45,07,81,306,44,08,64,054,47,09,26,210,42*7F
2018-01-11 21:05:56 1515722756.716448: $GPGSV,3,2,12,11,43,156,45,27,25,045,48,28,31,277,37,30,52,309,43*77
2018-01-11 21:05:56 1515722756.716514: $GPGSV,3,3,12,13,03,328,31,23,06,181,18,16,06,076,17,138,38,213,45*40
2018-01-11 21:05:56 1515722756.829938: $GPZDA,020557.00,12,01,2018,00,00*6A
2018-01-11 21:05:56 1515722756.830098: $GPGGA,020557,3946.9597,N,08404.9833,W,2,12,1.00,292.29,M,-33.324,M,,*7D
2018-01-11 21:05:56 1515722756.830164: $GPRMC,020557,A,3946.9597,N,08404.9833,W,0.0000,0.000,120118,,*32
2018-01-11 21:05:56 1515722756.830224: $GPGSA,A,3,1,7,8,9,11,27,28,30,13,23,16,138,4.0,1.0,3.5*04
2018-01-11 21:05:57 1515722757.384555: $GPZDA,020558.00,12,01,2018,00,00*65
2018-01-11 21:05:57 1515722757.384716: $GPGGA,020558,3946.9597,N,08404.9833,W,2,12,1.00,292.29,M,-33.324,M,,*72
2018-01-11 21:05:57 1515722757.384782: $GPRMC,020558,A,3946.9597,N,08404.9833,W,0.0000,0.000,120118,,*3D
2018-01-11 21:05:57 1515722757.384843: $GPGSA,A,3,1,7,8,9,11,27,28,30,13,23,16,138,4.0,1.0,3.5*04
2018-01-11 21:05:58 1515722758.383936: $GPZDA,020559.00,12,01,2018,00,00*64
2018-01-11 21:05:58 1515722758.384099: $GPGGA,020559,3946.9597,N,08404.9826,W,2,12,1.00,292.37,M,-33.324,M,,*78
2018-01-11 21:05:58 1515722758.384165: $GPRMC,020559,A,3946.9597,N,08404.9826,W,0.0000,0.000,120118,,*38
2018-01-11 21:05:58 1515722758.384225: $GPGSA,A,3,1,7,8,9,11,27,28,30,13,23,16,138,4.0,1.0,3.5*04
2018-01-11 21:05:59 1515722759.717900: $GPGSV,3,1,12,01,18,151,44,07,81,306,44,08,64,054,47,09,26,210,42*7E
2018-01-11 21:05:59 1515722759.718066: $GPGSV,3,2,12,11,43,156,45,27,25,045,48,28,31,277,38,30,52,309,43*78
2018-01-11 21:05:59 1515722759.718132: $GPGSV,3,3,12,13,03,328,30,23,06,181,18,16,06,076,16,138,38,213,45*40
2018-01-11 21:05:59 1515722759.831542: $GPZDA,020600.00,12,01,2018,00,00*6B
2018-01-11 21:05:59 1515722759.831674: $GPGGA,020600,3946.9597,N,08404.9826,W,2,12,1.00,292.37,M,-33.324,M,,*77
2018-01-11 21:05:59 1515722759.831793: $GPRMC,020600,A,3946.9597,N,08404.9826,W,0.0000,0.000,120118,,*37
2018-01-11 21:05:59 1515722759.831856: $GPGSA,A,3,1,7,8,9,11,27,28,30,13,23,16,138,4.0,1.0,3.5*04
