2017-11-15 18:30:34 1510788634.074053: {"class":"VERSION","release":"3.17","rev":"3.17","proto_major":3,"proto_minor":12}
2017-11-15 18:30:34 1510788634.074557: {"class":"DEVICES","devices":[{"class":"DEVICE","path":"/dev/ttyUSB0","driver":"SiRF","subtype":"9\u0006GSD4e_4.1.2-P1_RPATCH.05-F-GPS-4R-1510281 11/03/2015 307","activated":"2017-11-15T23:30:33.917Z","flags":1,"native":1,"bps":4800,"parity":"N","stopbits":1,"cycle":1.00}]}
2017-11-15 18:30:34 1510788634.074686: {"class":"WATCH","enable":true,"json":false,"nmea":true,"raw":0,"scaled":false,"timing":false,"split24":false,"pps":false}
2017-11-15 18:30:34 1510788634.327129: $GPZDA,233033.00,15,11,2017,00,00*64
2017-11-15 18:30:34 1510788634.327287: $GPGGA,233033,3946.9577,N,08404.9472,W,1,06,1.80,285.74,M,-33.324,M,,*7D
2017-11-15 18:30:34 1510788634.327347: $GPRMC,233033,A,3946.9577,N,08404.9472,W,1.6300,346.404,151117,,*3E
2017-11-15 18:30:34 1510788634.327403: $GPGSA,A,3,14,26,31,32,1,22,,,,,,,3.4,1.8,2.9*04
2017-11-15 18:30:35 1510788635.327737: $GPZDA,233034.00,15,11,2017,00,00*63
2017-11-15 18:30:35 1510788635.327900: $GPGGA,233034,3946.9581,N,08404.9472,W,1,06,1.80,286.38,M,-33.324,M,,*78
2017-11-15 18:30:35 1510788635.327961: $GPRMC,233034,A,3946.9581,N,08404.9472,W,2.0322,342.834,151117,,*3E
2017-11-15 18:30:35 1510788635.328018: $GPGSA,A,3,14,26,31,32,1,22,,,,,,,3.4,1.8,2.9*04
2017-11-15 18:30:36 1510788636.661742: $GPGSV,3,1,10,25,36,057,00,14,69,037,13,10,22,156,00,26,25,178,14*7D
2017-11-15 18:30:36 1510788636.661909: $GPGSV,3,2,10,31,77,276,24,32,56,078,16,01,19,276,17,22,39,303,09*7B
2017-11-15 18:30:36 1510788636.661970: $GPGSV,3,3,10,03,20,315,00,12,07,033,00*7A
2017-11-15 18:30:36 1510788636.775329: $GPZDA,233035.00,15,11,2017,00,00*62
2017-11-15 18:30:36 1510788636.775474: $GPGGA,233035,3946.9589,N,08404.9479,W,1,06,1.80,286.17,M,-33.324,M,,*77
2017-11-15 18:30:36 1510788636.775534: $GPRMC,233035,A,3946.9589,N,08404.9479,W,1.9730,325.827,151117,,*32
2017-11-15 18:30:36 1510788636.775590: $GPGSA,A,3,14,26,31,32,1,22,,,,,,,3.4,1.8,2.9*04
2017-11-15 18:30:37 1510788637.361240: $GPZDA,233036.00,15,11,2017,00,00*61
2017-11-15 18:30:37 1510788637.361400: $GPGGA,233036,3946.9593,N,08404.9478,W,1,06,1.80,285.41,M,-33.324,M,,*7E
2017-11-15 18:30:37 1510788637.361459: $GPRMC,233036,A,3946.9593,N,08404.9478,W,1.9730,325.827,151117,,*3B
2017-11-15 18:30:37 1510788637.361515: $GPGSA,A,3,14,26,31,32,1,22,,,,,,,3.4,1.8,2.9*04
2017-11-15 18:30:38 1510788638.327111: $GPZDA,233037.00,15,11,2017,00,00*60
2017-11-15 18:30:38 1510788638.327263: $GPGGA,233037,3946.9597,N,08404.9485,W,1,06,1.80,285.97,M,-33.324,M,,*72
2017-11-15 18:30:38 1510788638.327323: $GPRMC,233037,A,3946.9597,N,08404.9485,W,1.8340,331.804,151117,,*3A
2017-11-15 18:30:38 1510788638.327378: $GPGSA,A,3,14,26,31,32,1,22,,,,,,,3.4,1.8,2.9*04
2017-11-15 18:30:39 1510788639.697621: $GPGSV,3,1,10,25,36,057,00,14,69,037,14,10,22,156,00,26,25,178,14*7A
2017-11-15 18:30:39 1510788639.697802: $GPGSV,3,2,10,31,77,276,24,32,56,078,16,01,19,276,17,22,39,303,08*7A
2017-11-15 18:30:39 1510788639.697861: $GPGSV,3,3,10,03,20,315,00,12,07,033,00*7A
2017-11-15 18:30:39 1510788639.811219: $GPZDA,233038.00,15,11,2017,00,00*6F
2017-11-15 18:30:39 1510788639.811377: $GPGGA,233038,3946.9605,N,08404.9484,W,1,06,1.80,285.84,M,-33.324,M,,*76
2017-11-15 18:30:39 1510788639.811436: $GPRMC,233038,A,3946.9605,N,08404.9484,W,1.6300,346.404,151117,,*3A
2017-11-15 18:30:39 1510788639.811492: $GPGSA,A,3,14,26,31,32,1,22,,,,,,,3.4,1.8,2.9*04
2017-11-15 18:30:40 1510788640.360886: $GPZDA,233039.00,15,11,2017,00,00*6E
2017-11-15 18:30:40 1510788640.361080: $GPGGA,233039,3946.9608,N,08404.9483,W,1,06,1.80,285.08,M,-33.324,M,,*79
2017-11-15 18:30:40 1510788640.362564: $GPRMC,233039,A,3946.9608,N,08404.9483,W,1.6300,346.404,151117,,*31
2017-11-15 18:30:40 1510788640.362634: $GPGSA,A,3,14,26,31,32,1,22,,,,,,,3.4,1.8,2.9*04
2017-11-15 18:30:41 1510788641.327697: $GPZDA,233040.00,15,11,2017,00,00*60
2017-11-15 18:30:41 1510788641.327861: $GPGGA,233040,3946.9612,N,08404.9483,W,1,06,1.80,285.72,M,-33.324,M,,*71
2017-11-15 18:30:41 1510788641.327974: $GPRMC,233040,A,3946.9612,N,08404.9483,W,1.8340,331.804,151117,,*32
2017-11-15 18:30:41 1510788641.328032: $GPGSA,A,3,14,26,31,32,1,22,,,,,,,3.4,1.8,2.9*04
2017-11-15 18:30:42 1510788642.700609: $GPGSV,3,1,10,25,36,057,00,14,69,037,15,10,22,156,00,26,25,178,14*7B
2017-11-15 18:30:42 1510788642.700778: $GPGSV,3,2,10,31,77,276,24,32,56,078,15,01,19,276,17,22,39,303,07*76
2017-11-15 18:30:42 1510788642.700838: $GPGSV,3,3,10,03,20,315,00,12,07,033,00*7A
2017-11-15 18:30:42 1510788642.814247: $GPZDA,233041.00,15,11,2017,00,00*61
2017-11-15 18:30:42 1510788642.814386: $GPGGA,233041,3946.9620,N,08404.9490,W,1,06,1.80,285.52,M,-33.324,M,,*71
2017-11-15 18:30:42 1510788642.814446: $GPRMC,233041,A,3946.9620,N,08404.9490,W,1.9730,325.827,151117,,*36
2017-11-15 18:30:42 1510788642.814501: $GPGSA,A,3,14,26,31,32,1,22,,,,,,,3.4,1.8,2.9*04
2017-11-15 18:30:43 1510788643.362580: $GPZDA,233042.00,15,11,2017,00,00*62
2017-11-15 18:30:43 1510788643.362741: $GPGGA,233042,3946.9621,N,08404.9497,W,1,06,1.80,285.44,M,-33.324,M,,*73
2017-11-15 18:30:43 1510788643.362802: $GPRMC,233042,A,3946.9621,N,08404.9497,W,1.7178,318.722,151117,,*33
2017-11-15 18:30:43 1510788643.362858: $GPGSA,A,3,14,26,31,32,1,22,,,,,,,3.4,1.8,2.9*04
