2017-12-29 11:52:53 1514566373.047397: {"class":"VERSION","release":"3.16","rev":"3.16-4","proto_major":3,"proto_minor":11}
2017-12-29 11:52:53 1514566373.047730: {"class":"DEVICES","devices":[{"class":"DEVICE","path":"/dev/ttyUSB0","driver":"SiRF","subtype":"9\u0006GSD4e_4.1.2-P1_RPATCH.05-F-GPS-4R-1510281 11/03/2015 307","activated":"2017-12-29T16:52:52.752Z","flags":1,"native":1,"bps":4800,"parity":"N","stopbits":1,"cycle":1.00}]}
2017-12-29 11:52:53 1514566373.047849: {"class":"WATCH","enable":true,"json":false,"nmea":true,"raw":0,"scaled":false,"timing":false,"split24":false,"pps":false}
2017-12-29 11:52:53 1514566373.444165: $GPZDA,165254.00,29,12,2017,00,00*6B
2017-12-29 11:52:53 1514566373.444322: $GPGGA,165254,3946.9620,N,08404.9875,W,2,11,0.80,319.93,M,-33.324,M,,*7D
2017-12-29 11:52:53 1514566373.444389: $GPRMC,165254,A,3946.9620,N,08404.9875,W,0.0000,0.000,291217,,*3E
2017-12-29 11:52:53 1514566373.444453: $GPGSA,A,3,8,10,14,15,18,20,21,24,27,32,138,,1.7,0.8,1.3*36
2017-12-29 11:52:54 1514566374.779618: $GPGSV,3,1,11,08,08,309,31,10,55,313,46,14,16,241,33,15,23,058,45*7D
2017-12-29 11:52:54 1514566374.779799: $GPGSV,3,2,11,18,77,037,45,20,22,108,49,21,46,183,47,24,53,082,50*75
2017-12-29 11:52:54 1514566374.779869: $GPGSV,3,3,11,27,14,274,38,32,34,250,38,138,38,213,44*78
2017-12-29 11:52:54 1514566374.893319: $GPZDA,165255.00,29,12,2017,00,00*6A
2017-12-29 11:52:54 1514566374.893504: $GPGGA,165255,3946.9620,N,08404.9875,W,2,11,0.80,319.93,M,-33.324,M,,*7C
2017-12-29 11:52:54 1514566374.893571: $GPRMC,165255,A,3946.9620,N,08404.9875,W,0.0000,0.000,291217,,*3F
2017-12-29 11:52:54 1514566374.893633: $GPGSA,A,3,8,10,14,15,18,20,21,24,27,32,138,,1.7,0.8,1.3*36
2017-12-29 11:52:55 1514566375.442798: $GPZDA,165256.00,29,12,2017,00,00*69
2017-12-29 11:52:55 1514566375.442949: $GPGGA,165256,3946.9624,N,08404.9874,W,2,11,0.80,319.17,M,-33.324,M,,*76
2017-12-29 11:52:55 1514566375.443033: $GPRMC,165256,A,3946.9624,N,08404.9874,W,0.0000,0.000,291217,,*39
2017-12-29 11:52:55 1514566375.443095: $GPGSA,A,3,8,10,14,15,18,20,21,24,27,32,138,,1.7,0.8,1.3*36
2017-12-29 11:52:56 1514566376.442613: $GPZDA,165257.00,29,12,2017,00,00*68
2017-12-29 11:52:56 1514566376.442781: $GPGGA,165257,3946.9624,N,08404.9874,W,2,11,0.80,319.17,M,-33.324,M,,*77
2017-12-29 11:52:56 1514566376.442848: $GPRMC,165257,A,3946.9624,N,08404.9874,W,0.0000,0.000,291217,,*38
2017-12-29 11:52:56 1514566376.442908: $GPGSA,A,3,8,10,14,15,18,20,21,24,27,32,138,,1.7,0.8,1.3*36
2017-12-29 11:52:57 1514566377.779174: $GPGSV,3,1,11,08,08,309,33,10,55,313,45,14,16,241,33,15,23,058,45*7C
2017-12-29 11:52:57 1514566377.779328: $GPGSV,3,2,11,18,77,037,44,20,22,108,49,21,46,183,47,24,53,082,50*74
2017-12-29 11:52:57 1514566377.779397: $GPGSV,3,3,11,27,14,274,38,32,34,250,38,138,38,213,46*7A
2017-12-29 11:52:57 1514566377.892912: $GPZDA,165258.00,29,12,2017,00,00*67
2017-12-29 11:52:57 1514566377.893083: $GPGGA,165258,3946.9624,N,08404.9874,W,2,11,0.80,319.17,M,-33.324,M,,*78
2017-12-29 11:52:57 1514566377.893149: $GPRMC,165258,A,3946.9624,N,08404.9874,W,0.0000,0.000,291217,,*37
2017-12-29 11:52:57 1514566377.893210: $GPGSA,A,3,8,10,14,15,18,20,21,24,27,32,138,,1.7,0.8,1.3*36
2017-12-29 11:52:58 1514566378.518288: $GPZDA,165259.00,29,12,2017,00,00*66
2017-12-29 11:52:58 1514566378.518465: $GPGGA,165259,3946.9624,N,08404.9874,W,2,11,0.80,319.17,M,-33.324,M,,*79
2017-12-29 11:52:58 1514566378.518530: $GPRMC,165259,A,3946.9624,N,08404.9874,W,0.0000,0.000,291217,,*36
2017-12-29 11:52:58 1514566378.518592: $GPGSA,A,3,8,10,14,15,18,20,21,24,27,32,138,,1.7,0.8,1.3*36
2017-12-29 11:52:59 1514566379.441821: $GPZDA,165300.00,29,12,2017,00,00*6B
2017-12-29 11:52:59 1514566379.441996: $GPGGA,165300,3946.9624,N,08404.9874,W,2,11,0.80,319.17,M,-33.324,M,,*74
2017-12-29 11:52:59 1514566379.442063: $GPRMC,165300,A,3946.9624,N,08404.9874,W,0.0000,0.000,291217,,*3B
2017-12-29 11:52:59 1514566379.442124: $GPGSA,A,3,8,10,14,15,18,20,21,24,27,32,138,,1.7,0.8,1.3*36
2017-12-29 11:53:00 1514566380.778373: $GPGSV,3,1,11,08,08,309,34,10,55,313,46,14,16,241,32,15,23,058,45*79
2017-12-29 11:53:00 1514566380.778616: $GPGSV,3,2,11,18,77,037,45,20,22,108,49,21,46,183,46,24,53,082,50*74
2017-12-29 11:53:00 1514566380.778689: $GPGSV,3,3,11,27,14,274,39,32,34,250,38,138,38,213,45*78
2017-12-29 11:53:00 1514566380.892041: $GPZDA,165301.00,29,12,2017,00,00*6A
2017-12-29 11:53:00 1514566380.892208: $GPGGA,165301,3946.9624,N,08404.9874,W,2,11,0.80,319.17,M,-33.324,M,,*75
2017-12-29 11:53:00 1514566380.892274: $GPRMC,165301,A,3946.9624,N,08404.9874,W,0.0000,0.000,291217,,*3A
2017-12-29 11:53:00 1514566380.892339: $GPGSA,A,3,8,10,14,15,18,20,21,24,27,32,138,,1.7,0.8,1.3*36
2017-12-29 11:53:01 1514566381.444095: $GPZDA,165302.00,29,12,2017,00,00*69
2017-12-29 11:53:01 1514566381.444263: $GPGGA,165302,3946.9624,N,08404.9874,W,2,11,0.80,319.17,M,-33.324,M,,*76
2017-12-29 11:53:01 1514566381.444333: $GPRMC,165302,A,3946.9624,N,08404.9874,W,0.0000,0.000,291217,,*39
2017-12-29 11:53:01 1514566381.444394: $GPGSA,A,3,8,10,14,15,18,20,21,24,27,32,138,,1.7,0.8,1.3*36
2017-12-29 11:53:02 1514566382.443431: $GPZDA,165303.00,29,12,2017,00,00*68
2017-12-29 11:53:02 1514566382.443612: $GPGGA,165303,3946.9624,N,08404.9874,W,2,11,0.80,319.17,M,-33.324,M,,*77
2017-12-29 11:53:02 1514566382.443686: $GPRMC,165303,A,3946.9624,N,08404.9874,W,0.0000,0.000,291217,,*38
2017-12-29 11:53:02 1514566382.443750: $GPGSA,A,3,8,10,14,15,18,20,21,24,27,32,138,,1.7,0.8,1.3*36
2017-12-29 11:53:03 1514566383.777435: $GPGSV,3,1,11,08,08,309,34,10,55,313,46,14,16,241,33,15,23,058,45*78
2017-12-29 11:53:03 1514566383.777659: $GPGSV,3,2,11,18,77,037,45,20,22,108,49,21,46,183,46,24,53,082,50*74
2017-12-29 11:53:03 1514566383.777730: $GPGSV,3,3,11,27,14,274,39,32,34,250,38,138,38,213,45*78
2017-12-29 11:53:03 1514566383.890985: $GPZDA,165304.00,29,12,2017,00,00*6F
2017-12-29 11:53:03 1514566383.891209: $GPGGA,165304,3946.9624,N,08404.9874,W,2,11,0.80,319.17,M,-33.324,M,,*70
2017-12-29 11:53:03 1514566383.891277: $GPRMC,165304,A,3946.9624,N,08404.9874,W,0.0000,0.000,291217,,*3F
2017-12-29 11:53:03 1514566383.891342: $GPGSA,A,3,8,10,14,15,18,20,21,24,27,32,138,,1.7,0.8,1.3*36
2017-12-29 11:53:04 1514566384.436942: $GPZDA,165305.00,29,12,2017,00,00*6E
2017-12-29 11:53:04 1514566384.437115: $GPGGA,165305,3946.9624,N,08404.9874,W,2,11,0.80,319.17,M,-33.324,M,,*71
2017-12-29 11:53:04 1514566384.437181: $GPRMC,165305,A,3946.9624,N,08404.9874,W,0.0000,0.000,291217,,*3E
2017-12-29 11:53:04 1514566384.437244: $GPGSA,A,3,8,10,14,15,18,20,21,24,27,32,138,,1.7,0.8,1.3*36
2017-12-29 11:53:05 1514566385.437571: $GPZDA,165306.00,29,12,2017,00,00*6D
2017-12-29 11:53:05 1514566385.437745: $GPGGA,165306,3946.9624,N,08404.9874,W,2,11,0.80,319.17,M,-33.324,M,,*72
2017-12-29 11:53:05 1514566385.437811: $GPRMC,165306,A,3946.9624,N,08404.9874,W,0.0000,0.000,291217,,*3D
2017-12-29 11:53:05 1514566385.437873: $GPGSA,A,3,8,10,14,15,18,20,21,24,27,32,138,,1.7,0.8,1.3*36
2017-12-29 11:53:06 1514566386.796956: $GPGSV,3,1,11,08,08,309,35,10,55,313,46,14,16,241,32,15,23,058,45*78
2017-12-29 11:53:06 1514566386.797135: $GPGSV,3,2,11,18,77,037,45,20,22,108,49,21,46,183,46,24,53,082,50*74
2017-12-29 11:53:06 1514566386.797201: $GPGSV,3,3,11,27,14,274,38,32,34,250,38,138,38,213,44*78
2017-12-29 11:53:06 1514566386.910707: $GPZDA,165307.00,29,12,2017,00,00*6C
2017-12-29 11:53:06 1514566386.910879: $GPGGA,165307,3946.9624,N,08404.9874,W,2,11,0.80,319.17,M,-33.324,M,,*73
2017-12-29 11:53:06 1514566386.910948: $GPRMC,165307,A,3946.9624,N,08404.9874,W,0.0000,0.000,291217,,*3C
2017-12-29 11:53:06 1514566386.911011: $GPGSA,A,3,8,10,14,15,18,20,21,24,27,32,138,,1.7,0.8,1.3*36
2017-12-29 11:53:07 1514566387.457419: $GPZDA,165308.00,29,12,2017,00,00*63
2017-12-29 11:53:07 1514566387.457602: $GPGGA,165308,3946.9620,N,08404.9875,W,2,11,0.80,319.93,M,-33.324,M,,*75
2017-12-29 11:53:07 1514566387.457688: $GPRMC,165308,A,3946.9620,N,08404.9875,W,0.0000,0.000,291217,,*36
2017-12-29 11:53:07 1514566387.457753: $GPGSA,A,3,8,10,14,15,18,20,21,24,27,32,138,,1.7,0.8,1.3*36
