2017-12-01 13:13:34 1512152014.027054: {"class":"VERSION","release":"3.16","rev":"3.16-4","proto_major":3,"proto_minor":11}
2017-12-01 13:13:34 1512152014.027586: {"class":"DEVICES","devices":[{"class":"DEVICE","path":"/dev/ttyUSB0","driver":"SiRF","subtype":"9\u0006GSD4e_4.1.2-P1_RPATCH.05-F-GPS-4R-1510281 11/03/2015 307","activated":"2017-12-01T18:13:34.013Z","flags":1,"native":1,"bps":4800,"parity":"N","stopbits":1,"cycle":1.00}]}
2017-12-01 13:13:34 1512152014.027717: {"class":"WATCH","enable":true,"json":false,"nmea":true,"raw":0,"scaled":false,"timing":false,"split24":false,"pps":false}
2017-12-01 13:13:35 1512152015.057297: $GPZDA,181335.35,01,12,2017,00,00*6B
2017-12-01 13:13:35 1512152015.057493: $GPGGA,181335,3946.9564,N,08404.9836,W,1,11,1.00,304.23,M,-33.324,M,,*78
2017-12-01 13:13:35 1512152015.057568: $GPRMC,181335,A,3946.9564,N,08404.9836,W,0.0000,0.000,011217,,*3C
2017-12-01 13:13:35 1512152015.057634: $GPGSA,A,3,8,10,15,18,20,21,24,27,32,14,138,,2.0,1.0,1.5*3D
2017-12-01 13:13:35 1512152015.057697: $GPGBS,181335,10.70,M,15.43,M,35.28,M*0A
2017-12-01 13:13:36 1512152016.199830: $GPGSV,3,1,12,08,06,321,31,10,42,301,45,15,36,052,46,18,72,339,43*76
2017-12-01 13:13:36 1512152016.200034: $GPGSV,3,2,12,20,33,096,47,21,62,189,45,24,51,108,45,27,19,288,35*70
2017-12-01 13:13:36 1512152016.200102: $GPGSV,3,3,12,32,22,238,41,13,07,049,00,14,05,232,00,138,38,213,00*4D
2017-12-01 13:13:36 1512152016.313470: $GPZDA,181336.00,01,12,2017,00,00*6E
2017-12-01 13:13:36 1512152016.313628: $GPGGA,181336,3946.9561,N,08404.9837,W,1,09,1.00,304.99,M,-33.324,M,,*77
2017-12-01 13:13:36 1512152016.313711: $GPRMC,181336,A,3946.9561,N,08404.9837,W,0.0000,0.000,011217,,*3B
2017-12-01 13:13:36 1512152016.313774: $GPGSA,A,3,8,10,15,18,20,21,24,27,32,,,,2.0,1.0,1.5*02
2017-12-01 13:13:36 1512152016.764344: $GPZDA,181337.00,01,12,2017,00,00*6F
2017-12-01 13:13:36 1512152016.764538: $GPGGA,181337,3946.9562,N,08404.9837,W,1,09,1.00,306.39,M,-33.324,M,,*7D
2017-12-01 13:13:36 1512152016.764605: $GPRMC,181337,A,3946.9562,N,08404.9837,W,0.0000,0.000,011217,,*39
2017-12-01 13:13:36 1512152016.764668: $GPGSA,A,3,8,10,15,18,20,21,24,27,32,,,,2.0,1.0,1.5*02
2017-12-01 13:13:37 1512152017.367447: $GPZDA,181338.00,01,12,2017,00,00*60
2017-12-01 13:13:37 1512152017.367629: $GPGGA,181338,3946.9562,N,08404.9837,W,1,09,1.00,306.39,M,-33.324,M,,*72
2017-12-01 13:13:37 1512152017.367696: $GPRMC,181338,A,3946.9562,N,08404.9837,W,0.0000,0.000,011217,,*36
2017-12-01 13:13:37 1512152017.367759: $GPGSA,A,3,8,10,15,18,20,21,24,27,32,,,,2.0,1.0,1.5*02
2017-12-01 13:13:38 1512152018.705206: $GPGSV,3,1,12,08,06,321,34,10,42,301,44,15,36,052,47,18,72,339,43*73
2017-12-01 13:13:38 1512152018.705365: $GPGSV,3,2,12,20,33,096,46,21,62,189,45,24,51,108,46,27,19,288,38*7F
2017-12-01 13:13:38 1512152018.705431: $GPGSV,3,3,12,32,22,238,41,13,07,049,00,14,05,232,00,138,38,213,46*4F
2017-12-01 13:13:38 1512152018.818515: $GPZDA,181339.00,01,12,2017,00,00*61
2017-12-01 13:13:38 1512152018.818648: $GPGGA,181339,3946.9566,N,08404.9837,W,1,10,1.00,307.03,M,-33.324,M,,*77
2017-12-01 13:13:38 1512152018.818714: $GPRMC,181339,A,3946.9566,N,08404.9837,W,0.0000,0.000,011217,,*33
2017-12-01 13:13:38 1512152018.818776: $GPGSA,A,3,8,10,15,18,20,21,24,27,32,138,,,2.0,1.0,1.5*38
2017-12-01 13:13:39 1512152019.369855: $GPZDA,181340.00,01,12,2017,00,00*6F
2017-12-01 13:13:39 1512152019.370049: $GPGGA,181340,3946.9566,N,08404.9837,W,1,10,1.00,307.03,M,-33.324,M,,*79
2017-12-01 13:13:39 1512152019.370122: $GPRMC,181340,A,3946.9566,N,08404.9837,W,0.0000,0.000,011217,,*3D
2017-12-01 13:13:39 1512152019.370185: $GPGSA,A,3,8,10,15,18,20,21,24,27,32,138,,,2.0,1.0,1.5*38
2017-12-01 13:13:40 1512152020.368951: $GPZDA,181341.00,01,12,2017,00,00*6E
2017-12-01 13:13:40 1512152020.369136: $GPGGA,181341,3946.9566,N,08404.9837,W,1,10,1.00,307.03,M,-33.324,M,,*78
2017-12-01 13:13:40 1512152020.369204: $GPRMC,181341,A,3946.9566,N,08404.9837,W,0.0000,0.000,011217,,*3C
2017-12-01 13:13:40 1512152020.369267: $GPGSA,A,3,8,10,15,18,20,21,24,27,32,138,,,2.0,1.0,1.5*38
2017-12-01 13:13:40 1512152020.369326: $GPGBS,181341,10.70,M,15.43,M,35.28,M*09
2017-12-01 13:13:41 1512152021.705939: $GPGSV,3,1,12,08,06,321,35,10,42,301,44,15,36,052,47,18,72,339,43*72
2017-12-01 13:13:41 1512152021.706143: $GPGSV,3,2,12,20,33,096,46,21,62,189,45,24,51,108,46,27,19,288,38*7F
2017-12-01 13:13:41 1512152021.706216: $GPGSV,3,3,12,32,22,238,41,14,05,232,06,13,07,049,00,138,38,213,46*49
2017-12-01 13:13:41 1512152021.819443: $GPZDA,181342.00,01,12,2017,00,00*6D
2017-12-01 13:13:41 1512152021.819617: $GPGGA,181342,3946.9583,N,08404.9838,W,2,10,1.00,311.00,M,-33.324,M,,*78
2017-12-01 13:13:41 1512152021.819686: $GPRMC,181342,A,3946.9583,N,08404.9838,W,0.0000,0.000,011217,,*3B
2017-12-01 13:13:41 1512152021.819750: $GPGSA,A,3,8,10,15,18,20,21,24,27,32,138,,,2.0,1.0,1.5*38
2017-12-01 13:13:42 1512152022.368913: $GPZDA,181343.00,01,12,2017,00,00*6C
2017-12-01 13:13:42 1512152022.369104: $GPGGA,181343,3946.9583,N,08404.9838,W,2,10,1.00,311.00,M,-33.324,M,,*79
2017-12-01 13:13:42 1512152022.369193: $GPRMC,181343,A,3946.9583,N,08404.9838,W,0.0000,0.000,011217,,*3A
2017-12-01 13:13:42 1512152022.369260: $GPGSA,A,3,8,10,15,18,20,21,24,27,32,138,,,2.0,1.0,1.5*38
2017-12-01 13:13:43 1512152023.373418: $GPZDA,181344.00,01,12,2017,00,00*6B
2017-12-01 13:13:43 1512152023.373610: $GPGGA,181344,3946.9583,N,08404.9838,W,2,10,1.00,311.00,M,-33.324,M,,*7E
2017-12-01 13:13:43 1512152023.373680: $GPRMC,181344,A,3946.9583,N,08404.9838,W,0.0000,0.000,011217,,*3D
2017-12-01 13:13:43 1512152023.373746: $GPGSA,A,3,8,10,15,18,20,21,24,27,32,138,,,2.0,1.0,1.5*38
