2017-12-01 16:06:57 1512162417.654718: {"class":"VERSION","release":"3.16","rev":"3.16-4","proto_major":3,"proto_minor":11}
2017-12-01 16:06:57 1512162417.655199: {"class":"DEVICES","devices":[{"class":"DEVICE","path":"/dev/ttyUSB0","driver":"SiRF","subtype":"9\u0006GSD4e_4.1.2-P1_RPATCH.05-F-GPS-4R-1510281 11/03/2015 307","activated":"2017-12-01T21:06:57.281Z","flags":1,"native":1,"bps":4800,"parity":"N","stopbits":1,"cycle":1.00}]}
2017-12-01 16:06:57 1512162417.655372: {"class":"WATCH","enable":true,"json":false,"nmea":true,"raw":0,"scaled":false,"timing":false,"split24":false,"pps":false}
2017-12-01 16:06:57 1512162417.885963: $GPZDA,210658.55,01,12,2017,00,00*68
2017-12-01 16:06:57 1512162417.886152: $GPGGA,210658,3946.9598,N,08404.9766,W,1,12,1.00,310.78,M,-33.324,M,,*7C
2017-12-01 16:06:57 1512162417.886219: $GPRMC,210658,A,3946.9598,N,08404.9766,W,0.4207,219.347,011217,,*3B
2017-12-01 16:06:57 1512162417.886281: $GPGSA,A,3,1,10,12,14,18,25,31,32,11,22,24,138,2.0,1.0,1.5*32
2017-12-01 16:06:57 1512162417.886339: $GPGBS,210658,10.70,M,15.43,M,35.28,M*0F
2017-12-01 16:06:58 1512162418.967401: $GPZDA,210659.23,01,12,2017,00,00*68
2017-12-01 16:06:58 1512162418.967584: $GPGGA,210659,3946.9598,N,08404.9766,W,1,12,1.00,310.78,M,-33.324,M,,*7D
2017-12-01 16:06:58 1512162418.967652: $GPRMC,210659,A,3946.9598,N,08404.9766,W,0.0000,0.000,011217,,*31
2017-12-01 16:06:58 1512162418.967713: $GPGSA,A,3,1,10,12,14,18,25,31,32,11,22,24,138,2.0,1.0,1.5*32
2017-12-01 16:07:00 1512162420.110185: $GPGSV,3,1,12,10,59,141,48,11,10,292,42,12,25,060,44,14,61,307,45*76
2017-12-01 16:07:00 1512162420.110362: $GPGSV,3,2,12,18,28,139,44,22,10,312,39,25,36,103,48,31,45,217,49*7E
2017-12-01 16:07:00 1512162420.110428: $GPGSV,3,3,12,32,70,358,48,01,18,310,35,24,06,046,21,138,38,213,11*42
2017-12-01 16:07:00 1512162420.223635: $GPZDA,210700.00,01,12,2017,00,00*64
2017-12-01 16:07:00 1512162420.223789: $GPGGA,210700,3946.9595,N,08404.9767,W,1,12,0.80,311.54,M,-33.324,M,,*7A
2017-12-01 16:07:00 1512162420.223856: $GPRMC,210700,A,3946.9595,N,08404.9767,W,0.0000,0.000,011217,,*30
2017-12-01 16:07:00 1512162420.223917: $GPGSA,A,3,10,11,12,14,18,22,25,31,32,1,24,138,2.0,0.8,1.5*3B
2017-12-01 16:07:00 1512162420.674367: $GPZDA,210701.00,01,12,2017,00,00*65
2017-12-01 16:07:00 1512162420.674538: $GPGGA,210701,3946.9595,N,08404.9767,W,1,12,0.80,311.54,M,-33.324,M,,*7B
2017-12-01 16:07:00 1512162420.674606: $GPRMC,210701,A,3946.9595,N,08404.9767,W,0.0000,0.000,011217,,*31
2017-12-01 16:07:00 1512162420.674667: $GPGSA,A,3,10,11,12,14,18,22,25,31,32,1,24,138,2.0,0.8,1.5*3B
2017-12-01 16:07:01 1512162421.376745: $GPZDA,210702.00,01,12,2017,00,00*66
2017-12-01 16:07:01 1512162421.376903: $GPGGA,210702,3946.9595,N,08404.9774,W,1,12,0.80,311.46,M,-33.324,M,,*79
2017-12-01 16:07:01 1512162421.376969: $GPRMC,210702,A,3946.9595,N,08404.9774,W,0.0000,0.000,011217,,*30
2017-12-01 16:07:01 1512162421.377029: $GPGSA,A,3,10,11,12,14,18,22,25,31,32,1,24,138,2.0,0.8,1.5*3B
2017-12-01 16:07:02 1512162422.712958: $GPGSV,3,1,12,10,59,141,48,11,10,292,41,12,25,060,44,14,61,307,45*75
2017-12-01 16:07:02 1512162422.713201: $GPGSV,3,2,12,18,28,139,44,22,10,312,39,25,36,103,49,31,45,217,50*77
2017-12-01 16:07:02 1512162422.713290: $GPGSV,3,3,12,32,70,358,48,01,18,310,35,24,06,046,32,138,38,213,46*42
2017-12-01 16:07:02 1512162422.826604: $GPZDA,210703.00,01,12,2017,00,00*67
2017-12-01 16:07:02 1512162422.826771: $GPGGA,210703,3946.9591,N,08404.9774,W,1,12,0.80,310.82,M,-33.324,M,,*75
2017-12-01 16:07:02 1512162422.826838: $GPRMC,210703,A,3946.9591,N,08404.9774,W,0.0000,0.000,011217,,*35
2017-12-01 16:07:02 1512162422.826899: $GPGSA,A,3,10,11,12,14,18,22,25,31,32,1,24,138,2.0,0.8,1.5*3B
2017-12-01 16:07:03 1512162423.377460: $GPZDA,210704.00,01,12,2017,00,00*60
2017-12-01 16:07:03 1512162423.377630: $GPGGA,210704,3946.9591,N,08404.9774,W,1,12,0.80,310.82,M,-33.324,M,,*72
2017-12-01 16:07:03 1512162423.377697: $GPRMC,210704,A,3946.9591,N,08404.9774,W,0.0000,0.000,011217,,*32
2017-12-01 16:07:03 1512162423.377757: $GPGSA,A,3,10,11,12,14,18,22,25,31,32,1,24,138,2.0,0.8,1.5*3B
2017-12-01 16:07:04 1512162424.376714: $GPZDA,210705.00,01,12,2017,00,00*61
2017-12-01 16:07:04 1512162424.376891: $GPGGA,210705,3946.9591,N,08404.9781,W,1,12,0.80,310.74,M,-33.324,M,,*70
2017-12-01 16:07:04 1512162424.376959: $GPRMC,210705,A,3946.9591,N,08404.9781,W,0.0000,0.000,011217,,*39
2017-12-01 16:07:04 1512162424.377021: $GPGSA,A,3,10,11,12,14,18,22,25,31,32,1,24,138,2.0,0.8,1.5*3B
2017-12-01 16:07:04 1512162424.377080: $GPGBS,210705,10.70,M,15.43,M,35.28,M*06
2017-12-01 16:07:05 1512162425.711134: $GPGSV,3,1,12,10,59,141,48,11,10,292,41,12,25,060,44,14,61,307,44*74
2017-12-01 16:07:05 1512162425.711313: $GPGSV,3,2,12,18,28,139,43,22,10,312,39,25,36,103,48,31,45,217,49*79
2017-12-01 16:07:05 1512162425.711436: $GPGSV,3,3,12,32,70,358,47,01,18,310,34,24,06,046,32,138,38,213,47*4D
2017-12-01 16:07:05 1512162425.824851: $GPZDA,210706.00,01,12,2017,00,00*62
2017-12-01 16:07:05 1512162425.825025: $GPGGA,210706,3946.9591,N,08404.9781,W,1,12,0.80,310.74,M,-33.324,M,,*73
2017-12-01 16:07:05 1512162425.825091: $GPRMC,210706,A,3946.9591,N,08404.9781,W,0.0000,0.000,011217,,*3A
2017-12-01 16:07:05 1512162425.825152: $GPGSA,A,3,10,11,12,14,18,22,25,31,32,1,24,138,2.0,0.8,1.5*3B
2017-12-01 16:07:06 1512162426.376683: $GPZDA,210707.00,01,12,2017,00,00*63
2017-12-01 16:07:06 1512162426.376854: $GPGGA,210707,3946.9592,N,08404.9788,W,1,12,0.80,310.66,M,-33.324,M,,*7B
2017-12-01 16:07:06 1512162426.376921: $GPRMC,210707,A,3946.9592,N,08404.9788,W,0.0000,0.000,011217,,*31
2017-12-01 16:07:06 1512162426.376982: $GPGSA,A,3,10,11,12,14,18,22,25,31,32,1,24,138,2.0,0.8,1.5*3B
2017-12-01 16:07:07 1512162427.378321: $GPZDA,210708.00,01,12,2017,00,00*6C
2017-12-01 16:07:07 1512162427.378490: $GPGGA,210708,3946.9587,N,08404.9788,W,1,12,0.80,310.02,M,-33.324,M,,*72
2017-12-01 16:07:07 1512162427.378556: $GPRMC,210708,A,3946.9587,N,08404.9788,W,0.0000,0.000,011217,,*3A
2017-12-01 16:07:07 1512162427.378618: $GPGSA,A,3,10,11,12,14,18,22,25,31,32,1,24,138,2.0,0.8,1.5*3B
2017-12-01 16:07:08 1512162428.712705: $GPGSV,3,1,12,10,59,141,48,11,10,292,41,12,25,060,44,14,61,307,44*74
2017-12-01 16:07:08 1512162428.712886: $GPGSV,3,2,12,18,28,139,43,22,10,312,39,25,36,103,48,31,45,217,49*79
2017-12-01 16:07:08 1512162428.712954: $GPGSV,3,3,12,32,70,358,48,01,18,310,34,24,06,046,32,138,38,213,45*40
2017-12-01 16:07:08 1512162428.826084: $GPZDA,210709.00,01,12,2017,00,00*6D
2017-12-01 16:07:08 1512162428.826256: $GPGGA,210709,3946.9587,N,08404.9788,W,1,12,0.80,310.02,M,-33.324,M,,*73
2017-12-01 16:07:08 1512162428.826322: $GPRMC,210709,A,3946.9587,N,08404.9788,W,0.0000,0.000,011217,,*3B
2017-12-01 16:07:08 1512162428.826382: $GPGSA,A,3,10,11,12,14,18,22,25,31,32,1,24,138,2.0,0.8,1.5*3B
2017-12-01 16:07:09 1512162429.376967: $GPZDA,210710.00,01,12,2017,00,00*65
2017-12-01 16:07:09 1512162429.377139: $GPGGA,210710,3946.9588,N,08404.9795,W,1,12,0.80,309.95,M,-33.324,M,,*7E
2017-12-01 16:07:09 1512162429.377206: $GPRMC,210710,A,3946.9588,N,08404.9795,W,0.0000,0.000,011217,,*30
2017-12-01 16:07:09 1512162429.377267: $GPGSA,A,3,10,11,12,14,18,22,25,31,32,1,24,138,2.0,0.8,1.5*3B
2017-12-01 16:07:10 1512162430.376593: $GPZDA,210711.00,01,12,2017,00,00*64
2017-12-01 16:07:10 1512162430.376768: $GPGGA,210711,3946.9588,N,08404.9815,W,2,12,1.20,308.30,M,-33.324,M,,*7E
2017-12-01 16:07:10 1512162430.376835: $GPRMC,210711,A,3946.9588,N,08404.9815,W,0.0000,0.000,011217,,*36
2017-12-01 16:07:10 1512162430.376895: $GPGSA,A,3,10,11,12,14,18,22,25,31,32,1,24,138,2.0,1.2,1.5*30
2017-12-01 16:07:11 1512162431.714818: $GPGSV,3,1,12,10,59,141,48,11,10,292,41,12,25,060,44,14,61,307,44*74
2017-12-01 16:07:11 1512162431.715001: $GPGSV,3,2,12,18,28,139,43,22,10,312,39,25,36,103,48,31,45,217,49*79
2017-12-01 16:07:11 1512162431.715068: $GPGSV,3,3,12,32,70,358,48,01,18,310,35,24,06,046,32,138,38,213,46*42
2017-12-01 16:07:11 1512162431.828232: $GPZDA,210712.00,01,12,2017,00,00*67
2017-12-01 16:07:11 1512162431.828400: $GPGGA,210712,3946.9588,N,08404.9815,W,2,12,0.80,308.30,M,-33.324,M,,*76
2017-12-01 16:07:11 1512162431.828467: $GPRMC,210712,A,3946.9588,N,08404.9815,W,0.0000,0.000,011217,,*35
2017-12-01 16:07:11 1512162431.828576: $GPGSA,A,3,10,11,12,14,18,22,25,31,32,1,24,138,2.0,0.8,1.5*3B
2017-12-01 16:07:12 1512162432.453710: $GPZDA,210713.00,01,12,2017,00,00*66
2017-12-01 16:07:12 1512162432.453882: $GPGGA,210713,3946.9588,N,08404.9815,W,2,12,0.80,308.30,M,-33.324,M,,*77
2017-12-01 16:07:12 1512162432.453948: $GPRMC,210713,A,3946.9588,N,08404.9815,W,0.0000,0.000,011217,,*34
2017-12-01 16:07:12 1512162432.454009: $GPGSA,A,3,10,11,12,14,18,22,25,31,32,1,24,138,2.0,0.8,1.5*3B
2017-12-01 16:07:13 1512162433.379601: $GPZDA,210714.00,01,12,2017,00,00*61
2017-12-01 16:07:13 1512162433.379778: $GPGGA,210714,3946.9588,N,08404.9815,W,2,12,0.80,308.30,M,-33.324,M,,*70
2017-12-01 16:07:13 1512162433.379845: $GPRMC,210714,A,3946.9588,N,08404.9815,W,0.0000,0.000,011217,,*33
2017-12-01 16:07:13 1512162433.379906: $GPGSA,A,3,10,11,12,14,18,22,25,31,32,1,24,138,2.0,0.8,1.5*3B
2017-12-01 16:07:14 1512162434.714087: $GPGSV,3,1,12,10,59,141,48,11,10,292,40,12,25,060,44,14,61,307,44*75
2017-12-01 16:07:14 1512162434.714279: $GPGSV,3,2,12,18,28,139,43,22,10,312,40,25,36,103,48,31,45,217,50*7F
2017-12-01 16:07:14 1512162434.714345: $GPGSV,3,3,12,32,70,358,47,01,18,310,35,24,06,046,32,138,38,213,46*4D
2017-12-01 16:07:14 1512162434.827439: $GPZDA,210715.00,01,12,2017,00,00*60
2017-12-01 16:07:14 1512162434.827614: $GPGGA,210715,3946.9585,N,08404.9816,W,2,12,0.80,309.07,M,-33.324,M,,*7A
2017-12-01 16:07:14 1512162434.827681: $GPRMC,210715,A,3946.9585,N,08404.9816,W,0.0000,0.000,011217,,*3C
2017-12-01 16:07:14 1512162434.827742: $GPGSA,A,3,10,11,12,14,18,22,25,31,32,1,24,138,2.0,0.8,1.5*3B
2017-12-01 16:07:15 1512162435.379565: $GPZDA,210716.00,01,12,2017,00,00*63
2017-12-01 16:07:15 1512162435.379739: $GPGGA,210716,3946.9585,N,08404.9816,W,2,12,0.80,309.07,M,-33.324,M,,*79
2017-12-01 16:07:15 1512162435.379806: $GPRMC,210716,A,3946.9585,N,08404.9816,W,0.0000,0.000,011217,,*3F
2017-12-01 16:07:15 1512162435.379868: $GPGSA,A,3,10,11,12,14,18,22,25,31,32,1,24,138,2.0,0.8,1.5*3B
2017-12-01 16:07:16 1512162436.379098: $GPZDA,210717.00,01,12,2017,00,00*62
2017-12-01 16:07:16 1512162436.379270: $GPGGA,210717,3946.9585,N,08404.9816,W,2,12,0.80,309.07,M,-33.324,M,,*78
2017-12-01 16:07:16 1512162436.379336: $GPRMC,210717,A,3946.9585,N,08404.9816,W,0.0000,0.000,011217,,*3E
2017-12-01 16:07:16 1512162436.379398: $GPGSA,A,3,10,11,12,14,18,22,25,31,32,1,24,138,2.0,0.8,1.5*3B
2017-12-01 16:07:16 1512162436.379457: $GPGBS,210717,2.67,M,3.86,M,8.82,M*30
