2017-12-31 18:35:42 1514763342.271436: {"class":"VERSION","release":"3.16","rev":"3.16-4","proto_major":3,"proto_minor":11}
2017-12-31 18:35:42 1514763342.271776: {"class":"DEVICES","devices":[{"class":"DEVICE","path":"/dev/ttyUSB0","driver":"SiRF","activated":"2017-12-31T23:35:42.232Z","flags":1,"native":1,"bps":4800,"parity":"N","stopbits":1,"cycle":1.00}]}
2017-12-31 18:35:42 1514763342.271875: {"class":"WATCH","enable":true,"json":false,"nmea":true,"raw":0,"scaled":false,"timing":false,"split24":false,"pps":false}
2017-12-31 18:35:42 1514763342.680489: $GPGSV,3,1,12,22,13,207,23,23,64,294,40,09,31,312,41,03,23,225,39*75
2017-12-31 18:35:42 1514763342.680672: $GPGSV,3,2,12,16,84,043,41,08,10,177,28,14,05,138,21,31,20,084,40*71
2017-12-31 18:35:42 1514763342.680740: $GPGSV,3,3,12,27,33,147,40,07,06,280,33,26,50,046,47,135,22,240,44*43
2017-12-31 18:35:42 1514763342.793821: $GPZDA,233543.00,31,12,2017,00,00*63
2017-12-31 18:35:42 1514763342.793936: $GPGGA,233543,3946.9578,N,08404.9830,W,2,12,0.80,309.03,M,-33.324,M,,*78
2017-12-31 18:35:42 1514763342.794000: $GPRMC,233543,A,3946.9578,N,08404.9830,W,0.0000,0.000,311217,,*39
2017-12-31 18:35:42 1514763342.794060: $GPGSA,A,3,22,23,9,3,16,8,14,31,27,7,26,135,1.7,0.8,1.3*0C
2017-12-31 18:35:43 1514763343.352671: $GPZDA,233544.00,31,12,2017,00,00*64
2017-12-31 18:35:43 1514763343.352842: $GPGGA,233544,3946.9578,N,08404.9830,W,2,12,0.80,309.03,M,-33.324,M,,*7F
2017-12-31 18:35:43 1514763343.352907: $GPRMC,233544,A,3946.9578,N,08404.9830,W,0.0000,0.000,311217,,*3E
2017-12-31 18:35:43 1514763343.352968: $GPGSA,A,3,22,23,9,3,16,8,14,31,27,7,26,135,1.7,0.8,1.3*0C
2017-12-31 18:35:44 1514763344.391217: $GPZDA,233545.00,31,12,2017,00,00*65
2017-12-31 18:35:44 1514763344.391400: $GPGGA,233545,3946.9578,N,08404.9830,W,2,12,0.80,309.03,M,-33.324,M,,*7E
2017-12-31 18:35:44 1514763344.391466: $GPRMC,233545,A,3946.9578,N,08404.9830,W,0.0000,0.000,311217,,*3F
2017-12-31 18:35:44 1514763344.391527: $GPGSA,A,3,22,23,9,3,16,8,14,31,27,7,26,135,1.7,0.8,1.3*0C
2017-12-31 18:35:45 1514763345.688350: $GPGSV,3,1,12,22,13,207,24,23,64,294,39,09,31,312,41,03,23,225,39*7C
2017-12-31 18:35:45 1514763345.688523: $GPGSV,3,2,12,16,84,043,42,08,10,177,29,14,05,138,21,31,20,084,40*73
2017-12-31 18:35:45 1514763345.688591: $GPGSV,3,3,12,27,33,147,40,07,06,280,33,26,50,046,47,135,22,240,44*43
2017-12-31 18:35:45 1514763345.802057: $GPZDA,233546.00,31,12,2017,00,00*66
2017-12-31 18:35:45 1514763345.802184: $GPGGA,233546,3946.9578,N,08404.9830,W,2,12,0.80,309.03,M,-33.324,M,,*7D
2017-12-31 18:35:45 1514763345.802248: $GPRMC,233546,A,3946.9578,N,08404.9830,W,0.0000,0.000,311217,,*3C
2017-12-31 18:35:45 1514763345.802308: $GPGSA,A,3,22,23,9,3,16,8,14,31,27,7,26,135,1.7,0.8,1.3*0C
2017-12-31 18:35:46 1514763346.352701: $GPZDA,233547.00,31,12,2017,00,00*67
2017-12-31 18:35:46 1514763346.352882: $GPGGA,233547,3946.9578,N,08404.9830,W,2,12,0.80,309.03,M,-33.324,M,,*7C
2017-12-31 18:35:46 1514763346.352950: $GPRMC,233547,A,3946.9578,N,08404.9830,W,0.0000,0.000,311217,,*3D
2017-12-31 18:35:46 1514763346.353047: $GPGSA,A,3,22,23,9,3,16,8,14,31,27,7,26,135,1.7,0.8,1.3*0C
2017-12-31 18:35:47 1514763347.351401: $GPZDA,233548.00,31,12,2017,00,00*68
2017-12-31 18:35:47 1514763347.351569: $GPGGA,233548,3946.9578,N,08404.9830,W,2,12,0.80,309.03,M,-33.324,M,,*73
2017-12-31 18:35:47 1514763347.351636: $GPRMC,233548,A,3946.9578,N,08404.9830,W,0.0000,0.000,311217,,*32
2017-12-31 18:35:47 1514763347.351696: $GPGSA,A,3,22,23,9,3,16,8,14,31,27,7,26,135,1.7,0.8,1.3*0C
2017-12-31 18:35:48 1514763348.680476: $GPGSV,3,1,12,22,13,207,25,23,64,294,39,09,31,312,41,03,23,225,38*7C
2017-12-31 18:35:48 1514763348.680649: $GPGSV,3,2,12,16,84,043,42,08,10,177,29,14,05,138,20,31,20,084,40*72
2017-12-31 18:35:48 1514763348.680715: $GPGSV,3,3,12,27,33,147,40,07,06,280,33,26,50,046,47,135,22,240,44*43
2017-12-31 18:35:48 1514763348.793794: $GPZDA,233549.00,31,12,2017,00,00*69
2017-12-31 18:35:48 1514763348.793937: $GPGGA,233549,3946.9578,N,08404.9830,W,2,12,0.80,309.03,M,-33.324,M,,*72
2017-12-31 18:35:48 1514763348.794002: $GPRMC,233549,A,3946.9578,N,08404.9830,W,0.0000,0.000,311217,,*33
2017-12-31 18:35:48 1514763348.794118: $GPGSA,A,3,22,23,9,3,16,8,14,31,27,7,26,135,1.7,0.8,1.3*0C
2017-12-31 18:35:49 1514763349.345985: $GPZDA,233550.00,31,12,2017,00,00*61
2017-12-31 18:35:49 1514763349.346156: $GPGGA,233550,3946.9578,N,08404.9830,W,2,12,0.80,309.03,M,-33.324,M,,*7A
2017-12-31 18:35:49 1514763349.346223: $GPRMC,233550,A,3946.9578,N,08404.9830,W,0.0000,0.000,311217,,*3B
2017-12-31 18:35:49 1514763349.346284: $GPGSA,A,3,22,23,9,3,16,8,14,31,27,7,26,135,1.7,0.8,1.3*0C
2017-12-31 18:35:50 1514763350.352559: $GPZDA,233551.00,31,12,2017,00,00*60
2017-12-31 18:35:50 1514763350.352727: $GPGGA,233551,3946.9578,N,08404.9830,W,2,12,0.80,309.03,M,-33.324,M,,*7B
2017-12-31 18:35:50 1514763350.352792: $GPRMC,233551,A,3946.9578,N,08404.9830,W,0.0000,0.000,311217,,*3A
2017-12-31 18:35:50 1514763350.352853: $GPGSA,A,3,22,23,9,3,16,8,14,31,27,7,26,135,1.7,0.8,1.3*0C
2017-12-31 18:35:51 1514763351.688333: $GPGSV,3,1,12,22,13,207,25,23,64,294,40,09,31,312,42,03,23,225,39*70
2017-12-31 18:35:51 1514763351.688497: $GPGSV,3,2,12,16,84,043,42,08,10,177,29,14,05,138,15,31,20,084,40*74
2017-12-31 18:35:51 1514763351.688563: $GPGSV,3,3,12,27,33,147,40,07,06,280,33,26,50,046,47,135,22,240,43*44
2017-12-31 18:35:51 1514763351.800391: $GPZDA,233552.00,31,12,2017,00,00*63
2017-12-31 18:35:51 1514763351.800536: $GPGGA,233552,3946.9578,N,08404.9830,W,2,12,0.80,309.03,M,-33.324,M,,*78
2017-12-31 18:35:51 1514763351.800602: $GPRMC,233552,A,3946.9578,N,08404.9830,W,0.0000,0.000,311217,,*39
2017-12-31 18:35:51 1514763351.800662: $GPGSA,A,3,22,23,9,3,16,8,14,31,27,7,26,135,1.7,0.8,1.3*0C
