2017-12-31 18:44:46 1514763886.289118: {"class":"VERSION","release":"3.16","rev":"3.16-4","proto_major":3,"proto_minor":11}
2017-12-31 18:44:46 1514763886.289462: {"class":"DEVICES","devices":[{"class":"DEVICE","path":"/dev/ttyUSB0","driver":"SiRF","activated":"2017-12-31T23:44:46.279Z","flags":1,"native":1,"bps":4800,"parity":"N","stopbits":1,"cycle":1.00}]}
2017-12-31 18:44:46 1514763886.289561: {"class":"WATCH","enable":true,"json":false,"nmea":true,"raw":0,"scaled":false,"timing":false,"split24":false,"pps":false}
2017-12-31 18:44:46 1514763886.392716: $GPZDA,234447.00,31,12,2017,00,00*61
2017-12-31 18:44:46 1514763886.392866: $GPGGA,234447,3946.9581,N,08404.9856,W,2,11,0.80,305.14,M,-33.324,M,,*75
2017-12-31 18:44:46 1514763886.392931: $GPRMC,234447,A,3946.9581,N,08404.9856,W,0.0000,0.000,311217,,*3D
2017-12-31 18:44:46 1514763886.392990: $GPGSA,A,3,22,23,9,3,16,8,31,27,7,26,135,,1.7,0.8,1.3*09
2017-12-31 18:44:47 1514763887.353614: $GPZDA,234448.00,31,12,2017,00,00*6E
2017-12-31 18:44:47 1514763887.353788: $GPGGA,234448,3946.9581,N,08404.9856,W,2,11,0.80,305.14,M,-33.324,M,,*7A
2017-12-31 18:44:47 1514763887.353854: $GPRMC,234448,A,3946.9581,N,08404.9856,W,0.0000,0.000,311217,,*32
2017-12-31 18:44:47 1514763887.353914: $GPGSA,A,3,22,23,9,3,16,8,31,27,7,26,135,,1.7,0.8,1.3*09
2017-12-31 18:44:48 1514763888.687818: $GPGSV,3,1,12,22,10,205,00,23,66,288,41,09,33,310,40,03,20,222,40*70
2017-12-31 18:44:48 1514763888.687998: $GPGSV,3,2,12,16,80,037,42,08,13,177,30,14,02,139,00,31,18,087,34*71
2017-12-31 18:44:48 1514763888.688064: $GPGSV,3,3,12,27,36,145,43,07,08,282,40,26,47,046,45,135,22,240,44*4B
2017-12-31 18:44:48 1514763888.801154: $GPZDA,234449.00,31,12,2017,00,00*6F
2017-12-31 18:44:48 1514763888.801282: $GPGGA,234449,3946.9581,N,08404.9856,W,2,10,0.80,305.14,M,-33.324,M,,*7A
2017-12-31 18:44:48 1514763888.801348: $GPRMC,234449,A,3946.9581,N,08404.9856,W,0.0000,0.000,311217,,*33
2017-12-31 18:44:48 1514763888.801408: $GPGSA,A,3,23,9,3,16,8,31,27,7,26,135,,,1.7,0.8,1.3*09
2017-12-31 18:44:49 1514763889.354848: $GPZDA,234450.00,31,12,2017,00,00*67
2017-12-31 18:44:49 1514763889.355017: $GPGGA,234450,3946.9581,N,08404.9856,W,2,10,0.80,305.14,M,-33.324,M,,*72
2017-12-31 18:44:49 1514763889.355083: $GPRMC,234450,A,3946.9581,N,08404.9856,W,0.0000,0.000,311217,,*3B
2017-12-31 18:44:49 1514763889.355143: $GPGSA,A,3,23,9,3,16,8,31,27,7,26,135,,,1.7,0.8,1.3*09
2017-12-31 18:44:50 1514763890.347744: $GPZDA,234451.00,31,12,2017,00,00*66
2017-12-31 18:44:50 1514763890.347946: $GPGGA,234451,3946.9581,N,08404.9856,W,2,10,0.80,305.14,M,-33.324,M,,*73
2017-12-31 18:44:50 1514763890.348034: $GPRMC,234451,A,3946.9581,N,08404.9856,W,0.0000,0.000,311217,,*3A
2017-12-31 18:44:50 1514763890.348096: $GPGSA,A,3,23,9,3,16,8,31,27,7,26,135,,,1.7,0.8,1.3*09
2017-12-31 18:44:51 1514763891.690691: $GPGSV,3,1,12,22,10,205,26,23,66,288,42,09,33,310,40,03,20,222,40*77
2017-12-31 18:44:51 1514763891.690863: $GPGSV,3,2,12,16,80,037,42,08,13,177,30,14,02,139,00,31,18,087,34*71
2017-12-31 18:44:51 1514763891.690928: $GPGSV,3,3,12,27,36,145,42,07,08,282,41,26,47,046,45,135,22,240,43*4C
2017-12-31 18:44:51 1514763891.804351: $GPZDA,234452.00,31,12,2017,00,00*65
2017-12-31 18:44:51 1514763891.804475: $GPGGA,234452,3946.9581,N,08404.9856,W,2,11,0.80,305.14,M,-33.324,M,,*71
2017-12-31 18:44:51 1514763891.804538: $GPRMC,234452,A,3946.9581,N,08404.9856,W,0.0000,0.000,311217,,*39
2017-12-31 18:44:51 1514763891.804598: $GPGSA,A,3,22,23,9,3,16,8,31,27,7,26,135,,1.7,0.8,1.3*09
2017-12-31 18:44:52 1514763892.354022: $GPZDA,234453.00,31,12,2017,00,00*64
2017-12-31 18:44:52 1514763892.354188: $GPGGA,234453,3946.9581,N,08404.9856,W,2,11,0.80,305.14,M,-33.324,M,,*70
2017-12-31 18:44:52 1514763892.354253: $GPRMC,234453,A,3946.9581,N,08404.9856,W,0.0000,0.000,311217,,*38
2017-12-31 18:44:52 1514763892.354314: $GPGSA,A,3,22,23,9,3,16,8,31,27,7,26,135,,1.7,0.8,1.3*09
2017-12-31 18:44:53 1514763893.392376: $GPZDA,234454.00,31,12,2017,00,00*63
2017-12-31 18:44:53 1514763893.392544: $GPGGA,234454,3946.9581,N,08404.9856,W,2,11,0.80,305.14,M,-33.324,M,,*77
2017-12-31 18:44:53 1514763893.392667: $GPRMC,234454,A,3946.9581,N,08404.9856,W,0.0000,0.000,311217,,*3F
2017-12-31 18:44:53 1514763893.392730: $GPGSA,A,3,22,23,9,3,16,8,31,27,7,26,135,,1.7,0.8,1.3*09
2017-12-31 18:44:54 1514763894.695250: $GPGSV,3,1,12,22,10,205,08,23,66,288,41,09,33,310,39,03,20,222,39*78
2017-12-31 18:44:54 1514763894.695412: $GPGSV,3,2,12,16,80,037,43,08,13,177,30,14,02,139,00,31,18,087,34*70
2017-12-31 18:44:54 1514763894.695477: $GPGSV,3,3,12,27,36,145,42,07,08,282,42,26,47,046,45,135,22,240,44*48
2017-12-31 18:44:54 1514763894.808989: $GPZDA,234455.00,31,12,2017,00,00*62
2017-12-31 18:44:54 1514763894.809118: $GPGGA,234455,3946.9581,N,08404.9856,W,2,10,0.80,305.14,M,-33.324,M,,*77
2017-12-31 18:44:54 1514763894.809181: $GPRMC,234455,A,3946.9581,N,08404.9856,W,0.0000,0.000,311217,,*3E
2017-12-31 18:44:54 1514763894.809240: $GPGSA,A,3,23,9,3,16,8,31,27,7,26,135,,,1.7,0.8,1.3*09
2017-12-31 18:44:55 1514763895.434322: $GPZDA,234456.00,31,12,2017,00,00*61
2017-12-31 18:44:55 1514763895.434506: $GPGGA,234456,3946.9581,N,08404.9856,W,2,10,0.80,305.14,M,-33.324,M,,*74
2017-12-31 18:44:55 1514763895.438896: $GPRMC,234456,A,3946.9581,N,08404.9856,W,0.0000,0.000,311217,,*3D
2017-12-31 18:44:55 1514763895.438984: $GPGSA,A,3,23,9,3,16,8,31,27,7,26,135,,,1.7,0.8,1.3*09
