2017-12-14 11:48:20 1513270100.875956: {"class":"VERSION","release":"3.16","rev":"3.16-4","proto_major":3,"proto_minor":11}
2017-12-14 11:48:20 1513270100.876382: {"class":"DEVICES","devices":[{"class":"DEVICE","path":"/dev/ttyUSB0","driver":"SiRF","subtype":"9\u0006GSD4e_4.1.2-P1_RPATCH.05-F-GPS-4R-1510281 11/03/2015 307","activated":"2017-12-14T16:48:20.540Z","flags":1,"native":1,"bps":4800,"parity":"N","stopbits":1,"cycle":1.00}]}
2017-12-14 11:48:20 1513270100.876513: {"class":"WATCH","enable":true,"json":false,"nmea":true,"raw":0,"scaled":false,"timing":false,"split24":false,"pps":false}
2017-12-14 11:48:21 1513270101.567645: $GPGSV,3,1,11,10,31,291,22,15,50,049,14,18,62,313,22,20,44,082,06*79
2017-12-14 11:48:21 1513270101.567847: $GPGSV,3,2,11,24,42,129,21,13,19,045,00,32,10,231,11,27,19,303,00*77
2017-12-14 11:48:21 1513270101.567916: $GPGSV,3,3,11,21,76,211,00,29,01,186,00,138,38,213,00*7D
2017-12-14 11:48:21 1513270101.676377: $GPZDA,164822.00,14,12,2017,00,00*6F
2017-12-14 11:48:21 1513270101.676547: $GPGGA,164822,3946.9489,N,08404.9504,W,1,05,2.00,353.89,M,-33.324,M,,*74
2017-12-14 11:48:21 1513270101.676614: $GPRMC,164822,A,3946.9489,N,08404.9504,W,0.4207,39.347,141217,,*0B
2017-12-14 11:48:21 1513270101.676676: $GPGSA,A,3,10,15,18,24,32,,,,,,,,6.6,2.0,6.2*3F
2017-12-14 11:48:22 1513270102.225523: $GPZDA,164823.00,14,12,2017,00,00*6E
2017-12-14 11:48:22 1513270102.225696: $GPGGA,164823,3946.9488,N,08404.9497,W,1,05,2.00,353.97,M,-33.324,M,,*70
2017-12-14 11:48:22 1513270102.225764: $GPRMC,164823,A,3946.9488,N,08404.9497,W,0.8709,3.298,141217,,*3D
2017-12-14 11:48:22 1513270102.225827: $GPGSA,A,3,10,15,18,24,32,,,,,,,,6.6,2.0,6.2*3F
2017-12-14 11:48:23 1513270103.224979: $GPZDA,164824.00,14,12,2017,00,00*69
2017-12-14 11:48:23 1513270103.225175: $GPGGA,164824,3946.9496,N,08404.9496,W,1,05,2.00,353.84,M,-33.324,M,,*7B
2017-12-14 11:48:23 1513270103.225251: $GPRMC,164824,A,3946.9496,N,08404.9496,W,1.0567,17.448,141217,,*09
2017-12-14 11:48:23 1513270103.225319: $GPGSA,A,3,10,15,18,24,32,,,,,,,,6.6,2.0,6.2*3F
2017-12-14 11:48:24 1513270104.562382: $GPGSV,3,1,11,10,31,291,22,15,50,049,15,18,62,313,22,20,44,082,08*76
2017-12-14 11:48:24 1513270104.562540: $GPGSV,3,2,11,24,42,129,21,13,19,045,00,32,10,231,11,27,19,303,00*77
2017-12-14 11:48:24 1513270104.562606: $GPGSV,3,3,11,21,76,211,00,29,01,186,00,138,38,213,00*7D
2017-12-14 11:48:24 1513270104.674721: $GPZDA,164825.00,14,12,2017,00,00*68
2017-12-14 11:48:24 1513270104.674862: $GPGGA,164825,3946.9500,N,08404.9489,W,1,05,2.00,354.56,M,-33.324,M,,*72
2017-12-14 11:48:24 1513270104.674929: $GPRMC,164825,A,3946.9500,N,08404.9489,W,1.4115,34.536,141217,,*04
2017-12-14 11:48:24 1513270104.674990: $GPGSA,A,3,10,15,18,24,32,,,,,,,,6.6,2.0,6.2*3F
2017-12-14 11:48:25 1513270105.228585: $GPZDA,164826.00,14,12,2017,00,00*6B
2017-12-14 11:48:25 1513270105.228761: $GPGGA,164826,3946.9507,N,08404.9489,W,1,05,1.80,354.44,M,-33.324,M,,*7E
2017-12-14 11:48:25 1513270105.228834: $GPRMC,164826,A,3946.9507,N,08404.9489,W,1.2361,14.852,141217,,*0A
2017-12-14 11:48:25 1513270105.228896: $GPGSA,A,3,10,15,18,24,32,,,,,,,,6.6,1.8,6.2*34
2017-12-14 11:48:26 1513270106.243128: $GPZDA,164827.00,14,12,2017,00,00*6A
2017-12-14 11:48:26 1513270106.243299: $GPGGA,164827,3946.9507,N,08404.9482,W,1,05,1.80,354.52,M,-33.324,M,,*73
2017-12-14 11:48:26 1513270106.243365: $GPRMC,164827,A,3946.9507,N,08404.9482,W,0.8054,68.645,141217,,*0D
2017-12-14 11:48:26 1513270106.243428: $GPGSA,A,3,10,15,18,24,32,,,,,,,,6.6,1.8,6.2*34
2017-12-14 11:48:27 1513270107.561760: $GPGSV,3,1,11,10,31,291,22,15,50,049,17,18,62,313,22,20,44,082,08*74
2017-12-14 11:48:27 1513270107.561937: $GPGSV,3,2,11,24,42,129,21,13,19,045,00,32,10,231,12,27,19,303,00*74
2017-12-14 11:48:27 1513270107.562003: $GPGSV,3,3,11,21,76,211,00,29,01,186,00,138,38,213,00*7D
2017-12-14 11:48:27 1513270107.675465: $GPZDA,164828.00,14,12,2017,00,00*65
2017-12-14 11:48:27 1513270107.675640: $GPGGA,164828,3946.9514,N,08404.9474,W,1,06,2.00,354.47,M,-33.324,M,,*7B
2017-12-14 11:48:27 1513270107.675705: $GPRMC,164828,A,3946.9514,N,08404.9474,W,0.5951,58.684,141217,,*06
2017-12-14 11:48:27 1513270107.675819: $GPGSA,A,3,10,15,18,20,24,32,,,,,,,6.6,2.0,6.2*3D
2017-12-14 11:48:28 1513270108.242797: $GPZDA,164829.00,14,12,2017,00,00*64
2017-12-14 11:48:28 1513270108.242959: $GPGGA,164829,3946.9514,N,08404.9474,W,1,06,2.00,354.47,M,-33.324,M,,*7A
2017-12-14 11:48:28 1513270108.243028: $GPRMC,164829,A,3946.9514,N,08404.9474,W,0.7267,93.794,141217,,*0C
2017-12-14 11:48:28 1513270108.243090: $GPGSA,A,3,10,15,18,20,24,32,,,,,,,6.6,2.0,6.2*3D
2017-12-14 11:48:29 1513270109.225350: $GPZDA,164830.00,14,12,2017,00,00*6C
2017-12-14 11:48:29 1513270109.225525: $GPGGA,164830,3946.9518,N,08404.9467,W,1,06,2.00,355.19,M,-33.324,M,,*76
2017-12-14 11:48:29 1513270109.225593: $GPRMC,164830,A,3946.9518,N,08404.9467,W,0.4207,39.347,141217,,*05
2017-12-14 11:48:29 1513270109.225656: $GPGSA,A,3,10,15,18,20,24,32,,,,,,,6.6,2.0,6.2*3D
2017-12-14 11:48:30 1513270110.577822: $GPGSV,3,1,11,10,31,291,22,15,50,049,16,18,62,313,22,20,44,082,05*78
2017-12-14 11:48:30 1513270110.577997: $GPGSV,3,2,11,24,42,129,22,13,19,045,00,32,10,231,13,27,19,303,00*76
2017-12-14 11:48:30 1513270110.578064: $GPGSV,3,3,11,21,76,211,00,29,01,186,00,138,38,213,00*7D
2017-12-14 11:48:30 1513270110.691476: $GPZDA,164831.00,14,12,2017,00,00*6D
2017-12-14 11:48:30 1513270110.691638: $GPGGA,164831,3946.9518,N,08404.9467,W,1,05,2.00,355.19,M,-33.324,M,,*74
2017-12-14 11:48:30 1513270110.691702: $GPRMC,164831,A,3946.9518,N,08404.9467,W,0.4207,39.347,141217,,*04
2017-12-14 11:48:30 1513270110.691764: $GPGSA,A,3,10,15,18,24,32,,,,,,,,6.6,2.0,6.2*3F
2017-12-14 11:48:31 1513270111.242530: $GPZDA,164832.00,14,12,2017,00,00*6E
2017-12-14 11:48:31 1513270111.242748: $GPGGA,164832,3946.9518,N,08404.9467,W,1,05,2.00,355.19,M,-33.324,M,,*77
2017-12-14 11:48:31 1513270111.242836: $GPRMC,164832,A,3946.9518,N,08404.9467,W,0.5774,27.515,141217,,*09
2017-12-14 11:48:31 1513270111.242902: $GPGSA,A,3,10,15,18,24,32,,,,,,,,6.6,2.0,6.2*3F
2017-12-14 11:48:32 1513270112.242353: $GPZDA,164833.00,14,12,2017,00,00*6F
2017-12-14 11:48:32 1513270112.242533: $GPGGA,164833,3946.9518,N,08404.9467,W,1,05,2.00,355.19,M,-33.324,M,,*76
2017-12-14 11:48:32 1513270112.242603: $GPRMC,164833,A,3946.9518,N,08404.9467,W,0.7621,107.945,141217,,*31
2017-12-14 11:48:32 1513270112.242665: $GPGSA,A,3,10,15,18,24,32,,,,,,,,6.6,2.0,6.2*3F
2017-12-14 11:48:33 1513270113.577193: $GPGSV,3,1,11,10,31,291,22,15,50,049,16,18,62,313,22,20,44,082,04*79
2017-12-14 11:48:33 1513270113.577378: $GPGSV,3,2,11,24,42,129,22,13,19,045,00,32,10,231,16,27,19,303,00*73
2017-12-14 11:48:33 1513270113.577446: $GPGSV,3,3,11,21,76,211,00,29,01,186,00,138,38,213,00*7D
2017-12-14 11:48:33 1513270113.692111: $GPZDA,164834.00,14,12,2017,00,00*68
2017-12-14 11:48:33 1513270113.692290: $GPGGA,164834,3946.9518,N,08404.9467,W,1,05,2.00,355.19,M,-33.324,M,,*71
2017-12-14 11:48:33 1513270113.692358: $GPRMC,164834,A,3946.9518,N,08404.9467,W,0.3155,129.994,141217,,*36
2017-12-14 11:48:33 1513270113.692419: $GPGSA,A,3,10,15,18,24,32,,,,,,,,6.6,2.0,6.2*3F
2017-12-14 11:48:34 1513270114.242162: $GPZDA,164835.00,14,12,2017,00,00*69
2017-12-14 11:48:34 1513270114.242336: $GPGGA,164835,3946.9518,N,08404.9467,W,1,05,2.00,355.19,M,-33.324,M,,*70
2017-12-14 11:48:34 1513270114.242403: $GPRMC,164835,A,3946.9518,N,08404.9467,W,0.5951,238.684,141217,,*30
2017-12-14 11:48:34 1513270114.242465: $GPGSA,A,3,10,15,18,24,32,,,,,,,,6.6,2.0,6.2*3F
2017-12-14 11:48:35 1513270115.242286: $GPZDA,164836.00,14,12,2017,00,00*6A
2017-12-14 11:48:35 1513270115.242469: $GPGGA,164836,3946.9518,N,08404.9467,W,1,05,2.00,355.19,M,-33.324,M,,*73
2017-12-14 11:48:35 1513270115.242538: $GPRMC,164836,A,3946.9518,N,08404.9467,W,0.9929,212.499,141217,,*36
2017-12-14 11:48:35 1513270115.242602: $GPGSA,A,3,10,15,18,24,32,,,,,,,,6.6,2.0,6.2*3F
2017-12-14 11:48:36 1513270116.579030: $GPGSV,3,1,11,10,31,291,22,15,50,049,17,18,62,313,22,20,44,082,04*78
2017-12-14 11:48:36 1513270116.579229: $GPGSV,3,2,11,24,42,129,22,13,19,045,00,32,10,231,16,27,19,303,00*73
2017-12-14 11:48:36 1513270116.579319: $GPGSV,3,3,11,21,76,211,00,29,01,186,00,120,07,103,00*7A
2017-12-14 11:48:36 1513270116.692918: $GPZDA,164837.00,14,12,2017,00,00*6B
2017-12-14 11:48:36 1513270116.693092: $GPGGA,164837,3946.9514,N,08404.9468,W,1,05,2.00,355.95,M,-33.324,M,,*75
2017-12-14 11:48:36 1513270116.693162: $GPRMC,164837,A,3946.9514,N,08404.9468,W,1.5545,212.064,141217,,*39
2017-12-14 11:48:36 1513270116.693227: $GPGSA,A,3,10,15,18,24,32,,,,,,,,6.6,2.0,6.2*3F
2017-12-14 11:48:37 1513270117.226699: $GPZDA,164838.00,14,12,2017,00,00*64
2017-12-14 11:48:37 1513270117.226867: $GPGGA,164838,3946.9507,N,08404.9475,W,1,05,2.00,356.00,M,-33.324,M,,*7B
2017-12-14 11:48:37 1513270117.226934: $GPRMC,164838,A,3946.9507,N,08404.9475,W,1.4115,214.536,141217,,*3C
2017-12-14 11:48:37 1513270117.226996: $GPGSA,A,3,10,15,18,24,32,,,,,,,,6.6,2.0,6.2*3F
2017-12-14 11:48:38 1513270118.243051: $GPZDA,164839.00,14,12,2017,00,00*65
2017-12-14 11:48:38 1513270118.243218: $GPGGA,164839,3946.9507,N,08404.9475,W,1,05,2.00,356.00,M,-33.324,M,,*7A
2017-12-14 11:48:38 1513270118.243284: $GPRMC,164839,A,3946.9507,N,08404.9475,W,1.6283,201.001,141217,,*36
2017-12-14 11:48:38 1513270118.243346: $GPGSA,A,3,10,15,18,24,32,,,,,,,,6.6,2.0,6.2*3F
2017-12-14 11:48:39 1513270119.562637: $GPGSV,3,1,11,10,31,291,22,15,50,049,18,18,62,313,22,20,44,082,04*77
2017-12-14 11:48:39 1513270119.562826: $GPGSV,3,2,11,24,42,129,22,13,19,045,00,32,10,231,16,27,19,303,00*73
2017-12-14 11:48:39 1513270119.562897: $GPGSV,3,3,11,21,76,211,00,29,01,186,00,120,07,103,00*7A
2017-12-14 11:48:39 1513270119.676006: $GPZDA,164840.00,14,12,2017,00,00*6B
2017-12-14 11:48:39 1513270119.676181: $GPGGA,164840,3946.9504,N,08404.9476,W,1,05,2.00,356.76,M,-33.324,M,,*75
2017-12-14 11:48:39 1513270119.676249: $GPRMC,164840,A,3946.9504,N,08404.9476,W,1.5738,192.547,141217,,*30
2017-12-14 11:48:39 1513270119.676331: $GPGSA,A,3,10,15,18,24,32,,,,,,,,6.6,2.0,6.2*3F
2017-12-14 11:48:40 1513270120.242434: $GPZDA,164841.00,14,12,2017,00,00*6A
2017-12-14 11:48:40 1513270120.242602: $GPGGA,164841,3946.9496,N,08404.9477,W,1,05,2.00,356.89,M,-33.324,M,,*7F
2017-12-14 11:48:40 1513270120.242686: $GPRMC,164841,A,3946.9496,N,08404.9477,W,1.3921,194.217,141217,,*3E
2017-12-14 11:48:40 1513270120.242749: $GPGSA,A,3,10,15,18,24,32,,,,,,,,6.6,2.0,6.2*3F
