2017-12-01 13:59:32 1512154772.378086: {"class":"VERSION","release":"3.16","rev":"3.16-4","proto_major":3,"proto_minor":11}
2017-12-01 13:59:32 1512154772.378455: {"class":"DEVICES","devices":[{"class":"DEVICE","path":"/dev/ttyUSB0","driver":"SiRF","subtype":"9\u0006GSD4e_4.1.2-P1_RPATCH.05-F-GPS-4R-1510281 11/03/2015 307","activated":"2017-12-01T18:59:32.272Z","flags":1,"native":1,"bps":4800,"parity":"N","stopbits":1,"cycle":1.00}]}
2017-12-01 13:59:32 1512154772.378572: {"class":"WATCH","enable":true,"json":false,"nmea":true,"raw":0,"scaled":false,"timing":false,"split24":false,"pps":false}
2017-12-01 13:59:32 1512154772.721571: $GPGSV,3,1,12,08,08,304,35,10,59,318,49,14,20,244,42,15,20,061,39*7B
2017-12-01 13:59:32 1512154772.721764: $GPGSV,3,2,12,18,77,057,43,20,17,111,43,21,40,181,45,24,51,073,48*71
2017-12-01 13:59:32 1512154772.721831: $GPGSV,3,3,12,27,12,270,38,32,38,255,43,12,02,115,16,138,38,213,47*4C
2017-12-01 13:59:32 1512154772.834968: $GPZDA,185933.00,01,12,2017,00,00*65
2017-12-01 13:59:32 1512154772.835146: $GPGGA,185933,3946.9572,N,08404.9841,W,2,12,0.80,302.62,M,-33.324,M,,*7D
2017-12-01 13:59:32 1512154772.835214: $GPRMC,185933,A,3946.9572,N,08404.9841,W,0.0000,0.000,011217,,*33
2017-12-01 13:59:32 1512154772.835278: $GPGSA,A,3,8,10,14,15,18,20,21,24,27,32,12,138,2.0,0.8,1.5*37
2017-12-01 13:59:33 1512154773.392262: $GPZDA,185934.00,01,12,2017,00,00*62
2017-12-01 13:59:33 1512154773.392433: $GPGGA,185934,3946.9572,N,08404.9841,W,2,12,0.80,302.62,M,-33.324,M,,*7A
2017-12-01 13:59:33 1512154773.392502: $GPRMC,185934,A,3946.9572,N,08404.9841,W,0.0000,0.000,011217,,*34
2017-12-01 13:59:33 1512154773.392564: $GPGSA,A,3,8,10,14,15,18,20,21,24,27,32,12,138,2.0,0.8,1.5*37
2017-12-01 13:59:34 1512154774.366802: $GPZDA,185935.00,01,12,2017,00,00*63
2017-12-01 13:59:34 1512154774.366993: $GPGGA,185935,3946.9572,N,08404.9841,W,2,12,0.80,302.62,M,-33.324,M,,*7B
2017-12-01 13:59:34 1512154774.367060: $GPRMC,185935,A,3946.9572,N,08404.9841,W,0.0000,0.000,011217,,*35
2017-12-01 13:59:34 1512154774.367123: $GPGSA,A,3,8,10,14,15,18,20,21,24,27,32,12,138,2.0,0.8,1.5*37
2017-12-01 13:59:35 1512154775.700566: $GPGSV,3,1,12,08,08,304,35,10,59,318,49,14,20,244,42,15,20,061,38*7A
2017-12-01 13:59:35 1512154775.700773: $GPGSV,3,2,12,18,77,057,42,20,17,111,43,21,40,181,45,24,51,073,48*70
2017-12-01 13:59:35 1512154775.700844: $GPGSV,3,3,12,27,12,270,38,32,38,255,43,12,02,115,15,138,38,213,46*4E
2017-12-01 13:59:35 1512154775.814222: $GPZDA,185936.00,01,12,2017,00,00*60
2017-12-01 13:59:35 1512154775.814389: $GPGGA,185936,3946.9572,N,08404.9841,W,2,12,0.80,302.62,M,-33.324,M,,*78
2017-12-01 13:59:35 1512154775.814456: $GPRMC,185936,A,3946.9572,N,08404.9841,W,0.0000,0.000,011217,,*36
2017-12-01 13:59:35 1512154775.814519: $GPGSA,A,3,8,10,14,15,18,20,21,24,27,32,12,138,2.0,0.8,1.5*37
2017-12-01 13:59:36 1512154776.365057: $GPZDA,185937.00,01,12,2017,00,00*61
2017-12-01 13:59:36 1512154776.365230: $GPGGA,185937,3946.9572,N,08404.9841,W,2,12,0.80,302.62,M,-33.324,M,,*79
2017-12-01 13:59:36 1512154776.365297: $GPRMC,185937,A,3946.9572,N,08404.9841,W,0.0000,0.000,011217,,*37
2017-12-01 13:59:36 1512154776.365360: $GPGSA,A,3,8,10,14,15,18,20,21,24,27,32,12,138,2.0,0.8,1.5*37
2017-12-01 13:59:37 1512154777.368172: $GPZDA,185938.00,01,12,2017,00,00*6E
2017-12-01 13:59:37 1512154777.368352: $GPGGA,185938,3946.9572,N,08404.9841,W,2,12,0.80,302.62,M,-33.324,M,,*76
2017-12-01 13:59:37 1512154777.368420: $GPRMC,185938,A,3946.9572,N,08404.9841,W,0.0000,0.000,011217,,*38
2017-12-01 13:59:37 1512154777.368483: $GPGSA,A,3,8,10,14,15,18,20,21,24,27,32,12,138,2.0,0.8,1.5*37
2017-12-01 13:59:38 1512154778.701525: $GPGSV,3,1,12,08,08,304,35,10,59,318,49,14,20,244,41,15,20,061,38*79
2017-12-01 13:59:38 1512154778.701729: $GPGSV,3,2,12,18,77,057,43,20,17,111,43,21,40,181,45,24,51,073,47*7E
2017-12-01 13:59:38 1512154778.701800: $GPGSV,3,3,12,27,12,270,37,32,38,255,43,12,02,115,15,138,38,213,47*40
2017-12-01 13:59:38 1512154778.814855: $GPZDA,185939.00,01,12,2017,00,00*6F
2017-12-01 13:59:38 1512154778.814991: $GPGGA,185939,3946.9572,N,08404.9841,W,2,12,0.80,302.62,M,-33.324,M,,*77
2017-12-01 13:59:38 1512154778.815111: $GPRMC,185939,A,3946.9572,N,08404.9841,W,0.0000,0.000,011217,,*39
2017-12-01 13:59:38 1512154778.815174: $GPGSA,A,3,8,10,14,15,18,20,21,24,27,32,12,138,2.0,0.8,1.5*37
2017-12-01 13:59:39 1512154779.364372: $GPZDA,185940.00,01,12,2017,00,00*61
2017-12-01 13:59:39 1512154779.364559: $GPGGA,185940,3946.9572,N,08404.9841,W,2,12,0.80,302.62,M,-33.324,M,,*79
2017-12-01 13:59:39 1512154779.364655: $GPRMC,185940,A,3946.9572,N,08404.9841,W,0.0000,0.000,011217,,*37
2017-12-01 13:59:39 1512154779.364724: $GPGSA,A,3,8,10,14,15,18,20,21,24,27,32,12,138,2.0,0.8,1.5*37
2017-12-01 13:59:40 1512154780.364864: $GPZDA,185941.00,01,12,2017,00,00*60
2017-12-01 13:59:40 1512154780.365040: $GPGGA,185941,3946.9572,N,08404.9841,W,2,12,0.80,302.62,M,-33.324,M,,*78
2017-12-01 13:59:40 1512154780.365108: $GPRMC,185941,A,3946.9572,N,08404.9841,W,0.0000,0.000,011217,,*36
2017-12-01 13:59:40 1512154780.365171: $GPGSA,A,3,8,10,14,15,18,20,21,24,27,32,12,138,2.0,0.8,1.5*37
2017-12-01 13:59:41 1512154781.701878: $GPGSV,3,1,12,08,08,304,35,10,59,318,50,14,20,244,41,15,20,061,39*70
2017-12-01 13:59:41 1512154781.702061: $GPGSV,3,2,12,18,77,057,42,20,17,111,43,21,40,181,45,24,51,073,48*70
2017-12-01 13:59:41 1512154781.702130: $GPGSV,3,3,12,27,12,270,38,32,38,255,43,12,02,115,14,138,38,213,47*4E
2017-12-01 13:59:41 1512154781.815271: $GPZDA,185942.00,01,12,2017,00,00*63
2017-12-01 13:59:41 1512154781.815442: $GPGGA,185942,3946.9572,N,08404.9841,W,2,12,0.80,302.62,M,-33.324,M,,*7B
2017-12-01 13:59:41 1512154781.815509: $GPRMC,185942,A,3946.9572,N,08404.9841,W,0.0000,0.000,011217,,*35
2017-12-01 13:59:41 1512154781.815571: $GPGSA,A,3,8,10,14,15,18,20,21,24,27,32,12,138,2.0,0.8,1.5*37
2017-12-01 13:59:42 1512154782.366226: $GPZDA,185943.00,01,12,2017,00,00*62
2017-12-01 13:59:42 1512154782.366398: $GPGGA,185943,3946.9572,N,08404.9841,W,2,12,0.80,302.62,M,-33.324,M,,*7A
2017-12-01 13:59:42 1512154782.366466: $GPRMC,185943,A,3946.9572,N,08404.9841,W,0.0000,0.000,011217,,*34
2017-12-01 13:59:42 1512154782.366527: $GPGSA,A,3,8,10,14,15,18,20,21,24,27,32,12,138,2.0,0.8,1.5*37
2017-12-01 13:59:43 1512154783.365767: $GPZDA,185944.00,01,12,2017,00,00*65
2017-12-01 13:59:43 1512154783.365947: $GPGGA,185944,3946.9572,N,08404.9841,W,2,12,0.80,302.62,M,-33.324,M,,*7D
2017-12-01 13:59:43 1512154783.366017: $GPRMC,185944,A,3946.9572,N,08404.9841,W,0.0000,0.000,011217,,*33
2017-12-01 13:59:43 1512154783.366082: $GPGSA,A,3,8,10,14,15,18,20,21,24,27,32,12,138,2.0,0.8,1.5*37
2017-12-01 13:59:44 1512154784.701698: $GPGSV,3,1,12,08,08,304,35,10,59,318,49,14,20,244,41,15,20,061,38*79
2017-12-01 13:59:44 1512154784.701928: $GPGSV,3,2,12,18,77,057,42,20,17,111,43,21,40,181,45,24,51,073,48*70
2017-12-01 13:59:44 1512154784.702051: $GPGSV,3,3,12,27,12,270,39,32,38,255,43,12,02,115,14,138,38,213,48*40
2017-12-01 13:59:44 1512154784.815195: $GPZDA,185945.00,01,12,2017,00,00*64
2017-12-01 13:59:44 1512154784.815363: $GPGGA,185945,3946.9572,N,08404.9841,W,2,12,0.80,302.62,M,-33.324,M,,*7C
2017-12-01 13:59:44 1512154784.815431: $GPRMC,185945,A,3946.9572,N,08404.9841,W,0.0000,0.000,011217,,*32
2017-12-01 13:59:44 1512154784.815492: $GPGSA,A,3,8,10,14,15,18,20,21,24,27,32,12,138,2.0,0.8,1.5*37
2017-12-01 13:59:45 1512154785.440128: $GPZDA,185946.00,01,12,2017,00,00*67
2017-12-01 13:59:45 1512154785.440307: $GPGGA,185946,3946.9572,N,08404.9841,W,2,12,0.80,302.62,M,-33.324,M,,*7F
2017-12-01 13:59:45 1512154785.440375: $GPRMC,185946,A,3946.9572,N,08404.9841,W,0.0000,0.000,011217,,*31
2017-12-01 13:59:45 1512154785.440438: $GPGSA,A,3,8,10,14,15,18,20,21,24,27,32,12,138,2.0,0.8,1.5*37
2017-12-01 13:59:46 1512154786.366011: $GPZDA,185947.00,01,12,2017,00,00*66
2017-12-01 13:59:46 1512154786.366188: $GPGGA,185947,3946.9572,N,08404.9841,W,2,12,0.80,302.62,M,-33.324,M,,*7E
2017-12-01 13:59:46 1512154786.366256: $GPRMC,185947,A,3946.9572,N,08404.9841,W,0.0000,0.000,011217,,*30
2017-12-01 13:59:46 1512154786.366319: $GPGSA,A,3,8,10,14,15,18,20,21,24,27,32,12,138,2.0,0.8,1.5*37
