2017-11-15 19:23:39 1510791819.595448: {"class":"VERSION","release":"3.17","rev":"3.17","proto_major":3,"proto_minor":12}
2017-11-15 19:23:39 1510791819.595911: {"class":"DEVICES","devices":[{"class":"DEVICE","path":"/dev/ttyUSB0","driver":"SiRF","subtype":"9\u0006GSD4e_4.1.2-P1_RPATCH.05-F-GPS-4R-1510281 11/03/2015 307","activated":"2017-11-16T00:23:39.232Z","flags":1,"native":1,"bps":4800,"parity":"N","stopbits":1,"cycle":1.00}]}
2017-11-15 19:23:39 1510791819.596171: {"class":"WATCH","enable":true,"json":false,"nmea":true,"raw":0,"scaled":false,"timing":false,"split24":false,"pps":false}
2017-11-15 19:23:39 1510791819.681016: $GPGSV,3,1,11,32,38,105,22,14,57,088,19,22,50,274,00,26,50,174,27*78
2017-11-15 19:23:39 1510791819.681157: $GPGSV,3,2,11,31,70,021,15,29,10,073,12,16,20,190,13,03,38,301,20*70
2017-11-15 19:23:39 1510791819.681215: $GPGSV,3,3,11,01,07,255,07,25,19,040,00,23,09,300,00*4A
2017-11-15 19:23:39 1510791819.794356: $GPZDA,002338.00,16,11,2017,00,00*6F
2017-11-15 19:23:39 1510791819.794517: $GPGGA,002338,3946.9601,N,08404.9392,W,1,08,1.00,296.14,M,-33.324,M,,*7C
2017-11-15 19:23:39 1510791819.794577: $GPRMC,002338,A,3946.9601,N,08404.9392,W,0.7267,93.795,161117,,*0E
2017-11-15 19:23:39 1510791819.794633: $GPGSA,A,3,32,14,26,31,29,16,3,1,,,,,3.4,1.0,2.9*33
2017-11-15 19:23:40 1510791820.346834: $GPZDA,002339.00,16,11,2017,00,00*6E
2017-11-15 19:23:40 1510791820.347017: $GPGGA,002339,3946.9601,N,08404.9392,W,1,08,1.00,296.14,M,-33.324,M,,*7D
2017-11-15 19:23:40 1510791820.347081: $GPRMC,002339,A,3946.9601,N,08404.9392,W,0.2422,93.795,161117,,*0D
2017-11-15 19:23:40 1510791820.347137: $GPGSA,A,3,32,14,26,31,29,16,3,1,,,,,3.4,1.0,2.9*33
2017-11-15 19:23:41 1510791821.330753: $GPZDA,002340.00,16,11,2017,00,00*60
2017-11-15 19:23:41 1510791821.330921: $GPGGA,002340,3946.9601,N,08404.9392,W,1,08,1.00,296.14,M,-33.324,M,,*73
2017-11-15 19:23:41 1510791821.330981: $GPRMC,002340,A,3946.9601,N,08404.9392,W,0.2422,93.795,161117,,*03
2017-11-15 19:23:41 1510791821.331037: $GPGSA,A,3,32,14,26,31,29,16,3,1,,,,,3.4,1.0,2.9*33
2017-11-15 19:23:42 1510791822.666425: $GPGSV,3,1,11,32,38,105,22,14,57,088,18,22,50,274,00,26,50,174,27*79
2017-11-15 19:23:42 1510791822.666596: $GPGSV,3,2,11,31,70,021,13,29,10,073,12,16,20,190,14,03,38,301,21*70
2017-11-15 19:23:42 1510791822.666655: $GPGSV,3,3,11,01,07,255,04,25,19,040,00,23,09,300,00*49
2017-11-15 19:23:42 1510791822.781828: $GPZDA,002341.00,16,11,2017,00,00*61
2017-11-15 19:23:42 1510791822.781992: $GPGGA,002341,3946.9601,N,08404.9392,W,1,07,1.00,296.14,M,-33.324,M,,*7D
2017-11-15 19:23:42 1510791822.782053: $GPRMC,002341,A,3946.9601,N,08404.9392,W,0.4844,93.795,161117,,*08
2017-11-15 19:23:42 1510791822.782108: $GPGSA,A,3,32,14,26,31,29,16,3,,,,,,3.4,1.0,2.9*02
2017-11-15 19:23:43 1510791823.347419: $GPZDA,002342.00,16,11,2017,00,00*62
2017-11-15 19:23:43 1510791823.347565: $GPGGA,002342,3946.9601,N,08404.9392,W,1,07,1.00,296.14,M,-33.324,M,,*7E
2017-11-15 19:23:43 1510791823.347624: $GPRMC,002342,A,3946.9601,N,08404.9392,W,0.2422,93.795,161117,,*01
2017-11-15 19:23:43 1510791823.347679: $GPGSA,A,3,32,14,26,31,29,16,3,,,,,,3.4,1.0,2.9*02
2017-11-15 19:23:44 1510791824.347258: $GPZDA,002343.00,16,11,2017,00,00*63
2017-11-15 19:23:44 1510791824.347446: $GPGGA,002343,3946.9605,N,08404.9399,W,1,07,1.00,296.70,M,-33.324,M,,*72
2017-11-15 19:23:44 1510791824.347508: $GPRMC,002343,A,3946.9605,N,08404.9399,W,0.0000,0.000,161117,,*38
2017-11-15 19:23:44 1510791824.347565: $GPGSA,A,3,32,14,26,31,29,16,3,,,,,,3.4,1.0,2.9*02
2017-11-15 19:23:45 1510791825.682421: $GPGSV,3,1,11,32,38,105,23,14,57,088,18,22,50,274,00,26,50,174,27*78
2017-11-15 19:23:45 1510791825.682592: $GPGSV,3,2,11,31,70,021,13,29,10,073,12,16,20,190,13,03,38,301,21*77
2017-11-15 19:23:45 1510791825.682652: $GPGSV,3,3,11,01,07,255,04,25,19,040,00,23,09,300,00*49
2017-11-15 19:23:45 1510791825.796127: $GPZDA,002344.00,16,11,2017,00,00*64
2017-11-15 19:23:45 1510791825.796289: $GPGGA,002344,3946.9605,N,08404.9399,W,1,07,1.00,296.70,M,-33.324,M,,*75
2017-11-15 19:23:45 1510791825.796348: $GPRMC,002344,A,3946.9605,N,08404.9399,W,0.4844,273.795,161117,,*3E
2017-11-15 19:23:45 1510791825.796455: $GPGSA,A,3,32,14,26,31,29,16,3,,,,,,3.4,1.0,2.9*02
2017-11-15 19:23:46 1510791826.421215: $GPZDA,002345.00,16,11,2017,00,00*65
2017-11-15 19:23:46 1510791826.421374: $GPGGA,002345,3946.9606,N,08404.9406,W,1,07,1.00,296.63,M,-33.324,M,,*74
2017-11-15 19:23:46 1510791826.421435: $GPRMC,002345,A,3946.9606,N,08404.9406,W,0.4207,219.347,161117,,*37
2017-11-15 19:23:46 1510791826.421490: $GPGSA,A,3,32,14,26,31,29,16,3,,,,,,3.4,1.0,2.9*02
2017-11-15 19:23:47 1510791827.329485: $GPZDA,002346.00,16,11,2017,00,00*66
2017-11-15 19:23:47 1510791827.329658: $GPGGA,002346,3946.9606,N,08404.9406,W,1,07,1.00,296.63,M,-33.324,M,,*77
2017-11-15 19:23:47 1510791827.329718: $GPRMC,002346,A,3946.9606,N,08404.9406,W,0.5230,256.444,161117,,*3E
2017-11-15 19:23:47 1510791827.329774: $GPGSA,A,3,32,14,26,31,29,16,3,,,,,,3.4,1.0,2.9*02
2017-11-15 19:23:48 1510791828.666537: $GPGSV,3,1,11,32,38,105,23,14,57,088,18,22,50,274,00,26,50,174,27*78
2017-11-15 19:23:48 1510791828.666761: $GPGSV,3,2,11,31,70,021,12,29,10,073,11,16,20,190,13,03,38,301,22*76
2017-11-15 19:23:48 1510791828.666833: $GPGSV,3,3,11,01,07,255,04,25,19,040,00,23,09,300,00*49
2017-11-15 19:23:48 1510791828.780005: $GPZDA,002347.00,16,11,2017,00,00*67
2017-11-15 19:23:48 1510791828.780154: $GPGGA,002347,3946.9603,N,08404.9413,W,1,07,1.00,297.31,M,-33.324,M,,*71
2017-11-15 19:23:48 1510791828.780213: $GPRMC,002347,A,3946.9603,N,08404.9413,W,0.3423,184.197,161117,,*3B
2017-11-15 19:23:48 1510791828.780268: $GPGSA,A,3,32,14,26,31,29,16,3,,,,,,3.4,1.0,2.9*02
2017-11-15 19:23:49 1510791829.346129: $GPZDA,002348.00,16,11,2017,00,00*68
2017-11-15 19:23:49 1510791829.346291: $GPGGA,002348,3946.9607,N,08404.9413,W,1,07,1.00,297.95,M,-33.324,M,,*74
2017-11-15 19:23:49 1510791829.346352: $GPRMC,002348,A,3946.9607,N,08404.9413,W,0.0000,0.000,161117,,*34
2017-11-15 19:23:49 1510791829.346407: $GPGSA,A,3,32,14,26,31,29,16,3,,,,,,3.4,1.0,2.9*02
