2017-12-31 17:57:04 1514761024.279987: {"class":"VERSION","release":"3.16","rev":"3.16-4","proto_major":3,"proto_minor":11}
2017-12-31 17:57:04 1514761024.280361: {"class":"DEVICES","devices":[{"class":"DEVICE","path":"/dev/ttyUSB0","driver":"SiRF","activated":"2017-12-31T22:57:04.231Z","flags":1,"native":1,"bps":4800,"parity":"N","stopbits":1,"cycle":1.00}]}
2017-12-31 17:57:04 1514761024.280467: {"class":"WATCH","enable":true,"json":false,"nmea":true,"raw":0,"scaled":false,"timing":false,"split24":false,"pps":false}
2017-12-31 17:57:04 1514761024.345316: $GPZDA,225705.00,31,12,2017,00,00*64
2017-12-31 17:57:04 1514761024.345472: $GPGGA,225705,3946.9567,N,08404.9865,W,2,11,0.60,306.72,M,-33.324,M,,*75
2017-12-31 17:57:04 1514761024.345539: $GPRMC,225705,A,3946.9567,N,08404.9865,W,0.0000,0.000,311217,,*30
2017-12-31 17:57:04 1514761024.345599: $GPGSA,A,3,22,23,9,3,16,29,14,31,27,26,135,,1.7,0.6,1.3*06
2017-12-31 17:57:05 1514761025.347010: $GPZDA,225706.00,31,12,2017,00,00*67
2017-12-31 17:57:05 1514761025.347234: $GPGGA,225706,3946.9567,N,08404.9865,W,2,11,0.60,306.72,M,-33.324,M,,*76
2017-12-31 17:57:05 1514761025.347305: $GPRMC,225706,A,3946.9567,N,08404.9865,W,0.0000,0.000,311217,,*33
2017-12-31 17:57:05 1514761025.347369: $GPGSA,A,3,22,23,9,3,16,29,14,31,27,26,135,,1.7,0.6,1.3*06
2017-12-31 17:57:06 1514761026.681115: $GPGSV,3,1,11,22,27,217,44,23,49,309,44,09,15,312,43,03,36,240,44*76
2017-12-31 17:57:06 1514761026.681301: $GPGSV,3,2,11,16,74,192,43,29,08,034,24,14,20,130,31,31,32,070,43*77
2017-12-31 17:57:06 1514761026.681370: $GPGSV,3,3,11,27,17,156,23,26,67,055,49,135,22,240,43*77
2017-12-31 17:57:06 1514761026.794779: $GPZDA,225707.00,31,12,2017,00,00*66
2017-12-31 17:57:06 1514761026.794899: $GPGGA,225707,3946.9567,N,08404.9865,W,2,11,0.60,306.72,M,-33.324,M,,*77
2017-12-31 17:57:06 1514761026.794963: $GPRMC,225707,A,3946.9567,N,08404.9865,W,0.0000,0.000,311217,,*32
2017-12-31 17:57:06 1514761026.795024: $GPGSA,A,3,22,23,9,3,16,29,14,31,27,26,135,,1.7,0.6,1.3*06
2017-12-31 17:57:07 1514761027.573824: $GPZDA,225708.00,31,12,2017,00,00*69
2017-12-31 17:57:07 1514761027.573988: $GPGGA,225708,3946.9567,N,08404.9865,W,2,11,0.60,306.72,M,-33.324,M,,*78
2017-12-31 17:57:07 1514761027.574055: $GPRMC,225708,A,3946.9567,N,08404.9865,W,0.0000,0.000,311217,,*3D
2017-12-31 17:57:07 1514761027.574116: $GPGSA,A,3,22,23,9,3,16,29,14,31,27,26,135,,1.7,0.6,1.3*06
2017-12-31 17:57:07 1514761027.574175: $GPGBS,225708,2.22,M,3.43,M,7.66,M*35
2017-12-31 17:57:08 1514761028.345994: $GPZDA,225709.00,31,12,2017,00,00*68
2017-12-31 17:57:08 1514761028.346183: $GPGGA,225709,3946.9567,N,08404.9865,W,2,11,0.60,306.72,M,-33.324,M,,*79
2017-12-31 17:57:08 1514761028.346252: $GPRMC,225709,A,3946.9567,N,08404.9865,W,0.0000,0.000,311217,,*3C
2017-12-31 17:57:08 1514761028.346317: $GPGSA,A,3,22,23,9,3,16,29,14,31,27,26,135,,1.7,0.6,1.3*06
2017-12-31 17:57:08 1514761028.346377: $GPGBS,225709,2.22,M,3.43,M,7.66,M*34
2017-12-31 17:57:09 1514761029.681361: $GPGSV,3,1,11,22,26,217,44,23,49,307,43,09,16,312,43,03,36,240,44*7D
2017-12-31 17:57:09 1514761029.681532: $GPGSV,3,2,11,16,74,192,43,29,08,034,23,14,20,130,31,31,32,070,43*70
2017-12-31 17:57:09 1514761029.681598: $GPGSV,3,3,11,27,17,156,30,26,67,055,49,135,22,240,44*72
2017-12-31 17:57:09 1514761029.795050: $GPZDA,225710.00,31,12,2017,00,00*60
2017-12-31 17:57:09 1514761029.795176: $GPGGA,225710,3946.9567,N,08404.9865,W,2,11,0.60,306.72,M,-33.324,M,,*71
2017-12-31 17:57:09 1514761029.795242: $GPRMC,225710,A,3946.9567,N,08404.9865,W,0.0000,0.000,311217,,*34
2017-12-31 17:57:09 1514761029.795305: $GPGSA,A,3,22,23,9,3,16,29,14,31,27,26,135,,1.7,0.6,1.3*06
2017-12-31 17:57:10 1514761030.420397: $GPZDA,225711.00,31,12,2017,00,00*61
2017-12-31 17:57:10 1514761030.420564: $GPGGA,225711,3946.9567,N,08404.9865,W,2,11,0.60,306.72,M,-33.324,M,,*70
2017-12-31 17:57:10 1514761030.420631: $GPRMC,225711,A,3946.9567,N,08404.9865,W,0.0000,0.000,311217,,*35
2017-12-31 17:57:10 1514761030.420691: $GPGSA,A,3,22,23,9,3,16,29,14,31,27,26,135,,1.7,0.6,1.3*06
2017-12-31 17:57:11 1514761031.344996: $GPZDA,225712.00,31,12,2017,00,00*62
2017-12-31 17:57:11 1514761031.345223: $GPGGA,225712,3946.9567,N,08404.9865,W,2,11,0.60,306.72,M,-33.324,M,,*73
2017-12-31 17:57:11 1514761031.345292: $GPRMC,225712,A,3946.9567,N,08404.9865,W,0.0000,0.000,311217,,*36
2017-12-31 17:57:11 1514761031.345352: $GPGSA,A,3,22,23,9,3,16,29,14,31,27,26,135,,1.7,0.6,1.3*06
2017-12-31 17:57:12 1514761032.680430: $GPGSV,3,1,11,22,26,217,44,23,49,307,44,09,16,312,44,03,36,240,45*7C
2017-12-31 17:57:12 1514761032.680589: $GPGSV,3,2,11,16,74,192,43,29,08,034,30,14,20,130,31,31,32,070,42*73
2017-12-31 17:57:12 1514761032.680656: $GPGSV,3,3,11,27,17,156,29,26,67,055,49,135,22,240,44*7A
2017-12-31 17:57:12 1514761032.793749: $GPZDA,225713.00,31,12,2017,00,00*63
2017-12-31 17:57:12 1514761032.793894: $GPGGA,225713,3946.9567,N,08404.9865,W,2,11,0.60,306.72,M,-33.324,M,,*72
2017-12-31 17:57:12 1514761032.793960: $GPRMC,225713,A,3946.9567,N,08404.9865,W,0.0000,0.000,311217,,*37
2017-12-31 17:57:12 1514761032.794020: $GPGSA,A,3,22,23,9,3,16,29,14,31,27,26,135,,1.7,0.6,1.3*06
2017-12-31 17:57:13 1514761033.554333: $GPZDA,225714.00,31,12,2017,00,00*64
2017-12-31 17:57:13 1514761033.554524: $GPGGA,225714,3946.9567,N,08404.9865,W,2,11,0.60,306.72,M,-33.324,M,,*75
2017-12-31 17:57:13 1514761033.554591: $GPRMC,225714,A,3946.9567,N,08404.9865,W,0.0000,0.000,311217,,*30
2017-12-31 17:57:13 1514761033.554652: $GPGSA,A,3,22,23,9,3,16,29,14,31,27,26,135,,1.7,0.6,1.3*06
2017-12-31 17:57:13 1514761033.554710: $GPGBS,225714,2.22,M,3.43,M,7.66,M*38
