2017-12-01 11:51:14 1512147074.713605: {"class":"VERSION","release":"3.16","rev":"3.16-4","proto_major":3,"proto_minor":11}
2017-12-01 11:51:14 1512147074.713990: {"class":"DEVICES","devices":[{"class":"DEVICE","path":"/dev/ttyUSB0","driver":"SiRF","subtype":"9\u0006GSD4e_4.1.2-P1_RPATCH.05-F-GPS-4R-1510281 11/03/2015 307","activated":"2017-12-01T16:51:14.292Z","flags":1,"native":1,"bps":4800,"parity":"N","stopbits":1,"cycle":1.00}]}
2017-12-01 11:51:14 1512147074.714112: {"class":"WATCH","enable":true,"json":false,"nmea":true,"raw":0,"scaled":false,"timing":false,"split24":false,"pps":false}
2017-12-01 11:51:14 1512147074.742100: $GPGSV,3,1,12,10,15,274,37,13,40,048,46,15,72,063,46,18,46,288,45*7E
2017-12-01 11:51:14 1512147074.742207: $GPGSV,3,2,12,20,60,055,43,21,70,301,46,24,23,147,44,27,10,322,41*7B
2017-12-01 11:51:14 1512147074.742272: $GPGSV,3,3,12,29,21,193,44,05,11,079,26,04,10,132,00,138,38,213,46*40
2017-12-01 11:51:14 1512147074.855491: $GPZDA,165115.00,01,12,2017,00,00*67
2017-12-01 11:51:14 1512147074.855655: $GPGGA,165115,3946.9582,N,08404.9842,W,2,11,0.80,292.46,M,-33.324,M,,*7E
2017-12-01 11:51:14 1512147074.855720: $GPRMC,165115,A,3946.9582,N,08404.9842,W,0.0000,0.000,011217,,*3D
2017-12-01 11:51:14 1512147074.855780: $GPGSA,A,3,10,13,15,18,20,21,24,27,29,5,138,,2.0,0.8,1.5*34
2017-12-01 11:51:15 1512147075.411465: $GPZDA,165116.00,01,12,2017,00,00*64
2017-12-01 11:51:15 1512147075.411643: $GPGGA,165116,3946.9582,N,08404.9842,W,2,11,0.80,292.46,M,-33.324,M,,*7D
2017-12-01 11:51:15 1512147075.411711: $GPRMC,165116,A,3946.9582,N,08404.9842,W,0.0000,0.000,011217,,*3E
2017-12-01 11:51:15 1512147075.411772: $GPGSA,A,3,10,13,15,18,20,21,24,27,29,5,138,,2.0,0.8,1.5*34
2017-12-01 11:51:16 1512147076.408356: $GPZDA,165117.00,01,12,2017,00,00*65
2017-12-01 11:51:16 1512147076.408539: $GPGGA,165117,3946.9582,N,08404.9842,W,2,11,0.80,292.46,M,-33.324,M,,*7C
2017-12-01 11:51:16 1512147076.408606: $GPRMC,165117,A,3946.9582,N,08404.9842,W,0.0000,0.000,011217,,*3F
2017-12-01 11:51:16 1512147076.408667: $GPGSA,A,3,10,13,15,18,20,21,24,27,29,5,138,,2.0,0.8,1.5*34
2017-12-01 11:51:17 1512147077.742534: $GPGSV,3,1,12,10,15,274,33,13,40,048,46,15,72,063,46,18,46,288,45*7A
2017-12-01 11:51:17 1512147077.742730: $GPGSV,3,2,12,20,60,055,43,21,70,301,46,24,23,147,44,27,10,322,41*7B
2017-12-01 11:51:17 1512147077.742797: $GPGSV,3,3,12,29,21,193,44,05,11,079,27,04,10,132,00,138,38,213,46*41
2017-12-01 11:51:17 1512147077.855885: $GPZDA,165118.00,01,12,2017,00,00*6A
2017-12-01 11:51:17 1512147077.856040: $GPGGA,165118,3946.9582,N,08404.9842,W,2,11,0.80,292.46,M,-33.324,M,,*73
2017-12-01 11:51:17 1512147077.856104: $GPRMC,165118,A,3946.9582,N,08404.9842,W,0.0000,0.000,011217,,*30
2017-12-01 11:51:17 1512147077.856164: $GPGSA,A,3,10,13,15,18,20,21,24,27,29,5,138,,2.0,0.8,1.5*34
2017-12-01 11:51:18 1512147078.409392: $GPZDA,165119.00,01,12,2017,00,00*6B
2017-12-01 11:51:18 1512147078.409547: $GPGGA,165119,3946.9584,N,08404.9857,W,2,11,0.80,293.71,M,-33.324,M,,*75
2017-12-01 11:51:18 1512147078.409614: $GPRMC,165119,A,3946.9584,N,08404.9857,W,0.0000,0.000,011217,,*33
2017-12-01 11:51:18 1512147078.409675: $GPGSA,A,3,10,13,15,18,20,21,24,27,29,5,138,,2.0,0.8,1.5*34
2017-12-01 11:51:19 1512147079.411760: $GPZDA,165120.00,01,12,2017,00,00*61
2017-12-01 11:51:19 1512147079.411946: $GPGGA,165120,3946.9584,N,08404.9857,W,2,11,0.80,293.71,M,-33.324,M,,*7F
2017-12-01 11:51:19 1512147079.412013: $GPRMC,165120,A,3946.9584,N,08404.9857,W,0.0000,0.000,011217,,*39
2017-12-01 11:51:19 1512147079.412074: $GPGSA,A,3,10,13,15,18,20,21,24,27,29,5,138,,2.0,0.8,1.5*34
2017-12-01 11:51:20 1512147080.743404: $GPGSV,3,1,12,10,15,274,33,13,40,048,46,15,72,063,45,18,46,288,45*79
2017-12-01 11:51:20 1512147080.743583: $GPGSV,3,2,12,20,60,055,43,21,70,301,46,24,23,147,44,27,10,322,41*7B
2017-12-01 11:51:20 1512147080.743648: $GPGSV,3,3,12,29,21,193,44,05,11,079,27,04,10,132,00,138,38,213,46*41
2017-12-01 11:51:20 1512147080.856787: $GPZDA,165121.00,01,12,2017,00,00*60
2017-12-01 11:51:20 1512147080.856953: $GPGGA,165121,3946.9584,N,08404.9857,W,2,11,0.80,293.71,M,-33.324,M,,*7E
2017-12-01 11:51:20 1512147080.857069: $GPRMC,165121,A,3946.9584,N,08404.9857,W,0.0000,0.000,011217,,*38
2017-12-01 11:51:20 1512147080.857132: $GPGSA,A,3,10,13,15,18,20,21,24,27,29,5,138,,2.0,0.8,1.5*34
2017-12-01 11:51:21 1512147081.482535: $GPZDA,165122.00,01,12,2017,00,00*63
2017-12-01 11:51:21 1512147081.482707: $GPGGA,165122,3946.9584,N,08404.9857,W,2,11,0.80,293.71,M,-33.324,M,,*7D
2017-12-01 11:51:21 1512147081.482775: $GPRMC,165122,A,3946.9584,N,08404.9857,W,0.0000,0.000,011217,,*3B
2017-12-01 11:51:21 1512147081.482836: $GPGSA,A,3,10,13,15,18,20,21,24,27,29,5,138,,2.0,0.8,1.5*34
2017-12-01 11:51:22 1512147082.407074: $GPZDA,165123.00,01,12,2017,00,00*62
2017-12-01 11:51:22 1512147082.407241: $GPGGA,165123,3946.9584,N,08404.9857,W,2,11,0.80,293.71,M,-33.324,M,,*7C
2017-12-01 11:51:22 1512147082.407308: $GPRMC,165123,A,3946.9584,N,08404.9857,W,0.0000,0.000,011217,,*3A
2017-12-01 11:51:22 1512147082.407368: $GPGSA,A,3,10,13,15,18,20,21,24,27,29,5,138,,2.0,0.8,1.5*34
2017-12-01 11:51:23 1512147083.743697: $GPGSV,3,1,12,10,15,274,34,13,40,048,46,15,72,063,46,18,46,288,44*7C
2017-12-01 11:51:23 1512147083.743873: $GPGSV,3,2,12,20,60,055,44,21,70,301,45,24,23,147,44,27,10,322,42*7C
2017-12-01 11:51:23 1512147083.743938: $GPGSV,3,3,12,29,21,193,44,05,11,079,26,04,10,132,00,138,38,213,47*41
2017-12-01 11:51:23 1512147083.858582: $GPZDA,165124.00,01,12,2017,00,00*65
2017-12-01 11:51:23 1512147083.858824: $GPGGA,165124,3946.9584,N,08404.9857,W,2,11,0.80,293.71,M,-33.324,M,,*7B
2017-12-01 11:51:23 1512147083.858896: $GPRMC,165124,A,3946.9584,N,08404.9857,W,0.0000,0.000,011217,,*3D
2017-12-01 11:51:23 1512147083.858959: $GPGSA,A,3,10,13,15,18,20,21,24,27,29,5,138,,2.0,0.8,1.5*34
2017-12-01 11:51:24 1512147084.408337: $GPZDA,165125.00,01,12,2017,00,00*64
2017-12-01 11:51:24 1512147084.408504: $GPGGA,165125,3946.9584,N,08404.9857,W,2,11,0.80,293.71,M,-33.324,M,,*7A
2017-12-01 11:51:24 1512147084.408571: $GPRMC,165125,A,3946.9584,N,08404.9857,W,0.0000,0.000,011217,,*3C
2017-12-01 11:51:24 1512147084.408632: $GPGSA,A,3,10,13,15,18,20,21,24,27,29,5,138,,2.0,0.8,1.5*34
