2018-01-12 20:06:59 1515805619.080976: {"class":"VERSION","release":"3.16","rev":"3.16-4","proto_major":3,"proto_minor":11}
2018-01-12 20:06:59 1515805619.081333: {"class":"DEVICES","devices":[{"class":"DEVICE","path":"/dev/ttyUSB0","driver":"SiRF","subtype":"9\u0006GSD4e_4.1.2-P1_RPATCH.05-F-GPS-4R-1510281 11/03/2015 307","activated":"2018-01-13T01:06:58.353Z","flags":1,"native":1,"bps":4800,"parity":"N","stopbits":1,"cycle":1.00}]}
2018-01-12 20:06:59 1515805619.081451: {"class":"WATCH","enable":true,"json":false,"nmea":true,"raw":0,"scaled":false,"timing":false,"split24":false,"pps":false}
2018-01-12 20:06:59 1515805619.213643: $GPZDA,010700.00,13,01,2018,00,00*68
2018-01-12 20:06:59 1515805619.213823: $GPGGA,010700,3946.9512,N,08404.9464,W,1,04,1.80,311.17,M,-33.324,M,,*76
2018-01-12 20:06:59 1515805619.213889: $GPRMC,010700,A,3946.9512,N,08404.9464,W,1.3491,158.265,130118,,*30
2018-01-12 20:06:59 1515805619.213952: $GPGSA,A,3,8,23,27,7,,,,,,,,,4.8,1.8,4.6*3E
2018-01-12 20:06:59 1515805619.214008: $GPGBS,010700,14.24,M,16.36,M,105.11,M*3D
2018-01-12 20:07:00 1515805620.549311: $GPGSV,3,1,10,08,73,132,21,23,29,189,21,27,47,052,16,07,56,315,12*7A
2018-01-12 20:07:00 1515805620.549513: $GPGSV,3,2,10,16,23,060,04,09,48,229,00,30,29,306,00,11,20,168,00*71
2018-01-12 20:07:00 1515805620.549580: $GPGSV,3,3,10,28,14,258,00,138,38,213,00*49
2018-01-12 20:07:00 1515805620.662899: $GPZDA,010701.00,13,01,2018,00,00*69
2018-01-12 20:07:00 1515805620.663084: $GPGGA,010701,3946.9512,N,08404.9464,W,1,04,1.80,311.17,M,-33.324,M,,*77
2018-01-12 20:07:00 1515805620.663203: $GPRMC,010701,A,3946.9512,N,08404.9464,W,1.1189,165.351,130118,,*37
2018-01-12 20:07:00 1515805620.663269: $GPGSA,A,3,8,23,27,7,,,,,,,,,4.8,1.8,4.6*3E
2018-01-12 20:07:01 1515805621.213744: $GPZDA,010702.00,13,01,2018,00,00*6A
2018-01-12 20:07:01 1515805621.213928: $GPGGA,010702,3946.9512,N,08404.9464,W,1,04,1.80,311.17,M,-33.324,M,,*74
2018-01-12 20:07:01 1515805621.213994: $GPRMC,010702,A,3946.9512,N,08404.9464,W,0.9143,175.839,130118,,*3F
2018-01-12 20:07:01 1515805621.214056: $GPGSA,A,3,8,23,27,7,,,,,,,,,4.8,1.8,4.6*3E
2018-01-12 20:07:02 1515805622.208884: $GPRMC,010703,V,3946.9509,N,08404.9465,W,0.9143,175.839,130118,,*22
2018-01-12 20:07:02 1515805622.209068: $GPGSA,A,1,8,23,27,7,,,,,,,,,,,,*39
2018-01-12 20:07:03 1515805623.546200: $GPGSV,3,1,10,08,73,132,20,23,29,189,21,27,47,052,06,07,56,315,09*70
2018-01-12 20:07:03 1515805623.546385: $GPGSV,3,2,10,16,23,060,04,09,48,229,12,30,29,306,00,11,20,168,00*72
2018-01-12 20:07:03 1515805623.546452: $GPGSV,3,3,10,28,14,258,00,138,38,213,00*49
2018-01-12 20:07:03 1515805623.658559: $GPRMC,010704,V,3946.9505,N,08404.9465,W,0.9143,175.839,130118,,*29
2018-01-12 20:07:03 1515805623.658734: $GPGSA,A,1,8,23,27,,,,,,,,,,,,,*0E
2018-01-12 20:07:04 1515805624.215182: $GPZDA,010705.08,13,01,2018,00,00*65
2018-01-12 20:07:04 1515805624.215370: $GPGGA,010705,3946.9501,N,08404.9465,W,1,03,1.80,312.06,M,-33.324,M,,*74
2018-01-12 20:07:04 1515805624.215437: $GPRMC,010705,A,3946.9501,N,08404.9465,W,1.4274,157.350,130118,,*34
2018-01-12 20:07:04 1515805624.215498: $GPGSA,A,3,8,23,27,,,,,,,,,,4.8,1.8,4.6*09
2018-01-12 20:07:04 1515805624.215554: $GPGBS,010705,14.24,M,16.36,M,105.11,M*38
2018-01-12 20:07:05 1515805625.217514: $GPZDA,010706.08,13,01,2018,00,00*66
2018-01-12 20:07:05 1515805625.217699: $GPGGA,010706,3946.9500,N,08404.9465,W,1,03,1.60,310.66,M,-33.324,M,,*7C
2018-01-12 20:07:05 1515805625.217769: $GPRMC,010706,A,3946.9500,N,08404.9465,W,1.4274,157.350,130118,,*36
2018-01-12 20:07:05 1515805625.217833: $GPGSA,A,3,8,23,27,,,,,,,,,,4.8,1.6,4.6*07
2018-01-12 20:07:06 1515805626.551631: $GPGSV,3,1,10,08,73,132,20,23,29,189,21,27,47,052,12,07,56,315,10*7D
2018-01-12 20:07:06 1515805626.551822: $GPGSV,3,2,10,16,23,060,04,09,48,229,17,30,29,306,00,11,20,168,00*77
2018-01-12 20:07:06 1515805626.551892: $GPGSV,3,3,10,28,14,258,00,138,38,213,00*49
2018-01-12 20:07:06 1515805626.665405: $GPZDA,010707.00,13,01,2018,00,00*6F
2018-01-12 20:07:06 1515805626.665579: $GPGGA,010707,3946.9497,N,08404.9465,W,1,05,3.00,311.42,M,-33.324,M,,*77
2018-01-12 20:07:06 1515805626.665703: $GPRMC,010707,A,3946.9497,N,08404.9465,W,1.7397,162.448,130118,,*3F
2018-01-12 20:07:06 1515805626.665767: $GPGSA,A,3,8,23,27,7,9,,,,,,,,4.8,3.0,4.6*0D
2018-01-12 20:07:07 1515805627.217998: $GPZDA,010708.00,13,01,2018,00,00*60
2018-01-12 20:07:07 1515805627.218173: $GPGGA,010708,3946.9496,N,08404.9459,W,1,05,1.60,311.50,M,-33.324,M,,*71
2018-01-12 20:07:07 1515805627.218239: $GPRMC,010708,A,3946.9496,N,08404.9459,W,1.8512,146.079,130118,,*3A
2018-01-12 20:07:07 1515805627.218300: $GPGSA,A,3,8,23,27,7,9,,,,,,,,4.8,1.6,4.6*09
2018-01-12 20:07:08 1515805628.218249: $GPZDA,010709.00,13,01,2018,00,00*61
2018-01-12 20:07:08 1515805628.218421: $GPGGA,010709,3946.9493,N,08404.9452,W,1,05,1.60,312.34,M,-33.324,M,,*7F
2018-01-12 20:07:08 1515805628.218488: $GPRMC,010709,A,3946.9493,N,08404.9452,W,2.1154,143.789,130118,,*34
2018-01-12 20:07:08 1515805628.218549: $GPGSA,A,3,8,23,27,7,9,,,,,,,,4.8,1.6,4.6*09
2018-01-12 20:07:09 1515805629.552758: $GPGSV,3,1,10,08,73,132,19,23,29,189,21,27,47,052,16,07,56,315,08*7A
2018-01-12 20:07:10 1515805630.481824: $GPGSV,3,2,10,16,23,060,04,09,48,229,17,28,14,258,08,30,29,306,00*72
2018-01-12 20:07:10 1515805630.481993: $GPGSV,3,3,10,11,20,168,00,138,38,213,00*44
2018-01-12 20:07:10 1515805630.482104: $GPZDA,010710.00,13,01,2018,00,00*69
2018-01-12 20:07:10 1515805630.482164: $GPGGA,010710,3946.9490,N,08404.9447,W,1,05,1.60,314.59,M,-33.324,M,,*7D
2018-01-12 20:07:10 1515805630.482226: $GPRMC,010710,A,3946.9490,N,08404.9447,W,1.8275,136.855,130118,,*3D
2018-01-12 20:07:10 1515805630.482286: $GPGSA,A,3,8,23,27,7,9,,,,,,,,4.8,1.6,4.6*09
2018-01-12 20:07:10 1515805630.482341: $GPZDA,010711.00,13,01,2018,00,00*68
2018-01-12 20:07:10 1515805630.482395: $GPGGA,010711,3946.9485,N,08404.9447,W,1,05,2.80,313.95,M,-33.324,M,,*72
2018-01-12 20:07:10 1515805630.482455: $GPRMC,010711,A,3946.9485,N,08404.9447,W,1.4614,133.611,130118,,*3C
2018-01-12 20:07:10 1515805630.482514: $GPGSA,A,3,8,23,27,7,9,,,,,,,,4.8,2.8,4.6*04
2018-01-12 20:07:11 1515805631.223603: $GPZDA,010712.00,13,01,2018,00,00*6B
2018-01-12 20:07:11 1515805631.223809: $GPGGA,010712,3946.9485,N,08404.9440,W,1,05,2.80,314.03,M,-33.324,M,,*7E
2018-01-12 20:07:11 1515805631.223881: $GPRMC,010712,A,3946.9485,N,08404.9440,W,1.5462,122.790,130118,,*32
2018-01-12 20:07:11 1515805631.223944: $GPGSA,A,3,8,23,27,7,9,,,,,,,,4.8,2.8,4.6*04
2018-01-12 20:07:12 1515805632.553451: $GPGSV,3,1,10,08,73,132,19,23,29,189,22,27,47,052,16,07,56,315,16*76
2018-01-12 20:07:12 1515805632.553649: $GPGSV,3,2,10,16,23,060,04,09,48,229,17,28,14,258,08,30,29,306,00*72
2018-01-12 20:07:12 1515805632.553716: $GPGSV,3,3,10,11,20,168,00,138,38,213,00*44
2018-01-12 20:07:12 1515805632.667105: $GPZDA,010713.00,13,01,2018,00,00*6A
2018-01-12 20:07:12 1515805632.667276: $GPGGA,010713,3946.9478,N,08404.9434,W,1,05,1.60,315.64,M,-33.324,M,,*73
2018-01-12 20:07:12 1515805632.667342: $GPRMC,010713,A,3946.9478,N,08404.9434,W,2.3461,121.527,130118,,*39
2018-01-12 20:07:12 1515805632.667403: $GPGSA,A,3,8,23,27,7,9,,,,,,,,4.8,1.6,4.6*09
2018-01-12 20:07:13 1515805633.219745: $GPZDA,010714.00,13,01,2018,00,00*6D
2018-01-12 20:07:13 1515805633.219919: $GPGGA,010714,3946.9482,N,08404.9440,W,1,05,1.40,314.79,M,-33.324,M,,*7D
2018-01-12 20:07:13 1515805633.219987: $GPRMC,010714,A,3946.9482,N,08404.9440,W,2.2459,128.480,130118,,*37
2018-01-12 20:07:13 1515805633.220048: $GPGSA,A,3,8,23,27,7,9,,,,,,,,4.8,1.4,4.6*0B
2018-01-12 20:07:14 1515805634.218802: $GPZDA,010715.00,13,01,2018,00,00*6C
2018-01-12 20:07:14 1515805634.219003: $GPGGA,010715,3946.9486,N,08404.9454,W,1,05,1.40,313.87,M,-33.324,M,,*7B
2018-01-12 20:07:14 1515805634.219071: $GPRMC,010715,A,3946.9486,N,08404.9454,W,1.9679,140.575,130118,,*3A
2018-01-12 20:07:14 1515805634.219133: $GPGSA,A,3,8,23,27,7,9,,,,,,,,4.8,1.4,4.6*0B
2018-01-12 20:07:15 1515805635.554559: $GPGSV,3,1,10,08,73,132,18,23,29,189,21,27,47,052,16,07,56,315,17*75
2018-01-12 20:07:15 1515805635.554766: $GPGSV,3,2,10,30,29,306,00,09,48,229,17,28,14,258,10,16,23,060,00*7F
2018-01-12 20:07:15 1515805635.554882: $GPGSV,3,3,10,11,20,168,00,138,38,213,00*44
2018-01-12 20:07:15 1515805635.668237: $GPZDA,010716.00,13,01,2018,00,00*6F
2018-01-12 20:07:15 1515805635.668409: $GPGGA,010716,3946.9489,N,08404.9453,W,1,06,1.40,313.11,M,-33.324,M,,*7C
2018-01-12 20:07:15 1515805635.668477: $GPRMC,010716,A,3946.9489,N,08404.9453,W,2.1154,143.789,130118,,*30
2018-01-12 20:07:15 1515805635.668538: $GPGSA,A,3,8,23,27,7,9,28,,,,,,,4.8,1.4,4.6*01
2018-01-12 20:07:16 1515805636.217515: $GPZDA,010717.00,13,01,2018,00,00*6E
2018-01-12 20:07:16 1515805636.217690: $GPGGA,010717,3946.9479,N,08404.9455,W,1,06,1.40,315.40,M,-33.324,M,,*76
2018-01-12 20:07:16 1515805636.217773: $GPRMC,010717,A,3946.9479,N,08404.9455,W,2.3823,142.010,130118,,*35
2018-01-12 20:07:16 1515805636.217836: $GPGSA,A,3,8,23,27,7,9,28,,,,,,,4.8,1.4,4.6*01
2018-01-12 20:07:17 1515805637.217696: $GPZDA,010718.00,13,01,2018,00,00*61
2018-01-12 20:07:17 1515805637.217880: $GPGGA,010718,3946.9475,N,08404.9449,W,1,06,1.40,316.24,M,-33.324,M,,*79
2018-01-12 20:07:17 1515805637.217948: $GPRMC,010718,A,3946.9475,N,08404.9449,W,2.3265,131.848,130118,,*32
2018-01-12 20:07:17 1515805637.218010: $GPGSA,A,3,8,23,27,7,9,28,,,,,,,4.8,1.4,4.6*01
2018-01-12 20:07:18 1515805638.552747: $GPGSV,3,1,10,08,73,132,17,23,29,189,21,27,47,052,16,07,56,315,17*7A
2018-01-12 20:07:18 1515805638.552930: $GPGSV,3,2,10,30,29,306,00,09,48,229,17,28,14,258,07,16,23,060,00*79
2018-01-12 20:07:18 1515805638.552997: $GPGSV,3,3,10,11,20,168,00,138,38,213,00*44
2018-01-12 20:07:18 1515805638.666039: $GPZDA,010719.00,13,01,2018,00,00*60
2018-01-12 20:07:18 1515805638.666211: $GPGGA,010719,3946.9471,N,08404.9443,W,1,06,1.60,317.09,M,-33.324,M,,*7A
2018-01-12 20:07:18 1515805638.666277: $GPRMC,010719,A,3946.9471,N,08404.9443,W,2.4100,124.975,130118,,*31
2018-01-12 20:07:18 1515805638.666338: $GPGSA,A,3,8,23,27,7,9,28,,,,,,,4.8,1.6,4.6*03
