2017-12-14 12:01:10 1513270870.753477: {"class":"VERSION","release":"3.16","rev":"3.16-4","proto_major":3,"proto_minor":11}
2017-12-14 12:01:10 1513270870.753826: {"class":"DEVICES","devices":[{"class":"DEVICE","path":"/dev/ttyUSB0","driver":"SiRF","subtype":"9\u0006GSD4e_4.1.2-P1_RPATCH.05-F-GPS-4R-1510281 11/03/2015 307","activated":"2017-12-14T17:01:10.348Z","flags":1,"native":1,"bps":4800,"parity":"N","stopbits":1,"cycle":1.00}]}
2017-12-14 12:01:10 1513270870.753946: {"class":"WATCH","enable":true,"json":false,"nmea":true,"raw":0,"scaled":false,"timing":false,"split24":false,"pps":false}
2017-12-14 12:01:11 1513270871.544062: $GPGSV,3,1,11,21,71,196,23,15,44,051,23,18,66,322,20,20,40,088,26*7A
2017-12-14 12:01:11 1513270871.544243: $GPGSV,3,2,11,24,46,121,24,10,35,295,00,27,19,297,00,32,15,234,00*70
2017-12-14 12:01:11 1513270871.544309: $GPGSV,3,3,11,13,14,046,00,08,03,328,00,138,38,213,00*7F
2017-12-14 12:01:11 1513270871.657673: $GPZDA,170112.00,14,12,2017,00,00*60
2017-12-14 12:01:11 1513270871.657811: $GPGGA,170112,3946.9593,N,08404.9257,W,1,05,2.40,343.28,M,-33.324,M,,*7E
2017-12-14 12:01:11 1513270871.657878: $GPRMC,170112,A,3946.9593,N,08404.9257,W,0.8054,68.645,141217,,*04
2017-12-14 12:01:11 1513270871.657938: $GPGSA,A,3,21,15,18,20,24,,,,,,,,6.6,2.4,6.2*3A
2017-12-14 12:01:12 1513270872.209087: $GPZDA,170113.00,14,12,2017,00,00*61
2017-12-14 12:01:12 1513270872.209263: $GPGGA,170113,3946.9589,N,08404.9257,W,1,05,2.40,344.04,M,-33.324,M,,*7D
2017-12-14 12:01:12 1513270872.209329: $GPRMC,170113,A,3946.9589,N,08404.9257,W,0.5075,72.257,141217,,*0C
2017-12-14 12:01:12 1513270872.209392: $GPGSA,A,3,21,15,18,20,24,,,,,,,,6.6,2.4,6.2*3A
2017-12-14 12:01:13 1513270873.209187: $GPZDA,170114.00,14,12,2017,00,00*66
2017-12-14 12:01:13 1513270873.209340: $GPGGA,170114,3946.9585,N,08404.9257,W,1,05,2.40,343.40,M,-33.324,M,,*71
2017-12-14 12:01:13 1513270873.209405: $GPRMC,170114,A,3946.9585,N,08404.9257,W,0.7288,106.152,141217,,*31
2017-12-14 12:01:13 1513270873.209467: $GPGSA,A,3,21,15,18,20,24,,,,,,,,6.6,2.4,6.2*3A
2017-12-14 12:01:14 1513270874.545144: $GPGSV,3,1,11,21,71,196,23,15,44,051,23,18,66,322,19,20,40,088,26*70
2017-12-14 12:01:14 1513270874.545304: $GPGSV,3,2,11,24,46,121,23,10,35,295,00,27,19,297,00,32,15,234,00*77
2017-12-14 12:01:14 1513270874.545371: $GPGSV,3,3,11,13,14,046,00,08,03,328,00,138,38,213,00*7F
2017-12-14 12:01:14 1513270874.658562: $GPZDA,170115.00,14,12,2017,00,00*67
2017-12-14 12:01:14 1513270874.658748: $GPGGA,170115,3946.9582,N,08404.9265,W,1,05,2.40,344.09,M,-33.324,M,,*7C
2017-12-14 12:01:14 1513270874.658815: $GPRMC,170115,A,3946.9582,N,08404.9265,W,0.2758,128.234,141217,,*34
2017-12-14 12:01:14 1513270874.658878: $GPGSA,A,3,21,15,18,20,24,,,,,,,,6.6,2.4,6.2*3A
2017-12-14 12:01:15 1513270875.209448: $GPZDA,170116.00,14,12,2017,00,00*64
2017-12-14 12:01:15 1513270875.209622: $GPGGA,170116,3946.9578,N,08404.9265,W,1,05,2.40,343.45,M,-33.324,M,,*75
2017-12-14 12:01:15 1513270875.209689: $GPRMC,170116,A,3946.9578,N,08404.9265,W,0.2758,128.234,141217,,*32
2017-12-14 12:01:15 1513270875.209753: $GPGSA,A,3,21,15,18,20,24,,,,,,,,6.6,2.4,6.2*3A
2017-12-14 12:01:16 1513270876.210791: $GPZDA,170117.00,14,12,2017,00,00*65
2017-12-14 12:01:16 1513270876.210994: $GPGGA,170117,3946.9578,N,08404.9265,W,1,05,2.40,343.45,M,-33.324,M,,*74
2017-12-14 12:01:16 1513270876.211063: $GPRMC,170117,A,3946.9578,N,08404.9265,W,0.0000,0.000,141217,,*35
2017-12-14 12:01:16 1513270876.211129: $GPGSA,A,3,21,15,18,20,24,,,,,,,,6.6,2.4,6.2*3A
2017-12-14 12:01:17 1513270877.545779: $GPGSV,3,1,11,21,71,196,22,15,44,051,24,18,66,322,19,20,40,088,26*76
2017-12-14 12:01:17 1513270877.545957: $GPGSV,3,2,11,24,46,121,23,10,35,295,14,27,19,297,00,32,15,234,00*72
2017-12-14 12:01:17 1513270877.546026: $GPGSV,3,3,11,13,14,046,00,08,03,328,00,138,38,213,00*7F
2017-12-14 12:01:17 1513270877.659172: $GPZDA,170118.00,14,12,2017,00,00*6A
2017-12-14 12:01:17 1513270877.659326: $GPGGA,170118,3946.9578,N,08404.9272,W,1,05,2.40,343.37,M,-33.324,M,,*78
2017-12-14 12:01:17 1513270877.659391: $GPRMC,170118,A,3946.9578,N,08404.9272,W,0.4844,273.795,141217,,*3D
2017-12-14 12:01:17 1513270877.659505: $GPGSA,A,3,21,15,18,20,24,,,,,,,,6.6,2.4,6.2*3A
2017-12-14 12:01:18 1513270878.214299: $GPZDA,170119.00,14,12,2017,00,00*6B
2017-12-14 12:01:18 1513270878.214458: $GPGGA,170119,3946.9578,N,08404.9272,W,1,05,2.40,343.37,M,-33.324,M,,*79
2017-12-14 12:01:18 1513270878.214523: $GPRMC,170119,A,3946.9578,N,08404.9272,W,0.2422,273.795,141217,,*36
2017-12-14 12:01:18 1513270878.214585: $GPGSA,A,3,21,15,18,20,24,,,,,,,,6.6,2.4,6.2*3A
2017-12-14 12:01:19 1513270879.210651: $GPZDA,170120.00,14,12,2017,00,00*61
2017-12-14 12:01:19 1513270879.210822: $GPGGA,170120,3946.9578,N,08404.9272,W,1,05,2.40,343.37,M,-33.324,M,,*73
2017-12-14 12:01:19 1513270879.210887: $GPRMC,170120,A,3946.9578,N,08404.9272,W,0.0000,0.000,141217,,*37
2017-12-14 12:01:19 1513270879.210950: $GPGSA,A,3,21,15,18,20,24,,,,,,,,6.6,2.4,6.2*3A
2017-12-14 12:01:20 1513270880.550159: $GPGSV,3,1,11,21,71,196,22,15,44,051,24,18,66,322,19,20,40,088,26*76
2017-12-14 12:01:20 1513270880.550335: $GPGSV,3,2,11,24,46,121,23,10,35,295,13,27,19,297,09,32,15,234,00*7C
2017-12-14 12:01:20 1513270880.550402: $GPGSV,3,3,11,13,14,046,00,08,03,328,00,138,38,213,00*7F
2017-12-14 12:01:20 1513270880.663596: $GPZDA,170121.00,14,12,2017,00,00*60
2017-12-14 12:01:20 1513270880.663753: $GPGGA,170121,3946.9578,N,08404.9279,W,1,06,1.80,343.29,M,-33.324,M,,*7A
2017-12-14 12:01:20 1513270880.663819: $GPRMC,170121,A,3946.9578,N,08404.9279,W,0.2422,273.795,141217,,*36
2017-12-14 12:01:20 1513270880.663880: $GPGSA,A,3,21,15,18,20,24,10,,,,,,,6.6,1.8,6.2*34
2017-12-14 12:01:21 1513270881.212666: $GPZDA,170122.00,14,12,2017,00,00*63
2017-12-14 12:01:21 1513270881.212822: $GPGGA,170122,3946.9578,N,08404.9279,W,1,06,1.80,343.29,M,-33.324,M,,*79
2017-12-14 12:01:21 1513270881.212888: $GPRMC,170122,A,3946.9578,N,08404.9279,W,0.4844,93.795,141217,,*03
2017-12-14 12:01:21 1513270881.212950: $GPGSA,A,3,21,15,18,20,24,10,,,,,,,6.6,1.8,6.2*34
2017-12-14 12:01:22 1513270882.211448: $GPZDA,170123.00,14,12,2017,00,00*62
2017-12-14 12:01:22 1513270882.211667: $GPGGA,170123,3946.9579,N,08404.9286,W,1,06,1.80,343.21,M,-33.324,M,,*71
2017-12-14 12:01:22 1513270882.211748: $GPRMC,170123,A,3946.9579,N,08404.9286,W,0.0000,0.000,141217,,*3E
2017-12-14 12:01:22 1513270882.211833: $GPGSA,A,3,21,15,18,20,24,10,,,,,,,6.6,1.8,6.2*34
2017-12-14 12:01:23 1513270883.550029: $GPGSV,3,1,11,21,71,196,22,15,44,051,24,18,66,322,18,20,40,088,26*77
2017-12-14 12:01:23 1513270883.550209: $GPGSV,3,2,11,24,46,121,23,10,35,295,12,27,19,297,12,32,15,234,00*77
2017-12-14 12:01:23 1513270883.550275: $GPGSV,3,3,11,13,14,046,00,08,03,328,00,138,38,213,00*7F
2017-12-14 12:01:23 1513270883.663477: $GPZDA,170124.00,14,12,2017,00,00*65
2017-12-14 12:01:23 1513270883.663641: $GPGGA,170124,3946.9575,N,08404.9300,W,1,07,1.80,342.41,M,-33.324,M,,*73
2017-12-14 12:01:23 1513270883.663708: $GPRMC,170124,A,3946.9575,N,08404.9300,W,0.5951,238.685,141217,,*30
2017-12-14 12:01:23 1513270883.663772: $GPGSA,A,3,21,15,18,20,24,10,27,,,,,,6.6,1.8,6.2*31
2017-12-14 12:01:24 1513270884.215050: $GPZDA,170125.00,14,12,2017,00,00*64
2017-12-14 12:01:24 1513270884.215226: $GPGGA,170125,3946.9579,N,08404.9306,W,1,07,1.80,341.57,M,-33.324,M,,*7C
2017-12-14 12:01:24 1513270884.215293: $GPRMC,170125,A,3946.9579,N,08404.9306,W,0.5912,309.173,141217,,*31
2017-12-14 12:01:24 1513270884.215355: $GPGSA,A,3,21,15,18,20,24,10,27,,,,,,6.6,1.8,6.2*31
2017-12-14 12:01:25 1513270885.214803: $GPZDA,170126.00,14,12,2017,00,00*67
2017-12-14 12:01:25 1513270885.214981: $GPGGA,170126,3946.9583,N,08404.9306,W,1,07,1.80,342.21,M,-33.324,M,,*78
2017-12-14 12:01:25 1513270885.215048: $GPRMC,170126,A,3946.9583,N,08404.9306,W,0.3423,4.197,141217,,*3A
2017-12-14 12:01:25 1513270885.215113: $GPGSA,A,3,21,15,18,20,24,10,27,,,,,,6.6,1.8,6.2*31
2017-12-14 12:01:26 1513270886.550661: $GPGSV,3,1,11,21,71,196,22,15,44,051,23,18,66,322,18,20,40,088,26*70
2017-12-14 12:01:26 1513270886.550845: $GPGSV,3,2,11,24,46,121,23,10,35,295,12,27,19,297,13,32,15,234,00*76
2017-12-14 12:01:26 1513270886.550965: $GPGSV,3,3,11,13,14,046,00,08,03,328,00,138,38,213,00*7F
2017-12-14 12:01:26 1513270886.664087: $GPZDA,170127.00,14,12,2017,00,00*66
2017-12-14 12:01:26 1513270886.664284: $GPGGA,170127,3946.9584,N,08404.9313,W,1,07,1.80,342.13,M,-33.324,M,,*7B
2017-12-14 12:01:26 1513270886.664359: $GPRMC,170127,A,3946.9584,N,08404.9313,W,0.2422,93.795,141217,,*02
2017-12-14 12:01:26 1513270886.664422: $GPGSA,A,3,21,15,18,20,24,10,27,,,,,,6.6,1.8,6.2*31
2017-12-14 12:01:27 1513270887.215423: $GPZDA,170128.00,14,12,2017,00,00*69
2017-12-14 12:01:27 1513270887.215600: $GPGGA,170128,3946.9580,N,08404.9320,W,1,07,1.80,341.41,M,-33.324,M,,*74
2017-12-14 12:01:27 1513270887.215667: $GPRMC,170128,A,3946.9580,N,08404.9320,W,0.5951,58.685,141217,,*00
2017-12-14 12:01:27 1513270887.215731: $GPGSA,A,3,21,15,18,20,24,10,27,,,,,,6.6,1.8,6.2*31
2017-12-14 12:01:28 1513270888.215573: $GPZDA,170129.00,14,12,2017,00,00*68
2017-12-14 12:01:28 1513270888.215740: $GPGGA,170129,3946.9580,N,08404.9327,W,1,07,1.80,341.33,M,-33.324,M,,*77
2017-12-14 12:01:28 1513270888.215808: $GPRMC,170129,A,3946.9580,N,08404.9327,W,0.4844,93.795,141217,,*05
2017-12-14 12:01:28 1513270888.215870: $GPGSA,A,3,21,15,18,20,24,10,27,,,,,,6.6,1.8,6.2*31
2017-12-14 12:01:29 1513270889.551768: $GPGSV,3,1,11,21,71,196,21,15,44,051,23,18,66,322,17,20,40,088,25*7F
2017-12-14 12:01:29 1513270889.551916: $GPGSV,3,2,11,24,46,121,24,10,35,295,11,27,19,297,09,32,15,234,00*79
2017-12-14 12:01:29 1513270889.551984: $GPGSV,3,3,11,13,14,046,00,08,03,328,00,138,38,213,00*7F
2017-12-14 12:01:29 1513270889.665135: $GPZDA,170130.00,14,12,2017,00,00*60
2017-12-14 12:01:29 1513270889.665304: $GPGGA,170130,3946.9576,N,08404.9334,W,1,07,1.80,340.61,M,-33.324,M,,*72
2017-12-14 12:01:29 1513270889.665370: $GPRMC,170130,A,3946.9576,N,08404.9334,W,1.1824,129.173,141217,,*3A
2017-12-14 12:01:29 1513270889.665433: $GPGSA,A,3,21,15,18,20,24,10,27,,,,,,6.6,1.8,6.2*31
2017-12-14 12:01:30 1513270890.214857: $GPZDA,170131.00,14,12,2017,00,00*61
2017-12-14 12:01:30 1513270890.215042: $GPGGA,170131,3946.9569,N,08404.9335,W,1,07,1.80,340.73,M,-33.324,M,,*7F
2017-12-14 12:01:30 1513270890.215114: $GPRMC,170131,A,3946.9569,N,08404.9335,W,1.7178,138.722,141217,,*30
2017-12-14 12:01:30 1513270890.215177: $GPGSA,A,3,21,15,18,20,24,10,27,,,,,,6.6,1.8,6.2*31
