2018-01-11 19:58:31 1515718711.795627: {"class":"VERSION","release":"3.16","rev":"3.16-4","proto_major":3,"proto_minor":11}
2018-01-11 19:58:31 1515718711.795965: {"class":"DEVICES","devices":[{"class":"DEVICE","path":"/dev/ttyUSB0","driver":"SiRF","subtype":"9\u0006GSD4e_4.1.2-P1_RPATCH.05-F-GPS-4R-1510281 11/03/2015 307","activated":"2018-01-12T00:58:31.517Z","flags":1,"native":1,"bps":4800,"parity":"N","stopbits":1,"cycle":1.00}]}
2018-01-11 19:58:31 1515718711.796080: {"class":"WATCH","enable":true,"json":false,"nmea":true,"raw":0,"scaled":false,"timing":false,"split24":false,"pps":false}
2018-01-11 19:58:32 1515718712.711719: $GPGSV,3,1,11,07,50,312,42,08,69,147,46,09,52,237,43,11,15,169,39*77
2018-01-11 19:58:32 1515718712.711888: $GPGSV,3,2,11,16,27,057,46,23,35,192,47,27,52,058,51,28,10,255,29*7D
2018-01-11 19:58:32 1515718712.711956: $GPGSV,3,3,11,30,24,304,38,26,02,069,00,138,38,213,45*79
2018-01-11 19:58:32 1515718712.825450: $GPZDA,005833.00,12,01,2018,00,00*62
2018-01-11 19:58:32 1515718712.825623: $GPGGA,005833,3946.9565,N,08404.9804,W,2,10,0.80,310.24,M,-33.324,M,,*71
2018-01-11 19:58:32 1515718712.825691: $GPRMC,005833,A,3946.9565,N,08404.9804,W,0.0000,0.000,120118,,*33
2018-01-11 19:58:32 1515718712.825751: $GPGSA,A,3,7,8,9,11,16,23,27,28,30,138,,,4.0,0.8,3.5*3E
2018-01-11 19:58:33 1515718713.392514: $GPZDA,005834.00,12,01,2018,00,00*65
2018-01-11 19:58:33 1515718713.392684: $GPGGA,005834,3946.9565,N,08404.9804,W,2,10,0.80,310.24,M,-33.324,M,,*76
2018-01-11 19:58:33 1515718713.392749: $GPRMC,005834,A,3946.9565,N,08404.9804,W,0.0000,0.000,120118,,*34
2018-01-11 19:58:33 1515718713.392811: $GPGSA,A,3,7,8,9,11,16,23,27,28,30,138,,,4.0,0.8,3.5*3E
2018-01-11 19:58:34 1515718714.393375: $GPZDA,005835.00,12,01,2018,00,00*64
2018-01-11 19:58:34 1515718714.393547: $GPGGA,005835,3946.9565,N,08404.9804,W,2,10,0.80,310.24,M,-33.324,M,,*77
2018-01-11 19:58:34 1515718714.393611: $GPRMC,005835,A,3946.9565,N,08404.9804,W,0.0000,0.000,120118,,*35
2018-01-11 19:58:34 1515718714.393673: $GPGSA,A,3,7,8,9,11,16,23,27,28,30,138,,,4.0,0.8,3.5*3E
2018-01-11 19:58:35 1515718715.728335: $GPGSV,3,1,11,07,50,312,42,08,69,147,46,09,52,237,42,11,15,169,38*77
2018-01-11 19:58:35 1515718715.728495: $GPGSV,3,2,11,16,27,057,46,23,35,192,48,27,52,058,50,28,10,255,30*7B
2018-01-11 19:58:35 1515718715.728563: $GPGSV,3,3,11,30,24,304,38,26,02,069,00,138,38,213,45*79
2018-01-11 19:58:35 1515718715.841995: $GPZDA,005836.00,12,01,2018,00,00*67
2018-01-11 19:58:35 1515718715.842167: $GPGGA,005836,3946.9565,N,08404.9804,W,2,10,0.80,310.24,M,-33.324,M,,*74
2018-01-11 19:58:35 1515718715.842233: $GPRMC,005836,A,3946.9565,N,08404.9804,W,0.0000,0.000,120118,,*36
2018-01-11 19:58:35 1515718715.842298: $GPGSA,A,3,7,8,9,11,16,23,27,28,30,138,,,4.0,0.8,3.5*3E
2018-01-11 19:58:36 1515718716.488099: $GPZDA,005837.00,12,01,2018,00,00*66
2018-01-11 19:58:36 1515718716.488256: $GPGGA,005837,3946.9565,N,08404.9804,W,2,10,0.80,310.24,M,-33.324,M,,*75
2018-01-11 19:58:36 1515718716.488324: $GPRMC,005837,A,3946.9565,N,08404.9804,W,0.0000,0.000,120118,,*37
2018-01-11 19:58:36 1515718716.488388: $GPGSA,A,3,7,8,9,11,16,23,27,28,30,138,,,4.0,0.8,3.5*3E
2018-01-11 19:58:36 1515718716.488445: $GPGBS,005837,3.65,M,6.21,M,20.10,M*01
2018-01-11 19:58:37 1515718717.391487: $GPZDA,005838.00,12,01,2018,00,00*69
2018-01-11 19:58:37 1515718717.391652: $GPGGA,005838,3946.9565,N,08404.9804,W,2,10,0.80,310.24,M,-33.324,M,,*7A
2018-01-11 19:58:37 1515718717.391718: $GPRMC,005838,A,3946.9565,N,08404.9804,W,0.0000,0.000,120118,,*38
2018-01-11 19:58:37 1515718717.391780: $GPGSA,A,3,7,8,9,11,16,23,27,28,30,138,,,4.0,0.8,3.5*3E
2018-01-11 19:58:37 1515718717.391837: $GPGBS,005838,3.65,M,6.21,M,20.10,M*0E
2018-01-11 19:58:38 1515718718.709432: $GPGSV,3,1,11,07,50,312,42,08,69,147,46,09,52,237,42,11,15,169,38*77
2018-01-11 19:58:38 1515718718.709584: $GPGSV,3,2,11,16,27,057,46,23,35,192,48,27,52,058,51,28,10,255,30*7A
2018-01-11 19:58:38 1515718718.709649: $GPGSV,3,3,11,30,24,304,38,26,02,069,02,138,38,213,45*7B
2018-01-11 19:58:38 1515718718.821655: $GPZDA,005839.00,12,01,2018,00,00*68
2018-01-11 19:58:38 1515718718.821889: $GPGGA,005839,3946.9565,N,08404.9804,W,2,10,0.80,310.24,M,-33.324,M,,*7B
2018-01-11 19:58:38 1515718718.821958: $GPRMC,005839,A,3946.9565,N,08404.9804,W,0.0000,0.000,120118,,*39
2018-01-11 19:58:38 1515718718.822021: $GPGSA,A,3,7,8,9,11,16,23,27,28,30,138,,,4.0,0.8,3.5*3E
2018-01-11 19:58:39 1515718719.392760: $GPZDA,005840.00,12,01,2018,00,00*66
2018-01-11 19:58:39 1515718719.392909: $GPGGA,005840,3946.9565,N,08404.9804,W,2,10,0.80,310.24,M,-33.324,M,,*75
2018-01-11 19:58:39 1515718719.392976: $GPRMC,005840,A,3946.9565,N,08404.9804,W,0.0000,0.000,120118,,*37
2018-01-11 19:58:39 1515718719.393035: $GPGSA,A,3,7,8,9,11,16,23,27,28,30,138,,,4.0,0.8,3.5*3E
2018-01-11 19:58:40 1515718720.376549: $GPZDA,005841.00,12,01,2018,00,00*67
2018-01-11 19:58:40 1515718720.376714: $GPGGA,005841,3946.9565,N,08404.9804,W,2,10,0.80,310.24,M,-33.324,M,,*74
2018-01-11 19:58:40 1515718720.376781: $GPRMC,005841,A,3946.9565,N,08404.9804,W,0.0000,0.000,120118,,*36
2018-01-11 19:58:40 1515718720.376843: $GPGSA,A,3,7,8,9,11,16,23,27,28,30,138,,,4.0,0.8,3.5*3E
2018-01-11 19:58:41 1515718721.727281: $GPGSV,3,1,11,07,50,312,42,08,69,147,46,09,52,237,43,11,15,169,38*76
2018-01-11 19:58:41 1515718721.727458: $GPGSV,3,2,11,16,27,057,46,23,35,192,48,27,52,058,51,28,10,255,31*7B
2018-01-11 19:58:41 1515718721.727524: $GPGSV,3,3,11,30,24,304,38,26,02,069,00,138,38,213,45*79
