2017-12-29 11:06:48 1514563608.786244: {"class":"VERSION","release":"3.16","rev":"3.16-4","proto_major":3,"proto_minor":11}
2017-12-29 11:06:48 1514563608.786590: {"class":"DEVICES","devices":[{"class":"DEVICE","path":"/dev/ttyUSB0","driver":"SiRF","subtype":"9\u0006GSD4e_4.1.2-P1_RPATCH.05-F-GPS-4R-1510281 11/03/2015 307","activated":"2017-12-29T16:06:48.579Z","flags":1,"native":1,"bps":4800,"parity":"N","stopbits":1,"cycle":1.00}]}
2017-12-29 11:06:48 1514563608.786706: {"class":"WATCH","enable":true,"json":false,"nmea":true,"raw":0,"scaled":false,"timing":false,"split24":false,"pps":false}
2017-12-29 11:06:49 1514563609.437684: $GPZDA,160650.00,29,12,2017,00,00*6E
2017-12-29 11:06:49 1514563609.437830: $GPGGA,160650,3946.9605,N,08404.9812,W,1,11,1.00,318.73,M,-33.324,M,,*7B
2017-12-29 11:06:49 1514563609.437897: $GPRMC,160650,A,3946.9605,N,08404.9812,W,0.0000,0.000,291217,,*3D
2017-12-29 11:06:49 1514563609.437958: $GPGSA,A,3,10,15,18,20,21,24,27,32,13,8,138,,1.7,1.0,1.3*38
2017-12-29 11:06:50 1514563610.756937: $GPGSV,3,1,11,10,38,297,42,15,42,051,50,18,68,328,43,20,38,091,48*7C
2017-12-29 11:06:50 1514563610.757098: $GPGSV,3,2,11,21,68,195,46,24,48,118,48,27,19,294,36,32,17,235,34*77
2017-12-29 11:06:50 1514563610.757165: $GPGSV,3,3,11,13,12,048,29,08,04,327,27,138,38,213,44*71
2017-12-29 11:06:50 1514563610.870552: $GPZDA,160651.00,29,12,2017,00,00*6F
2017-12-29 11:06:50 1514563610.870704: $GPGGA,160651,3946.9605,N,08404.9812,W,1,11,1.00,318.73,M,-33.324,M,,*7A
2017-12-29 11:06:50 1514563610.870771: $GPRMC,160651,A,3946.9605,N,08404.9812,W,0.0000,0.000,291217,,*3C
2017-12-29 11:06:50 1514563610.870831: $GPGSA,A,3,10,15,18,20,21,24,27,32,13,8,138,,1.7,1.0,1.3*38
2017-12-29 11:06:51 1514563611.497179: $GPZDA,160652.00,29,12,2017,00,00*6C
2017-12-29 11:06:51 1514563611.497324: $GPGGA,160652,3946.9605,N,08404.9812,W,1,11,1.00,318.73,M,-33.324,M,,*79
2017-12-29 11:06:51 1514563611.497395: $GPRMC,160652,A,3946.9605,N,08404.9812,W,0.0000,0.000,291217,,*3F
2017-12-29 11:06:51 1514563611.497456: $GPGSA,A,3,10,15,18,20,21,24,27,32,13,8,138,,1.7,1.0,1.3*38
2017-12-29 11:06:52 1514563612.432818: $GPZDA,160653.00,29,12,2017,00,00*6D
2017-12-29 11:06:52 1514563612.432984: $GPGGA,160653,3946.9605,N,08404.9812,W,1,11,1.00,318.73,M,-33.324,M,,*78
2017-12-29 11:06:52 1514563612.433050: $GPRMC,160653,A,3946.9605,N,08404.9812,W,0.0000,0.000,291217,,*3E
2017-12-29 11:06:52 1514563612.433111: $GPGSA,A,3,10,15,18,20,21,24,27,32,13,8,138,,1.7,1.0,1.3*38
2017-12-29 11:06:53 1514563613.752309: $GPGSV,3,1,11,10,38,297,42,15,42,051,49,18,68,328,43,20,38,091,48*74
2017-12-29 11:06:53 1514563613.752473: $GPGSV,3,2,11,21,68,195,46,24,48,118,47,27,19,294,36,32,17,235,34*78
2017-12-29 11:06:53 1514563613.752544: $GPGSV,3,3,11,13,12,048,28,08,04,327,24,138,38,213,44*73
2017-12-29 11:06:53 1514563613.864404: $GPZDA,160654.00,29,12,2017,00,00*6A
2017-12-29 11:06:53 1514563613.864561: $GPGGA,160654,3946.9605,N,08404.9812,W,1,11,1.00,318.73,M,-33.324,M,,*7F
2017-12-29 11:06:53 1514563613.864629: $GPRMC,160654,A,3946.9605,N,08404.9812,W,0.0000,0.000,291217,,*39
2017-12-29 11:06:53 1514563613.864692: $GPGSA,A,3,10,15,18,20,21,24,27,32,13,8,138,,1.7,1.0,1.3*38
2017-12-29 11:06:54 1514563614.438987: $GPZDA,160655.00,29,12,2017,00,00*6B
2017-12-29 11:06:54 1514563614.439134: $GPGGA,160655,3946.9605,N,08404.9812,W,1,11,1.00,318.73,M,-33.324,M,,*7E
2017-12-29 11:06:54 1514563614.439203: $GPRMC,160655,A,3946.9605,N,08404.9812,W,0.0000,0.000,291217,,*38
2017-12-29 11:06:54 1514563614.439271: $GPGSA,A,3,10,15,18,20,21,24,27,32,13,8,138,,1.7,1.0,1.3*38
2017-12-29 11:06:55 1514563615.423676: $GPZDA,160656.00,29,12,2017,00,00*68
2017-12-29 11:06:55 1514563615.423855: $GPGGA,160656,3946.9605,N,08404.9812,W,1,11,1.00,318.73,M,-33.324,M,,*7D
2017-12-29 11:06:55 1514563615.423924: $GPRMC,160656,A,3946.9605,N,08404.9812,W,0.0000,0.000,291217,,*3B
2017-12-29 11:06:55 1514563615.423989: $GPGSA,A,3,10,15,18,20,21,24,27,32,13,8,138,,1.7,1.0,1.3*38
2017-12-29 11:06:56 1514563616.773914: $GPGSV,3,1,11,10,38,297,42,15,42,051,49,18,68,328,43,20,38,091,48*74
2017-12-29 11:06:56 1514563616.774122: $GPGSV,3,2,11,21,68,195,45,24,48,118,47,27,19,294,36,32,17,235,33*7C
2017-12-29 11:06:56 1514563616.774192: $GPGSV,3,3,11,13,12,048,28,08,04,327,15,138,38,213,46*73
2017-12-29 11:06:56 1514563616.887286: $GPZDA,160657.00,29,12,2017,00,00*69
2017-12-29 11:06:56 1514563616.887453: $GPGGA,160657,3946.9605,N,08404.9812,W,1,11,1.00,318.73,M,-33.324,M,,*7C
2017-12-29 11:06:56 1514563616.887522: $GPRMC,160657,A,3946.9605,N,08404.9812,W,0.0000,0.000,291217,,*3A
2017-12-29 11:06:56 1514563616.887584: $GPGSA,A,3,10,15,18,20,21,24,27,32,13,8,138,,1.7,1.0,1.3*38
2017-12-29 11:06:57 1514563617.438137: $GPZDA,160658.00,29,12,2017,00,00*66
2017-12-29 11:06:57 1514563617.438290: $GPGGA,160658,3946.9608,N,08404.9812,W,1,11,1.00,317.96,M,-33.324,M,,*7A
2017-12-29 11:06:57 1514563617.438362: $GPRMC,160658,A,3946.9608,N,08404.9812,W,0.0000,0.000,291217,,*38
2017-12-29 11:06:57 1514563617.438423: $GPGSA,A,3,10,15,18,20,21,24,27,32,13,8,138,,1.7,1.0,1.3*38
2017-12-29 11:06:58 1514563618.423047: $GPZDA,160659.00,29,12,2017,00,00*67
2017-12-29 11:06:58 1514563618.423223: $GPGGA,160659,3946.9612,N,08404.9812,W,1,11,1.00,318.60,M,-33.324,M,,*76
2017-12-29 11:06:58 1514563618.423293: $GPRMC,160659,A,3946.9612,N,08404.9812,W,0.0000,0.000,291217,,*32
2017-12-29 11:06:58 1514563618.423357: $GPGSA,A,3,10,15,18,20,21,24,27,32,13,8,138,,1.7,1.0,1.3*38
2017-12-29 11:06:59 1514563619.757281: $GPGSV,3,1,11,10,38,297,42,15,42,051,49,18,68,328,43,20,38,091,48*74
2017-12-29 11:06:59 1514563619.757429: $GPGSV,3,2,11,21,68,195,45,24,48,118,47,27,19,294,38,32,17,235,33*72
2017-12-29 11:06:59 1514563619.757496: $GPGSV,3,3,11,13,12,048,28,08,04,327,18,138,38,213,45*7D
2017-12-29 11:06:59 1514563619.870899: $GPZDA,160700.00,29,12,2017,00,00*6A
2017-12-29 11:06:59 1514563619.871110: $GPGGA,160700,3946.9612,N,08404.9812,W,1,11,1.00,318.60,M,-33.324,M,,*7B
2017-12-29 11:06:59 1514563619.871183: $GPRMC,160700,A,3946.9612,N,08404.9812,W,0.0000,0.000,291217,,*3F
2017-12-29 11:06:59 1514563619.871249: $GPGSA,A,3,10,15,18,20,21,24,27,32,13,8,138,,1.7,1.0,1.3*38
2017-12-29 11:07:00 1514563620.421788: $GPZDA,160701.00,29,12,2017,00,00*6B
2017-12-29 11:07:00 1514563620.421929: $GPGGA,160701,3946.9612,N,08404.9812,W,1,11,1.00,318.60,M,-33.324,M,,*7A
2017-12-29 11:07:00 1514563620.421996: $GPRMC,160701,A,3946.9612,N,08404.9812,W,0.0000,0.000,291217,,*3E
2017-12-29 11:07:00 1514563620.422056: $GPGSA,A,3,10,15,18,20,21,24,27,32,13,8,138,,1.7,1.0,1.3*38
2017-12-29 11:07:01 1514563621.422203: $GPZDA,160702.00,29,12,2017,00,00*68
2017-12-29 11:07:01 1514563621.422362: $GPGGA,160702,3946.9612,N,08404.9812,W,1,11,1.00,318.60,M,-33.324,M,,*79
2017-12-29 11:07:01 1514563621.422428: $GPRMC,160702,A,3946.9612,N,08404.9812,W,0.0000,0.000,291217,,*3D
2017-12-29 11:07:01 1514563621.422491: $GPGSA,A,3,10,15,18,20,21,24,27,32,13,8,138,,1.7,1.0,1.3*38
2017-12-29 11:07:02 1514563622.757636: $GPGSV,3,1,11,10,38,297,42,15,42,051,49,18,68,328,43,20,38,091,48*74
2017-12-29 11:07:02 1514563622.757798: $GPGSV,3,2,11,21,68,195,45,24,48,118,48,27,19,294,38,32,17,235,32*7C
2017-12-29 11:07:02 1514563622.757866: $GPGSV,3,3,11,13,12,048,28,08,04,327,18,138,38,213,44*7C
2017-12-29 11:07:02 1514563622.871321: $GPZDA,160703.00,29,12,2017,00,00*69
2017-12-29 11:07:02 1514563622.871482: $GPGGA,160703,3946.9612,N,08404.9812,W,1,11,1.00,318.60,M,-33.324,M,,*78
2017-12-29 11:07:02 1514563622.871549: $GPRMC,160703,A,3946.9612,N,08404.9812,W,0.0000,0.000,291217,,*3C
2017-12-29 11:07:02 1514563622.871611: $GPGSA,A,3,10,15,18,20,21,24,27,32,13,8,138,,1.7,1.0,1.3*38
2017-12-29 11:07:03 1514563623.422166: $GPZDA,160704.00,29,12,2017,00,00*6E
2017-12-29 11:07:03 1514563623.422331: $GPGGA,160704,3946.9612,N,08404.9812,W,1,11,1.00,318.60,M,-33.324,M,,*7F
2017-12-29 11:07:03 1514563623.422418: $GPRMC,160704,A,3946.9612,N,08404.9812,W,0.0000,0.000,291217,,*3B
2017-12-29 11:07:03 1514563623.422484: $GPGSA,A,3,10,15,18,20,21,24,27,32,13,8,138,,1.7,1.0,1.3*38
2017-12-29 11:07:04 1514563624.416770: $GPZDA,160705.00,29,12,2017,00,00*6F
2017-12-29 11:07:04 1514563624.416993: $GPGGA,160705,3946.9612,N,08404.9812,W,1,11,1.00,318.60,M,-33.324,M,,*7E
2017-12-29 11:07:04 1514563624.417065: $GPRMC,160705,A,3946.9612,N,08404.9812,W,0.0000,0.000,291217,,*3A
2017-12-29 11:07:04 1514563624.417126: $GPGSA,A,3,10,15,18,20,21,24,27,32,13,8,138,,1.7,1.0,1.3*38
2017-12-29 11:07:05 1514563625.757257: $GPGSV,3,1,11,10,38,297,43,15,42,051,49,18,68,328,43,20,38,091,48*75
2017-12-29 11:07:05 1514563625.757426: $GPGSV,3,2,11,21,68,195,45,24,48,118,47,27,19,294,39,32,17,235,32*72
2017-12-29 11:07:05 1514563625.757510: $GPGSV,3,3,11,13,12,048,28,08,04,327,18,138,38,213,45*7D
2017-12-29 11:07:05 1514563625.870874: $GPZDA,160706.00,29,12,2017,00,00*6C
2017-12-29 11:07:05 1514563625.871086: $GPGGA,160706,3946.9612,N,08404.9812,W,1,11,1.00,318.60,M,-33.324,M,,*7D
2017-12-29 11:07:05 1514563625.871162: $GPRMC,160706,A,3946.9612,N,08404.9812,W,0.0000,0.000,291217,,*39
2017-12-29 11:07:05 1514563625.871228: $GPGSA,A,3,10,15,18,20,21,24,27,32,13,8,138,,1.7,1.0,1.3*38
2017-12-29 11:07:06 1514563626.496227: $GPZDA,160707.00,29,12,2017,00,00*6D
2017-12-29 11:07:06 1514563626.496371: $GPGGA,160707,3946.9612,N,08404.9812,W,1,11,1.00,318.60,M,-33.324,M,,*7C
2017-12-29 11:07:06 1514563626.496440: $GPRMC,160707,A,3946.9612,N,08404.9812,W,0.0000,0.000,291217,,*38
2017-12-29 11:07:06 1514563626.496501: $GPGSA,A,3,10,15,18,20,21,24,27,32,13,8,138,,1.7,1.0,1.3*38
2017-12-29 11:07:07 1514563627.423367: $GPZDA,160708.00,29,12,2017,00,00*62
2017-12-29 11:07:07 1514563627.423545: $GPGGA,160708,3946.9612,N,08404.9812,W,1,11,1.00,318.60,M,-33.324,M,,*73
2017-12-29 11:07:07 1514563627.423614: $GPRMC,160708,A,3946.9612,N,08404.9812,W,0.0000,0.000,291217,,*37
2017-12-29 11:07:07 1514563627.423677: $GPGSA,A,3,10,15,18,20,21,24,27,32,13,8,138,,1.7,1.0,1.3*38
2017-12-29 11:07:08 1514563628.757622: $GPGSV,3,1,11,10,38,297,43,15,42,051,49,18,68,328,43,20,38,091,48*75
2017-12-29 11:07:08 1514563628.757803: $GPGSV,3,2,11,21,68,195,46,24,48,118,47,27,19,294,40,32,17,235,32*7F
2017-12-29 11:07:08 1514563628.757871: $GPGSV,3,3,11,13,12,048,28,08,04,327,16,138,38,213,44*72
2017-12-29 11:07:08 1514563628.871297: $GPZDA,160709.00,29,12,2017,00,00*63
2017-12-29 11:07:08 1514563628.871471: $GPGGA,160709,3946.9612,N,08404.9812,W,1,11,1.00,318.60,M,-33.324,M,,*72
2017-12-29 11:07:08 1514563628.871537: $GPRMC,160709,A,3946.9612,N,08404.9812,W,0.0000,0.000,291217,,*36
2017-12-29 11:07:08 1514563628.871600: $GPGSA,A,3,10,15,18,20,21,24,27,32,13,8,138,,1.7,1.0,1.3*38
2017-12-29 11:07:09 1514563629.420817: $GPZDA,160710.00,29,12,2017,00,00*6B
2017-12-29 11:07:09 1514563629.420960: $GPGGA,160710,3946.9612,N,08404.9812,W,1,11,1.00,318.60,M,-33.324,M,,*7A
2017-12-29 11:07:09 1514563629.421027: $GPRMC,160710,A,3946.9612,N,08404.9812,W,0.0000,0.000,291217,,*3E
2017-12-29 11:07:09 1514563629.421140: $GPGSA,A,3,10,15,18,20,21,24,27,32,13,8,138,,1.7,1.0,1.3*38
2017-12-29 11:07:10 1514563630.416733: $GPZDA,160711.00,29,12,2017,00,00*6A
2017-12-29 11:07:10 1514563630.416896: $GPGGA,160711,3946.9612,N,08404.9812,W,1,11,1.00,318.60,M,-33.324,M,,*7B
2017-12-29 11:07:10 1514563630.416965: $GPRMC,160711,A,3946.9612,N,08404.9812,W,0.0000,0.000,291217,,*3F
2017-12-29 11:07:10 1514563630.417026: $GPGSA,A,3,10,15,18,20,21,24,27,32,13,8,138,,1.7,1.0,1.3*38
2017-12-29 11:07:11 1514563631.757970: $GPGSV,3,1,11,10,38,297,43,15,42,051,49,18,68,328,43,20,38,091,48*75
2017-12-29 11:07:11 1514563631.758122: $GPGSV,3,2,11,21,68,195,45,24,48,118,47,27,19,294,40,32,17,235,32*7C
2017-12-29 11:07:11 1514563631.758192: $GPGSV,3,3,11,13,12,048,28,08,04,327,16,138,38,213,44*72
2017-12-29 11:07:11 1514563631.871645: $GPZDA,160712.00,29,12,2017,00,00*69
2017-12-29 11:07:11 1514563631.871837: $GPGGA,160712,3946.9612,N,08404.9812,W,1,11,1.00,318.60,M,-33.324,M,,*78
2017-12-29 11:07:11 1514563631.871904: $GPRMC,160712,A,3946.9612,N,08404.9812,W,0.0000,0.000,291217,,*3C
2017-12-29 11:07:11 1514563631.871967: $GPGSA,A,3,10,15,18,20,21,24,27,32,13,8,138,,1.7,1.0,1.3*38
2017-12-29 11:07:12 1514563632.422486: $GPZDA,160713.00,29,12,2017,00,00*68
2017-12-29 11:07:12 1514563632.422696: $GPGGA,160713,3946.9612,N,08404.9812,W,1,11,1.00,318.60,M,-33.324,M,,*79
2017-12-29 11:07:12 1514563632.422766: $GPRMC,160713,A,3946.9612,N,08404.9812,W,0.0000,0.000,291217,,*3D
2017-12-29 11:07:12 1514563632.422829: $GPGSA,A,3,10,15,18,20,21,24,27,32,13,8,138,,1.7,1.0,1.3*38
2017-12-29 11:07:13 1514563633.422138: $GPZDA,160714.00,29,12,2017,00,00*6F
2017-12-29 11:07:13 1514563633.422310: $GPGGA,160714,3946.9612,N,08404.9812,W,1,11,1.00,318.60,M,-33.324,M,,*7E
2017-12-29 11:07:13 1514563633.422377: $GPRMC,160714,A,3946.9612,N,08404.9812,W,0.0000,0.000,291217,,*3A
2017-12-29 11:07:13 1514563633.422439: $GPGSA,A,3,10,15,18,20,21,24,27,32,13,8,138,,1.7,1.0,1.3*38
