2017-12-14 11:59:57 1513270797.192765: {"class":"VERSION","release":"3.16","rev":"3.16-4","proto_major":3,"proto_minor":11}
2017-12-14 11:59:57 1513270797.193129: {"class":"DEVICES","devices":[{"class":"DEVICE","path":"/dev/ttyUSB0","driver":"SiRF","subtype":"9\u0006GSD4e_4.1.2-P1_RPATCH.05-F-GPS-4R-1510281 11/03/2015 307","activated":"2017-12-14T16:59:57.184Z","flags":1,"native":1,"bps":4800,"parity":"N","stopbits":1,"cycle":1.00}]}
2017-12-14 11:59:57 1513270797.193248: {"class":"WATCH","enable":true,"json":false,"nmea":true,"raw":0,"scaled":false,"timing":false,"split24":false,"pps":false}
2017-12-14 11:59:58 1513270798.508852: $GPGSV,3,1,11,20,40,088,31,10,35,295,19,15,45,051,24,18,66,321,21*73
2017-12-14 11:59:58 1513270798.509030: $GPGSV,3,2,11,24,46,123,27,21,71,198,18,27,19,298,03,13,15,046,00*7C
2017-12-14 11:59:58 1513270798.509096: $GPGSV,3,3,11,32,14,232,00,08,03,328,00,138,38,213,00*7D
2017-12-14 11:59:58 1513270798.622643: $GPZDA,165959.00,14,12,2017,00,00*63
2017-12-14 11:59:58 1513270798.622790: $GPGGA,165959,3946.9529,N,08404.9405,W,1,06,1.80,346.38,M,-33.324,M,,*75
2017-12-14 11:59:58 1513270798.622855: $GPRMC,165959,A,3946.9529,N,08404.9405,W,0.3423,184.197,141217,,*33
2017-12-14 11:59:58 1513270798.622915: $GPGSA,A,3,20,10,15,18,24,21,,,,,,,6.6,1.8,6.2*34
2017-12-14 11:59:59 1513270799.184964: $GPZDA,170000.00,14,12,2017,00,00*62
2017-12-14 11:59:59 1513270799.185168: $GPGGA,170000,3946.9529,N,08404.9405,W,1,06,1.80,346.38,M,-33.324,M,,*74
2017-12-14 11:59:59 1513270799.185234: $GPRMC,170000,A,3946.9529,N,08404.9405,W,0.0000,0.000,141217,,*36
2017-12-14 11:59:59 1513270799.185295: $GPGSA,A,3,20,10,15,18,24,21,,,,,,,6.6,1.8,6.2*34
2017-12-14 12:00:00 1513270800.170056: $GPZDA,170001.00,14,12,2017,00,00*63
2017-12-14 12:00:00 1513270800.170336: $GPGGA,170001,3946.9529,N,08404.9405,W,1,06,1.80,346.38,M,-33.324,M,,*75
2017-12-14 12:00:00 1513270800.170410: $GPRMC,170001,A,3946.9529,N,08404.9405,W,0.7246,344.668,141217,,*3B
2017-12-14 12:00:00 1513270800.170472: $GPGSA,A,3,20,10,15,18,24,21,,,,,,,6.6,1.8,6.2*34
2017-12-14 12:00:01 1513270801.522582: $GPGSV,3,1,11,20,40,088,31,10,35,295,18,15,45,051,24,18,66,321,21*72
2017-12-14 12:00:01 1513270801.522780: $GPGSV,3,2,11,24,46,123,27,21,71,198,18,27,19,298,15,13,15,046,00*7B
2017-12-14 12:00:01 1513270801.522847: $GPGSV,3,3,11,32,14,232,00,08,03,328,00,138,38,213,00*7D
2017-12-14 12:00:01 1513270801.636137: $GPZDA,170002.00,14,12,2017,00,00*60
2017-12-14 12:00:01 1513270801.636323: $GPGGA,170002,3946.9533,N,08404.9404,W,1,06,1.80,345.62,M,-33.324,M,,*70
2017-12-14 12:00:01 1513270801.636390: $GPRMC,170002,A,3946.9533,N,08404.9404,W,1.2132,3.552,141217,,*3C
2017-12-14 12:00:01 1513270801.636451: $GPGSA,A,3,20,10,15,18,24,21,,,,,,,6.6,1.8,6.2*34
2017-12-14 12:00:02 1513270802.185952: $GPZDA,170003.00,14,12,2017,00,00*61
2017-12-14 12:00:02 1513270802.186158: $GPGGA,170003,3946.9537,N,08404.9404,W,1,06,1.80,346.26,M,-33.324,M,,*76
2017-12-14 12:00:02 1513270802.186225: $GPRMC,170003,A,3946.9537,N,08404.9404,W,1.0567,17.448,141217,,*00
2017-12-14 12:00:02 1513270802.186287: $GPGSA,A,3,20,10,15,18,24,21,,,,,,,6.6,1.8,6.2*34
2017-12-14 12:00:03 1513270803.185899: $GPZDA,170004.00,14,12,2017,00,00*66
2017-12-14 12:00:03 1513270803.186067: $GPGGA,170004,3946.9540,N,08404.9403,W,1,06,1.80,345.50,M,-33.324,M,,*74
2017-12-14 12:00:03 1513270803.186133: $GPRMC,170004,A,3946.9540,N,08404.9403,W,1.0018,50.691,141217,,*08
2017-12-14 12:00:03 1513270803.186193: $GPGSA,A,3,20,10,15,18,24,21,,,,,,,6.6,1.8,6.2*34
2017-12-14 12:00:04 1513270804.521985: $GPGSV,3,1,11,20,40,088,31,10,35,295,18,15,45,051,23,18,66,321,21*75
2017-12-14 12:00:04 1513270804.522216: $GPGSV,3,2,11,24,46,123,27,21,71,198,19,27,19,298,00,13,15,046,00*7E
2017-12-14 12:00:04 1513270804.522298: $GPGSV,3,3,11,32,14,232,00,08,03,328,00,138,38,213,00*7D
2017-12-14 12:00:04 1513270804.635608: $GPZDA,170005.00,14,12,2017,00,00*67
2017-12-14 12:00:04 1513270804.635742: $GPGGA,170005,3946.9540,N,08404.9396,W,1,06,1.80,345.57,M,-33.324,M,,*79
2017-12-14 12:00:04 1513270804.635807: $GPRMC,170005,A,3946.9540,N,08404.9396,W,0.9689,93.795,141217,,*0E
2017-12-14 12:00:04 1513270804.635941: $GPGSA,A,3,20,10,15,18,24,21,,,,,,,6.6,1.8,6.2*34
2017-12-14 12:00:05 1513270805.187165: $GPZDA,170006.00,14,12,2017,00,00*64
2017-12-14 12:00:05 1513270805.187332: $GPGGA,170006,3946.9540,N,08404.9396,W,1,06,1.80,345.57,M,-33.324,M,,*7A
2017-12-14 12:00:05 1513270805.187398: $GPRMC,170006,A,3946.9540,N,08404.9396,W,0.7238,140.710,141217,,*3F
2017-12-14 12:00:05 1513270805.187460: $GPGSA,A,3,20,10,15,18,24,21,,,,,,,6.6,1.8,6.2*34
2017-12-14 12:00:06 1513270806.184844: $GPZDA,170007.00,14,12,2017,00,00*65
2017-12-14 12:00:06 1513270806.185005: $GPGGA,170007,3946.9536,N,08404.9396,W,1,06,1.80,344.94,M,-33.324,M,,*74
2017-12-14 12:00:06 1513270806.185092: $GPRMC,170007,A,3946.9536,N,08404.9396,W,0.5912,129.173,141217,,*32
2017-12-14 12:00:06 1513270806.185155: $GPGSA,A,3,20,10,15,18,24,21,,,,,,,6.6,1.8,6.2*34
2017-12-14 12:00:07 1513270807.521507: $GPGSV,3,1,11,20,40,088,31,10,35,295,18,15,45,051,23,18,66,321,21*75
2017-12-14 12:00:07 1513270807.521668: $GPGSV,3,2,11,24,46,123,27,21,71,198,19,27,19,298,00,13,15,046,00*7E
2017-12-14 12:00:07 1513270807.521735: $GPGSV,3,3,11,32,14,232,00,08,03,328,00,120,07,103,00*7A
2017-12-14 12:00:07 1513270807.634878: $GPZDA,170008.00,14,12,2017,00,00*6A
2017-12-14 12:00:07 1513270807.635073: $GPGGA,170008,3946.9536,N,08404.9396,W,1,06,1.80,344.94,M,-33.324,M,,*7B
2017-12-14 12:00:07 1513270807.635142: $GPRMC,170008,A,3946.9536,N,08404.9396,W,0.0000,0.000,141217,,*3D
2017-12-14 12:00:07 1513270807.635221: $GPGSA,A,3,20,10,15,18,24,21,,,,,,,6.6,1.8,6.2*34
2017-12-14 12:00:08 1513270808.168760: $GPZDA,170009.00,14,12,2017,00,00*6B
2017-12-14 12:00:08 1513270808.168933: $GPGGA,170009,3946.9536,N,08404.9396,W,1,06,1.80,344.94,M,-33.324,M,,*7A
2017-12-14 12:00:08 1513270808.169000: $GPRMC,170009,A,3946.9536,N,08404.9396,W,0.3423,184.197,141217,,*38
2017-12-14 12:00:08 1513270808.169085: $GPGSA,A,3,20,10,15,18,24,21,,,,,,,6.6,1.8,6.2*34
2017-12-14 12:00:09 1513270809.185131: $GPZDA,170010.00,14,12,2017,00,00*63
2017-12-14 12:00:09 1513270809.185322: $GPGGA,170010,3946.9536,N,08404.9396,W,1,06,1.80,344.94,M,-33.324,M,,*72
2017-12-14 12:00:09 1513270809.185389: $GPRMC,170010,A,3946.9536,N,08404.9396,W,0.0000,0.000,141217,,*34
2017-12-14 12:00:09 1513270809.185450: $GPGSA,A,3,20,10,15,18,24,21,,,,,,,6.6,1.8,6.2*34
2017-12-14 12:00:10 1513270810.507673: $GPGSV,3,1,11,20,40,088,30,10,35,295,17,15,45,051,23,18,66,321,21*7B
2017-12-14 12:00:10 1513270810.507849: $GPGSV,3,2,11,24,46,123,27,21,71,198,20,27,19,298,00,13,15,046,00*74
2017-12-14 12:00:10 1513270810.507915: $GPGSV,3,3,11,32,14,232,00,08,03,328,00,120,07,103,00*7A
2017-12-14 12:00:10 1513270810.621359: $GPZDA,170011.00,14,12,2017,00,00*62
2017-12-14 12:00:10 1513270810.621499: $GPGGA,170011,3946.9536,N,08404.9396,W,1,06,1.80,344.94,M,-33.324,M,,*73
2017-12-14 12:00:10 1513270810.621565: $GPRMC,170011,A,3946.9536,N,08404.9396,W,0.4179,148.779,141217,,*3A
2017-12-14 12:00:10 1513270810.621625: $GPGSA,A,3,20,10,15,18,24,21,,,,,,,6.6,1.8,6.2*34
2017-12-14 12:00:11 1513270811.186279: $GPZDA,170012.00,14,12,2017,00,00*61
2017-12-14 12:00:11 1513270811.186646: $GPGGA,170012,3946.9536,N,08404.9389,W,1,06,1.80,345.01,M,-33.324,M,,*73
2017-12-14 12:00:11 1513270811.186778: $GPRMC,170012,A,3946.9536,N,08404.9389,W,1.1391,143.662,141217,,*37
2017-12-14 12:00:11 1513270811.186896: $GPGSA,A,3,20,10,15,18,24,21,,,,,,,6.6,1.8,6.2*34
2017-12-14 12:00:12 1513270812.187025: $GPZDA,170013.00,14,12,2017,00,00*60
2017-12-14 12:00:12 1513270812.187245: $GPGGA,170013,3946.9531,N,08404.9389,W,1,06,1.80,344.37,M,-33.324,M,,*71
2017-12-14 12:00:12 1513270812.187313: $GPRMC,170013,A,3946.9531,N,08404.9389,W,0.5912,129.173,141217,,*3E
2017-12-14 12:00:12 1513270812.187376: $GPGSA,A,3,20,10,15,18,24,21,,,,,,,6.6,1.8,6.2*34
2017-12-14 12:00:13 1513270813.506981: $GPGSV,3,1,11,20,40,088,30,10,35,295,16,15,45,051,23,18,66,321,21*7A
2017-12-14 12:00:13 1513270813.507155: $GPGSV,3,2,11,24,46,123,27,21,71,198,20,27,19,298,00,13,15,046,00*74
2017-12-14 12:00:13 1513270813.507287: $GPGSV,3,3,11,32,14,232,00,08,03,328,00,120,07,103,00*7A
2017-12-14 12:00:13 1513270813.620418: $GPZDA,170014.00,14,12,2017,00,00*67
2017-12-14 12:00:13 1513270813.620620: $GPGGA,170014,3946.9531,N,08404.9389,W,1,06,1.80,344.37,M,-33.324,M,,*76
2017-12-14 12:00:13 1513270813.620719: $GPRMC,170014,A,3946.9531,N,08404.9389,W,1.0002,154.331,141217,,*3B
2017-12-14 12:00:13 1513270813.620781: $GPGSA,A,3,20,10,15,18,24,21,,,,,,,6.6,1.8,6.2*34
2017-12-14 12:00:14 1513270814.187019: $GPZDA,170015.00,14,12,2017,00,00*66
2017-12-14 12:00:14 1513270814.187222: $GPGGA,170015,3946.9531,N,08404.9382,W,1,06,1.80,344.45,M,-33.324,M,,*79
2017-12-14 12:00:14 1513270814.187288: $GPRMC,170015,A,3946.9531,N,08404.9382,W,1.3082,161.818,141217,,*3C
2017-12-14 12:00:14 1513270814.187349: $GPGSA,A,3,20,10,15,18,24,21,,,,,,,6.6,1.8,6.2*34
2017-12-14 12:00:15 1513270815.188166: $GPZDA,170016.00,14,12,2017,00,00*65
2017-12-14 12:00:15 1513270815.188362: $GPGGA,170016,3946.9523,N,08404.9383,W,1,06,1.80,344.58,M,-33.324,M,,*74
2017-12-14 12:00:15 1513270815.188430: $GPRMC,170016,A,3946.9523,N,08404.9383,W,1.3082,161.818,141217,,*3D
2017-12-14 12:00:15 1513270815.188492: $GPGSA,A,3,20,10,15,18,24,21,,,,,,,6.6,1.8,6.2*34
2017-12-14 12:00:16 1513270816.523233: $GPGSV,3,1,11,20,40,088,30,10,35,295,16,15,45,051,23,18,66,321,21*7A
2017-12-14 12:00:16 1513270816.523388: $GPGSV,3,2,11,24,46,123,26,21,71,198,21,27,19,298,00,13,15,046,00*74
2017-12-14 12:00:16 1513270816.523453: $GPGSV,3,3,11,32,14,232,00,08,03,328,00,120,07,103,00*7A
2017-12-14 12:00:16 1513270816.635737: $GPZDA,170017.00,14,12,2017,00,00*64
2017-12-14 12:00:16 1513270816.635898: $GPGGA,170017,3946.9523,N,08404.9383,W,1,06,1.80,344.58,M,-33.324,M,,*75
2017-12-14 12:00:16 1513270816.635963: $GPRMC,170017,A,3946.9523,N,08404.9383,W,1.1391,143.662,141217,,*3C
2017-12-14 12:00:16 1513270816.636024: $GPGSA,A,3,20,10,15,18,24,21,,,,,,,6.6,1.8,6.2*34
2017-12-14 12:00:17 1513270817.184879: $GPZDA,170018.00,14,12,2017,00,00*6B
2017-12-14 12:00:17 1513270817.185076: $GPGGA,170018,3946.9519,N,08404.9376,W,1,06,1.80,344.02,M,-33.324,M,,*76
2017-12-14 12:00:17 1513270817.185146: $GPRMC,170018,A,3946.9519,N,08404.9376,W,1.1124,122.165,141217,,*3B
2017-12-14 12:00:17 1513270817.185226: $GPGSA,A,3,20,10,15,18,24,21,,,,,,,6.6,1.8,6.2*34
