2017-12-31 17:59:47 1514761187.798908: {"class":"VERSION","release":"3.16","rev":"3.16-4","proto_major":3,"proto_minor":11}
2017-12-31 17:59:47 1514761187.799273: {"class":"DEVICES","devices":[{"class":"DEVICE","path":"/dev/ttyUSB0","driver":"SiRF","activated":"2017-12-31T22:59:47.486Z","flags":1,"native":1,"bps":4800,"parity":"N","stopbits":1,"cycle":1.00}]}
2017-12-31 17:59:47 1514761187.799372: {"class":"WATCH","enable":true,"json":false,"nmea":true,"raw":0,"scaled":false,"timing":false,"split24":false,"pps":false}
2017-12-31 17:59:48 1514761188.674060: $GPGSV,3,1,11,22,26,217,44,23,50,307,43,09,16,312,39,03,35,238,45*75
2017-12-31 17:59:48 1514761188.674247: $GPGSV,3,2,11,16,76,192,43,29,07,033,39,14,19,130,32,31,31,072,42*78
2017-12-31 17:59:48 1514761188.674313: $GPGSV,3,3,11,27,18,156,30,26,66,054,49,135,22,240,44*7D
2017-12-31 17:59:48 1514761188.787911: $GPZDA,225949.00,31,12,2017,00,00*62
2017-12-31 17:59:48 1514761188.788070: $GPGGA,225949,3946.9564,N,08404.9866,W,2,11,0.60,307.48,M,-33.324,M,,*7B
2017-12-31 17:59:48 1514761188.788139: $GPRMC,225949,A,3946.9564,N,08404.9866,W,0.0000,0.000,311217,,*36
2017-12-31 17:59:48 1514761188.788199: $GPGSA,A,3,22,23,9,3,16,29,14,31,27,26,135,,1.7,0.6,1.3*06
2017-12-31 17:59:49 1514761189.374671: $GPZDA,225950.00,31,12,2017,00,00*6A
2017-12-31 17:59:49 1514761189.374821: $GPGGA,225950,3946.9564,N,08404.9866,W,2,11,0.60,307.48,M,-33.324,M,,*73
2017-12-31 17:59:49 1514761189.374887: $GPRMC,225950,A,3946.9564,N,08404.9866,W,0.0000,0.000,311217,,*3E
2017-12-31 17:59:49 1514761189.374948: $GPGSA,A,3,22,23,9,3,16,29,14,31,27,26,135,,1.7,0.6,1.3*06
2017-12-31 17:59:50 1514761190.373712: $GPZDA,225951.00,31,12,2017,00,00*6B
2017-12-31 17:59:50 1514761190.373891: $GPGGA,225951,3946.9564,N,08404.9866,W,2,11,0.60,307.48,M,-33.324,M,,*72
2017-12-31 17:59:50 1514761190.373959: $GPRMC,225951,A,3946.9564,N,08404.9866,W,0.0000,0.000,311217,,*3F
2017-12-31 17:59:50 1514761190.374025: $GPGSA,A,3,22,23,9,3,16,29,14,31,27,26,135,,1.7,0.6,1.3*06
2017-12-31 17:59:51 1514761191.681961: $GPGSV,3,1,11,22,26,217,43,23,50,307,43,09,16,312,39,03,35,238,45*72
2017-12-31 17:59:51 1514761191.682135: $GPGSV,3,2,11,16,76,192,43,29,07,033,25,14,19,130,32,31,31,072,41*76
2017-12-31 17:59:51 1514761191.682200: $GPGSV,3,3,11,27,18,156,28,26,66,054,49,135,22,240,44*74
2017-12-31 17:59:51 1514761191.795581: $GPZDA,225952.00,31,12,2017,00,00*68
2017-12-31 17:59:51 1514761191.795747: $GPGGA,225952,3946.9564,N,08404.9866,W,2,11,0.60,307.48,M,-33.324,M,,*71
2017-12-31 17:59:51 1514761191.795815: $GPRMC,225952,A,3946.9564,N,08404.9866,W,0.0000,0.000,311217,,*3C
2017-12-31 17:59:51 1514761191.795877: $GPGSA,A,3,22,23,9,3,16,29,14,31,27,26,135,,1.7,0.6,1.3*06
2017-12-31 17:59:52 1514761192.346447: $GPZDA,225953.00,31,12,2017,00,00*69
2017-12-31 17:59:52 1514761192.346599: $GPGGA,225953,3946.9564,N,08404.9866,W,2,11,0.60,307.48,M,-33.324,M,,*70
2017-12-31 17:59:52 1514761192.346665: $GPRMC,225953,A,3946.9564,N,08404.9866,W,0.0000,0.000,311217,,*3D
2017-12-31 17:59:52 1514761192.346726: $GPGSA,A,3,22,23,9,3,16,29,14,31,27,26,135,,1.7,0.6,1.3*06
2017-12-31 17:59:53 1514761193.346237: $GPZDA,225954.00,31,12,2017,00,00*6E
2017-12-31 17:59:53 1514761193.346403: $GPGGA,225954,3946.9564,N,08404.9866,W,2,11,0.60,307.48,M,-33.324,M,,*77
2017-12-31 17:59:53 1514761193.346470: $GPRMC,225954,A,3946.9564,N,08404.9866,W,0.0000,0.000,311217,,*3A
2017-12-31 17:59:53 1514761193.346531: $GPGSA,A,3,22,23,9,3,16,29,14,31,27,26,135,,1.7,0.6,1.3*06
2017-12-31 17:59:54 1514761194.709053: $GPGSV,3,1,11,22,26,217,43,23,50,307,43,09,16,312,39,03,35,238,45*72
2017-12-31 17:59:54 1514761194.709241: $GPGSV,3,2,11,16,76,192,43,29,07,033,29,14,19,130,33,31,31,072,42*78
2017-12-31 17:59:54 1514761194.709306: $GPGSV,3,3,11,27,18,156,29,26,66,054,49,135,22,240,44*75
2017-12-31 17:59:54 1514761194.822364: $GPZDA,225955.00,31,12,2017,00,00*6F
2017-12-31 17:59:54 1514761194.822545: $GPGGA,225955,3946.9564,N,08404.9866,W,2,11,0.60,307.48,M,-33.324,M,,*76
2017-12-31 17:59:54 1514761194.822632: $GPRMC,225955,A,3946.9564,N,08404.9866,W,0.0000,0.000,311217,,*3B
2017-12-31 17:59:54 1514761194.822752: $GPGSA,A,3,22,23,9,3,16,29,14,31,27,26,135,,1.7,0.6,1.3*06
2017-12-31 17:59:55 1514761195.449282: $GPZDA,225956.00,31,12,2017,00,00*6C
2017-12-31 17:59:55 1514761195.449442: $GPGGA,225956,3946.9564,N,08404.9866,W,2,11,0.60,307.48,M,-33.324,M,,*75
2017-12-31 17:59:55 1514761195.449508: $GPRMC,225956,A,3946.9564,N,08404.9866,W,0.0000,0.000,311217,,*38
2017-12-31 17:59:55 1514761195.449571: $GPGSA,A,3,22,23,9,3,16,29,14,31,27,26,135,,1.7,0.6,1.3*06
2017-12-31 17:59:56 1514761196.367718: $GPZDA,225957.00,31,12,2017,00,00*6D
2017-12-31 17:59:56 1514761196.367890: $GPGGA,225957,3946.9564,N,08404.9866,W,2,11,0.60,307.48,M,-33.324,M,,*74
2017-12-31 17:59:56 1514761196.367961: $GPRMC,225957,A,3946.9564,N,08404.9866,W,0.0000,0.000,311217,,*39
2017-12-31 17:59:56 1514761196.368022: $GPGSA,A,3,22,23,9,3,16,29,14,31,27,26,135,,1.7,0.6,1.3*06
2017-12-31 17:59:57 1514761197.709361: $GPGSV,3,1,11,22,26,217,44,23,50,307,43,09,16,312,38,03,35,238,44*75
2017-12-31 17:59:57 1514761197.709519: $GPGSV,3,2,11,16,76,192,44,29,07,033,34,14,19,130,33,31,31,072,42*73
2017-12-31 17:59:57 1514761197.709584: $GPGSV,3,3,11,27,18,156,29,26,66,054,49,135,22,240,43*72
