2017-12-29 11:32:28 1514565148.678438: {"class":"VERSION","release":"3.16","rev":"3.16-4","proto_major":3,"proto_minor":11}
2017-12-29 11:32:28 1514565148.678779: {"class":"DEVICES","devices":[{"class":"DEVICE","path":"/dev/ttyUSB0","driver":"SiRF","subtype":"9\u0006GSD4e_4.1.2-P1_RPATCH.05-F-GPS-4R-1510281 11/03/2015 307","activated":"2017-12-29T16:32:28.263Z","flags":1,"native":1,"bps":4800,"parity":"N","stopbits":1,"cycle":1.00}]}
2017-12-29 11:32:28 1514565148.678987: {"class":"WATCH","enable":true,"json":false,"nmea":true,"raw":0,"scaled":false,"timing":false,"split24":false,"pps":false}
2017-12-29 11:32:28 1514565148.721280: $GPGSV,3,1,12,08,07,316,37,10,47,307,45,15,31,055,50,18,75,358,44*76
2017-12-29 11:32:28 1514565148.721458: $GPGSV,3,2,12,20,29,100,49,21,56,184,45,24,53,097,50,27,17,282,44*72
2017-12-29 11:32:28 1514565148.721523: $GPGSV,3,3,12,32,27,243,41,13,02,051,04,14,09,235,30,138,38,213,45*45
2017-12-29 11:32:28 1514565148.825240: $GPZDA,163229.00,29,12,2017,00,00*67
2017-12-29 11:32:28 1514565148.825383: $GPGGA,163229,3946.9599,N,08404.9871,W,2,11,0.80,308.95,M,-33.324,M,,*72
2017-12-29 11:32:28 1514565148.825446: $GPRMC,163229,A,3946.9599,N,08404.9871,W,0.0000,0.000,291217,,*37
2017-12-29 11:32:28 1514565148.825506: $GPGSA,A,3,8,10,15,18,20,21,24,27,32,14,138,,1.7,0.8,1.3*36
2017-12-29 11:32:29 1514565149.377463: $GPZDA,163230.00,29,12,2017,00,00*6F
2017-12-29 11:32:29 1514565149.377713: $GPGGA,163230,3946.9599,N,08404.9871,W,2,11,0.80,308.95,M,-33.324,M,,*7A
2017-12-29 11:32:29 1514565149.377805: $GPRMC,163230,A,3946.9599,N,08404.9871,W,0.0000,0.000,291217,,*3F
2017-12-29 11:32:29 1514565149.377879: $GPGSA,A,3,8,10,15,18,20,21,24,27,32,14,138,,1.7,0.8,1.3*36
2017-12-29 11:32:30 1514565150.376637: $GPZDA,163231.00,29,12,2017,00,00*6E
2017-12-29 11:32:30 1514565150.376802: $GPGGA,163231,3946.9599,N,08404.9871,W,2,11,0.80,308.95,M,-33.324,M,,*7B
2017-12-29 11:32:30 1514565150.376869: $GPRMC,163231,A,3946.9599,N,08404.9871,W,0.0000,0.000,291217,,*3E
2017-12-29 11:32:30 1514565150.376930: $GPGSA,A,3,8,10,15,18,20,21,24,27,32,14,138,,1.7,0.8,1.3*36
2017-12-29 11:32:31 1514565151.713579: $GPGSV,3,1,12,08,07,316,36,10,47,307,45,15,31,055,49,18,75,358,44*7F
2017-12-29 11:32:31 1514565151.713776: $GPGSV,3,2,12,20,29,100,49,21,56,184,45,24,53,097,50,27,17,282,44*72
2017-12-29 11:32:31 1514565151.713841: $GPGSV,3,3,12,32,27,243,40,13,02,051,12,14,09,235,30,138,38,213,45*43
2017-12-29 11:32:31 1514565151.827199: $GPZDA,163232.00,29,12,2017,00,00*6D
2017-12-29 11:32:31 1514565151.827381: $GPGGA,163232,3946.9599,N,08404.9871,W,2,12,0.80,308.95,M,-33.324,M,,*7B
2017-12-29 11:32:31 1514565151.827451: $GPRMC,163232,A,3946.9599,N,08404.9871,W,0.0000,0.000,291217,,*3D
2017-12-29 11:32:31 1514565151.827554: $GPGSA,A,3,8,10,15,18,20,21,24,27,32,13,14,138,1.7,0.8,1.3*34
2017-12-29 11:32:32 1514565152.376307: $GPZDA,163233.00,29,12,2017,00,00*6C
2017-12-29 11:32:32 1514565152.376488: $GPGGA,163233,3946.9599,N,08404.9871,W,2,12,0.80,308.95,M,-33.324,M,,*7A
2017-12-29 11:32:32 1514565152.376557: $GPRMC,163233,A,3946.9599,N,08404.9871,W,0.0000,0.000,291217,,*3C
2017-12-29 11:32:32 1514565152.376619: $GPGSA,A,3,8,10,15,18,20,21,24,27,32,13,14,138,1.7,0.8,1.3*34
2017-12-29 11:32:33 1514565153.377372: $GPZDA,163234.00,29,12,2017,00,00*6B
2017-12-29 11:32:33 1514565153.377538: $GPGGA,163234,3946.9599,N,08404.9871,W,2,12,0.80,308.95,M,-33.324,M,,*7D
2017-12-29 11:32:33 1514565153.377603: $GPRMC,163234,A,3946.9599,N,08404.9871,W,0.0000,0.000,291217,,*3B
2017-12-29 11:32:33 1514565153.377663: $GPGSA,A,3,8,10,15,18,20,21,24,27,32,13,14,138,1.7,0.8,1.3*34
2017-12-29 11:32:34 1514565154.712605: $GPGSV,3,1,12,08,07,316,36,10,47,307,45,15,31,055,50,18,75,358,44*77
2017-12-29 11:32:34 1514565154.712803: $GPGSV,3,2,12,20,29,100,49,21,56,184,45,24,53,097,50,27,17,282,45*73
2017-12-29 11:32:34 1514565154.712872: $GPGSV,3,3,12,32,27,243,41,13,02,051,04,14,09,235,31,138,38,213,46*47
2017-12-29 11:32:34 1514565154.826162: $GPZDA,163235.00,29,12,2017,00,00*6A
2017-12-29 11:32:34 1514565154.826351: $GPGGA,163235,3946.9596,N,08404.9871,W,2,11,0.80,309.71,M,-33.324,M,,*7B
2017-12-29 11:32:34 1514565154.826479: $GPRMC,163235,A,3946.9596,N,08404.9871,W,0.0000,0.000,291217,,*35
2017-12-29 11:32:34 1514565154.826547: $GPGSA,A,3,8,10,15,18,20,21,24,27,32,14,138,,1.7,0.8,1.3*36
2017-12-29 11:32:35 1514565155.378164: $GPZDA,163236.00,29,12,2017,00,00*69
2017-12-29 11:32:35 1514565155.378336: $GPGGA,163236,3946.9596,N,08404.9871,W,2,11,0.80,309.71,M,-33.324,M,,*78
2017-12-29 11:32:35 1514565155.378400: $GPRMC,163236,A,3946.9596,N,08404.9871,W,0.0000,0.000,291217,,*36
2017-12-29 11:32:35 1514565155.378461: $GPGSA,A,3,8,10,15,18,20,21,24,27,32,14,138,,1.7,0.8,1.3*36
2017-12-29 11:32:36 1514565156.378727: $GPZDA,163237.00,29,12,2017,00,00*68
2017-12-29 11:32:36 1514565156.378920: $GPGGA,163237,3946.9596,N,08404.9864,W,2,11,0.80,309.79,M,-33.324,M,,*75
2017-12-29 11:32:36 1514565156.378986: $GPRMC,163237,A,3946.9596,N,08404.9864,W,0.0000,0.000,291217,,*33
2017-12-29 11:32:36 1514565156.379047: $GPGSA,A,3,8,10,15,18,20,21,24,27,32,14,138,,1.7,0.8,1.3*36
2017-12-29 11:32:37 1514565157.712912: $GPGSV,3,1,12,08,07,316,35,10,47,307,45,15,31,055,50,18,75,358,44*74
2017-12-29 11:32:37 1514565157.713093: $GPGSV,3,2,12,20,29,100,49,21,56,184,45,24,53,097,50,27,17,282,45*73
2017-12-29 11:32:37 1514565157.713159: $GPGSV,3,3,12,32,27,243,41,13,02,051,04,14,09,235,31,138,38,213,45*44
2017-12-29 11:32:37 1514565157.826299: $GPZDA,163238.00,29,12,2017,00,00*67
2017-12-29 11:32:37 1514565157.826467: $GPGGA,163238,3946.9596,N,08404.9864,W,2,11,0.80,309.79,M,-33.324,M,,*7A
2017-12-29 11:32:37 1514565157.826534: $GPRMC,163238,A,3946.9596,N,08404.9864,W,0.0000,0.000,291217,,*3C
2017-12-29 11:32:37 1514565157.826594: $GPGSA,A,3,8,10,15,18,20,21,24,27,32,14,138,,1.7,0.8,1.3*36
2017-12-29 11:32:38 1514565158.376192: $GPZDA,163239.00,29,12,2017,00,00*66
2017-12-29 11:32:38 1514565158.376371: $GPGGA,163239,3946.9596,N,08404.9864,W,2,11,0.80,309.79,M,-33.324,M,,*7B
2017-12-29 11:32:38 1514565158.376438: $GPRMC,163239,A,3946.9596,N,08404.9864,W,0.0000,0.000,291217,,*3D
2017-12-29 11:32:38 1514565158.376499: $GPGSA,A,3,8,10,15,18,20,21,24,27,32,14,138,,1.7,0.8,1.3*36
2017-12-29 11:32:39 1514565159.378261: $GPZDA,163240.00,29,12,2017,00,00*68
2017-12-29 11:32:39 1514565159.378429: $GPGGA,163240,3946.9596,N,08404.9864,W,2,11,0.80,309.79,M,-33.324,M,,*75
2017-12-29 11:32:39 1514565159.378495: $GPRMC,163240,A,3946.9596,N,08404.9864,W,0.0000,0.000,291217,,*33
2017-12-29 11:32:39 1514565159.378555: $GPGSA,A,3,8,10,15,18,20,21,24,27,32,14,138,,1.7,0.8,1.3*36
2017-12-29 11:32:40 1514565160.712463: $GPGSV,3,1,12,08,07,316,35,10,47,307,45,15,31,055,49,18,75,358,44*7C
2017-12-29 11:32:40 1514565160.712614: $GPGSV,3,2,12,20,29,100,49,21,56,184,45,24,53,097,50,27,17,282,45*73
2017-12-29 11:32:40 1514565160.712701: $GPGSV,3,3,12,32,27,243,41,13,02,051,04,14,09,235,31,138,38,213,45*44
2017-12-29 11:32:40 1514565160.825836: $GPZDA,163241.00,29,12,2017,00,00*69
2017-12-29 11:32:40 1514565160.826012: $GPGGA,163241,3946.9596,N,08404.9864,W,2,11,0.80,309.79,M,-33.324,M,,*74
2017-12-29 11:32:40 1514565160.826080: $GPRMC,163241,A,3946.9596,N,08404.9864,W,0.0000,0.000,291217,,*32
2017-12-29 11:32:40 1514565160.826140: $GPGSA,A,3,8,10,15,18,20,21,24,27,32,14,138,,1.7,0.8,1.3*36
2017-12-29 11:32:41 1514565161.451459: $GPZDA,163242.00,29,12,2017,00,00*6A
2017-12-29 11:32:41 1514565161.451647: $GPGGA,163242,3946.9600,N,08404.9864,W,2,11,1.00,310.43,M,-33.324,M,,*73
2017-12-29 11:32:41 1514565161.451713: $GPRMC,163242,A,3946.9600,N,08404.9864,W,0.0000,0.000,291217,,*3D
2017-12-29 11:32:41 1514565161.451791: $GPGSA,A,3,8,10,15,18,20,21,24,27,32,14,138,,1.7,1.0,1.3*3F
2017-12-29 11:32:42 1514565162.377316: $GPZDA,163243.00,29,12,2017,00,00*6B
2017-12-29 11:32:42 1514565162.377493: $GPGGA,163243,3946.9600,N,08404.9864,W,2,11,1.00,310.43,M,-33.324,M,,*72
2017-12-29 11:32:42 1514565162.377561: $GPRMC,163243,A,3946.9600,N,08404.9864,W,0.0000,0.000,291217,,*3C
2017-12-29 11:32:42 1514565162.377642: $GPGSA,A,3,8,10,15,18,20,21,24,27,32,14,138,,1.7,1.0,1.3*3F
2017-12-29 11:32:43 1514565163.712806: $GPGSV,3,1,12,08,07,316,35,10,47,307,45,15,31,055,50,18,75,358,44*74
2017-12-29 11:32:43 1514565163.713050: $GPGSV,3,2,12,20,29,100,48,21,56,184,46,24,53,097,50,27,17,282,45*71
2017-12-29 11:32:43 1514565163.713119: $GPGSV,3,3,12,32,27,243,41,13,02,051,00,14,09,235,32,138,38,213,44*42
