2017-12-31 18:48:46 1514764126.986771: {"class":"VERSION","release":"3.16","rev":"3.16-4","proto_major":3,"proto_minor":11}
2017-12-31 18:48:46 1514764126.987171: {"class":"DEVICES","devices":[{"class":"DEVICE","path":"/dev/ttyUSB0","driver":"SiRF","activated":"2017-12-31T23:48:46.495Z","flags":1,"native":1,"bps":4800,"parity":"N","stopbits":1,"cycle":1.00}]}
2017-12-31 18:48:46 1514764126.987281: {"class":"WATCH","enable":true,"json":false,"nmea":true,"raw":0,"scaled":false,"timing":false,"split24":false,"pps":false}
2017-12-31 18:48:47 1514764127.354545: $GPZDA,234848.00,31,12,2017,00,00*62
2017-12-31 18:48:47 1514764127.354740: $GPGGA,234848,3946.9585,N,08404.9862,W,2,11,0.80,304.30,M,-33.324,M,,*72
2017-12-31 18:48:47 1514764127.354807: $GPRMC,234848,A,3946.9585,N,08404.9862,W,0.0000,0.000,311217,,*3D
2017-12-31 18:48:47 1514764127.354868: $GPGSA,A,3,22,23,9,3,16,8,31,27,7,26,135,,1.7,0.8,1.3*09
2017-12-31 18:48:48 1514764128.689101: $GPGSV,3,1,11,22,08,204,23,23,68,282,41,09,36,310,41,03,18,220,38*7C
2017-12-31 18:48:48 1514764128.689289: $GPGSV,3,2,11,16,77,036,42,08,16,175,34,31,16,088,31,27,39,144,40*7A
2017-12-31 18:48:48 1514764128.689356: $GPGSV,3,3,11,07,10,285,46,26,45,048,44,135,22,240,41*7F
2017-12-31 18:48:48 1514764128.802437: $GPZDA,234849.00,31,12,2017,00,00*63
2017-12-31 18:48:48 1514764128.802622: $GPGGA,234849,3946.9585,N,08404.9862,W,2,11,0.80,304.30,M,-33.324,M,,*73
2017-12-31 18:48:48 1514764128.802706: $GPRMC,234849,A,3946.9585,N,08404.9862,W,0.0000,0.000,311217,,*3C
2017-12-31 18:48:48 1514764128.802769: $GPGSA,A,3,22,23,9,3,16,8,31,27,7,26,135,,1.7,0.8,1.3*09
2017-12-31 18:48:49 1514764129.354538: $GPZDA,234850.00,31,12,2017,00,00*6B
2017-12-31 18:48:49 1514764129.354744: $GPGGA,234850,3946.9585,N,08404.9862,W,2,11,0.80,304.30,M,-33.324,M,,*7B
2017-12-31 18:48:49 1514764129.354813: $GPRMC,234850,A,3946.9585,N,08404.9862,W,0.0000,0.000,311217,,*34
2017-12-31 18:48:49 1514764129.354875: $GPGSA,A,3,22,23,9,3,16,8,31,27,7,26,135,,1.7,0.8,1.3*09
2017-12-31 18:48:50 1514764130.353689: $GPZDA,234851.00,31,12,2017,00,00*6A
2017-12-31 18:48:50 1514764130.353855: $GPGGA,234851,3946.9585,N,08404.9862,W,2,11,0.80,304.30,M,-33.324,M,,*7A
2017-12-31 18:48:50 1514764130.353921: $GPRMC,234851,A,3946.9585,N,08404.9862,W,0.0000,0.000,311217,,*35
2017-12-31 18:48:50 1514764130.353982: $GPGSA,A,3,22,23,9,3,16,8,31,27,7,26,135,,1.7,0.8,1.3*09
2017-12-31 18:48:51 1514764131.688210: $GPGSV,3,1,11,22,08,204,22,23,68,282,41,09,36,310,41,03,18,220,38*7D
2017-12-31 18:48:51 1514764131.688390: $GPGSV,3,2,11,16,77,036,43,08,16,175,34,31,16,088,31,27,39,144,40*7B
2017-12-31 18:48:51 1514764131.688456: $GPGSV,3,3,11,07,10,285,47,26,45,048,44,135,22,240,43*7C
2017-12-31 18:48:51 1514764131.801932: $GPZDA,234852.00,31,12,2017,00,00*69
2017-12-31 18:48:51 1514764131.802080: $GPGGA,234852,3946.9585,N,08404.9862,W,2,11,0.80,304.30,M,-33.324,M,,*79
2017-12-31 18:48:51 1514764131.802147: $GPRMC,234852,A,3946.9585,N,08404.9862,W,0.0000,0.000,311217,,*36
2017-12-31 18:48:51 1514764131.802207: $GPGSA,A,3,22,23,9,3,16,8,31,27,7,26,135,,1.7,0.8,1.3*09
2017-12-31 18:48:52 1514764132.352819: $GPZDA,234853.00,31,12,2017,00,00*68
2017-12-31 18:48:52 1514764132.352981: $GPGGA,234853,3946.9585,N,08404.9862,W,2,11,0.80,304.30,M,-33.324,M,,*78
2017-12-31 18:48:52 1514764132.353046: $GPRMC,234853,A,3946.9585,N,08404.9862,W,0.0000,0.000,311217,,*37
2017-12-31 18:48:52 1514764132.353107: $GPGSA,A,3,22,23,9,3,16,8,31,27,7,26,135,,1.7,0.8,1.3*09
2017-12-31 18:48:53 1514764133.353439: $GPZDA,234854.00,31,12,2017,00,00*6F
2017-12-31 18:48:53 1514764133.353625: $GPGGA,234854,3946.9585,N,08404.9862,W,2,11,0.80,304.30,M,-33.324,M,,*7F
2017-12-31 18:48:53 1514764133.353713: $GPRMC,234854,A,3946.9585,N,08404.9862,W,0.0000,0.000,311217,,*30
2017-12-31 18:48:53 1514764133.353775: $GPGSA,A,3,22,23,9,3,16,8,31,27,7,26,135,,1.7,0.8,1.3*09
2017-12-31 18:48:54 1514764134.681558: $GPGSV,3,1,11,22,08,204,14,23,68,282,41,09,36,310,41,03,18,220,38*78
2017-12-31 18:48:54 1514764134.681765: $GPGSV,3,2,11,16,77,036,43,08,16,175,35,31,16,088,31,27,39,144,41*7B
2017-12-31 18:48:54 1514764134.681902: $GPGSV,3,3,11,07,10,285,47,26,45,048,45,135,22,240,43*7D
2017-12-31 18:48:54 1514764134.794948: $GPZDA,234855.00,31,12,2017,00,00*6E
2017-12-31 18:48:54 1514764134.795099: $GPGGA,234855,3946.9585,N,08404.9862,W,2,10,0.80,304.30,M,-33.324,M,,*7F
2017-12-31 18:48:54 1514764134.795166: $GPRMC,234855,A,3946.9585,N,08404.9862,W,0.0000,0.000,311217,,*31
2017-12-31 18:48:54 1514764134.795227: $GPGSA,A,3,23,9,3,16,8,31,27,7,26,135,,,1.7,0.8,1.3*09
2017-12-31 18:48:55 1514764135.421644: $GPZDA,234856.00,31,12,2017,00,00*6D
2017-12-31 18:48:55 1514764135.421825: $GPGGA,234856,3946.9585,N,08404.9855,W,2,10,0.80,304.38,M,-33.324,M,,*70
2017-12-31 18:48:55 1514764135.421895: $GPRMC,234856,A,3946.9585,N,08404.9855,W,0.0000,0.000,311217,,*36
2017-12-31 18:48:55 1514764135.421956: $GPGSA,A,3,23,9,3,16,8,31,27,7,26,135,,,1.7,0.8,1.3*09
2017-12-31 18:48:56 1514764136.352407: $GPZDA,234857.00,31,12,2017,00,00*6C
2017-12-31 18:48:56 1514764136.352582: $GPGGA,234857,3946.9585,N,08404.9855,W,2,10,0.80,304.38,M,-33.324,M,,*71
2017-12-31 18:48:56 1514764136.352653: $GPRMC,234857,A,3946.9585,N,08404.9855,W,0.0000,0.000,311217,,*37
2017-12-31 18:48:56 1514764136.352714: $GPGSA,A,3,23,9,3,16,8,31,27,7,26,135,,,1.7,0.8,1.3*09
