2017-12-01 18:01:46 1512169306.797205: {"class":"VERSION","release":"3.16","rev":"3.16-4","proto_major":3,"proto_minor":11}
2017-12-01 18:01:46 1512169306.797603: {"class":"DEVICES","devices":[{"class":"DEVICE","path":"/dev/ttyUSB0","driver":"SiRF","subtype":"9\u0006GSD4e_4.1.2-P1_RPATCH.05-F-GPS-4R-1510281 11/03/2015 307","activated":"2017-12-01T23:01:46.742Z","flags":1,"native":1,"bps":4800,"parity":"N","stopbits":1,"cycle":1.00}]}
2017-12-01 18:01:46 1512169306.797732: {"class":"WATCH","enable":true,"json":false,"nmea":true,"raw":0,"scaled":false,"timing":false,"split24":false,"pps":false}
2017-12-01 18:01:47 1512169307.427329: $GPZDA,230148.00,01,12,2017,00,00*6C
2017-12-01 18:01:47 1512169307.427498: $GPGGA,230148,3946.9733,N,08404.9855,W,2,12,0.80,301.09,M,-33.325,M,,*79
2017-12-01 18:01:47 1512169307.427565: $GPRMC,230148,A,3946.9733,N,08404.9855,W,0.0000,0.000,011217,,*38
2017-12-01 18:01:47 1512169307.427626: $GPGSA,A,3,1,3,10,14,16,22,29,25,26,31,32,138,2.0,0.8,1.5*0C
2017-12-01 18:01:48 1512169308.756788: $GPGSV,3,1,12,01,11,261,38,03,34,307,48,10,06,159,34,14,62,076,44*76
2017-12-01 18:01:48 1512169308.757000: $GPGSV,3,2,12,16,13,189,41,22,48,285,46,29,07,081,23,25,25,045,42*79
2017-12-01 18:01:48 1512169308.757071: $GPGSV,3,3,12,26,43,175,45,31,75,004,47,32,43,099,44,138,38,213,46*49
2017-12-01 18:01:48 1512169308.870331: $GPZDA,230149.00,01,12,2017,00,00*6D
2017-12-01 18:01:48 1512169308.870511: $GPGGA,230149,3946.9736,N,08404.9847,W,2,12,0.80,300.41,M,-33.325,M,,*73
2017-12-01 18:01:48 1512169308.870578: $GPRMC,230149,A,3946.9736,N,08404.9847,W,0.0000,0.000,011217,,*3F
2017-12-01 18:01:48 1512169308.870641: $GPGSA,A,3,1,3,10,14,16,22,29,25,26,31,32,138,2.0,0.8,1.5*0C
2017-12-01 18:01:49 1512169309.427464: $GPZDA,230150.00,01,12,2017,00,00*65
2017-12-01 18:01:49 1512169309.427619: $GPGGA,230150,3946.9736,N,08404.9847,W,2,12,0.80,300.41,M,-33.325,M,,*7B
2017-12-01 18:01:49 1512169309.427685: $GPRMC,230150,A,3946.9736,N,08404.9847,W,0.0000,0.000,011217,,*37
2017-12-01 18:01:49 1512169309.427747: $GPGSA,A,3,1,3,10,14,16,22,29,25,26,31,32,138,2.0,0.8,1.5*0C
2017-12-01 18:01:50 1512169310.427040: $GPZDA,230151.00,01,12,2017,00,00*64
2017-12-01 18:01:50 1512169310.427220: $GPGGA,230151,3946.9736,N,08404.9847,W,2,12,0.80,300.41,M,-33.325,M,,*7A
2017-12-01 18:01:50 1512169310.427288: $GPRMC,230151,A,3946.9736,N,08404.9847,W,0.0000,0.000,011217,,*36
2017-12-01 18:01:50 1512169310.427351: $GPGSA,A,3,1,3,10,14,16,22,29,25,26,31,32,138,2.0,0.8,1.5*0C
2017-12-01 18:01:51 1512169311.761520: $GPGSV,3,1,12,01,11,261,38,03,34,307,48,10,06,159,34,14,62,076,43*71
2017-12-01 18:01:51 1512169311.761713: $GPGSV,3,2,12,16,13,189,40,22,48,285,46,29,07,081,23,25,25,045,42*78
2017-12-01 18:01:51 1512169311.761779: $GPGSV,3,3,12,26,43,175,45,31,75,004,47,32,43,099,44,138,38,213,46*49
2017-12-01 18:01:51 1512169311.875054: $GPZDA,230152.00,01,12,2017,00,00*67
2017-12-01 18:01:51 1512169311.875217: $GPGGA,230152,3946.9736,N,08404.9847,W,2,12,0.80,300.41,M,-33.325,M,,*79
2017-12-01 18:01:51 1512169311.875283: $GPRMC,230152,A,3946.9736,N,08404.9847,W,0.0000,0.000,011217,,*35
2017-12-01 18:01:51 1512169311.875344: $GPGSA,A,3,1,3,10,14,16,22,29,25,26,31,32,138,2.0,0.8,1.5*0C
2017-12-01 18:01:52 1512169312.500446: $GPZDA,230153.00,01,12,2017,00,00*66
2017-12-01 18:01:52 1512169312.500658: $GPGGA,230153,3946.9736,N,08404.9847,W,2,12,0.80,300.41,M,-33.325,M,,*78
2017-12-01 18:01:52 1512169312.500736: $GPRMC,230153,A,3946.9736,N,08404.9847,W,0.0000,0.000,011217,,*34
2017-12-01 18:01:52 1512169312.500805: $GPGSA,A,3,1,3,10,14,16,22,29,25,26,31,32,138,2.0,0.8,1.5*0C
2017-12-01 18:01:53 1512169313.426269: $GPZDA,230154.00,01,12,2017,00,00*61
2017-12-01 18:01:53 1512169313.426438: $GPGGA,230154,3946.9736,N,08404.9847,W,2,12,0.80,300.41,M,-33.325,M,,*7F
2017-12-01 18:01:53 1512169313.426506: $GPRMC,230154,A,3946.9736,N,08404.9847,W,0.0000,0.000,011217,,*33
2017-12-01 18:01:53 1512169313.426567: $GPGSA,A,3,1,3,10,14,16,22,29,25,26,31,32,138,2.0,0.8,1.5*0C
2017-12-01 18:01:54 1512169314.764278: $GPGSV,3,1,12,01,11,261,39,03,34,307,48,10,06,159,34,14,62,076,43*70
2017-12-01 18:01:54 1512169314.764520: $GPGSV,3,2,12,16,13,189,40,22,48,285,46,29,07,081,24,25,25,045,43*7E
2017-12-01 18:01:54 1512169314.764593: $GPGSV,3,3,12,26,43,175,46,31,75,004,46,32,43,099,44,138,38,213,46*4B
2017-12-01 18:01:54 1512169314.877751: $GPZDA,230155.00,01,12,2017,00,00*60
2017-12-01 18:01:54 1512169314.877923: $GPGGA,230155,3946.9736,N,08404.9847,W,2,12,0.80,300.41,M,-33.325,M,,*7E
2017-12-01 18:01:54 1512169314.877990: $GPRMC,230155,A,3946.9736,N,08404.9847,W,0.0000,0.000,011217,,*32
2017-12-01 18:01:54 1512169314.878051: $GPGSA,A,3,1,3,10,14,16,22,29,25,26,31,32,138,2.0,0.8,1.5*0C
2017-12-01 18:01:55 1512169315.426735: $GPZDA,230156.00,01,12,2017,00,00*63
2017-12-01 18:01:55 1512169315.426925: $GPGGA,230156,3946.9736,N,08404.9847,W,2,12,0.80,300.41,M,-33.325,M,,*7D
2017-12-01 18:01:55 1512169315.426992: $GPRMC,230156,A,3946.9736,N,08404.9847,W,0.0000,0.000,011217,,*31
2017-12-01 18:01:55 1512169315.427054: $GPGSA,A,3,1,3,10,14,16,22,29,25,26,31,32,138,2.0,0.8,1.5*0C
2017-12-01 18:01:56 1512169316.425621: $GPZDA,230157.00,01,12,2017,00,00*62
2017-12-01 18:01:56 1512169316.425802: $GPGGA,230157,3946.9736,N,08404.9847,W,2,12,0.80,300.41,M,-33.325,M,,*7C
2017-12-01 18:01:56 1512169316.425870: $GPRMC,230157,A,3946.9736,N,08404.9847,W,0.0000,0.000,011217,,*30
2017-12-01 18:01:56 1512169316.425932: $GPGSA,A,3,1,3,10,14,16,22,29,25,26,31,32,138,2.0,0.8,1.5*0C
2017-12-01 18:01:57 1512169317.762126: $GPGSV,3,1,12,01,11,261,39,03,34,307,48,10,06,159,34,14,62,076,43*70
2017-12-01 18:01:57 1512169317.762298: $GPGSV,3,2,12,16,13,189,40,22,48,285,46,29,07,081,24,25,25,045,43*7E
2017-12-01 18:01:57 1512169317.762368: $GPGSV,3,3,12,26,43,175,46,31,75,004,47,32,43,099,44,138,38,213,46*4A
2017-12-01 18:01:57 1512169317.875831: $GPZDA,230158.00,01,12,2017,00,00*6D
2017-12-01 18:01:57 1512169317.875996: $GPGGA,230158,3946.9736,N,08404.9847,W,2,12,0.80,300.41,M,-33.325,M,,*73
2017-12-01 18:01:57 1512169317.876063: $GPRMC,230158,A,3946.9736,N,08404.9847,W,0.0000,0.000,011217,,*3F
2017-12-01 18:01:57 1512169317.876124: $GPGSA,A,3,1,3,10,14,16,22,29,25,26,31,32,138,2.0,0.8,1.5*0C
2017-12-01 18:01:58 1512169318.426670: $GPZDA,230159.00,01,12,2017,00,00*6C
2017-12-01 18:01:58 1512169318.426838: $GPGGA,230159,3946.9732,N,08404.9847,W,2,12,0.80,299.77,M,-33.325,M,,*72
2017-12-01 18:01:58 1512169318.426906: $GPRMC,230159,A,3946.9732,N,08404.9847,W,0.0000,0.000,011217,,*3A
2017-12-01 18:01:58 1512169318.426967: $GPGSA,A,3,1,3,10,14,16,22,29,25,26,31,32,138,2.0,0.8,1.5*0C
2017-12-01 18:01:59 1512169319.425919: $GPZDA,230200.00,01,12,2017,00,00*63
2017-12-01 18:01:59 1512169319.426099: $GPGGA,230200,3946.9732,N,08404.9847,W,2,12,0.80,299.77,M,-33.325,M,,*7D
2017-12-01 18:01:59 1512169319.426166: $GPRMC,230200,A,3946.9732,N,08404.9847,W,0.0000,0.000,011217,,*35
2017-12-01 18:01:59 1512169319.426227: $GPGSA,A,3,1,3,10,14,16,22,29,25,26,31,32,138,2.0,0.8,1.5*0C
2017-12-01 18:02:00 1512169320.762939: $GPGSV,3,1,12,01,11,261,38,03,34,307,47,10,06,159,34,14,62,076,43*7E
2017-12-01 18:02:00 1512169320.763131: $GPGSV,3,2,12,16,13,189,40,22,48,285,46,29,07,081,24,25,25,045,43*7E
2017-12-01 18:02:00 1512169320.763198: $GPGSV,3,3,12,26,43,175,46,31,75,004,47,32,43,099,43,138,38,213,46*4D
2017-12-01 18:02:00 1512169320.876264: $GPZDA,230201.00,01,12,2017,00,00*62
2017-12-01 18:02:00 1512169320.876443: $GPGGA,230201,3946.9732,N,08404.9847,W,2,12,0.80,299.77,M,-33.325,M,,*7C
2017-12-01 18:02:00 1512169320.876511: $GPRMC,230201,A,3946.9732,N,08404.9847,W,0.0000,0.000,011217,,*34
2017-12-01 18:02:00 1512169320.876572: $GPGSA,A,3,1,3,10,14,16,22,29,25,26,31,32,138,2.0,0.8,1.5*0C
2017-12-01 18:02:01 1512169321.427572: $GPZDA,230202.00,01,12,2017,00,00*61
2017-12-01 18:02:01 1512169321.427736: $GPGGA,230202,3946.9732,N,08404.9847,W,2,12,0.80,299.77,M,-33.325,M,,*7F
2017-12-01 18:02:01 1512169321.427802: $GPRMC,230202,A,3946.9732,N,08404.9847,W,0.0000,0.000,011217,,*37
2017-12-01 18:02:01 1512169321.427863: $GPGSA,A,3,1,3,10,14,16,22,29,25,26,31,32,138,2.0,0.8,1.5*0C
2017-12-01 18:02:02 1512169322.427555: $GPZDA,230203.00,01,12,2017,00,00*60
2017-12-01 18:02:02 1512169322.427737: $GPGGA,230203,3946.9732,N,08404.9847,W,2,12,0.80,299.77,M,-33.325,M,,*7E
2017-12-01 18:02:02 1512169322.427805: $GPRMC,230203,A,3946.9732,N,08404.9847,W,0.0000,0.000,011217,,*36
2017-12-01 18:02:02 1512169322.427866: $GPGSA,A,3,1,3,10,14,16,22,29,25,26,31,32,138,2.0,0.8,1.5*0C
2017-12-01 18:02:03 1512169323.760878: $GPGSV,3,1,12,01,11,261,38,03,34,307,47,10,06,159,33,14,62,076,43*79
2017-12-01 18:02:03 1512169323.761061: $GPGSV,3,2,12,16,13,189,41,22,48,285,46,23,04,295,44,25,25,045,42*76
2017-12-01 18:02:03 1512169323.761128: $GPGSV,3,3,12,26,43,175,46,31,75,004,47,32,43,099,44,138,38,213,46*4A
2017-12-01 18:02:03 1512169323.874269: $GPZDA,230204.00,01,12,2017,00,00*67
2017-12-01 18:02:03 1512169323.874439: $GPGGA,230204,3946.9732,N,08404.9847,W,2,12,0.80,299.77,M,-33.325,M,,*79
2017-12-01 18:02:03 1512169323.874505: $GPRMC,230204,A,3946.9732,N,08404.9847,W,0.0000,0.000,011217,,*31
2017-12-01 18:02:03 1512169323.874566: $GPGSA,A,3,1,3,10,14,16,22,23,25,26,31,32,138,2.0,0.8,1.5*06
2017-12-01 18:02:04 1512169324.425141: $GPZDA,230205.00,01,12,2017,00,00*66
2017-12-01 18:02:04 1512169324.425320: $GPGGA,230205,3946.9732,N,08404.9847,W,2,12,0.80,299.77,M,-33.325,M,,*78
2017-12-01 18:02:04 1512169324.425387: $GPRMC,230205,A,3946.9732,N,08404.9847,W,0.0000,0.000,011217,,*30
2017-12-01 18:02:04 1512169324.425448: $GPGSA,A,3,1,3,10,14,16,22,23,25,26,31,32,138,2.0,0.8,1.5*06
2017-12-01 18:02:05 1512169325.427356: $GPZDA,230206.00,01,12,2017,00,00*65
2017-12-01 18:02:05 1512169325.434004: $GPGGA,230206,3946.9732,N,08404.9847,W,2,12,0.80,299.77,M,-33.325,M,,*7B
2017-12-01 18:02:05 1512169325.434139: $GPRMC,230206,A,3946.9732,N,08404.9847,W,0.0000,0.000,011217,,*33
2017-12-01 18:02:05 1512169325.434222: $GPGSA,A,3,1,3,10,14,16,22,23,25,26,31,32,138,2.0,0.8,1.5*06
2017-12-01 18:02:06 1512169326.757941: $GPGSV,3,1,12,01,11,261,38,03,34,307,47,10,06,159,33,14,62,076,43*79
2017-12-01 18:02:06 1512169326.758123: $GPGSV,3,2,12,16,13,189,40,22,48,285,46,23,04,295,44,25,25,045,42*77
2017-12-01 18:02:06 1512169326.758190: $GPGSV,3,3,12,26,43,175,46,31,75,004,47,32,43,099,43,138,38,213,46*4D
