2017-12-01 14:07:37 1512155257.677329: {"class":"VERSION","release":"3.16","rev":"3.16-4","proto_major":3,"proto_minor":11}
2017-12-01 14:07:37 1512155257.677713: {"class":"DEVICES","devices":[{"class":"DEVICE","path":"/dev/ttyUSB0","driver":"SiRF","subtype":"9\u0006GSD4e_4.1.2-P1_RPATCH.05-F-GPS-4R-1510281 11/03/2015 307","activated":"2017-12-01T19:07:37.244Z","flags":1,"native":1,"bps":4800,"parity":"N","stopbits":1,"cycle":1.00}]}
2017-12-01 14:07:37 1512155257.677826: {"class":"WATCH","enable":true,"json":false,"nmea":true,"raw":0,"scaled":false,"timing":false,"split24":false,"pps":false}
2017-12-01 14:07:37 1512155257.694311: $GPGSV,3,1,12,10,62,322,49,14,23,247,39,15,17,063,37,18,75,072,43*76
2017-12-01 14:07:37 1512155257.694468: $GPGSV,3,2,12,21,36,180,44,24,49,067,48,27,10,265,42,32,40,258,43*7C
2017-12-01 14:07:37 1512155257.694534: $GPGSV,3,3,12,20,15,114,35,08,07,300,32,12,04,112,24,138,38,213,47*42
2017-12-01 14:07:37 1512155257.807763: $GPZDA,190738.00,01,12,2017,00,00*64
2017-12-01 14:07:37 1512155257.807911: $GPGGA,190738,3946.9557,N,08404.9830,W,2,12,0.80,305.83,M,-33.324,M,,*75
2017-12-01 14:07:37 1512155257.807978: $GPRMC,190738,A,3946.9557,N,08404.9830,W,0.0000,0.000,011217,,*33
2017-12-01 14:07:37 1512155257.808040: $GPGSA,A,3,10,14,15,18,21,24,27,32,20,8,12,138,2.0,0.8,1.5*37
2017-12-01 14:07:38 1512155258.357753: $GPZDA,190739.00,01,12,2017,00,00*65
2017-12-01 14:07:38 1512155258.357926: $GPGGA,190739,3946.9557,N,08404.9830,W,2,12,0.80,305.83,M,-33.324,M,,*74
2017-12-01 14:07:38 1512155258.357994: $GPRMC,190739,A,3946.9557,N,08404.9830,W,0.0000,0.000,011217,,*32
2017-12-01 14:07:38 1512155258.358057: $GPGSA,A,3,10,14,15,18,21,24,27,32,20,8,12,138,2.0,0.8,1.5*37
2017-12-01 14:07:39 1512155259.328400: $GPZDA,190740.00,01,12,2017,00,00*6B
2017-12-01 14:07:39 1512155259.328580: $GPGGA,190740,3946.9557,N,08404.9830,W,2,12,0.80,305.83,M,-33.324,M,,*7A
2017-12-01 14:07:39 1512155259.328648: $GPRMC,190740,A,3946.9557,N,08404.9830,W,0.0000,0.000,011217,,*3C
2017-12-01 14:07:39 1512155259.328711: $GPGSA,A,3,10,14,15,18,21,24,27,32,20,8,12,138,2.0,0.8,1.5*37
2017-12-01 14:07:40 1512155260.663390: $GPGSV,3,1,12,10,62,322,49,14,23,247,39,15,17,063,37,18,75,072,43*76
2017-12-01 14:07:40 1512155260.663580: $GPGSV,3,2,12,21,36,180,44,24,49,067,48,27,10,265,42,32,40,258,43*7C
2017-12-01 14:07:40 1512155260.663648: $GPGSV,3,3,12,20,15,114,35,08,07,300,31,12,04,112,23,138,38,213,46*47
2017-12-01 14:07:40 1512155260.777037: $GPZDA,190741.00,01,12,2017,00,00*6A
2017-12-01 14:07:40 1512155260.777209: $GPGGA,190741,3946.9557,N,08404.9830,W,2,12,0.80,305.83,M,-33.324,M,,*7B
2017-12-01 14:07:40 1512155260.777275: $GPRMC,190741,A,3946.9557,N,08404.9830,W,0.0000,0.000,011217,,*3D
2017-12-01 14:07:40 1512155260.777341: $GPGSA,A,3,10,14,15,18,21,24,27,32,20,8,12,138,2.0,0.8,1.5*37
2017-12-01 14:07:41 1512155261.329209: $GPZDA,190742.00,01,12,2017,00,00*69
2017-12-01 14:07:41 1512155261.340484: $GPGGA,190742,3946.9557,N,08404.9830,W,2,12,0.80,305.83,M,-33.324,M,,*78
2017-12-01 14:07:41 1512155261.340608: $GPRMC,190742,A,3946.9557,N,08404.9830,W,0.0000,0.000,011217,,*3E
2017-12-01 14:07:41 1512155261.340674: $GPGSA,A,3,10,14,15,18,21,24,27,32,20,8,12,138,2.0,0.8,1.5*37
2017-12-01 14:07:42 1512155262.328927: $GPZDA,190743.00,01,12,2017,00,00*68
2017-12-01 14:07:42 1512155262.329108: $GPGGA,190743,3946.9557,N,08404.9830,W,2,12,0.80,305.83,M,-33.324,M,,*79
2017-12-01 14:07:42 1512155262.329176: $GPRMC,190743,A,3946.9557,N,08404.9830,W,0.0000,0.000,011217,,*3F
2017-12-01 14:07:42 1512155262.329237: $GPGSA,A,3,10,14,15,18,21,24,27,32,20,8,12,138,2.0,0.8,1.5*37
2017-12-01 14:07:43 1512155263.663085: $GPGSV,3,1,12,10,62,322,50,14,23,247,38,15,17,063,36,18,75,072,43*7E
2017-12-01 14:07:43 1512155263.663282: $GPGSV,3,2,12,21,36,180,44,24,49,067,48,27,10,265,41,32,40,258,43*7F
2017-12-01 14:07:43 1512155263.663351: $GPGSV,3,3,12,20,15,114,36,08,07,300,31,12,04,112,23,138,38,213,46*44
2017-12-01 14:07:43 1512155263.776680: $GPZDA,190744.00,01,12,2017,00,00*6F
2017-12-01 14:07:43 1512155263.776851: $GPGGA,190744,3946.9554,N,08404.9831,W,2,12,0.80,306.60,M,-33.324,M,,*72
2017-12-01 14:07:43 1512155263.776968: $GPRMC,190744,A,3946.9554,N,08404.9831,W,0.0000,0.000,011217,,*3A
2017-12-01 14:07:43 1512155263.777031: $GPGSA,A,3,10,14,15,18,21,24,27,32,20,8,12,138,2.0,0.8,1.5*37
2017-12-01 14:07:44 1512155264.331114: $GPZDA,190745.00,01,12,2017,00,00*6E
2017-12-01 14:07:44 1512155264.331291: $GPGGA,190745,3946.9554,N,08404.9831,W,2,12,0.80,306.60,M,-33.324,M,,*73
2017-12-01 14:07:44 1512155264.331410: $GPRMC,190745,A,3946.9554,N,08404.9831,W,0.0000,0.000,011217,,*3B
2017-12-01 14:07:44 1512155264.331483: $GPGSA,A,3,10,14,15,18,21,24,27,32,20,8,12,138,2.0,0.8,1.5*37
2017-12-01 14:07:45 1512155265.332715: $GPZDA,190746.00,01,12,2017,00,00*6D
2017-12-01 14:07:45 1512155265.332904: $GPGGA,190746,3946.9554,N,08404.9831,W,2,12,0.80,306.60,M,-33.324,M,,*70
2017-12-01 14:07:45 1512155265.332971: $GPRMC,190746,A,3946.9554,N,08404.9831,W,0.0000,0.000,011217,,*38
2017-12-01 14:07:45 1512155265.333033: $GPGSA,A,3,10,14,15,18,21,24,27,32,20,8,12,138,2.0,0.8,1.5*37
2017-12-01 14:07:46 1512155266.668344: $GPGSV,3,1,12,10,62,322,49,14,23,247,38,15,17,063,36,18,75,072,42*77
2017-12-01 14:07:46 1512155266.668527: $GPGSV,3,2,12,21,36,180,43,24,49,067,48,27,10,265,41,32,40,258,43*78
2017-12-01 14:07:46 1512155266.668594: $GPGSV,3,3,12,20,15,114,36,08,07,300,31,12,04,112,22,138,38,213,46*45
2017-12-01 14:07:46 1512155266.780482: $GPZDA,190747.00,01,12,2017,00,00*6C
2017-12-01 14:07:46 1512155266.780662: $GPGGA,190747,3946.9554,N,08404.9831,W,2,12,0.80,306.60,M,-33.324,M,,*71
2017-12-01 14:07:46 1512155266.780733: $GPRMC,190747,A,3946.9554,N,08404.9831,W,0.0000,0.000,011217,,*39
2017-12-01 14:07:46 1512155266.780795: $GPGSA,A,3,10,14,15,18,21,24,27,32,20,8,12,138,2.0,0.8,1.5*37
2017-12-01 14:07:47 1512155267.331609: $GPZDA,190748.00,01,12,2017,00,00*63
2017-12-01 14:07:47 1512155267.331777: $GPGGA,190748,3946.9554,N,08404.9831,W,2,12,0.80,306.60,M,-33.324,M,,*7E
2017-12-01 14:07:47 1512155267.331843: $GPRMC,190748,A,3946.9554,N,08404.9831,W,0.0000,0.000,011217,,*36
2017-12-01 14:07:47 1512155267.331905: $GPGSA,A,3,10,14,15,18,21,24,27,32,20,8,12,138,2.0,0.8,1.5*37
2017-12-01 14:07:48 1512155268.326099: $GPZDA,190749.00,01,12,2017,00,00*62
2017-12-01 14:07:48 1512155268.326284: $GPGGA,190749,3946.9554,N,08404.9831,W,2,12,0.80,306.60,M,-33.324,M,,*7F
2017-12-01 14:07:48 1512155268.326352: $GPRMC,190749,A,3946.9554,N,08404.9831,W,0.0000,0.000,011217,,*37
2017-12-01 14:07:48 1512155268.326430: $GPGSA,A,3,10,14,15,18,21,24,27,32,20,8,12,138,2.0,0.8,1.5*37
2017-12-01 14:07:49 1512155269.669491: $GPGSV,3,1,12,10,62,322,50,14,23,247,38,15,17,063,36,18,75,072,42*7F
2017-12-01 14:07:49 1512155269.669693: $GPGSV,3,2,12,21,36,180,43,24,49,067,48,27,10,265,41,32,40,258,43*78
2017-12-01 14:07:49 1512155269.669760: $GPGSV,3,3,12,20,15,114,36,08,07,300,31,12,04,112,22,138,38,213,46*45
2017-12-01 14:07:49 1512155269.783083: $GPZDA,190750.00,01,12,2017,00,00*6A
2017-12-01 14:07:49 1512155269.783275: $GPGGA,190750,3946.9554,N,08404.9831,W,2,12,0.80,306.60,M,-33.324,M,,*77
2017-12-01 14:07:49 1512155269.783343: $GPRMC,190750,A,3946.9554,N,08404.9831,W,0.0000,0.000,011217,,*3F
2017-12-01 14:07:49 1512155269.783422: $GPGSA,A,3,10,14,15,18,21,24,27,32,20,8,12,138,2.0,0.8,1.5*37
2017-12-01 14:07:50 1512155270.408004: $GPZDA,190751.00,01,12,2017,00,00*6B
2017-12-01 14:07:50 1512155270.408175: $GPGGA,190751,3946.9554,N,08404.9831,W,2,12,0.80,306.60,M,-33.324,M,,*76
2017-12-01 14:07:50 1512155270.408242: $GPRMC,190751,A,3946.9554,N,08404.9831,W,0.0000,0.000,011217,,*3E
2017-12-01 14:07:50 1512155270.408323: $GPGSA,A,3,10,14,15,18,21,24,27,32,20,8,12,138,2.0,0.8,1.5*37
2017-12-01 14:07:51 1512155271.331476: $GPZDA,190752.00,01,12,2017,00,00*68
2017-12-01 14:07:51 1512155271.331649: $GPGGA,190752,3946.9554,N,08404.9831,W,2,12,0.80,306.60,M,-33.324,M,,*75
2017-12-01 14:07:51 1512155271.331716: $GPRMC,190752,A,3946.9554,N,08404.9831,W,0.0000,0.000,011217,,*3D
2017-12-01 14:07:51 1512155271.331777: $GPGSA,A,3,10,14,15,18,21,24,27,32,20,8,12,138,2.0,0.8,1.5*37
2017-12-01 14:07:52 1512155272.667079: $GPGSV,3,1,12,10,62,322,49,14,23,247,39,15,17,063,36,18,75,072,43*77
2017-12-01 14:07:52 1512155272.667259: $GPGSV,3,2,12,21,36,180,43,24,49,067,48,27,10,265,42,32,40,258,43*7B
2017-12-01 14:07:52 1512155272.667325: $GPGSV,3,3,12,20,15,114,36,08,07,300,19,12,04,112,22,138,38,213,48*41
2017-12-01 14:07:52 1512155272.780473: $GPZDA,190753.00,01,12,2017,00,00*69
2017-12-01 14:07:52 1512155272.780631: $GPGGA,190753,3946.9554,N,08404.9831,W,2,12,0.80,306.60,M,-33.324,M,,*74
2017-12-01 14:07:52 1512155272.780698: $GPRMC,190753,A,3946.9554,N,08404.9831,W,0.0000,0.000,011217,,*3C
2017-12-01 14:07:52 1512155272.780758: $GPGSA,A,3,10,14,15,18,21,24,27,32,20,8,12,138,2.0,0.8,1.5*37
2017-12-01 14:07:53 1512155273.332648: $GPZDA,190754.00,01,12,2017,00,00*6E
2017-12-01 14:07:53 1512155273.332809: $GPGGA,190754,3946.9554,N,08404.9831,W,2,12,0.80,306.60,M,-33.324,M,,*73
2017-12-01 14:07:53 1512155273.332877: $GPRMC,190754,A,3946.9554,N,08404.9831,W,0.0000,0.000,011217,,*3B
2017-12-01 14:07:53 1512155273.332938: $GPGSA,A,3,10,14,15,18,21,24,27,32,20,8,12,138,2.0,0.8,1.5*37
2017-12-01 14:07:54 1512155274.332282: $GPZDA,190755.00,01,12,2017,00,00*6F
2017-12-01 14:07:54 1512155274.332444: $GPGGA,190755,3946.9553,N,08404.9824,W,2,12,0.80,306.68,M,-33.324,M,,*79
2017-12-01 14:07:54 1512155274.332514: $GPRMC,190755,A,3946.9553,N,08404.9824,W,0.0000,0.000,011217,,*39
2017-12-01 14:07:54 1512155274.332575: $GPGSA,A,3,10,14,15,18,21,24,27,32,20,8,12,138,2.0,0.8,1.5*37
2017-12-01 14:07:55 1512155275.667532: $GPGSV,3,1,12,10,62,322,50,14,23,247,39,15,17,063,35,18,75,072,43*7C
2017-12-01 14:07:55 1512155275.667716: $GPGSV,3,2,12,21,36,180,43,24,49,067,48,27,10,265,42,32,40,258,43*7B
2017-12-01 14:07:55 1512155275.667782: $GPGSV,3,3,12,20,15,114,36,08,07,300,17,12,04,112,22,138,38,213,46*41
2017-12-01 14:07:55 1512155275.780869: $GPZDA,190756.00,01,12,2017,00,00*6C
2017-12-01 14:07:55 1512155275.781039: $GPGGA,190756,3946.9553,N,08404.9824,W,2,12,0.80,306.68,M,-33.324,M,,*7A
2017-12-01 14:07:55 1512155275.781105: $GPRMC,190756,A,3946.9553,N,08404.9824,W,0.0000,0.000,011217,,*3A
2017-12-01 14:07:55 1512155275.781166: $GPGSA,A,3,10,14,15,18,21,24,27,32,20,8,12,138,2.0,0.8,1.5*37
2017-12-01 14:07:56 1512155276.325584: $GPZDA,190757.00,01,12,2017,00,00*6D
2017-12-01 14:07:56 1512155276.325770: $GPGGA,190757,3946.9553,N,08404.9824,W,2,12,0.80,306.68,M,-33.324,M,,*7B
2017-12-01 14:07:56 1512155276.325843: $GPRMC,190757,A,3946.9553,N,08404.9824,W,0.0000,0.000,011217,,*3B
2017-12-01 14:07:56 1512155276.325905: $GPGSA,A,3,10,14,15,18,21,24,27,32,20,8,12,138,2.0,0.8,1.5*37
2017-12-01 14:07:57 1512155277.332631: $GPZDA,190758.00,01,12,2017,00,00*62
2017-12-01 14:07:57 1512155277.332824: $GPGGA,190758,3946.9553,N,08404.9824,W,2,12,0.80,306.68,M,-33.324,M,,*74
2017-12-01 14:07:57 1512155277.332893: $GPRMC,190758,A,3946.9553,N,08404.9824,W,0.0000,0.000,011217,,*34
2017-12-01 14:07:57 1512155277.332955: $GPGSA,A,3,10,14,15,18,21,24,27,32,20,8,12,138,2.0,0.8,1.5*37
