2017-11-16 17:27:26 1510871246.373282: {"class":"VERSION","release":"3.17","rev":"3.17","proto_major":3,"proto_minor":12}
2017-11-16 17:27:26 1510871246.373733: {"class":"DEVICES","devices":[{"class":"DEVICE","path":"/dev/ttyUSB0","driver":"SiRF","subtype":"9\u0006GSD4e_4.1.2-P1_RPATCH.05-F-GPS-4R-1510281 11/03/2015 307","activated":"2017-11-16T22:27:26.283Z","flags":1,"native":1,"bps":4800,"parity":"N","stopbits":1,"cycle":1.00}]}
2017-11-16 17:27:26 1510871246.373848: {"class":"WATCH","enable":true,"json":false,"nmea":true,"raw":0,"scaled":false,"timing":false,"split24":false,"pps":false}
2017-11-16 17:27:26 1510871246.415309: $GPZDA,222725.00,16,11,2017,00,00*67
2017-11-16 17:27:26 1510871246.415489: $GPGGA,222725,3946.9573,N,08404.9837,W,2,11,0.80,306.91,M,-33.324,M,,*71
2017-11-16 17:27:26 1510871246.415555: $GPRMC,222725,A,3946.9573,N,08404.9837,W,0.0000,0.000,161117,,*31
2017-11-16 17:27:26 1510871246.415615: $GPGSA,A,3,1,10,22,12,14,18,11,25,31,32,138,,1.6,0.8,1.3*3E
2017-11-16 17:27:27 1510871247.738614: $GPGSV,3,1,11,01,21,303,36,10,50,147,49,22,17,312,45,12,23,051,51*72
2017-11-16 17:27:27 1510871247.738778: $GPGSV,3,2,11,14,65,324,47,18,20,144,33,11,09,283,42,25,39,093,47*70
2017-11-16 17:27:27 1510871247.738843: $GPGSV,3,3,11,31,53,223,49,32,69,022,48,138,38,213,44*70
2017-11-16 17:27:27 1510871247.851970: $GPZDA,222726.00,16,11,2017,00,00*64
2017-11-16 17:27:27 1510871247.852135: $GPGGA,222726,3946.9573,N,08404.9837,W,2,11,0.80,306.91,M,-33.324,M,,*72
2017-11-16 17:27:27 1510871247.852200: $GPRMC,222726,A,3946.9573,N,08404.9837,W,0.0000,0.000,161117,,*32
2017-11-16 17:27:27 1510871247.852260: $GPGSA,A,3,1,10,22,12,14,18,11,25,31,32,138,,1.6,0.8,1.3*3E
2017-11-16 17:27:28 1510871248.402846: $GPZDA,222727.00,16,11,2017,00,00*65
2017-11-16 17:27:28 1510871248.403013: $GPGGA,222727,3946.9573,N,08404.9837,W,2,11,0.80,306.91,M,-33.324,M,,*73
2017-11-16 17:27:28 1510871248.403076: $GPRMC,222727,A,3946.9573,N,08404.9837,W,0.0000,0.000,161117,,*33
2017-11-16 17:27:28 1510871248.403135: $GPGSA,A,3,1,10,22,12,14,18,11,25,31,32,138,,1.6,0.8,1.3*3E
2017-11-16 17:27:29 1510871249.421129: $GPZDA,222728.00,16,11,2017,00,00*6A
2017-11-16 17:27:29 1510871249.421298: $GPGGA,222728,3946.9573,N,08404.9837,W,2,11,0.80,306.91,M,-33.324,M,,*7C
2017-11-16 17:27:29 1510871249.421363: $GPRMC,222728,A,3946.9573,N,08404.9837,W,0.0000,0.000,161117,,*3C
2017-11-16 17:27:29 1510871249.421422: $GPGSA,A,3,1,10,22,12,14,18,11,25,31,32,138,,1.6,0.8,1.3*3E
2017-11-16 17:27:30 1510871250.738173: $GPGSV,3,1,11,01,21,303,36,10,50,147,49,22,17,312,44,12,23,051,50*72
2017-11-16 17:27:31 1510871251.564599: $GPGSV,3,2,11,14,65,324,47,18,20,144,32,11,09,283,43,25,39,093,48*7F
2017-11-16 17:27:31 1510871251.564733: $GPGSV,3,3,11,31,53,223,50,32,69,022,49,138,38,213,44*79
2017-11-16 17:27:31 1510871251.564825: $GPZDA,222729.00,16,11,2017,00,00*6B
2017-11-16 17:27:31 1510871251.564879: $GPGGA,222729,3946.9573,N,08404.9837,W,2,11,0.80,306.91,M,-33.324,M,,*7D
2017-11-16 17:27:31 1510871251.564938: $GPRMC,222729,A,3946.9573,N,08404.9837,W,0.0000,0.000,161117,,*3D
2017-11-16 17:27:31 1510871251.564995: $GPGSA,A,3,1,10,22,12,14,18,11,25,31,32,138,,1.6,0.8,1.3*3E
2017-11-16 17:27:31 1510871251.565106: $GPZDA,222730.00,16,11,2017,00,00*63
2017-11-16 17:27:31 1510871251.565160: $GPGGA,222730,3946.9573,N,08404.9837,W,2,11,0.80,306.91,M,-33.324,M,,*75
2017-11-16 17:27:31 1510871251.565219: $GPRMC,222730,A,3946.9573,N,08404.9837,W,0.0000,0.000,161117,,*35
2017-11-16 17:27:31 1510871251.565275: $GPGSA,A,3,1,10,22,12,14,18,11,25,31,32,138,,1.6,0.8,1.3*3E
2017-11-16 17:27:32 1510871252.415408: $GPZDA,222731.00,16,11,2017,00,00*62
2017-11-16 17:27:32 1510871252.415595: $GPGGA,222731,3946.9573,N,08404.9837,W,2,11,0.80,306.91,M,-33.324,M,,*74
2017-11-16 17:27:32 1510871252.415660: $GPRMC,222731,A,3946.9573,N,08404.9837,W,0.0000,0.000,161117,,*34
2017-11-16 17:27:32 1510871252.415719: $GPGSA,A,3,1,10,22,12,14,18,11,25,31,32,138,,1.6,0.8,1.3*3E
2017-11-16 17:27:33 1510871253.757313: $GPGSV,3,1,11,01,21,303,37,10,50,147,50,22,17,312,44,12,23,051,51*7A
2017-11-16 17:27:33 1510871253.757544: $GPGSV,3,2,11,14,65,324,47,18,20,144,33,11,09,283,43,25,39,093,48*7E
2017-11-16 17:27:33 1510871253.757605: $GPGSV,3,3,11,31,53,223,50,32,69,022,49,138,38,213,44*79
2017-11-16 17:27:33 1510871253.870695: $GPZDA,222732.00,16,11,2017,00,00*61
2017-11-16 17:27:33 1510871253.870859: $GPGGA,222732,3946.9573,N,08404.9837,W,2,11,0.80,306.91,M,-33.324,M,,*77
2017-11-16 17:27:33 1510871253.870920: $GPRMC,222732,A,3946.9573,N,08404.9837,W,0.0000,0.000,161117,,*37
2017-11-16 17:27:33 1510871253.870976: $GPGSA,A,3,1,10,22,12,14,18,11,25,31,32,138,,1.6,0.8,1.3*3E
2017-11-16 17:27:34 1510871254.405634: $GPZDA,222733.00,16,11,2017,00,00*60
2017-11-16 17:27:34 1510871254.405795: $GPGGA,222733,3946.9573,N,08404.9837,W,2,11,0.80,306.91,M,-33.324,M,,*76
2017-11-16 17:27:34 1510871254.405856: $GPRMC,222733,A,3946.9573,N,08404.9837,W,0.0000,0.000,161117,,*36
2017-11-16 17:27:34 1510871254.405911: $GPGSA,A,3,1,10,22,12,14,18,11,25,31,32,138,,1.6,0.8,1.3*3E
2017-11-16 17:27:35 1510871255.421374: $GPZDA,222734.00,16,11,2017,00,00*67
2017-11-16 17:27:35 1510871255.421536: $GPGGA,222734,3946.9573,N,08404.9837,W,2,11,0.80,306.91,M,-33.324,M,,*71
2017-11-16 17:27:35 1510871255.421596: $GPRMC,222734,A,3946.9573,N,08404.9837,W,0.0000,0.000,161117,,*31
2017-11-16 17:27:35 1510871255.421651: $GPGSA,A,3,1,10,22,12,14,18,11,25,31,32,138,,1.6,0.8,1.3*3E
