2017-11-16 15:29:33 1510864173.768562: {"class":"VERSION","release":"3.17","rev":"3.17","proto_major":3,"proto_minor":12}
2017-11-16 15:29:33 1510864173.769027: {"class":"DEVICES","devices":[{"class":"DEVICE","path":"/dev/ttyUSB0","driver":"SiRF","subtype":"9\u0006GSD4e_4.1.2-P1_RPATCH.05-F-GPS-4R-1510281 11/03/2015 307","activated":"2017-11-16T20:29:33.509Z","flags":1,"native":1,"bps":4800,"parity":"N","stopbits":1,"cycle":1.00}]}
2017-11-16 15:29:33 1510864173.769161: {"class":"WATCH","enable":true,"json":false,"nmea":true,"raw":0,"scaled":false,"timing":false,"split24":false,"pps":false}
2017-11-16 15:29:34 1510864174.704852: $GPGSV,3,1,12,08,05,292,33,10,70,333,51,14,30,255,45,20,07,118,24*73
2017-11-16 15:29:34 1510864174.705049: $GPGSV,3,2,12,18,70,097,47,15,10,067,32,21,28,180,42,24,44,057,50*7A
2017-11-16 15:29:34 1510864174.705123: $GPGSV,3,3,12,27,05,258,30,32,47,267,47,12,10,106,34,138,38,213,44*47
2017-11-16 15:29:34 1510864174.818160: $GPZDA,202933.00,16,11,2017,00,00*6C
2017-11-16 15:29:34 1510864174.818358: $GPGGA,202933,3946.9568,N,08404.9860,W,2,12,0.80,309.61,M,-33.324,M,,*71
2017-11-16 15:29:34 1510864174.818421: $GPRMC,202933,A,3946.9568,N,08404.9860,W,0.0000,0.000,161117,,*32
2017-11-16 15:29:34 1510864174.818493: $GPGSA,A,3,8,10,14,20,18,15,21,24,27,32,12,138,1.6,0.8,1.3*34
2017-11-16 15:29:35 1510864175.366500: $GPZDA,202934.00,16,11,2017,00,00*6B
2017-11-16 15:29:35 1510864175.366645: $GPGGA,202934,3946.9568,N,08404.9860,W,2,12,0.80,309.61,M,-33.324,M,,*76
2017-11-16 15:29:35 1510864175.366707: $GPRMC,202934,A,3946.9568,N,08404.9860,W,0.0000,0.000,161117,,*35
2017-11-16 15:29:35 1510864175.366762: $GPGSA,A,3,8,10,14,20,18,15,21,24,27,32,12,138,1.6,0.8,1.3*34
2017-11-16 15:29:36 1510864176.384356: $GPZDA,202935.00,16,11,2017,00,00*6A
2017-11-16 15:29:36 1510864176.384559: $GPGGA,202935,3946.9568,N,08404.9860,W,2,12,0.80,309.61,M,-33.324,M,,*77
2017-11-16 15:29:36 1510864176.384625: $GPRMC,202935,A,3946.9568,N,08404.9860,W,0.0000,0.000,161117,,*34
2017-11-16 15:29:36 1510864176.384682: $GPGSA,A,3,8,10,14,20,18,15,21,24,27,32,12,138,1.6,0.8,1.3*34
2017-11-16 15:29:37 1510864177.705119: $GPGSV,3,1,12,08,05,292,34,10,70,333,51,14,30,255,45,20,07,118,23*73
2017-11-16 15:29:37 1510864177.705321: $GPGSV,3,2,12,18,70,097,47,15,10,067,31,21,28,180,42,24,44,057,50*79
2017-11-16 15:29:37 1510864177.705384: $GPGSV,3,3,12,27,05,258,30,32,47,267,48,12,10,106,34,138,38,213,45*49
2017-11-16 15:29:37 1510864177.818428: $GPZDA,202936.00,16,11,2017,00,00*69
2017-11-16 15:29:37 1510864177.818594: $GPGGA,202936,3946.9568,N,08404.9860,W,2,12,0.80,309.61,M,-33.324,M,,*74
2017-11-16 15:29:37 1510864177.818657: $GPRMC,202936,A,3946.9568,N,08404.9860,W,0.0000,0.000,161117,,*37
2017-11-16 15:29:37 1510864177.818714: $GPGSA,A,3,8,10,14,20,18,15,21,24,27,32,12,138,1.6,0.8,1.3*34
2017-11-16 15:29:38 1510864178.383317: $GPZDA,202937.00,16,11,2017,00,00*68
2017-11-16 15:29:38 1510864178.383491: $GPGGA,202937,3946.9568,N,08404.9860,W,2,12,0.80,309.61,M,-33.324,M,,*75
2017-11-16 15:29:38 1510864178.383553: $GPRMC,202937,A,3946.9568,N,08404.9860,W,0.0000,0.000,161117,,*36
2017-11-16 15:29:38 1510864178.383609: $GPGSA,A,3,8,10,14,20,18,15,21,24,27,32,12,138,1.6,0.8,1.3*34
2017-11-16 15:29:39 1510864179.366447: $GPZDA,202938.00,16,11,2017,00,00*67
2017-11-16 15:29:39 1510864179.366616: $GPGGA,202938,3946.9568,N,08404.9860,W,2,12,0.80,309.61,M,-33.324,M,,*7A
2017-11-16 15:29:39 1510864179.366678: $GPRMC,202938,A,3946.9568,N,08404.9860,W,0.0000,0.000,161117,,*39
2017-11-16 15:29:39 1510864179.366735: $GPGSA,A,3,8,10,14,20,18,15,21,24,27,32,12,138,1.6,0.8,1.3*34
2017-11-16 15:29:40 1510864180.713478: $GPGSV,3,1,12,08,05,292,34,10,70,333,51,14,30,255,45,20,07,118,23*73
2017-11-16 15:29:40 1510864180.713647: $GPGSV,3,2,12,18,70,097,47,15,10,067,31,21,28,180,42,24,44,057,50*79
2017-11-16 15:29:40 1510864180.713706: $GPGSV,3,3,12,27,05,258,30,32,47,267,48,12,10,106,34,138,38,213,44*48
2017-11-16 15:29:40 1510864180.826744: $GPZDA,202939.00,16,11,2017,00,00*66
2017-11-16 15:29:40 1510864180.826904: $GPGGA,202939,3946.9568,N,08404.9860,W,2,12,0.80,309.61,M,-33.324,M,,*7B
2017-11-16 15:29:40 1510864180.827019: $GPRMC,202939,A,3946.9568,N,08404.9860,W,0.0000,0.000,161117,,*38
2017-11-16 15:29:40 1510864180.827078: $GPGSA,A,3,8,10,14,20,18,15,21,24,27,32,12,138,1.6,0.8,1.3*34
2017-11-16 15:29:41 1510864181.453401: $GPZDA,202940.00,16,11,2017,00,00*68
2017-11-16 15:29:41 1510864181.453588: $GPGGA,202940,3946.9568,N,08404.9860,W,2,12,0.80,309.61,M,-33.324,M,,*75
2017-11-16 15:29:41 1510864181.453670: $GPRMC,202940,A,3946.9568,N,08404.9860,W,0.0000,0.000,161117,,*36
2017-11-16 15:29:41 1510864181.453728: $GPGSA,A,3,8,10,14,20,18,15,21,24,27,32,12,138,1.6,0.8,1.3*34
2017-11-16 15:29:42 1510864182.366759: $GPZDA,202941.00,16,11,2017,00,00*69
2017-11-16 15:29:42 1510864182.366924: $GPGGA,202941,3946.9568,N,08404.9860,W,2,12,0.80,309.61,M,-33.324,M,,*74
2017-11-16 15:29:42 1510864182.367005: $GPRMC,202941,A,3946.9568,N,08404.9860,W,0.0000,0.000,161117,,*37
2017-11-16 15:29:42 1510864182.367061: $GPGSA,A,3,8,10,14,20,18,15,21,24,27,32,12,138,1.6,0.8,1.3*34
2017-11-16 15:29:43 1510864183.703890: $GPGSV,3,1,12,08,05,292,34,10,70,333,51,14,30,255,45,20,07,118,23*73
2017-11-16 15:29:43 1510864183.704059: $GPGSV,3,2,12,18,70,097,47,15,10,067,31,21,28,180,42,24,44,057,50*79
2017-11-16 15:29:43 1510864183.704120: $GPGSV,3,3,12,27,05,258,30,32,47,267,48,12,10,106,34,138,38,213,45*49
