2018-01-11 20:16:43 1515719803.346823: {"class":"VERSION","release":"3.16","rev":"3.16-4","proto_major":3,"proto_minor":11}
2018-01-11 20:16:43 1515719803.347206: {"class":"DEVICES","devices":[{"class":"DEVICE","path":"/dev/ttyUSB0","driver":"SiRF","subtype":"9\u0006GSD4e_4.1.2-P1_RPATCH.05-F-GPS-4R-1510281 11/03/2015 307","activated":"2018-01-12T01:16:43.333Z","flags":1,"native":1,"bps":4800,"parity":"N","stopbits":1,"cycle":1.00}]}
2018-01-11 20:16:43 1515719803.347318: {"class":"WATCH","enable":true,"json":false,"nmea":true,"raw":0,"scaled":false,"timing":false,"split24":false,"pps":false}
2018-01-11 20:16:44 1515719804.328519: $GPZDA,011645.00,12,01,2018,00,00*68
2018-01-11 20:16:44 1515719804.328692: $GPGGA,011645,3946.9596,N,08404.9854,W,2,10,0.80,303.49,M,-33.324,M,,*7B
2018-01-11 20:16:44 1515719804.328758: $GPRMC,011645,A,3946.9596,N,08404.9854,W,0.0000,0.000,120118,,*30
2018-01-11 20:16:44 1515719804.328819: $GPGSA,A,3,7,8,9,11,16,23,27,30,28,138,,,4.0,0.8,3.5*3E
2018-01-11 20:16:45 1515719805.670508: $GPGSV,3,1,11,07,58,315,43,08,75,121,46,09,46,226,42,11,22,166,46*73
2018-01-11 20:16:45 1515719805.670670: $GPGSV,3,2,11,16,21,061,42,23,26,189,48,27,45,051,50,30,31,307,34*73
2018-01-11 20:16:45 1515719805.670737: $GPGSV,3,3,11,28,16,259,39,01,01,162,00,138,38,213,45*75
2018-01-11 20:16:45 1515719805.783833: $GPZDA,011646.00,12,01,2018,00,00*6B
2018-01-11 20:16:45 1515719805.783969: $GPGGA,011646,3946.9596,N,08404.9854,W,2,10,0.80,303.49,M,-33.324,M,,*78
2018-01-11 20:16:45 1515719805.784033: $GPRMC,011646,A,3946.9596,N,08404.9854,W,0.0000,0.000,120118,,*33
2018-01-11 20:16:45 1515719805.784095: $GPGSA,A,3,7,8,9,11,16,23,27,30,28,138,,,4.0,0.8,3.5*3E
2018-01-11 20:16:46 1515719806.336238: $GPZDA,011647.00,12,01,2018,00,00*6A
2018-01-11 20:16:46 1515719806.336374: $GPGGA,011647,3946.9596,N,08404.9854,W,2,10,0.80,303.49,M,-33.324,M,,*79
2018-01-11 20:16:46 1515719806.336441: $GPRMC,011647,A,3946.9596,N,08404.9854,W,0.0000,0.000,120118,,*32
2018-01-11 20:16:46 1515719806.336502: $GPGSA,A,3,7,8,9,11,16,23,27,30,28,138,,,4.0,0.8,3.5*3E
2018-01-11 20:16:47 1515719807.333403: $GPZDA,011648.00,12,01,2018,00,00*65
2018-01-11 20:16:47 1515719807.338341: $GPGGA,011648,3946.9596,N,08404.9854,W,2,10,0.80,303.49,M,-33.324,M,,*76
2018-01-11 20:16:47 1515719807.338448: $GPRMC,011648,A,3946.9596,N,08404.9854,W,0.0000,0.000,120118,,*3D
2018-01-11 20:16:47 1515719807.338510: $GPGSA,A,3,7,8,9,11,16,23,27,30,28,138,,,4.0,0.8,3.5*3E
2018-01-11 20:16:48 1515719808.670109: $GPGSV,3,1,11,07,58,315,43,08,75,121,46,09,46,226,42,11,22,166,46*73
2018-01-11 20:16:48 1515719808.670276: $GPGSV,3,2,11,16,21,061,42,23,26,189,48,27,45,051,50,30,31,307,34*73
2018-01-11 20:16:48 1515719808.670346: $GPGSV,3,3,11,28,16,259,39,01,01,162,00,138,38,213,44*74
2018-01-11 20:16:48 1515719808.783736: $GPZDA,011649.00,12,01,2018,00,00*64
2018-01-11 20:16:48 1515719808.783859: $GPGGA,011649,3946.9596,N,08404.9854,W,2,10,0.80,303.49,M,-33.324,M,,*77
2018-01-11 20:16:48 1515719808.783924: $GPRMC,011649,A,3946.9596,N,08404.9854,W,0.0000,0.000,120118,,*3C
2018-01-11 20:16:48 1515719808.783983: $GPGSA,A,3,7,8,9,11,16,23,27,30,28,138,,,4.0,0.8,3.5*3E
2018-01-11 20:16:49 1515719809.409155: $GPZDA,011650.00,12,01,2018,00,00*6C
2018-01-11 20:16:49 1515719809.409330: $GPGGA,011650,3946.9596,N,08404.9854,W,2,10,0.80,303.49,M,-33.324,M,,*7F
2018-01-11 20:16:49 1515719809.409396: $GPRMC,011650,A,3946.9596,N,08404.9854,W,0.0000,0.000,120118,,*34
2018-01-11 20:16:49 1515719809.409463: $GPGSA,A,3,7,8,9,11,16,23,27,30,28,138,,,4.0,0.8,3.5*3E
2018-01-11 20:16:50 1515719810.331122: $GPZDA,011651.00,12,01,2018,00,00*6D
2018-01-11 20:16:50 1515719810.331265: $GPGGA,011651,3946.9596,N,08404.9854,W,2,10,0.80,303.49,M,-33.324,M,,*7E
2018-01-11 20:16:50 1515719810.331335: $GPRMC,011651,A,3946.9596,N,08404.9854,W,0.0000,0.000,120118,,*35
2018-01-11 20:16:50 1515719810.331395: $GPGSA,A,3,7,8,9,11,16,23,27,30,28,138,,,4.0,0.8,3.5*3E
2018-01-11 20:16:51 1515719811.670512: $GPGSV,3,1,11,07,58,315,43,08,75,121,46,09,46,226,42,11,22,166,46*73
2018-01-11 20:16:51 1515719811.670692: $GPGSV,3,2,11,16,21,061,42,23,26,189,48,27,45,051,50,30,31,307,34*73
2018-01-11 20:16:51 1515719811.670812: $GPGSV,3,3,11,28,16,259,39,01,01,162,00,138,38,213,45*75
2018-01-11 20:16:51 1515719811.784174: $GPZDA,011652.00,12,01,2018,00,00*6E
2018-01-11 20:16:51 1515719811.784298: $GPGGA,011652,3946.9596,N,08404.9854,W,2,10,0.80,303.49,M,-33.324,M,,*7D
2018-01-11 20:16:51 1515719811.784364: $GPRMC,011652,A,3946.9596,N,08404.9854,W,0.0000,0.000,120118,,*36
2018-01-11 20:16:51 1515719811.784428: $GPGSA,A,3,7,8,9,11,16,23,27,30,28,138,,,4.0,0.8,3.5*3E
2018-01-11 20:16:52 1515719812.335115: $GPZDA,011653.00,12,01,2018,00,00*6F
2018-01-11 20:16:53 1515719813.319854: $GPGGA,011653,3946.9596,N,08404.9854,W,2,10,0.80,303.49,M,-33.324,M,,*7C
2018-01-11 20:16:53 1515719813.320004: $GPRMC,011653,A,3946.9596,N,08404.9854,W,0.0000,0.000,120118,,*37
2018-01-11 20:16:53 1515719813.320106: $GPGSA,A,3,7,8,9,11,16,23,27,30,28,138,,,4.0,0.8,3.5*3E
2018-01-11 20:16:53 1515719813.334740: $GPZDA,011654.00,12,01,2018,00,00*68
2018-01-11 20:16:53 1515719813.335005: $GPGGA,011654,3946.9596,N,08404.9854,W,2,10,0.80,303.49,M,-33.324,M,,*7B
2018-01-11 20:16:53 1515719813.335075: $GPRMC,011654,A,3946.9596,N,08404.9854,W,0.0000,0.000,120118,,*30
2018-01-11 20:16:53 1515719813.335138: $GPGSA,A,3,7,8,9,11,16,23,27,30,28,138,,,4.0,0.8,3.5*3E
2018-01-11 20:16:54 1515719814.670807: $GPGSV,3,1,11,07,58,315,43,08,75,121,46,09,46,226,41,11,22,166,46*70
2018-01-11 20:16:54 1515719814.670965: $GPGSV,3,2,11,16,21,061,42,23,26,189,48,27,45,051,50,30,31,307,34*73
2018-01-11 20:16:54 1515719814.671031: $GPGSV,3,3,11,28,16,259,39,01,01,162,00,138,38,213,45*75
2018-01-11 20:16:54 1515719814.784410: $GPZDA,011655.00,12,01,2018,00,00*69
2018-01-11 20:16:54 1515719814.784525: $GPGGA,011655,3946.9596,N,08404.9854,W,2,10,0.80,303.49,M,-33.324,M,,*7A
2018-01-11 20:16:54 1515719814.784589: $GPRMC,011655,A,3946.9596,N,08404.9854,W,0.0000,0.000,120118,,*31
2018-01-11 20:16:54 1515719814.784651: $GPGSA,A,3,7,8,9,11,16,23,27,30,28,138,,,4.0,0.8,3.5*3E
2018-01-11 20:16:55 1515719815.330378: $GPZDA,011656.00,12,01,2018,00,00*6A
2018-01-11 20:16:55 1515719815.330546: $GPGGA,011656,3946.9596,N,08404.9854,W,2,10,0.80,303.49,M,-33.324,M,,*79
2018-01-11 20:16:55 1515719815.330612: $GPRMC,011656,A,3946.9596,N,08404.9854,W,0.0000,0.000,120118,,*32
2018-01-11 20:16:55 1515719815.330673: $GPGSA,A,3,7,8,9,11,16,23,27,30,28,138,,,4.0,0.8,3.5*3E
