2017-11-15 19:26:43 1510792003.024133: {"class":"VERSION","release":"3.17","rev":"3.17","proto_major":3,"proto_minor":12}
2017-11-15 19:26:43 1510792003.024629: {"class":"DEVICES","devices":[{"class":"DEVICE","path":"/dev/ttyUSB0","driver":"SiRF","subtype":"9\u0006GSD4e_4.1.2-P1_RPATCH.05-F-GPS-4R-1510281 11/03/2015 307","activated":"2017-11-16T00:26:42.919Z","flags":1,"native":1,"bps":4800,"parity":"N","stopbits":1,"cycle":1.00}]}
2017-11-15 19:26:43 1510792003.024768: {"class":"WATCH","enable":true,"json":false,"nmea":true,"raw":0,"scaled":false,"timing":false,"split24":false,"pps":false}
2017-11-15 19:26:43 1510792003.330236: $GPZDA,002642.00,16,11,2017,00,00*67
2017-11-15 19:26:43 1510792003.334444: $GPGGA,002642,3946.9630,N,08404.9478,W,1,09,1.40,266.25,M,-33.324,M,,*7D
2017-11-15 19:26:43 1510792003.334547: $GPRMC,002642,A,3946.9630,N,08404.9478,W,0.0000,0.000,161117,,*32
2017-11-15 19:26:43 1510792003.334606: $GPGSA,A,3,32,31,16,26,14,29,22,3,23,,,,3.4,1.4,2.9*07
2017-11-15 19:26:44 1510792004.329769: $GPZDA,002643.00,16,11,2017,00,00*66
2017-11-15 19:26:44 1510792004.329932: $GPGGA,002643,3946.9630,N,08404.9478,W,1,09,1.40,266.25,M,-33.324,M,,*7C
2017-11-15 19:26:44 1510792004.329995: $GPRMC,002643,A,3946.9630,N,08404.9478,W,0.5306,294.352,161117,,*38
2017-11-15 19:26:44 1510792004.330054: $GPGSA,A,3,32,31,16,26,14,29,22,3,23,,,,3.4,1.4,2.9*07
2017-11-15 19:26:45 1510792005.665583: $GPGSV,3,1,11,32,37,106,22,31,68,022,22,16,21,190,12,26,52,172,29*76
2017-11-15 19:26:45 1510792005.665757: $GPGSV,3,2,11,14,56,091,08,29,10,072,11,22,50,273,22,03,39,300,09*71
2017-11-15 19:26:45 1510792005.665817: $GPGSV,3,3,11,23,10,300,14,25,18,040,00,01,06,253,00*46
2017-11-15 19:26:45 1510792005.778892: $GPZDA,002644.00,16,11,2017,00,00*61
2017-11-15 19:26:45 1510792005.779058: $GPGGA,002644,3946.9630,N,08404.9478,W,1,09,1.20,266.25,M,-33.324,M,,*7D
2017-11-15 19:26:45 1510792005.779123: $GPRMC,002644,A,3946.9630,N,08404.9478,W,0.5857,338.291,161117,,*39
2017-11-15 19:26:45 1510792005.779179: $GPGSA,A,3,32,31,16,26,14,29,22,3,23,,,,3.4,1.2,2.9*01
2017-11-15 19:26:46 1510792006.404540: $GPZDA,002645.00,16,11,2017,00,00*60
2017-11-15 19:26:46 1510792006.404702: $GPGGA,002645,3946.9629,N,08404.9471,W,1,09,1.20,266.33,M,-33.324,M,,*7A
2017-11-15 19:26:46 1510792006.404764: $GPRMC,002645,A,3946.9629,N,08404.9471,W,0.4179,328.778,161117,,*3E
2017-11-15 19:26:46 1510792006.404820: $GPGSA,A,3,32,31,16,26,14,29,22,3,23,,,,3.4,1.2,2.9*01
2017-11-15 19:26:47 1510792007.330251: $GPZDA,002646.00,16,11,2017,00,00*63
2017-11-15 19:26:47 1510792007.330438: $GPGGA,002646,3946.9629,N,08404.9471,W,1,09,1.20,266.33,M,-33.324,M,,*79
2017-11-15 19:26:47 1510792007.330502: $GPRMC,002646,A,3946.9629,N,08404.9471,W,0.4844,273.794,161117,,*37
2017-11-15 19:26:47 1510792007.330559: $GPGSA,A,3,32,31,16,26,14,29,22,3,23,,,,3.4,1.2,2.9*01
2017-11-15 19:26:48 1510792008.666004: $GPGSV,3,1,11,32,37,106,22,31,68,022,22,16,21,190,13,26,52,172,29*77
2017-11-15 19:26:48 1510792008.666176: $GPGSV,3,2,11,14,56,091,09,29,10,072,11,22,50,273,22,03,39,300,08*71
2017-11-15 19:26:48 1510792008.666238: $GPGSV,3,3,11,23,10,300,15,25,18,040,00,01,06,253,00*47
2017-11-15 19:26:48 1510792008.779757: $GPZDA,002647.00,16,11,2017,00,00*62
2017-11-15 19:26:48 1510792008.779931: $GPGGA,002647,3946.9629,N,08404.9471,W,1,09,1.20,266.33,M,-33.324,M,,*78
2017-11-15 19:26:48 1510792008.779998: $GPRMC,002647,A,3946.9629,N,08404.9471,W,0.3006,242.540,161117,,*36
2017-11-15 19:26:48 1510792008.780058: $GPGSA,A,3,32,31,16,26,14,29,22,3,23,,,,3.4,1.2,2.9*01
2017-11-15 19:26:49 1510792009.330140: $GPZDA,002648.00,16,11,2017,00,00*6D
2017-11-15 19:26:49 1510792009.330283: $GPGGA,002648,3946.9626,N,08404.9472,W,1,09,1.40,267.09,M,-33.324,M,,*75
2017-11-15 19:26:49 1510792009.330346: $GPRMC,002648,A,3946.9626,N,08404.9472,W,0.5617,211.295,161117,,*3C
2017-11-15 19:26:49 1510792009.330403: $GPGSA,A,3,32,31,16,26,14,29,22,3,23,,,,3.4,1.4,2.9*07
2017-11-15 19:26:50 1510792010.346005: $GPZDA,002649.00,16,11,2017,00,00*6C
2017-11-15 19:26:50 1510792010.346178: $GPGGA,002649,3946.9626,N,08404.9472,W,1,09,1.40,267.09,M,-33.324,M,,*74
2017-11-15 19:26:50 1510792010.346293: $GPRMC,002649,A,3946.9626,N,08404.9472,W,0.5912,129.173,161117,,*34
2017-11-15 19:26:50 1510792010.346353: $GPGSA,A,3,32,31,16,26,14,29,22,3,23,,,,3.4,1.4,2.9*07
2017-11-15 19:26:51 1510792011.665049: $GPGSV,3,1,11,32,37,106,21,31,68,022,21,16,21,190,15,26,52,172,29*71
2017-11-15 19:26:51 1510792011.665228: $GPGSV,3,2,11,14,56,091,07,29,10,072,10,22,50,273,22,03,39,300,06*70
2017-11-15 19:26:51 1510792011.665288: $GPGSV,3,3,11,23,10,300,14,25,18,040,00,01,06,253,00*46
2017-11-15 19:26:51 1510792011.778431: $GPZDA,002650.00,16,11,2017,00,00*64
2017-11-15 19:26:51 1510792011.778593: $GPGGA,002650,3946.9626,N,08404.9465,W,1,08,1.40,267.17,M,-33.324,M,,*74
2017-11-15 19:26:51 1510792011.778653: $GPRMC,002650,A,3946.9626,N,08404.9465,W,0.2422,93.794,161117,,*0C
2017-11-15 19:26:51 1510792011.778710: $GPGSA,A,3,32,31,16,26,14,29,22,23,,,,,3.4,1.4,2.9*34
2017-11-15 19:26:52 1510792012.329242: $GPZDA,002651.00,16,11,2017,00,00*65
2017-11-15 19:26:52 1510792012.329406: $GPGGA,002651,3946.9626,N,08404.9465,W,1,08,1.40,267.17,M,-33.324,M,,*75
2017-11-15 19:26:52 1510792012.329469: $GPRMC,002651,A,3946.9626,N,08404.9465,W,0.4949,112.165,161117,,*3B
2017-11-15 19:26:52 1510792012.329525: $GPGSA,A,3,32,31,16,26,14,29,22,23,,,,,3.4,1.4,2.9*34
