2017-12-29 14:48:16 1514576896.173307: {"class":"VERSION","release":"3.16","rev":"3.16-4","proto_major":3,"proto_minor":11}
2017-12-29 14:48:16 1514576896.173653: {"class":"DEVICES","devices":[{"class":"DEVICE","path":"/dev/ttyUSB0","driver":"SiRF","subtype":"9\u0006GSD4e_4.1.2-P1_RPATCH.05-F-GPS-4R-1510281 11/03/2015 307","activated":"2017-12-29T19:48:15.571Z","flags":1,"native":1,"bps":4800,"parity":"N","stopbits":1,"cycle":1.00}]}
2017-12-29 14:48:16 1514576896.173766: {"class":"WATCH","enable":true,"json":false,"nmea":true,"raw":0,"scaled":false,"timing":false,"split24":false,"pps":false}
2017-12-29 14:48:16 1514576896.765716: $GPGSV,3,1,12,01,22,295,36,10,42,150,50,12,20,045,45,14,68,339,43*70
2017-12-29 14:48:16 1514576896.765870: $GPGSV,3,2,12,18,12,145,38,22,24,312,37,25,41,084,51,26,08,181,19*7E
2017-12-29 14:48:16 1514576896.765960: $GPGSV,3,3,12,31,63,231,47,32,66,043,50,11,07,279,37,138,38,213,43*44
2017-12-29 14:48:16 1514576896.879549: $GPZDA,194817.00,29,12,2017,00,00*68
2017-12-29 14:48:16 1514576896.879692: $GPGGA,194817,3946.9578,N,08404.9866,W,2,12,0.80,296.56,M,-33.324,M,,*7E
2017-12-29 14:48:16 1514576896.879758: $GPRMC,194817,A,3946.9578,N,08404.9866,W,0.0000,0.000,291217,,*31
2017-12-29 14:48:16 1514576896.879819: $GPGSA,A,3,1,10,12,14,18,22,25,26,31,32,11,138,1.7,0.8,1.3*3B
2017-12-29 14:48:17 1514576897.392937: $GPZDA,194818.00,29,12,2017,00,00*67
2017-12-29 14:48:17 1514576897.393116: $GPGGA,194818,3946.9578,N,08404.9866,W,2,12,0.80,296.56,M,-33.324,M,,*71
2017-12-29 14:48:17 1514576897.393183: $GPRMC,194818,A,3946.9578,N,08404.9866,W,0.0000,0.000,291217,,*3E
2017-12-29 14:48:17 1514576897.393244: $GPGSA,A,3,1,10,12,14,18,22,25,26,31,32,11,138,1.7,0.8,1.3*3B
2017-12-29 14:48:18 1514576898.425888: $GPZDA,194819.00,29,12,2017,00,00*66
2017-12-29 14:48:18 1514576898.426065: $GPGGA,194819,3946.9578,N,08404.9866,W,2,12,0.80,296.56,M,-33.324,M,,*70
2017-12-29 14:48:18 1514576898.426131: $GPRMC,194819,A,3946.9578,N,08404.9866,W,0.0000,0.000,291217,,*3F
2017-12-29 14:48:18 1514576898.426193: $GPGSA,A,3,1,10,12,14,18,22,25,26,31,32,11,138,1.7,0.8,1.3*3B
2017-12-29 14:48:19 1514576899.766555: $GPGSV,3,1,12,01,22,295,36,10,42,150,50,12,20,045,45,14,68,339,43*70
2017-12-29 14:48:19 1514576899.766723: $GPGSV,3,2,12,18,12,145,38,22,24,312,38,25,41,084,51,26,08,181,19*71
2017-12-29 14:48:19 1514576899.766807: $GPGSV,3,3,12,31,63,231,47,32,66,043,50,11,07,279,38,138,38,213,44*4C
2017-12-29 14:48:19 1514576899.878734: $GPZDA,194820.00,29,12,2017,00,00*6C
2017-12-29 14:48:19 1514576899.878895: $GPGGA,194820,3946.9577,N,08404.9859,W,2,12,0.80,296.64,M,-33.324,M,,*78
2017-12-29 14:48:19 1514576899.878961: $GPRMC,194820,A,3946.9577,N,08404.9859,W,0.0000,0.000,291217,,*36
2017-12-29 14:48:19 1514576899.879038: $GPGSA,A,3,1,10,12,14,18,22,25,26,31,32,11,138,1.7,0.8,1.3*3B
2017-12-29 14:48:20 1514576900.505599: $GPZDA,194821.00,29,12,2017,00,00*6D
2017-12-29 14:48:20 1514576900.505756: $GPGGA,194821,3946.9577,N,08404.9859,W,2,12,0.80,296.64,M,-33.324,M,,*79
2017-12-29 14:48:20 1514576900.505836: $GPRMC,194821,A,3946.9577,N,08404.9859,W,0.0000,0.000,291217,,*37
2017-12-29 14:48:20 1514576900.505920: $GPGSA,A,3,1,10,12,14,18,22,25,26,31,32,11,138,1.7,0.8,1.3*3B
2017-12-29 14:48:21 1514576901.392728: $GPZDA,194822.00,29,12,2017,00,00*6E
2017-12-29 14:48:21 1514576901.395570: $GPGGA,194822,3946.9577,N,08404.9859,W,2,12,0.80,296.64,M,-33.324,M,,*7A
2017-12-29 14:48:21 1514576901.395688: $GPRMC,194822,A,3946.9577,N,08404.9859,W,0.0000,0.000,291217,,*34
2017-12-29 14:48:21 1514576901.395752: $GPGSA,A,3,1,10,12,14,18,22,25,26,31,32,11,138,1.7,0.8,1.3*3B
2017-12-29 14:48:22 1514576902.766922: $GPGSV,3,1,12,01,22,295,35,10,42,150,50,12,20,045,45,14,68,339,43*73
2017-12-29 14:48:22 1514576902.767088: $GPGSV,3,2,12,18,12,145,38,22,24,312,38,25,41,084,51,26,08,181,19*71
2017-12-29 14:48:22 1514576902.767169: $GPGSV,3,3,12,31,63,231,47,32,66,043,51,11,07,279,38,138,38,213,44*4D
2017-12-29 14:48:22 1514576902.880559: $GPZDA,194823.00,29,12,2017,00,00*6F
2017-12-29 14:48:22 1514576902.880698: $GPGGA,194823,3946.9577,N,08404.9859,W,2,12,0.80,296.64,M,-33.324,M,,*7B
2017-12-29 14:48:22 1514576902.880849: $GPRMC,194823,A,3946.9577,N,08404.9859,W,0.0000,0.000,291217,,*35
2017-12-29 14:48:22 1514576902.880914: $GPGSA,A,3,1,10,12,14,18,22,25,26,31,32,11,138,1.7,0.8,1.3*3B
2017-12-29 14:48:23 1514576903.430189: $GPZDA,194824.00,29,12,2017,00,00*68
2017-12-29 14:48:23 1514576903.430359: $GPGGA,194824,3946.9582,N,08404.9859,W,2,12,0.80,297.28,M,-33.324,M,,*7F
2017-12-29 14:48:23 1514576903.430438: $GPRMC,194824,A,3946.9582,N,08404.9859,W,0.0000,0.000,291217,,*38
2017-12-29 14:48:23 1514576903.430500: $GPGSA,A,3,1,10,12,14,18,22,25,26,31,32,11,138,1.7,0.8,1.3*3B
2017-12-29 14:48:24 1514576904.431098: $GPZDA,194825.00,29,12,2017,00,00*69
2017-12-29 14:48:24 1514576904.431280: $GPGGA,194825,3946.9582,N,08404.9859,W,2,12,0.80,297.28,M,-33.324,M,,*7E
2017-12-29 14:48:24 1514576904.431348: $GPRMC,194825,A,3946.9582,N,08404.9859,W,0.0000,0.000,291217,,*39
2017-12-29 14:48:24 1514576904.431410: $GPGSA,A,3,1,10,12,14,18,22,25,26,31,32,11,138,1.7,0.8,1.3*3B
2017-12-29 14:48:25 1514576905.767258: $GPGSV,3,1,12,01,22,295,35,10,42,150,50,12,20,045,45,14,68,339,43*73
2017-12-29 14:48:25 1514576905.767416: $GPGSV,3,2,12,18,12,145,38,22,24,312,38,25,41,084,51,26,08,181,18*70
2017-12-29 14:48:25 1514576905.767482: $GPGSV,3,3,12,31,63,231,47,32,66,043,51,11,07,279,38,138,38,213,43*4A
2017-12-29 14:48:25 1514576905.880936: $GPZDA,194826.00,29,12,2017,00,00*6A
2017-12-29 14:48:25 1514576905.881146: $GPGGA,194826,3946.9582,N,08404.9859,W,2,12,0.80,297.28,M,-33.324,M,,*7D
2017-12-29 14:48:25 1514576905.881222: $GPRMC,194826,A,3946.9582,N,08404.9859,W,0.0000,0.000,291217,,*3A
2017-12-29 14:48:25 1514576905.881284: $GPGSA,A,3,1,10,12,14,18,22,25,26,31,32,11,138,1.7,0.8,1.3*3B
