2018-01-11 19:51:07 1515718267.778182: {"class":"VERSION","release":"3.16","rev":"3.16-4","proto_major":3,"proto_minor":11}
2018-01-11 19:51:07 1515718267.778521: {"class":"DEVICES","devices":[{"class":"DEVICE","path":"/dev/ttyUSB0","driver":"SiRF","subtype":"9\u0006GSD4e_4.1.2-P1_RPATCH.05-F-GPS-4R-1510281 11/03/2015 307","activated":"2018-01-12T00:51:07.749Z","flags":1,"native":1,"bps":4800,"parity":"N","stopbits":1,"cycle":1.00}]}
2018-01-11 19:51:07 1515718267.778635: {"class":"WATCH","enable":true,"json":false,"nmea":true,"raw":0,"scaled":false,"timing":false,"split24":false,"pps":false}
2018-01-11 19:51:07 1515718267.862585: $GPZDA,005108.00,12,01,2018,00,00*63
2018-01-11 19:51:07 1515718267.862755: $GPGGA,005108,3946.9552,N,08404.9776,W,2,11,0.80,308.64,M,-33.324,M,,*72
2018-01-11 19:51:07 1515718267.862822: $GPRMC,005108,A,3946.9552,N,08404.9776,W,0.0000,0.000,120118,,*3C
2018-01-11 19:51:07 1515718267.862883: $GPGSA,A,3,7,8,9,11,16,23,27,30,28,26,138,,4.0,0.8,3.5*3A
2018-01-11 19:51:08 1515718268.412147: $GPZDA,005109.00,12,01,2018,00,00*62
2018-01-11 19:51:08 1515718268.412289: $GPGGA,005109,3946.9552,N,08404.9776,W,2,11,0.80,308.64,M,-33.324,M,,*73
2018-01-11 19:51:08 1515718268.412353: $GPRMC,005109,A,3946.9552,N,08404.9776,W,0.0000,0.000,120118,,*3D
2018-01-11 19:51:08 1515718268.412413: $GPGSA,A,3,7,8,9,11,16,23,27,30,28,26,138,,4.0,0.8,3.5*3A
2018-01-11 19:51:09 1515718269.419365: $GPZDA,005110.00,12,01,2018,00,00*6A
2018-01-11 19:51:09 1515718269.419533: $GPGGA,005110,3946.9552,N,08404.9776,W,2,11,0.80,308.64,M,-33.324,M,,*7B
2018-01-11 19:51:09 1515718269.419602: $GPRMC,005110,A,3946.9552,N,08404.9776,W,0.0000,0.000,120118,,*35
2018-01-11 19:51:09 1515718269.419663: $GPGSA,A,3,7,8,9,11,16,23,27,30,28,26,138,,4.0,0.8,3.5*3A
2018-01-11 19:51:10 1515718270.749549: $GPGSV,3,1,11,07,47,312,44,08,66,153,44,09,54,243,42,11,12,171,34*78
2018-01-11 19:51:10 1515718270.749711: $GPGSV,3,2,11,16,30,055,47,23,38,193,49,27,54,063,50,30,21,303,34*70
2018-01-11 19:51:10 1515718270.749777: $GPGSV,3,3,11,28,08,252,30,26,05,067,19,138,38,213,45*75
2018-01-11 19:51:10 1515718270.862891: $GPZDA,005111.00,12,01,2018,00,00*6B
2018-01-11 19:51:10 1515718270.863061: $GPGGA,005111,3946.9552,N,08404.9776,W,2,11,0.80,308.64,M,-33.324,M,,*7A
2018-01-11 19:51:10 1515718270.863128: $GPRMC,005111,A,3946.9552,N,08404.9776,W,0.0000,0.000,120118,,*34
2018-01-11 19:51:10 1515718270.863188: $GPGSA,A,3,7,8,9,11,16,23,27,30,28,26,138,,4.0,0.8,3.5*3A
2018-01-11 19:51:11 1515718271.413735: $GPZDA,005112.00,12,01,2018,00,00*68
2018-01-11 19:51:11 1515718271.413882: $GPGGA,005112,3946.9552,N,08404.9776,W,2,11,0.80,308.64,M,-33.324,M,,*79
2018-01-11 19:51:11 1515718271.413947: $GPRMC,005112,A,3946.9552,N,08404.9776,W,0.0000,0.000,120118,,*37
2018-01-11 19:51:11 1515718271.414007: $GPGSA,A,3,7,8,9,11,16,23,27,30,28,26,138,,4.0,0.8,3.5*3A
2018-01-11 19:51:12 1515718272.414646: $GPZDA,005113.00,12,01,2018,00,00*69
2018-01-11 19:51:12 1515718272.414812: $GPGGA,005113,3946.9548,N,08404.9777,W,2,11,0.80,309.40,M,-33.324,M,,*75
2018-01-11 19:51:12 1515718272.414879: $GPRMC,005113,A,3946.9548,N,08404.9777,W,0.0000,0.000,120118,,*3C
2018-01-11 19:51:12 1515718272.414940: $GPGSA,A,3,7,8,9,11,16,23,27,30,28,26,138,,4.0,0.8,3.5*3A
2018-01-11 19:51:13 1515718273.750392: $GPGSV,3,1,11,07,47,312,44,08,66,153,43,09,54,243,42,11,12,171,34*7F
2018-01-11 19:51:13 1515718273.750552: $GPGSV,3,2,11,16,30,055,47,23,38,193,49,27,54,063,50,30,21,303,34*70
2018-01-11 19:51:13 1515718273.750618: $GPGSV,3,3,11,28,08,252,30,26,05,067,19,138,38,213,44*74
2018-01-11 19:51:13 1515718273.863752: $GPZDA,005114.00,12,01,2018,00,00*6E
2018-01-11 19:51:13 1515718273.863925: $GPGGA,005114,3946.9548,N,08404.9777,W,2,11,0.80,309.40,M,-33.324,M,,*72
2018-01-11 19:51:13 1515718273.863991: $GPRMC,005114,A,3946.9548,N,08404.9777,W,0.0000,0.000,120118,,*3B
2018-01-11 19:51:13 1515718273.864051: $GPGSA,A,3,7,8,9,11,16,23,27,30,28,26,138,,4.0,0.8,3.5*3A
2018-01-11 19:51:14 1515718274.413591: $GPZDA,005115.00,12,01,2018,00,00*6F
2018-01-11 19:51:14 1515718274.413724: $GPGGA,005115,3946.9552,N,08404.9777,W,2,11,0.80,310.04,M,-33.324,M,,*70
2018-01-11 19:51:14 1515718274.413843: $GPRMC,005115,A,3946.9552,N,08404.9777,W,0.0000,0.000,120118,,*31
2018-01-11 19:51:14 1515718274.413905: $GPGSA,A,3,7,8,9,11,16,23,27,30,28,26,138,,4.0,0.8,3.5*3A
2018-01-11 19:51:15 1515718275.414095: $GPZDA,005116.00,12,01,2018,00,00*6C
2018-01-11 19:51:15 1515718275.414262: $GPGGA,005116,3946.9552,N,08404.9777,W,2,11,0.80,310.04,M,-33.324,M,,*73
2018-01-11 19:51:15 1515718275.414329: $GPRMC,005116,A,3946.9552,N,08404.9777,W,0.0000,0.000,120118,,*32
2018-01-11 19:51:15 1515718275.414389: $GPGSA,A,3,7,8,9,11,16,23,27,30,28,26,138,,4.0,0.8,3.5*3A
2018-01-11 19:51:16 1515718276.750762: $GPGSV,3,1,11,07,47,312,43,08,66,153,44,09,54,243,43,11,12,171,34*7E
2018-01-11 19:51:16 1515718276.750938: $GPGSV,3,2,11,16,30,055,48,23,38,193,49,27,54,063,50,30,21,303,34*7F
2018-01-11 19:51:16 1515718276.751003: $GPGSV,3,3,11,28,08,252,31,26,05,067,20,138,38,213,44*7F
