2017-11-16 15:27:12 1510864032.219960: {"class":"VERSION","release":"3.17","rev":"3.17","proto_major":3,"proto_minor":12}
2017-11-16 15:27:12 1510864032.220457: {"class":"DEVICES","devices":[{"class":"DEVICE","path":"/dev/ttyUSB0","driver":"SiRF","subtype":"9\u0006GSD4e_4.1.2-P1_RPATCH.05-F-GPS-4R-1510281 11/03/2015 307","activated":"2017-11-16T20:27:12.189Z","flags":1,"native":1,"bps":4800,"parity":"N","stopbits":1,"cycle":1.00}]}
2017-11-16 15:27:12 1510864032.220573: {"class":"WATCH","enable":true,"json":false,"nmea":true,"raw":0,"scaled":false,"timing":false,"split24":false,"pps":false}
2017-11-16 15:27:12 1510864032.368119: $GPZDA,202711.00,16,11,2017,00,00*62
2017-11-16 15:27:12 1510864032.368299: $GPGGA,202711,3946.9572,N,08404.9866,W,2,12,0.80,308.76,M,-33.324,M,,*75
2017-11-16 15:27:12 1510864032.368363: $GPRMC,202711,A,3946.9572,N,08404.9866,W,0.0000,0.000,161117,,*31
2017-11-16 15:27:12 1510864032.368420: $GPGSA,A,3,8,10,14,15,18,20,21,24,27,32,12,138,1.6,0.8,1.3*34
2017-11-16 15:27:13 1510864033.713661: $GPGSV,3,1,12,08,06,292,38,10,69,331,51,14,29,253,45,15,11,066,33*70
2017-11-16 15:27:13 1510864033.765715: $GPGSV,3,2,12,18,71,094,48,20,08,118,24,21,29,180,44,24,45,058,51*7E
2017-11-16 15:27:13 1510864033.765897: $GPGSV,3,3,12,27,06,259,32,32,46,265,46,12,09,106,22,138,38,213,44*4A
2017-11-16 15:27:13 1510864033.826924: $GPZDA,202712.00,16,11,2017,00,00*61
2017-11-16 15:27:13 1510864033.827092: $GPGGA,202712,3946.9572,N,08404.9866,W,2,12,0.80,308.76,M,-33.324,M,,*76
2017-11-16 15:27:13 1510864033.827156: $GPRMC,202712,A,3946.9572,N,08404.9866,W,0.0000,0.000,161117,,*32
2017-11-16 15:27:13 1510864033.827230: $GPGSA,A,3,8,10,14,15,18,20,21,24,27,32,12,138,1.6,0.8,1.3*34
2017-11-16 15:27:14 1510864034.376682: $GPZDA,202713.00,16,11,2017,00,00*60
2017-11-16 15:27:14 1510864034.376842: $GPGGA,202713,3946.9572,N,08404.9866,W,2,12,0.80,308.76,M,-33.324,M,,*77
2017-11-16 15:27:14 1510864034.376910: $GPRMC,202713,A,3946.9572,N,08404.9866,W,0.0000,0.000,161117,,*33
2017-11-16 15:27:14 1510864034.376966: $GPGSA,A,3,8,10,14,15,18,20,21,24,27,32,12,138,1.6,0.8,1.3*34
2017-11-16 15:27:15 1510864035.366540: $GPZDA,202714.00,16,11,2017,00,00*67
2017-11-16 15:27:15 1510864035.366700: $GPGGA,202714,3946.9572,N,08404.9866,W,2,12,0.80,308.76,M,-33.324,M,,*70
2017-11-16 15:27:15 1510864035.366763: $GPRMC,202714,A,3946.9572,N,08404.9866,W,0.0000,0.000,161117,,*34
2017-11-16 15:27:15 1510864035.366822: $GPGSA,A,3,8,10,14,15,18,20,21,24,27,32,12,138,1.6,0.8,1.3*34
2017-11-16 15:27:16 1510864036.713988: $GPGSV,3,1,12,08,06,292,38,10,69,331,51,14,29,253,45,15,11,066,32*71
2017-11-16 15:27:16 1510864036.714158: $GPGSV,3,2,12,18,71,094,47,20,08,118,24,21,29,180,44,24,45,058,51*71
2017-11-16 15:27:16 1510864036.714218: $GPGSV,3,3,12,27,06,259,31,32,46,265,46,12,09,106,22,138,38,213,44*49
2017-11-16 15:27:16 1510864036.827264: $GPZDA,202715.00,16,11,2017,00,00*66
2017-11-16 15:27:16 1510864036.827429: $GPGGA,202715,3946.9572,N,08404.9866,W,2,12,0.80,308.76,M,-33.324,M,,*71
2017-11-16 15:27:16 1510864036.827493: $GPRMC,202715,A,3946.9572,N,08404.9866,W,0.0000,0.000,161117,,*35
2017-11-16 15:27:16 1510864036.827549: $GPGSA,A,3,8,10,14,15,18,20,21,24,27,32,12,138,1.6,0.8,1.3*34
2017-11-16 15:27:17 1510864037.367144: $GPZDA,202716.00,16,11,2017,00,00*65
2017-11-16 15:27:17 1510864037.367306: $GPGGA,202716,3946.9572,N,08404.9866,W,2,12,0.80,308.76,M,-33.324,M,,*72
2017-11-16 15:27:17 1510864037.367367: $GPRMC,202716,A,3946.9572,N,08404.9866,W,0.0000,0.000,161117,,*36
2017-11-16 15:27:17 1510864037.367423: $GPGSA,A,3,8,10,14,15,18,20,21,24,27,32,12,138,1.6,0.8,1.3*34
2017-11-16 15:27:18 1510864038.369018: $GPZDA,202717.00,16,11,2017,00,00*64
2017-11-16 15:27:18 1510864038.369192: $GPGGA,202717,3946.9572,N,08404.9866,W,2,12,0.80,308.76,M,-33.324,M,,*73
2017-11-16 15:27:18 1510864038.369254: $GPRMC,202717,A,3946.9572,N,08404.9866,W,0.0000,0.000,161117,,*37
2017-11-16 15:27:18 1510864038.369310: $GPGSA,A,3,8,10,14,15,18,20,21,24,27,32,12,138,1.6,0.8,1.3*34
2017-11-16 15:27:19 1510864039.704789: $GPGSV,3,1,12,08,06,292,38,10,69,331,51,14,29,253,45,15,11,066,32*71
2017-11-16 15:27:19 1510864039.705034: $GPGSV,3,2,12,18,71,094,48,20,08,118,24,21,29,180,44,24,45,058,51*7E
2017-11-16 15:27:19 1510864039.705099: $GPGSV,3,3,12,27,06,259,31,32,46,265,46,12,09,106,22,138,38,213,44*49
2017-11-16 15:27:19 1510864039.818536: $GPZDA,202718.00,16,11,2017,00,00*6B
2017-11-16 15:27:19 1510864039.818738: $GPGGA,202718,3946.9572,N,08404.9866,W,2,12,0.80,308.76,M,-33.324,M,,*7C
2017-11-16 15:27:19 1510864039.818805: $GPRMC,202718,A,3946.9572,N,08404.9866,W,0.0000,0.000,161117,,*38
2017-11-16 15:27:19 1510864039.818862: $GPGSA,A,3,8,10,14,15,18,20,21,24,27,32,12,138,1.6,0.8,1.3*34
2017-11-16 15:27:20 1510864040.367958: $GPZDA,202719.00,16,11,2017,00,00*6A
2017-11-16 15:27:20 1510864040.368106: $GPGGA,202719,3946.9572,N,08404.9866,W,2,12,0.80,308.76,M,-33.324,M,,*7D
2017-11-16 15:27:20 1510864040.368169: $GPRMC,202719,A,3946.9572,N,08404.9866,W,0.0000,0.000,161117,,*39
2017-11-16 15:27:20 1510864040.368244: $GPGSA,A,3,8,10,14,15,18,20,21,24,27,32,12,138,1.6,0.8,1.3*34
2017-11-16 15:27:21 1510864041.368104: $GPZDA,202720.00,16,11,2017,00,00*60
2017-11-16 15:27:21 1510864041.368273: $GPGGA,202720,3946.9572,N,08404.9866,W,2,12,0.80,308.76,M,-33.324,M,,*77
2017-11-16 15:27:21 1510864041.368334: $GPRMC,202720,A,3946.9572,N,08404.9866,W,0.0000,0.000,161117,,*33
2017-11-16 15:27:21 1510864041.368390: $GPGSA,A,3,8,10,14,15,18,20,21,24,27,32,12,138,1.6,0.8,1.3*34
