2017-12-01 16:29:08 1512163748.816922: {"class":"VERSION","release":"3.16","rev":"3.16-4","proto_major":3,"proto_minor":11}
2017-12-01 16:29:08 1512163748.817833: {"class":"DEVICES","devices":[{"class":"DEVICE","path":"/dev/ttyUSB0","driver":"SiRF","subtype":"9\u0006GSD4e_4.1.2-P1_RPATCH.05-F-GPS-4R-1510281 11/03/2015 307","activated":"2017-12-01T21:29:08.503Z","flags":1,"native":1,"bps":4800,"parity":"N","stopbits":1,"cycle":1.00}]}
2017-12-01 16:29:08 1512163748.817960: {"class":"WATCH","enable":true,"json":false,"nmea":true,"raw":0,"scaled":false,"timing":false,"split24":false,"pps":false}
2017-12-01 16:29:09 1512163749.362268: $GPZDA,212910.00,01,12,2017,00,00*69
2017-12-01 16:29:09 1512163749.362440: $GPGGA,212910,3946.9638,N,08404.9730,W,2,12,0.80,301.92,M,-33.324,M,,*79
2017-12-01 16:29:09 1512163749.362508: $GPRMC,212910,A,3946.9638,N,08404.9730,W,0.0000,0.000,011217,,*3B
2017-12-01 16:29:09 1512163749.362571: $GPGSA,A,3,1,10,11,14,22,31,32,25,18,12,26,138,2.0,0.8,1.5*39
2017-12-01 16:29:10 1512163750.698587: $GPGSV,3,1,12,01,21,301,43,10,49,147,44,11,08,283,36,14,66,325,45*75
2017-12-01 16:29:10 1512163750.698773: $GPGSV,3,2,12,22,18,312,42,31,55,225,50,32,68,027,50,25,39,091,31*7E
2017-12-01 16:29:10 1512163750.698842: $GPGSV,3,3,12,18,18,144,22,12,22,051,25,26,02,183,28,138,38,213,36*49
2017-12-01 16:29:10 1512163750.812132: $GPZDA,212911.00,01,12,2017,00,00*68
2017-12-01 16:29:10 1512163750.812308: $GPGGA,212911,3946.9638,N,08404.9730,W,2,12,0.80,301.92,M,-33.324,M,,*78
2017-12-01 16:29:10 1512163750.812377: $GPRMC,212911,A,3946.9638,N,08404.9730,W,0.0000,0.000,011217,,*3A
2017-12-01 16:29:10 1512163750.812439: $GPGSA,A,3,1,10,11,14,22,31,32,25,18,12,26,138,2.0,0.8,1.5*39
2017-12-01 16:29:11 1512163751.366656: $GPZDA,212912.00,01,12,2017,00,00*6B
2017-12-01 16:29:11 1512163751.366831: $GPGGA,212912,3946.9638,N,08404.9730,W,2,12,0.80,301.92,M,-33.324,M,,*7B
2017-12-01 16:29:11 1512163751.366900: $GPRMC,212912,A,3946.9638,N,08404.9730,W,0.0000,0.000,011217,,*39
2017-12-01 16:29:11 1512163751.366962: $GPGSA,A,3,1,10,11,14,22,31,32,25,18,12,26,138,2.0,0.8,1.5*39
2017-12-01 16:29:12 1512163752.366359: $GPZDA,212913.00,01,12,2017,00,00*6A
2017-12-01 16:29:12 1512163752.366529: $GPGGA,212913,3946.9638,N,08404.9730,W,2,12,0.80,301.92,M,-33.324,M,,*7A
2017-12-01 16:29:12 1512163752.366595: $GPRMC,212913,A,3946.9638,N,08404.9730,W,0.0000,0.000,011217,,*38
2017-12-01 16:29:12 1512163752.366656: $GPGSA,A,3,1,10,11,14,22,31,32,25,18,12,26,138,2.0,0.8,1.5*39
2017-12-01 16:29:13 1512163753.720902: $GPGSV,3,1,12,01,21,301,44,10,49,147,44,11,08,283,36,14,66,325,45*72
2017-12-01 16:29:13 1512163753.721097: $GPGSV,3,2,12,22,18,312,42,31,55,225,50,32,68,027,50,25,39,091,31*7E
2017-12-01 16:29:13 1512163753.721165: $GPGSV,3,3,12,18,18,144,20,12,22,051,25,26,02,183,28,138,38,213,39*44
2017-12-01 16:29:13 1512163753.833247: $GPZDA,212914.00,01,12,2017,00,00*6D
2017-12-01 16:29:13 1512163753.833416: $GPGGA,212914,3946.9638,N,08404.9730,W,2,12,0.80,301.92,M,-33.324,M,,*7D
2017-12-01 16:29:13 1512163753.833482: $GPRMC,212914,A,3946.9638,N,08404.9730,W,0.0000,0.000,011217,,*3F
2017-12-01 16:29:13 1512163753.833543: $GPGSA,A,3,1,10,11,14,22,31,32,25,18,12,26,138,2.0,0.8,1.5*39
2017-12-01 16:29:14 1512163754.384242: $GPZDA,212915.00,01,12,2017,00,00*6C
2017-12-01 16:29:14 1512163754.384409: $GPGGA,212915,3946.9638,N,08404.9730,W,2,12,0.80,301.92,M,-33.324,M,,*7C
2017-12-01 16:29:14 1512163754.384476: $GPRMC,212915,A,3946.9638,N,08404.9730,W,0.0000,0.000,011217,,*3E
2017-12-01 16:29:14 1512163754.384537: $GPGSA,A,3,1,10,11,14,22,31,32,25,18,12,26,138,2.0,0.8,1.5*39
2017-12-01 16:29:15 1512163755.382929: $GPZDA,212916.00,01,12,2017,00,00*6F
2017-12-01 16:29:15 1512163755.383126: $GPGGA,212916,3946.9638,N,08404.9730,W,2,12,0.80,301.92,M,-33.324,M,,*7F
2017-12-01 16:29:15 1512163755.383195: $GPRMC,212916,A,3946.9638,N,08404.9730,W,0.0000,0.000,011217,,*3D
2017-12-01 16:29:15 1512163755.383256: $GPGSA,A,3,1,10,11,14,22,31,32,25,18,12,26,138,2.0,0.8,1.5*39
2017-12-01 16:29:16 1512163756.718698: $GPGSV,3,1,12,01,21,301,44,10,49,147,44,11,08,283,36,14,66,325,45*72
2017-12-01 16:29:16 1512163756.718927: $GPGSV,3,2,12,22,18,312,41,31,55,225,49,32,68,027,50,25,39,091,32*76
2017-12-01 16:29:16 1512163756.718996: $GPGSV,3,3,12,18,18,144,22,12,22,051,24,26,02,183,28,138,38,213,39*47
2017-12-01 16:29:16 1512163756.832258: $GPZDA,212917.00,01,12,2017,00,00*6E
2017-12-01 16:29:16 1512163756.832432: $GPGGA,212917,3946.9638,N,08404.9730,W,2,12,0.80,301.92,M,-33.324,M,,*7E
2017-12-01 16:29:16 1512163756.832499: $GPRMC,212917,A,3946.9638,N,08404.9730,W,0.0000,0.000,011217,,*3C
2017-12-01 16:29:16 1512163756.832559: $GPGSA,A,3,1,10,11,14,22,31,32,25,18,12,26,138,2.0,0.8,1.5*39
2017-12-01 16:29:17 1512163757.384188: $GPZDA,212918.00,01,12,2017,00,00*61
2017-12-01 16:29:17 1512163757.384364: $GPGGA,212918,3946.9638,N,08404.9730,W,2,12,0.80,301.92,M,-33.324,M,,*71
2017-12-01 16:29:17 1512163757.384431: $GPRMC,212918,A,3946.9638,N,08404.9730,W,0.0000,0.000,011217,,*33
2017-12-01 16:29:17 1512163757.384492: $GPGSA,A,3,1,10,11,14,22,31,32,25,18,12,26,138,2.0,0.8,1.5*39
2017-12-01 16:29:18 1512163758.362584: $GPZDA,212919.00,01,12,2017,00,00*60
2017-12-01 16:29:18 1512163758.362759: $GPGGA,212919,3946.9638,N,08404.9730,W,2,12,0.80,301.92,M,-33.324,M,,*70
2017-12-01 16:29:18 1512163758.362826: $GPRMC,212919,A,3946.9638,N,08404.9730,W,0.0000,0.000,011217,,*32
2017-12-01 16:29:18 1512163758.362887: $GPGSA,A,3,1,10,11,14,22,31,32,25,18,12,26,138,2.0,0.8,1.5*39
2017-12-01 16:29:19 1512163759.703287: $GPGSV,3,1,12,01,21,301,44,10,49,147,44,11,08,283,36,14,66,325,45*72
2017-12-01 16:29:19 1512163759.703472: $GPGSV,3,2,12,22,18,312,40,31,55,225,49,32,68,027,50,25,39,091,32*77
2017-12-01 16:29:19 1512163759.703540: $GPGSV,3,3,12,18,18,144,22,12,22,051,20,26,02,183,28,138,38,213,39*43
2017-12-01 16:29:19 1512163759.816644: $GPZDA,212920.00,01,12,2017,00,00*6A
2017-12-01 16:29:19 1512163759.816817: $GPGGA,212920,3946.9638,N,08404.9730,W,2,12,0.80,301.92,M,-33.324,M,,*7A
2017-12-01 16:29:19 1512163759.816883: $GPRMC,212920,A,3946.9638,N,08404.9730,W,0.0000,0.000,011217,,*38
2017-12-01 16:29:19 1512163759.816944: $GPGSA,A,3,1,10,11,14,22,31,32,25,18,12,26,138,2.0,0.8,1.5*39
2017-12-01 16:29:20 1512163760.442084: $GPZDA,212921.00,01,12,2017,00,00*6B
2017-12-01 16:29:20 1512163760.442266: $GPGGA,212921,3946.9638,N,08404.9730,W,2,12,0.80,301.92,M,-33.324,M,,*7B
2017-12-01 16:29:20 1512163760.442332: $GPRMC,212921,A,3946.9638,N,08404.9730,W,0.0000,0.000,011217,,*39
2017-12-01 16:29:20 1512163760.442393: $GPGSA,A,3,1,10,11,14,22,31,32,25,18,12,26,138,2.0,0.8,1.5*39
2017-12-01 16:29:21 1512163761.384257: $GPZDA,212922.00,01,12,2017,00,00*68
2017-12-01 16:29:21 1512163761.384443: $GPGGA,212922,3946.9634,N,08404.9730,W,2,12,0.80,301.28,M,-33.324,M,,*75
2017-12-01 16:29:21 1512163761.384509: $GPRMC,212922,A,3946.9634,N,08404.9730,W,0.0000,0.000,011217,,*36
2017-12-01 16:29:21 1512163761.384571: $GPGSA,A,3,1,10,11,14,22,31,32,25,18,12,26,138,2.0,0.8,1.5*39
2017-12-01 16:29:22 1512163762.703650: $GPGSV,3,1,12,01,21,301,44,10,49,147,44,11,08,283,36,14,66,325,45*72
2017-12-01 16:29:22 1512163762.703834: $GPGSV,3,2,12,22,18,312,41,31,55,225,49,32,68,027,49,25,39,091,32*7E
2017-12-01 16:29:22 1512163762.703901: $GPGSV,3,3,12,18,18,144,22,12,22,051,20,26,02,183,28,138,38,213,38*42
2017-12-01 16:29:22 1512163762.817137: $GPZDA,212923.00,01,12,2017,00,00*69
2017-12-01 16:29:22 1512163762.817306: $GPGGA,212923,3946.9634,N,08404.9730,W,2,12,0.80,301.28,M,-33.324,M,,*74
2017-12-01 16:29:22 1512163762.817372: $GPRMC,212923,A,3946.9634,N,08404.9730,W,0.0000,0.000,011217,,*37
2017-12-01 16:29:22 1512163762.817432: $GPGSA,A,3,1,10,11,14,22,31,32,25,18,12,26,138,2.0,0.8,1.5*39
2017-12-01 16:29:23 1512163763.382935: $GPZDA,212924.00,01,12,2017,00,00*6E
2017-12-01 16:29:23 1512163763.383111: $GPGGA,212924,3946.9634,N,08404.9730,W,2,12,0.80,301.28,M,-33.324,M,,*73
2017-12-01 16:29:23 1512163763.383178: $GPRMC,212924,A,3946.9634,N,08404.9730,W,0.0000,0.000,011217,,*30
2017-12-01 16:29:23 1512163763.383240: $GPGSA,A,3,1,10,11,14,22,31,32,25,18,12,26,138,2.0,0.8,1.5*39
2017-12-01 16:29:24 1512163764.377528: $GPZDA,212925.00,01,12,2017,00,00*6F
2017-12-01 16:29:24 1512163764.377717: $GPGGA,212925,3946.9634,N,08404.9730,W,2,12,0.80,301.28,M,-33.324,M,,*72
2017-12-01 16:29:24 1512163764.377784: $GPRMC,212925,A,3946.9634,N,08404.9730,W,0.0000,0.000,011217,,*31
2017-12-01 16:29:24 1512163764.377845: $GPGSA,A,3,1,10,11,14,22,31,32,25,18,12,26,138,2.0,0.8,1.5*39
2017-12-01 16:29:25 1512163765.715282: $GPGSV,3,1,12,01,21,301,43,10,49,147,45,11,08,283,36,14,66,325,44*75
2017-12-01 16:29:25 1512163765.715467: $GPGSV,3,2,12,22,18,312,41,31,55,225,49,32,68,027,49,25,39,091,31*7D
2017-12-01 16:29:25 1512163765.715533: $GPGSV,3,3,12,18,18,144,22,12,22,051,20,26,02,183,28,138,38,213,40*4D
2017-12-01 16:29:25 1512163765.828692: $GPZDA,212926.00,01,12,2017,00,00*6C
2017-12-01 16:29:25 1512163765.828869: $GPGGA,212926,3946.9634,N,08404.9730,W,2,12,0.80,301.28,M,-33.324,M,,*71
2017-12-01 16:29:25 1512163765.828935: $GPRMC,212926,A,3946.9634,N,08404.9730,W,0.0000,0.000,011217,,*32
2017-12-01 16:29:25 1512163765.828996: $GPGSA,A,3,1,10,11,14,22,31,32,25,18,12,26,138,2.0,0.8,1.5*39
2017-12-01 16:29:26 1512163766.368282: $GPZDA,212927.00,01,12,2017,00,00*6D
2017-12-01 16:29:26 1512163766.368459: $GPGGA,212927,3946.9634,N,08404.9730,W,2,12,0.80,301.28,M,-33.324,M,,*70
2017-12-01 16:29:26 1512163766.368525: $GPRMC,212927,A,3946.9634,N,08404.9730,W,0.0000,0.000,011217,,*33
2017-12-01 16:29:26 1512163766.368586: $GPGSA,A,3,1,10,11,14,22,31,32,25,18,12,26,138,2.0,0.8,1.5*39
2017-12-01 16:29:27 1512163767.382934: $GPZDA,212928.00,01,12,2017,00,00*62
2017-12-01 16:29:27 1512163767.383107: $GPGGA,212928,3946.9634,N,08404.9730,W,2,12,0.80,301.28,M,-33.324,M,,*7F
2017-12-01 16:29:27 1512163767.383173: $GPRMC,212928,A,3946.9634,N,08404.9730,W,0.0000,0.000,011217,,*3C
2017-12-01 16:29:27 1512163767.383234: $GPGSA,A,3,1,10,11,14,22,31,32,25,18,12,26,138,2.0,0.8,1.5*39
2017-12-01 16:29:28 1512163768.718713: $GPGSV,3,1,12,01,21,301,44,10,49,147,45,11,08,283,35,14,66,325,44*71
2017-12-01 16:29:28 1512163768.718894: $GPGSV,3,2,12,22,18,312,41,31,55,225,49,32,68,027,49,25,39,091,31*7D
2017-12-01 16:29:28 1512163768.718961: $GPGSV,3,3,12,18,18,144,22,12,22,051,23,26,02,183,27,138,38,213,40*41
