2017-11-16 15:56:18 1510865778.359667: {"class":"VERSION","release":"3.17","rev":"3.17","proto_major":3,"proto_minor":12}
2017-11-16 15:56:18 1510865778.359906: {"class":"DEVICES","devices":[{"class":"DEVICE","path":"/dev/ttyUSB0","driver":"SiRF","subtype":"9\u0006GSD4e_4.1.2-P1_RPATCH.05-F-GPS-4R-1510281 11/03/2015 307","activated":"2017-11-16T20:56:18.271Z","flags":1,"native":1,"bps":4800,"parity":"N","stopbits":1,"cycle":1.00}]}
2017-11-16 15:56:18 1510865778.359963: {"class":"WATCH","enable":true,"json":false,"nmea":true,"raw":0,"scaled":false,"timing":false,"split24":false,"pps":false}
2017-11-16 15:56:18 1510865778.400481: $GPZDA,205617.00,16,11,2017,00,00*62
2017-11-16 15:56:18 1510865778.400580: $GPGGA,205617,3946.9585,N,08404.9843,W,2,12,0.80,307.35,M,-33.324,M,,*72
2017-11-16 15:56:18 1510865778.400611: $GPRMC,205617,A,3946.9585,N,08404.9843,W,0.0000,0.000,161117,,*3E
2017-11-16 15:56:18 1510865778.400639: $GPGSA,A,3,11,10,14,31,18,25,21,24,15,32,12,138,1.6,0.8,1.3*0E
2017-11-16 15:56:19 1510865779.705064: $GPGSV,3,1,12,11,05,319,33,10,81,009,49,14,39,265,45,31,11,205,30*73
2017-11-16 15:56:19 1510865779.705240: $GPGSV,3,2,12,18,59,117,49,25,13,132,35,21,15,177,35,24,34,049,50*7E
2017-11-16 15:56:19 1510865779.705301: $GPGSV,3,3,12,15,02,075,28,32,55,283,48,12,17,094,48,138,38,213,44*45
2017-11-16 15:56:19 1510865779.817183: $GPZDA,205618.00,16,11,2017,00,00*6D
2017-11-16 15:56:19 1510865779.817388: $GPGGA,205618,3946.9585,N,08404.9843,W,2,12,0.80,307.35,M,-33.324,M,,*7D
2017-11-16 15:56:19 1510865779.817461: $GPRMC,205618,A,3946.9585,N,08404.9843,W,0.0000,0.000,161117,,*31
2017-11-16 15:56:19 1510865779.817531: $GPGSA,A,3,11,10,14,31,18,25,21,24,15,32,12,138,1.6,0.8,1.3*0E
2017-11-16 15:56:20 1510865780.385453: $GPZDA,205619.00,16,11,2017,00,00*6C
2017-11-16 15:56:20 1510865780.385646: $GPGGA,205619,3946.9585,N,08404.9843,W,2,12,0.80,307.35,M,-33.324,M,,*7C
2017-11-16 15:56:20 1510865780.385709: $GPRMC,205619,A,3946.9585,N,08404.9843,W,0.0000,0.000,161117,,*30
2017-11-16 15:56:20 1510865780.385765: $GPGSA,A,3,11,10,14,31,18,25,21,24,15,32,12,138,1.6,0.8,1.3*0E
2017-11-16 15:56:21 1510865781.367118: $GPZDA,205620.00,16,11,2017,00,00*66
2017-11-16 15:56:21 1510865781.370180: $GPGGA,205620,3946.9585,N,08404.9843,W,2,12,0.80,307.35,M,-33.324,M,,*76
2017-11-16 15:56:21 1510865781.370344: $GPRMC,205620,A,3946.9585,N,08404.9843,W,0.0000,0.000,161117,,*3A
2017-11-16 15:56:21 1510865781.370415: $GPGSA,A,3,11,10,14,31,18,25,21,24,15,32,12,138,1.6,0.8,1.3*0E
2017-11-16 15:56:22 1510865782.705354: $GPGSV,3,1,12,11,05,319,33,10,81,009,49,14,39,265,44,31,11,205,31*73
2017-11-16 15:56:22 1510865782.705465: $GPGSV,3,2,12,18,59,117,49,25,13,132,35,21,15,177,35,24,34,049,50*7E
2017-11-16 15:56:22 1510865782.705496: $GPGSV,3,3,12,15,02,075,27,32,55,283,48,12,17,094,48,138,38,213,45*4B
2017-11-16 15:56:22 1510865782.818252: $GPZDA,205621.00,16,11,2017,00,00*67
2017-11-16 15:56:22 1510865782.818366: $GPGGA,205621,3946.9585,N,08404.9843,W,2,12,0.80,307.35,M,-33.324,M,,*77
2017-11-16 15:56:22 1510865782.818397: $GPRMC,205621,A,3946.9585,N,08404.9843,W,0.0000,0.000,161117,,*3B
2017-11-16 15:56:22 1510865782.818426: $GPGSA,A,3,11,10,14,31,18,25,21,24,15,32,12,138,1.6,0.8,1.3*0E
2017-11-16 15:56:23 1510865783.367223: $GPZDA,205622.00,16,11,2017,00,00*64
2017-11-16 15:56:23 1510865783.367388: $GPGGA,205622,3946.9585,N,08404.9843,W,2,12,0.80,307.35,M,-33.324,M,,*74
2017-11-16 15:56:23 1510865783.367451: $GPRMC,205622,A,3946.9585,N,08404.9843,W,0.0000,0.000,161117,,*38
2017-11-16 15:56:23 1510865783.367508: $GPGSA,A,3,11,10,14,31,18,25,21,24,15,32,12,138,1.6,0.8,1.3*0E
2017-11-16 15:56:24 1510865784.367472: $GPZDA,205623.00,16,11,2017,00,00*65
2017-11-16 15:56:24 1510865784.367580: $GPGGA,205623,3946.9585,N,08404.9843,W,2,12,0.80,307.35,M,-33.324,M,,*75
2017-11-16 15:56:24 1510865784.367611: $GPRMC,205623,A,3946.9585,N,08404.9843,W,0.0000,0.000,161117,,*39
2017-11-16 15:56:24 1510865784.367639: $GPGSA,A,3,11,10,14,31,18,25,21,24,15,32,12,138,1.6,0.8,1.3*0E
2017-11-16 15:56:25 1510865785.705319: $GPGSV,3,1,12,11,05,319,33,10,81,009,50,14,39,265,44,31,11,205,31*7B
2017-11-16 15:56:25 1510865785.705542: $GPGSV,3,2,12,18,59,117,48,25,13,132,35,21,15,177,35,24,34,049,51*7E
2017-11-16 15:56:25 1510865785.705608: $GPGSV,3,3,12,15,02,075,26,32,55,283,48,12,17,094,48,138,38,213,45*4A
2017-11-16 15:56:25 1510865785.817246: $GPZDA,205624.00,16,11,2017,00,00*62
2017-11-16 15:56:25 1510865785.817414: $GPGGA,205624,3946.9585,N,08404.9843,W,2,12,0.80,307.35,M,-33.324,M,,*72
2017-11-16 15:56:25 1510865785.817475: $GPRMC,205624,A,3946.9585,N,08404.9843,W,0.0000,0.000,161117,,*3E
2017-11-16 15:56:25 1510865785.817531: $GPGSA,A,3,11,10,14,31,18,25,21,24,15,32,12,138,1.6,0.8,1.3*0E
2017-11-16 15:56:26 1510865786.443859: $GPZDA,205625.00,16,11,2017,00,00*63
2017-11-16 15:56:26 1510865786.444040: $GPGGA,205625,3946.9585,N,08404.9843,W,2,12,0.80,307.35,M,-33.324,M,,*73
2017-11-16 15:56:26 1510865786.444102: $GPRMC,205625,A,3946.9585,N,08404.9843,W,0.0000,0.000,161117,,*3F
2017-11-16 15:56:26 1510865786.444158: $GPGSA,A,3,11,10,14,31,18,25,21,24,15,32,12,138,1.6,0.8,1.3*0E
2017-11-16 15:56:27 1510865787.383580: $GPZDA,205626.00,16,11,2017,00,00*60
2017-11-16 15:56:27 1510865787.383750: $GPGGA,205626,3946.9585,N,08404.9843,W,2,12,0.80,307.35,M,-33.324,M,,*70
2017-11-16 15:56:27 1510865787.383816: $GPRMC,205626,A,3946.9585,N,08404.9843,W,0.0000,0.000,161117,,*3C
2017-11-16 15:56:27 1510865787.383873: $GPGSA,A,3,11,10,14,31,18,25,21,24,15,32,12,138,1.6,0.8,1.3*0E
