2017-12-01 14:26:29 1512156389.556718: {"class":"VERSION","release":"3.16","rev":"3.16-4","proto_major":3,"proto_minor":11}
2017-12-01 14:26:29 1512156389.557114: {"class":"DEVICES","devices":[{"class":"DEVICE","path":"/dev/ttyUSB0","driver":"SiRF","subtype":"9\u0006GSD4e_4.1.2-P1_RPATCH.05-F-GPS-4R-1510281 11/03/2015 307","activated":"2017-12-01T19:26:29.547Z","flags":1,"native":1,"bps":4800,"parity":"N","stopbits":1,"cycle":1.00}]}
2017-12-01 14:26:29 1512156389.557235: {"class":"WATCH","enable":true,"json":false,"nmea":true,"raw":0,"scaled":false,"timing":false,"split24":false,"pps":false}
2017-12-01 14:26:30 1512156390.325603: $GPZDA,192631.00,01,12,2017,00,00*6E
2017-12-01 14:26:30 1512156390.325798: $GPGGA,192631,3946.9556,N,08404.9860,W,2,12,0.80,307.69,M,-33.324,M,,*7D
2017-12-01 14:26:30 1512156390.325867: $GPRMC,192631,A,3946.9556,N,08404.9860,W,0.0000,0.000,011217,,*3D
2017-12-01 14:26:30 1512156390.325929: $GPGSA,A,3,8,10,14,18,21,24,32,12,15,20,27,138,2.0,0.8,1.5*37
2017-12-01 14:26:31 1512156391.666366: $GPGSV,3,1,12,08,05,292,00,10,70,333,49,14,30,255,39,18,69,097,46*70
2017-12-01 14:26:31 1512156391.666546: $GPGSV,3,2,12,21,27,178,46,24,44,057,49,32,47,267,45,12,10,106,28*77
2017-12-01 14:26:31 1512156391.666611: $GPGSV,3,3,12,15,10,067,32,20,08,118,21,27,06,259,34,138,38,213,47*46
2017-12-01 14:26:31 1512156391.779711: $GPZDA,192632.00,01,12,2017,00,00*6D
2017-12-01 14:26:31 1512156391.779885: $GPGGA,192632,3946.9556,N,08404.9860,W,2,11,1.00,307.69,M,-33.324,M,,*74
2017-12-01 14:26:31 1512156391.779951: $GPRMC,192632,A,3946.9556,N,08404.9860,W,0.0000,0.000,011217,,*3E
2017-12-01 14:26:31 1512156391.780014: $GPGSA,A,3,10,14,18,21,24,32,12,15,20,27,138,,2.0,1.0,1.5*06
2017-12-01 14:26:32 1512156392.327164: $GPZDA,192633.00,01,12,2017,00,00*6C
2017-12-01 14:26:32 1512156392.327339: $GPGGA,192633,3946.9556,N,08404.9860,W,2,11,1.00,307.69,M,-33.324,M,,*75
2017-12-01 14:26:32 1512156392.327408: $GPRMC,192633,A,3946.9556,N,08404.9860,W,0.0000,0.000,011217,,*3F
2017-12-01 14:26:32 1512156392.327468: $GPGSA,A,3,10,14,18,21,24,32,12,15,20,27,138,,2.0,1.0,1.5*06
2017-12-01 14:26:33 1512156393.333975: $GPZDA,192634.00,01,12,2017,00,00*6B
2017-12-01 14:26:33 1512156393.334156: $GPGGA,192634,3946.9556,N,08404.9860,W,2,11,0.80,307.69,M,-33.324,M,,*7B
2017-12-01 14:26:33 1512156393.334223: $GPRMC,192634,A,3946.9556,N,08404.9860,W,0.0000,0.000,011217,,*38
2017-12-01 14:26:33 1512156393.334286: $GPGSA,A,3,10,14,18,21,24,32,12,15,20,27,138,,2.0,0.8,1.5*0F
2017-12-01 14:26:34 1512156394.666707: $GPGSV,3,1,12,08,05,292,27,10,70,333,49,14,30,255,38,18,69,097,46*74
2017-12-01 14:26:34 1512156394.666910: $GPGSV,3,2,12,21,27,178,46,24,44,057,49,32,47,267,45,12,10,106,28*77
2017-12-01 14:26:34 1512156394.671613: $GPGSV,3,3,12,15,10,067,32,20,08,118,22,27,06,259,34,138,38,213,47*45
2017-12-01 14:26:34 1512156394.779416: $GPZDA,192635.00,01,12,2017,00,00*6A
2017-12-01 14:26:34 1512156394.779596: $GPGGA,192635,3946.9556,N,08404.9860,W,2,12,0.80,307.69,M,-33.324,M,,*79
2017-12-01 14:26:34 1512156394.779664: $GPRMC,192635,A,3946.9556,N,08404.9860,W,0.0000,0.000,011217,,*39
2017-12-01 14:26:34 1512156394.779725: $GPGSA,A,3,8,10,14,18,21,24,32,12,15,20,27,138,2.0,0.8,1.5*37
2017-12-01 14:26:35 1512156395.330970: $GPZDA,192636.00,01,12,2017,00,00*69
2017-12-01 14:26:35 1512156395.331163: $GPGGA,192636,3946.9556,N,08404.9860,W,2,12,0.80,307.69,M,-33.324,M,,*7A
2017-12-01 14:26:35 1512156395.331232: $GPRMC,192636,A,3946.9556,N,08404.9860,W,0.0000,0.000,011217,,*3A
2017-12-01 14:26:35 1512156395.331293: $GPGSA,A,3,8,10,14,18,21,24,32,12,15,20,27,138,2.0,0.8,1.5*37
2017-12-01 14:26:36 1512156396.332150: $GPZDA,192637.00,01,12,2017,00,00*68
2017-12-01 14:26:36 1512156396.332312: $GPGGA,192637,3946.9556,N,08404.9860,W,2,12,0.80,307.69,M,-33.324,M,,*7B
2017-12-01 14:26:36 1512156396.332378: $GPRMC,192637,A,3946.9556,N,08404.9860,W,0.0000,0.000,011217,,*3B
2017-12-01 14:26:36 1512156396.332439: $GPGSA,A,3,8,10,14,18,21,24,32,12,15,20,27,138,2.0,0.8,1.5*37
2017-12-01 14:26:37 1512156397.662627: $GPGSV,3,1,12,08,05,292,28,10,70,333,48,14,30,255,39,18,69,097,45*78
2017-12-01 14:26:37 1512156397.662863: $GPGSV,3,2,12,21,27,178,46,24,44,057,49,32,47,267,46,12,10,106,28*74
2017-12-01 14:26:37 1512156397.662932: $GPGSV,3,3,12,15,10,067,32,20,08,118,22,27,06,259,34,138,38,213,48*4A
2017-12-01 14:26:37 1512156397.776409: $GPZDA,192638.00,01,12,2017,00,00*67
2017-12-01 14:26:37 1512156397.776582: $GPGGA,192638,3946.9556,N,08404.9860,W,2,12,0.80,307.69,M,-33.324,M,,*74
2017-12-01 14:26:37 1512156397.776649: $GPRMC,192638,A,3946.9556,N,08404.9860,W,0.0000,0.000,011217,,*34
2017-12-01 14:26:37 1512156397.776709: $GPGSA,A,3,8,10,14,18,21,24,32,12,15,20,27,138,2.0,0.8,1.5*37
2017-12-01 14:26:38 1512156398.324714: $GPZDA,192639.00,01,12,2017,00,00*66
2017-12-01 14:26:38 1512156398.324885: $GPGGA,192639,3946.9556,N,08404.9860,W,2,12,0.80,307.69,M,-33.324,M,,*75
2017-12-01 14:26:38 1512156398.324952: $GPRMC,192639,A,3946.9556,N,08404.9860,W,0.0000,0.000,011217,,*35
2017-12-01 14:26:38 1512156398.325014: $GPGSA,A,3,8,10,14,18,21,24,32,12,15,20,27,138,2.0,0.8,1.5*37
2017-12-01 14:26:39 1512156399.332689: $GPZDA,192640.00,01,12,2017,00,00*68
2017-12-01 14:26:39 1512156399.332870: $GPGGA,192640,3946.9556,N,08404.9860,W,2,12,0.80,307.69,M,-33.324,M,,*7B
2017-12-01 14:26:39 1512156399.332936: $GPRMC,192640,A,3946.9556,N,08404.9860,W,0.0000,0.000,011217,,*3B
2017-12-01 14:26:39 1512156399.332996: $GPGSA,A,3,8,10,14,18,21,24,32,12,15,20,27,138,2.0,0.8,1.5*37
2017-12-01 14:26:40 1512156400.668040: $GPGSV,3,1,12,08,05,292,25,10,70,333,48,14,30,255,39,18,69,097,45*75
2017-12-01 14:26:40 1512156400.668220: $GPGSV,3,2,12,21,27,178,45,24,44,057,49,32,47,267,46,12,10,106,28*77
2017-12-01 14:26:40 1512156400.668287: $GPGSV,3,3,12,15,10,067,32,20,08,118,21,27,06,259,35,138,38,213,46*46
2017-12-01 14:26:40 1512156400.781737: $GPZDA,192641.00,01,12,2017,00,00*69
2017-12-01 14:26:40 1512156400.781901: $GPGGA,192641,3946.9556,N,08404.9860,W,2,12,0.80,307.69,M,-33.324,M,,*7A
2017-12-01 14:26:40 1512156400.781968: $GPRMC,192641,A,3946.9556,N,08404.9860,W,0.0000,0.000,011217,,*3A
2017-12-01 14:26:40 1512156400.782028: $GPGSA,A,3,8,10,14,18,21,24,32,12,15,20,27,138,2.0,0.8,1.5*37
2017-12-01 14:26:41 1512156401.332535: $GPZDA,192642.00,01,12,2017,00,00*6A
2017-12-01 14:26:41 1512156401.332697: $GPGGA,192642,3946.9556,N,08404.9860,W,2,12,0.80,307.69,M,-33.324,M,,*79
2017-12-01 14:26:41 1512156401.332763: $GPRMC,192642,A,3946.9556,N,08404.9860,W,0.0000,0.000,011217,,*39
2017-12-01 14:26:41 1512156401.332823: $GPGSA,A,3,8,10,14,18,21,24,32,12,15,20,27,138,2.0,0.8,1.5*37
2017-12-01 14:26:42 1512156402.330600: $GPZDA,192643.00,01,12,2017,00,00*6B
2017-12-01 14:26:42 1512156402.330766: $GPGGA,192643,3946.9556,N,08404.9860,W,2,12,0.80,307.69,M,-33.324,M,,*78
2017-12-01 14:26:42 1512156402.330833: $GPRMC,192643,A,3946.9556,N,08404.9860,W,0.0000,0.000,011217,,*38
2017-12-01 14:26:42 1512156402.330895: $GPGSA,A,3,8,10,14,18,21,24,32,12,15,20,27,138,2.0,0.8,1.5*37
2017-12-01 14:26:43 1512156403.667569: $GPGSV,3,1,12,08,05,292,28,10,70,333,48,14,30,255,38,18,69,097,45*79
2017-12-01 14:26:43 1512156403.667736: $GPGSV,3,2,12,21,27,178,45,24,44,057,49,32,47,267,46,12,10,106,28*77
2017-12-01 14:26:43 1512156403.667803: $GPGSV,3,3,12,15,10,067,33,20,08,118,16,27,06,259,34,138,38,213,47*43
2017-12-01 14:26:43 1512156403.781261: $GPZDA,192644.00,01,12,2017,00,00*6C
2017-12-01 14:26:43 1512156403.781473: $GPGGA,192644,3946.9556,N,08404.9860,W,2,12,0.80,307.69,M,-33.324,M,,*7F
2017-12-01 14:26:43 1512156403.781542: $GPRMC,192644,A,3946.9556,N,08404.9860,W,0.0000,0.000,011217,,*3F
2017-12-01 14:26:43 1512156403.781603: $GPGSA,A,3,8,10,14,18,21,24,32,12,15,20,27,138,2.0,0.8,1.5*37
2017-12-01 14:26:44 1512156404.406603: $GPZDA,192645.00,01,12,2017,00,00*6D
2017-12-01 14:26:44 1512156404.406778: $GPGGA,192645,3946.9556,N,08404.9860,W,2,12,0.80,307.69,M,-33.324,M,,*7E
2017-12-01 14:26:44 1512156404.406844: $GPRMC,192645,A,3946.9556,N,08404.9860,W,0.0000,0.000,011217,,*3E
2017-12-01 14:26:44 1512156404.406905: $GPGSA,A,3,8,10,14,18,21,24,32,12,15,20,27,138,2.0,0.8,1.5*37
2017-12-01 14:26:45 1512156405.332393: $GPZDA,192646.00,01,12,2017,00,00*6E
2017-12-01 14:26:45 1512156405.332564: $GPGGA,192646,3946.9556,N,08404.9860,W,2,12,0.80,307.69,M,-33.324,M,,*7D
2017-12-01 14:26:45 1512156405.332630: $GPRMC,192646,A,3946.9556,N,08404.9860,W,0.0000,0.000,011217,,*3D
2017-12-01 14:26:45 1512156405.332690: $GPGSA,A,3,8,10,14,18,21,24,32,12,15,20,27,138,2.0,0.8,1.5*37
2017-12-01 14:26:46 1512156406.665499: $GPGSV,3,1,12,08,05,292,29,10,70,333,48,14,30,255,39,18,69,097,45*79
2017-12-01 14:26:46 1512156406.665680: $GPGSV,3,2,12,21,27,178,46,24,44,057,49,32,47,267,45,12,10,106,28*77
2017-12-01 14:26:46 1512156406.665748: $GPGSV,3,3,12,15,10,067,32,20,08,118,00,27,06,259,29,138,38,213,48*46
2017-12-01 14:26:46 1512156406.779146: $GPZDA,192647.00,01,12,2017,00,00*6F
2017-12-01 14:26:46 1512156406.779302: $GPGGA,192647,3946.9556,N,08404.9860,W,2,11,0.80,307.69,M,-33.324,M,,*7F
2017-12-01 14:26:46 1512156406.779368: $GPRMC,192647,A,3946.9556,N,08404.9860,W,0.0000,0.000,011217,,*3C
2017-12-01 14:26:46 1512156406.779429: $GPGSA,A,3,8,10,14,18,21,24,32,12,15,27,138,,2.0,0.8,1.5*35
2017-12-01 14:26:47 1512156407.335042: $GPZDA,192648.00,01,12,2017,00,00*60
2017-12-01 14:26:47 1512156407.335209: $GPGGA,192648,3946.9556,N,08404.9860,W,2,11,0.80,307.69,M,-33.324,M,,*70
2017-12-01 14:26:47 1512156407.335276: $GPRMC,192648,A,3946.9556,N,08404.9860,W,0.0000,0.000,011217,,*33
2017-12-01 14:26:47 1512156407.335337: $GPGSA,A,3,8,10,14,18,21,24,32,12,15,27,138,,2.0,0.8,1.5*35
2017-12-01 14:26:48 1512156408.333413: $GPZDA,192649.00,01,12,2017,00,00*61
2017-12-01 14:26:48 1512156408.333584: $GPGGA,192649,3946.9556,N,08404.9860,W,2,11,0.80,307.69,M,-33.324,M,,*71
2017-12-01 14:26:48 1512156408.333650: $GPRMC,192649,A,3946.9556,N,08404.9860,W,0.0000,0.000,011217,,*32
2017-12-01 14:26:48 1512156408.333711: $GPGSA,A,3,8,10,14,18,21,24,32,12,15,27,138,,2.0,0.8,1.5*35
2017-12-01 14:26:49 1512156409.668372: $GPGSV,3,1,12,08,05,292,24,10,70,333,48,14,30,255,40,18,69,097,46*79
2017-12-01 14:26:49 1512156409.668556: $GPGSV,3,2,12,21,27,178,46,24,44,057,50,32,47,267,45,12,10,106,28*7F
2017-12-01 14:26:49 1512156409.668622: $GPGSV,3,3,12,15,10,067,32,20,08,118,04,27,06,259,28,138,38,213,47*4C
2017-12-01 14:26:49 1512156409.782435: $GPZDA,192650.00,01,12,2017,00,00*69
2017-12-01 14:26:49 1512156409.782631: $GPGGA,192650,3946.9556,N,08404.9860,W,2,11,0.80,307.69,M,-33.324,M,,*79
2017-12-01 14:26:49 1512156409.782708: $GPRMC,192650,A,3946.9556,N,08404.9860,W,0.0000,0.000,011217,,*3A
2017-12-01 14:26:49 1512156409.782769: $GPGSA,A,3,8,10,14,18,21,24,32,12,15,27,138,,2.0,0.8,1.5*35
2017-12-01 14:26:50 1512156410.330197: $GPZDA,192651.00,01,12,2017,00,00*68
2017-12-01 14:26:50 1512156410.333078: $GPGGA,192651,3946.9560,N,08404.9860,W,2,11,0.80,308.33,M,-33.324,M,,*7D
2017-12-01 14:26:50 1512156410.333215: $GPRMC,192651,A,3946.9560,N,08404.9860,W,0.0000,0.000,011217,,*3E
2017-12-01 14:26:50 1512156410.333283: $GPGSA,A,3,8,10,14,18,21,24,32,12,15,27,138,,2.0,0.8,1.5*35
2017-12-01 14:26:51 1512156411.365179: $GPZDA,192652.00,01,12,2017,00,00*6B
2017-12-01 14:26:51 1512156411.365362: $GPGGA,192652,3946.9560,N,08404.9860,W,2,11,0.80,308.33,M,-33.324,M,,*7E
2017-12-01 14:26:51 1512156411.365432: $GPRMC,192652,A,3946.9560,N,08404.9860,W,0.0000,0.000,011217,,*3D
2017-12-01 14:26:51 1512156411.365500: $GPGSA,A,3,8,10,14,18,21,24,32,12,15,27,138,,2.0,0.8,1.5*35
2017-12-01 14:26:52 1512156412.702193: $GPGSV,3,1,12,08,05,292,25,10,70,333,48,14,30,255,40,18,69,097,46*78
2017-12-01 14:26:52 1512156412.702381: $GPGSV,3,2,12,21,27,178,46,24,44,057,50,32,47,267,45,12,10,106,27*70
2017-12-01 14:26:52 1512156412.702469: $GPGSV,3,3,12,15,10,067,32,20,08,118,15,27,06,259,18,138,38,213,46*4E
2017-12-01 14:26:52 1512156412.815120: $GPZDA,192653.00,01,12,2017,00,00*6A
2017-12-01 14:26:52 1512156412.815290: $GPGGA,192653,3946.9560,N,08404.9860,W,2,12,0.80,308.33,M,-33.324,M,,*7C
2017-12-01 14:26:52 1512156412.815356: $GPRMC,192653,A,3946.9560,N,08404.9860,W,0.0000,0.000,011217,,*3C
2017-12-01 14:26:52 1512156412.815417: $GPGSA,A,3,8,10,14,18,21,24,32,12,15,20,27,138,2.0,0.8,1.5*37
2017-12-01 14:26:53 1512156413.365034: $GPZDA,192654.00,01,12,2017,00,00*6D
2017-12-01 14:26:53 1512156413.365204: $GPGGA,192654,3946.9560,N,08404.9860,W,2,12,0.80,308.33,M,-33.324,M,,*7B
2017-12-01 14:26:53 1512156413.365269: $GPRMC,192654,A,3946.9560,N,08404.9860,W,0.0000,0.000,011217,,*3B
2017-12-01 14:26:53 1512156413.365329: $GPGSA,A,3,8,10,14,18,21,24,32,12,15,20,27,138,2.0,0.8,1.5*37
2017-12-01 14:26:54 1512156414.356613: $GPZDA,192655.00,01,12,2017,00,00*6C
2017-12-01 14:26:54 1512156414.356781: $GPGGA,192655,3946.9560,N,08404.9860,W,2,12,0.80,308.33,M,-33.324,M,,*7A
2017-12-01 14:26:54 1512156414.356847: $GPRMC,192655,A,3946.9560,N,08404.9860,W,0.0000,0.000,011217,,*3A
2017-12-01 14:26:54 1512156414.356908: $GPGSA,A,3,8,10,14,18,21,24,32,12,15,20,27,138,2.0,0.8,1.5*37
