2017-12-01 17:49:31 1512168571.506734: {"class":"VERSION","release":"3.16","rev":"3.16-4","proto_major":3,"proto_minor":11}
2017-12-01 17:49:31 1512168571.507163: {"class":"DEVICES","devices":[{"class":"DEVICE","path":"/dev/ttyUSB0","driver":"SiRF","subtype":"9\u0006GSD4e_4.1.2-P1_RPATCH.05-F-GPS-4R-1510281 11/03/2015 307","activated":"2017-12-01T22:49:31.438Z","flags":1,"native":1,"bps":4800,"parity":"N","stopbits":1,"cycle":1.00}]}
2017-12-01 17:49:31 1512168571.507290: {"class":"WATCH","enable":true,"json":false,"nmea":true,"raw":0,"scaled":false,"timing":false,"split24":false,"pps":false}
2017-12-01 17:49:32 1512168572.758915: $GPGSV,3,1,12,01,14,265,42,03,29,312,46,10,12,157,41,14,65,064,41*74
2017-12-01 17:49:32 1512168572.759098: $GPGSV,3,2,12,29,04,085,37,22,46,292,46,16,08,189,30,25,29,048,43*7F
2017-12-01 17:49:32 1512168572.759164: $GPGSV,3,3,12,26,37,175,45,32,47,093,00,31,78,342,46,138,38,213,45*4A
2017-12-01 17:49:32 1512168572.872374: $GPZDA,224933.00,01,12,2017,00,00*6D
2017-12-01 17:49:32 1512168572.872545: $GPGGA,224933,3946.9724,N,08404.9847,W,2,11,0.80,298.49,M,-33.325,M,,*7B
2017-12-01 17:49:32 1512168572.872611: $GPRMC,224933,A,3946.9724,N,08404.9847,W,0.0000,0.000,011217,,*3C
2017-12-01 17:49:32 1512168572.872672: $GPGSA,A,3,1,3,10,14,29,22,16,25,26,31,138,,2.0,0.8,1.5*0D
2017-12-01 17:49:33 1512168573.498038: $GPZDA,224934.00,01,12,2017,00,00*6A
2017-12-01 17:49:33 1512168573.498206: $GPGGA,224934,3946.9724,N,08404.9847,W,2,11,0.80,298.49,M,-33.325,M,,*7C
2017-12-01 17:49:33 1512168573.498272: $GPRMC,224934,A,3946.9724,N,08404.9847,W,0.0000,0.000,011217,,*3B
2017-12-01 17:49:33 1512168573.498332: $GPGSA,A,3,1,3,10,14,29,22,16,25,26,31,138,,2.0,0.8,1.5*0D
2017-12-01 17:49:34 1512168574.398886: $GPZDA,224935.00,01,12,2017,00,00*6B
2017-12-01 17:49:34 1512168574.399057: $GPGGA,224935,3946.9724,N,08404.9847,W,2,11,0.80,298.49,M,-33.325,M,,*7D
2017-12-01 17:49:34 1512168574.399123: $GPRMC,224935,A,3946.9724,N,08404.9847,W,0.0000,0.000,011217,,*3A
2017-12-01 17:49:34 1512168574.399184: $GPGSA,A,3,1,3,10,14,29,22,16,25,26,31,138,,2.0,0.8,1.5*0D
2017-12-01 17:49:35 1512168575.760574: $GPGSV,3,1,12,01,14,265,42,03,29,312,47,10,12,157,41,14,65,064,41*75
2017-12-01 17:49:35 1512168575.760752: $GPGSV,3,2,12,29,04,085,37,22,46,292,46,16,08,189,30,25,29,048,42*7E
2017-12-01 17:49:35 1512168575.760820: $GPGSV,3,3,12,26,37,175,44,32,47,093,00,31,78,342,46,138,38,213,45*4B
2017-12-01 17:49:35 1512168575.873004: $GPZDA,224936.00,01,12,2017,00,00*68
2017-12-01 17:49:35 1512168575.873148: $GPGGA,224936,3946.9724,N,08404.9847,W,2,11,0.80,298.49,M,-33.325,M,,*7E
2017-12-01 17:49:35 1512168575.873214: $GPRMC,224936,A,3946.9724,N,08404.9847,W,0.0000,0.000,011217,,*39
2017-12-01 17:49:35 1512168575.873275: $GPGSA,A,3,1,3,10,14,29,22,16,25,26,31,138,,2.0,0.8,1.5*0D
2017-12-01 17:49:36 1512168576.397272: $GPZDA,224937.00,01,12,2017,00,00*69
2017-12-01 17:49:36 1512168576.397451: $GPGGA,224937,3946.9724,N,08404.9847,W,2,11,0.80,298.49,M,-33.325,M,,*7F
2017-12-01 17:49:36 1512168576.397515: $GPRMC,224937,A,3946.9724,N,08404.9847,W,0.0000,0.000,011217,,*38
2017-12-01 17:49:36 1512168576.397577: $GPGSA,A,3,1,3,10,14,29,22,16,25,26,31,138,,2.0,0.8,1.5*0D
2017-12-01 17:49:37 1512168577.393111: $GPZDA,224938.00,01,12,2017,00,00*66
2017-12-01 17:49:37 1512168577.393286: $GPGGA,224938,3946.9724,N,08404.9847,W,2,11,0.80,298.49,M,-33.325,M,,*70
2017-12-01 17:49:37 1512168577.393353: $GPRMC,224938,A,3946.9724,N,08404.9847,W,0.0000,0.000,011217,,*37
2017-12-01 17:49:37 1512168577.393413: $GPGSA,A,3,1,3,10,14,29,22,16,25,26,31,138,,2.0,0.8,1.5*0D
2017-12-01 17:49:38 1512168578.728327: $GPGSV,3,1,12,01,14,265,42,03,29,312,47,10,12,157,41,14,65,064,40*74
2017-12-01 17:49:38 1512168578.728515: $GPGSV,3,2,12,29,04,085,37,22,46,292,46,16,08,189,30,25,29,048,43*7F
2017-12-01 17:49:38 1512168578.728583: $GPGSV,3,3,12,26,37,175,45,32,47,093,00,31,78,342,46,138,38,213,46*49
2017-12-01 17:49:38 1512168578.841801: $GPZDA,224939.00,01,12,2017,00,00*67
2017-12-01 17:49:38 1512168578.841984: $GPGGA,224939,3946.9724,N,08404.9847,W,2,11,0.80,298.49,M,-33.325,M,,*71
2017-12-01 17:49:38 1512168578.842102: $GPRMC,224939,A,3946.9724,N,08404.9847,W,0.0000,0.000,011217,,*36
2017-12-01 17:49:38 1512168578.842165: $GPGSA,A,3,1,3,10,14,29,22,16,25,26,31,138,,2.0,0.8,1.5*0D
2017-12-01 17:49:39 1512168579.399278: $GPZDA,224940.00,01,12,2017,00,00*69
2017-12-01 17:49:39 1512168579.399448: $GPGGA,224940,3946.9724,N,08404.9847,W,2,11,0.80,298.49,M,-33.325,M,,*7F
2017-12-01 17:49:39 1512168579.399515: $GPRMC,224940,A,3946.9724,N,08404.9847,W,0.0000,0.000,011217,,*38
2017-12-01 17:49:39 1512168579.399576: $GPGSA,A,3,1,3,10,14,29,22,16,25,26,31,138,,2.0,0.8,1.5*0D
2017-12-01 17:49:40 1512168580.397538: $GPZDA,224941.00,01,12,2017,00,00*68
2017-12-01 17:49:40 1512168580.397706: $GPGGA,224941,3946.9724,N,08404.9847,W,2,11,0.80,298.49,M,-33.325,M,,*7E
2017-12-01 17:49:40 1512168580.397772: $GPRMC,224941,A,3946.9724,N,08404.9847,W,0.0000,0.000,011217,,*39
2017-12-01 17:49:40 1512168580.397833: $GPGSA,A,3,1,3,10,14,29,22,16,25,26,31,138,,2.0,0.8,1.5*0D
2017-12-01 17:49:41 1512168581.734203: $GPGSV,3,1,12,01,14,265,42,03,29,312,47,10,12,157,42,14,65,064,40*77
2017-12-01 17:49:41 1512168581.734388: $GPGSV,3,2,12,29,04,085,37,22,46,292,46,16,08,189,31,25,29,048,43*7E
2017-12-01 17:49:41 1512168581.734455: $GPGSV,3,3,12,26,37,175,46,32,47,093,00,31,78,342,46,138,38,213,46*4A
2017-12-01 17:49:41 1512168581.847574: $GPZDA,224942.00,01,12,2017,00,00*6B
2017-12-01 17:49:41 1512168581.847749: $GPGGA,224942,3946.9724,N,08404.9847,W,2,11,0.80,298.49,M,-33.325,M,,*7D
2017-12-01 17:49:41 1512168581.847816: $GPRMC,224942,A,3946.9724,N,08404.9847,W,0.0000,0.000,011217,,*3A
2017-12-01 17:49:41 1512168581.847876: $GPGSA,A,3,1,3,10,14,29,22,16,25,26,31,138,,2.0,0.8,1.5*0D
2017-12-01 17:49:42 1512168582.398441: $GPZDA,224943.00,01,12,2017,00,00*6A
2017-12-01 17:49:42 1512168582.398617: $GPGGA,224943,3946.9724,N,08404.9847,W,2,11,0.80,298.49,M,-33.325,M,,*7C
2017-12-01 17:49:42 1512168582.398684: $GPRMC,224943,A,3946.9724,N,08404.9847,W,0.0000,0.000,011217,,*3B
2017-12-01 17:49:42 1512168582.398744: $GPGSA,A,3,1,3,10,14,29,22,16,25,26,31,138,,2.0,0.8,1.5*0D
2017-12-01 17:49:43 1512168583.400012: $GPZDA,224944.00,01,12,2017,00,00*6D
2017-12-01 17:49:43 1512168583.461650: $GPGGA,224944,3946.9724,N,08404.9847,W,2,11,0.80,298.49,M,-33.325,M,,*7B
2017-12-01 17:49:43 1512168583.461868: $GPRMC,224944,A,3946.9724,N,08404.9847,W,0.0000,0.000,011217,,*3C
2017-12-01 17:49:43 1512168583.461939: $GPGSA,A,3,1,3,10,14,29,22,16,25,26,31,138,,2.0,0.8,1.5*0D
2017-12-01 17:49:44 1512168584.732008: $GPGSV,3,1,12,01,14,265,42,03,29,312,46,10,12,157,42,14,65,064,40*76
2017-12-01 17:49:44 1512168584.732193: $GPGSV,3,2,12,29,04,085,37,22,46,292,47,16,08,189,31,25,29,048,42*7E
2017-12-01 17:49:44 1512168584.732258: $GPGSV,3,3,12,26,37,175,45,32,47,093,00,31,78,342,46,138,38,213,46*49
2017-12-01 17:49:44 1512168584.845326: $GPZDA,224945.00,01,12,2017,00,00*6C
2017-12-01 17:49:44 1512168584.845460: $GPGGA,224945,3946.9724,N,08404.9847,W,2,11,0.80,298.49,M,-33.325,M,,*7A
2017-12-01 17:49:44 1512168584.845525: $GPRMC,224945,A,3946.9724,N,08404.9847,W,0.0000,0.000,011217,,*3D
2017-12-01 17:49:44 1512168584.845585: $GPGSA,A,3,1,3,10,14,29,22,16,25,26,31,138,,2.0,0.8,1.5*0D
2017-12-01 17:49:45 1512168585.397549: $GPZDA,224946.00,01,12,2017,00,00*6F
2017-12-01 17:49:45 1512168585.397726: $GPGGA,224946,3946.9724,N,08404.9847,W,2,11,0.80,298.49,M,-33.325,M,,*79
2017-12-01 17:49:45 1512168585.397791: $GPRMC,224946,A,3946.9724,N,08404.9847,W,0.0000,0.000,011217,,*3E
2017-12-01 17:49:45 1512168585.397852: $GPGSA,A,3,1,3,10,14,29,22,16,25,26,31,138,,2.0,0.8,1.5*0D
2017-12-01 17:49:46 1512168586.398362: $GPZDA,224947.00,01,12,2017,00,00*6E
2017-12-01 17:49:46 1512168586.398543: $GPGGA,224947,3946.9724,N,08404.9847,W,2,11,0.80,298.49,M,-33.325,M,,*78
2017-12-01 17:49:46 1512168586.398611: $GPRMC,224947,A,3946.9724,N,08404.9847,W,0.0000,0.000,011217,,*3F
2017-12-01 17:49:46 1512168586.398674: $GPGSA,A,3,1,3,10,14,29,22,16,25,26,31,138,,2.0,0.8,1.5*0D
2017-12-01 17:49:47 1512168587.734088: $GPGSV,3,1,12,01,14,265,42,03,29,312,46,10,12,157,41,14,65,064,40*75
2017-12-01 17:49:47 1512168587.734332: $GPGSV,3,2,12,29,04,085,37,22,46,292,47,16,08,189,31,25,29,048,42*7E
2017-12-01 17:49:47 1512168587.734403: $GPGSV,3,3,12,26,37,175,45,32,47,093,00,31,78,342,46,138,38,213,46*49
2017-12-01 17:49:47 1512168587.847551: $GPZDA,224948.00,01,12,2017,00,00*61
2017-12-01 17:49:47 1512168587.847724: $GPGGA,224948,3946.9724,N,08404.9847,W,2,11,0.80,298.49,M,-33.325,M,,*77
2017-12-01 17:49:47 1512168587.847793: $GPRMC,224948,A,3946.9724,N,08404.9847,W,0.0000,0.000,011217,,*30
2017-12-01 17:49:47 1512168587.847854: $GPGSA,A,3,1,3,10,14,29,22,16,25,26,31,138,,2.0,0.8,1.5*0D
2017-12-01 17:49:48 1512168588.473023: $GPZDA,224949.00,01,12,2017,00,00*60
2017-12-01 17:49:48 1512168588.872720: $GPGGA,224949,3946.9724,N,08404.9847,W,2,11,0.80,298.49,M,-33.325,M,,*76
2017-12-01 17:49:48 1512168588.872878: $GPRMC,224949,A,3946.9724,N,08404.9847,W,0.0000,0.000,011217,,*31
2017-12-01 17:49:48 1512168588.872943: $GPGSA,A,3,1,3,10,14,29,22,16,25,26,31,138,,2.0,0.8,1.5*0D
2017-12-01 17:49:49 1512168589.393953: $GPZDA,224950.00,01,12,2017,00,00*68
2017-12-01 17:49:49 1512168589.394138: $GPGGA,224950,3946.9724,N,08404.9847,W,2,11,0.80,298.49,M,-33.325,M,,*7E
2017-12-01 17:49:49 1512168589.394210: $GPRMC,224950,A,3946.9724,N,08404.9847,W,0.0000,0.000,011217,,*39
2017-12-01 17:49:49 1512168589.394275: $GPGSA,A,3,1,3,10,14,29,22,16,25,26,31,138,,2.0,0.8,1.5*0D
2017-12-01 17:49:50 1512168590.728263: $GPGSV,3,1,12,01,14,265,42,03,29,312,46,10,12,157,41,14,65,064,40*75
2017-12-01 17:49:50 1512168590.728445: $GPGSV,3,2,12,29,04,085,38,22,46,292,47,16,08,189,26,25,29,048,42*77
2017-12-01 17:49:50 1512168590.728512: $GPGSV,3,3,12,26,37,175,45,32,47,093,00,31,78,342,46,138,38,213,46*49
2017-12-01 17:49:50 1512168590.841641: $GPZDA,224951.00,01,12,2017,00,00*69
2017-12-01 17:49:50 1512168590.841799: $GPGGA,224951,3946.9724,N,08404.9847,W,2,11,0.80,298.49,M,-33.325,M,,*7F
2017-12-01 17:49:50 1512168590.841865: $GPRMC,224951,A,3946.9724,N,08404.9847,W,0.0000,0.000,011217,,*38
2017-12-01 17:49:50 1512168590.841925: $GPGSA,A,3,1,3,10,14,29,22,16,25,26,31,138,,2.0,0.8,1.5*0D
2017-12-01 17:49:51 1512168591.397658: $GPZDA,224952.00,01,12,2017,00,00*6A
2017-12-01 17:49:51 1512168591.397831: $GPGGA,224952,3946.9724,N,08404.9847,W,2,11,0.80,298.49,M,-33.325,M,,*7C
2017-12-01 17:49:51 1512168591.397899: $GPRMC,224952,A,3946.9724,N,08404.9847,W,0.0000,0.000,011217,,*3B
2017-12-01 17:49:51 1512168591.397961: $GPGSA,A,3,1,3,10,14,29,22,16,25,26,31,138,,2.0,0.8,1.5*0D
