2017-12-29 11:03:59 1514563439.067011: {"class":"VERSION","release":"3.16","rev":"3.16-4","proto_major":3,"proto_minor":11}
2017-12-29 11:03:59 1514563439.067352: {"class":"DEVICES","devices":[{"class":"DEVICE","path":"/dev/ttyUSB0","driver":"SiRF","subtype":"9\u0006GSD4e_4.1.2-P1_RPATCH.05-F-GPS-4R-1510281 11/03/2015 307","activated":"2017-12-29T16:03:59.050Z","flags":1,"native":1,"bps":4800,"parity":"N","stopbits":1,"cycle":1.00}]}
2017-12-29 11:03:59 1514563439.067466: {"class":"WATCH","enable":true,"json":false,"nmea":true,"raw":0,"scaled":false,"timing":false,"split24":false,"pps":false}
2017-12-29 11:03:59 1514563439.227067: $GPZDA,160359.89,29,12,2017,00,00*63
2017-12-29 11:03:59 1514563439.227235: $GPGGA,160359,3946.9598,N,08404.9845,W,1,11,1.60,301.40,M,-33.324,M,,*7C
2017-12-29 11:03:59 1514563439.227302: $GPRMC,160359,A,3946.9598,N,08404.9845,W,0.9741,192.850,291217,,*38
2017-12-29 11:03:59 1514563439.227363: $GPGSA,A,3,10,13,15,18,20,21,24,27,32,8,138,,1.7,1.6,1.3*3E
2017-12-29 11:03:59 1514563439.227421: $GPGBS,160359,10.91,M,10.38,M,30.89,M*07
2017-12-29 11:04:00 1514563440.148221: $GPZDA,160400.38,29,12,2017,00,00*62
2017-12-29 11:04:00 1514563440.148391: $GPGGA,160400,3946.9594,N,08404.9845,W,1,11,1.60,300.76,M,-33.324,M,,*7F
2017-12-29 11:04:00 1514563440.148458: $GPRMC,160400,A,3946.9594,N,08404.9845,W,0.2202,173.469,291217,,*3F
2017-12-29 11:04:00 1514563440.148519: $GPGSA,A,3,10,13,15,18,20,21,24,27,32,8,138,,1.7,1.6,1.3*3E
2017-12-29 11:04:00 1514563440.148578: $GPGBS,160400,10.91,M,10.38,M,30.89,M*0C
2017-12-29 11:04:01 1514563441.268375: $GPGSV,3,1,11,10,37,297,44,15,42,051,50,18,68,327,45,20,39,090,50*75
2017-12-29 11:04:01 1514563441.268531: $GPGSV,3,2,11,21,69,196,48,24,48,118,48,27,19,295,38,32,17,234,33*72
2017-12-29 11:04:01 1514563441.268597: $GPGSV,3,3,11,08,03,327,06,13,12,046,07,138,38,213,00*77
2017-12-29 11:04:01 1514563441.381820: $GPZDA,160401.00,29,12,2017,00,00*68
2017-12-29 11:04:01 1514563441.381989: $GPGGA,160401,3946.9594,N,08404.9845,W,1,10,1.00,300.76,M,-33.324,M,,*79
2017-12-29 11:04:01 1514563441.382075: $GPRMC,160401,A,3946.9594,N,08404.9845,W,0.0000,0.000,291217,,*32
2017-12-29 11:04:01 1514563441.382139: $GPGSA,A,3,10,15,18,20,21,24,27,32,8,13,,,1.7,1.0,1.3*02
2017-12-29 11:04:01 1514563441.832871: $GPZDA,160402.00,29,12,2017,00,00*6B
2017-12-29 11:04:01 1514563441.833033: $GPGGA,160402,3946.9590,N,08404.9845,W,1,10,1.00,300.12,M,-33.324,M,,*7C
2017-12-29 11:04:01 1514563441.833117: $GPRMC,160402,A,3946.9590,N,08404.9845,W,0.3423,4.196,291217,,*39
2017-12-29 11:04:01 1514563441.833178: $GPGSA,A,3,10,15,18,20,21,24,27,32,8,13,,,1.7,1.0,1.3*02
2017-12-29 11:04:02 1514563442.423752: $GPZDA,160403.00,29,12,2017,00,00*6A
2017-12-29 11:04:02 1514563442.423932: $GPGGA,160403,3946.9593,N,08404.9845,W,1,10,1.00,299.36,M,-33.324,M,,*79
2017-12-29 11:04:02 1514563442.424001: $GPRMC,160403,A,3946.9593,N,08404.9845,W,0.0000,0.000,291217,,*37
2017-12-29 11:04:02 1514563442.424079: $GPGSA,A,3,10,15,18,20,21,24,27,32,8,13,,,1.7,1.0,1.3*02
2017-12-29 11:04:03 1514563443.758658: $GPGSV,3,1,11,10,37,297,08,15,42,051,10,18,68,327,09,20,39,090,10*75
2017-12-29 11:04:03 1514563443.758831: $GPGSV,3,2,11,21,69,196,09,24,48,118,09,27,19,295,07,32,17,234,06*78
2017-12-29 11:04:03 1514563443.758897: $GPGSV,3,3,11,08,03,327,06,13,12,046,06,138,38,213,11*76
2017-12-29 11:04:03 1514563443.872425: $GPZDA,160404.00,29,12,2017,00,00*6D
2017-12-29 11:04:03 1514563443.872560: $GPGGA,160404,3946.9589,N,08404.9845,W,1,11,1.00,298.72,M,-33.324,M,,*75
2017-12-29 11:04:03 1514563443.872626: $GPRMC,160404,A,3946.9589,N,08404.9845,W,0.2422,93.794,291217,,*0D
2017-12-29 11:04:03 1514563443.872687: $GPGSA,A,3,10,15,18,20,21,24,27,32,8,13,138,,1.7,1.0,1.3*38
2017-12-29 11:04:04 1514563444.424558: $GPZDA,160405.00,29,12,2017,00,00*6C
2017-12-29 11:04:04 1514563444.424731: $GPGGA,160405,3946.9589,N,08404.9845,W,1,11,1.00,298.72,M,-33.324,M,,*74
2017-12-29 11:04:04 1514563444.424798: $GPRMC,160405,A,3946.9589,N,08404.9845,W,0.4207,39.346,291217,,*00
2017-12-29 11:04:04 1514563444.424859: $GPGSA,A,3,10,15,18,20,21,24,27,32,8,13,138,,1.7,1.0,1.3*38
2017-12-29 11:04:05 1514563445.425289: $GPZDA,160406.00,29,12,2017,00,00*6F
2017-12-29 11:04:05 1514563445.425444: $GPGGA,160406,3946.9589,N,08404.9845,W,1,11,1.00,298.72,M,-33.324,M,,*77
2017-12-29 11:04:05 1514563445.425511: $GPRMC,160406,A,3946.9589,N,08404.9845,W,0.3423,4.196,291217,,*35
2017-12-29 11:04:05 1514563445.425572: $GPGSA,A,3,10,15,18,20,21,24,27,32,8,13,138,,1.7,1.0,1.3*38
2017-12-29 11:04:05 1514563445.425630: $GPGBS,160406,10.91,M,10.38,M,30.89,M*0A
2017-12-29 11:04:06 1514563446.761859: $GPGSV,3,1,11,10,37,297,42,15,42,051,50,18,68,327,43,20,39,090,48*7C
2017-12-29 11:04:06 1514563446.762078: $GPGSV,3,2,11,21,69,196,45,24,48,118,46,27,19,295,37,32,17,234,34*79
2017-12-29 11:04:06 1514563446.762146: $GPGSV,3,3,11,08,03,327,30,13,12,046,30,138,38,213,46*74
2017-12-29 11:04:06 1514563446.875304: $GPZDA,160407.00,29,12,2017,00,00*6E
2017-12-29 11:04:06 1514563446.875434: $GPGGA,160407,3946.9586,N,08404.9852,W,1,11,1.00,299.40,M,-33.324,M,,*7F
2017-12-29 11:04:06 1514563446.875501: $GPRMC,160407,A,3946.9586,N,08404.9852,W,0.0000,0.000,291217,,*31
2017-12-29 11:04:06 1514563446.875562: $GPGSA,A,3,10,15,18,20,21,24,27,32,8,13,138,,1.7,1.0,1.3*38
2017-12-29 11:04:07 1514563447.426354: $GPZDA,160408.00,29,12,2017,00,00*61
2017-12-29 11:04:07 1514563447.426538: $GPGGA,160408,3946.9586,N,08404.9852,W,1,11,1.00,299.40,M,-33.324,M,,*70
2017-12-29 11:04:07 1514563447.426605: $GPRMC,160408,A,3946.9586,N,08404.9852,W,0.0000,0.000,291217,,*3E
2017-12-29 11:04:07 1514563447.426666: $GPGSA,A,3,10,15,18,20,21,24,27,32,8,13,138,,1.7,1.0,1.3*38
2017-12-29 11:04:08 1514563448.425612: $GPZDA,160409.00,29,12,2017,00,00*60
2017-12-29 11:04:08 1514563448.425782: $GPGGA,160409,3946.9586,N,08404.9845,W,2,11,1.80,299.48,M,-33.324,M,,*74
2017-12-29 11:04:08 1514563448.425850: $GPRMC,160409,A,3946.9586,N,08404.9845,W,0.0000,0.000,291217,,*39
2017-12-29 11:04:08 1514563448.425940: $GPGSA,A,3,10,15,18,20,21,24,27,32,8,13,138,,1.7,1.8,1.3*30
2017-12-29 11:04:09 1514563449.762232: $GPGSV,3,1,11,10,37,297,41,15,42,051,49,18,68,327,42,20,39,090,48*76
2017-12-29 11:04:09 1514563449.762405: $GPGSV,3,2,11,21,69,196,45,24,48,118,46,27,19,295,37,32,17,234,33*7E
2017-12-29 11:04:09 1514563449.762474: $GPGSV,3,3,11,08,03,327,30,13,12,046,30,138,38,213,45*77
2017-12-29 11:04:09 1514563449.875568: $GPZDA,160410.00,29,12,2017,00,00*68
2017-12-29 11:04:09 1514563449.875696: $GPGGA,160410,3946.9591,N,08404.9846,W,2,11,1.80,301.53,M,-33.324,M,,*73
2017-12-29 11:04:09 1514563449.875762: $GPRMC,160410,A,3946.9591,N,08404.9846,W,0.1867,180.000,291217,,*35
2017-12-29 11:04:09 1514563449.875824: $GPGSA,A,3,10,15,18,20,21,24,27,32,8,13,138,,1.7,1.8,1.3*30
2017-12-29 11:04:10 1514563450.426473: $GPZDA,160411.00,29,12,2017,00,00*69
2017-12-29 11:04:10 1514563450.426647: $GPGGA,160411,3946.9599,N,08404.9846,W,2,11,1.80,302.81,M,-33.324,M,,*76
2017-12-29 11:04:10 1514563450.426716: $GPRMC,160411,A,3946.9599,N,08404.9846,W,0.3423,4.196,291217,,*31
2017-12-29 11:04:10 1514563450.426777: $GPGSA,A,3,10,15,18,20,21,24,27,32,8,13,138,,1.7,1.8,1.3*30
2017-12-29 11:04:11 1514563451.426086: $GPZDA,160412.00,29,12,2017,00,00*6A
2017-12-29 11:04:11 1514563451.426258: $GPGGA,160412,3946.9599,N,08404.9846,W,2,11,1.80,302.81,M,-33.324,M,,*75
2017-12-29 11:04:11 1514563451.426327: $GPRMC,160412,A,3946.9599,N,08404.9846,W,0.0000,0.000,291217,,*3E
2017-12-29 11:04:11 1514563451.426388: $GPGSA,A,3,10,15,18,20,21,24,27,32,8,13,138,,1.7,1.8,1.3*30
2017-12-29 11:04:12 1514563452.761841: $GPGSV,3,1,11,10,37,297,41,15,42,051,48,18,68,327,42,20,39,090,48*77
2017-12-29 11:04:12 1514563452.762046: $GPGSV,3,2,11,21,69,196,45,24,48,118,46,27,19,295,37,32,17,234,33*7E
2017-12-29 11:04:12 1514563452.762113: $GPGSV,3,3,11,08,03,327,30,13,12,046,30,138,38,213,45*77
2017-12-29 11:04:12 1514563452.875384: $GPZDA,160413.00,29,12,2017,00,00*6B
2017-12-29 11:04:12 1514563452.875529: $GPGGA,160413,3946.9599,N,08404.9846,W,2,11,1.00,302.81,M,-33.324,M,,*7C
2017-12-29 11:04:12 1514563452.875596: $GPRMC,160413,A,3946.9599,N,08404.9846,W,0.0000,0.000,291217,,*3F
2017-12-29 11:04:12 1514563452.875709: $GPGSA,A,3,10,15,18,20,21,24,27,32,8,13,138,,1.7,1.0,1.3*38
2017-12-29 11:04:13 1514563453.502270: $GPZDA,160414.00,29,12,2017,00,00*6C
2017-12-29 11:04:13 1514563453.502438: $GPGGA,160414,3946.9599,N,08404.9846,W,2,11,1.00,302.81,M,-33.324,M,,*7B
2017-12-29 11:04:13 1514563453.502506: $GPRMC,160414,A,3946.9599,N,08404.9846,W,0.0000,0.000,291217,,*38
2017-12-29 11:04:13 1514563453.502567: $GPGSA,A,3,10,15,18,20,21,24,27,32,8,13,138,,1.7,1.0,1.3*38
2017-12-29 11:04:14 1514563454.427957: $GPZDA,160415.00,29,12,2017,00,00*6D
2017-12-29 11:04:14 1514563454.428154: $GPGGA,160415,3946.9599,N,08404.9846,W,2,11,1.00,302.81,M,-33.324,M,,*7A
2017-12-29 11:04:14 1514563454.428222: $GPRMC,160415,A,3946.9599,N,08404.9846,W,0.0000,0.000,291217,,*39
2017-12-29 11:04:14 1514563454.428283: $GPGSA,A,3,10,15,18,20,21,24,27,32,8,13,138,,1.7,1.0,1.3*38
2017-12-29 11:04:15 1514563455.760972: $GPGSV,3,1,11,10,37,297,41,15,42,051,49,18,68,327,42,20,39,090,49*77
2017-12-29 11:04:15 1514563455.761201: $GPGSV,3,2,11,21,69,196,45,24,48,118,46,27,19,295,37,32,17,234,33*7E
2017-12-29 11:04:15 1514563455.761271: $GPGSV,3,3,11,08,03,327,31,13,12,046,30,138,38,213,45*76
2017-12-29 11:04:15 1514563455.874291: $GPZDA,160416.00,29,12,2017,00,00*6E
2017-12-29 11:04:15 1514563455.874416: $GPGGA,160416,3946.9599,N,08404.9846,W,2,11,1.00,302.81,M,-33.324,M,,*79
2017-12-29 11:04:15 1514563455.874482: $GPRMC,160416,A,3946.9599,N,08404.9846,W,0.0000,0.000,291217,,*3A
2017-12-29 11:04:15 1514563455.874544: $GPGSA,A,3,10,15,18,20,21,24,27,32,8,13,138,,1.7,1.0,1.3*38
2017-12-29 11:04:16 1514563456.426720: $GPZDA,160417.00,29,12,2017,00,00*6F
2017-12-29 11:04:16 1514563456.426906: $GPGGA,160417,3946.9599,N,08404.9846,W,2,11,1.00,302.81,M,-33.324,M,,*78
2017-12-29 11:04:16 1514563456.426975: $GPRMC,160417,A,3946.9599,N,08404.9846,W,0.0000,0.000,291217,,*3B
2017-12-29 11:04:16 1514563456.427053: $GPGSA,A,3,10,15,18,20,21,24,27,32,8,13,138,,1.7,1.0,1.3*38
2017-12-29 11:04:17 1514563457.427656: $GPZDA,160418.00,29,12,2017,00,00*60
2017-12-29 11:04:17 1514563457.427822: $GPGGA,160418,3946.9599,N,08404.9846,W,2,11,1.00,302.81,M,-33.324,M,,*77
2017-12-29 11:04:17 1514563457.427910: $GPRMC,160418,A,3946.9599,N,08404.9846,W,0.0000,0.000,291217,,*34
2017-12-29 11:04:17 1514563457.427972: $GPGSA,A,3,10,15,18,20,21,24,27,32,8,13,138,,1.7,1.0,1.3*38
2017-12-29 11:04:17 1514563457.428049: $GPGBS,160418,2.73,M,2.59,M,7.72,M*3E
2017-12-29 11:04:18 1514563458.763773: $GPGSV,3,1,11,10,37,297,41,15,42,051,49,18,68,327,42,20,39,090,49*77
2017-12-29 11:04:18 1514563458.763975: $GPGSV,3,2,11,21,69,196,46,24,48,118,47,27,19,295,38,32,17,234,33*73
2017-12-29 11:04:18 1514563458.764060: $GPGSV,3,3,11,08,03,327,32,13,12,046,30,138,38,213,44*74
2017-12-29 11:04:18 1514563458.877572: $GPZDA,160419.00,29,12,2017,00,00*61
2017-12-29 11:04:18 1514563458.877711: $GPGGA,160419,3946.9599,N,08404.9846,W,2,11,1.00,302.81,M,-33.324,M,,*76
2017-12-29 11:04:18 1514563458.877777: $GPRMC,160419,A,3946.9599,N,08404.9846,W,0.0000,0.000,291217,,*35
2017-12-29 11:04:18 1514563458.877837: $GPGSA,A,3,10,15,18,20,21,24,27,32,8,13,138,,1.7,1.0,1.3*38
