2017-11-16 17:21:44 1510870904.260413: {"class":"VERSION","release":"3.17","rev":"3.17","proto_major":3,"proto_minor":12}
2017-11-16 17:21:44 1510870904.260864: {"class":"DEVICES","devices":[{"class":"DEVICE","path":"/dev/ttyUSB0","driver":"SiRF","subtype":"9\u0006GSD4e_4.1.2-P1_RPATCH.05-F-GPS-4R-1510281 11/03/2015 307","activated":"2017-11-16T22:21:44.225Z","flags":1,"native":1,"bps":4800,"parity":"N","stopbits":1,"cycle":1.00}]}
2017-11-16 17:21:44 1510870904.260984: {"class":"WATCH","enable":true,"json":false,"nmea":true,"raw":0,"scaled":false,"timing":false,"split24":false,"pps":false}
2017-11-16 17:21:44 1510870904.402877: $GPZDA,222143.00,16,11,2017,00,00*61
2017-11-16 17:21:44 1510870904.403048: $GPGGA,222143,3946.9570,N,08404.9831,W,2,12,0.80,309.16,M,-33.324,M,,*71
2017-11-16 17:21:44 1510870904.403112: $GPRMC,222143,A,3946.9570,N,08404.9831,W,0.0000,0.000,161117,,*32
2017-11-16 17:21:44 1510870904.403168: $GPGSA,A,3,1,10,22,12,14,18,24,11,25,31,32,138,1.6,0.8,1.3*38
2017-11-16 17:21:45 1510870905.737468: $GPGSV,3,1,12,01,20,304,35,10,53,145,50,22,15,312,42,12,23,054,50*7C
2017-11-16 17:21:45 1510870905.737669: $GPGSV,3,2,12,14,64,318,47,18,22,142,40,24,01,048,13,11,09,286,41*76
2017-11-16 17:21:45 1510870905.737735: $GPGSV,3,3,12,25,38,096,48,31,51,222,49,32,69,013,48,138,38,213,44*4D
2017-11-16 17:21:45 1510870905.850871: $GPZDA,222144.00,16,11,2017,00,00*66
2017-11-16 17:21:45 1510870905.851063: $GPGGA,222144,3946.9570,N,08404.9831,W,2,12,0.80,309.16,M,-33.324,M,,*76
2017-11-16 17:21:45 1510870905.851124: $GPRMC,222144,A,3946.9570,N,08404.9831,W,0.0000,0.000,161117,,*35
2017-11-16 17:21:45 1510870905.851180: $GPGSA,A,3,1,10,22,12,14,18,24,11,25,31,32,138,1.6,0.8,1.3*38
2017-11-16 17:21:46 1510870906.476467: $GPZDA,222145.00,16,11,2017,00,00*67
2017-11-16 17:21:46 1510870906.476754: $GPGGA,222145,3946.9570,N,08404.9831,W,2,12,0.80,309.16,M,-33.324,M,,*77
2017-11-16 17:21:46 1510870906.476873: $GPRMC,222145,A,3946.9570,N,08404.9831,W,0.0000,0.000,161117,,*34
2017-11-16 17:21:46 1510870906.477010: $GPGSA,A,3,1,10,22,12,14,18,24,11,25,31,32,138,1.6,0.8,1.3*38
2017-11-16 17:21:47 1510870907.420684: $GPZDA,222146.00,16,11,2017,00,00*64
2017-11-16 17:21:47 1510870907.420834: $GPGGA,222146,3946.9570,N,08404.9831,W,2,12,0.80,309.16,M,-33.324,M,,*74
2017-11-16 17:21:47 1510870907.420895: $GPRMC,222146,A,3946.9570,N,08404.9831,W,0.0000,0.000,161117,,*37
2017-11-16 17:21:47 1510870907.420951: $GPGSA,A,3,1,10,22,12,14,18,24,11,25,31,32,138,1.6,0.8,1.3*38
2017-11-16 17:21:48 1510870908.757722: $GPGSV,3,1,12,01,20,304,35,10,53,145,50,22,15,312,41,12,23,054,50*7F
2017-11-16 17:21:48 1510870908.757889: $GPGSV,3,2,12,14,64,318,47,18,22,142,39,24,01,048,14,11,09,286,41*7F
2017-11-16 17:21:48 1510870908.757950: $GPGSV,3,3,12,25,38,096,48,31,51,222,49,32,69,013,49,138,38,213,44*4C
2017-11-16 17:21:48 1510870908.871029: $GPZDA,222147.00,16,11,2017,00,00*65
2017-11-16 17:21:48 1510870908.871194: $GPGGA,222147,3946.9570,N,08404.9831,W,2,12,0.80,309.16,M,-33.324,M,,*75
2017-11-16 17:21:48 1510870908.871255: $GPRMC,222147,A,3946.9570,N,08404.9831,W,0.0000,0.000,161117,,*36
2017-11-16 17:21:48 1510870908.871310: $GPGSA,A,3,1,10,22,12,14,18,24,11,25,31,32,138,1.6,0.8,1.3*38
2017-11-16 17:21:49 1510870909.401906: $GPZDA,222148.00,16,11,2017,00,00*6A
2017-11-16 17:21:49 1510870909.402074: $GPGGA,222148,3946.9570,N,08404.9831,W,2,12,0.80,309.16,M,-33.324,M,,*7A
2017-11-16 17:21:49 1510870909.402135: $GPRMC,222148,A,3946.9570,N,08404.9831,W,0.0000,0.000,161117,,*39
2017-11-16 17:21:49 1510870909.402190: $GPGSA,A,3,1,10,22,12,14,18,24,11,25,31,32,138,1.6,0.8,1.3*38
2017-11-16 17:21:50 1510870910.395313: $GPZDA,222149.00,16,11,2017,00,00*6B
2017-11-16 17:21:50 1510870910.395504: $GPGGA,222149,3946.9570,N,08404.9831,W,2,12,0.80,309.16,M,-33.324,M,,*7B
2017-11-16 17:21:50 1510870910.395568: $GPRMC,222149,A,3946.9570,N,08404.9831,W,0.0000,0.000,161117,,*38
2017-11-16 17:21:50 1510870910.395642: $GPGSA,A,3,1,10,22,12,14,18,24,11,25,31,32,138,1.6,0.8,1.3*38
2017-11-16 17:21:51 1510870911.738091: $GPGSV,3,1,12,01,20,304,35,10,53,145,50,22,15,312,41,12,23,054,50*7F
2017-11-16 17:21:51 1510870911.738310: $GPGSV,3,2,12,14,64,318,47,18,22,142,39,24,01,048,14,11,09,286,40*7E
2017-11-16 17:21:51 1510870911.738373: $GPGSV,3,3,12,25,38,096,48,31,51,222,49,32,69,013,49,138,38,213,44*4C
2017-11-16 17:21:51 1510870911.851416: $GPZDA,222150.00,16,11,2017,00,00*63
2017-11-16 17:21:51 1510870911.851620: $GPGGA,222150,3946.9570,N,08404.9831,W,2,12,0.80,309.16,M,-33.324,M,,*73
2017-11-16 17:21:51 1510870911.851683: $GPRMC,222150,A,3946.9570,N,08404.9831,W,0.0000,0.000,161117,,*30
2017-11-16 17:21:51 1510870911.851739: $GPGSA,A,3,1,10,22,12,14,18,24,11,25,31,32,138,1.6,0.8,1.3*38
2017-11-16 17:21:52 1510870912.402277: $GPZDA,222151.00,16,11,2017,00,00*62
2017-11-16 17:21:52 1510870912.402442: $GPGGA,222151,3946.9570,N,08404.9831,W,2,12,0.80,309.16,M,-33.324,M,,*72
2017-11-16 17:21:52 1510870912.402523: $GPRMC,222151,A,3946.9570,N,08404.9831,W,0.0000,0.000,161117,,*31
2017-11-16 17:21:52 1510870912.402580: $GPGSA,A,3,1,10,22,12,14,18,24,11,25,31,32,138,1.6,0.8,1.3*38
2017-11-16 17:21:53 1510870913.421278: $GPZDA,222152.00,16,11,2017,00,00*61
2017-11-16 17:21:53 1510870913.421482: $GPGGA,222152,3946.9570,N,08404.9831,W,2,12,0.80,309.16,M,-33.324,M,,*71
2017-11-16 17:21:53 1510870913.421546: $GPRMC,222152,A,3946.9570,N,08404.9831,W,0.0000,0.000,161117,,*32
2017-11-16 17:21:53 1510870913.421632: $GPGSA,A,3,1,10,22,12,14,18,24,11,25,31,32,138,1.6,0.8,1.3*38
