2018-01-11 20:24:59 1515720299.177166: {"class":"VERSION","release":"3.16","rev":"3.16-4","proto_major":3,"proto_minor":11}
2018-01-11 20:24:59 1515720299.177511: {"class":"DEVICES","devices":[{"class":"DEVICE","path":"/dev/ttyUSB0","driver":"SiRF","subtype":"9\u0006GSD4e_4.1.2-P1_RPATCH.05-F-GPS-4R-1510281 11/03/2015 307","activated":"2018-01-12T01:24:59.161Z","flags":1,"native":1,"bps":4800,"parity":"N","stopbits":1,"cycle":1.00}]}
2018-01-11 20:24:59 1515720299.177627: {"class":"WATCH","enable":true,"json":false,"nmea":true,"raw":0,"scaled":false,"timing":false,"split24":false,"pps":false}
2018-01-11 20:24:59 1515720299.338188: $GPZDA,012500.00,12,01,2018,00,00*69
2018-01-11 20:24:59 1515720299.338362: $GPGGA,012500,3946.9587,N,08404.9823,W,2,11,0.80,297.55,M,-33.324,M,,*7A
2018-01-11 20:24:59 1515720299.338432: $GPRMC,012500,A,3946.9587,N,08404.9823,W,0.0000,0.000,120118,,*31
2018-01-11 20:24:59 1515720299.338498: $GPGSA,A,3,7,8,9,11,16,23,27,30,28,1,138,,4.0,0.8,3.5*0F
2018-01-11 20:25:00 1515720300.673638: $GPGSV,3,1,11,07,62,316,42,08,75,105,46,09,43,222,40,11,26,165,46*7A
2018-01-11 20:25:00 1515720300.673807: $GPGSV,3,2,11,16,18,064,37,23,22,187,47,27,42,049,50,30,35,307,38*7D
2018-01-11 20:25:00 1515720300.673876: $GPGSV,3,3,11,28,18,264,33,01,03,160,16,138,38,213,45*78
2018-01-11 20:25:00 1515720300.787251: $GPZDA,012501.00,12,01,2018,00,00*68
2018-01-11 20:25:00 1515720300.787367: $GPGGA,012501,3946.9587,N,08404.9823,W,2,11,0.80,297.55,M,-33.324,M,,*7B
2018-01-11 20:25:00 1515720300.787433: $GPRMC,012501,A,3946.9587,N,08404.9823,W,0.0000,0.000,120118,,*30
2018-01-11 20:25:00 1515720300.787499: $GPGSA,A,3,7,8,9,11,16,23,27,30,28,1,138,,4.0,0.8,3.5*0F
2018-01-11 20:25:01 1515720301.843283: $GPZDA,012502.00,12,01,2018,00,00*6B
2018-01-11 20:25:01 1515720301.843429: $GPGGA,012502,3946.9587,N,08404.9823,W,2,11,0.80,297.55,M,-33.324,M,,*78
2018-01-11 20:25:01 1515720301.843499: $GPRMC,012502,A,3946.9587,N,08404.9823,W,0.0000,0.000,120118,,*33
2018-01-11 20:25:01 1515720301.843560: $GPGSA,A,3,7,8,9,11,16,23,27,30,28,1,138,,4.0,0.8,3.5*0F
2018-01-11 20:25:02 1515720302.339187: $GPZDA,012503.00,12,01,2018,00,00*6A
2018-01-11 20:25:02 1515720302.339351: $GPGGA,012503,3946.9587,N,08404.9823,W,2,11,0.80,297.55,M,-33.324,M,,*79
2018-01-11 20:25:02 1515720302.339419: $GPRMC,012503,A,3946.9587,N,08404.9823,W,0.0000,0.000,120118,,*32
2018-01-11 20:25:02 1515720302.339484: $GPGSA,A,3,7,8,9,11,16,23,27,30,28,1,138,,4.0,0.8,3.5*0F
2018-01-11 20:25:03 1515720303.673394: $GPGSV,3,1,11,07,62,316,43,08,75,103,45,09,42,222,40,11,26,165,46*7F
2018-01-11 20:25:03 1515720303.673591: $GPGSV,3,2,11,16,18,064,37,23,22,187,47,27,42,049,50,30,35,307,38*7D
2018-01-11 20:25:03 1515720303.673659: $GPGSV,3,3,11,28,18,264,34,01,03,160,15,138,38,213,45*7C
2018-01-11 20:25:03 1515720303.786985: $GPZDA,012504.00,12,01,2018,00,00*6D
2018-01-11 20:25:03 1515720303.787099: $GPGGA,012504,3946.9587,N,08404.9823,W,2,11,0.80,297.55,M,-33.324,M,,*7E
2018-01-11 20:25:03 1515720303.787163: $GPRMC,012504,A,3946.9587,N,08404.9823,W,0.0000,0.000,120118,,*35
2018-01-11 20:25:03 1515720303.787224: $GPGSA,A,3,7,8,9,11,16,23,27,30,28,1,138,,4.0,0.8,3.5*0F
2018-01-11 20:25:04 1515720304.413651: $GPZDA,012505.00,12,01,2018,00,00*6C
2018-01-11 20:25:04 1515720304.413817: $GPGGA,012505,3946.9587,N,08404.9823,W,2,11,0.80,297.55,M,-33.324,M,,*7F
2018-01-11 20:25:04 1515720304.413884: $GPRMC,012505,A,3946.9587,N,08404.9823,W,0.0000,0.000,120118,,*34
2018-01-11 20:25:04 1515720304.413946: $GPGSA,A,3,7,8,9,11,16,23,27,30,28,1,138,,4.0,0.8,3.5*0F
2018-01-11 20:25:05 1515720305.339560: $GPZDA,012506.00,12,01,2018,00,00*6F
2018-01-11 20:25:05 1515720305.339722: $GPGGA,012506,3946.9587,N,08404.9823,W,2,11,0.80,297.55,M,-33.324,M,,*7C
2018-01-11 20:25:05 1515720305.339788: $GPRMC,012506,A,3946.9587,N,08404.9823,W,0.0000,0.000,120118,,*37
2018-01-11 20:25:05 1515720305.339851: $GPGSA,A,3,7,8,9,11,16,23,27,30,28,1,138,,4.0,0.8,3.5*0F
2018-01-11 20:25:06 1515720306.674976: $GPGSV,3,1,11,07,62,316,43,08,75,103,45,09,42,222,40,11,26,165,46*7F
2018-01-11 20:25:06 1515720306.675131: $GPGSV,3,2,11,16,18,064,37,23,22,187,47,27,42,049,50,30,35,307,38*7D
2018-01-11 20:25:06 1515720306.675251: $GPGSV,3,3,11,28,18,264,34,01,03,160,14,138,38,213,44*7C
2018-01-11 20:25:06 1515720306.788577: $GPZDA,012507.00,12,01,2018,00,00*6E
2018-01-11 20:25:06 1515720306.788688: $GPGGA,012507,3946.9587,N,08404.9823,W,2,11,0.80,297.55,M,-33.324,M,,*7D
2018-01-11 20:25:06 1515720306.788752: $GPRMC,012507,A,3946.9587,N,08404.9823,W,0.0000,0.000,120118,,*36
2018-01-11 20:25:06 1515720306.788813: $GPGSA,A,3,7,8,9,11,16,23,27,30,28,1,138,,4.0,0.8,3.5*0F
2018-01-11 20:25:07 1515720307.339538: $GPZDA,012508.00,12,01,2018,00,00*61
2018-01-11 20:25:07 1515720307.339700: $GPGGA,012508,3946.9587,N,08404.9823,W,2,11,0.80,297.55,M,-33.324,M,,*72
2018-01-11 20:25:07 1515720307.339765: $GPRMC,012508,A,3946.9587,N,08404.9823,W,0.0000,0.000,120118,,*39
2018-01-11 20:25:07 1515720307.339827: $GPGSA,A,3,7,8,9,11,16,23,27,30,28,1,138,,4.0,0.8,3.5*0F
2018-01-11 20:25:08 1515720308.336607: $GPZDA,012509.00,12,01,2018,00,00*60
2018-01-11 20:25:08 1515720308.336770: $GPGGA,012509,3946.9587,N,08404.9823,W,2,11,0.80,297.55,M,-33.324,M,,*73
2018-01-11 20:25:08 1515720308.336838: $GPRMC,012509,A,3946.9587,N,08404.9823,W,0.0000,0.000,120118,,*38
2018-01-11 20:25:08 1515720308.336900: $GPGSA,A,3,7,8,9,11,16,23,27,30,28,1,138,,4.0,0.8,3.5*0F
2018-01-11 20:25:09 1515720309.676576: $GPGSV,3,1,11,07,62,316,43,08,75,103,45,09,42,222,40,11,26,165,46*7F
2018-01-11 20:25:09 1515720309.676730: $GPGSV,3,2,11,16,18,064,37,23,22,187,47,27,42,049,50,30,35,307,38*7D
2018-01-11 20:25:09 1515720309.676797: $GPGSV,3,3,11,28,18,264,34,01,03,160,04,138,38,213,45*7C
2018-01-11 20:25:09 1515720309.790294: $GPZDA,012510.00,12,01,2018,00,00*68
2018-01-11 20:25:09 1515720309.790442: $GPGGA,012510,3946.9587,N,08404.9823,W,2,10,0.80,297.55,M,-33.324,M,,*7A
2018-01-11 20:25:09 1515720309.790508: $GPRMC,012510,A,3946.9587,N,08404.9823,W,0.0000,0.000,120118,,*30
2018-01-11 20:25:09 1515720309.790570: $GPGSA,A,3,7,8,9,11,16,23,27,30,28,138,,,4.0,0.8,3.5*3E
2018-01-11 20:25:10 1515720310.339896: $GPZDA,012511.00,12,01,2018,00,00*69
2018-01-11 20:25:10 1515720310.340058: $GPGGA,012511,3946.9587,N,08404.9823,W,2,10,0.80,297.55,M,-33.324,M,,*7B
2018-01-11 20:25:10 1515720310.340124: $GPRMC,012511,A,3946.9587,N,08404.9823,W,0.0000,0.000,120118,,*31
2018-01-11 20:25:10 1515720310.340186: $GPGSA,A,3,7,8,9,11,16,23,27,30,28,138,,,4.0,0.8,3.5*3E
2018-01-11 20:25:11 1515720311.354629: $GPZDA,012512.00,12,01,2018,00,00*6A
2018-01-11 20:25:11 1515720311.354793: $GPGGA,012512,3946.9583,N,08404.9823,W,2,10,0.80,296.91,M,-33.324,M,,*75
2018-01-11 20:25:11 1515720311.354858: $GPRMC,012512,A,3946.9583,N,08404.9823,W,0.0000,0.000,120118,,*36
2018-01-11 20:25:11 1515720311.354919: $GPGSA,A,3,7,8,9,11,16,23,27,30,28,138,,,4.0,0.8,3.5*3E
