2017-12-31 16:43:46 1514756626.607550: {"class":"VERSION","release":"3.16","rev":"3.16-4","proto_major":3,"proto_minor":11}
2017-12-31 16:43:46 1514756626.607894: {"class":"DEVICES","devices":[{"class":"DEVICE","path":"/dev/ttyUSB0","driver":"SiRF","activated":"2017-12-31T21:43:46.487Z","flags":1,"native":1,"bps":4800,"parity":"N","stopbits":1,"cycle":1.00}]}
2017-12-31 16:43:46 1514756626.607994: {"class":"WATCH","enable":true,"json":false,"nmea":true,"raw":0,"scaled":false,"timing":false,"split24":false,"pps":false}
2017-12-31 16:43:47 1514756627.362909: $GPZDA,214348.00,31,12,2017,00,00*6B
2017-12-31 16:43:47 1514756627.363068: $GPGGA,214348,3946.9576,N,08404.9841,W,2,11,0.80,303.26,M,-33.324,M,,*76
2017-12-31 16:43:47 1514756627.363156: $GPRMC,214348,A,3946.9576,N,08404.9841,W,0.0000,0.000,311217,,*39
2017-12-31 16:43:47 1514756627.363219: $GPGSA,A,3,22,23,25,3,16,29,31,14,32,26,135,,1.7,0.8,1.3*32
2017-12-31 16:43:48 1514756628.674526: $GPGSV,3,1,11,22,49,253,42,23,20,304,38,25,09,039,38,03,45,285,34*7E
2017-12-31 16:43:48 1514756628.674702: $GPGSV,3,2,11,16,35,189,48,29,13,064,30,31,57,042,51,14,48,105,47*71
2017-12-31 16:43:48 1514756628.674768: $GPGSV,3,3,11,32,26,115,42,26,66,162,42,135,22,240,43*7E
2017-12-31 16:43:48 1514756628.787952: $GPZDA,214349.00,31,12,2017,00,00*6A
2017-12-31 16:43:48 1514756628.788078: $GPGGA,214349,3946.9576,N,08404.9841,W,2,11,0.80,303.26,M,-33.324,M,,*77
2017-12-31 16:43:48 1514756628.788166: $GPRMC,214349,A,3946.9576,N,08404.9841,W,0.0000,0.000,311217,,*38
2017-12-31 16:43:48 1514756628.788245: $GPGSA,A,3,22,23,25,3,16,29,31,14,32,26,135,,1.7,0.8,1.3*32
2017-12-31 16:43:49 1514756629.347625: $GPZDA,214350.00,31,12,2017,00,00*62
2017-12-31 16:43:49 1514756629.347782: $GPGGA,214350,3946.9576,N,08404.9841,W,2,11,0.80,303.26,M,-33.324,M,,*7F
2017-12-31 16:43:49 1514756629.347849: $GPRMC,214350,A,3946.9576,N,08404.9841,W,0.0000,0.000,311217,,*30
2017-12-31 16:43:49 1514756629.347910: $GPGSA,A,3,22,23,25,3,16,29,31,14,32,26,135,,1.7,0.8,1.3*32
2017-12-31 16:43:50 1514756630.363124: $GPZDA,214351.00,31,12,2017,00,00*63
2017-12-31 16:43:50 1514756630.363294: $GPGGA,214351,3946.9576,N,08404.9841,W,2,11,0.80,303.26,M,-33.324,M,,*7E
2017-12-31 16:43:50 1514756630.363362: $GPRMC,214351,A,3946.9576,N,08404.9841,W,0.0000,0.000,311217,,*31
2017-12-31 16:43:50 1514756630.363422: $GPGSA,A,3,22,23,25,3,16,29,31,14,32,26,135,,1.7,0.8,1.3*32
2017-12-31 16:43:51 1514756631.698642: $GPGSV,3,1,11,22,49,253,42,23,20,304,38,25,09,039,38,03,45,285,33*79
2017-12-31 16:43:51 1514756631.698827: $GPGSV,3,2,11,16,35,189,48,29,13,064,24,31,57,042,51,14,48,105,47*74
2017-12-31 16:43:51 1514756631.698895: $GPGSV,3,3,11,32,26,115,42,26,66,162,42,135,22,240,43*7E
2017-12-31 16:43:51 1514756631.811986: $GPZDA,214352.00,31,12,2017,00,00*60
2017-12-31 16:43:51 1514756631.812128: $GPGGA,214352,3946.9576,N,08404.9841,W,2,11,0.80,303.26,M,-33.324,M,,*7D
2017-12-31 16:43:51 1514756631.812213: $GPRMC,214352,A,3946.9576,N,08404.9841,W,0.0000,0.000,311217,,*32
2017-12-31 16:43:51 1514756631.812275: $GPGSA,A,3,22,23,25,3,16,29,31,14,32,26,135,,1.7,0.8,1.3*32
2017-12-31 16:43:52 1514756632.345673: $GPZDA,214353.00,31,12,2017,00,00*61
2017-12-31 16:43:52 1514756632.345831: $GPGGA,214353,3946.9576,N,08404.9841,W,2,11,0.80,303.26,M,-33.324,M,,*7C
2017-12-31 16:43:52 1514756632.345898: $GPRMC,214353,A,3946.9576,N,08404.9841,W,0.0000,0.000,311217,,*33
2017-12-31 16:43:52 1514756632.345959: $GPGSA,A,3,22,23,25,3,16,29,31,14,32,26,135,,1.7,0.8,1.3*32
2017-12-31 16:43:53 1514756633.362785: $GPZDA,214354.00,31,12,2017,00,00*66
2017-12-31 16:43:53 1514756633.362954: $GPGGA,214354,3946.9576,N,08404.9841,W,2,11,0.80,303.26,M,-33.324,M,,*7B
2017-12-31 16:43:53 1514756633.363020: $GPRMC,214354,A,3946.9576,N,08404.9841,W,0.0000,0.000,311217,,*34
2017-12-31 16:43:53 1514756633.363103: $GPGSA,A,3,22,23,25,3,16,29,31,14,32,26,135,,1.7,0.8,1.3*32
2017-12-31 16:43:54 1514756634.681943: $GPGSV,3,1,11,22,49,253,43,23,20,304,39,25,09,039,38,03,45,285,28*73
2017-12-31 16:43:54 1514756634.682166: $GPGSV,3,2,11,16,35,189,48,29,13,064,04,31,57,042,51,14,48,105,47*76
2017-12-31 16:43:54 1514756634.682291: $GPGSV,3,3,11,32,26,115,42,26,66,162,42,135,22,240,43*7E
2017-12-31 16:43:54 1514756634.795611: $GPZDA,214355.00,31,12,2017,00,00*67
2017-12-31 16:43:54 1514756634.795746: $GPGGA,214355,3946.9576,N,08404.9841,W,2,10,0.80,303.26,M,-33.324,M,,*7B
2017-12-31 16:43:54 1514756634.795812: $GPRMC,214355,A,3946.9576,N,08404.9841,W,0.0000,0.000,311217,,*35
2017-12-31 16:43:54 1514756634.795873: $GPGSA,A,3,22,23,25,3,16,31,14,32,26,135,,,1.7,0.8,1.3*39
2017-12-31 16:43:55 1514756635.421033: $GPZDA,214356.00,31,12,2017,00,00*64
2017-12-31 16:43:55 1514756635.421215: $GPGGA,214356,3946.9576,N,08404.9841,W,2,10,0.80,303.26,M,-33.324,M,,*78
2017-12-31 16:43:55 1514756635.421283: $GPRMC,214356,A,3946.9576,N,08404.9841,W,0.0000,0.000,311217,,*36
2017-12-31 16:43:55 1514756635.421344: $GPGSA,A,3,22,23,25,3,16,31,14,32,26,135,,,1.7,0.8,1.3*39
2017-12-31 16:43:56 1514756636.339401: $GPZDA,214357.00,31,12,2017,00,00*65
2017-12-31 16:43:56 1514756636.339564: $GPGGA,214357,3946.9576,N,08404.9841,W,2,10,0.80,303.26,M,-33.324,M,,*79
2017-12-31 16:43:56 1514756636.339631: $GPRMC,214357,A,3946.9576,N,08404.9841,W,0.0000,0.000,311217,,*37
2017-12-31 16:43:56 1514756636.339692: $GPGSA,A,3,22,23,25,3,16,31,14,32,26,135,,,1.7,0.8,1.3*39
