2017-12-31 17:50:24 1514760624.597420: {"class":"VERSION","release":"3.16","rev":"3.16-4","proto_major":3,"proto_minor":11}
2017-12-31 17:50:24 1514760624.597809: {"class":"DEVICES","devices":[{"class":"DEVICE","path":"/dev/ttyUSB0","driver":"SiRF","activated":"2017-12-31T22:50:24.256Z","flags":1,"native":1,"bps":4800,"parity":"N","stopbits":1,"cycle":1.00}]}
2017-12-31 17:50:24 1514760624.597911: {"class":"WATCH","enable":true,"json":false,"nmea":true,"raw":0,"scaled":false,"timing":false,"split24":false,"pps":false}
2017-12-31 17:50:24 1514760624.706287: $GPGSV,3,1,12,22,29,220,45,23,46,309,46,09,13,312,39,03,38,243,44*75
2017-12-31 17:50:24 1514760624.706438: $GPGSV,3,2,12,16,71,192,43,29,09,036,35,14,22,129,34,31,34,069,41*71
2017-12-31 17:50:24 1514760624.706503: $GPGSV,3,3,12,27,15,157,26,32,02,133,00,26,70,060,47,135,22,240,43*4E
2017-12-31 17:50:24 1514760624.819650: $GPZDA,225025.00,31,12,2017,00,00*61
2017-12-31 17:50:24 1514760624.819767: $GPGGA,225025,3946.9567,N,08404.9864,W,2,11,0.60,305.31,M,-33.324,M,,*75
2017-12-31 17:50:24 1514760624.819832: $GPRMC,225025,A,3946.9567,N,08404.9864,W,0.0000,0.000,311217,,*34
2017-12-31 17:50:24 1514760624.819893: $GPGSA,A,3,22,23,9,3,16,29,14,31,27,26,135,,1.7,0.6,1.3*06
2017-12-31 17:50:25 1514760625.445098: $GPZDA,225026.00,31,12,2017,00,00*62
2017-12-31 17:50:25 1514760625.445273: $GPGGA,225026,3946.9567,N,08404.9864,W,2,11,0.60,305.31,M,-33.324,M,,*76
2017-12-31 17:50:25 1514760625.445341: $GPRMC,225026,A,3946.9567,N,08404.9864,W,0.0000,0.000,311217,,*37
2017-12-31 17:50:25 1514760625.445403: $GPGSA,A,3,22,23,9,3,16,29,14,31,27,26,135,,1.7,0.6,1.3*06
2017-12-31 17:50:26 1514760626.344963: $GPZDA,225027.00,31,12,2017,00,00*63
2017-12-31 17:50:26 1514760626.345131: $GPGGA,225027,3946.9567,N,08404.9864,W,2,11,0.60,305.31,M,-33.324,M,,*77
2017-12-31 17:50:26 1514760626.345198: $GPRMC,225027,A,3946.9567,N,08404.9864,W,0.0000,0.000,311217,,*36
2017-12-31 17:50:26 1514760626.345259: $GPGSA,A,3,22,23,9,3,16,29,14,31,27,26,135,,1.7,0.6,1.3*06
2017-12-31 17:50:27 1514760627.680416: $GPGSV,3,1,12,22,29,220,45,23,46,309,45,09,13,312,38,03,38,243,44*77
2017-12-31 17:50:27 1514760627.680601: $GPGSV,3,2,12,16,71,192,43,29,09,036,34,14,22,129,33,31,34,069,41*77
2017-12-31 17:50:27 1514760627.680669: $GPGSV,3,3,12,27,15,157,28,32,02,133,00,26,70,060,47,135,22,240,44*47
2017-12-31 17:50:27 1514760627.794040: $GPZDA,225028.00,31,12,2017,00,00*6C
2017-12-31 17:50:27 1514760627.794174: $GPGGA,225028,3946.9567,N,08404.9864,W,2,11,0.60,305.31,M,-33.324,M,,*78
2017-12-31 17:50:27 1514760627.794240: $GPRMC,225028,A,3946.9567,N,08404.9864,W,0.0000,0.000,311217,,*39
2017-12-31 17:50:27 1514760627.794301: $GPGSA,A,3,22,23,9,3,16,29,14,31,27,26,135,,1.7,0.6,1.3*06
2017-12-31 17:50:28 1514760628.346152: $GPZDA,225029.00,31,12,2017,00,00*6D
2017-12-31 17:50:28 1514760628.346306: $GPGGA,225029,3946.9567,N,08404.9864,W,2,11,0.60,305.31,M,-33.324,M,,*79
2017-12-31 17:50:28 1514760628.346374: $GPRMC,225029,A,3946.9567,N,08404.9864,W,0.0000,0.000,311217,,*38
2017-12-31 17:50:28 1514760628.346434: $GPGSA,A,3,22,23,9,3,16,29,14,31,27,26,135,,1.7,0.6,1.3*06
2017-12-31 17:50:29 1514760629.345808: $GPZDA,225030.00,31,12,2017,00,00*65
2017-12-31 17:50:29 1514760629.345965: $GPGGA,225030,3946.9567,N,08404.9864,W,2,11,0.60,305.31,M,-33.324,M,,*71
2017-12-31 17:50:29 1514760629.346045: $GPRMC,225030,A,3946.9567,N,08404.9864,W,0.0000,0.000,311217,,*30
2017-12-31 17:50:29 1514760629.346109: $GPGSA,A,3,22,23,9,3,16,29,14,31,27,26,135,,1.7,0.6,1.3*06
2017-12-31 17:50:30 1514760630.680760: $GPGSV,3,1,12,22,29,220,45,23,46,309,45,09,13,312,39,03,38,243,44*76
2017-12-31 17:50:30 1514760630.680941: $GPGSV,3,2,12,16,71,192,43,29,09,036,34,14,22,129,33,31,34,069,41*77
2017-12-31 17:50:30 1514760630.681008: $GPGSV,3,3,12,27,15,157,27,32,02,133,00,26,70,060,47,135,22,240,44*48
2017-12-31 17:50:30 1514760630.794412: $GPZDA,225031.00,31,12,2017,00,00*64
2017-12-31 17:50:30 1514760630.794596: $GPGGA,225031,3946.9567,N,08404.9864,W,2,11,0.60,305.31,M,-33.324,M,,*70
2017-12-31 17:50:30 1514760630.794663: $GPRMC,225031,A,3946.9567,N,08404.9864,W,0.0000,0.000,311217,,*31
2017-12-31 17:50:30 1514760630.794779: $GPGSA,A,3,22,23,9,3,16,29,14,31,27,26,135,,1.7,0.6,1.3*06
2017-12-31 17:50:31 1514760631.545044: $GPZDA,225032.00,31,12,2017,00,00*67
2017-12-31 17:50:31 1514760631.545250: $GPGGA,225032,3946.9567,N,08404.9864,W,2,11,0.60,305.31,M,-33.324,M,,*73
2017-12-31 17:50:31 1514760631.545321: $GPRMC,225032,A,3946.9567,N,08404.9864,W,0.0000,0.000,311217,,*32
2017-12-31 17:50:31 1514760631.545382: $GPGSA,A,3,22,23,9,3,16,29,14,31,27,26,135,,1.7,0.6,1.3*06
2017-12-31 17:50:31 1514760631.545440: $GPGBS,225032,2.22,M,3.43,M,7.66,M*3B
2017-12-31 17:50:32 1514760632.338735: $GPZDA,225033.00,31,12,2017,00,00*66
2017-12-31 17:50:32 1514760632.338906: $GPGGA,225033,3946.9567,N,08404.9864,W,2,11,0.60,305.31,M,-33.324,M,,*72
2017-12-31 17:50:32 1514760632.338974: $GPRMC,225033,A,3946.9567,N,08404.9864,W,0.0000,0.000,311217,,*33
2017-12-31 17:50:32 1514760632.339035: $GPGSA,A,3,22,23,9,3,16,29,14,31,27,26,135,,1.7,0.6,1.3*06
2017-12-31 17:50:32 1514760632.339094: $GPGBS,225033,2.22,M,3.43,M,7.66,M*3A
2017-12-31 17:50:33 1514760633.706686: $GPGSV,3,1,12,22,29,220,45,23,46,309,45,09,13,312,40,03,38,243,45*79
2017-12-31 17:50:33 1514760633.706865: $GPGSV,3,2,12,16,71,192,43,29,09,036,33,14,22,129,33,31,34,069,41*70
2017-12-31 17:50:33 1514760633.706933: $GPGSV,3,3,12,27,15,157,27,32,01,133,00,26,70,060,47,135,22,240,43*4C
2017-12-31 17:50:33 1514760633.820187: $GPZDA,225034.00,31,12,2017,00,00*61
2017-12-31 17:50:33 1514760633.820346: $GPGGA,225034,3946.9567,N,08404.9864,W,2,11,0.60,305.31,M,-33.324,M,,*75
2017-12-31 17:50:33 1514760633.820410: $GPRMC,225034,A,3946.9567,N,08404.9864,W,0.0000,0.000,311217,,*34
2017-12-31 17:50:33 1514760633.820470: $GPGSA,A,3,22,23,9,3,16,29,14,31,27,26,135,,1.7,0.6,1.3*06
2017-12-31 17:50:34 1514760634.370874: $GPZDA,225035.00,31,12,2017,00,00*60
2017-12-31 17:50:34 1514760634.371029: $GPGGA,225035,3946.9567,N,08404.9864,W,2,11,0.60,305.31,M,-33.324,M,,*74
2017-12-31 17:50:34 1514760634.371094: $GPRMC,225035,A,3946.9567,N,08404.9864,W,0.0000,0.000,311217,,*35
2017-12-31 17:50:34 1514760634.371154: $GPGSA,A,3,22,23,9,3,16,29,14,31,27,26,135,,1.7,0.6,1.3*06
