2017-12-01 12:03:29 1512147809.536900: {"class":"VERSION","release":"3.16","rev":"3.16-4","proto_major":3,"proto_minor":11}
2017-12-01 12:03:29 1512147809.537341: {"class":"DEVICES","devices":[{"class":"DEVICE","path":"/dev/ttyUSB0","driver":"SiRF","subtype":"9\u0006GSD4e_4.1.2-P1_RPATCH.05-F-GPS-4R-1510281 11/03/2015 307","activated":"2017-12-01T17:03:29.278Z","flags":1,"native":1,"bps":4800,"parity":"N","stopbits":1,"cycle":1.00}]}
2017-12-01 12:03:29 1512147809.537459: {"class":"WATCH","enable":true,"json":false,"nmea":true,"raw":0,"scaled":false,"timing":false,"split24":false,"pps":false}
2017-12-01 12:03:29 1512147809.728130: $GPGSV,3,1,12,10,19,277,37,13,35,046,45,15,68,055,44,18,50,294,46*7B
2017-12-01 12:03:29 1512147809.728313: $GPGSV,3,2,12,20,56,063,45,21,74,292,45,24,28,144,45,27,13,318,41*72
2017-12-01 12:03:29 1512147809.728397: $GPGSV,3,3,12,29,16,192,35,05,08,082,14,04,05,133,00,138,38,213,46*4B
2017-12-01 12:03:29 1512147809.841599: $GPZDA,170330.00,01,12,2017,00,00*66
2017-12-01 12:03:29 1512147809.841782: $GPGGA,170330,3946.9587,N,08404.9849,W,2,11,0.80,293.02,M,-33.324,M,,*70
2017-12-01 12:03:29 1512147809.841850: $GPRMC,170330,A,3946.9587,N,08404.9849,W,0.0000,0.000,011217,,*32
2017-12-01 12:03:29 1512147809.841911: $GPGSA,A,3,10,13,15,18,20,21,24,27,29,5,138,,2.0,0.8,1.5*34
2017-12-01 12:03:30 1512147810.388628: $GPZDA,170331.00,01,12,2017,00,00*67
2017-12-01 12:03:30 1512147810.388805: $GPGGA,170331,3946.9587,N,08404.9849,W,2,11,0.80,293.02,M,-33.324,M,,*71
2017-12-01 12:03:30 1512147810.388873: $GPRMC,170331,A,3946.9587,N,08404.9849,W,0.0000,0.000,011217,,*33
2017-12-01 12:03:30 1512147810.388952: $GPGSA,A,3,10,13,15,18,20,21,24,27,29,5,138,,2.0,0.8,1.5*34
2017-12-01 12:03:31 1512147811.386994: $GPZDA,170332.00,01,12,2017,00,00*64
2017-12-01 12:03:31 1512147811.387165: $GPGGA,170332,3946.9587,N,08404.9849,W,2,11,0.80,293.02,M,-33.324,M,,*72
2017-12-01 12:03:31 1512147811.387231: $GPRMC,170332,A,3946.9587,N,08404.9849,W,0.0000,0.000,011217,,*30
2017-12-01 12:03:31 1512147811.387292: $GPGSA,A,3,10,13,15,18,20,21,24,27,29,5,138,,2.0,0.8,1.5*34
2017-12-01 12:03:32 1512147812.722719: $GPGSV,3,1,12,10,19,277,37,13,35,046,45,15,68,055,44,18,50,294,46*7B
2017-12-01 12:03:32 1512147812.722899: $GPGSV,3,2,12,20,56,063,45,21,74,292,45,24,28,144,46,27,13,318,40*70
2017-12-01 12:03:32 1512147812.722983: $GPGSV,3,3,12,29,16,192,35,05,08,082,16,04,05,133,00,138,38,213,46*49
2017-12-01 12:03:32 1512147812.837132: $GPZDA,170333.00,01,12,2017,00,00*65
2017-12-01 12:03:32 1512147812.837334: $GPGGA,170333,3946.9587,N,08404.9849,W,2,11,0.80,293.02,M,-33.324,M,,*73
2017-12-01 12:03:32 1512147812.837401: $GPRMC,170333,A,3946.9587,N,08404.9849,W,0.0000,0.000,011217,,*31
2017-12-01 12:03:32 1512147812.837462: $GPGSA,A,3,10,13,15,18,20,21,24,27,29,5,138,,2.0,0.8,1.5*34
2017-12-01 12:03:33 1512147813.461587: $GPZDA,170334.00,01,12,2017,00,00*62
2017-12-01 12:03:33 1512147813.461816: $GPGGA,170334,3946.9587,N,08404.9849,W,2,11,0.80,293.02,M,-33.324,M,,*74
2017-12-01 12:03:33 1512147813.461903: $GPRMC,170334,A,3946.9587,N,08404.9849,W,0.0000,0.000,011217,,*36
2017-12-01 12:03:33 1512147813.461966: $GPGSA,A,3,10,13,15,18,20,21,24,27,29,5,138,,2.0,0.8,1.5*34
2017-12-01 12:03:34 1512147814.393614: $GPZDA,170335.00,01,12,2017,00,00*63
2017-12-01 12:03:34 1512147814.393792: $GPGGA,170335,3946.9587,N,08404.9849,W,2,11,0.80,293.02,M,-33.324,M,,*75
2017-12-01 12:03:34 1512147814.393859: $GPRMC,170335,A,3946.9587,N,08404.9849,W,0.0000,0.000,011217,,*37
2017-12-01 12:03:34 1512147814.393920: $GPGSA,A,3,10,13,15,18,20,21,24,27,29,5,138,,2.0,0.8,1.5*34
2017-12-01 12:03:35 1512147815.733128: $GPGSV,3,1,12,10,19,277,38,13,35,046,44,15,68,055,44,18,50,294,46*75
2017-12-01 12:03:35 1512147815.733305: $GPGSV,3,2,12,20,56,063,45,21,74,292,45,24,28,144,46,27,13,318,40*70
2017-12-01 12:03:35 1512147815.733372: $GPGSV,3,3,12,29,16,192,34,05,08,082,18,04,05,133,00,138,38,213,46*46
2017-12-01 12:03:35 1512147815.847248: $GPZDA,170336.00,01,12,2017,00,00*60
2017-12-01 12:03:35 1512147815.847448: $GPGGA,170336,3946.9587,N,08404.9849,W,2,11,0.80,293.02,M,-33.324,M,,*76
2017-12-01 12:03:35 1512147815.847793: $GPRMC,170336,A,3946.9587,N,08404.9849,W,0.0000,0.000,011217,,*34
2017-12-01 12:03:35 1512147815.847866: $GPGSA,A,3,10,13,15,18,20,21,24,27,29,5,138,,2.0,0.8,1.5*34
2017-12-01 12:03:36 1512147816.408798: $GPZDA,170337.00,01,12,2017,00,00*61
2017-12-01 12:03:36 1512147816.408984: $GPGGA,170337,3946.9587,N,08404.9849,W,2,11,0.80,293.02,M,-33.324,M,,*77
2017-12-01 12:03:36 1512147816.409052: $GPRMC,170337,A,3946.9587,N,08404.9849,W,0.0000,0.000,011217,,*35
2017-12-01 12:03:36 1512147816.409113: $GPGSA,A,3,10,13,15,18,20,21,24,27,29,5,138,,2.0,0.8,1.5*34
2017-12-01 12:03:37 1512147817.410674: $GPZDA,170338.00,01,12,2017,00,00*6E
2017-12-01 12:03:37 1512147817.410882: $GPGGA,170338,3946.9587,N,08404.9849,W,2,11,0.80,293.02,M,-33.324,M,,*78
2017-12-01 12:03:37 1512147817.410950: $GPRMC,170338,A,3946.9587,N,08404.9849,W,0.0000,0.000,011217,,*3A
2017-12-01 12:03:37 1512147817.411012: $GPGSA,A,3,10,13,15,18,20,21,24,27,29,5,138,,2.0,0.8,1.5*34
2017-12-01 12:03:38 1512147818.728401: $GPGSV,3,1,12,10,19,277,38,13,35,046,44,15,68,055,44,18,50,294,46*75
2017-12-01 12:03:38 1512147818.735003: $GPGSV,3,2,12,20,56,063,44,21,74,292,45,24,28,144,46,27,13,318,40*71
2017-12-01 12:03:38 1512147818.735292: $GPGSV,3,3,12,29,16,192,34,05,08,082,18,04,05,133,00,138,38,213,46*46
2017-12-01 12:03:38 1512147818.841828: $GPZDA,170339.00,01,12,2017,00,00*6F
2017-12-01 12:03:38 1512147818.841999: $GPGGA,170339,3946.9587,N,08404.9849,W,2,11,0.80,293.02,M,-33.324,M,,*79
2017-12-01 12:03:38 1512147818.842065: $GPRMC,170339,A,3946.9587,N,08404.9849,W,0.0000,0.000,011217,,*3B
2017-12-01 12:03:38 1512147818.842126: $GPGSA,A,3,10,13,15,18,20,21,24,27,29,5,138,,2.0,0.8,1.5*34
2017-12-01 12:03:39 1512147819.391396: $GPZDA,170340.00,01,12,2017,00,00*61
2017-12-01 12:03:39 1512147819.391619: $GPGGA,170340,3946.9587,N,08404.9849,W,2,11,0.80,293.02,M,-33.324,M,,*77
2017-12-01 12:03:39 1512147819.391706: $GPRMC,170340,A,3946.9587,N,08404.9849,W,0.0000,0.000,011217,,*35
2017-12-01 12:03:39 1512147819.391769: $GPGSA,A,3,10,13,15,18,20,21,24,27,29,5,138,,2.0,0.8,1.5*34
