2017-11-16 14:50:05 1510861805.556816: {"class":"VERSION","release":"3.17","rev":"3.17","proto_major":3,"proto_minor":12}
2017-11-16 14:50:05 1510861805.557423: {"class":"DEVICES","devices":[{"class":"DEVICE","path":"/dev/ttyUSB0","driver":"SiRF","subtype":"9\u0006GSD4e_4.1.2-P1_RPATCH.05-F-GPS-4R-1510281 11/03/2015 307","activated":"2017-11-16T19:50:05.527Z","flags":1,"native":1,"bps":4800,"parity":"N","stopbits":1,"cycle":1.00}]}
2017-11-16 14:50:05 1510861805.557546: {"class":"WATCH","enable":true,"json":false,"nmea":true,"raw":0,"scaled":false,"timing":false,"split24":false,"pps":false}
2017-11-16 14:50:06 1510861806.820893: $GPGSV,3,1,11,08,08,307,35,10,55,313,50,15,24,058,50,18,77,033,45*7E
2017-11-16 14:50:06 1510861806.821055: $GPGSV,3,2,11,21,46,183,47,20,21,108,42,24,53,081,49,27,14,273,42*7A
2017-11-16 14:50:06 1510861806.821116: $GPGSV,3,3,11,32,33,250,45,14,17,241,43,138,38,213,44*7C
2017-11-16 14:50:06 1510861806.934291: $GPZDA,195005.00,16,11,2017,00,00*6D
2017-11-16 14:50:06 1510861806.934450: $GPGGA,195005,3946.9572,N,08404.9841,W,2,11,0.80,302.62,M,-33.324,M,,*73
2017-11-16 14:50:06 1510861806.934511: $GPRMC,195005,A,3946.9572,N,08404.9841,W,0.0000,0.000,161117,,*3B
2017-11-16 14:50:06 1510861806.934568: $GPGSA,A,3,8,10,15,18,21,20,24,27,32,14,138,,1.6,0.8,1.3*37
2017-11-16 14:50:07 1510861807.490184: $GPZDA,195006.00,16,11,2017,00,00*6E
2017-11-16 14:50:07 1510861807.490431: $GPGGA,195006,3946.9572,N,08404.9841,W,2,11,0.80,302.62,M,-33.324,M,,*70
2017-11-16 14:50:07 1510861807.490498: $GPRMC,195006,A,3946.9572,N,08404.9841,W,0.0000,0.000,161117,,*38
2017-11-16 14:50:07 1510861807.490555: $GPGSA,A,3,8,10,15,18,21,20,24,27,32,14,138,,1.6,0.8,1.3*37
2017-11-16 14:50:08 1510861808.489745: $GPZDA,195007.00,16,11,2017,00,00*6F
2017-11-16 14:50:08 1510861808.489906: $GPGGA,195007,3946.9572,N,08404.9841,W,2,11,0.80,302.62,M,-33.324,M,,*71
2017-11-16 14:50:08 1510861808.489967: $GPRMC,195007,A,3946.9572,N,08404.9841,W,0.0000,0.000,161117,,*39
2017-11-16 14:50:08 1510861808.490024: $GPGSA,A,3,8,10,15,18,21,20,24,27,32,14,138,,1.6,0.8,1.3*37
2017-11-16 14:50:09 1510861809.863734: $GPGSV,3,1,11,08,08,307,28,10,55,313,50,15,24,058,51,18,77,033,45*73
2017-11-16 14:50:10 1510861810.742548: $GPGSV,3,2,11,21,46,183,47,20,21,108,42,24,53,081,49,27,14,273,42*7A
2017-11-16 14:50:10 1510861810.742696: $GPGSV,3,3,11,32,33,250,46,14,17,241,43,138,38,213,43*78
2017-11-16 14:50:10 1510861810.742816: $GPZDA,195008.00,16,11,2017,00,00*60
2017-11-16 14:50:10 1510861810.742871: $GPGGA,195008,3946.9572,N,08404.9841,W,2,11,0.80,302.62,M,-33.324,M,,*7E
2017-11-16 14:50:10 1510861810.742927: $GPRMC,195008,A,3946.9572,N,08404.9841,W,0.0000,0.000,161117,,*36
2017-11-16 14:50:10 1510861810.742982: $GPGSA,A,3,8,10,15,18,21,20,24,27,32,14,138,,1.6,0.8,1.3*37
2017-11-16 14:50:10 1510861810.743035: $GPZDA,195009.00,16,11,2017,00,00*61
2017-11-16 14:50:10 1510861810.743083: $GPGGA,195009,3946.9572,N,08404.9841,W,2,11,0.80,302.62,M,-33.324,M,,*7F
2017-11-16 14:50:10 1510861810.743139: $GPRMC,195009,A,3946.9572,N,08404.9841,W,0.0000,0.000,161117,,*37
2017-11-16 14:50:10 1510861810.743192: $GPGSA,A,3,8,10,15,18,21,20,24,27,32,14,138,,1.6,0.8,1.3*37
2017-11-16 14:50:11 1510861811.490011: $GPZDA,195010.00,16,11,2017,00,00*69
2017-11-16 14:50:11 1510861811.490173: $GPGGA,195010,3946.9572,N,08404.9841,W,2,11,0.80,302.62,M,-33.324,M,,*77
2017-11-16 14:50:11 1510861811.490234: $GPRMC,195010,A,3946.9572,N,08404.9841,W,0.0000,0.000,161117,,*3F
2017-11-16 14:50:11 1510861811.490372: $GPGSA,A,3,8,10,15,18,21,20,24,27,32,14,138,,1.6,0.8,1.3*37
2017-11-16 14:50:12 1510861812.858403: $GPGSV,3,1,11,08,08,307,29,10,55,313,50,15,24,058,50,18,77,033,45*73
2017-11-16 14:50:12 1510861812.858568: $GPGSV,3,2,11,21,46,183,47,20,21,108,42,24,53,081,48,27,14,273,42*7B
2017-11-16 14:50:12 1510861812.858628: $GPGSV,3,3,11,32,33,250,46,14,17,241,43,138,38,213,44*7F
2017-11-16 14:50:12 1510861812.971994: $GPZDA,195011.00,16,11,2017,00,00*68
2017-11-16 14:50:12 1510861812.972153: $GPGGA,195011,3946.9572,N,08404.9841,W,2,11,0.80,302.62,M,-33.324,M,,*76
2017-11-16 14:50:12 1510861812.972265: $GPRMC,195011,A,3946.9572,N,08404.9841,W,0.0000,0.000,161117,,*3E
2017-11-16 14:50:12 1510861812.972323: $GPGSA,A,3,8,10,15,18,21,20,24,27,32,14,138,,1.6,0.8,1.3*37
2017-11-16 14:50:13 1510861813.527830: $GPZDA,195012.00,16,11,2017,00,00*6B
2017-11-16 14:50:13 1510861813.527992: $GPGGA,195012,3946.9572,N,08404.9841,W,2,11,0.80,302.62,M,-33.324,M,,*75
2017-11-16 14:50:13 1510861813.528053: $GPRMC,195012,A,3946.9572,N,08404.9841,W,0.0000,0.000,161117,,*3D
2017-11-16 14:50:13 1510861813.528109: $GPGSA,A,3,8,10,15,18,21,20,24,27,32,14,138,,1.6,0.8,1.3*37
2017-11-16 14:50:14 1510861814.490738: $GPZDA,195013.00,16,11,2017,00,00*6A
2017-11-16 14:50:14 1510861814.490903: $GPGGA,195013,3946.9572,N,08404.9841,W,2,11,0.80,302.62,M,-33.324,M,,*74
2017-11-16 14:50:14 1510861814.490964: $GPRMC,195013,A,3946.9572,N,08404.9841,W,0.0000,0.000,161117,,*3C
2017-11-16 14:50:14 1510861814.491020: $GPGSA,A,3,8,10,15,18,21,20,24,27,32,14,138,,1.6,0.8,1.3*37
