2018-01-12 04:53:02 1515750782.257266: {"class":"VERSION","release":"3.16","rev":"3.16-4","proto_major":3,"proto_minor":11}
2018-01-12 04:53:02 1515750782.257669: {"class":"DEVICES","devices":[{"class":"DEVICE","path":"/dev/ttyUSB0","driver":"SiRF","subtype":"9\u0006GSD4e_4.1.2-P1_RPATCH.05-F-GPS-4R-1510281 11/03/2015 307","activated":"2018-01-12T09:53:01.900Z","flags":1,"native":1,"bps":4800,"parity":"N","stopbits":1,"cycle":1.00}]}
2018-01-12 04:53:02 1515750782.257782: {"class":"WATCH","enable":true,"json":false,"nmea":true,"raw":0,"scaled":false,"timing":false,"split24":false,"pps":false}
2018-01-12 04:53:02 1515750782.876873: $GPZDA,095303.56,12,01,2018,00,00*60
2018-01-12 04:53:02 1515750782.877034: $GPGGA,095303,3946.9659,N,08404.9714,W,1,10,2.00,314.55,M,-33.324,M,,*79
2018-01-12 04:53:02 1515750782.877100: $GPRMC,095303,A,3946.9659,N,08404.9714,W,0.3423,184.197,120118,,*34
2018-01-12 04:53:02 1515750782.877161: $GPGSA,A,3,2,5,12,20,25,29,9,19,17,138,,,2.4,2.0,2.1*32
2018-01-12 04:53:02 1515750782.877218: $GPGBS,095303,11.98,M,14.47,M,47.88,M*06
2018-01-12 04:53:04 1515750784.004583: $GPZDA,095304.25,12,01,2018,00,00*63
2018-01-12 04:53:04 1515750784.004741: $GPGGA,095304,3946.9655,N,08404.9722,W,1,10,2.00,315.23,M,-33.324,M,,*77
2018-01-12 04:53:04 1515750784.004807: $GPRMC,095304,A,3946.9655,N,08404.9722,W,0.4137,224.854,120118,,*32
2018-01-12 04:53:04 1515750784.004869: $GPGSA,A,3,2,5,12,20,25,29,9,19,17,138,,,2.4,2.0,2.1*32
2018-01-12 04:53:05 1515750785.191862: $GPGSV,3,1,12,02,68,025,31,05,66,202,34,12,42,232,35,20,12,223,27*74
2018-01-12 04:53:05 1515750785.192040: $GPGSV,3,2,12,25,36,285,27,29,23,312,34,06,36,066,00,19,20,126,00*72
2018-01-12 04:53:05 1515750785.192107: $GPGSV,3,3,12,09,18,054,00,04,64,309,00,17,03,129,00,138,38,213,00*49
2018-01-12 04:53:05 1515750785.305358: $GPZDA,095305.00,12,01,2018,00,00*65
2018-01-12 04:53:05 1515750785.305530: $GPGGA,095305,3946.9655,N,08404.9722,W,1,06,2.00,315.23,M,-33.324,M,,*71
2018-01-12 04:53:05 1515750785.305599: $GPRMC,095305,A,3946.9655,N,08404.9722,W,0.2710,280.223,120118,,*32
2018-01-12 04:53:05 1515750785.305660: $GPGSA,A,3,2,5,12,20,25,29,,,,,,,2.4,2.0,2.1*3F
2018-01-12 04:53:05 1515750785.756126: $GPZDA,095306.00,12,01,2018,00,00*66
2018-01-12 04:53:05 1515750785.756303: $GPGGA,095306,3946.9656,N,08404.9728,W,1,06,2.00,315.15,M,-33.324,M,,*7E
2018-01-12 04:53:05 1515750785.756370: $GPRMC,095306,A,3946.9656,N,08404.9728,W,0.0407,322.012,120118,,*36
2018-01-12 04:53:05 1515750785.756431: $GPGSA,A,3,2,5,12,20,25,29,,,,,,,2.4,2.0,2.1*3F
2018-01-12 04:53:06 1515750786.369463: $GPZDA,095307.00,12,01,2018,00,00*67
2018-01-12 04:53:06 1515750786.369644: $GPGGA,095307,3946.9660,N,08404.9735,W,1,06,0.80,314.31,M,-33.324,M,,*7B
2018-01-12 04:53:06 1515750786.369714: $GPRMC,095307,A,3946.9660,N,08404.9735,W,0.2710,280.223,120118,,*30
2018-01-12 04:53:06 1515750786.369775: $GPGSA,A,3,2,5,12,20,25,29,,,,,,,2.4,0.8,2.1*35
2018-01-12 04:53:07 1515750787.705963: $GPGSV,3,1,12,02,68,025,45,05,66,202,49,12,42,232,49,20,12,223,38*78
2018-01-12 04:53:07 1515750787.706146: $GPGSV,3,2,12,25,36,285,39,29,23,312,49,06,36,066,00,04,64,309,00*74
2018-01-12 04:53:07 1515750787.706212: $GPGSV,3,3,12,09,18,054,18,17,03,129,17,19,20,126,22,138,38,213,48*49
2018-01-12 04:53:07 1515750787.819570: $GPZDA,095308.00,12,01,2018,00,00*68
2018-01-12 04:53:07 1515750787.819710: $GPGGA,095308,3946.9660,N,08404.9735,W,1,10,0.80,314.31,M,-33.324,M,,*73
2018-01-12 04:53:07 1515750787.819775: $GPRMC,095308,A,3946.9660,N,08404.9735,W,0.0000,0.000,120118,,*32
2018-01-12 04:53:07 1515750787.819836: $GPGSA,A,3,2,5,12,20,25,29,9,17,19,138,,,2.4,0.8,2.1*38
2018-01-12 04:53:08 1515750788.373982: $GPZDA,095309.00,12,01,2018,00,00*69
2018-01-12 04:53:08 1515750788.374257: $GPGGA,095309,3946.9660,N,08404.9742,W,1,10,0.80,314.23,M,-33.324,M,,*71
2018-01-12 04:53:08 1515750788.374343: $GPRMC,095309,A,3946.9660,N,08404.9742,W,0.0000,0.000,120118,,*33
2018-01-12 04:53:08 1515750788.374407: $GPGSA,A,3,2,5,12,20,25,29,9,17,19,138,,,2.4,0.8,2.1*38
2018-01-12 04:53:09 1515750789.368503: $GPZDA,095310.00,12,01,2018,00,00*61
2018-01-12 04:53:09 1515750789.368731: $GPGGA,095310,3946.9660,N,08404.9749,W,1,10,0.80,314.15,M,-33.324,M,,*77
2018-01-12 04:53:09 1515750789.368801: $GPRMC,095310,A,3946.9660,N,08404.9749,W,0.0000,0.000,120118,,*30
2018-01-12 04:53:09 1515750789.368862: $GPGSA,A,3,2,5,12,20,25,29,9,17,19,138,,,2.4,0.8,2.1*38
2018-01-12 04:53:09 1515750789.368920: $GPGBS,095310,11.98,M,14.47,M,47.88,M*04
2018-01-12 04:53:10 1515750790.709202: $GPGSV,3,1,11,02,68,025,45,05,66,202,49,12,42,232,49,20,12,223,39*7A
2018-01-12 04:53:10 1515750790.709363: $GPGSV,3,2,11,25,36,285,39,29,23,312,48,06,36,066,00,09,18,054,16*7C
2018-01-12 04:53:10 1515750790.709428: $GPGSV,3,3,11,17,03,129,18,19,20,126,21,138,38,213,47*71
2018-01-12 04:53:10 1515750790.823775: $GPZDA,095311.00,12,01,2018,00,00*60
2018-01-12 04:53:10 1515750790.823967: $GPGGA,095311,3946.9666,N,08404.9796,W,2,10,1.00,311.43,M,-33.324,M,,*7E
2018-01-12 04:53:10 1515750790.824033: $GPRMC,095311,A,3946.9666,N,08404.9796,W,0.0000,0.000,120118,,*35
2018-01-12 04:53:10 1515750790.824094: $GPGSA,A,3,2,5,12,20,25,29,9,17,19,138,,,2.4,1.0,2.1*31
2018-01-12 04:53:11 1515750791.374477: $GPZDA,095312.00,12,01,2018,00,00*63
2018-01-12 04:53:11 1515750791.374642: $GPGGA,095312,3946.9666,N,08404.9803,W,2,10,0.80,311.35,M,-33.324,M,,*76
2018-01-12 04:53:11 1515750791.374709: $GPRMC,095312,A,3946.9666,N,08404.9803,W,0.0000,0.000,120118,,*35
2018-01-12 04:53:11 1515750791.374769: $GPGSA,A,3,2,5,12,20,25,29,9,17,19,138,,,2.4,0.8,2.1*38
2018-01-12 04:53:12 1515750792.371298: $GPZDA,095313.00,12,01,2018,00,00*62
2018-01-12 04:53:12 1515750792.371470: $GPGGA,095313,3946.9666,N,08404.9803,W,2,10,1.00,311.35,M,-33.324,M,,*7E
2018-01-12 04:53:12 1515750792.371539: $GPRMC,095313,A,3946.9666,N,08404.9803,W,0.0000,0.000,120118,,*34
2018-01-12 04:53:12 1515750792.371601: $GPGSA,A,3,2,5,12,20,25,29,9,17,19,138,,,2.4,1.0,2.1*31
2018-01-12 04:53:13 1515750793.708308: $GPGSV,3,1,12,02,68,025,45,05,66,202,50,12,42,232,49,20,12,223,39*71
2018-01-12 04:53:13 1515750793.708493: $GPGSV,3,2,12,25,36,285,39,29,23,312,49,06,36,066,00,19,20,126,00*77
2018-01-12 04:53:13 1515750793.708559: $GPGSV,3,3,12,09,18,054,17,17,03,129,19,04,64,309,00,138,38,213,47*44
2018-01-12 04:53:13 1515750793.821077: $GPZDA,095314.00,12,01,2018,00,00*65
2018-01-12 04:53:13 1515750793.821276: $GPGGA,095314,3946.9666,N,08404.9803,W,2,09,1.00,311.35,M,-33.324,M,,*71
2018-01-12 04:53:13 1515750793.821344: $GPRMC,095314,A,3946.9666,N,08404.9803,W,0.0000,0.000,120118,,*33
2018-01-12 04:53:13 1515750793.821403: $GPGSA,A,3,2,5,12,20,25,29,9,17,138,,,,2.4,1.0,2.1*39
2018-01-12 04:53:14 1515750794.375698: $GPZDA,095315.00,12,01,2018,00,00*64
2018-01-12 04:53:14 1515750794.375867: $GPGGA,095315,3946.9666,N,08404.9803,W,2,09,1.00,311.35,M,-33.324,M,,*70
2018-01-12 04:53:14 1515750794.375934: $GPRMC,095315,A,3946.9666,N,08404.9803,W,0.0000,0.000,120118,,*32
2018-01-12 04:53:14 1515750794.376014: $GPGSA,A,3,2,5,12,20,25,29,9,17,138,,,,2.4,1.0,2.1*39
2018-01-12 04:53:15 1515750795.369705: $GPZDA,095316.00,12,01,2018,00,00*67
2018-01-12 04:53:15 1515750795.369897: $GPGGA,095316,3946.9666,N,08404.9803,W,2,09,1.00,311.35,M,-33.324,M,,*73
2018-01-12 04:53:15 1515750795.369981: $GPRMC,095316,A,3946.9666,N,08404.9803,W,0.0000,0.000,120118,,*31
2018-01-12 04:53:15 1515750795.370044: $GPGSA,A,3,2,5,12,20,25,29,9,17,138,,,,2.4,1.0,2.1*39
2018-01-12 04:53:16 1515750796.706659: $GPGSV,3,1,12,02,68,025,45,05,66,202,50,12,42,232,49,20,12,223,39*71
2018-01-12 04:53:16 1515750796.706839: $GPGSV,3,2,12,25,36,285,39,29,23,312,48,06,36,066,00,19,20,126,00*76
2018-01-12 04:53:16 1515750796.706904: $GPGSV,3,3,12,09,18,054,18,17,03,129,19,04,64,309,00,138,38,213,46*4A
2018-01-12 04:53:16 1515750796.820029: $GPZDA,095317.00,12,01,2018,00,00*66
2018-01-12 04:53:16 1515750796.820180: $GPGGA,095317,3946.9666,N,08404.9803,W,2,08,1.00,311.35,M,-33.324,M,,*73
2018-01-12 04:53:16 1515750796.820261: $GPRMC,095317,A,3946.9666,N,08404.9803,W,0.0000,0.000,120118,,*30
2018-01-12 04:53:16 1515750796.820323: $GPGSA,A,3,2,5,12,20,25,29,9,138,,,,,2.4,1.0,2.1*3F
2018-01-12 04:53:17 1515750797.445937: $GPZDA,095318.00,12,01,2018,00,00*69
2018-01-12 04:53:17 1515750797.446142: $GPGGA,095318,3946.9666,N,08404.9803,W,2,08,1.00,311.35,M,-33.324,M,,*7C
2018-01-12 04:53:17 1515750797.446209: $GPRMC,095318,A,3946.9666,N,08404.9803,W,0.0000,0.000,120118,,*3F
2018-01-12 04:53:17 1515750797.446271: $GPGSA,A,3,2,5,12,20,25,29,9,138,,,,,2.4,1.0,2.1*3F
2018-01-12 04:53:18 1515750798.369040: $GPZDA,095319.00,12,01,2018,00,00*68
2018-01-12 04:53:18 1515750798.369227: $GPGGA,095319,3946.9666,N,08404.9803,W,2,08,1.00,311.35,M,-33.324,M,,*7D
2018-01-12 04:53:18 1515750798.369295: $GPRMC,095319,A,3946.9666,N,08404.9803,W,0.0000,0.000,120118,,*3E
2018-01-12 04:53:18 1515750798.369356: $GPGSA,A,3,2,5,12,20,25,29,9,138,,,,,2.4,1.0,2.1*3F
2018-01-12 04:53:19 1515750799.709531: $GPGSV,3,1,12,02,68,025,45,05,66,202,50,12,42,232,49,20,12,223,39*71
2018-01-12 04:53:19 1515750799.709711: $GPGSV,3,2,12,25,36,285,39,29,23,312,49,06,36,066,08,19,20,126,00*7F
2018-01-12 04:53:19 1515750799.709777: $GPGSV,3,3,12,09,18,054,18,04,64,309,00,17,03,129,00,138,38,213,47*43
2018-01-12 04:53:19 1515750799.822892: $GPZDA,095320.00,12,01,2018,00,00*62
2018-01-12 04:53:19 1515750799.823053: $GPGGA,095320,3946.9655,N,08404.9787,W,2,08,1.00,306.02,M,-33.324,M,,*76
2018-01-12 04:53:19 1515750799.823137: $GPRMC,095320,A,3946.9655,N,08404.9787,W,0.0000,0.000,120118,,*37
2018-01-12 04:53:19 1515750799.823199: $GPGSA,A,3,2,5,12,20,25,29,9,138,,,,,2.4,1.0,2.1*3F
2018-01-12 04:53:20 1515750800.370293: $GPZDA,095321.00,12,01,2018,00,00*63
2018-01-12 04:53:20 1515750800.370464: $GPGGA,095321,3946.9652,N,08404.9778,W,2,08,1.00,301.88,M,-33.324,M,,*75
2018-01-12 04:53:20 1515750800.370530: $GPRMC,095321,A,3946.9652,N,08404.9778,W,0.0000,0.000,120118,,*31
2018-01-12 04:53:20 1515750800.370593: $GPGSA,A,3,2,5,12,20,25,29,9,138,,,,,2.4,1.0,2.1*3F
2018-01-12 04:53:21 1515750801.370780: $GPZDA,095322.00,12,01,2018,00,00*60
2018-01-12 04:53:21 1515750801.370979: $GPGGA,095322,3946.9652,N,08404.9778,W,2,08,1.00,301.88,M,-33.324,M,,*76
2018-01-12 04:53:21 1515750801.371050: $GPRMC,095322,A,3946.9652,N,08404.9778,W,0.0000,0.000,120118,,*32
2018-01-12 04:53:21 1515750801.371132: $GPGSA,A,3,2,5,12,20,25,29,9,138,,,,,2.4,1.0,2.1*3F
2018-01-12 04:53:21 1515750801.371190: $GPGBS,095322,3.00,M,3.62,M,11.97,M*0B
