2017-12-01 17:54:25 1512168865.326806: {"class":"VERSION","release":"3.16","rev":"3.16-4","proto_major":3,"proto_minor":11}
2017-12-01 17:54:25 1512168865.327226: {"class":"DEVICES","devices":[{"class":"DEVICE","path":"/dev/ttyUSB0","driver":"SiRF","subtype":"9\u0006GSD4e_4.1.2-P1_RPATCH.05-F-GPS-4R-1510281 11/03/2015 307","activated":"2017-12-01T22:54:25.324Z","flags":1,"native":1,"bps":4800,"parity":"N","stopbits":1,"cycle":1.00}]}
2017-12-01 17:54:25 1512168865.327368: {"class":"WATCH","enable":true,"json":false,"nmea":true,"raw":0,"scaled":false,"timing":false,"split24":false,"pps":false}
2017-12-01 17:54:25 1512168865.437628: $GPZDA,225426.00,01,12,2017,00,00*65
2017-12-01 17:54:25 1512168865.437780: $GPGGA,225426,3946.9735,N,08404.9853,W,2,11,0.80,297.52,M,-33.325,M,,*73
2017-12-01 17:54:25 1512168865.437846: $GPRMC,225426,A,3946.9735,N,08404.9853,W,0.0000,0.000,011217,,*31
2017-12-01 17:54:25 1512168865.437907: $GPGSA,A,3,1,3,10,14,16,22,25,26,29,31,138,,2.0,0.8,1.5*0D
2017-12-01 17:54:26 1512168866.774193: $GPGSV,3,1,12,01,13,264,39,03,31,310,47,10,10,159,42,14,64,069,42*74
2017-12-01 17:54:26 1512168866.774384: $GPGSV,3,2,12,16,10,189,36,22,47,289,46,32,46,094,00,25,28,046,42*7D
2017-12-01 17:54:26 1512168866.774451: $GPGSV,3,3,12,26,39,175,45,29,05,084,32,31,77,352,46,138,38,213,45*41
2017-12-01 17:54:26 1512168866.887661: $GPZDA,225427.00,01,12,2017,00,00*64
2017-12-01 17:54:26 1512168866.887804: $GPGGA,225427,3946.9735,N,08404.9853,W,2,11,0.80,297.52,M,-33.325,M,,*72
2017-12-01 17:54:26 1512168866.887871: $GPRMC,225427,A,3946.9735,N,08404.9853,W,0.0000,0.000,011217,,*30
2017-12-01 17:54:26 1512168866.887931: $GPGSA,A,3,1,3,10,14,16,22,25,26,29,31,138,,2.0,0.8,1.5*0D
2017-12-01 17:54:27 1512168867.512948: $GPZDA,225428.00,01,12,2017,00,00*6B
2017-12-01 17:54:27 1512168867.513135: $GPGGA,225428,3946.9735,N,08404.9853,W,2,11,0.80,297.52,M,-33.325,M,,*7D
2017-12-01 17:54:27 1512168867.513202: $GPRMC,225428,A,3946.9735,N,08404.9853,W,0.0000,0.000,011217,,*3F
2017-12-01 17:54:27 1512168867.513269: $GPGSA,A,3,1,3,10,14,16,22,25,26,29,31,138,,2.0,0.8,1.5*0D
2017-12-01 17:54:28 1512168868.470171: $GPZDA,225429.00,01,12,2017,00,00*6A
2017-12-01 17:54:28 1512168868.470343: $GPGGA,225429,3946.9735,N,08404.9853,W,2,11,0.80,297.52,M,-33.325,M,,*7C
2017-12-01 17:54:28 1512168868.470412: $GPRMC,225429,A,3946.9735,N,08404.9853,W,0.0000,0.000,011217,,*3E
2017-12-01 17:54:28 1512168868.470476: $GPGSA,A,3,1,3,10,14,16,22,25,26,29,31,138,,2.0,0.8,1.5*0D
2017-12-01 17:54:29 1512168869.779555: $GPGSV,3,1,12,01,13,264,39,03,31,310,47,10,10,159,43,14,64,069,42*75
2017-12-01 17:54:29 1512168869.779738: $GPGSV,3,2,12,16,10,189,35,22,47,289,46,32,46,094,00,25,28,046,42*7E
2017-12-01 17:54:29 1512168869.779805: $GPGSV,3,3,12,26,39,175,45,29,05,084,32,31,77,352,46,138,38,213,45*41
2017-12-01 17:54:29 1512168869.891794: $GPZDA,225430.00,01,12,2017,00,00*62
2017-12-01 17:54:29 1512168869.891968: $GPGGA,225430,3946.9735,N,08404.9853,W,2,11,0.80,297.52,M,-33.325,M,,*74
2017-12-01 17:54:29 1512168869.892034: $GPRMC,225430,A,3946.9735,N,08404.9853,W,0.0000,0.000,011217,,*36
2017-12-01 17:54:29 1512168869.892100: $GPGSA,A,3,1,3,10,14,16,22,25,26,29,31,138,,2.0,0.8,1.5*0D
2017-12-01 17:54:30 1512168870.471260: $GPZDA,225431.00,01,12,2017,00,00*63
2017-12-01 17:54:30 1512168870.471481: $GPGGA,225431,3946.9731,N,08404.9853,W,2,11,0.80,296.88,M,-33.325,M,,*77
2017-12-01 17:54:30 1512168870.471552: $GPRMC,225431,A,3946.9731,N,08404.9853,W,0.0000,0.000,011217,,*33
2017-12-01 17:54:30 1512168870.471614: $GPGSA,A,3,1,3,10,14,16,22,25,26,29,31,138,,2.0,0.8,1.5*0D
2017-12-01 17:54:31 1512168871.438549: $GPZDA,225432.00,01,12,2017,00,00*60
2017-12-01 17:54:31 1512168871.438721: $GPGGA,225432,3946.9731,N,08404.9853,W,2,11,0.80,296.88,M,-33.325,M,,*74
2017-12-01 17:54:31 1512168871.438790: $GPRMC,225432,A,3946.9731,N,08404.9853,W,0.0000,0.000,011217,,*30
2017-12-01 17:54:31 1512168871.438851: $GPGSA,A,3,1,3,10,14,16,22,25,26,29,31,138,,2.0,0.8,1.5*0D
2017-12-01 17:54:32 1512168872.779847: $GPGSV,3,1,12,01,13,264,38,03,31,310,47,10,10,159,42,14,64,069,42*75
2017-12-01 17:54:32 1512168872.780088: $GPGSV,3,2,12,16,10,189,36,22,47,289,46,32,46,094,00,25,28,046,43*7C
2017-12-01 17:54:32 1512168872.780163: $GPGSV,3,3,12,26,39,175,45,29,05,084,32,31,77,352,46,138,38,213,45*41
2017-12-01 17:54:32 1512168872.893449: $GPZDA,225433.00,01,12,2017,00,00*61
2017-12-01 17:54:32 1512168872.893579: $GPGGA,225433,3946.9731,N,08404.9853,W,2,11,0.80,296.88,M,-33.325,M,,*75
2017-12-01 17:54:32 1512168872.893645: $GPRMC,225433,A,3946.9731,N,08404.9853,W,0.0000,0.000,011217,,*31
2017-12-01 17:54:32 1512168872.893706: $GPGSA,A,3,1,3,10,14,16,22,25,26,29,31,138,,2.0,0.8,1.5*0D
2017-12-01 17:54:33 1512168873.443205: $GPZDA,225434.00,01,12,2017,00,00*66
2017-12-01 17:54:33 1512168873.443421: $GPGGA,225434,3946.9731,N,08404.9853,W,2,11,0.80,296.88,M,-33.325,M,,*72
2017-12-01 17:54:33 1512168873.443522: $GPRMC,225434,A,3946.9731,N,08404.9853,W,0.0000,0.000,011217,,*36
2017-12-01 17:54:33 1512168873.443587: $GPGSA,A,3,1,3,10,14,16,22,25,26,29,31,138,,2.0,0.8,1.5*0D
2017-12-01 17:54:34 1512168874.443674: $GPZDA,225435.00,01,12,2017,00,00*67
2017-12-01 17:54:34 1512168874.443865: $GPGGA,225435,3946.9731,N,08404.9853,W,2,11,0.80,296.88,M,-33.325,M,,*73
2017-12-01 17:54:34 1512168874.473351: $GPRMC,225435,A,3946.9731,N,08404.9853,W,0.0000,0.000,011217,,*37
2017-12-01 17:54:34 1512168874.473546: $GPGSA,A,3,1,3,10,14,16,22,25,26,29,31,138,,2.0,0.8,1.5*0D
2017-12-01 17:54:35 1512168875.779479: $GPGSV,3,1,12,01,13,264,38,03,31,310,47,10,10,159,42,14,64,069,42*75
2017-12-01 17:54:35 1512168875.779679: $GPGSV,3,2,12,16,10,189,36,22,47,289,46,32,46,094,00,25,28,046,43*7C
2017-12-01 17:54:35 1512168875.779749: $GPGSV,3,3,12,26,39,175,46,29,05,084,32,31,77,352,46,138,38,213,45*42
2017-12-01 17:54:35 1512168875.892834: $GPZDA,225436.00,01,12,2017,00,00*64
2017-12-01 17:54:35 1512168875.893008: $GPGGA,225436,3946.9731,N,08404.9853,W,2,11,0.80,296.88,M,-33.325,M,,*70
2017-12-01 17:54:35 1512168875.893074: $GPRMC,225436,A,3946.9731,N,08404.9853,W,0.0000,0.000,011217,,*34
2017-12-01 17:54:35 1512168875.893138: $GPGSA,A,3,1,3,10,14,16,22,25,26,29,31,138,,2.0,0.8,1.5*0D
2017-12-01 17:54:36 1512168876.440038: $GPZDA,225437.00,01,12,2017,00,00*65
2017-12-01 17:54:36 1512168876.440224: $GPGGA,225437,3946.9731,N,08404.9853,W,2,11,0.80,296.88,M,-33.325,M,,*71
2017-12-01 17:54:36 1512168876.440292: $GPRMC,225437,A,3946.9731,N,08404.9853,W,0.0000,0.000,011217,,*35
2017-12-01 17:54:36 1512168876.440353: $GPGSA,A,3,1,3,10,14,16,22,25,26,29,31,138,,2.0,0.8,1.5*0D
2017-12-01 17:54:37 1512168877.442926: $GPZDA,225438.00,01,12,2017,00,00*6A
2017-12-01 17:54:37 1512168877.443113: $GPGGA,225438,3946.9731,N,08404.9853,W,2,11,0.80,296.88,M,-33.325,M,,*7E
2017-12-01 17:54:37 1512168877.443180: $GPRMC,225438,A,3946.9731,N,08404.9853,W,0.0000,0.000,011217,,*3A
2017-12-01 17:54:37 1512168877.443244: $GPGSA,A,3,1,3,10,14,16,22,25,26,29,31,138,,2.0,0.8,1.5*0D
2017-12-01 17:54:38 1512168878.773525: $GPGSV,3,1,12,01,13,264,37,03,31,310,47,10,10,159,42,14,64,069,42*7A
2017-12-01 17:54:38 1512168878.773711: $GPGSV,3,2,12,16,10,189,37,22,47,289,46,32,46,094,00,25,28,046,43*7D
2017-12-01 17:54:38 1512168878.773777: $GPGSV,3,3,12,26,39,175,46,29,05,084,32,31,77,352,46,138,38,213,45*42
2017-12-01 17:54:38 1512168878.886844: $GPZDA,225439.00,01,12,2017,00,00*6B
2017-12-01 17:54:38 1512168878.886979: $GPGGA,225439,3946.9731,N,08404.9853,W,2,11,0.80,296.88,M,-33.325,M,,*7F
2017-12-01 17:54:38 1512168878.887045: $GPRMC,225439,A,3946.9731,N,08404.9853,W,0.0000,0.000,011217,,*3B
2017-12-01 17:54:38 1512168878.887111: $GPGSA,A,3,1,3,10,14,16,22,25,26,29,31,138,,2.0,0.8,1.5*0D
2017-12-01 17:54:39 1512168879.444035: $GPZDA,225440.00,01,12,2017,00,00*65
2017-12-01 17:54:39 1512168879.444237: $GPGGA,225440,3946.9731,N,08404.9853,W,2,11,0.80,296.88,M,-33.325,M,,*71
2017-12-01 17:54:39 1512168879.448341: $GPRMC,225440,A,3946.9731,N,08404.9853,W,0.0000,0.000,011217,,*35
2017-12-01 17:54:39 1512168879.448430: $GPGSA,A,3,1,3,10,14,16,22,25,26,29,31,138,,2.0,0.8,1.5*0D
2017-12-01 17:54:40 1512168880.443618: $GPZDA,225441.00,01,12,2017,00,00*64
2017-12-01 17:54:40 1512168880.443811: $GPGGA,225441,3946.9731,N,08404.9853,W,2,11,0.80,296.88,M,-33.325,M,,*70
2017-12-01 17:54:40 1512168880.443881: $GPRMC,225441,A,3946.9731,N,08404.9853,W,0.0000,0.000,011217,,*34
2017-12-01 17:54:40 1512168880.443948: $GPGSA,A,3,1,3,10,14,16,22,25,26,29,31,138,,2.0,0.8,1.5*0D
2017-12-01 17:54:41 1512168881.778295: $GPGSV,3,1,12,01,13,264,36,03,31,310,47,10,10,159,42,14,64,069,42*7B
2017-12-01 17:54:41 1512168881.778498: $GPGSV,3,2,12,16,10,189,38,22,47,289,46,32,46,094,00,25,28,046,42*73
2017-12-01 17:54:41 1512168881.778565: $GPGSV,3,3,12,26,39,175,46,29,05,084,32,31,77,352,46,138,38,213,46*41
2017-12-01 17:54:41 1512168881.891598: $GPZDA,225442.00,01,12,2017,00,00*67
2017-12-01 17:54:41 1512168881.891767: $GPGGA,225442,3946.9731,N,08404.9853,W,2,11,0.80,296.88,M,-33.325,M,,*73
2017-12-01 17:54:41 1512168881.891834: $GPRMC,225442,A,3946.9731,N,08404.9853,W,0.0000,0.000,011217,,*37
2017-12-01 17:54:41 1512168881.891896: $GPGSA,A,3,1,3,10,14,16,22,25,26,29,31,138,,2.0,0.8,1.5*0D
2017-12-01 17:54:42 1512168882.516889: $GPZDA,225443.00,01,12,2017,00,00*66
2017-12-01 17:54:42 1512168882.517054: $GPGGA,225443,3946.9731,N,08404.9853,W,2,11,0.80,296.88,M,-33.325,M,,*72
2017-12-01 17:54:42 1512168882.517121: $GPRMC,225443,A,3946.9731,N,08404.9853,W,0.0000,0.000,011217,,*36
2017-12-01 17:54:42 1512168882.517182: $GPGSA,A,3,1,3,10,14,16,22,25,26,29,31,138,,2.0,0.8,1.5*0D
2017-12-01 17:54:43 1512168883.444294: $GPZDA,225444.00,01,12,2017,00,00*61
2017-12-01 17:54:43 1512168883.444465: $GPGGA,225444,3946.9731,N,08404.9853,W,2,11,0.80,296.88,M,-33.325,M,,*75
2017-12-01 17:54:43 1512168883.444532: $GPRMC,225444,A,3946.9731,N,08404.9853,W,0.0000,0.000,011217,,*31
2017-12-01 17:54:43 1512168883.444592: $GPGSA,A,3,1,3,10,14,16,22,25,26,29,31,138,,2.0,0.8,1.5*0D
2017-12-01 17:54:44 1512168884.779742: $GPGSV,3,1,12,01,13,264,36,03,31,310,47,10,10,159,41,14,64,069,42*78
2017-12-01 17:54:44 1512168884.779934: $GPGSV,3,2,12,16,10,189,38,22,47,289,46,32,46,094,00,25,28,046,42*73
2017-12-01 17:54:44 1512168884.780003: $GPGSV,3,3,12,26,39,175,45,29,05,084,32,31,77,352,47,138,38,213,45*40
2017-12-01 17:54:44 1512168884.893316: $GPZDA,225445.00,01,12,2017,00,00*60
2017-12-01 17:54:44 1512168884.893476: $GPGGA,225445,3946.9731,N,08404.9853,W,2,11,0.80,296.88,M,-33.325,M,,*74
2017-12-01 17:54:44 1512168884.893544: $GPRMC,225445,A,3946.9731,N,08404.9853,W,0.0000,0.000,011217,,*30
2017-12-01 17:54:44 1512168884.893605: $GPGSA,A,3,1,3,10,14,16,22,25,26,29,31,138,,2.0,0.8,1.5*0D
