2017-12-29 14:56:07 1514577367.241872: {"class":"VERSION","release":"3.16","rev":"3.16-4","proto_major":3,"proto_minor":11}
2017-12-29 14:56:07 1514577367.242232: {"class":"DEVICES","devices":[{"class":"DEVICE","path":"/dev/ttyUSB0","driver":"SiRF","subtype":"9\u0006GSD4e_4.1.2-P1_RPATCH.05-F-GPS-4R-1510281 11/03/2015 307","activated":"2017-12-29T19:56:07.158Z","flags":1,"native":1,"bps":4800,"parity":"N","stopbits":1,"cycle":1.00}]}
2017-12-29 14:56:07 1514577367.242349: {"class":"WATCH","enable":true,"json":false,"nmea":true,"raw":0,"scaled":false,"timing":false,"split24":false,"pps":false}
2017-12-29 14:56:07 1514577367.468798: $GPZDA,195608.00,29,12,2017,00,00*69
2017-12-29 14:56:07 1514577367.468969: $GPGGA,195608,3946.9567,N,08404.9812,W,1,12,0.80,312.97,M,-33.324,M,,*71
2017-12-29 14:56:07 1514577367.469037: $GPRMC,195608,A,3946.9567,N,08404.9812,W,0.0000,0.000,291217,,*3D
2017-12-29 14:56:07 1514577367.469100: $GPGSA,A,3,1,3,10,26,12,14,18,22,25,31,32,138,1.7,0.8,1.3*08
2017-12-29 14:56:08 1514577368.395888: $GPZDA,195609.00,29,12,2017,00,00*68
2017-12-29 14:56:08 1514577368.396052: $GPGGA,195609,3946.9567,N,08404.9812,W,1,12,0.80,312.97,M,-33.324,M,,*70
2017-12-29 14:56:08 1514577368.396119: $GPRMC,195609,A,3946.9567,N,08404.9812,W,0.0000,0.000,291217,,*3C
2017-12-29 14:56:08 1514577368.396181: $GPGSA,A,3,1,3,10,26,12,14,18,22,25,31,32,138,1.7,0.8,1.3*08
2017-12-29 14:56:09 1514577369.730441: $GPGSV,3,1,12,01,22,291,38,03,08,316,41,10,38,151,48,26,11,180,24*7A
2017-12-29 14:56:09 1514577369.730625: $GPGSV,3,2,12,12,18,042,42,14,69,349,43,18,09,147,32,22,27,310,42*70
2017-12-29 14:56:09 1514577369.730694: $GPGSV,3,3,12,25,41,078,51,31,67,235,47,32,64,052,51,138,38,213,43*41
2017-12-29 14:56:09 1514577369.844037: $GPZDA,195610.00,29,12,2017,00,00*60
2017-12-29 14:56:09 1514577369.844184: $GPGGA,195610,3946.9561,N,08404.9823,W,2,12,1.20,306.55,M,-33.324,M,,*7F
2017-12-29 14:56:09 1514577369.844250: $GPRMC,195610,A,3946.9561,N,08404.9823,W,0.0000,0.000,291217,,*30
2017-12-29 14:56:09 1514577369.844312: $GPGSA,A,3,1,3,10,26,12,14,18,22,25,31,32,138,1.7,1.2,1.3*03
2017-12-29 14:56:10 1514577370.396165: $GPZDA,195611.00,29,12,2017,00,00*61
2017-12-29 14:56:10 1514577370.396333: $GPGGA,195611,3946.9561,N,08404.9823,W,2,12,0.80,306.55,M,-33.324,M,,*75
2017-12-29 14:56:10 1514577370.396399: $GPRMC,195611,A,3946.9561,N,08404.9823,W,0.0000,0.000,291217,,*31
2017-12-29 14:56:10 1514577370.396461: $GPGSA,A,3,1,3,10,26,12,14,18,22,25,31,32,138,1.7,0.8,1.3*08
2017-12-29 14:56:11 1514577371.398235: $GPZDA,195612.00,29,12,2017,00,00*62
2017-12-29 14:56:11 1514577371.398407: $GPGGA,195612,3946.9561,N,08404.9823,W,2,12,0.80,306.55,M,-33.324,M,,*76
2017-12-29 14:56:11 1514577371.398474: $GPRMC,195612,A,3946.9561,N,08404.9823,W,0.0000,0.000,291217,,*32
2017-12-29 14:56:11 1514577371.398536: $GPGSA,A,3,1,3,10,26,12,14,18,22,25,31,32,138,1.7,0.8,1.3*08
2017-12-29 14:56:11 1514577371.398597: $GPGBS,195612,2.73,M,2.59,M,7.72,M*3C
2017-12-29 14:56:12 1514577372.733190: $GPGSV,3,1,12,01,22,291,38,03,08,316,40,10,38,151,48,26,11,180,24*7B
2017-12-29 14:56:12 1514577372.733355: $GPGSV,3,2,12,12,18,042,43,14,69,349,43,18,09,147,32,22,27,310,42*71
2017-12-29 14:56:12 1514577372.733422: $GPGSV,3,3,12,25,41,078,51,31,67,235,47,32,64,052,51,138,38,213,43*41
2017-12-29 14:56:12 1514577372.846472: $GPZDA,195613.00,29,12,2017,00,00*63
2017-12-29 14:56:12 1514577372.846669: $GPGGA,195613,3946.9561,N,08404.9823,W,2,12,0.80,306.55,M,-33.324,M,,*77
2017-12-29 14:56:12 1514577372.846755: $GPRMC,195613,A,3946.9561,N,08404.9823,W,0.0000,0.000,291217,,*33
2017-12-29 14:56:12 1514577372.846820: $GPGSA,A,3,1,3,10,26,12,14,18,22,25,31,32,138,1.7,0.8,1.3*08
2017-12-29 14:56:13 1514577373.393582: $GPZDA,195614.00,29,12,2017,00,00*64
2017-12-29 14:56:13 1514577373.393757: $GPGGA,195614,3946.9561,N,08404.9823,W,2,12,0.80,306.55,M,-33.324,M,,*70
2017-12-29 14:56:13 1514577373.393824: $GPRMC,195614,A,3946.9561,N,08404.9823,W,0.0000,0.000,291217,,*34
2017-12-29 14:56:13 1514577373.393886: $GPGSA,A,3,1,3,10,26,12,14,18,22,25,31,32,138,1.7,0.8,1.3*08
2017-12-29 14:56:14 1514577374.393284: $GPZDA,195615.00,29,12,2017,00,00*65
2017-12-29 14:56:14 1514577374.393454: $GPGGA,195615,3946.9561,N,08404.9823,W,2,12,0.80,306.55,M,-33.324,M,,*71
2017-12-29 14:56:14 1514577374.393521: $GPRMC,195615,A,3946.9561,N,08404.9823,W,0.0000,0.000,291217,,*35
2017-12-29 14:56:14 1514577374.393585: $GPGSA,A,3,1,3,10,26,12,14,18,22,25,31,32,138,1.7,0.8,1.3*08
2017-12-29 14:56:15 1514577375.732694: $GPGSV,3,1,12,01,22,291,38,03,08,316,40,10,38,151,48,26,11,180,25*7A
2017-12-29 14:56:15 1514577375.732853: $GPGSV,3,2,12,12,18,042,43,14,69,349,43,18,09,147,32,22,27,310,42*71
2017-12-29 14:56:15 1514577375.732919: $GPGSV,3,3,12,25,41,078,51,31,67,235,46,32,64,052,51,138,38,213,44*47
2017-12-29 14:56:15 1514577375.846371: $GPZDA,195616.00,29,12,2017,00,00*66
2017-12-29 14:56:15 1514577375.846545: $GPGGA,195616,3946.9561,N,08404.9823,W,2,12,0.80,306.55,M,-33.324,M,,*72
2017-12-29 14:56:15 1514577375.846614: $GPRMC,195616,A,3946.9561,N,08404.9823,W,0.0000,0.000,291217,,*36
2017-12-29 14:56:15 1514577375.846676: $GPGSA,A,3,1,3,10,26,12,14,18,22,25,31,32,138,1.7,0.8,1.3*08
2017-12-29 14:56:16 1514577376.397272: $GPZDA,195617.00,29,12,2017,00,00*67
2017-12-29 14:56:16 1514577376.397441: $GPGGA,195617,3946.9561,N,08404.9823,W,2,12,0.80,306.55,M,-33.324,M,,*73
2017-12-29 14:56:16 1514577376.397511: $GPRMC,195617,A,3946.9561,N,08404.9823,W,0.0000,0.000,291217,,*37
2017-12-29 14:56:16 1514577376.397572: $GPGSA,A,3,1,3,10,26,12,14,18,22,25,31,32,138,1.7,0.8,1.3*08
