2017-11-16 13:23:19 1510856599.551603: {"class":"VERSION","release":"3.17","rev":"3.17","proto_major":3,"proto_minor":12}
2017-11-16 13:23:19 1510856599.552135: {"class":"DEVICES","devices":[{"class":"DEVICE","path":"/dev/ttyUSB0","driver":"SiRF","subtype":"9\u0006GSD4e_4.1.2-P1_RPATCH.05-F-GPS-4R-1510281 11/03/2015 307","activated":"2017-11-16T18:23:19.437Z","flags":1,"native":1,"bps":4800,"parity":"N","stopbits":1,"cycle":1.00}]}
2017-11-16 13:23:19 1510856599.552268: {"class":"WATCH","enable":true,"json":false,"nmea":true,"raw":0,"scaled":false,"timing":false,"split24":false,"pps":false}
2017-11-16 13:23:20 1510856600.279753: $GPZDA,182319.00,16,11,2017,00,00*65
2017-11-16 13:23:20 1510856600.279919: $GPGGA,182319,3946.9610,N,08404.9852,W,2,11,0.80,301.84,M,-33.324,M,,*75
2017-11-16 13:23:20 1510856600.279980: $GPRMC,182319,A,3946.9610,N,08404.9852,W,0.0000,0.000,161117,,*36
2017-11-16 13:23:20 1510856600.280035: $GPGSA,A,3,10,13,15,18,20,21,24,27,29,32,138,,1.6,0.8,1.3*03
2017-11-16 13:23:21 1510856601.636675: $GPGSV,3,1,12,10,24,283,45,13,28,045,45,15,59,051,50,18,55,301,47*7E
2017-11-16 13:23:21 1510856601.636847: $GPGSV,3,2,12,20,50,073,48,21,78,264,46,24,35,138,40,27,17,312,43*70
2017-11-16 13:23:21 1510856601.636908: $GPGSV,3,3,12,05,03,088,00,29,08,189,33,32,02,226,25,138,38,213,46*4E
2017-11-16 13:23:21 1510856601.750057: $GPZDA,182320.00,16,11,2017,00,00*6F
2017-11-16 13:23:21 1510856601.750210: $GPGGA,182320,3946.9610,N,08404.9852,W,2,11,0.80,301.84,M,-33.324,M,,*7F
2017-11-16 13:23:21 1510856601.750271: $GPRMC,182320,A,3946.9610,N,08404.9852,W,0.0000,0.000,161117,,*3C
2017-11-16 13:23:21 1510856601.750381: $GPGSA,A,3,10,13,15,18,20,21,24,27,29,32,138,,1.6,0.8,1.3*03
2017-11-16 13:23:22 1510856602.280990: $GPZDA,182321.00,16,11,2017,00,00*6E
2017-11-16 13:23:22 1510856602.281186: $GPGGA,182321,3946.9614,N,08404.9852,W,2,11,0.80,302.48,M,-33.324,M,,*79
2017-11-16 13:23:22 1510856602.281247: $GPRMC,182321,A,3946.9614,N,08404.9852,W,0.0000,0.000,161117,,*39
2017-11-16 13:23:22 1510856602.281303: $GPGSA,A,3,10,13,15,18,20,21,24,27,29,32,138,,1.6,0.8,1.3*03
2017-11-16 13:23:23 1510856603.299212: $GPZDA,182322.00,16,11,2017,00,00*6D
2017-11-16 13:23:23 1510856603.299366: $GPGGA,182322,3946.9614,N,08404.9852,W,2,11,0.80,302.48,M,-33.324,M,,*7A
2017-11-16 13:23:23 1510856603.299428: $GPRMC,182322,A,3946.9614,N,08404.9852,W,0.0000,0.000,161117,,*3A
2017-11-16 13:23:23 1510856603.299484: $GPGSA,A,3,10,13,15,18,20,21,24,27,29,32,138,,1.6,0.8,1.3*03
2017-11-16 13:23:24 1510856604.609885: $GPGSV,3,1,12,10,24,283,46,13,28,045,45,15,59,051,50,18,55,301,47*7D
2017-11-16 13:23:24 1510856604.610072: $GPGSV,3,2,12,20,50,073,48,21,78,264,46,24,35,138,39,27,17,312,43*7E
2017-11-16 13:23:24 1510856604.610132: $GPGSV,3,3,12,05,03,088,00,29,08,189,31,32,02,226,26,138,38,213,45*4C
2017-11-16 13:23:24 1510856604.723276: $GPZDA,182323.00,16,11,2017,00,00*6C
2017-11-16 13:23:24 1510856604.723442: $GPGGA,182323,3946.9614,N,08404.9852,W,2,11,0.80,302.48,M,-33.324,M,,*7B
2017-11-16 13:23:24 1510856604.723502: $GPRMC,182323,A,3946.9614,N,08404.9852,W,0.0000,0.000,161117,,*3B
2017-11-16 13:23:24 1510856604.723558: $GPGSA,A,3,10,13,15,18,20,21,24,27,29,32,138,,1.6,0.8,1.3*03
2017-11-16 13:23:25 1510856605.348596: $GPZDA,182324.00,16,11,2017,00,00*6B
2017-11-16 13:23:25 1510856605.348761: $GPGGA,182324,3946.9614,N,08404.9852,W,2,11,0.80,302.48,M,-33.324,M,,*7C
2017-11-16 13:23:25 1510856605.348842: $GPRMC,182324,A,3946.9614,N,08404.9852,W,0.0000,0.000,161117,,*3C
2017-11-16 13:23:25 1510856605.348898: $GPGSA,A,3,10,13,15,18,20,21,24,27,29,32,138,,1.6,0.8,1.3*03
2017-11-16 13:23:26 1510856606.299413: $GPZDA,182325.00,16,11,2017,00,00*6A
2017-11-16 13:23:26 1510856606.299589: $GPGGA,182325,3946.9614,N,08404.9852,W,2,11,0.80,302.48,M,-33.324,M,,*7D
2017-11-16 13:23:26 1510856606.299651: $GPRMC,182325,A,3946.9614,N,08404.9852,W,0.0000,0.000,161117,,*3D
2017-11-16 13:23:26 1510856606.299706: $GPGSA,A,3,10,13,15,18,20,21,24,27,29,32,138,,1.6,0.8,1.3*03
2017-11-16 13:23:27 1510856607.616375: $GPGSV,3,1,12,10,24,283,45,13,28,045,45,15,59,051,50,18,55,301,47*7E
2017-11-16 13:23:27 1510856607.616616: $GPGSV,3,2,12,20,50,073,48,21,78,264,46,24,35,138,39,27,17,312,43*7E
2017-11-16 13:23:27 1510856607.616706: $GPGSV,3,3,12,05,03,088,00,29,08,189,29,32,02,226,27,138,38,213,44*45
2017-11-16 13:23:27 1510856607.729772: $GPZDA,182326.00,16,11,2017,00,00*69
2017-11-16 13:23:27 1510856607.729958: $GPGGA,182326,3946.9614,N,08404.9852,W,2,11,0.80,302.48,M,-33.324,M,,*7E
2017-11-16 13:23:27 1510856607.730019: $GPRMC,182326,A,3946.9614,N,08404.9852,W,0.0000,0.000,161117,,*3E
2017-11-16 13:23:27 1510856607.730075: $GPGSA,A,3,10,13,15,18,20,21,24,27,29,32,138,,1.6,0.8,1.3*03
2017-11-16 13:23:28 1510856608.289508: $GPZDA,182327.00,16,11,2017,00,00*68
2017-11-16 13:23:28 1510856608.289730: $GPGGA,182327,3946.9614,N,08404.9845,W,2,11,0.80,302.56,M,-33.324,M,,*76
2017-11-16 13:23:28 1510856608.289826: $GPRMC,182327,A,3946.9614,N,08404.9845,W,0.0000,0.000,161117,,*39
2017-11-16 13:23:28 1510856608.289891: $GPGSA,A,3,10,13,15,18,20,21,24,27,29,32,138,,1.6,0.8,1.3*03
2017-11-16 13:23:29 1510856609.300114: $GPZDA,182328.00,16,11,2017,00,00*67
2017-11-16 13:23:29 1510856609.300276: $GPGGA,182328,3946.9614,N,08404.9845,W,2,11,0.80,302.56,M,-33.324,M,,*79
2017-11-16 13:23:29 1510856609.300396: $GPRMC,182328,A,3946.9614,N,08404.9845,W,0.0000,0.000,161117,,*36
2017-11-16 13:23:29 1510856609.300455: $GPGSA,A,3,10,13,15,18,20,21,24,27,29,32,138,,1.6,0.8,1.3*03
2017-11-16 13:23:30 1510856610.615909: $GPGSV,3,1,12,10,24,283,44,13,28,045,45,15,59,051,50,18,55,301,46*7E
2017-11-16 13:23:30 1510856610.616098: $GPGSV,3,2,12,20,50,073,48,21,78,264,46,24,35,138,39,27,17,312,43*7E
2017-11-16 13:23:30 1510856610.616180: $GPGSV,3,3,12,05,03,088,00,29,08,189,28,32,02,226,28,138,38,213,44*4B
2017-11-16 13:23:30 1510856610.729010: $GPZDA,182329.00,16,11,2017,00,00*66
2017-11-16 13:23:30 1510856610.729188: $GPGGA,182329,3946.9614,N,08404.9845,W,2,11,0.80,302.56,M,-33.324,M,,*78
2017-11-16 13:23:30 1510856610.729249: $GPRMC,182329,A,3946.9614,N,08404.9845,W,0.0000,0.000,161117,,*37
2017-11-16 13:23:30 1510856610.729305: $GPGSA,A,3,10,13,15,18,20,21,24,27,29,32,138,,1.6,0.8,1.3*03
2017-11-16 13:23:31 1510856611.289995: $GPZDA,182330.00,16,11,2017,00,00*6E
2017-11-16 13:23:31 1510856611.290154: $GPGGA,182330,3946.9614,N,08404.9845,W,2,11,0.80,302.56,M,-33.324,M,,*70
2017-11-16 13:23:31 1510856611.290215: $GPRMC,182330,A,3946.9614,N,08404.9845,W,0.0000,0.000,161117,,*3F
2017-11-16 13:23:31 1510856611.290272: $GPGSA,A,3,10,13,15,18,20,21,24,27,29,32,138,,1.6,0.8,1.3*03
2017-11-16 13:23:32 1510856612.293287: $GPZDA,182331.00,16,11,2017,00,00*6F
2017-11-16 13:23:32 1510856612.293461: $GPGGA,182331,3946.9614,N,08404.9845,W,2,11,0.80,302.56,M,-33.324,M,,*71
2017-11-16 13:23:32 1510856612.293524: $GPRMC,182331,A,3946.9614,N,08404.9845,W,0.0000,0.000,161117,,*3E
2017-11-16 13:23:32 1510856612.293596: $GPGSA,A,3,10,13,15,18,20,21,24,27,29,32,138,,1.6,0.8,1.3*03
2017-11-16 13:23:33 1510856613.616261: $GPGSV,3,1,12,10,24,283,44,13,28,045,45,15,59,051,50,18,55,301,47*7F
2017-11-16 13:23:33 1510856613.616472: $GPGSV,3,2,12,20,50,073,48,21,78,264,46,24,35,138,40,27,17,312,43*70
2017-11-16 13:23:33 1510856613.616568: $GPGSV,3,3,12,05,03,088,00,29,08,189,28,32,02,226,28,138,38,213,45*4A
2017-11-16 13:23:33 1510856613.729434: $GPZDA,182332.00,16,11,2017,00,00*6C
2017-11-16 13:23:33 1510856613.729619: $GPGGA,182332,3946.9614,N,08404.9845,W,2,11,0.80,302.56,M,-33.324,M,,*72
2017-11-16 13:23:33 1510856613.729682: $GPRMC,182332,A,3946.9614,N,08404.9845,W,0.0000,0.000,161117,,*3D
2017-11-16 13:23:33 1510856613.729739: $GPGSA,A,3,10,13,15,18,20,21,24,27,29,32,138,,1.6,0.8,1.3*03
2017-11-16 13:23:34 1510856614.290260: $GPZDA,182333.00,16,11,2017,00,00*6D
2017-11-16 13:23:34 1510856614.290707: $GPGGA,182333,3946.9614,N,08404.9845,W,2,11,0.80,302.56,M,-33.324,M,,*73
2017-11-16 13:23:34 1510856614.290832: $GPRMC,182333,A,3946.9614,N,08404.9845,W,0.0000,0.000,161117,,*3C
2017-11-16 13:23:34 1510856614.290944: $GPGSA,A,3,10,13,15,18,20,21,24,27,29,32,138,,1.6,0.8,1.3*03
