2017-12-01 14:35:18 1512156918.667310: {"class":"VERSION","release":"3.16","rev":"3.16-4","proto_major":3,"proto_minor":11}
2017-12-01 14:35:18 1512156918.667678: {"class":"DEVICES","devices":[{"class":"DEVICE","path":"/dev/ttyUSB0","driver":"SiRF","subtype":"9\u0006GSD4e_4.1.2-P1_RPATCH.05-F-GPS-4R-1510281 11/03/2015 307","activated":"2017-12-01T19:35:18.488Z","flags":1,"native":1,"bps":4800,"parity":"N","stopbits":1,"cycle":1.00}]}
2017-12-01 14:35:18 1512156918.667793: {"class":"WATCH","enable":true,"json":false,"nmea":true,"raw":0,"scaled":false,"timing":false,"split24":false,"pps":false}
2017-12-01 14:35:19 1512156919.341773: $GPZDA,193520.00,01,12,2017,00,00*6C
2017-12-01 14:35:19 1512156919.341936: $GPGGA,193520,3946.9585,N,08404.9858,W,2,12,1.40,296.51,M,-33.324,M,,*75
2017-12-01 14:35:19 1512156919.342005: $GPRMC,193520,A,3946.9585,N,08404.9858,W,0.0000,0.000,011217,,*3A
2017-12-01 14:35:19 1512156919.342066: $GPGSA,A,3,10,12,14,18,21,24,32,31,25,20,15,138,2.0,1.4,1.5*02
2017-12-01 14:35:20 1512156920.680891: $GPGSV,3,1,12,10,74,340,47,12,12,103,32,14,33,258,42,18,66,105,45*7D
2017-12-01 14:35:20 1512156920.681070: $GPGSV,3,2,12,21,23,178,45,24,41,054,48,32,50,271,45,31,04,204,35*7F
2017-12-01 14:35:20 1512156920.681137: $GPGSV,3,3,12,25,06,138,22,20,05,121,24,08,04,289,31,138,38,213,47*4D
2017-12-01 14:35:20 1512156920.794588: $GPZDA,193521.00,01,12,2017,00,00*6D
2017-12-01 14:35:20 1512156920.794764: $GPGGA,193521,3946.9585,N,08404.9858,W,2,12,1.40,296.51,M,-33.324,M,,*74
2017-12-01 14:35:20 1512156920.794831: $GPRMC,193521,A,3946.9585,N,08404.9858,W,0.0000,0.000,011217,,*3B
2017-12-01 14:35:20 1512156920.794893: $GPGSA,A,3,10,12,14,18,21,24,32,31,25,20,8,138,2.0,1.4,1.5*3E
2017-12-01 14:35:21 1512156921.419958: $GPZDA,193522.00,01,12,2017,00,00*6E
2017-12-01 14:35:21 1512156921.420120: $GPGGA,193522,3946.9585,N,08404.9858,W,2,12,1.40,296.51,M,-33.324,M,,*77
2017-12-01 14:35:21 1512156921.420187: $GPRMC,193522,A,3946.9585,N,08404.9858,W,0.0000,0.000,011217,,*38
2017-12-01 14:35:21 1512156921.420250: $GPGSA,A,3,10,12,14,18,21,24,32,31,25,20,8,138,2.0,1.4,1.5*3E
2017-12-01 14:35:22 1512156922.347137: $GPZDA,193523.00,01,12,2017,00,00*6F
2017-12-01 14:35:22 1512156922.347308: $GPGGA,193523,3946.9585,N,08404.9858,W,2,12,1.40,296.51,M,-33.324,M,,*76
2017-12-01 14:35:22 1512156922.347374: $GPRMC,193523,A,3946.9585,N,08404.9858,W,0.0000,0.000,011217,,*39
2017-12-01 14:35:22 1512156922.347435: $GPGSA,A,3,10,12,14,18,21,24,32,31,25,20,8,138,2.0,1.4,1.5*3E
2017-12-01 14:35:23 1512156923.682471: $GPGSV,3,1,12,10,74,340,47,12,12,103,33,14,33,258,42,18,66,105,45*7C
2017-12-01 14:35:23 1512156923.682661: $GPGSV,3,2,12,21,23,178,45,24,41,054,48,32,50,271,44,31,04,204,35*7E
2017-12-01 14:35:23 1512156923.682727: $GPGSV,3,3,12,25,06,138,22,20,05,121,24,08,04,289,30,138,38,213,47*4C
2017-12-01 14:35:23 1512156923.795829: $GPZDA,193524.00,01,12,2017,00,00*68
2017-12-01 14:35:23 1512156923.795972: $GPGGA,193524,3946.9585,N,08404.9858,W,2,12,1.40,296.51,M,-33.324,M,,*71
2017-12-01 14:35:23 1512156923.796040: $GPRMC,193524,A,3946.9585,N,08404.9858,W,0.0000,0.000,011217,,*3E
2017-12-01 14:35:23 1512156923.796101: $GPGSA,A,3,10,12,14,18,21,24,32,31,25,20,8,138,2.0,1.4,1.5*3E
2017-12-01 14:35:24 1512156924.349728: $GPZDA,193525.00,01,12,2017,00,00*69
2017-12-01 14:35:24 1512156924.349906: $GPGGA,193525,3946.9585,N,08404.9858,W,2,12,1.40,296.51,M,-33.324,M,,*70
2017-12-01 14:35:24 1512156924.349971: $GPRMC,193525,A,3946.9585,N,08404.9858,W,0.0000,0.000,011217,,*3F
2017-12-01 14:35:24 1512156924.350031: $GPGSA,A,3,10,12,14,18,21,24,32,31,25,20,8,138,2.0,1.4,1.5*3E
2017-12-01 14:35:25 1512156925.347878: $GPZDA,193526.00,01,12,2017,00,00*6A
2017-12-01 14:35:25 1512156925.348043: $GPGGA,193526,3946.9585,N,08404.9858,W,2,12,1.40,296.51,M,-33.324,M,,*73
2017-12-01 14:35:25 1512156925.348109: $GPRMC,193526,A,3946.9585,N,08404.9858,W,0.0000,0.000,011217,,*3C
2017-12-01 14:35:25 1512156925.348170: $GPGSA,A,3,10,12,14,18,21,24,32,31,25,20,8,138,2.0,1.4,1.5*3E
2017-12-01 14:35:26 1512156926.682802: $GPGSV,3,1,12,10,74,340,47,12,12,103,34,14,33,258,42,18,66,105,45*7B
2017-12-01 14:35:26 1512156926.683036: $GPGSV,3,2,12,21,23,178,45,24,41,054,48,32,50,271,45,31,04,204,35*7F
2017-12-01 14:35:26 1512156926.683106: $GPGSV,3,3,12,25,06,138,23,20,05,121,24,08,04,289,30,138,38,213,47*4D
2017-12-01 14:35:26 1512156926.796215: $GPZDA,193527.00,01,12,2017,00,00*6B
2017-12-01 14:35:26 1512156926.796371: $GPGGA,193527,3946.9585,N,08404.9858,W,2,12,1.40,296.51,M,-33.324,M,,*72
2017-12-01 14:35:26 1512156926.796436: $GPRMC,193527,A,3946.9585,N,08404.9858,W,0.0000,0.000,011217,,*3D
2017-12-01 14:35:26 1512156926.796496: $GPGSA,A,3,10,12,14,18,21,24,32,31,25,20,8,138,2.0,1.4,1.5*3E
2017-12-01 14:35:27 1512156927.349859: $GPZDA,193528.00,01,12,2017,00,00*64
2017-12-01 14:35:27 1512156927.350020: $GPGGA,193528,3946.9585,N,08404.9858,W,2,12,1.40,296.51,M,-33.324,M,,*7D
2017-12-01 14:35:27 1512156927.350087: $GPRMC,193528,A,3946.9585,N,08404.9858,W,0.0000,0.000,011217,,*32
2017-12-01 14:35:27 1512156927.350148: $GPGSA,A,3,10,12,14,18,21,24,32,31,25,20,8,138,2.0,1.4,1.5*3E
2017-12-01 14:35:28 1512156928.345881: $GPZDA,193529.00,01,12,2017,00,00*65
2017-12-01 14:35:29 1512156929.269537: $GPGGA,193529,3946.9585,N,08404.9858,W,2,12,1.40,296.51,M,-33.324,M,,*7C
2017-12-01 14:35:29 1512156929.269705: $GPRMC,193529,A,3946.9585,N,08404.9858,W,0.0000,0.000,011217,,*33
2017-12-01 14:35:29 1512156929.269772: $GPGSA,A,3,10,12,14,18,21,24,32,31,25,20,8,138,2.0,1.4,1.5*3E
2017-12-01 14:35:29 1512156929.681199: $GPGSV,3,1,12,10,74,340,47,12,12,103,35,14,33,258,42,18,66,105,45*7A
2017-12-01 14:35:29 1512156929.681540: $GPGSV,3,2,12,21,23,178,44,24,41,054,48,32,50,271,45,31,04,204,35*7E
2017-12-01 14:35:29 1512156929.681620: $GPGSV,3,3,12,25,06,138,23,20,05,121,24,15,07,069,21,138,38,213,46*4F
2017-12-01 14:35:29 1512156929.794576: $GPZDA,193530.00,01,12,2017,00,00*6D
2017-12-01 14:35:29 1512156929.794727: $GPGGA,193530,3946.9585,N,08404.9858,W,2,11,1.40,296.51,M,-33.324,M,,*77
2017-12-01 14:35:29 1512156929.794794: $GPRMC,193530,A,3946.9585,N,08404.9858,W,0.0000,0.000,011217,,*3B
2017-12-01 14:35:29 1512156929.794855: $GPGSA,A,3,10,12,14,18,21,24,32,31,25,20,138,,2.0,1.4,1.5*06
2017-12-01 14:35:30 1512156930.346980: $GPZDA,193531.00,01,12,2017,00,00*6C
2017-12-01 14:35:30 1512156930.347153: $GPGGA,193531,3946.9585,N,08404.9858,W,2,11,1.40,296.51,M,-33.324,M,,*76
2017-12-01 14:35:30 1512156930.347220: $GPRMC,193531,A,3946.9585,N,08404.9858,W,0.0000,0.000,011217,,*3A
2017-12-01 14:35:30 1512156930.347281: $GPGSA,A,3,10,12,14,18,21,24,32,31,25,20,138,,2.0,1.4,1.5*06
2017-12-01 14:35:31 1512156931.347352: $GPZDA,193532.00,01,12,2017,00,00*6F
2017-12-01 14:35:31 1512156931.347521: $GPGGA,193532,3946.9585,N,08404.9858,W,2,11,1.40,296.51,M,-33.324,M,,*75
2017-12-01 14:35:31 1512156931.347588: $GPRMC,193532,A,3946.9585,N,08404.9858,W,0.0000,0.000,011217,,*39
2017-12-01 14:35:31 1512156931.347648: $GPGSA,A,3,10,12,14,18,21,24,32,31,25,20,138,,2.0,1.4,1.5*06
2017-12-01 14:35:32 1512156932.674066: $GPGSV,3,1,12,10,74,340,48,12,12,103,36,14,33,258,42,18,66,105,45*76
2017-12-01 14:35:32 1512156932.674247: $GPGSV,3,2,12,21,23,178,44,24,41,054,48,32,50,271,45,31,04,204,35*7E
2017-12-01 14:35:32 1512156932.674314: $GPGSV,3,3,12,25,06,138,23,20,05,121,24,15,07,069,14,138,38,213,46*49
2017-12-01 14:35:32 1512156932.787630: $GPZDA,193533.00,01,12,2017,00,00*6E
2017-12-01 14:35:32 1512156932.787788: $GPGGA,193533,3946.9585,N,08404.9858,W,2,12,1.40,296.51,M,-33.324,M,,*77
2017-12-01 14:35:32 1512156932.787853: $GPRMC,193533,A,3946.9585,N,08404.9858,W,0.0000,0.000,011217,,*38
2017-12-01 14:35:32 1512156932.787914: $GPGSA,A,3,10,12,14,18,21,24,32,31,25,20,15,138,2.0,1.4,1.5*02
2017-12-01 14:35:33 1512156933.382147: $GPZDA,193534.00,01,12,2017,00,00*69
2017-12-01 14:35:33 1512156933.388622: $GPGGA,193534,3946.9585,N,08404.9858,W,2,12,1.40,296.51,M,-33.324,M,,*70
2017-12-01 14:35:33 1512156933.388745: $GPRMC,193534,A,3946.9585,N,08404.9858,W,0.0000,0.000,011217,,*3F
2017-12-01 14:35:33 1512156933.388810: $GPGSA,A,3,10,12,14,18,21,24,32,31,25,20,15,138,2.0,1.4,1.5*02
2017-12-01 14:35:34 1512156934.383081: $GPZDA,193535.00,01,12,2017,00,00*68
2017-12-01 14:35:34 1512156934.383257: $GPGGA,193535,3946.9585,N,08404.9858,W,2,12,1.40,296.51,M,-33.324,M,,*71
2017-12-01 14:35:34 1512156934.383326: $GPRMC,193535,A,3946.9585,N,08404.9858,W,0.0000,0.000,011217,,*3E
2017-12-01 14:35:34 1512156934.383387: $GPGSA,A,3,10,12,14,18,21,24,32,31,25,20,15,138,2.0,1.4,1.5*02
2017-12-01 14:35:35 1512156935.681178: $GPGSV,3,1,12,10,74,340,48,12,12,103,36,14,33,258,42,18,66,105,45*76
2017-12-01 14:35:35 1512156935.681327: $GPGSV,3,2,12,21,23,178,44,24,41,054,48,32,50,271,44,31,04,204,35*7F
2017-12-01 14:35:35 1512156935.681474: $GPGSV,3,3,12,25,06,138,18,20,05,121,23,15,07,069,17,138,38,213,47*44
2017-12-01 14:35:35 1512156935.794582: $GPZDA,193536.00,01,12,2017,00,00*6B
2017-12-01 14:35:35 1512156935.794747: $GPGGA,193536,3946.9585,N,08404.9858,W,2,12,1.40,296.51,M,-33.324,M,,*72
2017-12-01 14:35:35 1512156935.794814: $GPRMC,193536,A,3946.9585,N,08404.9858,W,0.0000,0.000,011217,,*3D
2017-12-01 14:35:35 1512156935.794875: $GPGSA,A,3,10,12,14,18,21,24,32,31,25,20,15,138,2.0,1.4,1.5*02
2017-12-01 14:35:36 1512156936.420333: $GPZDA,193537.00,01,12,2017,00,00*6A
2017-12-01 14:35:36 1512156936.420502: $GPGGA,193537,3946.9585,N,08404.9858,W,2,12,1.40,296.51,M,-33.324,M,,*73
2017-12-01 14:35:36 1512156936.420568: $GPRMC,193537,A,3946.9585,N,08404.9858,W,0.0000,0.000,011217,,*3C
2017-12-01 14:35:36 1512156936.420649: $GPGSA,A,3,10,12,14,18,21,24,32,31,25,20,15,138,2.0,1.4,1.5*02
2017-12-01 14:35:37 1512156937.373363: $GPZDA,193538.00,01,12,2017,00,00*65
2017-12-01 14:35:37 1512156937.373537: $GPGGA,193538,3946.9585,N,08404.9858,W,2,12,1.40,296.51,M,-33.324,M,,*7C
2017-12-01 14:35:37 1512156937.373608: $GPRMC,193538,A,3946.9585,N,08404.9858,W,0.0000,0.000,011217,,*33
2017-12-01 14:35:37 1512156937.373670: $GPGSA,A,3,10,12,14,18,21,24,32,31,25,20,15,138,2.0,1.4,1.5*02
2017-12-01 14:35:38 1512156938.681564: $GPGSV,3,1,12,10,74,340,47,12,12,103,37,14,33,258,42,18,66,105,45*78
2017-12-01 14:35:38 1512156938.681750: $GPGSV,3,2,12,21,23,178,44,24,41,054,49,32,50,271,44,31,04,204,35*7E
2017-12-01 14:35:38 1512156938.681819: $GPGSV,3,3,12,25,06,138,16,20,05,121,23,15,07,069,17,138,38,213,48*45
2017-12-01 14:35:38 1512156938.794947: $GPZDA,193539.00,01,12,2017,00,00*64
2017-12-01 14:35:38 1512156938.795116: $GPGGA,193539,3946.9585,N,08404.9858,W,2,12,1.40,296.51,M,-33.324,M,,*7D
2017-12-01 14:35:38 1512156938.795182: $GPRMC,193539,A,3946.9585,N,08404.9858,W,0.0000,0.000,011217,,*32
2017-12-01 14:35:38 1512156938.795244: $GPGSA,A,3,10,12,14,18,21,24,32,31,25,20,15,138,2.0,1.4,1.5*02
2017-12-01 14:35:39 1512156939.382095: $GPZDA,193540.00,01,12,2017,00,00*6A
2017-12-01 14:35:39 1512156939.382268: $GPGGA,193540,3946.9585,N,08404.9858,W,2,12,1.40,296.51,M,-33.324,M,,*73
2017-12-01 14:35:39 1512156939.382336: $GPRMC,193540,A,3946.9585,N,08404.9858,W,0.0000,0.000,011217,,*3C
2017-12-01 14:35:39 1512156939.382398: $GPGSA,A,3,10,12,14,18,21,24,32,31,25,20,15,138,2.0,1.4,1.5*02
2017-12-01 14:35:40 1512156940.345809: $GPZDA,193541.00,01,12,2017,00,00*6B
2017-12-01 14:35:40 1512156940.345969: $GPGGA,193541,3946.9585,N,08404.9858,W,2,12,1.40,296.51,M,-33.324,M,,*72
2017-12-01 14:35:40 1512156940.346035: $GPRMC,193541,A,3946.9585,N,08404.9858,W,0.0000,0.000,011217,,*3D
2017-12-01 14:35:40 1512156940.346098: $GPGSA,A,3,10,12,14,18,21,24,32,31,25,20,15,138,2.0,1.4,1.5*02
2017-12-01 14:35:41 1512156941.718197: $GPGSV,3,1,12,10,74,340,47,12,12,103,38,14,33,258,42,18,66,105,45*77
2017-12-01 14:35:41 1512156941.718377: $GPGSV,3,2,12,21,23,178,45,24,41,054,48,32,50,271,44,31,04,204,35*7E
2017-12-01 14:35:41 1512156941.718462: $GPGSV,3,3,12,25,06,138,15,20,05,121,22,15,07,069,18,138,38,213,47*47
2017-12-01 14:35:41 1512156941.831777: $GPZDA,193542.00,01,12,2017,00,00*68
2017-12-01 14:35:41 1512156941.831952: $GPGGA,193542,3946.9585,N,08404.9858,W,2,12,1.40,296.51,M,-33.324,M,,*71
2017-12-01 14:35:41 1512156941.832021: $GPRMC,193542,A,3946.9585,N,08404.9858,W,0.0000,0.000,011217,,*3E
2017-12-01 14:35:41 1512156941.832082: $GPGSA,A,3,10,12,14,18,21,24,32,31,25,20,15,138,2.0,1.4,1.5*02
2017-12-01 14:35:42 1512156942.338883: $GPZDA,193543.00,01,12,2017,00,00*69
2017-12-01 14:35:42 1512156942.339053: $GPGGA,193543,3946.9585,N,08404.9858,W,2,12,1.40,296.51,M,-33.324,M,,*70
2017-12-01 14:35:42 1512156942.339120: $GPRMC,193543,A,3946.9585,N,08404.9858,W,0.0000,0.000,011217,,*3F
2017-12-01 14:35:42 1512156942.339181: $GPGSA,A,3,10,12,14,18,21,24,32,31,25,20,15,138,2.0,1.4,1.5*02
2017-12-01 14:35:43 1512156943.343498: $GPZDA,193544.00,01,12,2017,00,00*6E
2017-12-01 14:35:43 1512156943.343689: $GPGGA,193544,3946.9585,N,08404.9858,W,2,12,1.40,296.51,M,-33.324,M,,*77
2017-12-01 14:35:43 1512156943.343760: $GPRMC,193544,A,3946.9585,N,08404.9858,W,0.0000,0.000,011217,,*38
2017-12-01 14:35:43 1512156943.343824: $GPGSA,A,3,10,12,14,18,21,24,32,31,25,20,15,138,2.0,1.4,1.5*02
