2017-12-29 14:39:38 1514576378.322406: {"class":"VERSION","release":"3.16","rev":"3.16-4","proto_major":3,"proto_minor":11}
2017-12-29 14:39:38 1514576378.322763: {"class":"DEVICES","devices":[{"class":"DEVICE","path":"/dev/ttyUSB0","driver":"SiRF","subtype":"9\u0006GSD4e_4.1.2-P1_RPATCH.05-F-GPS-4R-1510281 11/03/2015 307","activated":"2017-12-29T19:39:38.275Z","flags":1,"native":1,"bps":4800,"parity":"N","stopbits":1,"cycle":1.00}]}
2017-12-29 14:39:38 1514576378.322935: {"class":"WATCH","enable":true,"json":false,"nmea":true,"raw":0,"scaled":false,"timing":false,"split24":false,"pps":false}
2017-12-29 14:39:38 1514576378.389126: $GPZDA,193939.00,29,12,2017,00,00*62
2017-12-29 14:39:38 1514576378.389291: $GPGGA,193939,3946.9575,N,08404.9848,W,2,11,0.80,301.77,M,-33.324,M,,*7A
2017-12-29 14:39:38 1514576378.389355: $GPRMC,193939,A,3946.9575,N,08404.9848,W,0.0000,0.000,291217,,*3A
2017-12-29 14:39:38 1514576378.389416: $GPGSA,A,3,1,10,12,14,18,22,25,31,32,11,138,,1.7,0.8,1.3*3F
2017-12-29 14:39:39 1514576379.724735: $GPGSV,3,1,12,01,22,300,38,10,46,148,51,12,21,049,44,14,66,328,43*7D
2017-12-29 14:39:39 1514576379.724919: $GPGSV,3,2,12,18,16,144,47,22,21,312,39,25,40,090,51,31,59,226,47*7B
2017-12-29 14:39:39 1514576379.724984: $GPGSV,3,3,12,32,67,034,48,11,08,282,39,26,04,181,00,138,38,213,42*44
2017-12-29 14:39:39 1514576379.838115: $GPZDA,193940.00,29,12,2017,00,00*6C
2017-12-29 14:39:39 1514576379.838239: $GPGGA,193940,3946.9575,N,08404.9848,W,2,11,0.80,301.77,M,-33.324,M,,*74
2017-12-29 14:39:39 1514576379.838303: $GPRMC,193940,A,3946.9575,N,08404.9848,W,0.0000,0.000,291217,,*34
2017-12-29 14:39:39 1514576379.838363: $GPGSA,A,3,1,10,12,14,18,22,25,31,32,11,138,,1.7,0.8,1.3*3F
2017-12-29 14:39:40 1514576380.463857: $GPZDA,193941.00,29,12,2017,00,00*6D
2017-12-29 14:39:40 1514576380.464014: $GPGGA,193941,3946.9575,N,08404.9848,W,2,11,0.80,301.77,M,-33.324,M,,*75
2017-12-29 14:39:40 1514576380.464081: $GPRMC,193941,A,3946.9575,N,08404.9848,W,0.0000,0.000,291217,,*35
2017-12-29 14:39:40 1514576380.464142: $GPGSA,A,3,1,10,12,14,18,22,25,31,32,11,138,,1.7,0.8,1.3*3F
2017-12-29 14:39:41 1514576381.389687: $GPZDA,193942.00,29,12,2017,00,00*6E
2017-12-29 14:39:41 1514576381.389857: $GPGGA,193942,3946.9575,N,08404.9848,W,2,11,0.80,301.77,M,-33.324,M,,*76
2017-12-29 14:39:41 1514576381.389924: $GPRMC,193942,A,3946.9575,N,08404.9848,W,0.0000,0.000,291217,,*36
2017-12-29 14:39:41 1514576381.389986: $GPGSA,A,3,1,10,12,14,18,22,25,31,32,11,138,,1.7,0.8,1.3*3F
2017-12-29 14:39:42 1514576382.726326: $GPGSV,3,1,12,01,22,300,38,10,46,148,51,12,21,049,44,14,66,328,42*7C
2017-12-29 14:39:42 1514576382.726506: $GPGSV,3,2,12,18,16,144,47,22,21,312,39,25,40,090,50,31,59,226,47*7A
2017-12-29 14:39:42 1514576382.726571: $GPGSV,3,3,12,32,67,034,48,11,08,282,39,03,02,316,23,138,38,213,44*4E
2017-12-29 14:39:42 1514576382.840044: $GPZDA,193943.00,29,12,2017,00,00*6F
2017-12-29 14:39:42 1514576382.840184: $GPGGA,193943,3946.9575,N,08404.9848,W,2,12,0.80,301.77,M,-33.324,M,,*74
2017-12-29 14:39:42 1514576382.840248: $GPRMC,193943,A,3946.9575,N,08404.9848,W,0.0000,0.000,291217,,*37
2017-12-29 14:39:42 1514576382.840308: $GPGSA,A,3,1,10,12,14,18,22,25,31,32,11,3,138,1.7,0.8,1.3*0C
2017-12-29 14:39:43 1514576383.393479: $GPZDA,193944.00,29,12,2017,00,00*68
2017-12-29 14:39:43 1514576383.393659: $GPGGA,193944,3946.9575,N,08404.9848,W,2,12,0.80,301.77,M,-33.324,M,,*73
2017-12-29 14:39:43 1514576383.393725: $GPRMC,193944,A,3946.9575,N,08404.9848,W,0.0000,0.000,291217,,*30
2017-12-29 14:39:43 1514576383.393786: $GPGSA,A,3,1,10,12,14,18,22,25,31,32,11,3,138,1.7,0.8,1.3*0C
2017-12-29 14:39:44 1514576384.400518: $GPZDA,193945.00,29,12,2017,00,00*69
2017-12-29 14:39:44 1514576384.400691: $GPGGA,193945,3946.9575,N,08404.9848,W,2,12,0.80,301.77,M,-33.324,M,,*72
2017-12-29 14:39:44 1514576384.400759: $GPRMC,193945,A,3946.9575,N,08404.9848,W,0.0000,0.000,291217,,*31
2017-12-29 14:39:44 1514576384.400820: $GPGSA,A,3,1,10,12,14,18,22,25,31,32,11,3,138,1.7,0.8,1.3*0C
2017-12-29 14:39:45 1514576385.724254: $GPGSV,3,1,12,01,22,300,37,10,46,148,51,12,21,049,44,14,66,328,43*72
2017-12-29 14:39:45 1514576385.724470: $GPGSV,3,2,12,18,16,144,47,22,21,312,40,25,40,090,51,31,59,226,47*75
2017-12-29 14:39:45 1514576385.724538: $GPGSV,3,3,12,32,67,034,48,11,08,282,39,26,04,181,00,138,38,213,42*44
2017-12-29 14:39:45 1514576385.837622: $GPZDA,193946.00,29,12,2017,00,00*6A
2017-12-29 14:39:45 1514576385.837800: $GPGGA,193946,3946.9575,N,08404.9841,W,2,11,0.80,301.85,M,-33.324,M,,*76
2017-12-29 14:39:45 1514576385.837868: $GPRMC,193946,A,3946.9575,N,08404.9841,W,0.0000,0.000,291217,,*3B
2017-12-29 14:39:45 1514576385.837929: $GPGSA,A,3,1,10,12,14,18,22,25,31,32,11,138,,1.7,0.8,1.3*3F
2017-12-29 14:39:46 1514576386.356032: $GPZDA,193947.00,29,12,2017,00,00*6B
2017-12-29 14:39:46 1514576386.356191: $GPGGA,193947,3946.9575,N,08404.9841,W,2,11,0.80,301.85,M,-33.324,M,,*77
2017-12-29 14:39:46 1514576386.356257: $GPRMC,193947,A,3946.9575,N,08404.9841,W,0.0000,0.000,291217,,*3A
2017-12-29 14:39:46 1514576386.356317: $GPGSA,A,3,1,10,12,14,18,22,25,31,32,11,138,,1.7,0.8,1.3*3F
2017-12-29 14:39:47 1514576387.355960: $GPZDA,193948.00,29,12,2017,00,00*64
2017-12-29 14:39:47 1514576387.356135: $GPGGA,193948,3946.9575,N,08404.9841,W,2,11,0.80,301.85,M,-33.324,M,,*78
2017-12-29 14:39:47 1514576387.356201: $GPRMC,193948,A,3946.9575,N,08404.9841,W,0.0000,0.000,291217,,*35
2017-12-29 14:39:47 1514576387.356262: $GPGSA,A,3,1,10,12,14,18,22,25,31,32,11,138,,1.7,0.8,1.3*3F
