2017-12-01 14:35:49 1512156949.307714: {"class":"VERSION","release":"3.16","rev":"3.16-4","proto_major":3,"proto_minor":11}
2017-12-01 14:35:49 1512156949.308121: {"class":"DEVICES","devices":[{"class":"DEVICE","path":"/dev/ttyUSB0","driver":"SiRF","subtype":"9\u0006GSD4e_4.1.2-P1_RPATCH.05-F-GPS-4R-1510281 11/03/2015 307","activated":"2017-12-01T19:35:48.912Z","flags":1,"native":1,"bps":4800,"parity":"N","stopbits":1,"cycle":1.00}]}
2017-12-01 14:35:49 1512156949.308256: {"class":"WATCH","enable":true,"json":false,"nmea":true,"raw":0,"scaled":false,"timing":false,"split24":false,"pps":false}
2017-12-01 14:35:49 1512156949.937983: $GPZDA,193550.62,01,12,2017,00,00*6F
2017-12-01 14:35:49 1512156949.938155: $GPGGA,193550,3946.9592,N,08404.9856,W,1,12,1.40,318.50,M,-33.324,M,,*7F
2017-12-01 14:35:49 1512156949.938221: $GPRMC,193550,A,3946.9592,N,08404.9856,W,0.0407,142.014,011217,,*34
2017-12-01 14:35:49 1512156949.938283: $GPGSA,A,3,10,12,14,18,21,24,32,31,25,20,8,138,2.0,1.4,1.5*3E
2017-12-01 14:35:49 1512156949.938343: $GPGBS,193550,10.70,M,15.43,M,35.28,M*0C
2017-12-01 14:35:51 1512156951.088379: $GPZDA,193551.30,01,12,2017,00,00*69
2017-12-01 14:35:51 1512156951.088555: $GPGGA,193551,3946.9591,N,08404.9855,W,1,12,1.40,317.10,M,-33.324,M,,*75
2017-12-01 14:35:51 1512156951.088625: $GPRMC,193551,A,3946.9591,N,08404.9855,W,0.0000,0.000,011217,,*34
2017-12-01 14:35:51 1512156951.088689: $GPGSA,A,3,10,12,14,18,21,24,32,31,25,20,8,138,2.0,1.4,1.5*3E
2017-12-01 14:35:52 1512156952.299447: $GPGSV,3,1,12,10,74,340,47,12,13,102,37,14,33,258,40,18,66,105,46*79
2017-12-01 14:35:52 1512156952.299636: $GPGSV,3,2,12,21,23,178,44,24,40,054,48,32,50,273,44,15,07,069,07*71
2017-12-01 14:35:52 1512156952.299704: $GPGSV,3,3,12,20,04,121,07,25,07,138,06,31,04,204,09,138,38,213,00*4D
2017-12-01 14:35:52 1512156952.413323: $GPZDA,193552.00,01,12,2017,00,00*69
2017-12-01 14:35:52 1512156952.413517: $GPGGA,193552,3946.9587,N,08404.9855,W,1,08,1.40,316.46,M,-33.324,M,,*78
2017-12-01 14:35:52 1512156952.413588: $GPRMC,193552,A,3946.9587,N,08404.9855,W,0.1867,180.000,011217,,*31
2017-12-01 14:35:52 1512156952.413649: $GPGSA,A,3,10,12,14,18,21,24,32,31,,,,,2.0,1.4,1.5*39
2017-12-01 14:35:52 1512156952.865318: $GPZDA,193553.00,01,12,2017,00,00*68
2017-12-01 14:35:52 1512156952.865496: $GPGGA,193553,3946.9586,N,08404.9854,W,1,08,1.00,315.05,M,-33.324,M,,*79
2017-12-01 14:35:52 1512156952.865566: $GPRMC,193553,A,3946.9586,N,08404.9854,W,0.1867,180.000,011217,,*30
2017-12-01 14:35:52 1512156952.865626: $GPGSA,A,3,10,12,14,18,21,24,32,31,,,,,2.0,1.0,1.5*3D
2017-12-01 14:35:53 1512156953.333310: $GPZDA,193554.00,01,12,2017,00,00*6F
2017-12-01 14:35:53 1512156953.333486: $GPGGA,193554,3946.9585,N,08404.9853,W,1,08,1.20,313.65,M,-33.324,M,,*78
2017-12-01 14:35:53 1512156953.333554: $GPRMC,193554,A,3946.9585,N,08404.9853,W,0.0000,0.000,011217,,*32
2017-12-01 14:35:53 1512156953.333617: $GPGSA,A,3,10,12,14,18,21,24,32,31,,,,,2.0,1.2,1.5*3F
2017-12-01 14:35:54 1512156954.677259: $GPGSV,3,1,12,10,74,340,47,12,13,102,38,14,33,258,41,18,66,105,46*77
2017-12-01 14:35:54 1512156954.677463: $GPGSV,3,2,12,21,23,178,44,24,40,054,48,32,50,273,43,15,07,069,00*71
2017-12-01 14:35:54 1512156954.677534: $GPGSV,3,3,12,20,04,121,24,25,07,138,21,31,04,204,31,138,38,213,47*41
2017-12-01 14:35:54 1512156954.790611: $GPZDA,193555.00,01,12,2017,00,00*6E
2017-12-01 14:35:54 1512156954.790767: $GPGGA,193555,3946.9581,N,08404.9860,W,1,11,1.20,312.93,M,-33.324,M,,*7D
2017-12-01 14:35:54 1512156954.790840: $GPRMC,193555,A,3946.9581,N,08404.9860,W,0.0000,0.000,011217,,*37
2017-12-01 14:35:54 1512156954.790904: $GPGSA,A,3,10,12,14,18,21,24,32,20,25,31,138,,2.0,1.2,1.5*00
2017-12-01 14:35:55 1512156955.331698: $GPZDA,193556.00,01,12,2017,00,00*6D
2017-12-01 14:35:55 1512156955.331887: $GPGGA,193556,3946.9581,N,08404.9860,W,1,11,1.20,311.53,M,-33.324,M,,*71
2017-12-01 14:35:55 1512156955.331962: $GPRMC,193556,A,3946.9581,N,08404.9860,W,0.0000,0.000,011217,,*34
2017-12-01 14:35:55 1512156955.332027: $GPGSA,A,3,10,12,14,18,21,24,32,20,25,31,138,,2.0,1.2,1.5*00
2017-12-01 14:35:56 1512156956.331071: $GPZDA,193557.00,01,12,2017,00,00*6C
2017-12-01 14:35:56 1512156956.331254: $GPGGA,193557,3946.9580,N,08404.9859,W,1,11,1.00,310.12,M,-33.324,M,,*7D
2017-12-01 14:35:56 1512156956.331322: $GPRMC,193557,A,3946.9580,N,08404.9859,W,0.0000,0.000,011217,,*3E
2017-12-01 14:35:56 1512156956.331520: $GPGSA,A,3,10,12,14,18,21,24,32,20,25,31,138,,2.0,1.0,1.5*02
2017-12-01 14:35:56 1512156956.331601: $GPGBS,193557,10.70,M,15.43,M,35.28,M*0B
2017-12-01 14:35:57 1512156957.668094: $GPGSV,3,1,12,10,74,340,47,12,13,102,38,14,33,258,41,18,66,105,46*77
2017-12-01 14:35:57 1512156957.668246: $GPGSV,3,2,12,21,23,178,44,24,40,054,48,32,50,273,44,15,07,069,21*75
2017-12-01 14:35:57 1512156957.668312: $GPGSV,3,3,12,20,04,121,24,25,07,138,19,31,04,204,32,138,38,213,47*49
2017-12-01 14:35:57 1512156957.780593: $GPZDA,193558.00,01,12,2017,00,00*63
2017-12-01 14:35:57 1512156957.780766: $GPGGA,193558,3946.9580,N,08404.9859,W,1,11,1.00,310.12,M,-33.324,M,,*72
2017-12-01 14:35:57 1512156957.780834: $GPRMC,193558,A,3946.9580,N,08404.9859,W,0.0000,0.000,011217,,*31
2017-12-01 14:35:57 1512156957.780896: $GPGSA,A,3,10,12,14,18,21,24,32,15,20,31,138,,2.0,1.0,1.5*01
2017-12-01 14:35:58 1512156958.333715: $GPZDA,193559.00,01,12,2017,00,00*62
2017-12-01 14:35:58 1512156958.333906: $GPGGA,193559,3946.9579,N,08404.9858,W,1,11,1.00,308.72,M,-33.324,M,,*7B
2017-12-01 14:35:58 1512156958.333976: $GPRMC,193559,A,3946.9579,N,08404.9858,W,0.0000,0.000,011217,,*37
2017-12-01 14:35:58 1512156958.334041: $GPGSA,A,3,10,12,14,18,21,24,32,15,20,31,138,,2.0,1.0,1.5*01
2017-12-01 14:35:59 1512156959.333882: $GPZDA,193600.00,01,12,2017,00,00*6D
2017-12-01 14:35:59 1512156959.334065: $GPGGA,193600,3946.9567,N,08404.9861,W,2,11,1.00,298.93,M,-33.324,M,,*75
2017-12-01 14:35:59 1512156959.334132: $GPRMC,193600,A,3946.9567,N,08404.9861,W,0.0000,0.000,011217,,*3D
2017-12-01 14:35:59 1512156959.334195: $GPGSA,A,3,10,12,14,18,21,24,32,15,20,31,138,,2.0,1.0,1.5*01
2017-12-01 14:36:00 1512156960.668395: $GPGSV,3,1,12,10,74,340,46,12,13,102,38,14,33,258,42,18,66,105,45*76
2017-12-01 14:36:00 1512156960.668600: $GPGSV,3,2,12,21,23,178,44,24,40,054,48,32,50,273,44,08,04,289,29*7E
2017-12-01 14:36:00 1512156960.668672: $GPGSV,3,3,12,20,04,121,24,27,03,255,29,31,04,204,32,138,38,213,47*44
2017-12-01 14:36:00 1512156960.782001: $GPZDA,193601.00,01,12,2017,00,00*6C
2017-12-01 14:36:00 1512156960.782169: $GPGGA,193601,3946.9567,N,08404.9861,W,2,12,1.20,298.93,M,-33.324,M,,*75
2017-12-01 14:36:00 1512156960.782237: $GPRMC,193601,A,3946.9567,N,08404.9861,W,0.0000,0.000,011217,,*3C
2017-12-01 14:36:00 1512156960.782302: $GPGSA,A,3,10,12,14,18,21,24,32,8,20,27,31,138,2.0,1.2,1.5*3A
2017-12-01 14:36:01 1512156961.336400: $GPZDA,193602.00,01,12,2017,00,00*6F
2017-12-01 14:36:01 1512156961.336607: $GPGGA,193602,3946.9567,N,08404.9861,W,2,12,1.00,298.93,M,-33.324,M,,*74
2017-12-01 14:36:01 1512156961.336678: $GPRMC,193602,A,3946.9567,N,08404.9861,W,0.0000,0.000,011217,,*3F
2017-12-01 14:36:01 1512156961.336742: $GPGSA,A,3,10,12,14,18,21,24,32,8,20,27,31,138,2.0,1.0,1.5*38
2017-12-01 14:36:02 1512156962.342330: $GPZDA,193603.00,01,12,2017,00,00*6E
2017-12-01 14:36:02 1512156962.342492: $GPGGA,193603,3946.9567,N,08404.9861,W,2,12,1.20,298.93,M,-33.324,M,,*77
2017-12-01 14:36:02 1512156962.342578: $GPRMC,193603,A,3946.9567,N,08404.9861,W,0.0000,0.000,011217,,*3E
2017-12-01 14:36:02 1512156962.342644: $GPGSA,A,3,10,12,14,18,21,24,32,8,20,27,31,138,2.0,1.2,1.5*3A
2017-12-01 14:36:03 1512156963.670515: $GPGSV,3,1,12,10,74,340,47,12,13,102,38,14,33,258,41,18,66,105,45*74
2017-12-01 14:36:03 1512156963.670692: $GPGSV,3,2,12,21,23,178,44,24,40,054,48,32,50,273,44,08,04,289,29*7E
2017-12-01 14:36:03 1512156963.670762: $GPGSV,3,3,12,20,04,121,24,15,07,069,24,31,04,204,32,138,38,213,47*41
2017-12-01 14:36:03 1512156963.784028: $GPZDA,193604.00,01,12,2017,00,00*69
2017-12-01 14:36:03 1512156963.784199: $GPGGA,193604,3946.9567,N,08404.9861,W,2,12,1.00,298.93,M,-33.324,M,,*72
2017-12-01 14:36:03 1512156963.784268: $GPRMC,193604,A,3946.9567,N,08404.9861,W,0.0000,0.000,011217,,*39
2017-12-01 14:36:03 1512156963.784382: $GPGSA,A,3,10,12,14,18,21,24,32,8,20,15,31,138,2.0,1.0,1.5*39
2017-12-01 14:36:04 1512156964.409270: $GPZDA,193605.00,01,12,2017,00,00*68
2017-12-01 14:36:04 1512156964.409466: $GPGGA,193605,3946.9567,N,08404.9861,W,2,12,1.00,298.93,M,-33.324,M,,*73
2017-12-01 14:36:04 1512156964.409549: $GPRMC,193605,A,3946.9567,N,08404.9861,W,0.0000,0.000,011217,,*38
2017-12-01 14:36:04 1512156964.409614: $GPGSA,A,3,10,12,14,18,21,24,32,8,20,15,31,138,2.0,1.0,1.5*39
2017-12-01 14:36:05 1512156965.331488: $GPZDA,193606.00,01,12,2017,00,00*6B
2017-12-01 14:36:05 1512156965.331688: $GPGGA,193606,3946.9567,N,08404.9861,W,2,12,1.00,298.93,M,-33.324,M,,*70
2017-12-01 14:36:05 1512156965.331758: $GPRMC,193606,A,3946.9567,N,08404.9861,W,0.2422,93.794,011217,,*0D
2017-12-01 14:36:05 1512156965.331822: $GPGSA,A,3,10,12,14,18,21,24,32,8,20,15,31,138,2.0,1.0,1.5*39
2017-12-01 14:36:06 1512156966.672136: $GPGSV,3,1,12,10,74,340,46,12,13,102,37,14,33,258,40,18,66,105,45*7B
2017-12-01 14:36:06 1512156966.672322: $GPGSV,3,2,12,21,23,178,44,24,40,054,47,32,50,273,43,25,07,138,05*7D
2017-12-01 14:36:06 1512156966.672412: $GPGSV,3,3,12,20,04,121,23,15,07,069,24,31,04,204,33,138,38,213,48*48
2017-12-01 14:36:06 1512156966.785557: $GPZDA,193607.00,01,12,2017,00,00*6A
2017-12-01 14:36:06 1512156966.785729: $GPGGA,193607,3946.9574,N,08404.9873,W,2,11,1.00,295.84,M,-33.324,M,,*78
2017-12-01 14:36:06 1512156966.785798: $GPRMC,193607,A,3946.9574,N,08404.9873,W,0.1567,189.200,011217,,*3C
2017-12-01 14:36:06 1512156966.785863: $GPGSA,A,3,10,12,14,18,21,24,32,20,15,31,138,,2.0,1.0,1.5*01
2017-12-01 14:36:07 1512156967.330118: $GPZDA,193608.00,01,12,2017,00,00*65
2017-12-01 14:36:07 1512156967.330291: $GPGGA,193608,3946.9574,N,08404.9873,W,2,11,1.00,295.84,M,-33.324,M,,*77
2017-12-01 14:36:07 1512156967.330360: $GPRMC,193608,A,3946.9574,N,08404.9873,W,0.0000,0.000,011217,,*34
2017-12-01 14:36:07 1512156967.330445: $GPGSA,A,3,10,12,14,18,21,24,32,20,15,31,138,,2.0,1.0,1.5*01
2017-12-01 14:36:08 1512156968.330910: $GPZDA,193609.00,01,12,2017,00,00*64
2017-12-01 14:36:08 1512156968.331084: $GPGGA,193609,3946.9577,N,08404.9872,W,2,11,1.00,295.08,M,-33.324,M,,*70
2017-12-01 14:36:08 1512156968.331153: $GPRMC,193609,A,3946.9577,N,08404.9872,W,0.0000,0.000,011217,,*37
2017-12-01 14:36:08 1512156968.331217: $GPGSA,A,3,10,12,14,18,21,24,32,20,15,31,138,,2.0,1.0,1.5*01
2017-12-01 14:36:08 1512156968.331279: $GPGBS,193609,2.67,M,3.86,M,8.82,M*36
2017-12-01 14:36:09 1512156969.667361: $GPGSV,3,1,12,10,74,340,46,12,13,102,37,14,33,258,40,18,66,105,45*7B
2017-12-01 14:36:09 1512156969.667555: $GPGSV,3,2,12,21,23,178,44,24,40,054,48,32,50,273,42,25,07,138,24*70
2017-12-01 14:36:09 1512156969.667625: $GPGSV,3,3,12,20,04,121,22,08,04,289,35,31,04,204,25,138,38,213,48*4D
2017-12-01 14:36:09 1512156969.780918: $GPZDA,193610.00,01,12,2017,00,00*6C
2017-12-01 14:36:09 1512156969.781088: $GPGGA,193610,3946.9577,N,08404.9872,W,2,12,1.20,295.08,M,-33.324,M,,*79
2017-12-01 14:36:09 1512156969.781157: $GPRMC,193610,A,3946.9577,N,08404.9872,W,0.0000,0.000,011217,,*3F
2017-12-01 14:36:09 1512156969.781221: $GPGSA,A,3,10,12,14,18,21,24,32,25,20,8,31,138,2.0,1.2,1.5*38
2017-12-01 14:36:10 1512156970.331740: $GPZDA,193611.00,01,12,2017,00,00*6D
2017-12-01 14:36:10 1512156970.332072: $GPGGA,193611,3946.9577,N,08404.9872,W,2,12,1.00,295.08,M,-33.324,M,,*7A
2017-12-01 14:36:10 1512156970.332200: $GPRMC,193611,A,3946.9577,N,08404.9872,W,0.0000,0.000,011217,,*3E
2017-12-01 14:36:10 1512156970.332326: $GPGSA,A,3,10,12,14,18,21,24,32,25,20,8,31,138,2.0,1.0,1.5*3A
2017-12-01 14:36:11 1512156971.330016: $GPZDA,193612.00,01,12,2017,00,00*6E
2017-12-01 14:36:11 1512156971.330210: $GPGGA,193612,3946.9577,N,08404.9872,W,2,12,1.00,295.08,M,-33.324,M,,*79
2017-12-01 14:36:11 1512156971.330282: $GPRMC,193612,A,3946.9577,N,08404.9872,W,0.0000,0.000,011217,,*3D
2017-12-01 14:36:11 1512156971.330347: $GPGSA,A,3,10,12,14,18,21,24,32,25,20,8,31,138,2.0,1.0,1.5*3A
2017-12-01 14:36:12 1512156972.666987: $GPGSV,3,1,12,10,74,340,46,12,13,102,37,14,33,258,41,18,66,105,46*79
2017-12-01 14:36:12 1512156972.667220: $GPGSV,3,2,12,21,23,178,44,24,40,054,48,32,50,273,42,25,07,138,23*77
2017-12-01 14:36:12 1512156972.667289: $GPGSV,3,3,12,20,04,121,23,15,07,069,25,31,04,204,26,138,38,213,47*42
2017-12-01 14:36:12 1512156972.780613: $GPZDA,193613.00,01,12,2017,00,00*6F
2017-12-01 14:36:12 1512156972.780770: $GPGGA,193613,3946.9577,N,08404.9872,W,2,12,1.00,295.08,M,-33.324,M,,*78
2017-12-01 14:36:12 1512156972.780836: $GPRMC,193613,A,3946.9577,N,08404.9872,W,0.0000,0.000,011217,,*3C
2017-12-01 14:36:12 1512156972.780897: $GPGSA,A,3,10,12,14,18,21,24,32,25,20,15,31,138,2.0,1.0,1.5*06
2017-12-01 14:36:13 1512156973.335216: $GPZDA,193614.00,01,12,2017,00,00*68
2017-12-01 14:36:13 1512156973.335410: $GPGGA,193614,3946.9577,N,08404.9872,W,2,12,1.00,295.08,M,-33.324,M,,*7F
2017-12-01 14:36:13 1512156973.335480: $GPRMC,193614,A,3946.9577,N,08404.9872,W,0.0000,0.000,011217,,*3B
2017-12-01 14:36:13 1512156973.335570: $GPGSA,A,3,10,12,14,18,21,24,32,25,20,15,31,138,2.0,1.0,1.5*06
