2017-12-29 10:50:42 1514562642.887107: {"class":"VERSION","release":"3.16","rev":"3.16-4","proto_major":3,"proto_minor":11}
2017-12-29 10:50:42 1514562642.887451: {"class":"DEVICES","devices":[{"class":"DEVICE","path":"/dev/ttyUSB0","driver":"SiRF","subtype":"9\u0006GSD4e_4.1.2-P1_RPATCH.05-F-GPS-4R-1510281 11/03/2015 307","activated":"2017-12-29T15:50:42.785Z","flags":1,"native":1,"bps":4800,"parity":"N","stopbits":1,"cycle":1.00}]}
2017-12-29 10:50:42 1514562642.887565: {"class":"WATCH","enable":true,"json":false,"nmea":true,"raw":0,"scaled":false,"timing":false,"split24":false,"pps":false}
2017-12-29 10:50:42 1514562642.898492: $GPZDA,155043.00,29,12,2017,00,00*6C
2017-12-29 10:50:42 1514562642.898613: $GPGGA,155043,3946.9587,N,08404.9827,W,2,12,0.80,305.34,M,-33.324,M,,*70
2017-12-29 10:50:42 1514562642.898676: $GPRMC,155043,A,3946.9587,N,08404.9827,W,0.0000,0.000,291217,,*30
2017-12-29 10:50:42 1514562642.898736: $GPGSA,A,3,10,13,15,18,20,21,24,27,32,29,8,138,1.7,0.8,1.3*3A
2017-12-29 10:50:43 1514562643.446862: $GPZDA,155044.00,29,12,2017,00,00*6B
2017-12-29 10:50:43 1514562643.451733: $GPGGA,155044,3946.9587,N,08404.9827,W,2,12,0.80,305.34,M,-33.324,M,,*77
2017-12-29 10:50:43 1514562643.451865: $GPRMC,155044,A,3946.9587,N,08404.9827,W,0.0000,0.000,291217,,*37
2017-12-29 10:50:43 1514562643.451931: $GPGSA,A,3,10,13,15,18,20,21,24,27,32,29,8,138,1.7,0.8,1.3*3A
2017-12-29 10:50:44 1514562644.410085: $GPZDA,155045.00,29,12,2017,00,00*6A
2017-12-29 10:50:44 1514562644.410252: $GPGGA,155045,3946.9587,N,08404.9827,W,2,12,0.80,305.34,M,-33.324,M,,*76
2017-12-29 10:50:44 1514562644.410317: $GPRMC,155045,A,3946.9587,N,08404.9827,W,0.0000,0.000,291217,,*36
2017-12-29 10:50:44 1514562644.410377: $GPGSA,A,3,10,13,15,18,20,21,24,27,32,29,8,138,1.7,0.8,1.3*3A
2017-12-29 10:50:45 1514562645.776998: $GPGSV,3,1,12,10,32,292,42,13,18,046,45,15,48,049,50,18,63,316,45*76
2017-12-29 10:50:45 1514562645.777166: $GPGSV,3,2,12,20,44,084,50,21,75,210,47,24,43,127,50,27,19,301,35*78
2017-12-29 10:50:45 1514562645.777232: $GPGSV,3,3,12,32,12,231,31,29,01,186,22,08,01,331,00,138,38,213,45*47
2017-12-29 10:50:45 1514562645.890647: $GPZDA,155046.00,29,12,2017,00,00*69
2017-12-29 10:50:45 1514562645.890813: $GPGGA,155046,3946.9587,N,08404.9827,W,2,11,0.80,305.34,M,-33.324,M,,*76
2017-12-29 10:50:45 1514562645.890879: $GPRMC,155046,A,3946.9587,N,08404.9827,W,0.0000,0.000,291217,,*35
2017-12-29 10:50:45 1514562645.890939: $GPGSA,A,3,10,13,15,18,20,21,24,27,32,29,138,,1.7,0.8,1.3*02
2017-12-29 10:50:46 1514562646.515757: $GPZDA,155047.00,29,12,2017,00,00*68
2017-12-29 10:50:46 1514562646.515908: $GPGGA,155047,3946.9587,N,08404.9827,W,2,11,0.80,305.34,M,-33.324,M,,*77
2017-12-29 10:50:46 1514562646.515973: $GPRMC,155047,A,3946.9587,N,08404.9827,W,0.0000,0.000,291217,,*34
2017-12-29 10:50:46 1514562646.516033: $GPGSA,A,3,10,13,15,18,20,21,24,27,32,29,138,,1.7,0.8,1.3*02
2017-12-29 10:50:47 1514562647.445392: $GPZDA,155048.00,29,12,2017,00,00*67
2017-12-29 10:50:47 1514562647.445575: $GPGGA,155048,3946.9587,N,08404.9827,W,2,11,0.80,305.34,M,-33.324,M,,*78
2017-12-29 10:50:47 1514562647.445643: $GPRMC,155048,A,3946.9587,N,08404.9827,W,0.0000,0.000,291217,,*3B
2017-12-29 10:50:47 1514562647.445707: $GPGSA,A,3,10,13,15,18,20,21,24,27,32,29,138,,1.7,0.8,1.3*02
2017-12-29 10:50:48 1514562648.783606: $GPGSV,3,1,12,10,32,292,42,13,18,046,44,15,48,049,50,18,63,316,44*76
2017-12-29 10:50:48 1514562648.783786: $GPGSV,3,2,12,20,44,084,50,21,75,210,47,24,43,127,50,27,19,301,34*79
2017-12-29 10:50:48 1514562648.783855: $GPGSV,3,3,12,32,12,231,32,29,01,186,23,08,01,331,00,138,38,213,45*45
2017-12-29 10:50:48 1514562648.896976: $GPZDA,155049.00,29,12,2017,00,00*66
2017-12-29 10:50:48 1514562648.897148: $GPGGA,155049,3946.9588,N,08404.9834,W,2,11,0.80,305.26,M,-33.324,M,,*77
2017-12-29 10:50:48 1514562648.897219: $GPRMC,155049,A,3946.9588,N,08404.9834,W,0.0000,0.000,291217,,*37
2017-12-29 10:50:48 1514562648.897285: $GPGSA,A,3,10,13,15,18,20,21,24,27,32,29,138,,1.7,0.8,1.3*02
2017-12-29 10:50:49 1514562649.409077: $GPZDA,155050.00,29,12,2017,00,00*6E
2017-12-29 10:50:49 1514562649.409286: $GPGGA,155050,3946.9588,N,08404.9834,W,2,11,0.80,305.26,M,-33.324,M,,*7F
2017-12-29 10:50:49 1514562649.409356: $GPRMC,155050,A,3946.9588,N,08404.9834,W,0.0000,0.000,291217,,*3F
2017-12-29 10:50:49 1514562649.409417: $GPGSA,A,3,10,13,15,18,20,21,24,27,32,29,138,,1.7,0.8,1.3*02
2017-12-29 10:50:50 1514562650.408712: $GPZDA,155051.00,29,12,2017,00,00*6F
2017-12-29 10:50:50 1514562650.408873: $GPGGA,155051,3946.9588,N,08404.9834,W,2,11,0.80,305.26,M,-33.324,M,,*7E
2017-12-29 10:50:50 1514562650.408941: $GPRMC,155051,A,3946.9588,N,08404.9834,W,0.0000,0.000,291217,,*3E
2017-12-29 10:50:50 1514562650.409001: $GPGSA,A,3,10,13,15,18,20,21,24,27,32,29,138,,1.7,0.8,1.3*02
2017-12-29 10:50:51 1514562651.743965: $GPGSV,3,1,12,10,32,292,43,13,18,046,44,15,48,049,50,18,63,316,44*77
2017-12-29 10:50:51 1514562651.744140: $GPGSV,3,2,12,20,44,084,50,21,75,210,47,24,43,127,50,27,19,301,35*78
2017-12-29 10:50:51 1514562651.744206: $GPGSV,3,3,12,32,12,231,32,29,01,186,19,08,01,331,00,138,38,213,45*4C
2017-12-29 10:50:51 1514562651.857324: $GPZDA,155052.00,29,12,2017,00,00*6C
2017-12-29 10:50:51 1514562651.857487: $GPGGA,155052,3946.9588,N,08404.9834,W,2,11,0.80,305.26,M,-33.324,M,,*7D
2017-12-29 10:50:51 1514562651.857553: $GPRMC,155052,A,3946.9588,N,08404.9834,W,0.0000,0.000,291217,,*3D
2017-12-29 10:50:51 1514562651.857614: $GPGSA,A,3,10,13,15,18,20,21,24,27,32,29,138,,1.7,0.8,1.3*02
2017-12-29 10:50:52 1514562652.401967: $GPZDA,155053.00,29,12,2017,00,00*6D
2017-12-29 10:50:52 1514562652.402116: $GPGGA,155053,3946.9588,N,08404.9834,W,2,11,0.80,305.26,M,-33.324,M,,*7C
2017-12-29 10:50:52 1514562652.402186: $GPRMC,155053,A,3946.9588,N,08404.9834,W,0.0000,0.000,291217,,*3C
2017-12-29 10:50:52 1514562652.402245: $GPGSA,A,3,10,13,15,18,20,21,24,27,32,29,138,,1.7,0.8,1.3*02
2017-12-29 10:50:53 1514562653.409063: $GPZDA,155054.00,29,12,2017,00,00*6A
2017-12-29 10:50:53 1514562653.409226: $GPGGA,155054,3946.9588,N,08404.9834,W,2,11,0.80,305.26,M,-33.324,M,,*7B
2017-12-29 10:50:53 1514562653.409296: $GPRMC,155054,A,3946.9588,N,08404.9834,W,0.0000,0.000,291217,,*3B
2017-12-29 10:50:53 1514562653.409357: $GPGSA,A,3,10,13,15,18,20,21,24,27,32,29,138,,1.7,0.8,1.3*02
2017-12-29 10:50:54 1514562654.744818: $GPGSV,3,1,12,10,32,292,43,13,18,046,44,15,48,049,49,18,63,316,44*7F
2017-12-29 10:50:54 1514562654.744981: $GPGSV,3,2,12,20,44,084,50,21,75,210,47,24,43,127,51,27,19,301,34*78
2017-12-29 10:50:54 1514562654.745048: $GPGSV,3,3,12,32,12,231,31,29,01,186,00,08,01,331,00,138,38,213,45*47
2017-12-29 10:50:54 1514562654.858172: $GPZDA,155055.00,29,12,2017,00,00*6B
2017-12-29 10:50:54 1514562654.858344: $GPGGA,155055,3946.9588,N,08404.9834,W,2,10,0.80,305.26,M,-33.324,M,,*7B
2017-12-29 10:50:54 1514562654.858411: $GPRMC,155055,A,3946.9588,N,08404.9834,W,0.0000,0.000,291217,,*3A
2017-12-29 10:50:54 1514562654.858471: $GPGSA,A,3,10,13,15,18,20,21,24,27,32,138,,,1.7,0.8,1.3*09
2017-12-29 10:50:55 1514562655.407785: $GPZDA,155056.00,29,12,2017,00,00*68
2017-12-29 10:50:55 1514562655.407955: $GPGGA,155056,3946.9588,N,08404.9834,W,2,10,0.80,305.26,M,-33.324,M,,*78
2017-12-29 10:50:55 1514562655.408023: $GPRMC,155056,A,3946.9588,N,08404.9834,W,0.0000,0.000,291217,,*39
2017-12-29 10:50:55 1514562655.408083: $GPGSA,A,3,10,13,15,18,20,21,24,27,32,138,,,1.7,0.8,1.3*09
2017-12-29 10:50:56 1514562656.412023: $GPZDA,155057.00,29,12,2017,00,00*69
2017-12-29 10:50:56 1514562656.412187: $GPGGA,155057,3946.9588,N,08404.9834,W,2,10,0.80,305.26,M,-33.324,M,,*79
2017-12-29 10:50:56 1514562656.412256: $GPRMC,155057,A,3946.9588,N,08404.9834,W,0.0000,0.000,291217,,*38
2017-12-29 10:50:56 1514562656.412316: $GPGSA,A,3,10,13,15,18,20,21,24,27,32,138,,,1.7,0.8,1.3*09
2017-12-29 10:50:57 1514562657.746431: $GPGSV,3,1,12,10,32,292,43,13,18,046,44,15,48,049,49,18,63,316,44*7F
2017-12-29 10:50:57 1514562657.746590: $GPGSV,3,2,12,20,44,084,50,21,75,210,47,24,43,127,50,27,19,301,34*79
2017-12-29 10:50:57 1514562657.746656: $GPGSV,3,3,12,32,12,231,31,29,01,186,19,08,01,331,00,138,38,213,44*4E
2017-12-29 10:50:57 1514562657.860676: $GPZDA,155058.00,29,12,2017,00,00*66
2017-12-29 10:50:57 1514562657.860859: $GPGGA,155058,3946.9588,N,08404.9834,W,2,11,0.80,305.26,M,-33.324,M,,*77
2017-12-29 10:50:57 1514562657.860932: $GPRMC,155058,A,3946.9588,N,08404.9834,W,0.0000,0.000,291217,,*37
2017-12-29 10:50:57 1514562657.861011: $GPGSA,A,3,10,13,15,18,20,21,24,27,32,29,138,,1.7,0.8,1.3*02
