2017-12-14 12:24:44 1513272284.752740: {"class":"VERSION","release":"3.16","rev":"3.16-4","proto_major":3,"proto_minor":11}
2017-12-14 12:24:44 1513272284.753097: {"class":"DEVICES","devices":[{"class":"DEVICE","path":"/dev/ttyUSB0","driver":"SiRF","subtype":"9\u0006GSD4e_4.1.2-P1_RPATCH.05-F-GPS-4R-1510281 11/03/2015 307","activated":"2017-12-14T17:24:44.679Z","flags":1,"native":1,"bps":4800,"parity":"N","stopbits":1,"cycle":1.00}]}
2017-12-14 12:24:44 1513272284.753212: {"class":"WATCH","enable":true,"json":false,"nmea":true,"raw":0,"scaled":false,"timing":false,"split24":false,"pps":false}
2017-12-14 12:24:45 1513272285.190554: $GPZDA,172446.00,14,12,2017,00,00*66
2017-12-14 12:24:45 1513272285.190736: $GPGGA,172446,3946.9433,N,08404.9412,W,1,07,1.40,369.35,M,-33.324,M,,*71
2017-12-14 12:24:45 1513272285.190802: $GPRMC,172446,A,3946.9433,N,08404.9412,W,1.5545,212.064,141217,,*3D
2017-12-14 12:24:45 1513272285.190863: $GPGSA,A,3,21,10,32,20,24,18,15,,,,,,6.6,1.4,6.2*39
2017-12-14 12:24:46 1513272286.191836: $GPZDA,172447.00,14,12,2017,00,00*67
2017-12-14 12:24:46 1513272286.191997: $GPGGA,172447,3946.9433,N,08404.9412,W,1,07,1.40,369.35,M,-33.324,M,,*70
2017-12-14 12:24:46 1513272286.192119: $GPRMC,172447,A,3946.9433,N,08404.9412,W,1.2621,219.347,141217,,*33
2017-12-14 12:24:46 1513272286.192190: $GPGSA,A,3,21,10,32,20,24,18,15,,,,,,6.6,1.4,6.2*39
2017-12-14 12:24:47 1513272287.526755: $GPGSV,3,1,12,21,60,186,27,10,44,303,23,32,23,240,11,20,32,097,25*7B
2017-12-14 12:24:47 1513272287.526924: $GPGSV,3,2,12,24,52,106,25,27,19,286,00,18,73,345,12,15,35,054,19*7C
2017-12-14 12:24:47 1513272287.526990: $GPGSV,3,3,12,08,06,321,00,14,06,234,00,13,05,049,00,138,38,213,00*49
2017-12-14 12:24:47 1513272287.640172: $GPZDA,172448.00,14,12,2017,00,00*68
2017-12-14 12:24:47 1513272287.640359: $GPGGA,172448,3946.9433,N,08404.9412,W,1,07,1.40,369.35,M,-33.324,M,,*7F
2017-12-14 12:24:47 1513272287.640425: $GPRMC,172448,A,3946.9433,N,08404.9412,W,0.8414,219.347,141217,,*33
2017-12-14 12:24:47 1513272287.640504: $GPGSA,A,3,21,10,32,20,24,18,15,,,,,,6.6,1.4,6.2*39
2017-12-14 12:24:48 1513272288.192871: $GPZDA,172449.00,14,12,2017,00,00*69
2017-12-14 12:24:48 1513272288.193038: $GPGGA,172449,3946.9433,N,08404.9412,W,1,07,1.40,369.35,M,-33.324,M,,*7E
2017-12-14 12:24:48 1513272288.193104: $GPRMC,172449,A,3946.9433,N,08404.9412,W,0.3423,184.197,141217,,*35
2017-12-14 12:24:48 1513272288.193164: $GPGSA,A,3,21,10,32,20,24,18,15,,,,,,6.6,1.4,6.2*39
2017-12-14 12:24:49 1513272289.191185: $GPZDA,172450.00,14,12,2017,00,00*61
2017-12-14 12:24:49 1513272289.191370: $GPGGA,172450,3946.9433,N,08404.9412,W,1,07,1.40,369.35,M,-33.324,M,,*76
2017-12-14 12:24:49 1513272289.191452: $GPRMC,172450,A,3946.9433,N,08404.9412,W,0.3423,184.197,141217,,*3D
2017-12-14 12:24:49 1513272289.191515: $GPGSA,A,3,21,10,32,20,24,18,15,,,,,,6.6,1.4,6.2*39
2017-12-14 12:24:50 1513272290.528623: $GPGSV,3,1,12,21,60,186,27,10,44,303,23,32,23,240,11,20,32,097,26*78
2017-12-14 12:24:50 1513272290.528799: $GPGSV,3,2,12,24,52,106,25,14,06,234,05,18,73,345,14,15,35,054,19*78
2017-12-14 12:24:50 1513272290.528863: $GPGSV,3,3,12,27,19,286,00,08,06,321,00,13,05,049,00,138,38,213,00*4E
2017-12-14 12:24:50 1513272290.642111: $GPZDA,172451.00,14,12,2017,00,00*60
2017-12-14 12:24:50 1513272290.642272: $GPGGA,172451,3946.9437,N,08404.9412,W,1,07,1.40,369.99,M,-33.324,M,,*75
2017-12-14 12:24:50 1513272290.642338: $GPRMC,172451,A,3946.9437,N,08404.9412,W,0.3423,184.197,141217,,*38
2017-12-14 12:24:50 1513272290.642400: $GPGSA,A,3,21,10,32,20,24,18,15,,,,,,6.6,1.4,6.2*39
2017-12-14 12:24:51 1513272291.192157: $GPZDA,172452.00,14,12,2017,00,00*63
2017-12-14 12:24:51 1513272291.192333: $GPGGA,172452,3946.9437,N,08404.9412,W,1,07,1.40,369.99,M,-33.324,M,,*76
2017-12-14 12:24:51 1513272291.192401: $GPRMC,172452,A,3946.9437,N,08404.9412,W,0.3423,184.197,141217,,*3B
2017-12-14 12:24:51 1513272291.192462: $GPGSA,A,3,21,10,32,20,24,18,15,,,,,,6.6,1.4,6.2*39
2017-12-14 12:24:52 1513272292.191008: $GPZDA,172453.00,14,12,2017,00,00*62
2017-12-14 12:24:52 1513272292.693747: $GPGGA,172453,3946.9437,N,08404.9405,W,1,07,1.40,370.07,M,-33.324,M,,*7E
2017-12-14 12:24:52 1513272292.694014: $GPRMC,172453,A,3946.9437,N,08404.9405,W,0.5912,129.173,141217,,*38
2017-12-14 12:24:52 1513272292.694083: $GPGSA,A,3,21,10,32,20,24,18,15,,,,,,6.6,1.4,6.2*39
2017-12-14 12:24:53 1513272293.542310: $GPGSV,3,1,12,21,60,186,27,10,44,303,24,32,23,240,12,20,32,097,25*7F
2017-12-14 12:24:53 1513272293.542538: $GPGSV,3,2,12,24,52,106,26,27,19,286,00,18,73,345,14,15,35,054,19*79
2017-12-14 12:24:53 1513272293.542605: $GPGSV,3,3,12,08,06,321,00,14,06,234,00,13,05,049,00,138,38,213,00*49
2017-12-14 12:24:53 1513272293.655686: $GPZDA,172454.00,14,12,2017,00,00*65
2017-12-14 12:24:53 1513272293.655834: $GPGGA,172454,3946.9437,N,08404.9405,W,1,07,1.40,370.07,M,-33.324,M,,*79
2017-12-14 12:24:53 1513272293.655900: $GPRMC,172454,A,3946.9437,N,08404.9405,W,0.7246,164.668,141217,,*33
2017-12-14 12:24:53 1513272293.655961: $GPGSA,A,3,21,10,32,20,24,18,15,,,,,,6.6,1.4,6.2*39
2017-12-14 12:24:54 1513272294.191540: $GPZDA,172455.00,14,12,2017,00,00*64
2017-12-14 12:24:54 1513272294.191698: $GPGGA,172455,3946.9444,N,08404.9404,W,1,07,1.40,369.94,M,-33.324,M,,*7F
2017-12-14 12:24:54 1513272294.191764: $GPRMC,172455,A,3946.9444,N,08404.9404,W,0.9060,167.792,141217,,*38
2017-12-14 12:24:54 1513272294.191825: $GPGSA,A,3,21,10,32,20,24,18,15,,,,,,6.6,1.4,6.2*39
2017-12-14 12:24:55 1513272295.207981: $GPZDA,172456.00,14,12,2017,00,00*67
2017-12-14 12:24:55 1513272295.208144: $GPGGA,172456,3946.9444,N,08404.9404,W,1,07,1.40,369.94,M,-33.324,M,,*7C
2017-12-14 12:24:55 1513272295.208209: $GPRMC,172456,A,3946.9444,N,08404.9404,W,1.0567,197.448,141217,,*3A
2017-12-14 12:24:55 1513272295.208292: $GPGSA,A,3,21,10,32,20,24,18,15,,,,,,6.6,1.4,6.2*39
2017-12-14 12:24:56 1513272296.527852: $GPGSV,3,1,12,21,60,186,27,10,44,303,24,32,23,240,12,20,32,097,25*7F
2017-12-14 12:24:56 1513272296.528022: $GPGSV,3,2,12,24,52,106,26,08,06,321,13,18,73,345,14,15,35,054,19*74
2017-12-14 12:24:56 1513272296.528086: $GPGSV,3,3,12,27,19,286,00,14,06,234,00,13,05,049,00,138,38,213,00*46
2017-12-14 12:24:56 1513272296.641241: $GPZDA,172457.00,14,12,2017,00,00*66
2017-12-14 12:24:56 1513272296.641440: $GPGGA,172457,3946.9444,N,08404.9404,W,1,07,1.40,369.94,M,-33.324,M,,*7D
2017-12-14 12:24:56 1513272296.641508: $GPRMC,172457,A,3946.9444,N,08404.9404,W,1.0567,197.448,141217,,*3B
2017-12-14 12:24:56 1513272296.641569: $GPGSA,A,3,21,10,32,20,24,18,15,,,,,,6.6,1.4,6.2*39
2017-12-14 12:24:57 1513272297.206429: $GPZDA,172458.00,14,12,2017,00,00*69
2017-12-14 12:24:57 1513272297.206605: $GPGGA,172458,3946.9437,N,08404.9405,W,1,07,2.20,370.07,M,-33.324,M,,*70
2017-12-14 12:24:57 1513272297.206691: $GPRMC,172458,A,3946.9437,N,08404.9405,W,1.5738,192.547,141217,,*37
2017-12-14 12:24:57 1513272297.206755: $GPGSA,A,3,21,10,32,20,24,18,15,,,,,,6.6,2.2,6.2*3C
2017-12-14 12:24:58 1513272298.205269: $GPZDA,172459.00,14,12,2017,00,00*68
2017-12-14 12:24:58 1513272298.205455: $GPGGA,172459,3946.9437,N,08404.9405,W,1,07,2.20,370.07,M,-33.324,M,,*71
2017-12-14 12:24:58 1513272298.205522: $GPRMC,172459,A,3946.9437,N,08404.9405,W,1.5545,212.064,141217,,*31
2017-12-14 12:24:58 1513272298.205583: $GPGSA,A,3,21,10,32,20,24,18,15,,,,,,6.6,2.2,6.2*3C
2017-12-14 12:24:59 1513272299.542266: $GPGSV,3,1,12,21,60,186,27,10,44,303,24,08,06,321,10,20,32,097,25*75
2017-12-14 12:24:59 1513272299.542461: $GPGSV,3,2,12,24,52,106,26,32,23,240,00,18,73,345,15,15,35,054,19*7F
2017-12-14 12:24:59 1513272299.542526: $GPGSV,3,3,12,27,19,286,00,14,06,234,00,13,05,049,00,138,38,213,00*46
2017-12-14 12:24:59 1513272299.656093: $GPZDA,172500.00,14,12,2017,00,00*65
2017-12-14 12:24:59 1513272299.656379: $GPGGA,172500,3946.9437,N,08404.9405,W,1,06,2.20,370.07,M,-33.324,M,,*7D
2017-12-14 12:24:59 1513272299.656525: $GPRMC,172500,A,3946.9437,N,08404.9405,W,1.1385,209.379,141217,,*37
2017-12-14 12:24:59 1513272299.656673: $GPGSA,A,3,21,10,20,24,18,15,,,,,,,6.6,2.2,6.2*3D
2017-12-14 12:25:00 1513272300.209554: $GPZDA,172501.00,14,12,2017,00,00*64
2017-12-14 12:25:00 1513272300.209720: $GPGGA,172501,3946.9437,N,08404.9412,W,1,06,2.20,369.99,M,-33.324,M,,*75
2017-12-14 12:25:00 1513272300.209836: $GPRMC,172501,A,3946.9437,N,08404.9412,W,0.8054,248.645,141217,,*38
2017-12-14 12:25:00 1513272300.209899: $GPGSA,A,3,21,10,20,24,18,15,,,,,,,6.6,2.2,6.2*3D
2017-12-14 12:25:01 1513272301.207107: $GPZDA,172502.00,14,12,2017,00,00*67
2017-12-14 12:25:01 1513272301.207298: $GPGGA,172502,3946.9437,N,08404.9412,W,1,06,2.20,369.99,M,-33.324,M,,*76
2017-12-14 12:25:01 1513272301.207365: $GPRMC,172502,A,3946.9437,N,08404.9412,W,0.9019,198.875,141217,,*30
2017-12-14 12:25:01 1513272301.207444: $GPGSA,A,3,21,10,20,24,18,15,,,,,,,6.6,2.2,6.2*3D
2017-12-14 12:25:02 1513272302.547082: $GPGSV,3,1,12,21,60,186,27,10,44,303,24,27,19,286,00,20,32,097,26*78
2017-12-14 12:25:02 1513272302.547274: $GPGSV,3,2,12,24,52,106,26,32,23,240,10,18,73,345,16,15,35,054,19*7D
2017-12-14 12:25:02 1513272302.547341: $GPGSV,3,3,12,08,06,321,00,14,06,234,00,13,05,049,00,120,07,103,00*4E
2017-12-14 12:25:02 1513272302.660527: $GPZDA,172503.00,14,12,2017,00,00*66
2017-12-14 12:25:02 1513272302.660687: $GPGGA,172503,3946.9437,N,08404.9412,W,1,06,2.20,369.99,M,-33.324,M,,*77
2017-12-14 12:25:02 1513272302.660753: $GPRMC,172503,A,3946.9437,N,08404.9412,W,0.9060,167.792,141217,,*39
2017-12-14 12:25:02 1513272302.660815: $GPGSA,A,3,21,10,20,24,18,15,,,,,,,6.6,2.2,6.2*3D
2017-12-14 12:25:03 1513272303.206899: $GPZDA,172504.00,14,12,2017,00,00*61
2017-12-14 12:25:03 1513272303.207076: $GPGGA,172504,3946.9441,N,08404.9411,W,1,06,2.20,369.23,M,-33.324,M,,*73
2017-12-14 12:25:03 1513272303.207141: $GPRMC,172504,A,3946.9441,N,08404.9411,W,0.2422,273.795,141217,,*34
2017-12-14 12:25:03 1513272303.207267: $GPGSA,A,3,21,10,20,24,18,15,,,,,,,6.6,2.2,6.2*3D
2017-12-14 12:25:04 1513272304.191527: $GPZDA,172505.00,14,12,2017,00,00*60
2017-12-14 12:25:04 1513272304.191735: $GPGGA,172505,3946.9445,N,08404.9411,W,1,06,2.20,369.87,M,-33.324,M,,*78
2017-12-14 12:25:04 1513272304.191805: $GPRMC,172505,A,3946.9445,N,08404.9411,W,0.2422,93.795,141217,,*0D
2017-12-14 12:25:04 1513272304.191867: $GPGSA,A,3,21,10,20,24,18,15,,,,,,,6.6,2.2,6.2*3D
