2017-12-01 18:25:29 1512170729.086786: {"class":"VERSION","release":"3.16","rev":"3.16-4","proto_major":3,"proto_minor":11}
2017-12-01 18:25:29 1512170729.087185: {"class":"DEVICES","devices":[{"class":"DEVICE","path":"/dev/ttyUSB0","driver":"SiRF","subtype":"9\u0006GSD4e_4.1.2-P1_RPATCH.05-F-GPS-4R-1510281 11/03/2015 307","activated":"2017-12-01T23:25:28.498Z","flags":1,"native":1,"bps":4800,"parity":"N","stopbits":1,"cycle":1.00}]}
2017-12-01 18:25:29 1512170729.087310: {"class":"WATCH","enable":true,"json":false,"nmea":true,"raw":0,"scaled":false,"timing":false,"split24":false,"pps":false}
2017-12-01 18:25:29 1512170729.352966: $GPZDA,232530.00,01,12,2017,00,00*65
2017-12-01 18:25:29 1512170729.353144: $GPGGA,232530,3946.9715,N,08404.9840,W,2,11,0.80,297.29,M,-33.325,M,,*7F
2017-12-01 18:25:29 1512170729.353212: $GPRMC,232530,A,3946.9715,N,08404.9840,W,0.0000,0.000,011217,,*31
2017-12-01 18:25:29 1512170729.353276: $GPGSA,A,3,1,3,14,16,22,23,25,26,31,32,138,,2.0,0.8,1.5*07
2017-12-01 18:25:30 1512170730.718438: $GPGSV,3,1,12,01,05,252,39,03,40,298,47,14,55,093,44,16,24,189,42*7C
2017-12-01 18:25:30 1512170730.718622: $GPGSV,3,2,12,22,50,270,45,23,12,301,42,25,17,040,39,26,54,171,47*72
2017-12-01 18:25:30 1512170730.718691: $GPGSV,3,3,12,31,66,027,47,32,35,108,41,29,11,072,00,138,38,213,45*4B
2017-12-01 18:25:30 1512170730.831996: $GPZDA,232531.00,01,12,2017,00,00*64
2017-12-01 18:25:30 1512170730.832171: $GPGGA,232531,3946.9715,N,08404.9840,W,2,11,0.80,297.29,M,-33.325,M,,*7E
2017-12-01 18:25:30 1512170730.832240: $GPRMC,232531,A,3946.9715,N,08404.9840,W,0.0000,0.000,011217,,*30
2017-12-01 18:25:30 1512170730.832304: $GPGSA,A,3,1,3,14,16,22,23,25,26,31,32,138,,2.0,0.8,1.5*07
2017-12-01 18:25:31 1512170731.457229: $GPZDA,232532.00,01,12,2017,00,00*67
2017-12-01 18:25:31 1512170731.457398: $GPGGA,232532,3946.9715,N,08404.9840,W,2,11,0.80,297.29,M,-33.325,M,,*7D
2017-12-01 18:25:31 1512170731.457467: $GPRMC,232532,A,3946.9715,N,08404.9840,W,0.0000,0.000,011217,,*33
2017-12-01 18:25:31 1512170731.457529: $GPGSA,A,3,1,3,14,16,22,23,25,26,31,32,138,,2.0,0.8,1.5*07
2017-12-01 18:25:32 1512170732.348085: $GPZDA,232533.00,01,12,2017,00,00*66
2017-12-01 18:25:32 1512170732.348269: $GPGGA,232533,3946.9715,N,08404.9840,W,2,11,0.80,297.29,M,-33.325,M,,*7C
2017-12-01 18:25:32 1512170732.348339: $GPRMC,232533,A,3946.9715,N,08404.9840,W,0.0000,0.000,011217,,*32
2017-12-01 18:25:32 1512170732.348401: $GPGSA,A,3,1,3,14,16,22,23,25,26,31,32,138,,2.0,0.8,1.5*07
2017-12-01 18:25:33 1512170733.720074: $GPGSV,3,1,12,01,05,252,39,03,40,298,47,14,55,093,43,16,24,189,42*7B
2017-12-01 18:25:33 1512170733.720266: $GPGSV,3,2,12,22,50,270,45,23,12,301,42,25,17,040,40,26,54,171,47*7C
2017-12-01 18:25:33 1512170733.720332: $GPGSV,3,3,12,31,66,027,47,32,35,108,42,29,11,072,00,138,38,213,45*48
2017-12-01 18:25:33 1512170733.833342: $GPZDA,232534.00,01,12,2017,00,00*61
2017-12-01 18:25:33 1512170733.833519: $GPGGA,232534,3946.9715,N,08404.9840,W,2,11,0.80,297.29,M,-33.325,M,,*7B
2017-12-01 18:25:33 1512170733.833586: $GPRMC,232534,A,3946.9715,N,08404.9840,W,0.0000,0.000,011217,,*35
2017-12-01 18:25:33 1512170733.833648: $GPGSA,A,3,1,3,14,16,22,23,25,26,31,32,138,,2.0,0.8,1.5*07
2017-12-01 18:25:34 1512170734.351852: $GPZDA,232535.00,01,12,2017,00,00*60
2017-12-01 18:25:34 1512170734.352031: $GPGGA,232535,3946.9715,N,08404.9840,W,2,11,0.80,297.29,M,-33.325,M,,*7A
2017-12-01 18:25:34 1512170734.352099: $GPRMC,232535,A,3946.9715,N,08404.9840,W,0.0000,0.000,011217,,*34
2017-12-01 18:25:34 1512170734.352164: $GPGSA,A,3,1,3,14,16,22,23,25,26,31,32,138,,2.0,0.8,1.5*07
2017-12-01 18:25:35 1512170735.351327: $GPZDA,232536.00,01,12,2017,00,00*63
2017-12-01 18:25:35 1512170735.351563: $GPGGA,232536,3946.9715,N,08404.9840,W,2,11,0.80,297.29,M,-33.325,M,,*79
2017-12-01 18:25:35 1512170735.351634: $GPRMC,232536,A,3946.9715,N,08404.9840,W,0.0000,0.000,011217,,*37
2017-12-01 18:25:35 1512170735.351695: $GPGSA,A,3,1,3,14,16,22,23,25,26,31,32,138,,2.0,0.8,1.5*07
2017-12-01 18:25:36 1512170736.687965: $GPGSV,3,1,12,01,05,252,39,03,40,298,47,14,55,093,43,16,24,189,42*7B
2017-12-01 18:25:36 1512170736.688220: $GPGSV,3,2,12,22,50,270,45,23,12,301,42,25,17,040,40,26,54,171,47*7C
2017-12-01 18:25:36 1512170736.688291: $GPGSV,3,3,12,31,66,027,46,32,35,108,36,29,11,072,00,138,38,213,46*49
2017-12-01 18:25:36 1512170736.801230: $GPZDA,232537.00,01,12,2017,00,00*62
2017-12-01 18:25:36 1512170736.801436: $GPGGA,232537,3946.9715,N,08404.9840,W,2,11,0.80,297.29,M,-33.325,M,,*78
2017-12-01 18:25:36 1512170736.801512: $GPRMC,232537,A,3946.9715,N,08404.9840,W,0.0000,0.000,011217,,*36
2017-12-01 18:25:36 1512170736.801574: $GPGSA,A,3,1,3,14,16,22,23,25,26,31,32,138,,2.0,0.8,1.5*07
2017-12-01 18:25:37 1512170737.353573: $GPZDA,232538.00,01,12,2017,00,00*6D
2017-12-01 18:25:37 1512170737.353762: $GPGGA,232538,3946.9715,N,08404.9840,W,2,11,0.80,297.29,M,-33.325,M,,*77
2017-12-01 18:25:37 1512170737.353832: $GPRMC,232538,A,3946.9715,N,08404.9840,W,0.0000,0.000,011217,,*39
2017-12-01 18:25:37 1512170737.353893: $GPGSA,A,3,1,3,14,16,22,23,25,26,31,32,138,,2.0,0.8,1.5*07
2017-12-01 18:25:38 1512170738.350461: $GPZDA,232539.00,01,12,2017,00,00*6C
2017-12-01 18:25:38 1512170738.350649: $GPGGA,232539,3946.9715,N,08404.9840,W,2,11,0.80,297.29,M,-33.325,M,,*76
2017-12-01 18:25:38 1512170738.350717: $GPRMC,232539,A,3946.9715,N,08404.9840,W,0.0000,0.000,011217,,*38
2017-12-01 18:25:38 1512170738.350778: $GPGSA,A,3,1,3,14,16,22,23,25,26,31,32,138,,2.0,0.8,1.5*07
2017-12-01 18:25:39 1512170739.686164: $GPGSV,3,1,12,01,05,252,38,03,40,298,48,14,55,093,43,16,24,189,43*74
2017-12-01 18:25:39 1512170739.686350: $GPGSV,3,2,12,22,50,270,45,23,12,301,42,25,17,040,40,26,54,171,47*7C
2017-12-01 18:25:39 1512170739.686416: $GPGSV,3,3,12,31,66,027,46,32,35,108,38,29,11,072,00,138,38,213,46*47
2017-12-01 18:25:39 1512170739.799550: $GPZDA,232540.00,01,12,2017,00,00*62
2017-12-01 18:25:39 1512170739.799718: $GPGGA,232540,3946.9715,N,08404.9840,W,2,11,0.80,297.29,M,-33.325,M,,*78
2017-12-01 18:25:39 1512170739.799786: $GPRMC,232540,A,3946.9715,N,08404.9840,W,0.0000,0.000,011217,,*36
2017-12-01 18:25:39 1512170739.799847: $GPGSA,A,3,1,3,14,16,22,23,25,26,31,32,138,,2.0,0.8,1.5*07
2017-12-01 18:25:40 1512170740.351721: $GPZDA,232541.00,01,12,2017,00,00*63
2017-12-01 18:25:40 1512170740.351903: $GPGGA,232541,3946.9715,N,08404.9840,W,2,11,0.80,297.29,M,-33.325,M,,*79
2017-12-01 18:25:40 1512170740.351991: $GPRMC,232541,A,3946.9715,N,08404.9840,W,0.0000,0.000,011217,,*37
2017-12-01 18:25:40 1512170740.352055: $GPGSA,A,3,1,3,14,16,22,23,25,26,31,32,138,,2.0,0.8,1.5*07
2017-12-01 18:25:41 1512170741.353334: $GPZDA,232542.00,01,12,2017,00,00*60
2017-12-01 18:25:41 1512170741.353510: $GPGGA,232542,3946.9715,N,08404.9840,W,2,11,0.80,297.29,M,-33.325,M,,*7A
2017-12-01 18:25:41 1512170741.353579: $GPRMC,232542,A,3946.9715,N,08404.9840,W,0.0000,0.000,011217,,*34
2017-12-01 18:25:41 1512170741.353640: $GPGSA,A,3,1,3,14,16,22,23,25,26,31,32,138,,2.0,0.8,1.5*07
2017-12-01 18:25:42 1512170742.681592: $GPGSV,3,1,12,01,05,252,38,03,40,298,47,14,55,093,43,16,24,189,43*7B
2017-12-01 18:25:42 1512170742.681771: $GPGSV,3,2,12,22,50,270,45,23,12,301,43,25,17,040,40,26,54,171,47*7D
2017-12-01 18:25:42 1512170742.681837: $GPGSV,3,3,12,31,66,027,46,32,35,108,38,29,11,072,00,138,38,213,46*47
2017-12-01 18:25:42 1512170742.794872: $GPZDA,232543.00,01,12,2017,00,00*61
2017-12-01 18:25:42 1512170742.795034: $GPGGA,232543,3946.9715,N,08404.9840,W,2,11,0.80,297.29,M,-33.325,M,,*7B
2017-12-01 18:25:42 1512170742.795100: $GPRMC,232543,A,3946.9715,N,08404.9840,W,0.0000,0.000,011217,,*35
2017-12-01 18:25:42 1512170742.795160: $GPGSA,A,3,1,3,14,16,22,23,25,26,31,32,138,,2.0,0.8,1.5*07
2017-12-01 18:25:43 1512170743.353350: $GPZDA,232544.00,01,12,2017,00,00*66
2017-12-01 18:25:43 1512170743.353520: $GPGGA,232544,3946.9715,N,08404.9840,W,2,11,0.80,297.29,M,-33.325,M,,*7C
2017-12-01 18:25:43 1512170743.353587: $GPRMC,232544,A,3946.9715,N,08404.9840,W,0.0000,0.000,011217,,*32
2017-12-01 18:25:43 1512170743.353647: $GPGSA,A,3,1,3,14,16,22,23,25,26,31,32,138,,2.0,0.8,1.5*07
2017-12-01 18:25:44 1512170744.361719: $GPZDA,232545.00,01,12,2017,00,00*67
2017-12-01 18:25:44 1512170744.361937: $GPGGA,232545,3946.9715,N,08404.9840,W,2,11,0.80,297.29,M,-33.325,M,,*7D
2017-12-01 18:25:44 1512170744.362006: $GPRMC,232545,A,3946.9715,N,08404.9840,W,0.0000,0.000,011217,,*33
2017-12-01 18:25:44 1512170744.362067: $GPGSA,A,3,1,3,14,16,22,23,25,26,31,32,138,,2.0,0.8,1.5*07
2017-12-01 18:25:45 1512170745.688601: $GPGSV,3,1,12,01,05,252,37,03,40,298,47,14,55,093,43,16,24,189,42*75
2017-12-01 18:25:45 1512170745.688796: $GPGSV,3,2,12,22,50,270,45,23,12,301,43,25,17,040,40,26,54,171,47*7D
2017-12-01 18:25:45 1512170745.688885: $GPGSV,3,3,12,31,66,027,46,32,35,108,39,29,11,072,22,138,38,213,46*46
2017-12-01 18:25:45 1512170745.800706: $GPZDA,232546.00,01,12,2017,00,00*64
2017-12-01 18:25:45 1512170745.800874: $GPGGA,232546,3946.9719,N,08404.9839,W,2,11,0.80,296.52,M,-33.325,M,,*71
2017-12-01 18:25:45 1512170745.800941: $GPRMC,232546,A,3946.9719,N,08404.9839,W,0.0000,0.000,011217,,*32
2017-12-01 18:25:45 1512170745.801003: $GPGSA,A,3,1,3,14,16,22,23,25,26,31,32,138,,2.0,0.8,1.5*07
2017-12-01 18:25:46 1512170746.427402: $GPZDA,232547.00,01,12,2017,00,00*65
2017-12-01 18:25:46 1512170746.427573: $GPGGA,232547,3946.9719,N,08404.9839,W,2,11,0.80,296.52,M,-33.325,M,,*70
2017-12-01 18:25:46 1512170746.427639: $GPRMC,232547,A,3946.9719,N,08404.9839,W,0.0000,0.000,011217,,*33
2017-12-01 18:25:46 1512170746.427700: $GPGSA,A,3,1,3,14,16,22,23,25,26,31,32,138,,2.0,0.8,1.5*07
2017-12-01 18:25:47 1512170747.352112: $GPZDA,232548.00,01,12,2017,00,00*6A
2017-12-01 18:25:47 1512170747.352286: $GPGGA,232548,3946.9719,N,08404.9839,W,2,11,0.80,296.52,M,-33.325,M,,*7F
2017-12-01 18:25:47 1512170747.352355: $GPRMC,232548,A,3946.9719,N,08404.9839,W,0.0000,0.000,011217,,*3C
2017-12-01 18:25:47 1512170747.352415: $GPGSA,A,3,1,3,14,16,22,23,25,26,31,32,138,,2.0,0.8,1.5*07
2017-12-01 18:25:48 1512170748.682757: $GPGSV,3,1,12,01,05,252,36,03,40,298,47,14,55,093,43,16,24,189,43*75
2017-12-01 18:25:48 1512170748.682938: $GPGSV,3,2,12,22,50,270,45,23,12,301,43,25,17,040,39,26,54,171,47*73
2017-12-01 18:25:48 1512170748.683005: $GPGSV,3,3,12,31,66,027,46,32,35,108,39,29,11,072,00,138,38,213,46*46
2017-12-01 18:25:48 1512170748.796051: $GPZDA,232549.00,01,12,2017,00,00*6B
2017-12-01 18:25:48 1512170748.796224: $GPGGA,232549,3946.9719,N,08404.9839,W,2,11,0.80,296.52,M,-33.325,M,,*7E
2017-12-01 18:25:48 1512170748.796291: $GPRMC,232549,A,3946.9719,N,08404.9839,W,0.0000,0.000,011217,,*3D
2017-12-01 18:25:48 1512170748.796352: $GPGSA,A,3,1,3,14,16,22,23,25,26,31,32,138,,2.0,0.8,1.5*07
