2017-11-16 15:38:30 1510864710.773282: {"class":"VERSION","release":"3.17","rev":"3.17","proto_major":3,"proto_minor":12}
2017-11-16 15:38:30 1510864710.773537: {"class":"DEVICES","devices":[{"class":"DEVICE","path":"/dev/ttyUSB0","driver":"SiRF","subtype":"9\u0006GSD4e_4.1.2-P1_RPATCH.05-F-GPS-4R-1510281 11/03/2015 307","activated":"2017-11-16T20:38:30.680Z","flags":1,"native":1,"bps":4800,"parity":"N","stopbits":1,"cycle":1.00}]}
2017-11-16 15:38:30 1510864710.773594: {"class":"WATCH","enable":true,"json":false,"nmea":true,"raw":0,"scaled":false,"timing":false,"split24":false,"pps":false}
2017-11-16 15:38:31 1510864711.718744: $GPGSV,3,1,12,27,03,255,05,10,74,340,51,14,33,258,44,31,04,204,38*79
2017-11-16 15:38:31 1510864711.718915: $GPGSV,3,2,12,18,66,105,48,20,04,121,24,21,23,178,43,24,40,054,50*75
2017-11-16 15:38:31 1510864711.718976: $GPGSV,3,3,12,08,04,288,30,32,50,271,46,12,13,102,35,138,38,213,44*40
2017-11-16 15:38:31 1510864711.832033: $GPZDA,203830.00,16,11,2017,00,00*6F
2017-11-16 15:38:31 1510864711.832193: $GPGGA,203830,3946.9564,N,08404.9860,W,2,12,1.20,308.97,M,-33.324,M,,*7D
2017-11-16 15:38:31 1510864711.832254: $GPRMC,203830,A,3946.9564,N,08404.9860,W,0.0000,0.000,161117,,*3D
2017-11-16 15:38:31 1510864711.832309: $GPGSA,A,3,27,10,14,31,18,20,21,24,8,32,12,138,1.6,1.2,1.3*39
2017-11-16 15:38:32 1510864712.365628: $GPZDA,203831.00,16,11,2017,00,00*6E
2017-11-16 15:38:32 1510864712.365780: $GPGGA,203831,3946.9564,N,08404.9860,W,2,12,1.20,308.97,M,-33.324,M,,*7C
2017-11-16 15:38:32 1510864712.365841: $GPRMC,203831,A,3946.9564,N,08404.9860,W,0.0000,0.000,161117,,*3C
2017-11-16 15:38:32 1510864712.365897: $GPGSA,A,3,27,10,14,31,18,20,21,24,8,32,12,138,1.6,1.2,1.3*39
2017-11-16 15:38:33 1510864713.370202: $GPZDA,203832.00,16,11,2017,00,00*6D
2017-11-16 15:38:33 1510864713.370413: $GPGGA,203832,3946.9564,N,08404.9860,W,2,12,1.20,308.97,M,-33.324,M,,*7F
2017-11-16 15:38:33 1510864713.370477: $GPRMC,203832,A,3946.9564,N,08404.9860,W,0.0000,0.000,161117,,*3F
2017-11-16 15:38:33 1510864713.370533: $GPGSA,A,3,27,10,14,31,18,20,21,24,8,32,12,138,1.6,1.2,1.3*39
2017-11-16 15:38:34 1510864714.699839: $GPGSV,3,1,12,27,03,255,18,10,74,340,51,14,33,258,44,31,04,204,38*75
2017-11-16 15:38:34 1510864714.700005: $GPGSV,3,2,12,18,66,105,48,20,04,121,23,21,23,178,43,24,40,054,50*72
2017-11-16 15:38:34 1510864714.700066: $GPGSV,3,3,12,08,04,288,30,32,50,271,46,12,13,102,35,138,38,213,45*41
2017-11-16 15:38:34 1510864714.813421: $GPZDA,203833.00,16,11,2017,00,00*6C
2017-11-16 15:38:34 1510864714.813565: $GPGGA,203833,3946.9564,N,08404.9860,W,2,12,1.20,308.97,M,-33.324,M,,*7E
2017-11-16 15:38:34 1510864714.813625: $GPRMC,203833,A,3946.9564,N,08404.9860,W,0.0000,0.000,161117,,*3E
2017-11-16 15:38:34 1510864714.813682: $GPGSA,A,3,27,10,14,31,18,20,21,24,8,32,12,138,1.6,1.2,1.3*39
2017-11-16 15:38:35 1510864715.381869: $GPZDA,203834.00,16,11,2017,00,00*6B
2017-11-16 15:38:35 1510864715.382036: $GPGGA,203834,3946.9564,N,08404.9860,W,2,12,1.20,308.97,M,-33.324,M,,*79
2017-11-16 15:38:35 1510864715.382114: $GPRMC,203834,A,3946.9564,N,08404.9860,W,0.0000,0.000,161117,,*39
2017-11-16 15:38:35 1510864715.382171: $GPGSA,A,3,27,10,14,31,18,20,21,24,8,32,12,138,1.6,1.2,1.3*39
2017-11-16 15:38:36 1510864716.365616: $GPZDA,203835.00,16,11,2017,00,00*6A
2017-11-16 15:38:36 1510864716.365778: $GPGGA,203835,3946.9564,N,08404.9860,W,2,12,1.20,308.97,M,-33.324,M,,*78
2017-11-16 15:38:36 1510864716.365840: $GPRMC,203835,A,3946.9564,N,08404.9860,W,0.0000,0.000,161117,,*38
2017-11-16 15:38:36 1510864716.365896: $GPGSA,A,3,27,10,14,31,18,20,21,24,8,32,12,138,1.6,1.2,1.3*39
2017-11-16 15:38:37 1510864717.725053: $GPGSV,3,1,12,15,07,069,01,10,74,340,51,14,33,258,44,31,04,204,38*75
2017-11-16 15:38:37 1510864717.725154: $GPGSV,3,2,12,18,66,105,48,20,04,121,23,21,23,178,43,24,40,054,50*72
2017-11-16 15:38:37 1510864717.725184: $GPGSV,3,3,12,08,04,288,31,32,50,271,45,12,13,102,35,138,38,213,45*43
2017-11-16 15:38:37 1510864717.837815: $GPZDA,203836.00,16,11,2017,00,00*69
2017-11-16 15:38:37 1510864717.837927: $GPGGA,203836,3946.9564,N,08404.9860,W,2,11,1.20,308.97,M,-33.324,M,,*78
2017-11-16 15:38:37 1510864717.837991: $GPRMC,203836,A,3946.9564,N,08404.9860,W,0.0000,0.000,161117,,*3B
2017-11-16 15:38:37 1510864717.838020: $GPGSA,A,3,10,14,31,18,20,21,24,8,32,12,138,,1.6,1.2,1.3*3C
2017-11-16 15:38:38 1510864718.361792: $GPZDA,203837.00,16,11,2017,00,00*68
2017-11-16 15:38:38 1510864718.361954: $GPGGA,203837,3946.9564,N,08404.9860,W,2,11,1.20,308.97,M,-33.324,M,,*79
2017-11-16 15:38:38 1510864718.362015: $GPRMC,203837,A,3946.9564,N,08404.9860,W,0.0000,0.000,161117,,*3A
2017-11-16 15:38:38 1510864718.362071: $GPGSA,A,3,10,14,31,18,20,21,24,8,32,12,138,,1.6,1.2,1.3*3C
2017-11-16 15:38:39 1510864719.365188: $GPZDA,203838.00,16,11,2017,00,00*67
2017-11-16 15:38:39 1510864719.365353: $GPGGA,203838,3946.9564,N,08404.9860,W,2,11,1.20,308.97,M,-33.324,M,,*76
2017-11-16 15:38:39 1510864719.365413: $GPRMC,203838,A,3946.9564,N,08404.9860,W,0.0000,0.000,161117,,*35
2017-11-16 15:38:39 1510864719.365469: $GPGSA,A,3,10,14,31,18,20,21,24,8,32,12,138,,1.6,1.2,1.3*3C
2017-11-16 15:38:40 1510864720.701129: $GPGSV,3,1,12,27,03,255,26,10,74,340,51,14,33,258,44,31,04,204,37*77
2017-11-16 15:38:40 1510864720.701311: $GPGSV,3,2,12,18,66,105,48,20,04,121,22,21,23,178,43,24,40,054,50*73
2017-11-16 15:38:40 1510864720.701372: $GPGSV,3,3,12,08,04,288,32,32,50,271,44,12,13,102,34,138,38,213,44*41
