2017-11-15 19:44:22 1510793062.033491: {"class":"VERSION","release":"3.17","rev":"3.17","proto_major":3,"proto_minor":12}
2017-11-15 19:44:22 1510793062.038440: {"class":"DEVICES","devices":[{"class":"DEVICE","path":"/dev/ttyUSB0","driver":"SiRF","subtype":"9\u0006GSD4e_4.1.2-P1_RPATCH.05-F-GPS-4R-1510281 11/03/2015 307","activated":"2017-11-16T00:44:21.920Z","flags":1,"native":1,"bps":4800,"parity":"N","stopbits":1,"cycle":1.00}]}
2017-11-15 19:44:22 1510793062.038651: {"class":"WATCH","enable":true,"json":false,"nmea":true,"raw":0,"scaled":false,"timing":false,"split24":false,"pps":false}
2017-11-15 19:44:22 1510793062.329638: $GPZDA,004421.00,16,11,2017,00,00*66
2017-11-15 19:44:22 1510793062.329817: $GPGGA,004421,3946.9640,N,08404.9512,W,1,08,1.20,340.49,M,-33.324,M,,*7E
2017-11-15 19:44:22 1510793062.329880: $GPRMC,004421,A,3946.9640,N,08404.9512,W,0.8414,39.347,161117,,*0A
2017-11-15 19:44:22 1510793062.329936: $GPGSA,A,3,32,16,22,26,14,31,23,3,,,,,3.4,1.2,2.9*0A
2017-11-15 19:44:23 1510793063.345412: $GPZDA,004422.00,16,11,2017,00,00*65
2017-11-15 19:44:23 1510793063.345579: $GPGGA,004422,3946.9640,N,08404.9512,W,1,08,1.20,340.49,M,-33.324,M,,*7D
2017-11-15 19:44:23 1510793063.345642: $GPRMC,004422,A,3946.9640,N,08404.9512,W,0.8414,39.347,161117,,*09
2017-11-15 19:44:23 1510793063.345698: $GPGSA,A,3,32,16,22,26,14,31,23,3,,,,,3.4,1.2,2.9*0A
2017-11-15 19:44:24 1510793064.682463: $GPGSV,3,1,11,32,31,112,15,16,28,190,24,22,50,261,21,26,59,169,22*78
2017-11-15 19:44:24 1510793064.682630: $GPGSV,3,2,11,14,51,100,24,31,63,033,04,25,12,039,00,23,15,303,14*73
2017-11-15 19:44:24 1510793064.682689: $GPGSV,3,3,11,03,42,292,16,29,12,066,00,01,02,249,00*46
2017-11-15 19:44:24 1510793064.794561: $GPZDA,004423.00,16,11,2017,00,00*64
2017-11-15 19:44:24 1510793064.794687: $GPGGA,004423,3946.9648,N,08404.9511,W,1,07,1.20,340.36,M,-33.324,M,,*70
2017-11-15 19:44:24 1510793064.794745: $GPRMC,004423,A,3946.9648,N,08404.9511,W,0.7278,23.636,161117,,*08
2017-11-15 19:44:24 1510793064.794800: $GPGSA,A,3,32,16,22,26,14,23,3,,,,,,3.4,1.2,2.9*08
2017-11-15 19:44:25 1510793065.347287: $GPZDA,004424.00,16,11,2017,00,00*63
2017-11-15 19:44:25 1510793065.347446: $GPGGA,004424,3946.9648,N,08404.9511,W,1,07,1.20,340.36,M,-33.324,M,,*77
2017-11-15 19:44:25 1510793065.347507: $GPRMC,004424,A,3946.9648,N,08404.9511,W,1.2132,3.551,161117,,*36
2017-11-15 19:44:25 1510793065.347563: $GPGSA,A,3,32,16,22,26,14,23,3,,,,,,3.4,1.2,2.9*08
2017-11-15 19:44:26 1510793066.347417: $GPZDA,004425.00,16,11,2017,00,00*62
2017-11-15 19:44:26 1510793066.347583: $GPGGA,004425,3946.9652,N,08404.9511,W,1,07,1.20,341.00,M,-33.324,M,,*79
2017-11-15 19:44:26 1510793066.347645: $GPRMC,004425,A,3946.9652,N,08404.9511,W,1.0269,4.197,161117,,*3A
2017-11-15 19:44:26 1510793066.347700: $GPGSA,A,3,32,16,22,26,14,23,3,,,,,,3.4,1.2,2.9*08
2017-11-15 19:44:27 1510793067.666565: $GPGSV,3,1,11,32,31,112,15,16,28,190,24,22,50,261,21,26,59,169,22*78
2017-11-15 19:44:27 1510793067.666785: $GPGSV,3,2,11,14,51,100,24,31,63,033,04,25,12,039,00,23,15,303,09*7F
2017-11-15 19:44:27 1510793067.666856: $GPGSV,3,3,11,03,42,292,16,29,12,066,00,01,02,249,00*46
2017-11-15 19:44:27 1510793067.779948: $GPZDA,004426.00,16,11,2017,00,00*61
2017-11-15 19:44:27 1510793067.780104: $GPGGA,004426,3946.9660,N,08404.9510,W,1,07,1.20,340.88,M,-33.324,M,,*7B
2017-11-15 19:44:27 1510793067.780164: $GPRMC,004426,A,3946.9660,N,08404.9510,W,1.0567,17.448,161117,,*05
2017-11-15 19:44:27 1510793067.780219: $GPGSA,A,3,32,16,22,26,14,23,3,,,,,,3.4,1.2,2.9*08
2017-11-15 19:44:28 1510793068.329518: $GPZDA,004427.00,16,11,2017,00,00*60
2017-11-15 19:44:28 1510793068.329683: $GPGGA,004427,3946.9660,N,08404.9510,W,1,07,1.20,340.88,M,-33.324,M,,*7A
2017-11-15 19:44:28 1510793068.329745: $GPRMC,004427,A,3946.9660,N,08404.9510,W,0.7278,23.636,161117,,*07
2017-11-15 19:44:28 1510793068.329801: $GPGSA,A,3,32,16,22,26,14,23,3,,,,,,3.4,1.2,2.9*08
2017-11-15 19:44:29 1510793069.330416: $GPZDA,004428.00,16,11,2017,00,00*6F
2017-11-15 19:44:29 1510793069.330584: $GPGGA,004428,3946.9660,N,08404.9517,W,1,07,1.20,340.80,M,-33.324,M,,*7A
2017-11-15 19:44:29 1510793069.330715: $GPRMC,004428,A,3946.9660,N,08404.9517,W,0.7246,344.668,161117,,*3B
2017-11-15 19:44:29 1510793069.330775: $GPGSA,A,3,32,16,22,26,14,23,3,,,,,,3.4,1.2,2.9*08
2017-11-15 19:44:30 1510793070.664920: $GPGSV,3,1,11,32,31,112,16,16,28,190,24,22,50,261,20,26,59,169,22*7A
2017-11-15 19:44:30 1510793070.665097: $GPGSV,3,2,11,14,51,100,24,31,63,033,07,25,12,039,00,23,15,303,07*72
2017-11-15 19:44:30 1510793070.665156: $GPGSV,3,3,11,03,42,292,16,29,12,066,00,01,02,249,00*46
2017-11-15 19:44:30 1510793070.778238: $GPZDA,004429.00,16,11,2017,00,00*6E
2017-11-15 19:44:30 1510793070.778397: $GPGGA,004429,3946.9668,N,08404.9516,W,1,08,1.40,340.67,M,-33.324,M,,*72
2017-11-15 19:44:30 1510793070.778458: $GPRMC,004429,A,3946.9668,N,08404.9516,W,1.2381,352.270,161117,,*37
2017-11-15 19:44:30 1510793070.778514: $GPGSA,A,3,32,16,22,26,14,31,23,3,,,,,3.4,1.4,2.9*0C
2017-11-15 19:44:31 1510793071.404857: $GPZDA,004430.00,16,11,2017,00,00*66
2017-11-15 19:44:31 1510793071.405032: $GPGGA,004430,3946.9672,N,08404.9523,W,1,08,1.40,341.23,M,-33.324,M,,*76
2017-11-15 19:44:31 1510793071.405095: $GPRMC,004430,A,3946.9672,N,08404.9523,W,1.3888,354.153,161117,,*35
2017-11-15 19:44:31 1510793071.405151: $GPGSA,A,3,32,16,22,26,14,31,23,3,,,,,3.4,1.4,2.9*0C
