2017-11-16 16:46:14 1510868774.320401: {"class":"VERSION","release":"3.17","rev":"3.17","proto_major":3,"proto_minor":12}
2017-11-16 16:46:14 1510868774.320967: {"class":"DEVICES","devices":[{"class":"DEVICE","path":"/dev/ttyUSB0","driver":"SiRF","subtype":"9\u0006GSD4e_4.1.2-P1_RPATCH.05-F-GPS-4R-1510281 11/03/2015 307","activated":"2017-11-16T21:46:14.283Z","flags":1,"native":1,"bps":4800,"parity":"N","stopbits":1,"cycle":1.00}]}
2017-11-16 16:46:14 1510868774.321106: {"class":"WATCH","enable":true,"json":false,"nmea":true,"raw":0,"scaled":false,"timing":false,"split24":false,"pps":false}
2017-11-16 16:46:14 1510868774.796929: $GPGSV,3,1,12,01,14,318,38,10,70,132,48,11,11,301,20,12,25,072,48*7A
2017-11-16 16:46:14 1510868774.797111: $GPGSV,3,2,12,14,55,292,44,18,38,135,44,24,14,045,46,25,29,114,42*7C
2017-11-16 16:46:14 1510868774.797172: $GPGSV,3,3,12,31,34,211,45,32,68,328,51,22,02,310,31,138,38,213,44*4D
2017-11-16 16:46:14 1510868774.910152: $GPZDA,214613.00,16,11,2017,00,00*66
2017-11-16 16:46:14 1510868774.910306: $GPGGA,214613,3946.9580,N,08404.9815,W,2,12,0.80,307.02,M,-33.324,M,,*74
2017-11-16 16:46:14 1510868774.910367: $GPRMC,214613,A,3946.9580,N,08404.9815,W,0.0000,0.000,161117,,*3C
2017-11-16 16:46:14 1510868774.910423: $GPGSA,A,3,1,10,11,12,14,18,24,25,31,32,22,138,1.6,0.8,1.3*38
2017-11-16 16:46:15 1510868775.456327: $GPZDA,214614.00,16,11,2017,00,00*61
2017-11-16 16:46:15 1510868775.456513: $GPGGA,214614,3946.9580,N,08404.9815,W,2,12,0.80,307.02,M,-33.324,M,,*73
2017-11-16 16:46:15 1510868775.456576: $GPRMC,214614,A,3946.9580,N,08404.9815,W,0.0000,0.000,161117,,*3B
2017-11-16 16:46:15 1510868775.456649: $GPGSA,A,3,1,10,11,12,14,18,24,25,31,32,22,138,1.6,0.8,1.3*38
2017-11-16 16:46:16 1510868776.445598: $GPZDA,214615.00,16,11,2017,00,00*60
2017-11-16 16:46:16 1510868776.445757: $GPGGA,214615,3946.9580,N,08404.9815,W,2,12,0.80,307.02,M,-33.324,M,,*72
2017-11-16 16:46:16 1510868776.445817: $GPRMC,214615,A,3946.9580,N,08404.9815,W,0.0000,0.000,161117,,*3A
2017-11-16 16:46:16 1510868776.445892: $GPGSA,A,3,1,10,11,12,14,18,24,25,31,32,22,138,1.6,0.8,1.3*38
2017-11-16 16:46:17 1510868777.796161: $GPGSV,3,1,12,01,14,318,38,10,70,132,49,11,11,301,21,12,25,072,48*7A
2017-11-16 16:46:17 1510868777.796333: $GPGSV,3,2,12,14,55,292,44,18,38,135,44,24,14,045,46,25,29,114,42*7C
2017-11-16 16:46:17 1510868777.796393: $GPGSV,3,3,12,31,34,211,45,32,68,328,51,22,02,310,25,138,38,213,44*48
2017-11-16 16:46:17 1510868777.909685: $GPZDA,214616.00,16,11,2017,00,00*63
2017-11-16 16:46:17 1510868777.909843: $GPGGA,214616,3946.9580,N,08404.9815,W,2,12,0.80,307.02,M,-33.324,M,,*71
2017-11-16 16:46:17 1510868777.909927: $GPRMC,214616,A,3946.9580,N,08404.9815,W,0.0000,0.000,161117,,*39
2017-11-16 16:46:17 1510868777.909985: $GPGSA,A,3,1,10,11,12,14,18,24,25,31,32,22,138,1.6,0.8,1.3*38
2017-11-16 16:46:18 1510868778.445595: $GPZDA,214617.00,16,11,2017,00,00*62
2017-11-16 16:46:18 1510868778.445758: $GPGGA,214617,3946.9580,N,08404.9815,W,2,12,0.80,307.02,M,-33.324,M,,*70
2017-11-16 16:46:18 1510868778.445819: $GPRMC,214617,A,3946.9580,N,08404.9815,W,0.0000,0.000,161117,,*38
2017-11-16 16:46:18 1510868778.445875: $GPGSA,A,3,1,10,11,12,14,18,24,25,31,32,22,138,1.6,0.8,1.3*38
2017-11-16 16:46:19 1510868779.462472: $GPZDA,214618.00,16,11,2017,00,00*6D
2017-11-16 16:46:19 1510868779.462666: $GPGGA,214618,3946.9580,N,08404.9815,W,2,12,0.80,307.02,M,-33.324,M,,*7F
2017-11-16 16:46:19 1510868779.462730: $GPRMC,214618,A,3946.9580,N,08404.9815,W,0.0000,0.000,161117,,*37
2017-11-16 16:46:19 1510868779.462787: $GPGSA,A,3,1,10,11,12,14,18,24,25,31,32,22,138,1.6,0.8,1.3*38
2017-11-16 16:46:20 1510868780.775766: $GPGSV,3,1,12,01,14,318,38,10,70,132,49,11,11,301,29,12,25,072,47*7D
2017-11-16 16:46:20 1510868780.775949: $GPGSV,3,2,12,14,55,292,44,18,38,135,44,24,14,045,46,25,29,114,42*7C
2017-11-16 16:46:20 1510868780.776010: $GPGSV,3,3,12,31,34,211,45,32,68,328,51,22,02,310,24,138,38,213,44*49
2017-11-16 16:46:20 1510868780.889101: $GPZDA,214619.00,16,11,2017,00,00*6C
2017-11-16 16:46:20 1510868780.889262: $GPGGA,214619,3946.9580,N,08404.9815,W,2,12,0.80,307.02,M,-33.324,M,,*7E
2017-11-16 16:46:20 1510868780.889376: $GPRMC,214619,A,3946.9580,N,08404.9815,W,0.0000,0.000,161117,,*36
2017-11-16 16:46:20 1510868780.889434: $GPGSA,A,3,1,10,11,12,14,18,24,25,31,32,22,138,1.6,0.8,1.3*38
2017-11-16 16:46:21 1510868781.514625: $GPZDA,214620.00,16,11,2017,00,00*66
2017-11-16 16:46:21 1510868781.514809: $GPGGA,214620,3946.9580,N,08404.9815,W,2,12,0.80,307.02,M,-33.324,M,,*74
2017-11-16 16:46:21 1510868781.514873: $GPRMC,214620,A,3946.9580,N,08404.9815,W,0.0000,0.000,161117,,*3C
2017-11-16 16:46:21 1510868781.514954: $GPGSA,A,3,1,10,11,12,14,18,24,25,31,32,22,138,1.6,0.8,1.3*38
2017-11-16 16:46:22 1510868782.444111: $GPZDA,214621.00,16,11,2017,00,00*67
2017-11-16 16:46:22 1510868782.444275: $GPGGA,214621,3946.9580,N,08404.9815,W,2,12,0.80,307.02,M,-33.324,M,,*75
2017-11-16 16:46:22 1510868782.444339: $GPRMC,214621,A,3946.9580,N,08404.9815,W,0.0000,0.000,161117,,*3D
2017-11-16 16:46:22 1510868782.444398: $GPGSA,A,3,1,10,11,12,14,18,24,25,31,32,22,138,1.6,0.8,1.3*38
2017-11-16 16:46:23 1510868783.779928: $GPGSV,3,1,12,01,14,318,39,10,70,132,49,11,11,301,30,12,25,072,47*74
2017-11-16 16:46:23 1510868783.780128: $GPGSV,3,2,12,14,55,292,44,18,38,135,44,24,14,045,45,25,29,114,42*7F
2017-11-16 16:46:23 1510868783.780192: $GPGSV,3,3,12,31,34,211,45,32,68,328,50,22,02,310,35,138,38,213,44*48
2017-11-16 16:46:23 1510868783.893649: $GPZDA,214622.00,16,11,2017,00,00*64
2017-11-16 16:46:23 1510868783.893813: $GPGGA,214622,3946.9580,N,08404.9815,W,2,12,0.80,307.02,M,-33.324,M,,*76
2017-11-16 16:46:23 1510868783.893876: $GPRMC,214622,A,3946.9580,N,08404.9815,W,0.0000,0.000,161117,,*3E
2017-11-16 16:46:23 1510868783.893935: $GPGSA,A,3,1,10,11,12,14,18,24,25,31,32,22,138,1.6,0.8,1.3*38
