2017-12-31 18:36:18 1514763378.162536: {"class":"VERSION","release":"3.16","rev":"3.16-4","proto_major":3,"proto_minor":11}
2017-12-31 18:36:18 1514763378.163084: {"class":"DEVICES","devices":[{"class":"DEVICE","path":"/dev/ttyUSB0","driver":"SiRF","activated":"2017-12-31T23:36:17.492Z","flags":1,"native":1,"bps":4800,"parity":"N","stopbits":1,"cycle":1.00}]}
2017-12-31 18:36:18 1514763378.163202: {"class":"WATCH","enable":true,"json":false,"nmea":true,"raw":0,"scaled":false,"timing":false,"split24":false,"pps":false}
2017-12-31 18:36:18 1514763378.688066: $GPGSV,3,1,12,22,12,207,29,23,64,294,40,09,31,312,41,03,22,225,39*7F
2017-12-31 18:36:18 1514763378.688260: $GPGSV,3,2,12,16,84,042,42,08,11,177,26,14,04,138,18,31,20,084,40*77
2017-12-31 18:36:18 1514763378.688326: $GPGSV,3,3,12,27,34,147,40,07,06,280,42,26,50,046,46,135,22,240,44*43
2017-12-31 18:36:18 1514763378.801475: $GPZDA,233619.00,31,12,2017,00,00*6F
2017-12-31 18:36:18 1514763378.801621: $GPGGA,233619,3946.9578,N,08404.9830,W,2,12,0.80,309.03,M,-33.324,M,,*74
2017-12-31 18:36:18 1514763378.801687: $GPRMC,233619,A,3946.9578,N,08404.9830,W,0.0000,0.000,311217,,*35
2017-12-31 18:36:18 1514763378.801746: $GPGSA,A,3,22,23,9,3,16,8,14,31,27,7,26,135,1.7,0.8,1.3*0C
2017-12-31 18:36:19 1514763379.346123: $GPZDA,233620.00,31,12,2017,00,00*65
2017-12-31 18:36:19 1514763379.346291: $GPGGA,233620,3946.9578,N,08404.9830,W,2,12,0.80,309.03,M,-33.324,M,,*7E
2017-12-31 18:36:19 1514763379.346357: $GPRMC,233620,A,3946.9578,N,08404.9830,W,0.0000,0.000,311217,,*3F
2017-12-31 18:36:19 1514763379.346417: $GPGSA,A,3,22,23,9,3,16,8,14,31,27,7,26,135,1.7,0.8,1.3*0C
2017-12-31 18:36:20 1514763380.378940: $GPZDA,233621.00,31,12,2017,00,00*64
2017-12-31 18:36:20 1514763380.379143: $GPGGA,233621,3946.9578,N,08404.9830,W,2,12,0.80,309.03,M,-33.324,M,,*7F
2017-12-31 18:36:20 1514763380.379211: $GPRMC,233621,A,3946.9578,N,08404.9830,W,0.0000,0.000,311217,,*3E
2017-12-31 18:36:20 1514763380.379272: $GPGSA,A,3,22,23,9,3,16,8,14,31,27,7,26,135,1.7,0.8,1.3*0C
2017-12-31 18:36:21 1514763381.688427: $GPGSV,3,1,12,22,12,207,29,23,64,294,40,09,31,312,41,03,22,225,40*71
2017-12-31 18:36:21 1514763381.688606: $GPGSV,3,2,12,16,84,042,42,08,11,177,26,14,04,138,18,31,20,084,40*77
2017-12-31 18:36:21 1514763381.688672: $GPGSV,3,3,12,27,34,147,40,07,06,280,42,26,50,046,46,135,22,240,44*43
2017-12-31 18:36:21 1514763381.801824: $GPZDA,233622.00,31,12,2017,00,00*67
2017-12-31 18:36:21 1514763381.802013: $GPGGA,233622,3946.9578,N,08404.9830,W,2,12,0.80,309.03,M,-33.324,M,,*7C
2017-12-31 18:36:21 1514763381.802098: $GPRMC,233622,A,3946.9578,N,08404.9830,W,0.0000,0.000,311217,,*3D
2017-12-31 18:36:21 1514763381.802161: $GPGSA,A,3,22,23,9,3,16,8,14,31,27,7,26,135,1.7,0.8,1.3*0C
2017-12-31 18:36:22 1514763382.388994: $GPZDA,233623.00,31,12,2017,00,00*66
2017-12-31 18:36:22 1514763382.389177: $GPGGA,233623,3946.9578,N,08404.9830,W,2,12,0.80,309.03,M,-33.324,M,,*7D
2017-12-31 18:36:22 1514763382.389243: $GPRMC,233623,A,3946.9578,N,08404.9830,W,0.0000,0.000,311217,,*3C
2017-12-31 18:36:22 1514763382.389304: $GPGSA,A,3,22,23,9,3,16,8,14,31,27,7,26,135,1.7,0.8,1.3*0C
2017-12-31 18:36:23 1514763383.352341: $GPZDA,233624.00,31,12,2017,00,00*61
2017-12-31 18:36:23 1514763383.352563: $GPGGA,233624,3946.9578,N,08404.9830,W,2,12,0.80,309.03,M,-33.324,M,,*7A
2017-12-31 18:36:23 1514763383.352636: $GPRMC,233624,A,3946.9578,N,08404.9830,W,0.0000,0.000,311217,,*3B
2017-12-31 18:36:23 1514763383.352697: $GPGSA,A,3,22,23,9,3,16,8,14,31,27,7,26,135,1.7,0.8,1.3*0C
2017-12-31 18:36:24 1514763384.686768: $GPGSV,3,1,12,22,12,207,29,23,64,294,40,09,31,312,41,03,22,225,40*71
2017-12-31 18:36:24 1514763384.686964: $GPGSV,3,2,12,16,84,042,41,08,11,177,23,14,04,138,18,31,20,084,40*71
2017-12-31 18:36:24 1514763384.687031: $GPGSV,3,3,12,27,34,147,40,07,06,280,42,26,50,046,46,135,22,240,44*43
2017-12-31 18:36:24 1514763384.800175: $GPZDA,233625.00,31,12,2017,00,00*60
2017-12-31 18:36:24 1514763384.800343: $GPGGA,233625,3946.9578,N,08404.9830,W,2,12,0.80,309.03,M,-33.324,M,,*7B
2017-12-31 18:36:24 1514763384.800409: $GPRMC,233625,A,3946.9578,N,08404.9830,W,0.0000,0.000,311217,,*3A
2017-12-31 18:36:24 1514763384.800523: $GPGSA,A,3,22,23,9,3,16,8,14,31,27,7,26,135,1.7,0.8,1.3*0C
2017-12-31 18:36:25 1514763385.426867: $GPZDA,233626.00,31,12,2017,00,00*63
2017-12-31 18:36:25 1514763385.427182: $GPGGA,233626,3946.9578,N,08404.9830,W,2,12,0.80,309.03,M,-33.324,M,,*78
2017-12-31 18:36:25 1514763385.427263: $GPRMC,233626,A,3946.9578,N,08404.9830,W,0.0000,0.000,311217,,*39
2017-12-31 18:36:25 1514763385.427325: $GPGSA,A,3,22,23,9,3,16,8,14,31,27,7,26,135,1.7,0.8,1.3*0C
2017-12-31 18:36:26 1514763386.352630: $GPZDA,233627.00,31,12,2017,00,00*62
2017-12-31 18:36:26 1514763386.352800: $GPGGA,233627,3946.9578,N,08404.9830,W,2,12,0.80,309.03,M,-33.324,M,,*79
2017-12-31 18:36:26 1514763386.352865: $GPRMC,233627,A,3946.9578,N,08404.9830,W,0.0000,0.000,311217,,*38
2017-12-31 18:36:26 1514763386.352946: $GPGSA,A,3,22,23,9,3,16,8,14,31,27,7,26,135,1.7,0.8,1.3*0C
2017-12-31 18:36:27 1514763387.723374: $GPGSV,3,1,12,22,12,207,30,23,64,294,40,09,31,312,42,03,22,225,40*7A
2017-12-31 18:36:27 1514763387.723552: $GPGSV,3,2,12,16,84,042,41,08,11,177,20,14,04,138,18,31,20,084,40*72
2017-12-31 18:36:27 1514763387.723618: $GPGSV,3,3,12,27,34,147,40,07,06,280,42,26,50,046,46,135,22,240,44*43
2017-12-31 18:36:27 1514763387.836745: $GPZDA,233628.00,31,12,2017,00,00*6D
2017-12-31 18:36:27 1514763387.836882: $GPGGA,233628,3946.9578,N,08404.9830,W,2,12,0.80,309.03,M,-33.324,M,,*76
2017-12-31 18:36:27 1514763387.836971: $GPRMC,233628,A,3946.9578,N,08404.9830,W,0.0000,0.000,311217,,*37
2017-12-31 18:36:27 1514763387.837048: $GPGSA,A,3,22,23,9,3,16,8,14,31,27,7,26,135,1.7,0.8,1.3*0C
2017-12-31 18:36:28 1514763388.352627: $GPZDA,233629.00,31,12,2017,00,00*6C
2017-12-31 18:36:28 1514763388.352797: $GPGGA,233629,3946.9578,N,08404.9830,W,2,12,0.80,309.03,M,-33.324,M,,*77
2017-12-31 18:36:28 1514763388.352863: $GPRMC,233629,A,3946.9578,N,08404.9830,W,0.0000,0.000,311217,,*36
2017-12-31 18:36:28 1514763388.352944: $GPGSA,A,3,22,23,9,3,16,8,14,31,27,7,26,135,1.7,0.8,1.3*0C
2017-12-31 18:36:29 1514763389.352363: $GPZDA,233630.00,31,12,2017,00,00*64
2017-12-31 18:36:29 1514763389.352539: $GPGGA,233630,3946.9578,N,08404.9830,W,2,12,0.80,309.03,M,-33.324,M,,*7F
2017-12-31 18:36:29 1514763389.352604: $GPRMC,233630,A,3946.9578,N,08404.9830,W,0.0000,0.000,311217,,*3E
2017-12-31 18:36:29 1514763389.352665: $GPGSA,A,3,22,23,9,3,16,8,14,31,27,7,26,135,1.7,0.8,1.3*0C
2017-12-31 18:36:30 1514763390.687518: $GPGSV,3,1,12,22,12,207,30,23,64,294,41,09,31,312,42,03,22,225,39*75
2017-12-31 18:36:30 1514763390.687695: $GPGSV,3,2,12,16,84,042,41,08,11,177,20,14,04,138,17,31,20,084,40*7D
2017-12-31 18:36:30 1514763390.687761: $GPGSV,3,3,12,27,34,147,38,07,06,280,43,26,50,046,46,135,22,240,42*4B
2017-12-31 18:36:30 1514763390.800853: $GPZDA,233631.00,31,12,2017,00,00*65
2017-12-31 18:36:30 1514763390.801028: $GPGGA,233631,3946.9578,N,08404.9830,W,2,12,0.80,309.03,M,-33.324,M,,*7E
2017-12-31 18:36:30 1514763390.801094: $GPRMC,233631,A,3946.9578,N,08404.9830,W,0.0000,0.000,311217,,*3F
2017-12-31 18:36:30 1514763390.801154: $GPGSA,A,3,22,23,9,3,16,8,14,31,27,7,26,135,1.7,0.8,1.3*0C
2017-12-31 18:36:31 1514763391.869282: $GPZDA,233632.00,31,12,2017,00,00*66
2017-12-31 18:36:31 1514763391.869447: $GPGGA,233632,3946.9578,N,08404.9830,W,2,12,0.80,309.03,M,-33.324,M,,*7D
2017-12-31 18:36:31 1514763391.869514: $GPRMC,233632,A,3946.9578,N,08404.9830,W,0.0000,0.000,311217,,*3C
2017-12-31 18:36:31 1514763391.869574: $GPGSA,A,3,22,23,9,3,16,8,14,31,27,7,26,135,1.7,0.8,1.3*0C
2017-12-31 18:36:32 1514763392.387152: $GPZDA,233633.00,31,12,2017,00,00*67
2017-12-31 18:36:32 1514763392.387323: $GPGGA,233633,3946.9578,N,08404.9823,W,2,12,0.80,309.11,M,-33.324,M,,*7D
2017-12-31 18:36:32 1514763392.387389: $GPRMC,233633,A,3946.9578,N,08404.9823,W,0.0000,0.000,311217,,*3F
2017-12-31 18:36:32 1514763392.387450: $GPGSA,A,3,22,23,9,3,16,8,14,31,27,7,26,135,1.7,0.8,1.3*0C
2017-12-31 18:36:33 1514763393.687935: $GPGSV,3,1,12,22,12,207,30,23,64,292,42,09,31,312,42,03,22,225,39*70
2017-12-31 18:36:33 1514763393.688183: $GPGSV,3,2,12,16,83,042,42,08,11,177,00,14,04,138,17,31,20,084,41*7A
2017-12-31 18:36:33 1514763393.688252: $GPGSV,3,3,12,27,34,147,38,07,06,280,43,26,50,046,47,135,22,240,43*4B
2017-12-31 18:36:33 1514763393.801580: $GPZDA,233634.00,31,12,2017,00,00*60
2017-12-31 18:36:33 1514763393.801724: $GPGGA,233634,3946.9578,N,08404.9823,W,2,11,0.80,309.11,M,-33.324,M,,*79
2017-12-31 18:36:33 1514763393.801790: $GPRMC,233634,A,3946.9578,N,08404.9823,W,0.0000,0.000,311217,,*38
2017-12-31 18:36:33 1514763393.801873: $GPGSA,A,3,22,23,9,3,16,14,31,27,7,26,135,,1.7,0.8,1.3*34
2017-12-31 18:36:34 1514763394.395105: $GPZDA,233635.00,31,12,2017,00,00*61
2017-12-31 18:36:34 1514763394.395274: $GPGGA,233635,3946.9578,N,08404.9823,W,2,11,0.80,309.11,M,-33.324,M,,*78
2017-12-31 18:36:34 1514763394.395341: $GPRMC,233635,A,3946.9578,N,08404.9823,W,0.0000,0.000,311217,,*39
2017-12-31 18:36:34 1514763394.395401: $GPGSA,A,3,22,23,9,3,16,14,31,27,7,26,135,,1.7,0.8,1.3*34
2017-12-31 18:36:35 1514763395.352463: $GPZDA,233636.00,31,12,2017,00,00*62
2017-12-31 18:36:35 1514763395.352636: $GPGGA,233636,3946.9578,N,08404.9823,W,2,11,0.80,309.11,M,-33.324,M,,*7B
2017-12-31 18:36:35 1514763395.352703: $GPRMC,233636,A,3946.9578,N,08404.9823,W,0.0000,0.000,311217,,*3A
2017-12-31 18:36:35 1514763395.352764: $GPGSA,A,3,22,23,9,3,16,14,31,27,7,26,135,,1.7,0.8,1.3*34
2017-12-31 18:36:36 1514763396.680760: $GPGSV,3,1,12,22,12,207,30,23,64,292,41,09,31,312,41,03,22,225,38*71
2017-12-31 18:36:36 1514763396.680970: $GPGSV,3,2,12,16,83,042,42,08,11,177,00,14,04,138,17,31,20,084,41*7A
2017-12-31 18:36:36 1514763396.681038: $GPGSV,3,3,12,27,34,147,38,07,06,280,44,26,50,046,46,135,22,240,44*4A
2017-12-31 18:36:36 1514763396.794729: $GPZDA,233637.00,31,12,2017,00,00*63
2017-12-31 18:36:36 1514763396.794934: $GPGGA,233637,3946.9578,N,08404.9823,W,2,11,0.80,309.11,M,-33.324,M,,*7A
2017-12-31 18:36:36 1514763396.795020: $GPRMC,233637,A,3946.9578,N,08404.9823,W,0.0000,0.000,311217,,*3B
2017-12-31 18:36:36 1514763396.795094: $GPGSA,A,3,22,23,9,3,16,14,31,27,7,26,135,,1.7,0.8,1.3*34
2017-12-31 18:36:37 1514763397.353004: $GPZDA,233638.00,31,12,2017,00,00*6C
2017-12-31 18:36:37 1514763397.353169: $GPGGA,233638,3946.9578,N,08404.9823,W,2,11,0.80,309.11,M,-33.324,M,,*75
2017-12-31 18:36:37 1514763397.353237: $GPRMC,233638,A,3946.9578,N,08404.9823,W,0.0000,0.000,311217,,*34
2017-12-31 18:36:37 1514763397.353297: $GPGSA,A,3,22,23,9,3,16,14,31,27,7,26,135,,1.7,0.8,1.3*34
