2017-11-16 15:50:11 1510865411.756758: {"class":"VERSION","release":"3.17","rev":"3.17","proto_major":3,"proto_minor":12}
2017-11-16 15:50:11 1510865411.757214: {"class":"DEVICES","devices":[{"class":"DEVICE","path":"/dev/ttyUSB0","driver":"SiRF","subtype":"9\u0006GSD4e_4.1.2-P1_RPATCH.05-F-GPS-4R-1510281 11/03/2015 307","activated":"2017-11-16T20:50:11.598Z","flags":1,"native":1,"bps":4800,"parity":"N","stopbits":1,"cycle":1.00}]}
2017-11-16 15:50:11 1510865411.757331: {"class":"WATCH","enable":true,"json":false,"nmea":true,"raw":0,"scaled":false,"timing":false,"split24":false,"pps":false}
2017-11-16 15:50:12 1510865412.367421: $GPZDA,205011.00,16,11,2017,00,00*62
2017-11-16 15:50:12 1510865412.367599: $GPGGA,205011,3946.9579,N,08404.9851,W,2,11,1.20,308.80,M,-33.324,M,,*7B
2017-11-16 15:50:12 1510865412.367660: $GPRMC,205011,A,3946.9579,N,08404.9851,W,0.0000,0.000,161117,,*3E
2017-11-16 15:50:12 1510865412.367717: $GPGSA,A,3,11,10,14,8,18,25,21,24,32,12,138,,1.6,1.2,1.3*3B
2017-11-16 15:50:13 1510865413.705586: $GPGSV,3,1,12,11,03,322,34,10,79,355,50,14,37,264,45,08,02,283,26*71
2017-11-16 15:50:13 1510865413.705746: $GPGSV,3,2,12,18,62,112,49,25,11,135,23,21,18,177,41,24,36,051,50*74
2017-11-16 15:50:13 1510865413.705806: $GPGSV,3,3,12,31,09,204,26,32,54,279,46,12,16,097,44,138,38,213,44*46
2017-11-16 15:50:13 1510865413.818930: $GPZDA,205012.00,16,11,2017,00,00*61
2017-11-16 15:50:13 1510865413.819101: $GPGGA,205012,3946.9579,N,08404.9851,W,2,12,1.20,308.80,M,-33.324,M,,*7B
2017-11-16 15:50:13 1510865413.819164: $GPRMC,205012,A,3946.9579,N,08404.9851,W,0.0000,0.000,161117,,*3D
2017-11-16 15:50:13 1510865413.819221: $GPGSA,A,3,11,10,14,8,18,25,21,24,31,32,12,138,1.6,1.2,1.3*39
2017-11-16 15:50:14 1510865414.361049: $GPZDA,205013.00,16,11,2017,00,00*60
2017-11-16 15:50:14 1510865414.361232: $GPGGA,205013,3946.9579,N,08404.9851,W,2,12,1.20,308.80,M,-33.324,M,,*7A
2017-11-16 15:50:14 1510865414.361293: $GPRMC,205013,A,3946.9579,N,08404.9851,W,0.0000,0.000,161117,,*3C
2017-11-16 15:50:14 1510865414.361349: $GPGSA,A,3,11,10,14,8,18,25,21,24,31,32,12,138,1.6,1.2,1.3*39
2017-11-16 15:50:15 1510865415.381870: $GPZDA,205014.00,16,11,2017,00,00*67
2017-11-16 15:50:15 1510865415.382047: $GPGGA,205014,3946.9579,N,08404.9851,W,2,12,1.20,308.80,M,-33.324,M,,*7D
2017-11-16 15:50:15 1510865415.382109: $GPRMC,205014,A,3946.9579,N,08404.9851,W,0.0000,0.000,161117,,*3B
2017-11-16 15:50:15 1510865415.382165: $GPGSA,A,3,11,10,14,8,18,25,21,24,31,32,12,138,1.6,1.2,1.3*39
2017-11-16 15:50:16 1510865416.705953: $GPGSV,3,1,12,11,03,322,34,10,79,355,50,14,37,264,45,08,02,283,26*71
2017-11-16 15:50:16 1510865416.706117: $GPGSV,3,2,12,18,62,112,49,25,11,135,24,21,18,177,41,24,36,051,50*73
2017-11-16 15:50:16 1510865416.706176: $GPGSV,3,3,12,15,03,072,02,32,54,279,46,12,16,097,44,138,38,213,43*48
2017-11-16 15:50:16 1510865416.817951: $GPZDA,205015.00,16,11,2017,00,00*66
2017-11-16 15:50:16 1510865416.818119: $GPGGA,205015,3946.9579,N,08404.9851,W,2,11,1.20,308.80,M,-33.324,M,,*7F
2017-11-16 15:50:16 1510865416.818178: $GPRMC,205015,A,3946.9579,N,08404.9851,W,0.0000,0.000,161117,,*3A
2017-11-16 15:50:16 1510865416.818233: $GPGSA,A,3,11,10,14,8,18,25,21,24,32,12,138,,1.6,1.2,1.3*3B
2017-11-16 15:50:17 1510865417.376359: $GPZDA,205016.00,16,11,2017,00,00*65
2017-11-16 15:50:17 1510865417.381326: $GPGGA,205016,3946.9579,N,08404.9851,W,2,11,1.20,308.80,M,-33.324,M,,*7C
2017-11-16 15:50:17 1510865417.381430: $GPRMC,205016,A,3946.9579,N,08404.9851,W,0.0000,0.000,161117,,*39
2017-11-16 15:50:17 1510865417.381489: $GPGSA,A,3,11,10,14,8,18,25,21,24,32,12,138,,1.6,1.2,1.3*3B
2017-11-16 15:50:18 1510865418.382251: $GPZDA,205017.00,16,11,2017,00,00*64
2017-11-16 15:50:18 1510865418.382430: $GPGGA,205017,3946.9579,N,08404.9851,W,2,11,1.20,308.80,M,-33.324,M,,*7D
2017-11-16 15:50:18 1510865418.382492: $GPRMC,205017,A,3946.9579,N,08404.9851,W,0.0000,0.000,161117,,*38
2017-11-16 15:50:18 1510865418.382548: $GPGSA,A,3,11,10,14,8,18,25,21,24,32,12,138,,1.6,1.2,1.3*3B
2017-11-16 15:50:19 1510865419.724314: $GPGSV,3,1,12,11,03,322,33,10,79,355,50,14,37,264,45,08,02,283,26*76
2017-11-16 15:50:19 1510865419.724536: $GPGSV,3,2,12,18,62,112,49,25,11,135,23,21,18,177,41,24,36,051,50*74
2017-11-16 15:50:19 1510865419.724599: $GPGSV,3,3,12,31,09,204,10,32,54,279,46,12,16,097,44,138,38,213,44*43
2017-11-16 15:50:19 1510865419.837853: $GPZDA,205018.00,16,11,2017,00,00*6B
2017-11-16 15:50:19 1510865419.838044: $GPGGA,205018,3946.9579,N,08404.9851,W,2,11,1.20,308.80,M,-33.324,M,,*72
2017-11-16 15:50:19 1510865419.838106: $GPRMC,205018,A,3946.9579,N,08404.9851,W,0.0000,0.000,161117,,*37
2017-11-16 15:50:19 1510865419.838162: $GPGSA,A,3,11,10,14,8,18,25,21,24,32,12,138,,1.6,1.2,1.3*3B
2017-11-16 15:50:20 1510865420.360072: $GPZDA,205019.00,16,11,2017,00,00*6A
2017-11-16 15:50:20 1510865420.360233: $GPGGA,205019,3946.9579,N,08404.9851,W,2,11,1.20,308.80,M,-33.324,M,,*73
2017-11-16 15:50:20 1510865420.360354: $GPRMC,205019,A,3946.9579,N,08404.9851,W,0.0000,0.000,161117,,*36
2017-11-16 15:50:20 1510865420.360419: $GPGSA,A,3,11,10,14,8,18,25,21,24,32,12,138,,1.6,1.2,1.3*3B
2017-11-16 15:50:21 1510865421.368907: $GPZDA,205020.00,16,11,2017,00,00*60
2017-11-16 15:50:21 1510865421.369075: $GPGGA,205020,3946.9579,N,08404.9851,W,2,11,1.20,308.80,M,-33.324,M,,*79
2017-11-16 15:50:21 1510865421.369137: $GPRMC,205020,A,3946.9579,N,08404.9851,W,0.0000,0.000,161117,,*3C
2017-11-16 15:50:21 1510865421.369193: $GPGSA,A,3,11,10,14,8,18,25,21,24,32,12,138,,1.6,1.2,1.3*3B
