2017-11-15 19:13:03 1510791183.224812: {"class":"VERSION","release":"3.17","rev":"3.17","proto_major":3,"proto_minor":12}
2017-11-15 19:13:03 1510791183.225289: {"class":"DEVICES","devices":[{"class":"DEVICE","path":"/dev/ttyUSB0","driver":"SiRF","subtype":"9\u0006GSD4e_4.1.2-P1_RPATCH.05-F-GPS-4R-1510281 11/03/2015 307","activated":"2017-11-16T00:13:03.168Z","flags":1,"native":1,"bps":4800,"parity":"N","stopbits":1,"cycle":1.00}]}
2017-11-15 19:13:03 1510791183.225405: {"class":"WATCH","enable":true,"json":false,"nmea":true,"raw":0,"scaled":false,"timing":false,"split24":false,"pps":false}
2017-11-15 19:13:03 1510791183.681794: $GPGSV,3,1,11,32,42,100,21,14,60,081,18,01,10,258,00,26,45,175,20*76
2017-11-15 19:13:03 1510791183.682020: $GPGSV,3,2,11,31,73,009,21,16,15,190,10,03,35,306,20,22,49,282,05*7C
2017-11-15 19:13:03 1510791183.682089: $GPGSV,3,3,11,29,08,078,10,25,23,043,11,23,06,297,00*4E
2017-11-15 19:13:03 1510791183.795215: $GPZDA,001302.00,16,11,2017,00,00*65
2017-11-15 19:13:03 1510791183.795423: $GPGGA,001302,3946.9601,N,08404.9510,W,1,08,1.00,307.00,M,-33.324,M,,*76
2017-11-15 19:13:03 1510791183.795510: $GPRMC,001302,A,3946.9601,N,08404.9510,W,0.7103,225.706,161117,,*3C
2017-11-15 19:13:03 1510791183.795580: $GPGSA,A,3,32,14,26,31,16,3,29,25,,,,,3.4,1.0,2.9*05
2017-11-15 19:13:04 1510791184.331072: $GPZDA,001303.00,16,11,2017,00,00*64
2017-11-15 19:13:04 1510791184.331254: $GPGGA,001303,3946.9601,N,08404.9510,W,1,08,1.00,307.00,M,-33.324,M,,*77
2017-11-15 19:13:04 1510791184.331318: $GPRMC,001303,A,3946.9601,N,08404.9510,W,0.5774,207.515,161117,,*39
2017-11-15 19:13:04 1510791184.331378: $GPGSA,A,3,32,14,26,31,16,3,29,25,,,,,3.4,1.0,2.9*05
2017-11-15 19:13:05 1510791185.330693: $GPZDA,001304.00,16,11,2017,00,00*63
2017-11-15 19:13:05 1510791185.330879: $GPGGA,001304,3946.9601,N,08404.9510,W,1,08,1.00,307.00,M,-33.324,M,,*70
2017-11-15 19:13:05 1510791185.330945: $GPRMC,001304,A,3946.9601,N,08404.9510,W,0.5075,252.257,161117,,*39
2017-11-15 19:13:05 1510791185.331006: $GPGSA,A,3,32,14,26,31,16,3,29,25,,,,,3.4,1.0,2.9*05
2017-11-15 19:13:06 1510791186.665930: $GPGSV,3,1,11,32,42,100,21,14,60,081,18,01,10,258,00,26,45,175,19*7C
2017-11-15 19:13:06 1510791186.666110: $GPGSV,3,2,11,31,73,009,21,16,15,190,11,03,35,306,20,22,49,282,09*71
2017-11-15 19:13:06 1510791186.666173: $GPGSV,3,3,11,29,08,078,11,25,23,043,11,23,06,297,00*4F
2017-11-15 19:13:06 1510791186.779324: $GPZDA,001305.00,16,11,2017,00,00*62
2017-11-15 19:13:06 1510791186.779486: $GPGGA,001305,3946.9601,N,08404.9517,W,1,08,1.00,306.92,M,-33.324,M,,*7C
2017-11-15 19:13:06 1510791186.779549: $GPRMC,001305,A,3946.9601,N,08404.9517,W,0.4844,273.794,161117,,*3D
2017-11-15 19:13:06 1510791186.779609: $GPGSA,A,3,32,14,26,31,16,3,29,25,,,,,3.4,1.0,2.9*05
2017-11-15 19:13:07 1510791187.331507: $GPZDA,001306.00,16,11,2017,00,00*61
2017-11-15 19:13:07 1510791187.331694: $GPGGA,001306,3946.9601,N,08404.9517,W,1,08,1.00,306.92,M,-33.324,M,,*7F
2017-11-15 19:13:07 1510791187.331780: $GPRMC,001306,A,3946.9601,N,08404.9517,W,0.0000,0.000,161117,,*3E
2017-11-15 19:13:07 1510791187.331843: $GPGSA,A,3,32,14,26,31,16,3,29,25,,,,,3.4,1.0,2.9*05
2017-11-15 19:13:08 1510791188.331294: $GPZDA,001307.00,16,11,2017,00,00*60
2017-11-15 19:13:08 1510791188.331462: $GPGGA,001307,3946.9601,N,08404.9517,W,1,08,1.00,306.92,M,-33.324,M,,*7E
2017-11-15 19:13:08 1510791188.331526: $GPRMC,001307,A,3946.9601,N,08404.9517,W,0.0000,0.000,161117,,*3F
2017-11-15 19:13:08 1510791188.331585: $GPGSA,A,3,32,14,26,31,16,3,29,25,,,,,3.4,1.0,2.9*05
2017-11-15 19:13:09 1510791189.667109: $GPGSV,3,1,11,32,42,100,21,14,60,081,19,22,49,282,00,26,45,175,20*7D
2017-11-15 19:13:09 1510791189.667297: $GPGSV,3,2,11,31,73,009,21,16,15,190,12,03,35,306,20,01,10,258,00*71
2017-11-15 19:13:09 1510791189.667367: $GPGSV,3,3,11,29,08,078,12,25,23,043,06,23,06,297,00*4A
2017-11-15 19:13:09 1510791189.779044: $GPZDA,001308.00,16,11,2017,00,00*6F
2017-11-15 19:13:09 1510791189.779225: $GPGGA,001308,3946.9601,N,08404.9517,W,1,07,1.00,306.92,M,-33.324,M,,*7E
2017-11-15 19:13:09 1510791189.779290: $GPRMC,001308,A,3946.9601,N,08404.9517,W,0.4179,328.778,161117,,*3A
2017-11-15 19:13:09 1510791189.779402: $GPGSA,A,3,32,14,26,31,16,3,29,,,,,,3.4,1.0,2.9*02
2017-11-15 19:13:10 1510791190.329944: $GPZDA,001309.00,16,11,2017,00,00*6E
2017-11-15 19:13:10 1510791190.330125: $GPGGA,001309,3946.9601,N,08404.9517,W,1,07,1.00,306.92,M,-33.324,M,,*7F
2017-11-15 19:13:10 1510791190.330187: $GPRMC,001309,A,3946.9601,N,08404.9517,W,0.3006,62.540,161117,,*01
2017-11-15 19:13:10 1510791190.330243: $GPGSA,A,3,32,14,26,31,16,3,29,,,,,,3.4,1.0,2.9*02
2017-11-15 19:13:11 1510791191.332767: $GPZDA,001310.00,16,11,2017,00,00*66
2017-11-15 19:13:11 1510791191.332944: $GPGGA,001310,3946.9601,N,08404.9517,W,1,07,1.00,306.92,M,-33.324,M,,*77
2017-11-15 19:13:11 1510791191.333004: $GPRMC,001310,A,3946.9601,N,08404.9517,W,0.5951,58.684,161117,,*06
2017-11-15 19:13:11 1510791191.333059: $GPGSA,A,3,32,14,26,31,16,3,29,,,,,,3.4,1.0,2.9*02
2017-11-15 19:13:12 1510791192.666009: $GPGSV,3,1,11,32,42,100,21,14,60,081,19,01,10,258,04,26,45,175,20*73
2017-11-15 19:13:12 1510791192.666186: $GPGSV,3,2,11,31,73,009,21,16,15,190,12,03,35,306,20,22,49,282,00*7B
2017-11-15 19:13:12 1510791192.666246: $GPGSV,3,3,11,29,08,078,12,25,23,043,09,23,06,297,00*45
2017-11-15 19:13:12 1510791192.779333: $GPZDA,001311.00,16,11,2017,00,00*67
2017-11-15 19:13:12 1510791192.779501: $GPGGA,001311,3946.9601,N,08404.9510,W,1,08,1.00,307.00,M,-33.324,M,,*74
2017-11-15 19:13:12 1510791192.779562: $GPRMC,001311,A,3946.9601,N,08404.9510,W,1.0018,50.691,161117,,*0C
2017-11-15 19:13:12 1510791192.779618: $GPGSA,A,3,32,14,26,31,16,3,29,25,,,,,3.4,1.0,2.9*05
