2017-12-01 15:26:33 1512159993.256652: {"class":"VERSION","release":"3.16","rev":"3.16-4","proto_major":3,"proto_minor":11}
2017-12-01 15:26:33 1512159993.257071: {"class":"DEVICES","devices":[{"class":"DEVICE","path":"/dev/ttyUSB0","driver":"SiRF","subtype":"9\u0006GSD4e_4.1.2-P1_RPATCH.05-F-GPS-4R-1510281 11/03/2015 307","activated":"2017-12-01T20:26:33.217Z","flags":1,"native":1,"bps":4800,"parity":"N","stopbits":1,"cycle":1.00}]}
2017-12-01 15:26:33 1512159993.257200: {"class":"WATCH","enable":true,"json":false,"nmea":true,"raw":0,"scaled":false,"timing":false,"split24":false,"pps":false}
2017-12-01 15:26:33 1512159993.395183: $GPZDA,202634.00,01,12,2017,00,00*61
2017-12-01 15:26:33 1512159993.395356: $GPGGA,202634,3946.9593,N,08404.9858,W,2,11,0.80,297.79,M,-33.324,M,,*7A
2017-12-01 15:26:33 1512159993.395424: $GPRMC,202634,A,3946.9593,N,08404.9858,W,0.0000,0.000,011217,,*30
2017-12-01 15:26:33 1512159993.395486: $GPGSA,A,3,1,10,12,14,18,24,25,31,32,11,138,,2.0,0.8,1.5*3B
2017-12-01 15:26:34 1512159994.730566: $GPGSV,3,1,12,01,09,324,36,10,78,114,47,12,23,081,46,14,49,280,43*75
2017-12-01 15:26:34 1512159994.730760: $GPGSV,3,2,12,18,46,129,48,24,21,045,43,25,23,123,45,31,26,208,46*7C
2017-12-01 15:26:34 1512159994.730828: $GPGSV,3,3,12,32,64,309,48,11,09,309,30,21,02,174,00,138,38,213,46*4F
2017-12-01 15:26:34 1512159994.843970: $GPZDA,202635.00,01,12,2017,00,00*60
2017-12-01 15:26:34 1512159994.844132: $GPGGA,202635,3946.9594,N,08404.9865,W,2,11,0.80,297.72,M,-33.324,M,,*79
2017-12-01 15:26:34 1512159994.844199: $GPRMC,202635,A,3946.9594,N,08404.9865,W,0.0000,0.000,011217,,*38
2017-12-01 15:26:34 1512159994.844262: $GPGSA,A,3,1,10,12,14,18,24,25,31,32,11,138,,2.0,0.8,1.5*3B
2017-12-01 15:26:35 1512159995.396326: $GPZDA,202636.00,01,12,2017,00,00*63
2017-12-01 15:26:35 1512159995.396494: $GPGGA,202636,3946.9594,N,08404.9865,W,2,11,0.80,297.72,M,-33.324,M,,*7A
2017-12-01 15:26:35 1512159995.396564: $GPRMC,202636,A,3946.9594,N,08404.9865,W,0.0000,0.000,011217,,*3B
2017-12-01 15:26:35 1512159995.396629: $GPGSA,A,3,1,10,12,14,18,24,25,31,32,11,138,,2.0,0.8,1.5*3B
2017-12-01 15:26:36 1512159996.394459: $GPZDA,202637.00,01,12,2017,00,00*62
2017-12-01 15:26:36 1512159996.394651: $GPGGA,202637,3946.9594,N,08404.9865,W,2,11,0.80,297.72,M,-33.324,M,,*7B
2017-12-01 15:26:36 1512159996.394720: $GPRMC,202637,A,3946.9594,N,08404.9865,W,0.0000,0.000,011217,,*3A
2017-12-01 15:26:36 1512159996.394781: $GPGSA,A,3,1,10,12,14,18,24,25,31,32,11,138,,2.0,0.8,1.5*3B
2017-12-01 15:26:37 1512159997.745190: $GPGSV,3,1,12,01,09,324,36,10,78,114,47,12,23,081,46,14,49,280,43*75
2017-12-01 15:26:37 1512159997.745376: $GPGSV,3,2,12,18,46,129,48,24,21,045,43,25,23,123,45,31,26,208,46*7C
2017-12-01 15:26:37 1512159997.745442: $GPGSV,3,3,12,32,64,309,48,11,09,309,30,21,02,174,00,138,38,213,45*4C
2017-12-01 15:26:37 1512159997.858503: $GPZDA,202638.00,01,12,2017,00,00*6D
2017-12-01 15:26:37 1512159997.858631: $GPGGA,202638,3946.9594,N,08404.9865,W,2,11,0.80,297.72,M,-33.324,M,,*74
2017-12-01 15:26:37 1512159997.858695: $GPRMC,202638,A,3946.9594,N,08404.9865,W,0.0000,0.000,011217,,*35
2017-12-01 15:26:37 1512159997.858757: $GPGSA,A,3,1,10,12,14,18,24,25,31,32,11,138,,2.0,0.8,1.5*3B
2017-12-01 15:26:38 1512159998.408609: $GPZDA,202639.00,01,12,2017,00,00*6C
2017-12-01 15:26:38 1512159998.408799: $GPGGA,202639,3946.9594,N,08404.9865,W,2,11,0.80,297.72,M,-33.324,M,,*75
2017-12-01 15:26:38 1512159998.408869: $GPRMC,202639,A,3946.9594,N,08404.9865,W,0.0000,0.000,011217,,*34
2017-12-01 15:26:38 1512159998.408931: $GPGSA,A,3,1,10,12,14,18,24,25,31,32,11,138,,2.0,0.8,1.5*3B
2017-12-01 15:26:39 1512159999.412426: $GPZDA,202640.00,01,12,2017,00,00*62
2017-12-01 15:26:39 1512159999.412614: $GPGGA,202640,3946.9594,N,08404.9865,W,2,11,0.80,297.72,M,-33.324,M,,*7B
2017-12-01 15:26:39 1512159999.412684: $GPRMC,202640,A,3946.9594,N,08404.9865,W,0.0000,0.000,011217,,*3A
2017-12-01 15:26:39 1512159999.412748: $GPGSA,A,3,1,10,12,14,18,24,25,31,32,11,138,,2.0,0.8,1.5*3B
2017-12-01 15:26:40 1512160000.748059: $GPGSV,3,1,12,01,09,324,35,10,78,114,47,12,23,081,46,14,49,280,43*76
2017-12-01 15:26:40 1512160000.748300: $GPGSV,3,2,12,18,46,129,48,24,21,045,43,25,23,123,45,31,26,208,46*7C
2017-12-01 15:26:40 1512160000.748371: $GPGSV,3,3,12,32,64,309,48,11,09,309,30,21,02,174,00,138,38,213,46*4F
2017-12-01 15:26:40 1512160000.861582: $GPZDA,202641.00,01,12,2017,00,00*63
2017-12-01 15:26:40 1512160000.861765: $GPGGA,202641,3946.9594,N,08404.9865,W,2,11,0.80,297.72,M,-33.324,M,,*7A
2017-12-01 15:26:40 1512160000.861831: $GPRMC,202641,A,3946.9594,N,08404.9865,W,0.0000,0.000,011217,,*3B
2017-12-01 15:26:40 1512160000.861892: $GPGSA,A,3,1,10,12,14,18,24,25,31,32,11,138,,2.0,0.8,1.5*3B
2017-12-01 15:26:41 1512160001.411080: $GPZDA,202642.00,01,12,2017,00,00*60
2017-12-01 15:26:41 1512160001.411253: $GPGGA,202642,3946.9597,N,08404.9864,W,2,11,0.80,296.95,M,-33.324,M,,*73
2017-12-01 15:26:41 1512160001.411320: $GPRMC,202642,A,3946.9597,N,08404.9864,W,0.0000,0.000,011217,,*3A
2017-12-01 15:26:41 1512160001.411440: $GPGSA,A,3,1,10,12,14,18,24,25,31,32,11,138,,2.0,0.8,1.5*3B
2017-12-01 15:26:42 1512160002.396091: $GPZDA,202643.00,01,12,2017,00,00*61
2017-12-01 15:26:42 1512160002.396280: $GPGGA,202643,3946.9597,N,08404.9864,W,2,11,0.80,296.95,M,-33.324,M,,*72
2017-12-01 15:26:42 1512160002.396347: $GPRMC,202643,A,3946.9597,N,08404.9864,W,0.0000,0.000,011217,,*3B
2017-12-01 15:26:42 1512160002.396408: $GPGSA,A,3,1,10,12,14,18,24,25,31,32,11,138,,2.0,0.8,1.5*3B
2017-12-01 15:26:43 1512160003.732711: $GPGSV,3,1,12,01,09,324,35,10,78,114,47,12,23,081,45,14,49,280,43*75
2017-12-01 15:26:43 1512160003.732891: $GPGSV,3,2,12,18,46,129,47,24,21,045,43,25,23,123,46,31,26,208,46*70
2017-12-01 15:26:43 1512160003.732957: $GPGSV,3,3,12,32,64,309,48,11,09,309,30,21,02,174,00,138,38,213,45*4C
2017-12-01 15:26:43 1512160003.846349: $GPZDA,202644.00,01,12,2017,00,00*66
2017-12-01 15:26:43 1512160003.846481: $GPGGA,202644,3946.9597,N,08404.9864,W,2,11,0.80,296.95,M,-33.324,M,,*75
2017-12-01 15:26:43 1512160003.846547: $GPRMC,202644,A,3946.9597,N,08404.9864,W,0.0000,0.000,011217,,*3C
2017-12-01 15:26:43 1512160003.846607: $GPGSA,A,3,1,10,12,14,18,24,25,31,32,11,138,,2.0,0.8,1.5*3B
2017-12-01 15:26:44 1512160004.471558: $GPZDA,202645.00,01,12,2017,00,00*67
2017-12-01 15:26:44 1512160004.471737: $GPGGA,202645,3946.9597,N,08404.9864,W,2,11,0.80,296.95,M,-33.324,M,,*74
2017-12-01 15:26:44 1512160004.471805: $GPRMC,202645,A,3946.9597,N,08404.9864,W,0.0000,0.000,011217,,*3D
2017-12-01 15:26:44 1512160004.471866: $GPGSA,A,3,1,10,12,14,18,24,25,31,32,11,138,,2.0,0.8,1.5*3B
2017-12-01 15:26:45 1512160005.411278: $GPZDA,202646.00,01,12,2017,00,00*64
2017-12-01 15:26:45 1512160005.411498: $GPGGA,202646,3946.9597,N,08404.9864,W,2,11,0.80,296.95,M,-33.324,M,,*77
2017-12-01 15:26:45 1512160005.411567: $GPRMC,202646,A,3946.9597,N,08404.9864,W,0.0000,0.000,011217,,*3E
2017-12-01 15:26:45 1512160005.411628: $GPGSA,A,3,1,10,12,14,18,24,25,31,32,11,138,,2.0,0.8,1.5*3B
2017-12-01 15:26:46 1512160006.730522: $GPGSV,3,1,12,01,09,324,35,10,78,114,47,12,23,081,45,14,49,280,43*75
2017-12-01 15:26:46 1512160006.730705: $GPGSV,3,2,12,18,46,129,48,24,21,045,43,25,23,123,46,31,26,208,46*7F
2017-12-01 15:26:46 1512160006.730772: $GPGSV,3,3,12,32,64,309,48,11,09,309,26,21,02,174,00,138,38,213,46*48
2017-12-01 15:26:46 1512160006.843940: $GPZDA,202647.00,01,12,2017,00,00*65
2017-12-01 15:26:46 1512160006.844083: $GPGGA,202647,3946.9597,N,08404.9864,W,2,11,0.80,296.95,M,-33.324,M,,*76
2017-12-01 15:26:46 1512160006.844147: $GPRMC,202647,A,3946.9597,N,08404.9864,W,0.0000,0.000,011217,,*3F
2017-12-01 15:26:46 1512160006.844208: $GPGSA,A,3,1,10,12,14,18,24,25,31,32,11,138,,2.0,0.8,1.5*3B
2017-12-01 15:26:47 1512160007.412767: $GPZDA,202648.00,01,12,2017,00,00*6A
2017-12-01 15:26:47 1512160007.412938: $GPGGA,202648,3946.9597,N,08404.9864,W,2,11,0.80,296.95,M,-33.324,M,,*79
2017-12-01 15:26:47 1512160007.413004: $GPRMC,202648,A,3946.9597,N,08404.9864,W,0.0000,0.000,011217,,*30
2017-12-01 15:26:47 1512160007.413066: $GPGSA,A,3,1,10,12,14,18,24,25,31,32,11,138,,2.0,0.8,1.5*3B
2017-12-01 15:26:48 1512160008.411990: $GPZDA,202649.00,01,12,2017,00,00*6B
2017-12-01 15:26:48 1512160008.412217: $GPGGA,202649,3946.9597,N,08404.9864,W,2,11,0.80,296.95,M,-33.324,M,,*78
2017-12-01 15:26:48 1512160008.412285: $GPRMC,202649,A,3946.9597,N,08404.9864,W,0.0000,0.000,011217,,*31
2017-12-01 15:26:48 1512160008.412346: $GPGSA,A,3,1,10,12,14,18,24,25,31,32,11,138,,2.0,0.8,1.5*3B
2017-12-01 15:26:49 1512160009.747152: $GPGSV,3,1,12,01,09,324,37,10,78,114,48,12,23,081,45,14,49,280,42*79
2017-12-01 15:26:49 1512160009.747334: $GPGSV,3,2,12,18,46,129,48,24,21,045,43,25,23,123,46,31,26,208,47*7E
2017-12-01 15:26:49 1512160009.747400: $GPGSV,3,3,12,32,64,309,48,11,09,309,35,21,02,174,00,138,38,213,46*4A
2017-12-01 15:26:49 1512160009.860581: $GPZDA,202650.00,01,12,2017,00,00*63
2017-12-01 15:26:49 1512160009.860757: $GPGGA,202650,3946.9597,N,08404.9864,W,2,11,0.80,296.95,M,-33.324,M,,*70
2017-12-01 15:26:49 1512160009.860826: $GPRMC,202650,A,3946.9597,N,08404.9864,W,0.0000,0.000,011217,,*39
2017-12-01 15:26:49 1512160009.860887: $GPGSA,A,3,1,10,12,14,18,24,25,31,32,11,138,,2.0,0.8,1.5*3B
2017-12-01 15:26:50 1512160010.395161: $GPZDA,202651.00,01,12,2017,00,00*62
2017-12-01 15:26:50 1512160010.395322: $GPGGA,202651,3946.9597,N,08404.9864,W,2,11,0.80,296.95,M,-33.324,M,,*71
2017-12-01 15:26:50 1512160010.395388: $GPRMC,202651,A,3946.9597,N,08404.9864,W,0.0000,0.000,011217,,*38
2017-12-01 15:26:50 1512160010.395453: $GPGSA,A,3,1,10,12,14,18,24,25,31,32,11,138,,2.0,0.8,1.5*3B
2017-12-01 15:26:51 1512160011.412304: $GPZDA,202652.00,01,12,2017,00,00*61
2017-12-01 15:26:51 1512160011.412483: $GPGGA,202652,3946.9597,N,08404.9864,W,2,11,0.80,296.95,M,-33.324,M,,*72
2017-12-01 15:26:51 1512160011.412552: $GPRMC,202652,A,3946.9597,N,08404.9864,W,0.0000,0.000,011217,,*3B
2017-12-01 15:26:51 1512160011.412613: $GPGSA,A,3,1,10,12,14,18,24,25,31,32,11,138,,2.0,0.8,1.5*3B
2017-12-01 15:26:52 1512160012.734238: $GPGSV,3,1,12,01,09,324,36,10,78,114,48,12,23,081,46,14,49,280,42*7B
2017-12-01 15:26:52 1512160012.734431: $GPGSV,3,2,12,18,46,129,47,24,21,045,43,25,23,123,46,31,26,208,46*70
2017-12-01 15:26:52 1512160012.734518: $GPGSV,3,3,12,32,64,309,48,11,09,309,34,21,02,174,01,138,38,213,45*49
2017-12-01 15:26:52 1512160012.847593: $GPZDA,202653.00,01,12,2017,00,00*60
2017-12-01 15:26:52 1512160012.847735: $GPGGA,202653,3946.9597,N,08404.9864,W,2,11,0.80,296.95,M,-33.324,M,,*73
2017-12-01 15:26:52 1512160012.847819: $GPRMC,202653,A,3946.9597,N,08404.9864,W,0.0000,0.000,011217,,*3A
2017-12-01 15:26:52 1512160012.847881: $GPGSA,A,3,1,10,12,14,18,24,25,31,32,11,138,,2.0,0.8,1.5*3B
