2017-11-15 19:26:57 1510792017.125544: {"class":"VERSION","release":"3.17","rev":"3.17","proto_major":3,"proto_minor":12}
2017-11-15 19:26:57 1510792017.126163: {"class":"DEVICES","devices":[{"class":"DEVICE","path":"/dev/ttyUSB0","driver":"SiRF","subtype":"9\u0006GSD4e_4.1.2-P1_RPATCH.05-F-GPS-4R-1510281 11/03/2015 307","activated":"2017-11-16T00:26:56.487Z","flags":1,"native":1,"bps":4800,"parity":"N","stopbits":1,"cycle":1.00}]}
2017-11-15 19:26:57 1510792017.126289: {"class":"WATCH","enable":true,"json":false,"nmea":true,"raw":0,"scaled":false,"timing":false,"split24":false,"pps":false}
2017-11-15 19:26:57 1510792017.682588: $GPGSV,3,1,11,32,37,106,20,31,68,022,21,16,21,190,16,26,52,172,28*72
2017-11-15 19:26:57 1510792017.682758: $GPGSV,3,2,11,14,56,091,04,29,10,072,11,22,50,273,22,03,39,300,05*71
2017-11-15 19:26:57 1510792017.682818: $GPGSV,3,3,11,23,10,300,13,25,18,040,00,01,06,253,00*41
2017-11-15 19:26:57 1510792017.795934: $GPZDA,002656.00,16,11,2017,00,00*62
2017-11-15 19:26:57 1510792017.796099: $GPGGA,002656,3946.9621,N,08404.9445,W,1,07,1.40,268.17,M,-33.324,M,,*77
2017-11-15 19:26:57 1510792017.796159: $GPRMC,002656,A,3946.9621,N,08404.9445,W,0.5912,129.173,161117,,*39
2017-11-15 19:26:57 1510792017.796214: $GPGSA,A,3,32,31,16,26,29,22,23,,,,,,3.4,1.4,2.9*31
2017-11-15 19:26:58 1510792018.329716: $GPZDA,002657.00,16,11,2017,00,00*63
2017-11-15 19:26:58 1510792018.329943: $GPGGA,002657,3946.9621,N,08404.9445,W,1,07,1.40,268.17,M,-33.324,M,,*76
2017-11-15 19:26:58 1510792018.330018: $GPRMC,002657,A,3946.9621,N,08404.9445,W,0.6846,184.197,161117,,*36
2017-11-15 19:26:58 1510792018.330087: $GPGSA,A,3,32,31,16,26,29,22,23,,,,,,3.4,1.4,2.9*31
2017-11-15 19:26:59 1510792019.346645: $GPZDA,002658.00,16,11,2017,00,00*6C
2017-11-15 19:26:59 1510792019.346852: $GPGGA,002658,3946.9613,N,08404.9438,W,1,07,1.60,268.38,M,-33.324,M,,*7D
2017-11-15 19:26:59 1510792019.346914: $GPRMC,002658,A,3946.9613,N,08404.9438,W,0.6846,184.197,161117,,*32
2017-11-15 19:26:59 1510792019.346970: $GPGSA,A,3,32,31,16,26,29,22,23,,,,,,3.4,1.6,2.9*33
2017-11-15 19:27:00 1510792020.665848: $GPGSV,3,1,11,32,37,106,20,31,68,022,21,16,21,190,17,26,52,172,28*73
2017-11-15 19:27:00 1510792020.666020: $GPGSV,3,2,11,14,56,091,04,29,10,072,10,22,50,273,22,03,39,300,04*71
2017-11-15 19:27:00 1510792020.666080: $GPGSV,3,3,11,23,10,300,07,25,18,040,00,01,06,253,00*44
2017-11-15 19:27:00 1510792020.779459: $GPZDA,002659.00,16,11,2017,00,00*6D
2017-11-15 19:27:00 1510792020.779622: $GPGGA,002659,3946.9613,N,08404.9438,W,1,07,1.60,268.38,M,-33.324,M,,*7C
2017-11-15 19:27:00 1510792020.779682: $GPRMC,002659,A,3946.9613,N,08404.9438,W,0.8408,185.128,161117,,*3E
2017-11-15 19:27:00 1510792020.779738: $GPGSA,A,3,32,31,16,26,29,22,23,,,,,,3.4,1.6,2.9*33
2017-11-15 19:27:01 1510792021.406093: $GPZDA,002700.00,16,11,2017,00,00*60
2017-11-15 19:27:01 1510792021.406246: $GPGGA,002700,3946.9613,N,08404.9438,W,1,07,1.60,268.38,M,-33.324,M,,*71
2017-11-15 19:27:01 1510792021.406306: $GPRMC,002700,A,3946.9613,N,08404.9438,W,1.1240,225.393,161117,,*3A
2017-11-15 19:27:01 1510792021.406362: $GPGSA,A,3,32,31,16,26,29,22,23,,,,,,3.4,1.6,2.9*33
2017-11-15 19:27:02 1510792022.345614: $GPZDA,002701.00,16,11,2017,00,00*61
2017-11-15 19:27:02 1510792022.345780: $GPGGA,002701,3946.9610,N,08404.9446,W,1,07,1.40,269.06,M,-33.324,M,,*74
2017-11-15 19:27:02 1510792022.345841: $GPRMC,002701,A,3946.9610,N,08404.9446,W,0.8414,219.347,161117,,*38
2017-11-15 19:27:02 1510792022.345897: $GPGSA,A,3,32,31,16,26,29,22,23,,,,,,3.4,1.4,2.9*31
2017-11-15 19:27:03 1510792023.681369: $GPGSV,3,1,11,32,37,106,21,31,68,022,21,16,21,190,16,26,52,172,28*73
2017-11-15 19:27:03 1510792023.681541: $GPGSV,3,2,11,14,56,091,04,29,10,072,11,22,50,273,21,03,39,300,04*73
2017-11-15 19:27:03 1510792023.681601: $GPGSV,3,3,11,23,10,300,09,25,18,040,00,01,06,253,00*4A
2017-11-15 19:27:03 1510792023.794688: $GPZDA,002702.00,16,11,2017,00,00*62
2017-11-15 19:27:03 1510792023.794852: $GPGGA,002702,3946.9610,N,08404.9446,W,1,07,1.40,269.06,M,-33.324,M,,*77
2017-11-15 19:27:03 1510792023.794913: $GPRMC,002702,A,3946.9610,N,08404.9446,W,0.5230,256.444,161117,,*39
2017-11-15 19:27:03 1510792023.795022: $GPGSA,A,3,32,31,16,26,29,22,23,,,,,,3.4,1.4,2.9*31
2017-11-15 19:27:04 1510792024.345817: $GPZDA,002703.00,16,11,2017,00,00*63
2017-11-15 19:27:04 1510792024.345986: $GPGGA,002703,3946.9610,N,08404.9446,W,1,07,1.40,269.06,M,-33.324,M,,*76
2017-11-15 19:27:04 1510792024.346067: $GPRMC,002703,A,3946.9610,N,08404.9446,W,0.5287,2.716,161117,,*33
2017-11-15 19:27:04 1510792024.346125: $GPGSA,A,3,32,31,16,26,29,22,23,,,,,,3.4,1.4,2.9*31
2017-11-15 19:27:05 1510792025.330321: $GPZDA,002704.00,16,11,2017,00,00*64
2017-11-15 19:27:05 1510792025.330505: $GPGGA,002704,3946.9610,N,08404.9446,W,1,07,1.40,269.06,M,-33.324,M,,*71
2017-11-15 19:27:05 1510792025.330569: $GPRMC,002704,A,3946.9610,N,08404.9446,W,0.3423,4.197,161117,,*33
2017-11-15 19:27:05 1510792025.330628: $GPGSA,A,3,32,31,16,26,29,22,23,,,,,,3.4,1.4,2.9*31
2017-11-15 19:27:06 1510792026.665499: $GPGSV,3,1,11,32,37,106,21,31,68,022,21,16,21,190,15,26,52,172,28*70
2017-11-15 19:27:06 1510792026.665668: $GPGSV,3,2,11,14,56,091,04,29,10,072,12,22,50,273,21,03,39,300,04*70
2017-11-15 19:27:06 1510792026.665728: $GPGSV,3,3,11,23,10,300,09,25,18,040,00,01,06,253,00*4A
2017-11-15 19:27:06 1510792026.778792: $GPZDA,002705.00,16,11,2017,00,00*65
2017-11-15 19:27:06 1510792026.778962: $GPGGA,002705,3946.9610,N,08404.9446,W,1,07,1.40,269.06,M,-33.324,M,,*70
2017-11-15 19:27:06 1510792026.779029: $GPRMC,002705,A,3946.9610,N,08404.9446,W,0.1567,9.201,161117,,*30
2017-11-15 19:27:06 1510792026.779085: $GPGSA,A,3,32,31,16,26,29,22,23,,,,,,3.4,1.4,2.9*31
