2017-11-16 17:27:11 1510871231.410799: {"class":"VERSION","release":"3.17","rev":"3.17","proto_major":3,"proto_minor":12}
2017-11-16 17:27:11 1510871231.411249: {"class":"DEVICES","devices":[{"class":"DEVICE","path":"/dev/ttyUSB0","driver":"SiRF","subtype":"9\u0006GSD4e_4.1.2-P1_RPATCH.05-F-GPS-4R-1510281 11/03/2015 307","activated":"2017-11-16T22:27:11.401Z","flags":1,"native":1,"bps":4800,"parity":"N","stopbits":1,"cycle":1.00}]}
2017-11-16 17:27:11 1510871231.411367: {"class":"WATCH","enable":true,"json":false,"nmea":true,"raw":0,"scaled":false,"timing":false,"split24":false,"pps":false}
2017-11-16 17:27:12 1510871232.738328: $GPGSV,3,1,11,01,21,304,38,10,51,147,49,22,16,312,44,12,23,052,51*79
2017-11-16 17:27:12 1510871232.738518: $GPGSV,3,2,11,14,65,321,47,18,21,142,31,11,09,285,41,25,39,094,47*72
2017-11-16 17:27:12 1510871232.738581: $GPGSV,3,3,11,31,52,222,49,32,69,018,49,138,38,213,44*78
2017-11-16 17:27:12 1510871232.851588: $GPZDA,222711.00,16,11,2017,00,00*60
2017-11-16 17:27:12 1510871232.851771: $GPGGA,222711,3946.9573,N,08404.9837,W,2,11,0.80,306.91,M,-33.324,M,,*76
2017-11-16 17:27:12 1510871232.851834: $GPRMC,222711,A,3946.9573,N,08404.9837,W,0.0000,0.000,161117,,*36
2017-11-16 17:27:12 1510871232.851890: $GPGSA,A,3,1,10,22,12,14,18,11,25,31,32,138,,1.6,0.8,1.3*3E
2017-11-16 17:27:13 1510871233.402558: $GPZDA,222712.00,16,11,2017,00,00*63
2017-11-16 17:27:13 1510871233.402749: $GPGGA,222712,3946.9573,N,08404.9837,W,2,11,0.80,306.91,M,-33.324,M,,*75
2017-11-16 17:27:13 1510871233.402813: $GPRMC,222712,A,3946.9573,N,08404.9837,W,0.0000,0.000,161117,,*35
2017-11-16 17:27:13 1510871233.402869: $GPGSA,A,3,1,10,22,12,14,18,11,25,31,32,138,,1.6,0.8,1.3*3E
2017-11-16 17:27:14 1510871234.395904: $GPZDA,222713.00,16,11,2017,00,00*62
2017-11-16 17:27:14 1510871234.396069: $GPGGA,222713,3946.9573,N,08404.9837,W,2,11,0.80,306.91,M,-33.324,M,,*74
2017-11-16 17:27:14 1510871234.396131: $GPRMC,222713,A,3946.9573,N,08404.9837,W,0.0000,0.000,161117,,*34
2017-11-16 17:27:14 1510871234.396186: $GPGSA,A,3,1,10,22,12,14,18,11,25,31,32,138,,1.6,0.8,1.3*3E
2017-11-16 17:27:15 1510871235.746660: $GPGSV,3,1,11,01,21,304,38,10,51,147,49,22,16,312,44,12,23,052,51*79
2017-11-16 17:27:15 1510871235.746828: $GPGSV,3,2,11,14,65,321,47,18,21,142,02,11,09,285,41,25,39,094,47*72
2017-11-16 17:27:15 1510871235.746888: $GPGSV,3,3,11,31,52,222,49,32,69,018,49,138,38,213,44*78
2017-11-16 17:27:15 1510871235.859999: $GPZDA,222714.00,16,11,2017,00,00*65
2017-11-16 17:27:15 1510871235.860182: $GPGGA,222714,3946.9573,N,08404.9837,W,2,10,1.00,306.91,M,-33.324,M,,*7B
2017-11-16 17:27:15 1510871235.860245: $GPRMC,222714,A,3946.9573,N,08404.9837,W,0.0000,0.000,161117,,*33
2017-11-16 17:27:15 1510871235.860300: $GPGSA,A,3,1,10,22,12,14,11,25,31,32,138,,,1.6,1.0,1.3*3E
2017-11-16 17:27:16 1510871236.485525: $GPZDA,222715.00,16,11,2017,00,00*64
2017-11-16 17:27:16 1510871236.485699: $GPGGA,222715,3946.9573,N,08404.9837,W,2,10,0.80,306.91,M,-33.324,M,,*73
2017-11-16 17:27:16 1510871236.485761: $GPRMC,222715,A,3946.9573,N,08404.9837,W,0.0000,0.000,161117,,*32
2017-11-16 17:27:16 1510871236.485817: $GPGSA,A,3,1,10,22,12,14,11,25,31,32,138,,,1.6,0.8,1.3*37
2017-11-16 17:27:17 1510871237.402598: $GPZDA,222716.00,16,11,2017,00,00*67
2017-11-16 17:27:17 1510871237.402765: $GPGGA,222716,3946.9573,N,08404.9837,W,2,10,0.80,306.91,M,-33.324,M,,*70
2017-11-16 17:27:17 1510871237.402826: $GPRMC,222716,A,3946.9573,N,08404.9837,W,0.0000,0.000,161117,,*31
2017-11-16 17:27:17 1510871237.402882: $GPGSA,A,3,1,10,22,12,14,11,25,31,32,138,,,1.6,0.8,1.3*37
2017-11-16 17:27:18 1510871238.738266: $GPGSV,3,1,11,01,21,303,37,10,50,147,50,22,17,312,44,12,23,051,51*7A
2017-11-16 17:27:18 1510871238.738403: $GPGSV,3,2,11,14,65,324,47,18,20,144,32,11,09,283,41,25,39,093,47*72
2017-11-16 17:27:18 1510871238.738484: $GPGSV,3,3,11,31,53,223,49,32,69,022,48,138,38,213,44*70
2017-11-16 17:27:18 1510871238.851621: $GPZDA,222717.00,16,11,2017,00,00*66
2017-11-16 17:27:18 1510871238.851786: $GPGGA,222717,3946.9573,N,08404.9837,W,2,11,0.80,306.91,M,-33.324,M,,*70
2017-11-16 17:27:18 1510871238.851899: $GPRMC,222717,A,3946.9573,N,08404.9837,W,0.0000,0.000,161117,,*30
2017-11-16 17:27:18 1510871238.851957: $GPGSA,A,3,1,10,22,12,14,18,11,25,31,32,138,,1.6,0.8,1.3*3E
2017-11-16 17:27:19 1510871239.403670: $GPZDA,222718.00,16,11,2017,00,00*69
2017-11-16 17:27:19 1510871239.403868: $GPGGA,222718,3946.9573,N,08404.9837,W,2,11,0.80,306.91,M,-33.324,M,,*7F
2017-11-16 17:27:19 1510871239.403932: $GPRMC,222718,A,3946.9573,N,08404.9837,W,0.0000,0.000,161117,,*3F
2017-11-16 17:27:19 1510871239.403988: $GPGSA,A,3,1,10,22,12,14,18,11,25,31,32,138,,1.6,0.8,1.3*3E
2017-11-16 17:27:20 1510871240.404100: $GPZDA,222719.00,16,11,2017,00,00*68
2017-11-16 17:27:20 1510871240.404270: $GPGGA,222719,3946.9573,N,08404.9837,W,2,11,0.80,306.91,M,-33.324,M,,*7E
2017-11-16 17:27:20 1510871240.404332: $GPRMC,222719,A,3946.9573,N,08404.9837,W,0.0000,0.000,161117,,*3E
2017-11-16 17:27:20 1510871240.404388: $GPGSA,A,3,1,10,22,12,14,18,11,25,31,32,138,,1.6,0.8,1.3*3E
2017-11-16 17:27:21 1510871241.739843: $GPGSV,3,1,11,01,21,303,36,10,50,147,49,22,17,312,44,12,23,051,51*73
2017-11-16 17:27:21 1510871241.740009: $GPGSV,3,2,11,14,65,324,47,18,20,144,33,11,09,283,42,25,39,093,47*70
2017-11-16 17:27:21 1510871241.740072: $GPGSV,3,3,11,31,53,223,49,32,69,022,48,138,38,213,45*71
2017-11-16 17:27:21 1510871241.852131: $GPZDA,222720.00,16,11,2017,00,00*62
2017-11-16 17:27:21 1510871241.852244: $GPGGA,222720,3946.9573,N,08404.9837,W,2,11,0.80,306.91,M,-33.324,M,,*74
2017-11-16 17:27:21 1510871241.852305: $GPRMC,222720,A,3946.9573,N,08404.9837,W,0.0000,0.000,161117,,*34
2017-11-16 17:27:21 1510871241.852362: $GPGSA,A,3,1,10,22,12,14,18,11,25,31,32,138,,1.6,0.8,1.3*3E
