2018-01-12 04:32:47 1515749567.357791: {"class":"VERSION","release":"3.16","rev":"3.16-4","proto_major":3,"proto_minor":11}
2018-01-12 04:32:47 1515749567.358164: {"class":"DEVICES","devices":[{"class":"DEVICE","path":"/dev/ttyUSB0","driver":"SiRF","subtype":"9\u0006GSD4e_4.1.2-P1_RPATCH.05-F-GPS-4R-1510281 11/03/2015 307","activated":"2018-01-12T09:32:47.298Z","flags":1,"native":1,"bps":4800,"parity":"N","stopbits":1,"cycle":1.00}]}
2018-01-12 04:32:47 1515749567.358279: {"class":"WATCH","enable":true,"json":false,"nmea":true,"raw":0,"scaled":false,"timing":false,"split24":false,"pps":false}
2018-01-12 04:32:47 1515749567.411992: $GPZDA,093248.00,12,01,2018,00,00*6B
2018-01-12 04:32:47 1515749567.412128: $GPGGA,093248,3946.9641,N,08404.9792,W,2,11,0.80,299.80,M,-33.324,M,,*72
2018-01-12 04:32:47 1515749567.412191: $GPRMC,093248,A,3946.9641,N,08404.9792,W,0.0000,0.000,120118,,*3F
2018-01-12 04:32:47 1515749567.412252: $GPGSA,A,3,5,6,12,25,29,17,19,20,23,9,138,,2.4,0.8,2.1*3D
2018-01-12 04:32:48 1515749568.753699: $GPGSV,3,1,11,05,55,199,49,06,43,058,37,12,49,244,48,25,34,295,40*70
2018-01-12 04:32:48 1515749568.753897: $GPGSV,3,2,11,29,15,309,47,17,10,124,26,19,28,118,24,20,04,220,24*76
2018-01-12 04:32:48 1515749568.753965: $GPGSV,3,3,11,04,58,292,10,09,19,063,31,138,38,213,48*73
2018-01-12 04:32:48 1515749568.867060: $GPZDA,093249.00,12,01,2018,00,00*6A
2018-01-12 04:32:48 1515749568.867209: $GPGGA,093249,3946.9654,N,08404.9799,W,2,10,0.80,303.05,M,-33.324,M,,*72
2018-01-12 04:32:48 1515749568.867278: $GPRMC,093249,A,3946.9654,N,08404.9799,W,0.0000,0.000,120118,,*31
2018-01-12 04:32:48 1515749568.867341: $GPGSA,A,3,5,6,12,25,29,17,19,20,9,138,,,2.4,0.8,2.1*3C
2018-01-12 04:32:49 1515749569.492450: $GPZDA,093250.00,12,01,2018,00,00*62
2018-01-12 04:32:49 1515749569.492603: $GPGGA,093250,3946.9654,N,08404.9799,W,2,10,0.80,303.05,M,-33.324,M,,*7A
2018-01-12 04:32:49 1515749569.492672: $GPRMC,093250,A,3946.9654,N,08404.9799,W,0.0000,0.000,120118,,*39
2018-01-12 04:32:49 1515749569.492735: $GPGSA,A,3,5,6,12,25,29,17,19,20,9,138,,,2.4,0.8,2.1*3C
2018-01-12 04:32:50 1515749570.407262: $GPZDA,093251.00,12,01,2018,00,00*63
2018-01-12 04:32:50 1515749570.407438: $GPGGA,093251,3946.9654,N,08404.9799,W,2,10,0.80,303.05,M,-33.324,M,,*7B
2018-01-12 04:32:50 1515749570.407508: $GPRMC,093251,A,3946.9654,N,08404.9799,W,0.0000,0.000,120118,,*38
2018-01-12 04:32:50 1515749570.407571: $GPGSA,A,3,5,6,12,25,29,17,19,20,9,138,,,2.4,0.8,2.1*3C
2018-01-12 04:32:51 1515749571.754085: $GPGSV,3,1,11,05,55,199,50,06,43,058,37,12,49,244,48,25,34,295,40*78
2018-01-12 04:32:51 1515749571.754312: $GPGSV,3,2,11,29,15,309,47,17,10,124,18,19,28,118,24,20,04,220,24*7B
2018-01-12 04:32:51 1515749571.754384: $GPGSV,3,3,11,23,04,033,17,09,19,063,30,138,38,213,47*7F
2018-01-12 04:32:51 1515749571.867444: $GPZDA,093252.00,12,01,2018,00,00*60
2018-01-12 04:32:51 1515749571.867590: $GPGGA,093252,3946.9654,N,08404.9799,W,2,11,0.80,303.05,M,-33.324,M,,*79
2018-01-12 04:32:51 1515749571.867661: $GPRMC,093252,A,3946.9654,N,08404.9799,W,0.0000,0.000,120118,,*3B
2018-01-12 04:32:51 1515749571.867725: $GPGSA,A,3,5,6,12,25,29,17,19,20,23,9,138,,2.4,0.8,2.1*3D
2018-01-12 04:32:52 1515749572.414730: $GPZDA,093253.00,12,01,2018,00,00*61
2018-01-12 04:32:52 1515749572.414919: $GPGGA,093253,3946.9654,N,08404.9799,W,2,11,0.80,303.05,M,-33.324,M,,*78
2018-01-12 04:32:52 1515749572.415010: $GPRMC,093253,A,3946.9654,N,08404.9799,W,0.0000,0.000,120118,,*3A
2018-01-12 04:32:52 1515749572.415076: $GPGSA,A,3,5,6,12,25,29,17,19,20,23,9,138,,2.4,0.8,2.1*3D
2018-01-12 04:32:53 1515749573.415640: $GPZDA,093254.00,12,01,2018,00,00*66
2018-01-12 04:32:53 1515749573.415820: $GPGGA,093254,3946.9654,N,08404.9799,W,2,11,0.80,303.05,M,-33.324,M,,*7F
2018-01-12 04:32:53 1515749573.415892: $GPRMC,093254,A,3946.9654,N,08404.9799,W,0.0000,0.000,120118,,*3D
2018-01-12 04:32:53 1515749573.415956: $GPGSA,A,3,5,6,12,25,29,17,19,20,23,9,138,,2.4,0.8,2.1*3D
2018-01-12 04:32:54 1515749574.743205: $GPGSV,3,1,11,05,55,199,50,06,43,058,37,12,49,244,48,25,34,295,40*78
2018-01-12 04:32:54 1515749574.743369: $GPGSV,3,2,11,29,15,309,47,17,10,124,16,19,28,118,24,20,04,220,25*74
2018-01-12 04:32:54 1515749574.743507: $GPGSV,3,3,11,04,58,292,00,09,19,063,27,138,38,213,48*75
2018-01-12 04:32:54 1515749574.856620: $GPZDA,093255.00,12,01,2018,00,00*67
2018-01-12 04:32:54 1515749574.856769: $GPGGA,093255,3946.9654,N,08404.9799,W,2,10,0.80,303.05,M,-33.324,M,,*7F
2018-01-12 04:32:54 1515749574.856835: $GPRMC,093255,A,3946.9654,N,08404.9799,W,0.0000,0.000,120118,,*3C
2018-01-12 04:32:54 1515749574.856897: $GPGSA,A,3,5,6,12,25,29,17,19,20,9,138,,,2.4,0.8,2.1*3C
2018-01-12 04:32:55 1515749575.415153: $GPZDA,093256.00,12,01,2018,00,00*64
2018-01-12 04:32:55 1515749575.415347: $GPGGA,093256,3946.9654,N,08404.9799,W,2,10,0.80,303.05,M,-33.324,M,,*7C
2018-01-12 04:32:55 1515749575.415415: $GPRMC,093256,A,3946.9654,N,08404.9799,W,0.0000,0.000,120118,,*3F
2018-01-12 04:32:55 1515749575.415479: $GPGSA,A,3,5,6,12,25,29,17,19,20,9,138,,,2.4,0.8,2.1*3C
2018-01-12 04:32:56 1515749576.413285: $GPZDA,093257.00,12,01,2018,00,00*65
2018-01-12 04:32:56 1515749576.413472: $GPGGA,093257,3946.9654,N,08404.9799,W,2,10,0.80,303.05,M,-33.324,M,,*7D
2018-01-12 04:32:56 1515749576.413540: $GPRMC,093257,A,3946.9654,N,08404.9799,W,0.0000,0.000,120118,,*3E
2018-01-12 04:32:56 1515749576.413603: $GPGSA,A,3,5,6,12,25,29,17,19,20,9,138,,,2.4,0.8,2.1*3C
2018-01-12 04:32:57 1515749577.751545: $GPGSV,3,1,11,05,55,199,50,06,43,058,37,12,49,244,49,25,34,295,40*79
2018-01-12 04:32:57 1515749577.751755: $GPGSV,3,2,11,29,15,309,48,17,10,124,15,19,28,118,24,20,04,220,26*7B
2018-01-12 04:32:57 1515749577.754233: $GPGSV,3,3,11,04,58,292,00,09,19,063,24,138,38,213,47*79
2018-01-12 04:32:57 1515749577.864967: $GPZDA,093258.00,12,01,2018,00,00*6A
2018-01-12 04:32:57 1515749577.865111: $GPGGA,093258,3946.9654,N,08404.9799,W,2,10,0.80,303.05,M,-33.324,M,,*72
2018-01-12 04:32:57 1515749577.865177: $GPRMC,093258,A,3946.9654,N,08404.9799,W,0.0000,0.000,120118,,*31
2018-01-12 04:32:57 1515749577.865255: $GPGSA,A,3,5,6,12,25,29,17,19,20,9,138,,,2.4,0.8,2.1*3C
2018-01-12 04:32:58 1515749578.414930: $GPZDA,093259.00,12,01,2018,00,00*6B
2018-01-12 04:32:58 1515749578.415105: $GPGGA,093259,3946.9654,N,08404.9799,W,2,10,0.80,303.05,M,-33.324,M,,*73
2018-01-12 04:32:58 1515749578.415171: $GPRMC,093259,A,3946.9654,N,08404.9799,W,0.0000,0.000,120118,,*30
2018-01-12 04:32:58 1515749578.415233: $GPGSA,A,3,5,6,12,25,29,17,19,20,9,138,,,2.4,0.8,2.1*3C
2018-01-12 04:32:59 1515749579.413880: $GPZDA,093300.00,12,01,2018,00,00*66
2018-01-12 04:32:59 1515749579.414050: $GPGGA,093300,3946.9654,N,08404.9799,W,2,10,0.80,303.05,M,-33.324,M,,*7E
2018-01-12 04:32:59 1515749579.414117: $GPRMC,093300,A,3946.9654,N,08404.9799,W,0.0000,0.000,120118,,*3D
2018-01-12 04:32:59 1515749579.414179: $GPGSA,A,3,5,6,12,25,29,17,19,20,9,138,,,2.4,0.8,2.1*3C
2018-01-12 04:33:00 1515749580.743167: $GPGSV,3,1,11,05,55,199,50,06,43,058,38,12,49,244,48,25,34,295,40*77
2018-01-12 04:33:00 1515749580.743347: $GPGSV,3,2,11,29,15,309,48,17,10,124,16,19,28,118,24,20,04,220,26*78
2018-01-12 04:33:00 1515749580.743413: $GPGSV,3,3,11,23,04,033,24,09,19,063,24,138,38,213,47*7A
2018-01-12 04:33:00 1515749580.856790: $GPZDA,093301.00,12,01,2018,00,00*67
2018-01-12 04:33:00 1515749580.856972: $GPGGA,093301,3946.9654,N,08404.9799,W,2,11,0.80,303.05,M,-33.324,M,,*7E
2018-01-12 04:33:00 1515749580.857039: $GPRMC,093301,A,3946.9654,N,08404.9799,W,0.0000,0.000,120118,,*3C
2018-01-12 04:33:00 1515749580.857100: $GPGSA,A,3,5,6,12,25,29,17,19,20,23,9,138,,2.4,0.8,2.1*3D
2018-01-12 04:33:01 1515749581.407557: $GPZDA,093302.00,12,01,2018,00,00*64
2018-01-12 04:33:01 1515749581.407764: $GPGGA,093302,3946.9654,N,08404.9799,W,2,11,0.80,303.05,M,-33.324,M,,*7D
2018-01-12 04:33:01 1515749581.407833: $GPRMC,093302,A,3946.9654,N,08404.9799,W,0.0000,0.000,120118,,*3F
2018-01-12 04:33:01 1515749581.407894: $GPGSA,A,3,5,6,12,25,29,17,19,20,23,9,138,,2.4,0.8,2.1*3D
2018-01-12 04:33:02 1515749582.410799: $GPZDA,093303.00,12,01,2018,00,00*65
2018-01-12 04:33:02 1515749582.410995: $GPGGA,093303,3946.9654,N,08404.9799,W,2,11,0.80,303.05,M,-33.324,M,,*7C
2018-01-12 04:33:02 1515749582.411134: $GPRMC,093303,A,3946.9654,N,08404.9799,W,0.0000,0.000,120118,,*3E
2018-01-12 04:33:02 1515749582.411197: $GPGSA,A,3,5,6,12,25,29,17,19,20,23,9,138,,2.4,0.8,2.1*3D
2018-01-12 04:33:03 1515749583.747889: $GPGSV,3,1,11,05,55,199,49,06,43,058,38,12,49,244,49,25,34,295,39*70
2018-01-12 04:33:03 1515749583.748069: $GPGSV,3,2,11,29,15,309,47,17,10,124,18,19,28,118,23,20,04,220,27*7F
2018-01-12 04:33:03 1515749583.748135: $GPGSV,3,3,11,23,04,033,25,09,19,063,23,138,38,213,47*7C
2018-01-12 04:33:03 1515749583.861273: $GPZDA,093304.00,12,01,2018,00,00*62
2018-01-12 04:33:03 1515749583.861422: $GPGGA,093304,3946.9654,N,08404.9799,W,2,11,0.80,303.05,M,-33.324,M,,*7B
2018-01-12 04:33:03 1515749583.861488: $GPRMC,093304,A,3946.9654,N,08404.9799,W,0.0000,0.000,120118,,*39
2018-01-12 04:33:03 1515749583.861549: $GPGSA,A,3,5,6,12,25,29,17,19,20,23,9,138,,2.4,0.8,2.1*3D
2018-01-12 04:33:04 1515749584.487974: $GPZDA,093305.00,12,01,2018,00,00*63
2018-01-12 04:33:04 1515749584.488140: $GPGGA,093305,3946.9654,N,08404.9799,W,2,11,0.80,303.05,M,-33.324,M,,*7A
2018-01-12 04:33:04 1515749584.488206: $GPRMC,093305,A,3946.9654,N,08404.9799,W,0.0000,0.000,120118,,*38
2018-01-12 04:33:04 1515749584.488267: $GPGSA,A,3,5,6,12,25,29,17,19,20,23,9,138,,2.4,0.8,2.1*3D
2018-01-12 04:33:05 1515749585.411202: $GPZDA,093306.00,12,01,2018,00,00*60
2018-01-12 04:33:05 1515749585.411382: $GPGGA,093306,3946.9654,N,08404.9799,W,2,11,0.80,303.05,M,-33.324,M,,*79
2018-01-12 04:33:05 1515749585.411450: $GPRMC,093306,A,3946.9654,N,08404.9799,W,0.0000,0.000,120118,,*3B
2018-01-12 04:33:05 1515749585.411512: $GPGSA,A,3,5,6,12,25,29,17,19,20,23,9,138,,2.4,0.8,2.1*3D
2018-01-12 04:33:06 1515749586.749383: $GPGSV,3,1,11,05,55,199,49,06,43,058,38,12,49,244,49,25,34,295,40*7E
2018-01-12 04:33:06 1515749586.749583: $GPGSV,3,2,11,29,15,309,48,17,10,124,23,19,28,118,23,20,04,220,27*78
2018-01-12 04:33:06 1515749586.749650: $GPGSV,3,3,11,23,04,033,26,09,19,063,22,138,38,213,47*7E
2018-01-12 04:33:06 1515749586.861758: $GPZDA,093307.00,12,01,2018,00,00*61
2018-01-12 04:33:06 1515749586.861896: $GPGGA,093307,3946.9654,N,08404.9799,W,2,11,0.80,303.05,M,-33.324,M,,*78
2018-01-12 04:33:06 1515749586.861962: $GPRMC,093307,A,3946.9654,N,08404.9799,W,0.0000,0.000,120118,,*3A
2018-01-12 04:33:06 1515749586.862022: $GPGSA,A,3,5,6,12,25,29,17,19,20,23,9,138,,2.4,0.8,2.1*3D
2018-01-12 04:33:07 1515749587.418630: $GPZDA,093308.00,12,01,2018,00,00*6E
2018-01-12 04:33:07 1515749587.418816: $GPGGA,093308,3946.9654,N,08404.9799,W,2,11,0.80,303.05,M,-33.324,M,,*77
2018-01-12 04:33:07 1515749587.418883: $GPRMC,093308,A,3946.9654,N,08404.9799,W,0.0000,0.000,120118,,*35
2018-01-12 04:33:07 1515749587.418944: $GPGSA,A,3,5,6,12,25,29,17,19,20,23,9,138,,2.4,0.8,2.1*3D
