2017-11-16 14:48:55 1510861735.211360: {"class":"VERSION","release":"3.17","rev":"3.17","proto_major":3,"proto_minor":12}
2017-11-16 14:48:55 1510861735.211900: {"class":"DEVICES","devices":[{"class":"DEVICE","path":"/dev/ttyUSB0","driver":"SiRF","subtype":"9\u0006GSD4e_4.1.2-P1_RPATCH.05-F-GPS-4R-1510281 11/03/2015 307","activated":"2017-11-16T19:48:55.120Z","flags":1,"native":1,"bps":4800,"parity":"N","stopbits":1,"cycle":1.00}]}
2017-11-16 14:48:55 1510861735.212022: {"class":"WATCH","enable":true,"json":false,"nmea":true,"raw":0,"scaled":false,"timing":false,"split24":false,"pps":false}
2017-11-16 14:48:55 1510861735.522234: $GPZDA,194854.00,16,11,2017,00,00*60
2017-11-16 14:48:55 1510861735.526809: $GPGGA,194854,3946.9568,N,08404.9842,W,2,11,0.80,303.38,M,-33.324,M,,*78
2017-11-16 14:48:55 1510861735.526930: $GPRMC,194854,A,3946.9568,N,08404.9842,W,0.0000,0.000,161117,,*3E
2017-11-16 14:48:55 1510861735.526992: $GPGSA,A,3,8,10,15,18,21,20,24,27,32,14,138,,1.6,0.8,1.3*37
2017-11-16 14:48:56 1510861736.490905: $GPZDA,194855.00,16,11,2017,00,00*61
2017-11-16 14:48:56 1510861736.491217: $GPGGA,194855,3946.9568,N,08404.9842,W,2,11,0.80,303.38,M,-33.324,M,,*79
2017-11-16 14:48:56 1510861736.491365: $GPRMC,194855,A,3946.9568,N,08404.9842,W,0.0000,0.000,161117,,*3F
2017-11-16 14:48:56 1510861736.491463: $GPGSA,A,3,8,10,15,18,21,20,24,27,32,14,138,,1.6,0.8,1.3*37
2017-11-16 14:48:57 1510861737.865248: $GPGSV,3,1,11,08,08,307,35,10,55,313,49,15,24,058,50,18,77,033,44*77
2017-11-16 14:48:57 1510861737.865404: $GPGSV,3,2,11,21,46,183,47,20,21,108,43,24,53,081,49,27,14,273,42*7B
2017-11-16 14:48:57 1510861737.865463: $GPGSV,3,3,11,32,33,250,47,14,17,241,43,138,38,213,44*7E
2017-11-16 14:48:57 1510861737.978475: $GPZDA,194856.00,16,11,2017,00,00*62
2017-11-16 14:48:57 1510861737.978658: $GPGGA,194856,3946.9568,N,08404.9842,W,2,11,0.80,303.38,M,-33.324,M,,*7A
2017-11-16 14:48:57 1510861737.978721: $GPRMC,194856,A,3946.9568,N,08404.9842,W,0.0000,0.000,161117,,*3C
2017-11-16 14:48:57 1510861737.978778: $GPGSA,A,3,8,10,15,18,21,20,24,27,32,14,138,,1.6,0.8,1.3*37
2017-11-16 14:48:58 1510861738.490594: $GPZDA,194857.00,16,11,2017,00,00*63
2017-11-16 14:48:58 1510861738.490776: $GPGGA,194857,3946.9568,N,08404.9842,W,2,11,0.80,303.38,M,-33.324,M,,*7B
2017-11-16 14:48:58 1510861738.490837: $GPRMC,194857,A,3946.9568,N,08404.9842,W,0.0000,0.000,161117,,*3D
2017-11-16 14:48:58 1510861738.490893: $GPGSA,A,3,8,10,15,18,21,20,24,27,32,14,138,,1.6,0.8,1.3*37
2017-11-16 14:48:59 1510861739.527251: $GPZDA,194858.00,16,11,2017,00,00*6C
2017-11-16 14:48:59 1510861739.527429: $GPGGA,194858,3946.9568,N,08404.9842,W,2,11,0.80,303.38,M,-33.324,M,,*74
2017-11-16 14:48:59 1510861739.527491: $GPRMC,194858,A,3946.9568,N,08404.9842,W,0.0000,0.000,161117,,*32
2017-11-16 14:48:59 1510861739.527547: $GPGSA,A,3,8,10,15,18,21,20,24,27,32,14,138,,1.6,0.8,1.3*37
2017-11-16 14:49:00 1510861740.826791: $GPGSV,3,1,11,08,08,307,35,10,55,313,49,15,24,058,50,18,77,033,44*77
2017-11-16 14:49:00 1510861740.827268: $GPGSV,3,2,11,21,46,183,48,20,21,108,43,24,53,081,49,27,14,273,42*74
2017-11-16 14:49:00 1510861740.831685: $GPGSV,3,3,11,32,33,250,47,14,17,241,43,138,38,213,42*78
2017-11-16 14:49:00 1510861740.940180: $GPZDA,194859.00,16,11,2017,00,00*6D
2017-11-16 14:49:00 1510861740.940442: $GPGGA,194859,3946.9568,N,08404.9842,W,2,11,0.80,303.38,M,-33.324,M,,*75
2017-11-16 14:49:00 1510861740.940567: $GPRMC,194859,A,3946.9568,N,08404.9842,W,0.0000,0.000,161117,,*33
2017-11-16 14:49:00 1510861740.940650: $GPGSA,A,3,8,10,15,18,21,20,24,27,32,14,138,,1.6,0.8,1.3*37
2017-11-16 14:49:01 1510861741.527284: $GPZDA,194900.00,16,11,2017,00,00*60
2017-11-16 14:49:01 1510861741.527446: $GPGGA,194900,3946.9568,N,08404.9842,W,2,11,0.80,303.38,M,-33.324,M,,*78
2017-11-16 14:49:01 1510861741.527506: $GPRMC,194900,A,3946.9568,N,08404.9842,W,0.0000,0.000,161117,,*3E
2017-11-16 14:49:01 1510861741.527562: $GPGSA,A,3,8,10,15,18,21,20,24,27,32,14,138,,1.6,0.8,1.3*37
2017-11-16 14:49:02 1510861742.489213: $GPZDA,194901.00,16,11,2017,00,00*61
2017-11-16 14:49:02 1510861742.489394: $GPGGA,194901,3946.9568,N,08404.9842,W,2,11,0.80,303.38,M,-33.324,M,,*79
2017-11-16 14:49:02 1510861742.489505: $GPRMC,194901,A,3946.9568,N,08404.9842,W,0.0000,0.000,161117,,*3F
2017-11-16 14:49:02 1510861742.489563: $GPGSA,A,3,8,10,15,18,21,20,24,27,32,14,138,,1.6,0.8,1.3*37
2017-11-16 14:49:03 1510861743.824980: $GPGSV,3,1,11,08,08,307,35,10,55,313,50,15,24,058,49,18,77,033,44*77
2017-11-16 14:49:03 1510861743.825183: $GPGSV,3,2,11,21,46,183,48,20,21,108,43,24,53,081,48,27,14,273,42*75
2017-11-16 14:49:03 1510861743.825246: $GPGSV,3,3,11,32,33,250,46,14,17,241,43,138,38,213,43*78
2017-11-16 14:49:03 1510861743.938303: $GPZDA,194902.00,16,11,2017,00,00*62
2017-11-16 14:49:03 1510861743.938465: $GPGGA,194902,3946.9568,N,08404.9842,W,2,11,0.80,303.38,M,-33.324,M,,*7A
2017-11-16 14:49:03 1510861743.938526: $GPRMC,194902,A,3946.9568,N,08404.9842,W,0.0000,0.000,161117,,*3C
2017-11-16 14:49:03 1510861743.938582: $GPGSA,A,3,8,10,15,18,21,20,24,27,32,14,138,,1.6,0.8,1.3*37
2017-11-16 14:49:04 1510861744.564942: $GPZDA,194903.00,16,11,2017,00,00*63
2017-11-16 14:49:04 1510861744.565148: $GPGGA,194903,3946.9568,N,08404.9842,W,2,11,0.80,303.38,M,-33.324,M,,*7B
2017-11-16 14:49:04 1510861744.565226: $GPRMC,194903,A,3946.9568,N,08404.9842,W,0.0000,0.000,161117,,*3D
2017-11-16 14:49:04 1510861744.565284: $GPGSA,A,3,8,10,15,18,21,20,24,27,32,14,138,,1.6,0.8,1.3*37
