2017-11-15 19:19:10 1510791550.724989: {"class":"VERSION","release":"3.17","rev":"3.17","proto_major":3,"proto_minor":12}
2017-11-15 19:19:10 1510791550.725372: {"class":"DEVICES","devices":[{"class":"DEVICE","path":"/dev/ttyUSB0","driver":"SiRF","subtype":"9\u0006GSD4e_4.1.2-P1_RPATCH.05-F-GPS-4R-1510281 11/03/2015 307","activated":"2017-11-16T00:19:10.646Z","flags":1,"native":1,"bps":4800,"parity":"N","stopbits":1,"cycle":1.00}]}
2017-11-15 19:19:10 1510791550.725482: {"class":"WATCH","enable":true,"json":false,"nmea":true,"raw":0,"scaled":false,"timing":false,"split24":false,"pps":false}
2017-11-15 19:19:11 1510791551.330189: $GPZDA,001910.00,16,11,2017,00,00*6C
2017-11-15 19:19:11 1510791551.330345: $GPGGA,001910,3946.9583,N,08404.9563,W,1,07,1.00,271.86,M,-33.324,M,,*73
2017-11-15 19:19:11 1510791551.330403: $GPRMC,001910,A,3946.9583,N,08404.9563,W,0.5912,129.173,161117,,*39
2017-11-15 19:19:11 1510791551.330458: $GPGSA,A,3,32,14,22,26,31,3,16,,,,,,3.4,1.0,2.9*09
2017-11-15 19:19:12 1510791552.667205: $GPGSV,3,1,11,32,39,103,29,14,58,085,16,22,50,277,18,26,48,174,22*7F
2017-11-15 19:19:12 1510791552.667378: $GPGSV,3,2,11,31,71,016,22,29,09,075,15,03,37,304,15,16,18,190,12*7E
2017-11-15 19:19:12 1510791552.667438: $GPGSV,3,3,11,25,21,042,12,01,08,256,00,23,08,298,00*4A
2017-11-15 19:19:12 1510791552.780599: $GPZDA,001911.00,16,11,2017,00,00*6D
2017-11-15 19:19:12 1510791552.780763: $GPGGA,001911,3946.9588,N,08404.9563,W,1,09,0.80,272.50,M,-33.324,M,,*76
2017-11-15 19:19:12 1510791552.780824: $GPRMC,001911,A,3946.9588,N,08404.9563,W,0.5912,129.173,161117,,*33
2017-11-15 19:19:12 1510791552.780880: $GPGSA,A,3,32,14,22,26,31,29,3,16,25,,,,3.4,0.8,2.9*0C
2017-11-15 19:19:13 1510791553.331441: $GPZDA,001912.00,16,11,2017,00,00*6E
2017-11-15 19:19:13 1510791553.331603: $GPGGA,001912,3946.9588,N,08404.9563,W,1,09,0.80,272.50,M,-33.324,M,,*75
2017-11-15 19:19:13 1510791553.331663: $GPRMC,001912,A,3946.9588,N,08404.9563,W,0.4179,148.778,161117,,*3E
2017-11-15 19:19:13 1510791553.331718: $GPGSA,A,3,32,14,22,26,31,29,3,16,25,,,,3.4,0.8,2.9*0C
2017-11-15 19:19:14 1510791554.347536: $GPZDA,001913.00,16,11,2017,00,00*6F
2017-11-15 19:19:14 1510791554.347699: $GPGGA,001913,3946.9587,N,08404.9556,W,1,09,0.80,272.58,M,-33.324,M,,*75
2017-11-15 19:19:14 1510791554.347760: $GPRMC,001913,A,3946.9587,N,08404.9556,W,0.4179,148.778,161117,,*36
2017-11-15 19:19:14 1510791554.347834: $GPGSA,A,3,32,14,22,26,31,29,3,16,25,,,,3.4,0.8,2.9*0C
2017-11-15 19:19:15 1510791555.667131: $GPGSV,3,1,11,32,39,103,29,14,58,085,17,22,50,277,18,26,48,174,22*7E
2017-11-15 19:19:16 1510791556.372492: $GPGSV,3,2,11,31,71,016,22,29,09,075,14,03,37,304,16,16,18,190,12*7C
2017-11-15 19:19:16 1510791556.372657: $GPGSV,3,3,11,25,21,042,12,01,08,256,00,23,08,298,00*4A
2017-11-15 19:19:16 1510791556.372756: $GPZDA,001914.00,16,11,2017,00,00*68
2017-11-15 19:19:16 1510791556.372811: $GPGGA,001914,3946.9588,N,08404.9563,W,1,09,0.80,272.50,M,-33.324,M,,*73
2017-11-15 19:19:16 1510791556.372867: $GPRMC,001914,A,3946.9588,N,08404.9563,W,0.3006,242.539,161117,,*38
2017-11-15 19:19:16 1510791556.372921: $GPGSA,A,3,32,14,22,26,31,29,3,16,25,,,,3.4,0.8,2.9*0C
2017-11-15 19:19:16 1510791556.405717: $GPZDA,001915.00,16,11,2017,00,00*69
2017-11-15 19:19:16 1510791556.405876: $GPGGA,001915,3946.9591,N,08404.9556,W,1,09,0.80,273.22,M,-33.324,M,,*78
2017-11-15 19:19:16 1510791556.405936: $GPRMC,001915,A,3946.9591,N,08404.9556,W,0.2422,93.794,161117,,*0F
2017-11-15 19:19:16 1510791556.405991: $GPGSA,A,3,32,14,22,26,31,29,3,16,25,,,,3.4,0.8,2.9*0C
2017-11-15 19:19:17 1510791557.347893: $GPZDA,001916.00,16,11,2017,00,00*6A
2017-11-15 19:19:17 1510791557.348054: $GPGGA,001916,3946.9591,N,08404.9556,W,1,09,0.80,273.22,M,-33.324,M,,*7B
2017-11-15 19:19:17 1510791557.348116: $GPRMC,001916,A,3946.9591,N,08404.9556,W,0.2422,93.794,161117,,*0C
2017-11-15 19:19:17 1510791557.348171: $GPGSA,A,3,32,14,22,26,31,29,3,16,25,,,,3.4,0.8,2.9*0C
2017-11-15 19:19:18 1510791558.682442: $GPGSV,3,1,11,32,39,103,29,14,58,085,17,22,50,277,18,26,48,174,22*7E
2017-11-15 19:19:18 1510791558.682617: $GPGSV,3,2,11,31,71,016,23,29,09,075,14,03,37,304,16,16,18,190,11*7E
2017-11-15 19:19:18 1510791558.682745: $GPGSV,3,3,11,25,21,042,09,01,08,256,00,23,08,298,00*40
2017-11-15 19:19:18 1510791558.795689: $GPZDA,001917.00,16,11,2017,00,00*6B
2017-11-15 19:19:18 1510791558.795845: $GPGGA,001917,3946.9591,N,08404.9556,W,1,09,0.80,273.22,M,-33.324,M,,*7A
2017-11-15 19:19:18 1510791558.795905: $GPRMC,001917,A,3946.9591,N,08404.9556,W,0.2422,93.794,161117,,*0D
2017-11-15 19:19:18 1510791558.795961: $GPGSA,A,3,32,14,22,26,31,29,3,16,25,,,,3.4,0.8,2.9*0C
2017-11-15 19:19:19 1510791559.331614: $GPZDA,001918.00,16,11,2017,00,00*64
2017-11-15 19:19:19 1510791559.331772: $GPGGA,001918,3946.9596,N,08404.9556,W,1,09,0.80,273.86,M,-33.324,M,,*7C
2017-11-15 19:19:19 1510791559.331833: $GPRMC,001918,A,3946.9596,N,08404.9556,W,0.1567,189.201,161117,,*35
2017-11-15 19:19:19 1510791559.331889: $GPGSA,A,3,32,14,22,26,31,29,3,16,25,,,,3.4,0.8,2.9*0C
2017-11-15 19:19:20 1510791560.346212: $GPZDA,001919.00,16,11,2017,00,00*65
2017-11-15 19:19:20 1510791560.346374: $GPGGA,001919,3946.9596,N,08404.9556,W,1,09,0.80,273.86,M,-33.324,M,,*7D
2017-11-15 19:19:20 1510791560.346434: $GPRMC,001919,A,3946.9596,N,08404.9556,W,0.1867,0.000,161117,,*3A
2017-11-15 19:19:20 1510791560.346489: $GPGSA,A,3,32,14,22,26,31,29,3,16,25,,,,3.4,0.8,2.9*0C
