2018-01-11 19:55:36 1515718536.507717: {"class":"VERSION","release":"3.16","rev":"3.16-4","proto_major":3,"proto_minor":11}
2018-01-11 19:55:36 1515718536.508053: {"class":"DEVICES","devices":[{"class":"DEVICE","path":"/dev/ttyUSB0","driver":"SiRF","subtype":"9\u0006GSD4e_4.1.2-P1_RPATCH.05-F-GPS-4R-1510281 11/03/2015 307","activated":"2018-01-12T00:55:36.503Z","flags":1,"native":1,"bps":4800,"parity":"N","stopbits":1,"cycle":1.00}]}
2018-01-11 19:55:36 1515718536.508168: {"class":"WATCH","enable":true,"json":false,"nmea":true,"raw":0,"scaled":false,"timing":false,"split24":false,"pps":false}
2018-01-11 19:55:37 1515718537.737366: $GPGSV,3,1,11,07,49,312,44,08,68,150,46,09,52,238,43,11,14,169,35*7C
2018-01-11 19:55:37 1515718537.737532: $GPGSV,3,2,11,16,28,055,46,23,36,192,48,27,53,060,51,28,09,253,33*73
2018-01-11 19:55:37 1515718537.737599: $GPGSV,3,3,11,30,23,303,32,26,03,069,00,138,38,213,45*72
2018-01-11 19:55:37 1515718537.851043: $GPZDA,005538.00,12,01,2018,00,00*64
2018-01-11 19:55:37 1515718537.851176: $GPGGA,005538,3946.9576,N,08404.9816,W,2,10,0.80,307.79,M,-33.324,M,,*78
2018-01-11 19:55:37 1515718537.851241: $GPRMC,005538,A,3946.9576,N,08404.9816,W,0.0000,0.000,120118,,*34
2018-01-11 19:55:37 1515718537.851301: $GPGSA,A,3,7,8,9,11,16,23,27,28,30,138,,,4.0,0.8,3.5*3E
2018-01-11 19:55:38 1515718538.400430: $GPZDA,005539.00,12,01,2018,00,00*65
2018-01-11 19:55:38 1515718538.400595: $GPGGA,005539,3946.9576,N,08404.9816,W,2,10,0.80,307.79,M,-33.324,M,,*79
2018-01-11 19:55:38 1515718538.400661: $GPRMC,005539,A,3946.9576,N,08404.9816,W,0.0000,0.000,120118,,*35
2018-01-11 19:55:38 1515718538.400721: $GPGSA,A,3,7,8,9,11,16,23,27,28,30,138,,,4.0,0.8,3.5*3E
2018-01-11 19:55:39 1515718539.401993: $GPZDA,005540.00,12,01,2018,00,00*6B
2018-01-11 19:55:39 1515718539.402154: $GPGGA,005540,3946.9576,N,08404.9816,W,2,10,0.80,307.79,M,-33.324,M,,*77
2018-01-11 19:55:39 1515718539.402222: $GPRMC,005540,A,3946.9576,N,08404.9816,W,0.0000,0.000,120118,,*3B
2018-01-11 19:55:39 1515718539.402282: $GPGSA,A,3,7,8,9,11,16,23,27,28,30,138,,,4.0,0.8,3.5*3E
2018-01-11 19:55:40 1515718540.739008: $GPGSV,3,1,11,07,49,312,44,08,68,150,46,09,52,238,43,11,14,169,35*7C
2018-01-11 19:55:40 1515718540.739246: $GPGSV,3,2,11,16,28,055,46,23,36,192,48,27,53,060,51,28,09,253,34*74
2018-01-11 19:55:40 1515718540.739314: $GPGSV,3,3,11,30,23,303,31,26,03,069,00,138,38,213,45*71
2018-01-11 19:55:40 1515718540.852351: $GPZDA,005541.00,12,01,2018,00,00*6A
2018-01-11 19:55:40 1515718540.852492: $GPGGA,005541,3946.9576,N,08404.9816,W,2,10,0.80,307.79,M,-33.324,M,,*76
2018-01-11 19:55:40 1515718540.852557: $GPRMC,005541,A,3946.9576,N,08404.9816,W,0.0000,0.000,120118,,*3A
2018-01-11 19:55:40 1515718540.852617: $GPGSA,A,3,7,8,9,11,16,23,27,28,30,138,,,4.0,0.8,3.5*3E
2018-01-11 19:55:41 1515718541.400691: $GPZDA,005542.00,12,01,2018,00,00*69
2018-01-11 19:55:41 1515718541.400847: $GPGGA,005542,3946.9576,N,08404.9816,W,2,10,0.80,307.79,M,-33.324,M,,*75
2018-01-11 19:55:41 1515718541.400913: $GPRMC,005542,A,3946.9576,N,08404.9816,W,0.0000,0.000,120118,,*39
2018-01-11 19:55:41 1515718541.400974: $GPGSA,A,3,7,8,9,11,16,23,27,28,30,138,,,4.0,0.8,3.5*3E
2018-01-11 19:55:42 1515718542.401888: $GPZDA,005543.00,12,01,2018,00,00*68
2018-01-11 19:55:42 1515718542.402045: $GPGGA,005543,3946.9569,N,08404.9809,W,2,10,1.00,307.99,M,-33.324,M,,*73
2018-01-11 19:55:42 1515718542.402110: $GPRMC,005543,A,3946.9569,N,08404.9809,W,0.2422,93.794,120118,,*0E
2018-01-11 19:55:42 1515718542.402171: $GPGSA,A,3,7,8,9,11,16,23,27,28,30,138,,,4.0,1.0,3.5*37
2018-01-11 19:55:43 1515718543.722286: $GPGSV,3,1,11,07,49,312,44,08,68,150,46,09,52,238,43,11,14,169,35*7C
2018-01-11 19:55:43 1515718543.722467: $GPGSV,3,2,11,16,28,055,47,23,36,192,48,27,53,060,51,28,09,253,33*72
2018-01-11 19:55:43 1515718543.722532: $GPGSV,3,3,11,30,23,303,00,26,03,069,00,138,38,213,45*73
2018-01-11 19:55:43 1515718543.835912: $GPZDA,005544.00,12,01,2018,00,00*6F
2018-01-11 19:55:43 1515718543.836047: $GPGGA,005544,3946.9569,N,08404.9809,W,2,09,1.00,307.99,M,-33.324,M,,*7C
2018-01-11 19:55:43 1515718543.836112: $GPRMC,005544,A,3946.9569,N,08404.9809,W,0.0000,0.000,120118,,*3F
2018-01-11 19:55:43 1515718543.836227: $GPGSA,A,3,7,8,9,11,16,23,27,28,138,,,,4.0,1.0,3.5*34
2018-01-11 19:55:44 1515718544.461305: $GPZDA,005545.00,12,01,2018,00,00*6E
2018-01-11 19:55:44 1515718544.461457: $GPGGA,005545,3946.9569,N,08404.9809,W,2,09,1.00,307.99,M,-33.324,M,,*7D
2018-01-11 19:55:44 1515718544.461523: $GPRMC,005545,A,3946.9569,N,08404.9809,W,0.0000,0.000,120118,,*3E
2018-01-11 19:55:44 1515718544.461583: $GPGSA,A,3,7,8,9,11,16,23,27,28,138,,,,4.0,1.0,3.5*34
2018-01-11 19:55:45 1515718545.402200: $GPZDA,005546.00,12,01,2018,00,00*6D
2018-01-11 19:55:45 1515718545.402352: $GPGGA,005546,3946.9569,N,08404.9809,W,2,09,1.00,307.99,M,-33.324,M,,*7E
2018-01-11 19:55:45 1515718545.402418: $GPRMC,005546,A,3946.9569,N,08404.9809,W,0.0000,0.000,120118,,*3D
2018-01-11 19:55:45 1515718545.402478: $GPGSA,A,3,7,8,9,11,16,23,27,28,138,,,,4.0,1.0,3.5*34
