2017-12-01 17:56:03 1512168963.346869: {"class":"VERSION","release":"3.16","rev":"3.16-4","proto_major":3,"proto_minor":11}
2017-12-01 17:56:03 1512168963.347257: {"class":"DEVICES","devices":[{"class":"DEVICE","path":"/dev/ttyUSB0","driver":"SiRF","subtype":"9\u0006GSD4e_4.1.2-P1_RPATCH.05-F-GPS-4R-1510281 11/03/2015 307","activated":"2017-12-01T22:56:03.247Z","flags":1,"native":1,"bps":4800,"parity":"N","stopbits":1,"cycle":1.00}]}
2017-12-01 17:56:03 1512168963.347379: {"class":"WATCH","enable":true,"json":false,"nmea":true,"raw":0,"scaled":false,"timing":false,"split24":false,"pps":false}
2017-12-01 17:56:03 1512168963.360956: $GPZDA,225604.00,01,12,2017,00,00*67
2017-12-01 17:56:03 1512168963.361094: $GPGGA,225604,3946.9741,N,08404.9844,W,2,12,0.80,294.66,M,-33.325,M,,*73
2017-12-01 17:56:03 1512168963.361159: $GPRMC,225604,A,3946.9741,N,08404.9844,W,0.0000,0.000,011217,,*36
2017-12-01 17:56:03 1512168963.361219: $GPGSA,A,3,1,3,10,14,16,22,29,25,26,31,32,138,2.0,0.8,1.5*0C
2017-12-01 17:56:04 1512168964.697841: $GPGSV,3,1,12,01,13,262,36,03,32,309,47,10,09,159,41,14,63,070,42*72
2017-12-01 17:56:04 1512168964.698038: $GPGSV,3,2,12,16,11,189,41,22,47,289,46,29,06,084,21,25,27,046,43*7E
2017-12-01 17:56:04 1512168964.698122: $GPGSV,3,3,12,26,40,175,45,31,76,355,47,32,45,096,44,138,38,213,46*47
2017-12-01 17:56:04 1512168964.811304: $GPZDA,225605.00,01,12,2017,00,00*66
2017-12-01 17:56:04 1512168964.811541: $GPGGA,225605,3946.9741,N,08404.9844,W,2,12,0.80,294.66,M,-33.325,M,,*72
2017-12-01 17:56:04 1512168964.811609: $GPRMC,225605,A,3946.9741,N,08404.9844,W,0.0000,0.000,011217,,*37
2017-12-01 17:56:04 1512168964.811670: $GPGSA,A,3,1,3,10,14,16,22,29,25,26,31,32,138,2.0,0.8,1.5*0C
2017-12-01 17:56:05 1512168965.436580: $GPZDA,225606.00,01,12,2017,00,00*65
2017-12-01 17:56:05 1512168965.436757: $GPGGA,225606,3946.9741,N,08404.9844,W,2,12,0.80,294.66,M,-33.325,M,,*71
2017-12-01 17:56:05 1512168965.436824: $GPRMC,225606,A,3946.9741,N,08404.9844,W,0.0000,0.000,011217,,*34
2017-12-01 17:56:05 1512168965.436885: $GPGSA,A,3,1,3,10,14,16,22,29,25,26,31,32,138,2.0,0.8,1.5*0C
2017-12-01 17:56:06 1512168966.386142: $GPZDA,225607.00,01,12,2017,00,00*64
2017-12-01 17:56:06 1512168966.386327: $GPGGA,225607,3946.9741,N,08404.9844,W,2,12,0.80,294.66,M,-33.325,M,,*70
2017-12-01 17:56:06 1512168966.386395: $GPRMC,225607,A,3946.9741,N,08404.9844,W,0.0000,0.000,011217,,*35
2017-12-01 17:56:06 1512168966.386456: $GPGSA,A,3,1,3,10,14,16,22,29,25,26,31,32,138,2.0,0.8,1.5*0C
2017-12-01 17:56:07 1512168967.693213: $GPGSV,3,1,12,01,13,262,36,03,32,309,48,10,09,159,42,14,63,070,42*7E
2017-12-01 17:56:07 1512168967.693415: $GPGSV,3,2,12,16,11,189,40,22,47,289,46,29,06,084,21,25,27,046,42*7E
2017-12-01 17:56:07 1512168967.693484: $GPGSV,3,3,12,26,40,175,44,31,76,355,47,32,45,096,44,138,38,213,46*46
2017-12-01 17:56:07 1512168967.806788: $GPZDA,225608.00,01,12,2017,00,00*6B
2017-12-01 17:56:07 1512168967.806967: $GPGGA,225608,3946.9741,N,08404.9844,W,2,12,0.80,294.66,M,-33.325,M,,*7F
2017-12-01 17:56:07 1512168967.807034: $GPRMC,225608,A,3946.9741,N,08404.9844,W,0.0000,0.000,011217,,*3A
2017-12-01 17:56:07 1512168967.807096: $GPGSA,A,3,1,3,10,14,16,22,29,25,26,31,32,138,2.0,0.8,1.5*0C
2017-12-01 17:56:08 1512168968.387468: $GPZDA,225609.00,01,12,2017,00,00*6A
2017-12-01 17:56:08 1512168968.387639: $GPGGA,225609,3946.9741,N,08404.9844,W,2,12,0.80,294.66,M,-33.325,M,,*7E
2017-12-01 17:56:08 1512168968.387707: $GPRMC,225609,A,3946.9741,N,08404.9844,W,0.0000,0.000,011217,,*3B
2017-12-01 17:56:08 1512168968.387768: $GPGSA,A,3,1,3,10,14,16,22,29,25,26,31,32,138,2.0,0.8,1.5*0C
2017-12-01 17:56:09 1512168969.361178: $GPZDA,225610.00,01,12,2017,00,00*62
2017-12-01 17:56:09 1512168969.361399: $GPGGA,225610,3946.9741,N,08404.9844,W,2,12,0.80,294.66,M,-33.325,M,,*76
2017-12-01 17:56:09 1512168969.361479: $GPRMC,225610,A,3946.9741,N,08404.9844,W,0.0000,0.000,011217,,*33
2017-12-01 17:56:09 1512168969.361541: $GPGSA,A,3,1,3,10,14,16,22,29,25,26,31,32,138,2.0,0.8,1.5*0C
2017-12-01 17:56:10 1512168970.696085: $GPGSV,3,1,12,01,13,262,37,03,32,309,48,10,09,159,42,14,63,070,42*7F
2017-12-01 17:56:10 1512168970.696316: $GPGSV,3,2,12,16,11,189,41,22,47,289,46,29,06,084,21,25,27,046,43*7E
2017-12-01 17:56:10 1512168970.696386: $GPGSV,3,3,12,26,40,175,45,31,76,355,46,32,45,096,44,138,38,213,46*46
2017-12-01 17:56:10 1512168970.809753: $GPZDA,225611.00,01,12,2017,00,00*63
2017-12-01 17:56:10 1512168970.809919: $GPGGA,225611,3946.9741,N,08404.9844,W,2,12,0.80,294.66,M,-33.325,M,,*77
2017-12-01 17:56:10 1512168970.809984: $GPRMC,225611,A,3946.9741,N,08404.9844,W,0.0000,0.000,011217,,*32
2017-12-01 17:56:10 1512168970.810045: $GPGSA,A,3,1,3,10,14,16,22,29,25,26,31,32,138,2.0,0.8,1.5*0C
2017-12-01 17:56:11 1512168971.361921: $GPZDA,225612.00,01,12,2017,00,00*60
2017-12-01 17:56:11 1512168971.362082: $GPGGA,225612,3946.9741,N,08404.9844,W,2,12,0.80,294.66,M,-33.325,M,,*74
2017-12-01 17:56:11 1512168971.362147: $GPRMC,225612,A,3946.9741,N,08404.9844,W,0.0000,0.000,011217,,*31
2017-12-01 17:56:11 1512168971.362296: $GPGSA,A,3,1,3,10,14,16,22,29,25,26,31,32,138,2.0,0.8,1.5*0C
2017-12-01 17:56:12 1512168972.355149: $GPZDA,225613.00,01,12,2017,00,00*61
2017-12-01 17:56:12 1512168972.355318: $GPGGA,225613,3946.9741,N,08404.9844,W,2,12,0.80,294.66,M,-33.325,M,,*75
2017-12-01 17:56:12 1512168972.355384: $GPRMC,225613,A,3946.9741,N,08404.9844,W,0.0000,0.000,011217,,*30
2017-12-01 17:56:12 1512168972.355445: $GPGSA,A,3,1,3,10,14,16,22,29,25,26,31,32,138,2.0,0.8,1.5*0C
2017-12-01 17:56:13 1512168973.696824: $GPGSV,3,1,12,01,13,262,37,03,32,309,48,10,09,159,42,14,63,070,43*7E
2017-12-01 17:56:13 1512168973.696987: $GPGSV,3,2,12,16,11,189,40,22,47,289,47,29,06,084,22,25,27,046,43*7D
2017-12-01 17:56:13 1512168973.697053: $GPGSV,3,3,12,26,40,175,46,31,76,355,47,32,45,096,44,138,38,213,46*44
2017-12-01 17:56:13 1512168973.810206: $GPZDA,225614.00,01,12,2017,00,00*66
2017-12-01 17:56:13 1512168973.810382: $GPGGA,225614,3946.9741,N,08404.9844,W,2,12,0.80,294.66,M,-33.325,M,,*72
2017-12-01 17:56:13 1512168973.810450: $GPRMC,225614,A,3946.9741,N,08404.9844,W,0.0000,0.000,011217,,*37
2017-12-01 17:56:13 1512168973.810511: $GPGSA,A,3,1,3,10,14,16,22,29,25,26,31,32,138,2.0,0.8,1.5*0C
2017-12-01 17:56:14 1512168974.359830: $GPZDA,225615.00,01,12,2017,00,00*67
2017-12-01 17:56:14 1512168974.360006: $GPGGA,225615,3946.9737,N,08404.9844,W,2,12,0.80,294.02,M,-33.325,M,,*70
2017-12-01 17:56:14 1512168974.360074: $GPRMC,225615,A,3946.9737,N,08404.9844,W,0.0000,0.000,011217,,*37
2017-12-01 17:56:14 1512168974.360134: $GPGSA,A,3,1,3,10,14,16,22,29,25,26,31,32,138,2.0,0.8,1.5*0C
2017-12-01 17:56:15 1512168975.361831: $GPZDA,225616.00,01,12,2017,00,00*64
2017-12-01 17:56:15 1512168975.362000: $GPGGA,225616,3946.9737,N,08404.9844,W,2,12,0.80,294.02,M,-33.325,M,,*73
2017-12-01 17:56:15 1512168975.362066: $GPRMC,225616,A,3946.9737,N,08404.9844,W,0.0000,0.000,011217,,*34
2017-12-01 17:56:15 1512168975.362127: $GPGSA,A,3,1,3,10,14,16,22,29,25,26,31,32,138,2.0,0.8,1.5*0C
2017-12-01 17:56:16 1512168976.697234: $GPGSV,3,1,12,01,13,262,37,03,32,309,47,10,09,159,42,14,63,070,43*71
2017-12-01 17:56:16 1512168976.697413: $GPGSV,3,2,12,16,11,189,41,22,47,289,47,29,06,084,23,25,27,046,43*7D
2017-12-01 17:56:16 1512168976.697481: $GPGSV,3,3,12,26,40,175,45,31,76,355,47,32,45,096,44,138,38,213,46*47
2017-12-01 17:56:16 1512168976.810941: $GPZDA,225617.00,01,12,2017,00,00*65
2017-12-01 17:56:16 1512168976.811095: $GPGGA,225617,3946.9737,N,08404.9844,W,2,12,0.80,294.02,M,-33.325,M,,*72
2017-12-01 17:56:16 1512168976.811160: $GPRMC,225617,A,3946.9737,N,08404.9844,W,0.0000,0.000,011217,,*35
2017-12-01 17:56:16 1512168976.811220: $GPGSA,A,3,1,3,10,14,16,22,29,25,26,31,32,138,2.0,0.8,1.5*0C
2017-12-01 17:56:17 1512168977.360123: $GPZDA,225618.00,01,12,2017,00,00*6A
2017-12-01 17:56:17 1512168977.360298: $GPGGA,225618,3946.9737,N,08404.9844,W,2,12,0.80,294.02,M,-33.325,M,,*7D
2017-12-01 17:56:17 1512168977.360365: $GPRMC,225618,A,3946.9737,N,08404.9844,W,0.0000,0.000,011217,,*3A
2017-12-01 17:56:17 1512168977.360426: $GPGSA,A,3,1,3,10,14,16,22,29,25,26,31,32,138,2.0,0.8,1.5*0C
2017-12-01 17:56:18 1512168978.360004: $GPZDA,225619.00,01,12,2017,00,00*6B
2017-12-01 17:56:18 1512168978.360176: $GPGGA,225619,3946.9737,N,08404.9844,W,2,12,0.80,294.02,M,-33.325,M,,*7C
2017-12-01 17:56:18 1512168978.360243: $GPRMC,225619,A,3946.9737,N,08404.9844,W,0.0000,0.000,011217,,*3B
2017-12-01 17:56:18 1512168978.360303: $GPGSA,A,3,1,3,10,14,16,22,29,25,26,31,32,138,2.0,0.8,1.5*0C
2017-12-01 17:56:19 1512168979.699236: $GPGSV,3,1,12,01,13,262,37,03,32,309,47,10,09,159,42,14,63,070,43*71
2017-12-01 17:56:19 1512168979.699421: $GPGSV,3,2,12,16,11,189,41,22,47,289,47,29,06,084,14,25,27,046,42*78
2017-12-01 17:56:19 1512168979.699489: $GPGSV,3,3,12,26,40,175,45,31,76,355,46,32,45,096,44,138,38,213,46*46
2017-12-01 17:56:19 1512168979.812645: $GPZDA,225620.00,01,12,2017,00,00*61
2017-12-01 17:56:19 1512168979.812824: $GPGGA,225620,3946.9737,N,08404.9844,W,2,12,0.80,294.02,M,-33.325,M,,*76
2017-12-01 17:56:19 1512168979.812910: $GPRMC,225620,A,3946.9737,N,08404.9844,W,0.0000,0.000,011217,,*31
2017-12-01 17:56:19 1512168979.812975: $GPGSA,A,3,1,3,10,14,16,22,29,25,26,31,32,138,2.0,0.8,1.5*0C
2017-12-01 17:56:20 1512168980.438230: $GPZDA,225621.00,01,12,2017,00,00*60
2017-12-01 17:56:20 1512168980.438416: $GPGGA,225621,3946.9737,N,08404.9844,W,2,12,0.80,294.02,M,-33.325,M,,*77
2017-12-01 17:56:20 1512168980.438506: $GPRMC,225621,A,3946.9737,N,08404.9844,W,0.0000,0.000,011217,,*30
2017-12-01 17:56:20 1512168980.438569: $GPGSA,A,3,1,3,10,14,16,22,29,25,26,31,32,138,2.0,0.8,1.5*0C
2017-12-01 17:56:21 1512168981.360503: $GPZDA,225622.00,01,12,2017,00,00*63
2017-12-01 17:56:21 1512168981.360700: $GPGGA,225622,3946.9741,N,08404.9844,W,2,12,0.80,294.66,M,-33.325,M,,*77
2017-12-01 17:56:21 1512168981.360769: $GPRMC,225622,A,3946.9741,N,08404.9844,W,0.0000,0.000,011217,,*32
2017-12-01 17:56:21 1512168981.360830: $GPGSA,A,3,1,3,10,14,16,22,29,25,26,31,32,138,2.0,0.8,1.5*0C
2017-12-01 17:56:22 1512168982.695835: $GPGSV,3,1,12,01,13,262,37,03,32,309,47,10,09,159,42,14,63,070,43*71
2017-12-01 17:56:22 1512168982.696017: $GPGSV,3,2,12,16,11,189,41,22,47,289,47,29,06,084,16,25,27,046,42*7A
2017-12-01 17:56:22 1512168982.696085: $GPGSV,3,3,12,26,40,175,45,31,76,355,47,32,45,096,43,138,38,213,46*40
2017-12-01 17:56:22 1512168982.809283: $GPZDA,225623.00,01,12,2017,00,00*62
2017-12-01 17:56:22 1512168982.809452: $GPGGA,225623,3946.9741,N,08404.9844,W,2,12,0.80,294.66,M,-33.325,M,,*76
2017-12-01 17:56:22 1512168982.809518: $GPRMC,225623,A,3946.9741,N,08404.9844,W,0.0000,0.000,011217,,*33
2017-12-01 17:56:22 1512168982.809578: $GPGSA,A,3,1,3,10,14,16,22,29,25,26,31,32,138,2.0,0.8,1.5*0C
