2017-12-01 13:58:15 1512154695.886885: {"class":"VERSION","release":"3.16","rev":"3.16-4","proto_major":3,"proto_minor":11}
2017-12-01 13:58:15 1512154695.887350: {"class":"DEVICES","devices":[{"class":"DEVICE","path":"/dev/ttyUSB0","driver":"SiRF","subtype":"9\u0006GSD4e_4.1.2-P1_RPATCH.05-F-GPS-4R-1510281 11/03/2015 307","activated":"2017-12-01T18:58:15.857Z","flags":1,"native":1,"bps":4800,"parity":"N","stopbits":1,"cycle":1.00}]}
2017-12-01 13:58:15 1512154695.887494: {"class":"WATCH","enable":true,"json":false,"nmea":true,"raw":0,"scaled":false,"timing":false,"split24":false,"pps":false}
2017-12-01 13:58:15 1512154695.970900: $GPZDA,185816.66,01,12,2017,00,00*63
2017-12-01 13:58:15 1512154695.971079: $GPGGA,185816,3946.9532,N,08404.9828,W,1,12,0.80,309.86,M,-33.324,M,,*72
2017-12-01 13:58:15 1512154695.971164: $GPRMC,185816,A,3946.9532,N,08404.9828,W,0.4757,350.910,011217,,*31
2017-12-01 13:58:15 1512154695.971226: $GPGSA,A,3,10,14,15,18,20,21,24,27,32,8,12,138,2.0,0.8,1.5*37
2017-12-01 13:58:17 1512154697.052671: $GPZDA,185817.35,01,12,2017,00,00*64
2017-12-01 13:58:17 1512154697.052839: $GPGGA,185817,3946.9532,N,08404.9828,W,1,12,0.80,309.86,M,-33.324,M,,*73
2017-12-01 13:58:17 1512154697.052906: $GPRMC,185817,A,3946.9532,N,08404.9828,W,0.7108,311.360,011217,,*37
2017-12-01 13:58:17 1512154697.052989: $GPGSA,A,3,10,14,15,18,20,21,24,27,32,8,12,138,2.0,0.8,1.5*37
2017-12-01 13:58:17 1512154697.053049: $GPGBS,185817,10.70,M,15.43,M,35.28,M*05
2017-12-01 13:58:18 1512154698.193918: $GPGSV,3,1,12,08,08,304,40,10,59,318,49,14,20,244,40,15,20,061,43*76
2017-12-01 13:58:18 1512154698.194135: $GPGSV,3,2,12,18,77,057,42,20,17,111,40,21,40,181,45,24,51,073,47*7C
2017-12-01 13:58:18 1512154698.194223: $GPGSV,3,3,12,27,12,270,35,32,38,255,41,12,02,115,05,138,38,213,44*42
2017-12-01 13:58:18 1512154698.307325: $GPZDA,185818.00,01,12,2017,00,00*6D
2017-12-01 13:58:18 1512154698.307492: $GPGGA,185818,3946.9533,N,08404.9828,W,1,11,0.80,311.26,M,-33.324,M,,*7D
2017-12-01 13:58:18 1512154698.307560: $GPRMC,185818,A,3946.9533,N,08404.9828,W,0.0814,322.014,011217,,*3A
2017-12-01 13:58:18 1512154698.307620: $GPGSA,A,3,8,10,14,15,18,20,21,24,27,32,138,,2.0,0.8,1.5*34
2017-12-01 13:58:18 1512154698.759486: $GPZDA,185819.00,01,12,2017,00,00*6C
2017-12-01 13:58:18 1512154698.759657: $GPGGA,185819,3946.9532,N,08404.9835,W,1,11,0.80,309.78,M,-33.324,M,,*73
2017-12-01 13:58:18 1512154698.759724: $GPRMC,185819,A,3946.9532,N,08404.9835,W,0.0407,322.014,011217,,*38
2017-12-01 13:58:18 1512154698.759784: $GPGSA,A,3,8,10,14,15,18,20,21,24,27,32,138,,2.0,0.8,1.5*34
2017-12-01 13:58:19 1512154699.360375: $GPZDA,185820.00,01,12,2017,00,00*66
2017-12-01 13:58:19 1512154699.360548: $GPGGA,185820,3946.9532,N,08404.9835,W,1,11,0.80,309.78,M,-33.324,M,,*79
2017-12-01 13:58:19 1512154699.360615: $GPRMC,185820,A,3946.9532,N,08404.9835,W,0.0000,0.000,011217,,*37
2017-12-01 13:58:19 1512154699.360675: $GPGSA,A,3,8,10,14,15,18,20,21,24,27,32,138,,2.0,0.8,1.5*34
2017-12-01 13:58:20 1512154700.695550: $GPGSV,3,1,12,08,08,304,40,10,59,318,49,14,20,244,39,15,20,061,42*79
2017-12-01 13:58:20 1512154700.695730: $GPGSV,3,2,12,18,77,057,42,20,17,111,41,21,40,181,45,24,51,073,48*72
2017-12-01 13:58:20 1512154700.695797: $GPGSV,3,3,12,27,12,270,35,32,38,255,42,12,02,115,14,138,38,213,47*42
2017-12-01 13:58:20 1512154700.808958: $GPZDA,185821.00,01,12,2017,00,00*67
2017-12-01 13:58:20 1512154700.809147: $GPGGA,185821,3946.9536,N,08404.9834,W,1,12,0.80,309.02,M,-33.324,M,,*73
2017-12-01 13:58:20 1512154700.809216: $GPRMC,185821,A,3946.9536,N,08404.9834,W,0.0000,0.000,011217,,*33
2017-12-01 13:58:20 1512154700.809277: $GPGSA,A,3,8,10,14,15,18,20,21,24,27,32,12,138,2.0,0.8,1.5*37
2017-12-01 13:58:21 1512154701.361174: $GPZDA,185822.00,01,12,2017,00,00*64
2017-12-01 13:58:21 1512154701.361403: $GPGGA,185822,3946.9539,N,08404.9833,W,1,12,0.80,308.25,M,-33.324,M,,*7C
2017-12-01 13:58:21 1512154701.361484: $GPRMC,185822,A,3946.9539,N,08404.9833,W,0.0000,0.000,011217,,*38
2017-12-01 13:58:21 1512154701.361546: $GPGSA,A,3,8,10,14,15,18,20,21,24,27,32,12,138,2.0,0.8,1.5*37
2017-12-01 13:58:22 1512154702.359462: $GPZDA,185823.00,01,12,2017,00,00*65
2017-12-01 13:58:22 1512154702.359635: $GPGGA,185823,3946.9555,N,08404.9848,W,2,12,5.20,299.98,M,-33.324,M,,*78
2017-12-01 13:58:22 1512154702.359705: $GPRMC,185823,A,3946.9555,N,08404.9848,W,0.0000,0.000,011217,,*3F
2017-12-01 13:58:22 1512154702.359767: $GPGSA,A,2,8,10,14,15,18,20,21,24,27,32,12,138,2.0,5.2,1.5*39
2017-12-01 13:58:23 1512154703.697595: $GPGSV,3,1,12,08,08,304,40,10,59,318,49,14,20,244,39,15,20,061,43*78
2017-12-01 13:58:23 1512154703.697755: $GPGSV,3,2,12,18,77,057,42,20,17,111,42,21,40,181,45,24,51,073,48*71
2017-12-01 13:58:23 1512154703.697822: $GPGSV,3,3,12,27,12,270,35,32,38,255,42,12,02,115,12,138,38,213,46*45
2017-12-01 13:58:23 1512154703.811269: $GPZDA,185824.00,01,12,2017,00,00*62
2017-12-01 13:58:23 1512154703.811487: $GPGGA,185824,3946.9555,N,08404.9848,W,2,12,0.80,299.98,M,-33.324,M,,*70
2017-12-01 13:58:23 1512154703.811557: $GPRMC,185824,A,3946.9555,N,08404.9848,W,0.0000,0.000,011217,,*38
2017-12-01 13:58:23 1512154703.811619: $GPGSA,A,3,8,10,14,15,18,20,21,24,27,32,12,138,2.0,0.8,1.5*37
2017-12-01 13:58:24 1512154704.361798: $GPZDA,185825.00,01,12,2017,00,00*63
2017-12-01 13:58:24 1512154704.361986: $GPGGA,185825,3946.9555,N,08404.9848,W,2,12,0.80,299.98,M,-33.324,M,,*71
2017-12-01 13:58:24 1512154704.362071: $GPRMC,185825,A,3946.9555,N,08404.9848,W,0.0000,0.000,011217,,*39
2017-12-01 13:58:24 1512154704.362134: $GPGSA,A,3,8,10,14,15,18,20,21,24,27,32,12,138,2.0,0.8,1.5*37
2017-12-01 13:58:25 1512154705.363665: $GPZDA,185826.00,01,12,2017,00,00*60
2017-12-01 13:58:25 1512154705.363838: $GPGGA,185826,3946.9555,N,08404.9848,W,2,12,0.80,299.98,M,-33.324,M,,*72
2017-12-01 13:58:25 1512154705.363925: $GPRMC,185826,A,3946.9555,N,08404.9848,W,0.0000,0.000,011217,,*3A
2017-12-01 13:58:25 1512154705.363989: $GPGSA,A,3,8,10,14,15,18,20,21,24,27,32,12,138,2.0,0.8,1.5*37
2017-12-01 13:58:26 1512154706.695380: $GPGSV,3,1,12,08,08,304,39,10,59,318,49,14,20,244,39,15,20,061,43*76
2017-12-01 13:58:26 1512154706.695563: $GPGSV,3,2,12,18,77,057,43,20,17,111,42,21,40,181,45,24,51,073,48*70
2017-12-01 13:58:26 1512154706.695631: $GPGSV,3,3,12,27,12,270,36,32,38,255,41,12,02,115,13,138,38,213,47*45
2017-12-01 13:58:26 1512154706.809072: $GPZDA,185827.00,01,12,2017,00,00*61
2017-12-01 13:58:26 1512154706.809226: $GPGGA,185827,3946.9555,N,08404.9848,W,2,12,0.80,299.98,M,-33.324,M,,*73
2017-12-01 13:58:26 1512154706.809293: $GPRMC,185827,A,3946.9555,N,08404.9848,W,0.0000,0.000,011217,,*3B
2017-12-01 13:58:26 1512154706.809354: $GPGSA,A,3,8,10,14,15,18,20,21,24,27,32,12,138,2.0,0.8,1.5*37
2017-12-01 13:58:27 1512154707.362671: $GPZDA,185828.00,01,12,2017,00,00*6E
2017-12-01 13:58:27 1512154707.362837: $GPGGA,185828,3946.9555,N,08404.9848,W,2,12,0.80,299.98,M,-33.324,M,,*7C
2017-12-01 13:58:27 1512154707.362931: $GPRMC,185828,A,3946.9555,N,08404.9848,W,0.0000,0.000,011217,,*34
2017-12-01 13:58:27 1512154707.362994: $GPGSA,A,3,8,10,14,15,18,20,21,24,27,32,12,138,2.0,0.8,1.5*37
2017-12-01 13:58:28 1512154708.362123: $GPZDA,185829.00,01,12,2017,00,00*6F
2017-12-01 13:58:28 1512154708.362306: $GPGGA,185829,3946.9555,N,08404.9848,W,2,12,0.80,299.98,M,-33.324,M,,*7D
2017-12-01 13:58:28 1512154708.362380: $GPRMC,185829,A,3946.9555,N,08404.9848,W,0.0000,0.000,011217,,*35
2017-12-01 13:58:28 1512154708.362441: $GPGSA,A,3,8,10,14,15,18,20,21,24,27,32,12,138,2.0,0.8,1.5*37
2017-12-01 13:58:29 1512154709.697518: $GPGSV,3,1,12,08,08,304,39,10,59,318,50,14,20,244,39,15,20,061,43*7E
2017-12-01 13:58:29 1512154709.697699: $GPGSV,3,2,12,18,77,057,43,20,17,111,42,21,40,181,45,24,51,073,48*70
2017-12-01 13:58:29 1512154709.697766: $GPGSV,3,3,12,27,12,270,37,32,38,255,42,12,02,115,13,138,38,213,47*47
2017-12-01 13:58:29 1512154709.810867: $GPZDA,185830.00,01,12,2017,00,00*67
2017-12-01 13:58:29 1512154709.811085: $GPGGA,185830,3946.9555,N,08404.9848,W,2,12,0.80,299.98,M,-33.324,M,,*75
2017-12-01 13:58:29 1512154709.811153: $GPRMC,185830,A,3946.9555,N,08404.9848,W,0.0000,0.000,011217,,*3D
2017-12-01 13:58:29 1512154709.811263: $GPGSA,A,3,8,10,14,15,18,20,21,24,27,32,12,138,2.0,0.8,1.5*37
2017-12-01 13:58:30 1512154710.436592: $GPZDA,185831.00,01,12,2017,00,00*66
2017-12-01 13:58:30 1512154710.436764: $GPGGA,185831,3946.9555,N,08404.9848,W,2,12,0.80,299.98,M,-33.324,M,,*74
2017-12-01 13:58:30 1512154710.436831: $GPRMC,185831,A,3946.9555,N,08404.9848,W,0.0000,0.000,011217,,*3C
2017-12-01 13:58:30 1512154710.436895: $GPGSA,A,3,8,10,14,15,18,20,21,24,27,32,12,138,2.0,0.8,1.5*37
