2017-11-15 18:35:48 1510788948.194324: {"class":"VERSION","release":"3.17","rev":"3.17","proto_major":3,"proto_minor":12}
2017-11-15 18:35:48 1510788948.194809: {"class":"DEVICES","devices":[{"class":"DEVICE","path":"/dev/ttyUSB0","driver":"SiRF","subtype":"9\u0006GSD4e_4.1.2-P1_RPATCH.05-F-GPS-4R-1510281 11/03/2015 307","activated":"2017-11-15T23:35:48.150Z","flags":1,"native":1,"bps":4800,"parity":"N","stopbits":1,"cycle":1.00}]}
2017-11-15 18:35:48 1510788948.194926: {"class":"WATCH","enable":true,"json":false,"nmea":true,"raw":0,"scaled":false,"timing":false,"split24":false,"pps":false}
2017-11-15 18:35:48 1510788948.664510: $GPGSV,3,1,11,25,35,055,22,14,69,042,17,22,40,301,20,01,18,274,16*7A
2017-11-15 18:35:48 1510788948.664675: $GPGSV,3,2,11,31,78,283,26,32,55,079,08,03,21,315,00,10,21,157,18*70
2017-11-15 18:35:48 1510788948.664734: $GPGSV,3,3,11,26,26,178,04,12,06,031,00,120,07,103,00*72
2017-11-15 18:35:48 1510788948.778010: $GPZDA,233547.00,15,11,2017,00,00*62
2017-11-15 18:35:48 1510788948.778150: $GPGGA,233547,3946.9565,N,08404.9497,W,1,07,1.20,289.96,M,-33.324,M,,*78
2017-11-15 18:35:48 1510788948.778209: $GPRMC,233547,A,3946.9565,N,08404.9497,W,0.7070,48.986,151117,,*0E
2017-11-15 18:35:48 1510788948.778264: $GPGSA,A,3,25,14,22,1,31,32,10,,,,,,3.4,1.2,2.9*0C
2017-11-15 18:35:49 1510788949.328974: $GPZDA,233548.00,15,11,2017,00,00*6D
2017-11-15 18:35:49 1510788949.329152: $GPGGA,233548,3946.9573,N,08404.9496,W,1,07,1.20,289.84,M,-33.324,M,,*72
2017-11-15 18:35:49 1510788949.329214: $GPRMC,233548,A,3946.9573,N,08404.9496,W,1.4167,47.342,151117,,*0F
2017-11-15 18:35:49 1510788949.329269: $GPGSA,A,3,25,14,22,1,31,32,10,,,,,,3.4,1.2,2.9*0C
2017-11-15 18:35:50 1510788950.328460: $GPZDA,233549.00,15,11,2017,00,00*6C
2017-11-15 18:35:50 1510788950.328616: $GPGGA,233549,3946.9573,N,08404.9496,W,1,07,1.20,289.84,M,-33.324,M,,*73
2017-11-15 18:35:50 1510788950.328704: $GPRMC,233549,A,3946.9573,N,08404.9496,W,1.2621,39.347,151117,,*01
2017-11-15 18:35:50 1510788950.328766: $GPGSA,A,3,25,14,22,1,31,32,10,,,,,,3.4,1.2,2.9*0C
2017-11-15 18:35:51 1510788951.663604: $GPGSV,3,1,11,25,35,055,22,14,69,042,16,22,40,301,20,01,18,274,16*7B
2017-11-15 18:35:51 1510788951.663760: $GPGSV,3,2,11,31,78,283,26,32,55,079,08,03,21,315,00,10,21,157,18*70
2017-11-15 18:35:51 1510788951.663823: $GPGSV,3,3,11,26,26,178,06,12,06,031,00,120,07,103,00*70
2017-11-15 18:35:51 1510788951.777227: $GPZDA,233550.00,15,11,2017,00,00*64
2017-11-15 18:35:51 1510788951.777390: $GPGGA,233550,3946.9573,N,08404.9496,W,1,07,1.20,289.84,M,-33.324,M,,*7B
2017-11-15 18:35:51 1510788951.777453: $GPRMC,233550,A,3946.9573,N,08404.9496,W,1.0567,17.448,151117,,*0E
2017-11-15 18:35:51 1510788951.777511: $GPGSA,A,3,25,14,22,1,31,32,10,,,,,,3.4,1.2,2.9*0C
2017-11-15 18:35:52 1510788952.361848: $GPZDA,233551.00,15,11,2017,00,00*65
2017-11-15 18:35:52 1510788952.362043: $GPGGA,233551,3946.9580,N,08404.9495,W,1,07,1.00,289.71,M,-33.324,M,,*7D
2017-11-15 18:35:52 1510788952.362131: $GPRMC,233551,A,3946.9580,N,08404.9495,W,1.3692,4.197,151117,,*3F
2017-11-15 18:35:52 1510788952.362192: $GPGSA,A,3,25,14,22,1,31,32,10,,,,,,3.4,1.0,2.9*0E
2017-11-15 18:35:53 1510788953.327500: $GPZDA,233552.00,15,11,2017,00,00*66
2017-11-15 18:35:53 1510788953.327684: $GPGGA,233552,3946.9580,N,08404.9495,W,1,07,1.20,289.71,M,-33.324,M,,*7C
2017-11-15 18:35:53 1510788953.327750: $GPRMC,233552,A,3946.9580,N,08404.9495,W,1.3082,341.818,151117,,*37
2017-11-15 18:35:53 1510788953.327811: $GPGSA,A,3,25,14,22,1,31,32,10,,,,,,3.4,1.2,2.9*0C
2017-11-15 18:35:54 1510788954.663291: $GPGSV,3,1,11,25,35,055,22,14,69,042,16,22,40,301,21,01,18,274,17*7B
2017-11-15 18:35:54 1510788954.663465: $GPGSV,3,2,11,31,78,283,26,32,55,079,08,03,21,315,00,10,21,157,18*70
2017-11-15 18:35:54 1510788954.663528: $GPGSV,3,3,11,26,26,178,11,12,06,031,00,120,07,103,00*76
2017-11-15 18:35:54 1510788954.776630: $GPZDA,233553.00,15,11,2017,00,00*67
2017-11-15 18:35:54 1510788954.776847: $GPGGA,233553,3946.9585,N,08404.9502,W,1,08,1.20,290.27,M,-33.324,M,,*73
2017-11-15 18:35:54 1510788954.776913: $GPRMC,233553,A,3946.9585,N,08404.9502,W,1.3082,341.818,151117,,*3C
2017-11-15 18:35:54 1510788954.777029: $GPGSA,A,3,25,14,22,1,31,32,10,26,,,,,3.4,1.2,2.9*08
2017-11-15 18:35:55 1510788955.362428: $GPZDA,233554.00,15,11,2017,00,00*60
2017-11-15 18:35:55 1510788955.362599: $GPGGA,233554,3946.9585,N,08404.9509,W,1,08,1.00,290.19,M,-33.324,M,,*70
2017-11-15 18:35:55 1510788955.362660: $GPRMC,233554,A,3946.9585,N,08404.9509,W,1.3084,315.525,151117,,*34
2017-11-15 18:35:55 1510788955.362717: $GPGSA,A,3,25,14,22,1,31,32,10,26,,,,,3.4,1.0,2.9*0A
2017-11-15 18:35:56 1510788956.329015: $GPZDA,233555.00,15,11,2017,00,00*61
2017-11-15 18:35:56 1510788956.329194: $GPGGA,233555,3946.9585,N,08404.9509,W,1,08,1.20,290.19,M,-33.324,M,,*73
2017-11-15 18:35:56 1510788956.329273: $GPRMC,233555,A,3946.9585,N,08404.9509,W,1.4907,287.068,151117,,*36
2017-11-15 18:35:56 1510788956.329330: $GPGSA,A,3,25,14,22,1,31,32,10,26,,,,,3.4,1.2,2.9*08
2017-11-15 18:35:57 1510788957.663572: $GPGSV,3,1,11,25,35,055,22,14,69,042,16,22,40,301,21,01,18,274,17*7B
2017-11-15 18:35:57 1510788957.663728: $GPGSV,3,2,11,31,78,283,26,32,55,079,06,03,21,315,00,10,21,157,18*7E
2017-11-15 18:35:57 1510788957.663789: $GPGSV,3,3,11,26,26,178,05,12,06,031,00,120,07,103,00*73
2017-11-15 18:35:57 1510788957.776945: $GPZDA,233556.00,15,11,2017,00,00*62
2017-11-15 18:35:57 1510788957.777110: $GPGGA,233556,3946.9586,N,08404.9516,W,1,06,1.20,290.11,M,-33.324,M,,*7B
2017-11-15 18:35:57 1510788957.777171: $GPRMC,233556,A,3946.9586,N,08404.9516,W,1.2608,258.042,151117,,*34
2017-11-15 18:35:57 1510788957.777228: $GPGSA,A,3,25,14,22,1,31,10,,,,,,,3.4,1.2,2.9*0D
2017-11-15 18:35:58 1510788958.363050: $GPZDA,233557.00,15,11,2017,00,00*63
2017-11-15 18:35:58 1510788958.363213: $GPGGA,233557,3946.9582,N,08404.9523,W,1,06,1.20,289.39,M,-33.324,M,,*7A
2017-11-15 18:35:58 1510788958.363274: $GPRMC,233557,A,3946.9582,N,08404.9523,W,0.7103,225.706,151117,,*32
2017-11-15 18:35:58 1510788958.363330: $GPGSA,A,3,25,14,22,1,31,10,,,,,,,3.4,1.2,2.9*0D
2017-11-15 18:35:59 1510788959.327452: $GPZDA,233558.00,15,11,2017,00,00*6C
2017-11-15 18:35:59 1510788959.327619: $GPGGA,233558,3946.9578,N,08404.9524,W,1,06,1.20,290.16,M,-33.324,M,,*72
2017-11-15 18:35:59 1510788959.327681: $GPRMC,233558,A,3946.9578,N,08404.9524,W,0.9060,167.792,151117,,*3D
2017-11-15 18:35:59 1510788959.327738: $GPGSA,A,3,25,14,22,1,31,10,,,,,,,3.4,1.2,2.9*0D
2017-11-15 18:36:00 1510788960.664434: $GPGSV,3,1,11,25,35,055,22,14,69,042,16,22,40,301,21,01,18,274,17*7B
2017-11-15 18:36:00 1510788960.664610: $GPGSV,3,2,11,31,78,283,26,32,55,079,06,03,21,315,00,10,21,157,18*7E
2017-11-15 18:36:00 1510788960.664670: $GPGSV,3,3,11,26,26,178,06,12,06,031,00,120,07,103,00*70
2017-11-15 18:36:00 1510788960.777845: $GPZDA,233559.00,15,11,2017,00,00*6D
2017-11-15 18:36:00 1510788960.778012: $GPGGA,233559,3946.9574,N,08404.9524,W,1,07,1.20,289.52,M,-33.324,M,,*76
2017-11-15 18:36:00 1510788960.778073: $GPRMC,233559,A,3946.9574,N,08404.9524,W,1.5555,183.694,151117,,*33
2017-11-15 18:36:00 1510788960.778128: $GPGSA,A,3,25,14,22,1,31,32,10,,,,,,3.4,1.2,2.9*0C
2017-11-15 18:36:01 1510788961.403332: $GPZDA,233600.00,15,11,2017,00,00*62
2017-11-15 18:36:01 1510788961.403496: $GPGGA,233600,3946.9567,N,08404.9525,W,1,07,1.20,289.64,M,-33.324,M,,*7F
2017-11-15 18:36:01 1510788961.403557: $GPRMC,233600,A,3946.9567,N,08404.9525,W,1.3888,174.153,151117,,*30
2017-11-15 18:36:01 1510788961.403613: $GPGSA,A,3,25,14,22,1,31,32,10,,,,,,3.4,1.2,2.9*0C
2017-11-15 18:36:02 1510788962.363032: $GPZDA,233601.00,15,11,2017,00,00*63
2017-11-15 18:36:02 1510788962.363179: $GPGGA,233601,3946.9559,N,08404.9525,W,1,07,1.20,289.77,M,-33.324,M,,*71
2017-11-15 18:36:02 1510788962.363240: $GPRMC,233601,A,3946.9559,N,08404.9525,W,1.7607,175.391,151117,,*3C
2017-11-15 18:36:02 1510788962.363296: $GPGSA,A,3,25,14,22,1,31,32,10,,,,,,3.4,1.2,2.9*0C
