2017-12-01 16:49:07 1512164947.207371: {"class":"VERSION","release":"3.16","rev":"3.16-4","proto_major":3,"proto_minor":11}
2017-12-01 16:49:07 1512164947.207742: {"class":"DEVICES","devices":[{"class":"DEVICE","path":"/dev/ttyUSB0","driver":"SiRF","subtype":"9\u0006GSD4e_4.1.2-P1_RPATCH.05-F-GPS-4R-1510281 11/03/2015 307","activated":"2017-12-01T21:49:06.606Z","flags":1,"native":1,"bps":4800,"parity":"N","stopbits":1,"cycle":1.00}]}
2017-12-01 16:49:07 1512164947.207853: {"class":"WATCH","enable":true,"json":false,"nmea":true,"raw":0,"scaled":false,"timing":false,"split24":false,"pps":false}
2017-12-01 16:49:07 1512164947.463544: $GPZDA,214908.00,01,12,2017,00,00*66
2017-12-01 16:49:07 1512164947.463710: $GPGGA,214908,3946.9663,N,08404.9762,W,2,12,0.80,301.15,M,-33.324,M,,*70
2017-12-01 16:49:07 1512164947.463776: $GPRMC,214908,A,3946.9663,N,08404.9762,W,0.0000,0.000,011217,,*3D
2017-12-01 16:49:07 1512164947.463838: $GPGSA,A,3,1,10,14,22,31,32,3,12,18,11,26,138,2.0,0.8,1.5*0D
2017-12-01 16:49:08 1512164948.782766: $GPGSV,3,1,12,01,22,292,41,10,39,151,41,14,69,348,45,22,26,310,47*7F
2017-12-01 16:49:08 1512164948.782945: $GPGSV,3,2,12,31,64,234,48,32,65,048,49,03,06,316,30,12,18,043,19*76
2017-12-01 16:49:08 1512164948.783013: $GPGSV,3,3,12,18,10,147,21,11,06,276,35,26,09,181,24,138,38,213,35*44
2017-12-01 16:49:08 1512164948.896409: $GPZDA,214909.00,01,12,2017,00,00*67
2017-12-01 16:49:08 1512164948.896578: $GPGGA,214909,3946.9663,N,08404.9762,W,2,12,0.80,301.15,M,-33.324,M,,*71
2017-12-01 16:49:08 1512164948.896644: $GPRMC,214909,A,3946.9663,N,08404.9762,W,0.0000,0.000,011217,,*3C
2017-12-01 16:49:08 1512164948.896705: $GPGSA,A,3,1,10,14,22,31,32,3,12,18,11,26,138,2.0,0.8,1.5*0D
2017-12-01 16:49:09 1512164949.522887: $GPZDA,214910.00,01,12,2017,00,00*6F
2017-12-01 16:49:09 1512164949.523047: $GPGGA,214910,3946.9663,N,08404.9762,W,2,12,0.80,301.15,M,-33.324,M,,*79
2017-12-01 16:49:09 1512164949.523113: $GPRMC,214910,A,3946.9663,N,08404.9762,W,0.0000,0.000,011217,,*34
2017-12-01 16:49:09 1512164949.523174: $GPGSA,A,3,1,10,14,22,31,32,3,12,18,11,26,138,2.0,0.8,1.5*0D
2017-12-01 16:49:10 1512164950.466343: $GPZDA,214911.00,01,12,2017,00,00*6E
2017-12-01 16:49:10 1512164950.466514: $GPGGA,214911,3946.9658,N,08404.9762,W,2,12,0.80,300.51,M,-33.324,M,,*71
2017-12-01 16:49:10 1512164950.466581: $GPRMC,214911,A,3946.9658,N,08404.9762,W,0.0000,0.000,011217,,*3D
2017-12-01 16:49:10 1512164950.466660: $GPGSA,A,3,1,10,14,22,31,32,3,12,18,11,26,138,2.0,0.8,1.5*0D
2017-12-01 16:49:11 1512164951.800549: $GPGSV,3,1,12,01,22,292,42,10,39,151,41,14,69,348,45,22,26,310,47*7C
2017-12-01 16:49:11 1512164951.800733: $GPGSV,3,2,12,31,64,234,48,32,65,048,49,03,06,316,30,12,18,043,18*77
2017-12-01 16:49:11 1512164951.800800: $GPGSV,3,3,12,18,10,147,21,25,41,079,26,26,09,181,24,138,38,213,38*42
2017-12-01 16:49:11 1512164951.913006: $GPZDA,214912.00,01,12,2017,00,00*6D
2017-12-01 16:49:11 1512164951.913172: $GPGGA,214912,3946.9658,N,08404.9762,W,2,12,0.80,300.51,M,-33.324,M,,*72
2017-12-01 16:49:11 1512164951.913238: $GPRMC,214912,A,3946.9658,N,08404.9762,W,0.0000,0.000,011217,,*3E
2017-12-01 16:49:11 1512164951.913299: $GPGSA,A,3,1,10,14,22,31,32,3,12,18,25,26,138,2.0,0.8,1.5*0A
2017-12-01 16:49:12 1512164952.467313: $GPZDA,214913.00,01,12,2017,00,00*6C
2017-12-01 16:49:12 1512164952.467511: $GPGGA,214913,3946.9658,N,08404.9762,W,2,12,0.80,300.51,M,-33.324,M,,*73
2017-12-01 16:49:12 1512164952.467580: $GPRMC,214913,A,3946.9658,N,08404.9762,W,0.0000,0.000,011217,,*3F
2017-12-01 16:49:12 1512164952.467643: $GPGSA,A,3,1,10,14,22,31,32,3,12,18,25,26,138,2.0,0.8,1.5*0A
2017-12-01 16:49:13 1512164953.465962: $GPZDA,214914.00,01,12,2017,00,00*6B
2017-12-01 16:49:13 1512164953.466125: $GPGGA,214914,3946.9658,N,08404.9762,W,2,12,0.80,300.51,M,-33.324,M,,*74
2017-12-01 16:49:13 1512164953.466191: $GPRMC,214914,A,3946.9658,N,08404.9762,W,0.0000,0.000,011217,,*38
2017-12-01 16:49:13 1512164953.466252: $GPGSA,A,3,1,10,14,22,31,32,3,12,18,25,26,138,2.0,0.8,1.5*0A
2017-12-01 16:49:14 1512164954.784784: $GPGSV,3,1,12,01,22,292,42,10,39,151,40,14,69,348,45,22,26,310,47*7D
2017-12-01 16:49:14 1512164954.785074: $GPGSV,3,2,12,31,64,234,48,32,65,048,49,03,06,316,30,12,18,043,20*7C
2017-12-01 16:49:14 1512164954.785145: $GPGSV,3,3,12,18,10,147,21,25,41,079,28,26,09,181,24,138,38,213,39*4D
2017-12-01 16:49:14 1512164954.898320: $GPZDA,214915.00,01,12,2017,00,00*6A
2017-12-01 16:49:14 1512164954.898488: $GPGGA,214915,3946.9655,N,08404.9763,W,2,12,0.80,301.28,M,-33.324,M,,*76
2017-12-01 16:49:14 1512164954.898556: $GPRMC,214915,A,3946.9655,N,08404.9763,W,0.0000,0.000,011217,,*35
2017-12-01 16:49:14 1512164954.898616: $GPGSA,A,3,1,10,14,22,31,32,3,12,18,25,26,138,2.0,0.8,1.5*0A
2017-12-01 16:49:15 1512164955.449166: $GPZDA,214916.00,01,12,2017,00,00*69
2017-12-01 16:49:15 1512164955.449338: $GPGGA,214916,3946.9655,N,08404.9763,W,2,12,0.80,301.28,M,-33.324,M,,*75
2017-12-01 16:49:15 1512164955.449404: $GPRMC,214916,A,3946.9655,N,08404.9763,W,0.0000,0.000,011217,,*36
2017-12-01 16:49:15 1512164955.449465: $GPGSA,A,3,1,10,14,22,31,32,3,12,18,25,26,138,2.0,0.8,1.5*0A
2017-12-01 16:49:16 1512164956.448764: $GPZDA,214917.00,01,12,2017,00,00*68
2017-12-01 16:49:16 1512164956.449008: $GPGGA,214917,3946.9655,N,08404.9763,W,2,12,0.80,301.28,M,-33.324,M,,*74
2017-12-01 16:49:16 1512164956.449082: $GPRMC,214917,A,3946.9655,N,08404.9763,W,0.0000,0.000,011217,,*37
2017-12-01 16:49:16 1512164956.449274: $GPGSA,A,3,1,10,14,22,31,32,3,12,18,25,26,138,2.0,0.8,1.5*0A
2017-12-01 16:49:17 1512164957.784375: $GPGSV,3,1,12,01,22,292,41,10,39,151,40,14,69,348,45,22,26,310,47*7E
2017-12-01 16:49:17 1512164957.784556: $GPGSV,3,2,12,31,64,234,48,32,65,048,49,03,06,316,30,12,18,043,20*7C
2017-12-01 16:49:17 1512164957.784622: $GPGSV,3,3,12,18,10,147,22,25,41,079,29,26,09,181,15,138,38,213,39*4D
2017-12-01 16:49:17 1512164957.898054: $GPZDA,214918.00,01,12,2017,00,00*67
2017-12-01 16:49:17 1512164957.898209: $GPGGA,214918,3946.9655,N,08404.9763,W,2,12,0.80,301.28,M,-33.324,M,,*7B
2017-12-01 16:49:17 1512164957.898275: $GPRMC,214918,A,3946.9655,N,08404.9763,W,0.0000,0.000,011217,,*38
2017-12-01 16:49:17 1512164957.898335: $GPGSA,A,3,1,10,14,22,31,32,3,12,18,25,26,138,2.0,0.8,1.5*0A
2017-12-01 16:49:18 1512164958.447483: $GPZDA,214919.00,01,12,2017,00,00*66
2017-12-01 16:49:18 1512164958.447686: $GPGGA,214919,3946.9655,N,08404.9763,W,2,12,0.80,301.28,M,-33.324,M,,*7A
2017-12-01 16:49:18 1512164958.447771: $GPRMC,214919,A,3946.9655,N,08404.9763,W,0.0000,0.000,011217,,*39
2017-12-01 16:49:18 1512164958.447890: $GPGSA,A,3,1,10,14,22,31,32,3,12,18,25,26,138,2.0,0.8,1.5*0A
2017-12-01 16:49:19 1512164959.447943: $GPZDA,214920.00,01,12,2017,00,00*6C
2017-12-01 16:49:19 1512164959.448114: $GPGGA,214920,3946.9655,N,08404.9770,W,2,12,0.80,301.20,M,-33.324,M,,*7A
2017-12-01 16:49:19 1512164959.448180: $GPRMC,214920,A,3946.9655,N,08404.9770,W,0.0000,0.000,011217,,*31
2017-12-01 16:49:19 1512164959.448241: $GPGSA,A,3,1,10,14,22,31,32,3,12,18,25,26,138,2.0,0.8,1.5*0A
2017-12-01 16:49:20 1512164960.787119: $GPGSV,3,1,12,01,22,292,41,10,39,151,40,14,69,348,45,22,26,310,47*7E
2017-12-01 16:49:20 1512164960.787285: $GPGSV,3,2,12,31,64,234,48,32,65,048,49,03,06,316,31,12,18,043,20*7D
2017-12-01 16:49:20 1512164960.787350: $GPGSV,3,3,12,18,10,147,21,25,41,079,29,26,09,181,25,138,38,213,38*4C
2017-12-01 16:49:20 1512164960.900784: $GPZDA,214921.00,01,12,2017,00,00*6D
2017-12-01 16:49:20 1512164960.901000: $GPGGA,214921,3946.9655,N,08404.9770,W,2,12,0.80,301.20,M,-33.324,M,,*7B
2017-12-01 16:49:20 1512164960.901069: $GPRMC,214921,A,3946.9655,N,08404.9770,W,0.0000,0.000,011217,,*30
2017-12-01 16:49:20 1512164960.901130: $GPGSA,A,3,1,10,14,22,31,32,3,12,18,25,26,138,2.0,0.8,1.5*0A
2017-12-01 16:49:21 1512164961.453218: $GPZDA,214922.00,01,12,2017,00,00*6E
2017-12-01 16:49:21 1512164961.453432: $GPGGA,214922,3946.9655,N,08404.9770,W,2,12,0.80,301.20,M,-33.324,M,,*78
2017-12-01 16:49:21 1512164961.453523: $GPRMC,214922,A,3946.9655,N,08404.9770,W,0.0000,0.000,011217,,*33
2017-12-01 16:49:21 1512164961.453587: $GPGSA,A,3,1,10,14,22,31,32,3,12,18,25,26,138,2.0,0.8,1.5*0A
2017-12-01 16:49:22 1512164962.452596: $GPZDA,214923.00,01,12,2017,00,00*6F
2017-12-01 16:49:22 1512164962.452788: $GPGGA,214923,3946.9655,N,08404.9770,W,2,12,1.00,301.20,M,-33.324,M,,*70
2017-12-01 16:49:22 1512164962.452856: $GPRMC,214923,A,3946.9655,N,08404.9770,W,0.0000,0.000,011217,,*32
2017-12-01 16:49:22 1512164962.452933: $GPGSA,A,3,1,10,14,22,31,32,3,12,18,25,26,138,2.0,1.0,1.5*03
2017-12-01 16:49:23 1512164963.786714: $GPGSV,3,1,12,01,22,292,41,10,39,151,40,14,69,348,45,22,26,310,47*7E
2017-12-01 16:49:23 1512164963.786932: $GPGSV,3,2,12,31,64,234,48,32,65,048,49,03,06,316,31,11,06,276,38*7C
2017-12-01 16:49:23 1512164963.786999: $GPGSV,3,3,12,18,10,147,20,25,41,079,29,26,09,181,24,138,38,213,40*43
2017-12-01 16:49:23 1512164963.900057: $GPZDA,214924.00,01,12,2017,00,00*68
2017-12-01 16:49:23 1512164963.900199: $GPGGA,214924,3946.9655,N,08404.9770,W,2,12,0.80,301.20,M,-33.324,M,,*7E
2017-12-01 16:49:23 1512164963.900265: $GPRMC,214924,A,3946.9655,N,08404.9770,W,0.0000,0.000,011217,,*35
2017-12-01 16:49:23 1512164963.900326: $GPGSA,A,3,1,10,14,22,31,32,3,11,18,25,26,138,2.0,0.8,1.5*09
2017-12-01 16:49:24 1512164964.525548: $GPZDA,214925.00,01,12,2017,00,00*69
2017-12-01 16:49:24 1512164964.526161: $GPGGA,214925,3946.9655,N,08404.9770,W,2,12,0.80,301.20,M,-33.324,M,,*7F
2017-12-01 16:49:24 1512164964.526263: $GPRMC,214925,A,3946.9655,N,08404.9770,W,0.0000,0.000,011217,,*34
2017-12-01 16:49:24 1512164964.526325: $GPGSA,A,3,1,10,14,22,31,32,3,11,18,25,26,138,2.0,0.8,1.5*09
2017-12-01 16:49:25 1512164965.452619: $GPZDA,214926.00,01,12,2017,00,00*6A
2017-12-01 16:49:25 1512164965.452809: $GPGGA,214926,3946.9655,N,08404.9770,W,2,12,0.80,301.20,M,-33.324,M,,*7C
2017-12-01 16:49:25 1512164965.452894: $GPRMC,214926,A,3946.9655,N,08404.9770,W,0.0000,0.000,011217,,*37
2017-12-01 16:49:25 1512164965.452957: $GPGSA,A,3,1,10,14,22,31,32,3,11,18,25,26,138,2.0,0.8,1.5*09
2017-12-01 16:49:26 1512164966.792078: $GPGSV,3,1,12,01,22,292,42,10,39,151,40,14,69,348,45,22,26,310,48*72
2017-12-01 16:49:26 1512164966.795789: $GPGSV,3,2,12,31,64,234,48,32,65,048,49,03,06,316,31,11,06,276,37*73
2017-12-01 16:49:26 1512164966.795909: $GPGSV,3,3,12,18,10,147,20,25,41,079,00,26,09,181,25,138,38,213,40*49
2017-12-01 16:49:26 1512164966.905456: $GPZDA,214927.00,01,12,2017,00,00*6B
2017-12-01 16:49:26 1512164966.905632: $GPGGA,214927,3946.9655,N,08404.9770,W,2,11,1.20,301.20,M,-33.324,M,,*75
2017-12-01 16:49:26 1512164966.905700: $GPRMC,214927,A,3946.9655,N,08404.9770,W,0.0000,0.000,011217,,*36
2017-12-01 16:49:26 1512164966.905788: $GPGSA,A,3,1,10,14,22,31,32,3,11,18,26,138,,2.0,1.2,1.5*05
