2017-12-01 13:46:20 1512153980.980425: {"class":"VERSION","release":"3.16","rev":"3.16-4","proto_major":3,"proto_minor":11}
2017-12-01 13:46:20 1512153980.981147: {"class":"DEVICES","devices":[{"class":"DEVICE","path":"/dev/ttyUSB0","driver":"SiRF","subtype":"9\u0006GSD4e_4.1.2-P1_RPATCH.05-F-GPS-4R-1510281 11/03/2015 307","activated":"2017-12-01T18:46:20.861Z","flags":1,"native":1,"bps":4800,"parity":"N","stopbits":1,"cycle":1.00}]}
2017-12-01 13:46:20 1512153980.981290: {"class":"WATCH","enable":true,"json":false,"nmea":true,"raw":0,"scaled":false,"timing":false,"split24":false,"pps":false}
2017-12-01 13:46:22 1512153982.009150: $GPZDA,184622.70,01,12,2017,00,00*6C
2017-12-01 13:46:22 1512153982.009327: $GPGGA,184622,3946.9574,N,08404.9811,W,1,11,0.80,311.44,M,-33.324,M,,*76
2017-12-01 13:46:22 1512153982.009397: $GPRMC,184622,A,3946.9574,N,08404.9811,W,0.8458,320.898,011217,,*37
2017-12-01 13:46:22 1512153982.009459: $GPGSA,A,3,10,14,15,18,20,21,24,27,32,8,138,,2.0,0.8,1.5*34
2017-12-01 13:46:22 1512153982.009520: $GPGBS,184622,10.70,M,15.43,M,35.28,M*0C
2017-12-01 13:46:22 1512153982.930626: $GPZDA,184623.19,01,12,2017,00,00*62
2017-12-01 13:46:22 1512153982.930799: $GPGGA,184623,3946.9570,N,08404.9811,W,1,11,0.80,310.80,M,-33.324,M,,*7A
2017-12-01 13:46:22 1512153982.930867: $GPRMC,184623,A,3946.9570,N,08404.9811,W,0.3554,311.360,011217,,*3A
2017-12-01 13:46:22 1512153982.930929: $GPGSA,A,3,10,14,15,18,20,21,24,27,32,8,138,,2.0,0.8,1.5*34
2017-12-01 13:46:22 1512153982.930989: $GPGBS,184623,10.70,M,15.43,M,35.28,M*0D
2017-12-01 13:46:24 1512153984.120618: $GPGSV,3,1,11,08,08,309,30,10,54,313,48,14,16,241,40,15,24,058,45*70
2017-12-01 13:46:24 1512153984.120796: $GPGSV,3,2,11,18,77,033,43,20,21,108,46,21,46,181,43,24,53,082,47*7B
2017-12-01 13:46:24 1512153984.120864: $GPGSV,3,3,11,27,14,274,36,32,33,250,42,138,38,213,44*7C
2017-12-01 13:46:24 1512153984.233010: $GPZDA,184624.00,01,12,2017,00,00*6D
2017-12-01 13:46:24 1512153984.233182: $GPGGA,184624,3946.9570,N,08404.9811,W,1,11,0.80,310.80,M,-33.324,M,,*7D
2017-12-01 13:46:24 1512153984.233251: $GPRMC,184624,A,3946.9570,N,08404.9811,W,0.0407,322.014,011217,,*39
2017-12-01 13:46:24 1512153984.233313: $GPGSA,A,3,8,10,14,15,18,20,21,24,27,32,138,,2.0,0.8,1.5*34
2017-12-01 13:46:24 1512153984.684845: $GPZDA,184625.00,01,12,2017,00,00*6C
2017-12-01 13:46:24 1512153984.685018: $GPGGA,184625,3946.9573,N,08404.9810,W,1,11,0.80,310.04,M,-33.324,M,,*72
2017-12-01 13:46:24 1512153984.685085: $GPRMC,184625,A,3946.9573,N,08404.9810,W,0.0000,0.000,011217,,*3F
2017-12-01 13:46:24 1512153984.685150: $GPGSA,A,3,8,10,14,15,18,20,21,24,27,32,138,,2.0,0.8,1.5*34
2017-12-01 13:46:25 1512153985.408438: $GPZDA,184626.00,01,12,2017,00,00*6F
2017-12-01 13:46:25 1512153985.408630: $GPGGA,184626,3946.9570,N,08404.9817,W,1,11,0.80,309.32,M,-33.324,M,,*78
2017-12-01 13:46:25 1512153985.408697: $GPRMC,184626,A,3946.9570,N,08404.9817,W,0.0000,0.000,011217,,*38
2017-12-01 13:46:25 1512153985.408761: $GPGSA,A,3,8,10,14,15,18,20,21,24,27,32,138,,2.0,0.8,1.5*34
2017-12-01 13:46:26 1512153986.744700: $GPGSV,3,1,11,08,08,309,30,10,54,313,49,14,16,241,40,15,24,058,45*71
2017-12-01 13:46:26 1512153986.744884: $GPGSV,3,2,11,18,77,033,43,20,21,108,46,21,46,181,44,24,53,082,48*73
2017-12-01 13:46:26 1512153986.744950: $GPGSV,3,3,11,27,14,274,37,32,33,250,42,138,38,213,46*7F
2017-12-01 13:46:26 1512153986.858071: $GPZDA,184627.00,01,12,2017,00,00*6E
2017-12-01 13:46:26 1512153986.858251: $GPGGA,184627,3946.9573,N,08404.9816,W,1,11,0.80,308.55,M,-33.324,M,,*7B
2017-12-01 13:46:26 1512153986.858318: $GPRMC,184627,A,3946.9573,N,08404.9816,W,0.0000,0.000,011217,,*3B
2017-12-01 13:46:26 1512153986.858380: $GPGSA,A,3,8,10,14,15,18,20,21,24,27,32,138,,2.0,0.8,1.5*34
2017-12-01 13:46:27 1512153987.408062: $GPZDA,184628.00,01,12,2017,00,00*61
2017-12-01 13:46:27 1512153987.408243: $GPGGA,184628,3946.9569,N,08404.9816,W,1,11,0.80,307.91,M,-33.324,M,,*78
2017-12-01 13:46:27 1512153987.408310: $GPRMC,184628,A,3946.9569,N,08404.9816,W,0.0000,0.000,011217,,*3F
2017-12-01 13:46:27 1512153987.408372: $GPGSA,A,3,8,10,14,15,18,20,21,24,27,32,138,,2.0,0.8,1.5*34
2017-12-01 13:46:28 1512153988.408855: $GPZDA,184629.00,01,12,2017,00,00*60
2017-12-01 13:46:28 1512153988.409034: $GPGGA,184629,3946.9572,N,08404.9816,W,1,11,0.80,307.15,M,-33.324,M,,*7F
2017-12-01 13:46:28 1512153988.409125: $GPRMC,184629,A,3946.9572,N,08404.9816,W,0.0000,0.000,011217,,*34
2017-12-01 13:46:28 1512153988.409188: $GPGSA,A,3,8,10,14,15,18,20,21,24,27,32,138,,2.0,0.8,1.5*34
2017-12-01 13:46:28 1512153988.409248: $GPGBS,184629,10.70,M,15.43,M,35.28,M*07
2017-12-01 13:46:29 1512153989.745442: $GPGSV,3,1,11,08,08,309,32,10,54,313,49,14,16,241,40,15,24,058,45*73
2017-12-01 13:46:29 1512153989.745627: $GPGSV,3,2,11,18,77,033,43,20,21,108,47,21,46,181,43,24,53,082,48*75
2017-12-01 13:46:29 1512153989.745693: $GPGSV,3,3,11,27,14,274,37,32,33,250,43,138,38,213,47*7F
2017-12-01 13:46:29 1512153989.859163: $GPZDA,184630.00,01,12,2017,00,00*68
2017-12-01 13:46:29 1512153989.859304: $GPGGA,184630,3946.9570,N,08404.9833,W,2,11,1.20,299.89,M,-33.324,M,,*79
2017-12-01 13:46:29 1512153989.859371: $GPRMC,184630,A,3946.9570,N,08404.9833,W,0.0000,0.000,011217,,*39
2017-12-01 13:46:29 1512153989.859432: $GPGSA,A,3,8,10,14,15,18,20,21,24,27,32,138,,2.0,1.2,1.5*3F
2017-12-01 13:46:30 1512153990.411491: $GPZDA,184631.00,01,12,2017,00,00*69
2017-12-01 13:46:30 1512153990.411656: $GPGGA,184631,3946.9576,N,08404.9838,W,2,11,1.20,296.88,M,-33.324,M,,*7B
2017-12-01 13:46:30 1512153990.411724: $GPRMC,184631,A,3946.9576,N,08404.9838,W,0.0000,0.000,011217,,*35
2017-12-01 13:46:30 1512153990.411785: $GPGSA,A,3,8,10,14,15,18,20,21,24,27,32,138,,2.0,1.2,1.5*3F
