2017-11-15 18:52:46 1510789966.356356: {"class":"VERSION","release":"3.17","rev":"3.17","proto_major":3,"proto_minor":12}
2017-11-15 18:52:46 1510789966.356865: {"class":"DEVICES","devices":[{"class":"DEVICE","path":"/dev/ttyUSB0","driver":"SiRF","subtype":"9\u0006GSD4e_4.1.2-P1_RPATCH.05-F-GPS-4R-1510281 11/03/2015 307","activated":"2017-11-15T23:52:46.332Z","flags":1,"native":1,"bps":4800,"parity":"N","stopbits":1,"cycle":1.00}]}
2017-11-15 18:52:46 1510789966.356985: {"class":"WATCH","enable":true,"json":false,"nmea":true,"raw":0,"scaled":false,"timing":false,"split24":false,"pps":false}
2017-11-15 18:52:46 1510789966.446085: $GPZDA,235245.00,15,11,2017,00,00*61
2017-11-15 18:52:46 1510789966.446246: $GPGGA,235245,3946.9733,N,08404.9538,W,1,07,1.60,313.68,M,-33.324,M,,*79
2017-11-15 18:52:46 1510789966.446306: $GPRMC,235245,A,3946.9733,N,08404.9538,W,0.8414,39.347,151117,,*00
2017-11-15 18:52:46 1510789966.446361: $GPGSA,A,3,14,3,32,31,25,1,22,,,,,,3.4,1.6,2.9*3A
2017-11-15 18:52:47 1510789967.371986: $GPZDA,235246.00,15,11,2017,00,00*62
2017-11-15 18:52:47 1510789967.372148: $GPGGA,235246,3946.9733,N,08404.9538,W,1,07,1.60,313.68,M,-33.324,M,,*7A
2017-11-15 18:52:47 1510789967.372208: $GPRMC,235246,A,3946.9733,N,08404.9538,W,0.4207,39.347,151117,,*0B
2017-11-15 18:52:47 1510789967.372264: $GPGSA,A,3,14,3,32,31,25,1,22,,,,,,3.4,1.6,2.9*3A
2017-11-15 18:52:48 1510789968.707769: $GPGSV,3,1,12,29,04,085,07,14,65,063,22,03,28,312,16,32,49,090,18*7C
2017-11-15 18:52:48 1510789968.707944: $GPGSV,3,2,12,31,79,331,27,26,35,177,04,25,30,049,09,10,13,157,00*74
2017-11-15 18:52:48 1510789968.708003: $GPGSV,3,3,12,01,15,267,17,22,45,294,13,16,06,190,00,138,38,213,00*4E
2017-11-15 18:52:48 1510789968.821040: $GPZDA,235247.00,15,11,2017,00,00*63
2017-11-15 18:52:48 1510789968.821197: $GPGGA,235247,3946.9729,N,08404.9539,W,1,07,1.60,314.44,M,-33.324,M,,*78
2017-11-15 18:52:48 1510789968.821256: $GPRMC,235247,A,3946.9729,N,08404.9539,W,0.4207,39.347,151117,,*00
2017-11-15 18:52:48 1510789968.821312: $GPGSA,A,3,14,3,32,31,25,1,22,,,,,,3.4,1.6,2.9*3A
2017-11-15 18:52:49 1510789969.335725: $GPZDA,235248.00,15,11,2017,00,00*6C
2017-11-15 18:52:49 1510789969.335907: $GPGGA,235248,3946.9725,N,08404.9539,W,1,07,1.60,313.80,M,-33.324,M,,*74
2017-11-15 18:52:49 1510789969.335969: $GPRMC,235248,A,3946.9725,N,08404.9539,W,0.2422,93.794,151117,,*0E
2017-11-15 18:52:49 1510789969.336024: $GPGSA,A,3,14,3,32,31,25,1,22,,,,,,3.4,1.6,2.9*3A
2017-11-15 18:52:50 1510789970.330284: $GPZDA,235249.00,15,11,2017,00,00*6D
2017-11-15 18:52:51 1510789971.304044: $GPGGA,235249,3946.9725,N,08404.9539,W,1,07,1.60,313.80,M,-33.324,M,,*75
2017-11-15 18:52:51 1510789971.304200: $GPRMC,235249,A,3946.9725,N,08404.9539,W,0.5857,158.291,151117,,*30
2017-11-15 18:52:51 1510789971.304309: $GPGSA,A,3,14,3,32,31,25,1,22,,,,,,3.4,1.6,2.9*3A
2017-11-15 18:52:51 1510789971.665562: $GPGSV,3,1,12,29,04,085,07,14,65,063,22,03,28,312,16,32,49,090,18*7C
2017-11-15 18:52:51 1510789971.665752: $GPGSV,3,2,12,31,79,331,27,26,35,177,14,25,30,049,09,10,13,157,00*75
2017-11-15 18:52:51 1510789971.665812: $GPGSV,3,3,12,01,15,267,16,22,45,294,13,16,06,190,00,135,23,238,00*41
2017-11-15 18:52:51 1510789971.779276: $GPZDA,235250.00,15,11,2017,00,00*65
2017-11-15 18:52:51 1510789971.779585: $GPGGA,235250,3946.9722,N,08404.9539,W,1,08,1.00,314.57,M,-33.324,M,,*7E
2017-11-15 18:52:51 1510789971.779707: $GPRMC,235250,A,3946.9722,N,08404.9539,W,0.6846,184.197,151117,,*38
2017-11-15 18:52:51 1510789971.779820: $GPGSA,A,3,14,3,32,31,26,25,1,22,,,,,3.4,1.0,2.9*38
2017-11-15 18:52:52 1510789972.329810: $GPZDA,235251.00,15,11,2017,00,00*64
2017-11-15 18:52:52 1510789972.329976: $GPGGA,235251,3946.9714,N,08404.9540,W,1,08,1.00,314.69,M,-33.324,M,,*79
2017-11-15 18:52:52 1510789972.330037: $GPRMC,235251,A,3946.9714,N,08404.9540,W,0.5467,159.487,151117,,*3A
2017-11-15 18:52:52 1510789972.330093: $GPGSA,A,3,14,3,32,31,26,25,1,22,,,,,3.4,1.0,2.9*38
2017-11-15 18:52:53 1510789973.329488: $GPZDA,235252.00,15,11,2017,00,00*67
2017-11-15 18:52:53 1510789973.329667: $GPGGA,235252,3946.9714,N,08404.9540,W,1,08,1.00,314.69,M,-33.324,M,,*7A
2017-11-15 18:52:53 1510789973.329779: $GPRMC,235252,A,3946.9714,N,08404.9540,W,0.1567,189.201,151117,,*39
2017-11-15 18:52:53 1510789973.329837: $GPGSA,A,3,14,3,32,31,26,25,1,22,,,,,3.4,1.0,2.9*38
2017-11-15 18:52:54 1510789974.665177: $GPGSV,3,1,12,29,04,085,06,14,65,063,22,03,28,312,16,32,49,090,19*7C
2017-11-15 18:52:54 1510789974.665350: $GPGSV,3,2,12,31,79,331,26,26,35,177,14,25,30,049,08,10,13,157,00*75
2017-11-15 18:52:54 1510789974.665409: $GPGSV,3,3,12,01,15,267,16,22,45,294,13,16,06,190,00,135,23,238,00*41
2017-11-15 18:52:54 1510789974.778519: $GPZDA,235253.00,15,11,2017,00,00*66
2017-11-15 18:52:54 1510789974.778706: $GPGGA,235253,3946.9714,N,08404.9540,W,1,08,1.40,314.69,M,-33.324,M,,*7F
2017-11-15 18:52:54 1510789974.778767: $GPRMC,235253,A,3946.9714,N,08404.9540,W,0.0000,0.000,151117,,*3E
2017-11-15 18:52:54 1510789974.778823: $GPGSA,A,3,14,3,32,31,26,25,1,22,,,,,3.4,1.4,2.9*3C
2017-11-15 18:52:55 1510789975.331173: $GPZDA,235254.00,15,11,2017,00,00*61
2017-11-15 18:52:55 1510789975.334437: $GPGGA,235254,3946.9707,N,08404.9541,W,1,08,1.40,314.81,M,-33.324,M,,*7D
2017-11-15 18:52:55 1510789975.334660: $GPRMC,235254,A,3946.9707,N,08404.9541,W,0.3006,242.539,151117,,*34
2017-11-15 18:52:55 1510789975.334777: $GPGSA,A,3,14,3,32,31,26,25,1,22,,,,,3.4,1.4,2.9*3C
2017-11-15 18:52:56 1510789976.329793: $GPZDA,235255.00,15,11,2017,00,00*60
2017-11-15 18:52:56 1510789976.329954: $GPGGA,235255,3946.9707,N,08404.9541,W,1,08,1.40,314.81,M,-33.324,M,,*7C
2017-11-15 18:52:56 1510789976.330015: $GPRMC,235255,A,3946.9707,N,08404.9541,W,0.5912,309.173,151117,,*3B
2017-11-15 18:52:56 1510789976.330071: $GPGSA,A,3,14,3,32,31,26,25,1,22,,,,,3.4,1.4,2.9*3C
2017-11-15 18:52:57 1510789977.665801: $GPGSV,3,1,12,29,04,085,06,14,65,063,22,03,28,312,16,32,49,090,19*7C
2017-11-15 18:52:57 1510789977.665975: $GPGSV,3,2,12,31,79,331,26,26,35,177,14,25,30,049,05,10,13,157,00*78
2017-11-15 18:52:57 1510789977.666036: $GPGSV,3,3,12,01,15,267,16,22,45,294,13,16,06,190,00,135,23,238,00*41
2017-11-15 18:52:57 1510789977.779140: $GPZDA,235256.00,15,11,2017,00,00*63
2017-11-15 18:52:57 1510789977.779310: $GPGGA,235256,3946.9707,N,08404.9548,W,1,07,1.40,314.74,M,-33.324,M,,*73
2017-11-15 18:52:57 1510789977.779371: $GPRMC,235256,A,3946.9707,N,08404.9548,W,0.4179,328.778,151117,,*3B
2017-11-15 18:52:57 1510789977.779489: $GPGSA,A,3,14,3,32,31,26,1,22,,,,,,3.4,1.4,2.9*3B
2017-11-15 18:52:58 1510789978.333776: $GPZDA,235257.00,15,11,2017,00,00*62
2017-11-15 18:52:58 1510789978.333940: $GPGGA,235257,3946.9703,N,08404.9549,W,1,07,1.40,315.50,M,-33.324,M,,*70
2017-11-15 18:52:58 1510789978.334000: $GPRMC,235257,A,3946.9703,N,08404.9549,W,0.7267,273.794,151117,,*3D
2017-11-15 18:52:58 1510789978.334056: $GPGSA,A,3,14,3,32,31,26,1,22,,,,,,3.4,1.4,2.9*3B
2017-11-15 18:52:59 1510789979.329634: $GPZDA,235258.00,15,11,2017,00,00*6D
2017-11-15 18:52:59 1510789979.329796: $GPGGA,235258,3946.9700,N,08404.9556,W,1,07,1.40,314.78,M,-33.324,M,,*79
2017-11-15 18:52:59 1510789979.329874: $GPRMC,235258,A,3946.9700,N,08404.9556,W,0.8414,219.347,151117,,*34
2017-11-15 18:52:59 1510789979.329932: $GPGSA,A,3,14,3,32,31,26,1,22,,,,,,3.4,1.4,2.9*3B
2017-11-15 18:53:00 1510789980.665501: $GPGSV,3,1,12,29,04,085,04,14,65,063,22,03,28,312,16,32,49,090,19*7E
2017-11-15 18:53:00 1510789980.665802: $GPGSV,3,2,12,31,79,331,26,26,35,177,14,25,30,049,06,10,13,157,00*7B
2017-11-15 18:53:00 1510789980.665905: $GPGSV,3,3,12,01,15,267,15,22,45,294,13,16,06,190,00,135,23,238,00*42
2017-11-15 18:53:00 1510789980.778753: $GPZDA,235259.00,15,11,2017,00,00*6C
2017-11-15 18:53:00 1510789980.778908: $GPGGA,235259,3946.9692,N,08404.9556,W,1,07,1.40,314.90,M,-33.324,M,,*74
2017-11-15 18:53:00 1510789980.778968: $GPRMC,235259,A,3946.9692,N,08404.9556,W,1.2361,194.852,151117,,*38
2017-11-15 18:53:00 1510789980.779024: $GPGSA,A,3,14,3,32,31,26,1,22,,,,,,3.4,1.4,2.9*3B
2017-11-15 18:53:01 1510789981.404515: $GPZDA,235300.00,15,11,2017,00,00*61
2017-11-15 18:53:01 1510789981.404701: $GPGGA,235300,3946.9685,N,08404.9557,W,1,07,1.40,315.03,M,-33.324,M,,*75
2017-11-15 18:53:01 1510789981.404811: $GPRMC,235300,A,3946.9685,N,08404.9557,W,1.3044,205.352,151117,,*37
2017-11-15 18:53:01 1510789981.404869: $GPGSA,A,3,14,3,32,31,26,1,22,,,,,,3.4,1.4,2.9*3B
2017-11-15 18:53:02 1510789982.330021: $GPZDA,235301.00,15,11,2017,00,00*60
2017-11-15 18:53:02 1510789982.330199: $GPGGA,235301,3946.9677,N,08404.9565,W,1,07,1.40,315.07,M,-33.324,M,,*7C
2017-11-15 18:53:02 1510789982.330261: $GPRMC,235301,A,3946.9677,N,08404.9565,W,1.5545,212.064,151117,,*38
2017-11-15 18:53:02 1510789982.330317: $GPGSA,A,3,14,3,32,31,26,1,22,,,,,,3.4,1.4,2.9*3B
2017-11-15 18:53:03 1510789983.665777: $GPGSV,3,1,12,29,04,085,04,14,65,063,22,03,28,312,15,32,49,090,20*77
2017-11-15 18:53:03 1510789983.665947: $GPGSV,3,2,12,31,79,331,26,26,35,177,14,25,30,049,04,10,13,157,00*79
2017-11-15 18:53:03 1510789983.666007: $GPGSV,3,3,12,01,15,267,15,22,45,294,13,16,06,190,00,135,23,238,00*42
2017-11-15 18:53:03 1510789983.779136: $GPZDA,235302.00,15,11,2017,00,00*63
2017-11-15 18:53:03 1510789983.779315: $GPGGA,235302,3946.9670,N,08404.9565,W,1,08,1.40,315.20,M,-33.324,M,,*72
2017-11-15 18:53:03 1510789983.779375: $GPRMC,235302,A,3946.9670,N,08404.9565,W,1.3044,205.352,151117,,*3E
2017-11-15 18:53:03 1510789983.779450: $GPGSA,A,3,14,3,32,31,26,25,1,22,,,,,3.4,1.4,2.9*3C
2017-11-15 18:53:04 1510789984.330174: $GPZDA,235303.00,15,11,2017,00,00*62
2017-11-15 18:53:04 1510789984.330334: $GPGGA,235303,3946.9666,N,08404.9565,W,1,08,1.40,314.56,M,-33.324,M,,*74
2017-11-15 18:53:04 1510789984.330394: $GPRMC,235303,A,3946.9666,N,08404.9565,W,0.6846,184.197,151117,,*37
2017-11-15 18:53:04 1510789984.330472: $GPGSA,A,3,14,3,32,31,26,25,1,22,,,,,3.4,1.4,2.9*3C
2017-11-15 18:53:05 1510789985.329626: $GPZDA,235304.00,15,11,2017,00,00*65
2017-11-15 18:53:05 1510789985.329791: $GPGGA,235304,3946.9662,N,08404.9566,W,1,08,1.40,315.32,M,-33.324,M,,*77
2017-11-15 18:53:05 1510789985.329851: $GPRMC,235304,A,3946.9662,N,08404.9566,W,0.7246,164.668,151117,,*35
2017-11-15 18:53:05 1510789985.329907: $GPGSA,A,3,14,3,32,31,26,25,1,22,,,,,3.4,1.4,2.9*3C
2017-11-15 18:53:06 1510789986.666135: $GPGSV,3,1,12,29,04,085,05,14,65,063,22,03,28,312,15,32,49,090,20*76
2017-11-15 18:53:06 1510789986.666306: $GPGSV,3,2,12,31,79,331,25,26,35,177,15,25,30,049,04,10,13,157,00*7B
2017-11-15 18:53:06 1510789986.666366: $GPGSV,3,3,12,01,15,267,15,22,45,294,13,16,06,190,00,135,23,238,00*42
2017-11-15 18:53:06 1510789986.779495: $GPZDA,235305.00,15,11,2017,00,00*64
2017-11-15 18:53:06 1510789986.779679: $GPGGA,235305,3946.9658,N,08404.9566,W,1,07,1.40,314.68,M,-33.324,M,,*7E
2017-11-15 18:53:06 1510789986.779739: $GPRMC,235305,A,3946.9658,N,08404.9566,W,0.4179,148.778,151117,,*3F
2017-11-15 18:53:06 1510789986.779795: $GPGSA,A,3,14,3,32,31,26,1,22,,,,,,3.4,1.4,2.9*3B
2017-11-15 18:53:07 1510789987.330333: $GPZDA,235306.00,15,11,2017,00,00*67
2017-11-15 18:53:07 1510789987.330513: $GPGGA,235306,3946.9655,N,08404.9567,W,1,07,1.40,315.45,M,-33.324,M,,*7F
2017-11-15 18:53:07 1510789987.330602: $GPRMC,235306,A,3946.9655,N,08404.9567,W,0.4207,39.347,151117,,*05
2017-11-15 18:53:07 1510789987.330659: $GPGSA,A,3,14,3,32,31,26,1,22,,,,,,3.4,1.4,2.9*3B
2017-11-15 18:53:08 1510789988.330432: $GPZDA,235307.00,15,11,2017,00,00*66
2017-11-15 18:53:08 1510789988.330619: $GPGGA,235307,3946.9654,N,08404.9560,W,1,07,1.40,315.53,M,-33.324,M,,*7F
2017-11-15 18:53:08 1510789988.330680: $GPRMC,235307,A,3946.9654,N,08404.9560,W,0.7103,45.706,151117,,*0C
2017-11-15 18:53:08 1510789988.330736: $GPGSA,A,3,14,3,32,31,26,1,22,,,,,,3.4,1.4,2.9*3B
2017-11-15 18:53:09 1510789989.667057: $GPGSV,3,1,12,29,04,085,06,14,65,063,21,03,28,312,15,32,49,090,20*76
2017-11-15 18:53:09 1510789989.667227: $GPGSV,3,2,12,31,79,331,25,26,35,177,16,25,30,049,04,10,13,157,00*78
2017-11-15 18:53:09 1510789989.667287: $GPGSV,3,3,12,01,15,267,14,22,45,294,12,16,06,190,00,135,23,238,00*42
2017-11-15 18:53:09 1510789989.780681: $GPZDA,235308.00,15,11,2017,00,00*69
2017-11-15 18:53:09 1510789989.780813: $GPGGA,235308,3946.9654,N,08404.9560,W,1,08,1.40,315.53,M,-33.324,M,,*7F
2017-11-15 18:53:09 1510789989.780936: $GPRMC,235308,A,3946.9654,N,08404.9560,W,0.2422,93.794,151117,,*00
2017-11-15 18:53:09 1510789989.780994: $GPGSA,A,3,29,14,3,32,31,26,1,22,,,,,3.4,1.4,2.9*30
2017-11-15 18:53:10 1510789990.329977: $GPZDA,235309.00,15,11,2017,00,00*68
2017-11-15 18:53:10 1510789990.330137: $GPGGA,235309,3946.9647,N,08404.9561,W,1,08,1.40,315.65,M,-33.324,M,,*78
2017-11-15 18:53:10 1510789990.330197: $GPRMC,235309,A,3946.9647,N,08404.9561,W,0.3423,184.197,151117,,*30
2017-11-15 18:53:10 1510789990.330253: $GPGSA,A,3,29,14,3,32,31,26,1,22,,,,,3.4,1.4,2.9*30
2017-11-15 18:53:11 1510789991.371723: $GPZDA,235310.00,15,11,2017,00,00*60
2017-11-15 18:53:11 1510789991.371896: $GPGGA,235310,3946.9647,N,08404.9561,W,1,08,1.40,315.65,M,-33.324,M,,*70
2017-11-15 18:53:11 1510789991.371957: $GPRMC,235310,A,3946.9647,N,08404.9561,W,0.5912,129.173,151117,,*3C
2017-11-15 18:53:11 1510789991.372013: $GPGSA,A,3,29,14,3,32,31,26,1,22,,,,,3.4,1.4,2.9*30
2017-11-15 18:53:12 1510789992.707344: $GPGSV,3,1,12,29,04,085,09,14,65,063,21,03,28,312,14,32,49,090,21*79
2017-11-15 18:53:12 1510789992.707550: $GPGSV,3,2,12,31,79,331,25,26,35,177,16,25,30,049,04,16,06,190,02*73
2017-11-15 18:53:12 1510789992.707612: $GPGSV,3,3,12,01,15,267,14,22,45,294,11,10,13,157,00,135,23,238,00*48
2017-11-15 18:53:12 1510789992.821074: $GPZDA,235311.00,15,11,2017,00,00*61
2017-11-15 18:53:12 1510789992.821235: $GPGGA,235311,3946.9642,N,08404.9561,W,1,08,1.40,315.01,M,-33.324,M,,*76
2017-11-15 18:53:12 1510789992.821295: $GPRMC,235311,A,3946.9642,N,08404.9561,W,0.4844,93.794,151117,,*04
2017-11-15 18:53:12 1510789992.821351: $GPGSA,A,3,29,14,3,32,31,26,1,22,,,,,3.4,1.4,2.9*30
2017-11-15 18:53:13 1510789993.371590: $GPZDA,235312.00,15,11,2017,00,00*62
2017-11-15 18:53:13 1510789993.371754: $GPGGA,235312,3946.9639,N,08404.9561,W,1,08,1.40,315.78,M,-33.324,M,,*77
2017-11-15 18:53:13 1510789993.371815: $GPRMC,235312,A,3946.9639,N,08404.9561,W,0.8054,68.645,151117,,*07
2017-11-15 18:53:13 1510789993.371871: $GPGSA,A,3,29,14,3,32,31,26,1,22,,,,,3.4,1.4,2.9*30
2017-11-15 18:53:14 1510789994.372447: $GPZDA,235313.00,15,11,2017,00,00*63
2017-11-15 18:53:14 1510789994.372625: $GPGGA,235313,3946.9639,N,08404.9554,W,1,08,1.40,315.86,M,-33.324,M,,*71
2017-11-15 18:53:14 1510789994.372686: $GPRMC,235313,A,3946.9639,N,08404.9554,W,0.5951,58.684,151117,,*0F
2017-11-15 18:53:14 1510789994.372742: $GPGSA,A,3,29,14,3,32,31,26,1,22,,,,,3.4,1.4,2.9*30
2017-11-15 18:53:15 1510789995.708227: $GPGSV,3,1,12,29,04,085,07,14,65,063,21,03,28,312,14,32,49,090,21*77
2017-11-15 18:53:15 1510789995.708415: $GPGSV,3,2,12,31,79,331,24,26,35,177,17,25,30,049,04,16,06,190,06*77
2017-11-15 18:53:15 1510789995.708476: $GPGSV,3,3,12,01,15,267,13,22,45,294,12,10,13,157,00,135,23,238,00*4C
2017-11-15 18:53:15 1510789995.821564: $GPZDA,235314.00,15,11,2017,00,00*64
2017-11-15 18:53:15 1510789995.821724: $GPGGA,235314,3946.9639,N,08404.9554,W,1,07,1.40,315.86,M,-33.324,M,,*79
2017-11-15 18:53:15 1510789995.821784: $GPRMC,235314,A,3946.9639,N,08404.9554,W,1.2621,39.347,151117,,*0B
2017-11-15 18:53:15 1510789995.821839: $GPGSA,A,3,14,3,32,31,26,1,22,,,,,,3.4,1.4,2.9*3B
2017-11-15 18:53:16 1510789996.447394: $GPZDA,235315.00,15,11,2017,00,00*65
2017-11-15 18:53:16 1510789996.447571: $GPGGA,235315,3946.9642,N,08404.9554,W,1,07,1.40,315.09,M,-33.324,M,,*73
2017-11-15 18:53:16 1510789996.447632: $GPRMC,235315,A,3946.9642,N,08404.9554,W,1.4555,23.636,151117,,*08
2017-11-15 18:53:16 1510789996.447688: $GPGSA,A,3,14,3,32,31,26,1,22,,,,,,3.4,1.4,2.9*3B
