2017-12-29 11:28:54 1514564934.676552: {"class":"VERSION","release":"3.16","rev":"3.16-4","proto_major":3,"proto_minor":11}
2017-12-29 11:28:54 1514564934.676915: {"class":"DEVICES","devices":[{"class":"DEVICE","path":"/dev/ttyUSB0","driver":"SiRF","subtype":"9\u0006GSD4e_4.1.2-P1_RPATCH.05-F-GPS-4R-1510281 11/03/2015 307","activated":"2017-12-29T16:28:54.674Z","flags":1,"native":1,"bps":4800,"parity":"N","stopbits":1,"cycle":1.00}]}
2017-12-29 11:28:54 1514564934.677031: {"class":"WATCH","enable":true,"json":false,"nmea":true,"raw":0,"scaled":false,"timing":false,"split24":false,"pps":false}
2017-12-29 11:28:55 1514564935.734878: $GPGSV,3,1,12,08,07,319,32,10,45,304,41,15,33,054,44,18,74,351,40*73
2017-12-29 11:28:55 1514564935.735076: $GPGSV,3,2,12,20,31,099,46,21,58,186,42,24,52,102,45,27,18,285,35*78
2017-12-29 11:28:55 1514564935.735148: $GPGSV,3,3,12,32,25,241,35,13,04,049,29,14,07,235,00,138,38,213,44*4A
2017-12-29 11:28:55 1514564935.848269: $GPZDA,162856.00,29,12,2017,00,00*64
2017-12-29 11:28:55 1514564935.848427: $GPGGA,162856,3946.9584,N,08404.9824,W,1,11,1.00,323.23,M,-33.324,M,,*73
2017-12-29 11:28:55 1514564935.848496: $GPRMC,162856,A,3946.9584,N,08404.9824,W,0.0000,0.000,291217,,*38
2017-12-29 11:28:55 1514564935.848559: $GPGSA,A,3,8,10,15,18,20,21,24,27,32,13,138,,1.7,1.0,1.3*38
2017-12-29 11:28:56 1514564936.400299: $GPZDA,162857.00,29,12,2017,00,00*65
2017-12-29 11:28:56 1514564936.400469: $GPGGA,162857,3946.9584,N,08404.9824,W,1,11,1.00,323.23,M,-33.324,M,,*72
2017-12-29 11:28:56 1514564936.400536: $GPRMC,162857,A,3946.9584,N,08404.9824,W,0.0000,0.000,291217,,*39
2017-12-29 11:28:56 1514564936.400600: $GPGSA,A,3,8,10,15,18,20,21,24,27,32,13,138,,1.7,1.0,1.3*38
2017-12-29 11:28:57 1514564937.381258: $GPZDA,162858.00,29,12,2017,00,00*6A
2017-12-29 11:28:57 1514564937.381428: $GPGGA,162858,3946.9584,N,08404.9824,W,1,11,1.00,323.23,M,-33.324,M,,*7D
2017-12-29 11:28:57 1514564937.381496: $GPRMC,162858,A,3946.9584,N,08404.9824,W,0.2422,273.794,291217,,*3C
2017-12-29 11:28:57 1514564937.381600: $GPGSA,A,3,8,10,15,18,20,21,24,27,32,13,138,,1.7,1.0,1.3*38
2017-12-29 11:28:58 1514564938.733120: $GPGSV,3,1,12,08,07,319,32,10,45,304,42,15,33,054,44,18,74,351,40*70
2017-12-29 11:28:59 1514564939.655783: $GPGSV,3,2,12,20,31,099,46,21,58,186,42,24,52,102,46,27,18,285,38*76
2017-12-29 11:28:59 1514564939.655978: $GPGSV,3,3,12,32,25,241,35,14,07,235,00,13,04,049,00,138,38,213,45*40
2017-12-29 11:28:59 1514564939.656098: $GPZDA,162859.00,29,12,2017,00,00*6B
2017-12-29 11:28:59 1514564939.656161: $GPGGA,162859,3946.9584,N,08404.9824,W,1,10,1.00,323.23,M,-33.324,M,,*7D
2017-12-29 11:28:59 1514564939.656225: $GPRMC,162859,A,3946.9584,N,08404.9824,W,0.0000,0.000,291217,,*37
2017-12-29 11:28:59 1514564939.656309: $GPGSA,A,3,8,10,15,18,20,21,24,27,32,138,,,1.7,1.0,1.3*3A
2017-12-29 11:28:59 1514564939.656370: $GPZDA,162900.00,29,12,2017,00,00*66
2017-12-29 11:28:59 1514564939.656427: $GPGGA,162900,3946.9584,N,08404.9824,W,1,10,1.00,323.23,M,-33.324,M,,*70
2017-12-29 11:28:59 1514564939.656490: $GPRMC,162900,A,3946.9584,N,08404.9824,W,0.0000,0.000,291217,,*3A
2017-12-29 11:28:59 1514564939.656552: $GPGSA,A,3,8,10,15,18,20,21,24,27,32,138,,,1.7,1.0,1.3*3A
2017-12-29 11:29:00 1514564940.397689: $GPZDA,162901.00,29,12,2017,00,00*67
2017-12-29 11:29:00 1514564940.397860: $GPGGA,162901,3946.9584,N,08404.9824,W,1,10,1.00,323.23,M,-33.324,M,,*71
2017-12-29 11:29:00 1514564940.397948: $GPRMC,162901,A,3946.9584,N,08404.9824,W,0.0000,0.000,291217,,*3B
2017-12-29 11:29:00 1514564940.398067: $GPGSA,A,3,8,10,15,18,20,21,24,27,32,138,,,1.7,1.0,1.3*3A
2017-12-29 11:29:01 1514564941.733468: $GPGSV,3,1,12,08,07,319,31,10,45,304,42,15,33,054,44,18,74,351,40*73
2017-12-29 11:29:01 1514564941.733659: $GPGSV,3,2,12,20,31,099,46,21,58,186,42,24,52,102,46,27,18,285,37*79
2017-12-29 11:29:01 1514564941.733729: $GPGSV,3,3,12,32,25,241,35,14,07,235,17,13,04,049,00,138,38,213,46*45
2017-12-29 11:29:01 1514564941.846970: $GPZDA,162902.00,29,12,2017,00,00*64
2017-12-29 11:29:01 1514564941.847139: $GPGGA,162902,3946.9584,N,08404.9824,W,1,10,1.00,323.23,M,-33.324,M,,*72
2017-12-29 11:29:01 1514564941.847263: $GPRMC,162902,A,3946.9584,N,08404.9824,W,0.0000,0.000,291217,,*38
2017-12-29 11:29:01 1514564941.847327: $GPGSA,A,3,8,10,15,18,20,21,24,27,32,138,,,1.7,1.0,1.3*3A
2017-12-29 11:29:02 1514564942.380347: $GPZDA,162903.00,29,12,2017,00,00*65
2017-12-29 11:29:02 1514564942.380504: $GPGGA,162903,3946.9584,N,08404.9824,W,1,10,1.00,323.23,M,-33.324,M,,*73
2017-12-29 11:29:02 1514564942.380570: $GPRMC,162903,A,3946.9584,N,08404.9824,W,0.0000,0.000,291217,,*39
2017-12-29 11:29:02 1514564942.380631: $GPGSA,A,3,8,10,15,18,20,21,24,27,32,138,,,1.7,1.0,1.3*3A
2017-12-29 11:29:03 1514564943.392671: $GPZDA,162904.00,29,12,2017,00,00*62
2017-12-29 11:29:03 1514564943.392858: $GPGGA,162904,3946.9584,N,08404.9824,W,1,10,1.00,323.23,M,-33.324,M,,*74
2017-12-29 11:29:03 1514564943.392959: $GPRMC,162904,A,3946.9584,N,08404.9824,W,0.0000,0.000,291217,,*3E
2017-12-29 11:29:03 1514564943.393023: $GPGSA,A,3,8,10,15,18,20,21,24,27,32,138,,,1.7,1.0,1.3*3A
2017-12-29 11:29:04 1514564944.716824: $GPGSV,3,1,12,08,07,319,32,10,45,304,42,15,33,054,44,18,74,351,40*70
2017-12-29 11:29:04 1514564944.717031: $GPGSV,3,2,12,20,31,099,47,21,58,186,42,24,52,102,46,27,18,285,37*78
2017-12-29 11:29:04 1514564944.717096: $GPGSV,3,3,12,32,25,241,35,14,07,235,00,13,04,049,00,138,38,213,45*40
2017-12-29 11:29:04 1514564944.830104: $GPZDA,162905.00,29,12,2017,00,00*63
2017-12-29 11:29:04 1514564944.830299: $GPGGA,162905,3946.9584,N,08404.9824,W,1,10,1.00,323.23,M,-33.324,M,,*75
2017-12-29 11:29:04 1514564944.830365: $GPRMC,162905,A,3946.9584,N,08404.9824,W,0.0000,0.000,291217,,*3F
2017-12-29 11:29:04 1514564944.830426: $GPGSA,A,3,8,10,15,18,20,21,24,27,32,138,,,1.7,1.0,1.3*3A
2017-12-29 11:29:05 1514564945.455623: $GPZDA,162906.00,29,12,2017,00,00*60
2017-12-29 11:29:05 1514564945.455912: $GPGGA,162906,3946.9584,N,08404.9824,W,1,10,1.00,323.23,M,-33.324,M,,*76
2017-12-29 11:29:05 1514564945.455990: $GPRMC,162906,A,3946.9584,N,08404.9824,W,0.0000,0.000,291217,,*3C
2017-12-29 11:29:05 1514564945.456053: $GPGSA,A,3,8,10,15,18,20,21,24,27,32,138,,,1.7,1.0,1.3*3A
2017-12-29 11:29:06 1514564946.396610: $GPZDA,162907.00,29,12,2017,00,00*61
2017-12-29 11:29:06 1514564946.396827: $GPGGA,162907,3946.9584,N,08404.9824,W,1,10,1.00,323.23,M,-33.324,M,,*77
2017-12-29 11:29:06 1514564946.396926: $GPRMC,162907,A,3946.9584,N,08404.9824,W,0.0000,0.000,291217,,*3D
2017-12-29 11:29:06 1514564946.396990: $GPGSA,A,3,8,10,15,18,20,21,24,27,32,138,,,1.7,1.0,1.3*3A
2017-12-29 11:29:07 1514564947.743249: $GPGSV,3,1,12,08,07,319,34,10,45,304,42,15,33,054,44,18,74,351,40*76
2017-12-29 11:29:07 1514564947.743423: $GPGSV,3,2,12,20,31,099,47,21,58,186,42,24,52,102,46,27,18,285,36*79
2017-12-29 11:29:07 1514564947.743491: $GPGSV,3,3,12,32,25,241,35,13,04,049,09,14,07,235,00,138,38,213,45*49
2017-12-29 11:29:07 1514564947.856625: $GPZDA,162908.00,29,12,2017,00,00*6E
2017-12-29 11:29:07 1514564947.856820: $GPGGA,162908,3946.9584,N,08404.9824,W,1,10,1.00,323.23,M,-33.324,M,,*78
2017-12-29 11:29:07 1514564947.856889: $GPRMC,162908,A,3946.9584,N,08404.9824,W,0.0000,0.000,291217,,*32
2017-12-29 11:29:07 1514564947.856953: $GPGSA,A,3,8,10,15,18,20,21,24,27,32,138,,,1.7,1.0,1.3*3A
2017-12-29 11:29:08 1514564948.382749: $GPZDA,162909.00,29,12,2017,00,00*6F
2017-12-29 11:29:08 1514564948.382932: $GPGGA,162909,3946.9585,N,08404.9831,W,1,10,1.00,323.16,M,-33.324,M,,*7A
2017-12-29 11:29:08 1514564948.383002: $GPRMC,162909,A,3946.9585,N,08404.9831,W,0.5306,294.352,291217,,*3D
2017-12-29 11:29:08 1514564948.383067: $GPGSA,A,3,8,10,15,18,20,21,24,27,32,138,,,1.7,1.0,1.3*3A
2017-12-29 11:29:09 1514564949.397341: $GPZDA,162910.00,29,12,2017,00,00*67
2017-12-29 11:29:09 1514564949.397527: $GPGGA,162910,3946.9585,N,08404.9831,W,1,10,1.40,323.16,M,-33.324,M,,*76
2017-12-29 11:29:09 1514564949.397636: $GPRMC,162910,A,3946.9585,N,08404.9831,W,0.7621,287.944,291217,,*38
2017-12-29 11:29:09 1514564949.397703: $GPGSA,A,3,8,10,15,18,20,21,24,27,32,138,,,1.7,1.4,1.3*3E
