2017-12-29 11:05:11 1514563511.080168: {"class":"VERSION","release":"3.16","rev":"3.16-4","proto_major":3,"proto_minor":11}
2017-12-29 11:05:11 1514563511.080530: {"class":"DEVICES","devices":[{"class":"DEVICE","path":"/dev/ttyUSB0","driver":"SiRF","subtype":"9\u0006GSD4e_4.1.2-P1_RPATCH.05-F-GPS-4R-1510281 11/03/2015 307","activated":"2017-12-29T16:05:10.589Z","flags":1,"native":1,"bps":4800,"parity":"N","stopbits":1,"cycle":1.00}]}
2017-12-29 11:05:11 1514563511.080661: {"class":"WATCH","enable":true,"json":false,"nmea":true,"raw":0,"scaled":false,"timing":false,"split24":false,"pps":false}
2017-12-29 11:05:11 1514563511.783116: $GPZDA,160512.00,29,12,2017,00,00*6B
2017-12-29 11:05:11 1514563511.783288: $GPGGA,160512,3946.9580,N,08404.9848,W,2,11,2.00,302.41,M,-33.324,M,,*75
2017-12-29 11:05:11 1514563511.783354: $GPRMC,160512,A,3946.9580,N,08404.9848,W,0.2422,273.794,291217,,*33
2017-12-29 11:05:11 1514563511.783415: $GPGSA,A,3,10,15,18,20,21,24,27,32,8,13,138,,1.7,2.0,1.3*3B
2017-12-29 11:05:11 1514563511.783474: $GPGBS,160512,2.73,M,2.59,M,7.72,M*35
2017-12-29 11:05:12 1514563512.783218: $GPGSV,3,1,11,10,37,297,43,15,42,051,49,18,68,327,43,20,38,091,48*75
2017-12-29 11:05:12 1514563512.783369: $GPGSV,3,2,11,21,69,195,46,24,48,118,47,27,19,295,25,32,17,235,31*7F
2017-12-29 11:05:12 1514563512.783434: $GPGSV,3,3,11,08,04,327,31,13,12,048,30,138,38,213,44*7E
2017-12-29 11:05:12 1514563512.896866: $GPZDA,160513.00,29,12,2017,00,00*6A
2017-12-29 11:05:12 1514563512.897047: $GPGGA,160513,3946.9580,N,08404.9848,W,2,11,1.20,302.41,M,-33.324,M,,*75
2017-12-29 11:05:12 1514563512.897152: $GPRMC,160513,A,3946.9580,N,08404.9848,W,0.0000,0.000,291217,,*38
2017-12-29 11:05:12 1514563512.897249: $GPGSA,A,3,10,15,18,20,21,24,27,32,8,13,138,,1.7,1.2,1.3*3A
2017-12-29 11:05:13 1514563513.521993: $GPZDA,160514.00,29,12,2017,00,00*6D
2017-12-29 11:05:13 1514563513.522154: $GPGGA,160514,3946.9580,N,08404.9848,W,2,11,1.20,302.41,M,-33.324,M,,*72
2017-12-29 11:05:13 1514563513.522221: $GPRMC,160514,A,3946.9580,N,08404.9848,W,0.0000,0.000,291217,,*3F
2017-12-29 11:05:13 1514563513.522281: $GPGSA,A,3,10,15,18,20,21,24,27,32,8,13,138,,1.7,1.2,1.3*3A
2017-12-29 11:05:14 1514563514.447826: $GPZDA,160515.00,29,12,2017,00,00*6C
2017-12-29 11:05:14 1514563514.447987: $GPGGA,160515,3946.9580,N,08404.9848,W,2,11,1.20,302.41,M,-33.324,M,,*73
2017-12-29 11:05:14 1514563514.448053: $GPRMC,160515,A,3946.9580,N,08404.9848,W,0.0000,0.000,291217,,*3E
2017-12-29 11:05:14 1514563514.448113: $GPGSA,A,3,10,15,18,20,21,24,27,32,8,13,138,,1.7,1.2,1.3*3A
2017-12-29 11:05:15 1514563515.767324: $GPGSV,3,1,11,10,37,297,43,15,42,051,49,18,68,327,43,20,38,091,48*75
2017-12-29 11:05:15 1514563515.767492: $GPGSV,3,2,11,21,69,195,46,24,48,118,47,27,19,295,32,32,17,235,33*7B
2017-12-29 11:05:15 1514563515.767560: $GPGSV,3,3,11,08,04,327,32,13,12,048,28,138,38,213,44*74
2017-12-29 11:05:15 1514563515.880683: $GPZDA,160516.00,29,12,2017,00,00*6F
2017-12-29 11:05:15 1514563515.880833: $GPGGA,160516,3946.9580,N,08404.9848,W,2,11,1.20,302.41,M,-33.324,M,,*70
2017-12-29 11:05:15 1514563515.880899: $GPRMC,160516,A,3946.9580,N,08404.9848,W,0.0000,0.000,291217,,*3D
2017-12-29 11:05:15 1514563515.880960: $GPGSA,A,3,10,15,18,20,21,24,27,32,8,13,138,,1.7,1.2,1.3*3A
2017-12-29 11:05:16 1514563516.441644: $GPZDA,160517.00,29,12,2017,00,00*6E
2017-12-29 11:05:16 1514563516.441826: $GPGGA,160517,3946.9580,N,08404.9848,W,2,11,1.20,302.41,M,-33.324,M,,*71
2017-12-29 11:05:16 1514563516.441894: $GPRMC,160517,A,3946.9580,N,08404.9848,W,0.0000,0.000,291217,,*3C
2017-12-29 11:05:16 1514563516.441955: $GPGSA,A,3,10,15,18,20,21,24,27,32,8,13,138,,1.7,1.2,1.3*3A
2017-12-29 11:05:17 1514563517.448716: $GPZDA,160518.00,29,12,2017,00,00*61
2017-12-29 11:05:17 1514563517.448903: $GPGGA,160518,3946.9584,N,08404.9848,W,2,11,1.60,303.05,M,-33.324,M,,*7F
2017-12-29 11:05:17 1514563517.448971: $GPRMC,160518,A,3946.9584,N,08404.9848,W,0.0000,0.000,291217,,*37
2017-12-29 11:05:17 1514563517.449031: $GPGSA,A,3,10,15,18,20,21,24,27,32,8,13,138,,1.7,1.6,1.3*3E
2017-12-29 11:05:18 1514563518.767686: $GPGSV,3,1,11,10,37,297,43,15,42,051,49,18,68,327,42,20,38,091,48*74
2017-12-29 11:05:18 1514563518.767918: $GPGSV,3,2,11,21,69,195,46,24,48,118,47,27,19,295,32,32,17,235,33*7B
2017-12-29 11:05:18 1514563518.767988: $GPGSV,3,3,11,08,04,327,32,13,12,048,29,138,38,213,46*77
2017-12-29 11:05:18 1514563518.881031: $GPZDA,160519.00,29,12,2017,00,00*60
2017-12-29 11:05:18 1514563518.881275: $GPGGA,160519,3946.9584,N,08404.9848,W,2,11,1.60,303.05,M,-33.324,M,,*7E
2017-12-29 11:05:18 1514563518.881340: $GPRMC,160519,A,3946.9584,N,08404.9848,W,0.0000,0.000,291217,,*36
2017-12-29 11:05:18 1514563518.881400: $GPGSA,A,3,10,15,18,20,21,24,27,32,8,13,138,,1.7,1.6,1.3*3E
2017-12-29 11:05:19 1514563519.431976: $GPZDA,160520.00,29,12,2017,00,00*6A
2017-12-29 11:05:19 1514563519.432144: $GPGGA,160520,3946.9584,N,08404.9848,W,2,11,1.60,303.05,M,-33.324,M,,*74
2017-12-29 11:05:19 1514563519.432211: $GPRMC,160520,A,3946.9584,N,08404.9848,W,0.0000,0.000,291217,,*3C
2017-12-29 11:05:19 1514563519.432272: $GPGSA,A,3,10,15,18,20,21,24,27,32,8,13,138,,1.7,1.6,1.3*3E
2017-12-29 11:05:20 1514563520.430300: $GPZDA,160521.00,29,12,2017,00,00*6B
2017-12-29 11:05:20 1514563520.433464: $GPGGA,160521,3946.9584,N,08404.9848,W,2,11,1.60,303.05,M,-33.324,M,,*75
2017-12-29 11:05:20 1514563520.433574: $GPRMC,160521,A,3946.9584,N,08404.9848,W,0.0000,0.000,291217,,*3D
2017-12-29 11:05:20 1514563520.433662: $GPGSA,A,3,10,15,18,20,21,24,27,32,8,13,138,,1.7,1.6,1.3*3E
2017-12-29 11:05:21 1514563521.767299: $GPGSV,3,1,11,10,37,297,43,15,42,051,49,18,68,327,43,20,38,091,49*74
2017-12-29 11:05:21 1514563521.767457: $GPGSV,3,2,11,21,69,195,46,24,48,118,47,27,19,295,33,32,17,235,33*7A
2017-12-29 11:05:21 1514563521.767524: $GPGSV,3,3,11,08,04,327,31,13,12,048,29,138,38,213,45*77
2017-12-29 11:05:21 1514563521.880672: $GPZDA,160522.00,29,12,2017,00,00*68
2017-12-29 11:05:21 1514563521.880848: $GPGGA,160522,3946.9584,N,08404.9848,W,2,11,1.60,303.05,M,-33.324,M,,*76
2017-12-29 11:05:21 1514563521.880914: $GPRMC,160522,A,3946.9584,N,08404.9848,W,0.0000,0.000,291217,,*3E
2017-12-29 11:05:21 1514563521.880975: $GPGSA,A,3,10,15,18,20,21,24,27,32,8,13,138,,1.7,1.6,1.3*3E
2017-12-29 11:05:22 1514563522.431587: $GPZDA,160523.00,29,12,2017,00,00*69
2017-12-29 11:05:22 1514563522.431790: $GPGGA,160523,3946.9584,N,08404.9848,W,2,11,1.60,303.05,M,-33.324,M,,*77
2017-12-29 11:05:22 1514563522.431858: $GPRMC,160523,A,3946.9584,N,08404.9848,W,0.0000,0.000,291217,,*3F
2017-12-29 11:05:22 1514563522.431919: $GPGSA,A,3,10,15,18,20,21,24,27,32,8,13,138,,1.7,1.6,1.3*3E
2017-12-29 11:05:23 1514563523.431958: $GPZDA,160524.00,29,12,2017,00,00*6E
2017-12-29 11:05:23 1514563523.432145: $GPGGA,160524,3946.9584,N,08404.9848,W,2,11,1.60,303.05,M,-33.324,M,,*70
2017-12-29 11:05:23 1514563523.432212: $GPRMC,160524,A,3946.9584,N,08404.9848,W,0.0000,0.000,291217,,*38
2017-12-29 11:05:23 1514563523.432274: $GPGSA,A,3,10,15,18,20,21,24,27,32,8,13,138,,1.7,1.6,1.3*3E
2017-12-29 11:05:24 1514563524.766411: $GPGSV,3,1,11,10,37,297,43,15,42,051,49,18,68,327,43,20,38,091,49*74
2017-12-29 11:05:24 1514563524.766568: $GPGSV,3,2,11,21,69,195,46,24,48,118,47,27,19,295,34,32,17,235,34*7A
2017-12-29 11:05:24 1514563524.766652: $GPGSV,3,3,11,08,04,327,31,13,12,048,29,138,38,213,45*77
2017-12-29 11:05:24 1514563524.879756: $GPZDA,160525.00,29,12,2017,00,00*6F
2017-12-29 11:05:24 1514563524.879884: $GPGGA,160525,3946.9584,N,08404.9848,W,2,11,1.60,303.05,M,-33.324,M,,*71
2017-12-29 11:05:24 1514563524.879950: $GPRMC,160525,A,3946.9584,N,08404.9848,W,0.0000,0.000,291217,,*39
2017-12-29 11:05:24 1514563524.880010: $GPGSA,A,3,10,15,18,20,21,24,27,32,8,13,138,,1.7,1.6,1.3*3E
2017-12-29 11:05:25 1514563525.431953: $GPZDA,160526.00,29,12,2017,00,00*6C
2017-12-29 11:05:25 1514563525.432130: $GPGGA,160526,3946.9584,N,08404.9848,W,2,11,1.60,303.05,M,-33.324,M,,*72
2017-12-29 11:05:25 1514563525.432198: $GPRMC,160526,A,3946.9584,N,08404.9848,W,0.0000,0.000,291217,,*3A
2017-12-29 11:05:25 1514563525.432259: $GPGSA,A,3,10,15,18,20,21,24,27,32,8,13,138,,1.7,1.6,1.3*3E
2017-12-29 11:05:26 1514563526.431555: $GPZDA,160527.00,29,12,2017,00,00*6D
2017-12-29 11:05:26 1514563526.431753: $GPGGA,160527,3946.9584,N,08404.9848,W,2,11,1.60,303.05,M,-33.324,M,,*73
2017-12-29 11:05:26 1514563526.431821: $GPRMC,160527,A,3946.9584,N,08404.9848,W,0.0000,0.000,291217,,*3B
2017-12-29 11:05:26 1514563526.431881: $GPGSA,A,3,10,15,18,20,21,24,27,32,8,13,138,,1.7,1.6,1.3*3E
2017-12-29 11:05:27 1514563527.767263: $GPGSV,3,1,11,10,37,297,42,15,42,051,49,18,68,327,43,20,38,091,48*74
2017-12-29 11:05:27 1514563527.767430: $GPGSV,3,2,11,21,69,195,46,24,48,118,48,27,19,295,35,32,17,235,35*75
2017-12-29 11:05:27 1514563527.767498: $GPGSV,3,3,11,08,04,327,30,13,12,048,29,138,38,213,45*76
2017-12-29 11:05:27 1514563527.880630: $GPZDA,160528.00,29,12,2017,00,00*62
2017-12-29 11:05:27 1514563527.880781: $GPGGA,160528,3946.9584,N,08404.9848,W,2,11,1.60,303.05,M,-33.324,M,,*7C
2017-12-29 11:05:27 1514563527.880847: $GPRMC,160528,A,3946.9584,N,08404.9848,W,0.0000,0.000,291217,,*34
2017-12-29 11:05:27 1514563527.880909: $GPGSA,A,3,10,15,18,20,21,24,27,32,8,13,138,,1.7,1.6,1.3*3E
2017-12-29 11:05:28 1514563528.506017: $GPZDA,160529.00,29,12,2017,00,00*63
2017-12-29 11:05:28 1514563528.506175: $GPGGA,160529,3946.9584,N,08404.9848,W,2,11,1.60,303.05,M,-33.324,M,,*7D
2017-12-29 11:05:28 1514563528.506241: $GPRMC,160529,A,3946.9584,N,08404.9848,W,0.0000,0.000,291217,,*35
2017-12-29 11:05:28 1514563528.506302: $GPGSA,A,3,10,15,18,20,21,24,27,32,8,13,138,,1.7,1.6,1.3*3E
2017-12-29 11:05:29 1514563529.430639: $GPZDA,160530.00,29,12,2017,00,00*6B
2017-12-29 11:05:29 1514563529.430811: $GPGGA,160530,3946.9584,N,08404.9848,W,2,11,1.60,303.05,M,-33.324,M,,*75
2017-12-29 11:05:29 1514563529.430878: $GPRMC,160530,A,3946.9584,N,08404.9848,W,0.0000,0.000,291217,,*3D
2017-12-29 11:05:29 1514563529.430940: $GPGSA,A,3,10,15,18,20,21,24,27,32,8,13,138,,1.7,1.6,1.3*3E
