2017-12-14 12:29:14 1513272554.582496: {"class":"VERSION","release":"3.16","rev":"3.16-4","proto_major":3,"proto_minor":11}
2017-12-14 12:29:14 1513272554.582978: {"class":"DEVICES","devices":[{"class":"DEVICE","path":"/dev/ttyUSB0","driver":"SiRF","subtype":"9\u0006GSD4e_4.1.2-P1_RPATCH.05-F-GPS-4R-1510281 11/03/2015 307","activated":"2017-12-14T17:29:14.556Z","flags":1,"native":1,"bps":4800,"parity":"N","stopbits":1,"cycle":1.00}]}
2017-12-14 12:29:14 1513272554.583108: {"class":"WATCH","enable":true,"json":false,"nmea":true,"raw":0,"scaled":false,"timing":false,"split24":false,"pps":false}
2017-12-14 12:29:14 1513272554.670544: $GPZDA,172915.00,14,12,2017,00,00*6D
2017-12-14 12:29:14 1513272554.670690: $GPGGA,172915,3946.9306,N,08404.9423,W,1,07,6.60,294.54,M,-33.324,M,,*78
2017-12-14 12:29:14 1513272554.670755: $GPRMC,172915,A,3946.9306,N,08404.9423,W,1.6815,185.128,141217,,*3A
2017-12-14 12:29:14 1513272554.670818: $GPGSA,A,3,21,20,24,10,13,18,27,,,,,,6.6,6.6,6.2*3E
2017-12-14 12:29:15 1513272555.221540: $GPZDA,172916.00,14,12,2017,00,00*6E
2017-12-14 12:29:15 1513272555.221715: $GPGGA,172916,3946.9303,N,08404.9431,W,1,07,6.60,295.22,M,-33.324,M,,*7D
2017-12-14 12:29:15 1513272555.221803: $GPRMC,172916,A,3946.9303,N,08404.9431,W,1.4366,205.065,141217,,*31
2017-12-14 12:29:15 1513272555.221867: $GPGSA,A,3,21,20,24,10,13,18,27,,,,,,6.6,6.6,6.2*3E
2017-12-14 12:29:16 1513272556.221757: $GPZDA,172917.00,14,12,2017,00,00*6F
2017-12-14 12:29:16 1513272556.221909: $GPGGA,172917,3946.9288,N,08404.9440,W,1,07,6.60,296.80,M,-33.324,M,,*73
2017-12-14 12:29:16 1513272556.221976: $GPRMC,172917,A,3946.9288,N,08404.9440,W,1.4187,206.530,141217,,*3F
2017-12-14 12:29:16 1513272556.222038: $GPGSA,A,3,21,20,24,10,13,18,27,,,,,,6.6,6.6,6.2*3E
2017-12-14 12:29:17 1513272557.557634: $GPGSV,3,1,12,21,57,184,24,20,30,099,26,24,52,102,24,10,45,304,20*76
2017-12-14 12:29:17 1513272557.557797: $GPGSV,3,2,12,13,04,049,13,18,74,351,14,27,18,285,14,32,25,241,11*7D
2017-12-14 12:29:17 1513272557.557863: $GPGSV,3,3,12,15,33,054,00,14,07,235,00,08,07,318,00,138,38,213,00*4D
2017-12-14 12:29:17 1513272557.669761: $GPZDA,172918.00,14,12,2017,00,00*60
2017-12-14 12:29:17 1513272557.669935: $GPGGA,172918,3946.9284,N,08404.9440,W,1,07,6.60,296.16,M,-33.324,M,,*7F
2017-12-14 12:29:17 1513272557.670000: $GPRMC,172918,A,3946.9284,N,08404.9440,W,1.2991,235.213,141217,,*33
2017-12-14 12:29:17 1513272557.670062: $GPGSA,A,3,21,20,24,10,13,18,27,,,,,,6.6,6.6,6.2*3E
2017-12-14 12:29:18 1513272558.223500: $GPZDA,172919.00,14,12,2017,00,00*61
2017-12-14 12:29:18 1513272558.223669: $GPGGA,172919,3946.9318,N,08404.9423,W,1,07,1.80,296.46,M,-33.324,M,,*73
2017-12-14 12:29:18 1513272558.223735: $GPRMC,172919,A,3946.9318,N,08404.9423,W,0.5125,277.190,141217,,*3C
2017-12-14 12:29:18 1513272558.223798: $GPGSA,A,3,21,20,24,10,13,18,27,,,,,,6.6,1.8,6.2*37
2017-12-14 12:29:19 1513272559.223320: $GPZDA,172920.00,14,12,2017,00,00*6B
2017-12-14 12:29:19 1513272559.223509: $GPGGA,172920,3946.9327,N,08404.9430,W,1,07,1.80,297.66,M,-33.324,M,,*74
2017-12-14 12:29:19 1513272559.223580: $GPRMC,172920,A,3946.9327,N,08404.9430,W,0.9018,242.540,141217,,*34
2017-12-14 12:29:19 1513272559.223641: $GPGSA,A,3,21,20,24,10,13,18,27,,,,,,6.6,1.8,6.2*37
2017-12-14 12:29:20 1513272560.558287: $GPGSV,3,1,12,21,57,184,23,20,30,099,26,24,52,102,24,10,45,304,20*71
2017-12-14 12:29:20 1513272560.558482: $GPGSV,3,2,12,13,04,049,13,18,74,351,14,27,18,285,14,32,25,241,14*78
2017-12-14 12:29:20 1513272560.558550: $GPGSV,3,3,12,15,33,054,00,14,07,235,00,08,07,318,00,138,38,213,00*4D
2017-12-14 12:29:20 1513272560.671702: $GPZDA,172921.00,14,12,2017,00,00*6A
2017-12-14 12:29:20 1513272560.671876: $GPGGA,172921,3946.9327,N,08404.9424,W,1,08,1.80,299.14,M,-33.324,M,,*74
2017-12-14 12:29:20 1513272560.671943: $GPRMC,172921,A,3946.9327,N,08404.9424,W,0.9688,217.042,141217,,*38
2017-12-14 12:29:20 1513272560.672004: $GPGSA,A,3,21,20,24,10,13,18,27,32,,,,,6.6,1.8,6.2*36
2017-12-14 12:29:21 1513272561.223159: $GPZDA,172922.00,14,12,2017,00,00*69
2017-12-14 12:29:21 1513272561.223332: $GPGGA,172922,3946.9324,N,08404.9425,W,1,08,1.80,299.91,M,-33.324,M,,*78
2017-12-14 12:29:21 1513272561.223455: $GPRMC,172922,A,3946.9324,N,08404.9425,W,1.3675,195.564,141217,,*38
2017-12-14 12:29:21 1513272561.223521: $GPGSA,A,3,21,20,24,10,13,18,27,32,,,,,6.6,1.8,6.2*36
2017-12-14 12:29:22 1513272562.223571: $GPZDA,172923.00,14,12,2017,00,00*68
2017-12-14 12:29:22 1513272562.223737: $GPGGA,172923,3946.9323,N,08404.9418,W,1,08,1.80,299.99,M,-33.324,M,,*78
2017-12-14 12:29:22 1513272562.223804: $GPRMC,172923,A,3946.9323,N,08404.9418,W,1.2700,162.440,141217,,*3D
2017-12-14 12:29:22 1513272562.223865: $GPGSA,A,3,21,20,24,10,13,18,27,32,,,,,6.6,1.8,6.2*36
2017-12-14 12:29:23 1513272563.560114: $GPGSV,3,1,12,21,57,184,23,20,30,099,26,24,52,102,24,10,45,304,20*71
2017-12-14 12:29:23 1513272563.560284: $GPGSV,3,2,12,13,04,049,12,18,74,351,14,27,18,285,13,32,25,241,12*78
2017-12-14 12:29:23 1513272563.560350: $GPGSV,3,3,12,08,07,318,12,15,33,054,00,14,07,235,00,138,38,213,00*4E
2017-12-14 12:29:23 1513272563.673554: $GPZDA,172924.00,14,12,2017,00,00*6F
2017-12-14 12:29:23 1513272563.673727: $GPGGA,172924,3946.9320,N,08404.9418,W,1,08,1.80,300.75,M,-33.324,M,,*7F
2017-12-14 12:29:23 1513272563.673796: $GPRMC,172924,A,3946.9320,N,08404.9418,W,1.2031,173.247,141217,,*3D
2017-12-14 12:29:23 1513272563.673856: $GPGSA,A,3,21,20,24,10,13,18,27,32,,,,,6.6,1.8,6.2*36
2017-12-14 12:29:24 1513272564.224849: $GPZDA,172925.00,14,12,2017,00,00*6E
2017-12-14 12:29:24 1513272564.225023: $GPGGA,172925,3946.9320,N,08404.9418,W,1,08,1.80,300.75,M,-33.324,M,,*7E
2017-12-14 12:29:24 1513272564.225091: $GPRMC,172925,A,3946.9320,N,08404.9418,W,1.2700,162.440,141217,,*38
2017-12-14 12:29:24 1513272564.225156: $GPGSA,A,3,21,20,24,10,13,18,27,32,,,,,6.6,1.8,6.2*36
2017-12-14 12:29:25 1513272565.223714: $GPZDA,172926.00,14,12,2017,00,00*6D
2017-12-14 12:29:25 1513272565.223883: $GPGGA,172926,3946.9327,N,08404.9411,W,1,08,1.80,300.71,M,-33.324,M,,*77
2017-12-14 12:29:25 1513272565.223950: $GPRMC,172926,A,3946.9327,N,08404.9411,W,0.8695,168.958,141217,,*3D
2017-12-14 12:29:25 1513272565.224012: $GPGSA,A,3,21,20,24,10,13,18,27,32,,,,,6.6,1.8,6.2*36
2017-12-14 12:29:26 1513272566.561212: $GPGSV,3,1,12,21,57,184,22,20,30,099,26,24,52,102,23,10,45,304,20*77
2017-12-14 12:29:26 1513272566.561396: $GPGSV,3,2,12,13,04,049,13,18,74,351,13,27,18,285,16,32,25,241,13*7A
2017-12-14 12:29:26 1513272566.561462: $GPGSV,3,3,12,08,07,318,11,15,33,054,00,14,07,235,00,138,38,213,00*4D
2017-12-14 12:29:26 1513272566.675021: $GPZDA,172927.00,14,12,2017,00,00*6C
2017-12-14 12:29:26 1513272566.675201: $GPGGA,172927,3946.9335,N,08404.9411,W,1,09,1.80,301.98,M,-33.324,M,,*72
2017-12-14 12:29:26 1513272566.675268: $GPRMC,172927,A,3946.9335,N,08404.9411,W,0.3423,184.197,141217,,*32
2017-12-14 12:29:26 1513272566.675329: $GPGSA,A,3,21,20,24,10,13,18,27,32,8,,,,6.6,1.8,6.2*0E
2017-12-14 12:29:27 1513272567.224871: $GPZDA,172928.00,14,12,2017,00,00*63
2017-12-14 12:29:27 1513272567.225064: $GPGGA,172928,3946.9335,N,08404.9411,W,1,09,1.80,301.98,M,-33.324,M,,*7D
2017-12-14 12:29:27 1513272567.225139: $GPRMC,172928,A,3946.9335,N,08404.9411,W,0.4179,148.778,141217,,*37
2017-12-14 12:29:27 1513272567.225201: $GPGSA,A,3,21,20,24,10,13,18,27,32,8,,,,6.6,1.8,6.2*0E
2017-12-14 12:29:28 1513272568.225906: $GPZDA,172929.00,14,12,2017,00,00*62
2017-12-14 12:29:28 1513272568.226097: $GPGGA,172929,3946.9339,N,08404.9404,W,1,09,1.80,302.70,M,-33.324,M,,*71
2017-12-14 12:29:28 1513272568.226172: $GPRMC,172929,A,3946.9339,N,08404.9404,W,0.7238,140.710,141217,,*3D
2017-12-14 12:29:28 1513272568.226236: $GPGSA,A,3,21,20,24,10,13,18,27,32,8,,,,6.6,1.8,6.2*0E
2017-12-14 12:29:29 1513272569.559337: $GPGSV,3,1,12,21,57,184,22,20,30,099,26,24,52,102,24,10,45,304,20*70
2017-12-14 12:29:29 1513272569.559514: $GPGSV,3,2,12,13,04,049,13,18,74,351,14,27,18,285,16,32,25,241,13*7D
2017-12-14 12:29:29 1513272569.559578: $GPGSV,3,3,12,08,07,318,11,15,33,054,00,14,07,235,00,138,38,213,00*4D
2017-12-14 12:29:29 1513272569.672960: $GPZDA,172930.00,14,12,2017,00,00*6A
2017-12-14 12:29:29 1513272569.673120: $GPGGA,172930,3946.9339,N,08404.9404,W,1,09,1.80,302.70,M,-33.324,M,,*79
2017-12-14 12:29:29 1513272569.673238: $GPRMC,172930,A,3946.9339,N,08404.9404,W,0.4207,219.347,141217,,*33
2017-12-14 12:29:29 1513272569.673300: $GPGSA,A,3,21,20,24,10,13,18,27,32,8,,,,6.6,1.8,6.2*0E
2017-12-14 12:29:30 1513272570.224069: $GPZDA,172931.00,14,12,2017,00,00*6B
2017-12-14 12:29:30 1513272570.224247: $GPGGA,172931,3946.9343,N,08404.9404,W,1,09,1.80,303.34,M,-33.324,M,,*74
2017-12-14 12:29:30 1513272570.224313: $GPRMC,172931,A,3946.9343,N,08404.9404,W,0.1567,189.201,141217,,*32
2017-12-14 12:29:30 1513272570.224374: $GPGSA,A,3,21,20,24,10,13,18,27,32,8,,,,6.6,1.8,6.2*0E
2017-12-14 12:29:31 1513272571.224205: $GPZDA,172932.00,14,12,2017,00,00*68
2017-12-14 12:29:31 1513272571.224375: $GPGGA,172932,3946.9351,N,08404.9396,W,1,09,1.80,303.30,M,-33.324,M,,*7C
2017-12-14 12:29:31 1513272571.224440: $GPRMC,172932,A,3946.9351,N,08404.9396,W,0.4844,93.795,141217,,*05
2017-12-14 12:29:31 1513272571.224502: $GPGSA,A,3,21,20,24,10,13,18,27,32,8,,,,6.6,1.8,6.2*0E
2017-12-14 12:29:32 1513272572.560441: $GPGSV,3,1,12,21,57,184,22,20,30,099,26,24,52,102,24,10,45,304,21*71
2017-12-14 12:29:32 1513272572.560619: $GPGSV,3,2,12,13,04,049,13,18,74,351,14,27,18,285,17,32,25,241,12*7D
2017-12-14 12:29:32 1513272572.560684: $GPGSV,3,3,12,08,07,318,11,15,33,054,00,14,07,235,00,138,38,213,00*4D
2017-12-14 12:29:32 1513272572.672907: $GPZDA,172933.00,14,12,2017,00,00*69
2017-12-14 12:29:32 1513272572.673078: $GPGGA,172933,3946.9355,N,08404.9396,W,1,09,1.80,303.94,M,-33.324,M,,*77
2017-12-14 12:29:32 1513272572.673150: $GPRMC,172933,A,3946.9355,N,08404.9396,W,0.5287,2.716,141217,,*37
2017-12-14 12:29:32 1513272572.673212: $GPGSA,A,3,21,20,24,10,13,18,27,32,8,,,,6.6,1.8,6.2*0E
2017-12-14 12:29:33 1513272573.224815: $GPZDA,172934.00,14,12,2017,00,00*6E
2017-12-14 12:29:33 1513272573.224979: $GPGGA,172934,3946.9359,N,08404.9396,W,1,09,1.80,304.58,M,-33.324,M,,*7B
2017-12-14 12:29:33 1513272573.225047: $GPRMC,172934,A,3946.9359,N,08404.9396,W,0.9060,347.792,141217,,*35
2017-12-14 12:29:33 1513272573.225112: $GPGSA,A,3,21,20,24,10,13,18,27,32,8,,,,6.6,1.8,6.2*0E
2017-12-14 12:29:34 1513272574.223835: $GPZDA,172935.00,14,12,2017,00,00*6F
2017-12-14 12:29:34 1513272574.224025: $GPGGA,172935,3946.9366,N,08404.9395,W,1,09,1.80,304.45,M,-33.324,M,,*79
2017-12-14 12:29:34 1513272574.224096: $GPRMC,172935,A,3946.9366,N,08404.9395,W,0.9060,347.792,141217,,*3B
2017-12-14 12:29:34 1513272574.224157: $GPGSA,A,3,21,20,24,10,13,18,27,32,8,,,,6.6,1.8,6.2*0E
