2017-12-01 15:45:18 1512161118.867021: {"class":"VERSION","release":"3.16","rev":"3.16-4","proto_major":3,"proto_minor":11}
2017-12-01 15:45:18 1512161118.867548: {"class":"DEVICES","devices":[{"class":"DEVICE","path":"/dev/ttyUSB0","driver":"SiRF","subtype":"9\u0006GSD4e_4.1.2-P1_RPATCH.05-F-GPS-4R-1510281 11/03/2015 307","activated":"2017-12-01T20:45:18.816Z","flags":1,"native":1,"bps":4800,"parity":"N","stopbits":1,"cycle":1.00}]}
2017-12-01 15:45:18 1512161118.867677: {"class":"WATCH","enable":true,"json":false,"nmea":true,"raw":0,"scaled":false,"timing":false,"split24":false,"pps":false}
2017-12-01 15:45:18 1512161118.994604: $GPZDA,204519.66,01,12,2017,00,00*6B
2017-12-01 15:45:18 1512161118.994777: $GPGGA,204519,3946.9595,N,08404.9821,W,1,12,0.80,306.70,M,-33.324,M,,*78
2017-12-01 15:45:18 1512161118.994843: $GPRMC,204519,A,3946.9595,N,08404.9821,W,0.5617,31.295,011217,,*0B
2017-12-01 15:45:18 1512161118.994904: $GPGSA,A,3,1,10,11,12,14,18,22,24,25,31,32,138,2.0,0.8,1.5*3B
2017-12-01 15:45:20 1512161120.076100: $GPZDA,204520.34,01,12,2017,00,00*66
2017-12-01 15:45:20 1512161120.076270: $GPGGA,204520,3946.9595,N,08404.9821,W,1,12,0.80,306.70,M,-33.324,M,,*72
2017-12-01 15:45:20 1512161120.076338: $GPRMC,204520,A,3946.9595,N,08404.9821,W,0.3423,4.197,011217,,*35
2017-12-01 15:45:20 1512161120.076399: $GPGSA,A,3,1,10,11,12,14,18,22,24,25,31,32,138,2.0,0.8,1.5*3B
2017-12-01 15:45:20 1512161120.076458: $GPGBS,204520,10.70,M,15.43,M,35.28,M*06
2017-12-01 15:45:21 1512161121.218659: $GPGSV,3,1,12,01,14,318,38,10,69,132,48,11,11,301,35,12,25,072,38*71
2017-12-01 15:45:21 1512161121.218836: $GPGSV,3,2,12,14,55,292,42,18,37,135,47,22,03,310,36,24,14,045,34*79
2017-12-01 15:45:21 1512161121.218903: $GPGSV,3,3,12,25,30,114,42,31,35,211,49,32,68,330,50,138,38,213,44*4C
2017-12-01 15:45:21 1512161121.332075: $GPZDA,204521.00,01,12,2017,00,00*60
2017-12-01 15:45:21 1512161121.332257: $GPGGA,204521,3946.9595,N,08404.9821,W,1,12,0.80,306.70,M,-33.324,M,,*73
2017-12-01 15:45:21 1512161121.332325: $GPRMC,204521,A,3946.9595,N,08404.9821,W,0.1567,9.200,011217,,*37
2017-12-01 15:45:21 1512161121.332385: $GPGSA,A,3,1,10,11,12,14,18,22,24,25,31,32,138,2.0,0.8,1.5*3B
2017-12-01 15:45:21 1512161121.783041: $GPZDA,204522.00,01,12,2017,00,00*63
2017-12-01 15:45:21 1512161121.783221: $GPGGA,204522,3946.9595,N,08404.9820,W,1,12,0.80,305.29,M,-33.324,M,,*7E
2017-12-01 15:45:21 1512161121.783289: $GPRMC,204522,A,3946.9595,N,08404.9820,W,0.1567,9.200,011217,,*35
2017-12-01 15:45:21 1512161121.783350: $GPGSA,A,3,1,10,11,12,14,18,22,24,25,31,32,138,2.0,0.8,1.5*3B
2017-12-01 15:45:22 1512161122.381586: $GPZDA,204523.00,01,12,2017,00,00*62
2017-12-01 15:45:22 1512161122.381758: $GPGGA,204523,3946.9595,N,08404.9820,W,1,12,0.80,305.29,M,-33.324,M,,*7F
2017-12-01 15:45:22 1512161122.381824: $GPRMC,204523,A,3946.9595,N,08404.9820,W,0.1567,189.200,011217,,*3D
2017-12-01 15:45:22 1512161122.381885: $GPGSA,A,3,1,10,11,12,14,18,22,24,25,31,32,138,2.0,0.8,1.5*3B
2017-12-01 15:45:23 1512161123.717798: $GPGSV,3,1,12,01,14,318,37,10,69,132,48,11,11,301,36,12,25,072,38*7D
2017-12-01 15:45:23 1512161123.721586: $GPGSV,3,2,12,14,55,292,42,18,37,135,48,22,03,310,28,24,14,045,36*7B
2017-12-01 15:45:23 1512161123.721692: $GPGSV,3,3,12,25,30,114,41,31,35,211,49,32,68,330,50,138,38,213,46*4D
2017-12-01 15:45:23 1512161123.831834: $GPZDA,204524.00,01,12,2017,00,00*65
2017-12-01 15:45:23 1512161123.832022: $GPGGA,204524,3946.9594,N,08404.9819,W,1,12,0.80,303.89,M,-33.324,M,,*7F
2017-12-01 15:45:23 1512161123.832091: $GPRMC,204524,A,3946.9594,N,08404.9819,W,0.0000,0.000,011217,,*36
2017-12-01 15:45:23 1512161123.832152: $GPGSA,A,3,1,10,11,12,14,18,22,24,25,31,32,138,2.0,0.8,1.5*3B
2017-12-01 15:45:24 1512161124.382124: $GPZDA,204525.00,01,12,2017,00,00*64
2017-12-01 15:45:24 1512161124.382309: $GPGGA,204525,3946.9594,N,08404.9825,W,1,12,0.80,302.40,M,-33.324,M,,*75
2017-12-01 15:45:24 1512161124.382377: $GPRMC,204525,A,3946.9594,N,08404.9825,W,0.0000,0.000,011217,,*38
2017-12-01 15:45:24 1512161124.382438: $GPGSA,A,3,1,10,11,12,14,18,22,24,25,31,32,138,2.0,0.8,1.5*3B
2017-12-01 15:45:25 1512161125.381655: $GPZDA,204526.00,01,12,2017,00,00*67
2017-12-01 15:45:25 1512161125.381829: $GPGGA,204526,3946.9594,N,08404.9825,W,1,12,0.80,302.40,M,-33.324,M,,*76
2017-12-01 15:45:25 1512161125.381897: $GPRMC,204526,A,3946.9594,N,08404.9825,W,0.0000,0.000,011217,,*3B
2017-12-01 15:45:25 1512161125.381958: $GPGSA,A,3,1,10,11,12,14,18,22,24,25,31,32,138,2.0,0.8,1.5*3B
2017-12-01 15:45:25 1512161125.382017: $GPGBS,204526,10.70,M,15.43,M,35.28,M*00
2017-12-01 15:45:26 1512161126.717313: $GPGSV,3,1,12,01,14,318,37,10,69,132,47,11,11,301,36,12,25,072,38*72
2017-12-01 15:45:26 1512161126.717494: $GPGSV,3,2,12,14,55,292,43,18,37,135,48,22,03,310,38,24,14,045,37*7A
2017-12-01 15:45:26 1512161126.717562: $GPGSV,3,3,12,25,30,114,41,31,35,211,49,32,68,330,49,138,38,213,47*44
2017-12-01 15:45:26 1512161126.830725: $GPZDA,204527.00,01,12,2017,00,00*66
2017-12-01 15:45:26 1512161126.830900: $GPGGA,204527,3946.9593,N,08404.9825,W,1,12,0.80,301.00,M,-33.324,M,,*77
2017-12-01 15:45:26 1512161126.830968: $GPRMC,204527,A,3946.9593,N,08404.9825,W,0.0000,0.000,011217,,*3D
2017-12-01 15:45:26 1512161126.831029: $GPGSA,A,3,1,10,11,12,14,18,22,24,25,31,32,138,2.0,0.8,1.5*3B
2017-12-01 15:45:27 1512161127.383243: $GPZDA,204528.00,01,12,2017,00,00*69
2017-12-01 15:45:27 1512161127.383400: $GPGGA,204528,3946.9593,N,08404.9825,W,1,12,0.80,301.00,M,-33.324,M,,*78
2017-12-01 15:45:27 1512161127.383464: $GPRMC,204528,A,3946.9593,N,08404.9825,W,0.0000,0.000,011217,,*32
2017-12-01 15:45:27 1512161127.383525: $GPGSA,A,3,1,10,11,12,14,18,22,24,25,31,32,138,2.0,0.8,1.5*3B
2017-12-01 15:45:28 1512161128.383234: $GPZDA,204529.00,01,12,2017,00,00*68
2017-12-01 15:45:28 1512161128.383414: $GPGGA,204529,3946.9586,N,08404.9842,W,2,12,1.20,293.10,M,-33.324,M,,*7F
2017-12-01 15:45:28 1512161128.383482: $GPRMC,204529,A,3946.9586,N,08404.9842,W,0.0000,0.000,011217,,*36
2017-12-01 15:45:28 1512161128.383544: $GPGSA,A,3,1,10,11,12,14,18,22,24,25,31,32,138,2.0,1.2,1.5*30
2017-12-01 15:45:29 1512161129.718882: $GPGSV,3,1,12,01,14,318,37,10,69,132,47,11,11,301,30,12,25,072,39*75
2017-12-01 15:45:29 1512161129.719076: $GPGSV,3,2,12,14,55,292,43,18,37,135,48,22,03,310,36,24,14,045,38*7B
2017-12-01 15:45:29 1512161129.719144: $GPGSV,3,3,12,25,30,114,41,31,35,211,49,32,68,330,49,138,38,213,46*45
2017-12-01 15:45:29 1512161129.832382: $GPZDA,204530.00,01,12,2017,00,00*60
2017-12-01 15:45:29 1512161129.832561: $GPGGA,204530,3946.9586,N,08404.9842,W,2,12,0.80,293.10,M,-33.324,M,,*7C
2017-12-01 15:45:29 1512161129.832628: $GPRMC,204530,A,3946.9586,N,08404.9842,W,0.0000,0.000,011217,,*3E
2017-12-01 15:45:29 1512161129.832689: $GPGSA,A,3,1,10,11,12,14,18,22,24,25,31,32,138,2.0,0.8,1.5*3B
2017-12-01 15:45:30 1512161130.384424: $GPZDA,204531.00,01,12,2017,00,00*61
2017-12-01 15:45:30 1512161130.384603: $GPGGA,204531,3946.9586,N,08404.9842,W,2,12,0.80,293.10,M,-33.324,M,,*7D
2017-12-01 15:45:30 1512161130.384671: $GPRMC,204531,A,3946.9586,N,08404.9842,W,0.0000,0.000,011217,,*3F
2017-12-01 15:45:30 1512161130.384733: $GPGSA,A,3,1,10,11,12,14,18,22,24,25,31,32,138,2.0,0.8,1.5*3B
2017-12-01 15:45:31 1512161131.382883: $GPZDA,204532.00,01,12,2017,00,00*62
2017-12-01 15:45:31 1512161131.383057: $GPGGA,204532,3946.9586,N,08404.9842,W,2,12,0.80,293.10,M,-33.324,M,,*7E
2017-12-01 15:45:31 1512161131.383125: $GPRMC,204532,A,3946.9586,N,08404.9842,W,0.0000,0.000,011217,,*3C
2017-12-01 15:45:31 1512161131.383185: $GPGSA,A,3,1,10,11,12,14,18,22,24,25,31,32,138,2.0,0.8,1.5*3B
2017-12-01 15:45:32 1512161132.718433: $GPGSV,3,1,12,01,14,318,37,10,69,132,47,11,11,301,32,12,25,072,39*77
2017-12-01 15:45:32 1512161132.718614: $GPGSV,3,2,12,14,55,292,42,18,37,135,48,22,03,310,32,24,14,045,38*7E
2017-12-01 15:45:32 1512161132.718680: $GPGSV,3,3,12,25,30,114,41,31,35,211,49,32,68,330,49,138,38,213,46*45
2017-12-01 15:45:32 1512161132.830923: $GPZDA,204533.00,01,12,2017,00,00*63
2017-12-01 15:45:32 1512161132.831081: $GPGGA,204533,3946.9586,N,08404.9842,W,2,12,0.80,293.10,M,-33.324,M,,*7F
2017-12-01 15:45:32 1512161132.831146: $GPRMC,204533,A,3946.9586,N,08404.9842,W,0.0000,0.000,011217,,*3D
2017-12-01 15:45:32 1512161132.831255: $GPGSA,A,3,1,10,11,12,14,18,22,24,25,31,32,138,2.0,0.8,1.5*3B
2017-12-01 15:45:33 1512161133.456098: $GPZDA,204534.00,01,12,2017,00,00*64
2017-12-01 15:45:33 1512161133.456257: $GPGGA,204534,3946.9586,N,08404.9835,W,2,12,0.80,293.18,M,-33.324,M,,*70
2017-12-01 15:45:33 1512161133.456323: $GPRMC,204534,A,3946.9586,N,08404.9835,W,0.0000,0.000,011217,,*3A
2017-12-01 15:45:33 1512161133.456384: $GPGSA,A,3,1,10,11,12,14,18,22,24,25,31,32,138,2.0,0.8,1.5*3B
2017-12-01 15:45:34 1512161134.380723: $GPZDA,204535.00,01,12,2017,00,00*65
2017-12-01 15:45:34 1512161134.380897: $GPGGA,204535,3946.9590,N,08404.9835,W,2,12,0.80,293.82,M,-33.324,M,,*75
2017-12-01 15:45:34 1512161134.380964: $GPRMC,204535,A,3946.9590,N,08404.9835,W,0.0000,0.000,011217,,*3C
2017-12-01 15:45:34 1512161134.381025: $GPGSA,A,3,1,10,11,12,14,18,22,24,25,31,32,138,2.0,0.8,1.5*3B
2017-12-01 15:45:35 1512161135.716482: $GPGSV,3,1,12,01,14,318,38,10,69,132,47,11,11,301,35,12,25,072,38*7E
2017-12-01 15:45:35 1512161135.716667: $GPGSV,3,2,12,14,55,292,42,18,37,135,48,22,03,310,39,24,14,045,37*7A
2017-12-01 15:45:35 1512161135.716734: $GPGSV,3,3,12,25,30,114,41,31,35,211,49,32,68,330,48,138,38,213,47*45
2017-12-01 15:45:35 1512161135.828609: $GPZDA,204536.00,01,12,2017,00,00*66
2017-12-01 15:45:35 1512161135.828756: $GPGGA,204536,3946.9590,N,08404.9841,W,2,12,0.80,292.34,M,-33.324,M,,*79
2017-12-01 15:45:35 1512161135.828821: $GPRMC,204536,A,3946.9590,N,08404.9841,W,0.0000,0.000,011217,,*3C
2017-12-01 15:45:35 1512161135.828881: $GPGSA,A,3,1,10,11,12,14,18,22,24,25,31,32,138,2.0,0.8,1.5*3B
2017-12-01 15:45:36 1512161136.383319: $GPZDA,204537.00,01,12,2017,00,00*67
2017-12-01 15:45:36 1512161136.383507: $GPGGA,204537,3946.9586,N,08404.9842,W,2,12,0.80,293.10,M,-33.324,M,,*7B
2017-12-01 15:45:36 1512161136.383579: $GPRMC,204537,A,3946.9586,N,08404.9842,W,0.0000,0.000,011217,,*39
2017-12-01 15:45:36 1512161136.383658: $GPGSA,A,3,1,10,11,12,14,18,22,24,25,31,32,138,2.0,0.8,1.5*3B
2017-12-01 15:45:37 1512161137.385243: $GPZDA,204538.00,01,12,2017,00,00*68
2017-12-01 15:45:37 1512161137.385428: $GPGGA,204538,3946.9586,N,08404.9842,W,2,12,0.80,293.10,M,-33.324,M,,*74
2017-12-01 15:45:37 1512161137.385496: $GPRMC,204538,A,3946.9586,N,08404.9842,W,0.0000,0.000,011217,,*36
2017-12-01 15:45:37 1512161137.385557: $GPGSA,A,3,1,10,11,12,14,18,22,24,25,31,32,138,2.0,0.8,1.5*3B
2017-12-01 15:45:37 1512161137.385615: $GPGBS,204538,2.67,M,3.86,M,8.82,M*3A
2017-12-01 15:45:38 1512161138.717969: $GPGSV,3,1,12,01,14,318,37,10,69,132,47,11,11,301,36,12,25,072,38*72
2017-12-01 15:45:38 1512161138.718157: $GPGSV,3,2,12,14,55,292,42,18,37,135,48,22,03,310,38,24,14,045,37*7B
2017-12-01 15:45:38 1512161138.718225: $GPGSV,3,3,12,25,30,114,42,31,35,211,49,32,68,330,48,138,38,213,46*47
2017-12-01 15:45:38 1512161138.830095: $GPZDA,204539.00,01,12,2017,00,00*69
2017-12-01 15:45:38 1512161138.830271: $GPGGA,204539,3946.9586,N,08404.9842,W,2,12,0.80,293.10,M,-33.324,M,,*75
2017-12-01 15:45:38 1512161138.830338: $GPRMC,204539,A,3946.9586,N,08404.9842,W,0.0000,0.000,011217,,*37
2017-12-01 15:45:38 1512161138.830399: $GPGSA,A,3,1,10,11,12,14,18,22,24,25,31,32,138,2.0,0.8,1.5*3B
