2017-12-01 14:44:10 1512157450.473803: {"class":"VERSION","release":"3.16","rev":"3.16-4","proto_major":3,"proto_minor":11}
2017-12-01 14:44:10 1512157450.474194: {"class":"DEVICES","devices":[{"class":"DEVICE","path":"/dev/ttyUSB0","driver":"SiRF","subtype":"9\u0006GSD4e_4.1.2-P1_RPATCH.05-F-GPS-4R-1510281 11/03/2015 307","activated":"2017-12-01T19:44:10.238Z","flags":1,"native":1,"bps":4800,"parity":"N","stopbits":1,"cycle":1.00}]}
2017-12-01 14:44:10 1512157450.474330: {"class":"WATCH","enable":true,"json":false,"nmea":true,"raw":0,"scaled":false,"timing":false,"split24":false,"pps":false}
2017-12-01 14:44:10 1512157450.688202: $GPGSV,3,1,12,10,77,349,47,14,36,261,43,18,63,111,46,21,19,177,45*72
2017-12-01 14:44:10 1512157450.688393: $GPGSV,3,2,12,24,38,051,48,25,09,136,30,32,53,277,45,08,03,286,29*7F
2017-12-01 14:44:10 1512157450.688460: $GPGSV,3,3,12,12,15,099,36,15,05,072,19,31,08,204,30,138,38,213,47*49
2017-12-01 14:44:10 1512157450.801676: $GPZDA,194411.00,01,12,2017,00,00*68
2017-12-01 14:44:10 1512157450.801844: $GPGGA,194411,3946.9587,N,08404.9863,W,2,12,1.00,292.86,M,-33.324,M,,*71
2017-12-01 14:44:10 1512157450.801912: $GPRMC,194411,A,3946.9587,N,08404.9863,W,0.0000,0.000,011217,,*34
2017-12-01 14:44:10 1512157450.801973: $GPGSA,A,3,10,14,18,21,24,25,32,8,12,15,31,138,2.0,1.0,1.5*3C
2017-12-01 14:44:11 1512157451.426971: $GPZDA,194412.00,01,12,2017,00,00*6B
2017-12-01 14:44:11 1512157451.427154: $GPGGA,194412,3946.9587,N,08404.9863,W,2,12,1.00,292.86,M,-33.324,M,,*72
2017-12-01 14:44:11 1512157451.427224: $GPRMC,194412,A,3946.9587,N,08404.9863,W,0.0000,0.000,011217,,*37
2017-12-01 14:44:11 1512157451.427286: $GPGSA,A,3,10,14,18,21,24,25,32,8,12,15,31,138,2.0,1.0,1.5*3C
2017-12-01 14:44:12 1512157452.349089: $GPZDA,194413.00,01,12,2017,00,00*6A
2017-12-01 14:44:12 1512157452.349273: $GPGGA,194413,3946.9587,N,08404.9863,W,2,12,1.00,292.86,M,-33.324,M,,*73
2017-12-01 14:44:12 1512157452.349343: $GPRMC,194413,A,3946.9587,N,08404.9863,W,0.0000,0.000,011217,,*36
2017-12-01 14:44:12 1512157452.349409: $GPGSA,A,3,10,14,18,21,24,25,32,8,12,15,31,138,2.0,1.0,1.5*3C
2017-12-01 14:44:13 1512157453.687435: $GPGSV,3,1,12,10,77,349,47,14,36,261,43,18,63,111,46,21,19,177,45*72
2017-12-01 14:44:13 1512157453.687616: $GPGSV,3,2,12,24,38,051,48,25,09,136,30,32,53,277,44,08,03,286,28*7F
2017-12-01 14:44:13 1512157453.687683: $GPGSV,3,3,12,12,15,099,36,15,05,072,18,31,08,204,30,138,38,213,47*48
2017-12-01 14:44:13 1512157453.800755: $GPZDA,194414.00,01,12,2017,00,00*6D
2017-12-01 14:44:13 1512157453.800905: $GPGGA,194414,3946.9587,N,08404.9863,W,2,12,1.00,292.86,M,-33.324,M,,*74
2017-12-01 14:44:13 1512157453.800971: $GPRMC,194414,A,3946.9587,N,08404.9863,W,0.0000,0.000,011217,,*31
2017-12-01 14:44:13 1512157453.801034: $GPGSA,A,3,10,14,18,21,24,25,32,8,12,15,31,138,2.0,1.0,1.5*3C
2017-12-01 14:44:14 1512157454.354104: $GPZDA,194415.00,01,12,2017,00,00*6C
2017-12-01 14:44:14 1512157454.354290: $GPGGA,194415,3946.9587,N,08404.9863,W,2,12,1.00,292.86,M,-33.324,M,,*75
2017-12-01 14:44:14 1512157454.354357: $GPRMC,194415,A,3946.9587,N,08404.9863,W,0.0000,0.000,011217,,*30
2017-12-01 14:44:14 1512157454.354422: $GPGSA,A,3,10,14,18,21,24,25,32,8,12,15,31,138,2.0,1.0,1.5*3C
2017-12-01 14:44:15 1512157455.350353: $GPZDA,194416.00,01,12,2017,00,00*6F
2017-12-01 14:44:15 1512157455.350549: $GPGGA,194416,3946.9587,N,08404.9856,W,2,12,1.00,292.94,M,-33.324,M,,*73
2017-12-01 14:44:15 1512157455.350621: $GPRMC,194416,A,3946.9587,N,08404.9856,W,0.0000,0.000,011217,,*35
2017-12-01 14:44:15 1512157455.350685: $GPGSA,A,3,10,14,18,21,24,25,32,8,12,15,31,138,2.0,1.0,1.5*3C
2017-12-01 14:44:16 1512157456.687708: $GPGSV,3,1,12,10,77,349,47,14,36,261,43,18,63,111,46,21,19,177,44*73
2017-12-01 14:44:16 1512157456.687899: $GPGSV,3,2,12,24,38,051,47,25,09,136,30,32,53,277,44,08,03,286,28*70
2017-12-01 14:44:16 1512157456.687969: $GPGSV,3,3,12,12,15,099,36,15,05,072,17,31,08,204,30,138,38,213,46*46
2017-12-01 14:44:16 1512157456.801568: $GPZDA,194417.00,01,12,2017,00,00*6E
2017-12-01 14:44:16 1512157456.801736: $GPGGA,194417,3946.9587,N,08404.9856,W,2,12,1.00,292.94,M,-33.324,M,,*72
2017-12-01 14:44:16 1512157456.801856: $GPRMC,194417,A,3946.9587,N,08404.9856,W,0.0000,0.000,011217,,*34
2017-12-01 14:44:16 1512157456.801920: $GPGSA,A,3,10,14,18,21,24,25,32,8,12,15,31,138,2.0,1.0,1.5*3C
2017-12-01 14:44:17 1512157457.349831: $GPZDA,194418.00,01,12,2017,00,00*61
2017-12-01 14:44:17 1512157457.350006: $GPGGA,194418,3946.9587,N,08404.9856,W,2,12,1.00,292.94,M,-33.324,M,,*7D
2017-12-01 14:44:17 1512157457.350072: $GPRMC,194418,A,3946.9587,N,08404.9856,W,0.0000,0.000,011217,,*3B
2017-12-01 14:44:17 1512157457.350134: $GPGSA,A,3,10,14,18,21,24,25,32,8,12,15,31,138,2.0,1.0,1.5*3C
2017-12-01 14:44:18 1512157458.350392: $GPZDA,194419.00,01,12,2017,00,00*60
2017-12-01 14:44:18 1512157458.350560: $GPGGA,194419,3946.9587,N,08404.9856,W,2,12,1.20,292.94,M,-33.324,M,,*7E
2017-12-01 14:44:18 1512157458.350629: $GPRMC,194419,A,3946.9587,N,08404.9856,W,0.0000,0.000,011217,,*3A
2017-12-01 14:44:18 1512157458.350690: $GPGSA,A,3,10,14,18,21,24,25,32,8,12,15,31,138,2.0,1.2,1.5*3E
2017-12-01 14:44:20 1512157460.239971: $GPGSV,3,1,12,10,78,351,46,14,36,261,43,18,63,111,46,21,19,177,44*74
2017-12-01 14:44:20 1512157460.240171: $GPGSV,3,2,12,24,37,051,47,25,09,136,30,32,53,277,44,08,02,285,28*7D
2017-12-01 14:44:20 1512157460.240243: $GPGSV,3,3,12,12,15,099,37,11,02,324,29,31,08,204,30,138,38,213,47*48
2017-12-01 14:44:20 1512157460.353315: $GPZDA,194420.00,01,12,2017,00,00*6A
2017-12-01 14:44:20 1512157460.353478: $GPGGA,194420,3946.9587,N,08404.9863,W,2,12,1.20,292.86,M,-33.324,M,,*71
2017-12-01 14:44:20 1512157460.353549: $GPRMC,194420,A,3946.9587,N,08404.9863,W,0.0000,0.000,011217,,*36
2017-12-01 14:44:20 1512157460.353613: $GPGSA,A,3,10,14,18,21,24,25,32,8,12,11,31,138,2.0,1.2,1.5*3A
2017-12-01 14:44:20 1512157460.805563: $GPZDA,194421.00,01,12,2017,00,00*6B
2017-12-01 14:44:20 1512157460.805747: $GPGGA,194421,3946.9587,N,08404.9863,W,2,12,1.20,292.86,M,-33.324,M,,*70
2017-12-01 14:44:20 1512157460.805818: $GPRMC,194421,A,3946.9587,N,08404.9863,W,0.0000,0.000,011217,,*37
2017-12-01 14:44:20 1512157460.805884: $GPGSA,A,3,10,14,18,21,24,25,32,8,12,11,31,138,2.0,1.2,1.5*3A
2017-12-01 14:44:21 1512157461.430907: $GPZDA,194422.00,01,12,2017,00,00*68
2017-12-01 14:44:21 1512157461.431091: $GPGGA,194422,3946.9587,N,08404.9863,W,2,12,1.20,292.86,M,-33.324,M,,*73
2017-12-01 14:44:21 1512157461.431163: $GPRMC,194422,A,3946.9587,N,08404.9863,W,0.0000,0.000,011217,,*34
2017-12-01 14:44:21 1512157461.431228: $GPGSA,A,3,10,14,18,21,24,25,32,8,12,11,31,138,2.0,1.2,1.5*3A
2017-12-01 14:44:22 1512157462.685315: $GPGSV,3,1,12,10,78,351,47,14,36,261,43,18,63,111,47,21,19,177,44*74
2017-12-01 14:44:22 1512157462.685509: $GPGSV,3,2,12,24,37,051,46,25,09,136,30,32,53,277,44,08,02,285,29*7D
2017-12-01 14:44:22 1512157462.685577: $GPGSV,3,3,12,12,15,099,38,11,02,324,29,31,08,204,29,138,38,213,47*4F
2017-12-01 14:44:22 1512157462.798646: $GPZDA,194423.00,01,12,2017,00,00*69
2017-12-01 14:44:22 1512157462.798794: $GPGGA,194423,3946.9587,N,08404.9863,W,2,12,1.20,292.86,M,-33.324,M,,*72
2017-12-01 14:44:22 1512157462.798864: $GPRMC,194423,A,3946.9587,N,08404.9863,W,0.0000,0.000,011217,,*35
2017-12-01 14:44:22 1512157462.798927: $GPGSA,A,3,10,14,18,21,24,25,32,8,12,11,31,138,2.0,1.2,1.5*3A
2017-12-01 14:44:23 1512157463.353346: $GPZDA,194424.00,01,12,2017,00,00*6E
2017-12-01 14:44:23 1512157463.353531: $GPGGA,194424,3946.9587,N,08404.9863,W,2,12,1.20,292.86,M,-33.324,M,,*75
2017-12-01 14:44:23 1512157463.353603: $GPRMC,194424,A,3946.9587,N,08404.9863,W,0.0000,0.000,011217,,*32
2017-12-01 14:44:23 1512157463.353668: $GPGSA,A,3,10,14,18,21,24,25,32,8,12,11,31,138,2.0,1.2,1.5*3A
2017-12-01 14:44:24 1512157464.349564: $GPZDA,194425.00,01,12,2017,00,00*6F
2017-12-01 14:44:24 1512157464.349747: $GPGGA,194425,3946.9587,N,08404.9863,W,2,12,1.20,292.86,M,-33.324,M,,*74
2017-12-01 14:44:24 1512157464.349817: $GPRMC,194425,A,3946.9587,N,08404.9863,W,0.0000,0.000,011217,,*33
2017-12-01 14:44:24 1512157464.349882: $GPGSA,A,3,10,14,18,21,24,25,32,8,12,11,31,138,2.0,1.2,1.5*3A
2017-12-01 14:44:26 1512157466.236315: $GPGSV,3,1,12,10,78,351,47,14,36,261,42,18,63,111,47,21,19,177,44*75
2017-12-01 14:44:26 1512157466.236488: $GPGSV,3,2,12,24,37,051,46,25,09,136,29,32,53,277,45,08,02,285,29*74
2017-12-01 14:44:26 1512157466.236555: $GPGSV,3,3,12,12,15,099,38,11,02,324,30,31,08,204,29,138,38,213,46*46
2017-12-01 14:44:26 1512157466.349696: $GPZDA,194426.00,01,12,2017,00,00*6C
2017-12-01 14:44:26 1512157466.349866: $GPGGA,194426,3946.9587,N,08404.9863,W,2,12,1.20,292.86,M,-33.324,M,,*77
2017-12-01 14:44:26 1512157466.349933: $GPRMC,194426,A,3946.9587,N,08404.9863,W,0.0000,0.000,011217,,*30
2017-12-01 14:44:26 1512157466.349995: $GPGSA,A,3,10,14,18,21,24,25,32,8,12,11,31,138,2.0,1.2,1.5*3A
2017-12-01 14:44:26 1512157466.975046: $GPZDA,194427.00,01,12,2017,00,00*6D
2017-12-01 14:44:26 1512157466.975240: $GPGGA,194427,3946.9587,N,08404.9863,W,2,12,1.20,292.86,M,-33.324,M,,*76
2017-12-01 14:44:26 1512157466.975314: $GPRMC,194427,A,3946.9587,N,08404.9863,W,0.0000,0.000,011217,,*31
2017-12-01 14:44:26 1512157466.975379: $GPGSA,A,3,10,14,18,21,24,25,32,8,12,11,31,138,2.0,1.2,1.5*3A
2017-12-01 14:44:27 1512157467.425917: $GPZDA,194428.00,01,12,2017,00,00*62
2017-12-01 14:44:27 1512157467.426107: $GPGGA,194428,3946.9587,N,08404.9863,W,2,12,1.20,292.86,M,-33.324,M,,*79
2017-12-01 14:44:27 1512157467.426175: $GPRMC,194428,A,3946.9587,N,08404.9863,W,0.0000,0.000,011217,,*3E
2017-12-01 14:44:27 1512157467.426238: $GPGSA,A,3,10,14,18,21,24,25,32,8,12,11,31,138,2.0,1.2,1.5*3A
2017-12-01 14:44:28 1512157468.685457: $GPGSV,3,1,12,10,78,351,47,14,36,261,42,18,63,111,47,21,19,177,45*74
2017-12-01 14:44:28 1512157468.685640: $GPGSV,3,2,12,24,37,051,46,25,09,136,29,32,53,277,44,08,02,285,34*79
2017-12-01 14:44:28 1512157468.685708: $GPGSV,3,3,12,12,15,099,38,11,02,324,30,31,08,204,29,138,38,213,47*47
2017-12-01 14:44:28 1512157468.798784: $GPZDA,194429.00,01,12,2017,00,00*63
2017-12-01 14:44:28 1512157468.798958: $GPGGA,194429,3946.9587,N,08404.9863,W,2,12,1.20,292.86,M,-33.324,M,,*78
2017-12-01 14:44:28 1512157468.799025: $GPRMC,194429,A,3946.9587,N,08404.9863,W,0.0000,0.000,011217,,*3F
2017-12-01 14:44:28 1512157468.799108: $GPGSA,A,3,10,14,18,21,24,25,32,8,12,11,31,138,2.0,1.2,1.5*3A
2017-12-01 14:44:29 1512157469.347154: $GPZDA,194430.00,01,12,2017,00,00*6B
2017-12-01 14:44:29 1512157469.347322: $GPGGA,194430,3946.9587,N,08404.9863,W,2,12,1.20,292.86,M,-33.324,M,,*70
2017-12-01 14:44:29 1512157469.347393: $GPRMC,194430,A,3946.9587,N,08404.9863,W,0.0000,0.000,011217,,*37
2017-12-01 14:44:29 1512157469.347455: $GPGSA,A,3,10,14,18,21,24,25,32,8,12,11,31,138,2.0,1.2,1.5*3A
2017-12-01 14:44:30 1512157470.346944: $GPZDA,194431.00,01,12,2017,00,00*6A
2017-12-01 14:44:30 1512157470.347133: $GPGGA,194431,3946.9587,N,08404.9863,W,2,12,1.20,292.86,M,-33.324,M,,*71
2017-12-01 14:44:30 1512157470.347207: $GPRMC,194431,A,3946.9587,N,08404.9863,W,0.0000,0.000,011217,,*36
2017-12-01 14:44:30 1512157470.347274: $GPGSA,A,3,10,14,18,21,24,25,32,8,12,11,31,138,2.0,1.2,1.5*3A
2017-12-01 14:44:32 1512157472.597968: $GPGSV,3,1,12,10,78,351,46,14,36,261,42,18,63,111,46,21,19,177,45*74
2017-12-01 14:44:32 1512157472.598152: $GPGSV,3,2,12,24,37,051,46,25,10,136,29,32,53,277,44,08,02,285,33*76
2017-12-01 14:44:32 1512157472.598223: $GPGSV,3,3,12,12,15,099,39,11,02,324,31,31,08,204,29,138,38,213,48*48
2017-12-01 14:44:32 1512157472.711615: $GPZDA,194432.00,01,12,2017,00,00*69
2017-12-01 14:44:32 1512157472.711794: $GPGGA,194432,3946.9587,N,08404.9863,W,2,12,1.20,292.86,M,-33.324,M,,*72
2017-12-01 14:44:32 1512157472.711866: $GPRMC,194432,A,3946.9587,N,08404.9863,W,0.0000,0.000,011217,,*35
2017-12-01 14:44:32 1512157472.711930: $GPGSA,A,3,10,14,18,21,24,25,32,8,12,11,31,138,2.0,1.2,1.5*3A
2017-12-01 14:44:33 1512157473.162789: $GPZDA,194433.00,01,12,2017,00,00*68
2017-12-01 14:44:33 1512157473.162940: $GPGGA,194433,3946.9587,N,08404.9863,W,2,12,1.20,292.86,M,-33.324,M,,*73
2017-12-01 14:44:33 1512157473.163011: $GPRMC,194433,A,3946.9587,N,08404.9863,W,0.0000,0.000,011217,,*34
2017-12-01 14:44:33 1512157473.163076: $GPGSA,A,3,10,14,18,21,24,25,32,8,12,11,31,138,2.0,1.2,1.5*3A
2017-12-01 14:44:33 1512157473.614565: $GPZDA,194434.00,01,12,2017,00,00*6F
2017-12-01 14:44:33 1512157473.614742: $GPGGA,194434,3946.9587,N,08404.9863,W,2,12,1.20,292.86,M,-33.324,M,,*74
2017-12-01 14:44:33 1512157473.614807: $GPRMC,194434,A,3946.9587,N,08404.9863,W,0.0000,0.000,011217,,*33
2017-12-01 14:44:33 1512157473.614869: $GPGSA,A,3,10,14,18,21,24,25,32,8,12,11,31,138,2.0,1.2,1.5*3A
2017-12-01 14:44:34 1512157474.718838: $GPGSV,3,1,12,10,78,351,46,14,36,261,42,18,63,111,47,21,19,177,45*75
2017-12-01 14:44:34 1512157474.719016: $GPGSV,3,2,12,24,37,051,46,25,10,136,29,32,53,277,44,08,02,285,32*77
2017-12-01 14:44:34 1512157474.719082: $GPGSV,3,3,12,12,15,099,39,11,02,324,32,31,08,204,24,138,38,213,47*49
2017-12-01 14:44:34 1512157474.832174: $GPZDA,194435.00,01,12,2017,00,00*6E
2017-12-01 14:44:34 1512157474.832337: $GPGGA,194435,3946.9587,N,08404.9863,W,2,12,1.20,292.86,M,-33.324,M,,*75
2017-12-01 14:44:34 1512157474.832404: $GPRMC,194435,A,3946.9587,N,08404.9863,W,0.0000,0.000,011217,,*32
2017-12-01 14:44:34 1512157474.832467: $GPGSA,A,3,10,14,18,21,24,25,32,8,12,11,31,138,2.0,1.2,1.5*3A
2017-12-01 14:44:35 1512157475.386775: $GPZDA,194436.00,01,12,2017,00,00*6D
2017-12-01 14:44:35 1512157475.420637: $GPGGA,194436,3946.9587,N,08404.9863,W,2,12,1.20,292.86,M,-33.324,M,,*76
2017-12-01 14:44:35 1512157475.420755: $GPRMC,194436,A,3946.9587,N,08404.9863,W,0.0000,0.000,011217,,*31
2017-12-01 14:44:35 1512157475.420823: $GPGSA,A,3,10,14,18,21,24,25,32,8,12,11,31,138,2.0,1.2,1.5*3A
