2017-12-29 11:40:15 1514565615.177543: {"class":"VERSION","release":"3.16","rev":"3.16-4","proto_major":3,"proto_minor":11}
2017-12-29 11:40:15 1514565615.177901: {"class":"DEVICES","devices":[{"class":"DEVICE","path":"/dev/ttyUSB0","driver":"SiRF","subtype":"9\u0006GSD4e_4.1.2-P1_RPATCH.05-F-GPS-4R-1510281 11/03/2015 307","activated":"2017-12-29T16:40:15.161Z","flags":1,"native":1,"bps":4800,"parity":"N","stopbits":1,"cycle":1.00}]}
2017-12-29 11:40:15 1514565615.178019: {"class":"WATCH","enable":true,"json":false,"nmea":true,"raw":0,"scaled":false,"timing":false,"split24":false,"pps":false}
2017-12-29 11:40:15 1514565615.339174: $GPZDA,164016.00,29,12,2017,00,00*6E
2017-12-29 11:40:15 1514565615.339334: $GPGGA,164016,3946.9595,N,08404.9804,W,2,10,1.00,339.64,M,-33.324,M,,*71
2017-12-29 11:40:15 1514565615.339398: $GPRMC,164016,A,3946.9595,N,08404.9804,W,0.0000,0.000,291217,,*30
2017-12-29 11:40:15 1514565615.339458: $GPGSA,A,3,8,10,15,18,20,21,24,27,32,138,,,1.7,1.0,1.3*3A
2017-12-29 11:40:16 1514565616.659952: $GPGSV,3,1,11,08,07,315,39,10,50,309,45,15,28,055,48,18,76,010,45*7C
2017-12-29 11:40:16 1514565616.660142: $GPGSV,3,2,11,20,27,103,49,21,52,184,46,24,53,093,51,27,17,279,38*71
2017-12-29 11:40:16 1514565616.660209: $GPGSV,3,3,11,32,30,246,39,14,11,238,00,138,38,213,45*7D
2017-12-29 11:40:16 1514565616.773328: $GPZDA,164017.00,29,12,2017,00,00*6F
2017-12-29 11:40:16 1514565616.773507: $GPGGA,164017,3946.9595,N,08404.9804,W,2,10,1.00,339.64,M,-33.324,M,,*70
2017-12-29 11:40:16 1514565616.773574: $GPRMC,164017,A,3946.9595,N,08404.9804,W,0.0000,0.000,291217,,*31
2017-12-29 11:40:16 1514565616.773635: $GPGSA,A,3,8,10,15,18,20,21,24,27,32,138,,,1.7,1.0,1.3*3A
2017-12-29 11:40:17 1514565617.398699: $GPZDA,164018.00,29,12,2017,00,00*60
2017-12-29 11:40:17 1514565617.398871: $GPGGA,164018,3946.9595,N,08404.9804,W,2,10,1.00,339.64,M,-33.324,M,,*7F
2017-12-29 11:40:17 1514565617.398937: $GPRMC,164018,A,3946.9595,N,08404.9804,W,0.0000,0.000,291217,,*3E
2017-12-29 11:40:17 1514565617.398998: $GPGSA,A,3,8,10,15,18,20,21,24,27,32,138,,,1.7,1.0,1.3*3A
2017-12-29 11:40:18 1514565618.323693: $GPZDA,164019.00,29,12,2017,00,00*61
2017-12-29 11:40:18 1514565618.323884: $GPGGA,164019,3946.9595,N,08404.9804,W,2,10,0.80,339.64,M,-33.324,M,,*77
2017-12-29 11:40:18 1514565618.323952: $GPRMC,164019,A,3946.9595,N,08404.9804,W,0.0000,0.000,291217,,*3F
2017-12-29 11:40:18 1514565618.324012: $GPGSA,A,3,8,10,15,18,20,21,24,27,32,138,,,1.7,0.8,1.3*33
2017-12-29 11:40:19 1514565619.688161: $GPGSV,3,1,11,08,07,315,39,10,50,309,44,15,28,055,47,18,76,010,45*72
2017-12-29 11:40:19 1514565619.688441: $GPGSV,3,2,11,20,27,103,48,21,52,184,46,24,53,093,51,27,17,279,37*7F
2017-12-29 11:40:19 1514565619.688531: $GPGSV,3,3,11,32,30,246,40,14,11,238,00,138,38,213,46*70
2017-12-29 11:40:19 1514565619.801299: $GPZDA,164020.00,29,12,2017,00,00*6B
2017-12-29 11:40:19 1514565619.801469: $GPGGA,164020,3946.9595,N,08404.9797,W,2,10,1.00,339.72,M,-33.324,M,,*76
2017-12-29 11:40:19 1514565619.801561: $GPRMC,164020,A,3946.9595,N,08404.9797,W,0.0000,0.000,291217,,*30
2017-12-29 11:40:19 1514565619.801642: $GPGSA,A,3,8,10,15,18,20,21,24,27,32,138,,,1.7,1.0,1.3*3A
2017-12-29 11:40:20 1514565620.340873: $GPZDA,164021.00,29,12,2017,00,00*6A
2017-12-29 11:40:20 1514565620.341144: $GPGGA,164021,3946.9595,N,08404.9797,W,2,10,1.00,339.72,M,-33.324,M,,*77
2017-12-29 11:40:20 1514565620.341225: $GPRMC,164021,A,3946.9595,N,08404.9797,W,0.0000,0.000,291217,,*31
2017-12-29 11:40:20 1514565620.341289: $GPGSA,A,3,8,10,15,18,20,21,24,27,32,138,,,1.7,1.0,1.3*3A
2017-12-29 11:40:21 1514565621.324538: $GPZDA,164022.00,29,12,2017,00,00*69
2017-12-29 11:40:21 1514565621.324756: $GPGGA,164022,3946.9595,N,08404.9797,W,2,10,1.00,339.72,M,-33.324,M,,*74
2017-12-29 11:40:21 1514565621.324827: $GPRMC,164022,A,3946.9595,N,08404.9797,W,0.0000,0.000,291217,,*32
2017-12-29 11:40:21 1514565621.324891: $GPGSA,A,3,8,10,15,18,20,21,24,27,32,138,,,1.7,1.0,1.3*3A
2017-12-29 11:40:22 1514565622.675822: $GPGSV,3,1,11,08,07,315,39,10,50,309,44,15,28,055,48,18,76,010,45*7D
2017-12-29 11:40:22 1514565622.676052: $GPGSV,3,2,11,20,27,103,48,21,52,184,46,24,53,093,51,27,17,279,37*7F
2017-12-29 11:40:22 1514565622.676122: $GPGSV,3,3,11,32,30,246,40,14,11,238,00,138,38,213,45*73
2017-12-29 11:40:22 1514565622.789549: $GPZDA,164023.00,29,12,2017,00,00*68
2017-12-29 11:40:22 1514565622.789731: $GPGGA,164023,3946.9595,N,08404.9797,W,2,10,1.00,339.72,M,-33.324,M,,*75
2017-12-29 11:40:22 1514565622.789797: $GPRMC,164023,A,3946.9595,N,08404.9797,W,0.0000,0.000,291217,,*33
2017-12-29 11:40:22 1514565622.789857: $GPGSA,A,3,8,10,15,18,20,21,24,27,32,138,,,1.7,1.0,1.3*3A
2017-12-29 11:40:23 1514565623.324221: $GPZDA,164024.00,29,12,2017,00,00*6F
2017-12-29 11:40:23 1514565623.324389: $GPGGA,164024,3946.9595,N,08404.9797,W,2,10,1.00,339.72,M,-33.324,M,,*72
2017-12-29 11:40:23 1514565623.324455: $GPRMC,164024,A,3946.9595,N,08404.9797,W,0.0000,0.000,291217,,*34
2017-12-29 11:40:23 1514565623.324540: $GPGSA,A,3,8,10,15,18,20,21,24,27,32,138,,,1.7,1.0,1.3*3A
2017-12-29 11:40:24 1514565624.341303: $GPZDA,164025.00,29,12,2017,00,00*6E
2017-12-29 11:40:24 1514565624.341458: $GPGGA,164025,3946.9595,N,08404.9797,W,2,10,1.00,339.72,M,-33.324,M,,*73
2017-12-29 11:40:24 1514565624.341531: $GPRMC,164025,A,3946.9595,N,08404.9797,W,0.0000,0.000,291217,,*35
2017-12-29 11:40:24 1514565624.341592: $GPGSA,A,3,8,10,15,18,20,21,24,27,32,138,,,1.7,1.0,1.3*3A
2017-12-29 11:40:25 1514565625.677926: $GPGSV,3,1,11,08,07,315,40,10,50,309,44,15,28,055,48,18,76,010,45*73
2017-12-29 11:40:25 1514565625.678115: $GPGSV,3,2,11,20,27,103,48,21,52,184,46,24,53,093,51,27,17,279,37*7F
2017-12-29 11:40:25 1514565625.678181: $GPGSV,3,3,11,32,30,246,40,14,11,238,30,138,38,213,45*70
2017-12-29 11:40:25 1514565625.791635: $GPZDA,164026.00,29,12,2017,00,00*6D
2017-12-29 11:40:25 1514565625.791803: $GPGGA,164026,3946.9595,N,08404.9797,W,2,11,0.80,339.72,M,-33.324,M,,*78
2017-12-29 11:40:25 1514565625.791871: $GPRMC,164026,A,3946.9595,N,08404.9797,W,0.0000,0.000,291217,,*36
2017-12-29 11:40:25 1514565625.791930: $GPGSA,A,3,8,10,15,18,20,21,24,27,32,14,138,,1.7,0.8,1.3*36
2017-12-29 11:40:26 1514565626.323709: $GPZDA,164027.00,29,12,2017,00,00*6C
2017-12-29 11:40:26 1514565626.323879: $GPGGA,164027,3946.9595,N,08404.9797,W,2,11,0.80,339.72,M,-33.324,M,,*79
2017-12-29 11:40:26 1514565626.323945: $GPRMC,164027,A,3946.9595,N,08404.9797,W,0.0000,0.000,291217,,*37
2017-12-29 11:40:26 1514565626.324005: $GPGSA,A,3,8,10,15,18,20,21,24,27,32,14,138,,1.7,0.8,1.3*36
2017-12-29 11:40:27 1514565627.337523: $GPZDA,164028.00,29,12,2017,00,00*63
2017-12-29 11:40:27 1514565627.337714: $GPGGA,164028,3946.9595,N,08404.9797,W,2,11,0.80,339.72,M,-33.324,M,,*76
2017-12-29 11:40:27 1514565627.337779: $GPRMC,164028,A,3946.9595,N,08404.9797,W,0.0000,0.000,291217,,*38
2017-12-29 11:40:27 1514565627.337840: $GPGSA,A,3,8,10,15,18,20,21,24,27,32,14,138,,1.7,0.8,1.3*36
2017-12-29 11:40:28 1514565628.660719: $GPGSV,3,1,11,08,07,315,40,10,50,309,44,15,28,055,48,18,76,010,45*73
2017-12-29 11:40:28 1514565628.660894: $GPGSV,3,2,11,20,27,103,48,21,52,184,46,24,53,093,51,27,17,279,32*7A
2017-12-29 11:40:28 1514565628.660958: $GPGSV,3,3,11,32,30,246,40,14,11,238,30,138,38,213,45*70
2017-12-29 11:40:28 1514565628.774117: $GPZDA,164029.00,29,12,2017,00,00*62
2017-12-29 11:40:28 1514565628.774266: $GPGGA,164029,3946.9595,N,08404.9797,W,2,11,0.80,339.72,M,-33.324,M,,*77
2017-12-29 11:40:28 1514565628.774331: $GPRMC,164029,A,3946.9595,N,08404.9797,W,0.0000,0.000,291217,,*39
2017-12-29 11:40:28 1514565628.774390: $GPGSA,A,3,8,10,15,18,20,21,24,27,32,14,138,,1.7,0.8,1.3*36
2017-12-29 11:40:29 1514565629.322551: $GPZDA,164030.00,29,12,2017,00,00*6A
2017-12-29 11:40:29 1514565629.322734: $GPGGA,164030,3946.9594,N,08404.9790,W,2,11,0.80,339.80,M,-33.324,M,,*74
2017-12-29 11:40:29 1514565629.322801: $GPRMC,164030,A,3946.9594,N,08404.9790,W,0.0000,0.000,291217,,*37
2017-12-29 11:40:29 1514565629.322861: $GPGSA,A,3,8,10,15,18,20,21,24,27,32,14,138,,1.7,0.8,1.3*36
