2017-12-29 11:33:08 1514565188.339025: {"class":"VERSION","release":"3.16","rev":"3.16-4","proto_major":3,"proto_minor":11}
2017-12-29 11:33:08 1514565188.339538: {"class":"DEVICES","devices":[{"class":"DEVICE","path":"/dev/ttyUSB0","driver":"SiRF","subtype":"9\u0006GSD4e_4.1.2-P1_RPATCH.05-F-GPS-4R-1510281 11/03/2015 307","activated":"2017-12-29T16:33:08.240Z","flags":1,"native":1,"bps":4800,"parity":"N","stopbits":1,"cycle":1.00}]}
2017-12-29 11:33:08 1514565188.339652: {"class":"WATCH","enable":true,"json":false,"nmea":true,"raw":0,"scaled":false,"timing":false,"split24":false,"pps":false}
2017-12-29 11:33:08 1514565188.690039: $GPGSV,3,1,11,08,07,316,38,10,47,307,46,15,31,055,50,20,29,102,48*7A
2017-12-29 11:33:08 1514565188.690210: $GPGSV,3,2,11,21,56,184,45,24,53,097,50,27,17,282,40,32,27,243,41*74
2017-12-29 11:33:08 1514565188.690274: $GPGSV,3,3,11,14,09,235,33,13,02,051,01,138,38,213,45*74
2017-12-29 11:33:08 1514565188.803396: $GPZDA,163309.00,29,12,2017,00,00*64
2017-12-29 11:33:08 1514565188.803567: $GPGGA,163309,3946.9580,N,08404.9887,W,2,10,0.80,322.65,M,-33.324,M,,*76
2017-12-29 11:33:08 1514565188.803636: $GPRMC,163309,A,3946.9580,N,08404.9887,W,0.0000,0.000,291217,,*35
2017-12-29 11:33:08 1514565188.803697: $GPGSA,A,3,8,10,15,20,21,24,27,32,14,138,,,1.7,0.8,1.3*3F
2017-12-29 11:33:09 1514565189.353277: $GPZDA,163310.00,29,12,2017,00,00*6C
2017-12-29 11:33:09 1514565189.353438: $GPGGA,163310,3946.9580,N,08404.9887,W,2,10,0.80,322.65,M,-33.324,M,,*7E
2017-12-29 11:33:09 1514565189.353504: $GPRMC,163310,A,3946.9580,N,08404.9887,W,0.0000,0.000,291217,,*3D
2017-12-29 11:33:09 1514565189.353566: $GPGSA,A,3,8,10,15,20,21,24,27,32,14,138,,,1.7,0.8,1.3*3F
2017-12-29 11:33:10 1514565190.352601: $GPZDA,163311.00,29,12,2017,00,00*6D
2017-12-29 11:33:10 1514565190.352774: $GPGGA,163311,3946.9580,N,08404.9887,W,2,10,1.00,322.65,M,-33.324,M,,*76
2017-12-29 11:33:10 1514565190.352840: $GPRMC,163311,A,3946.9580,N,08404.9887,W,0.0000,0.000,291217,,*3C
2017-12-29 11:33:10 1514565190.352929: $GPGSA,A,3,8,10,15,20,21,24,27,32,14,138,,,1.7,1.0,1.3*36
2017-12-29 11:33:11 1514565191.689585: $GPGSV,3,1,11,08,07,316,38,10,47,307,47,15,31,055,50,20,29,102,48*7B
2017-12-29 11:33:11 1514565191.689765: $GPGSV,3,2,11,21,56,184,46,24,53,097,50,27,17,282,40,32,27,243,41*77
2017-12-29 11:33:11 1514565191.689831: $GPGSV,3,3,11,14,09,235,32,13,02,051,01,138,38,213,45*75
2017-12-29 11:33:11 1514565191.803059: $GPZDA,163312.00,29,12,2017,00,00*6E
2017-12-29 11:33:11 1514565191.803385: $GPGGA,163312,3946.9580,N,08404.9887,W,2,10,1.00,322.65,M,-33.324,M,,*75
2017-12-29 11:33:11 1514565191.803552: $GPRMC,163312,A,3946.9580,N,08404.9887,W,0.0000,0.000,291217,,*3F
2017-12-29 11:33:11 1514565191.803672: $GPGSA,A,3,8,10,15,20,21,24,27,32,14,138,,,1.7,1.0,1.3*36
2017-12-29 11:33:12 1514565192.357793: $GPZDA,163313.00,29,12,2017,00,00*6F
2017-12-29 11:33:12 1514565192.357971: $GPGGA,163313,3946.9580,N,08404.9887,W,2,10,1.00,322.65,M,-33.324,M,,*74
2017-12-29 11:33:12 1514565192.358038: $GPRMC,163313,A,3946.9580,N,08404.9887,W,0.0000,0.000,291217,,*3E
2017-12-29 11:33:12 1514565192.358098: $GPGSA,A,3,8,10,15,20,21,24,27,32,14,138,,,1.7,1.0,1.3*36
2017-12-29 11:33:13 1514565193.355690: $GPZDA,163314.00,29,12,2017,00,00*68
2017-12-29 11:33:13 1514565193.355859: $GPGGA,163314,3946.9580,N,08404.9887,W,2,10,1.00,322.65,M,-33.324,M,,*73
2017-12-29 11:33:13 1514565193.355927: $GPRMC,163314,A,3946.9580,N,08404.9887,W,0.0000,0.000,291217,,*39
2017-12-29 11:33:13 1514565193.355991: $GPGSA,A,3,8,10,15,20,21,24,27,32,14,138,,,1.7,1.0,1.3*36
2017-12-29 11:33:14 1514565194.691179: $GPGSV,3,1,11,08,07,316,38,10,47,307,46,15,31,055,50,20,29,102,48*7A
2017-12-29 11:33:14 1514565194.691343: $GPGSV,3,2,11,21,56,184,46,24,53,097,50,27,17,282,40,32,27,243,42*74
2017-12-29 11:33:14 1514565194.691407: $GPGSV,3,3,11,14,09,235,28,13,02,051,01,138,38,213,46*7D
2017-12-29 11:33:14 1514565194.804496: $GPZDA,163315.00,29,12,2017,00,00*69
2017-12-29 11:33:14 1514565194.804671: $GPGGA,163315,3946.9580,N,08404.9887,W,2,10,1.00,322.65,M,-33.324,M,,*72
2017-12-29 11:33:14 1514565194.804797: $GPRMC,163315,A,3946.9580,N,08404.9887,W,0.0000,0.000,291217,,*38
2017-12-29 11:33:14 1514565194.804864: $GPGSA,A,3,8,10,15,20,21,24,27,32,14,138,,,1.7,1.0,1.3*36
2017-12-29 11:33:15 1514565195.356802: $GPZDA,163316.00,29,12,2017,00,00*6A
2017-12-29 11:33:15 1514565195.356994: $GPGGA,163316,3946.9580,N,08404.9880,W,2,10,1.00,322.73,M,-33.324,M,,*71
2017-12-29 11:33:15 1514565195.357076: $GPRMC,163316,A,3946.9580,N,08404.9880,W,0.0000,0.000,291217,,*3C
2017-12-29 11:33:15 1514565195.357138: $GPGSA,A,3,8,10,15,20,21,24,27,32,14,138,,,1.7,1.0,1.3*36
2017-12-29 11:33:16 1514565196.351351: $GPZDA,163317.00,29,12,2017,00,00*6B
2017-12-29 11:33:16 1514565196.351526: $GPGGA,163317,3946.9580,N,08404.9880,W,2,10,1.20,322.73,M,-33.324,M,,*72
2017-12-29 11:33:16 1514565196.351592: $GPRMC,163317,A,3946.9580,N,08404.9880,W,0.0000,0.000,291217,,*3D
2017-12-29 11:33:16 1514565196.351653: $GPGSA,A,3,8,10,15,20,21,24,27,32,14,138,,,1.7,1.2,1.3*34
2017-12-29 11:33:17 1514565197.690692: $GPGSV,3,1,11,08,07,316,38,10,47,307,46,15,31,055,50,20,29,102,48*7A
2017-12-29 11:33:17 1514565197.690870: $GPGSV,3,2,11,21,56,184,45,24,53,097,50,27,17,282,40,32,27,243,42*77
2017-12-29 11:33:17 1514565197.690938: $GPGSV,3,3,11,14,09,235,17,13,02,051,01,138,38,213,44*73
2017-12-29 11:33:17 1514565197.804079: $GPZDA,163318.00,29,12,2017,00,00*64
2017-12-29 11:33:17 1514565197.804255: $GPGGA,163318,3946.9584,N,08404.9880,W,2,10,1.00,323.37,M,-33.324,M,,*7A
2017-12-29 11:33:17 1514565197.804321: $GPRMC,163318,A,3946.9584,N,08404.9880,W,0.0000,0.000,291217,,*36
2017-12-29 11:33:17 1514565197.804383: $GPGSA,A,3,8,10,15,20,21,24,27,32,14,138,,,1.7,1.0,1.3*36
2017-12-29 11:33:18 1514565198.429412: $GPZDA,163319.00,29,12,2017,00,00*65
2017-12-29 11:33:18 1514565198.429590: $GPGGA,163319,3946.9584,N,08404.9880,W,2,10,1.00,323.37,M,-33.324,M,,*7B
2017-12-29 11:33:18 1514565198.429656: $GPRMC,163319,A,3946.9584,N,08404.9880,W,0.0000,0.000,291217,,*37
2017-12-29 11:33:18 1514565198.429718: $GPGSA,A,3,8,10,15,20,21,24,27,32,14,138,,,1.7,1.0,1.3*36
2017-12-29 11:33:19 1514565199.356757: $GPRMC,163320,V,3946.9584,N,08404.9880,W,0.0000,0.000,291217,,*2A
2017-12-29 11:33:19 1514565199.356922: $GPGSA,A,1,8,10,15,20,21,24,27,32,14,138,,,,,,*33
2017-12-29 11:33:20 1514565200.695105: $GPGSV,3,1,11,08,07,316,38,10,47,307,46,15,31,055,50,20,29,102,48*7A
2017-12-29 11:33:20 1514565200.695303: $GPGSV,3,2,11,21,56,184,45,24,53,097,50,27,17,282,40,32,27,243,41*74
2017-12-29 11:33:20 1514565200.695368: $GPGSV,3,3,11,14,09,235,00,13,02,051,01,138,38,213,45*74
2017-12-29 11:33:20 1514565200.805615: $GPZDA,163321.00,29,12,2017,00,00*6E
2017-12-29 11:33:20 1514565200.805807: $GPGGA,163321,3946.9584,N,08404.9887,W,2,09,1.20,323.29,M,-33.324,M,,*72
2017-12-29 11:33:20 1514565200.805898: $GPRMC,163321,A,3946.9584,N,08404.9887,W,0.0000,0.000,291217,,*3B
2017-12-29 11:33:20 1514565200.805961: $GPGSA,A,3,8,10,15,20,21,24,27,32,138,,,,1.7,1.2,1.3*31
2017-12-29 11:33:20 1514565200.806020: $GPGBS,163321,2.73,M,2.59,M,7.72,M*30
2017-12-29 11:33:21 1514565201.350247: $GPZDA,163322.02,29,12,2017,00,00*6F
2017-12-29 11:33:21 1514565201.350423: $GPGGA,163322,3946.9576,N,08404.9901,W,2,09,1.20,321.85,M,-33.324,M,,*77
2017-12-29 11:33:21 1514565201.350489: $GPRMC,163322,A,3946.9576,N,08404.9901,W,0.0000,0.000,291217,,*3A
2017-12-29 11:33:21 1514565201.350551: $GPGSA,A,3,8,10,15,20,21,24,27,32,138,,,,1.7,1.2,1.3*31
2017-12-29 11:33:21 1514565201.350608: $GPGBS,163322,2.73,M,2.59,M,7.72,M*33
2017-12-29 11:33:22 1514565202.356096: $GPZDA,163323.00,29,12,2017,00,00*6C
2017-12-29 11:33:22 1514565202.356283: $GPGGA,163323,3946.9576,N,08404.9901,W,2,09,1.20,321.85,M,-33.324,M,,*76
2017-12-29 11:33:22 1514565202.356349: $GPRMC,163323,A,3946.9576,N,08404.9901,W,0.0000,0.000,291217,,*3B
2017-12-29 11:33:22 1514565202.356411: $GPGSA,A,3,8,10,15,20,21,24,27,32,138,,,,1.7,1.2,1.3*31
2017-12-29 11:33:22 1514565202.356468: $GPGBS,163323,2.73,M,2.59,M,7.72,M*32
