2017-12-29 14:44:40 1514576680.133844: {"class":"VERSION","release":"3.16","rev":"3.16-4","proto_major":3,"proto_minor":11}
2017-12-29 14:44:40 1514576680.134177: {"class":"DEVICES","devices":[{"class":"DEVICE","path":"/dev/ttyUSB0","driver":"SiRF","subtype":"9\u0006GSD4e_4.1.2-P1_RPATCH.05-F-GPS-4R-1510281 11/03/2015 307","activated":"2017-12-29T19:44:39.558Z","flags":1,"native":1,"bps":4800,"parity":"N","stopbits":1,"cycle":1.00}]}
2017-12-29 14:44:40 1514576680.134288: {"class":"WATCH","enable":true,"json":false,"nmea":true,"raw":0,"scaled":false,"timing":false,"split24":false,"pps":false}
2017-12-29 14:44:40 1514576680.342907: $GPZDA,194441.00,29,12,2017,00,00*67
2017-12-29 14:44:40 1514576680.343103: $GPGGA,194441,3946.9577,N,08404.9832,W,2,12,0.80,298.36,M,-33.324,M,,*77
2017-12-29 14:44:40 1514576680.343171: $GPRMC,194441,A,3946.9577,N,08404.9832,W,0.0000,0.000,291217,,*30
2017-12-29 14:44:40 1514576680.343233: $GPGSA,A,3,1,26,10,11,12,14,18,22,25,31,32,138,1.7,0.8,1.3*3B
2017-12-29 14:44:41 1514576681.679888: $GPGSV,3,1,12,01,22,297,38,26,07,181,22,10,43,150,50,11,07,280,34*78
2017-12-29 14:44:41 1514576681.680094: $GPGSV,3,2,12,12,20,046,46,14,67,334,42,18,14,145,42,22,23,312,40*73
2017-12-29 14:44:41 1514576681.680161: $GPGSV,3,3,12,25,40,085,51,31,62,229,46,32,66,040,49,138,38,213,42*42
2017-12-29 14:44:41 1514576681.793229: $GPZDA,194442.00,29,12,2017,00,00*64
2017-12-29 14:44:41 1514576681.793393: $GPGGA,194442,3946.9581,N,08404.9832,W,2,12,0.80,299.00,M,-33.324,M,,*79
2017-12-29 14:44:41 1514576681.793459: $GPRMC,194442,A,3946.9581,N,08404.9832,W,0.0000,0.000,291217,,*3A
2017-12-29 14:44:41 1514576681.793520: $GPGSA,A,3,1,26,10,11,12,14,18,22,25,31,32,138,1.7,0.8,1.3*3B
2017-12-29 14:44:42 1514576682.345340: $GPZDA,194443.00,29,12,2017,00,00*65
2017-12-29 14:44:42 1514576682.345512: $GPGGA,194443,3946.9581,N,08404.9832,W,2,12,0.80,299.00,M,-33.324,M,,*78
2017-12-29 14:44:42 1514576682.345579: $GPRMC,194443,A,3946.9581,N,08404.9832,W,0.0000,0.000,291217,,*3B
2017-12-29 14:44:42 1514576682.345639: $GPGSA,A,3,1,26,10,11,12,14,18,22,25,31,32,138,1.7,0.8,1.3*3B
2017-12-29 14:44:43 1514576683.703231: $GPZDA,194444.00,29,12,2017,00,00*62
2017-12-29 14:44:43 1514576683.703403: $GPGGA,194444,3946.9581,N,08404.9832,W,2,12,0.80,299.00,M,-33.324,M,,*7F
2017-12-29 14:44:43 1514576683.703470: $GPRMC,194444,A,3946.9581,N,08404.9832,W,0.0000,0.000,291217,,*3C
2017-12-29 14:44:43 1514576683.703530: $GPGSA,A,3,1,26,10,11,12,14,18,22,25,31,32,138,1.7,0.8,1.3*3B
2017-12-29 14:44:43 1514576683.703589: $GPGBS,194444,2.73,M,2.59,M,7.72,M*3C
2017-12-29 14:44:44 1514576684.836581: $GPGSV,3,1,12,01,22,297,38,26,07,181,22,10,43,150,50,03,04,316,38*7A
2017-12-29 14:44:44 1514576684.836762: $GPGSV,3,2,12,12,20,046,45,14,67,336,41,18,13,145,42,22,23,312,39*78
2017-12-29 14:44:44 1514576684.836829: $GPGSV,3,3,12,25,41,085,51,31,62,229,46,32,66,042,49,138,38,213,42*41
2017-12-29 14:44:44 1514576684.950869: $GPZDA,194445.00,29,12,2017,00,00*63
2017-12-29 14:44:44 1514576684.951174: $GPGGA,194445,3946.9585,N,08404.9838,W,2,12,0.80,298.16,M,-33.324,M,,*76
2017-12-29 14:44:44 1514576684.951262: $GPRMC,194445,A,3946.9585,N,08404.9838,W,0.1867,180.000,291217,,*32
2017-12-29 14:44:44 1514576684.951325: $GPGSA,A,3,1,26,10,3,12,14,18,22,25,31,32,138,1.7,0.8,1.3*08
2017-12-29 14:44:45 1514576685.401194: $GPZDA,194446.00,29,12,2017,00,00*60
2017-12-29 14:44:45 1514576685.401357: $GPGGA,194446,3946.9585,N,08404.9838,W,2,12,0.80,298.16,M,-33.324,M,,*75
2017-12-29 14:44:45 1514576685.401424: $GPRMC,194446,A,3946.9585,N,08404.9838,W,0.0000,0.000,291217,,*30
2017-12-29 14:44:45 1514576685.401484: $GPGSA,A,3,1,26,10,3,12,14,18,22,25,31,32,138,1.7,0.8,1.3*08
2017-12-29 14:44:46 1514576686.344217: $GPZDA,194447.00,29,12,2017,00,00*61
2017-12-29 14:44:46 1514576686.344391: $GPGGA,194447,3946.9585,N,08404.9838,W,2,12,0.80,298.16,M,-33.324,M,,*74
2017-12-29 14:44:46 1514576686.344457: $GPRMC,194447,A,3946.9585,N,08404.9838,W,0.0000,0.000,291217,,*31
2017-12-29 14:44:46 1514576686.344518: $GPGSA,A,3,1,26,10,3,12,14,18,22,25,31,32,138,1.7,0.8,1.3*08
2017-12-29 14:44:47 1514576687.678781: $GPGSV,3,1,12,01,22,297,39,26,07,181,19,10,43,150,50,11,07,279,30*73
2017-12-29 14:44:47 1514576687.678996: $GPGSV,3,2,12,12,20,046,46,14,67,336,41,18,13,145,42,22,23,312,39*7B
2017-12-29 14:44:47 1514576687.679062: $GPGSV,3,3,12,25,41,085,51,31,62,229,46,32,66,042,49,138,38,213,44*47
2017-12-29 14:44:47 1514576687.792100: $GPZDA,194448.00,29,12,2017,00,00*6E
2017-12-29 14:44:47 1514576687.792266: $GPGGA,194448,3946.9585,N,08404.9838,W,2,12,0.80,298.16,M,-33.324,M,,*7B
2017-12-29 14:44:47 1514576687.792333: $GPRMC,194448,A,3946.9585,N,08404.9838,W,0.0000,0.000,291217,,*3E
2017-12-29 14:44:47 1514576687.792393: $GPGSA,A,3,1,26,10,11,12,14,18,22,25,31,32,138,1.7,0.8,1.3*3B
2017-12-29 14:44:48 1514576688.343040: $GPZDA,194449.00,29,12,2017,00,00*6F
2017-12-29 14:44:48 1514576688.343210: $GPGGA,194449,3946.9585,N,08404.9838,W,2,12,0.80,298.16,M,-33.324,M,,*7A
2017-12-29 14:44:48 1514576688.343277: $GPRMC,194449,A,3946.9585,N,08404.9838,W,0.0000,0.000,291217,,*3F
2017-12-29 14:44:48 1514576688.343338: $GPGSA,A,3,1,26,10,11,12,14,18,22,25,31,32,138,1.7,0.8,1.3*3B
2017-12-29 14:44:49 1514576689.345795: $GPZDA,194450.00,29,12,2017,00,00*67
2017-12-29 14:44:49 1514576689.345967: $GPGGA,194450,3946.9585,N,08404.9838,W,2,12,0.80,298.16,M,-33.324,M,,*72
2017-12-29 14:44:49 1514576689.346034: $GPRMC,194450,A,3946.9585,N,08404.9838,W,0.0000,0.000,291217,,*37
2017-12-29 14:44:49 1514576689.346094: $GPGSA,A,3,1,26,10,11,12,14,18,22,25,31,32,138,1.7,0.8,1.3*3B
2017-12-29 14:44:50 1514576690.679039: $GPGSV,3,1,12,01,22,297,39,26,07,181,21,10,43,150,50,03,04,316,38*78
2017-12-29 14:44:50 1514576690.679207: $GPGSV,3,2,12,12,20,046,46,14,67,336,41,18,13,145,42,22,23,312,39*7B
2017-12-29 14:44:50 1514576690.679272: $GPGSV,3,3,12,25,41,085,51,31,62,229,47,32,66,042,49,138,38,213,43*41
2017-12-29 14:44:50 1514576690.792481: $GPZDA,194451.00,29,12,2017,00,00*66
2017-12-29 14:44:50 1514576690.792651: $GPGGA,194451,3946.9585,N,08404.9838,W,2,12,0.80,298.16,M,-33.324,M,,*73
2017-12-29 14:44:50 1514576690.792718: $GPRMC,194451,A,3946.9585,N,08404.9838,W,0.0000,0.000,291217,,*36
2017-12-29 14:44:50 1514576690.792779: $GPGSA,A,3,1,26,10,3,12,14,18,22,25,31,32,138,1.7,0.8,1.3*08
2017-12-29 14:44:51 1514576691.347323: $GPZDA,194452.00,29,12,2017,00,00*65
2017-12-29 14:44:51 1514576691.347497: $GPGGA,194452,3946.9585,N,08404.9838,W,2,12,0.80,298.16,M,-33.324,M,,*70
2017-12-29 14:44:51 1514576691.347564: $GPRMC,194452,A,3946.9585,N,08404.9838,W,0.0000,0.000,291217,,*35
2017-12-29 14:44:51 1514576691.347625: $GPGSA,A,3,1,26,10,3,12,14,18,22,25,31,32,138,1.7,0.8,1.3*08
2017-12-29 14:44:52 1514576692.348018: $GPZDA,194453.00,29,12,2017,00,00*64
2017-12-29 14:44:52 1514576692.348228: $GPGGA,194453,3946.9585,N,08404.9838,W,2,12,0.80,298.16,M,-33.324,M,,*71
2017-12-29 14:44:52 1514576692.348297: $GPRMC,194453,A,3946.9585,N,08404.9838,W,0.0000,0.000,291217,,*34
2017-12-29 14:44:52 1514576692.348358: $GPGSA,A,3,1,26,10,3,12,14,18,22,25,31,32,138,1.7,0.8,1.3*08
2017-12-29 14:44:53 1514576693.687395: $GPGSV,3,1,12,01,22,297,39,26,07,181,21,10,43,150,50,11,07,279,03*78
2017-12-29 14:44:53 1514576693.687580: $GPGSV,3,2,12,12,20,046,46,14,67,336,41,18,13,145,42,22,23,312,39*7B
2017-12-29 14:44:53 1514576693.687646: $GPGSV,3,3,12,25,41,085,51,31,62,229,47,32,66,042,50,138,38,213,43*49
2017-12-29 14:44:53 1514576693.800807: $GPZDA,194454.00,29,12,2017,00,00*63
2017-12-29 14:44:53 1514576693.800981: $GPGGA,194454,3946.9585,N,08404.9838,W,2,11,0.80,298.16,M,-33.324,M,,*75
2017-12-29 14:44:53 1514576693.801125: $GPRMC,194454,A,3946.9585,N,08404.9838,W,0.0000,0.000,291217,,*33
2017-12-29 14:44:53 1514576693.801190: $GPGSA,A,3,1,26,10,12,14,18,22,25,31,32,138,,1.7,0.8,1.3*3B
2017-12-29 14:44:54 1514576694.426227: $GPZDA,194455.00,29,12,2017,00,00*62
2017-12-29 14:44:54 1514576694.426400: $GPGGA,194455,3946.9585,N,08404.9838,W,2,11,0.80,298.16,M,-33.324,M,,*74
2017-12-29 14:44:54 1514576694.426467: $GPRMC,194455,A,3946.9585,N,08404.9838,W,0.0000,0.000,291217,,*32
2017-12-29 14:44:54 1514576694.426529: $GPGSA,A,3,1,26,10,12,14,18,22,25,31,32,138,,1.7,0.8,1.3*3B
2017-12-29 14:44:55 1514576695.349689: $GPZDA,194456.00,29,12,2017,00,00*61
2017-12-29 14:44:55 1514576695.349935: $GPGGA,194456,3946.9585,N,08404.9838,W,2,11,0.80,298.16,M,-33.324,M,,*77
2017-12-29 14:44:55 1514576695.350029: $GPRMC,194456,A,3946.9585,N,08404.9838,W,0.0000,0.000,291217,,*31
2017-12-29 14:44:55 1514576695.350114: $GPGSA,A,3,1,26,10,12,14,18,22,25,31,32,138,,1.7,0.8,1.3*3B
2017-12-29 14:44:56 1514576696.683967: $GPGSV,3,1,12,01,22,297,39,26,07,181,21,10,43,150,50,11,07,279,28*71
2017-12-29 14:44:56 1514576696.684151: $GPGSV,3,2,12,12,20,046,46,14,67,336,41,18,13,145,42,22,23,312,38*7A
2017-12-29 14:44:56 1514576696.684219: $GPGSV,3,3,12,25,41,085,51,31,62,229,47,32,66,042,50,138,38,213,42*48
2017-12-29 14:44:56 1514576696.797389: $GPZDA,194457.00,29,12,2017,00,00*60
2017-12-29 14:44:56 1514576696.797568: $GPGGA,194457,3946.9585,N,08404.9838,W,2,12,0.80,298.16,M,-33.324,M,,*75
2017-12-29 14:44:56 1514576696.797634: $GPRMC,194457,A,3946.9585,N,08404.9838,W,0.0000,0.000,291217,,*30
2017-12-29 14:44:56 1514576696.797696: $GPGSA,A,3,1,26,10,11,12,14,18,22,25,31,32,138,1.7,0.8,1.3*3B
2017-12-29 14:44:57 1514576697.348289: $GPZDA,194458.00,29,12,2017,00,00*6F
2017-12-29 14:44:57 1514576697.348459: $GPGGA,194458,3946.9585,N,08404.9838,W,2,12,0.80,298.16,M,-33.324,M,,*7A
2017-12-29 14:44:57 1514576697.348524: $GPRMC,194458,A,3946.9585,N,08404.9838,W,0.0000,0.000,291217,,*3F
2017-12-29 14:44:57 1514576697.348584: $GPGSA,A,3,1,26,10,11,12,14,18,22,25,31,32,138,1.7,0.8,1.3*3B
2017-12-29 14:44:58 1514576698.348020: $GPZDA,194459.00,29,12,2017,00,00*6E
2017-12-29 14:44:58 1514576698.350825: $GPGGA,194459,3946.9585,N,08404.9838,W,2,12,0.80,298.16,M,-33.324,M,,*7B
2017-12-29 14:44:58 1514576698.350987: $GPRMC,194459,A,3946.9585,N,08404.9838,W,0.0000,0.000,291217,,*3E
2017-12-29 14:44:58 1514576698.351148: $GPGSA,A,3,1,26,10,11,12,14,18,22,25,31,32,138,1.7,0.8,1.3*3B
2017-12-29 14:44:59 1514576699.682866: $GPGSV,3,1,12,01,22,297,38,26,07,181,22,10,43,150,50,11,07,279,30*7A
2017-12-29 14:44:59 1514576699.683047: $GPGSV,3,2,12,12,20,046,46,14,67,336,41,18,13,145,42,22,23,312,38*7A
2017-12-29 14:44:59 1514576699.683113: $GPGSV,3,3,12,25,41,085,51,31,62,229,47,32,66,042,50,138,38,213,43*49
2017-12-29 14:44:59 1514576699.796244: $GPZDA,194500.00,29,12,2017,00,00*63
2017-12-29 14:44:59 1514576699.796410: $GPGGA,194500,3946.9584,N,08404.9831,W,2,12,0.80,298.24,M,-33.324,M,,*7F
2017-12-29 14:44:59 1514576699.796476: $GPRMC,194500,A,3946.9584,N,08404.9831,W,0.0000,0.000,291217,,*3B
2017-12-29 14:44:59 1514576699.796537: $GPGSA,A,3,1,26,10,11,12,14,18,22,25,31,32,138,1.7,0.8,1.3*3B
