2017-11-16 14:17:20 1510859840.076581: {"class":"VERSION","release":"3.17","rev":"3.17","proto_major":3,"proto_minor":12}
2017-11-16 14:17:20 1510859840.077070: {"class":"DEVICES","devices":[{"class":"DEVICE","path":"/dev/ttyUSB0","driver":"SiRF","subtype":"9\u0006GSD4e_4.1.2-P1_RPATCH.05-F-GPS-4R-1510281 11/03/2015 307","activated":"2017-11-16T19:17:19.750Z","flags":1,"native":1,"bps":4800,"parity":"N","stopbits":1,"cycle":1.00}]}
2017-11-16 14:17:20 1510859840.077193: {"class":"WATCH","enable":true,"json":false,"nmea":true,"raw":0,"scaled":false,"timing":false,"split24":false,"pps":false}
2017-11-16 14:17:20 1510859840.539563: $GPZDA,191719.00,16,11,2017,00,00*63
2017-11-16 14:17:20 1510859840.539736: $GPGGA,191719,3946.9557,N,08404.9851,W,2,10,1.00,304.19,M,-33.324,M,,*79
2017-11-16 14:17:20 1510859840.539799: $GPRMC,191719,A,3946.9557,N,08404.9851,W,0.0000,0.000,161117,,*33
2017-11-16 14:17:20 1510859840.539856: $GPGSA,A,3,8,10,15,18,21,20,24,27,32,138,,,1.6,1.0,1.3*3B
2017-11-16 14:17:21 1510859841.845348: $GPGSV,3,1,12,08,06,321,26,10,42,301,44,13,07,049,16,15,36,052,51*7A
2017-11-16 14:17:21 1510859841.845521: $GPGSV,3,2,12,18,72,339,47,21,62,189,46,20,32,097,45,24,51,108,48*73
2017-11-16 14:17:21 1510859841.845582: $GPGSV,3,3,12,27,19,288,40,32,21,238,46,14,05,232,00,138,38,213,44*4A
2017-11-16 14:17:21 1510859841.958947: $GPZDA,191720.00,16,11,2017,00,00*69
2017-11-16 14:17:21 1510859841.959104: $GPGGA,191720,3946.9557,N,08404.9851,W,2,11,0.80,304.19,M,-33.324,M,,*7B
2017-11-16 14:17:21 1510859841.959164: $GPRMC,191720,A,3946.9557,N,08404.9851,W,0.0000,0.000,161117,,*39
2017-11-16 14:17:21 1510859841.959220: $GPGSA,A,3,8,10,13,15,18,21,20,24,27,32,138,,1.6,0.8,1.3*30
2017-11-16 14:17:22 1510859842.510729: $GPZDA,191721.00,16,11,2017,00,00*68
2017-11-16 14:17:22 1510859842.510909: $GPGGA,191721,3946.9557,N,08404.9851,W,2,11,1.00,304.19,M,-33.324,M,,*73
2017-11-16 14:17:22 1510859842.510971: $GPRMC,191721,A,3946.9557,N,08404.9851,W,0.0000,0.000,161117,,*38
2017-11-16 14:17:22 1510859842.511027: $GPGSA,A,3,8,10,13,15,18,21,20,24,27,32,138,,1.6,1.0,1.3*39
2017-11-16 14:17:23 1510859843.507751: $GPZDA,191722.00,16,11,2017,00,00*6B
2017-11-16 14:17:23 1510859843.507924: $GPGGA,191722,3946.9557,N,08404.9851,W,2,11,1.00,304.19,M,-33.324,M,,*70
2017-11-16 14:17:23 1510859843.507986: $GPRMC,191722,A,3946.9557,N,08404.9851,W,0.0000,0.000,161117,,*3B
2017-11-16 14:17:23 1510859843.508043: $GPGSA,A,3,8,10,13,15,18,21,20,24,27,32,138,,1.6,1.0,1.3*39
2017-11-16 14:17:24 1510859844.839238: $GPGSV,3,1,12,08,06,321,32,10,42,301,44,13,07,049,04,15,36,052,51*7C
2017-11-16 14:17:24 1510859844.839384: $GPGSV,3,2,12,18,72,339,46,21,62,189,46,20,32,097,45,24,51,108,48*72
2017-11-16 14:17:24 1510859844.839443: $GPGSV,3,3,12,27,19,288,39,32,21,238,46,14,05,232,00,138,38,213,44*44
2017-11-16 14:17:24 1510859844.953288: $GPZDA,191723.00,16,11,2017,00,00*6A
2017-11-16 14:17:24 1510859844.953458: $GPGGA,191723,3946.9557,N,08404.9851,W,2,10,1.00,304.19,M,-33.324,M,,*70
2017-11-16 14:17:24 1510859844.953519: $GPRMC,191723,A,3946.9557,N,08404.9851,W,0.0000,0.000,161117,,*3A
2017-11-16 14:17:24 1510859844.953576: $GPGSA,A,3,8,10,15,18,21,20,24,27,32,138,,,1.6,1.0,1.3*3B
2017-11-16 14:17:25 1510859845.538708: $GPZDA,191724.00,16,11,2017,00,00*6D
2017-11-16 14:17:25 1510859845.538870: $GPGGA,191724,3946.9557,N,08404.9851,W,2,10,1.00,304.19,M,-33.324,M,,*77
2017-11-16 14:17:25 1510859845.538930: $GPRMC,191724,A,3946.9557,N,08404.9851,W,0.0000,0.000,161117,,*3D
2017-11-16 14:17:25 1510859845.538986: $GPGSA,A,3,8,10,15,18,21,20,24,27,32,138,,,1.6,1.0,1.3*3B
2017-11-16 14:17:26 1510859846.508410: $GPZDA,191725.00,16,11,2017,00,00*6C
2017-11-16 14:17:26 1510859846.508574: $GPGGA,191725,3946.9557,N,08404.9851,W,2,10,1.00,304.19,M,-33.324,M,,*76
2017-11-16 14:17:26 1510859846.508635: $GPRMC,191725,A,3946.9557,N,08404.9851,W,0.0000,0.000,161117,,*3C
2017-11-16 14:17:26 1510859846.508691: $GPGSA,A,3,8,10,15,18,21,20,24,27,32,138,,,1.6,1.0,1.3*3B
2017-11-16 14:17:27 1510859847.842566: $GPGSV,3,1,12,08,06,321,35,10,42,301,43,13,07,049,05,15,36,052,51*7D
2017-11-16 14:17:27 1510859847.842790: $GPGSV,3,2,12,18,72,339,47,21,62,189,46,20,32,097,45,24,51,108,48*73
2017-11-16 14:17:27 1510859847.842853: $GPGSV,3,3,12,27,19,288,40,32,21,238,46,14,05,232,00,138,38,213,44*4A
2017-11-16 14:17:27 1510859847.955876: $GPZDA,191726.00,16,11,2017,00,00*6F
2017-11-16 14:17:27 1510859847.956034: $GPGGA,191726,3946.9557,N,08404.9851,W,2,10,1.00,304.19,M,-33.324,M,,*75
2017-11-16 14:17:27 1510859847.956095: $GPRMC,191726,A,3946.9557,N,08404.9851,W,0.0000,0.000,161117,,*3F
2017-11-16 14:17:27 1510859847.956151: $GPGSA,A,3,8,10,15,18,21,20,24,27,32,138,,,1.6,1.0,1.3*3B
2017-11-16 14:17:28 1510859848.537969: $GPZDA,191727.00,16,11,2017,00,00*6E
2017-11-16 14:17:28 1510859848.538130: $GPGGA,191727,3946.9557,N,08404.9851,W,2,10,1.00,304.19,M,-33.324,M,,*74
2017-11-16 14:17:28 1510859848.538191: $GPRMC,191727,A,3946.9557,N,08404.9851,W,0.0000,0.000,161117,,*3E
2017-11-16 14:17:28 1510859848.538248: $GPGSA,A,3,8,10,15,18,21,20,24,27,32,138,,,1.6,1.0,1.3*3B
2017-11-16 14:17:29 1510859849.539568: $GPZDA,191728.00,16,11,2017,00,00*61
2017-11-16 14:17:29 1510859849.539720: $GPGGA,191728,3946.9557,N,08404.9851,W,2,10,1.00,304.19,M,-33.324,M,,*7B
2017-11-16 14:17:29 1510859849.539800: $GPRMC,191728,A,3946.9557,N,08404.9851,W,0.0000,0.000,161117,,*31
2017-11-16 14:17:29 1510859849.539859: $GPGSA,A,3,8,10,15,18,21,20,24,27,32,138,,,1.6,1.0,1.3*3B
2017-11-16 14:17:30 1510859850.845323: $GPGSV,3,1,12,08,06,321,40,10,42,301,43,13,07,049,07,15,36,052,51*7D
2017-11-16 14:17:30 1510859850.845493: $GPGSV,3,2,12,18,72,339,47,21,62,189,47,20,32,097,45,24,51,108,48*72
2017-11-16 14:17:30 1510859850.845554: $GPGSV,3,3,12,27,19,288,40,32,21,238,45,14,05,232,00,138,38,213,45*48
2017-11-16 14:17:30 1510859850.957694: $GPZDA,191729.00,16,11,2017,00,00*60
2017-11-16 14:17:30 1510859850.957873: $GPGGA,191729,3946.9557,N,08404.9851,W,2,10,1.00,304.19,M,-33.324,M,,*7A
2017-11-16 14:17:30 1510859850.957934: $GPRMC,191729,A,3946.9557,N,08404.9851,W,0.0000,0.000,161117,,*30
2017-11-16 14:17:30 1510859850.957991: $GPGSA,A,3,8,10,15,18,21,20,24,27,32,138,,,1.6,1.0,1.3*3B
2017-11-16 14:17:31 1510859851.537026: $GPZDA,191730.00,16,11,2017,00,00*68
2017-11-16 14:17:31 1510859851.537207: $GPGGA,191730,3946.9557,N,08404.9851,W,2,10,1.00,304.19,M,-33.324,M,,*72
2017-11-16 14:17:31 1510859851.537269: $GPRMC,191730,A,3946.9557,N,08404.9851,W,0.0000,0.000,161117,,*38
2017-11-16 14:17:31 1510859851.537326: $GPGSA,A,3,8,10,15,18,21,20,24,27,32,138,,,1.6,1.0,1.3*3B
2017-11-16 14:17:32 1510859852.501966: $GPZDA,191731.00,16,11,2017,00,00*69
2017-11-16 14:17:32 1510859852.502131: $GPGGA,191731,3946.9557,N,08404.9851,W,2,10,1.00,304.19,M,-33.324,M,,*73
2017-11-16 14:17:32 1510859852.502191: $GPRMC,191731,A,3946.9557,N,08404.9851,W,0.0000,0.000,161117,,*39
2017-11-16 14:17:32 1510859852.502247: $GPGSA,A,3,8,10,15,18,21,20,24,27,32,138,,,1.6,1.0,1.3*3B
2017-11-16 14:17:33 1510859853.843588: $GPGSV,3,1,12,08,06,321,42,10,42,301,43,13,07,049,06,15,36,052,51*7E
2017-11-16 14:17:33 1510859853.843760: $GPGSV,3,2,12,18,72,339,46,21,62,189,47,20,32,097,46,24,51,108,47*7F
2017-11-16 14:17:33 1510859853.843820: $GPGSV,3,3,12,27,19,288,39,32,21,238,46,14,05,232,00,138,38,213,45*45
2017-11-16 14:17:33 1510859853.957258: $GPZDA,191732.00,16,11,2017,00,00*6A
2017-11-16 14:17:33 1510859853.957417: $GPGGA,191732,3946.9557,N,08404.9851,W,2,10,1.00,304.19,M,-33.324,M,,*70
2017-11-16 14:17:33 1510859853.957477: $GPRMC,191732,A,3946.9557,N,08404.9851,W,0.0000,0.000,161117,,*3A
2017-11-16 14:17:33 1510859853.957533: $GPGSA,A,3,8,10,15,18,21,20,24,27,32,138,,,1.6,1.0,1.3*3B
2017-11-16 14:17:34 1510859854.582537: $GPZDA,191733.00,16,11,2017,00,00*6B
2017-11-16 14:17:34 1510859854.582698: $GPGGA,191733,3946.9557,N,08404.9851,W,2,10,1.00,304.19,M,-33.324,M,,*71
2017-11-16 14:17:34 1510859854.582758: $GPRMC,191733,A,3946.9557,N,08404.9851,W,0.0000,0.000,161117,,*3B
2017-11-16 14:17:34 1510859854.582814: $GPGSA,A,3,8,10,15,18,21,20,24,27,32,138,,,1.6,1.0,1.3*3B
