2017-11-16 17:04:49 1510869889.441797: {"class":"VERSION","release":"3.17","rev":"3.17","proto_major":3,"proto_minor":12}
2017-11-16 17:04:49 1510869889.442295: {"class":"DEVICES","devices":[{"class":"DEVICE","path":"/dev/ttyUSB0","driver":"SiRF","subtype":"9\u0006GSD4e_4.1.2-P1_RPATCH.05-F-GPS-4R-1510281 11/03/2015 307","activated":"2017-11-16T22:04:49.441Z","flags":1,"native":1,"bps":4800,"parity":"N","stopbits":1,"cycle":1.00}]}
2017-11-16 17:04:49 1510869889.442433: {"class":"WATCH","enable":true,"json":false,"nmea":true,"raw":0,"scaled":false,"timing":false,"split24":false,"pps":false}
2017-11-16 17:04:50 1510869890.395952: $GPZDA,220449.00,16,11,2017,00,00*6C
2017-11-16 17:04:50 1510869890.396135: $GPGGA,220449,3946.9578,N,08404.9811,W,2,12,0.80,312.08,M,-33.324,M,,*73
2017-11-16 17:04:50 1510869890.396197: $GPRMC,220449,A,3946.9578,N,08404.9811,W,0.0000,0.000,161117,,*35
2017-11-16 17:04:50 1510869890.396253: $GPGSA,A,3,1,10,11,12,14,18,22,24,25,31,32,138,1.6,0.8,1.3*38
2017-11-16 17:04:51 1510869891.748613: $GPGSV,3,1,12,01,18,312,40,10,61,141,49,11,11,294,36,12,25,063,50*75
2017-11-16 17:04:51 1510869891.748785: $GPGSV,3,2,12,14,60,304,46,18,30,139,43,22,09,312,39,24,07,046,27*7E
2017-11-16 17:04:51 1510869891.748846: $GPGSV,3,3,12,25,35,105,46,31,43,216,49,32,70,351,50,138,38,213,44*45
2017-11-16 17:04:51 1510869891.861938: $GPZDA,220450.00,16,11,2017,00,00*64
2017-11-16 17:04:51 1510869891.862118: $GPGGA,220450,3946.9578,N,08404.9811,W,2,12,0.80,312.08,M,-33.324,M,,*7B
2017-11-16 17:04:51 1510869891.862180: $GPRMC,220450,A,3946.9578,N,08404.9811,W,0.0000,0.000,161117,,*3D
2017-11-16 17:04:51 1510869891.862236: $GPGSA,A,3,1,10,11,12,14,18,22,24,25,31,32,138,1.6,0.8,1.3*38
2017-11-16 17:04:52 1510869892.392380: $GPZDA,220451.00,16,11,2017,00,00*65
2017-11-16 17:04:52 1510869892.392540: $GPGGA,220451,3946.9578,N,08404.9811,W,2,12,0.80,312.08,M,-33.324,M,,*7A
2017-11-16 17:04:52 1510869892.392614: $GPRMC,220451,A,3946.9578,N,08404.9811,W,0.0000,0.000,161117,,*3C
2017-11-16 17:04:52 1510869892.392671: $GPGSA,A,3,1,10,11,12,14,18,22,24,25,31,32,138,1.6,0.8,1.3*38
2017-11-16 17:04:53 1510869893.398323: $GPZDA,220452.00,16,11,2017,00,00*66
2017-11-16 17:04:53 1510869893.398700: $GPGGA,220452,3946.9578,N,08404.9811,W,2,12,0.80,312.08,M,-33.324,M,,*79
2017-11-16 17:04:53 1510869893.398786: $GPRMC,220452,A,3946.9578,N,08404.9811,W,0.0000,0.000,161117,,*3F
2017-11-16 17:04:53 1510869893.398862: $GPGSA,A,3,1,10,11,12,14,18,22,24,25,31,32,138,1.6,0.8,1.3*38
2017-11-16 17:04:54 1510869894.733163: $GPGSV,3,1,12,01,18,312,42,10,61,141,48,11,11,294,38,12,25,063,50*78
2017-11-16 17:04:54 1510869894.733304: $GPGSV,3,2,12,14,60,304,46,18,30,139,42,22,09,312,38,24,07,046,28*71
2017-11-16 17:04:54 1510869894.733364: $GPGSV,3,3,12,25,35,105,45,31,43,216,49,32,70,351,50,138,38,213,44*46
2017-11-16 17:04:54 1510869894.846595: $GPZDA,220453.00,16,11,2017,00,00*67
2017-11-16 17:04:54 1510869894.846758: $GPGGA,220453,3946.9578,N,08404.9811,W,2,12,0.80,312.08,M,-33.324,M,,*78
2017-11-16 17:04:54 1510869894.846837: $GPRMC,220453,A,3946.9578,N,08404.9811,W,0.0000,0.000,161117,,*3E
2017-11-16 17:04:54 1510869894.846895: $GPGSA,A,3,1,10,11,12,14,18,22,24,25,31,32,138,1.6,0.8,1.3*38
2017-11-16 17:04:55 1510869895.769455: $GPZDA,220454.00,16,11,2017,00,00*60
2017-11-16 17:04:55 1510869895.769598: $GPGGA,220454,3946.9578,N,08404.9811,W,2,12,0.80,312.08,M,-33.324,M,,*7F
2017-11-16 17:04:55 1510869895.769659: $GPRMC,220454,A,3946.9578,N,08404.9811,W,0.0000,0.000,161117,,*39
2017-11-16 17:04:55 1510869895.769715: $GPGSA,A,3,1,10,11,12,14,18,22,24,25,31,32,138,1.6,0.8,1.3*38
2017-11-16 17:04:55 1510869895.769769: $GPGBS,220454,2.07,M,2.72,M,7.42,M*38
2017-11-16 17:04:56 1510869896.556272: $GPZDA,220455.00,16,11,2017,00,00*61
2017-11-16 17:04:56 1510869896.556436: $GPGGA,220455,3946.9578,N,08404.9811,W,2,12,0.80,312.08,M,-33.324,M,,*7E
2017-11-16 17:04:56 1510869896.556497: $GPRMC,220455,A,3946.9578,N,08404.9811,W,0.0000,0.000,161117,,*38
2017-11-16 17:04:56 1510869896.556553: $GPGSA,A,3,1,10,11,12,14,18,22,24,25,31,32,138,1.6,0.8,1.3*38
2017-11-16 17:04:57 1510869897.748524: $GPGSV,3,1,12,01,18,312,42,10,61,141,48,11,11,292,38,12,25,061,50*7C
2017-11-16 17:04:57 1510869897.748680: $GPGSV,3,2,12,14,60,304,46,18,29,139,42,22,09,312,38,24,07,046,28*79
2017-11-16 17:04:57 1510869897.748758: $GPGSV,3,3,12,25,35,105,45,31,43,216,49,32,70,352,50,138,38,213,43*42
2017-11-16 17:04:57 1510869897.861838: $GPZDA,220456.00,16,11,2017,00,00*62
2017-11-16 17:04:57 1510869897.862001: $GPGGA,220456,3946.9578,N,08404.9811,W,2,12,0.80,312.08,M,-33.324,M,,*7D
2017-11-16 17:04:57 1510869897.862062: $GPRMC,220456,A,3946.9578,N,08404.9811,W,0.0000,0.000,161117,,*3B
2017-11-16 17:04:57 1510869897.862118: $GPGSA,A,3,1,10,11,12,14,18,22,24,25,31,32,138,1.6,0.8,1.3*38
2017-11-16 17:04:58 1510869898.396662: $GPZDA,220457.00,16,11,2017,00,00*63
2017-11-16 17:04:58 1510869898.396895: $GPGGA,220457,3946.9578,N,08404.9811,W,2,12,0.80,312.08,M,-33.324,M,,*7C
2017-11-16 17:04:58 1510869898.396980: $GPRMC,220457,A,3946.9578,N,08404.9811,W,0.0000,0.000,161117,,*3A
2017-11-16 17:04:58 1510869898.397038: $GPGSA,A,3,1,10,11,12,14,18,22,24,25,31,32,138,1.6,0.8,1.3*38
2017-11-16 17:04:59 1510869899.397570: $GPZDA,220458.00,16,11,2017,00,00*6C
2017-11-16 17:04:59 1510869899.397890: $GPGGA,220458,3946.9578,N,08404.9811,W,2,12,0.80,312.08,M,-33.324,M,,*73
2017-11-16 17:04:59 1510869899.398008: $GPRMC,220458,A,3946.9578,N,08404.9811,W,0.0000,0.000,161117,,*35
2017-11-16 17:04:59 1510869899.398116: $GPGSA,A,3,1,10,11,12,14,18,22,24,25,31,32,138,1.6,0.8,1.3*38
