2018-01-12 03:30:26 1515745826.680520: {"class":"VERSION","release":"3.16","rev":"3.16-4","proto_major":3,"proto_minor":11}
2018-01-12 03:30:26 1515745826.680900: {"class":"DEVICES","devices":[{"class":"DEVICE","path":"/dev/ttyUSB0","driver":"SiRF","subtype":"9\u0006GSD4e_4.1.2-P1_RPATCH.05-F-GPS-4R-1510281 11/03/2015 307","activated":"2018-01-12T08:30:26.266Z","flags":1,"native":1,"bps":4800,"parity":"N","stopbits":1,"cycle":1.00}]}
2018-01-12 03:30:26 1515745826.681015: {"class":"WATCH","enable":true,"json":false,"nmea":true,"raw":0,"scaled":false,"timing":false,"split24":false,"pps":false}
2018-01-12 03:30:26 1515745826.716126: $GPGSV,3,1,12,02,64,285,47,05,25,195,45,06,65,028,47,12,51,292,51*7C
2018-01-12 03:30:26 1515745826.716249: $GPGSV,3,2,12,17,32,103,47,19,50,091,39,25,17,318,43,09,13,090,30*7F
2018-01-12 03:30:26 1515745826.716314: $GPGSV,3,3,12,23,08,057,25,24,03,247,25,04,37,259,09,138,38,213,38*48
2018-01-12 03:30:26 1515745826.829953: $GPZDA,083027.00,12,01,2018,00,00*61
2018-01-12 03:30:26 1515745826.830141: $GPGGA,083027,3946.9582,N,08404.9879,W,2,11,0.80,295.64,M,-33.324,M,,*78
2018-01-12 03:30:26 1515745826.830208: $GPRMC,083027,A,3946.9582,N,08404.9879,W,0.0000,0.000,120118,,*33
2018-01-12 03:30:26 1515745826.830269: $GPGSA,A,3,2,5,6,12,17,19,25,9,23,24,138,,2.4,0.8,2.1*00
2018-01-12 03:30:27 1515745827.382094: $GPZDA,083028.00,12,01,2018,00,00*6E
2018-01-12 03:30:27 1515745827.382325: $GPGGA,083028,3946.9582,N,08404.9879,W,2,11,0.80,295.64,M,-33.324,M,,*77
2018-01-12 03:30:27 1515745827.382396: $GPRMC,083028,A,3946.9582,N,08404.9879,W,0.0000,0.000,120118,,*3C
2018-01-12 03:30:27 1515745827.382459: $GPGSA,A,3,2,5,6,12,17,19,25,9,23,24,138,,2.4,0.8,2.1*00
2018-01-12 03:30:28 1515745828.384763: $GPZDA,083029.00,12,01,2018,00,00*6F
2018-01-12 03:30:28 1515745828.384936: $GPGGA,083029,3946.9582,N,08404.9879,W,2,11,0.80,295.64,M,-33.324,M,,*76
2018-01-12 03:30:28 1515745828.385003: $GPRMC,083029,A,3946.9582,N,08404.9879,W,0.0000,0.000,120118,,*3D
2018-01-12 03:30:28 1515745828.385065: $GPGSA,A,3,2,5,6,12,17,19,25,9,23,24,138,,2.4,0.8,2.1*00
2018-01-12 03:30:29 1515745829.721620: $GPGSV,3,1,12,02,64,285,47,05,25,195,45,06,65,028,47,12,51,292,51*7C
2018-01-12 03:30:29 1515745829.721816: $GPGSV,3,2,12,17,32,103,46,19,50,091,39,25,17,318,43,09,13,090,30*7E
2018-01-12 03:30:29 1515745829.721899: $GPGSV,3,3,12,23,08,057,25,24,03,247,26,04,37,259,00,138,38,213,37*4D
2018-01-12 03:30:29 1515745829.834947: $GPZDA,083030.00,12,01,2018,00,00*67
2018-01-12 03:30:29 1515745829.835133: $GPGGA,083030,3946.9582,N,08404.9879,W,2,11,0.80,295.64,M,-33.324,M,,*7E
2018-01-12 03:30:29 1515745829.835200: $GPRMC,083030,A,3946.9582,N,08404.9879,W,0.0000,0.000,120118,,*35
2018-01-12 03:30:29 1515745829.835261: $GPGSA,A,3,2,5,6,12,17,19,25,9,23,24,138,,2.4,0.8,2.1*00
2018-01-12 03:30:30 1515745830.387049: $GPZDA,083031.00,12,01,2018,00,00*66
2018-01-12 03:30:30 1515745830.387222: $GPGGA,083031,3946.9582,N,08404.9879,W,2,11,0.80,295.64,M,-33.324,M,,*7F
2018-01-12 03:30:30 1515745830.387289: $GPRMC,083031,A,3946.9582,N,08404.9879,W,0.0000,0.000,120118,,*34
2018-01-12 03:30:30 1515745830.387351: $GPGSA,A,3,2,5,6,12,17,19,25,9,23,24,138,,2.4,0.8,2.1*00
2018-01-12 03:30:31 1515745831.385507: $GPZDA,083032.00,12,01,2018,00,00*65
2018-01-12 03:30:31 1515745831.385681: $GPGGA,083032,3946.9582,N,08404.9879,W,2,11,0.80,295.64,M,-33.324,M,,*7C
2018-01-12 03:30:31 1515745831.385773: $GPRMC,083032,A,3946.9582,N,08404.9879,W,0.0000,0.000,120118,,*37
2018-01-12 03:30:31 1515745831.385852: $GPGSA,A,3,2,5,6,12,17,19,25,9,23,24,138,,2.4,0.8,2.1*00
2018-01-12 03:30:32 1515745832.716155: $GPGSV,3,1,12,02,64,285,46,05,25,195,45,06,65,028,47,12,51,292,51*7D
2018-01-12 03:30:32 1515745832.716335: $GPGSV,3,2,12,17,32,103,46,19,50,091,39,25,17,318,43,09,13,090,30*7E
2018-01-12 03:30:32 1515745832.716400: $GPGSV,3,3,12,23,08,057,26,24,03,247,26,04,37,259,00,138,38,213,38*41
2018-01-12 03:30:32 1515745832.829776: $GPZDA,083033.00,12,01,2018,00,00*64
2018-01-12 03:30:32 1515745832.829948: $GPGGA,083033,3946.9582,N,08404.9879,W,2,11,0.80,295.64,M,-33.324,M,,*7D
2018-01-12 03:30:32 1515745832.830069: $GPRMC,083033,A,3946.9582,N,08404.9879,W,0.0000,0.000,120118,,*36
2018-01-12 03:30:32 1515745832.830132: $GPGSA,A,3,2,5,6,12,17,19,25,9,23,24,138,,2.4,0.8,2.1*00
2018-01-12 03:30:33 1515745833.456448: $GPZDA,083034.00,12,01,2018,00,00*63
2018-01-12 03:30:33 1515745833.456616: $GPGGA,083034,3946.9582,N,08404.9879,W,2,11,0.80,295.64,M,-33.324,M,,*7A
2018-01-12 03:30:33 1515745833.456682: $GPRMC,083034,A,3946.9582,N,08404.9879,W,0.0000,0.000,120118,,*31
2018-01-12 03:30:33 1515745833.456762: $GPGSA,A,3,2,5,6,12,17,19,25,9,23,24,138,,2.4,0.8,2.1*00
2018-01-12 03:30:34 1515745834.380792: $GPZDA,083035.00,12,01,2018,00,00*62
2018-01-12 03:30:34 1515745834.380990: $GPGGA,083035,3946.9582,N,08404.9879,W,2,11,0.80,295.64,M,-33.324,M,,*7B
2018-01-12 03:30:34 1515745834.381060: $GPRMC,083035,A,3946.9582,N,08404.9879,W,0.0000,0.000,120118,,*30
2018-01-12 03:30:34 1515745834.381121: $GPGSA,A,3,2,5,6,12,17,19,25,9,23,24,138,,2.4,0.8,2.1*00
2018-01-12 03:30:35 1515745835.716513: $GPGSV,3,1,12,02,64,285,46,05,25,195,45,06,65,028,47,12,51,292,51*7D
2018-01-12 03:30:35 1515745835.716711: $GPGSV,3,2,12,17,32,103,47,19,50,091,39,25,17,318,43,09,13,090,29*77
2018-01-12 03:30:35 1515745835.716779: $GPGSV,3,3,12,23,08,057,26,24,03,247,26,04,37,259,00,138,38,213,33*4A
2018-01-12 03:30:35 1515745835.829903: $GPZDA,083036.00,12,01,2018,00,00*61
2018-01-12 03:30:35 1515745835.830076: $GPGGA,083036,3946.9582,N,08404.9879,W,2,11,0.80,295.64,M,-33.324,M,,*78
2018-01-12 03:30:35 1515745835.830142: $GPRMC,083036,A,3946.9582,N,08404.9879,W,0.0000,0.000,120118,,*33
2018-01-12 03:30:35 1515745835.830203: $GPGSA,A,3,2,5,6,12,17,19,25,9,23,24,138,,2.4,0.8,2.1*00
2018-01-12 03:30:36 1515745836.377199: $GPZDA,083037.00,12,01,2018,00,00*60
2018-01-12 03:30:36 1515745836.377367: $GPGGA,083037,3946.9582,N,08404.9879,W,2,11,0.80,295.64,M,-33.324,M,,*79
2018-01-12 03:30:36 1515745836.377434: $GPRMC,083037,A,3946.9582,N,08404.9879,W,0.0000,0.000,120118,,*32
2018-01-12 03:30:36 1515745836.377496: $GPGSA,A,3,2,5,6,12,17,19,25,9,23,24,138,,2.4,0.8,2.1*00
2018-01-12 03:30:37 1515745837.376663: $GPZDA,083038.00,12,01,2018,00,00*6F
2018-01-12 03:30:37 1515745837.376884: $GPGGA,083038,3946.9582,N,08404.9879,W,2,11,0.80,295.64,M,-33.324,M,,*76
2018-01-12 03:30:37 1515745837.376953: $GPRMC,083038,A,3946.9582,N,08404.9879,W,0.0000,0.000,120118,,*3D
2018-01-12 03:30:37 1515745837.377014: $GPGSA,A,3,2,5,6,12,17,19,25,9,23,24,138,,2.4,0.8,2.1*00
2018-01-12 03:30:38 1515745838.711873: $GPGSV,3,1,12,02,64,285,46,05,25,195,45,06,65,028,47,12,51,292,51*7D
2018-01-12 03:30:38 1515745838.712028: $GPGSV,3,2,12,17,32,103,47,19,50,091,39,25,17,318,43,09,13,090,29*77
2018-01-12 03:30:38 1515745838.712093: $GPGSV,3,3,12,23,08,057,26,24,03,247,25,04,37,259,00,138,38,213,36*4C
2018-01-12 03:30:38 1515745838.825309: $GPZDA,083039.00,12,01,2018,00,00*6E
2018-01-12 03:30:38 1515745838.825479: $GPGGA,083039,3946.9582,N,08404.9879,W,2,11,0.80,295.64,M,-33.324,M,,*77
2018-01-12 03:30:38 1515745838.825546: $GPRMC,083039,A,3946.9582,N,08404.9879,W,0.0000,0.000,120118,,*3C
2018-01-12 03:30:38 1515745838.825606: $GPGSA,A,3,2,5,6,12,17,19,25,9,23,24,138,,2.4,0.8,2.1*00
2018-01-12 03:30:39 1515745839.382373: $GPZDA,083040.00,12,01,2018,00,00*60
2018-01-12 03:30:39 1515745839.382543: $GPGGA,083040,3946.9582,N,08404.9879,W,2,11,0.80,295.64,M,-33.324,M,,*79
2018-01-12 03:30:39 1515745839.382625: $GPRMC,083040,A,3946.9582,N,08404.9879,W,0.0000,0.000,120118,,*32
2018-01-12 03:30:39 1515745839.382708: $GPGSA,A,3,2,5,6,12,17,19,25,9,23,24,138,,2.4,0.8,2.1*00
2018-01-12 03:30:40 1515745840.382038: $GPZDA,083041.00,12,01,2018,00,00*61
2018-01-12 03:30:40 1515745840.382213: $GPGGA,083041,3946.9582,N,08404.9879,W,2,11,0.80,295.64,M,-33.324,M,,*78
2018-01-12 03:30:40 1515745840.382281: $GPRMC,083041,A,3946.9582,N,08404.9879,W,0.0000,0.000,120118,,*33
2018-01-12 03:30:40 1515745840.382343: $GPGSA,A,3,2,5,6,12,17,19,25,9,23,24,138,,2.4,0.8,2.1*00
2018-01-12 03:30:41 1515745841.738987: $GPGSV,3,1,12,02,64,285,46,05,25,195,45,06,65,028,47,12,51,292,51*7D
2018-01-12 03:30:41 1515745841.739235: $GPGSV,3,2,12,17,32,103,47,19,50,091,39,25,17,318,43,09,13,090,29*77
2018-01-12 03:30:41 1515745841.739304: $GPGSV,3,3,12,23,08,057,26,24,03,247,25,04,37,259,00,138,38,213,38*42
2018-01-12 03:30:41 1515745841.852491: $GPZDA,083042.00,12,01,2018,00,00*62
2018-01-12 03:30:41 1515745841.852667: $GPGGA,083042,3946.9582,N,08404.9879,W,2,11,0.80,295.64,M,-33.324,M,,*7B
2018-01-12 03:30:41 1515745841.852735: $GPRMC,083042,A,3946.9582,N,08404.9879,W,0.0000,0.000,120118,,*30
2018-01-12 03:30:41 1515745841.852813: $GPGSA,A,3,2,5,6,12,17,19,25,9,23,24,138,,2.4,0.8,2.1*00
2018-01-12 03:30:42 1515745842.388271: $GPZDA,083043.00,12,01,2018,00,00*63
2018-01-12 03:30:42 1515745842.391940: $GPGGA,083043,3946.9582,N,08404.9879,W,2,11,0.80,295.64,M,-33.324,M,,*7A
2018-01-12 03:30:42 1515745842.392053: $GPRMC,083043,A,3946.9582,N,08404.9879,W,0.0000,0.000,120118,,*31
2018-01-12 03:30:42 1515745842.392118: $GPGSA,A,3,2,5,6,12,17,19,25,9,23,24,138,,2.4,0.8,2.1*00
2018-01-12 03:30:43 1515745843.382422: $GPZDA,083044.00,12,01,2018,00,00*64
2018-01-12 03:30:43 1515745843.382593: $GPGGA,083044,3946.9582,N,08404.9879,W,2,11,0.80,295.64,M,-33.324,M,,*7D
2018-01-12 03:30:43 1515745843.382684: $GPRMC,083044,A,3946.9582,N,08404.9879,W,0.0000,0.000,120118,,*36
2018-01-12 03:30:43 1515745843.382747: $GPGSA,A,3,2,5,6,12,17,19,25,9,23,24,138,,2.4,0.8,2.1*00
2018-01-12 03:30:44 1515745844.729561: $GPGSV,3,1,12,02,64,285,47,05,25,195,45,06,65,028,47,12,51,292,51*7C
2018-01-12 03:30:44 1515745844.729757: $GPGSV,3,2,12,17,32,103,47,19,50,091,39,25,17,318,43,09,13,090,29*77
2018-01-12 03:30:44 1515745844.729840: $GPGSV,3,3,12,23,08,057,26,24,03,247,25,04,37,259,00,138,38,213,39*43
2018-01-12 03:30:44 1515745844.842755: $GPZDA,083045.00,12,01,2018,00,00*65
2018-01-12 03:30:44 1515745844.842959: $GPGGA,083045,3946.9582,N,08404.9879,W,2,11,0.80,295.64,M,-33.324,M,,*7C
2018-01-12 03:30:44 1515745844.843041: $GPRMC,083045,A,3946.9582,N,08404.9879,W,0.0000,0.000,120118,,*37
2018-01-12 03:30:44 1515745844.843119: $GPGSA,A,3,2,5,6,12,17,19,25,9,23,24,138,,2.4,0.8,2.1*00
2018-01-12 03:30:45 1515745845.397381: $GPZDA,083046.00,12,01,2018,00,00*66
2018-01-12 03:30:45 1515745845.397556: $GPGGA,083046,3946.9582,N,08404.9879,W,2,11,0.80,295.64,M,-33.324,M,,*7F
2018-01-12 03:30:45 1515745845.397623: $GPRMC,083046,A,3946.9582,N,08404.9879,W,0.0000,0.000,120118,,*34
2018-01-12 03:30:45 1515745845.397708: $GPGSA,A,3,2,5,6,12,17,19,25,9,23,24,138,,2.4,0.8,2.1*00
2018-01-12 03:30:46 1515745846.384658: $GPZDA,083047.00,12,01,2018,00,00*67
2018-01-12 03:30:46 1515745846.385004: $GPGGA,083047,3946.9582,N,08404.9879,W,2,11,0.80,295.64,M,-33.324,M,,*7E
2018-01-12 03:30:46 1515745846.385129: $GPRMC,083047,A,3946.9582,N,08404.9879,W,0.0000,0.000,120118,,*35
2018-01-12 03:30:46 1515745846.385248: $GPGSA,A,3,2,5,6,12,17,19,25,9,23,24,138,,2.4,0.8,2.1*00
