2017-12-29 14:37:10 1514576230.946866: {"class":"VERSION","release":"3.16","rev":"3.16-4","proto_major":3,"proto_minor":11}
2017-12-29 14:37:10 1514576230.947199: {"class":"DEVICES","devices":[{"class":"DEVICE","path":"/dev/ttyUSB0","driver":"SiRF","subtype":"9\u0006GSD4e_4.1.2-P1_RPATCH.05-F-GPS-4R-1510281 11/03/2015 307","activated":"2017-12-29T19:37:10.913Z","flags":1,"native":1,"bps":4800,"parity":"N","stopbits":1,"cycle":1.00}]}
2017-12-29 14:37:10 1514576230.947309: {"class":"WATCH","enable":true,"json":false,"nmea":true,"raw":0,"scaled":false,"timing":false,"split24":false,"pps":false}
2017-12-29 14:37:11 1514576231.321460: $GPZDA,193712.00,29,12,2017,00,00*65
2017-12-29 14:37:11 1514576231.321602: $GPGGA,193712,3946.9587,N,08404.9856,W,2,12,1.00,292.94,M,-33.324,M,,*73
2017-12-29 14:37:11 1514576231.321666: $GPRMC,193712,A,3946.9587,N,08404.9856,W,0.0000,0.000,291217,,*3F
2017-12-29 14:37:11 1514576231.321727: $GPGSA,A,3,1,10,12,14,18,22,25,31,32,3,11,138,1.7,1.0,1.3*05
2017-12-29 14:37:12 1514576232.322316: $GPZDA,193713.00,29,12,2017,00,00*64
2017-12-29 14:37:12 1514576232.322479: $GPGGA,193713,3946.9587,N,08404.9856,W,2,12,1.00,292.94,M,-33.324,M,,*72
2017-12-29 14:37:12 1514576232.322544: $GPRMC,193713,A,3946.9587,N,08404.9856,W,0.0000,0.000,291217,,*3E
2017-12-29 14:37:12 1514576232.322604: $GPGSA,A,3,1,10,12,14,18,22,25,31,32,3,11,138,1.7,1.0,1.3*05
2017-12-29 14:37:13 1514576233.661435: $GPGSV,3,1,12,01,21,300,35,10,47,148,51,12,22,049,46,14,66,327,43*7C
2017-12-29 14:37:13 1514576233.661593: $GPGSV,3,2,12,18,17,144,46,22,20,312,34,25,40,090,51,31,58,225,47*75
2017-12-29 14:37:13 1514576233.661659: $GPGSV,3,3,12,32,68,033,48,03,01,316,28,11,08,282,31,138,38,213,42*40
2017-12-29 14:37:13 1514576233.774998: $GPZDA,193714.00,29,12,2017,00,00*63
2017-12-29 14:37:13 1514576233.775170: $GPGGA,193714,3946.9587,N,08404.9856,W,2,12,1.00,292.94,M,-33.324,M,,*75
2017-12-29 14:37:13 1514576233.775235: $GPRMC,193714,A,3946.9587,N,08404.9856,W,0.0000,0.000,291217,,*39
2017-12-29 14:37:13 1514576233.775295: $GPGSA,A,3,1,10,12,14,18,22,25,31,32,3,11,138,1.7,1.0,1.3*05
2017-12-29 14:37:14 1514576234.401695: $GPZDA,193715.00,29,12,2017,00,00*62
2017-12-29 14:37:14 1514576234.401857: $GPGGA,193715,3946.9587,N,08404.9856,W,2,12,1.00,292.94,M,-33.324,M,,*74
2017-12-29 14:37:14 1514576234.401924: $GPRMC,193715,A,3946.9587,N,08404.9856,W,0.0000,0.000,291217,,*38
2017-12-29 14:37:14 1514576234.401984: $GPGSA,A,3,1,10,12,14,18,22,25,31,32,3,11,138,1.7,1.0,1.3*05
2017-12-29 14:37:15 1514576235.323768: $GPZDA,193716.00,29,12,2017,00,00*61
2017-12-29 14:37:15 1514576235.323929: $GPGGA,193716,3946.9587,N,08404.9856,W,2,12,1.00,292.94,M,-33.324,M,,*77
2017-12-29 14:37:15 1514576235.323994: $GPRMC,193716,A,3946.9587,N,08404.9856,W,0.0000,0.000,291217,,*3B
2017-12-29 14:37:15 1514576235.324054: $GPGSA,A,3,1,10,12,14,18,22,25,31,32,3,11,138,1.7,1.0,1.3*05
2017-12-29 14:37:16 1514576236.660474: $GPGSV,3,1,12,01,21,300,35,10,47,148,51,12,22,049,46,14,66,327,43*7C
2017-12-29 14:37:16 1514576236.660655: $GPGSV,3,2,12,18,17,144,46,22,20,312,35,25,40,090,51,31,58,225,46*75
2017-12-29 14:37:16 1514576236.660721: $GPGSV,3,3,12,32,68,033,48,03,01,316,28,11,08,282,32,138,38,213,42*43
2017-12-29 14:37:16 1514576236.774139: $GPZDA,193717.00,29,12,2017,00,00*60
2017-12-29 14:37:16 1514576236.774302: $GPGGA,193717,3946.9587,N,08404.9856,W,2,12,1.00,292.94,M,-33.324,M,,*76
2017-12-29 14:37:16 1514576236.774368: $GPRMC,193717,A,3946.9587,N,08404.9856,W,0.0000,0.000,291217,,*3A
2017-12-29 14:37:16 1514576236.774428: $GPGSA,A,3,1,10,12,14,18,22,25,31,32,3,11,138,1.7,1.0,1.3*05
2017-12-29 14:37:17 1514576237.324973: $GPZDA,193718.00,29,12,2017,00,00*6F
2017-12-29 14:37:17 1514576237.325133: $GPGGA,193718,3946.9587,N,08404.9849,W,2,12,0.80,293.02,M,-33.324,M,,*70
2017-12-29 14:37:17 1514576237.325197: $GPRMC,193718,A,3946.9587,N,08404.9849,W,0.0000,0.000,291217,,*3B
2017-12-29 14:37:17 1514576237.325257: $GPGSA,A,3,1,10,12,14,18,22,25,31,32,3,11,138,1.7,0.8,1.3*0C
2017-12-29 14:37:18 1514576238.332170: $GPZDA,193719.00,29,12,2017,00,00*6E
2017-12-29 14:37:18 1514576238.332382: $GPGGA,193719,3946.9587,N,08404.9849,W,2,12,0.80,293.02,M,-33.324,M,,*71
2017-12-29 14:37:18 1514576238.332450: $GPRMC,193719,A,3946.9587,N,08404.9849,W,0.0000,0.000,291217,,*3A
2017-12-29 14:37:18 1514576238.332511: $GPGSA,A,3,1,10,12,14,18,22,25,31,32,3,11,138,1.7,0.8,1.3*0C
2017-12-29 14:37:19 1514576239.660808: $GPGSV,3,1,12,01,21,300,35,10,47,148,51,12,22,049,46,14,66,327,43*7C
2017-12-29 14:37:19 1514576239.920436: $GPGSV,3,2,12,18,17,144,46,22,20,312,35,25,40,090,51,31,58,225,46*75
2017-12-29 14:37:19 1514576239.920584: $GPGSV,3,3,12,32,68,033,48,03,01,316,29,11,08,282,32,138,38,213,43*43
2017-12-29 14:37:19 1514576239.920680: $GPZDA,193720.00,29,12,2017,00,00*64
2017-12-29 14:37:19 1514576239.920738: $GPGGA,193720,3946.9576,N,08404.9857,W,2,12,0.80,293.83,M,-33.324,M,,*73
2017-12-29 14:37:19 1514576239.920799: $GPRMC,193720,A,3946.9576,N,08404.9857,W,0.1867,180.000,291217,,*30
2017-12-29 14:37:19 1514576239.920859: $GPGSA,A,3,1,10,12,14,18,22,25,31,32,3,11,138,1.7,0.8,1.3*0C
2017-12-29 14:37:20 1514576240.325320: $GPZDA,193721.00,29,12,2017,00,00*65
2017-12-29 14:37:20 1514576240.325481: $GPGGA,193721,3946.9576,N,08404.9857,W,2,12,0.80,293.83,M,-33.324,M,,*72
2017-12-29 14:37:20 1514576240.325547: $GPRMC,193721,A,3946.9576,N,08404.9857,W,0.0000,0.000,291217,,*30
2017-12-29 14:37:20 1514576240.325608: $GPGSA,A,3,1,10,12,14,18,22,25,31,32,3,11,138,1.7,0.8,1.3*0C
