2017-12-01 14:21:54 1512156114.996965: {"class":"VERSION","release":"3.16","rev":"3.16-4","proto_major":3,"proto_minor":11}
2017-12-01 14:21:54 1512156114.997375: {"class":"DEVICES","devices":[{"class":"DEVICE","path":"/dev/ttyUSB0","driver":"SiRF","subtype":"9\u0006GSD4e_4.1.2-P1_RPATCH.05-F-GPS-4R-1510281 11/03/2015 307","activated":"2017-12-01T19:21:54.541Z","flags":1,"native":1,"bps":4800,"parity":"N","stopbits":1,"cycle":1.00}]}
2017-12-01 14:21:54 1512156114.997494: {"class":"WATCH","enable":true,"json":false,"nmea":true,"raw":0,"scaled":false,"timing":false,"split24":false,"pps":false}
2017-12-01 14:21:55 1512156115.401587: $GPZDA,192156.00,01,12,2017,00,00*68
2017-12-01 14:21:55 1512156115.401766: $GPGGA,192156,3946.9560,N,08404.9839,W,2,12,0.80,309.97,M,-33.324,M,,*7D
2017-12-01 14:21:55 1512156115.401837: $GPRMC,192156,A,3946.9560,N,08404.9839,W,0.0000,0.000,011217,,*32
2017-12-01 14:21:55 1512156115.401899: $GPGSA,A,3,8,10,14,18,21,24,32,12,15,20,27,138,2.0,0.8,1.5*37
2017-12-01 14:21:56 1512156116.736774: $GPGSV,3,1,12,08,06,294,21,10,68,330,49,14,28,252,40,18,71,091,44*71
2017-12-01 14:21:56 1512156116.736954: $GPGSV,3,2,12,21,29,178,46,24,45,060,48,32,45,265,46,12,09,108,23*73
2017-12-01 14:21:56 1512156116.737024: $GPGSV,3,3,12,15,12,066,36,20,09,117,26,27,07,261,30,138,38,213,46*47
2017-12-01 14:21:56 1512156116.850139: $GPZDA,192157.00,01,12,2017,00,00*69
2017-12-01 14:21:56 1512156116.850328: $GPGGA,192157,3946.9560,N,08404.9839,W,2,12,0.80,309.97,M,-33.324,M,,*7C
2017-12-01 14:21:56 1512156116.850394: $GPRMC,192157,A,3946.9560,N,08404.9839,W,0.0000,0.000,011217,,*33
2017-12-01 14:21:56 1512156116.850457: $GPGSA,A,3,8,10,14,18,21,24,32,12,15,20,27,138,2.0,0.8,1.5*37
2017-12-01 14:21:57 1512156117.399757: $GPZDA,192158.00,01,12,2017,00,00*66
2017-12-01 14:21:57 1512156117.399944: $GPGGA,192158,3946.9560,N,08404.9839,W,2,12,0.80,309.97,M,-33.324,M,,*73
2017-12-01 14:21:57 1512156117.400017: $GPRMC,192158,A,3946.9560,N,08404.9839,W,0.0000,0.000,011217,,*3C
2017-12-01 14:21:57 1512156117.400085: $GPGSA,A,3,8,10,14,18,21,24,32,12,15,20,27,138,2.0,0.8,1.5*37
2017-12-01 14:21:58 1512156118.430942: $GPZDA,192159.00,01,12,2017,00,00*67
2017-12-01 14:21:58 1512156118.431123: $GPGGA,192159,3946.9560,N,08404.9839,W,2,12,0.80,309.97,M,-33.324,M,,*72
2017-12-01 14:21:58 1512156118.431192: $GPRMC,192159,A,3946.9560,N,08404.9839,W,0.0000,0.000,011217,,*3D
2017-12-01 14:21:58 1512156118.431254: $GPGSA,A,3,8,10,14,18,21,24,32,12,15,20,27,138,2.0,0.8,1.5*37
2017-12-01 14:21:59 1512156119.767658: $GPGSV,3,1,12,08,06,294,28,10,68,330,49,14,28,252,40,18,71,091,44*78
2017-12-01 14:21:59 1512156119.767831: $GPGSV,3,2,12,21,29,178,46,24,45,060,48,32,45,265,46,12,09,108,23*73
2017-12-01 14:21:59 1512156119.767897: $GPGSV,3,3,12,15,12,066,36,20,09,117,25,27,07,261,32,138,38,213,46*46
2017-12-01 14:21:59 1512156119.881127: $GPZDA,192200.00,01,12,2017,00,00*68
2017-12-01 14:21:59 1512156119.881286: $GPGGA,192200,3946.9560,N,08404.9839,W,2,12,0.80,309.97,M,-33.324,M,,*7D
2017-12-01 14:21:59 1512156119.881405: $GPRMC,192200,A,3946.9560,N,08404.9839,W,0.0000,0.000,011217,,*32
2017-12-01 14:21:59 1512156119.881475: $GPGSA,A,3,8,10,14,18,21,24,32,12,15,20,27,138,2.0,0.8,1.5*37
2017-12-01 14:22:00 1512156120.435612: $GPZDA,192201.00,01,12,2017,00,00*69
2017-12-01 14:22:00 1512156120.435802: $GPGGA,192201,3946.9560,N,08404.9839,W,2,12,0.80,309.97,M,-33.324,M,,*7C
2017-12-01 14:22:00 1512156120.435870: $GPRMC,192201,A,3946.9560,N,08404.9839,W,0.0000,0.000,011217,,*33
2017-12-01 14:22:00 1512156120.435934: $GPGSA,A,3,8,10,14,18,21,24,32,12,15,20,27,138,2.0,0.8,1.5*37
2017-12-01 14:22:01 1512156121.431304: $GPZDA,192202.00,01,12,2017,00,00*6A
2017-12-01 14:22:01 1512156121.431525: $GPGGA,192202,3946.9560,N,08404.9839,W,2,12,0.80,309.97,M,-33.324,M,,*7F
2017-12-01 14:22:01 1512156121.431593: $GPRMC,192202,A,3946.9560,N,08404.9839,W,0.0000,0.000,011217,,*30
2017-12-01 14:22:01 1512156121.431656: $GPGSA,A,3,8,10,14,18,21,24,32,12,15,20,27,138,2.0,0.8,1.5*37
2017-12-01 14:22:02 1512156122.735501: $GPGSV,3,1,12,08,06,294,27,10,68,330,49,14,28,252,40,18,71,091,44*77
2017-12-01 14:22:02 1512156122.735735: $GPGSV,3,2,12,21,29,178,46,24,45,060,48,32,45,265,46,12,09,108,23*73
2017-12-01 14:22:02 1512156122.735806: $GPGSV,3,3,12,15,12,066,36,20,09,117,24,27,07,261,32,138,38,213,46*47
2017-12-01 14:22:02 1512156122.849168: $GPZDA,192203.00,01,12,2017,00,00*6B
2017-12-01 14:22:02 1512156122.849337: $GPGGA,192203,3946.9560,N,08404.9839,W,2,12,0.80,309.97,M,-33.324,M,,*7E
2017-12-01 14:22:02 1512156122.849407: $GPRMC,192203,A,3946.9560,N,08404.9839,W,0.0000,0.000,011217,,*31
2017-12-01 14:22:02 1512156122.849469: $GPGSA,A,3,8,10,14,18,21,24,32,12,15,20,27,138,2.0,0.8,1.5*37
2017-12-01 14:22:03 1512156123.435069: $GPZDA,192204.00,01,12,2017,00,00*6C
2017-12-01 14:22:03 1512156123.435240: $GPGGA,192204,3946.9556,N,08404.9840,W,2,12,0.80,310.73,M,-33.324,M,,*70
2017-12-01 14:22:03 1512156123.435308: $GPRMC,192204,A,3946.9556,N,08404.9840,W,0.0000,0.000,011217,,*3D
2017-12-01 14:22:03 1512156123.435370: $GPGSA,A,3,8,10,14,18,21,24,32,12,15,20,27,138,2.0,0.8,1.5*37
2017-12-01 14:22:04 1512156124.401032: $GPZDA,192205.00,01,12,2017,00,00*6D
2017-12-01 14:22:04 1512156124.401200: $GPGGA,192205,3946.9556,N,08404.9840,W,2,12,0.80,310.73,M,-33.324,M,,*71
2017-12-01 14:22:04 1512156124.401267: $GPRMC,192205,A,3946.9556,N,08404.9840,W,0.0000,0.000,011217,,*3C
2017-12-01 14:22:04 1512156124.401330: $GPGSA,A,3,8,10,14,18,21,24,32,12,15,20,27,138,2.0,0.8,1.5*37
2017-12-01 14:22:05 1512156125.766434: $GPGSV,3,1,12,08,06,294,25,10,68,330,49,14,28,252,41,18,71,091,44*74
2017-12-01 14:22:05 1512156125.766619: $GPGSV,3,2,12,21,29,178,45,24,45,060,48,32,45,265,46,12,09,108,24*77
2017-12-01 14:22:05 1512156125.766687: $GPGSV,3,3,12,15,12,066,36,20,09,117,24,27,07,261,32,138,38,213,46*47
2017-12-01 14:22:05 1512156125.880243: $GPZDA,192206.00,01,12,2017,00,00*6E
2017-12-01 14:22:05 1512156125.880389: $GPGGA,192206,3946.9556,N,08404.9840,W,2,12,0.80,310.73,M,-33.324,M,,*72
2017-12-01 14:22:05 1512156125.880455: $GPRMC,192206,A,3946.9556,N,08404.9840,W,0.0000,0.000,011217,,*3F
2017-12-01 14:22:05 1512156125.880516: $GPGSA,A,3,8,10,14,18,21,24,32,12,15,20,27,138,2.0,0.8,1.5*37
2017-12-01 14:22:06 1512156126.506940: $GPZDA,192207.00,01,12,2017,00,00*6F
2017-12-01 14:22:06 1512156126.507142: $GPGGA,192207,3946.9556,N,08404.9840,W,2,12,0.80,310.73,M,-33.324,M,,*73
2017-12-01 14:22:06 1512156126.507214: $GPRMC,192207,A,3946.9556,N,08404.9840,W,0.0000,0.000,011217,,*3E
2017-12-01 14:22:06 1512156126.507278: $GPGSA,A,3,8,10,14,18,21,24,32,12,15,20,27,138,2.0,0.8,1.5*37
2017-12-01 14:22:07 1512156127.401132: $GPZDA,192208.00,01,12,2017,00,00*60
2017-12-01 14:22:07 1512156127.401313: $GPGGA,192208,3946.9556,N,08404.9840,W,2,12,0.80,310.73,M,-33.324,M,,*7C
2017-12-01 14:22:07 1512156127.401436: $GPRMC,192208,A,3946.9556,N,08404.9840,W,0.0000,0.000,011217,,*31
2017-12-01 14:22:07 1512156127.401500: $GPGSA,A,3,8,10,14,18,21,24,32,12,15,20,27,138,2.0,0.8,1.5*37
2017-12-01 14:22:08 1512156128.736755: $GPGSV,3,1,12,08,06,294,27,10,68,330,49,14,28,252,41,18,71,091,44*76
2017-12-01 14:22:08 1512156128.736946: $GPGSV,3,2,12,21,29,178,45,24,45,060,49,32,45,265,46,12,09,108,25*77
2017-12-01 14:22:08 1512156128.737014: $GPGSV,3,3,12,15,12,066,36,20,09,117,25,27,07,261,32,138,38,213,47*47
2017-12-01 14:22:08 1512156128.850118: $GPZDA,192209.00,01,12,2017,00,00*61
2017-12-01 14:22:08 1512156128.850296: $GPGGA,192209,3946.9556,N,08404.9840,W,2,12,0.80,310.73,M,-33.324,M,,*7D
2017-12-01 14:22:08 1512156128.850364: $GPRMC,192209,A,3946.9556,N,08404.9840,W,0.0000,0.000,011217,,*30
2017-12-01 14:22:08 1512156128.850427: $GPGSA,A,3,8,10,14,18,21,24,32,12,15,20,27,138,2.0,0.8,1.5*37
2017-12-01 14:22:09 1512156129.399752: $GPZDA,192210.00,01,12,2017,00,00*69
2017-12-01 14:22:09 1512156129.399951: $GPGGA,192210,3946.9556,N,08404.9840,W,2,12,0.80,310.73,M,-33.324,M,,*75
2017-12-01 14:22:09 1512156129.400049: $GPRMC,192210,A,3946.9556,N,08404.9840,W,0.0000,0.000,011217,,*38
2017-12-01 14:22:09 1512156129.400113: $GPGSA,A,3,8,10,14,18,21,24,32,12,15,20,27,138,2.0,0.8,1.5*37
2017-12-01 14:22:10 1512156130.430621: $GPZDA,192211.00,01,12,2017,00,00*68
2017-12-01 14:22:10 1512156130.430802: $GPGGA,192211,3946.9556,N,08404.9840,W,2,12,0.80,310.73,M,-33.324,M,,*74
2017-12-01 14:22:10 1512156130.430869: $GPRMC,192211,A,3946.9556,N,08404.9840,W,0.0000,0.000,011217,,*39
2017-12-01 14:22:10 1512156130.430934: $GPGSA,A,3,8,10,14,18,21,24,32,12,15,20,27,138,2.0,0.8,1.5*37
2017-12-01 14:22:11 1512156131.770860: $GPGSV,3,1,12,08,06,294,22,10,68,330,49,14,28,252,41,18,71,091,44*73
2017-12-01 14:22:11 1512156131.771047: $GPGSV,3,2,12,21,29,178,45,24,45,060,49,32,45,265,45,12,09,108,26*77
2017-12-01 14:22:11 1512156131.771115: $GPGSV,3,3,12,15,12,066,36,20,09,117,24,27,07,261,32,138,38,213,46*47
2017-12-01 14:22:11 1512156131.883029: $GPZDA,192212.00,01,12,2017,00,00*6B
2017-12-01 14:22:11 1512156131.883201: $GPGGA,192212,3946.9556,N,08404.9840,W,2,12,0.80,310.73,M,-33.324,M,,*77
2017-12-01 14:22:11 1512156131.883269: $GPRMC,192212,A,3946.9556,N,08404.9840,W,0.0000,0.000,011217,,*3A
2017-12-01 14:22:11 1512156131.883384: $GPGSA,A,3,8,10,14,18,21,24,32,12,15,20,27,138,2.0,0.8,1.5*37
2017-12-01 14:22:12 1512156132.402642: $GPZDA,192213.00,01,12,2017,00,00*6A
2017-12-01 14:22:12 1512156132.402825: $GPGGA,192213,3946.9557,N,08404.9841,W,2,12,0.80,312.14,M,-33.324,M,,*75
2017-12-01 14:22:12 1512156132.402893: $GPRMC,192213,A,3946.9557,N,08404.9841,W,0.0000,0.000,011217,,*3B
2017-12-01 14:22:12 1512156132.402956: $GPGSA,A,3,8,10,14,18,21,24,32,12,15,20,27,138,2.0,0.8,1.5*37
2017-12-01 14:22:13 1512156133.434716: $GPZDA,192214.00,01,12,2017,00,00*6D
2017-12-01 14:22:13 1512156133.434890: $GPGGA,192214,3946.9557,N,08404.9841,W,2,12,0.80,312.14,M,-33.324,M,,*72
2017-12-01 14:22:13 1512156133.434960: $GPRMC,192214,A,3946.9557,N,08404.9841,W,0.0000,0.000,011217,,*3C
2017-12-01 14:22:13 1512156133.435026: $GPGSA,A,3,8,10,14,18,21,24,32,12,15,20,27,138,2.0,0.8,1.5*37
2017-12-01 14:22:14 1512156134.735557: $GPGSV,3,1,12,08,06,294,21,10,68,330,49,14,28,252,42,18,71,091,44*73
2017-12-01 14:22:14 1512156134.735741: $GPGSV,3,2,12,21,29,178,46,24,45,060,50,32,45,265,45,12,09,108,27*7D
2017-12-01 14:22:14 1512156134.735810: $GPGSV,3,3,12,15,12,066,36,20,09,117,25,27,07,261,32,138,38,213,46*46
2017-12-01 14:22:14 1512156134.849150: $GPZDA,192215.00,01,12,2017,00,00*6C
2017-12-01 14:22:14 1512156134.849350: $GPGGA,192215,3946.9557,N,08404.9841,W,2,12,0.80,312.14,M,-33.324,M,,*73
2017-12-01 14:22:14 1512156134.849417: $GPRMC,192215,A,3946.9557,N,08404.9841,W,0.0000,0.000,011217,,*3D
2017-12-01 14:22:14 1512156134.849478: $GPGSA,A,3,8,10,14,18,21,24,32,12,15,20,27,138,2.0,0.8,1.5*37
