2017-11-16 15:10:46 1510863046.047873: {"class":"VERSION","release":"3.17","rev":"3.17","proto_major":3,"proto_minor":12}
2017-11-16 15:10:46 1510863046.048299: {"class":"DEVICES","devices":[{"class":"DEVICE","path":"/dev/ttyUSB0","driver":"SiRF","subtype":"9\u0006GSD4e_4.1.2-P1_RPATCH.05-F-GPS-4R-1510281 11/03/2015 307","activated":"2017-11-16T20:10:45.705Z","flags":1,"native":1,"bps":4800,"parity":"N","stopbits":1,"cycle":1.00}]}
2017-11-16 15:10:46 1510863046.048379: {"class":"WATCH","enable":true,"json":false,"nmea":true,"raw":0,"scaled":false,"timing":false,"split24":false,"pps":false}
2017-11-16 15:10:46 1510863046.724620: $GPGSV,3,1,12,08,07,300,38,10,63,322,50,14,24,249,45,15,16,063,40*72
2017-11-16 15:10:46 1510863046.724786: $GPGSV,3,2,12,18,75,073,46,20,13,114,32,21,36,181,45,24,49,067,50*73
2017-11-16 15:10:46 1510863046.724846: $GPGSV,3,3,12,27,10,265,41,32,41,258,48,12,05,112,20,138,38,213,43*4D
2017-11-16 15:10:46 1510863046.838011: $GPZDA,201045.00,16,11,2017,00,00*67
2017-11-16 15:10:46 1510863046.838173: $GPGGA,201045,3946.9582,N,08404.9846,W,2,12,0.80,300.25,M,-33.324,M,,*73
2017-11-16 15:10:46 1510863046.838234: $GPRMC,201045,A,3946.9582,N,08404.9846,W,0.0000,0.000,161117,,*39
2017-11-16 15:10:46 1510863046.838291: $GPGSA,A,3,8,10,14,15,18,20,21,24,27,32,12,138,1.6,0.8,1.3*34
2017-11-16 15:10:47 1510863047.388929: $GPZDA,201046.00,16,11,2017,00,00*64
2017-11-16 15:10:47 1510863047.389097: $GPGGA,201046,3946.9582,N,08404.9846,W,2,12,0.80,300.25,M,-33.324,M,,*70
2017-11-16 15:10:47 1510863047.389158: $GPRMC,201046,A,3946.9582,N,08404.9846,W,0.0000,0.000,161117,,*3A
2017-11-16 15:10:47 1510863047.389214: $GPGSA,A,3,8,10,14,15,18,20,21,24,27,32,12,138,1.6,0.8,1.3*34
2017-11-16 15:10:48 1510863048.389766: $GPZDA,201047.00,16,11,2017,00,00*65
2017-11-16 15:10:49 1510863049.329033: $GPGGA,201047,3946.9582,N,08404.9846,W,2,12,0.80,300.25,M,-33.324,M,,*71
2017-11-16 15:10:49 1510863049.329191: $GPRMC,201047,A,3946.9582,N,08404.9846,W,0.0000,0.000,161117,,*3B
2017-11-16 15:10:49 1510863049.329250: $GPGSA,A,3,8,10,14,15,18,20,21,24,27,32,12,138,1.6,0.8,1.3*34
2017-11-16 15:10:49 1510863049.726896: $GPGSV,3,1,12,08,07,300,38,10,63,322,50,14,24,249,45,15,16,063,40*72
2017-11-16 15:10:49 1510863049.727096: $GPGSV,3,2,12,18,75,073,46,20,13,114,32,21,36,181,45,24,49,067,49*7B
2017-11-16 15:10:49 1510863049.727191: $GPGSV,3,3,12,27,10,265,41,32,41,258,48,12,05,112,22,138,38,213,43*4F
2017-11-16 15:10:49 1510863049.840256: $GPZDA,201048.00,16,11,2017,00,00*6A
2017-11-16 15:10:49 1510863049.840577: $GPGGA,201048,3946.9582,N,08404.9846,W,2,12,0.80,300.25,M,-33.324,M,,*7E
2017-11-16 15:10:49 1510863049.840651: $GPRMC,201048,A,3946.9582,N,08404.9846,W,0.0000,0.000,161117,,*34
2017-11-16 15:10:49 1510863049.840717: $GPGSA,A,3,8,10,14,15,18,20,21,24,27,32,12,138,1.6,0.8,1.3*34
2017-11-16 15:10:50 1510863050.388410: $GPZDA,201049.00,16,11,2017,00,00*6B
2017-11-16 15:10:50 1510863050.388581: $GPGGA,201049,3946.9582,N,08404.9846,W,2,12,0.80,300.25,M,-33.324,M,,*7F
2017-11-16 15:10:50 1510863050.388643: $GPRMC,201049,A,3946.9582,N,08404.9846,W,0.0000,0.000,161117,,*35
2017-11-16 15:10:50 1510863050.388699: $GPGSA,A,3,8,10,14,15,18,20,21,24,27,32,12,138,1.6,0.8,1.3*34
2017-11-16 15:10:51 1510863051.388872: $GPZDA,201050.00,16,11,2017,00,00*63
2017-11-16 15:10:51 1510863051.389045: $GPGGA,201050,3946.9582,N,08404.9846,W,2,12,0.80,300.25,M,-33.324,M,,*77
2017-11-16 15:10:51 1510863051.389108: $GPRMC,201050,A,3946.9582,N,08404.9846,W,0.0000,0.000,161117,,*3D
2017-11-16 15:10:51 1510863051.389165: $GPGSA,A,3,8,10,14,15,18,20,21,24,27,32,12,138,1.6,0.8,1.3*34
2017-11-16 15:10:52 1510863052.719534: $GPGSV,3,1,12,08,07,300,38,10,63,322,50,14,24,249,45,15,16,063,40*72
2017-11-16 15:10:52 1510863052.719704: $GPGSV,3,2,12,18,75,073,46,20,13,114,32,21,36,181,45,24,49,067,49*7B
2017-11-16 15:10:52 1510863052.719764: $GPGSV,3,3,12,27,10,265,41,32,41,258,48,12,05,112,23,138,38,213,43*4E
2017-11-16 15:10:52 1510863052.833474: $GPZDA,201051.00,16,11,2017,00,00*62
2017-11-16 15:10:52 1510863052.833682: $GPGGA,201051,3946.9582,N,08404.9846,W,2,12,0.80,300.25,M,-33.324,M,,*76
2017-11-16 15:10:52 1510863052.833835: $GPRMC,201051,A,3946.9582,N,08404.9846,W,0.0000,0.000,161117,,*3C
2017-11-16 15:10:52 1510863052.833895: $GPGSA,A,3,8,10,14,15,18,20,21,24,27,32,12,138,1.6,0.8,1.3*34
2017-11-16 15:10:53 1510863053.389874: $GPZDA,201052.00,16,11,2017,00,00*61
2017-11-16 15:10:53 1510863053.391945: $GPGGA,201052,3946.9582,N,08404.9846,W,2,12,0.80,300.25,M,-33.324,M,,*75
2017-11-16 15:10:53 1510863053.392161: $GPRMC,201052,A,3946.9582,N,08404.9846,W,0.0000,0.000,161117,,*3F
2017-11-16 15:10:53 1510863053.392285: $GPGSA,A,3,8,10,14,15,18,20,21,24,27,32,12,138,1.6,0.8,1.3*34
2017-11-16 15:10:54 1510863054.388183: $GPZDA,201053.00,16,11,2017,00,00*60
2017-11-16 15:10:54 1510863054.388349: $GPGGA,201053,3946.9582,N,08404.9846,W,2,12,0.80,300.25,M,-33.324,M,,*74
2017-11-16 15:10:54 1510863054.388411: $GPRMC,201053,A,3946.9582,N,08404.9846,W,0.0000,0.000,161117,,*3E
2017-11-16 15:10:54 1510863054.388467: $GPGSA,A,3,8,10,14,15,18,20,21,24,27,32,12,138,1.6,0.8,1.3*34
2017-11-16 15:10:55 1510863055.724986: $GPGSV,3,1,12,08,07,300,37,10,63,322,50,14,24,249,45,15,16,063,41*7C
2017-11-16 15:10:55 1510863055.725097: $GPGSV,3,2,12,18,75,073,46,20,13,114,32,21,36,181,44,24,49,067,49*7A
2017-11-16 15:10:55 1510863055.725127: $GPGSV,3,3,12,27,10,265,41,32,41,258,48,12,05,112,24,138,38,213,44*4E
2017-11-16 15:10:55 1510863055.838030: $GPZDA,201054.00,16,11,2017,00,00*67
2017-11-16 15:10:55 1510863055.838134: $GPGGA,201054,3946.9582,N,08404.9846,W,2,12,0.80,300.25,M,-33.324,M,,*73
2017-11-16 15:10:55 1510863055.838165: $GPRMC,201054,A,3946.9582,N,08404.9846,W,0.0000,0.000,161117,,*39
2017-11-16 15:10:55 1510863055.838194: $GPGSA,A,3,8,10,14,15,18,20,21,24,27,32,12,138,1.6,0.8,1.3*34
