2017-12-01 13:56:57 1512154617.724086: {"class":"VERSION","release":"3.16","rev":"3.16-4","proto_major":3,"proto_minor":11}
2017-12-01 13:56:57 1512154617.724648: {"class":"DEVICES","devices":[{"class":"DEVICE","path":"/dev/ttyUSB0","driver":"SiRF","subtype":"9\u0006GSD4e_4.1.2-P1_RPATCH.05-F-GPS-4R-1510281 11/03/2015 307","activated":"2017-12-01T18:56:57.677Z","flags":1,"native":1,"bps":4800,"parity":"N","stopbits":1,"cycle":1.00}]}
2017-12-01 13:56:57 1512154617.724787: {"class":"WATCH","enable":true,"json":false,"nmea":true,"raw":0,"scaled":false,"timing":false,"split24":false,"pps":false}
2017-12-01 13:56:57 1512154617.790122: $GPZDA,185658.00,01,12,2017,00,00*67
2017-12-01 13:56:57 1512154617.790282: $GPGGA,185658,3946.9576,N,08404.9857,W,2,11,1.00,293.83,M,-33.324,M,,*70
2017-12-01 13:56:57 1512154617.790348: $GPRMC,185658,A,3946.9576,N,08404.9857,W,0.0000,0.000,011217,,*32
2017-12-01 13:56:57 1512154617.790408: $GPGSA,A,3,10,14,15,18,20,21,24,27,32,12,138,,2.0,1.0,1.5*06
2017-12-01 13:56:58 1512154618.343156: $GPZDA,185659.00,01,12,2017,00,00*66
2017-12-01 13:56:58 1512154618.343333: $GPGGA,185659,3946.9576,N,08404.9857,W,2,11,0.80,293.83,M,-33.324,M,,*78
2017-12-01 13:56:58 1512154618.343418: $GPRMC,185659,A,3946.9576,N,08404.9857,W,0.0000,0.000,011217,,*33
2017-12-01 13:56:58 1512154618.343482: $GPGSA,A,3,10,14,15,18,20,21,24,27,32,12,138,,2.0,0.8,1.5*0F
2017-12-01 13:56:59 1512154619.342798: $GPZDA,185700.00,01,12,2017,00,00*6B
2017-12-01 13:56:59 1512154619.342977: $GPGGA,185700,3946.9576,N,08404.9857,W,2,11,0.80,293.83,M,-33.324,M,,*75
2017-12-01 13:56:59 1512154619.343062: $GPRMC,185700,A,3946.9576,N,08404.9857,W,0.0000,0.000,011217,,*3E
2017-12-01 13:56:59 1512154619.343124: $GPGSA,A,3,10,14,15,18,20,21,24,27,32,12,138,,2.0,0.8,1.5*0F
2017-12-01 13:57:00 1512154620.674843: $GPGSV,3,1,12,10,58,318,49,14,20,244,37,15,20,060,43,18,77,054,42*7B
2017-12-01 13:57:00 1512154620.675036: $GPGSV,3,2,12,20,18,111,43,21,41,181,46,24,51,075,48,27,12,270,38*7E
2017-12-01 13:57:00 1512154620.675102: $GPGSV,3,3,12,32,37,253,42,08,08,304,32,12,02,117,18,138,38,213,46*47
2017-12-01 13:57:00 1512154620.788196: $GPZDA,185701.00,01,12,2017,00,00*6A
2017-12-01 13:57:00 1512154620.788384: $GPGGA,185701,3946.9576,N,08404.9857,W,2,12,0.80,293.83,M,-33.324,M,,*77
2017-12-01 13:57:00 1512154620.788467: $GPRMC,185701,A,3946.9576,N,08404.9857,W,0.0000,0.000,011217,,*3F
2017-12-01 13:57:00 1512154620.788529: $GPGSA,A,3,10,14,15,18,20,21,24,27,32,8,12,138,2.0,0.8,1.5*37
2017-12-01 13:57:01 1512154621.342803: $GPZDA,185702.00,01,12,2017,00,00*69
2017-12-01 13:57:01 1512154621.342983: $GPGGA,185702,3946.9576,N,08404.9857,W,2,12,0.80,293.83,M,-33.324,M,,*74
2017-12-01 13:57:01 1512154621.343050: $GPRMC,185702,A,3946.9576,N,08404.9857,W,0.0000,0.000,011217,,*3C
2017-12-01 13:57:01 1512154621.343111: $GPGSA,A,3,10,14,15,18,20,21,24,27,32,8,12,138,2.0,0.8,1.5*37
2017-12-01 13:57:02 1512154622.342386: $GPZDA,185703.00,01,12,2017,00,00*68
2017-12-01 13:57:02 1512154622.342573: $GPGGA,185703,3946.9576,N,08404.9857,W,2,12,0.80,293.83,M,-33.324,M,,*75
2017-12-01 13:57:02 1512154622.342639: $GPRMC,185703,A,3946.9576,N,08404.9857,W,0.0000,0.000,011217,,*3D
2017-12-01 13:57:02 1512154622.342700: $GPGSA,A,3,10,14,15,18,20,21,24,27,32,8,12,138,2.0,0.8,1.5*37
2017-12-01 13:57:03 1512154623.677625: $GPGSV,3,1,12,10,58,318,49,14,20,244,36,15,20,060,43,18,77,054,42*7A
2017-12-01 13:57:03 1512154623.677786: $GPGSV,3,2,12,20,18,111,43,21,41,181,46,24,51,075,48,27,12,270,37*71
2017-12-01 13:57:03 1512154623.677852: $GPGSV,3,3,12,32,37,253,41,08,08,304,34,12,02,117,18,138,38,213,47*43
2017-12-01 13:57:03 1512154623.791016: $GPZDA,185704.00,01,12,2017,00,00*6F
2017-12-01 13:57:03 1512154623.791184: $GPGGA,185704,3946.9576,N,08404.9857,W,2,12,0.80,293.83,M,-33.324,M,,*72
2017-12-01 13:57:03 1512154623.791250: $GPRMC,185704,A,3946.9576,N,08404.9857,W,0.0000,0.000,011217,,*3A
2017-12-01 13:57:03 1512154623.791331: $GPGSA,A,3,10,14,15,18,20,21,24,27,32,8,12,138,2.0,0.8,1.5*37
2017-12-01 13:57:04 1512154624.342026: $GPZDA,185705.00,01,12,2017,00,00*6E
2017-12-01 13:57:04 1512154624.342250: $GPGGA,185705,3946.9576,N,08404.9857,W,2,12,0.80,293.83,M,-33.324,M,,*73
2017-12-01 13:57:04 1512154624.342345: $GPRMC,185705,A,3946.9576,N,08404.9857,W,0.0000,0.000,011217,,*3B
2017-12-01 13:57:04 1512154624.342426: $GPGSA,A,3,10,14,15,18,20,21,24,27,32,8,12,138,2.0,0.8,1.5*37
2017-12-01 13:57:05 1512154625.341588: $GPZDA,185706.00,01,12,2017,00,00*6D
2017-12-01 13:57:05 1512154625.341772: $GPGGA,185706,3946.9576,N,08404.9857,W,2,12,0.80,293.83,M,-33.324,M,,*70
2017-12-01 13:57:05 1512154625.341842: $GPRMC,185706,A,3946.9576,N,08404.9857,W,0.0000,0.000,011217,,*38
2017-12-01 13:57:05 1512154625.341904: $GPGSA,A,3,10,14,15,18,20,21,24,27,32,8,12,138,2.0,0.8,1.5*37
2017-12-01 13:57:06 1512154626.679017: $GPGSV,3,1,12,10,58,318,49,14,20,244,36,15,20,060,43,18,77,054,42*7A
2017-12-01 13:57:06 1512154626.679383: $GPGSV,3,2,12,20,18,111,43,21,41,181,45,24,51,075,48,27,12,270,38*7D
2017-12-01 13:57:06 1512154626.679617: $GPGSV,3,3,12,32,37,253,41,08,08,304,34,12,02,117,17,138,38,213,46*4D
2017-12-01 13:57:06 1512154626.791984: $GPZDA,185707.00,01,12,2017,00,00*6C
2017-12-01 13:57:06 1512154626.792160: $GPGGA,185707,3946.9573,N,08404.9858,W,2,12,0.80,294.60,M,-33.324,M,,*71
2017-12-01 13:57:06 1512154626.792227: $GPRMC,185707,A,3946.9573,N,08404.9858,W,0.0000,0.000,011217,,*33
2017-12-01 13:57:06 1512154626.792313: $GPGSA,A,3,10,14,15,18,20,21,24,27,32,8,12,138,2.0,0.8,1.5*37
2017-12-01 13:57:07 1512154627.417280: $GPZDA,185708.00,01,12,2017,00,00*63
2017-12-01 13:57:07 1512154627.417471: $GPGGA,185708,3946.9573,N,08404.9858,W,2,12,0.80,294.60,M,-33.324,M,,*7E
2017-12-01 13:57:07 1512154627.417540: $GPRMC,185708,A,3946.9573,N,08404.9858,W,0.0000,0.000,011217,,*3C
2017-12-01 13:57:07 1512154627.417601: $GPGSA,A,3,10,14,15,18,20,21,24,27,32,8,12,138,2.0,0.8,1.5*37
2017-12-01 13:57:08 1512154628.339415: $GPZDA,185709.00,01,12,2017,00,00*62
2017-12-01 13:57:08 1512154628.339604: $GPGGA,185709,3946.9573,N,08404.9858,W,2,12,0.80,294.60,M,-33.324,M,,*7F
2017-12-01 13:57:08 1512154628.339671: $GPRMC,185709,A,3946.9573,N,08404.9858,W,0.0000,0.000,011217,,*3D
2017-12-01 13:57:08 1512154628.339732: $GPGSA,A,3,10,14,15,18,20,21,24,27,32,8,12,138,2.0,0.8,1.5*37
2017-12-01 13:57:09 1512154629.676370: $GPGSV,3,1,12,10,58,318,48,14,20,244,35,15,20,060,44,18,77,054,42*7F
2017-12-01 13:57:09 1512154629.676569: $GPGSV,3,2,12,20,18,111,43,21,41,181,45,24,51,075,48,27,12,270,38*7D
2017-12-01 13:57:09 1512154629.676635: $GPGSV,3,3,12,32,37,253,41,08,08,304,35,12,02,117,17,138,38,213,48*42
2017-12-01 13:57:09 1512154629.789760: $GPZDA,185710.00,01,12,2017,00,00*6A
2017-12-01 13:57:09 1512154629.789933: $GPGGA,185710,3946.9573,N,08404.9858,W,2,12,0.80,294.60,M,-33.324,M,,*77
2017-12-01 13:57:09 1512154629.790001: $GPRMC,185710,A,3946.9573,N,08404.9858,W,0.0000,0.000,011217,,*35
2017-12-01 13:57:09 1512154629.790061: $GPGSA,A,3,10,14,15,18,20,21,24,27,32,8,12,138,2.0,0.8,1.5*37
2017-12-01 13:57:10 1512154630.342962: $GPZDA,185711.00,01,12,2017,00,00*6B
2017-12-01 13:57:10 1512154630.343289: $GPGGA,185711,3946.9573,N,08404.9858,W,2,12,0.80,294.60,M,-33.324,M,,*76
2017-12-01 13:57:10 1512154630.343365: $GPRMC,185711,A,3946.9573,N,08404.9858,W,0.0000,0.000,011217,,*34
2017-12-01 13:57:10 1512154630.343444: $GPGSA,A,3,10,14,15,18,20,21,24,27,32,8,12,138,2.0,0.8,1.5*37
2017-12-01 13:57:11 1512154631.341546: $GPZDA,185712.00,01,12,2017,00,00*68
2017-12-01 13:57:11 1512154631.341718: $GPGGA,185712,3946.9573,N,08404.9858,W,2,12,0.80,294.60,M,-33.324,M,,*75
2017-12-01 13:57:11 1512154631.341785: $GPRMC,185712,A,3946.9573,N,08404.9858,W,0.0000,0.000,011217,,*37
2017-12-01 13:57:11 1512154631.341846: $GPGSA,A,3,10,14,15,18,20,21,24,27,32,8,12,138,2.0,0.8,1.5*37
2017-12-01 13:57:12 1512154632.676734: $GPGSV,3,1,12,10,58,318,49,14,20,244,35,15,20,060,43,18,77,054,42*79
2017-12-01 13:57:12 1512154632.676918: $GPGSV,3,2,12,20,18,111,43,21,41,181,46,24,51,075,48,27,12,270,38*7E
2017-12-01 13:57:12 1512154632.676985: $GPGSV,3,3,12,32,37,253,42,08,08,304,39,12,02,117,17,138,38,213,46*43
