2017-12-01 17:20:59 1512166859.356884: {"class":"VERSION","release":"3.16","rev":"3.16-4","proto_major":3,"proto_minor":11}
2017-12-01 17:20:59 1512166859.357420: {"class":"DEVICES","devices":[{"class":"DEVICE","path":"/dev/ttyUSB0","driver":"SiRF","subtype":"9\u0006GSD4e_4.1.2-P1_RPATCH.05-F-GPS-4R-1510281 11/03/2015 307","activated":"2017-12-01T22:20:59.254Z","flags":1,"native":1,"bps":4800,"parity":"N","stopbits":1,"cycle":1.00}]}
2017-12-01 17:20:59 1512166859.357541: {"class":"WATCH","enable":true,"json":false,"nmea":true,"raw":0,"scaled":false,"timing":false,"split24":false,"pps":false}
2017-12-01 17:20:59 1512166859.401554: $GPZDA,222100.00,01,12,2017,00,00*63
2017-12-01 17:20:59 1512166859.401796: $GPGGA,222100,3946.9686,N,08404.9754,W,2,11,0.80,302.26,M,-33.324,M,,*7B
2017-12-01 17:20:59 1512166859.401867: $GPRMC,222100,A,3946.9686,N,08404.9754,W,0.0000,0.000,011217,,*36
2017-12-01 17:20:59 1512166859.401930: $GPGSA,A,3,1,3,10,14,22,25,26,31,32,12,138,,2.0,0.8,1.5*03
2017-12-01 17:21:00 1512166860.700703: $GPGSV,3,1,11,01,19,277,45,03,19,316,44,10,24,156,39,14,70,031,45*70
2017-12-01 17:21:00 1512166860.700884: $GPGSV,3,2,11,22,37,304,45,25,37,060,32,26,23,178,39,31,77,270,46*7A
2017-12-01 17:21:00 1512166860.700952: $GPGSV,3,3,11,32,56,076,46,12,09,033,27,138,38,213,35*70
2017-12-01 17:21:00 1512166860.813993: $GPZDA,222101.00,01,12,2017,00,00*62
2017-12-01 17:21:00 1512166860.814132: $GPGGA,222101,3946.9686,N,08404.9754,W,2,11,0.80,302.26,M,-33.324,M,,*7A
2017-12-01 17:21:00 1512166860.814220: $GPRMC,222101,A,3946.9686,N,08404.9754,W,0.0000,0.000,011217,,*37
2017-12-01 17:21:00 1512166860.814282: $GPGSA,A,3,1,3,10,14,22,25,26,31,32,12,138,,2.0,0.8,1.5*03
2017-12-01 17:21:01 1512166861.874052: $GPZDA,222102.00,01,12,2017,00,00*61
2017-12-01 17:21:01 1512166861.874230: $GPGGA,222102,3946.9682,N,08404.9748,W,2,11,0.80,303.11,M,-33.324,M,,*75
2017-12-01 17:21:01 1512166861.874298: $GPRMC,222102,A,3946.9682,N,08404.9748,W,0.0000,0.000,011217,,*3D
2017-12-01 17:21:01 1512166861.874360: $GPGSA,A,3,1,3,10,14,22,25,26,31,32,12,138,,2.0,0.8,1.5*03
2017-12-01 17:21:02 1512166862.368465: $GPZDA,222103.00,01,12,2017,00,00*60
2017-12-01 17:21:02 1512166862.368645: $GPGGA,222103,3946.9682,N,08404.9748,W,2,11,0.80,303.11,M,-33.324,M,,*74
2017-12-01 17:21:02 1512166862.368712: $GPRMC,222103,A,3946.9682,N,08404.9748,W,0.0000,0.000,011217,,*3C
2017-12-01 17:21:02 1512166862.368774: $GPGSA,A,3,1,3,10,14,22,25,26,31,32,12,138,,2.0,0.8,1.5*03
2017-12-01 17:21:03 1512166863.702853: $GPGSV,3,1,11,01,19,277,45,03,19,316,44,10,24,156,39,14,70,031,45*70
2017-12-01 17:21:03 1512166863.703040: $GPGSV,3,2,11,22,37,304,46,25,37,060,32,26,24,178,38,31,77,271,46*7E
2017-12-01 17:21:03 1512166863.703108: $GPGSV,3,3,11,32,56,076,46,12,09,033,27,138,38,213,38*7D
2017-12-01 17:21:03 1512166863.816508: $GPZDA,222104.00,01,12,2017,00,00*67
2017-12-01 17:21:03 1512166863.816705: $GPGGA,222104,3946.9682,N,08404.9748,W,2,11,0.80,303.11,M,-33.324,M,,*73
2017-12-01 17:21:03 1512166863.816777: $GPRMC,222104,A,3946.9682,N,08404.9748,W,0.0000,0.000,011217,,*3B
2017-12-01 17:21:03 1512166863.816838: $GPGSA,A,3,1,3,10,14,22,25,26,31,32,12,138,,2.0,0.8,1.5*03
2017-12-01 17:21:04 1512166864.441788: $GPZDA,222105.00,01,12,2017,00,00*66
2017-12-01 17:21:04 1512166864.441973: $GPGGA,222105,3946.9682,N,08404.9748,W,2,11,0.80,303.11,M,-33.324,M,,*72
2017-12-01 17:21:04 1512166864.442041: $GPRMC,222105,A,3946.9682,N,08404.9748,W,0.0000,0.000,011217,,*3A
2017-12-01 17:21:04 1512166864.442103: $GPGSA,A,3,1,3,10,14,22,25,26,31,32,12,138,,2.0,0.8,1.5*03
2017-12-01 17:21:05 1512166865.366373: $GPZDA,222106.00,01,12,2017,00,00*65
2017-12-01 17:21:05 1512166865.366543: $GPGGA,222106,3946.9682,N,08404.9748,W,2,11,0.80,303.11,M,-33.324,M,,*71
2017-12-01 17:21:05 1512166865.366612: $GPRMC,222106,A,3946.9682,N,08404.9748,W,0.0000,0.000,011217,,*39
2017-12-01 17:21:05 1512166865.366673: $GPGSA,A,3,1,3,10,14,22,25,26,31,32,12,138,,2.0,0.8,1.5*03
2017-12-01 17:21:06 1512166866.703430: $GPGSV,3,1,11,01,19,277,44,03,19,316,43,10,24,156,38,14,70,031,45*77
2017-12-01 17:21:06 1512166866.703663: $GPGSV,3,2,11,22,37,304,46,25,37,060,32,26,24,178,38,31,77,271,47*7F
2017-12-01 17:21:06 1512166866.703733: $GPGSV,3,3,11,32,56,076,46,12,09,033,27,138,38,213,40*72
2017-12-01 17:21:06 1512166866.815567: $GPZDA,222107.00,01,12,2017,00,00*64
2017-12-01 17:21:06 1512166866.815737: $GPGGA,222107,3946.9682,N,08404.9748,W,2,11,0.80,303.11,M,-33.324,M,,*70
2017-12-01 17:21:06 1512166866.815803: $GPRMC,222107,A,3946.9682,N,08404.9748,W,0.0000,0.000,011217,,*38
2017-12-01 17:21:06 1512166866.815864: $GPGSA,A,3,1,3,10,14,22,25,26,31,32,12,138,,2.0,0.8,1.5*03
2017-12-01 17:21:07 1512166867.367601: $GPZDA,222108.00,01,12,2017,00,00*6B
2017-12-01 17:21:07 1512166867.367770: $GPGGA,222108,3946.9682,N,08404.9748,W,2,11,0.80,303.11,M,-33.324,M,,*7F
2017-12-01 17:21:07 1512166867.367838: $GPRMC,222108,A,3946.9682,N,08404.9748,W,0.0000,0.000,011217,,*37
2017-12-01 17:21:07 1512166867.367900: $GPGSA,A,3,1,3,10,14,22,25,26,31,32,12,138,,2.0,0.8,1.5*03
2017-12-01 17:21:08 1512166868.363478: $GPZDA,222109.00,01,12,2017,00,00*6A
2017-12-01 17:21:08 1512166868.363651: $GPGGA,222109,3946.9682,N,08404.9748,W,2,11,0.80,303.11,M,-33.324,M,,*7E
2017-12-01 17:21:08 1512166868.363718: $GPRMC,222109,A,3946.9682,N,08404.9748,W,0.0000,0.000,011217,,*36
2017-12-01 17:21:08 1512166868.363779: $GPGSA,A,3,1,3,10,14,22,25,26,31,32,12,138,,2.0,0.8,1.5*03
2017-12-01 17:21:09 1512166869.702527: $GPGSV,3,1,11,01,19,277,44,03,19,316,43,10,24,156,38,14,70,031,45*77
2017-12-01 17:21:09 1512166869.702760: $GPGSV,3,2,11,22,37,304,46,25,37,060,32,26,24,178,38,31,77,271,46*7E
2017-12-01 17:21:09 1512166869.702903: $GPGSV,3,3,11,32,56,076,45,12,09,033,27,138,38,213,40*71
2017-12-01 17:21:09 1512166869.816025: $GPZDA,222110.00,01,12,2017,00,00*62
2017-12-01 17:21:09 1512166869.816195: $GPGGA,222110,3946.9682,N,08404.9748,W,2,11,0.80,303.11,M,-33.324,M,,*76
2017-12-01 17:21:09 1512166869.816261: $GPRMC,222110,A,3946.9682,N,08404.9748,W,0.0000,0.000,011217,,*3E
2017-12-01 17:21:09 1512166869.816322: $GPGSA,A,3,1,3,10,14,22,25,26,31,32,12,138,,2.0,0.8,1.5*03
2017-12-01 17:21:10 1512166870.366767: $GPZDA,222111.00,01,12,2017,00,00*63
2017-12-01 17:21:10 1512166870.366941: $GPGGA,222111,3946.9682,N,08404.9748,W,2,11,0.80,303.11,M,-33.324,M,,*77
2017-12-01 17:21:10 1512166870.367028: $GPRMC,222111,A,3946.9682,N,08404.9748,W,0.0000,0.000,011217,,*3F
2017-12-01 17:21:10 1512166870.367091: $GPGSA,A,3,1,3,10,14,22,25,26,31,32,12,138,,2.0,0.8,1.5*03
2017-12-01 17:21:11 1512166871.366563: $GPZDA,222112.00,01,12,2017,00,00*60
2017-12-01 17:21:11 1512166871.366766: $GPGGA,222112,3946.9682,N,08404.9748,W,2,11,0.80,303.11,M,-33.324,M,,*74
2017-12-01 17:21:11 1512166871.366861: $GPRMC,222112,A,3946.9682,N,08404.9748,W,0.0000,0.000,011217,,*3C
2017-12-01 17:21:11 1512166871.366946: $GPGSA,A,3,1,3,10,14,22,25,26,31,32,12,138,,2.0,0.8,1.5*03
2017-12-01 17:21:12 1512166872.702143: $GPGSV,3,1,11,01,19,277,44,03,19,316,44,10,24,156,38,14,70,031,45*70
2017-12-01 17:21:12 1512166872.702321: $GPGSV,3,2,11,22,37,304,45,25,37,060,32,26,24,178,38,31,77,271,47*7C
2017-12-01 17:21:12 1512166872.702387: $GPGSV,3,3,11,32,56,076,45,12,09,033,27,138,38,213,38*7E
2017-12-01 17:21:12 1512166872.815558: $GPZDA,222113.00,01,12,2017,00,00*61
2017-12-01 17:21:12 1512166872.815731: $GPGGA,222113,3946.9682,N,08404.9748,W,2,11,0.80,303.11,M,-33.324,M,,*75
2017-12-01 17:21:12 1512166872.815798: $GPRMC,222113,A,3946.9682,N,08404.9748,W,0.0000,0.000,011217,,*3D
2017-12-01 17:21:12 1512166872.815858: $GPGSA,A,3,1,3,10,14,22,25,26,31,32,12,138,,2.0,0.8,1.5*03
2017-12-01 17:21:13 1512166873.368013: $GPZDA,222114.00,01,12,2017,00,00*66
2017-12-01 17:21:13 1512166873.368241: $GPGGA,222114,3946.9682,N,08404.9748,W,2,11,0.80,303.11,M,-33.324,M,,*72
2017-12-01 17:21:13 1512166873.368310: $GPRMC,222114,A,3946.9682,N,08404.9748,W,0.0000,0.000,011217,,*3A
2017-12-01 17:21:13 1512166873.368372: $GPGSA,A,3,1,3,10,14,22,25,26,31,32,12,138,,2.0,0.8,1.5*03
2017-12-01 17:21:14 1512166874.367940: $GPZDA,222115.00,01,12,2017,00,00*67
2017-12-01 17:21:14 1512166874.368176: $GPGGA,222115,3946.9682,N,08404.9748,W,2,11,0.80,303.11,M,-33.324,M,,*73
2017-12-01 17:21:14 1512166874.368295: $GPRMC,222115,A,3946.9682,N,08404.9748,W,0.0000,0.000,011217,,*3B
2017-12-01 17:21:14 1512166874.368360: $GPGSA,A,3,1,3,10,14,22,25,26,31,32,12,138,,2.0,0.8,1.5*03
2017-12-01 17:21:15 1512166875.703677: $GPGSV,3,1,11,01,19,277,44,03,19,316,44,10,24,156,38,14,70,031,45*70
2017-12-01 17:21:15 1512166875.703861: $GPGSV,3,2,11,22,37,304,45,25,37,060,32,26,24,178,38,31,77,271,48*73
2017-12-01 17:21:15 1512166875.703928: $GPGSV,3,3,11,32,56,076,45,12,09,033,27,138,38,213,40*71
2017-12-01 17:21:15 1512166875.817028: $GPZDA,222116.00,01,12,2017,00,00*64
2017-12-01 17:21:15 1512166875.817192: $GPGGA,222116,3946.9682,N,08404.9748,W,2,11,0.80,303.11,M,-33.324,M,,*70
2017-12-01 17:21:15 1512166875.817259: $GPRMC,222116,A,3946.9682,N,08404.9748,W,0.0000,0.000,011217,,*38
2017-12-01 17:21:15 1512166875.817320: $GPGSA,A,3,1,3,10,14,22,25,26,31,32,12,138,,2.0,0.8,1.5*03
2017-12-01 17:21:16 1512166876.366662: $GPZDA,222117.00,01,12,2017,00,00*65
2017-12-01 17:21:16 1512166876.366838: $GPGGA,222117,3946.9682,N,08404.9748,W,2,11,0.80,303.11,M,-33.324,M,,*71
2017-12-01 17:21:16 1512166876.366908: $GPRMC,222117,A,3946.9682,N,08404.9748,W,0.0000,0.000,011217,,*39
2017-12-01 17:21:16 1512166876.366997: $GPGSA,A,3,1,3,10,14,22,25,26,31,32,12,138,,2.0,0.8,1.5*03
2017-12-01 17:21:17 1512166877.367892: $GPZDA,222118.00,01,12,2017,00,00*6A
2017-12-01 17:21:17 1512166877.368102: $GPGGA,222118,3946.9682,N,08404.9748,W,2,11,0.80,303.11,M,-33.324,M,,*7E
2017-12-01 17:21:17 1512166877.368172: $GPRMC,222118,A,3946.9682,N,08404.9748,W,0.0000,0.000,011217,,*36
2017-12-01 17:21:17 1512166877.368233: $GPGSA,A,3,1,3,10,14,22,25,26,31,32,12,138,,2.0,0.8,1.5*03
2017-12-01 17:21:18 1512166878.700772: $GPGSV,3,1,11,01,19,277,44,03,19,316,44,10,24,156,38,14,70,031,45*70
2017-12-01 17:21:18 1512166878.700973: $GPGSV,3,2,11,22,37,304,46,25,37,060,31,26,24,178,38,31,77,271,47*7C
2017-12-01 17:21:18 1512166878.701042: $GPGSV,3,3,11,32,56,076,45,12,09,033,27,138,38,213,41*70
2017-12-01 17:21:18 1512166878.814183: $GPZDA,222119.00,01,12,2017,00,00*6B
2017-12-01 17:21:18 1512166878.814359: $GPGGA,222119,3946.9682,N,08404.9748,W,2,11,0.80,303.11,M,-33.324,M,,*7F
2017-12-01 17:21:18 1512166878.814427: $GPRMC,222119,A,3946.9682,N,08404.9748,W,0.0000,0.000,011217,,*37
2017-12-01 17:21:18 1512166878.814488: $GPGSA,A,3,1,3,10,14,22,25,26,31,32,12,138,,2.0,0.8,1.5*03
