2017-11-16 16:45:17 1510868717.921931: {"class":"VERSION","release":"3.17","rev":"3.17","proto_major":3,"proto_minor":12}
2017-11-16 16:45:17 1510868717.922422: {"class":"DEVICES","devices":[{"class":"DEVICE","path":"/dev/ttyUSB0","driver":"SiRF","subtype":"9\u0006GSD4e_4.1.2-P1_RPATCH.05-F-GPS-4R-1510281 11/03/2015 307","activated":"2017-11-16T21:45:17.889Z","flags":1,"native":1,"bps":4800,"parity":"N","stopbits":1,"cycle":1.00}]}
2017-11-16 16:45:17 1510868717.922576: {"class":"WATCH","enable":true,"json":false,"nmea":true,"raw":0,"scaled":false,"timing":false,"split24":false,"pps":false}
2017-11-16 16:45:18 1510868718.460269: $GPZDA,214517.00,16,11,2017,00,00*61
2017-11-16 16:45:18 1510868718.460452: $GPGGA,214517,3946.9580,N,08404.9815,W,2,12,0.80,307.02,M,-33.324,M,,*73
2017-11-16 16:45:18 1510868718.460514: $GPRMC,214517,A,3946.9580,N,08404.9815,W,0.0000,0.000,161117,,*3B
2017-11-16 16:45:18 1510868718.460570: $GPGSA,A,3,1,10,11,12,14,18,24,25,31,32,22,138,1.6,0.8,1.3*38
2017-11-16 16:45:19 1510868719.444037: $GPZDA,214518.00,16,11,2017,00,00*6E
2017-11-16 16:45:19 1510868719.444199: $GPGGA,214518,3946.9580,N,08404.9815,W,2,12,0.80,307.02,M,-33.324,M,,*7C
2017-11-16 16:45:19 1510868719.444259: $GPRMC,214518,A,3946.9580,N,08404.9815,W,0.0000,0.000,161117,,*34
2017-11-16 16:45:19 1510868719.444315: $GPGSA,A,3,1,10,11,12,14,18,24,25,31,32,22,138,1.6,0.8,1.3*38
2017-11-16 16:45:20 1510868720.779540: $GPGSV,3,1,12,01,13,319,41,10,71,129,48,11,11,303,35,12,25,073,48*7E
2017-11-16 16:45:20 1510868720.779706: $GPGSV,3,2,12,14,54,289,44,18,39,135,45,24,15,045,46,25,29,115,43*76
2017-11-16 16:45:20 1510868720.779768: $GPGSV,3,3,12,31,33,211,46,32,67,324,51,22,01,310,34,138,38,213,45*4D
2017-11-16 16:45:20 1510868720.891818: $GPZDA,214519.00,16,11,2017,00,00*6F
2017-11-16 16:45:20 1510868720.891949: $GPGGA,214519,3946.9580,N,08404.9815,W,2,12,0.80,307.02,M,-33.324,M,,*7D
2017-11-16 16:45:20 1510868720.892010: $GPRMC,214519,A,3946.9580,N,08404.9815,W,0.0000,0.000,161117,,*35
2017-11-16 16:45:20 1510868720.892065: $GPGSA,A,3,1,10,11,12,14,18,24,25,31,32,22,138,1.6,0.8,1.3*38
2017-11-16 16:45:21 1510868721.518170: $GPZDA,214520.00,16,11,2017,00,00*65
2017-11-16 16:45:21 1510868721.518342: $GPGGA,214520,3946.9580,N,08404.9815,W,2,12,0.80,307.02,M,-33.324,M,,*77
2017-11-16 16:45:21 1510868721.518403: $GPRMC,214520,A,3946.9580,N,08404.9815,W,0.0000,0.000,161117,,*3F
2017-11-16 16:45:21 1510868721.518459: $GPGSA,A,3,1,10,11,12,14,18,24,25,31,32,22,138,1.6,0.8,1.3*38
2017-11-16 16:45:22 1510868722.459233: $GPZDA,214521.00,16,11,2017,00,00*64
2017-11-16 16:45:22 1510868722.459450: $GPGGA,214521,3946.9580,N,08404.9815,W,2,12,0.80,307.02,M,-33.324,M,,*76
2017-11-16 16:45:22 1510868722.459515: $GPRMC,214521,A,3946.9580,N,08404.9815,W,0.0000,0.000,161117,,*3E
2017-11-16 16:45:22 1510868722.459572: $GPGSA,A,3,1,10,11,12,14,18,24,25,31,32,22,138,1.6,0.8,1.3*38
2017-11-16 16:45:23 1510868723.796196: $GPGSV,3,1,12,01,13,319,40,10,71,129,48,11,11,303,35,12,25,073,47*70
2017-11-16 16:45:23 1510868723.796364: $GPGSV,3,2,12,14,54,289,44,18,39,135,45,24,15,045,46,25,29,115,43*76
2017-11-16 16:45:23 1510868723.796424: $GPGSV,3,3,12,31,33,211,46,32,67,324,51,22,01,310,29,138,38,213,44*40
2017-11-16 16:45:23 1510868723.909744: $GPZDA,214522.00,16,11,2017,00,00*67
2017-11-16 16:45:23 1510868723.909888: $GPGGA,214522,3946.9580,N,08404.9815,W,2,12,0.80,307.02,M,-33.324,M,,*75
2017-11-16 16:45:23 1510868723.909948: $GPRMC,214522,A,3946.9580,N,08404.9815,W,0.0000,0.000,161117,,*3D
2017-11-16 16:45:23 1510868723.910004: $GPGSA,A,3,1,10,11,12,14,18,24,25,31,32,22,138,1.6,0.8,1.3*38
2017-11-16 16:45:24 1510868724.461817: $GPZDA,214523.00,16,11,2017,00,00*66
2017-11-16 16:45:24 1510868724.461996: $GPGGA,214523,3946.9580,N,08404.9815,W,2,12,0.80,307.02,M,-33.324,M,,*74
2017-11-16 16:45:24 1510868724.462061: $GPRMC,214523,A,3946.9580,N,08404.9815,W,0.0000,0.000,161117,,*3C
2017-11-16 16:45:24 1510868724.462117: $GPGSA,A,3,1,10,11,12,14,18,24,25,31,32,22,138,1.6,0.8,1.3*38
2017-11-16 16:45:25 1510868725.458781: $GPZDA,214524.00,16,11,2017,00,00*61
2017-11-16 16:45:25 1510868725.458999: $GPGGA,214524,3946.9580,N,08404.9815,W,2,12,0.80,307.02,M,-33.324,M,,*73
2017-11-16 16:45:25 1510868725.459062: $GPRMC,214524,A,3946.9580,N,08404.9815,W,0.0000,0.000,161117,,*3B
2017-11-16 16:45:25 1510868725.459119: $GPGSA,A,3,1,10,11,12,14,18,24,25,31,32,22,138,1.6,0.8,1.3*38
2017-11-16 16:45:26 1510868726.772792: $GPGSV,3,1,12,01,13,319,40,10,71,129,49,11,11,303,35,12,25,073,47*71
2017-11-16 16:45:26 1510868726.772960: $GPGSV,3,2,12,14,54,289,44,18,39,135,45,24,15,045,46,25,29,115,43*76
2017-11-16 16:45:26 1510868726.773021: $GPGSV,3,3,12,31,33,211,45,32,67,324,51,22,01,310,32,138,38,213,44*49
2017-11-16 16:45:26 1510868726.886144: $GPZDA,214525.00,16,11,2017,00,00*60
2017-11-16 16:45:26 1510868726.886297: $GPGGA,214525,3946.9580,N,08404.9815,W,2,12,0.80,307.02,M,-33.324,M,,*72
2017-11-16 16:45:26 1510868726.886357: $GPRMC,214525,A,3946.9580,N,08404.9815,W,0.0000,0.000,161117,,*3A
2017-11-16 16:45:26 1510868726.886412: $GPGSA,A,3,1,10,11,12,14,18,24,25,31,32,22,138,1.6,0.8,1.3*38
2017-11-16 16:45:27 1510868727.443223: $GPZDA,214526.00,16,11,2017,00,00*63
2017-11-16 16:45:27 1510868727.443389: $GPGGA,214526,3946.9580,N,08404.9815,W,2,12,0.80,307.02,M,-33.324,M,,*71
2017-11-16 16:45:27 1510868727.443451: $GPRMC,214526,A,3946.9580,N,08404.9815,W,0.0000,0.000,161117,,*39
2017-11-16 16:45:27 1510868727.443507: $GPGSA,A,3,1,10,11,12,14,18,24,25,31,32,22,138,1.6,0.8,1.3*38
