2017-12-01 15:35:55 1512160555.257131: {"class":"VERSION","release":"3.16","rev":"3.16-4","proto_major":3,"proto_minor":11}
2017-12-01 15:35:55 1512160555.257525: {"class":"DEVICES","devices":[{"class":"DEVICE","path":"/dev/ttyUSB0","driver":"SiRF","subtype":"9\u0006GSD4e_4.1.2-P1_RPATCH.05-F-GPS-4R-1510281 11/03/2015 307","activated":"2017-12-01T20:35:55.231Z","flags":1,"native":1,"bps":4800,"parity":"N","stopbits":1,"cycle":1.00}]}
2017-12-01 15:35:55 1512160555.257642: {"class":"WATCH","enable":true,"json":false,"nmea":true,"raw":0,"scaled":false,"timing":false,"split24":false,"pps":false}
2017-12-01 15:35:55 1512160555.409643: $GPZDA,203556.00,01,12,2017,00,00*67
2017-12-01 15:35:55 1512160555.409813: $GPGGA,203556,3946.9554,N,08404.9847,W,2,11,0.80,297.17,M,-33.324,M,,*71
2017-12-01 15:35:55 1512160555.409881: $GPRMC,203556,A,3946.9554,N,08404.9847,W,0.0000,0.000,011217,,*33
2017-12-01 15:35:55 1512160555.409944: $GPGSA,A,3,1,10,11,12,14,18,24,25,31,32,138,,2.0,0.8,1.5*3B
2017-12-01 15:35:56 1512160556.739136: $GPGSV,3,1,11,01,11,321,38,10,74,124,47,11,10,304,35,12,24,076,44*73
2017-12-01 15:35:56 1512160556.739331: $GPGSV,3,2,11,14,52,286,43,18,41,132,45,24,18,045,40,25,27,118,46*7E
2017-12-01 15:35:56 1512160556.739399: $GPGSV,3,3,11,31,31,210,47,32,66,319,49,138,38,213,46*7D
2017-12-01 15:35:56 1512160556.852672: $GPZDA,203557.00,01,12,2017,00,00*66
2017-12-01 15:35:56 1512160556.852846: $GPGGA,203557,3946.9554,N,08404.9847,W,2,11,0.80,297.17,M,-33.324,M,,*70
2017-12-01 15:35:56 1512160556.852913: $GPRMC,203557,A,3946.9554,N,08404.9847,W,0.0000,0.000,011217,,*32
2017-12-01 15:35:56 1512160556.852975: $GPGSA,A,3,1,10,11,12,14,18,24,25,31,32,138,,2.0,0.8,1.5*3B
2017-12-01 15:35:57 1512160557.408493: $GPZDA,203558.00,01,12,2017,00,00*69
2017-12-01 15:35:57 1512160557.408667: $GPGGA,203558,3946.9554,N,08404.9847,W,2,11,0.80,297.17,M,-33.324,M,,*7F
2017-12-01 15:35:57 1512160557.408738: $GPRMC,203558,A,3946.9554,N,08404.9847,W,0.0000,0.000,011217,,*3D
2017-12-01 15:35:57 1512160557.408799: $GPGSA,A,3,1,10,11,12,14,18,24,25,31,32,138,,2.0,0.8,1.5*3B
2017-12-01 15:35:58 1512160558.408527: $GPZDA,203559.00,01,12,2017,00,00*68
2017-12-01 15:35:58 1512160558.408705: $GPGGA,203559,3946.9554,N,08404.9847,W,2,11,0.80,297.17,M,-33.324,M,,*7E
2017-12-01 15:35:58 1512160558.408774: $GPRMC,203559,A,3946.9554,N,08404.9847,W,0.0000,0.000,011217,,*3C
2017-12-01 15:35:58 1512160558.408836: $GPGSA,A,3,1,10,11,12,14,18,24,25,31,32,138,,2.0,0.8,1.5*3B
2017-12-01 15:35:59 1512160559.745002: $GPGSV,3,1,11,01,11,321,37,10,74,124,47,11,10,304,35,12,24,076,44*7C
2017-12-01 15:35:59 1512160559.745189: $GPGSV,3,2,11,14,52,286,43,18,41,132,45,24,18,045,40,25,27,118,46*7E
2017-12-01 15:35:59 1512160559.745258: $GPGSV,3,3,11,31,31,210,47,32,66,319,49,138,38,213,46*7D
2017-12-01 15:35:59 1512160559.858601: $GPZDA,203600.00,01,12,2017,00,00*67
2017-12-01 15:35:59 1512160559.858730: $GPGGA,203600,3946.9554,N,08404.9847,W,2,11,0.80,297.17,M,-33.324,M,,*71
2017-12-01 15:35:59 1512160559.858795: $GPRMC,203600,A,3946.9554,N,08404.9847,W,0.0000,0.000,011217,,*33
2017-12-01 15:35:59 1512160559.858857: $GPGSA,A,3,1,10,11,12,14,18,24,25,31,32,138,,2.0,0.8,1.5*3B
2017-12-01 15:36:00 1512160560.483765: $GPZDA,203601.00,01,12,2017,00,00*66
2017-12-01 15:36:00 1512160560.483949: $GPGGA,203601,3946.9554,N,08404.9847,W,2,11,0.80,297.17,M,-33.324,M,,*70
2017-12-01 15:36:00 1512160560.484019: $GPRMC,203601,A,3946.9554,N,08404.9847,W,0.0000,0.000,011217,,*32
2017-12-01 15:36:00 1512160560.484081: $GPGSA,A,3,1,10,11,12,14,18,24,25,31,32,138,,2.0,0.8,1.5*3B
2017-12-01 15:36:01 1512160561.409917: $GPZDA,203602.00,01,12,2017,00,00*65
2017-12-01 15:36:01 1512160561.410091: $GPGGA,203602,3946.9554,N,08404.9847,W,2,11,0.80,297.17,M,-33.324,M,,*73
2017-12-01 15:36:01 1512160561.410158: $GPRMC,203602,A,3946.9554,N,08404.9847,W,0.0000,0.000,011217,,*31
2017-12-01 15:36:01 1512160561.410239: $GPGSA,A,3,1,10,11,12,14,18,24,25,31,32,138,,2.0,0.8,1.5*3B
2017-12-01 15:36:02 1512160562.737929: $GPGSV,3,1,11,01,11,321,37,10,74,124,47,11,10,304,35,12,24,076,43*7B
2017-12-01 15:36:02 1512160562.738162: $GPGSV,3,2,11,14,52,286,43,18,41,132,45,24,18,045,40,25,27,118,46*7E
2017-12-01 15:36:02 1512160562.738233: $GPGSV,3,3,11,31,31,210,47,32,66,319,49,138,38,213,46*7D
2017-12-01 15:36:02 1512160562.851639: $GPZDA,203603.00,01,12,2017,00,00*64
2017-12-01 15:36:02 1512160562.851808: $GPGGA,203603,3946.9554,N,08404.9847,W,2,11,0.80,297.17,M,-33.324,M,,*72
2017-12-01 15:36:02 1512160562.851875: $GPRMC,203603,A,3946.9554,N,08404.9847,W,0.0000,0.000,011217,,*30
2017-12-01 15:36:02 1512160562.851937: $GPGSA,A,3,1,10,11,12,14,18,24,25,31,32,138,,2.0,0.8,1.5*3B
2017-12-01 15:36:03 1512160563.408839: $GPZDA,203604.00,01,12,2017,00,00*63
2017-12-01 15:36:03 1512160563.409006: $GPGGA,203604,3946.9554,N,08404.9847,W,2,11,0.80,297.17,M,-33.324,M,,*75
2017-12-01 15:36:03 1512160563.409074: $GPRMC,203604,A,3946.9554,N,08404.9847,W,0.0000,0.000,011217,,*37
2017-12-01 15:36:03 1512160563.409135: $GPGSA,A,3,1,10,11,12,14,18,24,25,31,32,138,,2.0,0.8,1.5*3B
2017-12-01 15:36:04 1512160564.409654: $GPZDA,203605.00,01,12,2017,00,00*62
2017-12-01 15:36:04 1512160564.409872: $GPGGA,203605,3946.9554,N,08404.9847,W,2,11,0.80,297.17,M,-33.324,M,,*74
2017-12-01 15:36:04 1512160564.409963: $GPRMC,203605,A,3946.9554,N,08404.9847,W,0.0000,0.000,011217,,*36
2017-12-01 15:36:04 1512160564.410026: $GPGSA,A,3,1,10,11,12,14,18,24,25,31,32,138,,2.0,0.8,1.5*3B
2017-12-01 15:36:05 1512160565.744559: $GPGSV,3,1,11,01,11,321,36,10,74,124,47,11,10,304,35,12,24,076,43*7A
2017-12-01 15:36:05 1512160565.744765: $GPGSV,3,2,11,14,52,286,44,18,41,132,45,24,18,045,40,25,27,118,46*79
2017-12-01 15:36:05 1512160565.744835: $GPGSV,3,3,11,31,31,210,47,32,66,319,49,138,38,213,45*7E
2017-12-01 15:36:05 1512160565.858236: $GPZDA,203606.00,01,12,2017,00,00*61
2017-12-01 15:36:05 1512160565.858396: $GPGGA,203606,3946.9554,N,08404.9847,W,2,11,0.80,297.17,M,-33.324,M,,*77
2017-12-01 15:36:05 1512160565.858464: $GPRMC,203606,A,3946.9554,N,08404.9847,W,0.0000,0.000,011217,,*35
2017-12-01 15:36:05 1512160565.858528: $GPGSA,A,3,1,10,11,12,14,18,24,25,31,32,138,,2.0,0.8,1.5*3B
2017-12-01 15:36:06 1512160566.409071: $GPZDA,203607.00,01,12,2017,00,00*60
2017-12-01 15:36:06 1512160566.409246: $GPGGA,203607,3946.9554,N,08404.9847,W,2,11,0.80,297.17,M,-33.324,M,,*76
2017-12-01 15:36:06 1512160566.409316: $GPRMC,203607,A,3946.9554,N,08404.9847,W,0.0000,0.000,011217,,*34
2017-12-01 15:36:06 1512160566.409379: $GPGSA,A,3,1,10,11,12,14,18,24,25,31,32,138,,2.0,0.8,1.5*3B
2017-12-01 15:36:07 1512160567.404948: $GPZDA,203608.00,01,12,2017,00,00*6F
2017-12-01 15:36:07 1512160567.405122: $GPGGA,203608,3946.9554,N,08404.9847,W,2,11,0.80,297.17,M,-33.324,M,,*79
2017-12-01 15:36:07 1512160567.405192: $GPRMC,203608,A,3946.9554,N,08404.9847,W,0.0000,0.000,011217,,*3B
2017-12-01 15:36:07 1512160567.405256: $GPGSA,A,3,1,10,11,12,14,18,24,25,31,32,138,,2.0,0.8,1.5*3B
2017-12-01 15:36:08 1512160568.745436: $GPGSV,3,1,11,01,11,321,36,10,74,124,47,11,10,304,32,12,24,076,43*7D
2017-12-01 15:36:08 1512160568.745620: $GPGSV,3,2,11,14,52,286,44,18,41,132,45,24,18,045,40,25,27,118,46*79
2017-12-01 15:36:08 1512160568.745689: $GPGSV,3,3,11,31,31,210,47,32,66,319,48,138,38,213,46*7C
2017-12-01 15:36:08 1512160568.859040: $GPZDA,203609.00,01,12,2017,00,00*6E
2017-12-01 15:36:08 1512160568.859217: $GPGGA,203609,3946.9554,N,08404.9847,W,2,11,0.80,297.17,M,-33.324,M,,*78
2017-12-01 15:36:08 1512160568.859287: $GPRMC,203609,A,3946.9554,N,08404.9847,W,0.0000,0.000,011217,,*3A
2017-12-01 15:36:08 1512160568.859350: $GPGSA,A,3,1,10,11,12,14,18,24,25,31,32,138,,2.0,0.8,1.5*3B
2017-12-01 15:36:09 1512160569.409687: $GPZDA,203610.00,01,12,2017,00,00*66
2017-12-01 15:36:09 1512160569.412434: $GPGGA,203610,3946.9554,N,08404.9847,W,2,11,0.80,297.17,M,-33.324,M,,*70
2017-12-01 15:36:09 1512160569.412571: $GPRMC,203610,A,3946.9554,N,08404.9847,W,0.0000,0.000,011217,,*32
2017-12-01 15:36:09 1512160569.412639: $GPGSA,A,3,1,10,11,12,14,18,24,25,31,32,138,,2.0,0.8,1.5*3B
2017-12-01 15:36:10 1512160570.409296: $GPZDA,203611.00,01,12,2017,00,00*67
2017-12-01 15:36:10 1512160570.409535: $GPGGA,203611,3946.9554,N,08404.9847,W,2,11,0.80,297.17,M,-33.324,M,,*71
2017-12-01 15:36:10 1512160570.409604: $GPRMC,203611,A,3946.9554,N,08404.9847,W,0.0000,0.000,011217,,*33
2017-12-01 15:36:10 1512160570.409664: $GPGSA,A,3,1,10,11,12,14,18,24,25,31,32,138,,2.0,0.8,1.5*3B
2017-12-01 15:36:11 1512160571.745817: $GPGSV,3,1,11,01,11,321,37,10,74,124,48,11,10,304,34,12,24,076,43*75
2017-12-01 15:36:11 1512160571.745998: $GPGSV,3,2,11,14,52,286,44,18,41,132,45,24,18,045,40,25,27,118,46*79
2017-12-01 15:36:11 1512160571.746064: $GPGSV,3,3,11,31,31,210,47,32,66,319,48,138,38,213,46*7C
2017-12-01 15:36:11 1512160571.859496: $GPZDA,203612.00,01,12,2017,00,00*64
2017-12-01 15:36:11 1512160571.859669: $GPGGA,203612,3946.9554,N,08404.9847,W,2,11,0.80,297.17,M,-33.324,M,,*72
2017-12-01 15:36:11 1512160571.859735: $GPRMC,203612,A,3946.9554,N,08404.9847,W,0.0000,0.000,011217,,*30
2017-12-01 15:36:11 1512160571.859796: $GPGSA,A,3,1,10,11,12,14,18,24,25,31,32,138,,2.0,0.8,1.5*3B
2017-12-01 15:36:12 1512160572.406513: $GPZDA,203613.00,01,12,2017,00,00*65
2017-12-01 15:36:12 1512160572.406688: $GPGGA,203613,3946.9554,N,08404.9847,W,2,11,0.80,297.17,M,-33.324,M,,*73
2017-12-01 15:36:12 1512160572.406756: $GPRMC,203613,A,3946.9554,N,08404.9847,W,0.0000,0.000,011217,,*31
2017-12-01 15:36:12 1512160572.406817: $GPGSA,A,3,1,10,11,12,14,18,24,25,31,32,138,,2.0,0.8,1.5*3B
2017-12-01 15:36:13 1512160573.404946: $GPZDA,203614.00,01,12,2017,00,00*62
2017-12-01 15:36:13 1512160573.405117: $GPGGA,203614,3946.9554,N,08404.9847,W,2,11,0.80,297.17,M,-33.324,M,,*74
2017-12-01 15:36:13 1512160573.405184: $GPRMC,203614,A,3946.9554,N,08404.9847,W,0.0000,0.000,011217,,*36
2017-12-01 15:36:13 1512160573.405245: $GPGSA,A,3,1,10,11,12,14,18,24,25,31,32,138,,2.0,0.8,1.5*3B
2017-12-01 15:36:14 1512160574.739067: $GPGSV,3,1,11,01,11,321,36,10,74,124,48,11,10,304,34,12,24,076,44*73
2017-12-01 15:36:14 1512160574.739253: $GPGSV,3,2,11,14,52,286,44,18,41,132,45,24,18,045,40,25,27,118,46*79
2017-12-01 15:36:14 1512160574.739321: $GPGSV,3,3,11,31,31,210,47,32,66,319,48,138,38,213,45*7F
2017-12-01 15:36:14 1512160574.852733: $GPZDA,203615.00,01,12,2017,00,00*63
2017-12-01 15:36:14 1512160574.852871: $GPGGA,203615,3946.9554,N,08404.9847,W,2,11,0.80,297.17,M,-33.324,M,,*75
2017-12-01 15:36:14 1512160574.852936: $GPRMC,203615,A,3946.9554,N,08404.9847,W,0.0000,0.000,011217,,*37
2017-12-01 15:36:14 1512160574.852996: $GPGSA,A,3,1,10,11,12,14,18,24,25,31,32,138,,2.0,0.8,1.5*3B
