2017-12-14 12:23:31 1513272211.022167: {"class":"VERSION","release":"3.16","rev":"3.16-4","proto_major":3,"proto_minor":11}
2017-12-14 12:23:31 1513272211.022566: {"class":"DEVICES","devices":[{"class":"DEVICE","path":"/dev/ttyUSB0","driver":"SiRF","subtype":"9\u0006GSD4e_4.1.2-P1_RPATCH.05-F-GPS-4R-1510281 11/03/2015 307","activated":"2017-12-14T17:23:30.343Z","flags":1,"native":1,"bps":4800,"parity":"N","stopbits":1,"cycle":1.00}]}
2017-12-14 12:23:31 1513272211.022679: {"class":"WATCH","enable":true,"json":false,"nmea":true,"raw":0,"scaled":false,"timing":false,"split24":false,"pps":false}
2017-12-14 12:23:31 1513272211.205820: $GPZDA,172332.00,14,12,2017,00,00*62
2017-12-14 12:23:31 1513272211.206007: $GPGGA,172332,3946.9475,N,08404.9472,W,1,08,1.40,345.90,M,-33.324,M,,*7F
2017-12-14 12:23:31 1513272211.206073: $GPRMC,172332,A,3946.9475,N,08404.9472,W,0.8953,239.978,141217,,*37
2017-12-14 12:23:31 1513272211.206134: $GPGSA,A,3,24,10,21,15,20,32,18,8,,,,,6.6,1.4,6.2*01
2017-12-14 12:23:32 1513272212.541081: $GPGSV,3,1,12,24,51,106,30,10,43,303,23,21,60,186,20,15,35,052,11*74
2017-12-14 12:23:32 1513272212.541272: $GPGSV,3,2,12,27,19,288,04,20,32,097,10,32,23,240,12,18,72,343,14*74
2017-12-14 12:23:32 1513272212.541336: $GPGSV,3,3,12,08,06,321,09,13,06,049,00,14,05,234,00,138,38,213,00*40
2017-12-14 12:23:32 1513272212.654348: $GPZDA,172333.00,14,12,2017,00,00*63
2017-12-14 12:23:32 1513272212.654493: $GPGGA,172333,3946.9491,N,08404.9460,W,1,08,1.40,339.35,M,-33.324,M,,*73
2017-12-14 12:23:32 1513272212.654559: $GPRMC,172333,A,3946.9491,N,08404.9460,W,0.3423,184.197,141217,,*32
2017-12-14 12:23:32 1513272212.654619: $GPGSA,A,3,24,10,21,15,20,32,18,8,,,,,6.6,1.4,6.2*01
2017-12-14 12:23:33 1513272213.204473: $GPZDA,172334.00,14,12,2017,00,00*64
2017-12-14 12:23:33 1513272213.204632: $GPGGA,172334,3946.9497,N,08404.9458,W,1,08,1.40,336.42,M,-33.324,M,,*76
2017-12-14 12:23:33 1513272213.204698: $GPRMC,172334,A,3946.9497,N,08404.9458,W,0.4985,185.768,141217,,*39
2017-12-14 12:23:33 1513272213.204760: $GPGSA,A,3,24,10,21,15,20,32,18,8,,,,,6.6,1.4,6.2*01
2017-12-14 12:23:34 1513272214.204600: $GPZDA,172335.00,14,12,2017,00,00*65
2017-12-14 12:23:34 1513272214.204780: $GPGGA,172335,3946.9496,N,08404.9451,W,1,08,1.40,335.09,M,-33.324,M,,*73
2017-12-14 12:23:34 1513272214.204846: $GPRMC,172335,A,3946.9496,N,08404.9451,W,0.3775,149.506,141217,,*3C
2017-12-14 12:23:34 1513272214.204907: $GPGSA,A,3,24,10,21,15,20,32,18,8,,,,,6.6,1.4,6.2*01
2017-12-14 12:23:35 1513272215.540827: $GPGSV,3,1,12,24,51,106,30,10,43,303,23,21,60,186,20,15,35,052,10*75
2017-12-14 12:23:35 1513272215.540974: $GPGSV,3,2,12,27,19,288,04,20,32,097,10,32,23,240,14,18,72,343,14*72
2017-12-14 12:23:35 1513272215.541037: $GPGSV,3,3,12,08,06,321,09,13,06,049,00,14,05,234,00,138,38,213,00*40
2017-12-14 12:23:35 1513272215.654176: $GPZDA,172336.00,14,12,2017,00,00*66
2017-12-14 12:23:35 1513272215.654312: $GPGGA,172336,3946.9499,N,08404.9443,W,1,08,1.40,334.41,M,-33.324,M,,*71
2017-12-14 12:23:35 1513272215.654377: $GPRMC,172336,A,3946.9499,N,08404.9443,W,0.3775,149.506,141217,,*33
2017-12-14 12:23:35 1513272215.654436: $GPGSA,A,3,24,10,21,15,20,32,18,8,,,,,6.6,1.4,6.2*01
2017-12-14 12:23:36 1513272216.203513: $GPZDA,172337.00,14,12,2017,00,00*67
2017-12-14 12:23:36 1513272216.203705: $GPGGA,172337,3946.9499,N,08404.9443,W,1,08,3.60,334.41,M,-33.324,M,,*70
2017-12-14 12:23:36 1513272216.203772: $GPRMC,172337,A,3946.9499,N,08404.9443,W,0.4137,224.855,141217,,*36
2017-12-14 12:23:36 1513272216.203833: $GPGSA,A,3,24,10,21,15,20,32,18,8,,,,,6.6,3.6,6.2*01
2017-12-14 12:23:37 1513272217.204229: $GPZDA,172338.00,14,12,2017,00,00*68
2017-12-14 12:23:37 1513272217.204393: $GPGGA,172338,3946.9503,N,08404.9443,W,1,08,3.60,335.05,M,-33.324,M,,*7C
2017-12-14 12:23:37 1513272217.204459: $GPRMC,172338,A,3946.9503,N,08404.9443,W,0.4137,224.855,141217,,*3B
2017-12-14 12:23:37 1513272217.204519: $GPGSA,A,3,24,10,21,15,20,32,18,8,,,,,6.6,3.6,6.2*01
2017-12-14 12:23:38 1513272218.538944: $GPGSV,3,1,12,24,51,106,29,10,43,303,23,21,60,186,21,15,35,052,12*7E
2017-12-14 12:23:38 1513272218.539174: $GPGSV,3,2,12,27,19,288,04,20,32,097,11,32,23,240,14,18,72,343,14*73
2017-12-14 12:23:38 1513272218.539241: $GPGSV,3,3,12,08,06,321,05,13,06,049,00,14,05,234,00,138,38,213,00*4C
2017-12-14 12:23:38 1513272218.651096: $GPZDA,172339.00,14,12,2017,00,00*69
2017-12-14 12:23:38 1513272218.651261: $GPGGA,172339,3946.9500,N,08404.9444,W,1,07,3.60,335.81,M,-33.324,M,,*7A
2017-12-14 12:23:38 1513272218.651325: $GPRMC,172339,A,3946.9500,N,08404.9444,W,0.6550,186.588,141217,,*3F
2017-12-14 12:23:38 1513272218.651386: $GPGSA,A,3,24,10,21,15,20,32,18,,,,,,6.6,3.6,6.2*39
2017-12-14 12:23:39 1513272219.202718: $GPZDA,172340.00,14,12,2017,00,00*67
2017-12-14 12:23:39 1513272219.202879: $GPGGA,172340,3946.9495,N,08404.9437,W,1,07,3.60,335.25,M,-33.324,M,,*73
2017-12-14 12:23:39 1513272219.202944: $GPRMC,172340,A,3946.9495,N,08404.9437,W,0.7955,149.124,141217,,*31
2017-12-14 12:23:39 1513272219.203004: $GPGSA,A,3,24,10,21,15,20,32,18,,,,,,6.6,3.6,6.2*39
2017-12-14 12:23:40 1513272220.388261: $GPZDA,172341.00,14,12,2017,00,00*66
2017-12-14 12:23:40 1513272220.388451: $GPGGA,172341,3946.9496,N,08404.9437,W,1,07,3.60,336.66,M,-33.324,M,,*75
2017-12-14 12:23:40 1513272220.388519: $GPRMC,172341,A,3946.9496,N,08404.9437,W,0.4700,189.201,141217,,*36
2017-12-14 12:23:40 1513272220.388581: $GPGSA,A,3,24,10,21,15,20,32,18,,,,,,6.6,3.6,6.2*39
2017-12-14 12:23:41 1513272221.739062: $GPGSV,3,1,12,24,51,106,29,10,43,303,22,21,60,186,21,15,35,052,12*7F
2017-12-14 12:23:41 1513272221.739237: $GPGSV,3,2,12,27,19,288,07,20,32,097,10,32,23,240,15,18,72,343,14*70
2017-12-14 12:23:41 1513272221.739302: $GPGSV,3,3,12,08,06,321,05,13,06,049,00,14,05,234,00,138,38,213,00*4C
2017-12-14 12:23:41 1513272221.852535: $GPZDA,172342.00,14,12,2017,00,00*65
2017-12-14 12:23:42 1513272222.699027: $GPGGA,172342,3946.9495,N,08404.9430,W,1,07,3.60,336.74,M,-33.324,M,,*71
2017-12-14 12:23:42 1513272222.699173: $GPRMC,172342,A,3946.9495,N,08404.9430,W,0.5080,160.865,141217,,*30
2017-12-14 12:23:42 1513272222.699387: $GPGSA,A,3,24,10,21,15,20,32,18,,,,,,6.6,3.6,6.2*39
2017-12-14 12:23:42 1513272222.699483: $GPZDA,172343.00,14,12,2017,00,00*64
2017-12-14 12:23:42 1513272222.699540: $GPGGA,172343,3946.9496,N,08404.9431,W,1,07,3.60,338.14,M,-33.324,M,,*7A
2017-12-14 12:23:42 1513272222.699601: $GPRMC,172343,A,3946.9496,N,08404.9431,W,1.0577,143.789,141217,,*36
2017-12-14 12:23:42 1513272222.699659: $GPGSA,A,3,24,10,21,15,20,32,18,,,,,,6.6,3.6,6.2*39
2017-12-14 12:23:43 1513272223.403760: $GPZDA,172344.00,14,12,2017,00,00*63
2017-12-14 12:23:43 1513272223.403929: $GPGGA,172344,3946.9496,N,08404.9424,W,1,07,3.60,338.22,M,-33.324,M,,*7C
2017-12-14 12:23:43 1513272223.403994: $GPRMC,172344,A,3946.9496,N,08404.9424,W,0.5080,160.865,141217,,*30
2017-12-14 12:23:43 1513272223.404055: $GPGSA,A,3,24,10,21,15,20,32,18,,,,,,6.6,3.6,6.2*39
2017-12-14 12:23:44 1513272224.721908: $GPGSV,3,1,12,24,51,106,29,10,43,303,22,21,60,186,22,15,35,052,13*7D
2017-12-14 12:23:44 1513272224.722219: $GPGSV,3,2,12,27,19,288,07,20,32,097,08,32,23,240,14,18,72,343,14*78
2017-12-14 12:23:44 1513272224.722298: $GPGSV,3,3,12,08,06,321,11,13,06,049,04,14,05,234,00,138,38,213,00*4D
2017-12-14 12:23:44 1513272224.835327: $GPZDA,172345.00,14,12,2017,00,00*62
2017-12-14 12:23:44 1513272224.835500: $GPGGA,172345,3946.9496,N,08404.9424,W,1,09,3.60,338.22,M,-33.324,M,,*73
2017-12-14 12:23:44 1513272224.835566: $GPRMC,172345,A,3946.9496,N,08404.9424,W,0.2872,195.168,141217,,*3D
2017-12-14 12:23:44 1513272224.835653: $GPGSA,A,3,24,10,21,15,27,20,32,18,8,,,,6.6,3.6,6.2*04
2017-12-14 12:23:45 1513272225.405211: $GPZDA,172346.00,14,12,2017,00,00*61
2017-12-14 12:23:45 1513272225.405510: $GPGGA,172346,3946.9503,N,08404.9423,W,1,09,1.40,336.69,M,-33.324,M,,*7B
2017-12-14 12:23:45 1513272225.405651: $GPRMC,172346,A,3946.9503,N,08404.9423,W,0.1324,202.233,141217,,*3F
2017-12-14 12:23:45 1513272225.405804: $GPGSA,A,3,24,10,21,15,27,20,32,18,8,,,,6.6,1.4,6.2*04
2017-12-14 12:23:46 1513272226.403555: $GPZDA,172347.00,14,12,2017,00,00*60
2017-12-14 12:23:46 1513272226.403758: $GPGGA,172347,3946.9505,N,08404.9414,W,1,09,1.40,334.60,M,-33.324,M,,*73
2017-12-14 12:23:46 1513272226.403876: $GPRMC,172347,A,3946.9505,N,08404.9414,W,0.3133,189.201,141217,,*3B
2017-12-14 12:23:46 1513272226.403938: $GPGSA,A,3,24,10,21,15,27,20,32,18,8,,,,6.6,1.4,6.2*04
2017-12-14 12:23:47 1513272227.739834: $GPGSV,3,1,12,24,51,106,29,10,43,303,22,21,60,186,22,15,35,052,11*7F
2017-12-14 12:23:47 1513272227.740031: $GPGSV,3,2,12,27,19,288,07,20,32,097,10,32,23,240,12,18,72,343,14*77
2017-12-14 12:23:47 1513272227.740099: $GPGSV,3,3,12,08,06,321,11,13,06,049,04,14,05,234,00,138,38,213,00*4D
2017-12-14 12:23:47 1513272227.852353: $GPZDA,172348.00,14,12,2017,00,00*6F
2017-12-14 12:23:47 1513272227.852532: $GPGGA,172348,3946.9515,N,08404.9405,W,1,08,1.40,332.39,M,-33.324,M,,*76
2017-12-14 12:23:47 1513272227.852600: $GPRMC,172348,A,3946.9515,N,08404.9405,W,0.1867,0.000,141217,,*3C
2017-12-14 12:23:47 1513272227.852663: $GPGSA,A,3,24,10,21,15,20,32,18,8,,,,,6.6,1.4,6.2*01
2017-12-14 12:23:48 1513272228.404426: $GPZDA,172349.00,14,12,2017,00,00*6E
2017-12-14 12:23:48 1513272228.404600: $GPGGA,172349,3946.9529,N,08404.9403,W,1,08,1.40,330.73,M,-33.324,M,,*72
2017-12-14 12:23:48 1513272228.404667: $GPRMC,172349,A,3946.9529,N,08404.9403,W,0.6846,4.197,141217,,*3B
2017-12-14 12:23:48 1513272228.404751: $GPGSA,A,3,24,10,21,15,20,32,18,8,,,,,6.6,1.4,6.2*01
2017-12-14 12:23:49 1513272229.404031: $GPZDA,172350.00,14,12,2017,00,00*66
2017-12-14 12:23:49 1513272229.404199: $GPGGA,172350,3946.9533,N,08404.9395,W,1,08,1.40,330.05,M,-33.324,M,,*78
2017-12-14 12:23:49 1513272229.404265: $GPRMC,172350,A,3946.9533,N,08404.9395,W,0.8709,3.298,141217,,*31
2017-12-14 12:23:49 1513272229.404326: $GPGSA,A,3,24,10,21,15,20,32,18,8,,,,,6.6,1.4,6.2*01
2017-12-14 12:23:50 1513272230.740731: $GPGSV,3,1,12,24,51,106,28,10,43,303,22,21,60,186,22,15,35,052,09*77
2017-12-14 12:23:50 1513272230.740910: $GPGSV,3,2,12,27,19,288,06,20,32,097,09,32,23,240,13,18,72,343,10*7B
2017-12-14 12:23:50 1513272230.740977: $GPGSV,3,3,12,08,06,321,06,13,06,049,04,14,05,234,00,120,07,103,00*4C
2017-12-14 12:23:50 1513272230.853296: $GPZDA,172351.00,14,12,2017,00,00*67
2017-12-14 12:23:50 1513272230.853478: $GPGGA,172351,3946.9536,N,08404.9395,W,1,09,3.60,329.28,M,-33.324,M,,*7A
2017-12-14 12:23:50 1513272230.853543: $GPRMC,172351,A,3946.9536,N,08404.9395,W,0.3423,4.197,141217,,*3E
2017-12-14 12:23:50 1513272230.853604: $GPGSA,A,3,24,10,21,15,27,20,32,18,8,,,,6.6,3.6,6.2*04
