2017-12-31 18:09:04 1514761744.768032: {"class":"VERSION","release":"3.16","rev":"3.16-4","proto_major":3,"proto_minor":11}
2017-12-31 18:09:04 1514761744.768385: {"class":"DEVICES","devices":[{"class":"DEVICE","path":"/dev/ttyUSB0","driver":"SiRF","activated":"2017-12-31T23:09:04.690Z","flags":1,"native":1,"bps":4800,"parity":"N","stopbits":1,"cycle":1.00}]}
2017-12-31 18:09:04 1514761744.768486: {"class":"WATCH","enable":true,"json":false,"nmea":true,"raw":0,"scaled":false,"timing":false,"split24":false,"pps":false}
2017-12-31 18:09:05 1514761745.376268: $GPZDA,230906.00,31,12,2017,00,00*6D
2017-12-31 18:09:05 1514761745.376424: $GPGGA,230906,3946.9561,N,08404.9874,W,2,11,0.60,308.17,M,-33.324,M,,*77
2017-12-31 18:09:05 1514761745.376492: $GPRMC,230906,A,3946.9561,N,08404.9874,W,0.0000,0.000,311217,,*3F
2017-12-31 18:09:05 1514761745.376552: $GPGSA,A,3,22,23,9,3,16,29,14,31,27,26,135,,1.7,0.6,1.3*06
2017-12-31 18:09:06 1514761746.683001: $GPGSV,3,1,11,22,22,214,40,23,53,306,44,09,20,312,38,03,32,234,45*7C
2017-12-31 18:09:06 1514761746.683172: $GPGSV,3,2,11,16,80,189,44,29,05,031,33,14,15,133,36,31,29,075,42*73
2017-12-31 18:09:06 1514761746.683241: $GPGSV,3,3,11,27,22,154,35,26,62,051,49,135,22,240,44*72
2017-12-31 18:09:06 1514761746.796628: $GPZDA,230907.00,31,12,2017,00,00*6C
2017-12-31 18:09:06 1514761746.796809: $GPGGA,230907,3946.9561,N,08404.9874,W,2,11,0.60,308.17,M,-33.324,M,,*76
2017-12-31 18:09:06 1514761746.796876: $GPRMC,230907,A,3946.9561,N,08404.9874,W,0.0000,0.000,311217,,*3E
2017-12-31 18:09:06 1514761746.796939: $GPGSA,A,3,22,23,9,3,16,29,14,31,27,26,135,,1.7,0.6,1.3*06
2017-12-31 18:09:07 1514761747.349968: $GPZDA,230908.00,31,12,2017,00,00*63
2017-12-31 18:09:07 1514761747.350128: $GPGGA,230908,3946.9561,N,08404.9874,W,2,11,0.60,308.17,M,-33.324,M,,*79
2017-12-31 18:09:07 1514761747.350195: $GPRMC,230908,A,3946.9561,N,08404.9874,W,0.0000,0.000,311217,,*31
2017-12-31 18:09:07 1514761747.350258: $GPGSA,A,3,22,23,9,3,16,29,14,31,27,26,135,,1.7,0.6,1.3*06
2017-12-31 18:09:08 1514761748.340877: $GPZDA,230909.00,31,12,2017,00,00*62
2017-12-31 18:09:08 1514761748.341049: $GPGGA,230909,3946.9561,N,08404.9874,W,2,11,0.60,308.17,M,-33.324,M,,*78
2017-12-31 18:09:08 1514761748.341115: $GPRMC,230909,A,3946.9561,N,08404.9874,W,0.0000,0.000,311217,,*30
2017-12-31 18:09:08 1514761748.341178: $GPGSA,A,3,22,23,9,3,16,29,14,31,27,26,135,,1.7,0.6,1.3*06
2017-12-31 18:09:09 1514761749.711350: $GPGSV,3,1,11,22,22,214,40,23,53,306,44,09,20,312,38,03,32,234,45*7C
2017-12-31 18:09:09 1514761749.711532: $GPGSV,3,2,11,16,80,189,44,29,05,031,24,14,15,133,36,31,29,075,41*76
2017-12-31 18:09:09 1514761749.711614: $GPGSV,3,3,11,27,22,154,35,26,62,051,48,135,22,240,43*74
2017-12-31 18:09:09 1514761749.824971: $GPZDA,230910.00,31,12,2017,00,00*6A
2017-12-31 18:09:09 1514761749.825161: $GPGGA,230910,3946.9561,N,08404.9874,W,2,11,0.60,308.17,M,-33.324,M,,*70
2017-12-31 18:09:09 1514761749.825229: $GPRMC,230910,A,3946.9561,N,08404.9874,W,0.0000,0.000,311217,,*38
2017-12-31 18:09:09 1514761749.825292: $GPGSA,A,3,22,23,9,3,16,29,14,31,27,26,135,,1.7,0.6,1.3*06
2017-12-31 18:09:10 1514761750.451343: $GPZDA,230911.00,31,12,2017,00,00*6B
2017-12-31 18:09:10 1514761750.451520: $GPGGA,230911,3946.9561,N,08404.9874,W,2,11,0.60,308.17,M,-33.324,M,,*71
2017-12-31 18:09:10 1514761750.451589: $GPRMC,230911,A,3946.9561,N,08404.9874,W,0.0000,0.000,311217,,*39
2017-12-31 18:09:10 1514761750.451652: $GPGSA,A,3,22,23,9,3,16,29,14,31,27,26,135,,1.7,0.6,1.3*06
2017-12-31 18:09:11 1514761751.375972: $GPZDA,230912.00,31,12,2017,00,00*68
2017-12-31 18:09:11 1514761751.376156: $GPGGA,230912,3946.9561,N,08404.9874,W,2,11,0.60,308.17,M,-33.324,M,,*72
2017-12-31 18:09:11 1514761751.376225: $GPRMC,230912,A,3946.9561,N,08404.9874,W,0.0000,0.000,311217,,*3A
2017-12-31 18:09:11 1514761751.376288: $GPGSA,A,3,22,23,9,3,16,29,14,31,27,26,135,,1.7,0.6,1.3*06
2017-12-31 18:09:12 1514761752.711712: $GPGSV,3,1,11,22,22,214,40,23,53,306,44,09,20,312,39,03,32,234,45*7D
2017-12-31 18:09:12 1514761752.711878: $GPGSV,3,2,11,16,80,189,44,29,05,031,17,14,15,133,36,31,29,075,42*75
2017-12-31 18:09:12 1514761752.712001: $GPGSV,3,3,11,27,22,154,36,26,62,051,49,135,22,240,44*71
2017-12-31 18:09:12 1514761752.825171: $GPZDA,230913.00,31,12,2017,00,00*69
2017-12-31 18:09:12 1514761752.825343: $GPGGA,230913,3946.9561,N,08404.9874,W,2,11,0.60,308.17,M,-33.324,M,,*73
2017-12-31 18:09:12 1514761752.825412: $GPRMC,230913,A,3946.9561,N,08404.9874,W,0.0000,0.000,311217,,*3B
2017-12-31 18:09:12 1514761752.825474: $GPGSA,A,3,22,23,9,3,16,29,14,31,27,26,135,,1.7,0.6,1.3*06
2017-12-31 18:09:13 1514761753.377561: $GPZDA,230914.00,31,12,2017,00,00*6E
2017-12-31 18:09:13 1514761753.377726: $GPGGA,230914,3946.9561,N,08404.9874,W,2,11,0.60,308.17,M,-33.324,M,,*74
2017-12-31 18:09:13 1514761753.377799: $GPRMC,230914,A,3946.9561,N,08404.9874,W,0.0000,0.000,311217,,*3C
2017-12-31 18:09:13 1514761753.377861: $GPGSA,A,3,22,23,9,3,16,29,14,31,27,26,135,,1.7,0.6,1.3*06
2017-12-31 18:09:14 1514761754.347264: $GPZDA,230915.00,31,12,2017,00,00*6F
2017-12-31 18:09:14 1514761754.347427: $GPGGA,230915,3946.9561,N,08404.9874,W,2,11,0.60,308.17,M,-33.324,M,,*75
2017-12-31 18:09:14 1514761754.347495: $GPRMC,230915,A,3946.9561,N,08404.9874,W,0.0000,0.000,311217,,*3D
2017-12-31 18:09:14 1514761754.347556: $GPGSA,A,3,22,23,9,3,16,29,14,31,27,26,135,,1.7,0.6,1.3*06
