2017-11-15 18:36:45 1510789005.337326: {"class":"VERSION","release":"3.17","rev":"3.17","proto_major":3,"proto_minor":12}
2017-11-15 18:36:45 1510789005.337777: {"class":"DEVICES","devices":[{"class":"DEVICE","path":"/dev/ttyUSB0","driver":"SiRF","subtype":"9\u0006GSD4e_4.1.2-P1_RPATCH.05-F-GPS-4R-1510281 11/03/2015 307","activated":"2017-11-15T23:36:45.216Z","flags":1,"native":1,"bps":4800,"parity":"N","stopbits":1,"cycle":1.00}]}
2017-11-15 18:36:45 1510789005.338009: {"class":"WATCH","enable":true,"json":false,"nmea":true,"raw":0,"scaled":false,"timing":false,"split24":false,"pps":false}
2017-11-15 18:36:45 1510789005.666144: $GPGSV,3,1,10,25,34,055,01,14,68,046,19,22,41,301,20,01,18,273,16*76
2017-11-15 18:36:45 1510789005.666315: $GPGSV,3,2,10,31,79,291,28,32,54,082,01,26,27,178,04,10,20,157,17*73
2017-11-15 18:36:45 1510789005.666375: $GPGSV,3,3,10,03,22,315,00,12,05,031,00*78
2017-11-15 18:36:45 1510789005.778540: $GPZDA,233644.00,15,11,2017,00,00*62
2017-11-15 18:36:45 1510789005.778696: $GPGGA,233644,3946.9583,N,08404.9518,W,1,05,3.00,292.28,M,-33.324,M,,*7B
2017-11-15 18:36:45 1510789005.778756: $GPRMC,233644,A,3946.9583,N,08404.9518,W,0.7278,23.636,151117,,*03
2017-11-15 18:36:45 1510789005.778811: $GPGSA,A,3,14,22,1,31,10,,,,,,,,3.4,3.0,2.9*0A
2017-11-15 18:36:46 1510789006.404754: $GPZDA,233645.00,15,11,2017,00,00*63
2017-11-15 18:36:46 1510789006.404928: $GPGGA,233645,3946.9583,N,08404.9518,W,1,05,3.00,292.28,M,-33.324,M,,*7A
2017-11-15 18:36:46 1510789006.404989: $GPRMC,233645,A,3946.9583,N,08404.9518,W,0.4207,39.347,151117,,*01
2017-11-15 18:36:46 1510789006.405044: $GPGSA,A,3,14,22,1,31,10,,,,,,,,3.4,3.0,2.9*0A
2017-11-15 18:36:47 1510789007.328574: $GPZDA,233646.00,15,11,2017,00,00*60
2017-11-15 18:36:47 1510789007.328749: $GPGGA,233646,3946.9587,N,08404.9518,W,1,05,3.00,292.92,M,-33.324,M,,*7C
2017-11-15 18:36:47 1510789007.328811: $GPRMC,233646,A,3946.9587,N,08404.9518,W,0.2422,93.794,151117,,*0B
2017-11-15 18:36:47 1510789007.328867: $GPGSA,A,3,14,22,1,31,10,,,,,,,,3.4,3.0,2.9*0A
2017-11-15 18:36:48 1510789008.665229: $GPGSV,3,1,10,25,34,055,01,14,68,046,20,22,41,301,20,01,18,273,16*7C
2017-11-15 18:36:48 1510789008.665413: $GPGSV,3,2,10,31,79,291,28,32,54,082,01,26,27,178,17,10,20,157,17*71
2017-11-15 18:36:48 1510789008.665474: $GPGSV,3,3,10,12,05,031,15,03,22,315,00*7C
2017-11-15 18:36:48 1510789008.778645: $GPZDA,233647.00,15,11,2017,00,00*61
2017-11-15 18:36:48 1510789008.778806: $GPGGA,233647,3946.9587,N,08404.9525,W,1,06,2.20,292.84,M,-33.324,M,,*74
2017-11-15 18:36:48 1510789008.778868: $GPRMC,233647,A,3946.9587,N,08404.9525,W,0.5857,338.291,151117,,*3F
2017-11-15 18:36:48 1510789008.778925: $GPGSA,A,3,14,22,1,31,26,10,,,,,,,3.4,2.2,2.9*0D
2017-11-15 18:36:49 1510789009.364475: $GPZDA,233648.00,15,11,2017,00,00*6E
2017-11-15 18:36:49 1510789009.364641: $GPGGA,233648,3946.9592,N,08404.9525,W,1,06,3.00,293.48,M,-33.324,M,,*7D
2017-11-15 18:36:49 1510789009.364701: $GPRMC,233648,A,3946.9592,N,08404.9525,W,0.9060,347.792,151117,,*3A
2017-11-15 18:36:49 1510789009.364757: $GPGSA,A,3,14,22,1,31,26,10,,,,,,,3.4,3.0,2.9*0E
2017-11-15 18:36:50 1510789010.329158: $GPZDA,233649.00,15,11,2017,00,00*6F
2017-11-15 18:36:50 1510789010.329348: $GPGGA,233649,3946.9595,N,08404.9524,W,1,06,3.00,292.72,M,-33.324,M,,*72
2017-11-15 18:36:50 1510789010.329411: $GPRMC,233649,A,3946.9595,N,08404.9524,W,1.2132,3.551,151117,,*3F
2017-11-15 18:36:50 1510789010.329467: $GPGSA,A,3,14,22,1,31,26,10,,,,,,,3.4,3.0,2.9*0E
2017-11-15 18:36:51 1510789011.701818: $GPGSV,3,1,10,25,34,055,01,14,68,046,20,22,41,301,20,01,18,273,16*7C
2017-11-15 18:36:51 1510789011.701987: $GPGSV,3,2,10,31,79,291,28,32,54,082,01,26,27,178,18,10,20,157,16*7F
2017-11-15 18:36:51 1510789011.702047: $GPGSV,3,3,10,12,05,031,14,03,22,315,02*7F
2017-11-15 18:36:51 1510789011.815236: $GPZDA,233650.00,15,11,2017,00,00*67
2017-11-15 18:36:51 1510789011.815387: $GPGGA,233650,3946.9599,N,08404.9524,W,1,06,2.20,293.36,M,-33.324,M,,*74
2017-11-15 18:36:51 1510789011.815446: $GPRMC,233650,A,3946.9599,N,08404.9524,W,0.7246,344.668,151117,,*36
2017-11-15 18:36:51 1510789011.815553: $GPGSA,A,3,14,22,1,31,26,10,,,,,,,3.4,2.2,2.9*0D
2017-11-15 18:36:52 1510789012.364772: $GPZDA,233651.00,15,11,2017,00,00*66
2017-11-15 18:36:52 1510789012.364931: $GPGGA,233651,3946.9599,N,08404.9524,W,1,06,3.00,293.36,M,-33.324,M,,*76
2017-11-15 18:36:52 1510789012.364992: $GPRMC,233651,A,3946.9599,N,08404.9524,W,0.5287,2.716,151117,,*31
2017-11-15 18:36:52 1510789012.365048: $GPGSA,A,3,14,22,1,31,26,10,,,,,,,3.4,3.0,2.9*0E
2017-11-15 18:36:53 1510789013.328244: $GPZDA,233652.00,15,11,2017,00,00*65
2017-11-15 18:36:53 1510789013.328408: $GPGGA,233652,3946.9599,N,08404.9524,W,1,06,2.20,293.36,M,-33.324,M,,*76
2017-11-15 18:36:53 1510789013.328467: $GPRMC,233652,A,3946.9599,N,08404.9524,W,0.6846,4.197,151117,,*3F
2017-11-15 18:36:53 1510789013.328522: $GPGSA,A,3,14,22,1,31,26,10,,,,,,,3.4,2.2,2.9*0D
2017-11-15 18:36:54 1510789014.663981: $GPGSV,3,1,10,25,34,055,00,14,68,046,20,22,41,301,20,01,18,273,16*7D
2017-11-15 18:36:54 1510789014.664153: $GPGSV,3,2,10,31,79,291,28,32,54,082,01,26,27,178,00,10,20,157,16*76
2017-11-15 18:36:54 1510789014.664214: $GPGSV,3,3,10,12,05,031,00,03,22,315,14*7D
2017-11-15 18:36:54 1510789014.777637: $GPZDA,233653.00,15,11,2017,00,00*64
2017-11-15 18:36:54 1510789014.777778: $GPGGA,233653,3946.9607,N,08404.9523,W,1,05,3.00,293.23,M,-33.324,M,,*70
2017-11-15 18:36:54 1510789014.777838: $GPRMC,233653,A,3946.9607,N,08404.9523,W,1.3044,25.352,151117,,*0B
2017-11-15 18:36:54 1510789014.777893: $GPGSA,A,3,14,22,1,31,10,,,,,,,,3.4,3.0,2.9*0A
2017-11-15 18:36:55 1510789015.362163: $GPZDA,233654.00,15,11,2017,00,00*63
2017-11-15 18:36:55 1510789015.362338: $GPGGA,233654,3946.9611,N,08404.9523,W,1,05,3.00,293.87,M,-33.324,M,,*7E
2017-11-15 18:36:55 1510789015.362398: $GPRMC,233654,A,3946.9611,N,08404.9523,W,1.5738,12.547,151117,,*07
2017-11-15 18:36:55 1510789015.362454: $GPGSA,A,3,14,22,1,31,10,,,,,,,,3.4,3.0,2.9*0A
2017-11-15 18:36:56 1510789016.329051: $GPZDA,233655.00,15,11,2017,00,00*62
2017-11-15 18:36:56 1510789016.329204: $GPGGA,233655,3946.9619,N,08404.9523,W,1,05,3.00,293.75,M,-33.324,M,,*7A
2017-11-15 18:36:56 1510789016.329264: $GPRMC,233655,A,3946.9619,N,08404.9523,W,1.9131,11.058,151117,,*05
2017-11-15 18:36:56 1510789016.329320: $GPGSA,A,3,14,22,1,31,10,,,,,,,,3.4,3.0,2.9*0A
2017-11-15 18:36:57 1510789017.698051: $GPGSV,3,1,10,25,34,055,00,14,68,046,20,22,41,301,20,01,18,273,16*7D
2017-11-15 18:36:57 1510789017.698225: $GPGSV,3,2,10,31,79,291,28,32,54,082,01,26,27,178,00,10,20,157,16*76
2017-11-15 18:36:57 1510789017.698285: $GPGSV,3,3,10,03,22,315,00,12,05,031,00*78
2017-11-15 18:36:57 1510789017.811680: $GPZDA,233656.00,15,11,2017,00,00*61
2017-11-15 18:36:57 1510789017.811838: $GPGGA,233656,3946.9626,N,08404.9515,W,1,05,3.00,293.70,M,-33.324,M,,*75
2017-11-15 18:36:57 1510789017.811899: $GPRMC,233656,A,3946.9626,N,08404.9515,W,1.6283,21.001,151117,,*05
2017-11-15 18:36:57 1510789017.811954: $GPGSA,A,3,14,22,1,31,10,,,,,,,,3.4,3.0,2.9*0A
2017-11-15 18:36:58 1510789018.331282: $GPZDA,233657.00,15,11,2017,00,00*60
2017-11-15 18:36:58 1510789018.331440: $GPGGA,233657,3946.9630,N,08404.9515,W,1,05,3.00,294.34,M,-33.324,M,,*74
2017-11-15 18:36:58 1510789018.331501: $GPRMC,233657,A,3946.9630,N,08404.9515,W,1.7157,28.752,151117,,*00
2017-11-15 18:36:58 1510789018.331556: $GPGSA,A,3,14,22,1,31,10,,,,,,,,3.4,3.0,2.9*0A
2017-11-15 18:36:59 1510789019.329722: $GPZDA,233658.00,15,11,2017,00,00*6F
2017-11-15 18:36:59 1510789019.329890: $GPGGA,233658,3946.9633,N,08404.9514,W,1,05,3.00,293.58,M,-33.324,M,,*74
2017-11-15 18:36:59 1510789019.329950: $GPRMC,233658,A,3946.9633,N,08404.9514,W,1.6283,21.001,151117,,*0E
2017-11-15 18:36:59 1510789019.330005: $GPGSA,A,3,14,22,1,31,10,,,,,,,,3.4,3.0,2.9*0A
