2017-12-01 15:59:11 1512161951.179033: {"class":"VERSION","release":"3.16","rev":"3.16-4","proto_major":3,"proto_minor":11}
2017-12-01 15:59:11 1512161951.179429: {"class":"DEVICES","devices":[{"class":"DEVICE","path":"/dev/ttyUSB0","driver":"SiRF","subtype":"9\u0006GSD4e_4.1.2-P1_RPATCH.05-F-GPS-4R-1510281 11/03/2015 307","activated":"2017-12-01T20:59:10.725Z","flags":1,"native":1,"bps":4800,"parity":"N","stopbits":1,"cycle":1.00}]}
2017-12-01 15:59:11 1512161951.179550: {"class":"WATCH","enable":true,"json":false,"nmea":true,"raw":0,"scaled":false,"timing":false,"split24":false,"pps":false}
2017-12-01 15:59:11 1512161951.410849: $GPZDA,205912.00,01,12,2017,00,00*6D
2017-12-01 15:59:11 1512161951.411017: $GPGGA,205912,3946.9572,N,08404.9829,W,2,12,0.80,305.59,M,-33.324,M,,*74
2017-12-01 15:59:11 1512161951.411082: $GPRMC,205912,A,3946.9572,N,08404.9829,W,0.0000,0.000,011217,,*35
2017-12-01 15:59:11 1512161951.411143: $GPGSA,A,3,1,10,12,14,18,22,25,31,32,11,24,138,2.0,0.8,1.5*3B
2017-12-01 15:59:12 1512161952.747804: $GPGSV,3,1,12,01,17,313,29,10,63,138,48,12,25,064,41,14,58,301,44*7E
2017-12-01 15:59:12 1512161952.747962: $GPGSV,3,2,12,18,31,138,45,22,07,312,39,25,33,108,44,31,41,214,49*75
2017-12-01 15:59:12 1512161952.748047: $GPGSV,3,3,12,32,69,346,48,11,11,295,32,24,09,046,28,138,38,213,46*42
2017-12-01 15:59:12 1512161952.861167: $GPZDA,205913.00,01,12,2017,00,00*6C
2017-12-01 15:59:12 1512161952.861398: $GPGGA,205913,3946.9572,N,08404.9829,W,2,12,0.80,305.59,M,-33.324,M,,*75
2017-12-01 15:59:12 1512161952.861475: $GPRMC,205913,A,3946.9572,N,08404.9829,W,0.0000,0.000,011217,,*34
2017-12-01 15:59:12 1512161952.861536: $GPGSA,A,3,1,10,12,14,18,22,25,31,32,11,24,138,2.0,0.8,1.5*3B
2017-12-01 15:59:13 1512161953.408644: $GPZDA,205914.00,01,12,2017,00,00*6B
2017-12-01 15:59:13 1512161953.408815: $GPGGA,205914,3946.9572,N,08404.9829,W,2,12,0.80,305.59,M,-33.324,M,,*72
2017-12-01 15:59:13 1512161953.408881: $GPRMC,205914,A,3946.9572,N,08404.9829,W,0.0000,0.000,011217,,*33
2017-12-01 15:59:13 1512161953.408942: $GPGSA,A,3,1,10,12,14,18,22,25,31,32,11,24,138,2.0,0.8,1.5*3B
2017-12-01 15:59:14 1512161954.408261: $GPZDA,205915.00,01,12,2017,00,00*6A
2017-12-01 15:59:14 1512161954.408432: $GPGGA,205915,3946.9572,N,08404.9822,W,2,12,0.80,305.66,M,-33.324,M,,*74
2017-12-01 15:59:14 1512161954.408499: $GPRMC,205915,A,3946.9572,N,08404.9822,W,0.0000,0.000,011217,,*39
2017-12-01 15:59:14 1512161954.408560: $GPGSA,A,3,1,10,12,14,18,22,25,31,32,11,24,138,2.0,0.8,1.5*3B
2017-12-01 15:59:15 1512161955.747404: $GPGSV,3,1,12,01,17,313,30,10,63,138,48,12,25,064,40,14,58,301,44*77
2017-12-01 15:59:15 1512161955.747589: $GPGSV,3,2,12,18,31,138,45,22,07,312,39,25,33,108,44,31,41,214,49*75
2017-12-01 15:59:15 1512161955.747656: $GPGSV,3,3,12,32,69,346,48,11,11,295,32,24,09,046,28,138,38,213,45*41
2017-12-01 15:59:15 1512161955.860782: $GPZDA,205916.00,01,12,2017,00,00*69
2017-12-01 15:59:15 1512161955.860934: $GPGGA,205916,3946.9572,N,08404.9822,W,2,12,0.80,305.66,M,-33.324,M,,*77
2017-12-01 15:59:15 1512161955.861001: $GPRMC,205916,A,3946.9572,N,08404.9822,W,0.0000,0.000,011217,,*3A
2017-12-01 15:59:15 1512161955.861061: $GPGSA,A,3,1,10,12,14,18,22,25,31,32,11,24,138,2.0,0.8,1.5*3B
2017-12-01 15:59:16 1512161956.486166: $GPZDA,205917.00,01,12,2017,00,00*68
2017-12-01 15:59:16 1512161956.486349: $GPGGA,205917,3946.9572,N,08404.9822,W,2,12,0.80,305.66,M,-33.324,M,,*76
2017-12-01 15:59:16 1512161956.486418: $GPRMC,205917,A,3946.9572,N,08404.9822,W,0.0000,0.000,011217,,*3B
2017-12-01 15:59:16 1512161956.486481: $GPGSA,A,3,1,10,12,14,18,22,25,31,32,11,24,138,2.0,0.8,1.5*3B
2017-12-01 15:59:17 1512161957.409639: $GPZDA,205918.00,01,12,2017,00,00*67
2017-12-01 15:59:17 1512161957.409856: $GPGGA,205918,3946.9572,N,08404.9822,W,2,12,1.00,305.66,M,-33.324,M,,*70
2017-12-01 15:59:17 1512161957.409925: $GPRMC,205918,A,3946.9572,N,08404.9822,W,0.0000,0.000,011217,,*34
2017-12-01 15:59:17 1512161957.409989: $GPGSA,A,3,1,10,12,14,18,22,25,31,32,11,24,138,2.0,1.0,1.5*32
2017-12-01 15:59:19 1512161959.624286: $GPGSV,3,1,12,01,17,313,31,10,63,139,48,12,25,064,41,14,59,301,44*77
2017-12-01 15:59:19 1512161959.624520: $GPGSV,3,2,12,18,31,138,45,22,08,312,39,25,34,108,43,31,42,216,49*7B
2017-12-01 15:59:19 1512161959.624591: $GPGSV,3,3,12,32,69,348,47,11,11,295,32,24,08,046,04,138,38,213,46*4C
2017-12-01 15:59:19 1512161959.737712: $GPZDA,205919.00,01,12,2017,00,00*66
2017-12-01 15:59:19 1512161959.737846: $GPGGA,205919,3946.9580,N,08404.9835,W,2,11,1.00,305.38,M,-33.324,M,,*72
2017-12-01 15:59:19 1512161959.737911: $GPRMC,205919,A,3946.9580,N,08404.9835,W,0.0000,0.000,011217,,*3E
2017-12-01 15:59:19 1512161959.737973: $GPGSA,A,3,1,10,12,14,18,22,25,31,32,11,138,,2.0,1.0,1.5*34
2017-12-01 15:59:20 1512161960.188492: $GPZDA,205920.00,01,12,2017,00,00*6C
2017-12-01 15:59:20 1512161960.192355: $GPGGA,205920,3946.9580,N,08404.9835,W,2,11,1.00,305.38,M,-33.324,M,,*78
2017-12-01 15:59:20 1512161960.192526: $GPRMC,205920,A,3946.9580,N,08404.9835,W,0.0000,0.000,011217,,*34
2017-12-01 15:59:20 1512161960.192599: $GPGSA,A,3,1,10,12,14,18,22,25,31,32,11,138,,2.0,1.0,1.5*34
2017-12-01 15:59:20 1512161960.639486: $GPZDA,205921.00,01,12,2017,00,00*6D
2017-12-01 15:59:20 1512161960.639659: $GPGGA,205921,3946.9580,N,08404.9835,W,2,11,1.00,305.38,M,-33.324,M,,*79
2017-12-01 15:59:20 1512161960.639732: $GPRMC,205921,A,3946.9580,N,08404.9835,W,0.0000,0.000,011217,,*35
2017-12-01 15:59:20 1512161960.639793: $GPGSA,A,3,1,10,12,14,18,22,25,31,32,11,138,,2.0,1.0,1.5*34
2017-12-01 15:59:21 1512161961.747141: $GPGSV,3,1,12,01,17,313,32,10,63,139,48,12,25,064,41,14,59,301,44*74
2017-12-01 15:59:21 1512161961.747325: $GPGSV,3,2,12,18,31,138,45,22,08,312,39,25,34,108,44,31,42,216,48*7D
2017-12-01 15:59:21 1512161961.747392: $GPGSV,3,3,12,32,69,348,47,11,11,295,32,24,08,046,25,138,38,213,45*4C
2017-12-01 15:59:21 1512161961.860452: $GPZDA,205922.00,01,12,2017,00,00*6E
2017-12-01 15:59:21 1512161961.860565: $GPGGA,205922,3946.9580,N,08404.9828,W,2,12,0.80,305.46,M,-33.324,M,,*75
2017-12-01 15:59:21 1512161961.860631: $GPRMC,205922,A,3946.9580,N,08404.9828,W,0.0000,0.000,011217,,*3A
2017-12-01 15:59:21 1512161961.860693: $GPGSA,A,3,1,10,12,14,18,22,25,31,32,11,24,138,2.0,0.8,1.5*3B
2017-12-01 15:59:22 1512161962.410157: $GPZDA,205923.00,01,12,2017,00,00*6F
2017-12-01 15:59:22 1512161962.410335: $GPGGA,205923,3946.9580,N,08404.9828,W,2,12,0.80,305.46,M,-33.324,M,,*74
2017-12-01 15:59:22 1512161962.410401: $GPRMC,205923,A,3946.9580,N,08404.9828,W,0.0000,0.000,011217,,*3B
2017-12-01 15:59:22 1512161962.410464: $GPGSA,A,3,1,10,12,14,18,22,25,31,32,11,24,138,2.0,0.8,1.5*3B
2017-12-01 15:59:23 1512161963.412381: $GPZDA,205924.00,01,12,2017,00,00*68
2017-12-01 15:59:23 1512161963.412556: $GPGGA,205924,3946.9580,N,08404.9828,W,2,12,0.80,305.46,M,-33.324,M,,*73
2017-12-01 15:59:23 1512161963.412623: $GPRMC,205924,A,3946.9580,N,08404.9828,W,0.0000,0.000,011217,,*3C
2017-12-01 15:59:23 1512161963.412685: $GPGSA,A,3,1,10,12,14,18,22,25,31,32,11,24,138,2.0,0.8,1.5*3B
2017-12-01 15:59:24 1512161964.745661: $GPGSV,3,1,12,01,17,313,35,10,63,139,48,12,25,064,41,14,59,301,43*74
2017-12-01 15:59:24 1512161964.745858: $GPGSV,3,2,12,18,31,138,45,22,08,312,40,25,34,108,44,31,42,216,49*72
2017-12-01 15:59:24 1512161964.745929: $GPGSV,3,3,12,32,69,348,48,11,11,295,32,24,08,046,26,138,38,213,46*43
2017-12-01 15:59:24 1512161964.859251: $GPZDA,205925.00,01,12,2017,00,00*69
2017-12-01 15:59:24 1512161964.859421: $GPGGA,205925,3946.9580,N,08404.9828,W,2,12,0.80,305.46,M,-33.324,M,,*72
2017-12-01 15:59:24 1512161964.859486: $GPRMC,205925,A,3946.9580,N,08404.9828,W,0.0000,0.000,011217,,*3D
2017-12-01 15:59:24 1512161964.859549: $GPGSA,A,3,1,10,12,14,18,22,25,31,32,11,24,138,2.0,0.8,1.5*3B
2017-12-01 15:59:25 1512161965.410094: $GPZDA,205926.00,01,12,2017,00,00*6A
2017-12-01 15:59:25 1512161965.410262: $GPGGA,205926,3946.9580,N,08404.9828,W,2,12,0.80,305.46,M,-33.324,M,,*71
2017-12-01 15:59:25 1512161965.410330: $GPRMC,205926,A,3946.9580,N,08404.9828,W,0.0000,0.000,011217,,*3E
2017-12-01 15:59:25 1512161965.410392: $GPGSA,A,3,1,10,12,14,18,22,25,31,32,11,24,138,2.0,0.8,1.5*3B
2017-12-01 15:59:26 1512161966.407718: $GPZDA,205927.00,01,12,2017,00,00*6B
2017-12-01 15:59:26 1512161966.407899: $GPGGA,205927,3946.9580,N,08404.9828,W,2,12,0.80,305.46,M,-33.324,M,,*70
2017-12-01 15:59:26 1512161966.407966: $GPRMC,205927,A,3946.9580,N,08404.9828,W,0.0000,0.000,011217,,*3F
2017-12-01 15:59:26 1512161966.408029: $GPGSA,A,3,1,10,12,14,18,22,25,31,32,11,24,138,2.0,0.8,1.5*3B
2017-12-01 15:59:27 1512161967.747197: $GPGSV,3,1,12,01,17,313,36,10,63,139,48,12,25,064,42,14,59,301,43*74
2017-12-01 15:59:27 1512161967.747398: $GPGSV,3,2,12,18,31,138,45,22,08,312,40,25,34,108,44,31,42,216,49*72
2017-12-01 15:59:27 1512161967.747465: $GPGSV,3,3,12,32,69,348,47,11,11,295,23,24,08,046,26,138,38,213,46*4C
2017-12-01 15:59:27 1512161967.860858: $GPZDA,205928.00,01,12,2017,00,00*64
2017-12-01 15:59:27 1512161967.861007: $GPGGA,205928,3946.9580,N,08404.9828,W,2,12,0.80,305.46,M,-33.324,M,,*7F
2017-12-01 15:59:27 1512161967.861074: $GPRMC,205928,A,3946.9580,N,08404.9828,W,0.0000,0.000,011217,,*30
2017-12-01 15:59:27 1512161967.861134: $GPGSA,A,3,1,10,12,14,18,22,25,31,32,11,24,138,2.0,0.8,1.5*3B
2017-12-01 15:59:28 1512161968.411433: $GPZDA,205929.00,01,12,2017,00,00*65
2017-12-01 15:59:28 1512161968.411596: $GPGGA,205929,3946.9580,N,08404.9828,W,2,12,1.00,305.46,M,-33.324,M,,*77
2017-12-01 15:59:28 1512161968.411664: $GPRMC,205929,A,3946.9580,N,08404.9828,W,0.0000,0.000,011217,,*31
2017-12-01 15:59:28 1512161968.411728: $GPGSA,A,3,1,10,12,14,18,22,25,31,32,11,24,138,2.0,1.0,1.5*32
2017-12-01 15:59:29 1512161969.410981: $GPZDA,205930.00,01,12,2017,00,00*6D
2017-12-01 15:59:29 1512161969.411144: $GPGGA,205930,3946.9580,N,08404.9828,W,2,12,0.80,305.46,M,-33.324,M,,*76
2017-12-01 15:59:29 1512161969.411210: $GPRMC,205930,A,3946.9580,N,08404.9828,W,0.0000,0.000,011217,,*39
2017-12-01 15:59:29 1512161969.411293: $GPGSA,A,3,1,10,12,14,18,22,25,31,32,11,24,138,2.0,0.8,1.5*3B
2017-12-01 15:59:30 1512161970.746827: $GPGSV,3,1,12,01,17,313,36,10,63,139,48,12,25,064,42,14,59,301,44*73
2017-12-01 15:59:30 1512161970.747013: $GPGSV,3,2,12,18,31,138,45,22,08,312,40,25,34,108,45,31,42,216,49*73
2017-12-01 15:59:30 1512161970.747080: $GPGSV,3,3,12,32,69,348,47,11,11,295,26,24,08,046,26,138,38,213,45*4A
2017-12-01 15:59:30 1512161970.860492: $GPZDA,205931.00,01,12,2017,00,00*6C
2017-12-01 15:59:30 1512161970.860664: $GPGGA,205931,3946.9580,N,08404.9828,W,2,12,0.80,305.46,M,-33.324,M,,*77
2017-12-01 15:59:30 1512161970.860732: $GPRMC,205931,A,3946.9580,N,08404.9828,W,0.0000,0.000,011217,,*38
2017-12-01 15:59:30 1512161970.860797: $GPGSA,A,3,1,10,12,14,18,22,25,31,32,11,24,138,2.0,0.8,1.5*3B
