2017-12-14 12:05:41 1513271141.141997: {"class":"VERSION","release":"3.16","rev":"3.16-4","proto_major":3,"proto_minor":11}
2017-12-14 12:05:41 1513271141.142466: {"class":"DEVICES","devices":[{"class":"DEVICE","path":"/dev/ttyUSB0","driver":"SiRF","subtype":"9\u0006GSD4e_4.1.2-P1_RPATCH.05-F-GPS-4R-1510281 11/03/2015 307","activated":"2017-12-14T17:05:40.418Z","flags":1,"native":1,"bps":4800,"parity":"N","stopbits":1,"cycle":1.00}]}
2017-12-14 12:05:41 1513271141.142584: {"class":"WATCH","enable":true,"json":false,"nmea":true,"raw":0,"scaled":false,"timing":false,"split24":false,"pps":false}
2017-12-14 12:05:41 1513271141.709234: $GPRMC,170542,V,18000.0000,N,00000.0000,W,0.0000,0.000,141217,,*14
2017-12-14 12:05:41 1513271141.709406: $GPGSA,A,1,,,,,,,,,,,,,,,,*32
2017-12-14 12:05:42 1513271142.665153: $GPRMC,170543,V,3946.9585,N,08404.9242,W,0.0000,0.000,141217,,*20
2017-12-14 12:05:42 1513271142.665337: $GPGSA,A,1,,,,,,,,,,,,,,,,*32
2017-12-14 12:05:43 1513271143.858601: $GPGSV,3,1,10,24,48,118,27,15,42,051,22,18,68,325,00,20,38,091,00*79
2017-12-14 12:05:43 1513271143.858759: $GPGSV,3,2,10,10,37,297,00,27,19,295,00,32,17,235,00,13,12,046,00*73
2017-12-14 12:05:43 1513271143.858827: $GPGSV,3,3,10,21,68,193,00,08,04,327,00*74
2017-12-14 12:05:43 1513271143.970972: $GPRMC,170544,V,3946.9585,N,08404.9242,W,0.0000,0.000,141217,,*27
2017-12-14 12:05:43 1513271143.971147: $GPGSA,A,1,24,15,,,,,,,,,,,,,,*30
2017-12-14 12:05:44 1513271144.226114: $GPRMC,170544,V,3946.9585,N,08404.9242,W,0.0000,0.000,141217,,*27
2017-12-14 12:05:44 1513271144.226294: $GPGSA,A,1,24,15,,,,,,,,,,,,,,*30
2017-12-14 12:05:44 1513271144.479993: $GPRMC,170544,V,3946.9585,N,08404.9242,W,0.0000,0.000,141217,,*27
2017-12-14 12:05:44 1513271144.480169: $GPGSA,A,1,24,15,,,,,,,,,,,,,,*30
2017-12-14 12:05:45 1513271145.245514: $GPGSV,3,1,10,24,48,118,26,15,42,051,23,10,37,297,18,18,68,325,16*7F
2017-12-14 12:05:45 1513271145.245693: $GPGSV,3,2,10,21,68,193,14,27,19,295,03,20,38,091,00,32,17,235,00*78
2017-12-14 12:05:45 1513271145.245758: $GPGSV,3,3,10,13,12,046,00,08,04,327,00*71
2017-12-14 12:05:45 1513271145.357834: $GPRMC,170545,V,3946.9585,N,08404.9242,W,0.0000,0.000,141217,,*26
2017-12-14 12:05:45 1513271145.357992: $GPGSA,A,1,24,15,10,18,21,,,,,,,,,,,*3B
2017-12-14 12:05:45 1513271145.611716: $GPRMC,170546,V,3946.9585,N,08404.9242,W,0.0000,0.000,141217,,*25
2017-12-14 12:05:45 1513271145.611874: $GPGSA,A,1,24,15,10,18,21,,,,,,,,,,,*3B
2017-12-14 12:05:46 1513271146.533195: $GPZDA,170547.39,14,12,2017,00,00*6E
2017-12-14 12:05:46 1513271146.533399: $GPGGA,170547,3946.9538,N,08404.9339,W,1,05,2.00,355.48,M,-33.324,M,,*77
2017-12-14 12:05:46 1513271146.533472: $GPRMC,170547,A,3946.9538,N,08404.9339,W,1.9465,251.148,141217,,*3C
2017-12-14 12:05:46 1513271146.533532: $GPGSA,A,3,24,15,10,18,21,,,,,,,,6.6,2.0,6.2*3D
2017-12-14 12:05:46 1513271146.533592: $GPGBS,170547,24.66,M,21.80,M,143.40,M*31
2017-12-14 12:05:48 1513271148.108969: $GPGSV,3,1,11,24,48,118,27,15,42,051,24,10,37,297,18,20,38,091,14*78
2017-12-14 12:05:48 1513271148.109148: $GPGSV,3,2,11,21,68,193,22,18,68,327,15,32,17,235,10,27,19,295,00*7A
2017-12-14 12:05:48 1513271148.109218: $GPGSV,3,3,11,13,12,046,00,08,04,327,00,138,38,213,00*71
2017-12-14 12:05:48 1513271148.222450: $GPZDA,170548.39,14,12,2017,00,00*61
2017-12-14 12:05:48 1513271148.222630: $GPGGA,170548,3946.9527,N,08404.9353,W,1,06,2.00,354.80,M,-33.324,M,,*7C
2017-12-14 12:05:48 1513271148.222699: $GPRMC,170548,A,3946.9527,N,08404.9353,W,0.8308,291.091,141217,,*34
2017-12-14 12:05:48 1513271148.222760: $GPGSA,A,3,24,15,10,20,21,18,,,,,,,6.6,2.0,6.2*3F
2017-12-14 12:05:48 1513271148.476233: $GPZDA,170548.60,14,12,2017,00,00*6D
2017-12-14 12:05:48 1513271148.476400: $GPGGA,170548,3946.9511,N,08404.9368,W,1,06,2.00,353.49,M,-33.324,M,,*73
2017-12-14 12:05:48 1513271148.476468: $GPRMC,170548,A,3946.9511,N,08404.9368,W,1.1824,309.173,141217,,*39
2017-12-14 12:05:48 1513271148.476528: $GPGSA,A,3,24,15,10,20,21,18,,,,,,,6.6,2.0,6.2*3F
2017-12-14 12:05:48 1513271148.904696: $GPZDA,170549.00,14,12,2017,00,00*6A
2017-12-14 12:05:48 1513271148.904942: $GPGGA,170549,3946.9523,N,08404.9374,W,1,06,2.00,352.52,M,-33.324,M,,*75
2017-12-14 12:05:48 1513271148.905011: $GPRMC,170549,A,3946.9523,N,08404.9374,W,1.5151,325.116,141217,,*36
2017-12-14 12:05:48 1513271148.905079: $GPGSA,A,3,24,15,10,20,21,18,,,,,,,6.6,2.0,6.2*3F
2017-12-14 12:05:49 1513271149.567140: $GPGSV,3,1,11,24,48,118,27,15,42,051,24,10,37,297,18,20,38,091,14*78
2017-12-14 12:05:49 1513271149.567326: $GPGSV,3,2,11,21,68,193,22,18,68,327,05,27,19,295,00,32,17,235,00*7A
2017-12-14 12:05:49 1513271149.567392: $GPGSV,3,3,11,13,12,046,00,08,04,327,00,138,38,213,00*71
2017-12-14 12:05:49 1513271149.680879: $GPZDA,170550.00,14,12,2017,00,00*62
2017-12-14 12:05:49 1513271149.680994: $GPGGA,170550,3946.9524,N,08404.9387,W,1,05,2.00,352.36,M,-33.324,M,,*77
2017-12-14 12:05:49 1513271149.681061: $GPRMC,170550,A,3946.9524,N,08404.9387,W,1.5420,314.053,141217,,*34
2017-12-14 12:05:49 1513271149.681124: $GPGSA,A,3,24,15,10,20,21,,,,,,,,6.6,2.0,6.2*36
2017-12-14 12:05:50 1513271150.233227: $GPZDA,170551.00,14,12,2017,00,00*63
2017-12-14 12:05:50 1513271150.233425: $GPGGA,170551,3946.9521,N,08404.9396,W,1,05,2.00,354.45,M,-33.324,M,,*71
2017-12-14 12:05:50 1513271150.233494: $GPRMC,170551,A,3946.9521,N,08404.9396,W,1.4256,303.893,141217,,*34
2017-12-14 12:05:50 1513271150.233556: $GPGSA,A,3,24,15,10,20,21,,,,,,,,6.6,2.0,6.2*36
2017-12-14 12:05:51 1513271151.233294: $GPZDA,170552.00,14,12,2017,00,00*60
2017-12-14 12:05:51 1513271151.238580: $GPGGA,170552,3946.9526,N,08404.9410,W,1,05,2.00,354.93,M,-33.324,M,,*77
2017-12-14 12:05:51 1513271151.238697: $GPRMC,170552,A,3946.9526,N,08404.9410,W,1.6630,314.636,141217,,*38
2017-12-14 12:05:51 1513271151.238760: $GPGSA,A,3,24,15,10,20,21,,,,,,,,6.6,2.0,6.2*36
2017-12-14 12:05:52 1513271152.569476: $GPGSV,3,1,11,24,48,118,27,15,42,051,24,10,37,297,17,20,38,091,14*77
2017-12-14 12:05:52 1513271152.569670: $GPGSV,3,2,11,21,68,193,22,18,68,327,14,27,19,295,14,32,17,235,00*7F
2017-12-14 12:05:52 1513271152.569738: $GPGSV,3,3,11,13,12,046,00,08,04,327,00,138,38,213,00*71
2017-12-14 12:05:52 1513271152.682929: $GPZDA,170553.00,14,12,2017,00,00*61
2017-12-14 12:05:52 1513271152.683113: $GPGGA,170553,3946.9528,N,08404.9418,W,1,07,2.00,357.66,M,-33.324,M,,*7B
2017-12-14 12:05:52 1513271152.683185: $GPRMC,170553,A,3946.9528,N,08404.9418,W,1.6172,310.294,141217,,*36
2017-12-14 12:05:52 1513271152.683246: $GPGSA,A,3,24,15,10,20,21,18,27,,,,,,6.6,2.0,6.2*3A
2017-12-14 12:05:53 1513271153.233736: $GPZDA,170554.00,14,12,2017,00,00*66
2017-12-14 12:05:53 1513271153.233907: $GPGGA,170554,3946.9529,N,08404.9426,W,1,07,2.00,358.99,M,-33.324,M,,*7F
2017-12-14 12:05:53 1513271153.233973: $GPRMC,170554,A,3946.9529,N,08404.9426,W,0.9977,327.677,141217,,*33
2017-12-14 12:05:53 1513271153.234035: $GPGSA,A,3,24,15,10,20,21,18,27,,,,,,6.6,2.0,6.2*3A
2017-12-14 12:05:54 1513271154.233875: $GPZDA,170555.00,14,12,2017,00,00*67
2017-12-14 12:05:54 1513271154.234041: $GPGGA,170555,3946.9525,N,08404.9426,W,1,07,2.00,358.35,M,-33.324,M,,*74
2017-12-14 12:05:54 1513271154.234110: $GPRMC,170555,A,3946.9525,N,08404.9426,W,0.5842,267.414,141217,,*37
2017-12-14 12:05:54 1513271154.234176: $GPGSA,A,3,24,15,10,20,21,18,27,,,,,,6.6,2.0,6.2*3A
2017-12-14 12:05:55 1513271155.566375: $GPGSV,3,1,11,24,48,118,26,15,42,051,00,10,37,297,17,20,38,091,14*70
2017-12-14 12:05:55 1513271155.566555: $GPGSV,3,2,11,21,68,193,22,18,68,327,14,27,19,295,00,32,17,235,00*7A
2017-12-14 12:05:55 1513271155.566621: $GPGSV,3,3,11,13,12,046,00,08,04,327,00,138,38,213,00*71
2017-12-14 12:05:55 1513271155.679961: $GPZDA,170556.00,14,12,2017,00,00*64
2017-12-14 12:05:55 1513271155.680097: $GPGGA,170556,3946.9524,N,08404.9431,W,1,05,3.60,355.46,M,-33.324,M,,*7C
2017-12-14 12:05:55 1513271155.680166: $GPRMC,170556,A,3946.9524,N,08404.9431,W,0.5616,264.027,141217,,*3B
2017-12-14 12:05:55 1513271155.680226: $GPGSA,A,3,24,10,20,21,18,,,,,,,,6.6,3.6,6.2*3C
2017-12-14 12:05:56 1513271156.235090: $GPZDA,170557.00,14,12,2017,00,00*65
2017-12-14 12:05:56 1513271156.236869: $GPGGA,170557,3946.9518,N,08404.9437,W,1,05,2.00,351.93,M,-33.324,M,,*7F
2017-12-14 12:05:56 1513271156.237012: $GPRMC,170557,A,3946.9518,N,08404.9437,W,0.9689,273.794,141217,,*30
2017-12-14 12:05:56 1513271156.237079: $GPGSA,A,3,24,10,20,21,18,,,,,,,,6.6,2.0,6.2*3B
2017-12-14 12:05:57 1513271157.234110: $GPZDA,170558.00,14,12,2017,00,00*6A
2017-12-14 12:05:57 1513271157.234300: $GPGGA,170558,3946.9523,N,08404.9444,W,1,05,2.00,352.49,M,-33.324,M,,*78
2017-12-14 12:05:57 1513271157.234371: $GPRMC,170558,A,3946.9523,N,08404.9444,W,0.5912,309.173,141217,,*31
2017-12-14 12:05:57 1513271157.234435: $GPGSA,A,3,24,10,20,21,18,,,,,,,,6.6,2.0,6.2*3B
2017-12-14 12:05:58 1513271158.569430: $GPGSV,3,1,11,24,48,118,26,15,42,051,24,10,37,297,17,20,38,091,12*70
2017-12-14 12:05:58 1513271158.569614: $GPGSV,3,2,11,21,68,193,22,18,68,327,13,27,19,295,00,32,17,235,00*7D
2017-12-14 12:05:58 1513271158.569685: $GPGSV,3,3,11,13,12,046,00,08,04,327,00,138,38,213,00*71
2017-12-14 12:05:58 1513271158.682906: $GPZDA,170559.00,14,12,2017,00,00*6B
2017-12-14 12:05:58 1513271158.683090: $GPGGA,170559,3946.9520,N,08404.9445,W,1,06,2.00,354.66,M,-33.324,M,,*73
2017-12-14 12:05:58 1513271158.683166: $GPRMC,170559,A,3946.9520,N,08404.9445,W,0.4137,224.855,141217,,*3F
2017-12-14 12:05:58 1513271158.683233: $GPGSA,A,3,24,15,10,20,21,18,,,,,,,6.6,2.0,6.2*3F
2017-12-14 12:05:59 1513271159.232864: $GPZDA,170600.00,14,12,2017,00,00*64
2017-12-14 12:05:59 1513271159.233064: $GPGGA,170600,3946.9524,N,08404.9445,W,1,06,2.00,355.30,M,-33.324,M,,*7A
2017-12-14 12:05:59 1513271159.233138: $GPRMC,170600,A,3946.9524,N,08404.9445,W,0.5516,128.233,141217,,*37
2017-12-14 12:05:59 1513271159.233203: $GPGSA,A,3,24,15,10,20,21,18,,,,,,,6.6,2.0,6.2*3F
2017-12-14 12:05:59 1513271159.233265: $GPGBS,170600,24.66,M,21.80,M,143.40,M*31
2017-12-14 12:06:00 1513271160.234216: $GPZDA,170601.00,14,12,2017,00,00*65
2017-12-14 12:06:00 1513271160.234374: $GPGGA,170601,3946.9516,N,08404.9445,W,1,06,2.00,354.02,M,-33.324,M,,*7A
2017-12-14 12:06:00 1513271160.234444: $GPRMC,170601,A,3946.9516,N,08404.9445,W,0.2758,128.233,141217,,*38
2017-12-14 12:06:00 1513271160.234510: $GPGSA,A,3,24,15,10,20,21,18,,,,,,,6.6,2.0,6.2*3F
2017-12-14 12:06:00 1513271160.234570: $GPGBS,170601,24.66,M,21.80,M,143.40,M*30
