2017-12-01 14:39:15 1512157155.026910: {"class":"VERSION","release":"3.16","rev":"3.16-4","proto_major":3,"proto_minor":11}
2017-12-01 14:39:15 1512157155.027321: {"class":"DEVICES","devices":[{"class":"DEVICE","path":"/dev/ttyUSB0","driver":"SiRF","subtype":"9\u0006GSD4e_4.1.2-P1_RPATCH.05-F-GPS-4R-1510281 11/03/2015 307","activated":"2017-12-01T19:39:14.551Z","flags":1,"native":1,"bps":4800,"parity":"N","stopbits":1,"cycle":1.00}]}
2017-12-01 14:39:15 1512157155.027447: {"class":"WATCH","enable":true,"json":false,"nmea":true,"raw":0,"scaled":false,"timing":false,"split24":false,"pps":false}
2017-12-01 14:39:15 1512157155.410465: $GPZDA,193916.00,01,12,2017,00,00*65
2017-12-01 14:39:15 1512157155.410642: $GPGGA,193916,3946.9588,N,08404.9857,W,2,12,1.00,295.75,M,-33.324,M,,*7F
2017-12-01 14:39:15 1512157155.410710: $GPRMC,193916,A,3946.9588,N,08404.9857,W,0.0000,0.000,011217,,*31
2017-12-01 14:39:15 1512157155.410773: $GPGSA,A,3,10,14,18,21,24,20,31,32,12,15,8,138,2.0,1.0,1.5*39
2017-12-01 14:39:16 1512157156.751010: $GPGSV,3,1,12,10,75,343,48,14,34,259,43,18,65,106,45,21,21,178,44*7A
2017-12-01 14:39:16 1512157156.751195: $GPGSV,3,2,12,24,40,052,47,20,03,121,21,31,06,204,36,32,51,274,44*7E
2017-12-01 14:39:16 1512157156.751264: $GPGSV,3,3,12,12,13,102,36,15,06,070,08,25,08,138,01,138,38,213,46*47
2017-12-01 14:39:16 1512157156.864534: $GPZDA,193917.00,01,12,2017,00,00*64
2017-12-01 14:39:16 1512157156.864721: $GPGGA,193917,3946.9588,N,08404.9857,W,2,11,1.20,295.75,M,-33.324,M,,*7F
2017-12-01 14:39:16 1512157156.864794: $GPRMC,193917,A,3946.9588,N,08404.9857,W,0.0000,0.000,011217,,*30
2017-12-01 14:39:16 1512157156.864859: $GPGSA,A,3,10,14,18,21,24,20,31,32,12,15,138,,2.0,1.2,1.5*03
2017-12-01 14:39:17 1512157157.489672: $GPZDA,193918.00,01,12,2017,00,00*6B
2017-12-01 14:39:17 1512157157.489862: $GPGGA,193918,3946.9588,N,08404.9857,W,2,11,1.00,295.75,M,-33.324,M,,*72
2017-12-01 14:39:17 1512157157.489929: $GPRMC,193918,A,3946.9588,N,08404.9857,W,0.0000,0.000,011217,,*3F
2017-12-01 14:39:17 1512157157.489992: $GPGSA,A,3,10,14,18,21,24,20,31,32,12,15,138,,2.0,1.0,1.5*01
2017-12-01 14:39:18 1512157158.406930: $GPZDA,193919.00,01,12,2017,00,00*6A
2017-12-01 14:39:18 1512157158.407115: $GPGGA,193919,3946.9588,N,08404.9857,W,2,11,1.00,295.75,M,-33.324,M,,*73
2017-12-01 14:39:18 1512157158.407183: $GPRMC,193919,A,3946.9588,N,08404.9857,W,0.0000,0.000,011217,,*3E
2017-12-01 14:39:18 1512157158.407247: $GPGSA,A,3,10,14,18,21,24,20,31,32,12,15,138,,2.0,1.0,1.5*01
2017-12-01 14:39:19 1512157159.746517: $GPGSV,3,1,12,10,75,343,48,14,34,259,43,18,65,106,45,21,21,178,44*7A
2017-12-01 14:39:19 1512157159.746717: $GPGSV,3,2,12,24,40,052,47,20,03,121,20,31,06,204,36,32,51,274,44*7F
2017-12-01 14:39:19 1512157159.746784: $GPGSV,3,3,12,12,13,102,36,27,02,255,26,08,03,288,31,138,38,213,46*44
2017-12-01 14:39:19 1512157159.859848: $GPZDA,193920.00,01,12,2017,00,00*60
2017-12-01 14:39:19 1512157159.862679: $GPGGA,193920,3946.9588,N,08404.9857,W,2,12,1.20,295.75,M,-33.324,M,,*78
2017-12-01 14:39:19 1512157159.862806: $GPRMC,193920,A,3946.9588,N,08404.9857,W,0.0000,0.000,011217,,*34
2017-12-01 14:39:19 1512157159.862871: $GPGSA,A,3,10,14,18,21,24,20,31,32,12,27,8,138,2.0,1.2,1.5*3A
2017-12-01 14:39:20 1512157160.416070: $GPZDA,193921.00,01,12,2017,00,00*61
2017-12-01 14:39:20 1512157160.416243: $GPGGA,193921,3946.9588,N,08404.9857,W,2,12,1.20,295.75,M,-33.324,M,,*79
2017-12-01 14:39:20 1512157160.416308: $GPRMC,193921,A,3946.9588,N,08404.9857,W,0.0000,0.000,011217,,*35
2017-12-01 14:39:20 1512157160.416369: $GPGSA,A,3,10,14,18,21,24,20,31,32,12,27,8,138,2.0,1.2,1.5*3A
2017-12-01 14:39:21 1512157161.411950: $GPZDA,193922.00,01,12,2017,00,00*62
2017-12-01 14:39:21 1512157161.412124: $GPGGA,193922,3946.9588,N,08404.9857,W,2,12,1.20,295.75,M,-33.324,M,,*7A
2017-12-01 14:39:21 1512157161.412192: $GPRMC,193922,A,3946.9588,N,08404.9857,W,0.0000,0.000,011217,,*36
2017-12-01 14:39:21 1512157161.412254: $GPGSA,A,3,10,14,18,21,24,20,31,32,12,27,8,138,2.0,1.2,1.5*3A
2017-12-01 14:39:22 1512157162.745617: $GPGSV,3,1,12,10,75,343,47,14,34,259,43,18,65,106,45,21,21,178,44*75
2017-12-01 14:39:22 1512157162.745860: $GPGSV,3,2,12,24,40,052,47,20,03,121,20,31,06,204,35,32,51,274,44*7C
2017-12-01 14:39:22 1512157162.745930: $GPGSV,3,3,12,12,13,102,36,27,02,255,26,08,03,288,31,138,38,213,46*44
2017-12-01 14:39:22 1512157162.859271: $GPZDA,193923.00,01,12,2017,00,00*63
2017-12-01 14:39:22 1512157162.859440: $GPGGA,193923,3946.9588,N,08404.9857,W,2,12,1.20,295.75,M,-33.324,M,,*7B
2017-12-01 14:39:22 1512157162.859507: $GPRMC,193923,A,3946.9588,N,08404.9857,W,0.0000,0.000,011217,,*37
2017-12-01 14:39:22 1512157162.859567: $GPGSA,A,3,10,14,18,21,24,20,31,32,12,27,8,138,2.0,1.2,1.5*3A
2017-12-01 14:39:23 1512157163.410197: $GPZDA,193924.00,01,12,2017,00,00*64
2017-12-01 14:39:23 1512157163.410366: $GPGGA,193924,3946.9585,N,08404.9858,W,2,12,1.20,296.51,M,-33.324,M,,*7B
2017-12-01 14:39:23 1512157163.410432: $GPRMC,193924,A,3946.9585,N,08404.9858,W,0.0000,0.000,011217,,*32
2017-12-01 14:39:23 1512157163.410494: $GPGSA,A,3,10,14,18,21,24,20,31,32,12,27,8,138,2.0,1.2,1.5*3A
2017-12-01 14:39:24 1512157164.412335: $GPZDA,193925.00,01,12,2017,00,00*65
2017-12-01 14:39:24 1512157164.412503: $GPGGA,193925,3946.9585,N,08404.9858,W,2,12,1.20,296.51,M,-33.324,M,,*7A
2017-12-01 14:39:24 1512157164.412568: $GPRMC,193925,A,3946.9585,N,08404.9858,W,0.0000,0.000,011217,,*33
2017-12-01 14:39:24 1512157164.412629: $GPGSA,A,3,10,14,18,21,24,20,31,32,12,27,8,138,2.0,1.2,1.5*3A
2017-12-01 14:39:25 1512157165.746494: $GPGSV,3,1,12,10,75,343,47,14,34,259,43,18,65,106,45,21,21,178,44*75
2017-12-01 14:39:25 1512157165.746674: $GPGSV,3,2,12,24,40,052,47,20,03,121,20,31,06,204,35,32,51,274,44*7C
2017-12-01 14:39:25 1512157165.746741: $GPGSV,3,3,12,12,13,102,36,27,02,255,20,08,03,288,30,138,38,213,47*42
2017-12-01 14:39:25 1512157165.860123: $GPZDA,193926.00,01,12,2017,00,00*66
2017-12-01 14:39:25 1512157165.860291: $GPGGA,193926,3946.9585,N,08404.9858,W,2,12,1.20,296.51,M,-33.324,M,,*79
2017-12-01 14:39:25 1512157165.860357: $GPRMC,193926,A,3946.9585,N,08404.9858,W,0.0000,0.000,011217,,*30
2017-12-01 14:39:25 1512157165.860418: $GPGSA,A,3,10,14,18,21,24,20,31,32,12,27,8,138,2.0,1.2,1.5*3A
2017-12-01 14:39:26 1512157166.404764: $GPZDA,193927.00,01,12,2017,00,00*67
2017-12-01 14:39:26 1512157166.404934: $GPGGA,193927,3946.9585,N,08404.9858,W,2,12,1.20,296.51,M,-33.324,M,,*78
2017-12-01 14:39:26 1512157166.405002: $GPRMC,193927,A,3946.9585,N,08404.9858,W,0.0000,0.000,011217,,*31
2017-12-01 14:39:26 1512157166.405063: $GPGSA,A,3,10,14,18,21,24,20,31,32,12,27,8,138,2.0,1.2,1.5*3A
2017-12-01 14:39:27 1512157167.412689: $GPZDA,193928.00,01,12,2017,00,00*68
2017-12-01 14:39:27 1512157167.412860: $GPGGA,193928,3946.9585,N,08404.9858,W,2,12,1.20,296.51,M,-33.324,M,,*77
2017-12-01 14:39:27 1512157167.412927: $GPRMC,193928,A,3946.9585,N,08404.9858,W,0.0000,0.000,011217,,*3E
2017-12-01 14:39:27 1512157167.413012: $GPGSA,A,3,10,14,18,21,24,20,31,32,12,27,8,138,2.0,1.2,1.5*3A
2017-12-01 14:39:28 1512157168.746808: $GPGSV,3,1,12,10,75,343,48,14,34,259,43,18,65,106,45,21,21,178,43*7D
2017-12-01 14:39:28 1512157168.747009: $GPGSV,3,2,12,24,40,052,47,11,01,325,14,31,06,204,36,32,51,274,44*7E
2017-12-01 14:39:28 1512157168.747093: $GPGSV,3,3,12,12,13,102,37,27,02,255,20,08,03,288,25,138,38,213,46*46
2017-12-01 14:39:28 1512157168.860153: $GPZDA,193929.00,01,12,2017,00,00*69
2017-12-01 14:39:28 1512157168.860308: $GPGGA,193929,3946.9585,N,08404.9858,W,2,12,1.20,296.51,M,-33.324,M,,*76
2017-12-01 14:39:28 1512157168.860374: $GPRMC,193929,A,3946.9585,N,08404.9858,W,0.0000,0.000,011217,,*3F
2017-12-01 14:39:28 1512157168.860435: $GPGSA,A,3,10,14,18,21,24,11,31,32,12,27,8,138,2.0,1.2,1.5*38
2017-12-01 14:39:29 1512157169.421107: $GPZDA,193930.00,01,12,2017,00,00*61
2017-12-01 14:39:29 1512157169.421279: $GPGGA,193930,3946.9585,N,08404.9858,W,2,12,1.20,296.51,M,-33.324,M,,*7E
2017-12-01 14:39:29 1512157169.421400: $GPRMC,193930,A,3946.9585,N,08404.9858,W,0.0000,0.000,011217,,*37
2017-12-01 14:39:29 1512157169.421473: $GPGSA,A,3,10,14,18,21,24,11,31,32,12,27,8,138,2.0,1.2,1.5*38
2017-12-01 14:39:30 1512157170.449546: $GPZDA,193931.00,01,12,2017,00,00*60
2017-12-01 14:39:30 1512157170.449724: $GPGGA,193931,3946.9585,N,08404.9858,W,2,12,1.20,296.51,M,-33.324,M,,*7F
2017-12-01 14:39:30 1512157170.449792: $GPRMC,193931,A,3946.9585,N,08404.9858,W,0.0000,0.000,011217,,*36
2017-12-01 14:39:30 1512157170.449852: $GPGSA,A,3,10,14,18,21,24,11,31,32,12,27,8,138,2.0,1.2,1.5*38
2017-12-01 14:39:31 1512157171.785219: $GPGSV,3,1,12,10,75,343,48,14,34,259,43,18,65,106,45,21,21,178,44*7A
2017-12-01 14:39:31 1512157171.785394: $GPGSV,3,2,12,24,40,052,48,20,03,121,22,31,06,204,36,32,51,274,44*72
2017-12-01 14:39:31 1512157171.785461: $GPGSV,3,3,12,12,13,102,37,15,06,070,09,08,03,288,28,138,38,213,47*41
2017-12-01 14:39:31 1512157171.898987: $GPZDA,193932.00,01,12,2017,00,00*63
2017-12-01 14:39:31 1512157171.899156: $GPGGA,193932,3946.9585,N,08404.9858,W,2,11,1.20,296.51,M,-33.324,M,,*7F
2017-12-01 14:39:31 1512157171.899221: $GPRMC,193932,A,3946.9585,N,08404.9858,W,0.0000,0.000,011217,,*35
2017-12-01 14:39:31 1512157171.899283: $GPGSA,A,3,10,14,18,21,24,20,31,32,12,8,138,,2.0,1.2,1.5*3F
2017-12-01 14:39:32 1512157172.524259: $GPZDA,193933.00,01,12,2017,00,00*62
2017-12-01 14:39:32 1512157172.524428: $GPGGA,193933,3946.9585,N,08404.9858,W,2,11,1.20,296.51,M,-33.324,M,,*7E
2017-12-01 14:39:32 1512157172.524495: $GPRMC,193933,A,3946.9585,N,08404.9858,W,0.0000,0.000,011217,,*34
2017-12-01 14:39:32 1512157172.524557: $GPGSA,A,3,10,14,18,21,24,20,31,32,12,8,138,,2.0,1.2,1.5*3F
2017-12-01 14:39:33 1512157173.449018: $GPZDA,193934.00,01,12,2017,00,00*65
2017-12-01 14:39:33 1512157173.449188: $GPGGA,193934,3946.9585,N,08404.9858,W,2,11,1.00,296.51,M,-33.324,M,,*7B
2017-12-01 14:39:33 1512157173.449255: $GPRMC,193934,A,3946.9585,N,08404.9858,W,0.0000,0.000,011217,,*33
2017-12-01 14:39:33 1512157173.449317: $GPGSA,A,3,10,14,18,21,24,20,31,32,12,8,138,,2.0,1.0,1.5*3D
2017-12-01 14:39:34 1512157174.745671: $GPGSV,3,1,12,10,75,343,47,14,34,259,43,18,65,106,45,21,21,178,44*75
2017-12-01 14:39:34 1512157174.745950: $GPGSV,3,2,12,24,40,052,48,20,03,121,23,31,06,204,36,32,51,274,44*73
2017-12-01 14:39:34 1512157174.746044: $GPGSV,3,3,12,12,13,102,37,15,06,070,16,08,03,288,29,138,38,213,47*4E
2017-12-01 14:39:34 1512157174.858918: $GPZDA,193935.00,01,12,2017,00,00*64
2017-12-01 14:39:34 1512157174.859104: $GPGGA,193935,3946.9585,N,08404.9858,W,2,12,1.00,296.51,M,-33.324,M,,*79
2017-12-01 14:39:34 1512157174.859172: $GPRMC,193935,A,3946.9585,N,08404.9858,W,0.0000,0.000,011217,,*32
2017-12-01 14:39:34 1512157174.859234: $GPGSA,A,3,10,14,18,21,24,20,31,32,12,15,8,138,2.0,1.0,1.5*39
2017-12-01 14:39:35 1512157175.447319: $GPZDA,193936.00,01,12,2017,00,00*67
2017-12-01 14:39:35 1512157175.447490: $GPGGA,193936,3946.9585,N,08404.9858,W,2,12,1.00,296.51,M,-33.324,M,,*7A
2017-12-01 14:39:35 1512157175.447555: $GPRMC,193936,A,3946.9585,N,08404.9858,W,0.0000,0.000,011217,,*31
2017-12-01 14:39:35 1512157175.447616: $GPGSA,A,3,10,14,18,21,24,20,31,32,12,15,8,138,2.0,1.0,1.5*39
2017-12-01 14:39:36 1512157176.412060: $GPZDA,193937.00,01,12,2017,00,00*66
2017-12-01 14:39:36 1512157176.412234: $GPGGA,193937,3946.9585,N,08404.9858,W,2,12,1.00,296.51,M,-33.324,M,,*7B
2017-12-01 14:39:36 1512157176.412301: $GPRMC,193937,A,3946.9585,N,08404.9858,W,0.0000,0.000,011217,,*30
2017-12-01 14:39:36 1512157176.412363: $GPGSA,A,3,10,14,18,21,24,20,31,32,12,15,8,138,2.0,1.0,1.5*39
2017-12-01 14:39:37 1512157177.787226: $GPGSV,3,1,12,10,75,343,46,14,34,259,43,18,65,106,45,21,21,178,44*74
2017-12-01 14:39:37 1512157177.787410: $GPGSV,3,2,12,24,40,052,48,20,03,121,06,31,06,204,36,32,51,274,43*73
2017-12-01 14:39:37 1512157177.787479: $GPGSV,3,3,12,12,13,102,37,15,06,070,14,08,03,288,29,138,38,213,47*4C
2017-12-01 14:39:37 1512157177.900714: $GPZDA,193938.00,01,12,2017,00,00*69
2017-12-01 14:39:37 1512157177.900900: $GPGGA,193938,3946.9585,N,08404.9858,W,2,11,1.00,296.51,M,-33.324,M,,*77
2017-12-01 14:39:37 1512157177.900972: $GPRMC,193938,A,3946.9585,N,08404.9858,W,0.0000,0.000,011217,,*3F
2017-12-01 14:39:37 1512157177.901033: $GPGSA,A,3,10,14,18,21,24,31,32,12,15,8,138,,2.0,1.0,1.5*3B
2017-12-01 14:39:38 1512157178.409160: $GPZDA,193939.00,01,12,2017,00,00*68
2017-12-01 14:39:38 1512157178.409363: $GPGGA,193939,3946.9585,N,08404.9858,W,2,11,1.00,296.51,M,-33.324,M,,*76
2017-12-01 14:39:38 1512157178.409432: $GPRMC,193939,A,3946.9585,N,08404.9858,W,0.0000,0.000,011217,,*3E
2017-12-01 14:39:38 1512157178.409494: $GPGSA,A,3,10,14,18,21,24,31,32,12,15,8,138,,2.0,1.0,1.5*3B
2017-12-01 14:39:39 1512157179.409827: $GPZDA,193940.00,01,12,2017,00,00*66
2017-12-01 14:39:39 1512157179.410002: $GPGGA,193940,3946.9585,N,08404.9858,W,2,11,1.00,296.51,M,-33.324,M,,*78
2017-12-01 14:39:39 1512157179.410069: $GPRMC,193940,A,3946.9585,N,08404.9858,W,0.0000,0.000,011217,,*30
2017-12-01 14:39:39 1512157179.410129: $GPGSA,A,3,10,14,18,21,24,31,32,12,15,8,138,,2.0,1.0,1.5*3B
