2017-11-16 14:08:36 1510859316.931746: {"class":"VERSION","release":"3.17","rev":"3.17","proto_major":3,"proto_minor":12}
2017-11-16 14:08:36 1510859316.933252: {"class":"DEVICES","devices":[{"class":"DEVICE","path":"/dev/ttyUSB0","driver":"SiRF","subtype":"9\u0006GSD4e_4.1.2-P1_RPATCH.05-F-GPS-4R-1510281 11/03/2015 307","activated":"2017-11-16T19:08:36.530Z","flags":1,"native":1,"bps":4800,"parity":"N","stopbits":1,"cycle":1.00}]}
2017-11-16 14:08:36 1510859316.933709: {"class":"WATCH","enable":true,"json":false,"nmea":true,"raw":0,"scaled":false,"timing":false,"split24":false,"pps":false}
2017-11-16 14:08:36 1510859316.980479: $GPGSV,3,1,12,10,40,300,42,13,09,048,32,15,39,052,50,18,70,331,48*71
2017-11-16 14:08:36 1510859316.980707: $GPGSV,3,2,12,20,34,094,47,21,66,192,46,24,50,114,48,32,19,237,45*7E
2017-11-16 14:08:36 1510859316.980772: $GPGSV,3,3,12,08,05,324,28,27,19,291,36,14,03,231,00,138,38,213,44*4D
2017-11-16 14:08:37 1510859317.093673: $GPZDA,190835.00,16,11,2017,00,00*63
2017-11-16 14:08:37 1510859317.093836: $GPGGA,190835,3946.9569,N,08404.9850,W,2,11,0.80,304.71,M,-33.324,M,,*73
2017-11-16 14:08:37 1510859317.093896: $GPRMC,190835,A,3946.9569,N,08404.9850,W,0.0000,0.000,161117,,*3F
2017-11-16 14:08:37 1510859317.093952: $GPGSA,A,3,10,13,15,18,20,21,24,32,8,27,138,,1.6,0.8,1.3*30
2017-11-16 14:08:37 1510859317.544562: $GPZDA,190836.00,16,11,2017,00,00*60
2017-11-16 14:08:37 1510859317.544711: $GPGGA,190836,3946.9569,N,08404.9850,W,2,11,0.80,304.71,M,-33.324,M,,*70
2017-11-16 14:08:37 1510859317.544772: $GPRMC,190836,A,3946.9569,N,08404.9850,W,0.0000,0.000,161117,,*3C
2017-11-16 14:08:37 1510859317.544828: $GPGSA,A,3,10,13,15,18,20,21,24,32,8,27,138,,1.6,0.8,1.3*30
2017-11-16 14:08:38 1510859318.531687: $GPZDA,190837.00,16,11,2017,00,00*61
2017-11-16 14:08:38 1510859318.531854: $GPGGA,190837,3946.9569,N,08404.9850,W,2,11,0.80,304.71,M,-33.324,M,,*71
2017-11-16 14:08:38 1510859318.531916: $GPRMC,190837,A,3946.9569,N,08404.9850,W,0.0000,0.000,161117,,*3D
2017-11-16 14:08:38 1510859318.531973: $GPGSA,A,3,10,13,15,18,20,21,24,32,8,27,138,,1.6,0.8,1.3*30
2017-11-16 14:08:39 1510859319.869539: $GPGSV,3,1,12,10,40,300,43,13,09,048,32,15,39,052,50,18,70,331,48*70
2017-11-16 14:08:40 1510859320.508706: $GPGSV,3,2,12,20,34,094,47,21,66,192,46,24,50,114,48,32,19,237,45*7E
2017-11-16 14:08:40 1510859320.508861: $GPGSV,3,3,12,08,05,324,28,27,19,291,36,14,03,231,00,138,38,213,45*4C
2017-11-16 14:08:40 1510859320.508953: $GPZDA,190838.00,16,11,2017,00,00*6E
2017-11-16 14:08:40 1510859320.509005: $GPGGA,190838,3946.9569,N,08404.9850,W,2,11,0.80,304.71,M,-33.324,M,,*7E
2017-11-16 14:08:40 1510859320.509080: $GPRMC,190838,A,3946.9569,N,08404.9850,W,0.0000,0.000,161117,,*32
2017-11-16 14:08:40 1510859320.509137: $GPGSA,A,3,10,13,15,18,20,21,24,32,8,27,138,,1.6,0.8,1.3*30
2017-11-16 14:08:40 1510859320.534007: $GPZDA,190839.00,16,11,2017,00,00*6F
2017-11-16 14:08:40 1510859320.534153: $GPGGA,190839,3946.9569,N,08404.9850,W,2,11,0.80,304.71,M,-33.324,M,,*7F
2017-11-16 14:08:40 1510859320.534230: $GPRMC,190839,A,3946.9569,N,08404.9850,W,0.0000,0.000,161117,,*33
2017-11-16 14:08:40 1510859320.534287: $GPGSA,A,3,10,13,15,18,20,21,24,32,8,27,138,,1.6,0.8,1.3*30
2017-11-16 14:08:41 1510859321.533644: $GPZDA,190840.00,16,11,2017,00,00*61
2017-11-16 14:08:41 1510859321.533806: $GPGGA,190840,3946.9569,N,08404.9850,W,2,11,0.80,304.71,M,-33.324,M,,*71
2017-11-16 14:08:41 1510859321.533866: $GPRMC,190840,A,3946.9569,N,08404.9850,W,0.0000,0.000,161117,,*3D
2017-11-16 14:08:41 1510859321.533921: $GPGSA,A,3,10,13,15,18,20,21,24,32,8,27,138,,1.6,0.8,1.3*30
2017-11-16 14:08:42 1510859322.878185: $GPGSV,3,1,12,10,40,300,44,13,09,048,31,15,39,052,50,18,70,331,48*74
2017-11-16 14:08:42 1510859322.878371: $GPGSV,3,2,12,20,34,094,47,21,66,192,46,24,50,114,48,32,19,237,45*7E
2017-11-16 14:08:42 1510859322.878433: $GPGSV,3,3,12,08,05,324,28,27,19,291,36,14,03,231,05,138,38,213,44*48
2017-11-16 14:08:42 1510859322.991689: $GPZDA,190841.00,16,11,2017,00,00*60
2017-11-16 14:08:42 1510859322.991849: $GPGGA,190841,3946.9569,N,08404.9850,W,2,11,0.80,304.71,M,-33.324,M,,*70
2017-11-16 14:08:42 1510859322.991959: $GPRMC,190841,A,3946.9569,N,08404.9850,W,0.0000,0.000,161117,,*3C
2017-11-16 14:08:42 1510859322.992043: $GPGSA,A,3,10,13,15,18,20,21,24,32,8,27,138,,1.6,0.8,1.3*30
2017-11-16 14:08:43 1510859323.533774: $GPZDA,190842.00,16,11,2017,00,00*63
2017-11-16 14:08:43 1510859323.533932: $GPGGA,190842,3946.9569,N,08404.9850,W,2,11,0.80,304.71,M,-33.324,M,,*73
2017-11-16 14:08:43 1510859323.533993: $GPRMC,190842,A,3946.9569,N,08404.9850,W,0.0000,0.000,161117,,*3F
2017-11-16 14:08:43 1510859323.534070: $GPGSA,A,3,10,13,15,18,20,21,24,32,8,27,138,,1.6,0.8,1.3*30
2017-11-16 14:08:44 1510859324.527716: $GPZDA,190843.00,16,11,2017,00,00*62
2017-11-16 14:08:44 1510859324.527880: $GPGGA,190843,3946.9569,N,08404.9850,W,2,11,0.80,304.71,M,-33.324,M,,*72
2017-11-16 14:08:44 1510859324.527941: $GPRMC,190843,A,3946.9569,N,08404.9850,W,0.0000,0.000,161117,,*3E
2017-11-16 14:08:44 1510859324.527997: $GPGSA,A,3,10,13,15,18,20,21,24,32,8,27,138,,1.6,0.8,1.3*30
2017-11-16 14:08:45 1510859325.869520: $GPGSV,3,1,12,10,40,300,44,13,09,048,31,15,39,052,50,18,70,331,48*74
2017-11-16 14:08:45 1510859325.869693: $GPGSV,3,2,12,20,34,094,47,21,66,192,46,24,50,114,48,32,19,237,45*7E
2017-11-16 14:08:45 1510859325.869754: $GPGSV,3,3,12,08,05,324,34,27,19,291,36,14,03,231,00,138,38,213,43*47
2017-11-16 14:08:45 1510859325.983076: $GPZDA,190844.00,16,11,2017,00,00*65
2017-11-16 14:08:45 1510859325.983238: $GPGGA,190844,3946.9569,N,08404.9850,W,2,11,0.80,304.71,M,-33.324,M,,*75
2017-11-16 14:08:45 1510859325.983299: $GPRMC,190844,A,3946.9569,N,08404.9850,W,0.0000,0.000,161117,,*39
2017-11-16 14:08:45 1510859325.983356: $GPGSA,A,3,10,13,15,18,20,21,24,32,8,27,138,,1.6,0.8,1.3*30
2017-11-16 14:08:46 1510859326.533928: $GPZDA,190845.00,16,11,2017,00,00*64
2017-11-16 14:08:46 1510859326.534094: $GPGGA,190845,3946.9569,N,08404.9850,W,2,11,0.80,304.71,M,-33.324,M,,*74
2017-11-16 14:08:46 1510859326.534156: $GPRMC,190845,A,3946.9569,N,08404.9850,W,0.0000,0.000,161117,,*38
2017-11-16 14:08:46 1510859326.534212: $GPGSA,A,3,10,13,15,18,20,21,24,32,8,27,138,,1.6,0.8,1.3*30
