2017-12-29 11:46:24 1514565984.347437: {"class":"VERSION","release":"3.16","rev":"3.16-4","proto_major":3,"proto_minor":11}
2017-12-29 11:46:24 1514565984.347810: {"class":"DEVICES","devices":[{"class":"DEVICE","path":"/dev/ttyUSB0","driver":"SiRF","subtype":"9\u0006GSD4e_4.1.2-P1_RPATCH.05-F-GPS-4R-1510281 11/03/2015 307","activated":"2017-12-29T16:46:24.241Z","flags":1,"native":1,"bps":4800,"parity":"N","stopbits":1,"cycle":1.00}]}
2017-12-29 11:46:24 1514565984.347932: {"class":"WATCH","enable":true,"json":false,"nmea":true,"raw":0,"scaled":false,"timing":false,"split24":false,"pps":false}
2017-12-29 11:46:24 1514565984.354692: $GPZDA,164625.00,29,12,2017,00,00*68
2017-12-29 11:46:24 1514565984.354812: $GPGGA,164625,3946.9600,N,08404.9911,W,2,11,0.80,305.67,M,-33.324,M,,*79
2017-12-29 11:46:24 1514565984.354875: $GPRMC,164625,A,3946.9600,N,08404.9911,W,0.0000,0.000,291217,,*3C
2017-12-29 11:46:24 1514565984.354936: $GPGSA,A,3,8,10,14,15,18,20,21,24,32,27,138,,1.7,0.8,1.3*36
2017-12-29 11:46:25 1514565985.353862: $GPZDA,164626.00,29,12,2017,00,00*6B
2017-12-29 11:46:25 1514565985.354062: $GPGGA,164626,3946.9600,N,08404.9911,W,2,11,0.80,305.67,M,-33.324,M,,*7A
2017-12-29 11:46:25 1514565985.354133: $GPRMC,164626,A,3946.9600,N,08404.9911,W,0.0000,0.000,291217,,*3F
2017-12-29 11:46:25 1514565985.354198: $GPGSA,A,3,8,10,14,15,18,20,21,24,32,27,138,,1.7,0.8,1.3*36
2017-12-29 11:46:26 1514565986.689396: $GPGSV,3,1,11,08,08,312,35,10,52,312,46,14,13,240,21,15,26,057,45*78
2017-12-29 11:46:26 1514565986.689574: $GPGSV,3,2,11,18,77,024,45,20,24,105,49,21,49,183,47,24,53,087,51*77
2017-12-29 11:46:26 1514565986.689640: $GPGSV,3,3,11,32,32,247,36,27,16,276,30,138,38,213,44*7E
2017-12-29 11:46:26 1514565986.802577: $GPZDA,164627.00,29,12,2017,00,00*6A
2017-12-29 11:46:26 1514565986.802752: $GPGGA,164627,3946.9600,N,08404.9911,W,2,11,0.80,305.67,M,-33.324,M,,*7B
2017-12-29 11:46:26 1514565986.802820: $GPRMC,164627,A,3946.9600,N,08404.9911,W,0.0000,0.000,291217,,*3E
2017-12-29 11:46:26 1514565986.802883: $GPGSA,A,3,8,10,14,15,18,20,21,24,32,27,138,,1.7,0.8,1.3*36
2017-12-29 11:46:27 1514565987.353446: $GPZDA,164628.00,29,12,2017,00,00*65
2017-12-29 11:46:27 1514565987.353624: $GPGGA,164628,3946.9600,N,08404.9911,W,2,11,0.80,305.67,M,-33.324,M,,*74
2017-12-29 11:46:27 1514565987.353690: $GPRMC,164628,A,3946.9600,N,08404.9911,W,0.0000,0.000,291217,,*31
2017-12-29 11:46:27 1514565987.353752: $GPGSA,A,3,8,10,14,15,18,20,21,24,32,27,138,,1.7,0.8,1.3*36
2017-12-29 11:46:28 1514565988.349311: $GPZDA,164629.00,29,12,2017,00,00*64
2017-12-29 11:46:28 1514565988.349494: $GPGGA,164629,3946.9600,N,08404.9911,W,2,11,1.00,305.67,M,-33.324,M,,*7C
2017-12-29 11:46:28 1514565988.349560: $GPRMC,164629,A,3946.9600,N,08404.9911,W,0.0000,0.000,291217,,*30
2017-12-29 11:46:28 1514565988.349622: $GPGSA,A,3,8,10,14,15,18,20,21,24,32,27,138,,1.7,1.0,1.3*3F
2017-12-29 11:46:29 1514565989.690180: $GPGSV,3,1,11,08,08,312,36,10,52,312,45,14,13,240,16,15,26,057,45*7C
2017-12-29 11:46:29 1514565989.690587: $GPGSV,3,2,11,18,77,024,45,20,24,105,49,21,49,183,47,24,53,087,51*77
2017-12-29 11:46:29 1514565989.693005: $GPGSV,3,3,11,32,32,247,37,27,16,276,30,138,38,213,45*7E
2017-12-29 11:46:29 1514565989.803568: $GPZDA,164630.00,29,12,2017,00,00*6C
2017-12-29 11:46:29 1514565989.803742: $GPGGA,164630,3946.9600,N,08404.9911,W,2,11,0.80,305.67,M,-33.324,M,,*7D
2017-12-29 11:46:29 1514565989.803809: $GPRMC,164630,A,3946.9600,N,08404.9911,W,0.0000,0.000,291217,,*38
2017-12-29 11:46:29 1514565989.803869: $GPGSA,A,3,8,10,14,15,18,20,21,24,32,27,138,,1.7,0.8,1.3*36
2017-12-29 11:46:30 1514565990.428832: $GPZDA,164631.00,29,12,2017,00,00*6D
2017-12-29 11:46:30 1514565990.429000: $GPGGA,164631,3946.9600,N,08404.9911,W,2,11,0.80,305.67,M,-33.324,M,,*7C
2017-12-29 11:46:30 1514565990.429065: $GPRMC,164631,A,3946.9600,N,08404.9911,W,0.0000,0.000,291217,,*39
2017-12-29 11:46:30 1514565990.429146: $GPGSA,A,3,8,10,14,15,18,20,21,24,32,27,138,,1.7,0.8,1.3*36
2017-12-29 11:46:31 1514565991.354721: $GPZDA,164632.00,29,12,2017,00,00*6E
2017-12-29 11:46:31 1514565991.354892: $GPGGA,164632,3946.9600,N,08404.9904,W,2,11,0.80,305.74,M,-33.324,M,,*79
2017-12-29 11:46:31 1514565991.355013: $GPRMC,164632,A,3946.9600,N,08404.9904,W,0.0000,0.000,291217,,*3E
2017-12-29 11:46:31 1514565991.355075: $GPGSA,A,3,8,10,14,15,18,20,21,24,32,27,138,,1.7,0.8,1.3*36
2017-12-29 11:46:32 1514565992.689188: $GPGSV,3,1,11,08,08,312,36,10,52,312,46,14,13,240,18,15,26,057,46*72
2017-12-29 11:46:32 1514565992.689380: $GPGSV,3,2,11,18,77,024,45,20,24,105,49,21,49,183,47,24,53,087,51*77
2017-12-29 11:46:32 1514565992.689446: $GPGSV,3,3,11,32,32,247,38,27,16,276,30,138,38,213,45*71
2017-12-29 11:46:32 1514565992.802589: $GPZDA,164633.00,29,12,2017,00,00*6F
2017-12-29 11:46:32 1514565992.802757: $GPGGA,164633,3946.9600,N,08404.9904,W,2,11,0.80,305.74,M,-33.324,M,,*78
2017-12-29 11:46:32 1514565992.802823: $GPRMC,164633,A,3946.9600,N,08404.9904,W,0.0000,0.000,291217,,*3F
2017-12-29 11:46:32 1514565992.802885: $GPGSA,A,3,8,10,14,15,18,20,21,24,32,27,138,,1.7,0.8,1.3*36
2017-12-29 11:46:33 1514565993.353584: $GPZDA,164634.00,29,12,2017,00,00*68
2017-12-29 11:46:33 1514565993.353751: $GPGGA,164634,3946.9600,N,08404.9904,W,2,11,0.80,305.74,M,-33.324,M,,*7F
2017-12-29 11:46:33 1514565993.353818: $GPRMC,164634,A,3946.9600,N,08404.9904,W,0.0000,0.000,291217,,*38
2017-12-29 11:46:33 1514565993.353878: $GPGSA,A,3,8,10,14,15,18,20,21,24,32,27,138,,1.7,0.8,1.3*36
2017-12-29 11:46:34 1514565994.354283: $GPZDA,164635.00,29,12,2017,00,00*69
2017-12-29 11:46:34 1514565994.354475: $GPGGA,164635,3946.9600,N,08404.9904,W,2,11,0.80,305.74,M,-33.324,M,,*7E
2017-12-29 11:46:34 1514565994.354541: $GPRMC,164635,A,3946.9600,N,08404.9904,W,0.0000,0.000,291217,,*39
2017-12-29 11:46:34 1514565994.354601: $GPGSA,A,3,8,10,14,15,18,20,21,24,32,27,138,,1.7,0.8,1.3*36
2017-12-29 11:46:35 1514565995.684538: $GPGSV,3,1,11,08,08,312,36,10,52,312,46,14,13,240,29,15,26,057,46*70
2017-12-29 11:46:35 1514565995.684722: $GPGSV,3,2,11,18,77,024,45,20,24,105,49,21,49,183,47,24,53,087,51*77
2017-12-29 11:46:35 1514565995.684788: $GPGSV,3,3,11,32,32,247,38,27,16,276,30,138,38,213,45*71
2017-12-29 11:46:35 1514565995.797915: $GPZDA,164636.00,29,12,2017,00,00*6A
2017-12-29 11:46:35 1514565995.798100: $GPGGA,164636,3946.9596,N,08404.9905,W,2,11,0.80,306.51,M,-33.324,M,,*74
2017-12-29 11:46:35 1514565995.798169: $GPRMC,164636,A,3946.9596,N,08404.9905,W,0.0000,0.000,291217,,*37
2017-12-29 11:46:35 1514565995.798247: $GPGSA,A,3,8,10,14,15,18,20,21,24,32,27,138,,1.7,0.8,1.3*36
2017-12-29 11:46:36 1514565996.353863: $GPZDA,164637.00,29,12,2017,00,00*6B
2017-12-29 11:46:36 1514565996.354041: $GPGGA,164637,3946.9596,N,08404.9905,W,2,11,0.80,306.51,M,-33.324,M,,*75
2017-12-29 11:46:36 1514565996.354108: $GPRMC,164637,A,3946.9596,N,08404.9905,W,0.0000,0.000,291217,,*36
2017-12-29 11:46:36 1514565996.354170: $GPGSA,A,3,8,10,14,15,18,20,21,24,32,27,138,,1.7,0.8,1.3*36
2017-12-29 11:46:37 1514565997.353430: $GPZDA,164638.00,29,12,2017,00,00*64
2017-12-29 11:46:37 1514565997.353601: $GPGGA,164638,3946.9596,N,08404.9905,W,2,11,0.80,306.51,M,-33.324,M,,*7A
2017-12-29 11:46:37 1514565997.353668: $GPRMC,164638,A,3946.9596,N,08404.9905,W,0.0000,0.000,291217,,*39
2017-12-29 11:46:37 1514565997.353729: $GPGSA,A,3,8,10,14,15,18,20,21,24,32,27,138,,1.7,0.8,1.3*36
2017-12-29 11:46:38 1514565998.705454: $GPGSV,3,1,11,08,08,312,35,10,52,312,46,14,13,240,31,15,26,057,46*7A
2017-12-29 11:46:38 1514565998.705630: $GPGSV,3,2,11,18,77,024,45,20,24,105,49,21,49,183,47,24,53,087,51*77
2017-12-29 11:46:38 1514565998.705695: $GPGSV,3,3,11,32,32,247,38,27,16,276,29,138,38,213,45*79
2017-12-29 11:46:38 1514565998.819018: $GPZDA,164639.00,29,12,2017,00,00*65
2017-12-29 11:46:38 1514565998.819167: $GPGGA,164639,3946.9596,N,08404.9905,W,2,11,0.80,306.51,M,-33.324,M,,*7B
2017-12-29 11:46:38 1514565998.819235: $GPRMC,164639,A,3946.9596,N,08404.9905,W,0.0000,0.000,291217,,*38
2017-12-29 11:46:38 1514565998.819295: $GPGSA,A,3,8,10,14,15,18,20,21,24,32,27,138,,1.7,0.8,1.3*36
2017-12-29 11:46:39 1514565999.364935: $GPZDA,164640.00,29,12,2017,00,00*6B
2017-12-29 11:46:39 1514565999.365166: $GPGGA,164640,3946.9600,N,08404.9905,W,2,11,0.80,307.15,M,-33.324,M,,*78
2017-12-29 11:46:39 1514565999.365238: $GPRMC,164640,A,3946.9600,N,08404.9905,W,0.0000,0.000,291217,,*3A
2017-12-29 11:46:39 1514565999.365298: $GPGSA,A,3,8,10,14,15,18,20,21,24,32,27,138,,1.7,0.8,1.3*36
