2017-12-14 12:17:18 1513271838.202022: {"class":"VERSION","release":"3.16","rev":"3.16-4","proto_major":3,"proto_minor":11}
2017-12-14 12:17:18 1513271838.202444: {"class":"DEVICES","devices":[{"class":"DEVICE","path":"/dev/ttyUSB0","driver":"SiRF","subtype":"9\u0006GSD4e_4.1.2-P1_RPATCH.05-F-GPS-4R-1510281 11/03/2015 307","activated":"2017-12-14T17:17:17.814Z","flags":1,"native":1,"bps":4800,"parity":"N","stopbits":1,"cycle":1.00}]}
2017-12-14 12:17:18 1513271838.202564: {"class":"WATCH","enable":true,"json":false,"nmea":true,"raw":0,"scaled":false,"timing":false,"split24":false,"pps":false}
2017-12-14 12:17:18 1513271838.223147: $GPZDA,171719.00,14,12,2017,00,00*6C
2017-12-14 12:17:18 1513271838.223274: $GPGGA,171719,3946.9575,N,08404.9332,W,1,08,1.80,361.32,M,-33.324,M,,*71
2017-12-14 12:17:18 1513271838.223338: $GPRMC,171719,A,3946.9575,N,08404.9332,W,1.1978,318.080,141217,,*36
2017-12-14 12:17:18 1513271838.223399: $GPGSA,A,3,21,15,18,20,24,14,10,32,,,,,6.6,1.8,6.2*30
2017-12-14 12:17:19 1513271839.223177: $GPZDA,171720.00,14,12,2017,00,00*66
2017-12-14 12:17:19 1513271839.223361: $GPGGA,171720,3946.9582,N,08404.9331,W,1,08,1.80,361.19,M,-33.324,M,,*79
2017-12-14 12:17:19 1513271839.223429: $GPRMC,171720,A,3946.9582,N,08404.9331,W,1.3394,358.928,141217,,*32
2017-12-14 12:17:19 1513271839.223580: $GPGSA,A,3,21,15,18,20,24,14,10,32,,,,,6.6,1.8,6.2*30
2017-12-14 12:17:19 1513271839.223641: $GPGBS,171720,24.66,M,21.80,M,143.40,M*33
2017-12-14 12:17:20 1513271840.559437: $GPGSV,3,1,12,21,63,187,30,15,37,052,19,18,71,337,20,20,34,096,14*79
2017-12-14 12:17:20 1513271840.559614: $GPGSV,3,2,12,24,50,111,24,27,19,289,00,10,41,301,12,32,21,238,15*7B
2017-12-14 12:17:20 1513271840.559684: $GPGSV,3,3,12,13,08,048,00,08,05,322,00,14,03,232,00,138,38,213,00*46
2017-12-14 12:17:20 1513271840.673332: $GPZDA,171721.00,14,12,2017,00,00*67
2017-12-14 12:17:20 1513271840.673499: $GPGGA,171721,3946.9586,N,08404.9331,W,1,07,1.80,361.83,M,-33.324,M,,*70
2017-12-14 12:17:20 1513271840.673569: $GPRMC,171721,A,3946.9586,N,08404.9331,W,1.0003,11.042,141217,,*02
2017-12-14 12:17:20 1513271840.673633: $GPGSA,A,3,21,15,18,20,24,10,32,,,,,,6.6,1.8,6.2*35
2017-12-14 12:17:21 1513271841.223233: $GPZDA,171722.00,14,12,2017,00,00*64
2017-12-14 12:17:21 1513271841.223405: $GPGGA,171722,3946.9586,N,08404.9331,W,1,07,1.80,361.83,M,-33.324,M,,*73
2017-12-14 12:17:21 1513271841.223474: $GPRMC,171722,A,3946.9586,N,08404.9331,W,0.6607,353.468,141217,,*3D
2017-12-14 12:17:21 1513271841.223538: $GPGSA,A,3,21,15,18,20,24,10,32,,,,,,6.6,1.8,6.2*35
2017-12-14 12:17:22 1513271842.224053: $GPZDA,171723.00,14,12,2017,00,00*65
2017-12-14 12:17:22 1513271842.224233: $GPGGA,171723,3946.9587,N,08404.9332,W,1,07,1.80,363.24,M,-33.324,M,,*7F
2017-12-14 12:17:22 1513271842.224302: $GPRMC,171723,A,3946.9587,N,08404.9332,W,0.9080,26.716,141217,,*03
2017-12-14 12:17:22 1513271842.224366: $GPGSA,A,3,21,15,18,20,24,10,32,,,,,,6.6,1.8,6.2*35
2017-12-14 12:17:23 1513271843.560028: $GPGSV,3,1,12,21,63,187,30,15,37,052,20,18,71,337,21,20,34,096,14*72
2017-12-14 12:17:23 1513271843.560212: $GPGSV,3,2,12,24,50,111,25,10,41,301,00,27,19,289,00,32,21,238,15*79
2017-12-14 12:17:23 1513271843.560283: $GPGSV,3,3,12,13,08,048,00,08,05,322,00,14,03,232,00,138,38,213,00*46
2017-12-14 12:17:23 1513271843.673550: $GPZDA,171724.00,14,12,2017,00,00*62
2017-12-14 12:17:23 1513271843.673721: $GPGGA,171724,3946.9591,N,08404.9332,W,1,06,1.80,363.88,M,-33.324,M,,*78
2017-12-14 12:17:23 1513271843.673790: $GPRMC,171724,A,3946.9591,N,08404.9332,W,1.1651,35.402,141217,,*04
2017-12-14 12:17:23 1513271843.673854: $GPGSA,A,3,21,15,18,20,24,32,,,,,,,6.6,1.8,6.2*34
2017-12-14 12:17:24 1513271844.223543: $GPZDA,171725.00,14,12,2017,00,00*63
2017-12-14 12:17:24 1513271844.223714: $GPGGA,171725,3946.9591,N,08404.9325,W,1,06,1.80,363.95,M,-33.324,M,,*73
2017-12-14 12:17:24 1513271844.223783: $GPRMC,171725,A,3946.9591,N,08404.9325,W,1.9647,58.032,141217,,*00
2017-12-14 12:17:24 1513271844.223846: $GPGSA,A,3,21,15,18,20,24,32,,,,,,,6.6,1.8,6.2*34
2017-12-14 12:17:25 1513271845.222382: $GPZDA,171726.00,14,12,2017,00,00*60
2017-12-14 12:17:25 1513271845.222606: $GPGGA,171726,3946.9598,N,08404.9317,W,1,06,1.80,363.91,M,-33.324,M,,*7C
2017-12-14 12:17:25 1513271845.222697: $GPRMC,171726,A,3946.9598,N,08404.9317,W,2.3069,47.169,141217,,*09
2017-12-14 12:17:25 1513271845.222759: $GPGSA,A,3,21,15,18,20,24,32,,,,,,,6.6,1.8,6.2*34
2017-12-14 12:17:26 1513271846.558661: $GPGSV,3,1,12,21,63,187,30,15,37,052,20,18,71,337,21,20,34,096,14*72
2017-12-14 12:17:26 1513271846.558841: $GPGSV,3,2,12,24,50,111,25,10,41,301,00,27,19,289,00,32,21,238,16*7A
2017-12-14 12:17:26 1513271846.558908: $GPGSV,3,3,12,13,08,048,00,08,05,322,00,14,03,232,00,138,38,213,00*46
2017-12-14 12:17:26 1513271846.671957: $GPZDA,171727.00,14,12,2017,00,00*61
2017-12-14 12:17:26 1513271846.672167: $GPGGA,171727,3946.9599,N,08404.9318,W,1,06,1.80,365.31,M,-33.324,M,,*7F
2017-12-14 12:17:26 1513271846.672235: $GPRMC,171727,A,3946.9599,N,08404.9318,W,1.9609,56.849,141217,,*04
2017-12-14 12:17:26 1513271846.672296: $GPGSA,A,3,21,15,18,20,24,32,,,,,,,6.6,1.8,6.2*34
2017-12-14 12:17:27 1513271847.222912: $GPZDA,171728.00,14,12,2017,00,00*6E
2017-12-14 12:17:27 1513271847.223093: $GPGGA,171728,3946.9599,N,08404.9311,W,1,06,1.80,365.39,M,-33.324,M,,*71
2017-12-14 12:17:27 1513271847.223163: $GPRMC,171728,A,3946.9599,N,08404.9311,W,1.8683,39.302,141217,,*0C
2017-12-14 12:17:27 1513271847.223223: $GPGSA,A,3,21,15,18,20,24,32,,,,,,,6.6,1.8,6.2*34
2017-12-14 12:17:28 1513271848.223056: $GPZDA,171729.00,14,12,2017,00,00*6F
2017-12-14 12:17:28 1513271848.223250: $GPGGA,171729,3946.9603,N,08404.9311,W,1,06,1.80,366.03,M,-33.324,M,,*7A
2017-12-14 12:17:28 1513271848.223318: $GPRMC,171729,A,3946.9603,N,08404.9311,W,1.7345,41.898,141217,,*0A
2017-12-14 12:17:28 1513271848.223379: $GPGSA,A,3,21,15,18,20,24,32,,,,,,,6.6,1.8,6.2*34
2017-12-14 12:17:29 1513271849.560452: $GPGSV,3,1,12,21,63,187,30,15,37,052,19,18,71,337,21,20,34,096,16*7A
2017-12-14 12:17:29 1513271849.560629: $GPGSV,3,2,12,24,50,111,25,10,41,301,00,27,19,289,00,32,21,238,16*7A
2017-12-14 12:17:29 1513271849.560695: $GPGSV,3,3,12,13,08,048,00,08,05,322,00,14,03,232,00,138,38,213,00*46
2017-12-14 12:17:29 1513271849.673850: $GPZDA,171730.00,14,12,2017,00,00*67
2017-12-14 12:17:29 1513271849.674012: $GPGGA,171730,3946.9607,N,08404.9311,W,1,06,1.80,366.67,M,-33.324,M,,*74
2017-12-14 12:17:29 1513271849.674077: $GPRMC,171730,A,3946.9607,N,08404.9311,W,1.7419,15.255,141217,,*02
2017-12-14 12:17:29 1513271849.674137: $GPGSA,A,3,21,15,18,20,24,32,,,,,,,6.6,1.8,6.2*34
2017-12-14 12:17:30 1513271850.223947: $GPZDA,171731.00,14,12,2017,00,00*66
2017-12-14 12:17:30 1513271850.224118: $GPGGA,171731,3946.9611,N,08404.9311,W,1,06,1.80,367.31,M,-33.324,M,,*70
2017-12-14 12:17:30 1513271850.224185: $GPRMC,171731,A,3946.9611,N,08404.9311,W,2.0522,6.763,141217,,*3B
2017-12-14 12:17:30 1513271850.224267: $GPGSA,A,3,21,15,18,20,24,32,,,,,,,6.6,1.8,6.2*34
2017-12-14 12:17:31 1513271851.224285: $GPZDA,171732.00,14,12,2017,00,00*65
2017-12-14 12:17:31 1513271851.224450: $GPGGA,171732,3946.9619,N,08404.9310,W,1,06,1.80,367.19,M,-33.324,M,,*70
2017-12-14 12:17:31 1513271851.224516: $GPRMC,171732,A,3946.9619,N,08404.9310,W,2.3942,6.397,141217,,*37
2017-12-14 12:17:31 1513271851.224576: $GPGSA,A,3,21,15,18,20,24,32,,,,,,,6.6,1.8,6.2*34
2017-12-14 12:17:31 1513271851.224632: $GPGBS,171732,24.66,M,21.80,M,143.40,M*30
2017-12-14 12:17:32 1513271852.559733: $GPGSV,3,1,12,21,63,187,30,15,37,052,20,18,71,337,21,20,34,096,17*71
2017-12-14 12:17:32 1513271852.559913: $GPGSV,3,2,12,24,50,111,25,10,41,301,00,27,19,289,00,32,21,238,15*79
2017-12-14 12:17:32 1513271852.559979: $GPGSV,3,3,12,13,08,048,00,08,05,322,00,14,03,232,00,138,38,213,00*46
2017-12-14 12:17:32 1513271852.673463: $GPZDA,171733.00,14,12,2017,00,00*64
2017-12-14 12:17:32 1513271852.673628: $GPGGA,171733,3946.9623,N,08404.9310,W,1,06,1.80,367.83,M,-33.324,M,,*7B
2017-12-14 12:17:32 1513271852.673694: $GPRMC,171733,A,3946.9623,N,08404.9310,W,2.3942,6.397,141217,,*3F
2017-12-14 12:17:32 1513271852.673755: $GPGSA,A,3,21,15,18,20,24,32,,,,,,,6.6,1.8,6.2*34
2017-12-14 12:17:33 1513271853.223567: $GPZDA,171734.00,14,12,2017,00,00*63
2017-12-14 12:17:33 1513271853.223733: $GPGGA,171734,3946.9623,N,08404.9310,W,1,06,1.80,367.83,M,-33.324,M,,*7C
2017-12-14 12:17:33 1513271853.223799: $GPRMC,171734,A,3946.9623,N,08404.9310,W,1.3851,19.323,141217,,*09
2017-12-14 12:17:33 1513271853.223860: $GPGSA,A,3,21,15,18,20,24,32,,,,,,,6.6,1.8,6.2*34
2017-12-14 12:17:34 1513271854.223590: $GPZDA,171735.00,14,12,2017,00,00*62
2017-12-14 12:17:34 1513271854.223756: $GPGGA,171735,3946.9627,N,08404.9310,W,1,06,1.80,368.47,M,-33.324,M,,*7E
2017-12-14 12:17:34 1513271854.223822: $GPRMC,171735,A,3946.9627,N,08404.9310,W,1.3075,32.369,141217,,*05
2017-12-14 12:17:34 1513271854.223883: $GPGSA,A,3,21,15,18,20,24,32,,,,,,,6.6,1.8,6.2*34
2017-12-14 12:17:35 1513271855.559616: $GPGSV,3,1,12,21,63,187,30,15,37,052,20,18,71,337,21,20,34,096,18*7E
2017-12-14 12:17:35 1513271855.559790: $GPGSV,3,2,12,24,50,111,25,10,41,301,00,27,19,289,00,32,21,238,15*79
2017-12-14 12:17:35 1513271855.559856: $GPGSV,3,3,12,13,08,048,00,08,05,322,00,14,03,232,00,138,38,213,00*46
2017-12-14 12:17:35 1513271855.673047: $GPZDA,171736.00,14,12,2017,00,00*61
2017-12-14 12:17:35 1513271855.673215: $GPGGA,171736,3946.9627,N,08404.9303,W,1,06,1.80,368.55,M,-33.324,M,,*7C
2017-12-14 12:17:35 1513271855.673281: $GPRMC,171736,A,3946.9627,N,08404.9303,W,1.3696,57.748,141217,,*0B
2017-12-14 12:17:35 1513271855.673342: $GPGSA,A,3,21,15,18,20,24,32,,,,,,,6.6,1.8,6.2*34
2017-12-14 12:17:36 1513271856.223105: $GPZDA,171737.00,14,12,2017,00,00*60
2017-12-14 12:17:36 1513271856.223277: $GPGGA,171737,3946.9627,N,08404.9303,W,1,06,1.80,368.55,M,-33.324,M,,*7D
2017-12-14 12:17:36 1513271856.223342: $GPRMC,171737,A,3946.9627,N,08404.9303,W,1.7753,54.768,141217,,*07
2017-12-14 12:17:36 1513271856.223402: $GPGSA,A,3,21,15,18,20,24,32,,,,,,,6.6,1.8,6.2*34
2017-12-14 12:17:37 1513271857.222720: $GPZDA,171738.00,14,12,2017,00,00*6F
2017-12-14 12:17:37 1513271857.222889: $GPGGA,171738,3946.9630,N,08404.9295,W,1,06,1.80,367.86,M,-33.324,M,,*7B
2017-12-14 12:17:37 1513271857.222954: $GPRMC,171738,A,3946.9630,N,08404.9295,W,1.3002,48.031,141217,,*01
2017-12-14 12:17:37 1513271857.223014: $GPGSA,A,3,21,15,18,20,24,32,,,,,,,6.6,1.8,6.2*34
