2017-11-16 17:06:56 1510870016.280320: {"class":"VERSION","release":"3.17","rev":"3.17","proto_major":3,"proto_minor":12}
2017-11-16 17:06:56 1510870016.280792: {"class":"DEVICES","devices":[{"class":"DEVICE","path":"/dev/ttyUSB0","driver":"SiRF","subtype":"9\u0006GSD4e_4.1.2-P1_RPATCH.05-F-GPS-4R-1510281 11/03/2015 307","activated":"2017-11-16T22:06:56.218Z","flags":1,"native":1,"bps":4800,"parity":"N","stopbits":1,"cycle":1.00}]}
2017-11-16 17:06:56 1510870016.280916: {"class":"WATCH","enable":true,"json":false,"nmea":true,"raw":0,"scaled":false,"timing":false,"split24":false,"pps":false}
2017-11-16 17:06:56 1510870016.396808: $GPZDA,220655.00,16,11,2017,00,00*63
2017-11-16 17:06:56 1510870016.396980: $GPGGA,220655,3946.9575,N,08404.9819,W,2,12,0.80,312.77,M,-33.324,M,,*71
2017-11-16 17:06:56 1510870016.397040: $GPRMC,220655,A,3946.9575,N,08404.9819,W,0.0000,0.000,161117,,*3F
2017-11-16 17:06:56 1510870016.397097: $GPGSA,A,3,1,10,11,12,14,18,22,24,25,31,32,138,1.6,0.8,1.3*38
2017-11-16 17:06:57 1510870017.726187: $GPGSV,3,1,12,01,18,312,42,10,60,141,48,11,10,292,40,12,25,061,49*7B
2017-11-16 17:06:57 1510870017.726353: $GPGSV,3,2,12,14,60,306,46,18,29,139,44,22,09,312,36,24,06,046,35*7E
2017-11-16 17:06:57 1510870017.726414: $GPGSV,3,3,12,25,35,105,48,31,43,217,48,32,70,354,50,138,38,213,44*4E
2017-11-16 17:06:57 1510870017.839521: $GPZDA,220656.00,16,11,2017,00,00*60
2017-11-16 17:06:57 1510870017.839675: $GPGGA,220656,3946.9575,N,08404.9819,W,2,12,0.80,312.77,M,-33.324,M,,*72
2017-11-16 17:06:57 1510870017.839740: $GPRMC,220656,A,3946.9575,N,08404.9819,W,0.0000,0.000,161117,,*3C
2017-11-16 17:06:57 1510870017.839797: $GPGSA,A,3,1,10,11,12,14,18,22,24,25,31,32,138,1.6,0.8,1.3*38
2017-11-16 17:06:58 1510870018.390514: $GPZDA,220657.00,16,11,2017,00,00*61
2017-11-16 17:06:58 1510870018.390680: $GPGGA,220657,3946.9575,N,08404.9819,W,2,12,0.80,312.77,M,-33.324,M,,*73
2017-11-16 17:06:58 1510870018.390741: $GPRMC,220657,A,3946.9575,N,08404.9819,W,0.0000,0.000,161117,,*3D
2017-11-16 17:06:58 1510870018.390796: $GPGSA,A,3,1,10,11,12,14,18,22,24,25,31,32,138,1.6,0.8,1.3*38
2017-11-16 17:06:59 1510870019.397085: $GPZDA,220658.00,16,11,2017,00,00*6E
2017-11-16 17:06:59 1510870019.397250: $GPGGA,220658,3946.9575,N,08404.9819,W,2,12,0.80,312.77,M,-33.324,M,,*7C
2017-11-16 17:06:59 1510870019.397311: $GPRMC,220658,A,3946.9575,N,08404.9819,W,0.0000,0.000,161117,,*32
2017-11-16 17:06:59 1510870019.397367: $GPGSA,A,3,1,10,11,12,14,18,22,24,25,31,32,138,1.6,0.8,1.3*38
2017-11-16 17:07:00 1510870020.733330: $GPGSV,3,1,12,01,18,312,42,10,60,141,48,11,10,292,40,12,25,061,49*7B
2017-11-16 17:07:00 1510870020.733490: $GPGSV,3,2,12,14,60,306,47,18,29,139,44,22,09,312,36,24,06,046,36*7C
2017-11-16 17:07:00 1510870020.733550: $GPGSV,3,3,12,25,35,105,48,31,43,217,48,32,70,354,50,138,38,213,44*4E
2017-11-16 17:07:00 1510870020.846658: $GPZDA,220659.00,16,11,2017,00,00*6F
2017-11-16 17:07:00 1510870020.846825: $GPGGA,220659,3946.9575,N,08404.9819,W,2,12,0.80,312.77,M,-33.324,M,,*7D
2017-11-16 17:07:00 1510870020.846885: $GPRMC,220659,A,3946.9575,N,08404.9819,W,0.0000,0.000,161117,,*33
2017-11-16 17:07:00 1510870020.846941: $GPGSA,A,3,1,10,11,12,14,18,22,24,25,31,32,138,1.6,0.8,1.3*38
2017-11-16 17:07:01 1510870021.472010: $GPZDA,220700.00,16,11,2017,00,00*62
2017-11-16 17:07:01 1510870021.472164: $GPGGA,220700,3946.9575,N,08404.9819,W,2,12,0.80,312.77,M,-33.324,M,,*70
2017-11-16 17:07:01 1510870021.472226: $GPRMC,220700,A,3946.9575,N,08404.9819,W,0.0000,0.000,161117,,*3E
2017-11-16 17:07:01 1510870021.472281: $GPGSA,A,3,1,10,11,12,14,18,22,24,25,31,32,138,1.6,0.8,1.3*38
2017-11-16 17:07:02 1510870022.396662: $GPZDA,220701.00,16,11,2017,00,00*63
2017-11-16 17:07:02 1510870022.396846: $GPGGA,220701,3946.9575,N,08404.9819,W,2,12,0.80,312.77,M,-33.324,M,,*71
2017-11-16 17:07:02 1510870022.396932: $GPRMC,220701,A,3946.9575,N,08404.9819,W,0.0000,0.000,161117,,*3F
2017-11-16 17:07:02 1510870022.396990: $GPGSA,A,3,1,10,11,12,14,18,22,24,25,31,32,138,1.6,0.8,1.3*38
2017-11-16 17:07:03 1510870023.726188: $GPGSV,3,1,12,01,18,312,42,10,60,141,48,11,10,292,39,12,25,061,49*75
2017-11-16 17:07:03 1510870023.726401: $GPGSV,3,2,12,14,60,306,46,18,29,139,44,22,09,312,35,24,06,046,36*7E
2017-11-16 17:07:03 1510870023.726464: $GPGSV,3,3,12,25,35,105,47,31,43,217,48,32,70,354,50,138,38,213,44*41
2017-11-16 17:07:03 1510870023.839726: $GPZDA,220702.00,16,11,2017,00,00*60
2017-11-16 17:07:03 1510870023.839890: $GPGGA,220702,3946.9575,N,08404.9819,W,2,12,0.80,312.77,M,-33.324,M,,*72
2017-11-16 17:07:03 1510870023.839952: $GPRMC,220702,A,3946.9575,N,08404.9819,W,0.0000,0.000,161117,,*3C
2017-11-16 17:07:03 1510870023.840008: $GPGSA,A,3,1,10,11,12,14,18,22,24,25,31,32,138,1.6,0.8,1.3*38
2017-11-16 17:07:04 1510870024.391607: $GPZDA,220703.00,16,11,2017,00,00*61
2017-11-16 17:07:04 1510870024.391784: $GPGGA,220703,3946.9575,N,08404.9819,W,2,12,0.80,312.77,M,-33.324,M,,*73
2017-11-16 17:07:04 1510870024.391847: $GPRMC,220703,A,3946.9575,N,08404.9819,W,0.0000,0.000,161117,,*3D
2017-11-16 17:07:04 1510870024.391907: $GPGSA,A,3,1,10,11,12,14,18,22,24,25,31,32,138,1.6,0.8,1.3*38
2017-11-16 17:07:05 1510870025.397589: $GPZDA,220704.00,16,11,2017,00,00*66
2017-11-16 17:07:05 1510870025.397779: $GPGGA,220704,3946.9575,N,08404.9819,W,2,12,0.80,312.77,M,-33.324,M,,*74
2017-11-16 17:07:05 1510870025.397845: $GPRMC,220704,A,3946.9575,N,08404.9819,W,0.0000,0.000,161117,,*3A
2017-11-16 17:07:05 1510870025.397905: $GPGSA,A,3,1,10,11,12,14,18,22,24,25,31,32,138,1.6,0.8,1.3*38
