2017-11-16 17:32:23 1510871543.631600: {"class":"VERSION","release":"3.17","rev":"3.17","proto_major":3,"proto_minor":12}
2017-11-16 17:32:23 1510871543.632030: {"class":"DEVICES","devices":[{"class":"DEVICE","path":"/dev/ttyUSB0","driver":"SiRF","subtype":"9\u0006GSD4e_4.1.2-P1_RPATCH.05-F-GPS-4R-1510281 11/03/2015 307","activated":"2017-11-16T22:32:23.540Z","flags":1,"native":1,"bps":4800,"parity":"N","stopbits":1,"cycle":1.00}]}
2017-11-16 17:32:23 1510871543.632144: {"class":"WATCH","enable":true,"json":false,"nmea":true,"raw":0,"scaled":false,"timing":false,"split24":false,"pps":false}
2017-11-16 17:32:24 1510871544.736999: $GPGSV,3,1,12,01,21,301,38,10,48,148,50,22,18,312,41,12,22,051,51*79
2017-11-16 17:32:24 1510871544.737133: $GPGSV,3,2,12,14,66,327,47,18,19,144,40,26,01,183,00,11,08,282,38*7B
2017-11-16 17:32:24 1510871544.737192: $GPGSV,3,3,12,25,39,091,48,31,55,225,48,32,69,025,49,138,38,213,44*4D
2017-11-16 17:32:24 1510871544.850428: $GPZDA,223223.00,16,11,2017,00,00*65
2017-11-16 17:32:24 1510871544.850581: $GPGGA,223223,3946.9572,N,08404.9835,W,2,11,0.80,304.10,M,-33.324,M,,*7B
2017-11-16 17:32:24 1510871544.850641: $GPRMC,223223,A,3946.9572,N,08404.9835,W,0.0000,0.000,161117,,*30
2017-11-16 17:32:24 1510871544.850696: $GPGSA,A,3,1,10,22,12,14,18,11,25,31,32,138,,1.6,0.8,1.3*3E
2017-11-16 17:32:25 1510871545.399887: $GPZDA,223224.00,16,11,2017,00,00*62
2017-11-16 17:32:25 1510871545.400063: $GPGGA,223224,3946.9572,N,08404.9835,W,2,11,0.80,304.10,M,-33.324,M,,*7C
2017-11-16 17:32:25 1510871545.400124: $GPRMC,223224,A,3946.9572,N,08404.9835,W,0.0000,0.000,161117,,*37
2017-11-16 17:32:25 1510871545.400180: $GPGSA,A,3,1,10,22,12,14,18,11,25,31,32,138,,1.6,0.8,1.3*3E
2017-11-16 17:32:26 1510871546.399073: $GPZDA,223225.00,16,11,2017,00,00*63
2017-11-16 17:32:26 1510871546.399266: $GPGGA,223225,3946.9572,N,08404.9835,W,2,11,0.80,304.10,M,-33.324,M,,*7D
2017-11-16 17:32:26 1510871546.399330: $GPRMC,223225,A,3946.9572,N,08404.9835,W,0.0000,0.000,161117,,*36
2017-11-16 17:32:26 1510871546.399389: $GPGSA,A,3,1,10,22,12,14,18,11,25,31,32,138,,1.6,0.8,1.3*3E
2017-11-16 17:32:27 1510871547.736069: $GPGSV,3,1,12,01,21,301,38,10,48,148,50,22,18,312,41,12,22,051,51*79
2017-11-16 17:32:27 1510871547.736235: $GPGSV,3,2,12,14,66,327,47,18,19,144,39,26,01,183,00,11,08,282,38*75
2017-11-16 17:32:27 1510871547.736297: $GPGSV,3,3,12,25,39,091,48,31,55,225,48,32,69,025,49,138,38,213,44*4D
2017-11-16 17:32:27 1510871547.849430: $GPZDA,223226.00,16,11,2017,00,00*60
2017-11-16 17:32:27 1510871547.849596: $GPGGA,223226,3946.9572,N,08404.9835,W,2,11,0.80,304.10,M,-33.324,M,,*7E
2017-11-16 17:32:27 1510871547.849660: $GPRMC,223226,A,3946.9572,N,08404.9835,W,0.0000,0.000,161117,,*35
2017-11-16 17:32:27 1510871547.849719: $GPGSA,A,3,1,10,22,12,14,18,11,25,31,32,138,,1.6,0.8,1.3*3E
2017-11-16 17:32:28 1510871548.398962: $GPZDA,223227.00,16,11,2017,00,00*61
2017-11-16 17:32:28 1510871548.399122: $GPGGA,223227,3946.9572,N,08404.9835,W,2,11,0.80,304.10,M,-33.324,M,,*7F
2017-11-16 17:32:28 1510871548.399186: $GPRMC,223227,A,3946.9572,N,08404.9835,W,0.0000,0.000,161117,,*34
2017-11-16 17:32:28 1510871548.399244: $GPGSA,A,3,1,10,22,12,14,18,11,25,31,32,138,,1.6,0.8,1.3*3E
2017-11-16 17:32:29 1510871549.408982: $GPZDA,223228.00,16,11,2017,00,00*6E
2017-11-16 17:32:29 1510871549.409176: $GPGGA,223228,3946.9572,N,08404.9835,W,2,11,0.80,304.10,M,-33.324,M,,*70
2017-11-16 17:32:29 1510871549.409240: $GPRMC,223228,A,3946.9572,N,08404.9835,W,0.0000,0.000,161117,,*3B
2017-11-16 17:32:29 1510871549.409299: $GPGSA,A,3,1,10,22,12,14,18,11,25,31,32,138,,1.6,0.8,1.3*3E
2017-11-16 17:32:30 1510871550.736836: $GPGSV,3,1,12,01,21,301,37,10,48,148,50,22,18,312,41,12,22,051,51*76
2017-11-16 17:32:30 1510871550.737013: $GPGSV,3,2,12,14,66,327,47,18,19,144,39,26,01,183,19,11,08,282,38*7D
2017-11-16 17:32:30 1510871550.737077: $GPGSV,3,3,12,25,39,091,48,31,55,225,49,32,69,025,49,138,38,213,44*4C
2017-11-16 17:32:30 1510871550.850136: $GPZDA,223229.00,16,11,2017,00,00*6F
2017-11-16 17:32:30 1510871550.850311: $GPGGA,223229,3946.9572,N,08404.9835,W,2,12,0.80,304.10,M,-33.324,M,,*72
2017-11-16 17:32:30 1510871550.850428: $GPRMC,223229,A,3946.9572,N,08404.9835,W,0.0000,0.000,161117,,*3A
2017-11-16 17:32:30 1510871550.850486: $GPGSA,A,3,1,10,22,12,14,18,26,11,25,31,32,138,1.6,0.8,1.3*3A
2017-11-16 17:32:31 1510871551.475581: $GPZDA,223230.00,16,11,2017,00,00*67
2017-11-16 17:32:31 1510871551.475747: $GPGGA,223230,3946.9572,N,08404.9835,W,2,12,0.80,304.10,M,-33.324,M,,*7A
2017-11-16 17:32:31 1510871551.475807: $GPRMC,223230,A,3946.9572,N,08404.9835,W,0.0000,0.000,161117,,*32
2017-11-16 17:32:31 1510871551.475886: $GPGSA,A,3,1,10,22,12,14,18,26,11,25,31,32,138,1.6,0.8,1.3*3A
2017-11-16 17:32:32 1510871552.422845: $GPZDA,223231.00,16,11,2017,00,00*66
2017-11-16 17:32:32 1510871552.423021: $GPGGA,223231,3946.9572,N,08404.9835,W,2,12,0.80,304.10,M,-33.324,M,,*7B
2017-11-16 17:32:32 1510871552.423083: $GPRMC,223231,A,3946.9572,N,08404.9835,W,0.0000,0.000,161117,,*33
2017-11-16 17:32:32 1510871552.423139: $GPGSA,A,3,1,10,22,12,14,18,26,11,25,31,32,138,1.6,0.8,1.3*3A
