2017-12-01 11:27:43 1512145663.366641: {"class":"VERSION","release":"3.16","rev":"3.16-4","proto_major":3,"proto_minor":11}
2017-12-01 11:27:43 1512145663.367550: {"class":"DEVICES","devices":[{"class":"DEVICE","path":"/dev/ttyUSB0","driver":"SiRF","subtype":"9\u0006GSD4e_4.1.2-P1_RPATCH.05-F-GPS-4R-1510281 11/03/2015 307","activated":"2017-12-01T16:27:43.120Z","flags":1,"native":1,"bps":4800,"parity":"N","stopbits":1,"cycle":1.00}]}
2017-12-01 11:27:43 1512145663.367681: {"class":"WATCH","enable":true,"json":false,"nmea":true,"raw":0,"scaled":false,"timing":false,"split24":false,"pps":false}
2017-12-01 11:27:44 1512145664.083652: $GPZDA,162744.77,01,12,2017,00,00*62
2017-12-01 11:27:44 1512145664.083828: $GPGGA,162744,3946.9544,N,08404.9758,W,1,12,1.00,326.05,M,-33.324,M,,*75
2017-12-01 11:27:44 1512145664.083896: $GPRMC,162744,A,3946.9544,N,08404.9758,W,0.6309,129.994,011217,,*34
2017-12-01 11:27:44 1512145664.083959: $GPGSA,A,3,5,10,13,15,18,20,21,24,29,27,30,138,2.0,1.0,1.5*3E
2017-12-01 11:27:44 1512145664.084019: $GPGBS,162744,10.70,M,15.43,M,35.28,M*05
2017-12-01 11:27:45 1512145665.027643: $GPZDA,162745.45,01,12,2017,00,00*62
2017-12-01 11:27:45 1512145665.027820: $GPGGA,162745,3946.9544,N,08404.9758,W,1,12,1.00,326.05,M,-33.324,M,,*74
2017-12-01 11:27:45 1512145665.027888: $GPRMC,162745,A,3946.9544,N,08404.9758,W,0.4700,9.200,011217,,*3F
2017-12-01 11:27:45 1512145665.027950: $GPGSA,A,3,5,10,13,15,18,20,21,24,29,27,30,138,2.0,1.0,1.5*3E
2017-12-01 11:27:45 1512145665.028010: $GPGBS,162745,10.70,M,15.43,M,35.28,M*04
2017-12-01 11:27:46 1512145666.192788: $GPGSV,3,1,12,05,19,072,39,10,08,267,32,13,49,055,46,15,79,105,48*7E
2017-12-01 11:27:46 1512145666.192982: $GPGSV,3,2,12,18,39,279,45,20,67,037,45,21,60,309,46,24,14,153,36*7F
2017-12-01 11:27:46 1512145666.193049: $GPGSV,3,3,12,29,31,198,46,30,01,030,04,04,18,126,00,138,38,213,00*4D
2017-12-01 11:27:46 1512145666.306078: $GPZDA,162746.00,01,12,2017,00,00*60
2017-12-01 11:27:46 1512145666.306251: $GPGGA,162746,3946.9539,N,08404.9758,W,1,09,1.00,325.41,M,-33.324,M,,*74
2017-12-01 11:27:46 1512145666.306317: $GPRMC,162746,A,3946.9539,N,08404.9758,W,0.2172,265.763,011217,,*3B
2017-12-01 11:27:46 1512145666.306379: $GPGSA,A,3,5,10,13,15,18,20,21,24,29,,,,2.0,1.0,1.5*02
2017-12-01 11:27:46 1512145666.757256: $GPZDA,162747.00,01,12,2017,00,00*61
2017-12-01 11:27:46 1512145666.757427: $GPGGA,162747,3946.9542,N,08404.9764,W,1,09,1.00,323.17,M,-33.324,M,,*73
2017-12-01 11:27:46 1512145666.757493: $GPRMC,162747,A,3946.9542,N,08404.9764,W,0.1567,9.200,011217,,*32
2017-12-01 11:27:46 1512145666.757555: $GPGSA,A,3,5,10,13,15,18,20,21,24,29,,,,2.0,1.0,1.5*02
2017-12-01 11:27:47 1512145667.373167: $GPZDA,162748.00,01,12,2017,00,00*6E
2017-12-01 11:27:47 1512145667.373338: $GPGGA,162748,3946.9546,N,08404.9769,W,1,09,1.00,320.92,M,-33.324,M,,*7B
2017-12-01 11:27:47 1512145667.373404: $GPRMC,162748,A,3946.9546,N,08404.9769,W,0.0000,0.000,011217,,*3A
2017-12-01 11:27:47 1512145667.373465: $GPGSA,A,3,5,10,13,15,18,20,21,24,29,,,,2.0,1.0,1.5*02
2017-12-01 11:27:48 1512145668.708052: $GPGSV,3,1,12,05,19,072,37,10,08,267,33,13,49,055,46,15,79,105,49*70
2017-12-01 11:27:48 1512145668.708259: $GPGSV,3,2,12,18,39,279,45,20,67,037,46,21,60,309,47,24,14,153,36*7D
2017-12-01 11:27:48 1512145668.708329: $GPGSV,3,3,12,29,31,198,46,30,01,030,19,27,04,328,26,138,38,213,46*47
2017-12-01 11:27:48 1512145668.821780: $GPZDA,162749.00,01,12,2017,00,00*6F
2017-12-01 11:27:48 1512145668.821961: $GPGGA,162749,3946.9545,N,08404.9776,W,1,12,1.00,319.43,M,-33.324,M,,*7B
2017-12-01 11:27:48 1512145668.822031: $GPRMC,162749,A,3946.9545,N,08404.9776,W,0.0000,0.000,011217,,*36
2017-12-01 11:27:48 1512145668.822094: $GPGSA,A,3,5,10,13,15,18,20,21,24,29,30,27,138,2.0,1.0,1.5*3E
2017-12-01 11:27:49 1512145669.371436: $GPZDA,162750.00,01,12,2017,00,00*67
2017-12-01 11:27:49 1512145669.371623: $GPGGA,162750,3946.9552,N,08404.9781,W,1,12,1.00,317.83,M,-33.324,M,,*7F
2017-12-01 11:27:49 1512145669.371695: $GPRMC,162750,A,3946.9552,N,08404.9781,W,0.0000,0.000,011217,,*30
2017-12-01 11:27:49 1512145669.373263: $GPGSA,A,3,5,10,13,15,18,20,21,24,29,30,27,138,2.0,1.0,1.5*3E
2017-12-01 11:27:50 1512145670.373437: $GPZDA,162751.00,01,12,2017,00,00*66
2017-12-01 11:27:50 1512145670.373620: $GPGGA,162751,3946.9552,N,08404.9787,W,1,12,1.00,316.34,M,-33.324,M,,*75
2017-12-01 11:27:50 1512145670.373687: $GPRMC,162751,A,3946.9552,N,08404.9787,W,0.0000,0.000,011217,,*37
2017-12-01 11:27:50 1512145670.373748: $GPGSA,A,3,5,10,13,15,18,20,21,24,29,30,27,138,2.0,1.0,1.5*3E
2017-12-01 11:27:50 1512145670.373808: $GPGBS,162751,10.70,M,15.43,M,35.28,M*01
2017-12-01 11:27:51 1512145671.712567: $GPGSV,3,1,12,05,19,072,37,10,08,267,33,13,49,055,46,15,79,105,49*70
2017-12-01 11:27:51 1512145671.712743: $GPGSV,3,2,12,18,39,279,45,20,67,037,46,21,60,309,47,24,14,153,36*7D
2017-12-01 11:27:51 1512145671.712812: $GPGSV,3,3,12,29,31,198,47,30,01,030,23,27,04,328,28,138,38,213,47*40
2017-12-01 11:27:51 1512145671.826598: $GPZDA,162752.00,01,12,2017,00,00*65
2017-12-01 11:27:51 1512145671.826788: $GPGGA,162752,3946.9551,N,08404.9787,W,1,12,1.00,314.94,M,-33.324,M,,*7D
2017-12-01 11:27:51 1512145671.826857: $GPRMC,162752,A,3946.9551,N,08404.9787,W,0.0000,0.000,011217,,*37
2017-12-01 11:27:51 1512145671.826919: $GPGSA,A,3,5,10,13,15,18,20,21,24,29,30,27,138,2.0,1.0,1.5*3E
2017-12-01 11:27:52 1512145672.381298: $GPZDA,162753.00,01,12,2017,00,00*64
2017-12-01 11:27:52 1512145672.381530: $GPGGA,162753,3946.9568,N,08404.9832,W,2,12,1.60,297.08,M,-33.324,M,,*7D
2017-12-01 11:27:52 1512145672.381601: $GPRMC,162753,A,3946.9568,N,08404.9832,W,0.0000,0.000,011217,,*3D
2017-12-01 11:27:52 1512145672.381663: $GPGSA,A,3,5,10,13,15,18,20,21,24,29,30,27,138,2.0,1.6,1.5*38
