2017-12-31 18:01:32 1514761292.316850: {"class":"VERSION","release":"3.16","rev":"3.16-4","proto_major":3,"proto_minor":11}
2017-12-31 18:01:32 1514761292.317376: {"class":"DEVICES","devices":[{"class":"DEVICE","path":"/dev/ttyUSB0","driver":"SiRF","activated":"2017-12-31T23:01:32.226Z","flags":1,"native":1,"bps":4800,"parity":"N","stopbits":1,"cycle":1.00}]}
2017-12-31 18:01:32 1514761292.317482: {"class":"WATCH","enable":true,"json":false,"nmea":true,"raw":0,"scaled":false,"timing":false,"split24":false,"pps":false}
2017-12-31 18:01:32 1514761292.339998: $GPZDA,230133.00,31,12,2017,00,00*63
2017-12-31 18:01:32 1514761292.340113: $GPGGA,230133,3946.9564,N,08404.9866,W,2,11,0.60,307.48,M,-33.324,M,,*7A
2017-12-31 18:01:32 1514761292.340177: $GPRMC,230133,A,3946.9564,N,08404.9866,W,0.0000,0.000,311217,,*37
2017-12-31 18:01:32 1514761292.340237: $GPGSA,A,3,22,23,9,3,16,29,14,31,27,26,135,,1.7,0.6,1.3*06
2017-12-31 18:01:33 1514761293.681679: $GPGSV,3,1,11,22,26,217,41,23,50,307,40,09,16,312,36,03,35,238,42*7B
2017-12-31 18:01:33 1514761293.681854: $GPGSV,3,2,11,16,76,192,42,29,07,033,34,14,19,130,31,31,31,072,36*74
2017-12-31 18:01:33 1514761293.681920: $GPGSV,3,3,11,27,18,156,36,26,66,054,49,135,22,240,44*7B
2017-12-31 18:01:33 1514761293.795063: $GPZDA,230134.00,31,12,2017,00,00*64
2017-12-31 18:01:33 1514761293.795203: $GPGGA,230134,3946.9564,N,08404.9866,W,2,11,0.60,307.48,M,-33.324,M,,*7D
2017-12-31 18:01:33 1514761293.795270: $GPRMC,230134,A,3946.9564,N,08404.9866,W,0.0000,0.000,311217,,*30
2017-12-31 18:01:33 1514761293.795330: $GPGSA,A,3,22,23,9,3,16,29,14,31,27,26,135,,1.7,0.6,1.3*06
2017-12-31 18:01:34 1514761294.346006: $GPZDA,230135.00,31,12,2017,00,00*65
2017-12-31 18:01:34 1514761294.346200: $GPGGA,230135,3946.9564,N,08404.9866,W,2,11,0.60,307.48,M,-33.324,M,,*7C
2017-12-31 18:01:34 1514761294.346271: $GPRMC,230135,A,3946.9564,N,08404.9866,W,0.0000,0.000,311217,,*31
2017-12-31 18:01:34 1514761294.346333: $GPGSA,A,3,22,23,9,3,16,29,14,31,27,26,135,,1.7,0.6,1.3*06
2017-12-31 18:01:35 1514761295.373811: $GPZDA,230136.00,31,12,2017,00,00*66
2017-12-31 18:01:35 1514761295.373993: $GPGGA,230136,3946.9564,N,08404.9866,W,2,11,0.60,307.48,M,-33.324,M,,*7F
2017-12-31 18:01:35 1514761295.374060: $GPRMC,230136,A,3946.9564,N,08404.9866,W,0.0000,0.000,311217,,*32
2017-12-31 18:01:35 1514761295.374122: $GPGSA,A,3,22,23,9,3,16,29,14,31,27,26,135,,1.7,0.6,1.3*06
2017-12-31 18:01:36 1514761296.708257: $GPGSV,3,1,11,22,26,217,41,23,50,307,41,09,16,312,38,03,35,238,44*72
2017-12-31 18:01:36 1514761296.708425: $GPGSV,3,2,11,16,76,192,43,29,07,033,35,14,19,130,31,31,31,072,36*74
2017-12-31 18:01:36 1514761296.708492: $GPGSV,3,3,11,27,18,156,36,26,66,054,49,135,22,240,44*7B
2017-12-31 18:01:36 1514761296.821661: $GPZDA,230137.00,31,12,2017,00,00*67
2017-12-31 18:01:36 1514761296.821807: $GPGGA,230137,3946.9564,N,08404.9866,W,2,11,0.60,307.48,M,-33.324,M,,*7E
2017-12-31 18:01:36 1514761296.821874: $GPRMC,230137,A,3946.9564,N,08404.9866,W,0.0000,0.000,311217,,*33
2017-12-31 18:01:36 1514761296.821935: $GPGSA,A,3,22,23,9,3,16,29,14,31,27,26,135,,1.7,0.6,1.3*06
2017-12-31 18:01:37 1514761297.373770: $GPZDA,230138.00,31,12,2017,00,00*68
2017-12-31 18:01:37 1514761297.373942: $GPGGA,230138,3946.9564,N,08404.9866,W,2,11,0.60,307.48,M,-33.324,M,,*71
2017-12-31 18:01:37 1514761297.374009: $GPRMC,230138,A,3946.9564,N,08404.9866,W,0.0000,0.000,311217,,*3C
2017-12-31 18:01:37 1514761297.374070: $GPGSA,A,3,22,23,9,3,16,29,14,31,27,26,135,,1.7,0.6,1.3*06
2017-12-31 18:01:38 1514761298.338843: $GPZDA,230139.00,31,12,2017,00,00*69
2017-12-31 18:01:38 1514761298.339011: $GPGGA,230139,3946.9564,N,08404.9866,W,2,11,0.60,307.48,M,-33.324,M,,*70
2017-12-31 18:01:38 1514761298.339078: $GPRMC,230139,A,3946.9564,N,08404.9866,W,0.0000,0.000,311217,,*3D
2017-12-31 18:01:38 1514761298.339154: $GPGSA,A,3,22,23,9,3,16,29,14,31,27,26,135,,1.7,0.6,1.3*06
2017-12-31 18:01:39 1514761299.709115: $GPGSV,3,1,11,22,26,217,42,23,50,307,42,09,16,312,38,03,35,238,44*72
2017-12-31 18:01:39 1514761299.709284: $GPGSV,3,2,11,16,76,192,43,29,07,033,35,14,19,130,36,31,31,072,37*72
2017-12-31 18:01:39 1514761299.709393: $GPGSV,3,3,11,27,18,156,36,26,66,054,49,135,22,240,44*7B
2017-12-31 18:01:39 1514761299.822751: $GPZDA,230140.00,31,12,2017,00,00*67
2017-12-31 18:01:39 1514761299.822888: $GPGGA,230140,3946.9564,N,08404.9866,W,2,11,0.60,307.48,M,-33.324,M,,*7E
2017-12-31 18:01:39 1514761299.822954: $GPRMC,230140,A,3946.9564,N,08404.9866,W,0.0000,0.000,311217,,*33
2017-12-31 18:01:39 1514761299.823015: $GPGSA,A,3,22,23,9,3,16,29,14,31,27,26,135,,1.7,0.6,1.3*06
2017-12-31 18:01:40 1514761300.448318: $GPZDA,230141.00,31,12,2017,00,00*66
2017-12-31 18:01:40 1514761300.448486: $GPGGA,230141,3946.9564,N,08404.9866,W,2,11,0.60,307.48,M,-33.324,M,,*7F
2017-12-31 18:01:40 1514761300.448552: $GPRMC,230141,A,3946.9564,N,08404.9866,W,0.0000,0.000,311217,,*32
2017-12-31 18:01:40 1514761300.448613: $GPGSA,A,3,22,23,9,3,16,29,14,31,27,26,135,,1.7,0.6,1.3*06
2017-12-31 18:01:41 1514761301.345246: $GPZDA,230142.00,31,12,2017,00,00*65
2017-12-31 18:01:41 1514761301.345417: $GPGGA,230142,3946.9564,N,08404.9866,W,2,11,0.60,307.48,M,-33.324,M,,*7C
2017-12-31 18:01:41 1514761301.345483: $GPRMC,230142,A,3946.9564,N,08404.9866,W,0.0000,0.000,311217,,*31
2017-12-31 18:01:41 1514761301.345544: $GPGSA,A,3,22,23,9,3,16,29,14,31,27,26,135,,1.7,0.6,1.3*06
