2017-12-01 15:41:13 1512160873.146711: {"class":"VERSION","release":"3.16","rev":"3.16-4","proto_major":3,"proto_minor":11}
2017-12-01 15:41:13 1512160873.147133: {"class":"DEVICES","devices":[{"class":"DEVICE","path":"/dev/ttyUSB0","driver":"SiRF","subtype":"9\u0006GSD4e_4.1.2-P1_RPATCH.05-F-GPS-4R-1510281 11/03/2015 307","activated":"2017-12-01T20:41:12.493Z","flags":1,"native":1,"bps":4800,"parity":"N","stopbits":1,"cycle":1.00}]}
2017-12-01 15:41:13 1512160873.147260: {"class":"WATCH","enable":true,"json":false,"nmea":true,"raw":0,"scaled":false,"timing":false,"split24":false,"pps":false}
2017-12-01 15:41:13 1512160873.355666: $GPZDA,204114.00,01,12,2017,00,00*62
2017-12-01 15:41:13 1512160873.355836: $GPGGA,204114,3946.9579,N,08404.9841,W,2,11,0.80,302.49,M,-33.324,M,,*7B
2017-12-01 15:41:13 1512160873.355903: $GPRMC,204114,A,3946.9579,N,08404.9841,W,0.0000,0.000,011217,,*3F
2017-12-01 15:41:13 1512160873.355964: $GPGSA,A,3,1,10,11,12,14,18,24,25,31,32,138,,2.0,0.8,1.5*3B
2017-12-01 15:41:14 1512160874.689399: $GPGSV,3,1,12,01,13,319,40,10,71,129,48,11,10,303,38,12,25,073,40*7B
2017-12-01 15:41:14 1512160874.689581: $GPGSV,3,2,12,14,53,289,42,18,39,133,47,24,15,045,45,25,28,117,42*72
2017-12-01 15:41:14 1512160874.689649: $GPGSV,3,3,12,31,33,211,49,32,67,325,49,22,01,310,00,138,38,213,46*4E
2017-12-01 15:41:14 1512160874.802871: $GPZDA,204115.00,01,12,2017,00,00*63
2017-12-01 15:41:14 1512160874.803036: $GPGGA,204115,3946.9579,N,08404.9841,W,2,11,0.80,302.49,M,-33.324,M,,*7A
2017-12-01 15:41:14 1512160874.803102: $GPRMC,204115,A,3946.9579,N,08404.9841,W,0.0000,0.000,011217,,*3E
2017-12-01 15:41:14 1512160874.803163: $GPGSA,A,3,1,10,11,12,14,18,24,25,31,32,138,,2.0,0.8,1.5*3B
2017-12-01 15:41:15 1512160875.354991: $GPZDA,204116.00,01,12,2017,00,00*60
2017-12-01 15:41:15 1512160875.355169: $GPGGA,204116,3946.9579,N,08404.9841,W,2,11,0.80,302.49,M,-33.324,M,,*79
2017-12-01 15:41:15 1512160875.355238: $GPRMC,204116,A,3946.9579,N,08404.9841,W,0.0000,0.000,011217,,*3D
2017-12-01 15:41:15 1512160875.355299: $GPGSA,A,3,1,10,11,12,14,18,24,25,31,32,138,,2.0,0.8,1.5*3B
2017-12-01 15:41:16 1512160876.354914: $GPZDA,204117.00,01,12,2017,00,00*61
2017-12-01 15:41:16 1512160876.355084: $GPGGA,204117,3946.9579,N,08404.9841,W,2,11,0.80,302.49,M,-33.324,M,,*78
2017-12-01 15:41:16 1512160876.355151: $GPRMC,204117,A,3946.9579,N,08404.9841,W,0.0000,0.000,011217,,*3C
2017-12-01 15:41:16 1512160876.355212: $GPGSA,A,3,1,10,11,12,14,18,24,25,31,32,138,,2.0,0.8,1.5*3B
2017-12-01 15:41:17 1512160877.706513: $GPGSV,3,1,12,01,13,319,38,10,71,129,48,11,10,303,38,12,25,073,39*7A
2017-12-01 15:41:17 1512160877.706695: $GPGSV,3,2,12,14,53,289,42,18,39,133,47,24,15,045,45,25,28,117,42*72
2017-12-01 15:41:17 1512160877.706762: $GPGSV,3,3,12,31,33,211,49,32,67,325,49,22,01,310,00,138,38,213,46*4E
2017-12-01 15:41:17 1512160877.820262: $GPZDA,204118.00,01,12,2017,00,00*6E
2017-12-01 15:41:17 1512160877.820430: $GPGGA,204118,3946.9579,N,08404.9841,W,2,11,0.80,302.49,M,-33.324,M,,*77
2017-12-01 15:41:17 1512160877.820497: $GPRMC,204118,A,3946.9579,N,08404.9841,W,0.0000,0.000,011217,,*33
2017-12-01 15:41:17 1512160877.820559: $GPGSA,A,3,1,10,11,12,14,18,24,25,31,32,138,,2.0,0.8,1.5*3B
2017-12-01 15:41:18 1512160878.370740: $GPZDA,204119.00,01,12,2017,00,00*6F
2017-12-01 15:41:18 1512160878.370924: $GPGGA,204119,3946.9579,N,08404.9841,W,2,11,0.80,302.49,M,-33.324,M,,*76
2017-12-01 15:41:18 1512160878.370992: $GPRMC,204119,A,3946.9579,N,08404.9841,W,0.0000,0.000,011217,,*32
2017-12-01 15:41:18 1512160878.371054: $GPGSA,A,3,1,10,11,12,14,18,24,25,31,32,138,,2.0,0.8,1.5*3B
2017-12-01 15:41:19 1512160879.373769: $GPZDA,204120.00,01,12,2017,00,00*65
2017-12-01 15:41:19 1512160879.373957: $GPGGA,204120,3946.9579,N,08404.9841,W,2,11,0.80,302.49,M,-33.324,M,,*7C
2017-12-01 15:41:19 1512160879.374048: $GPRMC,204120,A,3946.9579,N,08404.9841,W,0.0000,0.000,011217,,*38
2017-12-01 15:41:19 1512160879.374112: $GPGSA,A,3,1,10,11,12,14,18,24,25,31,32,138,,2.0,0.8,1.5*3B
2017-12-01 15:41:20 1512160880.708250: $GPGSV,3,1,12,01,13,319,37,10,71,129,48,11,10,303,39,12,25,073,38*75
2017-12-01 15:41:20 1512160880.708496: $GPGSV,3,2,12,14,53,289,41,18,39,133,47,24,15,045,45,25,28,117,41*72
2017-12-01 15:41:20 1512160880.708564: $GPGSV,3,3,12,31,33,211,49,32,67,325,48,22,01,310,00,138,38,213,46*4F
2017-12-01 15:41:20 1512160880.820547: $GPZDA,204121.00,01,12,2017,00,00*64
2017-12-01 15:41:20 1512160880.820699: $GPGGA,204121,3946.9579,N,08404.9841,W,2,11,0.80,302.49,M,-33.324,M,,*7D
2017-12-01 15:41:20 1512160880.820765: $GPRMC,204121,A,3946.9579,N,08404.9841,W,0.0000,0.000,011217,,*39
2017-12-01 15:41:20 1512160880.820827: $GPGSA,A,3,1,10,11,12,14,18,24,25,31,32,138,,2.0,0.8,1.5*3B
2017-12-01 15:41:21 1512160881.373984: $GPZDA,204122.00,01,12,2017,00,00*67
2017-12-01 15:41:21 1512160881.374152: $GPGGA,204122,3946.9579,N,08404.9841,W,2,11,0.80,302.49,M,-33.324,M,,*7E
2017-12-01 15:41:21 1512160881.374217: $GPRMC,204122,A,3946.9579,N,08404.9841,W,0.0000,0.000,011217,,*3A
2017-12-01 15:41:21 1512160881.374278: $GPGSA,A,3,1,10,11,12,14,18,24,25,31,32,138,,2.0,0.8,1.5*3B
2017-12-01 15:41:22 1512160882.357322: $GPZDA,204123.00,01,12,2017,00,00*66
2017-12-01 15:41:22 1512160882.357479: $GPGGA,204123,3946.9579,N,08404.9841,W,2,11,0.80,302.49,M,-33.324,M,,*7F
2017-12-01 15:41:22 1512160882.357546: $GPRMC,204123,A,3946.9579,N,08404.9841,W,0.0000,0.000,011217,,*3B
2017-12-01 15:41:22 1512160882.357607: $GPGSA,A,3,1,10,11,12,14,18,24,25,31,32,138,,2.0,0.8,1.5*3B
2017-12-01 15:41:23 1512160883.693971: $GPGSV,3,1,12,01,13,319,36,10,71,129,48,11,10,303,39,12,25,073,39*75
2017-12-01 15:41:23 1512160883.694155: $GPGSV,3,2,12,14,53,289,41,18,39,133,47,24,15,045,45,25,28,117,42*71
2017-12-01 15:41:23 1512160883.694224: $GPGSV,3,3,12,31,33,211,49,32,67,325,48,22,01,310,00,138,38,213,45*4C
2017-12-01 15:41:23 1512160883.807366: $GPZDA,204124.00,01,12,2017,00,00*61
2017-12-01 15:41:23 1512160883.807551: $GPGGA,204124,3946.9579,N,08404.9841,W,2,11,0.80,302.49,M,-33.324,M,,*78
2017-12-01 15:41:23 1512160883.807617: $GPRMC,204124,A,3946.9579,N,08404.9841,W,0.0000,0.000,011217,,*3C
2017-12-01 15:41:23 1512160883.807679: $GPGSA,A,3,1,10,11,12,14,18,24,25,31,32,138,,2.0,0.8,1.5*3B
2017-12-01 15:41:24 1512160884.433043: $GPZDA,204125.00,01,12,2017,00,00*60
2017-12-01 15:41:24 1512160884.433208: $GPGGA,204125,3946.9579,N,08404.9841,W,2,11,0.80,302.49,M,-33.324,M,,*79
2017-12-01 15:41:24 1512160884.433275: $GPRMC,204125,A,3946.9579,N,08404.9841,W,0.0000,0.000,011217,,*3D
2017-12-01 15:41:24 1512160884.433336: $GPGSA,A,3,1,10,11,12,14,18,24,25,31,32,138,,2.0,0.8,1.5*3B
2017-12-01 15:41:25 1512160885.353971: $GPZDA,204126.00,01,12,2017,00,00*63
2017-12-01 15:41:25 1512160885.354153: $GPGGA,204126,3946.9579,N,08404.9841,W,2,11,0.80,302.49,M,-33.324,M,,*7A
2017-12-01 15:41:25 1512160885.354220: $GPRMC,204126,A,3946.9579,N,08404.9841,W,0.0000,0.000,011217,,*3E
2017-12-01 15:41:25 1512160885.354282: $GPGSA,A,3,1,10,11,12,14,18,24,25,31,32,138,,2.0,0.8,1.5*3B
2017-12-01 15:41:26 1512160886.709384: $GPGSV,3,1,12,01,13,319,36,10,71,129,48,11,10,303,39,12,25,073,38*74
2017-12-01 15:41:26 1512160886.709566: $GPGSV,3,2,12,14,53,289,41,18,39,133,47,24,15,045,45,25,28,117,41*72
2017-12-01 15:41:26 1512160886.709633: $GPGSV,3,3,12,31,33,211,49,32,67,325,48,22,01,310,00,138,38,213,46*4F
2017-12-01 15:41:26 1512160886.822839: $GPZDA,204127.00,01,12,2017,00,00*62
2017-12-01 15:41:26 1512160886.823015: $GPGGA,204127,3946.9579,N,08404.9841,W,2,11,0.80,302.49,M,-33.324,M,,*7B
2017-12-01 15:41:26 1512160886.823082: $GPRMC,204127,A,3946.9579,N,08404.9841,W,0.0000,0.000,011217,,*3F
2017-12-01 15:41:26 1512160886.823144: $GPGSA,A,3,1,10,11,12,14,18,24,25,31,32,138,,2.0,0.8,1.5*3B
2017-12-01 15:41:27 1512160887.373663: $GPZDA,204128.00,01,12,2017,00,00*6D
2017-12-01 15:41:27 1512160887.373840: $GPGGA,204128,3946.9579,N,08404.9841,W,2,11,0.80,302.49,M,-33.324,M,,*74
2017-12-01 15:41:27 1512160887.373909: $GPRMC,204128,A,3946.9579,N,08404.9841,W,0.0000,0.000,011217,,*30
2017-12-01 15:41:27 1512160887.373971: $GPGSA,A,3,1,10,11,12,14,18,24,25,31,32,138,,2.0,0.8,1.5*3B
2017-12-01 15:41:28 1512160888.374826: $GPZDA,204129.00,01,12,2017,00,00*6C
2017-12-01 15:41:28 1512160888.375052: $GPGGA,204129,3946.9579,N,08404.9841,W,2,11,0.80,302.49,M,-33.324,M,,*75
2017-12-01 15:41:28 1512160888.375120: $GPRMC,204129,A,3946.9579,N,08404.9841,W,0.0000,0.000,011217,,*31
2017-12-01 15:41:28 1512160888.375181: $GPGSA,A,3,1,10,11,12,14,18,24,25,31,32,138,,2.0,0.8,1.5*3B
2017-12-01 15:41:29 1512160889.693444: $GPGSV,3,1,12,01,13,319,38,10,71,129,48,11,10,303,39,12,25,073,38*7A
2017-12-01 15:41:29 1512160889.693636: $GPGSV,3,2,12,14,53,289,41,18,39,133,47,24,15,045,45,25,28,117,41*72
2017-12-01 15:41:29 1512160889.693724: $GPGSV,3,3,12,31,33,211,50,32,67,325,48,22,01,310,00,138,38,213,46*47
2017-12-01 15:41:29 1512160889.806813: $GPZDA,204130.00,01,12,2017,00,00*64
2017-12-01 15:41:29 1512160889.806975: $GPGGA,204130,3946.9579,N,08404.9841,W,2,11,0.80,302.49,M,-33.324,M,,*7D
2017-12-01 15:41:29 1512160889.807041: $GPRMC,204130,A,3946.9579,N,08404.9841,W,0.0000,0.000,011217,,*39
2017-12-01 15:41:29 1512160889.807101: $GPGSA,A,3,1,10,11,12,14,18,24,25,31,32,138,,2.0,0.8,1.5*3B
2017-12-01 15:41:30 1512160890.375199: $GPZDA,204131.00,01,12,2017,00,00*65
2017-12-01 15:41:30 1512160890.375380: $GPGGA,204131,3946.9579,N,08404.9841,W,2,11,0.80,302.49,M,-33.324,M,,*7C
2017-12-01 15:41:30 1512160890.375451: $GPRMC,204131,A,3946.9579,N,08404.9841,W,0.0000,0.000,011217,,*38
2017-12-01 15:41:30 1512160890.375516: $GPGSA,A,3,1,10,11,12,14,18,24,25,31,32,138,,2.0,0.8,1.5*3B
2017-12-01 15:41:31 1512160891.358568: $GPZDA,204132.00,01,12,2017,00,00*66
2017-12-01 15:41:31 1512160891.358751: $GPGGA,204132,3946.9579,N,08404.9841,W,2,11,0.80,302.49,M,-33.324,M,,*7F
2017-12-01 15:41:31 1512160891.358824: $GPRMC,204132,A,3946.9579,N,08404.9841,W,0.0000,0.000,011217,,*3B
2017-12-01 15:41:31 1512160891.358889: $GPGSA,A,3,1,10,11,12,14,18,24,25,31,32,138,,2.0,0.8,1.5*3B
2017-12-01 15:41:32 1512160892.688059: $GPGSV,3,1,12,01,13,319,37,10,71,129,48,11,10,303,40,12,25,073,38*7B
2017-12-01 15:41:32 1512160892.688247: $GPGSV,3,2,12,14,53,289,42,18,39,133,47,24,15,045,45,25,28,117,41*71
2017-12-01 15:41:32 1512160892.688317: $GPGSV,3,3,12,31,33,211,49,32,67,325,48,22,01,310,00,138,38,213,45*4C
2017-12-01 15:41:32 1512160892.801825: $GPZDA,204133.00,01,12,2017,00,00*67
2017-12-01 15:41:32 1512160892.802005: $GPGGA,204133,3946.9579,N,08404.9841,W,2,11,0.80,302.49,M,-33.324,M,,*7E
2017-12-01 15:41:32 1512160892.802075: $GPRMC,204133,A,3946.9579,N,08404.9841,W,0.0000,0.000,011217,,*3A
2017-12-01 15:41:32 1512160892.802139: $GPGSA,A,3,1,10,11,12,14,18,24,25,31,32,138,,2.0,0.8,1.5*3B
