2017-11-15 19:34:00 1510792440.633850: {"class":"VERSION","release":"3.17","rev":"3.17","proto_major":3,"proto_minor":12}
2017-11-15 19:34:00 1510792440.634338: {"class":"DEVICES","devices":[{"class":"DEVICE","path":"/dev/ttyUSB0","driver":"SiRF","subtype":"9\u0006GSD4e_4.1.2-P1_RPATCH.05-F-GPS-4R-1510281 11/03/2015 307","activated":"2017-11-16T00:34:00.232Z","flags":1,"native":1,"bps":4800,"parity":"N","stopbits":1,"cycle":1.00}]}
2017-11-15 19:34:00 1510792440.634456: {"class":"WATCH","enable":true,"json":false,"nmea":true,"raw":0,"scaled":false,"timing":false,"split24":false,"pps":false}
2017-11-15 19:34:00 1510792440.681387: $GPGSV,3,1,11,32,35,109,22,14,54,094,22,16,24,190,18,26,55,172,08*75
2017-11-15 19:34:00 1510792440.681541: $GPGSV,3,2,11,29,11,070,15,31,66,027,10,03,40,297,20,25,16,039,00*75
2017-11-15 19:34:00 1510792440.681600: $GPGSV,3,3,11,23,12,301,00,01,05,252,00,22,50,268,16*46
2017-11-15 19:34:00 1510792440.794687: $GPZDA,003359.00,16,11,2017,00,00*69
2017-11-15 19:34:00 1510792440.794866: $GPGGA,003359,3946.9593,N,08404.9465,W,1,08,1.00,288.38,M,-33.324,M,,*7C
2017-11-15 19:34:00 1510792440.794930: $GPRMC,003359,A,3946.9593,N,08404.9465,W,1.7180,100.020,161117,,*36
2017-11-15 19:34:00 1510792440.794988: $GPGSA,A,3,32,14,16,26,29,31,3,22,,,,,3.4,1.0,2.9*02
2017-11-15 19:34:01 1510792441.420175: $GPZDA,003400.00,16,11,2017,00,00*62
2017-11-15 19:34:01 1510792441.420334: $GPGGA,003400,3946.9593,N,08404.9458,W,1,08,1.00,288.45,M,-33.324,M,,*73
2017-11-15 19:34:01 1510792441.420395: $GPRMC,003400,A,3946.9593,N,08404.9458,W,0.9988,104.546,161117,,*3D
2017-11-15 19:34:01 1510792441.420452: $GPGSA,A,3,32,14,16,26,29,31,3,22,,,,,3.4,1.0,2.9*02
2017-11-15 19:34:02 1510792442.328530: $GPZDA,003401.00,16,11,2017,00,00*63
2017-11-15 19:34:02 1510792442.328697: $GPGGA,003401,3946.9593,N,08404.9458,W,1,08,1.00,288.45,M,-33.324,M,,*72
2017-11-15 19:34:02 1510792442.328757: $GPRMC,003401,A,3946.9593,N,08404.9458,W,0.8011,119.090,161117,,*36
2017-11-15 19:34:02 1510792442.328830: $GPGSA,A,3,32,14,16,26,29,31,3,22,,,,,3.4,1.0,2.9*02
2017-11-15 19:34:03 1510792443.681714: $GPGSV,3,1,11,32,35,109,22,14,54,094,22,16,24,190,18,26,55,172,07*7A
2017-11-15 19:34:03 1510792443.681881: $GPGSV,3,2,11,29,11,070,16,31,66,027,09,03,40,297,20,25,16,039,00*7E
2017-11-15 19:34:03 1510792443.681962: $GPGSV,3,3,11,23,12,301,00,01,05,252,00,22,50,268,16*46
2017-11-15 19:34:03 1510792443.795147: $GPZDA,003402.00,16,11,2017,00,00*60
2017-11-15 19:34:03 1510792443.795325: $GPGGA,003402,3946.9593,N,08404.9451,W,1,08,1.00,288.53,M,-33.324,M,,*7F
2017-11-15 19:34:03 1510792443.795386: $GPRMC,003402,A,3946.9593,N,08404.9451,W,1.1124,122.165,161117,,*30
2017-11-15 19:34:03 1510792443.795443: $GPGSA,A,3,32,14,16,26,29,31,3,22,,,,,3.4,1.0,2.9*02
2017-11-15 19:34:04 1510792444.346075: $GPZDA,003403.00,16,11,2017,00,00*61
2017-11-15 19:34:04 1510792444.346240: $GPGGA,003403,3946.9593,N,08404.9451,W,1,08,1.00,288.53,M,-33.324,M,,*7E
2017-11-15 19:34:04 1510792444.346302: $GPRMC,003403,A,3946.9593,N,08404.9451,W,0.9689,93.794,161117,,*0B
2017-11-15 19:34:04 1510792444.346358: $GPGSA,A,3,32,14,16,26,29,31,3,22,,,,,3.4,1.0,2.9*02
2017-11-15 19:34:05 1510792445.329323: $GPZDA,003404.00,16,11,2017,00,00*66
2017-11-15 19:34:05 1510792445.622484: $GPGGA,003404,3946.9592,N,08404.9445,W,1,08,1.00,288.61,M,-33.324,M,,*7C
2017-11-15 19:34:05 1510792445.622655: $GPRMC,003404,A,3946.9592,N,08404.9445,W,0.5075,72.257,161117,,*04
2017-11-15 19:34:05 1510792445.622717: $GPGSA,A,3,32,14,16,26,29,31,3,22,,,,,3.4,1.0,2.9*02
2017-11-15 19:34:06 1510792446.682103: $GPGSV,3,1,11,32,35,109,21,14,54,094,22,16,24,190,18,26,55,172,07*79
2017-11-15 19:34:06 1510792446.682277: $GPGSV,3,2,11,29,11,070,16,31,66,027,04,03,40,297,20,25,16,039,00*73
2017-11-15 19:34:06 1510792446.682356: $GPGSV,3,3,11,23,12,301,00,01,05,252,00,22,50,268,16*46
2017-11-15 19:34:06 1510792446.798483: $GPZDA,003405.00,16,11,2017,00,00*67
2017-11-15 19:34:06 1510792446.798665: $GPGGA,003405,3946.9592,N,08404.9445,W,1,07,1.00,288.61,M,-33.324,M,,*72
2017-11-15 19:34:06 1510792446.798726: $GPRMC,003405,A,3946.9592,N,08404.9445,W,0.3423,4.197,161117,,*3A
2017-11-15 19:34:06 1510792446.798830: $GPGSA,A,3,32,14,16,26,29,3,22,,,,,,3.4,1.0,2.9*00
2017-11-15 19:34:07 1510792447.346473: $GPZDA,003406.00,16,11,2017,00,00*64
2017-11-15 19:34:07 1510792447.346644: $GPGGA,003406,3946.9597,N,08404.9445,W,1,07,1.00,289.25,M,-33.324,M,,*75
2017-11-15 19:34:07 1510792447.346762: $GPRMC,003406,A,3946.9597,N,08404.9445,W,0.3423,4.197,161117,,*3C
2017-11-15 19:34:07 1510792447.346826: $GPGSA,A,3,32,14,16,26,29,3,22,,,,,,3.4,1.0,2.9*00
2017-11-15 19:34:08 1510792448.347934: $GPZDA,003407.00,16,11,2017,00,00*65
2017-11-15 19:34:08 1510792448.348130: $GPGGA,003407,3946.9597,N,08404.9445,W,1,07,1.00,289.25,M,-33.324,M,,*74
2017-11-15 19:34:08 1510792448.348199: $GPRMC,003407,A,3946.9597,N,08404.9445,W,0.3423,4.197,161117,,*3D
2017-11-15 19:34:08 1510792448.348279: $GPGSA,A,3,32,14,16,26,29,3,22,,,,,,3.4,1.0,2.9*00
2017-11-15 19:34:09 1510792449.665554: $GPGSV,3,1,11,32,35,109,21,14,54,094,22,16,24,190,18,26,55,172,09*77
2017-11-15 19:34:09 1510792449.665756: $GPGSV,3,2,11,29,11,070,15,31,66,027,04,03,40,297,20,25,16,039,00*70
2017-11-15 19:34:09 1510792449.669265: $GPGSV,3,3,11,23,12,301,00,01,05,252,00,22,50,268,16*46
2017-11-15 19:34:09 1510792449.778885: $GPZDA,003408.00,16,11,2017,00,00*6A
2017-11-15 19:34:09 1510792449.779055: $GPGGA,003408,3946.9600,N,08404.9444,W,1,07,1.00,288.49,M,-33.324,M,,*7C
2017-11-15 19:34:09 1510792449.779116: $GPRMC,003408,A,3946.9600,N,08404.9444,W,0.7278,23.636,161117,,*0B
2017-11-15 19:34:09 1510792449.779174: $GPGSA,A,3,32,14,16,26,29,3,22,,,,,,3.4,1.0,2.9*00
2017-11-15 19:34:10 1510792450.329673: $GPZDA,003409.00,16,11,2017,00,00*6B
2017-11-15 19:34:10 1510792450.329832: $GPGGA,003409,3946.9600,N,08404.9444,W,1,07,1.00,288.49,M,-33.324,M,,*7D
2017-11-15 19:34:10 1510792450.329895: $GPRMC,003409,A,3946.9600,N,08404.9444,W,0.4207,39.347,161117,,*09
2017-11-15 19:34:10 1510792450.329952: $GPGSA,A,3,32,14,16,26,29,3,22,,,,,,3.4,1.0,2.9*00
