2017-11-16 16:48:37 1510868917.070656: {"class":"VERSION","release":"3.17","rev":"3.17","proto_major":3,"proto_minor":12}
2017-11-16 16:48:37 1510868917.071138: {"class":"DEVICES","devices":[{"class":"DEVICE","path":"/dev/ttyUSB0","driver":"SiRF","subtype":"9\u0006GSD4e_4.1.2-P1_RPATCH.05-F-GPS-4R-1510281 11/03/2015 307","activated":"2017-11-16T21:48:36.663Z","flags":1,"native":1,"bps":4800,"parity":"N","stopbits":1,"cycle":1.00}]}
2017-11-16 16:48:37 1510868917.071261: {"class":"WATCH","enable":true,"json":false,"nmea":true,"raw":0,"scaled":false,"timing":false,"split24":false,"pps":false}
2017-11-16 16:48:37 1510868917.463869: $GPZDA,214836.00,16,11,2017,00,00*6F
2017-11-16 16:48:37 1510868917.464024: $GPGGA,214836,3946.9577,N,08404.9823,W,2,12,0.80,307.71,M,-33.324,M,,*74
2017-11-16 16:48:37 1510868917.464085: $GPRMC,214836,A,3946.9577,N,08404.9823,W,0.0000,0.000,161117,,*38
2017-11-16 16:48:37 1510868917.464140: $GPGSA,A,3,1,10,11,12,14,18,24,25,31,32,22,138,1.6,0.8,1.3*38
2017-11-16 16:48:38 1510868918.782955: $GPGSV,3,1,12,01,14,318,36,10,70,132,49,11,11,301,33,12,25,072,46*79
2017-11-16 16:48:38 1510868918.783123: $GPGSV,3,2,12,14,55,292,44,18,38,135,44,24,14,045,42,25,29,114,43*79
2017-11-16 16:48:38 1510868918.783184: $GPGSV,3,3,12,31,34,211,46,32,68,328,50,22,02,310,31,138,38,213,44*4F
2017-11-16 16:48:38 1510868918.896274: $GPZDA,214837.00,16,11,2017,00,00*6E
2017-11-16 16:48:38 1510868918.896402: $GPGGA,214837,3946.9577,N,08404.9823,W,2,12,0.80,307.71,M,-33.324,M,,*75
2017-11-16 16:48:38 1510868918.896462: $GPRMC,214837,A,3946.9577,N,08404.9823,W,0.0000,0.000,161117,,*39
2017-11-16 16:48:38 1510868918.896518: $GPGSA,A,3,1,10,11,12,14,18,24,25,31,32,22,138,1.6,0.8,1.3*38
2017-11-16 16:48:39 1510868919.458823: $GPZDA,214838.00,16,11,2017,00,00*61
2017-11-16 16:48:39 1510868919.458978: $GPGGA,214838,3946.9580,N,08404.9822,W,2,12,0.80,306.94,M,-33.324,M,,*79
2017-11-16 16:48:39 1510868919.459039: $GPRMC,214838,A,3946.9580,N,08404.9822,W,0.0000,0.000,161117,,*3F
2017-11-16 16:48:39 1510868919.459095: $GPGSA,A,3,1,10,11,12,14,18,24,25,31,32,22,138,1.6,0.8,1.3*38
2017-11-16 16:48:40 1510868920.464586: $GPZDA,214839.00,16,11,2017,00,00*60
2017-11-16 16:48:40 1510868920.464757: $GPGGA,214839,3946.9580,N,08404.9822,W,2,12,0.80,306.94,M,-33.324,M,,*78
2017-11-16 16:48:40 1510868920.464818: $GPRMC,214839,A,3946.9580,N,08404.9822,W,0.0000,0.000,161117,,*3E
2017-11-16 16:48:40 1510868920.464874: $GPGSA,A,3,1,10,11,12,14,18,24,25,31,32,22,138,1.6,0.8,1.3*38
2017-11-16 16:48:41 1510868921.783199: $GPGSV,3,1,12,01,14,318,31,10,70,132,49,11,11,301,31,12,25,072,46*7C
2017-11-16 16:48:41 1510868921.783342: $GPGSV,3,2,12,14,55,292,44,18,38,135,44,24,14,045,42,25,29,114,43*79
2017-11-16 16:48:41 1510868921.783402: $GPGSV,3,3,12,31,34,211,45,32,68,328,50,22,02,310,31,138,38,213,44*4C
2017-11-16 16:48:41 1510868921.896502: $GPZDA,214840.00,16,11,2017,00,00*6E
2017-11-16 16:48:41 1510868921.896649: $GPGGA,214840,3946.9580,N,08404.9822,W,2,12,0.80,306.94,M,-33.324,M,,*76
2017-11-16 16:48:41 1510868921.896711: $GPRMC,214840,A,3946.9580,N,08404.9822,W,0.0000,0.000,161117,,*30
2017-11-16 16:48:41 1510868921.896767: $GPGSA,A,3,1,10,11,12,14,18,24,25,31,32,22,138,1.6,0.8,1.3*38
2017-11-16 16:48:42 1510868922.466289: $GPZDA,214841.00,16,11,2017,00,00*6F
2017-11-16 16:48:42 1510868922.466480: $GPGGA,214841,3946.9580,N,08404.9822,W,2,12,0.80,306.94,M,-33.324,M,,*77
2017-11-16 16:48:42 1510868922.466546: $GPRMC,214841,A,3946.9580,N,08404.9822,W,0.0000,0.000,161117,,*31
2017-11-16 16:48:42 1510868922.466621: $GPGSA,A,3,1,10,11,12,14,18,24,25,31,32,22,138,1.6,0.8,1.3*38
2017-11-16 16:48:43 1510868923.448240: $GPZDA,214842.00,16,11,2017,00,00*6C
2017-11-16 16:48:43 1510868923.448403: $GPGGA,214842,3946.9580,N,08404.9822,W,2,12,0.80,306.94,M,-33.324,M,,*74
2017-11-16 16:48:43 1510868923.448483: $GPRMC,214842,A,3946.9580,N,08404.9822,W,0.0000,0.000,161117,,*32
2017-11-16 16:48:43 1510868923.448539: $GPGSA,A,3,1,10,11,12,14,18,24,25,31,32,22,138,1.6,0.8,1.3*38
2017-11-16 16:48:44 1510868924.778970: $GPGSV,3,1,12,01,14,318,32,10,70,132,49,11,11,301,31,12,25,072,46*7F
2017-11-16 16:48:44 1510868924.779184: $GPGSV,3,2,12,14,55,292,44,18,38,135,44,24,14,045,41,25,29,114,44*7D
2017-11-16 16:48:44 1510868924.779247: $GPGSV,3,3,12,31,34,211,45,32,68,328,50,22,02,310,31,138,38,213,44*4C
2017-11-16 16:48:44 1510868924.892269: $GPZDA,214843.00,16,11,2017,00,00*6D
2017-11-16 16:48:44 1510868924.892419: $GPGGA,214843,3946.9580,N,08404.9822,W,2,12,0.80,306.94,M,-33.324,M,,*75
2017-11-16 16:48:44 1510868924.892481: $GPRMC,214843,A,3946.9580,N,08404.9822,W,0.0000,0.000,161117,,*33
2017-11-16 16:48:44 1510868924.892553: $GPGSA,A,3,1,10,11,12,14,18,24,25,31,32,22,138,1.6,0.8,1.3*38
2017-11-16 16:48:45 1510868925.458146: $GPZDA,214844.00,16,11,2017,00,00*6A
2017-11-16 16:48:45 1510868925.458287: $GPGGA,214844,3946.9580,N,08404.9822,W,2,12,0.80,306.94,M,-33.324,M,,*72
2017-11-16 16:48:45 1510868925.458365: $GPRMC,214844,A,3946.9580,N,08404.9822,W,0.0000,0.000,161117,,*34
2017-11-16 16:48:45 1510868925.458423: $GPGSA,A,3,1,10,11,12,14,18,24,25,31,32,22,138,1.6,0.8,1.3*38
2017-11-16 16:48:46 1510868926.463491: $GPZDA,214845.00,16,11,2017,00,00*6B
2017-11-16 16:48:46 1510868926.463643: $GPGGA,214845,3946.9580,N,08404.9822,W,2,12,0.80,306.94,M,-33.324,M,,*73
2017-11-16 16:48:46 1510868926.463704: $GPRMC,214845,A,3946.9580,N,08404.9822,W,0.0000,0.000,161117,,*35
2017-11-16 16:48:46 1510868926.463760: $GPGSA,A,3,1,10,11,12,14,18,24,25,31,32,22,138,1.6,0.8,1.3*38
