2017-12-14 12:15:10 1513271710.112588: {"class":"VERSION","release":"3.16","rev":"3.16-4","proto_major":3,"proto_minor":11}
2017-12-14 12:15:10 1513271710.112995: {"class":"DEVICES","devices":[{"class":"DEVICE","path":"/dev/ttyUSB0","driver":"SiRF","subtype":"9\u0006GSD4e_4.1.2-P1_RPATCH.05-F-GPS-4R-1510281 11/03/2015 307","activated":"2017-12-14T17:15:09.322Z","flags":1,"native":1,"bps":4800,"parity":"N","stopbits":1,"cycle":1.00}]}
2017-12-14 12:15:10 1513271710.113108: {"class":"WATCH","enable":true,"json":false,"nmea":true,"raw":0,"scaled":false,"timing":false,"split24":false,"pps":false}
2017-12-14 12:15:10 1513271710.538297: $GPGSV,3,1,12,24,50,112,29,10,40,300,21,18,70,334,02,20,35,094,21*75
2017-12-14 12:15:10 1513271710.538452: $GPGSV,3,2,12,27,19,291,14,32,20,237,18,21,64,189,27,15,39,052,23*79
2017-12-14 12:15:10 1513271710.538516: $GPGSV,3,3,12,13,09,048,00,08,05,324,00,14,02,231,00,120,07,103,00*44
2017-12-14 12:15:10 1513271710.651745: $GPZDA,171511.00,14,12,2017,00,00*66
2017-12-14 12:15:10 1513271710.651932: $GPGGA,171511,3946.9538,N,08404.9444,W,1,07,1.40,392.82,M,-33.324,M,,*70
2017-12-14 12:15:10 1513271710.651998: $GPRMC,171511,A,3946.9538,N,08404.9444,W,0.3423,4.197,141217,,*3A
2017-12-14 12:15:10 1513271710.652143: $GPGSA,A,3,24,10,20,27,32,21,15,,,,,,6.6,1.4,6.2*35
2017-12-14 12:15:11 1513271711.198842: $GPZDA,171512.00,14,12,2017,00,00*65
2017-12-14 12:15:11 1513271711.199025: $GPGGA,171512,3946.9538,N,08404.9444,W,1,07,1.40,392.82,M,-33.324,M,,*73
2017-12-14 12:15:11 1513271711.199090: $GPRMC,171512,A,3946.9538,N,08404.9444,W,0.4207,39.347,141217,,*0F
2017-12-14 12:15:11 1513271711.199151: $GPGSA,A,3,24,10,20,27,32,21,15,,,,,,6.6,1.4,6.2*35
2017-12-14 12:15:12 1513271712.197741: $GPZDA,171513.00,14,12,2017,00,00*64
2017-12-14 12:15:12 1513271712.197998: $GPGGA,171513,3946.9538,N,08404.9437,W,1,07,1.40,392.89,M,-33.324,M,,*7D
2017-12-14 12:15:12 1513271712.198070: $GPRMC,171513,A,3946.9538,N,08404.9437,W,0.4207,39.347,141217,,*0A
2017-12-14 12:15:12 1513271712.198131: $GPGSA,A,3,24,10,20,27,32,21,15,,,,,,6.6,1.4,6.2*35
2017-12-14 12:15:13 1513271713.535257: $GPGSV,3,1,12,24,50,112,29,10,40,300,21,18,70,334,00,20,35,094,21*77
2017-12-14 12:15:13 1513271713.535541: $GPGSV,3,2,12,27,19,291,13,32,20,237,18,21,64,189,27,15,39,052,23*7E
2017-12-14 12:15:13 1513271713.535665: $GPGSV,3,3,12,13,09,048,00,08,05,324,00,14,02,231,00,120,07,103,00*44
2017-12-14 12:15:13 1513271713.648558: $GPZDA,171514.00,14,12,2017,00,00*63
2017-12-14 12:15:13 1513271713.648738: $GPGGA,171514,3946.9538,N,08404.9437,W,1,07,1.40,392.89,M,-33.324,M,,*7A
2017-12-14 12:15:13 1513271713.648806: $GPRMC,171514,A,3946.9538,N,08404.9437,W,0.5951,58.684,141217,,*09
2017-12-14 12:15:13 1513271713.648883: $GPGSA,A,3,24,10,20,27,32,21,15,,,,,,6.6,1.4,6.2*35
2017-12-14 12:15:14 1513271714.198750: $GPZDA,171515.00,14,12,2017,00,00*62
2017-12-14 12:15:14 1513271714.198934: $GPGGA,171515,3946.9538,N,08404.9437,W,1,07,1.40,392.89,M,-33.324,M,,*7B
2017-12-14 12:15:14 1513271714.199000: $GPRMC,171515,A,3946.9538,N,08404.9437,W,0.7621,107.945,141217,,*3B
2017-12-14 12:15:14 1513271714.199061: $GPGSA,A,3,24,10,20,27,32,21,15,,,,,,6.6,1.4,6.2*35
2017-12-14 12:15:15 1513271715.197690: $GPZDA,171516.00,14,12,2017,00,00*61
2017-12-14 12:15:15 1513271715.197894: $GPGGA,171516,3946.9538,N,08404.9430,W,1,07,1.40,392.97,M,-33.324,M,,*70
2017-12-14 12:15:15 1513271715.197961: $GPRMC,171516,A,3946.9538,N,08404.9430,W,0.7267,93.795,141217,,*06
2017-12-14 12:15:15 1513271715.198021: $GPGSA,A,3,24,10,20,27,32,21,15,,,,,,6.6,1.4,6.2*35
2017-12-14 12:15:16 1513271716.517022: $GPGSV,3,1,12,24,50,112,29,10,40,300,21,18,70,334,00,20,35,094,21*77
2017-12-14 12:15:16 1513271716.517209: $GPGSV,3,2,12,27,19,291,13,32,20,237,18,21,64,189,28,15,39,052,24*76
2017-12-14 12:15:16 1513271716.517275: $GPGSV,3,3,12,13,09,048,00,08,05,324,00,14,02,231,00,120,07,103,00*44
2017-12-14 12:15:16 1513271716.630715: $GPZDA,171517.00,14,12,2017,00,00*60
2017-12-14 12:15:16 1513271716.630923: $GPGGA,171517,3946.9538,N,08404.9430,W,1,07,1.40,392.97,M,-33.324,M,,*71
2017-12-14 12:15:16 1513271716.631047: $GPRMC,171517,A,3946.9538,N,08404.9430,W,0.2422,93.795,141217,,*05
2017-12-14 12:15:16 1513271716.631110: $GPGSA,A,3,24,10,20,27,32,21,15,,,,,,6.6,1.4,6.2*35
2017-12-14 12:15:17 1513271717.198077: $GPZDA,171518.00,14,12,2017,00,00*6F
2017-12-14 12:15:17 1513271717.198249: $GPGGA,171518,3946.9538,N,08404.9430,W,1,07,1.40,392.97,M,-33.324,M,,*7E
2017-12-14 12:15:17 1513271717.198315: $GPRMC,171518,A,3946.9538,N,08404.9430,W,0.3423,4.197,141217,,*30
2017-12-14 12:15:17 1513271717.198376: $GPGSA,A,3,24,10,20,27,32,21,15,,,,,,6.6,1.4,6.2*35
2017-12-14 12:15:18 1513271718.198426: $GPZDA,171519.00,14,12,2017,00,00*6E
2017-12-14 12:15:18 1513271718.198594: $GPGGA,171519,3946.9538,N,08404.9430,W,1,07,1.40,392.97,M,-33.324,M,,*7F
2017-12-14 12:15:18 1513271718.198660: $GPRMC,171519,A,3946.9538,N,08404.9430,W,0.0000,0.000,141217,,*3C
2017-12-14 12:15:18 1513271718.198743: $GPGSA,A,3,24,10,20,27,32,21,15,,,,,,6.6,1.4,6.2*35
2017-12-14 12:15:19 1513271719.534410: $GPGSV,3,1,12,24,50,112,28,10,40,300,21,18,70,334,00,20,35,094,21*76
2017-12-14 12:15:19 1513271719.534583: $GPGSV,3,2,12,27,19,291,13,32,20,237,18,21,64,189,28,15,39,052,24*76
2017-12-14 12:15:19 1513271719.534647: $GPGSV,3,3,12,13,09,048,00,08,05,324,00,14,02,231,00,120,07,103,00*44
2017-12-14 12:15:19 1513271719.648062: $GPZDA,171520.00,14,12,2017,00,00*64
2017-12-14 12:15:19 1513271719.648222: $GPGGA,171520,3946.9534,N,08404.9431,W,1,07,1.40,393.74,M,-33.324,M,,*74
2017-12-14 12:15:19 1513271719.648286: $GPRMC,171520,A,3946.9534,N,08404.9431,W,0.3423,184.197,141217,,*3F
2017-12-14 12:15:19 1513271719.648346: $GPGSA,A,3,24,10,20,27,32,21,15,,,,,,6.6,1.4,6.2*35
2017-12-14 12:15:20 1513271720.181742: $GPZDA,171521.00,14,12,2017,00,00*65
2017-12-14 12:15:20 1513271720.181940: $GPGGA,171521,3946.9530,N,08404.9438,W,1,07,1.40,393.02,M,-33.324,M,,*79
2017-12-14 12:15:20 1513271720.182007: $GPRMC,171521,A,3946.9530,N,08404.9438,W,0.7278,203.636,141217,,*3F
2017-12-14 12:15:20 1513271720.182130: $GPGSA,A,3,24,10,20,27,32,21,15,,,,,,6.6,1.4,6.2*35
2017-12-14 12:15:21 1513271721.181315: $GPZDA,171522.00,14,12,2017,00,00*66
2017-12-14 12:15:21 1513271721.181522: $GPGGA,171522,3946.9530,N,08404.9438,W,1,07,1.40,393.02,M,-33.324,M,,*7A
2017-12-14 12:15:21 1513271721.181590: $GPRMC,171522,A,3946.9530,N,08404.9438,W,0.4844,273.794,141217,,*34
2017-12-14 12:15:21 1513271721.181652: $GPGSA,A,3,24,10,20,27,32,21,15,,,,,,6.6,1.4,6.2*35
2017-12-14 12:15:22 1513271722.517498: $GPGSV,3,1,12,24,50,112,28,10,40,300,20,18,70,334,00,20,35,094,22*74
2017-12-14 12:15:22 1513271722.517696: $GPGSV,3,2,12,27,19,291,13,32,20,237,18,21,64,189,28,15,39,052,24*76
2017-12-14 12:15:22 1513271722.517762: $GPGSV,3,3,12,13,09,048,00,08,05,324,00,14,02,231,00,120,07,103,00*44
2017-12-14 12:15:22 1513271722.630867: $GPZDA,171523.00,14,12,2017,00,00*67
2017-12-14 12:15:22 1513271722.631000: $GPGGA,171523,3946.9530,N,08404.9438,W,1,07,1.40,393.02,M,-33.324,M,,*7B
2017-12-14 12:15:22 1513271722.631064: $GPRMC,171523,A,3946.9530,N,08404.9438,W,0.4207,39.347,141217,,*0E
2017-12-14 12:15:22 1513271722.631124: $GPGSA,A,3,24,10,20,27,32,21,15,,,,,,6.6,1.4,6.2*35
2017-12-14 12:15:23 1513271723.181121: $GPZDA,171524.00,14,12,2017,00,00*60
2017-12-14 12:15:23 1513271723.181289: $GPGGA,171524,3946.9534,N,08404.9431,W,1,07,1.40,393.74,M,-33.324,M,,*70
2017-12-14 12:15:23 1513271723.181353: $GPRMC,171524,A,3946.9534,N,08404.9431,W,0.8953,59.978,141217,,*02
2017-12-14 12:15:23 1513271723.181413: $GPGSA,A,3,24,10,20,27,32,21,15,,,,,,6.6,1.4,6.2*35
2017-12-14 12:15:24 1513271724.181145: $GPZDA,171525.00,14,12,2017,00,00*61
2017-12-14 12:15:24 1513271724.181338: $GPGGA,171525,3946.9538,N,08404.9430,W,1,07,1.40,392.97,M,-33.324,M,,*70
2017-12-14 12:15:24 1513271724.181405: $GPRMC,171525,A,3946.9538,N,08404.9430,W,1.0018,50.691,141217,,*00
2017-12-14 12:15:24 1513271724.181465: $GPGSA,A,3,24,10,20,27,32,21,15,,,,,,6.6,1.4,6.2*35
2017-12-14 12:15:25 1513271725.517361: $GPGSV,3,1,12,24,50,112,28,10,40,300,20,18,70,334,12,20,35,094,22*77
2017-12-14 12:15:25 1513271725.517521: $GPGSV,3,2,12,27,19,291,13,32,20,237,18,21,64,189,28,15,39,052,24*76
2017-12-14 12:15:25 1513271725.517628: $GPGSV,3,3,12,13,09,048,00,08,05,324,00,14,02,231,00,120,07,103,00*44
2017-12-14 12:15:25 1513271725.630729: $GPZDA,171526.00,14,12,2017,00,00*62
2017-12-14 12:15:25 1513271725.630913: $GPGGA,171526,3946.9538,N,08404.9430,W,1,07,1.40,392.97,M,-33.324,M,,*73
2017-12-14 12:15:25 1513271725.630979: $GPRMC,171526,A,3946.9538,N,08404.9430,W,1.4167,47.342,141217,,*03
2017-12-14 12:15:25 1513271725.631039: $GPGSA,A,3,24,10,20,27,32,21,15,,,,,,6.6,1.4,6.2*35
2017-12-14 12:15:26 1513271726.181707: $GPZDA,171527.00,14,12,2017,00,00*63
2017-12-14 12:15:26 1513271726.181889: $GPGGA,171527,3946.9538,N,08404.9430,W,1,07,1.40,392.97,M,-33.324,M,,*72
2017-12-14 12:15:26 1513271726.181957: $GPRMC,171527,A,3946.9538,N,08404.9430,W,0.8414,39.347,141217,,*02
2017-12-14 12:15:26 1513271726.182017: $GPGSA,A,3,24,10,20,27,32,21,15,,,,,,6.6,1.4,6.2*35
2017-12-14 12:15:27 1513271727.179310: $GPZDA,171528.00,14,12,2017,00,00*6C
2017-12-14 12:15:27 1513271727.179478: $GPGGA,171528,3946.9537,N,08404.9423,W,1,07,1.40,393.05,M,-33.324,M,,*7A
2017-12-14 12:15:27 1513271727.179545: $GPRMC,171528,A,3946.9537,N,08404.9423,W,0.8054,68.645,141217,,*03
2017-12-14 12:15:27 1513271727.179606: $GPGSA,A,3,24,10,20,27,32,21,15,,,,,,6.6,1.4,6.2*35
2017-12-14 12:15:28 1513271728.515508: $GPGSV,3,1,12,24,50,112,27,10,40,300,20,18,70,334,00,20,35,094,22*7B
2017-12-14 12:15:28 1513271728.515716: $GPGSV,3,2,12,27,19,291,13,32,20,237,18,21,64,189,28,15,39,052,24*76
2017-12-14 12:15:28 1513271728.515788: $GPGSV,3,3,12,13,09,048,00,08,05,324,00,14,02,231,00,120,07,103,00*44
2017-12-14 12:15:28 1513271728.628868: $GPZDA,171529.00,14,12,2017,00,00*6D
2017-12-14 12:15:28 1513271728.629041: $GPGGA,171529,3946.9542,N,08404.9423,W,1,07,1.40,393.69,M,-33.324,M,,*73
2017-12-14 12:15:28 1513271728.629105: $GPRMC,171529,A,3946.9542,N,08404.9423,W,0.7278,23.636,141217,,*08
2017-12-14 12:15:28 1513271728.629166: $GPGSA,A,3,24,10,20,27,32,21,15,,,,,,6.6,1.4,6.2*35
2017-12-14 12:15:29 1513271729.180201: $GPZDA,171530.00,14,12,2017,00,00*65
2017-12-14 12:15:29 1513271729.181933: $GPGGA,171530,3946.9542,N,08404.9423,W,1,07,1.40,393.69,M,-33.324,M,,*7B
2017-12-14 12:15:29 1513271729.182039: $GPRMC,171530,A,3946.9542,N,08404.9423,W,0.5951,58.684,141217,,*07
2017-12-14 12:15:29 1513271729.182170: $GPGSA,A,3,24,10,20,27,32,21,15,,,,,,6.6,1.4,6.2*35
