2017-11-15 19:37:32 1510792652.517950: {"class":"VERSION","release":"3.17","rev":"3.17","proto_major":3,"proto_minor":12}
2017-11-15 19:37:32 1510792652.518549: {"class":"DEVICES","devices":[{"class":"DEVICE","path":"/dev/ttyUSB0","driver":"SiRF","subtype":"9\u0006GSD4e_4.1.2-P1_RPATCH.05-F-GPS-4R-1510281 11/03/2015 307","activated":"2017-11-16T00:37:32.487Z","flags":1,"native":1,"bps":4800,"parity":"N","stopbits":1,"cycle":1.00}]}
2017-11-15 19:37:32 1510792652.518667: {"class":"WATCH","enable":true,"json":false,"nmea":true,"raw":0,"scaled":false,"timing":false,"split24":false,"pps":false}
2017-11-15 19:37:33 1510792653.666927: $GPGSV,3,1,11,32,33,111,24,14,53,096,16,01,04,250,04,26,56,171,22*70
2017-11-15 19:37:33 1510792653.667098: $GPGSV,3,2,11,29,11,069,12,31,65,030,26,03,41,295,17,23,13,301,04*72
2017-11-15 19:37:33 1510792653.667158: $GPGSV,3,3,11,16,25,190,00,25,15,039,00,22,50,265,24*4A
2017-11-15 19:37:33 1510792653.783293: $GPZDA,003732.00,16,11,2017,00,00*60
2017-11-15 19:37:33 1510792653.783450: $GPGGA,003732,3946.9514,N,08404.9597,W,1,07,1.40,284.11,M,-33.324,M,,*7A
2017-11-15 19:37:33 1510792653.783510: $GPRMC,003732,A,3946.9514,N,08404.9597,W,0.7267,93.794,161117,,*04
2017-11-15 19:37:33 1510792653.783565: $GPGSA,A,3,32,14,26,29,31,3,22,,,,,,3.4,1.4,2.9*01
2017-11-15 19:37:34 1510792654.330966: $GPZDA,003733.00,16,11,2017,00,00*61
2017-11-15 19:37:34 1510792654.331133: $GPGGA,003733,3946.9518,N,08404.9597,W,1,07,1.40,284.75,M,-33.324,M,,*75
2017-11-15 19:37:34 1510792654.331194: $GPRMC,003733,A,3946.9518,N,08404.9597,W,0.5230,76.444,161117,,*0C
2017-11-15 19:37:34 1510792654.331250: $GPGSA,A,3,32,14,26,29,31,3,22,,,,,,3.4,1.4,2.9*01
2017-11-15 19:37:35 1510792655.346878: $GPZDA,003734.00,16,11,2017,00,00*66
2017-11-15 19:37:35 1510792655.347049: $GPGGA,003734,3946.9521,N,08404.9589,W,1,07,1.40,284.06,M,-33.324,M,,*73
2017-11-15 19:37:35 1510792655.347110: $GPRMC,003734,A,3946.9521,N,08404.9589,W,0.8414,39.347,161117,,*0C
2017-11-15 19:37:35 1510792655.347166: $GPGSA,A,3,32,14,26,29,31,3,22,,,,,,3.4,1.4,2.9*01
2017-11-15 19:37:36 1510792656.665866: $GPGSV,3,1,11,32,33,111,24,14,53,096,15,01,04,250,04,26,56,171,22*73
2017-11-15 19:37:36 1510792656.666055: $GPGSV,3,2,11,16,25,190,17,31,65,030,26,03,41,295,17,23,13,301,09*76
2017-11-15 19:37:36 1510792656.666115: $GPGSV,3,3,11,25,15,039,00,29,11,069,00,22,50,265,24*46
2017-11-15 19:37:36 1510792656.779602: $GPZDA,003735.00,16,11,2017,00,00*67
2017-11-15 19:37:36 1510792656.779764: $GPGGA,003735,3946.9521,N,08404.9589,W,1,06,1.60,284.06,M,-33.324,M,,*71
2017-11-15 19:37:36 1510792656.779825: $GPRMC,003735,A,3946.9521,N,08404.9589,W,1.0567,17.447,161117,,*0A
2017-11-15 19:37:36 1510792656.779881: $GPGSA,A,3,32,14,26,31,3,22,,,,,,,3.4,1.6,2.9*08
2017-11-15 19:37:37 1510792657.346655: $GPZDA,003736.00,16,11,2017,00,00*64
2017-11-15 19:37:37 1510792657.346859: $GPGGA,003736,3946.9529,N,08404.9588,W,1,06,1.60,283.94,M,-33.324,M,,*77
2017-11-15 19:37:37 1510792657.346921: $GPRMC,003736,A,3946.9529,N,08404.9588,W,0.6846,4.197,161117,,*33
2017-11-15 19:37:37 1510792657.346977: $GPGSA,A,3,32,14,26,31,3,22,,,,,,,3.4,1.6,2.9*08
2017-11-15 19:37:38 1510792658.346279: $GPZDA,003737.00,16,11,2017,00,00*65
2017-11-15 19:37:38 1510792658.346437: $GPGGA,003737,3946.9529,N,08404.9588,W,1,06,1.60,283.94,M,-33.324,M,,*76
2017-11-15 19:37:38 1510792658.346496: $GPRMC,003737,A,3946.9529,N,08404.9588,W,0.3423,4.197,161117,,*38
2017-11-15 19:37:38 1510792658.346551: $GPGSA,A,3,32,14,26,31,3,22,,,,,,,3.4,1.6,2.9*08
2017-11-15 19:37:39 1510792659.665522: $GPGSV,3,1,11,32,33,111,24,14,53,096,14,01,04,250,04,26,56,171,22*72
2017-11-15 19:37:39 1510792659.665693: $GPGSV,3,2,11,16,25,190,00,31,65,030,26,03,41,295,17,23,13,301,04*7D
2017-11-15 19:37:39 1510792659.665752: $GPGSV,3,3,11,25,15,039,00,29,11,069,00,22,50,265,24*46
2017-11-15 19:37:39 1510792659.777635: $GPZDA,003738.00,16,11,2017,00,00*6A
2017-11-15 19:37:39 1510792659.777798: $GPGGA,003738,3946.9529,N,08404.9588,W,1,06,1.60,283.94,M,-33.324,M,,*79
2017-11-15 19:37:39 1510792659.777859: $GPRMC,003738,A,3946.9529,N,08404.9588,W,0.2422,273.794,161117,,*30
2017-11-15 19:37:39 1510792659.777967: $GPGSA,A,3,32,14,26,31,3,22,,,,,,,3.4,1.6,2.9*08
2017-11-15 19:37:40 1510792660.346179: $GPZDA,003739.00,16,11,2017,00,00*6B
2017-11-15 19:37:40 1510792660.346343: $GPGGA,003739,3946.9529,N,08404.9588,W,1,06,1.60,283.94,M,-33.324,M,,*78
2017-11-15 19:37:40 1510792660.346420: $GPRMC,003739,A,3946.9529,N,08404.9588,W,0.3423,184.197,161117,,*3F
2017-11-15 19:37:40 1510792660.346477: $GPGSA,A,3,32,14,26,31,3,22,,,,,,,3.4,1.6,2.9*08
2017-11-15 19:37:41 1510792661.330409: $GPZDA,003740.00,16,11,2017,00,00*65
2017-11-15 19:37:41 1510792661.330572: $GPGGA,003740,3946.9525,N,08404.9588,W,1,06,1.60,283.30,M,-33.324,M,,*74
2017-11-15 19:37:41 1510792661.330634: $GPRMC,003740,A,3946.9525,N,08404.9588,W,0.3423,184.197,161117,,*3D
2017-11-15 19:37:41 1510792661.330690: $GPGSA,A,3,32,14,26,31,3,22,,,,,,,3.4,1.6,2.9*08
