2017-11-16 17:16:34 1510870594.460444: {"class":"VERSION","release":"3.17","rev":"3.17","proto_major":3,"proto_minor":12}
2017-11-16 17:16:34 1510870594.460932: {"class":"DEVICES","devices":[{"class":"DEVICE","path":"/dev/ttyUSB0","driver":"SiRF","subtype":"9\u0006GSD4e_4.1.2-P1_RPATCH.05-F-GPS-4R-1510281 11/03/2015 307","activated":"2017-11-16T22:16:34.451Z","flags":1,"native":1,"bps":4800,"parity":"N","stopbits":1,"cycle":1.00}]}
2017-11-16 17:16:34 1510870594.461057: {"class":"WATCH","enable":true,"json":false,"nmea":true,"raw":0,"scaled":false,"timing":false,"split24":false,"pps":false}
2017-11-16 17:16:35 1510870595.418787: $GPZDA,221634.00,16,11,2017,00,00*65
2017-11-16 17:16:35 1510870595.418953: $GPGGA,221634,3946.9567,N,08404.9826,W,2,11,0.80,311.41,M,-33.324,M,,*7D
2017-11-16 17:16:35 1510870595.419016: $GPRMC,221634,A,3946.9567,N,08404.9826,W,0.0000,0.000,161117,,*36
2017-11-16 17:16:35 1510870595.419072: $GPGSA,A,3,1,10,22,12,14,18,11,25,31,32,138,,1.6,0.8,1.3*3E
2017-11-16 17:16:36 1510870596.755428: $GPGSV,3,1,12,01,20,307,37,10,56,144,48,22,13,312,36,12,24,057,48*78
2017-11-16 17:16:36 1510870596.755596: $GPGSV,3,2,12,14,63,313,47,18,25,141,44,24,03,048,00,11,10,288,38*72
2017-11-16 17:16:36 1510870596.755658: $GPGSV,3,3,12,25,37,100,48,31,48,219,49,32,70,006,48,138,38,213,44*40
2017-11-16 17:16:36 1510870596.868679: $GPZDA,221635.00,16,11,2017,00,00*64
2017-11-16 17:16:36 1510870596.868843: $GPGGA,221635,3946.9567,N,08404.9826,W,2,11,0.80,311.41,M,-33.324,M,,*7C
2017-11-16 17:16:36 1510870596.868904: $GPRMC,221635,A,3946.9567,N,08404.9826,W,0.0000,0.000,161117,,*37
2017-11-16 17:16:36 1510870596.868960: $GPGSA,A,3,1,10,22,12,14,18,11,25,31,32,138,,1.6,0.8,1.3*3E
2017-11-16 17:16:37 1510870597.419691: $GPZDA,221636.00,16,11,2017,00,00*67
2017-11-16 17:16:37 1510870597.419862: $GPGGA,221636,3946.9567,N,08404.9826,W,2,11,0.80,311.41,M,-33.324,M,,*7F
2017-11-16 17:16:37 1510870597.419924: $GPRMC,221636,A,3946.9567,N,08404.9826,W,0.0000,0.000,161117,,*34
2017-11-16 17:16:37 1510870597.419980: $GPGSA,A,3,1,10,22,12,14,18,11,25,31,32,138,,1.6,0.8,1.3*3E
2017-11-16 17:16:38 1510870598.400390: $GPZDA,221637.00,16,11,2017,00,00*66
2017-11-16 17:16:38 1510870598.400580: $GPGGA,221637,3946.9567,N,08404.9826,W,2,11,0.80,311.41,M,-33.324,M,,*7E
2017-11-16 17:16:38 1510870598.400667: $GPRMC,221637,A,3946.9567,N,08404.9826,W,0.0000,0.000,161117,,*35
2017-11-16 17:16:38 1510870598.400725: $GPGSA,A,3,1,10,22,12,14,18,11,25,31,32,138,,1.6,0.8,1.3*3E
2017-11-16 17:16:39 1510870599.749986: $GPGSV,3,1,12,01,20,307,38,10,56,144,48,22,13,312,35,12,24,057,49*75
2017-11-16 17:16:39 1510870599.750154: $GPGSV,3,2,12,14,63,313,47,18,25,141,44,24,03,048,00,11,10,288,38*72
2017-11-16 17:16:39 1510870599.750214: $GPGSV,3,3,12,25,37,100,48,31,48,219,49,32,70,006,48,138,38,213,44*40
2017-11-16 17:16:39 1510870599.863347: $GPZDA,221638.00,16,11,2017,00,00*69
2017-11-16 17:16:39 1510870599.863507: $GPGGA,221638,3946.9567,N,08404.9826,W,2,11,0.80,311.41,M,-33.324,M,,*71
2017-11-16 17:16:39 1510870599.863567: $GPRMC,221638,A,3946.9567,N,08404.9826,W,0.0000,0.000,161117,,*3A
2017-11-16 17:16:39 1510870599.863624: $GPGSA,A,3,1,10,22,12,14,18,11,25,31,32,138,,1.6,0.8,1.3*3E
2017-11-16 17:16:40 1510870600.394137: $GPZDA,221639.00,16,11,2017,00,00*68
2017-11-16 17:16:40 1510870600.394300: $GPGGA,221639,3946.9567,N,08404.9826,W,2,11,0.80,311.41,M,-33.324,M,,*70
2017-11-16 17:16:40 1510870600.394361: $GPRMC,221639,A,3946.9567,N,08404.9826,W,0.0000,0.000,161117,,*3B
2017-11-16 17:16:40 1510870600.394417: $GPGSA,A,3,1,10,22,12,14,18,11,25,31,32,138,,1.6,0.8,1.3*3E
2017-11-16 17:16:41 1510870601.400773: $GPZDA,221640.00,16,11,2017,00,00*66
2017-11-16 17:16:41 1510870601.400962: $GPGGA,221640,3946.9567,N,08404.9826,W,2,11,0.80,311.41,M,-33.324,M,,*7E
2017-11-16 17:16:41 1510870601.401023: $GPRMC,221640,A,3946.9567,N,08404.9826,W,0.0000,0.000,161117,,*35
2017-11-16 17:16:41 1510870601.401079: $GPGSA,A,3,1,10,22,12,14,18,11,25,31,32,138,,1.6,0.8,1.3*3E
2017-11-16 17:16:42 1510870602.755583: $GPGSV,3,1,12,01,20,307,38,10,56,144,48,22,13,312,36,12,24,057,49*76
2017-11-16 17:16:42 1510870602.755837: $GPGSV,3,2,12,14,63,313,46,18,25,141,44,24,03,048,00,11,10,288,38*73
2017-11-16 17:16:42 1510870602.755900: $GPGSV,3,3,12,25,37,100,48,31,48,219,49,32,70,006,48,138,38,213,43*47
2017-11-16 17:16:42 1510870602.868609: $GPZDA,221641.00,16,11,2017,00,00*67
2017-11-16 17:16:42 1510870602.868782: $GPGGA,221641,3946.9567,N,08404.9826,W,2,11,0.80,311.41,M,-33.324,M,,*7F
2017-11-16 17:16:42 1510870602.868846: $GPRMC,221641,A,3946.9567,N,08404.9826,W,0.0000,0.000,161117,,*34
2017-11-16 17:16:42 1510870602.868902: $GPGSA,A,3,1,10,22,12,14,18,11,25,31,32,138,,1.6,0.8,1.3*3E
2017-11-16 17:16:43 1510870603.420921: $GPZDA,221642.00,16,11,2017,00,00*64
2017-11-16 17:16:43 1510870603.421103: $GPGGA,221642,3946.9567,N,08404.9826,W,2,11,0.80,311.41,M,-33.324,M,,*7C
2017-11-16 17:16:43 1510870603.421187: $GPRMC,221642,A,3946.9567,N,08404.9826,W,0.0000,0.000,161117,,*37
2017-11-16 17:16:43 1510870603.421248: $GPGSA,A,3,1,10,22,12,14,18,11,25,31,32,138,,1.6,0.8,1.3*3E
2017-11-16 17:16:44 1510870604.401701: $GPZDA,221643.00,16,11,2017,00,00*65
2017-11-16 17:16:44 1510870604.401884: $GPGGA,221643,3946.9567,N,08404.9826,W,2,11,0.80,311.41,M,-33.324,M,,*7D
2017-11-16 17:16:44 1510870604.401946: $GPRMC,221643,A,3946.9567,N,08404.9826,W,0.0000,0.000,161117,,*36
2017-11-16 17:16:44 1510870604.402002: $GPGSA,A,3,1,10,22,12,14,18,11,25,31,32,138,,1.6,0.8,1.3*3E
