2017-12-31 19:01:56 1514764916.758072: {"class":"VERSION","release":"3.16","rev":"3.16-4","proto_major":3,"proto_minor":11}
2017-12-31 19:01:56 1514764916.758428: {"class":"DEVICES","devices":[{"class":"DEVICE","path":"/dev/ttyUSB0","driver":"SiRF","activated":"2018-01-01T00:01:56.487Z","flags":1,"native":1,"bps":4800,"parity":"N","stopbits":1,"cycle":1.00}]}
2017-12-31 19:01:56 1514764916.758526: {"class":"WATCH","enable":true,"json":false,"nmea":true,"raw":0,"scaled":false,"timing":false,"split24":false,"pps":false}
2017-12-31 19:01:57 1514764917.688501: $GPGSV,3,1,11,22,04,201,29,23,70,267,38,09,40,307,36,03,14,217,24*71
2017-12-31 19:01:57 1514764917.688680: $GPGSV,3,2,11,16,72,036,45,08,21,174,42,31,13,091,26,27,44,139,40*77
2017-12-31 19:01:57 1514764917.688747: $GPGSV,3,3,11,07,13,288,46,26,40,048,46,135,22,240,42*75
2017-12-31 19:01:57 1514764917.802121: $GPZDA,000158.00,01,01,2018,00,00*61
2017-12-31 19:01:57 1514764917.802288: $GPGGA,000158,3946.9570,N,08404.9824,W,2,11,0.80,309.24,M,-33.324,M,,*7F
2017-12-31 19:01:57 1514764917.802355: $GPRMC,000158,A,3946.9570,N,08404.9824,W,0.0000,0.000,010118,,*36
2017-12-31 19:01:57 1514764917.802416: $GPGSA,A,3,22,23,9,3,16,8,31,27,7,26,135,,1.7,0.8,1.3*09
2017-12-31 19:01:58 1514764918.353122: $GPZDA,000159.00,01,01,2018,00,00*60
2017-12-31 19:01:58 1514764918.353288: $GPGGA,000159,3946.9570,N,08404.9824,W,2,11,0.80,309.24,M,-33.324,M,,*7E
2017-12-31 19:01:58 1514764918.353354: $GPRMC,000159,A,3946.9570,N,08404.9824,W,0.0000,0.000,010118,,*37
2017-12-31 19:01:58 1514764918.353415: $GPGSA,A,3,22,23,9,3,16,8,31,27,7,26,135,,1.7,0.8,1.3*09
2017-12-31 19:01:59 1514764919.352375: $GPZDA,000200.00,01,01,2018,00,00*6F
2017-12-31 19:01:59 1514764919.352541: $GPGGA,000200,3946.9570,N,08404.9824,W,2,11,0.80,309.24,M,-33.324,M,,*71
2017-12-31 19:01:59 1514764919.352609: $GPRMC,000200,A,3946.9570,N,08404.9824,W,0.0000,0.000,010118,,*38
2017-12-31 19:01:59 1514764919.352671: $GPGSA,A,3,22,23,9,3,16,8,31,27,7,26,135,,1.7,0.8,1.3*09
2017-12-31 19:02:00 1514764920.688865: $GPGSV,3,1,11,22,04,201,29,23,70,267,35,09,40,307,36,03,14,217,24*7C
2017-12-31 19:02:00 1514764920.689055: $GPGSV,3,2,11,16,72,036,45,08,21,174,42,31,13,091,27,27,44,139,41*77
2017-12-31 19:02:00 1514764920.689122: $GPGSV,3,3,11,07,13,288,46,26,40,048,46,135,22,240,43*74
2017-12-31 19:02:00 1514764920.802220: $GPZDA,000201.00,01,01,2018,00,00*6E
2017-12-31 19:02:00 1514764920.802391: $GPGGA,000201,3946.9570,N,08404.9824,W,2,11,0.80,309.24,M,-33.324,M,,*70
2017-12-31 19:02:00 1514764920.802459: $GPRMC,000201,A,3946.9570,N,08404.9824,W,0.0000,0.000,010118,,*39
2017-12-31 19:02:00 1514764920.802521: $GPGSA,A,3,22,23,9,3,16,8,31,27,7,26,135,,1.7,0.8,1.3*09
2017-12-31 19:02:01 1514764921.355618: $GPZDA,000202.00,01,01,2018,00,00*6D
2017-12-31 19:02:01 1514764921.355831: $GPGGA,000202,3946.9570,N,08404.9824,W,2,11,0.80,309.24,M,-33.324,M,,*73
2017-12-31 19:02:01 1514764921.355918: $GPRMC,000202,A,3946.9570,N,08404.9824,W,0.0000,0.000,010118,,*3A
2017-12-31 19:02:01 1514764921.355982: $GPGSA,A,3,22,23,9,3,16,8,31,27,7,26,135,,1.7,0.8,1.3*09
2017-12-31 19:02:02 1514764922.354235: $GPZDA,000203.00,01,01,2018,00,00*6C
2017-12-31 19:02:02 1514764922.354405: $GPGGA,000203,3946.9570,N,08404.9824,W,2,11,0.80,309.24,M,-33.324,M,,*72
2017-12-31 19:02:02 1514764922.354471: $GPRMC,000203,A,3946.9570,N,08404.9824,W,0.0000,0.000,010118,,*3B
2017-12-31 19:02:02 1514764922.354531: $GPGSA,A,3,22,23,9,3,16,8,31,27,7,26,135,,1.7,0.8,1.3*09
2017-12-31 19:02:03 1514764923.688450: $GPGSV,3,1,11,22,04,201,30,23,70,267,37,09,40,307,35,03,14,217,24*75
2017-12-31 19:02:03 1514764923.688607: $GPGSV,3,2,11,16,72,036,45,08,21,174,42,31,13,091,27,27,44,139,40*76
2017-12-31 19:02:03 1514764923.688672: $GPGSV,3,3,11,07,13,288,46,26,40,048,45,135,22,240,44*70
2017-12-31 19:02:03 1514764923.802076: $GPZDA,000204.00,01,01,2018,00,00*6B
2017-12-31 19:02:03 1514764923.802245: $GPGGA,000204,3946.9570,N,08404.9824,W,2,11,0.80,309.24,M,-33.324,M,,*75
2017-12-31 19:02:03 1514764923.802310: $GPRMC,000204,A,3946.9570,N,08404.9824,W,0.0000,0.000,010118,,*3C
2017-12-31 19:02:03 1514764923.802423: $GPGSA,A,3,22,23,9,3,16,8,31,27,7,26,135,,1.7,0.8,1.3*09
2017-12-31 19:02:04 1514764924.352721: $GPZDA,000205.00,01,01,2018,00,00*6A
2017-12-31 19:02:04 1514764924.352928: $GPGGA,000205,3946.9570,N,08404.9824,W,2,11,0.80,309.24,M,-33.324,M,,*74
2017-12-31 19:02:04 1514764924.352995: $GPRMC,000205,A,3946.9570,N,08404.9824,W,0.0000,0.000,010118,,*3D
2017-12-31 19:02:04 1514764924.353056: $GPGSA,A,3,22,23,9,3,16,8,31,27,7,26,135,,1.7,0.8,1.3*09
2017-12-31 19:02:05 1514764925.354573: $GPZDA,000206.00,01,01,2018,00,00*69
2017-12-31 19:02:05 1514764925.354761: $GPGGA,000206,3946.9570,N,08404.9824,W,2,11,0.80,309.24,M,-33.324,M,,*77
2017-12-31 19:02:05 1514764925.354828: $GPRMC,000206,A,3946.9570,N,08404.9824,W,0.0000,0.000,010118,,*3E
2017-12-31 19:02:05 1514764925.354907: $GPGSA,A,3,22,23,9,3,16,8,31,27,7,26,135,,1.7,0.8,1.3*09
2017-12-31 19:02:06 1514764926.683796: $GPGSV,3,1,11,22,04,201,31,23,70,267,30,09,40,307,36,03,14,217,25*71
2017-12-31 19:02:06 1514764926.683962: $GPGSV,3,2,11,16,72,036,45,08,21,174,42,31,13,091,26,27,44,139,41*76
2017-12-31 19:02:06 1514764926.684027: $GPGSV,3,3,11,07,13,288,46,26,40,048,45,135,22,240,44*70
