2017-11-16 14:15:25 1510859725.307773: {"class":"VERSION","release":"3.17","rev":"3.17","proto_major":3,"proto_minor":12}
2017-11-16 14:15:25 1510859725.308258: {"class":"DEVICES","devices":[{"class":"DEVICE","path":"/dev/ttyUSB0","driver":"SiRF","subtype":"9\u0006GSD4e_4.1.2-P1_RPATCH.05-F-GPS-4R-1510281 11/03/2015 307","activated":"2017-11-16T19:15:25.099Z","flags":1,"native":1,"bps":4800,"parity":"N","stopbits":1,"cycle":1.00}]}
2017-11-16 14:15:25 1510859725.308402: {"class":"WATCH","enable":true,"json":false,"nmea":true,"raw":0,"scaled":false,"timing":false,"split24":false,"pps":false}
2017-11-16 14:15:25 1510859725.513890: $GPZDA,191524.00,16,11,2017,00,00*6F
2017-11-16 14:15:25 1510859725.514045: $GPGGA,191524,3946.9557,N,08404.9851,W,2,11,0.80,304.19,M,-33.324,M,,*7D
2017-11-16 14:15:25 1510859725.514105: $GPRMC,191524,A,3946.9557,N,08404.9851,W,0.0000,0.000,161117,,*3F
2017-11-16 14:15:25 1510859725.514161: $GPGSA,A,3,8,10,13,15,18,21,20,24,27,32,138,,1.6,0.8,1.3*30
2017-11-16 14:15:26 1510859726.513462: $GPZDA,191525.00,16,11,2017,00,00*6E
2017-11-16 14:15:26 1510859726.513619: $GPGGA,191525,3946.9557,N,08404.9851,W,2,11,0.80,304.19,M,-33.324,M,,*7C
2017-11-16 14:15:26 1510859726.513681: $GPRMC,191525,A,3946.9557,N,08404.9851,W,0.0000,0.000,161117,,*3E
2017-11-16 14:15:26 1510859726.513739: $GPGSA,A,3,8,10,13,15,18,21,20,24,27,32,138,,1.6,0.8,1.3*30
2017-11-16 14:15:27 1510859727.850168: $GPGSV,3,1,12,08,06,321,30,10,42,301,44,13,07,049,30,15,37,052,50*79
2017-11-16 14:15:27 1510859727.850411: $GPGSV,3,2,12,18,71,337,46,21,63,190,46,20,32,096,46,24,51,109,48*75
2017-11-16 14:15:27 1510859727.850498: $GPGSV,3,3,12,27,19,288,37,32,21,238,46,14,05,232,00,138,38,213,44*4A
2017-11-16 14:15:27 1510859727.963751: $GPZDA,191526.00,16,11,2017,00,00*6D
2017-11-16 14:15:27 1510859727.963914: $GPGGA,191526,3946.9557,N,08404.9851,W,2,11,0.80,304.19,M,-33.324,M,,*7F
2017-11-16 14:15:27 1510859727.963977: $GPRMC,191526,A,3946.9557,N,08404.9851,W,0.0000,0.000,161117,,*3D
2017-11-16 14:15:27 1510859727.964033: $GPGSA,A,3,8,10,13,15,18,21,20,24,27,32,138,,1.6,0.8,1.3*30
2017-11-16 14:15:28 1510859728.515769: $GPZDA,191527.00,16,11,2017,00,00*6C
2017-11-16 14:15:28 1510859728.515955: $GPGGA,191527,3946.9557,N,08404.9851,W,2,11,0.80,304.19,M,-33.324,M,,*7E
2017-11-16 14:15:28 1510859728.516018: $GPRMC,191527,A,3946.9557,N,08404.9851,W,0.0000,0.000,161117,,*3C
2017-11-16 14:15:28 1510859728.516074: $GPGSA,A,3,8,10,13,15,18,21,20,24,27,32,138,,1.6,0.8,1.3*30
2017-11-16 14:15:29 1510859729.513630: $GPZDA,191528.00,16,11,2017,00,00*63
2017-11-16 14:15:29 1510859729.513803: $GPGGA,191528,3946.9557,N,08404.9851,W,2,11,0.80,304.19,M,-33.324,M,,*71
2017-11-16 14:15:29 1510859729.513864: $GPRMC,191528,A,3946.9557,N,08404.9851,W,0.0000,0.000,161117,,*33
2017-11-16 14:15:29 1510859729.513920: $GPGSA,A,3,8,10,13,15,18,21,20,24,27,32,138,,1.6,0.8,1.3*30
2017-11-16 14:15:31 1510859731.021591: $GPGSV,3,1,12,08,06,321,35,10,42,301,44,13,07,049,30,15,36,052,50*7D
2017-11-16 14:15:31 1510859731.021750: $GPGSV,3,2,12,18,72,339,47,21,62,189,46,20,32,097,46,24,51,108,48*70
2017-11-16 14:15:31 1510859731.021810: $GPGSV,3,3,12,27,19,288,38,32,21,238,46,14,05,232,00,138,38,213,44*45
2017-11-16 14:15:31 1510859731.135951: $GPZDA,191529.00,16,11,2017,00,00*62
2017-11-16 14:15:31 1510859731.136146: $GPGGA,191529,3946.9557,N,08404.9851,W,2,11,0.80,304.19,M,-33.324,M,,*70
2017-11-16 14:15:31 1510859731.136250: $GPRMC,191529,A,3946.9557,N,08404.9851,W,0.0000,0.000,161117,,*32
2017-11-16 14:15:31 1510859731.136308: $GPGSA,A,3,8,10,13,15,18,21,20,24,27,32,138,,1.6,0.8,1.3*30
2017-11-16 14:15:31 1510859731.586046: $GPZDA,191530.00,16,11,2017,00,00*6A
2017-11-16 14:15:31 1510859731.586205: $GPGGA,191530,3946.9557,N,08404.9851,W,2,11,0.80,304.19,M,-33.324,M,,*78
2017-11-16 14:15:31 1510859731.586266: $GPRMC,191530,A,3946.9557,N,08404.9851,W,0.0000,0.000,161117,,*3A
2017-11-16 14:15:31 1510859731.586321: $GPGSA,A,3,8,10,13,15,18,21,20,24,27,32,138,,1.6,0.8,1.3*30
2017-11-16 14:15:32 1510859732.514404: $GPZDA,191531.00,16,11,2017,00,00*6B
2017-11-16 14:15:32 1510859732.514612: $GPGGA,191531,3946.9557,N,08404.9851,W,2,11,0.80,304.19,M,-33.324,M,,*79
2017-11-16 14:15:32 1510859732.514674: $GPRMC,191531,A,3946.9557,N,08404.9851,W,0.0000,0.000,161117,,*3B
2017-11-16 14:15:32 1510859732.514730: $GPGSA,A,3,8,10,13,15,18,21,20,24,27,32,138,,1.6,0.8,1.3*30
2017-11-16 14:15:33 1510859733.848569: $GPGSV,3,1,12,08,06,321,37,10,42,301,44,13,07,049,29,15,36,052,51*76
2017-11-16 14:15:33 1510859733.848741: $GPGSV,3,2,12,18,72,339,47,21,62,189,46,20,32,097,46,24,51,108,47*7F
2017-11-16 14:15:33 1510859733.848802: $GPGSV,3,3,12,27,19,288,40,32,21,238,46,14,05,232,18,138,38,213,44*43
2017-11-16 14:15:33 1510859733.961855: $GPZDA,191532.00,16,11,2017,00,00*68
2017-11-16 14:15:33 1510859733.962016: $GPGGA,191532,3946.9557,N,08404.9851,W,2,11,0.80,304.19,M,-33.324,M,,*7A
2017-11-16 14:15:33 1510859733.962077: $GPRMC,191532,A,3946.9557,N,08404.9851,W,0.0000,0.000,161117,,*38
2017-11-16 14:15:33 1510859733.962133: $GPGSA,A,3,8,10,13,15,18,21,20,24,27,32,138,,1.6,0.8,1.3*30
2017-11-16 14:15:34 1510859734.587115: $GPZDA,191533.00,16,11,2017,00,00*69
2017-11-16 14:15:34 1510859734.587288: $GPGGA,191533,3946.9557,N,08404.9851,W,2,11,0.80,304.19,M,-33.324,M,,*7B
2017-11-16 14:15:34 1510859734.587349: $GPRMC,191533,A,3946.9557,N,08404.9851,W,0.0000,0.000,161117,,*39
2017-11-16 14:15:34 1510859734.587405: $GPGSA,A,3,8,10,13,15,18,21,20,24,27,32,138,,1.6,0.8,1.3*30
2017-11-16 14:15:35 1510859735.542927: $GPZDA,191534.00,16,11,2017,00,00*6E
2017-11-16 14:15:35 1510859735.543111: $GPGGA,191534,3946.9557,N,08404.9851,W,2,11,0.80,304.19,M,-33.324,M,,*7C
2017-11-16 14:15:35 1510859735.543174: $GPRMC,191534,A,3946.9557,N,08404.9851,W,0.0000,0.000,161117,,*3E
2017-11-16 14:15:35 1510859735.543231: $GPGSA,A,3,8,10,13,15,18,21,20,24,27,32,138,,1.6,0.8,1.3*30
2017-11-16 14:15:36 1510859736.881213: $GPGSV,3,1,12,08,06,321,38,10,42,301,44,13,07,049,29,15,36,052,51*79
2017-11-16 14:15:36 1510859736.881377: $GPGSV,3,2,12,18,72,339,47,21,62,189,46,20,32,097,47,24,51,108,47*7E
2017-11-16 14:15:36 1510859736.881438: $GPGSV,3,3,12,27,19,288,40,32,21,238,45,14,05,232,00,138,38,213,44*49
2017-11-16 14:15:36 1510859736.994697: $GPZDA,191535.00,16,11,2017,00,00*6F
2017-11-16 14:15:36 1510859736.994827: $GPGGA,191535,3946.9557,N,08404.9851,W,2,11,0.80,304.19,M,-33.324,M,,*7D
2017-11-16 14:15:36 1510859736.994886: $GPRMC,191535,A,3946.9557,N,08404.9851,W,0.0000,0.000,161117,,*3F
2017-11-16 14:15:36 1510859736.994941: $GPGSA,A,3,8,10,13,15,18,21,20,24,27,32,138,,1.6,0.8,1.3*30
2017-11-16 14:15:37 1510859737.538070: $GPZDA,191536.00,16,11,2017,00,00*6C
2017-11-16 14:15:37 1510859737.538225: $GPGGA,191536,3946.9557,N,08404.9851,W,2,11,0.80,304.19,M,-33.324,M,,*7E
2017-11-16 14:15:37 1510859737.538286: $GPRMC,191536,A,3946.9557,N,08404.9851,W,0.0000,0.000,161117,,*3C
2017-11-16 14:15:37 1510859737.538341: $GPGSA,A,3,8,10,13,15,18,21,20,24,27,32,138,,1.6,0.8,1.3*30
2017-11-16 14:15:38 1510859738.543683: $GPZDA,191537.00,16,11,2017,00,00*6D
2017-11-16 14:15:38 1510859738.543845: $GPGGA,191537,3946.9557,N,08404.9851,W,2,11,0.80,304.19,M,-33.324,M,,*7F
2017-11-16 14:15:38 1510859738.543906: $GPRMC,191537,A,3946.9557,N,08404.9851,W,0.0000,0.000,161117,,*3D
2017-11-16 14:15:38 1510859738.543962: $GPGSA,A,3,8,10,13,15,18,21,20,24,27,32,138,,1.6,0.8,1.3*30
2017-11-16 14:15:39 1510859739.848814: $GPGSV,3,1,12,08,06,321,40,10,42,301,44,13,07,049,29,15,36,052,51*76
2017-11-16 14:15:39 1510859739.848984: $GPGSV,3,2,12,18,72,339,47,21,62,189,46,20,32,097,47,24,51,108,48*71
2017-11-16 14:15:39 1510859739.849043: $GPGSV,3,3,12,27,19,288,40,32,21,238,45,14,05,232,00,138,38,213,44*49
2017-11-16 14:15:39 1510859739.962380: $GPZDA,191538.00,16,11,2017,00,00*62
2017-11-16 14:15:39 1510859739.962487: $GPGGA,191538,3946.9557,N,08404.9851,W,2,11,0.80,304.19,M,-33.324,M,,*70
2017-11-16 14:15:39 1510859739.962545: $GPRMC,191538,A,3946.9557,N,08404.9851,W,0.0000,0.000,161117,,*32
2017-11-16 14:15:39 1510859739.962599: $GPGSA,A,3,8,10,13,15,18,21,20,24,27,32,138,,1.6,0.8,1.3*30
