2017-12-01 11:32:30 1512145950.693706: {"class":"VERSION","release":"3.16","rev":"3.16-4","proto_major":3,"proto_minor":11}
2017-12-01 11:32:30 1512145950.694105: {"class":"DEVICES","devices":[{"class":"DEVICE","path":"/dev/ttyUSB0","driver":"SiRF","subtype":"9\u0006GSD4e_4.1.2-P1_RPATCH.05-F-GPS-4R-1510281 11/03/2015 307","activated":"2017-12-01T16:32:30.683Z","flags":1,"native":1,"bps":4800,"parity":"N","stopbits":1,"cycle":1.00}]}
2017-12-01 11:32:30 1512145950.694239: {"class":"WATCH","enable":true,"json":false,"nmea":true,"raw":0,"scaled":false,"timing":false,"split24":false,"pps":false}
2017-12-01 11:32:30 1512145950.794834: $GPZDA,163231.00,01,12,2017,00,00*64
2017-12-01 11:32:30 1512145950.795005: $GPGGA,163231,3946.9550,N,08404.9814,W,2,11,0.80,301.14,M,-33.324,M,,*7D
2017-12-01 11:32:30 1512145950.795074: $GPRMC,163231,A,3946.9550,N,08404.9814,W,0.0000,0.000,011217,,*32
2017-12-01 11:32:30 1512145950.795135: $GPGSA,A,3,5,10,13,15,18,20,21,24,29,27,138,,2.0,0.8,1.5*34
2017-12-01 11:32:31 1512145951.420002: $GPZDA,163232.00,01,12,2017,00,00*67
2017-12-01 11:32:31 1512145951.420172: $GPGGA,163232,3946.9550,N,08404.9814,W,2,11,0.80,301.14,M,-33.324,M,,*7E
2017-12-01 11:32:31 1512145951.420238: $GPRMC,163232,A,3946.9550,N,08404.9814,W,0.0000,0.000,011217,,*31
2017-12-01 11:32:31 1512145951.420300: $GPGSA,A,3,5,10,13,15,18,20,21,24,29,27,138,,2.0,0.8,1.5*34
2017-12-01 11:32:32 1512145952.347111: $GPZDA,163233.00,01,12,2017,00,00*66
2017-12-01 11:32:32 1512145952.347273: $GPGGA,163233,3946.9546,N,08404.9808,W,2,11,0.80,301.98,M,-33.324,M,,*71
2017-12-01 11:32:32 1512145952.347341: $GPRMC,163233,A,3946.9546,N,08404.9808,W,0.0000,0.000,011217,,*3A
2017-12-01 11:32:32 1512145952.347404: $GPGSA,A,3,5,10,13,15,18,20,21,24,29,27,138,,2.0,0.8,1.5*34
2017-12-01 11:32:33 1512145953.685339: $GPGSV,3,1,12,05,17,073,11,10,10,268,13,13,47,054,14,15,78,094,14*77
2017-12-01 11:32:33 1512145953.685522: $GPGSV,3,2,12,18,40,280,13,20,66,040,13,21,62,309,14,24,16,151,12*75
2017-12-01 11:32:33 1512145953.685589: $GPGSV,3,3,12,29,29,196,13,27,05,327,08,30,01,028,00,138,38,213,16*46
2017-12-01 11:32:33 1512145953.798683: $GPZDA,163234.00,01,12,2017,00,00*61
2017-12-01 11:32:33 1512145953.798862: $GPGGA,163234,3946.9546,N,08404.9808,W,2,11,0.80,301.98,M,-33.324,M,,*76
2017-12-01 11:32:33 1512145953.798931: $GPRMC,163234,A,3946.9546,N,08404.9808,W,0.0000,0.000,011217,,*3D
2017-12-01 11:32:33 1512145953.798992: $GPGSA,A,3,5,10,13,15,18,20,21,24,29,27,138,,2.0,0.8,1.5*34
2017-12-01 11:32:34 1512145954.343335: $GPZDA,163235.00,01,12,2017,00,00*60
2017-12-01 11:32:34 1512145954.343515: $GPGGA,163235,3946.9550,N,08404.9807,W,2,11,0.80,301.22,M,-33.324,M,,*7E
2017-12-01 11:32:34 1512145954.343583: $GPRMC,163235,A,3946.9550,N,08404.9807,W,0.0000,0.000,011217,,*34
2017-12-01 11:32:34 1512145954.343647: $GPGSA,A,3,5,10,13,15,18,20,21,24,29,27,138,,2.0,0.8,1.5*34
2017-12-01 11:32:35 1512145955.344471: $GPZDA,163236.00,01,12,2017,00,00*63
2017-12-01 11:32:35 1512145955.344647: $GPGGA,163236,3946.9554,N,08404.9821,W,2,11,0.80,300.30,M,-33.324,M,,*7F
2017-12-01 11:32:35 1512145955.344718: $GPRMC,163236,A,3946.9554,N,08404.9821,W,0.1867,0.000,011217,,*3F
2017-12-01 11:32:35 1512145955.344783: $GPGSA,A,3,5,10,13,15,18,20,21,24,29,27,138,,2.0,0.8,1.5*34
2017-12-01 11:32:36 1512145956.679480: $GPGSV,3,1,12,05,17,073,35,10,10,268,44,13,47,054,47,15,78,094,48*7C
2017-12-01 11:32:36 1512145956.679663: $GPGSV,3,2,12,18,40,280,44,20,66,040,43,21,62,309,46,24,16,151,42*70
2017-12-01 11:32:36 1512145956.679730: $GPGSV,3,3,12,29,29,196,46,27,05,327,00,04,16,127,00,138,38,213,45*47
2017-12-01 11:32:36 1512145956.793221: $GPZDA,163237.00,01,12,2017,00,00*62
2017-12-01 11:32:36 1512145956.793396: $GPGGA,163237,3946.9558,N,08404.9821,W,2,10,1.00,300.94,M,-33.324,M,,*74
2017-12-01 11:32:36 1512145956.793462: $GPRMC,163237,A,3946.9558,N,08404.9821,W,0.0000,0.000,011217,,*3A
2017-12-01 11:32:36 1512145956.793524: $GPGSA,A,3,5,10,13,15,18,20,21,24,29,138,,,2.0,1.0,1.5*38
2017-12-01 11:32:37 1512145957.350451: $GPZDA,163238.00,01,12,2017,00,00*6D
2017-12-01 11:32:37 1512145957.350685: $GPGGA,163238,3946.9558,N,08404.9821,W,2,10,1.00,300.94,M,-33.324,M,,*7B
2017-12-01 11:32:37 1512145957.350758: $GPRMC,163238,A,3946.9558,N,08404.9821,W,0.0000,0.000,011217,,*35
2017-12-01 11:32:37 1512145957.350819: $GPGSA,A,3,5,10,13,15,18,20,21,24,29,138,,,2.0,1.0,1.5*38
2017-12-01 11:32:38 1512145958.345702: $GPZDA,163239.00,01,12,2017,00,00*6C
2017-12-01 11:32:38 1512145958.345886: $GPGGA,163239,3946.9555,N,08404.9821,W,2,10,1.00,301.70,M,-33.324,M,,*7C
2017-12-01 11:32:38 1512145958.345956: $GPRMC,163239,A,3946.9555,N,08404.9821,W,0.0000,0.000,011217,,*39
2017-12-01 11:32:38 1512145958.346021: $GPGSA,A,3,5,10,13,15,18,20,21,24,29,138,,,2.0,1.0,1.5*38
2017-12-01 11:32:39 1512145959.681791: $GPGSV,3,1,12,05,17,073,35,10,10,268,44,13,47,054,48,15,78,094,49*72
2017-12-01 11:32:39 1512145959.681973: $GPGSV,3,2,12,18,40,280,44,20,66,040,43,21,62,309,46,24,16,151,42*70
2017-12-01 11:32:39 1512145959.682041: $GPGSV,3,3,12,29,29,196,45,27,05,327,23,04,16,127,00,138,38,213,46*46
2017-12-01 11:32:39 1512145959.795491: $GPZDA,163240.00,01,12,2017,00,00*62
2017-12-01 11:32:39 1512145959.795666: $GPGGA,163240,3946.9555,N,08404.9821,W,2,11,0.80,301.70,M,-33.324,M,,*7A
2017-12-01 11:32:39 1512145959.795738: $GPRMC,163240,A,3946.9555,N,08404.9821,W,0.0000,0.000,011217,,*37
2017-12-01 11:32:39 1512145959.795799: $GPGSA,A,3,5,10,13,15,18,20,21,24,29,27,138,,2.0,0.8,1.5*34
2017-12-01 11:32:40 1512145960.703262: $GPZDA,163241.00,01,12,2017,00,00*63
2017-12-01 11:32:40 1512145960.703435: $GPGGA,163241,3946.9555,N,08404.9821,W,2,11,1.00,301.70,M,-33.324,M,,*72
2017-12-01 11:32:40 1512145960.703502: $GPRMC,163241,A,3946.9555,N,08404.9821,W,0.0000,0.000,011217,,*36
2017-12-01 11:32:40 1512145960.703563: $GPGSA,A,3,5,10,13,15,18,20,21,24,29,27,138,,2.0,1.0,1.5*3D
2017-12-01 11:32:40 1512145960.703625: $GPGBS,163241,2.67,M,3.86,M,8.82,M*31
