2017-11-15 19:49:46 1510793386.884847: {"class":"VERSION","release":"3.17","rev":"3.17","proto_major":3,"proto_minor":12}
2017-11-15 19:49:46 1510793386.885299: {"class":"DEVICES","devices":[{"class":"DEVICE","path":"/dev/ttyUSB0","driver":"SiRF","subtype":"9\u0006GSD4e_4.1.2-P1_RPATCH.05-F-GPS-4R-1510281 11/03/2015 307","activated":"2017-11-16T00:49:46.561Z","flags":1,"native":1,"bps":4800,"parity":"N","stopbits":1,"cycle":1.00}]}
2017-11-15 19:49:46 1510793386.885413: {"class":"WATCH","enable":true,"json":false,"nmea":true,"raw":0,"scaled":false,"timing":false,"split24":false,"pps":false}
2017-11-15 19:49:47 1510793387.329602: $GPZDA,004946.00,16,11,2017,00,00*6A
2017-11-15 19:49:47 1510793387.329764: $GPGGA,004946,3946.9485,N,08404.9447,W,1,08,1.00,313.95,M,-33.324,M,,*7D
2017-11-15 19:49:47 1510793387.329824: $GPRMC,004946,A,3946.9485,N,08404.9447,W,0.4179,328.778,161117,,*35
2017-11-15 19:49:47 1510793387.329880: $GPGSA,A,3,32,16,31,26,14,22,23,3,,,,,3.4,1.0,2.9*08
2017-11-15 19:49:48 1510793388.681576: $GPGSV,3,1,12,32,29,114,22,16,31,190,23,31,61,037,16,26,62,168,21*70
2017-11-15 19:49:48 1510793388.681762: $GPGSV,3,2,12,14,48,103,18,22,49,256,25,29,13,063,00,23,18,304,18*78
2017-11-15 19:49:48 1510793388.681822: $GPGSV,3,3,12,03,43,289,15,25,10,037,00,01,01,246,00,120,07,103,00*4D
2017-11-15 19:49:48 1510793388.794907: $GPZDA,004947.00,16,11,2017,00,00*6B
2017-11-15 19:49:48 1510793388.795042: $GPGGA,004947,3946.9489,N,08404.9446,W,1,08,1.00,313.19,M,-33.324,M,,*75
2017-11-15 19:49:48 1510793388.795101: $GPRMC,004947,A,3946.9489,N,08404.9446,W,0.2422,93.794,161117,,*05
2017-11-15 19:49:48 1510793388.795156: $GPGSA,A,3,32,16,31,26,14,22,23,3,,,,,3.4,1.0,2.9*08
2017-11-15 19:49:49 1510793389.347117: $GPZDA,004948.00,16,11,2017,00,00*64
2017-11-15 19:49:49 1510793389.347275: $GPGGA,004948,3946.9489,N,08404.9446,W,1,08,1.00,313.19,M,-33.324,M,,*7A
2017-11-15 19:49:49 1510793389.347335: $GPRMC,004948,A,3946.9489,N,08404.9446,W,0.4844,93.794,161117,,*00
2017-11-15 19:49:49 1510793389.347389: $GPGSA,A,3,32,16,31,26,14,22,23,3,,,,,3.4,1.0,2.9*08
2017-11-15 19:49:50 1510793390.345383: $GPZDA,004949.00,16,11,2017,00,00*65
2017-11-15 19:49:50 1510793390.345590: $GPGGA,004949,3946.9489,N,08404.9439,W,1,08,1.00,313.27,M,-33.324,M,,*7E
2017-11-15 19:49:50 1510793390.345656: $GPRMC,004949,A,3946.9489,N,08404.9439,W,0.5912,129.173,161117,,*35
2017-11-15 19:49:50 1510793390.345714: $GPGSA,A,3,32,16,31,26,14,22,23,3,,,,,3.4,1.0,2.9*08
2017-11-15 19:49:51 1510793391.665682: $GPGSV,3,1,12,32,29,114,22,16,31,190,23,31,61,037,16,26,62,168,21*70
2017-11-15 19:49:51 1510793391.665854: $GPGSV,3,2,12,14,48,103,18,22,49,256,25,29,13,063,00,23,18,304,18*78
2017-11-15 19:49:51 1510793391.665916: $GPGSV,3,3,12,03,43,289,15,25,10,037,00,01,01,246,00,120,07,103,00*4D
2017-11-15 19:49:51 1510793391.779039: $GPZDA,004950.00,16,11,2017,00,00*6D
2017-11-15 19:49:51 1510793391.779222: $GPGGA,004950,3946.9489,N,08404.9439,W,1,08,1.00,313.27,M,-33.324,M,,*76
2017-11-15 19:49:51 1510793391.779285: $GPRMC,004950,A,3946.9489,N,08404.9439,W,1.1391,143.662,161117,,*32
2017-11-15 19:49:51 1510793391.779344: $GPGSA,A,3,32,16,31,26,14,22,23,3,,,,,3.4,1.0,2.9*08
2017-11-15 19:49:52 1510793392.328653: $GPZDA,004951.00,16,11,2017,00,00*6C
2017-11-15 19:49:52 1510793392.328820: $GPGGA,004951,3946.9489,N,08404.9439,W,1,08,1.00,313.27,M,-33.324,M,,*77
2017-11-15 19:49:52 1510793392.328883: $GPRMC,004951,A,3946.9489,N,08404.9439,W,0.5857,158.291,161117,,*35
2017-11-15 19:49:52 1510793392.328941: $GPGSA,A,3,32,16,31,26,14,22,23,3,,,,,3.4,1.0,2.9*08
2017-11-15 19:49:53 1510793393.345761: $GPZDA,004952.00,16,11,2017,00,00*6F
2017-11-15 19:49:53 1510793393.345924: $GPGGA,004952,3946.9492,N,08404.9438,W,1,08,1.00,312.50,M,-33.324,M,,*7E
2017-11-15 19:49:53 1510793393.345987: $GPRMC,004952,A,3946.9492,N,08404.9438,W,0.2422,273.794,161117,,*3E
2017-11-15 19:49:53 1510793393.346046: $GPGSA,A,3,32,16,31,26,14,22,23,3,,,,,3.4,1.0,2.9*08
2017-11-15 19:49:54 1510793394.681504: $GPGSV,3,1,12,32,29,114,22,16,31,190,23,31,61,037,17,26,62,168,21*71
2017-11-15 19:49:54 1510793394.681746: $GPGSV,3,2,12,14,48,103,19,22,49,256,25,29,13,063,00,23,18,304,18*79
2017-11-15 19:49:54 1510793394.681810: $GPGSV,3,3,12,03,43,289,16,25,10,037,00,01,01,246,00,120,07,103,00*4E
2017-11-15 19:49:54 1510793394.794864: $GPZDA,004953.00,16,11,2017,00,00*6E
2017-11-15 19:49:54 1510793394.795017: $GPGGA,004953,3946.9492,N,08404.9438,W,1,08,1.00,312.50,M,-33.324,M,,*7F
2017-11-15 19:49:54 1510793394.795078: $GPRMC,004953,A,3946.9492,N,08404.9438,W,0.5951,238.684,161117,,*3E
2017-11-15 19:49:54 1510793394.795134: $GPGSA,A,3,32,16,31,26,14,22,23,3,,,,,3.4,1.0,2.9*08
2017-11-15 19:49:55 1510793395.347084: $GPZDA,004954.00,16,11,2017,00,00*69
2017-11-15 19:49:55 1510793395.347245: $GPGGA,004954,3946.9492,N,08404.9438,W,1,08,1.00,312.50,M,-33.324,M,,*78
2017-11-15 19:49:55 1510793395.347306: $GPRMC,004954,A,3946.9492,N,08404.9438,W,0.6846,184.197,161117,,*3C
2017-11-15 19:49:55 1510793395.347361: $GPGSA,A,3,32,16,31,26,14,22,23,3,,,,,3.4,1.0,2.9*08
2017-11-15 19:49:56 1510793396.329884: $GPZDA,004955.00,16,11,2017,00,00*68
2017-11-15 19:49:56 1510793396.330059: $GPGGA,004955,3946.9492,N,08404.9445,W,1,08,1.00,312.42,M,-33.324,M,,*70
2017-11-15 19:49:56 1510793396.330120: $GPRMC,004955,A,3946.9492,N,08404.9445,W,0.8709,183.298,161117,,*36
2017-11-15 19:49:56 1510793396.330175: $GPGSA,A,3,32,16,31,26,14,22,23,3,,,,,3.4,1.0,2.9*08
