2017-12-01 12:25:20 1512149120.036970: {"class":"VERSION","release":"3.16","rev":"3.16-4","proto_major":3,"proto_minor":11}
2017-12-01 12:25:20 1512149120.037378: {"class":"DEVICES","devices":[{"class":"DEVICE","path":"/dev/ttyUSB0","driver":"SiRF","subtype":"9\u0006GSD4e_4.1.2-P1_RPATCH.05-F-GPS-4R-1510281 11/03/2015 307","activated":"2017-12-01T17:25:19.498Z","flags":1,"native":1,"bps":4800,"parity":"N","stopbits":1,"cycle":1.00}]}
2017-12-01 12:25:20 1512149120.037501: {"class":"WATCH","enable":true,"json":false,"nmea":true,"raw":0,"scaled":false,"timing":false,"split24":false,"pps":false}
2017-12-01 12:25:20 1512149120.340165: $GPZDA,172521.00,01,12,2017,00,00*62
2017-12-01 12:25:20 1512149120.340338: $GPGGA,172521,3946.9578,N,08404.9839,W,2,12,0.80,299.69,M,-33.324,M,,*77
2017-12-01 12:25:20 1512149120.340406: $GPRMC,172521,A,3946.9578,N,08404.9839,W,0.0000,0.000,011217,,*31
2017-12-01 12:25:20 1512149120.340467: $GPGSA,A,3,10,13,15,18,20,21,24,27,5,29,32,138,2.0,0.8,1.5*35
2017-12-01 12:25:21 1512149121.693448: $GPGSV,3,1,12,10,26,285,36,13,26,045,43,15,58,051,47,18,57,304,46*77
2017-12-01 12:25:21 1512149121.693628: $GPGSV,3,2,12,20,49,075,46,21,79,250,42,24,36,136,47,27,17,310,40*79
2017-12-01 12:25:21 1512149121.693695: $GPGSV,3,3,12,05,01,090,24,29,07,189,22,32,04,226,24,138,38,213,46*4B
2017-12-01 12:25:21 1512149121.806741: $GPZDA,172522.00,01,12,2017,00,00*61
2017-12-01 12:25:21 1512149121.806871: $GPGGA,172522,3946.9578,N,08404.9839,W,2,12,0.80,299.69,M,-33.324,M,,*74
2017-12-01 12:25:21 1512149121.806936: $GPRMC,172522,A,3946.9578,N,08404.9839,W,0.0000,0.000,011217,,*32
2017-12-01 12:25:21 1512149121.806996: $GPGSA,A,3,10,13,15,18,20,21,24,27,5,29,32,138,2.0,0.8,1.5*35
2017-12-01 12:25:22 1512149122.432233: $GPZDA,172523.00,01,12,2017,00,00*60
2017-12-01 12:25:22 1512149122.432396: $GPGGA,172523,3946.9578,N,08404.9839,W,2,12,0.80,299.69,M,-33.324,M,,*75
2017-12-01 12:25:22 1512149122.432462: $GPRMC,172523,A,3946.9578,N,08404.9839,W,0.0000,0.000,011217,,*33
2017-12-01 12:25:22 1512149122.432524: $GPGSA,A,3,10,13,15,18,20,21,24,27,5,29,32,138,2.0,0.8,1.5*35
2017-12-01 12:25:23 1512149123.339299: $GPZDA,172524.00,01,12,2017,00,00*67
2017-12-01 12:25:23 1512149123.339472: $GPGGA,172524,3946.9578,N,08404.9839,W,2,12,0.80,299.69,M,-33.324,M,,*72
2017-12-01 12:25:23 1512149123.339540: $GPRMC,172524,A,3946.9578,N,08404.9839,W,0.0000,0.000,011217,,*34
2017-12-01 12:25:23 1512149123.339620: $GPGSA,A,3,10,13,15,18,20,21,24,27,5,29,32,138,2.0,0.8,1.5*35
2017-12-01 12:25:24 1512149124.687542: $GPGSV,3,1,12,10,26,285,38,13,26,045,43,15,58,051,47,18,57,304,45*7A
2017-12-01 12:25:24 1512149124.687739: $GPGSV,3,2,12,20,49,075,46,21,79,250,42,24,36,136,47,27,17,310,39*77
2017-12-01 12:25:24 1512149124.687806: $GPGSV,3,3,12,05,01,090,23,29,07,189,23,32,04,226,24,138,38,213,46*4D
2017-12-01 12:25:24 1512149124.800929: $GPZDA,172525.00,01,12,2017,00,00*66
2017-12-01 12:25:24 1512149124.801105: $GPGGA,172525,3946.9578,N,08404.9839,W,2,12,0.80,299.69,M,-33.324,M,,*73
2017-12-01 12:25:24 1512149124.801171: $GPRMC,172525,A,3946.9578,N,08404.9839,W,0.0000,0.000,011217,,*35
2017-12-01 12:25:24 1512149124.801233: $GPGSA,A,3,10,13,15,18,20,21,24,27,5,29,32,138,2.0,0.8,1.5*35
2017-12-01 12:25:25 1512149125.341827: $GPZDA,172526.00,01,12,2017,00,00*65
2017-12-01 12:25:25 1512149125.342015: $GPGGA,172526,3946.9578,N,08404.9839,W,2,12,0.80,299.69,M,-33.324,M,,*70
2017-12-01 12:25:25 1512149125.342083: $GPRMC,172526,A,3946.9578,N,08404.9839,W,0.0000,0.000,011217,,*36
2017-12-01 12:25:25 1512149125.342144: $GPGSA,A,3,10,13,15,18,20,21,24,27,5,29,32,138,2.0,0.8,1.5*35
2017-12-01 12:25:26 1512149126.341687: $GPZDA,172527.00,01,12,2017,00,00*64
2017-12-01 12:25:26 1512149126.341911: $GPGGA,172527,3946.9578,N,08404.9839,W,2,12,0.80,299.69,M,-33.324,M,,*71
2017-12-01 12:25:26 1512149126.341984: $GPRMC,172527,A,3946.9578,N,08404.9839,W,0.0000,0.000,011217,,*37
2017-12-01 12:25:26 1512149126.342047: $GPGSA,A,3,10,13,15,18,20,21,24,27,5,29,32,138,2.0,0.8,1.5*35
2017-12-01 12:25:27 1512149127.692935: $GPGSV,3,1,12,10,26,285,38,13,26,045,43,15,58,051,47,18,57,304,45*7A
2017-12-01 12:25:27 1512149127.693185: $GPGSV,3,2,12,20,49,075,46,21,79,250,42,24,36,136,47,27,17,310,40*79
2017-12-01 12:25:27 1512149127.693256: $GPGSV,3,3,12,05,01,090,23,29,07,189,29,32,04,226,24,138,38,213,46*47
2017-12-01 12:25:27 1512149127.805002: $GPZDA,172528.00,01,12,2017,00,00*6B
2017-12-01 12:25:27 1512149127.805174: $GPGGA,172528,3946.9578,N,08404.9839,W,2,12,0.80,299.69,M,-33.324,M,,*7E
2017-12-01 12:25:27 1512149127.805240: $GPRMC,172528,A,3946.9578,N,08404.9839,W,0.0000,0.000,011217,,*38
2017-12-01 12:25:27 1512149127.805301: $GPGSA,A,3,10,13,15,18,20,21,24,27,5,29,32,138,2.0,0.8,1.5*35
2017-12-01 12:25:28 1512149128.340879: $GPZDA,172529.00,01,12,2017,00,00*6A
2017-12-01 12:25:28 1512149128.341054: $GPGGA,172529,3946.9578,N,08404.9839,W,2,12,0.80,299.69,M,-33.324,M,,*7F
2017-12-01 12:25:28 1512149128.341121: $GPRMC,172529,A,3946.9578,N,08404.9839,W,0.0000,0.000,011217,,*39
2017-12-01 12:25:28 1512149128.341183: $GPGSA,A,3,10,13,15,18,20,21,24,27,5,29,32,138,2.0,0.8,1.5*35
2017-12-01 12:25:29 1512149129.358048: $GPZDA,172530.00,01,12,2017,00,00*62
2017-12-01 12:25:29 1512149129.358228: $GPGGA,172530,3946.9578,N,08404.9839,W,2,12,0.80,299.69,M,-33.324,M,,*77
2017-12-01 12:25:29 1512149129.358295: $GPRMC,172530,A,3946.9578,N,08404.9839,W,0.0000,0.000,011217,,*31
2017-12-01 12:25:29 1512149129.358356: $GPGSA,A,3,10,13,15,18,20,21,24,27,5,29,32,138,2.0,0.8,1.5*35
