2017-12-31 18:45:44 1514763944.841666: {"class":"VERSION","release":"3.16","rev":"3.16-4","proto_major":3,"proto_minor":11}
2017-12-31 18:45:44 1514763944.842084: {"class":"DEVICES","devices":[{"class":"DEVICE","path":"/dev/ttyUSB0","driver":"SiRF","activated":"2017-12-31T23:45:44.667Z","flags":1,"native":1,"bps":4800,"parity":"N","stopbits":1,"cycle":1.00}]}
2017-12-31 18:45:44 1514763944.842182: {"class":"WATCH","enable":true,"json":false,"nmea":true,"raw":0,"scaled":false,"timing":false,"split24":false,"pps":false}
2017-12-31 18:45:45 1514763945.690765: $GPGSV,3,1,12,22,09,205,22,23,67,285,40,09,35,310,37,03,19,222,36*78
2017-12-31 18:45:45 1514763945.690926: $GPGSV,3,2,12,16,79,036,40,08,14,175,29,14,01,139,04,31,17,087,27*73
2017-12-31 18:45:45 1514763945.690991: $GPGSV,3,3,12,27,38,144,40,07,09,283,40,26,46,048,44,135,22,240,43*4E
2017-12-31 18:45:45 1514763945.804243: $GPZDA,234546.00,31,12,2017,00,00*61
2017-12-31 18:45:45 1514763945.804404: $GPGGA,234546,3946.9581,N,08404.9856,W,2,11,0.80,305.14,M,-33.324,M,,*75
2017-12-31 18:45:45 1514763945.804468: $GPRMC,234546,A,3946.9581,N,08404.9856,W,0.0000,0.000,311217,,*3D
2017-12-31 18:45:45 1514763945.804529: $GPGSA,A,3,22,23,9,3,16,8,31,27,7,26,135,,1.7,0.8,1.3*09
2017-12-31 18:45:46 1514763946.355251: $GPZDA,234547.00,31,12,2017,00,00*60
2017-12-31 18:45:46 1514763946.355424: $GPGGA,234547,3946.9581,N,08404.9856,W,2,11,0.80,305.14,M,-33.324,M,,*74
2017-12-31 18:45:46 1514763946.355490: $GPRMC,234547,A,3946.9581,N,08404.9856,W,0.0000,0.000,311217,,*3C
2017-12-31 18:45:46 1514763946.355551: $GPGSA,A,3,22,23,9,3,16,8,31,27,7,26,135,,1.7,0.8,1.3*09
2017-12-31 18:45:47 1514763947.354830: $GPZDA,234548.00,31,12,2017,00,00*6F
2017-12-31 18:45:47 1514763947.355010: $GPGGA,234548,3946.9581,N,08404.9856,W,2,11,0.80,305.14,M,-33.324,M,,*7B
2017-12-31 18:45:47 1514763947.355077: $GPRMC,234548,A,3946.9581,N,08404.9856,W,0.0000,0.000,311217,,*33
2017-12-31 18:45:47 1514763947.355139: $GPGSA,A,3,22,23,9,3,16,8,31,27,7,26,135,,1.7,0.8,1.3*09
2017-12-31 18:45:48 1514763948.690326: $GPGSV,3,1,12,22,09,205,23,23,67,285,40,09,35,310,39,03,19,222,38*79
2017-12-31 18:45:48 1514763948.690506: $GPGSV,3,2,12,16,79,036,42,08,14,175,30,14,01,139,04,31,17,087,27*79
2017-12-31 18:45:48 1514763948.690574: $GPGSV,3,3,12,27,38,144,41,07,09,283,41,26,46,048,44,135,22,240,44*49
2017-12-31 18:45:48 1514763948.803758: $GPZDA,234549.00,31,12,2017,00,00*6E
2017-12-31 18:45:48 1514763948.803891: $GPGGA,234549,3946.9581,N,08404.9856,W,2,11,0.80,305.14,M,-33.324,M,,*7A
2017-12-31 18:45:48 1514763948.803955: $GPRMC,234549,A,3946.9581,N,08404.9856,W,0.0000,0.000,311217,,*32
2017-12-31 18:45:48 1514763948.804014: $GPGSA,A,3,22,23,9,3,16,8,31,27,7,26,135,,1.7,0.8,1.3*09
2017-12-31 18:45:49 1514763949.394635: $GPZDA,234550.00,31,12,2017,00,00*66
2017-12-31 18:45:49 1514763949.394799: $GPGGA,234550,3946.9581,N,08404.9856,W,2,11,0.80,305.14,M,-33.324,M,,*72
2017-12-31 18:45:49 1514763949.394865: $GPRMC,234550,A,3946.9581,N,08404.9856,W,0.0000,0.000,311217,,*3A
2017-12-31 18:45:49 1514763949.394926: $GPGSA,A,3,22,23,9,3,16,8,31,27,7,26,135,,1.7,0.8,1.3*09
2017-12-31 18:45:50 1514763950.347883: $GPZDA,234551.00,31,12,2017,00,00*67
2017-12-31 18:45:50 1514763950.348026: $GPGGA,234551,3946.9581,N,08404.9856,W,2,11,0.80,305.14,M,-33.324,M,,*73
2017-12-31 18:45:50 1514763950.348091: $GPRMC,234551,A,3946.9581,N,08404.9856,W,0.0000,0.000,311217,,*3B
2017-12-31 18:45:50 1514763950.348152: $GPGSA,A,3,22,23,9,3,16,8,31,27,7,26,135,,1.7,0.8,1.3*09
2017-12-31 18:45:51 1514763951.689424: $GPGSV,3,1,12,22,09,205,23,23,67,285,41,09,35,310,40,03,19,222,39*77
2017-12-31 18:45:51 1514763951.689600: $GPGSV,3,2,12,16,79,036,42,08,14,175,30,14,01,139,00,31,17,087,34*7F
2017-12-31 18:45:51 1514763951.689665: $GPGSV,3,3,12,27,38,144,41,07,09,283,43,26,46,048,45,135,22,240,43*4D
2017-12-31 18:45:51 1514763951.802735: $GPZDA,234552.00,31,12,2017,00,00*64
2017-12-31 18:45:51 1514763951.802877: $GPGGA,234552,3946.9581,N,08404.9856,W,2,11,0.80,305.14,M,-33.324,M,,*70
2017-12-31 18:45:51 1514763951.802941: $GPRMC,234552,A,3946.9581,N,08404.9856,W,0.0000,0.000,311217,,*38
2017-12-31 18:45:51 1514763951.803056: $GPGSA,A,3,22,23,9,3,16,8,31,27,7,26,135,,1.7,0.8,1.3*09
2017-12-31 18:45:52 1514763952.391216: $GPZDA,234553.00,31,12,2017,00,00*65
2017-12-31 18:45:52 1514763952.391392: $GPGGA,234553,3946.9581,N,08404.9856,W,2,11,0.80,305.14,M,-33.324,M,,*71
2017-12-31 18:45:52 1514763952.391458: $GPRMC,234553,A,3946.9581,N,08404.9856,W,0.0000,0.000,311217,,*39
2017-12-31 18:45:52 1514763952.391518: $GPGSA,A,3,22,23,9,3,16,8,31,27,7,26,135,,1.7,0.8,1.3*09
2017-12-31 18:45:53 1514763953.351998: $GPZDA,234554.00,31,12,2017,00,00*62
2017-12-31 18:45:53 1514763953.352160: $GPGGA,234554,3946.9581,N,08404.9856,W,2,11,0.80,305.14,M,-33.324,M,,*76
2017-12-31 18:45:53 1514763953.352224: $GPRMC,234554,A,3946.9581,N,08404.9856,W,0.0000,0.000,311217,,*3E
2017-12-31 18:45:53 1514763953.352285: $GPGSA,A,3,22,23,9,3,16,8,31,27,7,26,135,,1.7,0.8,1.3*09
2017-12-31 18:45:54 1514763954.689001: $GPGSV,3,1,12,22,09,205,20,23,67,285,41,09,35,310,40,03,19,222,39*74
2017-12-31 18:45:54 1514763954.689186: $GPGSV,3,2,12,16,79,036,43,08,14,175,31,14,01,139,00,31,17,087,33*78
2017-12-31 18:45:54 1514763954.689253: $GPGSV,3,3,12,27,38,144,40,07,09,283,43,26,46,048,45,135,22,240,44*4B
2017-12-31 18:45:54 1514763954.802356: $GPZDA,234555.00,31,12,2017,00,00*63
2017-12-31 18:45:54 1514763954.802487: $GPGGA,234555,3946.9581,N,08404.9856,W,2,11,0.80,305.14,M,-33.324,M,,*77
2017-12-31 18:45:54 1514763954.802550: $GPRMC,234555,A,3946.9581,N,08404.9856,W,0.0000,0.000,311217,,*3F
2017-12-31 18:45:54 1514763954.802609: $GPGSA,A,3,22,23,9,3,16,8,31,27,7,26,135,,1.7,0.8,1.3*09
