2017-11-15 18:42:11 1510789331.585630: {"class":"VERSION","release":"3.17","rev":"3.17","proto_major":3,"proto_minor":12}
2017-11-15 18:42:11 1510789331.586141: {"class":"DEVICES","devices":[{"class":"DEVICE","path":"/dev/ttyUSB0","driver":"SiRF","subtype":"9\u0006GSD4e_4.1.2-P1_RPATCH.05-F-GPS-4R-1510281 11/03/2015 307","activated":"2017-11-15T23:42:11.505Z","flags":1,"native":1,"bps":4800,"parity":"N","stopbits":1,"cycle":1.00}]}
2017-11-15 18:42:11 1510789331.586293: {"class":"WATCH","enable":true,"json":false,"nmea":true,"raw":0,"scaled":false,"timing":false,"split24":false,"pps":false}
2017-11-15 18:42:12 1510789332.701473: $GPGSV,3,1,12,25,33,054,07,14,68,049,18,03,23,315,15,32,53,084,20*7E
2017-11-15 18:42:12 1510789332.701673: $GPGSV,3,2,12,31,79,298,24,01,17,271,16,26,29,178,04,10,18,157,18*71
2017-11-15 18:42:12 1510789332.701735: $GPGSV,3,3,12,12,04,031,00,22,41,300,22,16,01,190,11,138,38,213,00*46
2017-11-15 18:42:12 1510789332.814731: $GPZDA,234211.00,15,11,2017,00,00*61
2017-11-15 18:42:12 1510789332.814887: $GPGGA,234211,3946.9462,N,08404.9723,W,1,08,2.40,312.89,M,-33.324,M,,*76
2017-11-15 18:42:12 1510789332.814949: $GPRMC,234211,A,3946.9462,N,08404.9723,W,0.2422,93.794,151117,,*0A
2017-11-15 18:42:12 1510789332.815005: $GPGSA,A,3,25,14,32,31,1,10,22,16,,,,,3.4,2.4,2.9*0E
2017-11-15 18:42:13 1510789333.329632: $GPZDA,234212.00,15,11,2017,00,00*62
2017-11-15 18:42:13 1510789333.329794: $GPGGA,234212,3946.9466,N,08404.9723,W,1,08,2.40,313.53,M,-33.324,M,,*77
2017-11-15 18:42:13 1510789333.329854: $GPRMC,234212,A,3946.9466,N,08404.9723,W,0.3423,4.197,151117,,*36
2017-11-15 18:42:13 1510789333.329927: $GPGSA,A,3,25,14,32,31,1,10,22,16,,,,,3.4,2.4,2.9*0E
2017-11-15 18:42:14 1510789334.364357: $GPZDA,234213.00,15,11,2017,00,00*63
2017-11-15 18:42:14 1510789334.364535: $GPGGA,234213,3946.9466,N,08404.9723,W,1,08,2.40,313.53,M,-33.324,M,,*76
2017-11-15 18:42:14 1510789334.364614: $GPRMC,234213,A,3946.9466,N,08404.9723,W,1.0002,334.331,151117,,*3C
2017-11-15 18:42:14 1510789334.364672: $GPGSA,A,3,25,14,32,31,1,10,22,16,,,,,3.4,2.4,2.9*0E
2017-11-15 18:42:15 1510789335.699796: $GPGSV,3,1,12,25,33,054,07,14,68,049,18,03,23,315,14,32,53,084,20*7F
2017-11-15 18:42:15 1510789335.704333: $GPGSV,3,2,12,31,79,298,24,01,17,271,16,26,29,178,04,10,18,157,18*71
2017-11-15 18:42:15 1510789335.704446: $GPGSV,3,3,12,12,04,031,00,22,41,300,22,16,01,190,11,138,38,213,00*46
2017-11-15 18:42:15 1510789335.813732: $GPZDA,234214.00,15,11,2017,00,00*64
2017-11-15 18:42:15 1510789335.813899: $GPGGA,234214,3946.9474,N,08404.9722,W,1,08,2.40,313.40,M,-33.324,M,,*71
2017-11-15 18:42:15 1510789335.813960: $GPRMC,234214,A,3946.9474,N,08404.9722,W,1.0002,334.331,151117,,*39
2017-11-15 18:42:15 1510789335.814016: $GPGSA,A,3,25,14,32,31,1,10,22,16,,,,,3.4,2.4,2.9*0E
2017-11-15 18:42:16 1510789336.438764: $GPZDA,234215.00,15,11,2017,00,00*65
2017-11-15 18:42:16 1510789336.438913: $GPGGA,234215,3946.9478,N,08404.9722,W,1,08,2.40,314.04,M,-33.324,M,,*7B
2017-11-15 18:42:16 1510789336.438972: $GPRMC,234215,A,3946.9478,N,08404.9722,W,1.0002,334.331,151117,,*34
2017-11-15 18:42:16 1510789336.439028: $GPGSA,A,3,25,14,32,31,1,10,22,16,,,,,3.4,2.4,2.9*0E
2017-11-15 18:42:17 1510789337.365648: $GPZDA,234216.00,15,11,2017,00,00*66
2017-11-15 18:42:17 1510789337.365812: $GPGGA,234216,3946.9481,N,08404.9721,W,1,08,2.40,313.28,M,-33.324,M,,*74
2017-11-15 18:42:17 1510789337.365873: $GPRMC,234216,A,3946.9481,N,08404.9721,W,0.9060,347.792,151117,,*37
2017-11-15 18:42:17 1510789337.365928: $GPGSA,A,3,25,14,32,31,1,10,22,16,,,,,3.4,2.4,2.9*0E
2017-11-15 18:42:18 1510789338.666381: $GPGSV,3,1,12,25,33,054,06,14,68,049,18,03,23,315,00,32,53,084,20*7B
2017-11-15 18:42:18 1510789338.666553: $GPGSV,3,2,12,31,79,298,25,01,17,271,16,26,29,178,04,10,18,157,18*70
2017-11-15 18:42:18 1510789338.666613: $GPGSV,3,3,12,12,04,031,00,22,41,300,21,16,01,190,11,135,23,238,00*4B
2017-11-15 18:42:18 1510789338.778471: $GPZDA,234217.00,15,11,2017,00,00*67
2017-11-15 18:42:18 1510789338.778634: $GPGGA,234217,3946.9486,N,08404.9721,W,1,08,2.40,313.92,M,-33.324,M,,*73
2017-11-15 18:42:18 1510789338.778746: $GPRMC,234217,A,3946.9486,N,08404.9721,W,0.7246,344.668,151117,,*3E
2017-11-15 18:42:18 1510789338.778804: $GPGSA,A,3,25,14,32,31,1,10,22,16,,,,,3.4,2.4,2.9*0E
2017-11-15 18:42:19 1510789339.365882: $GPZDA,234218.00,15,11,2017,00,00*68
2017-11-15 18:42:19 1510789339.366045: $GPGGA,234218,3946.9489,N,08404.9721,W,1,08,2.40,313.15,M,-33.324,M,,*7C
2017-11-15 18:42:19 1510789339.366105: $GPRMC,234218,A,3946.9489,N,08404.9721,W,1.0002,334.331,151117,,*34
2017-11-15 18:42:19 1510789339.366160: $GPGSA,A,3,25,14,32,31,1,10,22,16,,,,,3.4,2.4,2.9*0E
2017-11-15 18:42:20 1510789340.330507: $GPZDA,234219.00,15,11,2017,00,00*69
2017-11-15 18:42:20 1510789340.330667: $GPGGA,234219,3946.9493,N,08404.9721,W,1,08,2.40,313.79,M,-33.324,M,,*7C
2017-11-15 18:42:20 1510789340.330727: $GPRMC,234219,A,3946.9493,N,08404.9721,W,1.3082,341.818,151117,,*37
2017-11-15 18:42:20 1510789340.330783: $GPGSA,A,3,25,14,32,31,1,10,22,16,,,,,3.4,2.4,2.9*0E
2017-11-15 18:42:21 1510789341.699331: $GPGSV,3,1,12,25,33,054,06,14,68,049,18,03,23,315,00,32,53,084,21*7A
2017-11-15 18:42:21 1510789341.699529: $GPGSV,3,2,12,31,79,298,25,01,17,271,15,26,29,178,04,10,18,157,18*73
2017-11-15 18:42:21 1510789341.699590: $GPGSV,3,3,12,12,04,031,00,22,41,300,21,16,01,190,11,135,23,238,00*4B
2017-11-15 18:42:21 1510789341.812938: $GPZDA,234220.00,15,11,2017,00,00*63
2017-11-15 18:42:21 1510789341.813097: $GPGGA,234220,3946.9501,N,08404.9720,W,1,08,2.40,313.67,M,-33.324,M,,*72
2017-11-15 18:42:21 1510789341.813174: $GPRMC,234220,A,3946.9501,N,08404.9720,W,1.4978,309.345,151117,,*32
2017-11-15 18:42:21 1510789341.813231: $GPGSA,A,3,25,14,32,31,1,10,22,16,,,,,3.4,2.4,2.9*0E
2017-11-15 18:42:22 1510789342.366044: $GPZDA,234221.00,15,11,2017,00,00*62
2017-11-15 18:42:22 1510789342.366207: $GPGGA,234221,3946.9501,N,08404.9720,W,1,08,2.40,313.67,M,-33.324,M,,*73
2017-11-15 18:42:22 1510789342.366287: $GPRMC,234221,A,3946.9501,N,08404.9720,W,1.4978,309.345,151117,,*33
2017-11-15 18:42:22 1510789342.366344: $GPGSA,A,3,25,14,32,31,1,10,22,16,,,,,3.4,2.4,2.9*0E
2017-11-15 18:42:23 1510789343.330917: $GPZDA,234222.00,15,11,2017,00,00*61
2017-11-15 18:42:23 1510789343.331082: $GPGGA,234222,3946.9505,N,08404.9727,W,1,08,2.40,314.23,M,-33.324,M,,*74
2017-11-15 18:42:23 1510789343.331142: $GPRMC,234222,A,3946.9505,N,08404.9727,W,1.6227,314.451,151117,,*3E
2017-11-15 18:42:23 1510789343.331198: $GPGSA,A,3,25,14,32,31,1,10,22,16,,,,,3.4,2.4,2.9*0E
2017-11-15 18:42:24 1510789344.665086: $GPGSV,3,1,12,25,33,054,06,14,68,049,18,03,23,315,00,32,53,084,21*7A
2017-11-15 18:42:24 1510789344.665257: $GPGSV,3,2,12,31,79,298,25,01,17,271,15,26,29,178,04,10,18,157,18*73
2017-11-15 18:42:24 1510789344.665316: $GPGSV,3,3,12,12,04,031,00,22,41,300,21,16,01,190,12,135,23,238,00*48
2017-11-15 18:42:24 1510789344.778508: $GPZDA,234223.00,15,11,2017,00,00*60
2017-11-15 18:42:24 1510789344.778679: $GPGGA,234223,3946.9513,N,08404.9726,W,1,08,2.40,314.11,M,-33.324,M,,*72
2017-11-15 18:42:24 1510789344.778739: $GPRMC,234223,A,3946.9513,N,08404.9726,W,1.4168,332.695,151117,,*3D
2017-11-15 18:42:24 1510789344.778795: $GPGSA,A,3,25,14,32,31,1,10,22,16,,,,,3.4,2.4,2.9*0E
2017-11-15 18:42:25 1510789345.363177: $GPZDA,234224.00,15,11,2017,00,00*67
2017-11-15 18:42:25 1510789345.363356: $GPGGA,234224,3946.9513,N,08404.9726,W,1,08,2.40,314.11,M,-33.324,M,,*75
2017-11-15 18:42:25 1510789345.363416: $GPRMC,234224,A,3946.9513,N,08404.9726,W,1.3082,341.818,151117,,*37
2017-11-15 18:42:25 1510789345.363473: $GPGSA,A,3,25,14,32,31,1,10,22,16,,,,,3.4,2.4,2.9*0E
2017-11-15 18:42:26 1510789346.329935: $GPZDA,234225.00,15,11,2017,00,00*66
2017-11-15 18:42:26 1510789346.330109: $GPGGA,234225,3946.9520,N,08404.9718,W,1,08,2.40,314.06,M,-33.324,M,,*7F
2017-11-15 18:42:26 1510789346.330171: $GPRMC,234225,A,3946.9520,N,08404.9718,W,0.7246,344.668,151117,,*38
2017-11-15 18:42:26 1510789346.330227: $GPGSA,A,3,25,14,32,31,1,10,22,16,,,,,3.4,2.4,2.9*0E
