2017-12-01 17:16:04 1512166564.666811: {"class":"VERSION","release":"3.16","rev":"3.16-4","proto_major":3,"proto_minor":11}
2017-12-01 17:16:04 1512166564.667202: {"class":"DEVICES","devices":[{"class":"DEVICE","path":"/dev/ttyUSB0","driver":"SiRF","subtype":"9\u0006GSD4e_4.1.2-P1_RPATCH.05-F-GPS-4R-1510281 11/03/2015 307","activated":"2017-12-01T22:16:04.597Z","flags":1,"native":1,"bps":4800,"parity":"N","stopbits":1,"cycle":1.00}]}
2017-12-01 17:16:04 1512166564.667321: {"class":"WATCH","enable":true,"json":false,"nmea":true,"raw":0,"scaled":false,"timing":false,"split24":false,"pps":false}
2017-12-01 17:16:05 1512166565.769688: $GPGSV,3,1,12,01,20,279,41,03,17,316,39,10,26,156,38,14,70,025,46*72
2017-12-01 17:16:05 1512166565.769871: $GPGSV,3,2,12,22,36,306,44,26,21,178,35,31,76,261,48,32,58,072,48*7B
2017-12-01 17:16:05 1512166565.769937: $GPGSV,3,3,12,11,01,265,33,12,10,034,31,25,38,063,34,138,38,213,36*47
2017-12-01 17:16:05 1512166565.883028: $GPZDA,221606.00,01,12,2017,00,00*61
2017-12-01 17:16:05 1512166565.883146: $GPGGA,221606,3946.9655,N,08404.9766,W,2,12,0.80,293.41,M,-33.324,M,,*7D
2017-12-01 17:16:05 1512166565.883211: $GPRMC,221606,A,3946.9655,N,08404.9766,W,0.0000,0.000,011217,,*3B
2017-12-01 17:16:05 1512166565.883272: $GPGSA,A,3,1,3,10,14,22,26,31,32,11,12,25,138,2.0,0.8,1.5*03
2017-12-01 17:16:06 1512166566.435389: $GPZDA,221607.00,01,12,2017,00,00*60
2017-12-01 17:16:06 1512166566.435596: $GPGGA,221607,3946.9655,N,08404.9766,W,2,12,0.80,293.41,M,-33.324,M,,*7C
2017-12-01 17:16:06 1512166566.435689: $GPRMC,221607,A,3946.9655,N,08404.9766,W,0.0000,0.000,011217,,*3A
2017-12-01 17:16:06 1512166566.435800: $GPGSA,A,3,1,3,10,14,22,26,31,32,11,12,25,138,2.0,0.8,1.5*03
2017-12-01 17:16:07 1512166567.436336: $GPZDA,221608.00,01,12,2017,00,00*6F
2017-12-01 17:16:07 1512166567.436508: $GPGGA,221608,3946.9655,N,08404.9766,W,2,12,0.80,293.41,M,-33.324,M,,*73
2017-12-01 17:16:07 1512166567.436576: $GPRMC,221608,A,3946.9655,N,08404.9766,W,0.0000,0.000,011217,,*35
2017-12-01 17:16:07 1512166567.436637: $GPGSA,A,3,1,3,10,14,22,26,31,32,11,12,25,138,2.0,0.8,1.5*03
2017-12-01 17:16:08 1512166568.771821: $GPGSV,3,1,12,01,20,279,41,03,17,316,39,10,26,156,38,14,70,025,46*72
2017-12-01 17:16:08 1512166568.772004: $GPGSV,3,2,12,22,36,306,44,26,21,178,34,31,76,261,48,32,58,072,48*7A
2017-12-01 17:16:08 1512166568.772071: $GPGSV,3,3,12,11,01,265,33,12,10,034,31,25,38,063,33,138,38,213,38*4E
2017-12-01 17:16:08 1512166568.885210: $GPZDA,221609.00,01,12,2017,00,00*6E
2017-12-01 17:16:08 1512166568.885382: $GPGGA,221609,3946.9655,N,08404.9766,W,2,12,0.80,293.41,M,-33.324,M,,*72
2017-12-01 17:16:08 1512166568.885449: $GPRMC,221609,A,3946.9655,N,08404.9766,W,0.0000,0.000,011217,,*34
2017-12-01 17:16:08 1512166568.885510: $GPGSA,A,3,1,3,10,14,22,26,31,32,11,12,25,138,2.0,0.8,1.5*03
2017-12-01 17:16:09 1512166569.435082: $GPZDA,221610.00,01,12,2017,00,00*66
2017-12-01 17:16:09 1512166569.435250: $GPGGA,221610,3946.9655,N,08404.9766,W,2,12,0.80,293.41,M,-33.324,M,,*7A
2017-12-01 17:16:09 1512166569.435317: $GPRMC,221610,A,3946.9655,N,08404.9766,W,0.0000,0.000,011217,,*3C
2017-12-01 17:16:09 1512166569.435378: $GPGSA,A,3,1,3,10,14,22,26,31,32,11,12,25,138,2.0,0.8,1.5*03
2017-12-01 17:16:10 1512166570.793732: $GPZDA,221611.00,01,12,2017,00,00*67
2017-12-01 17:16:10 1512166570.793901: $GPGGA,221611,3946.9655,N,08404.9766,W,2,12,0.80,293.41,M,-33.324,M,,*7B
2017-12-01 17:16:10 1512166570.793968: $GPRMC,221611,A,3946.9655,N,08404.9766,W,0.0000,0.000,011217,,*3D
2017-12-01 17:16:10 1512166570.794028: $GPGSA,A,3,1,3,10,14,22,26,31,32,11,12,25,138,2.0,0.8,1.5*03
2017-12-01 17:16:10 1512166570.794087: $GPGBS,221611,2.67,M,3.86,M,8.82,M*35
2017-12-01 17:16:12 1512166572.129921: $GPGSV,3,1,11,01,20,279,40,03,17,316,38,10,26,156,38,14,70,025,46*71
2017-12-01 17:16:12 1512166572.130106: $GPGSV,3,2,11,22,36,306,43,26,21,178,34,31,76,262,48,32,58,072,48*7D
2017-12-01 17:16:12 1512166572.130173: $GPGSV,3,3,11,12,10,034,32,25,38,063,33,138,38,213,40*71
2017-12-01 17:16:12 1512166572.244689: $GPZDA,221612.00,01,12,2017,00,00*64
2017-12-01 17:16:12 1512166572.244924: $GPGGA,221612,3946.9654,N,08404.9758,W,2,11,0.80,292.09,M,-33.324,M,,*7A
2017-12-01 17:16:12 1512166572.244995: $GPRMC,221612,A,3946.9654,N,08404.9758,W,0.0000,0.000,011217,,*32
2017-12-01 17:16:12 1512166572.245056: $GPGSA,A,3,1,3,10,14,22,26,31,32,12,25,138,,2.0,0.8,1.5*03
2017-12-01 17:16:12 1512166572.855839: $GPZDA,221613.00,01,12,2017,00,00*65
2017-12-01 17:16:12 1512166572.856010: $GPGGA,221613,3946.9654,N,08404.9758,W,2,11,0.80,292.09,M,-33.324,M,,*7B
2017-12-01 17:16:12 1512166572.856077: $GPRMC,221613,A,3946.9654,N,08404.9758,W,0.0000,0.000,011217,,*33
2017-12-01 17:16:12 1512166572.856139: $GPGSA,A,3,1,3,10,14,22,26,31,32,12,25,138,,2.0,0.8,1.5*03
2017-12-01 17:16:12 1512166572.856197: $GPGBS,221613,2.67,M,3.86,M,8.82,M*37
2017-12-01 17:16:13 1512166573.436666: $GPZDA,221614.00,01,12,2017,00,00*62
2017-12-01 17:16:13 1512166573.436835: $GPGGA,221614,3946.9654,N,08404.9758,W,2,11,0.80,292.09,M,-33.324,M,,*7C
2017-12-01 17:16:13 1512166573.436902: $GPRMC,221614,A,3946.9654,N,08404.9758,W,0.0000,0.000,011217,,*34
2017-12-01 17:16:13 1512166573.436962: $GPGSA,A,3,1,3,10,14,22,26,31,32,12,25,138,,2.0,0.8,1.5*03
2017-12-01 17:16:13 1512166573.437021: $GPGBS,221614,2.67,M,3.86,M,8.82,M*30
2017-12-01 17:16:14 1512166574.770749: $GPGSV,3,1,11,01,20,279,40,03,17,316,38,10,26,156,37,14,70,025,46*7E
2017-12-01 17:16:14 1512166574.770929: $GPGSV,3,2,11,22,36,306,43,26,21,178,34,31,76,262,48,32,58,072,48*7D
2017-12-01 17:16:14 1512166574.770995: $GPGSV,3,3,11,12,10,034,32,25,38,063,33,138,38,213,40*71
2017-12-01 17:16:14 1512166574.884223: $GPZDA,221615.00,01,12,2017,00,00*63
2017-12-01 17:16:14 1512166574.884407: $GPGGA,221615,3946.9654,N,08404.9758,W,2,11,0.80,292.09,M,-33.324,M,,*7D
2017-12-01 17:16:14 1512166574.884474: $GPRMC,221615,A,3946.9654,N,08404.9758,W,0.0000,0.000,011217,,*35
2017-12-01 17:16:14 1512166574.884535: $GPGSA,A,3,1,3,10,14,22,26,31,32,12,25,138,,2.0,0.8,1.5*03
2017-12-01 17:16:15 1512166575.509536: $GPZDA,221616.00,01,12,2017,00,00*60
2017-12-01 17:16:15 1512166575.509710: $GPGGA,221616,3946.9654,N,08404.9758,W,2,11,0.80,292.09,M,-33.324,M,,*7E
2017-12-01 17:16:15 1512166575.509778: $GPRMC,221616,A,3946.9654,N,08404.9758,W,0.0000,0.000,011217,,*36
2017-12-01 17:16:15 1512166575.509839: $GPGSA,A,3,1,3,10,14,22,26,31,32,12,25,138,,2.0,0.8,1.5*03
2017-12-01 17:16:16 1512166576.437932: $GPZDA,221617.00,01,12,2017,00,00*61
2017-12-01 17:16:16 1512166576.438123: $GPGGA,221617,3946.9654,N,08404.9758,W,2,11,0.80,292.09,M,-33.324,M,,*7F
2017-12-01 17:16:16 1512166576.438213: $GPRMC,221617,A,3946.9654,N,08404.9758,W,0.0000,0.000,011217,,*37
2017-12-01 17:16:16 1512166576.438277: $GPGSA,A,3,1,3,10,14,22,26,31,32,12,25,138,,2.0,0.8,1.5*03
2017-12-01 17:16:17 1512166577.772362: $GPGSV,3,1,11,01,20,279,40,03,17,316,38,10,26,156,37,14,70,025,46*7E
2017-12-01 17:16:17 1512166577.772546: $GPGSV,3,2,11,22,36,306,43,26,21,178,36,31,76,262,48,32,58,072,47*70
2017-12-01 17:16:17 1512166577.772613: $GPGSV,3,3,11,12,10,034,32,25,38,063,33,138,38,213,38*7E
2017-12-01 17:16:17 1512166577.885783: $GPZDA,221618.00,01,12,2017,00,00*6E
2017-12-01 17:16:17 1512166577.885944: $GPGGA,221618,3946.9654,N,08404.9758,W,2,11,0.80,292.09,M,-33.324,M,,*70
2017-12-01 17:16:17 1512166577.886010: $GPRMC,221618,A,3946.9654,N,08404.9758,W,0.0000,0.000,011217,,*38
2017-12-01 17:16:17 1512166577.886070: $GPGSA,A,3,1,3,10,14,22,26,31,32,12,25,138,,2.0,0.8,1.5*03
2017-12-01 17:16:18 1512166578.438232: $GPZDA,221619.00,01,12,2017,00,00*6F
2017-12-01 17:16:18 1512166578.438401: $GPGGA,221619,3946.9654,N,08404.9758,W,2,11,0.80,292.09,M,-33.324,M,,*71
2017-12-01 17:16:18 1512166578.438469: $GPRMC,221619,A,3946.9654,N,08404.9758,W,0.0000,0.000,011217,,*39
2017-12-01 17:16:18 1512166578.438530: $GPGSA,A,3,1,3,10,14,22,26,31,32,12,25,138,,2.0,0.8,1.5*03
2017-12-01 17:16:19 1512166579.439116: $GPZDA,221620.00,01,12,2017,00,00*65
2017-12-01 17:16:19 1512166579.439285: $GPGGA,221620,3946.9654,N,08404.9758,W,2,11,0.80,292.09,M,-33.324,M,,*7B
2017-12-01 17:16:19 1512166579.439352: $GPRMC,221620,A,3946.9654,N,08404.9758,W,0.0000,0.000,011217,,*33
2017-12-01 17:16:19 1512166579.439465: $GPGSA,A,3,1,3,10,14,22,26,31,32,12,25,138,,2.0,0.8,1.5*03
2017-12-01 17:16:20 1512166580.772742: $GPGSV,3,1,11,01,20,279,40,03,17,316,38,10,26,156,38,14,70,025,45*72
2017-12-01 17:16:20 1512166580.772920: $GPGSV,3,2,11,22,36,306,42,26,21,178,36,31,76,262,48,32,58,072,48*7E
2017-12-01 17:16:20 1512166580.772988: $GPGSV,3,3,11,12,10,034,32,25,38,063,32,138,38,213,40*70
2017-12-01 17:16:20 1512166580.884922: $GPZDA,221621.00,01,12,2017,00,00*64
2017-12-01 17:16:20 1512166580.885077: $GPGGA,221621,3946.9654,N,08404.9758,W,2,11,0.80,292.09,M,-33.324,M,,*7A
2017-12-01 17:16:20 1512166580.885146: $GPRMC,221621,A,3946.9654,N,08404.9758,W,0.0000,0.000,011217,,*32
2017-12-01 17:16:20 1512166580.885206: $GPGSA,A,3,1,3,10,14,22,26,31,32,12,25,138,,2.0,0.8,1.5*03
2017-12-01 17:16:21 1512166581.437027: $GPZDA,221622.00,01,12,2017,00,00*67
2017-12-01 17:16:21 1512166581.440663: $GPGGA,221622,3946.9654,N,08404.9758,W,2,11,0.80,292.09,M,-33.324,M,,*79
2017-12-01 17:16:21 1512166581.440792: $GPRMC,221622,A,3946.9654,N,08404.9758,W,0.0000,0.000,011217,,*31
2017-12-01 17:16:21 1512166581.440869: $GPGSA,A,3,1,3,10,14,22,26,31,32,12,25,138,,2.0,0.8,1.5*03
2017-12-01 17:16:22 1512166582.436664: $GPZDA,221623.00,01,12,2017,00,00*66
2017-12-01 17:16:22 1512166582.436827: $GPGGA,221623,3946.9654,N,08404.9758,W,2,11,0.80,292.09,M,-33.324,M,,*78
2017-12-01 17:16:22 1512166582.436896: $GPRMC,221623,A,3946.9654,N,08404.9758,W,0.0000,0.000,011217,,*30
2017-12-01 17:16:22 1512166582.436957: $GPGSA,A,3,1,3,10,14,22,26,31,32,12,25,138,,2.0,0.8,1.5*03
2017-12-01 17:16:23 1512166583.773624: $GPGSV,3,1,11,01,20,279,41,03,17,316,39,10,26,156,38,14,70,025,45*72
2017-12-01 17:16:23 1512166583.773801: $GPGSV,3,2,11,22,36,306,43,26,21,178,37,31,76,262,48,32,58,072,48*7E
2017-12-01 17:16:23 1512166583.773867: $GPGSV,3,3,11,12,10,034,32,25,38,063,32,138,38,213,41*71
2017-12-01 17:16:23 1512166583.887338: $GPZDA,221624.00,01,12,2017,00,00*61
2017-12-01 17:16:23 1512166583.887525: $GPGGA,221624,3946.9654,N,08404.9758,W,2,11,0.80,292.09,M,-33.324,M,,*7F
2017-12-01 17:16:23 1512166583.887593: $GPRMC,221624,A,3946.9654,N,08404.9758,W,0.0000,0.000,011217,,*37
2017-12-01 17:16:23 1512166583.887655: $GPGSA,A,3,1,3,10,14,22,26,31,32,12,25,138,,2.0,0.8,1.5*03
2017-12-01 17:16:24 1512166584.439116: $GPZDA,221625.00,01,12,2017,00,00*60
2017-12-01 17:16:24 1512166584.439290: $GPGGA,221625,3946.9654,N,08404.9758,W,2,11,0.80,292.09,M,-33.324,M,,*7E
2017-12-01 17:16:24 1512166584.439358: $GPRMC,221625,A,3946.9654,N,08404.9758,W,0.0000,0.000,011217,,*36
2017-12-01 17:16:24 1512166584.439425: $GPGSA,A,3,1,3,10,14,22,26,31,32,12,25,138,,2.0,0.8,1.5*03
