2017-12-29 11:44:47 1514565887.235850: {"class":"VERSION","release":"3.16","rev":"3.16-4","proto_major":3,"proto_minor":11}
2017-12-29 11:44:47 1514565887.236196: {"class":"DEVICES","devices":[{"class":"DEVICE","path":"/dev/ttyUSB0","driver":"SiRF","subtype":"9\u0006GSD4e_4.1.2-P1_RPATCH.05-F-GPS-4R-1510281 11/03/2015 307","activated":"2017-12-29T16:44:47.187Z","flags":1,"native":1,"bps":4800,"parity":"N","stopbits":1,"cycle":1.00}]}
2017-12-29 11:44:47 1514565887.236313: {"class":"WATCH","enable":true,"json":false,"nmea":true,"raw":0,"scaled":false,"timing":false,"split24":false,"pps":false}
2017-12-29 11:44:47 1514565887.364136: $GPZDA,164448.00,29,12,2017,00,00*61
2017-12-29 11:44:47 1514565887.364291: $GPGGA,164448,3946.9616,N,08404.9878,W,2,11,0.80,311.43,M,-33.324,M,,*7A
2017-12-29 11:44:47 1514565887.364356: $GPRMC,164448,A,3946.9616,N,08404.9878,W,0.0000,0.000,291217,,*3C
2017-12-29 11:44:47 1514565887.364416: $GPGSA,A,3,10,14,15,18,20,21,24,27,32,8,138,,1.7,0.8,1.3*36
2017-12-29 11:44:48 1514565888.363152: $GPZDA,164449.00,29,12,2017,00,00*60
2017-12-29 11:44:48 1514565888.363304: $GPGGA,164449,3946.9616,N,08404.9878,W,2,11,0.80,311.43,M,-33.324,M,,*7B
2017-12-29 11:44:48 1514565888.363369: $GPRMC,164449,A,3946.9616,N,08404.9878,W,0.0000,0.000,291217,,*3D
2017-12-29 11:44:48 1514565888.363429: $GPGSA,A,3,10,14,15,18,20,21,24,27,32,8,138,,1.7,0.8,1.3*36
2017-12-29 11:44:49 1514565889.701135: $GPGSV,3,1,11,10,52,310,45,14,13,238,28,15,26,057,45,18,77,019,44*78
2017-12-29 11:44:49 1514565889.701289: $GPGSV,3,2,11,20,25,105,48,21,50,183,47,24,53,088,51,27,16,277,39*74
2017-12-29 11:44:49 1514565889.701369: $GPGSV,3,3,11,32,31,247,37,08,08,312,40,138,38,213,45*7B
2017-12-29 11:44:49 1514565889.814542: $GPZDA,164450.00,29,12,2017,00,00*68
2017-12-29 11:44:49 1514565889.814679: $GPGGA,164450,3946.9608,N,08404.9878,W,2,11,0.80,310.15,M,-33.324,M,,*7E
2017-12-29 11:44:49 1514565889.814747: $GPRMC,164450,A,3946.9608,N,08404.9878,W,0.0000,0.000,291217,,*3A
2017-12-29 11:44:49 1514565889.814808: $GPGSA,A,3,10,14,15,18,20,21,24,27,32,8,138,,1.7,0.8,1.3*36
2017-12-29 11:44:50 1514565890.364519: $GPZDA,164451.00,29,12,2017,00,00*69
2017-12-29 11:44:50 1514565890.364695: $GPGGA,164451,3946.9608,N,08404.9878,W,2,11,0.80,310.15,M,-33.324,M,,*7F
2017-12-29 11:44:50 1514565890.364760: $GPRMC,164451,A,3946.9608,N,08404.9878,W,0.0000,0.000,291217,,*3B
2017-12-29 11:44:50 1514565890.364821: $GPGSA,A,3,10,14,15,18,20,21,24,27,32,8,138,,1.7,0.8,1.3*36
2017-12-29 11:44:51 1514565891.362744: $GPZDA,164452.00,29,12,2017,00,00*6A
2017-12-29 11:44:51 1514565891.362922: $GPGGA,164452,3946.9608,N,08404.9878,W,2,11,0.80,310.15,M,-33.324,M,,*7C
2017-12-29 11:44:51 1514565891.363009: $GPRMC,164452,A,3946.9608,N,08404.9878,W,0.0000,0.000,291217,,*38
2017-12-29 11:44:51 1514565891.363071: $GPGSA,A,3,10,14,15,18,20,21,24,27,32,8,138,,1.7,0.8,1.3*36
2017-12-29 11:44:52 1514565892.696971: $GPGSV,3,1,11,10,52,310,45,14,13,238,27,15,26,057,45,18,77,019,44*77
2017-12-29 11:44:52 1514565892.697151: $GPGSV,3,2,11,20,25,105,48,21,50,183,47,24,53,088,51,27,16,277,40*7A
2017-12-29 11:44:52 1514565892.697217: $GPGSV,3,3,11,32,31,247,37,08,08,312,40,138,38,213,46*78
2017-12-29 11:44:52 1514565892.810823: $GPZDA,164453.00,29,12,2017,00,00*6B
2017-12-29 11:44:52 1514565892.811017: $GPGGA,164453,3946.9608,N,08404.9871,W,2,11,0.80,310.23,M,-33.324,M,,*71
2017-12-29 11:44:52 1514565892.811275: $GPRMC,164453,A,3946.9608,N,08404.9871,W,0.0000,0.000,291217,,*30
2017-12-29 11:44:52 1514565892.811338: $GPGSA,A,3,10,14,15,18,20,21,24,27,32,8,138,,1.7,0.8,1.3*36
2017-12-29 11:44:53 1514565893.436418: $GPZDA,164454.00,29,12,2017,00,00*6C
2017-12-29 11:44:53 1514565893.436599: $GPGGA,164454,3946.9608,N,08404.9871,W,2,11,0.80,310.23,M,-33.324,M,,*76
2017-12-29 11:44:53 1514565893.436685: $GPRMC,164454,A,3946.9608,N,08404.9871,W,0.0000,0.000,291217,,*37
2017-12-29 11:44:53 1514565893.436748: $GPGSA,A,3,10,14,15,18,20,21,24,27,32,8,138,,1.7,0.8,1.3*36
2017-12-29 11:44:54 1514565894.364110: $GPZDA,164455.00,29,12,2017,00,00*6D
2017-12-29 11:44:54 1514565894.364282: $GPGGA,164455,3946.9608,N,08404.9871,W,2,11,0.80,310.23,M,-33.324,M,,*77
2017-12-29 11:44:54 1514565894.364433: $GPRMC,164455,A,3946.9608,N,08404.9871,W,0.0000,0.000,291217,,*36
2017-12-29 11:44:54 1514565894.364497: $GPGSA,A,3,10,14,15,18,20,21,24,27,32,8,138,,1.7,0.8,1.3*36
2017-12-29 11:44:56 1514565896.563338: $GPGSV,3,1,11,10,52,312,46,14,13,240,26,15,26,057,46,18,77,021,45*71
2017-12-29 11:44:56 1514565896.563510: $GPGSV,3,2,11,20,25,105,48,21,50,183,47,24,53,087,51,27,16,277,39*7B
2017-12-29 11:44:56 1514565896.563575: $GPGSV,3,3,11,32,32,247,37,08,08,312,39,138,38,213,45*76
2017-12-29 11:44:56 1514565896.676885: $GPZDA,164456.00,29,12,2017,00,00*6E
2017-12-29 11:44:56 1514565896.677058: $GPGGA,164456,3946.9599,N,08404.9864,W,2,11,0.80,309.03,M,-33.324,M,,*71
2017-12-29 11:44:56 1514565896.677125: $GPRMC,164456,A,3946.9599,N,08404.9864,W,0.1867,180.000,291217,,*3B
2017-12-29 11:44:56 1514565896.677186: $GPGSA,A,3,10,14,15,18,20,21,24,27,32,8,138,,1.7,0.8,1.3*36
2017-12-29 11:44:57 1514565897.127946: $GPZDA,164457.00,29,12,2017,00,00*6F
2017-12-29 11:44:57 1514565897.128113: $GPGGA,164457,3946.9599,N,08404.9864,W,2,11,0.80,309.03,M,-33.324,M,,*70
2017-12-29 11:44:57 1514565897.128179: $GPRMC,164457,A,3946.9599,N,08404.9864,W,0.0000,0.000,291217,,*3B
2017-12-29 11:44:57 1514565897.128239: $GPGSA,A,3,10,14,15,18,20,21,24,27,32,8,138,,1.7,0.8,1.3*36
2017-12-29 11:44:57 1514565897.580004: $GPZDA,164458.00,29,12,2017,00,00*60
2017-12-29 11:44:57 1514565897.580174: $GPGGA,164458,3946.9599,N,08404.9864,W,2,11,0.80,309.03,M,-33.324,M,,*7F
2017-12-29 11:44:57 1514565897.580240: $GPRMC,164458,A,3946.9599,N,08404.9864,W,0.0000,0.000,291217,,*34
2017-12-29 11:44:57 1514565897.580301: $GPGSA,A,3,10,14,15,18,20,21,24,27,32,8,138,,1.7,0.8,1.3*36
2017-12-29 11:44:58 1514565898.699941: $GPGSV,3,1,11,10,52,312,46,14,13,240,27,15,26,057,46,18,77,021,45*70
2017-12-29 11:44:58 1514565898.700119: $GPGSV,3,2,11,20,25,105,48,21,50,183,47,24,53,087,51,27,16,277,38*7A
2017-12-29 11:44:58 1514565898.700186: $GPGSV,3,3,11,32,32,247,37,08,08,312,39,138,38,213,45*76
2017-12-29 11:44:58 1514565898.813608: $GPZDA,164459.00,29,12,2017,00,00*61
2017-12-29 11:44:58 1514565898.813777: $GPGGA,164459,3946.9599,N,08404.9864,W,2,11,0.80,309.03,M,-33.324,M,,*7E
2017-12-29 11:44:58 1514565898.813843: $GPRMC,164459,A,3946.9599,N,08404.9864,W,0.0000,0.000,291217,,*35
2017-12-29 11:44:58 1514565898.813903: $GPGSA,A,3,10,14,15,18,20,21,24,27,32,8,138,,1.7,0.8,1.3*36
2017-12-29 11:44:59 1514565899.364992: $GPZDA,164500.00,29,12,2017,00,00*6C
2017-12-29 11:44:59 1514565899.365144: $GPGGA,164500,3946.9599,N,08404.9864,W,2,11,0.80,309.03,M,-33.324,M,,*73
2017-12-29 11:44:59 1514565899.365211: $GPRMC,164500,A,3946.9599,N,08404.9864,W,0.0000,0.000,291217,,*38
2017-12-29 11:44:59 1514565899.365272: $GPGSA,A,3,10,14,15,18,20,21,24,27,32,8,138,,1.7,0.8,1.3*36
2017-12-29 11:45:00 1514565900.364123: $GPZDA,164501.00,29,12,2017,00,00*6D
2017-12-29 11:45:00 1514565900.364293: $GPGGA,164501,3946.9599,N,08404.9864,W,2,11,0.80,309.03,M,-33.324,M,,*72
2017-12-29 11:45:00 1514565900.364360: $GPRMC,164501,A,3946.9599,N,08404.9864,W,0.0000,0.000,291217,,*39
2017-12-29 11:45:00 1514565900.364420: $GPGSA,A,3,10,14,15,18,20,21,24,27,32,8,138,,1.7,0.8,1.3*36
2017-12-29 11:45:01 1514565901.715839: $GPGSV,3,1,11,10,52,312,46,14,13,240,28,15,26,057,46,18,77,021,45*7F
2017-12-29 11:45:01 1514565901.716009: $GPGSV,3,2,11,20,25,105,48,21,50,183,47,24,53,087,51,27,16,277,38*7A
2017-12-29 11:45:01 1514565901.716076: $GPGSV,3,3,11,32,32,247,36,08,08,312,37,138,38,213,45*79
2017-12-29 11:45:01 1514565901.829263: $GPZDA,164502.00,29,12,2017,00,00*6E
2017-12-29 11:45:01 1514565901.829431: $GPGGA,164502,3946.9599,N,08404.9864,W,2,11,0.80,309.03,M,-33.324,M,,*71
2017-12-29 11:45:01 1514565901.829498: $GPRMC,164502,A,3946.9599,N,08404.9864,W,0.0000,0.000,291217,,*3A
2017-12-29 11:45:01 1514565901.829559: $GPGSA,A,3,10,14,15,18,20,21,24,27,32,8,138,,1.7,0.8,1.3*36
