2017-11-15 18:43:04 1510789384.882100: {"class":"VERSION","release":"3.17","rev":"3.17","proto_major":3,"proto_minor":12}
2017-11-15 18:43:04 1510789384.882548: {"class":"DEVICES","devices":[{"class":"DEVICE","path":"/dev/ttyUSB0","driver":"SiRF","subtype":"9\u0006GSD4e_4.1.2-P1_RPATCH.05-F-GPS-4R-1510281 11/03/2015 307","activated":"2017-11-15T23:43:04.502Z","flags":1,"native":1,"bps":4800,"parity":"N","stopbits":1,"cycle":1.00}]}
2017-11-15 18:43:04 1510789384.882664: {"class":"WATCH","enable":true,"json":false,"nmea":true,"raw":0,"scaled":false,"timing":false,"split24":false,"pps":false}
2017-11-15 18:43:05 1510789385.328526: $GPZDA,234304.00,15,11,2017,00,00*64
2017-11-15 18:43:05 1510789385.328686: $GPGGA,234304,3946.9545,N,08404.9738,W,1,07,1.20,314.85,M,-33.324,M,,*7D
2017-11-15 18:43:05 1510789385.328747: $GPRMC,234304,A,3946.9545,N,08404.9738,W,0.0000,0.000,151117,,*37
2017-11-15 18:43:05 1510789385.328803: $GPGSA,A,3,25,14,32,31,1,10,22,,,,,,3.4,1.2,2.9*0C
2017-11-15 18:43:06 1510789386.698451: $GPGSV,3,1,12,25,33,052,12,14,67,052,16,03,24,313,04,32,52,085,20*76
2017-11-15 18:43:06 1510789386.698623: $GPGSV,3,2,12,31,79,306,28,01,17,270,11,26,30,177,00,10,17,157,17*7E
2017-11-15 18:43:06 1510789386.698685: $GPGSV,3,3,12,12,03,030,00,22,42,298,11,16,02,190,00,120,07,103,00*47
2017-11-15 18:43:06 1510789386.813445: $GPZDA,234305.00,15,11,2017,00,00*65
2017-11-15 18:43:06 1510789386.813611: $GPGGA,234305,3946.9545,N,08404.9738,W,1,07,1.20,314.85,M,-33.324,M,,*7C
2017-11-15 18:43:06 1510789386.813673: $GPRMC,234305,A,3946.9545,N,08404.9738,W,0.2422,273.794,151117,,*3C
2017-11-15 18:43:06 1510789386.813729: $GPGSA,A,3,25,14,32,31,1,10,22,,,,,,3.4,1.2,2.9*0C
2017-11-15 18:43:07 1510789387.363846: $GPZDA,234306.00,15,11,2017,00,00*66
2017-11-15 18:43:07 1510789387.364008: $GPGGA,234306,3946.9541,N,08404.9739,W,1,07,1.20,315.62,M,-33.324,M,,*72
2017-11-15 18:43:07 1510789387.364069: $GPRMC,234306,A,3946.9541,N,08404.9739,W,0.3155,309.994,151117,,*3C
2017-11-15 18:43:07 1510789387.364126: $GPGSA,A,3,25,14,32,31,1,10,22,,,,,,3.4,1.2,2.9*0C
2017-11-15 18:43:08 1510789388.333485: $GPZDA,234307.00,15,11,2017,00,00*67
2017-11-15 18:43:08 1510789388.333652: $GPGGA,234307,3946.9541,N,08404.9739,W,1,07,1.20,315.62,M,-33.324,M,,*73
2017-11-15 18:43:08 1510789388.333714: $GPRMC,234307,A,3946.9541,N,08404.9739,W,0.4179,328.778,151117,,*3B
2017-11-15 18:43:08 1510789388.333770: $GPGSA,A,3,25,14,32,31,1,10,22,,,,,,3.4,1.2,2.9*0C
2017-11-15 18:43:09 1510789389.699358: $GPGSV,3,1,12,25,33,052,12,14,67,052,17,03,24,313,11,32,52,085,20*73
2017-11-15 18:43:09 1510789389.699525: $GPGSV,3,2,12,31,79,306,28,01,17,270,11,16,02,190,18,10,17,157,17*7C
2017-11-15 18:43:09 1510789389.699585: $GPGSV,3,3,12,26,30,177,00,22,42,298,11,12,03,030,00,120,07,103,00*4C
2017-11-15 18:43:09 1510789389.812796: $GPZDA,234308.00,15,11,2017,00,00*68
2017-11-15 18:43:09 1510789389.812962: $GPGGA,234308,3946.9541,N,08404.9739,W,1,07,1.20,315.62,M,-33.324,M,,*7C
2017-11-15 18:43:09 1510789389.813022: $GPRMC,234308,A,3946.9541,N,08404.9739,W,0.9060,347.792,151117,,*3D
2017-11-15 18:43:09 1510789389.813078: $GPGSA,A,3,25,14,32,31,1,10,22,,,,,,3.4,1.2,2.9*0C
2017-11-15 18:43:10 1510789390.329794: $GPZDA,234309.00,15,11,2017,00,00*69
2017-11-15 18:43:10 1510789390.329957: $GPGGA,234309,3946.9541,N,08404.9739,W,1,07,2.40,315.62,M,-33.324,M,,*78
2017-11-15 18:43:10 1510789390.330018: $GPRMC,234309,A,3946.9541,N,08404.9739,W,1.4168,332.695,151117,,*3D
2017-11-15 18:43:10 1510789390.330074: $GPGSA,A,3,25,14,32,31,1,10,22,,,,,,3.4,2.4,2.9*09
2017-11-15 18:43:11 1510789391.330157: $GPZDA,234310.00,15,11,2017,00,00*61
2017-11-15 18:43:11 1510789391.330369: $GPGGA,234310,3946.9549,N,08404.9738,W,1,07,2.40,315.49,M,-33.324,M,,*70
2017-11-15 18:43:11 1510789391.330432: $GPRMC,234310,A,3946.9549,N,08404.9738,W,0.9060,347.792,151117,,*3D
2017-11-15 18:43:11 1510789391.330489: $GPGSA,A,3,25,14,32,31,1,10,22,,,,,,3.4,2.4,2.9*09
2017-11-15 18:43:12 1510789392.699778: $GPGSV,3,1,12,25,33,052,13,14,67,052,17,03,24,313,12,32,52,085,20*71
2017-11-15 18:43:12 1510789392.699970: $GPGSV,3,2,12,31,79,306,28,01,17,270,11,26,30,177,00,10,17,157,17*7E
2017-11-15 18:43:12 1510789392.700084: $GPGSV,3,3,12,12,03,030,00,22,42,298,12,16,02,190,00,120,07,103,00*44
2017-11-15 18:43:12 1510789392.812978: $GPZDA,234311.00,15,11,2017,00,00*60
2017-11-15 18:43:12 1510789392.813138: $GPGGA,234311,3946.9549,N,08404.9738,W,1,08,2.40,315.49,M,-33.324,M,,*7E
2017-11-15 18:43:12 1510789392.813221: $GPRMC,234311,A,3946.9549,N,08404.9738,W,0.4179,328.778,151117,,*35
2017-11-15 18:43:12 1510789392.813278: $GPGSA,A,3,25,14,3,32,31,1,10,22,,,,,3.4,2.4,2.9*3A
2017-11-15 18:43:13 1510789393.363870: $GPZDA,234312.00,15,11,2017,00,00*63
2017-11-15 18:43:13 1510789393.364029: $GPGGA,234312,3946.9541,N,08404.9739,W,1,08,2.40,315.62,M,-33.324,M,,*7D
2017-11-15 18:43:13 1510789393.364090: $GPRMC,234312,A,3946.9541,N,08404.9739,W,0.2422,273.794,151117,,*3F
2017-11-15 18:43:13 1510789393.364145: $GPGSA,A,3,25,14,3,32,31,1,10,22,,,,,3.4,2.4,2.9*3A
2017-11-15 18:43:14 1510789394.329732: $GPZDA,234313.00,15,11,2017,00,00*62
2017-11-15 18:43:14 1510789394.692658: $GPGGA,234313,3946.9542,N,08404.9746,W,1,08,2.40,315.54,M,-33.324,M,,*72
2017-11-15 18:43:14 1510789394.692799: $GPRMC,234313,A,3946.9542,N,08404.9746,W,0.7267,273.794,151117,,*37
2017-11-15 18:43:14 1510789394.692858: $GPGSA,A,3,25,14,3,32,31,1,10,22,,,,,3.4,2.4,2.9*3A
2017-11-15 18:43:15 1510789395.699263: $GPGSV,3,1,12,25,33,052,12,14,67,052,17,03,24,313,12,32,52,085,20*70
2017-11-15 18:43:15 1510789395.699449: $GPGSV,3,2,12,31,79,306,28,01,17,270,11,26,30,177,00,10,17,157,17*7E
2017-11-15 18:43:15 1510789395.699509: $GPGSV,3,3,12,12,03,030,00,22,42,298,12,16,02,190,00,120,07,103,00*44
2017-11-15 18:43:15 1510789395.812631: $GPZDA,234314.00,15,11,2017,00,00*65
2017-11-15 18:43:15 1510789395.812819: $GPGGA,234314,3946.9542,N,08404.9746,W,1,08,2.40,315.54,M,-33.324,M,,*75
2017-11-15 18:43:15 1510789395.812882: $GPRMC,234314,A,3946.9542,N,08404.9746,W,0.8414,219.347,151117,,*3B
2017-11-15 18:43:15 1510789395.812938: $GPGSA,A,3,25,14,3,32,31,1,10,22,,,,,3.4,2.4,2.9*3A
2017-11-15 18:43:16 1510789396.438039: $GPZDA,234315.00,15,11,2017,00,00*64
2017-11-15 18:43:16 1510789396.438219: $GPGGA,234315,3946.9534,N,08404.9746,W,1,08,2.40,315.66,M,-33.324,M,,*74
2017-11-15 18:43:16 1510789396.438296: $GPRMC,234315,A,3946.9534,N,08404.9746,W,0.9019,198.875,151117,,*33
2017-11-15 18:43:16 1510789396.438353: $GPGSA,A,3,25,14,3,32,31,1,10,22,,,,,3.4,2.4,2.9*3A
2017-11-15 18:43:17 1510789397.330116: $GPZDA,234316.00,15,11,2017,00,00*67
2017-11-15 18:43:17 1510789397.330329: $GPGGA,234316,3946.9534,N,08404.9746,W,1,08,2.40,315.66,M,-33.324,M,,*77
2017-11-15 18:43:17 1510789397.330410: $GPRMC,234316,A,3946.9534,N,08404.9746,W,0.5951,238.684,151117,,*30
2017-11-15 18:43:17 1510789397.330468: $GPGSA,A,3,25,14,3,32,31,1,10,22,,,,,3.4,2.4,2.9*3A
2017-11-15 18:43:18 1510789398.698365: $GPGSV,3,1,11,25,33,052,12,14,67,052,17,03,24,313,13,32,52,085,20*72
2017-11-15 18:43:18 1510789398.698537: $GPGSV,3,2,11,31,79,306,28,01,17,270,10,26,30,177,00,10,17,157,17*7C
2017-11-15 18:43:18 1510789398.698598: $GPGSV,3,3,11,12,03,030,00,22,42,298,12,16,02,190,00*41
2017-11-15 18:43:18 1510789398.811711: $GPZDA,234317.00,15,11,2017,00,00*66
2017-11-15 18:43:18 1510789398.811875: $GPGGA,234317,3946.9534,N,08404.9746,W,1,08,2.40,315.66,M,-33.324,M,,*76
2017-11-15 18:43:18 1510789398.811936: $GPRMC,234317,A,3946.9534,N,08404.9746,W,0.4844,273.794,151117,,*3A
2017-11-15 18:43:18 1510789398.811992: $GPGSA,A,3,25,14,3,32,31,1,10,22,,,,,3.4,2.4,2.9*3A
2017-11-15 18:43:19 1510789399.330176: $GPZDA,234318.00,15,11,2017,00,00*69
2017-11-15 18:43:19 1510789399.330354: $GPGGA,234318,3946.9531,N,08404.9747,W,1,08,2.40,316.43,M,-33.324,M,,*79
2017-11-15 18:43:19 1510789399.330416: $GPRMC,234318,A,3946.9531,N,08404.9747,W,0.4844,273.794,151117,,*31
2017-11-15 18:43:19 1510789399.330472: $GPGSA,A,3,25,14,3,32,31,1,10,22,,,,,3.4,2.4,2.9*3A
2017-11-15 18:43:20 1510789400.363512: $GPZDA,234319.00,15,11,2017,00,00*68
2017-11-15 18:43:20 1510789400.363684: $GPGGA,234319,3946.9526,N,08404.9747,W,1,08,2.40,315.79,M,-33.324,M,,*74
2017-11-15 18:43:20 1510789400.363795: $GPRMC,234319,A,3946.9526,N,08404.9747,W,0.4207,219.347,151117,,*3D
2017-11-15 18:43:20 1510789400.363852: $GPGSA,A,3,25,14,3,32,31,1,10,22,,,,,3.4,2.4,2.9*3A
2017-11-15 18:43:21 1510789401.698722: $GPGSV,3,1,11,25,33,052,13,14,67,052,18,03,24,313,12,32,52,085,20*7D
2017-11-15 18:43:21 1510789401.698891: $GPGSV,3,2,11,31,79,306,28,01,17,270,08,26,30,177,14,10,17,157,17*70
2017-11-15 18:43:21 1510789401.698951: $GPGSV,3,3,11,12,03,030,00,22,42,298,12,16,02,190,00*41
2017-11-15 18:43:21 1510789401.812578: $GPZDA,234320.00,15,11,2017,00,00*62
2017-11-15 18:43:21 1510789401.812751: $GPGGA,234320,3946.9526,N,08404.9747,W,1,08,2.40,315.79,M,-33.324,M,,*7E
2017-11-15 18:43:21 1510789401.812815: $GPRMC,234320,A,3946.9526,N,08404.9747,W,0.8414,219.347,151117,,*3F
2017-11-15 18:43:21 1510789401.812872: $GPGSA,A,3,25,14,3,32,31,1,10,22,,,,,3.4,2.4,2.9*3A
2017-11-15 18:43:22 1510789402.364294: $GPZDA,234321.00,15,11,2017,00,00*63
2017-11-15 18:43:22 1510789402.364457: $GPGGA,234321,3946.9523,N,08404.9755,W,1,08,2.40,316.47,M,-33.324,M,,*77
2017-11-15 18:43:22 1510789402.364520: $GPRMC,234321,A,3946.9523,N,08404.9755,W,1.0298,254.381,151117,,*30
2017-11-15 18:43:22 1510789402.364576: $GPGSA,A,3,25,14,3,32,31,1,10,22,,,,,3.4,2.4,2.9*3A
2017-11-15 18:43:23 1510789403.330508: $GPZDA,234322.00,15,11,2017,00,00*60
2017-11-15 18:43:23 1510789403.330670: $GPGGA,234322,3946.9519,N,08404.9755,W,1,08,2.40,315.83,M,-33.324,M,,*76
2017-11-15 18:43:23 1510789403.330732: $GPRMC,234322,A,3946.9519,N,08404.9755,W,1.3954,244.414,151117,,*38
2017-11-15 18:43:23 1510789403.330790: $GPGSA,A,3,25,14,3,32,31,1,10,22,,,,,3.4,2.4,2.9*3A
2017-11-15 18:43:24 1510789404.665920: $GPGSV,3,1,11,25,33,052,14,14,67,052,18,03,24,313,13,32,52,085,19*71
2017-11-15 18:43:24 1510789404.666062: $GPGSV,3,2,11,31,79,306,28,01,17,270,07,26,30,177,14,10,17,157,17*7F
2017-11-15 18:43:24 1510789404.666123: $GPGSV,3,3,11,12,03,030,14,22,42,298,11,16,02,190,00*47
2017-11-15 18:43:24 1510789404.779220: $GPZDA,234323.00,15,11,2017,00,00*61
2017-11-15 18:43:24 1510789404.779404: $GPGGA,234323,3946.9516,N,08404.9755,W,1,09,2.60,316.60,M,-33.324,M,,*75
2017-11-15 18:43:24 1510789404.779489: $GPRMC,234323,A,3946.9516,N,08404.9755,W,1.4167,227.342,151117,,*38
2017-11-15 18:43:24 1510789404.779547: $GPGSA,A,3,25,14,3,32,31,1,26,10,22,,,,3.4,2.6,2.9*3C
2017-11-15 18:43:25 1510789405.328803: $GPZDA,234324.00,15,11,2017,00,00*66
2017-11-15 18:43:25 1510789405.328962: $GPGGA,234324,3946.9512,N,08404.9762,W,1,09,2.60,315.88,M,-33.324,M,,*77
2017-11-15 18:43:25 1510789405.329023: $GPRMC,234324,A,3946.9512,N,08404.9762,W,1.2621,219.347,151117,,*34
2017-11-15 18:43:25 1510789405.329079: $GPGSA,A,3,25,14,3,32,31,1,26,10,22,,,,3.4,2.6,2.9*3C
2017-11-15 18:43:26 1510789406.330965: $GPZDA,234325.00,15,11,2017,00,00*67
2017-11-15 18:43:26 1510789406.331282: $GPGGA,234325,3946.9512,N,08404.9762,W,1,09,2.60,315.88,M,-33.324,M,,*76
2017-11-15 18:43:26 1510789406.331407: $GPRMC,234325,A,3946.9512,N,08404.9762,W,1.3044,205.352,151117,,*38
2017-11-15 18:43:26 1510789406.331532: $GPGSA,A,3,25,14,3,32,31,1,26,10,22,,,,3.4,2.6,2.9*3C
2017-11-15 18:43:27 1510789407.664946: $GPGSV,3,1,11,25,33,052,13,14,67,052,18,03,24,313,13,32,52,085,19*76
2017-11-15 18:43:27 1510789407.665135: $GPGSV,3,2,11,31,79,306,29,01,17,270,06,26,30,177,00,10,17,157,16*7B
2017-11-15 18:43:27 1510789407.665196: $GPGSV,3,3,11,12,03,030,00,22,42,298,12,16,02,190,00*41
2017-11-15 18:43:27 1510789407.778299: $GPZDA,234326.00,15,11,2017,00,00*64
2017-11-15 18:43:27 1510789407.778458: $GPGGA,234326,3946.9504,N,08404.9763,W,1,08,2.60,316.00,M,-33.324,M,,*71
2017-11-15 18:43:27 1510789407.778518: $GPRMC,234326,A,3946.9504,N,08404.9763,W,1.1385,209.379,151117,,*34
2017-11-15 18:43:27 1510789407.778572: $GPGSA,A,3,25,14,3,32,31,1,10,22,,,,,3.4,2.6,2.9*38
2017-11-15 18:43:28 1510789408.362898: $GPZDA,234327.00,15,11,2017,00,00*65
2017-11-15 18:43:28 1510789408.363060: $GPGGA,234327,3946.9504,N,08404.9763,W,1,08,2.60,316.00,M,-33.324,M,,*70
2017-11-15 18:43:28 1510789408.363189: $GPRMC,234327,A,3946.9504,N,08404.9763,W,0.9929,212.499,151117,,*33
2017-11-15 18:43:28 1510789408.363264: $GPGSA,A,3,25,14,3,32,31,1,10,22,,,,,3.4,2.6,2.9*38
2017-11-15 18:43:29 1510789409.328844: $GPZDA,234328.00,15,11,2017,00,00*6A
2017-11-15 18:43:29 1510789409.329013: $GPGGA,234328,3946.9504,N,08404.9763,W,1,08,2.60,316.00,M,-33.324,M,,*7F
2017-11-15 18:43:29 1510789409.329074: $GPRMC,234328,A,3946.9504,N,08404.9763,W,0.5951,238.684,151117,,*39
2017-11-15 18:43:29 1510789409.329152: $GPGSA,A,3,25,14,3,32,31,1,10,22,,,,,3.4,2.6,2.9*38
2017-11-15 18:43:30 1510789410.665885: $GPGSV,3,1,11,25,33,052,13,14,67,052,19,03,24,313,13,32,52,085,18*76
2017-11-15 18:43:30 1510789410.666063: $GPGSV,3,2,11,31,79,306,29,01,17,270,05,26,30,177,00,10,17,157,16*78
2017-11-15 18:43:30 1510789410.666144: $GPGSV,3,3,11,12,03,030,00,22,42,298,12,16,02,190,00*41
2017-11-15 18:43:30 1510789410.779664: $GPZDA,234329.00,15,11,2017,00,00*6B
2017-11-15 18:43:30 1510789410.779823: $GPGGA,234329,3946.9504,N,08404.9763,W,1,07,2.60,316.00,M,-33.324,M,,*71
2017-11-15 18:43:30 1510789410.779884: $GPRMC,234329,A,3946.9504,N,08404.9763,W,0.2422,273.794,151117,,*39
2017-11-15 18:43:30 1510789410.779939: $GPGSA,A,3,25,14,3,32,31,10,22,,,,,,3.4,2.6,2.9*09
2017-11-15 18:43:31 1510789411.405189: $GPZDA,234330.00,15,11,2017,00,00*63
2017-11-15 18:43:31 1510789411.405377: $GPGGA,234330,3946.9504,N,08404.9763,W,1,07,1.20,316.00,M,-33.324,M,,*7E
2017-11-15 18:43:31 1510789411.405437: $GPRMC,234330,A,3946.9504,N,08404.9763,W,0.4179,328.778,151117,,*31
2017-11-15 18:43:31 1510789411.405492: $GPGSA,A,3,25,14,3,32,31,10,22,,,,,,3.4,1.2,2.9*0E
2017-11-15 18:43:32 1510789412.330887: $GPZDA,234331.00,15,11,2017,00,00*62
2017-11-15 18:43:32 1510789412.331047: $GPGGA,234331,3946.9504,N,08404.9763,W,1,07,1.20,316.00,M,-33.324,M,,*7F
2017-11-15 18:43:32 1510789412.331128: $GPRMC,234331,A,3946.9504,N,08404.9763,W,0.5306,294.352,151117,,*31
2017-11-15 18:43:32 1510789412.331186: $GPGSA,A,3,25,14,3,32,31,10,22,,,,,,3.4,1.2,2.9*0E
2017-11-15 18:43:33 1510789413.666259: $GPGSV,3,1,11,25,33,052,13,14,67,052,20,03,24,313,13,32,52,085,18*7C
2017-11-15 18:43:33 1510789413.666430: $GPGSV,3,2,11,31,79,306,29,01,17,270,12,12,03,030,13,10,17,157,16*79
2017-11-15 18:43:33 1510789413.666491: $GPGSV,3,3,11,26,30,177,00,22,42,298,16,16,02,190,00*40
2017-11-15 18:43:33 1510789413.779909: $GPZDA,234332.00,15,11,2017,00,00*61
2017-11-15 18:43:33 1510789413.780056: $GPGGA,234332,3946.9504,N,08404.9763,W,1,08,1.20,316.00,M,-33.324,M,,*73
2017-11-15 18:43:33 1510789413.780138: $GPRMC,234332,A,3946.9504,N,08404.9763,W,0.7267,273.794,151117,,*31
2017-11-15 18:43:33 1510789413.780194: $GPGSA,A,3,25,14,3,32,31,1,10,22,,,,,3.4,1.2,2.9*3F
2017-11-15 18:43:34 1510789414.364134: $GPZDA,234333.00,15,11,2017,00,00*60
2017-11-15 18:43:34 1510789414.364314: $GPGGA,234333,3946.9504,N,08404.9763,W,1,08,1.20,316.00,M,-33.324,M,,*72
2017-11-15 18:43:34 1510789414.364375: $GPRMC,234333,A,3946.9504,N,08404.9763,W,0.5951,238.684,151117,,*33
2017-11-15 18:43:34 1510789414.364431: $GPGSA,A,3,25,14,3,32,31,1,10,22,,,,,3.4,1.2,2.9*3F
2017-11-15 18:43:35 1510789415.364258: $GPZDA,234334.00,15,11,2017,00,00*67
2017-11-15 18:43:35 1510789415.840397: $GPGGA,234334,3946.9505,N,08404.9770,W,1,08,1.20,315.92,M,-33.324,M,,*7E
2017-11-15 18:43:35 1510789415.840558: $GPRMC,234334,A,3946.9505,N,08404.9770,W,1.2608,258.042,151117,,*38
2017-11-15 18:43:35 1510789415.840624: $GPGSA,A,3,25,14,3,32,31,1,10,22,,,,,3.4,1.2,2.9*3F
