2017-12-01 18:25:54 1512170754.906849: {"class":"VERSION","release":"3.16","rev":"3.16-4","proto_major":3,"proto_minor":11}
2017-12-01 18:25:54 1512170754.907312: {"class":"DEVICES","devices":[{"class":"DEVICE","path":"/dev/ttyUSB0","driver":"SiRF","subtype":"9\u0006GSD4e_4.1.2-P1_RPATCH.05-F-GPS-4R-1510281 11/03/2015 307","activated":"2017-12-01T23:25:54.866Z","flags":1,"native":1,"bps":4800,"parity":"N","stopbits":1,"cycle":1.00}]}
2017-12-01 18:25:54 1512170754.907430: {"class":"WATCH","enable":true,"json":false,"nmea":true,"raw":0,"scaled":false,"timing":false,"split24":false,"pps":false}
2017-12-01 18:25:54 1512170754.979811: $GPZDA,232555.65,01,12,2017,00,00*65
2017-12-01 18:25:54 1512170754.979955: $GPGGA,232555,3946.9712,N,08404.9865,W,1,11,0.80,304.19,M,-33.325,M,,*77
2017-12-01 18:25:54 1512170754.980022: $GPRMC,232555,A,3946.9712,N,08404.9865,W,0.2422,93.794,011217,,*04
2017-12-01 18:25:54 1512170754.980084: $GPGSA,A,3,1,3,14,16,22,23,25,26,31,32,138,,2.0,0.8,1.5*07
2017-12-01 18:25:56 1512170756.061571: $GPZDA,232556.34,01,12,2017,00,00*62
2017-12-01 18:25:56 1512170756.061745: $GPGGA,232556,3946.9712,N,08404.9865,W,1,11,0.80,304.19,M,-33.325,M,,*74
2017-12-01 18:25:56 1512170756.061812: $GPRMC,232556,A,3946.9712,N,08404.9865,W,0.2710,100.223,011217,,*37
2017-12-01 18:25:56 1512170756.061873: $GPGSA,A,3,1,3,14,16,22,23,25,26,31,32,138,,2.0,0.8,1.5*07
2017-12-01 18:25:56 1512170756.061932: $GPGBS,232556,10.70,M,15.43,M,35.28,M*02
2017-12-01 18:25:57 1512170757.246336: $GPGSV,3,1,12,01,05,252,37,03,41,298,47,14,54,093,43,16,24,189,44*73
2017-12-01 18:25:57 1512170757.249849: $GPGSV,3,2,12,22,50,268,45,23,12,301,44,25,16,040,39,26,55,171,46*7C
2017-12-01 18:25:57 1512170757.249955: $GPGSV,3,3,12,31,66,028,46,32,34,109,43,29,11,070,00,138,38,213,39*4E
2017-12-01 18:25:57 1512170757.360014: $GPZDA,232557.00,01,12,2017,00,00*64
2017-12-01 18:25:57 1512170757.360189: $GPGGA,232557,3946.9716,N,08404.9865,W,1,11,0.80,303.43,M,-33.325,M,,*79
2017-12-01 18:25:57 1512170757.360258: $GPRMC,232557,A,3946.9716,N,08404.9865,W,0.2710,100.223,011217,,*32
2017-12-01 18:25:57 1512170757.360319: $GPGSA,A,3,1,3,14,16,22,23,25,26,31,32,138,,2.0,0.8,1.5*07
2017-12-01 18:25:57 1512170757.810816: $GPZDA,232558.00,01,12,2017,00,00*6B
2017-12-01 18:25:57 1512170757.810994: $GPGGA,232558,3946.9715,N,08404.9864,W,1,11,0.80,302.03,M,-33.325,M,,*71
2017-12-01 18:25:57 1512170757.811061: $GPRMC,232558,A,3946.9715,N,08404.9864,W,0.0407,142.013,011217,,*3F
2017-12-01 18:25:57 1512170757.811122: $GPGSA,A,3,1,3,14,16,22,23,25,26,31,32,138,,2.0,0.8,1.5*07
2017-12-01 18:25:58 1512170758.370462: $GPZDA,232559.00,01,12,2017,00,00*6A
2017-12-01 18:25:58 1512170758.370634: $GPGGA,232559,3946.9715,N,08404.9857,W,1,11,0.80,302.10,M,-33.325,M,,*72
2017-12-01 18:25:58 1512170758.370701: $GPRMC,232559,A,3946.9715,N,08404.9857,W,0.0000,0.000,011217,,*38
2017-12-01 18:25:58 1512170758.370762: $GPGSA,A,3,1,3,14,16,22,23,25,26,31,32,138,,2.0,0.8,1.5*07
2017-12-01 18:25:59 1512170759.707955: $GPGSV,3,1,12,01,05,252,37,03,41,298,47,14,54,093,43,16,24,189,44*73
2017-12-01 18:25:59 1512170759.708156: $GPGSV,3,2,12,22,50,268,45,23,12,301,43,25,16,040,40,26,55,171,47*74
2017-12-01 18:25:59 1512170759.708223: $GPGSV,3,3,12,31,66,028,46,32,34,109,43,29,11,070,21,138,38,213,46*45
2017-12-01 18:25:59 1512170759.821639: $GPZDA,232600.00,01,12,2017,00,00*65
2017-12-01 18:25:59 1512170759.821807: $GPGGA,232600,3946.9725,N,08404.9831,W,2,12,1.00,295.07,M,-33.325,M,,*7E
2017-12-01 18:25:59 1512170759.821873: $GPRMC,232600,A,3946.9725,N,08404.9831,W,0.0000,0.000,011217,,*34
2017-12-01 18:25:59 1512170759.821934: $GPGSA,A,3,1,3,14,16,22,23,25,26,31,32,29,138,2.0,1.0,1.5*05
2017-12-01 18:26:00 1512170760.369658: $GPZDA,232601.00,01,12,2017,00,00*64
2017-12-01 18:26:00 1512170760.369835: $GPGGA,232601,3946.9725,N,08404.9831,W,2,12,1.00,295.07,M,-33.325,M,,*7F
2017-12-01 18:26:00 1512170760.369904: $GPRMC,232601,A,3946.9725,N,08404.9831,W,0.0000,0.000,011217,,*35
2017-12-01 18:26:00 1512170760.369965: $GPGSA,A,3,1,3,14,16,22,23,25,26,31,32,29,138,2.0,1.0,1.5*05
2017-12-01 18:26:01 1512170761.374195: $GPZDA,232602.00,01,12,2017,00,00*67
2017-12-01 18:26:01 1512170761.374380: $GPGGA,232602,3946.9725,N,08404.9831,W,2,12,1.00,295.07,M,-33.325,M,,*7C
2017-12-01 18:26:01 1512170761.374447: $GPRMC,232602,A,3946.9725,N,08404.9831,W,0.0000,0.000,011217,,*36
2017-12-01 18:26:01 1512170761.374508: $GPGSA,A,3,1,3,14,16,22,23,25,26,31,32,29,138,2.0,1.0,1.5*05
2017-12-01 18:26:01 1512170761.374567: $GPGBS,232602,2.67,M,3.86,M,8.82,M*35
2017-12-01 18:26:02 1512170762.707535: $GPGSV,3,1,12,01,05,252,37,03,41,298,48,14,54,093,43,16,24,189,44*7C
2017-12-01 18:26:02 1512170762.707725: $GPGSV,3,2,12,22,50,268,45,23,12,301,43,25,16,040,40,26,55,171,47*74
2017-12-01 18:26:02 1512170762.707792: $GPGSV,3,3,12,31,66,028,46,32,34,109,37,29,11,070,00,138,38,213,46*45
2017-12-01 18:26:02 1512170762.819814: $GPZDA,232603.00,01,12,2017,00,00*66
2017-12-01 18:26:02 1512170762.819992: $GPGGA,232603,3946.9725,N,08404.9831,W,2,11,1.00,295.07,M,-33.325,M,,*7E
2017-12-01 18:26:02 1512170762.820058: $GPRMC,232603,A,3946.9725,N,08404.9831,W,0.0000,0.000,011217,,*37
2017-12-01 18:26:02 1512170762.820119: $GPGSA,A,3,1,3,14,16,22,23,25,26,31,32,138,,2.0,1.0,1.5*0E
2017-12-01 18:26:03 1512170763.371933: $GPZDA,232604.00,01,12,2017,00,00*61
2017-12-01 18:26:03 1512170763.372105: $GPGGA,232604,3946.9725,N,08404.9831,W,2,11,0.80,295.07,M,-33.325,M,,*70
2017-12-01 18:26:03 1512170763.372173: $GPRMC,232604,A,3946.9725,N,08404.9831,W,0.0000,0.000,011217,,*30
2017-12-01 18:26:03 1512170763.372235: $GPGSA,A,3,1,3,14,16,22,23,25,26,31,32,138,,2.0,0.8,1.5*07
2017-12-01 18:26:04 1512170764.368699: $GPZDA,232605.00,01,12,2017,00,00*60
2017-12-01 18:26:04 1512170764.368872: $GPGGA,232605,3946.9729,N,08404.9830,W,2,11,0.80,294.31,M,-33.325,M,,*78
2017-12-01 18:26:04 1512170764.368938: $GPRMC,232605,A,3946.9729,N,08404.9830,W,0.0000,0.000,011217,,*3C
2017-12-01 18:26:04 1512170764.368999: $GPGSA,A,3,1,3,14,16,22,23,25,26,31,32,138,,2.0,0.8,1.5*07
2017-12-01 18:26:05 1512170765.705291: $GPGSV,3,1,12,01,05,252,37,03,41,298,47,14,54,093,43,16,24,189,44*73
2017-12-01 18:26:05 1512170765.705474: $GPGSV,3,2,12,22,50,268,44,23,12,301,42,25,16,040,40,26,55,171,46*75
2017-12-01 18:26:05 1512170765.705539: $GPGSV,3,3,12,31,66,028,46,32,34,109,39,29,11,070,00,138,38,213,47*4A
2017-12-01 18:26:05 1512170765.818636: $GPZDA,232606.00,01,12,2017,00,00*63
2017-12-01 18:26:05 1512170765.818810: $GPGGA,232606,3946.9724,N,08404.9830,W,2,11,0.80,293.67,M,-33.325,M,,*72
2017-12-01 18:26:05 1512170765.818877: $GPRMC,232606,A,3946.9724,N,08404.9830,W,0.0000,0.000,011217,,*32
2017-12-01 18:26:05 1512170765.818937: $GPGSA,A,3,1,3,14,16,22,23,25,26,31,32,138,,2.0,0.8,1.5*07
2017-12-01 18:26:06 1512170766.369452: $GPZDA,232607.00,01,12,2017,00,00*62
2017-12-01 18:26:06 1512170766.369621: $GPGGA,232607,3946.9724,N,08404.9830,W,2,11,0.80,293.67,M,-33.325,M,,*73
2017-12-01 18:26:06 1512170766.369689: $GPRMC,232607,A,3946.9724,N,08404.9830,W,0.0000,0.000,011217,,*33
2017-12-01 18:26:06 1512170766.369751: $GPGSA,A,3,1,3,14,16,22,23,25,26,31,32,138,,2.0,0.8,1.5*07
2017-12-01 18:26:07 1512170767.371906: $GPZDA,232608.00,01,12,2017,00,00*6D
2017-12-01 18:26:07 1512170767.376499: $GPGGA,232608,3946.9724,N,08404.9830,W,2,11,0.80,293.67,M,-33.325,M,,*7C
2017-12-01 18:26:07 1512170767.376686: $GPRMC,232608,A,3946.9724,N,08404.9830,W,0.0000,0.000,011217,,*3C
2017-12-01 18:26:07 1512170767.376753: $GPGSA,A,3,1,3,14,16,22,23,25,26,31,32,138,,2.0,0.8,1.5*07
2017-12-01 18:26:08 1512170768.704824: $GPGSV,3,1,12,01,05,252,37,03,41,298,46,14,54,093,43,16,24,189,44*72
2017-12-01 18:26:08 1512170768.705018: $GPGSV,3,2,12,22,50,268,44,23,12,301,43,25,16,040,40,26,55,171,47*75
2017-12-01 18:26:08 1512170768.705088: $GPGSV,3,3,12,31,66,028,46,32,34,109,40,29,11,070,00,138,38,213,46*45
2017-12-01 18:26:08 1512170768.818214: $GPZDA,232609.00,01,12,2017,00,00*6C
2017-12-01 18:26:08 1512170768.818411: $GPGGA,232609,3946.9724,N,08404.9830,W,2,11,0.80,293.67,M,-33.325,M,,*7D
2017-12-01 18:26:08 1512170768.818480: $GPRMC,232609,A,3946.9724,N,08404.9830,W,0.0000,0.000,011217,,*3D
2017-12-01 18:26:08 1512170768.818593: $GPGSA,A,3,1,3,14,16,22,23,25,26,31,32,138,,2.0,0.8,1.5*07
2017-12-01 18:26:09 1512170769.443904: $GPZDA,232610.00,01,12,2017,00,00*64
2017-12-01 18:26:09 1512170769.444071: $GPGGA,232610,3946.9729,N,08404.9830,W,2,11,0.80,294.31,M,-33.325,M,,*7C
2017-12-01 18:26:09 1512170769.444139: $GPRMC,232610,A,3946.9729,N,08404.9830,W,0.0000,0.000,011217,,*38
2017-12-01 18:26:09 1512170769.444200: $GPGSA,A,3,1,3,14,16,22,23,25,26,31,32,138,,2.0,0.8,1.5*07
2017-12-01 18:26:10 1512170770.372294: $GPZDA,232611.00,01,12,2017,00,00*65
2017-12-01 18:26:10 1512170770.372456: $GPGGA,232611,3946.9729,N,08404.9830,W,2,11,0.80,294.31,M,-33.325,M,,*7D
2017-12-01 18:26:10 1512170770.372522: $GPRMC,232611,A,3946.9729,N,08404.9830,W,0.0000,0.000,011217,,*39
2017-12-01 18:26:10 1512170770.372584: $GPGSA,A,3,1,3,14,16,22,23,25,26,31,32,138,,2.0,0.8,1.5*07
2017-12-01 18:26:11 1512170771.712707: $GPGSV,3,1,12,01,05,252,37,03,41,298,47,14,54,093,43,16,24,189,43*74
2017-12-01 18:26:11 1512170771.712894: $GPGSV,3,2,12,22,50,268,44,23,12,301,44,25,16,040,40,26,55,171,47*72
2017-12-01 18:26:11 1512170771.712960: $GPGSV,3,3,12,31,66,028,46,32,34,109,40,29,11,070,00,138,38,213,46*45
2017-12-01 18:26:11 1512170771.826325: $GPZDA,232612.00,01,12,2017,00,00*66
2017-12-01 18:26:11 1512170771.826497: $GPGGA,232612,3946.9729,N,08404.9830,W,2,11,0.80,294.31,M,-33.325,M,,*7E
2017-12-01 18:26:11 1512170771.826563: $GPRMC,232612,A,3946.9729,N,08404.9830,W,0.0000,0.000,011217,,*3A
2017-12-01 18:26:11 1512170771.826623: $GPGSA,A,3,1,3,14,16,22,23,25,26,31,32,138,,2.0,0.8,1.5*07
2017-12-01 18:26:12 1512170772.374814: $GPZDA,232613.00,01,12,2017,00,00*67
2017-12-01 18:26:12 1512170772.375021: $GPGGA,232613,3946.9729,N,08404.9830,W,2,11,0.80,294.31,M,-33.325,M,,*7F
2017-12-01 18:26:12 1512170772.375110: $GPRMC,232613,A,3946.9729,N,08404.9830,W,0.0000,0.000,011217,,*3B
2017-12-01 18:26:12 1512170772.375173: $GPGSA,A,3,1,3,14,16,22,23,25,26,31,32,138,,2.0,0.8,1.5*07
2017-12-01 18:26:13 1512170773.378043: $GPZDA,232614.00,01,12,2017,00,00*60
2017-12-01 18:26:13 1512170773.378213: $GPGGA,232614,3946.9729,N,08404.9830,W,2,11,0.80,294.31,M,-33.325,M,,*78
2017-12-01 18:26:13 1512170773.378279: $GPRMC,232614,A,3946.9729,N,08404.9830,W,0.0000,0.000,011217,,*3C
2017-12-01 18:26:13 1512170773.378340: $GPGSA,A,3,1,3,14,16,22,23,25,26,31,32,138,,2.0,0.8,1.5*07
2017-12-01 18:26:13 1512170773.378398: $GPGBS,232614,2.67,M,3.86,M,8.82,M*32
2017-12-01 18:26:14 1512170774.711737: $GPGSV,3,1,12,01,05,252,36,03,41,298,46,14,54,093,43,16,24,189,44*73
2017-12-01 18:26:14 1512170774.711924: $GPGSV,3,2,12,22,50,268,45,23,12,301,44,25,16,040,39,26,55,171,47*7D
2017-12-01 18:26:14 1512170774.711991: $GPGSV,3,3,12,31,66,028,47,32,34,109,40,29,11,070,00,138,38,213,46*44
2017-12-01 18:26:14 1512170774.825385: $GPZDA,232615.00,01,12,2017,00,00*61
2017-12-01 18:26:14 1512170774.825560: $GPGGA,232615,3946.9729,N,08404.9830,W,2,11,0.80,294.31,M,-33.325,M,,*79
2017-12-01 18:26:14 1512170774.825626: $GPRMC,232615,A,3946.9729,N,08404.9830,W,0.0000,0.000,011217,,*3D
2017-12-01 18:26:14 1512170774.825686: $GPGSA,A,3,1,3,14,16,22,23,25,26,31,32,138,,2.0,0.8,1.5*07
