2017-11-16 14:22:25 1510860145.655698: {"class":"VERSION","release":"3.17","rev":"3.17","proto_major":3,"proto_minor":12}
2017-11-16 14:22:25 1510860145.656160: {"class":"DEVICES","devices":[{"class":"DEVICE","path":"/dev/ttyUSB0","driver":"SiRF","subtype":"9\u0006GSD4e_4.1.2-P1_RPATCH.05-F-GPS-4R-1510281 11/03/2015 307","activated":"2017-11-16T19:22:25.643Z","flags":1,"native":1,"bps":4800,"parity":"N","stopbits":1,"cycle":1.00}]}
2017-11-16 14:22:25 1510860145.656275: {"class":"WATCH","enable":true,"json":false,"nmea":true,"raw":0,"scaled":false,"timing":false,"split24":false,"pps":false}
2017-11-16 14:22:26 1510860146.496218: $GPZDA,192225.00,16,11,2017,00,00*6A
2017-11-16 14:22:26 1510860146.496384: $GPGGA,192225,3946.9565,N,08404.9850,W,2,12,0.80,304.07,M,-33.324,M,,*74
2017-11-16 14:22:26 1510860146.496446: $GPRMC,192225,A,3946.9565,N,08404.9850,W,0.0000,0.000,161117,,*3A
2017-11-16 14:22:26 1510860146.496504: $GPGSA,A,3,8,10,13,15,18,21,20,24,27,32,14,138,1.6,0.8,1.3*35
2017-11-16 14:22:27 1510860147.837033: $GPGSV,3,1,12,08,07,318,33,10,44,304,47,13,05,049,16,15,34,054,50*72
2017-11-16 14:22:27 1510860147.837203: $GPGSV,3,2,12,18,73,346,47,21,60,187,45,20,30,099,45,24,52,103,48*71
2017-11-16 14:22:27 1510860147.837282: $GPGSV,3,3,12,27,18,285,41,32,23,241,45,14,07,234,34,138,38,213,45*4A
2017-11-16 14:22:27 1510860147.950392: $GPZDA,192226.00,16,11,2017,00,00*69
2017-11-16 14:22:27 1510860147.950561: $GPGGA,192226,3946.9565,N,08404.9850,W,2,12,0.80,304.07,M,-33.324,M,,*77
2017-11-16 14:22:27 1510860147.950623: $GPRMC,192226,A,3946.9565,N,08404.9850,W,0.0000,0.000,161117,,*39
2017-11-16 14:22:27 1510860147.950679: $GPGSA,A,3,8,10,13,15,18,21,20,24,27,32,14,138,1.6,0.8,1.3*35
2017-11-16 14:22:28 1510860148.532661: $GPZDA,192227.00,16,11,2017,00,00*68
2017-11-16 14:22:28 1510860148.532842: $GPGGA,192227,3946.9565,N,08404.9850,W,2,12,0.80,304.07,M,-33.324,M,,*76
2017-11-16 14:22:28 1510860148.532902: $GPRMC,192227,A,3946.9565,N,08404.9850,W,0.0000,0.000,161117,,*38
2017-11-16 14:22:28 1510860148.532959: $GPGSA,A,3,8,10,13,15,18,21,20,24,27,32,14,138,1.6,0.8,1.3*35
2017-11-16 14:22:29 1510860149.501645: $GPZDA,192228.00,16,11,2017,00,00*67
2017-11-16 14:22:29 1510860149.501811: $GPGGA,192228,3946.9565,N,08404.9850,W,2,12,0.80,304.07,M,-33.324,M,,*79
2017-11-16 14:22:29 1510860149.501871: $GPRMC,192228,A,3946.9565,N,08404.9850,W,0.0000,0.000,161117,,*37
2017-11-16 14:22:29 1510860149.501927: $GPGSA,A,3,8,10,13,15,18,21,20,24,27,32,14,138,1.6,0.8,1.3*35
2017-11-16 14:22:30 1510860150.869909: $GPGSV,3,1,12,08,07,318,28,10,44,304,47,13,05,049,16,15,34,054,49*70
2017-11-16 14:22:30 1510860150.870088: $GPGSV,3,2,12,18,73,346,46,21,60,187,44,20,30,099,44,24,52,103,48*70
2017-11-16 14:22:30 1510860150.870152: $GPGSV,3,3,12,27,18,285,41,32,23,241,45,14,07,234,34,138,38,213,44*4B
2017-11-16 14:22:30 1510860150.983178: $GPZDA,192229.00,16,11,2017,00,00*66
2017-11-16 14:22:30 1510860150.983345: $GPGGA,192229,3946.9565,N,08404.9850,W,2,12,0.80,304.07,M,-33.324,M,,*78
2017-11-16 14:22:30 1510860150.983405: $GPRMC,192229,A,3946.9565,N,08404.9850,W,0.0000,0.000,161117,,*36
2017-11-16 14:22:30 1510860150.983461: $GPGSA,A,3,8,10,13,15,18,21,20,24,27,32,14,138,1.6,0.8,1.3*35
2017-11-16 14:22:31 1510860151.495299: $GPZDA,192230.00,16,11,2017,00,00*6E
2017-11-16 14:22:31 1510860151.497522: $GPGGA,192230,3946.9565,N,08404.9850,W,2,12,0.80,304.07,M,-33.324,M,,*70
2017-11-16 14:22:31 1510860151.497621: $GPRMC,192230,A,3946.9565,N,08404.9850,W,0.0000,0.000,161117,,*3E
2017-11-16 14:22:31 1510860151.497691: $GPGSA,A,3,8,10,13,15,18,21,20,24,27,32,14,138,1.6,0.8,1.3*35
2017-11-16 14:22:32 1510860152.527441: $GPZDA,192231.00,16,11,2017,00,00*6F
2017-11-16 14:22:32 1510860152.527593: $GPGGA,192231,3946.9565,N,08404.9850,W,2,12,0.80,304.07,M,-33.324,M,,*71
2017-11-16 14:22:32 1510860152.527654: $GPRMC,192231,A,3946.9565,N,08404.9850,W,0.0000,0.000,161117,,*3F
2017-11-16 14:22:32 1510860152.527710: $GPGSA,A,3,8,10,13,15,18,21,20,24,27,32,14,138,1.6,0.8,1.3*35
2017-11-16 14:22:33 1510860153.838363: $GPGSV,3,1,12,08,07,318,21,10,44,304,47,13,05,049,16,15,34,054,50*71
2017-11-16 14:22:33 1510860153.838648: $GPGSV,3,2,12,18,73,346,46,21,60,187,44,20,30,099,44,24,52,103,48*70
2017-11-16 14:22:33 1510860153.838713: $GPGSV,3,3,12,27,18,285,41,32,23,241,45,14,07,234,33,138,38,213,43*4B
2017-11-16 14:22:33 1510860153.951762: $GPZDA,192232.00,16,11,2017,00,00*6C
2017-11-16 14:22:33 1510860153.951919: $GPGGA,192232,3946.9565,N,08404.9850,W,2,12,0.80,304.07,M,-33.324,M,,*72
2017-11-16 14:22:33 1510860153.951980: $GPRMC,192232,A,3946.9565,N,08404.9850,W,0.0000,0.000,161117,,*3C
2017-11-16 14:22:33 1510860153.952036: $GPGSA,A,3,8,10,13,15,18,21,20,24,27,32,14,138,1.6,0.8,1.3*35
2017-11-16 14:22:34 1510860154.576919: $GPZDA,192233.00,16,11,2017,00,00*6D
2017-11-16 14:22:34 1510860154.577082: $GPGGA,192233,3946.9565,N,08404.9850,W,2,12,0.80,304.07,M,-33.324,M,,*73
2017-11-16 14:22:34 1510860154.577142: $GPRMC,192233,A,3946.9565,N,08404.9850,W,0.0000,0.000,161117,,*3D
2017-11-16 14:22:34 1510860154.577198: $GPGSA,A,3,8,10,13,15,18,21,20,24,27,32,14,138,1.6,0.8,1.3*35
2017-11-16 14:22:35 1510860155.501577: $GPZDA,192234.00,16,11,2017,00,00*6A
2017-11-16 14:22:35 1510860155.501740: $GPGGA,192234,3946.9565,N,08404.9850,W,2,12,0.80,304.07,M,-33.324,M,,*74
2017-11-16 14:22:35 1510860155.501800: $GPRMC,192234,A,3946.9565,N,08404.9850,W,0.0000,0.000,161117,,*3A
2017-11-16 14:22:35 1510860155.501855: $GPGSA,A,3,8,10,13,15,18,21,20,24,27,32,14,138,1.6,0.8,1.3*35
2017-11-16 14:22:36 1510860156.832366: $GPGSV,3,1,12,08,07,318,34,10,44,304,47,13,05,049,17,15,34,054,50*74
2017-11-16 14:22:36 1510860156.832562: $GPGSV,3,2,12,18,73,346,47,21,60,187,44,20,30,099,45,24,52,103,48*70
2017-11-16 14:22:36 1510860156.832623: $GPGSV,3,3,12,27,18,285,41,32,23,241,44,14,07,234,32,138,38,213,44*4C
2017-11-16 14:22:36 1510860156.945659: $GPZDA,192235.00,16,11,2017,00,00*6B
2017-11-16 14:22:36 1510860156.945817: $GPGGA,192235,3946.9565,N,08404.9850,W,2,12,0.80,304.07,M,-33.324,M,,*75
2017-11-16 14:22:36 1510860156.945878: $GPRMC,192235,A,3946.9565,N,08404.9850,W,0.0000,0.000,161117,,*3B
2017-11-16 14:22:36 1510860156.945933: $GPGSA,A,3,8,10,13,15,18,21,20,24,27,32,14,138,1.6,0.8,1.3*35
2017-11-16 14:22:37 1510860157.501596: $GPZDA,192236.00,16,11,2017,00,00*68
2017-11-16 14:22:37 1510860157.501760: $GPGGA,192236,3946.9565,N,08404.9850,W,2,12,0.80,304.07,M,-33.324,M,,*76
2017-11-16 14:22:37 1510860157.501821: $GPRMC,192236,A,3946.9565,N,08404.9850,W,0.0000,0.000,161117,,*38
2017-11-16 14:22:37 1510860157.501878: $GPGSA,A,3,8,10,13,15,18,21,20,24,27,32,14,138,1.6,0.8,1.3*35
2017-11-16 14:22:38 1510860158.501184: $GPZDA,192237.00,16,11,2017,00,00*69
2017-11-16 14:22:38 1510860158.501366: $GPGGA,192237,3946.9565,N,08404.9850,W,2,12,0.80,304.07,M,-33.324,M,,*77
2017-11-16 14:22:38 1510860158.501445: $GPRMC,192237,A,3946.9565,N,08404.9850,W,0.0000,0.000,161117,,*39
2017-11-16 14:22:38 1510860158.501501: $GPGSA,A,3,8,10,13,15,18,21,20,24,27,32,14,138,1.6,0.8,1.3*35
2017-11-16 14:22:39 1510860159.867713: $GPGSV,3,1,12,08,07,318,37,10,44,304,47,13,05,049,18,15,34,054,50*78
2017-11-16 14:22:39 1510860159.867883: $GPGSV,3,2,12,18,73,346,47,21,60,187,44,20,30,099,46,24,52,103,48*73
2017-11-16 14:22:39 1510860159.867943: $GPGSV,3,3,12,27,18,285,41,32,23,241,44,14,07,234,10,138,38,213,44*4C
2017-11-16 14:22:39 1510860159.981024: $GPZDA,192238.00,16,11,2017,00,00*66
2017-11-16 14:22:39 1510860159.981163: $GPGGA,192238,3946.9565,N,08404.9850,W,2,12,0.80,304.07,M,-33.324,M,,*78
2017-11-16 14:22:39 1510860159.981242: $GPRMC,192238,A,3946.9565,N,08404.9850,W,0.0000,0.000,161117,,*36
2017-11-16 14:22:39 1510860159.981300: $GPGSA,A,3,8,10,13,15,18,21,20,24,27,32,14,138,1.6,0.8,1.3*35
2017-11-16 14:22:40 1510860160.533138: $GPZDA,192239.00,16,11,2017,00,00*67
2017-11-16 14:22:40 1510860160.533318: $GPGGA,192239,3946.9565,N,08404.9850,W,2,12,0.80,304.07,M,-33.324,M,,*79
2017-11-16 14:22:40 1510860160.533397: $GPRMC,192239,A,3946.9565,N,08404.9850,W,0.0000,0.000,161117,,*37
2017-11-16 14:22:40 1510860160.533455: $GPGSA,A,3,8,10,13,15,18,21,20,24,27,32,14,138,1.6,0.8,1.3*35
