2017-11-16 13:32:07 1510857127.237089: {"class":"VERSION","release":"3.17","rev":"3.17","proto_major":3,"proto_minor":12}
2017-11-16 13:32:07 1510857127.237545: {"class":"DEVICES","devices":[{"class":"DEVICE","path":"/dev/ttyUSB0","driver":"SiRF","subtype":"9\u0006GSD4e_4.1.2-P1_RPATCH.05-F-GPS-4R-1510281 11/03/2015 307","activated":"2017-11-16T18:32:07.158Z","flags":1,"native":1,"bps":4800,"parity":"N","stopbits":1,"cycle":1.00}]}
2017-11-16 13:32:07 1510857127.237669: {"class":"WATCH","enable":true,"json":false,"nmea":true,"raw":0,"scaled":false,"timing":false,"split24":false,"pps":false}
2017-11-16 13:32:07 1510857127.271314: $GPZDA,183206.00,16,11,2017,00,00*6B
2017-11-16 13:32:07 1510857127.271498: $GPGGA,183206,3946.9612,N,08404.9840,W,2,11,0.80,306.21,M,-33.324,M,,*72
2017-11-16 13:32:07 1510857127.271561: $GPRMC,183206,A,3946.9612,N,08404.9840,W,0.0000,0.000,161117,,*39
2017-11-16 13:32:07 1510857127.271623: $GPGSA,A,3,10,13,15,18,20,21,24,27,29,32,138,,1.6,0.8,1.3*03
2017-11-16 13:32:08 1510857128.259678: $GPZDA,183207.00,16,11,2017,00,00*6A
2017-11-16 13:32:08 1510857128.259851: $GPGGA,183207,3946.9612,N,08404.9840,W,2,11,0.80,306.21,M,-33.324,M,,*73
2017-11-16 13:32:08 1510857128.259914: $GPRMC,183207,A,3946.9612,N,08404.9840,W,0.0000,0.000,161117,,*38
2017-11-16 13:32:08 1510857128.259970: $GPGSA,A,3,10,13,15,18,20,21,24,27,29,32,138,,1.6,0.8,1.3*03
2017-11-16 13:32:09 1510857129.617928: $GPGSV,3,1,12,10,27,286,40,13,24,045,44,15,56,049,50,18,58,306,46*7D
2017-11-16 13:32:09 1510857129.618088: $GPGSV,3,2,12,20,47,078,48,21,78,244,46,24,38,135,44,27,18,309,36*7C
2017-11-16 13:32:09 1510857129.618149: $GPGSV,3,3,12,29,05,187,28,32,05,228,23,05,01,090,00,138,38,213,45*40
2017-11-16 13:32:09 1510857129.731253: $GPZDA,183208.00,16,11,2017,00,00*65
2017-11-16 13:32:09 1510857129.731404: $GPGGA,183208,3946.9612,N,08404.9840,W,2,11,0.80,306.21,M,-33.324,M,,*7C
2017-11-16 13:32:09 1510857129.731465: $GPRMC,183208,A,3946.9612,N,08404.9840,W,0.0000,0.000,161117,,*37
2017-11-16 13:32:09 1510857129.731522: $GPGSA,A,3,10,13,15,18,20,21,24,27,29,32,138,,1.6,0.8,1.3*03
2017-11-16 13:32:10 1510857130.356627: $GPZDA,183209.00,16,11,2017,00,00*64
2017-11-16 13:32:10 1510857130.356788: $GPGGA,183209,3946.9612,N,08404.9840,W,2,11,0.80,306.21,M,-33.324,M,,*7D
2017-11-16 13:32:10 1510857130.356850: $GPRMC,183209,A,3946.9612,N,08404.9840,W,0.0000,0.000,161117,,*36
2017-11-16 13:32:10 1510857130.356905: $GPGSA,A,3,10,13,15,18,20,21,24,27,29,32,138,,1.6,0.8,1.3*03
2017-11-16 13:32:11 1510857131.282532: $GPZDA,183210.00,16,11,2017,00,00*6C
2017-11-16 13:32:11 1510857131.282709: $GPGGA,183210,3946.9615,N,08404.9839,W,2,11,0.80,305.44,M,-33.324,M,,*7C
2017-11-16 13:32:11 1510857131.282773: $GPRMC,183210,A,3946.9615,N,08404.9839,W,0.0000,0.000,161117,,*37
2017-11-16 13:32:11 1510857131.282830: $GPGSA,A,3,10,13,15,18,20,21,24,27,29,32,138,,1.6,0.8,1.3*03
2017-11-16 13:32:12 1510857132.589407: $GPGSV,3,1,12,10,27,286,41,13,24,045,44,15,56,049,50,18,58,306,46*7C
2017-11-16 13:32:12 1510857132.589581: $GPGSV,3,2,12,20,47,078,48,21,78,244,47,24,38,135,44,27,18,309,36*7D
2017-11-16 13:32:12 1510857132.589642: $GPGSV,3,3,12,29,05,187,28,32,05,228,24,05,01,090,00,138,38,213,45*47
2017-11-16 13:32:12 1510857132.702702: $GPZDA,183211.00,16,11,2017,00,00*6D
2017-11-16 13:32:12 1510857132.702864: $GPGGA,183211,3946.9615,N,08404.9839,W,2,11,0.80,305.44,M,-33.324,M,,*7D
2017-11-16 13:32:12 1510857132.702927: $GPRMC,183211,A,3946.9615,N,08404.9839,W,0.0000,0.000,161117,,*36
2017-11-16 13:32:12 1510857132.703002: $GPGSA,A,3,10,13,15,18,20,21,24,27,29,32,138,,1.6,0.8,1.3*03
2017-11-16 13:32:13 1510857133.262304: $GPZDA,183212.00,16,11,2017,00,00*6E
2017-11-16 13:32:13 1510857133.262481: $GPGGA,183212,3946.9615,N,08404.9839,W,2,11,0.80,305.44,M,-33.324,M,,*7E
2017-11-16 13:32:13 1510857133.262544: $GPRMC,183212,A,3946.9615,N,08404.9839,W,0.0000,0.000,161117,,*35
2017-11-16 13:32:13 1510857133.262600: $GPGSA,A,3,10,13,15,18,20,21,24,27,29,32,138,,1.6,0.8,1.3*03
2017-11-16 13:32:14 1510857134.259407: $GPZDA,183213.00,16,11,2017,00,00*6F
2017-11-16 13:32:14 1510857134.259670: $GPGGA,183213,3946.9615,N,08404.9839,W,2,11,0.80,305.44,M,-33.324,M,,*7F
2017-11-16 13:32:14 1510857134.259740: $GPRMC,183213,A,3946.9615,N,08404.9839,W,0.0000,0.000,161117,,*34
2017-11-16 13:32:14 1510857134.259797: $GPGSA,A,3,10,13,15,18,20,21,24,27,29,32,138,,1.6,0.8,1.3*03
2017-11-16 13:32:15 1510857135.598469: $GPGSV,3,1,12,10,27,286,42,13,24,045,44,15,56,049,50,18,58,306,45*7C
2017-11-16 13:32:15 1510857135.598639: $GPGSV,3,2,12,20,47,078,48,21,78,244,47,24,38,135,44,27,18,309,36*7D
2017-11-16 13:32:15 1510857135.598701: $GPGSV,3,3,12,29,05,187,23,32,05,228,24,05,01,090,01,138,38,213,44*4C
2017-11-16 13:32:15 1510857135.712288: $GPZDA,183214.00,16,11,2017,00,00*68
2017-11-16 13:32:15 1510857135.712451: $GPGGA,183214,3946.9615,N,08404.9839,W,2,11,0.80,305.44,M,-33.324,M,,*78
2017-11-16 13:32:15 1510857135.712512: $GPRMC,183214,A,3946.9615,N,08404.9839,W,0.0000,0.000,161117,,*33
2017-11-16 13:32:15 1510857135.712569: $GPGSA,A,3,10,13,15,18,20,21,24,27,29,32,138,,1.6,0.8,1.3*03
2017-11-16 13:32:16 1510857136.282868: $GPZDA,183215.00,16,11,2017,00,00*69
2017-11-16 13:32:16 1510857136.283030: $GPGGA,183215,3946.9615,N,08404.9839,W,2,11,0.80,305.44,M,-33.324,M,,*79
2017-11-16 13:32:16 1510857136.283092: $GPRMC,183215,A,3946.9615,N,08404.9839,W,0.0000,0.000,161117,,*32
2017-11-16 13:32:16 1510857136.283148: $GPGSA,A,3,10,13,15,18,20,21,24,27,29,32,138,,1.6,0.8,1.3*03
2017-11-16 13:32:17 1510857137.259652: $GPZDA,183216.00,16,11,2017,00,00*6A
2017-11-16 13:32:17 1510857137.259814: $GPGGA,183216,3946.9615,N,08404.9839,W,2,11,0.80,305.44,M,-33.324,M,,*7A
2017-11-16 13:32:17 1510857137.259876: $GPRMC,183216,A,3946.9615,N,08404.9839,W,0.0000,0.000,161117,,*31
2017-11-16 13:32:17 1510857137.259932: $GPGSA,A,3,10,13,15,18,20,21,24,27,29,32,138,,1.6,0.8,1.3*03
2017-11-16 13:32:18 1510857138.591627: $GPGSV,3,1,12,10,27,286,43,13,24,045,44,15,56,049,50,18,58,306,45*7D
2017-11-16 13:32:18 1510857138.591812: $GPGSV,3,2,12,20,47,078,48,21,78,244,46,24,38,135,44,27,18,309,37*7D
2017-11-16 13:32:18 1510857138.591874: $GPGSV,3,3,12,29,05,187,24,32,05,228,25,05,01,090,00,138,38,213,44*4B
2017-11-16 13:32:18 1510857138.705077: $GPZDA,183217.00,16,11,2017,00,00*6B
2017-11-16 13:32:18 1510857138.705248: $GPGGA,183217,3946.9615,N,08404.9839,W,2,11,0.80,305.44,M,-33.324,M,,*7B
2017-11-16 13:32:18 1510857138.705337: $GPRMC,183217,A,3946.9615,N,08404.9839,W,0.0000,0.000,161117,,*30
2017-11-16 13:32:18 1510857138.705397: $GPGSA,A,3,10,13,15,18,20,21,24,27,29,32,138,,1.6,0.8,1.3*03
2017-11-16 13:32:19 1510857139.261628: $GPZDA,183218.00,16,11,2017,00,00*64
2017-11-16 13:32:19 1510857139.261786: $GPGGA,183218,3946.9615,N,08404.9839,W,2,11,0.80,305.44,M,-33.324,M,,*74
2017-11-16 13:32:19 1510857139.261847: $GPRMC,183218,A,3946.9615,N,08404.9839,W,0.0000,0.000,161117,,*3F
2017-11-16 13:32:19 1510857139.261905: $GPGSA,A,3,10,13,15,18,20,21,24,27,29,32,138,,1.6,0.8,1.3*03
2017-11-16 13:32:20 1510857140.253971: $GPZDA,183219.00,16,11,2017,00,00*65
2017-11-16 13:32:20 1510857140.254136: $GPGGA,183219,3946.9615,N,08404.9839,W,2,11,0.80,305.44,M,-33.324,M,,*75
2017-11-16 13:32:20 1510857140.254198: $GPRMC,183219,A,3946.9615,N,08404.9839,W,0.0000,0.000,161117,,*3E
2017-11-16 13:32:20 1510857140.254254: $GPGSA,A,3,10,13,15,18,20,21,24,27,29,32,138,,1.6,0.8,1.3*03
2017-11-16 13:32:21 1510857141.595692: $GPGSV,3,1,12,10,27,286,42,13,24,045,44,15,56,049,51,18,58,306,45*7D
2017-11-16 13:32:21 1510857141.595859: $GPGSV,3,2,12,20,47,078,48,21,78,244,46,24,38,135,44,27,18,309,37*7D
2017-11-16 13:32:21 1510857141.595922: $GPGSV,3,3,12,29,05,187,25,32,05,228,25,05,01,090,00,138,38,213,44*4A
2017-11-16 13:32:21 1510857141.709302: $GPZDA,183220.00,16,11,2017,00,00*6F
2017-11-16 13:32:21 1510857141.709464: $GPGGA,183220,3946.9615,N,08404.9839,W,2,11,0.80,305.44,M,-33.324,M,,*7F
2017-11-16 13:32:21 1510857141.709528: $GPRMC,183220,A,3946.9615,N,08404.9839,W,0.0000,0.000,161117,,*34
2017-11-16 13:32:21 1510857141.709584: $GPGSA,A,3,10,13,15,18,20,21,24,27,29,32,138,,1.6,0.8,1.3*03
2017-11-16 13:32:22 1510857142.260103: $GPZDA,183221.00,16,11,2017,00,00*6E
2017-11-16 13:32:22 1510857142.260260: $GPGGA,183221,3946.9615,N,08404.9839,W,2,11,0.80,305.44,M,-33.324,M,,*7E
2017-11-16 13:32:22 1510857142.260381: $GPRMC,183221,A,3946.9615,N,08404.9839,W,0.0000,0.000,161117,,*35
2017-11-16 13:32:22 1510857142.260439: $GPGSA,A,3,10,13,15,18,20,21,24,27,29,32,138,,1.6,0.8,1.3*03
2017-11-16 13:32:23 1510857143.259666: $GPZDA,183222.00,16,11,2017,00,00*6D
2017-11-16 13:32:23 1510857143.259821: $GPGGA,183222,3946.9615,N,08404.9839,W,2,11,0.80,305.44,M,-33.324,M,,*7D
2017-11-16 13:32:23 1510857143.259885: $GPRMC,183222,A,3946.9615,N,08404.9839,W,0.0000,0.000,161117,,*36
2017-11-16 13:32:23 1510857143.259945: $GPGSA,A,3,10,13,15,18,20,21,24,27,29,32,138,,1.6,0.8,1.3*03
2017-11-16 13:32:24 1510857144.593836: $GPGSV,3,1,12,10,27,286,41,13,24,045,44,15,56,049,51,18,58,306,45*7E
2017-11-16 13:32:24 1510857144.594028: $GPGSV,3,2,12,20,47,078,48,21,78,244,46,24,38,135,44,27,18,309,38*72
2017-11-16 13:32:24 1510857144.594091: $GPGSV,3,3,12,29,05,187,26,32,05,228,26,05,01,090,00,138,38,213,44*4A
2017-11-16 13:32:24 1510857144.707112: $GPZDA,183223.00,16,11,2017,00,00*6C
2017-11-16 13:32:24 1510857144.707272: $GPGGA,183223,3946.9615,N,08404.9839,W,2,11,0.80,305.44,M,-33.324,M,,*7C
2017-11-16 13:32:24 1510857144.707334: $GPRMC,183223,A,3946.9615,N,08404.9839,W,0.0000,0.000,161117,,*37
2017-11-16 13:32:24 1510857144.707391: $GPGSA,A,3,10,13,15,18,20,21,24,27,29,32,138,,1.6,0.8,1.3*03
2017-11-16 13:32:25 1510857145.332461: $GPZDA,183224.00,16,11,2017,00,00*6B
2017-11-16 13:32:25 1510857145.332631: $GPGGA,183224,3946.9615,N,08404.9839,W,2,11,0.80,305.44,M,-33.324,M,,*7B
2017-11-16 13:32:25 1510857145.332694: $GPRMC,183224,A,3946.9615,N,08404.9839,W,0.0000,0.000,161117,,*30
2017-11-16 13:32:25 1510857145.332753: $GPGSA,A,3,10,13,15,18,20,21,24,27,29,32,138,,1.6,0.8,1.3*03
2017-11-16 13:32:26 1510857146.259627: $GPZDA,183225.00,16,11,2017,00,00*6A
2017-11-16 13:32:26 1510857146.259794: $GPGGA,183225,3946.9615,N,08404.9839,W,2,11,0.80,305.44,M,-33.324,M,,*7A
2017-11-16 13:32:26 1510857146.259855: $GPRMC,183225,A,3946.9615,N,08404.9839,W,0.0000,0.000,161117,,*31
2017-11-16 13:32:26 1510857146.259912: $GPGSA,A,3,10,13,15,18,20,21,24,27,29,32,138,,1.6,0.8,1.3*03
2017-11-16 13:32:27 1510857147.594067: $GPGSV,3,1,12,10,27,286,40,13,24,045,44,15,56,049,51,18,58,306,45*7F
2017-11-16 13:32:27 1510857147.594214: $GPGSV,3,2,12,20,47,078,48,21,78,244,46,24,38,135,44,27,18,309,38*72
2017-11-16 13:32:27 1510857147.594274: $GPGSV,3,3,12,29,05,187,26,32,05,228,27,05,01,090,00,138,38,213,45*4A
2017-11-16 13:32:27 1510857147.707627: $GPZDA,183226.00,16,11,2017,00,00*69
2017-11-16 13:32:27 1510857147.707799: $GPGGA,183226,3946.9615,N,08404.9839,W,2,11,0.80,305.44,M,-33.324,M,,*79
2017-11-16 13:32:27 1510857147.707859: $GPRMC,183226,A,3946.9615,N,08404.9839,W,0.0000,0.000,161117,,*32
2017-11-16 13:32:27 1510857147.707916: $GPGSA,A,3,10,13,15,18,20,21,24,27,29,32,138,,1.6,0.8,1.3*03
2017-11-16 13:32:28 1510857148.258248: $GPZDA,183227.00,16,11,2017,00,00*68
2017-11-16 13:32:28 1510857148.258413: $GPGGA,183227,3946.9615,N,08404.9839,W,2,11,0.80,305.44,M,-33.324,M,,*78
2017-11-16 13:32:28 1510857148.258475: $GPRMC,183227,A,3946.9615,N,08404.9839,W,0.0000,0.000,161117,,*33
2017-11-16 13:32:28 1510857148.258531: $GPGSA,A,3,10,13,15,18,20,21,24,27,29,32,138,,1.6,0.8,1.3*03
2017-11-16 13:32:29 1510857149.281847: $GPZDA,183228.00,16,11,2017,00,00*67
2017-11-16 13:32:29 1510857149.282012: $GPGGA,183228,3946.9615,N,08404.9839,W,2,11,0.80,305.44,M,-33.324,M,,*77
2017-11-16 13:32:29 1510857149.282072: $GPRMC,183228,A,3946.9615,N,08404.9839,W,0.0000,0.000,161117,,*3C
2017-11-16 13:32:29 1510857149.282129: $GPGSA,A,3,10,13,15,18,20,21,24,27,29,32,138,,1.6,0.8,1.3*03
2017-11-16 13:32:30 1510857150.611789: $GPGSV,3,1,12,10,27,286,40,13,24,045,44,15,56,049,51,18,58,306,46*7C
2017-11-16 13:32:30 1510857150.611960: $GPGSV,3,2,12,20,47,078,48,21,78,244,46,24,38,135,44,27,18,309,38*72
2017-11-16 13:32:30 1510857150.612021: $GPGSV,3,3,12,29,05,187,26,32,05,228,26,05,01,090,00,138,38,213,46*48
2017-11-16 13:32:30 1510857150.725096: $GPZDA,183229.00,16,11,2017,00,00*66
2017-11-16 13:32:30 1510857150.725242: $GPGGA,183229,3946.9615,N,08404.9839,W,2,11,0.80,305.44,M,-33.324,M,,*76
2017-11-16 13:32:30 1510857150.725305: $GPRMC,183229,A,3946.9615,N,08404.9839,W,0.0000,0.000,161117,,*3D
2017-11-16 13:32:30 1510857150.725361: $GPGSA,A,3,10,13,15,18,20,21,24,27,29,32,138,,1.6,0.8,1.3*03
2017-11-16 13:32:31 1510857151.259959: $GPZDA,183230.00,16,11,2017,00,00*6E
2017-11-16 13:32:31 1510857151.260115: $GPGGA,183230,3946.9615,N,08404.9839,W,2,11,0.80,305.44,M,-33.324,M,,*7E
2017-11-16 13:32:31 1510857151.260178: $GPRMC,183230,A,3946.9615,N,08404.9839,W,0.0000,0.000,161117,,*35
2017-11-16 13:32:31 1510857151.260234: $GPGSA,A,3,10,13,15,18,20,21,24,27,29,32,138,,1.6,0.8,1.3*03
2017-11-16 13:32:32 1510857152.258274: $GPZDA,183231.00,16,11,2017,00,00*6F
2017-11-16 13:32:32 1510857152.258441: $GPGGA,183231,3946.9615,N,08404.9839,W,2,11,0.80,305.44,M,-33.324,M,,*7F
2017-11-16 13:32:32 1510857152.258505: $GPRMC,183231,A,3946.9615,N,08404.9839,W,0.0000,0.000,161117,,*34
2017-11-16 13:32:32 1510857152.258562: $GPGSA,A,3,10,13,15,18,20,21,24,27,29,32,138,,1.6,0.8,1.3*03
2017-11-16 13:32:33 1510857153.618797: $GPGSV,3,1,12,10,27,286,40,13,24,045,44,15,56,049,51,18,58,306,46*7C
2017-11-16 13:32:33 1510857153.618948: $GPGSV,3,2,12,20,47,078,48,21,78,244,46,24,38,135,44,27,18,309,39*73
2017-11-16 13:32:33 1510857153.619008: $GPGSV,3,3,12,29,05,187,26,32,05,228,22,05,01,090,00,138,38,213,45*4F
2017-11-16 13:32:33 1510857153.732079: $GPZDA,183232.00,16,11,2017,00,00*6C
2017-11-16 13:32:33 1510857153.732245: $GPGGA,183232,3946.9615,N,08404.9839,W,2,11,0.80,305.44,M,-33.324,M,,*7C
2017-11-16 13:32:33 1510857153.732309: $GPRMC,183232,A,3946.9615,N,08404.9839,W,0.0000,0.000,161117,,*37
2017-11-16 13:32:33 1510857153.732368: $GPGSA,A,3,10,13,15,18,20,21,24,27,29,32,138,,1.6,0.8,1.3*03
2017-11-16 13:32:34 1510857154.259426: $GPZDA,183233.00,16,11,2017,00,00*6D
2017-11-16 13:32:34 1510857154.259601: $GPGGA,183233,3946.9615,N,08404.9839,W,2,11,0.80,305.44,M,-33.324,M,,*7D
2017-11-16 13:32:34 1510857154.259666: $GPRMC,183233,A,3946.9615,N,08404.9839,W,0.0000,0.000,161117,,*36
2017-11-16 13:32:34 1510857154.259723: $GPGSA,A,3,10,13,15,18,20,21,24,27,29,32,138,,1.6,0.8,1.3*03
2017-11-16 13:32:35 1510857155.280785: $GPZDA,183234.00,16,11,2017,00,00*6A
2017-11-16 13:32:35 1510857155.280952: $GPGGA,183234,3946.9615,N,08404.9839,W,2,11,0.80,305.44,M,-33.324,M,,*7A
2017-11-16 13:32:35 1510857155.281015: $GPRMC,183234,A,3946.9615,N,08404.9839,W,0.0000,0.000,161117,,*31
2017-11-16 13:32:35 1510857155.281072: $GPGSA,A,3,10,13,15,18,20,21,24,27,29,32,138,,1.6,0.8,1.3*03
2017-11-16 13:32:36 1510857156.615261: $GPGSV,3,1,12,10,27,286,40,13,24,045,44,15,56,049,51,18,58,306,46*7C
2017-11-16 13:32:36 1510857156.615439: $GPGSV,3,2,12,20,47,078,48,21,78,244,46,24,38,135,45,27,18,309,38*73
2017-11-16 13:32:36 1510857156.615500: $GPGSV,3,3,12,29,05,187,26,32,05,228,21,05,01,090,00,138,38,213,45*4C
2017-11-16 13:32:36 1510857156.728558: $GPZDA,183235.00,16,11,2017,00,00*6B
2017-11-16 13:32:36 1510857156.728725: $GPGGA,183235,3946.9615,N,08404.9839,W,2,11,0.80,305.44,M,-33.324,M,,*7B
2017-11-16 13:32:36 1510857156.728789: $GPRMC,183235,A,3946.9615,N,08404.9839,W,0.0000,0.000,161117,,*30
2017-11-16 13:32:36 1510857156.728844: $GPGSA,A,3,10,13,15,18,20,21,24,27,29,32,138,,1.6,0.8,1.3*03
2017-11-16 13:32:37 1510857157.280958: $GPZDA,183236.00,16,11,2017,00,00*68
2017-11-16 13:32:37 1510857157.281117: $GPGGA,183236,3946.9615,N,08404.9839,W,2,11,1.20,305.44,M,-33.324,M,,*73
2017-11-16 13:32:37 1510857157.281180: $GPRMC,183236,A,3946.9615,N,08404.9839,W,0.0000,0.000,161117,,*33
2017-11-16 13:32:37 1510857157.281238: $GPGSA,A,3,10,13,15,18,20,21,24,27,29,32,138,,1.6,1.2,1.3*08
