2017-11-16 13:48:17 1510858097.007977: {"class":"VERSION","release":"3.17","rev":"3.17","proto_major":3,"proto_minor":12}
2017-11-16 13:48:17 1510858097.008595: {"class":"DEVICES","devices":[{"class":"DEVICE","path":"/dev/ttyUSB0","driver":"SiRF","subtype":"9\u0006GSD4e_4.1.2-P1_RPATCH.05-F-GPS-4R-1510281 11/03/2015 307","activated":"2017-11-16T18:48:16.931Z","flags":1,"native":1,"bps":4800,"parity":"N","stopbits":1,"cycle":1.00}]}
2017-11-16 13:48:17 1510858097.008763: {"class":"WATCH","enable":true,"json":false,"nmea":true,"raw":0,"scaled":false,"timing":false,"split24":false,"pps":false}
2017-11-16 13:48:17 1510858097.394870: $GPZDA,184816.00,16,11,2017,00,00*67
2017-11-16 13:48:17 1510858097.395028: $GPGGA,184816,3946.9595,N,08404.9834,W,2,11,0.80,305.13,M,-33.324,M,,*73
2017-11-16 13:48:17 1510858097.395089: $GPRMC,184816,A,3946.9595,N,08404.9834,W,0.0000,0.000,161117,,*3A
2017-11-16 13:48:17 1510858097.395147: $GPGSA,A,3,10,13,15,18,20,21,24,27,32,8,138,,1.6,0.8,1.3*30
2017-11-16 13:48:18 1510858098.313428: $GPZDA,184817.00,16,11,2017,00,00*66
2017-11-16 13:48:18 1510858098.313589: $GPGGA,184817,3946.9595,N,08404.9834,W,2,11,0.80,305.13,M,-33.324,M,,*72
2017-11-16 13:48:18 1510858098.313651: $GPRMC,184817,A,3946.9595,N,08404.9834,W,0.0000,0.000,161117,,*3B
2017-11-16 13:48:18 1510858098.313707: $GPGSA,A,3,10,13,15,18,20,21,24,27,32,8,138,,1.6,0.8,1.3*30
2017-11-16 13:48:19 1510858099.658190: $GPGSV,3,1,11,10,33,292,40,13,17,046,46,15,48,049,51,18,63,316,48*76
2017-11-16 13:48:19 1510858099.658364: $GPGSV,3,2,11,20,41,085,48,21,74,208,46,24,44,126,45,27,19,300,36*7F
2017-11-16 13:48:19 1510858099.658429: $GPGSV,3,3,11,32,11,231,29,08,02,330,21,138,38,213,44*7B
2017-11-16 13:48:19 1510858099.771683: $GPZDA,184818.00,16,11,2017,00,00*69
2017-11-16 13:48:19 1510858099.771841: $GPGGA,184818,3946.9595,N,08404.9834,W,2,11,0.80,305.13,M,-33.324,M,,*7D
2017-11-16 13:48:19 1510858099.771903: $GPRMC,184818,A,3946.9595,N,08404.9834,W,0.0000,0.000,161117,,*34
2017-11-16 13:48:19 1510858099.771961: $GPGSA,A,3,10,13,15,18,20,21,24,27,32,8,138,,1.6,0.8,1.3*30
2017-11-16 13:48:20 1510858100.346131: $GPZDA,184819.00,16,11,2017,00,00*68
2017-11-16 13:48:20 1510858100.346293: $GPGGA,184819,3946.9595,N,08404.9834,W,2,11,0.80,305.13,M,-33.324,M,,*7C
2017-11-16 13:48:20 1510858100.346355: $GPRMC,184819,A,3946.9595,N,08404.9834,W,0.0000,0.000,161117,,*35
2017-11-16 13:48:20 1510858100.346417: $GPGSA,A,3,10,13,15,18,20,21,24,27,32,8,138,,1.6,0.8,1.3*30
2017-11-16 13:48:21 1510858101.344959: $GPZDA,184820.00,16,11,2017,00,00*62
2017-11-16 13:48:21 1510858101.345122: $GPGGA,184820,3946.9595,N,08404.9834,W,2,11,0.80,305.13,M,-33.324,M,,*76
2017-11-16 13:48:21 1510858101.345185: $GPRMC,184820,A,3946.9595,N,08404.9834,W,0.0000,0.000,161117,,*3F
2017-11-16 13:48:21 1510858101.345241: $GPGSA,A,3,10,13,15,18,20,21,24,27,32,8,138,,1.6,0.8,1.3*30
2017-11-16 13:48:22 1510858102.656460: $GPGSV,3,1,11,10,33,292,41,13,17,046,46,15,48,049,51,18,63,316,48*77
2017-11-16 13:48:22 1510858102.656633: $GPGSV,3,2,11,20,41,085,48,21,74,208,46,24,44,126,45,27,19,300,36*7F
2017-11-16 13:48:22 1510858102.656694: $GPGSV,3,3,11,32,11,231,29,08,02,330,00,138,38,213,42*7E
2017-11-16 13:48:22 1510858102.769810: $GPZDA,184821.00,16,11,2017,00,00*63
2017-11-16 13:48:22 1510858102.769995: $GPGGA,184821,3946.9595,N,08404.9834,W,2,10,0.80,305.13,M,-33.324,M,,*76
2017-11-16 13:48:22 1510858102.770059: $GPRMC,184821,A,3946.9595,N,08404.9834,W,0.0000,0.000,161117,,*3E
2017-11-16 13:48:22 1510858102.770116: $GPGSA,A,3,10,13,15,18,20,21,24,27,32,138,,,1.6,0.8,1.3*08
2017-11-16 13:48:23 1510858103.347017: $GPZDA,184822.00,16,11,2017,00,00*60
2017-11-16 13:48:23 1510858103.347177: $GPGGA,184822,3946.9595,N,08404.9834,W,2,10,0.80,305.13,M,-33.324,M,,*75
2017-11-16 13:48:23 1510858103.347240: $GPRMC,184822,A,3946.9595,N,08404.9834,W,0.0000,0.000,161117,,*3D
2017-11-16 13:48:23 1510858103.347296: $GPGSA,A,3,10,13,15,18,20,21,24,27,32,138,,,1.6,0.8,1.3*08
2017-11-16 13:48:24 1510858104.346837: $GPZDA,184823.00,16,11,2017,00,00*61
2017-11-16 13:48:24 1510858104.347001: $GPGGA,184823,3946.9595,N,08404.9834,W,2,10,0.80,305.13,M,-33.324,M,,*74
2017-11-16 13:48:24 1510858104.347118: $GPRMC,184823,A,3946.9595,N,08404.9834,W,0.0000,0.000,161117,,*3C
2017-11-16 13:48:24 1510858104.347181: $GPGSA,A,3,10,13,15,18,20,21,24,27,32,138,,,1.6,0.8,1.3*08
2017-11-16 13:48:25 1510858105.660500: $GPGSV,3,1,11,10,33,292,37,13,17,046,46,15,48,049,51,18,63,316,48*76
2017-11-16 13:48:25 1510858105.660677: $GPGSV,3,2,11,20,41,085,48,21,74,208,46,24,44,126,45,27,19,300,36*7F
2017-11-16 13:48:25 1510858105.660739: $GPGSV,3,3,11,32,11,231,29,08,02,330,10,138,38,213,44*79
2017-11-16 13:48:25 1510858105.773764: $GPZDA,184824.00,16,11,2017,00,00*66
2017-11-16 13:48:25 1510858105.773946: $GPGGA,184824,3946.9595,N,08404.9834,W,2,11,0.80,305.13,M,-33.324,M,,*72
2017-11-16 13:48:25 1510858105.774010: $GPRMC,184824,A,3946.9595,N,08404.9834,W,0.0000,0.000,161117,,*3B
2017-11-16 13:48:25 1510858105.774071: $GPGSA,A,3,10,13,15,18,20,21,24,27,32,8,138,,1.6,0.8,1.3*30
2017-11-16 13:48:26 1510858106.345939: $GPZDA,184825.00,16,11,2017,00,00*67
2017-11-16 13:48:26 1510858106.346101: $GPGGA,184825,3946.9595,N,08404.9834,W,2,11,0.80,305.13,M,-33.324,M,,*73
2017-11-16 13:48:26 1510858106.346169: $GPRMC,184825,A,3946.9595,N,08404.9834,W,0.0000,0.000,161117,,*3A
2017-11-16 13:48:26 1510858106.346227: $GPGSA,A,3,10,13,15,18,20,21,24,27,32,8,138,,1.6,0.8,1.3*30
