2017-11-16 13:15:16 1510856116.577025: {"class":"VERSION","release":"3.17","rev":"3.17","proto_major":3,"proto_minor":12}
2017-11-16 13:15:16 1510856116.577491: {"class":"DEVICES","devices":[{"class":"DEVICE","path":"/dev/ttyUSB0","driver":"SiRF","subtype":"9\u0006GSD4e_4.1.2-P1_RPATCH.05-F-GPS-4R-1510281 11/03/2015 307","activated":"2017-11-16T18:15:16.447Z","flags":1,"native":1,"bps":4800,"parity":"N","stopbits":1,"cycle":1.00}]}
2017-11-16 13:15:16 1510856116.577626: {"class":"WATCH","enable":true,"json":false,"nmea":true,"raw":0,"scaled":false,"timing":false,"split24":false,"pps":false}
2017-11-16 13:15:17 1510856117.299737: $GPZDA,181516.00,16,11,2017,00,00*6F
2017-11-16 13:15:17 1510856117.299897: $GPGGA,181516,3946.9585,N,08404.9845,W,2,10,0.80,298.08,M,-33.324,M,,*72
2017-11-16 13:15:17 1510856117.299957: $GPRMC,181516,A,3946.9585,N,08404.9845,W,0.0000,0.000,161117,,*35
2017-11-16 13:15:17 1510856117.300014: $GPGSA,A,3,10,13,15,18,20,21,24,27,29,138,,,1.6,0.8,1.3*02
2017-11-16 13:15:18 1510856118.638877: $GPGSV,3,1,12,10,22,280,42,13,31,045,47,15,64,052,51,18,52,297,45*71
2017-11-16 13:15:18 1510856118.639057: $GPGSV,3,2,12,20,53,069,46,21,76,282,46,24,31,141,43,27,15,315,39*71
2017-11-16 13:15:18 1510856118.639138: $GPGSV,3,3,12,05,06,085,12,29,12,190,31,04,02,135,00,138,38,213,46*47
2017-11-16 13:15:18 1510856118.753384: $GPZDA,181517.00,16,11,2017,00,00*6E
2017-11-16 13:15:18 1510856118.753548: $GPGGA,181517,3946.9585,N,08404.9845,W,2,11,0.80,298.08,M,-33.324,M,,*72
2017-11-16 13:15:18 1510856118.753610: $GPRMC,181517,A,3946.9585,N,08404.9845,W,0.0000,0.000,161117,,*34
2017-11-16 13:15:18 1510856118.753665: $GPGSA,A,3,10,13,15,18,20,21,24,27,5,29,138,,1.6,0.8,1.3*37
2017-11-16 13:15:19 1510856119.304695: $GPZDA,181518.00,16,11,2017,00,00*61
2017-11-16 13:15:19 1510856119.304857: $GPGGA,181518,3946.9585,N,08404.9845,W,2,11,0.80,298.08,M,-33.324,M,,*7D
2017-11-16 13:15:19 1510856119.304916: $GPRMC,181518,A,3946.9585,N,08404.9845,W,0.0000,0.000,161117,,*3B
2017-11-16 13:15:19 1510856119.304971: $GPGSA,A,3,10,13,15,18,20,21,24,27,5,29,138,,1.6,0.8,1.3*37
2017-11-16 13:15:20 1510856120.298705: $GPZDA,181519.00,16,11,2017,00,00*60
2017-11-16 13:15:20 1510856120.298865: $GPGGA,181519,3946.9585,N,08404.9845,W,2,11,0.80,298.08,M,-33.324,M,,*7C
2017-11-16 13:15:20 1510856120.298926: $GPRMC,181519,A,3946.9585,N,08404.9845,W,0.0000,0.000,161117,,*3A
2017-11-16 13:15:20 1510856120.298982: $GPGSA,A,3,10,13,15,18,20,21,24,27,5,29,138,,1.6,0.8,1.3*37
2017-11-16 13:15:21 1510856121.636587: $GPGSV,3,1,12,10,22,280,43,13,31,045,47,15,64,052,51,18,52,297,45*70
2017-11-16 13:15:21 1510856121.636757: $GPGSV,3,2,12,20,53,069,47,21,76,282,46,24,31,141,43,27,15,315,39*70
2017-11-16 13:15:21 1510856121.636817: $GPGSV,3,3,12,05,06,085,16,29,12,190,31,04,02,135,00,138,38,213,44*41
2017-11-16 13:15:21 1510856121.748674: $GPZDA,181520.00,16,11,2017,00,00*6A
2017-11-16 13:15:21 1510856121.748832: $GPGGA,181520,3946.9585,N,08404.9845,W,2,11,0.80,298.08,M,-33.324,M,,*76
2017-11-16 13:15:21 1510856121.748893: $GPRMC,181520,A,3946.9585,N,08404.9845,W,0.0000,0.000,161117,,*30
2017-11-16 13:15:21 1510856121.748948: $GPGSA,A,3,10,13,15,18,20,21,24,27,5,29,138,,1.6,0.8,1.3*37
2017-11-16 13:15:22 1510856122.302012: $GPZDA,181521.00,16,11,2017,00,00*6B
2017-11-16 13:15:22 1510856122.302177: $GPGGA,181521,3946.9585,N,08404.9845,W,2,11,0.80,298.08,M,-33.324,M,,*77
2017-11-16 13:15:22 1510856122.302239: $GPRMC,181521,A,3946.9585,N,08404.9845,W,0.0000,0.000,161117,,*31
2017-11-16 13:15:22 1510856122.302295: $GPGSA,A,3,10,13,15,18,20,21,24,27,5,29,138,,1.6,0.8,1.3*37
2017-11-16 13:15:23 1510856123.305328: $GPZDA,181522.00,16,11,2017,00,00*68
2017-11-16 13:15:23 1510856123.305494: $GPGGA,181522,3946.9585,N,08404.9845,W,2,11,0.80,298.08,M,-33.324,M,,*74
2017-11-16 13:15:23 1510856123.305555: $GPRMC,181522,A,3946.9585,N,08404.9845,W,0.0000,0.000,161117,,*32
2017-11-16 13:15:23 1510856123.305611: $GPGSA,A,3,10,13,15,18,20,21,24,27,5,29,138,,1.6,0.8,1.3*37
2017-11-16 13:15:24 1510856124.637313: $GPGSV,3,1,12,10,22,280,43,13,31,045,47,15,64,052,51,18,52,297,45*70
2017-11-16 13:15:24 1510856124.637542: $GPGSV,3,2,12,20,53,069,46,21,76,282,46,24,31,141,43,27,15,315,40*7F
2017-11-16 13:15:24 1510856124.637604: $GPGSV,3,3,12,05,06,085,16,29,12,190,31,04,02,135,00,138,38,213,45*40
2017-11-16 13:15:24 1510856124.750696: $GPZDA,181523.00,16,11,2017,00,00*69
2017-11-16 13:15:24 1510856124.750861: $GPGGA,181523,3946.9585,N,08404.9845,W,2,11,0.80,298.08,M,-33.324,M,,*75
2017-11-16 13:15:24 1510856124.750923: $GPRMC,181523,A,3946.9585,N,08404.9845,W,0.0000,0.000,161117,,*33
2017-11-16 13:15:24 1510856124.750979: $GPGSA,A,3,10,13,15,18,20,21,24,27,5,29,138,,1.6,0.8,1.3*37
2017-11-16 13:15:25 1510856125.375989: $GPZDA,181524.00,16,11,2017,00,00*6E
2017-11-16 13:15:25 1510856125.376160: $GPGGA,181524,3946.9585,N,08404.9845,W,2,11,0.80,298.08,M,-33.324,M,,*72
2017-11-16 13:15:25 1510856125.376221: $GPRMC,181524,A,3946.9585,N,08404.9845,W,0.0000,0.000,161117,,*34
2017-11-16 13:15:25 1510856125.376278: $GPGSA,A,3,10,13,15,18,20,21,24,27,5,29,138,,1.6,0.8,1.3*37
2017-11-16 13:15:26 1510856126.299650: $GPZDA,181525.00,16,11,2017,00,00*6F
2017-11-16 13:15:26 1510856126.299806: $GPGGA,181525,3946.9585,N,08404.9845,W,2,11,0.80,298.08,M,-33.324,M,,*73
2017-11-16 13:15:26 1510856126.299868: $GPRMC,181525,A,3946.9585,N,08404.9845,W,0.0000,0.000,161117,,*35
2017-11-16 13:15:26 1510856126.299924: $GPGSA,A,3,10,13,15,18,20,21,24,27,5,29,138,,1.6,0.8,1.3*37
