2017-12-14 11:42:32 1513269752.122530: {"class":"VERSION","release":"3.16","rev":"3.16-4","proto_major":3,"proto_minor":11}
2017-12-14 11:42:32 1513269752.122950: {"class":"DEVICES","devices":[{"class":"DEVICE","path":"/dev/ttyUSB0","driver":"SiRF","subtype":"9\u0006GSD4e_4.1.2-P1_RPATCH.05-F-GPS-4R-1510281 11/03/2015 307","activated":"2017-12-14T16:42:31.463Z","flags":1,"native":1,"bps":4800,"parity":"N","stopbits":1,"cycle":1.00}]}
2017-12-14 11:42:32 1513269752.123065: {"class":"WATCH","enable":true,"json":false,"nmea":true,"raw":0,"scaled":false,"timing":false,"split24":false,"pps":false}
2017-12-14 11:42:32 1513269752.483953: $GPGSV,3,1,11,24,40,130,27,15,52,049,25,18,60,310,17,20,46,081,18*7C
2017-12-14 11:42:32 1513269752.484106: $GPGSV,3,2,11,10,29,289,00,21,77,219,21,27,18,306,17,13,21,045,00*74
2017-12-14 11:42:32 1513269752.484171: $GPGSV,3,3,11,32,08,229,00,29,03,187,00,138,38,213,00*7E
2017-12-14 11:42:32 1513269752.597362: $GPZDA,164233.00,14,12,2017,00,00*65
2017-12-14 11:42:32 1513269752.597539: $GPGGA,164233,3946.9434,N,08404.9523,W,1,06,2.00,341.12,M,-33.324,M,,*7F
2017-12-14 11:42:32 1513269752.597606: $GPRMC,164233,A,3946.9434,N,08404.9523,W,1.0253,113.297,141217,,*33
2017-12-14 11:42:32 1513269752.597667: $GPGSA,A,3,24,15,18,20,21,27,,,,,,,6.6,2.0,6.2*3B
2017-12-14 11:42:33 1513269753.147916: $GPZDA,164234.00,14,12,2017,00,00*62
2017-12-14 11:42:33 1513269753.148104: $GPGGA,164234,3946.9433,N,08404.9516,W,1,06,2.00,341.20,M,-33.324,M,,*78
2017-12-14 11:42:33 1513269753.148172: $GPRMC,164234,A,3946.9433,N,08404.9516,W,0.7576,81.915,141217,,*08
2017-12-14 11:42:33 1513269753.148231: $GPGSA,A,3,24,15,18,20,21,27,,,,,,,6.6,2.0,6.2*3B
2017-12-14 11:42:34 1513269754.148088: $GPZDA,164235.00,14,12,2017,00,00*63
2017-12-14 11:42:34 1513269754.148255: $GPGGA,164235,3946.9433,N,08404.9516,W,1,06,2.00,341.20,M,-33.324,M,,*79
2017-12-14 11:42:34 1513269754.148321: $GPRMC,164235,A,3946.9433,N,08404.9516,W,0.8414,39.347,141217,,*0D
2017-12-14 11:42:34 1513269754.148382: $GPGSA,A,3,24,15,18,20,21,27,,,,,,,6.6,2.0,6.2*3B
2017-12-14 11:42:35 1513269755.483837: $GPGSV,3,1,11,24,40,130,27,15,52,049,25,18,60,310,16,20,46,081,18*7D
2017-12-14 11:42:35 1513269755.484017: $GPGSV,3,2,11,10,29,289,11,21,77,219,21,27,18,306,05,13,21,045,00*77
2017-12-14 11:42:35 1513269755.484084: $GPGSV,3,3,11,32,08,229,00,29,03,187,00,138,38,213,00*7E
2017-12-14 11:42:35 1513269755.597226: $GPZDA,164236.00,14,12,2017,00,00*60
2017-12-14 11:42:35 1513269755.597393: $GPGGA,164236,3946.9430,N,08404.9523,W,1,05,2.00,341.88,M,-33.324,M,,*7E
2017-12-14 11:42:35 1513269755.597459: $GPRMC,164236,A,3946.9430,N,08404.9523,W,1.0567,17.448,141217,,*03
2017-12-14 11:42:35 1513269755.597520: $GPGSA,A,3,24,15,18,20,21,,,,,,,,6.6,2.0,6.2*3E
2017-12-14 11:42:36 1513269756.147315: $GPZDA,164237.00,14,12,2017,00,00*61
2017-12-14 11:42:36 1513269756.151776: $GPGGA,164237,3946.9426,N,08404.9530,W,1,05,2.00,341.16,M,-33.324,M,,*7D
2017-12-14 11:42:36 1513269756.151893: $GPRMC,164237,A,3946.9426,N,08404.9530,W,0.7246,344.668,141217,,*30
2017-12-14 11:42:36 1513269756.151957: $GPGSA,A,3,24,15,18,20,21,,,,,,,,6.6,2.0,6.2*3E
2017-12-14 11:42:37 1513269757.150987: $GPZDA,164238.00,14,12,2017,00,00*6E
2017-12-14 11:42:37 1513269757.151155: $GPGGA,164238,3946.9426,N,08404.9530,W,1,05,2.00,341.16,M,-33.324,M,,*72
2017-12-14 11:42:37 1513269757.151220: $GPRMC,164238,A,3946.9426,N,08404.9530,W,0.4207,39.347,141217,,*08
2017-12-14 11:42:37 1513269757.151280: $GPGSA,A,3,24,15,18,20,21,,,,,,,,6.6,2.0,6.2*3E
2017-12-14 11:42:38 1513269758.499428: $GPGSV,3,1,11,24,40,130,26,15,52,049,25,18,60,310,16,20,46,081,19*7D
2017-12-14 11:42:38 1513269758.499584: $GPGSV,3,2,11,10,29,289,10,21,77,219,20,27,18,306,05,32,08,229,15*73
2017-12-14 11:42:38 1513269758.499649: $GPGSV,3,3,11,13,21,045,00,29,03,187,00,138,38,213,00*7E
2017-12-14 11:42:38 1513269758.613172: $GPZDA,164239.00,14,12,2017,00,00*6F
2017-12-14 11:42:38 1513269758.613340: $GPGGA,164239,3946.9423,N,08404.9531,W,1,05,2.00,341.93,M,-33.324,M,,*7A
2017-12-14 11:42:38 1513269758.613405: $GPRMC,164239,A,3946.9423,N,08404.9531,W,0.4207,39.347,141217,,*0D
2017-12-14 11:42:38 1513269758.613539: $GPGSA,A,3,24,15,18,20,21,,,,,,,,6.6,2.0,6.2*3E
2017-12-14 11:42:39 1513269759.148190: $GPZDA,164240.00,14,12,2017,00,00*61
2017-12-14 11:42:39 1513269759.148356: $GPGGA,164240,3946.9422,N,08404.9524,W,1,05,2.00,342.01,M,-33.324,M,,*79
2017-12-14 11:42:39 1513269759.148421: $GPRMC,164240,A,3946.9422,N,08404.9524,W,0.5951,58.684,141217,,*02
2017-12-14 11:42:39 1513269759.148482: $GPGSA,A,3,24,15,18,20,21,,,,,,,,6.6,2.0,6.2*3E
2017-12-14 11:42:40 1513269760.164618: $GPZDA,164241.00,14,12,2017,00,00*60
2017-12-14 11:42:40 1513269760.164786: $GPGGA,164241,3946.9418,N,08404.9524,W,1,05,2.00,341.37,M,-33.324,M,,*77
2017-12-14 11:42:40 1513269760.164853: $GPRMC,164241,A,3946.9418,N,08404.9524,W,0.7576,81.915,141217,,*02
2017-12-14 11:42:40 1513269760.164913: $GPGSA,A,3,24,15,18,20,21,,,,,,,,6.6,2.0,6.2*3E
2017-12-14 11:42:41 1513269761.483061: $GPGSV,3,1,11,24,40,130,26,15,52,049,25,18,60,310,15,20,46,081,19*7E
2017-12-14 11:42:41 1513269761.488985: $GPGSV,3,2,11,13,21,045,10,21,77,219,20,27,18,306,11,32,08,229,14*7E
2017-12-14 11:42:41 1513269761.489082: $GPGSV,3,3,11,10,29,289,00,29,03,187,00,138,38,213,00*77
2017-12-14 11:42:41 1513269761.596700: $GPZDA,164242.00,14,12,2017,00,00*63
2017-12-14 11:42:41 1513269761.596862: $GPGGA,164242,3946.9422,N,08404.9517,W,1,06,2.00,342.09,M,-33.324,M,,*70
2017-12-14 11:42:41 1513269761.596928: $GPRMC,164242,A,3946.9422,N,08404.9517,W,1.2608,78.042,141217,,*0B
2017-12-14 11:42:41 1513269761.596988: $GPGSA,A,3,24,15,18,20,21,27,,,,,,,6.6,2.0,6.2*3B
2017-12-14 11:42:42 1513269762.163588: $GPZDA,164243.00,14,12,2017,00,00*62
2017-12-14 11:42:42 1513269762.163766: $GPGGA,164243,3946.9425,N,08404.9509,W,1,06,2.00,341.40,M,-33.324,M,,*77
2017-12-14 11:42:42 1513269762.163834: $GPRMC,164243,A,3946.9425,N,08404.9509,W,1.7854,58.684,141217,,*0E
2017-12-14 11:42:42 1513269762.163895: $GPGSA,A,3,24,15,18,20,21,27,,,,,,,6.6,2.0,6.2*3B
2017-12-14 11:42:43 1513269763.165016: $GPZDA,164244.00,14,12,2017,00,00*65
2017-12-14 11:42:43 1513269763.165201: $GPGGA,164244,3946.9425,N,08404.9496,W,1,06,2.00,341.56,M,-33.324,M,,*70
2017-12-14 11:42:43 1513269763.165272: $GPRMC,164244,A,3946.9425,N,08404.9496,W,2.0174,79.496,141217,,*03
2017-12-14 11:42:43 1513269763.165332: $GPGSA,A,3,24,15,18,20,21,27,,,,,,,6.6,2.0,6.2*3B
2017-12-14 11:42:44 1513269764.501162: $GPGSV,3,1,11,24,40,130,26,15,52,049,24,18,60,310,14,20,46,081,19*7E
2017-12-14 11:42:44 1513269764.501341: $GPGSV,3,2,11,13,21,045,10,21,77,219,19,27,18,306,11,32,08,229,04*75
2017-12-14 11:42:44 1513269764.501406: $GPGSV,3,3,11,10,29,289,00,29,03,187,00,138,38,213,00*77
2017-12-14 11:42:44 1513269764.614850: $GPZDA,164245.00,14,12,2017,00,00*64
2017-12-14 11:42:44 1513269764.615065: $GPGGA,164245,3946.9432,N,08404.9488,W,1,06,2.00,341.51,M,-33.324,M,,*7F
2017-12-14 11:42:44 1513269764.615155: $GPRMC,164245,A,3946.9432,N,08404.9488,W,2.1994,65.962,141217,,*07
2017-12-14 11:42:44 1513269764.615246: $GPGSA,A,3,24,15,18,20,21,27,,,,,,,6.6,2.0,6.2*3B
2017-12-14 11:42:45 1513269765.164824: $GPZDA,164246.00,14,12,2017,00,00*67
2017-12-14 11:42:45 1513269765.165009: $GPGGA,164246,3946.9432,N,08404.9488,W,1,06,2.00,341.51,M,-33.324,M,,*7C
2017-12-14 11:42:45 1513269765.165076: $GPRMC,164246,A,3946.9432,N,08404.9488,W,1.9100,67.686,141217,,*0D
2017-12-14 11:42:45 1513269765.165137: $GPGSA,A,3,24,15,18,20,21,27,,,,,,,6.6,2.0,6.2*3B
2017-12-14 11:42:46 1513269766.166547: $GPZDA,164247.00,14,12,2017,00,00*66
2017-12-14 11:42:46 1513269766.166797: $GPGGA,164247,3946.9431,N,08404.9481,W,1,06,2.00,341.59,M,-33.324,M,,*7F
2017-12-14 11:42:46 1513269766.166901: $GPRMC,164247,A,3946.9431,N,08404.9481,W,1.7321,82.397,141217,,*07
2017-12-14 11:42:46 1513269766.166990: $GPGSA,A,3,24,15,18,20,21,27,,,,,,,6.6,2.0,6.2*3B
2017-12-14 11:42:47 1513269767.505562: $GPGSV,3,1,11,24,40,130,26,15,52,049,24,18,60,310,10,20,46,081,19*7A
2017-12-14 11:42:47 1513269767.505754: $GPGSV,3,2,11,13,21,045,04,21,77,219,19,27,18,306,09,32,08,229,04*79
2017-12-14 11:42:47 1513269767.505820: $GPGSV,3,3,11,10,29,289,00,29,03,187,00,120,07,103,00*70
2017-12-14 11:42:47 1513269767.619038: $GPZDA,164248.00,14,12,2017,00,00*69
2017-12-14 11:42:47 1513269767.619207: $GPGGA,164248,3946.9434,N,08404.9473,W,1,06,2.00,340.91,M,-33.324,M,,*7D
2017-12-14 11:42:47 1513269767.619273: $GPRMC,164248,A,3946.9434,N,08404.9473,W,2.1994,65.962,141217,,*08
2017-12-14 11:42:47 1513269767.619334: $GPGSA,A,3,24,15,18,20,21,27,,,,,,,6.6,2.0,6.2*3B
2017-12-14 11:42:48 1513269768.166096: $GPZDA,164249.00,14,12,2017,00,00*68
2017-12-14 11:42:48 1513269768.166262: $GPGGA,164249,3946.9438,N,08404.9466,W,1,06,2.00,341.63,M,-33.324,M,,*78
2017-12-14 11:42:48 1513269768.166328: $GPRMC,164249,A,3946.9438,N,08404.9466,W,2.1994,65.962,141217,,*01
2017-12-14 11:42:48 1513269768.166389: $GPGSA,A,3,24,15,18,20,21,27,,,,,,,6.6,2.0,6.2*3B
2017-12-14 11:42:49 1513269769.149180: $GPZDA,164250.00,14,12,2017,00,00*60
2017-12-14 11:42:49 1513269769.149353: $GPGGA,164250,3946.9438,N,08404.9466,W,1,06,2.00,341.63,M,-33.324,M,,*70
2017-12-14 11:42:49 1513269769.149458: $GPRMC,164250,A,3946.9438,N,08404.9466,W,1.4954,80.563,141217,,*05
2017-12-14 11:42:49 1513269769.149521: $GPGSA,A,3,24,15,18,20,21,27,,,,,,,6.6,2.0,6.2*3B
2017-12-14 11:42:50 1513269770.502869: $GPGSV,3,1,11,24,40,130,26,15,52,049,24,18,60,310,10,20,46,081,19*7A
2017-12-14 11:42:50 1513269770.503047: $GPGSV,3,2,11,13,21,045,04,21,77,219,18,27,18,306,09,32,08,229,14*79
2017-12-14 11:42:50 1513269770.503111: $GPGSV,3,3,11,10,29,289,00,29,03,187,00,120,07,103,00*70
2017-12-14 11:42:50 1513269770.616335: $GPZDA,164251.00,14,12,2017,00,00*61
2017-12-14 11:42:50 1513269770.616525: $GPGGA,164251,3946.9438,N,08404.9466,W,1,07,2.00,341.63,M,-33.324,M,,*70
2017-12-14 11:42:50 1513269770.616610: $GPRMC,164251,A,3946.9438,N,08404.9466,W,1.0018,50.691,141217,,*02
2017-12-14 11:42:50 1513269770.616672: $GPGSA,A,3,24,15,18,20,21,27,32,,,,,,6.6,2.0,6.2*3A
2017-12-14 11:42:51 1513269771.149043: $GPZDA,164252.00,14,12,2017,00,00*62
2017-12-14 11:42:51 1513269771.149213: $GPGGA,164252,3946.9438,N,08404.9459,W,1,07,2.00,341.71,M,-33.324,M,,*7C
2017-12-14 11:42:51 1513269771.149278: $GPRMC,164252,A,3946.9438,N,08404.9459,W,1.0298,74.382,141217,,*06
2017-12-14 11:42:51 1513269771.149339: $GPGSA,A,3,24,15,18,20,21,27,32,,,,,,6.6,2.0,6.2*3A
2017-12-14 11:42:52 1513269772.166257: $GPZDA,164253.00,14,12,2017,00,00*63
2017-12-14 11:42:52 1513269772.166465: $GPGGA,164253,3946.9438,N,08404.9459,W,1,07,2.00,341.71,M,-33.324,M,,*7D
2017-12-14 11:42:52 1513269772.166532: $GPRMC,164253,A,3946.9438,N,08404.9459,W,1.0298,74.382,141217,,*07
2017-12-14 11:42:52 1513269772.166592: $GPGSA,A,3,24,15,18,20,21,27,32,,,,,,6.6,2.0,6.2*3A
