2017-11-16 15:24:51 1510863891.146454: {"class":"VERSION","release":"3.17","rev":"3.17","proto_major":3,"proto_minor":12}
2017-11-16 15:24:51 1510863891.146953: {"class":"DEVICES","devices":[{"class":"DEVICE","path":"/dev/ttyUSB0","driver":"SiRF","subtype":"9\u0006GSD4e_4.1.2-P1_RPATCH.05-F-GPS-4R-1510281 11/03/2015 307","activated":"2017-11-16T20:24:50.683Z","flags":1,"native":1,"bps":4800,"parity":"N","stopbits":1,"cycle":1.00}]}
2017-11-16 15:24:51 1510863891.147198: {"class":"WATCH","enable":true,"json":false,"nmea":true,"raw":0,"scaled":false,"timing":false,"split24":false,"pps":false}
2017-11-16 15:24:51 1510863891.369579: $GPZDA,202450.00,16,11,2017,00,00*64
2017-11-16 15:24:51 1510863891.369765: $GPGGA,202450,3946.9572,N,08404.9866,W,2,12,0.80,308.76,M,-33.324,M,,*73
2017-11-16 15:24:51 1510863891.369851: $GPRMC,202450,A,3946.9572,N,08404.9866,W,0.0000,0.000,161117,,*37
2017-11-16 15:24:51 1510863891.369909: $GPGSA,A,3,8,10,14,15,18,20,21,24,27,32,12,138,1.6,0.8,1.3*34
2017-11-16 15:24:52 1510863892.716177: $GPGSV,3,1,12,08,06,294,37,10,68,330,51,14,28,252,46,15,12,066,30*7A
2017-11-16 15:24:52 1510863892.716345: $GPGSV,3,2,12,18,71,090,47,20,09,117,31,21,30,180,42,24,46,060,51*79
2017-11-16 15:24:52 1510863892.716406: $GPGSV,3,3,12,27,07,261,28,32,45,264,48,12,08,108,24,138,38,213,44*4E
2017-11-16 15:24:52 1510863892.829513: $GPZDA,202451.00,16,11,2017,00,00*65
2017-11-16 15:24:52 1510863892.829675: $GPGGA,202451,3946.9572,N,08404.9866,W,2,12,0.80,308.76,M,-33.324,M,,*72
2017-11-16 15:24:52 1510863892.829737: $GPRMC,202451,A,3946.9572,N,08404.9866,W,0.0000,0.000,161117,,*36
2017-11-16 15:24:52 1510863892.829797: $GPGSA,A,3,8,10,14,15,18,20,21,24,27,32,12,138,1.6,0.8,1.3*34
2017-11-16 15:24:53 1510863893.386705: $GPZDA,202452.00,16,11,2017,00,00*66
2017-11-16 15:24:53 1510863893.386908: $GPGGA,202452,3946.9572,N,08404.9866,W,2,12,0.80,308.76,M,-33.324,M,,*71
2017-11-16 15:24:53 1510863893.386975: $GPRMC,202452,A,3946.9572,N,08404.9866,W,0.0000,0.000,161117,,*35
2017-11-16 15:24:53 1510863893.387034: $GPGSA,A,3,8,10,14,15,18,20,21,24,27,32,12,138,1.6,0.8,1.3*34
2017-11-16 15:24:54 1510863894.368630: $GPZDA,202453.00,16,11,2017,00,00*67
2017-11-16 15:24:54 1510863894.368806: $GPGGA,202453,3946.9572,N,08404.9866,W,2,12,0.80,308.76,M,-33.324,M,,*70
2017-11-16 15:24:54 1510863894.368870: $GPRMC,202453,A,3946.9572,N,08404.9866,W,0.0000,0.000,161117,,*34
2017-11-16 15:24:54 1510863894.368927: $GPGSA,A,3,8,10,14,15,18,20,21,24,27,32,12,138,1.6,0.8,1.3*34
2017-11-16 15:24:55 1510863895.721955: $GPGSV,3,1,12,08,06,294,37,10,68,330,51,14,28,252,46,15,12,066,30*7A
2017-11-16 15:24:55 1510863895.722125: $GPGSV,3,2,12,18,71,090,47,20,09,117,31,21,30,180,42,24,46,060,51*79
2017-11-16 15:24:55 1510863895.722185: $GPGSV,3,3,12,27,07,261,21,32,45,264,48,12,08,108,25,138,38,213,44*46
2017-11-16 15:24:55 1510863895.835239: $GPZDA,202454.00,16,11,2017,00,00*60
2017-11-16 15:24:55 1510863895.835401: $GPGGA,202454,3946.9572,N,08404.9866,W,2,12,0.80,308.76,M,-33.324,M,,*77
2017-11-16 15:24:55 1510863895.835463: $GPRMC,202454,A,3946.9572,N,08404.9866,W,0.0000,0.000,161117,,*33
2017-11-16 15:24:55 1510863895.835520: $GPGSA,A,3,8,10,14,15,18,20,21,24,27,32,12,138,1.6,0.8,1.3*34
2017-11-16 15:24:56 1510863896.460655: $GPZDA,202455.00,16,11,2017,00,00*61
2017-11-16 15:24:56 1510863896.460841: $GPGGA,202455,3946.9572,N,08404.9866,W,2,12,0.80,308.76,M,-33.324,M,,*76
2017-11-16 15:24:56 1510863896.460903: $GPRMC,202455,A,3946.9572,N,08404.9866,W,0.0000,0.000,161117,,*32
2017-11-16 15:24:56 1510863896.460961: $GPGSA,A,3,8,10,14,15,18,20,21,24,27,32,12,138,1.6,0.8,1.3*34
2017-11-16 15:24:57 1510863897.379592: $GPZDA,202456.00,16,11,2017,00,00*62
2017-11-16 15:24:57 1510863897.379764: $GPGGA,202456,3946.9572,N,08404.9866,W,2,12,0.80,308.76,M,-33.324,M,,*75
2017-11-16 15:24:57 1510863897.379829: $GPRMC,202456,A,3946.9572,N,08404.9866,W,0.0000,0.000,161117,,*31
2017-11-16 15:24:57 1510863897.379885: $GPGSA,A,3,8,10,14,15,18,20,21,24,27,32,12,138,1.6,0.8,1.3*34
2017-11-16 15:24:57 1510863897.379941: $GPGBS,202456,2.12,M,3.10,M,7.47,M*3E
2017-11-16 15:24:58 1510863898.721660: $GPGSV,3,1,12,08,06,292,36,10,69,331,51,14,29,253,46,15,11,066,29*76
2017-11-16 15:24:58 1510863898.721828: $GPGSV,3,2,12,18,71,094,48,20,08,118,30,21,29,180,41,24,45,058,51*7E
2017-11-16 15:24:58 1510863898.721890: $GPGSV,3,3,12,27,06,259,24,32,46,265,49,12,09,106,26,138,38,213,45*47
2017-11-16 15:24:58 1510863898.834911: $GPZDA,202457.00,16,11,2017,00,00*63
2017-11-16 15:24:58 1510863898.835065: $GPGGA,202457,3946.9572,N,08404.9866,W,2,12,0.80,308.76,M,-33.324,M,,*74
2017-11-16 15:24:58 1510863898.835125: $GPRMC,202457,A,3946.9572,N,08404.9866,W,0.0000,0.000,161117,,*30
2017-11-16 15:24:58 1510863898.835182: $GPGSA,A,3,8,10,14,15,18,20,21,24,27,32,12,138,1.6,0.8,1.3*34
2017-11-16 15:24:59 1510863899.369547: $GPZDA,202458.00,16,11,2017,00,00*6C
2017-11-16 15:24:59 1510863899.369723: $GPGGA,202458,3946.9572,N,08404.9866,W,2,12,0.80,308.76,M,-33.324,M,,*7B
2017-11-16 15:24:59 1510863899.369787: $GPRMC,202458,A,3946.9572,N,08404.9866,W,0.0000,0.000,161117,,*3F
2017-11-16 15:24:59 1510863899.369844: $GPGSA,A,3,8,10,14,15,18,20,21,24,27,32,12,138,1.6,0.8,1.3*34
2017-11-16 15:25:00 1510863900.385413: $GPZDA,202459.00,16,11,2017,00,00*6D
2017-11-16 15:25:00 1510863900.385583: $GPGGA,202459,3946.9572,N,08404.9866,W,2,12,1.20,308.76,M,-33.324,M,,*71
2017-11-16 15:25:00 1510863900.385649: $GPRMC,202459,A,3946.9572,N,08404.9866,W,0.0000,0.000,161117,,*3E
2017-11-16 15:25:00 1510863900.385706: $GPGSA,A,3,8,10,14,15,18,20,21,24,27,32,12,138,1.6,1.2,1.3*3F
