2017-12-01 16:05:18 1512162318.477031: {"class":"VERSION","release":"3.16","rev":"3.16-4","proto_major":3,"proto_minor":11}
2017-12-01 16:05:18 1512162318.477429: {"class":"DEVICES","devices":[{"class":"DEVICE","path":"/dev/ttyUSB0","driver":"SiRF","subtype":"9\u0006GSD4e_4.1.2-P1_RPATCH.05-F-GPS-4R-1510281 11/03/2015 307","activated":"2017-12-01T21:05:18.056Z","flags":1,"native":1,"bps":4800,"parity":"N","stopbits":1,"cycle":1.00}]}
2017-12-01 16:05:18 1512162318.477552: {"class":"WATCH","enable":true,"json":false,"nmea":true,"raw":0,"scaled":false,"timing":false,"split24":false,"pps":false}
2017-12-01 16:05:18 1512162318.659035: $GPZDA,210519.32,01,12,2017,00,00*6F
2017-12-01 16:05:18 1512162318.659203: $GPGGA,210519,3946.9559,N,08404.9837,W,1,12,1.00,317.83,M,-33.324,M,,*7F
2017-12-01 16:05:18 1512162318.659270: $GPRMC,210519,A,3946.9559,N,08404.9837,W,0.5954,203.949,011217,,*38
2017-12-01 16:05:18 1512162318.659331: $GPGSA,A,3,10,11,12,14,18,22,25,31,32,1,24,138,2.0,1.0,1.5*32
2017-12-01 16:05:20 1512162320.076673: $GPGSV,3,1,12,01,18,310,32,10,60,141,38,12,25,061,34,14,60,306,36*7C
2017-12-01 16:05:20 1512162320.076857: $GPGSV,3,2,12,18,28,139,34,25,35,105,39,31,45,217,38,32,70,355,38*79
2017-12-01 16:05:20 1512162320.076924: $GPGSV,3,3,12,11,10,292,16,22,10,312,00,24,06,046,00,138,38,213,00*47
2017-12-01 16:05:20 1512162320.190082: $GPZDA,210520.01,01,12,2017,00,00*65
2017-12-01 16:05:20 1512162320.190216: $GPGGA,210520,3946.9562,N,08404.9829,W,1,08,1.00,317.15,M,-33.324,M,,*76
2017-12-01 16:05:20 1512162320.190281: $GPRMC,210520,A,3946.9562,N,08404.9829,W,0.1867,180.000,011217,,*3C
2017-12-01 16:05:20 1512162320.190342: $GPGSA,A,3,1,10,12,14,18,25,31,32,,,,,2.0,1.0,1.5*0E
2017-12-01 16:05:20 1512162320.996617: $GPZDA,210521.00,01,12,2017,00,00*65
2017-12-01 16:05:20 1512162320.996800: $GPGGA,210521,3946.9562,N,08404.9829,W,1,08,0.80,317.15,M,-33.324,M,,*7E
2017-12-01 16:05:20 1512162320.996867: $GPRMC,210521,A,3946.9562,N,08404.9829,W,0.0000,0.000,011217,,*3C
2017-12-01 16:05:20 1512162320.996927: $GPGSA,A,3,1,10,12,14,18,25,31,32,,,,,2.0,0.8,1.5*07
2017-12-01 16:05:20 1512162320.996984: $GPGBS,210521,10.70,M,15.43,M,35.28,M*02
2017-12-01 16:05:21 1512162321.447469: $GPZDA,210522.00,01,12,2017,00,00*66
2017-12-01 16:05:21 1512162321.447641: $GPGGA,210522,3946.9566,N,08404.9828,W,1,08,0.80,316.38,M,-33.324,M,,*76
2017-12-01 16:05:21 1512162321.447708: $GPRMC,210522,A,3946.9566,N,08404.9828,W,0.1567,9.200,011217,,*34
2017-12-01 16:05:21 1512162321.447769: $GPGSA,A,3,1,10,12,14,18,25,31,32,,,,,2.0,0.8,1.5*07
2017-12-01 16:05:21 1512162321.447826: $GPGBS,210522,10.70,M,15.43,M,35.28,M*01
2017-12-01 16:05:22 1512162322.686896: $GPGSV,3,1,12,01,18,310,40,10,60,141,48,12,25,061,43,14,60,306,46*79
2017-12-01 16:05:22 1512162322.687093: $GPGSV,3,2,12,18,28,139,43,25,35,105,49,31,45,217,48,32,70,355,48*7E
2017-12-01 16:05:22 1512162322.687161: $GPGSV,3,3,12,11,10,292,33,22,10,312,30,24,06,046,22,138,38,213,47*40
2017-12-01 16:05:22 1512162322.800309: $GPZDA,210523.00,01,12,2017,00,00*67
2017-12-01 16:05:22 1512162322.800479: $GPGGA,210523,3946.9566,N,08404.9821,W,1,12,0.80,316.46,M,-33.324,M,,*7C
2017-12-01 16:05:22 1512162322.800548: $GPRMC,210523,A,3946.9566,N,08404.9821,W,0.0000,0.000,011217,,*32
2017-12-01 16:05:22 1512162322.800609: $GPGSA,A,3,1,10,12,14,18,25,31,32,11,22,24,138,2.0,0.8,1.5*3B
2017-12-01 16:05:23 1512162323.425684: $GPZDA,210524.00,01,12,2017,00,00*60
2017-12-01 16:05:23 1512162323.425851: $GPGGA,210524,3946.9569,N,08404.9821,W,1,12,0.80,315.70,M,-33.324,M,,*72
2017-12-01 16:05:23 1512162323.425918: $GPRMC,210524,A,3946.9569,N,08404.9821,W,0.0000,0.000,011217,,*3A
2017-12-01 16:05:23 1512162323.425978: $GPGSA,A,3,1,10,12,14,18,25,31,32,11,22,24,138,2.0,0.8,1.5*3B
2017-12-01 16:05:24 1512162324.351663: $GPZDA,210525.00,01,12,2017,00,00*61
2017-12-01 16:05:24 1512162324.351850: $GPGGA,210525,3946.9572,N,08404.9820,W,1,12,0.80,314.93,M,-33.324,M,,*74
2017-12-01 16:05:24 1512162324.351917: $GPRMC,210525,A,3946.9572,N,08404.9820,W,0.0000,0.000,011217,,*30
2017-12-01 16:05:24 1512162324.351978: $GPGSA,A,3,1,10,12,14,18,25,31,32,11,22,24,138,2.0,0.8,1.5*3B
2017-12-01 16:05:25 1512162325.687323: $GPGSV,3,1,12,01,18,310,39,10,60,141,48,12,25,061,44,14,60,306,45*73
2017-12-01 16:05:25 1512162325.687530: $GPGSV,3,2,12,18,28,139,43,25,35,105,49,31,45,217,49,32,70,355,48*7F
2017-12-01 16:05:25 1512162325.687598: $GPGSV,3,3,12,11,10,292,35,22,10,312,29,24,06,046,22,138,38,213,47*4E
2017-12-01 16:05:25 1512162325.800552: $GPZDA,210526.00,01,12,2017,00,00*62
2017-12-01 16:05:25 1512162325.800721: $GPGGA,210526,3946.9572,N,08404.9820,W,1,12,0.80,314.93,M,-33.324,M,,*77
2017-12-01 16:05:25 1512162325.800788: $GPRMC,210526,A,3946.9572,N,08404.9820,W,0.0000,0.000,011217,,*33
2017-12-01 16:05:25 1512162325.800849: $GPGSA,A,3,1,10,12,14,18,25,31,32,11,22,24,138,2.0,0.8,1.5*3B
2017-12-01 16:05:26 1512162326.351976: $GPZDA,210527.00,01,12,2017,00,00*63
2017-12-01 16:05:27 1512162327.972145: $GPGGA,210527,3946.9576,N,08404.9812,W,1,12,0.80,314.25,M,-33.324,M,,*7E
2017-12-01 16:05:27 1512162327.972316: $GPRMC,210527,A,3946.9576,N,08404.9812,W,0.0000,0.000,011217,,*37
2017-12-01 16:05:27 1512162327.972384: $GPGSA,A,3,1,10,12,14,18,25,31,32,11,22,24,138,2.0,0.8,1.5*3B
2017-12-01 16:05:27 1512162327.972500: $GPZDA,210528.00,01,12,2017,00,00*6C
2017-12-01 16:05:27 1512162327.972561: $GPGGA,210528,3946.9576,N,08404.9812,W,1,12,0.80,314.25,M,-33.324,M,,*71
2017-12-01 16:05:27 1512162327.972648: $GPRMC,210528,A,3946.9576,N,08404.9812,W,0.0000,0.000,011217,,*38
2017-12-01 16:05:27 1512162327.972712: $GPGSA,A,3,1,10,12,14,18,25,31,32,11,22,24,138,2.0,0.8,1.5*3B
2017-12-01 16:05:28 1512162328.688830: $GPGSV,3,1,12,01,18,310,39,10,60,141,48,12,25,061,44,14,60,306,45*73
2017-12-01 16:05:28 1512162328.689013: $GPGSV,3,2,12,18,28,139,44,25,35,105,49,31,45,217,49,32,70,355,48*78
2017-12-01 16:05:28 1512162328.689082: $GPGSV,3,3,12,11,10,292,35,22,10,312,26,24,06,046,22,138,38,213,46*40
2017-12-01 16:05:28 1512162328.802603: $GPZDA,210529.00,01,12,2017,00,00*6D
2017-12-01 16:05:28 1512162328.802753: $GPGGA,210529,3946.9596,N,08404.9795,W,2,12,1.20,311.22,M,-33.324,M,,*74
2017-12-01 16:05:28 1512162328.802823: $GPRMC,210529,A,3946.9596,N,08404.9795,W,0.0000,0.000,011217,,*37
2017-12-01 16:05:28 1512162328.802887: $GPGSA,A,3,1,10,12,14,18,25,31,32,11,22,24,138,2.0,1.2,1.5*30
2017-12-01 16:05:29 1512162329.353024: $GPZDA,210530.00,01,12,2017,00,00*65
2017-12-01 16:05:29 1512162329.353200: $GPGGA,210530,3946.9596,N,08404.9795,W,2,12,0.80,311.22,M,-33.324,M,,*77
2017-12-01 16:05:29 1512162329.353290: $GPRMC,210530,A,3946.9596,N,08404.9795,W,0.0000,0.000,011217,,*3F
2017-12-01 16:05:29 1512162329.353357: $GPGSA,A,3,1,10,12,14,18,25,31,32,11,22,24,138,2.0,0.8,1.5*3B
2017-12-01 16:05:30 1512162330.352688: $GPZDA,210531.00,01,12,2017,00,00*64
2017-12-01 16:05:30 1512162330.352869: $GPGGA,210531,3946.9596,N,08404.9795,W,2,12,0.80,311.22,M,-33.324,M,,*76
2017-12-01 16:05:30 1512162330.352939: $GPRMC,210531,A,3946.9596,N,08404.9795,W,0.0000,0.000,011217,,*3E
2017-12-01 16:05:30 1512162330.353003: $GPGSA,A,3,1,10,12,14,18,25,31,32,11,22,24,138,2.0,0.8,1.5*3B
2017-12-01 16:05:31 1512162331.690845: $GPGSV,3,1,12,01,18,310,39,10,60,141,48,12,25,061,44,14,60,306,46*70
2017-12-01 16:05:31 1512162331.696212: $GPGSV,3,2,12,18,28,139,44,25,35,105,49,31,45,217,49,32,70,355,48*78
2017-12-01 16:05:31 1512162331.696374: $GPGSV,3,3,12,11,10,292,36,22,10,312,30,24,06,046,22,138,38,213,46*44
2017-12-01 16:05:31 1512162331.804378: $GPZDA,210532.00,01,12,2017,00,00*67
2017-12-01 16:05:31 1512162331.804568: $GPGGA,210532,3946.9596,N,08404.9795,W,2,12,0.80,311.22,M,-33.324,M,,*75
2017-12-01 16:05:31 1512162331.804640: $GPRMC,210532,A,3946.9596,N,08404.9795,W,0.0000,0.000,011217,,*3D
2017-12-01 16:05:31 1512162331.804704: $GPGSA,A,3,1,10,12,14,18,25,31,32,11,22,24,138,2.0,0.8,1.5*3B
2017-12-01 16:05:32 1512162332.353875: $GPZDA,210533.00,01,12,2017,00,00*66
2017-12-01 16:05:32 1512162332.354054: $GPGGA,210533,3946.9596,N,08404.9795,W,2,12,0.80,311.22,M,-33.324,M,,*74
2017-12-01 16:05:32 1512162332.354127: $GPRMC,210533,A,3946.9596,N,08404.9795,W,0.0000,0.000,011217,,*3C
2017-12-01 16:05:32 1512162332.354242: $GPGSA,A,3,1,10,12,14,18,25,31,32,11,22,24,138,2.0,0.8,1.5*3B
2017-12-01 16:05:33 1512162333.350746: $GPZDA,210534.00,01,12,2017,00,00*61
2017-12-01 16:05:33 1512162333.350905: $GPGGA,210534,3946.9596,N,08404.9795,W,2,12,0.80,311.22,M,-33.324,M,,*73
2017-12-01 16:05:33 1512162333.350972: $GPRMC,210534,A,3946.9596,N,08404.9795,W,0.4207,39.347,011217,,*00
2017-12-01 16:05:33 1512162333.351033: $GPGSA,A,3,1,10,12,14,18,25,31,32,11,22,24,138,2.0,0.8,1.5*3B
2017-12-01 16:05:34 1512162334.687608: $GPGSV,3,1,12,01,18,310,38,10,60,141,47,12,25,061,44,14,60,306,44*7C
2017-12-01 16:05:34 1512162334.687793: $GPGSV,3,2,12,18,28,139,42,25,35,105,48,31,45,217,48,32,70,355,47*71
2017-12-01 16:05:34 1512162334.687858: $GPGSV,3,3,12,11,10,292,36,22,10,312,33,24,06,046,21,138,38,213,48*4A
2017-12-01 16:05:34 1512162334.801087: $GPZDA,210535.00,01,12,2017,00,00*60
2017-12-01 16:05:34 1512162334.801278: $GPGGA,210535,3946.9592,N,08404.9795,W,2,12,0.80,310.59,M,-33.324,M,,*7B
2017-12-01 16:05:34 1512162334.801407: $GPRMC,210535,A,3946.9592,N,08404.9795,W,0.2959,234.767,011217,,*3A
2017-12-01 16:05:34 1512162334.801480: $GPGSA,A,3,1,10,12,14,18,25,31,32,11,22,24,138,2.0,0.8,1.5*3B
2017-12-01 16:05:35 1512162335.350744: $GPZDA,210536.00,01,12,2017,00,00*63
2017-12-01 16:05:35 1512162335.350914: $GPGGA,210536,3946.9576,N,08404.9816,W,2,12,0.80,307.79,M,-33.324,M,,*72
2017-12-01 16:05:35 1512162335.350981: $GPRMC,210536,A,3946.9576,N,08404.9816,W,0.1867,180.000,011217,,*32
2017-12-01 16:05:35 1512162335.351042: $GPGSA,A,3,1,10,12,14,18,25,31,32,11,22,24,138,2.0,0.8,1.5*3B
2017-12-01 16:05:36 1512162336.352647: $GPZDA,210537.00,01,12,2017,00,00*62
2017-12-01 16:05:36 1512162336.352824: $GPGGA,210537,3946.9576,N,08404.9816,W,2,12,0.80,307.79,M,-33.324,M,,*73
2017-12-01 16:05:36 1512162336.352891: $GPRMC,210537,A,3946.9576,N,08404.9816,W,0.0000,0.000,011217,,*32
2017-12-01 16:05:36 1512162336.352953: $GPGSA,A,3,1,10,12,14,18,25,31,32,11,22,24,138,2.0,0.8,1.5*3B
2017-12-01 16:05:37 1512162337.688200: $GPGSV,3,1,12,01,18,310,35,10,60,141,48,12,25,061,44,14,60,306,45*7F
2017-12-01 16:05:37 1512162337.688413: $GPGSV,3,2,12,18,28,139,42,25,35,105,49,31,45,217,48,32,70,355,46*71
2017-12-01 16:05:37 1512162337.688481: $GPGSV,3,3,12,11,10,292,36,22,10,312,30,24,06,046,22,138,38,213,45*47
2017-12-01 16:05:37 1512162337.804365: $GPZDA,210538.00,01,12,2017,00,00*6D
2017-12-01 16:05:37 1512162337.804598: $GPGGA,210538,3946.9576,N,08404.9816,W,2,12,0.80,307.79,M,-33.324,M,,*7C
2017-12-01 16:05:37 1512162337.804667: $GPRMC,210538,A,3946.9576,N,08404.9816,W,0.0000,0.000,011217,,*3D
2017-12-01 16:05:37 1512162337.804728: $GPGSA,A,3,1,10,12,14,18,25,31,32,11,22,24,138,2.0,0.8,1.5*3B
2017-12-01 16:05:38 1512162338.428525: $GPZDA,210539.00,01,12,2017,00,00*6C
2017-12-01 16:05:38 1512162338.428696: $GPGGA,210539,3946.9576,N,08404.9816,W,2,12,0.80,307.79,M,-33.324,M,,*7D
2017-12-01 16:05:38 1512162338.428764: $GPRMC,210539,A,3946.9576,N,08404.9816,W,0.0000,0.000,011217,,*3C
2017-12-01 16:05:38 1512162338.428825: $GPGSA,A,3,1,10,12,14,18,25,31,32,11,22,24,138,2.0,0.8,1.5*3B
