2017-12-01 13:16:54 1512152214.136862: {"class":"VERSION","release":"3.16","rev":"3.16-4","proto_major":3,"proto_minor":11}
2017-12-01 13:16:54 1512152214.137257: {"class":"DEVICES","devices":[{"class":"DEVICE","path":"/dev/ttyUSB0","driver":"SiRF","subtype":"9\u0006GSD4e_4.1.2-P1_RPATCH.05-F-GPS-4R-1510281 11/03/2015 307","activated":"2017-12-01T18:16:53.371Z","flags":1,"native":1,"bps":4800,"parity":"N","stopbits":1,"cycle":1.00}]}
2017-12-01 13:16:54 1512152214.137377: {"class":"WATCH","enable":true,"json":false,"nmea":true,"raw":0,"scaled":false,"timing":false,"split24":false,"pps":false}
2017-12-01 13:16:54 1512152214.563748: $GPGSV,3,1,12,08,06,321,40,10,43,303,47,15,35,052,49,18,72,342,44*76
2017-12-01 13:16:54 1512152214.563948: $GPGSV,3,2,12,20,32,097,47,21,61,187,46,24,51,106,47,27,19,286,38*71
2017-12-01 13:16:54 1512152214.564017: $GPGSV,3,3,12,32,23,240,42,13,06,049,24,14,06,234,00,138,38,213,47*41
2017-12-01 13:16:54 1512152214.677511: $GPZDA,181655.00,01,12,2017,00,00*6E
2017-12-01 13:16:54 1512152214.677678: $GPGGA,181655,3946.9563,N,08404.9854,W,2,11,0.80,298.37,M,-33.324,M,,*73
2017-12-01 13:16:54 1512152214.677744: $GPRMC,181655,A,3946.9563,N,08404.9854,W,0.0000,0.000,011217,,*3C
2017-12-01 13:16:54 1512152214.677805: $GPGSA,A,3,8,10,15,18,20,21,24,27,32,13,138,,2.0,0.8,1.5*33
2017-12-01 13:16:55 1512152215.225916: $GPZDA,181656.00,01,12,2017,00,00*6D
2017-12-01 13:16:55 1512152215.226087: $GPGGA,181656,3946.9563,N,08404.9854,W,2,11,0.80,298.37,M,-33.324,M,,*70
2017-12-01 13:16:55 1512152215.226152: $GPRMC,181656,A,3946.9563,N,08404.9854,W,0.0000,0.000,011217,,*3F
2017-12-01 13:16:55 1512152215.226214: $GPGSA,A,3,8,10,15,18,20,21,24,27,32,13,138,,2.0,0.8,1.5*33
2017-12-01 13:16:56 1512152216.229393: $GPZDA,181657.00,01,12,2017,00,00*6C
2017-12-01 13:16:56 1512152216.229566: $GPGGA,181657,3946.9563,N,08404.9854,W,2,11,0.80,298.37,M,-33.324,M,,*71
2017-12-01 13:16:56 1512152216.229632: $GPRMC,181657,A,3946.9563,N,08404.9854,W,0.0000,0.000,011217,,*3E
2017-12-01 13:16:56 1512152216.229693: $GPGSA,A,3,8,10,15,18,20,21,24,27,32,13,138,,2.0,0.8,1.5*33
2017-12-01 13:16:57 1512152217.567029: $GPGSV,3,1,12,08,06,321,40,10,43,303,47,15,35,052,49,18,72,342,44*76
2017-12-01 13:16:57 1512152217.567206: $GPGSV,3,2,12,20,32,097,47,21,61,187,46,24,51,106,47,27,19,286,38*71
2017-12-01 13:16:57 1512152217.567270: $GPGSV,3,3,12,32,23,240,42,13,06,049,23,14,06,234,22,138,38,213,47*46
2017-12-01 13:16:57 1512152217.680552: $GPZDA,181658.00,01,12,2017,00,00*63
2017-12-01 13:16:57 1512152217.680708: $GPGGA,181658,3946.9567,N,08404.9854,W,2,12,0.80,299.01,M,-33.324,M,,*7D
2017-12-01 13:16:57 1512152217.680773: $GPRMC,181658,A,3946.9567,N,08404.9854,W,0.0000,0.000,011217,,*35
2017-12-01 13:16:57 1512152217.680833: $GPGSA,A,3,8,10,15,18,20,21,24,27,32,13,14,138,2.0,0.8,1.5*36
2017-12-01 13:16:58 1512152218.231777: $GPZDA,181659.00,01,12,2017,00,00*62
2017-12-01 13:16:58 1512152218.231974: $GPGGA,181659,3946.9567,N,08404.9854,W,2,12,0.80,299.01,M,-33.324,M,,*7C
2017-12-01 13:16:58 1512152218.232046: $GPRMC,181659,A,3946.9567,N,08404.9854,W,0.0000,0.000,011217,,*34
2017-12-01 13:16:58 1512152218.232110: $GPGSA,A,3,8,10,15,18,20,21,24,27,32,13,14,138,2.0,0.8,1.5*36
2017-12-01 13:16:59 1512152219.230522: $GPZDA,181700.00,01,12,2017,00,00*6F
2017-12-01 13:16:59 1512152219.230712: $GPGGA,181700,3946.9567,N,08404.9854,W,2,12,0.80,299.01,M,-33.324,M,,*71
2017-12-01 13:16:59 1512152219.230783: $GPRMC,181700,A,3946.9567,N,08404.9854,W,0.0000,0.000,011217,,*39
2017-12-01 13:16:59 1512152219.230847: $GPGSA,A,3,8,10,15,18,20,21,24,27,32,13,14,138,2.0,0.8,1.5*36
2017-12-01 13:17:00 1512152220.564988: $GPGSV,3,1,12,08,06,321,40,10,43,303,47,15,35,052,48,18,72,342,43*70
2017-12-01 13:17:00 1512152220.565174: $GPGSV,3,2,12,20,32,097,47,21,61,187,46,24,51,106,47,27,19,286,38*71
2017-12-01 13:17:00 1512152220.565244: $GPGSV,3,3,12,32,23,240,42,13,06,049,23,14,06,234,24,138,38,213,47*40
2017-12-01 13:17:00 1512152220.678381: $GPZDA,181701.00,01,12,2017,00,00*6E
2017-12-01 13:17:00 1512152220.678557: $GPGGA,181701,3946.9567,N,08404.9854,W,2,12,0.80,299.01,M,-33.324,M,,*70
2017-12-01 13:17:00 1512152220.678677: $GPRMC,181701,A,3946.9567,N,08404.9854,W,0.0000,0.000,011217,,*38
2017-12-01 13:17:00 1512152220.678740: $GPGSA,A,3,8,10,15,18,20,21,24,27,32,13,14,138,2.0,0.8,1.5*36
2017-12-01 13:17:01 1512152221.391780: $GPZDA,181702.00,01,12,2017,00,00*6D
2017-12-01 13:17:01 1512152221.391954: $GPGGA,181702,3946.9567,N,08404.9854,W,2,12,0.80,299.01,M,-33.324,M,,*73
2017-12-01 13:17:01 1512152221.392020: $GPRMC,181702,A,3946.9567,N,08404.9854,W,0.0000,0.000,011217,,*3B
2017-12-01 13:17:01 1512152221.392081: $GPGSA,A,3,8,10,15,18,20,21,24,27,32,13,14,138,2.0,0.8,1.5*36
2017-12-01 13:17:02 1512152222.391473: $GPZDA,181703.00,01,12,2017,00,00*6C
2017-12-01 13:17:02 1512152222.391647: $GPGGA,181703,3946.9567,N,08404.9854,W,2,12,0.80,299.01,M,-33.324,M,,*72
2017-12-01 13:17:02 1512152222.391714: $GPRMC,181703,A,3946.9567,N,08404.9854,W,0.0000,0.000,011217,,*3A
2017-12-01 13:17:02 1512152222.391774: $GPGSA,A,3,8,10,15,18,20,21,24,27,32,13,14,138,2.0,0.8,1.5*36
2017-12-01 13:17:03 1512152223.732077: $GPGSV,3,1,12,08,06,321,40,10,43,303,47,15,35,052,49,18,72,342,43*71
2017-12-01 13:17:03 1512152223.732277: $GPGSV,3,2,12,20,32,097,46,21,61,187,46,24,51,106,47,27,19,286,39*71
2017-12-01 13:17:03 1512152223.732345: $GPGSV,3,3,12,32,23,240,42,13,06,049,24,14,06,234,00,138,38,213,47*41
2017-12-01 13:17:03 1512152223.844196: $GPZDA,181704.00,01,12,2017,00,00*6B
2017-12-01 13:17:03 1512152223.844389: $GPGGA,181704,3946.9567,N,08404.9854,W,2,11,0.80,299.01,M,-33.324,M,,*76
2017-12-01 13:17:03 1512152223.844459: $GPRMC,181704,A,3946.9567,N,08404.9854,W,0.0000,0.000,011217,,*3D
2017-12-01 13:17:03 1512152223.844521: $GPGSA,A,3,8,10,15,18,20,21,24,27,32,13,138,,2.0,0.8,1.5*33
