2017-12-01 12:30:37 1512149437.316635: {"class":"VERSION","release":"3.16","rev":"3.16-4","proto_major":3,"proto_minor":11}
2017-12-01 12:30:37 1512149437.317071: {"class":"DEVICES","devices":[{"class":"DEVICE","path":"/dev/ttyUSB0","driver":"SiRF","subtype":"9\u0006GSD4e_4.1.2-P1_RPATCH.05-F-GPS-4R-1510281 11/03/2015 307","activated":"2017-12-01T17:30:37.246Z","flags":1,"native":1,"bps":4800,"parity":"N","stopbits":1,"cycle":1.00}]}
2017-12-01 12:30:37 1512149437.317198: {"class":"WATCH","enable":true,"json":false,"nmea":true,"raw":0,"scaled":false,"timing":false,"split24":false,"pps":false}
2017-12-01 12:30:37 1512149437.359677: $GPZDA,173038.00,01,12,2017,00,00*6E
2017-12-01 12:30:37 1512149437.359814: $GPGGA,173038,3946.9553,N,08404.9830,W,2,09,0.80,305.19,M,-33.324,M,,*72
2017-12-01 12:30:37 1512149437.359878: $GPRMC,173038,A,3946.9553,N,08404.9830,W,0.0000,0.000,011217,,*3D
2017-12-01 12:30:37 1512149437.359938: $GPGSA,A,3,10,13,15,18,20,21,24,27,138,,,,2.0,0.8,1.5*0A
2017-12-01 12:30:38 1512149438.690450: $GPGSV,3,1,11,10,27,288,41,13,24,045,42,15,55,049,46,18,58,307,46*72
2017-12-01 12:30:38 1512149438.690635: $GPGSV,3,2,11,20,47,078,44,21,79,235,42,24,38,133,46,27,18,307,37*7B
2017-12-01 12:30:38 1512149438.690703: $GPGSV,3,3,11,29,05,187,24,32,06,228,29,138,38,213,46*78
2017-12-01 12:30:38 1512149438.803997: $GPZDA,173039.00,01,12,2017,00,00*6F
2017-12-01 12:30:38 1512149438.804181: $GPGGA,173039,3946.9553,N,08404.9830,W,2,11,0.80,305.19,M,-33.324,M,,*7A
2017-12-01 12:30:38 1512149438.804246: $GPRMC,173039,A,3946.9553,N,08404.9830,W,0.0000,0.000,011217,,*3C
2017-12-01 12:30:38 1512149438.804306: $GPGSA,A,3,10,13,15,18,20,21,24,27,29,32,138,,2.0,0.8,1.5*00
2017-12-01 12:30:39 1512149439.429229: $GPZDA,173040.00,01,12,2017,00,00*61
2017-12-01 12:30:39 1512149439.429394: $GPGGA,173040,3946.9553,N,08404.9830,W,2,11,1.20,305.19,M,-33.324,M,,*7F
2017-12-01 12:30:39 1512149439.429462: $GPRMC,173040,A,3946.9553,N,08404.9830,W,0.0000,0.000,011217,,*32
2017-12-01 12:30:39 1512149439.429524: $GPGSA,A,3,10,13,15,18,20,21,24,27,29,32,138,,2.0,1.2,1.5*0B
2017-12-01 12:30:40 1512149440.355054: $GPZDA,173041.00,01,12,2017,00,00*60
2017-12-01 12:30:40 1512149440.355228: $GPGGA,173041,3946.9556,N,08404.9830,W,2,11,0.80,304.43,M,-33.324,M,,*7E
2017-12-01 12:30:40 1512149440.355295: $GPRMC,173041,A,3946.9556,N,08404.9830,W,0.0000,0.000,011217,,*36
2017-12-01 12:30:40 1512149440.355356: $GPGSA,A,3,10,13,15,18,20,21,24,27,29,32,138,,2.0,0.8,1.5*00
2017-12-01 12:30:41 1512149441.692188: $GPGSV,3,1,11,10,27,288,42,13,24,045,42,15,55,049,46,18,58,307,46*71
2017-12-01 12:30:41 1512149441.692363: $GPGSV,3,2,11,20,47,078,45,21,79,235,42,24,38,133,46,27,18,307,37*7A
2017-12-01 12:30:41 1512149441.692430: $GPGSV,3,3,11,29,05,187,23,32,06,228,00,138,38,213,46*74
2017-12-01 12:30:41 1512149441.805490: $GPZDA,173042.00,01,12,2017,00,00*63
2017-12-01 12:30:41 1512149441.805660: $GPGGA,173042,3946.9556,N,08404.9830,W,2,10,0.80,304.43,M,-33.324,M,,*7C
2017-12-01 12:30:41 1512149441.805728: $GPRMC,173042,A,3946.9556,N,08404.9830,W,0.0000,0.000,011217,,*35
2017-12-01 12:30:41 1512149441.805789: $GPGSA,A,3,10,13,15,18,20,21,24,27,29,138,,,2.0,0.8,1.5*01
2017-12-01 12:30:42 1512149442.356461: $GPZDA,173043.00,01,12,2017,00,00*62
2017-12-01 12:30:42 1512149442.356640: $GPGGA,173043,3946.9556,N,08404.9830,W,2,10,0.80,304.43,M,-33.324,M,,*7D
2017-12-01 12:30:42 1512149442.356709: $GPRMC,173043,A,3946.9556,N,08404.9830,W,0.0000,0.000,011217,,*34
2017-12-01 12:30:42 1512149442.356770: $GPGSA,A,3,10,13,15,18,20,21,24,27,29,138,,,2.0,0.8,1.5*01
2017-12-01 12:30:43 1512149443.357448: $GPZDA,173044.00,01,12,2017,00,00*65
2017-12-01 12:30:43 1512149443.357645: $GPGGA,173044,3946.9556,N,08404.9830,W,2,10,0.80,304.43,M,-33.324,M,,*7A
2017-12-01 12:30:43 1512149443.357716: $GPRMC,173044,A,3946.9556,N,08404.9830,W,0.0000,0.000,011217,,*33
2017-12-01 12:30:43 1512149443.357778: $GPGSA,A,3,10,13,15,18,20,21,24,27,29,138,,,2.0,0.8,1.5*01
2017-12-01 12:30:44 1512149444.691207: $GPGSV,3,1,11,10,27,288,42,13,24,045,42,15,55,049,46,18,58,307,46*71
2017-12-01 12:30:44 1512149444.691513: $GPGSV,3,2,11,20,47,078,45,21,79,235,43,24,38,133,47,27,18,307,38*75
2017-12-01 12:30:44 1512149444.691589: $GPGSV,3,3,11,29,05,187,23,32,06,228,31,138,38,213,46*76
2017-12-01 12:30:44 1512149444.804540: $GPZDA,173045.00,01,12,2017,00,00*64
2017-12-01 12:30:44 1512149444.804701: $GPGGA,173045,3946.9556,N,08404.9830,W,2,11,0.80,304.43,M,-33.324,M,,*7A
2017-12-01 12:30:44 1512149444.804772: $GPRMC,173045,A,3946.9556,N,08404.9830,W,0.0000,0.000,011217,,*32
2017-12-01 12:30:44 1512149444.804834: $GPGSA,A,3,10,13,15,18,20,21,24,27,29,32,138,,2.0,0.8,1.5*00
2017-12-01 12:30:45 1512149445.356695: $GPZDA,173046.00,01,12,2017,00,00*67
2017-12-01 12:30:45 1512149445.356887: $GPGGA,173046,3946.9556,N,08404.9830,W,2,11,0.80,304.43,M,-33.324,M,,*79
2017-12-01 12:30:45 1512149445.356955: $GPRMC,173046,A,3946.9556,N,08404.9830,W,0.0000,0.000,011217,,*31
2017-12-01 12:30:45 1512149445.357016: $GPGSA,A,3,10,13,15,18,20,21,24,27,29,32,138,,2.0,0.8,1.5*00
2017-12-01 12:30:46 1512149446.357674: $GPZDA,173047.00,01,12,2017,00,00*66
2017-12-01 12:30:46 1512149446.357845: $GPGGA,173047,3946.9556,N,08404.9830,W,2,11,0.80,304.43,M,-33.324,M,,*78
2017-12-01 12:30:46 1512149446.357913: $GPRMC,173047,A,3946.9556,N,08404.9830,W,0.0000,0.000,011217,,*30
2017-12-01 12:30:46 1512149446.357974: $GPGSA,A,3,10,13,15,18,20,21,24,27,29,32,138,,2.0,0.8,1.5*00
