2018-01-12 20:10:24 1515805824.530879: {"class":"VERSION","release":"3.16","rev":"3.16-4","proto_major":3,"proto_minor":11}
2018-01-12 20:10:24 1515805824.531216: {"class":"DEVICES","devices":[{"class":"DEVICE","path":"/dev/ttyUSB0","driver":"SiRF","subtype":"9\u0006GSD4e_4.1.2-P1_RPATCH.05-F-GPS-4R-1510281 11/03/2015 307","activated":"2018-01-13T01:10:24.326Z","flags":1,"native":1,"bps":4800,"parity":"N","stopbits":1,"cycle":1.00}]}
2018-01-12 20:10:24 1515805824.531329: {"class":"WATCH","enable":true,"json":false,"nmea":true,"raw":0,"scaled":false,"timing":false,"split24":false,"pps":false}
2018-01-12 20:10:25 1515805825.521303: $GPGSV,3,1,10,08,74,126,29,09,46,228,23,11,21,166,19,23,27,189,21*70
2018-01-12 20:10:25 1515805825.521594: $GPGSV,3,2,10,27,46,052,26,07,57,315,20,30,30,306,12,16,22,061,14*7E
2018-01-12 20:10:25 1515805825.521699: $GPGSV,3,3,10,28,15,259,00,138,38,213,00*49
2018-01-12 20:10:25 1515805825.634661: $GPZDA,011026.00,13,01,2018,00,00*6A
2018-01-12 20:10:25 1515805825.634824: $GPGGA,011026,3946.9571,N,08404.9593,W,1,07,1.20,299.53,M,-33.324,M,,*70
2018-01-12 20:10:25 1515805825.634892: $GPRMC,011026,A,3946.9571,N,08404.9593,W,0.2422,93.794,130118,,*0B
2018-01-12 20:10:25 1515805825.634954: $GPGSA,A,3,8,9,11,23,27,7,30,,,,,,4.8,1.2,4.6*0E
2018-01-12 20:10:26 1515805826.184725: $GPZDA,011027.00,13,01,2018,00,00*6B
2018-01-12 20:10:26 1515805826.184872: $GPGGA,011027,3946.9571,N,08404.9593,W,1,07,1.20,299.53,M,-33.324,M,,*71
2018-01-12 20:10:26 1515805826.184937: $GPRMC,011027,A,3946.9571,N,08404.9593,W,0.5287,2.716,130118,,*36
2018-01-12 20:10:26 1515805826.184998: $GPGSA,A,3,8,9,11,23,27,7,30,,,,,,4.8,1.2,4.6*0E
2018-01-12 20:10:27 1515805827.192302: $GPZDA,011028.00,13,01,2018,00,00*64
2018-01-12 20:10:27 1515805827.192474: $GPGGA,011028,3946.9571,N,08404.9593,W,1,07,0.80,299.53,M,-33.324,M,,*75
2018-01-12 20:10:27 1515805827.192541: $GPRMC,011028,A,3946.9571,N,08404.9593,W,0.2422,273.794,130118,,*39
2018-01-12 20:10:27 1515805827.192603: $GPGSA,A,3,8,9,11,23,27,7,30,,,,,,4.8,0.8,4.6*05
2018-01-12 20:10:28 1515805828.528529: $GPGSV,3,1,10,08,74,126,29,09,46,228,22,11,21,166,19,23,27,189,21*71
2018-01-12 20:10:28 1515805828.528713: $GPGSV,3,2,10,27,46,052,26,07,57,315,20,30,30,306,12,16,22,061,14*7E
2018-01-12 20:10:28 1515805828.528799: $GPGSV,3,3,10,28,15,259,00,138,38,213,00*49
2018-01-12 20:10:28 1515805828.641915: $GPZDA,011029.00,13,01,2018,00,00*65
2018-01-12 20:10:28 1515805828.642090: $GPGGA,011029,3946.9571,N,08404.9593,W,1,08,0.80,299.53,M,-33.324,M,,*7B
2018-01-12 20:10:28 1515805828.642157: $GPRMC,011029,A,3946.9571,N,08404.9593,W,0.4844,273.794,130118,,*32
2018-01-12 20:10:28 1515805828.642219: $GPGSA,A,3,8,9,11,23,27,7,30,16,,,,,4.8,0.8,4.6*02
2018-01-12 20:10:29 1515805829.169012: $GPZDA,011030.00,13,01,2018,00,00*6D
2018-01-12 20:10:29 1515805829.169184: $GPGGA,011030,3946.9572,N,08404.9600,W,1,08,1.40,299.45,M,-33.324,M,,*73
2018-01-12 20:10:29 1515805829.169250: $GPRMC,011030,A,3946.9572,N,08404.9600,W,0.2422,273.794,130118,,*3A
2018-01-12 20:10:29 1515805829.169311: $GPGSA,A,3,8,9,11,23,27,7,30,16,,,,,4.8,1.4,4.6*0F
2018-01-12 20:10:30 1515805830.169145: $GPZDA,011031.00,13,01,2018,00,00*6C
2018-01-12 20:10:30 1515805830.169319: $GPGGA,011031,3946.9568,N,08404.9601,W,1,08,1.40,300.21,M,-33.324,M,,*7B
2018-01-12 20:10:30 1515805830.169386: $GPRMC,011031,A,3946.9568,N,08404.9601,W,1.0298,254.381,130118,,*30
2018-01-12 20:10:30 1515805830.169448: $GPGSA,A,3,8,9,11,23,27,7,30,16,,,,,4.8,1.4,4.6*0F
2018-01-12 20:10:31 1515805831.520413: $GPGSV,3,1,10,08,74,126,29,09,46,228,22,11,21,166,20,23,27,189,21*7B
2018-01-12 20:10:31 1515805831.520598: $GPGSV,3,2,10,27,46,052,26,07,57,315,20,30,30,306,05,16,22,061,14*78
2018-01-12 20:10:31 1515805831.520665: $GPGSV,3,3,10,28,15,259,00,138,38,213,00*49
2018-01-12 20:10:31 1515805831.634016: $GPZDA,011032.00,13,01,2018,00,00*6F
2018-01-12 20:10:31 1515805831.634189: $GPGGA,011032,3946.9573,N,08404.9608,W,1,07,1.40,300.77,M,-33.324,M,,*77
2018-01-12 20:10:31 1515805831.634255: $GPRMC,011032,A,3946.9573,N,08404.9608,W,1.2375,282.453,130118,,*33
2018-01-12 20:10:31 1515805831.634371: $GPGSA,A,3,8,9,11,23,27,7,16,,,,,,4.8,1.4,4.6*0C
2018-01-12 20:10:32 1515805832.185470: $GPZDA,011033.00,13,01,2018,00,00*6E
2018-01-12 20:10:32 1515805832.185635: $GPGGA,011033,3946.9573,N,08404.9608,W,1,07,1.40,300.77,M,-33.324,M,,*76
2018-01-12 20:10:32 1515805832.185701: $GPRMC,011033,A,3946.9573,N,08404.9608,W,0.9988,284.546,130118,,*33
2018-01-12 20:10:32 1515805832.185763: $GPGSA,A,3,8,9,11,23,27,7,16,,,,,,4.8,1.4,4.6*0C
2018-01-12 20:10:33 1515805833.185613: $GPZDA,011034.00,13,01,2018,00,00*69
2018-01-12 20:10:33 1515805833.185784: $GPGGA,011034,3946.9573,N,08404.9615,W,1,07,1.40,300.69,M,-33.324,M,,*72
2018-01-12 20:10:33 1515805833.185851: $GPRMC,011034,A,3946.9573,N,08404.9615,W,0.9959,264.784,130118,,*36
2018-01-12 20:10:33 1515805833.185913: $GPGSA,A,3,8,9,11,23,27,7,16,,,,,,4.8,1.4,4.6*0C
2018-01-12 20:10:34 1515805834.521064: $GPGSV,3,1,10,08,74,126,28,09,46,228,22,11,21,166,19,23,27,189,20*71
2018-01-12 20:10:34 1515805834.521220: $GPGSV,3,2,10,27,46,052,25,07,57,315,20,30,30,306,04,16,22,061,13*7D
2018-01-12 20:10:34 1515805834.521285: $GPGSV,3,3,10,28,15,259,00,120,07,103,00*4E
2018-01-12 20:10:34 1515805834.634696: $GPZDA,011035.00,13,01,2018,00,00*68
2018-01-12 20:10:34 1515805834.634868: $GPGGA,011035,3946.9574,N,08404.9622,W,1,07,1.40,300.61,M,-33.324,M,,*78
2018-01-12 20:10:34 1515805834.634935: $GPRMC,011035,A,3946.9574,N,08404.9622,W,1.6108,248.645,130118,,*34
2018-01-12 20:10:34 1515805834.634997: $GPGSA,A,3,8,9,11,23,27,7,16,,,,,,4.8,1.4,4.6*0C
2018-01-12 20:10:35 1515805835.185755: $GPZDA,011036.00,13,01,2018,00,00*6B
2018-01-12 20:10:35 1515805835.185928: $GPGGA,011036,3946.9566,N,08404.9623,W,1,07,1.40,300.74,M,-33.324,M,,*7D
2018-01-12 20:10:35 1515805835.185995: $GPRMC,011036,A,3946.9566,N,08404.9623,W,1.3954,244.414,130118,,*3B
2018-01-12 20:10:35 1515805835.186057: $GPGSA,A,3,8,9,11,23,27,7,16,,,,,,4.8,1.4,4.6*0C
2018-01-12 20:10:36 1515805836.185890: $GPZDA,011037.00,13,01,2018,00,00*6A
2018-01-12 20:10:36 1515805836.186090: $GPGGA,011037,3946.9566,N,08404.9623,W,1,07,1.40,300.74,M,-33.324,M,,*7C
2018-01-12 20:10:36 1515805836.186162: $GPRMC,011037,A,3946.9566,N,08404.9623,W,0.8054,248.645,130118,,*33
2018-01-12 20:10:36 1515805836.186244: $GPGSA,A,3,8,9,11,23,27,7,16,,,,,,4.8,1.4,4.6*0C
2018-01-12 20:10:37 1515805837.505922: $GPGSV,3,1,10,08,74,126,28,09,46,228,22,11,21,166,19,23,27,189,20*71
2018-01-12 20:10:37 1515805837.506106: $GPGSV,3,2,10,27,46,052,25,07,57,315,20,30,30,306,04,16,22,061,08*77
2018-01-12 20:10:37 1515805837.506175: $GPGSV,3,3,10,28,15,259,14,120,07,103,00*4B
2018-01-12 20:10:37 1515805837.619540: $GPZDA,011038.00,13,01,2018,00,00*65
2018-01-12 20:10:37 1515805837.619715: $GPGGA,011038,3946.9566,N,08404.9630,W,1,07,1.40,300.66,M,-33.324,M,,*72
2018-01-12 20:10:37 1515805837.619785: $GPRMC,011038,A,3946.9566,N,08404.9630,W,0.7278,203.636,130118,,*36
2018-01-12 20:10:37 1515805837.619850: $GPGSA,A,3,8,9,11,23,27,7,16,,,,,,4.8,1.4,4.6*0C
2018-01-12 20:10:38 1515805838.183468: $GPZDA,011039.00,13,01,2018,00,00*64
2018-01-12 20:10:38 1515805838.183632: $GPGGA,011039,3946.9566,N,08404.9630,W,1,07,1.60,300.66,M,-33.324,M,,*71
2018-01-12 20:10:38 1515805838.183702: $GPRMC,011039,A,3946.9566,N,08404.9630,W,0.5230,256.443,130118,,*39
2018-01-12 20:10:38 1515805838.183767: $GPGSA,A,3,8,9,11,23,27,7,16,,,,,,4.8,1.6,4.6*0E
2018-01-12 20:10:39 1515805839.184373: $GPZDA,011040.00,13,01,2018,00,00*6A
2018-01-12 20:10:39 1515805839.184549: $GPGGA,011040,3946.9566,N,08404.9630,W,1,07,1.60,300.66,M,-33.324,M,,*7F
2018-01-12 20:10:39 1515805839.184618: $GPRMC,011040,A,3946.9566,N,08404.9630,W,0.7576,261.914,130118,,*3B
2018-01-12 20:10:39 1515805839.184682: $GPGSA,A,3,8,9,11,23,27,7,16,,,,,,4.8,1.6,4.6*0E
2018-01-12 20:10:40 1515805840.520230: $GPGSV,3,1,10,08,74,126,28,09,46,228,22,11,21,166,19,23,27,189,19*7B
2018-01-12 20:10:40 1515805840.520419: $GPGSV,3,2,10,27,46,052,25,07,57,315,20,30,30,306,07,16,22,061,08*74
2018-01-12 20:10:40 1515805840.520503: $GPGSV,3,3,10,28,15,259,00,120,07,103,00*4E
2018-01-12 20:10:40 1515805840.633745: $GPZDA,011041.00,13,01,2018,00,00*6B
2018-01-12 20:10:40 1515805840.633919: $GPGGA,011041,3946.9566,N,08404.9630,W,1,08,1.60,300.66,M,-33.324,M,,*71
2018-01-12 20:10:40 1515805840.633986: $GPRMC,011041,A,3946.9566,N,08404.9630,W,0.2422,93.794,130118,,*06
2018-01-12 20:10:40 1515805840.634047: $GPGSA,A,3,8,9,11,23,27,7,30,16,,,,,4.8,1.6,4.6*0D
2018-01-12 20:10:41 1515805841.185446: $GPZDA,011042.00,13,01,2018,00,00*68
2018-01-12 20:10:41 1515805841.185615: $GPGGA,011042,3946.9566,N,08404.9623,W,1,08,1.60,300.74,M,-33.324,M,,*73
2018-01-12 20:10:41 1515805841.185682: $GPRMC,011042,A,3946.9566,N,08404.9623,W,0.2422,93.794,130118,,*07
2018-01-12 20:10:41 1515805841.185743: $GPGSA,A,3,8,9,11,23,27,7,30,16,,,,,4.8,1.6,4.6*0D
2018-01-12 20:10:42 1515805842.185620: $GPZDA,011043.00,13,01,2018,00,00*69
2018-01-12 20:10:42 1515805842.185793: $GPGGA,011043,3946.9566,N,08404.9630,W,1,08,1.60,300.66,M,-33.324,M,,*73
2018-01-12 20:10:42 1515805842.185860: $GPRMC,011043,A,3946.9566,N,08404.9630,W,0.5306,294.352,130118,,*39
2018-01-12 20:10:42 1515805842.185922: $GPGSA,A,3,8,9,11,23,27,7,30,16,,,,,4.8,1.6,4.6*0D
2018-01-12 20:10:43 1515805843.522567: $GPGSV,3,1,10,08,74,126,27,09,46,228,22,11,21,166,19,23,27,189,19*74
2018-01-12 20:10:43 1515805843.522748: $GPGSV,3,2,10,27,46,052,24,07,57,315,19,30,30,306,08,16,22,061,08*70
2018-01-12 20:10:43 1515805843.522815: $GPGSV,3,3,10,28,15,259,00,120,07,103,00*4E
2018-01-12 20:10:43 1515805843.635983: $GPZDA,011044.00,13,01,2018,00,00*6E
2018-01-12 20:10:43 1515805843.636157: $GPGGA,011044,3946.9566,N,08404.9630,W,1,08,1.60,300.66,M,-33.324,M,,*74
2018-01-12 20:10:43 1515805843.636224: $GPRMC,011044,A,3946.9566,N,08404.9630,W,0.9988,284.546,130118,,*3C
2018-01-12 20:10:43 1515805843.636306: $GPGSA,A,3,8,9,11,23,27,7,30,16,,,,,4.8,1.6,4.6*0D
2018-01-12 20:10:44 1515805844.169382: $GPZDA,011045.00,13,01,2018,00,00*6F
2018-01-12 20:10:44 1515805844.169598: $GPGGA,011045,3946.9566,N,08404.9630,W,1,08,1.60,300.66,M,-33.324,M,,*75
2018-01-12 20:10:44 1515805844.169667: $GPRMC,011045,A,3946.9566,N,08404.9630,W,0.7621,287.945,130118,,*33
2018-01-12 20:10:44 1515805844.169729: $GPGSA,A,3,8,9,11,23,27,7,30,16,,,,,4.8,1.6,4.6*0D
