2017-11-16 14:48:41 1510861721.026887: {"class":"VERSION","release":"3.17","rev":"3.17","proto_major":3,"proto_minor":12}
2017-11-16 14:48:41 1510861721.027401: {"class":"DEVICES","devices":[{"class":"DEVICE","path":"/dev/ttyUSB0","driver":"SiRF","subtype":"9\u0006GSD4e_4.1.2-P1_RPATCH.05-F-GPS-4R-1510281 11/03/2015 307","activated":"2017-11-16T19:48:40.632Z","flags":1,"native":1,"bps":4800,"parity":"N","stopbits":1,"cycle":1.00}]}
2017-11-16 14:48:41 1510861721.027512: {"class":"WATCH","enable":true,"json":false,"nmea":true,"raw":0,"scaled":false,"timing":false,"split24":false,"pps":false}
2017-11-16 14:48:41 1510861721.528054: $GPZDA,194840.00,16,11,2017,00,00*65
2017-11-16 14:48:41 1510861721.528216: $GPGGA,194840,3946.9568,N,08404.9842,W,2,11,0.80,303.38,M,-33.324,M,,*7D
2017-11-16 14:48:41 1510861721.528277: $GPRMC,194840,A,3946.9568,N,08404.9842,W,0.0000,0.000,161117,,*3B
2017-11-16 14:48:41 1510861721.528333: $GPGSA,A,3,8,10,15,18,21,20,24,27,32,14,138,,1.6,0.8,1.3*37
2017-11-16 14:48:42 1510861722.866067: $GPGSV,3,1,11,08,08,307,33,10,55,313,49,15,24,058,50,18,77,033,44*71
2017-11-16 14:48:42 1510861722.866234: $GPGSV,3,2,11,21,46,183,47,20,21,108,44,24,53,081,49,27,14,273,43*7D
2017-11-16 14:48:42 1510861722.866294: $GPGSV,3,3,11,32,33,250,46,14,17,241,43,138,38,213,44*7F
2017-11-16 14:48:42 1510861722.979359: $GPZDA,194841.00,16,11,2017,00,00*64
2017-11-16 14:48:42 1510861722.979525: $GPGGA,194841,3946.9568,N,08404.9842,W,2,11,0.80,303.38,M,-33.324,M,,*7C
2017-11-16 14:48:42 1510861722.979588: $GPRMC,194841,A,3946.9568,N,08404.9842,W,0.0000,0.000,161117,,*3A
2017-11-16 14:48:42 1510861722.979644: $GPGSA,A,3,8,10,15,18,21,20,24,27,32,14,138,,1.6,0.8,1.3*37
2017-11-16 14:48:43 1510861723.527826: $GPZDA,194842.00,16,11,2017,00,00*67
2017-11-16 14:48:43 1510861723.527988: $GPGGA,194842,3946.9568,N,08404.9842,W,2,11,0.80,303.38,M,-33.324,M,,*7F
2017-11-16 14:48:43 1510861723.528049: $GPRMC,194842,A,3946.9568,N,08404.9842,W,0.0000,0.000,161117,,*39
2017-11-16 14:48:43 1510861723.528105: $GPGSA,A,3,8,10,15,18,21,20,24,27,32,14,138,,1.6,0.8,1.3*37
2017-11-16 14:48:44 1510861724.490651: $GPZDA,194843.00,16,11,2017,00,00*66
2017-11-16 14:48:44 1510861724.490820: $GPGGA,194843,3946.9568,N,08404.9842,W,2,11,0.80,303.38,M,-33.324,M,,*7E
2017-11-16 14:48:44 1510861724.490881: $GPRMC,194843,A,3946.9568,N,08404.9842,W,0.0000,0.000,161117,,*38
2017-11-16 14:48:44 1510861724.490936: $GPGSA,A,3,8,10,15,18,21,20,24,27,32,14,138,,1.6,0.8,1.3*37
2017-11-16 14:48:45 1510861725.826357: $GPGSV,3,1,11,08,08,307,34,10,55,313,49,15,24,058,50,18,77,033,44*76
2017-11-16 14:48:45 1510861725.826529: $GPGSV,3,2,11,21,46,183,48,20,21,108,44,24,53,081,49,27,14,273,43*72
2017-11-16 14:48:45 1510861725.826590: $GPGSV,3,3,11,32,33,250,47,14,17,241,43,138,38,213,43*79
2017-11-16 14:48:45 1510861725.939673: $GPZDA,194844.00,16,11,2017,00,00*61
2017-11-16 14:48:45 1510861725.939834: $GPGGA,194844,3946.9568,N,08404.9842,W,2,11,0.80,303.38,M,-33.324,M,,*79
2017-11-16 14:48:45 1510861725.939894: $GPRMC,194844,A,3946.9568,N,08404.9842,W,0.0000,0.000,161117,,*3F
2017-11-16 14:48:45 1510861725.939949: $GPGSA,A,3,8,10,15,18,21,20,24,27,32,14,138,,1.6,0.8,1.3*37
2017-11-16 14:48:46 1510861726.490721: $GPZDA,194845.00,16,11,2017,00,00*60
2017-11-16 14:48:46 1510861726.490895: $GPGGA,194845,3946.9568,N,08404.9842,W,2,11,0.80,303.38,M,-33.324,M,,*78
2017-11-16 14:48:46 1510861726.490957: $GPRMC,194845,A,3946.9568,N,08404.9842,W,0.0000,0.000,161117,,*3E
2017-11-16 14:48:46 1510861726.491012: $GPGSA,A,3,8,10,15,18,21,20,24,27,32,14,138,,1.6,0.8,1.3*37
2017-11-16 14:48:47 1510861727.490232: $GPZDA,194846.00,16,11,2017,00,00*63
2017-11-16 14:48:47 1510861727.490428: $GPGGA,194846,3946.9568,N,08404.9842,W,2,11,0.80,303.38,M,-33.324,M,,*7B
2017-11-16 14:48:47 1510861727.490491: $GPRMC,194846,A,3946.9568,N,08404.9842,W,0.0000,0.000,161117,,*3D
2017-11-16 14:48:47 1510861727.490547: $GPGSA,A,3,8,10,15,18,21,20,24,27,32,14,138,,1.6,0.8,1.3*37
2017-11-16 14:48:48 1510861728.827359: $GPGSV,3,1,11,08,08,307,34,10,55,313,49,15,24,058,50,18,77,033,44*76
2017-11-16 14:48:48 1510861728.827617: $GPGSV,3,2,11,21,46,183,47,20,21,108,43,24,53,081,49,27,14,273,43*7A
2017-11-16 14:48:48 1510861728.827688: $GPGSV,3,3,11,32,33,250,47,14,17,241,43,138,38,213,44*7E
2017-11-16 14:48:48 1510861728.940915: $GPZDA,194847.00,16,11,2017,00,00*62
2017-11-16 14:48:48 1510861728.941097: $GPGGA,194847,3946.9568,N,08404.9842,W,2,11,0.80,303.38,M,-33.324,M,,*7A
2017-11-16 14:48:48 1510861728.941161: $GPRMC,194847,A,3946.9568,N,08404.9842,W,0.0000,0.000,161117,,*3C
2017-11-16 14:48:48 1510861728.941217: $GPGSA,A,3,8,10,15,18,21,20,24,27,32,14,138,,1.6,0.8,1.3*37
2017-11-16 14:48:49 1510861729.567385: $GPZDA,194848.00,16,11,2017,00,00*6D
2017-11-16 14:48:49 1510861729.567550: $GPGGA,194848,3946.9568,N,08404.9842,W,2,11,0.80,303.38,M,-33.324,M,,*75
2017-11-16 14:48:49 1510861729.567612: $GPRMC,194848,A,3946.9568,N,08404.9842,W,0.0000,0.000,161117,,*33
2017-11-16 14:48:49 1510861729.567668: $GPGSA,A,3,8,10,15,18,21,20,24,27,32,14,138,,1.6,0.8,1.3*37
2017-11-16 14:48:50 1510861730.522122: $GPZDA,194849.00,16,11,2017,00,00*6C
2017-11-16 14:48:50 1510861730.522283: $GPGGA,194849,3946.9568,N,08404.9842,W,2,11,0.80,303.38,M,-33.324,M,,*74
2017-11-16 14:48:50 1510861730.522345: $GPRMC,194849,A,3946.9568,N,08404.9842,W,0.0000,0.000,161117,,*32
2017-11-16 14:48:50 1510861730.522401: $GPGSA,A,3,8,10,15,18,21,20,24,27,32,14,138,,1.6,0.8,1.3*37
