2017-11-16 16:43:53 1510868633.521155: {"class":"VERSION","release":"3.17","rev":"3.17","proto_major":3,"proto_minor":12}
2017-11-16 16:43:53 1510868633.521574: {"class":"DEVICES","devices":[{"class":"DEVICE","path":"/dev/ttyUSB0","driver":"SiRF","subtype":"9\u0006GSD4e_4.1.2-P1_RPATCH.05-F-GPS-4R-1510281 11/03/2015 307","activated":"2017-11-16T21:43:53.327Z","flags":1,"native":1,"bps":4800,"parity":"N","stopbits":1,"cycle":1.00}]}
2017-11-16 16:43:53 1510868633.521684: {"class":"WATCH","enable":true,"json":false,"nmea":true,"raw":0,"scaled":false,"timing":false,"split24":false,"pps":false}
2017-11-16 16:43:53 1510868633.776554: $GPGSV,3,1,12,01,13,319,42,10,71,129,49,11,11,303,40,12,25,073,47*71
2017-11-16 16:43:53 1510868633.776747: $GPGSV,3,2,12,14,54,289,44,18,39,135,46,24,15,045,49,25,29,115,43*7A
2017-11-16 16:43:53 1510868633.776808: $GPGSV,3,3,12,31,33,211,45,32,67,324,51,22,01,310,28,138,38,213,45*43
2017-11-16 16:43:53 1510868633.890105: $GPZDA,214352.00,16,11,2017,00,00*66
2017-11-16 16:43:53 1510868633.890280: $GPGGA,214352,3946.9580,N,08404.9815,W,2,12,0.80,307.02,M,-33.324,M,,*74
2017-11-16 16:43:53 1510868633.890342: $GPRMC,214352,A,3946.9580,N,08404.9815,W,0.0000,0.000,161117,,*3C
2017-11-16 16:43:53 1510868633.890397: $GPGSA,A,3,1,10,11,12,14,18,24,25,31,32,22,138,1.6,0.8,1.3*38
2017-11-16 16:43:54 1510868634.442307: $GPZDA,214353.00,16,11,2017,00,00*67
2017-11-16 16:43:54 1510868634.442495: $GPGGA,214353,3946.9580,N,08404.9815,W,2,12,0.80,307.02,M,-33.324,M,,*75
2017-11-16 16:43:54 1510868634.442575: $GPRMC,214353,A,3946.9580,N,08404.9815,W,0.0000,0.000,161117,,*3D
2017-11-16 16:43:54 1510868634.442634: $GPGSA,A,3,1,10,11,12,14,18,24,25,31,32,22,138,1.6,0.8,1.3*38
2017-11-16 16:43:55 1510868635.441973: $GPZDA,214354.00,16,11,2017,00,00*60
2017-11-16 16:43:55 1510868635.442132: $GPGGA,214354,3946.9580,N,08404.9815,W,2,12,0.80,307.02,M,-33.324,M,,*72
2017-11-16 16:43:55 1510868635.442192: $GPRMC,214354,A,3946.9580,N,08404.9815,W,0.0000,0.000,161117,,*3A
2017-11-16 16:43:55 1510868635.442248: $GPGSA,A,3,1,10,11,12,14,18,24,25,31,32,22,138,1.6,0.8,1.3*38
2017-11-16 16:43:56 1510868636.777044: $GPGSV,3,1,12,01,13,319,41,10,71,129,49,11,11,303,40,12,25,073,48*7D
2017-11-16 16:43:56 1510868636.777217: $GPGSV,3,2,12,14,54,289,44,18,39,135,46,24,15,045,49,25,29,115,43*7A
2017-11-16 16:43:56 1510868636.777276: $GPGSV,3,3,12,31,33,211,45,32,67,324,51,22,01,310,28,138,38,213,45*43
2017-11-16 16:43:56 1510868636.890550: $GPZDA,214355.00,16,11,2017,00,00*61
2017-11-16 16:43:56 1510868636.890706: $GPGGA,214355,3946.9580,N,08404.9815,W,2,12,0.80,307.02,M,-33.324,M,,*73
2017-11-16 16:43:56 1510868636.890766: $GPRMC,214355,A,3946.9580,N,08404.9815,W,0.0000,0.000,161117,,*3B
2017-11-16 16:43:56 1510868636.890822: $GPGSA,A,3,1,10,11,12,14,18,24,25,31,32,22,138,1.6,0.8,1.3*38
2017-11-16 16:43:57 1510868637.435253: $GPZDA,214356.00,16,11,2017,00,00*62
2017-11-16 16:43:57 1510868637.435408: $GPGGA,214356,3946.9580,N,08404.9815,W,2,12,0.80,307.02,M,-33.324,M,,*70
2017-11-16 16:43:57 1510868637.435469: $GPRMC,214356,A,3946.9580,N,08404.9815,W,0.0000,0.000,161117,,*38
2017-11-16 16:43:57 1510868637.435525: $GPGSA,A,3,1,10,11,12,14,18,24,25,31,32,22,138,1.6,0.8,1.3*38
2017-11-16 16:43:58 1510868638.441055: $GPZDA,214357.00,16,11,2017,00,00*63
2017-11-16 16:43:58 1510868638.441217: $GPGGA,214357,3946.9580,N,08404.9815,W,2,12,0.80,307.02,M,-33.324,M,,*71
2017-11-16 16:43:58 1510868638.441278: $GPRMC,214357,A,3946.9580,N,08404.9815,W,0.0000,0.000,161117,,*39
2017-11-16 16:43:58 1510868638.441334: $GPGSA,A,3,1,10,11,12,14,18,24,25,31,32,22,138,1.6,0.8,1.3*38
2017-11-16 16:43:59 1510868639.777872: $GPGSV,3,1,12,01,13,319,40,10,71,129,49,11,11,303,40,12,25,073,48*7C
2017-11-16 16:43:59 1510868639.778043: $GPGSV,3,2,12,14,54,289,44,18,39,135,46,24,15,045,49,25,29,115,43*7A
2017-11-16 16:43:59 1510868639.778104: $GPGSV,3,3,12,31,33,211,45,32,67,324,51,22,01,310,28,138,38,213,44*42
2017-11-16 16:43:59 1510868639.891428: $GPZDA,214358.00,16,11,2017,00,00*6C
2017-11-16 16:43:59 1510868639.891587: $GPGGA,214358,3946.9580,N,08404.9815,W,2,12,0.80,307.02,M,-33.324,M,,*7E
2017-11-16 16:43:59 1510868639.891701: $GPRMC,214358,A,3946.9580,N,08404.9815,W,0.0000,0.000,161117,,*36
2017-11-16 16:43:59 1510868639.891758: $GPGSA,A,3,1,10,11,12,14,18,24,25,31,32,22,138,1.6,0.8,1.3*38
2017-11-16 16:44:00 1510868640.443356: $GPZDA,214359.00,16,11,2017,00,00*6D
2017-11-16 16:44:00 1510868640.443518: $GPGGA,214359,3946.9580,N,08404.9815,W,2,12,0.80,307.02,M,-33.324,M,,*7F
2017-11-16 16:44:00 1510868640.443579: $GPRMC,214359,A,3946.9580,N,08404.9815,W,0.0000,0.000,161117,,*37
2017-11-16 16:44:00 1510868640.443635: $GPGSA,A,3,1,10,11,12,14,18,24,25,31,32,22,138,1.6,0.8,1.3*38
2017-11-16 16:44:01 1510868641.440237: $GPZDA,214400.00,16,11,2017,00,00*66
2017-11-16 16:44:01 1510868641.440399: $GPGGA,214400,3946.9580,N,08404.9815,W,2,12,0.80,307.02,M,-33.324,M,,*74
2017-11-16 16:44:01 1510868641.440461: $GPRMC,214400,A,3946.9580,N,08404.9815,W,0.0000,0.000,161117,,*3C
2017-11-16 16:44:01 1510868641.440518: $GPGSA,A,3,1,10,11,12,14,18,24,25,31,32,22,138,1.6,0.8,1.3*38
2017-11-16 16:44:02 1510868642.770774: $GPGSV,3,1,12,01,13,319,40,10,71,129,49,11,11,303,39,12,25,073,47*7D
2017-11-16 16:44:02 1510868642.770944: $GPGSV,3,2,12,14,54,289,44,18,39,135,46,24,15,045,49,25,29,115,43*7A
2017-11-16 16:44:02 1510868642.771004: $GPGSV,3,3,12,31,33,211,45,32,67,324,51,22,01,310,31,138,38,213,45*4B
2017-11-16 16:44:02 1510868642.884063: $GPZDA,214401.00,16,11,2017,00,00*67
2017-11-16 16:44:02 1510868642.884206: $GPGGA,214401,3946.9580,N,08404.9815,W,2,12,0.80,307.02,M,-33.324,M,,*75
2017-11-16 16:44:02 1510868642.884266: $GPRMC,214401,A,3946.9580,N,08404.9815,W,0.0000,0.000,161117,,*3D
2017-11-16 16:44:02 1510868642.884322: $GPGSA,A,3,1,10,11,12,14,18,24,25,31,32,22,138,1.6,0.8,1.3*38
2017-11-16 16:44:03 1510868643.441631: $GPZDA,214402.00,16,11,2017,00,00*64
2017-11-16 16:44:03 1510868643.441796: $GPGGA,214402,3946.9580,N,08404.9815,W,2,12,0.80,307.02,M,-33.324,M,,*76
2017-11-16 16:44:03 1510868643.441858: $GPRMC,214402,A,3946.9580,N,08404.9815,W,0.0000,0.000,161117,,*3E
2017-11-16 16:44:03 1510868643.441913: $GPGSA,A,3,1,10,11,12,14,18,24,25,31,32,22,138,1.6,0.8,1.3*38
