2017-11-16 17:36:39 1510871799.244939: {"class":"VERSION","release":"3.17","rev":"3.17","proto_major":3,"proto_minor":12}
2017-11-16 17:36:39 1510871799.245606: {"class":"DEVICES","devices":[{"class":"DEVICE","path":"/dev/ttyUSB0","driver":"SiRF","subtype":"9\u0006GSD4e_4.1.2-P1_RPATCH.05-F-GPS-4R-1510281 11/03/2015 307","activated":"2017-11-16T22:36:39.219Z","flags":1,"native":1,"bps":4800,"parity":"N","stopbits":1,"cycle":1.00}]}
2017-11-16 17:36:39 1510871799.245739: {"class":"WATCH","enable":true,"json":false,"nmea":true,"raw":0,"scaled":false,"timing":false,"split24":false,"pps":false}
2017-11-16 17:36:39 1510871799.732375: $GPGSV,3,1,12,01,22,298,35,10,46,148,45,22,21,312,40,12,21,048,49*75
2017-11-16 17:36:39 1510871799.732542: $GPGSV,3,2,12,14,67,333,46,18,16,145,40,26,04,183,26,11,08,280,40*7C
2017-11-16 17:36:39 1510871799.732602: $GPGSV,3,3,12,25,40,087,49,31,58,228,48,32,68,033,50,138,38,213,44*4B
2017-11-16 17:36:39 1510871799.845731: $GPZDA,223638.00,16,11,2017,00,00*6B
2017-11-16 17:36:39 1510871799.845890: $GPGGA,223638,3946.9575,N,08404.9834,W,2,12,0.80,303.34,M,-33.324,M,,*71
2017-11-16 17:36:39 1510871799.845950: $GPRMC,223638,A,3946.9575,N,08404.9834,W,0.0000,0.000,161117,,*38
2017-11-16 17:36:39 1510871799.846006: $GPGSA,A,3,1,10,22,12,14,18,26,11,25,31,32,138,1.6,0.8,1.3*3A
2017-11-16 17:36:40 1510871800.397008: $GPZDA,223639.00,16,11,2017,00,00*6A
2017-11-16 17:36:40 1510871800.397183: $GPGGA,223639,3946.9575,N,08404.9834,W,2,12,0.80,303.34,M,-33.324,M,,*70
2017-11-16 17:36:40 1510871800.397244: $GPRMC,223639,A,3946.9575,N,08404.9834,W,0.0000,0.000,161117,,*39
2017-11-16 17:36:40 1510871800.397300: $GPGSA,A,3,1,10,22,12,14,18,26,11,25,31,32,138,1.6,0.8,1.3*3A
2017-11-16 17:36:41 1510871801.396912: $GPZDA,223640.00,16,11,2017,00,00*64
2017-11-16 17:36:41 1510871801.397094: $GPGGA,223640,3946.9575,N,08404.9834,W,2,12,0.80,303.34,M,-33.324,M,,*7E
2017-11-16 17:36:41 1510871801.397157: $GPRMC,223640,A,3946.9575,N,08404.9834,W,0.0000,0.000,161117,,*37
2017-11-16 17:36:41 1510871801.397213: $GPGSA,A,3,1,10,22,12,14,18,26,11,25,31,32,138,1.6,0.8,1.3*3A
2017-11-16 17:36:42 1510871802.732715: $GPGSV,3,1,12,01,22,298,36,10,46,148,45,22,21,312,41,12,21,048,49*77
2017-11-16 17:36:42 1510871802.732893: $GPGSV,3,2,12,14,67,333,46,18,16,145,40,26,04,183,26,11,08,280,39*72
2017-11-16 17:36:42 1510871802.732953: $GPGSV,3,3,12,25,40,087,49,31,58,228,48,32,68,033,50,138,38,213,44*4B
2017-11-16 17:36:42 1510871802.846005: $GPZDA,223641.00,16,11,2017,00,00*65
2017-11-16 17:36:42 1510871802.846165: $GPGGA,223641,3946.9575,N,08404.9834,W,2,12,0.80,303.34,M,-33.324,M,,*7F
2017-11-16 17:36:42 1510871802.846225: $GPRMC,223641,A,3946.9575,N,08404.9834,W,0.0000,0.000,161117,,*36
2017-11-16 17:36:42 1510871802.846281: $GPGSA,A,3,1,10,22,12,14,18,26,11,25,31,32,138,1.6,0.8,1.3*3A
2017-11-16 17:36:43 1510871803.397197: $GPZDA,223642.00,16,11,2017,00,00*66
2017-11-16 17:36:43 1510871803.397358: $GPGGA,223642,3946.9575,N,08404.9834,W,2,12,0.80,303.34,M,-33.324,M,,*7C
2017-11-16 17:36:43 1510871803.397419: $GPRMC,223642,A,3946.9575,N,08404.9834,W,0.0000,0.000,161117,,*35
2017-11-16 17:36:43 1510871803.397475: $GPGSA,A,3,1,10,22,12,14,18,26,11,25,31,32,138,1.6,0.8,1.3*3A
2017-11-16 17:36:44 1510871804.396835: $GPZDA,223643.00,16,11,2017,00,00*67
2017-11-16 17:36:44 1510871804.397012: $GPGGA,223643,3946.9575,N,08404.9834,W,2,12,0.80,303.34,M,-33.324,M,,*7D
2017-11-16 17:36:44 1510871804.397072: $GPRMC,223643,A,3946.9575,N,08404.9834,W,0.0000,0.000,161117,,*34
2017-11-16 17:36:44 1510871804.397128: $GPGSA,A,3,1,10,22,12,14,18,26,11,25,31,32,138,1.6,0.8,1.3*3A
2017-11-16 17:36:45 1510871805.748421: $GPGSV,3,1,12,01,22,298,36,10,46,148,46,22,21,312,41,12,21,048,48*75
2017-11-16 17:36:45 1510871805.748606: $GPGSV,3,2,12,14,67,333,46,18,16,145,41,26,04,183,25,11,08,280,39*70
2017-11-16 17:36:45 1510871805.748669: $GPGSV,3,3,12,25,40,087,49,31,58,228,48,32,68,033,49,138,38,213,44*43
2017-11-16 17:36:45 1510871805.860471: $GPZDA,223644.00,16,11,2017,00,00*60
2017-11-16 17:36:45 1510871805.860639: $GPGGA,223644,3946.9575,N,08404.9834,W,2,12,0.80,303.34,M,-33.324,M,,*7A
2017-11-16 17:36:45 1510871805.860791: $GPRMC,223644,A,3946.9575,N,08404.9834,W,0.0000,0.000,161117,,*33
2017-11-16 17:36:45 1510871805.860868: $GPGSA,A,3,1,10,22,12,14,18,26,11,25,31,32,138,1.6,0.8,1.3*3A
2017-11-16 17:36:46 1510871806.487139: $GPZDA,223645.00,16,11,2017,00,00*61
2017-11-16 17:36:46 1510871806.487344: $GPGGA,223645,3946.9575,N,08404.9834,W,2,12,0.80,303.34,M,-33.324,M,,*7B
2017-11-16 17:36:46 1510871806.487407: $GPRMC,223645,A,3946.9575,N,08404.9834,W,0.0000,0.000,161117,,*32
2017-11-16 17:36:46 1510871806.487464: $GPGSA,A,3,1,10,22,12,14,18,26,11,25,31,32,138,1.6,0.8,1.3*3A
2017-11-16 17:36:47 1510871807.400488: $GPZDA,223646.00,16,11,2017,00,00*62
2017-11-16 17:36:47 1510871807.400705: $GPGGA,223646,3946.9575,N,08404.9834,W,2,12,0.80,303.34,M,-33.324,M,,*78
2017-11-16 17:36:47 1510871807.400771: $GPRMC,223646,A,3946.9575,N,08404.9834,W,0.0000,0.000,161117,,*31
2017-11-16 17:36:47 1510871807.400846: $GPGSA,A,3,1,10,22,12,14,18,26,11,25,31,32,138,1.6,0.8,1.3*3A
2017-11-16 17:36:48 1510871808.732523: $GPGSV,3,1,12,01,22,298,36,10,46,148,45,22,21,312,41,12,21,048,49*77
2017-11-16 17:36:48 1510871808.732695: $GPGSV,3,2,12,14,67,333,46,18,16,145,41,26,04,183,25,11,08,280,38*71
2017-11-16 17:36:48 1510871808.732755: $GPGSV,3,3,12,25,40,087,48,31,58,228,48,32,68,033,49,138,38,213,44*42
2017-11-16 17:36:48 1510871808.845939: $GPZDA,223647.00,16,11,2017,00,00*63
2017-11-16 17:36:48 1510871808.846103: $GPGGA,223647,3946.9575,N,08404.9834,W,2,12,0.80,303.34,M,-33.324,M,,*79
2017-11-16 17:36:48 1510871808.846163: $GPRMC,223647,A,3946.9575,N,08404.9834,W,0.0000,0.000,161117,,*30
2017-11-16 17:36:48 1510871808.846218: $GPGSA,A,3,1,10,22,12,14,18,26,11,25,31,32,138,1.6,0.8,1.3*3A
