2017-12-29 15:04:58 1514577898.131200: {"class":"VERSION","release":"3.16","rev":"3.16-4","proto_major":3,"proto_minor":11}
2017-12-29 15:04:58 1514577898.131766: {"class":"DEVICES","devices":[{"class":"DEVICE","path":"/dev/ttyUSB0","driver":"SiRF","subtype":"9\u0006GSD4e_4.1.2-P1_RPATCH.05-F-GPS-4R-1510281 11/03/2015 307","activated":"2017-12-29T20:04:57.465Z","flags":1,"native":1,"bps":4800,"parity":"N","stopbits":1,"cycle":1.00}]}
2017-12-29 15:04:58 1514577898.131882: {"class":"WATCH","enable":true,"json":false,"nmea":true,"raw":0,"scaled":false,"timing":false,"split24":false,"pps":false}
2017-12-29 15:04:58 1514577898.662297: $GPGSV,3,1,11,01,22,288,36,03,12,316,40,10,34,153,50,18,05,147,21*74
2017-12-29 15:04:58 1514577898.662477: $GPGSV,3,2,11,12,15,039,43,22,30,309,41,25,40,073,49,31,71,243,48*79
2017-12-29 15:04:58 1514577898.662544: $GPGSV,3,3,11,32,62,060,50,26,15,180,28,138,38,213,42*7B
2017-12-29 15:04:58 1514577898.776001: $GPZDA,200459.00,29,12,2017,00,00*60
2017-12-29 15:04:58 1514577898.776144: $GPGGA,200459,3946.9571,N,08404.9836,W,2,11,0.80,293.43,M,-33.324,M,,*78
2017-12-29 15:04:58 1514577898.776209: $GPRMC,200459,A,3946.9571,N,08404.9836,W,0.0000,0.000,291217,,*35
2017-12-29 15:04:58 1514577898.776270: $GPGSA,A,3,1,3,10,18,12,22,25,31,32,26,138,,1.7,0.8,1.3*0D
2017-12-29 15:04:59 1514577899.401399: $GPZDA,200500.00,29,12,2017,00,00*6D
2017-12-29 15:04:59 1514577899.401562: $GPGGA,200500,3946.9571,N,08404.9836,W,2,11,0.80,293.43,M,-33.324,M,,*75
2017-12-29 15:04:59 1514577899.401651: $GPRMC,200500,A,3946.9571,N,08404.9836,W,0.0000,0.000,291217,,*38
2017-12-29 15:04:59 1514577899.401713: $GPGSA,A,3,1,3,10,18,12,22,25,31,32,26,138,,1.7,0.8,1.3*0D
2017-12-29 15:05:00 1514577900.326095: $GPZDA,200501.00,29,12,2017,00,00*6C
2017-12-29 15:05:00 1514577900.326253: $GPGGA,200501,3946.9571,N,08404.9836,W,2,11,0.80,293.43,M,-33.324,M,,*74
2017-12-29 15:05:00 1514577900.326319: $GPRMC,200501,A,3946.9571,N,08404.9836,W,0.0000,0.000,291217,,*39
2017-12-29 15:05:00 1514577900.326380: $GPGSA,A,3,1,3,10,18,12,22,25,31,32,26,138,,1.7,0.8,1.3*0D
2017-12-29 15:05:01 1514577901.656393: $GPGSV,3,1,11,01,22,288,36,03,12,316,40,10,34,153,50,18,05,147,22*77
2017-12-29 15:05:01 1514577901.656546: $GPGSV,3,2,11,12,15,039,43,22,30,309,40,25,40,073,49,31,71,243,48*78
2017-12-29 15:05:01 1514577901.656633: $GPGSV,3,3,11,32,62,060,51,26,15,180,28,138,38,213,43*7B
2017-12-29 15:05:01 1514577901.770085: $GPZDA,200502.00,29,12,2017,00,00*6F
2017-12-29 15:05:01 1514577901.770220: $GPGGA,200502,3946.9571,N,08404.9836,W,2,11,0.80,293.43,M,-33.324,M,,*77
2017-12-29 15:05:01 1514577901.770286: $GPRMC,200502,A,3946.9571,N,08404.9836,W,0.0000,0.000,291217,,*3A
2017-12-29 15:05:01 1514577901.770347: $GPGSA,A,3,1,3,10,18,12,22,25,31,32,26,138,,1.7,0.8,1.3*0D
2017-12-29 15:05:02 1514577902.320979: $GPZDA,200503.00,29,12,2017,00,00*6E
2017-12-29 15:05:02 1514577902.324935: $GPGGA,200503,3946.9571,N,08404.9836,W,2,11,0.80,293.43,M,-33.324,M,,*76
2017-12-29 15:05:02 1514577902.325042: $GPRMC,200503,A,3946.9571,N,08404.9836,W,0.0000,0.000,291217,,*3B
2017-12-29 15:05:02 1514577902.325105: $GPGSA,A,3,1,3,10,18,12,22,25,31,32,26,138,,1.7,0.8,1.3*0D
2017-12-29 15:05:03 1514577903.326845: $GPZDA,200504.00,29,12,2017,00,00*69
2017-12-29 15:05:03 1514577903.327017: $GPGGA,200504,3946.9571,N,08404.9836,W,2,11,0.80,293.43,M,-33.324,M,,*71
2017-12-29 15:05:03 1514577903.327084: $GPRMC,200504,A,3946.9571,N,08404.9836,W,0.0000,0.000,291217,,*3C
2017-12-29 15:05:03 1514577903.327145: $GPGSA,A,3,1,3,10,18,12,22,25,31,32,26,138,,1.7,0.8,1.3*0D
2017-12-29 15:05:04 1514577904.660449: $GPGSV,3,1,11,01,22,288,35,03,12,316,40,10,34,153,50,18,05,147,22*74
2017-12-29 15:05:04 1514577904.660632: $GPGSV,3,2,11,12,15,039,43,22,30,309,40,25,40,073,49,31,71,243,48*78
2017-12-29 15:05:04 1514577904.660726: $GPGSV,3,3,11,32,62,060,51,26,15,180,28,138,38,213,42*7A
2017-12-29 15:05:04 1514577904.774140: $GPZDA,200505.00,29,12,2017,00,00*68
2017-12-29 15:05:04 1514577904.774271: $GPGGA,200505,3946.9571,N,08404.9836,W,2,11,0.80,293.43,M,-33.324,M,,*70
2017-12-29 15:05:04 1514577904.774389: $GPRMC,200505,A,3946.9571,N,08404.9836,W,0.0000,0.000,291217,,*3D
2017-12-29 15:05:04 1514577904.774452: $GPGSA,A,3,1,3,10,18,12,22,25,31,32,26,138,,1.7,0.8,1.3*0D
2017-12-29 15:05:05 1514577905.325041: $GPZDA,200506.00,29,12,2017,00,00*6B
2017-12-29 15:05:05 1514577905.325211: $GPGGA,200506,3946.9571,N,08404.9836,W,2,11,0.80,293.43,M,-33.324,M,,*73
2017-12-29 15:05:05 1514577905.325278: $GPRMC,200506,A,3946.9571,N,08404.9836,W,0.0000,0.000,291217,,*3E
2017-12-29 15:05:05 1514577905.325339: $GPGSA,A,3,1,3,10,18,12,22,25,31,32,26,138,,1.7,0.8,1.3*0D
2017-12-29 15:05:06 1514577906.327147: $GPZDA,200507.00,29,12,2017,00,00*6A
2017-12-29 15:05:06 1514577906.327318: $GPGGA,200507,3946.9571,N,08404.9836,W,2,11,0.80,293.43,M,-33.324,M,,*72
2017-12-29 15:05:06 1514577906.327385: $GPRMC,200507,A,3946.9571,N,08404.9836,W,0.0000,0.000,291217,,*3F
2017-12-29 15:05:06 1514577906.327447: $GPGSA,A,3,1,3,10,18,12,22,25,31,32,26,138,,1.7,0.8,1.3*0D
2017-12-29 15:05:07 1514577907.663800: $GPGSV,3,1,11,01,22,288,35,03,12,316,40,10,34,153,50,18,05,147,23*75
2017-12-29 15:05:07 1514577907.663985: $GPGSV,3,2,11,12,15,039,43,22,30,309,40,25,40,073,49,31,71,243,47*77
2017-12-29 15:05:07 1514577907.664054: $GPGSV,3,3,11,32,62,060,51,26,15,180,28,138,38,213,44*7C
2017-12-29 15:05:07 1514577907.777473: $GPZDA,200508.00,29,12,2017,00,00*65
2017-12-29 15:05:07 1514577907.777604: $GPGGA,200508,3946.9571,N,08404.9836,W,2,11,0.80,293.43,M,-33.324,M,,*7D
2017-12-29 15:05:07 1514577907.777672: $GPRMC,200508,A,3946.9571,N,08404.9836,W,0.0000,0.000,291217,,*30
2017-12-29 15:05:07 1514577907.777735: $GPGSA,A,3,1,3,10,18,12,22,25,31,32,26,138,,1.7,0.8,1.3*0D
