2018-01-11 20:02:02 1515718922.076161: {"class":"VERSION","release":"3.16","rev":"3.16-4","proto_major":3,"proto_minor":11}
2018-01-11 20:02:02 1515718922.076556: {"class":"DEVICES","devices":[{"class":"DEVICE","path":"/dev/ttyUSB0","driver":"SiRF","subtype":"9\u0006GSD4e_4.1.2-P1_RPATCH.05-F-GPS-4R-1510281 11/03/2015 307","activated":"2018-01-12T01:02:02.013Z","flags":1,"native":1,"bps":4800,"parity":"N","stopbits":1,"cycle":1.00}]}
2018-01-11 20:02:02 1515718922.076670: {"class":"WATCH","enable":true,"json":false,"nmea":true,"raw":0,"scaled":false,"timing":false,"split24":false,"pps":false}
2018-01-11 20:02:02 1515718922.191444: $GPZDA,010202.88,12,01,2018,00,00*6E
2018-01-11 20:02:02 1515718922.191608: $GPGGA,010202,3946.9597,N,08404.9760,W,1,10,0.80,325.10,M,-33.324,M,,*7F
2018-01-11 20:02:02 1515718922.191672: $GPRMC,010202,A,3946.9597,N,08404.9760,W,0.2422,273.794,120118,,*35
2018-01-11 20:02:02 1515718922.191734: $GPGSA,A,3,7,8,9,11,16,23,27,28,30,138,,,4.0,0.8,3.5*3E
2018-01-11 20:02:02 1515718922.191791: $GPGBS,010202,14.62,M,24.83,M,80.38,M*00
2018-01-11 20:02:03 1515718923.249163: $GPZDA,010203.37,12,01,2018,00,00*6B
2018-01-11 20:02:03 1515718923.249333: $GPGGA,010203,3946.9579,N,08404.9769,W,1,10,0.80,326.04,M,-33.324,M,,*71
2018-01-11 20:02:03 1515718923.249399: $GPRMC,010203,A,3946.9579,N,08404.9769,W,0.1567,189.200,120118,,*30
2018-01-11 20:02:03 1515718923.249461: $GPGSA,A,3,7,8,9,11,16,23,27,28,30,138,,,4.0,0.8,3.5*3E
2018-01-11 20:02:04 1515718924.368989: $GPGSV,3,1,11,07,52,313,41,08,71,144,46,09,50,234,43,11,17,169,42*72
2018-01-11 20:02:04 1515718924.369221: $GPGSV,3,2,11,16,26,058,46,23,33,190,44,27,50,057,51,28,11,255,38*78
2018-01-11 20:02:04 1515718924.369315: $GPGSV,3,3,11,30,26,304,36,26,01,070,03,138,38,213,25*7B
2018-01-11 20:02:04 1515718924.482607: $GPZDA,010204.00,12,01,2018,00,00*68
2018-01-11 20:02:04 1515718924.482752: $GPGGA,010204,3946.9571,N,08404.9770,W,1,10,0.80,326.16,M,-33.324,M,,*75
2018-01-11 20:02:04 1515718924.482818: $GPRMC,010204,A,3946.9571,N,08404.9770,W,0.0000,0.000,120118,,*30
2018-01-11 20:02:04 1515718924.482878: $GPGSA,A,3,7,8,9,11,16,23,27,28,30,138,,,4.0,0.8,3.5*3E
2018-01-11 20:02:04 1515718924.933452: $GPZDA,010205.00,12,01,2018,00,00*69
2018-01-11 20:02:04 1515718924.933593: $GPGGA,010205,3946.9571,N,08404.9770,W,1,10,0.80,326.16,M,-33.324,M,,*74
2018-01-11 20:02:04 1515718924.933659: $GPRMC,010205,A,3946.9571,N,08404.9770,W,0.3423,184.197,120118,,*35
2018-01-11 20:02:04 1515718924.933720: $GPGSA,A,3,7,8,9,11,16,23,27,28,30,138,,,4.0,0.8,3.5*3E
2018-01-11 20:02:05 1515718925.390640: $GPZDA,010206.00,12,01,2018,00,00*6A
2018-01-11 20:02:05 1515718925.390793: $GPGGA,010206,3946.9571,N,08404.9770,W,1,10,0.80,326.16,M,-33.324,M,,*77
2018-01-11 20:02:05 1515718925.390859: $GPRMC,010206,A,3946.9571,N,08404.9770,W,0.0000,0.000,120118,,*32
2018-01-11 20:02:05 1515718925.390920: $GPGSA,A,3,7,8,9,11,16,23,27,28,30,138,,,4.0,0.8,3.5*3E
2018-01-11 20:02:06 1515718926.724320: $GPGSV,3,1,11,07,52,313,42,08,71,144,45,09,50,234,43,11,17,169,42*72
2018-01-11 20:02:06 1515718926.724477: $GPGSV,3,2,11,16,26,058,46,23,33,190,44,27,50,057,50,28,11,255,38*79
2018-01-11 20:02:06 1515718926.724543: $GPGSV,3,3,11,30,26,304,36,26,01,070,00,138,38,213,45*7E
2018-01-11 20:02:06 1515718926.837942: $GPZDA,010207.00,12,01,2018,00,00*6B
2018-01-11 20:02:06 1515718926.838063: $GPGGA,010207,3946.9574,N,08404.9776,W,1,10,0.80,323.91,M,-33.324,M,,*7F
2018-01-11 20:02:06 1515718926.838128: $GPRMC,010207,A,3946.9574,N,08404.9776,W,0.0407,142.013,120118,,*36
2018-01-11 20:02:06 1515718926.838192: $GPGSA,A,3,7,8,9,11,16,23,27,28,30,138,,,4.0,0.8,3.5*3E
2018-01-11 20:02:07 1515718927.390148: $GPZDA,010208.00,12,01,2018,00,00*64
2018-01-11 20:02:07 1515718927.390307: $GPGGA,010208,3946.9574,N,08404.9775,W,1,10,0.80,322.51,M,-33.324,M,,*7E
2018-01-11 20:02:07 1515718927.390372: $GPRMC,010208,A,3946.9574,N,08404.9775,W,0.0000,0.000,120118,,*3C
2018-01-11 20:02:07 1515718927.390433: $GPGSA,A,3,7,8,9,11,16,23,27,28,30,138,,,4.0,0.8,3.5*3E
2018-01-11 20:02:08 1515718928.389669: $GPZDA,010209.00,12,01,2018,00,00*65
2018-01-11 20:02:08 1515718928.389875: $GPGGA,010209,3946.9577,N,08404.9780,W,1,10,0.80,320.26,M,-33.324,M,,*74
2018-01-11 20:02:08 1515718928.389942: $GPRMC,010209,A,3946.9577,N,08404.9780,W,0.0407,142.013,120118,,*32
2018-01-11 20:02:08 1515718928.390004: $GPGSA,A,3,7,8,9,11,16,23,27,28,30,138,,,4.0,0.8,3.5*3E
2018-01-11 20:02:08 1515718928.390060: $GPGBS,010209,14.62,M,24.83,M,80.38,M*0B
2018-01-11 20:02:09 1515718929.726322: $GPGSV,3,1,11,07,52,313,42,08,71,144,45,09,50,234,43,11,17,169,42*72
2018-01-11 20:02:09 1515718929.726505: $GPGSV,3,2,11,16,26,058,46,23,33,190,44,27,50,057,51,28,11,255,38*78
2018-01-11 20:02:09 1515718929.726572: $GPGSV,3,3,11,30,26,304,36,26,01,070,00,138,38,213,45*7E
2018-01-11 20:02:09 1515718929.839961: $GPZDA,010210.00,12,01,2018,00,00*6D
2018-01-11 20:02:09 1515718929.840081: $GPGGA,010210,3946.9595,N,08404.9816,W,2,10,2.40,298.91,M,-33.324,M,,*73
2018-01-11 20:02:09 1515718929.840150: $GPRMC,010210,A,3946.9595,N,08404.9816,W,0.0000,0.000,120118,,*30
2018-01-11 20:02:09 1515718929.840209: $GPGSA,A,3,7,8,9,11,16,23,27,28,30,138,,,4.0,2.4,3.5*30
2018-01-11 20:02:10 1515718930.393308: $GPZDA,010211.00,12,01,2018,00,00*6C
2018-01-11 20:02:10 1515718930.393470: $GPGGA,010211,3946.9595,N,08404.9816,W,2,10,1.40,298.91,M,-33.324,M,,*71
2018-01-11 20:02:10 1515718930.393536: $GPRMC,010211,A,3946.9595,N,08404.9816,W,0.0000,0.000,120118,,*31
2018-01-11 20:02:10 1515718930.393595: $GPGSA,A,3,7,8,9,11,16,23,27,28,30,138,,,4.0,1.4,3.5*33
2018-01-11 20:02:11 1515718931.391193: $GPZDA,010212.00,12,01,2018,00,00*6F
2018-01-11 20:02:11 1515718931.391368: $GPGGA,010212,3946.9595,N,08404.9816,W,2,10,0.80,298.91,M,-33.324,M,,*7F
2018-01-11 20:02:11 1515718931.391433: $GPRMC,010212,A,3946.9595,N,08404.9816,W,0.0000,0.000,120118,,*32
2018-01-11 20:02:11 1515718931.391494: $GPGSA,A,3,7,8,9,11,16,23,27,28,30,138,,,4.0,0.8,3.5*3E
