2017-12-01 15:49:46 1512161386.807059: {"class":"VERSION","release":"3.16","rev":"3.16-4","proto_major":3,"proto_minor":11}
2017-12-01 15:49:46 1512161386.807450: {"class":"DEVICES","devices":[{"class":"DEVICE","path":"/dev/ttyUSB0","driver":"SiRF","subtype":"9\u0006GSD4e_4.1.2-P1_RPATCH.05-F-GPS-4R-1510281 11/03/2015 307","activated":"2017-12-01T20:49:46.548Z","flags":1,"native":1,"bps":4800,"parity":"N","stopbits":1,"cycle":1.00}]}
2017-12-01 15:49:46 1512161386.807579: {"class":"WATCH","enable":true,"json":false,"nmea":true,"raw":0,"scaled":false,"timing":false,"split24":false,"pps":false}
2017-12-01 15:49:47 1512161387.743330: $GPGSV,3,1,12,01,15,316,38,10,68,133,48,12,25,069,38,14,56,294,42*7F
2017-12-01 15:49:47 1512161387.743508: $GPGSV,3,2,12,18,35,136,47,24,12,045,37,25,31,112,43,31,37,213,49*78
2017-12-01 15:49:47 1512161387.743575: $GPGSV,3,3,12,32,68,334,48,11,11,300,30,22,04,310,34,138,38,213,46*4F
2017-12-01 15:49:47 1512161387.857329: $GPZDA,204948.00,01,12,2017,00,00*63
2017-12-01 15:49:47 1512161387.857501: $GPGGA,204948,3946.9573,N,08404.9869,W,2,12,0.80,302.30,M,-33.324,M,,*77
2017-12-01 15:49:47 1512161387.857567: $GPRMC,204948,A,3946.9573,N,08404.9869,W,0.0000,0.000,011217,,*3E
2017-12-01 15:49:47 1512161387.857628: $GPGSA,A,3,1,10,12,14,18,24,25,31,32,11,22,138,2.0,0.8,1.5*3B
2017-12-01 15:49:48 1512161388.482138: $GPZDA,204949.00,01,12,2017,00,00*62
2017-12-01 15:49:48 1512161388.482310: $GPGGA,204949,3946.9573,N,08404.9869,W,2,12,0.80,302.30,M,-33.324,M,,*76
2017-12-01 15:49:48 1512161388.482376: $GPRMC,204949,A,3946.9573,N,08404.9869,W,0.0000,0.000,011217,,*3F
2017-12-01 15:49:48 1512161388.482437: $GPGSA,A,3,1,10,12,14,18,24,25,31,32,11,22,138,2.0,0.8,1.5*3B
2017-12-01 15:49:49 1512161389.408011: $GPZDA,204950.00,01,12,2017,00,00*6A
2017-12-01 15:49:49 1512161389.408194: $GPGGA,204950,3946.9573,N,08404.9869,W,2,12,0.80,302.30,M,-33.324,M,,*7E
2017-12-01 15:49:49 1512161389.408261: $GPRMC,204950,A,3946.9573,N,08404.9869,W,0.0000,0.000,011217,,*37
2017-12-01 15:49:49 1512161389.408323: $GPGSA,A,3,1,10,12,14,18,24,25,31,32,11,22,138,2.0,0.8,1.5*3B
2017-12-01 15:49:50 1512161390.737492: $GPGSV,3,1,12,01,15,316,38,10,68,133,48,12,25,069,37,14,56,294,42*70
2017-12-01 15:49:50 1512161390.737685: $GPGSV,3,2,12,18,35,136,47,24,12,045,36,25,31,112,43,31,37,213,49*79
2017-12-01 15:49:50 1512161390.737775: $GPGSV,3,3,12,32,68,334,48,11,11,300,30,22,04,310,35,138,38,213,45*4D
2017-12-01 15:49:50 1512161390.850845: $GPZDA,204951.00,01,12,2017,00,00*6B
2017-12-01 15:49:50 1512161390.851062: $GPGGA,204951,3946.9573,N,08404.9869,W,2,12,0.80,302.30,M,-33.324,M,,*7F
2017-12-01 15:49:50 1512161390.851131: $GPRMC,204951,A,3946.9573,N,08404.9869,W,0.0000,0.000,011217,,*36
2017-12-01 15:49:50 1512161390.851192: $GPGSA,A,3,1,10,12,14,18,24,25,31,32,11,22,138,2.0,0.8,1.5*3B
2017-12-01 15:49:51 1512161391.423002: $GPZDA,204952.00,01,12,2017,00,00*68
2017-12-01 15:49:51 1512161391.423187: $GPGGA,204952,3946.9573,N,08404.9869,W,2,12,0.80,302.30,M,-33.324,M,,*7C
2017-12-01 15:49:51 1512161391.423254: $GPRMC,204952,A,3946.9573,N,08404.9869,W,0.0000,0.000,011217,,*35
2017-12-01 15:49:51 1512161391.423316: $GPGSA,A,3,1,10,12,14,18,24,25,31,32,11,22,138,2.0,0.8,1.5*3B
2017-12-01 15:49:52 1512161392.421341: $GPZDA,204953.00,01,12,2017,00,00*69
2017-12-01 15:49:52 1512161392.421604: $GPGGA,204953,3946.9573,N,08404.9869,W,2,12,0.80,302.30,M,-33.324,M,,*7D
2017-12-01 15:49:52 1512161392.421673: $GPRMC,204953,A,3946.9573,N,08404.9869,W,0.0000,0.000,011217,,*34
2017-12-01 15:49:52 1512161392.421735: $GPGSA,A,3,1,10,12,14,18,24,25,31,32,11,22,138,2.0,0.8,1.5*3B
2017-12-01 15:49:53 1512161393.757942: $GPGSV,3,1,12,01,15,316,37,10,68,133,48,12,25,069,37,14,56,294,42*7F
2017-12-01 15:49:53 1512161393.758150: $GPGSV,3,2,12,18,35,136,47,24,12,045,36,25,31,112,42,31,37,213,49*78
2017-12-01 15:49:53 1512161393.758217: $GPGSV,3,3,12,32,68,334,48,11,11,300,36,22,04,310,35,138,38,213,46*48
2017-12-01 15:49:53 1512161393.871677: $GPZDA,204954.00,01,12,2017,00,00*6E
2017-12-01 15:49:53 1512161393.871846: $GPGGA,204954,3946.9573,N,08404.9869,W,2,12,0.80,302.30,M,-33.324,M,,*7A
2017-12-01 15:49:53 1512161393.871990: $GPRMC,204954,A,3946.9573,N,08404.9869,W,0.0000,0.000,011217,,*33
2017-12-01 15:49:53 1512161393.872073: $GPGSA,A,3,1,10,12,14,18,24,25,31,32,11,22,138,2.0,0.8,1.5*3B
2017-12-01 15:49:54 1512161394.424782: $GPZDA,204955.00,01,12,2017,00,00*6F
2017-12-01 15:49:54 1512161394.425037: $GPGGA,204955,3946.9573,N,08404.9869,W,2,12,0.80,302.30,M,-33.324,M,,*7B
2017-12-01 15:49:54 1512161394.425106: $GPRMC,204955,A,3946.9573,N,08404.9869,W,0.0000,0.000,011217,,*32
2017-12-01 15:49:54 1512161394.425167: $GPGSA,A,3,1,10,12,14,18,24,25,31,32,11,22,138,2.0,0.8,1.5*3B
2017-12-01 15:49:55 1512161395.424371: $GPZDA,204956.00,01,12,2017,00,00*6C
2017-12-01 15:49:55 1512161395.424542: $GPGGA,204956,3946.9573,N,08404.9869,W,2,12,0.80,302.30,M,-33.324,M,,*78
2017-12-01 15:49:55 1512161395.424609: $GPRMC,204956,A,3946.9573,N,08404.9869,W,0.0000,0.000,011217,,*31
2017-12-01 15:49:55 1512161395.424669: $GPGSA,A,3,1,10,12,14,18,24,25,31,32,11,22,138,2.0,0.8,1.5*3B
2017-12-01 15:49:56 1512161396.741211: $GPGSV,3,1,12,01,15,316,37,10,68,133,47,12,25,069,39,14,56,294,42*7E
2017-12-01 15:49:56 1512161396.741423: $GPGSV,3,2,12,18,35,136,47,24,12,045,35,25,31,112,42,31,37,213,49*7B
2017-12-01 15:49:56 1512161396.741499: $GPGSV,3,3,12,32,68,334,48,11,11,300,27,22,04,310,35,138,38,213,45*4B
2017-12-01 15:49:56 1512161396.854592: $GPZDA,204957.00,01,12,2017,00,00*6D
2017-12-01 15:49:56 1512161396.854766: $GPGGA,204957,3946.9573,N,08404.9869,W,2,12,0.80,302.30,M,-33.324,M,,*79
2017-12-01 15:49:56 1512161396.854833: $GPRMC,204957,A,3946.9573,N,08404.9869,W,0.0000,0.000,011217,,*30
2017-12-01 15:49:56 1512161396.854917: $GPGSA,A,3,1,10,12,14,18,24,25,31,32,11,22,138,2.0,0.8,1.5*3B
2017-12-01 15:49:57 1512161397.406694: $GPZDA,204958.00,01,12,2017,00,00*62
2017-12-01 15:49:57 1512161397.406905: $GPGGA,204958,3946.9573,N,08404.9869,W,2,12,0.80,302.30,M,-33.324,M,,*76
2017-12-01 15:49:57 1512161397.406973: $GPRMC,204958,A,3946.9573,N,08404.9869,W,0.0000,0.000,011217,,*3F
2017-12-01 15:49:57 1512161397.407051: $GPGSA,A,3,1,10,12,14,18,24,25,31,32,11,22,138,2.0,0.8,1.5*3B
2017-12-01 15:49:58 1512161398.407261: $GPZDA,204959.00,01,12,2017,00,00*63
2017-12-01 15:49:58 1512161398.407429: $GPGGA,204959,3946.9573,N,08404.9869,W,2,12,0.80,302.30,M,-33.324,M,,*77
2017-12-01 15:49:58 1512161398.407497: $GPRMC,204959,A,3946.9573,N,08404.9869,W,0.0000,0.000,011217,,*3E
2017-12-01 15:49:58 1512161398.407558: $GPGSA,A,3,1,10,12,14,18,24,25,31,32,11,22,138,2.0,0.8,1.5*3B
2017-12-01 15:49:59 1512161399.759066: $GPGSV,3,1,12,01,15,316,37,10,68,133,48,12,25,069,38,14,56,294,42*70
2017-12-01 15:49:59 1512161399.759250: $GPGSV,3,2,12,18,35,136,47,24,12,045,35,25,31,112,42,31,37,213,49*7B
2017-12-01 15:49:59 1512161399.759317: $GPGSV,3,3,12,32,68,334,48,11,11,300,30,22,04,310,36,138,38,213,46*4D
2017-12-01 15:49:59 1512161399.872481: $GPZDA,205000.00,01,12,2017,00,00*67
2017-12-01 15:49:59 1512161399.872640: $GPGGA,205000,3946.9573,N,08404.9869,W,2,12,0.80,302.30,M,-33.324,M,,*73
2017-12-01 15:49:59 1512161399.872707: $GPRMC,205000,A,3946.9573,N,08404.9869,W,0.0000,0.000,011217,,*3A
2017-12-01 15:49:59 1512161399.872768: $GPGSA,A,3,1,10,12,14,18,24,25,31,32,11,22,138,2.0,0.8,1.5*3B
2017-12-01 15:50:00 1512161400.406605: $GPZDA,205001.00,01,12,2017,00,00*66
2017-12-01 15:50:00 1512161400.406876: $GPGGA,205001,3946.9573,N,08404.9869,W,2,12,0.80,302.30,M,-33.324,M,,*72
2017-12-01 15:50:00 1512161400.406961: $GPRMC,205001,A,3946.9573,N,08404.9869,W,0.0000,0.000,011217,,*3B
2017-12-01 15:50:00 1512161400.407133: $GPGSA,A,3,1,10,12,14,18,24,25,31,32,11,22,138,2.0,0.8,1.5*3B
2017-12-01 15:50:01 1512161401.424426: $GPZDA,205002.00,01,12,2017,00,00*65
2017-12-01 15:50:01 1512161401.424593: $GPGGA,205002,3946.9573,N,08404.9869,W,2,12,0.80,302.30,M,-33.324,M,,*71
2017-12-01 15:50:01 1512161401.424679: $GPRMC,205002,A,3946.9573,N,08404.9869,W,0.0000,0.000,011217,,*38
2017-12-01 15:50:01 1512161401.424744: $GPGSA,A,3,1,10,12,14,18,24,25,31,32,11,22,138,2.0,0.8,1.5*3B
2017-12-01 15:50:02 1512161402.753685: $GPGSV,3,1,12,01,15,316,38,10,68,133,48,12,25,069,38,14,56,294,41*7C
2017-12-01 15:50:02 1512161402.753892: $GPGSV,3,2,12,18,35,136,48,24,12,045,35,25,31,112,43,31,37,213,50*7D
2017-12-01 15:50:02 1512161402.753960: $GPGSV,3,3,12,32,68,334,48,11,11,300,30,22,04,310,36,138,38,213,47*4C
2017-12-01 15:50:02 1512161402.867050: $GPZDA,205003.00,01,12,2017,00,00*64
2017-12-01 15:50:02 1512161402.867228: $GPGGA,205003,3946.9573,N,08404.9869,W,2,12,0.80,302.30,M,-33.324,M,,*70
2017-12-01 15:50:02 1512161402.867295: $GPRMC,205003,A,3946.9573,N,08404.9869,W,0.0000,0.000,011217,,*39
2017-12-01 15:50:02 1512161402.867355: $GPGSA,A,3,1,10,12,14,18,24,25,31,32,11,22,138,2.0,0.8,1.5*3B
2017-12-01 15:50:03 1512161403.492471: $GPZDA,205004.00,01,12,2017,00,00*63
2017-12-01 15:50:03 1512161403.492642: $GPGGA,205004,3946.9573,N,08404.9869,W,2,12,0.80,302.30,M,-33.324,M,,*77
2017-12-01 15:50:03 1512161403.492710: $GPRMC,205004,A,3946.9573,N,08404.9869,W,0.0000,0.000,011217,,*3E
2017-12-01 15:50:03 1512161403.492773: $GPGSA,A,3,1,10,12,14,18,24,25,31,32,11,22,138,2.0,0.8,1.5*3B
2017-12-01 15:50:04 1512161404.405805: $GPZDA,205005.00,01,12,2017,00,00*62
2017-12-01 15:50:04 1512161404.406032: $GPGGA,205005,3946.9573,N,08404.9869,W,2,12,0.80,302.30,M,-33.324,M,,*76
2017-12-01 15:50:04 1512161404.406101: $GPRMC,205005,A,3946.9573,N,08404.9869,W,0.0000,0.000,011217,,*3F
2017-12-01 15:50:04 1512161404.406163: $GPGSA,A,3,1,10,12,14,18,24,25,31,32,11,22,138,2.0,0.8,1.5*3B
2017-12-01 15:50:05 1512161405.759043: $GPGSV,3,1,12,01,15,316,38,10,68,133,48,12,25,069,37,14,56,294,42*70
2017-12-01 15:50:05 1512161405.759227: $GPGSV,3,2,12,18,35,136,47,24,12,045,34,25,31,112,43,31,37,213,49*7B
2017-12-01 15:50:05 1512161405.759294: $GPGSV,3,3,12,32,68,334,48,11,11,300,30,22,04,310,36,138,38,213,45*4E
2017-12-01 15:50:05 1512161405.872433: $GPZDA,205006.00,01,12,2017,00,00*61
2017-12-01 15:50:05 1512161405.872595: $GPGGA,205006,3946.9573,N,08404.9869,W,2,12,0.80,302.30,M,-33.324,M,,*75
2017-12-01 15:50:05 1512161405.872660: $GPRMC,205006,A,3946.9573,N,08404.9869,W,0.0000,0.000,011217,,*3C
2017-12-01 15:50:05 1512161405.872721: $GPGSA,A,3,1,10,12,14,18,24,25,31,32,11,22,138,2.0,0.8,1.5*3B
2017-12-01 15:50:06 1512161406.418476: $GPZDA,205007.00,01,12,2017,00,00*60
2017-12-01 15:50:06 1512161406.418648: $GPGGA,205007,3946.9573,N,08404.9869,W,2,12,0.80,302.30,M,-33.324,M,,*74
2017-12-01 15:50:06 1512161406.418715: $GPRMC,205007,A,3946.9573,N,08404.9869,W,0.0000,0.000,011217,,*3D
2017-12-01 15:50:06 1512161406.418775: $GPGSA,A,3,1,10,12,14,18,24,25,31,32,11,22,138,2.0,0.8,1.5*3B
