2017-11-16 14:17:01 1510859821.046934: {"class":"VERSION","release":"3.17","rev":"3.17","proto_major":3,"proto_minor":12}
2017-11-16 14:17:01 1510859821.047363: {"class":"DEVICES","devices":[{"class":"DEVICE","path":"/dev/ttyUSB0","driver":"SiRF","subtype":"9\u0006GSD4e_4.1.2-P1_RPATCH.05-F-GPS-4R-1510281 11/03/2015 307","activated":"2017-11-16T19:17:00.996Z","flags":1,"native":1,"bps":4800,"parity":"N","stopbits":1,"cycle":1.00}]}
2017-11-16 14:17:01 1510859821.047542: {"class":"WATCH","enable":true,"json":false,"nmea":true,"raw":0,"scaled":false,"timing":false,"split24":false,"pps":false}
2017-11-16 14:17:01 1510859821.510279: $GPZDA,191700.00,16,11,2017,00,00*6B
2017-11-16 14:17:01 1510859821.510477: $GPGGA,191700,3946.9557,N,08404.9851,W,2,10,0.80,304.19,M,-33.324,M,,*78
2017-11-16 14:17:01 1510859821.510538: $GPRMC,191700,A,3946.9557,N,08404.9851,W,0.0000,0.000,161117,,*3B
2017-11-16 14:17:01 1510859821.510615: $GPGSA,A,3,8,10,15,18,21,20,24,27,32,138,,,1.6,0.8,1.3*32
2017-11-16 14:17:02 1510859822.507406: $GPZDA,191701.00,16,11,2017,00,00*6A
2017-11-16 14:17:02 1510859822.507585: $GPGGA,191701,3946.9557,N,08404.9851,W,2,10,1.00,304.19,M,-33.324,M,,*70
2017-11-16 14:17:02 1510859822.507647: $GPRMC,191701,A,3946.9557,N,08404.9851,W,0.0000,0.000,161117,,*3A
2017-11-16 14:17:02 1510859822.507721: $GPGSA,A,3,8,10,15,18,21,20,24,27,32,138,,,1.6,1.0,1.3*3B
2017-11-16 14:17:03 1510859823.842919: $GPGSV,3,1,11,08,06,321,36,10,42,301,46,15,36,052,51,18,72,339,47*73
2017-11-16 14:17:03 1510859823.843089: $GPGSV,3,2,11,21,62,189,47,20,32,097,46,24,51,108,48,27,19,288,42*7D
2017-11-16 14:17:03 1510859823.843150: $GPGSV,3,3,11,32,21,238,46,13,07,049,00,138,38,213,44*79
2017-11-16 14:17:03 1510859823.956399: $GPZDA,191702.00,16,11,2017,00,00*69
2017-11-16 14:17:03 1510859823.956702: $GPGGA,191702,3946.9557,N,08404.9851,W,2,10,1.00,304.19,M,-33.324,M,,*73
2017-11-16 14:17:03 1510859823.956820: $GPRMC,191702,A,3946.9557,N,08404.9851,W,0.0000,0.000,161117,,*39
2017-11-16 14:17:03 1510859823.956935: $GPGSA,A,3,8,10,15,18,21,20,24,27,32,138,,,1.6,1.0,1.3*3B
2017-11-16 14:17:04 1510859824.582164: $GPZDA,191703.00,16,11,2017,00,00*68
2017-11-16 14:17:04 1510859824.582513: $GPGGA,191703,3946.9557,N,08404.9851,W,2,10,1.00,304.19,M,-33.324,M,,*72
2017-11-16 14:17:04 1510859824.582650: $GPRMC,191703,A,3946.9557,N,08404.9851,W,0.0000,0.000,161117,,*38
2017-11-16 14:17:04 1510859824.582777: $GPGSA,A,3,8,10,15,18,21,20,24,27,32,138,,,1.6,1.0,1.3*3B
2017-11-16 14:17:05 1510859825.507429: $GPZDA,191704.00,16,11,2017,00,00*6F
2017-11-16 14:17:05 1510859825.507606: $GPGGA,191704,3946.9557,N,08404.9851,W,2,10,1.00,304.19,M,-33.324,M,,*75
2017-11-16 14:17:05 1510859825.507668: $GPRMC,191704,A,3946.9557,N,08404.9851,W,0.0000,0.000,161117,,*3F
2017-11-16 14:17:05 1510859825.507725: $GPGSA,A,3,8,10,15,18,21,20,24,27,32,138,,,1.6,1.0,1.3*3B
2017-11-16 14:17:06 1510859826.844500: $GPGSV,3,1,11,08,06,321,38,10,42,301,45,15,36,052,51,18,72,339,47*7E
2017-11-16 14:17:06 1510859826.844645: $GPGSV,3,2,11,21,62,189,47,20,32,097,46,24,51,108,48,27,19,288,42*7D
2017-11-16 14:17:06 1510859826.844705: $GPGSV,3,3,11,32,21,238,46,13,07,049,00,138,38,213,44*79
2017-11-16 14:17:06 1510859826.956615: $GPZDA,191705.00,16,11,2017,00,00*6E
2017-11-16 14:17:06 1510859826.956773: $GPGGA,191705,3946.9557,N,08404.9851,W,2,10,1.00,304.19,M,-33.324,M,,*74
2017-11-16 14:17:06 1510859826.956834: $GPRMC,191705,A,3946.9557,N,08404.9851,W,0.0000,0.000,161117,,*3E
2017-11-16 14:17:06 1510859826.956890: $GPGSA,A,3,8,10,15,18,21,20,24,27,32,138,,,1.6,1.0,1.3*3B
2017-11-16 14:17:07 1510859827.507475: $GPZDA,191706.00,16,11,2017,00,00*6D
2017-11-16 14:17:07 1510859827.507649: $GPGGA,191706,3946.9557,N,08404.9851,W,2,10,1.00,304.19,M,-33.324,M,,*77
2017-11-16 14:17:07 1510859827.507710: $GPRMC,191706,A,3946.9557,N,08404.9851,W,0.0000,0.000,161117,,*3D
2017-11-16 14:17:07 1510859827.507768: $GPGSA,A,3,8,10,15,18,21,20,24,27,32,138,,,1.6,1.0,1.3*3B
2017-11-16 14:17:08 1510859828.501945: $GPZDA,191707.00,16,11,2017,00,00*6C
2017-11-16 14:17:08 1510859828.502107: $GPGGA,191707,3946.9557,N,08404.9851,W,2,10,1.00,304.19,M,-33.324,M,,*76
2017-11-16 14:17:08 1510859828.502223: $GPRMC,191707,A,3946.9557,N,08404.9851,W,0.0000,0.000,161117,,*3C
2017-11-16 14:17:08 1510859828.502284: $GPGSA,A,3,8,10,15,18,21,20,24,27,32,138,,,1.6,1.0,1.3*3B
2017-11-16 14:17:09 1510859829.845837: $GPGSV,3,1,12,08,06,321,37,10,42,301,45,14,05,232,16,15,36,052,51*70
2017-11-16 14:17:09 1510859829.846014: $GPGSV,3,2,12,18,72,339,47,21,62,189,47,20,32,097,46,24,51,108,48*71
2017-11-16 14:17:09 1510859829.846075: $GPGSV,3,3,12,27,19,288,42,32,21,238,46,13,07,049,00,138,38,213,44*43
2017-11-16 14:17:09 1510859829.959294: $GPZDA,191708.00,16,11,2017,00,00*63
2017-11-16 14:17:09 1510859829.959452: $GPGGA,191708,3946.9557,N,08404.9851,W,2,10,1.00,304.19,M,-33.324,M,,*79
2017-11-16 14:17:09 1510859829.959513: $GPRMC,191708,A,3946.9557,N,08404.9851,W,0.0000,0.000,161117,,*33
2017-11-16 14:17:09 1510859829.959569: $GPGSA,A,3,8,10,15,18,21,20,24,27,32,138,,,1.6,1.0,1.3*3B
2017-11-16 14:17:10 1510859830.510269: $GPZDA,191709.00,16,11,2017,00,00*62
2017-11-16 14:17:10 1510859830.510470: $GPGGA,191709,3946.9557,N,08404.9851,W,2,10,1.00,304.19,M,-33.324,M,,*78
2017-11-16 14:17:10 1510859830.510531: $GPRMC,191709,A,3946.9557,N,08404.9851,W,0.0000,0.000,161117,,*32
2017-11-16 14:17:10 1510859830.510588: $GPGSA,A,3,8,10,15,18,21,20,24,27,32,138,,,1.6,1.0,1.3*3B
2017-11-16 14:17:11 1510859831.507055: $GPZDA,191710.00,16,11,2017,00,00*6A
2017-11-16 14:17:11 1510859831.507217: $GPGGA,191710,3946.9557,N,08404.9851,W,2,10,1.00,304.19,M,-33.324,M,,*70
2017-11-16 14:17:11 1510859831.507279: $GPRMC,191710,A,3946.9557,N,08404.9851,W,0.0000,0.000,161117,,*3A
2017-11-16 14:17:11 1510859831.507338: $GPGSA,A,3,8,10,15,18,21,20,24,27,32,138,,,1.6,1.0,1.3*3B
2017-11-16 14:17:12 1510859832.845316: $GPGSV,3,1,12,08,06,321,37,10,42,301,45,14,05,232,29,15,36,052,51*7C
2017-11-16 14:17:12 1510859832.845489: $GPGSV,3,2,12,18,72,339,47,21,62,189,47,20,32,097,46,24,51,108,48*71
2017-11-16 14:17:12 1510859832.845550: $GPGSV,3,3,12,27,19,288,41,32,21,238,46,13,07,049,00,138,38,213,44*40
2017-11-16 14:17:12 1510859832.958601: $GPZDA,191711.00,16,11,2017,00,00*6B
2017-11-16 14:17:12 1510859832.958761: $GPGGA,191711,3946.9557,N,08404.9851,W,2,11,1.00,304.19,M,-33.324,M,,*70
2017-11-16 14:17:12 1510859832.958821: $GPRMC,191711,A,3946.9557,N,08404.9851,W,0.0000,0.000,161117,,*3B
2017-11-16 14:17:12 1510859832.958878: $GPGSA,A,3,8,10,14,15,18,21,20,24,27,32,138,,1.6,1.0,1.3*3E
2017-11-16 14:17:13 1510859833.508254: $GPZDA,191712.00,16,11,2017,00,00*68
2017-11-16 14:17:13 1510859833.508420: $GPGGA,191712,3946.9557,N,08404.9851,W,2,11,1.00,304.19,M,-33.324,M,,*73
2017-11-16 14:17:13 1510859833.508482: $GPRMC,191712,A,3946.9557,N,08404.9851,W,0.0000,0.000,161117,,*38
2017-11-16 14:17:13 1510859833.508539: $GPGSA,A,3,8,10,14,15,18,21,20,24,27,32,138,,1.6,1.0,1.3*3E
2017-11-16 14:17:14 1510859834.501076: $GPZDA,191713.00,16,11,2017,00,00*69
2017-11-16 14:17:14 1510859834.501244: $GPGGA,191713,3946.9557,N,08404.9851,W,2,11,1.00,304.19,M,-33.324,M,,*72
2017-11-16 14:17:14 1510859834.501306: $GPRMC,191713,A,3946.9557,N,08404.9851,W,0.0000,0.000,161117,,*39
2017-11-16 14:17:14 1510859834.501362: $GPGSA,A,3,8,10,14,15,18,21,20,24,27,32,138,,1.6,1.0,1.3*3E
2017-11-16 14:17:15 1510859835.874336: $GPGSV,3,1,11,08,06,321,30,10,42,301,45,15,36,052,51,18,72,339,47*76
2017-11-16 14:17:15 1510859835.874513: $GPGSV,3,2,11,21,62,189,46,20,32,097,46,24,51,108,48,27,19,288,41*7F
2017-11-16 14:17:15 1510859835.874576: $GPGSV,3,3,11,32,21,238,46,13,07,049,00,138,38,213,45*78
2017-11-16 14:17:15 1510859835.987570: $GPZDA,191714.00,16,11,2017,00,00*6E
2017-11-16 14:17:15 1510859835.987722: $GPGGA,191714,3946.9557,N,08404.9851,W,2,10,1.00,304.19,M,-33.324,M,,*74
2017-11-16 14:17:15 1510859835.987780: $GPRMC,191714,A,3946.9557,N,08404.9851,W,0.0000,0.000,161117,,*3E
2017-11-16 14:17:15 1510859835.987840: $GPGSA,A,3,8,10,15,18,21,20,24,27,32,138,,,1.6,1.0,1.3*3B
