2017-11-16 14:44:27 1510861467.116704: {"class":"VERSION","release":"3.17","rev":"3.17","proto_major":3,"proto_minor":12}
2017-11-16 14:44:27 1510861467.117158: {"class":"DEVICES","devices":[{"class":"DEVICE","path":"/dev/ttyUSB0","driver":"SiRF","subtype":"9\u0006GSD4e_4.1.2-P1_RPATCH.05-F-GPS-4R-1510281 11/03/2015 307","activated":"2017-11-16T19:44:26.639Z","flags":1,"native":1,"bps":4800,"parity":"N","stopbits":1,"cycle":1.00}]}
2017-11-16 14:44:27 1510861467.117302: {"class":"WATCH","enable":true,"json":false,"nmea":true,"raw":0,"scaled":false,"timing":false,"split24":false,"pps":false}
2017-11-16 14:44:27 1510861467.834184: $GPGSV,3,1,11,08,08,310,23,10,52,312,50,15,26,057,51,18,77,021,44*77
2017-11-16 14:44:27 1510861467.834355: $GPGSV,3,2,11,21,49,183,47,20,23,106,46,24,53,087,48,27,15,276,45*79
2017-11-16 14:44:27 1510861467.834415: $GPGSV,3,3,11,32,31,247,48,14,15,240,41,138,38,213,44*74
2017-11-16 14:44:27 1510861467.947517: $GPZDA,194426.00,16,11,2017,00,00*69
2017-11-16 14:44:27 1510861467.947685: $GPGGA,194426,3946.9564,N,08404.9842,W,2,11,0.80,302.74,M,-33.324,M,,*74
2017-11-16 14:44:27 1510861467.947748: $GPRMC,194426,A,3946.9564,N,08404.9842,W,0.0000,0.000,161117,,*3B
2017-11-16 14:44:27 1510861467.947804: $GPGSA,A,3,8,10,15,18,21,20,24,27,32,14,138,,1.6,0.8,1.3*37
2017-11-16 14:44:28 1510861468.532214: $GPZDA,194427.00,16,11,2017,00,00*68
2017-11-16 14:44:28 1510861468.532409: $GPGGA,194427,3946.9564,N,08404.9842,W,2,11,0.80,302.74,M,-33.324,M,,*75
2017-11-16 14:44:28 1510861468.532472: $GPRMC,194427,A,3946.9564,N,08404.9842,W,0.0000,0.000,161117,,*3A
2017-11-16 14:44:28 1510861468.532529: $GPGSA,A,3,8,10,15,18,21,20,24,27,32,14,138,,1.6,0.8,1.3*37
2017-11-16 14:44:29 1510861469.532764: $GPZDA,194428.00,16,11,2017,00,00*67
2017-11-16 14:44:29 1510861469.532923: $GPGGA,194428,3946.9564,N,08404.9842,W,2,11,0.80,302.74,M,-33.324,M,,*7A
2017-11-16 14:44:29 1510861469.532985: $GPRMC,194428,A,3946.9564,N,08404.9842,W,0.0000,0.000,161117,,*35
2017-11-16 14:44:29 1510861469.533041: $GPGSA,A,3,8,10,15,18,21,20,24,27,32,14,138,,1.6,0.8,1.3*37
2017-11-16 14:44:30 1510861470.863290: $GPGSV,3,1,11,08,08,310,32,10,52,312,50,15,26,057,51,18,77,021,44*77
2017-11-16 14:44:30 1510861470.863468: $GPGSV,3,2,11,21,49,183,47,20,23,106,45,24,53,087,48,27,15,276,45*7A
2017-11-16 14:44:30 1510861470.863529: $GPGSV,3,3,11,32,31,247,48,14,15,240,41,138,38,213,44*74
2017-11-16 14:44:30 1510861470.976805: $GPZDA,194429.00,16,11,2017,00,00*66
2017-11-16 14:44:30 1510861470.976964: $GPGGA,194429,3946.9564,N,08404.9842,W,2,11,0.80,302.74,M,-33.324,M,,*7B
2017-11-16 14:44:30 1510861470.977025: $GPRMC,194429,A,3946.9564,N,08404.9842,W,0.0000,0.000,161117,,*34
2017-11-16 14:44:30 1510861470.977081: $GPGSA,A,3,8,10,15,18,21,20,24,27,32,14,138,,1.6,0.8,1.3*37
2017-11-16 14:44:31 1510861471.497658: $GPZDA,194430.00,16,11,2017,00,00*6E
2017-11-16 14:44:32 1510861472.058347: $GPGGA,194430,3946.9564,N,08404.9842,W,2,11,0.80,302.74,M,-33.324,M,,*73
2017-11-16 14:44:32 1510861472.058503: $GPRMC,194430,A,3946.9564,N,08404.9842,W,0.0000,0.000,161117,,*3C
2017-11-16 14:44:32 1510861472.058565: $GPGSA,A,3,8,10,15,18,21,20,24,27,32,14,138,,1.6,0.8,1.3*37
2017-11-16 14:44:32 1510861472.498121: $GPZDA,194431.00,16,11,2017,00,00*6F
2017-11-16 14:44:32 1510861472.498289: $GPGGA,194431,3946.9564,N,08404.9842,W,2,11,0.80,302.74,M,-33.324,M,,*72
2017-11-16 14:44:32 1510861472.498351: $GPRMC,194431,A,3946.9564,N,08404.9842,W,0.0000,0.000,161117,,*3D
2017-11-16 14:44:32 1510861472.498407: $GPGSA,A,3,8,10,15,18,21,20,24,27,32,14,138,,1.6,0.8,1.3*37
2017-11-16 14:44:33 1510861473.833898: $GPGSV,3,1,11,08,08,310,33,10,52,312,50,15,26,057,51,18,77,021,44*76
2017-11-16 14:44:33 1510861473.834068: $GPGSV,3,2,11,21,49,183,47,20,23,106,45,24,53,087,48,27,15,276,44*7B
2017-11-16 14:44:33 1510861473.834128: $GPGSV,3,3,11,32,31,247,48,14,15,240,40,138,38,213,43*72
2017-11-16 14:44:33 1510861473.947290: $GPZDA,194432.00,16,11,2017,00,00*6C
2017-11-16 14:44:33 1510861473.947462: $GPGGA,194432,3946.9564,N,08404.9842,W,2,11,0.80,302.74,M,-33.324,M,,*71
2017-11-16 14:44:33 1510861473.947573: $GPRMC,194432,A,3946.9564,N,08404.9842,W,0.0000,0.000,161117,,*3E
2017-11-16 14:44:33 1510861473.947630: $GPGSA,A,3,8,10,15,18,21,20,24,27,32,14,138,,1.6,0.8,1.3*37
2017-11-16 14:44:34 1510861474.572817: $GPZDA,194433.00,16,11,2017,00,00*6D
2017-11-16 14:44:34 1510861474.573006: $GPGGA,194433,3946.9564,N,08404.9842,W,2,11,0.80,302.74,M,-33.324,M,,*70
2017-11-16 14:44:34 1510861474.573069: $GPRMC,194433,A,3946.9564,N,08404.9842,W,0.0000,0.000,161117,,*3F
2017-11-16 14:44:34 1510861474.573145: $GPGSA,A,3,8,10,15,18,21,20,24,27,32,14,138,,1.6,0.8,1.3*37
2017-11-16 14:44:35 1510861475.532578: $GPZDA,194434.00,16,11,2017,00,00*6A
2017-11-16 14:44:35 1510861475.532738: $GPGGA,194434,3946.9564,N,08404.9842,W,2,11,0.80,302.74,M,-33.324,M,,*77
2017-11-16 14:44:35 1510861475.532798: $GPRMC,194434,A,3946.9564,N,08404.9842,W,0.0000,0.000,161117,,*38
2017-11-16 14:44:35 1510861475.532854: $GPGSA,A,3,8,10,15,18,21,20,24,27,32,14,138,,1.6,0.8,1.3*37
2017-11-16 14:44:36 1510861476.862930: $GPGSV,3,1,11,08,08,310,32,10,52,312,50,15,26,057,50,18,77,021,44*76
2017-11-16 14:44:36 1510861476.863113: $GPGSV,3,2,11,21,49,183,47,20,23,106,45,24,53,087,48,27,15,276,44*7B
2017-11-16 14:44:36 1510861476.863174: $GPGSV,3,3,11,32,31,247,48,14,15,240,40,138,38,213,44*75
2017-11-16 14:44:36 1510861476.976727: $GPZDA,194435.00,16,11,2017,00,00*6B
2017-11-16 14:44:36 1510861476.976898: $GPGGA,194435,3946.9564,N,08404.9842,W,2,11,0.80,302.74,M,-33.324,M,,*76
2017-11-16 14:44:36 1510861476.976960: $GPRMC,194435,A,3946.9564,N,08404.9842,W,0.0000,0.000,161117,,*39
2017-11-16 14:44:36 1510861476.977016: $GPGSA,A,3,8,10,15,18,21,20,24,27,32,14,138,,1.6,0.8,1.3*37
