2017-11-16 17:20:19 1510870819.501829: {"class":"VERSION","release":"3.17","rev":"3.17","proto_major":3,"proto_minor":12}
2017-11-16 17:20:19 1510870819.502473: {"class":"DEVICES","devices":[{"class":"DEVICE","path":"/dev/ttyUSB0","driver":"SiRF","subtype":"9\u0006GSD4e_4.1.2-P1_RPATCH.05-F-GPS-4R-1510281 11/03/2015 307","activated":"2017-11-16T22:20:19.459Z","flags":1,"native":1,"bps":4800,"parity":"N","stopbits":1,"cycle":1.00}]}
2017-11-16 17:20:19 1510870819.502629: {"class":"WATCH","enable":true,"json":false,"nmea":true,"raw":0,"scaled":false,"timing":false,"split24":false,"pps":false}
2017-11-16 17:20:20 1510870820.421472: $GPZDA,222019.00,16,11,2017,00,00*6F
2017-11-16 17:20:20 1510870820.421646: $GPGGA,222019,3946.9570,N,08404.9831,W,2,12,0.80,309.16,M,-33.324,M,,*7F
2017-11-16 17:20:20 1510870820.421708: $GPRMC,222019,A,3946.9570,N,08404.9831,W,0.0000,0.000,161117,,*3C
2017-11-16 17:20:20 1510870820.421764: $GPGSA,A,3,1,10,22,12,14,18,24,11,25,31,32,138,1.6,0.8,1.3*38
2017-11-16 17:20:21 1510870821.751538: $GPGSV,3,1,12,01,20,306,41,10,54,145,49,22,14,312,42,12,24,055,50*75
2017-11-16 17:20:21 1510870821.751709: $GPGSV,3,2,12,14,63,316,48,18,24,142,42,24,02,048,16,11,10,288,37*75
2017-11-16 17:20:21 1510870821.751768: $GPGSV,3,3,12,25,38,097,48,31,49,220,49,32,70,010,49,138,38,213,45*4C
2017-11-16 17:20:21 1510870821.864831: $GPZDA,222020.00,16,11,2017,00,00*65
2017-11-16 17:20:21 1510870821.865000: $GPGGA,222020,3946.9570,N,08404.9831,W,2,12,0.80,309.16,M,-33.324,M,,*75
2017-11-16 17:20:21 1510870821.865123: $GPRMC,222020,A,3946.9570,N,08404.9831,W,0.0000,0.000,161117,,*36
2017-11-16 17:20:21 1510870821.865185: $GPGSA,A,3,1,10,22,12,14,18,24,11,25,31,32,138,1.6,0.8,1.3*38
2017-11-16 17:20:22 1510870822.420684: $GPZDA,222021.00,16,11,2017,00,00*64
2017-11-16 17:20:22 1510870822.420855: $GPGGA,222021,3946.9570,N,08404.9831,W,2,12,0.80,309.16,M,-33.324,M,,*74
2017-11-16 17:20:22 1510870822.420918: $GPRMC,222021,A,3946.9570,N,08404.9831,W,0.0000,0.000,161117,,*37
2017-11-16 17:20:22 1510870822.420975: $GPGSA,A,3,1,10,22,12,14,18,24,11,25,31,32,138,1.6,0.8,1.3*38
2017-11-16 17:20:23 1510870823.401575: $GPZDA,222022.00,16,11,2017,00,00*67
2017-11-16 17:20:23 1510870823.401752: $GPGGA,222022,3946.9570,N,08404.9831,W,2,12,0.80,309.16,M,-33.324,M,,*77
2017-11-16 17:20:23 1510870823.401816: $GPRMC,222022,A,3946.9570,N,08404.9831,W,0.0000,0.000,161117,,*34
2017-11-16 17:20:23 1510870823.401875: $GPGSA,A,3,1,10,22,12,14,18,24,11,25,31,32,138,1.6,0.8,1.3*38
2017-11-16 17:20:24 1510870824.738670: $GPGSV,3,1,12,01,20,306,41,10,54,145,49,22,14,312,42,12,24,055,50*75
2017-11-16 17:20:24 1510870824.738857: $GPGSV,3,2,12,14,63,316,48,18,24,142,42,24,02,048,16,11,10,288,38*7A
2017-11-16 17:20:24 1510870824.738921: $GPGSV,3,3,12,25,38,097,48,31,49,220,49,32,70,010,49,138,38,213,44*4D
2017-11-16 17:20:24 1510870824.851960: $GPZDA,222023.00,16,11,2017,00,00*66
2017-11-16 17:20:24 1510870824.852124: $GPGGA,222023,3946.9570,N,08404.9831,W,2,12,0.80,309.16,M,-33.324,M,,*76
2017-11-16 17:20:24 1510870824.852186: $GPRMC,222023,A,3946.9570,N,08404.9831,W,0.0000,0.000,161117,,*35
2017-11-16 17:20:24 1510870824.852242: $GPGSA,A,3,1,10,22,12,14,18,24,11,25,31,32,138,1.6,0.8,1.3*38
2017-11-16 17:20:25 1510870825.402811: $GPZDA,222024.00,16,11,2017,00,00*61
2017-11-16 17:20:25 1510870825.402981: $GPGGA,222024,3946.9570,N,08404.9831,W,2,12,0.80,309.16,M,-33.324,M,,*71
2017-11-16 17:20:25 1510870825.403043: $GPRMC,222024,A,3946.9570,N,08404.9831,W,0.0000,0.000,161117,,*32
2017-11-16 17:20:25 1510870825.403099: $GPGSA,A,3,1,10,22,12,14,18,24,11,25,31,32,138,1.6,0.8,1.3*38
2017-11-16 17:20:26 1510870826.395741: $GPZDA,222025.00,16,11,2017,00,00*60
2017-11-16 17:20:26 1510870826.395917: $GPGGA,222025,3946.9570,N,08404.9831,W,2,12,0.80,309.16,M,-33.324,M,,*70
2017-11-16 17:20:26 1510870826.395980: $GPRMC,222025,A,3946.9570,N,08404.9831,W,0.0000,0.000,161117,,*33
2017-11-16 17:20:26 1510870826.396037: $GPGSA,A,3,1,10,22,12,14,18,24,11,25,31,32,138,1.6,0.8,1.3*38
2017-11-16 17:20:27 1510870827.731507: $GPGSV,3,1,12,01,20,306,41,10,54,145,49,22,14,312,42,12,24,055,50*75
2017-11-16 17:20:27 1510870827.731743: $GPGSV,3,2,12,14,63,316,47,18,24,142,42,24,02,048,16,11,10,288,38*75
2017-11-16 17:20:27 1510870827.731811: $GPGSV,3,3,12,25,38,097,48,31,49,220,49,32,70,010,49,138,38,213,44*4D
2017-11-16 17:20:27 1510870827.844825: $GPZDA,222026.00,16,11,2017,00,00*63
2017-11-16 17:20:27 1510870827.844990: $GPGGA,222026,3946.9570,N,08404.9831,W,2,12,0.80,309.16,M,-33.324,M,,*73
2017-11-16 17:20:27 1510870827.845097: $GPRMC,222026,A,3946.9570,N,08404.9831,W,0.0000,0.000,161117,,*30
2017-11-16 17:20:27 1510870827.845155: $GPGSA,A,3,1,10,22,12,14,18,24,11,25,31,32,138,1.6,0.8,1.3*38
2017-11-16 17:20:28 1510870828.395928: $GPZDA,222027.00,16,11,2017,00,00*62
2017-11-16 17:20:28 1510870828.396097: $GPGGA,222027,3946.9570,N,08404.9831,W,2,12,0.80,309.16,M,-33.324,M,,*72
2017-11-16 17:20:28 1510870828.396159: $GPRMC,222027,A,3946.9570,N,08404.9831,W,0.0000,0.000,161117,,*31
2017-11-16 17:20:28 1510870828.396214: $GPGSA,A,3,1,10,22,12,14,18,24,11,25,31,32,138,1.6,0.8,1.3*38
2017-11-16 17:20:29 1510870829.401563: $GPZDA,222028.00,16,11,2017,00,00*6D
2017-11-16 17:20:29 1510870829.401741: $GPGGA,222028,3946.9570,N,08404.9831,W,2,12,0.80,309.16,M,-33.324,M,,*7D
2017-11-16 17:20:29 1510870829.401806: $GPRMC,222028,A,3946.9570,N,08404.9831,W,0.0000,0.000,161117,,*3E
2017-11-16 17:20:29 1510870829.401862: $GPGSA,A,3,1,10,22,12,14,18,24,11,25,31,32,138,1.6,0.8,1.3*38
