2017-11-16 14:11:26 1510859486.238001: {"class":"VERSION","release":"3.17","rev":"3.17","proto_major":3,"proto_minor":12}
2017-11-16 14:11:26 1510859486.238505: {"class":"DEVICES","devices":[{"class":"DEVICE","path":"/dev/ttyUSB0","driver":"SiRF","subtype":"9\u0006GSD4e_4.1.2-P1_RPATCH.05-F-GPS-4R-1510281 11/03/2015 307","activated":"2017-11-16T19:11:25.706Z","flags":1,"native":1,"bps":4800,"parity":"N","stopbits":1,"cycle":1.00}]}
2017-11-16 14:11:26 1510859486.238641: {"class":"WATCH","enable":true,"json":false,"nmea":true,"raw":0,"scaled":false,"timing":false,"split24":false,"pps":false}
2017-11-16 14:11:26 1510859486.556792: $GPZDA,191125.00,16,11,2017,00,00*6A
2017-11-16 14:11:26 1510859486.556952: $GPGGA,191125,3946.9546,N,08404.9852,W,1,11,0.80,305.08,M,-33.324,M,,*79
2017-11-16 14:11:26 1510859486.557012: $GPRMC,191125,A,3946.9546,N,08404.9852,W,0.0000,0.000,161117,,*39
2017-11-16 14:11:26 1510859486.557068: $GPGSA,A,3,8,10,13,15,18,21,20,24,27,32,138,,1.6,0.8,1.3*30
2017-11-16 14:11:27 1510859487.891119: $GPGSV,3,1,12,08,06,322,39,10,41,300,41,13,08,048,30,15,38,052,50*75
2017-11-16 14:11:27 1510859487.891266: $GPGSV,3,2,12,18,70,334,47,21,65,192,46,20,33,096,46,24,50,111,48*7B
2017-11-16 14:11:27 1510859487.891326: $GPGSV,3,3,12,27,19,289,38,32,20,237,45,14,04,232,00,138,38,213,45*49
2017-11-16 14:11:28 1510859488.004607: $GPZDA,191126.00,16,11,2017,00,00*69
2017-11-16 14:11:28 1510859488.004805: $GPGGA,191126,3946.9546,N,08404.9852,W,1,11,0.80,305.08,M,-33.324,M,,*7A
2017-11-16 14:11:28 1510859488.004868: $GPRMC,191126,A,3946.9546,N,08404.9852,W,0.0000,0.000,161117,,*3A
2017-11-16 14:11:28 1510859488.004925: $GPGSA,A,3,8,10,13,15,18,21,20,24,27,32,138,,1.6,0.8,1.3*30
2017-11-16 14:11:28 1510859488.529067: $GPZDA,191127.00,16,11,2017,00,00*68
2017-11-16 14:11:28 1510859488.529233: $GPGGA,191127,3946.9546,N,08404.9852,W,1,11,0.80,305.08,M,-33.324,M,,*7B
2017-11-16 14:11:28 1510859488.529295: $GPRMC,191127,A,3946.9546,N,08404.9852,W,0.0000,0.000,161117,,*3B
2017-11-16 14:11:28 1510859488.529351: $GPGSA,A,3,8,10,13,15,18,21,20,24,27,32,138,,1.6,0.8,1.3*30
2017-11-16 14:11:29 1510859489.528207: $GPZDA,191128.00,16,11,2017,00,00*67
2017-11-16 14:11:29 1510859489.528370: $GPGGA,191128,3946.9546,N,08404.9852,W,1,11,0.80,305.08,M,-33.324,M,,*74
2017-11-16 14:11:29 1510859489.528432: $GPRMC,191128,A,3946.9546,N,08404.9852,W,0.0000,0.000,161117,,*34
2017-11-16 14:11:29 1510859489.528488: $GPGSA,A,3,8,10,13,15,18,21,20,24,27,32,138,,1.6,0.8,1.3*30
2017-11-16 14:11:30 1510859490.864015: $GPGSV,3,1,12,08,06,322,40,10,41,300,41,13,08,048,29,15,38,052,50*73
2017-11-16 14:11:30 1510859490.864185: $GPGSV,3,2,12,18,70,334,47,21,65,192,47,20,33,096,46,24,50,111,48*7A
2017-11-16 14:11:30 1510859490.864246: $GPGSV,3,3,12,27,19,289,39,32,20,237,44,14,04,232,00,138,38,213,44*48
2017-11-16 14:11:30 1510859490.977338: $GPZDA,191129.00,16,11,2017,00,00*66
2017-11-16 14:11:30 1510859490.977500: $GPGGA,191129,3946.9546,N,08404.9852,W,1,11,0.80,305.08,M,-33.324,M,,*75
2017-11-16 14:11:30 1510859490.977561: $GPRMC,191129,A,3946.9546,N,08404.9852,W,0.0000,0.000,161117,,*35
2017-11-16 14:11:30 1510859490.977617: $GPGSA,A,3,8,10,13,15,18,21,20,24,27,32,138,,1.6,0.8,1.3*30
2017-11-16 14:11:31 1510859491.555739: $GPZDA,191130.00,16,11,2017,00,00*6E
2017-11-16 14:11:31 1510859491.555923: $GPGGA,191130,3946.9546,N,08404.9852,W,1,11,0.80,305.08,M,-33.324,M,,*7D
2017-11-16 14:11:31 1510859491.555986: $GPRMC,191130,A,3946.9546,N,08404.9852,W,0.0000,0.000,161117,,*3D
2017-11-16 14:11:31 1510859491.556042: $GPGSA,A,3,8,10,13,15,18,21,20,24,27,32,138,,1.6,0.8,1.3*30
2017-11-16 14:11:32 1510859492.529100: $GPZDA,191131.00,16,11,2017,00,00*6F
2017-11-16 14:11:32 1510859492.529261: $GPGGA,191131,3946.9546,N,08404.9852,W,1,11,0.80,305.08,M,-33.324,M,,*7C
2017-11-16 14:11:32 1510859492.529322: $GPRMC,191131,A,3946.9546,N,08404.9852,W,0.0000,0.000,161117,,*3C
2017-11-16 14:11:32 1510859492.529378: $GPGSA,A,3,8,10,13,15,18,21,20,24,27,32,138,,1.6,0.8,1.3*30
2017-11-16 14:11:33 1510859493.894907: $GPGSV,3,1,12,08,06,322,40,10,41,300,40,13,08,048,29,15,38,052,50*72
2017-11-16 14:11:33 1510859493.895125: $GPGSV,3,2,12,18,70,334,47,21,65,192,46,20,33,096,45,24,50,111,48*78
2017-11-16 14:11:33 1510859493.895188: $GPGSV,3,3,12,27,19,289,40,32,20,237,44,14,04,232,00,138,38,213,44*46
2017-11-16 14:11:34 1510859494.008209: $GPZDA,191132.00,16,11,2017,00,00*6C
2017-11-16 14:11:34 1510859494.008369: $GPGGA,191132,3946.9546,N,08404.9852,W,1,11,0.80,305.08,M,-33.324,M,,*7F
2017-11-16 14:11:34 1510859494.008430: $GPRMC,191132,A,3946.9546,N,08404.9852,W,0.0000,0.000,161117,,*3F
2017-11-16 14:11:34 1510859494.008487: $GPGSA,A,3,8,10,13,15,18,21,20,24,27,32,138,,1.6,0.8,1.3*30
2017-11-16 14:11:34 1510859494.633759: $GPZDA,191133.00,16,11,2017,00,00*6D
2017-11-16 14:11:34 1510859494.633939: $GPGGA,191133,3946.9546,N,08404.9852,W,1,11,0.80,305.08,M,-33.324,M,,*7E
2017-11-16 14:11:34 1510859494.634000: $GPRMC,191133,A,3946.9546,N,08404.9852,W,0.0000,0.000,161117,,*3E
2017-11-16 14:11:34 1510859494.634055: $GPGSA,A,3,8,10,13,15,18,21,20,24,27,32,138,,1.6,0.8,1.3*30
2017-11-16 14:11:35 1510859495.528461: $GPZDA,191134.00,16,11,2017,00,00*6A
2017-11-16 14:11:35 1510859495.528655: $GPGGA,191134,3946.9546,N,08404.9852,W,1,11,0.80,305.08,M,-33.324,M,,*79
2017-11-16 14:11:35 1510859495.528763: $GPRMC,191134,A,3946.9546,N,08404.9852,W,0.0000,0.000,161117,,*39
2017-11-16 14:11:35 1510859495.528843: $GPGSA,A,3,8,10,13,15,18,21,20,24,27,32,138,,1.6,0.8,1.3*30
