2017-12-14 12:04:51 1513271091.367372: {"class":"VERSION","release":"3.16","rev":"3.16-4","proto_major":3,"proto_minor":11}
2017-12-14 12:04:51 1513271091.367767: {"class":"DEVICES","devices":[{"class":"DEVICE","path":"/dev/ttyUSB0","driver":"SiRF","subtype":"9\u0006GSD4e_4.1.2-P1_RPATCH.05-F-GPS-4R-1510281 11/03/2015 307","activated":"2017-12-14T17:04:51.343Z","flags":1,"native":1,"bps":4800,"parity":"N","stopbits":1,"cycle":1.00}]}
2017-12-14 12:04:51 1513271091.367985: {"class":"WATCH","enable":true,"json":false,"nmea":true,"raw":0,"scaled":false,"timing":false,"split24":false,"pps":false}
2017-12-14 12:04:52 1513271092.518832: $GPGSV,3,1,11,21,69,195,20,24,47,120,26,15,43,051,22,18,67,325,00*71
2017-12-14 12:04:52 1513271092.518983: $GPGSV,3,2,11,20,39,090,22,32,16,234,15,27,19,295,09,13,13,046,08*7E
2017-12-14 12:04:52 1513271092.519049: $GPGSV,3,3,11,10,37,297,00,08,03,327,00,138,38,213,00*7C
2017-12-14 12:04:52 1513271092.632310: $GPZDA,170453.00,14,12,2017,00,00*60
2017-12-14 12:04:52 1513271092.632504: $GPGGA,170453,3946.9565,N,08404.9322,W,1,07,3.00,341.66,M,-33.324,M,,*7B
2017-12-14 12:04:52 1513271092.632571: $GPRMC,170453,A,3946.9565,N,08404.9322,W,0.7238,140.710,141217,,*33
2017-12-14 12:04:52 1513271092.632633: $GPGSA,A,3,21,24,15,20,32,27,13,,,,,,6.6,3.0,6.2*30
2017-12-14 12:04:53 1513271093.182454: $GPZDA,170454.00,14,12,2017,00,00*67
2017-12-14 12:04:53 1513271093.182616: $GPGGA,170454,3946.9565,N,08404.9322,W,1,07,3.00,341.66,M,-33.324,M,,*7C
2017-12-14 12:04:53 1513271093.182682: $GPRMC,170454,A,3946.9565,N,08404.9322,W,0.2422,93.795,141217,,*0E
2017-12-14 12:04:53 1513271093.182743: $GPGSA,A,3,21,24,15,20,32,27,13,,,,,,6.6,3.0,6.2*30
2017-12-14 12:04:54 1513271094.183770: $GPZDA,170455.00,14,12,2017,00,00*66
2017-12-14 12:04:54 1513271094.183957: $GPGGA,170455,3946.9565,N,08404.9322,W,1,07,3.00,341.66,M,-33.324,M,,*7D
2017-12-14 12:04:54 1513271094.184024: $GPRMC,170455,A,3946.9565,N,08404.9322,W,0.4179,148.779,141217,,*37
2017-12-14 12:04:54 1513271094.184085: $GPGSA,A,3,21,24,15,20,32,27,13,,,,,,6.6,3.0,6.2*30
2017-12-14 12:04:55 1513271095.518727: $GPGSV,3,1,11,21,69,195,19,24,47,120,26,15,43,051,22,18,67,325,15*7F
2017-12-14 12:04:55 1513271095.518902: $GPGSV,3,2,11,20,39,090,21,32,16,234,15,27,19,295,05,13,13,046,05*7C
2017-12-14 12:04:55 1513271095.518966: $GPGSV,3,3,11,10,37,297,00,08,03,327,00,138,38,213,00*7C
2017-12-14 12:04:55 1513271095.632324: $GPZDA,170456.00,14,12,2017,00,00*65
2017-12-14 12:04:55 1513271095.632537: $GPGGA,170456,3946.9573,N,08404.9328,W,1,06,3.00,341.45,M,-33.324,M,,*73
2017-12-14 12:04:55 1513271095.632604: $GPRMC,170456,A,3946.9573,N,08404.9328,W,0.4207,39.347,141217,,*0D
2017-12-14 12:04:55 1513271095.632664: $GPGSA,A,3,21,24,15,20,32,27,,,,,,,6.6,3.0,6.2*32
2017-12-14 12:04:56 1513271096.183803: $GPZDA,170457.00,14,12,2017,00,00*64
2017-12-14 12:04:56 1513271096.186603: $GPGGA,170457,3946.9573,N,08404.9328,W,1,06,3.00,341.45,M,-33.324,M,,*72
2017-12-14 12:04:56 1513271096.186703: $GPRMC,170457,A,3946.9573,N,08404.9328,W,0.7278,23.637,141217,,*0E
2017-12-14 12:04:56 1513271096.186766: $GPGSA,A,3,21,24,15,20,32,27,,,,,,,6.6,3.0,6.2*32
2017-12-14 12:04:57 1513271097.199358: $GPZDA,170458.00,14,12,2017,00,00*6B
2017-12-14 12:04:57 1513271097.199564: $GPGGA,170458,3946.9580,N,08404.9327,W,1,06,3.00,341.33,M,-33.324,M,,*7F
2017-12-14 12:04:57 1513271097.199649: $GPRMC,170458,A,3946.9580,N,08404.9327,W,1.2132,3.552,141217,,*39
2017-12-14 12:04:57 1513271097.199712: $GPGSA,A,3,21,24,15,20,32,27,,,,,,,6.6,3.0,6.2*32
2017-12-14 12:04:58 1513271098.518148: $GPGSV,3,1,11,21,69,195,18,24,47,120,27,15,43,051,22,18,67,325,00*7B
2017-12-14 12:04:58 1513271098.518321: $GPGSV,3,2,11,20,39,090,21,32,16,234,15,27,19,295,04,13,13,046,04*7C
2017-12-14 12:04:58 1513271098.518402: $GPGSV,3,3,11,10,37,297,00,08,03,327,00,138,38,213,00*7C
2017-12-14 12:04:58 1513271098.630239: $GPZDA,170459.00,14,12,2017,00,00*6A
2017-12-14 12:04:58 1513271098.630442: $GPGGA,170459,3946.9588,N,08404.9333,W,1,05,3.00,341.12,M,-33.324,M,,*73
2017-12-14 12:04:58 1513271098.630508: $GPRMC,170459,A,3946.9588,N,08404.9333,W,1.5738,12.547,141217,,*0A
2017-12-14 12:04:58 1513271098.630622: $GPGSA,A,3,21,24,15,20,32,,,,,,,,6.6,3.0,6.2*37
2017-12-14 12:04:59 1513271099.198150: $GPZDA,170500.00,14,12,2017,00,00*67
2017-12-14 12:04:59 1513271099.198341: $GPGGA,170500,3946.9588,N,08404.9326,W,1,05,3.00,341.20,M,-33.324,M,,*7B
2017-12-14 12:04:59 1513271099.198426: $GPRMC,170500,A,3946.9588,N,08404.9326,W,1.1385,29.379,141217,,*06
2017-12-14 12:04:59 1513271099.198488: $GPGSA,A,3,21,24,15,20,32,,,,,,,,6.6,3.0,6.2*37
2017-12-14 12:05:00 1513271100.182009: $GPZDA,170501.00,14,12,2017,00,00*66
2017-12-14 12:05:00 1513271100.182355: $GPGGA,170501,3946.9596,N,08404.9333,W,1,05,3.00,341.00,M,-33.324,M,,*73
2017-12-14 12:05:00 1513271100.182486: $GPRMC,170501,A,3946.9596,N,08404.9333,W,1.5555,3.694,141217,,*3D
2017-12-14 12:05:00 1513271100.182604: $GPGSA,A,3,21,24,15,20,32,,,,,,,,6.6,3.0,6.2*37
2017-12-14 12:05:01 1513271101.534195: $GPGSV,3,1,11,21,69,195,18,24,47,120,27,15,43,051,22,18,67,325,00*7B
2017-12-14 12:05:01 1513271101.534407: $GPGSV,3,2,11,20,39,090,21,32,16,234,15,27,19,295,04,13,13,046,04*7C
2017-12-14 12:05:01 1513271101.534474: $GPGSV,3,3,11,10,37,297,00,08,03,327,00,138,38,213,00*7C
2017-12-14 12:05:01 1513271101.647566: $GPZDA,170502.00,14,12,2017,00,00*65
2017-12-14 12:05:01 1513271101.647721: $GPGGA,170502,3946.9596,N,08404.9333,W,1,05,3.00,341.00,M,-33.324,M,,*70
2017-12-14 12:05:01 1513271101.647788: $GPRMC,170502,A,3946.9596,N,08404.9333,W,1.0002,334.332,141217,,*32
2017-12-14 12:05:01 1513271101.647849: $GPGSA,A,3,21,24,15,20,32,,,,,,,,6.6,3.0,6.2*37
2017-12-14 12:05:02 1513271102.197261: $GPZDA,170503.00,14,12,2017,00,00*64
2017-12-14 12:05:02 1513271102.197429: $GPGGA,170503,3946.9596,N,08404.9340,W,1,05,3.00,340.92,M,-33.324,M,,*7F
2017-12-14 12:05:02 1513271102.197499: $GPRMC,170503,A,3946.9596,N,08404.9340,W,0.5857,338.291,141217,,*3F
2017-12-14 12:05:02 1513271102.197562: $GPGSA,A,3,21,24,15,20,32,,,,,,,,6.6,3.0,6.2*37
2017-12-14 12:05:03 1513271103.198584: $GPZDA,170504.00,14,12,2017,00,00*63
2017-12-14 12:05:03 1513271103.198774: $GPGGA,170504,3946.9600,N,08404.9340,W,1,05,3.00,341.56,M,-33.324,M,,*7D
2017-12-14 12:05:03 1513271103.198841: $GPRMC,170504,A,3946.9600,N,08404.9340,W,0.5857,338.291,141217,,*34
2017-12-14 12:05:03 1513271103.198902: $GPGSA,A,3,21,24,15,20,32,,,,,,,,6.6,3.0,6.2*37
2017-12-14 12:05:04 1513271104.534812: $GPGSV,3,1,11,21,69,195,18,24,47,120,28,15,43,051,22,18,67,325,00*74
2017-12-14 12:05:04 1513271104.534956: $GPGSV,3,2,11,20,39,090,21,32,16,234,15,27,19,295,12,13,13,046,04*7B
2017-12-14 12:05:04 1513271104.535020: $GPGSV,3,3,11,10,37,297,00,08,03,327,00,138,38,213,00*7C
2017-12-14 12:05:04 1513271104.648478: $GPZDA,170505.00,14,12,2017,00,00*62
2017-12-14 12:05:04 1513271104.648644: $GPGGA,170505,3946.9601,N,08404.9347,W,1,06,3.00,341.48,M,-33.324,M,,*76
2017-12-14 12:05:04 1513271104.648709: $GPRMC,170505,A,3946.9601,N,08404.9347,W,0.2422,273.795,141217,,*35
2017-12-14 12:05:04 1513271104.648770: $GPGSA,A,3,21,24,15,20,32,27,,,,,,,6.6,3.0,6.2*32
2017-12-14 12:05:05 1513271105.199841: $GPZDA,170506.00,14,12,2017,00,00*61
2017-12-14 12:05:05 1513271105.200011: $GPGGA,170506,3946.9601,N,08404.9347,W,1,06,3.00,341.48,M,-33.324,M,,*75
2017-12-14 12:05:05 1513271105.200077: $GPRMC,170506,A,3946.9601,N,08404.9347,W,0.5912,309.173,141217,,*3D
2017-12-14 12:05:05 1513271105.200138: $GPGSA,A,3,21,24,15,20,32,27,,,,,,,6.6,3.0,6.2*32
2017-12-14 12:05:06 1513271106.198450: $GPZDA,170507.00,14,12,2017,00,00*60
2017-12-14 12:05:06 1513271106.198608: $GPGGA,170507,3946.9597,N,08404.9347,W,1,06,3.00,342.25,M,-33.324,M,,*70
2017-12-14 12:05:06 1513271106.198674: $GPRMC,170507,A,3946.9597,N,08404.9347,W,0.5306,294.353,141217,,*3A
2017-12-14 12:05:06 1513271106.198737: $GPGSA,A,3,21,24,15,20,32,27,,,,,,,6.6,3.0,6.2*32
2017-12-14 12:05:07 1513271107.531680: $GPGSV,3,1,11,21,69,195,18,24,47,120,28,15,43,051,22,18,67,325,15*70
2017-12-14 12:05:07 1513271107.531861: $GPGSV,3,2,11,20,39,090,21,32,16,234,04,27,19,295,04,13,13,046,04*7C
2017-12-14 12:05:07 1513271107.531979: $GPGSV,3,3,11,10,37,297,00,08,03,327,00,120,07,103,00*7B
2017-12-14 12:05:07 1513271107.644014: $GPRMC,170508,V,3946.9598,N,08404.9354,W,0.5306,294.353,141217,,*2F
2017-12-14 12:05:07 1513271107.644160: $GPGSA,A,1,21,24,15,20,,,,,,,,,,,,*31
2017-12-14 12:05:08 1513271108.177896: $GPRMC,170509,V,3946.9601,N,08404.9354,W,0.5306,294.353,141217,,*2D
2017-12-14 12:05:08 1513271108.178039: $GPGSA,A,1,21,24,15,20,,,,,,,,,,,,*31
2017-12-14 12:05:09 1513271109.193114: $GPRMC,170510,V,3946.9601,N,08404.9354,W,0.5306,294.353,141217,,*25
2017-12-14 12:05:09 1513271109.193450: $GPGSA,A,1,21,24,15,20,,,,,,,,,,,,*31
2017-12-14 12:05:10 1513271110.517828: $GPGSV,3,1,11,21,69,195,18,24,47,120,28,15,43,051,22,18,67,325,00*74
2017-12-14 12:05:10 1513271110.518005: $GPGSV,3,2,11,20,39,090,21,32,16,234,14,27,19,295,04,13,13,046,04*7D
2017-12-14 12:05:10 1513271110.518071: $GPGSV,3,3,11,10,37,297,00,08,03,327,00,120,07,103,00*7B
2017-12-14 12:05:10 1513271110.631164: $GPZDA,170511.05,14,12,2017,00,00*62
2017-12-14 12:05:10 1513271110.631358: $GPGGA,170511,3946.9597,N,08404.9347,W,1,05,3.00,342.25,M,-33.324,M,,*74
2017-12-14 12:05:10 1513271110.631425: $GPRMC,170511,A,3946.9597,N,08404.9347,W,0.4844,93.795,141217,,*0A
2017-12-14 12:05:10 1513271110.631502: $GPGSA,A,3,21,24,15,20,32,,,,,,,,6.6,3.0,6.2*37
2017-12-14 12:05:10 1513271110.631559: $GPGBS,170511,24.66,M,21.80,M,143.40,M*32
2017-12-14 12:05:11 1513271111.197860: $GPZDA,170512.05,14,12,2017,00,00*61
2017-12-14 12:05:11 1513271111.198028: $GPGGA,170512,3946.9597,N,08404.9340,W,1,05,3.00,342.33,M,-33.324,M,,*77
2017-12-14 12:05:11 1513271111.198094: $GPRMC,170512,A,3946.9597,N,08404.9340,W,0.9689,93.795,141217,,*0C
2017-12-14 12:05:11 1513271111.198154: $GPGSA,A,3,21,24,15,20,32,,,,,,,,6.6,3.0,6.2*37
2017-12-14 12:05:11 1513271111.198233: $GPGBS,170512,24.66,M,21.80,M,143.40,M*31
