2017-11-15 18:35:28 1510788928.893769: {"class":"VERSION","release":"3.17","rev":"3.17","proto_major":3,"proto_minor":12}
2017-11-15 18:35:28 1510788928.894245: {"class":"DEVICES","devices":[{"class":"DEVICE","path":"/dev/ttyUSB0","driver":"SiRF","subtype":"9\u0006GSD4e_4.1.2-P1_RPATCH.05-F-GPS-4R-1510281 11/03/2015 307","activated":"2017-11-15T23:35:28.502Z","flags":1,"native":1,"bps":4800,"parity":"N","stopbits":1,"cycle":1.00}]}
2017-11-15 18:35:28 1510788928.894370: {"class":"WATCH","enable":true,"json":false,"nmea":true,"raw":0,"scaled":false,"timing":false,"split24":false,"pps":false}
2017-11-15 18:35:29 1510788929.327078: $GPZDA,233528.00,15,11,2017,00,00*6B
2017-11-15 18:35:29 1510788929.327278: $GPGGA,233528,3946.9528,N,08404.9464,W,1,07,3.00,288.81,M,-33.324,M,,*73
2017-11-15 18:35:29 1510788929.327340: $GPRMC,233528,A,3946.9528,N,08404.9464,W,2.0996,356.821,151117,,*36
2017-11-15 18:35:29 1510788929.327396: $GPGSA,A,3,25,14,1,31,32,10,26,,,,,,3.4,3.0,2.9*08
2017-11-15 18:35:30 1510788930.698824: $GPGSV,3,1,11,25,35,055,24,14,69,042,20,22,40,301,01,01,18,274,05*79
2017-11-15 18:35:30 1510788930.699013: $GPGSV,3,2,11,31,78,283,26,32,55,079,15,03,21,315,00,10,21,157,17*73
2017-11-15 18:35:30 1510788930.699074: $GPGSV,3,3,11,26,26,178,11,12,06,031,00,135,23,238,00*7F
2017-11-15 18:35:30 1510788930.812244: $GPZDA,233529.00,15,11,2017,00,00*6A
2017-11-15 18:35:30 1510788930.812403: $GPGGA,233529,3946.9532,N,08404.9464,W,1,06,3.00,288.05,M,-33.324,M,,*74
2017-11-15 18:35:30 1510788930.812464: $GPRMC,233529,A,3946.9532,N,08404.9464,W,1.5738,12.547,151117,,*0E
2017-11-15 18:35:30 1510788930.812520: $GPGSA,A,3,25,14,31,32,10,26,,,,,,,3.4,3.0,2.9*39
2017-11-15 18:35:31 1510788931.438092: $GPZDA,233530.00,15,11,2017,00,00*62
2017-11-15 18:35:31 1510788931.438270: $GPGGA,233530,3946.9536,N,08404.9464,W,1,06,3.00,288.69,M,-33.324,M,,*72
2017-11-15 18:35:31 1510788931.438352: $GPRMC,233530,A,3946.9536,N,08404.9464,W,1.5555,3.694,151117,,*36
2017-11-15 18:35:31 1510788931.438424: $GPGSA,A,3,25,14,31,32,10,26,,,,,,,3.4,3.0,2.9*39
2017-11-15 18:35:32 1510788932.363453: $GPZDA,233531.00,15,11,2017,00,00*63
2017-11-15 18:35:32 1510788932.363629: $GPGGA,233531,3946.9540,N,08404.9464,W,1,06,3.00,289.33,M,-33.324,M,,*7C
2017-11-15 18:35:32 1510788932.363691: $GPRMC,233531,A,3946.9540,N,08404.9464,W,1.8977,3.784,151117,,*37
2017-11-15 18:35:32 1510788932.363747: $GPGSA,A,3,25,14,31,32,10,26,,,,,,,3.4,3.0,2.9*39
2017-11-15 18:35:33 1510788933.699189: $GPGSV,3,1,11,25,35,055,24,14,69,042,20,22,40,301,12,01,18,274,04*7A
2017-11-15 18:35:33 1510788933.699340: $GPGSV,3,2,11,31,78,283,26,32,55,079,15,12,06,031,16,10,21,157,17*74
2017-11-15 18:35:33 1510788933.699420: $GPGSV,3,3,11,26,26,178,10,03,21,315,00,135,23,238,00*7E
2017-11-15 18:35:33 1510788933.812598: $GPZDA,233532.00,15,11,2017,00,00*60
2017-11-15 18:35:33 1510788933.812857: $GPGGA,233532,3946.9544,N,08404.9470,W,1,06,3.00,288.48,M,-33.324,M,,*73
2017-11-15 18:35:33 1510788933.812921: $GPRMC,233532,A,3946.9544,N,08404.9470,W,2.0996,356.821,151117,,*32
2017-11-15 18:35:33 1510788933.812978: $GPGSA,A,3,25,14,31,32,10,26,,,,,,,3.4,3.0,2.9*39
2017-11-15 18:35:34 1510788934.328404: $GPZDA,233533.00,15,11,2017,00,00*61
2017-11-15 18:35:34 1510788934.328628: $GPGGA,233533,3946.9548,N,08404.9470,W,1,06,1.40,289.12,M,-33.324,M,,*76
2017-11-15 18:35:34 1510788934.328692: $GPRMC,233533,A,3946.9548,N,08404.9470,W,1.9587,349.465,151117,,*3B
2017-11-15 18:35:34 1510788934.328748: $GPGSA,A,3,25,14,31,32,10,26,,,,,,,3.4,1.4,2.9*3F
2017-11-15 18:35:35 1510788935.363041: $GPZDA,233534.00,15,11,2017,00,00*66
2017-11-15 18:35:35 1510788935.363232: $GPGGA,233534,3946.9556,N,08404.9469,W,1,06,1.40,289.00,M,-33.324,M,,*75
2017-11-15 18:35:35 1510788935.363296: $GPRMC,233534,A,3946.9556,N,08404.9469,W,1.7607,355.391,151117,,*3F
2017-11-15 18:35:35 1510788935.363373: $GPGSA,A,3,25,14,31,32,10,26,,,,,,,3.4,1.4,2.9*3F
2017-11-15 18:35:36 1510788936.698291: $GPGSV,3,1,11,25,35,055,24,14,69,042,20,22,40,301,20,01,18,274,04*7B
2017-11-15 18:35:36 1510788936.698501: $GPGSV,3,2,11,31,78,283,26,32,55,079,15,03,21,315,00,10,21,157,17*73
2017-11-15 18:35:36 1510788936.698614: $GPGSV,3,3,11,26,26,178,10,12,06,031,00,135,23,238,00*7E
2017-11-15 18:35:36 1510788936.811681: $GPZDA,233535.00,15,11,2017,00,00*67
2017-11-15 18:35:36 1510788936.811846: $GPGGA,233535,3946.9556,N,08404.9476,W,1,07,1.40,288.92,M,-33.324,M,,*71
2017-11-15 18:35:36 1510788936.811909: $GPRMC,233535,A,3946.9556,N,08404.9476,W,1.5746,354.845,151117,,*35
2017-11-15 18:35:36 1510788936.811964: $GPGSA,A,3,25,14,22,31,32,10,26,,,,,,3.4,1.4,2.9*3F
2017-11-15 18:35:37 1510788937.327537: $GPZDA,233536.00,15,11,2017,00,00*64
2017-11-15 18:35:37 1510788937.327689: $GPGGA,233536,3946.9560,N,08404.9476,W,1,07,3.00,289.56,M,-33.324,M,,*78
2017-11-15 18:35:37 1510788937.327751: $GPRMC,233536,A,3946.9560,N,08404.9476,W,1.3082,341.818,151117,,*36
2017-11-15 18:35:37 1510788937.327808: $GPGSA,A,3,25,14,22,31,32,10,26,,,,,,3.4,3.0,2.9*39
2017-11-15 18:35:38 1510788938.328386: $GPZDA,233537.00,15,11,2017,00,00*65
2017-11-15 18:35:38 1510788938.328573: $GPGGA,233537,3946.9563,N,08404.9475,W,1,07,3.00,288.79,M,-33.324,M,,*75
2017-11-15 18:35:38 1510788938.328636: $GPRMC,233537,A,3946.9563,N,08404.9475,W,0.6846,4.197,151117,,*3F
2017-11-15 18:35:38 1510788938.328692: $GPGSA,A,3,25,14,22,31,32,10,26,,,,,,3.4,3.0,2.9*39
2017-11-15 18:35:39 1510788939.697914: $GPGSV,3,1,11,25,35,055,24,14,69,042,19,22,40,301,00,01,18,274,04*73
2017-11-15 18:35:39 1510788939.698119: $GPGSV,3,2,11,31,78,283,26,32,55,079,14,03,21,315,00,10,21,157,17*72
2017-11-15 18:35:39 1510788939.700597: $GPGSV,3,3,11,26,26,178,08,12,06,031,00,135,23,238,00*77
2017-11-15 18:35:39 1510788939.811266: $GPZDA,233538.00,15,11,2017,00,00*6A
2017-11-15 18:35:39 1510788939.811486: $GPGGA,233538,3946.9564,N,08404.9482,W,1,06,3.00,288.71,M,-33.324,M,,*7C
2017-11-15 18:35:39 1510788939.811551: $GPRMC,233538,A,3946.9564,N,08404.9482,W,0.8709,3.298,151117,,*3E
2017-11-15 18:35:39 1510788939.811608: $GPGSA,A,3,25,14,31,32,10,26,,,,,,,3.4,3.0,2.9*39
2017-11-15 18:35:40 1510788940.328390: $GPZDA,233539.00,15,11,2017,00,00*6B
2017-11-15 18:35:40 1510788940.328583: $GPGGA,233539,3946.9564,N,08404.9482,W,1,06,1.20,288.71,M,-33.324,M,,*7D
2017-11-15 18:35:40 1510788940.328646: $GPRMC,233539,A,3946.9564,N,08404.9482,W,1.0002,334.331,151117,,*3F
2017-11-15 18:35:40 1510788940.328703: $GPGSA,A,3,25,14,31,32,10,26,,,,,,,3.4,1.2,2.9*39
2017-11-15 18:35:41 1510788941.362494: $GPZDA,233540.00,15,11,2017,00,00*65
2017-11-15 18:35:41 1510788941.362663: $GPGGA,233540,3946.9568,N,08404.9489,W,1,06,1.20,289.28,M,-33.324,M,,*79
2017-11-15 18:35:41 1510788941.362724: $GPRMC,233540,A,3946.9568,N,08404.9489,W,0.9948,317.276,151117,,*3A
2017-11-15 18:35:41 1510788941.362781: $GPGSA,A,3,25,14,31,32,10,26,,,,,,,3.4,1.2,2.9*39
2017-11-15 18:35:42 1510788942.664532: $GPGSV,3,1,11,25,35,055,23,14,69,042,18,22,40,301,19,01,18,274,16*7E
2017-11-15 18:35:42 1510788942.664689: $GPGSV,3,2,11,31,78,283,26,32,55,079,10,03,21,315,00,10,21,157,17*76
2017-11-15 18:35:42 1510788942.664749: $GPGSV,3,3,11,26,26,178,07,12,06,031,00,135,23,238,00*78
2017-11-15 18:35:42 1510788942.777893: $GPZDA,233541.00,15,11,2017,00,00*64
2017-11-15 18:35:42 1510788942.778055: $GPGGA,233541,3946.9568,N,08404.9489,W,1,08,1.20,289.28,M,-33.324,M,,*76
2017-11-15 18:35:42 1510788942.778116: $GPRMC,233541,A,3946.9568,N,08404.9489,W,0.4179,328.778,151117,,*3B
2017-11-15 18:35:42 1510788942.778172: $GPGSA,A,3,25,14,22,1,31,32,10,26,,,,,3.4,1.2,2.9*08
2017-11-15 18:35:43 1510788943.362507: $GPZDA,233542.00,15,11,2017,00,00*67
2017-11-15 18:35:43 1510788943.362674: $GPGGA,233542,3946.9568,N,08404.9489,W,1,08,1.20,289.28,M,-33.324,M,,*75
2017-11-15 18:35:43 1510788943.362738: $GPRMC,233542,A,3946.9568,N,08404.9489,W,0.2422,273.794,151117,,*38
2017-11-15 18:35:43 1510788943.362794: $GPGSA,A,3,25,14,22,1,31,32,10,26,,,,,3.4,1.2,2.9*08
