2017-12-29 10:38:55 1514561935.797800: {"class":"VERSION","release":"3.16","rev":"3.16-4","proto_major":3,"proto_minor":11}
2017-12-29 10:38:55 1514561935.798145: {"class":"DEVICES","devices":[{"class":"DEVICE","path":"/dev/ttyUSB0","driver":"SiRF","subtype":"9\u0006GSD4e_4.1.2-P1_RPATCH.05-F-GPS-4R-1510281 11/03/2015 307","activated":"2017-12-29T15:38:55.779Z","flags":1,"native":1,"bps":4800,"parity":"N","stopbits":1,"cycle":1.00}]}
2017-12-29 10:38:55 1514561935.798259: {"class":"WATCH","enable":true,"json":false,"nmea":true,"raw":0,"scaled":false,"timing":false,"split24":false,"pps":false}
2017-12-29 10:38:57 1514561937.712182: $GPZDA,153858.19,29,12,2017,00,00*60
2017-12-29 10:38:57 1514561937.712345: $GPGGA,153858,3946.9739,N,08404.9792,W,1,11,0.80,328.00,M,-33.325,M,,*7B
2017-12-29 10:38:57 1514561937.712411: $GPRMC,153858,A,3946.9739,N,08404.9792,W,0.1160,59.752,291217,,*08
2017-12-29 10:38:57 1514561937.712473: $GPGSA,A,3,10,13,15,18,20,21,24,27,29,32,138,,1.7,0.8,1.3*02
2017-12-29 10:38:57 1514561937.712535: $GPGBS,153858,10.91,M,10.38,M,30.89,M*0D
2017-12-29 10:38:59 1514561939.140181: $GPZDA,153859.19,29,12,2017,00,00*61
2017-12-29 10:38:59 1514561939.140339: $GPGGA,153859,3946.9734,N,08404.9796,W,1,11,0.80,333.75,M,-33.325,M,,*7B
2017-12-29 10:38:59 1514561939.140405: $GPRMC,153859,A,3946.9734,N,08404.9796,W,0.2422,93.794,291217,,*0C
2017-12-29 10:38:59 1514561939.140468: $GPGSA,A,3,10,13,15,18,20,21,24,27,29,32,138,,1.7,0.8,1.3*02
2017-12-29 10:38:59 1514561939.879506: $GPGSV,3,1,11,10,29,288,43,13,22,045,45,15,53,049,50,18,60,309,45*78
2017-12-29 10:38:59 1514561939.879681: $GPGSV,3,2,11,20,47,079,48,21,78,228,48,24,39,132,49,27,18,306,37*7F
2017-12-29 10:38:59 1514561939.879748: $GPGSV,3,3,11,29,04,187,36,32,08,228,35,138,38,213,25*7C
2017-12-29 10:38:59 1514561939.992936: $GPZDA,153859.69,29,12,2017,00,00*66
2017-12-29 10:38:59 1514561939.993108: $GPGGA,153859,3946.9730,N,08404.9796,W,1,11,0.80,334.51,M,-33.325,M,,*7E
2017-12-29 10:38:59 1514561939.993174: $GPRMC,153859,A,3946.9730,N,08404.9796,W,0.1867,180.000,291217,,*3F
2017-12-29 10:38:59 1514561939.993238: $GPGSA,A,3,10,13,15,18,20,21,24,27,29,32,138,,1.7,0.8,1.3*02
2017-12-29 10:39:00 1514561940.246726: $GPZDA,153900.00,29,12,2017,00,00*64
2017-12-29 10:39:00 1514561940.246869: $GPGGA,153900,3946.9726,N,08404.9796,W,1,11,0.80,333.87,M,-33.325,M,,*78
2017-12-29 10:39:00 1514561940.246934: $GPRMC,153900,A,3946.9726,N,08404.9796,W,0.1567,9.200,291217,,*3A
2017-12-29 10:39:00 1514561940.246995: $GPGSA,A,3,10,13,15,18,20,21,24,27,29,32,138,,1.7,0.8,1.3*02
2017-12-29 10:39:00 1514561940.698904: $GPZDA,153901.00,29,12,2017,00,00*65
2017-12-29 10:39:00 1514561940.699053: $GPGGA,153901,3946.9727,N,08404.9797,W,1,11,0.80,335.27,M,-33.325,M,,*75
2017-12-29 10:39:00 1514561940.699140: $GPRMC,153901,A,3946.9727,N,08404.9797,W,0.0000,0.000,291217,,*35
2017-12-29 10:39:00 1514561940.699204: $GPGSA,A,3,10,13,15,18,20,21,24,27,29,32,138,,1.7,0.8,1.3*02
2017-12-29 10:39:01 1514561941.755122: $GPGSV,3,1,11,10,29,288,43,13,22,045,45,15,53,049,51,18,60,309,44*78
2017-12-29 10:39:01 1514561941.755272: $GPGSV,3,2,11,20,47,079,49,21,78,228,48,24,39,132,50,27,18,306,37*76
2017-12-29 10:39:01 1514561941.755339: $GPGSV,3,3,11,29,04,187,37,32,08,228,36,138,38,213,47*7A
2017-12-29 10:39:01 1514561941.868755: $GPZDA,153902.00,29,12,2017,00,00*66
2017-12-29 10:39:01 1514561941.868918: $GPGGA,153902,3946.9690,N,08404.9771,W,1,11,0.80,334.04,M,-33.325,M,,*73
2017-12-29 10:39:01 1514561941.868985: $GPRMC,153902,A,3946.9690,N,08404.9771,W,0.1567,9.200,291217,,*3D
2017-12-29 10:39:01 1514561941.869046: $GPGSA,A,3,10,13,15,18,20,21,24,27,29,32,138,,1.7,0.8,1.3*02
2017-12-29 10:39:02 1514561942.419637: $GPZDA,153903.00,29,12,2017,00,00*67
2017-12-29 10:39:02 1514561942.419792: $GPGGA,153903,3946.9674,N,08404.9759,W,1,11,0.80,334.45,M,-33.324,M,,*76
2017-12-29 10:39:02 1514561942.419860: $GPRMC,153903,A,3946.9674,N,08404.9759,W,0.0000,0.000,291217,,*32
2017-12-29 10:39:02 1514561942.419922: $GPGSA,A,3,10,13,15,18,20,21,24,27,29,32,138,,1.7,0.8,1.3*02
2017-12-29 10:39:03 1514561943.419145: $GPZDA,153904.00,29,12,2017,00,00*60
2017-12-29 10:39:03 1514561943.419310: $GPGGA,153904,3946.9674,N,08404.9759,W,1,11,0.80,334.45,M,-33.324,M,,*71
2017-12-29 10:39:03 1514561943.419375: $GPRMC,153904,A,3946.9674,N,08404.9759,W,0.1867,180.000,291217,,*34
2017-12-29 10:39:03 1514561943.419438: $GPGSA,A,3,10,13,15,18,20,21,24,27,29,32,138,,1.7,0.8,1.3*02
2017-12-29 10:39:03 1514561943.419500: $GPGBS,153904,10.91,M,10.38,M,30.89,M*05
2017-12-29 10:39:04 1514561944.754612: $GPGSV,3,1,11,10,29,288,42,13,22,045,44,15,53,049,50,18,60,309,44*79
2017-12-29 10:39:04 1514561944.754768: $GPGSV,3,2,11,20,47,079,48,21,78,228,47,24,39,132,49,27,18,306,36*71
2017-12-29 10:39:04 1514561944.754836: $GPGSV,3,3,11,29,04,187,36,32,08,228,34,138,38,213,47*79
2017-12-29 10:39:04 1514561944.868232: $GPZDA,153905.00,29,12,2017,00,00*61
2017-12-29 10:39:04 1514561944.868392: $GPGGA,153905,3946.9674,N,08404.9759,W,1,11,0.80,334.45,M,-33.324,M,,*70
2017-12-29 10:39:04 1514561944.868463: $GPRMC,153905,A,3946.9674,N,08404.9759,W,0.2422,93.794,291217,,*02
2017-12-29 10:39:04 1514561944.868527: $GPGSA,A,3,10,13,15,18,20,21,24,27,29,32,138,,1.7,0.8,1.3*02
2017-12-29 10:39:05 1514561945.419102: $GPZDA,153906.00,29,12,2017,00,00*62
2017-12-29 10:39:05 1514561945.419252: $GPGGA,153906,3946.9658,N,08404.9753,W,1,11,0.80,333.38,M,-33.324,M,,*7A
2017-12-29 10:39:05 1514561945.419319: $GPRMC,153906,A,3946.9658,N,08404.9753,W,0.2422,93.794,291217,,*05
2017-12-29 10:39:05 1514561945.419379: $GPGSA,A,3,10,13,15,18,20,21,24,27,29,32,138,,1.7,0.8,1.3*02
