2017-12-01 13:14:44 1512152084.337425: {"class":"VERSION","release":"3.16","rev":"3.16-4","proto_major":3,"proto_minor":11}
2017-12-01 13:14:44 1512152084.337893: {"class":"DEVICES","devices":[{"class":"DEVICE","path":"/dev/ttyUSB0","driver":"SiRF","subtype":"9\u0006GSD4e_4.1.2-P1_RPATCH.05-F-GPS-4R-1510281 11/03/2015 307","activated":"2017-12-01T18:14:44.262Z","flags":1,"native":1,"bps":4800,"parity":"N","stopbits":1,"cycle":1.00}]}
2017-12-01 13:14:44 1512152084.338012: {"class":"WATCH","enable":true,"json":false,"nmea":true,"raw":0,"scaled":false,"timing":false,"split24":false,"pps":false}
2017-12-01 13:14:44 1512152084.704796: $GPGSV,3,1,12,08,06,321,30,10,42,301,44,15,36,052,47,18,72,339,43*77
2017-12-01 13:14:44 1512152084.704994: $GPGSV,3,2,12,20,33,096,47,21,62,189,44,24,51,108,47,27,19,288,34*72
2017-12-01 13:14:44 1512152084.705062: $GPGSV,3,3,12,32,22,238,41,13,07,049,24,14,05,232,21,138,38,213,46*4A
2017-12-01 13:14:44 1512152084.818390: $GPZDA,181445.00,01,12,2017,00,00*6D
2017-12-01 13:14:44 1512152084.818565: $GPGGA,181445,3946.9573,N,08404.9840,W,2,12,0.80,313.29,M,-33.324,M,,*7A
2017-12-01 13:14:44 1512152084.818654: $GPRMC,181445,A,3946.9573,N,08404.9840,W,0.0000,0.000,011217,,*3B
2017-12-01 13:14:44 1512152084.818717: $GPGSA,A,3,8,10,15,18,20,21,24,27,32,13,14,138,2.0,0.8,1.5*36
2017-12-01 13:14:45 1512152085.394071: $GPZDA,181446.00,01,12,2017,00,00*6E
2017-12-01 13:14:45 1512152085.394222: $GPGGA,181446,3946.9573,N,08404.9840,W,2,12,0.80,313.29,M,-33.324,M,,*79
2017-12-01 13:14:45 1512152085.394289: $GPRMC,181446,A,3946.9573,N,08404.9840,W,0.0000,0.000,011217,,*38
2017-12-01 13:14:45 1512152085.394367: $GPGSA,A,3,8,10,15,18,20,21,24,27,32,13,14,138,2.0,0.8,1.5*36
2017-12-01 13:14:46 1512152086.396144: $GPZDA,181447.00,01,12,2017,00,00*6F
2017-12-01 13:14:46 1512152086.396353: $GPGGA,181447,3946.9569,N,08404.9840,W,2,12,0.80,312.65,M,-33.324,M,,*7A
2017-12-01 13:14:46 1512152086.396422: $GPRMC,181447,A,3946.9569,N,08404.9840,W,0.0000,0.000,011217,,*32
2017-12-01 13:14:46 1512152086.396483: $GPGSA,A,3,8,10,15,18,20,21,24,27,32,13,14,138,2.0,0.8,1.5*36
2017-12-01 13:14:47 1512152087.711979: $GPGSV,3,1,12,08,06,321,31,10,42,301,44,15,36,052,47,18,72,339,43*76
2017-12-01 13:14:47 1512152087.712161: $GPGSV,3,2,12,20,33,096,47,21,62,189,44,24,51,108,47,27,19,288,33*75
2017-12-01 13:14:47 1512152087.712228: $GPGSV,3,3,12,32,22,238,41,13,07,049,24,14,05,232,21,138,38,213,46*4A
2017-12-01 13:14:47 1512152087.825835: $GPZDA,181448.00,01,12,2017,00,00*60
2017-12-01 13:14:47 1512152087.826106: $GPGGA,181448,3946.9569,N,08404.9840,W,2,12,0.80,312.65,M,-33.324,M,,*75
2017-12-01 13:14:47 1512152087.826192: $GPRMC,181448,A,3946.9569,N,08404.9840,W,0.0000,0.000,011217,,*3D
2017-12-01 13:14:47 1512152087.826286: $GPGSA,A,3,8,10,15,18,20,21,24,27,32,13,14,138,2.0,0.8,1.5*36
2017-12-01 13:14:48 1512152088.450764: $GPZDA,181449.00,01,12,2017,00,00*61
2017-12-01 13:14:48 1512152088.450935: $GPGGA,181449,3946.9569,N,08404.9840,W,2,12,0.80,312.65,M,-33.324,M,,*74
2017-12-01 13:14:48 1512152088.451001: $GPRMC,181449,A,3946.9569,N,08404.9840,W,0.0000,0.000,011217,,*3C
2017-12-01 13:14:48 1512152088.451062: $GPGSA,A,3,8,10,15,18,20,21,24,27,32,13,14,138,2.0,0.8,1.5*36
2017-12-01 13:14:49 1512152089.395298: $GPZDA,181450.00,01,12,2017,00,00*69
2017-12-01 13:14:49 1512152089.395470: $GPGGA,181450,3946.9569,N,08404.9840,W,2,12,0.80,312.65,M,-33.324,M,,*7C
2017-12-01 13:14:49 1512152089.395537: $GPRMC,181450,A,3946.9569,N,08404.9840,W,0.0000,0.000,011217,,*34
2017-12-01 13:14:49 1512152089.395617: $GPGSA,A,3,8,10,15,18,20,21,24,27,32,13,14,138,2.0,0.8,1.5*36
2017-12-01 13:14:50 1512152090.712345: $GPGSV,3,1,12,08,06,321,31,10,42,301,44,15,36,052,47,18,72,339,43*76
2017-12-01 13:14:50 1512152090.712523: $GPGSV,3,2,12,20,33,096,47,21,62,189,44,24,51,108,47,27,19,288,34*72
2017-12-01 13:14:50 1512152090.712613: $GPGSV,3,3,12,32,22,238,41,13,07,049,24,14,05,232,21,138,38,213,46*4A
2017-12-01 13:14:50 1512152090.826794: $GPZDA,181451.00,01,12,2017,00,00*68
2017-12-01 13:14:50 1512152090.827105: $GPGGA,181451,3946.9569,N,08404.9840,W,2,12,0.80,312.65,M,-33.324,M,,*7D
2017-12-01 13:14:50 1512152090.827242: $GPRMC,181451,A,3946.9569,N,08404.9840,W,0.0000,0.000,011217,,*35
2017-12-01 13:14:50 1512152090.827323: $GPGSA,A,3,8,10,15,18,20,21,24,27,32,13,14,138,2.0,0.8,1.5*36
2017-12-01 13:14:51 1512152091.398640: $GPZDA,181452.00,01,12,2017,00,00*6B
2017-12-01 13:14:51 1512152091.399007: $GPGGA,181452,3946.9569,N,08404.9840,W,2,12,0.80,312.65,M,-33.324,M,,*7E
2017-12-01 13:14:51 1512152091.399164: $GPRMC,181452,A,3946.9569,N,08404.9840,W,0.0000,0.000,011217,,*36
2017-12-01 13:14:51 1512152091.399289: $GPGSA,A,3,8,10,15,18,20,21,24,27,32,13,14,138,2.0,0.8,1.5*36
2017-12-01 13:14:52 1512152092.375284: $GPZDA,181453.00,01,12,2017,00,00*6A
2017-12-01 13:14:52 1512152092.375454: $GPGGA,181453,3946.9569,N,08404.9840,W,2,12,0.80,312.65,M,-33.324,M,,*7F
2017-12-01 13:14:52 1512152092.375520: $GPRMC,181453,A,3946.9569,N,08404.9840,W,0.0000,0.000,011217,,*37
2017-12-01 13:14:52 1512152092.375604: $GPGSA,A,3,8,10,15,18,20,21,24,27,32,13,14,138,2.0,0.8,1.5*36
2017-12-01 13:14:53 1512152093.710127: $GPGSV,3,1,12,08,06,321,37,10,42,301,45,15,36,052,47,18,72,339,43*71
2017-12-01 13:14:53 1512152093.710285: $GPGSV,3,2,12,20,33,096,47,21,62,189,44,24,51,108,47,27,19,288,35*73
2017-12-01 13:14:53 1512152093.710352: $GPGSV,3,3,12,32,22,238,42,13,07,049,24,14,05,232,00,138,38,213,46*4A
2017-12-01 13:14:53 1512152093.823577: $GPZDA,181454.00,01,12,2017,00,00*6D
2017-12-01 13:14:53 1512152093.823738: $GPGGA,181454,3946.9569,N,08404.9840,W,2,11,0.80,312.65,M,-33.324,M,,*7B
2017-12-01 13:14:53 1512152093.823806: $GPRMC,181454,A,3946.9569,N,08404.9840,W,0.0000,0.000,011217,,*30
2017-12-01 13:14:53 1512152093.823867: $GPGSA,A,3,8,10,15,18,20,21,24,27,32,13,138,,2.0,0.8,1.5*33
