2017-12-01 13:50:10 1512154210.336830: {"class":"VERSION","release":"3.16","rev":"3.16-4","proto_major":3,"proto_minor":11}
2017-12-01 13:50:10 1512154210.337274: {"class":"DEVICES","devices":[{"class":"DEVICE","path":"/dev/ttyUSB0","driver":"SiRF","subtype":"9\u0006GSD4e_4.1.2-P1_RPATCH.05-F-GPS-4R-1510281 11/03/2015 307","activated":"2017-12-01T18:50:10.262Z","flags":1,"native":1,"bps":4800,"parity":"N","stopbits":1,"cycle":1.00}]}
2017-12-01 13:50:10 1512154210.337410: {"class":"WATCH","enable":true,"json":false,"nmea":true,"raw":0,"scaled":false,"timing":false,"split24":false,"pps":false}
2017-12-01 13:50:10 1512154210.370642: $GPZDA,185011.00,01,12,2017,00,00*6C
2017-12-01 13:50:10 1512154210.370811: $GPGGA,185011,3946.9579,N,08404.9834,W,2,11,0.80,302.57,M,-33.324,M,,*78
2017-12-01 13:50:10 1512154210.370877: $GPRMC,185011,A,3946.9579,N,08404.9834,W,0.0000,0.000,011217,,*33
2017-12-01 13:50:10 1512154210.370939: $GPGSA,A,3,10,14,15,18,20,21,24,27,32,8,138,,2.0,0.8,1.5*34
2017-12-01 13:50:11 1512154211.681413: $GPGSV,3,1,11,10,56,315,49,14,17,243,38,15,23,058,47,18,77,040,43*7F
2017-12-01 13:50:11 1512154211.681599: $GPGSV,3,2,11,20,20,109,42,21,44,181,44,24,52,079,47,27,14,273,38*7C
2017-12-01 13:50:11 1512154211.681665: $GPGSV,3,3,11,32,35,250,40,08,08,307,31,138,38,213,46*78
2017-12-01 13:50:11 1512154211.794754: $GPZDA,185012.00,01,12,2017,00,00*6F
2017-12-01 13:50:11 1512154211.794918: $GPGGA,185012,3946.9579,N,08404.9834,W,2,11,0.80,302.57,M,-33.324,M,,*7B
2017-12-01 13:50:11 1512154211.794988: $GPRMC,185012,A,3946.9579,N,08404.9834,W,0.0000,0.000,011217,,*30
2017-12-01 13:50:11 1512154211.795071: $GPGSA,A,3,10,14,15,18,20,21,24,27,32,8,138,,2.0,0.8,1.5*34
2017-12-01 13:50:12 1512154212.364565: $GPZDA,185013.00,01,12,2017,00,00*6E
2017-12-01 13:50:12 1512154212.832704: $GPGGA,185013,3946.9579,N,08404.9834,W,2,11,0.80,302.57,M,-33.324,M,,*7A
2017-12-01 13:50:12 1512154212.832879: $GPRMC,185013,A,3946.9579,N,08404.9834,W,0.0000,0.000,011217,,*31
2017-12-01 13:50:12 1512154212.832944: $GPGSA,A,3,10,14,15,18,20,21,24,27,32,8,138,,2.0,0.8,1.5*34
2017-12-01 13:50:13 1512154213.372581: $GPZDA,185014.00,01,12,2017,00,00*69
2017-12-01 13:50:13 1512154213.372755: $GPGGA,185014,3946.9579,N,08404.9834,W,2,11,0.80,302.57,M,-33.324,M,,*7D
2017-12-01 13:50:13 1512154213.372822: $GPRMC,185014,A,3946.9579,N,08404.9834,W,0.0000,0.000,011217,,*36
2017-12-01 13:50:13 1512154213.372883: $GPGSA,A,3,10,14,15,18,20,21,24,27,32,8,138,,2.0,0.8,1.5*34
2017-12-01 13:50:14 1512154214.681780: $GPGSV,3,1,11,10,56,315,49,14,17,243,38,15,23,058,47,18,77,040,43*7F
2017-12-01 13:50:14 1512154214.681976: $GPGSV,3,2,11,20,20,109,42,21,44,181,44,24,52,079,47,27,14,273,38*7C
2017-12-01 13:50:14 1512154214.682070: $GPGSV,3,3,11,32,35,250,40,08,08,307,31,138,38,213,46*78
2017-12-01 13:50:14 1512154214.795457: $GPZDA,185015.00,01,12,2017,00,00*68
2017-12-01 13:50:14 1512154214.795617: $GPGGA,185015,3946.9579,N,08404.9834,W,2,11,0.80,302.57,M,-33.324,M,,*7C
2017-12-01 13:50:14 1512154214.795686: $GPRMC,185015,A,3946.9579,N,08404.9834,W,0.0000,0.000,011217,,*37
2017-12-01 13:50:14 1512154214.795749: $GPGSA,A,3,10,14,15,18,20,21,24,27,32,8,138,,2.0,0.8,1.5*34
2017-12-01 13:50:15 1512154215.346012: $GPZDA,185016.00,01,12,2017,00,00*6B
2017-12-01 13:50:15 1512154215.346239: $GPGGA,185016,3946.9579,N,08404.9834,W,2,11,0.80,302.57,M,-33.324,M,,*7F
2017-12-01 13:50:15 1512154215.346312: $GPRMC,185016,A,3946.9579,N,08404.9834,W,0.0000,0.000,011217,,*34
2017-12-01 13:50:15 1512154215.346377: $GPGSA,A,3,10,14,15,18,20,21,24,27,32,8,138,,2.0,0.8,1.5*34
2017-12-01 13:50:16 1512154216.346115: $GPZDA,185017.00,01,12,2017,00,00*6A
2017-12-01 13:50:16 1512154216.346345: $GPGGA,185017,3946.9579,N,08404.9834,W,2,11,0.80,302.57,M,-33.324,M,,*7E
2017-12-01 13:50:16 1512154216.346418: $GPRMC,185017,A,3946.9579,N,08404.9834,W,0.0000,0.000,011217,,*35
2017-12-01 13:50:16 1512154216.346482: $GPGSA,A,3,10,14,15,18,20,21,24,27,32,8,138,,2.0,0.8,1.5*34
2017-12-01 13:50:17 1512154217.681404: $GPGSV,3,1,11,10,56,315,49,14,17,243,38,15,23,058,47,18,77,040,43*7F
2017-12-01 13:50:17 1512154217.681652: $GPGSV,3,2,11,20,20,109,42,21,44,181,44,24,52,079,47,27,14,273,38*7C
2017-12-01 13:50:17 1512154217.681723: $GPGSV,3,3,11,32,35,250,40,08,08,307,30,138,38,213,46*79
2017-12-01 13:50:17 1512154217.795048: $GPZDA,185018.00,01,12,2017,00,00*65
2017-12-01 13:50:17 1512154217.795226: $GPGGA,185018,3946.9579,N,08404.9834,W,2,11,0.80,302.57,M,-33.324,M,,*71
2017-12-01 13:50:17 1512154217.795294: $GPRMC,185018,A,3946.9579,N,08404.9834,W,0.0000,0.000,011217,,*3A
2017-12-01 13:50:17 1512154217.795355: $GPGSA,A,3,10,14,15,18,20,21,24,27,32,8,138,,2.0,0.8,1.5*34
2017-12-01 13:50:18 1512154218.420124: $GPZDA,185019.00,01,12,2017,00,00*64
2017-12-01 13:50:18 1512154218.420312: $GPGGA,185019,3946.9579,N,08404.9834,W,2,11,0.80,302.57,M,-33.324,M,,*70
2017-12-01 13:50:18 1512154218.420381: $GPRMC,185019,A,3946.9579,N,08404.9834,W,0.0000,0.000,011217,,*3B
2017-12-01 13:50:18 1512154218.420443: $GPGSA,A,3,10,14,15,18,20,21,24,27,32,8,138,,2.0,0.8,1.5*34
2017-12-01 13:50:19 1512154219.372558: $GPZDA,185020.00,01,12,2017,00,00*6E
2017-12-01 13:50:19 1512154219.372751: $GPGGA,185020,3946.9579,N,08404.9834,W,2,11,0.80,302.57,M,-33.324,M,,*7A
2017-12-01 13:50:19 1512154219.372823: $GPRMC,185020,A,3946.9579,N,08404.9834,W,0.0000,0.000,011217,,*31
2017-12-01 13:50:19 1512154219.372887: $GPGSA,A,3,10,14,15,18,20,21,24,27,32,8,138,,2.0,0.8,1.5*34
