2017-12-01 15:53:53 1512161633.316708: {"class":"VERSION","release":"3.16","rev":"3.16-4","proto_major":3,"proto_minor":11}
2017-12-01 15:53:53 1512161633.317136: {"class":"DEVICES","devices":[{"class":"DEVICE","path":"/dev/ttyUSB0","driver":"SiRF","subtype":"9\u0006GSD4e_4.1.2-P1_RPATCH.05-F-GPS-4R-1510281 11/03/2015 307","activated":"2017-12-01T20:53:53.241Z","flags":1,"native":1,"bps":4800,"parity":"N","stopbits":1,"cycle":1.00}]}
2017-12-01 15:53:53 1512161633.317261: {"class":"WATCH","enable":true,"json":false,"nmea":true,"raw":0,"scaled":false,"timing":false,"split24":false,"pps":false}
2017-12-01 15:53:54 1512161634.181200: $GPZDA,205354.45,01,12,2017,00,00*64
2017-12-01 15:53:54 1512161634.181462: $GPGGA,205354,3946.9586,N,08404.9808,W,1,12,1.00,319.82,M,-33.324,M,,*75
2017-12-01 15:53:54 1512161634.181544: $GPRMC,205354,A,3946.9586,N,08404.9808,W,0.1867,180.000,011217,,*34
2017-12-01 15:53:54 1512161634.181608: $GPGSA,A,3,10,12,14,18,25,31,32,1,11,24,22,138,2.0,1.0,1.5*32
2017-12-01 15:53:54 1512161634.181667: $GPGBS,205354,10.70,M,15.43,M,35.28,M*02
2017-12-01 15:53:55 1512161635.322404: $GPGSV,3,1,12,01,16,315,38,10,65,136,48,11,11,297,32,12,25,067,40*74
2017-12-01 15:53:55 1512161635.322585: $GPGSV,3,2,12,14,57,298,43,18,33,138,47,22,06,312,40,25,32,111,45*7C
2017-12-01 15:53:55 1512161635.322654: $GPGSV,3,3,12,31,39,214,49,32,69,340,48,24,11,046,31,138,38,213,00*4A
2017-12-01 15:53:55 1512161635.435820: $GPZDA,205355.00,01,12,2017,00,00*64
2017-12-01 15:53:55 1512161635.435973: $GPGGA,205355,3946.9586,N,08404.9808,W,1,11,0.80,319.82,M,-33.324,M,,*7E
2017-12-01 15:53:55 1512161635.436039: $GPRMC,205355,A,3946.9586,N,08404.9808,W,0.1867,180.000,011217,,*35
2017-12-01 15:53:55 1512161635.436100: $GPGSA,A,3,1,10,11,12,14,18,22,25,31,32,24,,2.0,0.8,1.5*01
2017-12-01 15:53:55 1512161635.888170: $GPZDA,205356.00,01,12,2017,00,00*67
2017-12-01 15:53:55 1512161635.888336: $GPGGA,205356,3946.9589,N,08404.9807,W,1,11,0.80,319.06,M,-33.324,M,,*71
2017-12-01 15:53:55 1512161635.888403: $GPRMC,205356,A,3946.9589,N,08404.9807,W,0.1867,180.000,011217,,*36
2017-12-01 15:53:55 1512161635.888464: $GPGSA,A,3,1,10,11,12,14,18,22,25,31,32,24,,2.0,0.8,1.5*01
2017-12-01 15:53:56 1512161636.390264: $GPZDA,205357.00,01,12,2017,00,00*66
2017-12-01 15:53:56 1512161636.390431: $GPGGA,205357,3946.9585,N,08404.9807,W,1,11,0.80,318.42,M,-33.324,M,,*7D
2017-12-01 15:53:56 1512161636.390496: $GPRMC,205357,A,3946.9585,N,08404.9807,W,0.0000,0.000,011217,,*3A
2017-12-01 15:53:56 1512161636.390556: $GPGSA,A,3,1,10,11,12,14,18,22,25,31,32,24,,2.0,0.8,1.5*01
2017-12-01 15:53:57 1512161637.724247: $GPGSV,3,1,12,01,16,315,38,10,65,136,48,11,11,297,33,12,25,067,40*75
2017-12-01 15:53:57 1512161637.724449: $GPGSV,3,2,12,14,57,298,43,18,33,138,47,22,06,312,41,25,32,111,45*7D
2017-12-01 15:53:57 1512161637.724516: $GPGSV,3,3,12,31,39,214,49,32,69,340,48,24,11,046,32,138,38,213,46*4B
2017-12-01 15:53:57 1512161637.837381: $GPZDA,205358.00,01,12,2017,00,00*69
2017-12-01 15:53:57 1512161637.837554: $GPGGA,205358,3946.9588,N,08404.9806,W,1,12,0.80,317.65,M,-33.324,M,,*77
2017-12-01 15:53:57 1512161637.837620: $GPRMC,205358,A,3946.9588,N,08404.9806,W,0.0000,0.000,011217,,*39
2017-12-01 15:53:57 1512161637.837682: $GPGSA,A,3,1,10,11,12,14,18,22,25,31,32,24,138,2.0,0.8,1.5*3B
2017-12-01 15:53:58 1512161638.388255: $GPZDA,205359.00,01,12,2017,00,00*68
2017-12-01 15:53:58 1512161638.388439: $GPGGA,205359,3946.9584,N,08404.9806,W,1,12,0.80,317.01,M,-33.324,M,,*78
2017-12-01 15:53:58 1512161638.388508: $GPRMC,205359,A,3946.9584,N,08404.9806,W,0.0000,0.000,011217,,*34
2017-12-01 15:53:58 1512161638.388571: $GPGSA,A,3,1,10,11,12,14,18,22,25,31,32,24,138,2.0,0.8,1.5*3B
2017-12-01 15:53:59 1512161639.389508: $GPZDA,205400.00,01,12,2017,00,00*63
2017-12-01 15:53:59 1512161639.389681: $GPGGA,205400,3946.9588,N,08404.9812,W,1,12,0.80,316.17,M,-33.324,M,,*7C
2017-12-01 15:53:59 1512161639.389748: $GPRMC,205400,A,3946.9588,N,08404.9812,W,0.0000,0.000,011217,,*36
2017-12-01 15:53:59 1512161639.389811: $GPGSA,A,3,1,10,11,12,14,18,22,25,31,32,24,138,2.0,0.8,1.5*3B
2017-12-01 15:53:59 1512161639.389924: $GPGBS,205400,10.70,M,15.43,M,35.28,M*04
2017-12-01 15:54:00 1512161640.726017: $GPGSV,3,1,12,01,16,315,39,10,65,136,48,11,11,297,33,12,25,067,41*75
2017-12-01 15:54:00 1512161640.726219: $GPGSV,3,2,12,14,57,298,44,18,33,138,47,22,06,312,41,25,32,111,45*7A
2017-12-01 15:54:00 1512161640.726309: $GPGSV,3,3,12,31,39,214,50,32,69,340,48,24,11,046,33,138,38,213,47*43
2017-12-01 15:54:00 1512161640.838372: $GPZDA,205401.00,01,12,2017,00,00*62
2017-12-01 15:54:00 1512161640.838532: $GPGGA,205401,3946.9584,N,08404.9812,W,1,12,0.80,315.53,M,-33.324,M,,*72
2017-12-01 15:54:00 1512161640.838599: $GPRMC,205401,A,3946.9584,N,08404.9812,W,0.0000,0.000,011217,,*3B
2017-12-01 15:54:00 1512161640.838661: $GPGSA,A,3,1,10,11,12,14,18,22,25,31,32,24,138,2.0,0.8,1.5*3B
2017-12-01 15:54:01 1512161641.390278: $GPZDA,205402.00,01,12,2017,00,00*61
2017-12-01 15:54:01 1512161641.390464: $GPGGA,205402,3946.9584,N,08404.9812,W,1,12,0.80,315.53,M,-33.324,M,,*71
2017-12-01 15:54:01 1512161641.390533: $GPRMC,205402,A,3946.9584,N,08404.9812,W,0.0000,0.000,011217,,*38
2017-12-01 15:54:01 1512161641.390595: $GPGSA,A,3,1,10,11,12,14,18,22,25,31,32,24,138,2.0,0.8,1.5*3B
2017-12-01 15:54:02 1512161642.388130: $GPZDA,205403.00,01,12,2017,00,00*60
2017-12-01 15:54:02 1512161642.388313: $GPGGA,205403,3946.9587,N,08404.9812,W,1,12,0.80,314.76,M,-33.324,M,,*75
2017-12-01 15:54:02 1512161642.388382: $GPRMC,205403,A,3946.9587,N,08404.9812,W,0.0000,0.000,011217,,*3A
2017-12-01 15:54:02 1512161642.388444: $GPGSA,A,3,1,10,11,12,14,18,22,25,31,32,24,138,2.0,0.8,1.5*3B
2017-12-01 15:54:03 1512161643.724095: $GPGSV,3,1,12,01,16,315,11,10,65,136,14,11,11,297,10,12,25,067,12*71
2017-12-01 15:54:03 1512161643.724276: $GPGSV,3,2,12,14,57,298,13,18,33,138,14,22,06,312,12,25,32,111,13*7B
2017-12-01 15:54:03 1512161643.724344: $GPGSV,3,3,12,31,39,214,14,32,69,340,14,24,11,046,10,138,38,213,16*4F
2017-12-01 15:54:03 1512161643.837652: $GPZDA,205404.00,01,12,2017,00,00*67
2017-12-01 15:54:03 1512161643.837828: $GPGGA,205404,3946.9583,N,08404.9819,W,1,12,0.80,314.04,M,-33.324,M,,*78
2017-12-01 15:54:03 1512161643.837896: $GPRMC,205404,A,3946.9583,N,08404.9819,W,0.0000,0.000,011217,,*32
2017-12-01 15:54:03 1512161643.837960: $GPGSA,A,3,1,10,11,12,14,18,22,25,31,32,24,138,2.0,0.8,1.5*3B
2017-12-01 15:54:04 1512161644.388096: $GPZDA,205405.00,01,12,2017,00,00*66
2017-12-01 15:54:04 1512161644.388277: $GPGGA,205405,3946.9583,N,08404.9819,W,1,12,0.80,314.04,M,-33.324,M,,*79
2017-12-01 15:54:04 1512161644.388345: $GPRMC,205405,A,3946.9583,N,08404.9819,W,0.0000,0.000,011217,,*33
2017-12-01 15:54:04 1512161644.388409: $GPGSA,A,3,1,10,11,12,14,18,22,25,31,32,24,138,2.0,0.8,1.5*3B
2017-12-01 15:54:05 1512161645.388004: $GPZDA,205406.00,01,12,2017,00,00*65
2017-12-01 15:54:05 1512161645.388185: $GPGGA,205406,3946.9583,N,08404.9819,W,1,12,0.80,314.04,M,-33.324,M,,*7A
2017-12-01 15:54:05 1512161645.388252: $GPRMC,205406,A,3946.9583,N,08404.9819,W,0.4207,219.346,011217,,*3A
2017-12-01 15:54:05 1512161645.388315: $GPGSA,A,3,1,10,11,12,14,18,22,25,31,32,24,138,2.0,0.8,1.5*3B
2017-12-01 15:54:06 1512161646.723484: $GPGSV,3,1,12,01,16,315,39,10,65,136,47,11,11,297,34,12,25,067,41*7D
2017-12-01 15:54:06 1512161646.723684: $GPGSV,3,2,12,14,57,298,43,18,33,138,46,22,06,312,41,25,32,111,44*7D
2017-12-01 15:54:06 1512161646.723753: $GPGSV,3,3,12,31,39,214,49,32,69,340,47,24,11,046,32,138,38,213,46*44
2017-12-01 15:54:06 1512161646.837062: $GPZDA,205407.00,01,12,2017,00,00*64
2017-12-01 15:54:06 1512161646.837199: $GPGGA,205407,3946.9587,N,08404.9818,W,1,12,0.80,313.28,M,-33.324,M,,*77
2017-12-01 15:54:06 1512161646.837267: $GPRMC,205407,A,3946.9587,N,08404.9818,W,0.0000,0.000,011217,,*34
2017-12-01 15:54:06 1512161646.837329: $GPGSA,A,3,1,10,11,12,14,18,22,25,31,32,24,138,2.0,0.8,1.5*3B
2017-12-01 15:54:07 1512161647.462684: $GPZDA,205408.00,01,12,2017,00,00*6B
2017-12-01 15:54:07 1512161647.462888: $GPGGA,205408,3946.9587,N,08404.9818,W,1,12,0.80,313.28,M,-33.324,M,,*78
2017-12-01 15:54:07 1512161647.462962: $GPRMC,205408,A,3946.9587,N,08404.9818,W,0.0000,0.000,011217,,*3B
2017-12-01 15:54:07 1512161647.463084: $GPGSA,A,3,1,10,11,12,14,18,22,25,31,32,24,138,2.0,0.8,1.5*3B
2017-12-01 15:54:08 1512161648.389589: $GPZDA,205409.00,01,12,2017,00,00*6A
2017-12-01 15:54:08 1512161648.389761: $GPGGA,205409,3946.9583,N,08404.9818,W,1,12,0.80,312.64,M,-33.324,M,,*74
2017-12-01 15:54:08 1512161648.389828: $GPRMC,205409,A,3946.9583,N,08404.9818,W,0.0000,0.000,011217,,*3E
2017-12-01 15:54:08 1512161648.389890: $GPGSA,A,3,1,10,11,12,14,18,22,25,31,32,24,138,2.0,0.8,1.5*3B
2017-12-01 15:54:09 1512161649.725088: $GPGSV,3,1,12,01,16,315,40,10,65,136,47,11,11,297,35,12,25,067,41*72
2017-12-01 15:54:09 1512161649.725276: $GPGSV,3,2,12,14,57,298,43,18,33,138,46,22,06,312,42,25,32,111,44*7E
2017-12-01 15:54:09 1512161649.725343: $GPGSV,3,3,12,31,39,214,50,32,69,340,47,24,11,046,31,138,38,213,46*4F
2017-12-01 15:54:09 1512161649.837278: $GPZDA,205410.00,01,12,2017,00,00*62
2017-12-01 15:54:09 1512161649.837447: $GPGGA,205410,3946.9583,N,08404.9818,W,1,12,0.80,312.64,M,-33.324,M,,*7C
2017-12-01 15:54:09 1512161649.837515: $GPRMC,205410,A,3946.9583,N,08404.9818,W,0.0000,0.000,011217,,*36
2017-12-01 15:54:09 1512161649.837576: $GPGSA,A,3,1,10,11,12,14,18,22,25,31,32,24,138,2.0,0.8,1.5*3B
2017-12-01 15:54:10 1512161650.389706: $GPZDA,205411.00,01,12,2017,00,00*63
2017-12-01 15:54:10 1512161650.389878: $GPGGA,205411,3946.9586,N,08404.9823,W,2,12,1.20,310.39,M,-33.324,M,,*72
2017-12-01 15:54:10 1512161650.389947: $GPRMC,205411,A,3946.9586,N,08404.9823,W,0.0000,0.000,011217,,*3A
2017-12-01 15:54:10 1512161650.390012: $GPGSA,A,3,1,10,11,12,14,18,22,25,31,32,24,138,2.0,1.2,1.5*30
2017-12-01 15:54:11 1512161651.391743: $GPZDA,205412.00,01,12,2017,00,00*60
2017-12-01 15:54:11 1512161651.391935: $GPGGA,205412,3946.9586,N,08404.9823,W,2,12,0.80,310.39,M,-33.324,M,,*7A
2017-12-01 15:54:11 1512161651.392004: $GPRMC,205412,A,3946.9586,N,08404.9823,W,0.0000,0.000,011217,,*39
2017-12-01 15:54:11 1512161651.392065: $GPGSA,A,3,1,10,11,12,14,18,22,25,31,32,24,138,2.0,0.8,1.5*3B
2017-12-01 15:54:11 1512161651.392125: $GPGBS,205412,2.67,M,3.86,M,8.82,M*32
2017-12-01 15:54:12 1512161652.725361: $GPGSV,3,1,12,01,16,315,39,10,65,136,47,11,11,297,35,12,25,067,41*7C
2017-12-01 15:54:12 1512161652.725540: $GPGSV,3,2,12,14,57,298,43,18,33,138,46,22,06,312,42,25,32,111,44*7E
2017-12-01 15:54:12 1512161652.725608: $GPGSV,3,3,12,31,39,214,49,32,69,340,47,24,11,046,31,138,38,213,45*44
2017-12-01 15:54:12 1512161652.838683: $GPZDA,205413.00,01,12,2017,00,00*61
2017-12-01 15:54:12 1512161652.838860: $GPGGA,205413,3946.9586,N,08404.9823,W,2,12,0.80,310.39,M,-33.324,M,,*7B
2017-12-01 15:54:12 1512161652.838927: $GPRMC,205413,A,3946.9586,N,08404.9823,W,0.0000,0.000,011217,,*38
2017-12-01 15:54:12 1512161652.838988: $GPGSA,A,3,1,10,11,12,14,18,22,25,31,32,24,138,2.0,0.8,1.5*3B
