2017-12-01 12:19:18 1512148758.326749: {"class":"VERSION","release":"3.16","rev":"3.16-4","proto_major":3,"proto_minor":11}
2017-12-01 12:19:18 1512148758.327210: {"class":"DEVICES","devices":[{"class":"DEVICE","path":"/dev/ttyUSB0","driver":"SiRF","subtype":"9\u0006GSD4e_4.1.2-P1_RPATCH.05-F-GPS-4R-1510281 11/03/2015 307","activated":"2017-12-01T17:19:18.293Z","flags":1,"native":1,"bps":4800,"parity":"N","stopbits":1,"cycle":1.00}]}
2017-12-01 12:19:18 1512148758.327348: {"class":"WATCH","enable":true,"json":false,"nmea":true,"raw":0,"scaled":false,"timing":false,"split24":false,"pps":false}
2017-12-01 12:19:18 1512148758.742636: $GPGSV,3,1,12,10,24,283,41,13,28,045,45,15,60,051,45,18,55,301,46*75
2017-12-01 12:19:18 1512148758.742826: $GPGSV,3,2,12,20,51,072,44,21,78,265,43,24,34,138,48,27,16,312,39*7D
2017-12-01 12:19:18 1512148758.742894: $GPGSV,3,3,12,05,03,088,22,29,09,189,27,32,01,225,25,138,38,213,45*49
2017-12-01 12:19:18 1512148758.854759: $GPZDA,171919.00,01,12,2017,00,00*66
2017-12-01 12:19:18 1512148758.854932: $GPGGA,171919,3946.9570,N,08404.9840,W,2,12,0.80,299.81,M,-33.324,M,,*73
2017-12-01 12:19:18 1512148758.854998: $GPRMC,171919,A,3946.9570,N,08404.9840,W,0.0000,0.000,011217,,*33
2017-12-01 12:19:18 1512148758.855061: $GPGSA,A,3,10,13,15,18,20,21,24,27,5,29,32,138,2.0,0.8,1.5*35
2017-12-01 12:19:19 1512148759.405614: $GPZDA,171920.00,01,12,2017,00,00*6C
2017-12-01 12:19:19 1512148759.405773: $GPGGA,171920,3946.9570,N,08404.9840,W,2,12,0.80,299.81,M,-33.324,M,,*79
2017-12-01 12:19:19 1512148759.405841: $GPRMC,171920,A,3946.9570,N,08404.9840,W,0.0000,0.000,011217,,*39
2017-12-01 12:19:19 1512148759.405901: $GPGSA,A,3,10,13,15,18,20,21,24,27,5,29,32,138,2.0,0.8,1.5*35
2017-12-01 12:19:20 1512148760.410220: $GPZDA,171921.00,01,12,2017,00,00*6D
2017-12-01 12:19:20 1512148760.842374: $GPGGA,171921,3946.9570,N,08404.9840,W,2,12,0.80,299.81,M,-33.324,M,,*78
2017-12-01 12:19:20 1512148760.842519: $GPRMC,171921,A,3946.9570,N,08404.9840,W,0.0000,0.000,011217,,*38
2017-12-01 12:19:20 1512148760.842583: $GPGSA,A,3,10,13,15,18,20,21,24,27,5,29,32,138,2.0,0.8,1.5*35
2017-12-01 12:19:21 1512148761.745981: $GPGSV,3,1,12,10,24,283,41,13,28,045,45,15,60,051,45,18,55,301,46*75
2017-12-01 12:19:21 1512148761.746165: $GPGSV,3,2,12,20,51,072,44,21,78,265,43,24,34,138,48,27,16,312,38*7C
2017-12-01 12:19:21 1512148761.746235: $GPGSV,3,3,12,05,03,088,22,29,09,189,27,32,01,225,26,138,38,213,46*49
2017-12-01 12:19:21 1512148761.859360: $GPZDA,171922.00,01,12,2017,00,00*6E
2017-12-01 12:19:21 1512148761.859540: $GPGGA,171922,3946.9570,N,08404.9840,W,2,12,0.80,299.81,M,-33.324,M,,*7B
2017-12-01 12:19:21 1512148761.859608: $GPRMC,171922,A,3946.9570,N,08404.9840,W,0.0000,0.000,011217,,*3B
2017-12-01 12:19:21 1512148761.859670: $GPGSA,A,3,10,13,15,18,20,21,24,27,5,29,32,138,2.0,0.8,1.5*35
2017-12-01 12:19:22 1512148762.484830: $GPZDA,171923.00,01,12,2017,00,00*6F
2017-12-01 12:19:22 1512148762.485009: $GPGGA,171923,3946.9570,N,08404.9840,W,2,12,0.80,299.81,M,-33.324,M,,*7A
2017-12-01 12:19:22 1512148762.485081: $GPRMC,171923,A,3946.9570,N,08404.9840,W,0.0000,0.000,011217,,*3A
2017-12-01 12:19:22 1512148762.485147: $GPGSA,A,3,10,13,15,18,20,21,24,27,5,29,32,138,2.0,0.8,1.5*35
2017-12-01 12:19:23 1512148763.410594: $GPZDA,171924.00,01,12,2017,00,00*68
2017-12-01 12:19:23 1512148763.410771: $GPGGA,171924,3946.9570,N,08404.9840,W,2,12,0.80,299.81,M,-33.324,M,,*7D
2017-12-01 12:19:23 1512148763.410841: $GPRMC,171924,A,3946.9570,N,08404.9840,W,0.0000,0.000,011217,,*3D
2017-12-01 12:19:23 1512148763.410907: $GPGSA,A,3,10,13,15,18,20,21,24,27,5,29,32,138,2.0,0.8,1.5*35
2017-12-01 12:19:24 1512148764.742596: $GPGSV,3,1,12,10,24,283,41,13,28,045,45,15,60,051,45,18,55,301,46*75
2017-12-01 12:19:24 1512148764.742784: $GPGSV,3,2,12,20,51,072,45,21,78,265,42,24,34,138,48,27,16,312,38*7C
2017-12-01 12:19:24 1512148764.742855: $GPGSV,3,3,12,05,03,088,22,29,09,189,28,32,01,225,26,138,38,213,46*46
2017-12-01 12:19:24 1512148764.855957: $GPZDA,171925.00,01,12,2017,00,00*69
2017-12-01 12:19:24 1512148764.856129: $GPGGA,171925,3946.9570,N,08404.9840,W,2,12,0.80,299.81,M,-33.324,M,,*7C
2017-12-01 12:19:24 1512148764.856256: $GPRMC,171925,A,3946.9570,N,08404.9840,W,0.0000,0.000,011217,,*3C
2017-12-01 12:19:24 1512148764.856321: $GPGSA,A,3,10,13,15,18,20,21,24,27,5,29,32,138,2.0,0.8,1.5*35
2017-12-01 12:19:25 1512148765.420584: $GPZDA,171926.00,01,12,2017,00,00*6A
2017-12-01 12:19:25 1512148765.420773: $GPGGA,171926,3946.9570,N,08404.9840,W,2,12,0.80,299.81,M,-33.324,M,,*7F
2017-12-01 12:19:25 1512148765.420842: $GPRMC,171926,A,3946.9570,N,08404.9840,W,0.0000,0.000,011217,,*3F
2017-12-01 12:19:25 1512148765.420904: $GPGSA,A,3,10,13,15,18,20,21,24,27,5,29,32,138,2.0,0.8,1.5*35
2017-12-01 12:19:26 1512148766.426530: $GPZDA,171927.00,01,12,2017,00,00*6B
2017-12-01 12:19:26 1512148766.426699: $GPGGA,171927,3946.9570,N,08404.9840,W,2,12,0.80,299.81,M,-33.324,M,,*7E
2017-12-01 12:19:26 1512148766.426765: $GPRMC,171927,A,3946.9570,N,08404.9840,W,0.0000,0.000,011217,,*3E
2017-12-01 12:19:26 1512148766.426827: $GPGSA,A,3,10,13,15,18,20,21,24,27,5,29,32,138,2.0,0.8,1.5*35
2017-12-01 12:19:27 1512148767.746712: $GPGSV,3,1,12,10,24,283,40,13,28,045,45,15,60,051,46,18,55,301,46*77
2017-12-01 12:19:27 1512148767.746907: $GPGSV,3,2,12,20,51,072,45,21,78,265,42,24,34,138,48,27,16,312,37*73
2017-12-01 12:19:27 1512148767.746977: $GPGSV,3,3,12,05,03,088,21,29,09,189,10,32,01,225,25,138,38,213,46*4D
2017-12-01 12:19:27 1512148767.860118: $GPZDA,171928.00,01,12,2017,00,00*64
2017-12-01 12:19:27 1512148767.860269: $GPGGA,171928,3946.9570,N,08404.9840,W,2,12,0.80,299.81,M,-33.324,M,,*71
2017-12-01 12:19:27 1512148767.860340: $GPRMC,171928,A,3946.9570,N,08404.9840,W,0.0000,0.000,011217,,*31
2017-12-01 12:19:27 1512148767.860403: $GPGSA,A,3,10,13,15,18,20,21,24,27,5,29,32,138,2.0,0.8,1.5*35
