2017-11-16 17:42:17 1510872137.794187: {"class":"VERSION","release":"3.17","rev":"3.17","proto_major":3,"proto_minor":12}
2017-11-16 17:42:17 1510872137.794956: {"class":"DEVICES","devices":[{"class":"DEVICE","path":"/dev/ttyUSB0","driver":"SiRF","subtype":"9\u0006GSD4e_4.1.2-P1_RPATCH.05-F-GPS-4R-1510281 11/03/2015 307","activated":"2017-11-16T22:42:17.557Z","flags":1,"native":1,"bps":4800,"parity":"N","stopbits":1,"cycle":1.00}]}
2017-11-16 17:42:17 1510872137.795269: {"class":"WATCH","enable":true,"json":false,"nmea":true,"raw":0,"scaled":false,"timing":false,"split24":false,"pps":false}
2017-11-16 17:42:18 1510872138.752492: $GPGSV,3,1,12,01,22,295,33,10,43,150,44,22,23,312,42,12,20,045,49*7F
2017-11-16 17:42:18 1510872138.752651: $GPGSV,3,2,12,14,68,339,46,18,14,145,35,26,06,183,27,11,07,277,41*7C
2017-11-16 17:42:18 1510872138.752711: $GPGSV,3,3,12,25,40,084,48,31,60,229,48,32,67,039,49,138,38,213,44*4E
2017-11-16 17:42:18 1510872138.866248: $GPZDA,224217.00,16,11,2017,00,00*65
2017-11-16 17:42:18 1510872138.866451: $GPGGA,224217,3946.9575,N,08404.9841,W,2,12,0.80,301.85,M,-33.324,M,,*75
2017-11-16 17:42:18 1510872138.866540: $GPRMC,224217,A,3946.9575,N,08404.9841,W,0.0000,0.000,161117,,*34
2017-11-16 17:42:18 1510872138.866622: $GPGSA,A,3,1,10,22,12,14,18,26,11,25,31,32,138,1.6,0.8,1.3*3A
2017-11-16 17:42:19 1510872139.394192: $GPZDA,224218.00,16,11,2017,00,00*6A
2017-11-16 17:42:19 1510872139.394373: $GPGGA,224218,3946.9575,N,08404.9841,W,2,12,0.80,301.85,M,-33.324,M,,*7A
2017-11-16 17:42:19 1510872139.394435: $GPRMC,224218,A,3946.9575,N,08404.9841,W,0.0000,0.000,161117,,*3B
2017-11-16 17:42:19 1510872139.394491: $GPGSA,A,3,1,10,22,12,14,18,26,11,25,31,32,138,1.6,0.8,1.3*3A
2017-11-16 17:42:20 1510872140.410239: $GPZDA,224219.00,16,11,2017,00,00*6B
2017-11-16 17:42:20 1510872140.410415: $GPGGA,224219,3946.9575,N,08404.9841,W,2,12,0.80,301.85,M,-33.324,M,,*7B
2017-11-16 17:42:20 1510872140.410476: $GPRMC,224219,A,3946.9575,N,08404.9841,W,0.0000,0.000,161117,,*3A
2017-11-16 17:42:20 1510872140.410531: $GPGSA,A,3,1,10,22,12,14,18,26,11,25,31,32,138,1.6,0.8,1.3*3A
2017-11-16 17:42:21 1510872141.729115: $GPGSV,3,1,12,01,22,295,33,10,43,150,44,22,23,312,42,12,20,045,49*7F
2017-11-16 17:42:22 1510872142.705228: $GPGSV,3,2,12,14,68,339,46,18,14,145,35,26,06,183,26,11,07,277,41*7D
2017-11-16 17:42:22 1510872142.705371: $GPGSV,3,3,12,25,40,084,48,31,60,229,48,32,67,039,49,138,38,213,44*4E
2017-11-16 17:42:22 1510872142.705470: $GPZDA,224220.00,16,11,2017,00,00*61
2017-11-16 17:42:22 1510872142.705522: $GPGGA,224220,3946.9575,N,08404.9841,W,2,12,0.80,301.85,M,-33.324,M,,*71
2017-11-16 17:42:22 1510872142.705578: $GPRMC,224220,A,3946.9575,N,08404.9841,W,0.0000,0.000,161117,,*30
2017-11-16 17:42:22 1510872142.705632: $GPGSA,A,3,1,10,22,12,14,18,26,11,25,31,32,138,1.6,0.8,1.3*3A
2017-11-16 17:42:22 1510872142.705686: $GPZDA,224221.00,16,11,2017,00,00*60
2017-11-16 17:42:22 1510872142.705733: $GPGGA,224221,3946.9575,N,08404.9841,W,2,12,0.80,301.85,M,-33.324,M,,*70
2017-11-16 17:42:22 1510872142.705788: $GPRMC,224221,A,3946.9575,N,08404.9841,W,0.0000,0.000,161117,,*31
2017-11-16 17:42:22 1510872142.705841: $GPGSA,A,3,1,10,22,12,14,18,26,11,25,31,32,138,1.6,0.8,1.3*3A
2017-11-16 17:42:23 1510872143.416691: $GPZDA,224222.00,16,11,2017,00,00*63
2017-11-16 17:42:23 1510872143.416857: $GPGGA,224222,3946.9575,N,08404.9841,W,2,12,0.80,301.85,M,-33.324,M,,*73
2017-11-16 17:42:23 1510872143.416918: $GPRMC,224222,A,3946.9575,N,08404.9841,W,0.0000,0.000,161117,,*32
2017-11-16 17:42:23 1510872143.416974: $GPGSA,A,3,1,10,22,12,14,18,26,11,25,31,32,138,1.6,0.8,1.3*3A
2017-11-16 17:42:24 1510872144.753654: $GPGSV,3,1,12,01,22,295,27,10,43,150,44,22,23,312,42,12,20,045,49*7A
2017-11-16 17:42:24 1510872144.753815: $GPGSV,3,2,12,14,68,339,46,18,14,145,35,26,06,183,26,11,07,277,41*7D
2017-11-16 17:42:24 1510872144.753874: $GPGSV,3,3,12,25,40,084,48,31,60,229,48,32,67,039,49,138,38,213,44*4E
2017-11-16 17:42:24 1510872144.866956: $GPZDA,224223.00,16,11,2017,00,00*62
2017-11-16 17:42:24 1510872144.867119: $GPGGA,224223,3946.9575,N,08404.9841,W,2,12,0.80,301.85,M,-33.324,M,,*72
2017-11-16 17:42:24 1510872144.867234: $GPRMC,224223,A,3946.9575,N,08404.9841,W,0.0000,0.000,161117,,*33
2017-11-16 17:42:24 1510872144.867292: $GPGSA,A,3,1,10,22,12,14,18,26,11,25,31,32,138,1.6,0.8,1.3*3A
2017-11-16 17:42:25 1510872145.417842: $GPZDA,224224.00,16,11,2017,00,00*65
2017-11-16 17:42:25 1510872145.418004: $GPGGA,224224,3946.9575,N,08404.9841,W,2,12,0.80,301.85,M,-33.324,M,,*75
2017-11-16 17:42:25 1510872145.418066: $GPRMC,224224,A,3946.9575,N,08404.9841,W,0.0000,0.000,161117,,*34
2017-11-16 17:42:25 1510872145.418121: $GPGSA,A,3,1,10,22,12,14,18,26,11,25,31,32,138,1.6,0.8,1.3*3A
2017-11-16 17:42:26 1510872146.394457: $GPZDA,224225.00,16,11,2017,00,00*64
2017-11-16 17:42:26 1510872146.394639: $GPGGA,224225,3946.9575,N,08404.9841,W,2,12,0.80,301.85,M,-33.324,M,,*74
2017-11-16 17:42:26 1510872146.394703: $GPRMC,224225,A,3946.9575,N,08404.9841,W,0.0000,0.000,161117,,*35
2017-11-16 17:42:26 1510872146.394761: $GPGSA,A,3,1,10,22,12,14,18,26,11,25,31,32,138,1.6,0.8,1.3*3A
