2017-12-29 14:36:37 1514576197.880412: {"class":"VERSION","release":"3.16","rev":"3.16-4","proto_major":3,"proto_minor":11}
2017-12-29 14:36:37 1514576197.880756: {"class":"DEVICES","devices":[{"class":"DEVICE","path":"/dev/ttyUSB0","driver":"SiRF","subtype":"9\u0006GSD4e_4.1.2-P1_RPATCH.05-F-GPS-4R-1510281 11/03/2015 307","activated":"2017-12-29T19:36:37.583Z","flags":1,"native":1,"bps":4800,"parity":"N","stopbits":1,"cycle":1.00}]}
2017-12-29 14:36:37 1514576197.880870: {"class":"WATCH","enable":true,"json":false,"nmea":true,"raw":0,"scaled":false,"timing":false,"split24":false,"pps":false}
2017-12-29 14:36:38 1514576198.340301: $GPZDA,193639.00,29,12,2017,00,00*6D
2017-12-29 14:36:38 1514576198.340461: $GPGGA,193639,3946.9569,N,08404.9810,W,2,12,0.80,309.40,M,-33.324,M,,*7A
2017-12-29 14:36:38 1514576198.340526: $GPRMC,193639,A,3946.9569,N,08404.9810,W,0.0000,0.000,291217,,*35
2017-12-29 14:36:38 1514576198.340586: $GPGSA,A,3,10,11,12,14,18,22,25,31,32,1,3,138,1.7,0.8,1.3*0C
2017-12-29 14:36:39 1514576199.676062: $GPGSV,3,1,12,10,47,148,51,11,08,283,29,12,22,049,46,14,66,327,43*71
2017-12-29 14:36:39 1514576199.676227: $GPGSV,3,2,12,18,17,144,46,22,20,312,38,25,40,091,50,31,58,225,48*76
2017-12-29 14:36:39 1514576199.676294: $GPGSV,3,3,12,32,68,031,48,01,21,300,35,26,03,183,00,138,38,213,42*46
2017-12-29 14:36:39 1514576199.789398: $GPZDA,193640.00,29,12,2017,00,00*63
2017-12-29 14:36:39 1514576199.789525: $GPGGA,193640,3946.9569,N,08404.9810,W,2,11,0.80,309.40,M,-33.324,M,,*77
2017-12-29 14:36:39 1514576199.789589: $GPRMC,193640,A,3946.9569,N,08404.9810,W,0.0000,0.000,291217,,*3B
2017-12-29 14:36:39 1514576199.789649: $GPGSA,A,3,10,11,12,14,18,22,25,31,32,1,138,,1.7,0.8,1.3*3F
2017-12-29 14:36:40 1514576200.374108: $GPZDA,193641.00,29,12,2017,00,00*62
2017-12-29 14:36:40 1514576200.374275: $GPGGA,193641,3946.9569,N,08404.9810,W,2,11,0.80,309.40,M,-33.324,M,,*76
2017-12-29 14:36:40 1514576200.374342: $GPRMC,193641,A,3946.9569,N,08404.9810,W,0.0000,0.000,291217,,*3A
2017-12-29 14:36:40 1514576200.374403: $GPGSA,A,3,10,11,12,14,18,22,25,31,32,1,138,,1.7,0.8,1.3*3F
2017-12-29 14:36:41 1514576201.339916: $GPZDA,193642.00,29,12,2017,00,00*61
2017-12-29 14:36:41 1514576201.340063: $GPGGA,193642,3946.9569,N,08404.9810,W,2,11,0.80,309.40,M,-33.324,M,,*75
2017-12-29 14:36:41 1514576201.340127: $GPRMC,193642,A,3946.9569,N,08404.9810,W,0.0000,0.000,291217,,*39
2017-12-29 14:36:41 1514576201.340187: $GPGSA,A,3,10,11,12,14,18,22,25,31,32,1,138,,1.7,0.8,1.3*3F
2017-12-29 14:36:42 1514576202.705139: $GPGSV,3,1,12,10,47,148,51,11,08,283,30,12,22,049,46,14,66,327,42*78
2017-12-29 14:36:42 1514576202.705295: $GPGSV,3,2,12,18,17,144,46,22,20,312,38,25,40,091,50,31,58,225,48*76
2017-12-29 14:36:42 1514576202.705361: $GPGSV,3,3,12,32,68,031,48,01,21,300,35,26,03,183,00,138,38,213,43*47
2017-12-29 14:36:42 1514576202.818476: $GPZDA,193643.00,29,12,2017,00,00*60
2017-12-29 14:36:42 1514576202.818597: $GPGGA,193643,3946.9569,N,08404.9810,W,2,11,0.80,309.40,M,-33.324,M,,*74
2017-12-29 14:36:42 1514576202.818662: $GPRMC,193643,A,3946.9569,N,08404.9810,W,0.0000,0.000,291217,,*38
2017-12-29 14:36:42 1514576202.818723: $GPGSA,A,3,10,11,12,14,18,22,25,31,32,1,138,,1.7,0.8,1.3*3F
2017-12-29 14:36:43 1514576203.376906: $GPZDA,193644.00,29,12,2017,00,00*67
2017-12-29 14:36:43 1514576203.377068: $GPGGA,193644,3946.9569,N,08404.9810,W,2,11,0.80,309.40,M,-33.324,M,,*73
2017-12-29 14:36:43 1514576203.377135: $GPRMC,193644,A,3946.9569,N,08404.9810,W,0.0000,0.000,291217,,*3F
2017-12-29 14:36:43 1514576203.377196: $GPGSA,A,3,10,11,12,14,18,22,25,31,32,1,138,,1.7,0.8,1.3*3F
2017-12-29 14:36:44 1514576204.369385: $GPZDA,193645.00,29,12,2017,00,00*66
2017-12-29 14:36:44 1514576204.369537: $GPGGA,193645,3946.9569,N,08404.9810,W,2,11,0.80,309.40,M,-33.324,M,,*72
2017-12-29 14:36:44 1514576204.369600: $GPRMC,193645,A,3946.9569,N,08404.9810,W,0.0000,0.000,291217,,*3E
2017-12-29 14:36:44 1514576204.369660: $GPGSA,A,3,10,11,12,14,18,22,25,31,32,1,138,,1.7,0.8,1.3*3F
2017-12-29 14:36:45 1514576205.678505: $GPGSV,3,1,12,10,47,148,51,11,08,283,28,12,22,049,46,14,66,327,42*71
2017-12-29 14:36:45 1514576205.678733: $GPGSV,3,2,12,18,17,144,46,22,20,312,38,25,40,091,50,31,58,225,48*76
2017-12-29 14:36:45 1514576205.678801: $GPGSV,3,3,12,32,68,031,48,01,21,300,35,03,01,316,02,138,38,213,42*4F
2017-12-29 14:36:45 1514576205.792170: $GPZDA,193646.00,29,12,2017,00,00*65
2017-12-29 14:36:45 1514576205.792290: $GPGGA,193646,3946.9569,N,08404.9810,W,2,11,0.80,309.40,M,-33.324,M,,*71
2017-12-29 14:36:45 1514576205.792354: $GPRMC,193646,A,3946.9569,N,08404.9810,W,0.0000,0.000,291217,,*3D
2017-12-29 14:36:45 1514576205.792413: $GPGSA,A,3,10,11,12,14,18,22,25,31,32,1,138,,1.7,0.8,1.3*3F
2017-12-29 14:36:46 1514576206.376772: $GPZDA,193647.00,29,12,2017,00,00*64
2017-12-29 14:36:46 1514576206.376931: $GPGGA,193647,3946.9569,N,08404.9810,W,2,11,0.80,309.40,M,-33.324,M,,*70
2017-12-29 14:36:46 1514576206.376996: $GPRMC,193647,A,3946.9569,N,08404.9810,W,0.0000,0.000,291217,,*3C
2017-12-29 14:36:46 1514576206.377056: $GPGSA,A,3,10,11,12,14,18,22,25,31,32,1,138,,1.7,0.8,1.3*3F
2017-12-29 14:36:47 1514576207.374634: $GPZDA,193648.00,29,12,2017,00,00*6B
2017-12-29 14:36:47 1514576207.374793: $GPGGA,193648,3946.9569,N,08404.9810,W,2,11,0.80,309.40,M,-33.324,M,,*7F
2017-12-29 14:36:47 1514576207.374859: $GPRMC,193648,A,3946.9569,N,08404.9810,W,0.0000,0.000,291217,,*33
2017-12-29 14:36:47 1514576207.374918: $GPGSA,A,3,10,11,12,14,18,22,25,31,32,1,138,,1.7,0.8,1.3*3F
