2017-11-15 19:38:57 1510792737.352237: {"class":"VERSION","release":"3.17","rev":"3.17","proto_major":3,"proto_minor":12}
2017-11-15 19:38:57 1510792737.352713: {"class":"DEVICES","devices":[{"class":"DEVICE","path":"/dev/ttyUSB0","driver":"SiRF","subtype":"9\u0006GSD4e_4.1.2-P1_RPATCH.05-F-GPS-4R-1510281 11/03/2015 307","activated":"2017-11-16T00:38:57.216Z","flags":1,"native":1,"bps":4800,"parity":"N","stopbits":1,"cycle":1.00}]}
2017-11-15 19:38:57 1510792737.352828: {"class":"WATCH","enable":true,"json":false,"nmea":true,"raw":0,"scaled":false,"timing":false,"split24":false,"pps":false}
2017-11-15 19:38:57 1510792737.666336: $GPGSV,3,1,12,32,32,111,24,01,03,249,04,22,50,264,07,26,58,171,14*7F
2017-11-15 19:38:57 1510792737.666483: $GPGSV,3,2,12,14,52,097,01,31,64,031,26,03,42,294,17,16,27,190,00*76
2017-11-15 19:38:57 1510792737.666542: $GPGSV,3,3,12,23,14,303,00,25,13,039,00,29,12,067,00,135,23,238,00*47
2017-11-15 19:38:57 1510792737.780092: $GPZDA,003856.00,16,11,2017,00,00*6D
2017-11-15 19:38:57 1510792737.780265: $GPGGA,003856,3946.9574,N,08404.9557,W,1,05,1.80,284.91,M,-33.324,M,,*7B
2017-11-15 19:38:57 1510792737.780327: $GPRMC,003856,A,3946.9574,N,08404.9557,W,0.5951,58.684,161117,,*08
2017-11-15 19:38:57 1510792737.780383: $GPGSA,A,3,32,22,26,31,3,,,,,,,,3.4,1.8,2.9*03
2017-11-15 19:38:58 1510792738.345542: $GPZDA,003857.00,16,11,2017,00,00*6C
2017-11-15 19:38:58 1510792738.345720: $GPGGA,003857,3946.9574,N,08404.9557,W,1,05,1.80,284.91,M,-33.324,M,,*7A
2017-11-15 19:38:58 1510792738.345783: $GPRMC,003857,A,3946.9574,N,08404.9557,W,0.5287,2.716,161117,,*3C
2017-11-15 19:38:58 1510792738.345860: $GPGSA,A,3,32,22,26,31,3,,,,,,,,3.4,1.8,2.9*03
2017-11-15 19:38:59 1510792739.345514: $GPZDA,003858.00,16,11,2017,00,00*63
2017-11-15 19:38:59 1510792739.345682: $GPGGA,003858,3946.9574,N,08404.9564,W,1,05,1.80,284.83,M,-33.324,M,,*76
2017-11-15 19:38:59 1510792739.345744: $GPRMC,003858,A,3946.9574,N,08404.9564,W,0.8011,299.090,161117,,*3A
2017-11-15 19:38:59 1510792739.345799: $GPGSA,A,3,32,22,26,31,3,,,,,,,,3.4,1.8,2.9*03
2017-11-15 19:39:00 1510792740.668449: $GPGSV,3,1,12,32,32,111,24,01,03,249,04,22,50,264,06,26,58,171,14*7E
2017-11-15 19:39:00 1510792740.668635: $GPGSV,3,2,12,14,52,097,10,31,64,031,26,03,42,294,18,16,27,190,02*7B
2017-11-15 19:39:00 1510792740.668695: $GPGSV,3,3,12,23,14,303,00,25,13,039,00,29,12,067,00,135,23,238,00*47
2017-11-15 19:39:00 1510792740.781784: $GPZDA,003859.00,16,11,2017,00,00*62
2017-11-15 19:39:00 1510792740.781985: $GPGGA,003859,3946.9574,N,08404.9564,W,1,05,1.80,284.83,M,-33.324,M,,*77
2017-11-15 19:39:00 1510792740.782047: $GPRMC,003859,A,3946.9574,N,08404.9564,W,0.7267,273.794,161117,,*30
2017-11-15 19:39:00 1510792740.782103: $GPGSA,A,3,32,22,26,31,3,,,,,,,,3.4,1.8,2.9*03
2017-11-15 19:39:01 1510792741.407283: $GPZDA,003900.00,16,11,2017,00,00*6F
2017-11-15 19:39:01 1510792741.407488: $GPGGA,003900,3946.9575,N,08404.9571,W,1,05,1.80,284.75,M,-33.324,M,,*76
2017-11-15 19:39:01 1510792741.413184: $GPRMC,003900,A,3946.9575,N,08404.9571,W,0.4207,219.347,161117,,*3B
2017-11-15 19:39:01 1510792741.413268: $GPGSA,A,3,32,22,26,31,3,,,,,,,,3.4,1.8,2.9*03
2017-11-15 19:39:02 1510792742.345931: $GPZDA,003901.00,16,11,2017,00,00*6E
2017-11-15 19:39:02 1510792742.346093: $GPGGA,003901,3946.9571,N,08404.9571,W,1,05,1.60,285.52,M,-33.324,M,,*79
2017-11-15 19:39:02 1510792742.346154: $GPRMC,003901,A,3946.9571,N,08404.9571,W,0.8054,248.645,161117,,*35
2017-11-15 19:39:02 1510792742.346226: $GPGSA,A,3,32,22,26,31,3,,,,,,,,3.4,1.6,2.9*0D
2017-11-15 19:39:03 1510792743.663869: $GPGSV,3,1,12,32,32,111,24,16,27,190,00,22,50,264,08,26,58,171,14*73
2017-11-15 19:39:03 1510792743.664036: $GPGSV,3,2,12,14,52,097,12,31,64,031,26,03,42,294,17,23,14,303,00*7A
2017-11-15 19:39:03 1510792743.664097: $GPGSV,3,3,12,25,13,039,00,29,12,067,00,01,03,249,00,135,23,238,00*4E
2017-11-15 19:39:03 1510792743.777562: $GPZDA,003902.00,16,11,2017,00,00*6D
2017-11-15 19:39:03 1510792743.777721: $GPGGA,003902,3946.9567,N,08404.9578,W,1,06,1.60,284.80,M,-33.324,M,,*79
2017-11-15 19:39:03 1510792743.777781: $GPRMC,003902,A,3946.9567,N,08404.9578,W,0.8054,248.645,161117,,*38
2017-11-15 19:39:03 1510792743.777904: $GPGSA,A,3,32,22,26,14,31,3,,,,,,,3.4,1.6,2.9*08
2017-11-15 19:39:04 1510792744.345644: $GPZDA,003903.00,16,11,2017,00,00*6C
2017-11-15 19:39:04 1510792744.345808: $GPGGA,003903,3946.9567,N,08404.9578,W,1,06,1.60,284.80,M,-33.324,M,,*78
2017-11-15 19:39:04 1510792744.345868: $GPRMC,003903,A,3946.9567,N,08404.9578,W,1.0298,254.381,161117,,*32
2017-11-15 19:39:04 1510792744.345923: $GPGSA,A,3,32,22,26,14,31,3,,,,,,,3.4,1.6,2.9*08
2017-11-15 19:39:05 1510792745.328942: $GPZDA,003904.00,16,11,2017,00,00*6B
2017-11-15 19:39:05 1510792745.329103: $GPGGA,003904,3946.9564,N,08404.9586,W,1,06,1.60,285.48,M,-33.324,M,,*78
2017-11-15 19:39:05 1510792745.329164: $GPRMC,003904,A,3946.9564,N,08404.9586,W,1.2608,258.042,161117,,*38
2017-11-15 19:39:05 1510792745.329219: $GPGSA,A,3,32,22,26,14,31,3,,,,,,,3.4,1.6,2.9*08
2017-11-15 19:39:06 1510792746.680446: $GPGSV,3,1,12,32,32,111,24,16,27,190,00,22,50,264,09,26,58,171,15*73
2017-11-15 19:39:06 1510792746.680649: $GPGSV,3,2,12,14,52,097,12,31,64,031,26,03,42,294,17,23,14,303,00*7A
2017-11-15 19:39:06 1510792746.680709: $GPGSV,3,3,12,25,13,039,00,29,12,067,00,01,03,249,00,120,07,103,00*47
2017-11-15 19:39:06 1510792746.793790: $GPZDA,003905.00,16,11,2017,00,00*6A
2017-11-15 19:39:06 1510792746.793951: $GPGGA,003905,3946.9565,N,08404.9593,W,1,06,1.60,285.40,M,-33.324,M,,*74
2017-11-15 19:39:06 1510792746.794011: $GPRMC,003905,A,3946.9565,N,08404.9593,W,1.0298,254.381,161117,,*33
2017-11-15 19:39:06 1510792746.794066: $GPGSA,A,3,32,22,26,14,31,3,,,,,,,3.4,1.6,2.9*08
