2017-12-29 11:34:05 1514565245.547639: {"class":"VERSION","release":"3.16","rev":"3.16-4","proto_major":3,"proto_minor":11}
2017-12-29 11:34:05 1514565245.548005: {"class":"DEVICES","devices":[{"class":"DEVICE","path":"/dev/ttyUSB0","driver":"SiRF","subtype":"9\u0006GSD4e_4.1.2-P1_RPATCH.05-F-GPS-4R-1510281 11/03/2015 307","activated":"2017-12-29T16:34:05.259Z","flags":1,"native":1,"bps":4800,"parity":"N","stopbits":1,"cycle":1.00}]}
2017-12-29 11:34:05 1514565245.548124: {"class":"WATCH","enable":true,"json":false,"nmea":true,"raw":0,"scaled":false,"timing":false,"split24":false,"pps":false}
2017-12-29 11:34:05 1514565245.708687: $GPGSV,3,1,11,08,07,316,44,10,47,307,46,15,31,055,49,20,29,102,49*78
2017-12-29 11:34:05 1514565245.708853: $GPGSV,3,2,11,21,56,184,47,24,53,097,50,27,17,282,36,32,27,243,38*79
2017-12-29 11:34:05 1514565245.708919: $GPGSV,3,3,11,14,09,235,22,13,02,051,00,138,38,213,45*75
2017-12-29 11:34:05 1514565245.822489: $GPZDA,163406.00,29,12,2017,00,00*6C
2017-12-29 11:34:05 1514565245.822663: $GPGGA,163406,3946.9582,N,08404.9879,W,2,10,1.20,320.56,M,-33.324,M,,*74
2017-12-29 11:34:05 1514565245.822733: $GPRMC,163406,A,3946.9582,N,08404.9879,W,0.0000,0.000,291217,,*3E
2017-12-29 11:34:05 1514565245.822793: $GPGSA,A,3,8,10,15,20,21,24,27,32,14,138,,,1.7,1.2,1.3*34
2017-12-29 11:34:06 1514565246.357091: $GPZDA,163407.00,29,12,2017,00,00*6D
2017-12-29 11:34:06 1514565246.357257: $GPGGA,163407,3946.9597,N,08404.9877,W,2,10,1.20,320.31,M,-33.324,M,,*7E
2017-12-29 11:34:06 1514565246.357324: $GPRMC,163407,A,3946.9597,N,08404.9877,W,0.0000,0.000,291217,,*35
2017-12-29 11:34:06 1514565246.357387: $GPGSA,A,3,8,10,15,20,21,24,27,32,14,138,,,1.7,1.2,1.3*34
2017-12-29 11:34:07 1514565247.375437: $GPZDA,163408.00,29,12,2017,00,00*62
2017-12-29 11:34:07 1514565247.375611: $GPGGA,163408,3946.9597,N,08404.9877,W,2,10,1.20,320.31,M,-33.324,M,,*71
2017-12-29 11:34:07 1514565247.375679: $GPRMC,163408,A,3946.9597,N,08404.9877,W,0.0000,0.000,291217,,*3A
2017-12-29 11:34:07 1514565247.375743: $GPGSA,A,3,8,10,15,20,21,24,27,32,14,138,,,1.7,1.2,1.3*34
2017-12-29 11:34:08 1514565248.694092: $GPGSV,3,1,11,08,07,316,44,10,47,307,46,15,31,055,49,20,29,102,49*78
2017-12-29 11:34:08 1514565248.694301: $GPGSV,3,2,11,21,56,184,47,24,53,097,50,27,17,282,37,32,27,243,38*78
2017-12-29 11:34:08 1514565248.694367: $GPGSV,3,3,11,14,09,235,19,13,02,051,00,138,38,213,45*7D
2017-12-29 11:34:08 1514565248.806120: $GPZDA,163409.00,29,12,2017,00,00*63
2017-12-29 11:34:08 1514565248.806297: $GPGGA,163409,3946.9597,N,08404.9877,W,2,10,1.20,320.31,M,-33.324,M,,*70
2017-12-29 11:34:08 1514565248.806363: $GPRMC,163409,A,3946.9597,N,08404.9877,W,0.0000,0.000,291217,,*3B
2017-12-29 11:34:08 1514565248.806425: $GPGSA,A,3,8,10,15,20,21,24,27,32,14,138,,,1.7,1.2,1.3*34
2017-12-29 11:34:09 1514565249.374486: $GPZDA,163410.00,29,12,2017,00,00*6B
2017-12-29 11:34:09 1514565249.374684: $GPGGA,163410,3946.9597,N,08404.9877,W,2,10,1.20,320.31,M,-33.324,M,,*78
2017-12-29 11:34:09 1514565249.374751: $GPRMC,163410,A,3946.9597,N,08404.9877,W,0.0000,0.000,291217,,*33
2017-12-29 11:34:09 1514565249.374813: $GPGSA,A,3,8,10,15,20,21,24,27,32,14,138,,,1.7,1.2,1.3*34
2017-12-29 11:34:10 1514565250.368123: $GPZDA,163411.00,29,12,2017,00,00*6A
2017-12-29 11:34:10 1514565250.368293: $GPGGA,163411,3946.9597,N,08404.9877,W,2,10,1.20,320.31,M,-33.324,M,,*79
2017-12-29 11:34:10 1514565250.368359: $GPRMC,163411,A,3946.9597,N,08404.9877,W,0.0000,0.000,291217,,*32
2017-12-29 11:34:10 1514565250.368421: $GPGSA,A,3,8,10,15,20,21,24,27,32,14,138,,,1.7,1.2,1.3*34
2017-12-29 11:34:11 1514565251.688560: $GPGSV,3,1,11,08,07,316,44,10,47,307,46,15,31,055,49,20,29,102,49*78
2017-12-29 11:34:11 1514565251.688741: $GPGSV,3,2,11,21,56,184,47,24,53,097,50,27,17,282,38,32,27,243,38*77
2017-12-29 11:34:11 1514565251.688808: $GPGSV,3,3,11,14,09,235,30,13,02,051,00,138,38,213,46*75
2017-12-29 11:34:11 1514565251.802331: $GPZDA,163412.00,29,12,2017,00,00*69
2017-12-29 11:34:11 1514565251.802500: $GPGGA,163412,3946.9597,N,08404.9877,W,2,10,1.20,320.31,M,-33.324,M,,*7A
2017-12-29 11:34:11 1514565251.802625: $GPRMC,163412,A,3946.9597,N,08404.9877,W,0.0000,0.000,291217,,*31
2017-12-29 11:34:11 1514565251.802687: $GPGSA,A,3,8,10,15,20,21,24,27,32,14,138,,,1.7,1.2,1.3*34
2017-12-29 11:34:12 1514565252.356554: $GPZDA,163413.00,29,12,2017,00,00*68
2017-12-29 11:34:12 1514565252.356733: $GPGGA,163413,3946.9597,N,08404.9877,W,2,10,1.20,320.31,M,-33.324,M,,*7B
2017-12-29 11:34:12 1514565252.356801: $GPRMC,163413,A,3946.9597,N,08404.9877,W,0.0000,0.000,291217,,*30
2017-12-29 11:34:12 1514565252.356863: $GPGSA,A,3,8,10,15,20,21,24,27,32,14,138,,,1.7,1.2,1.3*34
2017-12-29 11:34:13 1514565253.357189: $GPZDA,163414.00,29,12,2017,00,00*6F
2017-12-29 11:34:13 1514565253.357359: $GPGGA,163414,3946.9597,N,08404.9877,W,2,10,1.20,320.31,M,-33.324,M,,*7C
2017-12-29 11:34:13 1514565253.357444: $GPRMC,163414,A,3946.9597,N,08404.9877,W,0.0000,0.000,291217,,*37
2017-12-29 11:34:13 1514565253.357510: $GPGSA,A,3,8,10,15,20,21,24,27,32,14,138,,,1.7,1.2,1.3*34
2017-12-29 11:34:14 1514565254.691420: $GPGSV,3,1,11,08,07,316,44,10,47,307,46,15,31,055,49,20,29,102,49*78
2017-12-29 11:34:14 1514565254.691607: $GPGSV,3,2,11,21,56,184,47,24,53,097,51,27,17,282,39,32,27,243,38*77
2017-12-29 11:34:14 1514565254.691676: $GPGSV,3,3,11,14,09,235,19,13,02,051,00,138,38,213,45*7D
2017-12-29 11:34:14 1514565254.804730: $GPZDA,163415.00,29,12,2017,00,00*6E
2017-12-29 11:34:14 1514565254.804887: $GPGGA,163415,3946.9597,N,08404.9877,W,2,10,1.20,320.31,M,-33.324,M,,*7D
2017-12-29 11:34:14 1514565254.804952: $GPRMC,163415,A,3946.9597,N,08404.9877,W,0.0000,0.000,291217,,*36
2017-12-29 11:34:14 1514565254.805014: $GPGSA,A,3,8,10,15,20,21,24,27,32,14,138,,,1.7,1.2,1.3*34
2017-12-29 11:34:15 1514565255.352155: $GPZDA,163416.00,29,12,2017,00,00*6D
2017-12-29 11:34:15 1514565255.352324: $GPGGA,163416,3946.9597,N,08404.9877,W,2,10,1.20,320.31,M,-33.324,M,,*7E
2017-12-29 11:34:15 1514565255.352391: $GPRMC,163416,A,3946.9597,N,08404.9877,W,0.0000,0.000,291217,,*35
2017-12-29 11:34:15 1514565255.352454: $GPGSA,A,3,8,10,15,20,21,24,27,32,14,138,,,1.7,1.2,1.3*34
2017-12-29 11:34:16 1514565256.357681: $GPZDA,163417.00,29,12,2017,00,00*6C
2017-12-29 11:34:16 1514565256.357866: $GPGGA,163417,3946.9597,N,08404.9877,W,2,10,1.20,320.31,M,-33.324,M,,*7F
2017-12-29 11:34:16 1514565256.357933: $GPRMC,163417,A,3946.9597,N,08404.9877,W,0.0000,0.000,291217,,*34
2017-12-29 11:34:16 1514565256.357995: $GPGSA,A,3,8,10,15,20,21,24,27,32,14,138,,,1.7,1.2,1.3*34
2017-12-29 11:34:17 1514565257.690919: $GPGSV,3,1,11,08,07,316,44,10,47,307,46,15,31,055,49,20,29,102,49*78
2017-12-29 11:34:17 1514565257.691146: $GPGSV,3,2,11,21,56,184,47,24,53,097,50,27,17,282,40,32,27,243,38*78
2017-12-29 11:34:17 1514565257.691216: $GPGSV,3,3,11,14,09,235,00,13,02,051,00,138,38,213,45*75
2017-12-29 11:34:17 1514565257.804508: $GPZDA,163418.00,29,12,2017,00,00*63
2017-12-29 11:34:17 1514565257.804644: $GPGGA,163418,3946.9597,N,08404.9877,W,2,09,1.20,320.31,M,-33.324,M,,*78
2017-12-29 11:34:17 1514565257.804710: $GPRMC,163418,A,3946.9597,N,08404.9877,W,0.0000,0.000,291217,,*3B
2017-12-29 11:34:17 1514565257.804770: $GPGSA,A,3,8,10,15,20,21,24,27,32,138,,,,1.7,1.2,1.3*31
2017-12-29 11:34:18 1514565258.429785: $GPZDA,163419.00,29,12,2017,00,00*62
2017-12-29 11:34:18 1514565258.429983: $GPGGA,163419,3946.9597,N,08404.9877,W,2,09,1.20,320.31,M,-33.324,M,,*79
2017-12-29 11:34:18 1514565258.430055: $GPRMC,163419,A,3946.9597,N,08404.9877,W,0.0000,0.000,291217,,*3A
2017-12-29 11:34:18 1514565258.430119: $GPGSA,A,3,8,10,15,20,21,24,27,32,138,,,,1.7,1.2,1.3*31
2017-12-29 11:34:19 1514565259.355708: $GPRMC,163420,V,3946.9597,N,08404.9877,W,0.0000,0.000,291217,,*27
2017-12-29 11:34:19 1514565259.355885: $GPGSA,A,1,8,10,15,20,21,24,27,32,138,,,,,,,*36
