2017-11-16 17:25:02 1510871102.504042: {"class":"VERSION","release":"3.17","rev":"3.17","proto_major":3,"proto_minor":12}
2017-11-16 17:25:02 1510871102.504487: {"class":"DEVICES","devices":[{"class":"DEVICE","path":"/dev/ttyUSB0","driver":"SiRF","subtype":"9\u0006GSD4e_4.1.2-P1_RPATCH.05-F-GPS-4R-1510281 11/03/2015 307","activated":"2017-11-16T22:25:02.453Z","flags":1,"native":1,"bps":4800,"parity":"N","stopbits":1,"cycle":1.00}]}
2017-11-16 17:25:02 1510871102.504603: {"class":"WATCH","enable":true,"json":false,"nmea":true,"raw":0,"scaled":false,"timing":false,"split24":false,"pps":false}
2017-11-16 17:25:03 1510871103.756670: $GPGSV,3,1,11,01,21,304,37,10,51,147,49,22,16,312,41,12,23,052,50*72
2017-11-16 17:25:03 1510871103.756847: $GPGSV,3,2,11,14,65,321,46,18,21,142,39,11,09,285,41,25,39,094,49*75
2017-11-16 17:25:03 1510871103.756910: $GPGSV,3,3,11,31,52,222,48,32,69,018,49,138,38,213,44*79
2017-11-16 17:25:03 1510871103.870106: $GPZDA,222502.00,16,11,2017,00,00*60
2017-11-16 17:25:03 1510871103.870288: $GPGGA,222502,3946.9570,N,08404.9837,W,2,11,0.80,307.67,M,-33.324,M,,*7D
2017-11-16 17:25:03 1510871103.870354: $GPRMC,222502,A,3946.9570,N,08404.9837,W,0.0000,0.000,161117,,*35
2017-11-16 17:25:03 1510871103.870416: $GPGSA,A,3,1,10,22,12,14,18,11,25,31,32,138,,1.6,0.8,1.3*3E
2017-11-16 17:25:04 1510871104.420743: $GPZDA,222503.00,16,11,2017,00,00*61
2017-11-16 17:25:04 1510871104.420911: $GPGGA,222503,3946.9570,N,08404.9837,W,2,11,0.80,307.67,M,-33.324,M,,*7C
2017-11-16 17:25:04 1510871104.420974: $GPRMC,222503,A,3946.9570,N,08404.9837,W,0.0000,0.000,161117,,*34
2017-11-16 17:25:04 1510871104.421031: $GPGSA,A,3,1,10,22,12,14,18,11,25,31,32,138,,1.6,0.8,1.3*3E
2017-11-16 17:25:05 1510871105.420358: $GPZDA,222504.00,16,11,2017,00,00*66
2017-11-16 17:25:05 1510871105.420522: $GPGGA,222504,3946.9570,N,08404.9837,W,2,11,0.80,307.67,M,-33.324,M,,*7B
2017-11-16 17:25:05 1510871105.420585: $GPRMC,222504,A,3946.9570,N,08404.9837,W,0.0000,0.000,161117,,*33
2017-11-16 17:25:05 1510871105.420644: $GPGSA,A,3,1,10,22,12,14,18,11,25,31,32,138,,1.6,0.8,1.3*3E
2017-11-16 17:25:06 1510871106.739487: $GPGSV,3,1,11,01,21,304,37,10,51,147,49,22,16,312,40,12,23,052,50*73
2017-11-16 17:25:07 1510871107.119994: $GPGSV,3,2,11,14,65,321,46,18,21,142,39,11,09,285,41,25,39,094,49*75
2017-11-16 17:25:07 1510871107.120212: $GPGSV,3,3,11,31,52,222,49,32,69,018,50,138,38,213,44*70
2017-11-16 17:25:07 1510871107.120307: $GPZDA,222505.00,16,11,2017,00,00*67
2017-11-16 17:25:07 1510871107.120359: $GPGGA,222505,3946.9570,N,08404.9837,W,2,11,0.80,307.67,M,-33.324,M,,*7A
2017-11-16 17:25:07 1510871107.120416: $GPRMC,222505,A,3946.9570,N,08404.9837,W,0.0000,0.000,161117,,*32
2017-11-16 17:25:07 1510871107.120472: $GPGSA,A,3,1,10,22,12,14,18,11,25,31,32,138,,1.6,0.8,1.3*3E
2017-11-16 17:25:07 1510871107.401199: $GPZDA,222506.00,16,11,2017,00,00*64
2017-11-16 17:25:07 1510871107.401361: $GPGGA,222506,3946.9570,N,08404.9837,W,2,11,0.80,307.67,M,-33.324,M,,*79
2017-11-16 17:25:07 1510871107.401421: $GPRMC,222506,A,3946.9570,N,08404.9837,W,0.0000,0.000,161117,,*31
2017-11-16 17:25:07 1510871107.401479: $GPGSA,A,3,1,10,22,12,14,18,11,25,31,32,138,,1.6,0.8,1.3*3E
2017-11-16 17:25:08 1510871108.396193: $GPZDA,222507.00,16,11,2017,00,00*65
2017-11-16 17:25:08 1510871108.396357: $GPGGA,222507,3946.9570,N,08404.9837,W,2,11,0.80,307.67,M,-33.324,M,,*78
2017-11-16 17:25:08 1510871108.396417: $GPRMC,222507,A,3946.9570,N,08404.9837,W,0.0000,0.000,161117,,*30
2017-11-16 17:25:08 1510871108.396473: $GPGSA,A,3,1,10,22,12,14,18,11,25,31,32,138,,1.6,0.8,1.3*3E
2017-11-16 17:25:09 1510871109.731505: $GPGSV,3,1,11,01,21,304,37,10,51,147,50,22,16,312,40,12,23,052,50*7B
2017-11-16 17:25:09 1510871109.731710: $GPGSV,3,2,11,14,65,321,46,18,21,142,39,11,09,285,41,25,39,094,48*74
2017-11-16 17:25:09 1510871109.731787: $GPGSV,3,3,11,31,52,222,49,32,69,018,49,138,38,213,43*7F
2017-11-16 17:25:09 1510871109.844890: $GPZDA,222508.00,16,11,2017,00,00*6A
2017-11-16 17:25:09 1510871109.845101: $GPGGA,222508,3946.9573,N,08404.9837,W,2,11,0.80,306.91,M,-33.324,M,,*7C
2017-11-16 17:25:09 1510871109.845222: $GPRMC,222508,A,3946.9573,N,08404.9837,W,0.0000,0.000,161117,,*3C
2017-11-16 17:25:09 1510871109.845280: $GPGSA,A,3,1,10,22,12,14,18,11,25,31,32,138,,1.6,0.8,1.3*3E
2017-11-16 17:25:10 1510871110.420768: $GPZDA,222509.00,16,11,2017,00,00*6B
2017-11-16 17:25:10 1510871110.420943: $GPGGA,222509,3946.9573,N,08404.9837,W,2,11,0.80,306.91,M,-33.324,M,,*7D
2017-11-16 17:25:10 1510871110.421004: $GPRMC,222509,A,3946.9573,N,08404.9837,W,0.0000,0.000,161117,,*3D
2017-11-16 17:25:10 1510871110.421060: $GPGSA,A,3,1,10,22,12,14,18,11,25,31,32,138,,1.6,0.8,1.3*3E
2017-11-16 17:25:11 1510871111.421079: $GPZDA,222510.00,16,11,2017,00,00*63
2017-11-16 17:25:11 1510871111.421239: $GPGGA,222510,3946.9573,N,08404.9837,W,2,11,0.80,306.91,M,-33.324,M,,*75
2017-11-16 17:25:11 1510871111.421300: $GPRMC,222510,A,3946.9573,N,08404.9837,W,0.0000,0.000,161117,,*35
2017-11-16 17:25:11 1510871111.421355: $GPGSA,A,3,1,10,22,12,14,18,11,25,31,32,138,,1.6,0.8,1.3*3E
