2017-12-01 16:18:48 1512163128.006606: {"class":"VERSION","release":"3.16","rev":"3.16-4","proto_major":3,"proto_minor":11}
2017-12-01 16:18:48 1512163128.007005: {"class":"DEVICES","devices":[{"class":"DEVICE","path":"/dev/ttyUSB0","driver":"SiRF","subtype":"9\u0006GSD4e_4.1.2-P1_RPATCH.05-F-GPS-4R-1510281 11/03/2015 307","activated":"2017-12-01T21:18:47.684Z","flags":1,"native":1,"bps":4800,"parity":"N","stopbits":1,"cycle":1.00}]}
2017-12-01 16:18:48 1512163128.007127: {"class":"WATCH","enable":true,"json":false,"nmea":true,"raw":0,"scaled":false,"timing":false,"split24":false,"pps":false}
2017-12-01 16:18:48 1512163128.369466: $GPZDA,211849.00,01,12,2017,00,00*67
2017-12-01 16:18:48 1512163128.369640: $GPGGA,211849,3946.9558,N,08404.9816,W,2,11,0.80,318.07,M,-33.324,M,,*7E
2017-12-01 16:18:48 1512163128.369707: $GPRMC,211849,A,3946.9558,N,08404.9816,W,0.0000,0.000,011217,,*3B
2017-12-01 16:18:48 1512163128.369769: $GPGSA,A,3,10,11,12,14,18,22,25,31,32,1,138,,2.0,0.8,1.5*3D
2017-12-01 16:18:49 1512163129.707737: $GPGSV,3,1,12,10,53,145,47,11,09,286,36,12,24,055,45,14,63,316,45*7D
2017-12-01 16:18:49 1512163129.707919: $GPGSV,3,2,12,18,23,142,45,22,15,312,42,25,38,097,46,31,51,220,48*7D
2017-12-01 16:18:49 1512163129.707986: $GPGSV,3,3,12,32,69,013,47,01,20,306,35,24,02,048,00,138,38,213,46*4E
2017-12-01 16:18:49 1512163129.821130: $GPZDA,211850.00,01,12,2017,00,00*6F
2017-12-01 16:18:49 1512163129.821321: $GPGGA,211850,3946.9555,N,08404.9824,W,2,11,0.80,318.76,M,-33.324,M,,*7C
2017-12-01 16:18:49 1512163129.821462: $GPRMC,211850,A,3946.9555,N,08404.9824,W,0.0000,0.000,011217,,*3F
2017-12-01 16:18:49 1512163129.821528: $GPGSA,A,3,10,11,12,14,18,22,25,31,32,1,138,,2.0,0.8,1.5*3D
2017-12-01 16:18:50 1512163130.369779: $GPZDA,211851.00,01,12,2017,00,00*6E
2017-12-01 16:18:50 1512163130.369934: $GPGGA,211851,3946.9555,N,08404.9824,W,2,11,0.80,318.76,M,-33.324,M,,*7D
2017-12-01 16:18:50 1512163130.370000: $GPRMC,211851,A,3946.9555,N,08404.9824,W,0.0000,0.000,011217,,*3E
2017-12-01 16:18:50 1512163130.370062: $GPGSA,A,3,10,11,12,14,18,22,25,31,32,1,138,,2.0,0.8,1.5*3D
2017-12-01 16:18:51 1512163131.369101: $GPZDA,211852.00,01,12,2017,00,00*6D
2017-12-01 16:18:51 1512163131.369289: $GPGGA,211852,3946.9555,N,08404.9824,W,2,11,0.80,318.76,M,-33.324,M,,*7E
2017-12-01 16:18:51 1512163131.369356: $GPRMC,211852,A,3946.9555,N,08404.9824,W,0.0000,0.000,011217,,*3D
2017-12-01 16:18:51 1512163131.369436: $GPGSA,A,3,10,11,12,14,18,22,25,31,32,1,138,,2.0,0.8,1.5*3D
2017-12-01 16:18:52 1512163132.704889: $GPGSV,3,1,12,10,53,145,47,11,09,286,35,12,24,055,45,14,63,316,45*7E
2017-12-01 16:18:52 1512163132.705045: $GPGSV,3,2,12,18,23,142,45,22,15,312,42,25,38,097,45,31,51,220,48*7E
2017-12-01 16:18:52 1512163132.705112: $GPGSV,3,3,12,32,69,013,47,01,20,306,35,24,02,048,00,138,38,213,46*4E
2017-12-01 16:18:52 1512163132.818226: $GPZDA,211853.00,01,12,2017,00,00*6C
2017-12-01 16:18:52 1512163132.818436: $GPGGA,211853,3946.9555,N,08404.9824,W,2,11,0.80,318.76,M,-33.324,M,,*7F
2017-12-01 16:18:52 1512163132.818505: $GPRMC,211853,A,3946.9555,N,08404.9824,W,0.0000,0.000,011217,,*3C
2017-12-01 16:18:52 1512163132.818566: $GPGSA,A,3,10,11,12,14,18,22,25,31,32,1,138,,2.0,0.8,1.5*3D
2017-12-01 16:18:53 1512163133.444847: $GPZDA,211854.00,01,12,2017,00,00*6B
2017-12-01 16:18:53 1512163133.445043: $GPGGA,211854,3946.9555,N,08404.9824,W,2,11,0.80,318.76,M,-33.324,M,,*78
2017-12-01 16:18:53 1512163133.445110: $GPRMC,211854,A,3946.9555,N,08404.9824,W,0.0000,0.000,011217,,*3B
2017-12-01 16:18:53 1512163133.445171: $GPGSA,A,3,10,11,12,14,18,22,25,31,32,1,138,,2.0,0.8,1.5*3D
2017-12-01 16:18:54 1512163134.369462: $GPZDA,211855.00,01,12,2017,00,00*6A
2017-12-01 16:18:54 1512163134.369632: $GPGGA,211855,3946.9559,N,08404.9824,W,2,11,0.80,319.40,M,-33.324,M,,*71
2017-12-01 16:18:54 1512163134.369699: $GPRMC,211855,A,3946.9559,N,08404.9824,W,0.0000,0.000,011217,,*36
2017-12-01 16:18:54 1512163134.369760: $GPGSA,A,3,10,11,12,14,18,22,25,31,32,1,138,,2.0,0.8,1.5*3D
2017-12-01 16:18:55 1512163135.706463: $GPGSV,3,1,12,10,53,145,47,11,09,286,34,12,24,055,45,14,63,316,45*7F
2017-12-01 16:18:55 1512163135.706716: $GPGSV,3,2,12,18,23,142,45,22,15,312,42,25,38,097,45,31,51,220,48*7E
2017-12-01 16:18:55 1512163135.706786: $GPGSV,3,3,12,32,69,013,47,01,20,306,35,24,02,048,00,138,38,213,46*4E
2017-12-01 16:18:55 1512163135.820136: $GPZDA,211856.00,01,12,2017,00,00*69
2017-12-01 16:18:55 1512163135.820317: $GPGGA,211856,3946.9559,N,08404.9824,W,2,11,0.80,319.40,M,-33.324,M,,*72
2017-12-01 16:18:55 1512163135.820400: $GPRMC,211856,A,3946.9559,N,08404.9824,W,0.0000,0.000,011217,,*35
2017-12-01 16:18:55 1512163135.820463: $GPGSA,A,3,10,11,12,14,18,22,25,31,32,1,138,,2.0,0.8,1.5*3D
2017-12-01 16:18:56 1512163136.368200: $GPZDA,211857.00,01,12,2017,00,00*68
2017-12-01 16:18:56 1512163136.368398: $GPGGA,211857,3946.9559,N,08404.9824,W,2,11,0.80,319.40,M,-33.324,M,,*73
2017-12-01 16:18:56 1512163136.368467: $GPRMC,211857,A,3946.9559,N,08404.9824,W,0.0000,0.000,011217,,*34
2017-12-01 16:18:56 1512163136.368529: $GPGSA,A,3,10,11,12,14,18,22,25,31,32,1,138,,2.0,0.8,1.5*3D
2017-12-01 16:18:57 1512163137.369093: $GPZDA,211858.00,01,12,2017,00,00*67
2017-12-01 16:18:57 1512163137.369304: $GPGGA,211858,3946.9559,N,08404.9824,W,2,11,0.80,319.40,M,-33.324,M,,*7C
2017-12-01 16:18:57 1512163137.369388: $GPRMC,211858,A,3946.9559,N,08404.9824,W,0.0000,0.000,011217,,*3B
2017-12-01 16:18:57 1512163137.369451: $GPGSA,A,3,10,11,12,14,18,22,25,31,32,1,138,,2.0,0.8,1.5*3D
2017-12-01 16:18:58 1512163138.705637: $GPGSV,3,1,12,10,53,145,47,11,09,286,34,12,24,055,45,14,63,316,45*7F
2017-12-01 16:18:58 1512163138.705820: $GPGSV,3,2,12,18,23,142,45,22,15,312,42,25,38,097,46,31,51,220,48*7D
2017-12-01 16:18:58 1512163138.705887: $GPGSV,3,3,12,32,69,013,47,01,20,306,35,24,02,048,00,138,38,213,45*4D
2017-12-01 16:18:58 1512163138.819283: $GPZDA,211859.00,01,12,2017,00,00*66
2017-12-01 16:18:58 1512163138.819481: $GPGGA,211859,3946.9559,N,08404.9824,W,2,11,0.80,319.40,M,-33.324,M,,*7D
2017-12-01 16:18:58 1512163138.819551: $GPRMC,211859,A,3946.9559,N,08404.9824,W,0.0000,0.000,011217,,*3A
2017-12-01 16:18:58 1512163138.819612: $GPGSA,A,3,10,11,12,14,18,22,25,31,32,1,138,,2.0,0.8,1.5*3D
2017-12-01 16:18:59 1512163139.368562: $GPZDA,211900.00,01,12,2017,00,00*6B
2017-12-01 16:18:59 1512163139.368737: $GPGGA,211900,3946.9559,N,08404.9824,W,2,11,0.80,319.40,M,-33.324,M,,*70
2017-12-01 16:18:59 1512163139.368803: $GPRMC,211900,A,3946.9559,N,08404.9824,W,0.0000,0.000,011217,,*37
2017-12-01 16:18:59 1512163139.368865: $GPGSA,A,3,10,11,12,14,18,22,25,31,32,1,138,,2.0,0.8,1.5*3D
2017-12-01 16:19:00 1512163140.363273: $GPZDA,211901.00,01,12,2017,00,00*6A
2017-12-01 16:19:00 1512163140.363481: $GPGGA,211901,3946.9559,N,08404.9824,W,2,11,0.80,319.40,M,-33.324,M,,*71
2017-12-01 16:19:00 1512163140.363550: $GPRMC,211901,A,3946.9559,N,08404.9824,W,0.0000,0.000,011217,,*36
2017-12-01 16:19:00 1512163140.363611: $GPGSA,A,3,10,11,12,14,18,22,25,31,32,1,138,,2.0,0.8,1.5*3D
2017-12-01 16:19:01 1512163141.705290: $GPGSV,3,1,12,10,53,145,47,11,09,286,33,12,24,055,46,14,63,316,45*7B
2017-12-01 16:19:01 1512163141.705500: $GPGSV,3,2,12,18,23,142,44,22,15,312,42,25,38,097,46,31,51,220,49*7D
2017-12-01 16:19:01 1512163141.705571: $GPGSV,3,3,12,32,69,013,46,01,20,306,35,24,02,048,00,138,38,213,46*4F
2017-12-01 16:19:01 1512163141.818683: $GPZDA,211902.00,01,12,2017,00,00*69
2017-12-01 16:19:01 1512163141.818833: $GPGGA,211902,3946.9559,N,08404.9824,W,2,11,0.80,319.40,M,-33.324,M,,*72
2017-12-01 16:19:01 1512163141.818902: $GPRMC,211902,A,3946.9559,N,08404.9824,W,0.0000,0.000,011217,,*35
2017-12-01 16:19:01 1512163141.818967: $GPGSA,A,3,10,11,12,14,18,22,25,31,32,1,138,,2.0,0.8,1.5*3D
2017-12-01 16:19:02 1512163142.369758: $GPZDA,211903.00,01,12,2017,00,00*68
2017-12-01 16:19:02 1512163142.369932: $GPGGA,211903,3946.9559,N,08404.9824,W,2,11,0.80,319.40,M,-33.324,M,,*73
2017-12-01 16:19:02 1512163142.370002: $GPRMC,211903,A,3946.9559,N,08404.9824,W,0.0000,0.000,011217,,*34
2017-12-01 16:19:02 1512163142.370066: $GPGSA,A,3,10,11,12,14,18,22,25,31,32,1,138,,2.0,0.8,1.5*3D
2017-12-01 16:19:03 1512163143.369126: $GPZDA,211904.00,01,12,2017,00,00*6F
2017-12-01 16:19:03 1512163143.369391: $GPGGA,211904,3946.9559,N,08404.9824,W,2,11,0.80,319.40,M,-33.324,M,,*74
2017-12-01 16:19:03 1512163143.369473: $GPRMC,211904,A,3946.9559,N,08404.9824,W,0.0000,0.000,011217,,*33
2017-12-01 16:19:03 1512163143.369535: $GPGSA,A,3,10,11,12,14,18,22,25,31,32,1,138,,2.0,0.8,1.5*3D
2017-12-01 16:19:04 1512163144.704307: $GPGSV,3,1,12,10,53,145,47,11,09,286,30,12,24,055,46,14,63,316,45*78
2017-12-01 16:19:04 1512163144.704489: $GPGSV,3,2,12,18,23,142,44,22,15,312,43,25,38,097,46,31,51,220,49*7C
2017-12-01 16:19:04 1512163144.704555: $GPGSV,3,3,12,32,69,013,46,01,20,306,35,24,02,048,00,138,38,213,46*4F
2017-12-01 16:19:04 1512163144.817731: $GPZDA,211905.00,01,12,2017,00,00*6E
2017-12-01 16:19:04 1512163144.817904: $GPGGA,211905,3946.9559,N,08404.9824,W,2,11,0.80,319.40,M,-33.324,M,,*75
2017-12-01 16:19:04 1512163144.817972: $GPRMC,211905,A,3946.9559,N,08404.9824,W,0.0000,0.000,011217,,*32
2017-12-01 16:19:04 1512163144.818034: $GPGSA,A,3,10,11,12,14,18,22,25,31,32,1,138,,2.0,0.8,1.5*3D
2017-12-01 16:19:05 1512163145.368736: $GPZDA,211906.00,01,12,2017,00,00*6D
2017-12-01 16:19:05 1512163145.374789: $GPGGA,211906,3946.9559,N,08404.9824,W,2,11,0.80,319.40,M,-33.324,M,,*76
2017-12-01 16:19:05 1512163145.374924: $GPRMC,211906,A,3946.9559,N,08404.9824,W,0.0000,0.000,011217,,*31
2017-12-01 16:19:05 1512163145.375042: $GPGSA,A,3,10,11,12,14,18,22,25,31,32,1,138,,2.0,0.8,1.5*3D
2017-12-01 16:19:06 1512163146.369932: $GPZDA,211907.00,01,12,2017,00,00*6C
2017-12-01 16:19:06 1512163146.370103: $GPGGA,211907,3946.9559,N,08404.9824,W,2,11,0.80,319.40,M,-33.324,M,,*77
2017-12-01 16:19:06 1512163146.370170: $GPRMC,211907,A,3946.9559,N,08404.9824,W,0.0000,0.000,011217,,*30
2017-12-01 16:19:06 1512163146.370258: $GPGSA,A,3,10,11,12,14,18,22,25,31,32,1,138,,2.0,0.8,1.5*3D
2017-12-01 16:19:07 1512163147.707683: $GPGSV,3,1,12,10,53,145,48,11,09,286,28,12,24,055,45,14,63,316,45*7D
2017-12-01 16:19:07 1512163147.707864: $GPGSV,3,2,12,18,23,142,44,22,15,312,43,25,38,097,46,31,51,220,49*7C
2017-12-01 16:19:07 1512163147.707930: $GPGSV,3,3,12,32,69,013,46,01,20,306,35,24,02,048,14,138,38,213,45*49
2017-12-01 16:19:07 1512163147.821035: $GPZDA,211908.00,01,12,2017,00,00*63
2017-12-01 16:19:07 1512163147.821223: $GPGGA,211908,3946.9559,N,08404.9824,W,2,11,0.80,319.40,M,-33.324,M,,*78
2017-12-01 16:19:07 1512163147.821292: $GPRMC,211908,A,3946.9559,N,08404.9824,W,0.0000,0.000,011217,,*3F
2017-12-01 16:19:07 1512163147.821428: $GPGSA,A,3,10,11,12,14,18,22,25,31,32,1,138,,2.0,0.8,1.5*3D
