2017-12-01 18:12:50 1512169970.516727: {"class":"VERSION","release":"3.16","rev":"3.16-4","proto_major":3,"proto_minor":11}
2017-12-01 18:12:50 1512169970.517115: {"class":"DEVICES","devices":[{"class":"DEVICE","path":"/dev/ttyUSB0","driver":"SiRF","subtype":"9\u0006GSD4e_4.1.2-P1_RPATCH.05-F-GPS-4R-1510281 11/03/2015 307","activated":"2017-12-01T23:12:50.334Z","flags":1,"native":1,"bps":4800,"parity":"N","stopbits":1,"cycle":1.00}]}
2017-12-01 18:12:50 1512169970.517234: {"class":"WATCH","enable":true,"json":false,"nmea":true,"raw":0,"scaled":false,"timing":false,"split24":false,"pps":false}
2017-12-01 18:12:51 1512169971.130035: $GPZDA,231251.37,01,12,2017,00,00*62
2017-12-01 18:12:51 1512169971.130198: $GPGGA,231251,3946.9723,N,08404.9809,W,1,12,0.80,293.91,M,-33.325,M,,*73
2017-12-01 18:12:51 1512169971.130264: $GPRMC,231251,A,3946.9723,N,08404.9809,W,0.2710,100.223,011217,,*3C
2017-12-01 18:12:51 1512169971.130326: $GPGSA,A,3,3,14,16,22,23,25,26,31,32,29,1,138,2.0,0.8,1.5*0C
2017-12-01 18:12:52 1512169972.296418: $GPGSV,3,1,12,01,08,256,33,03,37,303,46,14,59,085,41,16,18,189,41*7F
2017-12-01 18:12:52 1512169972.296604: $GPGSV,3,2,12,22,50,277,46,23,08,298,41,25,21,042,40,26,48,174,45*7C
2017-12-01 18:12:52 1512169972.296671: $GPGSV,3,3,12,31,71,018,47,32,39,103,44,29,09,076,07,138,38,213,25*4F
2017-12-01 18:12:52 1512169972.409766: $GPZDA,231252.00,01,12,2017,00,00*65
2017-12-01 18:12:52 1512169972.409953: $GPGGA,231252,3946.9723,N,08404.9809,W,1,11,0.80,293.91,M,-33.325,M,,*73
2017-12-01 18:12:52 1512169972.410020: $GPRMC,231252,A,3946.9723,N,08404.9809,W,0.0407,142.012,011217,,*3E
2017-12-01 18:12:52 1512169972.410081: $GPGSA,A,3,1,3,14,16,22,23,25,26,31,32,138,,2.0,0.8,1.5*07
2017-12-01 18:12:52 1512169972.860656: $GPZDA,231253.00,01,12,2017,00,00*64
2017-12-01 18:12:52 1512169972.860828: $GPGGA,231253,3946.9724,N,08404.9816,W,1,11,0.60,293.83,M,-33.325,M,,*76
2017-12-01 18:12:52 1512169972.860894: $GPRMC,231253,A,3946.9724,N,08404.9816,W,0.1567,9.200,011217,,*3F
2017-12-01 18:12:52 1512169972.860975: $GPGSA,A,3,1,3,14,16,22,23,25,26,31,32,138,,2.0,0.6,1.5*09
2017-12-01 18:12:53 1512169973.415275: $GPZDA,231254.00,01,12,2017,00,00*63
2017-12-01 18:12:53 1512169973.415454: $GPGGA,231254,3946.9724,N,08404.9816,W,1,11,0.60,293.83,M,-33.325,M,,*71
2017-12-01 18:12:53 1512169973.415520: $GPRMC,231254,A,3946.9724,N,08404.9816,W,0.0000,0.000,011217,,*36
2017-12-01 18:12:53 1512169973.415580: $GPGSA,A,3,1,3,14,16,22,23,25,26,31,32,138,,2.0,0.6,1.5*09
2017-12-01 18:12:54 1512169974.751830: $GPGSV,3,1,12,01,08,256,34,03,37,303,46,14,59,085,41,16,18,189,41*78
2017-12-01 18:12:54 1512169974.752009: $GPGSV,3,2,12,22,50,277,46,23,08,298,42,25,21,042,40,26,48,174,45*7F
2017-12-01 18:12:54 1512169974.752075: $GPGSV,3,3,12,31,71,018,47,32,39,103,44,29,09,076,24,138,38,213,46*4B
2017-12-01 18:12:54 1512169974.865114: $GPZDA,231255.00,01,12,2017,00,00*62
2017-12-01 18:12:54 1512169974.865255: $GPGGA,231255,3946.9716,N,08404.9817,W,1,12,0.60,293.95,M,-33.325,M,,*74
2017-12-01 18:12:54 1512169974.865321: $GPRMC,231255,A,3946.9716,N,08404.9817,W,0.0000,0.000,011217,,*37
2017-12-01 18:12:54 1512169974.865382: $GPGSA,A,3,1,3,14,16,22,23,25,26,31,32,29,138,2.0,0.6,1.5*02
2017-12-01 18:12:55 1512169975.416040: $GPZDA,231256.00,01,12,2017,00,00*61
2017-12-01 18:12:55 1512169975.424742: $GPGGA,231256,3946.9716,N,08404.9817,W,1,12,0.60,293.95,M,-33.325,M,,*77
2017-12-01 18:12:55 1512169975.424863: $GPRMC,231256,A,3946.9716,N,08404.9817,W,0.0000,0.000,011217,,*34
2017-12-01 18:12:55 1512169975.424939: $GPGSA,A,3,1,3,14,16,22,23,25,26,31,32,29,138,2.0,0.6,1.5*02
2017-12-01 18:12:56 1512169976.415510: $GPZDA,231257.00,01,12,2017,00,00*60
2017-12-01 18:12:56 1512169976.415687: $GPGGA,231257,3946.9716,N,08404.9817,W,1,12,0.60,293.95,M,-33.325,M,,*76
2017-12-01 18:12:56 1512169976.415755: $GPRMC,231257,A,3946.9716,N,08404.9817,W,0.0000,0.000,011217,,*35
2017-12-01 18:12:56 1512169976.415816: $GPGSA,A,3,1,3,14,16,22,23,25,26,31,32,29,138,2.0,0.6,1.5*02
2017-12-01 18:12:56 1512169976.415875: $GPGBS,231257,10.70,M,15.43,M,35.28,M*07
2017-12-01 18:12:57 1512169977.752551: $GPGSV,3,1,12,01,08,256,33,03,37,303,46,14,59,085,41,16,18,189,41*7F
2017-12-01 18:12:57 1512169977.752736: $GPGSV,3,2,12,22,50,277,46,23,08,298,43,25,21,042,40,26,48,174,46*7D
2017-12-01 18:12:57 1512169977.752801: $GPGSV,3,3,12,31,71,018,46,32,39,103,38,29,09,076,24,138,38,213,46*41
2017-12-01 18:12:57 1512169977.865843: $GPZDA,231258.00,01,12,2017,00,00*6F
2017-12-01 18:12:57 1512169977.866011: $GPGGA,231258,3946.9716,N,08404.9824,W,1,12,0.60,293.87,M,-33.325,M,,*7A
2017-12-01 18:12:57 1512169977.866078: $GPRMC,231258,A,3946.9716,N,08404.9824,W,0.0000,0.000,011217,,*3A
2017-12-01 18:12:57 1512169977.866139: $GPGSA,A,3,1,3,14,16,22,23,25,26,31,32,29,138,2.0,0.6,1.5*02
2017-12-01 18:12:58 1512169978.416728: $GPZDA,231259.00,01,12,2017,00,00*6E
2017-12-01 18:12:58 1512169978.416898: $GPGGA,231259,3946.9714,N,08404.9839,W,2,12,1.80,294.48,M,-33.325,M,,*7D
2017-12-01 18:12:58 1512169978.416964: $GPRMC,231259,A,3946.9714,N,08404.9839,W,0.0000,0.000,011217,,*35
2017-12-01 18:12:58 1512169978.417025: $GPGSA,A,3,1,3,14,16,22,23,25,26,31,32,29,138,2.0,1.8,1.5*0D
2017-12-01 18:12:59 1512169979.427078: $GPZDA,231300.00,01,12,2017,00,00*63
2017-12-01 18:12:59 1512169979.427273: $GPGGA,231300,3946.9714,N,08404.9839,W,2,12,0.60,294.48,M,-33.325,M,,*7F
2017-12-01 18:12:59 1512169979.427341: $GPRMC,231300,A,3946.9714,N,08404.9839,W,0.0000,0.000,011217,,*38
2017-12-01 18:12:59 1512169979.427420: $GPGSA,A,3,1,3,14,16,22,23,25,26,31,32,29,138,2.0,0.6,1.5*02
2017-12-01 18:13:00 1512169980.752801: $GPGSV,3,1,12,01,08,256,29,03,37,303,46,14,59,085,42,16,18,189,42*74
2017-12-01 18:13:01 1512169981.114384: $GPGSV,3,2,12,22,50,277,46,23,08,298,43,25,21,042,40,26,48,174,46*7D
2017-12-01 18:13:01 1512169981.114536: $GPGSV,3,3,12,31,71,018,47,32,39,103,40,29,09,076,24,138,38,213,46*4F
2017-12-01 18:13:01 1512169981.114637: $GPZDA,231301.00,01,12,2017,00,00*62
2017-12-01 18:13:01 1512169981.114694: $GPGGA,231301,3946.9714,N,08404.9839,W,2,12,0.60,294.48,M,-33.325,M,,*7E
2017-12-01 18:13:01 1512169981.114755: $GPRMC,231301,A,3946.9714,N,08404.9839,W,0.0000,0.000,011217,,*39
2017-12-01 18:13:01 1512169981.114834: $GPGSA,A,3,1,3,14,16,22,23,25,26,31,32,29,138,2.0,0.6,1.5*02
2017-12-01 18:13:01 1512169981.418600: $GPZDA,231302.00,01,12,2017,00,00*61
2017-12-01 18:13:01 1512169981.418776: $GPGGA,231302,3946.9714,N,08404.9839,W,2,12,0.60,294.48,M,-33.325,M,,*7D
2017-12-01 18:13:01 1512169981.418843: $GPRMC,231302,A,3946.9714,N,08404.9839,W,0.0000,0.000,011217,,*3A
2017-12-01 18:13:01 1512169981.418905: $GPGSA,A,3,1,3,14,16,22,23,25,26,31,32,29,138,2.0,0.6,1.5*02
2017-12-01 18:13:02 1512169982.419168: $GPZDA,231303.00,01,12,2017,00,00*60
2017-12-01 18:13:02 1512169982.419376: $GPGGA,231303,3946.9714,N,08404.9839,W,2,12,0.60,294.48,M,-33.325,M,,*7C
2017-12-01 18:13:02 1512169982.419443: $GPRMC,231303,A,3946.9714,N,08404.9839,W,0.0000,0.000,011217,,*3B
2017-12-01 18:13:02 1512169982.419504: $GPGSA,A,3,1,3,14,16,22,23,25,26,31,32,29,138,2.0,0.6,1.5*02
2017-12-01 18:13:03 1512169983.751225: $GPGSV,3,1,12,01,08,256,08,03,37,303,14,14,59,085,12,16,18,189,12*70
2017-12-01 18:13:03 1512169983.751466: $GPGSV,3,2,12,22,50,277,14,23,08,298,13,25,21,042,12,26,48,174,14*7F
2017-12-01 18:13:03 1512169983.751535: $GPGSV,3,3,12,31,71,018,14,32,39,103,12,29,09,076,07,138,38,213,16*4A
2017-12-01 18:13:03 1512169983.864942: $GPZDA,231304.00,01,12,2017,00,00*67
2017-12-01 18:13:03 1512169983.865113: $GPGGA,231304,3946.9714,N,08404.9839,W,2,12,0.60,294.48,M,-33.325,M,,*7B
2017-12-01 18:13:03 1512169983.865181: $GPRMC,231304,A,3946.9714,N,08404.9839,W,0.0000,0.000,011217,,*3C
2017-12-01 18:13:03 1512169983.865245: $GPGSA,A,3,1,3,14,16,22,23,25,26,31,32,29,138,2.0,0.6,1.5*02
2017-12-01 18:13:04 1512169984.490662: $GPZDA,231305.00,01,12,2017,00,00*66
2017-12-01 18:13:04 1512169984.490879: $GPGGA,231305,3946.9714,N,08404.9839,W,2,12,0.60,294.48,M,-33.325,M,,*7A
2017-12-01 18:13:04 1512169984.490963: $GPRMC,231305,A,3946.9714,N,08404.9839,W,0.2422,273.794,011217,,*37
2017-12-01 18:13:04 1512169984.491512: $GPGSA,A,3,1,3,14,16,22,23,25,26,31,32,29,138,2.0,0.6,1.5*02
2017-12-01 18:13:05 1512169985.414557: $GPZDA,231306.00,01,12,2017,00,00*65
2017-12-01 18:13:05 1512169985.416107: $GPGGA,231306,3946.9706,N,08404.9846,W,2,12,0.60,294.52,M,-33.325,M,,*79
2017-12-01 18:13:05 1512169985.416227: $GPRMC,231306,A,3946.9706,N,08404.9846,W,0.2422,93.794,011217,,*03
2017-12-01 18:13:05 1512169985.416307: $GPGSA,A,3,1,3,14,16,22,23,25,26,31,32,29,138,2.0,0.6,1.5*02
2017-12-01 18:13:06 1512169986.750248: $GPGSV,3,1,12,01,08,256,32,03,37,303,45,14,59,085,42,16,18,189,41*7E
2017-12-01 18:13:06 1512169986.750446: $GPGSV,3,2,12,22,50,277,45,23,08,298,44,25,21,042,39,26,48,174,46*77
2017-12-01 18:13:06 1512169986.750514: $GPGSV,3,3,12,31,71,018,47,32,39,103,42,29,09,076,21,138,38,213,46*48
2017-12-01 18:13:06 1512169986.863633: $GPZDA,231307.00,01,12,2017,00,00*64
2017-12-01 18:13:06 1512169986.863806: $GPGGA,231307,3946.9706,N,08404.9846,W,2,12,0.60,294.52,M,-33.325,M,,*78
2017-12-01 18:13:06 1512169986.863872: $GPRMC,231307,A,3946.9706,N,08404.9846,W,0.0000,0.000,011217,,*34
2017-12-01 18:13:06 1512169986.863933: $GPGSA,A,3,1,3,14,16,22,23,25,26,31,32,29,138,2.0,0.6,1.5*02
2017-12-01 18:13:07 1512169987.415744: $GPZDA,231308.00,01,12,2017,00,00*6B
2017-12-01 18:13:07 1512169987.415917: $GPGGA,231308,3946.9706,N,08404.9846,W,2,12,0.60,294.52,M,-33.325,M,,*77
2017-12-01 18:13:07 1512169987.415983: $GPRMC,231308,A,3946.9706,N,08404.9846,W,0.0000,0.000,011217,,*3B
2017-12-01 18:13:07 1512169987.416044: $GPGSA,A,3,1,3,14,16,22,23,25,26,31,32,29,138,2.0,0.6,1.5*02
2017-12-01 18:13:08 1512169988.416498: $GPZDA,231309.00,01,12,2017,00,00*6A
2017-12-01 18:13:08 1512169988.416668: $GPGGA,231309,3946.9706,N,08404.9846,W,2,12,0.60,294.52,M,-33.325,M,,*76
2017-12-01 18:13:08 1512169988.416734: $GPRMC,231309,A,3946.9706,N,08404.9846,W,0.0000,0.000,011217,,*3A
2017-12-01 18:13:08 1512169988.416795: $GPGSA,A,3,1,3,14,16,22,23,25,26,31,32,29,138,2.0,0.6,1.5*02
2017-12-01 18:13:08 1512169988.416854: $GPGBS,231309,2.67,M,3.86,M,8.82,M*38
2017-12-01 18:13:09 1512169989.752930: $GPGSV,3,1,12,01,08,256,32,03,37,303,45,14,59,085,42,16,18,189,42*7D
2017-12-01 18:13:09 1512169989.753132: $GPGSV,3,2,12,22,50,277,46,23,08,298,44,25,21,042,39,26,48,174,46*74
2017-12-01 18:13:09 1512169989.753202: $GPGSV,3,3,12,31,71,018,47,32,39,103,42,29,09,076,21,138,38,213,46*48
2017-12-01 18:13:09 1512169989.866377: $GPZDA,231310.00,01,12,2017,00,00*62
2017-12-01 18:13:09 1512169989.866554: $GPGGA,231310,3946.9706,N,08404.9846,W,2,12,0.60,294.52,M,-33.325,M,,*7E
2017-12-01 18:13:09 1512169989.866620: $GPRMC,231310,A,3946.9706,N,08404.9846,W,0.0000,0.000,011217,,*32
2017-12-01 18:13:09 1512169989.866681: $GPGSA,A,3,1,3,14,16,22,23,25,26,31,32,29,138,2.0,0.6,1.5*02
2017-12-01 18:13:10 1512169990.417228: $GPZDA,231311.00,01,12,2017,00,00*63
2017-12-01 18:13:10 1512169990.419914: $GPGGA,231311,3946.9706,N,08404.9846,W,2,12,0.60,294.52,M,-33.325,M,,*7F
2017-12-01 18:13:10 1512169990.420018: $GPRMC,231311,A,3946.9706,N,08404.9846,W,0.0000,0.000,011217,,*33
2017-12-01 18:13:10 1512169990.420100: $GPGSA,A,3,1,3,14,16,22,23,25,26,31,32,29,138,2.0,0.6,1.5*02
