2017-12-01 17:12:47 1512166367.537016: {"class":"VERSION","release":"3.16","rev":"3.16-4","proto_major":3,"proto_minor":11}
2017-12-01 17:12:47 1512166367.537449: {"class":"DEVICES","devices":[{"class":"DEVICE","path":"/dev/ttyUSB0","driver":"SiRF","subtype":"9\u0006GSD4e_4.1.2-P1_RPATCH.05-F-GPS-4R-1510281 11/03/2015 307","activated":"2017-12-01T22:12:47.507Z","flags":1,"native":1,"bps":4800,"parity":"N","stopbits":1,"cycle":1.00}]}
2017-12-01 17:12:47 1512166367.537586: {"class":"WATCH","enable":true,"json":false,"nmea":true,"raw":0,"scaled":false,"timing":false,"split24":false,"pps":false}
2017-12-01 17:12:48 1512166368.729656: $GPGSV,3,1,12,01,20,280,43,03,16,316,40,10,28,154,36,12,11,036,18*73
2017-12-01 17:12:48 1512166368.729839: $GPGSV,3,2,12,14,70,019,45,22,35,306,44,26,20,178,38,31,74,256,47*73
2017-12-01 17:12:48 1512166368.729905: $GPGSV,3,3,12,32,59,070,49,11,01,265,26,25,38,064,34,138,38,213,34*46
2017-12-01 17:12:48 1512166368.845063: $GPZDA,221249.00,01,12,2017,00,00*6E
2017-12-01 17:12:48 1512166368.845419: $GPGGA,221249,3946.9633,N,08404.9748,W,2,12,0.80,296.83,M,-33.324,M,,*75
2017-12-01 17:12:48 1512166368.845561: $GPRMC,221249,A,3946.9633,N,08404.9748,W,0.0000,0.000,011217,,*38
2017-12-01 17:12:48 1512166368.845683: $GPGSA,A,3,1,3,10,12,14,22,26,31,32,11,25,138,2.0,0.8,1.5*03
2017-12-01 17:12:49 1512166369.392720: $GPZDA,221250.00,01,12,2017,00,00*66
2017-12-01 17:12:49 1512166369.392963: $GPGGA,221250,3946.9629,N,08404.9748,W,2,12,0.80,296.19,M,-33.324,M,,*75
2017-12-01 17:12:49 1512166369.393040: $GPRMC,221250,A,3946.9629,N,08404.9748,W,0.1867,180.000,011217,,*3A
2017-12-01 17:12:49 1512166369.393105: $GPGSA,A,3,1,3,10,12,14,22,26,31,32,11,25,138,2.0,0.8,1.5*03
2017-12-01 17:12:50 1512166370.389757: $GPZDA,221251.00,01,12,2017,00,00*67
2017-12-01 17:12:50 1512166370.389930: $GPGGA,221251,3946.9629,N,08404.9748,W,2,12,0.80,296.19,M,-33.324,M,,*74
2017-12-01 17:12:50 1512166370.390000: $GPRMC,221251,A,3946.9629,N,08404.9748,W,0.0000,0.000,011217,,*3A
2017-12-01 17:12:50 1512166370.390065: $GPGSA,A,3,1,3,10,12,14,22,26,31,32,11,25,138,2.0,0.8,1.5*03
2017-12-01 17:12:51 1512166371.731716: $GPGSV,3,1,12,01,20,280,43,03,16,316,40,10,28,154,36,12,11,036,19*72
2017-12-01 17:12:51 1512166371.731896: $GPGSV,3,2,12,14,70,019,45,22,35,306,44,26,20,178,38,31,74,256,47*73
2017-12-01 17:12:51 1512166371.731966: $GPGSV,3,3,12,32,59,070,50,11,01,265,27,25,38,064,34,138,38,213,38*43
2017-12-01 17:12:51 1512166371.845017: $GPZDA,221252.00,01,12,2017,00,00*64
2017-12-01 17:12:51 1512166371.845166: $GPGGA,221252,3946.9632,N,08404.9748,W,2,12,0.80,295.43,M,-33.324,M,,*71
2017-12-01 17:12:51 1512166371.845236: $GPRMC,221252,A,3946.9632,N,08404.9748,W,0.0000,0.000,011217,,*33
2017-12-01 17:12:51 1512166371.845299: $GPGSA,A,3,1,3,10,12,14,22,26,31,32,11,25,138,2.0,0.8,1.5*03
2017-12-01 17:12:52 1512166372.394780: $GPZDA,221253.00,01,12,2017,00,00*65
2017-12-01 17:12:52 1512166372.394953: $GPGGA,221253,3946.9632,N,08404.9748,W,2,12,0.80,295.43,M,-33.324,M,,*70
2017-12-01 17:12:52 1512166372.395023: $GPRMC,221253,A,3946.9632,N,08404.9748,W,0.0000,0.000,011217,,*32
2017-12-01 17:12:52 1512166372.395088: $GPGSA,A,3,1,3,10,12,14,22,26,31,32,11,25,138,2.0,0.8,1.5*03
2017-12-01 17:12:53 1512166373.395054: $GPZDA,221254.00,01,12,2017,00,00*62
2017-12-01 17:12:53 1512166373.395228: $GPGGA,221254,3946.9632,N,08404.9748,W,2,12,0.80,295.43,M,-33.324,M,,*77
2017-12-01 17:12:53 1512166373.395297: $GPRMC,221254,A,3946.9632,N,08404.9748,W,0.0000,0.000,011217,,*35
2017-12-01 17:12:53 1512166373.395362: $GPGSA,A,3,1,3,10,12,14,22,26,31,32,11,25,138,2.0,0.8,1.5*03
2017-12-01 17:12:54 1512166374.732006: $GPGSV,3,1,12,01,20,280,42,03,16,316,40,10,28,154,36,12,11,036,20*79
2017-12-01 17:12:54 1512166374.732193: $GPGSV,3,2,12,14,70,019,46,22,35,306,44,26,20,178,38,31,74,256,47*70
2017-12-01 17:12:54 1512166374.732263: $GPGSV,3,3,12,32,59,070,49,11,01,265,24,25,38,064,33,138,38,213,40*40
2017-12-01 17:12:54 1512166374.845493: $GPZDA,221255.00,01,12,2017,00,00*63
2017-12-01 17:12:54 1512166374.845677: $GPGGA,221255,3946.9632,N,08404.9748,W,2,12,0.80,295.43,M,-33.324,M,,*76
2017-12-01 17:12:54 1512166374.845800: $GPRMC,221255,A,3946.9632,N,08404.9748,W,0.0000,0.000,011217,,*34
2017-12-01 17:12:54 1512166374.845863: $GPGSA,A,3,1,3,10,12,14,22,26,31,32,11,25,138,2.0,0.8,1.5*03
2017-12-01 17:12:56 1512166376.275986: $GPZDA,221256.00,01,12,2017,00,00*60
2017-12-01 17:12:56 1512166376.276164: $GPGGA,221256,3946.9628,N,08404.9741,W,2,12,0.80,294.87,M,-33.324,M,,*7E
2017-12-01 17:12:56 1512166376.276232: $GPRMC,221256,A,3946.9628,N,08404.9741,W,0.1867,0.000,011217,,*3D
2017-12-01 17:12:56 1512166376.276293: $GPGSA,A,3,1,3,10,12,14,22,26,31,32,11,25,138,2.0,0.8,1.5*03
2017-12-01 17:12:56 1512166376.276352: $GPGBS,221256,2.67,M,3.86,M,8.82,M*32
2017-12-01 17:12:56 1512166376.726796: $GPZDA,221257.00,01,12,2017,00,00*61
2017-12-01 17:12:56 1512166376.726967: $GPGGA,221257,3946.9628,N,08404.9741,W,2,12,0.80,294.87,M,-33.324,M,,*7F
2017-12-01 17:12:56 1512166376.727033: $GPRMC,221257,A,3946.9628,N,08404.9741,W,0.0000,0.000,011217,,*34
2017-12-01 17:12:56 1512166376.727094: $GPGSA,A,3,1,3,10,12,14,22,26,31,32,11,25,138,2.0,0.8,1.5*03
2017-12-01 17:12:56 1512166376.727153: $GPGBS,221257,2.67,M,3.86,M,8.82,M*33
2017-12-01 17:12:57 1512166377.731256: $GPGSV,3,1,12,01,20,280,42,03,16,316,39,10,28,156,35,12,11,036,26*70
2017-12-01 17:12:57 1512166377.731493: $GPGSV,3,2,12,14,70,021,45,22,35,306,44,26,20,178,38,31,75,258,47*77
2017-12-01 17:12:57 1512166377.731580: $GPGSV,3,3,12,32,59,070,49,11,01,265,25,25,38,064,33,138,38,213,40*41
2017-12-01 17:12:57 1512166377.844664: $GPZDA,221258.00,01,12,2017,00,00*6E
2017-12-01 17:12:57 1512166377.844835: $GPGGA,221258,3946.9628,N,08404.9741,W,2,12,0.80,294.87,M,-33.324,M,,*70
2017-12-01 17:12:57 1512166377.844902: $GPRMC,221258,A,3946.9628,N,08404.9741,W,0.0000,0.000,011217,,*3B
2017-12-01 17:12:57 1512166377.844962: $GPGSA,A,3,1,3,10,12,14,22,26,31,32,11,25,138,2.0,0.8,1.5*03
2017-12-01 17:12:58 1512166378.471781: $GPZDA,221259.00,01,12,2017,00,00*6F
2017-12-01 17:12:58 1512166378.471952: $GPGGA,221259,3946.9628,N,08404.9741,W,2,12,0.80,294.87,M,-33.324,M,,*71
2017-12-01 17:12:58 1512166378.472022: $GPRMC,221259,A,3946.9628,N,08404.9741,W,0.0000,0.000,011217,,*3A
2017-12-01 17:12:58 1512166378.472088: $GPGSA,A,3,1,3,10,12,14,22,26,31,32,11,25,138,2.0,0.8,1.5*03
2017-12-01 17:12:59 1512166379.394649: $GPZDA,221300.00,01,12,2017,00,00*62
2017-12-01 17:12:59 1512166379.394819: $GPGGA,221300,3946.9632,N,08404.9741,W,2,12,0.80,295.51,M,-33.324,M,,*7D
2017-12-01 17:12:59 1512166379.394887: $GPRMC,221300,A,3946.9632,N,08404.9741,W,0.0000,0.000,011217,,*3C
2017-12-01 17:12:59 1512166379.394948: $GPGSA,A,3,1,3,10,12,14,22,26,31,32,11,25,138,2.0,0.8,1.5*03
2017-12-01 17:13:00 1512166380.724156: $GPGSV,3,1,12,01,20,280,42,03,16,316,40,10,28,156,35,12,11,036,26*7E
2017-12-01 17:13:00 1512166380.724337: $GPGSV,3,2,12,14,70,021,45,22,35,306,44,26,20,178,39,31,75,258,46*77
2017-12-01 17:13:00 1512166380.724404: $GPGSV,3,3,12,32,59,070,48,11,01,265,26,25,38,064,33,138,38,213,38*4C
2017-12-01 17:13:00 1512166380.837552: $GPZDA,221301.00,01,12,2017,00,00*63
2017-12-01 17:13:00 1512166380.837720: $GPGGA,221301,3946.9632,N,08404.9741,W,2,12,0.80,295.51,M,-33.324,M,,*7C
2017-12-01 17:13:00 1512166380.837787: $GPRMC,221301,A,3946.9632,N,08404.9741,W,0.0000,0.000,011217,,*3D
2017-12-01 17:13:00 1512166380.837848: $GPGSA,A,3,1,3,10,12,14,22,26,31,32,11,25,138,2.0,0.8,1.5*03
2017-12-01 17:13:01 1512166381.925269: $GPZDA,221302.00,01,12,2017,00,00*60
2017-12-01 17:13:01 1512166381.925459: $GPGGA,221302,3946.9632,N,08404.9741,W,2,12,0.80,295.51,M,-33.324,M,,*7F
2017-12-01 17:13:01 1512166381.925544: $GPRMC,221302,A,3946.9632,N,08404.9741,W,0.0000,0.000,011217,,*3E
2017-12-01 17:13:01 1512166381.925606: $GPGSA,A,3,1,3,10,12,14,22,26,31,32,11,25,138,2.0,0.8,1.5*03
2017-12-01 17:13:02 1512166382.398274: $GPZDA,221303.00,01,12,2017,00,00*61
2017-12-01 17:13:02 1512166382.398461: $GPGGA,221303,3946.9632,N,08404.9741,W,2,12,0.80,295.51,M,-33.324,M,,*7E
2017-12-01 17:13:02 1512166382.398529: $GPRMC,221303,A,3946.9632,N,08404.9741,W,0.0000,0.000,011217,,*3F
2017-12-01 17:13:02 1512166382.398653: $GPGSA,A,3,1,3,10,12,14,22,26,31,32,11,25,138,2.0,0.8,1.5*03
2017-12-01 17:13:03 1512166383.730849: $GPGSV,3,1,12,01,20,280,42,03,16,316,40,10,28,156,35,12,11,036,26*7E
2017-12-01 17:13:03 1512166383.731003: $GPGSV,3,2,12,14,70,021,45,22,35,306,44,26,20,178,39,31,75,258,46*77
2017-12-01 17:13:03 1512166383.731069: $GPGSV,3,3,12,32,59,070,49,11,01,265,20,25,38,064,33,138,38,213,40*44
2017-12-01 17:13:03 1512166383.844206: $GPZDA,221304.00,01,12,2017,00,00*66
2017-12-01 17:13:03 1512166383.844380: $GPGGA,221304,3946.9632,N,08404.9741,W,2,12,0.80,295.51,M,-33.324,M,,*79
2017-12-01 17:13:03 1512166383.844447: $GPRMC,221304,A,3946.9632,N,08404.9741,W,0.0000,0.000,011217,,*38
2017-12-01 17:13:03 1512166383.844508: $GPGSA,A,3,1,3,10,12,14,22,26,31,32,11,25,138,2.0,0.8,1.5*03
2017-12-01 17:13:04 1512166384.393939: $GPZDA,221305.00,01,12,2017,00,00*67
2017-12-01 17:13:04 1512166384.394116: $GPGGA,221305,3946.9632,N,08404.9741,W,2,12,0.80,295.51,M,-33.324,M,,*78
2017-12-01 17:13:04 1512166384.394183: $GPRMC,221305,A,3946.9632,N,08404.9741,W,0.0000,0.000,011217,,*39
2017-12-01 17:13:04 1512166384.394243: $GPGSA,A,3,1,3,10,12,14,22,26,31,32,11,25,138,2.0,0.8,1.5*03
2017-12-01 17:13:05 1512166385.396067: $GPZDA,221306.00,01,12,2017,00,00*64
2017-12-01 17:13:05 1512166385.396263: $GPGGA,221306,3946.9632,N,08404.9741,W,2,12,0.80,295.51,M,-33.324,M,,*7B
2017-12-01 17:13:05 1512166385.396355: $GPRMC,221306,A,3946.9632,N,08404.9741,W,0.0000,0.000,011217,,*3A
2017-12-01 17:13:05 1512166385.396419: $GPGSA,A,3,1,3,10,12,14,22,26,31,32,11,25,138,2.0,0.8,1.5*03
2017-12-01 17:13:06 1512166386.731771: $GPGSV,3,1,12,01,20,280,42,03,16,316,40,10,28,156,36,12,11,036,26*7D
2017-12-01 17:13:06 1512166386.731952: $GPGSV,3,2,12,14,70,021,45,22,35,306,44,26,20,178,40,31,75,258,46*79
2017-12-01 17:13:06 1512166386.732019: $GPGSV,3,3,12,32,59,070,49,11,01,265,27,25,38,064,32,138,38,213,41*43
2017-12-01 17:13:06 1512166386.846210: $GPZDA,221307.00,01,12,2017,00,00*65
2017-12-01 17:13:06 1512166386.846583: $GPGGA,221307,3946.9632,N,08404.9741,W,2,12,0.80,295.51,M,-33.324,M,,*7A
2017-12-01 17:13:06 1512166386.846676: $GPRMC,221307,A,3946.9632,N,08404.9741,W,0.0000,0.000,011217,,*3B
2017-12-01 17:13:06 1512166386.846764: $GPGSA,A,3,1,3,10,12,14,22,26,31,32,11,25,138,2.0,0.8,1.5*03
2017-12-01 17:13:07 1512166387.395108: $GPZDA,221308.00,01,12,2017,00,00*6A
2017-12-01 17:13:07 1512166387.395251: $GPGGA,221308,3946.9632,N,08404.9741,W,2,12,0.80,295.51,M,-33.324,M,,*75
2017-12-01 17:13:07 1512166387.395318: $GPRMC,221308,A,3946.9632,N,08404.9741,W,0.0000,0.000,011217,,*34
2017-12-01 17:13:07 1512166387.395402: $GPGSA,A,3,1,3,10,12,14,22,26,31,32,11,25,138,2.0,0.8,1.5*03
