2017-12-01 16:34:26 1512164066.886820: {"class":"VERSION","release":"3.16","rev":"3.16-4","proto_major":3,"proto_minor":11}
2017-12-01 16:34:26 1512164066.887210: {"class":"DEVICES","devices":[{"class":"DEVICE","path":"/dev/ttyUSB0","driver":"SiRF","subtype":"9\u0006GSD4e_4.1.2-P1_RPATCH.05-F-GPS-4R-1510281 11/03/2015 307","activated":"2017-12-01T21:34:26.542Z","flags":1,"native":1,"bps":4800,"parity":"N","stopbits":1,"cycle":1.00}]}
2017-12-01 16:34:26 1512164066.887333: {"class":"WATCH","enable":true,"json":false,"nmea":true,"raw":0,"scaled":false,"timing":false,"split24":false,"pps":false}
2017-12-01 16:34:27 1512164067.400551: $GPZDA,213428.00,01,12,2017,00,00*6E
2017-12-01 16:34:27 1512164067.400721: $GPGGA,213428,3946.9647,N,08404.9729,W,2,12,1.00,288.96,M,-33.324,M,,*73
2017-12-01 16:34:27 1512164067.400787: $GPRMC,213428,A,3946.9647,N,08404.9729,W,0.0000,0.000,011217,,*3C
2017-12-01 16:34:27 1512164067.400849: $GPGSA,A,3,1,10,14,22,26,31,32,11,12,3,25,138,2.0,1.0,1.5*0A
2017-12-01 16:34:28 1512164068.736293: $GPGSV,3,1,12,01,22,298,41,10,46,148,45,14,67,331,42,22,20,312,42*77
2017-12-01 16:34:28 1512164068.736476: $GPGSV,3,2,12,26,04,183,35,31,58,226,50,32,68,033,48,11,08,280,24*7C
2017-12-01 16:34:28 1512164068.736542: $GPGSV,3,3,12,12,21,048,26,25,40,088,00,18,16,144,00,138,38,213,36*4A
2017-12-01 16:34:28 1512164068.849631: $GPZDA,213429.00,01,12,2017,00,00*6F
2017-12-01 16:34:28 1512164068.849812: $GPGGA,213429,3946.9647,N,08404.9729,W,2,10,1.00,288.96,M,-33.324,M,,*70
2017-12-01 16:34:28 1512164068.849882: $GPRMC,213429,A,3946.9647,N,08404.9729,W,0.0000,0.000,011217,,*3D
2017-12-01 16:34:28 1512164068.849943: $GPGSA,A,3,1,10,14,22,26,31,32,11,12,138,,,2.0,1.0,1.5*3E
2017-12-01 16:34:29 1512164069.475067: $GPZDA,213430.00,01,12,2017,00,00*67
2017-12-01 16:34:29 1512164069.475247: $GPGGA,213430,3946.9647,N,08404.9729,W,2,10,1.00,288.96,M,-33.324,M,,*78
2017-12-01 16:34:29 1512164069.475316: $GPRMC,213430,A,3946.9647,N,08404.9729,W,0.0000,0.000,011217,,*35
2017-12-01 16:34:29 1512164069.475377: $GPGSA,A,3,1,10,14,22,26,31,32,11,12,138,,,2.0,1.0,1.5*3E
2017-12-01 16:34:30 1512164070.418407: $GPZDA,213431.00,01,12,2017,00,00*66
2017-12-01 16:34:30 1512164070.418587: $GPGGA,213431,3946.9647,N,08404.9729,W,2,10,1.00,288.96,M,-33.324,M,,*79
2017-12-01 16:34:30 1512164070.418656: $GPRMC,213431,A,3946.9647,N,08404.9729,W,0.0000,0.000,011217,,*34
2017-12-01 16:34:30 1512164070.418717: $GPGSA,A,3,1,10,14,22,26,31,32,11,12,138,,,2.0,1.0,1.5*3E
2017-12-01 16:34:31 1512164071.764640: $GPGSV,3,1,12,01,22,298,42,10,46,148,45,14,67,331,43,22,20,312,42*75
2017-12-01 16:34:31 1512164071.764823: $GPGSV,3,2,12,26,04,183,35,31,58,226,50,32,68,033,48,11,08,280,25*7D
2017-12-01 16:34:31 1512164071.764889: $GPGSV,3,3,12,12,21,048,26,25,40,088,27,03,01,316,05,138,38,213,39*4C
2017-12-01 16:34:31 1512164071.877749: $GPZDA,213432.00,01,12,2017,00,00*65
2017-12-01 16:34:31 1512164071.877923: $GPGGA,213432,3946.9647,N,08404.9729,W,2,11,1.00,288.96,M,-33.324,M,,*7B
2017-12-01 16:34:31 1512164071.877989: $GPRMC,213432,A,3946.9647,N,08404.9729,W,0.0000,0.000,011217,,*37
2017-12-01 16:34:31 1512164071.878049: $GPGSA,A,3,1,10,14,22,26,31,32,11,12,25,138,,2.0,1.0,1.5*39
2017-12-01 16:34:32 1512164072.418506: $GPZDA,213433.00,01,12,2017,00,00*64
2017-12-01 16:34:32 1512164072.418666: $GPGGA,213433,3946.9647,N,08404.9736,W,2,11,1.00,288.88,M,-33.324,M,,*7B
2017-12-01 16:34:32 1512164072.418733: $GPRMC,213433,A,3946.9647,N,08404.9736,W,0.0000,0.000,011217,,*38
2017-12-01 16:34:32 1512164072.418794: $GPGSA,A,3,1,10,14,22,26,31,32,11,12,25,138,,2.0,1.0,1.5*39
2017-12-01 16:34:33 1512164073.401833: $GPZDA,213434.00,01,12,2017,00,00*63
2017-12-01 16:34:33 1512164073.402020: $GPGGA,213434,3946.9647,N,08404.9736,W,2,11,1.00,288.88,M,-33.324,M,,*7C
2017-12-01 16:34:33 1512164073.402088: $GPRMC,213434,A,3946.9647,N,08404.9736,W,0.0000,0.000,011217,,*3F
2017-12-01 16:34:33 1512164073.402149: $GPGSA,A,3,1,10,14,22,26,31,32,11,12,25,138,,2.0,1.0,1.5*39
2017-12-01 16:34:34 1512164074.738279: $GPGSV,3,1,12,01,22,298,42,10,46,148,45,14,67,331,42,22,20,312,42*74
2017-12-01 16:34:34 1512164074.738516: $GPGSV,3,2,12,26,04,183,34,31,58,226,50,32,68,033,48,11,08,280,26*7F
2017-12-01 16:34:34 1512164074.738586: $GPGSV,3,3,12,12,21,048,22,25,40,088,28,18,16,144,08,138,38,213,40*4D
2017-12-01 16:34:34 1512164074.851951: $GPZDA,213435.00,01,12,2017,00,00*62
2017-12-01 16:34:34 1512164074.852117: $GPGGA,213435,3946.9647,N,08404.9736,W,2,11,1.00,288.88,M,-33.324,M,,*7D
2017-12-01 16:34:34 1512164074.852183: $GPRMC,213435,A,3946.9647,N,08404.9736,W,0.0000,0.000,011217,,*3E
2017-12-01 16:34:34 1512164074.852243: $GPGSA,A,3,1,10,14,22,26,31,32,11,12,25,138,,2.0,1.0,1.5*39
2017-12-01 16:34:35 1512164075.404985: $GPZDA,213436.00,01,12,2017,00,00*61
2017-12-01 16:34:35 1512164075.405161: $GPGGA,213436,3946.9647,N,08404.9736,W,2,11,1.00,288.88,M,-33.324,M,,*7E
2017-12-01 16:34:35 1512164075.405227: $GPRMC,213436,A,3946.9647,N,08404.9736,W,0.0000,0.000,011217,,*3D
2017-12-01 16:34:35 1512164075.405287: $GPGSA,A,3,1,10,14,22,26,31,32,11,12,25,138,,2.0,1.0,1.5*39
2017-12-01 16:34:36 1512164076.398827: $GPZDA,213437.00,01,12,2017,00,00*60
2017-12-01 16:34:36 1512164076.398997: $GPGGA,213437,3946.9647,N,08404.9736,W,2,11,1.00,288.88,M,-33.324,M,,*7F
2017-12-01 16:34:36 1512164076.399063: $GPRMC,213437,A,3946.9647,N,08404.9736,W,0.0000,0.000,011217,,*3C
2017-12-01 16:34:36 1512164076.399124: $GPGSA,A,3,1,10,14,22,26,31,32,11,12,25,138,,2.0,1.0,1.5*39
2017-12-01 16:34:37 1512164077.739189: $GPGSV,3,1,12,01,22,298,42,10,46,148,44,14,67,331,42,22,20,312,42*75
2017-12-01 16:34:37 1512164077.739372: $GPGSV,3,2,12,26,04,183,34,31,58,226,49,32,68,033,48,11,08,280,26*77
2017-12-01 16:34:37 1512164077.739438: $GPGSV,3,3,12,12,21,048,20,25,40,088,28,18,16,144,15,138,38,213,40*43
2017-12-01 16:34:37 1512164077.852833: $GPZDA,213438.00,01,12,2017,00,00*6F
2017-12-01 16:34:37 1512164077.853011: $GPGGA,213438,3946.9647,N,08404.9736,W,2,11,1.00,288.88,M,-33.324,M,,*70
2017-12-01 16:34:37 1512164077.853080: $GPRMC,213438,A,3946.9647,N,08404.9736,W,0.0000,0.000,011217,,*33
2017-12-01 16:34:37 1512164077.853162: $GPGSA,A,3,1,10,14,22,26,31,32,11,12,25,138,,2.0,1.0,1.5*39
2017-12-01 16:34:38 1512164078.402425: $GPZDA,213439.00,01,12,2017,00,00*6E
2017-12-01 16:34:38 1512164078.407606: $GPGGA,213439,3946.9647,N,08404.9736,W,2,11,1.00,288.88,M,-33.324,M,,*71
2017-12-01 16:34:38 1512164078.407712: $GPRMC,213439,A,3946.9647,N,08404.9736,W,0.0000,0.000,011217,,*32
2017-12-01 16:34:38 1512164078.407794: $GPGSA,A,3,1,10,14,22,26,31,32,11,12,25,138,,2.0,1.0,1.5*39
2017-12-01 16:34:39 1512164079.402044: $GPZDA,213440.00,01,12,2017,00,00*60
2017-12-01 16:34:39 1512164079.402300: $GPGGA,213440,3946.9647,N,08404.9736,W,2,11,1.00,288.88,M,-33.324,M,,*7F
2017-12-01 16:34:39 1512164079.402436: $GPRMC,213440,A,3946.9647,N,08404.9736,W,0.0000,0.000,011217,,*3C
2017-12-01 16:34:39 1512164079.402563: $GPGSA,A,3,1,10,14,22,26,31,32,11,12,25,138,,2.0,1.0,1.5*39
2017-12-01 16:34:40 1512164080.737177: $GPGSV,3,1,12,01,22,298,42,10,46,148,44,14,67,331,42,22,20,312,42*75
2017-12-01 16:34:40 1512164080.737355: $GPGSV,3,2,12,26,04,183,35,31,58,226,50,32,68,033,48,11,08,280,17*7C
2017-12-01 16:34:40 1512164080.737421: $GPGSV,3,3,12,12,21,048,22,25,40,088,29,18,16,144,00,138,38,213,38*4B
2017-12-01 16:34:40 1512164080.850844: $GPZDA,213441.00,01,12,2017,00,00*61
2017-12-01 16:34:40 1512164080.851018: $GPGGA,213441,3946.9647,N,08404.9736,W,2,11,1.00,288.88,M,-33.324,M,,*7E
2017-12-01 16:34:40 1512164080.851086: $GPRMC,213441,A,3946.9647,N,08404.9736,W,0.0000,0.000,011217,,*3D
2017-12-01 16:34:40 1512164080.851582: $GPGSA,A,3,1,10,14,22,26,31,32,11,12,25,138,,2.0,1.0,1.5*39
2017-12-01 16:34:41 1512164081.401703: $GPZDA,213442.00,01,12,2017,00,00*62
2017-12-01 16:34:41 1512164081.401882: $GPGGA,213442,3946.9647,N,08404.9736,W,2,11,1.00,288.88,M,-33.324,M,,*7D
2017-12-01 16:34:41 1512164081.401952: $GPRMC,213442,A,3946.9647,N,08404.9736,W,0.0000,0.000,011217,,*3E
2017-12-01 16:34:41 1512164081.402015: $GPGSA,A,3,1,10,14,22,26,31,32,11,12,25,138,,2.0,1.0,1.5*39
2017-12-01 16:34:42 1512164082.403345: $GPZDA,213443.00,01,12,2017,00,00*63
2017-12-01 16:34:42 1512164082.403567: $GPGGA,213443,3946.9647,N,08404.9736,W,2,11,1.00,288.88,M,-33.324,M,,*7C
2017-12-01 16:34:42 1512164082.403641: $GPRMC,213443,A,3946.9647,N,08404.9736,W,0.0000,0.000,011217,,*3F
2017-12-01 16:34:42 1512164082.403810: $GPGSA,A,3,1,10,14,22,26,31,32,11,12,25,138,,2.0,1.0,1.5*39
2017-12-01 16:34:43 1512164083.740342: $GPGSV,3,1,12,01,22,298,42,10,46,148,44,14,67,331,42,22,20,312,43*74
2017-12-01 16:34:43 1512164083.740530: $GPGSV,3,2,12,26,04,183,34,31,58,226,50,32,68,033,48,11,08,280,23*7A
2017-12-01 16:34:43 1512164083.740598: $GPGSV,3,3,12,12,21,048,27,25,40,088,29,18,16,144,16,138,38,213,40*46
2017-12-01 16:34:43 1512164083.853734: $GPZDA,213444.00,01,12,2017,00,00*64
2017-12-01 16:34:43 1512164083.853913: $GPGGA,213444,3946.9647,N,08404.9736,W,2,11,1.00,288.88,M,-33.324,M,,*7B
2017-12-01 16:34:43 1512164083.853981: $GPRMC,213444,A,3946.9647,N,08404.9736,W,0.0000,0.000,011217,,*38
2017-12-01 16:34:43 1512164083.854043: $GPGSA,A,3,1,10,14,22,26,31,32,11,12,25,138,,2.0,1.0,1.5*39
2017-12-01 16:34:44 1512164084.479218: $GPZDA,213445.00,01,12,2017,00,00*65
2017-12-01 16:34:44 1512164084.479389: $GPGGA,213445,3946.9647,N,08404.9736,W,2,11,1.00,288.88,M,-33.324,M,,*7A
2017-12-01 16:34:44 1512164084.479457: $GPRMC,213445,A,3946.9647,N,08404.9736,W,0.0000,0.000,011217,,*39
2017-12-01 16:34:44 1512164084.479517: $GPGSA,A,3,1,10,14,22,26,31,32,11,12,25,138,,2.0,1.0,1.5*39
2017-12-01 16:34:45 1512164085.402617: $GPZDA,213446.00,01,12,2017,00,00*66
2017-12-01 16:34:45 1512164085.402802: $GPGGA,213446,3946.9647,N,08404.9736,W,2,11,0.80,288.88,M,-33.324,M,,*70
2017-12-01 16:34:45 1512164085.402870: $GPRMC,213446,A,3946.9647,N,08404.9736,W,0.0000,0.000,011217,,*3A
2017-12-01 16:34:45 1512164085.402949: $GPGSA,A,3,1,10,14,22,26,31,32,11,12,25,138,,2.0,0.8,1.5*30
2017-12-01 16:34:46 1512164086.743223: $GPGSV,3,1,12,01,22,298,43,10,46,148,44,14,67,331,42,22,20,312,43*75
2017-12-01 16:34:46 1512164086.743377: $GPGSV,3,2,12,26,04,183,33,31,58,226,49,32,68,033,48,11,08,280,28*7E
2017-12-01 16:34:46 1512164086.743443: $GPGSV,3,3,12,12,21,048,28,25,40,088,29,18,16,144,18,138,38,213,40*47
2017-12-01 16:34:46 1512164086.856853: $GPZDA,213447.00,01,12,2017,00,00*67
2017-12-01 16:34:46 1512164086.857043: $GPGGA,213447,3946.9647,N,08404.9736,W,2,12,0.80,288.88,M,-33.324,M,,*72
2017-12-01 16:34:46 1512164086.857109: $GPRMC,213447,A,3946.9647,N,08404.9736,W,0.0000,0.000,011217,,*3B
2017-12-01 16:34:46 1512164086.857170: $GPGSA,A,3,1,10,14,22,26,31,32,11,12,25,18,138,2.0,0.8,1.5*39
