2017-12-01 16:15:32 1512162932.197064: {"class":"VERSION","release":"3.16","rev":"3.16-4","proto_major":3,"proto_minor":11}
2017-12-01 16:15:32 1512162932.197517: {"class":"DEVICES","devices":[{"class":"DEVICE","path":"/dev/ttyUSB0","driver":"SiRF","subtype":"9\u0006GSD4e_4.1.2-P1_RPATCH.05-F-GPS-4R-1510281 11/03/2015 307","activated":"2017-12-01T21:15:32.175Z","flags":1,"native":1,"bps":4800,"parity":"N","stopbits":1,"cycle":1.00}]}
2017-12-01 16:15:32 1512162932.197640: {"class":"WATCH","enable":true,"json":false,"nmea":true,"raw":0,"scaled":false,"timing":false,"split24":false,"pps":false}
2017-12-01 16:15:32 1512162932.352252: $GPZDA,211533.00,01,12,2017,00,00*67
2017-12-01 16:15:32 1512162932.352417: $GPGGA,211533,3946.9591,N,08404.9856,W,2,12,0.80,293.58,M,-33.324,M,,*74
2017-12-01 16:15:32 1512162932.352484: $GPRMC,211533,A,3946.9591,N,08404.9856,W,0.0000,0.000,011217,,*3A
2017-12-01 16:15:32 1512162932.352548: $GPGSA,A,3,10,12,14,18,25,31,32,1,11,22,24,138,2.0,0.8,1.5*3B
2017-12-01 16:15:33 1512162933.694365: $GPGSV,3,1,12,10,55,144,48,12,24,057,43,14,63,313,46,18,24,141,45*7D
2017-12-01 16:15:33 1512162933.694556: $GPGSV,3,2,12,25,37,099,47,31,49,220,49,32,70,009,46,01,20,307,35*75
2017-12-01 16:15:33 1512162933.694626: $GPGSV,3,3,12,11,10,288,33,22,13,312,33,24,03,048,18,138,38,213,46*48
2017-12-01 16:15:33 1512162933.807534: $GPZDA,211534.00,01,12,2017,00,00*60
2017-12-01 16:15:33 1512162933.807703: $GPGGA,211534,3946.9591,N,08404.9856,W,2,12,0.80,293.58,M,-33.324,M,,*73
2017-12-01 16:15:33 1512162933.807770: $GPRMC,211534,A,3946.9591,N,08404.9856,W,0.0000,0.000,011217,,*3D
2017-12-01 16:15:33 1512162933.807830: $GPGSA,A,3,10,12,14,18,25,31,32,1,11,22,24,138,2.0,0.8,1.5*3B
2017-12-01 16:15:34 1512162934.357148: $GPZDA,211535.00,01,12,2017,00,00*61
2017-12-01 16:15:34 1512162934.357324: $GPGGA,211535,3946.9591,N,08404.9856,W,2,12,0.80,293.58,M,-33.324,M,,*72
2017-12-01 16:15:34 1512162934.357391: $GPRMC,211535,A,3946.9591,N,08404.9856,W,0.0000,0.000,011217,,*3C
2017-12-01 16:15:34 1512162934.357453: $GPGSA,A,3,10,12,14,18,25,31,32,1,11,22,24,138,2.0,0.8,1.5*3B
2017-12-01 16:15:35 1512162935.356734: $GPZDA,211536.00,01,12,2017,00,00*62
2017-12-01 16:15:35 1512162935.356906: $GPGGA,211536,3946.9591,N,08404.9856,W,2,12,0.80,293.58,M,-33.324,M,,*71
2017-12-01 16:15:35 1512162935.357012: $GPRMC,211536,A,3946.9591,N,08404.9856,W,0.0000,0.000,011217,,*3F
2017-12-01 16:15:35 1512162935.357075: $GPGSA,A,3,10,12,14,18,25,31,32,1,11,22,24,138,2.0,0.8,1.5*3B
2017-12-01 16:15:36 1512162936.693715: $GPGSV,3,1,12,10,55,144,48,12,24,057,44,14,63,313,46,18,24,141,45*7A
2017-12-01 16:15:36 1512162936.693898: $GPGSV,3,2,12,25,37,099,46,31,49,220,49,32,70,009,46,01,20,307,35*74
2017-12-01 16:15:36 1512162936.693964: $GPGSV,3,3,12,11,10,288,33,22,13,312,34,24,03,048,18,138,38,213,45*4C
2017-12-01 16:15:36 1512162936.807113: $GPZDA,211537.00,01,12,2017,00,00*63
2017-12-01 16:15:36 1512162936.807274: $GPGGA,211537,3946.9591,N,08404.9856,W,2,12,0.80,293.58,M,-33.324,M,,*70
2017-12-01 16:15:36 1512162936.807340: $GPRMC,211537,A,3946.9591,N,08404.9856,W,0.0000,0.000,011217,,*3E
2017-12-01 16:15:36 1512162936.807401: $GPGSA,A,3,10,12,14,18,25,31,32,1,11,22,24,138,2.0,0.8,1.5*3B
2017-12-01 16:15:37 1512162937.432677: $GPZDA,211538.00,01,12,2017,00,00*6C
2017-12-01 16:15:37 1512162937.432852: $GPGGA,211538,3946.9591,N,08404.9856,W,2,12,0.80,293.58,M,-33.324,M,,*7F
2017-12-01 16:15:37 1512162937.432920: $GPRMC,211538,A,3946.9591,N,08404.9856,W,0.0000,0.000,011217,,*31
2017-12-01 16:15:37 1512162937.433004: $GPGSA,A,3,10,12,14,18,25,31,32,1,11,22,24,138,2.0,0.8,1.5*3B
2017-12-01 16:15:38 1512162938.357138: $GPZDA,211539.00,01,12,2017,00,00*6D
2017-12-01 16:15:38 1512162938.357315: $GPGGA,211539,3946.9591,N,08404.9856,W,2,12,0.80,293.58,M,-33.324,M,,*7E
2017-12-01 16:15:38 1512162938.357384: $GPRMC,211539,A,3946.9591,N,08404.9856,W,0.0000,0.000,011217,,*30
2017-12-01 16:15:38 1512162938.357445: $GPGSA,A,3,10,12,14,18,25,31,32,1,11,22,24,138,2.0,0.8,1.5*3B
2017-12-01 16:15:39 1512162939.692897: $GPGSV,3,1,12,10,55,144,48,12,24,057,44,14,63,313,46,18,24,141,45*7A
2017-12-01 16:15:39 1512162939.693165: $GPGSV,3,2,12,25,37,099,46,31,49,220,49,32,70,009,46,01,20,307,34*75
2017-12-01 16:15:39 1512162939.693236: $GPGSV,3,3,12,11,10,288,33,22,13,312,34,24,03,048,18,138,38,213,46*4F
2017-12-01 16:15:39 1512162939.806222: $GPZDA,211540.00,01,12,2017,00,00*63
2017-12-01 16:15:39 1512162939.806389: $GPGGA,211540,3946.9591,N,08404.9856,W,2,12,0.80,293.58,M,-33.324,M,,*70
2017-12-01 16:15:39 1512162939.806455: $GPRMC,211540,A,3946.9591,N,08404.9856,W,0.0000,0.000,011217,,*3E
2017-12-01 16:15:39 1512162939.806515: $GPGSA,A,3,10,12,14,18,25,31,32,1,11,22,24,138,2.0,0.8,1.5*3B
2017-12-01 16:15:40 1512162940.358370: $GPZDA,211541.00,01,12,2017,00,00*62
2017-12-01 16:15:40 1512162940.358547: $GPGGA,211541,3946.9591,N,08404.9849,W,2,12,0.80,293.66,M,-33.324,M,,*72
2017-12-01 16:15:40 1512162940.358615: $GPRMC,211541,A,3946.9591,N,08404.9849,W,0.0000,0.000,011217,,*31
2017-12-01 16:15:40 1512162940.358676: $GPGSA,A,3,10,12,14,18,25,31,32,1,11,22,24,138,2.0,0.8,1.5*3B
2017-12-01 16:15:41 1512162941.357955: $GPZDA,211542.00,01,12,2017,00,00*61
2017-12-01 16:15:41 1512162941.358172: $GPGGA,211542,3946.9591,N,08404.9849,W,2,12,0.80,293.66,M,-33.324,M,,*71
2017-12-01 16:15:41 1512162941.358265: $GPRMC,211542,A,3946.9591,N,08404.9849,W,0.0000,0.000,011217,,*32
2017-12-01 16:15:41 1512162941.358329: $GPGSA,A,3,10,12,14,18,25,31,32,1,11,22,24,138,2.0,0.8,1.5*3B
2017-12-01 16:15:42 1512162942.688283: $GPGSV,3,1,12,10,55,144,48,12,24,057,45,14,63,313,46,18,24,141,45*7B
2017-12-01 16:15:42 1512162942.688463: $GPGSV,3,2,12,25,37,099,46,31,49,220,48,32,70,009,46,01,20,307,34*74
2017-12-01 16:15:42 1512162942.688530: $GPGSV,3,3,12,11,10,288,26,22,13,312,34,24,03,048,17,138,38,213,45*47
2017-12-01 16:15:42 1512162942.801905: $GPZDA,211543.00,01,12,2017,00,00*60
2017-12-01 16:15:42 1512162942.802048: $GPGGA,211543,3946.9591,N,08404.9849,W,2,12,0.80,293.66,M,-33.324,M,,*70
2017-12-01 16:15:42 1512162942.802115: $GPRMC,211543,A,3946.9591,N,08404.9849,W,0.0000,0.000,011217,,*33
2017-12-01 16:15:42 1512162942.802176: $GPGSA,A,3,10,12,14,18,25,31,32,1,11,22,24,138,2.0,0.8,1.5*3B
2017-12-01 16:15:43 1512162943.358741: $GPZDA,211544.00,01,12,2017,00,00*67
2017-12-01 16:15:43 1512162943.358914: $GPGGA,211544,3946.9591,N,08404.9849,W,2,12,0.80,293.66,M,-33.324,M,,*77
2017-12-01 16:15:43 1512162943.358981: $GPRMC,211544,A,3946.9591,N,08404.9849,W,0.0000,0.000,011217,,*34
2017-12-01 16:15:43 1512162943.359042: $GPGSA,A,3,10,12,14,18,25,31,32,1,11,22,24,138,2.0,0.8,1.5*3B
2017-12-01 16:15:44 1512162944.358679: $GPZDA,211545.00,01,12,2017,00,00*66
2017-12-01 16:15:44 1512162944.358852: $GPGGA,211545,3946.9591,N,08404.9849,W,2,12,0.80,293.66,M,-33.324,M,,*76
2017-12-01 16:15:44 1512162944.358918: $GPRMC,211545,A,3946.9591,N,08404.9849,W,0.0000,0.000,011217,,*35
2017-12-01 16:15:44 1512162944.358980: $GPGSA,A,3,10,12,14,18,25,31,32,1,11,22,24,138,2.0,0.8,1.5*3B
2017-12-01 16:15:45 1512162945.694126: $GPGSV,3,1,12,10,55,144,47,12,24,057,45,14,63,313,46,18,24,141,45*74
2017-12-01 16:15:45 1512162945.694284: $GPGSV,3,2,12,25,37,099,46,31,49,220,49,32,70,009,46,01,20,307,35*74
2017-12-01 16:15:45 1512162945.694349: $GPGSV,3,3,12,11,10,288,29,22,13,312,34,24,03,048,17,138,38,213,46*4B
2017-12-01 16:15:45 1512162945.807504: $GPZDA,211546.00,01,12,2017,00,00*65
2017-12-01 16:15:45 1512162945.807673: $GPGGA,211546,3946.9591,N,08404.9849,W,2,12,0.80,293.66,M,-33.324,M,,*75
2017-12-01 16:15:45 1512162945.807740: $GPRMC,211546,A,3946.9591,N,08404.9849,W,0.0000,0.000,011217,,*36
2017-12-01 16:15:45 1512162945.807801: $GPGSA,A,3,10,12,14,18,25,31,32,1,11,22,24,138,2.0,0.8,1.5*3B
2017-12-01 16:15:46 1512162946.357104: $GPZDA,211547.00,01,12,2017,00,00*64
2017-12-01 16:15:46 1512162946.357288: $GPGGA,211547,3946.9591,N,08404.9849,W,2,12,0.80,293.66,M,-33.324,M,,*74
2017-12-01 16:15:46 1512162946.357376: $GPRMC,211547,A,3946.9591,N,08404.9849,W,0.0000,0.000,011217,,*37
2017-12-01 16:15:46 1512162946.357440: $GPGSA,A,3,10,12,14,18,25,31,32,1,11,22,24,138,2.0,0.8,1.5*3B
2017-12-01 16:15:47 1512162947.357466: $GPZDA,211548.00,01,12,2017,00,00*6B
2017-12-01 16:15:47 1512162947.357641: $GPGGA,211548,3946.9591,N,08404.9849,W,2,12,0.80,293.66,M,-33.324,M,,*7B
2017-12-01 16:15:47 1512162947.357708: $GPRMC,211548,A,3946.9591,N,08404.9849,W,0.0000,0.000,011217,,*38
2017-12-01 16:15:47 1512162947.357769: $GPGSA,A,3,10,12,14,18,25,31,32,1,11,22,24,138,2.0,0.8,1.5*3B
2017-12-01 16:15:48 1512162948.688201: $GPGSV,3,1,12,10,55,144,48,12,24,057,45,14,63,313,45,18,24,141,45*78
2017-12-01 16:15:48 1512162948.688381: $GPGSV,3,2,12,25,37,099,46,31,49,220,49,32,70,009,46,01,20,307,35*74
2017-12-01 16:15:48 1512162948.688447: $GPGSV,3,3,12,11,10,288,21,22,13,312,34,24,03,048,00,138,38,213,46*45
2017-12-01 16:15:48 1512162948.801601: $GPZDA,211549.00,01,12,2017,00,00*6A
2017-12-01 16:15:48 1512162948.801755: $GPGGA,211549,3946.9591,N,08404.9849,W,2,11,0.80,293.66,M,-33.324,M,,*79
2017-12-01 16:15:48 1512162948.801821: $GPRMC,211549,A,3946.9591,N,08404.9849,W,0.0000,0.000,011217,,*39
2017-12-01 16:15:48 1512162948.801881: $GPGSA,A,3,10,12,14,18,25,31,32,1,11,22,138,,2.0,0.8,1.5*3D
2017-12-01 16:15:49 1512162949.358678: $GPZDA,211550.00,01,12,2017,00,00*62
2017-12-01 16:15:49 1512162949.358834: $GPGGA,211550,3946.9587,N,08404.9850,W,2,11,0.80,294.43,M,-33.324,M,,*7E
2017-12-01 16:15:49 1512162949.358900: $GPRMC,211550,A,3946.9587,N,08404.9850,W,0.0000,0.000,011217,,*3E
2017-12-01 16:15:49 1512162949.358982: $GPGSA,A,3,10,12,14,18,25,31,32,1,11,22,138,,2.0,0.8,1.5*3D
2017-12-01 16:15:50 1512162950.357098: $GPZDA,211551.00,01,12,2017,00,00*63
2017-12-01 16:15:50 1512162950.357270: $GPGGA,211551,3946.9587,N,08404.9850,W,2,11,0.80,294.43,M,-33.324,M,,*7F
2017-12-01 16:15:50 1512162950.357336: $GPRMC,211551,A,3946.9587,N,08404.9850,W,0.0000,0.000,011217,,*3F
2017-12-01 16:15:50 1512162950.357398: $GPGSA,A,3,10,12,14,18,25,31,32,1,11,22,138,,2.0,0.8,1.5*3D
2017-12-01 16:15:51 1512162951.692771: $GPGSV,3,1,12,10,55,144,48,12,24,057,45,14,63,313,46,18,24,141,45*7B
2017-12-01 16:15:51 1512162951.692989: $GPGSV,3,2,12,25,37,099,46,31,49,220,49,32,70,009,46,01,20,307,35*74
2017-12-01 16:15:51 1512162951.693073: $GPGSV,3,3,12,11,10,288,22,22,13,312,35,24,03,048,00,138,38,213,45*44
2017-12-01 16:15:51 1512162951.806176: $GPZDA,211552.00,01,12,2017,00,00*60
2017-12-01 16:15:51 1512162951.806350: $GPGGA,211552,3946.9587,N,08404.9850,W,2,11,0.80,294.43,M,-33.324,M,,*7C
2017-12-01 16:15:51 1512162951.806416: $GPRMC,211552,A,3946.9587,N,08404.9850,W,0.0000,0.000,011217,,*3C
2017-12-01 16:15:51 1512162951.806477: $GPGSA,A,3,10,12,14,18,25,31,32,1,11,22,138,,2.0,0.8,1.5*3D
