2017-11-15 19:06:12 1510790772.856042: {"class":"VERSION","release":"3.17","rev":"3.17","proto_major":3,"proto_minor":12}
2017-11-15 19:06:12 1510790772.856511: {"class":"DEVICES","devices":[{"class":"DEVICE","path":"/dev/ttyUSB0","driver":"SiRF","subtype":"9\u0006GSD4e_4.1.2-P1_RPATCH.05-F-GPS-4R-1510281 11/03/2015 307","activated":"2017-11-16T00:06:12.816Z","flags":1,"native":1,"bps":4800,"parity":"N","stopbits":1,"cycle":1.00}]}
2017-11-15 19:06:12 1510790772.856634: {"class":"WATCH","enable":true,"json":false,"nmea":true,"raw":0,"scaled":false,"timing":false,"split24":false,"pps":false}
2017-11-15 19:06:13 1510790773.347249: $GPZDA,000612.00,16,11,2017,00,00*60
2017-11-15 19:06:13 1510790773.347421: $GPGGA,000612,3946.9637,N,08404.9544,W,1,07,2.00,297.48,M,-33.324,M,,*7F
2017-11-15 19:06:13 1510790773.347485: $GPRMC,000612,A,3946.9637,N,08404.9544,W,0.8709,183.298,161117,,*33
2017-11-15 19:06:13 1510790773.347544: $GPGSA,A,3,32,14,3,26,31,16,22,,,,,,3.4,2.0,2.9*0A
2017-11-15 19:06:14 1510790774.330534: $GPZDA,000613.00,16,11,2017,00,00*61
2017-11-15 19:06:14 1510790774.330711: $GPGGA,000613,3946.9633,N,08404.9545,W,1,07,2.00,298.24,M,-33.324,M,,*7E
2017-11-15 19:06:14 1510790774.330780: $GPRMC,000613,A,3946.9633,N,08404.9545,W,1.0534,170.904,161117,,*30
2017-11-15 19:06:14 1510790774.330837: $GPGSA,A,3,32,14,3,26,31,16,22,,,,,,3.4,2.0,2.9*0A
2017-11-15 19:06:15 1510790775.666319: $GPGSV,3,1,11,32,45,096,13,14,63,073,24,03,32,309,04,26,40,175,25*7C
2017-11-15 19:06:15 1510790775.666493: $GPGSV,3,2,11,31,76,355,22,16,11,190,16,22,47,288,16,25,26,045,00*74
2017-11-15 19:06:15 1510790775.666554: $GPGSV,3,3,11,01,12,262,00,10,08,159,00,29,06,081,00*4D
2017-11-15 19:06:15 1510790775.779627: $GPZDA,000614.00,16,11,2017,00,00*66
2017-11-15 19:06:15 1510790775.779805: $GPGGA,000614,3946.9633,N,08404.9545,W,1,06,2.00,298.24,M,-33.324,M,,*78
2017-11-15 19:06:15 1510790775.779873: $GPRMC,000614,A,3946.9633,N,08404.9545,W,0.4179,148.778,161117,,*31
2017-11-15 19:06:15 1510790775.779929: $GPGSA,A,3,32,14,26,31,16,22,,,,,,,3.4,2.0,2.9*39
2017-11-15 19:06:16 1510790776.410100: $GPZDA,000615.00,16,11,2017,00,00*67
2017-11-15 19:06:16 1510790776.410300: $GPGGA,000615,3946.9633,N,08404.9545,W,1,06,2.00,298.24,M,-33.324,M,,*79
2017-11-15 19:06:16 1510790776.410385: $GPRMC,000615,A,3946.9633,N,08404.9545,W,0.4844,93.794,161117,,*02
2017-11-15 19:06:16 1510790776.410444: $GPGSA,A,3,32,14,26,31,16,22,,,,,,,3.4,2.0,2.9*39
2017-11-15 19:06:17 1510790777.328475: $GPZDA,000616.00,16,11,2017,00,00*64
2017-11-15 19:06:17 1510790777.328645: $GPGGA,000616,3946.9633,N,08404.9538,W,1,06,2.00,298.32,M,-33.324,M,,*77
2017-11-15 19:06:17 1510790777.328708: $GPRMC,000616,A,3946.9633,N,08404.9538,W,0.4207,39.347,161117,,*0C
2017-11-15 19:06:17 1510790777.328782: $GPGSA,A,3,32,14,26,31,16,22,,,,,,,3.4,2.0,2.9*39
2017-11-15 19:06:18 1510790778.664174: $GPGSV,3,1,11,32,45,096,12,14,63,073,24,29,06,081,12,26,40,175,25*76
2017-11-15 19:06:18 1510790778.664362: $GPGSV,3,2,11,31,76,355,22,16,11,190,16,22,47,288,17,03,32,309,00*7F
2017-11-15 19:06:18 1510790778.664423: $GPGSV,3,3,11,25,26,045,00,01,12,262,00,10,08,159,00*4B
2017-11-15 19:06:18 1510790778.777535: $GPZDA,000617.00,16,11,2017,00,00*65
2017-11-15 19:06:18 1510790778.777731: $GPGGA,000617,3946.9633,N,08404.9538,W,1,06,2.00,298.32,M,-33.324,M,,*76
2017-11-15 19:06:18 1510790778.777797: $GPRMC,000617,A,3946.9633,N,08404.9538,W,0.0000,0.000,161117,,*36
2017-11-15 19:06:18 1510790778.777860: $GPGSA,A,3,32,14,26,31,16,22,,,,,,,3.4,2.0,2.9*39
2017-11-15 19:06:19 1510790779.328419: $GPZDA,000618.00,16,11,2017,00,00*6A
2017-11-15 19:06:19 1510790779.328602: $GPGGA,000618,3946.9641,N,08404.9537,W,1,06,2.00,298.19,M,-33.324,M,,*7A
2017-11-15 19:06:19 1510790779.328665: $GPRMC,000618,A,3946.9641,N,08404.9537,W,0.6846,4.197,161117,,*34
2017-11-15 19:06:19 1510790779.328725: $GPGSA,A,3,32,14,26,31,16,22,,,,,,,3.4,2.0,2.9*39
2017-11-15 19:06:20 1510790780.328101: $GPZDA,000619.00,16,11,2017,00,00*6B
2017-11-15 19:06:20 1510790780.328264: $GPGGA,000619,3946.9641,N,08404.9537,W,1,06,2.00,298.19,M,-33.324,M,,*7B
2017-11-15 19:06:20 1510790780.328375: $GPRMC,000619,A,3946.9641,N,08404.9537,W,0.4844,93.794,161117,,*0E
2017-11-15 19:06:20 1510790780.328432: $GPGSA,A,3,32,14,26,31,16,22,,,,,,,3.4,2.0,2.9*39
2017-11-15 19:06:21 1510790781.664533: $GPGSV,3,1,11,32,45,096,13,14,63,073,24,29,06,081,11,26,40,175,25*74
2017-11-15 19:06:21 1510790781.666408: $GPGSV,3,2,11,31,76,355,22,16,11,190,16,22,47,288,17,03,32,309,00*7F
2017-11-15 19:06:21 1510790781.666487: $GPGSV,3,3,11,25,26,045,00,01,12,262,00,10,08,159,00*4B
2017-11-15 19:06:21 1510790781.777930: $GPZDA,000620.00,16,11,2017,00,00*61
2017-11-15 19:06:21 1510790781.778085: $GPGGA,000620,3946.9640,N,08404.9530,W,1,07,2.00,298.27,M,-33.324,M,,*7B
2017-11-15 19:06:21 1510790781.778145: $GPRMC,000620,A,3946.9640,N,08404.9530,W,0.7267,93.794,161117,,*0A
2017-11-15 19:06:21 1510790781.778201: $GPGSA,A,3,32,14,29,26,31,16,22,,,,,,3.4,2.0,2.9*32
2017-11-15 19:06:22 1510790782.328849: $GPZDA,000621.00,16,11,2017,00,00*60
2017-11-15 19:06:22 1510790782.329025: $GPGGA,000621,3946.9637,N,08404.9531,W,1,07,2.00,299.04,M,-33.324,M,,*7B
2017-11-15 19:06:22 1510790782.329086: $GPRMC,000621,A,3946.9637,N,08404.9531,W,0.8011,119.090,161117,,*36
2017-11-15 19:06:22 1510790782.329142: $GPGSA,A,3,32,14,29,26,31,16,22,,,,,,3.4,2.0,2.9*32
