2017-12-01 17:46:41 1512168401.427307: {"class":"VERSION","release":"3.16","rev":"3.16-4","proto_major":3,"proto_minor":11}
2017-12-01 17:46:41 1512168401.427701: {"class":"DEVICES","devices":[{"class":"DEVICE","path":"/dev/ttyUSB0","driver":"SiRF","subtype":"9\u0006GSD4e_4.1.2-P1_RPATCH.05-F-GPS-4R-1510281 11/03/2015 307","activated":"2017-12-01T22:46:41.369Z","flags":1,"native":1,"bps":4800,"parity":"N","stopbits":1,"cycle":1.00}]}
2017-12-01 17:46:41 1512168401.427816: {"class":"WATCH","enable":true,"json":false,"nmea":true,"raw":0,"scaled":false,"timing":false,"split24":false,"pps":false}
2017-12-01 17:46:42 1512168402.226164: $GPZDA,224642.46,01,12,2017,00,00*66
2017-12-01 17:46:42 1512168402.226342: $GPGGA,224642,3946.9739,N,08404.9857,W,1,12,0.80,305.94,M,-33.325,M,,*7A
2017-12-01 17:46:42 1512168402.226409: $GPRMC,224642,A,3946.9739,N,08404.9857,W,0.1867,180.000,011217,,*39
2017-12-01 17:46:42 1512168402.226471: $GPGSA,A,3,1,3,10,14,22,25,26,31,32,16,29,138,2.0,0.8,1.5*0C
2017-12-01 17:46:42 1512168402.226529: $GPGBS,224642,10.70,M,15.43,M,35.28,M*03
2017-12-01 17:46:43 1512168403.391192: $GPGSV,3,1,12,01,15,265,43,03,28,312,48,10,13,157,43,14,66,063,43*7E
2017-12-01 17:46:43 1512168403.391432: $GPGSV,3,2,12,22,45,294,47,25,30,049,44,26,35,177,45,29,04,087,36*78
2017-12-01 17:46:43 1512168403.391509: $GPGSV,3,3,12,31,79,337,47,32,48,091,46,16,07,190,06,138,38,213,00*4A
2017-12-01 17:46:43 1512168403.504851: $GPZDA,224643.00,01,12,2017,00,00*65
2017-12-01 17:46:43 1512168403.505022: $GPGGA,224643,3946.9739,N,08404.9857,W,1,10,0.80,305.94,M,-33.325,M,,*79
2017-12-01 17:46:43 1512168403.505087: $GPRMC,224643,A,3946.9739,N,08404.9857,W,0.1567,9.200,011217,,*37
2017-12-01 17:46:43 1512168403.505147: $GPGSA,A,3,1,3,10,14,22,25,26,29,31,32,,,2.0,0.8,1.5*31
2017-12-01 17:46:43 1512168403.955747: $GPZDA,224644.00,01,12,2017,00,00*62
2017-12-01 17:46:43 1512168403.955923: $GPGGA,224644,3946.9739,N,08404.9856,W,1,10,0.80,304.54,M,-33.325,M,,*72
2017-12-01 17:46:43 1512168403.955990: $GPRMC,224644,A,3946.9739,N,08404.9856,W,0.1567,9.200,011217,,*31
2017-12-01 17:46:43 1512168403.956051: $GPGSA,A,3,1,3,10,14,22,25,26,29,31,32,,,2.0,0.8,1.5*31
2017-12-01 17:46:44 1512168404.411304: $GPZDA,224645.00,01,12,2017,00,00*63
2017-12-01 17:46:44 1512168404.411521: $GPGGA,224645,3946.9735,N,08404.9856,W,1,10,0.80,303.90,M,-33.325,M,,*70
2017-12-01 17:46:44 1512168404.411588: $GPRMC,224645,A,3946.9735,N,08404.9856,W,0.0000,0.000,011217,,*32
2017-12-01 17:46:44 1512168404.411649: $GPGSA,A,3,1,3,10,14,22,25,26,29,31,32,,,2.0,0.8,1.5*31
2017-12-01 17:46:45 1512168405.745290: $GPGSV,3,1,12,01,15,265,43,03,28,312,48,10,13,157,44,14,66,063,43*79
2017-12-01 17:46:45 1512168405.745490: $GPGSV,3,2,12,22,45,294,48,25,30,049,43,26,35,177,45,29,04,087,37*71
2017-12-01 17:46:45 1512168405.745559: $GPGSV,3,3,12,31,79,337,47,32,48,091,46,16,07,190,28,138,38,213,46*44
2017-12-01 17:46:45 1512168405.858680: $GPZDA,224646.00,01,12,2017,00,00*60
2017-12-01 17:46:45 1512168405.858868: $GPGGA,224646,3946.9738,N,08404.9863,W,1,12,0.80,303.06,M,-33.325,M,,*75
2017-12-01 17:46:45 1512168405.858934: $GPRMC,224646,A,3946.9738,N,08404.9863,W,0.0000,0.000,011217,,*3A
2017-12-01 17:46:45 1512168405.858995: $GPGSA,A,3,1,3,10,14,22,25,26,29,31,32,16,138,2.0,0.8,1.5*0C
2017-12-01 17:46:46 1512168406.410855: $GPZDA,224647.00,01,12,2017,00,00*61
2017-12-01 17:46:46 1512168406.411034: $GPGGA,224647,3946.9734,N,08404.9863,W,1,12,0.80,302.42,M,-33.325,M,,*79
2017-12-01 17:46:46 1512168406.411118: $GPRMC,224647,A,3946.9734,N,08404.9863,W,0.0000,0.000,011217,,*37
2017-12-01 17:46:46 1512168406.411182: $GPGSA,A,3,1,3,10,14,22,25,26,29,31,32,16,138,2.0,0.8,1.5*0C
2017-12-01 17:46:47 1512168407.412936: $GPZDA,224648.00,01,12,2017,00,00*6E
2017-12-01 17:46:47 1512168407.413127: $GPGGA,224648,3946.9719,N,08404.9860,W,2,12,1.20,294.88,M,-33.325,M,,*7A
2017-12-01 17:46:47 1512168407.413195: $GPRMC,224648,A,3946.9719,N,08404.9860,W,0.0000,0.000,011217,,*34
2017-12-01 17:46:47 1512168407.413255: $GPGSA,A,3,1,3,10,14,22,25,26,29,31,32,16,138,2.0,1.2,1.5*07
2017-12-01 17:46:47 1512168407.413366: $GPGBS,224648,2.67,M,3.86,M,8.82,M*3C
2017-12-01 17:46:48 1512168408.749753: $GPGSV,3,1,12,01,15,265,43,03,28,312,48,10,13,157,44,14,66,063,42*78
2017-12-01 17:46:48 1512168408.749936: $GPGSV,3,2,12,22,45,294,48,25,30,049,43,26,35,177,46,29,04,087,37*72
2017-12-01 17:46:48 1512168408.750002: $GPGSV,3,3,12,31,79,337,46,32,48,091,45,16,07,190,28,138,38,213,46*46
2017-12-01 17:46:48 1512168408.863148: $GPZDA,224649.00,01,12,2017,00,00*6F
2017-12-01 17:46:48 1512168408.863318: $GPGGA,224649,3946.9723,N,08404.9853,W,2,12,1.20,295.60,M,-33.325,M,,*75
2017-12-01 17:46:48 1512168408.863385: $GPRMC,224649,A,3946.9723,N,08404.9853,W,0.0000,0.000,011217,,*3C
2017-12-01 17:46:48 1512168408.863446: $GPGSA,A,3,1,3,10,14,22,25,26,29,31,32,16,138,2.0,1.2,1.5*07
2017-12-01 17:46:49 1512168409.412750: $GPZDA,224650.00,01,12,2017,00,00*67
2017-12-01 17:46:49 1512168409.412930: $GPGGA,224650,3946.9723,N,08404.9853,W,2,12,1.20,295.60,M,-33.325,M,,*7D
2017-12-01 17:46:49 1512168409.412998: $GPRMC,224650,A,3946.9723,N,08404.9853,W,0.0000,0.000,011217,,*34
2017-12-01 17:46:49 1512168409.413059: $GPGSA,A,3,1,3,10,14,22,25,26,29,31,32,16,138,2.0,1.2,1.5*07
2017-12-01 17:46:50 1512168410.414572: $GPZDA,224651.00,01,12,2017,00,00*66
2017-12-01 17:46:50 1512168410.414747: $GPGGA,224651,3946.9723,N,08404.9853,W,2,12,1.20,295.60,M,-33.325,M,,*7C
2017-12-01 17:46:50 1512168410.414814: $GPRMC,224651,A,3946.9723,N,08404.9853,W,0.0000,0.000,011217,,*35
2017-12-01 17:46:50 1512168410.414875: $GPGSA,A,3,1,3,10,14,22,25,26,29,31,32,16,138,2.0,1.2,1.5*07
2017-12-01 17:46:51 1512168411.748833: $GPGSV,3,1,12,01,15,265,43,03,28,312,48,10,13,157,44,14,66,063,42*78
2017-12-01 17:46:51 1512168411.749035: $GPGSV,3,2,12,22,45,294,48,25,30,049,43,26,35,177,46,29,04,087,37*72
2017-12-01 17:46:51 1512168411.750302: $GPGSV,3,3,12,31,79,337,46,32,48,091,45,16,07,190,29,138,38,213,46*47
2017-12-01 17:46:51 1512168411.862569: $GPZDA,224652.00,01,12,2017,00,00*65
2017-12-01 17:46:51 1512168411.862749: $GPGGA,224652,3946.9723,N,08404.9853,W,2,12,0.80,295.60,M,-33.325,M,,*74
2017-12-01 17:46:51 1512168411.862818: $GPRMC,224652,A,3946.9723,N,08404.9853,W,0.0000,0.000,011217,,*36
2017-12-01 17:46:51 1512168411.862879: $GPGSA,A,3,1,3,10,14,22,25,26,29,31,32,16,138,2.0,0.8,1.5*0C
2017-12-01 17:46:52 1512168412.413298: $GPZDA,224653.00,01,12,2017,00,00*64
2017-12-01 17:46:52 1512168412.413489: $GPGGA,224653,3946.9723,N,08404.9853,W,2,12,0.80,295.60,M,-33.325,M,,*75
2017-12-01 17:46:52 1512168412.413558: $GPRMC,224653,A,3946.9723,N,08404.9853,W,0.0000,0.000,011217,,*37
2017-12-01 17:46:52 1512168412.413619: $GPGSA,A,3,1,3,10,14,22,25,26,29,31,32,16,138,2.0,0.8,1.5*0C
2017-12-01 17:46:53 1512168413.413007: $GPZDA,224654.00,01,12,2017,00,00*63
2017-12-01 17:46:53 1512168413.413180: $GPGGA,224654,3946.9723,N,08404.9853,W,2,12,0.80,295.60,M,-33.325,M,,*72
2017-12-01 17:46:53 1512168413.413247: $GPRMC,224654,A,3946.9723,N,08404.9853,W,0.0000,0.000,011217,,*30
2017-12-01 17:46:53 1512168413.413308: $GPGSA,A,3,1,3,10,14,22,25,26,29,31,32,16,138,2.0,0.8,1.5*0C
2017-12-01 17:46:54 1512168414.745961: $GPGSV,3,1,12,01,15,265,43,03,28,312,47,10,13,157,44,14,66,063,42*77
2017-12-01 17:46:54 1512168414.746138: $GPGSV,3,2,12,22,45,294,48,25,30,049,43,26,35,177,46,29,04,087,37*72
2017-12-01 17:46:54 1512168414.746204: $GPGSV,3,3,12,31,79,337,46,32,48,091,45,16,07,190,29,138,38,213,46*47
2017-12-01 17:46:54 1512168414.859635: $GPZDA,224655.00,01,12,2017,00,00*62
2017-12-01 17:46:54 1512168414.859805: $GPGGA,224655,3946.9723,N,08404.9853,W,2,12,0.80,295.60,M,-33.325,M,,*73
2017-12-01 17:46:54 1512168414.859871: $GPRMC,224655,A,3946.9723,N,08404.9853,W,0.0000,0.000,011217,,*31
2017-12-01 17:46:54 1512168414.859932: $GPGSA,A,3,1,3,10,14,22,25,26,29,31,32,16,138,2.0,0.8,1.5*0C
2017-12-01 17:46:55 1512168415.487070: $GPZDA,224656.00,01,12,2017,00,00*61
2017-12-01 17:46:55 1512168415.487272: $GPGGA,224656,3946.9723,N,08404.9853,W,2,12,0.80,295.60,M,-33.325,M,,*70
2017-12-01 17:46:55 1512168415.487342: $GPRMC,224656,A,3946.9723,N,08404.9853,W,0.0000,0.000,011217,,*32
2017-12-01 17:46:55 1512168415.487450: $GPGSA,A,3,1,3,10,14,22,25,26,29,31,32,16,138,2.0,0.8,1.5*0C
2017-12-01 17:46:56 1512168416.412276: $GPZDA,224657.00,01,12,2017,00,00*60
2017-12-01 17:46:56 1512168416.412464: $GPGGA,224657,3946.9723,N,08404.9853,W,2,12,0.80,295.60,M,-33.325,M,,*71
2017-12-01 17:46:56 1512168416.412535: $GPRMC,224657,A,3946.9723,N,08404.9853,W,0.0000,0.000,011217,,*33
2017-12-01 17:46:56 1512168416.412600: $GPGSA,A,3,1,3,10,14,22,25,26,29,31,32,16,138,2.0,0.8,1.5*0C
2017-12-01 17:46:57 1512168417.752483: $GPGSV,3,1,12,01,15,265,43,03,28,312,47,10,13,157,43,14,66,063,42*70
2017-12-01 17:46:57 1512168417.752694: $GPGSV,3,2,12,22,45,294,48,25,30,049,42,26,35,177,45,29,04,087,38*7F
2017-12-01 17:46:57 1512168417.752765: $GPGSV,3,3,12,31,79,337,46,32,48,091,45,16,07,190,22,138,38,213,46*4C
2017-12-01 17:46:57 1512168417.866958: $GPZDA,224658.00,01,12,2017,00,00*6F
2017-12-01 17:46:57 1512168417.867173: $GPGGA,224658,3946.9723,N,08404.9853,W,2,12,0.80,295.60,M,-33.325,M,,*7E
2017-12-01 17:46:57 1512168417.867247: $GPRMC,224658,A,3946.9723,N,08404.9853,W,0.0000,0.000,011217,,*3C
2017-12-01 17:46:57 1512168417.867313: $GPGSA,A,3,1,3,10,14,22,25,26,29,31,32,16,138,2.0,0.8,1.5*0C
2017-12-01 17:46:58 1512168418.416735: $GPZDA,224659.00,01,12,2017,00,00*6E
2017-12-01 17:46:58 1512168418.416946: $GPGGA,224659,3946.9723,N,08404.9853,W,2,12,0.80,295.60,M,-33.325,M,,*7F
2017-12-01 17:46:58 1512168418.417018: $GPRMC,224659,A,3946.9723,N,08404.9853,W,0.0000,0.000,011217,,*3D
2017-12-01 17:46:58 1512168418.417081: $GPGSA,A,3,1,3,10,14,22,25,26,29,31,32,16,138,2.0,0.8,1.5*0C
2017-12-01 17:46:59 1512168419.416673: $GPZDA,224700.00,01,12,2017,00,00*63
2017-12-01 17:46:59 1512168419.416863: $GPGGA,224700,3946.9723,N,08404.9853,W,2,12,0.80,295.60,M,-33.325,M,,*72
2017-12-01 17:46:59 1512168419.416933: $GPRMC,224700,A,3946.9723,N,08404.9853,W,0.0000,0.000,011217,,*30
2017-12-01 17:46:59 1512168419.416997: $GPGSA,A,3,1,3,10,14,22,25,26,29,31,32,16,138,2.0,0.8,1.5*0C
2017-12-01 17:46:59 1512168419.417059: $GPGBS,224700,2.67,M,3.86,M,8.82,M*31
2017-12-01 17:47:00 1512168420.747680: $GPGSV,3,1,12,01,15,265,43,03,28,312,47,10,13,157,43,14,66,063,41*73
2017-12-01 17:47:00 1512168420.747887: $GPGSV,3,2,12,22,45,294,48,25,30,049,42,26,35,177,45,29,04,087,38*7F
2017-12-01 17:47:00 1512168420.747959: $GPGSV,3,3,12,31,79,337,47,32,48,091,45,16,07,190,20,138,38,213,46*4F
2017-12-01 17:47:00 1512168420.861188: $GPZDA,224701.00,01,12,2017,00,00*62
2017-12-01 17:47:00 1512168420.861411: $GPGGA,224701,3946.9723,N,08404.9853,W,2,12,0.80,295.60,M,-33.325,M,,*73
2017-12-01 17:47:00 1512168420.861490: $GPRMC,224701,A,3946.9723,N,08404.9853,W,0.0000,0.000,011217,,*31
2017-12-01 17:47:00 1512168420.861555: $GPGSA,A,3,1,3,10,14,22,25,26,29,31,32,16,138,2.0,0.8,1.5*0C
