2017-12-31 17:04:57 1514757897.717235: {"class":"VERSION","release":"3.16","rev":"3.16-4","proto_major":3,"proto_minor":11}
2017-12-31 17:04:57 1514757897.717605: {"class":"DEVICES","devices":[{"class":"DEVICE","path":"/dev/ttyUSB0","driver":"SiRF","activated":"2017-12-31T22:04:57.679Z","flags":1,"native":1,"bps":4800,"parity":"N","stopbits":1,"cycle":1.00}]}
2017-12-31 17:04:57 1514757897.717706: {"class":"WATCH","enable":true,"json":false,"nmea":true,"raw":0,"scaled":false,"timing":false,"split24":false,"pps":false}
2017-12-31 17:04:57 1514757897.792608: $GPZDA,220458.00,31,12,2017,00,00*6A
2017-12-31 17:04:57 1514757897.792764: $GPGGA,220458,3946.9587,N,08404.9854,W,2,11,1.00,302.21,M,-33.324,M,,*72
2017-12-31 17:04:57 1514757897.792830: $GPRMC,220458,A,3946.9587,N,08404.9854,W,0.0000,0.000,311217,,*32
2017-12-31 17:04:57 1514757897.792890: $GPGSA,A,3,22,23,25,3,16,29,31,14,32,26,135,,1.7,1.0,1.3*3B
2017-12-31 17:04:58 1514757898.360711: $GPZDA,220459.00,31,12,2017,00,00*6B
2017-12-31 17:04:58 1514757898.360881: $GPGGA,220459,3946.9587,N,08404.9854,W,2,11,1.00,302.21,M,-33.324,M,,*73
2017-12-31 17:04:58 1514757898.360950: $GPRMC,220459,A,3946.9587,N,08404.9854,W,0.0000,0.000,311217,,*33
2017-12-31 17:04:58 1514757898.361011: $GPGSA,A,3,22,23,25,3,16,29,31,14,32,26,135,,1.7,1.0,1.3*3B
2017-12-31 17:04:59 1514757899.343977: $GPZDA,220500.00,31,12,2017,00,00*66
2017-12-31 17:04:59 1514757899.344151: $GPGGA,220500,3946.9587,N,08404.9854,W,2,11,1.00,302.21,M,-33.324,M,,*7E
2017-12-31 17:04:59 1514757899.344217: $GPRMC,220500,A,3946.9587,N,08404.9854,W,0.0000,0.000,311217,,*3E
2017-12-31 17:04:59 1514757899.344280: $GPGSA,A,3,22,23,25,3,16,29,31,14,32,26,135,,1.7,1.0,1.3*3B
2017-12-31 17:05:00 1514757900.670530: $GPGSV,3,1,11,22,44,240,41,23,28,307,39,25,01,037,08,03,46,270,40*77
2017-12-31 17:05:00 1514757900.670725: $GPGSV,3,2,11,16,47,190,45,29,14,054,32,31,49,051,50,14,40,114,37*74
2017-12-31 17:05:00 1514757900.670795: $GPGSV,3,3,11,32,18,123,41,26,74,141,46,135,22,240,42*72
2017-12-31 17:05:00 1514757900.784097: $GPZDA,220501.00,31,12,2017,00,00*67
2017-12-31 17:05:00 1514757900.784274: $GPGGA,220501,3946.9587,N,08404.9854,W,2,11,1.00,302.21,M,-33.324,M,,*7F
2017-12-31 17:05:00 1514757900.784502: $GPRMC,220501,A,3946.9587,N,08404.9854,W,0.0000,0.000,311217,,*3F
2017-12-31 17:05:00 1514757900.784567: $GPGSA,A,3,22,23,25,3,16,29,31,14,32,26,135,,1.7,1.0,1.3*3B
2017-12-31 17:05:01 1514757901.345105: $GPZDA,220502.00,31,12,2017,00,00*64
2017-12-31 17:05:01 1514757901.345279: $GPGGA,220502,3946.9587,N,08404.9854,W,2,11,1.00,302.21,M,-33.324,M,,*7C
2017-12-31 17:05:01 1514757901.345344: $GPRMC,220502,A,3946.9587,N,08404.9854,W,0.0000,0.000,311217,,*3C
2017-12-31 17:05:01 1514757901.345409: $GPGSA,A,3,22,23,25,3,16,29,31,14,32,26,135,,1.7,1.0,1.3*3B
2017-12-31 17:05:02 1514757902.335933: $GPZDA,220503.00,31,12,2017,00,00*65
2017-12-31 17:05:02 1514757902.336125: $GPGGA,220503,3946.9587,N,08404.9854,W,2,11,1.00,302.21,M,-33.324,M,,*7D
2017-12-31 17:05:02 1514757902.336193: $GPRMC,220503,A,3946.9587,N,08404.9854,W,0.0000,0.000,311217,,*3D
2017-12-31 17:05:02 1514757902.336255: $GPGSA,A,3,22,23,25,3,16,29,31,14,32,26,135,,1.7,1.0,1.3*3B
2017-12-31 17:05:03 1514757903.678820: $GPGSV,3,1,11,22,44,240,40,23,28,307,39,25,01,037,08,03,46,270,39*78
2017-12-31 17:05:03 1514757903.679002: $GPGSV,3,2,11,16,47,190,45,29,14,054,32,31,49,051,50,14,40,114,37*74
2017-12-31 17:05:03 1514757903.679067: $GPGSV,3,3,11,32,18,123,41,26,74,141,46,135,22,240,43*73
2017-12-31 17:05:03 1514757903.793225: $GPZDA,220504.00,31,12,2017,00,00*62
2017-12-31 17:05:03 1514757903.793424: $GPGGA,220504,3946.9587,N,08404.9854,W,2,11,1.00,302.21,M,-33.324,M,,*7A
2017-12-31 17:05:03 1514757903.793496: $GPRMC,220504,A,3946.9587,N,08404.9854,W,0.0000,0.000,311217,,*3A
2017-12-31 17:05:03 1514757903.793557: $GPGSA,A,3,22,23,25,3,16,29,31,14,32,26,135,,1.7,1.0,1.3*3B
2017-12-31 17:05:04 1514757904.359569: $GPZDA,220505.00,31,12,2017,00,00*63
2017-12-31 17:05:04 1514757904.359740: $GPGGA,220505,3946.9587,N,08404.9854,W,2,11,1.00,302.21,M,-33.324,M,,*7B
2017-12-31 17:05:04 1514757904.359863: $GPRMC,220505,A,3946.9587,N,08404.9854,W,0.0000,0.000,311217,,*3B
2017-12-31 17:05:04 1514757904.359926: $GPGSA,A,3,22,23,25,3,16,29,31,14,32,26,135,,1.7,1.0,1.3*3B
2017-12-31 17:05:05 1514757905.345174: $GPZDA,220506.00,31,12,2017,00,00*60
2017-12-31 17:05:05 1514757905.345352: $GPGGA,220506,3946.9587,N,08404.9854,W,2,11,1.00,302.21,M,-33.324,M,,*78
2017-12-31 17:05:05 1514757905.345418: $GPRMC,220506,A,3946.9587,N,08404.9854,W,0.0000,0.000,311217,,*38
2017-12-31 17:05:05 1514757905.345481: $GPGSA,A,3,22,23,25,3,16,29,31,14,32,26,135,,1.7,1.0,1.3*3B
2017-12-31 17:05:06 1514757906.680492: $GPGSV,3,1,11,22,44,240,41,23,28,307,38,25,01,037,04,03,46,270,39*74
2017-12-31 17:05:06 1514757906.680686: $GPGSV,3,2,11,16,47,190,45,29,14,054,25,31,49,051,50,14,40,114,38*7D
2017-12-31 17:05:06 1514757906.680756: $GPGSV,3,3,11,32,18,123,40,26,74,141,46,135,22,240,42*73
2017-12-31 17:05:06 1514757906.794110: $GPZDA,220507.00,31,12,2017,00,00*61
2017-12-31 17:05:06 1514757906.794284: $GPGGA,220507,3946.9587,N,08404.9854,W,2,10,1.00,302.21,M,-33.324,M,,*78
2017-12-31 17:05:06 1514757906.794354: $GPRMC,220507,A,3946.9587,N,08404.9854,W,0.0000,0.000,311217,,*39
2017-12-31 17:05:06 1514757906.794415: $GPGSA,A,3,22,23,3,16,29,31,14,32,26,135,,,1.7,1.0,1.3*3C
2017-12-31 17:05:07 1514757907.353573: $GPZDA,220508.00,31,12,2017,00,00*6E
2017-12-31 17:05:07 1514757907.353779: $GPGGA,220508,3946.9587,N,08404.9854,W,2,10,1.00,302.21,M,-33.324,M,,*77
2017-12-31 17:05:07 1514757907.353866: $GPRMC,220508,A,3946.9587,N,08404.9854,W,0.0000,0.000,311217,,*36
2017-12-31 17:05:07 1514757907.353932: $GPGSA,A,3,22,23,3,16,29,31,14,32,26,135,,,1.7,1.0,1.3*3C
2017-12-31 17:05:08 1514757908.364583: $GPZDA,220509.00,31,12,2017,00,00*6F
2017-12-31 17:05:08 1514757908.364747: $GPGGA,220509,3946.9587,N,08404.9854,W,2,10,1.00,302.21,M,-33.324,M,,*76
2017-12-31 17:05:08 1514757908.364817: $GPRMC,220509,A,3946.9587,N,08404.9854,W,0.0000,0.000,311217,,*37
2017-12-31 17:05:08 1514757908.364878: $GPGSA,A,3,22,23,3,16,29,31,14,32,26,135,,,1.7,1.0,1.3*3C
2017-12-31 17:05:09 1514757909.697613: $GPGSV,3,1,11,22,44,240,41,23,28,307,39,25,01,037,04,03,46,270,39*75
2017-12-31 17:05:09 1514757909.697792: $GPGSV,3,2,11,16,47,190,45,29,14,054,28,31,49,051,50,14,40,114,38*70
2017-12-31 17:05:09 1514757909.697858: $GPGSV,3,3,11,32,18,123,40,26,74,141,46,135,22,240,42*73
2017-12-31 17:05:09 1514757909.811248: $GPZDA,220510.00,31,12,2017,00,00*67
2017-12-31 17:05:09 1514757909.811425: $GPGGA,220510,3946.9587,N,08404.9854,W,2,10,1.00,302.21,M,-33.324,M,,*7E
2017-12-31 17:05:09 1514757909.811492: $GPRMC,220510,A,3946.9587,N,08404.9854,W,0.0000,0.000,311217,,*3F
2017-12-31 17:05:09 1514757909.811554: $GPGSA,A,3,22,23,3,16,29,31,14,32,26,135,,,1.7,1.0,1.3*3C
2017-12-31 17:05:10 1514757910.436474: $GPZDA,220511.00,31,12,2017,00,00*66
2017-12-31 17:05:10 1514757910.436642: $GPGGA,220511,3946.9587,N,08404.9854,W,2,10,1.00,302.21,M,-33.324,M,,*7F
2017-12-31 17:05:10 1514757910.436709: $GPRMC,220511,A,3946.9587,N,08404.9854,W,0.0000,0.000,311217,,*3E
2017-12-31 17:05:10 1514757910.436770: $GPGSA,A,3,22,23,3,16,29,31,14,32,26,135,,,1.7,1.0,1.3*3C
2017-12-31 17:05:11 1514757911.369610: $GPZDA,220512.00,31,12,2017,00,00*65
2017-12-31 17:05:11 1514757911.369780: $GPGGA,220512,3946.9587,N,08404.9854,W,2,10,1.00,302.21,M,-33.324,M,,*7C
2017-12-31 17:05:11 1514757911.369847: $GPRMC,220512,A,3946.9587,N,08404.9854,W,0.0000,0.000,311217,,*3D
2017-12-31 17:05:11 1514757911.369907: $GPGSA,A,3,22,23,3,16,29,31,14,32,26,135,,,1.7,1.0,1.3*3C
2017-12-31 17:05:12 1514757912.680424: $GPGSV,3,1,11,22,44,240,41,23,28,307,38,25,01,037,07,03,46,270,39*77
2017-12-31 17:05:12 1514757912.680657: $GPGSV,3,2,11,16,47,190,44,29,14,054,29,31,49,051,50,14,40,114,38*70
2017-12-31 17:05:12 1514757912.680809: $GPGSV,3,3,11,32,18,123,40,26,74,141,46,135,22,240,43*72
2017-12-31 17:05:12 1514757912.794020: $GPZDA,220513.00,31,12,2017,00,00*64
2017-12-31 17:05:12 1514757912.794192: $GPGGA,220513,3946.9587,N,08404.9854,W,2,11,1.00,302.21,M,-33.324,M,,*7C
2017-12-31 17:05:12 1514757912.794312: $GPRMC,220513,A,3946.9587,N,08404.9854,W,0.0000,0.000,311217,,*3C
2017-12-31 17:05:12 1514757912.794374: $GPGSA,A,3,22,23,25,3,16,29,31,14,32,26,135,,1.7,1.0,1.3*3B
2017-12-31 17:05:13 1514757913.344865: $GPZDA,220514.00,31,12,2017,00,00*63
2017-12-31 17:05:13 1514757913.345034: $GPGGA,220514,3946.9587,N,08404.9854,W,2,11,1.00,302.21,M,-33.324,M,,*7B
2017-12-31 17:05:13 1514757913.345100: $GPRMC,220514,A,3946.9587,N,08404.9854,W,0.0000,0.000,311217,,*3B
2017-12-31 17:05:13 1514757913.345160: $GPGSA,A,3,22,23,25,3,16,29,31,14,32,26,135,,1.7,1.0,1.3*3B
2017-12-31 17:05:14 1514757914.344380: $GPZDA,220515.00,31,12,2017,00,00*62
2017-12-31 17:05:14 1514757914.344551: $GPGGA,220515,3946.9587,N,08404.9854,W,2,11,1.00,302.21,M,-33.324,M,,*7A
2017-12-31 17:05:14 1514757914.344617: $GPRMC,220515,A,3946.9587,N,08404.9854,W,0.0000,0.000,311217,,*3A
2017-12-31 17:05:14 1514757914.344677: $GPGSA,A,3,22,23,25,3,16,29,31,14,32,26,135,,1.7,1.0,1.3*3B
2017-12-31 17:05:15 1514757915.679500: $GPGSV,3,1,11,22,44,240,41,23,28,307,39,25,01,037,09,03,46,270,38*79
2017-12-31 17:05:15 1514757915.679679: $GPGSV,3,2,11,16,47,190,44,29,14,054,29,31,49,051,50,14,40,114,37*7F
2017-12-31 17:05:15 1514757915.679745: $GPGSV,3,3,11,32,18,123,40,26,74,141,46,135,22,240,43*72
2017-12-31 17:05:15 1514757915.793380: $GPZDA,220516.00,31,12,2017,00,00*61
2017-12-31 17:05:15 1514757915.793577: $GPGGA,220516,3946.9587,N,08404.9854,W,2,11,1.00,302.21,M,-33.324,M,,*79
2017-12-31 17:05:15 1514757915.793643: $GPRMC,220516,A,3946.9587,N,08404.9854,W,0.0000,0.000,311217,,*39
2017-12-31 17:05:15 1514757915.793704: $GPGSA,A,3,22,23,25,3,16,29,31,14,32,26,135,,1.7,1.0,1.3*3B
2017-12-31 17:05:16 1514757916.348709: $GPZDA,220517.00,31,12,2017,00,00*60
2017-12-31 17:05:16 1514757916.348899: $GPGGA,220517,3946.9587,N,08404.9854,W,2,11,1.00,302.21,M,-33.324,M,,*78
2017-12-31 17:05:16 1514757916.348965: $GPRMC,220517,A,3946.9587,N,08404.9854,W,0.0000,0.000,311217,,*38
2017-12-31 17:05:16 1514757916.349035: $GPGSA,A,3,22,23,25,3,16,29,31,14,32,26,135,,1.7,1.0,1.3*3B
2017-12-31 17:05:17 1514757917.359944: $GPZDA,220518.00,31,12,2017,00,00*6F
2017-12-31 17:05:17 1514757917.360101: $GPGGA,220518,3946.9587,N,08404.9854,W,2,11,1.00,302.21,M,-33.324,M,,*77
2017-12-31 17:05:17 1514757917.360166: $GPRMC,220518,A,3946.9587,N,08404.9854,W,0.0000,0.000,311217,,*37
2017-12-31 17:05:17 1514757917.360227: $GPGSA,A,3,22,23,25,3,16,29,31,14,32,26,135,,1.7,1.0,1.3*3B
