2018-01-11 19:38:16 1515717496.045054: {"class":"VERSION","release":"3.16","rev":"3.16-4","proto_major":3,"proto_minor":11}
2018-01-11 19:38:16 1515717496.045397: {"class":"DEVICES","devices":[{"class":"DEVICE","path":"/dev/ttyUSB0","driver":"SiRF","subtype":"9\u0006GSD4e_4.1.2-P1_RPATCH.05-F-GPS-4R-1510281 11/03/2015 307","activated":"2018-01-12T00:38:15.584Z","flags":1,"native":1,"bps":4800,"parity":"N","stopbits":1,"cycle":1.00}]}
2018-01-11 19:38:16 1515717496.045514: {"class":"WATCH","enable":true,"json":false,"nmea":true,"raw":0,"scaled":false,"timing":false,"split24":false,"pps":false}
2018-01-11 19:38:16 1515717496.366629: $GPZDA,003817.00,12,01,2018,00,00*62
2018-01-11 19:38:16 1515717496.366806: $GPGGA,003817,3946.9600,N,08404.9825,W,2,11,0.80,315.12,M,-33.324,M,,*73
2018-01-11 19:38:16 1515717496.366872: $GPRMC,003817,A,3946.9600,N,08404.9825,W,0.0000,0.000,120118,,*30
2018-01-11 19:38:16 1515717496.366938: $GPGSA,A,3,7,8,9,16,23,27,30,11,28,26,138,,4.0,0.8,3.5*3A
2018-01-11 19:38:17 1515717497.712074: $GPGSV,3,1,12,07,42,309,39,08,60,160,46,09,56,252,42,16,35,051,48*72
2018-01-11 19:38:17 1515717497.712232: $GPGSV,3,2,12,23,44,196,45,27,57,072,49,30,17,300,37,11,08,172,22*74
2018-01-11 19:38:17 1515717497.712300: $GPGSV,3,3,12,28,04,247,18,26,09,064,26,21,02,033,03,138,38,213,45*45
2018-01-11 19:38:17 1515717497.825412: $GPZDA,003818.00,12,01,2018,00,00*6D
2018-01-11 19:38:17 1515717497.825542: $GPGGA,003818,3946.9600,N,08404.9825,W,2,11,0.80,315.12,M,-33.324,M,,*7C
2018-01-11 19:38:17 1515717497.825606: $GPRMC,003818,A,3946.9600,N,08404.9825,W,0.0000,0.000,120118,,*3F
2018-01-11 19:38:17 1515717497.825666: $GPGSA,A,3,7,8,9,16,23,27,30,11,28,26,138,,4.0,0.8,3.5*3A
2018-01-11 19:38:18 1515717498.366311: $GPZDA,003819.00,12,01,2018,00,00*6C
2018-01-11 19:38:18 1515717498.366465: $GPGGA,003819,3946.9600,N,08404.9825,W,2,11,0.80,315.12,M,-33.324,M,,*7D
2018-01-11 19:38:18 1515717498.366532: $GPRMC,003819,A,3946.9600,N,08404.9825,W,0.0000,0.000,120118,,*3E
2018-01-11 19:38:18 1515717498.366591: $GPGSA,A,3,7,8,9,16,23,27,30,11,28,26,138,,4.0,0.8,3.5*3A
2018-01-11 19:38:19 1515717499.367065: $GPZDA,003820.00,12,01,2018,00,00*66
2018-01-11 19:38:19 1515717499.367219: $GPGGA,003820,3946.9602,N,08404.9823,W,2,11,0.80,312.95,M,-33.324,M,,*7B
2018-01-11 19:38:19 1515717499.367283: $GPRMC,003820,A,3946.9602,N,08404.9823,W,0.0000,0.000,120118,,*30
2018-01-11 19:38:19 1515717499.367343: $GPGSA,A,3,7,8,9,16,23,27,30,11,28,26,138,,4.0,0.8,3.5*3A
2018-01-11 19:38:19 1515717499.367401: $GPGBS,003820,3.65,M,6.21,M,20.10,M*01
2018-01-11 19:38:20 1515717500.698542: $GPGSV,3,1,12,07,42,309,38,08,60,160,45,09,56,252,42,16,35,051,48*70
2018-01-11 19:38:20 1515717500.698718: $GPGSV,3,2,12,23,44,196,45,27,57,072,49,30,17,300,38,11,08,172,22*7B
2018-01-11 19:38:20 1515717500.698787: $GPGSV,3,3,12,28,04,247,18,26,09,064,26,21,02,033,00,138,38,213,44*47
2018-01-11 19:38:20 1515717500.811876: $GPZDA,003821.00,12,01,2018,00,00*67
2018-01-11 19:38:20 1515717500.812002: $GPGGA,003821,3946.9602,N,08404.9823,W,2,11,0.80,312.95,M,-33.324,M,,*7A
2018-01-11 19:38:20 1515717500.812066: $GPRMC,003821,A,3946.9602,N,08404.9823,W,0.0000,0.000,120118,,*31
2018-01-11 19:38:20 1515717500.812126: $GPGSA,A,3,7,8,9,16,23,27,30,11,28,26,138,,4.0,0.8,3.5*3A
2018-01-11 19:38:21 1515717501.368031: $GPZDA,003822.00,12,01,2018,00,00*64
2018-01-11 19:38:21 1515717501.368181: $GPGGA,003822,3946.9602,N,08404.9823,W,2,11,0.80,312.95,M,-33.324,M,,*79
2018-01-11 19:38:21 1515717501.368247: $GPRMC,003822,A,3946.9602,N,08404.9823,W,0.0000,0.000,120118,,*32
2018-01-11 19:38:21 1515717501.368307: $GPGSA,A,3,7,8,9,16,23,27,30,11,28,26,138,,4.0,0.8,3.5*3A
2018-01-11 19:38:22 1515717502.368895: $GPZDA,003823.00,12,01,2018,00,00*65
2018-01-11 19:38:22 1515717502.369101: $GPGGA,003823,3946.9602,N,08404.9823,W,2,11,0.80,312.95,M,-33.324,M,,*78
2018-01-11 19:38:22 1515717502.369176: $GPRMC,003823,A,3946.9602,N,08404.9823,W,0.0000,0.000,120118,,*33
2018-01-11 19:38:22 1515717502.369237: $GPGSA,A,3,7,8,9,16,23,27,30,11,28,26,138,,4.0,0.8,3.5*3A
2018-01-11 19:38:23 1515717503.704370: $GPGSV,3,1,12,07,42,309,37,08,60,160,45,09,56,252,42,16,35,051,48*7F
2018-01-11 19:38:23 1515717503.704563: $GPGSV,3,2,12,23,44,196,46,27,57,072,49,30,17,300,38,11,08,172,22*78
2018-01-11 19:38:23 1515717503.704631: $GPGSV,3,3,12,28,04,247,19,26,09,064,00,21,02,033,00,138,38,213,46*40
2018-01-11 19:38:23 1515717503.817967: $GPZDA,003824.00,12,01,2018,00,00*62
2018-01-11 19:38:23 1515717503.818086: $GPGGA,003824,3946.9602,N,08404.9823,W,2,10,0.80,312.95,M,-33.324,M,,*7E
2018-01-11 19:38:23 1515717503.818149: $GPRMC,003824,A,3946.9602,N,08404.9823,W,0.0000,0.000,120118,,*34
2018-01-11 19:38:23 1515717503.818210: $GPGSA,A,3,7,8,9,16,23,27,30,11,28,138,,,4.0,0.8,3.5*3E
