2017-11-16 15:41:20 1510864880.921627: {"class":"VERSION","release":"3.17","rev":"3.17","proto_major":3,"proto_minor":12}
2017-11-16 15:41:20 1510864880.922056: {"class":"DEVICES","devices":[{"class":"DEVICE","path":"/dev/ttyUSB0","driver":"SiRF","subtype":"9\u0006GSD4e_4.1.2-P1_RPATCH.05-F-GPS-4R-1510281 11/03/2015 307","activated":"2017-11-16T20:41:20.682Z","flags":1,"native":1,"bps":4800,"parity":"N","stopbits":1,"cycle":1.00}]}
2017-11-16 15:41:20 1510864880.922198: {"class":"WATCH","enable":true,"json":false,"nmea":true,"raw":0,"scaled":false,"timing":false,"split24":false,"pps":false}
2017-11-16 15:41:21 1510864881.366756: $GPZDA,204120.00,16,11,2017,00,00*60
2017-11-16 15:41:21 1510864881.366940: $GPGGA,204120,3946.9572,N,08404.9859,W,2,12,1.00,308.84,M,-33.324,M,,*7F
2017-11-16 15:41:21 1510864881.367004: $GPRMC,204120,A,3946.9572,N,08404.9859,W,0.0000,0.000,161117,,*3F
2017-11-16 15:41:21 1510864881.367061: $GPGSA,A,3,15,10,14,31,18,20,21,24,8,32,12,138,1.6,1.0,1.3*3A
2017-11-16 15:41:22 1510864882.701840: $GPGSV,3,1,12,15,06,070,28,10,76,345,51,14,35,259,44,31,05,204,34*7A
2017-11-16 15:41:22 1510864882.701956: $GPGSV,3,2,12,18,65,108,48,20,03,121,18,21,22,178,43,24,39,052,50*7A
2017-11-16 15:41:22 1510864882.701986: $GPGSV,3,3,12,08,03,286,33,32,51,274,47,12,14,100,35,138,38,213,44*4A
2017-11-16 15:41:22 1510864882.814808: $GPZDA,204121.00,16,11,2017,00,00*61
2017-11-16 15:41:22 1510864882.814917: $GPGGA,204121,3946.9572,N,08404.9859,W,2,12,1.00,308.84,M,-33.324,M,,*7E
2017-11-16 15:41:22 1510864882.814949: $GPRMC,204121,A,3946.9572,N,08404.9859,W,0.0000,0.000,161117,,*3E
2017-11-16 15:41:22 1510864882.814978: $GPGSA,A,3,15,10,14,31,18,20,21,24,8,32,12,138,1.6,1.0,1.3*3A
2017-11-16 15:41:23 1510864883.368701: $GPZDA,204122.00,16,11,2017,00,00*62
2017-11-16 15:41:23 1510864883.368875: $GPGGA,204122,3946.9572,N,08404.9859,W,2,12,1.00,308.84,M,-33.324,M,,*7D
2017-11-16 15:41:23 1510864883.368936: $GPRMC,204122,A,3946.9572,N,08404.9859,W,0.0000,0.000,161117,,*3D
2017-11-16 15:41:23 1510864883.368992: $GPGSA,A,3,15,10,14,31,18,20,21,24,8,32,12,138,1.6,1.0,1.3*3A
2017-11-16 15:41:24 1510864884.382036: $GPZDA,204123.00,16,11,2017,00,00*63
2017-11-16 15:41:24 1510864884.382185: $GPGGA,204123,3946.9572,N,08404.9859,W,2,12,1.00,308.84,M,-33.324,M,,*7C
2017-11-16 15:41:24 1510864884.382246: $GPRMC,204123,A,3946.9572,N,08404.9859,W,0.0000,0.000,161117,,*3C
2017-11-16 15:41:24 1510864884.382327: $GPGSA,A,3,15,10,14,31,18,20,21,24,8,32,12,138,1.6,1.0,1.3*3A
2017-11-16 15:41:25 1510864885.704113: $GPGSV,3,1,12,15,06,070,28,10,76,345,51,14,35,259,44,31,05,204,34*7A
2017-11-16 15:41:25 1510864885.704305: $GPGSV,3,2,12,18,65,108,48,25,08,136,19,21,22,178,43,24,39,052,50*73
2017-11-16 15:41:25 1510864885.704367: $GPGSV,3,3,12,08,03,286,33,32,51,274,47,12,14,100,35,138,38,213,44*4A
2017-11-16 15:41:25 1510864885.817408: $GPZDA,204124.00,16,11,2017,00,00*64
2017-11-16 15:41:25 1510864885.817574: $GPGGA,204124,3946.9572,N,08404.9859,W,2,12,1.00,308.84,M,-33.324,M,,*7B
2017-11-16 15:41:25 1510864885.817636: $GPRMC,204124,A,3946.9572,N,08404.9859,W,0.0000,0.000,161117,,*3B
2017-11-16 15:41:25 1510864885.817692: $GPGSA,A,3,15,10,14,31,18,25,21,24,8,32,12,138,1.6,1.0,1.3*3F
2017-11-16 15:41:26 1510864886.443054: $GPZDA,204125.00,16,11,2017,00,00*65
2017-11-16 15:41:26 1510864886.443207: $GPGGA,204125,3946.9572,N,08404.9859,W,2,12,1.00,308.84,M,-33.324,M,,*7A
2017-11-16 15:41:26 1510864886.443289: $GPRMC,204125,A,3946.9572,N,08404.9859,W,0.0000,0.000,161117,,*3A
2017-11-16 15:41:26 1510864886.443347: $GPGSA,A,3,15,10,14,31,18,25,21,24,8,32,12,138,1.6,1.0,1.3*3F
2017-11-16 15:41:27 1510864887.358664: $GPZDA,204126.00,16,11,2017,00,00*66
2017-11-16 15:41:27 1510864887.358830: $GPGGA,204126,3946.9572,N,08404.9859,W,2,12,1.00,308.84,M,-33.324,M,,*79
2017-11-16 15:41:27 1510864887.358892: $GPRMC,204126,A,3946.9572,N,08404.9859,W,0.0000,0.000,161117,,*39
2017-11-16 15:41:27 1510864887.358949: $GPGSA,A,3,15,10,14,31,18,25,21,24,8,32,12,138,1.6,1.0,1.3*3F
2017-11-16 15:41:28 1510864888.703223: $GPGSV,3,1,12,15,06,070,28,10,76,345,51,14,35,259,44,31,05,204,34*7A
2017-11-16 15:41:28 1510864888.703484: $GPGSV,3,2,12,18,65,108,48,20,03,121,17,21,22,178,43,24,39,052,50*75
2017-11-16 15:41:28 1510864888.703549: $GPGSV,3,3,12,08,03,286,32,32,51,274,47,12,14,100,35,138,38,213,45*4A
2017-11-16 15:41:28 1510864888.815574: $GPZDA,204127.00,16,11,2017,00,00*67
2017-11-16 15:41:28 1510864888.815752: $GPGGA,204127,3946.9572,N,08404.9859,W,2,12,1.00,308.84,M,-33.324,M,,*78
2017-11-16 15:41:28 1510864888.815813: $GPRMC,204127,A,3946.9572,N,08404.9859,W,0.0000,0.000,161117,,*38
2017-11-16 15:41:28 1510864888.815869: $GPGSA,A,3,15,10,14,31,18,20,21,24,8,32,12,138,1.6,1.0,1.3*3A
2017-11-16 15:41:29 1510864889.366153: $GPZDA,204128.00,16,11,2017,00,00*68
2017-11-16 15:41:29 1510864889.366340: $GPGGA,204128,3946.9572,N,08404.9859,W,2,12,1.00,308.84,M,-33.324,M,,*77
2017-11-16 15:41:29 1510864889.366432: $GPRMC,204128,A,3946.9572,N,08404.9859,W,0.0000,0.000,161117,,*37
2017-11-16 15:41:29 1510864889.366490: $GPGSA,A,3,15,10,14,31,18,20,21,24,8,32,12,138,1.6,1.0,1.3*3A
2017-11-16 15:41:30 1510864890.381087: $GPZDA,204129.00,16,11,2017,00,00*69
2017-11-16 15:41:30 1510864890.381272: $GPGGA,204129,3946.9572,N,08404.9859,W,2,12,1.00,308.84,M,-33.324,M,,*76
2017-11-16 15:41:30 1510864890.381335: $GPRMC,204129,A,3946.9572,N,08404.9859,W,0.0000,0.000,161117,,*36
2017-11-16 15:41:30 1510864890.381409: $GPGSA,A,3,15,10,14,31,18,20,21,24,8,32,12,138,1.6,1.0,1.3*3A
