2018-01-11 19:39:17 1515717557.625012: {"class":"VERSION","release":"3.16","rev":"3.16-4","proto_major":3,"proto_minor":11}
2018-01-11 19:39:17 1515717557.625353: {"class":"DEVICES","devices":[{"class":"DEVICE","path":"/dev/ttyUSB0","driver":"SiRF","subtype":"9\u0006GSD4e_4.1.2-P1_RPATCH.05-F-GPS-4R-1510281 11/03/2015 307","activated":"2018-01-12T00:39:17.382Z","flags":1,"native":1,"bps":4800,"parity":"N","stopbits":1,"cycle":1.00}]}
2018-01-11 19:39:17 1515717557.625467: {"class":"WATCH","enable":true,"json":false,"nmea":true,"raw":0,"scaled":false,"timing":false,"split24":false,"pps":false}
2018-01-11 19:39:17 1515717557.984390: $GPZDA,003918.66,12,01,2018,00,00*6C
2018-01-11 19:39:17 1515717557.984567: $GPGGA,003918,3946.9573,N,08404.9829,W,1,10,1.20,330.51,M,-33.324,M,,*7F
2018-01-11 19:39:17 1515717557.984634: $GPRMC,003918,A,3946.9573,N,08404.9829,W,0.5954,203.949,120118,,*3D
2018-01-11 19:39:17 1515717557.984696: $GPGSA,A,3,7,8,9,16,23,27,30,11,26,138,,,4.0,1.2,3.5*3B
2018-01-11 19:39:19 1515717559.066001: $GPZDA,003919.35,12,01,2018,00,00*6B
2018-01-11 19:39:19 1515717559.066179: $GPGGA,003919,3946.9573,N,08404.9829,W,1,10,1.20,330.51,M,-33.324,M,,*7E
2018-01-11 19:39:19 1515717559.066246: $GPRMC,003919,A,3946.9573,N,08404.9829,W,0.1567,9.200,120118,,*3A
2018-01-11 19:39:19 1515717559.066307: $GPGSA,A,3,7,8,9,16,23,27,30,11,26,138,,,4.0,1.2,3.5*3B
2018-01-11 19:39:19 1515717559.066365: $GPGBS,003919,14.62,M,24.83,M,80.38,M*03
2018-01-11 19:39:20 1515717560.208547: $GPGSV,3,1,12,07,42,309,41,08,61,160,46,09,56,252,43,16,34,052,49*7E
2018-01-11 19:39:20 1515717560.208720: $GPGSV,3,2,12,23,44,195,46,27,57,072,50,30,17,300,34,11,08,172,07*78
2018-01-11 19:39:20 1515717560.208785: $GPGSV,3,3,12,26,08,064,07,28,04,249,07,21,02,033,00,138,38,213,00*45
2018-01-11 19:39:20 1515717560.322197: $GPZDA,003920.00,12,01,2018,00,00*67
2018-01-11 19:39:20 1515717560.322332: $GPGGA,003920,3946.9576,N,08404.9828,W,1,07,1.20,329.74,M,-33.324,M,,*79
2018-01-11 19:39:20 1515717560.322397: $GPRMC,003920,A,3946.9576,N,08404.9828,W,0.1867,180.000,120118,,*3B
2018-01-11 19:39:20 1515717560.322457: $GPGSA,A,3,7,8,9,16,23,27,30,,,,,,4.0,1.2,3.5*05
2018-01-11 19:39:20 1515717560.773057: $GPZDA,003921.00,12,01,2018,00,00*66
2018-01-11 19:39:20 1515717560.773224: $GPGGA,003921,3946.9575,N,08404.9827,W,1,07,1.00,328.34,M,-33.324,M,,*73
2018-01-11 19:39:20 1515717560.773290: $GPRMC,003921,A,3946.9575,N,08404.9827,W,0.3155,129.994,120118,,*3B
2018-01-11 19:39:20 1515717560.773352: $GPGSA,A,3,7,8,9,16,23,27,30,,,,,,4.0,1.0,3.5*07
2018-01-11 19:39:21 1515717561.387675: $GPZDA,003922.00,12,01,2018,00,00*65
2018-01-11 19:39:21 1515717561.387813: $GPGGA,003922,3946.9575,N,08404.9827,W,1,07,1.00,328.34,M,-33.324,M,,*70
2018-01-11 19:39:21 1515717561.387878: $GPRMC,003922,A,3946.9575,N,08404.9827,W,0.0000,0.000,120118,,*34
2018-01-11 19:39:21 1515717561.387938: $GPGSA,A,3,7,8,9,16,23,27,30,,,,,,4.0,1.0,3.5*07
2018-01-11 19:39:22 1515717562.715138: $GPGSV,3,1,12,07,42,309,41,08,61,160,46,09,56,252,43,16,34,052,49*7E
2018-01-11 19:39:22 1515717562.715313: $GPGSV,3,2,12,23,44,195,46,27,57,072,50,30,17,300,36,11,08,172,24*7B
2018-01-11 19:39:22 1515717562.715378: $GPGSV,3,3,12,26,08,064,24,28,04,249,25,21,02,033,00,138,38,213,45*45
2018-01-11 19:39:22 1515717562.828751: $GPZDA,003923.00,12,01,2018,00,00*64
2018-01-11 19:39:22 1515717562.828873: $GPGGA,003923,3946.9575,N,08404.9827,W,1,11,0.80,326.93,M,-33.324,M,,*7C
2018-01-11 19:39:22 1515717562.828936: $GPRMC,003923,A,3946.9575,N,08404.9827,W,0.0000,0.000,120118,,*35
2018-01-11 19:39:22 1515717562.828995: $GPGSA,A,3,7,8,9,16,23,27,30,11,26,28,138,,4.0,0.8,3.5*3A
2018-01-11 19:39:23 1515717563.379674: $GPZDA,003924.00,12,01,2018,00,00*63
2018-01-11 19:39:23 1515717563.379829: $GPGGA,003924,3946.9574,N,08404.9826,W,1,11,1.00,325.53,M,-33.324,M,,*7D
2018-01-11 19:39:23 1515717563.379893: $GPRMC,003924,A,3946.9574,N,08404.9826,W,0.0000,0.000,120118,,*32
2018-01-11 19:39:23 1515717563.379954: $GPGSA,A,3,7,8,9,16,23,27,30,11,26,28,138,,4.0,1.0,3.5*33
2018-01-11 19:39:24 1515717564.377677: $GPZDA,003925.00,12,01,2018,00,00*62
2018-01-11 19:39:24 1515717564.377936: $GPGGA,003925,3946.9577,N,08404.9825,W,1,11,0.80,324.76,M,-33.324,M,,*73
2018-01-11 19:39:24 1515717564.378009: $GPRMC,003925,A,3946.9577,N,08404.9825,W,0.0000,0.000,120118,,*33
2018-01-11 19:39:24 1515717564.378071: $GPGSA,A,3,7,8,9,16,23,27,30,11,26,28,138,,4.0,0.8,3.5*3A
2018-01-11 19:39:24 1515717564.378130: $GPGBS,003925,14.62,M,24.83,M,80.38,M*0C
