2017-12-14 12:34:10 1513272850.696951: {"class":"VERSION","release":"3.16","rev":"3.16-4","proto_major":3,"proto_minor":11}
2017-12-14 12:34:10 1513272850.697316: {"class":"DEVICES","devices":[{"class":"DEVICE","path":"/dev/ttyUSB0","driver":"SiRF","subtype":"9\u0006GSD4e_4.1.2-P1_RPATCH.05-F-GPS-4R-1510281 11/03/2015 307","activated":"2017-12-14T17:34:10.520Z","flags":1,"native":1,"bps":4800,"parity":"N","stopbits":1,"cycle":1.00}]}
2017-12-14 12:34:10 1513272850.697448: {"class":"WATCH","enable":true,"json":false,"nmea":true,"raw":0,"scaled":false,"timing":false,"split24":false,"pps":false}
2017-12-14 12:34:11 1513272851.204143: $GPZDA,173412.00,14,12,2017,00,00*66
2017-12-14 12:34:11 1513272851.204456: $GPGGA,173412,3946.9554,N,08404.9429,W,1,06,7.60,331.45,M,-33.324,M,,*76
2017-12-14 12:34:11 1513272851.204581: $GPRMC,173412,A,3946.9554,N,08404.9429,W,0.9605,334.849,141217,,*3D
2017-12-14 12:34:11 1513272851.204713: $GPGSA,A,3,24,10,18,20,21,27,,,,,,,6.6,7.6,6.2*3D
2017-12-14 12:34:12 1513272852.541175: $GPGSV,3,1,12,24,53,097,27,10,47,307,18,18,75,358,20,20,28,102,19*78
2017-12-14 12:34:12 1513272852.541348: $GPGSV,3,2,12,21,55,184,22,27,17,282,16,08,07,316,11,14,09,235,15*7E
2017-12-14 12:34:12 1513272852.541413: $GPGSV,3,3,12,15,31,055,00,32,27,243,00,13,02,051,00,138,38,213,00*48
2017-12-14 12:34:12 1513272852.654821: $GPZDA,173413.00,14,12,2017,00,00*67
2017-12-14 12:34:12 1513272852.654955: $GPGGA,173413,3946.9558,N,08404.9429,W,1,06,7.60,330.68,M,-33.324,M,,*75
2017-12-14 12:34:12 1513272852.655020: $GPRMC,173413,A,3946.9558,N,08404.9429,W,0.9605,334.849,141217,,*30
2017-12-14 12:34:12 1513272852.655081: $GPGSA,A,3,24,10,18,20,21,27,,,,,,,6.6,7.6,6.2*3D
2017-12-14 12:34:13 1513272853.204958: $GPZDA,173414.00,14,12,2017,00,00*60
2017-12-14 12:34:13 1513272853.205122: $GPGGA,173414,3946.9558,N,08404.9436,W,1,06,7.60,330.60,M,-33.324,M,,*74
2017-12-14 12:34:13 1513272853.205186: $GPRMC,173414,A,3946.9558,N,08404.9436,W,0.6550,6.588,141217,,*37
2017-12-14 12:34:13 1513272853.205246: $GPGSA,A,3,24,10,18,20,21,27,,,,,,,6.6,7.6,6.2*3D
2017-12-14 12:34:14 1513272854.205073: $GPZDA,173415.00,14,12,2017,00,00*61
2017-12-14 12:34:14 1513272854.205232: $GPGGA,173415,3946.9557,N,08404.9435,W,1,06,7.60,329.20,M,-33.324,M,,*75
2017-12-14 12:34:14 1513272854.205298: $GPRMC,173415,A,3946.9557,N,08404.9435,W,0.4985,5.768,141217,,*33
2017-12-14 12:34:14 1513272854.205360: $GPGSA,A,3,24,10,18,20,21,27,,,,,,,6.6,7.6,6.2*3D
2017-12-14 12:34:15 1513272855.541043: $GPGSV,3,1,12,24,53,097,26,10,47,307,18,18,75,358,20,20,28,102,20*73
2017-12-14 12:34:15 1513272855.541195: $GPGSV,3,2,12,21,55,184,22,27,17,282,16,15,31,055,00,14,09,235,14*72
2017-12-14 12:34:15 1513272855.541259: $GPGSV,3,3,12,32,27,243,00,08,07,316,00,13,02,051,00,138,38,213,00*45
2017-12-14 12:34:15 1513272855.654755: $GPZDA,173416.00,14,12,2017,00,00*62
2017-12-14 12:34:15 1513272855.654916: $GPGGA,173416,3946.9561,N,08404.9427,W,1,07,7.60,328.51,M,-33.324,M,,*76
2017-12-14 12:34:15 1513272855.654982: $GPRMC,173416,A,3946.9561,N,08404.9427,W,0.9688,37.042,141217,,*07
2017-12-14 12:34:15 1513272855.655042: $GPGSA,A,3,24,10,18,20,21,27,14,,,,,,6.6,7.6,6.2*38
2017-12-14 12:34:16 1513272856.205455: $GPZDA,173417.00,14,12,2017,00,00*63
2017-12-14 12:34:16 1513272856.205641: $GPGGA,173417,3946.9561,N,08404.9427,W,1,07,7.60,328.51,M,-33.324,M,,*77
2017-12-14 12:34:16 1513272856.205708: $GPRMC,173417,A,3946.9561,N,08404.9427,W,0.5125,97.190,141217,,*0E
2017-12-14 12:34:16 1513272856.205787: $GPGSA,A,3,24,10,18,20,21,27,14,,,,,,6.6,7.6,6.2*38
2017-12-14 12:34:17 1513272857.206961: $GPZDA,173418.00,14,12,2017,00,00*6C
2017-12-14 12:34:17 1513272857.207138: $GPGGA,173418,3946.9556,N,08404.9427,W,1,07,7.60,327.87,M,-33.324,M,,*78
2017-12-14 12:34:17 1513272857.207204: $GPRMC,173418,A,3946.9556,N,08404.9427,W,0.6309,129.994,141217,,*32
2017-12-14 12:34:17 1513272857.207265: $GPGSA,A,3,24,10,18,20,21,27,14,,,,,,6.6,7.6,6.2*38
2017-12-14 12:34:18 1513272858.540487: $GPGSV,3,1,12,24,53,097,26,10,47,307,19,18,75,358,20,20,28,102,20*72
2017-12-14 12:34:18 1513272858.540678: $GPGSV,3,2,12,21,55,184,22,27,17,282,16,15,31,055,00,32,27,243,00*7E
2017-12-14 12:34:18 1513272858.540814: $GPGSV,3,3,12,14,09,235,00,08,07,316,00,13,02,051,00,138,38,213,00*4C
2017-12-14 12:34:18 1513272858.653938: $GPZDA,173419.00,14,12,2017,00,00*6D
2017-12-14 12:34:18 1513272858.654078: $GPGGA,173419,3946.9556,N,08404.9427,W,1,06,7.60,327.87,M,-33.324,M,,*78
2017-12-14 12:34:18 1513272858.654143: $GPRMC,173419,A,3946.9556,N,08404.9427,W,0.9066,129.458,141217,,*3B
2017-12-14 12:34:18 1513272858.654204: $GPGSA,A,3,24,10,18,20,21,27,,,,,,,6.6,7.6,6.2*3D
2017-12-14 12:34:19 1513272859.205628: $GPZDA,173420.00,14,12,2017,00,00*67
2017-12-14 12:34:19 1513272859.205803: $GPGGA,173420,3946.9549,N,08404.9428,W,1,06,7.60,328.00,M,-33.324,M,,*73
2017-12-14 12:34:19 1513272859.205870: $GPRMC,173420,A,3946.9549,N,08404.9428,W,0.8709,183.298,141217,,*35
2017-12-14 12:34:19 1513272859.205931: $GPGSA,A,3,24,10,18,20,21,27,,,,,,,6.6,7.6,6.2*3D
2017-12-14 12:34:20 1513272860.205680: $GPZDA,173421.00,14,12,2017,00,00*66
2017-12-14 12:34:20 1513272860.205832: $GPGGA,173421,3946.9537,N,08404.9429,W,1,06,7.60,327.48,M,-33.324,M,,*79
2017-12-14 12:34:20 1513272860.205898: $GPRMC,173421,A,3946.9537,N,08404.9429,W,1.5746,174.845,141217,,*39
2017-12-14 12:34:20 1513272860.205959: $GPGSA,A,3,24,10,18,20,21,27,,,,,,,6.6,7.6,6.2*3D
2017-12-14 12:34:21 1513272861.541026: $GPGSV,3,1,12,24,53,097,26,10,47,307,19,18,75,358,20,20,28,102,21*73
2017-12-14 12:34:21 1513272861.541203: $GPGSV,3,2,12,21,55,184,22,27,17,282,16,08,07,316,11,15,31,055,00*74
2017-12-14 12:34:21 1513272861.541269: $GPGSV,3,3,12,32,27,243,00,14,09,235,00,13,02,051,00,138,38,213,00*46
2017-12-14 12:34:21 1513272861.654474: $GPZDA,173422.00,14,12,2017,00,00*65
2017-12-14 12:34:21 1513272861.654655: $GPGGA,173422,3946.9537,N,08404.9429,W,1,06,7.60,327.48,M,-33.324,M,,*7A
2017-12-14 12:34:21 1513272861.654722: $GPRMC,173422,A,3946.9537,N,08404.9429,W,1.0002,154.331,141217,,*32
2017-12-14 12:34:21 1513272861.654782: $GPGSA,A,3,24,10,18,20,21,27,,,,,,,6.6,7.6,6.2*3D
2017-12-14 12:34:22 1513272862.205803: $GPZDA,173423.00,14,12,2017,00,00*64
2017-12-14 12:34:22 1513272862.205966: $GPGGA,173423,3946.9529,N,08404.9429,W,1,06,7.60,327.61,M,-33.324,M,,*7F
2017-12-14 12:34:22 1513272862.206032: $GPRMC,173423,A,3946.9529,N,08404.9429,W,0.4179,148.778,141217,,*30
2017-12-14 12:34:22 1513272862.206094: $GPGSA,A,3,24,10,18,20,21,27,,,,,,,6.6,7.6,6.2*3D
2017-12-14 12:34:23 1513272863.204669: $GPZDA,173424.00,14,12,2017,00,00*63
2017-12-14 12:34:23 1513272863.204850: $GPGGA,173424,3946.9533,N,08404.9429,W,1,06,7.60,326.84,M,-33.324,M,,*79
2017-12-14 12:34:23 1513272863.204917: $GPRMC,173424,A,3946.9533,N,08404.9429,W,0.3423,4.197,141217,,*3F
2017-12-14 12:34:23 1513272863.204978: $GPGSA,A,3,24,10,18,20,21,27,,,,,,,6.6,7.6,6.2*3D
2017-12-14 12:34:24 1513272864.542231: $GPGSV,3,1,12,24,53,097,26,10,47,307,20,18,75,358,20,20,28,102,22*7A
2017-12-14 12:34:24 1513272864.542415: $GPGSV,3,2,12,21,55,184,22,27,17,282,16,08,07,316,12,15,31,055,00*77
2017-12-14 12:34:24 1513272864.542481: $GPGSV,3,3,12,32,27,243,00,14,09,235,00,13,02,051,00,138,38,213,00*46
2017-12-14 12:34:24 1513272864.654255: $GPZDA,173425.00,14,12,2017,00,00*62
2017-12-14 12:34:24 1513272864.654421: $GPGGA,173425,3946.9529,N,08404.9429,W,1,07,7.60,327.61,M,-33.324,M,,*78
2017-12-14 12:34:24 1513272864.654487: $GPRMC,173425,A,3946.9529,N,08404.9429,W,0.2422,93.795,141217,,*0F
2017-12-14 12:34:24 1513272864.654567: $GPGSA,A,3,24,10,18,20,21,27,8,,,,,,6.6,7.6,6.2*05
2017-12-14 12:34:25 1513272865.204410: $GPZDA,173426.00,14,12,2017,00,00*61
2017-12-14 12:34:25 1513272865.204603: $GPGGA,173426,3946.9525,N,08404.9429,W,1,07,7.60,326.97,M,-33.324,M,,*7F
2017-12-14 12:34:25 1513272865.204695: $GPRMC,173426,A,3946.9525,N,08404.9429,W,0.2422,93.795,141217,,*00
2017-12-14 12:34:25 1513272865.204759: $GPGSA,A,3,24,10,18,20,21,27,8,,,,,,6.6,7.6,6.2*05
2017-12-14 12:34:26 1513272866.204036: $GPZDA,173427.00,14,12,2017,00,00*60
2017-12-14 12:34:26 1513272866.204210: $GPGGA,173427,3946.9525,N,08404.9429,W,1,07,7.60,326.97,M,-33.324,M,,*7E
2017-12-14 12:34:26 1513272866.204327: $GPRMC,173427,A,3946.9525,N,08404.9429,W,0.2422,93.795,141217,,*01
2017-12-14 12:34:26 1513272866.204390: $GPGSA,A,3,24,10,18,20,21,27,8,,,,,,6.6,7.6,6.2*05
2017-12-14 12:34:27 1513272867.540246: $GPGSV,3,1,12,24,53,097,26,10,47,307,21,18,75,358,20,20,28,102,22*7B
2017-12-14 12:34:27 1513272867.540423: $GPGSV,3,2,12,21,55,184,22,27,17,282,15,15,31,055,00,32,27,243,00*7D
2017-12-14 12:34:27 1513272867.540489: $GPGSV,3,3,12,14,09,235,00,08,07,316,00,13,02,051,00,138,38,213,00*4C
2017-12-14 12:34:27 1513272867.653728: $GPZDA,173428.00,14,12,2017,00,00*6F
2017-12-14 12:34:27 1513272867.653907: $GPGGA,173428,3946.9529,N,08404.9429,W,1,06,7.60,326.20,M,-33.324,M,,*70
2017-12-14 12:34:27 1513272867.653972: $GPRMC,173428,A,3946.9529,N,08404.9429,W,0.4207,39.347,141217,,*0E
2017-12-14 12:34:27 1513272867.654032: $GPGSA,A,3,24,10,18,20,21,27,,,,,,,6.6,7.6,6.2*3D
2017-12-14 12:34:28 1513272868.205021: $GPZDA,173429.00,14,12,2017,00,00*6E
2017-12-14 12:34:28 1513272868.205172: $GPGGA,173429,3946.9525,N,08404.9429,W,1,06,7.60,326.97,M,-33.324,M,,*71
2017-12-14 12:34:28 1513272868.205238: $GPRMC,173429,A,3946.9525,N,08404.9429,W,0.2422,273.795,141217,,*33
2017-12-14 12:34:28 1513272868.205299: $GPGSA,A,3,24,10,18,20,21,27,,,,,,,6.6,7.6,6.2*3D
2017-12-14 12:34:29 1513272869.208027: $GPZDA,173430.00,14,12,2017,00,00*66
2017-12-14 12:34:29 1513272869.208194: $GPGGA,173430,3946.9521,N,08404.9429,W,1,06,7.60,326.33,M,-33.324,M,,*73
2017-12-14 12:34:29 1513272869.208259: $GPRMC,173430,A,3946.9521,N,08404.9429,W,0.5306,294.353,141217,,*3E
2017-12-14 12:34:29 1513272869.208319: $GPGSA,A,3,24,10,18,20,21,27,,,,,,,6.6,7.6,6.2*3D
2017-12-14 12:34:30 1513272870.540125: $GPGSV,3,1,12,24,53,097,26,10,47,307,22,18,75,358,20,20,28,102,22*78
2017-12-14 12:34:30 1513272870.540299: $GPGSV,3,2,12,21,55,184,22,27,17,282,15,08,07,316,10,15,31,055,00*76
2017-12-14 12:34:30 1513272870.540365: $GPGSV,3,3,12,32,27,243,00,14,09,235,00,13,02,051,00,138,38,213,00*46
2017-12-14 12:34:30 1513272870.653888: $GPZDA,173431.00,14,12,2017,00,00*67
2017-12-14 12:34:30 1513272870.654054: $GPGGA,173431,3946.9522,N,08404.9436,W,1,06,7.60,326.25,M,-33.324,M,,*78
2017-12-14 12:34:30 1513272870.654119: $GPRMC,173431,A,3946.9522,N,08404.9436,W,0.8054,248.645,141217,,*38
2017-12-14 12:34:30 1513272870.654180: $GPGSA,A,3,24,10,18,20,21,27,,,,,,,6.6,7.6,6.2*3D
