2018-01-11 21:06:35 1515722795.268814: {"class":"VERSION","release":"3.16","rev":"3.16-4","proto_major":3,"proto_minor":11}
2018-01-11 21:06:35 1515722795.269253: {"class":"DEVICES","devices":[{"class":"DEVICE","path":"/dev/ttyUSB0","driver":"SiRF","subtype":"9\u0006GSD4e_4.1.2-P1_RPATCH.05-F-GPS-4R-1510281 11/03/2015 307","activated":"2018-01-12T02:06:35.225Z","flags":1,"native":1,"bps":4800,"parity":"N","stopbits":1,"cycle":1.00}]}
2018-01-11 21:06:35 1515722795.269371: {"class":"WATCH","enable":true,"json":false,"nmea":true,"raw":0,"scaled":false,"timing":false,"split24":false,"pps":false}
2018-01-11 21:06:35 1515722795.738281: $GPGSV,3,1,12,01,19,151,44,07,81,304,44,08,64,052,48,09,26,208,40*7F
2018-01-11 21:06:35 1515722795.738447: $GPGSV,3,2,12,11,43,156,44,27,25,045,48,28,31,279,35,30,52,309,41*78
2018-01-11 21:06:35 1515722795.738512: $GPGSV,3,3,12,13,03,328,22,23,05,181,29,16,05,076,17,138,38,213,45*40
2018-01-11 21:06:35 1515722795.851623: $GPZDA,020636.00,12,01,2018,00,00*6E
2018-01-11 21:06:35 1515722795.851733: $GPGGA,020636,3946.9596,N,08404.9820,W,2,12,1.00,292.45,M,-33.324,M,,*70
2018-01-11 21:06:35 1515722795.851796: $GPRMC,020636,A,3946.9596,N,08404.9820,W,0.0000,0.000,120118,,*35
2018-01-11 21:06:35 1515722795.851856: $GPGSA,A,3,1,7,8,9,11,27,28,30,13,23,16,138,4.0,1.0,3.5*04
2018-01-11 21:06:36 1515722796.382547: $GPZDA,020637.00,12,01,2018,00,00*6F
2018-01-11 21:06:36 1515722796.382722: $GPGGA,020637,3946.9596,N,08404.9820,W,2,12,1.00,292.45,M,-33.324,M,,*71
2018-01-11 21:06:36 1515722796.382788: $GPRMC,020637,A,3946.9596,N,08404.9820,W,0.0000,0.000,120118,,*34
2018-01-11 21:06:36 1515722796.382849: $GPGSA,A,3,1,7,8,9,11,27,28,30,13,23,16,138,4.0,1.0,3.5*04
2018-01-11 21:06:37 1515722797.383394: $GPZDA,020638.00,12,01,2018,00,00*60
2018-01-11 21:06:37 1515722797.383571: $GPGGA,020638,3946.9596,N,08404.9820,W,2,12,1.00,292.45,M,-33.324,M,,*7E
2018-01-11 21:06:37 1515722797.383638: $GPRMC,020638,A,3946.9596,N,08404.9820,W,0.0000,0.000,120118,,*3B
2018-01-11 21:06:37 1515722797.383699: $GPGSA,A,3,1,7,8,9,11,27,28,30,13,23,16,138,4.0,1.0,3.5*04
2018-01-11 21:06:38 1515722798.717918: $GPGSV,3,1,12,01,19,151,44,07,81,304,44,08,64,052,48,09,26,208,40*7F
2018-01-11 21:06:38 1515722798.718090: $GPGSV,3,2,12,11,43,156,44,27,25,045,48,28,31,279,34,30,52,309,41*79
2018-01-11 21:06:38 1515722798.718156: $GPGSV,3,3,12,13,03,328,23,23,05,181,30,16,05,076,18,138,38,213,45*46
2018-01-11 21:06:38 1515722798.831273: $GPZDA,020639.00,12,01,2018,00,00*61
2018-01-11 21:06:38 1515722798.831395: $GPGGA,020639,3946.9596,N,08404.9820,W,2,12,1.00,292.45,M,-33.324,M,,*7F
2018-01-11 21:06:38 1515722798.831459: $GPRMC,020639,A,3946.9596,N,08404.9820,W,0.0000,0.000,120118,,*3A
2018-01-11 21:06:38 1515722798.831519: $GPGSA,A,3,1,7,8,9,11,27,28,30,13,23,16,138,4.0,1.0,3.5*04
2018-01-11 21:06:39 1515722799.456677: $GPZDA,020640.00,12,01,2018,00,00*6F
2018-01-11 21:06:39 1515722799.456849: $GPGGA,020640,3946.9596,N,08404.9820,W,2,12,1.00,292.45,M,-33.324,M,,*71
2018-01-11 21:06:39 1515722799.456915: $GPRMC,020640,A,3946.9596,N,08404.9820,W,0.0000,0.000,120118,,*34
2018-01-11 21:06:39 1515722799.456976: $GPGSA,A,3,1,7,8,9,11,27,28,30,13,23,16,138,4.0,1.0,3.5*04
2018-01-11 21:06:40 1515722800.386295: $GPZDA,020641.00,12,01,2018,00,00*6E
2018-01-11 21:06:40 1515722800.386465: $GPGGA,020641,3946.9596,N,08404.9820,W,2,12,1.00,292.45,M,-33.324,M,,*70
2018-01-11 21:06:40 1515722800.386532: $GPRMC,020641,A,3946.9596,N,08404.9820,W,0.0000,0.000,120118,,*35
2018-01-11 21:06:40 1515722800.386592: $GPGSA,A,3,1,7,8,9,11,27,28,30,13,23,16,138,4.0,1.0,3.5*04
2018-01-11 21:06:41 1515722801.740787: $GPGSV,3,1,12,01,19,151,44,07,81,304,44,08,64,052,48,09,26,208,40*7F
2018-01-11 21:06:41 1515722801.740979: $GPGSV,3,2,12,11,43,156,44,27,25,045,48,28,31,279,34,30,52,309,41*79
2018-01-11 21:06:41 1515722801.741048: $GPGSV,3,3,12,13,03,328,23,23,05,181,30,16,05,076,18,138,38,213,46*45
2018-01-11 21:06:41 1515722801.854098: $GPZDA,020642.00,12,01,2018,00,00*6D
2018-01-11 21:06:41 1515722801.854250: $GPGGA,020642,3946.9596,N,08404.9820,W,2,12,1.00,292.45,M,-33.324,M,,*73
2018-01-11 21:06:41 1515722801.854368: $GPRMC,020642,A,3946.9596,N,08404.9820,W,0.0000,0.000,120118,,*36
2018-01-11 21:06:41 1515722801.854431: $GPGSA,A,3,1,7,8,9,11,27,28,30,13,23,16,138,4.0,1.0,3.5*04
