2017-12-01 17:38:55 1512167935.222713: {"class":"VERSION","release":"3.16","rev":"3.16-4","proto_major":3,"proto_minor":11}
2017-12-01 17:38:55 1512167935.223330: {"class":"DEVICES","devices":[{"class":"DEVICE","path":"/dev/ttyUSB0","driver":"SiRF","subtype":"9\u0006GSD4e_4.1.2-P1_RPATCH.05-F-GPS-4R-1510281 11/03/2015 307","activated":"2017-12-01T22:38:54.752Z","flags":1,"native":1,"bps":4800,"parity":"N","stopbits":1,"cycle":1.00}]}
2017-12-01 17:38:55 1512167935.223486: {"class":"WATCH","enable":true,"json":false,"nmea":true,"raw":0,"scaled":false,"timing":false,"split24":false,"pps":false}
2017-12-01 17:38:55 1512167935.439685: $GPZDA,223856.00,01,12,2017,00,00*68
2017-12-01 17:38:55 1512167935.439858: $GPGGA,223856,3946.9725,N,08404.9838,W,2,12,0.80,294.99,M,-33.325,M,,*75
2017-12-01 17:38:55 1512167935.439924: $GPRMC,223856,A,3946.9725,N,08404.9838,W,0.0000,0.000,011217,,*30
2017-12-01 17:38:55 1512167935.439985: $GPGSA,A,3,1,3,10,14,22,25,26,31,32,12,16,138,2.0,0.8,1.5*04
2017-12-01 17:38:56 1512167936.773945: $GPGSV,3,1,12,01,16,270,44,03,25,313,44,10,16,157,43,14,67,054,41*7C
2017-12-01 17:38:56 1512167936.774128: $GPGSV,3,2,12,22,43,298,47,25,33,052,40,26,32,177,43,31,80,316,46*77
2017-12-01 17:38:56 1512167936.774195: $GPGSV,3,3,12,32,51,087,45,12,03,030,25,16,04,190,24,138,38,213,45*48
2017-12-01 17:38:56 1512167936.887339: $GPZDA,223857.00,01,12,2017,00,00*69
2017-12-01 17:38:56 1512167936.887511: $GPGGA,223857,3946.9725,N,08404.9838,W,2,12,0.80,294.99,M,-33.325,M,,*74
2017-12-01 17:38:56 1512167936.887578: $GPRMC,223857,A,3946.9725,N,08404.9838,W,0.0000,0.000,011217,,*31
2017-12-01 17:38:56 1512167936.887639: $GPGSA,A,3,1,3,10,14,22,25,26,31,32,12,16,138,2.0,0.8,1.5*04
2017-12-01 17:38:57 1512167937.436874: $GPZDA,223858.00,01,12,2017,00,00*66
2017-12-01 17:38:57 1512167937.437050: $GPGGA,223858,3946.9725,N,08404.9838,W,2,12,0.80,294.99,M,-33.325,M,,*7B
2017-12-01 17:38:57 1512167937.437117: $GPRMC,223858,A,3946.9725,N,08404.9838,W,0.0000,0.000,011217,,*3E
2017-12-01 17:38:57 1512167937.437177: $GPGSA,A,3,1,3,10,14,22,25,26,31,32,12,16,138,2.0,0.8,1.5*04
2017-12-01 17:38:58 1512167938.439009: $GPZDA,223859.00,01,12,2017,00,00*67
2017-12-01 17:38:58 1512167938.439172: $GPGGA,223859,3946.9725,N,08404.9838,W,2,12,0.80,294.99,M,-33.325,M,,*7A
2017-12-01 17:38:58 1512167938.439239: $GPRMC,223859,A,3946.9725,N,08404.9838,W,0.0000,0.000,011217,,*3F
2017-12-01 17:38:58 1512167938.439299: $GPGSA,A,3,1,3,10,14,22,25,26,31,32,12,16,138,2.0,0.8,1.5*04
2017-12-01 17:38:59 1512167939.774746: $GPGSV,3,1,12,01,16,270,44,03,25,313,44,10,16,157,44,14,67,054,41*7B
2017-12-01 17:38:59 1512167939.774941: $GPGSV,3,2,12,22,43,298,47,25,33,052,39,26,32,177,43,31,80,316,45*7A
2017-12-01 17:38:59 1512167939.775008: $GPGSV,3,3,12,32,51,087,45,12,03,030,26,16,04,190,23,138,38,213,45*4C
2017-12-01 17:38:59 1512167939.888040: $GPZDA,223900.00,01,12,2017,00,00*6A
2017-12-01 17:38:59 1512167939.888193: $GPGGA,223900,3946.9725,N,08404.9838,W,2,12,0.80,294.99,M,-33.325,M,,*77
2017-12-01 17:38:59 1512167939.888259: $GPRMC,223900,A,3946.9725,N,08404.9838,W,0.0000,0.000,011217,,*32
2017-12-01 17:38:59 1512167939.888320: $GPGSA,A,3,1,3,10,14,22,25,26,31,32,12,16,138,2.0,0.8,1.5*04
2017-12-01 17:39:00 1512167940.513458: $GPZDA,223901.00,01,12,2017,00,00*6B
2017-12-01 17:39:00 1512167940.513626: $GPGGA,223901,3946.9725,N,08404.9838,W,2,12,0.80,294.99,M,-33.325,M,,*76
2017-12-01 17:39:00 1512167940.513693: $GPRMC,223901,A,3946.9725,N,08404.9838,W,0.0000,0.000,011217,,*33
2017-12-01 17:39:00 1512167940.513776: $GPGSA,A,3,1,3,10,14,22,25,26,31,32,12,16,138,2.0,0.8,1.5*04
2017-12-01 17:39:01 1512167941.438126: $GPZDA,223902.00,01,12,2017,00,00*68
2017-12-01 17:39:01 1512167941.438296: $GPGGA,223902,3946.9725,N,08404.9838,W,2,12,0.80,294.99,M,-33.325,M,,*75
2017-12-01 17:39:01 1512167941.438364: $GPRMC,223902,A,3946.9725,N,08404.9838,W,0.0000,0.000,011217,,*30
2017-12-01 17:39:01 1512167941.438424: $GPGSA,A,3,1,3,10,14,22,25,26,31,32,12,16,138,2.0,0.8,1.5*04
2017-12-01 17:39:02 1512167942.775056: $GPGSV,3,1,12,01,16,270,44,03,25,313,45,10,16,157,44,14,67,054,41*7A
2017-12-01 17:39:02 1512167942.775288: $GPGSV,3,2,12,22,43,298,48,25,33,052,40,26,32,177,43,31,80,316,45*7B
2017-12-01 17:39:02 1512167942.775358: $GPGSV,3,3,12,32,51,087,45,12,03,030,26,16,04,190,23,138,38,213,46*4F
2017-12-01 17:39:02 1512167942.888422: $GPZDA,223903.00,01,12,2017,00,00*69
2017-12-01 17:39:02 1512167942.888590: $GPGGA,223903,3946.9725,N,08404.9838,W,2,12,0.80,294.99,M,-33.325,M,,*74
2017-12-01 17:39:02 1512167942.888656: $GPRMC,223903,A,3946.9725,N,08404.9838,W,0.0000,0.000,011217,,*31
2017-12-01 17:39:02 1512167942.888717: $GPGSA,A,3,1,3,10,14,22,25,26,31,32,12,16,138,2.0,0.8,1.5*04
2017-12-01 17:39:03 1512167943.448032: $GPZDA,223904.00,01,12,2017,00,00*6E
2017-12-01 17:39:03 1512167943.448206: $GPGGA,223904,3946.9725,N,08404.9838,W,2,12,0.80,294.99,M,-33.325,M,,*73
2017-12-01 17:39:03 1512167943.448272: $GPRMC,223904,A,3946.9725,N,08404.9838,W,0.0000,0.000,011217,,*36
2017-12-01 17:39:03 1512167943.448333: $GPGSA,A,3,1,3,10,14,22,25,26,31,32,12,16,138,2.0,0.8,1.5*04
2017-12-01 17:39:04 1512167944.437715: $GPZDA,223905.00,01,12,2017,00,00*6F
2017-12-01 17:39:04 1512167944.437880: $GPGGA,223905,3946.9725,N,08404.9838,W,2,12,0.80,294.99,M,-33.325,M,,*72
2017-12-01 17:39:04 1512167944.437946: $GPRMC,223905,A,3946.9725,N,08404.9838,W,0.0000,0.000,011217,,*37
2017-12-01 17:39:04 1512167944.438007: $GPGSA,A,3,1,3,10,14,22,25,26,31,32,12,16,138,2.0,0.8,1.5*04
2017-12-01 17:39:05 1512167945.774290: $GPGSV,3,1,12,01,16,270,44,03,25,313,45,10,16,157,44,14,67,054,41*7A
2017-12-01 17:39:05 1512167945.774483: $GPGSV,3,2,12,22,43,298,48,25,33,052,40,26,32,177,43,31,80,316,45*7B
2017-12-01 17:39:05 1512167945.774552: $GPGSV,3,3,12,32,51,087,45,12,03,030,26,16,04,190,23,138,38,213,46*4F
2017-12-01 17:39:05 1512167945.887847: $GPZDA,223906.00,01,12,2017,00,00*6C
2017-12-01 17:39:05 1512167945.888015: $GPGGA,223906,3946.9725,N,08404.9838,W,2,12,0.80,294.99,M,-33.325,M,,*71
2017-12-01 17:39:05 1512167945.888082: $GPRMC,223906,A,3946.9725,N,08404.9838,W,0.0000,0.000,011217,,*34
2017-12-01 17:39:05 1512167945.888143: $GPGSA,A,3,1,3,10,14,22,25,26,31,32,12,16,138,2.0,0.8,1.5*04
2017-12-01 17:39:06 1512167946.439747: $GPZDA,223907.00,01,12,2017,00,00*6D
2017-12-01 17:39:06 1512167946.439925: $GPGGA,223907,3946.9725,N,08404.9838,W,2,12,0.80,294.99,M,-33.325,M,,*70
2017-12-01 17:39:06 1512167946.439993: $GPRMC,223907,A,3946.9725,N,08404.9838,W,0.0000,0.000,011217,,*35
2017-12-01 17:39:06 1512167946.440053: $GPGSA,A,3,1,3,10,14,22,25,26,31,32,12,16,138,2.0,0.8,1.5*04
2017-12-01 17:39:07 1512167947.439330: $GPZDA,223908.00,01,12,2017,00,00*62
2017-12-01 17:39:07 1512167947.439502: $GPGGA,223908,3946.9725,N,08404.9838,W,2,12,0.80,294.99,M,-33.325,M,,*7F
2017-12-01 17:39:07 1512167947.439589: $GPRMC,223908,A,3946.9725,N,08404.9838,W,0.0000,0.000,011217,,*3A
2017-12-01 17:39:07 1512167947.439651: $GPGSA,A,3,1,3,10,14,22,25,26,31,32,12,16,138,2.0,0.8,1.5*04
2017-12-01 17:39:08 1512167948.773793: $GPGSV,3,1,12,01,16,270,44,03,25,313,44,10,16,157,44,14,67,054,42*78
2017-12-01 17:39:08 1512167948.773977: $GPGSV,3,2,12,22,43,298,48,25,33,052,40,26,32,177,42,31,80,316,45*7A
2017-12-01 17:39:08 1512167948.774046: $GPGSV,3,3,12,32,51,087,44,12,03,030,26,16,04,190,22,138,38,213,46*4F
2017-12-01 17:39:08 1512167948.887439: $GPZDA,223909.00,01,12,2017,00,00*63
2017-12-01 17:39:08 1512167948.887608: $GPGGA,223909,3946.9725,N,08404.9838,W,2,12,0.80,294.99,M,-33.325,M,,*7E
2017-12-01 17:39:08 1512167948.887675: $GPRMC,223909,A,3946.9725,N,08404.9838,W,0.0000,0.000,011217,,*3B
2017-12-01 17:39:08 1512167948.887737: $GPGSA,A,3,1,3,10,14,22,25,26,31,32,12,16,138,2.0,0.8,1.5*04
2017-12-01 17:39:09 1512167949.437997: $GPZDA,223910.00,01,12,2017,00,00*6B
2017-12-01 17:39:09 1512167949.438168: $GPGGA,223910,3946.9725,N,08404.9838,W,2,12,0.80,294.99,M,-33.325,M,,*76
2017-12-01 17:39:09 1512167949.438235: $GPRMC,223910,A,3946.9725,N,08404.9838,W,0.0000,0.000,011217,,*33
2017-12-01 17:39:09 1512167949.438296: $GPGSA,A,3,1,3,10,14,22,25,26,31,32,12,16,138,2.0,0.8,1.5*04
2017-12-01 17:39:10 1512167950.440213: $GPZDA,223911.00,01,12,2017,00,00*6A
2017-12-01 17:39:10 1512167950.440397: $GPGGA,223911,3946.9725,N,08404.9838,W,2,12,0.80,294.99,M,-33.325,M,,*77
2017-12-01 17:39:10 1512167950.440463: $GPRMC,223911,A,3946.9725,N,08404.9838,W,0.0000,0.000,011217,,*32
2017-12-01 17:39:10 1512167950.440524: $GPGSA,A,3,1,3,10,14,22,25,26,31,32,12,16,138,2.0,0.8,1.5*04
2017-12-01 17:39:11 1512167951.775396: $GPGSV,3,1,12,01,16,270,44,03,25,313,44,10,16,157,43,14,67,054,42*7F
2017-12-01 17:39:11 1512167951.775590: $GPGSV,3,2,12,22,43,298,48,25,33,052,39,26,32,177,42,31,80,316,46*77
2017-12-01 17:39:11 1512167951.775657: $GPGSV,3,3,12,32,51,087,45,12,03,030,27,16,04,190,22,138,38,213,46*4F
2017-12-01 17:39:11 1512167951.889032: $GPZDA,223912.00,01,12,2017,00,00*69
2017-12-01 17:39:11 1512167951.889199: $GPGGA,223912,3946.9725,N,08404.9838,W,2,12,0.80,294.99,M,-33.325,M,,*74
2017-12-01 17:39:11 1512167951.889264: $GPRMC,223912,A,3946.9725,N,08404.9838,W,0.0000,0.000,011217,,*31
2017-12-01 17:39:11 1512167951.889325: $GPGSA,A,3,1,3,10,14,22,25,26,31,32,12,16,138,2.0,0.8,1.5*04
2017-12-01 17:39:12 1512167952.439910: $GPZDA,223913.00,01,12,2017,00,00*68
2017-12-01 17:39:12 1512167952.440078: $GPGGA,223913,3946.9725,N,08404.9838,W,2,12,0.80,294.99,M,-33.325,M,,*75
2017-12-01 17:39:12 1512167952.440145: $GPRMC,223913,A,3946.9725,N,08404.9838,W,0.0000,0.000,011217,,*30
2017-12-01 17:39:12 1512167952.440206: $GPGSA,A,3,1,3,10,14,22,25,26,31,32,12,16,138,2.0,0.8,1.5*04
2017-12-01 17:39:13 1512167953.438069: $GPZDA,223914.00,01,12,2017,00,00*6F
2017-12-01 17:39:13 1512167953.438247: $GPGGA,223914,3946.9725,N,08404.9838,W,2,12,0.80,294.99,M,-33.325,M,,*72
2017-12-01 17:39:13 1512167953.438315: $GPRMC,223914,A,3946.9725,N,08404.9838,W,0.0000,0.000,011217,,*37
2017-12-01 17:39:13 1512167953.438376: $GPGSA,A,3,1,3,10,14,22,25,26,31,32,12,16,138,2.0,0.8,1.5*04
2017-12-01 17:39:14 1512167954.772410: $GPGSV,3,1,12,01,16,270,44,03,25,313,44,10,16,157,43,14,67,054,42*7F
2017-12-01 17:39:14 1512167954.772592: $GPGSV,3,2,12,22,43,298,48,25,33,052,40,26,32,177,42,31,80,316,46*79
2017-12-01 17:39:14 1512167954.772659: $GPGSV,3,3,12,32,51,087,44,12,03,030,27,16,04,190,22,138,38,213,46*4E
2017-12-01 17:39:14 1512167954.886137: $GPZDA,223915.00,01,12,2017,00,00*6E
2017-12-01 17:39:14 1512167954.886286: $GPGGA,223915,3946.9725,N,08404.9838,W,2,12,0.80,294.99,M,-33.325,M,,*73
2017-12-01 17:39:14 1512167954.886351: $GPRMC,223915,A,3946.9725,N,08404.9838,W,0.0000,0.000,011217,,*36
2017-12-01 17:39:14 1512167954.886411: $GPGSA,A,3,1,3,10,14,22,25,26,31,32,12,16,138,2.0,0.8,1.5*04
