2018-01-11 20:03:32 1515719012.244103: {"class":"VERSION","release":"3.16","rev":"3.16-4","proto_major":3,"proto_minor":11}
2018-01-11 20:03:32 1515719012.244480: {"class":"DEVICES","devices":[{"class":"DEVICE","path":"/dev/ttyUSB0","driver":"SiRF","subtype":"9\u0006GSD4e_4.1.2-P1_RPATCH.05-F-GPS-4R-1510281 11/03/2015 307","activated":"2018-01-12T01:03:32.096Z","flags":1,"native":1,"bps":4800,"parity":"N","stopbits":1,"cycle":1.00}]}
2018-01-11 20:03:32 1515719012.244593: {"class":"WATCH","enable":true,"json":false,"nmea":true,"raw":0,"scaled":false,"timing":false,"split24":false,"pps":false}
2018-01-11 20:03:33 1515719013.257281: $GPZDA,010333.95,12,01,2018,00,00*61
2018-01-11 20:03:33 1515719013.257484: $GPGGA,010333,3946.9598,N,08404.9775,W,1,10,1.00,301.43,M,-33.324,M,,*7E
2018-01-11 20:03:33 1515719013.257550: $GPRMC,010333,A,3946.9598,N,08404.9775,W,0.6708,310.718,120118,,*32
2018-01-11 20:03:33 1515719013.257612: $GPGSA,A,3,7,8,9,11,16,23,27,28,26,138,,,4.0,1.0,3.5*30
2018-01-11 20:03:33 1515719013.257670: $GPGBS,010333,14.62,M,24.83,M,80.38,M*03
2018-01-11 20:03:34 1515719014.316183: $GPZDA,010334.44,12,01,2018,00,00*6A
2018-01-11 20:03:34 1515719014.316375: $GPGGA,010334,3946.9598,N,08404.9775,W,1,10,1.00,301.43,M,-33.324,M,,*79
2018-01-11 20:03:34 1515719014.316458: $GPRMC,010334,A,3946.9598,N,08404.9775,W,0.0814,322.013,120118,,*3C
2018-01-11 20:03:34 1515719014.316520: $GPGSA,A,3,7,8,9,11,16,23,27,28,26,138,,,4.0,1.0,3.5*30
2018-01-11 20:03:35 1515719015.434888: $GPGSV,3,1,11,07,52,313,42,08,71,141,45,09,50,234,44,11,17,169,43*71
2018-01-11 20:03:35 1515719015.435039: $GPGSV,3,2,11,16,25,058,45,23,32,190,46,27,50,055,50,28,12,256,36*76
2018-01-11 20:03:35 1515719015.435104: $GPGSV,3,3,11,30,26,304,06,26,01,070,00,138,38,213,00*7C
2018-01-11 20:03:35 1515719015.548320: $GPZDA,010335.00,12,01,2018,00,00*6B
2018-01-11 20:03:35 1515719015.548477: $GPGGA,010335,3946.9598,N,08404.9775,W,1,08,1.00,301.43,M,-33.324,M,,*71
2018-01-11 20:03:35 1515719015.548543: $GPRMC,010335,A,3946.9598,N,08404.9775,W,0.2710,280.223,120118,,*3C
2018-01-11 20:03:35 1515719015.548604: $GPGSA,A,3,7,8,9,11,16,23,27,28,,,,,4.0,1.0,3.5*0E
2018-01-11 20:03:35 1515719015.999120: $GPZDA,010336.00,12,01,2018,00,00*68
2018-01-11 20:03:35 1515719015.999296: $GPGGA,010336,3946.9595,N,08404.9776,W,1,08,0.80,302.19,M,-33.324,M,,*79
2018-01-11 20:03:35 1515719015.999364: $GPRMC,010336,A,3946.9595,N,08404.9776,W,0.0000,0.000,120118,,*3C
2018-01-11 20:03:35 1515719015.999441: $GPGSA,A,3,7,8,9,11,16,23,27,28,,,,,4.0,0.8,3.5*07
2018-01-11 20:03:36 1515719016.451372: $GPZDA,010337.00,12,01,2018,00,00*69
2018-01-11 20:03:36 1515719016.451549: $GPGGA,010337,3946.9595,N,08404.9783,W,1,08,0.80,302.11,M,-33.324,M,,*7A
2018-01-11 20:03:36 1515719016.451616: $GPRMC,010337,A,3946.9595,N,08404.9783,W,0.0000,0.000,120118,,*37
2018-01-11 20:03:36 1515719016.451676: $GPGSA,A,3,7,8,9,11,16,23,27,28,,,,,4.0,0.8,3.5*07
2018-01-11 20:03:37 1515719017.696542: $GPGSV,3,1,11,07,52,313,42,08,71,141,45,09,50,234,44,11,17,169,43*71
2018-01-11 20:03:37 1515719017.696703: $GPGSV,3,2,11,16,25,058,45,23,32,190,46,27,50,055,51,28,12,256,37*76
2018-01-11 20:03:37 1515719017.696771: $GPGSV,3,3,11,30,26,304,30,26,01,070,00,138,38,213,46*7B
2018-01-11 20:03:37 1515719017.809988: $GPZDA,010338.00,12,01,2018,00,00*66
2018-01-11 20:03:37 1515719017.810136: $GPGGA,010338,3946.9595,N,08404.9783,W,1,10,0.80,302.11,M,-33.324,M,,*7C
2018-01-11 20:03:37 1515719017.810202: $GPRMC,010338,A,3946.9595,N,08404.9783,W,0.0000,0.000,120118,,*38
2018-01-11 20:03:37 1515719017.810283: $GPGSA,A,3,7,8,9,11,16,23,27,28,30,138,,,4.0,0.8,3.5*3E
2018-01-11 20:03:38 1515719018.360893: $GPZDA,010339.00,12,01,2018,00,00*67
2018-01-11 20:03:38 1515719018.361060: $GPGGA,010339,3946.9595,N,08404.9790,W,1,10,0.80,302.03,M,-33.324,M,,*7C
2018-01-11 20:03:38 1515719018.361125: $GPRMC,010339,A,3946.9595,N,08404.9790,W,0.0000,0.000,120118,,*3B
2018-01-11 20:03:38 1515719018.361185: $GPGSA,A,3,7,8,9,11,16,23,27,28,30,138,,,4.0,0.8,3.5*3E
2018-01-11 20:03:39 1515719019.358985: $GPZDA,010340.00,12,01,2018,00,00*69
2018-01-11 20:03:39 1515719019.359286: $GPGGA,010340,3946.9596,N,08404.9824,W,2,10,2.40,300.23,M,-33.324,M,,*7C
2018-01-11 20:03:39 1515719019.359357: $GPRMC,010340,A,3946.9596,N,08404.9824,W,0.0000,0.000,120118,,*36
2018-01-11 20:03:39 1515719019.359437: $GPGSA,A,3,7,8,9,11,16,23,27,28,30,138,,,4.0,2.4,3.5*30
2018-01-11 20:03:39 1515719019.359496: $GPGBS,010340,3.65,M,6.21,M,20.10,M*0E
2018-01-11 20:03:40 1515719020.697188: $GPGSV,3,1,11,07,52,313,42,08,71,141,45,09,50,234,44,11,17,169,43*71
2018-01-11 20:03:40 1515719020.697411: $GPGSV,3,2,11,16,25,058,45,23,32,190,46,27,50,055,51,28,12,256,37*76
2018-01-11 20:03:40 1515719020.697479: $GPGSV,3,3,11,30,26,304,29,26,01,070,00,138,38,213,45*70
2018-01-11 20:03:40 1515719020.810542: $GPZDA,010341.00,12,01,2018,00,00*68
2018-01-11 20:03:40 1515719020.810664: $GPGGA,010341,3946.9596,N,08404.9824,W,2,10,1.40,300.23,M,-33.324,M,,*7E
2018-01-11 20:03:40 1515719020.810728: $GPRMC,010341,A,3946.9596,N,08404.9824,W,0.0000,0.000,120118,,*37
2018-01-11 20:03:40 1515719020.810788: $GPGSA,A,3,7,8,9,11,16,23,27,28,30,138,,,4.0,1.4,3.5*33
2018-01-11 20:03:41 1515719021.361458: $GPZDA,010342.00,12,01,2018,00,00*6B
2018-01-11 20:03:41 1515719021.361666: $GPGGA,010342,3946.9596,N,08404.9824,W,2,10,1.00,300.23,M,-33.324,M,,*79
2018-01-11 20:03:41 1515719021.361735: $GPRMC,010342,A,3946.9596,N,08404.9824,W,0.0000,0.000,120118,,*34
2018-01-11 20:03:41 1515719021.361796: $GPGSA,A,3,7,8,9,11,16,23,27,28,30,138,,,4.0,1.0,3.5*37
2018-01-11 20:03:42 1515719022.361826: $GPZDA,010343.00,12,01,2018,00,00*6A
2018-01-11 20:03:42 1515719022.362005: $GPGGA,010343,3946.9596,N,08404.9824,W,2,10,1.00,300.23,M,-33.324,M,,*78
2018-01-11 20:03:42 1515719022.362072: $GPRMC,010343,A,3946.9596,N,08404.9824,W,0.0000,0.000,120118,,*35
2018-01-11 20:03:42 1515719022.362133: $GPGSA,A,3,7,8,9,11,16,23,27,28,30,138,,,4.0,1.0,3.5*37
