2017-12-14 12:40:17 1513273217.444209: {"class":"VERSION","release":"3.16","rev":"3.16-4","proto_major":3,"proto_minor":11}
2017-12-14 12:40:17 1513273217.444544: {"class":"DEVICES","devices":[{"class":"DEVICE","path":"/dev/ttyUSB0","driver":"SiRF","subtype":"9\u0006GSD4e_4.1.2-P1_RPATCH.05-F-GPS-4R-1510281 11/03/2015 307","activated":"2017-12-14T17:40:17.301Z","flags":1,"native":1,"bps":4800,"parity":"N","stopbits":1,"cycle":1.00}]}
2017-12-14 12:40:17 1513273217.444655: {"class":"WATCH","enable":true,"json":false,"nmea":true,"raw":0,"scaled":false,"timing":false,"split24":false,"pps":false}
2017-12-14 12:40:18 1513273218.590935: $GPRMC,174019,V,18000.0000,N,00000.0000,W,0.0000,0.000,141217,,*1B
2017-12-14 12:40:18 1513273218.591093: $GPGSA,A,1,24,10,21,18,20,32,27,,,,,,,,,*39
2017-12-14 12:40:19 1513273219.558723: $GPRMC,174020,V,3946.9504,N,08404.9399,W,0.0000,0.000,141217,,*2A
2017-12-14 12:40:19 1513273219.558896: $GPGSA,A,1,24,10,21,18,20,32,27,,,,,,,,,*39
2017-12-14 12:40:20 1513273220.149720: $GPGSV,3,1,10,10,50,309,12,18,76,009,05,20,26,103,11,21,52,183,07*7E
2017-12-14 12:40:20 1513273220.149877: $GPGSV,3,2,10,24,53,093,09,32,29,246,09,15,28,055,00,27,17,279,00*78
2017-12-14 12:40:20 1513273220.149943: $GPGSV,3,3,10,14,11,238,00,08,08,313,00*75
2017-12-14 12:40:20 1513273220.262142: $GPRMC,174020,V,3946.9501,N,08404.9367,W,3.7287,165.909,141217,,*25
2017-12-14 12:40:20 1513273220.262313: $GPGSA,A,1,10,18,20,21,24,32,,,,,,,,,,*3C
2017-12-14 12:40:20 1513273220.962292: $GPRMC,174021,V,3946.9507,N,08404.9355,W,2.8377,180.684,141217,,*22
2017-12-14 12:40:20 1513273220.962471: $GPGSA,A,1,10,18,20,21,24,32,,,,,,,,,,*3C
2017-12-14 12:40:21 1513273221.218677: $GPZDA,174021.78,14,12,2017,00,00*6A
2017-12-14 12:40:21 1513273221.218830: $GPGGA,174021,3946.9497,N,08404.9351,W,1,06,2.60,333.27,M,-33.324,M,,*70
2017-12-14 12:40:21 1513273221.218895: $GPRMC,174021,A,3946.9497,N,08404.9351,W,3.3970,183.108,141217,,*3E
2017-12-14 12:40:21 1513273221.218974: $GPGSA,A,3,10,18,20,21,24,32,,,,,,,6.6,2.6,6.2*3C
2017-12-14 12:40:21 1513273221.219032: $GPGBS,174021,24.66,M,21.80,M,143.40,M*30
2017-12-14 12:40:21 1513273221.982920: $GPGSV,3,1,11,10,50,309,25,18,76,009,18,20,26,103,23,21,52,183,23*70
2017-12-14 12:40:21 1513273221.983127: $GPGSV,3,2,11,24,53,093,18,32,29,246,19,15,28,055,12,27,17,279,03*78
2017-12-14 12:40:21 1513273221.983197: $GPGSV,3,3,11,14,11,238,00,08,08,313,00,138,38,213,00*75
2017-12-14 12:40:22 1513273222.097183: $GPZDA,174022.00,14,12,2017,00,00*66
2017-12-14 12:40:22 1513273222.097482: $GPGGA,174022,3946.9492,N,08404.9361,W,1,07,2.60,337.53,M,-33.324,M,,*73
2017-12-14 12:40:22 1513273222.097585: $GPRMC,174022,A,3946.9492,N,08404.9361,W,3.8344,184.253,141217,,*37
2017-12-14 12:40:22 1513273222.097648: $GPGSA,A,3,10,18,20,21,24,32,15,,,,,,6.6,2.6,6.2*38
2017-12-14 12:40:22 1513273222.350110: $GPZDA,174023.00,14,12,2017,00,00*67
2017-12-14 12:40:22 1513273222.350367: $GPGGA,174023,3946.9481,N,08404.9362,W,1,07,2.00,338.42,M,-33.324,M,,*7A
2017-12-14 12:40:22 1513273222.350487: $GPRMC,174023,A,3946.9481,N,08404.9362,W,3.7754,175.836,141217,,*3A
2017-12-14 12:40:22 1513273222.350567: $GPGSA,A,3,10,18,20,21,24,32,15,,,,,,6.6,2.0,6.2*3E
2017-12-14 12:40:23 1513273223.217754: $GPZDA,174024.00,14,12,2017,00,00*60
2017-12-14 12:40:23 1513273223.217931: $GPGGA,174024,3946.9470,N,08404.9364,W,1,07,2.00,339.31,M,-33.324,M,,*70
2017-12-14 12:40:23 1513273223.217998: $GPRMC,174024,A,3946.9470,N,08404.9364,W,3.8092,175.495,141217,,*32
2017-12-14 12:40:23 1513273223.218058: $GPGSA,A,3,10,18,20,21,24,32,15,,,,,,6.6,2.0,6.2*3E
2017-12-14 12:40:24 1513273224.553825: $GPGSV,3,1,11,10,50,309,24,18,76,009,18,20,26,103,22,21,52,183,22*71
2017-12-14 12:40:24 1513273224.554000: $GPGSV,3,2,11,24,53,093,17,32,29,246,18,15,28,055,15,27,17,279,11*72
2017-12-14 12:40:24 1513273224.554065: $GPGSV,3,3,11,14,11,238,00,08,08,313,00,138,38,213,00*75
2017-12-14 12:40:24 1513273224.667167: $GPZDA,174025.00,14,12,2017,00,00*61
2017-12-14 12:40:24 1513273224.667319: $GPGGA,174025,3946.9473,N,08404.9356,W,1,08,2.00,338.62,M,-33.324,M,,*7B
2017-12-14 12:40:24 1513273224.667454: $GPRMC,174025,A,3946.9473,N,08404.9356,W,2.5363,169.792,141217,,*39
2017-12-14 12:40:24 1513273224.667519: $GPGSA,A,3,10,18,20,21,24,32,15,27,,,,,6.6,2.0,6.2*3B
2017-12-14 12:40:25 1513273225.217820: $GPZDA,174026.00,14,12,2017,00,00*62
2017-12-14 12:40:25 1513273225.218056: $GPGGA,174026,3946.9466,N,08404.9364,W,1,08,2.00,340.07,M,-33.324,M,,*71
2017-12-14 12:40:25 1513273225.218162: $GPRMC,174026,A,3946.9466,N,08404.9364,W,2.4327,181.388,141217,,*37
2017-12-14 12:40:25 1513273225.218273: $GPGSA,A,3,10,18,20,21,24,32,15,27,,,,,6.6,2.0,6.2*3B
2017-12-14 12:40:26 1513273226.217001: $GPZDA,174027.00,14,12,2017,00,00*63
2017-12-14 12:40:26 1513273226.217178: $GPGGA,174027,3946.9463,N,08404.9365,W,1,08,2.00,340.83,M,-33.324,M,,*78
2017-12-14 12:40:26 1513273226.217271: $GPRMC,174027,A,3946.9463,N,08404.9365,W,2.0645,188.373,141217,,*3A
2017-12-14 12:40:26 1513273226.217337: $GPGSA,A,3,10,18,20,21,24,32,15,27,,,,,6.6,2.0,6.2*3B
2017-12-14 12:40:27 1513273227.553176: $GPGSV,3,1,11,10,50,309,24,18,76,009,18,20,26,103,22,21,52,183,22*71
2017-12-14 12:40:27 1513273227.553403: $GPGSV,3,2,11,24,53,093,17,32,29,246,18,15,28,055,00,27,17,279,13*74
2017-12-14 12:40:27 1513273227.553475: $GPGSV,3,3,11,14,11,238,00,08,08,313,00,138,38,213,00*75
2017-12-14 12:40:27 1513273227.666928: $GPZDA,174028.00,14,12,2017,00,00*6C
2017-12-14 12:40:27 1513273227.667107: $GPGGA,174028,3946.9463,N,08404.9365,W,1,07,2.00,340.83,M,-33.324,M,,*78
2017-12-14 12:40:27 1513273227.667176: $GPRMC,174028,A,3946.9463,N,08404.9365,W,1.5666,189.201,141217,,*37
2017-12-14 12:40:27 1513273227.667272: $GPGSA,A,3,10,18,20,21,24,32,27,,,,,,6.6,2.0,6.2*3F
2017-12-14 12:40:28 1513273228.215848: $GPZDA,174029.00,14,12,2017,00,00*6D
2017-12-14 12:40:28 1513273228.216021: $GPGGA,174029,3946.9460,N,08404.9367,W,1,07,2.00,343.00,M,-33.324,M,,*70
2017-12-14 12:40:28 1513273228.216090: $GPRMC,174029,A,3946.9460,N,08404.9367,W,1.0176,194.251,141217,,*3D
2017-12-14 12:40:28 1513273228.216153: $GPGSA,A,3,10,18,20,21,24,32,27,,,,,,6.6,2.0,6.2*3F
2017-12-14 12:40:29 1513273229.217116: $GPZDA,174030.00,14,12,2017,00,00*65
2017-12-14 12:40:29 1513273229.217280: $GPGGA,174030,3946.9460,N,08404.9367,W,1,07,2.00,343.00,M,-33.324,M,,*78
2017-12-14 12:40:29 1513273229.217349: $GPRMC,174030,A,3946.9460,N,08404.9367,W,1.3758,180.368,141217,,*32
2017-12-14 12:40:29 1513273229.217430: $GPGSA,A,3,10,18,20,21,24,32,27,,,,,,6.6,2.0,6.2*3F
2017-12-14 12:40:30 1513273230.553076: $GPGSV,3,1,11,10,50,309,24,18,76,009,19,20,26,103,22,21,52,183,22*70
2017-12-14 12:40:30 1513273230.553274: $GPGSV,3,2,11,24,53,093,17,32,29,246,19,15,28,055,10,27,17,279,14*73
2017-12-14 12:40:30 1513273230.553359: $GPGSV,3,3,11,14,11,238,00,08,08,313,00,138,38,213,00*75
2017-12-14 12:40:30 1513273230.666430: $GPZDA,174031.00,14,12,2017,00,00*64
2017-12-14 12:40:30 1513273230.666575: $GPGGA,174031,3946.9458,N,08404.9375,W,1,08,2.00,345.09,M,-33.324,M,,*71
2017-12-14 12:40:30 1513273230.666661: $GPRMC,174031,A,3946.9458,N,08404.9375,W,1.1891,180.425,141217,,*3D
2017-12-14 12:40:30 1513273230.666726: $GPGSA,A,3,10,18,20,21,24,32,15,27,,,,,6.6,2.0,6.2*3B
2017-12-14 12:40:31 1513273231.217768: $GPZDA,174032.00,14,12,2017,00,00*67
2017-12-14 12:40:31 1513273231.217939: $GPGGA,174032,3946.9457,N,08404.9368,W,1,08,2.00,345.17,M,-33.324,M,,*7E
2017-12-14 12:40:31 1513273231.218009: $GPRMC,174032,A,3946.9457,N,08404.9368,W,1.3101,158.763,141217,,*3B
2017-12-14 12:40:31 1513273231.218073: $GPGSA,A,3,10,18,20,21,24,32,15,27,,,,,6.6,2.0,6.2*3B
2017-12-14 12:40:32 1513273232.217750: $GPZDA,174033.00,14,12,2017,00,00*66
2017-12-14 12:40:32 1513273232.217922: $GPGGA,174033,3946.9451,N,08404.9369,W,1,08,2.00,346.70,M,-33.324,M,,*7A
2017-12-14 12:40:32 1513273232.217990: $GPRMC,174033,A,3946.9451,N,08404.9369,W,1.5882,164.499,141217,,*30
2017-12-14 12:40:32 1513273232.218053: $GPGSA,A,3,10,18,20,21,24,32,15,27,,,,,6.6,2.0,6.2*3B
2017-12-14 12:40:33 1513273233.553746: $GPGSV,3,1,11,10,50,309,24,18,76,009,19,20,26,103,22,21,52,183,22*70
2017-12-14 12:40:33 1513273233.553977: $GPGSV,3,2,11,24,53,093,18,32,29,246,19,15,28,055,00,27,17,279,14*7D
2017-12-14 12:40:33 1513273233.554044: $GPGSV,3,3,11,14,11,238,00,08,08,313,00,138,38,213,00*75
2017-12-14 12:40:33 1513273233.667796: $GPZDA,174034.00,14,12,2017,00,00*61
2017-12-14 12:40:33 1513273233.667971: $GPGGA,174034,3946.9451,N,08404.9369,W,1,07,2.00,346.70,M,-33.324,M,,*72
2017-12-14 12:40:33 1513273233.668037: $GPRMC,174034,A,3946.9451,N,08404.9369,W,1.1913,169.954,141217,,*3B
2017-12-14 12:40:33 1513273233.668099: $GPGSA,A,3,10,18,20,21,24,32,27,,,,,,6.6,2.0,6.2*3F
2017-12-14 12:40:34 1513273234.217303: $GPZDA,174035.00,14,12,2017,00,00*60
2017-12-14 12:40:34 1513273234.217478: $GPGGA,174035,3946.9447,N,08404.9370,W,1,07,2.00,347.47,M,-33.324,M,,*79
2017-12-14 12:40:34 1513273234.217545: $GPRMC,174035,A,3946.9447,N,08404.9370,W,1.7109,173.868,141217,,*35
2017-12-14 12:40:34 1513273234.217608: $GPGSA,A,3,10,18,20,21,24,32,27,,,,,,6.6,2.0,6.2*3F
2017-12-14 12:40:35 1513273235.217434: $GPZDA,174036.00,14,12,2017,00,00*63
2017-12-14 12:40:35 1513273235.217603: $GPGGA,174036,3946.9447,N,08404.9370,W,1,07,2.00,347.47,M,-33.324,M,,*7A
2017-12-14 12:40:35 1513273235.217668: $GPRMC,174036,A,3946.9447,N,08404.9370,W,1.5308,181.268,141217,,*30
2017-12-14 12:40:35 1513273235.217730: $GPGSA,A,3,10,18,20,21,24,32,27,,,,,,6.6,2.0,6.2*3F
2017-12-14 12:40:36 1513273236.555460: $GPGSV,3,1,11,10,50,309,24,18,76,009,20,20,26,103,23,21,52,183,22*7B
2017-12-14 12:40:36 1513273236.555637: $GPGSV,3,2,11,24,53,093,17,32,29,246,19,14,11,238,05,27,17,279,14*75
2017-12-14 12:40:36 1513273236.555704: $GPGSV,3,3,11,15,28,055,09,08,08,313,00,138,38,213,00*7E
2017-12-14 12:40:36 1513273236.667868: $GPZDA,174037.00,14,12,2017,00,00*62
2017-12-14 12:40:36 1513273236.668006: $GPGGA,174037,3946.9447,N,08404.9370,W,1,08,2.00,347.47,M,-33.324,M,,*74
2017-12-14 12:40:36 1513273236.668070: $GPRMC,174037,A,3946.9447,N,08404.9370,W,1.2274,169.064,141217,,*34
2017-12-14 12:40:36 1513273236.668132: $GPGSA,A,3,10,18,20,21,24,32,27,15,,,,,6.6,2.0,6.2*3B
2017-12-14 12:40:37 1513273237.219025: $GPZDA,174038.00,14,12,2017,00,00*6D
2017-12-14 12:40:37 1513273237.219200: $GPGGA,174038,3946.9451,N,08404.9369,W,1,08,2.00,346.70,M,-33.324,M,,*71
2017-12-14 12:40:37 1513273237.219269: $GPRMC,174038,A,3946.9451,N,08404.9369,W,0.9394,162.470,141217,,*3B
2017-12-14 12:40:37 1513273237.219333: $GPGSA,A,3,10,18,20,21,24,32,27,15,,,,,6.6,2.0,6.2*3B
