2017-11-16 13:55:29 1510858529.408933: {"class":"VERSION","release":"3.17","rev":"3.17","proto_major":3,"proto_minor":12}
2017-11-16 13:55:29 1510858529.409483: {"class":"DEVICES","devices":[{"class":"DEVICE","path":"/dev/ttyUSB0","driver":"SiRF","subtype":"9\u0006GSD4e_4.1.2-P1_RPATCH.05-F-GPS-4R-1510281 11/03/2015 307","activated":"2017-11-16T18:55:29.407Z","flags":1,"native":1,"bps":4800,"parity":"N","stopbits":1,"cycle":1.00}]}
2017-11-16 13:55:29 1510858529.409813: {"class":"WATCH","enable":true,"json":false,"nmea":true,"raw":0,"scaled":false,"timing":false,"split24":false,"pps":false}
2017-11-16 13:55:30 1510858530.363657: $GPZDA,185529.00,16,11,2017,00,00*67
2017-11-16 13:55:30 1510858530.363846: $GPGGA,185529,3946.9607,N,08404.9826,W,2,11,0.80,305.73,M,-33.324,M,,*7E
2017-11-16 13:55:30 1510858530.363927: $GPRMC,185529,A,3946.9607,N,08404.9826,W,0.0000,0.000,161117,,*31
2017-11-16 13:55:30 1510858530.363983: $GPGSA,A,3,10,13,15,18,20,21,24,27,32,8,138,,1.6,0.8,1.3*30
2017-11-16 13:55:31 1510858531.702538: $GPGSV,3,1,11,10,35,295,41,13,15,046,42,15,45,051,51,18,65,321,49*77
2017-11-16 13:55:31 1510858531.702692: $GPGSV,3,2,11,20,39,088,49,21,72,202,48,24,46,123,46,27,19,298,32*7E
2017-11-16 13:55:31 1510858531.702753: $GPGSV,3,3,11,32,14,232,36,08,03,328,27,138,38,213,44*7D
2017-11-16 13:55:31 1510858531.815947: $GPZDA,185530.00,16,11,2017,00,00*6F
2017-11-16 13:55:31 1510858531.816107: $GPGGA,185530,3946.9607,N,08404.9826,W,2,11,0.80,305.73,M,-33.324,M,,*76
2017-11-16 13:55:31 1510858531.816168: $GPRMC,185530,A,3946.9607,N,08404.9826,W,0.0000,0.000,161117,,*39
2017-11-16 13:55:31 1510858531.816223: $GPGSA,A,3,10,13,15,18,20,21,24,27,32,8,138,,1.6,0.8,1.3*30
2017-11-16 13:55:32 1510858532.441668: $GPZDA,185531.00,16,11,2017,00,00*6E
2017-11-16 13:55:32 1510858532.441846: $GPGGA,185531,3946.9607,N,08404.9826,W,2,11,0.80,305.73,M,-33.324,M,,*77
2017-11-16 13:55:32 1510858532.441908: $GPRMC,185531,A,3946.9607,N,08404.9826,W,0.0000,0.000,161117,,*38
2017-11-16 13:55:32 1510858532.441964: $GPGSA,A,3,10,13,15,18,20,21,24,27,32,8,138,,1.6,0.8,1.3*30
2017-11-16 13:55:33 1510858533.370145: $GPZDA,185532.00,16,11,2017,00,00*6D
2017-11-16 13:55:33 1510858533.370390: $GPGGA,185532,3946.9607,N,08404.9826,W,2,11,1.00,305.73,M,-33.324,M,,*7D
2017-11-16 13:55:33 1510858533.370461: $GPRMC,185532,A,3946.9607,N,08404.9826,W,0.0000,0.000,161117,,*3B
2017-11-16 13:55:33 1510858533.370518: $GPGSA,A,3,10,13,15,18,20,21,24,27,32,8,138,,1.6,1.0,1.3*39
2017-11-16 13:55:34 1510858534.732656: $GPGSV,3,1,11,10,35,295,42,13,15,046,43,15,45,051,51,18,65,321,48*74
2017-11-16 13:55:34 1510858534.732799: $GPGSV,3,2,11,20,39,088,48,21,72,202,48,24,46,123,46,27,19,298,32*7F
2017-11-16 13:55:34 1510858534.732858: $GPGSV,3,3,11,32,14,232,36,08,03,328,27,138,38,213,44*7D
2017-11-16 13:55:34 1510858534.845035: $GPZDA,185533.00,16,11,2017,00,00*6C
2017-11-16 13:55:34 1510858534.845196: $GPGGA,185533,3946.9603,N,08404.9827,W,2,11,1.00,306.49,M,-33.324,M,,*73
2017-11-16 13:55:34 1510858534.845255: $GPRMC,185533,A,3946.9603,N,08404.9827,W,0.0000,0.000,161117,,*3F
2017-11-16 13:55:34 1510858534.845311: $GPGSA,A,3,10,13,15,18,20,21,24,27,32,8,138,,1.6,1.0,1.3*39
2017-11-16 13:55:35 1510858535.372081: $GPZDA,185534.00,16,11,2017,00,00*6B
2017-11-16 13:55:35 1510858535.372248: $GPGGA,185534,3946.9603,N,08404.9827,W,2,11,1.00,306.49,M,-33.324,M,,*74
2017-11-16 13:55:35 1510858535.372309: $GPRMC,185534,A,3946.9603,N,08404.9827,W,0.0000,0.000,161117,,*38
2017-11-16 13:55:35 1510858535.372366: $GPGSA,A,3,10,13,15,18,20,21,24,27,32,8,138,,1.6,1.0,1.3*39
2017-11-16 13:55:36 1510858536.398626: $GPZDA,185535.00,16,11,2017,00,00*6A
2017-11-16 13:55:36 1510858536.398785: $GPGGA,185535,3946.9603,N,08404.9827,W,2,11,1.00,306.49,M,-33.324,M,,*75
2017-11-16 13:55:36 1510858536.398846: $GPRMC,185535,A,3946.9603,N,08404.9827,W,0.0000,0.000,161117,,*39
2017-11-16 13:55:36 1510858536.398923: $GPGSA,A,3,10,13,15,18,20,21,24,27,32,8,138,,1.6,1.0,1.3*39
2017-11-16 13:55:37 1510858537.709101: $GPGSV,3,1,11,10,35,295,42,13,15,046,42,15,45,051,51,18,65,321,48*75
2017-11-16 13:55:37 1510858537.709326: $GPGSV,3,2,11,20,39,088,48,21,72,202,47,24,46,123,46,27,19,298,30*72
2017-11-16 13:55:37 1510858537.709386: $GPGSV,3,3,11,32,14,232,36,08,03,328,27,138,38,213,43*7A
2017-11-16 13:55:37 1510858537.821540: $GPZDA,185536.00,16,11,2017,00,00*69
2017-11-16 13:55:37 1510858537.821670: $GPGGA,185536,3946.9603,N,08404.9827,W,2,11,1.00,306.49,M,-33.324,M,,*76
2017-11-16 13:55:37 1510858537.821730: $GPRMC,185536,A,3946.9603,N,08404.9827,W,0.0000,0.000,161117,,*3A
2017-11-16 13:55:37 1510858537.821784: $GPGSA,A,3,10,13,15,18,20,21,24,27,32,8,138,,1.6,1.0,1.3*39
2017-11-16 13:55:38 1510858538.397254: $GPZDA,185537.00,16,11,2017,00,00*68
2017-11-16 13:55:38 1510858538.397421: $GPGGA,185537,3946.9603,N,08404.9827,W,2,11,1.00,306.49,M,-33.324,M,,*77
2017-11-16 13:55:38 1510858538.397483: $GPRMC,185537,A,3946.9603,N,08404.9827,W,0.0000,0.000,161117,,*3B
2017-11-16 13:55:38 1510858538.397540: $GPGSA,A,3,10,13,15,18,20,21,24,27,32,8,138,,1.6,1.0,1.3*39
2017-11-16 13:55:39 1510858539.373461: $GPZDA,185538.00,16,11,2017,00,00*67
2017-11-16 13:55:39 1510858539.373647: $GPGGA,185538,3946.9603,N,08404.9827,W,2,11,1.00,306.49,M,-33.324,M,,*78
2017-11-16 13:55:39 1510858539.373712: $GPRMC,185538,A,3946.9603,N,08404.9827,W,0.0000,0.000,161117,,*34
2017-11-16 13:55:39 1510858539.373771: $GPGSA,A,3,10,13,15,18,20,21,24,27,32,8,138,,1.6,1.0,1.3*39
2017-11-16 13:55:40 1510858540.711014: $GPGSV,3,1,11,10,35,295,40,13,15,046,43,15,45,051,51,18,65,321,48*76
2017-11-16 13:55:40 1510858540.711187: $GPGSV,3,2,11,20,39,088,48,21,72,202,47,24,46,123,45,27,19,298,29*79
2017-11-16 13:55:40 1510858540.711250: $GPGSV,3,3,11,32,14,232,36,08,03,328,26,138,38,213,43*7B
2017-11-16 13:55:40 1510858540.823482: $GPZDA,185539.00,16,11,2017,00,00*66
2017-11-16 13:55:40 1510858540.823656: $GPGGA,185539,3946.9603,N,08404.9827,W,2,11,1.00,306.49,M,-33.324,M,,*79
2017-11-16 13:55:40 1510858540.823718: $GPRMC,185539,A,3946.9603,N,08404.9827,W,0.0000,0.000,161117,,*35
2017-11-16 13:55:40 1510858540.823776: $GPGSA,A,3,10,13,15,18,20,21,24,27,32,8,138,,1.6,1.0,1.3*39
2017-11-16 13:55:41 1510858541.399420: $GPZDA,185540.00,16,11,2017,00,00*68
2017-11-16 13:55:41 1510858541.399583: $GPGGA,185540,3946.9603,N,08404.9827,W,2,11,1.00,306.49,M,-33.324,M,,*77
2017-11-16 13:55:41 1510858541.399663: $GPRMC,185540,A,3946.9603,N,08404.9827,W,0.0000,0.000,161117,,*3B
2017-11-16 13:55:41 1510858541.399723: $GPGSA,A,3,10,13,15,18,20,21,24,27,32,8,138,,1.6,1.0,1.3*39
2017-11-16 13:55:42 1510858542.368645: $GPZDA,185541.00,16,11,2017,00,00*69
2017-11-16 13:55:42 1510858542.368831: $GPGGA,185541,3946.9603,N,08404.9827,W,2,11,1.00,306.49,M,-33.324,M,,*76
2017-11-16 13:55:42 1510858542.368896: $GPRMC,185541,A,3946.9603,N,08404.9827,W,0.0000,0.000,161117,,*3A
2017-11-16 13:55:42 1510858542.368956: $GPGSA,A,3,10,13,15,18,20,21,24,27,32,8,138,,1.6,1.0,1.3*39
2017-11-16 13:55:43 1510858543.712424: $GPGSV,3,1,11,10,35,295,37,13,15,046,43,15,45,051,51,18,65,321,48*76
2017-11-16 13:55:43 1510858543.712599: $GPGSV,3,2,11,20,39,088,48,21,72,202,47,24,46,123,45,27,19,298,30*71
2017-11-16 13:55:43 1510858543.712664: $GPGSV,3,3,11,32,14,232,36,08,03,328,20,138,38,213,44*7A
2017-11-16 13:55:43 1510858543.825948: $GPZDA,185542.00,16,11,2017,00,00*6A
2017-11-16 13:55:43 1510858543.826127: $GPGGA,185542,3946.9603,N,08404.9827,W,2,10,1.00,306.49,M,-33.324,M,,*74
2017-11-16 13:55:43 1510858543.826191: $GPRMC,185542,A,3946.9603,N,08404.9827,W,0.0000,0.000,161117,,*39
2017-11-16 13:55:43 1510858543.826249: $GPGSA,A,3,10,13,15,18,20,21,24,27,32,138,,,1.6,1.0,1.3*01
