2017-12-31 18:34:42 1514763282.671305: {"class":"VERSION","release":"3.16","rev":"3.16-4","proto_major":3,"proto_minor":11}
2017-12-31 18:34:42 1514763282.671683: {"class":"DEVICES","devices":[{"class":"DEVICE","path":"/dev/ttyUSB0","driver":"SiRF","activated":"2017-12-31T23:34:42.238Z","flags":1,"native":1,"bps":4800,"parity":"N","stopbits":1,"cycle":1.00}]}
2017-12-31 18:34:42 1514763282.671780: {"class":"WATCH","enable":true,"json":false,"nmea":true,"raw":0,"scaled":false,"timing":false,"split24":false,"pps":false}
2017-12-31 18:34:42 1514763282.688145: $GPGSV,3,1,12,22,14,208,23,23,63,295,41,09,29,312,44,03,24,226,39*72
2017-12-31 18:34:42 1514763282.688240: $GPGSV,3,2,12,16,85,051,42,08,09,177,22,14,06,138,19,31,21,082,42*7F
2017-12-31 18:34:42 1514763282.688302: $GPGSV,3,3,12,27,32,148,41,07,05,280,44,26,52,046,46,135,22,240,43*4B
2017-12-31 18:34:42 1514763282.801798: $GPZDA,233443.00,31,12,2017,00,00*62
2017-12-31 18:34:42 1514763282.801936: $GPGGA,233443,3946.9577,N,08404.9830,W,2,12,0.80,307.63,M,-33.324,M,,*7E
2017-12-31 18:34:42 1514763282.801999: $GPRMC,233443,A,3946.9577,N,08404.9830,W,0.0000,0.000,311217,,*37
2017-12-31 18:34:42 1514763282.802059: $GPGSA,A,3,22,23,9,3,16,8,14,31,27,7,26,135,1.7,0.8,1.3*0C
2017-12-31 18:34:43 1514763283.353732: $GPZDA,233444.00,31,12,2017,00,00*65
2017-12-31 18:34:43 1514763283.353899: $GPGGA,233444,3946.9577,N,08404.9830,W,2,12,0.80,307.63,M,-33.324,M,,*79
2017-12-31 18:34:43 1514763283.353965: $GPRMC,233444,A,3946.9577,N,08404.9830,W,0.0000,0.000,311217,,*30
2017-12-31 18:34:43 1514763283.354025: $GPGSA,A,3,22,23,9,3,16,8,14,31,27,7,26,135,1.7,0.8,1.3*0C
2017-12-31 18:34:44 1514763284.351117: $GPZDA,233445.00,31,12,2017,00,00*64
2017-12-31 18:34:44 1514763284.351280: $GPGGA,233445,3946.9577,N,08404.9830,W,2,12,0.80,307.63,M,-33.324,M,,*78
2017-12-31 18:34:44 1514763284.351346: $GPRMC,233445,A,3946.9577,N,08404.9830,W,0.0000,0.000,311217,,*31
2017-12-31 18:34:44 1514763284.351407: $GPGSA,A,3,22,23,9,3,16,8,14,31,27,7,26,135,1.7,0.8,1.3*0C
2017-12-31 18:34:45 1514763285.688534: $GPGSV,3,1,12,22,14,208,24,23,63,295,42,09,29,312,44,03,24,226,39*76
2017-12-31 18:34:45 1514763285.688725: $GPGSV,3,2,12,16,85,051,42,08,09,177,21,14,06,138,20,31,21,082,42*76
2017-12-31 18:34:45 1514763285.688791: $GPGSV,3,3,12,27,32,148,41,07,05,280,43,26,52,046,46,135,22,240,43*4C
2017-12-31 18:34:45 1514763285.802180: $GPZDA,233446.00,31,12,2017,00,00*67
2017-12-31 18:34:45 1514763285.802312: $GPGGA,233446,3946.9577,N,08404.9830,W,2,12,0.80,307.63,M,-33.324,M,,*7B
2017-12-31 18:34:45 1514763285.802377: $GPRMC,233446,A,3946.9577,N,08404.9830,W,0.0000,0.000,311217,,*32
2017-12-31 18:34:45 1514763285.802437: $GPGSA,A,3,22,23,9,3,16,8,14,31,27,7,26,135,1.7,0.8,1.3*0C
2017-12-31 18:34:46 1514763286.388126: $GPZDA,233447.00,31,12,2017,00,00*66
2017-12-31 18:34:46 1514763286.388279: $GPGGA,233447,3946.9577,N,08404.9830,W,2,12,0.80,307.63,M,-33.324,M,,*7A
2017-12-31 18:34:46 1514763286.388345: $GPRMC,233447,A,3946.9577,N,08404.9830,W,0.0000,0.000,311217,,*33
2017-12-31 18:34:46 1514763286.388405: $GPGSA,A,3,22,23,9,3,16,8,14,31,27,7,26,135,1.7,0.8,1.3*0C
2017-12-31 18:34:47 1514763287.351431: $GPZDA,233448.00,31,12,2017,00,00*69
2017-12-31 18:34:47 1514763287.351601: $GPGGA,233448,3946.9577,N,08404.9830,W,2,12,0.80,307.63,M,-33.324,M,,*75
2017-12-31 18:34:47 1514763287.351667: $GPRMC,233448,A,3946.9577,N,08404.9830,W,0.0000,0.000,311217,,*3C
2017-12-31 18:34:47 1514763287.351728: $GPGSA,A,3,22,23,9,3,16,8,14,31,27,7,26,135,1.7,0.8,1.3*0C
2017-12-31 18:34:48 1514763288.688136: $GPGSV,3,1,12,22,14,208,24,23,63,295,41,09,29,312,43,03,24,226,39*72
2017-12-31 18:34:48 1514763288.688313: $GPGSV,3,2,12,16,85,051,42,08,09,177,21,14,06,138,20,31,21,082,42*76
2017-12-31 18:34:48 1514763288.688380: $GPGSV,3,3,12,27,32,148,41,07,05,280,43,26,52,046,46,135,22,240,44*4B
2017-12-31 18:34:48 1514763288.800651: $GPZDA,233449.00,31,12,2017,00,00*68
2017-12-31 18:34:48 1514763288.800794: $GPGGA,233449,3946.9577,N,08404.9830,W,2,12,0.80,307.63,M,-33.324,M,,*74
2017-12-31 18:34:48 1514763288.800859: $GPRMC,233449,A,3946.9577,N,08404.9830,W,0.0000,0.000,311217,,*3D
2017-12-31 18:34:48 1514763288.800975: $GPGSA,A,3,22,23,9,3,16,8,14,31,27,7,26,135,1.7,0.8,1.3*0C
2017-12-31 18:34:49 1514763289.352375: $GPZDA,233450.00,31,12,2017,00,00*60
2017-12-31 18:34:49 1514763289.352546: $GPGGA,233450,3946.9577,N,08404.9830,W,2,12,0.80,307.63,M,-33.324,M,,*7C
2017-12-31 18:34:49 1514763289.352614: $GPRMC,233450,A,3946.9577,N,08404.9830,W,0.0000,0.000,311217,,*35
2017-12-31 18:34:49 1514763289.352676: $GPGSA,A,3,22,23,9,3,16,8,14,31,27,7,26,135,1.7,0.8,1.3*0C
2017-12-31 18:34:50 1514763290.388099: $GPZDA,233451.00,31,12,2017,00,00*61
2017-12-31 18:34:50 1514763290.388266: $GPGGA,233451,3946.9577,N,08404.9830,W,2,12,0.80,307.63,M,-33.324,M,,*7D
2017-12-31 18:34:50 1514763290.388332: $GPRMC,233451,A,3946.9577,N,08404.9830,W,0.0000,0.000,311217,,*34
2017-12-31 18:34:50 1514763290.388393: $GPGSA,A,3,22,23,9,3,16,8,14,31,27,7,26,135,1.7,0.8,1.3*0C
2017-12-31 18:34:51 1514763291.687307: $GPGSV,3,1,12,22,14,208,24,23,63,295,40,09,29,312,43,03,24,226,39*73
2017-12-31 18:34:51 1514763291.687500: $GPGSV,3,2,12,16,85,051,42,08,09,177,21,14,06,138,20,31,21,082,42*76
2017-12-31 18:34:51 1514763291.687569: $GPGSV,3,3,12,27,32,148,41,07,05,280,44,26,52,046,46,135,22,240,44*4C
2017-12-31 18:34:51 1514763291.800871: $GPZDA,233452.00,31,12,2017,00,00*62
2017-12-31 18:34:51 1514763291.801034: $GPGGA,233452,3946.9577,N,08404.9830,W,2,12,0.80,307.63,M,-33.324,M,,*7E
2017-12-31 18:34:51 1514763291.801099: $GPRMC,233452,A,3946.9577,N,08404.9830,W,0.0000,0.000,311217,,*37
2017-12-31 18:34:51 1514763291.801160: $GPGSA,A,3,22,23,9,3,16,8,14,31,27,7,26,135,1.7,0.8,1.3*0C
2017-12-31 18:34:52 1514763292.351766: $GPZDA,233453.00,31,12,2017,00,00*63
2017-12-31 18:34:52 1514763292.351935: $GPGGA,233453,3946.9577,N,08404.9830,W,2,12,0.80,307.63,M,-33.324,M,,*7F
2017-12-31 18:34:52 1514763292.352000: $GPRMC,233453,A,3946.9577,N,08404.9830,W,0.0000,0.000,311217,,*36
2017-12-31 18:34:52 1514763292.352061: $GPGSA,A,3,22,23,9,3,16,8,14,31,27,7,26,135,1.7,0.8,1.3*0C
