2018-01-11 19:45:39 1515717939.036537: {"class":"VERSION","release":"3.16","rev":"3.16-4","proto_major":3,"proto_minor":11}
2018-01-11 19:45:39 1515717939.036887: {"class":"DEVICES","devices":[{"class":"DEVICE","path":"/dev/ttyUSB0","driver":"SiRF","subtype":"9\u0006GSD4e_4.1.2-P1_RPATCH.05-F-GPS-4R-1510281 11/03/2015 307","activated":"2018-01-12T00:45:38.600Z","flags":1,"native":1,"bps":4800,"parity":"N","stopbits":1,"cycle":1.00}]}
2018-01-11 19:45:39 1515717939.037001: {"class":"WATCH","enable":true,"json":false,"nmea":true,"raw":0,"scaled":false,"timing":false,"split24":false,"pps":false}
2018-01-11 19:45:39 1515717939.384435: $GPZDA,004540.00,12,01,2018,00,00*6A
2018-01-11 19:45:39 1515717939.392079: $GPGGA,004540,3946.9609,N,08404.9848,W,2,11,0.80,306.89,M,-33.324,M,,*79
2018-01-11 19:45:39 1515717939.392201: $GPRMC,004540,A,3946.9609,N,08404.9848,W,0.0000,0.000,120118,,*3A
2018-01-11 19:45:39 1515717939.392265: $GPGSA,A,3,7,8,9,11,16,23,27,30,26,28,138,,4.0,0.8,3.5*3A
2018-01-11 19:45:41 1515717941.079669: $GPGSV,3,1,12,07,45,310,38,08,64,157,46,09,55,246,44,11,10,172,29*7B
2018-01-11 19:45:41 1515717941.079847: $GPGSV,3,2,12,16,32,054,48,23,41,193,48,27,56,067,50,30,19,301,37*7C
2018-01-11 19:45:41 1515717941.079911: $GPGSV,3,3,12,21,01,031,02,26,06,066,22,28,06,250,28,138,38,213,45*4B
2018-01-11 19:45:41 1515717941.193282: $GPZDA,004541.00,12,01,2018,00,00*6B
2018-01-11 19:45:41 1515717941.193407: $GPGGA,004541,3946.9609,N,08404.9848,W,2,11,0.80,306.89,M,-33.324,M,,*78
2018-01-11 19:45:41 1515717941.193469: $GPRMC,004541,A,3946.9609,N,08404.9848,W,0.0000,0.000,120118,,*3B
2018-01-11 19:45:41 1515717941.193529: $GPGSA,A,3,7,8,9,11,16,23,27,30,26,28,138,,4.0,0.8,3.5*3A
2018-01-11 19:45:42 1515717942.163681: $GPZDA,004542.00,12,01,2018,00,00*68
2018-01-11 19:45:42 1515717942.163846: $GPGGA,004542,3946.9601,N,08404.9848,W,2,11,0.80,307.02,M,-33.324,M,,*71
2018-01-11 19:45:42 1515717942.163910: $GPRMC,004542,A,3946.9601,N,08404.9848,W,0.0000,0.000,120118,,*30
2018-01-11 19:45:42 1515717942.163970: $GPGSA,A,3,7,8,9,11,16,23,27,30,26,28,138,,4.0,0.8,3.5*3A
2018-01-11 19:45:42 1515717942.774539: $GPZDA,004543.00,12,01,2018,00,00*69
2018-01-11 19:45:42 1515717942.774682: $GPGGA,004543,3946.9601,N,08404.9848,W,2,11,0.80,307.02,M,-33.324,M,,*70
2018-01-11 19:45:42 1515717942.774746: $GPRMC,004543,A,3946.9601,N,08404.9848,W,0.0000,0.000,120118,,*31
2018-01-11 19:45:42 1515717942.774806: $GPGSA,A,3,7,8,9,11,16,23,27,30,26,28,138,,4.0,0.8,3.5*3A
2018-01-11 19:45:42 1515717942.774864: $GPGBS,004543,3.65,M,6.21,M,20.10,M*0E
2018-01-11 19:45:43 1515717943.735755: $GPGSV,3,1,12,07,45,310,39,08,64,157,46,09,55,246,44,11,11,171,29*78
2018-01-11 19:45:43 1515717943.735918: $GPGSV,3,2,12,16,32,054,48,23,41,193,48,27,56,066,50,30,20,301,38*78
2018-01-11 19:45:43 1515717943.735981: $GPGSV,3,3,12,21,01,031,00,26,06,066,22,28,06,250,28,138,38,213,44*48
2018-01-11 19:45:43 1515717943.849406: $GPZDA,004544.00,12,01,2018,00,00*6E
2018-01-11 19:45:43 1515717943.849539: $GPGGA,004544,3946.9601,N,08404.9848,W,2,11,0.80,307.02,M,-33.324,M,,*77
2018-01-11 19:45:43 1515717943.849603: $GPRMC,004544,A,3946.9601,N,08404.9848,W,0.0000,0.000,120118,,*36
2018-01-11 19:45:43 1515717943.849662: $GPGSA,A,3,7,8,9,11,16,23,27,30,26,28,138,,4.0,0.8,3.5*3A
2018-01-11 19:45:44 1515717944.390087: $GPZDA,004545.00,12,01,2018,00,00*6F
2018-01-11 19:45:44 1515717944.395648: $GPGGA,004545,3946.9601,N,08404.9848,W,2,11,0.80,307.02,M,-33.324,M,,*76
2018-01-11 19:45:44 1515717944.395762: $GPRMC,004545,A,3946.9601,N,08404.9848,W,0.0000,0.000,120118,,*37
2018-01-11 19:45:44 1515717944.395825: $GPGSA,A,3,7,8,9,11,16,23,27,30,26,28,138,,4.0,0.8,3.5*3A
2018-01-11 19:45:45 1515717945.386170: $GPZDA,004546.00,12,01,2018,00,00*6C
2018-01-11 19:45:45 1515717945.386331: $GPGGA,004546,3946.9601,N,08404.9848,W,2,11,0.80,307.02,M,-33.324,M,,*75
2018-01-11 19:45:45 1515717945.386396: $GPRMC,004546,A,3946.9601,N,08404.9848,W,0.0000,0.000,120118,,*34
2018-01-11 19:45:45 1515717945.386456: $GPGSA,A,3,7,8,9,11,16,23,27,30,26,28,138,,4.0,0.8,3.5*3A
2018-01-11 19:45:46 1515717946.721594: $GPGSV,3,1,12,07,45,310,39,08,64,157,46,09,55,246,43,11,11,171,29*7F
2018-01-11 19:45:46 1515717946.721817: $GPGSV,3,2,12,16,32,054,48,23,41,193,48,27,56,066,50,30,20,301,39*79
2018-01-11 19:45:46 1515717946.721886: $GPGSV,3,3,12,21,01,031,00,26,06,066,22,28,06,250,28,138,38,213,45*49
2018-01-11 19:45:46 1515717946.835248: $GPZDA,004547.00,12,01,2018,00,00*6D
2018-01-11 19:45:46 1515717946.835369: $GPGGA,004547,3946.9601,N,08404.9848,W,2,11,0.80,307.02,M,-33.324,M,,*74
2018-01-11 19:45:46 1515717946.835432: $GPRMC,004547,A,3946.9601,N,08404.9848,W,0.0000,0.000,120118,,*35
2018-01-11 19:45:46 1515717946.835491: $GPGSA,A,3,7,8,9,11,16,23,27,30,26,28,138,,4.0,0.8,3.5*3A
2018-01-11 19:45:47 1515717947.388465: $GPZDA,004548.00,12,01,2018,00,00*62
2018-01-11 19:45:47 1515717947.388631: $GPGGA,004548,3946.9601,N,08404.9848,W,2,11,0.80,307.02,M,-33.324,M,,*7B
2018-01-11 19:45:47 1515717947.388698: $GPRMC,004548,A,3946.9601,N,08404.9848,W,0.0000,0.000,120118,,*3A
2018-01-11 19:45:47 1515717947.388758: $GPGSA,A,3,7,8,9,11,16,23,27,30,26,28,138,,4.0,0.8,3.5*3A
