2017-12-01 15:39:11 1512160751.367411: {"class":"VERSION","release":"3.16","rev":"3.16-4","proto_major":3,"proto_minor":11}
2017-12-01 15:39:11 1512160751.367843: {"class":"DEVICES","devices":[{"class":"DEVICE","path":"/dev/ttyUSB0","driver":"SiRF","subtype":"9\u0006GSD4e_4.1.2-P1_RPATCH.05-F-GPS-4R-1510281 11/03/2015 307","activated":"2017-12-01T20:39:11.347Z","flags":1,"native":1,"bps":4800,"parity":"N","stopbits":1,"cycle":1.00}]}
2017-12-01 15:39:11 1512160751.367957: {"class":"WATCH","enable":true,"json":false,"nmea":true,"raw":0,"scaled":false,"timing":false,"split24":false,"pps":false}
2017-12-01 15:39:12 1512160752.683866: $GPGSV,3,1,11,01,12,319,37,10,72,127,47,11,10,304,35,12,25,075,43*74
2017-12-01 15:39:12 1512160752.684049: $GPGSV,3,2,11,14,53,288,42,18,40,133,46,24,16,045,43,25,28,117,42*7A
2017-12-01 15:39:12 1512160752.684115: $GPGSV,3,3,11,31,32,211,48,32,67,322,49,138,38,213,46*79
2017-12-01 15:39:12 1512160752.797188: $GPZDA,203913.00,01,12,2017,00,00*6A
2017-12-01 15:39:12 1512160752.797326: $GPGGA,203913,3946.9588,N,08404.9853,W,2,11,0.80,287.96,M,-33.324,M,,*70
2017-12-01 15:39:12 1512160752.797391: $GPRMC,203913,A,3946.9588,N,08404.9853,W,0.0000,0.000,011217,,*3A
2017-12-01 15:39:12 1512160752.797451: $GPGSA,A,3,1,10,11,12,14,18,24,25,31,32,138,,2.0,0.8,1.5*3B
2017-12-01 15:39:13 1512160753.351013: $GPZDA,203914.00,01,12,2017,00,00*6D
2017-12-01 15:39:13 1512160753.351203: $GPGGA,203914,3946.9585,N,08404.9854,W,2,11,0.80,288.73,M,-33.324,M,,*79
2017-12-01 15:39:13 1512160753.351274: $GPRMC,203914,A,3946.9585,N,08404.9854,W,0.0000,0.000,011217,,*37
2017-12-01 15:39:13 1512160753.351339: $GPGSA,A,3,1,10,11,12,14,18,24,25,31,32,138,,2.0,0.8,1.5*3B
2017-12-01 15:39:14 1512160754.341524: $GPZDA,203915.00,01,12,2017,00,00*6C
2017-12-01 15:39:14 1512160754.341710: $GPGGA,203915,3946.9585,N,08404.9854,W,2,11,0.80,288.73,M,-33.324,M,,*78
2017-12-01 15:39:14 1512160754.341781: $GPRMC,203915,A,3946.9585,N,08404.9854,W,0.0000,0.000,011217,,*36
2017-12-01 15:39:14 1512160754.341845: $GPGSA,A,3,1,10,11,12,14,18,24,25,31,32,138,,2.0,0.8,1.5*3B
2017-12-01 15:39:15 1512160755.682220: $GPGSV,3,1,11,01,12,319,37,10,72,127,47,11,10,304,36,12,25,075,43*77
2017-12-01 15:39:15 1512160755.682409: $GPGSV,3,2,11,14,53,288,42,18,40,133,46,24,16,045,42,25,28,117,42*7B
2017-12-01 15:39:15 1512160755.682481: $GPGSV,3,3,11,31,32,211,48,32,67,322,49,138,38,213,45*7A
2017-12-01 15:39:15 1512160755.795741: $GPZDA,203916.00,01,12,2017,00,00*6F
2017-12-01 15:39:15 1512160755.795925: $GPGGA,203916,3946.9585,N,08404.9854,W,2,11,0.80,288.73,M,-33.324,M,,*7B
2017-12-01 15:39:15 1512160755.795999: $GPRMC,203916,A,3946.9585,N,08404.9854,W,0.0000,0.000,011217,,*35
2017-12-01 15:39:15 1512160755.796063: $GPGSA,A,3,1,10,11,12,14,18,24,25,31,32,138,,2.0,0.8,1.5*3B
2017-12-01 15:39:16 1512160756.421082: $GPZDA,203917.00,01,12,2017,00,00*6E
2017-12-01 15:39:16 1512160756.421258: $GPGGA,203917,3946.9589,N,08404.9854,W,2,11,0.80,289.37,M,-33.324,M,,*77
2017-12-01 15:39:16 1512160756.421329: $GPRMC,203917,A,3946.9589,N,08404.9854,W,0.0000,0.000,011217,,*38
2017-12-01 15:39:16 1512160756.421454: $GPGSA,A,3,1,10,11,12,14,18,24,25,31,32,138,,2.0,0.8,1.5*3B
2017-12-01 15:39:17 1512160757.346840: $GPZDA,203918.00,01,12,2017,00,00*61
2017-12-01 15:39:17 1512160757.347021: $GPGGA,203918,3946.9589,N,08404.9854,W,2,11,0.80,289.37,M,-33.324,M,,*78
2017-12-01 15:39:17 1512160757.347091: $GPRMC,203918,A,3946.9589,N,08404.9854,W,0.0000,0.000,011217,,*37
2017-12-01 15:39:17 1512160757.347155: $GPGSA,A,3,1,10,11,12,14,18,24,25,31,32,138,,2.0,0.8,1.5*3B
2017-12-01 15:39:18 1512160758.677634: $GPGSV,3,1,11,01,12,319,37,10,72,127,47,11,10,304,37,12,25,075,43*76
2017-12-01 15:39:18 1512160758.677817: $GPGSV,3,2,11,14,53,288,42,18,40,133,46,24,16,045,43,25,28,117,42*7A
2017-12-01 15:39:18 1512160758.677886: $GPGSV,3,3,11,31,32,211,49,32,67,322,48,138,38,213,46*79
2017-12-01 15:39:18 1512160758.789686: $GPZDA,203919.00,01,12,2017,00,00*60
2017-12-01 15:39:18 1512160758.789835: $GPGGA,203919,3946.9589,N,08404.9854,W,2,11,0.80,289.37,M,-33.324,M,,*79
2017-12-01 15:39:18 1512160758.789956: $GPRMC,203919,A,3946.9589,N,08404.9854,W,0.0000,0.000,011217,,*36
2017-12-01 15:39:18 1512160758.790018: $GPGSA,A,3,1,10,11,12,14,18,24,25,31,32,138,,2.0,0.8,1.5*3B
2017-12-01 15:39:19 1512160759.348070: $GPZDA,203920.00,01,12,2017,00,00*6A
2017-12-01 15:39:19 1512160759.348248: $GPGGA,203920,3946.9589,N,08404.9854,W,2,11,0.80,289.37,M,-33.324,M,,*73
2017-12-01 15:39:19 1512160759.348318: $GPRMC,203920,A,3946.9589,N,08404.9854,W,0.0000,0.000,011217,,*3C
2017-12-01 15:39:19 1512160759.348380: $GPGSA,A,3,1,10,11,12,14,18,24,25,31,32,138,,2.0,0.8,1.5*3B
2017-12-01 15:39:20 1512160760.349006: $GPZDA,203921.00,01,12,2017,00,00*6B
2017-12-01 15:39:20 1512160760.349181: $GPGGA,203921,3946.9589,N,08404.9854,W,2,11,0.80,289.37,M,-33.324,M,,*72
2017-12-01 15:39:20 1512160760.349250: $GPRMC,203921,A,3946.9589,N,08404.9854,W,0.0000,0.000,011217,,*3D
2017-12-01 15:39:20 1512160760.349311: $GPGSA,A,3,1,10,11,12,14,18,24,25,31,32,138,,2.0,0.8,1.5*3B
2017-12-01 15:39:21 1512160761.684196: $GPGSV,3,1,11,01,12,319,38,10,72,127,47,11,10,304,38,12,25,075,43*76
2017-12-01 15:39:21 1512160761.684382: $GPGSV,3,2,11,14,53,288,42,18,40,133,46,24,16,045,43,25,28,117,42*7A
2017-12-01 15:39:21 1512160761.684450: $GPGSV,3,3,11,31,32,211,49,32,67,322,48,138,38,213,45*7A
2017-12-01 15:39:21 1512160761.797600: $GPZDA,203922.00,01,12,2017,00,00*68
2017-12-01 15:39:21 1512160761.797768: $GPGGA,203922,3946.9589,N,08404.9854,W,2,11,0.80,289.37,M,-33.324,M,,*71
2017-12-01 15:39:21 1512160761.797834: $GPRMC,203922,A,3946.9589,N,08404.9854,W,0.0000,0.000,011217,,*3E
2017-12-01 15:39:21 1512160761.797896: $GPGSA,A,3,1,10,11,12,14,18,24,25,31,32,138,,2.0,0.8,1.5*3B
2017-12-01 15:39:22 1512160762.348647: $GPZDA,203923.00,01,12,2017,00,00*69
2017-12-01 15:39:22 1512160762.348817: $GPGGA,203923,3946.9593,N,08404.9854,W,2,11,0.80,290.01,M,-33.324,M,,*76
2017-12-01 15:39:22 1512160762.348884: $GPRMC,203923,A,3946.9593,N,08404.9854,W,0.0000,0.000,011217,,*34
2017-12-01 15:39:22 1512160762.348945: $GPGSA,A,3,1,10,11,12,14,18,24,25,31,32,138,,2.0,0.8,1.5*3B
2017-12-01 15:39:23 1512160763.346880: $GPZDA,203924.00,01,12,2017,00,00*6E
2017-12-01 15:39:23 1512160763.347050: $GPGGA,203924,3946.9593,N,08404.9854,W,2,11,0.80,290.01,M,-33.324,M,,*71
2017-12-01 15:39:23 1512160763.347117: $GPRMC,203924,A,3946.9593,N,08404.9854,W,0.0000,0.000,011217,,*33
2017-12-01 15:39:23 1512160763.347178: $GPGSA,A,3,1,10,11,12,14,18,24,25,31,32,138,,2.0,0.8,1.5*3B
2017-12-01 15:39:24 1512160764.678828: $GPGSV,3,1,11,01,12,319,38,10,72,127,47,11,10,304,39,12,25,075,42*76
2017-12-01 15:39:24 1512160764.679021: $GPGSV,3,2,11,14,53,288,42,18,40,133,46,24,16,045,43,25,28,117,42*7A
2017-12-01 15:39:24 1512160764.679093: $GPGSV,3,3,11,31,32,211,49,32,67,322,48,138,38,213,46*79
2017-12-01 15:39:24 1512160764.792212: $GPZDA,203925.00,01,12,2017,00,00*6F
2017-12-01 15:39:24 1512160764.792387: $GPGGA,203925,3946.9593,N,08404.9854,W,2,11,0.80,290.01,M,-33.324,M,,*70
2017-12-01 15:39:24 1512160764.792458: $GPRMC,203925,A,3946.9593,N,08404.9854,W,0.0000,0.000,011217,,*32
2017-12-01 15:39:24 1512160764.792521: $GPGSA,A,3,1,10,11,12,14,18,24,25,31,32,138,,2.0,0.8,1.5*3B
2017-12-01 15:39:25 1512160765.344393: $GPZDA,203926.00,01,12,2017,00,00*6C
2017-12-01 15:39:25 1512160765.344583: $GPGGA,203926,3946.9593,N,08404.9854,W,2,11,0.80,290.01,M,-33.324,M,,*73
2017-12-01 15:39:25 1512160765.344656: $GPRMC,203926,A,3946.9593,N,08404.9854,W,0.0000,0.000,011217,,*31
2017-12-01 15:39:25 1512160765.344722: $GPGSA,A,3,1,10,11,12,14,18,24,25,31,32,138,,2.0,0.8,1.5*3B
2017-12-01 15:39:26 1512160766.356123: $GPZDA,203927.00,01,12,2017,00,00*6D
2017-12-01 15:39:26 1512160766.356305: $GPGGA,203927,3946.9593,N,08404.9854,W,2,11,0.80,290.01,M,-33.324,M,,*72
2017-12-01 15:39:26 1512160766.356379: $GPRMC,203927,A,3946.9593,N,08404.9854,W,0.0000,0.000,011217,,*30
2017-12-01 15:39:26 1512160766.356447: $GPGSA,A,3,1,10,11,12,14,18,24,25,31,32,138,,2.0,0.8,1.5*3B
2017-12-01 15:39:27 1512160767.683058: $GPGSV,3,1,11,01,12,319,40,10,72,127,47,11,10,304,40,12,25,075,42*77
2017-12-01 15:39:27 1512160767.683301: $GPGSV,3,2,11,14,53,288,42,18,40,133,46,24,16,045,43,25,28,117,42*7A
2017-12-01 15:39:27 1512160767.683392: $GPGSV,3,3,11,31,32,211,49,32,67,322,48,138,38,213,46*79
2017-12-01 15:39:27 1512160767.796414: $GPZDA,203928.00,01,12,2017,00,00*62
2017-12-01 15:39:27 1512160767.796595: $GPGGA,203928,3946.9590,N,08404.9854,W,2,11,0.80,290.77,M,-33.324,M,,*7F
2017-12-01 15:39:27 1512160767.796682: $GPRMC,203928,A,3946.9590,N,08404.9854,W,0.0000,0.000,011217,,*3C
2017-12-01 15:39:27 1512160767.796745: $GPGSA,A,3,1,10,11,12,14,18,24,25,31,32,138,,2.0,0.8,1.5*3B
2017-12-01 15:39:28 1512160768.347441: $GPZDA,203929.00,01,12,2017,00,00*63
2017-12-01 15:39:29 1512160769.334396: $GPGGA,203929,3946.9590,N,08404.9854,W,2,11,0.80,290.77,M,-33.324,M,,*7E
2017-12-01 15:39:29 1512160769.334561: $GPRMC,203929,A,3946.9590,N,08404.9854,W,0.0000,0.000,011217,,*3D
2017-12-01 15:39:29 1512160769.334634: $GPGSA,A,3,1,10,11,12,14,18,24,25,31,32,138,,2.0,0.8,1.5*3B
2017-12-01 15:39:29 1512160769.347141: $GPZDA,203930.00,01,12,2017,00,00*6B
2017-12-01 15:39:29 1512160769.347310: $GPGGA,203930,3946.9590,N,08404.9854,W,2,11,0.80,290.77,M,-33.324,M,,*76
2017-12-01 15:39:29 1512160769.347399: $GPRMC,203930,A,3946.9590,N,08404.9854,W,0.0000,0.000,011217,,*35
2017-12-01 15:39:29 1512160769.347461: $GPGSA,A,3,1,10,11,12,14,18,24,25,31,32,138,,2.0,0.8,1.5*3B
2017-12-01 15:39:30 1512160770.682807: $GPGSV,3,1,11,01,12,319,40,10,72,127,47,11,10,304,40,12,25,075,42*77
2017-12-01 15:39:30 1512160770.682989: $GPGSV,3,2,11,14,53,288,43,18,40,133,46,24,16,045,43,25,28,117,42*7B
2017-12-01 15:39:30 1512160770.683056: $GPGSV,3,3,11,31,32,211,48,32,67,322,48,138,38,213,45*7B
2017-12-01 15:39:30 1512160770.794920: $GPZDA,203931.00,01,12,2017,00,00*6A
2017-12-01 15:39:30 1512160770.795054: $GPGGA,203931,3946.9590,N,08404.9854,W,2,11,0.80,290.77,M,-33.324,M,,*77
2017-12-01 15:39:30 1512160770.795120: $GPRMC,203931,A,3946.9590,N,08404.9854,W,0.0000,0.000,011217,,*34
2017-12-01 15:39:30 1512160770.795180: $GPGSA,A,3,1,10,11,12,14,18,24,25,31,32,138,,2.0,0.8,1.5*3B
