2017-11-15 17:35:45 1510785345.704587: {"class":"VERSION","release":"3.17","rev":"3.17","proto_major":3,"proto_minor":12}
2017-11-15 17:35:45 1510785345.705039: {"class":"DEVICES","devices":[{"class":"DEVICE","path":"/dev/ttyUSB0","driver":"SiRF","subtype":"9\u0006GSD4e_4.1.2-P1_RPATCH.05-F-GPS-4R-1510281 11/03/2015 307","activated":"2017-11-15T22:35:45.687Z","flags":1,"native":1,"bps":4800,"parity":"N","stopbits":1,"cycle":1.00}]}
2017-11-15 17:35:45 1510785345.705154: {"class":"WATCH","enable":true,"json":false,"nmea":true,"raw":0,"scaled":false,"timing":false,"split24":false,"pps":false}
2017-11-15 17:35:45 1510785345.800757: $GPZDA,223544.00,15,11,2017,00,00*60
2017-11-15 17:35:45 1510785345.800922: $GPGGA,223544,3946.9527,N,08404.9478,W,1,07,1.60,300.09,M,-33.324,M,,*7F
2017-11-15 17:35:45 1510785345.800988: $GPRMC,223544,A,3946.9527,N,08404.9478,W,1.1385,209.379,151117,,*38
2017-11-15 17:35:45 1510785345.801044: $GPGSA,A,3,10,25,32,14,18,22,1,,,,,,3.4,1.6,2.9*03
2017-11-15 17:35:46 1510785346.426101: $GPZDA,223545.00,15,11,2017,00,00*61
2017-11-15 17:35:46 1510785346.426264: $GPGGA,223545,3946.9527,N,08404.9478,W,1,07,1.60,300.09,M,-33.324,M,,*7E
2017-11-15 17:35:46 1510785346.426325: $GPRMC,223545,A,3946.9527,N,08404.9478,W,0.4207,219.347,151117,,*3A
2017-11-15 17:35:46 1510785346.426381: $GPGSA,A,3,10,25,32,14,18,22,1,,,,,,3.4,1.6,2.9*03
2017-11-15 17:35:47 1510785347.349465: $GPZDA,223546.00,15,11,2017,00,00*62
2017-11-15 17:35:47 1510785347.349620: $GPGGA,223546,3946.9527,N,08404.9478,W,1,07,1.60,300.09,M,-33.324,M,,*7D
2017-11-15 17:35:47 1510785347.349680: $GPRMC,223546,A,3946.9527,N,08404.9478,W,0.2422,273.794,151117,,*38
2017-11-15 17:35:47 1510785347.349737: $GPGSA,A,3,10,25,32,14,18,22,1,,,,,,3.4,1.6,2.9*03
2017-11-15 17:35:48 1510785348.664029: $GPGSV,3,1,12,10,49,148,13,25,39,091,22,32,69,025,22,14,66,327,24*72
2017-11-15 17:35:48 1510785348.664201: $GPGSV,3,2,12,18,19,144,10,12,22,051,01,31,54,225,00,22,18,312,17*75
2017-11-15 17:35:48 1510785348.664262: $GPGSV,3,3,12,11,08,282,00,01,21,301,18,26,01,183,00,135,23,238,00*43
2017-11-15 17:35:48 1510785348.777396: $GPZDA,223547.00,15,11,2017,00,00*63
2017-11-15 17:35:48 1510785348.777538: $GPGGA,223547,3946.9527,N,08404.9478,W,1,07,1.60,300.09,M,-33.324,M,,*7C
2017-11-15 17:35:48 1510785348.777597: $GPRMC,223547,A,3946.9527,N,08404.9478,W,0.3423,4.197,151117,,*3E
2017-11-15 17:35:48 1510785348.777652: $GPGSA,A,3,10,25,32,14,18,22,1,,,,,,3.4,1.6,2.9*03
2017-11-15 17:35:49 1510785349.351984: $GPZDA,223548.00,15,11,2017,00,00*6C
2017-11-15 17:35:49 1510785349.352144: $GPGGA,223548,3946.9527,N,08404.9478,W,1,07,1.60,300.09,M,-33.324,M,,*73
2017-11-15 17:35:49 1510785349.352205: $GPRMC,223548,A,3946.9527,N,08404.9478,W,0.2422,273.794,151117,,*36
2017-11-15 17:35:49 1510785349.352261: $GPGSA,A,3,10,25,32,14,18,22,1,,,,,,3.4,1.6,2.9*03
2017-11-15 17:35:50 1510785350.329217: $GPZDA,223549.00,15,11,2017,00,00*6D
2017-11-15 17:35:50 1510785350.488136: $GPGGA,223549,3946.9523,N,08404.9478,W,1,07,1.60,299.45,M,-33.324,M,,*7F
2017-11-15 17:35:50 1510785350.488282: $GPRMC,223549,A,3946.9523,N,08404.9478,W,0.5306,114.352,151117,,*39
2017-11-15 17:35:50 1510785350.488344: $GPGSA,A,3,10,25,32,14,18,22,1,,,,,,3.4,1.6,2.9*03
2017-11-15 17:35:51 1510785351.687081: $GPGSV,3,1,12,10,49,148,14,25,39,091,23,32,69,025,21,14,66,327,24*77
2017-11-15 17:35:51 1510785351.687250: $GPGSV,3,2,12,18,19,144,09,26,01,183,10,31,54,225,16,22,18,312,17*72
2017-11-15 17:35:51 1510785351.687311: $GPGSV,3,3,12,12,22,051,00,01,21,301,18,11,08,282,00,135,23,238,00*4B
2017-11-15 17:35:51 1510785351.800347: $GPZDA,223550.00,15,11,2017,00,00*65
2017-11-15 17:35:51 1510785351.800493: $GPGGA,223550,3946.9526,N,08404.9477,W,1,07,1.60,298.69,M,-33.324,M,,*72
2017-11-15 17:35:51 1510785351.800552: $GPRMC,223550,A,3946.9526,N,08404.9477,W,0.2422,93.794,151117,,*0D
2017-11-15 17:35:51 1510785351.800607: $GPGSA,A,3,10,25,32,14,18,22,1,,,,,,3.4,1.6,2.9*03
2017-11-15 17:35:52 1510785352.352469: $GPZDA,223551.00,15,11,2017,00,00*64
2017-11-15 17:35:52 1510785352.352632: $GPGGA,223551,3946.9526,N,08404.9470,W,1,07,1.20,298.77,M,-33.324,M,,*7F
2017-11-15 17:35:52 1510785352.352746: $GPRMC,223551,A,3946.9526,N,08404.9470,W,0.4844,93.794,151117,,*01
2017-11-15 17:35:52 1510785352.352805: $GPGSA,A,3,10,25,32,14,18,22,1,,,,,,3.4,1.2,2.9*07
2017-11-15 17:35:53 1510785353.352069: $GPZDA,223552.00,15,11,2017,00,00*67
2017-11-15 17:35:53 1510785353.352224: $GPGGA,223552,3946.9526,N,08404.9470,W,1,07,1.20,298.77,M,-33.324,M,,*7C
2017-11-15 17:35:53 1510785353.352285: $GPRMC,223552,A,3946.9526,N,08404.9470,W,0.4207,39.347,151117,,*05
2017-11-15 17:35:53 1510785353.352342: $GPGSA,A,3,10,25,32,14,18,22,1,,,,,,3.4,1.2,2.9*07
2017-11-15 17:35:54 1510785354.666632: $GPGSV,3,1,12,10,49,148,14,25,39,091,23,32,69,025,21,14,66,327,24*77
2017-11-15 17:35:54 1510785354.666862: $GPGSV,3,2,12,18,19,144,08,26,01,183,10,31,54,225,18,22,18,312,17*7D
2017-11-15 17:35:54 1510785354.666932: $GPGSV,3,3,12,12,22,051,00,01,21,301,18,11,08,282,00,135,23,238,00*4B
2017-11-15 17:35:54 1510785354.779901: $GPZDA,223553.00,15,11,2017,00,00*66
2017-11-15 17:35:54 1510785354.780094: $GPGGA,223553,3946.9526,N,08404.9470,W,1,08,1.40,298.77,M,-33.324,M,,*74
2017-11-15 17:35:54 1510785354.780160: $GPRMC,223553,A,3946.9526,N,08404.9470,W,0.3423,4.197,151117,,*32
2017-11-15 17:35:54 1510785354.780220: $GPGSA,A,3,10,25,32,14,18,31,22,1,,,,,3.4,1.4,2.9*03
2017-11-15 17:35:55 1510785355.352424: $GPZDA,223554.00,15,11,2017,00,00*61
2017-11-15 17:35:56 1510785356.596317: $GPGGA,223554,3946.9526,N,08404.9470,W,1,08,1.20,298.77,M,-33.324,M,,*75
2017-11-15 17:35:56 1510785356.596471: $GPRMC,223554,A,3946.9526,N,08404.9470,W,0.3423,4.197,151117,,*35
2017-11-15 17:35:56 1510785356.596535: $GPGSA,A,3,10,25,32,14,18,31,22,1,,,,,3.4,1.2,2.9*05
2017-11-15 17:35:56 1510785356.596626: $GPZDA,223555.00,15,11,2017,00,00*60
2017-11-15 17:35:56 1510785356.596683: $GPGGA,223555,3946.9526,N,08404.9470,W,1,08,1.20,298.77,M,-33.324,M,,*74
2017-11-15 17:35:56 1510785356.596800: $GPRMC,223555,A,3946.9526,N,08404.9470,W,0.4844,93.794,151117,,*05
2017-11-15 17:35:56 1510785356.596863: $GPGSA,A,3,10,25,32,14,18,31,22,1,,,,,3.4,1.2,2.9*05
2017-11-15 17:35:57 1510785357.667103: $GPGSV,3,1,12,10,49,148,15,25,39,091,24,32,69,025,21,14,66,327,24*71
2017-11-15 17:35:57 1510785357.667278: $GPGSV,3,2,12,18,19,144,09,12,22,051,00,31,54,225,18,22,18,312,17*75
2017-11-15 17:35:57 1510785357.667341: $GPGSV,3,3,12,11,08,282,00,01,21,301,19,26,01,183,00,120,07,103,00*4B
2017-11-15 17:35:57 1510785357.779104: $GPZDA,223556.00,15,11,2017,00,00*63
2017-11-15 17:35:57 1510785357.779264: $GPGGA,223556,3946.9525,N,08404.9463,W,1,08,1.20,298.84,M,-33.324,M,,*7A
2017-11-15 17:35:57 1510785357.779329: $GPRMC,223556,A,3946.9525,N,08404.9463,W,0.4844,93.794,151117,,*07
2017-11-15 17:35:57 1510785357.779389: $GPGSA,A,3,10,25,32,14,18,31,22,1,,,,,3.4,1.2,2.9*05
2017-11-15 17:35:58 1510785358.352419: $GPZDA,223557.00,15,11,2017,00,00*62
2017-11-15 17:35:58 1510785358.352587: $GPGGA,223557,3946.9525,N,08404.9463,W,1,08,1.20,298.84,M,-33.324,M,,*7B
2017-11-15 17:35:58 1510785358.352652: $GPRMC,223557,A,3946.9525,N,08404.9463,W,0.4844,93.794,151117,,*06
2017-11-15 17:35:58 1510785358.352712: $GPGSA,A,3,10,25,32,14,18,31,22,1,,,,,3.4,1.2,2.9*05
2017-11-15 17:35:59 1510785359.352059: $GPZDA,223558.00,15,11,2017,00,00*6D
2017-11-15 17:35:59 1510785359.352234: $GPGGA,223558,3946.9525,N,08404.9463,W,1,08,1.40,298.84,M,-33.324,M,,*72
2017-11-15 17:35:59 1510785359.352301: $GPRMC,223558,A,3946.9525,N,08404.9463,W,0.4207,39.347,151117,,*0E
2017-11-15 17:35:59 1510785359.352360: $GPGSA,A,3,10,25,32,14,18,31,22,1,,,,,3.4,1.4,2.9*03
2017-11-15 17:36:00 1510785360.687856: $GPGSV,3,1,12,10,49,148,16,25,39,091,24,32,69,025,20,14,66,327,24*73
2017-11-15 17:36:00 1510785360.688041: $GPGSV,3,2,12,18,19,144,06,26,01,183,14,31,54,225,18,22,18,312,17*77
2017-11-15 17:36:00 1510785360.688103: $GPGSV,3,3,12,12,22,051,00,01,21,301,19,11,08,282,00,120,07,103,00*43
2017-11-15 17:36:00 1510785360.801172: $GPZDA,223559.00,15,11,2017,00,00*6C
2017-11-15 17:36:00 1510785360.801338: $GPGGA,223559,3946.9525,N,08404.9463,W,1,08,1.40,298.84,M,-33.324,M,,*73
2017-11-15 17:36:00 1510785360.801454: $GPRMC,223559,A,3946.9525,N,08404.9463,W,0.0000,0.000,151117,,*34
2017-11-15 17:36:00 1510785360.801514: $GPGSA,A,3,10,25,32,14,18,31,22,1,,,,,3.4,1.4,2.9*03
2017-11-15 17:36:01 1510785361.426561: $GPZDA,223600.00,15,11,2017,00,00*63
2017-11-15 17:36:01 1510785361.426766: $GPGGA,223600,3946.9533,N,08404.9462,W,1,08,1.40,298.72,M,-33.324,M,,*73
2017-11-15 17:36:01 1510785361.426842: $GPRMC,223600,A,3946.9533,N,08404.9462,W,0.4207,39.347,151117,,*06
2017-11-15 17:36:01 1510785361.426906: $GPGSA,A,3,10,25,32,14,18,31,22,1,,,,,3.4,1.4,2.9*03
2017-11-15 17:36:02 1510785362.353666: $GPZDA,223601.00,15,11,2017,00,00*62
2017-11-15 17:36:02 1510785362.353834: $GPGGA,223601,3946.9533,N,08404.9462,W,1,08,1.40,298.72,M,-33.324,M,,*72
2017-11-15 17:36:02 1510785362.353898: $GPRMC,223601,A,3946.9533,N,08404.9462,W,0.7246,344.668,151117,,*30
2017-11-15 17:36:02 1510785362.353955: $GPGSA,A,3,10,25,32,14,18,31,22,1,,,,,3.4,1.4,2.9*03
2017-11-15 17:36:03 1510785363.688217: $GPGSV,3,1,12,10,49,148,17,25,39,091,25,32,69,025,20,14,66,327,24*73
2017-11-15 17:36:03 1510785363.688392: $GPGSV,3,2,12,18,19,144,08,26,01,183,14,31,54,225,18,22,18,312,17*79
2017-11-15 17:36:03 1510785363.688453: $GPGSV,3,3,12,12,22,051,11,01,21,301,19,11,08,282,00,120,07,103,00*43
2017-11-15 17:36:03 1510785363.801798: $GPZDA,223602.00,15,11,2017,00,00*61
2017-11-15 17:36:03 1510785363.801961: $GPGGA,223602,3946.9533,N,08404.9462,W,1,08,1.20,298.72,M,-33.324,M,,*77
2017-11-15 17:36:03 1510785363.802024: $GPRMC,223602,A,3946.9533,N,08404.9462,W,0.5287,2.716,151117,,*35
2017-11-15 17:36:03 1510785363.802079: $GPGSA,A,3,10,25,32,14,18,31,22,1,,,,,3.4,1.2,2.9*05
2017-11-15 17:36:04 1510785364.352777: $GPZDA,223603.00,15,11,2017,00,00*60
2017-11-15 17:36:04 1510785364.352937: $GPGGA,223603,3946.9533,N,08404.9462,W,1,08,1.20,298.72,M,-33.324,M,,*76
2017-11-15 17:36:04 1510785364.352999: $GPRMC,223603,A,3946.9533,N,08404.9462,W,0.6846,4.197,151117,,*39
2017-11-15 17:36:04 1510785364.353055: $GPGSA,A,3,10,25,32,14,18,31,22,1,,,,,3.4,1.2,2.9*05
2017-11-15 17:36:05 1510785365.354823: $GPZDA,223604.00,15,11,2017,00,00*67
2017-11-15 17:36:05 1510785365.354976: $GPGGA,223604,3946.9536,N,08404.9462,W,1,08,1.20,297.96,M,-33.324,M,,*71
2017-11-15 17:36:05 1510785365.355035: $GPRMC,223604,A,3946.9536,N,08404.9462,W,0.7278,23.636,151117,,*04
2017-11-15 17:36:05 1510785365.355091: $GPGSA,A,3,10,25,32,14,18,31,22,1,,,,,3.4,1.2,2.9*05
2017-11-15 17:36:06 1510785366.667332: $GPGSV,3,1,12,10,49,148,17,25,39,091,25,32,69,025,20,14,66,327,24*73
2017-11-15 17:36:06 1510785366.667479: $GPGSV,3,2,12,18,19,144,08,26,01,183,10,31,54,225,18,22,18,312,18*72
2017-11-15 17:36:06 1510785366.667537: $GPGSV,3,3,12,12,22,051,12,01,21,301,19,11,08,282,00,120,07,103,00*40
2017-11-15 17:36:06 1510785366.781021: $GPZDA,223605.00,15,11,2017,00,00*66
2017-11-15 17:36:06 1510785366.781196: $GPGGA,223605,3946.9540,N,08404.9462,W,1,09,1.20,298.60,M,-33.324,M,,*76
2017-11-15 17:36:06 1510785366.781257: $GPRMC,223605,A,3946.9540,N,08404.9462,W,0.5467,339.487,151117,,*3E
2017-11-15 17:36:06 1510785366.781314: $GPGSA,A,3,10,25,32,14,18,31,22,12,1,,,,3.4,1.2,2.9*06
2017-11-15 17:36:07 1510785367.354247: $GPZDA,223606.00,15,11,2017,00,00*65
2017-11-15 17:36:07 1510785367.354415: $GPGGA,223606,3946.9540,N,08404.9462,W,1,09,1.20,298.60,M,-33.324,M,,*75
2017-11-15 17:36:07 1510785367.354476: $GPRMC,223606,A,3946.9540,N,08404.9462,W,0.4179,328.778,151117,,*35
2017-11-15 17:36:07 1510785367.354532: $GPGSA,A,3,10,25,32,14,18,31,22,12,1,,,,3.4,1.2,2.9*06
2017-11-15 17:36:08 1510785368.331212: $GPZDA,223607.00,15,11,2017,00,00*64
2017-11-15 17:36:08 1510785368.331372: $GPGGA,223607,3946.9541,N,08404.9469,W,1,09,1.20,298.52,M,-33.324,M,,*7F
2017-11-15 17:36:08 1510785368.331433: $GPRMC,223607,A,3946.9541,N,08404.9469,W,0.7621,287.945,151117,,*33
2017-11-15 17:36:08 1510785368.331489: $GPGSA,A,3,10,25,32,14,18,31,22,12,1,,,,3.4,1.2,2.9*06
2017-11-15 17:36:09 1510785369.665721: $GPGSV,3,1,12,10,49,148,18,25,39,091,25,32,69,025,20,14,66,327,24*7C
2017-11-15 17:36:09 1510785369.665943: $GPGSV,3,2,12,18,19,144,06,11,08,282,00,31,54,225,18,22,18,312,17*7D
2017-11-15 17:36:09 1510785369.666005: $GPGSV,3,3,12,12,22,051,13,01,21,301,19,26,01,183,00,120,07,103,00*4E
2017-11-15 17:36:09 1510785369.779381: $GPZDA,223608.00,15,11,2017,00,00*6B
2017-11-15 17:36:09 1510785369.779542: $GPGGA,223608,3946.9541,N,08404.9469,W,1,08,1.20,298.52,M,-33.324,M,,*71
2017-11-15 17:36:09 1510785369.779603: $GPRMC,223608,A,3946.9541,N,08404.9469,W,0.7238,320.710,151117,,*32
2017-11-15 17:36:09 1510785369.779658: $GPGSA,A,3,10,25,32,14,31,22,12,1,,,,,3.4,1.2,2.9*0F
2017-11-15 17:36:10 1510785370.331141: $GPZDA,223609.00,15,11,2017,00,00*6A
2017-11-15 17:36:10 1510785370.331308: $GPGGA,223609,3946.9545,N,08404.9469,W,1,08,1.20,299.16,M,-33.324,M,,*75
2017-11-15 17:36:10 1510785370.331371: $GPRMC,223609,A,3946.9545,N,08404.9469,W,0.7246,344.668,151117,,*32
2017-11-15 17:36:10 1510785370.331430: $GPGSA,A,3,10,25,32,14,31,22,12,1,,,,,3.4,1.2,2.9*0F
2017-11-15 17:36:11 1510785371.330694: $GPZDA,223610.00,15,11,2017,00,00*62
2017-11-15 17:36:11 1510785371.330861: $GPGGA,223610,3946.9549,N,08404.9475,W,1,08,1.20,298.31,M,-33.324,M,,*78
2017-11-15 17:36:11 1510785371.330925: $GPRMC,223610,A,3946.9549,N,08404.9475,W,0.9060,347.792,151117,,*34
2017-11-15 17:36:11 1510785371.330985: $GPGSA,A,3,10,25,32,14,31,22,12,1,,,,,3.4,1.2,2.9*0F
2017-11-15 17:36:12 1510785372.666167: $GPGSV,3,1,12,10,49,148,18,25,39,091,25,32,69,025,20,14,66,327,24*7C
2017-11-15 17:36:12 1510785372.666343: $GPGSV,3,2,12,18,19,144,06,26,01,183,15,31,54,225,17,22,18,312,17*79
2017-11-15 17:36:12 1510785372.666406: $GPGSV,3,3,12,12,22,051,12,01,21,301,19,11,08,282,00,120,07,103,00*40
2017-11-15 17:36:12 1510785372.779917: $GPZDA,223611.00,15,11,2017,00,00*63
2017-11-15 17:36:12 1510785372.780087: $GPGGA,223611,3946.9553,N,08404.9475,W,1,08,1.20,298.95,M,-33.324,M,,*7C
2017-11-15 17:36:12 1510785372.780151: $GPRMC,223611,A,3946.9553,N,08404.9475,W,1.3082,341.818,151117,,*32
2017-11-15 17:36:12 1510785372.780210: $GPGSA,A,3,10,25,32,14,31,22,12,1,,,,,3.4,1.2,2.9*0F
2017-11-15 17:36:13 1510785373.330644: $GPZDA,223612.00,15,11,2017,00,00*60
2017-11-15 17:36:13 1510785373.330811: $GPGGA,223612,3946.9556,N,08404.9474,W,1,08,1.20,298.19,M,-33.324,M,,*7F
2017-11-15 17:36:13 1510785373.330874: $GPRMC,223612,A,3946.9556,N,08404.9474,W,1.1323,338.868,151117,,*36
2017-11-15 17:36:13 1510785373.330933: $GPGSA,A,3,10,25,32,14,31,22,12,1,,,,,3.4,1.2,2.9*0F
2017-11-15 17:36:14 1510785374.330072: $GPZDA,223613.00,15,11,2017,00,00*61
2017-11-15 17:36:14 1510785374.330238: $GPGGA,223613,3946.9561,N,08404.9481,W,1,08,1.20,298.75,M,-33.324,M,,*7A
2017-11-15 17:36:14 1510785374.330301: $GPRMC,223613,A,3946.9561,N,08404.9481,W,0.8359,328.778,151117,,*33
2017-11-15 17:36:14 1510785374.330362: $GPGSA,A,3,10,25,32,14,31,22,12,1,,,,,3.4,1.2,2.9*0F
2017-11-15 17:36:15 1510785375.665813: $GPGSV,3,1,12,10,49,148,19,25,39,091,26,32,69,025,20,14,66,327,24*7E
2017-11-15 17:36:15 1510785375.665992: $GPGSV,3,2,12,18,19,144,05,26,01,183,14,31,54,225,16,22,18,312,17*7A
2017-11-15 17:36:15 1510785375.666056: $GPGSV,3,3,12,12,22,051,13,01,21,301,18,11,08,282,00,120,07,103,00*40
2017-11-15 17:36:15 1510785375.779174: $GPZDA,223614.00,15,11,2017,00,00*66
2017-11-15 17:36:15 1510785375.779342: $GPGGA,223614,3946.9561,N,08404.9481,W,1,09,1.20,298.75,M,-33.324,M,,*7C
2017-11-15 17:36:15 1510785375.779406: $GPRMC,223614,A,3946.9561,N,08404.9481,W,0.7246,344.668,151117,,*3E
2017-11-15 17:36:15 1510785375.779466: $GPGSA,A,3,10,25,32,14,26,31,22,12,1,,,,3.4,1.2,2.9*0B
