2017-11-15 18:16:59 1510787819.884944: {"class":"VERSION","release":"3.17","rev":"3.17","proto_major":3,"proto_minor":12}
2017-11-15 18:16:59 1510787819.885453: {"class":"DEVICES","devices":[{"class":"DEVICE","path":"/dev/ttyUSB0","driver":"SiRF","subtype":"9\u0006GSD4e_4.1.2-P1_RPATCH.05-F-GPS-4R-1510281 11/03/2015 307","activated":"2017-11-15T23:16:59.500Z","flags":1,"native":1,"bps":4800,"parity":"N","stopbits":1,"cycle":1.00}]}
2017-11-15 18:16:59 1510787819.885570: {"class":"WATCH","enable":true,"json":false,"nmea":true,"raw":0,"scaled":false,"timing":false,"split24":false,"pps":false}
2017-11-15 18:17:00 1510787820.665820: $GPGSV,3,1,11,10,29,154,11,22,34,307,04,01,21,282,14,26,18,180,16*7A
2017-11-15 18:17:00 1510787820.666022: $GPGSV,3,2,11,31,73,252,16,32,60,067,22,25,39,066,17,14,70,018,16*7D
2017-11-15 18:17:00 1510787820.666083: $GPGSV,3,3,11,03,14,316,00,12,12,036,00,11,02,267,00*4F
2017-11-15 18:17:00 1510787820.779441: $GPZDA,231659.00,15,11,2017,00,00*6C
2017-11-15 18:17:00 1510787820.779598: $GPGGA,231659,3946.9721,N,08404.9618,W,1,06,5.20,303.78,M,-33.325,M,,*76
2017-11-15 18:17:00 1510787820.779657: $GPRMC,231659,A,3946.9721,N,08404.9618,W,0.9060,347.792,151117,,*3F
2017-11-15 18:17:00 1510787820.779714: $GPGSA,A,3,10,26,31,32,25,14,,,,,,,3.4,5.2,2.9*3D
2017-11-15 18:17:01 1510787821.404912: $GPZDA,231700.00,15,11,2017,00,00*61
2017-11-15 18:17:01 1510787821.405071: $GPGGA,231700,3946.9721,N,08404.9618,W,1,06,5.20,303.78,M,-33.325,M,,*7B
2017-11-15 18:17:01 1510787821.405132: $GPRMC,231700,A,3946.9721,N,08404.9618,W,0.7246,344.668,151117,,*3D
2017-11-15 18:17:01 1510787821.405188: $GPGSA,A,3,10,26,31,32,25,14,,,,,,,3.4,5.2,2.9*3D
2017-11-15 18:17:02 1510787822.329524: $GPZDA,231701.00,15,11,2017,00,00*60
2017-11-15 18:17:02 1510787822.329684: $GPGGA,231701,3946.9725,N,08404.9618,W,1,06,1.20,304.42,M,-33.325,M,,*74
2017-11-15 18:17:02 1510787822.329767: $GPRMC,231701,A,3946.9725,N,08404.9618,W,1.2132,3.551,151117,,*35
2017-11-15 18:17:02 1510787822.329825: $GPGSA,A,3,10,26,31,32,25,14,,,,,,,3.4,1.2,2.9*39
2017-11-15 18:17:03 1510787823.664914: $GPGSV,3,1,11,10,29,154,00,22,34,307,12,01,21,282,00,26,18,180,16*78
2017-11-15 18:17:03 1510787823.665075: $GPGSV,3,2,11,31,73,252,16,32,60,067,22,25,39,066,18,14,70,018,16*72
2017-11-15 18:17:03 1510787823.665136: $GPGSV,3,3,11,03,14,316,00,12,12,036,00,11,02,267,00*4F
2017-11-15 18:17:03 1510787823.778289: $GPZDA,231702.00,15,11,2017,00,00*63
2017-11-15 18:17:03 1510787823.778452: $GPGGA,231702,3946.9729,N,08404.9617,W,1,06,1.20,303.66,M,-33.325,M,,*75
2017-11-15 18:17:03 1510787823.778513: $GPRMC,231702,A,3946.9729,N,08404.9617,W,1.2381,352.270,151117,,*3C
2017-11-15 18:17:03 1510787823.778570: $GPGSA,A,3,22,26,31,32,25,14,,,,,,,3.4,1.2,2.9*38
2017-11-15 18:17:04 1510787824.329586: $GPZDA,231703.00,15,11,2017,00,00*62
2017-11-15 18:17:04 1510787824.329765: $GPGGA,231703,3946.9733,N,08404.9624,W,1,06,1.20,304.22,M,-33.325,M,,*78
2017-11-15 18:17:04 1510787824.329827: $GPRMC,231703,A,3946.9733,N,08404.9624,W,1.3082,341.818,151117,,*31
2017-11-15 18:17:04 1510787824.329900: $GPGSA,A,3,22,26,31,32,25,14,,,,,,,3.4,1.2,2.9*38
2017-11-15 18:17:05 1510787825.360632: $GPZDA,231704.00,15,11,2017,00,00*65
2017-11-15 18:17:05 1510787825.360815: $GPGGA,231704,3946.9733,N,08404.9624,W,1,06,5.20,304.22,M,-33.325,M,,*7B
2017-11-15 18:17:05 1510787825.360894: $GPRMC,231704,A,3946.9733,N,08404.9624,W,1.3084,315.525,151117,,*32
2017-11-15 18:17:05 1510787825.360950: $GPGSA,A,3,22,26,31,32,25,14,,,,,,,3.4,5.2,2.9*3C
2017-11-15 18:17:06 1510787826.666875: $GPGSV,3,1,11,01,21,282,03,22,34,307,04,10,29,154,00,26,18,180,16*7C
2017-11-15 18:17:06 1510787826.667122: $GPGSV,3,2,11,31,73,252,16,32,60,067,21,25,39,066,18,14,70,018,15*72
2017-11-15 18:17:06 1510787826.667199: $GPGSV,3,3,11,03,14,316,00,12,12,036,00,11,02,267,00*4F
2017-11-15 18:17:06 1510787826.780531: $GPZDA,231705.00,15,11,2017,00,00*64
2017-11-15 18:17:06 1510787826.780690: $GPGGA,231705,3946.9737,N,08404.9630,W,1,05,5.20,303.38,M,-33.325,M,,*74
2017-11-15 18:17:06 1510787826.780775: $GPRMC,231705,A,3946.9737,N,08404.9630,W,1.7007,304.596,151117,,*35
2017-11-15 18:17:06 1510787826.780909: $GPGSA,A,3,26,31,32,25,14,,,,,,,,3.4,5.2,2.9*3C
2017-11-15 18:17:07 1510787827.361458: $GPZDA,231706.00,15,11,2017,00,00*67
2017-11-15 18:17:07 1510787827.361646: $GPGGA,231706,3946.9741,N,08404.9637,W,1,05,5.20,303.94,M,-33.325,M,,*77
2017-11-15 18:17:07 1510787827.361732: $GPRMC,231706,A,3946.9741,N,08404.9637,W,2.2249,302.165,151117,,*30
2017-11-15 18:17:07 1510787827.361792: $GPGSA,A,3,26,31,32,25,14,,,,,,,,3.4,5.2,2.9*3C
2017-11-15 18:17:08 1510787828.328036: $GPZDA,231707.00,15,11,2017,00,00*66
2017-11-15 18:17:08 1510787828.328193: $GPGGA,231707,3946.9742,N,08404.9644,W,1,05,5.20,303.86,M,-33.325,M,,*72
2017-11-15 18:17:08 1510787828.328254: $GPRMC,231707,A,3946.9742,N,08404.9644,W,2.0150,305.439,151117,,*34
2017-11-15 18:17:08 1510787828.328310: $GPGSA,A,3,26,31,32,25,14,,,,,,,,3.4,5.2,2.9*3C
2017-11-15 18:17:09 1510787829.695102: $GPGSV,3,1,12,01,21,282,14,22,34,307,04,10,29,154,00,26,18,180,16*79
2017-11-15 18:17:09 1510787829.695271: $GPGSV,3,2,12,31,73,252,16,32,60,067,21,25,39,066,19,14,70,018,15*70
2017-11-15 18:17:09 1510787829.695331: $GPGSV,3,3,12,03,14,316,00,12,12,036,00,11,02,267,00,138,38,213,00*4D
2017-11-15 18:17:09 1510787829.808389: $GPZDA,231708.00,15,11,2017,00,00*69
2017-11-15 18:17:09 1510787829.808550: $GPGGA,231708,3946.9746,N,08404.9651,W,1,05,5.20,304.42,M,-33.325,M,,*72
2017-11-15 18:17:09 1510787829.808625: $GPRMC,231708,A,3946.9746,N,08404.9651,W,1.8971,313.549,151117,,*3A
2017-11-15 18:17:09 1510787829.808700: $GPGSA,A,3,26,31,32,25,14,,,,,,,,3.4,5.2,2.9*3C
2017-11-15 18:17:10 1510787830.329249: $GPZDA,231709.00,15,11,2017,00,00*68
2017-11-15 18:17:10 1510787830.329414: $GPGGA,231709,3946.9750,N,08404.9658,W,1,05,5.20,303.58,M,-33.325,M,,*71
2017-11-15 18:17:10 1510787830.329477: $GPRMC,231709,A,3946.9750,N,08404.9658,W,1.8971,313.549,151117,,*35
2017-11-15 18:17:10 1510787830.329533: $GPGSA,A,3,26,31,32,25,14,,,,,,,,3.4,5.2,2.9*3C
2017-11-15 18:17:11 1510787831.359613: $GPZDA,231710.00,15,11,2017,00,00*60
2017-11-15 18:17:11 1510787831.359788: $GPGGA,231710,3946.9750,N,08404.9658,W,1,05,5.20,303.58,M,-33.325,M,,*79
2017-11-15 18:17:11 1510787831.359866: $GPRMC,231710,A,3946.9750,N,08404.9658,W,1.4978,309.345,151117,,*39
2017-11-15 18:17:11 1510787831.359924: $GPGSA,A,3,26,31,32,25,14,,,,,,,,3.4,5.2,2.9*3C
2017-11-15 18:17:12 1510787832.662888: $GPGSV,3,1,12,22,34,307,00,10,29,154,00,01,21,282,00,26,18,180,16*78
2017-11-15 18:17:12 1510787832.663059: $GPGSV,3,2,12,31,73,252,15,32,60,067,20,25,39,066,20,14,70,018,16*7B
2017-11-15 18:17:12 1510787832.663119: $GPGSV,3,3,12,03,14,316,00,12,12,036,00,11,02,267,00,138,38,213,00*4D
2017-11-15 18:17:12 1510787832.776223: $GPZDA,231711.00,15,11,2017,00,00*61
2017-11-15 18:17:12 1510787832.776379: $GPGGA,231711,3946.9755,N,08404.9665,W,1,05,5.00,304.14,M,-33.325,M,,*7E
2017-11-15 18:17:12 1510787832.776439: $GPRMC,231711,A,3946.9755,N,08404.9665,W,1.4168,332.695,151117,,*3A
2017-11-15 18:17:12 1510787832.776495: $GPGSA,A,3,26,31,32,25,14,,,,,,,,3.4,5.0,2.9*3E
2017-11-15 18:17:13 1510787833.328750: $GPZDA,231712.00,15,11,2017,00,00*62
2017-11-15 18:17:13 1510787833.329046: $GPGGA,231712,3946.9758,N,08404.9664,W,1,05,5.00,303.37,M,-33.325,M,,*77
2017-11-15 18:17:13 1510787833.329164: $GPRMC,231712,A,3946.9758,N,08404.9664,W,1.9730,325.827,151117,,*32
2017-11-15 18:17:13 1510787833.329279: $GPGSA,A,3,26,31,32,25,14,,,,,,,,3.4,5.0,2.9*3E
2017-11-15 18:17:14 1510787834.360763: $GPZDA,231713.00,15,11,2017,00,00*63
2017-11-15 18:17:14 1510787834.361039: $GPGGA,231713,3946.9762,N,08404.9664,W,1,05,5.00,304.01,M,-33.325,M,,*7D
2017-11-15 18:17:14 1510787834.361157: $GPRMC,231713,A,3946.9762,N,08404.9664,W,2.1309,336.740,151117,,*33
2017-11-15 18:17:14 1510787834.361276: $GPGSA,A,3,26,31,32,25,14,,,,,,,,3.4,5.0,2.9*3E
2017-11-15 18:17:15 1510787835.663868: $GPGSV,3,1,12,22,34,307,00,10,29,154,00,01,21,282,00,26,18,180,16*78
2017-11-15 18:17:15 1510787835.664031: $GPGSV,3,2,12,31,73,252,15,32,60,067,20,25,39,066,20,14,70,018,16*7B
2017-11-15 18:17:15 1510787835.664139: $GPGSV,3,3,12,03,14,316,00,12,12,036,00,11,02,267,00,138,38,213,00*4D
2017-11-15 18:17:15 1510787835.777511: $GPZDA,231714.00,15,11,2017,00,00*64
2017-11-15 18:17:15 1510787835.777694: $GPGGA,231714,3946.9766,N,08404.9670,W,1,05,5.00,303.17,M,-33.325,M,,*7B
2017-11-15 18:17:15 1510787835.777756: $GPRMC,231714,A,3946.9766,N,08404.9670,W,2.0322,342.833,151117,,*35
2017-11-15 18:17:15 1510787835.777830: $GPGSA,A,3,26,31,32,25,14,,,,,,,,3.4,5.0,2.9*3E
2017-11-15 18:17:16 1510787836.402443: $GPZDA,231715.00,15,11,2017,00,00*65
2017-11-15 18:17:16 1510787836.402601: $GPGGA,231715,3946.9770,N,08404.9670,W,1,05,5.00,303.81,M,-33.325,M,,*72
2017-11-15 18:17:16 1510787836.402681: $GPRMC,231715,A,3946.9770,N,08404.9670,W,1.7180,338.671,151117,,*38
2017-11-15 18:17:16 1510787836.402738: $GPGSA,A,3,26,31,32,25,14,,,,,,,,3.4,5.0,2.9*3E
2017-11-15 18:17:17 1510787837.329686: $GPZDA,231716.00,15,11,2017,00,00*66
2017-11-15 18:17:17 1510787837.329865: $GPGGA,231716,3946.9770,N,08404.9670,W,1,05,5.00,303.81,M,-33.325,M,,*71
2017-11-15 18:17:17 1510787837.329928: $GPRMC,231716,A,3946.9770,N,08404.9670,W,1.5558,325.034,151117,,*33
2017-11-15 18:17:17 1510787837.329984: $GPGSA,A,3,26,31,32,25,14,,,,,,,,3.4,5.0,2.9*3E
2017-11-15 18:17:18 1510787838.664097: $GPGSV,3,1,12,01,21,282,15,22,34,307,00,10,29,154,00,26,18,180,16*7C
2017-11-15 18:17:18 1510787838.664268: $GPGSV,3,2,12,31,73,252,14,32,60,067,21,25,39,066,20,14,70,018,16*7B
2017-11-15 18:17:18 1510787838.664327: $GPGSV,3,3,12,03,14,316,00,12,12,036,00,11,02,267,00,138,38,213,00*4D
2017-11-15 18:17:18 1510787838.777418: $GPZDA,231717.00,15,11,2017,00,00*67
2017-11-15 18:17:18 1510787838.777548: $GPGGA,231717,3946.9770,N,08404.9670,W,1,05,5.00,303.81,M,-33.325,M,,*70
2017-11-15 18:17:18 1510787838.777608: $GPRMC,231717,A,3946.9770,N,08404.9670,W,1.3082,341.818,151117,,*32
2017-11-15 18:17:18 1510787838.777683: $GPGSA,A,3,26,31,32,25,14,,,,,,,,3.4,5.0,2.9*3E
2017-11-15 18:17:19 1510787839.359569: $GPZDA,231718.00,15,11,2017,00,00*68
2017-11-15 18:17:19 1510787839.359758: $GPGGA,231718,3946.9778,N,08404.9669,W,1,05,5.00,303.68,M,-33.325,M,,*78
2017-11-15 18:17:19 1510787839.359837: $GPRMC,231718,A,3946.9778,N,08404.9669,W,1.4168,332.695,151117,,*30
2017-11-15 18:17:19 1510787839.359894: $GPGSA,A,3,26,31,32,25,14,,,,,,,,3.4,5.0,2.9*3E
2017-11-15 18:17:20 1510787840.329212: $GPZDA,231719.00,15,11,2017,00,00*69
2017-11-15 18:17:20 1510787840.329392: $GPGGA,231719,3946.9778,N,08404.9669,W,1,05,5.00,303.68,M,-33.325,M,,*79
2017-11-15 18:17:20 1510787840.329453: $GPRMC,231719,A,3946.9778,N,08404.9669,W,0.9060,347.792,151117,,*30
2017-11-15 18:17:20 1510787840.329510: $GPGSA,A,3,26,31,32,25,14,,,,,,,,3.4,5.0,2.9*3E
2017-11-15 18:17:21 1510787841.663210: $GPGSV,3,1,12,22,34,307,00,10,29,154,00,01,21,282,00,26,18,180,17*79
2017-11-15 18:17:21 1510787841.663383: $GPGSV,3,2,12,31,73,252,11,32,60,067,21,25,39,066,20,14,70,018,15*7D
2017-11-15 18:17:21 1510787841.663443: $GPGSV,3,3,12,03,14,316,00,12,12,036,00,11,02,267,00,138,38,213,00*4D
2017-11-15 18:17:21 1510787841.776555: $GPZDA,231720.00,15,11,2017,00,00*63
2017-11-15 18:17:21 1510787841.776825: $GPGGA,231720,3946.9778,N,08404.9669,W,1,05,5.00,303.68,M,-33.325,M,,*73
2017-11-15 18:17:21 1510787841.776895: $GPRMC,231720,A,3946.9778,N,08404.9669,W,0.7246,344.668,151117,,*35
2017-11-15 18:17:21 1510787841.776951: $GPGSA,A,3,26,31,32,25,14,,,,,,,,3.4,5.0,2.9*3E
2017-11-15 18:17:22 1510787842.328717: $GPZDA,231721.00,15,11,2017,00,00*62
2017-11-15 18:17:22 1510787842.328894: $GPGGA,231721,3946.9774,N,08404.9669,W,1,05,5.00,303.04,M,-33.325,M,,*74
2017-11-15 18:17:22 1510787842.328957: $GPRMC,231721,A,3946.9774,N,08404.9669,W,0.4179,328.778,151117,,*3E
2017-11-15 18:17:22 1510787842.329012: $GPGSA,A,3,26,31,32,25,14,,,,,,,,3.4,5.0,2.9*3E
2017-11-15 18:17:23 1510787843.328308: $GPZDA,231722.00,15,11,2017,00,00*61
2017-11-15 18:17:23 1510787843.328469: $GPGGA,231722,3946.9774,N,08404.9669,W,1,05,5.00,303.04,M,-33.325,M,,*77
2017-11-15 18:17:23 1510787843.328529: $GPRMC,231722,A,3946.9774,N,08404.9669,W,0.4844,273.794,151117,,*37
2017-11-15 18:17:23 1510787843.328656: $GPGSA,A,3,26,31,32,25,14,,,,,,,,3.4,5.0,2.9*3E
2017-11-15 18:17:24 1510787844.694073: $GPGSV,3,1,12,22,34,307,00,10,29,154,00,01,21,282,00,26,18,180,17*79
2017-11-15 18:17:24 1510787844.694248: $GPGSV,3,2,12,31,73,252,10,32,60,067,22,25,39,066,20,14,70,018,15*7F
2017-11-15 18:17:24 1510787844.694308: $GPGSV,3,3,12,03,14,316,00,12,12,036,00,11,02,267,00,138,38,213,00*4D
2017-11-15 18:17:24 1510787844.807565: $GPZDA,231723.00,15,11,2017,00,00*60
2017-11-15 18:17:24 1510787844.807731: $GPGGA,231723,3946.9770,N,08404.9670,W,1,05,5.00,303.81,M,-33.325,M,,*77
2017-11-15 18:17:24 1510787844.807791: $GPRMC,231723,A,3946.9770,N,08404.9670,W,0.4844,273.794,151117,,*3A
2017-11-15 18:17:24 1510787844.807848: $GPGSA,A,3,26,31,32,25,14,,,,,,,,3.4,5.0,2.9*3E
2017-11-15 18:17:25 1510787845.359617: $GPZDA,231724.00,15,11,2017,00,00*67
2017-11-15 18:17:25 1510787845.359782: $GPGGA,231724,3946.9771,N,08404.9677,W,1,05,5.00,303.73,M,-33.325,M,,*7B
2017-11-15 18:17:25 1510787845.359842: $GPRMC,231724,A,3946.9771,N,08404.9677,W,0.7238,320.710,151117,,*32
2017-11-15 18:17:25 1510787845.359898: $GPGSA,A,3,26,31,32,25,14,,,,,,,,3.4,5.0,2.9*3E
2017-11-15 18:17:26 1510787846.359969: $GPZDA,231725.00,15,11,2017,00,00*66
2017-11-15 18:17:26 1510787846.360143: $GPGGA,231725,3946.9771,N,08404.9677,W,1,05,5.00,303.73,M,-33.325,M,,*7A
2017-11-15 18:17:26 1510787846.360228: $GPRMC,231725,A,3946.9771,N,08404.9677,W,0.5857,338.291,151117,,*37
2017-11-15 18:17:26 1510787846.360288: $GPGSA,A,3,26,31,32,25,14,,,,,,,,3.4,5.0,2.9*3E
2017-11-15 18:17:27 1510787847.697001: $GPGSV,3,1,12,22,34,307,00,10,29,154,00,01,21,282,00,26,18,180,17*79
2017-11-15 18:17:27 1510787847.697171: $GPGSV,3,2,12,31,73,252,10,32,60,067,22,25,39,066,21,14,70,018,15*7E
2017-11-15 18:17:27 1510787847.697234: $GPGSV,3,3,12,03,14,316,00,12,12,036,00,11,02,267,00,138,38,213,00*4D
2017-11-15 18:17:27 1510787847.810371: $GPZDA,231726.00,15,11,2017,00,00*65
2017-11-15 18:17:27 1510787847.810520: $GPGGA,231726,3946.9766,N,08404.9670,W,1,05,5.00,303.17,M,-33.325,M,,*7A
2017-11-15 18:17:27 1510787847.810583: $GPRMC,231726,A,3946.9766,N,08404.9670,W,0.1867,0.000,151117,,*30
2017-11-15 18:17:27 1510787847.810642: $GPGSA,A,3,26,31,32,25,14,,,,,,,,3.4,5.0,2.9*3E
2017-11-15 18:17:28 1510787848.329992: $GPZDA,231727.00,15,11,2017,00,00*64
2017-11-15 18:17:28 1510787848.330196: $GPGGA,231727,3946.9766,N,08404.9670,W,1,05,5.00,303.17,M,-33.325,M,,*7B
2017-11-15 18:17:28 1510787848.335753: $GPRMC,231727,A,3946.9766,N,08404.9670,W,0.4844,93.794,151117,,*05
2017-11-15 18:17:28 1510787848.335834: $GPGSA,A,3,26,31,32,25,14,,,,,,,,3.4,5.0,2.9*3E
2017-11-15 18:17:29 1510787849.361094: $GPZDA,231728.00,15,11,2017,00,00*6B
2017-11-15 18:17:29 1510787849.361258: $GPGGA,231728,3946.9766,N,08404.9670,W,1,05,5.00,303.17,M,-33.325,M,,*74
2017-11-15 18:17:29 1510787849.361322: $GPRMC,231728,A,3946.9766,N,08404.9670,W,0.4207,39.347,151117,,*0D
2017-11-15 18:17:29 1510787849.361381: $GPGSA,A,3,26,31,32,25,14,,,,,,,,3.4,5.0,2.9*3E
