2017-12-31 18:03:02 1514761382.993476: {"class":"VERSION","release":"3.16","rev":"3.16-4","proto_major":3,"proto_minor":11}
2017-12-31 18:03:02 1514761382.993793: {"class":"DEVICES","devices":[{"class":"DEVICE","path":"/dev/ttyUSB0","driver":"SiRF","activated":"2017-12-31T23:03:02.487Z","flags":1,"native":1,"bps":4800,"parity":"N","stopbits":1,"cycle":1.00}]}
2017-12-31 18:03:02 1514761382.993889: {"class":"WATCH","enable":true,"json":false,"nmea":true,"raw":0,"scaled":false,"timing":false,"split24":false,"pps":false}
2017-12-31 18:03:03 1514761383.683844: $GPGSV,3,1,11,22,25,216,40,23,51,307,45,09,18,312,34,03,34,237,45*79
2017-12-31 18:03:03 1514761383.684005: $GPGSV,3,2,11,16,77,192,44,29,07,033,30,14,18,132,34,31,30,072,39*7F
2017-12-31 18:03:03 1514761383.684070: $GPGSV,3,3,11,27,19,156,31,26,65,052,49,135,22,240,44*78
2017-12-31 18:03:03 1514761383.796182: $GPZDA,230304.00,31,12,2017,00,00*65
2017-12-31 18:03:03 1514761383.796316: $GPGGA,230304,3946.9561,N,08404.9874,W,2,11,0.60,308.17,M,-33.324,M,,*7F
2017-12-31 18:03:03 1514761383.796383: $GPRMC,230304,A,3946.9561,N,08404.9874,W,0.0000,0.000,311217,,*37
2017-12-31 18:03:03 1514761383.796444: $GPGSA,A,3,22,23,9,3,16,29,14,31,27,26,135,,1.7,0.6,1.3*06
2017-12-31 18:03:04 1514761384.375851: $GPZDA,230305.00,31,12,2017,00,00*64
2017-12-31 18:03:04 1514761384.376000: $GPGGA,230305,3946.9561,N,08404.9874,W,2,11,0.60,308.17,M,-33.324,M,,*7E
2017-12-31 18:03:04 1514761384.376068: $GPRMC,230305,A,3946.9561,N,08404.9874,W,0.0000,0.000,311217,,*36
2017-12-31 18:03:04 1514761384.376129: $GPGSA,A,3,22,23,9,3,16,29,14,31,27,26,135,,1.7,0.6,1.3*06
2017-12-31 18:03:05 1514761385.347327: $GPZDA,230306.00,31,12,2017,00,00*67
2017-12-31 18:03:05 1514761385.347506: $GPGGA,230306,3946.9561,N,08404.9874,W,2,11,0.60,308.17,M,-33.324,M,,*7D
2017-12-31 18:03:05 1514761385.347593: $GPRMC,230306,A,3946.9561,N,08404.9874,W,0.0000,0.000,311217,,*35
2017-12-31 18:03:05 1514761385.347657: $GPGSA,A,3,22,23,9,3,16,29,14,31,27,26,135,,1.7,0.6,1.3*06
2017-12-31 18:03:06 1514761386.710476: $GPGSV,3,1,11,22,25,216,40,23,51,307,45,09,18,312,34,03,34,237,45*79
2017-12-31 18:03:06 1514761386.710639: $GPGSV,3,2,11,16,77,192,43,29,07,033,31,14,18,132,34,31,30,072,39*79
2017-12-31 18:03:06 1514761386.710711: $GPGSV,3,3,11,27,19,156,30,26,65,052,49,135,22,240,44*79
2017-12-31 18:03:06 1514761386.824063: $GPZDA,230307.00,31,12,2017,00,00*66
2017-12-31 18:03:06 1514761386.824208: $GPGGA,230307,3946.9561,N,08404.9874,W,2,11,0.60,308.17,M,-33.324,M,,*7C
2017-12-31 18:03:06 1514761386.824277: $GPRMC,230307,A,3946.9561,N,08404.9874,W,0.0000,0.000,311217,,*34
2017-12-31 18:03:06 1514761386.824340: $GPGSA,A,3,22,23,9,3,16,29,14,31,27,26,135,,1.7,0.6,1.3*06
2017-12-31 18:03:07 1514761387.342480: $GPZDA,230308.00,31,12,2017,00,00*69
2017-12-31 18:03:07 1514761387.342647: $GPGGA,230308,3946.9561,N,08404.9874,W,2,11,0.60,308.17,M,-33.324,M,,*73
2017-12-31 18:03:07 1514761387.342718: $GPRMC,230308,A,3946.9561,N,08404.9874,W,0.0000,0.000,311217,,*3B
2017-12-31 18:03:07 1514761387.342782: $GPGSA,A,3,22,23,9,3,16,29,14,31,27,26,135,,1.7,0.6,1.3*06
2017-12-31 18:03:08 1514761388.340844: $GPZDA,230309.00,31,12,2017,00,00*68
2017-12-31 18:03:08 1514761388.341007: $GPGGA,230309,3946.9561,N,08404.9874,W,2,11,0.60,308.17,M,-33.324,M,,*72
2017-12-31 18:03:08 1514761388.341077: $GPRMC,230309,A,3946.9561,N,08404.9874,W,0.0000,0.000,311217,,*3A
2017-12-31 18:03:08 1514761388.341141: $GPGSA,A,3,22,23,9,3,16,29,14,31,27,26,135,,1.7,0.6,1.3*06
2017-12-31 18:03:09 1514761389.682577: $GPGSV,3,1,11,22,25,216,40,23,51,307,45,09,18,312,34,03,34,237,44*78
2017-12-31 18:03:09 1514761389.682759: $GPGSV,3,2,11,16,77,192,44,29,07,033,36,14,18,132,34,31,30,072,38*78
2017-12-31 18:03:09 1514761389.682829: $GPGSV,3,3,11,27,19,156,31,26,65,052,49,135,22,240,44*78
2017-12-31 18:03:09 1514761389.796212: $GPZDA,230310.00,31,12,2017,00,00*60
2017-12-31 18:03:09 1514761389.796359: $GPGGA,230310,3946.9561,N,08404.9874,W,2,11,0.60,308.17,M,-33.324,M,,*7A
2017-12-31 18:03:09 1514761389.796428: $GPRMC,230310,A,3946.9561,N,08404.9874,W,0.0000,0.000,311217,,*32
2017-12-31 18:03:09 1514761389.796534: $GPGSA,A,3,22,23,9,3,16,29,14,31,27,26,135,,1.7,0.6,1.3*06
2017-12-31 18:03:10 1514761390.421573: $GPZDA,230311.00,31,12,2017,00,00*61
2017-12-31 18:03:10 1514761390.421810: $GPGGA,230311,3946.9561,N,08404.9874,W,2,11,0.60,308.17,M,-33.324,M,,*7B
2017-12-31 18:03:10 1514761390.426779: $GPRMC,230311,A,3946.9561,N,08404.9874,W,0.0000,0.000,311217,,*33
2017-12-31 18:03:10 1514761390.426868: $GPGSA,A,3,22,23,9,3,16,29,14,31,27,26,135,,1.7,0.6,1.3*06
2017-12-31 18:03:11 1514761391.374917: $GPZDA,230312.00,31,12,2017,00,00*62
2017-12-31 18:03:11 1514761391.375065: $GPGGA,230312,3946.9561,N,08404.9874,W,2,11,0.60,308.17,M,-33.324,M,,*78
2017-12-31 18:03:11 1514761391.375131: $GPRMC,230312,A,3946.9561,N,08404.9874,W,0.0000,0.000,311217,,*30
2017-12-31 18:03:11 1514761391.375192: $GPGSA,A,3,22,23,9,3,16,29,14,31,27,26,135,,1.7,0.6,1.3*06
2017-12-31 18:03:12 1514761392.710389: $GPGSV,3,1,11,22,25,216,40,23,51,307,45,09,18,312,34,03,34,237,45*79
2017-12-31 18:03:12 1514761392.710552: $GPGSV,3,2,11,16,77,192,44,29,07,033,39,14,18,132,33,31,30,072,38*70
2017-12-31 18:03:12 1514761392.710618: $GPGSV,3,3,11,27,19,156,30,26,65,052,49,135,22,240,44*79
2017-12-31 18:03:12 1514761392.823988: $GPZDA,230313.00,31,12,2017,00,00*63
2017-12-31 18:03:12 1514761392.824126: $GPGGA,230313,3946.9561,N,08404.9874,W,2,11,0.60,308.17,M,-33.324,M,,*79
2017-12-31 18:03:12 1514761392.824192: $GPRMC,230313,A,3946.9561,N,08404.9874,W,0.0000,0.000,311217,,*31
2017-12-31 18:03:12 1514761392.824253: $GPGSA,A,3,22,23,9,3,16,29,14,31,27,26,135,,1.7,0.6,1.3*06
