2017-11-16 14:58:33 1510862313.891792: {"class":"VERSION","release":"3.17","rev":"3.17","proto_major":3,"proto_minor":12}
2017-11-16 14:58:33 1510862313.892328: {"class":"DEVICES","devices":[{"class":"DEVICE","path":"/dev/ttyUSB0","driver":"SiRF","subtype":"9\u0006GSD4e_4.1.2-P1_RPATCH.05-F-GPS-4R-1510281 11/03/2015 307","activated":"2017-11-16T19:58:33.831Z","flags":1,"native":1,"bps":4800,"parity":"N","stopbits":1,"cycle":1.00}]}
2017-11-16 14:58:33 1510862313.892534: {"class":"WATCH","enable":true,"json":false,"nmea":true,"raw":0,"scaled":false,"timing":false,"split24":false,"pps":false}
2017-11-16 14:58:33 1510862313.944284: $GPZDA,195832.00,16,11,2017,00,00*61
2017-11-16 14:58:33 1510862313.944506: $GPGGA,195832,3946.9575,N,08404.9848,W,2,11,0.80,301.77,M,-33.324,M,,*76
2017-11-16 14:58:33 1510862313.944577: $GPRMC,195832,A,3946.9575,N,08404.9848,W,0.0000,0.000,161117,,*39
2017-11-16 14:58:33 1510862313.944634: $GPGSA,A,3,8,10,15,18,21,20,24,27,32,14,138,,1.6,0.8,1.3*37
2017-11-16 14:58:34 1510862314.569693: $GPZDA,195833.00,16,11,2017,00,00*60
2017-11-16 14:58:34 1510862314.569882: $GPGGA,195833,3946.9575,N,08404.9848,W,2,11,0.80,301.77,M,-33.324,M,,*77
2017-11-16 14:58:34 1510862314.569946: $GPRMC,195833,A,3946.9575,N,08404.9848,W,0.0000,0.000,161117,,*38
2017-11-16 14:58:34 1510862314.570008: $GPGSA,A,3,8,10,15,18,21,20,24,27,32,14,138,,1.6,0.8,1.3*37
2017-11-16 14:58:35 1510862315.498097: $GPZDA,195834.00,16,11,2017,00,00*67
2017-11-16 14:58:35 1510862315.498271: $GPGGA,195834,3946.9575,N,08404.9848,W,2,11,0.80,301.77,M,-33.324,M,,*70
2017-11-16 14:58:35 1510862315.498337: $GPRMC,195834,A,3946.9575,N,08404.9848,W,0.0000,0.000,161117,,*3F
2017-11-16 14:58:35 1510862315.498394: $GPGSA,A,3,8,10,15,18,21,20,24,27,32,14,138,,1.6,0.8,1.3*37
2017-11-16 14:58:36 1510862316.826371: $GPGSV,3,1,12,08,08,304,38,10,58,318,51,12,02,115,11,15,20,060,48*7E
2017-11-16 14:58:36 1510862316.826578: $GPGSV,3,2,12,18,77,054,46,21,42,181,45,20,17,111,43,24,51,075,48*73
2017-11-16 14:58:36 1510862316.826660: $GPGSV,3,3,12,27,12,270,44,32,37,253,46,14,20,244,45,138,38,213,45*4E
2017-11-16 14:58:36 1510862316.939790: $GPZDA,195835.00,16,11,2017,00,00*66
2017-11-16 14:58:36 1510862316.939972: $GPGGA,195835,3946.9575,N,08404.9848,W,2,11,0.80,301.77,M,-33.324,M,,*71
2017-11-16 14:58:36 1510862316.940041: $GPRMC,195835,A,3946.9575,N,08404.9848,W,0.0000,0.000,161117,,*3E
2017-11-16 14:58:36 1510862316.940097: $GPGSA,A,3,8,10,15,18,21,20,24,27,32,14,138,,1.6,0.8,1.3*37
2017-11-16 14:58:37 1510862317.533042: $GPZDA,195836.00,16,11,2017,00,00*65
2017-11-16 14:58:37 1510862317.533207: $GPGGA,195836,3946.9575,N,08404.9848,W,2,11,0.80,301.77,M,-33.324,M,,*72
2017-11-16 14:58:37 1510862317.533271: $GPRMC,195836,A,3946.9575,N,08404.9848,W,0.0000,0.000,161117,,*3D
2017-11-16 14:58:37 1510862317.533327: $GPGSA,A,3,8,10,15,18,21,20,24,27,32,14,138,,1.6,0.8,1.3*37
2017-11-16 14:58:38 1510862318.532672: $GPZDA,195837.00,16,11,2017,00,00*64
2017-11-16 14:58:38 1510862318.532842: $GPGGA,195837,3946.9575,N,08404.9848,W,2,11,0.80,301.77,M,-33.324,M,,*73
2017-11-16 14:58:38 1510862318.532909: $GPRMC,195837,A,3946.9575,N,08404.9848,W,0.0000,0.000,161117,,*3C
2017-11-16 14:58:38 1510862318.532966: $GPGSA,A,3,8,10,15,18,21,20,24,27,32,14,138,,1.6,0.8,1.3*37
2017-11-16 14:58:39 1510862319.868022: $GPGSV,3,1,12,08,08,304,38,10,58,318,51,12,02,115,19,15,20,060,48*76
2017-11-16 14:58:39 1510862319.868199: $GPGSV,3,2,12,18,77,054,46,21,42,181,45,20,17,111,43,24,51,075,48*73
2017-11-16 14:58:39 1510862319.868261: $GPGSV,3,3,12,27,12,270,44,32,37,253,46,14,20,244,45,138,38,213,43*48
2017-11-16 14:58:39 1510862319.981341: $GPZDA,195838.00,16,11,2017,00,00*6B
2017-11-16 14:58:39 1510862319.981511: $GPGGA,195838,3946.9575,N,08404.9848,W,2,12,0.80,301.77,M,-33.324,M,,*7F
2017-11-16 14:58:39 1510862319.981574: $GPRMC,195838,A,3946.9575,N,08404.9848,W,0.0000,0.000,161117,,*33
2017-11-16 14:58:39 1510862319.981632: $GPGSA,A,3,8,10,12,15,18,21,20,24,27,32,14,138,1.6,0.8,1.3*34
2017-11-16 14:58:40 1510862320.494676: $GPZDA,195839.00,16,11,2017,00,00*6A
2017-11-16 14:58:40 1510862320.494896: $GPGGA,195839,3946.9575,N,08404.9848,W,2,12,0.80,301.77,M,-33.324,M,,*7E
2017-11-16 14:58:40 1510862320.494966: $GPRMC,195839,A,3946.9575,N,08404.9848,W,0.0000,0.000,161117,,*32
2017-11-16 14:58:40 1510862320.495028: $GPGSA,A,3,8,10,12,15,18,21,20,24,27,32,14,138,1.6,0.8,1.3*34
2017-11-16 14:58:41 1510862321.494600: $GPZDA,195840.00,16,11,2017,00,00*64
2017-11-16 14:58:41 1510862321.494764: $GPGGA,195840,3946.9575,N,08404.9848,W,2,12,0.80,301.77,M,-33.324,M,,*70
2017-11-16 14:58:41 1510862321.494828: $GPRMC,195840,A,3946.9575,N,08404.9848,W,0.0000,0.000,161117,,*3C
2017-11-16 14:58:41 1510862321.494884: $GPGSA,A,3,8,10,12,15,18,21,20,24,27,32,14,138,1.6,0.8,1.3*34
2017-11-16 14:58:42 1510862322.831483: $GPGSV,3,1,12,08,08,304,37,10,58,318,51,12,02,115,18,15,20,060,47*77
2017-11-16 14:58:42 1510862322.831669: $GPGSV,3,2,12,18,77,054,46,21,42,181,44,20,17,111,43,24,51,075,48*72
2017-11-16 14:58:42 1510862322.831730: $GPGSV,3,3,12,27,12,270,44,32,37,253,46,14,20,244,45,138,38,213,43*48
2017-11-16 14:58:42 1510862322.945103: $GPZDA,195841.00,16,11,2017,00,00*65
2017-11-16 14:58:42 1510862322.945264: $GPGGA,195841,3946.9575,N,08404.9848,W,2,12,0.80,301.77,M,-33.324,M,,*71
2017-11-16 14:58:42 1510862322.945327: $GPRMC,195841,A,3946.9575,N,08404.9848,W,0.0000,0.000,161117,,*3D
2017-11-16 14:58:42 1510862322.945383: $GPGSA,A,3,8,10,12,15,18,21,20,24,27,32,14,138,1.6,0.8,1.3*34
2017-11-16 14:58:43 1510862323.494759: $GPZDA,195842.00,16,11,2017,00,00*66
2017-11-16 14:58:43 1510862323.494925: $GPGGA,195842,3946.9575,N,08404.9848,W,2,12,0.80,301.77,M,-33.324,M,,*72
2017-11-16 14:58:43 1510862323.494989: $GPRMC,195842,A,3946.9575,N,08404.9848,W,0.0000,0.000,161117,,*3E
2017-11-16 14:58:43 1510862323.495047: $GPGSA,A,3,8,10,12,15,18,21,20,24,27,32,14,138,1.6,0.8,1.3*34
