2017-11-15 18:33:33 1510788813.315403: {"class":"VERSION","release":"3.17","rev":"3.17","proto_major":3,"proto_minor":12}
2017-11-15 18:33:33 1510788813.316034: {"class":"DEVICES","devices":[{"class":"DEVICE","path":"/dev/ttyUSB0","driver":"SiRF","subtype":"9\u0006GSD4e_4.1.2-P1_RPATCH.05-F-GPS-4R-1510281 11/03/2015 307","activated":"2017-11-15T23:33:33.214Z","flags":1,"native":1,"bps":4800,"parity":"N","stopbits":1,"cycle":1.00}]}
2017-11-15 18:33:33 1510788813.316247: {"class":"WATCH","enable":true,"json":false,"nmea":true,"raw":0,"scaled":false,"timing":false,"split24":false,"pps":false}
2017-11-15 18:33:33 1510788813.663748: $GPGSV,3,1,10,25,35,055,23,14,69,042,18,22,40,301,20,26,26,178,00*75
2017-11-15 18:33:33 1510788813.663921: $GPGSV,3,2,10,31,78,283,22,32,55,079,23,01,18,274,12,10,21,157,17*7E
2017-11-15 18:33:33 1510788813.664004: $GPGSV,3,3,10,03,21,315,12,12,06,031,00*7B
2017-11-15 18:33:33 1510788813.777353: $GPZDA,233332.00,15,11,2017,00,00*66
2017-11-15 18:33:33 1510788813.777539: $GPGGA,233332,3946.9518,N,08404.9574,W,1,08,1.00,294.25,M,-33.324,M,,*73
2017-11-15 18:33:33 1510788813.777604: $GPRMC,233332,A,3946.9518,N,08404.9574,W,0.4179,328.778,151117,,*3D
2017-11-15 18:33:33 1510788813.777659: $GPGSA,A,3,25,14,22,31,32,1,10,3,,,,,3.4,1.0,2.9*3D
2017-11-15 18:33:34 1510788814.363339: $GPZDA,233333.00,15,11,2017,00,00*67
2017-11-15 18:33:34 1510788814.363510: $GPGGA,233333,3946.9525,N,08404.9573,W,1,08,1.00,294.13,M,-33.324,M,,*7E
2017-11-15 18:33:34 1510788814.363571: $GPRMC,233333,A,3946.9525,N,08404.9573,W,0.5306,294.352,151117,,*34
2017-11-15 18:33:34 1510788814.363627: $GPGSA,A,3,25,14,22,31,32,1,10,3,,,,,3.4,1.0,2.9*3D
2017-11-15 18:33:35 1510788815.327686: $GPZDA,233334.00,15,11,2017,00,00*60
2017-11-15 18:33:35 1510788815.327847: $GPGGA,233334,3946.9525,N,08404.9573,W,1,08,1.00,294.13,M,-33.324,M,,*79
2017-11-15 18:33:35 1510788815.327907: $GPRMC,233334,A,3946.9525,N,08404.9573,W,0.2422,273.794,151117,,*32
2017-11-15 18:33:35 1510788815.327963: $GPGSA,A,3,25,14,22,31,32,1,10,3,,,,,3.4,1.0,2.9*3D
2017-11-15 18:33:36 1510788816.664176: $GPGSV,3,1,10,25,35,055,23,14,69,042,19,22,40,301,20,26,26,178,15*70
2017-11-15 18:33:36 1510788816.664349: $GPGSV,3,2,10,31,78,283,22,32,55,079,24,01,18,274,12,10,21,157,18*76
2017-11-15 18:33:36 1510788816.664410: $GPGSV,3,3,10,03,21,315,12,12,06,031,00*7B
2017-11-15 18:33:36 1510788816.777864: $GPZDA,233335.00,15,11,2017,00,00*61
2017-11-15 18:33:36 1510788816.778015: $GPGGA,233335,3946.9525,N,08404.9573,W,1,08,1.00,294.13,M,-33.324,M,,*78
2017-11-15 18:33:36 1510788816.778074: $GPRMC,233335,A,3946.9525,N,08404.9573,W,0.5951,238.684,151117,,*32
2017-11-15 18:33:36 1510788816.778130: $GPGSA,A,3,25,14,22,31,32,1,10,3,,,,,3.4,1.0,2.9*3D
2017-11-15 18:33:37 1510788817.328368: $GPZDA,233336.00,15,11,2017,00,00*62
2017-11-15 18:33:37 1510788817.328524: $GPGGA,233336,3946.9525,N,08404.9573,W,1,08,1.00,294.13,M,-33.324,M,,*7B
2017-11-15 18:33:37 1510788817.328584: $GPRMC,233336,A,3946.9525,N,08404.9573,W,0.2422,273.794,151117,,*30
2017-11-15 18:33:37 1510788817.328640: $GPGSA,A,3,25,14,22,31,32,1,10,3,,,,,3.4,1.0,2.9*3D
2017-11-15 18:33:38 1510788818.362999: $GPZDA,233337.00,15,11,2017,00,00*63
2017-11-15 18:33:38 1510788818.363189: $GPGGA,233337,3946.9530,N,08404.9573,W,1,08,1.00,294.77,M,-33.324,M,,*7C
2017-11-15 18:33:38 1510788818.365863: $GPRMC,233337,A,3946.9530,N,08404.9573,W,0.1567,9.201,151117,,*30
2017-11-15 18:33:38 1510788818.365955: $GPGSA,A,3,25,14,22,31,32,1,10,3,,,,,3.4,1.0,2.9*3D
2017-11-15 18:33:39 1510788819.698969: $GPGSV,3,1,10,25,35,055,24,14,69,042,18,22,40,301,20,26,26,178,13*70
2017-11-15 18:33:39 1510788819.699143: $GPGSV,3,2,10,31,78,283,21,32,55,079,24,01,18,274,12,10,21,157,18*75
2017-11-15 18:33:39 1510788819.699204: $GPGSV,3,3,10,03,21,315,12,12,06,031,00*7B
2017-11-15 18:33:39 1510788819.812627: $GPZDA,233338.00,15,11,2017,00,00*6C
2017-11-15 18:33:39 1510788819.812787: $GPGGA,233338,3946.9530,N,08404.9573,W,1,09,1.00,294.77,M,-33.324,M,,*72
2017-11-15 18:33:39 1510788819.812848: $GPRMC,233338,A,3946.9530,N,08404.9573,W,0.4207,39.347,151117,,*0B
2017-11-15 18:33:39 1510788819.812975: $GPGSA,A,3,25,14,22,26,31,32,1,10,3,,,,3.4,1.0,2.9*39
2017-11-15 18:33:40 1510788820.328134: $GPZDA,233339.00,15,11,2017,00,00*6D
2017-11-15 18:33:40 1510788820.328295: $GPGGA,233339,3946.9533,N,08404.9572,W,1,09,1.00,294.00,M,-33.324,M,,*71
2017-11-15 18:33:40 1510788820.328357: $GPRMC,233339,A,3946.9533,N,08404.9572,W,0.0000,0.000,151117,,*33
2017-11-15 18:33:40 1510788820.328413: $GPGSA,A,3,25,14,22,26,31,32,1,10,3,,,,3.4,1.0,2.9*39
2017-11-15 18:33:41 1510788821.362249: $GPZDA,233340.00,15,11,2017,00,00*63
2017-11-15 18:33:41 1510788821.362417: $GPGGA,233340,3946.9533,N,08404.9572,W,1,09,1.00,294.00,M,-33.324,M,,*7F
2017-11-15 18:33:41 1510788821.362478: $GPRMC,233340,A,3946.9533,N,08404.9572,W,0.4179,148.778,151117,,*33
2017-11-15 18:33:41 1510788821.362534: $GPGSA,A,3,25,14,22,26,31,32,1,10,3,,,,3.4,1.0,2.9*39
2017-11-15 18:33:42 1510788822.664236: $GPGSV,3,1,10,25,35,055,24,14,69,042,18,22,40,301,20,26,26,178,00*72
2017-11-15 18:33:42 1510788822.664410: $GPGSV,3,2,10,31,78,283,18,32,55,079,24,01,18,274,12,10,21,157,19*7E
2017-11-15 18:33:42 1510788822.664469: $GPGSV,3,3,10,03,21,315,12,12,06,031,00*7B
2017-11-15 18:33:42 1510788822.777656: $GPZDA,233341.00,15,11,2017,00,00*62
2017-11-15 18:33:42 1510788822.777816: $GPGGA,233341,3946.9534,N,08404.9573,W,1,08,1.00,295.41,M,-33.324,M,,*7D
2017-11-15 18:33:42 1510788822.777877: $GPRMC,233341,A,3946.9534,N,08404.9573,W,0.7278,203.636,151117,,*32
2017-11-15 18:33:42 1510788822.777953: $GPGSA,A,3,25,14,22,31,32,1,10,3,,,,,3.4,1.0,2.9*3D
2017-11-15 18:33:43 1510788823.334385: $GPZDA,233342.00,15,11,2017,00,00*61
2017-11-15 18:33:43 1510788823.334715: $GPGGA,233342,3946.9534,N,08404.9573,W,1,08,1.00,295.41,M,-33.324,M,,*7E
2017-11-15 18:33:43 1510788823.335117: $GPRMC,233342,A,3946.9534,N,08404.9573,W,1.0002,154.331,151117,,*3B
2017-11-15 18:33:43 1510788823.335234: $GPGSA,A,3,25,14,22,31,32,1,10,3,,,,,3.4,1.0,2.9*3D
2017-11-15 18:33:44 1510788824.363079: $GPZDA,233343.00,15,11,2017,00,00*60
2017-11-15 18:33:44 1510788824.363243: $GPGGA,233343,3946.9534,N,08404.9573,W,1,08,1.00,295.41,M,-33.324,M,,*7F
2017-11-15 18:33:44 1510788824.363305: $GPRMC,233343,A,3946.9534,N,08404.9573,W,0.9060,167.792,151117,,*3B
2017-11-15 18:33:44 1510788824.363361: $GPGSA,A,3,25,14,22,31,32,1,10,3,,,,,3.4,1.0,2.9*3D
2017-11-15 18:33:45 1510788825.665083: $GPGSV,3,1,10,25,35,055,24,14,69,042,18,22,40,301,21,26,26,178,12*70
2017-11-15 18:33:45 1510788825.665257: $GPGSV,3,2,10,31,78,283,20,32,55,079,23,01,18,274,11,10,21,157,18*70
2017-11-15 18:33:45 1510788825.665317: $GPGSV,3,3,10,03,21,315,11,12,06,031,00*78
2017-11-15 18:33:45 1510788825.777255: $GPZDA,233344.00,15,11,2017,00,00*67
2017-11-15 18:33:45 1510788825.777417: $GPGGA,233344,3946.9534,N,08404.9573,W,1,08,1.00,295.41,M,-33.324,M,,*78
2017-11-15 18:33:45 1510788825.777477: $GPRMC,233344,A,3946.9534,N,08404.9573,W,0.5857,158.291,151117,,*36
2017-11-15 18:33:45 1510788825.777532: $GPGSA,A,3,25,14,22,31,32,1,10,3,,,,,3.4,1.0,2.9*3D
2017-11-15 18:33:46 1510788826.403956: $GPZDA,233345.00,15,11,2017,00,00*66
2017-11-15 18:33:46 1510788826.404133: $GPGGA,233345,3946.9534,N,08404.9573,W,1,08,1.00,295.41,M,-33.324,M,,*79
2017-11-15 18:33:46 1510788826.404194: $GPRMC,233345,A,3946.9534,N,08404.9573,W,0.5774,207.515,151117,,*3B
2017-11-15 18:33:46 1510788826.404249: $GPGSA,A,3,25,14,22,31,32,1,10,3,,,,,3.4,1.0,2.9*3D
2017-11-15 18:33:47 1510788827.328440: $GPZDA,233346.00,15,11,2017,00,00*65
2017-11-15 18:33:47 1510788827.328603: $GPGGA,233346,3946.9534,N,08404.9573,W,1,08,1.00,295.41,M,-33.324,M,,*7A
2017-11-15 18:33:47 1510788827.328662: $GPRMC,233346,A,3946.9534,N,08404.9573,W,0.5774,207.515,151117,,*38
2017-11-15 18:33:47 1510788827.328718: $GPGSA,A,3,25,14,22,31,32,1,10,3,,,,,3.4,1.0,2.9*3D
