2017-11-15 18:27:44 1510788464.583688: {"class":"VERSION","release":"3.17","rev":"3.17","proto_major":3,"proto_minor":12}
2017-11-15 18:27:44 1510788464.584162: {"class":"DEVICES","devices":[{"class":"DEVICE","path":"/dev/ttyUSB0","driver":"SiRF","subtype":"9\u0006GSD4e_4.1.2-P1_RPATCH.05-F-GPS-4R-1510281 11/03/2015 307","activated":"2017-11-15T23:27:44.469Z","flags":1,"native":1,"bps":4800,"parity":"N","stopbits":1,"cycle":1.00}]}
2017-11-15 18:27:44 1510788464.584276: {"class":"WATCH","enable":true,"json":false,"nmea":true,"raw":0,"scaled":false,"timing":false,"split24":false,"pps":false}
2017-11-15 18:27:45 1510788465.694330: $GPGSV,3,1,11,10,24,156,11,14,69,034,24,25,36,058,18,26,23,178,00*78
2017-11-15 18:27:45 1510788465.694483: $GPGSV,3,2,11,31,77,270,26,32,57,076,09,01,19,276,00,22,38,304,19*7E
2017-11-15 18:27:45 1510788465.694542: $GPGSV,3,3,11,03,19,316,00,12,08,033,00,138,38,213,00*7C
2017-11-15 18:27:45 1510788465.807709: $GPZDA,232744.00,15,11,2017,00,00*62
2017-11-15 18:27:45 1510788465.807856: $GPGGA,232744,3946.9634,N,08404.9535,W,1,06,1.40,293.34,M,-33.324,M,,*72
2017-11-15 18:27:45 1510788465.807914: $GPRMC,232744,A,3946.9634,N,08404.9535,W,1.0298,74.382,151117,,*03
2017-11-15 18:27:45 1510788465.807970: $GPGSA,A,3,10,14,25,31,32,22,,,,,,,3.4,1.4,2.9*3B
2017-11-15 18:27:46 1510788466.433369: $GPZDA,232745.00,15,11,2017,00,00*63
2017-11-15 18:27:46 1510788466.433531: $GPGGA,232745,3946.9634,N,08404.9535,W,1,06,1.40,293.34,M,-33.324,M,,*73
2017-11-15 18:27:46 1510788466.433591: $GPRMC,232745,A,3946.9634,N,08404.9535,W,0.8905,57.384,151117,,*03
2017-11-15 18:27:46 1510788466.433647: $GPGSA,A,3,10,14,25,31,32,22,,,,,,,3.4,1.4,2.9*3B
2017-11-15 18:27:47 1510788467.326774: $GPZDA,232746.00,15,11,2017,00,00*60
2017-11-15 18:27:47 1510788467.326930: $GPGGA,232746,3946.9634,N,08404.9535,W,1,06,1.40,293.34,M,-33.324,M,,*70
2017-11-15 18:27:47 1510788467.326992: $GPRMC,232746,A,3946.9634,N,08404.9535,W,1.0298,74.382,151117,,*01
2017-11-15 18:27:47 1510788467.327048: $GPGSA,A,3,10,14,25,31,32,22,,,,,,,3.4,1.4,2.9*3B
2017-11-15 18:27:48 1510788468.663455: $GPGSV,3,1,11,10,24,156,10,14,69,034,24,25,36,058,18,26,23,178,00*79
2017-11-15 18:27:48 1510788468.663631: $GPGSV,3,2,11,31,77,270,26,32,57,076,09,01,19,276,00,22,38,304,19*7E
2017-11-15 18:27:48 1510788468.663712: $GPGSV,3,3,11,03,19,316,00,12,08,033,00,138,38,213,00*7C
2017-11-15 18:27:48 1510788468.777238: $GPZDA,232747.00,15,11,2017,00,00*61
2017-11-15 18:27:48 1510788468.777396: $GPGGA,232747,3946.9639,N,08404.9535,W,1,06,1.40,293.98,M,-33.324,M,,*7A
2017-11-15 18:27:48 1510788468.777455: $GPRMC,232747,A,3946.9639,N,08404.9535,W,0.9689,93.794,151117,,*0B
2017-11-15 18:27:48 1510788468.777511: $GPGSA,A,3,10,14,25,31,32,22,,,,,,,3.4,1.4,2.9*3B
2017-11-15 18:27:49 1510788469.327775: $GPZDA,232748.00,15,11,2017,00,00*6E
2017-11-15 18:27:49 1510788469.327922: $GPGGA,232748,3946.9638,N,08404.9528,W,1,06,1.40,294.06,M,-33.324,M,,*78
2017-11-15 18:27:49 1510788469.327983: $GPRMC,232748,A,3946.9638,N,08404.9528,W,0.4844,93.794,151117,,*0B
2017-11-15 18:27:49 1510788469.328040: $GPGSA,A,3,10,14,25,31,32,22,,,,,,,3.4,1.4,2.9*3B
2017-11-15 18:27:50 1510788470.358603: $GPZDA,232749.00,15,11,2017,00,00*6F
2017-11-15 18:27:50 1510788470.358732: $GPGGA,232749,3946.9639,N,08404.9535,W,1,06,1.40,293.98,M,-33.324,M,,*74
2017-11-15 18:27:50 1510788470.358794: $GPRMC,232749,A,3946.9639,N,08404.9535,W,0.4207,39.347,151117,,*00
2017-11-15 18:27:50 1510788470.358849: $GPGSA,A,3,10,14,25,31,32,22,,,,,,,3.4,1.4,2.9*3B
2017-11-15 18:27:51 1510788471.693898: $GPGSV,3,1,11,10,24,156,10,14,69,034,24,25,36,058,18,26,23,178,00*79
2017-11-15 18:27:51 1510788471.694068: $GPGSV,3,2,11,31,77,270,27,32,57,076,09,01,19,276,00,22,38,304,19*7F
2017-11-15 18:27:51 1510788471.694127: $GPGSV,3,3,11,03,19,316,00,12,08,033,00,138,38,213,00*7C
2017-11-15 18:27:51 1510788471.807482: $GPZDA,232750.00,15,11,2017,00,00*67
2017-11-15 18:27:51 1510788471.807618: $GPGGA,232750,3946.9639,N,08404.9535,W,1,06,1.40,293.98,M,-33.324,M,,*7C
2017-11-15 18:27:51 1510788471.807676: $GPRMC,232750,A,3946.9639,N,08404.9535,W,0.5951,238.684,151117,,*38
2017-11-15 18:27:51 1510788471.807783: $GPGSA,A,3,10,14,25,31,32,22,,,,,,,3.4,1.4,2.9*3B
2017-11-15 18:27:52 1510788472.358120: $GPZDA,232751.00,15,11,2017,00,00*66
2017-11-15 18:27:52 1510788472.358285: $GPGGA,232751,3946.9639,N,08404.9535,W,1,06,1.40,293.98,M,-33.324,M,,*7D
2017-11-15 18:27:52 1510788472.358345: $GPRMC,232751,A,3946.9639,N,08404.9535,W,0.3423,184.197,151117,,*36
2017-11-15 18:27:52 1510788472.358401: $GPGSA,A,3,10,14,25,31,32,22,,,,,,,3.4,1.4,2.9*3B
2017-11-15 18:27:53 1510788473.359012: $GPZDA,232752.00,15,11,2017,00,00*65
2017-11-15 18:27:53 1510788473.359173: $GPGGA,232752,3946.9631,N,08404.9543,W,1,06,1.40,294.03,M,-33.324,M,,*72
2017-11-15 18:27:53 1510788473.359234: $GPRMC,232752,A,3946.9631,N,08404.9543,W,0.7278,203.636,151117,,*30
2017-11-15 18:27:53 1510788473.359291: $GPGSA,A,3,10,14,25,31,32,22,,,,,,,3.4,1.4,2.9*3B
