2017-12-29 10:44:09 1514562249.207430: {"class":"VERSION","release":"3.16","rev":"3.16-4","proto_major":3,"proto_minor":11}
2017-12-29 10:44:09 1514562249.207770: {"class":"DEVICES","devices":[{"class":"DEVICE","path":"/dev/ttyUSB0","driver":"SiRF","subtype":"9\u0006GSD4e_4.1.2-P1_RPATCH.05-F-GPS-4R-1510281 11/03/2015 307","activated":"2017-12-29T15:44:09.200Z","flags":1,"native":1,"bps":4800,"parity":"N","stopbits":1,"cycle":1.00}]}
2017-12-29 10:44:09 1514562249.207883: {"class":"WATCH","enable":true,"json":false,"nmea":true,"raw":0,"scaled":false,"timing":false,"split24":false,"pps":false}
2017-12-29 10:44:09 1514562249.376672: $GPZDA,154410.00,29,12,2017,00,00*6F
2017-12-29 10:44:09 1514562249.376845: $GPGGA,154410,3946.9601,N,08404.9811,W,2,11,0.80,303.84,M,-33.324,M,,*75
2017-12-29 10:44:09 1514562249.376912: $GPRMC,154410,A,3946.9601,N,08404.9811,W,0.0000,0.000,291217,,*3B
2017-12-29 10:44:09 1514562249.376973: $GPGSA,A,3,10,13,15,18,20,21,24,27,29,32,138,,1.7,0.8,1.3*02
2017-12-29 10:44:10 1514562250.747455: $GPGSV,3,1,11,10,30,289,43,13,20,045,43,15,51,049,50,18,61,312,44*7D
2017-12-29 10:44:10 1514562250.747629: $GPGSV,3,2,11,20,46,081,50,21,77,219,47,24,41,130,50,27,19,304,23*71
2017-12-29 10:44:10 1514562250.747695: $GPGSV,3,3,11,29,03,187,27,32,09,229,35,138,38,213,45*7D
2017-12-29 10:44:10 1514562250.860799: $GPZDA,154411.00,29,12,2017,00,00*6E
2017-12-29 10:44:10 1514562250.860938: $GPGGA,154411,3946.9601,N,08404.9811,W,2,11,0.80,303.84,M,-33.324,M,,*74
2017-12-29 10:44:10 1514562250.861004: $GPRMC,154411,A,3946.9601,N,08404.9811,W,0.0000,0.000,291217,,*3A
2017-12-29 10:44:10 1514562250.861135: $GPGSA,A,3,10,13,15,18,20,21,24,27,29,32,138,,1.7,0.8,1.3*02
2017-12-29 10:44:11 1514562251.410740: $GPZDA,154412.00,29,12,2017,00,00*6D
2017-12-29 10:44:11 1514562251.410905: $GPGGA,154412,3946.9597,N,08404.9811,W,2,11,0.80,303.20,M,-33.324,M,,*75
2017-12-29 10:44:11 1514562251.410972: $GPRMC,154412,A,3946.9597,N,08404.9811,W,0.0000,0.000,291217,,*35
2017-12-29 10:44:11 1514562251.411089: $GPGSA,A,3,10,13,15,18,20,21,24,27,29,32,138,,1.7,0.8,1.3*02
2017-12-29 10:44:12 1514562252.410329: $GPZDA,154413.00,29,12,2017,00,00*6C
2017-12-29 10:44:12 1514562252.410486: $GPGGA,154413,3946.9597,N,08404.9811,W,2,11,0.80,303.20,M,-33.324,M,,*74
2017-12-29 10:44:12 1514562252.410551: $GPRMC,154413,A,3946.9597,N,08404.9811,W,0.0000,0.000,291217,,*34
2017-12-29 10:44:12 1514562252.410612: $GPGSA,A,3,10,13,15,18,20,21,24,27,29,32,138,,1.7,0.8,1.3*02
2017-12-29 10:44:13 1514562253.749557: $GPGSV,3,1,11,10,30,289,42,13,20,045,43,15,51,049,50,18,61,312,44*7C
2017-12-29 10:44:13 1514562253.749730: $GPGSV,3,2,11,20,46,081,50,21,77,219,47,24,41,130,50,27,19,304,23*71
2017-12-29 10:44:13 1514562253.749796: $GPGSV,3,3,11,29,03,187,28,32,09,229,32,138,38,213,46*76
2017-12-29 10:44:13 1514562253.861957: $GPZDA,154414.00,29,12,2017,00,00*6B
2017-12-29 10:44:13 1514562253.862088: $GPGGA,154414,3946.9597,N,08404.9811,W,2,11,0.80,303.20,M,-33.324,M,,*73
2017-12-29 10:44:13 1514562253.862154: $GPRMC,154414,A,3946.9597,N,08404.9811,W,0.0000,0.000,291217,,*33
2017-12-29 10:44:13 1514562253.862214: $GPGSA,A,3,10,13,15,18,20,21,24,27,29,32,138,,1.7,0.8,1.3*02
2017-12-29 10:44:14 1514562254.488631: $GPZDA,154415.00,29,12,2017,00,00*6A
2017-12-29 10:44:14 1514562254.488796: $GPGGA,154415,3946.9597,N,08404.9811,W,2,11,0.80,303.20,M,-33.324,M,,*72
2017-12-29 10:44:14 1514562254.488862: $GPRMC,154415,A,3946.9597,N,08404.9811,W,0.0000,0.000,291217,,*32
2017-12-29 10:44:14 1514562254.488938: $GPGSA,A,3,10,13,15,18,20,21,24,27,29,32,138,,1.7,0.8,1.3*02
2017-12-29 10:44:15 1514562255.410646: $GPZDA,154416.00,29,12,2017,00,00*69
2017-12-29 10:44:15 1514562255.410829: $GPGGA,154416,3946.9597,N,08404.9811,W,2,11,0.80,303.20,M,-33.324,M,,*71
2017-12-29 10:44:15 1514562255.410896: $GPRMC,154416,A,3946.9597,N,08404.9811,W,0.0000,0.000,291217,,*31
2017-12-29 10:44:15 1514562255.410958: $GPGSA,A,3,10,13,15,18,20,21,24,27,29,32,138,,1.7,0.8,1.3*02
2017-12-29 10:44:16 1514562256.743652: $GPGSV,3,1,11,10,30,289,42,13,20,045,43,15,51,049,50,18,61,312,44*7C
2017-12-29 10:44:16 1514562256.743877: $GPGSV,3,2,11,20,46,081,50,21,77,219,48,24,41,130,50,27,19,304,28*75
2017-12-29 10:44:16 1514562256.743945: $GPGSV,3,3,11,29,03,187,28,32,09,229,32,138,38,213,45*75
2017-12-29 10:44:16 1514562256.857247: $GPZDA,154417.00,29,12,2017,00,00*68
2017-12-29 10:44:16 1514562256.857395: $GPGGA,154417,3946.9597,N,08404.9811,W,2,11,0.80,303.20,M,-33.324,M,,*70
2017-12-29 10:44:16 1514562256.857461: $GPRMC,154417,A,3946.9597,N,08404.9811,W,0.0000,0.000,291217,,*30
2017-12-29 10:44:16 1514562256.857521: $GPGSA,A,3,10,13,15,18,20,21,24,27,29,32,138,,1.7,0.8,1.3*02
2017-12-29 10:44:17 1514562257.378140: $GPZDA,154418.00,29,12,2017,00,00*67
2017-12-29 10:44:17 1514562257.378307: $GPGGA,154418,3946.9597,N,08404.9811,W,2,11,0.80,303.20,M,-33.324,M,,*7F
2017-12-29 10:44:17 1514562257.378389: $GPRMC,154418,A,3946.9597,N,08404.9811,W,0.0000,0.000,291217,,*3F
2017-12-29 10:44:17 1514562257.378451: $GPGSA,A,3,10,13,15,18,20,21,24,27,29,32,138,,1.7,0.8,1.3*02
2017-12-29 10:44:18 1514562258.411559: $GPZDA,154419.00,29,12,2017,00,00*66
2017-12-29 10:44:18 1514562258.411739: $GPGGA,154419,3946.9597,N,08404.9811,W,2,11,0.80,303.20,M,-33.324,M,,*7E
2017-12-29 10:44:18 1514562258.411804: $GPRMC,154419,A,3946.9597,N,08404.9811,W,0.0000,0.000,291217,,*3E
2017-12-29 10:44:18 1514562258.411865: $GPGSA,A,3,10,13,15,18,20,21,24,27,29,32,138,,1.7,0.8,1.3*02
