2017-11-16 13:21:11 1510856471.217626: {"class":"VERSION","release":"3.17","rev":"3.17","proto_major":3,"proto_minor":12}
2017-11-16 13:21:11 1510856471.218038: {"class":"DEVICES","devices":[{"class":"DEVICE","path":"/dev/ttyUSB0","driver":"SiRF","subtype":"9\u0006GSD4e_4.1.2-P1_RPATCH.05-F-GPS-4R-1510281 11/03/2015 307","activated":"2017-11-16T18:21:11.193Z","flags":1,"native":1,"bps":4800,"parity":"N","stopbits":1,"cycle":1.00}]}
2017-11-16 13:21:11 1510856471.218153: {"class":"WATCH","enable":true,"json":false,"nmea":true,"raw":0,"scaled":false,"timing":false,"split24":false,"pps":false}
2017-11-16 13:21:11 1510856471.307098: $GPZDA,182110.00,16,11,2017,00,00*6E
2017-11-16 13:21:11 1510856471.307268: $GPGGA,182110,3946.9602,N,08404.9852,W,2,12,0.80,300.56,M,-33.324,M,,*70
2017-11-16 13:21:11 1510856471.307333: $GPRMC,182110,A,3946.9602,N,08404.9852,W,0.0000,0.000,161117,,*3E
2017-11-16 13:21:11 1510856471.307392: $GPGSA,A,3,10,13,15,18,20,21,24,27,5,29,32,138,1.6,0.8,1.3*36
2017-11-16 13:21:12 1510856472.621578: $GPGSV,3,1,12,10,23,283,44,13,29,045,48,15,61,051,51,18,54,300,47*7E
2017-11-16 13:21:12 1510856472.621752: $GPGSV,3,2,12,20,51,072,48,21,78,270,47,24,33,138,41,27,16,313,37*70
2017-11-16 13:21:12 1510856472.621812: $GPGSV,3,3,12,05,04,087,00,29,09,189,31,32,01,225,22,138,38,213,46*42
2017-11-16 13:21:12 1510856472.734857: $GPZDA,182111.00,16,11,2017,00,00*6F
2017-11-16 13:21:12 1510856472.735020: $GPGGA,182111,3946.9602,N,08404.9852,W,2,11,0.80,300.56,M,-33.324,M,,*72
2017-11-16 13:21:12 1510856472.735081: $GPRMC,182111,A,3946.9602,N,08404.9852,W,0.0000,0.000,161117,,*3F
2017-11-16 13:21:12 1510856472.735138: $GPGSA,A,3,10,13,15,18,20,21,24,27,29,32,138,,1.6,0.8,1.3*03
2017-11-16 13:21:13 1510856473.308466: $GPZDA,182112.00,16,11,2017,00,00*6C
2017-11-16 13:21:13 1510856473.308628: $GPGGA,182112,3946.9602,N,08404.9852,W,2,11,0.80,300.56,M,-33.324,M,,*71
2017-11-16 13:21:13 1510856473.308690: $GPRMC,182112,A,3946.9602,N,08404.9852,W,0.0000,0.000,161117,,*3C
2017-11-16 13:21:13 1510856473.308745: $GPGSA,A,3,10,13,15,18,20,21,24,27,29,32,138,,1.6,0.8,1.3*03
2017-11-16 13:21:14 1510856474.286796: $GPZDA,182113.00,16,11,2017,00,00*6D
2017-11-16 13:21:14 1510856474.286961: $GPGGA,182113,3946.9602,N,08404.9852,W,2,11,0.80,300.56,M,-33.324,M,,*70
2017-11-16 13:21:14 1510856474.287023: $GPRMC,182113,A,3946.9602,N,08404.9852,W,0.0000,0.000,161117,,*3D
2017-11-16 13:21:14 1510856474.287080: $GPGSA,A,3,10,13,15,18,20,21,24,27,29,32,138,,1.6,0.8,1.3*03
2017-11-16 13:21:15 1510856475.621784: $GPGSV,3,1,12,10,23,283,45,13,29,045,48,15,61,051,51,18,54,300,47*7F
2017-11-16 13:21:15 1510856475.621953: $GPGSV,3,2,12,20,51,072,48,21,78,270,47,24,33,138,41,27,16,313,38*7F
2017-11-16 13:21:15 1510856475.622014: $GPGSV,3,3,12,05,04,087,00,29,09,189,31,32,01,225,22,138,38,213,45*41
2017-11-16 13:21:15 1510856475.735074: $GPZDA,182114.00,16,11,2017,00,00*6A
2017-11-16 13:21:15 1510856475.735269: $GPGGA,182114,3946.9602,N,08404.9845,W,2,11,0.80,300.64,M,-33.324,M,,*70
2017-11-16 13:21:15 1510856475.735333: $GPRMC,182114,A,3946.9602,N,08404.9845,W,0.0000,0.000,161117,,*3C
2017-11-16 13:21:15 1510856475.735389: $GPGSA,A,3,10,13,15,18,20,21,24,27,29,32,138,,1.6,0.8,1.3*03
2017-11-16 13:21:16 1510856476.286224: $GPZDA,182115.00,16,11,2017,00,00*6B
2017-11-16 13:21:16 1510856476.286396: $GPGGA,182115,3946.9602,N,08404.9845,W,2,11,0.80,300.64,M,-33.324,M,,*71
2017-11-16 13:21:16 1510856476.286458: $GPRMC,182115,A,3946.9602,N,08404.9845,W,0.0000,0.000,161117,,*3D
2017-11-16 13:21:16 1510856476.286514: $GPGSA,A,3,10,13,15,18,20,21,24,27,29,32,138,,1.6,0.8,1.3*03
2017-11-16 13:21:17 1510856477.285554: $GPZDA,182116.00,16,11,2017,00,00*68
2017-11-16 13:21:17 1510856477.285720: $GPGGA,182116,3946.9602,N,08404.9845,W,2,11,0.80,300.64,M,-33.324,M,,*72
2017-11-16 13:21:17 1510856477.285780: $GPRMC,182116,A,3946.9602,N,08404.9845,W,0.0000,0.000,161117,,*3E
2017-11-16 13:21:17 1510856477.285837: $GPGSA,A,3,10,13,15,18,20,21,24,27,29,32,138,,1.6,0.8,1.3*03
2017-11-16 13:21:18 1510856478.617511: $GPGSV,3,1,12,10,23,283,44,13,29,045,48,15,61,051,51,18,54,300,47*7E
2017-11-16 13:21:18 1510856478.617700: $GPGSV,3,2,12,20,51,072,47,21,78,270,47,24,33,138,40,27,16,313,40*7E
2017-11-16 13:21:18 1510856478.617762: $GPGSV,3,3,12,05,04,087,00,29,09,189,31,32,01,225,22,138,38,213,44*40
2017-11-16 13:21:18 1510856478.729541: $GPZDA,182117.00,16,11,2017,00,00*69
2017-11-16 13:21:18 1510856478.729704: $GPGGA,182117,3946.9602,N,08404.9845,W,2,11,0.80,300.64,M,-33.324,M,,*73
2017-11-16 13:21:18 1510856478.729765: $GPRMC,182117,A,3946.9602,N,08404.9845,W,0.0000,0.000,161117,,*3F
2017-11-16 13:21:18 1510856478.729823: $GPGSA,A,3,10,13,15,18,20,21,24,27,29,32,138,,1.6,0.8,1.3*03
2017-11-16 13:21:19 1510856479.287908: $GPZDA,182118.00,16,11,2017,00,00*66
2017-11-16 13:21:19 1510856479.288103: $GPGGA,182118,3946.9602,N,08404.9845,W,2,11,0.80,300.64,M,-33.324,M,,*7C
2017-11-16 13:21:19 1510856479.288172: $GPRMC,182118,A,3946.9602,N,08404.9845,W,0.0000,0.000,161117,,*30
2017-11-16 13:21:19 1510856479.288232: $GPGSA,A,3,10,13,15,18,20,21,24,27,29,32,138,,1.6,0.8,1.3*03
2017-11-16 13:21:20 1510856480.279453: $GPZDA,182119.00,16,11,2017,00,00*67
2017-11-16 13:21:20 1510856480.279644: $GPGGA,182119,3946.9602,N,08404.9845,W,2,11,0.80,300.64,M,-33.324,M,,*7D
2017-11-16 13:21:20 1510856480.279712: $GPRMC,182119,A,3946.9602,N,08404.9845,W,0.0000,0.000,161117,,*31
2017-11-16 13:21:20 1510856480.279772: $GPGSA,A,3,10,13,15,18,20,21,24,27,29,32,138,,1.6,0.8,1.3*03
