2017-12-01 17:04:14 1512165854.393940: {"class":"VERSION","release":"3.16","rev":"3.16-4","proto_major":3,"proto_minor":11}
2017-12-01 17:04:14 1512165854.394363: {"class":"DEVICES","devices":[{"class":"DEVICE","path":"/dev/ttyUSB0","driver":"SiRF","subtype":"9\u0006GSD4e_4.1.2-P1_RPATCH.05-F-GPS-4R-1510281 11/03/2015 307","activated":"2017-12-01T22:04:14.030Z","flags":1,"native":1,"bps":4800,"parity":"N","stopbits":1,"cycle":1.00}]}
2017-12-01 17:04:14 1512165854.394483: {"class":"WATCH","enable":true,"json":false,"nmea":true,"raw":0,"scaled":false,"timing":false,"split24":false,"pps":false}
2017-12-01 17:04:14 1512165854.638830: $GPZDA,220415.29,01,12,2017,00,00*6B
2017-12-01 17:04:14 1512165854.639005: $GPGGA,220415,3946.9604,N,08404.9770,W,1,12,1.00,306.36,M,-33.324,M,,*78
2017-12-01 17:04:14 1512165854.639073: $GPRMC,220415,A,3946.9604,N,08404.9770,W,0.2172,85.764,011217,,*07
2017-12-01 17:04:14 1512165854.639138: $GPGSA,A,3,1,3,10,18,14,22,26,31,32,25,12,138,2.0,1.0,1.5*03
2017-12-01 17:04:16 1512165856.078506: $GPGSV,3,1,12,01,21,285,36,03,13,316,34,10,32,154,28,11,03,268,26*73
2017-12-01 17:04:16 1512165856.078692: $GPGSV,3,2,12,14,70,009,36,22,32,309,37,25,40,069,26,26,16,180,26*7C
2017-12-01 17:04:16 1512165856.078761: $GPGSV,3,3,12,31,71,247,39,32,61,063,37,12,14,037,00,138,38,213,00*41
2017-12-01 17:04:16 1512165856.191859: $GPZDA,220415.97,01,12,2017,00,00*6E
2017-12-01 17:04:16 1512165856.191984: $GPGGA,220415,3946.9604,N,08404.9770,W,1,10,1.00,306.36,M,-33.324,M,,*7A
2017-12-01 17:04:16 1512165856.192050: $GPRMC,220415,A,3946.9604,N,08404.9770,W,0.3423,184.197,011217,,*3D
2017-12-01 17:04:16 1512165856.192114: $GPGSA,A,3,1,3,10,11,14,22,25,26,31,32,,,2.0,1.0,1.5*33
2017-12-01 17:04:17 1512165857.021218: $GPZDA,220417.00,01,12,2017,00,00*62
2017-12-01 17:04:17 1512165857.021459: $GPGGA,220417,3946.9600,N,08404.9777,W,1,10,1.00,305.64,M,-33.324,M,,*7F
2017-12-01 17:04:17 1512165857.021541: $GPRMC,220417,A,3946.9600,N,08404.9777,W,0.3423,184.197,011217,,*3C
2017-12-01 17:04:17 1512165857.021605: $GPGSA,A,3,1,3,10,11,14,22,25,26,31,32,,,2.0,1.0,1.5*33
2017-12-01 17:04:17 1512165857.021665: $GPGBS,220417,10.70,M,15.43,M,35.28,M*05
2017-12-01 17:04:17 1512165857.276277: $GPZDA,220418.00,01,12,2017,00,00*6D
2017-12-01 17:04:17 1512165857.276437: $GPGGA,220418,3946.9599,N,08404.9777,W,1,10,1.00,304.24,M,-33.324,M,,*76
2017-12-01 17:04:17 1512165857.276503: $GPRMC,220418,A,3946.9599,N,08404.9777,W,0.3006,62.539,011217,,*0A
2017-12-01 17:04:17 1512165857.276565: $GPGSA,A,3,1,3,10,11,14,22,25,26,31,32,,,2.0,1.0,1.5*33
2017-12-01 17:04:17 1512165857.276623: $GPGBS,220418,10.70,M,15.43,M,35.28,M*0A
2017-12-01 17:04:18 1512165858.764248: $GPGSV,3,1,12,01,21,285,45,03,13,316,42,10,32,154,34,11,03,268,38*74
2017-12-01 17:04:18 1512165858.764435: $GPGSV,3,2,12,14,70,009,46,22,32,309,47,25,40,069,34,26,16,180,32*7A
2017-12-01 17:04:18 1512165858.764504: $GPGSV,3,3,12,31,71,247,49,32,61,063,47,18,04,147,13,138,38,213,39*44
2017-12-01 17:04:18 1512165858.877628: $GPZDA,220419.00,01,12,2017,00,00*6C
2017-12-01 17:04:18 1512165858.877785: $GPGGA,220419,3946.9603,N,08404.9769,W,1,12,1.00,303.55,M,-33.324,M,,*7B
2017-12-01 17:04:18 1512165858.877849: $GPRMC,220419,A,3946.9603,N,08404.9769,W,0.3155,129.994,011217,,*36
2017-12-01 17:04:18 1512165858.877912: $GPGSA,A,3,1,3,10,11,14,22,25,26,31,32,18,138,2.0,1.0,1.5*00
2017-12-01 17:04:19 1512165859.502995: $GPZDA,220420.00,01,12,2017,00,00*66
2017-12-01 17:04:19 1512165859.507742: $GPGGA,220420,3946.9601,N,08404.9761,W,1,12,1.00,302.23,M,-33.324,M,,*7B
2017-12-01 17:04:19 1512165859.507888: $GPRMC,220420,A,3946.9601,N,08404.9761,W,0.0000,0.000,011217,,*3A
2017-12-01 17:04:19 1512165859.507953: $GPGSA,A,3,1,3,10,11,14,22,25,26,31,32,18,138,2.0,1.0,1.5*00
2017-12-01 17:04:20 1512165860.428804: $GPZDA,220421.00,01,12,2017,00,00*67
2017-12-01 17:04:20 1512165860.428988: $GPGGA,220421,3946.9605,N,08404.9760,W,1,12,1.00,301.46,M,-33.324,M,,*7F
2017-12-01 17:04:20 1512165860.429061: $GPRMC,220421,A,3946.9605,N,08404.9760,W,0.0000,0.000,011217,,*3E
2017-12-01 17:04:20 1512165860.429123: $GPGSA,A,3,1,3,10,11,14,22,25,26,31,32,18,138,2.0,1.0,1.5*00
2017-12-01 17:04:20 1512165860.429239: $GPGBS,220421,10.70,M,15.43,M,35.28,M*00
2017-12-01 17:04:21 1512165861.764596: $GPGSV,3,1,12,01,21,285,44,03,13,316,42,10,32,154,34,12,14,037,15*77
2017-12-01 17:04:21 1512165861.764754: $GPGSV,3,2,12,14,70,009,46,22,32,309,47,25,40,069,34,26,16,180,32*7A
2017-12-01 17:04:21 1512165861.764820: $GPGSV,3,3,12,31,71,247,49,32,61,063,47,18,04,147,13,138,38,213,40*4A
2017-12-01 17:04:21 1512165861.877914: $GPZDA,220422.00,01,12,2017,00,00*64
2017-12-01 17:04:21 1512165861.878095: $GPGGA,220422,3946.9604,N,08404.9760,W,1,11,1.00,300.06,M,-33.324,M,,*7B
2017-12-01 17:04:21 1512165861.878163: $GPRMC,220422,A,3946.9604,N,08404.9760,W,0.0000,0.000,011217,,*3C
2017-12-01 17:04:21 1512165861.878223: $GPGSA,A,3,1,3,10,14,22,25,26,31,32,18,138,,2.0,1.0,1.5*00
2017-12-01 17:04:22 1512165862.430039: $GPZDA,220423.00,01,12,2017,00,00*65
2017-12-01 17:04:22 1512165862.430214: $GPGGA,220423,3946.9616,N,08404.9718,W,2,11,1.00,289.61,M,-33.324,M,,*74
2017-12-01 17:04:22 1512165862.430280: $GPRMC,220423,A,3946.9616,N,08404.9718,W,0.0000,0.000,011217,,*31
2017-12-01 17:04:22 1512165862.430341: $GPGSA,A,3,1,3,10,14,22,25,26,31,32,18,138,,2.0,1.0,1.5*00
2017-12-01 17:04:23 1512165863.429877: $GPZDA,220424.00,01,12,2017,00,00*62
2017-12-01 17:04:23 1512165863.430049: $GPGGA,220424,3946.9616,N,08404.9718,W,2,11,0.80,289.61,M,-33.324,M,,*7A
2017-12-01 17:04:23 1512165863.430115: $GPRMC,220424,A,3946.9616,N,08404.9718,W,0.0000,0.000,011217,,*36
2017-12-01 17:04:23 1512165863.430177: $GPGSA,A,3,1,3,10,14,22,25,26,31,32,18,138,,2.0,0.8,1.5*09
2017-12-01 17:04:24 1512165864.767356: $GPGSV,3,1,12,01,21,285,44,03,13,316,42,10,32,154,30,12,14,037,18*7E
2017-12-01 17:04:24 1512165864.767555: $GPGSV,3,2,12,14,70,009,46,22,32,309,47,25,40,069,33,26,16,180,35*7A
2017-12-01 17:04:24 1512165864.767624: $GPGSV,3,3,12,31,71,247,49,32,61,063,47,18,04,147,04,138,38,213,40*4C
2017-12-01 17:04:24 1512165864.880874: $GPZDA,220425.00,01,12,2017,00,00*63
2017-12-01 17:04:24 1512165864.881054: $GPGGA,220425,3946.9616,N,08404.9718,W,2,11,0.80,289.61,M,-33.324,M,,*7B
2017-12-01 17:04:24 1512165864.881121: $GPRMC,220425,A,3946.9616,N,08404.9718,W,0.0000,0.000,011217,,*37
2017-12-01 17:04:24 1512165864.881182: $GPGSA,A,3,1,3,10,12,14,22,25,26,31,32,138,,2.0,0.8,1.5*03
2017-12-01 17:04:25 1512165865.431720: $GPZDA,220426.00,01,12,2017,00,00*60
2017-12-01 17:04:25 1512165865.431893: $GPGGA,220426,3946.9616,N,08404.9718,W,2,11,0.80,289.61,M,-33.324,M,,*78
2017-12-01 17:04:25 1512165865.431960: $GPRMC,220426,A,3946.9616,N,08404.9718,W,0.0000,0.000,011217,,*34
2017-12-01 17:04:25 1512165865.432022: $GPGSA,A,3,1,3,10,12,14,22,25,26,31,32,138,,2.0,0.8,1.5*03
2017-12-01 17:04:26 1512165866.431534: $GPZDA,220427.00,01,12,2017,00,00*61
2017-12-01 17:04:26 1512165866.431723: $GPGGA,220427,3946.9616,N,08404.9718,W,2,11,0.80,289.61,M,-33.324,M,,*79
2017-12-01 17:04:26 1512165866.431791: $GPRMC,220427,A,3946.9616,N,08404.9718,W,0.0000,0.000,011217,,*35
2017-12-01 17:04:26 1512165866.431852: $GPGSA,A,3,1,3,10,12,14,22,25,26,31,32,138,,2.0,0.8,1.5*03
2017-12-01 17:04:27 1512165867.765712: $GPGSV,3,1,12,01,21,285,44,03,13,316,42,10,32,154,32,12,14,037,20*77
2017-12-01 17:04:27 1512165867.765895: $GPGSV,3,2,12,14,70,009,46,22,32,309,47,25,40,069,28,26,16,180,38*7D
2017-12-01 17:04:27 1512165867.765962: $GPGSV,3,3,12,31,71,247,48,32,61,063,46,18,04,147,08,138,38,213,38*4F
2017-12-01 17:04:27 1512165867.879111: $GPZDA,220428.00,01,12,2017,00,00*6E
2017-12-01 17:04:27 1512165867.879299: $GPGGA,220428,3946.9616,N,08404.9718,W,2,11,0.80,289.61,M,-33.324,M,,*76
2017-12-01 17:04:27 1512165867.879366: $GPRMC,220428,A,3946.9616,N,08404.9718,W,0.0000,0.000,011217,,*3A
2017-12-01 17:04:27 1512165867.879427: $GPGSA,A,3,1,3,10,12,14,22,25,26,31,32,138,,2.0,0.8,1.5*03
2017-12-01 17:04:28 1512165868.431241: $GPZDA,220429.00,01,12,2017,00,00*6F
2017-12-01 17:04:28 1512165868.431496: $GPGGA,220429,3946.9620,N,08404.9718,W,2,11,0.80,290.25,M,-33.324,M,,*7A
2017-12-01 17:04:28 1512165868.431618: $GPRMC,220429,A,3946.9620,N,08404.9718,W,0.0000,0.000,011217,,*3E
2017-12-01 17:04:28 1512165868.431682: $GPGSA,A,3,1,3,10,12,14,22,25,26,31,32,138,,2.0,0.8,1.5*03
2017-12-01 17:04:29 1512165869.431724: $GPZDA,220430.00,01,12,2017,00,00*67
2017-12-01 17:04:29 1512165869.431895: $GPGGA,220430,3946.9620,N,08404.9718,W,2,11,0.80,290.25,M,-33.324,M,,*72
2017-12-01 17:04:29 1512165869.431961: $GPRMC,220430,A,3946.9620,N,08404.9718,W,0.0000,0.000,011217,,*36
2017-12-01 17:04:29 1512165869.432045: $GPGSA,A,3,1,3,10,12,14,22,25,26,31,32,138,,2.0,0.8,1.5*03
2017-12-01 17:04:30 1512165870.771070: $GPGSV,3,1,12,01,21,285,44,03,13,316,42,10,32,154,33,12,14,037,21*77
2017-12-01 17:04:30 1512165870.771265: $GPGSV,3,2,12,14,70,009,46,22,32,309,47,25,40,069,28,26,16,180,37*72
2017-12-01 17:04:30 1512165870.771332: $GPGSV,3,3,12,31,71,247,49,32,61,063,47,18,04,147,06,138,38,213,40*4E
2017-12-01 17:04:30 1512165870.884513: $GPZDA,220431.00,01,12,2017,00,00*66
2017-12-01 17:04:30 1512165870.884692: $GPGGA,220431,3946.9620,N,08404.9718,W,2,11,0.80,290.25,M,-33.324,M,,*73
2017-12-01 17:04:30 1512165870.884759: $GPRMC,220431,A,3946.9620,N,08404.9718,W,0.0000,0.000,011217,,*37
2017-12-01 17:04:30 1512165870.884820: $GPGSA,A,3,1,3,10,12,14,22,25,26,31,32,138,,2.0,0.8,1.5*03
2017-12-01 17:04:31 1512165871.434063: $GPZDA,220432.00,01,12,2017,00,00*65
2017-12-01 17:04:31 1512165871.434239: $GPGGA,220432,3946.9620,N,08404.9718,W,2,11,0.80,290.25,M,-33.324,M,,*70
2017-12-01 17:04:31 1512165871.434306: $GPRMC,220432,A,3946.9620,N,08404.9718,W,0.0000,0.000,011217,,*34
2017-12-01 17:04:31 1512165871.434369: $GPGSA,A,3,1,3,10,12,14,22,25,26,31,32,138,,2.0,0.8,1.5*03
2017-12-01 17:04:32 1512165872.434792: $GPZDA,220433.00,01,12,2017,00,00*64
2017-12-01 17:04:32 1512165872.434969: $GPGGA,220433,3946.9620,N,08404.9718,W,2,11,0.80,290.25,M,-33.324,M,,*71
2017-12-01 17:04:32 1512165872.435039: $GPRMC,220433,A,3946.9620,N,08404.9718,W,0.0000,0.000,011217,,*35
2017-12-01 17:04:32 1512165872.435105: $GPGSA,A,3,1,3,10,12,14,22,25,26,31,32,138,,2.0,0.8,1.5*03
2017-12-01 17:04:32 1512165872.435163: $GPGBS,220433,2.67,M,3.86,M,8.82,M*36
2017-12-01 17:04:33 1512165873.764531: $GPGSV,3,1,12,01,21,285,13,03,13,316,12,10,32,154,10,12,14,037,08*7A
2017-12-01 17:04:33 1512165873.764732: $GPGSV,3,2,12,14,70,009,14,22,32,309,14,25,40,069,08,26,16,180,11*75
2017-12-01 17:04:33 1512165873.764799: $GPGSV,3,3,12,31,71,247,14,32,61,063,14,18,04,147,00,138,38,213,14*47
2017-12-01 17:04:33 1512165873.876482: $GPZDA,220434.00,01,12,2017,00,00*63
2017-12-01 17:04:33 1512165873.876652: $GPGGA,220434,3946.9620,N,08404.9718,W,2,11,0.80,290.25,M,-33.324,M,,*76
2017-12-01 17:04:33 1512165873.876719: $GPRMC,220434,A,3946.9620,N,08404.9718,W,0.2422,93.794,011217,,*04
2017-12-01 17:04:33 1512165873.876780: $GPGSA,A,3,1,3,10,12,14,22,25,26,31,32,138,,2.0,0.8,1.5*03
