2017-11-16 14:20:50 1510860050.297257: {"class":"VERSION","release":"3.17","rev":"3.17","proto_major":3,"proto_minor":12}
2017-11-16 14:20:50 1510860050.297733: {"class":"DEVICES","devices":[{"class":"DEVICE","path":"/dev/ttyUSB0","driver":"SiRF","subtype":"9\u0006GSD4e_4.1.2-P1_RPATCH.05-F-GPS-4R-1510281 11/03/2015 307","activated":"2017-11-16T19:20:49.749Z","flags":1,"native":1,"bps":4800,"parity":"N","stopbits":1,"cycle":1.00}]}
2017-11-16 14:20:50 1510860050.297855: {"class":"WATCH","enable":true,"json":false,"nmea":true,"raw":0,"scaled":false,"timing":false,"split24":false,"pps":false}
2017-11-16 14:20:50 1510860050.532863: $GPZDA,192049.00,16,11,2017,00,00*62
2017-11-16 14:20:50 1510860050.533023: $GPGGA,192049,3946.9565,N,08404.9857,W,2,12,0.80,303.99,M,-33.324,M,,*7B
2017-11-16 14:20:50 1510860050.533083: $GPRMC,192049,A,3946.9565,N,08404.9857,W,0.0000,0.000,161117,,*35
2017-11-16 14:20:50 1510860050.533139: $GPGSA,A,3,8,10,13,15,18,21,20,24,27,32,14,138,1.6,0.8,1.3*35
2017-11-16 14:20:51 1510860051.836996: $GPGSV,3,1,12,08,07,319,35,10,43,303,46,13,06,049,19,15,35,052,51*7E
2017-11-16 14:20:51 1510860051.837167: $GPGSV,3,2,12,18,72,342,46,21,61,189,46,20,31,097,46,24,52,106,48*70
2017-11-16 14:20:51 1510860051.837227: $GPGSV,3,3,12,27,19,286,39,32,22,240,47,14,06,234,28,138,38,213,44*48
2017-11-16 14:20:51 1510860051.950334: $GPZDA,192050.00,16,11,2017,00,00*6A
2017-11-16 14:20:51 1510860051.950490: $GPGGA,192050,3946.9565,N,08404.9857,W,2,12,0.80,303.99,M,-33.324,M,,*73
2017-11-16 14:20:51 1510860051.950550: $GPRMC,192050,A,3946.9565,N,08404.9857,W,0.0000,0.000,161117,,*3D
2017-11-16 14:20:51 1510860051.950605: $GPGSA,A,3,8,10,13,15,18,21,20,24,27,32,14,138,1.6,0.8,1.3*35
2017-11-16 14:20:52 1510860052.532406: $GPZDA,192051.00,16,11,2017,00,00*6B
2017-11-16 14:20:52 1510860052.532571: $GPGGA,192051,3946.9565,N,08404.9857,W,2,12,0.80,303.99,M,-33.324,M,,*72
2017-11-16 14:20:52 1510860052.532633: $GPRMC,192051,A,3946.9565,N,08404.9857,W,0.0000,0.000,161117,,*3C
2017-11-16 14:20:52 1510860052.532689: $GPGSA,A,3,8,10,13,15,18,21,20,24,27,32,14,138,1.6,0.8,1.3*35
2017-11-16 14:20:53 1510860053.502017: $GPZDA,192052.00,16,11,2017,00,00*68
2017-11-16 14:20:53 1510860053.502166: $GPGGA,192052,3946.9565,N,08404.9857,W,2,12,0.80,303.99,M,-33.324,M,,*71
2017-11-16 14:20:53 1510860053.502226: $GPRMC,192052,A,3946.9565,N,08404.9857,W,0.0000,0.000,161117,,*3F
2017-11-16 14:20:53 1510860053.502299: $GPGSA,A,3,8,10,13,15,18,21,20,24,27,32,14,138,1.6,0.8,1.3*35
2017-11-16 14:20:54 1510860054.864895: $GPGSV,3,1,12,08,07,319,30,10,43,303,46,13,06,049,19,15,35,052,51*7B
2017-11-16 14:20:54 1510860054.865064: $GPGSV,3,2,12,18,72,342,46,21,61,189,46,20,31,097,45,24,52,106,48*73
2017-11-16 14:20:54 1510860054.865124: $GPGSV,3,3,12,27,19,286,39,32,22,240,47,14,06,234,00,138,38,213,44*42
2017-11-16 14:20:54 1510860054.978177: $GPZDA,192053.00,16,11,2017,00,00*69
2017-11-16 14:20:54 1510860054.978337: $GPGGA,192053,3946.9565,N,08404.9857,W,2,11,0.80,303.99,M,-33.324,M,,*73
2017-11-16 14:20:54 1510860054.978398: $GPRMC,192053,A,3946.9565,N,08404.9857,W,0.0000,0.000,161117,,*3E
2017-11-16 14:20:54 1510860054.978453: $GPGSA,A,3,8,10,13,15,18,21,20,24,27,32,138,,1.6,0.8,1.3*30
2017-11-16 14:20:55 1510860055.507844: $GPZDA,192054.00,16,11,2017,00,00*6E
2017-11-16 14:20:55 1510860055.508005: $GPGGA,192054,3946.9565,N,08404.9857,W,2,11,0.80,303.99,M,-33.324,M,,*74
2017-11-16 14:20:55 1510860055.508065: $GPRMC,192054,A,3946.9565,N,08404.9857,W,0.0000,0.000,161117,,*39
2017-11-16 14:20:55 1510860055.508122: $GPGSA,A,3,8,10,13,15,18,21,20,24,27,32,138,,1.6,0.8,1.3*30
2017-11-16 14:20:56 1510860056.502890: $GPZDA,192055.00,16,11,2017,00,00*6F
2017-11-16 14:20:56 1510860056.503049: $GPGGA,192055,3946.9565,N,08404.9857,W,2,11,1.00,303.99,M,-33.324,M,,*7C
2017-11-16 14:20:56 1510860056.503111: $GPRMC,192055,A,3946.9565,N,08404.9857,W,0.0000,0.000,161117,,*38
2017-11-16 14:20:56 1510860056.503167: $GPGSA,A,3,8,10,13,15,18,21,20,24,27,32,138,,1.6,1.0,1.3*39
2017-11-16 14:20:57 1510860057.870776: $GPGSV,3,1,12,08,07,319,26,10,43,303,46,13,06,049,19,15,35,052,51*7C
2017-11-16 14:20:57 1510860057.870994: $GPGSV,3,2,12,18,72,342,46,21,61,189,46,20,31,097,45,24,52,106,47*7C
2017-11-16 14:20:57 1510860057.871059: $GPGSV,3,3,12,27,19,286,39,32,22,240,47,14,06,234,00,138,38,213,42*44
2017-11-16 14:20:57 1510860057.984362: $GPZDA,192056.00,16,11,2017,00,00*6C
2017-11-16 14:20:57 1510860057.984535: $GPGGA,192056,3946.9565,N,08404.9857,W,2,11,0.80,303.99,M,-33.324,M,,*76
2017-11-16 14:20:57 1510860057.984613: $GPRMC,192056,A,3946.9565,N,08404.9857,W,0.0000,0.000,161117,,*3B
2017-11-16 14:20:57 1510860057.984670: $GPGSA,A,3,8,10,13,15,18,21,20,24,27,32,138,,1.6,0.8,1.3*30
2017-11-16 14:20:58 1510860058.533631: $GPZDA,192057.00,16,11,2017,00,00*6D
2017-11-16 14:20:58 1510860058.533811: $GPGGA,192057,3946.9565,N,08404.9857,W,2,11,0.80,303.99,M,-33.324,M,,*77
2017-11-16 14:20:58 1510860058.533873: $GPRMC,192057,A,3946.9565,N,08404.9857,W,0.0000,0.000,161117,,*3A
2017-11-16 14:20:58 1510860058.533929: $GPGSA,A,3,8,10,13,15,18,21,20,24,27,32,138,,1.6,0.8,1.3*30
2017-11-16 14:20:59 1510860059.538945: $GPZDA,192058.00,16,11,2017,00,00*62
2017-11-16 14:20:59 1510860059.539109: $GPGGA,192058,3946.9565,N,08404.9857,W,2,11,0.80,303.99,M,-33.324,M,,*78
2017-11-16 14:20:59 1510860059.539170: $GPRMC,192058,A,3946.9565,N,08404.9857,W,0.0000,0.000,161117,,*35
2017-11-16 14:20:59 1510860059.539226: $GPGSA,A,3,8,10,13,15,18,21,20,24,27,32,138,,1.6,0.8,1.3*30
2017-11-16 14:21:00 1510860060.833493: $GPGSV,3,1,12,08,07,319,33,10,43,303,46,13,06,049,19,15,35,052,51*78
2017-11-16 14:21:00 1510860060.833677: $GPGSV,3,2,12,18,72,342,46,21,61,189,46,20,31,097,45,24,52,106,47*7C
2017-11-16 14:21:00 1510860060.833740: $GPGSV,3,3,12,27,19,286,39,32,22,240,47,14,06,234,00,138,38,213,44*42
2017-11-16 14:21:00 1510860060.946841: $GPZDA,192059.00,16,11,2017,00,00*63
2017-11-16 14:21:00 1510860060.947015: $GPGGA,192059,3946.9565,N,08404.9857,W,2,11,0.80,303.99,M,-33.324,M,,*79
2017-11-16 14:21:00 1510860060.947080: $GPRMC,192059,A,3946.9565,N,08404.9857,W,0.0000,0.000,161117,,*34
2017-11-16 14:21:00 1510860060.947138: $GPGSA,A,3,8,10,13,15,18,21,20,24,27,32,138,,1.6,0.8,1.3*30
2017-11-16 14:21:01 1510860061.527834: $GPZDA,192100.00,16,11,2017,00,00*6E
2017-11-16 14:21:01 1510860061.535240: $GPGGA,192100,3946.9565,N,08404.9857,W,2,11,0.80,303.99,M,-33.324,M,,*74
2017-11-16 14:21:01 1510860061.535369: $GPRMC,192100,A,3946.9565,N,08404.9857,W,0.0000,0.000,161117,,*39
2017-11-16 14:21:01 1510860061.535433: $GPGSA,A,3,8,10,13,15,18,21,20,24,27,32,138,,1.6,0.8,1.3*30
2017-11-16 14:21:02 1510860062.508932: $GPZDA,192101.00,16,11,2017,00,00*6F
2017-11-16 14:21:02 1510860062.509094: $GPGGA,192101,3946.9565,N,08404.9857,W,2,11,0.80,303.99,M,-33.324,M,,*75
2017-11-16 14:21:02 1510860062.509159: $GPRMC,192101,A,3946.9565,N,08404.9857,W,0.0000,0.000,161117,,*38
2017-11-16 14:21:02 1510860062.509217: $GPGSA,A,3,8,10,13,15,18,21,20,24,27,32,138,,1.6,0.8,1.3*30
2017-11-16 14:21:03 1510860063.842417: $GPGSV,3,1,12,08,07,319,37,10,43,303,46,13,06,049,18,15,35,052,51*7D
2017-11-16 14:21:03 1510860063.842632: $GPGSV,3,2,12,18,72,342,46,21,61,189,45,20,31,097,45,24,52,106,47*7F
2017-11-16 14:21:03 1510860063.842717: $GPGSV,3,3,12,27,19,286,39,32,22,240,47,14,06,234,02,138,38,213,42*46
2017-11-16 14:21:03 1510860063.955663: $GPZDA,192102.00,16,11,2017,00,00*6C
2017-11-16 14:21:03 1510860063.955823: $GPGGA,192102,3946.9565,N,08404.9857,W,2,11,0.80,303.99,M,-33.324,M,,*76
2017-11-16 14:21:03 1510860063.955887: $GPRMC,192102,A,3946.9565,N,08404.9857,W,0.0000,0.000,161117,,*3B
2017-11-16 14:21:03 1510860063.955946: $GPGSA,A,3,8,10,13,15,18,21,20,24,27,32,138,,1.6,0.8,1.3*30
2017-11-16 14:21:04 1510860064.580812: $GPZDA,192103.00,16,11,2017,00,00*6D
2017-11-16 14:21:04 1510860064.580986: $GPGGA,192103,3946.9565,N,08404.9857,W,2,11,0.80,303.99,M,-33.324,M,,*77
2017-11-16 14:21:04 1510860064.581054: $GPRMC,192103,A,3946.9565,N,08404.9857,W,0.0000,0.000,161117,,*3A
2017-11-16 14:21:04 1510860064.581132: $GPGSA,A,3,8,10,13,15,18,21,20,24,27,32,138,,1.6,0.8,1.3*30
