2017-12-01 11:39:42 1512146382.586754: {"class":"VERSION","release":"3.16","rev":"3.16-4","proto_major":3,"proto_minor":11}
2017-12-01 11:39:42 1512146382.587145: {"class":"DEVICES","devices":[{"class":"DEVICE","path":"/dev/ttyUSB0","driver":"SiRF","subtype":"9\u0006GSD4e_4.1.2-P1_RPATCH.05-F-GPS-4R-1510281 11/03/2015 307","activated":"2017-12-01T16:39:42.287Z","flags":1,"native":1,"bps":4800,"parity":"N","stopbits":1,"cycle":1.00}]}
2017-12-01 11:39:42 1512146382.587264: {"class":"WATCH","enable":true,"json":false,"nmea":true,"raw":0,"scaled":false,"timing":false,"split24":false,"pps":false}
2017-12-01 11:39:42 1512146382.736523: $GPGSV,3,1,12,05,15,076,31,10,12,271,45,13,45,051,47,15,77,079,47*70
2017-12-01 11:39:42 1512146382.736700: $GPGSV,3,2,12,18,42,283,45,20,64,048,42,21,65,307,45,24,19,150,41*7C
2017-12-01 11:39:42 1512146382.736767: $GPGSV,3,3,12,04,14,129,00,29,26,195,43,27,07,325,29,138,38,213,46*4A
2017-12-01 11:39:42 1512146382.849886: $GPZDA,163943.00,01,12,2017,00,00*6A
2017-12-01 11:39:42 1512146382.850055: $GPGGA,163943,3946.9570,N,08404.9833,W,2,11,0.80,299.89,M,-33.324,M,,*70
2017-12-01 11:39:42 1512146382.850123: $GPRMC,163943,A,3946.9570,N,08404.9833,W,0.0000,0.000,011217,,*3B
2017-12-01 11:39:42 1512146382.850184: $GPGSA,A,3,5,10,13,15,18,20,21,24,29,27,138,,2.0,0.8,1.5*34
2017-12-01 11:39:43 1512146383.475346: $GPZDA,163944.00,01,12,2017,00,00*6D
2017-12-01 11:39:43 1512146383.475538: $GPGGA,163944,3946.9570,N,08404.9833,W,2,11,0.80,299.89,M,-33.324,M,,*77
2017-12-01 11:39:43 1512146383.475607: $GPRMC,163944,A,3946.9570,N,08404.9833,W,0.0000,0.000,011217,,*3C
2017-12-01 11:39:43 1512146383.475669: $GPGSA,A,3,5,10,13,15,18,20,21,24,29,27,138,,2.0,0.8,1.5*34
2017-12-01 11:39:44 1512146384.402396: $GPZDA,163945.00,01,12,2017,00,00*6C
2017-12-01 11:39:44 1512146384.402569: $GPGGA,163945,3946.9566,N,08404.9834,W,2,11,0.80,300.65,M,-33.324,M,,*75
2017-12-01 11:39:44 1512146384.402637: $GPRMC,163945,A,3946.9566,N,08404.9834,W,0.0000,0.000,011217,,*3D
2017-12-01 11:39:44 1512146384.402699: $GPGSA,A,3,5,10,13,15,18,20,21,24,29,27,138,,2.0,0.8,1.5*34
2017-12-01 11:39:45 1512146385.739302: $GPGSV,3,1,12,05,15,076,31,10,12,271,44,13,45,051,47,15,77,079,47*71
2017-12-01 11:39:45 1512146385.739471: $GPGSV,3,2,12,18,42,283,45,20,64,048,42,21,65,307,46,24,19,150,42*7C
2017-12-01 11:39:45 1512146385.739536: $GPGSV,3,3,12,04,14,129,00,29,26,195,43,27,07,325,28,138,38,213,46*4B
2017-12-01 11:39:45 1512146385.852715: $GPZDA,163946.00,01,12,2017,00,00*6F
2017-12-01 11:39:45 1512146385.852889: $GPGGA,163946,3946.9566,N,08404.9834,W,2,11,0.80,300.65,M,-33.324,M,,*76
2017-12-01 11:39:45 1512146385.852956: $GPRMC,163946,A,3946.9566,N,08404.9834,W,0.0000,0.000,011217,,*3E
2017-12-01 11:39:45 1512146385.853017: $GPGSA,A,3,5,10,13,15,18,20,21,24,29,27,138,,2.0,0.8,1.5*34
2017-12-01 11:39:46 1512146386.403542: $GPZDA,163947.00,01,12,2017,00,00*6E
2017-12-01 11:39:46 1512146386.403723: $GPGGA,163947,3946.9566,N,08404.9834,W,2,11,0.80,300.65,M,-33.324,M,,*77
2017-12-01 11:39:46 1512146386.403795: $GPRMC,163947,A,3946.9566,N,08404.9834,W,0.0000,0.000,011217,,*3F
2017-12-01 11:39:46 1512146386.403856: $GPGSA,A,3,5,10,13,15,18,20,21,24,29,27,138,,2.0,0.8,1.5*34
2017-12-01 11:39:47 1512146387.403148: $GPZDA,163948.00,01,12,2017,00,00*61
2017-12-01 11:39:47 1512146387.403334: $GPGGA,163948,3946.9570,N,08404.9827,W,2,11,0.80,301.37,M,-33.324,M,,*7B
2017-12-01 11:39:47 1512146387.403402: $GPRMC,163948,A,3946.9570,N,08404.9827,W,0.0000,0.000,011217,,*35
2017-12-01 11:39:47 1512146387.403463: $GPGSA,A,3,5,10,13,15,18,20,21,24,29,27,138,,2.0,0.8,1.5*34
2017-12-01 11:39:48 1512146388.737157: $GPGSV,3,1,12,05,15,076,31,10,12,271,44,13,45,051,47,15,77,079,47*71
2017-12-01 11:39:48 1512146388.737345: $GPGSV,3,2,12,18,42,283,45,20,64,048,42,21,65,307,45,24,19,150,41*7C
2017-12-01 11:39:48 1512146388.737410: $GPGSV,3,3,12,04,14,129,00,29,26,195,43,27,07,325,30,138,38,213,45*41
2017-12-01 11:39:48 1512146388.850537: $GPZDA,163949.00,01,12,2017,00,00*60
2017-12-01 11:39:48 1512146388.850694: $GPGGA,163949,3946.9563,N,08404.9841,W,2,11,0.80,301.34,M,-33.324,M,,*7B
2017-12-01 11:39:48 1512146388.850808: $GPRMC,163949,A,3946.9563,N,08404.9841,W,0.0000,0.000,011217,,*36
2017-12-01 11:39:48 1512146388.850871: $GPGSA,A,3,5,10,13,15,18,20,21,24,29,27,138,,2.0,0.8,1.5*34
2017-12-01 11:39:49 1512146389.404465: $GPZDA,163950.00,01,12,2017,00,00*68
2017-12-01 11:39:49 1512146389.404687: $GPGGA,163950,3946.9563,N,08404.9841,W,2,11,0.80,301.34,M,-33.324,M,,*73
2017-12-01 11:39:49 1512146389.404759: $GPRMC,163950,A,3946.9563,N,08404.9841,W,0.0000,0.000,011217,,*3E
2017-12-01 11:39:49 1512146389.404820: $GPGSA,A,3,5,10,13,15,18,20,21,24,29,27,138,,2.0,0.8,1.5*34
2017-12-01 11:39:50 1512146390.402303: $GPZDA,163951.00,01,12,2017,00,00*69
2017-12-01 11:39:50 1512146390.404894: $GPGGA,163951,3946.9563,N,08404.9841,W,2,11,0.80,301.34,M,-33.324,M,,*72
2017-12-01 11:39:50 1512146390.404986: $GPRMC,163951,A,3946.9563,N,08404.9841,W,0.0000,0.000,011217,,*3F
2017-12-01 11:39:50 1512146390.405050: $GPGSA,A,3,5,10,13,15,18,20,21,24,29,27,138,,2.0,0.8,1.5*34
2017-12-01 11:39:51 1512146391.739262: $GPGSV,3,1,12,05,15,076,31,10,12,271,44,13,45,051,47,15,77,079,47*71
2017-12-01 11:39:51 1512146391.739443: $GPGSV,3,2,12,18,42,283,45,20,64,048,42,21,65,307,45,24,19,150,41*7C
2017-12-01 11:39:51 1512146391.739510: $GPGSV,3,3,12,04,14,129,00,29,26,195,43,27,07,325,38,138,38,213,46*4A
2017-12-01 11:39:51 1512146391.852661: $GPZDA,163952.00,01,12,2017,00,00*6A
2017-12-01 11:39:51 1512146391.852830: $GPGGA,163952,3946.9567,N,08404.9834,W,2,11,0.80,302.06,M,-33.324,M,,*75
2017-12-01 11:39:51 1512146391.852913: $GPRMC,163952,A,3946.9567,N,08404.9834,W,0.0000,0.000,011217,,*3A
2017-12-01 11:39:51 1512146391.852976: $GPGSA,A,3,5,10,13,15,18,20,21,24,29,27,138,,2.0,0.8,1.5*34
2017-12-01 11:39:52 1512146392.401059: $GPZDA,163953.00,01,12,2017,00,00*6B
2017-12-01 11:39:52 1512146392.401255: $GPGGA,163953,3946.9567,N,08404.9834,W,2,11,0.80,302.06,M,-33.324,M,,*74
2017-12-01 11:39:52 1512146392.401339: $GPRMC,163953,A,3946.9567,N,08404.9834,W,0.0000,0.000,011217,,*3B
2017-12-01 11:39:52 1512146392.401461: $GPGSA,A,3,5,10,13,15,18,20,21,24,29,27,138,,2.0,0.8,1.5*34
