2017-12-01 12:31:49 1512149509.256769: {"class":"VERSION","release":"3.16","rev":"3.16-4","proto_major":3,"proto_minor":11}
2017-12-01 12:31:49 1512149509.257183: {"class":"DEVICES","devices":[{"class":"DEVICE","path":"/dev/ttyUSB0","driver":"SiRF","subtype":"9\u0006GSD4e_4.1.2-P1_RPATCH.05-F-GPS-4R-1510281 11/03/2015 307","activated":"2017-12-01T17:31:49.162Z","flags":1,"native":1,"bps":4800,"parity":"N","stopbits":1,"cycle":1.00}]}
2017-12-01 12:31:49 1512149509.257302: {"class":"WATCH","enable":true,"json":false,"nmea":true,"raw":0,"scaled":false,"timing":false,"split24":false,"pps":false}
2017-12-01 12:31:49 1512149509.472468: $GPZDA,173150.00,01,12,2017,00,00*61
2017-12-01 12:31:49 1512149509.472666: $GPGGA,173150,3946.9581,N,08404.9812,W,2,11,0.80,302.05,M,-33.324,M,,*71
2017-12-01 12:31:49 1512149509.472754: $GPRMC,173150,A,3946.9581,N,08404.9812,W,0.0000,0.000,011217,,*3D
2017-12-01 12:31:49 1512149509.472818: $GPGSA,A,3,10,13,15,18,20,21,24,27,29,32,138,,2.0,0.8,1.5*00
2017-12-01 12:31:50 1512149510.402398: $GPZDA,173151.00,01,12,2017,00,00*60
2017-12-01 12:31:50 1512149510.402594: $GPGGA,173151,3946.9581,N,08404.9812,W,2,11,0.80,302.05,M,-33.324,M,,*70
2017-12-01 12:31:50 1512149510.402663: $GPRMC,173151,A,3946.9581,N,08404.9812,W,0.0000,0.000,011217,,*3C
2017-12-01 12:31:50 1512149510.402752: $GPGSA,A,3,10,13,15,18,20,21,24,27,29,32,138,,2.0,0.8,1.5*00
2017-12-01 12:31:51 1512149511.737793: $GPGSV,3,1,11,10,28,288,42,13,23,045,42,15,54,049,46,18,59,307,46*79
2017-12-01 12:31:51 1512149511.737974: $GPGSV,3,2,11,20,47,079,44,21,78,232,42,24,39,133,47,27,18,307,38*73
2017-12-01 12:31:51 1512149511.738042: $GPGSV,3,3,11,29,04,187,26,32,06,228,22,138,38,213,46*70
2017-12-01 12:31:51 1512149511.851167: $GPZDA,173152.00,01,12,2017,00,00*63
2017-12-01 12:31:51 1512149511.851312: $GPGGA,173152,3946.9581,N,08404.9812,W,2,11,0.80,302.05,M,-33.324,M,,*73
2017-12-01 12:31:51 1512149511.851441: $GPRMC,173152,A,3946.9581,N,08404.9812,W,0.0000,0.000,011217,,*3F
2017-12-01 12:31:51 1512149511.851506: $GPGSA,A,3,10,13,15,18,20,21,24,27,29,32,138,,2.0,0.8,1.5*00
2017-12-01 12:31:52 1512149512.400826: $GPZDA,173153.00,01,12,2017,00,00*62
2017-12-01 12:31:52 1512149512.400995: $GPGGA,173153,3946.9581,N,08404.9812,W,2,11,0.80,302.05,M,-33.324,M,,*72
2017-12-01 12:31:52 1512149512.401062: $GPRMC,173153,A,3946.9581,N,08404.9812,W,0.0000,0.000,011217,,*3E
2017-12-01 12:31:52 1512149512.401123: $GPGSA,A,3,10,13,15,18,20,21,24,27,29,32,138,,2.0,0.8,1.5*00
2017-12-01 12:31:53 1512149513.402020: $GPZDA,173154.00,01,12,2017,00,00*65
2017-12-01 12:31:53 1512149513.402184: $GPGGA,173154,3946.9578,N,08404.9813,W,2,11,0.80,302.81,M,-33.324,M,,*7E
2017-12-01 12:31:53 1512149513.402250: $GPRMC,173154,A,3946.9578,N,08404.9813,W,0.0000,0.000,011217,,*3E
2017-12-01 12:31:53 1512149513.402310: $GPGSA,A,3,10,13,15,18,20,21,24,27,29,32,138,,2.0,0.8,1.5*00
2017-12-01 12:31:53 1512149513.402369: $GPGBS,173154,2.67,M,3.86,M,8.82,M*37
2017-12-01 12:31:54 1512149514.738148: $GPGSV,3,1,11,10,28,288,42,13,23,045,42,15,54,049,46,18,59,307,46*79
2017-12-01 12:31:54 1512149514.738328: $GPGSV,3,2,11,20,47,079,45,21,78,232,42,24,39,133,47,27,18,307,38*72
2017-12-01 12:31:54 1512149514.738396: $GPGSV,3,3,11,29,04,187,26,32,06,228,23,138,38,213,46*71
2017-12-01 12:31:54 1512149514.851935: $GPZDA,173155.00,01,12,2017,00,00*64
2017-12-01 12:31:54 1512149514.852104: $GPGGA,173155,3946.9578,N,08404.9813,W,2,11,0.80,302.81,M,-33.324,M,,*7F
2017-12-01 12:31:54 1512149514.852172: $GPRMC,173155,A,3946.9578,N,08404.9813,W,0.0000,0.000,011217,,*3F
2017-12-01 12:31:54 1512149514.852233: $GPGSA,A,3,10,13,15,18,20,21,24,27,29,32,138,,2.0,0.8,1.5*00
2017-12-01 12:31:55 1512149515.402638: $GPZDA,173156.00,01,12,2017,00,00*67
2017-12-01 12:31:55 1512149515.402851: $GPGGA,173156,3946.9578,N,08404.9813,W,2,11,0.80,302.81,M,-33.324,M,,*7C
2017-12-01 12:31:55 1512149515.402920: $GPRMC,173156,A,3946.9578,N,08404.9813,W,0.0000,0.000,011217,,*3C
2017-12-01 12:31:55 1512149515.402981: $GPGSA,A,3,10,13,15,18,20,21,24,27,29,32,138,,2.0,0.8,1.5*00
2017-12-01 12:31:56 1512149516.395688: $GPZDA,173157.00,01,12,2017,00,00*66
2017-12-01 12:31:56 1512149516.395957: $GPGGA,173157,3946.9578,N,08404.9813,W,2,11,0.80,302.81,M,-33.324,M,,*7D
2017-12-01 12:31:56 1512149516.396027: $GPRMC,173157,A,3946.9578,N,08404.9813,W,0.0000,0.000,011217,,*3D
2017-12-01 12:31:56 1512149516.396087: $GPGSA,A,3,10,13,15,18,20,21,24,27,29,32,138,,2.0,0.8,1.5*00
2017-12-01 12:31:57 1512149517.737647: $GPGSV,3,1,11,10,28,288,42,13,23,045,42,15,54,049,46,18,59,307,46*79
2017-12-01 12:31:57 1512149517.737847: $GPGSV,3,2,11,20,47,079,45,21,78,232,42,24,39,133,47,27,18,307,38*72
2017-12-01 12:31:57 1512149517.737913: $GPGSV,3,3,11,29,04,187,26,32,06,228,23,138,38,213,47*70
2017-12-01 12:31:57 1512149517.851267: $GPZDA,173158.00,01,12,2017,00,00*69
2017-12-01 12:31:57 1512149517.851465: $GPGGA,173158,3946.9578,N,08404.9813,W,2,11,0.80,302.81,M,-33.324,M,,*72
2017-12-01 12:31:57 1512149517.851534: $GPRMC,173158,A,3946.9578,N,08404.9813,W,0.0000,0.000,011217,,*32
2017-12-01 12:31:57 1512149517.851620: $GPGSA,A,3,10,13,15,18,20,21,24,27,29,32,138,,2.0,0.8,1.5*00
2017-12-01 12:31:58 1512149518.402651: $GPZDA,173159.00,01,12,2017,00,00*68
2017-12-01 12:31:58 1512149518.404696: $GPGGA,173159,3946.9578,N,08404.9813,W,2,11,0.80,302.81,M,-33.324,M,,*73
2017-12-01 12:31:58 1512149518.404872: $GPRMC,173159,A,3946.9578,N,08404.9813,W,0.0000,0.000,011217,,*33
2017-12-01 12:31:58 1512149518.404959: $GPGSA,A,3,10,13,15,18,20,21,24,27,29,32,138,,2.0,0.8,1.5*00
