2017-11-16 17:34:58 1510871698.880537: {"class":"VERSION","release":"3.17","rev":"3.17","proto_major":3,"proto_minor":12}
2017-11-16 17:34:58 1510871698.881081: {"class":"DEVICES","devices":[{"class":"DEVICE","path":"/dev/ttyUSB0","driver":"SiRF","subtype":"9\u0006GSD4e_4.1.2-P1_RPATCH.05-F-GPS-4R-1510281 11/03/2015 307","activated":"2017-11-16T22:34:58.538Z","flags":1,"native":1,"bps":4800,"parity":"N","stopbits":1,"cycle":1.00}]}
2017-11-16 17:34:58 1510871698.881283: {"class":"WATCH","enable":true,"json":false,"nmea":true,"raw":0,"scaled":false,"timing":false,"split24":false,"pps":false}
2017-11-16 17:34:59 1510871699.407526: $GPZDA,223458.00,16,11,2017,00,00*6F
2017-11-16 17:35:00 1510871700.060510: $GPGGA,223458,3946.9575,N,08404.9834,W,2,11,0.80,303.34,M,-33.324,M,,*76
2017-11-16 17:35:00 1510871700.060752: $GPRMC,223458,A,3946.9575,N,08404.9834,W,0.0000,0.000,161117,,*3C
2017-11-16 17:35:00 1510871700.060814: $GPGSA,A,3,1,10,22,12,14,18,11,25,31,32,138,,1.6,0.8,1.3*3E
2017-11-16 17:35:00 1510871700.740801: $GPGSV,3,1,11,01,21,300,33,10,47,148,46,22,19,312,45,12,22,049,50*75
2017-11-16 17:35:00 1510871700.740941: $GPGSV,3,2,11,14,66,330,46,18,17,144,40,11,08,280,40,25,40,088,48*7C
2017-11-16 17:35:00 1510871700.741004: $GPGSV,3,3,11,31,56,226,49,32,68,030,49,138,38,213,44*73
2017-11-16 17:35:00 1510871700.854108: $GPZDA,223459.00,16,11,2017,00,00*6E
2017-11-16 17:35:00 1510871700.854285: $GPGGA,223459,3946.9575,N,08404.9834,W,2,11,0.80,303.34,M,-33.324,M,,*77
2017-11-16 17:35:00 1510871700.854347: $GPRMC,223459,A,3946.9575,N,08404.9834,W,0.0000,0.000,161117,,*3D
2017-11-16 17:35:00 1510871700.854403: $GPGSA,A,3,1,10,22,12,14,18,11,25,31,32,138,,1.6,0.8,1.3*3E
2017-11-16 17:35:01 1510871701.479537: $GPZDA,223500.00,16,11,2017,00,00*63
2017-11-16 17:35:01 1510871701.479702: $GPGGA,223500,3946.9575,N,08404.9834,W,2,11,0.80,303.34,M,-33.324,M,,*7A
2017-11-16 17:35:01 1510871701.479766: $GPRMC,223500,A,3946.9575,N,08404.9834,W,0.0000,0.000,161117,,*30
2017-11-16 17:35:01 1510871701.479824: $GPGSA,A,3,1,10,22,12,14,18,11,25,31,32,138,,1.6,0.8,1.3*3E
2017-11-16 17:35:02 1510871702.398091: $GPZDA,223501.00,16,11,2017,00,00*62
2017-11-16 17:35:02 1510871702.398261: $GPGGA,223501,3946.9575,N,08404.9834,W,2,11,0.80,303.34,M,-33.324,M,,*7B
2017-11-16 17:35:02 1510871702.398326: $GPRMC,223501,A,3946.9575,N,08404.9834,W,0.0000,0.000,161117,,*31
2017-11-16 17:35:02 1510871702.398382: $GPGSA,A,3,1,10,22,12,14,18,11,25,31,32,138,,1.6,0.8,1.3*3E
2017-11-16 17:35:03 1510871703.756291: $GPGSV,3,1,11,01,21,300,34,10,47,148,46,22,19,312,44,12,22,049,50*73
2017-11-16 17:35:03 1510871703.756465: $GPGSV,3,2,11,14,66,330,46,18,17,144,40,11,08,280,41,25,40,088,48*7D
2017-11-16 17:35:03 1510871703.756528: $GPGSV,3,3,11,31,56,226,49,32,68,030,49,138,38,213,43*74
2017-11-16 17:35:03 1510871703.869499: $GPZDA,223502.00,16,11,2017,00,00*61
2017-11-16 17:35:03 1510871703.869689: $GPGGA,223502,3946.9575,N,08404.9834,W,2,11,0.80,303.34,M,-33.324,M,,*78
2017-11-16 17:35:03 1510871703.869750: $GPRMC,223502,A,3946.9575,N,08404.9834,W,0.0000,0.000,161117,,*32
2017-11-16 17:35:03 1510871703.869807: $GPGSA,A,3,1,10,22,12,14,18,11,25,31,32,138,,1.6,0.8,1.3*3E
2017-11-16 17:35:04 1510871704.397876: $GPZDA,223503.00,16,11,2017,00,00*60
2017-11-16 17:35:04 1510871704.398044: $GPGGA,223503,3946.9575,N,08404.9834,W,2,11,0.80,303.34,M,-33.324,M,,*79
2017-11-16 17:35:04 1510871704.398105: $GPRMC,223503,A,3946.9575,N,08404.9834,W,0.0000,0.000,161117,,*33
2017-11-16 17:35:04 1510871704.398163: $GPGSA,A,3,1,10,22,12,14,18,11,25,31,32,138,,1.6,0.8,1.3*3E
2017-11-16 17:35:05 1510871705.398763: $GPZDA,223504.00,16,11,2017,00,00*67
2017-11-16 17:35:05 1510871705.398929: $GPGGA,223504,3946.9575,N,08404.9834,W,2,11,0.80,303.34,M,-33.324,M,,*7E
2017-11-16 17:35:05 1510871705.398993: $GPRMC,223504,A,3946.9575,N,08404.9834,W,0.0000,0.000,161117,,*34
2017-11-16 17:35:05 1510871705.399049: $GPGSA,A,3,1,10,22,12,14,18,11,25,31,32,138,,1.6,0.8,1.3*3E
2017-11-16 17:35:06 1510871706.735345: $GPGSV,3,1,12,01,21,300,34,10,47,148,46,22,19,312,44,12,22,049,50*70
2017-11-16 17:35:06 1510871706.735564: $GPGSV,3,2,12,14,66,330,46,18,17,144,41,26,03,183,00,11,08,280,41*7D
2017-11-16 17:35:06 1510871706.735625: $GPGSV,3,3,12,25,40,088,48,31,56,226,49,32,68,030,49,138,38,213,43*48
2017-11-16 17:35:06 1510871706.848564: $GPZDA,223505.00,16,11,2017,00,00*66
2017-11-16 17:35:06 1510871706.848752: $GPGGA,223505,3946.9575,N,08404.9834,W,2,11,0.80,303.34,M,-33.324,M,,*7F
2017-11-16 17:35:06 1510871706.848815: $GPRMC,223505,A,3946.9575,N,08404.9834,W,0.0000,0.000,161117,,*35
2017-11-16 17:35:06 1510871706.848874: $GPGSA,A,3,1,10,22,12,14,18,11,25,31,32,138,,1.6,0.8,1.3*3E
2017-11-16 17:35:07 1510871707.408197: $GPZDA,223506.00,16,11,2017,00,00*65
2017-11-16 17:35:07 1510871707.408363: $GPGGA,223506,3946.9575,N,08404.9834,W,2,11,0.80,303.34,M,-33.324,M,,*7C
2017-11-16 17:35:07 1510871707.408426: $GPRMC,223506,A,3946.9575,N,08404.9834,W,0.0000,0.000,161117,,*36
2017-11-16 17:35:07 1510871707.408483: $GPGSA,A,3,1,10,22,12,14,18,11,25,31,32,138,,1.6,0.8,1.3*3E
2017-11-16 17:35:08 1510871708.414374: $GPZDA,223507.00,16,11,2017,00,00*64
2017-11-16 17:35:08 1510871708.414544: $GPGGA,223507,3946.9575,N,08404.9834,W,2,11,0.80,303.34,M,-33.324,M,,*7D
2017-11-16 17:35:08 1510871708.414603: $GPRMC,223507,A,3946.9575,N,08404.9834,W,0.0000,0.000,161117,,*37
2017-11-16 17:35:08 1510871708.414660: $GPGSA,A,3,1,10,22,12,14,18,11,25,31,32,138,,1.6,0.8,1.3*3E
