2017-12-01 14:08:03 1512155283.356794: {"class":"VERSION","release":"3.16","rev":"3.16-4","proto_major":3,"proto_minor":11}
2017-12-01 14:08:03 1512155283.357197: {"class":"DEVICES","devices":[{"class":"DEVICE","path":"/dev/ttyUSB0","driver":"SiRF","subtype":"9\u0006GSD4e_4.1.2-P1_RPATCH.05-F-GPS-4R-1510281 11/03/2015 307","activated":"2017-12-01T19:08:03.254Z","flags":1,"native":1,"bps":4800,"parity":"N","stopbits":1,"cycle":1.00}]}
2017-12-01 14:08:03 1512155283.357337: {"class":"WATCH","enable":true,"json":false,"nmea":true,"raw":0,"scaled":false,"timing":false,"split24":false,"pps":false}
2017-12-01 14:08:03 1512155283.849558: $GPZDA,190804.54,01,12,2017,00,00*65
2017-12-01 14:08:03 1512155283.849728: $GPGGA,190804,3946.9585,N,08404.9772,W,1,12,1.00,307.37,M,-33.324,M,,*74
2017-12-01 14:08:03 1512155283.849794: $GPRMC,190804,A,3946.9585,N,08404.9772,W,0.7621,287.944,011217,,*33
2017-12-01 14:08:03 1512155283.849857: $GPGSA,A,3,10,14,15,18,21,24,27,32,20,8,12,138,2.0,1.0,1.5*3E
2017-12-01 14:08:03 1512155283.849917: $GPGBS,190804,10.70,M,15.43,M,35.28,M*03
2017-12-01 14:08:04 1512155284.931058: $GPZDA,190805.23,01,12,2017,00,00*64
2017-12-01 14:08:04 1512155284.931232: $GPGGA,190805,3946.9596,N,08404.9770,W,1,12,1.00,305.08,M,-33.324,M,,*7B
2017-12-01 14:08:04 1512155284.931303: $GPRMC,190805,A,3946.9596,N,08404.9770,W,0.0407,142.013,011217,,*32
2017-12-01 14:08:04 1512155284.931427: $GPGSA,A,3,10,14,15,18,21,24,27,32,20,8,12,138,2.0,1.0,1.5*3E
2017-12-01 14:08:06 1512155286.111140: $GPGSV,3,1,12,10,63,322,49,14,24,247,38,15,16,063,33,18,75,075,43*73
2017-12-01 14:08:06 1512155286.111328: $GPGSV,3,2,12,20,14,114,34,21,36,180,43,24,49,067,47,27,10,265,41*7E
2017-12-01 14:08:06 1512155286.111456: $GPGSV,3,3,12,32,41,258,44,08,07,300,05,12,05,112,05,138,38,213,44*48
2017-12-01 14:08:06 1512155286.224518: $GPZDA,190806.00,01,12,2017,00,00*66
2017-12-01 14:08:06 1512155286.224683: $GPGGA,190806,3946.9592,N,08404.9777,W,1,10,1.00,304.36,M,-33.324,M,,*75
2017-12-01 14:08:06 1512155286.224747: $GPRMC,190806,A,3946.9592,N,08404.9777,W,0.1867,180.000,011217,,*35
2017-12-01 14:08:06 1512155286.224809: $GPGSA,A,3,10,14,15,18,20,21,24,27,32,138,,,2.0,1.0,1.5*05
2017-12-01 14:08:06 1512155286.675473: $GPZDA,190807.00,01,12,2017,00,00*67
2017-12-01 14:08:06 1512155286.675644: $GPGGA,190807,3946.9583,N,08404.9825,W,1,10,0.80,287.64,M,-33.324,M,,*78
2017-12-01 14:08:06 1512155286.675712: $GPRMC,190807,A,3946.9583,N,08404.9825,W,0.1867,180.000,011217,,*3C
2017-12-01 14:08:06 1512155286.675774: $GPGSA,A,3,10,14,15,18,20,21,24,27,32,138,,,2.0,0.8,1.5*0C
2017-12-01 14:08:07 1512155287.346504: $GPZDA,190808.00,01,12,2017,00,00*68
2017-12-01 14:08:07 1512155287.346675: $GPGGA,190808,3946.9583,N,08404.9826,W,1,10,0.80,289.05,M,-33.324,M,,*7D
2017-12-01 14:08:07 1512155287.346743: $GPRMC,190808,A,3946.9583,N,08404.9826,W,0.0000,0.000,011217,,*31
2017-12-01 14:08:07 1512155287.346803: $GPGSA,A,3,10,14,15,18,20,21,24,27,32,138,,,2.0,0.8,1.5*0C
2017-12-01 14:08:08 1512155288.680379: $GPGSV,3,1,12,10,63,322,49,14,24,247,38,15,16,063,34,18,75,075,42*75
2017-12-01 14:08:08 1512155288.680561: $GPGSV,3,2,12,20,14,114,35,21,36,180,43,24,49,067,48,27,10,265,41*70
2017-12-01 14:08:08 1512155288.680628: $GPGSV,3,3,12,32,41,258,44,08,07,300,25,12,05,112,24,138,38,213,46*4B
2017-12-01 14:08:08 1512155288.793857: $GPZDA,190809.00,01,12,2017,00,00*69
2017-12-01 14:08:08 1512155288.794030: $GPGGA,190809,3946.9580,N,08404.9826,W,1,12,0.80,289.81,M,-33.324,M,,*71
2017-12-01 14:08:08 1512155288.794098: $GPRMC,190809,A,3946.9580,N,08404.9826,W,0.0000,0.000,011217,,*33
2017-12-01 14:08:08 1512155288.794178: $GPGSA,A,3,10,14,15,18,20,21,24,27,32,8,12,138,2.0,0.8,1.5*37
2017-12-01 14:08:09 1512155289.345831: $GPZDA,190810.00,01,12,2017,00,00*61
2017-12-01 14:08:09 1512155289.346008: $GPGGA,190810,3946.9576,N,08404.9820,W,1,12,0.80,290.65,M,-33.324,M,,*74
2017-12-01 14:08:09 1512155289.346076: $GPRMC,190810,A,3946.9576,N,08404.9820,W,0.0000,0.000,011217,,*34
2017-12-01 14:08:09 1512155289.346138: $GPGSA,A,3,10,14,15,18,20,21,24,27,32,8,12,138,2.0,0.8,1.5*37
2017-12-01 14:08:10 1512155290.347577: $GPZDA,190811.00,01,12,2017,00,00*60
2017-12-01 14:08:10 1512155290.347758: $GPGGA,190811,3946.9580,N,08404.9820,W,1,12,0.80,291.29,M,-33.324,M,,*75
2017-12-01 14:08:10 1512155290.347843: $GPRMC,190811,A,3946.9580,N,08404.9820,W,0.0000,0.000,011217,,*3C
2017-12-01 14:08:10 1512155290.347906: $GPGSA,A,3,10,14,15,18,20,21,24,27,32,8,12,138,2.0,0.8,1.5*37
2017-12-01 14:08:10 1512155290.347966: $GPGBS,190811,10.70,M,15.43,M,35.28,M*07
2017-12-01 14:08:11 1512155291.682345: $GPGSV,3,1,12,10,63,322,49,14,24,247,37,15,16,063,35,18,75,075,42*7B
2017-12-01 14:08:11 1512155291.682490: $GPGSV,3,2,12,20,14,114,36,21,36,180,43,24,49,067,48,27,10,265,41*73
2017-12-01 14:08:11 1512155291.682554: $GPGSV,3,3,12,32,41,258,44,08,07,300,21,12,05,112,09,138,38,213,46*40
2017-12-01 14:08:11 1512155291.795771: $GPZDA,190812.00,01,12,2017,00,00*63
2017-12-01 14:08:11 1512155291.795938: $GPGGA,190812,3946.9577,N,08404.9821,W,2,12,1.00,292.06,M,-33.324,M,,*7B
2017-12-01 14:08:11 1512155291.796006: $GPRMC,190812,A,3946.9577,N,08404.9821,W,0.0000,0.000,011217,,*36
2017-12-01 14:08:11 1512155291.796067: $GPGSA,A,3,10,14,15,18,20,21,24,27,32,8,12,138,2.0,1.0,1.5*3E
2017-12-01 14:08:12 1512155292.344444: $GPZDA,190813.00,01,12,2017,00,00*62
2017-12-01 14:08:12 1512155292.344618: $GPGGA,190813,3946.9573,N,08404.9821,W,2,12,1.00,291.42,M,-33.324,M,,*7D
2017-12-01 14:08:12 1512155292.344685: $GPRMC,190813,A,3946.9573,N,08404.9821,W,0.2422,93.794,011217,,*05
2017-12-01 14:08:12 1512155292.344745: $GPGSA,A,3,10,14,15,18,20,21,24,27,32,8,12,138,2.0,1.0,1.5*3E
2017-12-01 14:08:13 1512155293.347199: $GPZDA,190814.00,01,12,2017,00,00*65
2017-12-01 14:08:13 1512155293.347398: $GPGGA,190814,3946.9577,N,08404.9827,W,2,12,1.00,290.57,M,-33.324,M,,*7D
2017-12-01 14:08:13 1512155293.347467: $GPRMC,190814,A,3946.9577,N,08404.9827,W,0.0000,0.000,011217,,*36
2017-12-01 14:08:13 1512155293.347549: $GPGSA,A,3,10,14,15,18,20,21,24,27,32,8,12,138,2.0,1.0,1.5*3E
2017-12-01 14:08:14 1512155294.682619: $GPGSV,3,1,12,10,63,322,49,14,24,247,38,15,16,063,35,18,75,075,42*74
2017-12-01 14:08:14 1512155294.692389: $GPGSV,3,2,12,20,14,114,36,21,36,180,43,24,49,067,48,27,10,265,42*70
2017-12-01 14:08:14 1512155294.692517: $GPGSV,3,3,12,32,41,258,44,08,07,300,04,12,05,112,06,138,38,213,46*48
2017-12-01 14:08:14 1512155294.796371: $GPZDA,190815.00,01,12,2017,00,00*64
2017-12-01 14:08:14 1512155294.796542: $GPGGA,190815,3946.9573,N,08404.9828,W,2,10,1.00,291.34,M,-33.324,M,,*71
2017-12-01 14:08:14 1512155294.796609: $GPRMC,190815,A,3946.9573,N,08404.9828,W,0.0000,0.000,011217,,*3C
2017-12-01 14:08:14 1512155294.796670: $GPGSA,A,3,10,14,15,18,20,21,24,27,32,138,,,2.0,1.0,1.5*05
2017-12-01 14:08:15 1512155295.349746: $GPZDA,190816.00,01,12,2017,00,00*67
2017-12-01 14:08:15 1512155295.349916: $GPGGA,190816,3946.9573,N,08404.9828,W,2,10,0.80,291.34,M,-33.324,M,,*7B
2017-12-01 14:08:15 1512155295.349983: $GPRMC,190816,A,3946.9573,N,08404.9828,W,0.0000,0.000,011217,,*3F
2017-12-01 14:08:15 1512155295.350045: $GPGSA,A,3,10,14,15,18,20,21,24,27,32,138,,,2.0,0.8,1.5*0C
2017-12-01 14:08:16 1512155296.346719: $GPZDA,190817.00,01,12,2017,00,00*66
2017-12-01 14:08:16 1512155296.346900: $GPGGA,190817,3946.9577,N,08404.9828,W,2,10,0.80,291.98,M,-33.324,M,,*78
2017-12-01 14:08:16 1512155296.346970: $GPRMC,190817,A,3946.9577,N,08404.9828,W,0.0000,0.000,011217,,*3A
2017-12-01 14:08:16 1512155296.347031: $GPGSA,A,3,10,14,15,18,20,21,24,27,32,138,,,2.0,0.8,1.5*0C
2017-12-01 14:08:17 1512155297.683595: $GPGSV,3,1,12,10,63,322,49,14,24,247,39,15,16,063,35,18,75,075,42*75
2017-12-01 14:08:17 1512155297.683773: $GPGSV,3,2,12,20,14,114,36,21,36,180,43,24,49,067,48,27,10,265,42*70
2017-12-01 14:08:17 1512155297.683839: $GPGSV,3,3,12,32,41,258,44,08,07,300,17,12,05,112,05,138,38,213,47*48
2017-12-01 14:08:17 1512155297.797059: $GPZDA,190818.00,01,12,2017,00,00*69
2017-12-01 14:08:17 1512155297.797272: $GPGGA,190818,3946.9574,N,08404.9829,W,2,11,0.80,292.74,M,-33.324,M,,*75
2017-12-01 14:08:17 1512155297.797341: $GPRMC,190818,A,3946.9574,N,08404.9829,W,0.0000,0.000,011217,,*37
2017-12-01 14:08:17 1512155297.797452: $GPGSA,A,3,10,14,15,18,20,21,24,27,32,8,138,,2.0,0.8,1.5*34
2017-12-01 14:08:18 1512155298.422526: $GPZDA,190819.00,01,12,2017,00,00*68
2017-12-01 14:08:18 1512155298.422699: $GPGGA,190819,3946.9574,N,08404.9829,W,2,11,0.80,292.74,M,-33.324,M,,*74
2017-12-01 14:08:18 1512155298.422766: $GPRMC,190819,A,3946.9574,N,08404.9829,W,0.0000,0.000,011217,,*36
2017-12-01 14:08:18 1512155298.422827: $GPGSA,A,3,10,14,15,18,20,21,24,27,32,8,138,,2.0,0.8,1.5*34
2017-12-01 14:08:19 1512155299.348357: $GPZDA,190820.00,01,12,2017,00,00*62
2017-12-01 14:08:19 1512155299.350009: $GPGGA,190820,3946.9568,N,08404.9831,W,2,11,0.80,295.68,M,-33.324,M,,*70
2017-12-01 14:08:19 1512155299.350124: $GPRMC,190820,A,3946.9568,N,08404.9831,W,0.1567,189.200,011217,,*3F
2017-12-01 14:08:19 1512155299.350190: $GPGSA,A,3,10,14,15,18,20,21,24,27,32,8,138,,2.0,0.8,1.5*34
2017-12-01 14:08:20 1512155300.682585: $GPGSV,3,1,12,10,63,322,49,14,24,247,39,15,16,063,36,18,75,075,43*77
2017-12-01 14:08:20 1512155300.682780: $GPGSV,3,2,12,20,14,114,36,21,36,180,43,24,49,067,48,27,10,265,43*71
2017-12-01 14:08:20 1512155300.682847: $GPGSV,3,3,12,32,41,258,44,08,07,300,29,12,05,112,04,138,38,213,46*45
2017-12-01 14:08:20 1512155300.796204: $GPZDA,190821.00,01,12,2017,00,00*63
2017-12-01 14:08:20 1512155300.796366: $GPGGA,190821,3946.9568,N,08404.9831,W,2,11,0.80,295.68,M,-33.324,M,,*71
2017-12-01 14:08:20 1512155300.796433: $GPRMC,190821,A,3946.9568,N,08404.9831,W,0.0000,0.000,011217,,*39
2017-12-01 14:08:20 1512155300.796494: $GPGSA,A,3,10,14,15,18,20,21,24,27,32,8,138,,2.0,0.8,1.5*34
2017-12-01 14:08:21 1512155301.348302: $GPZDA,190822.00,01,12,2017,00,00*60
2017-12-01 14:08:21 1512155301.348478: $GPGGA,190822,3946.9568,N,08404.9831,W,2,11,0.80,295.68,M,-33.324,M,,*72
2017-12-01 14:08:21 1512155301.348545: $GPRMC,190822,A,3946.9568,N,08404.9831,W,0.0000,0.000,011217,,*3A
2017-12-01 14:08:21 1512155301.348606: $GPGSA,A,3,10,14,15,18,20,21,24,27,32,8,138,,2.0,0.8,1.5*34
2017-12-01 14:08:22 1512155302.348842: $GPZDA,190823.00,01,12,2017,00,00*61
2017-12-01 14:08:22 1512155302.349030: $GPGGA,190823,3946.9568,N,08404.9831,W,2,11,0.80,295.68,M,-33.324,M,,*73
2017-12-01 14:08:22 1512155302.349138: $GPRMC,190823,A,3946.9568,N,08404.9831,W,0.0000,0.000,011217,,*3B
2017-12-01 14:08:22 1512155302.349201: $GPGSA,A,3,10,14,15,18,20,21,24,27,32,8,138,,2.0,0.8,1.5*34
2017-12-01 14:08:22 1512155302.349294: $GPGBS,190823,2.67,M,3.86,M,8.82,M*33
