2017-12-29 14:54:52 1514577292.271223: {"class":"VERSION","release":"3.16","rev":"3.16-4","proto_major":3,"proto_minor":11}
2017-12-29 14:54:52 1514577292.271599: {"class":"DEVICES","devices":[{"class":"DEVICE","path":"/dev/ttyUSB0","driver":"SiRF","subtype":"9\u0006GSD4e_4.1.2-P1_RPATCH.05-F-GPS-4R-1510281 11/03/2015 307","activated":"2017-12-29T19:54:52.269Z","flags":1,"native":1,"bps":4800,"parity":"N","stopbits":1,"cycle":1.00}]}
2017-12-29 14:54:52 1514577292.271716: {"class":"WATCH","enable":true,"json":false,"nmea":true,"raw":0,"scaled":false,"timing":false,"split24":false,"pps":false}
2017-12-29 14:54:52 1514577292.382765: $GPZDA,195453.00,29,12,2017,00,00*65
2017-12-29 14:54:52 1514577292.382931: $GPGGA,195453,3946.9594,N,08404.9839,W,2,12,0.80,302.24,M,-33.324,M,,*72
2017-12-29 14:54:52 1514577292.382997: $GPRMC,195453,A,3946.9594,N,08404.9839,W,0.0000,0.000,291217,,*34
2017-12-29 14:54:52 1514577292.383058: $GPGSA,A,3,1,3,10,18,12,14,22,25,31,32,26,138,1.7,0.8,1.3*08
2017-12-29 14:54:53 1514577293.719747: $GPGSV,3,1,12,01,22,292,39,03,08,316,41,10,39,151,48,18,09,147,34*77
2017-12-29 14:54:53 1514577293.719930: $GPGSV,3,2,12,12,18,042,45,14,69,346,43,22,27,310,42,25,41,079,51*73
2017-12-29 14:54:53 1514577293.719996: $GPGSV,3,3,12,31,66,235,46,32,64,051,51,26,11,180,28,138,38,213,43*4C
2017-12-29 14:54:53 1514577293.833190: $GPZDA,195454.00,29,12,2017,00,00*62
2017-12-29 14:54:53 1514577293.833331: $GPGGA,195454,3946.9594,N,08404.9839,W,2,12,0.80,302.24,M,-33.324,M,,*75
2017-12-29 14:54:53 1514577293.833399: $GPRMC,195454,A,3946.9594,N,08404.9839,W,0.0000,0.000,291217,,*33
2017-12-29 14:54:53 1514577293.833459: $GPGSA,A,3,1,3,10,18,12,14,22,25,31,32,26,138,1.7,0.8,1.3*08
2017-12-29 14:54:54 1514577294.458712: $GPZDA,195455.00,29,12,2017,00,00*63
2017-12-29 14:54:54 1514577294.458866: $GPGGA,195455,3946.9594,N,08404.9839,W,2,12,0.80,302.24,M,-33.324,M,,*74
2017-12-29 14:54:54 1514577294.458933: $GPRMC,195455,A,3946.9594,N,08404.9839,W,0.0000,0.000,291217,,*32
2017-12-29 14:54:54 1514577294.458994: $GPGSA,A,3,1,3,10,18,12,14,22,25,31,32,26,138,1.7,0.8,1.3*08
2017-12-29 14:54:55 1514577295.387074: $GPZDA,195456.00,29,12,2017,00,00*60
2017-12-29 14:54:55 1514577295.387241: $GPGGA,195456,3946.9594,N,08404.9839,W,2,12,0.80,302.24,M,-33.324,M,,*77
2017-12-29 14:54:55 1514577295.387307: $GPRMC,195456,A,3946.9594,N,08404.9839,W,0.0000,0.000,291217,,*31
2017-12-29 14:54:55 1514577295.387367: $GPGSA,A,3,1,3,10,18,12,14,22,25,31,32,26,138,1.7,0.8,1.3*08
2017-12-29 14:54:56 1514577296.722565: $GPGSV,3,1,12,01,22,292,39,03,08,316,41,10,39,151,48,18,09,147,34*77
2017-12-29 14:54:56 1514577296.722747: $GPGSV,3,2,12,12,18,042,45,14,69,346,43,22,27,310,42,25,41,079,51*73
2017-12-29 14:54:56 1514577296.722812: $GPGSV,3,3,12,31,66,235,46,32,64,051,51,26,11,180,29,138,38,213,43*4D
2017-12-29 14:54:56 1514577296.836152: $GPZDA,195457.00,29,12,2017,00,00*61
2017-12-29 14:54:56 1514577296.836284: $GPGGA,195457,3946.9594,N,08404.9839,W,2,12,0.80,302.24,M,-33.324,M,,*76
2017-12-29 14:54:56 1514577296.836349: $GPRMC,195457,A,3946.9594,N,08404.9839,W,0.0000,0.000,291217,,*30
2017-12-29 14:54:56 1514577296.836410: $GPGSA,A,3,1,3,10,18,12,14,22,25,31,32,26,138,1.7,0.8,1.3*08
2017-12-29 14:54:57 1514577297.388311: $GPZDA,195458.00,29,12,2017,00,00*6E
2017-12-29 14:54:57 1514577297.388476: $GPGGA,195458,3946.9594,N,08404.9839,W,2,12,0.80,302.24,M,-33.324,M,,*79
2017-12-29 14:54:57 1514577297.388541: $GPRMC,195458,A,3946.9594,N,08404.9839,W,0.0000,0.000,291217,,*3F
2017-12-29 14:54:57 1514577297.388601: $GPGSA,A,3,1,3,10,18,12,14,22,25,31,32,26,138,1.7,0.8,1.3*08
2017-12-29 14:54:58 1514577298.387938: $GPZDA,195459.00,29,12,2017,00,00*6F
2017-12-29 14:54:58 1514577298.721540: $GPGGA,195459,3946.9594,N,08404.9839,W,2,12,0.80,302.24,M,-33.324,M,,*78
2017-12-29 14:54:58 1514577298.721676: $GPRMC,195459,A,3946.9594,N,08404.9839,W,0.0000,0.000,291217,,*3E
2017-12-29 14:54:58 1514577298.721740: $GPGSA,A,3,1,3,10,18,12,14,22,25,31,32,26,138,1.7,0.8,1.3*08
2017-12-29 14:54:59 1514577299.721677: $GPGSV,3,1,12,01,22,292,39,03,08,316,41,10,39,151,48,18,09,147,34*77
2017-12-29 14:54:59 1514577299.721913: $GPGSV,3,2,12,12,18,042,45,14,69,346,43,22,27,310,41,25,41,079,51*70
2017-12-29 14:54:59 1514577299.721983: $GPGSV,3,3,12,31,66,235,46,32,64,051,51,26,11,180,29,138,38,213,44*4A
2017-12-29 14:54:59 1514577299.835244: $GPZDA,195500.00,29,12,2017,00,00*62
2017-12-29 14:54:59 1514577299.835362: $GPGGA,195500,3946.9594,N,08404.9839,W,2,12,0.80,302.24,M,-33.324,M,,*75
2017-12-29 14:54:59 1514577299.835425: $GPRMC,195500,A,3946.9594,N,08404.9839,W,0.0000,0.000,291217,,*33
2017-12-29 14:54:59 1514577299.835485: $GPGSA,A,3,1,3,10,18,12,14,22,25,31,32,26,138,1.7,0.8,1.3*08
2017-12-29 14:55:00 1514577300.382470: $GPZDA,195501.00,29,12,2017,00,00*63
2017-12-29 14:55:00 1514577300.382602: $GPGGA,195501,3946.9594,N,08404.9839,W,2,12,0.80,302.24,M,-33.324,M,,*74
2017-12-29 14:55:00 1514577300.382667: $GPRMC,195501,A,3946.9594,N,08404.9839,W,0.0000,0.000,291217,,*32
2017-12-29 14:55:00 1514577300.382727: $GPGSA,A,3,1,3,10,18,12,14,22,25,31,32,26,138,1.7,0.8,1.3*08
2017-12-29 14:55:01 1514577301.388257: $GPZDA,195502.00,29,12,2017,00,00*60
2017-12-29 14:55:01 1514577301.388426: $GPGGA,195502,3946.9594,N,08404.9839,W,2,12,0.80,302.24,M,-33.324,M,,*77
2017-12-29 14:55:01 1514577301.388493: $GPRMC,195502,A,3946.9594,N,08404.9839,W,0.0000,0.000,291217,,*31
2017-12-29 14:55:01 1514577301.388554: $GPGSA,A,3,1,3,10,18,12,14,22,25,31,32,26,138,1.7,0.8,1.3*08
