2017-12-31 18:33:14 1514763194.478427: {"class":"VERSION","release":"3.16","rev":"3.16-4","proto_major":3,"proto_minor":11}
2017-12-31 18:33:14 1514763194.478855: {"class":"DEVICES","devices":[{"class":"DEVICE","path":"/dev/ttyUSB0","driver":"SiRF","activated":"2017-12-31T23:33:14.467Z","flags":1,"native":1,"bps":4800,"parity":"N","stopbits":1,"cycle":1.00}]}
2017-12-31 18:33:14 1514763194.478958: {"class":"WATCH","enable":true,"json":false,"nmea":true,"raw":0,"scaled":false,"timing":false,"split24":false,"pps":false}
2017-12-31 18:33:15 1514763195.687008: $GPGSV,3,1,12,08,09,177,20,23,63,295,41,09,29,312,40,03,24,226,40*74
2017-12-31 18:33:15 1514763195.687251: $GPGSV,3,2,12,16,85,051,43,22,14,208,30,14,06,138,22,31,21,082,42*7A
2017-12-31 18:33:15 1514763195.687320: $GPGSV,3,3,12,27,32,148,36,07,05,280,45,26,52,046,48,135,22,240,43*44
2017-12-31 18:33:15 1514763195.800494: $GPZDA,233316.00,31,12,2017,00,00*65
2017-12-31 18:33:15 1514763195.800686: $GPGGA,233316,3946.9581,N,08404.9843,W,2,12,0.80,306.71,M,-33.324,M,,*76
2017-12-31 18:33:15 1514763195.800756: $GPRMC,233316,A,3946.9581,N,08404.9843,W,0.0000,0.000,311217,,*3D
2017-12-31 18:33:15 1514763195.800816: $GPGSA,A,3,8,23,9,3,16,22,14,31,27,7,26,135,1.7,0.8,1.3*0C
2017-12-31 18:33:16 1514763196.351280: $GPZDA,233317.00,31,12,2017,00,00*64
2017-12-31 18:33:16 1514763196.351452: $GPGGA,233317,3946.9581,N,08404.9843,W,2,12,0.80,306.71,M,-33.324,M,,*77
2017-12-31 18:33:16 1514763196.351519: $GPRMC,233317,A,3946.9581,N,08404.9843,W,0.0000,0.000,311217,,*3C
2017-12-31 18:33:16 1514763196.351579: $GPGSA,A,3,8,23,9,3,16,22,14,31,27,7,26,135,1.7,0.8,1.3*0C
2017-12-31 18:33:17 1514763197.350895: $GPZDA,233318.00,31,12,2017,00,00*6B
2017-12-31 18:33:17 1514763197.351070: $GPGGA,233318,3946.9581,N,08404.9843,W,2,12,0.80,306.71,M,-33.324,M,,*78
2017-12-31 18:33:17 1514763197.351136: $GPRMC,233318,A,3946.9581,N,08404.9843,W,0.0000,0.000,311217,,*33
2017-12-31 18:33:17 1514763197.351197: $GPGSA,A,3,8,23,9,3,16,22,14,31,27,7,26,135,1.7,0.8,1.3*0C
2017-12-31 18:33:18 1514763198.686601: $GPGSV,3,1,12,08,09,177,19,23,63,295,41,09,29,312,40,03,24,226,40*7E
2017-12-31 18:33:18 1514763198.686764: $GPGSV,3,2,12,16,85,051,42,22,14,208,12,14,06,138,21,31,21,082,42*78
2017-12-31 18:33:18 1514763198.686830: $GPGSV,3,3,12,27,32,148,37,07,05,280,45,26,52,046,48,135,22,240,43*45
2017-12-31 18:33:18 1514763198.798806: $GPZDA,233319.00,31,12,2017,00,00*6A
2017-12-31 18:33:18 1514763198.798988: $GPGGA,233319,3946.9581,N,08404.9843,W,2,11,0.80,306.71,M,-33.324,M,,*7A
2017-12-31 18:33:18 1514763198.799055: $GPRMC,233319,A,3946.9581,N,08404.9843,W,0.0000,0.000,311217,,*32
2017-12-31 18:33:18 1514763198.799116: $GPGSA,A,3,8,23,9,3,16,14,31,27,7,26,135,,1.7,0.8,1.3*0C
2017-12-31 18:33:19 1514763199.353403: $GPZDA,233320.00,31,12,2017,00,00*60
2017-12-31 18:33:19 1514763199.353578: $GPGGA,233320,3946.9581,N,08404.9843,W,2,11,0.80,306.71,M,-33.324,M,,*70
2017-12-31 18:33:19 1514763199.353645: $GPRMC,233320,A,3946.9581,N,08404.9843,W,0.0000,0.000,311217,,*38
2017-12-31 18:33:19 1514763199.353706: $GPGSA,A,3,8,23,9,3,16,14,31,27,7,26,135,,1.7,0.8,1.3*0C
2017-12-31 18:33:20 1514763200.352444: $GPZDA,233321.00,31,12,2017,00,00*61
2017-12-31 18:33:20 1514763200.352626: $GPGGA,233321,3946.9581,N,08404.9843,W,2,11,0.80,306.71,M,-33.324,M,,*71
2017-12-31 18:33:20 1514763200.352693: $GPRMC,233321,A,3946.9581,N,08404.9843,W,0.0000,0.000,311217,,*39
2017-12-31 18:33:20 1514763200.352754: $GPGSA,A,3,8,23,9,3,16,14,31,27,7,26,135,,1.7,0.8,1.3*0C
2017-12-31 18:33:21 1514763201.691943: $GPGSV,3,1,12,08,09,177,00,23,63,295,41,09,29,312,41,03,24,226,40*77
2017-12-31 18:33:21 1514763201.692126: $GPGSV,3,2,12,16,85,051,40,22,14,208,14,14,06,138,17,31,21,082,41*7A
2017-12-31 18:33:21 1514763201.692192: $GPGSV,3,3,12,27,32,148,38,07,05,280,45,26,52,046,48,135,22,240,42*4B
2017-12-31 18:33:21 1514763201.805338: $GPZDA,233322.00,31,12,2017,00,00*62
2017-12-31 18:33:21 1514763201.805525: $GPGGA,233322,3946.9581,N,08404.9843,W,2,11,0.80,306.71,M,-33.324,M,,*72
2017-12-31 18:33:21 1514763201.805592: $GPRMC,233322,A,3946.9581,N,08404.9843,W,0.0000,0.000,311217,,*3A
2017-12-31 18:33:21 1514763201.805709: $GPGSA,A,3,23,9,3,16,22,14,31,27,7,26,135,,1.7,0.8,1.3*34
2017-12-31 18:33:22 1514763202.388739: $GPZDA,233323.00,31,12,2017,00,00*63
2017-12-31 18:33:22 1514763202.388906: $GPGGA,233323,3946.9581,N,08404.9843,W,2,11,0.80,306.71,M,-33.324,M,,*73
2017-12-31 18:33:22 1514763202.389074: $GPRMC,233323,A,3946.9581,N,08404.9843,W,0.0000,0.000,311217,,*3B
2017-12-31 18:33:22 1514763202.389138: $GPGSA,A,3,23,9,3,16,22,14,31,27,7,26,135,,1.7,0.8,1.3*34
2017-12-31 18:33:23 1514763203.352036: $GPZDA,233324.00,31,12,2017,00,00*64
2017-12-31 18:33:23 1514763203.352211: $GPGGA,233324,3946.9578,N,08404.9844,W,2,11,0.80,307.47,M,-33.324,M,,*71
2017-12-31 18:33:23 1514763203.352277: $GPRMC,233324,A,3946.9578,N,08404.9844,W,0.0000,0.000,311217,,*3D
2017-12-31 18:33:23 1514763203.352338: $GPGSA,A,3,23,9,3,16,22,14,31,27,7,26,135,,1.7,0.8,1.3*34
2017-12-31 18:33:24 1514763204.680272: $GPGSV,3,1,12,08,09,177,22,23,63,295,41,09,29,312,41,03,24,226,40*77
2017-12-31 18:33:24 1514763204.680461: $GPGSV,3,2,12,16,85,051,40,22,14,208,27,14,06,138,20,31,21,082,41*7E
2017-12-31 18:33:24 1514763204.680531: $GPGSV,3,3,12,27,32,148,39,07,05,280,46,26,52,046,48,135,22,240,43*48
2017-12-31 18:33:24 1514763204.793634: $GPZDA,233325.00,31,12,2017,00,00*65
2017-12-31 18:33:24 1514763204.793814: $GPGGA,233325,3946.9578,N,08404.9844,W,2,12,0.80,307.47,M,-33.324,M,,*73
2017-12-31 18:33:24 1514763204.793884: $GPRMC,233325,A,3946.9578,N,08404.9844,W,0.0000,0.000,311217,,*3C
2017-12-31 18:33:24 1514763204.793948: $GPGSA,A,3,8,23,9,3,16,22,14,31,27,7,26,135,1.7,0.8,1.3*0C
2017-12-31 18:33:25 1514763205.419176: $GPZDA,233326.00,31,12,2017,00,00*66
2017-12-31 18:33:25 1514763205.419348: $GPGGA,233326,3946.9578,N,08404.9844,W,2,12,0.80,307.47,M,-33.324,M,,*70
2017-12-31 18:33:25 1514763205.419437: $GPRMC,233326,A,3946.9578,N,08404.9844,W,0.0000,0.000,311217,,*3F
2017-12-31 18:33:25 1514763205.419503: $GPGSA,A,3,8,23,9,3,16,22,14,31,27,7,26,135,1.7,0.8,1.3*0C
2017-12-31 18:33:26 1514763206.386403: $GPZDA,233327.00,31,12,2017,00,00*67
2017-12-31 18:33:26 1514763206.386568: $GPGGA,233327,3946.9578,N,08404.9844,W,2,12,0.80,307.47,M,-33.324,M,,*71
2017-12-31 18:33:26 1514763206.386636: $GPRMC,233327,A,3946.9578,N,08404.9844,W,0.0000,0.000,311217,,*3E
2017-12-31 18:33:26 1514763206.386700: $GPGSA,A,3,8,23,9,3,16,22,14,31,27,7,26,135,1.7,0.8,1.3*0C
2017-12-31 18:33:27 1514763207.721900: $GPGSV,3,1,11,23,63,295,42,09,29,312,41,03,24,226,40,16,85,051,40*7D
2017-12-31 18:33:27 1514763207.722085: $GPGSV,3,2,11,22,14,208,00,14,06,138,21,31,21,082,41,27,32,148,39*70
2017-12-31 18:33:27 1514763207.722153: $GPGSV,3,3,11,07,05,280,46,26,52,046,48,135,22,240,42*79
2017-12-31 18:33:27 1514763207.835287: $GPZDA,233328.00,31,12,2017,00,00*68
2017-12-31 18:33:27 1514763207.835476: $GPGGA,233328,3946.9578,N,08404.9844,W,2,10,0.80,307.47,M,-33.324,M,,*7C
2017-12-31 18:33:27 1514763207.835562: $GPRMC,233328,A,3946.9578,N,08404.9844,W,0.0000,0.000,311217,,*31
2017-12-31 18:33:27 1514763207.835627: $GPGSA,A,3,23,9,3,16,14,31,27,7,26,135,,,1.7,0.8,1.3*34
2017-12-31 18:33:28 1514763208.357494: $GPZDA,233329.00,31,12,2017,00,00*69
2017-12-31 18:33:28 1514763208.357695: $GPGGA,233329,3946.9578,N,08404.9844,W,2,10,0.80,307.47,M,-33.324,M,,*7D
2017-12-31 18:33:28 1514763208.357764: $GPRMC,233329,A,3946.9578,N,08404.9844,W,0.0000,0.000,311217,,*30
2017-12-31 18:33:28 1514763208.357828: $GPGSA,A,3,23,9,3,16,14,31,27,7,26,135,,,1.7,0.8,1.3*34
2017-12-31 18:33:29 1514763209.353282: $GPZDA,233330.00,31,12,2017,00,00*61
2017-12-31 18:33:29 1514763209.353480: $GPGGA,233330,3946.9578,N,08404.9844,W,2,10,0.80,307.47,M,-33.324,M,,*75
2017-12-31 18:33:29 1514763209.353568: $GPRMC,233330,A,3946.9578,N,08404.9844,W,0.0000,0.000,311217,,*38
2017-12-31 18:33:29 1514763209.353633: $GPGSA,A,3,23,9,3,16,14,31,27,7,26,135,,,1.7,0.8,1.3*34
2017-12-31 18:33:30 1514763210.723438: $GPGSV,3,1,12,22,14,208,24,23,63,295,42,09,29,312,40,03,24,226,40*7C
2017-12-31 18:33:30 1514763210.723594: $GPGSV,3,2,12,16,85,051,41,08,09,177,00,14,06,138,22,31,21,082,41*77
2017-12-31 18:33:30 1514763210.723713: $GPGSV,3,3,12,27,32,148,39,07,05,280,46,26,52,046,48,135,22,240,43*48
2017-12-31 18:33:30 1514763210.836827: $GPZDA,233331.00,31,12,2017,00,00*60
2017-12-31 18:33:30 1514763210.837020: $GPGGA,233331,3946.9578,N,08404.9844,W,2,11,0.80,307.47,M,-33.324,M,,*75
2017-12-31 18:33:30 1514763210.837089: $GPRMC,233331,A,3946.9578,N,08404.9844,W,0.0000,0.000,311217,,*39
2017-12-31 18:33:30 1514763210.837216: $GPGSA,A,3,22,23,9,3,16,14,31,27,7,26,135,,1.7,0.8,1.3*34
2017-12-31 18:33:31 1514763211.388930: $GPZDA,233332.00,31,12,2017,00,00*63
2017-12-31 18:33:31 1514763211.389099: $GPGGA,233332,3946.9578,N,08404.9844,W,2,11,0.80,307.47,M,-33.324,M,,*76
2017-12-31 18:33:31 1514763211.389165: $GPRMC,233332,A,3946.9578,N,08404.9844,W,0.0000,0.000,311217,,*3A
2017-12-31 18:33:31 1514763211.389225: $GPGSA,A,3,22,23,9,3,16,14,31,27,7,26,135,,1.7,0.8,1.3*34
2017-12-31 18:33:32 1514763212.391122: $GPZDA,233333.00,31,12,2017,00,00*62
2017-12-31 18:33:32 1514763212.391307: $GPGGA,233333,3946.9578,N,08404.9837,W,2,11,0.80,307.55,M,-33.324,M,,*70
2017-12-31 18:33:32 1514763212.391374: $GPRMC,233333,A,3946.9578,N,08404.9837,W,0.0000,0.000,311217,,*3F
2017-12-31 18:33:32 1514763212.391435: $GPGSA,A,3,22,23,9,3,16,14,31,27,7,26,135,,1.7,0.8,1.3*34
2017-12-31 18:33:33 1514763213.688034: $GPGSV,3,1,12,22,14,208,24,23,63,295,41,09,29,312,40,03,24,226,40*7F
2017-12-31 18:33:33 1514763213.688205: $GPGSV,3,2,12,16,85,051,42,08,09,177,00,14,06,138,23,31,21,082,40*74
2017-12-31 18:33:33 1514763213.688270: $GPGSV,3,3,12,27,32,148,39,07,05,280,46,26,52,046,47,135,22,240,44*40
2017-12-31 18:33:33 1514763213.801462: $GPZDA,233334.00,31,12,2017,00,00*65
2017-12-31 18:33:33 1514763213.801847: $GPGGA,233334,3946.9578,N,08404.9837,W,2,11,0.80,307.55,M,-33.324,M,,*77
2017-12-31 18:33:33 1514763213.801947: $GPRMC,233334,A,3946.9578,N,08404.9837,W,0.0000,0.000,311217,,*38
2017-12-31 18:33:33 1514763213.802036: $GPGSA,A,3,22,23,9,3,16,14,31,27,7,26,135,,1.7,0.8,1.3*34
2017-12-31 18:33:34 1514763214.352286: $GPZDA,233335.00,31,12,2017,00,00*64
2017-12-31 18:33:34 1514763214.352464: $GPGGA,233335,3946.9578,N,08404.9837,W,2,11,0.80,307.55,M,-33.324,M,,*76
2017-12-31 18:33:34 1514763214.352529: $GPRMC,233335,A,3946.9578,N,08404.9837,W,0.0000,0.000,311217,,*39
2017-12-31 18:33:34 1514763214.352591: $GPGSA,A,3,22,23,9,3,16,14,31,27,7,26,135,,1.7,0.8,1.3*34
