2017-12-01 16:05:43 1512162343.907414: {"class":"VERSION","release":"3.16","rev":"3.16-4","proto_major":3,"proto_minor":11}
2017-12-01 16:05:43 1512162343.907786: {"class":"DEVICES","devices":[{"class":"DEVICE","path":"/dev/ttyUSB0","driver":"SiRF","subtype":"9\u0006GSD4e_4.1.2-P1_RPATCH.05-F-GPS-4R-1510281 11/03/2015 307","activated":"2017-12-01T21:05:43.842Z","flags":1,"native":1,"bps":4800,"parity":"N","stopbits":1,"cycle":1.00}]}
2017-12-01 16:05:43 1512162343.908037: {"class":"WATCH","enable":true,"json":false,"nmea":true,"raw":0,"scaled":false,"timing":false,"split24":false,"pps":false}
2017-12-01 16:05:44 1512162344.353683: $GPZDA,210545.00,01,12,2017,00,00*67
2017-12-01 16:05:44 1512162344.353866: $GPGGA,210545,3946.9573,N,08404.9816,W,2,12,0.80,308.55,M,-33.324,M,,*72
2017-12-01 16:05:44 1512162344.353932: $GPRMC,210545,A,3946.9573,N,08404.9816,W,0.0000,0.000,011217,,*32
2017-12-01 16:05:44 1512162344.353994: $GPGSA,A,3,1,10,12,14,18,25,31,32,11,22,24,138,2.0,0.8,1.5*3B
2017-12-01 16:05:45 1512162345.354316: $GPZDA,210546.00,01,12,2017,00,00*64
2017-12-01 16:05:45 1512162345.354497: $GPGGA,210546,3946.9573,N,08404.9816,W,2,12,0.80,308.55,M,-33.324,M,,*71
2017-12-01 16:05:45 1512162345.354564: $GPRMC,210546,A,3946.9573,N,08404.9816,W,0.0000,0.000,011217,,*31
2017-12-01 16:05:45 1512162345.354625: $GPGSA,A,3,1,10,12,14,18,25,31,32,11,22,24,138,2.0,0.8,1.5*3B
2017-12-01 16:05:46 1512162346.691108: $GPGSV,3,1,12,01,18,310,20,10,60,141,48,12,25,061,44,14,60,306,45*7B
2017-12-01 16:05:46 1512162346.691291: $GPGSV,3,2,12,18,28,139,42,25,35,105,48,31,45,217,48,32,70,355,47*71
2017-12-01 16:05:46 1512162346.691413: $GPGSV,3,3,12,11,10,292,36,22,10,312,31,24,06,046,22,138,38,213,46*45
2017-12-01 16:05:46 1512162346.804826: $GPZDA,210547.00,01,12,2017,00,00*65
2017-12-01 16:05:46 1512162346.804994: $GPGGA,210547,3946.9573,N,08404.9816,W,2,12,0.80,308.55,M,-33.324,M,,*70
2017-12-01 16:05:46 1512162346.805060: $GPRMC,210547,A,3946.9573,N,08404.9816,W,0.0000,0.000,011217,,*30
2017-12-01 16:05:46 1512162346.805121: $GPGSA,A,3,1,10,12,14,18,25,31,32,11,22,24,138,2.0,0.8,1.5*3B
2017-12-01 16:05:47 1512162347.354059: $GPZDA,210548.00,01,12,2017,00,00*6A
2017-12-01 16:05:47 1512162347.354241: $GPGGA,210548,3946.9573,N,08404.9816,W,2,12,0.80,308.55,M,-33.324,M,,*7F
2017-12-01 16:05:47 1512162347.354308: $GPRMC,210548,A,3946.9573,N,08404.9816,W,0.0000,0.000,011217,,*3F
2017-12-01 16:05:47 1512162347.354370: $GPGSA,A,3,1,10,12,14,18,25,31,32,11,22,24,138,2.0,0.8,1.5*3B
2017-12-01 16:05:48 1512162348.352253: $GPZDA,210549.00,01,12,2017,00,00*6B
2017-12-01 16:05:48 1512162348.352431: $GPGGA,210549,3946.9573,N,08404.9816,W,2,12,0.80,308.55,M,-33.324,M,,*7E
2017-12-01 16:05:48 1512162348.352499: $GPRMC,210549,A,3946.9573,N,08404.9816,W,0.0000,0.000,011217,,*3E
2017-12-01 16:05:48 1512162348.352560: $GPGSA,A,3,1,10,12,14,18,25,31,32,11,22,24,138,2.0,0.8,1.5*3B
2017-12-01 16:05:49 1512162349.692750: $GPGSV,3,1,12,01,18,310,20,10,60,141,48,12,25,061,45,14,60,306,44*7B
2017-12-01 16:05:49 1512162349.692930: $GPGSV,3,2,12,18,28,139,42,25,35,105,48,31,45,217,49,32,70,355,46*71
2017-12-01 16:05:49 1512162349.692997: $GPGSV,3,3,12,11,10,292,36,22,10,312,31,24,06,046,22,138,38,213,46*45
2017-12-01 16:05:49 1512162349.806387: $GPZDA,210550.00,01,12,2017,00,00*63
2017-12-01 16:05:49 1512162349.806535: $GPGGA,210550,3946.9574,N,08404.9817,W,2,12,0.80,309.96,M,-33.324,M,,*7E
2017-12-01 16:05:49 1512162349.806602: $GPRMC,210550,A,3946.9574,N,08404.9817,W,0.0000,0.000,011217,,*30
2017-12-01 16:05:49 1512162349.806662: $GPGSA,A,3,1,10,12,14,18,25,31,32,11,22,24,138,2.0,0.8,1.5*3B
2017-12-01 16:05:50 1512162350.354765: $GPZDA,210551.00,01,12,2017,00,00*62
2017-12-01 16:05:50 1512162350.354935: $GPGGA,210551,3946.9574,N,08404.9817,W,2,12,0.80,309.96,M,-33.324,M,,*7F
2017-12-01 16:05:50 1512162350.355001: $GPRMC,210551,A,3946.9574,N,08404.9817,W,0.0000,0.000,011217,,*31
2017-12-01 16:05:50 1512162350.355061: $GPGSA,A,3,1,10,12,14,18,25,31,32,11,22,24,138,2.0,0.8,1.5*3B
2017-12-01 16:05:51 1512162351.353129: $GPZDA,210552.00,01,12,2017,00,00*61
2017-12-01 16:05:51 1512162351.353352: $GPGGA,210552,3946.9574,N,08404.9817,W,2,12,0.80,309.96,M,-33.324,M,,*7C
2017-12-01 16:05:51 1512162351.353420: $GPRMC,210552,A,3946.9574,N,08404.9817,W,0.0000,0.000,011217,,*32
2017-12-01 16:05:51 1512162351.353482: $GPGSA,A,3,1,10,12,14,18,25,31,32,11,22,24,138,2.0,0.8,1.5*3B
2017-12-01 16:05:52 1512162352.689785: $GPGSV,3,1,12,01,18,310,23,10,60,141,48,12,25,061,45,14,60,306,44*78
2017-12-01 16:05:52 1512162352.689996: $GPGSV,3,2,12,18,28,139,43,25,35,105,48,31,45,217,48,32,70,355,47*70
2017-12-01 16:05:52 1512162352.690084: $GPGSV,3,3,12,11,10,292,35,22,10,312,32,24,06,046,23,138,38,213,46*44
2017-12-01 16:05:52 1512162352.803495: $GPZDA,210553.00,01,12,2017,00,00*60
2017-12-01 16:05:52 1512162352.803672: $GPGGA,210553,3946.9574,N,08404.9817,W,2,12,0.80,309.96,M,-33.324,M,,*7D
2017-12-01 16:05:52 1512162352.803739: $GPRMC,210553,A,3946.9574,N,08404.9817,W,0.0000,0.000,011217,,*33
2017-12-01 16:05:52 1512162352.803800: $GPGSA,A,3,1,10,12,14,18,25,31,32,11,22,24,138,2.0,0.8,1.5*3B
2017-12-01 16:05:53 1512162353.428542: $GPZDA,210554.00,01,12,2017,00,00*67
2017-12-01 16:05:53 1512162353.428744: $GPGGA,210554,3946.9574,N,08404.9817,W,2,12,0.80,309.96,M,-33.324,M,,*7A
2017-12-01 16:05:53 1512162353.428813: $GPRMC,210554,A,3946.9574,N,08404.9817,W,0.0000,0.000,011217,,*34
2017-12-01 16:05:53 1512162353.428875: $GPGSA,A,3,1,10,12,14,18,25,31,32,11,22,24,138,2.0,0.8,1.5*3B
2017-12-01 16:05:54 1512162354.354668: $GPZDA,210555.00,01,12,2017,00,00*66
2017-12-01 16:05:54 1512162354.354839: $GPGGA,210555,3946.9574,N,08404.9817,W,2,12,0.80,309.96,M,-33.324,M,,*7B
2017-12-01 16:05:54 1512162354.354905: $GPRMC,210555,A,3946.9574,N,08404.9817,W,0.0000,0.000,011217,,*35
2017-12-01 16:05:54 1512162354.354967: $GPGSA,A,3,1,10,12,14,18,25,31,32,11,22,24,138,2.0,0.8,1.5*3B
2017-12-01 16:05:55 1512162355.690139: $GPGSV,3,1,12,01,18,310,27,10,60,141,48,12,25,061,46,14,60,306,44*7F
2017-12-01 16:05:55 1512162355.690364: $GPGSV,3,2,12,18,28,139,43,25,35,105,48,31,45,217,49,32,70,355,47*71
2017-12-01 16:05:55 1512162355.690434: $GPGSV,3,3,12,11,10,292,35,22,10,312,32,24,06,046,24,138,38,213,46*43
2017-12-01 16:05:55 1512162355.803770: $GPZDA,210556.00,01,12,2017,00,00*65
2017-12-01 16:05:55 1512162355.803939: $GPGGA,210556,3946.9574,N,08404.9817,W,2,12,0.80,309.96,M,-33.324,M,,*78
2017-12-01 16:05:55 1512162355.804006: $GPRMC,210556,A,3946.9574,N,08404.9817,W,0.0000,0.000,011217,,*36
2017-12-01 16:05:55 1512162355.804068: $GPGSA,A,3,1,10,12,14,18,25,31,32,11,22,24,138,2.0,0.8,1.5*3B
2017-12-01 16:05:56 1512162356.352200: $GPZDA,210557.00,01,12,2017,00,00*64
2017-12-01 16:05:56 1512162356.352385: $GPGGA,210557,3946.9574,N,08404.9817,W,2,12,0.80,309.96,M,-33.324,M,,*79
2017-12-01 16:05:56 1512162356.352453: $GPRMC,210557,A,3946.9574,N,08404.9817,W,0.0000,0.000,011217,,*37
2017-12-01 16:05:56 1512162356.352514: $GPGSA,A,3,1,10,12,14,18,25,31,32,11,22,24,138,2.0,0.8,1.5*3B
2017-12-01 16:05:57 1512162357.355523: $GPZDA,210558.00,01,12,2017,00,00*6B
2017-12-01 16:05:57 1512162357.355698: $GPGGA,210558,3946.9574,N,08404.9817,W,2,12,0.80,309.96,M,-33.324,M,,*76
2017-12-01 16:05:57 1512162357.355765: $GPRMC,210558,A,3946.9574,N,08404.9817,W,0.0000,0.000,011217,,*38
2017-12-01 16:05:57 1512162357.355826: $GPGSA,A,3,1,10,12,14,18,25,31,32,11,22,24,138,2.0,0.8,1.5*3B
2017-12-01 16:05:58 1512162358.690523: $GPGSV,3,1,12,01,18,310,28,10,60,141,48,12,25,061,45,14,60,306,44*73
2017-12-01 16:05:58 1512162358.690707: $GPGSV,3,2,12,18,28,139,43,25,35,105,48,31,45,217,49,32,70,355,47*71
2017-12-01 16:05:58 1512162358.690775: $GPGSV,3,3,12,11,10,292,27,22,10,312,37,24,06,046,24,138,38,213,46*45
2017-12-01 16:05:58 1512162358.804404: $GPZDA,210559.00,01,12,2017,00,00*6A
2017-12-01 16:05:58 1512162358.804722: $GPGGA,210559,3946.9574,N,08404.9817,W,2,12,0.80,309.96,M,-33.324,M,,*77
2017-12-01 16:05:58 1512162358.804853: $GPRMC,210559,A,3946.9574,N,08404.9817,W,0.0000,0.000,011217,,*39
2017-12-01 16:05:58 1512162358.804986: $GPGSA,A,3,1,10,12,14,18,25,31,32,11,22,24,138,2.0,0.8,1.5*3B
2017-12-01 16:05:59 1512162359.353546: $GPZDA,210600.00,01,12,2017,00,00*65
2017-12-01 16:05:59 1512162359.353718: $GPGGA,210600,3946.9574,N,08404.9817,W,2,12,0.80,309.96,M,-33.324,M,,*78
2017-12-01 16:05:59 1512162359.353786: $GPRMC,210600,A,3946.9574,N,08404.9817,W,0.0000,0.000,011217,,*36
2017-12-01 16:05:59 1512162359.353847: $GPGSA,A,3,1,10,12,14,18,25,31,32,11,22,24,138,2.0,0.8,1.5*3B
2017-12-01 16:06:00 1512162360.353119: $GPZDA,210601.00,01,12,2017,00,00*64
2017-12-01 16:06:00 1512162360.353337: $GPGGA,210601,3946.9574,N,08404.9817,W,2,12,0.80,309.96,M,-33.324,M,,*79
2017-12-01 16:06:00 1512162360.353406: $GPRMC,210601,A,3946.9574,N,08404.9817,W,0.0000,0.000,011217,,*37
2017-12-01 16:06:00 1512162360.353470: $GPGSA,A,3,1,10,12,14,18,25,31,32,11,22,24,138,2.0,0.8,1.5*3B
2017-12-01 16:06:01 1512162361.692613: $GPGSV,3,1,12,01,18,310,28,10,60,141,49,12,25,061,45,14,60,306,45*73
2017-12-01 16:06:01 1512162361.692795: $GPGSV,3,2,12,18,28,139,43,25,35,105,48,31,45,217,50,32,70,355,46*78
2017-12-01 16:06:01 1512162361.692863: $GPGSV,3,3,12,11,10,292,10,22,10,312,34,24,06,046,24,138,38,213,46*42
2017-12-01 16:06:01 1512162361.805988: $GPZDA,210602.00,01,12,2017,00,00*67
2017-12-01 16:06:01 1512162361.806183: $GPGGA,210602,3946.9574,N,08404.9817,W,2,12,0.80,309.96,M,-33.324,M,,*7A
2017-12-01 16:06:01 1512162361.806253: $GPRMC,210602,A,3946.9574,N,08404.9817,W,0.0000,0.000,011217,,*34
2017-12-01 16:06:01 1512162361.806333: $GPGSA,A,3,1,10,12,14,18,25,31,32,11,22,24,138,2.0,0.8,1.5*3B
2017-12-01 16:06:02 1512162362.354365: $GPZDA,210603.00,01,12,2017,00,00*66
2017-12-01 16:06:02 1512162362.354545: $GPGGA,210603,3946.9574,N,08404.9817,W,2,12,0.80,309.96,M,-33.324,M,,*7B
2017-12-01 16:06:02 1512162362.354612: $GPRMC,210603,A,3946.9574,N,08404.9817,W,0.0000,0.000,011217,,*35
2017-12-01 16:06:02 1512162362.354674: $GPGSA,A,3,1,10,12,14,18,25,31,32,11,22,24,138,2.0,0.8,1.5*3B
2017-12-01 16:06:03 1512162363.354806: $GPZDA,210604.00,01,12,2017,00,00*61
2017-12-01 16:06:03 1512162363.354994: $GPGGA,210604,3946.9574,N,08404.9817,W,2,12,0.80,309.96,M,-33.324,M,,*7C
2017-12-01 16:06:03 1512162363.355062: $GPRMC,210604,A,3946.9574,N,08404.9817,W,0.0000,0.000,011217,,*32
2017-12-01 16:06:03 1512162363.355123: $GPGSA,A,3,1,10,12,14,18,25,31,32,11,22,24,138,2.0,0.8,1.5*3B
