2017-12-31 17:07:07 1514758027.035863: {"class":"VERSION","release":"3.16","rev":"3.16-4","proto_major":3,"proto_minor":11}
2017-12-31 17:07:07 1514758027.036202: {"class":"DEVICES","devices":[{"class":"DEVICE","path":"/dev/ttyUSB0","driver":"SiRF","activated":"2017-12-31T22:07:06.933Z","flags":1,"native":1,"bps":4800,"parity":"N","stopbits":1,"cycle":1.00}]}
2017-12-31 17:07:07 1514758027.036299: {"class":"WATCH","enable":true,"json":false,"nmea":true,"raw":0,"scaled":false,"timing":false,"split24":false,"pps":false}
2017-12-31 17:07:07 1514758027.360099: $GPZDA,220708.00,31,12,2017,00,00*6C
2017-12-31 17:07:07 1514758027.364452: $GPGGA,220708,3946.9587,N,08404.9854,W,2,11,1.00,302.21,M,-33.324,M,,*74
2017-12-31 17:07:07 1514758027.364551: $GPRMC,220708,A,3946.9587,N,08404.9854,W,0.0000,0.000,311217,,*34
2017-12-31 17:07:07 1514758027.364614: $GPGSA,A,3,22,23,25,3,16,29,31,14,32,26,135,,1.7,1.0,1.3*3B
2017-12-31 17:07:08 1514758028.350625: $GPZDA,220709.00,31,12,2017,00,00*6D
2017-12-31 17:07:08 1514758028.350779: $GPGGA,220709,3946.9587,N,08404.9854,W,2,11,1.00,302.21,M,-33.324,M,,*75
2017-12-31 17:07:08 1514758028.350845: $GPRMC,220709,A,3946.9587,N,08404.9854,W,0.0000,0.000,311217,,*35
2017-12-31 17:07:08 1514758028.350905: $GPGSA,A,3,22,23,25,3,16,29,31,14,32,26,135,,1.7,1.0,1.3*3B
2017-12-31 17:07:09 1514758029.678876: $GPGSV,3,1,11,22,44,238,42,23,28,307,37,25,01,037,12,03,46,270,39*70
2017-12-31 17:07:09 1514758029.679025: $GPGSV,3,2,11,16,47,190,43,29,14,054,33,31,49,051,50,14,40,114,38*7C
2017-12-31 17:07:09 1514758029.679091: $GPGSV,3,3,11,32,18,123,39,26,75,139,47,135,22,240,42*72
2017-12-31 17:07:09 1514758029.792552: $GPZDA,220710.00,31,12,2017,00,00*65
2017-12-31 17:07:09 1514758029.792679: $GPGGA,220710,3946.9587,N,08404.9854,W,2,11,1.00,302.21,M,-33.324,M,,*7D
2017-12-31 17:07:09 1514758029.792742: $GPRMC,220710,A,3946.9587,N,08404.9854,W,0.0000,0.000,311217,,*3D
2017-12-31 17:07:09 1514758029.792801: $GPGSA,A,3,22,23,25,3,16,29,31,14,32,26,135,,1.7,1.0,1.3*3B
2017-12-31 17:07:10 1514758030.417984: $GPZDA,220711.00,31,12,2017,00,00*64
2017-12-31 17:07:10 1514758030.418135: $GPGGA,220711,3946.9587,N,08404.9854,W,2,11,1.00,302.21,M,-33.324,M,,*7C
2017-12-31 17:07:10 1514758030.418199: $GPRMC,220711,A,3946.9587,N,08404.9854,W,0.0000,0.000,311217,,*3C
2017-12-31 17:07:10 1514758030.418259: $GPGSA,A,3,22,23,25,3,16,29,31,14,32,26,135,,1.7,1.0,1.3*3B
2017-12-31 17:07:11 1514758031.343879: $GPZDA,220712.00,31,12,2017,00,00*67
2017-12-31 17:07:11 1514758031.344030: $GPGGA,220712,3946.9587,N,08404.9854,W,2,11,1.00,302.21,M,-33.324,M,,*7F
2017-12-31 17:07:11 1514758031.344094: $GPRMC,220712,A,3946.9587,N,08404.9854,W,0.0000,0.000,311217,,*3F
2017-12-31 17:07:11 1514758031.344155: $GPGSA,A,3,22,23,25,3,16,29,31,14,32,26,135,,1.7,1.0,1.3*3B
2017-12-31 17:07:12 1514758032.677970: $GPGSV,3,1,11,22,44,238,42,23,28,307,37,25,01,037,12,03,46,270,39*70
2017-12-31 17:07:12 1514758032.678162: $GPGSV,3,2,11,16,47,190,43,29,14,054,33,31,49,051,50,14,40,114,38*7C
2017-12-31 17:07:12 1514758032.678230: $GPGSV,3,3,11,32,18,123,39,26,75,139,47,135,22,240,43*73
2017-12-31 17:07:12 1514758032.791675: $GPZDA,220713.00,31,12,2017,00,00*66
2017-12-31 17:07:12 1514758032.791842: $GPGGA,220713,3946.9587,N,08404.9854,W,2,11,1.00,302.21,M,-33.324,M,,*7E
2017-12-31 17:07:12 1514758032.791908: $GPRMC,220713,A,3946.9587,N,08404.9854,W,0.0000,0.000,311217,,*3E
2017-12-31 17:07:12 1514758032.791969: $GPGSA,A,3,22,23,25,3,16,29,31,14,32,26,135,,1.7,1.0,1.3*3B
2017-12-31 17:07:13 1514758033.343690: $GPZDA,220714.00,31,12,2017,00,00*61
2017-12-31 17:07:13 1514758033.343831: $GPGGA,220714,3946.9587,N,08404.9854,W,2,11,1.00,302.21,M,-33.324,M,,*79
2017-12-31 17:07:13 1514758033.343893: $GPRMC,220714,A,3946.9587,N,08404.9854,W,0.0000,0.000,311217,,*39
2017-12-31 17:07:13 1514758033.343953: $GPGSA,A,3,22,23,25,3,16,29,31,14,32,26,135,,1.7,1.0,1.3*3B
2017-12-31 17:07:14 1514758034.343285: $GPZDA,220715.00,31,12,2017,00,00*60
2017-12-31 17:07:14 1514758034.343435: $GPGGA,220715,3946.9587,N,08404.9854,W,2,11,1.00,302.21,M,-33.324,M,,*78
2017-12-31 17:07:14 1514758034.343553: $GPRMC,220715,A,3946.9587,N,08404.9854,W,0.0000,0.000,311217,,*38
2017-12-31 17:07:14 1514758034.343616: $GPGSA,A,3,22,23,25,3,16,29,31,14,32,26,135,,1.7,1.0,1.3*3B
2017-12-31 17:07:15 1514758035.678303: $GPGSV,3,1,11,22,44,238,43,23,28,307,38,25,01,037,11,03,46,270,40*73
2017-12-31 17:07:15 1514758035.678461: $GPGSV,3,2,11,16,47,190,42,29,14,054,33,31,49,051,50,14,40,114,38*7D
2017-12-31 17:07:15 1514758035.678524: $GPGSV,3,3,11,32,18,123,40,26,75,139,47,135,22,240,42*7C
2017-12-31 17:07:15 1514758035.791640: $GPZDA,220716.00,31,12,2017,00,00*63
2017-12-31 17:07:15 1514758035.791762: $GPGGA,220716,3946.9587,N,08404.9854,W,2,11,1.00,302.21,M,-33.324,M,,*7B
2017-12-31 17:07:15 1514758035.791826: $GPRMC,220716,A,3946.9587,N,08404.9854,W,0.0000,0.000,311217,,*3B
2017-12-31 17:07:15 1514758035.791886: $GPGSA,A,3,22,23,25,3,16,29,31,14,32,26,135,,1.7,1.0,1.3*3B
2017-12-31 17:07:16 1514758036.359048: $GPZDA,220717.00,31,12,2017,00,00*62
2017-12-31 17:07:16 1514758036.359236: $GPGGA,220717,3946.9587,N,08404.9854,W,2,11,1.00,302.21,M,-33.324,M,,*7A
2017-12-31 17:07:16 1514758036.359304: $GPRMC,220717,A,3946.9587,N,08404.9854,W,0.0000,0.000,311217,,*3A
2017-12-31 17:07:16 1514758036.359365: $GPGSA,A,3,22,23,25,3,16,29,31,14,32,26,135,,1.7,1.0,1.3*3B
