2017-12-01 11:43:33 1512146613.716834: {"class":"VERSION","release":"3.16","rev":"3.16-4","proto_major":3,"proto_minor":11}
2017-12-01 11:43:33 1512146613.717277: {"class":"DEVICES","devices":[{"class":"DEVICE","path":"/dev/ttyUSB0","driver":"SiRF","subtype":"9\u0006GSD4e_4.1.2-P1_RPATCH.05-F-GPS-4R-1510281 11/03/2015 307","activated":"2017-12-01T16:43:33.643Z","flags":1,"native":1,"bps":4800,"parity":"N","stopbits":1,"cycle":1.00}]}
2017-12-01 11:43:33 1512146613.717402: {"class":"WATCH","enable":true,"json":false,"nmea":true,"raw":0,"scaled":false,"timing":false,"split24":false,"pps":false}
2017-12-01 11:43:34 1512146614.874371: $GPGSV,3,1,12,10,13,271,18,13,43,049,24,15,75,072,24,18,44,285,22*7B
2017-12-01 11:43:34 1512146614.874552: $GPGSV,3,2,12,20,62,051,21,21,67,306,23,24,20,148,22,27,09,324,21*7F
2017-12-01 11:43:34 1512146614.874618: $GPGSV,3,3,12,29,24,195,22,05,14,078,00,04,12,130,00,138,38,213,00*41
2017-12-01 11:43:34 1512146614.987833: $GPZDA,164334.97,01,12,2017,00,00*69
2017-12-01 11:43:34 1512146614.987994: $GPGGA,164334,3946.9578,N,08404.9837,W,1,09,1.00,307.55,M,-33.324,M,,*75
2017-12-01 11:43:34 1512146614.988062: $GPRMC,164334,A,3946.9578,N,08404.9837,W,0.2422,93.794,011217,,*0C
2017-12-01 11:43:34 1512146614.988123: $GPGSA,A,3,10,13,15,18,20,21,24,27,29,,,,2.0,1.0,1.5*32
2017-12-01 11:43:35 1512146615.794518: $GPZDA,164336.00,01,12,2017,00,00*65
2017-12-01 11:43:35 1512146615.794679: $GPGGA,164336,3946.9577,N,08404.9830,W,1,09,0.80,307.63,M,-33.324,M,,*73
2017-12-01 11:43:35 1512146615.794747: $GPRMC,164336,A,3946.9577,N,08404.9830,W,0.2422,93.794,011217,,*06
2017-12-01 11:43:35 1512146615.794808: $GPGSA,A,3,10,13,15,18,20,21,24,27,29,,,,2.0,0.8,1.5*3B
2017-12-01 11:43:35 1512146615.794866: $GPGBS,164336,10.70,M,15.43,M,35.28,M*02
2017-12-01 11:43:36 1512146616.395497: $GPZDA,164337.00,01,12,2017,00,00*64
2017-12-01 11:43:36 1512146616.395667: $GPGGA,164337,3946.9581,N,08404.9829,W,1,09,0.80,306.87,M,-33.324,M,,*78
2017-12-01 11:43:36 1512146616.395748: $GPRMC,164337,A,3946.9581,N,08404.9829,W,0.0000,0.000,011217,,*30
2017-12-01 11:43:36 1512146616.395810: $GPGSA,A,3,10,13,15,18,20,21,24,27,29,,,,2.0,0.8,1.5*3B
2017-12-01 11:43:36 1512146616.395869: $GPGBS,164337,10.70,M,15.43,M,35.28,M*03
2017-12-01 11:43:37 1512146617.728509: $GPGSV,3,1,12,10,13,271,36,13,43,049,46,15,75,072,46,18,44,285,45*76
2017-12-01 11:43:37 1512146617.728688: $GPGSV,3,2,12,20,62,051,42,21,67,306,45,24,20,148,43,27,09,324,42*78
2017-12-01 11:43:37 1512146617.728753: $GPGSV,3,3,12,29,24,195,42,05,14,078,23,04,12,130,00,138,38,213,46*44
2017-12-01 11:43:37 1512146617.842084: $GPZDA,164338.00,01,12,2017,00,00*6B
2017-12-01 11:43:37 1512146617.842273: $GPGGA,164338,3946.9576,N,08404.9829,W,1,11,0.80,306.23,M,-33.324,M,,*78
2017-12-01 11:43:37 1512146617.842347: $GPRMC,164338,A,3946.9576,N,08404.9829,W,0.0000,0.000,011217,,*37
2017-12-01 11:43:37 1512146617.842408: $GPGSA,A,3,10,13,15,18,20,21,24,27,29,5,138,,2.0,0.8,1.5*34
2017-12-01 11:43:38 1512146618.467361: $GPZDA,164339.00,01,12,2017,00,00*6A
2017-12-01 11:43:38 1512146618.467542: $GPGGA,164339,3946.9576,N,08404.9829,W,1,11,0.80,306.23,M,-33.324,M,,*79
2017-12-01 11:43:38 1512146618.467614: $GPRMC,164339,A,3946.9576,N,08404.9829,W,0.0000,0.000,011217,,*36
2017-12-01 11:43:38 1512146618.467677: $GPGSA,A,3,10,13,15,18,20,21,24,27,29,5,138,,2.0,0.8,1.5*34
2017-12-01 11:43:39 1512146619.397025: $GPZDA,164340.00,01,12,2017,00,00*64
2017-12-01 11:43:39 1512146619.397200: $GPGGA,164340,3946.9572,N,08404.9829,W,1,11,0.80,305.59,M,-33.324,M,,*7D
2017-12-01 11:43:39 1512146619.397270: $GPRMC,164340,A,3946.9572,N,08404.9829,W,0.0000,0.000,011217,,*3C
2017-12-01 11:43:39 1512146619.397336: $GPGSA,A,3,10,13,15,18,20,21,24,27,29,5,138,,2.0,0.8,1.5*34
2017-12-01 11:43:39 1512146619.397395: $GPGBS,164340,10.70,M,15.43,M,35.28,M*03
2017-12-01 11:43:40 1512146620.732379: $GPGSV,3,1,12,10,13,271,37,13,43,049,47,15,75,072,46,18,44,285,45*76
2017-12-01 11:43:40 1512146620.732564: $GPGSV,3,2,12,20,62,051,42,21,67,306,45,24,20,148,43,27,09,324,43*79
2017-12-01 11:43:40 1512146620.732631: $GPGSV,3,3,12,29,24,195,43,05,14,078,21,04,12,130,00,138,38,213,46*47
2017-12-01 11:43:40 1512146620.845773: $GPZDA,164341.00,01,12,2017,00,00*65
2017-12-01 11:43:40 1512146620.845950: $GPGGA,164341,3946.9563,N,08404.9827,W,2,11,1.00,301.50,M,-33.324,M,,*75
2017-12-01 11:43:40 1512146620.846018: $GPRMC,164341,A,3946.9563,N,08404.9827,W,0.0000,0.000,011217,,*33
2017-12-01 11:43:40 1512146620.846080: $GPGSA,A,3,10,13,15,18,20,21,24,27,29,5,138,,2.0,1.0,1.5*3D
2017-12-01 11:43:41 1512146621.394136: $GPZDA,164342.00,01,12,2017,00,00*66
2017-12-01 11:43:41 1512146621.394542: $GPGGA,164342,3946.9563,N,08404.9827,W,2,11,0.80,301.50,M,-33.324,M,,*7F
2017-12-01 11:43:41 1512146621.395679: $GPRMC,164342,A,3946.9563,N,08404.9827,W,0.0000,0.000,011217,,*30
2017-12-01 11:43:41 1512146621.395761: $GPGSA,A,3,10,13,15,18,20,21,24,27,29,5,138,,2.0,0.8,1.5*34
2017-12-01 11:43:42 1512146622.400003: $GPZDA,164343.00,01,12,2017,00,00*67
2017-12-01 11:43:42 1512146622.400186: $GPGGA,164343,3946.9563,N,08404.9827,W,2,11,0.80,301.50,M,-33.324,M,,*7E
2017-12-01 11:43:42 1512146622.400257: $GPRMC,164343,A,3946.9563,N,08404.9827,W,0.0000,0.000,011217,,*31
2017-12-01 11:43:42 1512146622.400323: $GPGSA,A,3,10,13,15,18,20,21,24,27,29,5,138,,2.0,0.8,1.5*34
