2017-11-15 18:29:51 1510788591.734169: {"class":"VERSION","release":"3.17","rev":"3.17","proto_major":3,"proto_minor":12}
2017-11-15 18:29:51 1510788591.734649: {"class":"DEVICES","devices":[{"class":"DEVICE","path":"/dev/ttyUSB0","driver":"SiRF","subtype":"9\u0006GSD4e_4.1.2-P1_RPATCH.05-F-GPS-4R-1510281 11/03/2015 307","activated":"2017-11-15T23:29:51.699Z","flags":1,"native":1,"bps":4800,"parity":"N","stopbits":1,"cycle":1.00}]}
2017-11-15 18:29:51 1510788591.734775: {"class":"WATCH","enable":true,"json":false,"nmea":true,"raw":0,"scaled":false,"timing":false,"split24":false,"pps":false}
2017-11-15 18:29:51 1510788591.812626: $GPZDA,232950.00,15,11,2017,00,00*69
2017-11-15 18:29:51 1510788591.812782: $GPGGA,232950,3946.9607,N,08404.9557,W,1,08,1.20,290.03,M,-33.324,M,,*72
2017-11-15 18:29:51 1510788591.812842: $GPRMC,232950,A,3946.9607,N,08404.9557,W,0.2422,93.794,151117,,*02
2017-11-15 18:29:51 1510788591.812897: $GPGSA,A,3,10,14,25,26,31,32,1,22,,,,,3.4,1.2,2.9*08
2017-11-15 18:29:52 1510788592.362307: $GPZDA,232951.00,15,11,2017,00,00*68
2017-11-15 18:29:52 1510788592.362458: $GPGGA,232951,3946.9607,N,08404.9550,W,1,08,1.00,290.11,M,-33.324,M,,*75
2017-11-15 18:29:52 1510788592.362518: $GPRMC,232951,A,3946.9607,N,08404.9550,W,0.2959,54.767,151117,,*02
2017-11-15 18:29:52 1510788592.362574: $GPGSA,A,3,10,14,25,26,31,32,1,22,,,,,3.4,1.0,2.9*0A
2017-11-15 18:29:53 1510788593.329488: $GPZDA,232952.00,15,11,2017,00,00*6B
2017-11-15 18:29:53 1510788593.329650: $GPGGA,232952,3946.9610,N,08404.9549,W,1,08,1.00,289.34,M,-33.324,M,,*77
2017-11-15 18:29:53 1510788593.329711: $GPRMC,232952,A,3946.9610,N,08404.9549,W,0.4207,39.347,151117,,*04
2017-11-15 18:29:53 1510788593.329766: $GPGSA,A,3,10,14,25,26,31,32,1,22,,,,,3.4,1.0,2.9*0A
2017-11-15 18:29:54 1510788594.664833: $GPGSV,3,1,10,10,24,156,12,14,69,034,18,25,36,058,10,26,23,178,08*75
2017-11-15 18:29:54 1510788594.665007: $GPGSV,3,2,10,31,77,270,16,32,57,076,20,01,19,276,12,22,38,304,10*7D
2017-11-15 18:29:54 1510788594.665067: $GPGSV,3,3,10,03,19,316,00,12,08,033,00*7C
2017-11-15 18:29:54 1510788594.778281: $GPZDA,232953.00,15,11,2017,00,00*6A
2017-11-15 18:29:54 1510788594.778418: $GPGGA,232953,3946.9610,N,08404.9542,W,1,08,1.00,289.42,M,-33.324,M,,*7C
2017-11-15 18:29:54 1510788594.778480: $GPRMC,232953,A,3946.9610,N,08404.9542,W,0.2422,93.794,151117,,*03
2017-11-15 18:29:54 1510788594.778536: $GPGSA,A,3,10,14,25,26,31,32,1,22,,,,,3.4,1.0,2.9*0A
2017-11-15 18:29:55 1510788595.329480: $GPZDA,232954.00,15,11,2017,00,00*6D
2017-11-15 18:29:55 1510788595.329642: $GPGGA,232954,3946.9606,N,08404.9536,W,1,08,1.20,290.27,M,-33.324,M,,*76
2017-11-15 18:29:55 1510788595.329703: $GPRMC,232954,A,3946.9606,N,08404.9536,W,0.4844,93.794,151117,,*0A
2017-11-15 18:29:55 1510788595.329759: $GPGSA,A,3,10,14,25,26,31,32,1,22,,,,,3.4,1.2,2.9*08
2017-11-15 18:29:56 1510788596.328554: $GPZDA,232955.00,15,11,2017,00,00*6C
2017-11-15 18:29:56 1510788596.328714: $GPGGA,232955,3946.9606,N,08404.9529,W,1,08,1.00,290.35,M,-33.324,M,,*78
2017-11-15 18:29:56 1510788596.328774: $GPRMC,232955,A,3946.9606,N,08404.9529,W,0.0000,0.000,151117,,*39
2017-11-15 18:29:56 1510788596.328829: $GPGSA,A,3,10,14,25,26,31,32,1,22,,,,,3.4,1.0,2.9*0A
2017-11-15 18:29:57 1510788597.663950: $GPGSV,3,1,10,10,24,156,12,14,69,034,17,25,36,058,10,26,23,178,10*73
2017-11-15 18:29:57 1510788597.664126: $GPGSV,3,2,10,31,77,270,17,32,57,076,20,01,19,276,16,22,38,304,09*70
2017-11-15 18:29:57 1510788597.664185: $GPGSV,3,3,10,03,19,316,15,12,08,033,00*78
2017-11-15 18:29:57 1510788597.776381: $GPZDA,232956.00,15,11,2017,00,00*6F
2017-11-15 18:29:57 1510788597.776541: $GPGGA,232956,3946.9606,N,08404.9529,W,1,08,1.20,290.35,M,-33.324,M,,*79
2017-11-15 18:29:57 1510788597.776601: $GPRMC,232956,A,3946.9606,N,08404.9529,W,0.3423,184.197,151117,,*3E
2017-11-15 18:29:57 1510788597.776656: $GPGSA,A,3,10,14,25,26,31,32,1,22,,,,,3.4,1.2,2.9*08
2017-11-15 18:29:58 1510788598.362294: $GPZDA,232957.00,15,11,2017,00,00*6E
2017-11-15 18:29:58 1510788598.362445: $GPGGA,232957,3946.9605,N,08404.9522,W,1,08,1.20,290.43,M,-33.324,M,,*71
2017-11-15 18:29:58 1510788598.362552: $GPRMC,232957,A,3946.9605,N,08404.9522,W,0.4207,219.347,151117,,*38
2017-11-15 18:29:58 1510788598.362609: $GPGSA,A,3,10,14,25,26,31,32,1,22,,,,,3.4,1.2,2.9*08
2017-11-15 18:29:59 1510788599.328163: $GPZDA,232958.00,15,11,2017,00,00*61
2017-11-15 18:29:59 1510788599.328324: $GPGGA,232958,3946.9601,N,08404.9522,W,1,08,1.00,289.79,M,-33.324,M,,*79
2017-11-15 18:29:59 1510788599.328384: $GPRMC,232958,A,3946.9601,N,08404.9522,W,0.5287,182.716,151117,,*3B
2017-11-15 18:29:59 1510788599.328440: $GPGSA,A,3,10,14,25,26,31,32,1,22,,,,,3.4,1.0,2.9*0A
2017-11-15 18:30:00 1510788600.663575: $GPGSV,3,1,10,10,24,156,11,14,69,034,17,25,36,058,09,26,23,178,09*70
2017-11-15 18:30:00 1510788600.663747: $GPGSV,3,2,10,31,77,270,18,32,57,076,20,01,19,276,16,22,38,304,11*76
2017-11-15 18:30:00 1510788600.663807: $GPGSV,3,3,10,03,19,316,14,12,08,033,00*79
2017-11-15 18:30:00 1510788600.776955: $GPZDA,232959.00,15,11,2017,00,00*60
2017-11-15 18:30:00 1510788600.777126: $GPGGA,232959,3946.9601,N,08404.9515,W,1,09,1.00,289.86,M,-33.324,M,,*7D
2017-11-15 18:30:00 1510788600.777186: $GPRMC,232959,A,3946.9601,N,08404.9515,W,0.3423,184.197,151117,,*39
2017-11-15 18:30:00 1510788600.777242: $GPGSA,A,3,10,14,25,26,31,32,1,22,3,,,,3.4,1.0,2.9*39
2017-11-15 18:30:01 1510788601.402616: $GPZDA,233000.00,15,11,2017,00,00*64
2017-11-15 18:30:01 1510788601.402775: $GPGGA,233000,3946.9600,N,08404.9508,W,1,09,1.60,289.94,M,-33.324,M,,*71
2017-11-15 18:30:01 1510788601.402836: $GPRMC,233000,A,3946.9600,N,08404.9508,W,0.4179,148.778,151117,,*3A
2017-11-15 18:30:01 1510788601.402892: $GPGSA,A,3,10,14,25,26,31,32,1,22,3,,,,3.4,1.6,2.9*3F
