2017-12-01 13:57:16 1512154636.947026: {"class":"VERSION","release":"3.16","rev":"3.16-4","proto_major":3,"proto_minor":11}
2017-12-01 13:57:16 1512154636.947452: {"class":"DEVICES","devices":[{"class":"DEVICE","path":"/dev/ttyUSB0","driver":"SiRF","subtype":"9\u0006GSD4e_4.1.2-P1_RPATCH.05-F-GPS-4R-1510281 11/03/2015 307","activated":"2017-12-01T18:57:16.656Z","flags":1,"native":1,"bps":4800,"parity":"N","stopbits":1,"cycle":1.00}]}
2017-12-01 13:57:16 1512154636.947580: {"class":"WATCH","enable":true,"json":false,"nmea":true,"raw":0,"scaled":false,"timing":false,"split24":false,"pps":false}
2017-12-01 13:57:17 1512154637.341290: $GPZDA,185718.00,01,12,2017,00,00*62
2017-12-01 13:57:17 1512154637.341708: $GPGGA,185718,3946.9573,N,08404.9858,W,2,12,0.80,294.60,M,-33.324,M,,*7F
2017-12-01 13:57:17 1512154637.341801: $GPRMC,185718,A,3946.9573,N,08404.9858,W,0.0000,0.000,011217,,*3D
2017-12-01 13:57:17 1512154637.341866: $GPGSA,A,3,10,14,15,18,20,21,24,27,32,8,12,138,2.0,0.8,1.5*37
2017-12-01 13:57:18 1512154638.678023: $GPGSV,3,1,12,10,58,318,49,14,20,244,35,15,20,060,43,18,77,054,42*79
2017-12-01 13:57:18 1512154638.678207: $GPGSV,3,2,12,20,18,111,42,21,41,181,46,24,51,075,47,27,12,270,38*70
2017-12-01 13:57:18 1512154638.678278: $GPGSV,3,3,12,32,37,253,42,08,08,304,37,12,02,117,16,138,38,213,47*4D
2017-12-01 13:57:18 1512154638.791549: $GPZDA,185719.00,01,12,2017,00,00*63
2017-12-01 13:57:18 1512154638.791726: $GPGGA,185719,3946.9573,N,08404.9858,W,2,12,0.80,294.60,M,-33.324,M,,*7E
2017-12-01 13:57:18 1512154638.791792: $GPRMC,185719,A,3946.9573,N,08404.9858,W,0.0000,0.000,011217,,*3C
2017-12-01 13:57:18 1512154638.791853: $GPGSA,A,3,10,14,15,18,20,21,24,27,32,8,12,138,2.0,0.8,1.5*37
2017-12-01 13:57:19 1512154639.341467: $GPZDA,185720.00,01,12,2017,00,00*69
2017-12-01 13:57:19 1512154639.341636: $GPGGA,185720,3946.9573,N,08404.9858,W,2,12,0.80,294.60,M,-33.324,M,,*74
2017-12-01 13:57:19 1512154639.341702: $GPRMC,185720,A,3946.9573,N,08404.9858,W,0.0000,0.000,011217,,*36
2017-12-01 13:57:19 1512154639.341762: $GPGSA,A,3,10,14,15,18,20,21,24,27,32,8,12,138,2.0,0.8,1.5*37
2017-12-01 13:57:20 1512154640.346088: $GPZDA,185721.00,01,12,2017,00,00*68
2017-12-01 13:57:20 1512154640.346305: $GPGGA,185721,3946.9573,N,08404.9858,W,2,12,0.80,294.60,M,-33.324,M,,*75
2017-12-01 13:57:20 1512154640.346382: $GPRMC,185721,A,3946.9573,N,08404.9858,W,0.0000,0.000,011217,,*37
2017-12-01 13:57:20 1512154640.346442: $GPGSA,A,3,10,14,15,18,20,21,24,27,32,8,12,138,2.0,0.8,1.5*37
2017-12-01 13:57:21 1512154641.680124: $GPGSV,3,1,12,10,58,318,49,14,20,244,34,15,20,060,43,18,77,054,42*78
2017-12-01 13:57:21 1512154641.680311: $GPGSV,3,2,12,20,18,111,42,21,41,181,46,24,51,075,47,27,12,270,37*7F
2017-12-01 13:57:21 1512154641.680382: $GPGSV,3,3,12,32,37,253,42,08,08,304,34,12,02,117,16,138,38,213,47*4E
2017-12-01 13:57:21 1512154641.793489: $GPZDA,185722.00,01,12,2017,00,00*6B
2017-12-01 13:57:21 1512154641.793644: $GPGGA,185722,3946.9573,N,08404.9858,W,2,12,0.80,294.60,M,-33.324,M,,*76
2017-12-01 13:57:21 1512154641.793710: $GPRMC,185722,A,3946.9573,N,08404.9858,W,0.0000,0.000,011217,,*34
2017-12-01 13:57:21 1512154641.793770: $GPGSA,A,3,10,14,15,18,20,21,24,27,32,8,12,138,2.0,0.8,1.5*37
2017-12-01 13:57:22 1512154642.419460: $GPZDA,185723.00,01,12,2017,00,00*6A
2017-12-01 13:57:22 1512154642.419635: $GPGGA,185723,3946.9573,N,08404.9858,W,2,12,0.80,294.60,M,-33.324,M,,*77
2017-12-01 13:57:22 1512154642.419716: $GPRMC,185723,A,3946.9573,N,08404.9858,W,0.0000,0.000,011217,,*35
2017-12-01 13:57:22 1512154642.419779: $GPGSA,A,3,10,14,15,18,20,21,24,27,32,8,12,138,2.0,0.8,1.5*37
2017-12-01 13:57:23 1512154643.346480: $GPZDA,185724.00,01,12,2017,00,00*6D
2017-12-01 13:57:23 1512154643.346650: $GPGGA,185724,3946.9573,N,08404.9858,W,2,12,0.80,294.60,M,-33.324,M,,*70
2017-12-01 13:57:23 1512154643.346717: $GPRMC,185724,A,3946.9573,N,08404.9858,W,0.0000,0.000,011217,,*32
2017-12-01 13:57:23 1512154643.346778: $GPGSA,A,3,10,14,15,18,20,21,24,27,32,8,12,138,2.0,0.8,1.5*37
2017-12-01 13:57:24 1512154644.675422: $GPGSV,3,1,12,10,58,318,49,14,20,244,34,15,20,060,43,18,77,054,42*78
2017-12-01 13:57:24 1512154644.675653: $GPGSV,3,2,12,20,18,111,42,21,41,181,46,24,51,075,48,27,12,270,37*70
2017-12-01 13:57:24 1512154644.675724: $GPGSV,3,3,12,32,37,253,42,08,08,304,00,12,02,117,16,138,38,213,46*48
2017-12-01 13:57:24 1512154644.788831: $GPZDA,185725.00,01,12,2017,00,00*6C
2017-12-01 13:57:24 1512154644.789006: $GPGGA,185725,3946.9573,N,08404.9858,W,2,11,1.00,294.60,M,-33.324,M,,*7B
2017-12-01 13:57:24 1512154644.789072: $GPRMC,185725,A,3946.9573,N,08404.9858,W,0.0000,0.000,011217,,*33
2017-12-01 13:57:24 1512154644.789134: $GPGSA,A,3,10,14,15,18,20,21,24,27,32,12,138,,2.0,1.0,1.5*06
2017-12-01 13:57:25 1512154645.345940: $GPZDA,185726.00,01,12,2017,00,00*6F
2017-12-01 13:57:25 1512154645.346115: $GPGGA,185726,3946.9573,N,08404.9858,W,2,11,1.00,294.60,M,-33.324,M,,*78
2017-12-01 13:57:25 1512154645.346201: $GPRMC,185726,A,3946.9573,N,08404.9858,W,0.0000,0.000,011217,,*30
2017-12-01 13:57:25 1512154645.346265: $GPGSA,A,3,10,14,15,18,20,21,24,27,32,12,138,,2.0,1.0,1.5*06
2017-12-01 13:57:26 1512154646.346827: $GPZDA,185727.00,01,12,2017,00,00*6E
2017-12-01 13:57:26 1512154646.347000: $GPGGA,185727,3946.9573,N,08404.9858,W,2,11,0.80,294.60,M,-33.324,M,,*70
2017-12-01 13:57:26 1512154646.347066: $GPRMC,185727,A,3946.9573,N,08404.9858,W,0.0000,0.000,011217,,*31
2017-12-01 13:57:26 1512154646.347127: $GPGSA,A,3,10,14,15,18,20,21,24,27,32,12,138,,2.0,0.8,1.5*0F
2017-12-01 13:57:27 1512154647.682044: $GPGSV,3,1,12,10,58,318,50,14,20,244,34,15,20,060,43,18,77,054,42*70
2017-12-01 13:57:27 1512154647.682268: $GPGSV,3,2,12,20,18,111,42,21,41,181,45,24,51,075,48,27,12,270,38*7C
2017-12-01 13:57:27 1512154647.686750: $GPGSV,3,3,12,32,37,253,42,08,08,304,29,12,02,117,15,138,38,213,47*41
2017-12-01 13:57:27 1512154647.795663: $GPZDA,185728.00,01,12,2017,00,00*61
2017-12-01 13:57:27 1512154647.795829: $GPGGA,185728,3946.9573,N,08404.9858,W,2,12,0.80,294.60,M,-33.324,M,,*7C
2017-12-01 13:57:27 1512154647.795896: $GPRMC,185728,A,3946.9573,N,08404.9858,W,0.0000,0.000,011217,,*3E
2017-12-01 13:57:27 1512154647.795958: $GPGSA,A,3,10,14,15,18,20,21,24,27,32,8,12,138,2.0,0.8,1.5*37
2017-12-01 13:57:28 1512154648.345213: $GPZDA,185729.00,01,12,2017,00,00*60
2017-12-01 13:57:28 1512154648.345401: $GPGGA,185729,3946.9573,N,08404.9858,W,2,12,0.80,294.60,M,-33.324,M,,*7D
2017-12-01 13:57:28 1512154648.345468: $GPRMC,185729,A,3946.9573,N,08404.9858,W,0.0000,0.000,011217,,*3F
2017-12-01 13:57:28 1512154648.345529: $GPGSA,A,3,10,14,15,18,20,21,24,27,32,8,12,138,2.0,0.8,1.5*37
2017-12-01 13:57:29 1512154649.344762: $GPZDA,185730.00,01,12,2017,00,00*68
2017-12-01 13:57:29 1512154649.344937: $GPGGA,185730,3946.9573,N,08404.9858,W,2,12,1.00,294.60,M,-33.324,M,,*7C
2017-12-01 13:57:29 1512154649.345004: $GPRMC,185730,A,3946.9573,N,08404.9858,W,0.0000,0.000,011217,,*37
2017-12-01 13:57:29 1512154649.345065: $GPGSA,A,3,10,14,15,18,20,21,24,27,32,8,12,138,2.0,1.0,1.5*3E
2017-12-01 13:57:30 1512154650.706777: $GPGSV,3,1,12,10,58,318,50,14,20,244,34,15,20,060,43,18,77,054,42*70
2017-12-01 13:57:30 1512154650.706960: $GPGSV,3,2,12,20,18,111,42,21,41,181,45,24,51,075,48,27,12,270,39*7D
2017-12-01 13:57:30 1512154650.707027: $GPGSV,3,3,12,32,37,253,42,08,08,304,07,12,02,117,15,138,38,213,47*4D
2017-12-01 13:57:30 1512154650.820170: $GPZDA,185731.00,01,12,2017,00,00*69
2017-12-01 13:57:30 1512154650.820363: $GPGGA,185731,3946.9573,N,08404.9858,W,2,11,1.00,294.60,M,-33.324,M,,*7E
2017-12-01 13:57:30 1512154650.820432: $GPRMC,185731,A,3946.9573,N,08404.9858,W,0.0000,0.000,011217,,*36
2017-12-01 13:57:30 1512154650.820494: $GPGSA,A,3,10,14,15,18,20,21,24,27,32,12,138,,2.0,1.0,1.5*06
2017-12-01 13:57:31 1512154651.372342: $GPZDA,185732.00,01,12,2017,00,00*6A
2017-12-01 13:57:31 1512154651.372522: $GPGGA,185732,3946.9573,N,08404.9858,W,2,11,1.00,294.60,M,-33.324,M,,*7D
2017-12-01 13:57:31 1512154651.372590: $GPRMC,185732,A,3946.9573,N,08404.9858,W,0.0000,0.000,011217,,*35
2017-12-01 13:57:31 1512154651.372651: $GPGSA,A,3,10,14,15,18,20,21,24,27,32,12,138,,2.0,1.0,1.5*06
