2017-12-01 14:26:00 1512156360.417432: {"class":"VERSION","release":"3.16","rev":"3.16-4","proto_major":3,"proto_minor":11}
2017-12-01 14:26:00 1512156360.417830: {"class":"DEVICES","devices":[{"class":"DEVICE","path":"/dev/ttyUSB0","driver":"SiRF","subtype":"9\u0006GSD4e_4.1.2-P1_RPATCH.05-F-GPS-4R-1510281 11/03/2015 307","activated":"2017-12-01T19:26:00.379Z","flags":1,"native":1,"bps":4800,"parity":"N","stopbits":1,"cycle":1.00}]}
2017-12-01 14:26:00 1512156360.417945: {"class":"WATCH","enable":true,"json":false,"nmea":true,"raw":0,"scaled":false,"timing":false,"split24":false,"pps":false}
2017-12-01 14:26:01 1512156361.258666: $GPZDA,192601.50,01,12,2017,00,00*68
2017-12-01 14:26:01 1512156361.258829: $GPGGA,192601,3946.9536,N,08404.9856,W,1,12,1.20,323.03,M,-33.324,M,,*7F
2017-12-01 14:26:01 1512156361.258896: $GPRMC,192601,A,3946.9536,N,08404.9856,W,0.3106,69.940,011217,,*0B
2017-12-01 14:26:01 1512156361.258960: $GPGSA,A,3,8,10,14,18,21,24,32,15,12,20,27,138,2.0,1.2,1.5*3C
2017-12-01 14:26:01 1512156361.259019: $GPGBS,192601,10.70,M,15.43,M,35.28,M*0A
2017-12-01 14:26:02 1512156362.445880: $GPGSV,3,1,12,08,05,292,34,10,70,333,49,14,30,255,39,18,69,097,46*77
2017-12-01 14:26:02 1512156362.446075: $GPGSV,3,2,12,21,27,178,48,24,44,057,48,32,47,267,46,12,10,106,03*72
2017-12-01 14:26:02 1512156362.446145: $GPGSV,3,3,12,15,10,067,03,20,08,118,03,27,06,259,03,138,38,213,00*43
2017-12-01 14:26:02 1512156362.559509: $GPZDA,192602.00,01,12,2017,00,00*6E
2017-12-01 14:26:02 1512156362.559715: $GPGGA,192602,3946.9536,N,08404.9856,W,1,07,1.20,323.03,M,-33.324,M,,*78
2017-12-01 14:26:02 1512156362.559786: $GPRMC,192602,A,3946.9536,N,08404.9856,W,0.1867,180.000,011217,,*3F
2017-12-01 14:26:02 1512156362.559853: $GPGSA,A,3,8,10,14,18,21,24,32,,,,,,2.0,1.2,1.5*06
2017-12-01 14:26:03 1512156363.011452: $GPZDA,192603.00,01,12,2017,00,00*6F
2017-12-01 14:26:03 1512156363.011639: $GPGGA,192603,3946.9532,N,08404.9856,W,1,07,0.80,322.39,M,-33.324,M,,*7E
2017-12-01 14:26:03 1512156363.011717: $GPRMC,192603,A,3946.9532,N,08404.9856,W,0.1867,180.000,011217,,*3A
2017-12-01 14:26:03 1512156363.011783: $GPGSA,A,3,8,10,14,18,21,24,32,,,,,,2.0,0.8,1.5*0D
2017-12-01 14:26:03 1512156363.462560: $GPZDA,192604.00,01,12,2017,00,00*68
2017-12-01 14:26:03 1512156363.462742: $GPGGA,192604,3946.9535,N,08404.9855,W,1,07,0.80,321.62,M,-33.324,M,,*70
2017-12-01 14:26:03 1512156363.462814: $GPRMC,192604,A,3946.9535,N,08404.9855,W,0.0000,0.000,011217,,*38
2017-12-01 14:26:03 1512156363.462878: $GPGSA,A,3,8,10,14,18,21,24,32,,,,,,2.0,0.8,1.5*0D
2017-12-01 14:26:04 1512156364.658800: $GPGSV,3,1,12,08,05,292,10,10,70,333,15,14,30,255,11,18,69,097,14*75
2017-12-01 14:26:04 1512156364.658985: $GPGSV,3,2,12,21,27,178,14,24,44,057,14,32,47,267,14,12,10,106,09*7F
2017-12-01 14:26:04 1512156364.659056: $GPGSV,3,3,12,15,10,067,09,20,08,118,08,27,06,259,08,138,38,213,16*4E
2017-12-01 14:26:04 1512156364.772597: $GPZDA,192605.00,01,12,2017,00,00*69
2017-12-01 14:26:04 1512156364.772765: $GPGGA,192605,3946.9539,N,08404.9854,W,1,12,0.80,320.86,M,-33.324,M,,*73
2017-12-01 14:26:04 1512156364.772837: $GPRMC,192605,A,3946.9539,N,08404.9854,W,0.2422,93.794,011217,,*02
2017-12-01 14:26:04 1512156364.772901: $GPGSA,A,3,8,10,14,18,21,24,32,12,15,20,27,138,2.0,0.8,1.5*37
2017-12-01 14:26:05 1512156365.327955: $GPZDA,192606.00,01,12,2017,00,00*6A
2017-12-01 14:26:05 1512156365.328136: $GPGGA,192606,3946.9542,N,08404.9854,W,1,12,0.80,320.09,M,-33.324,M,,*7B
2017-12-01 14:26:05 1512156365.328208: $GPRMC,192606,A,3946.9542,N,08404.9854,W,0.3423,4.196,011217,,*37
2017-12-01 14:26:05 1512156365.328273: $GPGSA,A,3,8,10,14,18,21,24,32,12,15,20,27,138,2.0,0.8,1.5*37
2017-12-01 14:26:06 1512156366.325464: $GPZDA,192607.00,01,12,2017,00,00*6B
2017-12-01 14:26:06 1512156366.325645: $GPGGA,192607,3946.9541,N,08404.9853,W,1,12,0.80,318.69,M,-33.324,M,,*73
2017-12-01 14:26:06 1512156366.325718: $GPRMC,192607,A,3946.9541,N,08404.9853,W,0.1567,9.200,011217,,*30
2017-12-01 14:26:06 1512156366.325784: $GPGSA,A,3,8,10,14,18,21,24,32,12,15,20,27,138,2.0,0.8,1.5*37
2017-12-01 14:26:06 1512156366.325899: $GPGBS,192607,10.70,M,15.43,M,35.28,M*0C
2017-12-01 14:26:07 1512156367.659532: $GPGSV,3,1,12,08,05,292,34,10,70,333,48,14,30,255,38,18,69,097,45*74
2017-12-01 14:26:07 1512156367.659723: $GPGSV,3,2,12,21,27,178,46,24,44,057,48,32,47,267,46,12,10,106,29*74
2017-12-01 14:26:07 1512156367.659792: $GPGSV,3,3,12,15,10,067,29,20,08,118,28,27,06,259,26,138,38,213,47*46
2017-12-01 14:26:07 1512156367.773251: $GPZDA,192608.00,01,12,2017,00,00*64
2017-12-01 14:26:07 1512156367.773436: $GPGGA,192608,3946.9545,N,08404.9852,W,1,12,0.80,317.92,M,-33.324,M,,*72
2017-12-01 14:26:07 1512156367.773526: $GPRMC,192608,A,3946.9545,N,08404.9852,W,0.0000,0.000,011217,,*34
2017-12-01 14:26:07 1512156367.773596: $GPGSA,A,3,8,10,14,18,21,24,32,12,15,20,27,138,2.0,0.8,1.5*37
2017-12-01 14:26:08 1512156368.325109: $GPZDA,192609.00,01,12,2017,00,00*65
2017-12-01 14:26:08 1512156368.325279: $GPGGA,192609,3946.9548,N,08404.9852,W,1,12,0.80,317.16,M,-33.324,M,,*72
2017-12-01 14:26:08 1512156368.325347: $GPRMC,192609,A,3946.9548,N,08404.9852,W,0.0000,0.000,011217,,*38
2017-12-01 14:26:08 1512156368.325409: $GPGSA,A,3,8,10,14,18,21,24,32,12,15,20,27,138,2.0,0.8,1.5*37
2017-12-01 14:26:09 1512156369.326617: $GPZDA,192610.00,01,12,2017,00,00*6D
2017-12-01 14:26:09 1512156369.326801: $GPGGA,192610,3946.9544,N,08404.9852,W,1,12,0.80,316.52,M,-33.324,M,,*77
2017-12-01 14:26:09 1512156369.326869: $GPRMC,192610,A,3946.9544,N,08404.9852,W,0.0000,0.000,011217,,*3C
2017-12-01 14:26:09 1512156369.326932: $GPGSA,A,3,8,10,14,18,21,24,32,12,15,20,27,138,2.0,0.8,1.5*37
2017-12-01 14:26:10 1512156370.663645: $GPGSV,3,1,12,08,05,292,29,10,70,333,48,14,30,255,39,18,69,097,45*79
2017-12-01 14:26:10 1512156370.663834: $GPGSV,3,2,12,21,27,178,46,24,44,057,49,32,47,267,46,12,10,106,29*75
2017-12-01 14:26:10 1512156370.663903: $GPGSV,3,3,12,15,10,067,30,20,08,118,28,27,06,259,27,138,38,213,46*4E
2017-12-01 14:26:10 1512156370.777011: $GPZDA,192611.00,01,12,2017,00,00*6C
2017-12-01 14:26:10 1512156370.777196: $GPGGA,192611,3946.9563,N,08404.9852,W,2,12,2.00,307.64,M,-33.324,M,,*7F
2017-12-01 14:26:10 1512156370.777265: $GPRMC,192611,A,3946.9563,N,08404.9852,W,0.0000,0.000,011217,,*38
2017-12-01 14:26:10 1512156370.777327: $GPGSA,A,3,8,10,14,18,21,24,32,12,15,20,27,138,2.0,2.0,1.5*3D
2017-12-01 14:26:11 1512156371.330349: $GPZDA,192612.00,01,12,2017,00,00*6F
2017-12-01 14:26:11 1512156371.330528: $GPGGA,192612,3946.9563,N,08404.9852,W,2,12,0.80,307.64,M,-33.324,M,,*76
2017-12-01 14:26:11 1512156371.330598: $GPRMC,192612,A,3946.9563,N,08404.9852,W,0.0000,0.000,011217,,*3B
2017-12-01 14:26:11 1512156371.330663: $GPGSA,A,3,8,10,14,18,21,24,32,12,15,20,27,138,2.0,0.8,1.5*37
2017-12-01 14:26:12 1512156372.326226: $GPZDA,192613.00,01,12,2017,00,00*6E
2017-12-01 14:26:12 1512156372.326412: $GPGGA,192613,3946.9563,N,08404.9852,W,2,12,0.80,307.64,M,-33.324,M,,*77
2017-12-01 14:26:12 1512156372.326481: $GPRMC,192613,A,3946.9563,N,08404.9852,W,0.0000,0.000,011217,,*3A
2017-12-01 14:26:12 1512156372.326544: $GPGSA,A,3,8,10,14,18,21,24,32,12,15,20,27,138,2.0,0.8,1.5*37
2017-12-01 14:26:13 1512156373.669480: $GPGSV,3,1,12,08,05,292,31,10,70,333,49,14,30,255,38,18,69,097,45*70
2017-12-01 14:26:13 1512156373.669675: $GPGSV,3,2,12,21,27,178,46,24,44,057,49,32,47,267,46,12,10,106,29*75
2017-12-01 14:26:13 1512156373.669744: $GPGSV,3,3,12,15,10,067,31,20,08,118,27,27,06,259,27,138,38,213,47*41
2017-12-01 14:26:13 1512156373.782874: $GPZDA,192614.00,01,12,2017,00,00*69
2017-12-01 14:26:13 1512156373.783045: $GPGGA,192614,3946.9563,N,08404.9852,W,2,12,0.80,307.64,M,-33.324,M,,*70
2017-12-01 14:26:13 1512156373.783113: $GPRMC,192614,A,3946.9563,N,08404.9852,W,0.0000,0.000,011217,,*3D
2017-12-01 14:26:13 1512156373.783173: $GPGSA,A,3,8,10,14,18,21,24,32,12,15,20,27,138,2.0,0.8,1.5*37
2017-12-01 14:26:14 1512156374.408193: $GPZDA,192615.00,01,12,2017,00,00*68
2017-12-01 14:26:14 1512156374.408387: $GPGGA,192615,3946.9560,N,08404.9853,W,2,12,0.80,308.41,M,-33.324,M,,*7B
2017-12-01 14:26:14 1512156374.408455: $GPRMC,192615,A,3946.9560,N,08404.9853,W,0.0000,0.000,011217,,*3E
2017-12-01 14:26:14 1512156374.408568: $GPGSA,A,3,8,10,14,18,21,24,32,12,15,20,27,138,2.0,0.8,1.5*37
2017-12-01 14:26:15 1512156375.332840: $GPZDA,192616.00,01,12,2017,00,00*6B
2017-12-01 14:26:15 1512156375.333012: $GPGGA,192616,3946.9560,N,08404.9853,W,2,12,0.80,308.41,M,-33.324,M,,*78
2017-12-01 14:26:15 1512156375.333081: $GPRMC,192616,A,3946.9560,N,08404.9853,W,0.0000,0.000,011217,,*3D
2017-12-01 14:26:15 1512156375.333143: $GPGSA,A,3,8,10,14,18,21,24,32,12,15,20,27,138,2.0,0.8,1.5*37
2017-12-01 14:26:16 1512156376.668623: $GPGSV,3,1,12,08,05,292,33,10,70,333,48,14,30,255,38,18,69,097,45*73
2017-12-01 14:26:16 1512156376.668810: $GPGSV,3,2,12,21,27,178,46,24,44,057,49,32,47,267,45,12,10,106,30*7E
2017-12-01 14:26:16 1512156376.668877: $GPGSV,3,3,12,15,10,067,32,20,08,118,27,27,06,259,28,138,38,213,48*42
2017-12-01 14:26:16 1512156376.782026: $GPZDA,192617.00,01,12,2017,00,00*6A
2017-12-01 14:26:16 1512156376.782195: $GPGGA,192617,3946.9560,N,08404.9853,W,2,12,0.80,308.41,M,-33.324,M,,*79
2017-12-01 14:26:16 1512156376.782283: $GPRMC,192617,A,3946.9560,N,08404.9853,W,0.0000,0.000,011217,,*3C
2017-12-01 14:26:16 1512156376.782346: $GPGSA,A,3,8,10,14,18,21,24,32,12,15,20,27,138,2.0,0.8,1.5*37
2017-12-01 14:26:17 1512156377.332888: $GPZDA,192618.00,01,12,2017,00,00*65
2017-12-01 14:26:17 1512156377.333043: $GPGGA,192618,3946.9560,N,08404.9853,W,2,12,0.80,308.41,M,-33.324,M,,*76
2017-12-01 14:26:17 1512156377.333112: $GPRMC,192618,A,3946.9560,N,08404.9853,W,0.0000,0.000,011217,,*33
2017-12-01 14:26:17 1512156377.333174: $GPGSA,A,3,8,10,14,18,21,24,32,12,15,20,27,138,2.0,0.8,1.5*37
2017-12-01 14:26:18 1512156378.331514: $GPZDA,192619.00,01,12,2017,00,00*64
2017-12-01 14:26:18 1512156378.331697: $GPGGA,192619,3946.9560,N,08404.9853,W,2,12,0.80,308.41,M,-33.324,M,,*77
2017-12-01 14:26:18 1512156378.331765: $GPRMC,192619,A,3946.9560,N,08404.9853,W,0.0000,0.000,011217,,*32
2017-12-01 14:26:18 1512156378.331826: $GPGSA,A,3,8,10,14,18,21,24,32,12,15,20,27,138,2.0,0.8,1.5*37
2017-12-01 14:26:18 1512156378.331885: $GPGBS,192619,2.67,M,3.86,M,8.82,M*36
2017-12-01 14:26:19 1512156379.668896: $GPGSV,3,1,12,08,05,292,21,10,70,333,48,14,30,255,40,18,69,097,45*7F
2017-12-01 14:26:19 1512156379.669071: $GPGSV,3,2,12,21,27,178,46,24,44,057,50,32,47,267,45,12,10,106,30*76
2017-12-01 14:26:19 1512156379.669139: $GPGSV,3,3,12,15,10,067,32,20,08,118,27,27,06,259,29,138,38,213,48*43
2017-12-01 14:26:19 1512156379.785181: $GPZDA,192620.00,01,12,2017,00,00*6E
2017-12-01 14:26:19 1512156379.785365: $GPGGA,192620,3946.9559,N,08404.9859,W,2,12,0.80,306.92,M,-33.324,M,,*7D
2017-12-01 14:26:19 1512156379.785430: $GPRMC,192620,A,3946.9559,N,08404.9859,W,0.3423,184.196,011217,,*3D
2017-12-01 14:26:19 1512156379.785499: $GPGSA,A,3,8,10,14,18,21,24,32,12,15,20,27,138,2.0,0.8,1.5*37
2017-12-01 14:26:20 1512156380.325830: $GPZDA,192621.00,01,12,2017,00,00*6F
2017-12-01 14:26:20 1512156380.326021: $GPGGA,192621,3946.9559,N,08404.9859,W,2,12,0.80,306.92,M,-33.324,M,,*7C
2017-12-01 14:26:20 1512156380.326089: $GPRMC,192621,A,3946.9559,N,08404.9859,W,0.0000,0.000,011217,,*39
2017-12-01 14:26:20 1512156380.326150: $GPGSA,A,3,8,10,14,18,21,24,32,12,15,20,27,138,2.0,0.8,1.5*37
2017-12-01 14:26:21 1512156381.339027: $GPZDA,192622.00,01,12,2017,00,00*6C
2017-12-01 14:26:21 1512156381.339200: $GPGGA,192622,3946.9559,N,08404.9859,W,2,12,0.80,306.92,M,-33.324,M,,*7F
2017-12-01 14:26:21 1512156381.339267: $GPRMC,192622,A,3946.9559,N,08404.9859,W,0.0000,0.000,011217,,*3A
2017-12-01 14:26:21 1512156381.339328: $GPGSA,A,3,8,10,14,18,21,24,32,12,15,20,27,138,2.0,0.8,1.5*37
2017-12-01 14:26:22 1512156382.666040: $GPGSV,3,1,12,08,05,292,23,10,70,333,48,14,30,255,40,18,69,097,45*7D
2017-12-01 14:26:22 1512156382.666221: $GPGSV,3,2,12,21,27,178,46,24,44,057,50,32,47,267,45,12,10,106,29*7E
2017-12-01 14:26:22 1512156382.666288: $GPGSV,3,3,12,15,10,067,32,20,08,118,22,27,06,259,34,138,38,213,47*45
2017-12-01 14:26:22 1512156382.779389: $GPZDA,192623.00,01,12,2017,00,00*6D
2017-12-01 14:26:22 1512156382.779617: $GPGGA,192623,3946.9559,N,08404.9859,W,2,12,0.80,306.92,M,-33.324,M,,*7E
2017-12-01 14:26:22 1512156382.779755: $GPRMC,192623,A,3946.9559,N,08404.9859,W,0.0000,0.000,011217,,*3B
2017-12-01 14:26:22 1512156382.779818: $GPGSA,A,3,8,10,14,18,21,24,32,12,15,20,27,138,2.0,0.8,1.5*37
2017-12-01 14:26:23 1512156383.330741: $GPZDA,192624.00,01,12,2017,00,00*6A
2017-12-01 14:26:23 1512156383.332558: $GPGGA,192624,3946.9559,N,08404.9859,W,2,12,0.80,306.92,M,-33.324,M,,*79
2017-12-01 14:26:23 1512156383.332709: $GPRMC,192624,A,3946.9559,N,08404.9859,W,0.0000,0.000,011217,,*3C
2017-12-01 14:26:23 1512156383.332964: $GPGSA,A,3,8,10,14,18,21,24,32,12,15,20,27,138,2.0,0.8,1.5*37
2017-12-01 14:26:24 1512156384.332317: $GPZDA,192625.00,01,12,2017,00,00*6B
2017-12-01 14:26:24 1512156384.332491: $GPGGA,192625,3946.9559,N,08404.9859,W,2,12,0.80,306.92,M,-33.324,M,,*78
2017-12-01 14:26:24 1512156384.332561: $GPRMC,192625,A,3946.9559,N,08404.9859,W,0.0000,0.000,011217,,*3D
2017-12-01 14:26:24 1512156384.332622: $GPGSA,A,3,8,10,14,18,21,24,32,12,15,20,27,138,2.0,0.8,1.5*37
