2017-11-15 18:38:22 1510789102.262002: {"class":"VERSION","release":"3.17","rev":"3.17","proto_major":3,"proto_minor":12}
2017-11-15 18:38:22 1510789102.262472: {"class":"DEVICES","devices":[{"class":"DEVICE","path":"/dev/ttyUSB0","driver":"SiRF","subtype":"9\u0006GSD4e_4.1.2-P1_RPATCH.05-F-GPS-4R-1510281 11/03/2015 307","activated":"2017-11-15T23:38:22.216Z","flags":1,"native":1,"bps":4800,"parity":"N","stopbits":1,"cycle":1.00}]}
2017-11-15 18:38:22 1510789102.262590: {"class":"WATCH","enable":true,"json":false,"nmea":true,"raw":0,"scaled":false,"timing":false,"split24":false,"pps":false}
2017-11-15 18:38:22 1510789102.328194: $GPRMC,233821,V,3946.9494,N,08404.9573,W,1.6828,39.347,151117,,*14
2017-11-15 18:38:22 1510789102.328347: $GPGSA,A,1,25,14,31,26,,,,,,,,,,,,*36
2017-11-15 18:38:23 1510789103.364118: $GPZDA,233822.00,15,11,2017,00,00*6C
2017-11-15 18:38:23 1510789103.364293: $GPGGA,233822,3946.9498,N,08404.9572,W,1,04,6.00,300.32,M,-33.324,M,,*77
2017-11-15 18:38:23 1510789103.364354: $GPRMC,233822,A,3946.9498,N,08404.9572,W,1.5545,32.064,151117,,*01
2017-11-15 18:38:23 1510789103.364409: $GPGSA,A,3,25,14,31,26,,,,,,,,,3.4,6.0,2.9*3C
2017-11-15 18:38:24 1510789104.664611: $GPGSV,3,1,11,25,34,055,19,14,68,046,16,22,41,301,04,32,54,082,13*76
2017-11-15 18:38:24 1510789104.664786: $GPGSV,3,2,11,31,79,291,20,26,27,178,16,03,22,315,00,10,20,157,07*77
2017-11-15 18:38:24 1510789104.664846: $GPGSV,3,3,11,01,18,273,00,12,05,031,00,138,38,213,00*72
2017-11-15 18:38:24 1510789104.777003: $GPRMC,233823,V,3946.9502,N,08404.9572,W,1.4555,23.636,151117,,*14
2017-11-15 18:38:24 1510789104.777178: $GPGSA,A,1,25,14,31,26,10,,,,,,,,,,,*37
2017-11-15 18:38:25 1510789105.330350: $GPZDA,233824.00,15,11,2017,00,00*6A
2017-11-15 18:38:25 1510789105.330511: $GPGGA,233824,3946.9506,N,08404.9572,W,1,05,4.20,301.60,M,-33.324,M,,*70
2017-11-15 18:38:25 1510789105.330587: $GPRMC,233824,A,3946.9506,N,08404.9572,W,1.6283,21.001,151117,,*0E
2017-11-15 18:38:25 1510789105.330645: $GPGSA,A,3,25,14,31,26,10,,,,,,,,3.4,4.2,2.9*3D
2017-11-15 18:38:26 1510789106.329236: $GPZDA,233825.01,15,11,2017,00,00*6A
2017-11-15 18:38:26 1510789106.329395: $GPGGA,233825,3946.9509,N,08404.9571,W,1,05,3.00,300.84,M,-33.324,M,,*73
2017-11-15 18:38:26 1510789106.329456: $GPRMC,233825,A,3946.9509,N,08404.9571,W,1.1385,29.379,151117,,*07
2017-11-15 18:38:26 1510789106.329512: $GPGSA,A,3,25,14,31,26,10,,,,,,,,3.4,3.0,2.9*38
2017-11-15 18:38:27 1510789107.664990: $GPGSV,3,1,11,25,34,055,19,14,68,046,16,22,41,301,04,32,54,082,14*71
2017-11-15 18:38:27 1510789107.665190: $GPGSV,3,2,11,31,79,291,20,26,27,178,16,03,22,315,00,10,20,157,08*78
2017-11-15 18:38:27 1510789107.665271: $GPGSV,3,3,11,01,18,273,00,12,05,031,00,138,38,213,00*72
2017-11-15 18:38:27 1510789107.778398: $GPZDA,233826.00,15,11,2017,00,00*68
2017-11-15 18:38:27 1510789107.778571: $GPGGA,233826,3946.9509,N,08404.9571,W,1,06,4.20,300.84,M,-33.324,M,,*76
2017-11-15 18:38:27 1510789107.778636: $GPRMC,233826,A,3946.9509,N,08404.9571,W,0.7278,23.636,151117,,*04
2017-11-15 18:38:27 1510789107.778695: $GPGSA,A,3,25,14,32,31,26,10,,,,,,,3.4,4.2,2.9*3C
2017-11-15 18:38:28 1510789108.364223: $GPZDA,233827.00,15,11,2017,00,00*69
2017-11-15 18:38:28 1510789108.364385: $GPGGA,233827,3946.9513,N,08404.9571,W,1,06,3.00,301.48,M,-33.324,M,,*78
2017-11-15 18:38:28 1510789108.364445: $GPRMC,233827,A,3946.9513,N,08404.9571,W,1.5738,12.547,151117,,*0B
2017-11-15 18:38:28 1510789108.364501: $GPGSA,A,3,25,14,32,31,26,10,,,,,,,3.4,3.0,2.9*39
2017-11-15 18:38:29 1510789109.330033: $GPZDA,233828.00,15,11,2017,00,00*66
2017-11-15 18:38:29 1510789109.330226: $GPGGA,233828,3946.9517,N,08404.9577,W,1,06,3.00,300.63,M,-33.324,M,,*7D
2017-11-15 18:38:29 1510789109.330292: $GPRMC,233828,A,3946.9517,N,08404.9577,W,1.5738,12.547,151117,,*06
2017-11-15 18:38:29 1510789109.330351: $GPGSA,A,3,25,14,32,31,26,10,,,,,,,3.4,3.0,2.9*39
2017-11-15 18:38:30 1510789110.699794: $GPGSV,3,1,11,25,34,055,17,14,68,046,16,22,41,301,04,32,54,082,16*7D
2017-11-15 18:38:30 1510789110.699975: $GPGSV,3,2,11,31,79,291,21,26,27,178,16,03,22,315,00,10,20,157,06*77
2017-11-15 18:38:30 1510789110.700096: $GPGSV,3,3,11,01,18,273,00,12,05,031,00,138,38,213,00*72
2017-11-15 18:38:30 1510789110.813270: $GPZDA,233829.00,15,11,2017,00,00*67
2017-11-15 18:38:30 1510789110.813428: $GPGGA,233829,3946.9517,N,08404.9577,W,1,05,3.00,300.63,M,-33.324,M,,*7F
2017-11-15 18:38:30 1510789110.813489: $GPRMC,233829,A,3946.9517,N,08404.9577,W,1.1385,29.379,151117,,*02
2017-11-15 18:38:30 1510789110.813549: $GPGSA,A,3,25,14,32,31,26,,,,,,,,3.4,3.0,2.9*38
2017-11-15 18:38:31 1510789111.438657: $GPZDA,233830.00,15,11,2017,00,00*6F
2017-11-15 18:38:31 1510789111.438809: $GPGGA,233830,3946.9517,N,08404.9577,W,1,05,4.20,300.63,M,-33.324,M,,*72
2017-11-15 18:38:31 1510789111.438871: $GPRMC,233830,A,3946.9517,N,08404.9577,W,0.9929,32.499,151117,,*0C
2017-11-15 18:38:31 1510789111.438927: $GPGSA,A,3,25,14,32,31,26,,,,,,,,3.4,4.2,2.9*3D
2017-11-15 18:38:32 1510789112.364463: $GPZDA,233831.00,15,11,2017,00,00*6E
2017-11-15 18:38:32 1510789112.364627: $GPGGA,233831,3946.9521,N,08404.9577,W,1,05,4.20,301.27,M,-33.324,M,,*77
2017-11-15 18:38:32 1510789112.364689: $GPRMC,233831,A,3946.9521,N,08404.9577,W,0.9929,32.499,151117,,*08
2017-11-15 18:38:32 1510789112.364745: $GPGSA,A,3,25,14,32,31,26,,,,,,,,3.4,4.2,2.9*3D
2017-11-15 18:38:33 1510789113.664926: $GPGSV,3,1,11,25,34,055,16,14,68,046,16,22,41,301,04,32,54,082,16*7C
2017-11-15 18:38:33 1510789113.666601: $GPGSV,3,2,11,31,79,291,22,26,27,178,16,03,22,315,00,10,20,157,05*77
2017-11-15 18:38:33 1510789113.666681: $GPGSV,3,3,11,01,18,273,00,12,05,031,00,138,38,213,00*72
2017-11-15 18:38:33 1510789113.778710: $GPZDA,233832.00,15,11,2017,00,00*6D
2017-11-15 18:38:33 1510789113.778868: $GPGGA,233832,3946.9521,N,08404.9577,W,1,05,4.20,301.27,M,-33.324,M,,*74
2017-11-15 18:38:33 1510789113.778928: $GPRMC,233832,A,3946.9521,N,08404.9577,W,0.5287,2.716,151117,,*3F
2017-11-15 18:38:33 1510789113.778983: $GPGSA,A,3,25,14,32,31,26,,,,,,,,3.4,4.2,2.9*3D
2017-11-15 18:38:34 1510789114.329716: $GPZDA,233833.00,15,11,2017,00,00*6C
2017-11-15 18:38:34 1510789114.329889: $GPGGA,233833,3946.9517,N,08404.9577,W,1,05,1.20,300.63,M,-33.324,M,,*74
2017-11-15 18:38:34 1510789114.329950: $GPRMC,233833,A,3946.9517,N,08404.9577,W,0.1567,9.201,151117,,*3E
2017-11-15 18:38:34 1510789114.330006: $GPGSA,A,3,25,14,32,31,26,,,,,,,,3.4,1.2,2.9*38
2017-11-15 18:38:35 1510789115.330420: $GPZDA,233834.00,15,11,2017,00,00*6B
2017-11-15 18:38:35 1510789115.330571: $GPGGA,233834,3946.9518,N,08404.9584,W,1,05,1.20,300.56,M,-33.324,M,,*76
2017-11-15 18:38:35 1510789115.330632: $GPRMC,233834,A,3946.9518,N,08404.9584,W,0.2959,234.767,151117,,*31
2017-11-15 18:38:35 1510789115.330687: $GPGSA,A,3,25,14,32,31,26,,,,,,,,3.4,1.2,2.9*38
2017-11-15 18:38:36 1510789116.699141: $GPGSV,3,1,11,25,34,055,16,14,68,046,16,22,41,301,11,32,54,082,16*78
2017-11-15 18:38:36 1510789116.699310: $GPGSV,3,2,11,31,79,291,22,26,27,178,18,03,22,315,00,10,20,157,04*78
2017-11-15 18:38:36 1510789116.699370: $GPGSV,3,3,11,01,18,273,00,12,05,031,00,138,38,213,00*72
2017-11-15 18:38:36 1510789116.812724: $GPZDA,233835.00,15,11,2017,00,00*6A
2017-11-15 18:38:36 1510789116.812880: $GPGGA,233835,3946.9518,N,08404.9584,W,1,06,1.20,300.56,M,-33.324,M,,*74
2017-11-15 18:38:36 1510789116.812941: $GPRMC,233835,A,3946.9518,N,08404.9584,W,0.2959,234.767,151117,,*30
2017-11-15 18:38:36 1510789116.812996: $GPGSA,A,3,25,14,22,32,31,26,,,,,,,3.4,1.2,2.9*38
