2017-12-29 10:47:49 1514562469.026599: {"class":"VERSION","release":"3.16","rev":"3.16-4","proto_major":3,"proto_minor":11}
2017-12-29 10:47:49 1514562469.026942: {"class":"DEVICES","devices":[{"class":"DEVICE","path":"/dev/ttyUSB0","driver":"SiRF","subtype":"9\u0006GSD4e_4.1.2-P1_RPATCH.05-F-GPS-4R-1510281 11/03/2015 307","activated":"2017-12-29T15:47:48.906Z","flags":1,"native":1,"bps":4800,"parity":"N","stopbits":1,"cycle":1.00}]}
2017-12-29 10:47:49 1514562469.027058: {"class":"WATCH","enable":true,"json":false,"nmea":true,"raw":0,"scaled":false,"timing":false,"split24":false,"pps":false}
2017-12-29 10:47:50 1514562470.615790: $GPZDA,154751.07,29,12,2017,00,00*6E
2017-12-29 10:47:50 1514562470.615964: $GPGGA,154751,3946.9599,N,08404.9783,W,1,11,1.20,302.75,M,-33.324,M,,*72
2017-12-29 10:47:50 1514562470.616032: $GPRMC,154751,A,3946.9599,N,08404.9783,W,0.3006,62.539,291217,,*05
2017-12-29 10:47:50 1514562470.616093: $GPGSA,A,3,10,13,15,18,20,21,24,27,29,32,138,,1.7,1.2,1.3*09
2017-12-29 10:47:50 1514562470.616151: $GPGBS,154751,10.91,M,10.38,M,30.89,M*0C
2017-12-29 10:47:51 1514562471.697536: $GPZDA,154751.26,29,12,2017,00,00*6D
2017-12-29 10:47:51 1514562471.697690: $GPGGA,154751,3946.9599,N,08404.9783,W,1,11,1.20,302.75,M,-33.324,M,,*72
2017-12-29 10:47:51 1514562471.697756: $GPRMC,154751,A,3946.9599,N,08404.9783,W,0.4949,67.831,291217,,*00
2017-12-29 10:47:51 1514562471.697816: $GPGSA,A,3,10,13,15,18,20,21,24,27,29,32,138,,1.7,1.2,1.3*09
2017-12-29 10:47:52 1514562472.839877: $GPGSV,3,1,11,10,32,291,32,13,19,046,34,15,49,049,49,18,63,315,34*7A
2017-12-29 10:47:52 1514562472.840034: $GPGSV,3,2,11,20,44,084,49,21,76,211,47,24,43,127,50,27,19,303,28*7F
2017-12-29 10:47:52 1514562472.840099: $GPGSV,3,3,11,32,11,231,16,29,01,186,00,138,38,213,00*7B
2017-12-29 10:47:52 1514562472.953488: $GPZDA,154752.00,29,12,2017,00,00*6A
2017-12-29 10:47:52 1514562472.953609: $GPGGA,154752,3946.9603,N,08404.9783,W,1,09,0.80,303.39,M,-33.324,M,,*7A
2017-12-29 10:47:52 1514562472.953673: $GPRMC,154752,A,3946.9603,N,08404.9783,W,0.1567,189.200,291217,,*3F
2017-12-29 10:47:52 1514562472.953733: $GPGSA,A,3,10,13,15,18,20,21,24,27,32,,,,1.7,0.8,1.3*33
2017-12-29 10:47:53 1514562473.368671: $GPZDA,154753.00,29,12,2017,00,00*6B
2017-12-29 10:47:53 1514562473.368833: $GPGGA,154753,3946.9600,N,08404.9784,W,1,09,0.80,304.16,M,-33.324,M,,*75
2017-12-29 10:47:53 1514562473.368899: $GPRMC,154753,A,3946.9600,N,08404.9784,W,0.1567,189.200,291217,,*3A
2017-12-29 10:47:53 1514562473.368960: $GPGSA,A,3,10,13,15,18,20,21,24,27,32,,,,1.7,0.8,1.3*33
2017-12-29 10:47:53 1514562473.369017: $GPGBS,154753,10.91,M,10.38,M,30.89,M*0E
2017-12-29 10:47:53 1514562473.819527: $GPZDA,154754.00,29,12,2017,00,00*6C
2017-12-29 10:47:53 1514562473.819672: $GPGGA,154754,3946.9596,N,08404.9784,W,1,09,0.80,304.92,M,-33.324,M,,*72
2017-12-29 10:47:53 1514562473.819737: $GPRMC,154754,A,3946.9596,N,08404.9784,W,0.0000,0.000,291217,,*36
2017-12-29 10:47:53 1514562473.819797: $GPGSA,A,3,10,13,15,18,20,21,24,27,32,,,,1.7,0.8,1.3*33
2017-12-29 10:47:53 1514562473.819854: $GPGBS,154754,10.91,M,10.38,M,30.89,M*09
2017-12-29 10:47:54 1514562474.780745: $GPGSV,3,1,11,10,32,291,42,13,19,046,42,15,49,049,50,18,63,315,44*73
2017-12-29 10:47:54 1514562474.780934: $GPGSV,3,2,11,20,44,084,50,21,76,211,47,24,43,127,50,27,19,303,34*7A
2017-12-29 10:47:54 1514562474.781003: $GPGSV,3,3,11,32,11,231,33,29,01,186,33,138,38,213,46*7E
2017-12-29 10:47:54 1514562474.894386: $GPZDA,154755.00,29,12,2017,00,00*6D
2017-12-29 10:47:54 1514562474.894537: $GPGGA,154755,3946.9597,N,08404.9791,W,1,11,0.80,304.84,M,-33.324,M,,*78
2017-12-29 10:47:54 1514562474.894603: $GPRMC,154755,A,3946.9597,N,08404.9791,W,0.0000,0.000,291217,,*32
2017-12-29 10:47:54 1514562474.894662: $GPGSA,A,3,10,13,15,18,20,21,24,27,32,29,138,,1.7,0.8,1.3*02
2017-12-29 10:47:55 1514562475.394010: $GPZDA,154756.00,29,12,2017,00,00*6E
2017-12-29 10:47:55 1514562475.394172: $GPGGA,154756,3946.9597,N,08404.9791,W,1,11,0.80,304.84,M,-33.324,M,,*7B
2017-12-29 10:47:55 1514562475.394238: $GPRMC,154756,A,3946.9597,N,08404.9791,W,0.0000,0.000,291217,,*31
2017-12-29 10:47:55 1514562475.394348: $GPGSA,A,3,10,13,15,18,20,21,24,27,32,29,138,,1.7,0.8,1.3*02
2017-12-29 10:47:56 1514562476.394791: $GPZDA,154757.00,29,12,2017,00,00*6F
2017-12-29 10:47:56 1514562476.394954: $GPGGA,154757,3946.9601,N,08404.9797,W,1,11,0.80,304.00,M,-33.324,M,,*7C
2017-12-29 10:47:56 1514562476.395019: $GPRMC,154757,A,3946.9601,N,08404.9797,W,0.0000,0.000,291217,,*3A
2017-12-29 10:47:56 1514562476.395079: $GPGSA,A,3,10,13,15,18,20,21,24,27,32,29,138,,1.7,0.8,1.3*02
2017-12-29 10:47:56 1514562476.395137: $GPGBS,154757,10.91,M,10.38,M,30.89,M*0A
2017-12-29 10:47:57 1514562477.728978: $GPGSV,3,1,11,10,32,291,43,13,19,046,42,15,49,049,50,18,63,315,44*72
2017-12-29 10:47:57 1514562477.729146: $GPGSV,3,2,11,20,44,084,50,21,76,211,47,24,43,127,50,27,19,303,34*7A
2017-12-29 10:47:57 1514562477.729211: $GPGSV,3,3,11,32,11,231,33,29,01,186,34,138,38,213,46*79
2017-12-29 10:47:57 1514562477.842610: $GPZDA,154758.00,29,12,2017,00,00*60
2017-12-29 10:47:57 1514562477.842723: $GPGGA,154758,3946.9601,N,08404.9797,W,1,11,0.80,304.00,M,-33.324,M,,*73
2017-12-29 10:47:57 1514562477.842787: $GPRMC,154758,A,3946.9601,N,08404.9797,W,0.0000,0.000,291217,,*35
2017-12-29 10:47:57 1514562477.842846: $GPGSA,A,3,10,13,15,18,20,21,24,27,32,29,138,,1.7,0.8,1.3*02
2017-12-29 10:47:58 1514562478.394727: $GPZDA,154759.00,29,12,2017,00,00*61
2017-12-29 10:47:58 1514562478.394895: $GPGGA,154759,3946.9601,N,08404.9797,W,1,11,0.80,304.00,M,-33.324,M,,*72
2017-12-29 10:47:58 1514562478.394961: $GPRMC,154759,A,3946.9601,N,08404.9797,W,0.0000,0.000,291217,,*34
2017-12-29 10:47:58 1514562478.395021: $GPGSA,A,3,10,13,15,18,20,21,24,27,32,29,138,,1.7,0.8,1.3*02
2017-12-29 10:47:59 1514562479.398850: $GPZDA,154800.00,29,12,2017,00,00*62
2017-12-29 10:47:59 1514562479.399021: $GPGGA,154800,3946.9601,N,08404.9804,W,1,11,0.80,303.92,M,-33.324,M,,*78
2017-12-29 10:47:59 1514562479.399088: $GPRMC,154800,A,3946.9601,N,08404.9804,W,0.0000,0.000,291217,,*32
2017-12-29 10:47:59 1514562479.399148: $GPGSA,A,3,10,13,15,18,20,21,24,27,32,29,138,,1.7,0.8,1.3*02
2017-12-29 10:48:00 1514562480.731860: $GPGSV,3,1,11,10,32,291,43,13,19,046,43,15,49,049,50,18,63,315,44*73
2017-12-29 10:48:00 1514562480.732040: $GPGSV,3,2,11,20,44,084,50,21,76,211,47,24,43,127,51,27,19,303,25*7B
2017-12-29 10:48:00 1514562480.732107: $GPGSV,3,3,11,32,11,231,33,29,01,186,34,138,38,213,45*7A
2017-12-29 10:48:00 1514562480.843930: $GPZDA,154801.00,29,12,2017,00,00*63
2017-12-29 10:48:00 1514562480.844054: $GPGGA,154801,3946.9601,N,08404.9804,W,1,11,0.80,303.92,M,-33.324,M,,*79
2017-12-29 10:48:00 1514562480.844118: $GPRMC,154801,A,3946.9601,N,08404.9804,W,0.0000,0.000,291217,,*33
2017-12-29 10:48:00 1514562480.844178: $GPGSA,A,3,10,13,15,18,20,21,24,27,32,29,138,,1.7,0.8,1.3*02
2017-12-29 10:48:01 1514562481.394851: $GPZDA,154802.00,29,12,2017,00,00*60
2017-12-29 10:48:01 1514562481.395026: $GPGGA,154802,3946.9601,N,08404.9804,W,1,11,0.80,303.92,M,-33.324,M,,*7A
2017-12-29 10:48:01 1514562481.395094: $GPRMC,154802,A,3946.9601,N,08404.9804,W,0.0000,0.000,291217,,*30
2017-12-29 10:48:01 1514562481.395155: $GPGSA,A,3,10,13,15,18,20,21,24,27,32,29,138,,1.7,0.8,1.3*02
2017-12-29 10:48:02 1514562482.395967: $GPZDA,154803.00,29,12,2017,00,00*61
2017-12-29 10:48:02 1514562482.396128: $GPGGA,154803,3946.9601,N,08404.9804,W,1,11,0.80,303.92,M,-33.324,M,,*7B
2017-12-29 10:48:02 1514562482.396194: $GPRMC,154803,A,3946.9601,N,08404.9804,W,0.0000,0.000,291217,,*31
2017-12-29 10:48:02 1514562482.396254: $GPGSA,A,3,10,13,15,18,20,21,24,27,32,29,138,,1.7,0.8,1.3*02
2017-12-29 10:48:03 1514562483.728953: $GPGSV,3,1,11,10,32,291,13,13,19,046,13,15,49,049,15,18,63,315,13*70
2017-12-29 10:48:03 1514562483.729109: $GPGSV,3,2,11,20,44,084,15,21,76,211,14,24,43,127,15,27,19,303,07*7C
2017-12-29 10:48:03 1514562483.729175: $GPGSV,3,3,11,32,11,231,10,29,01,186,10,138,38,213,15*78
2017-12-29 10:48:03 1514562483.842587: $GPZDA,154804.00,29,12,2017,00,00*66
2017-12-29 10:48:03 1514562483.842715: $GPGGA,154804,3946.9601,N,08404.9811,W,1,11,0.80,303.84,M,-33.324,M,,*7F
2017-12-29 10:48:03 1514562483.842829: $GPRMC,154804,A,3946.9601,N,08404.9811,W,0.1567,9.200,291217,,*3C
2017-12-29 10:48:03 1514562483.842890: $GPGSA,A,3,10,13,15,18,20,21,24,27,32,29,138,,1.7,0.8,1.3*02
