2017-12-31 16:57:41 1514757461.179387: {"class":"VERSION","release":"3.16","rev":"3.16-4","proto_major":3,"proto_minor":11}
2017-12-31 16:57:41 1514757461.179780: {"class":"DEVICES","devices":[{"class":"DEVICE","path":"/dev/ttyUSB0","driver":"SiRF","activated":"2017-12-31T21:57:41.168Z","flags":1,"native":1,"bps":4800,"parity":"N","stopbits":1,"cycle":1.00}]}
2017-12-31 16:57:41 1514757461.179971: {"class":"WATCH","enable":true,"json":false,"nmea":true,"raw":0,"scaled":false,"timing":false,"split24":false,"pps":false}
2017-12-31 16:57:41 1514757461.344108: $GPZDA,215742.00,31,12,2017,00,00*64
2017-12-31 16:57:41 1514757461.344267: $GPGGA,215742,3946.9584,N,08404.9862,W,2,11,1.00,302.90,M,-33.324,M,,*70
2017-12-31 16:57:41 1514757461.344332: $GPRMC,215742,A,3946.9584,N,08404.9862,W,0.0000,0.000,311217,,*3A
2017-12-31 16:57:41 1514757461.344393: $GPGSA,A,3,22,23,25,3,16,29,31,14,32,26,135,,1.7,1.0,1.3*3B
2017-12-31 16:57:42 1514757462.679618: $GPGSV,3,1,11,22,46,244,41,23,25,307,42,25,04,037,24,03,46,276,39*73
2017-12-31 16:57:42 1514757462.679824: $GPGSV,3,2,11,16,42,190,46,29,14,058,27,31,52,048,51,14,43,111,39*71
2017-12-31 16:57:42 1514757462.679889: $GPGSV,3,3,11,32,21,120,44,26,72,151,45,135,22,240,42*7A
2017-12-31 16:57:42 1514757462.792956: $GPZDA,215743.00,31,12,2017,00,00*65
2017-12-31 16:57:42 1514757462.793069: $GPGGA,215743,3946.9584,N,08404.9862,W,2,11,1.00,302.90,M,-33.324,M,,*71
2017-12-31 16:57:42 1514757462.793134: $GPRMC,215743,A,3946.9584,N,08404.9862,W,0.0000,0.000,311217,,*3B
2017-12-31 16:57:42 1514757462.793194: $GPGSA,A,3,22,23,25,3,16,29,31,14,32,26,135,,1.7,1.0,1.3*3B
2017-12-31 16:57:43 1514757463.343863: $GPZDA,215744.00,31,12,2017,00,00*62
2017-12-31 16:57:43 1514757463.344020: $GPGGA,215744,3946.9584,N,08404.9862,W,2,11,1.00,302.90,M,-33.324,M,,*76
2017-12-31 16:57:43 1514757463.344086: $GPRMC,215744,A,3946.9584,N,08404.9862,W,0.0000,0.000,311217,,*3C
2017-12-31 16:57:43 1514757463.344146: $GPGSA,A,3,22,23,25,3,16,29,31,14,32,26,135,,1.7,1.0,1.3*3B
2017-12-31 16:57:44 1514757464.359968: $GPZDA,215745.00,31,12,2017,00,00*63
2017-12-31 16:57:44 1514757464.360116: $GPGGA,215745,3946.9584,N,08404.9862,W,2,11,1.00,302.90,M,-33.324,M,,*77
2017-12-31 16:57:44 1514757464.360182: $GPRMC,215745,A,3946.9584,N,08404.9862,W,0.0000,0.000,311217,,*3D
2017-12-31 16:57:44 1514757464.360242: $GPGSA,A,3,22,23,25,3,16,29,31,14,32,26,135,,1.7,1.0,1.3*3B
2017-12-31 16:57:45 1514757465.679939: $GPGSV,3,1,11,22,46,244,41,23,25,307,42,25,04,037,24,03,46,276,39*73
2017-12-31 16:57:45 1514757465.680103: $GPGSV,3,2,11,16,42,190,46,29,14,058,28,31,52,048,51,14,43,111,40*70
2017-12-31 16:57:45 1514757465.680169: $GPGSV,3,3,11,32,21,120,44,26,72,151,45,135,22,240,42*7A
2017-12-31 16:57:45 1514757465.793311: $GPZDA,215746.00,31,12,2017,00,00*60
2017-12-31 16:57:45 1514757465.793459: $GPGGA,215746,3946.9584,N,08404.9862,W,2,11,1.00,302.90,M,-33.324,M,,*74
2017-12-31 16:57:45 1514757465.793525: $GPRMC,215746,A,3946.9584,N,08404.9862,W,0.0000,0.000,311217,,*3E
2017-12-31 16:57:45 1514757465.793585: $GPGSA,A,3,22,23,25,3,16,29,31,14,32,26,135,,1.7,1.0,1.3*3B
2017-12-31 16:57:46 1514757466.360734: $GPZDA,215747.00,31,12,2017,00,00*61
2017-12-31 16:57:46 1514757466.360932: $GPGGA,215747,3946.9584,N,08404.9862,W,2,11,1.00,302.90,M,-33.324,M,,*75
2017-12-31 16:57:46 1514757466.361017: $GPRMC,215747,A,3946.9584,N,08404.9862,W,0.0000,0.000,311217,,*3F
2017-12-31 16:57:46 1514757466.361080: $GPGSA,A,3,22,23,25,3,16,29,31,14,32,26,135,,1.7,1.0,1.3*3B
2017-12-31 16:57:47 1514757467.344085: $GPZDA,215748.00,31,12,2017,00,00*6E
2017-12-31 16:57:47 1514757467.344251: $GPGGA,215748,3946.9584,N,08404.9862,W,2,11,1.00,302.90,M,-33.324,M,,*7A
2017-12-31 16:57:47 1514757467.344317: $GPRMC,215748,A,3946.9584,N,08404.9862,W,0.0000,0.000,311217,,*30
2017-12-31 16:57:47 1514757467.344378: $GPGSA,A,3,22,23,25,3,16,29,31,14,32,26,135,,1.7,1.0,1.3*3B
2017-12-31 16:57:48 1514757468.672040: $GPGSV,3,1,11,22,46,244,42,23,25,307,42,25,04,037,25,03,46,276,39*71
2017-12-31 16:57:48 1514757468.672199: $GPGSV,3,2,11,16,42,190,46,29,14,058,28,31,52,048,51,14,43,111,40*70
2017-12-31 16:57:48 1514757468.672318: $GPGSV,3,3,11,32,21,120,44,26,72,151,45,135,22,240,43*7B
2017-12-31 16:57:48 1514757468.784155: $GPZDA,215749.00,31,12,2017,00,00*6F
2017-12-31 16:57:48 1514757468.784288: $GPGGA,215749,3946.9584,N,08404.9862,W,2,11,1.00,302.90,M,-33.324,M,,*7B
2017-12-31 16:57:48 1514757468.784353: $GPRMC,215749,A,3946.9584,N,08404.9862,W,0.0000,0.000,311217,,*31
2017-12-31 16:57:48 1514757468.784413: $GPGSA,A,3,22,23,25,3,16,29,31,14,32,26,135,,1.7,1.0,1.3*3B
2017-12-31 16:57:49 1514757469.354675: $GPZDA,215750.00,31,12,2017,00,00*67
2017-12-31 16:57:49 1514757469.354856: $GPGGA,215750,3946.9584,N,08404.9862,W,2,11,1.00,302.90,M,-33.324,M,,*73
2017-12-31 16:57:49 1514757469.354923: $GPRMC,215750,A,3946.9584,N,08404.9862,W,0.0000,0.000,311217,,*39
2017-12-31 16:57:49 1514757469.354984: $GPGSA,A,3,22,23,25,3,16,29,31,14,32,26,135,,1.7,1.0,1.3*3B
2017-12-31 16:57:49 1514757469.355043: $GPGBS,215750,2.22,M,3.43,M,7.66,M*3B
2017-12-31 16:57:50 1514757470.343787: $GPZDA,215751.00,31,12,2017,00,00*66
2017-12-31 16:57:50 1514757470.343950: $GPGGA,215751,3946.9584,N,08404.9862,W,2,11,1.00,302.90,M,-33.324,M,,*72
2017-12-31 16:57:50 1514757470.344016: $GPRMC,215751,A,3946.9584,N,08404.9862,W,0.0000,0.000,311217,,*38
2017-12-31 16:57:50 1514757470.344076: $GPGSA,A,3,22,23,25,3,16,29,31,14,32,26,135,,1.7,1.0,1.3*3B
2017-12-31 16:57:50 1514757470.344135: $GPGBS,215751,2.22,M,3.43,M,7.66,M*3A
