2017-12-14 12:38:14 1513273094.152729: {"class":"VERSION","release":"3.16","rev":"3.16-4","proto_major":3,"proto_minor":11}
2017-12-14 12:38:14 1513273094.153091: {"class":"DEVICES","devices":[{"class":"DEVICE","path":"/dev/ttyUSB0","driver":"SiRF","subtype":"9\u0006GSD4e_4.1.2-P1_RPATCH.05-F-GPS-4R-1510281 11/03/2015 307","activated":"2017-12-14T17:38:13.528Z","flags":1,"native":1,"bps":4800,"parity":"N","stopbits":1,"cycle":1.00}]}
2017-12-14 12:38:14 1513273094.153203: {"class":"WATCH","enable":true,"json":false,"nmea":true,"raw":0,"scaled":false,"timing":false,"split24":false,"pps":false}
2017-12-14 12:38:14 1513273094.370991: $GPZDA,173815.00,14,12,2017,00,00*6D
2017-12-14 12:38:14 1513273094.371159: $GPGGA,173815,3946.9398,N,08404.9158,W,1,07,1.40,350.54,M,-33.324,M,,*7A
2017-12-14 12:38:14 1513273094.371223: $GPRMC,173815,A,3946.9398,N,08404.9158,W,1.3921,194.217,141217,,*38
2017-12-14 12:38:14 1513273094.371284: $GPGSA,A,3,10,18,21,24,32,15,20,,,,,,6.6,1.4,6.2*39
2017-12-14 12:38:15 1513273095.722839: $GPGSV,3,1,12,10,48,307,09,18,76,003,17,21,53,183,16,24,53,096,20*70
2017-12-14 12:38:15 1513273095.723033: $GPGSV,3,2,12,32,28,244,16,15,30,055,13,20,27,102,18,27,17,280,00*74
2017-12-14 12:38:15 1513273095.723101: $GPGSV,3,3,12,14,10,237,00,08,07,315,00,13,01,051,00,120,07,103,00*41
2017-12-14 12:38:15 1513273095.836234: $GPZDA,173816.00,14,12,2017,00,00*6E
2017-12-14 12:38:15 1513273095.836410: $GPGGA,173816,3946.9399,N,08404.9165,W,1,07,1.40,350.46,M,-33.324,M,,*75
2017-12-14 12:38:15 1513273095.836475: $GPRMC,173816,A,3946.9399,N,08404.9165,W,0.7278,203.637,141217,,*3D
2017-12-14 12:38:15 1513273095.836536: $GPGSA,A,3,10,18,21,24,32,15,20,,,,,,6.6,1.4,6.2*39
2017-12-14 12:38:16 1513273096.462343: $GPZDA,173817.00,14,12,2017,00,00*6F
2017-12-14 12:38:16 1513273096.462535: $GPGGA,173817,3946.9399,N,08404.9165,W,1,07,1.40,351.87,M,-33.324,M,,*78
2017-12-14 12:38:16 1513273096.462611: $GPRMC,173817,A,3946.9399,N,08404.9165,W,0.4179,148.779,141217,,*3A
2017-12-14 12:38:16 1513273096.462699: $GPGSA,A,3,10,18,21,24,32,15,20,,,,,,6.6,1.4,6.2*39
2017-12-14 12:38:17 1513273097.371209: $GPZDA,173818.00,14,12,2017,00,00*60
2017-12-14 12:38:17 1513273097.371374: $GPGGA,173818,3946.9399,N,08404.9165,W,1,07,1.40,351.87,M,-33.324,M,,*77
2017-12-14 12:38:17 1513273097.371440: $GPRMC,173818,A,3946.9399,N,08404.9165,W,0.5912,129.173,141217,,*3A
2017-12-14 12:38:17 1513273097.371501: $GPGSA,A,3,10,18,21,24,32,15,20,,,,,,6.6,1.4,6.2*39
2017-12-14 12:38:18 1513273098.723208: $GPGSV,3,1,12,10,48,307,10,18,76,003,17,21,53,183,14,24,53,096,21*7B
2017-12-14 12:38:18 1513273098.723387: $GPGSV,3,2,12,32,28,244,16,15,30,055,13,20,27,102,17,27,17,280,00*7B
2017-12-14 12:38:18 1513273098.723453: $GPGSV,3,3,12,14,10,237,00,08,07,315,00,13,01,051,00,120,07,103,00*41
2017-12-14 12:38:18 1513273098.836588: $GPZDA,173819.00,14,12,2017,00,00*61
2017-12-14 12:38:18 1513273098.836781: $GPGGA,173819,3946.9399,N,08404.9165,W,1,07,1.40,351.87,M,-33.324,M,,*76
2017-12-14 12:38:18 1513273098.836848: $GPRMC,173819,A,3946.9399,N,08404.9165,W,0.7238,140.710,141217,,*36
2017-12-14 12:38:18 1513273098.836930: $GPGSA,A,3,10,18,21,24,32,15,20,,,,,,6.6,1.4,6.2*39
2017-12-14 12:38:19 1513273099.387456: $GPZDA,173820.00,14,12,2017,00,00*6B
2017-12-14 12:38:19 1513273099.387628: $GPGGA,173820,3946.9399,N,08404.9165,W,1,07,1.40,351.87,M,-33.324,M,,*7C
2017-12-14 12:38:19 1513273099.387695: $GPRMC,173820,A,3946.9399,N,08404.9165,W,0.0000,0.000,141217,,*31
2017-12-14 12:38:19 1513273099.387780: $GPGSA,A,3,10,18,21,24,32,15,20,,,,,,6.6,1.4,6.2*39
2017-12-14 12:38:20 1513273100.388338: $GPZDA,173821.00,14,12,2017,00,00*6A
2017-12-14 12:38:20 1513273100.388534: $GPGGA,173821,3946.9404,N,08404.9172,W,1,07,1.40,352.43,M,-33.324,M,,*73
2017-12-14 12:38:20 1513273100.388601: $GPRMC,173821,A,3946.9404,N,08404.9172,W,0.7246,344.668,141217,,*39
2017-12-14 12:38:20 1513273100.388662: $GPGSA,A,3,10,18,21,24,32,15,20,,,,,,6.6,1.4,6.2*39
2017-12-14 12:38:21 1513273101.723673: $GPGSV,3,1,12,10,48,307,12,18,76,003,17,21,53,183,13,24,53,096,21*7E
2017-12-14 12:38:21 1513273101.723898: $GPGSV,3,2,12,32,28,244,15,15,30,055,14,20,27,102,16,27,17,280,00*7E
2017-12-14 12:38:21 1513273101.724005: $GPGSV,3,3,12,14,10,237,00,08,07,315,00,13,01,051,00,120,07,103,00*41
2017-12-14 12:38:21 1513273101.836927: $GPZDA,173822.00,14,12,2017,00,00*69
2017-12-14 12:38:21 1513273101.837100: $GPGGA,173822,3946.9404,N,08404.9179,W,1,07,1.40,352.35,M,-33.324,M,,*7A
2017-12-14 12:38:21 1513273101.837166: $GPRMC,173822,A,3946.9404,N,08404.9179,W,1.0002,334.332,141217,,*38
2017-12-14 12:38:21 1513273101.837228: $GPGSA,A,3,10,18,21,24,32,15,20,,,,,,6.6,1.4,6.2*39
2017-12-14 12:38:22 1513273102.371960: $GPZDA,173823.00,14,12,2017,00,00*68
2017-12-14 12:38:22 1513273102.372210: $GPGGA,173823,3946.9408,N,08404.9179,W,1,07,1.40,352.99,M,-33.324,M,,*71
2017-12-14 12:38:22 1513273102.372279: $GPRMC,173823,A,3946.9408,N,08404.9179,W,0.6846,4.197,141217,,*37
2017-12-14 12:38:22 1513273102.372340: $GPGSA,A,3,10,18,21,24,32,15,20,,,,,,6.6,1.4,6.2*39
2017-12-14 12:38:23 1513273103.387845: $GPZDA,173824.00,14,12,2017,00,00*6F
2017-12-14 12:38:23 1513273103.388039: $GPGGA,173824,3946.9412,N,08404.9179,W,1,07,1.40,352.23,M,-33.324,M,,*7C
2017-12-14 12:38:23 1513273103.388109: $GPRMC,173824,A,3946.9412,N,08404.9179,W,0.5617,31.296,141217,,*06
2017-12-14 12:38:23 1513273103.388172: $GPGSA,A,3,10,18,21,24,32,15,20,,,,,,6.6,1.4,6.2*39
2017-12-14 12:38:24 1513273104.723269: $GPGSV,3,1,12,10,48,307,11,18,76,003,17,21,53,183,13,24,53,096,21*7D
2017-12-14 12:38:24 1513273104.723446: $GPGSV,3,2,12,32,28,244,15,15,30,055,14,20,27,102,16,27,17,280,00*7E
2017-12-14 12:38:24 1513273104.723515: $GPGSV,3,3,12,14,10,237,00,08,07,315,00,13,01,051,00,120,07,103,00*41
2017-12-14 12:38:24 1513273104.836671: $GPZDA,173825.00,14,12,2017,00,00*6E
2017-12-14 12:38:24 1513273104.836844: $GPGGA,173825,3946.9416,N,08404.9186,W,1,07,1.40,352.79,M,-33.324,M,,*76
2017-12-14 12:38:24 1513273104.836913: $GPRMC,173825,A,3946.9416,N,08404.9186,W,0.7278,23.637,141217,,*00
2017-12-14 12:38:24 1513273104.836975: $GPGSA,A,3,10,18,21,24,32,15,20,,,,,,6.6,1.4,6.2*39
2017-12-14 12:38:25 1513273105.387766: $GPZDA,173826.00,14,12,2017,00,00*6D
2017-12-14 12:38:25 1513273105.387949: $GPGGA,173826,3946.9420,N,08404.9185,W,1,07,1.40,352.02,M,-33.324,M,,*7F
2017-12-14 12:38:25 1513273105.388018: $GPRMC,173826,A,3946.9420,N,08404.9185,W,0.8414,39.347,141217,,*0F
2017-12-14 12:38:25 1513273105.388082: $GPGSA,A,3,10,18,21,24,32,15,20,,,,,,6.6,1.4,6.2*39
2017-12-14 12:38:26 1513273106.370565: $GPZDA,173827.00,14,12,2017,00,00*6C
2017-12-14 12:38:26 1513273106.370737: $GPGGA,173827,3946.9424,N,08404.9185,W,1,07,1.40,352.66,M,-33.324,M,,*78
2017-12-14 12:38:26 1513273106.370805: $GPRMC,173827,A,3946.9424,N,08404.9185,W,0.8054,68.645,141217,,*09
2017-12-14 12:38:26 1513273106.370868: $GPGSA,A,3,10,18,21,24,32,15,20,,,,,,6.6,1.4,6.2*39
2017-12-14 12:38:27 1513273107.706051: $GPGSV,3,1,12,10,48,307,13,18,76,003,17,27,17,280,00,24,53,096,22*78
2017-12-14 12:38:27 1513273107.706232: $GPGSV,3,2,12,32,28,244,15,15,30,055,13,20,27,102,16,14,10,237,00*72
2017-12-14 12:38:27 1513273107.706301: $GPGSV,3,3,12,08,07,315,00,21,53,183,00,13,01,051,00,120,07,103,00*4C
2017-12-14 12:38:27 1513273107.819462: $GPZDA,173828.00,14,12,2017,00,00*63
2017-12-14 12:38:27 1513273107.819633: $GPGGA,173828,3946.9424,N,08404.9185,W,1,06,1.40,352.66,M,-33.324,M,,*76
2017-12-14 12:38:27 1513273107.819700: $GPRMC,173828,A,3946.9424,N,08404.9185,W,0.2422,93.795,141217,,*01
2017-12-14 12:38:27 1513273107.819764: $GPGSA,A,3,10,18,24,32,15,20,,,,,,,6.6,1.4,6.2*3A
2017-12-14 12:38:28 1513273108.370345: $GPZDA,173829.00,14,12,2017,00,00*62
2017-12-14 12:38:28 1513273108.370515: $GPGGA,173829,3946.9424,N,08404.9185,W,1,06,1.40,352.66,M,-33.324,M,,*77
2017-12-14 12:38:28 1513273108.370583: $GPRMC,173829,A,3946.9424,N,08404.9185,W,0.4207,39.347,141217,,*0C
2017-12-14 12:38:28 1513273108.370646: $GPGSA,A,3,10,18,24,32,15,20,,,,,,,6.6,1.4,6.2*3A
2017-12-14 12:38:29 1513273109.370367: $GPZDA,173830.00,14,12,2017,00,00*6A
2017-12-14 12:38:29 1513273109.370530: $GPGGA,173830,3946.9428,N,08404.9191,W,1,06,1.40,351.82,M,-33.324,M,,*7F
2017-12-14 12:38:29 1513273109.370646: $GPRMC,173830,A,3946.9428,N,08404.9191,W,0.6846,4.197,141217,,*31
2017-12-14 12:38:29 1513273109.370727: $GPGSA,A,3,10,18,24,32,15,20,,,,,,,6.6,1.4,6.2*3A
2017-12-14 12:38:30 1513273110.707257: $GPGSV,3,1,12,10,48,307,12,18,76,003,17,27,17,280,00,24,53,096,22*79
2017-12-14 12:38:30 1513273110.707497: $GPGSV,3,2,12,32,28,244,15,15,30,055,12,20,27,102,15,14,10,237,00*70
2017-12-14 12:38:30 1513273110.707568: $GPGSV,3,3,12,08,07,315,00,21,53,183,00,13,01,051,00,120,07,103,00*4C
2017-12-14 12:38:30 1513273110.820632: $GPZDA,173831.00,14,12,2017,00,00*6B
2017-12-14 12:38:30 1513273110.820813: $GPGGA,173831,3946.9435,N,08404.9190,W,1,06,1.40,351.69,M,-33.324,M,,*76
2017-12-14 12:38:30 1513273110.820878: $GPRMC,173831,A,3946.9435,N,08404.9190,W,0.8359,328.779,141217,,*3D
2017-12-14 12:38:30 1513273110.820939: $GPGSA,A,3,10,18,24,32,15,20,,,,,,,6.6,1.4,6.2*3A
2017-12-14 12:38:31 1513273111.445914: $GPZDA,173832.00,14,12,2017,00,00*68
2017-12-14 12:38:31 1513273111.446073: $GPGGA,173832,3946.9440,N,08404.9197,W,1,06,1.40,352.25,M,-33.324,M,,*7B
2017-12-14 12:38:31 1513273111.446138: $GPRMC,173832,A,3946.9440,N,08404.9197,W,1.3082,341.818,141217,,*33
2017-12-14 12:38:31 1513273111.446198: $GPGSA,A,3,10,18,24,32,15,20,,,,,,,6.6,1.4,6.2*3A
2017-12-14 12:38:32 1513273112.370705: $GPZDA,173833.00,14,12,2017,00,00*69
2017-12-14 12:38:32 1513273112.370881: $GPGGA,173833,3946.9443,N,08404.9197,W,1,06,1.40,351.49,M,-33.324,M,,*70
2017-12-14 12:38:32 1513273112.370948: $GPRMC,173833,A,3946.9443,N,08404.9197,W,1.1323,338.869,141217,,*33
2017-12-14 12:38:32 1513273112.371008: $GPGSA,A,3,10,18,24,32,15,20,,,,,,,6.6,1.4,6.2*3A
2017-12-14 12:38:33 1513273113.707318: $GPGSV,3,1,12,10,48,307,16,18,76,003,17,27,17,280,00,24,53,096,22*7D
2017-12-14 12:38:33 1513273113.707495: $GPGSV,3,2,12,32,28,244,16,15,30,055,11,20,27,102,15,14,10,237,00*70
2017-12-14 12:38:33 1513273113.707561: $GPGSV,3,3,12,08,07,315,00,21,53,183,00,13,01,051,00,120,07,103,00*4C
2017-12-14 12:38:33 1513273113.819721: $GPZDA,173834.00,14,12,2017,00,00*6E
2017-12-14 12:38:33 1513273113.819872: $GPGGA,173834,3946.9451,N,08404.9203,W,1,06,1.40,351.29,M,-33.324,M,,*7C
2017-12-14 12:38:33 1513273113.819937: $GPRMC,173834,A,3946.9451,N,08404.9203,W,1.1391,323.662,141217,,*3F
2017-12-14 12:38:33 1513273113.819997: $GPGSA,A,3,10,18,24,32,15,20,,,,,,,6.6,1.4,6.2*3A
