2017-11-16 17:13:44 1510870424.570529: {"class":"VERSION","release":"3.17","rev":"3.17","proto_major":3,"proto_minor":12}
2017-11-16 17:13:44 1510870424.571201: {"class":"DEVICES","devices":[{"class":"DEVICE","path":"/dev/ttyUSB0","driver":"SiRF","subtype":"9\u0006GSD4e_4.1.2-P1_RPATCH.05-F-GPS-4R-1510281 11/03/2015 307","activated":"2017-11-16T22:13:44.542Z","flags":1,"native":1,"bps":4800,"parity":"N","stopbits":1,"cycle":1.00}]}
2017-11-16 17:13:44 1510870424.571331: {"class":"WATCH","enable":true,"json":false,"nmea":true,"raw":0,"scaled":false,"timing":false,"split24":false,"pps":false}
2017-11-16 17:13:45 1510870425.736548: $GPGSV,3,1,12,01,19,309,38,10,57,142,47,22,12,312,32,12,24,058,49*70
2017-11-16 17:13:45 1510870425.736751: $GPGSV,3,2,12,14,62,310,47,18,26,141,46,24,04,046,00,11,10,289,30*71
2017-11-16 17:13:45 1510870425.736821: $GPGSV,3,3,12,25,36,102,48,31,46,219,49,32,70,001,48,138,38,213,44*4A
2017-11-16 17:13:45 1510870425.850091: $GPZDA,221344.00,16,11,2017,00,00*67
2017-11-16 17:13:45 1510870425.850272: $GPGGA,221344,3946.9568,N,08404.9826,W,2,11,0.80,312.81,M,-33.324,M,,*7F
2017-11-16 17:13:45 1510870425.850363: $GPRMC,221344,A,3946.9568,N,08404.9826,W,0.0000,0.000,161117,,*3B
2017-11-16 17:13:45 1510870425.850421: $GPGSA,A,3,1,10,22,12,14,18,11,25,31,32,138,,1.6,0.8,1.3*3E
2017-11-16 17:13:46 1510870426.475466: $GPZDA,221345.00,16,11,2017,00,00*66
2017-11-16 17:13:46 1510870426.475628: $GPGGA,221345,3946.9568,N,08404.9826,W,2,11,0.80,312.81,M,-33.324,M,,*7E
2017-11-16 17:13:46 1510870426.475691: $GPRMC,221345,A,3946.9568,N,08404.9826,W,0.0000,0.000,161117,,*3A
2017-11-16 17:13:46 1510870426.475764: $GPGSA,A,3,1,10,22,12,14,18,11,25,31,32,138,,1.6,0.8,1.3*3E
2017-11-16 17:13:47 1510870427.401165: $GPZDA,221346.00,16,11,2017,00,00*65
2017-11-16 17:13:47 1510870427.401336: $GPGGA,221346,3946.9568,N,08404.9826,W,2,11,0.80,312.81,M,-33.324,M,,*7D
2017-11-16 17:13:47 1510870427.401398: $GPRMC,221346,A,3946.9568,N,08404.9826,W,0.0000,0.000,161117,,*39
2017-11-16 17:13:47 1510870427.401456: $GPGSA,A,3,1,10,22,12,14,18,11,25,31,32,138,,1.6,0.8,1.3*3E
2017-11-16 17:13:48 1510870428.738654: $GPGSV,3,1,12,01,19,309,37,10,57,142,47,22,12,312,34,12,24,058,49*79
2017-11-16 17:13:48 1510870428.738839: $GPGSV,3,2,12,14,62,310,47,18,26,141,45,24,04,046,00,11,10,289,30*72
2017-11-16 17:13:48 1510870428.738904: $GPGSV,3,3,12,25,36,102,48,31,46,219,49,32,70,001,48,138,38,213,44*4A
2017-11-16 17:13:48 1510870428.851308: $GPZDA,221347.00,16,11,2017,00,00*64
2017-11-16 17:13:48 1510870428.851478: $GPGGA,221347,3946.9568,N,08404.9826,W,2,11,0.80,312.81,M,-33.324,M,,*7C
2017-11-16 17:13:48 1510870428.851560: $GPRMC,221347,A,3946.9568,N,08404.9826,W,0.0000,0.000,161117,,*38
2017-11-16 17:13:48 1510870428.851620: $GPGSA,A,3,1,10,22,12,14,18,11,25,31,32,138,,1.6,0.8,1.3*3E
2017-11-16 17:13:49 1510870429.401294: $GPZDA,221348.00,16,11,2017,00,00*6B
2017-11-16 17:13:49 1510870429.401454: $GPGGA,221348,3946.9568,N,08404.9826,W,2,11,0.80,312.81,M,-33.324,M,,*73
2017-11-16 17:13:49 1510870429.401531: $GPRMC,221348,A,3946.9568,N,08404.9826,W,0.0000,0.000,161117,,*37
2017-11-16 17:13:49 1510870429.401590: $GPGSA,A,3,1,10,22,12,14,18,11,25,31,32,138,,1.6,0.8,1.3*3E
2017-11-16 17:13:50 1510870430.394684: $GPZDA,221349.00,16,11,2017,00,00*6A
2017-11-16 17:13:50 1510870430.394840: $GPGGA,221349,3946.9568,N,08404.9826,W,2,11,0.80,312.81,M,-33.324,M,,*72
2017-11-16 17:13:50 1510870430.394920: $GPRMC,221349,A,3946.9568,N,08404.9826,W,0.0000,0.000,161117,,*36
2017-11-16 17:13:50 1510870430.394976: $GPGSA,A,3,1,10,22,12,14,18,11,25,31,32,138,,1.6,0.8,1.3*3E
2017-11-16 17:13:51 1510870431.736182: $GPGSV,3,1,12,01,19,309,37,10,57,142,47,22,12,312,35,12,24,058,50*70
2017-11-16 17:13:51 1510870431.736360: $GPGSV,3,2,12,14,62,310,47,18,26,141,45,24,04,046,00,11,10,289,31*73
2017-11-16 17:13:51 1510870431.736424: $GPGSV,3,3,12,25,36,102,47,31,46,219,49,32,70,001,49,138,38,213,43*43
2017-11-16 17:13:51 1510870431.849564: $GPZDA,221350.00,16,11,2017,00,00*62
2017-11-16 17:13:51 1510870431.849722: $GPGGA,221350,3946.9568,N,08404.9826,W,2,11,0.80,312.81,M,-33.324,M,,*7A
2017-11-16 17:13:51 1510870431.849838: $GPRMC,221350,A,3946.9568,N,08404.9826,W,0.0000,0.000,161117,,*3E
2017-11-16 17:13:51 1510870431.849895: $GPGSA,A,3,1,10,22,12,14,18,11,25,31,32,138,,1.6,0.8,1.3*3E
2017-11-16 17:13:52 1510870432.400547: $GPZDA,221351.00,16,11,2017,00,00*63
2017-11-16 17:13:52 1510870432.400721: $GPGGA,221351,3946.9568,N,08404.9826,W,2,11,0.80,312.81,M,-33.324,M,,*7B
2017-11-16 17:13:52 1510870432.400785: $GPRMC,221351,A,3946.9568,N,08404.9826,W,0.0000,0.000,161117,,*3F
2017-11-16 17:13:52 1510870432.400845: $GPGSA,A,3,1,10,22,12,14,18,11,25,31,32,138,,1.6,0.8,1.3*3E
2017-11-16 17:13:53 1510870433.401300: $GPZDA,221352.00,16,11,2017,00,00*60
2017-11-16 17:13:53 1510870433.401460: $GPGGA,221352,3946.9568,N,08404.9826,W,2,11,0.80,312.81,M,-33.324,M,,*78
2017-11-16 17:13:53 1510870433.401521: $GPRMC,221352,A,3946.9568,N,08404.9826,W,0.0000,0.000,161117,,*3C
2017-11-16 17:13:53 1510870433.401578: $GPGSA,A,3,1,10,22,12,14,18,11,25,31,32,138,,1.6,0.8,1.3*3E
