2017-11-16 14:59:58 1510862398.460087: {"class":"VERSION","release":"3.17","rev":"3.17","proto_major":3,"proto_minor":12}
2017-11-16 14:59:58 1510862398.460588: {"class":"DEVICES","devices":[{"class":"DEVICE","path":"/dev/ttyUSB0","driver":"SiRF","subtype":"9\u0006GSD4e_4.1.2-P1_RPATCH.05-F-GPS-4R-1510281 11/03/2015 307","activated":"2017-11-16T19:59:58.383Z","flags":1,"native":1,"bps":4800,"parity":"N","stopbits":1,"cycle":1.00}]}
2017-11-16 14:59:58 1510862398.460705: {"class":"WATCH","enable":true,"json":false,"nmea":true,"raw":0,"scaled":false,"timing":false,"split24":false,"pps":false}
2017-11-16 14:59:58 1510862398.500598: $GPZDA,195957.00,16,11,2017,00,00*63
2017-11-16 14:59:58 1510862398.500852: $GPGGA,195957,3946.9575,N,08404.9848,W,2,11,0.80,301.77,M,-33.324,M,,*74
2017-11-16 14:59:58 1510862398.500922: $GPRMC,195957,A,3946.9575,N,08404.9848,W,0.0000,0.000,161117,,*3B
2017-11-16 14:59:58 1510862398.500981: $GPGSA,A,3,8,10,15,18,21,20,24,27,32,14,138,,1.6,0.8,1.3*37
2017-11-16 14:59:59 1510862399.496316: $GPZDA,195958.00,16,11,2017,00,00*6C
2017-11-16 14:59:59 1510862399.496480: $GPGGA,195958,3946.9575,N,08404.9848,W,2,11,0.80,301.77,M,-33.324,M,,*7B
2017-11-16 14:59:59 1510862399.496541: $GPRMC,195958,A,3946.9575,N,08404.9848,W,0.0000,0.000,161117,,*34
2017-11-16 14:59:59 1510862399.496617: $GPGSA,A,3,8,10,15,18,21,20,24,27,32,14,138,,1.6,0.8,1.3*37
2017-11-16 15:00:00 1510862400.833083: $GPGSV,3,1,12,08,08,303,34,10,59,318,50,12,02,115,00,15,20,061,46*7A
2017-11-16 15:00:00 1510862400.833252: $GPGSV,3,2,12,18,77,057,46,21,41,181,45,20,17,111,43,24,51,073,49*74
2017-11-16 15:00:00 1510862400.833333: $GPGSV,3,3,12,27,12,268,42,32,37,255,45,14,21,244,43,138,38,213,45*43
2017-11-16 15:00:00 1510862400.946759: $GPZDA,195959.00,16,11,2017,00,00*6D
2017-11-16 15:00:00 1510862400.946928: $GPGGA,195959,3946.9575,N,08404.9848,W,2,11,0.80,301.77,M,-33.324,M,,*7A
2017-11-16 15:00:00 1510862400.947011: $GPRMC,195959,A,3946.9575,N,08404.9848,W,0.0000,0.000,161117,,*35
2017-11-16 15:00:00 1510862400.947069: $GPGSA,A,3,8,10,15,18,21,20,24,27,32,14,138,,1.6,0.8,1.3*37
2017-11-16 15:00:01 1510862401.496357: $GPZDA,200000.00,16,11,2017,00,00*67
2017-11-16 15:00:01 1510862401.496517: $GPGGA,200000,3946.9575,N,08404.9848,W,2,11,0.80,301.77,M,-33.324,M,,*70
2017-11-16 15:00:01 1510862401.496597: $GPRMC,200000,A,3946.9575,N,08404.9848,W,0.0000,0.000,161117,,*3F
2017-11-16 15:00:01 1510862401.496655: $GPGSA,A,3,8,10,15,18,21,20,24,27,32,14,138,,1.6,0.8,1.3*37
2017-11-16 15:00:02 1510862402.496838: $GPZDA,200001.00,16,11,2017,00,00*66
2017-11-16 15:00:02 1510862402.497067: $GPGGA,200001,3946.9575,N,08404.9848,W,2,11,0.80,301.77,M,-33.324,M,,*71
2017-11-16 15:00:02 1510862402.497133: $GPRMC,200001,A,3946.9575,N,08404.9848,W,0.0000,0.000,161117,,*3E
2017-11-16 15:00:02 1510862402.497189: $GPGSA,A,3,8,10,15,18,21,20,24,27,32,14,138,,1.6,0.8,1.3*37
2017-11-16 15:00:03 1510862403.831513: $GPGSV,3,1,12,08,08,303,36,10,59,318,50,12,02,115,00,15,20,061,46*78
2017-11-16 15:00:03 1510862403.831700: $GPGSV,3,2,12,18,77,057,46,21,41,181,45,20,17,111,43,24,51,073,49*74
2017-11-16 15:00:03 1510862403.831765: $GPGSV,3,3,12,27,12,268,42,32,37,255,44,14,21,244,43,138,38,213,44*43
2017-11-16 15:00:03 1510862403.944769: $GPZDA,200002.00,16,11,2017,00,00*65
2017-11-16 15:00:03 1510862403.944935: $GPGGA,200002,3946.9575,N,08404.9848,W,2,11,0.80,301.77,M,-33.324,M,,*72
2017-11-16 15:00:03 1510862403.945003: $GPRMC,200002,A,3946.9575,N,08404.9848,W,0.0000,0.000,161117,,*3D
2017-11-16 15:00:03 1510862403.945063: $GPGSA,A,3,8,10,15,18,21,20,24,27,32,14,138,,1.6,0.8,1.3*37
2017-11-16 15:00:04 1510862404.570165: $GPZDA,200003.00,16,11,2017,00,00*64
2017-11-16 15:00:04 1510862404.570402: $GPGGA,200003,3946.9575,N,08404.9848,W,2,11,0.80,301.77,M,-33.324,M,,*73
2017-11-16 15:00:04 1510862404.570475: $GPRMC,200003,A,3946.9575,N,08404.9848,W,0.0000,0.000,161117,,*3C
2017-11-16 15:00:04 1510862404.570537: $GPGSA,A,3,8,10,15,18,21,20,24,27,32,14,138,,1.6,0.8,1.3*37
2017-11-16 15:00:05 1510862405.496017: $GPZDA,200004.00,16,11,2017,00,00*63
2017-11-16 15:00:05 1510862405.496261: $GPGGA,200004,3946.9575,N,08404.9848,W,2,11,0.80,301.77,M,-33.324,M,,*74
2017-11-16 15:00:05 1510862405.496326: $GPRMC,200004,A,3946.9575,N,08404.9848,W,0.0000,0.000,161117,,*3B
2017-11-16 15:00:05 1510862405.496384: $GPGSA,A,3,8,10,15,18,21,20,24,27,32,14,138,,1.6,0.8,1.3*37
2017-11-16 15:00:06 1510862406.834405: $GPGSV,3,1,12,08,08,303,37,10,59,318,51,12,02,115,00,15,20,061,46*78
2017-11-16 15:00:06 1510862406.834587: $GPGSV,3,2,12,18,77,057,46,21,41,181,45,20,17,111,43,24,51,073,48*75
2017-11-16 15:00:06 1510862406.834650: $GPGSV,3,3,12,27,12,268,41,32,37,255,44,14,21,244,43,138,38,213,44*40
2017-11-16 15:00:06 1510862406.948150: $GPZDA,200005.00,16,11,2017,00,00*62
2017-11-16 15:00:06 1510862406.948317: $GPGGA,200005,3946.9575,N,08404.9848,W,2,11,0.80,301.77,M,-33.324,M,,*75
2017-11-16 15:00:06 1510862406.948378: $GPRMC,200005,A,3946.9575,N,08404.9848,W,0.0000,0.000,161117,,*3A
2017-11-16 15:00:06 1510862406.948434: $GPGSA,A,3,8,10,15,18,21,20,24,27,32,14,138,,1.6,0.8,1.3*37
2017-11-16 15:00:07 1510862407.492734: $GPZDA,200006.00,16,11,2017,00,00*61
2017-11-16 15:00:07 1510862407.492938: $GPGGA,200006,3946.9575,N,08404.9848,W,2,11,0.80,301.77,M,-33.324,M,,*76
2017-11-16 15:00:07 1510862407.493022: $GPRMC,200006,A,3946.9575,N,08404.9848,W,0.0000,0.000,161117,,*39
2017-11-16 15:00:07 1510862407.493100: $GPGSA,A,3,8,10,15,18,21,20,24,27,32,14,138,,1.6,0.8,1.3*37
