2017-12-01 14:28:26 1512156506.394468: {"class":"VERSION","release":"3.16","rev":"3.16-4","proto_major":3,"proto_minor":11}
2017-12-01 14:28:26 1512156506.395150: {"class":"DEVICES","devices":[{"class":"DEVICE","path":"/dev/ttyUSB0","driver":"SiRF","subtype":"9\u0006GSD4e_4.1.2-P1_RPATCH.05-F-GPS-4R-1510281 11/03/2015 307","activated":"2017-12-01T19:28:26.248Z","flags":1,"native":1,"bps":4800,"parity":"N","stopbits":1,"cycle":1.00}]}
2017-12-01 14:28:26 1512156506.395532: {"class":"WATCH","enable":true,"json":false,"nmea":true,"raw":0,"scaled":false,"timing":false,"split24":false,"pps":false}
2017-12-01 14:28:26 1512156506.697097: $GPGSV,3,1,12,10,71,334,48,14,30,255,40,18,69,099,45,21,26,178,45*78
2017-12-01 14:28:26 1512156506.697273: $GPGSV,3,2,12,24,43,057,49,32,48,268,46,08,05,292,23,12,10,105,34*72
2017-12-01 14:28:26 1512156506.697338: $GPGSV,3,3,12,15,10,067,23,27,05,258,24,20,07,120,18,138,38,213,47*4B
2017-12-01 14:28:26 1512156506.810424: $GPZDA,192827.00,01,12,2017,00,00*67
2017-12-01 14:28:26 1512156506.810595: $GPGGA,192827,3946.9571,N,08404.9811,W,2,12,0.80,297.96,M,-33.324,M,,*7F
2017-12-01 14:28:26 1512156506.810660: $GPRMC,192827,A,3946.9571,N,08404.9811,W,0.0000,0.000,011217,,*37
2017-12-01 14:28:26 1512156506.810721: $GPGSA,A,3,10,14,18,21,24,32,8,12,15,27,20,138,2.0,0.8,1.5*37
2017-12-01 14:28:27 1512156507.435851: $GPZDA,192828.00,01,12,2017,00,00*68
2017-12-01 14:28:27 1512156507.436024: $GPGGA,192828,3946.9571,N,08404.9811,W,2,12,0.80,297.96,M,-33.324,M,,*70
2017-12-01 14:28:27 1512156507.436092: $GPRMC,192828,A,3946.9571,N,08404.9811,W,0.0000,0.000,011217,,*38
2017-12-01 14:28:27 1512156507.436153: $GPGSA,A,3,10,14,18,21,24,32,8,12,15,27,20,138,2.0,0.8,1.5*37
2017-12-01 14:28:28 1512156508.362924: $GPZDA,192829.00,01,12,2017,00,00*69
2017-12-01 14:28:28 1512156508.363100: $GPGGA,192829,3946.9571,N,08404.9811,W,2,12,0.80,297.96,M,-33.324,M,,*71
2017-12-01 14:28:28 1512156508.363166: $GPRMC,192829,A,3946.9571,N,08404.9811,W,0.0000,0.000,011217,,*39
2017-12-01 14:28:28 1512156508.363227: $GPGSA,A,3,10,14,18,21,24,32,8,12,15,27,20,138,2.0,0.8,1.5*37
2017-12-01 14:28:29 1512156509.697390: $GPGSV,3,1,12,10,71,334,48,14,30,255,40,18,69,099,45,21,26,178,45*78
2017-12-01 14:28:29 1512156509.697590: $GPGSV,3,2,12,24,43,057,49,32,48,268,46,08,05,292,18,12,10,105,34*7A
2017-12-01 14:28:29 1512156509.697658: $GPGSV,3,3,12,15,10,067,23,27,05,258,25,20,07,120,19,138,38,213,46*4A
2017-12-01 14:28:29 1512156509.810811: $GPZDA,192830.00,01,12,2017,00,00*61
2017-12-01 14:28:29 1512156509.810986: $GPGGA,192830,3946.9571,N,08404.9811,W,2,12,0.80,297.96,M,-33.324,M,,*79
2017-12-01 14:28:29 1512156509.811052: $GPRMC,192830,A,3946.9571,N,08404.9811,W,0.0000,0.000,011217,,*31
2017-12-01 14:28:29 1512156509.811113: $GPGSA,A,3,10,14,18,21,24,32,8,12,15,27,20,138,2.0,0.8,1.5*37
2017-12-01 14:28:30 1512156510.361980: $GPZDA,192831.00,01,12,2017,00,00*60
2017-12-01 14:28:30 1512156510.362172: $GPGGA,192831,3946.9571,N,08404.9811,W,2,12,0.80,297.96,M,-33.324,M,,*78
2017-12-01 14:28:30 1512156510.362245: $GPRMC,192831,A,3946.9571,N,08404.9811,W,0.0000,0.000,011217,,*30
2017-12-01 14:28:30 1512156510.362360: $GPGSA,A,3,10,14,18,21,24,32,8,12,15,27,20,138,2.0,0.8,1.5*37
2017-12-01 14:28:31 1512156511.371277: $GPZDA,192832.00,01,12,2017,00,00*63
2017-12-01 14:28:31 1512156511.371528: $GPGGA,192832,3946.9571,N,08404.9811,W,2,12,0.80,297.96,M,-33.324,M,,*7B
2017-12-01 14:28:31 1512156511.371597: $GPRMC,192832,A,3946.9571,N,08404.9811,W,0.0000,0.000,011217,,*33
2017-12-01 14:28:31 1512156511.371658: $GPGSA,A,3,10,14,18,21,24,32,8,12,15,27,20,138,2.0,0.8,1.5*37
2017-12-01 14:28:32 1512156512.702778: $GPGSV,3,1,12,10,71,334,48,14,30,255,39,18,69,099,45,21,26,178,45*76
2017-12-01 14:28:32 1512156512.702940: $GPGSV,3,2,12,24,43,057,49,32,48,268,46,08,05,292,30,12,10,105,33*77
2017-12-01 14:28:32 1512156512.703005: $GPGSV,3,3,12,15,10,067,26,27,05,258,26,20,07,120,19,138,38,213,47*4D
2017-12-01 14:28:32 1512156512.816164: $GPZDA,192833.00,01,12,2017,00,00*62
2017-12-01 14:28:32 1512156512.816362: $GPGGA,192833,3946.9571,N,08404.9811,W,2,12,0.80,297.96,M,-33.324,M,,*7A
2017-12-01 14:28:32 1512156512.816507: $GPRMC,192833,A,3946.9571,N,08404.9811,W,0.0000,0.000,011217,,*32
2017-12-01 14:28:32 1512156512.816570: $GPGSA,A,3,10,14,18,21,24,32,8,12,15,27,20,138,2.0,0.8,1.5*37
2017-12-01 14:28:33 1512156513.368350: $GPZDA,192834.00,01,12,2017,00,00*65
2017-12-01 14:28:33 1512156513.368550: $GPGGA,192834,3946.9571,N,08404.9811,W,2,12,0.80,297.96,M,-33.324,M,,*7D
2017-12-01 14:28:33 1512156513.368619: $GPRMC,192834,A,3946.9571,N,08404.9811,W,0.0000,0.000,011217,,*35
2017-12-01 14:28:33 1512156513.368681: $GPGSA,A,3,10,14,18,21,24,32,8,12,15,27,20,138,2.0,0.8,1.5*37
2017-12-01 14:28:34 1512156514.365455: $GPZDA,192835.00,01,12,2017,00,00*64
2017-12-01 14:28:34 1512156514.365626: $GPGGA,192835,3946.9568,N,08404.9811,W,2,12,0.80,298.72,M,-33.324,M,,*71
2017-12-01 14:28:34 1512156514.365692: $GPRMC,192835,A,3946.9568,N,08404.9811,W,0.0000,0.000,011217,,*3C
2017-12-01 14:28:34 1512156514.365754: $GPGSA,A,3,10,14,18,21,24,32,8,12,15,27,20,138,2.0,0.8,1.5*37
2017-12-01 14:28:35 1512156515.702390: $GPGSV,3,1,12,10,71,334,48,14,30,255,39,18,69,099,45,21,26,178,45*76
2017-12-01 14:28:35 1512156515.702588: $GPGSV,3,2,12,24,43,057,48,32,48,268,46,08,05,292,30,12,10,105,33*76
2017-12-01 14:28:35 1512156515.702675: $GPGSV,3,3,12,15,10,067,28,27,05,258,26,20,07,120,20,138,38,213,47*49
2017-12-01 14:28:35 1512156515.815834: $GPZDA,192836.00,01,12,2017,00,00*67
2017-12-01 14:28:35 1512156515.815992: $GPGGA,192836,3946.9568,N,08404.9811,W,2,12,0.80,298.72,M,-33.324,M,,*72
2017-12-01 14:28:35 1512156515.816058: $GPRMC,192836,A,3946.9568,N,08404.9811,W,0.0000,0.000,011217,,*3F
2017-12-01 14:28:35 1512156515.816119: $GPGSA,A,3,10,14,18,21,24,32,8,12,15,27,20,138,2.0,0.8,1.5*37
2017-12-01 14:28:36 1512156516.360873: $GPZDA,192837.00,01,12,2017,00,00*66
2017-12-01 14:28:36 1512156516.361047: $GPGGA,192837,3946.9568,N,08404.9811,W,2,12,0.80,298.72,M,-33.324,M,,*73
2017-12-01 14:28:36 1512156516.361114: $GPRMC,192837,A,3946.9568,N,08404.9811,W,0.0000,0.000,011217,,*3E
2017-12-01 14:28:36 1512156516.361176: $GPGSA,A,3,10,14,18,21,24,32,8,12,15,27,20,138,2.0,0.8,1.5*37
2017-12-01 14:28:37 1512156517.367599: $GPZDA,192838.00,01,12,2017,00,00*69
2017-12-01 14:28:37 1512156517.367768: $GPGGA,192838,3946.9568,N,08404.9811,W,2,12,0.80,298.72,M,-33.324,M,,*7C
2017-12-01 14:28:37 1512156517.367834: $GPRMC,192838,A,3946.9568,N,08404.9811,W,0.0000,0.000,011217,,*31
2017-12-01 14:28:37 1512156517.367895: $GPGSA,A,3,10,14,18,21,24,32,8,12,15,27,20,138,2.0,0.8,1.5*37
2017-12-01 14:28:38 1512156518.701733: $GPGSV,3,1,12,10,71,334,48,14,30,255,38,18,69,099,45,21,26,178,45*77
2017-12-01 14:28:38 1512156518.701925: $GPGSV,3,2,12,24,43,057,49,32,48,268,46,08,05,292,28,12,10,105,33*7E
2017-12-01 14:28:38 1512156518.701993: $GPGSV,3,3,12,15,10,067,29,27,05,258,27,20,07,120,21,138,38,213,46*49
2017-12-01 14:28:38 1512156518.815236: $GPZDA,192839.00,01,12,2017,00,00*68
2017-12-01 14:28:38 1512156518.815407: $GPGGA,192839,3946.9568,N,08404.9811,W,2,12,0.80,298.72,M,-33.324,M,,*7D
2017-12-01 14:28:38 1512156518.815474: $GPRMC,192839,A,3946.9568,N,08404.9811,W,0.0000,0.000,011217,,*30
2017-12-01 14:28:38 1512156518.815534: $GPGSA,A,3,10,14,18,21,24,32,8,12,15,27,20,138,2.0,0.8,1.5*37
2017-12-01 14:28:39 1512156519.367044: $GPZDA,192840.00,01,12,2017,00,00*66
2017-12-01 14:28:39 1512156519.367222: $GPGGA,192840,3946.9572,N,08404.9811,W,2,12,0.80,299.36,M,-33.324,M,,*79
2017-12-01 14:28:39 1512156519.367291: $GPRMC,192840,A,3946.9572,N,08404.9811,W,0.0000,0.000,011217,,*35
2017-12-01 14:28:39 1512156519.367355: $GPGSA,A,3,10,14,18,21,24,32,8,12,15,27,20,138,2.0,0.8,1.5*37
2017-12-01 14:28:40 1512156520.366629: $GPZDA,192841.00,01,12,2017,00,00*67
2017-12-01 14:28:40 1512156520.366805: $GPGGA,192841,3946.9572,N,08404.9811,W,2,12,0.80,299.36,M,-33.324,M,,*78
2017-12-01 14:28:40 1512156520.366872: $GPRMC,192841,A,3946.9572,N,08404.9811,W,0.0000,0.000,011217,,*34
2017-12-01 14:28:40 1512156520.366934: $GPGSA,A,3,10,14,18,21,24,32,8,12,15,27,20,138,2.0,0.8,1.5*37
2017-12-01 14:28:41 1512156521.701252: $GPGSV,3,1,12,10,71,334,47,14,30,255,38,18,69,099,45,21,26,178,45*78
2017-12-01 14:28:41 1512156521.701490: $GPGSV,3,2,12,24,43,057,49,32,48,268,46,08,05,292,36,12,10,105,33*71
2017-12-01 14:28:41 1512156521.701560: $GPGSV,3,3,12,15,10,067,29,27,05,258,28,20,07,120,25,138,38,213,47*43
2017-12-01 14:28:41 1512156521.814548: $GPZDA,192842.00,01,12,2017,00,00*64
2017-12-01 14:28:41 1512156521.814692: $GPGGA,192842,3946.9572,N,08404.9811,W,2,12,0.80,299.36,M,-33.324,M,,*7B
2017-12-01 14:28:41 1512156521.814758: $GPRMC,192842,A,3946.9572,N,08404.9811,W,0.0000,0.000,011217,,*37
2017-12-01 14:28:41 1512156521.814819: $GPGSA,A,3,10,14,18,21,24,32,8,12,15,27,20,138,2.0,0.8,1.5*37
2017-12-01 14:28:42 1512156522.439925: $GPZDA,192843.00,01,12,2017,00,00*65
2017-12-01 14:28:42 1512156522.442809: $GPGGA,192843,3946.9572,N,08404.9811,W,2,12,0.80,299.36,M,-33.324,M,,*7A
2017-12-01 14:28:42 1512156522.442927: $GPRMC,192843,A,3946.9572,N,08404.9811,W,0.0000,0.000,011217,,*36
2017-12-01 14:28:42 1512156522.442993: $GPGSA,A,3,10,14,18,21,24,32,8,12,15,27,20,138,2.0,0.8,1.5*37
2017-12-01 14:28:43 1512156523.379615: $GPZDA,192844.00,01,12,2017,00,00*62
2017-12-01 14:28:43 1512156523.379781: $GPGGA,192844,3946.9572,N,08404.9811,W,2,12,0.80,299.36,M,-33.324,M,,*7D
2017-12-01 14:28:43 1512156523.379849: $GPRMC,192844,A,3946.9572,N,08404.9811,W,0.0000,0.000,011217,,*31
2017-12-01 14:28:43 1512156523.379910: $GPGSA,A,3,10,14,18,21,24,32,8,12,15,27,20,138,2.0,0.8,1.5*37
2017-12-01 14:28:44 1512156524.696493: $GPGSV,3,1,12,10,71,334,46,14,30,255,39,18,69,099,45,21,26,178,45*78
2017-12-01 14:28:44 1512156524.696658: $GPGSV,3,2,12,24,43,057,50,32,48,268,46,08,05,292,26,12,10,105,33*78
2017-12-01 14:28:44 1512156524.696723: $GPGSV,3,3,12,15,10,067,29,27,05,258,28,20,07,120,26,138,38,213,48*4F
2017-12-01 14:28:44 1512156524.809898: $GPZDA,192845.00,01,12,2017,00,00*63
2017-12-01 14:28:44 1512156524.810091: $GPGGA,192845,3946.9569,N,08404.9812,W,2,12,0.80,300.13,M,-33.324,M,,*73
2017-12-01 14:28:44 1512156524.810159: $GPRMC,192845,A,3946.9569,N,08404.9812,W,0.0000,0.000,011217,,*39
2017-12-01 14:28:44 1512156524.810220: $GPGSA,A,3,10,14,18,21,24,32,8,12,15,27,20,138,2.0,0.8,1.5*37
2017-12-01 14:28:45 1512156525.365748: $GPZDA,192846.00,01,12,2017,00,00*60
2017-12-01 14:28:45 1512156525.365926: $GPGGA,192846,3946.9569,N,08404.9812,W,2,12,0.80,300.13,M,-33.324,M,,*70
2017-12-01 14:28:45 1512156525.365995: $GPRMC,192846,A,3946.9569,N,08404.9812,W,0.0000,0.000,011217,,*3A
2017-12-01 14:28:45 1512156525.366056: $GPGSA,A,3,10,14,18,21,24,32,8,12,15,27,20,138,2.0,0.8,1.5*37
2017-12-01 14:28:46 1512156526.365806: $GPZDA,192847.00,01,12,2017,00,00*61
2017-12-01 14:28:46 1512156526.365976: $GPGGA,192847,3946.9569,N,08404.9812,W,2,12,0.80,300.13,M,-33.324,M,,*71
2017-12-01 14:28:46 1512156526.366042: $GPRMC,192847,A,3946.9569,N,08404.9812,W,0.0000,0.000,011217,,*3B
2017-12-01 14:28:46 1512156526.366104: $GPGSA,A,3,10,14,18,21,24,32,8,12,15,27,20,138,2.0,0.8,1.5*37
2017-12-01 14:28:47 1512156527.703214: $GPGSV,3,1,12,10,71,334,46,14,30,255,40,18,69,099,45,21,26,178,45*76
2017-12-01 14:28:47 1512156527.703415: $GPGSV,3,2,12,24,43,057,50,32,48,268,45,08,05,292,25,12,10,105,32*79
2017-12-01 14:28:47 1512156527.703506: $GPGSV,3,3,12,15,10,067,30,27,05,258,29,20,07,120,25,138,38,213,46*4B
2017-12-01 14:28:47 1512156527.816869: $GPZDA,192848.00,01,12,2017,00,00*6E
2017-12-01 14:28:47 1512156527.817024: $GPGGA,192848,3946.9569,N,08404.9812,W,2,12,0.80,300.13,M,-33.324,M,,*7E
2017-12-01 14:28:47 1512156527.817090: $GPRMC,192848,A,3946.9569,N,08404.9812,W,0.0000,0.000,011217,,*34
2017-12-01 14:28:47 1512156527.817150: $GPGSA,A,3,10,14,18,21,24,32,8,12,15,27,20,138,2.0,0.8,1.5*37
2017-12-01 14:28:48 1512156528.369003: $GPZDA,192849.00,01,12,2017,00,00*6F
2017-12-01 14:28:48 1512156528.369168: $GPGGA,192849,3946.9569,N,08404.9812,W,2,12,0.80,300.13,M,-33.324,M,,*7F
2017-12-01 14:28:48 1512156528.369234: $GPRMC,192849,A,3946.9569,N,08404.9812,W,0.0000,0.000,011217,,*35
2017-12-01 14:28:48 1512156528.369294: $GPGSA,A,3,10,14,18,21,24,32,8,12,15,27,20,138,2.0,0.8,1.5*37
2017-12-01 14:28:49 1512156529.401077: $GPZDA,192850.00,01,12,2017,00,00*67
2017-12-01 14:28:49 1512156529.401235: $GPGGA,192850,3946.9565,N,08404.9813,W,2,12,0.80,300.89,M,-33.324,M,,*79
2017-12-01 14:28:49 1512156529.401302: $GPRMC,192850,A,3946.9565,N,08404.9813,W,0.0000,0.000,011217,,*30
2017-12-01 14:28:49 1512156529.401421: $GPGSA,A,3,10,14,18,21,24,32,8,12,15,27,20,138,2.0,0.8,1.5*37
2017-12-01 14:28:50 1512156530.726474: $GPGSV,3,1,12,10,71,334,47,14,30,255,40,18,69,099,45,21,26,178,45*77
2017-12-01 14:28:50 1512156530.726639: $GPGSV,3,2,12,24,43,057,50,32,48,268,45,08,05,292,25,12,10,105,32*79
2017-12-01 14:28:50 1512156530.726706: $GPGSV,3,3,12,15,10,067,30,27,05,258,29,20,07,120,25,138,38,213,46*4B
2017-12-01 14:28:50 1512156530.839882: $GPZDA,192851.00,01,12,2017,00,00*66
2017-12-01 14:28:50 1512156530.840052: $GPGGA,192851,3946.9565,N,08404.9813,W,2,12,0.80,300.89,M,-33.324,M,,*78
2017-12-01 14:28:50 1512156530.840118: $GPRMC,192851,A,3946.9565,N,08404.9813,W,0.0000,0.000,011217,,*31
2017-12-01 14:28:50 1512156530.840180: $GPGSA,A,3,10,14,18,21,24,32,8,12,15,27,20,138,2.0,0.8,1.5*37
2017-12-01 14:28:51 1512156531.402312: $GPZDA,192852.00,01,12,2017,00,00*65
2017-12-01 14:28:51 1512156531.402489: $GPGGA,192852,3946.9569,N,08404.9813,W,2,12,0.80,301.53,M,-33.324,M,,*71
2017-12-01 14:28:51 1512156531.402556: $GPRMC,192852,A,3946.9569,N,08404.9813,W,0.0000,0.000,011217,,*3E
2017-12-01 14:28:51 1512156531.402616: $GPGSA,A,3,10,14,18,21,24,32,8,12,15,27,20,138,2.0,0.8,1.5*37
