2017-11-15 18:59:50 1510790390.685365: {"class":"VERSION","release":"3.17","rev":"3.17","proto_major":3,"proto_minor":12}
2017-11-15 18:59:50 1510790390.685939: {"class":"DEVICES","devices":[{"class":"DEVICE","path":"/dev/ttyUSB0","driver":"SiRF","subtype":"9\u0006GSD4e_4.1.2-P1_RPATCH.05-F-GPS-4R-1510281 11/03/2015 307","activated":"2017-11-15T23:59:50.517Z","flags":1,"native":1,"bps":4800,"parity":"N","stopbits":1,"cycle":1.00}]}
2017-11-15 18:59:50 1510790390.686071: {"class":"WATCH","enable":true,"json":false,"nmea":true,"raw":0,"scaled":false,"timing":false,"split24":false,"pps":false}
2017-11-15 18:59:51 1510790391.335892: $GPGSV,3,1,12,16,09,190,15,14,63,070,15,03,31,310,15,32,46,094,25*77
2017-11-15 18:59:51 1510790391.336072: $GPGSV,3,2,12,31,77,349,22,26,38,177,20,22,47,289,20,25,27,046,11*79
2017-11-15 18:59:51 1510790391.336132: $GPGSV,3,3,12,29,05,082,18,10,09,159,00,01,13,262,15,138,38,213,00*42
2017-11-15 18:59:51 1510790391.449333: $GPZDA,235947.00,15,11,2017,00,00*68
2017-11-15 18:59:51 1510790391.449703: $GPGGA,235947,3946.9607,N,08404.9579,W,1,10,2.80,304.04,M,-33.324,M,,*74
2017-11-15 18:59:51 1510790391.449850: $GPRMC,235947,A,3946.9607,N,08404.9579,W,0.9988,104.546,151117,,*3B
2017-11-15 18:59:51 1510790391.449942: $GPGSA,A,3,16,14,3,32,31,26,22,25,29,1,,,3.4,2.8,2.9*3F
2017-11-15 18:59:51 1510790391.900453: $GPZDA,235948.00,15,11,2017,00,00*67
2017-11-15 18:59:51 1510790391.900632: $GPGGA,235948,3946.9607,N,08404.9579,W,1,10,2.80,304.04,M,-33.324,M,,*7B
2017-11-15 18:59:51 1510790391.900711: $GPRMC,235948,A,3946.9607,N,08404.9579,W,0.2422,93.794,151117,,*00
2017-11-15 18:59:51 1510790391.900768: $GPGSA,A,3,16,14,3,32,31,26,22,25,29,1,,,3.4,2.8,2.9*3F
2017-11-15 18:59:52 1510790392.352479: $GPZDA,235949.00,15,11,2017,00,00*66
2017-11-15 18:59:52 1510790392.352689: $GPGGA,235949,3946.9607,N,08404.9579,W,1,10,2.80,304.04,M,-33.324,M,,*7A
2017-11-15 18:59:52 1510790392.352752: $GPRMC,235949,A,3946.9607,N,08404.9579,W,0.2422,93.794,151117,,*01
2017-11-15 18:59:52 1510790392.352808: $GPGSA,A,3,16,14,3,32,31,26,22,25,29,1,,,3.4,2.8,2.9*3F
2017-11-15 18:59:53 1510790393.313910: $GPGSV,3,1,12,16,09,190,15,14,63,070,15,03,31,310,15,32,46,094,25*77
2017-11-15 18:59:53 1510790393.314100: $GPGSV,3,2,12,31,77,349,23,26,38,177,20,22,47,289,21,25,27,046,10*78
2017-11-15 18:59:53 1510790393.314161: $GPGSV,3,3,12,29,05,082,18,10,09,159,00,01,13,262,15,138,38,213,00*42
2017-11-15 18:59:53 1510790393.427652: $GPZDA,235950.00,15,11,2017,00,00*6E
2017-11-15 18:59:53 1510790393.427812: $GPGGA,235950,3946.9607,N,08404.9579,W,1,10,2.80,304.04,M,-33.324,M,,*72
2017-11-15 18:59:53 1510790393.427873: $GPRMC,235950,A,3946.9607,N,08404.9579,W,0.2422,93.794,151117,,*09
2017-11-15 18:59:53 1510790393.427928: $GPGSA,A,3,16,14,3,32,31,26,22,25,29,1,,,3.4,2.8,2.9*3F
2017-11-15 18:59:53 1510790393.878029: $GPZDA,235951.00,15,11,2017,00,00*6F
2017-11-15 18:59:53 1510790393.878155: $GPGGA,235951,3946.9612,N,08404.9579,W,1,10,2.80,304.68,M,-33.324,M,,*7D
2017-11-15 18:59:53 1510790393.878215: $GPRMC,235951,A,3946.9612,N,08404.9579,W,0.0000,0.000,151117,,*3A
2017-11-15 18:59:53 1510790393.878270: $GPGSA,A,3,16,14,3,32,31,26,22,25,29,1,,,3.4,2.8,2.9*3F
2017-11-15 18:59:54 1510790394.330109: $GPZDA,235952.00,15,11,2017,00,00*6C
2017-11-15 18:59:54 1510790394.330287: $GPGGA,235952,3946.9612,N,08404.9579,W,1,10,2.80,304.68,M,-33.324,M,,*7E
2017-11-15 18:59:54 1510790394.330346: $GPRMC,235952,A,3946.9612,N,08404.9579,W,0.4207,39.347,151117,,*02
2017-11-15 18:59:54 1510790394.330402: $GPGSA,A,3,16,14,3,32,31,26,22,25,29,1,,,3.4,2.8,2.9*3F
2017-11-15 18:59:55 1510790395.117150: $GPGSV,3,1,12,16,09,190,15,14,63,070,10,03,31,310,15,32,46,094,24*73
2017-11-15 18:59:55 1510790395.117320: $GPGSV,3,2,12,31,77,349,24,26,38,177,20,22,47,289,21,25,27,046,09*77
2017-11-15 18:59:55 1510790395.117380: $GPGSV,3,3,12,29,05,082,18,10,09,159,00,01,13,262,15,135,23,238,00*4C
2017-11-15 18:59:55 1510790395.230434: $GPZDA,235953.00,15,11,2017,00,00*6D
2017-11-15 18:59:55 1510790395.230611: $GPGGA,235953,3946.9612,N,08404.9579,W,1,10,2.80,304.68,M,-33.324,M,,*7F
2017-11-15 18:59:55 1510790395.230739: $GPRMC,235953,A,3946.9612,N,08404.9579,W,0.0000,0.000,151117,,*38
2017-11-15 18:59:55 1510790395.230797: $GPGSA,A,3,16,14,3,32,31,26,22,25,29,1,,,3.4,2.8,2.9*3F
2017-11-15 18:59:55 1510790395.681331: $GPZDA,235954.00,15,11,2017,00,00*6A
2017-11-15 18:59:55 1510790395.681508: $GPGGA,235954,3946.9611,N,08404.9572,W,1,10,2.80,304.76,M,-33.324,M,,*7F
2017-11-15 18:59:55 1510790395.681571: $GPRMC,235954,A,3946.9611,N,08404.9572,W,0.8414,39.347,151117,,*04
2017-11-15 18:59:55 1510790395.681643: $GPGSA,A,3,16,14,3,32,31,26,22,25,29,1,,,3.4,2.8,2.9*3F
2017-11-15 18:59:56 1510790396.328064: $GPZDA,235955.00,15,11,2017,00,00*6B
2017-11-15 18:59:56 1510790396.333242: $GPGGA,235955,3946.9616,N,08404.9579,W,1,10,2.80,305.32,M,-33.324,M,,*73
2017-11-15 18:59:56 1510790396.333376: $GPRMC,235955,A,3946.9616,N,08404.9579,W,0.7246,344.668,151117,,*36
2017-11-15 18:59:56 1510790396.333454: $GPGSA,A,3,16,14,3,32,31,26,22,25,29,1,,,3.4,2.8,2.9*3F
2017-11-15 18:59:57 1510790397.662526: $GPGSV,3,1,12,16,09,190,15,14,63,070,11,03,31,310,15,32,46,094,24*72
2017-11-15 18:59:57 1510790397.662729: $GPGSV,3,2,12,31,77,349,24,26,38,177,20,22,47,289,22,25,27,046,09*74
2017-11-15 18:59:57 1510790397.662795: $GPGSV,3,3,12,29,05,082,18,10,09,159,00,01,13,262,14,135,23,238,00*4D
2017-11-15 18:59:57 1510790397.776101: $GPZDA,235956.00,15,11,2017,00,00*68
2017-11-15 18:59:57 1510790397.776277: $GPGGA,235956,3946.9619,N,08404.9578,W,1,10,2.80,304.55,M,-33.324,M,,*7E
2017-11-15 18:59:57 1510790397.776344: $GPRMC,235956,A,3946.9619,N,08404.9578,W,0.4179,328.778,151117,,*3D
2017-11-15 18:59:57 1510790397.776402: $GPGSA,A,3,16,14,3,32,31,26,22,25,29,1,,,3.4,2.8,2.9*3F
2017-11-15 18:59:58 1510790398.326895: $GPZDA,235957.00,15,11,2017,00,00*69
2017-11-15 18:59:58 1510790398.327074: $GPGGA,235957,3946.9623,N,08404.9578,W,1,10,2.80,305.19,M,-33.324,M,,*7F
2017-11-15 18:59:58 1510790398.327139: $GPRMC,235957,A,3946.9623,N,08404.9578,W,0.4179,328.778,151117,,*35
2017-11-15 18:59:58 1510790398.327197: $GPGSA,A,3,16,14,3,32,31,26,22,25,29,1,,,3.4,2.8,2.9*3F
2017-11-15 18:59:59 1510790399.327685: $GPZDA,235958.00,15,11,2017,00,00*66
2017-11-15 18:59:59 1510790399.327858: $GPGGA,235958,3946.9623,N,08404.9578,W,1,10,9.60,305.19,M,-33.324,M,,*75
2017-11-15 18:59:59 1510790399.327922: $GPRMC,235958,A,3946.9623,N,08404.9578,W,0.4179,328.778,151117,,*3A
2017-11-15 18:59:59 1510790399.327981: $GPGSA,A,3,16,14,3,32,31,26,22,25,29,1,,,3.4,9.6,2.9*3A
2017-11-15 19:00:00 1510790400.663365: $GPGSV,3,1,12,16,09,190,15,14,63,070,10,03,31,310,15,32,46,094,23*74
2017-11-15 19:00:00 1510790400.663535: $GPGSV,3,2,12,31,77,349,24,26,38,177,20,22,47,289,22,25,27,046,07*7A
2017-11-15 19:00:00 1510790400.663599: $GPGSV,3,3,12,29,05,082,18,10,09,159,00,01,13,262,14,135,23,238,00*4D
