2017-12-01 17:48:43 1512168523.296994: {"class":"VERSION","release":"3.16","rev":"3.16-4","proto_major":3,"proto_minor":11}
2017-12-01 17:48:43 1512168523.297459: {"class":"DEVICES","devices":[{"class":"DEVICE","path":"/dev/ttyUSB0","driver":"SiRF","subtype":"9\u0006GSD4e_4.1.2-P1_RPATCH.05-F-GPS-4R-1510281 11/03/2015 307","activated":"2017-12-01T22:48:43.287Z","flags":1,"native":1,"bps":4800,"parity":"N","stopbits":1,"cycle":1.00}]}
2017-12-01 17:48:43 1512168523.297593: {"class":"WATCH","enable":true,"json":false,"nmea":true,"raw":0,"scaled":false,"timing":false,"split24":false,"pps":false}
2017-12-01 17:48:43 1512168523.400902: $GPZDA,224844.00,01,12,2017,00,00*6C
2017-12-01 17:48:43 1512168523.401115: $GPGGA,224844,3946.9739,N,08404.9852,W,2,11,0.80,296.75,M,-33.325,M,,*73
2017-12-01 17:48:43 1512168523.401183: $GPRMC,224844,A,3946.9739,N,08404.9852,W,0.0000,0.000,011217,,*35
2017-12-01 17:48:43 1512168523.401262: $GPGSA,A,3,1,3,10,14,29,22,16,25,26,31,138,,2.0,0.8,1.5*0D
2017-12-01 17:48:44 1512168524.726624: $GPGSV,3,1,12,01,14,265,42,03,29,312,47,10,12,157,42,14,65,064,41*76
2017-12-01 17:48:44 1512168524.726807: $GPGSV,3,2,12,29,04,085,24,22,45,292,46,16,08,189,34,25,30,048,41*70
2017-12-01 17:48:44 1512168524.726874: $GPGSV,3,3,12,26,36,175,45,32,48,091,00,31,78,342,46,138,38,213,45*46
2017-12-01 17:48:44 1512168524.840024: $GPZDA,224845.00,01,12,2017,00,00*6D
2017-12-01 17:48:44 1512168524.840235: $GPGGA,224845,3946.9739,N,08404.9852,W,2,11,0.80,296.75,M,-33.325,M,,*72
2017-12-01 17:48:44 1512168524.840302: $GPRMC,224845,A,3946.9739,N,08404.9852,W,0.0000,0.000,011217,,*34
2017-12-01 17:48:44 1512168524.840363: $GPGSA,A,3,1,3,10,14,29,22,16,25,26,31,138,,2.0,0.8,1.5*0D
2017-12-01 17:48:45 1512168525.398391: $GPZDA,224846.00,01,12,2017,00,00*6E
2017-12-01 17:48:45 1512168525.398572: $GPGGA,224846,3946.9739,N,08404.9852,W,2,11,0.80,296.75,M,-33.325,M,,*71
2017-12-01 17:48:45 1512168525.398639: $GPRMC,224846,A,3946.9739,N,08404.9852,W,0.0000,0.000,011217,,*37
2017-12-01 17:48:45 1512168525.398700: $GPGSA,A,3,1,3,10,14,29,22,16,25,26,31,138,,2.0,0.8,1.5*0D
2017-12-01 17:48:46 1512168526.399421: $GPZDA,224847.00,01,12,2017,00,00*6F
2017-12-01 17:48:46 1512168526.399591: $GPGGA,224847,3946.9739,N,08404.9852,W,2,11,0.80,296.75,M,-33.325,M,,*70
2017-12-01 17:48:46 1512168526.399659: $GPRMC,224847,A,3946.9739,N,08404.9852,W,0.0000,0.000,011217,,*36
2017-12-01 17:48:46 1512168526.399721: $GPGSA,A,3,1,3,10,14,29,22,16,25,26,31,138,,2.0,0.8,1.5*0D
2017-12-01 17:48:47 1512168527.745108: $GPGSV,3,1,12,01,14,265,42,03,29,312,47,10,12,157,42,14,65,064,41*76
2017-12-01 17:48:47 1512168527.745458: $GPGSV,3,2,12,29,04,085,01,22,45,292,46,16,08,189,34,25,30,048,41*77
2017-12-01 17:48:47 1512168527.745583: $GPGSV,3,3,12,26,36,175,44,32,48,091,00,31,78,342,46,138,38,213,45*47
2017-12-01 17:48:47 1512168527.858597: $GPZDA,224848.00,01,12,2017,00,00*60
2017-12-01 17:48:47 1512168527.858766: $GPGGA,224848,3946.9739,N,08404.9852,W,2,10,0.80,296.75,M,-33.325,M,,*7E
2017-12-01 17:48:47 1512168527.858832: $GPRMC,224848,A,3946.9739,N,08404.9852,W,0.0000,0.000,011217,,*39
2017-12-01 17:48:47 1512168527.858892: $GPGSA,A,3,1,3,10,14,22,16,25,26,31,138,,,2.0,0.8,1.5*06
2017-12-01 17:48:48 1512168528.483716: $GPZDA,224849.00,01,12,2017,00,00*61
2017-12-01 17:48:48 1512168528.483892: $GPGGA,224849,3946.9739,N,08404.9852,W,2,10,0.80,296.75,M,-33.325,M,,*7F
2017-12-01 17:48:48 1512168528.483961: $GPRMC,224849,A,3946.9739,N,08404.9852,W,0.0000,0.000,011217,,*38
2017-12-01 17:48:48 1512168528.484049: $GPGSA,A,3,1,3,10,14,22,16,25,26,31,138,,,2.0,0.8,1.5*06
2017-12-01 17:48:49 1512168529.400813: $GPZDA,224850.00,01,12,2017,00,00*69
2017-12-01 17:48:49 1512168529.401032: $GPGGA,224850,3946.9731,N,08404.9846,W,2,10,0.80,298.36,M,-33.325,M,,*73
2017-12-01 17:48:49 1512168529.401103: $GPRMC,224850,A,3946.9731,N,08404.9846,W,0.0000,0.000,011217,,*3D
2017-12-01 17:48:49 1512168529.401185: $GPGSA,A,3,1,3,10,14,22,16,25,26,31,138,,,2.0,0.8,1.5*06
2017-12-01 17:48:50 1512168530.729043: $GPGSV,3,1,12,01,14,265,42,03,29,312,47,10,12,157,42,14,65,064,40*77
2017-12-01 17:48:50 1512168530.729303: $GPGSV,3,2,12,29,04,085,22,22,45,292,46,16,08,189,34,25,30,048,41*76
2017-12-01 17:48:50 1512168530.729374: $GPGSV,3,3,12,26,36,175,45,32,48,091,00,31,78,342,46,138,38,213,46*45
2017-12-01 17:48:50 1512168530.843007: $GPZDA,224851.00,01,12,2017,00,00*68
2017-12-01 17:48:50 1512168530.843228: $GPGGA,224851,3946.9731,N,08404.9846,W,2,11,0.80,298.36,M,-33.325,M,,*73
2017-12-01 17:48:50 1512168530.843300: $GPRMC,224851,A,3946.9731,N,08404.9846,W,0.0000,0.000,011217,,*3C
2017-12-01 17:48:50 1512168530.843382: $GPGSA,A,3,1,3,10,14,29,22,16,25,26,31,138,,2.0,0.8,1.5*0D
2017-12-01 17:48:51 1512168531.398390: $GPZDA,224852.00,01,12,2017,00,00*6B
2017-12-01 17:48:51 1512168531.398559: $GPGGA,224852,3946.9731,N,08404.9846,W,2,11,0.80,298.36,M,-33.325,M,,*70
2017-12-01 17:48:51 1512168531.398625: $GPRMC,224852,A,3946.9731,N,08404.9846,W,0.0000,0.000,011217,,*3F
2017-12-01 17:48:51 1512168531.398685: $GPGSA,A,3,1,3,10,14,29,22,16,25,26,31,138,,2.0,0.8,1.5*0D
2017-12-01 17:48:52 1512168532.397971: $GPZDA,224853.00,01,12,2017,00,00*6A
2017-12-01 17:48:52 1512168532.398145: $GPGGA,224853,3946.9731,N,08404.9846,W,2,11,0.80,298.36,M,-33.325,M,,*71
2017-12-01 17:48:52 1512168532.398213: $GPRMC,224853,A,3946.9731,N,08404.9846,W,0.0000,0.000,011217,,*3E
2017-12-01 17:48:52 1512168532.398273: $GPGSA,A,3,1,3,10,14,29,22,16,25,26,31,138,,2.0,0.8,1.5*0D
2017-12-01 17:48:53 1512168533.734374: $GPGSV,3,1,12,01,14,265,42,03,29,312,48,10,12,157,42,14,65,064,41*79
2017-12-01 17:48:53 1512168533.734538: $GPGSV,3,2,12,29,04,085,22,22,45,292,47,16,08,189,33,25,30,048,41*70
2017-12-01 17:48:53 1512168533.734604: $GPGSV,3,3,12,26,36,175,45,32,48,091,00,31,78,342,46,138,38,213,46*45
2017-12-01 17:48:53 1512168533.847891: $GPZDA,224854.00,01,12,2017,00,00*6D
2017-12-01 17:48:53 1512168533.848068: $GPGGA,224854,3946.9731,N,08404.9846,W,2,11,0.80,298.36,M,-33.325,M,,*76
2017-12-01 17:48:53 1512168533.848135: $GPRMC,224854,A,3946.9731,N,08404.9846,W,0.0000,0.000,011217,,*39
2017-12-01 17:48:53 1512168533.848196: $GPGSA,A,3,1,3,10,14,29,22,16,25,26,31,138,,2.0,0.8,1.5*0D
2017-12-01 17:48:54 1512168534.392525: $GPZDA,224855.00,01,12,2017,00,00*6C
2017-12-01 17:48:54 1512168534.392701: $GPGGA,224855,3946.9731,N,08404.9846,W,2,11,0.80,298.36,M,-33.325,M,,*77
2017-12-01 17:48:54 1512168534.392766: $GPRMC,224855,A,3946.9731,N,08404.9846,W,0.0000,0.000,011217,,*38
2017-12-01 17:48:54 1512168534.392826: $GPGSA,A,3,1,3,10,14,29,22,16,25,26,31,138,,2.0,0.8,1.5*0D
2017-12-01 17:48:56 1512168536.284524: $GPZDA,224856.00,01,12,2017,00,00*6F
2017-12-01 17:48:56 1512168536.284721: $GPGGA,224856,3946.9724,N,08404.9847,W,2,11,0.80,298.49,M,-33.325,M,,*79
2017-12-01 17:48:56 1512168536.284788: $GPRMC,224856,A,3946.9724,N,08404.9847,W,0.0000,0.000,011217,,*3E
2017-12-01 17:48:56 1512168536.284849: $GPGSA,A,3,1,3,10,14,29,22,16,25,26,31,138,,2.0,0.8,1.5*0D
2017-12-01 17:48:56 1512168536.284908: $GPGBS,224856,2.67,M,3.86,M,8.82,M*3D
2017-12-01 17:48:57 1512168537.071146: $GPGSV,3,1,12,01,14,265,42,03,29,312,47,10,12,157,42,14,65,064,41*76
2017-12-01 17:48:57 1512168537.071327: $GPGSV,3,2,12,29,04,085,22,22,46,292,46,16,08,189,32,25,29,048,41*7B
2017-12-01 17:48:57 1512168537.071450: $GPGSV,3,3,12,26,37,175,44,32,47,093,00,31,78,342,46,138,38,213,46*48
2017-12-01 17:48:57 1512168537.184981: $GPZDA,224857.00,01,12,2017,00,00*6E
2017-12-01 17:48:57 1512168537.185153: $GPGGA,224857,3946.9724,N,08404.9847,W,2,11,0.80,298.49,M,-33.325,M,,*78
2017-12-01 17:48:57 1512168537.185219: $GPRMC,224857,A,3946.9724,N,08404.9847,W,0.0000,0.000,011217,,*3F
2017-12-01 17:48:57 1512168537.185279: $GPGSA,A,3,1,3,10,14,29,22,16,25,26,31,138,,2.0,0.8,1.5*0D
2017-12-01 17:48:57 1512168537.636964: $GPZDA,224858.00,01,12,2017,00,00*61
2017-12-01 17:48:57 1512168537.637123: $GPGGA,224858,3946.9724,N,08404.9847,W,2,11,0.80,298.49,M,-33.325,M,,*77
2017-12-01 17:48:57 1512168537.637189: $GPRMC,224858,A,3946.9724,N,08404.9847,W,0.0000,0.000,011217,,*30
2017-12-01 17:48:57 1512168537.637249: $GPGSA,A,3,1,3,10,14,29,22,16,25,26,31,138,,2.0,0.8,1.5*0D
2017-12-01 17:48:58 1512168538.399802: $GPZDA,224859.00,01,12,2017,00,00*60
2017-12-01 17:48:58 1512168538.399964: $GPGGA,224859,3946.9724,N,08404.9847,W,2,11,0.80,298.49,M,-33.325,M,,*76
2017-12-01 17:48:58 1512168538.400030: $GPRMC,224859,A,3946.9724,N,08404.9847,W,0.0000,0.000,011217,,*31
2017-12-01 17:48:58 1512168538.400092: $GPGSA,A,3,1,3,10,14,29,22,16,25,26,31,138,,2.0,0.8,1.5*0D
2017-12-01 17:48:59 1512168539.735240: $GPGSV,3,1,12,01,14,265,41,03,29,312,47,10,12,157,41,14,65,064,41*76
2017-12-01 17:48:59 1512168539.735421: $GPGSV,3,2,12,29,04,085,18,22,46,292,47,16,08,189,32,25,29,048,41*73
2017-12-01 17:48:59 1512168539.735488: $GPGSV,3,3,12,26,37,175,44,32,47,093,00,31,78,342,46,138,38,213,46*48
2017-12-01 17:48:59 1512168539.849043: $GPZDA,224900.00,01,12,2017,00,00*6D
2017-12-01 17:48:59 1512168539.849212: $GPGGA,224900,3946.9724,N,08404.9847,W,2,11,0.80,298.49,M,-33.325,M,,*7B
2017-12-01 17:48:59 1512168539.849278: $GPRMC,224900,A,3946.9724,N,08404.9847,W,0.0000,0.000,011217,,*3C
2017-12-01 17:48:59 1512168539.849339: $GPGSA,A,3,1,3,10,14,29,22,16,25,26,31,138,,2.0,0.8,1.5*0D
2017-12-01 17:49:00 1512168540.392060: $GPZDA,224901.00,01,12,2017,00,00*6C
2017-12-01 17:49:00 1512168540.392245: $GPGGA,224901,3946.9724,N,08404.9847,W,2,11,0.80,298.49,M,-33.325,M,,*7A
2017-12-01 17:49:00 1512168540.392313: $GPRMC,224901,A,3946.9724,N,08404.9847,W,0.0000,0.000,011217,,*3D
2017-12-01 17:49:00 1512168540.392373: $GPGSA,A,3,1,3,10,14,29,22,16,25,26,31,138,,2.0,0.8,1.5*0D
2017-12-01 17:49:01 1512168541.394124: $GPZDA,224902.00,01,12,2017,00,00*6F
2017-12-01 17:49:01 1512168541.394303: $GPGGA,224902,3946.9724,N,08404.9847,W,2,11,0.80,298.49,M,-33.325,M,,*79
2017-12-01 17:49:01 1512168541.395944: $GPRMC,224902,A,3946.9724,N,08404.9847,W,0.0000,0.000,011217,,*3E
2017-12-01 17:49:01 1512168541.396026: $GPGSA,A,3,1,3,10,14,29,22,16,25,26,31,138,,2.0,0.8,1.5*0D
2017-12-01 17:49:02 1512168542.734842: $GPGSV,3,1,12,01,14,265,41,03,29,312,46,10,12,157,41,14,65,064,41*77
2017-12-01 17:49:02 1512168542.735022: $GPGSV,3,2,12,29,04,085,27,22,46,292,47,16,08,189,32,25,29,048,41*7F
2017-12-01 17:49:02 1512168542.735089: $GPGSV,3,3,12,26,37,175,44,32,47,093,00,31,78,342,47,138,38,213,46*49
2017-12-01 17:49:02 1512168542.848146: $GPZDA,224903.00,01,12,2017,00,00*6E
2017-12-01 17:49:02 1512168542.848326: $GPGGA,224903,3946.9724,N,08404.9847,W,2,11,0.80,298.49,M,-33.325,M,,*78
2017-12-01 17:49:02 1512168542.848392: $GPRMC,224903,A,3946.9724,N,08404.9847,W,0.0000,0.000,011217,,*3F
2017-12-01 17:49:02 1512168542.848453: $GPGSA,A,3,1,3,10,14,29,22,16,25,26,31,138,,2.0,0.8,1.5*0D
