2018-01-12 03:42:37 1515746557.913316: {"class":"VERSION","release":"3.16","rev":"3.16-4","proto_major":3,"proto_minor":11}
2018-01-12 03:42:37 1515746557.913664: {"class":"DEVICES","devices":[{"class":"DEVICE","path":"/dev/ttyUSB0","driver":"SiRF","subtype":"9\u0006GSD4e_4.1.2-P1_RPATCH.05-F-GPS-4R-1510281 11/03/2015 307","activated":"2018-01-12T08:42:37.555Z","flags":1,"native":1,"bps":4800,"parity":"N","stopbits":1,"cycle":1.00}]}
2018-01-12 03:42:37 1515746557.913778: {"class":"WATCH","enable":true,"json":false,"nmea":true,"raw":0,"scaled":false,"timing":false,"split24":false,"pps":false}
2018-01-12 03:42:38 1515746558.414084: $GPZDA,084239.00,12,01,2018,00,00*6B
2018-01-12 03:42:38 1515746558.414306: $GPGGA,084239,3946.9569,N,08404.9845,W,1,10,0.80,296.92,M,-33.324,M,,*70
2018-01-12 03:42:38 1515746558.414379: $GPRMC,084239,A,3946.9569,N,08404.9845,W,0.0000,0.000,120118,,*33
2018-01-12 03:42:38 1515746558.414441: $GPGSA,A,3,2,5,6,12,17,19,25,9,23,138,,,2.4,0.8,2.1*06
2018-01-12 03:42:39 1515746559.747311: $GPGSV,3,1,11,02,67,295,48,05,31,195,48,06,61,036,44,12,53,283,51*70
2018-01-12 03:42:39 1515746559.747490: $GPGSV,3,2,11,17,28,108,42,19,46,099,40,25,21,315,44,09,15,084,33*77
2018-01-12 03:42:39 1515746559.747556: $GPGSV,3,3,11,23,09,051,27,04,41,264,00,138,38,213,37*74
2018-01-12 03:42:39 1515746559.860955: $GPZDA,084240.00,12,01,2018,00,00*65
2018-01-12 03:42:39 1515746559.861125: $GPGGA,084240,3946.9569,N,08404.9845,W,1,10,0.80,296.92,M,-33.324,M,,*7E
2018-01-12 03:42:39 1515746559.861191: $GPRMC,084240,A,3946.9569,N,08404.9845,W,0.0000,0.000,120118,,*3D
2018-01-12 03:42:39 1515746559.861253: $GPGSA,A,3,2,5,6,12,17,19,25,9,23,138,,,2.4,0.8,2.1*06
2018-01-12 03:42:40 1515746560.486434: $GPZDA,084241.00,12,01,2018,00,00*64
2018-01-12 03:42:40 1515746560.486621: $GPGGA,084241,3946.9569,N,08404.9845,W,1,10,0.80,296.92,M,-33.324,M,,*7F
2018-01-12 03:42:40 1515746560.486690: $GPRMC,084241,A,3946.9569,N,08404.9845,W,0.0000,0.000,120118,,*3C
2018-01-12 03:42:40 1515746560.486752: $GPGSA,A,3,2,5,6,12,17,19,25,9,23,138,,,2.4,0.8,2.1*06
2018-01-12 03:42:41 1515746561.413639: $GPZDA,084242.00,12,01,2018,00,00*67
2018-01-12 03:42:41 1515746561.413808: $GPGGA,084242,3946.9569,N,08404.9845,W,1,10,0.80,296.92,M,-33.324,M,,*7C
2018-01-12 03:42:41 1515746561.413875: $GPRMC,084242,A,3946.9569,N,08404.9845,W,0.0000,0.000,120118,,*3F
2018-01-12 03:42:41 1515746561.413936: $GPGSA,A,3,2,5,6,12,17,19,25,9,23,138,,,2.4,0.8,2.1*06
2018-01-12 03:42:42 1515746562.750158: $GPGSV,3,1,11,02,67,295,48,05,31,195,48,06,61,036,44,12,53,283,51*70
2018-01-12 03:42:42 1515746562.750371: $GPGSV,3,2,11,17,28,108,42,19,46,099,40,25,21,315,44,09,15,084,33*77
2018-01-12 03:42:42 1515746562.750438: $GPGSV,3,3,11,23,09,051,27,04,41,264,00,138,38,213,37*74
2018-01-12 03:42:42 1515746562.863721: $GPZDA,084243.00,12,01,2018,00,00*66
2018-01-12 03:42:42 1515746562.863894: $GPGGA,084243,3946.9569,N,08404.9845,W,1,10,0.80,296.92,M,-33.324,M,,*7D
2018-01-12 03:42:42 1515746562.863959: $GPRMC,084243,A,3946.9569,N,08404.9845,W,0.0000,0.000,120118,,*3E
2018-01-12 03:42:42 1515746562.864020: $GPGSA,A,3,2,5,6,12,17,19,25,9,23,138,,,2.4,0.8,2.1*06
2018-01-12 03:42:43 1515746563.413634: $GPZDA,084244.00,12,01,2018,00,00*61
2018-01-12 03:42:43 1515746563.413785: $GPGGA,084244,3946.9573,N,08404.9845,W,1,10,0.80,297.56,M,-33.324,M,,*78
2018-01-12 03:42:43 1515746563.413851: $GPRMC,084244,A,3946.9573,N,08404.9845,W,0.0000,0.000,120118,,*32
2018-01-12 03:42:43 1515746563.413912: $GPGSA,A,3,2,5,6,12,17,19,25,9,23,138,,,2.4,0.8,2.1*06
2018-01-12 03:42:44 1515746564.412808: $GPZDA,084245.00,12,01,2018,00,00*60
2018-01-12 03:42:44 1515746564.412980: $GPGGA,084245,3946.9573,N,08404.9845,W,1,10,0.80,297.56,M,-33.324,M,,*79
2018-01-12 03:42:44 1515746564.413047: $GPRMC,084245,A,3946.9573,N,08404.9845,W,0.0000,0.000,120118,,*33
2018-01-12 03:42:44 1515746564.413109: $GPGSA,A,3,2,5,6,12,17,19,25,9,23,138,,,2.4,0.8,2.1*06
2018-01-12 03:42:44 1515746564.413167: $GPGBS,084245,11.98,M,14.47,M,47.88,M*05
2018-01-12 03:42:45 1515746565.757897: $GPGSV,3,1,11,02,67,295,48,05,31,195,48,06,61,036,44,12,53,283,51*70
2018-01-12 03:42:45 1515746565.758104: $GPGSV,3,2,11,17,28,108,42,19,46,099,40,25,21,315,44,09,15,084,33*77
2018-01-12 03:42:45 1515746565.758188: $GPGSV,3,3,11,23,09,051,27,04,41,264,00,138,38,213,39*7A
2018-01-12 03:42:45 1515746565.871537: $GPZDA,084246.00,12,01,2018,00,00*63
2018-01-12 03:42:45 1515746565.871727: $GPGGA,084246,3946.9576,N,08404.9838,W,2,10,2.40,296.88,M,-33.324,M,,*7A
2018-01-12 03:42:45 1515746565.871794: $GPRMC,084246,A,3946.9576,N,08404.9838,W,0.0000,0.000,120118,,*3F
2018-01-12 03:42:45 1515746565.871855: $GPGSA,A,3,2,5,6,12,17,19,25,9,23,138,,,2.4,2.4,2.1*08
2018-01-12 03:42:46 1515746566.415931: $GPZDA,084247.00,12,01,2018,00,00*62
2018-01-12 03:42:46 1515746566.416104: $GPGGA,084247,3946.9576,N,08404.9838,W,2,10,0.80,296.88,M,-33.324,M,,*75
2018-01-12 03:42:46 1515746566.416195: $GPRMC,084247,A,3946.9576,N,08404.9838,W,0.0000,0.000,120118,,*3E
2018-01-12 03:42:46 1515746566.416258: $GPGSA,A,3,2,5,6,12,17,19,25,9,23,138,,,2.4,0.8,2.1*06
2018-01-12 03:42:47 1515746567.413038: $GPZDA,084248.00,12,01,2018,00,00*6D
2018-01-12 03:42:47 1515746567.415877: $GPGGA,084248,3946.9576,N,08404.9838,W,2,10,0.80,296.88,M,-33.324,M,,*7A
2018-01-12 03:42:47 1515746567.415996: $GPRMC,084248,A,3946.9576,N,08404.9838,W,0.0000,0.000,120118,,*31
2018-01-12 03:42:47 1515746567.416061: $GPGSA,A,3,2,5,6,12,17,19,25,9,23,138,,,2.4,0.8,2.1*06
2018-01-12 03:42:48 1515746568.752524: $GPGSV,3,1,11,02,67,295,48,05,31,195,48,06,61,036,44,12,53,283,51*70
2018-01-12 03:42:48 1515746568.752698: $GPGSV,3,2,11,17,28,108,42,19,46,099,39,25,21,315,44,09,15,084,33*79
2018-01-12 03:42:48 1515746568.752763: $GPGSV,3,3,11,23,09,051,27,04,41,264,00,138,38,213,34*77
2018-01-12 03:42:48 1515746568.865884: $GPZDA,084249.00,12,01,2018,00,00*6C
2018-01-12 03:42:48 1515746568.866035: $GPGGA,084249,3946.9576,N,08404.9838,W,2,10,0.80,296.88,M,-33.324,M,,*7B
2018-01-12 03:42:48 1515746568.866103: $GPRMC,084249,A,3946.9576,N,08404.9838,W,0.0000,0.000,120118,,*30
2018-01-12 03:42:48 1515746568.866187: $GPGSA,A,3,2,5,6,12,17,19,25,9,23,138,,,2.4,0.8,2.1*06
2018-01-12 03:42:49 1515746569.414311: $GPZDA,084250.00,12,01,2018,00,00*64
2018-01-12 03:42:49 1515746569.414468: $GPGGA,084250,3946.9576,N,08404.9838,W,2,10,0.80,296.88,M,-33.324,M,,*73
2018-01-12 03:42:49 1515746569.414536: $GPRMC,084250,A,3946.9576,N,08404.9838,W,0.0000,0.000,120118,,*38
2018-01-12 03:42:49 1515746569.414598: $GPGSA,A,3,2,5,6,12,17,19,25,9,23,138,,,2.4,0.8,2.1*06
2018-01-12 03:42:50 1515746570.418090: $GPZDA,084251.00,12,01,2018,00,00*65
2018-01-12 03:42:50 1515746570.418300: $GPGGA,084251,3946.9576,N,08404.9838,W,2,10,0.80,296.88,M,-33.324,M,,*72
2018-01-12 03:42:50 1515746570.418369: $GPRMC,084251,A,3946.9576,N,08404.9838,W,0.0000,0.000,120118,,*39
2018-01-12 03:42:50 1515746570.418608: $GPGSA,A,3,2,5,6,12,17,19,25,9,23,138,,,2.4,0.8,2.1*06
2018-01-12 03:42:51 1515746571.750484: $GPGSV,3,1,11,02,67,295,48,05,31,195,48,06,61,036,44,12,53,283,51*70
2018-01-12 03:42:51 1515746571.750683: $GPGSV,3,2,11,17,28,108,42,19,46,099,39,25,21,315,44,09,15,084,34*7E
2018-01-12 03:42:51 1515746571.750747: $GPGSV,3,3,11,23,09,051,28,04,41,264,00,138,38,213,38*74
2018-01-12 03:42:51 1515746571.863776: $GPZDA,084252.00,12,01,2018,00,00*66
2018-01-12 03:42:51 1515746571.863950: $GPGGA,084252,3946.9576,N,08404.9838,W,2,10,0.80,296.88,M,-33.324,M,,*71
2018-01-12 03:42:51 1515746571.864017: $GPRMC,084252,A,3946.9576,N,08404.9838,W,0.0000,0.000,120118,,*3A
2018-01-12 03:42:51 1515746571.864078: $GPGSA,A,3,2,5,6,12,17,19,25,9,23,138,,,2.4,0.8,2.1*06
2018-01-12 03:42:52 1515746572.415896: $GPZDA,084253.00,12,01,2018,00,00*67
2018-01-12 03:42:52 1515746572.417516: $GPGGA,084253,3946.9576,N,08404.9838,W,2,10,0.80,296.88,M,-33.324,M,,*70
2018-01-12 03:42:52 1515746572.417612: $GPRMC,084253,A,3946.9576,N,08404.9838,W,0.0000,0.000,120118,,*3B
2018-01-12 03:42:52 1515746572.417676: $GPGSA,A,3,2,5,6,12,17,19,25,9,23,138,,,2.4,0.8,2.1*06
2018-01-12 03:42:53 1515746573.414448: $GPZDA,084254.00,12,01,2018,00,00*60
2018-01-12 03:42:53 1515746573.414682: $GPGGA,084254,3946.9576,N,08404.9838,W,2,10,0.80,296.88,M,-33.324,M,,*77
2018-01-12 03:42:53 1515746573.414752: $GPRMC,084254,A,3946.9576,N,08404.9838,W,0.0000,0.000,120118,,*3C
2018-01-12 03:42:53 1515746573.414814: $GPGSA,A,3,2,5,6,12,17,19,25,9,23,138,,,2.4,0.8,2.1*06
2018-01-12 03:42:54 1515746574.750065: $GPGSV,3,1,11,02,67,295,48,05,31,195,48,06,61,036,44,12,53,283,51*70
2018-01-12 03:42:54 1515746574.750298: $GPGSV,3,2,11,17,28,108,43,19,46,099,39,25,21,315,43,09,15,084,34*78
2018-01-12 03:42:54 1515746574.750365: $GPGSV,3,3,11,23,09,051,29,04,41,264,00,138,38,213,39*74
2018-01-12 03:42:54 1515746574.863474: $GPZDA,084255.00,12,01,2018,00,00*61
2018-01-12 03:42:54 1515746574.863661: $GPGGA,084255,3946.9576,N,08404.9838,W,2,10,0.80,296.88,M,-33.324,M,,*76
2018-01-12 03:42:54 1515746574.863728: $GPRMC,084255,A,3946.9576,N,08404.9838,W,0.0000,0.000,120118,,*3D
2018-01-12 03:42:54 1515746574.863788: $GPGSA,A,3,2,5,6,12,17,19,25,9,23,138,,,2.4,0.8,2.1*06
2018-01-12 03:42:55 1515746575.488839: $GPZDA,084256.00,12,01,2018,00,00*62
2018-01-12 03:42:55 1515746575.489010: $GPGGA,084256,3946.9576,N,08404.9838,W,2,10,0.80,296.88,M,-33.324,M,,*75
2018-01-12 03:42:55 1515746575.489076: $GPRMC,084256,A,3946.9576,N,08404.9838,W,0.0000,0.000,120118,,*3E
2018-01-12 03:42:55 1515746575.489159: $GPGSA,A,3,2,5,6,12,17,19,25,9,23,138,,,2.4,0.8,2.1*06
2018-01-12 03:42:56 1515746576.415838: $GPZDA,084257.00,12,01,2018,00,00*63
2018-01-12 03:42:56 1515746576.416176: $GPGGA,084257,3946.9576,N,08404.9838,W,2,10,0.80,296.88,M,-33.324,M,,*74
2018-01-12 03:42:56 1515746576.416306: $GPRMC,084257,A,3946.9576,N,08404.9838,W,0.0000,0.000,120118,,*3F
2018-01-12 03:42:56 1515746576.416427: $GPGSA,A,3,2,5,6,12,17,19,25,9,23,138,,,2.4,0.8,2.1*06
2018-01-12 03:42:57 1515746577.751597: $GPGSV,3,1,11,02,67,295,48,05,31,195,48,06,61,036,44,12,53,283,51*70
2018-01-12 03:42:57 1515746577.751754: $GPGSV,3,2,11,17,28,108,43,19,46,099,38,25,21,315,43,09,15,084,34*79
2018-01-12 03:42:57 1515746577.751819: $GPGSV,3,3,11,23,09,051,29,04,41,264,00,138,38,213,37*7A
2018-01-12 03:42:57 1515746577.863746: $GPZDA,084258.00,12,01,2018,00,00*6C
2018-01-12 03:42:57 1515746577.863920: $GPGGA,084258,3946.9576,N,08404.9838,W,2,10,0.80,296.88,M,-33.324,M,,*7B
2018-01-12 03:42:57 1515746577.863986: $GPRMC,084258,A,3946.9576,N,08404.9838,W,0.0000,0.000,120118,,*30
2018-01-12 03:42:57 1515746577.864047: $GPGSA,A,3,2,5,6,12,17,19,25,9,23,138,,,2.4,0.8,2.1*06
