2018-01-12 04:37:40 1515749860.984373: {"class":"VERSION","release":"3.16","rev":"3.16-4","proto_major":3,"proto_minor":11}
2018-01-12 04:37:40 1515749860.984748: {"class":"DEVICES","devices":[{"class":"DEVICE","path":"/dev/ttyUSB0","driver":"SiRF","subtype":"9\u0006GSD4e_4.1.2-P1_RPATCH.05-F-GPS-4R-1510281 11/03/2015 307","activated":"2018-01-12T09:37:40.960Z","flags":1,"native":1,"bps":4800,"parity":"N","stopbits":1,"cycle":1.00}]}
2018-01-12 04:37:40 1515749860.984864: {"class":"WATCH","enable":true,"json":false,"nmea":true,"raw":0,"scaled":false,"timing":false,"split24":false,"pps":false}
2018-01-12 04:37:41 1515749861.470561: $GPZDA,093742.00,12,01,2018,00,00*64
2018-01-12 04:37:41 1515749861.470743: $GPGGA,093742,3946.9657,N,08404.9758,W,2,12,0.80,305.57,M,-33.324,M,,*71
2018-01-12 04:37:41 1515749861.470813: $GPRMC,093742,A,3946.9657,N,08404.9758,W,0.0000,0.000,120118,,*31
2018-01-12 04:37:41 1515749861.470875: $GPGSA,A,3,2,5,6,12,25,29,9,17,23,20,19,138,2.4,0.8,2.1*0F
2018-01-12 04:37:42 1515749862.397637: $GPZDA,093743.00,12,01,2018,00,00*65
2018-01-12 04:37:42 1515749862.397821: $GPGGA,093743,3946.9657,N,08404.9758,W,2,12,0.80,305.57,M,-33.324,M,,*70
2018-01-12 04:37:42 1515749862.397889: $GPRMC,093743,A,3946.9657,N,08404.9758,W,0.0000,0.000,120118,,*30
2018-01-12 04:37:42 1515749862.397952: $GPGSA,A,3,2,5,6,12,25,29,9,17,23,20,19,138,2.4,0.8,2.1*0F
2018-01-12 04:37:43 1515749863.747155: $GPGSV,3,1,12,02,70,006,43,05,58,201,49,06,42,060,36,12,48,241,50*74
2018-01-12 04:37:43 1515749863.747341: $GPGSV,3,2,12,25,35,294,34,29,17,309,46,09,19,060,12,17,08,124,27*7F
2018-01-12 04:37:43 1515749863.747407: $GPGSV,3,3,12,23,03,033,24,20,06,220,19,19,26,120,21,138,38,213,48*43
2018-01-12 04:37:43 1515749863.860483: $GPZDA,093744.00,12,01,2018,00,00*62
2018-01-12 04:37:43 1515749863.860615: $GPGGA,093744,3946.9657,N,08404.9758,W,2,12,0.80,305.57,M,-33.324,M,,*77
2018-01-12 04:37:43 1515749863.860681: $GPRMC,093744,A,3946.9657,N,08404.9758,W,0.0000,0.000,120118,,*37
2018-01-12 04:37:43 1515749863.860741: $GPGSA,A,3,2,5,6,12,25,29,9,17,23,20,19,138,2.4,0.8,2.1*0F
2018-01-12 04:37:44 1515749864.392916: $GPZDA,093745.00,12,01,2018,00,00*63
2018-01-12 04:37:44 1515749864.393087: $GPGGA,093745,3946.9657,N,08404.9758,W,2,12,0.80,305.57,M,-33.324,M,,*76
2018-01-12 04:37:44 1515749864.393154: $GPRMC,093745,A,3946.9657,N,08404.9758,W,0.0000,0.000,120118,,*36
2018-01-12 04:37:44 1515749864.393216: $GPGSA,A,3,2,5,6,12,25,29,9,17,23,20,19,138,2.4,0.8,2.1*0F
2018-01-12 04:37:45 1515749865.416277: $GPZDA,093746.00,12,01,2018,00,00*60
2018-01-12 04:37:45 1515749865.416458: $GPGGA,093746,3946.9657,N,08404.9758,W,2,12,0.80,305.57,M,-33.324,M,,*75
2018-01-12 04:37:45 1515749865.416524: $GPRMC,093746,A,3946.9657,N,08404.9758,W,0.0000,0.000,120118,,*35
2018-01-12 04:37:45 1515749865.416587: $GPGSA,A,3,2,5,6,12,25,29,9,17,23,20,19,138,2.4,0.8,2.1*0F
2018-01-12 04:37:46 1515749866.731332: $GPGSV,3,1,12,02,70,006,43,05,58,201,49,06,42,060,36,12,48,241,50*74
2018-01-12 04:37:46 1515749866.731513: $GPGSV,3,2,12,25,35,294,34,29,17,309,46,09,19,060,16,17,08,124,27*7B
2018-01-12 04:37:46 1515749866.731580: $GPGSV,3,3,12,23,03,033,24,20,06,220,21,19,26,120,21,138,38,213,47*47
2018-01-12 04:37:46 1515749866.845020: $GPZDA,093747.00,12,01,2018,00,00*61
2018-01-12 04:37:46 1515749866.845167: $GPGGA,093747,3946.9657,N,08404.9758,W,2,12,0.80,305.57,M,-33.324,M,,*74
2018-01-12 04:37:46 1515749866.845233: $GPRMC,093747,A,3946.9657,N,08404.9758,W,0.0000,0.000,120118,,*34
2018-01-12 04:37:46 1515749866.845295: $GPGSA,A,3,2,5,6,12,25,29,9,17,23,20,19,138,2.4,0.8,2.1*0F
2018-01-12 04:37:47 1515749867.402033: $GPZDA,093748.00,12,01,2018,00,00*6E
2018-01-12 04:37:47 1515749867.402200: $GPGGA,093748,3946.9657,N,08404.9758,W,2,12,0.80,305.57,M,-33.324,M,,*7B
2018-01-12 04:37:47 1515749867.402267: $GPRMC,093748,A,3946.9657,N,08404.9758,W,0.0000,0.000,120118,,*3B
2018-01-12 04:37:47 1515749867.402333: $GPGSA,A,3,2,5,6,12,25,29,9,17,23,20,19,138,2.4,0.8,2.1*0F
2018-01-12 04:37:48 1515749868.411632: $GPZDA,093749.00,12,01,2018,00,00*6F
2018-01-12 04:37:48 1515749868.411859: $GPGGA,093749,3946.9657,N,08404.9758,W,2,12,0.80,305.57,M,-33.324,M,,*7A
2018-01-12 04:37:48 1515749868.411930: $GPRMC,093749,A,3946.9657,N,08404.9758,W,0.0000,0.000,120118,,*3A
2018-01-12 04:37:48 1515749868.412008: $GPGSA,A,3,2,5,6,12,25,29,9,17,23,20,19,138,2.4,0.8,2.1*0F
2018-01-12 04:37:49 1515749869.745991: $GPGSV,3,1,12,02,70,006,43,05,58,201,49,06,42,060,37,12,48,241,50*75
2018-01-12 04:37:49 1515749869.746186: $GPGSV,3,2,12,25,35,294,35,29,17,309,46,09,19,060,16,17,08,124,28*75
2018-01-12 04:37:49 1515749869.746257: $GPGSV,3,3,12,23,03,033,23,20,06,220,21,19,26,120,22,138,38,213,48*4C
2018-01-12 04:37:49 1515749869.859225: $GPZDA,093750.00,12,01,2018,00,00*67
2018-01-12 04:37:49 1515749869.859399: $GPGGA,093750,3946.9657,N,08404.9758,W,2,12,0.80,305.57,M,-33.324,M,,*72
2018-01-12 04:37:49 1515749869.859468: $GPRMC,093750,A,3946.9657,N,08404.9758,W,0.0000,0.000,120118,,*32
2018-01-12 04:37:49 1515749869.859530: $GPGSA,A,3,2,5,6,12,25,29,9,17,23,20,19,138,2.4,0.8,2.1*0F
2018-01-12 04:37:50 1515749870.395284: $GPZDA,093751.00,12,01,2018,00,00*66
2018-01-12 04:37:50 1515749870.395453: $GPGGA,093751,3946.9657,N,08404.9758,W,2,12,0.80,305.57,M,-33.324,M,,*73
2018-01-12 04:37:50 1515749870.395520: $GPRMC,093751,A,3946.9657,N,08404.9758,W,0.0000,0.000,120118,,*33
2018-01-12 04:37:50 1515749870.395581: $GPGSA,A,3,2,5,6,12,25,29,9,17,23,20,19,138,2.4,0.8,2.1*0F
2018-01-12 04:37:51 1515749871.411926: $GPZDA,093752.00,12,01,2018,00,00*65
2018-01-12 04:37:51 1515749871.412094: $GPGGA,093752,3946.9661,N,08404.9758,W,2,12,0.80,306.21,M,-33.324,M,,*77
2018-01-12 04:37:51 1515749871.412163: $GPRMC,093752,A,3946.9661,N,08404.9758,W,0.0000,0.000,120118,,*35
2018-01-12 04:37:51 1515749871.412224: $GPGSA,A,3,2,5,6,12,25,29,9,17,23,20,19,138,2.4,0.8,2.1*0F
2018-01-12 04:37:52 1515749872.746416: $GPGSV,3,1,12,02,70,006,43,05,58,201,49,06,42,060,36,12,48,241,50*74
2018-01-12 04:37:52 1515749872.746600: $GPGSV,3,2,12,25,35,294,35,29,17,309,46,09,19,060,14,17,08,124,28*77
2018-01-12 04:37:52 1515749872.746668: $GPGSV,3,3,12,23,03,033,24,20,06,220,21,19,26,120,22,138,38,213,47*44
2018-01-12 04:37:52 1515749872.859834: $GPZDA,093753.00,12,01,2018,00,00*64
2018-01-12 04:37:52 1515749872.860010: $GPGGA,093753,3946.9661,N,08404.9758,W,2,12,0.80,306.21,M,-33.324,M,,*76
2018-01-12 04:37:52 1515749872.860078: $GPRMC,093753,A,3946.9661,N,08404.9758,W,0.0000,0.000,120118,,*34
2018-01-12 04:37:52 1515749872.860142: $GPGSA,A,3,2,5,6,12,25,29,9,17,23,20,19,138,2.4,0.8,2.1*0F
2018-01-12 04:37:53 1515749873.394798: $GPZDA,093754.00,12,01,2018,00,00*63
2018-01-12 04:37:53 1515749873.394983: $GPGGA,093754,3946.9661,N,08404.9765,W,2,12,0.80,306.13,M,-33.324,M,,*7E
2018-01-12 04:37:53 1515749873.395052: $GPRMC,093754,A,3946.9661,N,08404.9765,W,0.0000,0.000,120118,,*3D
2018-01-12 04:37:53 1515749873.395113: $GPGSA,A,3,2,5,6,12,25,29,9,17,23,20,19,138,2.4,0.8,2.1*0F
2018-01-12 04:37:54 1515749874.416462: $GPZDA,093755.00,12,01,2018,00,00*62
2018-01-12 04:37:54 1515749874.416656: $GPGGA,093755,3946.9661,N,08404.9765,W,2,12,0.80,306.13,M,-33.324,M,,*7F
2018-01-12 04:37:54 1515749874.416724: $GPRMC,093755,A,3946.9661,N,08404.9765,W,0.0000,0.000,120118,,*3C
2018-01-12 04:37:54 1515749874.416785: $GPGSA,A,3,2,5,6,12,25,29,9,17,23,20,19,138,2.4,0.8,2.1*0F
2018-01-12 04:37:55 1515749875.746046: $GPGSV,3,1,12,02,70,006,43,05,58,201,49,06,42,060,36,12,48,241,50*74
2018-01-12 04:37:55 1515749875.746225: $GPGSV,3,2,12,25,35,294,36,29,17,309,47,09,19,060,12,17,08,124,27*7C
2018-01-12 04:37:55 1515749875.746292: $GPGSV,3,3,12,23,03,033,24,20,06,220,22,19,26,120,00,138,38,213,47*47
2018-01-12 04:37:55 1515749875.859576: $GPZDA,093756.00,12,01,2018,00,00*61
2018-01-12 04:37:55 1515749875.859743: $GPGGA,093756,3946.9661,N,08404.9765,W,2,11,0.80,306.13,M,-33.324,M,,*7F
2018-01-12 04:37:55 1515749875.859808: $GPRMC,093756,A,3946.9661,N,08404.9765,W,0.0000,0.000,120118,,*3F
2018-01-12 04:37:55 1515749875.859868: $GPGSA,A,3,2,5,6,12,25,29,9,17,23,20,138,,2.4,0.8,2.1*07
2018-01-12 04:37:56 1515749876.486043: $GPZDA,093757.00,12,01,2018,00,00*60
2018-01-12 04:37:56 1515749876.486272: $GPGGA,093757,3946.9661,N,08404.9765,W,2,11,0.80,306.13,M,-33.324,M,,*7E
2018-01-12 04:37:56 1515749876.486343: $GPRMC,093757,A,3946.9661,N,08404.9765,W,0.0000,0.000,120118,,*3E
2018-01-12 04:37:56 1515749876.486421: $GPGSA,A,3,2,5,6,12,25,29,9,17,23,20,138,,2.4,0.8,2.1*07
2018-01-12 04:37:57 1515749877.411895: $GPZDA,093758.00,12,01,2018,00,00*6F
2018-01-12 04:37:57 1515749877.412066: $GPGGA,093758,3946.9661,N,08404.9765,W,2,11,0.80,306.13,M,-33.324,M,,*71
2018-01-12 04:37:57 1515749877.412132: $GPRMC,093758,A,3946.9661,N,08404.9765,W,0.0000,0.000,120118,,*31
2018-01-12 04:37:57 1515749877.412194: $GPGSA,A,3,2,5,6,12,25,29,9,17,23,20,138,,2.4,0.8,2.1*07
2018-01-12 04:37:58 1515749878.730168: $GPGSV,3,1,12,02,70,006,43,05,58,201,48,06,42,060,36,12,48,241,50*75
2018-01-12 04:37:58 1515749878.730340: $GPGSV,3,2,12,25,35,294,36,29,17,309,47,09,19,060,22,17,08,124,21*79
2018-01-12 04:37:58 1515749878.730423: $GPGSV,3,3,12,23,03,033,23,20,06,220,23,19,26,120,21,138,38,213,47*42
2018-01-12 04:37:58 1515749878.843897: $GPZDA,093759.00,12,01,2018,00,00*6E
2018-01-12 04:37:58 1515749878.844065: $GPGGA,093759,3946.9661,N,08404.9765,W,2,12,0.80,306.13,M,-33.324,M,,*73
2018-01-12 04:37:58 1515749878.844132: $GPRMC,093759,A,3946.9661,N,08404.9765,W,0.0000,0.000,120118,,*30
2018-01-12 04:37:58 1515749878.844264: $GPGSA,A,3,2,5,6,12,25,29,9,17,23,20,19,138,2.4,0.8,2.1*0F
2018-01-12 04:37:59 1515749879.410966: $GPZDA,093800.00,12,01,2018,00,00*6D
2018-01-12 04:37:59 1515749879.411136: $GPGGA,093800,3946.9661,N,08404.9765,W,2,12,0.80,306.13,M,-33.324,M,,*70
2018-01-12 04:37:59 1515749879.411203: $GPRMC,093800,A,3946.9661,N,08404.9765,W,0.0000,0.000,120118,,*33
2018-01-12 04:37:59 1515749879.411286: $GPGSA,A,3,2,5,6,12,25,29,9,17,23,20,19,138,2.4,0.8,2.1*0F
2018-01-12 04:38:00 1515749880.400463: $GPZDA,093801.00,12,01,2018,00,00*6C
2018-01-12 04:38:00 1515749880.400664: $GPGGA,093801,3946.9661,N,08404.9765,W,2,12,0.80,306.13,M,-33.324,M,,*71
2018-01-12 04:38:00 1515749880.400731: $GPRMC,093801,A,3946.9661,N,08404.9765,W,0.0000,0.000,120118,,*32
2018-01-12 04:38:00 1515749880.400792: $GPGSA,A,3,2,5,6,12,25,29,9,17,23,20,19,138,2.4,0.8,2.1*0F
