2017-12-01 16:06:08 1512162368.006923: {"class":"VERSION","release":"3.16","rev":"3.16-4","proto_major":3,"proto_minor":11}
2017-12-01 16:06:08 1512162368.007390: {"class":"DEVICES","devices":[{"class":"DEVICE","path":"/dev/ttyUSB0","driver":"SiRF","subtype":"9\u0006GSD4e_4.1.2-P1_RPATCH.05-F-GPS-4R-1510281 11/03/2015 307","activated":"2017-12-01T21:06:07.966Z","flags":1,"native":1,"bps":4800,"parity":"N","stopbits":1,"cycle":1.00}]}
2017-12-01 16:06:08 1512162368.007515: {"class":"WATCH","enable":true,"json":false,"nmea":true,"raw":0,"scaled":false,"timing":false,"split24":false,"pps":false}
2017-12-01 16:06:08 1512162368.430329: $GPZDA,210609.00,01,12,2017,00,00*6C
2017-12-01 16:06:08 1512162368.430521: $GPGGA,210609,3946.9574,N,08404.9817,W,2,12,0.80,309.96,M,-33.324,M,,*71
2017-12-01 16:06:08 1512162368.430611: $GPRMC,210609,A,3946.9574,N,08404.9817,W,0.0000,0.000,011217,,*3F
2017-12-01 16:06:08 1512162368.430675: $GPGSA,A,3,1,10,12,14,18,25,31,32,11,22,24,138,2.0,0.8,1.5*3B
2017-12-01 16:06:09 1512162369.355124: $GPZDA,210610.00,01,12,2017,00,00*64
2017-12-01 16:06:09 1512162369.355298: $GPGGA,210610,3946.9574,N,08404.9817,W,2,12,0.80,309.96,M,-33.324,M,,*79
2017-12-01 16:06:09 1512162369.355364: $GPRMC,210610,A,3946.9574,N,08404.9817,W,0.0000,0.000,011217,,*37
2017-12-01 16:06:09 1512162369.355425: $GPGSA,A,3,1,10,12,14,18,25,31,32,11,22,24,138,2.0,0.8,1.5*3B
2017-12-01 16:06:10 1512162370.690451: $GPGSV,3,1,12,01,18,310,34,10,60,141,48,12,25,061,44,14,60,306,45*7E
2017-12-01 16:06:10 1512162370.690628: $GPGSV,3,2,12,18,28,139,43,25,35,105,49,31,45,217,49,32,70,355,47*70
2017-12-01 16:06:10 1512162370.690694: $GPGSV,3,3,12,11,10,292,32,22,10,312,34,24,06,046,26,138,38,213,46*40
2017-12-01 16:06:10 1512162370.804179: $GPZDA,210611.00,01,12,2017,00,00*65
2017-12-01 16:06:10 1512162370.804344: $GPGGA,210611,3946.9574,N,08404.9817,W,2,12,0.80,309.96,M,-33.324,M,,*78
2017-12-01 16:06:10 1512162370.804408: $GPRMC,210611,A,3946.9574,N,08404.9817,W,0.0000,0.000,011217,,*36
2017-12-01 16:06:10 1512162370.804469: $GPGSA,A,3,1,10,12,14,18,25,31,32,11,22,24,138,2.0,0.8,1.5*3B
2017-12-01 16:06:11 1512162371.369824: $GPZDA,210612.00,01,12,2017,00,00*66
2017-12-01 16:06:11 1512162371.369996: $GPGGA,210612,3946.9574,N,08404.9817,W,2,12,0.80,309.96,M,-33.324,M,,*7B
2017-12-01 16:06:11 1512162371.370064: $GPRMC,210612,A,3946.9574,N,08404.9817,W,0.0000,0.000,011217,,*35
2017-12-01 16:06:11 1512162371.370126: $GPGSA,A,3,1,10,12,14,18,25,31,32,11,22,24,138,2.0,0.8,1.5*3B
2017-12-01 16:06:12 1512162372.369322: $GPZDA,210613.00,01,12,2017,00,00*67
2017-12-01 16:06:12 1512162372.369500: $GPGGA,210613,3946.9574,N,08404.9817,W,2,12,0.80,309.96,M,-33.324,M,,*7A
2017-12-01 16:06:12 1512162372.369568: $GPRMC,210613,A,3946.9574,N,08404.9817,W,0.0000,0.000,011217,,*34
2017-12-01 16:06:12 1512162372.369631: $GPGSA,A,3,1,10,12,14,18,25,31,32,11,22,24,138,2.0,0.8,1.5*3B
2017-12-01 16:06:13 1512162373.707078: $GPGSV,3,1,12,01,18,310,34,10,60,141,48,12,25,061,44,14,60,306,45*7E
2017-12-01 16:06:13 1512162373.707274: $GPGSV,3,2,12,18,28,139,42,25,35,105,48,31,45,217,49,32,70,355,47*70
2017-12-01 16:06:13 1512162373.707341: $GPGSV,3,3,12,11,10,292,31,22,10,312,34,24,06,046,26,138,38,213,46*43
2017-12-01 16:06:13 1512162373.820444: $GPZDA,210614.00,01,12,2017,00,00*60
2017-12-01 16:06:13 1512162373.820624: $GPGGA,210614,3946.9574,N,08404.9817,W,2,12,0.80,309.96,M,-33.324,M,,*7D
2017-12-01 16:06:13 1512162373.820692: $GPRMC,210614,A,3946.9574,N,08404.9817,W,0.0000,0.000,011217,,*33
2017-12-01 16:06:13 1512162373.820753: $GPGSA,A,3,1,10,12,14,18,25,31,32,11,22,24,138,2.0,0.8,1.5*3B
2017-12-01 16:06:14 1512162374.371323: $GPZDA,210615.00,01,12,2017,00,00*61
2017-12-01 16:06:14 1512162374.371543: $GPGGA,210615,3946.9574,N,08404.9817,W,2,12,0.80,309.96,M,-33.324,M,,*7C
2017-12-01 16:06:14 1512162374.371614: $GPRMC,210615,A,3946.9574,N,08404.9817,W,0.0000,0.000,011217,,*32
2017-12-01 16:06:14 1512162374.371676: $GPGSA,A,3,1,10,12,14,18,25,31,32,11,22,24,138,2.0,0.8,1.5*3B
2017-12-01 16:06:15 1512162375.369983: $GPZDA,210616.00,01,12,2017,00,00*62
2017-12-01 16:06:15 1512162375.370211: $GPGGA,210616,3946.9574,N,08404.9817,W,2,12,0.80,309.96,M,-33.324,M,,*7F
2017-12-01 16:06:15 1512162375.370281: $GPRMC,210616,A,3946.9574,N,08404.9817,W,0.0000,0.000,011217,,*31
2017-12-01 16:06:15 1512162375.370343: $GPGSA,A,3,1,10,12,14,18,25,31,32,11,22,24,138,2.0,0.8,1.5*3B
2017-12-01 16:06:16 1512162376.689213: $GPGSV,3,1,12,01,18,310,35,10,60,141,48,12,25,061,44,14,60,306,45*7F
2017-12-01 16:06:16 1512162376.689399: $GPGSV,3,2,12,18,28,139,43,25,35,105,48,31,45,217,48,32,70,355,47*70
2017-12-01 16:06:16 1512162376.689465: $GPGSV,3,3,12,11,10,292,32,22,10,312,35,24,06,046,26,138,38,213,46*41
2017-12-01 16:06:16 1512162376.802545: $GPZDA,210617.00,01,12,2017,00,00*63
2017-12-01 16:06:16 1512162376.802688: $GPGGA,210617,3946.9574,N,08404.9817,W,2,12,0.80,309.96,M,-33.324,M,,*7E
2017-12-01 16:06:16 1512162376.802756: $GPRMC,210617,A,3946.9574,N,08404.9817,W,0.0000,0.000,011217,,*30
2017-12-01 16:06:16 1512162376.802817: $GPGSA,A,3,1,10,12,14,18,25,31,32,11,22,24,138,2.0,0.8,1.5*3B
2017-12-01 16:06:17 1512162377.354945: $GPZDA,210618.00,01,12,2017,00,00*6C
2017-12-01 16:06:17 1512162377.355121: $GPGGA,210618,3946.9574,N,08404.9817,W,2,12,0.80,309.96,M,-33.324,M,,*71
2017-12-01 16:06:17 1512162377.355188: $GPRMC,210618,A,3946.9574,N,08404.9817,W,0.0000,0.000,011217,,*3F
2017-12-01 16:06:17 1512162377.355249: $GPGSA,A,3,1,10,12,14,18,25,31,32,11,22,24,138,2.0,0.8,1.5*3B
2017-12-01 16:06:18 1512162378.354199: $GPZDA,210619.00,01,12,2017,00,00*6D
2017-12-01 16:06:18 1512162378.354379: $GPGGA,210619,3946.9574,N,08404.9817,W,2,12,0.80,309.96,M,-33.324,M,,*70
2017-12-01 16:06:18 1512162378.354446: $GPRMC,210619,A,3946.9574,N,08404.9817,W,0.0000,0.000,011217,,*3E
2017-12-01 16:06:18 1512162378.354508: $GPGSA,A,3,1,10,12,14,18,25,31,32,11,22,24,138,2.0,0.8,1.5*3B
2017-12-01 16:06:19 1512162379.707121: $GPGSV,3,1,12,01,18,310,36,10,60,141,48,12,25,061,44,14,60,306,45*7C
2017-12-01 16:06:19 1512162379.707310: $GPGSV,3,2,12,18,28,139,43,25,35,105,48,31,45,217,48,32,70,355,47*70
2017-12-01 16:06:19 1512162379.707377: $GPGSV,3,3,12,11,10,292,33,22,10,312,35,24,06,046,27,138,38,213,45*42
2017-12-01 16:06:19 1512162379.820600: $GPZDA,210620.00,01,12,2017,00,00*67
2017-12-01 16:06:19 1512162379.820772: $GPGGA,210620,3946.9574,N,08404.9817,W,2,12,0.80,309.96,M,-33.324,M,,*7A
2017-12-01 16:06:19 1512162379.820839: $GPRMC,210620,A,3946.9574,N,08404.9817,W,0.0000,0.000,011217,,*34
2017-12-01 16:06:19 1512162379.820900: $GPGSA,A,3,1,10,12,14,18,25,31,32,11,22,24,138,2.0,0.8,1.5*3B
2017-12-01 16:06:20 1512162380.351410: $GPZDA,210621.00,01,12,2017,00,00*66
2017-12-01 16:06:20 1512162380.351601: $GPGGA,210621,3946.9574,N,08404.9817,W,2,12,0.80,309.96,M,-33.324,M,,*7B
2017-12-01 16:06:20 1512162380.351670: $GPRMC,210621,A,3946.9574,N,08404.9817,W,0.0000,0.000,011217,,*35
2017-12-01 16:06:20 1512162380.351733: $GPGSA,A,3,1,10,12,14,18,25,31,32,11,22,24,138,2.0,0.8,1.5*3B
2017-12-01 16:06:21 1512162381.371065: $GPZDA,210622.00,01,12,2017,00,00*65
2017-12-01 16:06:21 1512162381.371240: $GPGGA,210622,3946.9574,N,08404.9817,W,2,12,0.80,309.96,M,-33.324,M,,*78
2017-12-01 16:06:21 1512162381.371307: $GPRMC,210622,A,3946.9574,N,08404.9817,W,0.0000,0.000,011217,,*36
2017-12-01 16:06:21 1512162381.371422: $GPGSA,A,3,1,10,12,14,18,25,31,32,11,22,24,138,2.0,0.8,1.5*3B
2017-12-01 16:06:22 1512162382.706673: $GPGSV,3,1,12,01,18,310,38,10,60,141,48,12,25,061,44,14,60,306,45*72
2017-12-01 16:06:22 1512162382.706855: $GPGSV,3,2,12,18,28,139,43,25,35,105,48,31,45,217,49,32,70,355,46*70
2017-12-01 16:06:22 1512162382.706923: $GPGSV,3,3,12,11,10,292,35,22,10,312,35,24,06,046,27,138,38,213,46*47
2017-12-01 16:06:22 1512162382.820030: $GPZDA,210623.00,01,12,2017,00,00*64
2017-12-01 16:06:22 1512162382.820211: $GPGGA,210623,3946.9574,N,08404.9817,W,2,12,0.80,309.96,M,-33.324,M,,*79
2017-12-01 16:06:22 1512162382.820279: $GPRMC,210623,A,3946.9574,N,08404.9817,W,0.0000,0.000,011217,,*37
2017-12-01 16:06:22 1512162382.820341: $GPGSA,A,3,1,10,12,14,18,25,31,32,11,22,24,138,2.0,0.8,1.5*3B
2017-12-01 16:06:23 1512162383.446558: $GPZDA,210624.00,01,12,2017,00,00*63
2017-12-01 16:06:23 1512162383.446893: $GPGGA,210624,3946.9574,N,08404.9817,W,2,12,0.80,309.96,M,-33.324,M,,*7E
2017-12-01 16:06:23 1512162383.446967: $GPRMC,210624,A,3946.9574,N,08404.9817,W,0.0000,0.000,011217,,*30
2017-12-01 16:06:23 1512162383.447029: $GPGSA,A,3,1,10,12,14,18,25,31,32,11,22,24,138,2.0,0.8,1.5*3B
2017-12-01 16:06:24 1512162384.351714: $GPZDA,210625.00,01,12,2017,00,00*62
2017-12-01 16:06:24 1512162384.351891: $GPGGA,210625,3946.9570,N,08404.9818,W,2,12,0.80,310.72,M,-33.324,M,,*76
2017-12-01 16:06:24 1512162384.351959: $GPRMC,210625,A,3946.9570,N,08404.9818,W,0.0000,0.000,011217,,*3A
2017-12-01 16:06:24 1512162384.352020: $GPGSA,A,3,1,10,12,14,18,25,31,32,11,22,24,138,2.0,0.8,1.5*3B
2017-12-01 16:06:25 1512162385.710795: $GPGSV,3,1,12,01,18,310,38,10,60,141,48,12,25,061,44,14,60,306,45*72
2017-12-01 16:06:25 1512162385.710957: $GPGSV,3,2,12,18,28,139,43,25,35,105,48,31,45,217,49,32,70,355,46*70
2017-12-01 16:06:25 1512162385.711024: $GPGSV,3,3,12,11,10,292,38,22,10,312,36,24,06,046,28,138,38,213,46*46
2017-12-01 16:06:25 1512162385.824755: $GPZDA,210626.00,01,12,2017,00,00*61
2017-12-01 16:06:25 1512162385.824942: $GPGGA,210626,3946.9570,N,08404.9818,W,2,12,0.80,310.72,M,-33.324,M,,*75
2017-12-01 16:06:25 1512162385.825009: $GPRMC,210626,A,3946.9570,N,08404.9818,W,0.0000,0.000,011217,,*39
2017-12-01 16:06:25 1512162385.825071: $GPGSA,A,3,1,10,12,14,18,25,31,32,11,22,24,138,2.0,0.8,1.5*3B
2017-12-01 16:06:26 1512162386.369231: $GPZDA,210627.00,01,12,2017,00,00*60
2017-12-01 16:06:26 1512162386.369408: $GPGGA,210627,3946.9570,N,08404.9818,W,2,12,0.80,310.72,M,-33.324,M,,*74
2017-12-01 16:06:26 1512162386.369476: $GPRMC,210627,A,3946.9570,N,08404.9818,W,0.0000,0.000,011217,,*38
2017-12-01 16:06:26 1512162386.369537: $GPGSA,A,3,1,10,12,14,18,25,31,32,11,22,24,138,2.0,0.8,1.5*3B
2017-12-01 16:06:27 1512162387.356257: $GPZDA,210628.00,01,12,2017,00,00*6F
2017-12-01 16:06:27 1512162387.356421: $GPGGA,210628,3946.9570,N,08404.9818,W,2,12,0.80,310.72,M,-33.324,M,,*7B
2017-12-01 16:06:27 1512162387.356489: $GPRMC,210628,A,3946.9570,N,08404.9818,W,0.0000,0.000,011217,,*37
2017-12-01 16:06:27 1512162387.356550: $GPGSA,A,3,1,10,12,14,18,25,31,32,11,22,24,138,2.0,0.8,1.5*3B
