2018-01-12 20:00:44 1515805244.875063: {"class":"VERSION","release":"3.16","rev":"3.16-4","proto_major":3,"proto_minor":11}
2018-01-12 20:00:44 1515805244.875416: {"class":"DEVICES","devices":[{"class":"DEVICE","path":"/dev/ttyUSB0","driver":"SiRF","subtype":"9\u0006GSD4e_4.1.2-P1_RPATCH.05-F-GPS-4R-1510281 11/03/2015 307","activated":"2018-01-13T01:00:44.333Z","flags":1,"native":1,"bps":4800,"parity":"N","stopbits":1,"cycle":1.00}]}
2018-01-12 20:00:44 1515805244.875530: {"class":"WATCH","enable":true,"json":false,"nmea":true,"raw":0,"scaled":false,"timing":false,"split24":false,"pps":false}
2018-01-12 20:00:45 1515805245.191973: $GPZDA,010046.00,13,01,2018,00,00*6D
2018-01-12 20:00:45 1515805245.192125: $GPGGA,010046,3946.9499,N,08404.9573,W,1,06,1.40,303.13,M,-33.324,M,,*7F
2018-01-12 20:00:45 1515805245.192191: $GPRMC,010046,A,3946.9499,N,08404.9573,W,0.0000,0.000,130118,,*33
2018-01-12 20:00:45 1515805245.192252: $GPGSA,A,3,7,8,27,9,16,23,,,,,,,4.8,1.4,4.6*0C
2018-01-12 20:00:46 1515805246.527916: $GPGSV,3,1,10,07,53,313,28,08,72,141,22,27,50,055,14,09,50,232,18*7A
2018-01-12 20:00:46 1515805246.528067: $GPGSV,3,2,10,16,25,058,09,23,32,190,13,30,27,304,00,11,18,168,00*70
2018-01-12 20:00:46 1515805246.528132: $GPGSV,3,3,10,28,12,256,00,138,38,213,00*41
2018-01-12 20:00:46 1515805246.641263: $GPZDA,010047.00,13,01,2018,00,00*6C
2018-01-12 20:00:46 1515805246.641391: $GPGGA,010047,3946.9499,N,08404.9573,W,1,06,1.40,303.13,M,-33.324,M,,*7E
2018-01-12 20:00:46 1515805246.641456: $GPRMC,010047,A,3946.9499,N,08404.9573,W,0.4179,328.778,130118,,*38
2018-01-12 20:00:46 1515805246.641517: $GPGSA,A,3,7,8,27,9,16,23,,,,,,,4.8,1.4,4.6*0C
2018-01-12 20:00:47 1515805247.193107: $GPZDA,010048.00,13,01,2018,00,00*63
2018-01-12 20:00:47 1515805247.193361: $GPGGA,010048,3946.9499,N,08404.9573,W,1,06,1.40,303.13,M,-33.324,M,,*71
2018-01-12 20:00:47 1515805247.193430: $GPRMC,010048,A,3946.9499,N,08404.9573,W,0.0000,0.000,130118,,*3D
2018-01-12 20:00:47 1515805247.193492: $GPGSA,A,3,7,8,27,9,16,23,,,,,,,4.8,1.4,4.6*0C
2018-01-12 20:00:48 1515805248.192644: $GPZDA,010049.00,13,01,2018,00,00*62
2018-01-12 20:00:48 1515805248.192816: $GPGGA,010049,3946.9499,N,08404.9573,W,1,06,1.40,303.13,M,-33.324,M,,*70
2018-01-12 20:00:48 1515805248.192883: $GPRMC,010049,A,3946.9499,N,08404.9573,W,0.3155,129.994,130118,,*30
2018-01-12 20:00:48 1515805248.192945: $GPGSA,A,3,7,8,27,9,16,23,,,,,,,4.8,1.4,4.6*0C
2018-01-12 20:00:49 1515805249.544815: $GPGSV,3,1,10,07,53,313,28,08,72,141,22,27,50,055,15,09,50,232,18*7B
2018-01-12 20:00:49 1515805249.544999: $GPGSV,3,2,10,16,25,058,09,23,32,190,13,30,27,304,00,11,18,168,00*70
2018-01-12 20:00:49 1515805249.545067: $GPGSV,3,3,10,28,12,256,00,138,38,213,00*41
2018-01-12 20:00:49 1515805249.658302: $GPZDA,010050.00,13,01,2018,00,00*6A
2018-01-12 20:00:49 1515805249.658475: $GPGGA,010050,3946.9499,N,08404.9573,W,1,06,1.40,303.13,M,-33.324,M,,*78
2018-01-12 20:00:49 1515805249.658541: $GPRMC,010050,A,3946.9499,N,08404.9573,W,0.2422,93.794,130118,,*02
2018-01-12 20:00:49 1515805249.658602: $GPGSA,A,3,7,8,27,9,16,23,,,,,,,4.8,1.4,4.6*0C
2018-01-12 20:00:50 1515805250.208752: $GPZDA,010051.00,13,01,2018,00,00*6B
2018-01-12 20:00:50 1515805250.208923: $GPGGA,010051,3946.9499,N,08404.9566,W,1,06,1.40,303.21,M,-33.324,M,,*7C
2018-01-12 20:00:50 1515805250.208990: $GPRMC,010051,A,3946.9499,N,08404.9566,W,0.4844,93.794,130118,,*0D
2018-01-12 20:00:50 1515805250.209051: $GPGSA,A,3,7,8,27,9,16,23,,,,,,,4.8,1.4,4.6*0C
2018-01-12 20:00:51 1515805251.206289: $GPZDA,010052.00,13,01,2018,00,00*68
2018-01-12 20:00:51 1515805251.206443: $GPGGA,010052,3946.9494,N,08404.9566,W,1,06,1.60,302.57,M,-33.324,M,,*70
2018-01-12 20:00:51 1515805251.206509: $GPRMC,010052,A,3946.9494,N,08404.9566,W,0.5912,129.172,130118,,*3E
2018-01-12 20:00:51 1515805251.206571: $GPGSA,A,3,7,8,27,9,16,23,,,,,,,4.8,1.6,4.6*0E
2018-01-12 20:00:52 1515805252.543510: $GPGSV,3,1,10,07,53,313,28,08,72,141,21,27,50,055,16,09,50,232,18*7B
2018-01-12 20:00:52 1515805252.543667: $GPGSV,3,2,10,16,25,058,08,23,32,190,11,30,27,304,00,11,18,168,00*73
2018-01-12 20:00:52 1515805252.543777: $GPGSV,3,3,10,28,12,256,00,138,38,213,00*41
2018-01-12 20:00:52 1515805252.657155: $GPZDA,010053.00,13,01,2018,00,00*69
2018-01-12 20:00:52 1515805252.657328: $GPGGA,010053,3946.9494,N,08404.9566,W,1,06,1.40,302.57,M,-33.324,M,,*73
2018-01-12 20:00:52 1515805252.657394: $GPRMC,010053,A,3946.9494,N,08404.9566,W,0.2422,93.794,130118,,*08
2018-01-12 20:00:52 1515805252.657455: $GPGSA,A,3,7,8,27,9,16,23,,,,,,,4.8,1.4,4.6*0C
2018-01-12 20:00:53 1515805253.206758: $GPZDA,010054.00,13,01,2018,00,00*6E
2018-01-12 20:00:53 1515805253.206928: $GPGGA,010054,3946.9494,N,08404.9566,W,1,06,1.60,302.57,M,-33.324,M,,*76
2018-01-12 20:00:53 1515805253.206994: $GPRMC,010054,A,3946.9494,N,08404.9566,W,0.5912,129.172,130118,,*38
2018-01-12 20:00:53 1515805253.207056: $GPGSA,A,3,7,8,27,9,16,23,,,,,,,4.8,1.6,4.6*0E
2018-01-12 20:00:54 1515805254.189308: $GPZDA,010055.00,13,01,2018,00,00*6F
2018-01-12 20:00:54 1515805254.189483: $GPGGA,010055,3946.9494,N,08404.9566,W,1,06,1.60,302.57,M,-33.324,M,,*77
2018-01-12 20:00:54 1515805254.189549: $GPRMC,010055,A,3946.9494,N,08404.9566,W,0.1867,180.000,130118,,*39
2018-01-12 20:00:54 1515805254.189611: $GPGSA,A,3,7,8,27,9,16,23,,,,,,,4.8,1.6,4.6*0E
2018-01-12 20:00:55 1515805255.527749: $GPGSV,3,1,10,07,53,313,28,08,72,141,21,27,50,055,16,09,50,232,18*7B
2018-01-12 20:00:55 1515805255.529358: $GPGSV,3,2,10,16,25,058,08,23,32,190,11,30,27,304,00,11,18,168,00*73
2018-01-12 20:00:55 1515805255.529449: $GPGSV,3,3,10,28,12,256,00,138,38,213,00*41
2018-01-12 20:00:55 1515805255.641140: $GPZDA,010056.00,13,01,2018,00,00*6C
2018-01-12 20:00:55 1515805255.641318: $GPGGA,010056,3946.9494,N,08404.9566,W,1,06,1.40,302.57,M,-33.324,M,,*76
2018-01-12 20:00:55 1515805255.641384: $GPRMC,010056,A,3946.9494,N,08404.9566,W,0.2422,93.794,130118,,*0D
2018-01-12 20:00:55 1515805255.641446: $GPGSA,A,3,7,8,27,9,16,23,,,,,,,4.8,1.4,4.6*0C
2018-01-12 20:00:56 1515805256.207574: $GPZDA,010057.00,13,01,2018,00,00*6D
2018-01-12 20:00:56 1515805256.207767: $GPGGA,010057,3946.9494,N,08404.9566,W,1,06,1.60,302.57,M,-33.324,M,,*75
2018-01-12 20:00:56 1515805256.207836: $GPRMC,010057,A,3946.9494,N,08404.9566,W,0.3423,4.197,130118,,*37
2018-01-12 20:00:56 1515805256.207898: $GPGSA,A,3,7,8,27,9,16,23,,,,,,,4.8,1.6,4.6*0E
2018-01-12 20:00:57 1515805257.208106: $GPZDA,010058.00,13,01,2018,00,00*62
2018-01-12 20:00:57 1515805257.208296: $GPGGA,010058,3946.9494,N,08404.9559,W,1,06,1.60,302.65,M,-33.324,M,,*77
2018-01-12 20:00:57 1515805257.208364: $GPRMC,010058,A,3946.9494,N,08404.9559,W,0.8054,68.645,130118,,*09
2018-01-12 20:00:57 1515805257.208426: $GPGSA,A,3,7,8,27,9,16,23,,,,,,,4.8,1.6,4.6*0E
2018-01-12 20:00:58 1515805258.543459: $GPGSV,3,1,10,07,53,313,28,08,72,141,22,27,50,055,16,09,50,232,18*78
2018-01-12 20:00:58 1515805258.543624: $GPGSV,3,2,10,16,25,058,07,23,32,190,12,30,27,304,00,11,18,168,00*7F
2018-01-12 20:00:58 1515805258.543691: $GPGSV,3,3,10,28,12,256,00,120,07,103,00*46
2018-01-12 20:00:58 1515805258.657094: $GPZDA,010059.00,13,01,2018,00,00*63
2018-01-12 20:00:58 1515805258.657266: $GPGGA,010059,3946.9494,N,08404.9559,W,1,06,1.60,302.65,M,-33.324,M,,*76
2018-01-12 20:00:58 1515805258.657332: $GPRMC,010059,A,3946.9494,N,08404.9559,W,0.5951,58.684,130118,,*07
2018-01-12 20:00:58 1515805258.657394: $GPGSA,A,3,7,8,27,9,16,23,,,,,,,4.8,1.6,4.6*0E
2018-01-12 20:00:59 1515805259.207325: $GPZDA,010100.00,13,01,2018,00,00*6E
2018-01-12 20:00:59 1515805259.207497: $GPGGA,010100,3946.9494,N,08404.9559,W,1,06,1.60,302.65,M,-33.324,M,,*7B
2018-01-12 20:00:59 1515805259.207564: $GPRMC,010100,A,3946.9494,N,08404.9559,W,0.4207,39.347,130118,,*0E
2018-01-12 20:00:59 1515805259.207625: $GPGSA,A,3,7,8,27,9,16,23,,,,,,,4.8,1.6,4.6*0E
2018-01-12 20:01:00 1515805260.208779: $GPZDA,010101.00,13,01,2018,00,00*6F
2018-01-12 20:01:00 1515805260.208952: $GPGGA,010101,3946.9494,N,08404.9559,W,1,06,1.60,302.65,M,-33.324,M,,*7A
2018-01-12 20:01:00 1515805260.209018: $GPRMC,010101,A,3946.9494,N,08404.9559,W,0.2422,273.794,130118,,*3E
2018-01-12 20:01:00 1515805260.209080: $GPGSA,A,3,7,8,27,9,16,23,,,,,,,4.8,1.6,4.6*0E
2018-01-12 20:01:01 1515805261.543566: $GPGSV,3,1,10,07,53,313,27,08,72,141,22,27,50,055,17,09,50,232,18*76
2018-01-12 20:01:01 1515805261.543757: $GPGSV,3,2,10,16,25,058,08,23,32,190,11,30,27,304,00,11,18,168,00*73
2018-01-12 20:01:01 1515805261.543824: $GPGSV,3,3,10,28,12,256,00,120,07,103,00*46
2018-01-12 20:01:01 1515805261.657021: $GPZDA,010102.00,13,01,2018,00,00*6C
2018-01-12 20:01:01 1515805261.657195: $GPGGA,010102,3946.9494,N,08404.9559,W,1,06,1.60,302.65,M,-33.324,M,,*79
2018-01-12 20:01:01 1515805261.657261: $GPRMC,010102,A,3946.9494,N,08404.9559,W,0.5951,238.684,130118,,*3C
2018-01-12 20:01:01 1515805261.657323: $GPGSA,A,3,7,8,27,9,16,23,,,,,,,4.8,1.6,4.6*0E
2018-01-12 20:01:02 1515805262.190608: $GPZDA,010103.00,13,01,2018,00,00*6D
2018-01-12 20:01:02 1515805262.190786: $GPGGA,010103,3946.9491,N,08404.9567,W,1,06,1.60,303.33,M,-33.324,M,,*72
2018-01-12 20:01:02 1515805262.190855: $GPRMC,010103,A,3946.9491,N,08404.9567,W,1.2608,258.042,130118,,*3A
2018-01-12 20:01:02 1515805262.190918: $GPGSA,A,3,7,8,27,9,16,23,,,,,,,4.8,1.6,4.6*0E
2018-01-12 20:01:03 1515805263.207728: $GPZDA,010104.00,13,01,2018,00,00*6A
2018-01-12 20:01:03 1515805263.207913: $GPGGA,010104,3946.9487,N,08404.9567,W,1,06,1.60,302.69,M,-33.324,M,,*7C
2018-01-12 20:01:03 1515805263.207982: $GPRMC,010104,A,3946.9487,N,08404.9567,W,0.8054,248.645,130118,,*3E
2018-01-12 20:01:03 1515805263.208044: $GPGSA,A,3,7,8,27,9,16,23,,,,,,,4.8,1.6,4.6*0E
2018-01-12 20:01:04 1515805264.544000: $GPGSV,3,1,10,07,53,313,27,08,72,141,22,27,50,055,18,09,50,232,17*76
2018-01-12 20:01:04 1515805264.544184: $GPGSV,3,2,10,16,25,058,08,23,32,190,11,30,27,304,00,11,18,168,00*73
2018-01-12 20:01:04 1515805264.544250: $GPGSV,3,3,10,28,12,256,00,120,07,103,00*46
2018-01-12 20:01:04 1515805264.657369: $GPZDA,010105.00,13,01,2018,00,00*6B
2018-01-12 20:01:04 1515805264.657537: $GPGGA,010105,3946.9487,N,08404.9574,W,1,06,1.40,302.62,M,-33.324,M,,*76
2018-01-12 20:01:04 1515805264.657603: $GPRMC,010105,A,3946.9487,N,08404.9574,W,0.4207,219.347,130118,,*36
2018-01-12 20:01:04 1515805264.657665: $GPGSA,A,3,7,8,27,9,16,23,,,,,,,4.8,1.4,4.6*0C
