2017-11-16 14:52:27 1510861947.185613: {"class":"VERSION","release":"3.17","rev":"3.17","proto_major":3,"proto_minor":12}
2017-11-16 14:52:27 1510861947.186137: {"class":"DEVICES","devices":[{"class":"DEVICE","path":"/dev/ttyUSB0","driver":"SiRF","subtype":"9\u0006GSD4e_4.1.2-P1_RPATCH.05-F-GPS-4R-1510281 11/03/2015 307","activated":"2017-11-16T19:52:26.627Z","flags":1,"native":1,"bps":4800,"parity":"N","stopbits":1,"cycle":1.00}]}
2017-11-16 14:52:27 1510861947.186263: {"class":"WATCH","enable":true,"json":false,"nmea":true,"raw":0,"scaled":false,"timing":false,"split24":false,"pps":false}
2017-11-16 14:52:27 1510861947.826235: $GPGSV,3,1,11,08,08,306,34,10,56,315,50,15,22,058,51,18,77,040,45*78
2017-11-16 14:52:27 1510861947.826403: $GPGSV,3,2,11,21,45,183,46,20,19,109,42,24,52,079,50,27,14,271,40*7C
2017-11-16 14:52:27 1510861947.826463: $GPGSV,3,3,11,32,35,252,48,14,18,243,43,138,38,213,44*78
2017-11-16 14:52:27 1510861947.939811: $GPZDA,195226.00,16,11,2017,00,00*6E
2017-11-16 14:52:27 1510861947.939970: $GPGGA,195226,3946.9572,N,08404.9841,W,2,11,0.80,302.62,M,-33.324,M,,*70
2017-11-16 14:52:27 1510861947.940030: $GPRMC,195226,A,3946.9572,N,08404.9841,W,0.0000,0.000,161117,,*38
2017-11-16 14:52:27 1510861947.940085: $GPGSA,A,3,8,10,15,18,21,20,24,27,32,14,138,,1.6,0.8,1.3*37
2017-11-16 14:52:28 1510861948.492018: $GPZDA,195227.00,16,11,2017,00,00*6F
2017-11-16 14:52:28 1510861948.492188: $GPGGA,195227,3946.9572,N,08404.9841,W,2,11,0.80,302.62,M,-33.324,M,,*71
2017-11-16 14:52:28 1510861948.492248: $GPRMC,195227,A,3946.9572,N,08404.9841,W,0.0000,0.000,161117,,*39
2017-11-16 14:52:28 1510861948.492304: $GPGSA,A,3,8,10,15,18,21,20,24,27,32,14,138,,1.6,0.8,1.3*37
2017-11-16 14:52:29 1510861949.491094: $GPZDA,195228.00,16,11,2017,00,00*60
2017-11-16 14:52:29 1510861949.491257: $GPGGA,195228,3946.9572,N,08404.9841,W,2,11,0.80,302.62,M,-33.324,M,,*7E
2017-11-16 14:52:29 1510861949.491318: $GPRMC,195228,A,3946.9572,N,08404.9841,W,0.0000,0.000,161117,,*36
2017-11-16 14:52:29 1510861949.491373: $GPGSA,A,3,8,10,15,18,21,20,24,27,32,14,138,,1.6,0.8,1.3*37
2017-11-16 14:52:30 1510861950.827832: $GPGSV,3,1,11,08,08,306,34,10,56,315,50,15,22,058,51,18,77,040,45*78
2017-11-16 14:52:30 1510861950.827980: $GPGSV,3,2,11,21,45,183,47,20,19,109,42,24,52,079,50,27,14,271,40*7D
2017-11-16 14:52:30 1510861950.828044: $GPGSV,3,3,11,32,35,252,48,14,18,243,43,138,38,213,44*78
2017-11-16 14:52:30 1510861950.941530: $GPZDA,195229.00,16,11,2017,00,00*61
2017-11-16 14:52:30 1510861950.941702: $GPGGA,195229,3946.9572,N,08404.9841,W,2,11,0.80,302.62,M,-33.324,M,,*7F
2017-11-16 14:52:30 1510861950.941764: $GPRMC,195229,A,3946.9572,N,08404.9841,W,0.0000,0.000,161117,,*37
2017-11-16 14:52:30 1510861950.941823: $GPGSA,A,3,8,10,15,18,21,20,24,27,32,14,138,,1.6,0.8,1.3*37
2017-11-16 14:52:31 1510861951.491128: $GPZDA,195230.00,16,11,2017,00,00*69
2017-11-16 14:52:31 1510861951.491290: $GPGGA,195230,3946.9572,N,08404.9841,W,2,11,0.80,302.62,M,-33.324,M,,*77
2017-11-16 14:52:31 1510861951.491353: $GPRMC,195230,A,3946.9572,N,08404.9841,W,0.0000,0.000,161117,,*3F
2017-11-16 14:52:31 1510861951.491412: $GPGSA,A,3,8,10,15,18,21,20,24,27,32,14,138,,1.6,0.8,1.3*37
2017-11-16 14:52:32 1510861952.493531: $GPZDA,195231.00,16,11,2017,00,00*68
2017-11-16 14:52:32 1510861952.493703: $GPGGA,195231,3946.9572,N,08404.9841,W,2,11,0.80,302.62,M,-33.324,M,,*76
2017-11-16 14:52:32 1510861952.493767: $GPRMC,195231,A,3946.9572,N,08404.9841,W,0.0000,0.000,161117,,*3E
2017-11-16 14:52:32 1510861952.493827: $GPGSA,A,3,8,10,15,18,21,20,24,27,32,14,138,,1.6,0.8,1.3*37
2017-11-16 14:52:33 1510861953.827366: $GPGSV,3,1,11,08,08,306,34,10,56,315,50,15,22,058,51,18,77,040,45*78
2017-11-16 14:52:33 1510861953.827541: $GPGSV,3,2,11,21,45,183,47,20,19,109,42,24,52,079,49,27,14,271,41*74
2017-11-16 14:52:33 1510861953.827603: $GPGSV,3,3,11,32,35,252,48,14,18,243,43,138,38,213,44*78
2017-11-16 14:52:33 1510861953.940776: $GPZDA,195232.00,16,11,2017,00,00*6B
2017-11-16 14:52:33 1510861953.940925: $GPGGA,195232,3946.9572,N,08404.9841,W,2,11,0.80,302.62,M,-33.324,M,,*75
2017-11-16 14:52:33 1510861953.941037: $GPRMC,195232,A,3946.9572,N,08404.9841,W,0.0000,0.000,161117,,*3D
2017-11-16 14:52:33 1510861953.941096: $GPGSA,A,3,8,10,15,18,21,20,24,27,32,14,138,,1.6,0.8,1.3*37
2017-11-16 14:52:34 1510861954.566394: $GPZDA,195233.00,16,11,2017,00,00*6A
2017-11-16 14:52:34 1510861954.566560: $GPGGA,195233,3946.9572,N,08404.9841,W,2,11,0.80,302.62,M,-33.324,M,,*74
2017-11-16 14:52:34 1510861954.566620: $GPRMC,195233,A,3946.9572,N,08404.9841,W,0.0000,0.000,161117,,*3C
2017-11-16 14:52:34 1510861954.566675: $GPGSA,A,3,8,10,15,18,21,20,24,27,32,14,138,,1.6,0.8,1.3*37
2017-11-16 14:52:35 1510861955.490685: $GPZDA,195234.00,16,11,2017,00,00*6D
2017-11-16 14:52:35 1510861955.490845: $GPGGA,195234,3946.9572,N,08404.9841,W,2,11,0.80,302.62,M,-33.324,M,,*73
2017-11-16 14:52:35 1510861955.490906: $GPRMC,195234,A,3946.9572,N,08404.9841,W,0.0000,0.000,161117,,*3B
2017-11-16 14:52:35 1510861955.490978: $GPGSA,A,3,8,10,15,18,21,20,24,27,32,14,138,,1.6,0.8,1.3*37
2017-11-16 14:52:36 1510861956.822717: $GPGSV,3,1,11,08,08,306,29,10,56,315,50,15,22,058,50,18,77,040,45*75
2017-11-16 14:52:36 1510861956.822886: $GPGSV,3,2,11,21,45,183,47,20,19,109,42,24,52,079,49,27,14,271,41*74
2017-11-16 14:52:36 1510861956.822947: $GPGSV,3,3,11,32,35,252,48,14,18,243,43,138,38,213,44*78
2017-11-16 14:52:36 1510861956.936012: $GPZDA,195235.00,16,11,2017,00,00*6C
2017-11-16 14:52:36 1510861956.936182: $GPGGA,195235,3946.9572,N,08404.9841,W,2,11,0.80,302.62,M,-33.324,M,,*72
2017-11-16 14:52:36 1510861956.936244: $GPRMC,195235,A,3946.9572,N,08404.9841,W,0.0000,0.000,161117,,*3A
2017-11-16 14:52:36 1510861956.936319: $GPGSA,A,3,8,10,15,18,21,20,24,27,32,14,138,,1.6,0.8,1.3*37
