2017-12-01 15:43:15 1512160995.096846: {"class":"VERSION","release":"3.16","rev":"3.16-4","proto_major":3,"proto_minor":11}
2017-12-01 15:43:15 1512160995.097293: {"class":"DEVICES","devices":[{"class":"DEVICE","path":"/dev/ttyUSB0","driver":"SiRF","subtype":"9\u0006GSD4e_4.1.2-P1_RPATCH.05-F-GPS-4R-1510281 11/03/2015 307","activated":"2017-12-01T20:43:14.530Z","flags":1,"native":1,"bps":4800,"parity":"N","stopbits":1,"cycle":1.00}]}
2017-12-01 15:43:15 1512160995.097410: {"class":"WATCH","enable":true,"json":false,"nmea":true,"raw":0,"scaled":false,"timing":false,"split24":false,"pps":false}
2017-12-01 15:43:15 1512160995.388461: $GPZDA,204316.00,01,12,2017,00,00*62
2017-12-01 15:43:15 1512160995.388637: $GPGGA,204316,3946.9560,N,08404.9829,W,2,12,0.80,303.67,M,-33.324,M,,*73
2017-12-01 15:43:15 1512160995.388704: $GPRMC,204316,A,3946.9560,N,08404.9829,W,0.0000,0.000,011217,,*39
2017-12-01 15:43:15 1512160995.388766: $GPGSA,A,3,1,10,11,12,14,18,24,25,31,32,22,138,2.0,0.8,1.5*3B
2017-12-01 15:43:16 1512160996.725031: $GPGSV,3,1,12,01,13,319,38,10,70,130,47,11,10,301,34,12,25,072,36*7C
2017-12-01 15:43:16 1512160996.725211: $GPGSV,3,2,12,14,54,291,42,18,38,135,46,24,15,045,42,25,29,115,42*7E
2017-12-01 15:43:16 1512160996.725278: $GPGSV,3,3,12,31,34,211,48,32,68,327,49,22,02,310,36,138,38,213,46*43
2017-12-01 15:43:16 1512160996.838639: $GPZDA,204317.00,01,12,2017,00,00*63
2017-12-01 15:43:16 1512160996.838782: $GPGGA,204317,3946.9560,N,08404.9829,W,2,12,0.80,303.67,M,-33.324,M,,*72
2017-12-01 15:43:16 1512160996.838848: $GPRMC,204317,A,3946.9560,N,08404.9829,W,0.0000,0.000,011217,,*38
2017-12-01 15:43:16 1512160996.838910: $GPGSA,A,3,1,10,11,12,14,18,24,25,31,32,22,138,2.0,0.8,1.5*3B
2017-12-01 15:43:17 1512160997.463880: $GPZDA,204318.00,01,12,2017,00,00*6C
2017-12-01 15:43:17 1512160997.464189: $GPGGA,204318,3946.9560,N,08404.9829,W,2,12,0.80,303.67,M,-33.324,M,,*7D
2017-12-01 15:43:17 1512160997.464338: $GPRMC,204318,A,3946.9560,N,08404.9829,W,0.0000,0.000,011217,,*37
2017-12-01 15:43:17 1512160997.464494: $GPGSA,A,3,1,10,11,12,14,18,24,25,31,32,22,138,2.0,0.8,1.5*3B
2017-12-01 15:43:18 1512160998.389657: $GPZDA,204319.00,01,12,2017,00,00*6D
2017-12-01 15:43:18 1512160998.389850: $GPGGA,204319,3946.9560,N,08404.9829,W,2,12,0.80,303.67,M,-33.324,M,,*7C
2017-12-01 15:43:18 1512160998.389919: $GPRMC,204319,A,3946.9560,N,08404.9829,W,0.0000,0.000,011217,,*36
2017-12-01 15:43:18 1512160998.389980: $GPGSA,A,3,1,10,11,12,14,18,24,25,31,32,22,138,2.0,0.8,1.5*3B
2017-12-01 15:43:19 1512160999.704135: $GPGSV,3,1,12,01,13,319,38,10,70,130,47,11,10,301,35,12,25,072,36*7D
2017-12-01 15:43:19 1512160999.704320: $GPGSV,3,2,12,14,54,291,42,18,38,135,46,24,15,045,42,25,29,115,42*7E
2017-12-01 15:43:19 1512160999.704387: $GPGSV,3,3,12,31,34,211,48,32,68,327,49,22,02,310,35,138,38,213,46*40
2017-12-01 15:43:19 1512160999.817532: $GPZDA,204320.00,01,12,2017,00,00*67
2017-12-01 15:43:19 1512160999.817731: $GPGGA,204320,3946.9560,N,08404.9829,W,2,12,0.80,303.67,M,-33.324,M,,*76
2017-12-01 15:43:19 1512160999.817798: $GPRMC,204320,A,3946.9560,N,08404.9829,W,0.0000,0.000,011217,,*3C
2017-12-01 15:43:19 1512160999.817860: $GPGSA,A,3,1,10,11,12,14,18,24,25,31,32,22,138,2.0,0.8,1.5*3B
2017-12-01 15:43:20 1512161000.373409: $GPZDA,204321.00,01,12,2017,00,00*66
2017-12-01 15:43:20 1512161000.373622: $GPGGA,204321,3946.9560,N,08404.9829,W,2,12,0.80,303.67,M,-33.324,M,,*77
2017-12-01 15:43:20 1512161000.373691: $GPRMC,204321,A,3946.9560,N,08404.9829,W,0.0000,0.000,011217,,*3D
2017-12-01 15:43:20 1512161000.373753: $GPGSA,A,3,1,10,11,12,14,18,24,25,31,32,22,138,2.0,0.8,1.5*3B
2017-12-01 15:43:21 1512161001.374132: $GPZDA,204322.00,01,12,2017,00,00*65
2017-12-01 15:43:21 1512161001.374373: $GPGGA,204322,3946.9560,N,08404.9829,W,2,12,0.80,303.67,M,-33.324,M,,*74
2017-12-01 15:43:21 1512161001.374458: $GPRMC,204322,A,3946.9560,N,08404.9829,W,0.0000,0.000,011217,,*3E
2017-12-01 15:43:21 1512161001.374521: $GPGSA,A,3,1,10,11,12,14,18,24,25,31,32,22,138,2.0,0.8,1.5*3B
2017-12-01 15:43:22 1512161002.708248: $GPGSV,3,1,12,01,13,319,37,10,70,130,47,11,10,301,37,12,25,072,36*70
2017-12-01 15:43:22 1512161002.708497: $GPGSV,3,2,12,14,54,291,42,18,38,135,46,24,15,045,42,25,29,115,41*7D
2017-12-01 15:43:22 1512161002.708584: $GPGSV,3,3,12,31,34,211,49,32,68,327,49,22,02,310,34,138,38,213,46*40
2017-12-01 15:43:22 1512161002.821929: $GPZDA,204323.00,01,12,2017,00,00*64
2017-12-01 15:43:22 1512161002.822096: $GPGGA,204323,3946.9560,N,08404.9829,W,2,12,0.80,303.67,M,-33.324,M,,*75
2017-12-01 15:43:22 1512161002.822162: $GPRMC,204323,A,3946.9560,N,08404.9829,W,0.0000,0.000,011217,,*3F
2017-12-01 15:43:22 1512161002.822223: $GPGSA,A,3,1,10,11,12,14,18,24,25,31,32,22,138,2.0,0.8,1.5*3B
2017-12-01 15:43:23 1512161003.372666: $GPZDA,204324.00,01,12,2017,00,00*63
2017-12-01 15:43:23 1512161003.372839: $GPGGA,204324,3946.9560,N,08404.9829,W,2,12,0.80,303.67,M,-33.324,M,,*72
2017-12-01 15:43:23 1512161003.372906: $GPRMC,204324,A,3946.9560,N,08404.9829,W,0.0000,0.000,011217,,*38
2017-12-01 15:43:23 1512161003.372967: $GPGSA,A,3,1,10,11,12,14,18,24,25,31,32,22,138,2.0,0.8,1.5*3B
2017-12-01 15:43:24 1512161004.367501: $GPZDA,204325.00,01,12,2017,00,00*62
2017-12-01 15:43:24 1512161004.367696: $GPGGA,204325,3946.9560,N,08404.9829,W,2,12,0.80,303.67,M,-33.324,M,,*73
2017-12-01 15:43:24 1512161004.367766: $GPRMC,204325,A,3946.9560,N,08404.9829,W,0.0000,0.000,011217,,*39
2017-12-01 15:43:24 1512161004.367827: $GPGSA,A,3,1,10,11,12,14,18,24,25,31,32,22,138,2.0,0.8,1.5*3B
2017-12-01 15:43:25 1512161005.704129: $GPGSV,3,1,12,01,13,319,37,10,70,130,47,11,10,301,37,12,25,072,36*70
2017-12-01 15:43:25 1512161005.704313: $GPGSV,3,2,12,14,54,291,42,18,38,135,46,24,15,045,42,25,29,115,42*7E
2017-12-01 15:43:25 1512161005.704380: $GPGSV,3,3,12,31,34,211,48,32,68,327,49,22,02,310,34,138,38,213,45*42
2017-12-01 15:43:25 1512161005.817698: $GPZDA,204326.00,01,12,2017,00,00*61
2017-12-01 15:43:25 1512161005.817871: $GPGGA,204326,3946.9560,N,08404.9829,W,2,12,0.80,303.67,M,-33.324,M,,*70
2017-12-01 15:43:25 1512161005.817938: $GPRMC,204326,A,3946.9560,N,08404.9829,W,0.0000,0.000,011217,,*3A
2017-12-01 15:43:25 1512161005.818000: $GPGSA,A,3,1,10,11,12,14,18,24,25,31,32,22,138,2.0,0.8,1.5*3B
2017-12-01 15:43:26 1512161006.367301: $GPZDA,204327.00,01,12,2017,00,00*60
2017-12-01 15:43:26 1512161006.367474: $GPGGA,204327,3946.9560,N,08404.9829,W,2,12,0.80,303.67,M,-33.324,M,,*71
2017-12-01 15:43:26 1512161006.367541: $GPRMC,204327,A,3946.9560,N,08404.9829,W,0.0000,0.000,011217,,*3B
2017-12-01 15:43:26 1512161006.367602: $GPGSA,A,3,1,10,11,12,14,18,24,25,31,32,22,138,2.0,0.8,1.5*3B
2017-12-01 15:43:27 1512161007.371537: $GPZDA,204328.00,01,12,2017,00,00*6F
2017-12-01 15:43:27 1512161007.371723: $GPGGA,204328,3946.9560,N,08404.9829,W,2,12,0.80,303.67,M,-33.324,M,,*7E
2017-12-01 15:43:27 1512161007.371791: $GPRMC,204328,A,3946.9560,N,08404.9829,W,0.0000,0.000,011217,,*34
2017-12-01 15:43:27 1512161007.371853: $GPGSA,A,3,1,10,11,12,14,18,24,25,31,32,22,138,2.0,0.8,1.5*3B
2017-12-01 15:43:28 1512161008.708366: $GPGSV,3,1,12,01,13,319,37,10,70,130,47,11,10,301,38,12,25,072,36*7F
2017-12-01 15:43:28 1512161008.708559: $GPGSV,3,2,12,14,54,291,42,18,38,135,47,24,15,045,42,25,29,115,42*7F
2017-12-01 15:43:28 1512161008.708626: $GPGSV,3,3,12,31,34,211,49,32,68,327,49,22,02,310,34,138,38,213,46*40
2017-12-01 15:43:28 1512161008.822002: $GPZDA,204329.00,01,12,2017,00,00*6E
2017-12-01 15:43:28 1512161008.822170: $GPGGA,204329,3946.9560,N,08404.9829,W,2,12,0.80,303.67,M,-33.324,M,,*7F
2017-12-01 15:43:28 1512161008.822236: $GPRMC,204329,A,3946.9560,N,08404.9829,W,0.0000,0.000,011217,,*35
2017-12-01 15:43:28 1512161008.822296: $GPGSA,A,3,1,10,11,12,14,18,24,25,31,32,22,138,2.0,0.8,1.5*3B
2017-12-01 15:43:29 1512161009.372902: $GPZDA,204330.00,01,12,2017,00,00*66
2017-12-01 15:43:29 1512161009.373082: $GPGGA,204330,3946.9560,N,08404.9829,W,2,12,0.80,303.67,M,-33.324,M,,*77
2017-12-01 15:43:29 1512161009.373175: $GPRMC,204330,A,3946.9560,N,08404.9829,W,0.0000,0.000,011217,,*3D
2017-12-01 15:43:29 1512161009.373240: $GPGSA,A,3,1,10,11,12,14,18,24,25,31,32,22,138,2.0,0.8,1.5*3B
2017-12-01 15:43:30 1512161010.373543: $GPZDA,204331.00,01,12,2017,00,00*67
2017-12-01 15:43:30 1512161010.373715: $GPGGA,204331,3946.9560,N,08404.9829,W,2,12,0.80,303.67,M,-33.324,M,,*76
2017-12-01 15:43:30 1512161010.373783: $GPRMC,204331,A,3946.9560,N,08404.9829,W,0.0000,0.000,011217,,*3C
2017-12-01 15:43:30 1512161010.373843: $GPGSA,A,3,1,10,11,12,14,18,24,25,31,32,22,138,2.0,0.8,1.5*3B
2017-12-01 15:43:31 1512161011.707974: $GPGSV,3,1,12,01,13,319,37,10,70,130,47,11,10,301,39,12,25,072,37*7F
2017-12-01 15:43:31 1512161011.708167: $GPGSV,3,2,12,14,54,291,42,18,38,135,47,24,15,045,41,25,29,115,42*7C
2017-12-01 15:43:31 1512161011.708238: $GPGSV,3,3,12,31,34,211,49,32,68,327,49,22,02,310,39,138,38,213,46*4D
2017-12-01 15:43:31 1512161011.821435: $GPZDA,204332.00,01,12,2017,00,00*64
2017-12-01 15:43:31 1512161011.821611: $GPGGA,204332,3946.9560,N,08404.9829,W,2,12,0.80,303.67,M,-33.324,M,,*75
2017-12-01 15:43:31 1512161011.821681: $GPRMC,204332,A,3946.9560,N,08404.9829,W,0.0000,0.000,011217,,*3F
2017-12-01 15:43:31 1512161011.821745: $GPGSA,A,3,1,10,11,12,14,18,24,25,31,32,22,138,2.0,0.8,1.5*3B
2017-12-01 15:43:32 1512161012.446783: $GPZDA,204333.00,01,12,2017,00,00*65
2017-12-01 15:43:32 1512161012.446958: $GPGGA,204333,3946.9560,N,08404.9829,W,2,12,0.80,303.67,M,-33.324,M,,*74
2017-12-01 15:43:32 1512161012.447028: $GPRMC,204333,A,3946.9560,N,08404.9829,W,0.0000,0.000,011217,,*3E
2017-12-01 15:43:32 1512161012.447092: $GPGSA,A,3,1,10,11,12,14,18,24,25,31,32,22,138,2.0,0.8,1.5*3B
2017-12-01 15:43:33 1512161013.373107: $GPZDA,204334.00,01,12,2017,00,00*62
2017-12-01 15:43:33 1512161013.373275: $GPGGA,204334,3946.9560,N,08404.9829,W,2,12,0.80,303.67,M,-33.324,M,,*73
2017-12-01 15:43:33 1512161013.373344: $GPRMC,204334,A,3946.9560,N,08404.9829,W,0.0000,0.000,011217,,*39
2017-12-01 15:43:33 1512161013.373431: $GPGSA,A,3,1,10,11,12,14,18,24,25,31,32,22,138,2.0,0.8,1.5*3B
2017-12-01 15:43:34 1512161014.708435: $GPGSV,3,1,12,01,13,319,37,10,70,130,47,11,10,301,39,12,25,072,38*70
2017-12-01 15:43:34 1512161014.714042: $GPGSV,3,2,12,14,54,291,42,18,38,135,47,24,15,045,41,25,29,115,42*7C
2017-12-01 15:43:34 1512161014.714164: $GPGSV,3,3,12,31,34,211,48,32,68,327,49,22,02,310,38,138,38,213,45*4E
2017-12-01 15:43:34 1512161014.821857: $GPZDA,204335.00,01,12,2017,00,00*63
2017-12-01 15:43:34 1512161014.822033: $GPGGA,204335,3946.9560,N,08404.9829,W,2,12,0.80,303.67,M,-33.324,M,,*72
2017-12-01 15:43:34 1512161014.822102: $GPRMC,204335,A,3946.9560,N,08404.9829,W,0.0000,0.000,011217,,*38
2017-12-01 15:43:34 1512161014.822166: $GPGSA,A,3,1,10,11,12,14,18,24,25,31,32,22,138,2.0,0.8,1.5*3B
