2017-12-01 13:17:36 1512152256.323430: {"class":"VERSION","release":"3.16","rev":"3.16-4","proto_major":3,"proto_minor":11}
2017-12-01 13:17:36 1512152256.323848: {"class":"DEVICES","devices":[{"class":"DEVICE","path":"/dev/ttyUSB0","driver":"SiRF","subtype":"9\u0006GSD4e_4.1.2-P1_RPATCH.05-F-GPS-4R-1510281 11/03/2015 307","activated":"2017-12-01T18:17:36.281Z","flags":1,"native":1,"bps":4800,"parity":"N","stopbits":1,"cycle":1.00}]}
2017-12-01 13:17:36 1512152256.323974: {"class":"WATCH","enable":true,"json":false,"nmea":true,"raw":0,"scaled":false,"timing":false,"split24":false,"pps":false}
2017-12-01 13:17:36 1512152256.730640: $GPGSV,3,1,12,08,06,321,41,10,43,303,46,15,35,052,48,18,72,342,43*70
2017-12-01 13:17:36 1512152256.730826: $GPGSV,3,2,12,20,32,097,46,21,61,187,46,24,51,106,46,27,19,286,40*7E
2017-12-01 13:17:36 1512152256.730892: $GPGSV,3,3,12,32,23,240,43,13,06,049,28,14,06,234,28,138,38,213,46*47
2017-12-01 13:17:36 1512152256.843943: $GPZDA,181737.00,01,12,2017,00,00*6B
2017-12-01 13:17:36 1512152256.844077: $GPGGA,181737,3946.9561,N,08404.9850,W,2,12,0.80,303.43,M,-33.324,M,,*73
2017-12-01 13:17:36 1512152256.844144: $GPRMC,181737,A,3946.9561,N,08404.9850,W,0.0000,0.000,011217,,*3F
2017-12-01 13:17:36 1512152256.844204: $GPGSA,A,3,8,10,15,18,20,21,24,27,32,13,14,138,2.0,0.8,1.5*36
2017-12-01 13:17:37 1512152257.421422: $GPZDA,181738.00,01,12,2017,00,00*64
2017-12-01 13:17:37 1512152257.421609: $GPGGA,181738,3946.9561,N,08404.9850,W,2,12,0.80,303.43,M,-33.324,M,,*7C
2017-12-01 13:17:37 1512152257.421676: $GPRMC,181738,A,3946.9561,N,08404.9850,W,0.0000,0.000,011217,,*30
2017-12-01 13:17:37 1512152257.421736: $GPGSA,A,3,8,10,15,18,20,21,24,27,32,13,14,138,2.0,0.8,1.5*36
2017-12-01 13:17:38 1512152258.413544: $GPZDA,181739.00,01,12,2017,00,00*65
2017-12-01 13:17:38 1512152258.413725: $GPGGA,181739,3946.9561,N,08404.9850,W,2,12,0.80,303.43,M,-33.324,M,,*7D
2017-12-01 13:17:38 1512152258.413792: $GPRMC,181739,A,3946.9561,N,08404.9850,W,0.0000,0.000,011217,,*31
2017-12-01 13:17:38 1512152258.413853: $GPGSA,A,3,8,10,15,18,20,21,24,27,32,13,14,138,2.0,0.8,1.5*36
2017-12-01 13:17:39 1512152259.729031: $GPGSV,3,1,12,08,06,321,40,10,43,303,46,15,35,052,48,18,72,342,43*71
2017-12-01 13:17:39 1512152259.729224: $GPGSV,3,2,12,20,32,097,46,21,61,187,46,24,51,106,46,27,19,286,40*7E
2017-12-01 13:17:39 1512152259.729311: $GPGSV,3,3,12,32,23,240,43,13,06,049,28,14,06,234,26,138,38,213,46*49
2017-12-01 13:17:39 1512152259.842680: $GPZDA,181740.00,01,12,2017,00,00*6B
2017-12-01 13:17:39 1512152259.842842: $GPGGA,181740,3946.9561,N,08404.9850,W,2,12,0.80,303.43,M,-33.324,M,,*73
2017-12-01 13:17:39 1512152259.842908: $GPRMC,181740,A,3946.9561,N,08404.9850,W,0.0000,0.000,011217,,*3F
2017-12-01 13:17:39 1512152259.842990: $GPGSA,A,3,8,10,15,18,20,21,24,27,32,13,14,138,2.0,0.8,1.5*36
2017-12-01 13:17:40 1512152260.467992: $GPZDA,181741.00,01,12,2017,00,00*6A
2017-12-01 13:17:40 1512152260.468165: $GPGGA,181741,3946.9561,N,08404.9850,W,2,12,0.80,303.43,M,-33.324,M,,*72
2017-12-01 13:17:40 1512152260.468231: $GPRMC,181741,A,3946.9561,N,08404.9850,W,0.0000,0.000,011217,,*3E
2017-12-01 13:17:40 1512152260.468292: $GPGSA,A,3,8,10,15,18,20,21,24,27,32,13,14,138,2.0,0.8,1.5*36
2017-12-01 13:17:41 1512152261.414082: $GPZDA,181742.00,01,12,2017,00,00*69
2017-12-01 13:17:41 1512152261.414262: $GPGGA,181742,3946.9561,N,08404.9850,W,2,12,0.80,303.43,M,-33.324,M,,*71
2017-12-01 13:17:41 1512152261.414330: $GPRMC,181742,A,3946.9561,N,08404.9850,W,0.0000,0.000,011217,,*3D
2017-12-01 13:17:41 1512152261.414390: $GPGSA,A,3,8,10,15,18,20,21,24,27,32,13,14,138,2.0,0.8,1.5*36
2017-12-01 13:17:42 1512152262.731861: $GPGSV,3,1,12,08,06,321,39,10,43,303,45,15,35,052,47,18,72,342,43*73
2017-12-01 13:17:42 1512152262.732027: $GPGSV,3,2,12,20,32,097,46,21,61,187,46,24,51,106,46,27,19,286,40*7E
2017-12-01 13:17:42 1512152262.732093: $GPGSV,3,3,12,32,23,240,43,13,06,049,28,14,06,234,25,138,38,213,46*4A
2017-12-01 13:17:42 1512152262.845233: $GPZDA,181743.00,01,12,2017,00,00*68
2017-12-01 13:17:42 1512152262.845408: $GPGGA,181743,3946.9561,N,08404.9850,W,2,12,0.80,303.43,M,-33.324,M,,*70
2017-12-01 13:17:42 1512152262.845526: $GPRMC,181743,A,3946.9561,N,08404.9850,W,0.0000,0.000,011217,,*3C
2017-12-01 13:17:42 1512152262.845588: $GPGSA,A,3,8,10,15,18,20,21,24,27,32,13,14,138,2.0,0.8,1.5*36
2017-12-01 13:17:43 1512152263.411180: $GPZDA,181744.00,01,12,2017,00,00*6F
2017-12-01 13:17:43 1512152263.411422: $GPGGA,181744,3946.9561,N,08404.9850,W,2,12,0.80,303.43,M,-33.324,M,,*77
2017-12-01 13:17:43 1512152263.411502: $GPRMC,181744,A,3946.9561,N,08404.9850,W,0.0000,0.000,011217,,*3B
2017-12-01 13:17:43 1512152263.411564: $GPGSA,A,3,8,10,15,18,20,21,24,27,32,13,14,138,2.0,0.8,1.5*36
2017-12-01 13:17:44 1512152264.395835: $GPZDA,181745.00,01,12,2017,00,00*6E
2017-12-01 13:17:44 1512152264.396021: $GPGGA,181745,3946.9561,N,08404.9850,W,2,12,0.80,303.43,M,-33.324,M,,*76
2017-12-01 13:17:44 1512152264.396092: $GPRMC,181745,A,3946.9561,N,08404.9850,W,0.0000,0.000,011217,,*3A
2017-12-01 13:17:44 1512152264.396157: $GPGSA,A,3,8,10,15,18,20,21,24,27,32,13,14,138,2.0,0.8,1.5*36
2017-12-01 13:17:45 1512152265.729744: $GPGSV,3,1,12,08,06,321,40,10,43,303,45,15,35,052,48,18,72,342,43*72
2017-12-01 13:17:45 1512152265.729929: $GPGSV,3,2,12,20,32,097,46,21,61,187,45,24,51,106,46,27,19,286,39*73
2017-12-01 13:17:45 1512152265.729998: $GPGSV,3,3,12,32,23,240,43,13,06,049,28,14,06,234,00,138,38,213,46*4D
2017-12-01 13:17:45 1512152265.843073: $GPZDA,181746.00,01,12,2017,00,00*6D
2017-12-01 13:17:45 1512152265.843224: $GPGGA,181746,3946.9561,N,08404.9850,W,2,11,0.80,303.43,M,-33.324,M,,*76
2017-12-01 13:17:45 1512152265.843293: $GPRMC,181746,A,3946.9561,N,08404.9850,W,0.0000,0.000,011217,,*39
2017-12-01 13:17:45 1512152265.843356: $GPGSA,A,3,8,10,15,18,20,21,24,27,32,13,138,,2.0,0.8,1.5*33
