2017-11-16 14:55:30 1510862130.636975: {"class":"VERSION","release":"3.17","rev":"3.17","proto_major":3,"proto_minor":12}
2017-11-16 14:55:30 1510862130.637468: {"class":"DEVICES","devices":[{"class":"DEVICE","path":"/dev/ttyUSB0","driver":"SiRF","subtype":"9\u0006GSD4e_4.1.2-P1_RPATCH.05-F-GPS-4R-1510281 11/03/2015 307","activated":"2017-11-16T19:55:30.380Z","flags":1,"native":1,"bps":4800,"parity":"N","stopbits":1,"cycle":1.00}]}
2017-11-16 14:55:30 1510862130.637608: {"class":"WATCH","enable":true,"json":false,"nmea":true,"raw":0,"scaled":false,"timing":false,"split24":false,"pps":false}
2017-11-16 14:55:30 1510862130.828902: $GPGSV,3,1,12,08,08,304,33,10,57,316,51,12,01,117,00,15,21,060,49*75
2017-11-16 14:55:30 1510862130.829071: $GPGSV,3,2,12,18,77,048,45,21,43,181,46,20,18,109,44,24,52,076,48*7E
2017-11-16 14:55:30 1510862130.829131: $GPGSV,3,3,12,27,13,271,43,32,36,252,47,14,19,244,44,138,38,213,44*42
2017-11-16 14:55:30 1510862130.942308: $GPZDA,195529.00,16,11,2017,00,00*66
2017-11-16 14:55:30 1510862130.942523: $GPGGA,195529,3946.9575,N,08404.9848,W,2,11,0.80,301.77,M,-33.324,M,,*71
2017-11-16 14:55:30 1510862130.942595: $GPRMC,195529,A,3946.9575,N,08404.9848,W,0.0000,0.000,161117,,*3E
2017-11-16 14:55:30 1510862130.942673: $GPGSA,A,3,8,10,15,18,21,20,24,27,32,14,138,,1.6,0.8,1.3*37
2017-11-16 14:55:31 1510862131.491876: $GPZDA,195530.00,16,11,2017,00,00*6E
2017-11-16 14:55:31 1510862131.492043: $GPGGA,195530,3946.9575,N,08404.9848,W,2,11,0.80,301.77,M,-33.324,M,,*79
2017-11-16 14:55:31 1510862131.492106: $GPRMC,195530,A,3946.9575,N,08404.9848,W,0.0000,0.000,161117,,*36
2017-11-16 14:55:31 1510862131.492162: $GPGSA,A,3,8,10,15,18,21,20,24,27,32,14,138,,1.6,0.8,1.3*37
2017-11-16 14:55:32 1510862132.486479: $GPZDA,195531.00,16,11,2017,00,00*6F
2017-11-16 14:55:32 1510862132.486644: $GPGGA,195531,3946.9575,N,08404.9848,W,2,11,0.80,301.77,M,-33.324,M,,*78
2017-11-16 14:55:32 1510862132.486704: $GPRMC,195531,A,3946.9575,N,08404.9848,W,0.0000,0.000,161117,,*37
2017-11-16 14:55:32 1510862132.486760: $GPGSA,A,3,8,10,15,18,21,20,24,27,32,14,138,,1.6,0.8,1.3*37
2017-11-16 14:55:33 1510862133.828492: $GPGSV,3,1,12,08,08,304,33,10,57,316,50,12,01,117,00,15,21,060,50*7C
2017-11-16 14:55:33 1510862133.828637: $GPGSV,3,2,12,18,77,048,45,21,43,181,46,20,18,109,44,24,52,076,48*7E
2017-11-16 14:55:33 1510862133.828695: $GPGSV,3,3,12,27,13,271,43,32,36,252,47,14,19,244,44,138,38,213,44*42
2017-11-16 14:55:33 1510862133.942138: $GPZDA,195532.00,16,11,2017,00,00*6C
2017-11-16 14:55:33 1510862133.942300: $GPGGA,195532,3946.9575,N,08404.9848,W,2,11,0.80,301.77,M,-33.324,M,,*7B
2017-11-16 14:55:33 1510862133.942360: $GPRMC,195532,A,3946.9575,N,08404.9848,W,0.0000,0.000,161117,,*34
2017-11-16 14:55:33 1510862133.942415: $GPGSA,A,3,8,10,15,18,21,20,24,27,32,14,138,,1.6,0.8,1.3*37
2017-11-16 14:55:34 1510862134.567227: $GPZDA,195533.00,16,11,2017,00,00*6D
2017-11-16 14:55:34 1510862134.567411: $GPGGA,195533,3946.9575,N,08404.9848,W,2,11,0.80,301.77,M,-33.324,M,,*7A
2017-11-16 14:55:34 1510862134.567513: $GPRMC,195533,A,3946.9575,N,08404.9848,W,0.0000,0.000,161117,,*35
2017-11-16 14:55:34 1510862134.567572: $GPGSA,A,3,8,10,15,18,21,20,24,27,32,14,138,,1.6,0.8,1.3*37
2017-11-16 14:55:35 1510862135.491842: $GPZDA,195534.00,16,11,2017,00,00*6A
2017-11-16 14:55:35 1510862135.492008: $GPGGA,195534,3946.9575,N,08404.9848,W,2,11,0.80,301.77,M,-33.324,M,,*7D
2017-11-16 14:55:35 1510862135.492068: $GPRMC,195534,A,3946.9575,N,08404.9848,W,0.0000,0.000,161117,,*32
2017-11-16 14:55:35 1510862135.492124: $GPGSA,A,3,8,10,15,18,21,20,24,27,32,14,138,,1.6,0.8,1.3*37
2017-11-16 14:55:36 1510862136.838870: $GPGSV,3,1,12,08,08,304,34,10,57,316,50,12,01,117,00,15,21,060,50*7B
2017-11-16 14:55:36 1510862136.839043: $GPGSV,3,2,12,18,77,048,45,21,43,181,45,20,18,109,44,24,52,076,48*7D
2017-11-16 14:55:36 1510862136.839103: $GPGSV,3,3,12,27,13,271,43,32,36,252,47,14,19,244,44,138,38,213,43*45
2017-11-16 14:55:36 1510862136.951070: $GPZDA,195535.00,16,11,2017,00,00*6B
2017-11-16 14:55:36 1510862136.951226: $GPGGA,195535,3946.9575,N,08404.9848,W,2,11,0.80,301.77,M,-33.324,M,,*7C
2017-11-16 14:55:36 1510862136.951338: $GPRMC,195535,A,3946.9575,N,08404.9848,W,0.0000,0.000,161117,,*33
2017-11-16 14:55:36 1510862136.951396: $GPGSA,A,3,8,10,15,18,21,20,24,27,32,14,138,,1.6,0.8,1.3*37
2017-11-16 14:55:37 1510862137.530883: $GPZDA,195536.00,16,11,2017,00,00*68
2017-11-16 14:55:37 1510862137.531063: $GPGGA,195536,3946.9575,N,08404.9848,W,2,11,0.80,301.77,M,-33.324,M,,*7F
2017-11-16 14:55:37 1510862137.531124: $GPRMC,195536,A,3946.9575,N,08404.9848,W,0.0000,0.000,161117,,*30
2017-11-16 14:55:37 1510862137.531180: $GPGSA,A,3,8,10,15,18,21,20,24,27,32,14,138,,1.6,0.8,1.3*37
2017-11-16 14:55:38 1510862138.532786: $GPZDA,195537.00,16,11,2017,00,00*69
2017-11-16 14:55:38 1510862138.532964: $GPGGA,195537,3946.9575,N,08404.9848,W,2,11,0.80,301.77,M,-33.324,M,,*7E
2017-11-16 14:55:38 1510862138.533026: $GPRMC,195537,A,3946.9575,N,08404.9848,W,0.0000,0.000,161117,,*31
2017-11-16 14:55:38 1510862138.533082: $GPGSA,A,3,8,10,15,18,21,20,24,27,32,14,138,,1.6,0.8,1.3*37
2017-11-16 14:55:39 1510862139.866744: $GPGSV,3,1,12,08,08,304,34,10,57,316,50,12,01,117,00,15,21,060,49*73
2017-11-16 14:55:39 1510862139.866955: $GPGSV,3,2,12,18,77,048,45,21,43,181,45,20,18,109,44,24,52,076,47*72
2017-11-16 14:55:39 1510862139.867039: $GPGSV,3,3,12,27,13,271,44,32,36,252,47,14,19,244,44,138,38,213,43*42
2017-11-16 14:55:39 1510862139.980091: $GPZDA,195538.00,16,11,2017,00,00*66
2017-11-16 14:55:39 1510862139.980254: $GPGGA,195538,3946.9575,N,08404.9848,W,2,11,0.80,301.77,M,-33.324,M,,*71
2017-11-16 14:55:39 1510862139.980390: $GPRMC,195538,A,3946.9575,N,08404.9848,W,0.0000,0.000,161117,,*3E
2017-11-16 14:55:39 1510862139.980449: $GPGSA,A,3,8,10,15,18,21,20,24,27,32,14,138,,1.6,0.8,1.3*37
2017-11-16 14:55:40 1510862140.531022: $GPZDA,195539.00,16,11,2017,00,00*67
2017-11-16 14:55:40 1510862140.531186: $GPGGA,195539,3946.9575,N,08404.9848,W,2,11,0.80,301.77,M,-33.324,M,,*70
2017-11-16 14:55:40 1510862140.531247: $GPRMC,195539,A,3946.9575,N,08404.9848,W,0.0000,0.000,161117,,*3F
2017-11-16 14:55:40 1510862140.531317: $GPGSA,A,3,8,10,15,18,21,20,24,27,32,14,138,,1.6,0.8,1.3*37
