2017-11-16 14:47:16 1510861636.360653: {"class":"VERSION","release":"3.17","rev":"3.17","proto_major":3,"proto_minor":12}
2017-11-16 14:47:16 1510861636.361359: {"class":"DEVICES","devices":[{"class":"DEVICE","path":"/dev/ttyUSB0","driver":"SiRF","subtype":"9\u0006GSD4e_4.1.2-P1_RPATCH.05-F-GPS-4R-1510281 11/03/2015 307","activated":"2017-11-16T19:47:16.314Z","flags":1,"native":1,"bps":4800,"parity":"N","stopbits":1,"cycle":1.00}]}
2017-11-16 14:47:16 1510861636.361560: {"class":"WATCH","enable":true,"json":false,"nmea":true,"raw":0,"scaled":false,"timing":false,"split24":false,"pps":false}
2017-11-16 14:47:16 1510861636.492149: $GPZDA,194715.00,16,11,2017,00,00*6A
2017-11-16 14:47:16 1510861636.492309: $GPGGA,194715,3946.9564,N,08404.9842,W,2,11,0.80,302.74,M,-33.324,M,,*77
2017-11-16 14:47:16 1510861636.492369: $GPRMC,194715,A,3946.9564,N,08404.9842,W,0.0000,0.000,161117,,*38
2017-11-16 14:47:16 1510861636.492425: $GPGSA,A,3,8,10,15,18,21,20,24,27,32,14,138,,1.6,0.8,1.3*37
2017-11-16 14:47:17 1510861637.529605: $GPZDA,194716.00,16,11,2017,00,00*69
2017-11-16 14:47:17 1510861637.529828: $GPGGA,194716,3946.9564,N,08404.9842,W,2,11,0.80,302.74,M,-33.324,M,,*74
2017-11-16 14:47:17 1510861637.529893: $GPRMC,194716,A,3946.9564,N,08404.9842,W,0.0000,0.000,161117,,*3B
2017-11-16 14:47:17 1510861637.529955: $GPGSA,A,3,8,10,15,18,21,20,24,27,32,14,138,,1.6,0.8,1.3*37
2017-11-16 14:47:18 1510861638.866284: $GPGSV,3,1,11,08,08,309,35,10,53,313,50,15,25,058,50,18,77,027,45*72
2017-11-16 14:47:18 1510861638.866452: $GPGSV,3,2,11,21,48,183,48,20,22,106,44,24,53,084,50,27,15,274,44*7D
2017-11-16 14:47:18 1510861638.866514: $GPGSV,3,3,11,32,32,249,47,14,16,241,41,138,38,213,44*74
2017-11-16 14:47:18 1510861638.979634: $GPZDA,194717.00,16,11,2017,00,00*68
2017-11-16 14:47:18 1510861638.979800: $GPGGA,194717,3946.9564,N,08404.9842,W,2,11,0.80,302.74,M,-33.324,M,,*75
2017-11-16 14:47:18 1510861638.979861: $GPRMC,194717,A,3946.9564,N,08404.9842,W,0.0000,0.000,161117,,*3A
2017-11-16 14:47:18 1510861638.979919: $GPGSA,A,3,8,10,15,18,21,20,24,27,32,14,138,,1.6,0.8,1.3*37
2017-11-16 14:47:19 1510861639.606300: $GPZDA,194718.00,16,11,2017,00,00*67
2017-11-16 14:47:19 1510861639.606455: $GPGGA,194718,3946.9564,N,08404.9842,W,2,11,0.80,302.74,M,-33.324,M,,*7A
2017-11-16 14:47:19 1510861639.606519: $GPRMC,194718,A,3946.9564,N,08404.9842,W,0.0000,0.000,161117,,*35
2017-11-16 14:47:19 1510861639.606576: $GPGSA,A,3,8,10,15,18,21,20,24,27,32,14,138,,1.6,0.8,1.3*37
2017-11-16 14:47:20 1510861640.531783: $GPZDA,194719.00,16,11,2017,00,00*66
2017-11-16 14:47:20 1510861640.531950: $GPGGA,194719,3946.9564,N,08404.9842,W,2,11,0.80,302.74,M,-33.324,M,,*7B
2017-11-16 14:47:20 1510861640.532015: $GPRMC,194719,A,3946.9564,N,08404.9842,W,0.0000,0.000,161117,,*34
2017-11-16 14:47:20 1510861640.532073: $GPGSA,A,3,8,10,15,18,21,20,24,27,32,14,138,,1.6,0.8,1.3*37
2017-11-16 14:47:21 1510861641.827781: $GPGSV,3,1,11,08,08,309,28,10,53,313,50,15,25,058,50,18,77,027,45*7E
2017-11-16 14:47:21 1510861641.827953: $GPGSV,3,2,11,21,48,183,48,20,22,106,44,24,53,084,50,27,15,274,44*7D
2017-11-16 14:47:21 1510861641.828013: $GPGSV,3,3,11,32,32,249,47,14,16,241,41,138,38,213,43*73
2017-11-16 14:47:21 1510861641.941131: $GPZDA,194720.00,16,11,2017,00,00*6C
2017-11-16 14:47:21 1510861641.941304: $GPGGA,194720,3946.9564,N,08404.9842,W,2,11,0.80,302.74,M,-33.324,M,,*71
2017-11-16 14:47:21 1510861641.941367: $GPRMC,194720,A,3946.9564,N,08404.9842,W,0.0000,0.000,161117,,*3E
2017-11-16 14:47:21 1510861641.941425: $GPGSA,A,3,8,10,15,18,21,20,24,27,32,14,138,,1.6,0.8,1.3*37
2017-11-16 14:47:22 1510861642.491936: $GPZDA,194721.00,16,11,2017,00,00*6D
2017-11-16 14:47:22 1510861642.492104: $GPGGA,194721,3946.9564,N,08404.9842,W,2,11,0.80,302.74,M,-33.324,M,,*70
2017-11-16 14:47:22 1510861642.492167: $GPRMC,194721,A,3946.9564,N,08404.9842,W,0.0000,0.000,161117,,*3F
2017-11-16 14:47:22 1510861642.492223: $GPGSA,A,3,8,10,15,18,21,20,24,27,32,14,138,,1.6,0.8,1.3*37
2017-11-16 14:47:23 1510861643.492512: $GPZDA,194722.00,16,11,2017,00,00*6E
2017-11-16 14:47:23 1510861643.492693: $GPGGA,194722,3946.9564,N,08404.9842,W,2,11,0.80,302.74,M,-33.324,M,,*73
2017-11-16 14:47:23 1510861643.492817: $GPRMC,194722,A,3946.9564,N,08404.9842,W,0.0000,0.000,161117,,*3C
2017-11-16 14:47:23 1510861643.492880: $GPGSA,A,3,8,10,15,18,21,20,24,27,32,14,138,,1.6,0.8,1.3*37
2017-11-16 14:47:24 1510861644.861810: $GPGSV,3,1,11,08,08,309,28,10,53,313,50,15,25,058,50,18,77,027,45*7E
2017-11-16 14:47:24 1510861644.861988: $GPGSV,3,2,11,21,48,183,48,20,22,106,44,24,53,084,49,27,15,274,44*75
2017-11-16 14:47:24 1510861644.862048: $GPGSV,3,3,11,32,32,249,47,14,16,241,41,138,38,213,43*73
2017-11-16 14:47:24 1510861644.975214: $GPZDA,194723.00,16,11,2017,00,00*6F
2017-11-16 14:47:24 1510861644.975408: $GPGGA,194723,3946.9564,N,08404.9842,W,2,11,0.80,302.74,M,-33.324,M,,*72
2017-11-16 14:47:24 1510861644.975473: $GPRMC,194723,A,3946.9564,N,08404.9842,W,0.0000,0.000,161117,,*3D
2017-11-16 14:47:24 1510861644.975533: $GPGSA,A,3,8,10,15,18,21,20,24,27,32,14,138,,1.6,0.8,1.3*37
2017-11-16 14:47:25 1510861645.486010: $GPZDA,194724.00,16,11,2017,00,00*68
2017-11-16 14:47:25 1510861645.486189: $GPGGA,194724,3946.9564,N,08404.9842,W,2,11,0.80,302.74,M,-33.324,M,,*75
2017-11-16 14:47:25 1510861645.486250: $GPRMC,194724,A,3946.9564,N,08404.9842,W,0.0000,0.000,161117,,*3A
2017-11-16 14:47:25 1510861645.486306: $GPGSA,A,3,8,10,15,18,21,20,24,27,32,14,138,,1.6,0.8,1.3*37
