2017-12-01 17:08:42 1512166122.067459: {"class":"VERSION","release":"3.16","rev":"3.16-4","proto_major":3,"proto_minor":11}
2017-12-01 17:08:42 1512166122.067920: {"class":"DEVICES","devices":[{"class":"DEVICE","path":"/dev/ttyUSB0","driver":"SiRF","subtype":"9\u0006GSD4e_4.1.2-P1_RPATCH.05-F-GPS-4R-1510281 11/03/2015 307","activated":"2017-12-01T22:08:41.612Z","flags":1,"native":1,"bps":4800,"parity":"N","stopbits":1,"cycle":1.00}]}
2017-12-01 17:08:42 1512166122.068053: {"class":"WATCH","enable":true,"json":false,"nmea":true,"raw":0,"scaled":false,"timing":false,"split24":false,"pps":false}
2017-12-01 17:08:42 1512166122.471476: $GPZDA,220843.00,01,12,2017,00,00*6F
2017-12-01 17:08:42 1512166122.471652: $GPGGA,220843,3946.9667,N,08404.9732,W,2,12,0.80,297.13,M,-33.324,M,,*70
2017-12-01 17:08:42 1512166122.471741: $GPRMC,220843,A,3946.9667,N,08404.9732,W,0.0000,0.000,011217,,*35
2017-12-01 17:08:42 1512166122.471804: $GPGSA,A,3,1,3,10,14,22,26,31,32,11,12,25,138,2.0,0.8,1.5*03
2017-12-01 17:08:43 1512166123.786003: $GPGSV,3,1,12,01,21,283,39,03,14,316,42,10,30,154,36,14,70,013,45*7B
2017-12-01 17:08:43 1512166123.786185: $GPGSV,3,2,12,22,33,307,46,26,18,180,38,31,73,250,47,32,60,066,49*7A
2017-12-01 17:08:43 1512166123.786251: $GPGSV,3,3,12,11,02,268,29,12,13,037,19,25,39,067,31,138,38,213,36*48
2017-12-01 17:08:43 1512166123.899853: $GPZDA,220844.00,01,12,2017,00,00*68
2017-12-01 17:08:43 1512166123.900022: $GPGGA,220844,3946.9667,N,08404.9732,W,2,12,0.80,297.13,M,-33.324,M,,*77
2017-12-01 17:08:43 1512166123.900089: $GPRMC,220844,A,3946.9667,N,08404.9732,W,0.0000,0.000,011217,,*32
2017-12-01 17:08:43 1512166123.900150: $GPGSA,A,3,1,3,10,14,22,26,31,32,11,12,25,138,2.0,0.8,1.5*03
2017-12-01 17:08:44 1512166124.524707: $GPZDA,220845.00,01,12,2017,00,00*69
2017-12-01 17:08:44 1512166124.524898: $GPGGA,220845,3946.9667,N,08404.9732,W,2,12,0.80,297.13,M,-33.324,M,,*76
2017-12-01 17:08:44 1512166124.524966: $GPRMC,220845,A,3946.9667,N,08404.9732,W,0.0000,0.000,011217,,*33
2017-12-01 17:08:44 1512166124.525027: $GPGSA,A,3,1,3,10,14,22,26,31,32,11,12,25,138,2.0,0.8,1.5*03
2017-12-01 17:08:45 1512166125.472233: $GPZDA,220846.00,01,12,2017,00,00*6A
2017-12-01 17:08:45 1512166125.472436: $GPGGA,220846,3946.9667,N,08404.9732,W,2,12,0.80,297.13,M,-33.324,M,,*75
2017-12-01 17:08:45 1512166125.472504: $GPRMC,220846,A,3946.9667,N,08404.9732,W,0.0000,0.000,011217,,*30
2017-12-01 17:08:45 1512166125.472566: $GPGSA,A,3,1,3,10,14,22,26,31,32,11,12,25,138,2.0,0.8,1.5*03
2017-12-01 17:08:46 1512166126.806283: $GPGSV,3,1,12,01,21,283,39,03,14,316,42,10,30,154,37,14,70,013,45*7A
2017-12-01 17:08:46 1512166126.806468: $GPGSV,3,2,12,22,33,307,46,26,18,180,36,31,73,250,47,32,60,066,49*74
2017-12-01 17:08:46 1512166126.806538: $GPGSV,3,3,12,11,02,268,29,12,13,037,20,25,39,067,31,138,38,213,39*4D
2017-12-01 17:08:46 1512166126.919744: $GPZDA,220847.00,01,12,2017,00,00*6B
2017-12-01 17:08:46 1512166126.919901: $GPGGA,220847,3946.9667,N,08404.9732,W,2,12,0.80,297.13,M,-33.324,M,,*74
2017-12-01 17:08:46 1512166126.919989: $GPRMC,220847,A,3946.9667,N,08404.9732,W,0.0000,0.000,011217,,*31
2017-12-01 17:08:46 1512166126.920052: $GPGSA,A,3,1,3,10,14,22,26,31,32,11,12,25,138,2.0,0.8,1.5*03
2017-12-01 17:08:47 1512166127.472211: $GPZDA,220848.00,01,12,2017,00,00*64
2017-12-01 17:08:47 1512166127.472460: $GPGGA,220848,3946.9667,N,08404.9732,W,2,12,0.80,297.13,M,-33.324,M,,*7B
2017-12-01 17:08:47 1512166127.472530: $GPRMC,220848,A,3946.9667,N,08404.9732,W,0.0000,0.000,011217,,*3E
2017-12-01 17:08:47 1512166127.472592: $GPGSA,A,3,1,3,10,14,22,26,31,32,11,12,25,138,2.0,0.8,1.5*03
2017-12-01 17:08:48 1512166128.471520: $GPZDA,220849.00,01,12,2017,00,00*65
2017-12-01 17:08:48 1512166128.471703: $GPGGA,220849,3946.9667,N,08404.9732,W,2,12,0.80,297.13,M,-33.324,M,,*7A
2017-12-01 17:08:48 1512166128.471771: $GPRMC,220849,A,3946.9667,N,08404.9732,W,0.0000,0.000,011217,,*3F
2017-12-01 17:08:48 1512166128.471836: $GPGSA,A,3,1,3,10,14,22,26,31,32,11,12,25,138,2.0,0.8,1.5*03
2017-12-01 17:08:49 1512166129.790458: $GPGSV,3,1,12,01,21,283,38,03,14,316,42,10,30,154,36,14,70,013,46*79
2017-12-01 17:08:49 1512166129.790715: $GPGSV,3,2,12,22,33,307,46,26,18,180,33,31,73,250,47,32,60,066,49*71
2017-12-01 17:08:49 1512166129.790790: $GPGSV,3,3,12,11,02,268,29,12,13,037,21,25,39,067,31,138,38,213,39*4C
2017-12-01 17:08:49 1512166129.904246: $GPZDA,220850.00,01,12,2017,00,00*6D
2017-12-01 17:08:49 1512166129.904427: $GPGGA,220850,3946.9667,N,08404.9732,W,2,12,0.80,297.13,M,-33.324,M,,*72
2017-12-01 17:08:49 1512166129.904496: $GPRMC,220850,A,3946.9667,N,08404.9732,W,0.0000,0.000,011217,,*37
2017-12-01 17:08:49 1512166129.904561: $GPGSA,A,3,1,3,10,14,22,26,31,32,11,12,25,138,2.0,0.8,1.5*03
2017-12-01 17:08:50 1512166130.456695: $GPZDA,220851.00,01,12,2017,00,00*6C
2017-12-01 17:08:50 1512166130.456878: $GPGGA,220851,3946.9667,N,08404.9732,W,2,12,0.80,297.13,M,-33.324,M,,*73
2017-12-01 17:08:50 1512166130.456946: $GPRMC,220851,A,3946.9667,N,08404.9732,W,0.0000,0.000,011217,,*36
2017-12-01 17:08:50 1512166130.457008: $GPGSA,A,3,1,3,10,14,22,26,31,32,11,12,25,138,2.0,0.8,1.5*03
2017-12-01 17:08:51 1512166131.455937: $GPZDA,220852.00,01,12,2017,00,00*6F
2017-12-01 17:08:51 1512166131.456113: $GPGGA,220852,3946.9667,N,08404.9732,W,2,12,0.80,297.13,M,-33.324,M,,*70
2017-12-01 17:08:51 1512166131.456182: $GPRMC,220852,A,3946.9667,N,08404.9732,W,0.0000,0.000,011217,,*35
2017-12-01 17:08:51 1512166131.456243: $GPGSA,A,3,1,3,10,14,22,26,31,32,11,12,25,138,2.0,0.8,1.5*03
2017-12-01 17:08:52 1512166132.790072: $GPGSV,3,1,12,01,21,283,38,03,14,316,42,10,30,154,36,14,70,013,46*79
2017-12-01 17:08:52 1512166132.790254: $GPGSV,3,2,12,22,33,307,46,26,18,180,34,31,73,250,47,32,60,066,49*76
2017-12-01 17:08:52 1512166132.790321: $GPGSV,3,3,12,11,02,268,29,12,13,037,22,25,39,067,31,138,38,213,39*4F
2017-12-01 17:08:52 1512166132.903723: $GPZDA,220853.00,01,12,2017,00,00*6E
2017-12-01 17:08:52 1512166132.903899: $GPGGA,220853,3946.9667,N,08404.9732,W,2,12,0.80,297.13,M,-33.324,M,,*71
2017-12-01 17:08:52 1512166132.903967: $GPRMC,220853,A,3946.9667,N,08404.9732,W,0.0000,0.000,011217,,*34
2017-12-01 17:08:52 1512166132.904029: $GPGSA,A,3,1,3,10,14,22,26,31,32,11,12,25,138,2.0,0.8,1.5*03
2017-12-01 17:08:53 1512166133.454249: $GPZDA,220854.00,01,12,2017,00,00*69
2017-12-01 17:08:53 1512166133.454427: $GPGGA,220854,3946.9667,N,08404.9732,W,2,12,0.80,297.13,M,-33.324,M,,*76
2017-12-01 17:08:53 1512166133.454494: $GPRMC,220854,A,3946.9667,N,08404.9732,W,0.0000,0.000,011217,,*33
2017-12-01 17:08:53 1512166133.454556: $GPGSA,A,3,1,3,10,14,22,26,31,32,11,12,25,138,2.0,0.8,1.5*03
2017-12-01 17:08:54 1512166134.448458: $GPZDA,220855.00,01,12,2017,00,00*68
2017-12-01 17:08:54 1512166134.448634: $GPGGA,220855,3946.9667,N,08404.9732,W,2,12,0.80,297.13,M,-33.324,M,,*77
2017-12-01 17:08:54 1512166134.448702: $GPRMC,220855,A,3946.9667,N,08404.9732,W,0.0000,0.000,011217,,*32
2017-12-01 17:08:54 1512166134.448767: $GPGSA,A,3,1,3,10,14,22,26,31,32,11,12,25,138,2.0,0.8,1.5*03
2017-12-01 17:08:55 1512166135.790379: $GPGSV,3,1,12,01,21,283,38,03,14,316,43,10,30,154,36,14,70,013,46*78
2017-12-01 17:08:55 1512166135.790567: $GPGSV,3,2,12,22,33,307,45,26,18,180,34,31,73,250,47,32,60,066,49*75
2017-12-01 17:08:55 1512166135.790637: $GPGSV,3,3,12,11,02,268,29,12,13,037,23,25,39,067,26,138,38,213,38*49
2017-12-01 17:08:55 1512166135.903870: $GPZDA,220856.00,01,12,2017,00,00*6B
2017-12-01 17:08:55 1512166135.904046: $GPGGA,220856,3946.9667,N,08404.9732,W,2,12,0.80,297.13,M,-33.324,M,,*74
2017-12-01 17:08:55 1512166135.904115: $GPRMC,220856,A,3946.9667,N,08404.9732,W,0.0000,0.000,011217,,*31
2017-12-01 17:08:55 1512166135.904176: $GPGSA,A,3,1,3,10,14,22,26,31,32,11,12,25,138,2.0,0.8,1.5*03
2017-12-01 17:08:56 1512166136.455045: $GPZDA,220857.00,01,12,2017,00,00*6A
2017-12-01 17:08:56 1512166136.455263: $GPGGA,220857,3946.9667,N,08404.9732,W,2,12,0.80,297.13,M,-33.324,M,,*75
2017-12-01 17:08:56 1512166136.455352: $GPRMC,220857,A,3946.9667,N,08404.9732,W,0.0000,0.000,011217,,*30
2017-12-01 17:08:56 1512166136.455417: $GPGSA,A,3,1,3,10,14,22,26,31,32,11,12,25,138,2.0,0.8,1.5*03
2017-12-01 17:08:57 1512166137.456113: $GPZDA,220858.00,01,12,2017,00,00*65
2017-12-01 17:08:57 1512166137.456300: $GPGGA,220858,3946.9667,N,08404.9732,W,2,12,0.80,297.13,M,-33.324,M,,*7A
2017-12-01 17:08:57 1512166137.456371: $GPRMC,220858,A,3946.9667,N,08404.9732,W,0.0000,0.000,011217,,*3F
2017-12-01 17:08:57 1512166137.456435: $GPGSA,A,3,1,3,10,14,22,26,31,32,11,12,25,138,2.0,0.8,1.5*03
2017-12-01 17:08:58 1512166138.788749: $GPGSV,3,1,12,01,21,283,39,03,14,316,42,10,30,154,37,14,70,013,45*7A
2017-12-01 17:08:58 1512166138.788932: $GPGSV,3,2,12,22,33,307,45,26,18,180,34,31,73,250,47,32,60,066,49*75
2017-12-01 17:08:58 1512166138.789000: $GPGSV,3,3,12,11,02,268,27,12,13,037,24,25,39,067,26,138,38,213,40*4F
2017-12-01 17:08:58 1512166138.902211: $GPZDA,220859.00,01,12,2017,00,00*64
2017-12-01 17:08:58 1512166138.902383: $GPGGA,220859,3946.9667,N,08404.9732,W,2,12,0.80,297.13,M,-33.324,M,,*7B
2017-12-01 17:08:58 1512166138.902450: $GPRMC,220859,A,3946.9667,N,08404.9732,W,0.0000,0.000,011217,,*3E
2017-12-01 17:08:58 1512166138.902513: $GPGSA,A,3,1,3,10,14,22,26,31,32,11,12,25,138,2.0,0.8,1.5*03
2017-12-01 17:08:59 1512166139.527908: $GPZDA,220900.00,01,12,2017,00,00*69
2017-12-01 17:08:59 1512166139.528079: $GPGGA,220900,3946.9667,N,08404.9732,W,2,12,0.80,297.13,M,-33.324,M,,*76
2017-12-01 17:08:59 1512166139.528147: $GPRMC,220900,A,3946.9667,N,08404.9732,W,0.0000,0.000,011217,,*33
2017-12-01 17:08:59 1512166139.528209: $GPGSA,A,3,1,3,10,14,22,26,31,32,11,12,25,138,2.0,0.8,1.5*03
2017-12-01 17:09:00 1512166140.450032: $GPZDA,220901.00,01,12,2017,00,00*68
2017-12-01 17:09:00 1512166140.450203: $GPGGA,220901,3946.9667,N,08404.9732,W,2,12,0.80,297.13,M,-33.324,M,,*77
2017-12-01 17:09:00 1512166140.450271: $GPRMC,220901,A,3946.9667,N,08404.9732,W,0.0000,0.000,011217,,*32
2017-12-01 17:09:00 1512166140.450332: $GPGSA,A,3,1,3,10,14,22,26,31,32,11,12,25,138,2.0,0.8,1.5*03
2017-12-01 17:09:01 1512166141.790490: $GPGSV,3,1,12,01,21,283,39,03,14,316,42,10,30,154,37,14,70,013,46*79
2017-12-01 17:09:01 1512166141.790677: $GPGSV,3,2,12,22,33,307,46,26,18,180,34,31,73,250,47,32,60,066,49*76
2017-12-01 17:09:01 1512166141.790748: $GPGSV,3,3,12,11,02,268,27,12,13,037,25,25,39,067,22,138,38,213,40*4A
2017-12-01 17:09:01 1512166141.903840: $GPZDA,220902.00,01,12,2017,00,00*6B
2017-12-01 17:09:01 1512166141.904017: $GPGGA,220902,3946.9662,N,08404.9732,W,2,11,0.80,296.49,M,-33.324,M,,*7C
2017-12-01 17:09:01 1512166141.904085: $GPRMC,220902,A,3946.9662,N,08404.9732,W,0.0000,0.000,011217,,*34
2017-12-01 17:09:01 1512166141.904146: $GPGSA,A,3,1,3,10,14,22,26,31,32,11,12,138,,2.0,0.8,1.5*04
