2017-12-01 16:30:46 1512163846.977458: {"class":"VERSION","release":"3.16","rev":"3.16-4","proto_major":3,"proto_minor":11}
2017-12-01 16:30:46 1512163846.977832: {"class":"DEVICES","devices":[{"class":"DEVICE","path":"/dev/ttyUSB0","driver":"SiRF","subtype":"9\u0006GSD4e_4.1.2-P1_RPATCH.05-F-GPS-4R-1510281 11/03/2015 307","activated":"2017-12-01T21:30:46.517Z","flags":1,"native":1,"bps":4800,"parity":"N","stopbits":1,"cycle":1.00}]}
2017-12-01 16:30:46 1512163846.977946: {"class":"WATCH","enable":true,"json":false,"nmea":true,"raw":0,"scaled":false,"timing":false,"split24":false,"pps":false}
2017-12-01 16:30:47 1512163847.374058: $GPZDA,213048.00,01,12,2017,00,00*6C
2017-12-01 16:30:47 1512163847.374235: $GPGGA,213048,3946.9653,N,08404.9717,W,2,11,1.20,293.97,M,-33.324,M,,*73
2017-12-01 16:30:47 1512163847.374301: $GPRMC,213048,A,3946.9653,N,08404.9717,W,0.0000,0.000,011217,,*36
2017-12-01 16:30:47 1512163847.374363: $GPGSA,A,3,1,10,11,14,22,31,32,18,25,26,138,,2.0,1.2,1.5*31
2017-12-01 16:30:48 1512163848.710466: $GPGSV,3,1,12,01,21,300,42,10,48,148,44,11,08,282,38,14,66,328,44*78
2017-12-01 16:30:48 1512163848.710666: $GPGSV,3,2,12,22,19,312,42,31,56,225,49,32,68,030,49,18,18,144,24*7A
2017-12-01 16:30:48 1512163848.710734: $GPGSV,3,3,12,25,40,090,30,26,03,183,31,12,22,049,14,138,38,213,35*40
2017-12-01 16:30:48 1512163848.823999: $GPZDA,213049.00,01,12,2017,00,00*6D
2017-12-01 16:30:48 1512163848.824169: $GPGGA,213049,3946.9653,N,08404.9717,W,2,11,1.20,293.97,M,-33.324,M,,*72
2017-12-01 16:30:48 1512163848.824236: $GPRMC,213049,A,3946.9653,N,08404.9717,W,0.0000,0.000,011217,,*37
2017-12-01 16:30:48 1512163848.824297: $GPGSA,A,3,1,10,11,14,22,31,32,18,25,26,138,,2.0,1.2,1.5*31
2017-12-01 16:30:49 1512163849.376007: $GPZDA,213050.00,01,12,2017,00,00*65
2017-12-01 16:30:49 1512163849.376181: $GPGGA,213050,3946.9653,N,08404.9717,W,2,11,0.80,293.97,M,-33.324,M,,*71
2017-12-01 16:30:49 1512163849.376248: $GPRMC,213050,A,3946.9653,N,08404.9717,W,0.0000,0.000,011217,,*3F
2017-12-01 16:30:49 1512163849.376308: $GPGSA,A,3,1,10,11,14,22,31,32,18,25,26,138,,2.0,0.8,1.5*3A
2017-12-01 16:30:50 1512163850.376935: $GPZDA,213051.00,01,12,2017,00,00*64
2017-12-01 16:30:50 1512163850.377092: $GPGGA,213051,3946.9653,N,08404.9717,W,2,11,0.80,293.97,M,-33.324,M,,*70
2017-12-01 16:30:50 1512163850.377157: $GPRMC,213051,A,3946.9653,N,08404.9717,W,0.0000,0.000,011217,,*3E
2017-12-01 16:30:50 1512163850.377218: $GPGSA,A,3,1,10,11,14,22,31,32,18,25,26,138,,2.0,0.8,1.5*3A
2017-12-01 16:30:51 1512163851.730106: $GPGSV,3,1,12,01,21,300,42,10,48,148,44,11,08,282,37,14,66,328,44*77
2017-12-01 16:30:51 1512163851.730294: $GPGSV,3,2,12,22,19,312,42,31,56,225,50,32,68,030,49,18,18,144,24*72
2017-12-01 16:30:51 1512163851.730361: $GPGSV,3,3,12,25,40,090,30,26,03,183,31,12,22,049,22,138,38,213,38*48
2017-12-01 16:30:51 1512163851.843474: $GPZDA,213052.00,01,12,2017,00,00*67
2017-12-01 16:30:51 1512163851.843655: $GPGGA,213052,3946.9653,N,08404.9717,W,2,12,0.80,293.97,M,-33.324,M,,*70
2017-12-01 16:30:51 1512163851.843723: $GPRMC,213052,A,3946.9653,N,08404.9717,W,0.0000,0.000,011217,,*3D
2017-12-01 16:30:51 1512163851.843801: $GPGSA,A,3,1,10,11,14,22,31,32,18,25,26,12,138,2.0,0.8,1.5*39
2017-12-01 16:30:52 1512163852.394365: $GPZDA,213053.00,01,12,2017,00,00*66
2017-12-01 16:30:52 1512163852.394539: $GPGGA,213053,3946.9653,N,08404.9717,W,2,12,0.80,293.97,M,-33.324,M,,*71
2017-12-01 16:30:52 1512163852.394628: $GPRMC,213053,A,3946.9653,N,08404.9717,W,0.0000,0.000,011217,,*3C
2017-12-01 16:30:52 1512163852.394691: $GPGSA,A,3,1,10,11,14,22,31,32,18,25,26,12,138,2.0,0.8,1.5*39
2017-12-01 16:30:53 1512163853.394791: $GPZDA,213054.00,01,12,2017,00,00*61
2017-12-01 16:30:53 1512163853.394964: $GPGGA,213054,3946.9653,N,08404.9717,W,2,12,0.80,293.97,M,-33.324,M,,*76
2017-12-01 16:30:53 1512163853.395029: $GPRMC,213054,A,3946.9653,N,08404.9717,W,0.0000,0.000,011217,,*3B
2017-12-01 16:30:53 1512163853.395090: $GPGSA,A,3,1,10,11,14,22,31,32,18,25,26,12,138,2.0,0.8,1.5*39
2017-12-01 16:30:54 1512163854.722946: $GPGSV,3,1,12,01,21,300,42,10,48,148,44,11,08,282,38,14,66,328,44*78
2017-12-01 16:30:54 1512163854.723178: $GPGSV,3,2,12,22,19,312,42,31,56,225,49,32,68,030,49,18,18,144,23*7D
2017-12-01 16:30:54 1512163854.723247: $GPGSV,3,3,12,25,40,090,30,26,03,183,31,12,22,049,23,138,38,213,39*48
2017-12-01 16:30:54 1512163854.836325: $GPZDA,213055.00,01,12,2017,00,00*60
2017-12-01 16:30:54 1512163854.836493: $GPGGA,213055,3946.9653,N,08404.9717,W,2,12,0.80,293.97,M,-33.324,M,,*77
2017-12-01 16:30:54 1512163854.836559: $GPRMC,213055,A,3946.9653,N,08404.9717,W,0.0000,0.000,011217,,*3A
2017-12-01 16:30:54 1512163854.836643: $GPGSA,A,3,1,10,11,14,22,31,32,18,25,26,12,138,2.0,0.8,1.5*39
2017-12-01 16:30:55 1512163855.395979: $GPZDA,213056.00,01,12,2017,00,00*63
2017-12-01 16:30:55 1512163855.396146: $GPGGA,213056,3946.9653,N,08404.9717,W,2,12,0.80,293.97,M,-33.324,M,,*74
2017-12-01 16:30:55 1512163855.396212: $GPRMC,213056,A,3946.9653,N,08404.9717,W,0.0000,0.000,011217,,*39
2017-12-01 16:30:55 1512163855.396273: $GPGSA,A,3,1,10,11,14,22,31,32,18,25,26,12,138,2.0,0.8,1.5*39
2017-12-01 16:30:56 1512163856.378081: $GPZDA,213057.00,01,12,2017,00,00*62
2017-12-01 16:30:56 1512163856.378251: $GPGGA,213057,3946.9653,N,08404.9717,W,2,12,0.80,293.97,M,-33.324,M,,*75
2017-12-01 16:30:56 1512163856.378317: $GPRMC,213057,A,3946.9653,N,08404.9717,W,0.0000,0.000,011217,,*38
2017-12-01 16:30:56 1512163856.378378: $GPGSA,A,3,1,10,11,14,22,31,32,18,25,26,12,138,2.0,0.8,1.5*39
2017-12-01 16:30:57 1512163857.713934: $GPGSV,3,1,12,01,21,300,42,10,48,148,44,11,08,282,39,14,66,328,43*7E
2017-12-01 16:30:57 1512163857.714118: $GPGSV,3,2,12,22,19,312,42,31,56,225,49,32,68,030,49,18,18,144,23*7D
2017-12-01 16:30:57 1512163857.714184: $GPGSV,3,3,12,25,40,090,30,26,03,183,32,12,22,049,24,138,38,213,39*4C
2017-12-01 16:30:57 1512163857.827190: $GPZDA,213058.00,01,12,2017,00,00*6D
2017-12-01 16:30:57 1512163857.827362: $GPGGA,213058,3946.9653,N,08404.9717,W,2,12,0.80,293.97,M,-33.324,M,,*7A
2017-12-01 16:30:57 1512163857.827428: $GPRMC,213058,A,3946.9653,N,08404.9717,W,0.0000,0.000,011217,,*37
2017-12-01 16:30:57 1512163857.827489: $GPGSA,A,3,1,10,11,14,22,31,32,18,25,26,12,138,2.0,0.8,1.5*39
2017-12-01 16:30:58 1512163858.452613: $GPZDA,213059.00,01,12,2017,00,00*6C
2017-12-01 16:30:58 1512163858.452799: $GPGGA,213059,3946.9653,N,08404.9717,W,2,12,0.80,293.97,M,-33.324,M,,*7B
2017-12-01 16:30:58 1512163858.452865: $GPRMC,213059,A,3946.9653,N,08404.9717,W,0.0000,0.000,011217,,*36
2017-12-01 16:30:58 1512163858.452926: $GPGSA,A,3,1,10,11,14,22,31,32,18,25,26,12,138,2.0,0.8,1.5*39
2017-12-01 16:30:59 1512163859.394722: $GPZDA,213100.00,01,12,2017,00,00*61
2017-12-01 16:30:59 1512163859.394894: $GPGGA,213100,3946.9653,N,08404.9717,W,2,12,0.80,293.97,M,-33.324,M,,*76
2017-12-01 16:30:59 1512163859.394959: $GPRMC,213100,A,3946.9653,N,08404.9717,W,0.0000,0.000,011217,,*3B
2017-12-01 16:30:59 1512163859.395020: $GPGSA,A,3,1,10,11,14,22,31,32,18,25,26,12,138,2.0,0.8,1.5*39
2017-12-01 16:31:00 1512163860.724179: $GPGSV,3,1,12,01,21,300,42,10,48,148,44,11,08,282,38,14,66,328,43*7F
2017-12-01 16:31:00 1512163860.724363: $GPGSV,3,2,12,22,19,312,43,31,56,225,50,32,68,030,49,18,18,144,23*74
2017-12-01 16:31:00 1512163860.724429: $GPGSV,3,3,12,25,40,090,31,26,03,183,33,12,22,049,25,138,38,213,38*4C
2017-12-01 16:31:00 1512163860.837752: $GPZDA,213101.00,01,12,2017,00,00*60
2017-12-01 16:31:00 1512163860.837921: $GPGGA,213101,3946.9653,N,08404.9717,W,2,12,0.80,293.97,M,-33.324,M,,*77
2017-12-01 16:31:00 1512163860.837987: $GPRMC,213101,A,3946.9653,N,08404.9717,W,0.0000,0.000,011217,,*3A
2017-12-01 16:31:00 1512163860.838048: $GPGSA,A,3,1,10,11,14,22,31,32,18,25,26,12,138,2.0,0.8,1.5*39
2017-12-01 16:31:01 1512163861.397291: $GPZDA,213102.00,01,12,2017,00,00*63
2017-12-01 16:31:01 1512163861.397460: $GPGGA,213102,3946.9653,N,08404.9717,W,2,12,0.80,293.97,M,-33.324,M,,*74
2017-12-01 16:31:01 1512163861.397527: $GPRMC,213102,A,3946.9653,N,08404.9717,W,0.0000,0.000,011217,,*39
2017-12-01 16:31:01 1512163861.397588: $GPGSA,A,3,1,10,11,14,22,31,32,18,25,26,12,138,2.0,0.8,1.5*39
2017-12-01 16:31:02 1512163862.393246: $GPZDA,213103.00,01,12,2017,00,00*62
2017-12-01 16:31:02 1512163862.393445: $GPGGA,213103,3946.9653,N,08404.9717,W,2,12,0.80,293.97,M,-33.324,M,,*75
2017-12-01 16:31:02 1512163862.393517: $GPRMC,213103,A,3946.9653,N,08404.9717,W,0.0000,0.000,011217,,*38
2017-12-01 16:31:02 1512163862.393611: $GPGSA,A,3,1,10,11,14,22,31,32,18,25,26,12,138,2.0,0.8,1.5*39
2017-12-01 16:31:03 1512163863.714573: $GPGSV,3,1,12,01,21,300,42,10,48,148,45,11,08,282,39,14,66,328,43*7F
2017-12-01 16:31:03 1512163863.714771: $GPGSV,3,2,12,22,19,312,43,31,56,225,50,32,68,030,49,18,18,144,17*73
2017-12-01 16:31:03 1512163863.714841: $GPGSV,3,3,12,25,40,090,32,26,03,183,33,12,22,049,26,138,38,213,40*43
2017-12-01 16:31:03 1512163863.827984: $GPZDA,213104.00,01,12,2017,00,00*65
2017-12-01 16:31:03 1512163863.828148: $GPGGA,213104,3946.9653,N,08404.9717,W,2,12,0.80,293.97,M,-33.324,M,,*72
2017-12-01 16:31:03 1512163863.828216: $GPRMC,213104,A,3946.9653,N,08404.9717,W,0.0000,0.000,011217,,*3F
2017-12-01 16:31:03 1512163863.828280: $GPGSA,A,3,1,10,11,14,22,31,32,18,25,26,12,138,2.0,0.8,1.5*39
2017-12-01 16:31:04 1512163864.395056: $GPZDA,213105.00,01,12,2017,00,00*64
2017-12-01 16:31:04 1512163864.395230: $GPGGA,213105,3946.9653,N,08404.9717,W,2,12,0.80,293.97,M,-33.324,M,,*73
2017-12-01 16:31:04 1512163864.395301: $GPRMC,213105,A,3946.9653,N,08404.9717,W,0.0000,0.000,011217,,*3E
2017-12-01 16:31:04 1512163864.395365: $GPGSA,A,3,1,10,11,14,22,31,32,18,25,26,12,138,2.0,0.8,1.5*39
2017-12-01 16:31:05 1512163865.394680: $GPZDA,213106.00,01,12,2017,00,00*67
2017-12-01 16:31:05 1512163865.394869: $GPGGA,213106,3946.9653,N,08404.9717,W,2,12,1.00,293.97,M,-33.324,M,,*79
2017-12-01 16:31:05 1512163865.394939: $GPRMC,213106,A,3946.9653,N,08404.9717,W,0.0000,0.000,011217,,*3D
2017-12-01 16:31:05 1512163865.395003: $GPGSA,A,3,1,10,11,14,22,31,32,18,25,26,12,138,2.0,1.0,1.5*30
2017-12-01 16:31:06 1512163866.729144: $GPGSV,3,1,11,01,21,300,42,10,48,148,45,11,08,282,39,14,66,328,43*7C
2017-12-01 16:31:06 1512163866.729331: $GPGSV,3,2,11,22,19,312,44,31,56,225,49,32,68,030,49,25,40,090,32*73
2017-12-01 16:31:06 1512163866.729401: $GPGSV,3,3,11,26,03,183,33,12,22,049,26,138,38,213,40*7B
2017-12-01 16:31:06 1512163866.842636: $GPZDA,213107.00,01,12,2017,00,00*66
2017-12-01 16:31:06 1512163866.842830: $GPGGA,213107,3946.9653,N,08404.9717,W,2,11,1.00,293.97,M,-33.324,M,,*7B
2017-12-01 16:31:06 1512163866.842900: $GPRMC,213107,A,3946.9653,N,08404.9717,W,0.0000,0.000,011217,,*3C
2017-12-01 16:31:06 1512163866.842964: $GPGSA,A,3,1,10,11,14,22,31,32,25,26,12,138,,2.0,1.0,1.5*39
