2017-11-16 15:21:44 1510863704.165589: {"class":"VERSION","release":"3.17","rev":"3.17","proto_major":3,"proto_minor":12}
2017-11-16 15:21:44 1510863704.166035: {"class":"DEVICES","devices":[{"class":"DEVICE","path":"/dev/ttyUSB0","driver":"SiRF","subtype":"9\u0006GSD4e_4.1.2-P1_RPATCH.05-F-GPS-4R-1510281 11/03/2015 307","activated":"2017-11-16T20:21:43.981Z","flags":1,"native":1,"bps":4800,"parity":"N","stopbits":1,"cycle":1.00}]}
2017-11-16 15:21:44 1510863704.166154: {"class":"WATCH","enable":true,"json":false,"nmea":true,"raw":0,"scaled":false,"timing":false,"split24":false,"pps":false}
2017-11-16 15:21:44 1510863704.372696: $GPZDA,202143.00,16,11,2017,00,00*63
2017-11-16 15:21:44 1510863704.372869: $GPGGA,202143,3946.9575,N,08404.9864,W,2,12,0.80,306.59,M,-33.324,M,,*72
2017-11-16 15:21:44 1510863704.372933: $GPRMC,202143,A,3946.9575,N,08404.9864,W,0.0000,0.000,161117,,*35
2017-11-16 15:21:44 1510863704.372989: $GPGSA,A,3,8,10,14,15,18,20,21,24,27,32,12,138,1.6,0.8,1.3*34
2017-11-16 15:21:45 1510863705.373640: $GPZDA,202144.00,16,11,2017,00,00*64
2017-11-16 15:21:45 1510863705.373829: $GPGGA,202144,3946.9575,N,08404.9864,W,2,12,0.80,306.59,M,-33.324,M,,*75
2017-11-16 15:21:45 1510863705.373893: $GPRMC,202144,A,3946.9575,N,08404.9864,W,0.0000,0.000,161117,,*32
2017-11-16 15:21:45 1510863705.373951: $GPGSA,A,3,8,10,14,15,18,20,21,24,27,32,12,138,1.6,0.8,1.3*34
2017-11-16 15:21:46 1510863706.701476: $GPGSV,3,1,12,08,06,295,29,10,67,327,51,14,27,252,47,15,13,064,32*72
2017-11-16 15:21:46 1510863706.701671: $GPGSV,3,2,12,18,72,087,47,20,10,117,30,21,32,180,44,24,46,061,51*70
2017-11-16 15:21:46 1510863706.701732: $GPGSV,3,3,12,27,08,262,39,32,44,262,48,12,08,109,30,138,38,213,45*40
2017-11-16 15:21:46 1510863706.814659: $GPZDA,202145.00,16,11,2017,00,00*65
2017-11-16 15:21:46 1510863706.814824: $GPGGA,202145,3946.9575,N,08404.9864,W,2,12,0.80,306.59,M,-33.324,M,,*74
2017-11-16 15:21:46 1510863706.814887: $GPRMC,202145,A,3946.9575,N,08404.9864,W,0.0000,0.000,161117,,*33
2017-11-16 15:21:46 1510863706.814943: $GPGSA,A,3,8,10,14,15,18,20,21,24,27,32,12,138,1.6,0.8,1.3*34
2017-11-16 15:21:47 1510863707.371781: $GPZDA,202146.00,16,11,2017,00,00*66
2017-11-16 15:21:47 1510863707.371945: $GPGGA,202146,3946.9575,N,08404.9864,W,2,12,0.80,306.59,M,-33.324,M,,*77
2017-11-16 15:21:47 1510863707.372007: $GPRMC,202146,A,3946.9575,N,08404.9864,W,0.0000,0.000,161117,,*30
2017-11-16 15:21:47 1510863707.372062: $GPGSA,A,3,8,10,14,15,18,20,21,24,27,32,12,138,1.6,0.8,1.3*34
2017-11-16 15:21:48 1510863708.373926: $GPZDA,202147.00,16,11,2017,00,00*67
2017-11-16 15:21:48 1510863708.374131: $GPGGA,202147,3946.9575,N,08404.9864,W,2,12,0.80,306.59,M,-33.324,M,,*76
2017-11-16 15:21:48 1510863708.374196: $GPRMC,202147,A,3946.9575,N,08404.9864,W,0.0000,0.000,161117,,*31
2017-11-16 15:21:48 1510863708.374259: $GPGSA,A,3,8,10,14,15,18,20,21,24,27,32,12,138,1.6,0.8,1.3*34
2017-11-16 15:21:49 1510863709.709773: $GPGSV,3,1,12,08,06,295,30,10,67,327,51,14,27,252,47,15,13,064,32*7A
2017-11-16 15:21:49 1510863709.709946: $GPGSV,3,2,12,18,72,087,47,20,10,117,29,21,32,180,44,24,46,061,51*78
2017-11-16 15:21:49 1510863709.710006: $GPGSV,3,3,12,27,08,262,38,32,44,262,47,12,08,109,31,138,38,213,44*4E
2017-11-16 15:21:49 1510863709.823068: $GPZDA,202148.00,16,11,2017,00,00*68
2017-11-16 15:21:49 1510863709.823246: $GPGGA,202148,3946.9575,N,08404.9864,W,2,12,0.80,306.59,M,-33.324,M,,*79
2017-11-16 15:21:49 1510863709.823308: $GPRMC,202148,A,3946.9575,N,08404.9864,W,0.0000,0.000,161117,,*3E
2017-11-16 15:21:49 1510863709.823363: $GPGSA,A,3,8,10,14,15,18,20,21,24,27,32,12,138,1.6,0.8,1.3*34
2017-11-16 15:21:50 1510863710.371498: $GPZDA,202149.00,16,11,2017,00,00*69
2017-11-16 15:21:50 1510863710.371665: $GPGGA,202149,3946.9575,N,08404.9864,W,2,12,0.80,306.59,M,-33.324,M,,*78
2017-11-16 15:21:50 1510863710.371726: $GPRMC,202149,A,3946.9575,N,08404.9864,W,0.0000,0.000,161117,,*3F
2017-11-16 15:21:50 1510863710.371783: $GPGSA,A,3,8,10,14,15,18,20,21,24,27,32,12,138,1.6,0.8,1.3*34
2017-11-16 15:21:51 1510863711.365536: $GPZDA,202150.00,16,11,2017,00,00*61
2017-11-16 15:21:51 1510863711.365752: $GPGGA,202150,3946.9575,N,08404.9864,W,2,12,0.80,306.59,M,-33.324,M,,*70
2017-11-16 15:21:51 1510863711.365814: $GPRMC,202150,A,3946.9575,N,08404.9864,W,0.0000,0.000,161117,,*37
2017-11-16 15:21:51 1510863711.365872: $GPGSA,A,3,8,10,14,15,18,20,21,24,27,32,12,138,1.6,0.8,1.3*34
2017-11-16 15:21:52 1510863712.702607: $GPGSV,3,1,12,08,06,295,30,10,67,327,51,14,27,252,47,15,13,064,32*7A
2017-11-16 15:21:52 1510863712.702776: $GPGSV,3,2,12,18,72,087,47,20,10,117,29,21,32,180,44,24,46,061,51*78
2017-11-16 15:21:52 1510863712.702837: $GPGSV,3,3,12,27,08,262,38,32,44,262,47,12,08,109,31,138,38,213,44*4E
2017-11-16 15:21:52 1510863712.815929: $GPZDA,202151.00,16,11,2017,00,00*60
2017-11-16 15:21:52 1510863712.816101: $GPGGA,202151,3946.9575,N,08404.9864,W,2,12,0.80,306.59,M,-33.324,M,,*71
2017-11-16 15:21:52 1510863712.816163: $GPRMC,202151,A,3946.9575,N,08404.9864,W,0.0000,0.000,161117,,*36
2017-11-16 15:21:52 1510863712.816221: $GPGSA,A,3,8,10,14,15,18,20,21,24,27,32,12,138,1.6,0.8,1.3*34
2017-11-16 15:21:53 1510863713.372996: $GPZDA,202152.00,16,11,2017,00,00*63
2017-11-16 15:21:53 1510863713.373178: $GPGGA,202152,3946.9575,N,08404.9864,W,2,12,0.80,306.59,M,-33.324,M,,*72
2017-11-16 15:21:53 1510863713.373242: $GPRMC,202152,A,3946.9575,N,08404.9864,W,0.0000,0.000,161117,,*35
2017-11-16 15:21:53 1510863713.373298: $GPGSA,A,3,8,10,14,15,18,20,21,24,27,32,12,138,1.6,0.8,1.3*34
