2017-11-16 16:44:35 1510868675.720363: {"class":"VERSION","release":"3.17","rev":"3.17","proto_major":3,"proto_minor":12}
2017-11-16 16:44:35 1510868675.720867: {"class":"DEVICES","devices":[{"class":"DEVICE","path":"/dev/ttyUSB0","driver":"SiRF","subtype":"9\u0006GSD4e_4.1.2-P1_RPATCH.05-F-GPS-4R-1510281 11/03/2015 307","activated":"2017-11-16T21:44:35.329Z","flags":1,"native":1,"bps":4800,"parity":"N","stopbits":1,"cycle":1.00}]}
2017-11-16 16:44:35 1510868675.720987: {"class":"WATCH","enable":true,"json":false,"nmea":true,"raw":0,"scaled":false,"timing":false,"split24":false,"pps":false}
2017-11-16 16:44:35 1510868675.777864: $GPGSV,3,1,12,01,13,319,38,10,71,129,48,11,11,303,36,12,25,073,48*73
2017-11-16 16:44:35 1510868675.778026: $GPGSV,3,2,12,14,54,289,44,18,39,135,46,24,15,045,46,25,29,115,43*75
2017-11-16 16:44:35 1510868675.778084: $GPGSV,3,3,12,31,33,211,46,32,67,324,50,22,01,310,32,138,38,213,44*4B
2017-11-16 16:44:35 1510868675.891184: $GPZDA,214434.00,16,11,2017,00,00*61
2017-11-16 16:44:35 1510868675.891325: $GPGGA,214434,3946.9580,N,08404.9815,W,2,12,0.80,307.02,M,-33.324,M,,*73
2017-11-16 16:44:35 1510868675.891384: $GPRMC,214434,A,3946.9580,N,08404.9815,W,0.0000,0.000,161117,,*3B
2017-11-16 16:44:35 1510868675.891439: $GPGSA,A,3,1,10,11,12,14,18,24,25,31,32,22,138,1.6,0.8,1.3*38
2017-11-16 16:44:36 1510868676.517781: $GPZDA,214435.00,16,11,2017,00,00*60
2017-11-16 16:44:36 1510868676.517960: $GPGGA,214435,3946.9580,N,08404.9815,W,2,12,0.80,307.02,M,-33.324,M,,*72
2017-11-16 16:44:36 1510868676.518024: $GPRMC,214435,A,3946.9580,N,08404.9815,W,0.0000,0.000,161117,,*3A
2017-11-16 16:44:36 1510868676.518080: $GPGSA,A,3,1,10,11,12,14,18,24,25,31,32,22,138,1.6,0.8,1.3*38
2017-11-16 16:44:37 1510868677.458807: $GPZDA,214436.00,16,11,2017,00,00*63
2017-11-16 16:44:37 1510868677.458983: $GPGGA,214436,3946.9580,N,08404.9815,W,2,12,0.80,307.02,M,-33.324,M,,*71
2017-11-16 16:44:37 1510868677.459048: $GPRMC,214436,A,3946.9580,N,08404.9815,W,0.0000,0.000,161117,,*39
2017-11-16 16:44:37 1510868677.459105: $GPGSA,A,3,1,10,11,12,14,18,24,25,31,32,22,138,1.6,0.8,1.3*38
2017-11-16 16:44:38 1510868678.778258: $GPGSV,3,1,12,01,13,319,38,10,71,129,48,11,11,303,36,12,25,073,49*72
2017-11-16 16:44:38 1510868678.778423: $GPGSV,3,2,12,14,54,289,45,18,39,135,46,24,15,045,46,25,29,115,43*74
2017-11-16 16:44:38 1510868678.778482: $GPGSV,3,3,12,31,33,211,46,32,67,324,51,22,01,310,33,138,38,213,45*4A
2017-11-16 16:44:38 1510868678.891553: $GPZDA,214437.00,16,11,2017,00,00*62
2017-11-16 16:44:38 1510868678.891690: $GPGGA,214437,3946.9580,N,08404.9815,W,2,12,0.80,307.02,M,-33.324,M,,*70
2017-11-16 16:44:38 1510868678.891749: $GPRMC,214437,A,3946.9580,N,08404.9815,W,0.0000,0.000,161117,,*38
2017-11-16 16:44:38 1510868678.891805: $GPGSA,A,3,1,10,11,12,14,18,24,25,31,32,22,138,1.6,0.8,1.3*38
2017-11-16 16:44:39 1510868679.437956: $GPZDA,214438.00,16,11,2017,00,00*6D
2017-11-16 16:44:39 1510868679.438146: $GPGGA,214438,3946.9580,N,08404.9815,W,2,12,0.80,307.02,M,-33.324,M,,*7F
2017-11-16 16:44:39 1510868679.438208: $GPRMC,214438,A,3946.9580,N,08404.9815,W,0.0000,0.000,161117,,*37
2017-11-16 16:44:39 1510868679.438264: $GPGSA,A,3,1,10,11,12,14,18,24,25,31,32,22,138,1.6,0.8,1.3*38
2017-11-16 16:44:40 1510868680.442355: $GPZDA,214439.00,16,11,2017,00,00*6C
2017-11-16 16:44:40 1510868680.442514: $GPGGA,214439,3946.9580,N,08404.9815,W,2,12,0.80,307.02,M,-33.324,M,,*7E
2017-11-16 16:44:40 1510868680.442578: $GPRMC,214439,A,3946.9580,N,08404.9815,W,0.0000,0.000,161117,,*36
2017-11-16 16:44:40 1510868680.442635: $GPGSA,A,3,1,10,11,12,14,18,24,25,31,32,22,138,1.6,0.8,1.3*38
2017-11-16 16:44:41 1510868681.777416: $GPGSV,3,1,12,01,13,319,38,10,71,129,49,11,11,303,37,12,25,073,49*72
2017-11-16 16:44:41 1510868681.777584: $GPGSV,3,2,12,14,54,289,45,18,39,135,46,24,15,045,46,25,29,115,43*74
2017-11-16 16:44:41 1510868681.777643: $GPGSV,3,3,12,31,33,211,46,32,67,324,51,22,01,310,32,138,38,213,44*4A
2017-11-16 16:44:41 1510868681.890704: $GPZDA,214440.00,16,11,2017,00,00*62
2017-11-16 16:44:41 1510868681.890860: $GPGGA,214440,3946.9580,N,08404.9815,W,2,12,0.80,307.02,M,-33.324,M,,*70
2017-11-16 16:44:41 1510868681.890990: $GPRMC,214440,A,3946.9580,N,08404.9815,W,0.0000,0.000,161117,,*38
2017-11-16 16:44:41 1510868681.891048: $GPGSA,A,3,1,10,11,12,14,18,24,25,31,32,22,138,1.6,0.8,1.3*38
2017-11-16 16:44:42 1510868682.442870: $GPZDA,214441.00,16,11,2017,00,00*63
2017-11-16 16:44:42 1510868682.443036: $GPGGA,214441,3946.9580,N,08404.9815,W,2,12,0.80,307.02,M,-33.324,M,,*71
2017-11-16 16:44:42 1510868682.443097: $GPRMC,214441,A,3946.9580,N,08404.9815,W,0.0000,0.000,161117,,*39
2017-11-16 16:44:42 1510868682.443153: $GPGSA,A,3,1,10,11,12,14,18,24,25,31,32,22,138,1.6,0.8,1.3*38
2017-11-16 16:44:43 1510868683.442508: $GPZDA,214442.00,16,11,2017,00,00*60
2017-11-16 16:44:43 1510868683.442669: $GPGGA,214442,3946.9580,N,08404.9815,W,2,12,0.80,307.02,M,-33.324,M,,*72
2017-11-16 16:44:43 1510868683.442730: $GPRMC,214442,A,3946.9580,N,08404.9815,W,0.0000,0.000,161117,,*3A
2017-11-16 16:44:43 1510868683.442786: $GPGSA,A,3,1,10,11,12,14,18,24,25,31,32,22,138,1.6,0.8,1.3*38
2017-11-16 16:44:44 1510868684.772207: $GPGSV,3,1,12,01,13,319,39,10,71,129,49,11,11,303,36,12,25,073,48*73
2017-11-16 16:44:44 1510868684.772379: $GPGSV,3,2,12,14,54,289,44,18,39,135,46,24,15,045,46,25,29,115,43*75
2017-11-16 16:44:44 1510868684.772439: $GPGSV,3,3,12,31,33,211,46,32,67,324,51,22,01,310,37,138,38,213,44*4F
2017-11-16 16:44:44 1510868684.885444: $GPZDA,214443.00,16,11,2017,00,00*61
2017-11-16 16:44:44 1510868684.885601: $GPGGA,214443,3946.9580,N,08404.9815,W,2,12,0.80,307.02,M,-33.324,M,,*73
2017-11-16 16:44:44 1510868684.885662: $GPRMC,214443,A,3946.9580,N,08404.9815,W,0.0000,0.000,161117,,*3B
2017-11-16 16:44:44 1510868684.885717: $GPGSA,A,3,1,10,11,12,14,18,24,25,31,32,22,138,1.6,0.8,1.3*38
2017-11-16 16:44:45 1510868685.440021: $GPZDA,214444.00,16,11,2017,00,00*66
2017-11-16 16:44:45 1510868685.563474: $GPGGA,214444,3946.9580,N,08404.9815,W,2,12,0.80,307.02,M,-33.324,M,,*74
2017-11-16 16:44:45 1510868685.563616: $GPRMC,214444,A,3946.9580,N,08404.9815,W,0.0000,0.000,161117,,*3C
2017-11-16 16:44:45 1510868685.563676: $GPGSA,A,3,1,10,11,12,14,18,24,25,31,32,22,138,1.6,0.8,1.3*38
