2017-12-31 16:58:26 1514757506.265686: {"class":"VERSION","release":"3.16","rev":"3.16-4","proto_major":3,"proto_minor":11}
2017-12-31 16:58:26 1514757506.266020: {"class":"DEVICES","devices":[{"class":"DEVICE","path":"/dev/ttyUSB0","driver":"SiRF","activated":"2017-12-31T21:58:26.239Z","flags":1,"native":1,"bps":4800,"parity":"N","stopbits":1,"cycle":1.00}]}
2017-12-31 16:58:26 1514757506.266117: {"class":"WATCH","enable":true,"json":false,"nmea":true,"raw":0,"scaled":false,"timing":false,"split24":false,"pps":false}
2017-12-31 16:58:26 1514757506.352905: $GPZDA,215827.00,31,12,2017,00,00*68
2017-12-31 16:58:26 1514757506.353057: $GPGGA,215827,3946.9584,N,08404.9862,W,2,10,1.00,302.90,M,-33.324,M,,*7D
2017-12-31 16:58:26 1514757506.353123: $GPRMC,215827,A,3946.9584,N,08404.9862,W,0.0000,0.000,311217,,*36
2017-12-31 16:58:26 1514757506.353183: $GPGSA,A,3,22,23,25,3,16,31,14,32,26,135,,,1.7,1.0,1.3*30
2017-12-31 16:58:27 1514757507.695946: $GPGSV,3,1,11,22,46,244,41,23,25,307,42,25,04,037,26,03,46,276,39*71
2017-12-31 16:58:27 1514757507.696107: $GPGSV,3,2,11,16,42,190,45,29,14,058,00,31,52,048,50,14,43,111,40*78
2017-12-31 16:58:27 1514757507.696173: $GPGSV,3,3,11,32,21,120,43,26,72,151,45,135,22,240,42*7D
2017-12-31 16:58:27 1514757507.809575: $GPZDA,215828.00,31,12,2017,00,00*67
2017-12-31 16:58:27 1514757507.809717: $GPGGA,215828,3946.9584,N,08404.9862,W,2,10,1.00,302.90,M,-33.324,M,,*72
2017-12-31 16:58:27 1514757507.809783: $GPRMC,215828,A,3946.9584,N,08404.9862,W,0.0000,0.000,311217,,*39
2017-12-31 16:58:27 1514757507.809845: $GPGSA,A,3,22,23,25,3,16,31,14,32,26,135,,,1.7,1.0,1.3*30
2017-12-31 16:58:28 1514757508.345481: $GPZDA,215829.00,31,12,2017,00,00*66
2017-12-31 16:58:28 1514757508.345674: $GPGGA,215829,3946.9584,N,08404.9862,W,2,10,1.00,302.90,M,-33.324,M,,*73
2017-12-31 16:58:28 1514757508.345742: $GPRMC,215829,A,3946.9584,N,08404.9862,W,0.0000,0.000,311217,,*38
2017-12-31 16:58:28 1514757508.345803: $GPGSA,A,3,22,23,25,3,16,31,14,32,26,135,,,1.7,1.0,1.3*30
2017-12-31 16:58:29 1514757509.345201: $GPZDA,215830.00,31,12,2017,00,00*6E
2017-12-31 16:58:29 1514757509.345427: $GPGGA,215830,3946.9584,N,08404.9862,W,2,10,1.00,302.90,M,-33.324,M,,*7B
2017-12-31 16:58:29 1514757509.345495: $GPRMC,215830,A,3946.9584,N,08404.9862,W,0.0000,0.000,311217,,*30
2017-12-31 16:58:29 1514757509.345589: $GPGSA,A,3,22,23,25,3,16,31,14,32,26,135,,,1.7,1.0,1.3*30
2017-12-31 16:58:30 1514757510.671253: $GPGSV,3,1,11,22,46,244,41,23,25,307,42,25,04,037,26,03,46,276,39*71
2017-12-31 16:58:30 1514757510.671438: $GPGSV,3,2,11,16,42,190,45,29,14,058,00,31,52,048,50,14,43,111,40*78
2017-12-31 16:58:30 1514757510.671505: $GPGSV,3,3,11,32,21,120,44,26,72,151,45,135,22,240,42*7A
2017-12-31 16:58:30 1514757510.784594: $GPZDA,215831.00,31,12,2017,00,00*6F
2017-12-31 16:58:30 1514757510.784735: $GPGGA,215831,3946.9584,N,08404.9862,W,2,10,1.00,302.90,M,-33.324,M,,*7A
2017-12-31 16:58:30 1514757510.784844: $GPRMC,215831,A,3946.9584,N,08404.9862,W,0.0000,0.000,311217,,*31
2017-12-31 16:58:30 1514757510.784907: $GPGSA,A,3,22,23,25,3,16,31,14,32,26,135,,,1.7,1.0,1.3*30
2017-12-31 16:58:31 1514757511.344482: $GPZDA,215832.00,31,12,2017,00,00*6C
2017-12-31 16:58:31 1514757511.344638: $GPGGA,215832,3946.9584,N,08404.9862,W,2,10,1.00,302.90,M,-33.324,M,,*79
2017-12-31 16:58:31 1514757511.344705: $GPRMC,215832,A,3946.9584,N,08404.9862,W,0.0000,0.000,311217,,*32
2017-12-31 16:58:31 1514757511.344765: $GPGSA,A,3,22,23,25,3,16,31,14,32,26,135,,,1.7,1.0,1.3*30
2017-12-31 16:58:32 1514757512.345094: $GPZDA,215833.00,31,12,2017,00,00*6D
2017-12-31 16:58:32 1514757512.345313: $GPGGA,215833,3946.9584,N,08404.9862,W,2,10,1.00,302.90,M,-33.324,M,,*78
2017-12-31 16:58:32 1514757512.345383: $GPRMC,215833,A,3946.9584,N,08404.9862,W,0.0000,0.000,311217,,*33
2017-12-31 16:58:32 1514757512.345444: $GPGSA,A,3,22,23,25,3,16,31,14,32,26,135,,,1.7,1.0,1.3*30
2017-12-31 16:58:33 1514757513.680842: $GPGSV,3,1,11,22,46,244,42,23,25,307,42,25,04,037,26,03,46,276,39*72
2017-12-31 16:58:33 1514757513.681030: $GPGSV,3,2,11,16,42,190,45,29,14,058,24,31,52,048,50,14,43,111,40*7E
2017-12-31 16:58:33 1514757513.681176: $GPGSV,3,3,11,32,21,120,44,26,72,151,45,135,22,240,42*7A
2017-12-31 16:58:33 1514757513.793201: $GPZDA,215834.00,31,12,2017,00,00*6A
2017-12-31 16:58:33 1514757513.793367: $GPGGA,215834,3946.9584,N,08404.9862,W,2,11,1.00,302.90,M,-33.324,M,,*7E
2017-12-31 16:58:33 1514757513.793432: $GPRMC,215834,A,3946.9584,N,08404.9862,W,0.0000,0.000,311217,,*34
2017-12-31 16:58:33 1514757513.793492: $GPGSA,A,3,22,23,25,3,16,29,31,14,32,26,135,,1.7,1.0,1.3*3B
2017-12-31 16:58:34 1514757514.344090: $GPZDA,215835.00,31,12,2017,00,00*6B
2017-12-31 16:58:34 1514757514.344308: $GPGGA,215835,3946.9584,N,08404.9862,W,2,11,1.00,302.90,M,-33.324,M,,*7F
2017-12-31 16:58:34 1514757514.344376: $GPRMC,215835,A,3946.9584,N,08404.9862,W,0.0000,0.000,311217,,*35
2017-12-31 16:58:34 1514757514.344436: $GPGSA,A,3,22,23,25,3,16,29,31,14,32,26,135,,1.7,1.0,1.3*3B
2017-12-31 16:58:35 1514757515.359440: $GPZDA,215836.00,31,12,2017,00,00*68
2017-12-31 16:58:35 1514757515.359612: $GPGGA,215836,3946.9584,N,08404.9862,W,2,11,1.00,302.90,M,-33.324,M,,*7C
2017-12-31 16:58:35 1514757515.359677: $GPRMC,215836,A,3946.9584,N,08404.9862,W,0.0000,0.000,311217,,*36
2017-12-31 16:58:35 1514757515.359738: $GPGSA,A,3,22,23,25,3,16,29,31,14,32,26,135,,1.7,1.0,1.3*3B
