2017-12-29 14:40:36 1514576436.650704: {"class":"VERSION","release":"3.16","rev":"3.16-4","proto_major":3,"proto_minor":11}
2017-12-29 14:40:36 1514576436.651100: {"class":"DEVICES","devices":[{"class":"DEVICE","path":"/dev/ttyUSB0","driver":"SiRF","subtype":"9\u0006GSD4e_4.1.2-P1_RPATCH.05-F-GPS-4R-1510281 11/03/2015 307","activated":"2017-12-29T19:40:36.598Z","flags":1,"native":1,"bps":4800,"parity":"N","stopbits":1,"cycle":1.00}]}
2017-12-29 14:40:36 1514576436.651240: {"class":"WATCH","enable":true,"json":false,"nmea":true,"raw":0,"scaled":false,"timing":false,"split24":false,"pps":false}
2017-12-29 14:40:37 1514576437.381560: $GPZDA,194038.00,29,12,2017,00,00*6D
2017-12-29 14:40:37 1514576437.381720: $GPGGA,194038,3946.9576,N,08404.9802,W,2,12,0.80,307.95,M,-33.324,M,,*71
2017-12-29 14:40:37 1514576437.381786: $GPRMC,194038,A,3946.9576,N,08404.9802,W,0.0000,0.000,291217,,*38
2017-12-29 14:40:37 1514576437.381847: $GPGSA,A,3,1,10,11,12,14,18,22,25,31,32,3,138,1.7,0.8,1.3*0C
2017-12-29 14:40:38 1514576438.716960: $GPGSV,3,1,12,01,22,298,35,10,46,148,50,11,08,282,34,12,21,048,43*7B
2017-12-29 14:40:38 1514576438.717145: $GPGSV,3,2,12,14,66,330,43,18,15,144,46,22,21,312,38,25,40,088,51*78
2017-12-29 14:40:38 1514576438.717216: $GPGSV,3,3,12,31,60,226,47,32,67,036,48,26,05,181,16,138,38,213,43*4A
2017-12-29 14:40:38 1514576438.829287: $GPZDA,194039.00,29,12,2017,00,00*6C
2017-12-29 14:40:38 1514576438.829427: $GPGGA,194039,3946.9576,N,08404.9802,W,2,11,0.80,307.95,M,-33.324,M,,*73
2017-12-29 14:40:38 1514576438.829493: $GPRMC,194039,A,3946.9576,N,08404.9802,W,0.0000,0.000,291217,,*39
2017-12-29 14:40:38 1514576438.829553: $GPGSA,A,3,1,10,11,12,14,18,22,25,31,32,138,,1.7,0.8,1.3*3F
2017-12-29 14:40:39 1514576439.381480: $GPZDA,194040.00,29,12,2017,00,00*62
2017-12-29 14:40:39 1514576439.381629: $GPGGA,194040,3946.9576,N,08404.9802,W,2,11,0.80,307.95,M,-33.324,M,,*7D
2017-12-29 14:40:39 1514576439.381695: $GPRMC,194040,A,3946.9576,N,08404.9802,W,0.0000,0.000,291217,,*37
2017-12-29 14:40:39 1514576439.381756: $GPGSA,A,3,1,10,11,12,14,18,22,25,31,32,138,,1.7,0.8,1.3*3F
2017-12-29 14:40:40 1514576440.381029: $GPZDA,194041.00,29,12,2017,00,00*63
2017-12-29 14:40:40 1514576440.381231: $GPGGA,194041,3946.9576,N,08404.9802,W,2,11,0.80,307.95,M,-33.324,M,,*7C
2017-12-29 14:40:40 1514576440.381297: $GPRMC,194041,A,3946.9576,N,08404.9802,W,0.0000,0.000,291217,,*36
2017-12-29 14:40:40 1514576440.381359: $GPGSA,A,3,1,10,11,12,14,18,22,25,31,32,138,,1.7,0.8,1.3*3F
2017-12-29 14:40:41 1514576441.716044: $GPGSV,3,1,12,01,22,298,35,10,46,148,50,11,08,282,34,12,21,048,44*7C
2017-12-29 14:40:41 1514576441.716225: $GPGSV,3,2,12,14,66,330,43,18,15,144,46,22,21,312,38,25,40,088,51*78
2017-12-29 14:40:41 1514576441.716293: $GPGSV,3,3,12,31,60,226,47,32,67,036,48,26,05,181,19,138,38,213,42*44
2017-12-29 14:40:41 1514576441.829406: $GPZDA,194042.00,29,12,2017,00,00*60
2017-12-29 14:40:41 1514576441.829559: $GPGGA,194042,3946.9576,N,08404.9802,W,2,12,0.80,307.95,M,-33.324,M,,*7C
2017-12-29 14:40:41 1514576441.829626: $GPRMC,194042,A,3946.9576,N,08404.9802,W,0.0000,0.000,291217,,*35
2017-12-29 14:40:41 1514576441.829686: $GPGSA,A,3,1,10,11,12,14,18,22,25,31,32,26,138,1.7,0.8,1.3*3B
2017-12-29 14:40:42 1514576442.381842: $GPZDA,194043.00,29,12,2017,00,00*61
2017-12-29 14:40:42 1514576442.382010: $GPGGA,194043,3946.9576,N,08404.9802,W,2,12,0.80,307.95,M,-33.324,M,,*7D
2017-12-29 14:40:42 1514576442.382076: $GPRMC,194043,A,3946.9576,N,08404.9802,W,0.0000,0.000,291217,,*34
2017-12-29 14:40:42 1514576442.382137: $GPGSA,A,3,1,10,11,12,14,18,22,25,31,32,26,138,1.7,0.8,1.3*3B
2017-12-29 14:40:43 1514576443.381463: $GPZDA,194044.00,29,12,2017,00,00*66
2017-12-29 14:40:43 1514576443.846072: $GPGGA,194044,3946.9576,N,08404.9802,W,2,12,0.80,307.95,M,-33.324,M,,*7A
2017-12-29 14:40:43 1514576443.846227: $GPRMC,194044,A,3946.9576,N,08404.9802,W,0.0000,0.000,291217,,*33
2017-12-29 14:40:43 1514576443.846292: $GPGSA,A,3,1,10,11,12,14,18,22,25,31,32,26,138,1.7,0.8,1.3*3B
2017-12-29 14:40:44 1514576444.750587: $GPGSV,3,1,12,01,22,298,36,10,46,148,50,11,08,282,35,12,21,048,44*7E
2017-12-29 14:40:44 1514576444.750787: $GPGSV,3,2,12,14,66,330,42,18,15,144,46,22,21,312,38,25,40,088,51*79
2017-12-29 14:40:44 1514576444.750854: $GPGSV,3,3,12,31,60,226,47,32,67,036,47,03,02,316,29,138,38,213,43*45
2017-12-29 14:40:44 1514576444.864218: $GPZDA,194045.00,29,12,2017,00,00*67
2017-12-29 14:40:44 1514576444.864366: $GPGGA,194045,3946.9576,N,08404.9802,W,2,12,0.80,307.95,M,-33.324,M,,*7B
2017-12-29 14:40:44 1514576444.864432: $GPRMC,194045,A,3946.9576,N,08404.9802,W,0.0000,0.000,291217,,*32
2017-12-29 14:40:44 1514576444.864492: $GPGSA,A,3,1,10,11,12,14,18,22,25,31,32,3,138,1.7,0.8,1.3*0C
2017-12-29 14:40:45 1514576445.380137: $GPZDA,194046.00,29,12,2017,00,00*64
2017-12-29 14:40:45 1514576445.380298: $GPGGA,194046,3946.9576,N,08404.9802,W,2,12,0.80,307.95,M,-33.324,M,,*78
2017-12-29 14:40:45 1514576445.380379: $GPRMC,194046,A,3946.9576,N,08404.9802,W,0.0000,0.000,291217,,*31
2017-12-29 14:40:45 1514576445.380441: $GPGSA,A,3,1,10,11,12,14,18,22,25,31,32,3,138,1.7,0.8,1.3*0C
2017-12-29 14:40:46 1514576446.414248: $GPZDA,194047.00,29,12,2017,00,00*65
2017-12-29 14:40:46 1514576446.414419: $GPGGA,194047,3946.9576,N,08404.9802,W,2,12,0.80,307.95,M,-33.324,M,,*79
2017-12-29 14:40:46 1514576446.414485: $GPRMC,194047,A,3946.9576,N,08404.9802,W,0.0000,0.000,291217,,*30
2017-12-29 14:40:46 1514576446.414546: $GPGSA,A,3,1,10,11,12,14,18,22,25,31,32,3,138,1.7,0.8,1.3*0C
