2017-12-29 14:41:22 1514576482.321380: {"class":"VERSION","release":"3.16","rev":"3.16-4","proto_major":3,"proto_minor":11}
2017-12-29 14:41:22 1514576482.321735: {"class":"DEVICES","devices":[{"class":"DEVICE","path":"/dev/ttyUSB0","driver":"SiRF","subtype":"9\u0006GSD4e_4.1.2-P1_RPATCH.05-F-GPS-4R-1510281 11/03/2015 307","activated":"2017-12-29T19:41:22.082Z","flags":1,"native":1,"bps":4800,"parity":"N","stopbits":1,"cycle":1.00}]}
2017-12-29 14:41:22 1514576482.321856: {"class":"WATCH","enable":true,"json":false,"nmea":true,"raw":0,"scaled":false,"timing":false,"split24":false,"pps":false}
2017-12-29 14:41:23 1514576483.078189: $GPZDA,194123.77,29,12,2017,00,00*66
2017-12-29 14:41:23 1514576483.078347: $GPGGA,194123,3946.9568,N,08404.9822,W,1,12,0.80,305.02,M,-33.324,M,,*78
2017-12-29 14:41:23 1514576483.078415: $GPRMC,194123,A,3946.9568,N,08404.9822,W,0.8695,168.958,291217,,*37
2017-12-29 14:41:23 1514576483.078477: $GPGSA,A,3,1,10,11,12,14,18,22,25,31,32,26,138,1.7,0.8,1.3*3B
2017-12-29 14:41:24 1514576484.183483: $GPZDA,194124.45,29,12,2017,00,00*60
2017-12-29 14:41:24 1514576484.183647: $GPGGA,194124,3946.9571,N,08404.9821,W,1,12,0.80,304.26,M,-33.324,M,,*73
2017-12-29 14:41:24 1514576484.183715: $GPRMC,194124,A,3946.9571,N,08404.9821,W,0.3423,184.197,291217,,*36
2017-12-29 14:41:24 1514576484.183780: $GPGSA,A,3,1,10,11,12,14,18,22,25,31,32,26,138,1.7,0.8,1.3*3B
2017-12-29 14:41:24 1514576484.183839: $GPGBS,194124,10.91,M,10.38,M,30.89,M*04
2017-12-29 14:41:25 1514576485.348206: $GPGSV,3,1,12,01,22,298,36,11,07,280,05,10,45,150,52,12,21,048,47*7B
2017-12-29 14:41:25 1514576485.348381: $GPGSV,3,2,12,14,67,331,44,18,15,145,47,22,22,312,41,25,40,088,52*71
2017-12-29 14:41:25 1514576485.348446: $GPGSV,3,3,12,31,60,228,49,32,67,037,50,26,05,181,05,138,38,213,00*47
2017-12-29 14:41:25 1514576485.461942: $GPZDA,194125.00,29,12,2017,00,00*60
2017-12-29 14:41:25 1514576485.462111: $GPGGA,194125,3946.9567,N,08404.9821,W,1,09,0.80,303.62,M,-33.324,M,,*78
2017-12-29 14:41:25 1514576485.462178: $GPRMC,194125,A,3946.9567,N,08404.9821,W,0.1867,180.000,291217,,*35
2017-12-29 14:41:25 1514576485.462238: $GPGSA,A,3,1,10,12,14,18,22,25,31,32,,,,1.7,0.8,1.3*05
2017-12-29 14:41:26 1514576486.084662: $GPZDA,194126.00,29,12,2017,00,00*63
2017-12-29 14:41:26 1514576486.084822: $GPGGA,194126,3946.9571,N,08404.9827,W,1,09,0.80,302.78,M,-33.324,M,,*70
2017-12-29 14:41:26 1514576486.084890: $GPRMC,194126,A,3946.9571,N,08404.9827,W,0.0000,0.000,291217,,*36
2017-12-29 14:41:26 1514576486.084951: $GPGSA,A,3,1,10,12,14,18,22,25,31,32,,,,1.7,0.8,1.3*05
2017-12-29 14:41:26 1514576486.085010: $GPGBS,194126,10.91,M,10.38,M,30.89,M*06
2017-12-29 14:41:26 1514576486.536813: $GPZDA,194127.00,29,12,2017,00,00*62
2017-12-29 14:41:26 1514576486.536986: $GPGGA,194127,3946.9571,N,08404.9827,W,1,09,0.80,302.78,M,-33.324,M,,*71
2017-12-29 14:41:26 1514576486.537053: $GPRMC,194127,A,3946.9571,N,08404.9827,W,0.0000,0.000,291217,,*37
2017-12-29 14:41:26 1514576486.537115: $GPGSA,A,3,1,10,12,14,18,22,25,31,32,,,,1.7,0.8,1.3*05
2017-12-29 14:41:26 1514576486.537172: $GPGBS,194127,10.91,M,10.38,M,30.89,M*07
2017-12-29 14:41:27 1514576487.705423: $GPGSV,3,1,12,01,22,298,37,11,07,280,08,10,45,150,52,12,21,048,48*78
2017-12-29 14:41:27 1514576487.705587: $GPGSV,3,2,12,14,67,331,44,18,15,145,47,22,22,312,41,25,40,088,52*71
2017-12-29 14:41:27 1514576487.705656: $GPGSV,3,3,12,31,60,228,48,32,67,037,50,26,05,181,28,138,38,213,44*49
2017-12-29 14:41:27 1514576487.818787: $GPZDA,194128.00,29,12,2017,00,00*6D
2017-12-29 14:41:27 1514576487.818959: $GPGGA,194128,3946.9574,N,08404.9827,W,1,11,0.80,302.01,M,-33.324,M,,*7C
2017-12-29 14:41:27 1514576487.819028: $GPRMC,194128,A,3946.9574,N,08404.9827,W,0.0000,0.000,291217,,*3D
2017-12-29 14:41:27 1514576487.819088: $GPGSA,A,3,1,10,12,14,18,22,25,31,32,26,138,,1.7,0.8,1.3*3B
2017-12-29 14:41:28 1514576488.368648: $GPZDA,194129.00,29,12,2017,00,00*6C
2017-12-29 14:41:28 1514576488.368809: $GPGGA,194129,3946.9585,N,08404.9845,W,2,11,1.80,298.08,M,-33.324,M,,*7E
2017-12-29 14:41:28 1514576488.368877: $GPRMC,194129,A,3946.9585,N,08404.9845,W,0.0000,0.000,291217,,*36
2017-12-29 14:41:28 1514576488.368993: $GPGSA,A,2,1,10,12,14,18,22,25,31,32,26,138,,1.7,1.8,1.3*3B
2017-12-29 14:41:29 1514576489.369467: $GPZDA,194130.00,29,12,2017,00,00*64
2017-12-29 14:41:29 1514576489.369640: $GPGGA,194130,3946.9585,N,08404.9845,W,2,11,1.20,298.08,M,-33.324,M,,*7C
2017-12-29 14:41:29 1514576489.369709: $GPRMC,194130,A,3946.9585,N,08404.9845,W,0.0000,0.000,291217,,*3E
2017-12-29 14:41:29 1514576489.369772: $GPGSA,A,2,1,10,12,14,18,22,25,31,32,26,138,,1.7,1.2,1.3*31
2017-12-29 14:41:30 1514576490.703684: $GPGSV,3,1,12,01,22,298,37,11,07,280,25,10,45,150,52,12,21,048,48*77
2017-12-29 14:41:30 1514576490.703845: $GPGSV,3,2,12,14,67,331,44,18,15,145,47,22,22,312,41,25,40,088,52*71
2017-12-29 14:41:30 1514576490.703911: $GPGSV,3,3,12,31,60,228,48,32,67,037,50,26,05,181,28,138,38,213,44*49
2017-12-29 14:41:30 1514576490.817394: $GPZDA,194131.00,29,12,2017,00,00*65
2017-12-29 14:41:30 1514576490.817550: $GPGGA,194131,3946.9585,N,08404.9845,W,2,12,1.20,298.08,M,-33.324,M,,*7E
2017-12-29 14:41:30 1514576490.817620: $GPRMC,194131,A,3946.9585,N,08404.9845,W,0.0000,0.000,291217,,*3F
2017-12-29 14:41:30 1514576490.817681: $GPGSA,A,2,1,11,10,12,14,18,22,25,31,32,26,138,1.7,1.2,1.3*31
2017-12-29 14:41:31 1514576491.369472: $GPZDA,194132.00,29,12,2017,00,00*66
2017-12-29 14:41:31 1514576491.369641: $GPGGA,194132,3946.9585,N,08404.9845,W,2,12,1.20,298.08,M,-33.324,M,,*7D
2017-12-29 14:41:31 1514576491.369713: $GPRMC,194132,A,3946.9585,N,08404.9845,W,0.0000,0.000,291217,,*3C
2017-12-29 14:41:31 1514576491.369774: $GPGSA,A,2,1,11,10,12,14,18,22,25,31,32,26,138,1.7,1.2,1.3*31
