2017-12-01 13:44:23 1512153863.907262: {"class":"VERSION","release":"3.16","rev":"3.16-4","proto_major":3,"proto_minor":11}
2017-12-01 13:44:23 1512153863.907655: {"class":"DEVICES","devices":[{"class":"DEVICE","path":"/dev/ttyUSB0","driver":"SiRF","subtype":"9\u0006GSD4e_4.1.2-P1_RPATCH.05-F-GPS-4R-1510281 11/03/2015 307","activated":"2017-12-01T18:44:23.516Z","flags":1,"native":1,"bps":4800,"parity":"N","stopbits":1,"cycle":1.00}]}
2017-12-01 13:44:23 1512153863.907773: {"class":"WATCH","enable":true,"json":false,"nmea":true,"raw":0,"scaled":false,"timing":false,"split24":false,"pps":false}
2017-12-01 13:44:24 1512153864.734509: $GPGSV,3,1,11,08,08,309,32,10,53,313,49,14,15,241,40,15,25,058,46*75
2017-12-01 13:44:24 1512153864.734696: $GPGSV,3,2,11,18,77,028,43,20,22,106,46,21,47,183,44,24,53,084,47*7E
2017-12-01 13:44:24 1512153864.734763: $GPGSV,3,3,11,27,15,274,36,32,33,249,44,138,38,213,46*71
2017-12-01 13:44:24 1512153864.847934: $GPZDA,184425.00,01,12,2017,00,00*6E
2017-12-01 13:44:24 1512153864.848109: $GPGGA,184425,3946.9586,N,08404.9859,W,2,11,0.80,299.32,M,-33.324,M,,*71
2017-12-01 13:44:24 1512153864.848174: $GPRMC,184425,A,3946.9586,N,08404.9859,W,0.0000,0.000,011217,,*3A
2017-12-01 13:44:24 1512153864.848235: $GPGSA,A,3,8,10,14,15,18,20,21,24,27,32,138,,2.0,0.8,1.5*34
2017-12-01 13:44:25 1512153865.473205: $GPZDA,184426.00,01,12,2017,00,00*6D
2017-12-01 13:44:25 1512153865.987126: $GPGGA,184426,3946.9586,N,08404.9859,W,2,11,0.80,299.32,M,-33.324,M,,*72
2017-12-01 13:44:25 1512153865.987273: $GPRMC,184426,A,3946.9586,N,08404.9859,W,0.0000,0.000,011217,,*39
2017-12-01 13:44:25 1512153865.987359: $GPGSA,A,3,8,10,14,15,18,20,21,24,27,32,138,,2.0,0.8,1.5*34
2017-12-01 13:44:26 1512153866.376596: $GPZDA,184427.00,01,12,2017,00,00*6C
2017-12-01 13:44:26 1512153866.376770: $GPGGA,184427,3946.9586,N,08404.9859,W,2,11,0.80,299.32,M,-33.324,M,,*73
2017-12-01 13:44:26 1512153866.376840: $GPRMC,184427,A,3946.9586,N,08404.9859,W,0.0000,0.000,011217,,*38
2017-12-01 13:44:26 1512153866.376903: $GPGSA,A,3,8,10,14,15,18,20,21,24,27,32,138,,2.0,0.8,1.5*34
2017-12-01 13:44:27 1512153867.712278: $GPGSV,3,1,11,08,08,309,32,10,53,313,49,14,15,241,40,15,25,058,46*75
2017-12-01 13:44:27 1512153867.712486: $GPGSV,3,2,11,18,77,028,43,20,22,106,46,21,47,183,44,24,53,084,47*7E
2017-12-01 13:44:27 1512153867.712608: $GPGSV,3,3,11,27,15,274,36,32,33,249,43,138,38,213,46*76
2017-12-01 13:44:27 1512153867.825712: $GPZDA,184428.00,01,12,2017,00,00*63
2017-12-01 13:44:27 1512153867.825889: $GPGGA,184428,3946.9586,N,08404.9859,W,2,11,0.80,299.32,M,-33.324,M,,*7C
2017-12-01 13:44:27 1512153867.825959: $GPRMC,184428,A,3946.9586,N,08404.9859,W,0.0000,0.000,011217,,*37
2017-12-01 13:44:27 1512153867.826023: $GPGSA,A,3,8,10,14,15,18,20,21,24,27,32,138,,2.0,0.8,1.5*34
2017-12-01 13:44:28 1512153868.375554: $GPZDA,184429.00,01,12,2017,00,00*62
2017-12-01 13:44:28 1512153868.375730: $GPGGA,184429,3946.9586,N,08404.9859,W,2,11,0.80,299.32,M,-33.324,M,,*7D
2017-12-01 13:44:28 1512153868.375800: $GPRMC,184429,A,3946.9586,N,08404.9859,W,0.0000,0.000,011217,,*36
2017-12-01 13:44:28 1512153868.375863: $GPGSA,A,3,8,10,14,15,18,20,21,24,27,32,138,,2.0,0.8,1.5*34
2017-12-01 13:44:29 1512153869.378085: $GPZDA,184430.00,01,12,2017,00,00*6A
2017-12-01 13:44:29 1512153869.378349: $GPGGA,184430,3946.9586,N,08404.9859,W,2,11,0.80,299.32,M,-33.324,M,,*75
2017-12-01 13:44:29 1512153869.378445: $GPRMC,184430,A,3946.9586,N,08404.9859,W,0.0000,0.000,011217,,*3E
2017-12-01 13:44:29 1512153869.378532: $GPGSA,A,3,8,10,14,15,18,20,21,24,27,32,138,,2.0,0.8,1.5*34
2017-12-01 13:44:30 1512153870.730147: $GPGSV,3,1,11,08,08,309,32,10,53,313,49,14,15,241,40,15,25,058,46*75
2017-12-01 13:44:30 1512153870.730329: $GPGSV,3,2,11,18,77,028,43,20,22,106,46,21,47,183,44,24,53,084,47*7E
2017-12-01 13:44:30 1512153870.730397: $GPGSV,3,3,11,27,15,274,36,32,33,249,43,138,38,213,46*76
2017-12-01 13:44:30 1512153870.843767: $GPZDA,184431.00,01,12,2017,00,00*6B
2017-12-01 13:44:30 1512153870.843937: $GPGGA,184431,3946.9586,N,08404.9859,W,2,11,0.80,299.32,M,-33.324,M,,*74
2017-12-01 13:44:30 1512153870.844058: $GPRMC,184431,A,3946.9586,N,08404.9859,W,0.0000,0.000,011217,,*3F
2017-12-01 13:44:30 1512153870.844121: $GPGSA,A,3,8,10,14,15,18,20,21,24,27,32,138,,2.0,0.8,1.5*34
2017-12-01 13:44:31 1512153871.399781: $GPZDA,184432.00,01,12,2017,00,00*68
2017-12-01 13:44:31 1512153871.399951: $GPGGA,184432,3946.9586,N,08404.9859,W,2,11,0.80,299.32,M,-33.324,M,,*77
2017-12-01 13:44:31 1512153871.400017: $GPRMC,184432,A,3946.9586,N,08404.9859,W,0.0000,0.000,011217,,*3C
2017-12-01 13:44:31 1512153871.400079: $GPGSA,A,3,8,10,14,15,18,20,21,24,27,32,138,,2.0,0.8,1.5*34
2017-12-01 13:44:32 1512153872.375555: $GPZDA,184433.00,01,12,2017,00,00*69
2017-12-01 13:44:32 1512153872.375728: $GPGGA,184433,3946.9586,N,08404.9859,W,2,11,0.80,299.32,M,-33.324,M,,*76
2017-12-01 13:44:32 1512153872.375795: $GPRMC,184433,A,3946.9586,N,08404.9859,W,0.0000,0.000,011217,,*3D
2017-12-01 13:44:32 1512153872.375857: $GPGSA,A,3,8,10,14,15,18,20,21,24,27,32,138,,2.0,0.8,1.5*34
2017-12-01 13:44:33 1512153873.712237: $GPGSV,3,1,11,08,08,309,36,10,53,313,49,14,15,241,40,15,25,058,46*71
2017-12-01 13:44:33 1512153873.712419: $GPGSV,3,2,11,18,77,028,43,20,22,106,46,21,47,183,44,24,53,084,47*7E
2017-12-01 13:44:33 1512153873.712486: $GPGSV,3,3,11,27,15,274,38,32,33,249,44,138,38,213,46*7F
2017-12-01 13:44:33 1512153873.825904: $GPZDA,184434.00,01,12,2017,00,00*6E
2017-12-01 13:44:33 1512153873.826063: $GPGGA,184434,3946.9586,N,08404.9859,W,2,11,0.80,299.32,M,-33.324,M,,*71
2017-12-01 13:44:33 1512153873.826129: $GPRMC,184434,A,3946.9586,N,08404.9859,W,0.0000,0.000,011217,,*3A
2017-12-01 13:44:33 1512153873.826189: $GPGSA,A,3,8,10,14,15,18,20,21,24,27,32,138,,2.0,0.8,1.5*34
