2017-12-01 17:34:49 1512167689.676815: {"class":"VERSION","release":"3.16","rev":"3.16-4","proto_major":3,"proto_minor":11}
2017-12-01 17:34:49 1512167689.677232: {"class":"DEVICES","devices":[{"class":"DEVICE","path":"/dev/ttyUSB0","driver":"SiRF","subtype":"9\u0006GSD4e_4.1.2-P1_RPATCH.05-F-GPS-4R-1510281 11/03/2015 307","activated":"2017-12-01T22:34:49.314Z","flags":1,"native":1,"bps":4800,"parity":"N","stopbits":1,"cycle":1.00}]}
2017-12-01 17:34:49 1512167689.677356: {"class":"WATCH","enable":true,"json":false,"nmea":true,"raw":0,"scaled":false,"timing":false,"split24":false,"pps":false}
2017-12-01 17:34:49 1512167689.763392: $GPGSV,3,1,12,01,17,271,45,03,24,315,43,10,18,157,43,14,68,048,42*72
2017-12-01 17:34:49 1512167689.763531: $GPGSV,3,2,12,22,42,300,48,25,34,054,43,26,29,177,42,31,79,303,46*72
2017-12-01 17:34:49 1512167689.763597: $GPGSV,3,3,12,32,52,084,46,12,04,031,20,16,02,190,19,138,38,213,45*40
2017-12-01 17:34:49 1512167689.877050: $GPZDA,223450.00,01,12,2017,00,00*62
2017-12-01 17:34:49 1512167689.877264: $GPGGA,223450,3946.9718,N,08404.9839,W,2,12,1.00,295.12,M,-33.325,M,,*7B
2017-12-01 17:34:49 1512167689.877336: $GPRMC,223450,A,3946.9718,N,08404.9839,W,0.0000,0.000,011217,,*35
2017-12-01 17:34:49 1512167689.877400: $GPGSA,A,3,1,3,10,14,22,25,26,31,32,12,16,138,2.0,1.0,1.5*0D
2017-12-01 17:34:50 1512167690.502227: $GPZDA,223451.00,01,12,2017,00,00*63
2017-12-01 17:34:50 1512167690.502409: $GPGGA,223451,3946.9718,N,08404.9839,W,2,12,1.00,295.12,M,-33.325,M,,*7A
2017-12-01 17:34:50 1512167690.502478: $GPRMC,223451,A,3946.9718,N,08404.9839,W,0.0000,0.000,011217,,*34
2017-12-01 17:34:50 1512167690.502539: $GPGSA,A,3,1,3,10,14,22,25,26,31,32,12,16,138,2.0,1.0,1.5*0D
2017-12-01 17:34:51 1512167691.425544: $GPZDA,223452.00,01,12,2017,00,00*60
2017-12-01 17:34:51 1512167691.425729: $GPGGA,223452,3946.9718,N,08404.9839,W,2,12,1.00,295.12,M,-33.325,M,,*79
2017-12-01 17:34:51 1512167691.425798: $GPRMC,223452,A,3946.9718,N,08404.9839,W,0.0000,0.000,011217,,*37
2017-12-01 17:34:51 1512167691.425861: $GPGSA,A,3,1,3,10,14,22,25,26,31,32,12,16,138,2.0,1.0,1.5*0D
2017-12-01 17:34:52 1512167692.786404: $GPGSV,3,1,12,01,17,271,45,03,24,315,44,10,18,157,43,14,68,048,42*75
2017-12-01 17:34:52 1512167692.786612: $GPGSV,3,2,12,22,42,300,48,25,34,054,43,26,29,177,42,31,79,303,45*71
2017-12-01 17:34:52 1512167692.786683: $GPGSV,3,3,12,32,52,084,46,12,04,031,20,16,02,190,16,138,38,213,45*4F
2017-12-01 17:34:52 1512167692.898546: $GPZDA,223453.00,01,12,2017,00,00*61
2017-12-01 17:34:52 1512167692.898721: $GPGGA,223453,3946.9718,N,08404.9839,W,2,12,1.00,295.12,M,-33.325,M,,*78
2017-12-01 17:34:52 1512167692.898787: $GPRMC,223453,A,3946.9718,N,08404.9839,W,0.0000,0.000,011217,,*36
2017-12-01 17:34:52 1512167692.898850: $GPGSA,A,3,1,3,10,14,22,25,26,31,32,12,16,138,2.0,1.0,1.5*0D
2017-12-01 17:34:53 1512167693.450932: $GPZDA,223454.00,01,12,2017,00,00*66
2017-12-01 17:34:53 1512167693.451110: $GPGGA,223454,3946.9718,N,08404.9839,W,2,12,1.00,295.12,M,-33.325,M,,*7F
2017-12-01 17:34:53 1512167693.451177: $GPRMC,223454,A,3946.9718,N,08404.9839,W,0.0000,0.000,011217,,*31
2017-12-01 17:34:53 1512167693.451243: $GPGSA,A,3,1,3,10,14,22,25,26,31,32,12,16,138,2.0,1.0,1.5*0D
2017-12-01 17:34:54 1512167694.442700: $GPZDA,223455.00,01,12,2017,00,00*67
2017-12-01 17:34:54 1512167694.442872: $GPGGA,223455,3946.9718,N,08404.9839,W,2,12,1.00,295.12,M,-33.325,M,,*7E
2017-12-01 17:34:54 1512167694.442941: $GPRMC,223455,A,3946.9718,N,08404.9839,W,0.0000,0.000,011217,,*30
2017-12-01 17:34:54 1512167694.443002: $GPGSA,A,3,1,3,10,14,22,25,26,31,32,12,16,138,2.0,1.0,1.5*0D
2017-12-01 17:34:55 1512167695.765534: $GPGSV,3,1,12,01,17,271,45,03,24,315,44,10,18,157,43,14,68,048,41*76
2017-12-01 17:34:55 1512167695.765715: $GPGSV,3,2,12,22,42,300,48,25,34,054,43,26,29,177,42,31,79,303,45*71
2017-12-01 17:34:55 1512167695.765783: $GPGSV,3,3,12,32,52,084,46,12,04,031,20,16,02,190,08,138,38,213,45*40
2017-12-01 17:34:55 1512167695.878873: $GPZDA,223456.00,01,12,2017,00,00*64
2017-12-01 17:34:55 1512167695.879027: $GPGGA,223456,3946.9718,N,08404.9839,W,2,11,1.00,295.12,M,-33.325,M,,*7E
2017-12-01 17:34:55 1512167695.879148: $GPRMC,223456,A,3946.9718,N,08404.9839,W,0.0000,0.000,011217,,*33
2017-12-01 17:34:55 1512167695.879215: $GPGSA,A,3,1,3,10,14,22,25,26,31,32,12,138,,2.0,1.0,1.5*0A
2017-12-01 17:34:56 1512167696.427246: $GPZDA,223457.00,01,12,2017,00,00*65
2017-12-01 17:34:56 1512167696.427413: $GPGGA,223457,3946.9718,N,08404.9839,W,2,11,1.00,295.12,M,-33.325,M,,*7F
2017-12-01 17:34:56 1512167696.427483: $GPRMC,223457,A,3946.9718,N,08404.9839,W,0.0000,0.000,011217,,*32
2017-12-01 17:34:56 1512167696.427544: $GPGSA,A,3,1,3,10,14,22,25,26,31,32,12,138,,2.0,1.0,1.5*0A
2017-12-01 17:34:57 1512167697.426926: $GPZDA,223458.00,01,12,2017,00,00*6A
2017-12-01 17:34:57 1512167697.427133: $GPGGA,223458,3946.9718,N,08404.9839,W,2,11,1.00,295.12,M,-33.325,M,,*70
2017-12-01 17:34:57 1512167697.427206: $GPRMC,223458,A,3946.9718,N,08404.9839,W,0.0000,0.000,011217,,*3D
2017-12-01 17:34:57 1512167697.427268: $GPGSA,A,3,1,3,10,14,22,25,26,31,32,12,138,,2.0,1.0,1.5*0A
2017-12-01 17:34:58 1512167698.763899: $GPGSV,3,1,12,01,17,271,46,03,24,315,44,10,18,157,43,14,68,048,41*75
2017-12-01 17:34:58 1512167698.764087: $GPGSV,3,2,12,22,42,300,48,25,34,054,44,26,29,177,43,31,79,303,45*77
2017-12-01 17:34:58 1512167698.764155: $GPGSV,3,3,12,32,52,084,46,12,04,031,18,16,02,190,07,138,38,213,45*44
2017-12-01 17:34:58 1512167698.877214: $GPZDA,223459.00,01,12,2017,00,00*6B
2017-12-01 17:34:58 1512167698.877370: $GPGGA,223459,3946.9718,N,08404.9839,W,2,11,1.00,295.12,M,-33.325,M,,*71
2017-12-01 17:34:58 1512167698.877439: $GPRMC,223459,A,3946.9718,N,08404.9839,W,0.0000,0.000,011217,,*3C
2017-12-01 17:34:58 1512167698.877499: $GPGSA,A,3,1,3,10,14,22,25,26,31,32,12,138,,2.0,1.0,1.5*0A
2017-12-01 17:34:59 1512167699.425789: $GPZDA,223500.00,01,12,2017,00,00*66
2017-12-01 17:34:59 1512167699.425957: $GPGGA,223500,3946.9718,N,08404.9839,W,2,11,1.00,295.12,M,-33.325,M,,*7C
2017-12-01 17:34:59 1512167699.426024: $GPRMC,223500,A,3946.9718,N,08404.9839,W,0.0000,0.000,011217,,*31
2017-12-01 17:34:59 1512167699.426090: $GPGSA,A,3,1,3,10,14,22,25,26,31,32,12,138,,2.0,1.0,1.5*0A
2017-12-01 17:35:00 1512167700.428484: $GPZDA,223501.00,01,12,2017,00,00*67
2017-12-01 17:35:00 1512167700.428677: $GPGGA,223501,3946.9718,N,08404.9839,W,2,11,1.00,295.12,M,-33.325,M,,*7D
2017-12-01 17:35:00 1512167700.428746: $GPRMC,223501,A,3946.9718,N,08404.9839,W,0.0000,0.000,011217,,*30
2017-12-01 17:35:00 1512167700.428809: $GPGSA,A,3,1,3,10,14,22,25,26,31,32,12,138,,2.0,1.0,1.5*0A
2017-12-01 17:35:01 1512167701.770517: $GPGSV,3,1,12,01,17,271,46,03,24,315,44,10,18,157,44,14,68,048,41*72
2017-12-01 17:35:01 1512167701.770716: $GPGSV,3,2,12,22,42,300,47,25,34,054,43,26,29,177,43,31,79,303,45*7F
2017-12-01 17:35:01 1512167701.770786: $GPGSV,3,3,12,32,52,084,46,12,04,031,18,16,02,190,05,138,38,213,46*45
2017-12-01 17:35:01 1512167701.883966: $GPZDA,223502.00,01,12,2017,00,00*64
2017-12-01 17:35:01 1512167701.884149: $GPGGA,223502,3946.9718,N,08404.9839,W,2,11,1.00,295.12,M,-33.325,M,,*7E
2017-12-01 17:35:01 1512167701.884219: $GPRMC,223502,A,3946.9718,N,08404.9839,W,0.0000,0.000,011217,,*33
2017-12-01 17:35:01 1512167701.884282: $GPGSA,A,3,1,3,10,14,22,25,26,31,32,12,138,,2.0,1.0,1.5*0A
2017-12-01 17:35:02 1512167702.426148: $GPZDA,223503.00,01,12,2017,00,00*65
2017-12-01 17:35:02 1512167702.426331: $GPGGA,223503,3946.9718,N,08404.9839,W,2,11,1.00,295.12,M,-33.325,M,,*7F
2017-12-01 17:35:02 1512167702.426403: $GPRMC,223503,A,3946.9718,N,08404.9839,W,0.0000,0.000,011217,,*32
2017-12-01 17:35:02 1512167702.426465: $GPGSA,A,3,1,3,10,14,22,25,26,31,32,12,138,,2.0,1.0,1.5*0A
2017-12-01 17:35:03 1512167703.426032: $GPZDA,223504.00,01,12,2017,00,00*62
2017-12-01 17:35:03 1512167703.426237: $GPGGA,223504,3946.9718,N,08404.9839,W,2,11,1.00,295.12,M,-33.325,M,,*78
2017-12-01 17:35:03 1512167703.426308: $GPRMC,223504,A,3946.9718,N,08404.9839,W,0.0000,0.000,011217,,*35
2017-12-01 17:35:03 1512167703.426370: $GPGSA,A,3,1,3,10,14,22,25,26,31,32,12,138,,2.0,1.0,1.5*0A
2017-12-01 17:35:04 1512167704.762616: $GPGSV,3,1,12,01,17,271,46,03,24,315,44,10,18,157,44,14,68,048,42*71
2017-12-01 17:35:04 1512167704.762827: $GPGSV,3,2,12,22,42,300,47,25,34,054,44,26,29,177,42,31,79,303,46*7A
2017-12-01 17:35:04 1512167704.762896: $GPGSV,3,3,12,32,52,084,45,12,04,031,18,16,02,190,15,138,38,213,46*47
2017-12-01 17:35:04 1512167704.875952: $GPZDA,223505.00,01,12,2017,00,00*63
2017-12-01 17:35:04 1512167704.876128: $GPGGA,223505,3946.9718,N,08404.9839,W,2,11,1.00,295.12,M,-33.325,M,,*79
2017-12-01 17:35:04 1512167704.876219: $GPRMC,223505,A,3946.9718,N,08404.9839,W,0.0000,0.000,011217,,*34
2017-12-01 17:35:04 1512167704.876283: $GPGSA,A,3,1,3,10,14,22,25,26,31,32,12,138,,2.0,1.0,1.5*0A
2017-12-01 17:35:05 1512167705.501603: $GPZDA,223506.00,01,12,2017,00,00*60
2017-12-01 17:35:05 1512167705.501791: $GPGGA,223506,3946.9718,N,08404.9839,W,2,11,1.00,295.12,M,-33.325,M,,*7A
2017-12-01 17:35:05 1512167705.501858: $GPRMC,223506,A,3946.9718,N,08404.9839,W,0.0000,0.000,011217,,*37
2017-12-01 17:35:05 1512167705.501921: $GPGSA,A,3,1,3,10,14,22,25,26,31,32,12,138,,2.0,1.0,1.5*0A
2017-12-01 17:35:06 1512167706.424723: $GPZDA,223507.00,01,12,2017,00,00*61
2017-12-01 17:35:06 1512167706.424906: $GPGGA,223507,3946.9718,N,08404.9839,W,2,11,1.00,295.12,M,-33.325,M,,*7B
2017-12-01 17:35:06 1512167706.424974: $GPRMC,223507,A,3946.9718,N,08404.9839,W,0.0000,0.000,011217,,*36
2017-12-01 17:35:06 1512167706.425037: $GPGSA,A,3,1,3,10,14,22,25,26,31,32,12,138,,2.0,1.0,1.5*0A
2017-12-01 17:35:07 1512167707.761737: $GPGSV,3,1,12,01,17,271,46,03,24,315,43,10,18,157,44,14,68,048,42*76
2017-12-01 17:35:07 1512167707.761921: $GPGSV,3,2,12,22,42,300,48,25,34,054,43,26,29,177,42,31,79,303,46*72
2017-12-01 17:35:07 1512167707.761989: $GPGSV,3,3,12,32,52,084,45,12,04,031,19,16,02,190,00,138,38,213,46*42
2017-12-01 17:35:07 1512167707.875467: $GPZDA,223508.00,01,12,2017,00,00*6E
2017-12-01 17:35:07 1512167707.875645: $GPGGA,223508,3946.9718,N,08404.9839,W,2,11,1.00,295.12,M,-33.325,M,,*74
2017-12-01 17:35:07 1512167707.875713: $GPRMC,223508,A,3946.9718,N,08404.9839,W,0.0000,0.000,011217,,*39
2017-12-01 17:35:07 1512167707.875774: $GPGSA,A,3,1,3,10,14,22,25,26,31,32,12,138,,2.0,1.0,1.5*0A
2017-12-01 17:35:08 1512167708.422401: $GPZDA,223509.00,01,12,2017,00,00*6F
2017-12-01 17:35:08 1512167708.422570: $GPGGA,223509,3946.9718,N,08404.9839,W,2,11,1.00,295.12,M,-33.325,M,,*75
2017-12-01 17:35:08 1512167708.422637: $GPRMC,223509,A,3946.9718,N,08404.9839,W,0.0000,0.000,011217,,*38
2017-12-01 17:35:08 1512167708.422698: $GPGSA,A,3,1,3,10,14,22,25,26,31,32,12,138,,2.0,1.0,1.5*0A
2017-12-01 17:35:09 1512167709.425721: $GPZDA,223510.00,01,12,2017,00,00*67
2017-12-01 17:35:09 1512167709.425883: $GPGGA,223510,3946.9718,N,08404.9839,W,2,11,1.00,295.12,M,-33.325,M,,*7D
2017-12-01 17:35:09 1512167709.425951: $GPRMC,223510,A,3946.9718,N,08404.9839,W,0.0000,0.000,011217,,*30
2017-12-01 17:35:09 1512167709.426038: $GPGSA,A,3,1,3,10,14,22,25,26,31,32,12,138,,2.0,1.0,1.5*0A
