2018-01-11 20:00:15 1515718815.778363: {"class":"VERSION","release":"3.16","rev":"3.16-4","proto_major":3,"proto_minor":11}
2018-01-11 20:00:15 1515718815.778708: {"class":"DEVICES","devices":[{"class":"DEVICE","path":"/dev/ttyUSB0","driver":"SiRF","subtype":"9\u0006GSD4e_4.1.2-P1_RPATCH.05-F-GPS-4R-1510281 11/03/2015 307","activated":"2018-01-12T01:00:15.700Z","flags":1,"native":1,"bps":4800,"parity":"N","stopbits":1,"cycle":1.00}]}
2018-01-11 20:00:15 1515718815.778819: {"class":"WATCH","enable":true,"json":false,"nmea":true,"raw":0,"scaled":false,"timing":false,"split24":false,"pps":false}
2018-01-11 20:00:15 1515718815.814511: $GPZDA,010016.00,12,01,2018,00,00*69
2018-01-11 20:00:15 1515718815.814683: $GPGGA,010016,3946.9584,N,08404.9837,W,2,10,0.80,296.75,M,-33.324,M,,*7E
2018-01-11 20:00:15 1515718815.814749: $GPRMC,010016,A,3946.9584,N,08404.9837,W,0.0000,0.000,120118,,*37
2018-01-11 20:00:15 1515718815.814811: $GPGSA,A,3,7,8,9,11,16,23,27,30,28,138,,,4.0,0.8,3.5*3E
2018-01-11 20:00:16 1515718816.364754: $GPZDA,010017.00,12,01,2018,00,00*68
2018-01-11 20:00:16 1515718816.364907: $GPGGA,010017,3946.9584,N,08404.9837,W,2,10,0.80,296.75,M,-33.324,M,,*7F
2018-01-11 20:00:16 1515718816.364972: $GPRMC,010017,A,3946.9584,N,08404.9837,W,0.0000,0.000,120118,,*36
2018-01-11 20:00:16 1515718816.365032: $GPGSA,A,3,7,8,9,11,16,23,27,30,28,138,,,4.0,0.8,3.5*3E
2018-01-11 20:00:17 1515718817.365168: $GPZDA,010018.00,12,01,2018,00,00*67
2018-01-11 20:00:17 1515718817.365329: $GPGGA,010018,3946.9584,N,08404.9837,W,2,10,0.80,296.75,M,-33.324,M,,*70
2018-01-11 20:00:17 1515718817.365394: $GPRMC,010018,A,3946.9584,N,08404.9837,W,0.0000,0.000,120118,,*39
2018-01-11 20:00:17 1515718817.365473: $GPGSA,A,3,7,8,9,11,16,23,27,30,28,138,,,4.0,0.8,3.5*3E
2018-01-11 20:00:18 1515718818.701804: $GPGSV,3,1,11,07,51,313,43,08,70,147,45,09,51,237,43,11,16,169,40*73
2018-01-11 20:00:18 1515718818.701970: $GPGSV,3,2,11,16,27,057,46,23,34,192,47,27,51,058,50,30,24,304,38*75
2018-01-11 20:00:18 1515718818.702034: $GPGSV,3,3,11,28,10,255,31,26,02,069,00,138,38,213,45*7B
2018-01-11 20:00:18 1515718818.815526: $GPZDA,010019.00,12,01,2018,00,00*66
2018-01-11 20:00:18 1515718818.815690: $GPGGA,010019,3946.9584,N,08404.9837,W,2,10,0.80,296.75,M,-33.324,M,,*71
2018-01-11 20:00:18 1515718818.815755: $GPRMC,010019,A,3946.9584,N,08404.9837,W,0.0000,0.000,120118,,*38
2018-01-11 20:00:18 1515718818.815815: $GPGSA,A,3,7,8,9,11,16,23,27,30,28,138,,,4.0,0.8,3.5*3E
2018-01-11 20:00:19 1515718819.854002: $GPZDA,010020.00,12,01,2018,00,00*6C
2018-01-11 20:00:19 1515718819.854188: $GPGGA,010020,3946.9580,N,08404.9831,W,2,10,0.80,297.60,M,-33.324,M,,*7C
2018-01-11 20:00:19 1515718819.854255: $GPRMC,010020,A,3946.9580,N,08404.9831,W,0.0000,0.000,120118,,*30
2018-01-11 20:00:19 1515718819.854315: $GPGSA,A,3,7,8,9,11,16,23,27,30,28,138,,,4.0,0.8,3.5*3E
2018-01-11 20:00:20 1515718820.343667: $GPZDA,010021.00,12,01,2018,00,00*6D
2018-01-11 20:00:20 1515718820.343831: $GPGGA,010021,3946.9580,N,08404.9831,W,2,10,0.80,297.60,M,-33.324,M,,*7D
2018-01-11 20:00:20 1515718820.343897: $GPRMC,010021,A,3946.9580,N,08404.9831,W,0.0000,0.000,120118,,*31
2018-01-11 20:00:20 1515718820.343957: $GPGSA,A,3,7,8,9,11,16,23,27,30,28,138,,,4.0,0.8,3.5*3E
2018-01-11 20:00:21 1515718821.701533: $GPGSV,3,1,11,07,51,313,43,08,70,145,45,09,51,235,43,11,16,169,40*73
2018-01-11 20:00:21 1515718821.701673: $GPGSV,3,2,11,16,26,057,46,23,34,192,47,27,51,057,50,30,25,304,38*7A
2018-01-11 20:00:21 1515718821.701738: $GPGSV,3,3,11,28,11,255,33,26,02,070,00,138,38,213,44*71
2018-01-11 20:00:21 1515718821.815196: $GPZDA,010022.00,12,01,2018,00,00*6E
2018-01-11 20:00:21 1515718821.815346: $GPGGA,010022,3946.9580,N,08404.9831,W,2,10,0.80,297.60,M,-33.324,M,,*7E
2018-01-11 20:00:21 1515718821.815409: $GPRMC,010022,A,3946.9580,N,08404.9831,W,0.0000,0.000,120118,,*32
2018-01-11 20:00:21 1515718821.815468: $GPGSA,A,3,7,8,9,11,16,23,27,30,28,138,,,4.0,0.8,3.5*3E
2018-01-11 20:00:22 1515718822.441893: $GPZDA,010023.00,12,01,2018,00,00*6F
2018-01-11 20:00:22 1515718822.442031: $GPGGA,010023,3946.9580,N,08404.9831,W,2,10,0.80,297.60,M,-33.324,M,,*7F
2018-01-11 20:00:22 1515718822.442151: $GPRMC,010023,A,3946.9580,N,08404.9831,W,0.0000,0.000,120118,,*33
2018-01-11 20:00:22 1515718822.442213: $GPGSA,A,3,7,8,9,11,16,23,27,30,28,138,,,4.0,0.8,3.5*3E
2018-01-11 20:00:23 1515718823.349003: $GPZDA,010024.00,12,01,2018,00,00*68
2018-01-11 20:00:23 1515718823.349223: $GPGGA,010024,3946.9580,N,08404.9831,W,2,10,0.80,297.60,M,-33.324,M,,*78
2018-01-11 20:00:23 1515718823.349288: $GPRMC,010024,A,3946.9580,N,08404.9831,W,0.0000,0.000,120118,,*34
2018-01-11 20:00:23 1515718823.349348: $GPGSA,A,3,7,8,9,11,16,23,27,30,28,138,,,4.0,0.8,3.5*3E
2018-01-11 20:00:24 1515718824.684329: $GPGSV,3,1,11,07,51,313,44,08,70,145,45,09,51,235,43,11,16,169,41*75
2018-01-11 20:00:24 1515718824.684470: $GPGSV,3,2,11,16,26,057,46,23,34,192,47,27,51,057,50,30,25,304,38*7A
2018-01-11 20:00:24 1515718824.684534: $GPGSV,3,3,11,28,11,255,32,26,02,070,00,138,38,213,45*71
2018-01-11 20:00:24 1515718824.797712: $GPZDA,010025.00,12,01,2018,00,00*69
2018-01-11 20:00:24 1515718824.797850: $GPGGA,010025,3946.9580,N,08404.9831,W,2,10,0.80,297.60,M,-33.324,M,,*79
2018-01-11 20:00:24 1515718824.797915: $GPRMC,010025,A,3946.9580,N,08404.9831,W,0.0000,0.000,120118,,*35
2018-01-11 20:00:24 1515718824.797974: $GPGSA,A,3,7,8,9,11,16,23,27,30,28,138,,,4.0,0.8,3.5*3E
2018-01-11 20:00:25 1515718825.356363: $GPZDA,010026.00,12,01,2018,00,00*6A
2018-01-11 20:00:25 1515718825.356526: $GPGGA,010026,3946.9580,N,08404.9831,W,2,10,0.80,297.60,M,-33.324,M,,*7A
2018-01-11 20:00:25 1515718825.356592: $GPRMC,010026,A,3946.9580,N,08404.9831,W,0.0000,0.000,120118,,*36
2018-01-11 20:00:25 1515718825.356652: $GPGSA,A,3,7,8,9,11,16,23,27,30,28,138,,,4.0,0.8,3.5*3E
