2017-12-01 18:23:03 1512170583.123516: {"class":"VERSION","release":"3.16","rev":"3.16-4","proto_major":3,"proto_minor":11}
2017-12-01 18:23:03 1512170583.123919: {"class":"DEVICES","devices":[{"class":"DEVICE","path":"/dev/ttyUSB0","driver":"SiRF","subtype":"9\u0006GSD4e_4.1.2-P1_RPATCH.05-F-GPS-4R-1510281 11/03/2015 307","activated":"2017-12-01T23:23:02.746Z","flags":1,"native":1,"bps":4800,"parity":"N","stopbits":1,"cycle":1.00}]}
2017-12-01 18:23:03 1512170583.124058: {"class":"WATCH","enable":true,"json":false,"nmea":true,"raw":0,"scaled":false,"timing":false,"split24":false,"pps":false}
2017-12-01 18:23:03 1512170583.431012: $GPZDA,232304.00,01,12,2017,00,00*64
2017-12-01 18:23:03 1512170583.431187: $GPGGA,232304,3946.9732,N,08404.9816,W,2,11,0.80,295.11,M,-33.325,M,,*71
2017-12-01 18:23:03 1512170583.431255: $GPRMC,232304,A,3946.9732,N,08404.9816,W,0.0000,0.000,011217,,*36
2017-12-01 18:23:03 1512170583.431317: $GPGSA,A,3,1,3,14,16,22,23,25,26,31,32,138,,2.0,0.8,1.5*07
2017-12-01 18:23:04 1512170584.760215: $GPGSV,3,1,12,01,06,253,29,03,40,300,38,14,55,091,34,16,23,189,34*74
2017-12-01 18:23:04 1512170584.760385: $GPGSV,3,2,12,22,50,271,35,23,11,300,32,25,18,040,31,26,53,172,36*74
2017-12-01 18:23:04 1512170584.760453: $GPGSV,3,3,12,31,67,025,37,32,36,108,33,29,11,072,00,138,38,213,40*4C
2017-12-01 18:23:04 1512170584.873853: $GPZDA,232305.00,01,12,2017,00,00*65
2017-12-01 18:23:04 1512170584.874019: $GPGGA,232305,3946.9728,N,08404.9816,W,2,11,0.80,294.47,M,-33.325,M,,*79
2017-12-01 18:23:04 1512170584.874084: $GPRMC,232305,A,3946.9728,N,08404.9816,W,0.1867,180.000,011217,,*3D
2017-12-01 18:23:04 1512170584.874145: $GPGSA,A,3,1,3,14,16,22,23,25,26,31,32,138,,2.0,0.8,1.5*07
2017-12-01 18:23:05 1512170585.426083: $GPZDA,232306.00,01,12,2017,00,00*66
2017-12-01 18:23:05 1512170585.426246: $GPGGA,232306,3946.9732,N,08404.9823,W,2,11,0.80,293.62,M,-33.325,M,,*77
2017-12-01 18:23:05 1512170585.426313: $GPRMC,232306,A,3946.9732,N,08404.9823,W,0.2422,273.794,011217,,*38
2017-12-01 18:23:05 1512170585.426375: $GPGSA,A,3,1,3,14,16,22,23,25,26,31,32,138,,2.0,0.8,1.5*07
2017-12-01 18:23:06 1512170586.424403: $GPZDA,232307.00,01,12,2017,00,00*67
2017-12-01 18:23:06 1512170586.424573: $GPGGA,232307,3946.9732,N,08404.9823,W,2,11,0.80,293.62,M,-33.325,M,,*76
2017-12-01 18:23:06 1512170586.424641: $GPRMC,232307,A,3946.9732,N,08404.9823,W,0.0000,0.000,011217,,*33
2017-12-01 18:23:06 1512170586.424702: $GPGSA,A,3,1,3,14,16,22,23,25,26,31,32,138,,2.0,0.8,1.5*07
2017-12-01 18:23:07 1512170587.759827: $GPGSV,3,1,12,01,06,253,37,03,40,300,47,14,55,091,43,16,23,189,43*73
2017-12-01 18:23:07 1512170587.760015: $GPGSV,3,2,12,22,50,271,44,23,11,300,39,25,18,040,40,26,53,172,46*78
2017-12-01 18:23:07 1512170587.760082: $GPGSV,3,3,12,31,67,025,46,32,36,108,42,29,11,072,15,138,38,213,46*4E
2017-12-01 18:23:07 1512170587.873295: $GPZDA,232308.00,01,12,2017,00,00*68
2017-12-01 18:23:07 1512170587.873456: $GPGGA,232308,3946.9732,N,08404.9823,W,2,11,0.80,293.62,M,-33.325,M,,*79
2017-12-01 18:23:07 1512170587.873523: $GPRMC,232308,A,3946.9732,N,08404.9823,W,0.0000,0.000,011217,,*3C
2017-12-01 18:23:07 1512170587.873584: $GPGSA,A,3,1,3,14,16,22,23,25,26,31,32,138,,2.0,0.8,1.5*07
2017-12-01 18:23:08 1512170588.500257: $GPZDA,232309.00,01,12,2017,00,00*69
2017-12-01 18:23:08 1512170588.500426: $GPGGA,232309,3946.9732,N,08404.9823,W,2,11,0.80,293.62,M,-33.325,M,,*78
2017-12-01 18:23:08 1512170588.500492: $GPRMC,232309,A,3946.9732,N,08404.9823,W,0.0000,0.000,011217,,*3D
2017-12-01 18:23:08 1512170588.500553: $GPGSA,A,3,1,3,14,16,22,23,25,26,31,32,138,,2.0,0.8,1.5*07
2017-12-01 18:23:09 1512170589.425646: $GPZDA,232310.00,01,12,2017,00,00*61
2017-12-01 18:23:09 1512170589.425813: $GPGGA,232310,3946.9732,N,08404.9823,W,2,11,0.80,293.62,M,-33.325,M,,*70
2017-12-01 18:23:09 1512170589.425880: $GPRMC,232310,A,3946.9732,N,08404.9823,W,0.0000,0.000,011217,,*35
2017-12-01 18:23:09 1512170589.425942: $GPGSA,A,3,1,3,14,16,22,23,25,26,31,32,138,,2.0,0.8,1.5*07
2017-12-01 18:23:10 1512170590.760157: $GPGSV,3,1,12,01,06,253,37,03,40,300,48,14,55,091,43,16,23,189,43*7C
2017-12-01 18:23:10 1512170590.760388: $GPGSV,3,2,12,22,50,271,44,23,11,300,40,25,18,040,40,26,53,172,46*76
2017-12-01 18:23:10 1512170590.760457: $GPGSV,3,3,12,31,67,025,46,32,36,108,34,29,11,072,00,138,38,213,46*4B
2017-12-01 18:23:10 1512170590.873516: $GPZDA,232311.00,01,12,2017,00,00*60
2017-12-01 18:23:10 1512170590.873671: $GPGGA,232311,3946.9732,N,08404.9823,W,2,11,0.80,293.62,M,-33.325,M,,*71
2017-12-01 18:23:10 1512170590.873737: $GPRMC,232311,A,3946.9732,N,08404.9823,W,0.0000,0.000,011217,,*34
2017-12-01 18:23:10 1512170590.873798: $GPGSA,A,3,1,3,14,16,22,23,25,26,31,32,138,,2.0,0.8,1.5*07
2017-12-01 18:23:11 1512170591.431943: $GPZDA,232312.00,01,12,2017,00,00*63
2017-12-01 18:23:11 1512170591.432113: $GPGGA,232312,3946.9732,N,08404.9823,W,2,11,0.80,293.62,M,-33.325,M,,*72
2017-12-01 18:23:11 1512170591.432180: $GPRMC,232312,A,3946.9732,N,08404.9823,W,0.0000,0.000,011217,,*37
2017-12-01 18:23:11 1512170591.432241: $GPGSA,A,3,1,3,14,16,22,23,25,26,31,32,138,,2.0,0.8,1.5*07
2017-12-01 18:23:12 1512170592.431626: $GPZDA,232313.00,01,12,2017,00,00*62
2017-12-01 18:23:12 1512170592.431859: $GPGGA,232313,3946.9732,N,08404.9823,W,2,11,0.80,293.62,M,-33.325,M,,*73
2017-12-01 18:23:12 1512170592.431956: $GPRMC,232313,A,3946.9732,N,08404.9823,W,0.0000,0.000,011217,,*36
2017-12-01 18:23:12 1512170592.432019: $GPGSA,A,3,1,3,14,16,22,23,25,26,31,32,138,,2.0,0.8,1.5*07
2017-12-01 18:23:13 1512170593.760491: $GPGSV,3,1,12,01,06,253,38,03,40,300,48,14,55,091,44,16,23,189,43*74
2017-12-01 18:23:13 1512170593.760675: $GPGSV,3,2,12,22,50,271,44,23,11,300,40,25,18,040,40,26,53,172,46*76
2017-12-01 18:23:13 1512170593.760743: $GPGSV,3,3,12,31,67,025,46,32,36,108,37,29,11,072,14,138,38,213,46*4D
2017-12-01 18:23:13 1512170593.873983: $GPZDA,232314.00,01,12,2017,00,00*65
2017-12-01 18:23:13 1512170593.874154: $GPGGA,232314,3946.9732,N,08404.9823,W,2,11,0.80,293.62,M,-33.325,M,,*74
2017-12-01 18:23:13 1512170593.874220: $GPRMC,232314,A,3946.9732,N,08404.9823,W,0.0000,0.000,011217,,*31
2017-12-01 18:23:13 1512170593.874281: $GPGSA,A,3,1,3,14,16,22,23,25,26,31,32,138,,2.0,0.8,1.5*07
2017-12-01 18:23:14 1512170594.423547: $GPZDA,232315.00,01,12,2017,00,00*64
2017-12-01 18:23:14 1512170594.423703: $GPGGA,232315,3946.9732,N,08404.9823,W,2,11,0.80,293.62,M,-33.325,M,,*75
2017-12-01 18:23:14 1512170594.423790: $GPRMC,232315,A,3946.9732,N,08404.9823,W,0.0000,0.000,011217,,*30
2017-12-01 18:23:14 1512170594.423853: $GPGSA,A,3,1,3,14,16,22,23,25,26,31,32,138,,2.0,0.8,1.5*07
2017-12-01 18:23:15 1512170595.430645: $GPZDA,232316.00,01,12,2017,00,00*67
2017-12-01 18:23:15 1512170595.430839: $GPGGA,232316,3946.9732,N,08404.9823,W,2,11,0.80,293.62,M,-33.325,M,,*76
2017-12-01 18:23:15 1512170595.430924: $GPRMC,232316,A,3946.9732,N,08404.9823,W,0.0000,0.000,011217,,*33
2017-12-01 18:23:15 1512170595.430986: $GPGSA,A,3,1,3,14,16,22,23,25,26,31,32,138,,2.0,0.8,1.5*07
2017-12-01 18:23:16 1512170596.766336: $GPGSV,3,1,12,01,06,253,38,03,40,300,47,14,55,091,43,16,23,189,43*7C
2017-12-01 18:23:16 1512170596.766486: $GPGSV,3,2,12,22,50,271,44,23,11,300,40,25,18,040,40,26,53,172,47*77
2017-12-01 18:23:16 1512170596.766571: $GPGSV,3,3,12,31,67,025,46,32,36,108,37,29,11,072,00,138,38,213,46*48
2017-12-01 18:23:16 1512170596.880246: $GPZDA,232317.00,01,12,2017,00,00*66
2017-12-01 18:23:16 1512170596.880413: $GPGGA,232317,3946.9732,N,08404.9823,W,2,11,0.80,293.62,M,-33.325,M,,*77
2017-12-01 18:23:16 1512170596.880478: $GPRMC,232317,A,3946.9732,N,08404.9823,W,0.0000,0.000,011217,,*32
2017-12-01 18:23:16 1512170596.880539: $GPGSA,A,3,1,3,14,16,22,23,25,26,31,32,138,,2.0,0.8,1.5*07
2017-12-01 18:23:17 1512170597.430614: $GPZDA,232318.00,01,12,2017,00,00*69
2017-12-01 18:23:17 1512170597.430811: $GPGGA,232318,3946.9732,N,08404.9823,W,2,11,0.80,293.62,M,-33.325,M,,*78
2017-12-01 18:23:17 1512170597.430896: $GPRMC,232318,A,3946.9732,N,08404.9823,W,0.0000,0.000,011217,,*3D
2017-12-01 18:23:17 1512170597.430959: $GPGSA,A,3,1,3,14,16,22,23,25,26,31,32,138,,2.0,0.8,1.5*07
2017-12-01 18:23:18 1512170598.430981: $GPZDA,232319.00,01,12,2017,00,00*68
2017-12-01 18:23:18 1512170598.431203: $GPGGA,232319,3946.9732,N,08404.9823,W,2,11,0.80,293.62,M,-33.325,M,,*79
2017-12-01 18:23:18 1512170598.431273: $GPRMC,232319,A,3946.9732,N,08404.9823,W,0.0000,0.000,011217,,*3C
2017-12-01 18:23:18 1512170598.431334: $GPGSA,A,3,1,3,14,16,22,23,25,26,31,32,138,,2.0,0.8,1.5*07
2017-12-01 18:23:19 1512170599.760416: $GPGSV,3,1,12,01,06,253,38,03,40,300,47,14,55,091,43,16,23,189,43*7C
2017-12-01 18:23:19 1512170599.760599: $GPGSV,3,2,12,22,50,271,45,23,11,300,41,25,18,040,39,26,53,172,47*79
2017-12-01 18:23:19 1512170599.760665: $GPGSV,3,3,12,31,67,025,46,32,36,108,38,29,11,072,00,138,38,213,46*47
2017-12-01 18:23:19 1512170599.873954: $GPZDA,232320.00,01,12,2017,00,00*62
2017-12-01 18:23:19 1512170599.874132: $GPGGA,232320,3946.9732,N,08404.9823,W,2,11,0.80,293.62,M,-33.325,M,,*73
2017-12-01 18:23:19 1512170599.874199: $GPRMC,232320,A,3946.9732,N,08404.9823,W,0.0000,0.000,011217,,*36
2017-12-01 18:23:19 1512170599.874260: $GPGSA,A,3,1,3,14,16,22,23,25,26,31,32,138,,2.0,0.8,1.5*07
2017-12-01 18:23:20 1512170600.430946: $GPZDA,232321.00,01,12,2017,00,00*63
2017-12-01 18:23:20 1512170600.431118: $GPGGA,232321,3946.9732,N,08404.9823,W,2,11,0.80,293.62,M,-33.325,M,,*72
2017-12-01 18:23:20 1512170600.431184: $GPRMC,232321,A,3946.9732,N,08404.9823,W,0.0000,0.000,011217,,*37
2017-12-01 18:23:20 1512170600.431245: $GPGSA,A,3,1,3,14,16,22,23,25,26,31,32,138,,2.0,0.8,1.5*07
2017-12-01 18:23:21 1512170601.430548: $GPZDA,232322.00,01,12,2017,00,00*60
2017-12-01 18:23:21 1512170601.430736: $GPGGA,232322,3946.9732,N,08404.9823,W,2,11,0.80,293.62,M,-33.325,M,,*71
2017-12-01 18:23:21 1512170601.430821: $GPRMC,232322,A,3946.9732,N,08404.9823,W,0.0000,0.000,011217,,*34
2017-12-01 18:23:21 1512170601.430885: $GPGSA,A,3,1,3,14,16,22,23,25,26,31,32,138,,2.0,0.8,1.5*07
2017-12-01 18:23:22 1512170602.766592: $GPGSV,3,1,12,01,06,253,38,03,40,300,47,14,55,091,43,16,23,189,43*7C
2017-12-01 18:23:22 1512170602.766834: $GPGSV,3,2,12,22,50,271,45,23,11,300,41,25,18,040,40,26,53,172,47*77
2017-12-01 18:23:22 1512170602.766918: $GPGSV,3,3,12,31,67,025,46,32,36,108,38,29,11,072,15,138,38,213,46*43
2017-12-01 18:23:22 1512170602.878401: $GPZDA,232323.00,01,12,2017,00,00*61
2017-12-01 18:23:22 1512170602.878582: $GPGGA,232323,3946.9732,N,08404.9823,W,2,11,0.80,293.62,M,-33.325,M,,*70
2017-12-01 18:23:22 1512170602.880960: $GPRMC,232323,A,3946.9732,N,08404.9823,W,0.0000,0.000,011217,,*35
2017-12-01 18:23:22 1512170602.881051: $GPGSA,A,3,1,3,14,16,22,23,25,26,31,32,138,,2.0,0.8,1.5*07
