2017-12-29 10:55:00 1514562900.098896: {"class":"VERSION","release":"3.16","rev":"3.16-4","proto_major":3,"proto_minor":11}
2017-12-29 10:55:00 1514562900.099235: {"class":"DEVICES","devices":[{"class":"DEVICE","path":"/dev/ttyUSB0","driver":"SiRF","subtype":"9\u0006GSD4e_4.1.2-P1_RPATCH.05-F-GPS-4R-1510281 11/03/2015 307","activated":"2017-12-29T15:54:59.496Z","flags":1,"native":1,"bps":4800,"parity":"N","stopbits":1,"cycle":1.00}]}
2017-12-29 10:55:00 1514562900.099347: {"class":"WATCH","enable":true,"json":false,"nmea":true,"raw":0,"scaled":false,"timing":false,"split24":false,"pps":false}
2017-12-29 10:55:00 1514562900.692143: $GPGSV,3,1,11,10,34,294,43,13,16,046,40,15,46,049,49,18,65,319,44*71
2017-12-29 10:55:00 1514562900.692311: $GPGSV,3,2,11,20,42,087,51,21,73,204,47,24,45,124,50,27,19,300,31*7C
2017-12-29 10:55:00 1514562900.692378: $GPGSV,3,3,11,32,14,232,30,08,02,330,28,138,38,213,44*7C
2017-12-29 10:55:00 1514562900.805746: $GPZDA,155501.00,29,12,2017,00,00*6F
2017-12-29 10:55:00 1514562900.805885: $GPGGA,155501,3946.9621,N,08404.9788,W,2,11,0.80,315.14,M,-33.324,M,,*76
2017-12-29 10:55:00 1514562900.805950: $GPRMC,155501,A,3946.9621,N,08404.9788,W,0.0000,0.000,291217,,*36
2017-12-29 10:55:00 1514562900.806012: $GPGSA,A,3,10,13,15,18,20,21,24,27,32,8,138,,1.7,0.8,1.3*31
2017-12-29 10:55:01 1514562901.431138: $GPZDA,155502.00,29,12,2017,00,00*6C
2017-12-29 10:55:01 1514562901.543014: $GPGGA,155502,3946.9621,N,08404.9788,W,2,11,0.80,315.14,M,-33.324,M,,*75
2017-12-29 10:55:01 1514562901.543147: $GPRMC,155502,A,3946.9621,N,08404.9788,W,0.0000,0.000,291217,,*35
2017-12-29 10:55:01 1514562901.543213: $GPGSA,A,3,10,13,15,18,20,21,24,27,32,8,138,,1.7,0.8,1.3*31
2017-12-29 10:55:02 1514562902.358161: $GPZDA,155503.00,29,12,2017,00,00*6D
2017-12-29 10:55:02 1514562902.358344: $GPGGA,155503,3946.9621,N,08404.9788,W,2,11,0.80,315.14,M,-33.324,M,,*74
2017-12-29 10:55:02 1514562902.358411: $GPRMC,155503,A,3946.9621,N,08404.9788,W,0.0000,0.000,291217,,*34
2017-12-29 10:55:02 1514562902.358473: $GPGSA,A,3,10,13,15,18,20,21,24,27,32,8,138,,1.7,0.8,1.3*31
2017-12-29 10:55:03 1514562903.692397: $GPGSV,3,1,11,10,34,294,42,13,16,046,41,15,46,049,49,18,65,319,44*71
2017-12-29 10:55:03 1514562903.692583: $GPGSV,3,2,11,20,42,087,51,21,73,204,48,24,45,124,50,27,19,300,32*70
2017-12-29 10:55:03 1514562903.692650: $GPGSV,3,3,11,32,14,232,30,08,02,330,00,138,38,213,44*76
2017-12-29 10:55:03 1514562903.805992: $GPZDA,155504.00,29,12,2017,00,00*6A
2017-12-29 10:55:03 1514562903.806120: $GPGGA,155504,3946.9621,N,08404.9788,W,2,10,0.80,315.14,M,-33.324,M,,*72
2017-12-29 10:55:03 1514562903.806186: $GPRMC,155504,A,3946.9621,N,08404.9788,W,0.0000,0.000,291217,,*33
2017-12-29 10:55:03 1514562903.806250: $GPGSA,A,3,10,13,15,18,20,21,24,27,32,138,,,1.7,0.8,1.3*09
2017-12-29 10:55:04 1514562904.356903: $GPZDA,155505.00,29,12,2017,00,00*6B
2017-12-29 10:55:04 1514562904.357062: $GPGGA,155505,3946.9621,N,08404.9788,W,2,10,0.80,315.14,M,-33.324,M,,*73
2017-12-29 10:55:04 1514562904.357132: $GPRMC,155505,A,3946.9621,N,08404.9788,W,0.0000,0.000,291217,,*32
2017-12-29 10:55:04 1514562904.357193: $GPGSA,A,3,10,13,15,18,20,21,24,27,32,138,,,1.7,0.8,1.3*09
2017-12-29 10:55:05 1514562905.356521: $GPZDA,155506.00,29,12,2017,00,00*68
2017-12-29 10:55:05 1514562905.356708: $GPGGA,155506,3946.9621,N,08404.9788,W,2,10,0.80,315.14,M,-33.324,M,,*70
2017-12-29 10:55:05 1514562905.356775: $GPRMC,155506,A,3946.9621,N,08404.9788,W,0.0000,0.000,291217,,*31
2017-12-29 10:55:05 1514562905.356837: $GPGSA,A,3,10,13,15,18,20,21,24,27,32,138,,,1.7,0.8,1.3*09
2017-12-29 10:55:06 1514562906.694014: $GPGSV,3,1,11,10,34,294,42,13,16,046,40,15,46,049,49,18,65,319,44*70
2017-12-29 10:55:06 1514562906.694211: $GPGSV,3,2,11,20,42,087,51,21,73,204,47,24,45,124,50,27,19,300,32*7F
2017-12-29 10:55:06 1514562906.694280: $GPGSV,3,3,11,32,14,232,31,08,02,330,14,138,38,213,44*72
2017-12-29 10:55:06 1514562906.807614: $GPZDA,155507.00,29,12,2017,00,00*69
2017-12-29 10:55:06 1514562906.807750: $GPGGA,155507,3946.9621,N,08404.9788,W,2,10,0.80,315.14,M,-33.324,M,,*71
2017-12-29 10:55:06 1514562906.807869: $GPRMC,155507,A,3946.9621,N,08404.9788,W,0.0000,0.000,291217,,*30
2017-12-29 10:55:06 1514562906.807931: $GPGSA,A,3,10,13,15,18,20,21,24,27,32,138,,,1.7,0.8,1.3*09
2017-12-29 10:55:07 1514562907.357264: $GPZDA,155508.00,29,12,2017,00,00*66
2017-12-29 10:55:07 1514562907.357450: $GPGGA,155508,3946.9621,N,08404.9788,W,2,10,0.80,315.14,M,-33.324,M,,*7E
2017-12-29 10:55:07 1514562907.357518: $GPRMC,155508,A,3946.9621,N,08404.9788,W,0.0000,0.000,291217,,*3F
2017-12-29 10:55:07 1514562907.357581: $GPGSA,A,3,10,13,15,18,20,21,24,27,32,138,,,1.7,0.8,1.3*09
2017-12-29 10:55:08 1514562908.355637: $GPZDA,155509.00,29,12,2017,00,00*67
2017-12-29 10:55:08 1514562908.355807: $GPGGA,155509,3946.9621,N,08404.9788,W,2,10,0.80,315.14,M,-33.324,M,,*7F
2017-12-29 10:55:08 1514562908.355892: $GPRMC,155509,A,3946.9621,N,08404.9788,W,0.0000,0.000,291217,,*3E
2017-12-29 10:55:08 1514562908.355955: $GPGSA,A,3,10,13,15,18,20,21,24,27,32,138,,,1.7,0.8,1.3*09
2017-12-29 10:55:09 1514562909.723698: $GPGSV,3,1,11,10,34,294,42,13,16,046,40,15,46,049,49,18,65,319,44*70
2017-12-29 10:55:09 1514562909.723860: $GPGSV,3,2,11,20,42,087,51,21,73,204,47,24,45,124,50,27,19,300,32*7F
2017-12-29 10:55:09 1514562909.723927: $GPGSV,3,3,11,32,14,232,31,08,02,330,30,138,38,213,46*76
2017-12-29 10:55:09 1514562909.837010: $GPZDA,155510.00,29,12,2017,00,00*6F
2017-12-29 10:55:09 1514562909.837177: $GPGGA,155510,3946.9621,N,08404.9788,W,2,11,0.80,315.14,M,-33.324,M,,*76
2017-12-29 10:55:09 1514562909.837244: $GPRMC,155510,A,3946.9621,N,08404.9788,W,0.0000,0.000,291217,,*36
2017-12-29 10:55:09 1514562909.837305: $GPGSA,A,3,10,13,15,18,20,21,24,27,32,8,138,,1.7,0.8,1.3*31
2017-12-29 10:55:10 1514562910.394461: $GPZDA,155511.00,29,12,2017,00,00*6E
2017-12-29 10:55:10 1514562910.394628: $GPGGA,155511,3946.9621,N,08404.9788,W,2,11,0.80,315.14,M,-33.324,M,,*77
2017-12-29 10:55:10 1514562910.394695: $GPRMC,155511,A,3946.9621,N,08404.9788,W,0.0000,0.000,291217,,*37
2017-12-29 10:55:10 1514562910.394755: $GPGSA,A,3,10,13,15,18,20,21,24,27,32,8,138,,1.7,0.8,1.3*31
2017-12-29 10:55:11 1514562911.392459: $GPZDA,155512.00,29,12,2017,00,00*6D
2017-12-29 10:55:11 1514562911.392626: $GPGGA,155512,3946.9621,N,08404.9788,W,2,11,0.80,315.14,M,-33.324,M,,*74
2017-12-29 10:55:11 1514562911.392691: $GPRMC,155512,A,3946.9621,N,08404.9788,W,0.0000,0.000,291217,,*34
2017-12-29 10:55:11 1514562911.392752: $GPGSA,A,3,10,13,15,18,20,21,24,27,32,8,138,,1.7,0.8,1.3*31
2017-12-29 10:55:12 1514562912.729017: $GPGSV,3,1,11,10,34,294,43,13,16,046,40,15,46,049,49,18,65,319,44*71
2017-12-29 10:55:12 1514562912.729176: $GPGSV,3,2,11,20,42,087,51,21,73,204,47,24,45,124,50,27,19,300,37*7A
2017-12-29 10:55:12 1514562912.729241: $GPGSV,3,3,11,32,14,232,31,08,02,330,29,138,38,213,45*7D
2017-12-29 10:55:12 1514562912.842662: $GPZDA,155513.00,29,12,2017,00,00*6C
2017-12-29 10:55:12 1514562912.842796: $GPGGA,155513,3946.9621,N,08404.9788,W,2,11,0.80,315.14,M,-33.324,M,,*75
2017-12-29 10:55:12 1514562912.842861: $GPRMC,155513,A,3946.9621,N,08404.9788,W,0.0000,0.000,291217,,*35
2017-12-29 10:55:12 1514562912.842921: $GPGSA,A,3,10,13,15,18,20,21,24,27,32,8,138,,1.7,0.8,1.3*31
2017-12-29 10:55:13 1514562913.397307: $GPZDA,155514.00,29,12,2017,00,00*6B
2017-12-29 10:55:13 1514562913.397470: $GPGGA,155514,3946.9621,N,08404.9788,W,2,11,0.80,315.14,M,-33.324,M,,*72
2017-12-29 10:55:13 1514562913.397537: $GPRMC,155514,A,3946.9621,N,08404.9788,W,0.0000,0.000,291217,,*32
2017-12-29 10:55:13 1514562913.397598: $GPGSA,A,3,10,13,15,18,20,21,24,27,32,8,138,,1.7,0.8,1.3*31
2017-12-29 10:55:14 1514562914.356656: $GPZDA,155515.00,29,12,2017,00,00*6A
2017-12-29 10:55:14 1514562914.356824: $GPGGA,155515,3946.9621,N,08404.9788,W,2,11,0.80,315.14,M,-33.324,M,,*73
2017-12-29 10:55:14 1514562914.356890: $GPRMC,155515,A,3946.9621,N,08404.9788,W,0.0000,0.000,291217,,*33
2017-12-29 10:55:14 1514562914.356951: $GPGSA,A,3,10,13,15,18,20,21,24,27,32,8,138,,1.7,0.8,1.3*31
2017-12-29 10:55:15 1514562915.724910: $GPGSV,3,1,11,10,34,294,43,13,16,046,40,15,46,049,49,18,65,319,44*71
2017-12-29 10:55:15 1514562915.725140: $GPGSV,3,2,11,20,42,087,51,21,73,204,47,24,45,124,50,27,19,300,36*7B
2017-12-29 10:55:15 1514562915.725210: $GPGSV,3,3,11,32,14,232,32,08,02,330,12,138,38,213,44*77
2017-12-29 10:55:15 1514562915.838513: $GPZDA,155516.00,29,12,2017,00,00*69
2017-12-29 10:55:15 1514562915.838651: $GPGGA,155516,3946.9621,N,08404.9788,W,2,10,0.80,315.14,M,-33.324,M,,*71
2017-12-29 10:55:15 1514562915.838716: $GPRMC,155516,A,3946.9621,N,08404.9788,W,0.0000,0.000,291217,,*30
2017-12-29 10:55:15 1514562915.838777: $GPGSA,A,3,10,13,15,18,20,21,24,27,32,138,,,1.7,0.8,1.3*09
2017-12-29 10:55:16 1514562916.463893: $GPZDA,155517.00,29,12,2017,00,00*68
2017-12-29 10:55:16 1514562916.659423: $GPGGA,155517,3946.9621,N,08404.9788,W,2,10,0.80,315.14,M,-33.324,M,,*70
2017-12-29 10:55:16 1514562916.659553: $GPRMC,155517,A,3946.9621,N,08404.9788,W,0.0000,0.000,291217,,*31
2017-12-29 10:55:16 1514562916.659618: $GPGSA,A,3,10,13,15,18,20,21,24,27,32,138,,,1.7,0.8,1.3*09
2017-12-29 10:55:17 1514562917.394926: $GPZDA,155518.00,29,12,2017,00,00*67
2017-12-29 10:55:17 1514562917.395093: $GPGGA,155518,3946.9621,N,08404.9788,W,2,10,0.80,315.14,M,-33.324,M,,*7F
2017-12-29 10:55:17 1514562917.395158: $GPRMC,155518,A,3946.9621,N,08404.9788,W,0.0000,0.000,291217,,*3E
2017-12-29 10:55:17 1514562917.395219: $GPGSA,A,3,10,13,15,18,20,21,24,27,32,138,,,1.7,0.8,1.3*09
2017-12-29 10:55:18 1514562918.731535: $GPGSV,3,1,11,10,34,294,43,13,16,046,40,15,46,049,49,18,65,319,44*71
2017-12-29 10:55:18 1514562918.731722: $GPGSV,3,2,11,20,42,087,51,21,73,204,47,24,45,124,50,27,19,300,36*7B
2017-12-29 10:55:18 1514562918.731791: $GPGSV,3,3,11,32,14,232,32,08,02,330,19,138,38,213,44*7C
2017-12-29 10:55:18 1514562918.845152: $GPZDA,155519.00,29,12,2017,00,00*66
2017-12-29 10:55:18 1514562918.845296: $GPGGA,155519,3946.9624,N,08404.9787,W,2,11,0.80,314.38,M,-33.324,M,,*7A
2017-12-29 10:55:18 1514562918.845361: $GPRMC,155519,A,3946.9624,N,08404.9787,W,0.0000,0.000,291217,,*35
2017-12-29 10:55:18 1514562918.845421: $GPGSA,A,3,10,13,15,18,20,21,24,27,32,8,138,,1.7,0.8,1.3*31
2017-12-29 10:55:19 1514562919.357258: $GPZDA,155520.00,29,12,2017,00,00*6C
2017-12-29 10:55:19 1514562919.357425: $GPGGA,155520,3946.9624,N,08404.9787,W,2,11,0.80,314.38,M,-33.324,M,,*70
2017-12-29 10:55:19 1514562919.357491: $GPRMC,155520,A,3946.9624,N,08404.9787,W,0.0000,0.000,291217,,*3F
2017-12-29 10:55:19 1514562919.357551: $GPGSA,A,3,10,13,15,18,20,21,24,27,32,8,138,,1.7,0.8,1.3*31
