2017-11-16 17:29:05 1510871345.181343: {"class":"VERSION","release":"3.17","rev":"3.17","proto_major":3,"proto_minor":12}
2017-11-16 17:29:05 1510871345.181813: {"class":"DEVICES","devices":[{"class":"DEVICE","path":"/dev/ttyUSB0","driver":"SiRF","subtype":"9\u0006GSD4e_4.1.2-P1_RPATCH.05-F-GPS-4R-1510281 11/03/2015 307","activated":"2017-11-16T22:29:04.544Z","flags":1,"native":1,"bps":4800,"parity":"N","stopbits":1,"cycle":1.00}]}
2017-11-16 17:29:05 1510871345.181988: {"class":"WATCH","enable":true,"json":false,"nmea":true,"raw":0,"scaled":false,"timing":false,"split24":false,"pps":false}
2017-11-16 17:29:05 1510871345.402995: $GPZDA,222904.00,16,11,2017,00,00*6A
2017-11-16 17:29:05 1510871345.403166: $GPGGA,222904,3946.9573,N,08404.9836,W,2,11,0.80,305.51,M,-33.324,M,,*72
2017-11-16 17:29:05 1510871345.403229: $GPRMC,222904,A,3946.9573,N,08404.9836,W,0.0000,0.000,161117,,*3D
2017-11-16 17:29:05 1510871345.403285: $GPGSA,A,3,1,10,22,12,14,18,11,25,31,32,138,,1.6,0.8,1.3*3E
2017-11-16 17:29:06 1510871346.738305: $GPGSV,3,1,11,01,21,303,34,10,50,147,49,22,17,312,39,12,23,051,50*7A
2017-11-16 17:29:06 1510871346.738476: $GPGSV,3,2,11,14,65,324,48,18,20,144,39,11,09,283,37,25,39,093,48*78
2017-11-16 17:29:06 1510871346.738538: $GPGSV,3,3,11,31,53,223,48,32,69,022,50,138,38,213,44*78
2017-11-16 17:29:06 1510871346.851966: $GPZDA,222905.00,16,11,2017,00,00*6B
2017-11-16 17:29:06 1510871346.852128: $GPGGA,222905,3946.9573,N,08404.9836,W,2,11,0.80,305.51,M,-33.324,M,,*73
2017-11-16 17:29:06 1510871346.852188: $GPRMC,222905,A,3946.9573,N,08404.9836,W,0.0000,0.000,161117,,*3C
2017-11-16 17:29:06 1510871346.852244: $GPGSA,A,3,1,10,22,12,14,18,11,25,31,32,138,,1.6,0.8,1.3*3E
2017-11-16 17:29:07 1510871347.402855: $GPZDA,222906.00,16,11,2017,00,00*68
2017-11-16 17:29:07 1510871347.403010: $GPGGA,222906,3946.9573,N,08404.9836,W,2,11,0.80,305.51,M,-33.324,M,,*70
2017-11-16 17:29:07 1510871347.403072: $GPRMC,222906,A,3946.9573,N,08404.9836,W,0.0000,0.000,161117,,*3F
2017-11-16 17:29:07 1510871347.403128: $GPGSA,A,3,1,10,22,12,14,18,11,25,31,32,138,,1.6,0.8,1.3*3E
2017-11-16 17:29:08 1510871348.397480: $GPZDA,222907.00,16,11,2017,00,00*69
2017-11-16 17:29:08 1510871348.397637: $GPGGA,222907,3946.9573,N,08404.9836,W,2,11,0.80,305.51,M,-33.324,M,,*71
2017-11-16 17:29:08 1510871348.397698: $GPRMC,222907,A,3946.9573,N,08404.9836,W,0.0000,0.000,161117,,*3E
2017-11-16 17:29:08 1510871348.397754: $GPGSA,A,3,1,10,22,12,14,18,11,25,31,32,138,,1.6,0.8,1.3*3E
2017-11-16 17:29:09 1510871349.739226: $GPGSV,3,1,11,01,21,303,35,10,50,147,50,22,17,312,39,12,23,051,50*73
2017-11-16 17:29:09 1510871349.739393: $GPGSV,3,2,11,14,65,324,48,18,20,144,38,11,09,283,37,25,39,093,48*79
2017-11-16 17:29:09 1510871349.739454: $GPGSV,3,3,11,31,53,223,48,32,69,022,50,138,38,213,44*78
2017-11-16 17:29:09 1510871349.852583: $GPZDA,222908.00,16,11,2017,00,00*66
2017-11-16 17:29:09 1510871349.852760: $GPGGA,222908,3946.9573,N,08404.9836,W,2,11,0.80,305.51,M,-33.324,M,,*7E
2017-11-16 17:29:09 1510871349.852821: $GPRMC,222908,A,3946.9573,N,08404.9836,W,0.0000,0.000,161117,,*31
2017-11-16 17:29:09 1510871349.852878: $GPGSA,A,3,1,10,22,12,14,18,11,25,31,32,138,,1.6,0.8,1.3*3E
2017-11-16 17:29:10 1510871350.420898: $GPZDA,222909.00,16,11,2017,00,00*67
2017-11-16 17:29:10 1510871350.421074: $GPGGA,222909,3946.9573,N,08404.9836,W,2,11,0.80,305.51,M,-33.324,M,,*7F
2017-11-16 17:29:10 1510871350.421135: $GPRMC,222909,A,3946.9573,N,08404.9836,W,0.0000,0.000,161117,,*30
2017-11-16 17:29:10 1510871350.421191: $GPGSA,A,3,1,10,22,12,14,18,11,25,31,32,138,,1.6,0.8,1.3*3E
2017-11-16 17:29:11 1510871351.401393: $GPZDA,222910.00,16,11,2017,00,00*6F
2017-11-16 17:29:11 1510871351.401573: $GPGGA,222910,3946.9573,N,08404.9836,W,2,11,0.80,305.51,M,-33.324,M,,*77
2017-11-16 17:29:11 1510871351.401635: $GPRMC,222910,A,3946.9573,N,08404.9836,W,0.0000,0.000,161117,,*38
2017-11-16 17:29:11 1510871351.401709: $GPGSA,A,3,1,10,22,12,14,18,11,25,31,32,138,,1.6,0.8,1.3*3E
2017-11-16 17:29:12 1510871352.738240: $GPGSV,3,1,11,01,21,303,36,10,50,147,50,22,17,312,39,12,23,051,50*70
2017-11-16 17:29:12 1510871352.738460: $GPGSV,3,2,11,14,65,324,48,18,20,144,39,11,09,283,37,25,39,093,48*78
2017-11-16 17:29:12 1510871352.738543: $GPGSV,3,3,11,31,53,223,49,32,69,022,50,138,38,213,44*79
2017-11-16 17:29:12 1510871352.851690: $GPZDA,222911.00,16,11,2017,00,00*6E
2017-11-16 17:29:12 1510871352.851849: $GPGGA,222911,3946.9573,N,08404.9836,W,2,11,0.80,305.51,M,-33.324,M,,*76
2017-11-16 17:29:12 1510871352.851910: $GPRMC,222911,A,3946.9573,N,08404.9836,W,0.0000,0.000,161117,,*39
2017-11-16 17:29:12 1510871352.851966: $GPGSA,A,3,1,10,22,12,14,18,11,25,31,32,138,,1.6,0.8,1.3*3E
2017-11-16 17:29:13 1510871353.421208: $GPZDA,222912.00,16,11,2017,00,00*6D
2017-11-16 17:29:13 1510871353.421367: $GPGGA,222912,3946.9573,N,08404.9836,W,2,11,0.80,305.51,M,-33.324,M,,*75
2017-11-16 17:29:13 1510871353.421428: $GPRMC,222912,A,3946.9573,N,08404.9836,W,0.0000,0.000,161117,,*3A
2017-11-16 17:29:13 1510871353.421483: $GPGSA,A,3,1,10,22,12,14,18,11,25,31,32,138,,1.6,0.8,1.3*3E
2017-11-16 17:29:14 1510871354.402121: $GPZDA,222913.00,16,11,2017,00,00*6C
2017-11-16 17:29:14 1510871354.402287: $GPGGA,222913,3946.9573,N,08404.9836,W,2,11,0.80,305.51,M,-33.324,M,,*74
2017-11-16 17:29:14 1510871354.402347: $GPRMC,222913,A,3946.9573,N,08404.9836,W,0.0000,0.000,161117,,*3B
2017-11-16 17:29:14 1510871354.402403: $GPGSA,A,3,1,10,22,12,14,18,11,25,31,32,138,,1.6,0.8,1.3*3E
