2017-11-16 16:50:29 1510869029.610676: {"class":"VERSION","release":"3.17","rev":"3.17","proto_major":3,"proto_minor":12}
2017-11-16 16:50:29 1510869029.611148: {"class":"DEVICES","devices":[{"class":"DEVICE","path":"/dev/ttyUSB0","driver":"SiRF","subtype":"9\u0006GSD4e_4.1.2-P1_RPATCH.05-F-GPS-4R-1510281 11/03/2015 307","activated":"2017-11-16T21:50:29.331Z","flags":1,"native":1,"bps":4800,"parity":"N","stopbits":1,"cycle":1.00}]}
2017-11-16 16:50:29 1510869029.611265: {"class":"WATCH","enable":true,"json":false,"nmea":true,"raw":0,"scaled":false,"timing":false,"split24":false,"pps":false}
2017-11-16 16:50:29 1510869029.780737: $GPGSV,3,1,12,01,14,318,37,10,68,133,49,11,11,300,26,12,25,070,47*76
2017-11-16 16:50:29 1510869029.780889: $GPGSV,3,2,12,14,56,294,46,18,36,136,42,24,13,045,41,25,30,112,41*7D
2017-11-16 16:50:29 1510869029.780947: $GPGSV,3,3,12,31,35,213,47,32,68,331,50,22,03,310,31,138,38,213,45*45
2017-11-16 16:50:29 1510869029.894086: $GPZDA,215028.00,16,11,2017,00,00*69
2017-11-16 16:50:29 1510869029.894248: $GPGGA,215028,3946.9581,N,08404.9830,W,2,12,0.80,308.27,M,-33.324,M,,*75
2017-11-16 16:50:29 1510869029.894310: $GPRMC,215028,A,3946.9581,N,08404.9830,W,0.0000,0.000,161117,,*35
2017-11-16 16:50:29 1510869029.894367: $GPGSA,A,3,1,10,11,12,14,18,24,25,31,32,22,138,1.6,0.8,1.3*38
2017-11-16 16:50:30 1510869030.446257: $GPZDA,215029.00,16,11,2017,00,00*68
2017-11-16 16:50:30 1510869030.446422: $GPGGA,215029,3946.9581,N,08404.9830,W,2,12,0.80,308.27,M,-33.324,M,,*74
2017-11-16 16:50:30 1510869030.446483: $GPRMC,215029,A,3946.9581,N,08404.9830,W,0.0000,0.000,161117,,*34
2017-11-16 16:50:30 1510869030.446539: $GPGSA,A,3,1,10,11,12,14,18,24,25,31,32,22,138,1.6,0.8,1.3*38
2017-11-16 16:50:31 1510869031.464455: $GPZDA,215030.00,16,11,2017,00,00*60
2017-11-16 16:50:31 1510869031.464630: $GPGGA,215030,3946.9581,N,08404.9830,W,2,12,0.80,308.27,M,-33.324,M,,*7C
2017-11-16 16:50:31 1510869031.464692: $GPRMC,215030,A,3946.9581,N,08404.9830,W,0.0000,0.000,161117,,*3C
2017-11-16 16:50:31 1510869031.464748: $GPGSA,A,3,1,10,11,12,14,18,24,25,31,32,22,138,1.6,0.8,1.3*38
2017-11-16 16:50:32 1510869032.798538: $GPGSV,3,1,12,01,14,318,37,10,68,133,49,11,11,300,26,12,25,070,47*76
2017-11-16 16:50:32 1510869032.798683: $GPGSV,3,2,12,14,56,294,46,18,36,136,42,24,13,045,41,25,30,112,41*7D
2017-11-16 16:50:32 1510869032.798742: $GPGSV,3,3,12,31,35,213,47,32,68,331,51,22,03,310,25,138,38,213,45*41
2017-11-16 16:50:32 1510869032.912192: $GPZDA,215031.00,16,11,2017,00,00*61
2017-11-16 16:50:32 1510869032.912354: $GPGGA,215031,3946.9581,N,08404.9830,W,2,12,0.80,308.27,M,-33.324,M,,*7D
2017-11-16 16:50:32 1510869032.912415: $GPRMC,215031,A,3946.9581,N,08404.9830,W,0.0000,0.000,161117,,*3D
2017-11-16 16:50:32 1510869032.912470: $GPGSA,A,3,1,10,11,12,14,18,24,25,31,32,22,138,1.6,0.8,1.3*38
2017-11-16 16:50:33 1510869033.461497: $GPZDA,215032.00,16,11,2017,00,00*62
2017-11-16 16:50:33 1510869033.461662: $GPGGA,215032,3946.9581,N,08404.9830,W,2,12,0.80,308.27,M,-33.324,M,,*7E
2017-11-16 16:50:33 1510869033.461725: $GPRMC,215032,A,3946.9581,N,08404.9830,W,0.0000,0.000,161117,,*3E
2017-11-16 16:50:33 1510869033.461797: $GPGSA,A,3,1,10,11,12,14,18,24,25,31,32,22,138,1.6,0.8,1.3*38
2017-11-16 16:50:34 1510869034.445165: $GPZDA,215033.00,16,11,2017,00,00*63
2017-11-16 16:50:34 1510869034.445322: $GPGGA,215033,3946.9581,N,08404.9830,W,2,12,0.80,308.27,M,-33.324,M,,*7F
2017-11-16 16:50:34 1510869034.445382: $GPRMC,215033,A,3946.9581,N,08404.9830,W,0.0000,0.000,161117,,*3F
2017-11-16 16:50:34 1510869034.445454: $GPGSA,A,3,1,10,11,12,14,18,24,25,31,32,22,138,1.6,0.8,1.3*38
2017-11-16 16:50:35 1510869035.781808: $GPGSV,3,1,12,01,14,318,38,10,68,133,49,11,11,300,26,12,25,070,47*79
2017-11-16 16:50:35 1510869035.781978: $GPGSV,3,2,12,14,56,294,46,18,36,136,41,24,13,045,40,25,30,112,41*7F
2017-11-16 16:50:35 1510869035.782038: $GPGSV,3,3,12,31,35,213,47,32,68,331,51,22,03,310,27,138,38,213,45*43
2017-11-16 16:50:35 1510869035.895171: $GPZDA,215034.00,16,11,2017,00,00*64
2017-11-16 16:50:35 1510869035.895346: $GPGGA,215034,3946.9581,N,08404.9830,W,2,12,0.80,308.27,M,-33.324,M,,*78
2017-11-16 16:50:35 1510869035.895490: $GPRMC,215034,A,3946.9581,N,08404.9830,W,0.0000,0.000,161117,,*38
2017-11-16 16:50:35 1510869035.895550: $GPGSA,A,3,1,10,11,12,14,18,24,25,31,32,22,138,1.6,0.8,1.3*38
2017-11-16 16:50:36 1510869036.520581: $GPZDA,215035.00,16,11,2017,00,00*65
2017-11-16 16:50:36 1510869036.520748: $GPGGA,215035,3946.9581,N,08404.9830,W,2,12,0.80,308.27,M,-33.324,M,,*79
2017-11-16 16:50:36 1510869036.520810: $GPRMC,215035,A,3946.9581,N,08404.9830,W,0.0000,0.000,161117,,*39
2017-11-16 16:50:36 1510869036.520866: $GPGSA,A,3,1,10,11,12,14,18,24,25,31,32,22,138,1.6,0.8,1.3*38
2017-11-16 16:50:37 1510869037.443931: $GPZDA,215036.00,16,11,2017,00,00*66
2017-11-16 16:50:37 1510869037.444085: $GPGGA,215036,3946.9581,N,08404.9830,W,2,12,0.80,308.27,M,-33.324,M,,*7A
2017-11-16 16:50:37 1510869037.444146: $GPRMC,215036,A,3946.9581,N,08404.9830,W,0.0000,0.000,161117,,*3A
2017-11-16 16:50:37 1510869037.444202: $GPGSA,A,3,1,10,11,12,14,18,24,25,31,32,22,138,1.6,0.8,1.3*38
2017-11-16 16:50:38 1510869038.774620: $GPGSV,3,1,12,01,14,318,38,10,68,133,49,11,11,300,26,12,25,070,47*79
2017-11-16 16:50:38 1510869038.774791: $GPGSV,3,2,12,14,56,294,46,18,36,136,41,24,13,045,40,25,30,112,42*7C
2017-11-16 16:50:38 1510869038.774851: $GPGSV,3,3,12,31,35,213,47,32,68,331,50,22,03,310,28,138,38,213,44*4C
2017-11-16 16:50:38 1510869038.887935: $GPZDA,215037.00,16,11,2017,00,00*67
2017-11-16 16:50:38 1510869038.888097: $GPGGA,215037,3946.9581,N,08404.9830,W,2,12,0.80,308.27,M,-33.324,M,,*7B
2017-11-16 16:50:38 1510869038.888157: $GPRMC,215037,A,3946.9581,N,08404.9830,W,0.0000,0.000,161117,,*3B
2017-11-16 16:50:38 1510869038.888213: $GPGSA,A,3,1,10,11,12,14,18,24,25,31,32,22,138,1.6,0.8,1.3*38
2017-11-16 16:50:39 1510869039.445077: $GPZDA,215038.00,16,11,2017,00,00*68
2017-11-16 16:50:39 1510869039.445254: $GPGGA,215038,3946.9581,N,08404.9830,W,2,12,0.80,308.27,M,-33.324,M,,*74
2017-11-16 16:50:39 1510869039.445338: $GPRMC,215038,A,3946.9581,N,08404.9830,W,0.0000,0.000,161117,,*34
2017-11-16 16:50:39 1510869039.445396: $GPGSA,A,3,1,10,11,12,14,18,24,25,31,32,22,138,1.6,0.8,1.3*38
