2017-12-29 11:41:14 1514565674.467672: {"class":"VERSION","release":"3.16","rev":"3.16-4","proto_major":3,"proto_minor":11}
2017-12-29 11:41:14 1514565674.468143: {"class":"DEVICES","devices":[{"class":"DEVICE","path":"/dev/ttyUSB0","driver":"SiRF","subtype":"9\u0006GSD4e_4.1.2-P1_RPATCH.05-F-GPS-4R-1510281 11/03/2015 307","activated":"2017-12-29T16:41:14.268Z","flags":1,"native":1,"bps":4800,"parity":"N","stopbits":1,"cycle":1.00}]}
2017-12-29 11:41:14 1514565674.468262: {"class":"WATCH","enable":true,"json":false,"nmea":true,"raw":0,"scaled":false,"timing":false,"split24":false,"pps":false}
2017-12-29 11:41:14 1514565674.718317: $GPGSV,3,1,11,08,08,313,40,10,50,310,45,15,27,057,49,18,76,013,45*7C
2017-12-29 11:41:14 1514565674.718528: $GPGSV,3,2,11,20,26,103,48,21,52,183,46,24,53,091,51,32,30,246,41*77
2017-12-29 11:41:14 1514565674.718596: $GPGSV,3,3,11,27,16,279,34,14,12,238,31,138,38,213,45*7D
2017-12-29 11:41:14 1514565674.831708: $GPZDA,164115.00,29,12,2017,00,00*6C
2017-12-29 11:41:14 1514565674.831849: $GPGGA,164115,3946.9594,N,08404.9858,W,2,11,1.00,324.12,M,-33.324,M,,*77
2017-12-29 11:41:14 1514565674.831915: $GPRMC,164115,A,3946.9594,N,08404.9858,W,0.0000,0.000,291217,,*3A
2017-12-29 11:41:14 1514565674.831975: $GPGSA,A,3,8,10,15,18,20,21,24,32,27,14,138,,1.7,1.0,1.3*3F
2017-12-29 11:41:15 1514565675.381393: $GPZDA,164116.00,29,12,2017,00,00*6F
2017-12-29 11:41:15 1514565675.381605: $GPGGA,164116,3946.9594,N,08404.9858,W,2,11,1.00,324.12,M,-33.324,M,,*74
2017-12-29 11:41:15 1514565675.381707: $GPRMC,164116,A,3946.9594,N,08404.9858,W,0.0000,0.000,291217,,*39
2017-12-29 11:41:15 1514565675.381769: $GPGSA,A,3,8,10,15,18,20,21,24,32,27,14,138,,1.7,1.0,1.3*3F
2017-12-29 11:41:16 1514565676.380982: $GPZDA,164117.00,29,12,2017,00,00*6E
2017-12-29 11:41:16 1514565676.381239: $GPGGA,164117,3946.9594,N,08404.9858,W,2,11,1.00,324.12,M,-33.324,M,,*75
2017-12-29 11:41:16 1514565676.381310: $GPRMC,164117,A,3946.9594,N,08404.9858,W,0.0000,0.000,291217,,*38
2017-12-29 11:41:16 1514565676.381370: $GPGSA,A,3,8,10,15,18,20,21,24,32,27,14,138,,1.7,1.0,1.3*3F
2017-12-29 11:41:17 1514565677.717972: $GPGSV,3,1,11,08,08,313,40,10,50,310,45,15,27,057,49,18,76,013,45*7C
2017-12-29 11:41:17 1514565677.718123: $GPGSV,3,2,11,20,26,103,48,21,52,183,47,24,53,091,51,32,30,246,41*76
2017-12-29 11:41:17 1514565677.718188: $GPGSV,3,3,11,27,16,279,34,14,12,238,00,138,38,213,46*7C
2017-12-29 11:41:17 1514565677.831350: $GPZDA,164118.00,29,12,2017,00,00*61
2017-12-29 11:41:17 1514565677.831508: $GPGGA,164118,3946.9594,N,08404.9858,W,2,10,1.00,324.12,M,-33.324,M,,*7B
2017-12-29 11:41:17 1514565677.831577: $GPRMC,164118,A,3946.9594,N,08404.9858,W,0.0000,0.000,291217,,*37
2017-12-29 11:41:17 1514565677.831656: $GPGSA,A,3,8,10,15,18,20,21,24,32,27,138,,,1.7,1.0,1.3*3A
2017-12-29 11:41:18 1514565678.382543: $GPZDA,164119.00,29,12,2017,00,00*60
2017-12-29 11:41:18 1514565678.382728: $GPGGA,164119,3946.9594,N,08404.9858,W,2,10,1.00,324.12,M,-33.324,M,,*7A
2017-12-29 11:41:18 1514565678.382794: $GPRMC,164119,A,3946.9594,N,08404.9858,W,0.0000,0.000,291217,,*36
2017-12-29 11:41:18 1514565678.382855: $GPGSA,A,3,8,10,15,18,20,21,24,32,27,138,,,1.7,1.0,1.3*3A
2017-12-29 11:41:19 1514565679.386315: $GPZDA,164120.00,29,12,2017,00,00*6A
2017-12-29 11:41:19 1514565679.386513: $GPGGA,164120,3946.9594,N,08404.9858,W,2,10,1.00,324.12,M,-33.324,M,,*70
2017-12-29 11:41:19 1514565679.386581: $GPRMC,164120,A,3946.9594,N,08404.9858,W,0.0000,0.000,291217,,*3C
2017-12-29 11:41:19 1514565679.386659: $GPGSA,A,3,8,10,15,18,20,21,24,32,27,138,,,1.7,1.0,1.3*3A
2017-12-29 11:41:20 1514565680.718316: $GPGSV,3,1,11,08,08,313,40,10,50,310,45,15,27,057,49,18,76,013,45*7C
2017-12-29 11:41:20 1514565680.718540: $GPGSV,3,2,11,20,26,103,48,21,52,183,46,24,53,091,51,32,30,246,41*77
2017-12-29 11:41:20 1514565680.718609: $GPGSV,3,3,11,27,16,279,35,14,12,238,00,138,38,213,46*7D
2017-12-29 11:41:20 1514565680.831692: $GPZDA,164121.02,29,12,2017,00,00*69
2017-12-29 11:41:20 1514565680.831827: $GPGGA,164121,3946.9595,N,08404.9859,W,2,10,1.00,325.52,M,-33.324,M,,*74
2017-12-29 11:41:20 1514565680.831948: $GPRMC,164121,A,3946.9595,N,08404.9859,W,0.3423,184.196,291217,,*38
2017-12-29 11:41:20 1514565680.832010: $GPGSA,A,3,8,10,15,18,20,21,24,32,27,138,,,1.7,1.0,1.3*3A
2017-12-29 11:41:21 1514565681.382714: $GPZDA,164122.02,29,12,2017,00,00*6A
2017-12-29 11:41:21 1514565681.382908: $GPGGA,164122,3946.9587,N,08404.9853,W,2,10,1.00,325.73,M,-33.324,M,,*7D
2017-12-29 11:41:21 1514565681.382976: $GPRMC,164122,A,3946.9587,N,08404.9853,W,0.2422,93.794,291217,,*01
2017-12-29 11:41:21 1514565681.383038: $GPGSA,A,3,8,10,15,18,20,21,24,32,27,138,,,1.7,1.0,1.3*3A
2017-12-29 11:41:22 1514565682.381393: $GPZDA,164123.02,29,12,2017,00,00*6B
2017-12-29 11:41:22 1514565682.381571: $GPGGA,164123,3946.9587,N,08404.9853,W,2,10,1.00,325.73,M,-33.324,M,,*7C
2017-12-29 11:41:22 1514565682.381639: $GPRMC,164123,A,3946.9587,N,08404.9853,W,0.0000,0.000,291217,,*36
2017-12-29 11:41:22 1514565682.381699: $GPGSA,A,3,8,10,15,18,20,21,24,32,27,138,,,1.7,1.0,1.3*3A
2017-12-29 11:41:23 1514565683.721703: $GPGSV,3,1,11,08,08,313,41,10,50,310,45,15,27,057,49,18,76,013,45*7D
2017-12-29 11:41:23 1514565683.721860: $GPGSV,3,2,11,20,26,103,48,21,52,183,47,24,53,091,51,32,30,246,42*75
2017-12-29 11:41:23 1514565683.721924: $GPGSV,3,3,11,27,16,279,35,14,12,238,28,138,38,213,45*74
2017-12-29 11:41:23 1514565683.835339: $GPZDA,164124.00,29,12,2017,00,00*6E
2017-12-29 11:41:23 1514565683.835506: $GPGGA,164124,3946.9584,N,08404.9854,W,2,11,1.00,326.49,M,-33.324,M,,*74
2017-12-29 11:41:23 1514565683.835573: $GPRMC,164124,A,3946.9584,N,08404.9854,W,0.2422,93.794,291217,,*03
2017-12-29 11:41:23 1514565683.835634: $GPGSA,A,3,8,10,15,18,20,21,24,32,27,14,138,,1.7,1.0,1.3*3F
2017-12-29 11:41:24 1514565684.460441: $GPZDA,164125.00,29,12,2017,00,00*6F
2017-12-29 11:41:24 1514565684.460618: $GPGGA,164125,3946.9584,N,08404.9854,W,2,11,1.00,326.49,M,-33.324,M,,*75
2017-12-29 11:41:24 1514565684.460684: $GPRMC,164125,A,3946.9584,N,08404.9854,W,0.0000,0.000,291217,,*34
2017-12-29 11:41:24 1514565684.460744: $GPGSA,A,3,8,10,15,18,20,21,24,32,27,14,138,,1.7,1.0,1.3*3F
2017-12-29 11:41:25 1514565685.386298: $GPZDA,164126.00,29,12,2017,00,00*6C
2017-12-29 11:41:25 1514565685.386471: $GPGGA,164126,3946.9583,N,08404.9847,W,2,11,1.00,326.57,M,-33.324,M,,*7C
2017-12-29 11:41:25 1514565685.386537: $GPRMC,164126,A,3946.9583,N,08404.9847,W,0.0000,0.000,291217,,*32
2017-12-29 11:41:25 1514565685.386597: $GPGSA,A,3,8,10,15,18,20,21,24,32,27,14,138,,1.7,1.0,1.3*3F
2017-12-29 11:41:26 1514565686.722065: $GPGSV,3,1,11,08,08,313,41,10,50,310,44,15,27,057,49,18,76,013,45*7C
2017-12-29 11:41:26 1514565686.722253: $GPGSV,3,2,11,20,26,103,48,21,52,183,47,24,53,091,51,32,30,246,42*75
2017-12-29 11:41:26 1514565686.722319: $GPGSV,3,3,11,27,16,279,36,14,12,238,31,138,38,213,45*7F
2017-12-29 11:41:26 1514565686.835438: $GPZDA,164127.00,29,12,2017,00,00*6D
2017-12-29 11:41:26 1514565686.835609: $GPGGA,164127,3946.9583,N,08404.9847,W,2,11,1.00,326.57,M,-33.324,M,,*7D
2017-12-29 11:41:26 1514565686.835675: $GPRMC,164127,A,3946.9583,N,08404.9847,W,0.0000,0.000,291217,,*33
2017-12-29 11:41:26 1514565686.835735: $GPGSA,A,3,8,10,15,18,20,21,24,32,27,14,138,,1.7,1.0,1.3*3F
2017-12-29 11:41:27 1514565687.386312: $GPZDA,164128.00,29,12,2017,00,00*62
2017-12-29 11:41:27 1514565687.386488: $GPGGA,164128,3946.9583,N,08404.9847,W,2,11,1.00,326.57,M,-33.324,M,,*72
2017-12-29 11:41:27 1514565687.386555: $GPRMC,164128,A,3946.9583,N,08404.9847,W,0.0000,0.000,291217,,*3C
2017-12-29 11:41:27 1514565687.386615: $GPGSA,A,3,8,10,15,18,20,21,24,32,27,14,138,,1.7,1.0,1.3*3F
2017-12-29 11:41:28 1514565688.379676: $GPZDA,164129.00,29,12,2017,00,00*63
2017-12-29 11:41:28 1514565688.379847: $GPGGA,164129,3946.9583,N,08404.9847,W,2,11,1.00,326.57,M,-33.324,M,,*73
2017-12-29 11:41:28 1514565688.379912: $GPRMC,164129,A,3946.9583,N,08404.9847,W,0.0000,0.000,291217,,*3D
2017-12-29 11:41:28 1514565688.379972: $GPGSA,A,3,8,10,15,18,20,21,24,32,27,14,138,,1.7,1.0,1.3*3F
