2017-12-01 17:31:31 1512167491.006868: {"class":"VERSION","release":"3.16","rev":"3.16-4","proto_major":3,"proto_minor":11}
2017-12-01 17:31:31 1512167491.007396: {"class":"DEVICES","devices":[{"class":"DEVICE","path":"/dev/ttyUSB0","driver":"SiRF","subtype":"9\u0006GSD4e_4.1.2-P1_RPATCH.05-F-GPS-4R-1510281 11/03/2015 307","activated":"2017-12-01T22:31:30.574Z","flags":1,"native":1,"bps":4800,"parity":"N","stopbits":1,"cycle":1.00}]}
2017-12-01 17:31:31 1512167491.007520: {"class":"WATCH","enable":true,"json":false,"nmea":true,"raw":0,"scaled":false,"timing":false,"split24":false,"pps":false}
2017-12-01 17:31:31 1512167491.770583: $GPGSV,3,1,11,01,18,273,46,03,23,315,44,10,20,157,42,14,69,045,42*79
2017-12-01 17:31:31 1512167491.770776: $GPGSV,3,2,11,22,41,301,48,25,35,055,42,26,28,177,42,31,79,294,47*7D
2017-12-01 17:31:31 1512167491.770843: $GPGSV,3,3,11,32,53,082,46,12,06,031,26,138,38,213,46*76
2017-12-01 17:31:31 1512167491.884224: $GPZDA,223132.00,01,12,2017,00,00*63
2017-12-01 17:31:31 1512167491.884397: $GPGGA,223132,3946.9750,N,08404.9814,W,2,11,0.80,292.69,M,-33.325,M,,*78
2017-12-01 17:31:31 1512167491.884463: $GPRMC,223132,A,3946.9750,N,08404.9814,W,0.0000,0.000,011217,,*37
2017-12-01 17:31:31 1512167491.884525: $GPGSA,A,3,1,3,10,14,22,25,26,31,32,12,138,,2.0,0.8,1.5*03
2017-12-01 17:31:32 1512167492.406308: $GPZDA,223133.00,01,12,2017,00,00*62
2017-12-01 17:31:32 1512167492.406480: $GPGGA,223133,3946.9750,N,08404.9814,W,2,11,0.80,292.69,M,-33.325,M,,*79
2017-12-01 17:31:32 1512167492.406548: $GPRMC,223133,A,3946.9750,N,08404.9814,W,0.0000,0.000,011217,,*36
2017-12-01 17:31:32 1512167492.406609: $GPGSA,A,3,1,3,10,14,22,25,26,31,32,12,138,,2.0,0.8,1.5*03
2017-12-01 17:31:33 1512167493.411739: $GPZDA,223134.00,01,12,2017,00,00*65
2017-12-01 17:31:33 1512167493.411914: $GPGGA,223134,3946.9750,N,08404.9814,W,2,11,0.80,292.69,M,-33.325,M,,*7E
2017-12-01 17:31:33 1512167493.411981: $GPRMC,223134,A,3946.9750,N,08404.9814,W,0.0000,0.000,011217,,*31
2017-12-01 17:31:33 1512167493.412045: $GPGSA,A,3,1,3,10,14,22,25,26,31,32,12,138,,2.0,0.8,1.5*03
2017-12-01 17:31:34 1512167494.748376: $GPGSV,3,1,11,01,18,273,46,03,23,315,44,10,20,157,43,14,69,045,42*78
2017-12-01 17:31:34 1512167494.748558: $GPGSV,3,2,11,22,41,301,48,25,35,055,42,26,28,177,42,31,79,294,46*7C
2017-12-01 17:31:34 1512167494.748629: $GPGSV,3,3,11,32,53,082,46,12,06,031,26,138,38,213,46*76
2017-12-01 17:31:34 1512167494.862442: $GPZDA,223135.00,01,12,2017,00,00*64
2017-12-01 17:31:34 1512167494.862625: $GPGGA,223135,3946.9750,N,08404.9814,W,2,11,0.80,292.69,M,-33.325,M,,*7F
2017-12-01 17:31:34 1512167494.862693: $GPRMC,223135,A,3946.9750,N,08404.9814,W,0.0000,0.000,011217,,*30
2017-12-01 17:31:34 1512167494.862756: $GPGSA,A,3,1,3,10,14,22,25,26,31,32,12,138,,2.0,0.8,1.5*03
2017-12-01 17:31:35 1512167495.434199: $GPZDA,223136.00,01,12,2017,00,00*67
2017-12-01 17:31:35 1512167495.434369: $GPGGA,223136,3946.9750,N,08404.9814,W,2,11,0.80,292.69,M,-33.325,M,,*7C
2017-12-01 17:31:35 1512167495.434435: $GPRMC,223136,A,3946.9750,N,08404.9814,W,0.0000,0.000,011217,,*33
2017-12-01 17:31:35 1512167495.434497: $GPGSA,A,3,1,3,10,14,22,25,26,31,32,12,138,,2.0,0.8,1.5*03
2017-12-01 17:31:36 1512167496.412245: $GPZDA,223137.00,01,12,2017,00,00*66
2017-12-01 17:31:36 1512167496.412418: $GPGGA,223137,3946.9750,N,08404.9814,W,2,11,0.80,292.69,M,-33.325,M,,*7D
2017-12-01 17:31:36 1512167496.412484: $GPRMC,223137,A,3946.9750,N,08404.9814,W,0.0000,0.000,011217,,*32
2017-12-01 17:31:36 1512167496.412546: $GPGSA,A,3,1,3,10,14,22,25,26,31,32,12,138,,2.0,0.8,1.5*03
2017-12-01 17:31:37 1512167497.770452: $GPGSV,3,1,11,01,18,273,46,03,23,315,44,10,20,157,43,14,69,045,42*78
2017-12-01 17:31:37 1512167497.770631: $GPGSV,3,2,11,22,41,301,48,25,35,055,42,26,28,177,42,31,79,294,46*7C
2017-12-01 17:31:37 1512167497.770697: $GPGSV,3,3,11,32,53,082,46,12,06,031,26,138,38,213,46*76
2017-12-01 17:31:37 1512167497.883812: $GPZDA,223138.00,01,12,2017,00,00*69
2017-12-01 17:31:37 1512167497.883983: $GPGGA,223138,3946.9750,N,08404.9814,W,2,11,0.80,292.69,M,-33.325,M,,*72
2017-12-01 17:31:37 1512167497.884102: $GPRMC,223138,A,3946.9750,N,08404.9814,W,0.0000,0.000,011217,,*3D
2017-12-01 17:31:37 1512167497.884169: $GPGSA,A,3,1,3,10,14,22,25,26,31,32,12,138,,2.0,0.8,1.5*03
2017-12-01 17:31:38 1512167498.509240: $GPZDA,223139.00,01,12,2017,00,00*68
2017-12-01 17:31:38 1512167498.509413: $GPGGA,223139,3946.9750,N,08404.9814,W,2,11,0.80,292.69,M,-33.325,M,,*73
2017-12-01 17:31:38 1512167498.509481: $GPRMC,223139,A,3946.9750,N,08404.9814,W,0.0000,0.000,011217,,*3C
2017-12-01 17:31:38 1512167498.509542: $GPGSA,A,3,1,3,10,14,22,25,26,31,32,12,138,,2.0,0.8,1.5*03
2017-12-01 17:31:39 1512167499.435064: $GPZDA,223140.00,01,12,2017,00,00*66
2017-12-01 17:31:39 1512167499.435245: $GPGGA,223140,3946.9750,N,08404.9814,W,2,11,0.80,292.69,M,-33.325,M,,*7D
2017-12-01 17:31:39 1512167499.435312: $GPRMC,223140,A,3946.9750,N,08404.9814,W,0.0000,0.000,011217,,*32
2017-12-01 17:31:39 1512167499.435374: $GPGSA,A,3,1,3,10,14,22,25,26,31,32,12,138,,2.0,0.8,1.5*03
2017-12-01 17:31:40 1512167500.770801: $GPGSV,3,1,11,01,18,273,46,03,23,315,44,10,20,157,43,14,69,045,42*78
2017-12-01 17:31:40 1512167500.770986: $GPGSV,3,2,11,22,41,301,48,25,35,055,42,26,28,177,42,31,79,294,46*7C
2017-12-01 17:31:40 1512167500.771055: $GPGSV,3,3,11,32,53,082,46,12,06,031,26,138,38,213,45*75
2017-12-01 17:31:40 1512167500.884394: $GPZDA,223141.00,01,12,2017,00,00*67
2017-12-01 17:31:40 1512167500.884567: $GPGGA,223141,3946.9750,N,08404.9814,W,2,11,0.80,292.69,M,-33.325,M,,*7C
2017-12-01 17:31:40 1512167500.884635: $GPRMC,223141,A,3946.9750,N,08404.9814,W,0.0000,0.000,011217,,*33
2017-12-01 17:31:40 1512167500.884696: $GPGSA,A,3,1,3,10,14,22,25,26,31,32,12,138,,2.0,0.8,1.5*03
2017-12-01 17:31:41 1512167501.433994: $GPZDA,223142.00,01,12,2017,00,00*64
2017-12-01 17:31:41 1512167501.434178: $GPGGA,223142,3946.9750,N,08404.9814,W,2,11,0.80,292.69,M,-33.325,M,,*7F
2017-12-01 17:31:41 1512167501.434247: $GPRMC,223142,A,3946.9750,N,08404.9814,W,0.0000,0.000,011217,,*30
2017-12-01 17:31:41 1512167501.434308: $GPGSA,A,3,1,3,10,14,22,25,26,31,32,12,138,,2.0,0.8,1.5*03
2017-12-01 17:31:42 1512167502.428478: $GPZDA,223143.00,01,12,2017,00,00*65
2017-12-01 17:31:42 1512167502.428650: $GPGGA,223143,3946.9750,N,08404.9814,W,2,11,0.80,292.69,M,-33.325,M,,*7E
2017-12-01 17:31:42 1512167502.428718: $GPRMC,223143,A,3946.9750,N,08404.9814,W,0.0000,0.000,011217,,*31
2017-12-01 17:31:42 1512167502.428779: $GPGSA,A,3,1,3,10,14,22,25,26,31,32,12,138,,2.0,0.8,1.5*03
2017-12-01 17:31:43 1512167503.764948: $GPGSV,3,1,11,01,18,273,46,03,23,315,44,10,20,157,44,14,69,045,42*7F
2017-12-01 17:31:43 1512167503.971120: $GPGSV,3,2,11,22,41,301,47,25,35,055,42,26,28,177,42,31,79,294,46*73
2017-12-01 17:31:43 1512167503.971260: $GPGSV,3,3,11,32,53,082,46,12,06,031,26,138,38,213,46*76
2017-12-01 17:31:43 1512167503.971417: $GPZDA,223144.00,01,12,2017,00,00*62
2017-12-01 17:31:43 1512167503.971485: $GPGGA,223144,3946.9750,N,08404.9814,W,2,11,0.80,292.69,M,-33.325,M,,*79
2017-12-01 17:31:43 1512167503.971548: $GPRMC,223144,A,3946.9750,N,08404.9814,W,0.0000,0.000,011217,,*36
2017-12-01 17:31:43 1512167503.971609: $GPGSA,A,3,1,3,10,14,22,25,26,31,32,12,138,,2.0,0.8,1.5*03
2017-12-01 17:31:44 1512167504.413062: $GPZDA,223145.00,01,12,2017,00,00*63
2017-12-01 17:31:44 1512167504.413242: $GPGGA,223145,3946.9750,N,08404.9814,W,2,11,0.80,292.69,M,-33.325,M,,*78
2017-12-01 17:31:44 1512167504.413309: $GPRMC,223145,A,3946.9750,N,08404.9814,W,0.0000,0.000,011217,,*37
2017-12-01 17:31:44 1512167504.413372: $GPGSA,A,3,1,3,10,14,22,25,26,31,32,12,138,,2.0,0.8,1.5*03
2017-12-01 17:31:45 1512167505.433797: $GPZDA,223146.00,01,12,2017,00,00*60
2017-12-01 17:31:45 1512167505.433974: $GPGGA,223146,3946.9750,N,08404.9814,W,2,11,0.80,292.69,M,-33.325,M,,*7B
2017-12-01 17:31:45 1512167505.434043: $GPRMC,223146,A,3946.9750,N,08404.9814,W,0.0000,0.000,011217,,*34
2017-12-01 17:31:45 1512167505.434108: $GPGSA,A,3,1,3,10,14,22,25,26,31,32,12,138,,2.0,0.8,1.5*03
2017-12-01 17:31:46 1512167506.769596: $GPGSV,3,1,11,01,18,273,46,03,23,315,44,10,20,157,44,14,69,045,42*7F
2017-12-01 17:31:46 1512167506.769829: $GPGSV,3,2,11,22,41,301,48,25,35,055,42,26,28,177,41,31,79,294,46*7F
2017-12-01 17:31:46 1512167506.769899: $GPGSV,3,3,11,32,53,082,46,12,06,031,21,138,38,213,46*71
2017-12-01 17:31:46 1512167506.882971: $GPZDA,223147.00,01,12,2017,00,00*61
2017-12-01 17:31:46 1512167506.883157: $GPGGA,223147,3946.9750,N,08404.9814,W,2,11,0.80,292.69,M,-33.325,M,,*7A
2017-12-01 17:31:46 1512167506.883225: $GPRMC,223147,A,3946.9750,N,08404.9814,W,0.0000,0.000,011217,,*35
2017-12-01 17:31:46 1512167506.883286: $GPGSA,A,3,1,3,10,14,22,25,26,31,32,12,138,,2.0,0.8,1.5*03
2017-12-01 17:31:47 1512167507.413644: $GPZDA,223148.00,01,12,2017,00,00*6E
2017-12-01 17:31:47 1512167507.413834: $GPGGA,223148,3946.9750,N,08404.9814,W,2,11,0.80,292.69,M,-33.325,M,,*75
2017-12-01 17:31:47 1512167507.413905: $GPRMC,223148,A,3946.9750,N,08404.9814,W,0.0000,0.000,011217,,*3A
2017-12-01 17:31:47 1512167507.413970: $GPGSA,A,3,1,3,10,14,22,25,26,31,32,12,138,,2.0,0.8,1.5*03
2017-12-01 17:31:48 1512167508.406808: $GPZDA,223149.00,01,12,2017,00,00*6F
2017-12-01 17:31:48 1512167508.406993: $GPGGA,223149,3946.9750,N,08404.9814,W,2,11,0.80,292.69,M,-33.325,M,,*74
2017-12-01 17:31:48 1512167508.407064: $GPRMC,223149,A,3946.9750,N,08404.9814,W,0.0000,0.000,011217,,*3B
2017-12-01 17:31:48 1512167508.407128: $GPGSA,A,3,1,3,10,14,22,25,26,31,32,12,138,,2.0,0.8,1.5*03
2017-12-01 17:31:49 1512167509.770055: $GPGSV,3,1,11,01,18,273,46,03,23,315,44,10,20,157,43,14,69,045,42*78
2017-12-01 17:31:49 1512167509.770238: $GPGSV,3,2,11,22,41,301,47,25,35,055,42,26,28,177,42,31,79,294,46*73
2017-12-01 17:31:49 1512167509.770307: $GPGSV,3,3,11,32,53,082,46,12,06,031,24,138,38,213,46*74
2017-12-01 17:31:49 1512167509.883485: $GPZDA,223150.00,01,12,2017,00,00*67
2017-12-01 17:31:49 1512167509.883675: $GPGGA,223150,3946.9750,N,08404.9814,W,2,11,0.80,292.69,M,-33.325,M,,*7C
2017-12-01 17:31:49 1512167509.883743: $GPRMC,223150,A,3946.9750,N,08404.9814,W,0.0000,0.000,011217,,*33
2017-12-01 17:31:49 1512167509.883805: $GPGSA,A,3,1,3,10,14,22,25,26,31,32,12,138,,2.0,0.8,1.5*03
2017-12-01 17:31:50 1512167510.434468: $GPZDA,223151.00,01,12,2017,00,00*66
2017-12-01 17:31:50 1512167510.434641: $GPGGA,223151,3946.9746,N,08404.9814,W,2,11,0.80,293.45,M,-33.325,M,,*75
2017-12-01 17:31:50 1512167510.434709: $GPRMC,223151,A,3946.9746,N,08404.9814,W,0.0000,0.000,011217,,*35
2017-12-01 17:31:50 1512167510.434770: $GPGSA,A,3,1,3,10,14,22,25,26,31,32,12,138,,2.0,0.8,1.5*03
