2017-12-01 13:19:18 1512152358.447014: {"class":"VERSION","release":"3.16","rev":"3.16-4","proto_major":3,"proto_minor":11}
2017-12-01 13:19:18 1512152358.447445: {"class":"DEVICES","devices":[{"class":"DEVICE","path":"/dev/ttyUSB0","driver":"SiRF","subtype":"9\u0006GSD4e_4.1.2-P1_RPATCH.05-F-GPS-4R-1510281 11/03/2015 307","activated":"2017-12-01T18:19:18.405Z","flags":1,"native":1,"bps":4800,"parity":"N","stopbits":1,"cycle":1.00}]}
2017-12-01 13:19:18 1512152358.447566: {"class":"WATCH","enable":true,"json":false,"nmea":true,"raw":0,"scaled":false,"timing":false,"split24":false,"pps":false}
2017-12-01 13:19:19 1512152359.178274: $GPZDA,181919.47,01,12,2017,00,00*6A
2017-12-01 13:19:19 1512152359.178466: $GPGGA,181919,3946.9572,N,08404.9819,W,1,10,1.00,313.53,M,-33.324,M,,*76
2017-12-01 13:19:19 1512152359.178536: $GPRMC,181919,A,3946.9572,N,08404.9819,W,0.3026,105.365,011217,,*31
2017-12-01 13:19:19 1512152359.178598: $GPGSA,A,3,8,10,15,18,20,21,24,32,27,138,,,2.0,1.0,1.5*38
2017-12-01 13:19:19 1512152359.178657: $GPGBS,181919,10.70,M,15.43,M,35.28,M*0E
2017-12-01 13:19:20 1512152360.320851: $GPGSV,3,1,12,08,07,319,41,10,44,304,45,15,34,054,47,18,73,346,44*73
2017-12-01 13:19:20 1512152360.321045: $GPGSV,3,2,12,20,31,099,46,21,59,187,45,24,52,105,46,27,18,286,40*7A
2017-12-01 13:19:20 1512152360.321127: $GPGSV,3,3,12,32,24,240,42,14,07,234,05,13,05,049,00,138,38,213,00*44
2017-12-01 13:19:20 1512152360.433266: $GPZDA,181920.00,01,12,2017,00,00*63
2017-12-01 13:19:20 1512152360.433439: $GPGGA,181920,3946.9572,N,08404.9819,W,1,09,1.00,313.53,M,-33.324,M,,*74
2017-12-01 13:19:20 1512152360.433506: $GPRMC,181920,A,3946.9572,N,08404.9819,W,0.1324,22.230,011217,,*0D
2017-12-01 13:19:20 1512152360.433568: $GPGSA,A,3,8,10,15,18,20,21,24,27,32,,,,2.0,1.0,1.5*02
2017-12-01 13:19:20 1512152360.885120: $GPZDA,181921.00,01,12,2017,00,00*62
2017-12-01 13:19:20 1512152360.885296: $GPGGA,181921,3946.9576,N,08404.9826,W,1,09,0.80,312.69,M,-33.324,M,,*7C
2017-12-01 13:19:20 1512152360.885364: $GPRMC,181921,A,3946.9576,N,08404.9826,W,0.0407,142.014,011217,,*30
2017-12-01 13:19:20 1512152360.885426: $GPGSA,A,3,8,10,15,18,20,21,24,27,32,,,,2.0,0.8,1.5*0B
2017-12-01 13:19:21 1512152361.387218: $GPZDA,181922.00,01,12,2017,00,00*61
2017-12-01 13:19:21 1512152361.387403: $GPGGA,181922,3946.9575,N,08404.9825,W,1,09,0.80,311.28,M,-33.324,M,,*79
2017-12-01 13:19:21 1512152361.387471: $GPRMC,181922,A,3946.9575,N,08404.9825,W,0.0000,0.000,011217,,*32
2017-12-01 13:19:21 1512152361.387534: $GPGSA,A,3,8,10,15,18,20,21,24,27,32,,,,2.0,0.8,1.5*0B
2017-12-01 13:19:22 1512152362.721231: $GPGSV,3,1,12,08,07,319,42,10,44,304,45,15,34,054,48,18,73,346,43*78
2017-12-01 13:19:22 1512152362.721453: $GPGSV,3,2,12,20,31,099,45,21,59,187,45,24,52,105,47,27,18,286,42*7A
2017-12-01 13:19:22 1512152362.721525: $GPGSV,3,3,12,32,24,240,42,14,07,234,28,13,05,049,00,138,38,213,47*48
2017-12-01 13:19:22 1512152362.834567: $GPZDA,181923.00,01,12,2017,00,00*60
2017-12-01 13:19:22 1512152362.834718: $GPGGA,181923,3946.9579,N,08404.9831,W,1,11,0.80,310.44,M,-33.324,M,,*73
2017-12-01 13:19:22 1512152362.834785: $GPRMC,181923,A,3946.9579,N,08404.9831,W,0.0000,0.000,011217,,*3A
2017-12-01 13:19:22 1512152362.834846: $GPGSA,A,3,8,10,15,18,20,21,24,27,32,14,138,,2.0,0.8,1.5*34
2017-12-01 13:19:23 1512152363.386982: $GPZDA,181924.00,01,12,2017,00,00*67
2017-12-01 13:19:23 1512152363.395647: $GPGGA,181924,3946.9579,N,08404.9831,W,1,11,0.80,310.44,M,-33.324,M,,*74
2017-12-01 13:19:23 1512152363.395808: $GPRMC,181924,A,3946.9579,N,08404.9831,W,0.0000,0.000,011217,,*3D
2017-12-01 13:19:23 1512152363.395873: $GPGSA,A,3,8,10,15,18,20,21,24,27,32,14,138,,2.0,0.8,1.5*34
2017-12-01 13:19:24 1512152364.387631: $GPZDA,181925.00,01,12,2017,00,00*66
2017-12-01 13:19:24 1512152364.387799: $GPGGA,181925,3946.9578,N,08404.9830,W,1,11,0.80,309.03,M,-33.324,M,,*7E
2017-12-01 13:19:24 1512152364.387865: $GPRMC,181925,A,3946.9578,N,08404.9830,W,0.0000,0.000,011217,,*3C
2017-12-01 13:19:24 1512152364.387930: $GPGSA,A,3,8,10,15,18,20,21,24,27,32,14,138,,2.0,0.8,1.5*34
2017-12-01 13:19:24 1512152364.388047: $GPGBS,181925,10.70,M,15.43,M,35.28,M*01
2017-12-01 13:19:25 1512152365.724756: $GPGSV,3,1,12,08,07,319,41,10,44,304,45,15,34,054,48,18,73,346,44*7C
2017-12-01 13:19:25 1512152365.724956: $GPGSV,3,2,12,20,31,099,45,21,59,187,45,24,52,105,47,27,18,286,42*7A
2017-12-01 13:19:25 1512152365.725026: $GPGSV,3,3,12,32,24,240,42,14,07,234,28,13,05,049,00,138,38,213,47*48
2017-12-01 13:19:25 1512152365.836573: $GPZDA,181926.00,01,12,2017,00,00*65
2017-12-01 13:19:25 1512152365.836758: $GPGGA,181926,3946.9578,N,08404.9837,W,1,11,0.80,308.95,M,-33.324,M,,*74
2017-12-01 13:19:25 1512152365.836828: $GPRMC,181926,A,3946.9578,N,08404.9837,W,0.0000,0.000,011217,,*38
2017-12-01 13:19:25 1512152365.836891: $GPGSA,A,3,8,10,15,18,20,21,24,27,32,14,138,,2.0,0.8,1.5*34
2017-12-01 13:19:26 1512152366.386468: $GPZDA,181927.00,01,12,2017,00,00*64
2017-12-01 13:19:26 1512152366.386641: $GPGGA,181927,3946.9578,N,08404.9837,W,1,11,0.80,308.95,M,-33.324,M,,*75
2017-12-01 13:19:26 1512152366.386708: $GPRMC,181927,A,3946.9578,N,08404.9837,W,0.0000,0.000,011217,,*39
2017-12-01 13:19:26 1512152366.386770: $GPGSA,A,3,8,10,15,18,20,21,24,27,32,14,138,,2.0,0.8,1.5*34
2017-12-01 13:19:27 1512152367.386560: $GPZDA,181928.00,01,12,2017,00,00*6B
2017-12-01 13:19:27 1512152367.386730: $GPGGA,181928,3946.9582,N,08404.9837,W,1,11,0.80,308.19,M,-33.324,M,,*7B
2017-12-01 13:19:27 1512152367.386799: $GPRMC,181928,A,3946.9582,N,08404.9837,W,0.0000,0.000,011217,,*33
2017-12-01 13:19:27 1512152367.386862: $GPGSA,A,3,8,10,15,18,20,21,24,27,32,14,138,,2.0,0.8,1.5*34
