2017-11-16 13:26:11 1510856771.727715: {"class":"VERSION","release":"3.17","rev":"3.17","proto_major":3,"proto_minor":12}
2017-11-16 13:26:11 1510856771.728176: {"class":"DEVICES","devices":[{"class":"DEVICE","path":"/dev/ttyUSB0","driver":"SiRF","subtype":"9\u0006GSD4e_4.1.2-P1_RPATCH.05-F-GPS-4R-1510281 11/03/2015 307","activated":"2017-11-16T18:26:11.434Z","flags":1,"native":1,"bps":4800,"parity":"N","stopbits":1,"cycle":1.00}]}
2017-11-16 13:26:11 1510856771.728294: {"class":"WATCH","enable":true,"json":false,"nmea":true,"raw":0,"scaled":false,"timing":false,"split24":false,"pps":false}
2017-11-16 13:26:12 1510856772.623126: $GPGSV,3,1,12,10,25,285,41,13,27,045,46,15,59,051,50,18,56,303,47*70
2017-11-16 13:26:12 1510856772.623303: $GPGSV,3,2,12,20,49,075,48,21,78,259,46,24,35,136,42,27,17,310,43*7E
2017-11-16 13:26:12 1510856772.623364: $GPGSV,3,3,12,32,02,226,26,29,07,189,32,05,02,088,00,138,38,213,45*41
2017-11-16 13:26:12 1510856772.736314: $GPZDA,182611.00,16,11,2017,00,00*68
2017-11-16 13:26:12 1510856772.736492: $GPGGA,182611,3946.9615,N,08404.9845,W,2,11,0.80,303.96,M,-33.324,M,,*7A
2017-11-16 13:26:12 1510856772.736553: $GPRMC,182611,A,3946.9615,N,08404.9845,W,0.0000,0.000,161117,,*38
2017-11-16 13:26:12 1510856772.736609: $GPGSA,A,3,10,13,15,18,20,21,24,27,32,29,138,,1.6,0.8,1.3*03
2017-11-16 13:26:13 1510856773.272229: $GPZDA,182612.00,16,11,2017,00,00*6B
2017-11-16 13:26:13 1510856773.272396: $GPGGA,182612,3946.9615,N,08404.9845,W,2,11,0.80,303.96,M,-33.324,M,,*79
2017-11-16 13:26:13 1510856773.272459: $GPRMC,182612,A,3946.9615,N,08404.9845,W,0.0000,0.000,161117,,*3B
2017-11-16 13:26:13 1510856773.272515: $GPGSA,A,3,10,13,15,18,20,21,24,27,32,29,138,,1.6,0.8,1.3*03
2017-11-16 13:26:14 1510856774.300595: $GPZDA,182613.00,16,11,2017,00,00*6A
2017-11-16 13:26:14 1510856774.300794: $GPGGA,182613,3946.9615,N,08404.9845,W,2,11,0.80,303.96,M,-33.324,M,,*78
2017-11-16 13:26:14 1510856774.300857: $GPRMC,182613,A,3946.9615,N,08404.9845,W,0.0000,0.000,161117,,*3A
2017-11-16 13:26:14 1510856774.300914: $GPGSA,A,3,10,13,15,18,20,21,24,27,32,29,138,,1.6,0.8,1.3*03
2017-11-16 13:26:15 1510856775.609782: $GPGSV,3,1,12,10,25,285,42,13,27,045,46,15,59,051,50,18,56,303,47*73
2017-11-16 13:26:15 1510856775.609950: $GPGSV,3,2,12,20,49,075,48,21,78,259,46,24,35,136,41,27,17,310,43*7D
2017-11-16 13:26:15 1510856775.610009: $GPGSV,3,3,12,32,02,226,27,29,07,189,32,05,02,088,00,138,38,213,45*40
2017-11-16 13:26:15 1510856775.723024: $GPZDA,182614.00,16,11,2017,00,00*6D
2017-11-16 13:26:15 1510856775.723190: $GPGGA,182614,3946.9615,N,08404.9845,W,2,11,0.80,303.96,M,-33.324,M,,*7F
2017-11-16 13:26:15 1510856775.723251: $GPRMC,182614,A,3946.9615,N,08404.9845,W,0.0000,0.000,161117,,*3D
2017-11-16 13:26:15 1510856775.723308: $GPGSA,A,3,10,13,15,18,20,21,24,27,32,29,138,,1.6,0.8,1.3*03
2017-11-16 13:26:16 1510856776.273813: $GPZDA,182615.00,16,11,2017,00,00*6C
2017-11-16 13:26:16 1510856776.273973: $GPGGA,182615,3946.9615,N,08404.9845,W,2,11,0.80,303.96,M,-33.324,M,,*7E
2017-11-16 13:26:16 1510856776.274034: $GPRMC,182615,A,3946.9615,N,08404.9845,W,0.0000,0.000,161117,,*3C
2017-11-16 13:26:16 1510856776.274090: $GPGSA,A,3,10,13,15,18,20,21,24,27,32,29,138,,1.6,0.8,1.3*03
2017-11-16 13:26:17 1510856777.277136: $GPZDA,182616.00,16,11,2017,00,00*6F
2017-11-16 13:26:17 1510856777.277302: $GPGGA,182616,3946.9615,N,08404.9845,W,2,11,0.80,303.96,M,-33.324,M,,*7D
2017-11-16 13:26:17 1510856777.277364: $GPRMC,182616,A,3946.9615,N,08404.9845,W,0.0000,0.000,161117,,*3F
2017-11-16 13:26:17 1510856777.277420: $GPGSA,A,3,10,13,15,18,20,21,24,27,32,29,138,,1.6,0.8,1.3*03
2017-11-16 13:26:18 1510856778.630556: $GPGSV,3,1,12,10,25,285,42,13,27,045,46,15,59,051,50,18,56,303,47*73
2017-11-16 13:26:18 1510856778.630725: $GPGSV,3,2,12,20,49,075,48,21,78,259,46,24,35,136,42,27,17,310,43*7E
2017-11-16 13:26:18 1510856778.630785: $GPGSV,3,3,12,32,02,226,27,29,07,189,31,05,02,088,00,138,38,213,44*42
2017-11-16 13:26:18 1510856778.746276: $GPZDA,182617.00,16,11,2017,00,00*6E
2017-11-16 13:26:18 1510856778.746835: $GPGGA,182617,3946.9615,N,08404.9845,W,2,11,0.80,303.96,M,-33.324,M,,*7C
2017-11-16 13:26:18 1510856778.747025: $GPRMC,182617,A,3946.9615,N,08404.9845,W,0.0000,0.000,161117,,*3E
2017-11-16 13:26:18 1510856778.747145: $GPGSA,A,3,10,13,15,18,20,21,24,27,32,29,138,,1.6,0.8,1.3*03
2017-11-16 13:26:19 1510856779.274547: $GPZDA,182618.00,16,11,2017,00,00*61
2017-11-16 13:26:19 1510856779.274715: $GPGGA,182618,3946.9615,N,08404.9845,W,2,11,0.80,303.96,M,-33.324,M,,*73
2017-11-16 13:26:19 1510856779.274777: $GPRMC,182618,A,3946.9615,N,08404.9845,W,0.0000,0.000,161117,,*31
2017-11-16 13:26:19 1510856779.274833: $GPGSA,A,3,10,13,15,18,20,21,24,27,32,29,138,,1.6,0.8,1.3*03
2017-11-16 13:26:20 1510856780.272395: $GPZDA,182619.00,16,11,2017,00,00*60
2017-11-16 13:26:20 1510856780.272589: $GPGGA,182619,3946.9615,N,08404.9845,W,2,11,0.80,303.96,M,-33.324,M,,*72
2017-11-16 13:26:20 1510856780.272652: $GPRMC,182619,A,3946.9615,N,08404.9845,W,0.0000,0.000,161117,,*30
2017-11-16 13:26:20 1510856780.272709: $GPGSA,A,3,10,13,15,18,20,21,24,27,32,29,138,,1.6,0.8,1.3*03
2017-11-16 13:26:21 1510856781.610645: $GPGSV,3,1,12,10,25,285,41,13,27,045,45,15,59,051,50,18,56,303,47*73
2017-11-16 13:26:21 1510856781.610816: $GPGSV,3,2,12,20,49,075,48,21,78,259,46,24,35,136,42,27,17,310,43*7E
2017-11-16 13:26:21 1510856781.610877: $GPGSV,3,3,12,32,02,226,28,29,07,189,31,05,02,088,00,138,38,213,44*4D
2017-11-16 13:26:21 1510856781.723928: $GPZDA,182620.00,16,11,2017,00,00*6A
2017-11-16 13:26:21 1510856781.724182: $GPGGA,182620,3946.9615,N,08404.9845,W,2,11,0.80,303.96,M,-33.324,M,,*78
2017-11-16 13:26:21 1510856781.724311: $GPRMC,182620,A,3946.9615,N,08404.9845,W,0.0000,0.000,161117,,*3A
2017-11-16 13:26:21 1510856781.724428: $GPGSA,A,3,10,13,15,18,20,21,24,27,32,29,138,,1.6,0.8,1.3*03
2017-11-16 13:26:22 1510856782.274764: $GPZDA,182621.00,16,11,2017,00,00*6B
2017-11-16 13:26:22 1510856782.274915: $GPGGA,182621,3946.9615,N,08404.9845,W,2,11,0.80,303.96,M,-33.324,M,,*79
2017-11-16 13:26:22 1510856782.274976: $GPRMC,182621,A,3946.9615,N,08404.9845,W,0.0000,0.000,161117,,*3B
2017-11-16 13:26:22 1510856782.275032: $GPGSA,A,3,10,13,15,18,20,21,24,27,32,29,138,,1.6,0.8,1.3*03
2017-11-16 13:26:23 1510856783.274403: $GPZDA,182622.00,16,11,2017,00,00*68
2017-11-16 13:26:23 1510856783.274570: $GPGGA,182622,3946.9615,N,08404.9845,W,2,11,0.80,303.96,M,-33.324,M,,*7A
2017-11-16 13:26:23 1510856783.274631: $GPRMC,182622,A,3946.9615,N,08404.9845,W,0.0000,0.000,161117,,*38
2017-11-16 13:26:23 1510856783.274687: $GPGSA,A,3,10,13,15,18,20,21,24,27,32,29,138,,1.6,0.8,1.3*03
2017-11-16 13:26:24 1510856784.612600: $GPGSV,3,1,12,10,25,285,40,13,27,045,45,15,59,051,51,18,56,303,47*73
2017-11-16 13:26:24 1510856784.612764: $GPGSV,3,2,12,20,49,075,48,21,78,259,46,24,35,136,42,27,17,310,43*7E
2017-11-16 13:26:24 1510856784.612823: $GPGSV,3,3,12,32,02,226,28,29,07,189,31,05,02,088,00,138,38,213,45*4C
2017-11-16 13:26:24 1510856784.725950: $GPZDA,182623.00,16,11,2017,00,00*69
2017-11-16 13:26:24 1510856784.726147: $GPGGA,182623,3946.9615,N,08404.9845,W,2,11,0.80,303.96,M,-33.324,M,,*7B
2017-11-16 13:26:24 1510856784.726210: $GPRMC,182623,A,3946.9615,N,08404.9845,W,0.0000,0.000,161117,,*39
2017-11-16 13:26:24 1510856784.726283: $GPGSA,A,3,10,13,15,18,20,21,24,27,32,29,138,,1.6,0.8,1.3*03
2017-11-16 13:26:25 1510856785.351309: $GPZDA,182624.00,16,11,2017,00,00*6E
2017-11-16 13:26:25 1510856785.351481: $GPGGA,182624,3946.9615,N,08404.9845,W,2,11,0.80,303.96,M,-33.324,M,,*7C
2017-11-16 13:26:25 1510856785.351543: $GPRMC,182624,A,3946.9615,N,08404.9845,W,0.0000,0.000,161117,,*3E
2017-11-16 13:26:25 1510856785.351599: $GPGSA,A,3,10,13,15,18,20,21,24,27,32,29,138,,1.6,0.8,1.3*03
2017-11-16 13:26:26 1510856786.268386: $GPZDA,182625.00,16,11,2017,00,00*6F
2017-11-16 13:26:26 1510856786.268571: $GPGGA,182625,3946.9615,N,08404.9845,W,2,11,0.80,303.96,M,-33.324,M,,*7D
2017-11-16 13:26:26 1510856786.268633: $GPRMC,182625,A,3946.9615,N,08404.9845,W,0.0000,0.000,161117,,*3F
2017-11-16 13:26:26 1510856786.268689: $GPGSA,A,3,10,13,15,18,20,21,24,27,32,29,138,,1.6,0.8,1.3*03
