2017-12-01 13:15:14 1512152114.036712: {"class":"VERSION","release":"3.16","rev":"3.16-4","proto_major":3,"proto_minor":11}
2017-12-01 13:15:14 1512152114.037135: {"class":"DEVICES","devices":[{"class":"DEVICE","path":"/dev/ttyUSB0","driver":"SiRF","subtype":"9\u0006GSD4e_4.1.2-P1_RPATCH.05-F-GPS-4R-1510281 11/03/2015 307","activated":"2017-12-01T18:15:13.992Z","flags":1,"native":1,"bps":4800,"parity":"N","stopbits":1,"cycle":1.00}]}
2017-12-01 13:15:14 1512152114.037264: {"class":"WATCH","enable":true,"json":false,"nmea":true,"raw":0,"scaled":false,"timing":false,"split24":false,"pps":false}
2017-12-01 13:15:14 1512152114.456361: $GPZDA,181515.00,01,12,2017,00,00*69
2017-12-01 13:15:14 1512152114.456532: $GPGGA,181515,3946.9593,N,08404.9844,W,1,11,0.80,297.95,M,-33.324,M,,*7E
2017-12-01 13:15:14 1512152114.456599: $GPRMC,181515,A,3946.9593,N,08404.9844,W,0.0000,0.000,011217,,*35
2017-12-01 13:15:14 1512152114.456659: $GPGSA,A,3,10,15,18,20,21,24,27,32,8,13,138,,2.0,0.8,1.5*33
2017-12-01 13:15:15 1512152115.382342: $GPZDA,181516.00,01,12,2017,00,00*6A
2017-12-01 13:15:15 1512152115.382533: $GPGGA,181516,3946.9592,N,08404.9843,W,1,11,0.80,296.55,M,-33.324,M,,*76
2017-12-01 13:15:15 1512152115.382603: $GPRMC,181516,A,3946.9592,N,08404.9843,W,0.0000,0.000,011217,,*30
2017-12-01 13:15:15 1512152115.382665: $GPGSA,A,3,10,15,18,20,21,24,27,32,8,13,138,,2.0,0.8,1.5*33
2017-12-01 13:15:16 1512152116.718887: $GPGSV,3,1,12,10,43,303,46,15,36,052,46,18,72,340,44,20,32,097,47*7D
2017-12-01 13:15:16 1512152116.719104: $GPGSV,3,2,12,21,61,187,45,24,51,108,47,27,19,288,38,32,22,240,42*7D
2017-12-01 13:15:16 1512152116.719178: $GPGSV,3,3,12,08,06,321,37,13,06,049,26,14,05,232,17,138,38,213,46*4B
2017-12-01 13:15:16 1512152116.832679: $GPZDA,181517.00,01,12,2017,00,00*6B
2017-12-01 13:15:16 1512152116.832865: $GPGGA,181517,3946.9591,N,08404.9836,W,2,12,1.40,295.22,M,-33.324,M,,*78
2017-12-01 13:15:16 1512152116.832934: $GPRMC,181517,A,3946.9591,N,08404.9836,W,0.0000,0.000,011217,,*30
2017-12-01 13:15:16 1512152116.832998: $GPGSA,A,3,10,15,18,20,21,24,27,32,8,13,14,138,2.0,1.4,1.5*3B
2017-12-01 13:15:17 1512152117.386175: $GPZDA,181518.00,01,12,2017,00,00*64
2017-12-01 13:15:17 1512152117.386364: $GPGGA,181518,3946.9591,N,08404.9836,W,2,12,0.80,295.22,M,-33.324,M,,*7A
2017-12-01 13:15:17 1512152117.386435: $GPRMC,181518,A,3946.9591,N,08404.9836,W,0.0000,0.000,011217,,*3F
2017-12-01 13:15:17 1512152117.386500: $GPGSA,A,3,10,15,18,20,21,24,27,32,8,13,14,138,2.0,0.8,1.5*36
2017-12-01 13:15:18 1512152118.381844: $GPZDA,181519.00,01,12,2017,00,00*65
2017-12-01 13:15:18 1512152118.382031: $GPGGA,181519,3946.9588,N,08404.9837,W,2,12,0.80,297.39,M,-33.324,M,,*7A
2017-12-01 13:15:18 1512152118.382102: $GPRMC,181519,A,3946.9588,N,08404.9837,W,0.0000,0.000,011217,,*37
2017-12-01 13:15:18 1512152118.382166: $GPGSA,A,3,10,15,18,20,21,24,27,32,8,13,14,138,2.0,0.8,1.5*36
2017-12-01 13:15:18 1512152118.382228: $GPGBS,181519,2.67,M,3.86,M,8.82,M*37
2017-12-01 13:15:19 1512152119.721640: $GPGSV,3,1,12,10,43,303,45,15,36,052,46,18,72,340,43,20,32,097,46*78
2017-12-01 13:15:19 1512152119.721838: $GPGSV,3,2,12,21,61,187,45,24,51,108,48,27,19,288,39,32,22,240,42*73
2017-12-01 13:15:19 1512152119.721910: $GPGSV,3,3,12,08,06,321,37,13,06,049,26,14,05,232,14,138,38,213,46*48
2017-12-01 13:15:19 1512152119.835203: $GPZDA,181520.00,01,12,2017,00,00*6F
2017-12-01 13:15:19 1512152119.835353: $GPGGA,181520,3946.9588,N,08404.9837,W,2,12,0.80,297.39,M,-33.324,M,,*70
2017-12-01 13:15:19 1512152119.835440: $GPRMC,181520,A,3946.9588,N,08404.9837,W,0.0000,0.000,011217,,*3D
2017-12-01 13:15:19 1512152119.835506: $GPGSA,A,3,10,15,18,20,21,24,27,32,8,13,14,138,2.0,0.8,1.5*36
2017-12-01 13:15:20 1512152120.385867: $GPZDA,181521.00,01,12,2017,00,00*6E
2017-12-01 13:15:20 1512152120.386039: $GPGGA,181521,3946.9588,N,08404.9837,W,2,12,0.80,297.39,M,-33.324,M,,*71
2017-12-01 13:15:20 1512152120.386109: $GPRMC,181521,A,3946.9588,N,08404.9837,W,0.0000,0.000,011217,,*3C
2017-12-01 13:15:20 1512152120.386172: $GPGSA,A,3,10,15,18,20,21,24,27,32,8,13,14,138,2.0,0.8,1.5*36
2017-12-01 13:15:21 1512152121.385776: $GPZDA,181522.00,01,12,2017,00,00*6D
2017-12-01 13:15:21 1512152121.385948: $GPGGA,181522,3946.9588,N,08404.9837,W,2,12,0.80,297.39,M,-33.324,M,,*72
2017-12-01 13:15:21 1512152121.386015: $GPRMC,181522,A,3946.9588,N,08404.9837,W,0.0000,0.000,011217,,*3F
2017-12-01 13:15:21 1512152121.386076: $GPGSA,A,3,10,15,18,20,21,24,27,32,8,13,14,138,2.0,0.8,1.5*36
2017-12-01 13:15:22 1512152122.721341: $GPGSV,3,1,12,10,43,303,45,15,36,052,46,18,72,340,43,20,32,097,47*79
2017-12-01 13:15:22 1512152122.721599: $GPGSV,3,2,12,21,61,187,45,24,51,108,47,27,19,288,40,32,22,240,42*72
2017-12-01 13:15:22 1512152122.721669: $GPGSV,3,3,12,08,06,321,39,13,06,049,26,14,05,232,13,138,38,213,47*40
2017-12-01 13:15:22 1512152122.833743: $GPZDA,181523.00,01,12,2017,00,00*6C
2017-12-01 13:15:22 1512152122.833936: $GPGGA,181523,3946.9588,N,08404.9837,W,2,12,0.80,297.39,M,-33.324,M,,*73
2017-12-01 13:15:22 1512152122.834007: $GPRMC,181523,A,3946.9588,N,08404.9837,W,0.0000,0.000,011217,,*3E
2017-12-01 13:15:22 1512152122.834072: $GPGSA,A,3,10,15,18,20,21,24,27,32,8,13,14,138,2.0,0.8,1.5*36
2017-12-01 13:15:23 1512152123.384626: $GPZDA,181524.00,01,12,2017,00,00*6B
2017-12-01 13:15:23 1512152123.384806: $GPGGA,181524,3946.9588,N,08404.9837,W,2,12,0.80,297.39,M,-33.324,M,,*74
2017-12-01 13:15:23 1512152123.384876: $GPRMC,181524,A,3946.9588,N,08404.9837,W,0.0000,0.000,011217,,*39
2017-12-01 13:15:23 1512152123.384941: $GPGSA,A,3,10,15,18,20,21,24,27,32,8,13,14,138,2.0,0.8,1.5*36
