2017-12-29 11:49:19 1514566159.247128: {"class":"VERSION","release":"3.16","rev":"3.16-4","proto_major":3,"proto_minor":11}
2017-12-29 11:49:19 1514566159.247478: {"class":"DEVICES","devices":[{"class":"DEVICE","path":"/dev/ttyUSB0","driver":"SiRF","subtype":"9\u0006GSD4e_4.1.2-P1_RPATCH.05-F-GPS-4R-1510281 11/03/2015 307","activated":"2017-12-29T16:49:19.208Z","flags":1,"native":1,"bps":4800,"parity":"N","stopbits":1,"cycle":1.00}]}
2017-12-29 11:49:19 1514566159.247596: {"class":"WATCH","enable":true,"json":false,"nmea":true,"raw":0,"scaled":false,"timing":false,"split24":false,"pps":false}
2017-12-29 11:49:19 1514566159.721443: $GPGSV,3,1,11,10,53,313,47,14,15,240,37,15,24,058,45,18,77,030,45*78
2017-12-29 11:49:19 1514566159.721619: $GPGSV,3,2,11,20,23,106,49,21,48,183,48,24,53,084,51,32,33,249,36*7B
2017-12-29 11:49:19 1514566159.721687: $GPGSV,3,3,11,27,15,276,34,08,08,310,32,138,38,213,45*7F
2017-12-29 11:49:19 1514566159.834805: $GPZDA,164920.00,29,12,2017,00,00*62
2017-12-29 11:49:19 1514566159.834958: $GPGGA,164920,3946.9627,N,08404.9869,W,2,11,0.80,310.62,M,-33.324,M,,*79
2017-12-29 11:49:19 1514566159.835024: $GPRMC,164920,A,3946.9627,N,08404.9869,W,0.3423,4.196,291217,,*31
2017-12-29 11:49:19 1514566159.835085: $GPGSA,A,3,10,14,15,18,20,21,24,32,27,8,138,,1.7,0.8,1.3*36
2017-12-29 11:49:20 1514566160.385988: $GPZDA,164921.00,29,12,2017,00,00*63
2017-12-29 11:49:20 1514566160.386154: $GPGGA,164921,3946.9620,N,08404.9871,W,2,11,0.80,312.15,M,-33.324,M,,*74
2017-12-29 11:49:20 1514566160.386221: $GPRMC,164921,A,3946.9620,N,08404.9871,W,0.0000,0.000,291217,,*32
2017-12-29 11:49:20 1514566160.386283: $GPGSA,A,3,10,14,15,18,20,21,24,32,27,8,138,,1.7,0.8,1.3*36
2017-12-29 11:49:21 1514566161.385299: $GPZDA,164922.00,29,12,2017,00,00*60
2017-12-29 11:49:21 1514566161.385477: $GPGGA,164922,3946.9624,N,08404.9864,W,2,11,0.80,312.87,M,-33.324,M,,*7C
2017-12-29 11:49:21 1514566161.385892: $GPRMC,164922,A,3946.9624,N,08404.9864,W,0.0000,0.000,291217,,*31
2017-12-29 11:49:21 1514566161.385987: $GPGSA,A,3,10,14,15,18,20,21,24,32,27,8,138,,1.7,0.8,1.3*36
2017-12-29 11:49:22 1514566162.719804: $GPGSV,3,1,11,10,53,313,47,14,15,240,37,15,24,058,44,18,77,030,45*79
2017-12-29 11:49:22 1514566162.719983: $GPGSV,3,2,11,20,23,106,49,21,48,183,48,24,53,084,51,32,33,249,36*7B
2017-12-29 11:49:22 1514566162.720051: $GPGSV,3,3,11,27,15,276,34,08,08,310,37,138,38,213,46*79
2017-12-29 11:49:22 1514566162.833215: $GPZDA,164923.00,29,12,2017,00,00*61
2017-12-29 11:49:22 1514566162.833391: $GPGGA,164923,3946.9624,N,08404.9864,W,2,11,0.80,312.87,M,-33.324,M,,*7D
2017-12-29 11:49:22 1514566162.833461: $GPRMC,164923,A,3946.9624,N,08404.9864,W,0.0000,0.000,291217,,*30
2017-12-29 11:49:22 1514566162.833525: $GPGSA,A,3,10,14,15,18,20,21,24,32,27,8,138,,1.7,0.8,1.3*36
2017-12-29 11:49:23 1514566163.387698: $GPZDA,164924.00,29,12,2017,00,00*66
2017-12-29 11:49:23 1514566163.387887: $GPGGA,164924,3946.9624,N,08404.9864,W,2,11,0.80,312.87,M,-33.324,M,,*7A
2017-12-29 11:49:23 1514566163.387973: $GPRMC,164924,A,3946.9624,N,08404.9864,W,0.0000,0.000,291217,,*37
2017-12-29 11:49:23 1514566163.388038: $GPGSA,A,3,10,14,15,18,20,21,24,32,27,8,138,,1.7,0.8,1.3*36
2017-12-29 11:49:24 1514566164.388078: $GPZDA,164925.00,29,12,2017,00,00*67
2017-12-29 11:49:24 1514566164.388251: $GPGGA,164925,3946.9624,N,08404.9864,W,2,11,0.80,312.87,M,-33.324,M,,*7B
2017-12-29 11:49:24 1514566164.388318: $GPRMC,164925,A,3946.9624,N,08404.9864,W,0.0000,0.000,291217,,*36
2017-12-29 11:49:24 1514566164.388398: $GPGSA,A,3,10,14,15,18,20,21,24,32,27,8,138,,1.7,0.8,1.3*36
2017-12-29 11:49:25 1514566165.725072: $GPGSV,3,1,11,10,53,313,47,14,15,240,37,15,24,058,45,18,77,030,45*78
2017-12-29 11:49:25 1514566165.725254: $GPGSV,3,2,11,20,23,106,49,21,48,183,48,24,53,084,51,32,33,249,36*7B
2017-12-29 11:49:25 1514566165.725320: $GPGSV,3,3,11,27,15,276,35,08,08,310,36,138,38,213,45*7A
2017-12-29 11:49:25 1514566165.838420: $GPZDA,164926.00,29,12,2017,00,00*64
2017-12-29 11:49:25 1514566165.838574: $GPGGA,164926,3946.9624,N,08404.9864,W,2,11,0.80,312.87,M,-33.324,M,,*78
2017-12-29 11:49:25 1514566165.838725: $GPRMC,164926,A,3946.9624,N,08404.9864,W,0.0000,0.000,291217,,*35
2017-12-29 11:49:25 1514566165.838789: $GPGSA,A,3,10,14,15,18,20,21,24,32,27,8,138,,1.7,0.8,1.3*36
2017-12-29 11:49:26 1514566166.388107: $GPZDA,164927.00,29,12,2017,00,00*65
2017-12-29 11:49:26 1514566166.388276: $GPGGA,164927,3946.9624,N,08404.9864,W,2,11,0.80,312.87,M,-33.324,M,,*79
2017-12-29 11:49:26 1514566166.388342: $GPRMC,164927,A,3946.9624,N,08404.9864,W,0.0000,0.000,291217,,*34
2017-12-29 11:49:26 1514566166.388403: $GPGSA,A,3,10,14,15,18,20,21,24,32,27,8,138,,1.7,0.8,1.3*36
2017-12-29 11:49:27 1514566167.387749: $GPZDA,164928.00,29,12,2017,00,00*6A
2017-12-29 11:49:27 1514566167.387907: $GPGGA,164928,3946.9620,N,08404.9864,W,2,11,0.80,313.63,M,-33.324,M,,*79
2017-12-29 11:49:27 1514566167.387973: $GPRMC,164928,A,3946.9620,N,08404.9864,W,0.0000,0.000,291217,,*3F
2017-12-29 11:49:27 1514566167.388034: $GPGSA,A,3,10,14,15,18,20,21,24,32,27,8,138,,1.7,0.8,1.3*36
2017-12-29 11:49:28 1514566168.719664: $GPGSV,3,1,11,10,53,313,46,14,15,240,38,15,24,058,45,18,77,030,45*76
2017-12-29 11:49:28 1514566168.719845: $GPGSV,3,2,11,20,23,106,49,21,48,183,47,24,53,084,51,32,33,249,36*74
2017-12-29 11:49:28 1514566168.719912: $GPGSV,3,3,11,27,15,276,35,08,08,310,36,138,38,213,45*7A
2017-12-29 11:49:28 1514566168.833071: $GPZDA,164929.00,29,12,2017,00,00*6B
2017-12-29 11:49:28 1514566168.833212: $GPGGA,164929,3946.9620,N,08404.9864,W,2,11,0.80,313.63,M,-33.324,M,,*78
2017-12-29 11:49:28 1514566168.833277: $GPRMC,164929,A,3946.9620,N,08404.9864,W,0.0000,0.000,291217,,*3E
2017-12-29 11:49:28 1514566168.833337: $GPGSA,A,3,10,14,15,18,20,21,24,32,27,8,138,,1.7,0.8,1.3*36
2017-12-29 11:49:29 1514566169.458744: $GPZDA,164930.00,29,12,2017,00,00*63
2017-12-29 11:49:29 1514566169.458912: $GPGGA,164930,3946.9620,N,08404.9864,W,2,11,0.80,313.63,M,-33.324,M,,*70
2017-12-29 11:49:29 1514566169.458977: $GPRMC,164930,A,3946.9620,N,08404.9864,W,0.0000,0.000,291217,,*36
2017-12-29 11:49:29 1514566169.459038: $GPGSA,A,3,10,14,15,18,20,21,24,32,27,8,138,,1.7,0.8,1.3*36
2017-12-29 11:49:30 1514566170.388009: $GPZDA,164931.00,29,12,2017,00,00*62
2017-12-29 11:49:30 1514566170.388179: $GPGGA,164931,3946.9620,N,08404.9864,W,2,11,0.80,313.63,M,-33.324,M,,*71
2017-12-29 11:49:30 1514566170.388245: $GPRMC,164931,A,3946.9620,N,08404.9864,W,0.0000,0.000,291217,,*37
2017-12-29 11:49:30 1514566170.388305: $GPGSA,A,3,10,14,15,18,20,21,24,32,27,8,138,,1.7,0.8,1.3*36
2017-12-29 11:49:31 1514566171.723784: $GPGSV,3,1,11,10,53,313,46,14,15,240,38,15,24,058,45,18,77,030,45*76
2017-12-29 11:49:31 1514566171.723963: $GPGSV,3,2,11,20,23,106,49,21,48,183,47,24,53,084,51,32,33,249,36*74
2017-12-29 11:49:31 1514566171.724029: $GPGSV,3,3,11,27,15,276,34,08,08,310,36,138,38,213,45*7B
2017-12-29 11:49:31 1514566171.837170: $GPZDA,164932.00,29,12,2017,00,00*61
2017-12-29 11:49:31 1514566171.837313: $GPGGA,164932,3946.9620,N,08404.9864,W,2,11,0.80,313.63,M,-33.324,M,,*72
2017-12-29 11:49:31 1514566171.837377: $GPRMC,164932,A,3946.9620,N,08404.9864,W,0.0000,0.000,291217,,*34
2017-12-29 11:49:31 1514566171.837438: $GPGSA,A,3,10,14,15,18,20,21,24,32,27,8,138,,1.7,0.8,1.3*36
2017-12-29 11:49:32 1514566172.389028: $GPZDA,164933.00,29,12,2017,00,00*60
2017-12-29 11:49:32 1514566172.389311: $GPGGA,164933,3946.9621,N,08404.9858,W,2,11,0.80,315.12,M,-33.324,M,,*7D
2017-12-29 11:49:32 1514566172.389399: $GPRMC,164933,A,3946.9621,N,08404.9858,W,0.0000,0.000,291217,,*3B
2017-12-29 11:49:32 1514566172.389482: $GPGSA,A,3,10,14,15,18,20,21,24,32,27,8,138,,1.7,0.8,1.3*36
2017-12-29 11:49:33 1514566173.383899: $GPZDA,164934.00,29,12,2017,00,00*67
2017-12-29 11:49:33 1514566173.384053: $GPGGA,164934,3946.9617,N,08404.9859,W,2,11,0.80,315.88,M,-33.324,M,,*7D
2017-12-29 11:49:33 1514566173.384119: $GPRMC,164934,A,3946.9617,N,08404.9859,W,0.2422,93.794,291217,,*0E
2017-12-29 11:49:33 1514566173.384180: $GPGSA,A,3,10,14,15,18,20,21,24,32,27,8,138,,1.7,0.8,1.3*36
