2017-11-16 13:34:57 1510857297.807996: {"class":"VERSION","release":"3.17","rev":"3.17","proto_major":3,"proto_minor":12}
2017-11-16 13:34:57 1510857297.808428: {"class":"DEVICES","devices":[{"class":"DEVICE","path":"/dev/ttyUSB0","driver":"SiRF","subtype":"9\u0006GSD4e_4.1.2-P1_RPATCH.05-F-GPS-4R-1510281 11/03/2015 307","activated":"2017-11-16T18:34:57.741Z","flags":1,"native":1,"bps":4800,"parity":"N","stopbits":1,"cycle":1.00}]}
2017-11-16 13:34:57 1510857297.808548: {"class":"WATCH","enable":true,"json":false,"nmea":true,"raw":0,"scaled":false,"timing":false,"split24":false,"pps":false}
2017-11-16 13:34:58 1510857298.253849: $GPZDA,183457.00,16,11,2017,00,00*69
2017-11-16 13:34:58 1510857298.254014: $GPGGA,183457,3946.9611,N,08404.9839,W,2,11,0.80,304.80,M,-33.324,M,,*74
2017-11-16 13:34:58 1510857298.254077: $GPRMC,183457,A,3946.9611,N,08404.9839,W,0.0000,0.000,161117,,*36
2017-11-16 13:34:58 1510857298.254134: $GPGSA,A,3,10,13,15,18,20,21,24,27,29,32,138,,1.6,0.8,1.3*03
2017-11-16 13:34:59 1510857299.253435: $GPZDA,183458.00,16,11,2017,00,00*66
2017-11-16 13:34:59 1510857299.253599: $GPGGA,183458,3946.9611,N,08404.9839,W,2,11,0.80,304.80,M,-33.324,M,,*7B
2017-11-16 13:34:59 1510857299.253661: $GPRMC,183458,A,3946.9611,N,08404.9839,W,0.0000,0.000,161117,,*39
2017-11-16 13:34:59 1510857299.253717: $GPGSA,A,3,10,13,15,18,20,21,24,27,29,32,138,,1.6,0.8,1.3*03
2017-11-16 13:35:00 1510857300.582461: $GPGSV,3,1,11,10,28,288,43,13,23,045,45,15,55,049,51,18,59,307,47*79
2017-11-16 13:35:00 1510857300.582633: $GPGSV,3,2,11,20,46,079,48,21,78,237,46,24,39,133,43,27,18,307,37*74
2017-11-16 13:35:00 1510857300.582696: $GPGSV,3,3,11,29,04,187,18,32,06,228,23,138,38,213,46*7C
2017-11-16 13:35:00 1510857300.695726: $GPZDA,183459.00,16,11,2017,00,00*67
2017-11-16 13:35:00 1510857300.695883: $GPGGA,183459,3946.9611,N,08404.9839,W,2,11,0.80,304.80,M,-33.324,M,,*7A
2017-11-16 13:35:00 1510857300.695946: $GPRMC,183459,A,3946.9611,N,08404.9839,W,0.0000,0.000,161117,,*38
2017-11-16 13:35:00 1510857300.696001: $GPGSA,A,3,10,13,15,18,20,21,24,27,29,32,138,,1.6,0.8,1.3*03
2017-11-16 13:35:01 1510857301.250512: $GPZDA,183500.00,16,11,2017,00,00*6A
2017-11-16 13:35:01 1510857301.250679: $GPGGA,183500,3946.9611,N,08404.9839,W,2,11,0.80,304.80,M,-33.324,M,,*77
2017-11-16 13:35:01 1510857301.250739: $GPRMC,183500,A,3946.9611,N,08404.9839,W,0.0000,0.000,161117,,*35
2017-11-16 13:35:01 1510857301.250797: $GPGSA,A,3,10,13,15,18,20,21,24,27,29,32,138,,1.6,0.8,1.3*03
2017-11-16 13:35:02 1510857302.275017: $GPZDA,183501.00,16,11,2017,00,00*6B
2017-11-16 13:35:02 1510857302.275180: $GPGGA,183501,3946.9611,N,08404.9839,W,2,11,0.80,304.80,M,-33.324,M,,*76
2017-11-16 13:35:02 1510857302.275241: $GPRMC,183501,A,3946.9611,N,08404.9839,W,0.0000,0.000,161117,,*34
2017-11-16 13:35:02 1510857302.275297: $GPGSA,A,3,10,13,15,18,20,21,24,27,29,32,138,,1.6,0.8,1.3*03
2017-11-16 13:35:03 1510857303.611920: $GPGSV,3,1,11,10,28,288,44,13,23,045,46,15,55,049,51,18,59,307,47*7D
2017-11-16 13:35:03 1510857303.612077: $GPGSV,3,2,11,20,46,079,48,21,78,237,46,24,39,133,43,27,18,307,38*7B
2017-11-16 13:35:03 1510857303.612137: $GPGSV,3,3,11,29,04,187,19,32,06,228,25,138,38,213,45*78
2017-11-16 13:35:03 1510857303.726176: $GPZDA,183502.00,16,11,2017,00,00*68
2017-11-16 13:35:03 1510857303.726363: $GPGGA,183502,3946.9611,N,08404.9839,W,2,11,0.80,304.80,M,-33.324,M,,*75
2017-11-16 13:35:03 1510857303.726427: $GPRMC,183502,A,3946.9611,N,08404.9839,W,0.0000,0.000,161117,,*37
2017-11-16 13:35:03 1510857303.726483: $GPGSA,A,3,10,13,15,18,20,21,24,27,29,32,138,,1.6,0.8,1.3*03
2017-11-16 13:35:04 1510857304.252658: $GPZDA,183503.00,16,11,2017,00,00*69
2017-11-16 13:35:04 1510857304.252818: $GPGGA,183503,3946.9611,N,08404.9839,W,2,11,0.80,304.80,M,-33.324,M,,*74
2017-11-16 13:35:04 1510857304.252878: $GPRMC,183503,A,3946.9611,N,08404.9839,W,0.0000,0.000,161117,,*36
2017-11-16 13:35:04 1510857304.252935: $GPGSA,A,3,10,13,15,18,20,21,24,27,29,32,138,,1.6,0.8,1.3*03
2017-11-16 13:35:05 1510857305.275174: $GPZDA,183504.00,16,11,2017,00,00*6E
2017-11-16 13:35:05 1510857305.275336: $GPGGA,183504,3946.9611,N,08404.9839,W,2,11,0.80,304.80,M,-33.324,M,,*73
2017-11-16 13:35:05 1510857305.275448: $GPRMC,183504,A,3946.9611,N,08404.9839,W,0.0000,0.000,161117,,*31
2017-11-16 13:35:05 1510857305.275525: $GPGSA,A,3,10,13,15,18,20,21,24,27,29,32,138,,1.6,0.8,1.3*03
2017-11-16 13:35:06 1510857306.589619: $GPGSV,3,1,11,10,28,288,44,13,23,045,46,15,55,049,51,18,59,307,46*7C
2017-11-16 13:35:06 1510857306.589803: $GPGSV,3,2,11,20,46,079,48,21,78,237,46,24,39,133,43,27,18,307,37*74
2017-11-16 13:35:06 1510857306.589885: $GPGSV,3,3,11,29,04,187,20,32,06,228,31,138,38,213,44*76
2017-11-16 13:35:06 1510857306.703223: $GPZDA,183505.00,16,11,2017,00,00*6F
2017-11-16 13:35:06 1510857306.703401: $GPGGA,183505,3946.9611,N,08404.9839,W,2,11,0.80,304.80,M,-33.324,M,,*72
2017-11-16 13:35:06 1510857306.703462: $GPRMC,183505,A,3946.9611,N,08404.9839,W,0.0000,0.000,161117,,*30
2017-11-16 13:35:06 1510857306.703518: $GPGSA,A,3,10,13,15,18,20,21,24,27,29,32,138,,1.6,0.8,1.3*03
2017-11-16 13:35:07 1510857307.252664: $GPZDA,183506.00,16,11,2017,00,00*6C
2017-11-16 13:35:07 1510857307.252821: $GPGGA,183506,3946.9611,N,08404.9839,W,2,11,0.80,304.80,M,-33.324,M,,*71
2017-11-16 13:35:07 1510857307.252882: $GPRMC,183506,A,3946.9611,N,08404.9839,W,0.0000,0.000,161117,,*33
2017-11-16 13:35:07 1510857307.252938: $GPGSA,A,3,10,13,15,18,20,21,24,27,29,32,138,,1.6,0.8,1.3*03
2017-11-16 13:35:08 1510857308.268340: $GPZDA,183507.00,16,11,2017,00,00*6D
2017-11-16 13:35:08 1510857308.268524: $GPGGA,183507,3946.9611,N,08404.9839,W,2,11,0.80,304.80,M,-33.324,M,,*70
2017-11-16 13:35:08 1510857308.268591: $GPRMC,183507,A,3946.9611,N,08404.9839,W,0.0000,0.000,161117,,*32
2017-11-16 13:35:08 1510857308.268648: $GPGSA,A,3,10,13,15,18,20,21,24,27,29,32,138,,1.6,0.8,1.3*03
2017-11-16 13:35:09 1510857309.610369: $GPGSV,3,1,11,10,28,288,44,13,23,045,46,15,55,049,51,18,59,307,46*7C
2017-11-16 13:35:09 1510857309.610545: $GPGSV,3,2,11,20,46,079,48,21,78,237,46,24,39,133,44,27,18,307,37*73
2017-11-16 13:35:09 1510857309.610607: $GPGSV,3,3,11,29,04,187,20,32,06,228,31,138,38,213,44*76
2017-11-16 13:35:09 1510857309.723643: $GPZDA,183508.00,16,11,2017,00,00*62
2017-11-16 13:35:09 1510857309.723816: $GPGGA,183508,3946.9611,N,08404.9839,W,2,11,0.80,304.80,M,-33.324,M,,*7F
2017-11-16 13:35:09 1510857309.723879: $GPRMC,183508,A,3946.9611,N,08404.9839,W,0.0000,0.000,161117,,*3D
2017-11-16 13:35:09 1510857309.723959: $GPGSA,A,3,10,13,15,18,20,21,24,27,29,32,138,,1.6,0.8,1.3*03
2017-11-16 13:35:10 1510857310.349001: $GPZDA,183509.00,16,11,2017,00,00*63
2017-11-16 13:35:10 1510857310.349169: $GPGGA,183509,3946.9611,N,08404.9839,W,2,11,0.80,304.80,M,-33.324,M,,*7E
2017-11-16 13:35:10 1510857310.349231: $GPRMC,183509,A,3946.9611,N,08404.9839,W,0.0000,0.000,161117,,*3C
2017-11-16 13:35:10 1510857310.349287: $GPGSA,A,3,10,13,15,18,20,21,24,27,29,32,138,,1.6,0.8,1.3*03
2017-11-16 13:35:11 1510857311.252597: $GPZDA,183510.00,16,11,2017,00,00*6B
2017-11-16 13:35:11 1510857311.252759: $GPGGA,183510,3946.9611,N,08404.9839,W,2,11,0.80,304.80,M,-33.324,M,,*76
2017-11-16 13:35:11 1510857311.252823: $GPRMC,183510,A,3946.9611,N,08404.9839,W,0.0000,0.000,161117,,*34
2017-11-16 13:35:11 1510857311.252879: $GPGSA,A,3,10,13,15,18,20,21,24,27,29,32,138,,1.6,0.8,1.3*03
2017-11-16 13:35:12 1510857312.592035: $GPGSV,3,1,11,10,28,288,43,13,23,045,46,15,55,049,51,18,59,307,46*7B
2017-11-16 13:35:12 1510857312.592216: $GPGSV,3,2,11,20,46,079,48,21,78,237,46,24,39,133,44,27,18,307,37*73
2017-11-16 13:35:12 1510857312.592279: $GPGSV,3,3,11,29,04,187,20,32,06,228,31,138,38,213,44*76
2017-11-16 13:35:12 1510857312.705207: $GPZDA,183511.00,16,11,2017,00,00*6A
2017-11-16 13:35:12 1510857312.705357: $GPGGA,183511,3946.9611,N,08404.9839,W,2,11,0.80,304.80,M,-33.324,M,,*77
2017-11-16 13:35:12 1510857312.705418: $GPRMC,183511,A,3946.9611,N,08404.9839,W,0.0000,0.000,161117,,*35
2017-11-16 13:35:12 1510857312.705473: $GPGSA,A,3,10,13,15,18,20,21,24,27,29,32,138,,1.6,0.8,1.3*03
2017-11-16 13:35:13 1510857313.271747: $GPZDA,183512.00,16,11,2017,00,00*69
2017-11-16 13:35:13 1510857313.271970: $GPGGA,183512,3946.9611,N,08404.9839,W,2,11,0.80,304.80,M,-33.324,M,,*74
2017-11-16 13:35:13 1510857313.272034: $GPRMC,183512,A,3946.9611,N,08404.9839,W,0.0000,0.000,161117,,*36
2017-11-16 13:35:13 1510857313.272090: $GPGSA,A,3,10,13,15,18,20,21,24,27,29,32,138,,1.6,0.8,1.3*03
2017-11-16 13:35:14 1510857314.246920: $GPZDA,183513.00,16,11,2017,00,00*68
2017-11-16 13:35:14 1510857314.247084: $GPGGA,183513,3946.9615,N,08404.9839,W,2,11,0.80,305.44,M,-33.324,M,,*78
2017-11-16 13:35:14 1510857314.247145: $GPRMC,183513,A,3946.9615,N,08404.9839,W,0.0000,0.000,161117,,*33
2017-11-16 13:35:14 1510857314.247201: $GPGSA,A,3,10,13,15,18,20,21,24,27,29,32,138,,1.6,0.8,1.3*03
2017-11-16 13:35:15 1510857315.589599: $GPGSV,3,1,11,10,28,288,42,13,23,045,46,15,55,049,51,18,59,307,46*7A
2017-11-16 13:35:15 1510857315.589788: $GPGSV,3,2,11,20,46,079,48,21,78,237,46,24,39,133,44,27,18,307,37*73
2017-11-16 13:35:15 1510857315.589850: $GPGSV,3,3,11,29,04,187,20,32,06,228,31,138,38,213,43*71
2017-11-16 13:35:15 1510857315.702953: $GPZDA,183514.00,16,11,2017,00,00*6F
2017-11-16 13:35:15 1510857315.703133: $GPGGA,183514,3946.9615,N,08404.9839,W,2,11,0.80,305.44,M,-33.324,M,,*7F
2017-11-16 13:35:15 1510857315.703193: $GPRMC,183514,A,3946.9615,N,08404.9839,W,0.0000,0.000,161117,,*34
2017-11-16 13:35:15 1510857315.703249: $GPGSA,A,3,10,13,15,18,20,21,24,27,29,32,138,,1.6,0.8,1.3*03
2017-11-16 13:35:16 1510857316.275009: $GPZDA,183515.00,16,11,2017,00,00*6E
2017-11-16 13:35:16 1510857316.275172: $GPGGA,183515,3946.9615,N,08404.9839,W,2,11,0.80,305.44,M,-33.324,M,,*7E
2017-11-16 13:35:16 1510857316.275232: $GPRMC,183515,A,3946.9615,N,08404.9839,W,0.0000,0.000,161117,,*35
2017-11-16 13:35:16 1510857316.275288: $GPGSA,A,3,10,13,15,18,20,21,24,27,29,32,138,,1.6,0.8,1.3*03
2017-11-16 13:35:17 1510857317.277142: $GPZDA,183516.00,16,11,2017,00,00*6D
2017-11-16 13:35:18 1510857318.078519: $GPGGA,183516,3946.9615,N,08404.9839,W,2,11,0.80,305.44,M,-33.324,M,,*7D
2017-11-16 13:35:18 1510857318.078654: $GPRMC,183516,A,3946.9615,N,08404.9839,W,0.0000,0.000,161117,,*36
2017-11-16 13:35:18 1510857318.078712: $GPGSA,A,3,10,13,15,18,20,21,24,27,29,32,138,,1.6,0.8,1.3*03
2017-11-16 13:35:18 1510857318.589147: $GPGSV,3,1,11,10,28,288,40,13,23,045,46,15,55,049,51,18,59,307,46*78
2017-11-16 13:35:18 1510857318.589315: $GPGSV,3,2,11,20,46,079,48,21,78,237,46,24,39,133,44,27,18,307,36*72
2017-11-16 13:35:18 1510857318.589395: $GPGSV,3,3,11,29,04,187,21,32,06,228,32,138,38,213,44*74
2017-11-16 13:35:18 1510857318.702535: $GPZDA,183517.00,16,11,2017,00,00*6C
2017-11-16 13:35:18 1510857318.702669: $GPGGA,183517,3946.9615,N,08404.9839,W,2,11,0.80,305.44,M,-33.324,M,,*7C
2017-11-16 13:35:18 1510857318.702730: $GPRMC,183517,A,3946.9615,N,08404.9839,W,0.0000,0.000,161117,,*37
2017-11-16 13:35:18 1510857318.702785: $GPGSA,A,3,10,13,15,18,20,21,24,27,29,32,138,,1.6,0.8,1.3*03
2017-11-16 13:35:19 1510857319.254540: $GPZDA,183518.00,16,11,2017,00,00*63
2017-11-16 13:35:19 1510857319.254719: $GPGGA,183518,3946.9615,N,08404.9839,W,2,11,0.80,305.44,M,-33.324,M,,*73
2017-11-16 13:35:19 1510857319.254780: $GPRMC,183518,A,3946.9615,N,08404.9839,W,0.0000,0.000,161117,,*38
2017-11-16 13:35:19 1510857319.254836: $GPGSA,A,3,10,13,15,18,20,21,24,27,29,32,138,,1.6,0.8,1.3*03
2017-11-16 13:35:20 1510857320.269955: $GPZDA,183519.00,16,11,2017,00,00*62
2017-11-16 13:35:20 1510857320.270103: $GPGGA,183519,3946.9615,N,08404.9839,W,2,11,0.80,305.44,M,-33.324,M,,*72
2017-11-16 13:35:20 1510857320.270163: $GPRMC,183519,A,3946.9615,N,08404.9839,W,0.0000,0.000,161117,,*39
2017-11-16 13:35:20 1510857320.270219: $GPGSA,A,3,10,13,15,18,20,21,24,27,29,32,138,,1.6,0.8,1.3*03
2017-11-16 13:35:21 1510857321.591039: $GPGSV,3,1,11,10,28,288,40,13,23,045,47,15,55,049,51,18,59,307,46*79
2017-11-16 13:35:21 1510857321.591222: $GPGSV,3,2,11,20,46,079,48,21,78,237,46,24,39,133,44,27,18,307,36*72
2017-11-16 13:35:21 1510857321.591284: $GPGSV,3,3,11,29,04,187,24,32,06,228,32,138,38,213,45*70
2017-11-16 13:35:21 1510857321.702734: $GPZDA,183520.00,16,11,2017,00,00*68
2017-11-16 13:35:21 1510857321.702944: $GPGGA,183520,3946.9615,N,08404.9839,W,2,11,0.80,305.44,M,-33.324,M,,*78
2017-11-16 13:35:21 1510857321.703007: $GPRMC,183520,A,3946.9615,N,08404.9839,W,0.0000,0.000,161117,,*33
2017-11-16 13:35:21 1510857321.703063: $GPGSA,A,3,10,13,15,18,20,21,24,27,29,32,138,,1.6,0.8,1.3*03
2017-11-16 13:35:22 1510857322.276146: $GPZDA,183521.00,16,11,2017,00,00*69
2017-11-16 13:35:22 1510857322.276324: $GPGGA,183521,3946.9615,N,08404.9839,W,2,11,0.80,305.44,M,-33.324,M,,*79
2017-11-16 13:35:22 1510857322.276405: $GPRMC,183521,A,3946.9615,N,08404.9839,W,0.0000,0.000,161117,,*32
2017-11-16 13:35:22 1510857322.276464: $GPGSA,A,3,10,13,15,18,20,21,24,27,29,32,138,,1.6,0.8,1.3*03
2017-11-16 13:35:23 1510857323.251939: $GPZDA,183522.00,16,11,2017,00,00*6A
2017-11-16 13:35:23 1510857323.252100: $GPGGA,183522,3946.9615,N,08404.9839,W,2,11,0.80,305.44,M,-33.324,M,,*7A
2017-11-16 13:35:23 1510857323.252161: $GPRMC,183522,A,3946.9615,N,08404.9839,W,0.0000,0.000,161117,,*31
2017-11-16 13:35:23 1510857323.252217: $GPGSA,A,3,10,13,15,18,20,21,24,27,29,32,138,,1.6,0.8,1.3*03
2017-11-16 13:35:24 1510857324.583957: $GPGSV,3,1,11,10,28,288,40,13,23,045,47,15,55,049,50,18,59,307,46*78
2017-11-16 13:35:24 1510857324.584140: $GPGSV,3,2,11,20,46,079,48,21,78,237,46,24,39,133,44,27,18,307,36*72
2017-11-16 13:35:24 1510857324.584201: $GPGSV,3,3,11,29,04,187,24,32,06,228,32,138,38,213,45*70
2017-11-16 13:35:24 1510857324.697221: $GPZDA,183523.00,16,11,2017,00,00*6B
2017-11-16 13:35:24 1510857324.697383: $GPGGA,183523,3946.9615,N,08404.9839,W,2,11,0.80,305.44,M,-33.324,M,,*7B
2017-11-16 13:35:24 1510857324.697444: $GPRMC,183523,A,3946.9615,N,08404.9839,W,0.0000,0.000,161117,,*30
2017-11-16 13:35:24 1510857324.697500: $GPGSA,A,3,10,13,15,18,20,21,24,27,29,32,138,,1.6,0.8,1.3*03
2017-11-16 13:35:25 1510857325.322846: $GPZDA,183524.00,16,11,2017,00,00*6C
2017-11-16 13:35:25 1510857325.323012: $GPGGA,183524,3946.9615,N,08404.9839,W,2,11,0.80,305.44,M,-33.324,M,,*7C
2017-11-16 13:35:25 1510857325.323075: $GPRMC,183524,A,3946.9615,N,08404.9839,W,0.0000,0.000,161117,,*37
2017-11-16 13:35:25 1510857325.323134: $GPGSA,A,3,10,13,15,18,20,21,24,27,29,32,138,,1.6,0.8,1.3*03
2017-11-16 13:35:26 1510857326.247238: $GPZDA,183525.00,16,11,2017,00,00*6D
2017-11-16 13:35:26 1510857326.247432: $GPGGA,183525,3946.9615,N,08404.9839,W,2,11,0.80,305.44,M,-33.324,M,,*7D
2017-11-16 13:35:26 1510857326.247499: $GPRMC,183525,A,3946.9615,N,08404.9839,W,0.0000,0.000,161117,,*36
2017-11-16 13:35:26 1510857326.247557: $GPGSA,A,3,10,13,15,18,20,21,24,27,29,32,138,,1.6,0.8,1.3*03
2017-11-16 13:35:27 1510857327.586809: $GPGSV,3,1,11,10,28,288,40,13,23,045,47,15,55,049,50,18,59,307,46*78
2017-11-16 13:35:27 1510857327.586972: $GPGSV,3,2,11,20,46,079,49,21,78,237,46,24,39,133,44,27,18,307,36*73
2017-11-16 13:35:27 1510857327.587035: $GPGSV,3,3,11,29,04,187,23,32,06,228,31,138,38,213,44*75
2017-11-16 13:35:27 1510857327.700155: $GPZDA,183526.00,16,11,2017,00,00*6E
2017-11-16 13:35:27 1510857327.700384: $GPGGA,183526,3946.9615,N,08404.9839,W,2,11,0.80,305.44,M,-33.324,M,,*7E
2017-11-16 13:35:27 1510857327.700459: $GPRMC,183526,A,3946.9615,N,08404.9839,W,0.0000,0.000,161117,,*35
2017-11-16 13:35:27 1510857327.700516: $GPGSA,A,3,10,13,15,18,20,21,24,27,29,32,138,,1.6,0.8,1.3*03
