2017-12-01 15:42:02 1512160922.866873: {"class":"VERSION","release":"3.16","rev":"3.16-4","proto_major":3,"proto_minor":11}
2017-12-01 15:42:02 1512160922.867314: {"class":"DEVICES","devices":[{"class":"DEVICE","path":"/dev/ttyUSB0","driver":"SiRF","subtype":"9\u0006GSD4e_4.1.2-P1_RPATCH.05-F-GPS-4R-1510281 11/03/2015 307","activated":"2017-12-01T20:42:02.863Z","flags":1,"native":1,"bps":4800,"parity":"N","stopbits":1,"cycle":1.00}]}
2017-12-01 15:42:02 1512160922.867451: {"class":"WATCH","enable":true,"json":false,"nmea":true,"raw":0,"scaled":false,"timing":false,"split24":false,"pps":false}
2017-12-01 15:42:02 1512160922.976936: $GPZDA,204203.64,01,12,2017,00,00*65
2017-12-01 15:42:02 1512160922.977094: $GPGGA,204203,3946.9574,N,08404.9831,W,1,11,0.80,309.80,M,-33.324,M,,*79
2017-12-01 15:42:02 1512160922.977160: $GPRMC,204203,A,3946.9574,N,08404.9831,W,0.2365,125.883,011217,,*37
2017-12-01 15:42:02 1512160922.977223: $GPGSA,A,3,1,10,11,12,14,18,24,25,31,32,138,,2.0,0.8,1.5*3B
2017-12-01 15:42:04 1512160924.058590: $GPZDA,204204.33,01,12,2017,00,00*60
2017-12-01 15:42:04 1512160924.058772: $GPGGA,204204,3946.9574,N,08404.9831,W,1,11,0.80,309.80,M,-33.324,M,,*7E
2017-12-01 15:42:04 1512160924.058843: $GPRMC,204204,A,3946.9574,N,08404.9831,W,0.0407,322.014,011217,,*32
2017-12-01 15:42:04 1512160924.058908: $GPGSA,A,3,1,10,11,12,14,18,24,25,31,32,138,,2.0,0.8,1.5*3B
2017-12-01 15:42:04 1512160924.058970: $GPGBS,204204,10.70,M,15.43,M,35.28,M*07
2017-12-01 15:42:05 1512160925.199902: $GPGSV,3,1,12,01,13,319,25,10,71,130,28,11,10,303,22,12,25,073,24*7F
2017-12-01 15:42:05 1512160925.200071: $GPGSV,3,2,12,14,54,289,25,18,38,135,27,24,15,045,24,25,29,115,24*71
2017-12-01 15:42:05 1512160925.200139: $GPGSV,3,3,12,31,34,211,28,32,68,325,28,22,01,310,00,138,38,213,30*47
2017-12-01 15:42:05 1512160925.313278: $GPZDA,204205.00,01,12,2017,00,00*61
2017-12-01 15:42:05 1512160925.313458: $GPGGA,204205,3946.9574,N,08404.9824,W,1,11,0.80,309.88,M,-33.324,M,,*73
2017-12-01 15:42:05 1512160925.313524: $GPRMC,204205,A,3946.9574,N,08404.9824,W,0.4315,34.066,011217,,*06
2017-12-01 15:42:05 1512160925.313584: $GPGSA,A,3,1,10,11,12,14,18,24,25,31,32,138,,2.0,0.8,1.5*3B
2017-12-01 15:42:05 1512160925.765366: $GPZDA,204206.00,01,12,2017,00,00*62
2017-12-01 15:42:05 1512160925.765543: $GPGGA,204206,3946.9574,N,08404.9824,W,1,11,0.80,309.88,M,-33.324,M,,*70
2017-12-01 15:42:05 1512160925.765609: $GPRMC,204206,A,3946.9574,N,08404.9824,W,0.3735,0.000,011217,,*33
2017-12-01 15:42:05 1512160925.765671: $GPGSA,A,3,1,10,11,12,14,18,24,25,31,32,138,,2.0,0.8,1.5*3B
2017-12-01 15:42:06 1512160926.376619: $GPZDA,204207.00,01,12,2017,00,00*63
2017-12-01 15:42:06 1512160926.376811: $GPGGA,204207,3946.9574,N,08404.9824,W,1,11,0.80,309.88,M,-33.324,M,,*71
2017-12-01 15:42:06 1512160926.376895: $GPRMC,204207,A,3946.9574,N,08404.9824,W,0.2172,85.763,011217,,*09
2017-12-01 15:42:06 1512160926.376957: $GPGSA,A,3,1,10,11,12,14,18,24,25,31,32,138,,2.0,0.8,1.5*3B
2017-12-01 15:42:07 1512160927.702674: $GPGSV,3,1,12,01,13,319,41,10,71,130,47,11,10,303,38,12,25,073,40*7D
2017-12-01 15:42:07 1512160927.706068: $GPGSV,3,2,12,14,54,289,42,18,38,135,46,24,15,045,42,25,29,115,40*75
2017-12-01 15:42:07 1512160927.706186: $GPGSV,3,3,12,31,34,211,49,32,68,325,48,22,01,310,27,138,38,213,46*42
2017-12-01 15:42:07 1512160927.816138: $GPZDA,204208.00,01,12,2017,00,00*6C
2017-12-01 15:42:07 1512160927.816302: $GPGGA,204208,3946.9570,N,08404.9824,W,1,12,0.80,309.24,M,-33.324,M,,*7F
2017-12-01 15:42:07 1512160927.816368: $GPRMC,204208,A,3946.9570,N,08404.9824,W,0.0000,0.000,011217,,*3B
2017-12-01 15:42:07 1512160927.816429: $GPGSA,A,3,1,10,11,12,14,18,24,25,31,32,22,138,2.0,0.8,1.5*3B
2017-12-01 15:42:08 1512160928.366972: $GPZDA,204209.00,01,12,2017,00,00*6D
2017-12-01 15:42:08 1512160928.367137: $GPGGA,204209,3946.9573,N,08404.9823,W,1,12,0.80,308.47,M,-33.324,M,,*7E
2017-12-01 15:42:08 1512160928.367205: $GPRMC,204209,A,3946.9573,N,08404.9823,W,0.0000,0.000,011217,,*3E
2017-12-01 15:42:08 1512160928.367266: $GPGSA,A,3,1,10,11,12,14,18,24,25,31,32,22,138,2.0,0.8,1.5*3B
2017-12-01 15:42:09 1512160929.367751: $GPZDA,204210.00,01,12,2017,00,00*65
2017-12-01 15:42:09 1512160929.367950: $GPGGA,204210,3946.9569,N,08404.9823,W,1,12,0.80,307.83,M,-33.324,M,,*7A
2017-12-01 15:42:09 1512160929.368018: $GPRMC,204210,A,3946.9569,N,08404.9823,W,0.0000,0.000,011217,,*3D
2017-12-01 15:42:09 1512160929.368079: $GPGSA,A,3,1,10,11,12,14,18,24,25,31,32,22,138,2.0,0.8,1.5*3B
2017-12-01 15:42:09 1512160929.368138: $GPGBS,204210,10.70,M,15.43,M,35.28,M*02
2017-12-01 15:42:10 1512160930.703439: $GPGSV,3,1,12,01,13,319,42,10,71,130,47,11,10,303,39,12,25,073,40*7F
2017-12-01 15:42:10 1512160930.703619: $GPGSV,3,2,12,14,54,289,42,18,38,135,47,24,15,045,43,25,29,115,40*75
2017-12-01 15:42:10 1512160930.703686: $GPGSV,3,3,12,31,34,211,49,32,68,325,48,22,01,310,26,138,38,213,46*43
2017-12-01 15:42:10 1512160930.816823: $GPZDA,204211.00,01,12,2017,00,00*64
2017-12-01 15:42:10 1512160930.817009: $GPGGA,204211,3946.9570,N,08404.9820,W,2,12,1.20,301.45,M,-33.324,M,,*74
2017-12-01 15:42:10 1512160930.817074: $GPRMC,204211,A,3946.9570,N,08404.9820,W,0.0000,0.000,011217,,*37
2017-12-01 15:42:10 1512160930.817135: $GPGSA,A,3,1,10,11,12,14,18,24,25,31,32,22,138,2.0,1.2,1.5*30
2017-12-01 15:42:11 1512160931.367683: $GPZDA,204212.00,01,12,2017,00,00*67
2017-12-01 15:42:11 1512160931.367900: $GPGGA,204212,3946.9570,N,08404.9820,W,2,12,0.80,301.45,M,-33.324,M,,*7C
2017-12-01 15:42:11 1512160931.367967: $GPRMC,204212,A,3946.9570,N,08404.9820,W,0.0000,0.000,011217,,*34
2017-12-01 15:42:11 1512160931.368029: $GPGSA,A,3,1,10,11,12,14,18,24,25,31,32,22,138,2.0,0.8,1.5*3B
2017-12-01 15:42:12 1512160932.366880: $GPZDA,204213.00,01,12,2017,00,00*66
2017-12-01 15:42:12 1512160932.367056: $GPGGA,204213,3946.9570,N,08404.9820,W,2,12,0.80,301.45,M,-33.324,M,,*7D
2017-12-01 15:42:12 1512160932.367124: $GPRMC,204213,A,3946.9570,N,08404.9820,W,0.0000,0.000,011217,,*35
2017-12-01 15:42:12 1512160932.367185: $GPGSA,A,3,1,10,11,12,14,18,24,25,31,32,22,138,2.0,0.8,1.5*3B
2017-12-01 15:42:13 1512160933.705022: $GPGSV,3,1,12,01,13,319,42,10,71,130,48,11,10,303,38,12,25,073,41*70
2017-12-01 15:42:13 1512160933.705207: $GPGSV,3,2,12,14,54,289,42,18,38,135,47,24,15,045,44,25,29,115,40*72
2017-12-01 15:42:13 1512160933.705273: $GPGSV,3,3,12,31,34,211,49,32,68,325,48,22,01,310,21,138,38,213,45*47
2017-12-01 15:42:13 1512160933.818417: $GPZDA,204214.00,01,12,2017,00,00*61
2017-12-01 15:42:13 1512160933.818560: $GPGGA,204214,3946.9570,N,08404.9820,W,2,12,0.80,301.45,M,-33.324,M,,*7A
2017-12-01 15:42:13 1512160933.818626: $GPRMC,204214,A,3946.9570,N,08404.9820,W,0.0000,0.000,011217,,*32
2017-12-01 15:42:13 1512160933.818706: $GPGSA,A,3,1,10,11,12,14,18,24,25,31,32,22,138,2.0,0.8,1.5*3B
2017-12-01 15:42:14 1512160934.369708: $GPZDA,204215.00,01,12,2017,00,00*60
2017-12-01 15:42:14 1512160934.370029: $GPGGA,204215,3946.9570,N,08404.9820,W,2,12,0.80,301.45,M,-33.324,M,,*7B
2017-12-01 15:42:14 1512160934.370100: $GPRMC,204215,A,3946.9570,N,08404.9820,W,0.0000,0.000,011217,,*33
2017-12-01 15:42:14 1512160934.370162: $GPGSA,A,3,1,10,11,12,14,18,24,25,31,32,22,138,2.0,0.8,1.5*3B
2017-12-01 15:42:15 1512160935.367701: $GPZDA,204216.00,01,12,2017,00,00*63
2017-12-01 15:42:15 1512160935.367899: $GPGGA,204216,3946.9570,N,08404.9820,W,2,12,0.80,301.45,M,-33.324,M,,*78
2017-12-01 15:42:15 1512160935.367968: $GPRMC,204216,A,3946.9570,N,08404.9820,W,0.0000,0.000,011217,,*30
2017-12-01 15:42:15 1512160935.368030: $GPGSA,A,3,1,10,11,12,14,18,24,25,31,32,22,138,2.0,0.8,1.5*3B
2017-12-01 15:42:16 1512160936.704643: $GPGSV,3,1,12,01,13,319,42,10,71,130,48,11,10,303,38,12,25,073,41*70
2017-12-01 15:42:16 1512160936.704858: $GPGSV,3,2,12,14,54,289,41,18,38,135,47,24,15,045,44,25,29,115,39*7F
2017-12-01 15:42:16 1512160936.704926: $GPGSV,3,3,12,31,34,211,49,32,68,325,48,22,01,310,23,138,38,213,46*46
2017-12-01 15:42:16 1512160936.818130: $GPZDA,204217.00,01,12,2017,00,00*62
2017-12-01 15:42:16 1512160936.818300: $GPGGA,204217,3946.9566,N,08404.9821,W,2,12,0.80,302.22,M,-33.324,M,,*7D
2017-12-01 15:42:16 1512160936.818366: $GPRMC,204217,A,3946.9566,N,08404.9821,W,0.0000,0.000,011217,,*37
2017-12-01 15:42:16 1512160936.818475: $GPGSA,A,3,1,10,11,12,14,18,24,25,31,32,22,138,2.0,0.8,1.5*3B
2017-12-01 15:42:17 1512160937.443404: $GPZDA,204218.00,01,12,2017,00,00*6D
2017-12-01 15:42:17 1512160937.443560: $GPGGA,204218,3946.9566,N,08404.9821,W,2,12,0.80,302.22,M,-33.324,M,,*72
2017-12-01 15:42:17 1512160937.443626: $GPRMC,204218,A,3946.9566,N,08404.9821,W,0.0000,0.000,011217,,*38
2017-12-01 15:42:17 1512160937.443707: $GPGSA,A,3,1,10,11,12,14,18,24,25,31,32,22,138,2.0,0.8,1.5*3B
2017-12-01 15:42:18 1512160938.370533: $GPZDA,204219.00,01,12,2017,00,00*6C
2017-12-01 15:42:18 1512160938.372280: $GPGGA,204219,3946.9566,N,08404.9821,W,2,12,0.80,302.22,M,-33.324,M,,*73
2017-12-01 15:42:18 1512160938.372396: $GPRMC,204219,A,3946.9566,N,08404.9821,W,0.0000,0.000,011217,,*39
2017-12-01 15:42:18 1512160938.372459: $GPGSA,A,3,1,10,11,12,14,18,24,25,31,32,22,138,2.0,0.8,1.5*3B
2017-12-01 15:42:19 1512160939.705012: $GPGSV,3,1,12,01,13,319,42,10,71,130,48,11,10,303,38,12,25,073,41*70
2017-12-01 15:42:19 1512160939.705193: $GPGSV,3,2,12,14,54,289,41,18,38,135,47,24,15,045,44,25,29,115,40*71
2017-12-01 15:42:19 1512160939.705259: $GPGSV,3,3,12,31,34,211,49,32,68,325,48,22,01,310,00,138,38,213,46*47
2017-12-01 15:42:19 1512160939.818380: $GPZDA,204220.00,01,12,2017,00,00*66
2017-12-01 15:42:19 1512160939.818529: $GPGGA,204220,3946.9559,N,08404.9828,W,2,11,0.80,302.26,M,-33.324,M,,*7B
2017-12-01 15:42:19 1512160939.818595: $GPRMC,204220,A,3946.9559,N,08404.9828,W,0.0000,0.000,011217,,*36
2017-12-01 15:42:19 1512160939.818675: $GPGSA,A,3,1,10,11,12,14,18,24,25,31,32,138,,2.0,0.8,1.5*3B
2017-12-01 15:42:20 1512160940.366814: $GPZDA,204221.00,01,12,2017,00,00*67
2017-12-01 15:42:20 1512160940.366987: $GPGGA,204221,3946.9559,N,08404.9828,W,2,11,0.80,302.26,M,-33.324,M,,*7A
2017-12-01 15:42:20 1512160940.367053: $GPRMC,204221,A,3946.9559,N,08404.9828,W,0.0000,0.000,011217,,*37
2017-12-01 15:42:20 1512160940.367114: $GPGSA,A,3,1,10,11,12,14,18,24,25,31,32,138,,2.0,0.8,1.5*3B
2017-12-01 15:42:21 1512160941.370086: $GPZDA,204222.00,01,12,2017,00,00*64
2017-12-01 15:42:21 1512160941.370247: $GPGGA,204222,3946.9559,N,08404.9828,W,2,11,0.80,302.26,M,-33.324,M,,*79
2017-12-01 15:42:21 1512160941.370313: $GPRMC,204222,A,3946.9559,N,08404.9828,W,0.0000,0.000,011217,,*34
2017-12-01 15:42:21 1512160941.370374: $GPGSA,A,3,1,10,11,12,14,18,24,25,31,32,138,,2.0,0.8,1.5*3B
2017-12-01 15:42:21 1512160941.370433: $GPGBS,204222,2.67,M,3.86,M,8.82,M*36
2017-12-01 15:42:22 1512160942.705240: $GPGSV,3,1,12,01,13,319,42,10,71,130,48,11,10,303,38,12,25,073,42*73
2017-12-01 15:42:22 1512160942.705404: $GPGSV,3,2,12,14,54,289,42,18,38,135,47,24,15,045,44,25,29,115,40*72
2017-12-01 15:42:22 1512160942.705470: $GPGSV,3,3,12,31,34,211,49,32,68,325,48,22,01,310,00,138,38,213,45*44
2017-12-01 15:42:22 1512160942.818615: $GPZDA,204223.00,01,12,2017,00,00*65
2017-12-01 15:42:22 1512160942.818820: $GPGGA,204223,3946.9559,N,08404.9828,W,2,11,0.80,302.26,M,-33.324,M,,*78
2017-12-01 15:42:22 1512160942.818888: $GPRMC,204223,A,3946.9559,N,08404.9828,W,0.0000,0.000,011217,,*35
2017-12-01 15:42:22 1512160942.818950: $GPGSA,A,3,1,10,11,12,14,18,24,25,31,32,138,,2.0,0.8,1.5*3B
