2017-12-31 18:13:38 1514762018.987408: {"class":"VERSION","release":"3.16","rev":"3.16-4","proto_major":3,"proto_minor":11}
2017-12-31 18:13:38 1514762018.987797: {"class":"DEVICES","devices":[{"class":"DEVICE","path":"/dev/ttyUSB0","driver":"SiRF","activated":"2017-12-31T23:13:38.491Z","flags":1,"native":1,"bps":4800,"parity":"N","stopbits":1,"cycle":1.00}]}
2017-12-31 18:13:38 1514762018.987897: {"class":"WATCH","enable":true,"json":false,"nmea":true,"raw":0,"scaled":false,"timing":false,"split24":false,"pps":false}
2017-12-31 18:13:39 1514762019.689075: $GPGSV,3,1,12,22,21,213,37,23,55,306,44,09,21,312,41,03,31,234,40*74
2017-12-31 18:13:39 1514762019.689240: $GPGSV,3,2,12,16,82,187,42,29,05,030,28,14,14,133,32,31,28,076,42*76
2017-12-31 18:13:39 1514762019.689306: $GPGSV,3,3,12,27,23,153,30,08,01,180,14,26,61,049,45,135,22,240,41*44
2017-12-31 18:13:39 1514762019.802699: $GPZDA,231340.00,31,12,2017,00,00*64
2017-12-31 18:13:39 1514762019.802847: $GPGGA,231340,3946.9564,N,08404.9866,W,2,12,0.80,307.48,M,-33.324,M,,*70
2017-12-31 18:13:39 1514762019.802913: $GPRMC,231340,A,3946.9564,N,08404.9866,W,0.0000,0.000,311217,,*30
2017-12-31 18:13:39 1514762019.802974: $GPGSA,A,3,22,23,9,3,16,29,14,31,27,8,26,135,1.7,0.8,1.3*30
2017-12-31 18:13:40 1514762020.428158: $GPZDA,231341.00,31,12,2017,00,00*65
2017-12-31 18:13:40 1514762020.428327: $GPGGA,231341,3946.9564,N,08404.9866,W,2,12,0.80,307.48,M,-33.324,M,,*71
2017-12-31 18:13:40 1514762020.428394: $GPRMC,231341,A,3946.9564,N,08404.9866,W,0.0000,0.000,311217,,*31
2017-12-31 18:13:40 1514762020.428455: $GPGSA,A,3,22,23,9,3,16,29,14,31,27,8,26,135,1.7,0.8,1.3*30
2017-12-31 18:13:41 1514762021.348970: $GPZDA,231342.00,31,12,2017,00,00*66
2017-12-31 18:13:41 1514762021.349138: $GPGGA,231342,3946.9564,N,08404.9866,W,2,12,0.80,307.48,M,-33.324,M,,*72
2017-12-31 18:13:41 1514762021.349204: $GPRMC,231342,A,3946.9564,N,08404.9866,W,0.0000,0.000,311217,,*32
2017-12-31 18:13:41 1514762021.349266: $GPGSA,A,3,22,23,9,3,16,29,14,31,27,8,26,135,1.7,0.8,1.3*30
2017-12-31 18:13:42 1514762022.678193: $GPGSV,3,1,12,22,21,213,36,23,55,306,45,09,21,312,42,03,31,234,41*76
2017-12-31 18:13:42 1514762022.678349: $GPGSV,3,2,12,16,82,187,43,29,05,030,30,14,14,133,32,31,28,076,44*78
2017-12-31 18:13:42 1514762022.678414: $GPGSV,3,3,12,27,23,153,30,08,01,180,25,26,61,049,47,135,22,240,44*41
2017-12-31 18:13:42 1514762022.791802: $GPZDA,231343.00,31,12,2017,00,00*67
2017-12-31 18:13:42 1514762022.791927: $GPGGA,231343,3946.9564,N,08404.9866,W,2,12,0.80,307.48,M,-33.324,M,,*73
2017-12-31 18:13:42 1514762022.791993: $GPRMC,231343,A,3946.9564,N,08404.9866,W,0.0000,0.000,311217,,*33
2017-12-31 18:13:42 1514762022.792053: $GPGSA,A,3,22,23,9,3,16,29,14,31,27,8,26,135,1.7,0.8,1.3*30
2017-12-31 18:13:43 1514762023.349927: $GPZDA,231344.00,31,12,2017,00,00*60
2017-12-31 18:13:43 1514762023.350093: $GPGGA,231344,3946.9564,N,08404.9866,W,2,12,0.80,307.48,M,-33.324,M,,*74
2017-12-31 18:13:43 1514762023.350162: $GPRMC,231344,A,3946.9564,N,08404.9866,W,0.0000,0.000,311217,,*34
2017-12-31 18:13:43 1514762023.350223: $GPGSA,A,3,22,23,9,3,16,29,14,31,27,8,26,135,1.7,0.8,1.3*30
2017-12-31 18:13:44 1514762024.347036: $GPZDA,231345.00,31,12,2017,00,00*61
2017-12-31 18:13:44 1514762024.347273: $GPGGA,231345,3946.9564,N,08404.9866,W,2,12,0.80,307.48,M,-33.324,M,,*75
2017-12-31 18:13:44 1514762024.347343: $GPRMC,231345,A,3946.9564,N,08404.9866,W,0.0000,0.000,311217,,*35
2017-12-31 18:13:44 1514762024.347405: $GPGSA,A,3,22,23,9,3,16,29,14,31,27,8,26,135,1.7,0.8,1.3*30
2017-12-31 18:13:45 1514762025.719767: $GPGSV,3,1,12,22,21,213,36,23,55,306,45,09,21,312,43,03,31,234,42*74
2017-12-31 18:13:45 1514762025.719937: $GPGSV,3,2,12,16,82,187,43,29,05,030,12,14,14,133,33,31,28,076,45*78
2017-12-31 18:13:45 1514762025.720003: $GPGSV,3,3,12,27,23,153,30,08,01,180,00,26,61,049,48,135,22,240,44*49
2017-12-31 18:13:45 1514762025.833373: $GPZDA,231346.00,31,12,2017,00,00*62
2017-12-31 18:13:45 1514762025.833496: $GPGGA,231346,3946.9564,N,08404.9866,W,2,10,0.80,307.48,M,-33.324,M,,*74
2017-12-31 18:13:45 1514762025.833580: $GPRMC,231346,A,3946.9564,N,08404.9866,W,0.0000,0.000,311217,,*36
2017-12-31 18:13:45 1514762025.833713: $GPGSA,A,3,22,23,9,3,16,14,31,27,26,135,,,1.7,0.8,1.3*03
2017-12-31 18:13:46 1514762026.379399: $GPZDA,231347.00,31,12,2017,00,00*63
2017-12-31 18:13:46 1514762026.379548: $GPGGA,231347,3946.9564,N,08404.9866,W,2,10,0.80,307.48,M,-33.324,M,,*75
2017-12-31 18:13:46 1514762026.379637: $GPRMC,231347,A,3946.9564,N,08404.9866,W,0.0000,0.000,311217,,*37
2017-12-31 18:13:46 1514762026.379715: $GPGSA,A,3,22,23,9,3,16,14,31,27,26,135,,,1.7,0.8,1.3*03
2017-12-31 18:13:47 1514762027.348655: $GPZDA,231348.00,31,12,2017,00,00*6C
2017-12-31 18:13:47 1514762027.352123: $GPGGA,231348,3946.9564,N,08404.9866,W,2,10,0.80,307.48,M,-33.324,M,,*7A
2017-12-31 18:13:47 1514762027.352243: $GPRMC,231348,A,3946.9564,N,08404.9866,W,0.0000,0.000,311217,,*38
2017-12-31 18:13:47 1514762027.352322: $GPGSA,A,3,22,23,9,3,16,14,31,27,26,135,,,1.7,0.8,1.3*03
2017-12-31 18:13:48 1514762028.705623: $GPGSV,3,1,11,22,21,213,36,23,55,306,45,09,21,312,43,03,31,234,43*76
2017-12-31 18:13:48 1514762028.705806: $GPGSV,3,2,11,16,82,187,43,14,14,133,33,31,28,076,46,27,23,153,37*71
2017-12-31 18:13:48 1514762028.705874: $GPGSV,3,3,11,29,05,030,00,26,61,049,48,135,22,240,45*76
2017-12-31 18:13:48 1514762028.818968: $GPZDA,231349.00,31,12,2017,00,00*6D
2017-12-31 18:13:48 1514762028.819086: $GPGGA,231349,3946.9564,N,08404.9866,W,2,10,0.80,307.48,M,-33.324,M,,*7B
2017-12-31 18:13:48 1514762028.819151: $GPRMC,231349,A,3946.9564,N,08404.9866,W,0.0000,0.000,311217,,*39
2017-12-31 18:13:48 1514762028.819212: $GPGSA,A,3,22,23,9,3,16,14,31,27,26,135,,,1.7,0.8,1.3*03
