2017-11-15 18:50:29 1510789829.312552: {"class":"VERSION","release":"3.17","rev":"3.17","proto_major":3,"proto_minor":12}
2017-11-15 18:50:29 1510789829.313000: {"class":"DEVICES","devices":[{"class":"DEVICE","path":"/dev/ttyUSB0","driver":"SiRF","subtype":"9\u0006GSD4e_4.1.2-P1_RPATCH.05-F-GPS-4R-1510281 11/03/2015 307","activated":"2017-11-15T23:50:29.253Z","flags":1,"native":1,"bps":4800,"parity":"N","stopbits":1,"cycle":1.00}]}
2017-11-15 18:50:29 1510789829.313109: {"class":"WATCH","enable":true,"json":false,"nmea":true,"raw":0,"scaled":false,"timing":false,"split24":false,"pps":false}
2017-11-15 18:50:29 1510789829.366754: $GPZDA,235028.00,15,11,2017,00,00*68
2017-11-15 18:50:29 1510789829.366892: $GPGGA,235028,3946.9601,N,08404.9488,W,1,08,1.40,317.91,M,-33.324,M,,*75
2017-11-15 18:50:29 1510789829.366951: $GPRMC,235028,A,3946.9601,N,08404.9488,W,0.7246,344.668,151117,,*3C
2017-11-15 18:50:29 1510789829.367007: $GPGSA,A,3,14,3,32,31,26,16,1,22,,,,,3.4,1.4,2.9*3C
2017-11-15 18:50:30 1510789830.664830: $GPGSV,3,1,11,12,01,030,14,14,66,060,23,03,27,313,16,32,50,088,16*7E
2017-11-15 18:50:30 1510789830.665021: $GPGSV,3,2,11,31,79,322,29,26,33,177,14,16,05,190,05,29,03,087,04*70
2017-11-15 18:50:30 1510789830.665103: $GPGSV,3,3,11,01,15,267,15,22,44,295,15,25,31,049,00*49
2017-11-15 18:50:30 1510789830.778188: $GPZDA,235029.00,15,11,2017,00,00*69
2017-11-15 18:50:30 1510789830.778371: $GPGGA,235029,3946.9601,N,08404.9488,W,1,07,1.40,317.91,M,-33.324,M,,*7B
2017-11-15 18:50:30 1510789830.778435: $GPRMC,235029,A,3946.9601,N,08404.9488,W,0.7246,344.668,151117,,*3D
2017-11-15 18:50:30 1510789830.778491: $GPGSA,A,3,14,3,32,31,26,1,22,,,,,,3.4,1.4,2.9*3B
2017-11-15 18:50:31 1510789831.403540: $GPZDA,235030.00,15,11,2017,00,00*61
2017-11-15 18:50:31 1510789831.403707: $GPGGA,235030,3946.9604,N,08404.9481,W,1,07,1.40,317.22,M,-33.324,M,,*77
2017-11-15 18:50:31 1510789831.403769: $GPRMC,235030,A,3946.9604,N,08404.9481,W,0.8709,3.298,151117,,*33
2017-11-15 18:50:31 1510789831.403826: $GPGSA,A,3,14,3,32,31,26,1,22,,,,,,3.4,1.4,2.9*3B
2017-11-15 18:50:32 1510789832.332193: $GPZDA,235031.00,15,11,2017,00,00*60
2017-11-15 18:50:32 1510789832.332371: $GPGGA,235031,3946.9608,N,08404.9481,W,1,07,1.40,317.86,M,-33.324,M,,*74
2017-11-15 18:50:32 1510789832.332432: $GPRMC,235031,A,3946.9608,N,08404.9481,W,1.5738,12.547,151117,,*05
2017-11-15 18:50:32 1510789832.332489: $GPGSA,A,3,14,3,32,31,26,1,22,,,,,,3.4,1.4,2.9*3B
2017-11-15 18:50:33 1510789833.665201: $GPGSV,3,1,11,25,31,049,00,14,66,060,23,03,27,313,16,32,50,088,16*72
2017-11-15 18:50:33 1510789833.665392: $GPGSV,3,2,11,31,79,322,29,26,33,177,15,16,05,190,06,10,14,157,00*76
2017-11-15 18:50:33 1510789833.665452: $GPGSV,3,3,11,01,15,267,15,22,44,295,15,29,03,087,00*46
2017-11-15 18:50:33 1510789833.778877: $GPZDA,235032.00,15,11,2017,00,00*63
2017-11-15 18:50:33 1510789833.779036: $GPGGA,235032,3946.9612,N,08404.9473,W,1,08,1.40,317.18,M,-33.324,M,,*79
2017-11-15 18:50:33 1510789833.779097: $GPRMC,235032,A,3946.9612,N,08404.9473,W,1.5738,12.547,151117,,*00
2017-11-15 18:50:33 1510789833.779177: $GPGSA,A,3,14,3,32,31,26,16,1,22,,,,,3.4,1.4,2.9*3C
2017-11-15 18:50:34 1510789834.329429: $GPZDA,235033.00,15,11,2017,00,00*62
2017-11-15 18:50:34 1510789834.329597: $GPGGA,235033,3946.9612,N,08404.9473,W,1,08,1.40,317.18,M,-33.324,M,,*78
2017-11-15 18:50:34 1510789834.329659: $GPRMC,235033,A,3946.9612,N,08404.9473,W,1.5555,3.694,151117,,*35
2017-11-15 18:50:34 1510789834.329715: $GPGSA,A,3,14,3,32,31,26,16,1,22,,,,,3.4,1.4,2.9*3C
2017-11-15 18:50:35 1510789835.329292: $GPZDA,235034.00,15,11,2017,00,00*65
2017-11-15 18:50:35 1510789835.329455: $GPGGA,235034,3946.9619,N,08404.9472,W,1,08,1.40,317.06,M,-33.324,M,,*7A
2017-11-15 18:50:35 1510789835.329515: $GPRMC,235034,A,3946.9619,N,08404.9472,W,1.5746,354.845,151117,,*3B
2017-11-15 18:50:35 1510789835.329570: $GPGSA,A,3,14,3,32,31,26,16,1,22,,,,,3.4,1.4,2.9*3C
2017-11-15 18:50:36 1510789836.706887: $GPGSV,3,1,11,12,01,030,06,14,66,060,23,03,27,313,16,32,50,088,16*7D
2017-11-15 18:50:36 1510789836.707059: $GPGSV,3,2,11,31,79,322,29,26,33,177,14,16,05,190,09,25,31,049,00*77
2017-11-15 18:50:36 1510789836.707193: $GPGSV,3,3,11,01,15,267,15,22,44,295,13,10,14,157,00*40
2017-11-15 18:50:36 1510789836.820077: $GPZDA,235035.00,15,11,2017,00,00*64
2017-11-15 18:50:36 1510789836.820249: $GPGGA,235035,3946.9619,N,08404.9472,W,1,08,1.40,317.06,M,-33.324,M,,*7B
2017-11-15 18:50:36 1510789836.820312: $GPRMC,235035,A,3946.9619,N,08404.9472,W,1.3082,341.818,151117,,*3F
2017-11-15 18:50:36 1510789836.820369: $GPGSA,A,3,14,3,32,31,26,16,1,22,,,,,3.4,1.4,2.9*3C
2017-11-15 18:50:37 1510789837.329759: $GPZDA,235036.00,15,11,2017,00,00*67
2017-11-15 18:50:37 1510789837.329923: $GPGGA,235036,3946.9623,N,08404.9471,W,1,08,1.40,316.29,M,-33.324,M,,*7E
2017-11-15 18:50:37 1510789837.329985: $GPRMC,235036,A,3946.9623,N,08404.9471,W,1.0534,350.904,151117,,*31
2017-11-15 18:50:37 1510789837.330041: $GPGSA,A,3,14,3,32,31,26,16,1,22,,,,,3.4,1.4,2.9*3C
2017-11-15 18:50:38 1510789838.371904: $GPZDA,235037.00,15,11,2017,00,00*66
2017-11-15 18:50:38 1510789838.372072: $GPGGA,235037,3946.9623,N,08404.9471,W,1,08,1.40,316.29,M,-33.324,M,,*7F
2017-11-15 18:50:38 1510789838.372155: $GPRMC,235037,A,3946.9623,N,08404.9471,W,1.0269,4.197,151117,,*3F
2017-11-15 18:50:38 1510789838.372213: $GPGSA,A,3,14,3,32,31,26,16,1,22,,,,,3.4,1.4,2.9*3C
2017-11-15 18:50:39 1510789839.706421: $GPGSV,3,1,11,12,01,030,14,14,66,060,23,03,27,313,16,32,50,088,16*7E
2017-11-15 18:50:39 1510789839.706594: $GPGSV,3,2,11,31,79,322,29,26,33,177,14,16,05,190,10,25,31,049,00*7F
2017-11-15 18:50:39 1510789839.706654: $GPGSV,3,3,11,01,15,267,15,22,44,295,13,10,14,157,00*40
2017-11-15 18:50:39 1510789839.820192: $GPZDA,235038.00,15,11,2017,00,00*69
2017-11-15 18:50:39 1510789839.820422: $GPGGA,235038,3946.9622,N,08404.9464,W,1,08,1.40,316.37,M,-33.324,M,,*7A
2017-11-15 18:50:39 1510789839.820486: $GPRMC,235038,A,3946.9622,N,08404.9464,W,1.0269,4.197,151117,,*35
2017-11-15 18:50:39 1510789839.820543: $GPGSA,A,3,14,3,32,31,26,16,1,22,,,,,3.4,1.4,2.9*3C
2017-11-15 18:50:40 1510789840.329407: $GPZDA,235039.00,15,11,2017,00,00*68
2017-11-15 18:50:40 1510789840.329574: $GPGGA,235039,3946.9626,N,08404.9464,W,1,08,1.40,315.61,M,-33.324,M,,*7F
2017-11-15 18:50:40 1510789840.329634: $GPRMC,235039,A,3946.9626,N,08404.9464,W,0.8804,21.094,151117,,*0D
2017-11-15 18:50:40 1510789840.329690: $GPGSA,A,3,14,3,32,31,26,16,1,22,,,,,3.4,1.4,2.9*3C
2017-11-15 18:50:41 1510789841.366275: $GPZDA,235040.00,15,11,2017,00,00*66
2017-11-15 18:50:41 1510789841.366437: $GPGGA,235040,3946.9626,N,08404.9464,W,1,08,1.40,315.61,M,-33.324,M,,*71
2017-11-15 18:50:41 1510789841.366499: $GPRMC,235040,A,3946.9626,N,08404.9464,W,0.8804,21.094,151117,,*03
2017-11-15 18:50:41 1510789841.366554: $GPGSA,A,3,14,3,32,31,26,16,1,22,,,,,3.4,1.4,2.9*3C
2017-11-15 18:50:42 1510789842.708100: $GPGSV,3,1,11,12,01,030,10,14,66,060,23,03,27,313,15,32,50,088,16*79
2017-11-15 18:50:42 1510789842.708290: $GPGSV,3,2,11,31,79,322,29,26,33,177,14,16,05,190,10,25,31,049,00*7F
2017-11-15 18:50:42 1510789842.708350: $GPGSV,3,3,11,01,15,267,14,22,44,295,13,10,14,157,00*41
2017-11-15 18:50:42 1510789842.821712: $GPZDA,235041.00,15,11,2017,00,00*67
2017-11-15 18:50:42 1510789842.821870: $GPGGA,235041,3946.9626,N,08404.9464,W,1,08,1.40,315.61,M,-33.324,M,,*70
2017-11-15 18:50:42 1510789842.821929: $GPRMC,235041,A,3946.9626,N,08404.9464,W,0.6846,4.197,151117,,*3F
2017-11-15 18:50:42 1510789842.821985: $GPGSA,A,3,14,3,32,31,26,16,1,22,,,,,3.4,1.4,2.9*3C
2017-11-15 18:50:43 1510789843.372499: $GPZDA,235042.00,15,11,2017,00,00*64
2017-11-15 18:50:43 1510789843.372645: $GPGGA,235042,3946.9625,N,08404.9457,W,1,08,1.40,315.68,M,-33.324,M,,*79
2017-11-15 18:50:43 1510789843.372705: $GPRMC,235042,A,3946.9625,N,08404.9457,W,0.7070,48.986,151117,,*03
2017-11-15 18:50:43 1510789843.372761: $GPGSA,A,3,14,3,32,31,26,16,1,22,,,,,3.4,1.4,2.9*3C
2017-11-15 18:50:44 1510789844.370701: $GPZDA,235043.00,15,11,2017,00,00*65
2017-11-15 18:50:44 1510789844.371020: $GPGGA,235043,3946.9629,N,08404.9456,W,1,08,1.40,314.92,M,-33.324,M,,*71
2017-11-15 18:50:44 1510789844.371132: $GPRMC,235043,A,3946.9629,N,08404.9456,W,0.8953,59.978,151117,,*09
2017-11-15 18:50:44 1510789844.371273: $GPGSA,A,3,14,3,32,31,26,16,1,22,,,,,3.4,1.4,2.9*3C
2017-11-15 18:50:45 1510789845.707649: $GPGSV,3,1,11,29,03,087,08,14,66,060,24,03,27,313,15,32,50,088,16*71
2017-11-15 18:50:45 1510789845.707823: $GPGSV,3,2,11,31,79,322,29,26,33,177,12,16,05,190,10,25,31,049,00*79
2017-11-15 18:50:45 1510789845.707884: $GPGSV,3,3,11,01,15,267,14,22,44,295,13,10,14,157,00*41
2017-11-15 18:50:45 1510789845.820980: $GPZDA,235044.00,15,11,2017,00,00*62
2017-11-15 18:50:45 1510789845.821165: $GPGGA,235044,3946.9628,N,08404.9449,W,1,08,1.40,315.00,M,-33.324,M,,*73
2017-11-15 18:50:45 1510789845.821244: $GPRMC,235044,A,3946.9628,N,08404.9449,W,0.8953,59.978,151117,,*01
2017-11-15 18:50:45 1510789845.821301: $GPGSA,A,3,14,3,32,31,26,16,1,22,,,,,3.4,1.4,2.9*3C
2017-11-15 18:50:46 1510789846.446375: $GPZDA,235045.00,15,11,2017,00,00*63
2017-11-15 18:50:46 1510789846.447956: $GPGGA,235045,3946.9628,N,08404.9449,W,1,08,1.40,315.00,M,-33.324,M,,*72
2017-11-15 18:50:46 1510789846.448069: $GPRMC,235045,A,3946.9628,N,08404.9449,W,0.8953,59.978,151117,,*00
2017-11-15 18:50:46 1510789846.448129: $GPGSA,A,3,14,3,32,31,26,16,1,22,,,,,3.4,1.4,2.9*3C
2017-11-15 18:50:47 1510789847.372233: $GPZDA,235046.00,15,11,2017,00,00*60
2017-11-15 18:50:47 1510789847.372421: $GPGGA,235046,3946.9628,N,08404.9449,W,1,08,1.40,315.00,M,-33.324,M,,*71
2017-11-15 18:50:47 1510789847.372486: $GPRMC,235046,A,3946.9628,N,08404.9449,W,0.9801,34.742,151117,,*08
2017-11-15 18:50:47 1510789847.372542: $GPGSA,A,3,14,3,32,31,26,16,1,22,,,,,3.4,1.4,2.9*3C
2017-11-15 18:50:48 1510789848.665574: $GPGSV,3,1,11,29,03,087,06,14,66,060,24,03,27,313,15,32,50,088,16*7F
2017-11-15 18:50:48 1510789848.665749: $GPGSV,3,2,11,31,79,322,29,26,33,177,12,16,05,190,10,12,01,030,14*75
2017-11-15 18:50:48 1510789848.665810: $GPGSV,3,3,11,01,15,267,15,22,44,295,13,25,31,049,00*4F
2017-11-15 18:50:48 1510789848.779002: $GPZDA,235047.00,15,11,2017,00,00*61
2017-11-15 18:50:48 1510789848.779162: $GPGGA,235047,3946.9631,N,08404.9441,W,1,08,1.40,314.31,M,-33.324,M,,*73
2017-11-15 18:50:48 1510789848.779225: $GPRMC,235047,A,3946.9631,N,08404.9441,W,1.4555,23.636,151117,,*0D
2017-11-15 18:50:48 1510789848.779281: $GPGSA,A,3,14,3,32,31,26,16,1,22,,,,,3.4,1.4,2.9*3C
2017-11-15 18:50:49 1510789849.373802: $GPZDA,235048.00,15,11,2017,00,00*6E
2017-11-15 18:50:49 1510789849.373963: $GPGGA,235048,3946.9631,N,08404.9441,W,1,08,1.40,314.31,M,-33.324,M,,*7C
2017-11-15 18:50:49 1510789849.374024: $GPRMC,235048,A,3946.9631,N,08404.9441,W,1.5738,12.547,151117,,*0D
2017-11-15 18:50:49 1510789849.374080: $GPGSA,A,3,14,3,32,31,26,16,1,22,,,,,3.4,1.4,2.9*3C
2017-11-15 18:50:50 1510789850.329661: $GPZDA,235049.00,15,11,2017,00,00*6F
2017-11-15 18:50:50 1510789850.329822: $GPGGA,235049,3946.9639,N,08404.9441,W,1,08,1.40,314.19,M,-33.324,M,,*7F
2017-11-15 18:50:50 1510789850.329883: $GPRMC,235049,A,3946.9639,N,08404.9441,W,1.6283,21.001,151117,,*05
2017-11-15 18:50:50 1510789850.329939: $GPGSA,A,3,14,3,32,31,26,16,1,22,,,,,3.4,1.4,2.9*3C
2017-11-15 18:50:51 1510789851.708454: $GPGSV,3,1,11,29,03,087,10,14,66,060,24,03,27,313,15,32,50,088,16*78
2017-11-15 18:50:51 1510789851.708594: $GPGSV,3,2,11,31,79,322,29,26,33,177,12,16,05,190,11,12,01,030,13*73
2017-11-15 18:50:51 1510789851.708652: $GPGSV,3,3,11,01,15,267,15,22,44,295,14,25,31,049,00*48
2017-11-15 18:50:51 1510789851.822056: $GPZDA,235050.00,15,11,2017,00,00*67
2017-11-15 18:50:51 1510789851.822219: $GPGGA,235050,3946.9639,N,08404.9441,W,1,10,1.40,314.19,M,-33.324,M,,*7E
2017-11-15 18:50:51 1510789851.822280: $GPRMC,235050,A,3946.9639,N,08404.9441,W,1.5555,3.694,151117,,*38
2017-11-15 18:50:51 1510789851.822336: $GPGSA,A,3,29,14,3,32,31,26,16,12,1,22,,,3.4,1.4,2.9*34
2017-11-15 18:50:52 1510789852.366642: $GPZDA,235051.00,15,11,2017,00,00*66
2017-11-15 18:50:52 1510789852.366864: $GPGGA,235051,3946.9643,N,08404.9440,W,1,10,1.40,313.43,M,-33.324,M,,*7B
2017-11-15 18:50:52 1510789852.366929: $GPRMC,235051,A,3946.9643,N,08404.9440,W,1.9131,11.058,151117,,*0A
2017-11-15 18:50:52 1510789852.367036: $GPGSA,A,3,29,14,3,32,31,26,16,12,1,22,,,3.4,1.4,2.9*34
2017-11-15 18:50:53 1510789853.330052: $GPZDA,235052.00,15,11,2017,00,00*65
2017-11-15 18:50:53 1510789853.330216: $GPGGA,235052,3946.9647,N,08404.9440,W,1,10,1.40,314.07,M,-33.324,M,,*7B
2017-11-15 18:50:53 1510789853.330278: $GPRMC,235052,A,3946.9647,N,08404.9440,W,2.2533,10.018,151117,,*06
2017-11-15 18:50:53 1510789853.330334: $GPGSA,A,3,29,14,3,32,31,26,16,12,1,22,,,3.4,1.4,2.9*34
2017-11-15 18:50:54 1510789854.665550: $GPGSV,3,1,11,29,03,087,09,14,66,060,24,03,27,313,15,32,50,088,16*70
2017-11-15 18:50:54 1510789854.665720: $GPGSV,3,2,11,31,79,322,29,26,33,177,11,16,05,190,11,25,31,049,00*7B
2017-11-15 18:50:54 1510789854.665780: $GPGSV,3,3,11,01,15,267,15,22,44,295,14,10,14,157,00*47
2017-11-15 18:50:54 1510789854.779156: $GPZDA,235053.00,15,11,2017,00,00*64
2017-11-15 18:50:54 1510789854.779320: $GPGGA,235053,3946.9654,N,08404.9439,W,1,09,1.40,313.94,M,-33.324,M,,*73
2017-11-15 18:50:54 1510789854.779380: $GPRMC,235053,A,3946.9654,N,08404.9439,W,2.2533,10.018,151117,,*0B
2017-11-15 18:50:54 1510789854.779436: $GPGSA,A,3,29,14,3,32,31,26,16,1,22,,,,3.4,1.4,2.9*37
2017-11-15 18:50:55 1510789855.331079: $GPZDA,235054.00,15,11,2017,00,00*63
2017-11-15 18:50:55 1510789855.331247: $GPGGA,235054,3946.9654,N,08404.9439,W,1,09,1.40,313.94,M,-33.324,M,,*74
2017-11-15 18:50:55 1510789855.331308: $GPRMC,235054,A,3946.9654,N,08404.9439,W,1.9131,11.058,151117,,*07
2017-11-15 18:50:55 1510789855.331364: $GPGSA,A,3,29,14,3,32,31,26,16,1,22,,,,3.4,1.4,2.9*37
2017-11-15 18:50:56 1510789856.331879: $GPZDA,235055.00,15,11,2017,00,00*62
2017-11-15 18:50:56 1510789856.332048: $GPGGA,235055,3946.9657,N,08404.9432,W,1,09,1.40,313.26,M,-33.324,M,,*74
2017-11-15 18:50:56 1510789856.332108: $GPRMC,235055,A,3946.9657,N,08404.9432,W,1.2361,14.852,151117,,*05
2017-11-15 18:50:56 1510789856.332164: $GPGSA,A,3,29,14,3,32,31,26,16,1,22,,,,3.4,1.4,2.9*37
2017-11-15 18:50:57 1510789857.702113: $GPGSV,3,1,11,29,03,087,09,14,66,060,24,03,27,313,14,32,50,088,15*72
2017-11-15 18:50:57 1510789857.702289: $GPGSV,3,2,11,31,79,322,29,26,33,177,12,16,05,190,10,25,31,049,00*79
2017-11-15 18:50:57 1510789857.702350: $GPGSV,3,3,11,01,15,267,15,22,44,295,14,10,14,157,00*47
2017-11-15 18:50:57 1510789857.815393: $GPZDA,235056.00,15,11,2017,00,00*61
2017-11-15 18:50:57 1510789857.815557: $GPGGA,235056,3946.9657,N,08404.9432,W,1,09,1.40,313.26,M,-33.324,M,,*77
2017-11-15 18:50:57 1510789857.815618: $GPRMC,235056,A,3946.9657,N,08404.9432,W,0.6846,4.197,151117,,*3C
2017-11-15 18:50:57 1510789857.815673: $GPGSA,A,3,29,14,3,32,31,26,16,1,22,,,,3.4,1.4,2.9*37
2017-11-15 18:50:58 1510789858.330038: $GPZDA,235057.00,15,11,2017,00,00*60
2017-11-15 18:50:58 1510789858.330210: $GPGGA,235057,3946.9657,N,08404.9432,W,1,09,1.40,313.26,M,-33.324,M,,*76
2017-11-15 18:50:58 1510789858.330271: $GPRMC,235057,A,3946.9657,N,08404.9432,W,0.5287,2.716,151117,,*30
2017-11-15 18:50:58 1510789858.330327: $GPGSA,A,3,29,14,3,32,31,26,16,1,22,,,,3.4,1.4,2.9*37
