2018-01-11 21:00:10 1515722410.624642: {"class":"VERSION","release":"3.16","rev":"3.16-4","proto_major":3,"proto_minor":11}
2018-01-11 21:00:10 1515722410.624988: {"class":"DEVICES","devices":[{"class":"DEVICE","path":"/dev/ttyUSB0","driver":"SiRF","subtype":"9\u0006GSD4e_4.1.2-P1_RPATCH.05-F-GPS-4R-1510281 11/03/2015 307","activated":"2018-01-12T02:00:10.469Z","flags":1,"native":1,"bps":4800,"parity":"N","stopbits":1,"cycle":1.00}]}
2018-01-11 21:00:10 1515722410.625101: {"class":"WATCH","enable":true,"json":false,"nmea":true,"raw":0,"scaled":false,"timing":false,"split24":false,"pps":false}
2018-01-11 21:00:11 1515722411.335147: $GPZDA,020012.00,12,01,2018,00,00*6E
2018-01-11 21:00:11 1515722411.335312: $GPGGA,020012,3946.9587,N,08404.9863,W,2,12,0.80,292.86,M,-33.324,M,,*71
2018-01-11 21:00:11 1515722411.335378: $GPRMC,020012,A,3946.9587,N,08404.9863,W,0.0000,0.000,120118,,*32
2018-01-11 21:00:11 1515722411.335440: $GPGSA,A,3,1,7,8,9,11,27,30,16,23,28,13,138,4.0,0.8,3.5*0D
2018-01-11 21:00:12 1515722412.665791: $GPGSV,3,1,12,01,16,153,43,07,78,310,44,08,66,057,48,09,29,211,42*74
2018-01-11 21:00:12 1515722412.665971: $GPGSV,3,2,12,11,40,157,45,27,27,045,50,30,49,310,41,16,07,075,18*7B
2018-01-11 21:00:12 1515722412.666037: $GPGSV,3,3,12,23,08,183,32,28,29,276,33,13,01,330,16,138,38,213,45*4E
2018-01-11 21:00:12 1515722412.779176: $GPZDA,020013.00,12,01,2018,00,00*6F
2018-01-11 21:00:12 1515722412.779309: $GPGGA,020013,3946.9587,N,08404.9863,W,2,12,0.80,292.86,M,-33.324,M,,*70
2018-01-11 21:00:12 1515722412.779374: $GPRMC,020013,A,3946.9587,N,08404.9863,W,0.0000,0.000,120118,,*33
2018-01-11 21:00:12 1515722412.779434: $GPGSA,A,3,1,7,8,9,11,27,30,16,23,28,13,138,4.0,0.8,3.5*0D
2018-01-11 21:00:13 1515722413.404525: $GPZDA,020014.00,12,01,2018,00,00*68
2018-01-11 21:00:13 1515722413.404684: $GPGGA,020014,3946.9587,N,08404.9863,W,2,12,0.80,292.86,M,-33.324,M,,*77
2018-01-11 21:00:13 1515722413.404750: $GPRMC,020014,A,3946.9587,N,08404.9863,W,0.0000,0.000,120118,,*34
2018-01-11 21:00:13 1515722413.404810: $GPGSA,A,3,1,7,8,9,11,27,30,16,23,28,13,138,4.0,0.8,3.5*0D
2018-01-11 21:00:14 1515722414.329303: $GPZDA,020015.00,12,01,2018,00,00*69
2018-01-11 21:00:14 1515722414.329456: $GPGGA,020015,3946.9587,N,08404.9863,W,2,12,0.80,292.86,M,-33.324,M,,*76
2018-01-11 21:00:14 1515722414.329521: $GPRMC,020015,A,3946.9587,N,08404.9863,W,0.0000,0.000,120118,,*35
2018-01-11 21:00:14 1515722414.329581: $GPGSA,A,3,1,7,8,9,11,27,30,16,23,28,13,138,4.0,0.8,3.5*0D
2018-01-11 21:00:15 1515722415.671161: $GPGSV,3,1,12,01,16,153,43,07,78,310,44,08,66,057,48,09,29,211,42*74
2018-01-11 21:00:15 1515722415.671341: $GPGSV,3,2,12,11,40,157,45,27,27,045,50,30,49,310,41,16,07,075,17*74
2018-01-11 21:00:15 1515722415.671405: $GPGSV,3,3,12,23,08,183,32,28,29,276,34,13,01,330,15,138,38,213,45*4A
2018-01-11 21:00:15 1515722415.784768: $GPZDA,020016.00,12,01,2018,00,00*6A
2018-01-11 21:00:15 1515722415.784891: $GPGGA,020016,3946.9587,N,08404.9863,W,2,12,0.80,292.86,M,-33.324,M,,*75
2018-01-11 21:00:15 1515722415.784954: $GPRMC,020016,A,3946.9587,N,08404.9863,W,0.0000,0.000,120118,,*36
2018-01-11 21:00:15 1515722415.785014: $GPGSA,A,3,1,7,8,9,11,27,30,16,23,28,13,138,4.0,0.8,3.5*0D
2018-01-11 21:00:16 1515722416.335656: $GPZDA,020017.00,12,01,2018,00,00*6B
2018-01-11 21:00:16 1515722416.335802: $GPGGA,020017,3946.9587,N,08404.9863,W,2,12,0.80,292.86,M,-33.324,M,,*74
2018-01-11 21:00:16 1515722416.335867: $GPRMC,020017,A,3946.9587,N,08404.9863,W,0.0000,0.000,120118,,*37
2018-01-11 21:00:16 1515722416.335927: $GPGSA,A,3,1,7,8,9,11,27,30,16,23,28,13,138,4.0,0.8,3.5*0D
2018-01-11 21:00:17 1515722417.336557: $GPZDA,020018.00,12,01,2018,00,00*64
2018-01-11 21:00:17 1515722417.336720: $GPGGA,020018,3946.9587,N,08404.9863,W,2,12,0.80,292.86,M,-33.324,M,,*7B
2018-01-11 21:00:17 1515722417.336786: $GPRMC,020018,A,3946.9587,N,08404.9863,W,0.0000,0.000,120118,,*38
2018-01-11 21:00:17 1515722417.336847: $GPGSA,A,3,1,7,8,9,11,27,30,16,23,28,13,138,4.0,0.8,3.5*0D
