2017-12-01 12:23:39 1512149019.297412: {"class":"VERSION","release":"3.16","rev":"3.16-4","proto_major":3,"proto_minor":11}
2017-12-01 12:23:39 1512149019.297785: {"class":"DEVICES","devices":[{"class":"DEVICE","path":"/dev/ttyUSB0","driver":"SiRF","subtype":"9\u0006GSD4e_4.1.2-P1_RPATCH.05-F-GPS-4R-1510281 11/03/2015 307","activated":"2017-12-01T17:23:39.217Z","flags":1,"native":1,"bps":4800,"parity":"N","stopbits":1,"cycle":1.00}]}
2017-12-01 12:23:39 1512149019.297897: {"class":"WATCH","enable":true,"json":false,"nmea":true,"raw":0,"scaled":false,"timing":false,"split24":false,"pps":false}
2017-12-01 12:23:39 1512149019.341548: $GPZDA,172340.00,01,12,2017,00,00*63
2017-12-01 12:23:39 1512149019.341706: $GPGGA,172340,3946.9564,N,08404.9848,W,2,11,0.80,301.26,M,-33.324,M,,*75
2017-12-01 12:23:39 1512149019.341775: $GPRMC,172340,A,3946.9564,N,08404.9848,W,0.0000,0.000,011217,,*3B
2017-12-01 12:23:39 1512149019.341836: $GPGSA,A,3,10,13,15,18,20,21,24,27,32,29,138,,2.0,0.8,1.5*00
2017-12-01 12:23:40 1512149020.664653: $GPGSV,3,1,12,10,25,285,39,13,26,045,45,15,58,051,47,18,56,303,45*78
2017-12-01 12:23:40 1512149020.664837: $GPGSV,3,2,12,20,49,075,45,21,79,252,42,24,36,136,47,27,17,310,38*77
2017-12-01 12:23:40 1512149020.664903: $GPGSV,3,3,12,32,03,226,24,29,07,189,28,05,02,090,00,138,38,213,45*40
2017-12-01 12:23:40 1512149020.778310: $GPZDA,172341.00,01,12,2017,00,00*62
2017-12-01 12:23:40 1512149020.778476: $GPGGA,172341,3946.9564,N,08404.9848,W,2,11,0.80,301.26,M,-33.324,M,,*74
2017-12-01 12:23:40 1512149020.778543: $GPRMC,172341,A,3946.9564,N,08404.9848,W,0.0000,0.000,011217,,*3A
2017-12-01 12:23:40 1512149020.778603: $GPGSA,A,3,10,13,15,18,20,21,24,27,32,29,138,,2.0,0.8,1.5*00
2017-12-01 12:23:41 1512149021.331322: $GPZDA,172342.00,01,12,2017,00,00*61
2017-12-01 12:23:41 1512149021.331547: $GPGGA,172342,3946.9564,N,08404.9848,W,2,11,0.80,301.26,M,-33.324,M,,*77
2017-12-01 12:23:41 1512149021.331615: $GPRMC,172342,A,3946.9564,N,08404.9848,W,0.0000,0.000,011217,,*39
2017-12-01 12:23:41 1512149021.331676: $GPGSA,A,3,10,13,15,18,20,21,24,27,32,29,138,,2.0,0.8,1.5*00
2017-12-01 12:23:42 1512149022.327232: $GPZDA,172343.00,01,12,2017,00,00*60
2017-12-01 12:23:42 1512149022.327417: $GPGGA,172343,3946.9564,N,08404.9848,W,2,11,0.80,301.26,M,-33.324,M,,*76
2017-12-01 12:23:42 1512149022.327486: $GPRMC,172343,A,3946.9564,N,08404.9848,W,0.0000,0.000,011217,,*38
2017-12-01 12:23:42 1512149022.327549: $GPGSA,A,3,10,13,15,18,20,21,24,27,32,29,138,,2.0,0.8,1.5*00
2017-12-01 12:23:43 1512149023.666185: $GPGSV,3,1,12,10,25,285,40,13,26,045,45,15,58,051,47,18,56,303,46*75
2017-12-01 12:23:43 1512149023.666384: $GPGSV,3,2,12,20,49,075,44,21,79,252,42,24,36,136,47,27,17,310,38*76
2017-12-01 12:23:43 1512149023.666452: $GPGSV,3,3,12,32,03,226,23,29,07,189,28,05,02,090,20,138,38,213,46*46
2017-12-01 12:23:43 1512149023.779545: $GPZDA,172344.00,01,12,2017,00,00*67
2017-12-01 12:23:43 1512149023.779725: $GPGGA,172344,3946.9564,N,08404.9848,W,2,12,0.80,301.26,M,-33.324,M,,*72
2017-12-01 12:23:43 1512149023.779793: $GPRMC,172344,A,3946.9564,N,08404.9848,W,0.0000,0.000,011217,,*3F
2017-12-01 12:23:43 1512149023.779857: $GPGSA,A,3,10,13,15,18,20,21,24,27,32,29,5,138,2.0,0.8,1.5*35
2017-12-01 12:23:44 1512149024.329188: $GPZDA,172345.00,01,12,2017,00,00*66
2017-12-01 12:23:44 1512149024.329365: $GPGGA,172345,3946.9564,N,08404.9848,W,2,12,0.80,301.26,M,-33.324,M,,*73
2017-12-01 12:23:44 1512149024.329434: $GPRMC,172345,A,3946.9564,N,08404.9848,W,0.0000,0.000,011217,,*3E
2017-12-01 12:23:44 1512149024.329497: $GPGSA,A,3,10,13,15,18,20,21,24,27,32,29,5,138,2.0,0.8,1.5*35
2017-12-01 12:23:45 1512149025.327557: $GPZDA,172346.00,01,12,2017,00,00*65
2017-12-01 12:23:45 1512149025.327742: $GPGGA,172346,3946.9564,N,08404.9848,W,2,12,0.80,301.26,M,-33.324,M,,*70
2017-12-01 12:23:45 1512149025.327811: $GPRMC,172346,A,3946.9564,N,08404.9848,W,0.0000,0.000,011217,,*3D
2017-12-01 12:23:45 1512149025.327877: $GPGSA,A,3,10,13,15,18,20,21,24,27,32,29,5,138,2.0,0.8,1.5*35
2017-12-01 12:23:46 1512149026.680790: $GPGSV,3,1,12,10,25,285,40,13,26,045,44,15,58,051,47,18,56,303,46*74
2017-12-01 12:23:46 1512149026.681024: $GPGSV,3,2,12,20,49,075,44,21,79,252,42,24,36,136,47,27,17,310,38*76
2017-12-01 12:23:46 1512149026.681094: $GPGSV,3,3,12,32,03,226,23,29,07,189,28,05,02,090,20,138,38,213,46*46
2017-12-01 12:23:46 1512149026.794653: $GPZDA,172347.00,01,12,2017,00,00*64
2017-12-01 12:23:46 1512149026.794845: $GPGGA,172347,3946.9564,N,08404.9848,W,2,12,0.80,301.26,M,-33.324,M,,*71
2017-12-01 12:23:46 1512149026.794917: $GPRMC,172347,A,3946.9564,N,08404.9848,W,0.0000,0.000,011217,,*3C
2017-12-01 12:23:46 1512149026.794982: $GPGSA,A,3,10,13,15,18,20,21,24,27,32,29,5,138,2.0,0.8,1.5*35
2017-12-01 12:23:47 1512149027.329103: $GPZDA,172348.00,01,12,2017,00,00*6B
2017-12-01 12:23:47 1512149027.329271: $GPGGA,172348,3946.9564,N,08404.9848,W,2,12,0.80,301.26,M,-33.324,M,,*7E
2017-12-01 12:23:47 1512149027.329338: $GPRMC,172348,A,3946.9564,N,08404.9848,W,0.0000,0.000,011217,,*33
2017-12-01 12:23:47 1512149027.329400: $GPGSA,A,3,10,13,15,18,20,21,24,27,32,29,5,138,2.0,0.8,1.5*35
2017-12-01 12:23:48 1512149028.342865: $GPZDA,172349.00,01,12,2017,00,00*6A
2017-12-01 12:23:48 1512149028.343054: $GPGGA,172349,3946.9564,N,08404.9848,W,2,12,0.80,301.26,M,-33.324,M,,*7F
2017-12-01 12:23:48 1512149028.343123: $GPRMC,172349,A,3946.9564,N,08404.9848,W,0.0000,0.000,011217,,*32
2017-12-01 12:23:48 1512149028.343184: $GPGSA,A,3,10,13,15,18,20,21,24,27,32,29,5,138,2.0,0.8,1.5*35
