2018-01-11 20:19:58 1515719998.067710: {"class":"VERSION","release":"3.16","rev":"3.16-4","proto_major":3,"proto_minor":11}
2018-01-11 20:19:58 1515719998.068118: {"class":"DEVICES","devices":[{"class":"DEVICE","path":"/dev/ttyUSB0","driver":"SiRF","subtype":"9\u0006GSD4e_4.1.2-P1_RPATCH.05-F-GPS-4R-1510281 11/03/2015 307","activated":"2018-01-12T01:19:57.687Z","flags":1,"native":1,"bps":4800,"parity":"N","stopbits":1,"cycle":1.00}]}
2018-01-11 20:19:58 1515719998.068369: {"class":"WATCH","enable":true,"json":false,"nmea":true,"raw":0,"scaled":false,"timing":false,"split24":false,"pps":false}
2018-01-11 20:19:58 1515719998.372583: $GPZDA,011959.00,12,01,2018,00,00*6A
2018-01-11 20:19:58 1515719998.372779: $GPGGA,011959,3946.9594,N,08404.9852,W,2,11,0.80,300.68,M,-33.324,M,,*7C
2018-01-11 20:19:58 1515719998.372846: $GPRMC,011959,A,3946.9594,N,08404.9852,W,0.0000,0.000,120118,,*36
2018-01-11 20:19:58 1515719998.372924: $GPGSA,A,3,7,8,9,11,16,23,27,28,30,1,138,,4.0,0.8,3.5*0F
2018-01-11 20:19:59 1515719999.706801: $GPGSV,3,1,11,07,59,315,42,08,75,115,45,09,45,225,44,11,23,166,46*70
2018-01-11 20:19:59 1515719999.706970: $GPGSV,3,2,11,16,20,063,40,23,25,189,49,27,44,051,50,28,17,261,38*71
2018-01-11 20:19:59 1515719999.707037: $GPGSV,3,3,11,30,32,307,26,01,02,162,18,138,38,213,45*74
2018-01-11 20:19:59 1515719999.820499: $GPZDA,012000.00,12,01,2018,00,00*6C
2018-01-11 20:19:59 1515719999.820633: $GPGGA,012000,3946.9594,N,08404.9852,W,2,11,0.80,300.68,M,-33.324,M,,*7A
2018-01-11 20:19:59 1515719999.820698: $GPRMC,012000,A,3946.9594,N,08404.9852,W,0.0000,0.000,120118,,*30
2018-01-11 20:19:59 1515719999.820778: $GPGSA,A,3,7,8,9,11,16,23,27,28,30,1,138,,4.0,0.8,3.5*0F
2018-01-11 20:20:00 1515720000.371324: $GPZDA,012001.00,12,01,2018,00,00*6D
2018-01-11 20:20:00 1515720000.371504: $GPGGA,012001,3946.9594,N,08404.9852,W,2,11,0.80,300.68,M,-33.324,M,,*7B
2018-01-11 20:20:00 1515720000.371571: $GPRMC,012001,A,3946.9594,N,08404.9852,W,0.0000,0.000,120118,,*31
2018-01-11 20:20:00 1515720000.371632: $GPGSA,A,3,7,8,9,11,16,23,27,28,30,1,138,,4.0,0.8,3.5*0F
2018-01-11 20:20:01 1515720001.372177: $GPZDA,012002.00,12,01,2018,00,00*6E
2018-01-11 20:20:01 1515720001.372339: $GPGGA,012002,3946.9594,N,08404.9852,W,2,11,0.80,300.68,M,-33.324,M,,*78
2018-01-11 20:20:01 1515720001.372405: $GPRMC,012002,A,3946.9594,N,08404.9852,W,0.0000,0.000,120118,,*32
2018-01-11 20:20:01 1515720001.372466: $GPGSA,A,3,7,8,9,11,16,23,27,28,30,1,138,,4.0,0.8,3.5*0F
2018-01-11 20:20:02 1515720002.707650: $GPGSV,3,1,11,07,59,315,42,08,75,115,45,09,45,225,44,11,23,166,46*70
2018-01-11 20:20:02 1515720002.707873: $GPGSV,3,2,11,16,20,063,40,23,25,189,48,27,44,051,50,28,17,261,38*70
2018-01-11 20:20:02 1515720002.707943: $GPGSV,3,3,11,30,32,307,29,01,02,162,18,138,38,213,45*7B
2018-01-11 20:20:02 1515720002.821268: $GPZDA,012003.00,12,01,2018,00,00*6F
2018-01-11 20:20:02 1515720002.821417: $GPGGA,012003,3946.9594,N,08404.9852,W,2,11,0.80,300.68,M,-33.324,M,,*79
2018-01-11 20:20:02 1515720002.821483: $GPRMC,012003,A,3946.9594,N,08404.9852,W,0.0000,0.000,120118,,*33
2018-01-11 20:20:02 1515720002.821543: $GPGSA,A,3,7,8,9,11,16,23,27,28,30,1,138,,4.0,0.8,3.5*0F
2018-01-11 20:20:03 1515720003.446645: $GPZDA,012004.00,12,01,2018,00,00*68
2018-01-11 20:20:03 1515720003.446856: $GPGGA,012004,3946.9591,N,08404.9853,W,2,11,0.80,301.45,M,-33.324,M,,*74
2018-01-11 20:20:03 1515720003.446926: $GPRMC,012004,A,3946.9591,N,08404.9853,W,0.0000,0.000,120118,,*30
2018-01-11 20:20:03 1515720003.446988: $GPGSA,A,3,7,8,9,11,16,23,27,28,30,1,138,,4.0,0.8,3.5*0F
2018-01-11 20:20:04 1515720004.371320: $GPZDA,012005.00,12,01,2018,00,00*69
2018-01-11 20:20:04 1515720004.371479: $GPGGA,012005,3946.9591,N,08404.9853,W,2,11,0.80,301.45,M,-33.324,M,,*75
2018-01-11 20:20:04 1515720004.371543: $GPRMC,012005,A,3946.9591,N,08404.9853,W,0.0000,0.000,120118,,*31
2018-01-11 20:20:04 1515720004.371604: $GPGSA,A,3,7,8,9,11,16,23,27,28,30,1,138,,4.0,0.8,3.5*0F
2018-01-11 20:20:05 1515720005.708002: $GPGSV,3,1,11,07,59,315,42,08,75,115,45,09,45,225,43,11,23,166,46*77
2018-01-11 20:20:05 1515720005.708166: $GPGSV,3,2,11,16,20,063,40,23,25,189,48,27,44,051,50,28,17,261,38*70
2018-01-11 20:20:05 1515720005.708279: $GPGSV,3,3,11,30,32,307,30,01,02,162,19,138,38,213,44*73
2018-01-11 20:20:05 1515720005.821627: $GPZDA,012006.00,12,01,2018,00,00*6A
2018-01-11 20:20:05 1515720005.821779: $GPGGA,012006,3946.9591,N,08404.9853,W,2,11,0.80,301.45,M,-33.324,M,,*76
2018-01-11 20:20:05 1515720005.821861: $GPRMC,012006,A,3946.9591,N,08404.9853,W,0.0000,0.000,120118,,*32
2018-01-11 20:20:05 1515720005.821924: $GPGSA,A,3,7,8,9,11,16,23,27,28,30,1,138,,4.0,0.8,3.5*0F
2018-01-11 20:20:06 1515720006.372524: $GPZDA,012007.00,12,01,2018,00,00*6B
2018-01-11 20:20:06 1515720006.372731: $GPGGA,012007,3946.9595,N,08404.9853,W,2,11,0.80,302.09,M,-33.324,M,,*78
2018-01-11 20:20:06 1515720006.372801: $GPRMC,012007,A,3946.9595,N,08404.9853,W,0.0000,0.000,120118,,*37
2018-01-11 20:20:06 1515720006.372883: $GPGSA,A,3,7,8,9,11,16,23,27,28,30,1,138,,4.0,0.8,3.5*0F
2018-01-11 20:20:07 1515720007.369657: $GPZDA,012008.00,12,01,2018,00,00*64
2018-01-11 20:20:07 1515720007.369865: $GPGGA,012008,3946.9595,N,08404.9853,W,2,11,0.80,302.09,M,-33.324,M,,*77
2018-01-11 20:20:07 1515720007.369937: $GPRMC,012008,A,3946.9595,N,08404.9853,W,0.0000,0.000,120118,,*38
2018-01-11 20:20:07 1515720007.370001: $GPGSA,A,3,7,8,9,11,16,23,27,28,30,1,138,,4.0,0.8,3.5*0F
2018-01-11 20:20:08 1515720008.707094: $GPGSV,3,1,11,07,59,315,42,08,75,115,45,09,45,225,43,11,23,166,46*77
2018-01-11 20:20:08 1515720008.707278: $GPGSV,3,2,11,16,20,063,40,23,25,189,48,27,44,051,49,28,17,261,39*79
2018-01-11 20:20:08 1515720008.707348: $GPGSV,3,3,11,30,32,307,31,01,02,162,20,138,38,213,45*79
2018-01-11 20:20:08 1515720008.820743: $GPZDA,012009.00,12,01,2018,00,00*65
2018-01-11 20:20:08 1515720008.820900: $GPGGA,012009,3946.9595,N,08404.9853,W,2,11,0.80,302.09,M,-33.324,M,,*76
2018-01-11 20:20:08 1515720008.820969: $GPRMC,012009,A,3946.9595,N,08404.9853,W,0.0000,0.000,120118,,*39
2018-01-11 20:20:08 1515720008.821033: $GPGSA,A,3,7,8,9,11,16,23,27,28,30,1,138,,4.0,0.8,3.5*0F
2018-01-11 20:20:09 1515720009.371612: $GPZDA,012010.00,12,01,2018,00,00*6D
2018-01-11 20:20:09 1515720009.371832: $GPGGA,012010,3946.9595,N,08404.9853,W,2,11,0.80,302.09,M,-33.324,M,,*7E
2018-01-11 20:20:09 1515720009.371902: $GPRMC,012010,A,3946.9595,N,08404.9853,W,0.0000,0.000,120118,,*31
2018-01-11 20:20:09 1515720009.371967: $GPGSA,A,3,7,8,9,11,16,23,27,28,30,1,138,,4.0,0.8,3.5*0F
