2017-11-16 15:35:41 1510864541.416466: {"class":"VERSION","release":"3.17","rev":"3.17","proto_major":3,"proto_minor":12}
2017-11-16 15:35:41 1510864541.416887: {"class":"DEVICES","devices":[{"class":"DEVICE","path":"/dev/ttyUSB0","driver":"SiRF","subtype":"9\u0006GSD4e_4.1.2-P1_RPATCH.05-F-GPS-4R-1510281 11/03/2015 307","activated":"2017-11-16T20:35:41.328Z","flags":1,"native":1,"bps":4800,"parity":"N","stopbits":1,"cycle":1.00}]}
2017-11-16 15:35:41 1510864541.416994: {"class":"WATCH","enable":true,"json":false,"nmea":true,"raw":0,"scaled":false,"timing":false,"split24":false,"pps":false}
2017-11-16 15:35:41 1510864541.460545: $GPZDA,203540.00,16,11,2017,00,00*65
2017-11-16 15:35:41 1510864541.460711: $GPGGA,203540,3946.9568,N,08404.9860,W,2,12,1.00,309.61,M,-33.324,M,,*71
2017-11-16 15:35:41 1510864541.460771: $GPRMC,203540,A,3946.9568,N,08404.9860,W,0.0000,0.000,161117,,*3B
2017-11-16 15:35:41 1510864541.460827: $GPGSA,A,3,8,10,14,15,18,20,21,24,25,32,12,138,1.6,1.0,1.3*3F
2017-11-16 15:35:42 1510864542.367607: $GPZDA,203541.00,16,11,2017,00,00*64
2017-11-16 15:35:42 1510864542.367778: $GPGGA,203541,3946.9568,N,08404.9860,W,2,12,1.00,309.61,M,-33.324,M,,*70
2017-11-16 15:35:42 1510864542.367839: $GPRMC,203541,A,3946.9568,N,08404.9860,W,0.0000,0.000,161117,,*3A
2017-11-16 15:35:42 1510864542.367895: $GPGSA,A,3,8,10,14,15,18,20,21,24,25,32,12,138,1.6,1.0,1.3*3F
2017-11-16 15:35:43 1510864543.720844: $GPGSV,3,1,12,08,04,289,40,10,73,337,51,14,32,256,45,15,08,069,28*78
2017-11-16 15:35:43 1510864543.721015: $GPGSV,3,2,12,18,67,102,48,20,05,120,22,21,25,178,44,24,42,055,50*77
2017-11-16 15:35:43 1510864543.721076: $GPGSV,3,3,12,25,06,139,24,32,49,270,47,12,12,103,33,138,38,213,45*4E
2017-11-16 15:35:43 1510864543.834335: $GPZDA,203542.00,16,11,2017,00,00*67
2017-11-16 15:35:43 1510864543.834500: $GPGGA,203542,3946.9568,N,08404.9860,W,2,12,1.00,309.61,M,-33.324,M,,*73
2017-11-16 15:35:43 1510864543.834560: $GPRMC,203542,A,3946.9568,N,08404.9860,W,0.0000,0.000,161117,,*39
2017-11-16 15:35:43 1510864543.834616: $GPGSA,A,3,8,10,14,15,18,20,21,24,25,32,12,138,1.6,1.0,1.3*3F
2017-11-16 15:35:44 1510864544.361952: $GPZDA,203543.00,16,11,2017,00,00*66
2017-11-16 15:35:44 1510864544.362120: $GPGGA,203543,3946.9568,N,08404.9860,W,2,12,1.00,309.61,M,-33.324,M,,*72
2017-11-16 15:35:44 1510864544.362184: $GPRMC,203543,A,3946.9568,N,08404.9860,W,0.0000,0.000,161117,,*38
2017-11-16 15:35:44 1510864544.362240: $GPGSA,A,3,8,10,14,15,18,20,21,24,25,32,12,138,1.6,1.0,1.3*3F
2017-11-16 15:35:45 1510864545.361136: $GPZDA,203544.00,16,11,2017,00,00*61
2017-11-16 15:35:45 1510864545.361306: $GPGGA,203544,3946.9568,N,08404.9860,W,2,12,1.00,309.61,M,-33.324,M,,*75
2017-11-16 15:35:45 1510864545.361393: $GPRMC,203544,A,3946.9568,N,08404.9860,W,0.0000,0.000,161117,,*3F
2017-11-16 15:35:45 1510864545.361451: $GPGSA,A,3,8,10,14,15,18,20,21,24,25,32,12,138,1.6,1.0,1.3*3F
2017-11-16 15:35:46 1510864546.702541: $GPGSV,3,1,12,08,04,289,41,10,73,337,51,14,32,256,45,15,08,069,28*79
2017-11-16 15:35:46 1510864546.702719: $GPGSV,3,2,12,18,67,102,48,20,05,120,22,21,25,178,44,24,42,055,50*77
2017-11-16 15:35:46 1510864546.702779: $GPGSV,3,3,12,25,06,139,23,32,49,270,46,12,12,103,34,138,38,213,44*4E
2017-11-16 15:35:46 1510864546.816010: $GPZDA,203545.00,16,11,2017,00,00*60
2017-11-16 15:35:46 1510864546.816169: $GPGGA,203545,3946.9568,N,08404.9860,W,2,12,1.00,309.61,M,-33.324,M,,*74
2017-11-16 15:35:46 1510864546.816230: $GPRMC,203545,A,3946.9568,N,08404.9860,W,0.0000,0.000,161117,,*3E
2017-11-16 15:35:46 1510864546.816286: $GPGSA,A,3,8,10,14,15,18,20,21,24,25,32,12,138,1.6,1.0,1.3*3F
2017-11-16 15:35:47 1510864547.366820: $GPZDA,203546.00,16,11,2017,00,00*63
2017-11-16 15:35:47 1510864547.366979: $GPGGA,203546,3946.9568,N,08404.9860,W,2,12,1.00,309.61,M,-33.324,M,,*77
2017-11-16 15:35:47 1510864547.367039: $GPRMC,203546,A,3946.9568,N,08404.9860,W,0.0000,0.000,161117,,*3D
2017-11-16 15:35:47 1510864547.367095: $GPGSA,A,3,8,10,14,15,18,20,21,24,25,32,12,138,1.6,1.0,1.3*3F
2017-11-16 15:35:48 1510864548.367736: $GPZDA,203547.00,16,11,2017,00,00*62
2017-11-16 15:35:48 1510864548.367945: $GPGGA,203547,3946.9568,N,08404.9860,W,2,12,1.00,309.61,M,-33.324,M,,*76
2017-11-16 15:35:48 1510864548.368008: $GPRMC,203547,A,3946.9568,N,08404.9860,W,0.0000,0.000,161117,,*3C
2017-11-16 15:35:48 1510864548.368064: $GPGSA,A,3,8,10,14,15,18,20,21,24,25,32,12,138,1.6,1.0,1.3*3F
2017-11-16 15:35:49 1510864549.720887: $GPGSV,3,1,12,08,04,289,41,10,73,337,51,14,32,256,45,15,08,069,28*79
2017-11-16 15:35:49 1510864549.721033: $GPGSV,3,2,12,18,67,102,48,20,05,120,22,21,25,178,43,24,42,055,50*70
2017-11-16 15:35:49 1510864549.721092: $GPGSV,3,3,12,25,06,139,22,32,49,270,46,12,12,103,34,138,38,213,44*4F
2017-11-16 15:35:49 1510864549.834423: $GPZDA,203548.00,16,11,2017,00,00*6D
2017-11-16 15:35:49 1510864549.834587: $GPGGA,203548,3946.9568,N,08404.9860,W,2,12,1.00,309.61,M,-33.324,M,,*79
2017-11-16 15:35:49 1510864549.834647: $GPRMC,203548,A,3946.9568,N,08404.9860,W,0.0000,0.000,161117,,*33
2017-11-16 15:35:49 1510864549.834703: $GPGSA,A,3,8,10,14,15,18,20,21,24,25,32,12,138,1.6,1.0,1.3*3F
2017-11-16 15:35:50 1510864550.382867: $GPZDA,203549.00,16,11,2017,00,00*6C
2017-11-16 15:35:50 1510864550.383073: $GPGGA,203549,3946.9568,N,08404.9860,W,2,12,1.00,309.61,M,-33.324,M,,*78
2017-11-16 15:35:50 1510864550.383155: $GPRMC,203549,A,3946.9568,N,08404.9860,W,0.0000,0.000,161117,,*32
2017-11-16 15:35:50 1510864550.383213: $GPGSA,A,3,8,10,14,15,18,20,21,24,25,32,12,138,1.6,1.0,1.3*3F
2017-11-16 15:35:51 1510864551.359625: $GPZDA,203550.00,16,11,2017,00,00*64
2017-11-16 15:35:51 1510864551.359787: $GPGGA,203550,3946.9568,N,08404.9860,W,2,12,1.00,309.61,M,-33.324,M,,*70
2017-11-16 15:35:51 1510864551.359847: $GPRMC,203550,A,3946.9568,N,08404.9860,W,0.0000,0.000,161117,,*3A
2017-11-16 15:35:51 1510864551.359903: $GPGSA,A,3,8,10,14,15,18,20,21,24,25,32,12,138,1.6,1.0,1.3*3F
