2017-11-16 17:38:59 1510871939.895438: {"class":"VERSION","release":"3.17","rev":"3.17","proto_major":3,"proto_minor":12}
2017-11-16 17:38:59 1510871939.895925: {"class":"DEVICES","devices":[{"class":"DEVICE","path":"/dev/ttyUSB0","driver":"SiRF","subtype":"9\u0006GSD4e_4.1.2-P1_RPATCH.05-F-GPS-4R-1510281 11/03/2015 307","activated":"2017-11-16T22:38:59.536Z","flags":1,"native":1,"bps":4800,"parity":"N","stopbits":1,"cycle":1.00}]}
2017-11-16 17:38:59 1510871939.896045: {"class":"WATCH","enable":true,"json":false,"nmea":true,"raw":0,"scaled":false,"timing":false,"split24":false,"pps":false}
2017-11-16 17:39:00 1510871940.759910: $GPGSV,3,1,12,01,22,298,23,10,46,148,46,22,21,312,41,12,21,048,49*70
2017-11-16 17:39:00 1510871940.760112: $GPGSV,3,2,12,14,67,333,47,18,16,145,40,03,01,316,06,11,08,280,40*73
2017-11-16 17:39:00 1510871940.760182: $GPGSV,3,3,12,25,40,087,48,31,58,228,48,32,68,033,48,138,38,213,44*43
2017-11-16 17:39:00 1510871940.872948: $GPZDA,223859.00,16,11,2017,00,00*62
2017-11-16 17:39:00 1510871940.873109: $GPGGA,223859,3946.9576,N,08404.9841,W,2,11,0.80,303.26,M,-33.324,M,,*79
2017-11-16 17:39:00 1510871940.873170: $GPRMC,223859,A,3946.9576,N,08404.9841,W,0.0000,0.000,161117,,*30
2017-11-16 17:39:00 1510871940.873228: $GPGSA,A,3,1,10,22,12,14,18,11,25,31,32,138,,1.6,0.8,1.3*3E
2017-11-16 17:39:01 1510871941.498316: $GPZDA,223900.00,16,11,2017,00,00*6F
2017-11-16 17:39:01 1510871941.498469: $GPGGA,223900,3946.9576,N,08404.9841,W,2,11,0.80,303.26,M,-33.324,M,,*74
2017-11-16 17:39:01 1510871941.498530: $GPRMC,223900,A,3946.9576,N,08404.9841,W,0.0000,0.000,161117,,*3D
2017-11-16 17:39:01 1510871941.498586: $GPGSA,A,3,1,10,22,12,14,18,11,25,31,32,138,,1.6,0.8,1.3*3E
2017-11-16 17:39:02 1510871942.396679: $GPZDA,223901.00,16,11,2017,00,00*6E
2017-11-16 17:39:02 1510871942.396861: $GPGGA,223901,3946.9576,N,08404.9841,W,2,11,0.80,303.26,M,-33.324,M,,*75
2017-11-16 17:39:02 1510871942.396924: $GPRMC,223901,A,3946.9576,N,08404.9841,W,0.0000,0.000,161117,,*3C
2017-11-16 17:39:02 1510871942.396980: $GPGSA,A,3,1,10,22,12,14,18,11,25,31,32,138,,1.6,0.8,1.3*3E
2017-11-16 17:39:03 1510871943.726236: $GPGSV,3,1,12,01,22,298,29,10,46,148,46,22,21,312,41,12,21,048,49*7A
2017-11-16 17:39:03 1510871943.726419: $GPGSV,3,2,12,14,67,333,47,18,16,145,40,26,04,183,21,11,08,280,40*7A
2017-11-16 17:39:03 1510871943.726501: $GPGSV,3,3,12,25,40,087,48,31,58,228,48,32,68,033,49,138,38,213,44*42
2017-11-16 17:39:03 1510871943.839540: $GPZDA,223902.00,16,11,2017,00,00*6D
2017-11-16 17:39:03 1510871943.839710: $GPGGA,223902,3946.9576,N,08404.9841,W,2,12,0.80,303.26,M,-33.324,M,,*75
2017-11-16 17:39:03 1510871943.839774: $GPRMC,223902,A,3946.9576,N,08404.9841,W,0.0000,0.000,161117,,*3F
2017-11-16 17:39:03 1510871943.839830: $GPGSA,A,3,1,10,22,12,14,18,26,11,25,31,32,138,1.6,0.8,1.3*3A
2017-11-16 17:39:04 1510871944.396841: $GPZDA,223903.00,16,11,2017,00,00*6C
2017-11-16 17:39:04 1510871944.397007: $GPGGA,223903,3946.9576,N,08404.9841,W,2,12,0.80,303.26,M,-33.324,M,,*74
2017-11-16 17:39:04 1510871944.397067: $GPRMC,223903,A,3946.9576,N,08404.9841,W,0.0000,0.000,161117,,*3E
2017-11-16 17:39:04 1510871944.397125: $GPGSA,A,3,1,10,22,12,14,18,26,11,25,31,32,138,1.6,0.8,1.3*3A
2017-11-16 17:39:05 1510871945.396281: $GPZDA,223904.00,16,11,2017,00,00*6B
2017-11-16 17:39:05 1510871945.396449: $GPGGA,223904,3946.9576,N,08404.9841,W,2,12,0.80,303.26,M,-33.324,M,,*73
2017-11-16 17:39:05 1510871945.396512: $GPRMC,223904,A,3946.9576,N,08404.9841,W,0.0000,0.000,161117,,*39
2017-11-16 17:39:05 1510871945.396568: $GPGSA,A,3,1,10,22,12,14,18,26,11,25,31,32,138,1.6,0.8,1.3*3A
2017-11-16 17:39:06 1510871946.732799: $GPGSV,3,1,12,01,22,298,25,10,46,148,46,22,21,312,41,12,21,048,49*76
2017-11-16 17:39:06 1510871946.732941: $GPGSV,3,2,12,14,67,333,47,18,16,145,40,26,04,183,22,11,08,280,41*78
2017-11-16 17:39:06 1510871946.733001: $GPGSV,3,3,12,25,40,087,48,31,58,228,48,32,68,033,49,138,38,213,44*42
2017-11-16 17:39:06 1510871946.846120: $GPZDA,223905.00,16,11,2017,00,00*6A
2017-11-16 17:39:06 1510871946.846300: $GPGGA,223905,3946.9576,N,08404.9841,W,2,12,0.80,303.26,M,-33.324,M,,*72
2017-11-16 17:39:06 1510871946.846412: $GPRMC,223905,A,3946.9576,N,08404.9841,W,0.0000,0.000,161117,,*38
2017-11-16 17:39:06 1510871946.846472: $GPGSA,A,3,1,10,22,12,14,18,26,11,25,31,32,138,1.6,0.8,1.3*3A
2017-11-16 17:39:07 1510871947.396953: $GPZDA,223906.00,16,11,2017,00,00*69
2017-11-16 17:39:07 1510871947.397125: $GPGGA,223906,3946.9576,N,08404.9841,W,2,12,0.80,303.26,M,-33.324,M,,*71
2017-11-16 17:39:07 1510871947.397188: $GPRMC,223906,A,3946.9576,N,08404.9841,W,0.0000,0.000,161117,,*3B
2017-11-16 17:39:07 1510871947.397247: $GPGSA,A,3,1,10,22,12,14,18,26,11,25,31,32,138,1.6,0.8,1.3*3A
2017-11-16 17:39:08 1510871948.396663: $GPZDA,223907.00,16,11,2017,00,00*68
2017-11-16 17:39:08 1510871948.396825: $GPGGA,223907,3946.9576,N,08404.9841,W,2,12,0.80,303.26,M,-33.324,M,,*70
2017-11-16 17:39:08 1510871948.396886: $GPRMC,223907,A,3946.9576,N,08404.9841,W,0.0000,0.000,161117,,*3A
2017-11-16 17:39:08 1510871948.396943: $GPGSA,A,3,1,10,22,12,14,18,26,11,25,31,32,138,1.6,0.8,1.3*3A
2017-11-16 17:39:09 1510871949.726133: $GPGSV,3,1,12,01,22,298,24,10,46,148,45,22,21,312,41,12,21,048,49*74
2017-11-16 17:39:09 1510871949.726308: $GPGSV,3,2,12,14,67,333,47,18,16,145,40,03,01,316,14,11,08,280,41*71
2017-11-16 17:39:09 1510871949.726370: $GPGSV,3,3,12,25,40,087,48,31,58,228,48,32,68,033,49,138,38,213,44*42
2017-11-16 17:39:09 1510871949.839413: $GPZDA,223908.00,16,11,2017,00,00*67
2017-11-16 17:39:09 1510871949.839567: $GPGGA,223908,3946.9576,N,08404.9841,W,2,12,0.80,303.26,M,-33.324,M,,*7F
2017-11-16 17:39:09 1510871949.839627: $GPRMC,223908,A,3946.9576,N,08404.9841,W,0.0000,0.000,161117,,*35
2017-11-16 17:39:09 1510871949.839685: $GPGSA,A,3,1,10,22,12,14,18,3,11,25,31,32,138,1.6,0.8,1.3*0D
