2017-12-29 11:16:38 1514564198.175656: {"class":"VERSION","release":"3.16","rev":"3.16-4","proto_major":3,"proto_minor":11}
2017-12-29 11:16:38 1514564198.176009: {"class":"DEVICES","devices":[{"class":"DEVICE","path":"/dev/ttyUSB0","driver":"SiRF","subtype":"9\u0006GSD4e_4.1.2-P1_RPATCH.05-F-GPS-4R-1510281 11/03/2015 307","activated":"2017-12-29T16:16:37.967Z","flags":1,"native":1,"bps":4800,"parity":"N","stopbits":1,"cycle":1.00}]}
2017-12-29 11:16:38 1514564198.176123: {"class":"WATCH","enable":true,"json":false,"nmea":true,"raw":0,"scaled":false,"timing":false,"split24":false,"pps":false}
2017-12-29 11:16:38 1514564198.376677: $GPZDA,161639.00,29,12,2017,00,00*60
2017-12-29 11:16:38 1514564198.376834: $GPGGA,161639,3946.9562,N,08404.9851,W,2,11,1.60,304.83,M,-33.324,M,,*77
2017-12-29 11:16:38 1514564198.376899: $GPRMC,161639,A,3946.9562,N,08404.9851,W,0.0000,0.000,291217,,*36
2017-12-29 11:16:38 1514564198.376959: $GPGSA,A,3,10,15,18,20,21,24,27,32,8,13,138,,1.7,1.6,1.3*3E
2017-12-29 11:16:39 1514564199.376003: $GPZDA,161640.00,29,12,2017,00,00*6E
2017-12-29 11:16:39 1514564199.380607: $GPGGA,161640,3946.9562,N,08404.9851,W,2,11,1.60,304.83,M,-33.324,M,,*79
2017-12-29 11:16:39 1514564199.380720: $GPRMC,161640,A,3946.9562,N,08404.9851,W,0.0000,0.000,291217,,*38
2017-12-29 11:16:39 1514564199.380782: $GPGSA,A,3,10,15,18,20,21,24,27,32,8,13,138,,1.7,1.6,1.3*3E
2017-12-29 11:16:40 1514564200.711620: $GPGSV,3,1,12,10,41,301,41,15,38,052,41,18,71,337,35,20,35,094,43*76
2017-12-29 11:16:40 1514564200.711788: $GPGSV,3,2,12,21,64,190,42,24,50,111,44,27,19,291,26,32,21,238,32*7F
2017-12-29 11:16:40 1514564200.711866: $GPGSV,3,3,12,08,05,324,27,13,08,048,22,14,03,232,00,138,38,213,45*44
2017-12-29 11:16:40 1514564200.825317: $GPZDA,161641.00,29,12,2017,00,00*6F
2017-12-29 11:16:40 1514564200.825445: $GPGGA,161641,3946.9562,N,08404.9851,W,2,11,1.60,304.83,M,-33.324,M,,*78
2017-12-29 11:16:40 1514564200.825510: $GPRMC,161641,A,3946.9562,N,08404.9851,W,0.0000,0.000,291217,,*39
2017-12-29 11:16:40 1514564200.825569: $GPGSA,A,3,10,15,18,20,21,24,27,32,8,13,138,,1.7,1.6,1.3*3E
2017-12-29 11:16:41 1514564201.450700: $GPZDA,161642.00,29,12,2017,00,00*6C
2017-12-29 11:16:41 1514564201.450858: $GPGGA,161642,3946.9562,N,08404.9851,W,2,11,1.60,304.83,M,-33.324,M,,*7B
2017-12-29 11:16:41 1514564201.450924: $GPRMC,161642,A,3946.9562,N,08404.9851,W,0.0000,0.000,291217,,*3A
2017-12-29 11:16:41 1514564201.450984: $GPGSA,A,3,10,15,18,20,21,24,27,32,8,13,138,,1.7,1.6,1.3*3E
2017-12-29 11:16:42 1514564202.377850: $GPZDA,161643.00,29,12,2017,00,00*6D
2017-12-29 11:16:42 1514564202.378037: $GPGGA,161643,3946.9562,N,08404.9851,W,2,11,1.60,304.83,M,-33.324,M,,*7A
2017-12-29 11:16:42 1514564202.378103: $GPRMC,161643,A,3946.9562,N,08404.9851,W,0.0000,0.000,291217,,*3B
2017-12-29 11:16:42 1514564202.378163: $GPGSA,A,3,10,15,18,20,21,24,27,32,8,13,138,,1.7,1.6,1.3*3E
2017-12-29 11:16:43 1514564203.712014: $GPGSV,3,1,12,10,41,301,40,15,38,052,42,18,71,337,37,20,35,094,43*76
2017-12-29 11:16:43 1514564203.712185: $GPGSV,3,2,12,21,64,190,41,24,50,111,42,27,19,291,28,32,21,238,32*74
2017-12-29 11:16:43 1514564203.712250: $GPGSV,3,3,12,08,05,324,29,13,08,048,22,14,03,232,00,138,38,213,45*4A
2017-12-29 11:16:43 1514564203.825653: $GPZDA,161644.00,29,12,2017,00,00*6A
2017-12-29 11:16:43 1514564203.825784: $GPGGA,161644,3946.9562,N,08404.9851,W,2,11,1.60,304.83,M,-33.324,M,,*7D
2017-12-29 11:16:43 1514564203.825849: $GPRMC,161644,A,3946.9562,N,08404.9851,W,0.0000,0.000,291217,,*3C
2017-12-29 11:16:43 1514564203.825909: $GPGSA,A,3,10,15,18,20,21,24,27,32,8,13,138,,1.7,1.6,1.3*3E
2017-12-29 11:16:44 1514564204.375359: $GPZDA,161645.00,29,12,2017,00,00*6B
2017-12-29 11:16:44 1514564204.381935: $GPGGA,161645,3946.9562,N,08404.9851,W,2,11,1.60,304.83,M,-33.324,M,,*7C
2017-12-29 11:16:44 1514564204.382044: $GPRMC,161645,A,3946.9562,N,08404.9851,W,0.3423,4.196,291217,,*31
2017-12-29 11:16:44 1514564204.382108: $GPGSA,A,3,10,15,18,20,21,24,27,32,8,13,138,,1.7,1.6,1.3*3E
2017-12-29 11:16:45 1514564205.371253: $GPZDA,161646.00,29,12,2017,00,00*68
2017-12-29 11:16:45 1514564205.371473: $GPGGA,161646,3946.9562,N,08404.9851,W,2,11,1.60,306.24,M,-33.324,M,,*70
2017-12-29 11:16:45 1514564205.371542: $GPRMC,161646,A,3946.9562,N,08404.9851,W,0.2422,273.794,291217,,*34
2017-12-29 11:16:45 1514564205.371602: $GPGSA,A,3,10,15,18,20,21,24,27,32,8,13,138,,1.7,1.6,1.3*3E
2017-12-29 11:16:46 1514564206.712340: $GPGSV,3,1,12,10,41,301,42,15,38,052,44,18,71,337,41,20,35,094,45*75
2017-12-29 11:16:46 1514564206.712505: $GPGSV,3,2,12,21,64,190,42,24,50,111,44,27,19,291,29,32,21,238,39*7B
2017-12-29 11:16:46 1514564206.712571: $GPGSV,3,3,12,08,05,324,30,13,08,048,22,14,03,232,00,138,38,213,46*41
2017-12-29 11:16:46 1514564206.825676: $GPZDA,161647.00,29,12,2017,00,00*69
2017-12-29 11:16:46 1514564206.825808: $GPGGA,161647,3946.9562,N,08404.9851,W,2,11,1.60,306.24,M,-33.324,M,,*71
2017-12-29 11:16:46 1514564206.825872: $GPRMC,161647,A,3946.9562,N,08404.9851,W,0.0000,0.000,291217,,*3F
2017-12-29 11:16:46 1514564206.825932: $GPGSA,A,3,10,15,18,20,21,24,27,32,8,13,138,,1.7,1.6,1.3*3E
2017-12-29 11:16:47 1514564207.370399: $GPZDA,161648.00,29,12,2017,00,00*66
2017-12-29 11:16:47 1514564207.370569: $GPGGA,161648,3946.9563,N,08404.9845,W,2,11,1.60,307.72,M,-33.324,M,,*78
2017-12-29 11:16:47 1514564207.370634: $GPRMC,161648,A,3946.9563,N,08404.9845,W,0.2422,93.794,291217,,*02
2017-12-29 11:16:47 1514564207.370695: $GPGSA,A,3,10,15,18,20,21,24,27,32,8,13,138,,1.7,1.6,1.3*3E
2017-12-29 11:16:48 1514564208.374965: $GPZDA,161649.00,29,12,2017,00,00*67
2017-12-29 11:16:48 1514564208.375140: $GPGGA,161649,3946.9567,N,08404.9845,W,2,11,1.60,308.36,M,-33.324,M,,*72
2017-12-29 11:16:48 1514564208.375205: $GPRMC,161649,A,3946.9567,N,08404.9845,W,0.2422,273.794,291217,,*3B
2017-12-29 11:16:48 1514564208.375265: $GPGSA,A,3,10,15,18,20,21,24,27,32,8,13,138,,1.7,1.6,1.3*3E
2017-12-29 11:16:49 1514564209.713257: $GPGSV,3,1,12,10,41,301,42,15,38,052,45,18,71,337,41,20,35,094,47*76
2017-12-29 11:16:49 1514564209.713439: $GPGSV,3,2,12,21,64,190,42,24,50,111,45,27,19,291,34,32,21,238,38*77
2017-12-29 11:16:49 1514564209.713507: $GPGSV,3,3,12,08,05,324,29,13,08,048,23,14,03,232,00,138,38,213,45*4B
2017-12-29 11:16:49 1514564209.826886: $GPZDA,161650.00,29,12,2017,00,00*6F
2017-12-29 11:16:49 1514564209.827025: $GPGGA,161650,3946.9567,N,08404.9845,W,2,11,1.60,308.36,M,-33.324,M,,*7A
2017-12-29 11:16:49 1514564209.827105: $GPRMC,161650,A,3946.9567,N,08404.9845,W,0.1867,0.000,291217,,*31
2017-12-29 11:16:49 1514564209.827168: $GPGSA,A,3,10,15,18,20,21,24,27,32,8,13,138,,1.7,1.6,1.3*3E
2017-12-29 11:16:50 1514564210.380304: $GPZDA,161651.00,29,12,2017,00,00*6E
2017-12-29 11:16:50 1514564210.380471: $GPGGA,161651,3946.9567,N,08404.9845,W,2,11,1.60,308.36,M,-33.324,M,,*7B
2017-12-29 11:16:50 1514564210.380537: $GPRMC,161651,A,3946.9567,N,08404.9845,W,0.0000,0.000,291217,,*38
2017-12-29 11:16:50 1514564210.380597: $GPGSA,A,3,10,15,18,20,21,24,27,32,8,13,138,,1.7,1.6,1.3*3E
2017-12-29 11:16:51 1514564211.370348: $GPZDA,161652.00,29,12,2017,00,00*6D
2017-12-29 11:16:51 1514564211.370519: $GPGGA,161652,3946.9567,N,08404.9845,W,2,11,1.60,308.36,M,-33.324,M,,*78
2017-12-29 11:16:51 1514564211.370584: $GPRMC,161652,A,3946.9567,N,08404.9845,W,0.0000,0.000,291217,,*3B
2017-12-29 11:16:51 1514564211.370644: $GPGSA,A,3,10,15,18,20,21,24,27,32,8,13,138,,1.7,1.6,1.3*3E
2017-12-29 11:16:52 1514564212.706067: $GPGSV,3,1,12,10,41,301,42,15,38,052,45,18,71,337,42,20,35,094,47*75
2017-12-29 11:16:52 1514564212.706231: $GPGSV,3,2,12,21,64,190,42,24,50,111,45,27,19,291,34,32,21,238,38*77
2017-12-29 11:16:52 1514564212.706295: $GPGSV,3,3,12,08,05,324,26,13,08,048,24,14,03,232,00,138,38,213,45*43
2017-12-29 11:16:52 1514564212.819701: $GPZDA,161653.00,29,12,2017,00,00*6C
2017-12-29 11:16:52 1514564212.819825: $GPGGA,161653,3946.9567,N,08404.9845,W,2,11,1.60,308.36,M,-33.324,M,,*79
2017-12-29 11:16:52 1514564212.819889: $GPRMC,161653,A,3946.9567,N,08404.9845,W,0.0000,0.000,291217,,*3A
2017-12-29 11:16:52 1514564212.819950: $GPGSA,A,3,10,15,18,20,21,24,27,32,8,13,138,,1.7,1.6,1.3*3E
2017-12-29 11:16:53 1514564213.371889: $GPZDA,161654.00,29,12,2017,00,00*6B
2017-12-29 11:16:53 1514564213.372102: $GPGGA,161654,3946.9567,N,08404.9845,W,2,11,1.60,308.36,M,-33.324,M,,*7E
2017-12-29 11:16:53 1514564213.372170: $GPRMC,161654,A,3946.9567,N,08404.9845,W,0.0000,0.000,291217,,*3D
2017-12-29 11:16:53 1514564213.372230: $GPGSA,A,3,10,15,18,20,21,24,27,32,8,13,138,,1.7,1.6,1.3*3E
2017-12-29 11:16:54 1514564214.392748: $GPZDA,161655.00,29,12,2017,00,00*6A
2017-12-29 11:16:54 1514564214.392907: $GPGGA,161655,3946.9567,N,08404.9845,W,2,11,1.60,308.36,M,-33.324,M,,*7F
2017-12-29 11:16:54 1514564214.392971: $GPRMC,161655,A,3946.9567,N,08404.9845,W,0.0000,0.000,291217,,*3C
2017-12-29 11:16:54 1514564214.393031: $GPGSA,A,3,10,15,18,20,21,24,27,32,8,13,138,,1.7,1.6,1.3*3E
2017-12-29 11:16:55 1514564215.711928: $GPGSV,3,1,12,10,41,301,42,15,38,052,45,18,71,337,41,20,35,094,47*76
2017-12-29 11:16:55 1514564215.712092: $GPGSV,3,2,12,21,64,190,43,24,50,111,45,27,19,291,34,32,21,238,37*79
2017-12-29 11:16:55 1514564215.712157: $GPGSV,3,3,12,08,05,324,26,13,08,048,23,14,03,232,00,138,38,213,45*44
2017-12-29 11:16:55 1514564215.825542: $GPZDA,161656.00,29,12,2017,00,00*69
2017-12-29 11:16:55 1514564215.825664: $GPGGA,161656,3946.9567,N,08404.9845,W,2,11,1.60,308.36,M,-33.324,M,,*7C
2017-12-29 11:16:55 1514564215.825727: $GPRMC,161656,A,3946.9567,N,08404.9845,W,0.0000,0.000,291217,,*3F
2017-12-29 11:16:55 1514564215.825786: $GPGSA,A,3,10,15,18,20,21,24,27,32,8,13,138,,1.7,1.6,1.3*3E
2017-12-29 11:16:56 1514564216.451094: $GPZDA,161657.00,29,12,2017,00,00*68
2017-12-29 11:16:56 1514564216.451250: $GPGGA,161657,3946.9567,N,08404.9845,W,2,11,1.60,308.36,M,-33.324,M,,*7D
2017-12-29 11:16:56 1514564216.451316: $GPRMC,161657,A,3946.9567,N,08404.9845,W,0.0000,0.000,291217,,*3E
2017-12-29 11:16:56 1514564216.451376: $GPGSA,A,3,10,15,18,20,21,24,27,32,8,13,138,,1.7,1.6,1.3*3E
2017-12-29 11:16:57 1514564217.394436: $GPZDA,161658.00,29,12,2017,00,00*67
2017-12-29 11:16:57 1514564217.394604: $GPGGA,161658,3946.9567,N,08404.9845,W,2,11,1.60,308.36,M,-33.324,M,,*72
2017-12-29 11:16:57 1514564217.394669: $GPRMC,161658,A,3946.9567,N,08404.9845,W,0.0000,0.000,291217,,*31
2017-12-29 11:16:57 1514564217.394730: $GPGSA,A,3,10,15,18,20,21,24,27,32,8,13,138,,1.7,1.6,1.3*3E
2017-12-29 11:16:58 1514564218.728540: $GPGSV,3,1,12,10,41,301,43,15,38,052,45,18,71,337,41,20,35,094,47*77
2017-12-29 11:16:58 1514564218.728702: $GPGSV,3,2,12,21,64,190,43,24,50,111,45,27,19,291,34,32,21,238,37*79
2017-12-29 11:16:58 1514564218.728767: $GPGSV,3,3,12,08,05,324,27,13,08,048,23,14,03,232,00,138,38,213,45*45
2017-12-29 11:16:58 1514564218.841935: $GPZDA,161659.00,29,12,2017,00,00*66
2017-12-29 11:16:58 1514564218.842077: $GPGGA,161659,3946.9567,N,08404.9845,W,2,11,1.60,308.36,M,-33.324,M,,*73
2017-12-29 11:16:58 1514564218.842142: $GPRMC,161659,A,3946.9567,N,08404.9845,W,0.0000,0.000,291217,,*30
2017-12-29 11:16:58 1514564218.842201: $GPGSA,A,3,10,15,18,20,21,24,27,32,8,13,138,,1.7,1.6,1.3*3E
2017-12-29 11:16:59 1514564219.392780: $GPZDA,161700.00,29,12,2017,00,00*6B
2017-12-29 11:16:59 1514564219.392962: $GPGGA,161700,3946.9567,N,08404.9845,W,2,11,1.60,308.36,M,-33.324,M,,*7E
2017-12-29 11:16:59 1514564219.393031: $GPRMC,161700,A,3946.9567,N,08404.9845,W,0.0000,0.000,291217,,*3D
2017-12-29 11:16:59 1514564219.393092: $GPGSA,A,3,10,15,18,20,21,24,27,32,8,13,138,,1.7,1.6,1.3*3E
2017-12-29 11:17:00 1514564220.377405: $GPZDA,161701.00,29,12,2017,00,00*6A
2017-12-29 11:17:00 1514564220.377573: $GPGGA,161701,3946.9567,N,08404.9845,W,2,11,1.60,308.36,M,-33.324,M,,*7F
2017-12-29 11:17:00 1514564220.377640: $GPRMC,161701,A,3946.9567,N,08404.9845,W,0.0000,0.000,291217,,*3C
2017-12-29 11:17:00 1514564220.377700: $GPGSA,A,3,10,15,18,20,21,24,27,32,8,13,138,,1.7,1.6,1.3*3E
2017-12-29 11:17:01 1514564221.730169: $GPGSV,3,1,12,10,41,301,42,15,38,052,46,18,71,337,41,20,35,094,47*75
2017-12-29 11:17:01 1514564221.730332: $GPGSV,3,2,12,21,64,190,43,24,50,111,45,27,19,291,35,32,21,238,37*78
2017-12-29 11:17:01 1514564221.730396: $GPGSV,3,3,12,08,05,324,28,13,08,048,23,14,03,232,00,138,38,213,45*4A
2017-12-29 11:17:01 1514564221.843505: $GPZDA,161702.00,29,12,2017,00,00*69
2017-12-29 11:17:01 1514564221.843635: $GPGGA,161702,3946.9567,N,08404.9845,W,2,11,1.60,308.36,M,-33.324,M,,*7C
2017-12-29 11:17:01 1514564221.843698: $GPRMC,161702,A,3946.9567,N,08404.9845,W,0.0000,0.000,291217,,*3F
2017-12-29 11:17:01 1514564221.843759: $GPGSA,A,3,10,15,18,20,21,24,27,32,8,13,138,,1.7,1.6,1.3*3E
2017-12-29 11:17:02 1514564222.376903: $GPZDA,161703.00,29,12,2017,00,00*68
2017-12-29 11:17:02 1514564222.377080: $GPGGA,161703,3946.9567,N,08404.9845,W,2,11,1.60,308.36,M,-33.324,M,,*7D
2017-12-29 11:17:02 1514564222.377146: $GPRMC,161703,A,3946.9567,N,08404.9845,W,0.0000,0.000,291217,,*3E
2017-12-29 11:17:02 1514564222.377206: $GPGSA,A,3,10,15,18,20,21,24,27,32,8,13,138,,1.7,1.6,1.3*3E
