2017-12-14 12:00:46 1513270846.766088: {"class":"VERSION","release":"3.16","rev":"3.16-4","proto_major":3,"proto_minor":11}
2017-12-14 12:00:46 1513270846.766450: {"class":"DEVICES","devices":[{"class":"DEVICE","path":"/dev/ttyUSB0","driver":"SiRF","subtype":"9\u0006GSD4e_4.1.2-P1_RPATCH.05-F-GPS-4R-1510281 11/03/2015 307","activated":"2017-12-14T17:00:46.297Z","flags":1,"native":1,"bps":4800,"parity":"N","stopbits":1,"cycle":1.00}]}
2017-12-14 12:00:46 1513270846.766570: {"class":"WATCH","enable":true,"json":false,"nmea":true,"raw":0,"scaled":false,"timing":false,"split24":false,"pps":false}
2017-12-14 12:00:47 1513270847.588415: $GPRMC,170048,V,18000.0000,N,00000.0000,W,0.0000,0.000,141217,,*1B
2017-12-14 12:00:47 1513270847.588607: $GPGSA,A,1,20,10,15,18,24,21,,,,,,,,,,*39
2017-12-14 12:00:48 1513270848.543072: $GPRMC,170049,V,3946.9588,N,08404.9313,W,0.0000,0.000,141217,,*27
2017-12-14 12:00:48 1513270848.543247: $GPGSA,A,1,20,10,15,18,24,21,,,,,,,,,,*39
2017-12-14 12:00:49 1513270849.135318: $GPGSV,3,1,10,21,71,196,15,15,44,051,07,18,66,322,06,20,40,088,08*70
2017-12-14 12:00:49 1513270849.135492: $GPGSV,3,2,10,24,46,121,07,10,35,295,00,27,19,297,00,32,15,234,00*70
2017-12-14 12:00:49 1513270849.135557: $GPGSV,3,3,10,13,14,046,00,08,03,328,00*7F
2017-12-14 12:00:49 1513270849.246415: $GPRMC,170049,V,3946.9597,N,08404.9327,W,1.5558,145.035,141217,,*24
2017-12-14 12:00:49 1513270849.246549: $GPGSA,A,1,21,15,18,20,24,,,,,,,,,,,*38
2017-12-14 12:00:49 1513270849.776513: $GPRMC,170050,V,3946.9570,N,08404.9322,W,1.5746,174.845,141217,,*20
2017-12-14 12:00:49 1513270849.776681: $GPGSA,A,1,21,15,18,20,24,,,,,,,,,,,*38
2017-12-14 12:00:50 1513270850.031779: $GPZDA,170050.58,14,12,2017,00,00*6A
2017-12-14 12:00:50 1513270850.031936: $GPGGA,170050,3946.9570,N,08404.9322,W,1,05,2.40,343.70,M,-33.324,M,,*7A
2017-12-14 12:00:50 1513270850.032002: $GPRMC,170050,A,3946.9570,N,08404.9322,W,1.7122,148.618,141217,,*38
2017-12-14 12:00:50 1513270850.032115: $GPGSA,A,3,21,15,18,20,24,,,,,,,,6.6,2.4,6.2*3A
2017-12-14 12:00:50 1513270850.032181: $GPGBS,170050,24.66,M,21.80,M,143.40,M*32
2017-12-14 12:00:50 1513270850.795919: $GPGSV,3,1,11,21,71,196,24,15,44,051,23,18,66,322,19,20,40,088,27*76
2017-12-14 12:00:50 1513270850.796096: $GPGSV,3,2,11,24,46,121,25,10,35,295,00,27,19,297,00,32,15,234,00*71
2017-12-14 12:00:50 1513270850.796162: $GPGSV,3,3,11,13,14,046,00,08,03,328,00,138,38,213,00*7F
2017-12-14 12:00:50 1513270850.909433: $GPZDA,170051.00,14,12,2017,00,00*66
2017-12-14 12:00:50 1513270850.909616: $GPGGA,170051,3946.9565,N,08404.9308,W,1,05,2.40,343.22,M,-33.324,M,,*70
2017-12-14 12:00:50 1513270850.909683: $GPRMC,170051,A,3946.9565,N,08404.9308,W,1.2375,102.454,141217,,*34
2017-12-14 12:00:50 1513270850.909744: $GPGSA,A,3,21,15,18,20,24,,,,,,,,6.6,2.4,6.2*3A
2017-12-14 12:00:51 1513270851.209881: $GPZDA,170052.00,14,12,2017,00,00*65
2017-12-14 12:00:51 1513270851.210048: $GPGGA,170052,3946.9572,N,08404.9308,W,1,05,2.40,343.09,M,-33.324,M,,*7C
2017-12-14 12:00:51 1513270851.210114: $GPRMC,170052,A,3946.9572,N,08404.9308,W,1.3255,71.714,141217,,*01
2017-12-14 12:00:51 1513270851.210174: $GPGSA,A,3,21,15,18,20,24,,,,,,,,6.6,2.4,6.2*3A
2017-12-14 12:00:52 1513270852.208708: $GPZDA,170053.00,14,12,2017,00,00*64
2017-12-14 12:00:52 1513270852.208875: $GPGGA,170053,3946.9579,N,08404.9293,W,1,05,2.40,343.13,M,-33.324,M,,*7E
2017-12-14 12:00:52 1513270852.208942: $GPRMC,170053,A,3946.9579,N,08404.9293,W,2.2890,62.681,141217,,*06
2017-12-14 12:00:52 1513270852.209003: $GPGSA,A,3,21,15,18,20,24,,,,,,,,6.6,2.4,6.2*3A
2017-12-14 12:00:53 1513270853.545790: $GPGSV,3,1,11,21,71,196,24,15,44,051,23,18,66,322,20,20,40,088,26*7D
2017-12-14 12:00:53 1513270853.545965: $GPGSV,3,2,11,24,46,121,25,10,35,295,00,27,19,297,00,32,15,234,00*71
2017-12-14 12:00:53 1513270853.546031: $GPGSV,3,3,11,13,14,046,00,08,03,328,00,138,38,213,00*7F
2017-12-14 12:00:53 1513270853.659508: $GPZDA,170054.00,14,12,2017,00,00*63
2017-12-14 12:00:53 1513270853.659677: $GPGGA,170054,3946.9586,N,08404.9285,W,1,05,2.40,343.08,M,-33.324,M,,*74
2017-12-14 12:00:53 1513270853.659793: $GPRMC,170054,A,3946.9586,N,08404.9285,W,1.8909,55.073,141217,,*01
2017-12-14 12:00:53 1513270853.659855: $GPGSA,A,3,21,15,18,20,24,,,,,,,,6.6,2.4,6.2*3A
2017-12-14 12:00:54 1513270854.210772: $GPZDA,170055.00,14,12,2017,00,00*62
2017-12-14 12:00:54 1513270854.210953: $GPGGA,170055,3946.9590,N,08404.9285,W,1,05,2.40,342.32,M,-33.324,M,,*7A
2017-12-14 12:00:54 1513270854.211042: $GPRMC,170055,A,3946.9590,N,08404.9285,W,1.5430,43.747,141217,,*0A
2017-12-14 12:00:54 1513270854.211106: $GPGSA,A,3,21,15,18,20,24,,,,,,,,6.6,2.4,6.2*3A
2017-12-14 12:00:55 1513270855.211614: $GPZDA,170056.00,14,12,2017,00,00*61
2017-12-14 12:00:55 1513270855.211770: $GPGGA,170056,3946.9594,N,08404.9285,W,1,05,2.40,342.96,M,-33.324,M,,*73
2017-12-14 12:00:55 1513270855.211836: $GPRMC,170056,A,3946.9594,N,08404.9285,W,1.6828,39.347,141217,,*02
2017-12-14 12:00:55 1513270855.211898: $GPGSA,A,3,21,15,18,20,24,,,,,,,,6.6,2.4,6.2*3A
2017-12-14 12:00:56 1513270856.547567: $GPGSV,3,1,11,21,71,196,24,15,44,051,22,18,66,322,19,20,40,088,26*76
2017-12-14 12:00:56 1513270856.547745: $GPGSV,3,2,11,24,46,121,24,27,19,297,15,10,35,295,00,32,15,234,00*74
2017-12-14 12:00:56 1513270856.547809: $GPGSV,3,3,11,13,14,046,00,08,03,328,00,138,38,213,00*7F
2017-12-14 12:00:56 1513270856.660965: $GPZDA,170057.00,14,12,2017,00,00*60
2017-12-14 12:00:56 1513270856.661155: $GPGGA,170057,3946.9594,N,08404.9278,W,1,06,2.40,343.04,M,-33.324,M,,*79
2017-12-14 12:00:56 1513270856.661223: $GPRMC,170057,A,3946.9594,N,08404.9278,W,1.5430,43.747,141217,,*0E
2017-12-14 12:00:56 1513270856.661286: $GPGSA,A,3,21,15,18,20,24,27,,,,,,,6.6,2.4,6.2*3F
2017-12-14 12:00:57 1513270857.208592: $GPZDA,170058.00,14,12,2017,00,00*6F
2017-12-14 12:00:57 1513270857.208764: $GPGGA,170058,3946.9594,N,08404.9278,W,1,06,2.40,343.04,M,-33.324,M,,*76
2017-12-14 12:00:57 1513270857.208831: $GPRMC,170058,A,3946.9594,N,08404.9278,W,1.3255,71.714,141217,,*05
2017-12-14 12:00:57 1513270857.208893: $GPGSA,A,3,21,15,18,20,24,27,,,,,,,6.6,2.4,6.2*3F
2017-12-14 12:00:58 1513270858.208174: $GPZDA,170059.00,14,12,2017,00,00*6E
2017-12-14 12:00:58 1513270858.208352: $GPGGA,170059,3946.9593,N,08404.9271,W,1,06,2.40,343.12,M,-33.324,M,,*7E
2017-12-14 12:00:58 1513270858.208425: $GPRMC,170059,A,3946.9593,N,08404.9271,W,1.2792,79.681,141217,,*00
2017-12-14 12:00:58 1513270858.208488: $GPGSA,A,3,21,15,18,20,24,27,,,,,,,6.6,2.4,6.2*3F
2017-12-14 12:00:59 1513270859.543690: $GPGSV,3,1,11,21,71,196,24,15,44,051,22,18,66,322,20,20,40,088,26*7C
2017-12-14 12:00:59 1513270859.825494: $GPGSV,3,2,11,24,46,121,24,10,35,295,00,27,19,297,00,32,15,234,00*70
2017-12-14 12:00:59 1513270859.825633: $GPGSV,3,3,11,13,14,046,00,08,03,328,00,138,38,213,00*7F
2017-12-14 12:00:59 1513270859.825723: $GPZDA,170100.00,14,12,2017,00,00*63
2017-12-14 12:00:59 1513270859.825782: $GPGGA,170100,3946.9596,N,08404.9256,W,1,05,2.40,342.51,M,-33.324,M,,*76
2017-12-14 12:00:59 1513270859.825843: $GPRMC,170100,A,3946.9596,N,08404.9256,W,1.7837,77.574,141217,,*0F
2017-12-14 12:00:59 1513270859.825903: $GPGSA,A,3,21,15,18,20,24,,,,,,,,6.6,2.4,6.2*3A
2017-12-14 12:01:00 1513270860.207944: $GPZDA,170101.00,14,12,2017,00,00*62
2017-12-14 12:01:00 1513270860.208113: $GPGGA,170101,3946.9593,N,08404.9257,W,1,05,2.40,343.28,M,-33.324,M,,*7C
2017-12-14 12:01:00 1513270860.208182: $GPRMC,170101,A,3946.9593,N,08404.9257,W,1.2375,102.454,141217,,*32
2017-12-14 12:01:00 1513270860.208245: $GPGSA,A,3,21,15,18,20,24,,,,,,,,6.6,2.4,6.2*3A
2017-12-14 12:01:01 1513270861.208104: $GPZDA,170102.00,14,12,2017,00,00*61
2017-12-14 12:01:01 1513270861.208282: $GPGGA,170102,3946.9585,N,08404.9264,W,1,05,2.40,343.32,M,-33.324,M,,*73
2017-12-14 12:01:01 1513270861.208348: $GPRMC,170102,A,3946.9585,N,08404.9264,W,1.2375,102.454,141217,,*36
2017-12-14 12:01:01 1513270861.208412: $GPGSA,A,3,21,15,18,20,24,,,,,,,,6.6,2.4,6.2*3A
2017-12-14 12:01:02 1513270862.545539: $GPGSV,3,1,11,21,71,196,24,15,44,051,22,18,66,322,20,20,40,088,26*7C
2017-12-14 12:01:02 1513270862.545718: $GPGSV,3,2,11,24,46,121,24,10,35,295,00,27,19,297,00,32,15,234,00*70
2017-12-14 12:01:02 1513270862.545856: $GPGSV,3,3,11,13,14,046,00,08,03,328,00,138,38,213,00*7F
2017-12-14 12:01:02 1513270862.659274: $GPZDA,170103.00,14,12,2017,00,00*60
2017-12-14 12:01:02 1513270862.659459: $GPGGA,170103,3946.9585,N,08404.9257,W,1,05,2.40,343.40,M,-33.324,M,,*77
2017-12-14 12:01:02 1513270862.659527: $GPRMC,170103,A,3946.9585,N,08404.9257,W,1.0298,74.382,141217,,*0B
2017-12-14 12:01:02 1513270862.659589: $GPGSA,A,3,21,15,18,20,24,,,,,,,,6.6,2.4,6.2*3A
2017-12-14 12:01:03 1513270863.210328: $GPZDA,170104.00,14,12,2017,00,00*67
2017-12-14 12:01:03 1513270863.210498: $GPGGA,170104,3946.9585,N,08404.9264,W,1,05,2.40,343.32,M,-33.324,M,,*75
2017-12-14 12:01:03 1513270863.210564: $GPRMC,170104,A,3946.9585,N,08404.9264,W,0.7278,23.637,141217,,*0D
2017-12-14 12:01:03 1513270863.210626: $GPGSA,A,3,21,15,18,20,24,,,,,,,,6.6,2.4,6.2*3A
2017-12-14 12:01:04 1513270864.210435: $GPZDA,170105.00,14,12,2017,00,00*66
2017-12-14 12:01:04 1513270864.210609: $GPGGA,170105,3946.9589,N,08404.9264,W,1,05,2.40,342.56,M,-33.324,M,,*7B
2017-12-14 12:01:04 1513270864.210674: $GPRMC,170105,A,3946.9589,N,08404.9264,W,1.0567,17.448,141217,,*02
2017-12-14 12:01:04 1513270864.210736: $GPGSA,A,3,21,15,18,20,24,,,,,,,,6.6,2.4,6.2*3A
2017-12-14 12:01:05 1513270865.547536: $GPGSV,3,1,11,21,71,196,24,15,44,051,22,18,66,322,20,20,40,088,26*7C
2017-12-14 12:01:05 1513270865.547721: $GPGSV,3,2,11,24,46,121,24,27,19,297,15,10,35,295,00,32,15,234,00*74
2017-12-14 12:01:05 1513270865.547788: $GPGSV,3,3,11,13,14,046,00,08,03,328,00,138,38,213,00*7F
2017-12-14 12:01:05 1513270865.660940: $GPZDA,170106.00,14,12,2017,00,00*65
2017-12-14 12:01:05 1513270865.661102: $GPGGA,170106,3946.9601,N,08404.9263,W,1,06,2.40,343.07,M,-33.324,M,,*7A
2017-12-14 12:01:05 1513270865.661168: $GPRMC,170106,A,3946.9601,N,08404.9263,W,1.5738,12.547,141217,,*03
2017-12-14 12:01:05 1513270865.661230: $GPGSA,A,3,21,15,18,20,24,27,,,,,,,6.6,2.4,6.2*3F
2017-12-14 12:01:06 1513270866.209590: $GPZDA,170107.00,14,12,2017,00,00*64
2017-12-14 12:01:06 1513270866.209782: $GPGGA,170107,3946.9604,N,08404.9262,W,1,06,2.40,342.31,M,-33.324,M,,*7B
2017-12-14 12:01:06 1513270866.209853: $GPRMC,170107,A,3946.9604,N,08404.9262,W,1.9585,18.105,141217,,*06
2017-12-14 12:01:06 1513270866.209915: $GPGSA,A,3,21,15,18,20,24,27,,,,,,,6.6,2.4,6.2*3F
