2017-11-16 17:07:52 1510870072.291945: {"class":"VERSION","release":"3.17","rev":"3.17","proto_major":3,"proto_minor":12}
2017-11-16 17:07:52 1510870072.292432: {"class":"DEVICES","devices":[{"class":"DEVICE","path":"/dev/ttyUSB0","driver":"SiRF","subtype":"9\u0006GSD4e_4.1.2-P1_RPATCH.05-F-GPS-4R-1510281 11/03/2015 307","activated":"2017-11-16T22:07:52.288Z","flags":1,"native":1,"bps":4800,"parity":"N","stopbits":1,"cycle":1.00}]}
2017-11-16 17:07:52 1510870072.292557: {"class":"WATCH","enable":true,"json":false,"nmea":true,"raw":0,"scaled":false,"timing":false,"split24":false,"pps":false}
2017-11-16 17:07:52 1510870072.391925: $GPZDA,220751.00,16,11,2017,00,00*66
2017-11-16 17:07:52 1510870072.392104: $GPGGA,220751,3946.9572,N,08404.9819,W,2,12,0.80,313.53,M,-33.324,M,,*74
2017-11-16 17:07:52 1510870072.392166: $GPRMC,220751,A,3946.9572,N,08404.9819,W,0.0000,0.000,161117,,*3D
2017-11-16 17:07:52 1510870072.392221: $GPGSA,A,3,1,10,11,12,14,18,22,24,25,31,32,138,1.6,0.8,1.3*38
2017-11-16 17:07:53 1510870073.398417: $GPZDA,220752.00,16,11,2017,00,00*65
2017-11-16 17:07:53 1510870073.398580: $GPGGA,220752,3946.9572,N,08404.9819,W,2,12,0.80,313.53,M,-33.324,M,,*77
2017-11-16 17:07:53 1510870073.398641: $GPRMC,220752,A,3946.9572,N,08404.9819,W,0.0000,0.000,161117,,*3E
2017-11-16 17:07:53 1510870073.398697: $GPGSA,A,3,1,10,11,12,14,18,22,24,25,31,32,138,1.6,0.8,1.3*38
2017-11-16 17:07:54 1510870074.733604: $GPGSV,3,1,12,01,18,312,44,10,60,141,48,11,10,292,34,12,25,061,50*76
2017-11-16 17:07:54 1510870074.733772: $GPGSV,3,2,12,14,60,306,46,18,29,139,44,22,09,312,33,24,06,046,37*79
2017-11-16 17:07:54 1510870074.733832: $GPGSV,3,3,12,25,35,105,46,31,43,217,47,32,70,354,49,138,38,213,44*47
2017-11-16 17:07:54 1510870074.847490: $GPZDA,220753.00,16,11,2017,00,00*64
2017-11-16 17:07:54 1510870074.847655: $GPGGA,220753,3946.9572,N,08404.9819,W,2,12,0.80,313.53,M,-33.324,M,,*76
2017-11-16 17:07:54 1510870074.847719: $GPRMC,220753,A,3946.9572,N,08404.9819,W,0.0000,0.000,161117,,*3F
2017-11-16 17:07:54 1510870074.847775: $GPGSA,A,3,1,10,11,12,14,18,22,24,25,31,32,138,1.6,0.8,1.3*38
2017-11-16 17:07:55 1510870075.398443: $GPZDA,220754.00,16,11,2017,00,00*63
2017-11-16 17:07:55 1510870075.398624: $GPGGA,220754,3946.9572,N,08404.9819,W,2,12,0.80,313.53,M,-33.324,M,,*71
2017-11-16 17:07:55 1510870075.398687: $GPRMC,220754,A,3946.9572,N,08404.9819,W,0.0000,0.000,161117,,*38
2017-11-16 17:07:55 1510870075.398743: $GPGSA,A,3,1,10,11,12,14,18,22,24,25,31,32,138,1.6,0.8,1.3*38
2017-11-16 17:07:56 1510870076.391914: $GPZDA,220755.00,16,11,2017,00,00*62
2017-11-16 17:07:56 1510870076.392112: $GPGGA,220755,3946.9572,N,08404.9819,W,2,12,0.80,313.53,M,-33.324,M,,*70
2017-11-16 17:07:56 1510870076.392199: $GPRMC,220755,A,3946.9572,N,08404.9819,W,0.0000,0.000,161117,,*39
2017-11-16 17:07:56 1510870076.392258: $GPGSA,A,3,1,10,11,12,14,18,22,24,25,31,32,138,1.6,0.8,1.3*38
2017-11-16 17:07:57 1510870077.727739: $GPGSV,3,1,12,01,18,312,44,10,60,141,47,11,10,292,35,12,25,061,50*78
2017-11-16 17:07:57 1510870077.727907: $GPGSV,3,2,12,14,60,306,46,18,29,139,43,22,09,312,29,24,06,046,37*75
2017-11-16 17:07:57 1510870077.727967: $GPGSV,3,3,12,25,35,105,46,31,43,217,47,32,70,354,50,138,38,213,44*4F
2017-11-16 17:07:57 1510870077.841019: $GPZDA,220756.00,16,11,2017,00,00*61
2017-11-16 17:07:57 1510870077.841187: $GPGGA,220756,3946.9572,N,08404.9819,W,2,12,0.80,313.53,M,-33.324,M,,*73
2017-11-16 17:07:57 1510870077.841249: $GPRMC,220756,A,3946.9572,N,08404.9819,W,0.0000,0.000,161117,,*3A
2017-11-16 17:07:57 1510870077.841305: $GPGSA,A,3,1,10,11,12,14,18,22,24,25,31,32,138,1.6,0.8,1.3*38
2017-11-16 17:07:58 1510870078.396895: $GPZDA,220757.00,16,11,2017,00,00*60
2017-11-16 17:07:58 1510870078.397065: $GPGGA,220757,3946.9572,N,08404.9819,W,2,12,0.80,313.53,M,-33.324,M,,*72
2017-11-16 17:07:58 1510870078.397126: $GPRMC,220757,A,3946.9572,N,08404.9819,W,0.0000,0.000,161117,,*3B
2017-11-16 17:07:58 1510870078.397182: $GPGSA,A,3,1,10,11,12,14,18,22,24,25,31,32,138,1.6,0.8,1.3*38
2017-11-16 17:07:59 1510870079.397991: $GPZDA,220758.00,16,11,2017,00,00*6F
2017-11-16 17:07:59 1510870079.398236: $GPGGA,220758,3946.9572,N,08404.9819,W,2,12,0.80,313.53,M,-33.324,M,,*7D
2017-11-16 17:07:59 1510870079.398302: $GPRMC,220758,A,3946.9572,N,08404.9819,W,0.0000,0.000,161117,,*34
2017-11-16 17:07:59 1510870079.398364: $GPGSA,A,3,1,10,11,12,14,18,22,24,25,31,32,138,1.6,0.8,1.3*38
2017-11-16 17:08:00 1510870080.735121: $GPGSV,3,1,12,01,18,312,44,10,60,141,47,11,10,292,35,12,25,061,50*78
2017-11-16 17:08:00 1510870080.735321: $GPGSV,3,2,12,14,60,306,46,18,29,139,43,22,09,312,32,24,06,046,36*7E
2017-11-16 17:08:00 1510870080.735384: $GPGSV,3,3,12,25,35,105,46,31,43,217,47,32,70,354,50,138,38,213,43*48
2017-11-16 17:08:00 1510870080.846996: $GPZDA,220759.00,16,11,2017,00,00*6E
2017-11-16 17:08:00 1510870080.847170: $GPGGA,220759,3946.9572,N,08404.9819,W,2,12,0.80,313.53,M,-33.324,M,,*7C
2017-11-16 17:08:00 1510870080.847238: $GPRMC,220759,A,3946.9572,N,08404.9819,W,0.0000,0.000,161117,,*35
2017-11-16 17:08:00 1510870080.847294: $GPGSA,A,3,1,10,11,12,14,18,22,24,25,31,32,138,1.6,0.8,1.3*38
2017-11-16 17:08:01 1510870081.473681: $GPZDA,220800.00,16,11,2017,00,00*6D
2017-11-16 17:08:01 1510870081.473890: $GPGGA,220800,3946.9572,N,08404.9819,W,2,12,0.80,313.53,M,-33.324,M,,*7F
2017-11-16 17:08:01 1510870081.473981: $GPRMC,220800,A,3946.9572,N,08404.9819,W,0.0000,0.000,161117,,*36
2017-11-16 17:08:01 1510870081.474040: $GPGSA,A,3,1,10,11,12,14,18,22,24,25,31,32,138,1.6,0.8,1.3*38
