2017-12-01 16:03:40 1512162220.437070: {"class":"VERSION","release":"3.16","rev":"3.16-4","proto_major":3,"proto_minor":11}
2017-12-01 16:03:40 1512162220.437511: {"class":"DEVICES","devices":[{"class":"DEVICE","path":"/dev/ttyUSB0","driver":"SiRF","subtype":"9\u0006GSD4e_4.1.2-P1_RPATCH.05-F-GPS-4R-1510281 11/03/2015 307","activated":"2017-12-01T21:03:40.039Z","flags":1,"native":1,"bps":4800,"parity":"N","stopbits":1,"cycle":1.00}]}
2017-12-01 16:03:40 1512162220.437649: {"class":"WATCH","enable":true,"json":false,"nmea":true,"raw":0,"scaled":false,"timing":false,"split24":false,"pps":false}
2017-12-01 16:03:40 1512162220.643945: $GPZDA,210341.31,01,12,2017,00,00*67
2017-12-01 16:03:40 1512162220.644114: $GPGGA,210341,3946.9586,N,08404.9808,W,1,12,1.00,319.82,M,-33.324,M,,*75
2017-12-01 16:03:40 1512162220.644181: $GPRMC,210341,A,3946.9586,N,08404.9808,W,0.3735,180.000,011217,,*3E
2017-12-01 16:03:40 1512162220.644242: $GPGSA,A,3,1,10,11,12,14,18,25,31,32,22,24,138,2.0,1.0,1.5*32
2017-12-01 16:03:42 1512162222.061704: $GPGSV,3,1,12,10,61,141,38,11,10,294,30,12,25,061,34,14,60,304,37*78
2017-12-01 16:03:42 1512162222.061985: $GPGSV,3,2,12,18,29,139,34,22,09,312,31,25,35,106,38,31,44,216,38*7F
2017-12-01 16:03:42 1512162222.062057: $GPGSV,3,3,12,32,70,354,38,01,18,312,00,24,07,046,00,138,38,213,00*4F
2017-12-01 16:03:42 1512162222.175220: $GPZDA,210341.99,01,12,2017,00,00*65
2017-12-01 16:03:42 1512162222.175365: $GPGGA,210341,3946.9586,N,08404.9808,W,1,09,1.00,319.82,M,-33.324,M,,*7F
2017-12-01 16:03:42 1512162222.175432: $GPRMC,210341,A,3946.9586,N,08404.9808,W,0.0407,142.013,011217,,*33
2017-12-01 16:03:42 1512162222.175493: $GPGSA,A,3,10,11,12,14,18,22,25,31,32,,,,2.0,1.0,1.5*3F
2017-12-01 16:03:42 1512162222.981536: $GPZDA,210343.00,01,12,2017,00,00*67
2017-12-01 16:03:42 1512162222.981723: $GPGGA,210343,3946.9586,N,08404.9808,W,1,09,0.80,319.82,M,-33.324,M,,*74
2017-12-01 16:03:42 1512162222.981791: $GPRMC,210343,A,3946.9586,N,08404.9808,W,0.1567,9.200,011217,,*39
2017-12-01 16:03:42 1512162222.981852: $GPGSA,A,3,10,11,12,14,18,22,25,31,32,,,,2.0,0.8,1.5*36
2017-12-01 16:03:42 1512162222.981911: $GPGBS,210343,10.70,M,15.43,M,35.28,M*00
2017-12-01 16:03:43 1512162223.270316: $GPZDA,210344.00,01,12,2017,00,00*60
2017-12-01 16:03:43 1512162223.270501: $GPGGA,210344,3946.9581,N,08404.9808,W,1,09,0.80,319.18,M,-33.324,M,,*77
2017-12-01 16:03:43 1512162223.270569: $GPRMC,210344,A,3946.9581,N,08404.9808,W,0.0407,142.013,011217,,*31
2017-12-01 16:03:43 1512162223.270630: $GPGSA,A,3,10,11,12,14,18,22,25,31,32,,,,2.0,0.8,1.5*36
2017-12-01 16:03:43 1512162223.270688: $GPGBS,210344,10.70,M,15.43,M,35.28,M*07
2017-12-01 16:03:44 1512162224.771020: $GPGSV,3,1,12,10,61,141,48,11,10,294,38,12,25,061,43,14,60,304,46*71
2017-12-01 16:03:44 1512162224.771201: $GPGSV,3,2,12,18,29,139,42,22,09,312,39,25,35,106,48,31,44,216,48*76
2017-12-01 16:03:44 1512162224.771285: $GPGSV,3,3,12,32,70,354,47,01,18,312,33,24,07,046,28,138,38,213,46*4F
2017-12-01 16:03:44 1512162224.884408: $GPZDA,210345.00,01,12,2017,00,00*61
2017-12-01 16:03:44 1512162224.884600: $GPGGA,210345,3946.9585,N,08404.9807,W,1,12,0.80,318.42,M,-33.324,M,,*79
2017-12-01 16:03:44 1512162224.884668: $GPRMC,210345,A,3946.9585,N,08404.9807,W,0.0000,0.000,011217,,*3D
2017-12-01 16:03:44 1512162224.884729: $GPGSA,A,3,10,11,12,14,18,22,25,31,32,1,24,138,2.0,0.8,1.5*3B
2017-12-01 16:03:45 1512162225.509788: $GPZDA,210346.00,01,12,2017,00,00*62
2017-12-01 16:03:45 1512162225.513738: $GPGGA,210346,3946.9585,N,08404.9814,W,1,12,0.80,318.34,M,-33.324,M,,*79
2017-12-01 16:03:45 1512162225.513872: $GPRMC,210346,A,3946.9585,N,08404.9814,W,0.0000,0.000,011217,,*3C
2017-12-01 16:03:45 1512162225.513942: $GPGSA,A,3,10,11,12,14,18,22,25,31,32,1,24,138,2.0,0.8,1.5*3B
2017-12-01 16:03:46 1512162226.436808: $GPZDA,210347.00,01,12,2017,00,00*63
2017-12-01 16:03:46 1512162226.436985: $GPGGA,210347,3946.9568,N,08404.9826,W,2,12,1.20,312.81,M,-33.324,M,,*76
2017-12-01 16:03:46 1512162226.437056: $GPRMC,210347,A,3946.9568,N,08404.9826,W,0.0000,0.000,011217,,*3F
2017-12-01 16:03:46 1512162226.437121: $GPGSA,A,3,10,11,12,14,18,22,25,31,32,1,24,138,2.0,1.2,1.5*30
2017-12-01 16:03:46 1512162226.437235: $GPGBS,210347,2.67,M,3.86,M,8.82,M*31
2017-12-01 16:03:47 1512162227.772551: $GPGSV,3,1,12,10,61,141,48,11,10,294,39,12,25,061,44,14,60,304,45*74
2017-12-01 16:03:47 1512162227.772732: $GPGSV,3,2,12,18,29,139,42,22,09,312,37,25,35,106,47,31,44,216,49*76
2017-12-01 16:03:47 1512162227.772799: $GPGSV,3,3,12,32,70,354,47,01,18,312,33,24,07,046,27,138,38,213,47*41
2017-12-01 16:03:47 1512162227.885904: $GPZDA,210348.00,01,12,2017,00,00*6C
2017-12-01 16:03:47 1512162227.886066: $GPGGA,210348,3946.9568,N,08404.9826,W,2,12,0.80,312.81,M,-33.324,M,,*72
2017-12-01 16:03:47 1512162227.886132: $GPRMC,210348,A,3946.9568,N,08404.9826,W,0.0000,0.000,011217,,*30
2017-12-01 16:03:47 1512162227.886194: $GPGSA,A,3,10,11,12,14,18,22,25,31,32,1,24,138,2.0,0.8,1.5*3B
2017-12-01 16:03:48 1512162228.439264: $GPZDA,210349.00,01,12,2017,00,00*6D
2017-12-01 16:03:48 1512162228.439440: $GPGGA,210349,3946.9574,N,08404.9831,W,2,12,0.80,309.80,M,-33.324,M,,*73
2017-12-01 16:03:48 1512162228.439506: $GPRMC,210349,A,3946.9574,N,08404.9831,W,0.0000,0.000,011217,,*3A
2017-12-01 16:03:48 1512162228.439567: $GPGSA,A,3,10,11,12,14,18,22,25,31,32,1,24,138,2.0,0.8,1.5*3B
2017-12-01 16:03:49 1512162229.434201: $GPZDA,210350.00,01,12,2017,00,00*65
2017-12-01 16:03:49 1512162229.434373: $GPGGA,210350,3946.9574,N,08404.9831,W,2,12,0.80,309.80,M,-33.324,M,,*7B
2017-12-01 16:03:49 1512162229.434441: $GPRMC,210350,A,3946.9574,N,08404.9831,W,0.0000,0.000,011217,,*32
2017-12-01 16:03:49 1512162229.434503: $GPGSA,A,3,10,11,12,14,18,22,25,31,32,1,24,138,2.0,0.8,1.5*3B
2017-12-01 16:03:50 1512162230.776612: $GPGSV,3,1,12,10,61,141,49,11,10,294,39,12,25,061,44,14,60,304,45*75
2017-12-01 16:03:50 1512162230.779621: $GPGSV,3,2,12,18,29,139,43,22,09,312,38,25,35,106,48,31,44,216,49*77
2017-12-01 16:03:50 1512162230.779729: $GPGSV,3,3,12,32,70,354,47,01,18,312,33,24,07,046,27,138,38,213,46*40
2017-12-01 16:03:50 1512162230.890059: $GPZDA,210351.00,01,12,2017,00,00*64
2017-12-01 16:03:50 1512162230.890234: $GPGGA,210351,3946.9574,N,08404.9831,W,2,12,0.80,309.80,M,-33.324,M,,*7A
2017-12-01 16:03:50 1512162230.890300: $GPRMC,210351,A,3946.9574,N,08404.9831,W,0.0000,0.000,011217,,*33
2017-12-01 16:03:50 1512162230.890361: $GPGSA,A,3,10,11,12,14,18,22,25,31,32,1,24,138,2.0,0.8,1.5*3B
2017-12-01 16:03:51 1512162231.441413: $GPZDA,210352.00,01,12,2017,00,00*67
2017-12-01 16:03:51 1512162231.441582: $GPGGA,210352,3946.9574,N,08404.9831,W,2,12,0.80,309.80,M,-33.324,M,,*79
2017-12-01 16:03:51 1512162231.441648: $GPRMC,210352,A,3946.9574,N,08404.9831,W,0.0000,0.000,011217,,*30
2017-12-01 16:03:51 1512162231.441709: $GPGSA,A,3,10,11,12,14,18,22,25,31,32,1,24,138,2.0,0.8,1.5*3B
2017-12-01 16:03:52 1512162232.440546: $GPZDA,210353.00,01,12,2017,00,00*66
2017-12-01 16:03:52 1512162232.440725: $GPGGA,210353,3946.9574,N,08404.9831,W,2,12,0.80,309.80,M,-33.324,M,,*78
2017-12-01 16:03:52 1512162232.440794: $GPRMC,210353,A,3946.9574,N,08404.9831,W,0.0000,0.000,011217,,*31
2017-12-01 16:03:52 1512162232.440855: $GPGSA,A,3,10,11,12,14,18,22,25,31,32,1,24,138,2.0,0.8,1.5*3B
2017-12-01 16:03:53 1512162233.775053: $GPGSV,3,1,12,10,61,141,48,11,10,294,40,12,25,061,44,14,60,304,45*7A
2017-12-01 16:03:53 1512162233.775250: $GPGSV,3,2,12,18,29,139,43,22,09,312,37,25,35,106,48,31,44,216,49*78
2017-12-01 16:03:53 1512162233.775317: $GPGSV,3,3,12,32,70,354,47,01,18,312,33,24,07,046,26,138,38,213,46*41
2017-12-01 16:03:53 1512162233.888468: $GPZDA,210354.00,01,12,2017,00,00*61
2017-12-01 16:03:53 1512162233.888619: $GPGGA,210354,3946.9574,N,08404.9831,W,2,12,0.80,309.80,M,-33.324,M,,*7F
2017-12-01 16:03:53 1512162233.888707: $GPRMC,210354,A,3946.9574,N,08404.9831,W,0.0000,0.000,011217,,*36
2017-12-01 16:03:53 1512162233.888784: $GPGSA,A,3,10,11,12,14,18,22,25,31,32,1,24,138,2.0,0.8,1.5*3B
2017-12-01 16:03:54 1512162234.441903: $GPZDA,210355.00,01,12,2017,00,00*60
2017-12-01 16:03:54 1512162234.442073: $GPGGA,210355,3946.9574,N,08404.9831,W,2,12,0.80,309.80,M,-33.324,M,,*7E
2017-12-01 16:03:54 1512162234.442190: $GPRMC,210355,A,3946.9574,N,08404.9831,W,0.0000,0.000,011217,,*37
2017-12-01 16:03:54 1512162234.442253: $GPGSA,A,3,10,11,12,14,18,22,25,31,32,1,24,138,2.0,0.8,1.5*3B
2017-12-01 16:03:55 1512162235.441339: $GPZDA,210356.00,01,12,2017,00,00*63
2017-12-01 16:03:55 1512162235.441577: $GPGGA,210356,3946.9574,N,08404.9831,W,2,12,0.80,309.80,M,-33.324,M,,*7D
2017-12-01 16:03:55 1512162235.441665: $GPRMC,210356,A,3946.9574,N,08404.9831,W,0.0000,0.000,011217,,*34
2017-12-01 16:03:55 1512162235.441729: $GPGSA,A,3,10,11,12,14,18,22,25,31,32,1,24,138,2.0,0.8,1.5*3B
2017-12-01 16:03:56 1512162236.770422: $GPGSV,3,1,12,10,61,141,48,11,10,294,39,12,25,061,45,14,60,304,45*75
2017-12-01 16:03:56 1512162236.770606: $GPGSV,3,2,12,18,29,139,43,22,09,312,38,25,35,106,48,31,44,216,49*77
2017-12-01 16:03:56 1512162236.770699: $GPGSV,3,3,12,32,70,354,46,01,18,312,33,24,07,046,26,138,38,213,47*41
2017-12-01 16:03:56 1512162236.884160: $GPZDA,210357.00,01,12,2017,00,00*62
2017-12-01 16:03:56 1512162236.884329: $GPGGA,210357,3946.9574,N,08404.9831,W,2,12,0.80,309.80,M,-33.324,M,,*7C
2017-12-01 16:03:56 1512162236.884396: $GPRMC,210357,A,3946.9574,N,08404.9831,W,0.0000,0.000,011217,,*35
2017-12-01 16:03:56 1512162236.884457: $GPGSA,A,3,10,11,12,14,18,22,25,31,32,1,24,138,2.0,0.8,1.5*3B
2017-12-01 16:03:57 1512162237.439633: $GPZDA,210358.00,01,12,2017,00,00*6D
2017-12-01 16:03:57 1512162237.439808: $GPGGA,210358,3946.9574,N,08404.9831,W,2,12,0.80,309.80,M,-33.324,M,,*73
2017-12-01 16:03:57 1512162237.439876: $GPRMC,210358,A,3946.9574,N,08404.9831,W,0.0000,0.000,011217,,*3A
2017-12-01 16:03:57 1512162237.439937: $GPGSA,A,3,10,11,12,14,18,22,25,31,32,1,24,138,2.0,0.8,1.5*3B
2017-12-01 16:03:58 1512162238.440461: $GPZDA,210359.00,01,12,2017,00,00*6C
2017-12-01 16:03:58 1512162238.440658: $GPGGA,210359,3946.9574,N,08404.9831,W,2,12,0.80,309.80,M,-33.324,M,,*72
2017-12-01 16:03:58 1512162238.440727: $GPRMC,210359,A,3946.9574,N,08404.9831,W,0.0000,0.000,011217,,*3B
2017-12-01 16:03:58 1512162238.440806: $GPGSA,A,3,10,11,12,14,18,22,25,31,32,1,24,138,2.0,0.8,1.5*3B
2017-12-01 16:03:58 1512162238.440867: $GPGBS,210359,2.67,M,3.86,M,8.82,M*3E
2017-12-01 16:03:59 1512162239.776118: $GPGSV,3,1,12,10,61,141,49,11,10,294,38,12,25,061,45,14,60,304,46*76
2017-12-01 16:03:59 1512162239.776300: $GPGSV,3,2,12,18,29,139,43,22,09,312,39,25,35,106,48,31,44,216,49*76
2017-12-01 16:03:59 1512162239.776367: $GPGSV,3,3,12,32,70,354,46,01,18,312,33,24,07,046,25,138,38,213,46*43
2017-12-01 16:03:59 1512162239.889460: $GPZDA,210400.00,01,12,2017,00,00*67
2017-12-01 16:03:59 1512162239.889645: $GPGGA,210400,3946.9574,N,08404.9831,W,2,12,0.80,309.80,M,-33.324,M,,*79
2017-12-01 16:03:59 1512162239.889712: $GPRMC,210400,A,3946.9574,N,08404.9831,W,0.0000,0.000,011217,,*30
2017-12-01 16:03:59 1512162239.889789: $GPGSA,A,3,10,11,12,14,18,22,25,31,32,1,24,138,2.0,0.8,1.5*3B
