2017-12-01 11:49:19 1512146959.617925: {"class":"VERSION","release":"3.16","rev":"3.16-4","proto_major":3,"proto_minor":11}
2017-12-01 11:49:19 1512146959.618494: {"class":"DEVICES","devices":[{"class":"DEVICE","path":"/dev/ttyUSB0","driver":"SiRF","subtype":"9\u0006GSD4e_4.1.2-P1_RPATCH.05-F-GPS-4R-1510281 11/03/2015 307","activated":"2017-12-01T16:49:19.249Z","flags":1,"native":1,"bps":4800,"parity":"N","stopbits":1,"cycle":1.00}]}
2017-12-01 11:49:19 1512146959.618698: {"class":"WATCH","enable":true,"json":false,"nmea":true,"raw":0,"scaled":false,"timing":false,"split24":false,"pps":false}
2017-12-01 11:49:19 1512146959.855314: $GPZDA,164920.54,01,12,2017,00,00*69
2017-12-01 11:49:19 1512146959.855490: $GPGGA,164920,3946.9580,N,08404.9848,W,1,11,1.00,303.82,M,-33.324,M,,*72
2017-12-01 11:49:19 1512146959.855556: $GPRMC,164920,A,3946.9580,N,08404.9848,W,0.4583,89.997,011217,,*06
2017-12-01 11:49:19 1512146959.855618: $GPGSA,A,3,10,13,15,18,20,21,24,27,29,5,138,,2.0,1.0,1.5*3D
2017-12-01 11:49:21 1512146961.124524: $GPGSV,3,1,12,13,40,048,38,15,73,064,37,18,45,288,36,20,60,055,34*73
2017-12-01 11:49:21 1512146961.124721: $GPGSV,3,2,12,21,69,303,37,24,22,147,36,27,10,322,34,29,22,193,36*77
2017-12-01 11:49:21 1512146961.124789: $GPGSV,3,3,12,10,15,274,07,05,12,079,00,04,10,132,00,138,38,213,00*45
2017-12-01 11:49:21 1512146961.236890: $GPZDA,164921.23,01,12,2017,00,00*68
2017-12-01 11:49:21 1512146961.237029: $GPGGA,164921,3946.9576,N,08404.9848,W,1,08,1.00,303.18,M,-33.324,M,,*71
2017-12-01 11:49:21 1512146961.237095: $GPRMC,164921,A,3946.9576,N,08404.9848,W,0.3155,129.994,011217,,*3E
2017-12-01 11:49:21 1512146961.237173: $GPGSA,A,3,13,15,18,20,21,24,27,29,,,,,2.0,1.0,1.5*33
2017-12-01 11:49:22 1512146962.044463: $GPZDA,164922.00,01,12,2017,00,00*6A
2017-12-01 11:49:22 1512146962.044634: $GPGGA,164922,3946.9580,N,08404.9848,W,1,08,0.80,302.41,M,-33.324,M,,*7F
2017-12-01 11:49:22 1512146962.044702: $GPRMC,164922,A,3946.9580,N,08404.9848,W,0.3006,62.539,011217,,*06
2017-12-01 11:49:22 1512146962.044763: $GPGSA,A,3,13,15,18,20,21,24,27,29,,,,,2.0,0.8,1.5*3A
2017-12-01 11:49:22 1512146962.044821: $GPGBS,164922,10.70,M,15.43,M,35.28,M*0D
2017-12-01 11:49:22 1512146962.495574: $GPZDA,164923.00,01,12,2017,00,00*6B
2017-12-01 11:49:22 1512146962.495745: $GPGGA,164923,3946.9579,N,08404.9847,W,1,08,0.80,301.01,M,-33.324,M,,*70
2017-12-01 11:49:22 1512146962.495812: $GPRMC,164923,A,3946.9579,N,08404.9847,W,0.0000,0.000,011217,,*30
2017-12-01 11:49:22 1512146962.495873: $GPGSA,A,3,13,15,18,20,21,24,27,29,,,,,2.0,0.8,1.5*3A
2017-12-01 11:49:22 1512146962.495930: $GPGBS,164923,10.70,M,15.43,M,35.28,M*0C
2017-12-01 11:49:23 1512146963.686000: $GPGSV,3,1,12,13,40,048,47,15,73,064,45,18,45,288,46,20,60,055,42*78
2017-12-01 11:49:23 1512146963.686185: $GPGSV,3,2,12,21,69,303,47,24,22,147,45,27,10,322,41,29,22,193,45*72
2017-12-01 11:49:23 1512146963.686252: $GPGSV,3,3,12,10,15,274,33,04,10,132,05,05,12,079,00,138,38,213,31*45
2017-12-01 11:49:23 1512146963.799414: $GPZDA,164924.00,01,12,2017,00,00*6C
2017-12-01 11:49:23 1512146963.799585: $GPGGA,164924,3946.9579,N,08404.9847,W,1,10,0.80,301.01,M,-33.324,M,,*7E
2017-12-01 11:49:23 1512146963.799651: $GPRMC,164924,A,3946.9579,N,08404.9847,W,0.0000,0.000,011217,,*37
2017-12-01 11:49:23 1512146963.799712: $GPGSA,A,3,13,15,18,20,21,24,27,29,10,138,,,2.0,0.8,1.5*01
2017-12-01 11:49:24 1512146964.424735: $GPZDA,164925.00,01,12,2017,00,00*6D
2017-12-01 11:49:24 1512146964.424917: $GPGGA,164925,3946.9582,N,08404.9846,W,1,10,0.80,300.25,M,-33.324,M,,*7D
2017-12-01 11:49:24 1512146964.425003: $GPRMC,164925,A,3946.9582,N,08404.9846,W,0.0000,0.000,011217,,*33
2017-12-01 11:49:24 1512146964.425067: $GPGSA,A,3,13,15,18,20,21,24,27,29,10,138,,,2.0,0.8,1.5*01
2017-12-01 11:49:25 1512146965.353230: $GPZDA,164926.00,01,12,2017,00,00*6E
2017-12-01 11:49:25 1512146965.353393: $GPGGA,164926,3946.9582,N,08404.9846,W,1,10,0.80,300.25,M,-33.324,M,,*7E
2017-12-01 11:49:25 1512146965.353460: $GPRMC,164926,A,3946.9582,N,08404.9846,W,0.0000,0.000,011217,,*30
2017-12-01 11:49:25 1512146965.353520: $GPGSA,A,3,13,15,18,20,21,24,27,29,10,138,,,2.0,0.8,1.5*01
2017-12-01 11:49:26 1512146966.682456: $GPGSV,3,1,12,13,40,048,47,15,73,064,45,18,45,288,46,20,60,055,42*78
2017-12-01 11:49:26 1512146966.682612: $GPGSV,3,2,12,21,69,303,47,24,22,147,44,27,10,322,40,29,22,193,44*73
2017-12-01 11:49:26 1512146966.682677: $GPGSV,3,3,12,10,15,274,34,04,10,132,00,05,12,079,17,138,38,213,47*40
2017-12-01 11:49:26 1512146966.795855: $GPZDA,164927.00,01,12,2017,00,00*6F
2017-12-01 11:49:26 1512146966.796024: $GPGGA,164927,3946.9582,N,08404.9845,W,1,11,0.80,298.84,M,-33.324,M,,*76
2017-12-01 11:49:26 1512146966.796090: $GPRMC,164927,A,3946.9582,N,08404.9845,W,0.0000,0.000,011217,,*32
2017-12-01 11:49:26 1512146966.796152: $GPGSA,A,3,13,15,18,20,21,24,27,29,10,5,138,,2.0,0.8,1.5*34
2017-12-01 11:49:27 1512146967.346986: $GPZDA,164928.00,01,12,2017,00,00*60
2017-12-01 11:49:27 1512146967.347158: $GPGGA,164928,3946.9582,N,08404.9845,W,1,11,0.80,298.84,M,-33.324,M,,*79
2017-12-01 11:49:27 1512146967.347225: $GPRMC,164928,A,3946.9582,N,08404.9845,W,0.0000,0.000,011217,,*3D
2017-12-01 11:49:27 1512146967.347285: $GPGSA,A,3,13,15,18,20,21,24,27,29,10,5,138,,2.0,0.8,1.5*34
2017-12-01 11:49:28 1512146968.347940: $GPZDA,164929.00,01,12,2017,00,00*61
2017-12-01 11:49:28 1512146968.348132: $GPGGA,164929,3946.9586,N,08404.9842,W,2,11,1.00,293.10,M,-33.324,M,,*77
2017-12-01 11:49:28 1512146968.348203: $GPRMC,164929,A,3946.9586,N,08404.9842,W,0.0000,0.000,011217,,*3F
2017-12-01 11:49:28 1512146968.348268: $GPGSA,A,3,13,15,18,20,21,24,27,29,10,5,138,,2.0,1.0,1.5*3D
