2018-01-11 20:17:42 1515719862.093561: {"class":"VERSION","release":"3.16","rev":"3.16-4","proto_major":3,"proto_minor":11}
2018-01-11 20:17:42 1515719862.093945: {"class":"DEVICES","devices":[{"class":"DEVICE","path":"/dev/ttyUSB0","driver":"SiRF","subtype":"9\u0006GSD4e_4.1.2-P1_RPATCH.05-F-GPS-4R-1510281 11/03/2015 307","activated":"2018-01-12T01:17:42.094Z","flags":1,"native":1,"bps":4800,"parity":"N","stopbits":1,"cycle":1.00}]}
2018-01-11 20:17:42 1515719862.094077: {"class":"WATCH","enable":true,"json":false,"nmea":true,"raw":0,"scaled":false,"timing":false,"split24":false,"pps":false}
2018-01-11 20:17:42 1515719862.206972: $GPZDA,011742.90,12,01,2018,00,00*67
2018-01-11 20:17:42 1515719862.207133: $GPGGA,011742,3946.9544,N,08404.9796,W,1,10,0.80,305.72,M,-33.324,M,,*7E
2018-01-11 20:17:42 1515719862.207198: $GPRMC,011742,A,3946.9544,N,08404.9796,W,0.4137,224.854,120118,,*34
2018-01-11 20:17:42 1515719862.207258: $GPGSA,A,3,7,8,9,11,16,23,27,30,28,138,,,4.0,0.8,3.5*3E
2018-01-11 20:17:43 1515719863.266072: $GPZDA,011743.39,12,01,2018,00,00*65
2018-01-11 20:17:43 1515719863.266233: $GPGGA,011743,3946.9544,N,08404.9796,W,1,10,0.80,305.72,M,-33.324,M,,*7F
2018-01-11 20:17:43 1515719863.266300: $GPRMC,011743,A,3946.9544,N,08404.9796,W,0.0000,0.000,120118,,*39
2018-01-11 20:17:43 1515719863.266360: $GPGSA,A,3,7,8,9,11,16,23,27,30,28,138,,,4.0,0.8,3.5*3E
2018-01-11 20:17:43 1515719863.266417: $GPGBS,011743,14.62,M,24.83,M,80.38,M*01
2018-01-11 20:17:44 1515719864.384784: $GPGSV,3,1,11,07,58,315,43,08,75,118,45,09,45,226,42,11,23,166,47*79
2018-01-11 20:17:44 1515719864.384945: $GPGSV,3,2,11,16,21,061,41,23,26,189,49,27,45,051,50,28,16,261,41*7E
2018-01-11 20:17:44 1515719864.385010: $GPGSV,3,3,11,30,32,307,38,01,01,162,00,138,38,213,00*70
2018-01-11 20:17:44 1515719864.498240: $GPZDA,011744.00,12,01,2018,00,00*68
2018-01-11 20:17:44 1515719864.498413: $GPGGA,011744,3946.9544,N,08404.9796,W,1,09,0.80,305.72,M,-33.324,M,,*70
2018-01-11 20:17:44 1515719864.498479: $GPRMC,011744,A,3946.9544,N,08404.9796,W,0.0000,0.000,120118,,*3E
2018-01-11 20:17:44 1515719864.498540: $GPGSA,A,3,7,8,9,11,16,23,27,28,30,,,,4.0,0.8,3.5*04
2018-01-11 20:17:44 1515719864.950494: $GPZDA,011745.00,12,01,2018,00,00*69
2018-01-11 20:17:44 1515719864.950675: $GPGGA,011745,3946.9551,N,08404.9796,W,1,09,0.80,305.59,M,-33.324,M,,*7C
2018-01-11 20:17:44 1515719864.950742: $GPRMC,011745,A,3946.9551,N,08404.9796,W,0.0000,0.000,120118,,*3B
2018-01-11 20:17:44 1515719864.950803: $GPGSA,A,3,7,8,9,11,16,23,27,28,30,,,,4.0,0.8,3.5*04
2018-01-11 20:17:45 1515719865.414982: $GPZDA,011746.00,12,01,2018,00,00*6A
2018-01-11 20:17:45 1515719865.415142: $GPGGA,011746,3946.9552,N,08404.9802,W,1,09,0.80,305.51,M,-33.324,M,,*76
2018-01-11 20:17:45 1515719865.415209: $GPRMC,011746,A,3946.9552,N,08404.9802,W,0.0000,0.000,120118,,*39
2018-01-11 20:17:45 1515719865.415269: $GPGSA,A,3,7,8,9,11,16,23,27,28,30,,,,4.0,0.8,3.5*04
2018-01-11 20:17:46 1515719866.742625: $GPGSV,3,1,11,07,58,315,43,08,75,118,46,09,45,226,43,11,23,166,47*7B
2018-01-11 20:17:46 1515719866.742790: $GPGSV,3,2,11,16,21,061,42,23,26,189,48,27,45,051,50,28,16,261,41*7C
2018-01-11 20:17:46 1515719866.742856: $GPGSV,3,3,11,30,32,307,39,01,01,162,16,138,38,213,46*74
2018-01-11 20:17:46 1515719866.856000: $GPZDA,011747.00,12,01,2018,00,00*6B
2018-01-11 20:17:46 1515719866.856130: $GPGGA,011747,3946.9552,N,08404.9802,W,1,11,0.80,305.51,M,-33.324,M,,*7E
2018-01-11 20:17:46 1515719866.856195: $GPRMC,011747,A,3946.9552,N,08404.9802,W,0.0000,0.000,120118,,*38
2018-01-11 20:17:46 1515719866.856255: $GPGSA,A,3,7,8,9,11,16,23,27,28,30,1,138,,4.0,0.8,3.5*0F
2018-01-11 20:17:47 1515719867.407203: $GPZDA,011748.00,12,01,2018,00,00*64
2018-01-11 20:17:47 1515719867.407374: $GPGGA,011748,3946.9559,N,08404.9802,W,1,11,0.80,305.39,M,-33.324,M,,*74
2018-01-11 20:17:47 1515719867.407440: $GPRMC,011748,A,3946.9559,N,08404.9802,W,0.0000,0.000,120118,,*3C
2018-01-11 20:17:47 1515719867.407500: $GPGSA,A,3,7,8,9,11,16,23,27,28,30,1,138,,4.0,0.8,3.5*0F
2018-01-11 20:17:48 1515719868.407985: $GPZDA,011749.00,12,01,2018,00,00*65
2018-01-11 20:17:48 1515719868.408195: $GPGGA,011749,3946.9559,N,08404.9802,W,1,11,0.80,305.39,M,-33.324,M,,*75
2018-01-11 20:17:48 1515719868.408263: $GPRMC,011749,A,3946.9559,N,08404.9802,W,0.0000,0.000,120118,,*3D
2018-01-11 20:17:48 1515719868.408324: $GPGSA,A,3,7,8,9,11,16,23,27,28,30,1,138,,4.0,0.8,3.5*0F
2018-01-11 20:17:48 1515719868.408382: $GPGBS,011749,14.62,M,24.83,M,80.38,M*0B
2018-01-11 20:17:49 1515719869.740911: $GPGSV,3,1,11,07,58,315,44,08,75,118,46,09,45,226,43,11,23,166,47*7C
2018-01-11 20:17:49 1515719869.741101: $GPGSV,3,2,11,16,21,061,42,23,26,189,48,27,45,051,50,28,16,261,41*7C
2018-01-11 20:17:49 1515719869.741171: $GPGSV,3,3,11,30,32,307,38,01,01,162,18,138,38,213,45*78
2018-01-11 20:17:49 1515719869.854522: $GPZDA,011750.00,12,01,2018,00,00*6D
2018-01-11 20:17:49 1515719869.854676: $GPGGA,011750,3946.9559,N,08404.9802,W,1,11,0.80,305.39,M,-33.324,M,,*7D
2018-01-11 20:17:49 1515719869.854745: $GPRMC,011750,A,3946.9559,N,08404.9802,W,0.0000,0.000,120118,,*35
2018-01-11 20:17:49 1515719869.854808: $GPGSA,A,3,7,8,9,11,16,23,27,28,30,1,138,,4.0,0.8,3.5*0F
2018-01-11 20:17:50 1515719870.406688: $GPZDA,011751.00,12,01,2018,00,00*6C
2018-01-11 20:17:50 1515719870.406882: $GPGGA,011751,3946.9563,N,08404.9808,W,1,11,0.80,304.54,M,-33.324,M,,*75
2018-01-11 20:17:50 1515719870.406973: $GPRMC,011751,A,3946.9563,N,08404.9808,W,0.0000,0.000,120118,,*37
2018-01-11 20:17:50 1515719870.407039: $GPGSA,A,3,7,8,9,11,16,23,27,28,30,1,138,,4.0,0.8,3.5*0F
2018-01-11 20:17:51 1515719871.407019: $GPZDA,011752.00,12,01,2018,00,00*6F
2018-01-11 20:17:51 1515719871.407187: $GPGGA,011752,3946.9582,N,08404.9813,W,2,11,2.60,303.45,M,-33.324,M,,*7B
2018-01-11 20:17:51 1515719871.407257: $GPRMC,011752,A,3946.9582,N,08404.9813,W,0.0000,0.000,120118,,*31
2018-01-11 20:17:51 1515719871.407320: $GPGSA,A,3,7,8,9,11,16,23,27,28,30,1,138,,4.0,2.6,3.5*03
2018-01-11 20:17:52 1515719872.743724: $GPGSV,3,1,11,07,58,315,44,08,75,118,46,09,45,226,43,11,23,166,47*7C
2018-01-11 20:17:52 1515719872.743889: $GPGSV,3,2,11,16,21,061,41,23,26,189,48,27,45,051,49,28,16,261,41*77
2018-01-11 20:17:52 1515719872.743958: $GPGSV,3,3,11,30,32,307,38,01,01,162,00,138,38,213,46*72
2018-01-11 20:17:52 1515719872.857178: $GPZDA,011753.00,12,01,2018,00,00*6E
2018-01-11 20:17:52 1515719872.857309: $GPGGA,011753,3946.9582,N,08404.9813,W,2,10,1.40,303.45,M,-33.324,M,,*7A
2018-01-11 20:17:52 1515719872.857378: $GPRMC,011753,A,3946.9582,N,08404.9813,W,0.0000,0.000,120118,,*30
2018-01-11 20:17:52 1515719872.857441: $GPGSA,A,3,7,8,9,11,16,23,27,28,30,138,,,4.0,1.4,3.5*33
2018-01-11 20:17:53 1515719873.408121: $GPZDA,011754.00,12,01,2018,00,00*69
2018-01-11 20:17:53 1515719873.408289: $GPGGA,011754,3946.9582,N,08404.9813,W,2,10,0.80,303.45,M,-33.324,M,,*70
2018-01-11 20:17:53 1515719873.408359: $GPRMC,011754,A,3946.9582,N,08404.9813,W,0.0000,0.000,120118,,*37
2018-01-11 20:17:53 1515719873.408421: $GPGSA,A,3,7,8,9,11,16,23,27,28,30,138,,,4.0,0.8,3.5*3E
