2017-12-29 14:37:40 1514576260.423597: {"class":"VERSION","release":"3.16","rev":"3.16-4","proto_major":3,"proto_minor":11}
2017-12-29 14:37:40 1514576260.424030: {"class":"DEVICES","devices":[{"class":"DEVICE","path":"/dev/ttyUSB0","driver":"SiRF","subtype":"9\u0006GSD4e_4.1.2-P1_RPATCH.05-F-GPS-4R-1510281 11/03/2015 307","activated":"2017-12-29T19:37:40.214Z","flags":1,"native":1,"bps":4800,"parity":"N","stopbits":1,"cycle":1.00}]}
2017-12-29 14:37:40 1514576260.424227: {"class":"WATCH","enable":true,"json":false,"nmea":true,"raw":0,"scaled":false,"timing":false,"split24":false,"pps":false}
2017-12-29 14:37:40 1514576260.663656: $GPGSV,3,1,12,01,21,300,38,10,47,148,51,12,22,049,45,14,66,328,44*7A
2017-12-29 14:37:40 1514576260.663834: $GPGSV,3,2,12,18,16,144,47,22,20,312,40,25,40,090,51,31,58,226,47*75
2017-12-29 14:37:40 1514576260.663918: $GPGSV,3,3,12,32,68,033,47,03,01,316,28,11,08,282,34,138,38,213,42*4A
2017-12-29 14:37:40 1514576260.777316: $GPZDA,193741.00,29,12,2017,00,00*63
2017-12-29 14:37:40 1514576260.777453: $GPGGA,193741,3946.9576,N,08404.9838,W,2,12,0.80,296.88,M,-33.324,M,,*73
2017-12-29 14:37:40 1514576260.777518: $GPRMC,193741,A,3946.9576,N,08404.9838,W,0.0000,0.000,291217,,*3F
2017-12-29 14:37:40 1514576260.777595: $GPGSA,A,3,1,10,12,14,18,22,25,31,32,3,11,138,1.7,0.8,1.3*0C
2017-12-29 14:37:41 1514576261.329255: $GPZDA,193742.00,29,12,2017,00,00*60
2017-12-29 14:37:41 1514576261.329434: $GPGGA,193742,3946.9576,N,08404.9838,W,2,12,0.80,296.88,M,-33.324,M,,*70
2017-12-29 14:37:41 1514576261.329504: $GPRMC,193742,A,3946.9576,N,08404.9838,W,0.0000,0.000,291217,,*3C
2017-12-29 14:37:41 1514576261.329566: $GPGSA,A,3,1,10,12,14,18,22,25,31,32,3,11,138,1.7,0.8,1.3*0C
2017-12-29 14:37:42 1514576262.328878: $GPZDA,193743.00,29,12,2017,00,00*61
2017-12-29 14:37:42 1514576262.329039: $GPGGA,193743,3946.9576,N,08404.9838,W,2,12,0.80,296.88,M,-33.324,M,,*71
2017-12-29 14:37:42 1514576262.329107: $GPRMC,193743,A,3946.9576,N,08404.9838,W,0.0000,0.000,291217,,*3D
2017-12-29 14:37:42 1514576262.329168: $GPGSA,A,3,1,10,12,14,18,22,25,31,32,3,11,138,1.7,0.8,1.3*0C
2017-12-29 14:37:43 1514576263.658254: $GPGSV,3,1,12,01,21,300,38,10,47,148,51,12,22,049,45,14,66,328,43*7D
2017-12-29 14:37:43 1514576263.658415: $GPGSV,3,2,12,18,16,144,47,22,20,312,40,25,40,090,51,31,58,226,47*75
2017-12-29 14:37:43 1514576263.658482: $GPGSV,3,3,12,32,68,033,47,03,01,316,28,11,08,282,35,138,38,213,42*4B
2017-12-29 14:37:43 1514576263.771737: $GPZDA,193744.00,29,12,2017,00,00*66
2017-12-29 14:37:43 1514576263.771881: $GPGGA,193744,3946.9576,N,08404.9838,W,2,12,0.80,296.88,M,-33.324,M,,*76
2017-12-29 14:37:43 1514576263.771947: $GPRMC,193744,A,3946.9576,N,08404.9838,W,0.0000,0.000,291217,,*3A
2017-12-29 14:37:43 1514576263.772008: $GPGSA,A,3,1,10,12,14,18,22,25,31,32,3,11,138,1.7,0.8,1.3*0C
2017-12-29 14:37:44 1514576264.397330: $GPZDA,193745.00,29,12,2017,00,00*67
2017-12-29 14:37:44 1514576264.397483: $GPGGA,193745,3946.9580,N,08404.9838,W,2,12,0.80,297.52,M,-33.324,M,,*78
2017-12-29 14:37:44 1514576264.397550: $GPRMC,193745,A,3946.9580,N,08404.9838,W,0.0000,0.000,291217,,*32
2017-12-29 14:37:44 1514576264.397611: $GPGSA,A,3,1,10,12,14,18,22,25,31,32,3,11,138,1.7,0.8,1.3*0C
2017-12-29 14:37:45 1514576265.329498: $GPZDA,193746.00,29,12,2017,00,00*64
2017-12-29 14:37:45 1514576265.329657: $GPGGA,193746,3946.9577,N,08404.9839,W,2,12,0.80,298.28,M,-33.324,M,,*70
2017-12-29 14:37:45 1514576265.329723: $GPRMC,193746,A,3946.9577,N,08404.9839,W,0.0000,0.000,291217,,*38
2017-12-29 14:37:45 1514576265.329785: $GPGSA,A,3,1,10,12,14,18,22,25,31,32,3,11,138,1.7,0.8,1.3*0C
2017-12-29 14:37:46 1514576266.664840: $GPGSV,3,1,12,01,21,300,38,10,47,148,51,12,22,049,46,14,66,328,43*7E
2017-12-29 14:37:46 1514576266.665023: $GPGSV,3,2,12,18,16,144,47,22,20,312,40,25,40,090,51,31,58,226,47*75
2017-12-29 14:37:46 1514576266.665091: $GPGSV,3,3,12,32,68,033,47,26,04,181,16,11,08,282,34,138,38,213,42*49
2017-12-29 14:37:46 1514576266.778528: $GPZDA,193747.00,29,12,2017,00,00*65
2017-12-29 14:37:46 1514576266.778675: $GPGGA,193747,3946.9577,N,08404.9839,W,2,11,0.80,298.28,M,-33.324,M,,*72
2017-12-29 14:37:46 1514576266.778785: $GPRMC,193747,A,3946.9577,N,08404.9839,W,0.0000,0.000,291217,,*39
2017-12-29 14:37:46 1514576266.778848: $GPGSA,A,3,1,10,12,14,18,22,25,31,32,11,138,,1.7,0.8,1.3*3F
2017-12-29 14:37:47 1514576267.363256: $GPZDA,193748.00,29,12,2017,00,00*6A
2017-12-29 14:37:47 1514576267.363416: $GPGGA,193748,3946.9577,N,08404.9839,W,2,11,0.80,298.28,M,-33.324,M,,*7D
2017-12-29 14:37:47 1514576267.363483: $GPRMC,193748,A,3946.9577,N,08404.9839,W,0.0000,0.000,291217,,*36
2017-12-29 14:37:47 1514576267.363544: $GPGSA,A,3,1,10,12,14,18,22,25,31,32,11,138,,1.7,0.8,1.3*3F
2017-12-29 14:37:48 1514576268.322938: $GPZDA,193749.00,29,12,2017,00,00*6B
2017-12-29 14:37:48 1514576268.323093: $GPGGA,193749,3946.9577,N,08404.9839,W,2,11,0.80,298.28,M,-33.324,M,,*7C
2017-12-29 14:37:48 1514576268.323160: $GPRMC,193749,A,3946.9577,N,08404.9839,W,0.0000,0.000,291217,,*37
2017-12-29 14:37:48 1514576268.323221: $GPGSA,A,3,1,10,12,14,18,22,25,31,32,11,138,,1.7,0.8,1.3*3F
2017-12-29 14:37:49 1514576269.693958: $GPGSV,3,1,12,01,21,300,38,10,47,148,51,12,22,049,46,14,66,328,43*7E
2017-12-29 14:37:49 1514576269.694134: $GPGSV,3,2,12,18,16,144,47,22,20,312,40,25,40,090,51,31,58,226,47*75
2017-12-29 14:37:49 1514576269.694205: $GPGSV,3,3,12,32,68,033,47,03,01,316,29,11,08,282,34,138,38,213,43*4A
2017-12-29 14:37:49 1514576269.807591: $GPZDA,193750.00,29,12,2017,00,00*63
2017-12-29 14:37:49 1514576269.807723: $GPGGA,193750,3946.9577,N,08404.9839,W,2,12,0.80,298.28,M,-33.324,M,,*77
2017-12-29 14:37:49 1514576269.807791: $GPRMC,193750,A,3946.9577,N,08404.9839,W,0.0000,0.000,291217,,*3F
2017-12-29 14:37:49 1514576269.807854: $GPGSA,A,3,1,10,12,14,18,22,25,31,32,3,11,138,1.7,0.8,1.3*0C
2017-12-29 14:37:50 1514576270.367250: $GPZDA,193751.00,29,12,2017,00,00*62
2017-12-29 14:37:50 1514576270.367405: $GPGGA,193751,3946.9577,N,08404.9839,W,2,12,0.80,298.28,M,-33.324,M,,*76
2017-12-29 14:37:50 1514576270.367475: $GPRMC,193751,A,3946.9577,N,08404.9839,W,0.0000,0.000,291217,,*3E
2017-12-29 14:37:50 1514576270.367539: $GPGSA,A,3,1,10,12,14,18,22,25,31,32,3,11,138,1.7,0.8,1.3*0C
