2017-12-01 12:27:16 1512149236.036900: {"class":"VERSION","release":"3.16","rev":"3.16-4","proto_major":3,"proto_minor":11}
2017-12-01 12:27:16 1512149236.037315: {"class":"DEVICES","devices":[{"class":"DEVICE","path":"/dev/ttyUSB0","driver":"SiRF","subtype":"9\u0006GSD4e_4.1.2-P1_RPATCH.05-F-GPS-4R-1510281 11/03/2015 307","activated":"2017-12-01T17:27:15.975Z","flags":1,"native":1,"bps":4800,"parity":"N","stopbits":1,"cycle":1.00}]}
2017-12-01 12:27:16 1512149236.037442: {"class":"WATCH","enable":true,"json":false,"nmea":true,"raw":0,"scaled":false,"timing":false,"split24":false,"pps":false}
2017-12-01 12:27:16 1512149236.088430: $GPZDA,172716.78,01,12,2017,00,00*6B
2017-12-01 12:27:16 1512149236.088585: $GPGGA,172716,3946.9578,N,08404.9780,W,1,11,0.80,307.42,M,-33.324,M,,*73
2017-12-01 12:27:16 1512149236.088676: $GPRMC,172716,A,3946.9578,N,08404.9780,W,0.3954,312.450,011217,,*30
2017-12-01 12:27:16 1512149236.088755: $GPGSA,A,3,10,13,15,18,20,21,24,29,27,5,138,,2.0,0.8,1.5*34
2017-12-01 12:27:16 1512149236.088815: $GPGBS,172716,10.70,M,15.43,M,35.28,M*03
2017-12-01 12:27:17 1512149237.169974: $GPZDA,172717.47,01,12,2017,00,00*66
2017-12-01 12:27:17 1512149237.170152: $GPGGA,172717,3946.9582,N,08404.9773,W,1,11,0.80,308.14,M,-33.324,M,,*77
2017-12-01 12:27:17 1512149237.170220: $GPRMC,172717,A,3946.9582,N,08404.9773,W,0.2172,85.763,011217,,*0B
2017-12-01 12:27:17 1512149237.170282: $GPGSA,A,3,10,13,15,18,20,21,24,29,27,5,138,,2.0,0.8,1.5*34
2017-12-01 12:27:18 1512149238.312583: $GPGSV,3,1,12,10,27,286,40,13,25,045,43,15,56,049,47,18,57,306,46*72
2017-12-01 12:27:18 1512149238.312802: $GPGSV,3,2,12,20,48,076,45,21,79,243,42,24,37,135,47,27,18,309,40*7F
2017-12-01 12:27:18 1512149238.312872: $GPGSV,3,3,12,29,06,187,34,05,01,090,05,32,05,228,05,138,38,213,25*49
2017-12-01 12:27:18 1512149238.425970: $GPZDA,172718.00,01,12,2017,00,00*6A
2017-12-01 12:27:18 1512149238.426151: $GPGGA,172718,3946.9586,N,08404.9773,W,1,10,0.80,308.78,M,-33.324,M,,*77
2017-12-01 12:27:18 1512149238.426218: $GPRMC,172718,A,3946.9586,N,08404.9773,W,0.1567,189.200,011217,,*3E
2017-12-01 12:27:18 1512149238.426279: $GPGSA,A,3,10,13,15,18,20,21,24,27,29,138,,,2.0,0.8,1.5*01
2017-12-01 12:27:18 1512149238.876957: $GPZDA,172719.00,01,12,2017,00,00*6B
2017-12-01 12:27:18 1512149238.877131: $GPGGA,172719,3946.9578,N,08404.9820,W,1,10,0.80,302.73,M,-33.324,M,,*7F
2017-12-01 12:27:18 1512149238.877198: $GPRMC,172719,A,3946.9578,N,08404.9820,W,0.0000,0.000,011217,,*30
2017-12-01 12:27:18 1512149238.877260: $GPGSA,A,3,10,13,15,18,20,21,24,27,29,138,,,2.0,0.8,1.5*01
2017-12-01 12:27:19 1512149239.380357: $GPZDA,172720.00,01,12,2017,00,00*61
2017-12-01 12:27:19 1512149239.380529: $GPGGA,172720,3946.9578,N,08404.9820,W,1,10,0.80,302.73,M,-33.324,M,,*75
2017-12-01 12:27:19 1512149239.380596: $GPRMC,172720,A,3946.9578,N,08404.9820,W,0.0000,0.000,011217,,*3A
2017-12-01 12:27:19 1512149239.380679: $GPGSA,A,3,10,13,15,18,20,21,24,27,29,138,,,2.0,0.8,1.5*01
2017-12-01 12:27:20 1512149240.714213: $GPGSV,3,1,12,10,27,286,43,13,25,045,42,15,56,049,47,18,57,306,46*70
2017-12-01 12:27:20 1512149240.714368: $GPGSV,3,2,12,20,48,076,46,21,79,243,42,24,37,135,47,27,18,309,40*7C
2017-12-01 12:27:20 1512149240.714433: $GPGSV,3,3,12,29,06,187,34,05,01,090,25,32,05,228,19,138,38,213,47*42
2017-12-01 12:27:20 1512149240.827847: $GPZDA,172721.00,01,12,2017,00,00*60
2017-12-01 12:27:20 1512149240.835287: $GPGGA,172721,3946.9582,N,08404.9820,W,1,12,0.80,303.37,M,-33.324,M,,*72
2017-12-01 12:27:20 1512149240.835449: $GPRMC,172721,A,3946.9582,N,08404.9820,W,0.0000,0.000,011217,,*3E
2017-12-01 12:27:20 1512149240.835532: $GPGSA,A,3,10,13,15,18,20,21,24,27,29,5,32,138,2.0,0.8,1.5*35
2017-12-01 12:27:21 1512149241.379969: $GPZDA,172722.00,01,12,2017,00,00*63
2017-12-01 12:27:21 1512149241.380140: $GPGGA,172722,3946.9582,N,08404.9813,W,1,12,0.80,303.45,M,-33.324,M,,*74
2017-12-01 12:27:21 1512149241.380207: $GPRMC,172722,A,3946.9582,N,08404.9813,W,0.0000,0.000,011217,,*3D
2017-12-01 12:27:21 1512149241.380269: $GPGSA,A,3,10,13,15,18,20,21,24,27,29,5,32,138,2.0,0.8,1.5*35
2017-12-01 12:27:22 1512149242.380486: $GPZDA,172723.00,01,12,2017,00,00*62
2017-12-01 12:27:22 1512149242.380683: $GPGGA,172723,3946.9582,N,08404.9813,W,1,12,0.80,303.45,M,-33.324,M,,*75
2017-12-01 12:27:22 1512149242.380768: $GPRMC,172723,A,3946.9582,N,08404.9813,W,0.0000,0.000,011217,,*3C
2017-12-01 12:27:22 1512149242.380831: $GPGSA,A,3,10,13,15,18,20,21,24,27,29,5,32,138,2.0,0.8,1.5*35
2017-12-01 12:27:22 1512149242.380890: $GPGBS,172723,10.70,M,15.43,M,35.28,M*05
2017-12-01 12:27:23 1512149243.717470: $GPGSV,3,1,12,10,27,286,43,13,25,045,42,15,56,049,47,18,57,306,46*70
2017-12-01 12:27:23 1512149243.717669: $GPGSV,3,2,12,20,48,076,46,21,79,243,43,24,37,135,48,27,18,309,40*72
2017-12-01 12:27:23 1512149243.717737: $GPGSV,3,3,12,29,06,187,34,05,01,090,25,32,05,228,19,138,38,213,47*42
2017-12-01 12:27:23 1512149243.830834: $GPZDA,172724.00,01,12,2017,00,00*65
2017-12-01 12:27:23 1512149243.831008: $GPGGA,172724,3946.9582,N,08404.9813,W,2,12,0.80,303.45,M,-33.324,M,,*71
2017-12-01 12:27:23 1512149243.831076: $GPRMC,172724,A,3946.9582,N,08404.9813,W,0.0000,0.000,011217,,*3B
2017-12-01 12:27:23 1512149243.831137: $GPGSA,A,3,10,13,15,18,20,21,24,27,29,5,32,138,2.0,0.8,1.5*35
2017-12-01 12:27:24 1512149244.380480: $GPZDA,172725.00,01,12,2017,00,00*64
2017-12-01 12:27:24 1512149244.380686: $GPGGA,172725,3946.9590,N,08404.9812,W,2,12,0.80,303.33,M,-33.324,M,,*73
2017-12-01 12:27:24 1512149244.380873: $GPRMC,172725,A,3946.9590,N,08404.9812,W,0.0000,0.000,011217,,*38
2017-12-01 12:27:24 1512149244.380937: $GPGSA,A,3,10,13,15,18,20,21,24,27,29,5,32,138,2.0,0.8,1.5*35
2017-12-01 12:27:25 1512149245.379589: $GPZDA,172726.00,01,12,2017,00,00*67
2017-12-01 12:27:25 1512149245.379805: $GPGGA,172726,3946.9590,N,08404.9812,W,2,12,0.80,303.33,M,-33.324,M,,*70
2017-12-01 12:27:25 1512149245.379874: $GPRMC,172726,A,3946.9590,N,08404.9812,W,0.0000,0.000,011217,,*3B
2017-12-01 12:27:25 1512149245.379935: $GPGSA,A,3,10,13,15,18,20,21,24,27,29,5,32,138,2.0,0.8,1.5*35
