2017-12-31 18:36:45 1514763405.401209: {"class":"VERSION","release":"3.16","rev":"3.16-4","proto_major":3,"proto_minor":11}
2017-12-31 18:36:45 1514763405.401603: {"class":"DEVICES","devices":[{"class":"DEVICE","path":"/dev/ttyUSB0","driver":"SiRF","activated":"2017-12-31T23:36:45.244Z","flags":1,"native":1,"bps":4800,"parity":"N","stopbits":1,"cycle":1.00}]}
2017-12-31 18:36:45 1514763405.401701: {"class":"WATCH","enable":true,"json":false,"nmea":true,"raw":0,"scaled":false,"timing":false,"split24":false,"pps":false}
2017-12-31 18:36:45 1514763405.692303: $GPGSV,3,1,12,22,12,207,25,23,64,292,39,09,31,312,39,03,22,225,36*7B
2017-12-31 18:36:45 1514763405.692479: $GPGSV,3,2,12,16,83,042,41,08,11,177,06,14,04,138,18,31,20,084,39*7F
2017-12-31 18:36:45 1514763405.692544: $GPGSV,3,3,12,27,34,147,37,07,06,280,42,26,50,046,45,135,22,240,42*46
2017-12-31 18:36:45 1514763405.805659: $GPZDA,233646.00,31,12,2017,00,00*65
2017-12-31 18:36:45 1514763405.805823: $GPGGA,233646,3946.9578,N,08404.9823,W,2,11,0.80,309.11,M,-33.324,M,,*7C
2017-12-31 18:36:45 1514763405.805906: $GPRMC,233646,A,3946.9578,N,08404.9823,W,0.0000,0.000,311217,,*3D
2017-12-31 18:36:45 1514763405.805968: $GPGSA,A,3,22,23,9,3,16,14,31,27,7,26,135,,1.7,0.8,1.3*34
2017-12-31 18:36:46 1514763406.353081: $GPZDA,233647.00,31,12,2017,00,00*64
2017-12-31 18:36:46 1514763406.353239: $GPGGA,233647,3946.9578,N,08404.9823,W,2,11,0.80,309.11,M,-33.324,M,,*7D
2017-12-31 18:36:46 1514763406.353305: $GPRMC,233647,A,3946.9578,N,08404.9823,W,0.0000,0.000,311217,,*3C
2017-12-31 18:36:46 1514763406.353366: $GPGSA,A,3,22,23,9,3,16,14,31,27,7,26,135,,1.7,0.8,1.3*34
2017-12-31 18:36:47 1514763407.387792: $GPZDA,233648.00,31,12,2017,00,00*6B
2017-12-31 18:36:47 1514763407.387988: $GPGGA,233648,3946.9578,N,08404.9823,W,2,11,0.80,309.11,M,-33.324,M,,*72
2017-12-31 18:36:47 1514763407.388054: $GPRMC,233648,A,3946.9578,N,08404.9823,W,0.0000,0.000,311217,,*33
2017-12-31 18:36:47 1514763407.388115: $GPGSA,A,3,22,23,9,3,16,14,31,27,7,26,135,,1.7,0.8,1.3*34
2017-12-31 18:36:48 1514763408.724373: $GPGSV,3,1,12,22,12,207,25,23,64,292,39,09,31,312,40,03,22,225,38*7B
2017-12-31 18:36:48 1514763408.724552: $GPGSV,3,2,12,16,83,042,41,08,11,177,00,14,04,138,18,31,20,084,40*77
2017-12-31 18:36:48 1514763408.724618: $GPGSV,3,3,12,27,34,147,40,07,06,280,43,26,50,046,46,135,22,240,44*42
2017-12-31 18:36:48 1514763408.838114: $GPZDA,233649.00,31,12,2017,00,00*6A
2017-12-31 18:36:48 1514763408.838264: $GPGGA,233649,3946.9578,N,08404.9823,W,2,11,0.80,309.11,M,-33.324,M,,*73
2017-12-31 18:36:48 1514763408.838330: $GPRMC,233649,A,3946.9578,N,08404.9823,W,0.0000,0.000,311217,,*32
2017-12-31 18:36:48 1514763408.838390: $GPGSA,A,3,22,23,9,3,16,14,31,27,7,26,135,,1.7,0.8,1.3*34
2017-12-31 18:36:49 1514763409.393963: $GPZDA,233650.00,31,12,2017,00,00*62
2017-12-31 18:36:49 1514763409.394130: $GPGGA,233650,3946.9578,N,08404.9823,W,2,11,0.80,309.11,M,-33.324,M,,*7B
2017-12-31 18:36:49 1514763409.394196: $GPRMC,233650,A,3946.9578,N,08404.9823,W,0.0000,0.000,311217,,*3A
2017-12-31 18:36:49 1514763409.394256: $GPGSA,A,3,22,23,9,3,16,14,31,27,7,26,135,,1.7,0.8,1.3*34
2017-12-31 18:36:50 1514763410.345559: $GPZDA,233651.00,31,12,2017,00,00*63
2017-12-31 18:36:50 1514763410.345747: $GPGGA,233651,3946.9578,N,08404.9823,W,2,11,0.80,309.11,M,-33.324,M,,*7A
2017-12-31 18:36:50 1514763410.345814: $GPRMC,233651,A,3946.9578,N,08404.9823,W,0.0000,0.000,311217,,*3B
2017-12-31 18:36:50 1514763410.345892: $GPGSA,A,3,22,23,9,3,16,14,31,27,7,26,135,,1.7,0.8,1.3*34
2017-12-31 18:36:51 1514763411.688401: $GPGSV,3,1,12,22,12,207,30,23,64,292,40,09,31,312,42,03,22,225,38*73
2017-12-31 18:36:51 1514763411.688575: $GPGSV,3,2,12,16,83,042,41,08,11,177,00,14,04,138,18,31,20,084,40*77
2017-12-31 18:36:51 1514763411.688642: $GPGSV,3,3,12,27,34,147,40,07,06,280,44,26,50,046,47,135,22,240,43*43
2017-12-31 18:36:51 1514763411.801845: $GPZDA,233652.00,31,12,2017,00,00*60
2017-12-31 18:36:51 1514763411.802013: $GPGGA,233652,3946.9578,N,08404.9823,W,2,11,0.80,309.11,M,-33.324,M,,*79
2017-12-31 18:36:51 1514763411.802078: $GPRMC,233652,A,3946.9578,N,08404.9823,W,0.0000,0.000,311217,,*38
2017-12-31 18:36:51 1514763411.802194: $GPGSA,A,3,22,23,9,3,16,14,31,27,7,26,135,,1.7,0.8,1.3*34
2017-12-31 18:36:52 1514763412.391103: $GPZDA,233653.00,31,12,2017,00,00*61
2017-12-31 18:36:52 1514763412.391289: $GPGGA,233653,3946.9578,N,08404.9823,W,2,11,0.80,309.11,M,-33.324,M,,*78
2017-12-31 18:36:52 1514763412.391413: $GPRMC,233653,A,3946.9578,N,08404.9823,W,0.0000,0.000,311217,,*39
2017-12-31 18:36:52 1514763412.391493: $GPGSA,A,3,22,23,9,3,16,14,31,27,7,26,135,,1.7,0.8,1.3*34
2017-12-31 18:36:53 1514763413.353548: $GPZDA,233654.00,31,12,2017,00,00*66
2017-12-31 18:36:53 1514763413.892010: $GPGGA,233654,3946.9578,N,08404.9823,W,2,11,0.80,309.11,M,-33.324,M,,*7F
2017-12-31 18:36:53 1514763413.892156: $GPRMC,233654,A,3946.9578,N,08404.9823,W,0.0000,0.000,311217,,*3E
2017-12-31 18:36:53 1514763413.892233: $GPGSA,A,3,22,23,9,3,16,14,31,27,7,26,135,,1.7,0.8,1.3*34
2017-12-31 18:36:54 1514763414.724246: $GPGSV,3,1,12,22,12,207,29,23,64,292,41,09,31,312,42,03,22,225,38*7A
2017-12-31 18:36:54 1514763414.724427: $GPGSV,3,2,12,16,83,042,42,08,11,177,00,14,04,138,19,31,20,084,41*74
2017-12-31 18:36:54 1514763414.724493: $GPGSV,3,3,12,27,34,147,40,07,06,280,45,26,50,046,47,135,22,240,44*45
2017-12-31 18:36:54 1514763414.837816: $GPZDA,233655.00,31,12,2017,00,00*67
2017-12-31 18:36:54 1514763414.837984: $GPGGA,233655,3946.9578,N,08404.9823,W,2,11,0.80,309.11,M,-33.324,M,,*7E
2017-12-31 18:36:54 1514763414.838050: $GPRMC,233655,A,3946.9578,N,08404.9823,W,0.0000,0.000,311217,,*3F
2017-12-31 18:36:54 1514763414.838111: $GPGSA,A,3,22,23,9,3,16,14,31,27,7,26,135,,1.7,0.8,1.3*34
