2017-11-16 15:12:39 1510863159.797865: {"class":"VERSION","release":"3.17","rev":"3.17","proto_major":3,"proto_minor":12}
2017-11-16 15:12:39 1510863159.798333: {"class":"DEVICES","devices":[{"class":"DEVICE","path":"/dev/ttyUSB0","driver":"SiRF","subtype":"9\u0006GSD4e_4.1.2-P1_RPATCH.05-F-GPS-4R-1510281 11/03/2015 307","activated":"2017-11-16T20:12:39.524Z","flags":1,"native":1,"bps":4800,"parity":"N","stopbits":1,"cycle":1.00}]}
2017-11-16 15:12:39 1510863159.798449: {"class":"WATCH","enable":true,"json":false,"nmea":true,"raw":0,"scaled":false,"timing":false,"split24":false,"pps":false}
2017-11-16 15:12:40 1510863160.715170: $GPGSV,3,1,12,08,07,298,33,10,64,324,50,14,25,249,44,15,15,063,36*7A
2017-11-16 15:12:40 1510863160.715359: $GPGSV,3,2,12,18,74,078,46,20,12,115,33,21,35,180,45,24,48,064,49*70
2017-11-16 15:12:40 1510863160.715421: $GPGSV,3,3,12,27,09,264,42,32,42,259,48,12,06,111,28,138,38,213,43*4D
2017-11-16 15:12:40 1510863160.828339: $GPZDA,201239.00,16,11,2017,00,00*6E
2017-11-16 15:12:40 1510863160.828506: $GPGGA,201239,3946.9579,N,08404.9847,W,2,12,0.80,301.01,M,-33.324,M,,*78
2017-11-16 15:12:40 1510863160.828566: $GPRMC,201239,A,3946.9579,N,08404.9847,W,0.0000,0.000,161117,,*35
2017-11-16 15:12:40 1510863160.828623: $GPGSA,A,3,8,10,14,15,18,20,21,24,27,32,12,138,1.6,0.8,1.3*34
2017-11-16 15:12:41 1510863161.453696: $GPZDA,201240.00,16,11,2017,00,00*60
2017-11-16 15:12:41 1510863161.453863: $GPGGA,201240,3946.9579,N,08404.9847,W,2,12,0.80,301.01,M,-33.324,M,,*76
2017-11-16 15:12:41 1510863161.453924: $GPRMC,201240,A,3946.9579,N,08404.9847,W,0.0000,0.000,161117,,*3B
2017-11-16 15:12:41 1510863161.453980: $GPGSA,A,3,8,10,14,15,18,20,21,24,27,32,12,138,1.6,0.8,1.3*34
2017-11-16 15:12:42 1510863162.384592: $GPZDA,201241.00,16,11,2017,00,00*61
2017-11-16 15:12:42 1510863162.384770: $GPGGA,201241,3946.9579,N,08404.9847,W,2,12,0.80,301.01,M,-33.324,M,,*77
2017-11-16 15:12:42 1510863162.384848: $GPRMC,201241,A,3946.9579,N,08404.9847,W,0.0000,0.000,161117,,*3A
2017-11-16 15:12:42 1510863162.384906: $GPGSA,A,3,8,10,14,15,18,20,21,24,27,32,12,138,1.6,0.8,1.3*34
2017-11-16 15:12:43 1510863163.737773: $GPGSV,3,1,12,08,07,298,34,10,64,324,50,14,25,249,44,15,15,063,35*7E
2017-11-16 15:12:43 1510863163.737941: $GPGSV,3,2,12,18,74,078,46,20,12,115,33,21,35,180,45,24,48,064,49*70
2017-11-16 15:12:43 1510863163.738001: $GPGSV,3,3,12,27,09,264,41,32,42,259,48,12,06,111,29,138,38,213,44*48
2017-11-16 15:12:43 1510863163.851145: $GPZDA,201242.00,16,11,2017,00,00*62
2017-11-16 15:12:43 1510863163.851324: $GPGGA,201242,3946.9579,N,08404.9847,W,2,12,0.80,301.01,M,-33.324,M,,*74
2017-11-16 15:12:43 1510863163.851410: $GPRMC,201242,A,3946.9579,N,08404.9847,W,0.0000,0.000,161117,,*39
2017-11-16 15:12:43 1510863163.851468: $GPGSA,A,3,8,10,14,15,18,20,21,24,27,32,12,138,1.6,0.8,1.3*34
2017-11-16 15:12:44 1510863164.378151: $GPZDA,201243.00,16,11,2017,00,00*63
2017-11-16 15:12:44 1510863164.378321: $GPGGA,201243,3946.9579,N,08404.9847,W,2,12,0.80,301.01,M,-33.324,M,,*75
2017-11-16 15:12:44 1510863164.378385: $GPRMC,201243,A,3946.9579,N,08404.9847,W,0.0000,0.000,161117,,*38
2017-11-16 15:12:44 1510863164.378442: $GPGSA,A,3,8,10,14,15,18,20,21,24,27,32,12,138,1.6,0.8,1.3*34
2017-11-16 15:12:45 1510863165.379005: $GPZDA,201244.00,16,11,2017,00,00*64
2017-11-16 15:12:45 1510863165.379167: $GPGGA,201244,3946.9579,N,08404.9847,W,2,12,0.80,301.01,M,-33.324,M,,*72
2017-11-16 15:12:45 1510863165.379228: $GPRMC,201244,A,3946.9579,N,08404.9847,W,0.0000,0.000,161117,,*3F
2017-11-16 15:12:45 1510863165.379284: $GPGSA,A,3,8,10,14,15,18,20,21,24,27,32,12,138,1.6,0.8,1.3*34
2017-11-16 15:12:46 1510863166.735538: $GPGSV,3,1,12,08,07,298,36,10,64,324,50,14,25,249,44,15,15,063,36*7F
2017-11-16 15:12:46 1510863166.735707: $GPGSV,3,2,12,18,74,078,46,20,12,115,33,21,35,180,44,24,48,064,48*70
2017-11-16 15:12:46 1510863166.735768: $GPGSV,3,3,12,27,09,264,41,32,42,259,48,12,06,111,29,138,38,213,44*48
2017-11-16 15:12:46 1510863166.848869: $GPZDA,201245.00,16,11,2017,00,00*65
2017-11-16 15:12:46 1510863166.849035: $GPGGA,201245,3946.9579,N,08404.9847,W,2,12,0.80,301.01,M,-33.324,M,,*73
2017-11-16 15:12:46 1510863166.849151: $GPRMC,201245,A,3946.9579,N,08404.9847,W,0.0000,0.000,161117,,*3E
2017-11-16 15:12:46 1510863166.849209: $GPGSA,A,3,8,10,14,15,18,20,21,24,27,32,12,138,1.6,0.8,1.3*34
2017-11-16 15:12:47 1510863167.399986: $GPZDA,201246.00,16,11,2017,00,00*66
2017-11-16 15:12:47 1510863167.400151: $GPGGA,201246,3946.9579,N,08404.9847,W,2,12,0.80,301.01,M,-33.324,M,,*70
2017-11-16 15:12:47 1510863167.400212: $GPRMC,201246,A,3946.9579,N,08404.9847,W,0.0000,0.000,161117,,*3D
2017-11-16 15:12:47 1510863167.400267: $GPGSA,A,3,8,10,14,15,18,20,21,24,27,32,12,138,1.6,0.8,1.3*34
2017-11-16 15:12:48 1510863168.400861: $GPZDA,201247.00,16,11,2017,00,00*67
2017-11-16 15:12:48 1510863168.401022: $GPGGA,201247,3946.9579,N,08404.9847,W,2,12,0.80,301.01,M,-33.324,M,,*71
2017-11-16 15:12:48 1510863168.401084: $GPRMC,201247,A,3946.9579,N,08404.9847,W,0.0000,0.000,161117,,*3C
2017-11-16 15:12:48 1510863168.401140: $GPGSA,A,3,8,10,14,15,18,20,21,24,27,32,12,138,1.6,0.8,1.3*34
2017-11-16 15:12:49 1510863169.721381: $GPGSV,3,1,12,08,07,298,38,10,64,324,50,14,25,249,45,15,15,063,36*70
2017-11-16 15:12:49 1510863169.721518: $GPGSV,3,2,12,18,74,078,46,20,12,115,32,21,35,180,44,24,48,064,48*71
2017-11-16 15:12:49 1510863169.721578: $GPGSV,3,3,12,27,09,264,41,32,42,259,47,12,06,111,30,138,38,213,44*4F
