2017-11-16 17:28:51 1510871331.072370: {"class":"VERSION","release":"3.17","rev":"3.17","proto_major":3,"proto_minor":12}
2017-11-16 17:28:51 1510871331.072787: {"class":"DEVICES","devices":[{"class":"DEVICE","path":"/dev/ttyUSB0","driver":"SiRF","subtype":"9\u0006GSD4e_4.1.2-P1_RPATCH.05-F-GPS-4R-1510281 11/03/2015 307","activated":"2017-11-16T22:28:50.736Z","flags":1,"native":1,"bps":4800,"parity":"N","stopbits":1,"cycle":1.00}]}
2017-11-16 17:28:51 1510871331.072897: {"class":"WATCH","enable":true,"json":false,"nmea":true,"raw":0,"scaled":false,"timing":false,"split24":false,"pps":false}
2017-11-16 17:28:51 1510871331.758171: $GPGSV,3,1,11,01,21,303,37,10,50,147,50,22,17,312,38,12,23,051,51*71
2017-11-16 17:28:51 1510871331.758409: $GPGSV,3,2,11,14,65,324,48,18,20,144,38,11,09,283,39,25,39,093,49*76
2017-11-16 17:28:51 1510871331.758496: $GPGSV,3,3,11,31,53,223,49,32,69,022,49,138,38,213,45*70
2017-11-16 17:28:51 1510871331.871706: $GPZDA,222850.00,16,11,2017,00,00*6A
2017-11-16 17:28:51 1510871331.871867: $GPGGA,222850,3946.9573,N,08404.9836,W,2,11,0.80,305.51,M,-33.324,M,,*72
2017-11-16 17:28:51 1510871331.871928: $GPRMC,222850,A,3946.9573,N,08404.9836,W,0.0000,0.000,161117,,*3D
2017-11-16 17:28:51 1510871331.871984: $GPGSA,A,3,1,10,22,12,14,18,11,25,31,32,138,,1.6,0.8,1.3*3E
2017-11-16 17:28:52 1510871332.395106: $GPZDA,222851.00,16,11,2017,00,00*6B
2017-11-16 17:28:52 1510871332.395288: $GPGGA,222851,3946.9573,N,08404.9836,W,2,11,0.80,305.51,M,-33.324,M,,*73
2017-11-16 17:28:52 1510871332.395349: $GPRMC,222851,A,3946.9573,N,08404.9836,W,0.0000,0.000,161117,,*3C
2017-11-16 17:28:52 1510871332.395406: $GPGSA,A,3,1,10,22,12,14,18,11,25,31,32,138,,1.6,0.8,1.3*3E
2017-11-16 17:28:53 1510871333.401816: $GPZDA,222852.00,16,11,2017,00,00*68
2017-11-16 17:28:53 1510871333.401984: $GPGGA,222852,3946.9573,N,08404.9836,W,2,11,0.80,305.51,M,-33.324,M,,*70
2017-11-16 17:28:53 1510871333.402045: $GPRMC,222852,A,3946.9573,N,08404.9836,W,0.0000,0.000,161117,,*3F
2017-11-16 17:28:53 1510871333.402101: $GPGSA,A,3,1,10,22,12,14,18,11,25,31,32,138,,1.6,0.8,1.3*3E
2017-11-16 17:28:54 1510871334.738925: $GPGSV,3,1,11,01,21,303,36,10,50,147,50,22,17,312,38,12,23,051,51*70
2017-11-16 17:28:54 1510871334.739092: $GPGSV,3,2,11,14,65,324,48,18,20,144,38,11,09,283,39,25,39,093,49*76
2017-11-16 17:28:54 1510871334.739153: $GPGSV,3,3,11,31,53,223,49,32,69,022,49,138,38,213,45*70
2017-11-16 17:28:54 1510871334.852228: $GPZDA,222853.00,16,11,2017,00,00*69
2017-11-16 17:28:54 1510871334.852403: $GPGGA,222853,3946.9573,N,08404.9836,W,2,11,0.80,305.51,M,-33.324,M,,*71
2017-11-16 17:28:54 1510871334.852465: $GPRMC,222853,A,3946.9573,N,08404.9836,W,0.0000,0.000,161117,,*3E
2017-11-16 17:28:54 1510871334.852522: $GPGSA,A,3,1,10,22,12,14,18,11,25,31,32,138,,1.6,0.8,1.3*3E
2017-11-16 17:28:55 1510871335.404297: $GPZDA,222854.00,16,11,2017,00,00*6E
2017-11-16 17:28:55 1510871335.404469: $GPGGA,222854,3946.9573,N,08404.9836,W,2,11,0.80,305.51,M,-33.324,M,,*76
2017-11-16 17:28:55 1510871335.404530: $GPRMC,222854,A,3946.9573,N,08404.9836,W,0.0000,0.000,161117,,*39
2017-11-16 17:28:55 1510871335.404586: $GPGSA,A,3,1,10,22,12,14,18,11,25,31,32,138,,1.6,0.8,1.3*3E
2017-11-16 17:28:56 1510871336.402256: $GPZDA,222855.00,16,11,2017,00,00*6F
2017-11-16 17:28:56 1510871336.402418: $GPGGA,222855,3946.9573,N,08404.9836,W,2,11,0.80,305.51,M,-33.324,M,,*77
2017-11-16 17:28:56 1510871336.402480: $GPRMC,222855,A,3946.9573,N,08404.9836,W,0.0000,0.000,161117,,*38
2017-11-16 17:28:56 1510871336.402536: $GPGSA,A,3,1,10,22,12,14,18,11,25,31,32,138,,1.6,0.8,1.3*3E
2017-11-16 17:28:57 1510871337.737986: $GPGSV,3,1,11,01,21,303,35,10,50,147,50,22,17,312,38,12,23,051,51*73
2017-11-16 17:28:57 1510871337.738159: $GPGSV,3,2,11,14,65,324,48,18,20,144,38,11,09,283,39,25,39,093,48*77
2017-11-16 17:28:57 1510871337.738219: $GPGSV,3,3,11,31,53,223,49,32,69,022,49,138,38,213,44*71
2017-11-16 17:28:57 1510871337.851321: $GPZDA,222856.00,16,11,2017,00,00*6C
2017-11-16 17:28:57 1510871337.851485: $GPGGA,222856,3946.9573,N,08404.9836,W,2,11,0.80,305.51,M,-33.324,M,,*74
2017-11-16 17:28:57 1510871337.851595: $GPRMC,222856,A,3946.9573,N,08404.9836,W,0.0000,0.000,161117,,*3B
2017-11-16 17:28:57 1510871337.851672: $GPGSA,A,3,1,10,22,12,14,18,11,25,31,32,138,,1.6,0.8,1.3*3E
2017-11-16 17:28:58 1510871338.400950: $GPZDA,222857.00,16,11,2017,00,00*6D
2017-11-16 17:28:58 1510871338.401113: $GPGGA,222857,3946.9573,N,08404.9836,W,2,11,0.80,305.51,M,-33.324,M,,*75
2017-11-16 17:28:58 1510871338.401174: $GPRMC,222857,A,3946.9573,N,08404.9836,W,0.0000,0.000,161117,,*3A
2017-11-16 17:28:58 1510871338.401229: $GPGSA,A,3,1,10,22,12,14,18,11,25,31,32,138,,1.6,0.8,1.3*3E
2017-11-16 17:28:59 1510871339.401823: $GPZDA,222858.00,16,11,2017,00,00*62
2017-11-16 17:28:59 1510871339.402004: $GPGGA,222858,3946.9573,N,08404.9836,W,2,11,0.80,305.51,M,-33.324,M,,*7A
2017-11-16 17:28:59 1510871339.402069: $GPRMC,222858,A,3946.9573,N,08404.9836,W,0.0000,0.000,161117,,*35
2017-11-16 17:28:59 1510871339.402128: $GPGSA,A,3,1,10,22,12,14,18,11,25,31,32,138,,1.6,0.8,1.3*3E
2017-11-16 17:29:00 1510871340.738867: $GPGSV,3,1,11,01,21,303,35,10,50,147,49,22,17,312,38,12,23,051,51*7B
2017-11-16 17:29:01 1510871341.017133: $GPGSV,3,2,11,14,65,324,48,18,20,144,39,11,09,283,38,25,39,093,48*77
2017-11-16 17:29:01 1510871341.017288: $GPGSV,3,3,11,31,53,223,49,32,69,022,49,138,38,213,45*70
2017-11-16 17:29:01 1510871341.017401: $GPZDA,222859.00,16,11,2017,00,00*63
2017-11-16 17:29:01 1510871341.017458: $GPGGA,222859,3946.9573,N,08404.9836,W,2,11,0.80,305.51,M,-33.324,M,,*7B
2017-11-16 17:29:01 1510871341.017517: $GPRMC,222859,A,3946.9573,N,08404.9836,W,0.0000,0.000,161117,,*34
2017-11-16 17:29:01 1510871341.017574: $GPGSA,A,3,1,10,22,12,14,18,11,25,31,32,138,,1.6,0.8,1.3*3E
