2017-12-01 11:51:28 1512147088.956856: {"class":"VERSION","release":"3.16","rev":"3.16-4","proto_major":3,"proto_minor":11}
2017-12-01 11:51:28 1512147088.957270: {"class":"DEVICES","devices":[{"class":"DEVICE","path":"/dev/ttyUSB0","driver":"SiRF","subtype":"9\u0006GSD4e_4.1.2-P1_RPATCH.05-F-GPS-4R-1510281 11/03/2015 307","activated":"2017-12-01T16:51:28.548Z","flags":1,"native":1,"bps":4800,"parity":"N","stopbits":1,"cycle":1.00}]}
2017-12-01 11:51:28 1512147088.957390: {"class":"WATCH","enable":true,"json":false,"nmea":true,"raw":0,"scaled":false,"timing":false,"split24":false,"pps":false}
2017-12-01 11:51:29 1512147089.743745: $GPGSV,3,1,12,10,15,274,27,13,40,048,45,15,72,063,45,18,46,288,45*7F
2017-12-01 11:51:29 1512147089.743939: $GPGSV,3,2,12,20,60,055,44,21,70,301,46,24,23,147,44,27,10,322,43*7E
2017-12-01 11:51:29 1512147089.744006: $GPGSV,3,3,12,29,21,193,44,05,11,079,20,04,10,132,00,138,38,213,46*46
2017-12-01 11:51:29 1512147089.857342: $GPZDA,165130.00,01,12,2017,00,00*60
2017-12-01 11:51:29 1512147089.857510: $GPGGA,165130,3946.9584,N,08404.9857,W,2,11,0.80,293.71,M,-33.324,M,,*7E
2017-12-01 11:51:29 1512147089.857577: $GPRMC,165130,A,3946.9584,N,08404.9857,W,0.0000,0.000,011217,,*38
2017-12-01 11:51:29 1512147089.857638: $GPGSA,A,3,10,13,15,18,20,21,24,27,29,5,138,,2.0,0.8,1.5*34
2017-12-01 11:51:30 1512147090.407899: $GPZDA,165131.00,01,12,2017,00,00*61
2017-12-01 11:51:30 1512147090.408083: $GPGGA,165131,3946.9584,N,08404.9857,W,2,11,0.80,293.71,M,-33.324,M,,*7F
2017-12-01 11:51:30 1512147090.408153: $GPRMC,165131,A,3946.9584,N,08404.9857,W,0.0000,0.000,011217,,*39
2017-12-01 11:51:30 1512147090.408220: $GPGSA,A,3,10,13,15,18,20,21,24,27,29,5,138,,2.0,0.8,1.5*34
2017-12-01 11:51:31 1512147091.408503: $GPZDA,165132.00,01,12,2017,00,00*62
2017-12-01 11:51:31 1512147091.408679: $GPGGA,165132,3946.9584,N,08404.9857,W,2,11,0.80,293.71,M,-33.324,M,,*7C
2017-12-01 11:51:31 1512147091.408763: $GPRMC,165132,A,3946.9584,N,08404.9857,W,0.0000,0.000,011217,,*3A
2017-12-01 11:51:31 1512147091.408826: $GPGSA,A,3,10,13,15,18,20,21,24,27,29,5,138,,2.0,0.8,1.5*34
2017-12-01 11:51:32 1512147092.741658: $GPGSV,3,1,12,10,15,274,30,13,40,048,45,15,72,063,46,18,46,288,45*7A
2017-12-01 11:51:32 1512147092.741853: $GPGSV,3,2,12,20,60,055,44,21,70,301,46,24,23,147,44,27,10,322,43*7E
2017-12-01 11:51:32 1512147092.741924: $GPGSV,3,3,12,29,21,193,44,05,11,079,20,04,10,132,00,138,38,213,46*46
2017-12-01 11:51:32 1512147092.855367: $GPZDA,165133.00,01,12,2017,00,00*63
2017-12-01 11:51:32 1512147092.855614: $GPGGA,165133,3946.9584,N,08404.9857,W,2,11,0.80,293.71,M,-33.324,M,,*7D
2017-12-01 11:51:32 1512147092.855682: $GPRMC,165133,A,3946.9584,N,08404.9857,W,0.0000,0.000,011217,,*3B
2017-12-01 11:51:32 1512147092.855743: $GPGSA,A,3,10,13,15,18,20,21,24,27,29,5,138,,2.0,0.8,1.5*34
2017-12-01 11:51:33 1512147093.407090: $GPZDA,165134.00,01,12,2017,00,00*64
2017-12-01 11:51:33 1512147093.407287: $GPGGA,165134,3946.9584,N,08404.9857,W,2,11,0.80,293.71,M,-33.324,M,,*7A
2017-12-01 11:51:33 1512147093.407356: $GPRMC,165134,A,3946.9584,N,08404.9857,W,0.0000,0.000,011217,,*3C
2017-12-01 11:51:33 1512147093.407419: $GPGSA,A,3,10,13,15,18,20,21,24,27,29,5,138,,2.0,0.8,1.5*34
2017-12-01 11:51:34 1512147094.406614: $GPZDA,165135.00,01,12,2017,00,00*65
2017-12-01 11:51:34 1512147094.406795: $GPGGA,165135,3946.9584,N,08404.9857,W,2,11,0.80,293.71,M,-33.324,M,,*7B
2017-12-01 11:51:34 1512147094.406864: $GPRMC,165135,A,3946.9584,N,08404.9857,W,0.0000,0.000,011217,,*3D
2017-12-01 11:51:34 1512147094.406926: $GPGSA,A,3,10,13,15,18,20,21,24,27,29,5,138,,2.0,0.8,1.5*34
2017-12-01 11:51:35 1512147095.747334: $GPGSV,3,1,12,10,15,274,34,13,40,048,44,15,72,063,45,18,46,288,44*7D
2017-12-01 11:51:35 1512147095.747486: $GPGSV,3,2,12,20,60,055,44,21,70,301,45,24,23,147,44,27,10,322,43*7D
2017-12-01 11:51:35 1512147095.747554: $GPGSV,3,3,12,29,21,193,44,05,11,079,19,04,10,132,00,138,38,213,46*4C
2017-12-01 11:51:35 1512147095.860708: $GPZDA,165136.00,01,12,2017,00,00*66
2017-12-01 11:51:35 1512147095.860865: $GPGGA,165136,3946.9584,N,08404.9857,W,2,11,0.80,293.71,M,-33.324,M,,*78
2017-12-01 11:51:35 1512147095.860981: $GPRMC,165136,A,3946.9584,N,08404.9857,W,0.0000,0.000,011217,,*3E
2017-12-01 11:51:35 1512147095.861048: $GPGSA,A,3,10,13,15,18,20,21,24,27,29,5,138,,2.0,0.8,1.5*34
2017-12-01 11:51:36 1512147096.486245: $GPZDA,165137.00,01,12,2017,00,00*67
2017-12-01 11:51:36 1512147096.486565: $GPGGA,165137,3946.9584,N,08404.9857,W,2,11,0.80,293.71,M,-33.324,M,,*79
2017-12-01 11:51:36 1512147096.486711: $GPRMC,165137,A,3946.9584,N,08404.9857,W,0.0000,0.000,011217,,*3F
2017-12-01 11:51:36 1512147096.486830: $GPGSA,A,3,10,13,15,18,20,21,24,27,29,5,138,,2.0,0.8,1.5*34
2017-12-01 11:51:37 1512147097.406969: $GPZDA,165138.00,01,12,2017,00,00*68
2017-12-01 11:51:37 1512147097.407182: $GPGGA,165138,3946.9584,N,08404.9857,W,2,11,0.80,293.71,M,-33.324,M,,*76
2017-12-01 11:51:37 1512147097.407255: $GPRMC,165138,A,3946.9584,N,08404.9857,W,0.0000,0.000,011217,,*30
2017-12-01 11:51:37 1512147097.407319: $GPGSA,A,3,10,13,15,18,20,21,24,27,29,5,138,,2.0,0.8,1.5*34
2017-12-01 11:51:38 1512147098.757689: $GPGSV,3,1,12,10,15,274,36,13,40,048,44,15,72,063,46,18,46,288,44*7C
2017-12-01 11:51:38 1512147098.757871: $GPGSV,3,2,12,20,60,055,44,21,70,301,45,24,23,147,44,27,10,322,44*7A
2017-12-01 11:51:38 1512147098.757958: $GPGSV,3,3,12,29,21,193,44,05,11,079,20,04,10,132,00,138,38,213,46*46
2017-12-01 11:51:38 1512147098.871078: $GPZDA,165139.00,01,12,2017,00,00*69
2017-12-01 11:51:38 1512147098.871254: $GPGGA,165139,3946.9584,N,08404.9857,W,2,11,0.80,293.71,M,-33.324,M,,*77
2017-12-01 11:51:38 1512147098.871323: $GPRMC,165139,A,3946.9584,N,08404.9857,W,0.0000,0.000,011217,,*31
2017-12-01 11:51:38 1512147098.871452: $GPGSA,A,3,10,13,15,18,20,21,24,27,29,5,138,,2.0,0.8,1.5*34
