2018-01-12 20:11:06 1515805866.361127: {"class":"VERSION","release":"3.16","rev":"3.16-4","proto_major":3,"proto_minor":11}
2018-01-12 20:11:06 1515805866.361474: {"class":"DEVICES","devices":[{"class":"DEVICE","path":"/dev/ttyUSB0","driver":"SiRF","subtype":"9\u0006GSD4e_4.1.2-P1_RPATCH.05-F-GPS-4R-1510281 11/03/2015 307","activated":"2018-01-13T01:11:06.361Z","flags":1,"native":1,"bps":4800,"parity":"N","stopbits":1,"cycle":1.00}]}
2018-01-12 20:11:06 1515805866.361593: {"class":"WATCH","enable":true,"json":false,"nmea":true,"raw":0,"scaled":false,"timing":false,"split24":false,"pps":false}
2018-01-12 20:11:07 1515805867.556998: $GPGSV,3,1,10,07,57,315,17,08,74,124,21,09,46,226,22,11,22,166,18*74
2018-01-12 20:11:07 1515805867.557187: $GPGSV,3,2,10,27,46,051,22,23,27,189,14,28,15,259,12,30,31,307,12*7E
2018-01-12 20:11:07 1515805867.557256: $GPGSV,3,3,10,16,21,061,00,138,38,213,00*4A
2018-01-12 20:11:07 1515805867.670447: $GPZDA,011108.00,13,01,2018,00,00*67
2018-01-12 20:11:07 1515805867.670626: $GPGGA,011108,3946.9601,N,08404.9488,W,1,08,1.20,292.99,M,-33.324,M,,*70
2018-01-12 20:11:07 1515805867.670693: $GPRMC,011108,A,3946.9601,N,08404.9488,W,0.4844,273.794,130118,,*3F
2018-01-12 20:11:07 1515805867.670755: $GPGSA,A,3,7,8,9,11,27,23,28,30,,,,,4.8,1.2,4.6*04
2018-01-12 20:11:08 1515805868.221382: $GPZDA,011109.00,13,01,2018,00,00*66
2018-01-12 20:11:08 1515805868.221555: $GPGGA,011109,3946.9601,N,08404.9488,W,1,08,1.20,292.99,M,-33.324,M,,*71
2018-01-12 20:11:08 1515805868.221622: $GPRMC,011109,A,3946.9601,N,08404.9488,W,0.3775,329.506,130118,,*33
2018-01-12 20:11:08 1515805868.221683: $GPGSA,A,3,7,8,9,11,27,23,28,30,,,,,4.8,1.2,4.6*04
2018-01-12 20:11:09 1515805869.221493: $GPZDA,011110.00,13,01,2018,00,00*6E
2018-01-12 20:11:09 1515805869.221669: $GPGGA,011110,3946.9597,N,08404.9495,W,1,08,1.20,292.27,M,-33.324,M,,*7C
2018-01-12 20:11:09 1515805869.221734: $GPRMC,011110,A,3946.9597,N,08404.9495,W,0.0407,142.011,130118,,*32
2018-01-12 20:11:09 1515805869.221795: $GPGSA,A,3,7,8,9,11,27,23,28,30,,,,,4.8,1.2,4.6*04
2018-01-12 20:11:10 1515805870.558845: $GPGSV,3,1,10,07,57,315,17,08,74,124,20,09,46,226,22,11,22,166,18*75
2018-01-12 20:11:10 1515805870.558999: $GPGSV,3,2,10,27,46,051,22,23,27,189,12,16,21,061,00,30,31,307,12*78
2018-01-12 20:11:10 1515805870.559079: $GPGSV,3,3,10,28,15,259,00,138,38,213,00*49
2018-01-12 20:11:10 1515805870.671105: $GPZDA,011111.00,13,01,2018,00,00*6F
2018-01-12 20:11:10 1515805870.671313: $GPGGA,011111,3946.9597,N,08404.9495,W,1,07,1.20,292.27,M,-33.324,M,,*72
2018-01-12 20:11:10 1515805870.671382: $GPRMC,011111,A,3946.9597,N,08404.9495,W,0.8877,234.768,130118,,*3B
2018-01-12 20:11:10 1515805870.671444: $GPGSA,A,3,7,8,9,11,27,23,30,,,,,,4.8,1.2,4.6*0E
2018-01-12 20:11:11 1515805871.222428: $GPZDA,011112.00,13,01,2018,00,00*6C
2018-01-12 20:11:11 1515805871.226253: $GPGGA,011112,3946.9593,N,08404.9502,W,1,07,1.20,291.55,M,-33.324,M,,*7C
2018-01-12 20:11:11 1515805871.226509: $GPRMC,011112,A,3946.9593,N,08404.9502,W,0.5918,234.768,130118,,*36
2018-01-12 20:11:11 1515805871.226632: $GPGSA,A,3,7,8,9,11,27,23,30,,,,,,4.8,1.2,4.6*0E
2018-01-12 20:11:12 1515805872.222611: $GPZDA,011113.00,13,01,2018,00,00*6D
2018-01-12 20:11:12 1515805872.222783: $GPGGA,011113,3946.9597,N,08404.9502,W,1,07,1.20,290.79,M,-33.324,M,,*76
2018-01-12 20:11:12 1515805872.222849: $GPRMC,011113,A,3946.9597,N,08404.9502,W,0.3372,330.408,130118,,*33
2018-01-12 20:11:12 1515805872.222911: $GPGSA,A,3,7,8,9,11,27,23,30,,,,,,4.8,1.2,4.6*0E
2018-01-12 20:11:13 1515805873.558098: $GPGSV,3,1,10,07,57,315,18,08,74,124,20,09,46,226,22,11,22,166,17*75
2018-01-12 20:11:13 1515805873.558320: $GPGSV,3,2,10,27,46,051,22,23,27,189,10,16,21,061,00,30,31,307,12*7A
2018-01-12 20:11:13 1515805873.558387: $GPGSV,3,3,10,28,15,259,00,138,38,213,00*49
2018-01-12 20:11:13 1515805873.671626: $GPZDA,011114.00,13,01,2018,00,00*6A
2018-01-12 20:11:13 1515805873.671802: $GPGGA,011114,3946.9593,N,08404.9509,W,1,07,1.20,290.07,M,-33.324,M,,*77
2018-01-12 20:11:13 1515805873.671868: $GPRMC,011114,A,3946.9593,N,08404.9509,W,0.2872,15.168,130118,,*06
2018-01-12 20:11:13 1515805873.671984: $GPGSA,A,3,7,8,9,11,27,23,30,,,,,,4.8,1.2,4.6*0E
2018-01-12 20:11:14 1515805874.221650: $GPZDA,011115.00,13,01,2018,00,00*6B
2018-01-12 20:11:14 1515805874.221917: $GPGGA,011115,3946.9596,N,08404.9508,W,1,07,1.20,289.30,M,-33.324,M,,*7E
2018-01-12 20:11:14 1515805874.221987: $GPRMC,011115,A,3946.9596,N,08404.9508,W,0.2648,22.232,130118,,*0C
2018-01-12 20:11:14 1515805874.222049: $GPGSA,A,3,7,8,9,11,27,23,30,,,,,,4.8,1.2,4.6*0E
2018-01-12 20:11:15 1515805875.224768: $GPZDA,011116.00,13,01,2018,00,00*68
2018-01-12 20:11:15 1515805875.225109: $GPGGA,011116,3946.9596,N,08404.9507,W,1,07,1.20,287.90,M,-33.324,M,,*76
2018-01-12 20:11:15 1515805875.225248: $GPRMC,011116,A,3946.9596,N,08404.9507,W,0.1977,302.606,130118,,*32
2018-01-12 20:11:15 1515805875.225386: $GPGSA,A,3,7,8,9,11,27,23,30,,,,,,4.8,1.2,4.6*0E
2018-01-12 20:11:16 1515805876.559413: $GPGSV,3,1,10,07,57,315,18,08,74,124,19,09,46,226,22,11,22,166,17*7F
2018-01-12 20:11:16 1515805876.559622: $GPGSV,3,2,10,27,46,051,22,23,27,189,11,16,21,061,07,30,31,307,12*7C
2018-01-12 20:11:16 1515805876.559688: $GPGSV,3,3,10,28,15,259,12,138,38,213,00*4A
2018-01-12 20:11:16 1515805876.672743: $GPZDA,011117.00,13,01,2018,00,00*69
2018-01-12 20:11:16 1515805876.672916: $GPGGA,011117,3946.9595,N,08404.9513,W,1,07,1.20,286.42,M,-33.324,M,,*7F
2018-01-12 20:11:16 1515805876.672983: $GPRMC,011117,A,3946.9595,N,08404.9513,W,0.5997,12.054,130118,,*0C
2018-01-12 20:11:16 1515805876.673044: $GPGSA,A,3,7,8,9,11,27,23,30,,,,,,4.8,1.2,4.6*0E
2018-01-12 20:11:17 1515805877.221524: $GPZDA,011118.00,13,01,2018,00,00*66
2018-01-12 20:11:17 1515805877.221700: $GPGGA,011118,3946.9599,N,08404.9513,W,1,07,1.20,285.65,M,-33.324,M,,*7A
2018-01-12 20:11:17 1515805877.221767: $GPRMC,011118,A,3946.9599,N,08404.9513,W,0.7551,329.506,130118,,*32
2018-01-12 20:11:17 1515805877.221828: $GPGSA,A,3,7,8,9,11,27,23,30,,,,,,4.8,1.2,4.6*0E
2018-01-12 20:11:18 1515805878.223667: $GPZDA,011119.00,13,01,2018,00,00*67
2018-01-12 20:11:18 1515805878.223842: $GPGGA,011119,3946.9603,N,08404.9519,W,1,07,1.20,284.81,M,-33.324,M,,*7A
2018-01-12 20:11:18 1515805878.223929: $GPRMC,011119,A,3946.9603,N,08404.9519,W,0.8334,350.226,130118,,*38
2018-01-12 20:11:18 1515805878.223991: $GPGSA,A,3,7,8,9,11,27,23,30,,,,,,4.8,1.2,4.6*0E
2018-01-12 20:11:19 1515805879.558696: $GPGSV,3,1,10,07,57,315,19,08,74,124,18,09,46,226,22,11,22,166,17*7F
2018-01-12 20:11:19 1515805879.558872: $GPGSV,3,2,10,27,46,051,22,23,27,189,11,16,21,061,10,30,31,307,10*78
2018-01-12 20:11:19 1515805879.558937: $GPGSV,3,3,10,28,15,259,00,138,38,213,00*49
2018-01-12 20:11:19 1515805879.672003: $GPZDA,011120.00,13,01,2018,00,00*6D
2018-01-12 20:11:19 1515805879.672197: $GPGGA,011120,3946.9602,N,08404.9518,W,1,07,1.20,283.40,M,-33.324,M,,*7A
2018-01-12 20:11:19 1515805879.672266: $GPRMC,011120,A,3946.9602,N,08404.9518,W,0.8602,23.420,130118,,*05
2018-01-12 20:11:19 1515805879.672327: $GPGSA,A,3,7,8,9,11,27,23,30,,,,,,4.8,1.2,4.6*0E
2018-01-12 20:11:20 1515805880.225848: $GPZDA,011121.00,13,01,2018,00,00*6C
2018-01-12 20:11:20 1515805880.226019: $GPGGA,011121,3946.9605,N,08404.9518,W,1,07,0.80,282.64,M,-33.324,M,,*70
2018-01-12 20:11:20 1515805880.226086: $GPRMC,011121,A,3946.9605,N,08404.9518,W,0.4700,9.201,130118,,*31
2018-01-12 20:11:20 1515805880.226147: $GPGSA,A,3,7,8,9,11,27,23,30,,,,,,4.8,0.8,4.6*05
2018-01-12 20:11:21 1515805881.224823: $GPZDA,011122.00,13,01,2018,00,00*6F
2018-01-12 20:11:21 1515805881.225015: $GPGGA,011122,3946.9601,N,08404.9518,W,1,07,0.80,282.00,M,-33.324,M,,*75
2018-01-12 20:11:21 1515805881.225085: $GPRMC,011122,A,3946.9601,N,08404.9518,W,0.3031,219.207,130118,,*31
2018-01-12 20:11:21 1515805881.225147: $GPGSA,A,3,7,8,9,11,27,23,30,,,,,,4.8,0.8,4.6*05
2018-01-12 20:11:22 1515805882.560943: $GPGSV,3,1,10,07,57,315,19,08,74,124,17,09,46,226,22,11,22,166,17*70
2018-01-12 20:11:22 1515805882.561124: $GPGSV,3,2,10,27,46,051,21,23,27,189,11,16,21,061,13,30,31,307,08*71
2018-01-12 20:11:22 1515805882.561189: $GPGSV,3,3,10,28,15,259,16,138,38,213,00*4E
2018-01-12 20:11:22 1515805882.674370: $GPZDA,011123.00,13,01,2018,00,00*6E
2018-01-12 20:11:22 1515805882.674547: $GPGGA,011123,3946.9605,N,08404.9517,W,1,08,0.80,281.24,M,-33.324,M,,*75
2018-01-12 20:11:22 1515805882.674613: $GPRMC,011123,A,3946.9605,N,08404.9517,W,0.3031,219.207,130118,,*3B
2018-01-12 20:11:22 1515805882.674675: $GPGSA,A,3,7,8,9,11,27,23,16,30,,,,,4.8,0.8,4.6*02
2018-01-12 20:11:23 1515805883.225228: $GPZDA,011124.00,13,01,2018,00,00*69
2018-01-12 20:11:23 1515805883.225408: $GPGGA,011124,3946.9604,N,08404.9523,W,1,08,0.80,279.75,M,-33.324,M,,*77
2018-01-12 20:11:23 1515805883.225474: $GPRMC,011124,A,3946.9604,N,08404.9523,W,0.1975,255.900,130118,,*35
2018-01-12 20:11:23 1515805883.225536: $GPGSA,A,3,7,8,9,11,27,23,16,30,,,,,4.8,0.8,4.6*02
2018-01-12 20:11:24 1515805884.225336: $GPZDA,011125.00,13,01,2018,00,00*68
2018-01-12 20:11:24 1515805884.225513: $GPGGA,011125,3946.9604,N,08404.9523,W,1,08,0.80,279.75,M,-33.324,M,,*76
2018-01-12 20:11:24 1515805884.225579: $GPRMC,011125,A,3946.9604,N,08404.9523,W,0.3775,329.506,130118,,*38
2018-01-12 20:11:24 1515805884.225640: $GPGSA,A,3,7,8,9,11,27,23,16,30,,,,,4.8,0.8,4.6*02
2018-01-12 20:11:25 1515805885.561766: $GPGSV,3,1,10,07,57,315,20,08,74,124,17,09,46,226,22,11,22,166,17*7A
2018-01-12 20:11:25 1515805885.561931: $GPGSV,3,2,10,27,46,051,21,23,27,189,12,16,21,061,13,30,31,307,09*73
2018-01-12 20:11:25 1515805885.561996: $GPGSV,3,3,10,28,15,259,00,138,38,213,00*49
2018-01-12 20:11:25 1515805885.675341: $GPZDA,011126.00,13,01,2018,00,00*6B
2018-01-12 20:11:25 1515805885.675504: $GPGGA,011126,3946.9608,N,08404.9522,W,1,08,0.80,278.99,M,-33.324,M,,*7B
2018-01-12 20:11:25 1515805885.675571: $GPRMC,011126,A,3946.9608,N,08404.9522,W,0.4179,328.778,130118,,*31
2018-01-12 20:11:25 1515805885.675632: $GPGSA,A,3,7,8,9,11,27,23,16,30,,,,,4.8,0.8,4.6*02
2018-01-12 20:11:26 1515805886.226452: $GPZDA,011127.00,13,01,2018,00,00*6A
2018-01-12 20:11:26 1515805886.226622: $GPGGA,011127,3946.9608,N,08404.9529,W,1,08,0.80,278.91,M,-33.324,M,,*79
2018-01-12 20:11:26 1515805886.226689: $GPRMC,011127,A,3946.9608,N,08404.9529,W,0.5912,309.173,130118,,*31
2018-01-12 20:11:26 1515805886.226751: $GPGSA,A,3,7,8,9,11,27,23,16,30,,,,,4.8,0.8,4.6*02
