2017-12-01 11:35:52 1512146152.116765: {"class":"VERSION","release":"3.16","rev":"3.16-4","proto_major":3,"proto_minor":11}
2017-12-01 11:35:52 1512146152.117160: {"class":"DEVICES","devices":[{"class":"DEVICE","path":"/dev/ttyUSB0","driver":"SiRF","subtype":"9\u0006GSD4e_4.1.2-P1_RPATCH.05-F-GPS-4R-1510281 11/03/2015 307","activated":"2017-12-01T16:35:52.024Z","flags":1,"native":1,"bps":4800,"parity":"N","stopbits":1,"cycle":1.00}]}
2017-12-01 11:35:52 1512146152.117284: {"class":"WATCH","enable":true,"json":false,"nmea":true,"raw":0,"scaled":false,"timing":false,"split24":false,"pps":false}
2017-12-01 11:35:52 1512146152.432800: $GPZDA,163553.00,01,12,2017,00,00*67
2017-12-01 11:35:52 1512146152.433015: $GPGGA,163553,3946.9539,N,08404.9833,W,2,11,0.80,306.85,M,-33.324,M,,*7B
2017-12-01 11:35:52 1512146152.433127: $GPRMC,163553,A,3946.9539,N,08404.9833,W,0.0000,0.000,011217,,*3B
2017-12-01 11:35:52 1512146152.433218: $GPGSA,A,3,5,13,15,18,20,21,24,27,29,10,138,,2.0,0.8,1.5*34
2017-12-01 11:35:53 1512146153.419277: $GPZDA,163554.00,01,12,2017,00,00*60
2017-12-01 11:35:53 1512146153.419453: $GPGGA,163554,3946.9539,N,08404.9833,W,2,11,0.80,306.85,M,-33.324,M,,*7C
2017-12-01 11:35:53 1512146153.419521: $GPRMC,163554,A,3946.9539,N,08404.9833,W,0.0000,0.000,011217,,*3C
2017-12-01 11:35:53 1512146153.419584: $GPGSA,A,3,5,13,15,18,20,21,24,27,29,10,138,,2.0,0.8,1.5*34
2017-12-01 11:35:54 1512146154.773776: $GPGSV,3,1,11,05,16,075,39,13,46,052,47,15,78,087,48,18,41,282,45*78
2017-12-01 11:35:54 1512146154.773959: $GPGSV,3,2,11,20,65,043,43,21,63,307,46,24,17,150,44,27,06,327,37*7C
2017-12-01 11:35:54 1512146154.774026: $GPGSV,3,3,11,29,28,196,46,10,10,270,28,138,38,213,46*78
2017-12-01 11:35:54 1512146154.887384: $GPZDA,163555.00,01,12,2017,00,00*61
2017-12-01 11:35:54 1512146154.887558: $GPGGA,163555,3946.9539,N,08404.9833,W,2,11,0.80,306.85,M,-33.324,M,,*7D
2017-12-01 11:35:54 1512146154.887626: $GPRMC,163555,A,3946.9539,N,08404.9833,W,0.0000,0.000,011217,,*3D
2017-12-01 11:35:54 1512146154.887688: $GPGSA,A,3,5,13,15,18,20,21,24,27,29,10,138,,2.0,0.8,1.5*34
2017-12-01 11:35:55 1512146155.512551: $GPZDA,163556.00,01,12,2017,00,00*62
2017-12-01 11:35:55 1512146155.512726: $GPGGA,163556,3946.9539,N,08404.9833,W,2,11,0.80,306.85,M,-33.324,M,,*7E
2017-12-01 11:35:55 1512146155.512796: $GPRMC,163556,A,3946.9539,N,08404.9833,W,0.0000,0.000,011217,,*3E
2017-12-01 11:35:55 1512146155.512857: $GPGSA,A,3,5,13,15,18,20,21,24,27,29,10,138,,2.0,0.8,1.5*34
2017-12-01 11:35:56 1512146156.411131: $GPZDA,163557.00,01,12,2017,00,00*63
2017-12-01 11:35:56 1512146156.411310: $GPGGA,163557,3946.9539,N,08404.9833,W,2,11,0.80,306.85,M,-33.324,M,,*7F
2017-12-01 11:35:56 1512146156.411435: $GPRMC,163557,A,3946.9539,N,08404.9833,W,0.0000,0.000,011217,,*3F
2017-12-01 11:35:56 1512146156.411499: $GPGSA,A,3,5,13,15,18,20,21,24,27,29,10,138,,2.0,0.8,1.5*34
2017-12-01 11:35:57 1512146157.769148: $GPGSV,3,1,11,05,16,075,38,13,46,052,47,15,78,087,48,18,41,282,44*78
2017-12-01 11:35:57 1512146157.769368: $GPGSV,3,2,11,20,65,043,43,21,63,307,46,24,17,150,44,27,06,327,37*7C
2017-12-01 11:35:57 1512146157.769455: $GPGSV,3,3,11,29,28,196,46,10,10,270,29,138,38,213,46*79
2017-12-01 11:35:57 1512146157.882511: $GPZDA,163558.00,01,12,2017,00,00*6C
2017-12-01 11:35:57 1512146157.882690: $GPGGA,163558,3946.9539,N,08404.9833,W,2,11,0.80,306.85,M,-33.324,M,,*70
2017-12-01 11:35:57 1512146157.882761: $GPRMC,163558,A,3946.9539,N,08404.9833,W,0.0000,0.000,011217,,*30
2017-12-01 11:35:57 1512146157.882823: $GPGSA,A,3,5,13,15,18,20,21,24,27,29,10,138,,2.0,0.8,1.5*34
2017-12-01 11:35:58 1512146158.417509: $GPZDA,163559.00,01,12,2017,00,00*6D
2017-12-01 11:35:58 1512146158.417679: $GPGGA,163559,3946.9539,N,08404.9833,W,2,11,0.80,306.85,M,-33.324,M,,*71
2017-12-01 11:35:58 1512146158.417746: $GPRMC,163559,A,3946.9539,N,08404.9833,W,0.0000,0.000,011217,,*31
2017-12-01 11:35:58 1512146158.417808: $GPGSA,A,3,5,13,15,18,20,21,24,27,29,10,138,,2.0,0.8,1.5*34
2017-12-01 11:35:59 1512146159.417098: $GPZDA,163600.00,01,12,2017,00,00*62
2017-12-01 11:35:59 1512146159.417274: $GPGGA,163600,3946.9539,N,08404.9833,W,2,11,0.80,306.85,M,-33.324,M,,*7E
2017-12-01 11:35:59 1512146159.417410: $GPRMC,163600,A,3946.9539,N,08404.9833,W,0.0000,0.000,011217,,*3E
2017-12-01 11:35:59 1512146159.417473: $GPGSA,A,3,5,13,15,18,20,21,24,27,29,10,138,,2.0,0.8,1.5*34
2017-12-01 11:36:00 1512146160.769488: $GPGSV,3,1,11,05,16,075,38,13,46,052,47,15,78,087,48,18,41,282,44*78
2017-12-01 11:36:00 1512146160.769674: $GPGSV,3,2,11,20,65,043,43,21,63,307,46,24,17,150,43,27,06,327,38*74
2017-12-01 11:36:00 1512146160.769742: $GPGSV,3,3,11,29,28,196,46,10,10,270,22,138,38,213,47*73
2017-12-01 11:36:00 1512146160.882827: $GPZDA,163601.00,01,12,2017,00,00*63
2017-12-01 11:36:00 1512146160.883007: $GPGGA,163601,3946.9539,N,08404.9833,W,2,11,0.80,306.85,M,-33.324,M,,*7F
2017-12-01 11:36:00 1512146160.883079: $GPRMC,163601,A,3946.9539,N,08404.9833,W,0.0000,0.000,011217,,*3F
2017-12-01 11:36:00 1512146160.883146: $GPGSA,A,3,5,13,15,18,20,21,24,27,29,10,138,,2.0,0.8,1.5*34
2017-12-01 11:36:01 1512146161.412493: $GPZDA,163602.00,01,12,2017,00,00*60
2017-12-01 11:36:01 1512146161.412671: $GPGGA,163602,3946.9539,N,08404.9833,W,2,11,0.80,306.85,M,-33.324,M,,*7C
2017-12-01 11:36:01 1512146161.412741: $GPRMC,163602,A,3946.9539,N,08404.9833,W,0.0000,0.000,011217,,*3C
2017-12-01 11:36:01 1512146161.412803: $GPGSA,A,3,5,13,15,18,20,21,24,27,29,10,138,,2.0,0.8,1.5*34
