2017-11-16 13:51:34 1510858294.517132: {"class":"VERSION","release":"3.17","rev":"3.17","proto_major":3,"proto_minor":12}
2017-11-16 13:51:34 1510858294.517642: {"class":"DEVICES","devices":[{"class":"DEVICE","path":"/dev/ttyUSB0","driver":"SiRF","subtype":"9\u0006GSD4e_4.1.2-P1_RPATCH.05-F-GPS-4R-1510281 11/03/2015 307","activated":"2017-11-16T18:51:34.258Z","flags":1,"native":1,"bps":4800,"parity":"N","stopbits":1,"cycle":1.00}]}
2017-11-16 13:51:34 1510858294.517768: {"class":"WATCH","enable":true,"json":false,"nmea":true,"raw":0,"scaled":false,"timing":false,"split24":false,"pps":false}
2017-11-16 13:51:34 1510858294.707426: $GPGSV,3,1,11,10,34,294,42,13,16,046,46,15,47,049,51,18,64,318,48*72
2017-11-16 13:51:34 1510858294.707583: $GPGSV,3,2,11,20,40,087,48,21,73,205,47,24,45,124,46,27,19,300,35*74
2017-11-16 13:51:34 1510858294.707644: $GPGSV,3,3,11,32,12,232,32,08,02,328,13,138,38,213,44*79
2017-11-16 13:51:34 1510858294.820991: $GPZDA,185133.00,16,11,2017,00,00*68
2017-11-16 13:51:34 1510858294.821165: $GPGGA,185133,3946.9615,N,08404.9826,W,2,10,0.80,307.01,M,-33.324,M,,*74
2017-11-16 13:51:34 1510858294.821225: $GPRMC,185133,A,3946.9615,N,08404.9826,W,0.0000,0.000,161117,,*3D
2017-11-16 13:51:34 1510858294.821281: $GPGSA,A,3,10,13,15,18,20,21,24,27,32,138,,,1.6,0.8,1.3*08
2017-11-16 13:51:35 1510858295.346761: $GPZDA,185134.00,16,11,2017,00,00*6F
2017-11-16 13:51:35 1510858295.346937: $GPGGA,185134,3946.9615,N,08404.9826,W,2,10,0.80,307.01,M,-33.324,M,,*73
2017-11-16 13:51:35 1510858295.346999: $GPRMC,185134,A,3946.9615,N,08404.9826,W,0.0000,0.000,161117,,*3A
2017-11-16 13:51:35 1510858295.347054: $GPGSA,A,3,10,13,15,18,20,21,24,27,32,138,,,1.6,0.8,1.3*08
2017-11-16 13:51:36 1510858296.372646: $GPZDA,185135.00,16,11,2017,00,00*6E
2017-11-16 13:51:36 1510858296.372809: $GPGGA,185135,3946.9615,N,08404.9826,W,2,10,0.80,307.01,M,-33.324,M,,*72
2017-11-16 13:51:36 1510858296.372870: $GPRMC,185135,A,3946.9615,N,08404.9826,W,0.0000,0.000,161117,,*3B
2017-11-16 13:51:36 1510858296.372926: $GPGSA,A,3,10,13,15,18,20,21,24,27,32,138,,,1.6,0.8,1.3*08
2017-11-16 13:51:37 1510858297.683119: $GPGSV,3,1,11,10,34,294,42,13,16,046,46,15,47,049,51,18,64,318,48*72
2017-11-16 13:51:37 1510858297.683278: $GPGSV,3,2,11,20,40,087,49,21,73,205,47,24,45,124,46,27,19,300,35*75
2017-11-16 13:51:37 1510858297.683338: $GPGSV,3,3,11,32,12,232,33,08,02,328,18,138,38,213,45*72
2017-11-16 13:51:37 1510858297.796713: $GPZDA,185136.00,16,11,2017,00,00*6D
2017-11-16 13:51:37 1510858297.796874: $GPGGA,185136,3946.9615,N,08404.9826,W,2,11,0.80,307.01,M,-33.324,M,,*70
2017-11-16 13:51:37 1510858297.796935: $GPRMC,185136,A,3946.9615,N,08404.9826,W,0.0000,0.000,161117,,*38
2017-11-16 13:51:37 1510858297.796991: $GPGSA,A,3,10,13,15,18,20,21,24,27,32,8,138,,1.6,0.8,1.3*30
2017-11-16 13:51:38 1510858298.347581: $GPZDA,185137.00,16,11,2017,00,00*6C
2017-11-16 13:51:38 1510858298.347756: $GPGGA,185137,3946.9615,N,08404.9826,W,2,11,0.80,307.01,M,-33.324,M,,*71
2017-11-16 13:51:38 1510858298.347817: $GPRMC,185137,A,3946.9615,N,08404.9826,W,0.0000,0.000,161117,,*39
2017-11-16 13:51:38 1510858298.347873: $GPGSA,A,3,10,13,15,18,20,21,24,27,32,8,138,,1.6,0.8,1.3*30
2017-11-16 13:51:39 1510858299.374599: $GPZDA,185138.00,16,11,2017,00,00*63
2017-11-16 13:51:39 1510858299.374752: $GPGGA,185138,3946.9615,N,08404.9826,W,2,11,0.80,307.01,M,-33.324,M,,*7E
2017-11-16 13:51:39 1510858299.374813: $GPRMC,185138,A,3946.9615,N,08404.9826,W,0.0000,0.000,161117,,*36
2017-11-16 13:51:39 1510858299.374869: $GPGSA,A,3,10,13,15,18,20,21,24,27,32,8,138,,1.6,0.8,1.3*30
2017-11-16 13:51:40 1510858300.682935: $GPGSV,3,1,11,10,34,294,42,13,16,046,46,15,47,049,51,18,64,318,49*73
2017-11-16 13:51:40 1510858300.683118: $GPGSV,3,2,11,20,40,087,49,21,73,205,47,24,45,124,47,27,19,300,35*74
2017-11-16 13:51:40 1510858300.683182: $GPGSV,3,3,11,32,12,232,33,08,02,328,24,138,38,213,43*7B
2017-11-16 13:51:40 1510858300.796246: $GPZDA,185139.00,16,11,2017,00,00*62
2017-11-16 13:51:40 1510858300.796424: $GPGGA,185139,3946.9615,N,08404.9826,W,2,11,0.80,307.01,M,-33.324,M,,*7F
2017-11-16 13:51:40 1510858300.796542: $GPRMC,185139,A,3946.9615,N,08404.9826,W,0.0000,0.000,161117,,*37
2017-11-16 13:51:40 1510858300.796599: $GPGSA,A,3,10,13,15,18,20,21,24,27,32,8,138,,1.6,0.8,1.3*30
2017-11-16 13:51:41 1510858301.371069: $GPZDA,185140.00,16,11,2017,00,00*6C
2017-11-16 13:51:41 1510858301.371226: $GPGGA,185140,3946.9615,N,08404.9826,W,2,11,0.80,307.01,M,-33.324,M,,*71
2017-11-16 13:51:41 1510858301.371288: $GPRMC,185140,A,3946.9615,N,08404.9826,W,0.0000,0.000,161117,,*39
2017-11-16 13:51:41 1510858301.371345: $GPGSA,A,3,10,13,15,18,20,21,24,27,32,8,138,,1.6,0.8,1.3*30
2017-11-16 13:51:42 1510858302.346772: $GPZDA,185141.00,16,11,2017,00,00*6D
2017-11-16 13:51:42 1510858302.346931: $GPGGA,185141,3946.9615,N,08404.9826,W,2,11,0.80,307.01,M,-33.324,M,,*70
2017-11-16 13:51:42 1510858302.346992: $GPRMC,185141,A,3946.9615,N,08404.9826,W,0.0000,0.000,161117,,*38
2017-11-16 13:51:42 1510858302.347047: $GPGSA,A,3,10,13,15,18,20,21,24,27,32,8,138,,1.6,0.8,1.3*30
2017-11-16 13:51:43 1510858303.684831: $GPGSV,3,1,11,10,34,294,42,13,16,046,47,15,47,049,51,18,64,318,49*72
2017-11-16 13:51:43 1510858303.684991: $GPGSV,3,2,11,20,40,087,49,21,73,205,48,24,45,124,46,27,19,300,35*7A
2017-11-16 13:51:43 1510858303.685050: $GPGSV,3,3,11,32,12,232,33,08,02,328,23,138,38,213,43*7C
2017-11-16 13:51:43 1510858303.798455: $GPZDA,185142.00,16,11,2017,00,00*6E
2017-11-16 13:51:43 1510858303.798617: $GPGGA,185142,3946.9615,N,08404.9826,W,2,11,0.80,307.01,M,-33.324,M,,*73
2017-11-16 13:51:43 1510858303.798677: $GPRMC,185142,A,3946.9615,N,08404.9826,W,0.0000,0.000,161117,,*3B
2017-11-16 13:51:43 1510858303.798733: $GPGSA,A,3,10,13,15,18,20,21,24,27,32,8,138,,1.6,0.8,1.3*30
2017-11-16 13:51:44 1510858304.373170: $GPZDA,185143.00,16,11,2017,00,00*6F
2017-11-16 13:51:44 1510858304.373333: $GPGGA,185143,3946.9615,N,08404.9826,W,2,11,0.80,307.01,M,-33.324,M,,*72
2017-11-16 13:51:44 1510858304.373394: $GPRMC,185143,A,3946.9615,N,08404.9826,W,0.0000,0.000,161117,,*3A
2017-11-16 13:51:44 1510858304.373450: $GPGSA,A,3,10,13,15,18,20,21,24,27,32,8,138,,1.6,0.8,1.3*30
