2017-12-01 11:52:27 1512147147.747084: {"class":"VERSION","release":"3.16","rev":"3.16-4","proto_major":3,"proto_minor":11}
2017-12-01 11:52:27 1512147147.747498: {"class":"DEVICES","devices":[{"class":"DEVICE","path":"/dev/ttyUSB0","driver":"SiRF","subtype":"9\u0006GSD4e_4.1.2-P1_RPATCH.05-F-GPS-4R-1510281 11/03/2015 307","activated":"2017-12-01T16:52:27.729Z","flags":1,"native":1,"bps":4800,"parity":"N","stopbits":1,"cycle":1.00}]}
2017-12-01 11:52:27 1512147147.747657: {"class":"WATCH","enable":true,"json":false,"nmea":true,"raw":0,"scaled":false,"timing":false,"split24":false,"pps":false}
2017-12-01 11:52:27 1512147147.843058: $GPZDA,165228.00,01,12,2017,00,00*6A
2017-12-01 11:52:27 1512147147.843224: $GPGGA,165228,3946.9567,N,08404.9834,W,2,11,0.80,302.06,M,-33.324,M,,*75
2017-12-01 11:52:27 1512147147.843289: $GPRMC,165228,A,3946.9567,N,08404.9834,W,0.0000,0.000,011217,,*3A
2017-12-01 11:52:27 1512147147.843350: $GPGSA,A,3,10,13,15,18,20,21,24,27,29,5,138,,2.0,0.8,1.5*34
2017-12-01 11:52:28 1512147148.469728: $GPZDA,165229.00,01,12,2017,00,00*6B
2017-12-01 11:52:28 1512147148.469899: $GPGGA,165229,3946.9567,N,08404.9834,W,2,11,0.80,302.06,M,-33.324,M,,*74
2017-12-01 11:52:28 1512147148.469966: $GPRMC,165229,A,3946.9567,N,08404.9834,W,0.0000,0.000,011217,,*3B
2017-12-01 11:52:28 1512147148.470027: $GPGSA,A,3,10,13,15,18,20,21,24,27,29,5,138,,2.0,0.8,1.5*34
2017-12-01 11:52:29 1512147149.390588: $GPZDA,165230.00,01,12,2017,00,00*63
2017-12-01 11:52:29 1512147149.390786: $GPGGA,165230,3946.9567,N,08404.9834,W,2,11,0.80,302.06,M,-33.324,M,,*7C
2017-12-01 11:52:29 1512147149.390856: $GPRMC,165230,A,3946.9567,N,08404.9834,W,0.0000,0.000,011217,,*33
2017-12-01 11:52:29 1512147149.390920: $GPGSA,A,3,10,13,15,18,20,21,24,27,29,5,138,,2.0,0.8,1.5*34
2017-12-01 11:52:30 1512147150.723754: $GPGSV,3,1,12,10,16,274,41,13,39,048,46,15,72,063,46,18,46,289,45*73
2017-12-01 11:52:30 1512147150.723937: $GPGSV,3,2,12,20,60,057,44,21,71,301,46,24,24,147,45,27,11,321,41*7B
2017-12-01 11:52:30 1512147150.724007: $GPGSV,3,3,12,29,20,193,47,05,11,079,28,04,09,132,00,138,38,213,46*44
2017-12-01 11:52:30 1512147150.837401: $GPZDA,165231.00,01,12,2017,00,00*62
2017-12-01 11:52:30 1512147150.837593: $GPGGA,165231,3946.9567,N,08404.9834,W,2,11,0.80,302.06,M,-33.324,M,,*7D
2017-12-01 11:52:30 1512147150.837681: $GPRMC,165231,A,3946.9567,N,08404.9834,W,0.0000,0.000,011217,,*32
2017-12-01 11:52:30 1512147150.837747: $GPGSA,A,3,10,13,15,18,20,21,24,27,29,5,138,,2.0,0.8,1.5*34
2017-12-01 11:52:31 1512147151.393063: $GPZDA,165232.00,01,12,2017,00,00*61
2017-12-01 11:52:31 1512147151.393241: $GPGGA,165232,3946.9567,N,08404.9834,W,2,11,0.80,302.06,M,-33.324,M,,*7E
2017-12-01 11:52:31 1512147151.393311: $GPRMC,165232,A,3946.9567,N,08404.9834,W,0.0000,0.000,011217,,*31
2017-12-01 11:52:31 1512147151.393376: $GPGSA,A,3,10,13,15,18,20,21,24,27,29,5,138,,2.0,0.8,1.5*34
2017-12-01 11:52:32 1512147152.393845: $GPZDA,165233.00,01,12,2017,00,00*60
2017-12-01 11:52:32 1512147152.394022: $GPGGA,165233,3946.9567,N,08404.9834,W,2,11,0.80,302.06,M,-33.324,M,,*7F
2017-12-01 11:52:32 1512147152.394091: $GPRMC,165233,A,3946.9567,N,08404.9834,W,0.0000,0.000,011217,,*30
2017-12-01 11:52:32 1512147152.394156: $GPGSA,A,3,10,13,15,18,20,21,24,27,29,5,138,,2.0,0.8,1.5*34
2017-12-01 11:52:32 1512147152.394218: $GPGBS,165233,2.67,M,3.86,M,8.82,M*32
2017-12-01 11:52:33 1512147153.722680: $GPGSV,3,1,12,10,16,274,12,13,39,048,14,15,72,063,14,18,46,289,13*76
2017-12-01 11:52:33 1512147153.722863: $GPGSV,3,2,12,20,60,057,13,21,71,301,14,24,24,147,13,27,11,321,12*7B
2017-12-01 11:52:33 1512147153.722934: $GPGSV,3,3,12,29,20,193,14,05,11,079,08,04,09,132,00,138,38,213,16*45
2017-12-01 11:52:33 1512147153.836111: $GPZDA,165234.00,01,12,2017,00,00*67
2017-12-01 11:52:33 1512147153.836284: $GPGGA,165234,3946.9571,N,08404.9834,W,2,11,0.80,302.70,M,-33.324,M,,*7E
2017-12-01 11:52:33 1512147153.836354: $GPRMC,165234,A,3946.9571,N,08404.9834,W,0.3423,4.197,011217,,*3D
2017-12-01 11:52:33 1512147153.836417: $GPGSA,A,3,10,13,15,18,20,21,24,27,29,5,138,,2.0,0.8,1.5*34
2017-12-01 11:52:34 1512147154.385750: $GPZDA,165235.00,01,12,2017,00,00*66
2017-12-01 11:52:34 1512147154.387454: $GPGGA,165235,3946.9568,N,08404.9835,W,2,11,0.80,303.46,M,-33.324,M,,*72
2017-12-01 11:52:34 1512147154.387610: $GPRMC,165235,A,3946.9568,N,08404.9835,W,0.0000,0.000,011217,,*38
2017-12-01 11:52:34 1512147154.387768: $GPGSA,A,3,10,13,15,18,20,21,24,27,29,5,138,,2.0,0.8,1.5*34
2017-12-01 11:52:35 1512147155.385380: $GPZDA,165236.00,01,12,2017,00,00*65
2017-12-01 11:52:35 1512147155.385574: $GPGGA,165236,3946.9569,N,08404.9843,W,2,11,0.80,304.79,M,-33.324,M,,*7A
2017-12-01 11:52:35 1512147155.385669: $GPRMC,165236,A,3946.9569,N,08404.9843,W,0.0000,0.000,011217,,*3B
2017-12-01 11:52:35 1512147155.385731: $GPGSA,A,3,10,13,15,18,20,21,24,27,29,5,138,,2.0,0.8,1.5*34
2017-12-01 11:52:36 1512147156.722290: $GPGSV,3,1,12,10,16,274,42,13,39,048,46,15,72,063,45,18,46,289,44*72
2017-12-01 11:52:36 1512147156.722489: $GPGSV,3,2,12,20,60,057,42,21,71,301,45,24,24,147,44,27,11,321,42*7C
2017-12-01 11:52:36 1512147156.722591: $GPGSV,3,3,12,29,20,193,46,05,11,079,27,04,09,132,00,138,38,213,47*4B
2017-12-01 11:52:36 1512147156.835753: $GPZDA,165237.00,01,12,2017,00,00*64
2017-12-01 11:52:36 1512147156.835924: $GPGGA,165237,3946.9569,N,08404.9843,W,2,11,0.80,304.79,M,-33.324,M,,*7B
2017-12-01 11:52:36 1512147156.835992: $GPRMC,165237,A,3946.9569,N,08404.9843,W,0.0000,0.000,011217,,*3A
2017-12-01 11:52:36 1512147156.836053: $GPGSA,A,3,10,13,15,18,20,21,24,27,29,5,138,,2.0,0.8,1.5*34
2017-12-01 11:52:37 1512147157.387927: $GPZDA,165238.00,01,12,2017,00,00*6B
2017-12-01 11:52:37 1512147157.388097: $GPGGA,165238,3946.9569,N,08404.9843,W,2,11,0.80,304.79,M,-33.324,M,,*74
2017-12-01 11:52:37 1512147157.388164: $GPRMC,165238,A,3946.9569,N,08404.9843,W,0.0000,0.000,011217,,*35
2017-12-01 11:52:37 1512147157.388224: $GPGSA,A,3,10,13,15,18,20,21,24,27,29,5,138,,2.0,0.8,1.5*34
