2017-12-01 15:25:45 1512159945.269689: {"class":"VERSION","release":"3.16","rev":"3.16-4","proto_major":3,"proto_minor":11}
2017-12-01 15:25:45 1512159945.270086: {"class":"DEVICES","devices":[{"class":"DEVICE","path":"/dev/ttyUSB0","driver":"SiRF","subtype":"9\u0006GSD4e_4.1.2-P1_RPATCH.05-F-GPS-4R-1510281 11/03/2015 307","activated":"2017-12-01T20:25:45.243Z","flags":1,"native":1,"bps":4800,"parity":"N","stopbits":1,"cycle":1.00}]}
2017-12-01 15:25:45 1512159945.270210: {"class":"WATCH","enable":true,"json":false,"nmea":true,"raw":0,"scaled":false,"timing":false,"split24":false,"pps":false}
2017-12-01 15:25:46 1512159946.182948: $GPZDA,202546.45,01,12,2017,00,00*66
2017-12-01 15:25:46 1512159946.183118: $GPGGA,202546,3946.9591,N,08404.9880,W,1,11,0.80,298.32,M,-33.324,M,,*78
2017-12-01 15:25:46 1512159946.183184: $GPRMC,202546,A,3946.9591,N,08404.9880,W,0.1567,9.200,011217,,*3F
2017-12-01 15:25:46 1512159946.183246: $GPGSA,A,3,1,10,11,12,14,18,24,25,31,32,138,,2.0,0.8,1.5*3B
2017-12-01 15:25:47 1512159947.325715: $GPGSV,3,1,12,01,09,324,37,10,78,114,47,12,23,081,45,14,49,280,41*75
2017-12-01 15:25:47 1512159947.325991: $GPGSV,3,2,12,18,46,129,47,24,21,045,43,25,23,123,45,31,26,208,46*73
2017-12-01 15:25:47 1512159947.326184: $GPGSV,3,3,12,32,64,309,48,11,09,309,06,21,02,174,00,138,38,213,20*4A
2017-12-01 15:25:47 1512159947.439021: $GPZDA,202547.00,01,12,2017,00,00*66
2017-12-01 15:25:47 1512159947.439191: $GPGGA,202547,3946.9594,N,08404.9879,W,1,10,0.80,297.56,M,-33.324,M,,*76
2017-12-01 15:25:47 1512159947.439257: $GPRMC,202547,A,3946.9594,N,08404.9879,W,0.2422,93.794,011217,,*05
2017-12-01 15:25:47 1512159947.439317: $GPGSA,A,3,1,10,12,14,18,24,25,31,32,138,,,2.0,0.8,1.5*3B
2017-12-01 15:25:47 1512159947.891038: $GPZDA,202548.00,01,12,2017,00,00*69
2017-12-01 15:25:47 1512159947.891230: $GPGGA,202548,3946.9594,N,08404.9879,W,1,10,0.80,297.56,M,-33.324,M,,*79
2017-12-01 15:25:47 1512159947.891298: $GPRMC,202548,A,3946.9594,N,08404.9879,W,0.2422,93.794,011217,,*0A
2017-12-01 15:25:47 1512159947.891415: $GPGSA,A,3,1,10,12,14,18,24,25,31,32,138,,,2.0,0.8,1.5*3B
2017-12-01 15:25:48 1512159948.393291: $GPZDA,202549.00,01,12,2017,00,00*68
2017-12-01 15:25:48 1512159948.393461: $GPGGA,202549,3946.9594,N,08404.9879,W,1,10,0.80,297.56,M,-33.324,M,,*78
2017-12-01 15:25:48 1512159948.393528: $GPRMC,202549,A,3946.9594,N,08404.9879,W,0.0000,0.000,011217,,*3D
2017-12-01 15:25:48 1512159948.393590: $GPGSA,A,3,1,10,12,14,18,24,25,31,32,138,,,2.0,0.8,1.5*3B
2017-12-01 15:25:49 1512159949.731008: $GPGSV,3,1,12,01,09,324,37,10,78,114,46,12,23,081,46,14,49,280,42*74
2017-12-01 15:25:49 1512159949.731189: $GPGSV,3,2,12,18,46,129,48,24,21,045,44,25,23,123,45,31,26,208,46*7B
2017-12-01 15:25:49 1512159949.731256: $GPGSV,3,3,12,32,64,309,48,11,09,309,29,21,02,174,05,138,38,213,46*42
2017-12-01 15:25:49 1512159949.844444: $GPZDA,202550.00,01,12,2017,00,00*60
2017-12-01 15:25:49 1512159949.844613: $GPGGA,202550,3946.9594,N,08404.9879,W,1,11,0.80,297.56,M,-33.324,M,,*71
2017-12-01 15:25:49 1512159949.844700: $GPRMC,202550,A,3946.9594,N,08404.9879,W,0.0000,0.000,011217,,*35
2017-12-01 15:25:49 1512159949.844763: $GPGSA,A,3,1,10,12,14,18,24,25,31,32,11,138,,2.0,0.8,1.5*3B
2017-12-01 15:25:50 1512159950.393937: $GPZDA,202551.00,01,12,2017,00,00*61
2017-12-01 15:25:50 1512159950.394121: $GPGGA,202551,3946.9598,N,08404.9878,W,1,11,0.80,296.79,M,-33.324,M,,*71
2017-12-01 15:25:50 1512159950.394189: $GPRMC,202551,A,3946.9598,N,08404.9878,W,0.0000,0.000,011217,,*39
2017-12-01 15:25:50 1512159950.394251: $GPGSA,A,3,1,10,12,14,18,24,25,31,32,11,138,,2.0,0.8,1.5*3B
2017-12-01 15:25:51 1512159951.394655: $GPZDA,202552.00,01,12,2017,00,00*62
2017-12-01 15:25:51 1512159951.394872: $GPGGA,202552,3946.9598,N,08404.9878,W,1,11,0.80,296.79,M,-33.324,M,,*72
2017-12-01 15:25:51 1512159951.394941: $GPRMC,202552,A,3946.9598,N,08404.9878,W,0.0000,0.000,011217,,*3A
2017-12-01 15:25:51 1512159951.395003: $GPGSA,A,3,1,10,12,14,18,24,25,31,32,11,138,,2.0,0.8,1.5*3B
2017-12-01 15:25:51 1512159951.395062: $GPGBS,202552,10.70,M,15.43,M,35.28,M*05
2017-12-01 15:25:52 1512159952.731681: $GPGSV,3,1,12,01,09,324,37,10,78,114,47,12,23,081,45,14,49,280,42*76
2017-12-01 15:25:52 1512159952.731888: $GPGSV,3,2,12,18,46,129,48,24,21,045,44,25,23,123,45,31,26,208,46*7B
2017-12-01 15:25:52 1512159952.731956: $GPGSV,3,3,12,32,64,309,48,11,09,309,30,21,02,174,00,138,38,213,46*4F
2017-12-01 15:25:52 1512159952.845295: $GPZDA,202553.00,01,12,2017,00,00*63
2017-12-01 15:25:52 1512159952.845467: $GPGGA,202553,3946.9600,N,08404.9870,W,2,11,1.00,294.70,M,-33.324,M,,*78
2017-12-01 15:25:52 1512159952.845535: $GPRMC,202553,A,3946.9600,N,08404.9870,W,0.0000,0.000,011217,,*31
2017-12-01 15:25:52 1512159952.845598: $GPGSA,A,3,1,10,12,14,18,24,25,31,32,11,138,,2.0,1.0,1.5*32
2017-12-01 15:25:53 1512159953.394946: $GPZDA,202554.00,01,12,2017,00,00*64
2017-12-01 15:25:53 1512159953.395122: $GPGGA,202554,3946.9600,N,08404.9870,W,2,11,0.80,294.70,M,-33.324,M,,*76
2017-12-01 15:25:53 1512159953.395191: $GPRMC,202554,A,3946.9600,N,08404.9870,W,0.0000,0.000,011217,,*36
2017-12-01 15:25:53 1512159953.395252: $GPGSA,A,3,1,10,12,14,18,24,25,31,32,11,138,,2.0,0.8,1.5*3B
2017-12-01 15:25:54 1512159954.394986: $GPZDA,202555.00,01,12,2017,00,00*65
2017-12-01 15:25:54 1512159954.395158: $GPGGA,202555,3946.9600,N,08404.9870,W,2,11,0.80,294.70,M,-33.324,M,,*77
2017-12-01 15:25:54 1512159954.395226: $GPRMC,202555,A,3946.9600,N,08404.9870,W,0.0000,0.000,011217,,*37
2017-12-01 15:25:54 1512159954.395287: $GPGSA,A,3,1,10,12,14,18,24,25,31,32,11,138,,2.0,0.8,1.5*3B
2017-12-01 15:25:55 1512159955.737165: $GPGSV,3,1,12,01,09,324,37,10,78,114,47,12,23,081,44,14,49,280,42*77
2017-12-01 15:25:55 1512159955.737362: $GPGSV,3,2,12,18,46,129,48,24,21,045,44,25,23,123,45,31,26,208,46*7B
2017-12-01 15:25:55 1512159955.737431: $GPGSV,3,3,12,32,64,309,48,11,09,309,30,21,02,174,02,138,38,213,45*4E
2017-12-01 15:25:55 1512159955.850369: $GPZDA,202556.00,01,12,2017,00,00*66
2017-12-01 15:25:55 1512159955.850563: $GPGGA,202556,3946.9600,N,08404.9870,W,2,11,0.80,294.70,M,-33.324,M,,*74
2017-12-01 15:25:55 1512159955.850630: $GPRMC,202556,A,3946.9600,N,08404.9870,W,0.0000,0.000,011217,,*34
2017-12-01 15:25:55 1512159955.850711: $GPGSA,A,3,1,10,12,14,18,24,25,31,32,11,138,,2.0,0.8,1.5*3B
2017-12-01 15:25:56 1512159956.393740: $GPZDA,202557.00,01,12,2017,00,00*67
2017-12-01 15:25:56 1512159956.393937: $GPGGA,202557,3946.9600,N,08404.9870,W,2,11,0.80,294.70,M,-33.324,M,,*75
2017-12-01 15:25:56 1512159956.394005: $GPRMC,202557,A,3946.9600,N,08404.9870,W,0.0000,0.000,011217,,*35
2017-12-01 15:25:56 1512159956.394101: $GPGSA,A,3,1,10,12,14,18,24,25,31,32,11,138,,2.0,0.8,1.5*3B
2017-12-01 15:25:57 1512159957.394625: $GPZDA,202558.00,01,12,2017,00,00*68
2017-12-01 15:25:57 1512159957.394854: $GPGGA,202558,3946.9600,N,08404.9870,W,2,11,0.80,294.70,M,-33.324,M,,*7A
2017-12-01 15:25:57 1512159957.394924: $GPRMC,202558,A,3946.9600,N,08404.9870,W,0.0000,0.000,011217,,*3A
2017-12-01 15:25:57 1512159957.394986: $GPGSA,A,3,1,10,12,14,18,24,25,31,32,11,138,,2.0,0.8,1.5*3B
2017-12-01 15:25:58 1512159958.731676: $GPGSV,3,1,12,01,09,324,37,10,78,114,47,12,23,081,45,14,49,280,42*76
2017-12-01 15:25:58 1512159958.731884: $GPGSV,3,2,12,18,46,129,48,24,21,045,45,25,23,123,45,31,26,208,46*7A
2017-12-01 15:25:58 1512159958.731953: $GPGSV,3,3,12,32,64,309,48,11,09,309,30,21,02,174,00,138,38,213,46*4F
2017-12-01 15:25:58 1512159958.844982: $GPZDA,202559.00,01,12,2017,00,00*69
2017-12-01 15:25:58 1512159958.845147: $GPGGA,202559,3946.9600,N,08404.9870,W,2,11,0.80,294.70,M,-33.324,M,,*7B
2017-12-01 15:25:58 1512159958.845215: $GPRMC,202559,A,3946.9600,N,08404.9870,W,0.0000,0.000,011217,,*3B
2017-12-01 15:25:58 1512159958.845276: $GPGSA,A,3,1,10,12,14,18,24,25,31,32,11,138,,2.0,0.8,1.5*3B
2017-12-01 15:25:59 1512159959.470616: $GPZDA,202600.00,01,12,2017,00,00*66
2017-12-01 15:25:59 1512159959.470824: $GPGGA,202600,3946.9600,N,08404.9870,W,2,11,0.80,294.70,M,-33.324,M,,*74
2017-12-01 15:25:59 1512159959.470893: $GPRMC,202600,A,3946.9600,N,08404.9870,W,0.0000,0.000,011217,,*34
2017-12-01 15:25:59 1512159959.470954: $GPGSA,A,3,1,10,12,14,18,24,25,31,32,11,138,,2.0,0.8,1.5*3B
2017-12-01 15:26:00 1512159960.395293: $GPZDA,202601.00,01,12,2017,00,00*67
2017-12-01 15:26:00 1512159960.399793: $GPGGA,202601,3946.9600,N,08404.9870,W,2,11,0.80,294.70,M,-33.324,M,,*75
2017-12-01 15:26:00 1512159960.399908: $GPRMC,202601,A,3946.9600,N,08404.9870,W,0.0000,0.000,011217,,*35
2017-12-01 15:26:00 1512159960.399973: $GPGSA,A,3,1,10,12,14,18,24,25,31,32,11,138,,2.0,0.8,1.5*3B
2017-12-01 15:26:01 1512159961.730741: $GPGSV,3,1,12,01,09,324,38,10,78,114,47,12,23,081,45,14,49,280,41*7A
2017-12-01 15:26:01 1512159961.730940: $GPGSV,3,2,12,18,46,129,48,24,21,045,45,25,23,123,45,31,26,208,46*7A
2017-12-01 15:26:01 1512159961.731010: $GPGSV,3,3,12,32,64,309,48,11,09,309,36,21,02,174,00,138,38,213,47*48
2017-12-01 15:26:01 1512159961.844113: $GPZDA,202602.00,01,12,2017,00,00*64
2017-12-01 15:26:01 1512159961.844292: $GPGGA,202602,3946.9600,N,08404.9870,W,2,11,0.80,294.70,M,-33.324,M,,*76
2017-12-01 15:26:01 1512159961.844361: $GPRMC,202602,A,3946.9600,N,08404.9870,W,0.0000,0.000,011217,,*36
2017-12-01 15:26:01 1512159961.844423: $GPGSA,A,3,1,10,12,14,18,24,25,31,32,11,138,,2.0,0.8,1.5*3B
2017-12-01 15:26:02 1512159962.395309: $GPZDA,202603.00,01,12,2017,00,00*65
2017-12-01 15:26:02 1512159962.395493: $GPGGA,202603,3946.9600,N,08404.9870,W,2,11,0.80,294.70,M,-33.324,M,,*77
2017-12-01 15:26:02 1512159962.395561: $GPRMC,202603,A,3946.9600,N,08404.9870,W,0.0000,0.000,011217,,*37
2017-12-01 15:26:02 1512159962.395646: $GPGSA,A,3,1,10,12,14,18,24,25,31,32,11,138,,2.0,0.8,1.5*3B
2017-12-01 15:26:03 1512159963.392069: $GPZDA,202604.00,01,12,2017,00,00*62
2017-12-01 15:26:03 1512159963.392246: $GPGGA,202604,3946.9597,N,08404.9870,W,2,11,0.80,295.47,M,-33.324,M,,*78
2017-12-01 15:26:03 1512159963.392315: $GPRMC,202604,A,3946.9597,N,08404.9870,W,0.3423,4.196,011217,,*31
2017-12-01 15:26:03 1512159963.392377: $GPGSA,A,3,1,10,12,14,18,24,25,31,32,11,138,,2.0,0.8,1.5*3B
2017-12-01 15:26:03 1512159963.392436: $GPGBS,202604,2.67,M,3.86,M,8.82,M*30
2017-12-01 15:26:04 1512159964.732230: $GPGSV,3,1,12,01,09,324,37,10,78,114,47,12,23,081,45,14,49,280,41*75
2017-12-01 15:26:04 1512159964.732414: $GPGSV,3,2,12,18,46,129,47,24,21,045,44,25,23,123,45,31,26,208,46*74
2017-12-01 15:26:04 1512159964.732482: $GPGSV,3,3,12,32,64,309,48,11,09,309,34,21,02,174,00,138,38,213,47*4A
2017-12-01 15:26:04 1512159964.845569: $GPZDA,202605.00,01,12,2017,00,00*63
2017-12-01 15:26:04 1512159964.845783: $GPGGA,202605,3946.9597,N,08404.9870,W,2,11,0.80,295.47,M,-33.324,M,,*79
2017-12-01 15:26:04 1512159964.845852: $GPRMC,202605,A,3946.9597,N,08404.9870,W,0.0000,0.000,011217,,*3C
2017-12-01 15:26:04 1512159964.845913: $GPGSA,A,3,1,10,12,14,18,24,25,31,32,11,138,,2.0,0.8,1.5*3B
