2017-12-01 12:14:30 1512148470.987624: {"class":"VERSION","release":"3.16","rev":"3.16-4","proto_major":3,"proto_minor":11}
2017-12-01 12:14:30 1512148470.988110: {"class":"DEVICES","devices":[{"class":"DEVICE","path":"/dev/ttyUSB0","driver":"SiRF","subtype":"9\u0006GSD4e_4.1.2-P1_RPATCH.05-F-GPS-4R-1510281 11/03/2015 307","activated":"2017-12-01T17:14:30.529Z","flags":1,"native":1,"bps":4800,"parity":"N","stopbits":1,"cycle":1.00}]}
2017-12-01 12:14:30 1512148470.988305: {"class":"WATCH","enable":true,"json":false,"nmea":true,"raw":0,"scaled":false,"timing":false,"split24":false,"pps":false}
2017-12-01 12:14:31 1512148471.725586: $GPGSV,3,1,12,10,22,282,37,13,30,045,45,15,62,052,44,18,53,298,44*7F
2017-12-01 12:14:31 1512148471.725771: $GPGSV,3,2,12,20,52,070,46,21,78,274,43,24,32,139,46,27,16,313,43*7B
2017-12-01 12:14:31 1512148471.725838: $GPGSV,3,3,12,05,04,087,07,29,11,190,27,04,01,136,00,138,38,213,46*47
2017-12-01 12:14:31 1512148471.838942: $GPZDA,171432.00,01,12,2017,00,00*62
2017-12-01 12:14:31 1512148471.839102: $GPGGA,171432,3946.9581,N,08404.9839,W,2,10,0.80,298.92,M,-33.324,M,,*76
2017-12-01 12:14:31 1512148471.839170: $GPRMC,171432,A,3946.9581,N,08404.9839,W,0.0000,0.000,011217,,*37
2017-12-01 12:14:31 1512148471.839230: $GPGSA,A,3,10,13,15,18,20,21,24,27,29,138,,,2.0,0.8,1.5*01
2017-12-01 12:14:32 1512148472.389862: $GPZDA,171433.00,01,12,2017,00,00*63
2017-12-01 12:14:32 1512148472.390052: $GPGGA,171433,3946.9581,N,08404.9839,W,2,10,0.80,298.92,M,-33.324,M,,*77
2017-12-01 12:14:32 1512148472.390121: $GPRMC,171433,A,3946.9581,N,08404.9839,W,0.0000,0.000,011217,,*36
2017-12-01 12:14:32 1512148472.390181: $GPGSA,A,3,10,13,15,18,20,21,24,27,29,138,,,2.0,0.8,1.5*01
2017-12-01 12:14:33 1512148473.389035: $GPZDA,171434.00,01,12,2017,00,00*64
2017-12-01 12:14:33 1512148473.389211: $GPGGA,171434,3946.9581,N,08404.9839,W,2,10,0.80,298.92,M,-33.324,M,,*70
2017-12-01 12:14:33 1512148473.389279: $GPRMC,171434,A,3946.9581,N,08404.9839,W,0.0000,0.000,011217,,*31
2017-12-01 12:14:33 1512148473.389340: $GPGSA,A,3,10,13,15,18,20,21,24,27,29,138,,,2.0,0.8,1.5*01
2017-12-01 12:14:34 1512148474.723448: $GPGSV,3,1,12,10,22,282,37,13,30,045,45,15,62,052,44,18,53,298,44*7F
2017-12-01 12:14:34 1512148474.723610: $GPGSV,3,2,12,20,52,070,46,21,78,274,43,24,32,139,46,27,16,313,43*7B
2017-12-01 12:14:34 1512148474.723678: $GPGSV,3,3,12,05,04,087,04,29,11,190,26,04,01,136,00,138,38,213,46*45
2017-12-01 12:14:34 1512148474.836955: $GPZDA,171435.00,01,12,2017,00,00*65
2017-12-01 12:14:34 1512148474.837145: $GPGGA,171435,3946.9581,N,08404.9839,W,2,10,0.80,298.92,M,-33.324,M,,*71
2017-12-01 12:14:34 1512148474.837214: $GPRMC,171435,A,3946.9581,N,08404.9839,W,0.0000,0.000,011217,,*30
2017-12-01 12:14:34 1512148474.837277: $GPGSA,A,3,10,13,15,18,20,21,24,27,29,138,,,2.0,0.8,1.5*01
2017-12-01 12:14:35 1512148475.388966: $GPZDA,171436.00,01,12,2017,00,00*66
2017-12-01 12:14:35 1512148475.389148: $GPGGA,171436,3946.9581,N,08404.9839,W,2,10,0.80,298.92,M,-33.324,M,,*72
2017-12-01 12:14:35 1512148475.389215: $GPRMC,171436,A,3946.9581,N,08404.9839,W,0.0000,0.000,011217,,*33
2017-12-01 12:14:35 1512148475.389278: $GPGSA,A,3,10,13,15,18,20,21,24,27,29,138,,,2.0,0.8,1.5*01
2017-12-01 12:14:36 1512148476.383571: $GPZDA,171437.00,01,12,2017,00,00*67
2017-12-01 12:14:36 1512148476.383754: $GPGGA,171437,3946.9581,N,08404.9839,W,2,10,0.80,298.92,M,-33.324,M,,*73
2017-12-01 12:14:36 1512148476.383825: $GPRMC,171437,A,3946.9581,N,08404.9839,W,0.0000,0.000,011217,,*32
2017-12-01 12:14:36 1512148476.383890: $GPGSA,A,3,10,13,15,18,20,21,24,27,29,138,,,2.0,0.8,1.5*01
2017-12-01 12:14:37 1512148477.720561: $GPGSV,3,1,12,10,22,282,37,13,30,045,44,15,62,052,44,18,53,298,44*7E
2017-12-01 12:14:37 1512148477.720746: $GPGSV,3,2,12,20,52,070,46,21,78,274,44,24,32,139,46,27,16,313,44*7B
2017-12-01 12:14:37 1512148477.720815: $GPGSV,3,3,12,05,04,087,05,29,11,190,26,04,01,136,00,138,38,213,46*44
2017-12-01 12:14:37 1512148477.833927: $GPZDA,171438.00,01,12,2017,00,00*68
2017-12-01 12:14:37 1512148477.834100: $GPGGA,171438,3946.9581,N,08404.9839,W,2,11,0.80,298.92,M,-33.324,M,,*7D
2017-12-01 12:14:37 1512148477.834217: $GPRMC,171438,A,3946.9581,N,08404.9839,W,0.0000,0.000,011217,,*3D
2017-12-01 12:14:37 1512148477.834281: $GPGSA,A,3,10,13,15,18,20,21,24,27,5,29,138,,2.0,0.8,1.5*34
2017-12-01 12:14:38 1512148478.459389: $GPZDA,171439.00,01,12,2017,00,00*69
2017-12-01 12:14:38 1512148478.459569: $GPGGA,171439,3946.9581,N,08404.9839,W,2,11,0.80,298.92,M,-33.324,M,,*7C
2017-12-01 12:14:38 1512148478.459637: $GPRMC,171439,A,3946.9581,N,08404.9839,W,0.0000,0.000,011217,,*3C
2017-12-01 12:14:38 1512148478.459699: $GPGSA,A,3,10,13,15,18,20,21,24,27,5,29,138,,2.0,0.8,1.5*34
2017-12-01 12:14:39 1512148479.390548: $GPZDA,171440.00,01,12,2017,00,00*67
2017-12-01 12:14:39 1512148479.390725: $GPGGA,171440,3946.9581,N,08404.9839,W,2,11,0.80,298.92,M,-33.324,M,,*72
2017-12-01 12:14:39 1512148479.390797: $GPRMC,171440,A,3946.9581,N,08404.9839,W,0.0000,0.000,011217,,*32
2017-12-01 12:14:39 1512148479.390865: $GPGSA,A,3,10,13,15,18,20,21,24,27,5,29,138,,2.0,0.8,1.5*34
2017-12-01 12:14:40 1512148480.724745: $GPGSV,3,1,12,10,22,282,37,13,30,045,45,15,62,052,45,18,53,298,44*7E
2017-12-01 12:14:40 1512148480.724932: $GPGSV,3,2,12,20,52,070,46,21,78,274,43,24,32,139,46,27,16,313,44*7C
2017-12-01 12:14:40 1512148480.725002: $GPGSV,3,3,12,05,04,087,16,29,11,190,26,04,01,136,00,138,38,213,46*46
2017-12-01 12:14:40 1512148480.838151: $GPZDA,171441.00,01,12,2017,00,00*66
2017-12-01 12:14:40 1512148480.838320: $GPGGA,171441,3946.9581,N,08404.9839,W,2,11,0.80,298.92,M,-33.324,M,,*73
2017-12-01 12:14:40 1512148480.838387: $GPRMC,171441,A,3946.9581,N,08404.9839,W,0.0000,0.000,011217,,*33
2017-12-01 12:14:40 1512148480.838448: $GPGSA,A,3,10,13,15,18,20,21,24,27,5,29,138,,2.0,0.8,1.5*34
