2018-01-12 03:18:35 1515745115.939515: {"class":"VERSION","release":"3.16","rev":"3.16-4","proto_major":3,"proto_minor":11}
2018-01-12 03:18:35 1515745115.939859: {"class":"DEVICES","devices":[{"class":"DEVICE","path":"/dev/ttyUSB0","driver":"SiRF","subtype":"9\u0006GSD4e_4.1.2-P1_RPATCH.05-F-GPS-4R-1510281 11/03/2015 307","activated":"2018-01-12T08:18:35.859Z","flags":1,"native":1,"bps":4800,"parity":"N","stopbits":1,"cycle":1.00}]}
2018-01-12 03:18:35 1515745115.939975: {"class":"WATCH","enable":true,"json":false,"nmea":true,"raw":0,"scaled":false,"timing":false,"split24":false,"pps":false}
2018-01-12 03:18:35 1515745115.972397: $GPZDA,081836.66,12,01,2018,00,00*6B
2018-01-12 03:18:35 1515745115.972574: $GPGGA,081836,3946.9601,N,08404.9854,W,1,11,1.00,291.29,M,-33.324,M,,*72
2018-01-12 03:18:35 1515745115.972643: $GPRMC,081836,A,3946.9601,N,08404.9854,W,0.8513,36.673,120118,,*06
2018-01-12 03:18:35 1515745115.972705: $GPGSA,A,3,2,5,6,12,17,19,25,23,24,9,138,,2.4,1.0,2.1*09
2018-01-12 03:18:35 1515745115.972762: $GPGBS,081836,11.98,M,14.47,M,47.88,M*0E
2018-01-12 03:18:37 1515745117.054108: $GPZDA,081837.35,12,01,2018,00,00*6C
2018-01-12 03:18:37 1515745117.054362: $GPGGA,081837,3946.9601,N,08404.9854,W,1,11,1.00,291.29,M,-33.324,M,,*73
2018-01-12 03:18:37 1515745117.054445: $GPRMC,081837,A,3946.9601,N,08404.9854,W,0.2422,93.794,120118,,*09
2018-01-12 03:18:37 1515745117.054508: $GPGSA,A,3,2,5,6,12,17,19,25,23,24,9,138,,2.4,1.0,2.1*09
2018-01-12 03:18:38 1515745118.196563: $GPGSV,3,1,12,02,61,276,47,05,20,195,44,06,70,019,48,12,47,300,49*7C
2018-01-12 03:18:38 1515745118.196737: $GPGSV,3,2,12,17,36,099,45,19,54,084,42,25,13,321,40,09,11,094,12*7C
2018-01-12 03:18:38 1515745118.196803: $GPGSV,3,3,12,23,08,061,02,24,06,250,03,04,33,255,00,138,38,213,00*45
2018-01-12 03:18:38 1515745118.310261: $GPZDA,081838.00,12,01,2018,00,00*65
2018-01-12 03:18:38 1515745118.310437: $GPGGA,081838,3946.9605,N,08404.9853,W,1,07,1.00,290.52,M,-33.324,M,,*75
2018-01-12 03:18:38 1515745118.310504: $GPRMC,081838,A,3946.9605,N,08404.9853,W,0.1567,9.200,120118,,*3D
2018-01-12 03:18:38 1515745118.310582: $GPGSA,A,3,2,5,6,12,17,19,25,,,,,,2.4,1.0,2.1*0D
2018-01-12 03:18:38 1515745118.761171: $GPZDA,081839.00,12,01,2018,00,00*64
2018-01-12 03:18:38 1515745118.761356: $GPGGA,081839,3946.9600,N,08404.9846,W,1,07,0.80,289.96,M,-33.324,M,,*7C
2018-01-12 03:18:38 1515745118.761423: $GPRMC,081839,A,3946.9600,N,08404.9846,W,0.1567,9.200,120118,,*3D
2018-01-12 03:18:38 1515745118.761484: $GPGSA,A,3,2,5,6,12,17,19,25,,,,,,2.4,0.8,2.1*04
2018-01-12 03:18:39 1515745119.373341: $GPZDA,081840.00,12,01,2018,00,00*6A
2018-01-12 03:18:39 1515745119.373507: $GPGGA,081840,3946.9600,N,08404.9846,W,1,07,0.80,289.96,M,-33.324,M,,*72
2018-01-12 03:18:39 1515745119.373573: $GPRMC,081840,A,3946.9600,N,08404.9846,W,0.0000,0.000,120118,,*3D
2018-01-12 03:18:39 1515745119.373633: $GPGSA,A,3,2,5,6,12,17,19,25,,,,,,2.4,0.8,2.1*04
2018-01-12 03:18:40 1515745120.705587: $GPGSV,3,1,12,02,61,276,48,05,20,195,45,06,70,019,49,12,47,300,50*7B
2018-01-12 03:18:40 1515745120.705739: $GPGSV,3,2,12,17,36,099,46,19,54,084,41,25,13,321,41,09,11,094,30*7D
2018-01-12 03:18:40 1515745120.705806: $GPGSV,3,3,12,23,08,061,21,24,06,250,30,04,33,255,00,138,38,213,42*42
2018-01-12 03:18:40 1515745120.818994: $GPZDA,081841.00,12,01,2018,00,00*6B
2018-01-12 03:18:40 1515745120.819170: $GPGGA,081841,3946.9600,N,08404.9845,W,1,11,0.80,288.56,M,-33.324,M,,*7A
2018-01-12 03:18:40 1515745120.819257: $GPRMC,081841,A,3946.9600,N,08404.9845,W,0.0000,0.000,120118,,*3F
2018-01-12 03:18:40 1515745120.819340: $GPGSA,A,3,2,5,6,12,17,19,25,9,23,24,138,,2.4,0.8,2.1*00
2018-01-12 03:18:41 1515745121.370252: $GPZDA,081842.00,12,01,2018,00,00*68
2018-01-12 03:18:41 1515745121.370429: $GPGGA,081842,3946.9599,N,08404.9838,W,1,11,0.80,288.64,M,-33.324,M,,*71
2018-01-12 03:18:41 1515745121.370497: $GPRMC,081842,A,3946.9599,N,08404.9838,W,0.0000,0.000,120118,,*35
2018-01-12 03:18:41 1515745121.370558: $GPGSA,A,3,2,5,6,12,17,19,25,9,23,24,138,,2.4,0.8,2.1*00
