2017-12-01 14:38:16 1512157096.685682: {"class":"VERSION","release":"3.16","rev":"3.16-4","proto_major":3,"proto_minor":11}
2017-12-01 14:38:16 1512157096.686030: {"class":"DEVICES","devices":[{"class":"DEVICE","path":"/dev/ttyUSB0","driver":"SiRF","subtype":"9\u0006GSD4e_4.1.2-P1_RPATCH.05-F-GPS-4R-1510281 11/03/2015 307","activated":"2017-12-01T19:38:16.292Z","flags":1,"native":1,"bps":4800,"parity":"N","stopbits":1,"cycle":1.00}]}
2017-12-01 14:38:16 1512157096.686148: {"class":"WATCH","enable":true,"json":false,"nmea":true,"raw":0,"scaled":false,"timing":false,"split24":false,"pps":false}
2017-12-01 14:38:16 1512157096.740471: $GPGSV,3,1,12,10,75,342,47,14,34,259,42,18,65,106,46,21,22,178,44*75
2017-12-01 14:38:16 1512157096.740636: $GPGSV,3,2,12,24,40,054,48,08,04,288,37,31,05,204,35,32,51,273,45*7B
2017-12-01 14:38:16 1512157096.740700: $GPGSV,3,3,12,12,13,102,30,27,03,255,25,15,06,070,23,138,38,213,47*4E
2017-12-01 14:38:16 1512157096.853852: $GPZDA,193817.00,01,12,2017,00,00*65
2017-12-01 14:38:16 1512157096.854025: $GPGGA,193817,3946.9594,N,08404.9848,W,2,12,1.00,292.90,M,-33.324,M,,*70
2017-12-01 14:38:16 1512157096.854090: $GPRMC,193817,A,3946.9594,N,08404.9848,W,0.0000,0.000,011217,,*32
2017-12-01 14:38:16 1512157096.854150: $GPGSA,A,3,10,14,18,21,24,8,31,32,12,27,15,138,2.0,1.0,1.5*3E
2017-12-01 14:38:17 1512157097.480599: $GPZDA,193818.00,01,12,2017,00,00*6A
2017-12-01 14:38:17 1512157097.480772: $GPGGA,193818,3946.9594,N,08404.9848,W,2,12,1.00,292.90,M,-33.324,M,,*7F
2017-12-01 14:38:17 1512157097.480839: $GPRMC,193818,A,3946.9594,N,08404.9848,W,0.0000,0.000,011217,,*3D
2017-12-01 14:38:17 1512157097.480900: $GPGSA,A,3,10,14,18,21,24,8,31,32,12,27,15,138,2.0,1.0,1.5*3E
2017-12-01 14:38:18 1512157098.405188: $GPZDA,193819.00,01,12,2017,00,00*6B
2017-12-01 14:38:18 1512157098.405363: $GPGGA,193819,3946.9587,N,08404.9849,W,2,12,1.20,293.02,M,-33.324,M,,*75
2017-12-01 14:38:18 1512157098.405429: $GPRMC,193819,A,3946.9587,N,08404.9849,W,0.0000,0.000,011217,,*3F
2017-12-01 14:38:18 1512157098.405491: $GPGSA,A,3,10,14,18,21,24,8,31,32,12,27,15,138,2.0,1.2,1.5*3C
2017-12-01 14:38:19 1512157099.740785: $GPGSV,3,1,12,10,75,342,48,14,34,259,41,18,65,106,46,21,22,178,44*79
2017-12-01 14:38:19 1512157099.740964: $GPGSV,3,2,12,24,40,054,48,08,04,288,36,31,05,204,35,32,51,273,45*7A
2017-12-01 14:38:19 1512157099.741030: $GPGSV,3,3,12,12,13,102,30,20,04,121,22,27,03,255,26,138,38,213,47*4D
2017-12-01 14:38:19 1512157099.853220: $GPZDA,193820.00,01,12,2017,00,00*61
2017-12-01 14:38:19 1512157099.853368: $GPGGA,193820,3946.9587,N,08404.9849,W,2,12,1.20,293.02,M,-33.324,M,,*7F
2017-12-01 14:38:19 1512157099.853434: $GPRMC,193820,A,3946.9587,N,08404.9849,W,0.0000,0.000,011217,,*35
2017-12-01 14:38:19 1512157099.853495: $GPGSA,A,3,10,14,18,21,24,8,31,32,12,20,27,138,2.0,1.2,1.5*3A
2017-12-01 14:38:20 1512157100.407850: $GPZDA,193821.00,01,12,2017,00,00*60
2017-12-01 14:38:20 1512157100.408016: $GPGGA,193821,3946.9587,N,08404.9849,W,2,12,1.20,293.02,M,-33.324,M,,*7E
2017-12-01 14:38:20 1512157100.408082: $GPRMC,193821,A,3946.9587,N,08404.9849,W,0.0000,0.000,011217,,*34
2017-12-01 14:38:20 1512157100.408143: $GPGSA,A,3,10,14,18,21,24,8,31,32,12,20,27,138,2.0,1.2,1.5*3A
2017-12-01 14:38:21 1512157101.406279: $GPZDA,193822.00,01,12,2017,00,00*63
2017-12-01 14:38:21 1512157101.406471: $GPGGA,193822,3946.9587,N,08404.9849,W,2,12,1.20,293.02,M,-33.324,M,,*7D
2017-12-01 14:38:21 1512157101.406538: $GPRMC,193822,A,3946.9587,N,08404.9849,W,0.0000,0.000,011217,,*37
2017-12-01 14:38:21 1512157101.406599: $GPGSA,A,3,10,14,18,21,24,8,31,32,12,20,27,138,2.0,1.2,1.5*3A
2017-12-01 14:38:22 1512157102.743927: $GPGSV,3,1,12,10,75,342,47,14,34,259,41,18,65,106,46,21,22,178,44*76
2017-12-01 14:38:22 1512157102.744152: $GPGSV,3,2,12,24,40,054,48,08,04,288,35,31,05,204,35,32,51,273,44*78
2017-12-01 14:38:22 1512157102.744219: $GPGSV,3,3,12,12,13,102,30,20,04,121,21,25,07,138,26,138,38,213,47*40
2017-12-01 14:38:22 1512157102.854672: $GPZDA,193823.00,01,12,2017,00,00*62
2017-12-01 14:38:22 1512157102.854847: $GPGGA,193823,3946.9587,N,08404.9849,W,2,12,1.20,293.02,M,-33.324,M,,*7C
2017-12-01 14:38:22 1512157102.854964: $GPRMC,193823,A,3946.9587,N,08404.9849,W,0.0000,0.000,011217,,*36
2017-12-01 14:38:22 1512157102.855026: $GPGSA,A,3,10,14,18,21,24,8,31,32,12,20,25,138,2.0,1.2,1.5*38
2017-12-01 14:38:23 1512157103.409213: $GPZDA,193824.00,01,12,2017,00,00*65
2017-12-01 14:38:23 1512157103.409387: $GPGGA,193824,3946.9587,N,08404.9849,W,2,12,1.20,293.02,M,-33.324,M,,*7B
2017-12-01 14:38:23 1512157103.409454: $GPRMC,193824,A,3946.9587,N,08404.9849,W,0.0000,0.000,011217,,*31
2017-12-01 14:38:23 1512157103.409514: $GPGSA,A,3,10,14,18,21,24,8,31,32,12,20,25,138,2.0,1.2,1.5*38
2017-12-01 14:38:24 1512157104.406529: $GPZDA,193825.00,01,12,2017,00,00*64
2017-12-01 14:38:24 1512157104.406708: $GPGGA,193825,3946.9587,N,08404.9849,W,2,12,1.20,293.02,M,-33.324,M,,*7A
2017-12-01 14:38:24 1512157104.406775: $GPRMC,193825,A,3946.9587,N,08404.9849,W,0.0000,0.000,011217,,*30
2017-12-01 14:38:24 1512157104.406836: $GPGSA,A,3,10,14,18,21,24,8,31,32,12,20,25,138,2.0,1.2,1.5*38
2017-12-01 14:38:25 1512157105.740806: $GPGSV,3,1,12,10,75,342,47,14,34,259,41,18,65,106,46,21,22,178,44*76
2017-12-01 14:38:25 1512157105.741002: $GPGSV,3,2,12,24,40,054,48,15,06,070,14,31,05,204,36,32,51,273,44*73
2017-12-01 14:38:25 1512157105.743655: $GPGSV,3,3,12,12,13,102,31,20,04,121,21,25,07,138,27,138,38,213,47*40
2017-12-01 14:38:25 1512157105.854195: $GPZDA,193826.00,01,12,2017,00,00*67
2017-12-01 14:38:25 1512157105.854390: $GPGGA,193826,3946.9587,N,08404.9849,W,2,11,1.20,293.02,M,-33.324,M,,*7A
2017-12-01 14:38:25 1512157105.854457: $GPRMC,193826,A,3946.9587,N,08404.9849,W,0.0000,0.000,011217,,*33
2017-12-01 14:38:25 1512157105.854517: $GPGSA,A,3,10,14,18,21,24,31,32,12,20,25,138,,2.0,1.2,1.5*00
2017-12-01 14:38:26 1512157106.403816: $GPZDA,193827.00,01,12,2017,00,00*66
2017-12-01 14:38:26 1512157106.403993: $GPGGA,193827,3946.9587,N,08404.9849,W,2,11,1.00,293.02,M,-33.324,M,,*79
2017-12-01 14:38:26 1512157106.404060: $GPRMC,193827,A,3946.9587,N,08404.9849,W,0.0000,0.000,011217,,*32
2017-12-01 14:38:26 1512157106.404140: $GPGSA,A,3,10,14,18,21,24,31,32,12,20,25,138,,2.0,1.0,1.5*02
2017-12-01 14:38:27 1512157107.410421: $GPZDA,193828.00,01,12,2017,00,00*69
2017-12-01 14:38:27 1512157107.410605: $GPGGA,193828,3946.9587,N,08404.9849,W,2,11,1.00,293.02,M,-33.324,M,,*76
2017-12-01 14:38:27 1512157107.410673: $GPRMC,193828,A,3946.9587,N,08404.9849,W,0.0000,0.000,011217,,*3D
2017-12-01 14:38:27 1512157107.410735: $GPGSA,A,3,10,14,18,21,24,31,32,12,20,25,138,,2.0,1.0,1.5*02
2017-12-01 14:38:28 1512157108.747435: $GPGSV,3,1,12,10,75,342,47,14,34,259,42,18,65,106,46,21,22,178,44*75
2017-12-01 14:38:28 1512157108.747617: $GPGSV,3,2,12,24,40,054,48,15,06,070,19,31,05,204,36,32,51,273,44*7E
2017-12-01 14:38:28 1512157108.747684: $GPGSV,3,3,12,12,13,102,33,20,04,121,21,25,07,138,28,138,38,213,47*4D
2017-12-01 14:38:28 1512157108.859713: $GPZDA,193829.00,01,12,2017,00,00*68
2017-12-01 14:38:28 1512157108.859880: $GPGGA,193829,3946.9587,N,08404.9849,W,2,11,1.20,293.02,M,-33.324,M,,*75
2017-12-01 14:38:28 1512157108.859947: $GPRMC,193829,A,3946.9587,N,08404.9849,W,0.0000,0.000,011217,,*3C
2017-12-01 14:38:28 1512157108.860008: $GPGSA,A,3,10,14,18,21,24,31,32,12,20,25,138,,2.0,1.2,1.5*00
2017-12-01 14:38:29 1512157109.410519: $GPZDA,193830.00,01,12,2017,00,00*60
2017-12-01 14:38:29 1512157109.410689: $GPGGA,193830,3946.9587,N,08404.9849,W,2,11,1.00,293.02,M,-33.324,M,,*7F
2017-12-01 14:38:29 1512157109.410756: $GPRMC,193830,A,3946.9587,N,08404.9849,W,0.0000,0.000,011217,,*34
2017-12-01 14:38:29 1512157109.410818: $GPGSA,A,3,10,14,18,21,24,31,32,12,20,25,138,,2.0,1.0,1.5*02
2017-12-01 14:38:30 1512157110.411705: $GPZDA,193831.00,01,12,2017,00,00*61
2017-12-01 14:38:30 1512157110.411922: $GPGGA,193831,3946.9583,N,08404.9850,W,2,11,1.00,293.79,M,-33.324,M,,*7E
2017-12-01 14:38:30 1512157110.411999: $GPRMC,193831,A,3946.9583,N,08404.9850,W,0.0000,0.000,011217,,*39
2017-12-01 14:38:30 1512157110.412062: $GPGSA,A,3,10,14,18,21,24,31,32,12,20,25,138,,2.0,1.0,1.5*02
2017-12-01 14:38:32 1512157112.299685: $GPGSV,3,1,12,10,75,343,48,14,34,259,41,18,65,106,46,21,21,178,44*7B
2017-12-01 14:38:32 1512157112.299871: $GPGSV,3,2,12,24,40,052,48,15,06,070,20,31,06,204,35,32,51,274,45*74
2017-12-01 14:38:32 1512157112.299937: $GPGSV,3,3,12,12,13,102,34,20,03,121,21,25,08,138,02,138,38,213,46*4B
2017-12-01 14:38:32 1512157112.413279: $GPZDA,193832.00,01,12,2017,00,00*62
2017-12-01 14:38:32 1512157112.413446: $GPGGA,193832,3946.9588,N,08404.9857,W,2,11,1.00,295.75,M,-33.324,M,,*7B
2017-12-01 14:38:32 1512157112.413511: $GPRMC,193832,A,3946.9588,N,08404.9857,W,0.0000,0.000,011217,,*36
2017-12-01 14:38:32 1512157112.413572: $GPGSA,A,3,10,14,18,21,24,15,31,32,12,20,138,,2.0,1.0,1.5*01
2017-12-01 14:38:33 1512157113.038740: $GPZDA,193833.00,01,12,2017,00,00*63
2017-12-01 14:38:33 1512157113.038912: $GPGGA,193833,3946.9588,N,08404.9857,W,2,11,1.00,295.75,M,-33.324,M,,*7A
2017-12-01 14:38:33 1512157113.038979: $GPRMC,193833,A,3946.9588,N,08404.9857,W,0.0000,0.000,011217,,*37
2017-12-01 14:38:33 1512157113.039040: $GPGSA,A,3,10,14,18,21,24,15,31,32,12,20,138,,2.0,1.0,1.5*01
2017-12-01 14:38:33 1512157113.490837: $GPZDA,193834.00,01,12,2017,00,00*64
2017-12-01 14:38:33 1512157113.491006: $GPGGA,193834,3946.9588,N,08404.9857,W,2,11,1.00,295.75,M,-33.324,M,,*7D
2017-12-01 14:38:33 1512157113.491073: $GPRMC,193834,A,3946.9588,N,08404.9857,W,0.0000,0.000,011217,,*30
2017-12-01 14:38:33 1512157113.491134: $GPGSA,A,3,10,14,18,21,24,15,31,32,12,20,138,,2.0,1.0,1.5*01
2017-12-01 14:38:34 1512157114.746326: $GPGSV,3,1,12,10,75,343,48,14,34,259,41,18,65,106,46,21,21,178,44*7B
2017-12-01 14:38:34 1512157114.746503: $GPGSV,3,2,12,24,40,052,48,15,06,070,21,31,06,204,35,32,51,274,45*75
2017-12-01 14:38:34 1512157114.746570: $GPGSV,3,3,12,12,13,102,35,20,03,121,21,25,08,138,28,138,38,213,47*43
2017-12-01 14:38:34 1512157114.859971: $GPZDA,193835.00,01,12,2017,00,00*65
2017-12-01 14:38:34 1512157114.860141: $GPGGA,193835,3946.9588,N,08404.9857,W,2,12,1.00,295.75,M,-33.324,M,,*7F
2017-12-01 14:38:34 1512157114.860208: $GPRMC,193835,A,3946.9588,N,08404.9857,W,0.0000,0.000,011217,,*31
2017-12-01 14:38:34 1512157114.860268: $GPGSA,A,3,10,14,18,21,24,15,31,32,12,20,25,138,2.0,1.0,1.5*06
2017-12-01 14:38:35 1512157115.410835: $GPZDA,193836.00,01,12,2017,00,00*66
2017-12-01 14:38:35 1512157115.411004: $GPGGA,193836,3946.9585,N,08404.9858,W,2,12,1.00,296.51,M,-33.324,M,,*7B
2017-12-01 14:38:35 1512157115.411072: $GPRMC,193836,A,3946.9585,N,08404.9858,W,0.0000,0.000,011217,,*30
2017-12-01 14:38:35 1512157115.411133: $GPGSA,A,3,10,14,18,21,24,15,31,32,12,20,25,138,2.0,1.0,1.5*06
2017-12-01 14:38:36 1512157116.404275: $GPZDA,193837.00,01,12,2017,00,00*67
2017-12-01 14:38:36 1512157116.404455: $GPGGA,193837,3946.9585,N,08404.9858,W,2,12,1.00,296.51,M,-33.324,M,,*7A
2017-12-01 14:38:36 1512157116.404523: $GPRMC,193837,A,3946.9585,N,08404.9858,W,0.0000,0.000,011217,,*31
2017-12-01 14:38:36 1512157116.404584: $GPGSA,A,3,10,14,18,21,24,15,31,32,12,20,25,138,2.0,1.0,1.5*06
2017-12-01 14:38:37 1512157117.740484: $GPGSV,3,1,12,10,75,343,47,14,34,259,42,18,65,106,46,21,21,178,44*77
2017-12-01 14:38:37 1512157117.740677: $GPGSV,3,2,12,24,40,052,49,15,06,070,11,31,06,204,35,32,51,274,44*76
2017-12-01 14:38:37 1512157117.740746: $GPGSV,3,3,12,12,13,102,35,20,03,121,21,25,08,138,29,138,38,213,48*4D
2017-12-01 14:38:37 1512157117.854157: $GPZDA,193838.00,01,12,2017,00,00*68
2017-12-01 14:38:37 1512157117.854333: $GPGGA,193838,3946.9585,N,08404.9858,W,2,12,1.00,296.51,M,-33.324,M,,*75
2017-12-01 14:38:37 1512157117.854403: $GPRMC,193838,A,3946.9585,N,08404.9858,W,0.0000,0.000,011217,,*3E
2017-12-01 14:38:37 1512157117.854467: $GPGSA,A,3,10,14,18,21,24,15,31,32,12,20,25,138,2.0,1.0,1.5*06
2017-12-01 14:38:38 1512157118.403519: $GPZDA,193839.00,01,12,2017,00,00*69
2017-12-01 14:38:38 1512157118.403691: $GPGGA,193839,3946.9585,N,08404.9858,W,2,12,1.00,296.51,M,-33.324,M,,*74
2017-12-01 14:38:38 1512157118.403759: $GPRMC,193839,A,3946.9585,N,08404.9858,W,0.0000,0.000,011217,,*3F
2017-12-01 14:38:38 1512157118.403823: $GPGSA,A,3,10,14,18,21,24,15,31,32,12,20,25,138,2.0,1.0,1.5*06
2017-12-01 14:38:39 1512157119.458427: $GPZDA,193840.00,01,12,2017,00,00*67
2017-12-01 14:38:39 1512157119.458599: $GPGGA,193840,3946.9585,N,08404.9858,W,2,12,1.00,296.51,M,-33.324,M,,*7A
2017-12-01 14:38:39 1512157119.458664: $GPRMC,193840,A,3946.9585,N,08404.9858,W,0.0000,0.000,011217,,*31
2017-12-01 14:38:39 1512157119.458725: $GPGSA,A,3,10,14,18,21,24,15,31,32,12,20,25,138,2.0,1.0,1.5*06
2017-12-01 14:38:40 1512157120.785154: $GPGSV,3,1,12,10,75,343,47,14,34,259,42,18,65,106,46,21,21,178,44*77
2017-12-01 14:38:40 1512157120.785339: $GPGSV,3,2,12,24,40,052,49,15,06,070,19,31,06,204,36,32,51,274,44*7D
2017-12-01 14:38:40 1512157120.785406: $GPGSV,3,3,12,12,13,102,35,20,03,121,22,25,08,138,29,138,38,213,47*41
2017-12-01 14:38:40 1512157120.898734: $GPZDA,193841.00,01,12,2017,00,00*66
2017-12-01 14:38:40 1512157120.898905: $GPGGA,193841,3946.9585,N,08404.9858,W,2,12,1.00,296.51,M,-33.324,M,,*7B
2017-12-01 14:38:40 1512157120.898972: $GPRMC,193841,A,3946.9585,N,08404.9858,W,0.0000,0.000,011217,,*30
2017-12-01 14:38:40 1512157120.899033: $GPGSA,A,3,10,14,18,21,24,15,31,32,12,20,25,138,2.0,1.0,1.5*06
2017-12-01 14:38:41 1512157121.447159: $GPZDA,193842.00,01,12,2017,00,00*65
2017-12-01 14:38:41 1512157121.447389: $GPGGA,193842,3946.9585,N,08404.9858,W,2,12,1.00,296.51,M,-33.324,M,,*78
2017-12-01 14:38:41 1512157121.447476: $GPRMC,193842,A,3946.9585,N,08404.9858,W,0.0000,0.000,011217,,*33
2017-12-01 14:38:41 1512157121.447539: $GPGSA,A,3,10,14,18,21,24,15,31,32,12,20,25,138,2.0,1.0,1.5*06
