2017-12-31 17:46:25 1514760385.348649: {"class":"VERSION","release":"3.16","rev":"3.16-4","proto_major":3,"proto_minor":11}
2017-12-31 17:46:25 1514760385.349000: {"class":"DEVICES","devices":[{"class":"DEVICE","path":"/dev/ttyUSB0","driver":"SiRF","activated":"2017-12-31T22:46:25.307Z","flags":1,"native":1,"bps":4800,"parity":"N","stopbits":1,"cycle":1.00}]}
2017-12-31 17:46:25 1514760385.349098: {"class":"WATCH","enable":true,"json":false,"nmea":true,"raw":0,"scaled":false,"timing":false,"split24":false,"pps":false}
2017-12-31 17:46:25 1514760385.421207: $GPZDA,224626.00,31,12,2017,00,00*65
2017-12-31 17:46:25 1514760385.421347: $GPGGA,224626,3946.9594,N,08404.9869,W,2,12,0.60,305.50,M,-33.324,M,,*74
2017-12-31 17:46:25 1514760385.421413: $GPRMC,224626,A,3946.9594,N,08404.9869,W,0.0000,0.000,311217,,*31
2017-12-31 17:46:25 1514760385.421473: $GPGSA,A,3,22,23,9,3,16,29,14,31,27,32,26,135,1.7,0.6,1.3*07
2017-12-31 17:46:26 1514760386.346169: $GPZDA,224627.00,31,12,2017,00,00*64
2017-12-31 17:46:26 1514760386.346353: $GPGGA,224627,3946.9594,N,08404.9869,W,2,12,0.60,305.50,M,-33.324,M,,*75
2017-12-31 17:46:26 1514760386.346452: $GPRMC,224627,A,3946.9594,N,08404.9869,W,0.0000,0.000,311217,,*30
2017-12-31 17:46:26 1514760386.346514: $GPGSA,A,3,22,23,9,3,16,29,14,31,27,32,26,135,1.7,0.6,1.3*07
2017-12-31 17:46:27 1514760387.707962: $GPGSV,3,1,12,22,31,222,45,23,44,309,44,09,11,312,36,03,39,244,46*77
2017-12-31 17:46:27 1514760387.708139: $GPGSV,3,2,12,16,68,192,44,29,10,037,33,14,24,127,27,31,36,066,39*79
2017-12-31 17:46:27 1514760387.708205: $GPGSV,3,3,12,27,13,159,22,32,03,132,20,26,72,063,48,135,22,240,44*49
2017-12-31 17:46:27 1514760387.821210: $GPZDA,224628.00,31,12,2017,00,00*6B
2017-12-31 17:46:27 1514760387.821382: $GPGGA,224628,3946.9594,N,08404.9869,W,2,12,0.60,305.50,M,-33.324,M,,*7A
2017-12-31 17:46:27 1514760387.821448: $GPRMC,224628,A,3946.9594,N,08404.9869,W,0.0000,0.000,311217,,*3F
2017-12-31 17:46:27 1514760387.821509: $GPGSA,A,3,22,23,9,3,16,29,14,31,27,32,26,135,1.7,0.6,1.3*07
2017-12-31 17:46:28 1514760388.345958: $GPZDA,224629.00,31,12,2017,00,00*6A
2017-12-31 17:46:28 1514760388.346130: $GPGGA,224629,3946.9594,N,08404.9869,W,2,12,0.60,305.50,M,-33.324,M,,*7B
2017-12-31 17:46:28 1514760388.346197: $GPRMC,224629,A,3946.9594,N,08404.9869,W,0.0000,0.000,311217,,*3E
2017-12-31 17:46:28 1514760388.346258: $GPGSA,A,3,22,23,9,3,16,29,14,31,27,32,26,135,1.7,0.6,1.3*07
2017-12-31 17:46:29 1514760389.371729: $GPZDA,224630.00,31,12,2017,00,00*62
2017-12-31 17:46:29 1514760389.371900: $GPGGA,224630,3946.9594,N,08404.9869,W,2,12,0.60,305.50,M,-33.324,M,,*73
2017-12-31 17:46:29 1514760389.371967: $GPRMC,224630,A,3946.9594,N,08404.9869,W,0.0000,0.000,311217,,*36
2017-12-31 17:46:29 1514760389.372027: $GPGSA,A,3,22,23,9,3,16,29,14,31,27,32,26,135,1.7,0.6,1.3*07
2017-12-31 17:46:30 1514760390.676024: $GPGSV,3,1,12,22,31,222,45,23,44,309,44,09,11,312,36,03,39,244,46*77
2017-12-31 17:46:30 1514760390.676210: $GPGSV,3,2,12,16,68,192,43,29,10,037,33,14,24,127,22,31,36,066,40*75
2017-12-31 17:46:30 1514760390.676276: $GPGSV,3,3,12,27,13,159,20,32,03,132,04,26,72,063,47,135,22,240,43*45
2017-12-31 17:46:30 1514760390.789064: $GPZDA,224631.00,31,12,2017,00,00*63
2017-12-31 17:46:30 1514760390.789231: $GPGGA,224631,3946.9590,N,08404.9869,W,2,11,0.60,304.86,M,-33.324,M,,*7F
2017-12-31 17:46:30 1514760390.789299: $GPRMC,224631,A,3946.9590,N,08404.9869,W,0.0000,0.000,311217,,*33
2017-12-31 17:46:30 1514760390.789359: $GPGSA,A,3,22,23,9,3,16,29,14,31,27,26,135,,1.7,0.6,1.3*06
2017-12-31 17:46:31 1514760391.372400: $GPZDA,224632.00,31,12,2017,00,00*60
2017-12-31 17:46:31 1514760391.374968: $GPGGA,224632,3946.9590,N,08404.9869,W,2,11,0.60,304.86,M,-33.324,M,,*7C
2017-12-31 17:46:31 1514760391.375067: $GPRMC,224632,A,3946.9590,N,08404.9869,W,0.0000,0.000,311217,,*30
2017-12-31 17:46:31 1514760391.375131: $GPGSA,A,3,22,23,9,3,16,29,14,31,27,26,135,,1.7,0.6,1.3*06
2017-12-31 17:46:32 1514760392.345829: $GPZDA,224633.00,31,12,2017,00,00*61
2017-12-31 17:46:32 1514760392.346002: $GPGGA,224633,3946.9590,N,08404.9869,W,2,11,0.60,304.86,M,-33.324,M,,*7D
2017-12-31 17:46:32 1514760392.346120: $GPRMC,224633,A,3946.9590,N,08404.9869,W,0.0000,0.000,311217,,*31
2017-12-31 17:46:32 1514760392.346183: $GPGSA,A,3,22,23,9,3,16,29,14,31,27,26,135,,1.7,0.6,1.3*06
2017-12-31 17:46:33 1514760393.707839: $GPGSV,3,1,12,22,31,222,44,23,44,309,44,09,11,312,42,03,39,244,45*76
2017-12-31 17:46:33 1514760393.708027: $GPGSV,3,2,12,16,68,192,42,29,10,037,34,14,24,127,24,31,36,066,42*77
2017-12-31 17:46:33 1514760393.708094: $GPGSV,3,3,12,27,13,159,20,32,03,132,15,26,72,063,47,135,22,240,44*42
2017-12-31 17:46:33 1514760393.821290: $GPZDA,224634.00,31,12,2017,00,00*66
2017-12-31 17:46:33 1514760393.821455: $GPGGA,224634,3946.9590,N,08404.9869,W,2,12,0.60,304.86,M,-33.324,M,,*79
2017-12-31 17:46:33 1514760393.821521: $GPRMC,224634,A,3946.9590,N,08404.9869,W,0.0000,0.000,311217,,*36
2017-12-31 17:46:33 1514760393.821582: $GPGSA,A,3,22,23,9,3,16,29,14,31,27,32,26,135,1.7,0.6,1.3*07
2017-12-31 17:46:34 1514760394.347221: $GPZDA,224635.00,31,12,2017,00,00*67
2017-12-31 17:46:34 1514760394.347391: $GPGGA,224635,3946.9590,N,08404.9869,W,2,12,0.60,304.86,M,-33.324,M,,*78
2017-12-31 17:46:34 1514760394.347457: $GPRMC,224635,A,3946.9590,N,08404.9869,W,0.0000,0.000,311217,,*37
2017-12-31 17:46:34 1514760394.347518: $GPGSA,A,3,22,23,9,3,16,29,14,31,27,32,26,135,1.7,0.6,1.3*07
2017-12-31 17:46:35 1514760395.371219: $GPZDA,224636.00,31,12,2017,00,00*64
2017-12-31 17:46:35 1514760395.371390: $GPGGA,224636,3946.9590,N,08404.9869,W,2,12,0.80,304.86,M,-33.324,M,,*75
2017-12-31 17:46:35 1514760395.371456: $GPRMC,224636,A,3946.9590,N,08404.9869,W,0.0000,0.000,311217,,*34
2017-12-31 17:46:35 1514760395.371516: $GPGSA,A,3,22,23,9,3,16,29,14,31,27,32,26,135,1.7,0.8,1.3*09
2017-12-31 17:46:36 1514760396.675969: $GPGSV,3,1,12,22,31,222,44,23,44,309,44,09,11,312,41,03,39,244,44*74
2017-12-31 17:46:36 1514760396.676175: $GPGSV,3,2,12,16,68,192,42,29,10,037,35,14,24,127,25,31,36,066,42*77
2017-12-31 17:46:36 1514760396.676263: $GPGSV,3,3,12,27,13,159,00,32,03,132,16,26,72,063,47,135,22,240,44*43
2017-12-31 17:46:36 1514760396.789140: $GPZDA,224637.00,31,12,2017,00,00*65
2017-12-31 17:46:36 1514760396.789312: $GPGGA,224637,3946.9590,N,08404.9869,W,2,11,0.80,304.86,M,-33.324,M,,*77
2017-12-31 17:46:36 1514760396.789377: $GPRMC,224637,A,3946.9590,N,08404.9869,W,0.0000,0.000,311217,,*35
2017-12-31 17:46:36 1514760396.789438: $GPGSA,A,3,22,23,9,3,16,29,14,31,32,26,135,,1.7,0.8,1.3*0C
2017-12-31 17:46:37 1514760397.372440: $GPZDA,224638.00,31,12,2017,00,00*6A
2017-12-31 17:46:37 1514760397.372614: $GPGGA,224638,3946.9590,N,08404.9869,W,2,11,0.80,304.86,M,-33.324,M,,*78
2017-12-31 17:46:37 1514760397.372679: $GPRMC,224638,A,3946.9590,N,08404.9869,W,0.0000,0.000,311217,,*3A
2017-12-31 17:46:37 1514760397.372741: $GPGSA,A,3,22,23,9,3,16,29,14,31,32,26,135,,1.7,0.8,1.3*0C
2017-12-31 17:46:38 1514760398.347276: $GPZDA,224639.00,31,12,2017,00,00*6B
2017-12-31 17:46:38 1514760398.347446: $GPGGA,224639,3946.9586,N,08404.9870,W,2,11,0.80,305.63,M,-33.324,M,,*7C
2017-12-31 17:46:38 1514760398.347512: $GPRMC,224639,A,3946.9586,N,08404.9870,W,0.0000,0.000,311217,,*34
2017-12-31 17:46:38 1514760398.347573: $GPGSA,A,3,22,23,9,3,16,29,14,31,32,26,135,,1.7,0.8,1.3*0C
2017-12-31 17:46:39 1514760399.682980: $GPGSV,3,1,12,22,31,222,44,23,44,309,44,09,11,312,40,03,39,244,44*75
2017-12-31 17:46:39 1514760399.683194: $GPGSV,3,2,12,16,68,192,43,29,10,037,36,14,24,127,29,31,36,066,41*7A
2017-12-31 17:46:39 1514760399.683261: $GPGSV,3,3,12,27,13,159,00,32,03,132,16,26,72,063,47,135,22,240,44*43
2017-12-31 17:46:39 1514760399.796333: $GPZDA,224640.00,31,12,2017,00,00*65
2017-12-31 17:46:39 1514760399.796490: $GPGGA,224640,3946.9586,N,08404.9870,W,2,11,0.80,305.63,M,-33.324,M,,*72
2017-12-31 17:46:39 1514760399.796555: $GPRMC,224640,A,3946.9586,N,08404.9870,W,0.0000,0.000,311217,,*3A
2017-12-31 17:46:39 1514760399.796615: $GPGSA,A,3,22,23,9,3,16,29,14,31,32,26,135,,1.7,0.8,1.3*0C
2017-12-31 17:46:40 1514760400.421657: $GPZDA,224641.00,31,12,2017,00,00*64
2017-12-31 17:46:40 1514760400.421827: $GPGGA,224641,3946.9586,N,08404.9870,W,2,11,0.60,305.63,M,-33.324,M,,*7D
2017-12-31 17:46:40 1514760400.421946: $GPRMC,224641,A,3946.9586,N,08404.9870,W,0.0000,0.000,311217,,*3B
2017-12-31 17:46:40 1514760400.422008: $GPGSA,A,3,22,23,9,3,16,29,14,31,32,26,135,,1.7,0.6,1.3*02
2017-12-31 17:46:41 1514760401.371347: $GPZDA,224642.00,31,12,2017,00,00*67
2017-12-31 17:46:41 1514760401.371536: $GPGGA,224642,3946.9586,N,08404.9870,W,2,11,0.60,305.63,M,-33.324,M,,*7E
2017-12-31 17:46:41 1514760401.371603: $GPRMC,224642,A,3946.9586,N,08404.9870,W,0.0000,0.000,311217,,*38
2017-12-31 17:46:41 1514760401.371664: $GPGSA,A,3,22,23,9,3,16,29,14,31,32,26,135,,1.7,0.6,1.3*02
2017-12-31 17:46:42 1514760402.699586: $GPGSV,3,1,12,22,31,222,44,23,44,309,44,09,11,312,39,03,39,244,45*7A
2017-12-31 17:46:42 1514760402.699763: $GPGSV,3,2,12,16,68,192,43,29,10,037,37,14,24,127,28,31,36,066,41*7A
2017-12-31 17:46:42 1514760402.699829: $GPGSV,3,3,12,27,13,159,23,32,03,132,17,26,72,063,47,135,22,240,44*43
2017-12-31 17:46:42 1514760402.812914: $GPZDA,224643.00,31,12,2017,00,00*66
2017-12-31 17:46:42 1514760402.813079: $GPGGA,224643,3946.9586,N,08404.9870,W,2,12,0.60,305.63,M,-33.324,M,,*7C
2017-12-31 17:46:42 1514760402.813145: $GPRMC,224643,A,3946.9586,N,08404.9870,W,0.0000,0.000,311217,,*39
2017-12-31 17:46:42 1514760402.813206: $GPGSA,A,3,22,23,9,3,16,29,14,31,27,32,26,135,1.7,0.6,1.3*07
2017-12-31 17:46:43 1514760403.371294: $GPZDA,224644.00,31,12,2017,00,00*61
2017-12-31 17:46:43 1514760403.371473: $GPGGA,224644,3946.9586,N,08404.9870,W,2,12,0.60,305.63,M,-33.324,M,,*7B
2017-12-31 17:46:43 1514760403.371540: $GPRMC,224644,A,3946.9586,N,08404.9870,W,0.0000,0.000,311217,,*3E
2017-12-31 17:46:43 1514760403.371601: $GPGSA,A,3,22,23,9,3,16,29,14,31,27,32,26,135,1.7,0.6,1.3*07
2017-12-31 17:46:44 1514760404.344668: $GPZDA,224645.00,31,12,2017,00,00*60
2017-12-31 17:46:44 1514760404.344846: $GPGGA,224645,3946.9586,N,08404.9870,W,2,12,0.60,305.63,M,-33.324,M,,*7A
2017-12-31 17:46:44 1514760404.344913: $GPRMC,224645,A,3946.9586,N,08404.9870,W,0.0000,0.000,311217,,*3F
2017-12-31 17:46:44 1514760404.344975: $GPGSA,A,3,22,23,9,3,16,29,14,31,27,32,26,135,1.7,0.6,1.3*07
