2017-11-15 19:05:30 1510790730.217728: {"class":"VERSION","release":"3.17","rev":"3.17","proto_major":3,"proto_minor":12}
2017-11-15 19:05:30 1510790730.218411: {"class":"DEVICES","devices":[{"class":"DEVICE","path":"/dev/ttyUSB0","driver":"SiRF","subtype":"9\u0006GSD4e_4.1.2-P1_RPATCH.05-F-GPS-4R-1510281 11/03/2015 307","activated":"2017-11-16T00:05:30.217Z","flags":1,"native":1,"bps":4800,"parity":"N","stopbits":1,"cycle":1.00}]}
2017-11-15 19:05:30 1510790730.218612: {"class":"WATCH","enable":true,"json":false,"nmea":true,"raw":0,"scaled":false,"timing":false,"split24":false,"pps":false}
2017-11-15 19:05:30 1510790730.666539: $GPGSV,3,1,11,32,45,096,18,14,63,073,19,03,32,309,20,26,40,175,20*7A
2017-11-15 19:05:30 1510790730.666802: $GPGSV,3,2,11,31,76,355,25,16,11,190,18,22,47,288,08,29,06,081,12*77
2017-11-15 19:05:30 1510790730.666873: $GPGSV,3,3,11,25,26,045,00,01,12,262,04,10,08,159,00*4F
2017-11-15 19:05:30 1510790730.779801: $GPZDA,000529.00,16,11,2017,00,00*6B
2017-11-15 19:05:30 1510790730.779979: $GPGGA,000529,3946.9651,N,08404.9421,W,1,08,1.00,292.83,M,-33.324,M,,*78
2017-11-15 19:05:30 1510790730.780041: $GPRMC,000529,A,3946.9651,N,08404.9421,W,0.4207,39.347,161117,,*0E
2017-11-15 19:05:30 1510790730.780114: $GPGSA,A,3,32,14,3,26,31,16,22,29,,,,,3.4,1.0,2.9*02
2017-11-15 19:05:31 1510790731.406063: $GPZDA,000530.00,16,11,2017,00,00*63
2017-11-15 19:05:31 1510790731.406224: $GPGGA,000530,3946.9651,N,08404.9421,W,1,08,1.00,292.83,M,-33.324,M,,*70
2017-11-15 19:05:31 1510790731.406284: $GPRMC,000530,A,3946.9651,N,08404.9421,W,0.4207,39.347,161117,,*06
2017-11-15 19:05:31 1510790731.406340: $GPGSA,A,3,32,14,3,26,31,16,22,29,,,,,3.4,1.0,2.9*02
2017-11-15 19:05:32 1510790732.331508: $GPZDA,000531.00,16,11,2017,00,00*62
2017-11-15 19:05:32 1510790732.331688: $GPGGA,000531,3946.9655,N,08404.9421,W,1,08,1.00,293.47,M,-33.324,M,,*7C
2017-11-15 19:05:32 1510790732.331750: $GPRMC,000531,A,3946.9655,N,08404.9421,W,0.6846,4.197,161117,,*3F
2017-11-15 19:05:32 1510790732.331805: $GPGSA,A,3,32,14,3,26,31,16,22,29,,,,,3.4,1.0,2.9*02
2017-11-15 19:05:33 1510790733.665566: $GPGSV,3,1,11,32,45,096,18,14,63,073,19,03,32,309,19,26,40,175,20*70
2017-11-15 19:05:33 1510790733.665737: $GPGSV,3,2,11,31,76,355,25,16,11,190,18,22,47,288,07,29,06,081,12*78
2017-11-15 19:05:33 1510790733.665798: $GPGSV,3,3,11,25,26,045,00,01,12,262,04,10,08,159,00*4F
2017-11-15 19:05:33 1510790733.778931: $GPZDA,000532.00,16,11,2017,00,00*61
2017-11-15 19:05:33 1510790733.779101: $GPGGA,000532,3946.9655,N,08404.9421,W,1,08,1.00,293.47,M,-33.324,M,,*7F
2017-11-15 19:05:33 1510790733.779162: $GPRMC,000532,A,3946.9655,N,08404.9421,W,0.7246,344.668,161117,,*37
2017-11-15 19:05:33 1510790733.779218: $GPGSA,A,3,32,14,3,26,31,16,22,29,,,,,3.4,1.0,2.9*02
2017-11-15 19:05:34 1510790734.329738: $GPZDA,000533.00,16,11,2017,00,00*60
2017-11-15 19:05:34 1510790734.329910: $GPGGA,000533,3946.9655,N,08404.9428,W,1,08,1.60,293.39,M,-33.324,M,,*78
2017-11-15 19:05:34 1510790734.329993: $GPRMC,000533,A,3946.9655,N,08404.9428,W,0.1867,0.000,161117,,*3B
2017-11-15 19:05:34 1510790734.330052: $GPGSA,A,3,32,14,3,26,31,16,22,29,,,,,3.4,1.6,2.9*04
2017-11-15 19:05:35 1510790735.329433: $GPZDA,000534.00,16,11,2017,00,00*67
2017-11-15 19:05:35 1510790735.329614: $GPGGA,000534,3946.9659,N,08404.9428,W,1,08,1.60,294.03,M,-33.324,M,,*7D
2017-11-15 19:05:35 1510790735.329676: $GPRMC,000534,A,3946.9659,N,08404.9428,W,0.2422,93.795,161117,,*0F
2017-11-15 19:05:35 1510790735.329731: $GPGSA,A,3,32,14,3,26,31,16,22,29,,,,,3.4,1.6,2.9*04
2017-11-15 19:05:36 1510790736.666060: $GPGSV,3,1,11,32,45,096,17,14,63,073,20,03,32,309,18,26,40,175,21*75
2017-11-15 19:05:36 1510790736.666242: $GPGSV,3,2,11,31,76,355,25,16,11,190,18,22,47,288,06,29,06,081,04*7E
2017-11-15 19:05:36 1510790736.666303: $GPGSV,3,3,11,25,26,045,00,01,12,262,04,10,08,159,00*4F
2017-11-15 19:05:36 1510790736.779228: $GPZDA,000535.00,16,11,2017,00,00*66
2017-11-15 19:05:36 1510790736.779388: $GPGGA,000535,3946.9659,N,08404.9428,W,1,07,1.60,294.03,M,-33.324,M,,*73
2017-11-15 19:05:36 1510790736.779450: $GPRMC,000535,A,3946.9659,N,08404.9428,W,0.2758,128.233,161117,,*38
2017-11-15 19:05:36 1510790736.779556: $GPGSA,A,3,32,14,3,26,31,16,22,,,,,,3.4,1.6,2.9*0F
2017-11-15 19:05:37 1510790737.330096: $GPZDA,000536.00,16,11,2017,00,00*65
2017-11-15 19:05:37 1510790737.330260: $GPGGA,000536,3946.9659,N,08404.9428,W,1,07,1.60,294.03,M,-33.324,M,,*70
2017-11-15 19:05:37 1510790737.330321: $GPRMC,000536,A,3946.9659,N,08404.9428,W,0.4207,219.347,161117,,*31
2017-11-15 19:05:37 1510790737.330377: $GPGSA,A,3,32,14,3,26,31,16,22,,,,,,3.4,1.6,2.9*0F
2017-11-15 19:05:38 1510790738.330975: $GPZDA,000537.00,16,11,2017,00,00*64
2017-11-15 19:05:38 1510790738.331141: $GPGGA,000537,3946.9659,N,08404.9428,W,1,07,1.60,294.03,M,-33.324,M,,*71
2017-11-15 19:05:38 1510790738.331202: $GPRMC,000537,A,3946.9659,N,08404.9428,W,0.4207,219.347,161117,,*30
2017-11-15 19:05:38 1510790738.331258: $GPGSA,A,3,32,14,3,26,31,16,22,,,,,,3.4,1.6,2.9*0F
2017-11-15 19:05:39 1510790739.666761: $GPGSV,3,1,11,32,45,096,17,14,63,073,20,03,32,309,18,26,40,175,21*75
2017-11-15 19:05:39 1510790739.666918: $GPGSV,3,2,11,31,76,355,25,16,11,190,18,22,47,288,07,29,06,081,04*7F
2017-11-15 19:05:39 1510790739.666978: $GPGSV,3,3,11,25,26,045,00,01,12,262,04,10,08,159,00*4F
2017-11-15 19:05:39 1510790739.780094: $GPZDA,000538.00,16,11,2017,00,00*6B
2017-11-15 19:05:39 1510790739.780259: $GPGGA,000538,3946.9656,N,08404.9428,W,1,07,1.60,294.80,M,-33.324,M,,*7A
2017-11-15 19:05:39 1510790739.780320: $GPRMC,000538,A,3946.9656,N,08404.9428,W,0.3423,184.197,161117,,*3F
2017-11-15 19:05:39 1510790739.780377: $GPGSA,A,3,32,14,3,26,31,16,22,,,,,,3.4,1.6,2.9*0F
