2017-11-16 16:48:08 1510868888.812243: {"class":"VERSION","release":"3.17","rev":"3.17","proto_major":3,"proto_minor":12}
2017-11-16 16:48:08 1510868888.812787: {"class":"DEVICES","devices":[{"class":"DEVICE","path":"/dev/ttyUSB0","driver":"SiRF","subtype":"9\u0006GSD4e_4.1.2-P1_RPATCH.05-F-GPS-4R-1510281 11/03/2015 307","activated":"2017-11-16T21:48:08.783Z","flags":1,"native":1,"bps":4800,"parity":"N","stopbits":1,"cycle":1.00}]}
2017-11-16 16:48:08 1510868888.812915: {"class":"WATCH","enable":true,"json":false,"nmea":true,"raw":0,"scaled":false,"timing":false,"split24":false,"pps":false}
2017-11-16 16:48:08 1510868888.896495: $GPZDA,214807.00,16,11,2017,00,00*6D
2017-11-16 16:48:08 1510868888.896675: $GPGGA,214807,3946.9580,N,08404.9822,W,2,12,0.80,306.94,M,-33.324,M,,*75
2017-11-16 16:48:08 1510868888.896737: $GPRMC,214807,A,3946.9580,N,08404.9822,W,0.0000,0.000,161117,,*33
2017-11-16 16:48:08 1510868888.896793: $GPGSA,A,3,1,10,11,12,14,18,24,25,31,32,22,138,1.6,0.8,1.3*38
2017-11-16 16:48:09 1510868889.446109: $GPZDA,214808.00,16,11,2017,00,00*62
2017-11-16 16:48:09 1510868889.446311: $GPGGA,214808,3946.9580,N,08404.9822,W,2,12,0.80,306.94,M,-33.324,M,,*7A
2017-11-16 16:48:09 1510868889.446374: $GPRMC,214808,A,3946.9580,N,08404.9822,W,0.0000,0.000,161117,,*3C
2017-11-16 16:48:09 1510868889.446449: $GPGSA,A,3,1,10,11,12,14,18,24,25,31,32,22,138,1.6,0.8,1.3*38
2017-11-16 16:48:10 1510868890.446003: $GPZDA,214809.00,16,11,2017,00,00*63
2017-11-16 16:48:10 1510868890.446184: $GPGGA,214809,3946.9580,N,08404.9822,W,2,12,0.80,306.94,M,-33.324,M,,*7B
2017-11-16 16:48:10 1510868890.446252: $GPRMC,214809,A,3946.9580,N,08404.9822,W,0.0000,0.000,161117,,*3D
2017-11-16 16:48:10 1510868890.446348: $GPGSA,A,3,1,10,11,12,14,18,24,25,31,32,22,138,1.6,0.8,1.3*38
2017-11-16 16:48:11 1510868891.783525: $GPGSV,3,1,12,01,14,318,41,10,70,132,49,11,11,301,32,12,25,072,46*78
2017-11-16 16:48:11 1510868891.783695: $GPGSV,3,2,12,14,55,292,45,18,38,135,45,24,14,045,44,25,29,114,43*7F
2017-11-16 16:48:11 1510868891.783756: $GPGSV,3,3,12,31,34,211,46,32,68,328,50,22,02,310,35,138,38,213,44*4B
2017-11-16 16:48:11 1510868891.895629: $GPZDA,214810.00,16,11,2017,00,00*6B
2017-11-16 16:48:11 1510868891.895796: $GPGGA,214810,3946.9580,N,08404.9822,W,2,12,0.80,306.94,M,-33.324,M,,*73
2017-11-16 16:48:11 1510868891.895858: $GPRMC,214810,A,3946.9580,N,08404.9822,W,0.0000,0.000,161117,,*35
2017-11-16 16:48:11 1510868891.895914: $GPGSA,A,3,1,10,11,12,14,18,24,25,31,32,22,138,1.6,0.8,1.3*38
2017-11-16 16:48:12 1510868892.448966: $GPZDA,214811.00,16,11,2017,00,00*6A
2017-11-16 16:48:12 1510868892.449142: $GPGGA,214811,3946.9580,N,08404.9822,W,2,12,0.80,306.94,M,-33.324,M,,*72
2017-11-16 16:48:12 1510868892.449203: $GPRMC,214811,A,3946.9580,N,08404.9822,W,0.0000,0.000,161117,,*34
2017-11-16 16:48:12 1510868892.449260: $GPGSA,A,3,1,10,11,12,14,18,24,25,31,32,22,138,1.6,0.8,1.3*38
2017-11-16 16:48:13 1510868893.446437: $GPZDA,214812.00,16,11,2017,00,00*69
2017-11-16 16:48:13 1510868893.446616: $GPGGA,214812,3946.9580,N,08404.9822,W,2,12,0.80,306.94,M,-33.324,M,,*71
2017-11-16 16:48:13 1510868893.446676: $GPRMC,214812,A,3946.9580,N,08404.9822,W,0.0000,0.000,161117,,*37
2017-11-16 16:48:13 1510868893.446732: $GPGSA,A,3,1,10,11,12,14,18,24,25,31,32,22,138,1.6,0.8,1.3*38
2017-11-16 16:48:14 1510868894.775722: $GPGSV,3,1,12,01,14,318,41,10,70,132,49,11,11,301,32,12,25,072,46*78
2017-11-16 16:48:14 1510868894.775885: $GPGSV,3,2,12,14,55,292,45,18,38,135,44,24,14,045,44,25,29,114,43*7E
2017-11-16 16:48:14 1510868894.775944: $GPGSV,3,3,12,31,34,211,45,32,68,328,50,22,02,310,34,138,38,213,44*49
2017-11-16 16:48:14 1510868894.889244: $GPZDA,214813.00,16,11,2017,00,00*68
2017-11-16 16:48:14 1510868894.889433: $GPGGA,214813,3946.9580,N,08404.9822,W,2,12,0.80,306.94,M,-33.324,M,,*70
2017-11-16 16:48:14 1510868894.889511: $GPRMC,214813,A,3946.9580,N,08404.9822,W,0.0000,0.000,161117,,*36
2017-11-16 16:48:14 1510868894.889568: $GPGSA,A,3,1,10,11,12,14,18,24,25,31,32,22,138,1.6,0.8,1.3*38
2017-11-16 16:48:15 1510868895.447635: $GPZDA,214814.00,16,11,2017,00,00*6F
2017-11-16 16:48:15 1510868895.447843: $GPGGA,214814,3946.9577,N,08404.9823,W,2,12,0.80,307.71,M,-33.324,M,,*74
2017-11-16 16:48:15 1510868895.447906: $GPRMC,214814,A,3946.9577,N,08404.9823,W,0.0000,0.000,161117,,*38
2017-11-16 16:48:15 1510868895.447961: $GPGSA,A,3,1,10,11,12,14,18,24,25,31,32,22,138,1.6,0.8,1.3*38
2017-11-16 16:48:16 1510868896.448633: $GPZDA,214815.00,16,11,2017,00,00*6E
2017-11-16 16:48:16 1510868896.448957: $GPGGA,214815,3946.9577,N,08404.9823,W,2,12,0.80,307.71,M,-33.324,M,,*75
2017-11-16 16:48:16 1510868896.449076: $GPRMC,214815,A,3946.9577,N,08404.9823,W,0.0000,0.000,161117,,*39
2017-11-16 16:48:16 1510868896.449198: $GPGSA,A,3,1,10,11,12,14,18,24,25,31,32,22,138,1.6,0.8,1.3*38
2017-11-16 16:48:17 1510868897.782354: $GPGSV,3,1,12,01,14,318,42,10,70,132,49,11,11,301,32,12,25,072,46*7B
2017-11-16 16:48:17 1510868897.782539: $GPGSV,3,2,12,14,55,292,44,18,38,135,44,24,14,045,44,25,29,114,43*7F
2017-11-16 16:48:17 1510868897.782600: $GPGSV,3,3,12,31,34,211,45,32,68,328,50,22,02,310,34,138,38,213,44*49
2017-11-16 16:48:17 1510868897.895974: $GPZDA,214816.00,16,11,2017,00,00*6D
2017-11-16 16:48:17 1510868897.896148: $GPGGA,214816,3946.9577,N,08404.9823,W,2,12,0.80,307.71,M,-33.324,M,,*76
2017-11-16 16:48:17 1510868897.896209: $GPRMC,214816,A,3946.9577,N,08404.9823,W,0.0000,0.000,161117,,*3A
2017-11-16 16:48:17 1510868897.896265: $GPGSA,A,3,1,10,11,12,14,18,24,25,31,32,22,138,1.6,0.8,1.3*38
2017-11-16 16:48:18 1510868898.448042: $GPZDA,214817.00,16,11,2017,00,00*6C
2017-11-16 16:48:18 1510868898.448202: $GPGGA,214817,3946.9577,N,08404.9823,W,2,12,0.80,307.71,M,-33.324,M,,*77
2017-11-16 16:48:18 1510868898.448263: $GPRMC,214817,A,3946.9577,N,08404.9823,W,0.0000,0.000,161117,,*3B
2017-11-16 16:48:18 1510868898.448318: $GPGSA,A,3,1,10,11,12,14,18,24,25,31,32,22,138,1.6,0.8,1.3*38
