2017-12-31 17:56:19 1514760979.545971: {"class":"VERSION","release":"3.16","rev":"3.16-4","proto_major":3,"proto_minor":11}
2017-12-31 17:56:19 1514760979.546350: {"class":"DEVICES","devices":[{"class":"DEVICE","path":"/dev/ttyUSB0","driver":"SiRF","activated":"2017-12-31T22:56:19.536Z","flags":1,"native":1,"bps":4800,"parity":"N","stopbits":1,"cycle":1.00}]}
2017-12-31 17:56:19 1514760979.546446: {"class":"WATCH","enable":true,"json":false,"nmea":true,"raw":0,"scaled":false,"timing":false,"split24":false,"pps":false}
2017-12-31 17:56:20 1514760980.338968: $GPZDA,225621.00,31,12,2017,00,00*63
2017-12-31 17:56:20 1514760980.339129: $GPGGA,225621,3946.9567,N,08404.9865,W,2,11,0.60,306.72,M,-33.324,M,,*72
2017-12-31 17:56:20 1514760980.339193: $GPRMC,225621,A,3946.9567,N,08404.9865,W,0.0000,0.000,311217,,*37
2017-12-31 17:56:20 1514760980.339253: $GPGSA,A,3,22,23,9,3,16,29,14,31,27,26,135,,1.7,0.6,1.3*06
2017-12-31 17:56:21 1514760981.680959: $GPGSV,3,1,11,22,27,217,43,23,48,309,42,09,15,312,42,03,36,240,46*75
2017-12-31 17:56:21 1514760981.681112: $GPGSV,3,2,11,16,74,192,42,29,08,034,31,14,20,130,24,31,32,070,42*77
2017-12-31 17:56:21 1514760981.681176: $GPGSV,3,3,11,27,17,156,30,26,68,055,49,135,22,240,43*7A
2017-12-31 17:56:21 1514760981.794303: $GPZDA,225622.00,31,12,2017,00,00*60
2017-12-31 17:56:21 1514760981.794420: $GPGGA,225622,3946.9567,N,08404.9865,W,2,11,0.60,306.72,M,-33.324,M,,*71
2017-12-31 17:56:21 1514760981.794483: $GPRMC,225622,A,3946.9567,N,08404.9865,W,0.0000,0.000,311217,,*34
2017-12-31 17:56:21 1514760981.794542: $GPGSA,A,3,22,23,9,3,16,29,14,31,27,26,135,,1.7,0.6,1.3*06
2017-12-31 17:56:22 1514760982.345216: $GPZDA,225623.00,31,12,2017,00,00*61
2017-12-31 17:56:22 1514760982.345380: $GPGGA,225623,3946.9567,N,08404.9865,W,2,11,0.60,306.72,M,-33.324,M,,*70
2017-12-31 17:56:22 1514760982.345446: $GPRMC,225623,A,3946.9567,N,08404.9865,W,0.0000,0.000,311217,,*35
2017-12-31 17:56:22 1514760982.345523: $GPGSA,A,3,22,23,9,3,16,29,14,31,27,26,135,,1.7,0.6,1.3*06
2017-12-31 17:56:23 1514760983.344828: $GPZDA,225624.00,31,12,2017,00,00*66
2017-12-31 17:56:23 1514760983.344994: $GPGGA,225624,3946.9567,N,08404.9865,W,2,11,0.60,306.72,M,-33.324,M,,*77
2017-12-31 17:56:23 1514760983.345059: $GPRMC,225624,A,3946.9567,N,08404.9865,W,0.0000,0.000,311217,,*32
2017-12-31 17:56:23 1514760983.345120: $GPGSA,A,3,22,23,9,3,16,29,14,31,27,26,135,,1.7,0.6,1.3*06
2017-12-31 17:56:24 1514760984.680568: $GPGSV,3,1,11,22,27,217,43,23,48,309,42,09,15,312,42,03,36,240,46*75
2017-12-31 17:56:24 1514760984.680758: $GPGSV,3,2,11,16,74,192,42,29,08,034,31,14,20,130,25,31,32,070,42*76
2017-12-31 17:56:24 1514760984.680825: $GPGSV,3,3,11,27,17,156,30,26,68,055,49,135,22,240,44*7D
2017-12-31 17:56:24 1514760984.793962: $GPZDA,225625.00,31,12,2017,00,00*67
2017-12-31 17:56:24 1514760984.794108: $GPGGA,225625,3946.9567,N,08404.9865,W,2,11,0.60,306.72,M,-33.324,M,,*76
2017-12-31 17:56:24 1514760984.794172: $GPRMC,225625,A,3946.9567,N,08404.9865,W,0.0000,0.000,311217,,*33
2017-12-31 17:56:24 1514760984.794232: $GPGSA,A,3,22,23,9,3,16,29,14,31,27,26,135,,1.7,0.6,1.3*06
2017-12-31 17:56:25 1514760985.419330: $GPZDA,225626.00,31,12,2017,00,00*64
2017-12-31 17:56:25 1514760985.419496: $GPGGA,225626,3946.9567,N,08404.9865,W,2,11,0.60,306.72,M,-33.324,M,,*75
2017-12-31 17:56:25 1514760985.419561: $GPRMC,225626,A,3946.9567,N,08404.9865,W,0.0000,0.000,311217,,*30
2017-12-31 17:56:25 1514760985.419621: $GPGSA,A,3,22,23,9,3,16,29,14,31,27,26,135,,1.7,0.6,1.3*06
2017-12-31 17:56:26 1514760986.345157: $GPZDA,225627.00,31,12,2017,00,00*65
2017-12-31 17:56:26 1514760986.345314: $GPGGA,225627,3946.9567,N,08404.9865,W,2,11,0.60,306.72,M,-33.324,M,,*74
2017-12-31 17:56:26 1514760986.345380: $GPRMC,225627,A,3946.9567,N,08404.9865,W,0.0000,0.000,311217,,*31
2017-12-31 17:56:26 1514760986.345440: $GPGSA,A,3,22,23,9,3,16,29,14,31,27,26,135,,1.7,0.6,1.3*06
2017-12-31 17:56:27 1514760987.705893: $GPGSV,3,1,11,22,27,217,43,23,48,309,42,09,15,312,41,03,36,240,46*76
2017-12-31 17:56:27 1514760987.706070: $GPGSV,3,2,11,16,74,192,42,29,08,034,32,14,20,130,31,31,32,070,43*71
2017-12-31 17:56:27 1514760987.706190: $GPGSV,3,3,11,27,17,156,30,26,68,055,49,135,22,240,43*7A
2017-12-31 17:56:27 1514760987.819218: $GPZDA,225628.00,31,12,2017,00,00*6A
2017-12-31 17:56:27 1514760987.819344: $GPGGA,225628,3946.9567,N,08404.9865,W,2,11,0.60,306.72,M,-33.324,M,,*7B
2017-12-31 17:56:27 1514760987.819409: $GPRMC,225628,A,3946.9567,N,08404.9865,W,0.0000,0.000,311217,,*3E
2017-12-31 17:56:27 1514760987.819468: $GPGSA,A,3,22,23,9,3,16,29,14,31,27,26,135,,1.7,0.6,1.3*06
2017-12-31 17:56:28 1514760988.345416: $GPZDA,225629.00,31,12,2017,00,00*6B
2017-12-31 17:56:28 1514760988.345582: $GPGGA,225629,3946.9567,N,08404.9865,W,2,11,0.60,306.72,M,-33.324,M,,*7A
2017-12-31 17:56:28 1514760988.345647: $GPRMC,225629,A,3946.9567,N,08404.9865,W,0.0000,0.000,311217,,*3F
2017-12-31 17:56:28 1514760988.345707: $GPGSA,A,3,22,23,9,3,16,29,14,31,27,26,135,,1.7,0.6,1.3*06
2017-12-31 17:56:29 1514760989.371286: $GPZDA,225630.00,31,12,2017,00,00*63
2017-12-31 17:56:29 1514760989.371454: $GPGGA,225630,3946.9567,N,08404.9865,W,2,11,0.60,306.72,M,-33.324,M,,*72
2017-12-31 17:56:29 1514760989.371519: $GPRMC,225630,A,3946.9567,N,08404.9865,W,0.0000,0.000,311217,,*37
2017-12-31 17:56:29 1514760989.371579: $GPGSA,A,3,22,23,9,3,16,29,14,31,27,26,135,,1.7,0.6,1.3*06
