2017-11-16 16:45:46 1510868746.001640: {"class":"VERSION","release":"3.17","rev":"3.17","proto_major":3,"proto_minor":12}
2017-11-16 16:45:46 1510868746.002152: {"class":"DEVICES","devices":[{"class":"DEVICE","path":"/dev/ttyUSB0","driver":"SiRF","subtype":"9\u0006GSD4e_4.1.2-P1_RPATCH.05-F-GPS-4R-1510281 11/03/2015 307","activated":"2017-11-16T21:45:45.758Z","flags":1,"native":1,"bps":4800,"parity":"N","stopbits":1,"cycle":1.00}]}
2017-11-16 16:45:46 1510868746.002268: {"class":"WATCH","enable":true,"json":false,"nmea":true,"raw":0,"scaled":false,"timing":false,"split24":false,"pps":false}
2017-11-16 16:45:46 1510868746.442816: $GPZDA,214545.00,16,11,2017,00,00*66
2017-11-16 16:45:46 1510868746.442991: $GPGGA,214545,3946.9580,N,08404.9815,W,2,12,0.80,307.02,M,-33.324,M,,*74
2017-11-16 16:45:46 1510868746.443071: $GPRMC,214545,A,3946.9580,N,08404.9815,W,0.0000,0.000,161117,,*3C
2017-11-16 16:45:46 1510868746.443129: $GPGSA,A,3,1,10,11,12,14,18,24,25,31,32,22,138,1.6,0.8,1.3*38
2017-11-16 16:45:47 1510868747.779780: $GPGSV,3,1,12,01,13,319,38,10,71,129,49,11,11,303,36,12,25,073,48*72
2017-11-16 16:45:47 1510868747.780075: $GPGSV,3,2,12,14,54,289,44,18,39,135,45,24,15,045,46,25,29,115,42*77
2017-11-16 16:45:47 1510868747.780194: $GPGSV,3,3,12,31,33,211,45,32,67,324,51,22,01,310,29,138,38,213,44*43
2017-11-16 16:45:47 1510868747.892989: $GPZDA,214546.00,16,11,2017,00,00*65
2017-11-16 16:45:47 1510868747.893148: $GPGGA,214546,3946.9580,N,08404.9815,W,2,12,0.80,307.02,M,-33.324,M,,*77
2017-11-16 16:45:47 1510868747.893208: $GPRMC,214546,A,3946.9580,N,08404.9815,W,0.0000,0.000,161117,,*3F
2017-11-16 16:45:47 1510868747.893263: $GPGSA,A,3,1,10,11,12,14,18,24,25,31,32,22,138,1.6,0.8,1.3*38
2017-11-16 16:45:48 1510868748.445123: $GPZDA,214547.00,16,11,2017,00,00*64
2017-11-16 16:45:48 1510868748.445271: $GPGGA,214547,3946.9580,N,08404.9815,W,2,12,0.80,307.02,M,-33.324,M,,*76
2017-11-16 16:45:48 1510868748.445332: $GPRMC,214547,A,3946.9580,N,08404.9815,W,0.0000,0.000,161117,,*3E
2017-11-16 16:45:48 1510868748.445387: $GPGSA,A,3,1,10,11,12,14,18,24,25,31,32,22,138,1.6,0.8,1.3*38
2017-11-16 16:45:49 1510868749.458473: $GPZDA,214548.00,16,11,2017,00,00*6B
2017-11-16 16:45:49 1510868749.458652: $GPGGA,214548,3946.9580,N,08404.9815,W,2,12,0.80,307.02,M,-33.324,M,,*79
2017-11-16 16:45:49 1510868749.458729: $GPRMC,214548,A,3946.9580,N,08404.9815,W,0.0000,0.000,161117,,*31
2017-11-16 16:45:49 1510868749.458787: $GPGSA,A,3,1,10,11,12,14,18,24,25,31,32,22,138,1.6,0.8,1.3*38
2017-11-16 16:45:50 1510868750.789312: $GPGSV,3,1,12,01,13,319,37,10,71,129,49,11,11,303,36,12,25,073,48*7D
2017-11-16 16:45:50 1510868750.789480: $GPGSV,3,2,12,14,54,289,44,18,39,135,44,24,15,045,46,25,29,115,42*76
2017-11-16 16:45:50 1510868750.789540: $GPGSV,3,3,12,31,33,211,45,32,67,324,51,22,01,310,19,138,38,213,44*40
2017-11-16 16:45:50 1510868750.902570: $GPZDA,214549.00,16,11,2017,00,00*6A
2017-11-16 16:45:50 1510868750.902806: $GPGGA,214549,3946.9580,N,08404.9815,W,2,12,0.80,307.02,M,-33.324,M,,*78
2017-11-16 16:45:50 1510868750.902867: $GPRMC,214549,A,3946.9580,N,08404.9815,W,0.0000,0.000,161117,,*30
2017-11-16 16:45:50 1510868750.902923: $GPGSA,A,3,1,10,11,12,14,18,24,25,31,32,22,138,1.6,0.8,1.3*38
2017-11-16 16:45:51 1510868751.528485: $GPZDA,214550.00,16,11,2017,00,00*62
2017-11-16 16:45:51 1510868751.528748: $GPGGA,214550,3946.9580,N,08404.9815,W,2,12,0.80,307.02,M,-33.324,M,,*70
2017-11-16 16:45:51 1510868751.528839: $GPRMC,214550,A,3946.9580,N,08404.9815,W,0.0000,0.000,161117,,*38
2017-11-16 16:45:51 1510868751.528898: $GPGSA,A,3,1,10,11,12,14,18,24,25,31,32,22,138,1.6,0.8,1.3*38
2017-11-16 16:45:52 1510868752.460440: $GPZDA,214551.00,16,11,2017,00,00*63
2017-11-16 16:45:52 1510868752.460616: $GPGGA,214551,3946.9580,N,08404.9815,W,2,12,0.80,307.02,M,-33.324,M,,*71
2017-11-16 16:45:52 1510868752.460679: $GPRMC,214551,A,3946.9580,N,08404.9815,W,0.0000,0.000,161117,,*39
2017-11-16 16:45:52 1510868752.460751: $GPGSA,A,3,1,10,11,12,14,18,24,25,31,32,22,138,1.6,0.8,1.3*38
2017-11-16 16:45:53 1510868753.778602: $GPGSV,3,1,12,01,13,319,37,10,71,129,49,11,11,303,36,12,25,073,47*72
2017-11-16 16:45:53 1510868753.778849: $GPGSV,3,2,12,14,54,289,44,18,39,135,44,24,15,045,47,25,29,115,42*77
2017-11-16 16:45:53 1510868753.778914: $GPGSV,3,3,12,31,33,211,45,32,67,324,51,22,01,310,28,138,38,213,44*42
2017-11-16 16:45:53 1510868753.891929: $GPZDA,214552.00,16,11,2017,00,00*60
2017-11-16 16:45:53 1510868753.892069: $GPGGA,214552,3946.9580,N,08404.9815,W,2,12,0.80,307.02,M,-33.324,M,,*72
2017-11-16 16:45:53 1510868753.892181: $GPRMC,214552,A,3946.9580,N,08404.9815,W,0.0000,0.000,161117,,*3A
2017-11-16 16:45:53 1510868753.892237: $GPGSA,A,3,1,10,11,12,14,18,24,25,31,32,22,138,1.6,0.8,1.3*38
2017-11-16 16:45:54 1510868754.504056: $GPZDA,214553.00,16,11,2017,00,00*61
2017-11-16 16:45:54 1510868754.504216: $GPGGA,214553,3946.9580,N,08404.9815,W,2,12,0.80,307.02,M,-33.324,M,,*73
2017-11-16 16:45:54 1510868754.504278: $GPRMC,214553,A,3946.9580,N,08404.9815,W,0.0000,0.000,161117,,*3B
2017-11-16 16:45:54 1510868754.504333: $GPGSA,A,3,1,10,11,12,14,18,24,25,31,32,22,138,1.6,0.8,1.3*38
2017-11-16 16:45:54 1510868754.504387: $GPGBS,214553,2.07,M,2.72,M,7.42,M*39
2017-11-16 16:45:55 1510868755.443668: $GPZDA,214554.00,16,11,2017,00,00*66
2017-11-16 16:45:55 1510868755.443819: $GPGGA,214554,3946.9580,N,08404.9815,W,2,12,0.80,307.02,M,-33.324,M,,*74
2017-11-16 16:45:55 1510868755.443879: $GPRMC,214554,A,3946.9580,N,08404.9815,W,0.0000,0.000,161117,,*3C
2017-11-16 16:45:55 1510868755.443934: $GPGSA,A,3,1,10,11,12,14,18,24,25,31,32,22,138,1.6,0.8,1.3*38
2017-11-16 16:45:55 1510868755.443988: $GPGBS,214554,2.07,M,2.72,M,7.42,M*3E
