2017-11-16 15:13:36 1510863216.026983: {"class":"VERSION","release":"3.17","rev":"3.17","proto_major":3,"proto_minor":12}
2017-11-16 15:13:36 1510863216.027461: {"class":"DEVICES","devices":[{"class":"DEVICE","path":"/dev/ttyUSB0","driver":"SiRF","subtype":"9\u0006GSD4e_4.1.2-P1_RPATCH.05-F-GPS-4R-1510281 11/03/2015 307","activated":"2017-11-16T20:13:35.698Z","flags":1,"native":1,"bps":4800,"parity":"N","stopbits":1,"cycle":1.00}]}
2017-11-16 15:13:36 1510863216.027591: {"class":"WATCH","enable":true,"json":false,"nmea":true,"raw":0,"scaled":false,"timing":false,"split24":false,"pps":false}
2017-11-16 15:13:36 1510863216.399620: $GPZDA,201335.00,16,11,2017,00,00*63
2017-11-16 15:13:36 1510863216.399792: $GPGGA,201335,3946.9575,N,08404.9847,W,2,11,0.80,300.37,M,-33.324,M,,*7E
2017-11-16 15:13:36 1510863216.399854: $GPRMC,201335,A,3946.9575,N,08404.9847,W,0.0000,0.000,161117,,*34
2017-11-16 15:13:36 1510863216.399912: $GPGSA,A,3,8,10,14,15,18,20,21,24,27,32,138,,1.6,0.8,1.3*37
2017-11-16 15:13:37 1510863217.720527: $GPGSV,3,1,12,08,07,298,22,10,64,324,51,14,25,249,45,15,15,064,34*7F
2017-11-16 15:13:37 1510863217.720693: $GPGSV,3,2,12,18,74,079,47,20,12,115,28,21,35,180,44,24,48,064,49*7B
2017-11-16 15:13:37 1510863217.720754: $GPGSV,3,3,12,27,09,264,41,32,42,259,48,12,06,111,00,138,38,213,44*43
2017-11-16 15:13:37 1510863217.833839: $GPZDA,201336.00,16,11,2017,00,00*60
2017-11-16 15:13:37 1510863217.834012: $GPGGA,201336,3946.9575,N,08404.9847,W,2,11,0.80,300.37,M,-33.324,M,,*7D
2017-11-16 15:13:37 1510863217.834073: $GPRMC,201336,A,3946.9575,N,08404.9847,W,0.0000,0.000,161117,,*37
2017-11-16 15:13:37 1510863217.834130: $GPGSA,A,3,8,10,14,15,18,20,21,24,27,32,138,,1.6,0.8,1.3*37
2017-11-16 15:13:38 1510863218.400047: $GPZDA,201337.00,16,11,2017,00,00*61
2017-11-16 15:13:38 1510863218.400211: $GPGGA,201337,3946.9575,N,08404.9847,W,2,11,0.80,300.37,M,-33.324,M,,*7C
2017-11-16 15:13:38 1510863218.400272: $GPRMC,201337,A,3946.9575,N,08404.9847,W,0.0000,0.000,161117,,*36
2017-11-16 15:13:38 1510863218.400406: $GPGSA,A,3,8,10,14,15,18,20,21,24,27,32,138,,1.6,0.8,1.3*37
2017-11-16 15:13:39 1510863219.399476: $GPZDA,201338.00,16,11,2017,00,00*6E
2017-11-16 15:13:39 1510863219.399635: $GPGGA,201338,3946.9575,N,08404.9847,W,2,11,0.80,300.37,M,-33.324,M,,*73
2017-11-16 15:13:39 1510863219.399698: $GPRMC,201338,A,3946.9575,N,08404.9847,W,0.0000,0.000,161117,,*39
2017-11-16 15:13:39 1510863219.399754: $GPGSA,A,3,8,10,14,15,18,20,21,24,27,32,138,,1.6,0.8,1.3*37
2017-11-16 15:13:40 1510863220.713960: $GPGSV,3,1,12,08,07,298,22,10,64,324,51,14,25,249,45,15,15,064,34*7F
2017-11-16 15:13:40 1510863220.714146: $GPGSV,3,2,12,18,74,079,47,20,12,115,28,21,35,180,44,24,48,064,49*7B
2017-11-16 15:13:40 1510863220.714208: $GPGSV,3,3,12,27,09,264,42,32,42,259,48,12,06,111,24,138,38,213,43*41
2017-11-16 15:13:40 1510863220.827241: $GPZDA,201339.00,16,11,2017,00,00*6F
2017-11-16 15:13:40 1510863220.827415: $GPGGA,201339,3946.9575,N,08404.9847,W,2,12,0.80,300.37,M,-33.324,M,,*71
2017-11-16 15:13:40 1510863220.827485: $GPRMC,201339,A,3946.9575,N,08404.9847,W,0.0000,0.000,161117,,*38
2017-11-16 15:13:40 1510863220.827542: $GPGSA,A,3,8,10,14,15,18,20,21,24,27,32,12,138,1.6,0.8,1.3*34
2017-11-16 15:13:41 1510863221.452245: $GPZDA,201340.00,16,11,2017,00,00*61
2017-11-16 15:13:41 1510863221.452417: $GPGGA,201340,3946.9575,N,08404.9847,W,2,12,0.80,300.37,M,-33.324,M,,*7F
2017-11-16 15:13:41 1510863221.452480: $GPRMC,201340,A,3946.9575,N,08404.9847,W,0.0000,0.000,161117,,*36
2017-11-16 15:13:41 1510863221.452537: $GPGSA,A,3,8,10,14,15,18,20,21,24,27,32,12,138,1.6,0.8,1.3*34
2017-11-16 15:13:42 1510863222.398373: $GPZDA,201341.00,16,11,2017,00,00*60
2017-11-16 15:13:42 1510863222.398537: $GPGGA,201341,3946.9575,N,08404.9847,W,2,12,0.80,300.37,M,-33.324,M,,*7E
2017-11-16 15:13:42 1510863222.398598: $GPRMC,201341,A,3946.9575,N,08404.9847,W,0.0000,0.000,161117,,*37
2017-11-16 15:13:42 1510863222.398655: $GPGSA,A,3,8,10,14,15,18,20,21,24,27,32,12,138,1.6,0.8,1.3*34
2017-11-16 15:13:43 1510863223.720173: $GPGSV,3,1,12,08,07,298,23,10,64,324,51,14,25,249,45,15,15,064,35*7F
2017-11-16 15:13:43 1510863223.720426: $GPGSV,3,2,12,18,74,079,47,20,12,115,28,21,35,180,44,24,48,064,49*7B
2017-11-16 15:13:43 1510863223.720498: $GPGSV,3,3,12,27,09,264,42,32,42,259,48,12,06,111,27,138,38,213,44*45
2017-11-16 15:13:43 1510863223.833925: $GPZDA,201342.00,16,11,2017,00,00*63
2017-11-16 15:13:43 1510863223.834100: $GPGGA,201342,3946.9575,N,08404.9847,W,2,12,0.80,300.37,M,-33.324,M,,*7D
2017-11-16 15:13:43 1510863223.834165: $GPRMC,201342,A,3946.9575,N,08404.9847,W,0.0000,0.000,161117,,*34
2017-11-16 15:13:43 1510863223.834225: $GPGSA,A,3,8,10,14,15,18,20,21,24,27,32,12,138,1.6,0.8,1.3*34
2017-11-16 15:13:44 1510863224.400783: $GPZDA,201343.00,16,11,2017,00,00*62
2017-11-16 15:13:44 1510863224.400965: $GPGGA,201343,3946.9575,N,08404.9847,W,2,12,0.80,300.37,M,-33.324,M,,*7C
2017-11-16 15:13:44 1510863224.401032: $GPRMC,201343,A,3946.9575,N,08404.9847,W,0.0000,0.000,161117,,*35
2017-11-16 15:13:44 1510863224.401092: $GPGSA,A,3,8,10,14,15,18,20,21,24,27,32,12,138,1.6,0.8,1.3*34
2017-11-16 15:13:45 1510863225.385471: $GPZDA,201344.00,16,11,2017,00,00*65
2017-11-16 15:13:45 1510863225.389586: $GPGGA,201344,3946.9575,N,08404.9847,W,2,12,0.80,300.37,M,-33.324,M,,*7B
2017-11-16 15:13:45 1510863225.389877: $GPRMC,201344,A,3946.9575,N,08404.9847,W,0.0000,0.000,161117,,*32
2017-11-16 15:13:45 1510863225.389994: $GPGSA,A,3,8,10,14,15,18,20,21,24,27,32,12,138,1.6,0.8,1.3*34
