2017-12-01 15:34:17 1512160457.256737: {"class":"VERSION","release":"3.16","rev":"3.16-4","proto_major":3,"proto_minor":11}
2017-12-01 15:34:17 1512160457.257125: {"class":"DEVICES","devices":[{"class":"DEVICE","path":"/dev/ttyUSB0","driver":"SiRF","subtype":"9\u0006GSD4e_4.1.2-P1_RPATCH.05-F-GPS-4R-1510281 11/03/2015 307","activated":"2017-12-01T20:34:17.224Z","flags":1,"native":1,"bps":4800,"parity":"N","stopbits":1,"cycle":1.00}]}
2017-12-01 15:34:17 1512160457.257246: {"class":"WATCH","enable":true,"json":false,"nmea":true,"raw":0,"scaled":false,"timing":false,"split24":false,"pps":false}
2017-12-01 15:34:17 1512160457.402259: $GPZDA,203418.00,01,12,2017,00,00*6C
2017-12-01 15:34:17 1512160457.402428: $GPGGA,203418,3946.9567,N,08404.9815,W,2,11,0.80,305.10,M,-33.324,M,,*70
2017-12-01 15:34:17 1512160457.402494: $GPRMC,203418,A,3946.9567,N,08404.9815,W,0.0000,0.000,011217,,*3F
2017-12-01 15:34:17 1512160457.402556: $GPGSA,A,3,1,10,11,12,14,18,24,25,31,32,138,,2.0,0.8,1.5*3B
2017-12-01 15:34:18 1512160458.738954: $GPGSV,3,1,11,01,11,321,38,10,75,123,47,11,10,306,34,12,24,076,43*71
2017-12-01 15:34:18 1512160458.739135: $GPGSV,3,2,11,14,51,285,42,18,42,132,45,24,18,045,42,25,26,120,45*77
2017-12-01 15:34:18 1512160458.739202: $GPGSV,3,3,11,31,30,210,46,32,66,316,49,138,38,213,45*71
2017-12-01 15:34:18 1512160458.852459: $GPZDA,203419.00,01,12,2017,00,00*6D
2017-12-01 15:34:18 1512160458.852622: $GPGGA,203419,3946.9573,N,08404.9823,W,2,11,0.80,307.07,M,-33.324,M,,*75
2017-12-01 15:34:18 1512160458.852689: $GPRMC,203419,A,3946.9573,N,08404.9823,W,0.0000,0.000,011217,,*3E
2017-12-01 15:34:18 1512160458.852749: $GPGSA,A,3,1,10,11,12,14,18,24,25,31,32,138,,2.0,0.8,1.5*3B
2017-12-01 15:34:19 1512160459.404500: $GPZDA,203420.00,01,12,2017,00,00*67
2017-12-01 15:34:19 1512160459.404686: $GPGGA,203420,3946.9573,N,08404.9823,W,2,11,0.80,307.07,M,-33.324,M,,*7F
2017-12-01 15:34:19 1512160459.404754: $GPRMC,203420,A,3946.9573,N,08404.9823,W,0.0000,0.000,011217,,*34
2017-12-01 15:34:19 1512160459.404816: $GPGSA,A,3,1,10,11,12,14,18,24,25,31,32,138,,2.0,0.8,1.5*3B
2017-12-01 15:34:20 1512160460.406694: $GPZDA,203421.00,01,12,2017,00,00*66
2017-12-01 15:34:20 1512160460.406858: $GPGGA,203421,3946.9573,N,08404.9823,W,2,11,0.80,307.07,M,-33.324,M,,*7E
2017-12-01 15:34:20 1512160460.406925: $GPRMC,203421,A,3946.9573,N,08404.9823,W,0.0000,0.000,011217,,*35
2017-12-01 15:34:20 1512160460.406985: $GPGSA,A,3,1,10,11,12,14,18,24,25,31,32,138,,2.0,0.8,1.5*3B
2017-12-01 15:34:21 1512160461.741151: $GPGSV,3,1,11,01,11,321,38,10,75,123,46,11,10,306,34,12,24,076,43*70
2017-12-01 15:34:21 1512160461.741335: $GPGSV,3,2,11,14,51,285,42,18,42,132,45,24,18,045,42,25,26,120,45*77
2017-12-01 15:34:21 1512160461.741466: $GPGSV,3,3,11,31,30,210,46,32,66,316,49,138,38,213,45*71
2017-12-01 15:34:21 1512160461.854446: $GPZDA,203422.00,01,12,2017,00,00*65
2017-12-01 15:34:21 1512160461.854610: $GPGGA,203422,3946.9573,N,08404.9823,W,2,11,0.80,307.07,M,-33.324,M,,*7D
2017-12-01 15:34:21 1512160461.854678: $GPRMC,203422,A,3946.9573,N,08404.9823,W,0.0000,0.000,011217,,*36
2017-12-01 15:34:21 1512160461.854743: $GPGSA,A,3,1,10,11,12,14,18,24,25,31,32,138,,2.0,0.8,1.5*3B
2017-12-01 15:34:22 1512160462.479873: $GPZDA,203423.00,01,12,2017,00,00*64
2017-12-01 15:34:22 1512160462.480046: $GPGGA,203423,3946.9573,N,08404.9823,W,2,11,0.80,307.07,M,-33.324,M,,*7C
2017-12-01 15:34:22 1512160462.480113: $GPRMC,203423,A,3946.9573,N,08404.9823,W,0.0000,0.000,011217,,*37
2017-12-01 15:34:22 1512160462.480174: $GPGSA,A,3,1,10,11,12,14,18,24,25,31,32,138,,2.0,0.8,1.5*3B
2017-12-01 15:34:23 1512160463.405769: $GPZDA,203424.00,01,12,2017,00,00*63
2017-12-01 15:34:23 1512160463.405940: $GPGGA,203424,3946.9573,N,08404.9823,W,2,11,0.80,307.07,M,-33.324,M,,*7B
2017-12-01 15:34:23 1512160463.406006: $GPRMC,203424,A,3946.9573,N,08404.9823,W,0.0000,0.000,011217,,*30
2017-12-01 15:34:23 1512160463.406068: $GPGSA,A,3,1,10,11,12,14,18,24,25,31,32,138,,2.0,0.8,1.5*3B
2017-12-01 15:34:25 1512160465.246579: $GPGSV,3,1,11,01,11,321,37,10,74,123,46,11,10,306,34,12,24,076,42*7F
2017-12-01 15:34:25 1512160465.246823: $GPGSV,3,2,11,14,52,285,42,18,42,132,45,24,18,045,43,25,26,118,45*7E
2017-12-01 15:34:25 1512160465.246892: $GPGSV,3,3,11,31,30,210,47,32,66,318,49,138,38,213,46*7D
2017-12-01 15:34:25 1512160465.360263: $GPZDA,203425.00,01,12,2017,00,00*62
2017-12-01 15:34:25 1512160465.360436: $GPGGA,203425,3946.9565,N,08404.9830,W,2,11,0.80,307.11,M,-33.324,M,,*78
2017-12-01 15:34:25 1512160465.360502: $GPRMC,203425,A,3946.9565,N,08404.9830,W,0.0000,0.000,011217,,*34
2017-12-01 15:34:25 1512160465.360566: $GPGSA,A,3,1,10,11,12,14,18,24,25,31,32,138,,2.0,0.8,1.5*3B
2017-12-01 15:34:25 1512160465.812453: $GPZDA,203426.00,01,12,2017,00,00*61
2017-12-01 15:34:25 1512160465.812629: $GPGGA,203426,3946.9565,N,08404.9823,W,2,11,0.80,307.19,M,-33.324,M,,*71
2017-12-01 15:34:25 1512160465.812699: $GPRMC,203426,A,3946.9565,N,08404.9823,W,0.0000,0.000,011217,,*35
2017-12-01 15:34:25 1512160465.812761: $GPGSA,A,3,1,10,11,12,14,18,24,25,31,32,138,,2.0,0.8,1.5*3B
2017-12-01 15:34:26 1512160466.400409: $GPZDA,203427.00,01,12,2017,00,00*60
2017-12-01 15:34:26 1512160466.400592: $GPGGA,203427,3946.9565,N,08404.9823,W,2,11,0.80,307.19,M,-33.324,M,,*70
2017-12-01 15:34:26 1512160466.400660: $GPRMC,203427,A,3946.9565,N,08404.9823,W,0.0000,0.000,011217,,*34
2017-12-01 15:34:26 1512160466.400726: $GPGSA,A,3,1,10,11,12,14,18,24,25,31,32,138,,2.0,0.8,1.5*3B
2017-12-01 15:34:27 1512160467.743144: $GPGSV,3,1,11,01,11,321,37,10,74,123,46,11,10,306,29,12,24,076,42*73
2017-12-01 15:34:27 1512160467.743315: $GPGSV,3,2,11,14,52,285,42,18,42,132,45,24,18,045,43,25,26,118,45*7E
2017-12-01 15:34:27 1512160467.743381: $GPGSV,3,3,11,31,30,210,47,32,66,318,49,138,38,213,45*7E
2017-12-01 15:34:27 1512160467.856547: $GPZDA,203428.00,01,12,2017,00,00*6F
2017-12-01 15:34:27 1512160467.856724: $GPGGA,203428,3946.9565,N,08404.9823,W,2,11,0.80,307.19,M,-33.324,M,,*7F
2017-12-01 15:34:27 1512160467.856790: $GPRMC,203428,A,3946.9565,N,08404.9823,W,0.0000,0.000,011217,,*3B
2017-12-01 15:34:27 1512160467.856852: $GPGSA,A,3,1,10,11,12,14,18,24,25,31,32,138,,2.0,0.8,1.5*3B
2017-12-01 15:34:28 1512160468.407393: $GPZDA,203429.00,01,12,2017,00,00*6E
2017-12-01 15:34:28 1512160468.407583: $GPGGA,203429,3946.9565,N,08404.9823,W,2,11,0.80,307.19,M,-33.324,M,,*7E
2017-12-01 15:34:28 1512160468.407651: $GPRMC,203429,A,3946.9565,N,08404.9823,W,0.0000,0.000,011217,,*3A
2017-12-01 15:34:28 1512160468.407716: $GPGSA,A,3,1,10,11,12,14,18,24,25,31,32,138,,2.0,0.8,1.5*3B
2017-12-01 15:34:29 1512160469.406110: $GPZDA,203430.00,01,12,2017,00,00*66
2017-12-01 15:34:29 1512160469.406284: $GPGGA,203430,3946.9565,N,08404.9823,W,2,11,0.80,307.19,M,-33.324,M,,*76
2017-12-01 15:34:29 1512160469.406352: $GPRMC,203430,A,3946.9565,N,08404.9823,W,0.0000,0.000,011217,,*32
2017-12-01 15:34:29 1512160469.406414: $GPGSA,A,3,1,10,11,12,14,18,24,25,31,32,138,,2.0,0.8,1.5*3B
2017-12-01 15:34:30 1512160470.736572: $GPGSV,3,1,11,01,11,321,37,10,74,123,46,11,10,306,29,12,24,076,42*73
2017-12-01 15:34:30 1512160470.736757: $GPGSV,3,2,11,14,52,285,42,18,42,132,45,24,18,045,43,25,26,118,45*7E
2017-12-01 15:34:30 1512160470.736826: $GPGSV,3,3,11,31,30,210,47,32,66,318,49,138,38,213,46*7D
2017-12-01 15:34:30 1512160470.850274: $GPZDA,203431.00,01,12,2017,00,00*67
2017-12-01 15:34:30 1512160470.850430: $GPGGA,203431,3946.9565,N,08404.9823,W,2,11,0.80,307.19,M,-33.324,M,,*77
2017-12-01 15:34:30 1512160470.850497: $GPRMC,203431,A,3946.9565,N,08404.9823,W,0.0000,0.000,011217,,*33
2017-12-01 15:34:30 1512160470.850584: $GPGSA,A,3,1,10,11,12,14,18,24,25,31,32,138,,2.0,0.8,1.5*3B
2017-12-01 15:34:31 1512160471.407514: $GPZDA,203432.00,01,12,2017,00,00*64
2017-12-01 15:34:31 1512160471.407729: $GPGGA,203432,3946.9565,N,08404.9823,W,2,11,0.80,307.19,M,-33.324,M,,*74
2017-12-01 15:34:31 1512160471.407796: $GPRMC,203432,A,3946.9565,N,08404.9823,W,0.0000,0.000,011217,,*30
2017-12-01 15:34:31 1512160471.407857: $GPGSA,A,3,1,10,11,12,14,18,24,25,31,32,138,,2.0,0.8,1.5*3B
2017-12-01 15:34:32 1512160472.406163: $GPZDA,203433.00,01,12,2017,00,00*65
2017-12-01 15:34:32 1512160472.406360: $GPGGA,203433,3946.9565,N,08404.9823,W,2,11,0.80,307.19,M,-33.324,M,,*75
2017-12-01 15:34:32 1512160472.406429: $GPRMC,203433,A,3946.9565,N,08404.9823,W,0.0000,0.000,011217,,*31
2017-12-01 15:34:32 1512160472.406490: $GPGSA,A,3,1,10,11,12,14,18,24,25,31,32,138,,2.0,0.8,1.5*3B
2017-12-01 15:34:33 1512160473.740735: $GPGSV,3,1,11,01,11,321,38,10,74,123,47,11,10,306,36,12,24,076,42*73
2017-12-01 15:34:33 1512160473.740914: $GPGSV,3,2,11,14,52,285,42,18,42,132,45,24,18,045,43,25,26,118,45*7E
2017-12-01 15:34:33 1512160473.740982: $GPGSV,3,3,11,31,30,210,47,32,66,318,49,138,38,213,46*7D
2017-12-01 15:34:33 1512160473.854151: $GPZDA,203434.00,01,12,2017,00,00*62
2017-12-01 15:34:33 1512160473.854319: $GPGGA,203434,3946.9565,N,08404.9823,W,2,11,0.80,307.19,M,-33.324,M,,*72
2017-12-01 15:34:33 1512160473.854386: $GPRMC,203434,A,3946.9565,N,08404.9823,W,0.0000,0.000,011217,,*36
2017-12-01 15:34:33 1512160473.854447: $GPGSA,A,3,1,10,11,12,14,18,24,25,31,32,138,,2.0,0.8,1.5*3B
2017-12-01 15:34:34 1512160474.404891: $GPZDA,203435.00,01,12,2017,00,00*63
2017-12-01 15:34:34 1512160474.405070: $GPGGA,203435,3946.9565,N,08404.9823,W,2,11,0.80,307.19,M,-33.324,M,,*73
2017-12-01 15:34:34 1512160474.405138: $GPRMC,203435,A,3946.9565,N,08404.9823,W,0.0000,0.000,011217,,*37
2017-12-01 15:34:34 1512160474.405199: $GPGSA,A,3,1,10,11,12,14,18,24,25,31,32,138,,2.0,0.8,1.5*3B
2017-12-01 15:34:35 1512160475.405759: $GPZDA,203436.00,01,12,2017,00,00*60
2017-12-01 15:34:35 1512160475.405948: $GPGGA,203436,3946.9565,N,08404.9823,W,2,11,0.80,307.19,M,-33.324,M,,*70
2017-12-01 15:34:35 1512160475.406017: $GPRMC,203436,A,3946.9565,N,08404.9823,W,0.0000,0.000,011217,,*34
2017-12-01 15:34:35 1512160475.406079: $GPGSA,A,3,1,10,11,12,14,18,24,25,31,32,138,,2.0,0.8,1.5*3B
2017-12-01 15:34:36 1512160476.737756: $GPGSV,3,1,11,01,11,321,37,10,74,123,47,11,10,306,36,12,24,076,43*7D
2017-12-01 15:34:36 1512160476.737936: $GPGSV,3,2,11,14,52,285,42,18,42,132,45,24,18,045,42,25,26,118,45*7F
2017-12-01 15:34:36 1512160476.738002: $GPGSV,3,3,11,31,30,210,46,32,66,318,49,138,38,213,45*7F
2017-12-01 15:34:36 1512160476.851166: $GPZDA,203437.00,01,12,2017,00,00*61
2017-12-01 15:34:36 1512160476.851340: $GPGGA,203437,3946.9565,N,08404.9823,W,2,11,0.80,307.19,M,-33.324,M,,*71
2017-12-01 15:34:36 1512160476.851472: $GPRMC,203437,A,3946.9565,N,08404.9823,W,0.0000,0.000,011217,,*35
2017-12-01 15:34:36 1512160476.851560: $GPGSA,A,3,1,10,11,12,14,18,24,25,31,32,138,,2.0,0.8,1.5*3B
