2017-12-31 17:56:48 1514761008.807744: {"class":"VERSION","release":"3.16","rev":"3.16-4","proto_major":3,"proto_minor":11}
2017-12-31 17:56:48 1514761008.808118: {"class":"DEVICES","devices":[{"class":"DEVICE","path":"/dev/ttyUSB0","driver":"SiRF","activated":"2017-12-31T22:56:48.705Z","flags":1,"native":1,"bps":4800,"parity":"N","stopbits":1,"cycle":1.00}]}
2017-12-31 17:56:48 1514761008.808224: {"class":"WATCH","enable":true,"json":false,"nmea":true,"raw":0,"scaled":false,"timing":false,"split24":false,"pps":false}
2017-12-31 17:56:48 1514761008.818821: $GPZDA,225649.00,31,12,2017,00,00*6D
2017-12-31 17:56:48 1514761008.818916: $GPGGA,225649,3946.9567,N,08404.9865,W,2,11,0.60,306.72,M,-33.324,M,,*7C
2017-12-31 17:56:48 1514761008.818979: $GPRMC,225649,A,3946.9567,N,08404.9865,W,0.0000,0.000,311217,,*39
2017-12-31 17:56:48 1514761008.819041: $GPGSA,A,3,22,23,9,3,16,29,14,31,27,26,135,,1.7,0.6,1.3*06
2017-12-31 17:56:49 1514761009.370958: $GPZDA,225650.00,31,12,2017,00,00*65
2017-12-31 17:56:49 1514761009.371130: $GPGGA,225650,3946.9567,N,08404.9865,W,2,11,0.60,306.72,M,-33.324,M,,*74
2017-12-31 17:56:49 1514761009.371199: $GPRMC,225650,A,3946.9567,N,08404.9865,W,0.0000,0.000,311217,,*31
2017-12-31 17:56:49 1514761009.371259: $GPGSA,A,3,22,23,9,3,16,29,14,31,27,26,135,,1.7,0.6,1.3*06
2017-12-31 17:56:50 1514761010.339123: $GPZDA,225651.00,31,12,2017,00,00*64
2017-12-31 17:56:50 1514761010.339292: $GPGGA,225651,3946.9567,N,08404.9865,W,2,11,0.60,306.72,M,-33.324,M,,*75
2017-12-31 17:56:50 1514761010.339358: $GPRMC,225651,A,3946.9567,N,08404.9865,W,0.0000,0.000,311217,,*30
2017-12-31 17:56:50 1514761010.339420: $GPGSA,A,3,22,23,9,3,16,29,14,31,27,26,135,,1.7,0.6,1.3*06
2017-12-31 17:56:51 1514761011.707087: $GPGSV,3,1,11,22,27,217,43,23,49,309,42,09,15,312,42,03,36,240,46*74
2017-12-31 17:56:51 1514761011.707314: $GPGSV,3,2,11,16,74,192,42,29,08,034,29,14,20,130,27,31,32,070,42*7D
2017-12-31 17:56:51 1514761011.707381: $GPGSV,3,3,11,27,17,156,27,26,67,055,48,135,22,240,43*72
2017-12-31 17:56:51 1514761011.820841: $GPZDA,225652.00,31,12,2017,00,00*67
2017-12-31 17:56:51 1514761011.821012: $GPGGA,225652,3946.9567,N,08404.9865,W,2,11,0.60,306.72,M,-33.324,M,,*76
2017-12-31 17:56:51 1514761011.821078: $GPRMC,225652,A,3946.9567,N,08404.9865,W,0.0000,0.000,311217,,*33
2017-12-31 17:56:51 1514761011.821139: $GPGSA,A,3,22,23,9,3,16,29,14,31,27,26,135,,1.7,0.6,1.3*06
2017-12-31 17:56:52 1514761012.345061: $GPZDA,225653.00,31,12,2017,00,00*66
2017-12-31 17:56:52 1514761012.345220: $GPGGA,225653,3946.9567,N,08404.9865,W,2,11,0.60,306.72,M,-33.324,M,,*77
2017-12-31 17:56:52 1514761012.345287: $GPRMC,225653,A,3946.9567,N,08404.9865,W,0.0000,0.000,311217,,*32
2017-12-31 17:56:52 1514761012.345347: $GPGSA,A,3,22,23,9,3,16,29,14,31,27,26,135,,1.7,0.6,1.3*06
2017-12-31 17:56:53 1514761013.344966: $GPZDA,225654.00,31,12,2017,00,00*61
2017-12-31 17:56:53 1514761013.345130: $GPGGA,225654,3946.9567,N,08404.9865,W,2,11,0.60,306.72,M,-33.324,M,,*70
2017-12-31 17:56:53 1514761013.345195: $GPRMC,225654,A,3946.9567,N,08404.9865,W,0.0000,0.000,311217,,*35
2017-12-31 17:56:53 1514761013.345256: $GPGSA,A,3,22,23,9,3,16,29,14,31,27,26,135,,1.7,0.6,1.3*06
2017-12-31 17:56:54 1514761014.706695: $GPGSV,3,1,11,22,27,217,44,23,49,309,42,09,15,312,42,03,36,240,46*73
2017-12-31 17:56:54 1514761014.706857: $GPGSV,3,2,11,16,74,192,43,29,08,034,29,14,20,130,27,31,32,070,42*7C
2017-12-31 17:56:54 1514761014.706923: $GPGSV,3,3,11,27,17,156,27,26,67,055,48,135,22,240,44*75
2017-12-31 17:56:54 1514761014.820201: $GPZDA,225655.00,31,12,2017,00,00*60
2017-12-31 17:56:54 1514761014.820378: $GPGGA,225655,3946.9567,N,08404.9865,W,2,11,0.60,306.72,M,-33.324,M,,*71
2017-12-31 17:56:54 1514761014.820444: $GPRMC,225655,A,3946.9567,N,08404.9865,W,0.0000,0.000,311217,,*34
2017-12-31 17:56:54 1514761014.820506: $GPGSA,A,3,22,23,9,3,16,29,14,31,27,26,135,,1.7,0.6,1.3*06
2017-12-31 17:56:55 1514761015.445560: $GPZDA,225656.00,31,12,2017,00,00*63
2017-12-31 17:56:55 1514761015.445728: $GPGGA,225656,3946.9567,N,08404.9865,W,2,11,0.60,306.72,M,-33.324,M,,*72
2017-12-31 17:56:55 1514761015.445852: $GPRMC,225656,A,3946.9567,N,08404.9865,W,0.0000,0.000,311217,,*37
2017-12-31 17:56:55 1514761015.445915: $GPGSA,A,3,22,23,9,3,16,29,14,31,27,26,135,,1.7,0.6,1.3*06
2017-12-31 17:56:56 1514761016.345157: $GPZDA,225657.00,31,12,2017,00,00*62
2017-12-31 17:56:56 1514761016.345324: $GPGGA,225657,3946.9567,N,08404.9865,W,2,11,0.60,306.72,M,-33.324,M,,*73
2017-12-31 17:56:56 1514761016.345391: $GPRMC,225657,A,3946.9567,N,08404.9865,W,0.0000,0.000,311217,,*36
2017-12-31 17:56:56 1514761016.345453: $GPGSA,A,3,22,23,9,3,16,29,14,31,27,26,135,,1.7,0.6,1.3*06
2017-12-31 17:56:57 1514761017.680823: $GPGSV,3,1,11,22,27,217,44,23,49,309,42,09,15,312,42,03,36,240,46*73
2017-12-31 17:56:57 1514761017.681015: $GPGSV,3,2,11,16,74,192,43,29,08,034,30,14,20,130,27,31,32,070,42*74
2017-12-31 17:56:57 1514761017.681082: $GPGSV,3,3,11,27,17,156,30,26,67,055,48,135,22,240,43*74
2017-12-31 17:56:57 1514761017.794561: $GPZDA,225658.00,31,12,2017,00,00*6D
2017-12-31 17:56:57 1514761017.794729: $GPGGA,225658,3946.9567,N,08404.9865,W,2,11,0.60,306.72,M,-33.324,M,,*7C
2017-12-31 17:56:57 1514761017.794794: $GPRMC,225658,A,3946.9567,N,08404.9865,W,0.0000,0.000,311217,,*39
2017-12-31 17:56:57 1514761017.794854: $GPGSA,A,3,22,23,9,3,16,29,14,31,27,26,135,,1.7,0.6,1.3*06
2017-12-31 17:56:58 1514761018.345416: $GPZDA,225659.00,31,12,2017,00,00*6C
2017-12-31 17:56:58 1514761018.345585: $GPGGA,225659,3946.9567,N,08404.9865,W,2,11,0.60,306.72,M,-33.324,M,,*7D
2017-12-31 17:56:58 1514761018.345650: $GPRMC,225659,A,3946.9567,N,08404.9865,W,0.0000,0.000,311217,,*38
2017-12-31 17:56:58 1514761018.345711: $GPGSA,A,3,22,23,9,3,16,29,14,31,27,26,135,,1.7,0.6,1.3*06
