2017-12-01 12:21:55 1512148915.956667: {"class":"VERSION","release":"3.16","rev":"3.16-4","proto_major":3,"proto_minor":11}
2017-12-01 12:21:55 1512148915.957089: {"class":"DEVICES","devices":[{"class":"DEVICE","path":"/dev/ttyUSB0","driver":"SiRF","subtype":"9\u0006GSD4e_4.1.2-P1_RPATCH.05-F-GPS-4R-1510281 11/03/2015 307","activated":"2017-12-01T17:21:55.521Z","flags":1,"native":1,"bps":4800,"parity":"N","stopbits":1,"cycle":1.00}]}
2017-12-01 12:21:55 1512148915.957213: {"class":"WATCH","enable":true,"json":false,"nmea":true,"raw":0,"scaled":false,"timing":false,"split24":false,"pps":false}
2017-12-01 12:21:56 1512148916.717133: $GPGSV,3,1,12,10,25,285,37,13,27,045,44,15,59,051,46,18,56,303,46*75
2017-12-01 12:21:56 1512148916.717368: $GPGSV,3,2,12,20,50,073,46,21,79,258,42,24,35,136,48,29,08,189,16*72
2017-12-01 12:21:56 1512148916.717437: $GPGSV,3,3,12,27,17,312,40,05,02,088,00,32,02,226,22,138,38,213,46*4C
2017-12-01 12:21:56 1512148916.829200: $GPZDA,172157.00,01,12,2017,00,00*67
2017-12-01 12:21:56 1512148916.829359: $GPGGA,172157,3946.9583,N,08404.9836,W,2,11,0.80,293.94,M,-33.324,M,,*72
2017-12-01 12:21:56 1512148916.829425: $GPRMC,172157,A,3946.9583,N,08404.9836,W,0.0000,0.000,011217,,*3F
2017-12-01 12:21:56 1512148916.829486: $GPGSA,A,3,10,13,15,18,20,21,24,29,27,32,138,,2.0,0.8,1.5*00
2017-12-01 12:21:57 1512148917.381333: $GPZDA,172158.00,01,12,2017,00,00*68
2017-12-01 12:21:57 1512148917.381558: $GPGGA,172158,3946.9583,N,08404.9836,W,2,11,0.80,293.94,M,-33.324,M,,*7D
2017-12-01 12:21:57 1512148917.381626: $GPRMC,172158,A,3946.9583,N,08404.9836,W,0.0000,0.000,011217,,*30
2017-12-01 12:21:57 1512148917.381688: $GPGSA,A,3,10,13,15,18,20,21,24,29,27,32,138,,2.0,0.8,1.5*00
2017-12-01 12:21:58 1512148918.382997: $GPZDA,172159.00,01,12,2017,00,00*69
2017-12-01 12:21:58 1512148918.383186: $GPGGA,172159,3946.9583,N,08404.9836,W,2,11,0.80,293.94,M,-33.324,M,,*7C
2017-12-01 12:21:58 1512148918.383257: $GPRMC,172159,A,3946.9583,N,08404.9836,W,0.0000,0.000,011217,,*31
2017-12-01 12:21:58 1512148918.383319: $GPGSA,A,3,10,13,15,18,20,21,24,29,27,32,138,,2.0,0.8,1.5*00
2017-12-01 12:21:59 1512148919.717453: $GPGSV,3,1,12,10,25,285,38,13,27,045,44,15,59,051,46,18,56,303,46*7A
2017-12-01 12:21:59 1512148919.717633: $GPGSV,3,2,12,20,50,073,46,21,79,258,42,24,35,136,48,29,08,189,16*72
2017-12-01 12:21:59 1512148919.717699: $GPGSV,3,3,12,27,17,312,40,05,02,088,00,32,02,226,22,138,38,213,46*4C
2017-12-01 12:21:59 1512148919.831049: $GPZDA,172200.00,01,12,2017,00,00*66
2017-12-01 12:21:59 1512148919.831233: $GPGGA,172200,3946.9583,N,08404.9836,W,2,10,1.20,293.94,M,-33.324,M,,*79
2017-12-01 12:21:59 1512148919.831300: $GPRMC,172200,A,3946.9583,N,08404.9836,W,0.0000,0.000,011217,,*3E
2017-12-01 12:21:59 1512148919.831417: $GPGSA,A,3,10,13,15,18,20,21,24,27,32,138,,,2.0,1.2,1.5*00
2017-12-01 12:22:00 1512148920.381797: $GPZDA,172201.00,01,12,2017,00,00*67
2017-12-01 12:22:00 1512148920.381967: $GPGGA,172201,3946.9583,N,08404.9836,W,2,10,1.20,293.94,M,-33.324,M,,*78
2017-12-01 12:22:00 1512148920.382034: $GPRMC,172201,A,3946.9583,N,08404.9836,W,0.0000,0.000,011217,,*3F
2017-12-01 12:22:00 1512148920.382095: $GPGSA,A,3,10,13,15,18,20,21,24,27,32,138,,,2.0,1.2,1.5*00
2017-12-01 12:22:01 1512148921.385091: $GPZDA,172202.00,01,12,2017,00,00*64
2017-12-01 12:22:01 1512148921.385267: $GPGGA,172202,3946.9583,N,08404.9836,W,2,10,1.20,293.94,M,-33.324,M,,*7B
2017-12-01 12:22:01 1512148921.385333: $GPRMC,172202,A,3946.9583,N,08404.9836,W,0.0000,0.000,011217,,*3C
2017-12-01 12:22:01 1512148921.385395: $GPGSA,A,3,10,13,15,18,20,21,24,27,32,138,,,2.0,1.2,1.5*00
2017-12-01 12:22:02 1512148922.717037: $GPGSV,3,1,12,10,25,285,38,13,27,045,44,15,59,051,46,18,56,303,46*7A
2017-12-01 12:22:02 1512148922.717220: $GPGSV,3,2,12,20,50,073,46,21,79,258,42,24,35,136,48,29,08,189,14*70
2017-12-01 12:22:02 1512148922.717286: $GPGSV,3,3,12,27,17,312,40,32,02,226,00,05,02,088,00,138,38,213,46*4C
2017-12-01 12:22:02 1512148922.830389: $GPZDA,172203.00,01,12,2017,00,00*65
2017-12-01 12:22:02 1512148922.830560: $GPGGA,172203,3946.9583,N,08404.9836,W,2,09,1.20,293.94,M,-33.324,M,,*72
2017-12-01 12:22:02 1512148922.830677: $GPRMC,172203,A,3946.9583,N,08404.9836,W,0.0000,0.000,011217,,*3D
2017-12-01 12:22:02 1512148922.830739: $GPGSA,A,3,10,13,15,18,20,21,24,27,138,,,,2.0,1.2,1.5*01
2017-12-01 12:22:03 1512148923.456076: $GPZDA,172204.00,01,12,2017,00,00*62
2017-12-01 12:22:03 1512148923.456257: $GPGGA,172204,3946.9583,N,08404.9836,W,2,09,0.80,293.94,M,-33.324,M,,*7E
2017-12-01 12:22:03 1512148923.456325: $GPRMC,172204,A,3946.9583,N,08404.9836,W,0.0000,0.000,011217,,*3A
2017-12-01 12:22:03 1512148923.456387: $GPGSA,A,3,10,13,15,18,20,21,24,27,138,,,,2.0,0.8,1.5*0A
2017-12-01 12:22:04 1512148924.380484: $GPZDA,172205.00,01,12,2017,00,00*63
2017-12-01 12:22:04 1512148924.380652: $GPGGA,172205,3946.9583,N,08404.9836,W,2,09,0.80,293.94,M,-33.324,M,,*7F
2017-12-01 12:22:04 1512148924.380719: $GPRMC,172205,A,3946.9583,N,08404.9836,W,0.0000,0.000,011217,,*3B
2017-12-01 12:22:04 1512148924.380781: $GPGSA,A,3,10,13,15,18,20,21,24,27,138,,,,2.0,0.8,1.5*0A
2017-12-01 12:22:05 1512148925.714903: $GPGSV,3,1,12,10,25,285,38,13,27,045,44,15,59,051,46,18,56,303,46*7A
2017-12-01 12:22:05 1512148925.715087: $GPGSV,3,2,12,20,50,073,46,21,79,258,41,24,35,136,48,29,08,189,22*76
2017-12-01 12:22:05 1512148925.715155: $GPGSV,3,3,12,27,17,312,40,32,02,226,11,05,02,088,00,138,38,213,46*4C
2017-12-01 12:22:05 1512148925.828267: $GPZDA,172206.00,01,12,2017,00,00*60
2017-12-01 12:22:05 1512148925.828455: $GPGGA,172206,3946.9583,N,08404.9836,W,2,10,0.80,293.94,M,-33.324,M,,*74
2017-12-01 12:22:05 1512148925.828527: $GPRMC,172206,A,3946.9583,N,08404.9836,W,0.0000,0.000,011217,,*38
2017-12-01 12:22:05 1512148925.828591: $GPGSA,A,3,10,13,15,18,20,21,24,29,27,138,,,2.0,0.8,1.5*01
