2017-11-16 17:09:02 1510870142.641214: {"class":"VERSION","release":"3.17","rev":"3.17","proto_major":3,"proto_minor":12}
2017-11-16 17:09:02 1510870142.641629: {"class":"DEVICES","devices":[{"class":"DEVICE","path":"/dev/ttyUSB0","driver":"SiRF","subtype":"9\u0006GSD4e_4.1.2-P1_RPATCH.05-F-GPS-4R-1510281 11/03/2015 307","activated":"2017-11-16T22:09:02.548Z","flags":1,"native":1,"bps":4800,"parity":"N","stopbits":1,"cycle":1.00}]}
2017-11-16 17:09:02 1510870142.641740: {"class":"WATCH","enable":true,"json":false,"nmea":true,"raw":0,"scaled":false,"timing":false,"split24":false,"pps":false}
2017-11-16 17:09:03 1510870143.748905: $GPGSV,3,1,12,01,18,312,42,10,60,141,47,11,10,292,35,12,25,061,49*76
2017-11-16 17:09:03 1510870143.749054: $GPGSV,3,2,12,14,60,306,47,18,29,139,45,22,09,312,37,24,06,046,36*7C
2017-11-16 17:09:03 1510870143.749113: $GPGSV,3,3,12,25,35,105,47,31,43,217,49,32,70,354,50,138,38,213,44*40
2017-11-16 17:09:03 1510870143.862241: $GPZDA,220902.00,16,11,2017,00,00*6E
2017-11-16 17:09:03 1510870143.862400: $GPGGA,220902,3946.9568,N,08404.9826,W,2,12,0.80,312.81,M,-33.324,M,,*75
2017-11-16 17:09:03 1510870143.862460: $GPRMC,220902,A,3946.9568,N,08404.9826,W,0.0000,0.000,161117,,*32
2017-11-16 17:09:03 1510870143.862515: $GPGSA,A,3,1,10,11,12,14,18,22,24,25,31,32,138,1.6,0.8,1.3*38
2017-11-16 17:09:04 1510870144.414324: $GPZDA,220903.00,16,11,2017,00,00*6F
2017-11-16 17:09:04 1510870144.414493: $GPGGA,220903,3946.9568,N,08404.9826,W,2,12,0.80,312.81,M,-33.324,M,,*74
2017-11-16 17:09:04 1510870144.414554: $GPRMC,220903,A,3946.9568,N,08404.9826,W,0.0000,0.000,161117,,*33
2017-11-16 17:09:04 1510870144.414610: $GPGSA,A,3,1,10,11,12,14,18,22,24,25,31,32,138,1.6,0.8,1.3*38
2017-11-16 17:09:05 1510870145.397693: $GPZDA,220904.00,16,11,2017,00,00*68
2017-11-16 17:09:05 1510870145.397874: $GPGGA,220904,3946.9568,N,08404.9826,W,2,12,0.80,312.81,M,-33.324,M,,*73
2017-11-16 17:09:05 1510870145.397934: $GPRMC,220904,A,3946.9568,N,08404.9826,W,0.0000,0.000,161117,,*34
2017-11-16 17:09:05 1510870145.398009: $GPGSA,A,3,1,10,11,12,14,18,22,24,25,31,32,138,1.6,0.8,1.3*38
2017-11-16 17:09:06 1510870146.734184: $GPGSV,3,1,12,01,18,312,41,10,60,141,47,11,10,292,35,12,25,061,49*75
2017-11-16 17:09:06 1510870146.734360: $GPGSV,3,2,12,14,60,306,47,18,29,139,44,22,09,312,36,24,06,046,36*7C
2017-11-16 17:09:06 1510870146.734440: $GPGSV,3,3,12,25,35,105,47,31,43,217,49,32,70,354,50,138,38,213,44*40
2017-11-16 17:09:06 1510870146.847498: $GPZDA,220905.00,16,11,2017,00,00*69
2017-11-16 17:09:06 1510870146.847656: $GPGGA,220905,3946.9568,N,08404.9826,W,2,12,0.80,312.81,M,-33.324,M,,*72
2017-11-16 17:09:06 1510870146.847716: $GPRMC,220905,A,3946.9568,N,08404.9826,W,0.0000,0.000,161117,,*35
2017-11-16 17:09:06 1510870146.847771: $GPGSA,A,3,1,10,11,12,14,18,22,24,25,31,32,138,1.6,0.8,1.3*38
2017-11-16 17:09:07 1510870147.398427: $GPZDA,220906.00,16,11,2017,00,00*6A
2017-11-16 17:09:07 1510870147.398609: $GPGGA,220906,3946.9568,N,08404.9826,W,2,12,0.80,312.81,M,-33.324,M,,*71
2017-11-16 17:09:07 1510870147.398670: $GPRMC,220906,A,3946.9568,N,08404.9826,W,0.0000,0.000,161117,,*36
2017-11-16 17:09:07 1510870147.398726: $GPGSA,A,3,1,10,11,12,14,18,22,24,25,31,32,138,1.6,0.8,1.3*38
2017-11-16 17:09:08 1510870148.391764: $GPZDA,220907.00,16,11,2017,00,00*6B
2017-11-16 17:09:08 1510870148.391926: $GPGGA,220907,3946.9568,N,08404.9826,W,2,12,0.80,312.81,M,-33.324,M,,*70
2017-11-16 17:09:08 1510870148.392007: $GPRMC,220907,A,3946.9568,N,08404.9826,W,0.0000,0.000,161117,,*37
2017-11-16 17:09:08 1510870148.392064: $GPGSA,A,3,1,10,11,12,14,18,22,24,25,31,32,138,1.6,0.8,1.3*38
2017-11-16 17:09:09 1510870149.733828: $GPGSV,3,1,12,01,18,312,41,10,60,141,47,11,10,292,34,12,25,061,50*7C
2017-11-16 17:09:09 1510870149.734020: $GPGSV,3,2,12,14,60,306,47,18,29,139,44,22,09,312,36,24,06,046,35*7F
2017-11-16 17:09:09 1510870149.734097: $GPGSV,3,3,12,25,35,105,47,31,43,217,49,32,70,354,50,138,38,213,44*40
2017-11-16 17:09:09 1510870149.847611: $GPZDA,220908.00,16,11,2017,00,00*64
2017-11-16 17:09:09 1510870149.847770: $GPGGA,220908,3946.9568,N,08404.9826,W,2,12,0.80,312.81,M,-33.324,M,,*7F
2017-11-16 17:09:09 1510870149.847884: $GPRMC,220908,A,3946.9568,N,08404.9826,W,0.0000,0.000,161117,,*38
2017-11-16 17:09:09 1510870149.847960: $GPGSA,A,3,1,10,11,12,14,18,22,24,25,31,32,138,1.6,0.8,1.3*38
2017-11-16 17:09:10 1510870150.414670: $GPZDA,220909.00,16,11,2017,00,00*65
2017-11-16 17:09:10 1510870150.414821: $GPGGA,220909,3946.9568,N,08404.9826,W,2,12,0.80,312.81,M,-33.324,M,,*7E
2017-11-16 17:09:10 1510870150.414882: $GPRMC,220909,A,3946.9568,N,08404.9826,W,0.0000,0.000,161117,,*39
2017-11-16 17:09:10 1510870150.414937: $GPGSA,A,3,1,10,11,12,14,18,22,24,25,31,32,138,1.6,0.8,1.3*38
2017-11-16 17:09:11 1510870151.415917: $GPZDA,220910.00,16,11,2017,00,00*6D
2017-11-16 17:09:11 1510870151.416109: $GPGGA,220910,3946.9568,N,08404.9826,W,2,12,0.80,312.81,M,-33.324,M,,*76
2017-11-16 17:09:11 1510870151.416173: $GPRMC,220910,A,3946.9568,N,08404.9826,W,0.0000,0.000,161117,,*31
2017-11-16 17:09:11 1510870151.416241: $GPGSA,A,3,1,10,11,12,14,18,22,24,25,31,32,138,1.6,0.8,1.3*38
