2017-11-16 13:31:33 1510857093.238964: {"class":"VERSION","release":"3.17","rev":"3.17","proto_major":3,"proto_minor":12}
2017-11-16 13:31:33 1510857093.239449: {"class":"DEVICES","devices":[{"class":"DEVICE","path":"/dev/ttyUSB0","driver":"SiRF","subtype":"9\u0006GSD4e_4.1.2-P1_RPATCH.05-F-GPS-4R-1510281 11/03/2015 307","activated":"2017-11-16T18:31:33.149Z","flags":1,"native":1,"bps":4800,"parity":"N","stopbits":1,"cycle":1.00}]}
2017-11-16 13:31:33 1510857093.239560: {"class":"WATCH","enable":true,"json":false,"nmea":true,"raw":0,"scaled":false,"timing":false,"split24":false,"pps":false}
2017-11-16 13:31:33 1510857093.597409: $GPGSV,3,1,12,10,27,286,36,13,24,045,46,15,56,049,50,18,58,306,44*7C
2017-11-16 13:31:33 1510857093.597571: $GPGSV,3,2,12,20,47,078,48,21,78,244,46,24,38,135,45,27,18,309,42*7E
2017-11-16 13:31:33 1510857093.597630: $GPGSV,3,3,12,29,05,187,30,32,05,228,24,05,01,090,00,138,38,213,45*4E
2017-11-16 13:31:33 1510857093.711142: $GPZDA,183132.00,16,11,2017,00,00*6F
2017-11-16 13:31:33 1510857093.711338: $GPGGA,183132,3946.9612,N,08404.9840,W,2,11,0.80,306.21,M,-33.324,M,,*76
2017-11-16 13:31:33 1510857093.711402: $GPRMC,183132,A,3946.9612,N,08404.9840,W,0.0000,0.000,161117,,*3D
2017-11-16 13:31:33 1510857093.711458: $GPGSA,A,3,10,13,15,18,20,21,24,27,29,32,138,,1.6,0.8,1.3*03
2017-11-16 13:31:34 1510857094.261865: $GPZDA,183133.00,16,11,2017,00,00*6E
2017-11-16 13:31:34 1510857094.262024: $GPGGA,183133,3946.9612,N,08404.9840,W,2,11,0.80,306.21,M,-33.324,M,,*77
2017-11-16 13:31:34 1510857094.262085: $GPRMC,183133,A,3946.9612,N,08404.9840,W,0.0000,0.000,161117,,*3C
2017-11-16 13:31:34 1510857094.262141: $GPGSA,A,3,10,13,15,18,20,21,24,27,29,32,138,,1.6,0.8,1.3*03
2017-11-16 13:31:35 1510857095.260665: $GPZDA,183134.00,16,11,2017,00,00*69
2017-11-16 13:31:35 1510857095.260833: $GPGGA,183134,3946.9612,N,08404.9840,W,2,11,0.80,306.21,M,-33.324,M,,*70
2017-11-16 13:31:35 1510857095.260894: $GPRMC,183134,A,3946.9612,N,08404.9840,W,0.0000,0.000,161117,,*3B
2017-11-16 13:31:35 1510857095.260951: $GPGSA,A,3,10,13,15,18,20,21,24,27,29,32,138,,1.6,0.8,1.3*03
2017-11-16 13:31:36 1510857096.596391: $GPGSV,3,1,12,10,27,286,38,13,24,045,46,15,56,049,49,18,58,306,44*7A
2017-11-16 13:31:36 1510857096.596548: $GPGSV,3,2,12,20,47,078,48,21,78,244,46,24,38,135,45,27,18,309,42*7E
2017-11-16 13:31:36 1510857096.596609: $GPGSV,3,3,12,29,05,187,30,32,05,228,25,05,01,090,00,138,38,213,46*4C
2017-11-16 13:31:36 1510857096.709954: $GPZDA,183135.00,16,11,2017,00,00*68
2017-11-16 13:31:36 1510857096.710126: $GPGGA,183135,3946.9612,N,08404.9840,W,2,11,0.80,306.21,M,-33.324,M,,*71
2017-11-16 13:31:36 1510857096.710203: $GPRMC,183135,A,3946.9612,N,08404.9840,W,0.0000,0.000,161117,,*3A
2017-11-16 13:31:36 1510857096.710260: $GPGSA,A,3,10,13,15,18,20,21,24,27,29,32,138,,1.6,0.8,1.3*03
2017-11-16 13:31:37 1510857097.261843: $GPZDA,183136.00,16,11,2017,00,00*6B
2017-11-16 13:31:37 1510857097.262039: $GPGGA,183136,3946.9612,N,08404.9840,W,2,11,0.80,306.21,M,-33.324,M,,*72
2017-11-16 13:31:37 1510857097.262102: $GPRMC,183136,A,3946.9612,N,08404.9840,W,0.0000,0.000,161117,,*39
2017-11-16 13:31:37 1510857097.262174: $GPGSA,A,3,10,13,15,18,20,21,24,27,29,32,138,,1.6,0.8,1.3*03
2017-11-16 13:31:38 1510857098.261415: $GPZDA,183137.00,16,11,2017,00,00*6A
2017-11-16 13:31:38 1510857098.261573: $GPGGA,183137,3946.9612,N,08404.9840,W,2,11,0.80,306.21,M,-33.324,M,,*73
2017-11-16 13:31:38 1510857098.261634: $GPRMC,183137,A,3946.9612,N,08404.9840,W,0.0000,0.000,161117,,*38
2017-11-16 13:31:38 1510857098.261690: $GPGSA,A,3,10,13,15,18,20,21,24,27,29,32,138,,1.6,0.8,1.3*03
2017-11-16 13:31:39 1510857099.619640: $GPGSV,3,1,12,10,27,286,39,13,24,045,46,15,56,049,49,18,58,306,44*7B
2017-11-16 13:31:39 1510857099.619806: $GPGSV,3,2,12,20,47,078,48,21,78,244,46,24,38,135,45,27,18,309,41*7D
2017-11-16 13:31:39 1510857099.619865: $GPGSV,3,3,12,29,05,187,30,32,05,228,26,05,01,090,00,138,38,213,45*4C
2017-11-16 13:31:39 1510857099.731697: $GPZDA,183138.00,16,11,2017,00,00*65
2017-11-16 13:31:39 1510857099.731850: $GPGGA,183138,3946.9612,N,08404.9840,W,2,11,0.80,306.21,M,-33.324,M,,*7C
2017-11-16 13:31:39 1510857099.731982: $GPRMC,183138,A,3946.9612,N,08404.9840,W,0.0000,0.000,161117,,*37
2017-11-16 13:31:39 1510857099.732057: $GPGSA,A,3,10,13,15,18,20,21,24,27,29,32,138,,1.6,0.8,1.3*03
2017-11-16 13:31:40 1510857100.358300: $GPZDA,183139.00,16,11,2017,00,00*64
2017-11-16 13:31:40 1510857100.358468: $GPGGA,183139,3946.9612,N,08404.9840,W,2,11,0.80,306.21,M,-33.324,M,,*7D
2017-11-16 13:31:40 1510857100.358531: $GPRMC,183139,A,3946.9612,N,08404.9840,W,0.0000,0.000,161117,,*36
2017-11-16 13:31:40 1510857100.358588: $GPGSA,A,3,10,13,15,18,20,21,24,27,29,32,138,,1.6,0.8,1.3*03
2017-11-16 13:31:41 1510857101.261029: $GPZDA,183140.00,16,11,2017,00,00*6A
2017-11-16 13:31:41 1510857101.261197: $GPGGA,183140,3946.9612,N,08404.9840,W,2,11,0.80,306.21,M,-33.324,M,,*73
2017-11-16 13:31:41 1510857101.261263: $GPRMC,183140,A,3946.9612,N,08404.9840,W,0.0000,0.000,161117,,*38
2017-11-16 13:31:41 1510857101.261354: $GPGSA,A,3,10,13,15,18,20,21,24,27,29,32,138,,1.6,0.8,1.3*03
2017-11-16 13:31:42 1510857102.613633: $GPGSV,3,1,12,10,27,286,40,13,24,045,45,15,56,049,49,18,58,306,44*76
2017-11-16 13:31:42 1510857102.613821: $GPGSV,3,2,12,20,47,078,48,21,78,244,47,24,38,135,45,27,18,309,41*7C
2017-11-16 13:31:42 1510857102.613884: $GPGSV,3,3,12,29,05,187,30,32,05,228,26,05,01,090,00,138,38,213,44*4D
2017-11-16 13:31:42 1510857102.727272: $GPZDA,183141.00,16,11,2017,00,00*6B
2017-11-16 13:31:42 1510857102.727449: $GPGGA,183141,3946.9612,N,08404.9840,W,2,11,0.80,306.21,M,-33.324,M,,*72
2017-11-16 13:31:42 1510857102.727509: $GPRMC,183141,A,3946.9612,N,08404.9840,W,0.0000,0.000,161117,,*39
2017-11-16 13:31:42 1510857102.727564: $GPGSA,A,3,10,13,15,18,20,21,24,27,29,32,138,,1.6,0.8,1.3*03
2017-11-16 13:31:43 1510857103.261872: $GPZDA,183142.00,16,11,2017,00,00*68
2017-11-16 13:31:43 1510857103.262031: $GPGGA,183142,3946.9612,N,08404.9840,W,2,11,1.20,306.21,M,-33.324,M,,*7A
2017-11-16 13:31:43 1510857103.262091: $GPRMC,183142,A,3946.9612,N,08404.9840,W,0.0000,0.000,161117,,*3A
2017-11-16 13:31:43 1510857103.262147: $GPGSA,A,3,10,13,15,18,20,21,24,27,29,32,138,,1.6,1.2,1.3*08
2017-11-16 13:31:44 1510857104.283991: $GPZDA,183143.00,16,11,2017,00,00*69
2017-11-16 13:31:44 1510857104.284151: $GPGGA,183143,3946.9612,N,08404.9840,W,2,11,0.80,306.21,M,-33.324,M,,*70
2017-11-16 13:31:44 1510857104.284212: $GPRMC,183143,A,3946.9612,N,08404.9840,W,0.0000,0.000,161117,,*3B
2017-11-16 13:31:44 1510857104.284267: $GPGSA,A,3,10,13,15,18,20,21,24,27,29,32,138,,1.6,0.8,1.3*03
2017-11-16 13:31:45 1510857105.620091: $GPGSV,3,1,12,10,27,286,40,13,24,045,45,15,56,049,50,18,58,306,45*7F
2017-11-16 13:31:45 1510857105.620255: $GPGSV,3,2,12,20,47,078,48,21,78,244,47,24,38,135,45,27,18,309,41*7C
2017-11-16 13:31:45 1510857105.620377: $GPGSV,3,3,12,29,05,187,26,32,05,228,25,05,01,090,00,138,38,213,44*49
2017-11-16 13:31:45 1510857105.734230: $GPZDA,183144.00,16,11,2017,00,00*6E
2017-11-16 13:31:45 1510857105.734392: $GPGGA,183144,3946.9612,N,08404.9840,W,2,11,0.80,306.21,M,-33.324,M,,*77
2017-11-16 13:31:45 1510857105.734454: $GPRMC,183144,A,3946.9612,N,08404.9840,W,0.0000,0.000,161117,,*3C
2017-11-16 13:31:45 1510857105.734510: $GPGSA,A,3,10,13,15,18,20,21,24,27,29,32,138,,1.6,0.8,1.3*03
2017-11-16 13:31:46 1510857106.283052: $GPZDA,183145.00,16,11,2017,00,00*6F
2017-11-16 13:31:46 1510857106.283216: $GPGGA,183145,3946.9612,N,08404.9840,W,2,11,0.80,306.21,M,-33.324,M,,*76
2017-11-16 13:31:46 1510857106.283277: $GPRMC,183145,A,3946.9612,N,08404.9840,W,0.0000,0.000,161117,,*3D
2017-11-16 13:31:46 1510857106.283332: $GPGSA,A,3,10,13,15,18,20,21,24,27,29,32,138,,1.6,0.8,1.3*03
2017-11-16 13:31:47 1510857107.262289: $GPZDA,183146.00,16,11,2017,00,00*6C
2017-11-16 13:31:47 1510857107.262463: $GPGGA,183146,3946.9612,N,08404.9840,W,2,11,0.80,306.21,M,-33.324,M,,*75
2017-11-16 13:31:47 1510857107.262524: $GPRMC,183146,A,3946.9612,N,08404.9840,W,0.0000,0.000,161117,,*3E
2017-11-16 13:31:47 1510857107.262580: $GPGSA,A,3,10,13,15,18,20,21,24,27,29,32,138,,1.6,0.8,1.3*03
2017-11-16 13:31:48 1510857108.590860: $GPGSV,3,1,12,10,27,286,39,13,24,045,45,15,56,049,50,18,58,306,45*71
2017-11-16 13:31:48 1510857108.591018: $GPGSV,3,2,12,20,47,078,47,21,78,244,47,24,38,135,45,27,18,309,41*73
2017-11-16 13:31:48 1510857108.591079: $GPGSV,3,3,12,29,05,187,28,32,05,228,25,05,01,090,00,138,38,213,44*47
2017-11-16 13:31:48 1510857108.704242: $GPZDA,183147.00,16,11,2017,00,00*6D
2017-11-16 13:31:48 1510857108.704406: $GPGGA,183147,3946.9612,N,08404.9840,W,2,11,0.80,306.21,M,-33.324,M,,*74
2017-11-16 13:31:48 1510857108.704468: $GPRMC,183147,A,3946.9612,N,08404.9840,W,0.0000,0.000,161117,,*3F
2017-11-16 13:31:48 1510857108.704524: $GPGSA,A,3,10,13,15,18,20,21,24,27,29,32,138,,1.6,0.8,1.3*03
2017-11-16 13:31:49 1510857109.255158: $GPZDA,183148.00,16,11,2017,00,00*62
2017-11-16 13:31:49 1510857109.255320: $GPGGA,183148,3946.9612,N,08404.9840,W,2,11,0.80,306.21,M,-33.324,M,,*7B
2017-11-16 13:31:49 1510857109.255381: $GPRMC,183148,A,3946.9612,N,08404.9840,W,0.0000,0.000,161117,,*30
2017-11-16 13:31:49 1510857109.255437: $GPGSA,A,3,10,13,15,18,20,21,24,27,29,32,138,,1.6,0.8,1.3*03
2017-11-16 13:31:50 1510857110.284145: $GPZDA,183149.00,16,11,2017,00,00*63
2017-11-16 13:31:50 1510857110.284312: $GPGGA,183149,3946.9612,N,08404.9840,W,2,11,0.80,306.21,M,-33.324,M,,*7A
2017-11-16 13:31:50 1510857110.284374: $GPRMC,183149,A,3946.9612,N,08404.9840,W,0.0000,0.000,161117,,*31
2017-11-16 13:31:50 1510857110.284429: $GPGSA,A,3,10,13,15,18,20,21,24,27,29,32,138,,1.6,0.8,1.3*03
2017-11-16 13:31:51 1510857111.597292: $GPGSV,3,1,12,10,27,286,38,13,24,045,45,15,56,049,50,18,58,306,45*70
2017-11-16 13:31:51 1510857111.597448: $GPGSV,3,2,12,20,47,078,48,21,78,244,47,24,38,135,44,27,18,309,40*7C
2017-11-16 13:31:51 1510857111.597507: $GPGSV,3,3,12,29,05,187,28,32,05,228,20,05,01,090,00,138,38,213,44*42
2017-11-16 13:31:51 1510857111.709440: $GPZDA,183150.00,16,11,2017,00,00*6B
2017-11-16 13:31:51 1510857111.709598: $GPGGA,183150,3946.9612,N,08404.9840,W,2,11,0.80,306.21,M,-33.324,M,,*72
2017-11-16 13:31:51 1510857111.709658: $GPRMC,183150,A,3946.9612,N,08404.9840,W,0.0000,0.000,161117,,*39
2017-11-16 13:31:51 1510857111.709713: $GPGSA,A,3,10,13,15,18,20,21,24,27,29,32,138,,1.6,0.8,1.3*03
2017-11-16 13:31:52 1510857112.282766: $GPZDA,183151.00,16,11,2017,00,00*6A
2017-11-16 13:31:52 1510857112.282927: $GPGGA,183151,3946.9612,N,08404.9840,W,2,11,0.80,306.21,M,-33.324,M,,*73
2017-11-16 13:31:52 1510857112.282988: $GPRMC,183151,A,3946.9612,N,08404.9840,W,0.0000,0.000,161117,,*38
2017-11-16 13:31:52 1510857112.283043: $GPGSA,A,3,10,13,15,18,20,21,24,27,29,32,138,,1.6,0.8,1.3*03
2017-11-16 13:31:53 1510857113.282302: $GPZDA,183152.00,16,11,2017,00,00*69
2017-11-16 13:31:53 1510857113.282460: $GPGGA,183152,3946.9612,N,08404.9840,W,2,11,0.80,306.21,M,-33.324,M,,*70
2017-11-16 13:31:53 1510857113.282521: $GPRMC,183152,A,3946.9612,N,08404.9840,W,0.0000,0.000,161117,,*3B
2017-11-16 13:31:53 1510857113.282577: $GPGSA,A,3,10,13,15,18,20,21,24,27,29,32,138,,1.6,0.8,1.3*03
2017-11-16 13:31:54 1510857114.596763: $GPGSV,3,1,12,10,27,286,37,13,24,045,45,15,56,049,51,18,58,306,45*7E
2017-11-16 13:31:54 1510857114.596924: $GPGSV,3,2,12,20,47,078,48,21,78,244,47,24,38,135,44,27,18,309,40*7C
2017-11-16 13:31:54 1510857114.596985: $GPGSV,3,3,12,29,05,187,28,32,05,228,15,05,01,090,00,138,38,213,45*45
2017-11-16 13:31:54 1510857114.710197: $GPZDA,183153.00,16,11,2017,00,00*68
2017-11-16 13:31:54 1510857114.710401: $GPGGA,183153,3946.9612,N,08404.9840,W,2,11,0.80,306.21,M,-33.324,M,,*71
2017-11-16 13:31:54 1510857114.710465: $GPRMC,183153,A,3946.9612,N,08404.9840,W,0.0000,0.000,161117,,*3A
2017-11-16 13:31:54 1510857114.710521: $GPGSA,A,3,10,13,15,18,20,21,24,27,29,32,138,,1.6,0.8,1.3*03
2017-11-16 13:31:55 1510857115.335550: $GPZDA,183154.00,16,11,2017,00,00*6F
2017-11-16 13:31:55 1510857115.335715: $GPGGA,183154,3946.9612,N,08404.9840,W,2,11,0.80,306.21,M,-33.324,M,,*76
2017-11-16 13:31:55 1510857115.335775: $GPRMC,183154,A,3946.9612,N,08404.9840,W,0.0000,0.000,161117,,*3D
2017-11-16 13:31:55 1510857115.335831: $GPGSA,A,3,10,13,15,18,20,21,24,27,29,32,138,,1.6,0.8,1.3*03
2017-11-16 13:31:56 1510857116.277715: $GPZDA,183155.00,16,11,2017,00,00*6E
2017-11-16 13:31:56 1510857116.277872: $GPGGA,183155,3946.9612,N,08404.9840,W,2,11,0.80,306.21,M,-33.324,M,,*77
2017-11-16 13:31:56 1510857116.277932: $GPRMC,183155,A,3946.9612,N,08404.9840,W,0.0000,0.000,161117,,*3C
2017-11-16 13:31:56 1510857116.277988: $GPGSA,A,3,10,13,15,18,20,21,24,27,29,32,138,,1.6,0.8,1.3*03
2017-11-16 13:31:57 1510857117.595884: $GPGSV,3,1,12,10,27,286,37,13,24,045,45,15,56,049,51,18,58,306,46*7D
2017-11-16 13:31:57 1510857117.596040: $GPGSV,3,2,12,20,47,078,48,21,78,244,47,24,38,135,45,27,18,309,39*73
2017-11-16 13:31:57 1510857117.596099: $GPGSV,3,3,12,29,05,187,28,32,05,228,14,05,01,090,00,138,38,213,46*47
2017-11-16 13:31:57 1510857117.709202: $GPZDA,183156.00,16,11,2017,00,00*6D
2017-11-16 13:31:57 1510857117.709366: $GPGGA,183156,3946.9612,N,08404.9840,W,2,11,0.80,306.21,M,-33.324,M,,*74
2017-11-16 13:31:57 1510857117.709426: $GPRMC,183156,A,3946.9612,N,08404.9840,W,0.0000,0.000,161117,,*3F
2017-11-16 13:31:57 1510857117.709482: $GPGSA,A,3,10,13,15,18,20,21,24,27,29,32,138,,1.6,0.8,1.3*03
2017-11-16 13:31:58 1510857118.282907: $GPZDA,183157.00,16,11,2017,00,00*6C
2017-11-16 13:31:58 1510857118.283068: $GPGGA,183157,3946.9612,N,08404.9840,W,2,11,0.80,306.21,M,-33.324,M,,*75
2017-11-16 13:31:58 1510857118.283129: $GPRMC,183157,A,3946.9612,N,08404.9840,W,0.0000,0.000,161117,,*3E
2017-11-16 13:31:58 1510857118.283185: $GPGSA,A,3,10,13,15,18,20,21,24,27,29,32,138,,1.6,0.8,1.3*03
2017-11-16 13:31:59 1510857119.261203: $GPZDA,183158.00,16,11,2017,00,00*63
2017-11-16 13:31:59 1510857119.261367: $GPGGA,183158,3946.9612,N,08404.9840,W,2,11,0.80,306.21,M,-33.324,M,,*7A
2017-11-16 13:31:59 1510857119.261428: $GPRMC,183158,A,3946.9612,N,08404.9840,W,0.0000,0.000,161117,,*31
2017-11-16 13:31:59 1510857119.261484: $GPGSA,A,3,10,13,15,18,20,21,24,27,29,32,138,,1.6,0.8,1.3*03
2017-11-16 13:32:00 1510857120.596303: $GPGSV,3,1,12,10,27,286,38,13,24,045,45,15,56,049,51,18,58,306,46*72
2017-11-16 13:32:00 1510857120.596478: $GPGSV,3,2,12,20,47,078,48,21,78,244,47,24,38,135,45,27,18,309,38*72
2017-11-16 13:32:00 1510857120.596538: $GPGSV,3,3,12,29,05,187,28,32,05,228,20,05,01,090,00,138,38,213,45*43
2017-11-16 13:32:00 1510857120.709485: $GPZDA,183159.00,16,11,2017,00,00*62
2017-11-16 13:32:00 1510857120.709633: $GPGGA,183159,3946.9612,N,08404.9840,W,2,11,0.80,306.21,M,-33.324,M,,*7B
2017-11-16 13:32:00 1510857120.709691: $GPRMC,183159,A,3946.9612,N,08404.9840,W,0.0000,0.000,161117,,*30
2017-11-16 13:32:00 1510857120.709746: $GPGSA,A,3,10,13,15,18,20,21,24,27,29,32,138,,1.6,0.8,1.3*03
2017-11-16 13:32:01 1510857121.256649: $GPZDA,183200.00,16,11,2017,00,00*6D
2017-11-16 13:32:01 1510857121.256806: $GPGGA,183200,3946.9612,N,08404.9840,W,2,11,0.80,306.21,M,-33.324,M,,*74
2017-11-16 13:32:01 1510857121.256866: $GPRMC,183200,A,3946.9612,N,08404.9840,W,0.0000,0.000,161117,,*3F
2017-11-16 13:32:01 1510857121.256922: $GPGSA,A,3,10,13,15,18,20,21,24,27,29,32,138,,1.6,0.8,1.3*03
2017-11-16 13:32:02 1510857122.261224: $GPZDA,183201.00,16,11,2017,00,00*6C
2017-11-16 13:32:02 1510857122.261387: $GPGGA,183201,3946.9612,N,08404.9840,W,2,11,0.80,306.21,M,-33.324,M,,*75
2017-11-16 13:32:02 1510857122.261448: $GPRMC,183201,A,3946.9612,N,08404.9840,W,0.0000,0.000,161117,,*3E
2017-11-16 13:32:02 1510857122.261504: $GPGSA,A,3,10,13,15,18,20,21,24,27,29,32,138,,1.6,0.8,1.3*03
