2017-11-16 14:52:55 1510861975.287242: {"class":"VERSION","release":"3.17","rev":"3.17","proto_major":3,"proto_minor":12}
2017-11-16 14:52:55 1510861975.287760: {"class":"DEVICES","devices":[{"class":"DEVICE","path":"/dev/ttyUSB0","driver":"SiRF","subtype":"9\u0006GSD4e_4.1.2-P1_RPATCH.05-F-GPS-4R-1510281 11/03/2015 307","activated":"2017-11-16T19:52:55.083Z","flags":1,"native":1,"bps":4800,"parity":"N","stopbits":1,"cycle":1.00}]}
2017-11-16 14:52:55 1510861975.287882: {"class":"WATCH","enable":true,"json":false,"nmea":true,"raw":0,"scaled":false,"timing":false,"split24":false,"pps":false}
2017-11-16 14:52:55 1510861975.485095: $GPZDA,195254.00,16,11,2017,00,00*6B
2017-11-16 14:52:55 1510861975.485280: $GPGGA,195254,3946.9572,N,08404.9848,W,2,11,0.80,302.54,M,-33.324,M,,*79
2017-11-16 14:52:55 1510861975.485363: $GPRMC,195254,A,3946.9572,N,08404.9848,W,0.0000,0.000,161117,,*34
2017-11-16 14:52:55 1510861975.485421: $GPGSA,A,3,8,10,15,18,21,20,24,27,32,14,138,,1.6,0.8,1.3*37
2017-11-16 14:52:56 1510861976.489691: $GPZDA,195255.00,16,11,2017,00,00*6A
2017-11-16 14:52:56 1510861976.489857: $GPGGA,195255,3946.9572,N,08404.9848,W,2,11,0.80,302.54,M,-33.324,M,,*78
2017-11-16 14:52:56 1510861976.489917: $GPRMC,195255,A,3946.9572,N,08404.9848,W,0.0000,0.000,161117,,*35
2017-11-16 14:52:56 1510861976.489973: $GPGSA,A,3,8,10,15,18,21,20,24,27,32,14,138,,1.6,0.8,1.3*37
2017-11-16 14:52:57 1510861977.826818: $GPGSV,3,1,11,08,08,306,32,10,56,315,50,15,22,058,50,18,77,040,44*7E
2017-11-16 14:52:57 1510861977.826988: $GPGSV,3,2,11,21,45,183,46,20,19,109,43,24,52,079,48,27,14,271,42*76
2017-11-16 14:52:57 1510861977.827067: $GPGSV,3,3,11,32,35,252,47,14,18,243,41,138,38,213,44*75
2017-11-16 14:52:57 1510861977.940154: $GPZDA,195256.00,16,11,2017,00,00*69
2017-11-16 14:52:57 1510861977.940365: $GPGGA,195256,3946.9572,N,08404.9848,W,2,11,0.80,302.54,M,-33.324,M,,*7B
2017-11-16 14:52:57 1510861977.940437: $GPRMC,195256,A,3946.9572,N,08404.9848,W,0.0000,0.000,161117,,*36
2017-11-16 14:52:57 1510861977.940494: $GPGSA,A,3,8,10,15,18,21,20,24,27,32,14,138,,1.6,0.8,1.3*37
2017-11-16 14:52:58 1510861978.491087: $GPZDA,195257.00,16,11,2017,00,00*68
2017-11-16 14:52:58 1510861978.491271: $GPGGA,195257,3946.9572,N,08404.9848,W,2,11,0.80,302.54,M,-33.324,M,,*7A
2017-11-16 14:52:58 1510861978.491337: $GPRMC,195257,A,3946.9572,N,08404.9848,W,0.0000,0.000,161117,,*37
2017-11-16 14:52:58 1510861978.491396: $GPGSA,A,3,8,10,15,18,21,20,24,27,32,14,138,,1.6,0.8,1.3*37
2017-11-16 14:52:59 1510861979.490097: $GPZDA,195258.00,16,11,2017,00,00*67
2017-11-16 14:52:59 1510861979.490264: $GPGGA,195258,3946.9572,N,08404.9848,W,2,11,0.80,302.54,M,-33.324,M,,*75
2017-11-16 14:52:59 1510861979.490377: $GPRMC,195258,A,3946.9572,N,08404.9848,W,0.0000,0.000,161117,,*38
2017-11-16 14:52:59 1510861979.490437: $GPGSA,A,3,8,10,15,18,21,20,24,27,32,14,138,,1.6,0.8,1.3*37
2017-11-16 14:53:00 1510861980.822173: $GPGSV,3,1,11,08,08,306,32,10,56,315,50,15,22,058,50,18,77,040,44*7E
2017-11-16 14:53:00 1510861980.822366: $GPGSV,3,2,11,21,45,183,46,20,19,109,43,24,52,079,48,27,14,271,42*76
2017-11-16 14:53:00 1510861980.822432: $GPGSV,3,3,11,32,35,252,47,14,18,243,41,138,38,213,43*72
2017-11-16 14:53:00 1510861980.935647: $GPZDA,195259.00,16,11,2017,00,00*66
2017-11-16 14:53:00 1510861980.935821: $GPGGA,195259,3946.9572,N,08404.9848,W,2,11,0.80,302.54,M,-33.324,M,,*74
2017-11-16 14:53:00 1510861980.935885: $GPRMC,195259,A,3946.9572,N,08404.9848,W,0.0000,0.000,161117,,*39
2017-11-16 14:53:00 1510861980.935943: $GPGSA,A,3,8,10,15,18,21,20,24,27,32,14,138,,1.6,0.8,1.3*37
2017-11-16 14:53:01 1510861981.485096: $GPZDA,195300.00,16,11,2017,00,00*6B
2017-11-16 14:53:01 1510861981.485262: $GPGGA,195300,3946.9572,N,08404.9848,W,2,11,0.80,302.54,M,-33.324,M,,*79
2017-11-16 14:53:01 1510861981.485325: $GPRMC,195300,A,3946.9572,N,08404.9848,W,0.0000,0.000,161117,,*34
2017-11-16 14:53:01 1510861981.485381: $GPGSA,A,3,8,10,15,18,21,20,24,27,32,14,138,,1.6,0.8,1.3*37
2017-11-16 14:53:02 1510861982.491020: $GPZDA,195301.00,16,11,2017,00,00*6A
2017-11-16 14:53:02 1510861982.491184: $GPGGA,195301,3946.9572,N,08404.9848,W,2,11,0.80,302.54,M,-33.324,M,,*78
2017-11-16 14:53:02 1510861982.491296: $GPRMC,195301,A,3946.9572,N,08404.9848,W,0.0000,0.000,161117,,*35
2017-11-16 14:53:02 1510861982.491355: $GPGSA,A,3,8,10,15,18,21,20,24,27,32,14,138,,1.6,0.8,1.3*37
2017-11-16 14:53:03 1510861983.827988: $GPGSV,3,1,11,08,08,306,28,10,56,315,50,15,22,058,50,18,77,040,44*75
2017-11-16 14:53:03 1510861983.828159: $GPGSV,3,2,11,21,45,183,46,20,19,109,43,24,52,079,47,27,14,271,42*79
2017-11-16 14:53:03 1510861983.828220: $GPGSV,3,3,11,32,35,252,47,14,18,243,41,138,38,213,43*72
2017-11-16 14:53:03 1510861983.941361: $GPZDA,195302.00,16,11,2017,00,00*69
2017-11-16 14:53:03 1510861983.941537: $GPGGA,195302,3946.9572,N,08404.9848,W,2,11,0.80,302.54,M,-33.324,M,,*7B
2017-11-16 14:53:03 1510861983.941599: $GPRMC,195302,A,3946.9572,N,08404.9848,W,0.0000,0.000,161117,,*36
2017-11-16 14:53:03 1510861983.941657: $GPGSA,A,3,8,10,15,18,21,20,24,27,32,14,138,,1.6,0.8,1.3*37
2017-11-16 14:53:04 1510861984.566681: $GPZDA,195303.00,16,11,2017,00,00*68
2017-11-16 14:53:04 1510861984.566845: $GPGGA,195303,3946.9572,N,08404.9848,W,2,11,0.80,302.54,M,-33.324,M,,*7A
2017-11-16 14:53:04 1510861984.566909: $GPRMC,195303,A,3946.9572,N,08404.9848,W,0.0000,0.000,161117,,*37
2017-11-16 14:53:04 1510861984.566965: $GPGSA,A,3,8,10,15,18,21,20,24,27,32,14,138,,1.6,0.8,1.3*37
