2017-12-01 18:03:00 1512169380.553719: {"class":"VERSION","release":"3.16","rev":"3.16-4","proto_major":3,"proto_minor":11}
2017-12-01 18:03:00 1512169380.554262: {"class":"DEVICES","devices":[{"class":"DEVICE","path":"/dev/ttyUSB0","driver":"SiRF","subtype":"9\u0006GSD4e_4.1.2-P1_RPATCH.05-F-GPS-4R-1510281 11/03/2015 307","activated":"2017-12-01T23:03:00.443Z","flags":1,"native":1,"bps":4800,"parity":"N","stopbits":1,"cycle":1.00}]}
2017-12-01 18:03:00 1512169380.554406: {"class":"WATCH","enable":true,"json":false,"nmea":true,"raw":0,"scaled":false,"timing":false,"split24":false,"pps":false}
2017-12-01 18:03:01 1512169381.050461: $GPZDA,230301.71,01,12,2017,00,00*65
2017-12-01 18:03:01 1512169381.050635: $GPGGA,230301,3946.9738,N,08404.9849,W,1,12,0.80,303.21,M,-33.325,M,,*7B
2017-12-01 18:03:01 1512169381.050704: $GPRMC,230301,A,3946.9738,N,08404.9849,W,0.7832,98.238,011217,,*07
2017-12-01 18:03:01 1512169381.050767: $GPGSA,A,3,1,3,10,14,16,22,29,25,26,31,32,138,2.0,0.8,1.5*0C
2017-12-01 18:03:02 1512169382.156072: $GPZDA,230302.39,01,12,2017,00,00*6A
2017-12-01 18:03:02 1512169382.156271: $GPGGA,230302,3946.9741,N,08404.9848,W,1,12,0.80,302.45,M,-33.325,M,,*74
2017-12-01 18:03:02 1512169382.156342: $GPRMC,230302,A,3946.9741,N,08404.9848,W,0.1324,22.229,011217,,*00
2017-12-01 18:03:02 1512169382.156410: $GPGSA,A,3,1,3,10,14,16,22,29,25,26,31,32,138,2.0,0.8,1.5*0C
2017-12-01 18:03:02 1512169382.156472: $GPGBS,230302,10.70,M,15.43,M,35.28,M*07
2017-12-01 18:03:03 1512169383.320297: $GPGSV,3,1,12,01,11,259,36,03,34,307,47,10,06,159,32,14,61,078,44*77
2017-12-01 18:03:03 1512169383.320481: $GPGSV,3,2,12,16,14,189,41,22,48,285,46,29,07,081,07,25,25,043,42*7E
2017-12-01 18:03:03 1512169383.320554: $GPGSV,3,3,12,26,43,175,44,31,74,007,46,32,43,099,44,138,38,213,00*49
2017-12-01 18:03:03 1512169383.433884: $GPZDA,230303.00,01,12,2017,00,00*61
2017-12-01 18:03:03 1512169383.434022: $GPGGA,230303,3946.9737,N,08404.9848,W,1,10,0.80,301.81,M,-33.325,M,,*7D
2017-12-01 18:03:03 1512169383.434098: $GPRMC,230303,A,3946.9737,N,08404.9848,W,0.1567,9.200,011217,,*33
2017-12-01 18:03:03 1512169383.434162: $GPGSA,A,3,1,3,10,14,16,22,25,26,31,32,,,2.0,0.8,1.5*3D
2017-12-01 18:03:03 1512169383.884565: $GPZDA,230304.00,01,12,2017,00,00*66
2017-12-01 18:03:03 1512169383.884745: $GPGGA,230304,3946.9737,N,08404.9848,W,1,10,0.80,301.81,M,-33.325,M,,*7A
2017-12-01 18:03:03 1512169383.884818: $GPRMC,230304,A,3946.9737,N,08404.9848,W,0.5306,114.352,011217,,*3A
2017-12-01 18:03:03 1512169383.884884: $GPGSA,A,3,1,3,10,14,16,22,25,26,31,32,,,2.0,0.8,1.5*3D
2017-12-01 18:03:04 1512169384.437925: $GPZDA,230305.00,01,12,2017,00,00*67
2017-12-01 18:03:04 1512169384.438118: $GPGGA,230305,3946.9736,N,08404.9840,W,1,10,0.80,300.49,M,-33.325,M,,*77
2017-12-01 18:03:04 1512169384.438191: $GPRMC,230305,A,3946.9736,N,08404.9840,W,0.3006,62.539,011217,,*0C
2017-12-01 18:03:04 1512169384.438258: $GPGSA,A,3,1,3,10,14,16,22,25,26,31,32,,,2.0,0.8,1.5*3D
2017-12-01 18:03:05 1512169385.773184: $GPGSV,3,1,12,01,11,259,35,03,34,307,47,10,06,159,33,14,61,078,42*73
2017-12-01 18:03:05 1512169385.779062: $GPGSV,3,2,12,16,14,189,41,22,48,285,46,29,07,081,24,25,25,043,42*7F
2017-12-01 18:03:05 1512169385.779179: $GPGSV,3,3,12,26,43,175,44,31,74,007,46,32,43,099,44,138,38,213,46*4B
2017-12-01 18:03:05 1512169385.886620: $GPZDA,230306.00,01,12,2017,00,00*64
2017-12-01 18:03:05 1512169385.886863: $GPGGA,230306,3946.9736,N,08404.9840,W,1,12,0.80,300.49,M,-33.325,M,,*76
2017-12-01 18:03:05 1512169385.886941: $GPRMC,230306,A,3946.9736,N,08404.9840,W,0.1567,9.200,011217,,*3F
2017-12-01 18:03:05 1512169385.887009: $GPGSA,A,3,1,3,10,14,16,22,29,25,26,31,32,138,2.0,0.8,1.5*0C
2017-12-01 18:03:06 1512169386.440059: $GPZDA,230307.00,01,12,2017,00,00*65
2017-12-01 18:03:06 1512169386.440236: $GPGGA,230307,3946.9735,N,08404.9839,W,1,12,0.80,299.08,M,-33.325,M,,*7E
2017-12-01 18:03:06 1512169386.440310: $GPRMC,230307,A,3946.9735,N,08404.9839,W,0.0000,0.000,011217,,*3D
2017-12-01 18:03:06 1512169386.440375: $GPGSA,A,3,1,3,10,14,16,22,29,25,26,31,32,138,2.0,0.8,1.5*0C
2017-12-01 18:03:07 1512169387.439492: $GPZDA,230308.00,01,12,2017,00,00*6A
2017-12-01 18:03:07 1512169387.439681: $GPGGA,230308,3946.9735,N,08404.9839,W,1,12,0.80,299.08,M,-33.325,M,,*71
2017-12-01 18:03:07 1512169387.439753: $GPRMC,230308,A,3946.9735,N,08404.9839,W,0.0000,0.000,011217,,*32
2017-12-01 18:03:07 1512169387.439820: $GPGSA,A,3,1,3,10,14,16,22,29,25,26,31,32,138,2.0,0.8,1.5*0C
2017-12-01 18:03:07 1512169387.439883: $GPGBS,230308,10.70,M,15.43,M,35.28,M*0D
2017-12-01 18:03:08 1512169388.775106: $GPGSV,3,1,12,01,11,259,36,03,34,307,47,10,06,159,32,14,61,078,43*70
2017-12-01 18:03:08 1512169388.775294: $GPGSV,3,2,12,16,14,189,42,22,48,285,46,29,07,081,23,25,25,043,43*7A
2017-12-01 18:03:08 1512169388.775363: $GPGSV,3,3,12,26,43,175,45,31,74,007,46,32,43,099,42,138,38,213,46*4C
2017-12-01 18:03:08 1512169388.888452: $GPZDA,230309.00,01,12,2017,00,00*6B
2017-12-01 18:03:08 1512169388.888603: $GPGGA,230309,3946.9734,N,08404.9832,W,1,12,0.80,297.76,M,-33.325,M,,*7D
2017-12-01 18:03:08 1512169388.888674: $GPRMC,230309,A,3946.9734,N,08404.9832,W,0.0000,0.000,011217,,*39
2017-12-01 18:03:08 1512169388.888738: $GPGSA,A,3,1,3,10,14,16,22,29,25,26,31,32,138,2.0,0.8,1.5*0C
2017-12-01 18:03:09 1512169389.439361: $GPZDA,230310.00,01,12,2017,00,00*63
2017-12-01 18:03:09 1512169389.439551: $GPGGA,230310,3946.9734,N,08404.9832,W,1,12,0.80,297.76,M,-33.325,M,,*75
2017-12-01 18:03:09 1512169389.439625: $GPRMC,230310,A,3946.9734,N,08404.9832,W,0.0000,0.000,011217,,*31
2017-12-01 18:03:09 1512169389.439691: $GPGSA,A,3,1,3,10,14,16,22,29,25,26,31,32,138,2.0,0.8,1.5*0C
2017-12-01 18:03:10 1512169390.441233: $GPZDA,230311.00,01,12,2017,00,00*62
2017-12-01 18:03:10 1512169390.441449: $GPGGA,230311,3946.9726,N,08404.9815,W,2,12,3.00,291.66,M,-33.325,M,,*7D
2017-12-01 18:03:10 1512169390.441523: $GPRMC,230311,A,3946.9726,N,08404.9815,W,0.0000,0.000,011217,,*36
2017-12-01 18:03:10 1512169390.441587: $GPGSA,A,3,1,3,10,14,16,22,29,25,26,31,32,138,2.0,3.0,1.5*07
2017-12-01 18:03:11 1512169391.777925: $GPGSV,3,1,12,01,11,259,36,03,34,307,48,10,06,159,32,14,61,078,43*7F
2017-12-01 18:03:11 1512169391.778115: $GPGSV,3,2,12,16,14,189,42,22,48,285,47,29,07,081,23,25,25,043,43*7B
2017-12-01 18:03:11 1512169391.778187: $GPGSV,3,3,12,26,43,175,46,31,74,007,47,32,43,099,43,138,38,213,46*4F
2017-12-01 18:03:11 1512169391.891644: $GPZDA,230312.00,01,12,2017,00,00*61
2017-12-01 18:03:11 1512169391.891836: $GPGGA,230312,3946.9726,N,08404.9815,W,2,12,0.80,291.66,M,-33.325,M,,*75
2017-12-01 18:03:11 1512169391.891912: $GPRMC,230312,A,3946.9726,N,08404.9815,W,0.0000,0.000,011217,,*35
2017-12-01 18:03:11 1512169391.891979: $GPGSA,A,3,1,3,10,14,16,22,29,25,26,31,32,138,2.0,0.8,1.5*0C
2017-12-01 18:03:12 1512169392.442626: $GPZDA,230313.00,01,12,2017,00,00*60
2017-12-01 18:03:12 1512169392.442799: $GPGGA,230313,3946.9726,N,08404.9815,W,2,12,0.80,291.66,M,-33.325,M,,*74
2017-12-01 18:03:12 1512169392.442870: $GPRMC,230313,A,3946.9726,N,08404.9815,W,0.0000,0.000,011217,,*34
2017-12-01 18:03:12 1512169392.442937: $GPGSA,A,3,1,3,10,14,16,22,29,25,26,31,32,138,2.0,0.8,1.5*0C
2017-12-01 18:03:13 1512169393.443444: $GPZDA,230314.00,01,12,2017,00,00*67
2017-12-01 18:03:13 1512169393.443629: $GPGGA,230314,3946.9726,N,08404.9815,W,2,12,0.80,291.66,M,-33.325,M,,*73
2017-12-01 18:03:13 1512169393.443701: $GPRMC,230314,A,3946.9726,N,08404.9815,W,0.0000,0.000,011217,,*33
2017-12-01 18:03:13 1512169393.443766: $GPGSA,A,3,1,3,10,14,16,22,29,25,26,31,32,138,2.0,0.8,1.5*0C
2017-12-01 18:03:14 1512169394.776307: $GPGSV,3,1,12,01,11,259,36,03,34,307,47,10,06,159,32,14,61,078,43*70
2017-12-01 18:03:14 1512169394.776490: $GPGSV,3,2,12,16,14,189,42,22,48,285,47,29,07,081,22,25,25,043,43*7A
2017-12-01 18:03:14 1512169394.776562: $GPGSV,3,3,12,26,43,175,46,31,74,007,47,32,43,099,43,138,38,213,46*4F
2017-12-01 18:03:14 1512169394.889817: $GPZDA,230315.00,01,12,2017,00,00*66
2017-12-01 18:03:14 1512169394.889999: $GPGGA,230315,3946.9726,N,08404.9815,W,2,12,0.80,291.66,M,-33.325,M,,*72
2017-12-01 18:03:14 1512169394.890070: $GPRMC,230315,A,3946.9726,N,08404.9815,W,0.0000,0.000,011217,,*32
2017-12-01 18:03:14 1512169394.890185: $GPGSA,A,3,1,3,10,14,16,22,29,25,26,31,32,138,2.0,0.8,1.5*0C
2017-12-01 18:03:15 1512169395.515041: $GPZDA,230316.00,01,12,2017,00,00*65
2017-12-01 18:03:15 1512169395.515219: $GPGGA,230316,3946.9726,N,08404.9815,W,2,12,0.80,291.66,M,-33.325,M,,*71
2017-12-01 18:03:15 1512169395.515308: $GPRMC,230316,A,3946.9726,N,08404.9815,W,0.0000,0.000,011217,,*31
2017-12-01 18:03:15 1512169395.515371: $GPGSA,A,3,1,3,10,14,16,22,29,25,26,31,32,138,2.0,0.8,1.5*0C
2017-12-01 18:03:16 1512169396.442178: $GPZDA,230317.00,01,12,2017,00,00*64
2017-12-01 18:03:16 1512169396.442348: $GPGGA,230317,3946.9726,N,08404.9815,W,2,12,0.80,291.66,M,-33.325,M,,*70
2017-12-01 18:03:16 1512169396.442417: $GPRMC,230317,A,3946.9726,N,08404.9815,W,0.0000,0.000,011217,,*30
2017-12-01 18:03:16 1512169396.442479: $GPGSA,A,3,1,3,10,14,16,22,29,25,26,31,32,138,2.0,0.8,1.5*0C
2017-12-01 18:03:17 1512169397.776647: $GPGSV,3,1,12,01,11,259,35,03,34,307,47,10,06,159,32,14,61,078,43*73
2017-12-01 18:03:17 1512169397.776831: $GPGSV,3,2,12,16,14,189,42,22,48,285,47,29,07,081,23,25,25,043,42*7A
2017-12-01 18:03:17 1512169397.776904: $GPGSV,3,3,12,26,43,175,46,31,74,007,47,32,43,099,43,138,38,213,47*4E
2017-12-01 18:03:17 1512169397.890382: $GPZDA,230318.00,01,12,2017,00,00*6B
2017-12-01 18:03:17 1512169397.890550: $GPGGA,230318,3946.9726,N,08404.9815,W,2,12,0.80,291.66,M,-33.325,M,,*7F
2017-12-01 18:03:17 1512169397.890616: $GPRMC,230318,A,3946.9726,N,08404.9815,W,0.0000,0.000,011217,,*3F
2017-12-01 18:03:17 1512169397.890679: $GPGSA,A,3,1,3,10,14,16,22,29,25,26,31,32,138,2.0,0.8,1.5*0C
2017-12-01 18:03:18 1512169398.443760: $GPZDA,230319.00,01,12,2017,00,00*6A
2017-12-01 18:03:18 1512169398.443937: $GPGGA,230319,3946.9726,N,08404.9828,W,2,12,0.80,290.09,M,-33.325,M,,*78
2017-12-01 18:03:18 1512169398.444004: $GPRMC,230319,A,3946.9726,N,08404.9828,W,0.0000,0.000,011217,,*30
2017-12-01 18:03:18 1512169398.444067: $GPGSA,A,3,1,3,10,14,16,22,29,25,26,31,32,138,2.0,0.8,1.5*0C
2017-12-01 18:03:19 1512169399.442140: $GPZDA,230320.00,01,12,2017,00,00*60
2017-12-01 18:03:19 1512169399.442324: $GPGGA,230320,3946.9726,N,08404.9828,W,2,12,0.80,290.09,M,-33.325,M,,*72
2017-12-01 18:03:19 1512169399.442392: $GPRMC,230320,A,3946.9726,N,08404.9828,W,0.0000,0.000,011217,,*3A
2017-12-01 18:03:19 1512169399.442453: $GPGSA,A,3,1,3,10,14,16,22,29,25,26,31,32,138,2.0,0.8,1.5*0C
2017-12-01 18:03:19 1512169399.442514: $GPGBS,230320,2.67,M,3.86,M,8.82,M*32
