2017-11-16 15:21:59 1510863719.531167: {"class":"VERSION","release":"3.17","rev":"3.17","proto_major":3,"proto_minor":12}
2017-11-16 15:21:59 1510863719.531571: {"class":"DEVICES","devices":[{"class":"DEVICE","path":"/dev/ttyUSB0","driver":"SiRF","subtype":"9\u0006GSD4e_4.1.2-P1_RPATCH.05-F-GPS-4R-1510281 11/03/2015 307","activated":"2017-11-16T20:21:59.512Z","flags":1,"native":1,"bps":4800,"parity":"N","stopbits":1,"cycle":1.00}]}
2017-11-16 15:21:59 1510863719.531639: {"class":"WATCH","enable":true,"json":false,"nmea":true,"raw":0,"scaled":false,"timing":false,"split24":false,"pps":false}
2017-11-16 15:22:00 1510863720.388483: $GPZDA,202159.00,16,11,2017,00,00*68
2017-11-16 15:22:00 1510863720.388664: $GPGGA,202159,3946.9579,N,08404.9864,W,2,12,0.80,307.23,M,-33.324,M,,*79
2017-11-16 15:22:00 1510863720.388726: $GPRMC,202159,A,3946.9579,N,08404.9864,W,0.0000,0.000,161117,,*32
2017-11-16 15:22:00 1510863720.388802: $GPGSA,A,3,8,10,14,15,18,20,21,24,27,32,12,138,1.6,0.8,1.3*34
2017-11-16 15:22:01 1510863721.708911: $GPGSV,3,1,12,08,06,294,37,10,68,330,50,14,28,252,47,15,12,066,32*78
2017-11-16 15:22:01 1510863721.709099: $GPGSV,3,2,12,18,71,090,47,20,09,117,21,21,30,180,44,24,46,060,51*7E
2017-11-16 15:22:01 1510863721.709159: $GPGSV,3,3,12,27,07,261,39,32,45,264,48,12,08,108,32,138,38,213,44*49
2017-11-16 15:22:01 1510863721.822186: $GPZDA,202200.00,16,11,2017,00,00*67
2017-11-16 15:22:01 1510863721.822345: $GPGGA,202200,3946.9579,N,08404.9864,W,2,12,0.80,307.23,M,-33.324,M,,*76
2017-11-16 15:22:01 1510863721.822406: $GPRMC,202200,A,3946.9579,N,08404.9864,W,0.0000,0.000,161117,,*3D
2017-11-16 15:22:01 1510863721.822462: $GPGSA,A,3,8,10,14,15,18,20,21,24,27,32,12,138,1.6,0.8,1.3*34
2017-11-16 15:22:02 1510863722.386802: $GPZDA,202201.00,16,11,2017,00,00*66
2017-11-16 15:22:02 1510863722.386982: $GPGGA,202201,3946.9579,N,08404.9864,W,2,12,0.80,307.23,M,-33.324,M,,*77
2017-11-16 15:22:02 1510863722.387043: $GPRMC,202201,A,3946.9579,N,08404.9864,W,0.0000,0.000,161117,,*3C
2017-11-16 15:22:02 1510863722.387100: $GPGSA,A,3,8,10,14,15,18,20,21,24,27,32,12,138,1.6,0.8,1.3*34
2017-11-16 15:22:03 1510863723.370694: $GPZDA,202202.00,16,11,2017,00,00*65
2017-11-16 15:22:03 1510863723.370803: $GPGGA,202202,3946.9579,N,08404.9864,W,2,12,0.80,307.23,M,-33.324,M,,*74
2017-11-16 15:22:03 1510863723.370848: $GPRMC,202202,A,3946.9579,N,08404.9864,W,0.0000,0.000,161117,,*3F
2017-11-16 15:22:03 1510863723.370878: $GPGSA,A,3,8,10,14,15,18,20,21,24,27,32,12,138,1.6,0.8,1.3*34
2017-11-16 15:22:04 1510863724.717353: $GPGSV,3,1,12,08,06,294,38,10,68,330,50,14,28,252,47,15,12,066,33*76
2017-11-16 15:22:04 1510863724.717532: $GPGSV,3,2,12,18,71,090,47,20,09,117,18,21,30,180,44,24,46,060,51*74
2017-11-16 15:22:04 1510863724.717594: $GPGSV,3,3,12,27,07,261,39,32,45,264,48,12,08,108,32,138,38,213,44*49
2017-11-16 15:22:04 1510863724.830765: $GPZDA,202203.00,16,11,2017,00,00*64
2017-11-16 15:22:04 1510863724.830941: $GPGGA,202203,3946.9579,N,08404.9864,W,2,12,0.80,307.23,M,-33.324,M,,*75
2017-11-16 15:22:04 1510863724.831003: $GPRMC,202203,A,3946.9579,N,08404.9864,W,0.0000,0.000,161117,,*3E
2017-11-16 15:22:04 1510863724.831059: $GPGSA,A,3,8,10,14,15,18,20,21,24,27,32,12,138,1.6,0.8,1.3*34
2017-11-16 15:22:05 1510863725.387281: $GPZDA,202204.00,16,11,2017,00,00*63
2017-11-16 15:22:05 1510863725.387404: $GPGGA,202204,3946.9579,N,08404.9864,W,2,12,0.80,307.23,M,-33.324,M,,*72
2017-11-16 15:22:05 1510863725.387436: $GPRMC,202204,A,3946.9579,N,08404.9864,W,0.0000,0.000,161117,,*39
2017-11-16 15:22:05 1510863725.387465: $GPGSA,A,3,8,10,14,15,18,20,21,24,27,32,12,138,1.6,0.8,1.3*34
2017-11-16 15:22:06 1510863726.370575: $GPZDA,202205.00,16,11,2017,00,00*62
2017-11-16 15:22:06 1510863726.370770: $GPGGA,202205,3946.9579,N,08404.9864,W,2,12,0.80,307.23,M,-33.324,M,,*73
2017-11-16 15:22:06 1510863726.370833: $GPRMC,202205,A,3946.9579,N,08404.9864,W,0.0000,0.000,161117,,*38
2017-11-16 15:22:06 1510863726.370890: $GPGSA,A,3,8,10,14,15,18,20,21,24,27,32,12,138,1.6,0.8,1.3*34
2017-11-16 15:22:07 1510863727.723737: $GPGSV,3,1,12,08,06,294,38,10,68,330,50,14,28,252,47,15,12,066,33*76
2017-11-16 15:22:07 1510863727.723902: $GPGSV,3,2,12,18,71,090,47,20,09,117,19,21,30,180,44,24,46,060,51*75
2017-11-16 15:22:07 1510863727.723943: $GPGSV,3,3,12,27,07,261,40,32,45,264,48,12,08,108,32,138,38,213,44*47
2017-11-16 15:22:07 1510863727.836618: $GPZDA,202206.00,16,11,2017,00,00*61
2017-11-16 15:22:07 1510863727.836737: $GPGGA,202206,3946.9579,N,08404.9864,W,2,12,0.80,307.23,M,-33.324,M,,*70
2017-11-16 15:22:07 1510863727.836779: $GPRMC,202206,A,3946.9579,N,08404.9864,W,0.0000,0.000,161117,,*3B
2017-11-16 15:22:07 1510863727.836808: $GPGSA,A,3,8,10,14,15,18,20,21,24,27,32,12,138,1.6,0.8,1.3*34
2017-11-16 15:22:08 1510863728.371748: $GPZDA,202207.00,16,11,2017,00,00*60
2017-11-16 15:22:08 1510863728.371913: $GPGGA,202207,3946.9579,N,08404.9864,W,2,12,0.80,307.23,M,-33.324,M,,*71
2017-11-16 15:22:08 1510863728.371974: $GPRMC,202207,A,3946.9579,N,08404.9864,W,0.0000,0.000,161117,,*3A
2017-11-16 15:22:08 1510863728.372031: $GPGSA,A,3,8,10,14,15,18,20,21,24,27,32,12,138,1.6,0.8,1.3*34
2017-11-16 15:22:09 1510863729.387673: $GPZDA,202208.00,16,11,2017,00,00*6F
2017-11-16 15:22:09 1510863729.387842: $GPGGA,202208,3946.9579,N,08404.9864,W,2,12,0.80,307.23,M,-33.324,M,,*7E
2017-11-16 15:22:09 1510863729.387905: $GPRMC,202208,A,3946.9579,N,08404.9864,W,0.0000,0.000,161117,,*35
2017-11-16 15:22:09 1510863729.387961: $GPGSA,A,3,8,10,14,15,18,20,21,24,27,32,12,138,1.6,0.8,1.3*34
