2017-11-16 17:07:10 1510870030.300289: {"class":"VERSION","release":"3.17","rev":"3.17","proto_major":3,"proto_minor":12}
2017-11-16 17:07:10 1510870030.300783: {"class":"DEVICES","devices":[{"class":"DEVICE","path":"/dev/ttyUSB0","driver":"SiRF","subtype":"9\u0006GSD4e_4.1.2-P1_RPATCH.05-F-GPS-4R-1510281 11/03/2015 307","activated":"2017-11-16T22:07:10.283Z","flags":1,"native":1,"bps":4800,"parity":"N","stopbits":1,"cycle":1.00}]}
2017-11-16 17:07:10 1510870030.300904: {"class":"WATCH","enable":true,"json":false,"nmea":true,"raw":0,"scaled":false,"timing":false,"split24":false,"pps":false}
2017-11-16 17:07:10 1510870030.396697: $GPZDA,220709.00,16,11,2017,00,00*6B
2017-11-16 17:07:10 1510870030.396859: $GPGGA,220709,3946.9575,N,08404.9819,W,2,12,0.80,312.77,M,-33.324,M,,*79
2017-11-16 17:07:10 1510870030.396920: $GPRMC,220709,A,3946.9575,N,08404.9819,W,0.0000,0.000,161117,,*37
2017-11-16 17:07:10 1510870030.396975: $GPGSA,A,3,1,10,11,12,14,18,22,24,25,31,32,138,1.6,0.8,1.3*38
2017-11-16 17:07:11 1510870031.397088: $GPZDA,220710.00,16,11,2017,00,00*63
2017-11-16 17:07:11 1510870031.397278: $GPGGA,220710,3946.9575,N,08404.9819,W,2,12,0.80,312.77,M,-33.324,M,,*71
2017-11-16 17:07:11 1510870031.397341: $GPRMC,220710,A,3946.9575,N,08404.9819,W,0.0000,0.000,161117,,*3F
2017-11-16 17:07:11 1510870031.397397: $GPGSA,A,3,1,10,11,12,14,18,22,24,25,31,32,138,1.6,0.8,1.3*38
2017-11-16 17:07:12 1510870032.734037: $GPGSV,3,1,12,01,18,312,42,10,60,141,48,11,10,292,34,12,25,061,48*79
2017-11-16 17:07:12 1510870032.738854: $GPGSV,3,2,12,14,60,306,46,18,29,139,44,22,09,312,37,24,06,046,36*7C
2017-11-16 17:07:12 1510870032.739042: $GPGSV,3,3,12,25,35,105,48,31,43,217,47,32,70,354,50,138,38,213,44*41
2017-11-16 17:07:12 1510870032.847485: $GPZDA,220711.00,16,11,2017,00,00*62
2017-11-16 17:07:12 1510870032.847659: $GPGGA,220711,3946.9575,N,08404.9819,W,2,12,0.80,312.77,M,-33.324,M,,*70
2017-11-16 17:07:12 1510870032.847724: $GPRMC,220711,A,3946.9575,N,08404.9819,W,0.0000,0.000,161117,,*3E
2017-11-16 17:07:12 1510870032.847780: $GPGSA,A,3,1,10,11,12,14,18,22,24,25,31,32,138,1.6,0.8,1.3*38
2017-11-16 17:07:13 1510870033.396976: $GPZDA,220712.00,16,11,2017,00,00*61
2017-11-16 17:07:13 1510870033.397152: $GPGGA,220712,3946.9575,N,08404.9819,W,2,12,0.80,312.77,M,-33.324,M,,*73
2017-11-16 17:07:13 1510870033.397214: $GPRMC,220712,A,3946.9575,N,08404.9819,W,0.0000,0.000,161117,,*3D
2017-11-16 17:07:13 1510870033.397270: $GPGSA,A,3,1,10,11,12,14,18,22,24,25,31,32,138,1.6,0.8,1.3*38
2017-11-16 17:07:14 1510870034.406675: $GPZDA,220713.00,16,11,2017,00,00*60
2017-11-16 17:07:14 1510870034.406848: $GPGGA,220713,3946.9575,N,08404.9819,W,2,12,0.80,312.77,M,-33.324,M,,*72
2017-11-16 17:07:14 1510870034.406910: $GPRMC,220713,A,3946.9575,N,08404.9819,W,0.0000,0.000,161117,,*3C
2017-11-16 17:07:14 1510870034.406965: $GPGSA,A,3,1,10,11,12,14,18,22,24,25,31,32,138,1.6,0.8,1.3*38
2017-11-16 17:07:15 1510870035.733814: $GPGSV,3,1,12,01,18,312,41,10,60,141,47,11,10,292,34,12,25,061,49*74
2017-11-16 17:07:15 1510870035.733999: $GPGSV,3,2,12,14,60,306,46,18,29,139,43,22,09,312,31,24,06,046,36*7D
2017-11-16 17:07:15 1510870035.734059: $GPGSV,3,3,12,25,35,105,47,31,43,217,47,32,70,354,50,138,38,213,44*4E
2017-11-16 17:07:15 1510870035.845922: $GPZDA,220714.00,16,11,2017,00,00*67
2017-11-16 17:07:15 1510870035.846098: $GPGGA,220714,3946.9575,N,08404.9819,W,2,12,0.80,312.77,M,-33.324,M,,*75
2017-11-16 17:07:15 1510870035.846159: $GPRMC,220714,A,3946.9575,N,08404.9819,W,0.0000,0.000,161117,,*3B
2017-11-16 17:07:15 1510870035.846215: $GPGSA,A,3,1,10,11,12,14,18,22,24,25,31,32,138,1.6,0.8,1.3*38
2017-11-16 17:07:16 1510870036.472347: $GPZDA,220715.00,16,11,2017,00,00*66
2017-11-16 17:07:16 1510870036.472520: $GPGGA,220715,3946.9575,N,08404.9819,W,2,12,0.80,312.77,M,-33.324,M,,*74
2017-11-16 17:07:16 1510870036.472582: $GPRMC,220715,A,3946.9575,N,08404.9819,W,0.0000,0.000,161117,,*3A
2017-11-16 17:07:16 1510870036.472638: $GPGSA,A,3,1,10,11,12,14,18,22,24,25,31,32,138,1.6,0.8,1.3*38
2017-11-16 17:07:17 1510870037.413201: $GPZDA,220716.00,16,11,2017,00,00*65
2017-11-16 17:07:17 1510870037.413429: $GPGGA,220716,3946.9575,N,08404.9819,W,2,12,0.80,312.77,M,-33.324,M,,*77
2017-11-16 17:07:17 1510870037.413494: $GPRMC,220716,A,3946.9575,N,08404.9819,W,0.0000,0.000,161117,,*39
2017-11-16 17:07:17 1510870037.413550: $GPGSA,A,3,1,10,11,12,14,18,22,24,25,31,32,138,1.6,0.8,1.3*38
2017-11-16 17:07:18 1510870038.749034: $GPGSV,3,1,12,01,18,312,40,10,60,141,47,11,10,292,34,12,25,061,49*75
2017-11-16 17:07:18 1510870038.749203: $GPGSV,3,2,12,14,60,306,45,18,29,139,43,22,09,312,34,24,06,046,36*7B
2017-11-16 17:07:18 1510870038.749263: $GPGSV,3,3,12,25,35,105,47,31,43,217,47,32,70,354,50,138,38,213,43*49
2017-11-16 17:07:18 1510870038.862352: $GPZDA,220717.00,16,11,2017,00,00*64
2017-11-16 17:07:18 1510870038.862513: $GPGGA,220717,3946.9575,N,08404.9819,W,2,12,0.80,312.77,M,-33.324,M,,*76
2017-11-16 17:07:18 1510870038.862573: $GPRMC,220717,A,3946.9575,N,08404.9819,W,0.0000,0.000,161117,,*38
2017-11-16 17:07:18 1510870038.862629: $GPGSA,A,3,1,10,11,12,14,18,22,24,25,31,32,138,1.6,0.8,1.3*38
2017-11-16 17:07:19 1510870039.397013: $GPZDA,220718.00,16,11,2017,00,00*6B
2017-11-16 17:07:19 1510870039.397189: $GPGGA,220718,3946.9575,N,08404.9819,W,2,12,0.80,312.77,M,-33.324,M,,*79
2017-11-16 17:07:19 1510870039.397250: $GPRMC,220718,A,3946.9575,N,08404.9819,W,0.0000,0.000,161117,,*37
2017-11-16 17:07:19 1510870039.397306: $GPGSA,A,3,1,10,11,12,14,18,22,24,25,31,32,138,1.6,0.8,1.3*38
