2017-12-01 16:54:26 1512165266.906930: {"class":"VERSION","release":"3.16","rev":"3.16-4","proto_major":3,"proto_minor":11}
2017-12-01 16:54:26 1512165266.907414: {"class":"DEVICES","devices":[{"class":"DEVICE","path":"/dev/ttyUSB0","driver":"SiRF","subtype":"9\u0006GSD4e_4.1.2-P1_RPATCH.05-F-GPS-4R-1510281 11/03/2015 307","activated":"2017-12-01T21:54:26.881Z","flags":1,"native":1,"bps":4800,"parity":"N","stopbits":1,"cycle":1.00}]}
2017-12-01 16:54:26 1512165266.907544: {"class":"WATCH","enable":true,"json":false,"nmea":true,"raw":0,"scaled":false,"timing":false,"split24":false,"pps":false}
2017-12-01 16:54:26 1512165266.994596: $GPZDA,215427.65,01,12,2017,00,00*64
2017-12-01 16:54:26 1512165266.994755: $GPGGA,215427,3946.9678,N,08404.9765,W,1,12,1.40,283.77,M,-33.324,M,,*7D
2017-12-01 16:54:26 1512165266.994821: $GPRMC,215427,A,3946.9678,N,08404.9765,W,0.4315,34.066,011217,,*05
2017-12-01 16:54:26 1512165266.994882: $GPGSA,A,3,1,3,10,14,22,31,32,11,18,25,26,138,2.0,1.4,1.5*04
2017-12-01 16:54:28 1512165268.098671: $GPZDA,215428.33,01,12,2017,00,00*68
2017-12-01 16:54:28 1512165268.098844: $GPGGA,215428,3946.9678,N,08404.9765,W,1,12,1.40,283.77,M,-33.324,M,,*72
2017-12-01 16:54:28 1512165268.098912: $GPRMC,215428,A,3946.9678,N,08404.9765,W,0.1567,9.200,011217,,*30
2017-12-01 16:54:28 1512165268.098973: $GPGSA,A,3,1,3,10,14,22,31,32,11,18,25,26,138,2.0,1.4,1.5*04
2017-12-01 16:54:28 1512165268.099032: $GPGBS,215428,10.70,M,15.43,M,35.28,M*0F
2017-12-01 16:54:29 1512165269.263833: $GPGSV,3,1,12,01,22,289,42,03,09,318,40,10,36,153,40,12,17,040,05*7B
2017-12-01 16:54:29 1512165269.267785: $GPGSV,3,2,12,14,70,355,46,22,28,310,44,26,12,180,33,31,67,238,50*71
2017-12-01 16:54:29 1512165269.267879: $GPGSV,3,3,12,32,64,055,48,18,08,147,03,25,40,075,09,138,38,213,00*4C
2017-12-01 16:54:29 1512165269.377541: $GPZDA,215429.00,01,12,2017,00,00*69
2017-12-01 16:54:29 1512165269.377711: $GPGGA,215429,3946.9674,N,08404.9766,W,1,08,1.40,284.53,M,-33.324,M,,*76
2017-12-01 16:54:29 1512165269.377778: $GPRMC,215429,A,3946.9674,N,08404.9766,W,0.1867,180.000,011217,,*31
2017-12-01 16:54:29 1512165269.377839: $GPGSA,A,3,1,3,10,14,22,26,31,32,,,,,2.0,1.4,1.5*30
2017-12-01 16:54:29 1512165269.829334: $GPZDA,215430.00,01,12,2017,00,00*61
2017-12-01 16:54:29 1512165269.829517: $GPGGA,215430,3946.9678,N,08404.9759,W,1,08,0.80,285.25,M,-33.324,M,,*73
2017-12-01 16:54:29 1512165269.829585: $GPRMC,215430,A,3946.9678,N,08404.9759,W,0.0000,0.000,011217,,*38
2017-12-01 16:54:29 1512165269.829647: $GPGSA,A,3,1,3,10,14,22,26,31,32,,,,,2.0,0.8,1.5*3D
2017-12-01 16:54:30 1512165270.385089: $GPZDA,215431.00,01,12,2017,00,00*60
2017-12-01 16:54:30 1512165270.385295: $GPGGA,215431,3946.9674,N,08404.9760,W,1,08,0.80,286.02,M,-33.324,M,,*72
2017-12-01 16:54:30 1512165270.385368: $GPRMC,215431,A,3946.9674,N,08404.9760,W,0.0000,0.000,011217,,*3F
2017-12-01 16:54:30 1512165270.385430: $GPGSA,A,3,1,3,10,14,22,26,31,32,,,,,2.0,0.8,1.5*3D
2017-12-01 16:54:31 1512165271.720333: $GPGSV,3,1,12,01,22,289,42,03,09,318,40,10,36,153,39,12,17,040,15*74
2017-12-01 16:54:31 1512165271.720518: $GPGSV,3,2,12,14,70,355,46,22,28,310,44,26,12,180,33,31,67,238,49*79
2017-12-01 16:54:31 1512165271.720585: $GPGSV,3,3,12,32,64,055,48,18,08,147,17,25,40,075,28,138,38,213,41*4F
2017-12-01 16:54:31 1512165271.834198: $GPZDA,215432.00,01,12,2017,00,00*63
2017-12-01 16:54:31 1512165271.834386: $GPGGA,215432,3946.9671,N,08404.9761,W,1,12,0.80,286.78,M,-33.324,M,,*73
2017-12-01 16:54:31 1512165271.834453: $GPRMC,215432,A,3946.9671,N,08404.9761,W,0.0000,0.000,011217,,*38
2017-12-01 16:54:31 1512165271.834515: $GPGSA,A,3,1,3,10,12,14,22,26,31,32,18,25,138,2.0,0.8,1.5*0A
2017-12-01 16:54:32 1512165272.384615: $GPZDA,215433.00,01,12,2017,00,00*62
2017-12-01 16:54:32 1512165272.384812: $GPGGA,215433,3946.9672,N,08404.9761,W,1,12,0.80,288.19,M,-33.324,M,,*78
2017-12-01 16:54:32 1512165272.384888: $GPRMC,215433,A,3946.9672,N,08404.9761,W,0.0000,0.000,011217,,*3A
2017-12-01 16:54:32 1512165272.384951: $GPGSA,A,3,1,3,10,12,14,22,26,31,32,18,25,138,2.0,0.8,1.5*0A
2017-12-01 16:54:33 1512165273.385325: $GPZDA,215434.00,01,12,2017,00,00*65
2017-12-01 16:54:33 1512165273.385560: $GPGGA,215434,3946.9672,N,08404.9761,W,1,12,0.80,288.19,M,-33.324,M,,*7F
2017-12-01 16:54:33 1512165273.385630: $GPRMC,215434,A,3946.9672,N,08404.9761,W,0.0000,0.000,011217,,*3D
2017-12-01 16:54:33 1512165273.385691: $GPGSA,A,3,1,3,10,12,14,22,26,31,32,18,25,138,2.0,0.8,1.5*0A
2017-12-01 16:54:33 1512165273.385752: $GPGBS,215434,10.70,M,15.43,M,35.28,M*02
2017-12-01 16:54:34 1512165274.722382: $GPGSV,3,1,12,01,22,289,41,03,09,318,39,10,36,153,38,12,17,040,16*7B
2017-12-01 16:54:34 1512165274.722597: $GPGSV,3,2,12,14,70,355,45,22,28,310,44,26,12,180,32,31,67,238,48*7A
2017-12-01 16:54:34 1512165274.722689: $GPGSV,3,3,12,32,64,055,47,18,08,147,16,25,40,075,27,138,38,213,42*4D
2017-12-01 16:54:34 1512165274.835780: $GPZDA,215435.00,01,12,2017,00,00*64
2017-12-01 16:54:34 1512165274.835951: $GPGGA,215435,3946.9668,N,08404.9762,W,1,12,0.80,288.95,M,-33.324,M,,*72
2017-12-01 16:54:34 1512165274.836018: $GPRMC,215435,A,3946.9668,N,08404.9762,W,0.0000,0.000,011217,,*34
2017-12-01 16:54:34 1512165274.836100: $GPGSA,A,3,1,3,10,12,14,22,26,31,32,18,25,138,2.0,0.8,1.5*0A
2017-12-01 16:54:35 1512165275.384185: $GPZDA,215436.00,01,12,2017,00,00*67
2017-12-01 16:54:35 1512165275.384375: $GPGGA,215436,3946.9665,N,08404.9763,W,1,12,0.80,289.71,M,-33.324,M,,*76
2017-12-01 16:54:35 1512165275.384442: $GPRMC,215436,A,3946.9665,N,08404.9763,W,0.1867,180.000,011217,,*3A
2017-12-01 16:54:35 1512165275.384503: $GPGSA,A,3,1,3,10,12,14,22,26,31,32,18,25,138,2.0,0.8,1.5*0A
2017-12-01 16:54:36 1512165276.384497: $GPZDA,215437.00,01,12,2017,00,00*66
2017-12-01 16:54:36 1512165276.384674: $GPGGA,215437,3946.9665,N,08404.9763,W,1,12,0.80,289.71,M,-33.324,M,,*77
2017-12-01 16:54:36 1512165276.384742: $GPRMC,215437,A,3946.9665,N,08404.9763,W,0.0000,0.000,011217,,*3A
2017-12-01 16:54:36 1512165276.384803: $GPGSA,A,3,1,3,10,12,14,22,26,31,32,18,25,138,2.0,0.8,1.5*0A
2017-12-01 16:54:37 1512165277.721541: $GPGSV,3,1,12,01,22,289,41,03,09,318,39,10,36,153,38,12,17,040,20*7E
2017-12-01 16:54:37 1512165277.721742: $GPGSV,3,2,12,14,70,355,45,22,28,310,45,26,12,180,30,31,67,238,48*79
2017-12-01 16:54:37 1512165277.721811: $GPGSV,3,3,12,32,64,055,47,18,08,147,15,25,40,075,28,138,38,213,40*43
2017-12-01 16:54:37 1512165277.834864: $GPZDA,215438.00,01,12,2017,00,00*69
2017-12-01 16:54:37 1512165277.835021: $GPGGA,215438,3946.9661,N,08404.9764,W,1,12,0.80,290.48,M,-33.324,M,,*79
2017-12-01 16:54:37 1512165277.835107: $GPRMC,215438,A,3946.9661,N,08404.9764,W,0.0000,0.000,011217,,*36
2017-12-01 16:54:37 1512165277.835170: $GPGSA,A,3,1,3,10,12,14,22,26,31,32,18,25,138,2.0,0.8,1.5*0A
2017-12-01 16:54:38 1512165278.386488: $GPZDA,215439.00,01,12,2017,00,00*68
2017-12-01 16:54:38 1512165278.386709: $GPGGA,215439,3946.9661,N,08404.9764,W,1,12,0.80,290.48,M,-33.324,M,,*78
2017-12-01 16:54:38 1512165278.386780: $GPRMC,215439,A,3946.9661,N,08404.9764,W,0.0000,0.000,011217,,*37
2017-12-01 16:54:38 1512165278.386843: $GPGSA,A,3,1,3,10,12,14,22,26,31,32,18,25,138,2.0,0.8,1.5*0A
2017-12-01 16:54:39 1512165279.385625: $GPZDA,215440.00,01,12,2017,00,00*66
2017-12-01 16:54:39 1512165279.385816: $GPGGA,215440,3946.9661,N,08404.9764,W,1,12,0.80,290.48,M,-33.324,M,,*76
2017-12-01 16:54:39 1512165279.385884: $GPRMC,215440,A,3946.9661,N,08404.9764,W,0.0000,0.000,011217,,*39
2017-12-01 16:54:39 1512165279.385947: $GPGSA,A,3,1,3,10,12,14,22,26,31,32,18,25,138,2.0,0.8,1.5*0A
2017-12-01 16:54:40 1512165280.721142: $GPGSV,3,1,12,01,22,289,42,03,09,318,40,10,36,153,38,12,17,040,20*73
2017-12-01 16:54:40 1512165280.721341: $GPGSV,3,2,12,14,70,355,45,22,28,310,44,26,12,180,31,31,67,238,48*79
2017-12-01 16:54:40 1512165280.721461: $GPGSV,3,3,12,32,64,055,47,18,08,147,14,25,40,075,29,138,38,213,38*4C
2017-12-01 16:54:40 1512165280.834521: $GPZDA,215441.00,01,12,2017,00,00*67
2017-12-01 16:54:40 1512165280.834694: $GPGGA,215441,3946.9640,N,08404.9767,W,2,12,1.20,293.66,M,-33.324,M,,*70
2017-12-01 16:54:40 1512165280.834761: $GPRMC,215441,A,3946.9640,N,08404.9767,W,0.0000,0.000,011217,,*38
2017-12-01 16:54:40 1512165280.834870: $GPGSA,A,3,1,3,10,12,14,22,26,31,32,18,25,138,2.0,1.2,1.5*01
2017-12-01 16:54:41 1512165281.459972: $GPZDA,215442.00,01,12,2017,00,00*64
2017-12-01 16:54:41 1512165281.460169: $GPGGA,215442,3946.9640,N,08404.9767,W,2,12,0.80,293.66,M,-33.324,M,,*78
2017-12-01 16:54:41 1512165281.460254: $GPRMC,215442,A,3946.9640,N,08404.9767,W,0.0000,0.000,011217,,*3B
2017-12-01 16:54:41 1512165281.460316: $GPGSA,A,3,1,3,10,12,14,22,26,31,32,18,25,138,2.0,0.8,1.5*0A
2017-12-01 16:54:42 1512165282.387276: $GPZDA,215443.00,01,12,2017,00,00*65
2017-12-01 16:54:42 1512165282.387450: $GPGGA,215443,3946.9640,N,08404.9767,W,2,12,0.80,293.66,M,-33.324,M,,*79
2017-12-01 16:54:42 1512165282.387517: $GPRMC,215443,A,3946.9640,N,08404.9767,W,0.0000,0.000,011217,,*3A
2017-12-01 16:54:42 1512165282.387577: $GPGSA,A,3,1,3,10,12,14,22,26,31,32,18,25,138,2.0,0.8,1.5*0A
2017-12-01 16:54:43 1512165283.722776: $GPGSV,3,1,12,01,22,289,42,03,09,318,40,10,36,153,38,12,17,040,21*72
2017-12-01 16:54:43 1512165283.722962: $GPGSV,3,2,12,14,70,355,44,22,28,310,44,26,12,180,31,31,67,238,48*78
2017-12-01 16:54:43 1512165283.723050: $GPGSV,3,3,12,32,64,055,47,18,08,147,14,25,40,075,29,138,38,213,40*43
2017-12-01 16:54:43 1512165283.836195: $GPZDA,215444.00,01,12,2017,00,00*62
2017-12-01 16:54:43 1512165283.836356: $GPGGA,215444,3946.9640,N,08404.9767,W,2,12,0.80,293.66,M,-33.324,M,,*7E
2017-12-01 16:54:43 1512165283.836423: $GPRMC,215444,A,3946.9640,N,08404.9767,W,0.0000,0.000,011217,,*3D
2017-12-01 16:54:43 1512165283.836485: $GPGSA,A,3,1,3,10,12,14,22,26,31,32,18,25,138,2.0,0.8,1.5*0A
2017-12-01 16:54:44 1512165284.383307: $GPZDA,215445.00,01,12,2017,00,00*63
2017-12-01 16:54:44 1512165284.383484: $GPGGA,215445,3946.9640,N,08404.9767,W,2,12,0.80,293.66,M,-33.324,M,,*7F
2017-12-01 16:54:44 1512165284.383551: $GPRMC,215445,A,3946.9640,N,08404.9767,W,0.0000,0.000,011217,,*3C
2017-12-01 16:54:44 1512165284.383612: $GPGSA,A,3,1,3,10,12,14,22,26,31,32,18,25,138,2.0,0.8,1.5*0A
2017-12-01 16:54:45 1512165285.388255: $GPZDA,215446.00,01,12,2017,00,00*60
2017-12-01 16:54:45 1512165285.388423: $GPGGA,215446,3946.9640,N,08404.9767,W,2,12,0.80,293.66,M,-33.324,M,,*7C
2017-12-01 16:54:45 1512165285.388490: $GPRMC,215446,A,3946.9640,N,08404.9767,W,0.0000,0.000,011217,,*3F
2017-12-01 16:54:45 1512165285.388550: $GPGSA,A,3,1,3,10,12,14,22,26,31,32,18,25,138,2.0,0.8,1.5*0A
2017-12-01 16:54:45 1512165285.388610: $GPGBS,215446,2.67,M,3.86,M,8.82,M*32
2017-12-01 16:54:46 1512165286.722990: $GPGSV,3,1,12,01,22,289,42,03,09,318,40,10,36,153,38,12,17,040,21*72
2017-12-01 16:54:46 1512165286.723215: $GPGSV,3,2,12,14,70,355,45,22,28,310,44,26,12,180,36,31,67,238,48*7E
2017-12-01 16:54:46 1512165286.723284: $GPGSV,3,3,12,32,64,055,47,18,08,147,14,25,40,075,29,138,38,213,40*43
2017-12-01 16:54:46 1512165286.836421: $GPZDA,215447.00,01,12,2017,00,00*61
2017-12-01 16:54:46 1512165286.836594: $GPGGA,215447,3946.9640,N,08404.9767,W,2,12,0.80,293.66,M,-33.324,M,,*7D
2017-12-01 16:54:46 1512165286.836662: $GPRMC,215447,A,3946.9640,N,08404.9767,W,0.0000,0.000,011217,,*3E
2017-12-01 16:54:46 1512165286.836724: $GPGSA,A,3,1,3,10,12,14,22,26,31,32,18,25,138,2.0,0.8,1.5*0A
