2017-12-01 12:02:47 1512147767.198603: {"class":"VERSION","release":"3.16","rev":"3.16-4","proto_major":3,"proto_minor":11}
2017-12-01 12:02:47 1512147767.199032: {"class":"DEVICES","devices":[{"class":"DEVICE","path":"/dev/ttyUSB0","driver":"SiRF","subtype":"9\u0006GSD4e_4.1.2-P1_RPATCH.05-F-GPS-4R-1510281 11/03/2015 307","activated":"2017-12-01T17:02:46.534Z","flags":1,"native":1,"bps":4800,"parity":"N","stopbits":1,"cycle":1.00}]}
2017-12-01 12:02:47 1512147767.199342: {"class":"WATCH","enable":true,"json":false,"nmea":true,"raw":0,"scaled":false,"timing":false,"split24":false,"pps":false}
2017-12-01 12:02:47 1512147767.724446: $GPGSV,3,1,12,10,19,277,41,13,35,046,44,15,68,055,45,18,50,294,45*79
2017-12-01 12:02:47 1512147767.724601: $GPGSV,3,2,12,20,56,063,46,21,74,292,44,24,28,144,46,27,13,318,38*7D
2017-12-01 12:02:47 1512147767.724666: $GPGSV,3,3,12,29,16,192,36,05,08,082,23,04,05,133,00,138,38,213,46*4C
2017-12-01 12:02:47 1512147767.838096: $GPZDA,170248.00,01,12,2017,00,00*68
2017-12-01 12:02:47 1512147767.838267: $GPGGA,170248,3946.9587,N,08404.9843,W,2,11,0.80,294.50,M,-33.324,M,,*74
2017-12-01 12:02:47 1512147767.838333: $GPRMC,170248,A,3946.9587,N,08404.9843,W,0.0000,0.000,011217,,*36
2017-12-01 12:02:47 1512147767.838394: $GPGSA,A,3,10,13,15,18,20,21,24,27,29,5,138,,2.0,0.8,1.5*34
2017-12-01 12:02:48 1512147768.463624: $GPZDA,170249.00,01,12,2017,00,00*69
2017-12-01 12:02:48 1512147768.463794: $GPGGA,170249,3946.9587,N,08404.9849,W,2,11,0.80,293.02,M,-33.324,M,,*7F
2017-12-01 12:02:48 1512147768.463859: $GPRMC,170249,A,3946.9587,N,08404.9849,W,0.0000,0.000,011217,,*3D
2017-12-01 12:02:48 1512147768.463921: $GPGSA,A,3,10,13,15,18,20,21,24,27,29,5,138,,2.0,0.8,1.5*34
2017-12-01 12:02:49 1512147769.389298: $GPZDA,170250.00,01,12,2017,00,00*61
2017-12-01 12:02:49 1512147769.389465: $GPGGA,170250,3946.9587,N,08404.9849,W,2,11,0.80,293.02,M,-33.324,M,,*77
2017-12-01 12:02:49 1512147769.389531: $GPRMC,170250,A,3946.9587,N,08404.9849,W,0.0000,0.000,011217,,*35
2017-12-01 12:02:49 1512147769.389593: $GPGSA,A,3,10,13,15,18,20,21,24,27,29,5,138,,2.0,0.8,1.5*34
2017-12-01 12:02:50 1512147770.728478: $GPGSV,3,1,12,10,19,277,40,13,35,046,45,15,68,055,45,18,50,294,45*79
2017-12-01 12:02:50 1512147770.728658: $GPGSV,3,2,12,20,56,063,46,21,74,292,44,24,28,144,45,27,13,318,37*71
2017-12-01 12:02:50 1512147770.728723: $GPGSV,3,3,12,29,16,192,36,05,08,082,22,04,05,133,00,138,38,213,46*4D
2017-12-01 12:02:50 1512147770.842299: $GPZDA,170251.00,01,12,2017,00,00*60
2017-12-01 12:02:50 1512147770.842483: $GPGGA,170251,3946.9587,N,08404.9849,W,2,11,0.80,293.02,M,-33.324,M,,*76
2017-12-01 12:02:50 1512147770.842550: $GPRMC,170251,A,3946.9587,N,08404.9849,W,0.0000,0.000,011217,,*34
2017-12-01 12:02:50 1512147770.842612: $GPGSA,A,3,10,13,15,18,20,21,24,27,29,5,138,,2.0,0.8,1.5*34
2017-12-01 12:02:51 1512147771.388983: $GPZDA,170252.00,01,12,2017,00,00*63
2017-12-01 12:02:51 1512147771.389165: $GPGGA,170252,3946.9587,N,08404.9849,W,2,11,0.80,293.02,M,-33.324,M,,*75
2017-12-01 12:02:51 1512147771.389233: $GPRMC,170252,A,3946.9587,N,08404.9849,W,0.0000,0.000,011217,,*37
2017-12-01 12:02:51 1512147771.389294: $GPGSA,A,3,10,13,15,18,20,21,24,27,29,5,138,,2.0,0.8,1.5*34
2017-12-01 12:02:52 1512147772.388594: $GPZDA,170253.00,01,12,2017,00,00*62
2017-12-01 12:02:52 1512147772.388767: $GPGGA,170253,3946.9587,N,08404.9849,W,2,11,0.80,293.02,M,-33.324,M,,*74
2017-12-01 12:02:52 1512147772.388836: $GPRMC,170253,A,3946.9587,N,08404.9849,W,0.0000,0.000,011217,,*36
2017-12-01 12:02:52 1512147772.388897: $GPGSA,A,3,10,13,15,18,20,21,24,27,29,5,138,,2.0,0.8,1.5*34
2017-12-01 12:02:53 1512147773.725072: $GPGSV,3,1,12,10,19,277,40,13,35,046,44,15,68,055,45,18,50,294,46*7B
2017-12-01 12:02:53 1512147773.725254: $GPGSV,3,2,12,20,56,063,46,21,74,292,44,24,28,144,45,27,13,318,38*7E
2017-12-01 12:02:53 1512147773.725320: $GPGSV,3,3,12,29,16,192,36,05,08,082,06,04,05,133,00,138,38,213,46*4B
2017-12-01 12:02:53 1512147773.838647: $GPZDA,170254.00,01,12,2017,00,00*65
2017-12-01 12:02:53 1512147773.838819: $GPGGA,170254,3946.9587,N,08404.9849,W,2,11,0.80,293.02,M,-33.324,M,,*73
2017-12-01 12:02:53 1512147773.838937: $GPRMC,170254,A,3946.9587,N,08404.9849,W,0.0000,0.000,011217,,*31
2017-12-01 12:02:53 1512147773.839000: $GPGSA,A,3,10,13,15,18,20,21,24,27,29,5,138,,2.0,0.8,1.5*34
2017-12-01 12:02:54 1512147774.389374: $GPZDA,170255.00,01,12,2017,00,00*64
2017-12-01 12:02:54 1512147774.389541: $GPGGA,170255,3946.9587,N,08404.9849,W,2,11,0.80,293.02,M,-33.324,M,,*72
2017-12-01 12:02:54 1512147774.389608: $GPRMC,170255,A,3946.9587,N,08404.9849,W,0.0000,0.000,011217,,*30
2017-12-01 12:02:54 1512147774.389669: $GPGSA,A,3,10,13,15,18,20,21,24,27,29,5,138,,2.0,0.8,1.5*34
2017-12-01 12:02:55 1512147775.388982: $GPZDA,170256.00,01,12,2017,00,00*67
2017-12-01 12:02:55 1512147775.389149: $GPGGA,170256,3946.9587,N,08404.9849,W,2,11,0.80,293.02,M,-33.324,M,,*71
2017-12-01 12:02:55 1512147775.389215: $GPRMC,170256,A,3946.9587,N,08404.9849,W,0.0000,0.000,011217,,*33
2017-12-01 12:02:55 1512147775.389277: $GPGSA,A,3,10,13,15,18,20,21,24,27,29,5,138,,2.0,0.8,1.5*34
2017-12-01 12:02:56 1512147776.723406: $GPGSV,3,1,12,10,19,277,40,13,35,046,44,15,68,055,46,18,50,294,46*78
2017-12-01 12:02:56 1512147776.723587: $GPGSV,3,2,12,20,56,063,46,21,74,292,44,24,28,144,45,27,13,318,38*7E
2017-12-01 12:02:56 1512147776.723655: $GPGSV,3,3,12,29,16,192,36,05,08,082,10,04,05,133,00,138,38,213,46*4C
2017-12-01 12:02:56 1512147776.836794: $GPZDA,170257.00,01,12,2017,00,00*66
2017-12-01 12:02:56 1512147776.836973: $GPGGA,170257,3946.9587,N,08404.9849,W,2,11,0.80,293.02,M,-33.324,M,,*70
2017-12-01 12:02:56 1512147776.837040: $GPRMC,170257,A,3946.9587,N,08404.9849,W,0.0000,0.000,011217,,*32
2017-12-01 12:02:56 1512147776.837102: $GPGSA,A,3,10,13,15,18,20,21,24,27,29,5,138,,2.0,0.8,1.5*34
