2017-12-14 11:49:35 1513270175.533592: {"class":"VERSION","release":"3.16","rev":"3.16-4","proto_major":3,"proto_minor":11}
2017-12-14 11:49:35 1513270175.533991: {"class":"DEVICES","devices":[{"class":"DEVICE","path":"/dev/ttyUSB0","driver":"SiRF","subtype":"9\u0006GSD4e_4.1.2-P1_RPATCH.05-F-GPS-4R-1510281 11/03/2015 307","activated":"2017-12-14T16:49:35.284Z","flags":1,"native":1,"bps":4800,"parity":"N","stopbits":1,"cycle":1.00}]}
2017-12-14 11:49:35 1513270175.534166: {"class":"WATCH","enable":true,"json":false,"nmea":true,"raw":0,"scaled":false,"timing":false,"split24":false,"pps":false}
2017-12-14 11:49:36 1513270176.479853: $GPGSV,3,1,12,24,43,127,27,15,49,049,26,10,32,291,18,18,62,315,20*73
2017-12-14 11:49:36 1513270176.480030: $GPGSV,3,2,12,20,44,084,19,32,11,231,14,27,19,303,00,13,19,046,00*7C
2017-12-14 11:49:36 1513270176.480095: $GPGSV,3,3,12,21,75,208,00,29,01,186,00,08,01,331,00,138,38,213,00*4D
2017-12-14 11:49:36 1513270176.593294: $GPZDA,164937.00,14,12,2017,00,00*6A
2017-12-14 11:49:36 1513270176.593461: $GPGGA,164937,3946.9439,N,08404.9510,W,1,06,1.80,394.56,M,-33.324,M,,*7E
2017-12-14 11:49:36 1513270176.593526: $GPRMC,164937,A,3946.9439,N,08404.9510,W,0.7637,117.901,141217,,*31
2017-12-14 11:49:36 1513270176.593587: $GPGSA,A,3,24,15,10,18,20,32,,,,,,,6.6,1.8,6.2*36
2017-12-14 11:49:37 1513270177.145970: $GPZDA,164938.00,14,12,2017,00,00*65
2017-12-14 11:49:37 1513270177.146119: $GPGGA,164938,3946.9436,N,08404.9510,W,1,06,1.80,395.33,M,-33.324,M,,*7C
2017-12-14 11:49:37 1513270177.146184: $GPRMC,164938,A,3946.9436,N,08404.9510,W,0.3775,149.506,141217,,*32
2017-12-14 11:49:37 1513270177.146246: $GPGSA,A,3,24,15,10,18,20,32,,,,,,,6.6,1.8,6.2*36
2017-12-14 11:49:38 1513270178.146101: $GPZDA,164939.00,14,12,2017,00,00*64
2017-12-14 11:49:38 1513270178.146400: $GPGGA,164939,3946.9428,N,08404.9511,W,1,06,1.80,395.45,M,-33.324,M,,*72
2017-12-14 11:49:38 1513270178.146546: $GPRMC,164939,A,3946.9428,N,08404.9511,W,0.9801,214.742,141217,,*32
2017-12-14 11:49:38 1513270178.146694: $GPGSA,A,3,24,15,10,18,20,32,,,,,,,6.6,1.8,6.2*36
2017-12-14 11:49:39 1513270179.482256: $GPGSV,3,1,12,24,43,127,27,15,49,049,27,10,32,291,18,18,62,315,19*78
2017-12-14 11:49:39 1513270179.482432: $GPGSV,3,2,12,20,44,084,20,32,11,231,14,27,19,303,00,13,19,046,00*76
2017-12-14 11:49:39 1513270179.482500: $GPGSV,3,3,12,21,75,208,00,29,01,186,00,08,01,331,00,138,38,213,00*4D
2017-12-14 11:49:39 1513270179.595623: $GPZDA,164940.00,14,12,2017,00,00*6A
2017-12-14 11:49:39 1513270179.595817: $GPGGA,164940,3946.9429,N,08404.9512,W,1,06,1.80,396.86,M,-33.324,M,,*72
2017-12-14 11:49:39 1513270179.595884: $GPRMC,164940,A,3946.9429,N,08404.9512,W,0.4985,185.768,141217,,*3D
2017-12-14 11:49:39 1513270179.595945: $GPGSA,A,3,24,15,10,18,20,32,,,,,,,6.6,1.8,6.2*36
2017-12-14 11:49:40 1513270180.145275: $GPZDA,164941.00,14,12,2017,00,00*6B
2017-12-14 11:49:40 1513270180.145441: $GPGGA,164941,3946.9432,N,08404.9510,W,1,06,1.80,394.69,M,-33.324,M,,*78
2017-12-14 11:49:40 1513270180.145508: $GPRMC,164941,A,3946.9432,N,08404.9510,W,0.3423,184.197,141217,,*35
2017-12-14 11:49:40 1513270180.145569: $GPGSA,A,3,24,15,10,18,20,32,,,,,,,6.6,1.8,6.2*36
2017-12-14 11:49:41 1513270181.145393: $GPZDA,164942.00,14,12,2017,00,00*68
2017-12-14 11:49:41 1513270181.145568: $GPGGA,164942,3946.9428,N,08404.9511,W,1,06,1.80,395.45,M,-33.324,M,,*7E
2017-12-14 11:49:41 1513270181.145654: $GPRMC,164942,A,3946.9428,N,08404.9511,W,0.4179,148.778,141217,,*36
2017-12-14 11:49:41 1513270181.145717: $GPGSA,A,3,24,15,10,18,20,32,,,,,,,6.6,1.8,6.2*36
2017-12-14 11:49:42 1513270182.482819: $GPGSV,3,1,12,24,43,127,27,15,49,049,27,10,32,291,18,18,62,315,19*78
2017-12-14 11:49:42 1513270182.482987: $GPGSV,3,2,12,20,44,084,20,32,11,231,12,27,19,303,13,13,19,046,00*72
2017-12-14 11:49:42 1513270182.483069: $GPGSV,3,3,12,21,75,208,00,29,01,186,00,08,01,331,00,138,38,213,00*4D
2017-12-14 11:49:42 1513270182.596340: $GPZDA,164943.00,14,12,2017,00,00*69
2017-12-14 11:49:42 1513270182.596552: $GPGGA,164943,3946.9428,N,08404.9511,W,1,06,1.80,395.45,M,-33.324,M,,*7F
2017-12-14 11:49:42 1513270182.596698: $GPRMC,164943,A,3946.9428,N,08404.9511,W,0.4844,93.794,141217,,*05
2017-12-14 11:49:42 1513270182.596779: $GPGSA,A,3,24,15,10,18,20,32,,,,,,,6.6,1.8,6.2*36
2017-12-14 11:49:43 1513270183.146415: $GPZDA,164944.00,14,12,2017,00,00*6E
2017-12-14 11:49:43 1513270183.146587: $GPGGA,164944,3946.9428,N,08404.9511,W,1,06,1.80,395.45,M,-33.324,M,,*78
2017-12-14 11:49:43 1513270183.149822: $GPRMC,164944,A,3946.9428,N,08404.9511,W,0.2422,93.794,141217,,*08
2017-12-14 11:49:43 1513270183.149922: $GPGSA,A,3,24,15,10,18,20,32,,,,,,,6.6,1.8,6.2*36
2017-12-14 11:49:44 1513270184.150291: $GPZDA,164945.00,14,12,2017,00,00*6F
2017-12-14 11:49:44 1513270184.150463: $GPGGA,164945,3946.9428,N,08404.9511,W,1,06,1.40,395.45,M,-33.324,M,,*75
2017-12-14 11:49:44 1513270184.150530: $GPRMC,164945,A,3946.9428,N,08404.9511,W,0.4207,39.347,141217,,*04
2017-12-14 11:49:44 1513270184.150591: $GPGSA,A,3,24,15,10,18,20,32,,,,,,,6.6,1.4,6.2*3A
2017-12-14 11:49:45 1513270185.484793: $GPGSV,3,1,12,24,43,127,27,15,49,049,27,10,32,291,18,18,62,315,19*78
2017-12-14 11:49:45 1513270185.485078: $GPGSV,3,2,12,20,44,084,20,32,11,231,11,27,19,303,13,13,19,046,00*71
2017-12-14 11:49:45 1513270185.485201: $GPGSV,3,3,12,21,75,208,00,29,01,186,00,08,01,331,00,138,38,213,00*4D
2017-12-14 11:49:45 1513270185.598134: $GPZDA,164946.00,14,12,2017,00,00*6C
2017-12-14 11:49:45 1513270185.598301: $GPGGA,164946,3946.9428,N,08404.9511,W,1,07,1.40,395.45,M,-33.324,M,,*77
2017-12-14 11:49:45 1513270185.598367: $GPRMC,164946,A,3946.9428,N,08404.9511,W,0.5230,76.444,141217,,*0D
2017-12-14 11:49:45 1513270185.598427: $GPGSA,A,3,24,15,10,18,20,32,27,,,,,,6.6,1.4,6.2*3F
2017-12-14 11:49:46 1513270186.148206: $GPZDA,164947.00,14,12,2017,00,00*6D
2017-12-14 11:49:46 1513270186.148374: $GPGGA,164947,3946.9428,N,08404.9511,W,1,07,1.40,395.45,M,-33.324,M,,*76
2017-12-14 11:49:46 1513270186.148439: $GPRMC,164947,A,3946.9428,N,08404.9511,W,0.3155,129.994,141217,,*31
2017-12-14 11:49:46 1513270186.148500: $GPGSA,A,3,24,15,10,18,20,32,27,,,,,,6.6,1.4,6.2*3F
2017-12-14 11:49:47 1513270187.149599: $GPZDA,164948.00,14,12,2017,00,00*62
2017-12-14 11:49:47 1513270187.149789: $GPGGA,164948,3946.9424,N,08404.9511,W,1,07,1.40,394.81,M,-33.324,M,,*7C
2017-12-14 11:49:47 1513270187.149856: $GPRMC,164948,A,3946.9424,N,08404.9511,W,0.9060,167.792,141217,,*3D
2017-12-14 11:49:47 1513270187.149917: $GPGSA,A,3,24,15,10,18,20,32,27,,,,,,6.6,1.4,6.2*3F
2017-12-14 11:49:48 1513270188.484532: $GPGSV,3,1,12,24,43,127,27,15,49,049,27,10,32,291,18,18,62,315,18*79
2017-12-14 11:49:48 1513270188.486622: $GPGSV,3,2,12,20,44,084,21,32,11,231,11,27,19,303,13,21,75,208,19*7B
2017-12-14 11:49:48 1513270188.486760: $GPGSV,3,3,12,13,19,046,00,29,01,186,00,08,01,331,00,138,38,213,00*4E
2017-12-14 11:49:48 1513270188.599152: $GPZDA,164949.00,14,12,2017,00,00*63
2017-12-14 11:49:48 1513270188.599359: $GPGGA,164949,3946.9424,N,08404.9511,W,1,08,1.40,394.81,M,-33.324,M,,*72
2017-12-14 11:49:48 1513270188.599426: $GPRMC,164949,A,3946.9424,N,08404.9511,W,0.3423,184.197,141217,,*3B
2017-12-14 11:49:48 1513270188.599487: $GPGSA,A,3,24,15,10,18,20,32,27,21,,,,,6.6,1.4,6.2*3C
2017-12-14 11:49:49 1513270189.148109: $GPZDA,164950.00,14,12,2017,00,00*6B
2017-12-14 11:49:49 1513270189.148279: $GPGGA,164950,3946.9424,N,08404.9511,W,1,08,1.40,394.81,M,-33.324,M,,*7A
2017-12-14 11:49:49 1513270189.148347: $GPRMC,164950,A,3946.9424,N,08404.9511,W,0.4844,273.794,141217,,*37
2017-12-14 11:49:49 1513270189.148408: $GPGSA,A,3,24,15,10,18,20,32,27,21,,,,,6.6,1.4,6.2*3C
2017-12-14 11:49:50 1513270190.147735: $GPZDA,164951.00,14,12,2017,00,00*6A
2017-12-14 11:49:50 1513270190.147905: $GPGGA,164951,3946.9424,N,08404.9511,W,1,08,1.40,394.81,M,-33.324,M,,*7B
2017-12-14 11:49:50 1513270190.147971: $GPRMC,164951,A,3946.9424,N,08404.9511,W,0.4179,328.778,141217,,*3C
2017-12-14 11:49:50 1513270190.148032: $GPGSA,A,3,24,15,10,18,20,32,27,21,,,,,6.6,1.4,6.2*3C
2017-12-14 11:49:51 1513270191.485138: $GPGSV,3,1,12,24,43,127,27,15,49,049,27,10,32,291,18,18,62,315,19*78
2017-12-14 11:49:51 1513270191.485315: $GPGSV,3,2,12,20,44,084,22,32,11,231,10,27,19,303,13,21,75,208,19*79
2017-12-14 11:49:51 1513270191.485431: $GPGSV,3,3,12,13,19,046,00,29,01,186,00,08,01,331,00,138,38,213,00*4E
2017-12-14 11:49:51 1513270191.598672: $GPZDA,164952.00,14,12,2017,00,00*69
2017-12-14 11:49:51 1513270191.598855: $GPGGA,164952,3946.9423,N,08404.9510,W,1,08,1.40,393.41,M,-33.324,M,,*75
2017-12-14 11:49:51 1513270191.598923: $GPRMC,164952,A,3946.9423,N,08404.9510,W,0.0000,0.000,141217,,*33
2017-12-14 11:49:51 1513270191.598983: $GPGSA,A,3,24,15,10,18,20,32,27,21,,,,,6.6,1.4,6.2*3C
2017-12-14 11:49:52 1513270192.148702: $GPZDA,164953.00,14,12,2017,00,00*68
2017-12-14 11:49:52 1513270192.148884: $GPGGA,164953,3946.9423,N,08404.9510,W,1,08,1.40,393.41,M,-33.324,M,,*74
2017-12-14 11:49:52 1513270192.148951: $GPRMC,164953,A,3946.9423,N,08404.9510,W,0.4207,39.347,141217,,*09
2017-12-14 11:49:52 1513270192.149012: $GPGSA,A,3,24,15,10,18,20,32,27,21,,,,,6.6,1.4,6.2*3C
2017-12-14 11:49:53 1513270193.148800: $GPZDA,164954.00,14,12,2017,00,00*6F
2017-12-14 11:49:53 1513270193.148991: $GPGGA,164954,3946.9427,N,08404.9510,W,1,08,1.40,392.65,M,-33.324,M,,*70
2017-12-14 11:49:53 1513270193.149058: $GPRMC,164954,A,3946.9427,N,08404.9510,W,0.6846,4.197,141217,,*36
2017-12-14 11:49:53 1513270193.149117: $GPGSA,A,3,24,15,10,18,20,32,27,21,,,,,6.6,1.4,6.2*3C
2017-12-14 11:49:54 1513270194.486242: $GPGSV,3,1,12,24,43,127,27,15,49,049,27,10,32,291,18,18,62,315,19*78
2017-12-14 11:49:54 1513270194.486422: $GPGSV,3,2,12,20,44,084,22,32,11,231,11,27,19,303,13,21,75,208,20*72
2017-12-14 11:49:54 1513270194.486488: $GPGSV,3,3,12,13,19,046,00,29,01,186,00,08,01,331,00,138,38,213,00*4E
2017-12-14 11:49:54 1513270194.599767: $GPZDA,164955.00,14,12,2017,00,00*6E
2017-12-14 11:49:54 1513270194.599963: $GPGGA,164955,3946.9427,N,08404.9510,W,1,08,1.40,392.65,M,-33.324,M,,*71
2017-12-14 11:49:54 1513270194.600033: $GPRMC,164955,A,3946.9427,N,08404.9510,W,0.0000,0.000,141217,,*30
2017-12-14 11:49:54 1513270194.600094: $GPGSA,A,3,24,15,10,18,20,32,27,21,,,,,6.6,1.4,6.2*3C
2017-12-14 11:49:55 1513270195.150655: $GPZDA,164956.00,14,12,2017,00,00*6D
2017-12-14 11:49:55 1513270195.150837: $GPGGA,164956,3946.9427,N,08404.9510,W,1,08,1.40,392.65,M,-33.324,M,,*72
2017-12-14 11:49:55 1513270195.150903: $GPRMC,164956,A,3946.9427,N,08404.9510,W,0.0000,0.000,141217,,*33
2017-12-14 11:49:55 1513270195.150963: $GPGSA,A,3,24,15,10,18,20,32,27,21,,,,,6.6,1.4,6.2*3C
