2017-12-01 15:41:37 1512160897.215055: {"class":"VERSION","release":"3.16","rev":"3.16-4","proto_major":3,"proto_minor":11}
2017-12-01 15:41:37 1512160897.215344: {"class":"DEVICES","devices":[{"class":"DEVICE","path":"/dev/ttyUSB0","driver":"SiRF","subtype":"9\u0006GSD4e_4.1.2-P1_RPATCH.05-F-GPS-4R-1510281 11/03/2015 307","activated":"2017-12-01T20:41:37.193Z","flags":1,"native":1,"bps":4800,"parity":"N","stopbits":1,"cycle":1.00}]}
2017-12-01 15:41:37 1512160897.215408: {"class":"WATCH","enable":true,"json":false,"nmea":true,"raw":0,"scaled":false,"timing":false,"split24":false,"pps":false}
2017-12-01 15:41:37 1512160897.369307: $GPZDA,204138.00,01,12,2017,00,00*6C
2017-12-01 15:41:37 1512160897.369418: $GPGGA,204138,3946.9579,N,08404.9841,W,2,11,0.80,302.49,M,-33.324,M,,*75
2017-12-01 15:41:37 1512160897.369463: $GPRMC,204138,A,3946.9579,N,08404.9841,W,0.0000,0.000,011217,,*31
2017-12-01 15:41:37 1512160897.369495: $GPGSA,A,3,1,10,11,12,14,18,24,25,31,32,138,,2.0,0.8,1.5*3B
2017-12-01 15:41:38 1512160898.710570: $GPGSV,3,1,12,01,13,319,38,10,71,129,48,11,10,303,32,12,25,073,38*71
2017-12-01 15:41:38 1512160898.710754: $GPGSV,3,2,12,14,53,289,42,18,39,133,47,24,15,045,44,25,28,117,41*70
2017-12-01 15:41:38 1512160898.710838: $GPGSV,3,3,12,31,33,211,50,32,67,325,49,22,01,310,00,138,38,213,46*46
2017-12-01 15:41:38 1512160898.823911: $GPZDA,204139.00,01,12,2017,00,00*6D
2017-12-01 15:41:38 1512160898.824099: $GPGGA,204139,3946.9579,N,08404.9841,W,2,11,0.80,302.49,M,-33.324,M,,*74
2017-12-01 15:41:38 1512160898.824166: $GPRMC,204139,A,3946.9579,N,08404.9841,W,0.0000,0.000,011217,,*30
2017-12-01 15:41:38 1512160898.824227: $GPGSA,A,3,1,10,11,12,14,18,24,25,31,32,138,,2.0,0.8,1.5*3B
2017-12-01 15:41:39 1512160899.449273: $GPZDA,204140.00,01,12,2017,00,00*63
2017-12-01 15:41:39 1512160899.449438: $GPGGA,204140,3946.9579,N,08404.9841,W,2,11,0.80,302.49,M,-33.324,M,,*7A
2017-12-01 15:41:39 1512160899.449505: $GPRMC,204140,A,3946.9579,N,08404.9841,W,0.0000,0.000,011217,,*3E
2017-12-01 15:41:39 1512160899.449566: $GPGSA,A,3,1,10,11,12,14,18,24,25,31,32,138,,2.0,0.8,1.5*3B
2017-12-01 15:41:40 1512160900.373927: $GPZDA,204141.00,01,12,2017,00,00*62
2017-12-01 15:41:40 1512160900.374110: $GPGGA,204141,3946.9579,N,08404.9841,W,2,11,0.80,302.49,M,-33.324,M,,*7B
2017-12-01 15:41:40 1512160900.374176: $GPRMC,204141,A,3946.9579,N,08404.9841,W,0.0000,0.000,011217,,*3F
2017-12-01 15:41:40 1512160900.374237: $GPGSA,A,3,1,10,11,12,14,18,24,25,31,32,138,,2.0,0.8,1.5*3B
2017-12-01 15:41:41 1512160901.695906: $GPGSV,3,1,12,01,13,319,38,10,71,129,48,11,10,303,32,12,25,073,37*7E
2017-12-01 15:41:41 1512160901.696109: $GPGSV,3,2,12,14,53,289,42,18,39,133,47,24,15,045,44,25,28,117,41*70
2017-12-01 15:41:41 1512160901.696176: $GPGSV,3,3,12,31,33,211,49,32,67,325,49,22,01,310,00,138,38,213,45*4D
2017-12-01 15:41:41 1512160901.809277: $GPZDA,204142.00,01,12,2017,00,00*61
2017-12-01 15:41:41 1512160901.809423: $GPGGA,204142,3946.9579,N,08404.9841,W,2,11,0.80,302.49,M,-33.324,M,,*78
2017-12-01 15:41:41 1512160901.809489: $GPRMC,204142,A,3946.9579,N,08404.9841,W,0.0000,0.000,011217,,*3C
2017-12-01 15:41:41 1512160901.809550: $GPGSA,A,3,1,10,11,12,14,18,24,25,31,32,138,,2.0,0.8,1.5*3B
2017-12-01 15:41:42 1512160902.353904: $GPZDA,204143.00,01,12,2017,00,00*60
2017-12-01 15:41:42 1512160902.354093: $GPGGA,204143,3946.9579,N,08404.9841,W,2,11,0.80,302.49,M,-33.324,M,,*79
2017-12-01 15:41:42 1512160902.354159: $GPRMC,204143,A,3946.9579,N,08404.9841,W,0.0000,0.000,011217,,*3D
2017-12-01 15:41:42 1512160902.354220: $GPGSA,A,3,1,10,11,12,14,18,24,25,31,32,138,,2.0,0.8,1.5*3B
2017-12-01 15:41:43 1512160903.359755: $GPZDA,204144.00,01,12,2017,00,00*67
2017-12-01 15:41:43 1512160903.359975: $GPGGA,204144,3946.9579,N,08404.9841,W,2,11,0.80,302.49,M,-33.324,M,,*7E
2017-12-01 15:41:43 1512160903.360043: $GPRMC,204144,A,3946.9579,N,08404.9841,W,0.0000,0.000,011217,,*3A
2017-12-01 15:41:43 1512160903.360105: $GPGSA,A,3,1,10,11,12,14,18,24,25,31,32,138,,2.0,0.8,1.5*3B
2017-12-01 15:41:44 1512160904.693757: $GPGSV,3,1,12,01,13,319,39,10,71,129,47,11,10,303,34,12,25,073,38*79
2017-12-01 15:41:44 1512160904.694027: $GPGSV,3,2,12,14,53,289,42,18,39,133,47,24,15,045,44,25,28,117,40*71
2017-12-01 15:41:44 1512160904.694096: $GPGSV,3,3,12,31,33,211,50,32,67,325,49,22,01,310,00,138,38,213,46*46
2017-12-01 15:41:44 1512160904.807135: $GPZDA,204145.00,01,12,2017,00,00*66
2017-12-01 15:41:44 1512160904.807302: $GPGGA,204145,3946.9579,N,08404.9841,W,2,11,0.80,302.49,M,-33.324,M,,*7F
2017-12-01 15:41:44 1512160904.807369: $GPRMC,204145,A,3946.9579,N,08404.9841,W,0.0000,0.000,011217,,*3B
2017-12-01 15:41:44 1512160904.807431: $GPGSA,A,3,1,10,11,12,14,18,24,25,31,32,138,,2.0,0.8,1.5*3B
2017-12-01 15:41:45 1512160905.358051: $GPZDA,204146.00,01,12,2017,00,00*65
2017-12-01 15:41:45 1512160905.358248: $GPGGA,204146,3946.9579,N,08404.9841,W,2,11,0.80,302.49,M,-33.324,M,,*7C
2017-12-01 15:41:45 1512160905.358315: $GPRMC,204146,A,3946.9579,N,08404.9841,W,0.0000,0.000,011217,,*38
2017-12-01 15:41:45 1512160905.358376: $GPGSA,A,3,1,10,11,12,14,18,24,25,31,32,138,,2.0,0.8,1.5*3B
2017-12-01 15:41:46 1512160906.357661: $GPZDA,204147.00,01,12,2017,00,00*64
2017-12-01 15:41:46 1512160906.357873: $GPGGA,204147,3946.9579,N,08404.9841,W,2,11,0.80,302.49,M,-33.324,M,,*7D
2017-12-01 15:41:46 1512160906.357958: $GPRMC,204147,A,3946.9579,N,08404.9841,W,0.0000,0.000,011217,,*39
2017-12-01 15:41:46 1512160906.358021: $GPGSA,A,3,1,10,11,12,14,18,24,25,31,32,138,,2.0,0.8,1.5*3B
2017-12-01 15:41:47 1512160907.693438: $GPGSV,3,1,12,01,13,319,39,10,71,129,47,11,10,303,32,12,25,073,38*7F
2017-12-01 15:41:47 1512160907.693599: $GPGSV,3,2,12,14,53,289,42,18,39,133,47,24,15,045,44,25,28,117,41*70
2017-12-01 15:41:47 1512160907.693665: $GPGSV,3,3,12,31,33,211,49,32,67,325,49,22,01,310,00,138,38,213,45*4D
2017-12-01 15:41:47 1512160907.805504: $GPZDA,204148.00,01,12,2017,00,00*6B
2017-12-01 15:41:47 1512160907.805678: $GPGGA,204148,3946.9579,N,08404.9841,W,2,11,0.80,302.49,M,-33.324,M,,*72
2017-12-01 15:41:47 1512160907.805745: $GPRMC,204148,A,3946.9579,N,08404.9841,W,0.0000,0.000,011217,,*36
2017-12-01 15:41:47 1512160907.805832: $GPGSA,A,3,1,10,11,12,14,18,24,25,31,32,138,,2.0,0.8,1.5*3B
2017-12-01 15:41:48 1512160908.352709: $GPZDA,204149.00,01,12,2017,00,00*6A
2017-12-01 15:41:48 1512160908.352898: $GPGGA,204149,3946.9579,N,08404.9841,W,2,11,0.80,302.49,M,-33.324,M,,*73
2017-12-01 15:41:48 1512160908.352982: $GPRMC,204149,A,3946.9579,N,08404.9841,W,0.0000,0.000,011217,,*37
2017-12-01 15:41:48 1512160908.353043: $GPGSA,A,3,1,10,11,12,14,18,24,25,31,32,138,,2.0,0.8,1.5*3B
2017-12-01 15:41:49 1512160909.360742: $GPZDA,204150.00,01,12,2017,00,00*62
2017-12-01 15:41:49 1512160909.360953: $GPGGA,204150,3946.9579,N,08404.9841,W,2,11,0.80,302.49,M,-33.324,M,,*7B
2017-12-01 15:41:49 1512160909.361022: $GPRMC,204150,A,3946.9579,N,08404.9841,W,0.0000,0.000,011217,,*3F
2017-12-01 15:41:49 1512160909.361083: $GPGSA,A,3,1,10,11,12,14,18,24,25,31,32,138,,2.0,0.8,1.5*3B
2017-12-01 15:41:50 1512160910.687492: $GPGSV,3,1,12,01,13,319,40,10,71,129,47,11,10,303,29,12,25,073,38*7B
2017-12-01 15:41:50 1512160910.687675: $GPGSV,3,2,12,14,53,289,42,18,39,133,47,24,15,045,44,25,28,117,40*71
2017-12-01 15:41:50 1512160910.687742: $GPGSV,3,3,12,31,33,211,49,32,67,325,49,22,01,310,00,138,38,213,46*4E
2017-12-01 15:41:50 1512160910.800868: $GPZDA,204151.00,01,12,2017,00,00*63
2017-12-01 15:41:50 1512160910.801058: $GPGGA,204151,3946.9579,N,08404.9841,W,2,11,0.80,302.49,M,-33.324,M,,*7A
2017-12-01 15:41:50 1512160910.801126: $GPRMC,204151,A,3946.9579,N,08404.9841,W,0.0000,0.000,011217,,*3E
2017-12-01 15:41:50 1512160910.801188: $GPGSA,A,3,1,10,11,12,14,18,24,25,31,32,138,,2.0,0.8,1.5*3B
2017-12-01 15:41:51 1512160911.357977: $GPZDA,204152.00,01,12,2017,00,00*60
2017-12-01 15:41:51 1512160911.358144: $GPGGA,204152,3946.9579,N,08404.9841,W,2,11,0.80,302.49,M,-33.324,M,,*79
2017-12-01 15:41:51 1512160911.358211: $GPRMC,204152,A,3946.9579,N,08404.9841,W,0.0000,0.000,011217,,*3D
2017-12-01 15:41:51 1512160911.358273: $GPGSA,A,3,1,10,11,12,14,18,24,25,31,32,138,,2.0,0.8,1.5*3B
2017-12-01 15:41:52 1512160912.357816: $GPZDA,204153.00,01,12,2017,00,00*61
2017-12-01 15:41:52 1512160912.358036: $GPGGA,204153,3946.9579,N,08404.9841,W,2,11,0.80,302.49,M,-33.324,M,,*78
2017-12-01 15:41:52 1512160912.358123: $GPRMC,204153,A,3946.9579,N,08404.9841,W,0.0000,0.000,011217,,*3C
2017-12-01 15:41:52 1512160912.358186: $GPGSA,A,3,1,10,11,12,14,18,24,25,31,32,138,,2.0,0.8,1.5*3B
2017-12-01 15:41:53 1512160913.694616: $GPGSV,3,1,12,01,13,319,41,10,71,129,48,11,10,303,38,12,25,073,39*74
2017-12-01 15:41:53 1512160913.694802: $GPGSV,3,2,12,14,53,289,42,18,39,133,47,24,15,045,44,25,28,117,40*71
2017-12-01 15:41:53 1512160913.694868: $GPGSV,3,3,12,31,33,211,50,32,67,325,49,22,01,310,00,138,38,213,46*46
2017-12-01 15:41:53 1512160913.808050: $GPZDA,204154.00,01,12,2017,00,00*66
2017-12-01 15:41:53 1512160913.808216: $GPGGA,204154,3946.9579,N,08404.9841,W,2,11,0.80,302.49,M,-33.324,M,,*7F
2017-12-01 15:41:53 1512160913.808281: $GPRMC,204154,A,3946.9579,N,08404.9841,W,0.0000,0.000,011217,,*3B
2017-12-01 15:41:53 1512160913.808342: $GPGSA,A,3,1,10,11,12,14,18,24,25,31,32,138,,2.0,0.8,1.5*3B
2017-12-01 15:41:54 1512160914.433515: $GPZDA,204155.00,01,12,2017,00,00*67
2017-12-01 15:41:54 1512160914.433707: $GPGGA,204155,3946.9579,N,08404.9841,W,2,11,0.80,302.49,M,-33.324,M,,*7E
2017-12-01 15:41:54 1512160914.433776: $GPRMC,204155,A,3946.9579,N,08404.9841,W,0.0000,0.000,011217,,*3A
2017-12-01 15:41:54 1512160914.433837: $GPGSA,A,3,1,10,11,12,14,18,24,25,31,32,138,,2.0,0.8,1.5*3B
2017-12-01 15:41:55 1512160915.357049: $GPZDA,204156.00,01,12,2017,00,00*64
2017-12-01 15:41:55 1512160915.357222: $GPGGA,204156,3946.9579,N,08404.9841,W,2,11,0.80,302.49,M,-33.324,M,,*7D
2017-12-01 15:41:55 1512160915.357287: $GPRMC,204156,A,3946.9579,N,08404.9841,W,0.0000,0.000,011217,,*39
2017-12-01 15:41:55 1512160915.357348: $GPGSA,A,3,1,10,11,12,14,18,24,25,31,32,138,,2.0,0.8,1.5*3B
2017-12-01 15:41:56 1512160916.687547: $GPGSV,3,1,12,01,13,319,42,10,71,129,48,11,10,303,38,12,25,073,41*78
2017-12-01 15:41:56 1512160916.687785: $GPGSV,3,2,12,14,53,289,42,18,39,133,47,24,15,045,44,25,28,117,41*70
2017-12-01 15:41:56 1512160916.687876: $GPGSV,3,3,12,31,33,211,49,32,67,325,49,22,01,310,00,138,38,213,45*4D
2017-12-01 15:41:56 1512160916.801506: $GPZDA,204157.00,01,12,2017,00,00*65
2017-12-01 15:41:56 1512160916.801729: $GPGGA,204157,3946.9579,N,08404.9841,W,2,11,0.80,302.49,M,-33.324,M,,*7C
2017-12-01 15:41:56 1512160916.801804: $GPRMC,204157,A,3946.9579,N,08404.9841,W,0.0000,0.000,011217,,*38
2017-12-01 15:41:56 1512160916.801867: $GPGSA,A,3,1,10,11,12,14,18,24,25,31,32,138,,2.0,0.8,1.5*3B
