2017-12-01 12:09:00 1512148140.677331: {"class":"VERSION","release":"3.16","rev":"3.16-4","proto_major":3,"proto_minor":11}
2017-12-01 12:09:00 1512148140.677841: {"class":"DEVICES","devices":[{"class":"DEVICE","path":"/dev/ttyUSB0","driver":"SiRF","subtype":"9\u0006GSD4e_4.1.2-P1_RPATCH.05-F-GPS-4R-1510281 11/03/2015 307","activated":"2017-12-01T17:09:00.322Z","flags":1,"native":1,"bps":4800,"parity":"N","stopbits":1,"cycle":1.00}]}
2017-12-01 12:09:00 1512148140.677959: {"class":"WATCH","enable":true,"json":false,"nmea":true,"raw":0,"scaled":false,"timing":false,"split24":false,"pps":false}
2017-12-01 12:09:00 1512148140.771877: $GPGSV,3,1,12,10,21,280,44,13,33,046,45,15,65,054,43,18,51,295,46*71
2017-12-01 12:09:00 1512148140.772040: $GPGSV,3,2,12,20,55,067,46,21,76,285,44,24,30,141,44,27,14,316,38*79
2017-12-01 12:09:00 1512148140.772108: $GPGSV,3,3,12,29,14,190,32,05,06,084,26,04,03,135,00,138,38,213,46*45
2017-12-01 12:09:00 1512148140.885362: $GPZDA,170901.00,01,12,2017,00,00*6E
2017-12-01 12:09:00 1512148140.885530: $GPGGA,170901,3946.9581,N,08404.9861,W,2,11,0.80,288.01,M,-33.324,M,,*7D
2017-12-01 12:09:00 1512148140.885597: $GPRMC,170901,A,3946.9581,N,08404.9861,W,0.0000,0.000,011217,,*36
2017-12-01 12:09:00 1512148140.885678: $GPGSA,A,3,10,13,15,18,20,21,24,27,29,5,138,,2.0,0.8,1.5*34
2017-12-01 12:09:01 1512148141.437418: $GPZDA,170902.00,01,12,2017,00,00*6D
2017-12-01 12:09:01 1512148141.437588: $GPGGA,170902,3946.9581,N,08404.9861,W,2,11,0.80,288.01,M,-33.324,M,,*7E
2017-12-01 12:09:01 1512148141.437676: $GPRMC,170902,A,3946.9581,N,08404.9861,W,0.0000,0.000,011217,,*35
2017-12-01 12:09:01 1512148141.437739: $GPGSA,A,3,10,13,15,18,20,21,24,27,29,5,138,,2.0,0.8,1.5*34
2017-12-01 12:09:02 1512148142.420830: $GPZDA,170903.00,01,12,2017,00,00*6C
2017-12-01 12:09:02 1512148142.421001: $GPGGA,170903,3946.9581,N,08404.9861,W,2,11,0.80,288.01,M,-33.324,M,,*7F
2017-12-01 12:09:02 1512148142.421068: $GPRMC,170903,A,3946.9581,N,08404.9861,W,0.0000,0.000,011217,,*34
2017-12-01 12:09:02 1512148142.421129: $GPGSA,A,3,10,13,15,18,20,21,24,27,29,5,138,,2.0,0.8,1.5*34
2017-12-01 12:09:03 1512148143.771497: $GPGSV,3,1,12,10,21,280,44,13,33,046,45,15,65,054,43,18,51,295,46*71
2017-12-01 12:09:03 1512148143.771709: $GPGSV,3,2,12,20,55,067,46,21,76,285,44,24,30,141,44,27,14,316,37*76
2017-12-01 12:09:03 1512148143.771794: $GPGSV,3,3,12,29,14,190,32,05,06,084,26,04,03,135,00,138,38,213,46*45
2017-12-01 12:09:03 1512148143.885040: $GPZDA,170904.00,01,12,2017,00,00*6B
2017-12-01 12:09:03 1512148143.885213: $GPGGA,170904,3946.9581,N,08404.9861,W,2,11,0.80,288.01,M,-33.324,M,,*78
2017-12-01 12:09:03 1512148143.885280: $GPRMC,170904,A,3946.9581,N,08404.9861,W,0.0000,0.000,011217,,*33
2017-12-01 12:09:03 1512148143.885342: $GPGSA,A,3,10,13,15,18,20,21,24,27,29,5,138,,2.0,0.8,1.5*34
2017-12-01 12:09:04 1512148144.510245: $GPZDA,170905.00,01,12,2017,00,00*6A
2017-12-01 12:09:04 1512148144.510413: $GPGGA,170905,3946.9581,N,08404.9854,W,2,11,0.80,288.09,M,-33.324,M,,*77
2017-12-01 12:09:04 1512148144.510479: $GPRMC,170905,A,3946.9581,N,08404.9854,W,0.0000,0.000,011217,,*34
2017-12-01 12:09:04 1512148144.510540: $GPGSA,A,3,10,13,15,18,20,21,24,27,29,5,138,,2.0,0.8,1.5*34
2017-12-01 12:09:05 1512148145.421139: $GPZDA,170906.00,01,12,2017,00,00*69
2017-12-01 12:09:05 1512148145.421302: $GPGGA,170906,3946.9581,N,08404.9854,W,2,11,0.80,288.09,M,-33.324,M,,*74
2017-12-01 12:09:05 1512148145.421426: $GPRMC,170906,A,3946.9581,N,08404.9854,W,0.0000,0.000,011217,,*37
2017-12-01 12:09:05 1512148145.421491: $GPGSA,A,3,10,13,15,18,20,21,24,27,29,5,138,,2.0,0.8,1.5*34
2017-12-01 12:09:06 1512148146.774303: $GPGSV,3,1,12,10,21,280,44,13,33,046,45,15,65,054,43,18,51,295,46*71
2017-12-01 12:09:06 1512148146.774487: $GPGSV,3,2,12,20,55,067,46,21,76,285,44,24,30,141,44,27,14,316,37*76
2017-12-01 12:09:06 1512148146.774554: $GPGSV,3,3,12,29,14,190,32,05,06,084,26,04,03,135,00,138,38,213,46*45
2017-12-01 12:09:06 1512148146.887792: $GPZDA,170907.00,01,12,2017,00,00*68
2017-12-01 12:09:06 1512148146.887962: $GPGGA,170907,3946.9581,N,08404.9854,W,2,11,0.80,288.09,M,-33.324,M,,*75
2017-12-01 12:09:06 1512148146.888103: $GPRMC,170907,A,3946.9581,N,08404.9854,W,0.0000,0.000,011217,,*36
2017-12-01 12:09:06 1512148146.888167: $GPGSA,A,3,10,13,15,18,20,21,24,27,29,5,138,,2.0,0.8,1.5*34
2017-12-01 12:09:07 1512148147.423586: $GPZDA,170908.00,01,12,2017,00,00*67
2017-12-01 12:09:07 1512148147.423793: $GPGGA,170908,3946.9581,N,08404.9854,W,2,11,0.80,288.09,M,-33.324,M,,*7A
2017-12-01 12:09:07 1512148147.423861: $GPRMC,170908,A,3946.9581,N,08404.9854,W,0.0000,0.000,011217,,*39
2017-12-01 12:09:07 1512148147.423923: $GPGSA,A,3,10,13,15,18,20,21,24,27,29,5,138,,2.0,0.8,1.5*34
2017-12-01 12:09:08 1512148148.414452: $GPZDA,170909.00,01,12,2017,00,00*66
2017-12-01 12:09:08 1512148148.414644: $GPGGA,170909,3946.9581,N,08404.9854,W,2,11,0.80,288.09,M,-33.324,M,,*7B
2017-12-01 12:09:08 1512148148.414713: $GPRMC,170909,A,3946.9581,N,08404.9854,W,0.0000,0.000,011217,,*38
2017-12-01 12:09:08 1512148148.414792: $GPGSA,A,3,10,13,15,18,20,21,24,27,29,5,138,,2.0,0.8,1.5*34
2017-12-01 12:09:09 1512148149.774653: $GPGSV,3,1,12,10,21,280,44,13,33,046,45,15,65,054,43,18,51,295,46*71
2017-12-01 12:09:09 1512148149.774850: $GPGSV,3,2,12,20,55,067,46,21,76,285,44,24,30,141,44,27,14,316,38*79
2017-12-01 12:09:09 1512148149.774920: $GPGSV,3,3,12,29,14,190,32,05,06,084,26,04,03,135,00,138,38,213,46*45
2017-12-01 12:09:09 1512148149.888092: $GPZDA,170910.00,01,12,2017,00,00*6E
2017-12-01 12:09:09 1512148149.888271: $GPGGA,170910,3946.9581,N,08404.9854,W,2,11,0.80,288.09,M,-33.324,M,,*73
2017-12-01 12:09:09 1512148149.888340: $GPRMC,170910,A,3946.9581,N,08404.9854,W,0.0000,0.000,011217,,*30
2017-12-01 12:09:09 1512148149.888401: $GPGSA,A,3,10,13,15,18,20,21,24,27,29,5,138,,2.0,0.8,1.5*34
2017-12-01 12:09:10 1512148150.420133: $GPZDA,170911.00,01,12,2017,00,00*6F
2017-12-01 12:09:10 1512148150.420306: $GPGGA,170911,3946.9581,N,08404.9854,W,2,11,0.80,288.09,M,-33.324,M,,*72
2017-12-01 12:09:10 1512148150.420373: $GPRMC,170911,A,3946.9581,N,08404.9854,W,0.0000,0.000,011217,,*31
2017-12-01 12:09:10 1512148150.420434: $GPGSA,A,3,10,13,15,18,20,21,24,27,29,5,138,,2.0,0.8,1.5*34
