2018-01-12 02:49:54 1515743394.983253: {"class":"VERSION","release":"3.16","rev":"3.16-4","proto_major":3,"proto_minor":11}
2018-01-12 02:49:54 1515743394.983622: {"class":"DEVICES","devices":[{"class":"DEVICE","path":"/dev/ttyUSB0","driver":"SiRF","subtype":"9\u0006GSD4e_4.1.2-P1_RPATCH.05-F-GPS-4R-1510281 11/03/2015 307","activated":"2018-01-12T07:49:54.483Z","flags":1,"native":1,"bps":4800,"parity":"N","stopbits":1,"cycle":1.00}]}
2018-01-12 02:49:54 1515743394.983747: {"class":"WATCH","enable":true,"json":false,"nmea":true,"raw":0,"scaled":false,"timing":false,"split24":false,"pps":false}
2018-01-12 02:49:55 1515743395.342951: $GPZDA,074956.00,12,01,2018,00,00*66
2018-01-12 02:49:55 1515743395.343124: $GPGGA,074956,3946.9669,N,08404.9833,W,2,12,1.00,290.33,M,-33.324,M,,*7A
2018-01-12 02:49:55 1515743395.343192: $GPRMC,074956,A,3946.9669,N,08404.9833,W,0.0000,0.000,120118,,*3C
2018-01-12 02:49:55 1515743395.343255: $GPGSA,A,3,2,6,12,17,19,24,3,5,9,25,28,138,2.4,1.0,2.1*31
2018-01-12 02:49:56 1515743396.674948: $GPGSV,3,1,12,02,51,256,45,06,78,336,51,12,37,310,50,17,46,085,45*7D
2018-01-12 02:49:56 1515743396.675114: $GPGSV,3,2,12,19,62,061,42,24,14,261,22,03,10,036,35,05,07,195,26*7A
2018-01-12 02:49:56 1515743396.675180: $GPGSV,3,3,12,09,04,105,22,25,02,322,20,28,08,151,18,138,38,213,38*43
2018-01-12 02:49:56 1515743396.788431: $GPZDA,074957.00,12,01,2018,00,00*67
2018-01-12 02:49:56 1515743396.788607: $GPGGA,074957,3946.9669,N,08404.9833,W,2,12,1.00,290.33,M,-33.324,M,,*7B
2018-01-12 02:49:56 1515743396.788677: $GPRMC,074957,A,3946.9669,N,08404.9833,W,0.0000,0.000,120118,,*3D
2018-01-12 02:49:56 1515743396.788743: $GPGSA,A,3,2,6,12,17,19,24,3,5,9,25,28,138,2.4,1.0,2.1*31
2018-01-12 02:49:57 1515743397.337980: $GPZDA,074958.00,12,01,2018,00,00*68
2018-01-12 02:49:57 1515743397.338149: $GPGGA,074958,3946.9669,N,08404.9833,W,2,12,1.00,290.33,M,-33.324,M,,*74
2018-01-12 02:49:57 1515743397.338217: $GPRMC,074958,A,3946.9669,N,08404.9833,W,0.0000,0.000,120118,,*32
2018-01-12 02:49:57 1515743397.338278: $GPGSA,A,3,2,6,12,17,19,24,3,5,9,25,28,138,2.4,1.0,2.1*31
2018-01-12 02:49:58 1515743398.344624: $GPZDA,074959.00,12,01,2018,00,00*69
2018-01-12 02:49:58 1515743398.344797: $GPGGA,074959,3946.9670,N,08404.9834,W,2,12,0.80,291.73,M,-33.325,M,,*77
2018-01-12 02:49:58 1515743398.344866: $GPRMC,074959,A,3946.9670,N,08404.9834,W,0.0000,0.000,120118,,*3C
2018-01-12 02:49:58 1515743398.344927: $GPGSA,A,3,2,6,12,17,19,24,3,5,9,25,28,138,2.4,0.8,2.1*38
2018-01-12 02:49:59 1515743399.674082: $GPGSV,3,1,12,02,51,256,45,06,78,336,51,12,37,310,50,17,46,085,45*7D
2018-01-12 02:49:59 1515743399.674296: $GPGSV,3,2,12,19,62,061,42,24,14,261,14,03,10,036,36,05,07,195,26*7C
2018-01-12 02:49:59 1515743399.674366: $GPGSV,3,3,12,28,08,151,00,25,02,322,20,04,22,244,00,138,38,213,38*45
2018-01-12 02:49:59 1515743399.787830: $GPZDA,075000.00,12,01,2018,00,00*6D
2018-01-12 02:49:59 1515743399.787999: $GPGGA,075000,3946.9670,N,08404.9834,W,2,10,1.00,291.73,M,-33.325,M,,*78
2018-01-12 02:49:59 1515743399.788065: $GPRMC,075000,A,3946.9670,N,08404.9834,W,0.0000,0.000,120118,,*38
2018-01-12 02:49:59 1515743399.788128: $GPGSA,A,3,2,6,12,17,19,24,3,5,25,138,,,2.4,1.0,2.1*02
2018-01-12 02:50:00 1515743400.375936: $GPZDA,075001.00,12,01,2018,00,00*6C
2018-01-12 02:50:00 1515743400.376114: $GPGGA,075001,3946.9670,N,08404.9834,W,2,10,1.00,291.73,M,-33.325,M,,*79
2018-01-12 02:50:00 1515743400.376181: $GPRMC,075001,A,3946.9670,N,08404.9834,W,0.0000,0.000,120118,,*39
2018-01-12 02:50:00 1515743400.376244: $GPGSA,A,3,2,6,12,17,19,24,3,5,25,138,,,2.4,1.0,2.1*02
2018-01-12 02:50:01 1515743401.376924: $GPZDA,075002.00,12,01,2018,00,00*6F
2018-01-12 02:50:01 1515743401.377134: $GPGGA,075002,3946.9670,N,08404.9834,W,2,10,1.00,291.73,M,-33.325,M,,*7A
2018-01-12 02:50:01 1515743401.377206: $GPRMC,075002,A,3946.9670,N,08404.9834,W,0.0000,0.000,120118,,*3A
2018-01-12 02:50:01 1515743401.377268: $GPGSA,A,3,2,6,12,17,19,24,3,5,25,138,,,2.4,1.0,2.1*02
2018-01-12 02:50:02 1515743402.721160: $GPGSV,3,1,12,02,51,256,45,06,78,336,51,12,37,310,50,17,46,085,45*7D
2018-01-12 02:50:02 1515743402.721372: $GPGSV,3,2,12,19,62,061,42,24,14,261,26,03,10,036,37,05,07,195,26*7C
2018-01-12 02:50:02 1515743402.721443: $GPGSV,3,3,12,09,04,105,00,25,02,322,26,23,04,072,00,138,38,213,36*45
2018-01-12 02:50:02 1515743402.834568: $GPZDA,075003.00,12,01,2018,00,00*6E
2018-01-12 02:50:02 1515743402.834745: $GPGGA,075003,3946.9670,N,08404.9834,W,2,10,1.00,291.73,M,-33.325,M,,*7B
2018-01-12 02:50:02 1515743402.834815: $GPRMC,075003,A,3946.9670,N,08404.9834,W,0.0000,0.000,120118,,*3B
2018-01-12 02:50:02 1515743402.834876: $GPGSA,A,3,2,6,12,17,19,24,3,5,25,138,,,2.4,1.0,2.1*02
2018-01-12 02:50:03 1515743403.459920: $GPZDA,075004.00,12,01,2018,00,00*69
2018-01-12 02:50:03 1515743403.460096: $GPGGA,075004,3946.9670,N,08404.9834,W,2,10,1.00,291.73,M,-33.325,M,,*7C
2018-01-12 02:50:03 1515743403.460163: $GPRMC,075004,A,3946.9670,N,08404.9834,W,0.0000,0.000,120118,,*3C
2018-01-12 02:50:03 1515743403.460226: $GPGSA,A,3,2,6,12,17,19,24,3,5,25,138,,,2.4,1.0,2.1*02
2018-01-12 02:50:04 1515743404.370182: $GPZDA,075005.00,12,01,2018,00,00*68
2018-01-12 02:50:04 1515743404.373480: $GPGGA,075005,3946.9666,N,08404.9835,W,2,10,1.00,292.50,M,-33.324,M,,*78
2018-01-12 02:50:04 1515743404.373689: $GPRMC,075005,A,3946.9666,N,08404.9835,W,0.0000,0.000,120118,,*3B
2018-01-12 02:50:04 1515743404.373756: $GPGSA,A,3,2,6,12,17,19,24,3,5,25,138,,,2.4,1.0,2.1*02
2018-01-12 02:50:05 1515743405.676526: $GPGSV,3,1,12,02,51,256,45,06,78,336,51,12,37,310,50,17,46,085,45*7D
2018-01-12 02:50:05 1515743405.676716: $GPGSV,3,2,12,19,62,061,42,24,14,261,26,03,10,036,38,05,07,195,26*73
2018-01-12 02:50:05 1515743405.676782: $GPGSV,3,3,12,28,08,151,16,25,02,322,18,04,22,244,00,138,38,213,36*47
2018-01-12 02:50:05 1515743405.790259: $GPZDA,075006.00,12,01,2018,00,00*6B
2018-01-12 02:50:05 1515743405.790431: $GPGGA,075006,3946.9666,N,08404.9835,W,2,10,1.00,292.50,M,-33.324,M,,*7B
2018-01-12 02:50:05 1515743405.790499: $GPRMC,075006,A,3946.9666,N,08404.9835,W,0.0000,0.000,120118,,*38
2018-01-12 02:50:05 1515743405.790562: $GPGSA,A,3,2,6,12,17,19,24,3,5,25,138,,,2.4,1.0,2.1*02
2018-01-12 02:50:06 1515743406.378394: $GPZDA,075007.00,12,01,2018,00,00*6A
2018-01-12 02:50:06 1515743406.378597: $GPGGA,075007,3946.9666,N,08404.9835,W,2,10,1.00,292.50,M,-33.324,M,,*7A
2018-01-12 02:50:06 1515743406.378671: $GPRMC,075007,A,3946.9666,N,08404.9835,W,0.0000,0.000,120118,,*39
2018-01-12 02:50:06 1515743406.378737: $GPGSA,A,3,2,6,12,17,19,24,3,5,25,138,,,2.4,1.0,2.1*02
2018-01-12 02:50:07 1515743407.382211: $GPZDA,075008.00,12,01,2018,00,00*65
2018-01-12 02:50:07 1515743407.382412: $GPGGA,075008,3946.9666,N,08404.9835,W,2,10,1.00,292.50,M,-33.324,M,,*75
2018-01-12 02:50:07 1515743407.382480: $GPRMC,075008,A,3946.9666,N,08404.9835,W,0.0000,0.000,120118,,*36
2018-01-12 02:50:07 1515743407.382545: $GPGSA,A,3,2,6,12,17,19,24,3,5,25,138,,,2.4,1.0,2.1*02
2018-01-12 02:50:08 1515743408.710632: $GPGSV,3,1,12,02,51,256,45,06,78,336,51,12,37,310,50,17,46,085,45*7D
2018-01-12 02:50:08 1515743408.710801: $GPGSV,3,2,12,19,62,061,43,24,14,261,26,03,10,036,38,05,07,195,27*73
2018-01-12 02:50:08 1515743408.710867: $GPGSV,3,3,12,28,08,151,17,25,02,322,19,04,22,244,00,138,38,213,38*49
2018-01-12 02:50:08 1515743408.823996: $GPZDA,075009.00,12,01,2018,00,00*64
2018-01-12 02:50:08 1515743408.824174: $GPGGA,075009,3946.9666,N,08404.9835,W,2,11,1.00,292.50,M,-33.324,M,,*75
2018-01-12 02:50:08 1515743408.824306: $GPRMC,075009,A,3946.9666,N,08404.9835,W,0.0000,0.000,120118,,*37
2018-01-12 02:50:08 1515743408.824369: $GPGSA,A,3,2,6,12,17,19,24,3,5,28,25,138,,2.4,1.0,2.1*08
2018-01-12 02:50:09 1515743409.378653: $GPZDA,075010.00,12,01,2018,00,00*6C
2018-01-12 02:50:09 1515743409.379233: $GPGGA,075010,3946.9666,N,08404.9835,W,2,11,1.00,292.50,M,-33.324,M,,*7D
2018-01-12 02:50:09 1515743409.382784: $GPRMC,075010,A,3946.9666,N,08404.9835,W,0.0000,0.000,120118,,*3F
2018-01-12 02:50:09 1515743409.382863: $GPGSA,A,3,2,6,12,17,19,24,3,5,28,25,138,,2.4,1.0,2.1*08
2018-01-12 02:50:10 1515743410.337245: $GPZDA,075011.00,12,01,2018,00,00*6D
2018-01-12 02:50:10 1515743410.337467: $GPGGA,075011,3946.9666,N,08404.9835,W,2,11,1.00,292.50,M,-33.324,M,,*7C
2018-01-12 02:50:10 1515743410.337537: $GPRMC,075011,A,3946.9666,N,08404.9835,W,0.0000,0.000,120118,,*3E
2018-01-12 02:50:10 1515743410.337602: $GPGSA,A,3,2,6,12,17,19,24,3,5,28,25,138,,2.4,1.0,2.1*08
2018-01-12 02:50:11 1515743411.721499: $GPGSV,3,1,12,02,51,256,45,06,78,336,51,12,37,310,50,17,46,085,45*7D
2018-01-12 02:50:11 1515743411.721667: $GPGSV,3,2,12,19,62,061,42,24,14,261,26,03,10,036,39,05,07,195,27*73
2018-01-12 02:50:11 1515743411.721734: $GPGSV,3,3,12,28,08,151,17,09,04,105,02,23,04,072,01,138,38,213,40*44
2018-01-12 02:50:11 1515743411.834920: $GPZDA,075012.00,12,01,2018,00,00*6E
2018-01-12 02:50:11 1515743411.835094: $GPGGA,075012,3946.9663,N,08404.9835,W,2,10,1.00,293.26,M,-33.324,M,,*7B
2018-01-12 02:50:11 1515743411.835164: $GPRMC,075012,A,3946.9663,N,08404.9835,W,0.0000,0.000,120118,,*38
2018-01-12 02:50:11 1515743411.835227: $GPGSA,A,3,2,6,12,17,19,24,3,5,28,138,,,2.4,1.0,2.1*0F
2018-01-12 02:50:12 1515743412.337041: $GPZDA,075013.00,12,01,2018,00,00*6F
2018-01-12 02:50:12 1515743412.337357: $GPGGA,075013,3946.9663,N,08404.9835,W,2,10,1.00,293.26,M,-33.324,M,,*7A
2018-01-12 02:50:12 1515743412.337433: $GPRMC,075013,A,3946.9663,N,08404.9835,W,0.0000,0.000,120118,,*39
2018-01-12 02:50:12 1515743412.337496: $GPGSA,A,3,2,6,12,17,19,24,3,5,28,138,,,2.4,1.0,2.1*0F
2018-01-12 02:50:13 1515743413.372505: $GPZDA,075014.00,12,01,2018,00,00*68
2018-01-12 02:50:13 1515743413.372676: $GPGGA,075014,3946.9667,N,08404.9835,W,2,10,0.80,293.90,M,-33.324,M,,*7D
2018-01-12 02:50:13 1515743413.372742: $GPRMC,075014,A,3946.9667,N,08404.9835,W,0.0000,0.000,120118,,*3A
2018-01-12 02:50:13 1515743413.372803: $GPGSA,A,3,2,6,12,17,19,24,3,5,28,138,,,2.4,0.8,2.1*06
2018-01-12 02:50:14 1515743414.715593: $GPGSV,3,1,12,02,51,256,45,06,78,336,51,12,37,310,50,17,46,085,45*7D
2018-01-12 02:50:14 1515743414.715777: $GPGSV,3,2,12,19,62,061,43,24,14,261,27,03,10,036,40,05,07,195,27*7D
2018-01-12 02:50:14 1515743414.715844: $GPGSV,3,3,12,28,08,151,17,25,02,322,20,04,22,244,00,138,38,213,38*43
2018-01-12 02:50:14 1515743414.829050: $GPZDA,075015.00,12,01,2018,00,00*69
2018-01-12 02:50:14 1515743414.829224: $GPGGA,075015,3946.9667,N,08404.9835,W,2,11,1.00,293.90,M,-33.324,M,,*74
2018-01-12 02:50:14 1515743414.829293: $GPRMC,075015,A,3946.9667,N,08404.9835,W,0.0000,0.000,120118,,*3B
2018-01-12 02:50:14 1515743414.829353: $GPGSA,A,3,2,6,12,17,19,24,3,5,28,25,138,,2.4,1.0,2.1*08
