2017-12-31 16:49:45 1514756985.261856: {"class":"VERSION","release":"3.16","rev":"3.16-4","proto_major":3,"proto_minor":11}
2017-12-31 16:49:45 1514756985.262218: {"class":"DEVICES","devices":[{"class":"DEVICE","path":"/dev/ttyUSB0","driver":"SiRF","activated":"2017-12-31T21:49:45.248Z","flags":1,"native":1,"bps":4800,"parity":"N","stopbits":1,"cycle":1.00}]}
2017-12-31 16:49:45 1514756985.262325: {"class":"WATCH","enable":true,"json":false,"nmea":true,"raw":0,"scaled":false,"timing":false,"split24":false,"pps":false}
2017-12-31 16:49:45 1514756985.697682: $GPGSV,3,1,11,22,48,250,44,23,21,306,39,25,08,037,25,03,45,282,32*7A
2017-12-31 16:49:45 1514756985.697850: $GPGSV,3,2,11,16,38,189,47,29,14,061,28,31,56,043,51,14,46,106,45*77
2017-12-31 16:49:45 1514756985.697919: $GPGSV,3,3,11,32,25,117,44,26,68,159,42,135,22,240,43*7F
2017-12-31 16:49:45 1514756985.811291: $GPZDA,214946.00,31,12,2017,00,00*6F
2017-12-31 16:49:45 1514756985.811420: $GPGGA,214946,3946.9576,N,08404.9848,W,2,11,0.80,303.18,M,-33.324,M,,*76
2017-12-31 16:49:45 1514756985.811487: $GPRMC,214946,A,3946.9576,N,08404.9848,W,0.0000,0.000,311217,,*34
2017-12-31 16:49:45 1514756985.811547: $GPGSA,A,3,22,23,25,3,16,29,31,14,32,26,135,,1.7,0.8,1.3*32
2017-12-31 16:49:46 1514756986.344671: $GPZDA,214947.00,31,12,2017,00,00*6E
2017-12-31 16:49:46 1514756986.344823: $GPGGA,214947,3946.9576,N,08404.9848,W,2,11,0.80,303.18,M,-33.324,M,,*77
2017-12-31 16:49:46 1514756986.344892: $GPRMC,214947,A,3946.9576,N,08404.9848,W,0.0000,0.000,311217,,*35
2017-12-31 16:49:46 1514756986.344952: $GPGSA,A,3,22,23,25,3,16,29,31,14,32,26,135,,1.7,0.8,1.3*32
2017-12-31 16:49:47 1514756987.361794: $GPZDA,214948.00,31,12,2017,00,00*61
2017-12-31 16:49:47 1514756987.361974: $GPGGA,214948,3946.9576,N,08404.9855,W,2,11,0.80,303.10,M,-33.324,M,,*7C
2017-12-31 16:49:47 1514756987.362041: $GPRMC,214948,A,3946.9576,N,08404.9855,W,0.0000,0.000,311217,,*36
2017-12-31 16:49:47 1514756987.362104: $GPGSA,A,3,22,23,25,3,16,29,31,14,32,26,135,,1.7,0.8,1.3*32
2017-12-31 16:49:48 1514756988.672290: $GPGSV,3,1,11,22,48,250,45,23,21,306,40,25,08,037,25,03,45,282,33*74
2017-12-31 16:49:48 1514756988.672469: $GPGSV,3,2,11,16,38,189,48,29,14,061,28,31,56,043,50,14,46,106,45*79
2017-12-31 16:49:48 1514756988.672534: $GPGSV,3,3,11,32,25,117,44,26,68,159,42,135,22,240,43*7F
2017-12-31 16:49:48 1514756988.785617: $GPZDA,214949.00,31,12,2017,00,00*60
2017-12-31 16:49:48 1514756988.785763: $GPGGA,214949,3946.9576,N,08404.9855,W,2,11,0.80,303.10,M,-33.324,M,,*7D
2017-12-31 16:49:48 1514756988.785831: $GPRMC,214949,A,3946.9576,N,08404.9855,W,0.0000,0.000,311217,,*37
2017-12-31 16:49:48 1514756988.785895: $GPGSA,A,3,22,23,25,3,16,29,31,14,32,26,135,,1.7,0.8,1.3*32
2017-12-31 16:49:49 1514756989.345245: $GPZDA,214950.00,31,12,2017,00,00*68
2017-12-31 16:49:49 1514756989.534709: $GPGGA,214950,3946.9576,N,08404.9855,W,2,11,0.80,303.10,M,-33.324,M,,*75
2017-12-31 16:49:49 1514756989.534853: $GPRMC,214950,A,3946.9576,N,08404.9855,W,0.0000,0.000,311217,,*3F
2017-12-31 16:49:49 1514756989.534916: $GPGSA,A,3,22,23,25,3,16,29,31,14,32,26,135,,1.7,0.8,1.3*32
2017-12-31 16:49:50 1514756990.337358: $GPZDA,214951.00,31,12,2017,00,00*69
2017-12-31 16:49:50 1514756990.337528: $GPGGA,214951,3946.9581,N,08404.9855,W,2,11,0.80,303.74,M,-33.324,M,,*7E
2017-12-31 16:49:50 1514756990.337597: $GPRMC,214951,A,3946.9581,N,08404.9855,W,0.0000,0.000,311217,,*36
2017-12-31 16:49:50 1514756990.337658: $GPGSA,A,3,22,23,25,3,16,29,31,14,32,26,135,,1.7,0.8,1.3*32
2017-12-31 16:49:51 1514756991.700129: $GPGSV,3,1,11,22,48,250,44,23,21,306,40,25,08,037,02,03,45,282,28*7A
2017-12-31 16:49:51 1514756991.700307: $GPGSV,3,2,11,16,38,189,48,29,14,061,28,31,56,043,51,14,46,106,45*78
2017-12-31 16:49:51 1514756991.700373: $GPGSV,3,3,11,32,25,117,44,26,68,159,42,135,22,240,43*7F
2017-12-31 16:49:51 1514756991.813745: $GPZDA,214952.00,31,12,2017,00,00*6A
2017-12-31 16:49:51 1514756991.813884: $GPGGA,214952,3946.9581,N,08404.9855,W,2,10,1.00,303.74,M,-33.324,M,,*75
2017-12-31 16:49:51 1514756991.813955: $GPRMC,214952,A,3946.9581,N,08404.9855,W,0.0000,0.000,311217,,*35
2017-12-31 16:49:51 1514756991.814071: $GPGSA,A,3,22,23,3,16,29,31,14,32,26,135,,,1.7,1.0,1.3*3C
2017-12-31 16:49:52 1514756992.343544: $GPZDA,214953.00,31,12,2017,00,00*6B
2017-12-31 16:49:52 1514756992.343701: $GPGGA,214953,3946.9581,N,08404.9855,W,2,10,1.00,303.74,M,-33.324,M,,*74
2017-12-31 16:49:52 1514756992.343770: $GPRMC,214953,A,3946.9581,N,08404.9855,W,0.0000,0.000,311217,,*34
2017-12-31 16:49:52 1514756992.343834: $GPGSA,A,3,22,23,3,16,29,31,14,32,26,135,,,1.7,1.0,1.3*3C
2017-12-31 16:49:53 1514756993.351451: $GPZDA,214954.00,31,12,2017,00,00*6C
2017-12-31 16:49:53 1514756993.351629: $GPGGA,214954,3946.9581,N,08404.9855,W,2,10,1.00,303.74,M,-33.324,M,,*73
2017-12-31 16:49:53 1514756993.351698: $GPRMC,214954,A,3946.9581,N,08404.9855,W,0.0000,0.000,311217,,*33
2017-12-31 16:49:53 1514756993.351762: $GPGSA,A,3,22,23,3,16,29,31,14,32,26,135,,,1.7,1.0,1.3*3C
2017-12-31 16:49:54 1514756994.681004: $GPGSV,3,1,11,22,48,250,44,23,21,306,40,25,08,037,24,03,45,282,37*70
2017-12-31 16:49:54 1514756994.681171: $GPGSV,3,2,11,16,38,189,48,29,14,061,19,31,56,043,51,14,46,106,46*79
2017-12-31 16:49:54 1514756994.681236: $GPGSV,3,3,11,32,25,117,44,26,68,159,42,135,22,240,44*78
2017-12-31 16:49:54 1514756994.794325: $GPZDA,214955.00,31,12,2017,00,00*6D
2017-12-31 16:49:54 1514756994.794486: $GPGGA,214955,3946.9581,N,08404.9855,W,2,11,0.80,303.74,M,-33.324,M,,*7A
2017-12-31 16:49:54 1514756994.794552: $GPRMC,214955,A,3946.9581,N,08404.9855,W,0.0000,0.000,311217,,*32
2017-12-31 16:49:54 1514756994.794613: $GPGSA,A,3,22,23,25,3,16,29,31,14,32,26,135,,1.7,0.8,1.3*32
