2017-11-16 13:19:32 1510856372.605656: {"class":"VERSION","release":"3.17","rev":"3.17","proto_major":3,"proto_minor":12}
2017-11-16 13:19:32 1510856372.606120: {"class":"DEVICES","devices":[{"class":"DEVICE","path":"/dev/ttyUSB0","driver":"SiRF","subtype":"9\u0006GSD4e_4.1.2-P1_RPATCH.05-F-GPS-4R-1510281 11/03/2015 307","activated":"2017-11-16T18:19:32.428Z","flags":1,"native":1,"bps":4800,"parity":"N","stopbits":1,"cycle":1.00}]}
2017-11-16 13:19:32 1510856372.606241: {"class":"WATCH","enable":true,"json":false,"nmea":true,"raw":0,"scaled":false,"timing":false,"split24":false,"pps":false}
2017-11-16 13:19:33 1510856373.627028: $GPGSV,3,1,12,10,23,283,42,13,29,045,46,15,61,051,51,18,54,300,46*77
2017-11-16 13:19:33 1510856373.627171: $GPGSV,3,2,12,20,51,072,46,21,78,270,46,24,33,138,43,27,16,313,44*79
2017-11-16 13:19:33 1510856373.627231: $GPGSV,3,3,12,05,04,087,18,29,09,189,27,32,01,225,19,138,38,213,46*44
2017-11-16 13:19:33 1510856373.740416: $GPZDA,181932.00,16,11,2017,00,00*65
2017-11-16 13:19:33 1510856373.740571: $GPGGA,181932,3946.9594,N,08404.9845,W,2,11,0.80,300.76,M,-33.324,M,,*70
2017-11-16 13:19:33 1510856373.740632: $GPRMC,181932,A,3946.9594,N,08404.9845,W,0.0000,0.000,161117,,*3F
2017-11-16 13:19:33 1510856373.740687: $GPGSA,A,3,10,13,15,18,20,21,24,27,5,29,138,,1.6,0.8,1.3*37
2017-11-16 13:19:34 1510856374.291255: $GPZDA,181933.00,16,11,2017,00,00*64
2017-11-16 13:19:34 1510856374.291427: $GPGGA,181933,3946.9594,N,08404.9845,W,2,11,0.80,300.76,M,-33.324,M,,*71
2017-11-16 13:19:34 1510856374.291489: $GPRMC,181933,A,3946.9594,N,08404.9845,W,0.0000,0.000,161117,,*3E
2017-11-16 13:19:34 1510856374.291545: $GPGSA,A,3,10,13,15,18,20,21,24,27,5,29,138,,1.6,0.8,1.3*37
2017-11-16 13:19:35 1510856375.289073: $GPZDA,181934.00,16,11,2017,00,00*63
2017-11-16 13:19:35 1510856375.289266: $GPGGA,181934,3946.9594,N,08404.9845,W,2,11,0.80,300.76,M,-33.324,M,,*76
2017-11-16 13:19:35 1510856375.289331: $GPRMC,181934,A,3946.9594,N,08404.9845,W,0.0000,0.000,161117,,*39
2017-11-16 13:19:35 1510856375.289387: $GPGSA,A,3,10,13,15,18,20,21,24,27,5,29,138,,1.6,0.8,1.3*37
2017-11-16 13:19:36 1510856376.624890: $GPGSV,3,1,12,10,23,283,43,13,29,045,46,15,61,051,51,18,54,300,46*76
2017-11-16 13:19:36 1510856376.625094: $GPGSV,3,2,12,20,51,072,47,21,78,270,46,24,33,138,42,27,16,313,44*79
2017-11-16 13:19:36 1510856376.625159: $GPGSV,3,3,12,05,04,087,18,29,09,189,00,32,01,225,20,138,38,213,45*48
2017-11-16 13:19:36 1510856376.738072: $GPZDA,181935.00,16,11,2017,00,00*62
2017-11-16 13:19:36 1510856376.738242: $GPGGA,181935,3946.9594,N,08404.9845,W,2,11,1.20,300.76,M,-33.324,M,,*7C
2017-11-16 13:19:36 1510856376.738303: $GPRMC,181935,A,3946.9594,N,08404.9845,W,0.0000,0.000,161117,,*38
2017-11-16 13:19:36 1510856376.738360: $GPGSA,A,3,10,13,15,18,20,21,24,27,5,32,138,,1.6,1.2,1.3*36
2017-11-16 13:19:37 1510856377.291497: $GPZDA,181936.00,16,11,2017,00,00*61
2017-11-16 13:19:37 1510856377.291650: $GPGGA,181936,3946.9594,N,08404.9845,W,2,11,0.80,300.76,M,-33.324,M,,*74
2017-11-16 13:19:37 1510856377.291714: $GPRMC,181936,A,3946.9594,N,08404.9845,W,0.0000,0.000,161117,,*3B
2017-11-16 13:19:37 1510856377.291771: $GPGSA,A,3,10,13,15,18,20,21,24,27,5,32,138,,1.6,0.8,1.3*3D
2017-11-16 13:19:38 1510856378.289779: $GPZDA,181937.00,16,11,2017,00,00*60
2017-11-16 13:19:38 1510856378.289957: $GPGGA,181937,3946.9594,N,08404.9845,W,2,11,0.80,300.76,M,-33.324,M,,*75
2017-11-16 13:19:38 1510856378.290021: $GPRMC,181937,A,3946.9594,N,08404.9845,W,0.0000,0.000,161117,,*3A
2017-11-16 13:19:38 1510856378.290078: $GPGSA,A,3,10,13,15,18,20,21,24,27,5,32,138,,1.6,0.8,1.3*3D
2017-11-16 13:19:39 1510856379.625466: $GPGSV,3,1,12,10,23,283,42,13,29,045,46,15,61,051,51,18,54,300,46*77
2017-11-16 13:19:39 1510856379.625639: $GPGSV,3,2,12,20,51,072,46,21,78,270,46,24,33,138,42,27,16,313,44*78
2017-11-16 13:19:39 1510856379.625702: $GPGSV,3,3,12,05,04,087,18,29,09,189,25,32,01,225,21,138,38,213,44*4F
2017-11-16 13:19:39 1510856379.738744: $GPZDA,181938.00,16,11,2017,00,00*6F
2017-11-16 13:19:39 1510856379.738908: $GPGGA,181938,3946.9594,N,08404.9845,W,2,12,0.80,300.76,M,-33.324,M,,*79
2017-11-16 13:19:39 1510856379.739023: $GPRMC,181938,A,3946.9594,N,08404.9845,W,0.0000,0.000,161117,,*35
2017-11-16 13:19:39 1510856379.739082: $GPGSA,A,3,10,13,15,18,20,21,24,27,5,29,32,138,1.6,0.8,1.3*36
2017-11-16 13:19:40 1510856380.364097: $GPZDA,181939.00,16,11,2017,00,00*6E
2017-11-16 13:19:40 1510856380.364258: $GPGGA,181939,3946.9594,N,08404.9845,W,2,12,0.80,300.76,M,-33.324,M,,*78
2017-11-16 13:19:40 1510856380.364321: $GPRMC,181939,A,3946.9594,N,08404.9845,W,0.0000,0.000,161117,,*34
2017-11-16 13:19:40 1510856380.364377: $GPGSA,A,3,10,13,15,18,20,21,24,27,5,29,32,138,1.6,0.8,1.3*36
2017-11-16 13:19:41 1510856381.289923: $GPZDA,181940.00,16,11,2017,00,00*60
2017-11-16 13:19:41 1510856381.290092: $GPGGA,181940,3946.9594,N,08404.9845,W,2,12,0.80,300.76,M,-33.324,M,,*76
2017-11-16 13:19:41 1510856381.290156: $GPRMC,181940,A,3946.9594,N,08404.9845,W,0.0000,0.000,161117,,*3A
2017-11-16 13:19:41 1510856381.290212: $GPGSA,A,3,10,13,15,18,20,21,24,27,5,29,32,138,1.6,0.8,1.3*36
