2018-01-11 20:18:39 1515719919.368787: {"class":"VERSION","release":"3.16","rev":"3.16-4","proto_major":3,"proto_minor":11}
2018-01-11 20:18:39 1515719919.369186: {"class":"DEVICES","devices":[{"class":"DEVICE","path":"/dev/ttyUSB0","driver":"SiRF","subtype":"9\u0006GSD4e_4.1.2-P1_RPATCH.05-F-GPS-4R-1510281 11/03/2015 307","activated":"2018-01-12T01:18:39.297Z","flags":1,"native":1,"bps":4800,"parity":"N","stopbits":1,"cycle":1.00}]}
2018-01-11 20:18:39 1515719919.369313: {"class":"WATCH","enable":true,"json":false,"nmea":true,"raw":0,"scaled":false,"timing":false,"split24":false,"pps":false}
2018-01-11 20:18:39 1515719919.411305: $GPZDA,011840.00,12,01,2018,00,00*63
2018-01-11 20:18:39 1515719919.411440: $GPGGA,011840,3946.9578,N,08404.9813,W,2,11,0.80,302.81,M,-33.324,M,,*77
2018-01-11 20:18:39 1515719919.411506: $GPRMC,011840,A,3946.9578,N,08404.9813,W,0.0000,0.000,120118,,*38
2018-01-11 20:18:39 1515719919.411568: $GPGSA,A,3,7,8,9,11,16,23,27,28,30,1,138,,4.0,0.8,3.5*0F
2018-01-11 20:18:40 1515719920.763059: $GPGSV,3,1,11,07,59,315,45,08,75,118,45,09,45,225,42,11,23,166,47*7D
2018-01-11 20:18:40 1515719920.763229: $GPGSV,3,2,11,16,20,063,40,23,25,189,48,27,44,051,50,28,16,261,41*7F
2018-01-11 20:18:40 1515719920.763296: $GPGSV,3,3,11,30,32,307,33,01,01,162,00,138,38,213,45*7A
2018-01-11 20:18:40 1515719920.876887: $GPZDA,011841.00,12,01,2018,00,00*62
2018-01-11 20:18:40 1515719920.877055: $GPGGA,011841,3946.9578,N,08404.9813,W,2,10,0.80,302.81,M,-33.324,M,,*77
2018-01-11 20:18:40 1515719920.877143: $GPRMC,011841,A,3946.9578,N,08404.9813,W,0.0000,0.000,120118,,*39
2018-01-11 20:18:40 1515719920.877220: $GPGSA,A,3,7,8,9,11,16,23,27,28,30,138,,,4.0,0.8,3.5*3E
2018-01-11 20:18:41 1515719921.502272: $GPZDA,011842.00,12,01,2018,00,00*61
2018-01-11 20:18:41 1515719921.502429: $GPGGA,011842,3946.9578,N,08404.9813,W,2,10,0.80,302.81,M,-33.324,M,,*74
2018-01-11 20:18:41 1515719921.502496: $GPRMC,011842,A,3946.9578,N,08404.9813,W,0.0000,0.000,120118,,*3A
2018-01-11 20:18:41 1515719921.502559: $GPGSA,A,3,7,8,9,11,16,23,27,28,30,138,,,4.0,0.8,3.5*3E
2018-01-11 20:18:42 1515719922.427943: $GPZDA,011843.00,12,01,2018,00,00*60
2018-01-11 20:18:42 1515719922.428096: $GPGGA,011843,3946.9578,N,08404.9813,W,2,10,0.80,302.81,M,-33.324,M,,*75
2018-01-11 20:18:42 1515719922.428162: $GPRMC,011843,A,3946.9578,N,08404.9813,W,0.0000,0.000,120118,,*3B
2018-01-11 20:18:42 1515719922.428223: $GPGSA,A,3,7,8,9,11,16,23,27,28,30,138,,,4.0,0.8,3.5*3E
2018-01-11 20:18:43 1515719923.758423: $GPGSV,3,1,11,07,59,315,45,08,75,118,45,09,45,225,42,11,23,166,47*7D
2018-01-11 20:18:43 1515719923.758613: $GPGSV,3,2,11,16,20,063,40,23,25,189,48,27,44,051,50,28,16,261,40*7E
2018-01-11 20:18:43 1515719923.758679: $GPGSV,3,3,11,30,32,307,33,01,01,162,00,138,38,213,45*7A
2018-01-11 20:18:43 1515719923.872048: $GPZDA,011844.00,12,01,2018,00,00*67
2018-01-11 20:18:43 1515719923.872198: $GPGGA,011844,3946.9578,N,08404.9813,W,2,10,0.80,302.81,M,-33.324,M,,*72
2018-01-11 20:18:43 1515719923.872264: $GPRMC,011844,A,3946.9578,N,08404.9813,W,0.0000,0.000,120118,,*3C
2018-01-11 20:18:43 1515719923.872324: $GPGSA,A,3,7,8,9,11,16,23,27,28,30,138,,,4.0,0.8,3.5*3E
2018-01-11 20:18:44 1515719924.407915: $GPZDA,011845.00,12,01,2018,00,00*66
2018-01-11 20:18:44 1515719924.408104: $GPGGA,011845,3946.9578,N,08404.9813,W,2,10,0.80,302.81,M,-33.324,M,,*73
2018-01-11 20:18:44 1515719924.408171: $GPRMC,011845,A,3946.9578,N,08404.9813,W,0.0000,0.000,120118,,*3D
2018-01-11 20:18:44 1515719924.408232: $GPGSA,A,3,7,8,9,11,16,23,27,28,30,138,,,4.0,0.8,3.5*3E
2018-01-11 20:18:45 1515719925.428813: $GPZDA,011846.00,12,01,2018,00,00*65
2018-01-11 20:18:45 1515719925.428988: $GPGGA,011846,3946.9578,N,08404.9813,W,2,10,0.80,302.81,M,-33.324,M,,*70
2018-01-11 20:18:45 1515719925.429134: $GPRMC,011846,A,3946.9578,N,08404.9813,W,0.0000,0.000,120118,,*3E
2018-01-11 20:18:45 1515719925.429198: $GPGSA,A,3,7,8,9,11,16,23,27,28,30,138,,,4.0,0.8,3.5*3E
2018-01-11 20:18:46 1515719926.747551: $GPGSV,3,1,11,07,59,315,45,08,75,118,46,09,45,225,41,11,23,166,47*7D
2018-01-11 20:18:46 1515719926.747713: $GPGSV,3,2,11,16,20,063,40,23,25,189,47,27,44,051,50,28,16,261,40*71
2018-01-11 20:18:46 1515719926.747836: $GPGSV,3,3,11,30,32,307,34,01,01,162,11,138,38,213,44*7C
2018-01-11 20:18:46 1515719926.861184: $GPZDA,011847.00,12,01,2018,00,00*64
2018-01-11 20:18:46 1515719926.861321: $GPGGA,011847,3946.9578,N,08404.9813,W,2,10,0.80,302.81,M,-33.324,M,,*71
2018-01-11 20:18:46 1515719926.861388: $GPRMC,011847,A,3946.9578,N,08404.9813,W,0.0000,0.000,120118,,*3F
2018-01-11 20:18:46 1515719926.861450: $GPGSA,A,3,7,8,9,11,16,23,27,28,30,138,,,4.0,0.8,3.5*3E
2018-01-11 20:18:47 1515719927.428318: $GPZDA,011848.00,12,01,2018,00,00*6B
2018-01-11 20:18:47 1515719927.428496: $GPGGA,011848,3946.9578,N,08404.9813,W,2,10,0.80,302.81,M,-33.324,M,,*7E
2018-01-11 20:18:47 1515719927.428564: $GPRMC,011848,A,3946.9578,N,08404.9813,W,0.0000,0.000,120118,,*30
2018-01-11 20:18:47 1515719927.428624: $GPGSA,A,3,7,8,9,11,16,23,27,28,30,138,,,4.0,0.8,3.5*3E
2018-01-11 20:18:48 1515719928.430503: $GPZDA,011849.00,12,01,2018,00,00*6A
2018-01-11 20:18:48 1515719928.430675: $GPGGA,011849,3946.9578,N,08404.9813,W,2,10,0.80,302.81,M,-33.324,M,,*7F
2018-01-11 20:18:48 1515719928.430741: $GPRMC,011849,A,3946.9578,N,08404.9813,W,0.0000,0.000,120118,,*31
2018-01-11 20:18:48 1515719928.430801: $GPGSA,A,3,7,8,9,11,16,23,27,28,30,138,,,4.0,0.8,3.5*3E
2018-01-11 20:18:49 1515719929.763421: $GPGSV,3,1,11,07,59,315,45,08,75,118,46,09,45,225,42,11,23,166,47*7E
2018-01-11 20:18:49 1515719929.763619: $GPGSV,3,2,11,16,20,063,40,23,25,189,47,27,44,051,50,28,16,261,40*71
2018-01-11 20:18:49 1515719929.763688: $GPGSV,3,3,11,30,32,307,34,01,01,162,14,138,38,213,45*78
2018-01-11 20:18:49 1515719929.876930: $GPZDA,011850.00,12,01,2018,00,00*62
2018-01-11 20:18:49 1515719929.877072: $GPGGA,011850,3946.9578,N,08404.9813,W,2,11,0.80,302.81,M,-33.324,M,,*76
2018-01-11 20:18:49 1515719929.877137: $GPRMC,011850,A,3946.9578,N,08404.9813,W,0.0000,0.000,120118,,*39
2018-01-11 20:18:49 1515719929.877199: $GPGSA,A,3,7,8,9,11,16,23,27,28,30,1,138,,4.0,0.8,3.5*0F
2018-01-11 20:18:50 1515719930.427947: $GPZDA,011851.00,12,01,2018,00,00*63
2018-01-11 20:18:50 1515719930.428118: $GPGGA,011851,3946.9578,N,08404.9813,W,2,11,0.80,302.81,M,-33.324,M,,*77
2018-01-11 20:18:50 1515719930.428187: $GPRMC,011851,A,3946.9578,N,08404.9813,W,0.0000,0.000,120118,,*38
2018-01-11 20:18:50 1515719930.428248: $GPGSA,A,3,7,8,9,11,16,23,27,28,30,1,138,,4.0,0.8,3.5*0F
