2017-12-31 16:53:27 1514757207.056442: {"class":"VERSION","release":"3.16","rev":"3.16-4","proto_major":3,"proto_minor":11}
2017-12-31 16:53:27 1514757207.056795: {"class":"DEVICES","devices":[{"class":"DEVICE","path":"/dev/ttyUSB0","driver":"SiRF","activated":"2017-12-31T21:53:26.485Z","flags":1,"native":1,"bps":4800,"parity":"N","stopbits":1,"cycle":1.00}]}
2017-12-31 16:53:27 1514757207.056894: {"class":"WATCH","enable":true,"json":false,"nmea":true,"raw":0,"scaled":false,"timing":false,"split24":false,"pps":false}
2017-12-31 16:53:27 1514757207.680213: $GPGSV,3,1,11,22,47,247,40,23,22,306,38,25,07,037,19,03,46,280,36*70
2017-12-31 16:53:27 1514757207.680373: $GPGSV,3,2,11,16,39,190,42,29,14,060,21,31,55,045,48,14,45,108,41*77
2017-12-31 16:53:27 1514757207.680441: $GPGSV,3,3,11,32,24,118,42,26,69,157,42,135,22,240,42*79
2017-12-31 16:53:27 1514757207.793651: $GPZDA,215328.00,31,12,2017,00,00*6C
2017-12-31 16:53:27 1514757207.793781: $GPGGA,215328,3946.9581,N,08404.9855,W,2,11,0.80,303.74,M,-33.324,M,,*7B
2017-12-31 16:53:27 1514757207.793846: $GPRMC,215328,A,3946.9581,N,08404.9855,W,0.0000,0.000,311217,,*33
2017-12-31 16:53:27 1514757207.793907: $GPGSA,A,3,22,23,25,3,16,29,31,14,32,26,135,,1.7,0.8,1.3*32
2017-12-31 16:53:28 1514757208.343279: $GPZDA,215329.00,31,12,2017,00,00*6D
2017-12-31 16:53:28 1514757208.343449: $GPGGA,215329,3946.9581,N,08404.9855,W,2,11,0.80,303.74,M,-33.324,M,,*7A
2017-12-31 16:53:28 1514757208.343520: $GPRMC,215329,A,3946.9581,N,08404.9855,W,0.0000,0.000,311217,,*32
2017-12-31 16:53:28 1514757208.343580: $GPGSA,A,3,22,23,25,3,16,29,31,14,32,26,135,,1.7,0.8,1.3*32
2017-12-31 16:53:29 1514757209.344180: $GPZDA,215330.00,31,12,2017,00,00*65
2017-12-31 16:53:29 1514757209.344355: $GPGGA,215330,3946.9581,N,08404.9855,W,2,11,0.80,303.74,M,-33.324,M,,*72
2017-12-31 16:53:29 1514757209.344426: $GPRMC,215330,A,3946.9581,N,08404.9855,W,0.0000,0.000,311217,,*3A
2017-12-31 16:53:29 1514757209.344490: $GPGSA,A,3,22,23,25,3,16,29,31,14,32,26,135,,1.7,0.8,1.3*32
2017-12-31 16:53:30 1514757210.671823: $GPGSV,3,1,11,22,47,247,42,23,22,306,39,25,07,037,20,03,46,280,38*77
2017-12-31 16:53:30 1514757210.672007: $GPGSV,3,2,11,16,39,190,44,29,14,060,22,31,55,045,50,14,45,108,42*78
2017-12-31 16:53:30 1514757210.672074: $GPGSV,3,3,11,32,24,118,44,26,69,157,43,135,22,240,43*7F
2017-12-31 16:53:30 1514757210.785221: $GPZDA,215331.00,31,12,2017,00,00*64
2017-12-31 16:53:30 1514757210.785355: $GPGGA,215331,3946.9581,N,08404.9855,W,2,11,0.80,303.74,M,-33.324,M,,*73
2017-12-31 16:53:30 1514757210.785424: $GPRMC,215331,A,3946.9581,N,08404.9855,W,0.0000,0.000,311217,,*3B
2017-12-31 16:53:30 1514757210.785503: $GPGSA,A,3,22,23,25,3,16,29,31,14,32,26,135,,1.7,0.8,1.3*32
2017-12-31 16:53:31 1514757211.359897: $GPZDA,215332.00,31,12,2017,00,00*67
2017-12-31 16:53:31 1514757211.360062: $GPGGA,215332,3946.9581,N,08404.9855,W,2,11,0.80,303.74,M,-33.324,M,,*70
2017-12-31 16:53:31 1514757211.360130: $GPRMC,215332,A,3946.9581,N,08404.9855,W,0.0000,0.000,311217,,*38
2017-12-31 16:53:31 1514757211.360191: $GPGSA,A,3,22,23,25,3,16,29,31,14,32,26,135,,1.7,0.8,1.3*32
2017-12-31 16:53:32 1514757212.335742: $GPZDA,215333.00,31,12,2017,00,00*66
2017-12-31 16:53:32 1514757212.335898: $GPGGA,215333,3946.9581,N,08404.9855,W,2,11,0.80,303.74,M,-33.324,M,,*71
2017-12-31 16:53:32 1514757212.335966: $GPRMC,215333,A,3946.9581,N,08404.9855,W,0.0000,0.000,311217,,*39
2017-12-31 16:53:32 1514757212.336026: $GPGSA,A,3,22,23,25,3,16,29,31,14,32,26,135,,1.7,0.8,1.3*32
2017-12-31 16:53:33 1514757213.696430: $GPGSV,3,1,11,22,47,247,42,23,22,306,41,25,07,037,21,03,46,280,39*78
2017-12-31 16:53:33 1514757213.696615: $GPGSV,3,2,11,16,39,190,45,29,14,060,22,31,55,045,50,14,45,108,42*79
2017-12-31 16:53:33 1514757213.696683: $GPGSV,3,3,11,32,24,118,45,26,69,157,43,135,22,240,43*7E
2017-12-31 16:53:33 1514757213.809819: $GPZDA,215334.00,31,12,2017,00,00*61
2017-12-31 16:53:33 1514757213.809942: $GPGGA,215334,3946.9581,N,08404.9855,W,2,11,0.80,303.74,M,-33.324,M,,*76
2017-12-31 16:53:33 1514757213.810008: $GPRMC,215334,A,3946.9581,N,08404.9855,W,0.0000,0.000,311217,,*3E
2017-12-31 16:53:33 1514757213.810123: $GPGSA,A,3,22,23,25,3,16,29,31,14,32,26,135,,1.7,0.8,1.3*32
2017-12-31 16:53:34 1514757214.343196: $GPZDA,215335.00,31,12,2017,00,00*60
2017-12-31 16:53:34 1514757214.343372: $GPGGA,215335,3946.9581,N,08404.9855,W,2,11,0.80,303.74,M,-33.324,M,,*77
2017-12-31 16:53:34 1514757214.343442: $GPRMC,215335,A,3946.9581,N,08404.9855,W,0.0000,0.000,311217,,*3F
2017-12-31 16:53:34 1514757214.343503: $GPGSA,A,3,22,23,25,3,16,29,31,14,32,26,135,,1.7,0.8,1.3*32
2017-12-31 16:53:35 1514757215.343858: $GPZDA,215336.00,31,12,2017,00,00*63
2017-12-31 16:53:35 1514757215.344043: $GPGGA,215336,3946.9581,N,08404.9855,W,2,11,0.80,303.74,M,-33.324,M,,*74
2017-12-31 16:53:35 1514757215.344111: $GPRMC,215336,A,3946.9581,N,08404.9855,W,0.0000,0.000,311217,,*3C
2017-12-31 16:53:35 1514757215.344173: $GPGSA,A,3,22,23,25,3,16,29,31,14,32,26,135,,1.7,0.8,1.3*32
2017-12-31 16:53:36 1514757216.695531: $GPGSV,3,1,11,22,47,247,42,23,22,306,41,25,07,037,21,03,46,280,38*79
2017-12-31 16:53:36 1514757216.695709: $GPGSV,3,2,11,16,39,190,46,29,14,060,23,31,55,045,50,14,45,108,42*7B
2017-12-31 16:53:36 1514757216.695775: $GPGSV,3,3,11,32,24,118,45,26,69,157,44,135,22,240,43*79
2017-12-31 16:53:36 1514757216.809184: $GPZDA,215337.00,31,12,2017,00,00*62
2017-12-31 16:53:36 1514757216.809333: $GPGGA,215337,3946.9581,N,08404.9855,W,2,11,0.80,303.74,M,-33.324,M,,*75
2017-12-31 16:53:36 1514757216.809399: $GPRMC,215337,A,3946.9581,N,08404.9855,W,0.0000,0.000,311217,,*3D
2017-12-31 16:53:36 1514757216.809462: $GPGSA,A,3,22,23,25,3,16,29,31,14,32,26,135,,1.7,0.8,1.3*32
