2018-01-11 20:30:25 1515720625.584822: {"class":"VERSION","release":"3.16","rev":"3.16-4","proto_major":3,"proto_minor":11}
2018-01-11 20:30:25 1515720625.585156: {"class":"DEVICES","devices":[{"class":"DEVICE","path":"/dev/ttyUSB0","driver":"SiRF","subtype":"9\u0006GSD4e_4.1.2-P1_RPATCH.05-F-GPS-4R-1510281 11/03/2015 307","activated":"2018-01-12T01:30:25.510Z","flags":1,"native":1,"bps":4800,"parity":"N","stopbits":1,"cycle":1.00}]}
2018-01-11 20:30:25 1515720625.585269: {"class":"WATCH","enable":true,"json":false,"nmea":true,"raw":0,"scaled":false,"timing":false,"split24":false,"pps":false}
2018-01-11 20:30:26 1515720626.704738: $GPGSV,3,1,11,07,64,316,43,08,75,094,44,09,41,220,42,11,28,165,45*79
2018-01-11 20:30:26 1515720626.704889: $GPGSV,3,2,11,16,17,066,36,23,20,187,49,27,40,048,50,28,20,265,39*77
2018-01-11 20:30:26 1515720626.704953: $GPGSV,3,3,11,30,37,309,36,01,05,159,23,138,38,213,45*79
2018-01-11 20:30:26 1515720626.818354: $GPZDA,013027.00,12,01,2018,00,00*68
2018-01-11 20:30:26 1515720626.818473: $GPGGA,013027,3946.9584,N,08404.9841,W,2,11,0.80,304.54,M,-33.324,M,,*76
2018-01-11 20:30:26 1515720626.818535: $GPRMC,013027,A,3946.9584,N,08404.9841,W,0.0000,0.000,120118,,*37
2018-01-11 20:30:26 1515720626.818594: $GPGSA,A,3,7,8,9,11,16,23,27,28,30,1,138,,4.0,0.8,3.5*0F
2018-01-11 20:30:27 1515720627.356784: $GPZDA,013028.00,12,01,2018,00,00*67
2018-01-11 20:30:27 1515720627.356932: $GPGGA,013028,3946.9584,N,08404.9841,W,2,11,0.80,304.54,M,-33.324,M,,*79
2018-01-11 20:30:27 1515720627.356997: $GPRMC,013028,A,3946.9584,N,08404.9841,W,0.0000,0.000,120118,,*38
2018-01-11 20:30:27 1515720627.357056: $GPGSA,A,3,7,8,9,11,16,23,27,28,30,1,138,,4.0,0.8,3.5*0F
2018-01-11 20:30:28 1515720628.373913: $GPZDA,013029.00,12,01,2018,00,00*66
2018-01-11 20:30:28 1515720628.374065: $GPGGA,013029,3946.9584,N,08404.9841,W,2,11,0.80,304.54,M,-33.324,M,,*78
2018-01-11 20:30:28 1515720628.374130: $GPRMC,013029,A,3946.9584,N,08404.9841,W,0.0000,0.000,120118,,*39
2018-01-11 20:30:28 1515720628.374189: $GPGSA,A,3,7,8,9,11,16,23,27,28,30,1,138,,4.0,0.8,3.5*0F
2018-01-11 20:30:29 1515720629.693881: $GPGSV,3,1,11,07,64,316,43,08,75,094,44,09,41,220,43,11,28,165,46*7B
2018-01-11 20:30:29 1515720629.694074: $GPGSV,3,2,11,16,17,066,36,23,20,187,49,27,40,048,50,28,20,265,38*76
2018-01-11 20:30:29 1515720629.694142: $GPGSV,3,3,11,30,37,309,36,01,05,159,23,138,38,213,45*79
2018-01-11 20:30:29 1515720629.807684: $GPZDA,013030.00,12,01,2018,00,00*6E
2018-01-11 20:30:29 1515720629.807829: $GPGGA,013030,3946.9584,N,08404.9841,W,2,11,0.80,304.54,M,-33.324,M,,*70
2018-01-11 20:30:29 1515720629.807894: $GPRMC,013030,A,3946.9584,N,08404.9841,W,0.0000,0.000,120118,,*31
2018-01-11 20:30:29 1515720629.807953: $GPGSA,A,3,7,8,9,11,16,23,27,28,30,1,138,,4.0,0.8,3.5*0F
2018-01-11 20:30:30 1515720630.374709: $GPZDA,013031.00,12,01,2018,00,00*6F
2018-01-11 20:30:30 1515720630.374843: $GPGGA,013031,3946.9584,N,08404.9841,W,2,11,0.80,304.54,M,-33.324,M,,*71
2018-01-11 20:30:30 1515720630.374907: $GPRMC,013031,A,3946.9584,N,08404.9841,W,0.0000,0.000,120118,,*30
2018-01-11 20:30:30 1515720630.374966: $GPGSA,A,3,7,8,9,11,16,23,27,28,30,1,138,,4.0,0.8,3.5*0F
2018-01-11 20:30:31 1515720631.370725: $GPZDA,013032.00,12,01,2018,00,00*6C
2018-01-11 20:30:31 1515720631.370871: $GPGGA,013032,3946.9584,N,08404.9841,W,2,11,0.80,304.54,M,-33.324,M,,*72
2018-01-11 20:30:31 1515720631.370936: $GPRMC,013032,A,3946.9584,N,08404.9841,W,0.0000,0.000,120118,,*33
2018-01-11 20:30:31 1515720631.370996: $GPGSA,A,3,7,8,9,11,16,23,27,28,30,1,138,,4.0,0.8,3.5*0F
2018-01-11 20:30:32 1515720632.709749: $GPGSV,3,1,11,07,64,316,43,08,75,094,44,09,41,220,42,11,28,165,46*7A
2018-01-11 20:30:32 1515720632.709924: $GPGSV,3,2,11,16,17,066,36,23,20,187,49,27,40,048,50,28,20,265,39*77
2018-01-11 20:30:32 1515720632.709989: $GPGSV,3,3,11,30,37,309,37,01,05,159,22,138,38,213,44*78
2018-01-11 20:30:32 1515720632.823439: $GPZDA,013033.00,12,01,2018,00,00*6D
2018-01-11 20:30:32 1515720632.823554: $GPGGA,013033,3946.9584,N,08404.9841,W,2,11,0.80,304.54,M,-33.324,M,,*73
2018-01-11 20:30:32 1515720632.823617: $GPRMC,013033,A,3946.9584,N,08404.9841,W,0.0000,0.000,120118,,*32
2018-01-11 20:30:32 1515720632.823720: $GPGSA,A,3,7,8,9,11,16,23,27,28,30,1,138,,4.0,0.8,3.5*0F
2018-01-11 20:30:33 1515720633.375635: $GPZDA,013034.00,12,01,2018,00,00*6A
2018-01-11 20:30:33 1515720633.375778: $GPGGA,013034,3946.9584,N,08404.9841,W,2,11,0.80,304.54,M,-33.324,M,,*74
2018-01-11 20:30:33 1515720633.375842: $GPRMC,013034,A,3946.9584,N,08404.9841,W,0.0000,0.000,120118,,*35
2018-01-11 20:30:33 1515720633.375902: $GPGSA,A,3,7,8,9,11,16,23,27,28,30,1,138,,4.0,0.8,3.5*0F
2018-01-11 20:30:34 1515720634.374753: $GPZDA,013035.00,12,01,2018,00,00*6B
2018-01-11 20:30:34 1515720634.374922: $GPGGA,013035,3946.9584,N,08404.9841,W,2,11,0.80,304.54,M,-33.324,M,,*75
2018-01-11 20:30:34 1515720634.374991: $GPRMC,013035,A,3946.9584,N,08404.9841,W,0.0000,0.000,120118,,*34
2018-01-11 20:30:34 1515720634.375055: $GPGSA,A,3,7,8,9,11,16,23,27,28,30,1,138,,4.0,0.8,3.5*0F
2018-01-11 20:30:35 1515720635.692602: $GPGSV,3,1,11,07,64,316,43,08,75,094,44,09,41,220,42,11,28,165,46*7A
2018-01-11 20:30:35 1515720635.692783: $GPGSV,3,2,11,16,17,066,36,23,20,187,49,27,40,048,50,28,20,265,38*76
2018-01-11 20:30:35 1515720635.692850: $GPGSV,3,3,11,30,37,309,37,01,05,159,22,138,38,213,45*79
2018-01-11 20:30:35 1515720635.806228: $GPZDA,013036.00,12,01,2018,00,00*68
2018-01-11 20:30:35 1515720635.806361: $GPGGA,013036,3946.9581,N,08404.9842,W,2,11,0.80,305.30,M,-33.324,M,,*73
2018-01-11 20:30:35 1515720635.806428: $GPRMC,013036,A,3946.9581,N,08404.9842,W,0.0000,0.000,120118,,*31
2018-01-11 20:30:35 1515720635.806491: $GPGSA,A,3,7,8,9,11,16,23,27,28,30,1,138,,4.0,0.8,3.5*0F
2018-01-11 20:30:36 1515720636.352089: $GPZDA,013037.00,12,01,2018,00,00*69
2018-01-11 20:30:36 1515720636.352231: $GPGGA,013037,3946.9581,N,08404.9842,W,2,11,0.80,305.30,M,-33.324,M,,*72
2018-01-11 20:30:36 1515720636.352298: $GPRMC,013037,A,3946.9581,N,08404.9842,W,0.0000,0.000,120118,,*30
2018-01-11 20:30:36 1515720636.352361: $GPGSA,A,3,7,8,9,11,16,23,27,28,30,1,138,,4.0,0.8,3.5*0F
2018-01-11 20:30:37 1515720637.376774: $GPZDA,013038.00,12,01,2018,00,00*66
2018-01-11 20:30:37 1515720637.376935: $GPGGA,013038,3946.9581,N,08404.9842,W,2,11,0.80,305.30,M,-33.324,M,,*7D
2018-01-11 20:30:37 1515720637.377004: $GPRMC,013038,A,3946.9581,N,08404.9842,W,0.0000,0.000,120118,,*3F
2018-01-11 20:30:37 1515720637.377066: $GPGSA,A,3,7,8,9,11,16,23,27,28,30,1,138,,4.0,0.8,3.5*0F
