2017-12-01 17:03:24 1512165804.673857: {"class":"VERSION","release":"3.16","rev":"3.16-4","proto_major":3,"proto_minor":11}
2017-12-01 17:03:24 1512165804.674263: {"class":"DEVICES","devices":[{"class":"DEVICE","path":"/dev/ttyUSB0","driver":"SiRF","subtype":"9\u0006GSD4e_4.1.2-P1_RPATCH.05-F-GPS-4R-1510281 11/03/2015 307","activated":"2017-12-01T22:03:24.552Z","flags":1,"native":1,"bps":4800,"parity":"N","stopbits":1,"cycle":1.00}]}
2017-12-01 17:03:24 1512165804.674388: {"class":"WATCH","enable":true,"json":false,"nmea":true,"raw":0,"scaled":false,"timing":false,"split24":false,"pps":false}
2017-12-01 17:03:25 1512165805.412584: $GPZDA,220326.00,01,12,2017,00,00*67
2017-12-01 17:03:25 1512165805.412755: $GPGGA,220326,3946.9643,N,08404.9737,W,2,12,0.80,302.48,M,-33.324,M,,*78
2017-12-01 17:03:25 1512165805.412822: $GPRMC,220326,A,3946.9643,N,08404.9737,W,0.0000,0.000,011217,,*3E
2017-12-01 17:03:25 1512165805.412883: $GPGSA,A,3,1,3,10,18,14,22,26,31,32,25,12,138,2.0,0.8,1.5*0A
2017-12-01 17:03:26 1512165806.747566: $GPGSV,3,1,12,01,21,285,44,03,12,316,43,10,32,154,39,18,04,147,13*71
2017-12-01 17:03:26 1512165806.747743: $GPGSV,3,2,12,14,70,007,46,22,31,309,47,26,16,180,33,31,71,246,49*74
2017-12-01 17:03:26 1512165806.747810: $GPGSV,3,3,12,32,61,063,47,25,40,070,25,12,14,037,24,138,38,213,36*49
2017-12-01 17:03:26 1512165806.861430: $GPZDA,220327.00,01,12,2017,00,00*66
2017-12-01 17:03:26 1512165806.861605: $GPGGA,220327,3946.9643,N,08404.9737,W,2,12,0.80,302.48,M,-33.324,M,,*79
2017-12-01 17:03:26 1512165806.861674: $GPRMC,220327,A,3946.9643,N,08404.9737,W,0.0000,0.000,011217,,*3F
2017-12-01 17:03:26 1512165806.861736: $GPGSA,A,3,1,3,10,18,14,22,26,31,32,25,12,138,2.0,0.8,1.5*0A
2017-12-01 17:03:27 1512165807.413013: $GPZDA,220328.00,01,12,2017,00,00*69
2017-12-01 17:03:27 1512165807.413192: $GPGGA,220328,3946.9643,N,08404.9737,W,2,12,0.80,302.48,M,-33.324,M,,*76
2017-12-01 17:03:27 1512165807.413262: $GPRMC,220328,A,3946.9643,N,08404.9737,W,0.0000,0.000,011217,,*30
2017-12-01 17:03:27 1512165807.413324: $GPGSA,A,3,1,3,10,18,14,22,26,31,32,25,12,138,2.0,0.8,1.5*0A
2017-12-01 17:03:28 1512165808.411588: $GPZDA,220329.00,01,12,2017,00,00*68
2017-12-01 17:03:28 1512165808.411766: $GPGGA,220329,3946.9643,N,08404.9737,W,2,12,0.80,302.48,M,-33.324,M,,*77
2017-12-01 17:03:28 1512165808.411837: $GPRMC,220329,A,3946.9643,N,08404.9737,W,0.0000,0.000,011217,,*31
2017-12-01 17:03:28 1512165808.411898: $GPGSA,A,3,1,3,10,18,14,22,26,31,32,25,12,138,2.0,0.8,1.5*0A
2017-12-01 17:03:29 1512165809.764664: $GPGSV,3,1,12,01,21,285,44,03,12,316,43,10,32,154,38,18,04,147,12*71
2017-12-01 17:03:29 1512165809.764854: $GPGSV,3,2,12,14,70,007,46,22,31,309,47,26,16,180,33,31,71,246,48*75
2017-12-01 17:03:29 1512165809.764951: $GPGSV,3,3,12,32,61,063,47,25,40,070,25,12,14,037,24,138,38,213,39*46
2017-12-01 17:03:29 1512165809.878073: $GPZDA,220330.00,01,12,2017,00,00*60
2017-12-01 17:03:29 1512165809.878236: $GPGGA,220330,3946.9643,N,08404.9737,W,2,12,0.80,302.48,M,-33.324,M,,*7F
2017-12-01 17:03:29 1512165809.878303: $GPRMC,220330,A,3946.9643,N,08404.9737,W,0.0000,0.000,011217,,*39
2017-12-01 17:03:29 1512165809.878364: $GPGSA,A,3,1,3,10,18,14,22,26,31,32,25,12,138,2.0,0.8,1.5*0A
2017-12-01 17:03:30 1512165810.430295: $GPZDA,220331.00,01,12,2017,00,00*61
2017-12-01 17:03:30 1512165810.430462: $GPGGA,220331,3946.9643,N,08404.9737,W,2,12,0.80,302.48,M,-33.324,M,,*7E
2017-12-01 17:03:30 1512165810.430530: $GPRMC,220331,A,3946.9643,N,08404.9737,W,0.0000,0.000,011217,,*38
2017-12-01 17:03:30 1512165810.430591: $GPGSA,A,3,1,3,10,18,14,22,26,31,32,25,12,138,2.0,0.8,1.5*0A
2017-12-01 17:03:31 1512165811.430616: $GPZDA,220332.00,01,12,2017,00,00*62
2017-12-01 17:03:31 1512165811.430788: $GPGGA,220332,3946.9643,N,08404.9737,W,2,12,0.80,302.48,M,-33.324,M,,*7D
2017-12-01 17:03:31 1512165811.430856: $GPRMC,220332,A,3946.9643,N,08404.9737,W,0.0000,0.000,011217,,*3B
2017-12-01 17:03:31 1512165811.430917: $GPGSA,A,3,1,3,10,18,14,22,26,31,32,25,12,138,2.0,0.8,1.5*0A
2017-12-01 17:03:32 1512165812.762529: $GPGSV,3,1,12,01,21,285,43,03,12,316,43,10,32,154,38,18,04,147,13*77
2017-12-01 17:03:32 1512165812.762755: $GPGSV,3,2,12,14,70,007,46,22,31,309,47,26,16,180,33,31,71,246,48*75
2017-12-01 17:03:32 1512165812.762824: $GPGSV,3,3,12,32,61,063,47,25,40,070,24,12,14,037,17,138,38,213,39*47
2017-12-01 17:03:32 1512165812.874861: $GPZDA,220333.00,01,12,2017,00,00*63
2017-12-01 17:03:32 1512165812.875030: $GPGGA,220333,3946.9643,N,08404.9737,W,2,12,0.80,302.48,M,-33.324,M,,*7C
2017-12-01 17:03:32 1512165812.875097: $GPRMC,220333,A,3946.9643,N,08404.9737,W,0.0000,0.000,011217,,*3A
2017-12-01 17:03:32 1512165812.875158: $GPGSA,A,3,1,3,10,18,14,22,26,31,32,25,12,138,2.0,0.8,1.5*0A
2017-12-01 17:03:33 1512165813.429347: $GPZDA,220334.00,01,12,2017,00,00*64
2017-12-01 17:03:33 1512165813.429521: $GPGGA,220334,3946.9643,N,08404.9737,W,2,12,0.80,302.48,M,-33.324,M,,*7B
2017-12-01 17:03:33 1512165813.429588: $GPRMC,220334,A,3946.9643,N,08404.9737,W,0.0000,0.000,011217,,*3D
2017-12-01 17:03:33 1512165813.429650: $GPGSA,A,3,1,3,10,18,14,22,26,31,32,25,12,138,2.0,0.8,1.5*0A
2017-12-01 17:03:34 1512165814.412924: $GPZDA,220335.00,01,12,2017,00,00*65
2017-12-01 17:03:34 1512165814.413095: $GPGGA,220335,3946.9643,N,08404.9737,W,2,12,0.80,302.48,M,-33.324,M,,*7A
2017-12-01 17:03:34 1512165814.413163: $GPRMC,220335,A,3946.9643,N,08404.9737,W,0.0000,0.000,011217,,*3C
2017-12-01 17:03:34 1512165814.413224: $GPGSA,A,3,1,3,10,18,14,22,26,31,32,25,12,138,2.0,0.8,1.5*0A
2017-12-01 17:03:35 1512165815.748360: $GPGSV,3,1,12,01,21,285,43,03,12,316,43,10,32,154,37,18,04,147,12*79
2017-12-01 17:03:35 1512165815.748544: $GPGSV,3,2,12,14,70,007,45,22,31,309,47,26,16,180,38,31,71,246,48*7D
2017-12-01 17:03:35 1512165815.748611: $GPGSV,3,3,12,32,61,063,47,25,40,070,24,12,14,037,15,138,38,213,39*45
2017-12-01 17:03:35 1512165815.860615: $GPZDA,220336.00,01,12,2017,00,00*66
2017-12-01 17:03:35 1512165815.860794: $GPGGA,220336,3946.9643,N,08404.9737,W,2,12,0.80,302.48,M,-33.324,M,,*79
2017-12-01 17:03:35 1512165815.860861: $GPRMC,220336,A,3946.9643,N,08404.9737,W,0.0000,0.000,011217,,*3F
2017-12-01 17:03:35 1512165815.860923: $GPGSA,A,3,1,3,10,18,14,22,26,31,32,25,12,138,2.0,0.8,1.5*0A
2017-12-01 17:03:36 1512165816.487453: $GPZDA,220337.00,01,12,2017,00,00*67
2017-12-01 17:03:36 1512165816.487631: $GPGGA,220337,3946.9643,N,08404.9737,W,2,12,0.80,302.48,M,-33.324,M,,*78
2017-12-01 17:03:36 1512165816.487699: $GPRMC,220337,A,3946.9643,N,08404.9737,W,0.0000,0.000,011217,,*3E
2017-12-01 17:03:36 1512165816.487760: $GPGSA,A,3,1,3,10,18,14,22,26,31,32,25,12,138,2.0,0.8,1.5*0A
2017-12-01 17:03:37 1512165817.787070: $GPZDA,220338.00,01,12,2017,00,00*68
2017-12-01 17:03:37 1512165817.787269: $GPGGA,220338,3946.9643,N,08404.9737,W,2,12,0.80,302.48,M,-33.324,M,,*77
2017-12-01 17:03:37 1512165817.787339: $GPRMC,220338,A,3946.9643,N,08404.9737,W,0.0000,0.000,011217,,*31
2017-12-01 17:03:37 1512165817.787401: $GPGSA,A,3,1,3,10,18,14,22,26,31,32,25,12,138,2.0,0.8,1.5*0A
2017-12-01 17:03:37 1512165817.787461: $GPGBS,220338,2.67,M,3.86,M,8.82,M*3A
2017-12-01 17:03:39 1512165819.122111: $GPGSV,3,1,12,01,21,285,43,03,12,316,43,10,32,154,37,18,04,147,14*7F
2017-12-01 17:03:39 1512165819.122293: $GPGSV,3,2,12,14,70,007,45,22,31,309,47,26,16,180,38,31,71,246,48*7D
2017-12-01 17:03:39 1512165819.122359: $GPGSV,3,3,12,32,61,063,46,25,40,069,24,12,14,037,14,138,38,213,38*4C
2017-12-01 17:03:39 1512165819.235437: $GPZDA,220339.00,01,12,2017,00,00*69
2017-12-01 17:03:39 1512165819.235610: $GPGGA,220339,3946.9643,N,08404.9737,W,2,12,0.80,302.48,M,-33.324,M,,*76
2017-12-01 17:03:39 1512165819.235678: $GPRMC,220339,A,3946.9643,N,08404.9737,W,0.0000,0.000,011217,,*30
2017-12-01 17:03:39 1512165819.235738: $GPGSA,A,3,1,3,10,18,14,22,26,31,32,25,12,138,2.0,0.8,1.5*0A
2017-12-01 17:03:39 1512165819.858217: $GPZDA,220340.00,01,12,2017,00,00*67
2017-12-01 17:03:39 1512165819.858396: $GPGGA,220340,3946.9643,N,08404.9737,W,2,12,0.80,302.48,M,-33.324,M,,*78
2017-12-01 17:03:39 1512165819.858463: $GPRMC,220340,A,3946.9643,N,08404.9737,W,0.0000,0.000,011217,,*3E
2017-12-01 17:03:39 1512165819.858524: $GPGSA,A,3,1,3,10,18,14,22,26,31,32,25,12,138,2.0,0.8,1.5*0A
2017-12-01 17:03:39 1512165819.858633: $GPGBS,220340,2.67,M,3.86,M,8.82,M*35
2017-12-01 17:03:40 1512165820.411691: $GPZDA,220341.00,01,12,2017,00,00*66
2017-12-01 17:03:40 1512165820.411861: $GPGGA,220341,3946.9643,N,08404.9737,W,2,12,0.80,302.48,M,-33.324,M,,*79
2017-12-01 17:03:40 1512165820.411927: $GPRMC,220341,A,3946.9643,N,08404.9737,W,0.0000,0.000,011217,,*3F
2017-12-01 17:03:40 1512165820.411988: $GPGSA,A,3,1,3,10,18,14,22,26,31,32,25,12,138,2.0,0.8,1.5*0A
2017-12-01 17:03:40 1512165820.412047: $GPGBS,220341,2.67,M,3.86,M,8.82,M*34
2017-12-01 17:03:41 1512165821.765575: $GPGSV,3,1,12,01,21,285,43,03,12,316,43,10,32,154,37,18,04,147,16*7D
2017-12-01 17:03:41 1512165821.765754: $GPGSV,3,2,12,14,70,007,45,22,31,309,47,26,16,180,38,31,71,246,49*7C
2017-12-01 17:03:41 1512165821.765822: $GPGSV,3,3,12,32,61,063,47,25,40,069,25,12,14,037,22,138,38,213,40*46
2017-12-01 17:03:41 1512165821.878930: $GPZDA,220342.00,01,12,2017,00,00*65
2017-12-01 17:03:41 1512165821.879090: $GPGGA,220342,3946.9643,N,08404.9737,W,2,12,0.80,302.48,M,-33.324,M,,*7A
2017-12-01 17:03:41 1512165821.879158: $GPRMC,220342,A,3946.9643,N,08404.9737,W,0.0000,0.000,011217,,*3C
2017-12-01 17:03:41 1512165821.879219: $GPGSA,A,3,1,3,10,18,14,22,26,31,32,25,12,138,2.0,0.8,1.5*0A
2017-12-01 17:03:42 1512165822.427337: $GPZDA,220343.00,01,12,2017,00,00*64
2017-12-01 17:03:42 1512165822.427509: $GPGGA,220343,3946.9643,N,08404.9737,W,2,12,0.80,302.48,M,-33.324,M,,*7B
2017-12-01 17:03:42 1512165822.427576: $GPRMC,220343,A,3946.9643,N,08404.9737,W,0.0000,0.000,011217,,*3D
2017-12-01 17:03:42 1512165822.427638: $GPGSA,A,3,1,3,10,18,14,22,26,31,32,25,12,138,2.0,0.8,1.5*0A
2017-12-01 17:03:43 1512165823.429503: $GPZDA,220344.00,01,12,2017,00,00*63
2017-12-01 17:03:43 1512165823.429661: $GPGGA,220344,3946.9643,N,08404.9737,W,2,12,0.80,302.48,M,-33.324,M,,*7C
2017-12-01 17:03:43 1512165823.429727: $GPRMC,220344,A,3946.9643,N,08404.9737,W,0.0000,0.000,011217,,*3A
2017-12-01 17:03:43 1512165823.429788: $GPGSA,A,3,1,3,10,18,14,22,26,31,32,25,12,138,2.0,0.8,1.5*0A
