2017-11-16 14:12:08 1510859528.726838: {"class":"VERSION","release":"3.17","rev":"3.17","proto_major":3,"proto_minor":12}
2017-11-16 14:12:08 1510859528.727261: {"class":"DEVICES","devices":[{"class":"DEVICE","path":"/dev/ttyUSB0","driver":"SiRF","subtype":"9\u0006GSD4e_4.1.2-P1_RPATCH.05-F-GPS-4R-1510281 11/03/2015 307","activated":"2017-11-16T19:12:08.688Z","flags":1,"native":1,"bps":4800,"parity":"N","stopbits":1,"cycle":1.00}]}
2017-11-16 14:12:08 1510859528.727368: {"class":"WATCH","enable":true,"json":false,"nmea":true,"raw":0,"scaled":false,"timing":false,"split24":false,"pps":false}
2017-11-16 14:12:09 1510859529.861557: $GPGSV,3,1,12,08,06,322,28,10,41,300,42,13,08,048,23,15,38,052,50*74
2017-11-16 14:12:09 1510859529.861729: $GPGSV,3,2,12,18,70,334,47,21,65,192,46,20,33,096,46,24,50,111,48*7B
2017-11-16 14:12:09 1510859529.861789: $GPGSV,3,3,12,27,19,289,40,32,20,237,45,14,04,232,00,138,38,213,44*47
2017-11-16 14:12:09 1510859529.975147: $GPZDA,191208.00,16,11,2017,00,00*66
2017-11-16 14:12:09 1510859529.975307: $GPGGA,191208,3946.9546,N,08404.9852,W,1,11,0.80,305.08,M,-33.324,M,,*75
2017-11-16 14:12:09 1510859529.975368: $GPRMC,191208,A,3946.9546,N,08404.9852,W,0.0000,0.000,161117,,*35
2017-11-16 14:12:09 1510859529.975424: $GPGSA,A,3,8,10,13,15,18,21,20,24,27,32,138,,1.6,0.8,1.3*30
2017-11-16 14:12:10 1510859530.525892: $GPZDA,191209.00,16,11,2017,00,00*67
2017-11-16 14:12:10 1510859530.526068: $GPGGA,191209,3946.9546,N,08404.9852,W,1,11,0.80,305.08,M,-33.324,M,,*74
2017-11-16 14:12:10 1510859530.526131: $GPRMC,191209,A,3946.9546,N,08404.9852,W,0.0000,0.000,161117,,*34
2017-11-16 14:12:10 1510859530.526188: $GPGSA,A,3,8,10,13,15,18,21,20,24,27,32,138,,1.6,0.8,1.3*30
2017-11-16 14:12:11 1510859531.526347: $GPZDA,191210.00,16,11,2017,00,00*6F
2017-11-16 14:12:11 1510859531.526518: $GPGGA,191210,3946.9546,N,08404.9852,W,1,11,0.80,305.08,M,-33.324,M,,*7C
2017-11-16 14:12:11 1510859531.526581: $GPRMC,191210,A,3946.9546,N,08404.9852,W,0.0000,0.000,161117,,*3C
2017-11-16 14:12:11 1510859531.526637: $GPGSA,A,3,8,10,13,15,18,21,20,24,27,32,138,,1.6,0.8,1.3*30
2017-11-16 14:12:12 1510859532.863223: $GPGSV,3,1,12,08,06,322,28,10,41,300,43,13,08,048,19,15,38,052,50*7C
2017-11-16 14:12:12 1510859532.863396: $GPGSV,3,2,12,18,70,334,47,21,65,192,46,20,33,096,46,24,50,111,48*7B
2017-11-16 14:12:12 1510859532.863457: $GPGSV,3,3,12,27,19,289,40,32,20,237,45,14,04,232,00,138,38,213,44*47
2017-11-16 14:12:12 1510859532.976550: $GPZDA,191211.00,16,11,2017,00,00*6E
2017-11-16 14:12:12 1510859532.976711: $GPGGA,191211,3946.9546,N,08404.9852,W,1,11,0.80,305.08,M,-33.324,M,,*7D
2017-11-16 14:12:12 1510859532.976772: $GPRMC,191211,A,3946.9546,N,08404.9852,W,0.0000,0.000,161117,,*3D
2017-11-16 14:12:12 1510859532.976828: $GPGSA,A,3,8,10,13,15,18,21,20,24,27,32,138,,1.6,0.8,1.3*30
2017-11-16 14:12:13 1510859533.553863: $GPZDA,191212.00,16,11,2017,00,00*6D
2017-11-16 14:12:13 1510859533.554023: $GPGGA,191212,3946.9546,N,08404.9852,W,1,11,0.80,305.08,M,-33.324,M,,*7E
2017-11-16 14:12:13 1510859533.554084: $GPRMC,191212,A,3946.9546,N,08404.9852,W,0.0000,0.000,161117,,*3E
2017-11-16 14:12:13 1510859533.554140: $GPGSA,A,3,8,10,13,15,18,21,20,24,27,32,138,,1.6,0.8,1.3*30
2017-11-16 14:12:14 1510859534.553822: $GPZDA,191213.00,16,11,2017,00,00*6C
2017-11-16 14:12:14 1510859534.553994: $GPGGA,191213,3946.9546,N,08404.9852,W,1,11,0.80,305.08,M,-33.324,M,,*7F
2017-11-16 14:12:14 1510859534.554059: $GPRMC,191213,A,3946.9546,N,08404.9852,W,0.0000,0.000,161117,,*3F
2017-11-16 14:12:14 1510859534.554115: $GPGSA,A,3,8,10,13,15,18,21,20,24,27,32,138,,1.6,0.8,1.3*30
2017-11-16 14:12:15 1510859535.860735: $GPGSV,3,1,12,08,06,322,29,10,41,300,43,13,08,048,20,15,38,052,50*77
2017-11-16 14:12:15 1510859535.860916: $GPGSV,3,2,12,18,70,334,47,21,65,192,46,20,33,096,46,24,50,111,48*7B
2017-11-16 14:12:15 1510859535.860978: $GPGSV,3,3,12,27,19,289,40,32,20,237,45,14,04,232,00,138,38,213,44*47
2017-11-16 14:12:15 1510859535.974298: $GPZDA,191214.00,16,11,2017,00,00*6B
2017-11-16 14:12:15 1510859535.974459: $GPGGA,191214,3946.9546,N,08404.9852,W,1,11,0.80,305.08,M,-33.324,M,,*78
2017-11-16 14:12:15 1510859535.974573: $GPRMC,191214,A,3946.9546,N,08404.9852,W,0.0000,0.000,161117,,*38
2017-11-16 14:12:15 1510859535.974632: $GPGSA,A,3,8,10,13,15,18,21,20,24,27,32,138,,1.6,0.8,1.3*30
2017-11-16 14:12:16 1510859536.552557: $GPZDA,191215.00,16,11,2017,00,00*6A
2017-11-16 14:12:16 1510859536.552717: $GPGGA,191215,3946.9546,N,08404.9852,W,1,11,0.80,305.08,M,-33.324,M,,*79
2017-11-16 14:12:16 1510859536.552782: $GPRMC,191215,A,3946.9546,N,08404.9852,W,0.0000,0.000,161117,,*39
2017-11-16 14:12:16 1510859536.552838: $GPGSA,A,3,8,10,13,15,18,21,20,24,27,32,138,,1.6,0.8,1.3*30
2017-11-16 14:12:17 1510859537.553144: $GPZDA,191216.00,16,11,2017,00,00*69
2017-11-16 14:12:17 1510859537.553295: $GPGGA,191216,3946.9546,N,08404.9852,W,1,11,0.80,305.08,M,-33.324,M,,*7A
2017-11-16 14:12:17 1510859537.553358: $GPRMC,191216,A,3946.9546,N,08404.9852,W,0.0000,0.000,161117,,*3A
2017-11-16 14:12:17 1510859537.553416: $GPGSA,A,3,8,10,13,15,18,21,20,24,27,32,138,,1.6,0.8,1.3*30
