2017-11-15 19:55:41 1510793741.424381: {"class":"VERSION","release":"3.17","rev":"3.17","proto_major":3,"proto_minor":12}
2017-11-15 19:55:41 1510793741.424843: {"class":"DEVICES","devices":[{"class":"DEVICE","path":"/dev/ttyUSB0","driver":"SiRF","subtype":"9\u0006GSD4e_4.1.2-P1_RPATCH.05-F-GPS-4R-1510281 11/03/2015 307","activated":"2017-11-16T00:55:41.384Z","flags":1,"native":1,"bps":4800,"parity":"N","stopbits":1,"cycle":1.00}]}
2017-11-15 19:55:41 1510793741.424961: {"class":"WATCH","enable":true,"json":false,"nmea":true,"raw":0,"scaled":false,"timing":false,"split24":false,"pps":false}
2017-11-15 19:55:42 1510793742.664750: $GPGSV,3,1,11,03,44,285,00,16,34,190,23,31,58,040,20,26,65,165,20*70
2017-11-15 19:55:42 1510793742.664930: $GPGSV,3,2,11,14,46,106,21,22,48,252,22,32,27,117,18,23,20,304,10*7D
2017-11-15 19:55:42 1510793742.664989: $GPGSV,3,3,11,29,13,060,00,25,08,037,00,138,38,213,00*7C
2017-11-15 19:55:42 1510793742.778051: $GPZDA,005541.00,16,11,2017,00,00*60
2017-11-15 19:55:42 1510793742.778164: $GPGGA,005541,3946.9523,N,08404.9514,W,1,07,1.00,288.38,M,-33.324,M,,*76
2017-11-15 19:55:42 1510793742.778223: $GPRMC,005541,A,3946.9523,N,08404.9514,W,0.8414,39.347,161117,,*0C
2017-11-15 19:55:42 1510793742.778279: $GPGSA,A,3,16,31,26,14,22,32,23,,,,,,3.4,1.0,2.9*3B
2017-11-15 19:55:43 1510793743.329235: $GPZDA,005542.00,16,11,2017,00,00*63
2017-11-15 19:55:43 1510793743.329392: $GPGGA,005542,3946.9523,N,08404.9514,W,1,07,1.00,288.38,M,-33.324,M,,*75
2017-11-15 19:55:43 1510793743.329468: $GPRMC,005542,A,3946.9523,N,08404.9514,W,0.7246,344.668,161117,,*30
2017-11-15 19:55:43 1510793743.329525: $GPGSA,A,3,16,31,26,14,22,32,23,,,,,,3.4,1.0,2.9*3B
2017-11-15 19:55:44 1510793744.344823: $GPZDA,005543.00,16,11,2017,00,00*62
2017-11-15 19:55:44 1510793744.344991: $GPGGA,005543,3946.9523,N,08404.9514,W,1,07,1.00,288.38,M,-33.324,M,,*74
2017-11-15 19:55:44 1510793744.345052: $GPRMC,005543,A,3946.9523,N,08404.9514,W,0.5912,309.173,161117,,*3D
2017-11-15 19:55:44 1510793744.345109: $GPGSA,A,3,16,31,26,14,22,32,23,,,,,,3.4,1.0,2.9*3B
2017-11-15 19:55:45 1510793745.681861: $GPGSV,3,1,11,03,44,285,00,16,34,190,23,31,58,040,19,26,65,165,20*7A
2017-11-15 19:55:45 1510793745.682003: $GPGSV,3,2,11,14,46,106,21,22,48,252,21,32,27,117,18,23,20,304,10*7E
2017-11-15 19:55:45 1510793745.682063: $GPGSV,3,3,11,29,13,060,00,25,08,037,00,138,38,213,00*7C
2017-11-15 19:55:45 1510793745.795501: $GPZDA,005544.00,16,11,2017,00,00*65
2017-11-15 19:55:45 1510793745.795654: $GPGGA,005544,3946.9527,N,08404.9514,W,1,07,1.00,289.02,M,-33.324,M,,*7F
2017-11-15 19:55:45 1510793745.795714: $GPRMC,005544,A,3946.9527,N,08404.9514,W,1.0002,334.331,161117,,*38
2017-11-15 19:55:45 1510793745.795769: $GPGSA,A,3,16,31,26,14,22,32,23,,,,,,3.4,1.0,2.9*3B
2017-11-15 19:55:46 1510793746.420841: $GPZDA,005545.00,16,11,2017,00,00*64
2017-11-15 19:55:46 1510793746.421001: $GPGGA,005545,3946.9528,N,08404.9521,W,1,07,1.00,288.94,M,-33.324,M,,*79
2017-11-15 19:55:46 1510793746.421062: $GPRMC,005545,A,3946.9528,N,08404.9521,W,0.9066,309.458,161117,,*3C
2017-11-15 19:55:46 1510793746.421117: $GPGSA,A,3,16,31,26,14,22,32,23,,,,,,3.4,1.0,2.9*3B
2017-11-15 19:55:47 1510793747.344231: $GPZDA,005546.00,16,11,2017,00,00*67
2017-11-15 19:55:47 1510793747.344388: $GPGGA,005546,3946.9528,N,08404.9521,W,1,07,1.00,288.94,M,-33.324,M,,*7A
2017-11-15 19:55:47 1510793747.344449: $GPRMC,005546,A,3946.9528,N,08404.9521,W,0.8359,328.778,161117,,*33
2017-11-15 19:55:47 1510793747.344505: $GPGSA,A,3,16,31,26,14,22,32,23,,,,,,3.4,1.0,2.9*3B
2017-11-15 19:55:48 1510793748.681062: $GPGSV,3,1,11,03,44,285,00,16,34,190,23,31,58,040,18,26,65,165,21*7A
2017-11-15 19:55:48 1510793748.681243: $GPGSV,3,2,11,14,46,106,21,22,48,252,20,32,27,117,19,23,20,304,08*77
2017-11-15 19:55:48 1510793748.681304: $GPGSV,3,3,11,29,13,060,00,25,08,037,00,138,38,213,00*7C
2017-11-15 19:55:48 1510793748.794573: $GPZDA,005547.00,16,11,2017,00,00*66
2017-11-15 19:55:48 1510793748.794723: $GPGGA,005547,3946.9528,N,08404.9521,W,1,07,1.00,288.94,M,-33.324,M,,*7B
2017-11-15 19:55:48 1510793748.794782: $GPRMC,005547,A,3946.9528,N,08404.9521,W,0.3423,4.197,161117,,*39
2017-11-15 19:55:48 1510793748.794908: $GPGSA,A,3,16,31,26,14,22,32,23,,,,,,3.4,1.0,2.9*3B
2017-11-15 19:55:49 1510793749.329224: $GPZDA,005548.00,16,11,2017,00,00*69
2017-11-15 19:55:49 1510793749.329369: $GPGGA,005548,3946.9528,N,08404.9521,W,1,07,1.60,288.94,M,-33.324,M,,*72
2017-11-15 19:55:49 1510793749.329428: $GPRMC,005548,A,3946.9528,N,08404.9521,W,0.4844,273.794,161117,,*3B
2017-11-15 19:55:49 1510793749.329483: $GPGSA,A,3,16,31,26,14,22,32,23,,,,,,3.4,1.6,2.9*3D
2017-11-15 19:55:50 1510793750.344781: $GPZDA,005549.00,16,11,2017,00,00*68
2017-11-15 19:55:50 1510793750.344962: $GPGGA,005549,3946.9528,N,08404.9521,W,1,07,1.60,288.94,M,-33.324,M,,*73
2017-11-15 19:55:50 1510793750.345024: $GPRMC,005549,A,3946.9528,N,08404.9521,W,0.2422,273.794,161117,,*30
2017-11-15 19:55:50 1510793750.345080: $GPGSA,A,3,16,31,26,14,22,32,23,,,,,,3.4,1.6,2.9*3D
