2017-11-16 17:02:14 1510869734.332508: {"class":"VERSION","release":"3.17","rev":"3.17","proto_major":3,"proto_minor":12}
2017-11-16 17:02:14 1510869734.332961: {"class":"DEVICES","devices":[{"class":"DEVICE","path":"/dev/ttyUSB0","driver":"SiRF","subtype":"9\u0006GSD4e_4.1.2-P1_RPATCH.05-F-GPS-4R-1510281 11/03/2015 307","activated":"2017-11-16T22:02:14.300Z","flags":1,"native":1,"bps":4800,"parity":"N","stopbits":1,"cycle":1.00}]}
2017-11-16 17:02:14 1510869734.333073: {"class":"WATCH","enable":true,"json":false,"nmea":true,"raw":0,"scaled":false,"timing":false,"split24":false,"pps":false}
2017-11-16 17:02:14 1510869734.413843: $GPZDA,220213.00,16,11,2017,00,00*65
2017-11-16 17:02:14 1510869734.414024: $GPGGA,220213,3946.9602,N,08404.9823,W,2,12,0.80,311.55,M,-33.324,M,,*7E
2017-11-16 17:02:14 1510869734.414085: $GPRMC,220213,A,3946.9602,N,08404.9823,W,0.0000,0.000,161117,,*33
2017-11-16 17:02:14 1510869734.414141: $GPGSA,A,3,1,10,11,12,14,18,25,31,32,22,24,138,1.6,0.8,1.3*38
2017-11-16 17:02:15 1510869735.746994: $GPGSV,3,1,12,01,17,313,42,10,62,139,48,11,11,294,38,12,25,064,50*7D
2017-11-16 17:02:15 1510869735.747193: $GPGSV,3,2,12,14,59,303,46,18,31,138,42,25,34,108,46,31,41,216,47*7D
2017-11-16 17:02:15 1510869735.747261: $GPGSV,3,3,12,32,69,346,51,22,08,312,31,24,08,046,27,138,38,213,44*43
2017-11-16 17:02:15 1510869735.860374: $GPZDA,220214.00,16,11,2017,00,00*62
2017-11-16 17:02:15 1510869735.860532: $GPGGA,220214,3946.9602,N,08404.9823,W,2,12,0.80,311.55,M,-33.324,M,,*79
2017-11-16 17:02:15 1510869735.860592: $GPRMC,220214,A,3946.9602,N,08404.9823,W,0.0000,0.000,161117,,*34
2017-11-16 17:02:15 1510869735.860648: $GPGSA,A,3,1,10,11,12,14,18,25,31,32,22,24,138,1.6,0.8,1.3*38
2017-11-16 17:02:16 1510869736.485472: $GPZDA,220215.00,16,11,2017,00,00*63
2017-11-16 17:02:16 1510869736.485622: $GPGGA,220215,3946.9602,N,08404.9823,W,2,12,0.80,311.55,M,-33.324,M,,*78
2017-11-16 17:02:16 1510869736.485683: $GPRMC,220215,A,3946.9602,N,08404.9823,W,0.0000,0.000,161117,,*35
2017-11-16 17:02:16 1510869736.485739: $GPGSA,A,3,1,10,11,12,14,18,25,31,32,22,24,138,1.6,0.8,1.3*38
2017-11-16 17:02:17 1510869737.397443: $GPZDA,220216.00,16,11,2017,00,00*60
2017-11-16 17:02:17 1510869737.397605: $GPGGA,220216,3946.9602,N,08404.9823,W,2,12,0.80,311.55,M,-33.324,M,,*7B
2017-11-16 17:02:17 1510869737.397667: $GPRMC,220216,A,3946.9602,N,08404.9823,W,0.0000,0.000,161117,,*36
2017-11-16 17:02:17 1510869737.397723: $GPGSA,A,3,1,10,11,12,14,18,25,31,32,22,24,138,1.6,0.8,1.3*38
2017-11-16 17:02:18 1510869738.734509: $GPGSV,3,1,12,01,17,313,42,10,62,139,48,11,11,294,38,12,25,064,51*7C
2017-11-16 17:02:18 1510869738.734680: $GPGSV,3,2,12,14,59,303,46,18,31,138,42,25,34,108,46,31,41,216,47*7D
2017-11-16 17:02:18 1510869738.734740: $GPGSV,3,3,12,32,69,346,51,22,08,312,32,24,08,046,27,138,38,213,45*41
2017-11-16 17:02:18 1510869738.847797: $GPZDA,220217.00,16,11,2017,00,00*61
2017-11-16 17:02:18 1510869738.847958: $GPGGA,220217,3946.9602,N,08404.9823,W,2,12,0.80,311.55,M,-33.324,M,,*7A
2017-11-16 17:02:18 1510869738.848019: $GPRMC,220217,A,3946.9602,N,08404.9823,W,0.0000,0.000,161117,,*37
2017-11-16 17:02:18 1510869738.848075: $GPGSA,A,3,1,10,11,12,14,18,25,31,32,22,24,138,1.6,0.8,1.3*38
2017-11-16 17:02:19 1510869739.413992: $GPZDA,220218.00,16,11,2017,00,00*6E
2017-11-16 17:02:19 1510869739.414165: $GPGGA,220218,3946.9602,N,08404.9823,W,2,12,0.80,311.55,M,-33.324,M,,*75
2017-11-16 17:02:19 1510869739.414246: $GPRMC,220218,A,3946.9602,N,08404.9823,W,0.0000,0.000,161117,,*38
2017-11-16 17:02:19 1510869739.414303: $GPGSA,A,3,1,10,11,12,14,18,25,31,32,22,24,138,1.6,0.8,1.3*38
2017-11-16 17:02:20 1510869740.394753: $GPZDA,220219.00,16,11,2017,00,00*6F
2017-11-16 17:02:20 1510869740.394919: $GPGGA,220219,3946.9602,N,08404.9823,W,2,12,0.80,311.55,M,-33.324,M,,*74
2017-11-16 17:02:20 1510869740.394980: $GPRMC,220219,A,3946.9602,N,08404.9823,W,0.0000,0.000,161117,,*39
2017-11-16 17:02:20 1510869740.395121: $GPGSA,A,3,1,10,11,12,14,18,25,31,32,22,24,138,1.6,0.8,1.3*38
2017-11-16 17:02:21 1510869741.733732: $GPGSV,3,1,12,01,17,313,42,10,62,139,48,11,11,294,38,12,25,064,50*7D
2017-11-16 17:02:21 1510869741.733966: $GPGSV,3,2,12,14,59,303,46,18,31,138,42,25,34,108,46,31,41,216,47*7D
2017-11-16 17:02:21 1510869741.734030: $GPGSV,3,3,12,32,69,346,51,22,08,312,32,24,08,046,28,138,38,213,44*4F
2017-11-16 17:02:21 1510869741.847095: $GPZDA,220220.00,16,11,2017,00,00*65
2017-11-16 17:02:21 1510869741.847270: $GPGGA,220220,3946.9602,N,08404.9823,W,2,12,0.80,311.55,M,-33.324,M,,*7E
2017-11-16 17:02:21 1510869741.847330: $GPRMC,220220,A,3946.9602,N,08404.9823,W,0.0000,0.000,161117,,*33
2017-11-16 17:02:21 1510869741.847387: $GPGSA,A,3,1,10,11,12,14,18,25,31,32,22,24,138,1.6,0.8,1.3*38
2017-11-16 17:02:22 1510869742.414525: $GPZDA,220221.00,16,11,2017,00,00*64
2017-11-16 17:02:22 1510869742.414687: $GPGGA,220221,3946.9602,N,08404.9823,W,2,12,0.80,311.55,M,-33.324,M,,*7F
2017-11-16 17:02:22 1510869742.414748: $GPRMC,220221,A,3946.9602,N,08404.9823,W,0.0000,0.000,161117,,*32
2017-11-16 17:02:22 1510869742.414804: $GPGSA,A,3,1,10,11,12,14,18,25,31,32,22,24,138,1.6,0.8,1.3*38
2017-11-16 17:02:23 1510869743.413293: $GPZDA,220222.00,16,11,2017,00,00*67
2017-11-16 17:02:23 1510869743.413466: $GPGGA,220222,3946.9602,N,08404.9823,W,2,12,0.80,311.55,M,-33.324,M,,*7C
2017-11-16 17:02:23 1510869743.413528: $GPRMC,220222,A,3946.9602,N,08404.9823,W,0.0000,0.000,161117,,*31
2017-11-16 17:02:23 1510869743.413606: $GPGSA,A,3,1,10,11,12,14,18,25,31,32,22,24,138,1.6,0.8,1.3*38
