2017-12-01 12:27:58 1512149278.297117: {"class":"VERSION","release":"3.16","rev":"3.16-4","proto_major":3,"proto_minor":11}
2017-12-01 12:27:58 1512149278.297682: {"class":"DEVICES","devices":[{"class":"DEVICE","path":"/dev/ttyUSB0","driver":"SiRF","subtype":"9\u0006GSD4e_4.1.2-P1_RPATCH.05-F-GPS-4R-1510281 11/03/2015 307","activated":"2017-12-01T17:27:58.272Z","flags":1,"native":1,"bps":4800,"parity":"N","stopbits":1,"cycle":1.00}]}
2017-12-01 12:27:58 1512149278.297824: {"class":"WATCH","enable":true,"json":false,"nmea":true,"raw":0,"scaled":false,"timing":false,"split24":false,"pps":false}
2017-12-01 12:27:58 1512149278.386195: $GPZDA,172759.00,01,12,2017,00,00*6F
2017-12-01 12:27:58 1512149278.386367: $GPGGA,172759,3946.9596,N,08404.9817,W,2,12,0.80,300.31,M,-33.324,M,,*7A
2017-12-01 12:27:58 1512149278.386433: $GPRMC,172759,A,3946.9596,N,08404.9817,W,0.0000,0.000,011217,,*30
2017-12-01 12:27:58 1512149278.386494: $GPGSA,A,3,10,13,15,18,20,21,24,27,29,5,32,138,2.0,0.8,1.5*35
2017-12-01 12:27:59 1512149279.720714: $GPGSV,3,1,12,10,27,286,41,13,25,045,42,15,56,049,46,18,57,306,46*73
2017-12-01 12:27:59 1512149279.720928: $GPGSV,3,2,12,20,48,076,45,21,79,243,42,24,37,135,47,27,18,309,34*7C
2017-12-01 12:27:59 1512149279.720995: $GPGSV,3,3,12,29,06,187,32,05,01,090,25,32,05,228,27,138,38,213,46*48
2017-12-01 12:27:59 1512149279.834551: $GPZDA,172800.00,01,12,2017,00,00*6C
2017-12-01 12:27:59 1512149279.834773: $GPGGA,172800,3946.9596,N,08404.9817,W,2,12,0.80,300.31,M,-33.324,M,,*79
2017-12-01 12:27:59 1512149279.834841: $GPRMC,172800,A,3946.9596,N,08404.9817,W,0.0000,0.000,011217,,*33
2017-12-01 12:27:59 1512149279.834903: $GPGSA,A,3,10,13,15,18,20,21,24,27,29,5,32,138,2.0,0.8,1.5*35
2017-12-01 12:28:00 1512149280.460830: $GPZDA,172801.00,01,12,2017,00,00*6D
2017-12-01 12:28:00 1512149280.461001: $GPGGA,172801,3946.9596,N,08404.9817,W,2,12,0.80,300.31,M,-33.324,M,,*78
2017-12-01 12:28:00 1512149280.461068: $GPRMC,172801,A,3946.9596,N,08404.9817,W,0.0000,0.000,011217,,*32
2017-12-01 12:28:00 1512149280.461129: $GPGSA,A,3,10,13,15,18,20,21,24,27,29,5,32,138,2.0,0.8,1.5*35
2017-12-01 12:28:01 1512149281.381723: $GPZDA,172802.00,01,12,2017,00,00*6E
2017-12-01 12:28:01 1512149281.381927: $GPGGA,172802,3946.9596,N,08404.9817,W,2,12,0.80,300.31,M,-33.324,M,,*7B
2017-12-01 12:28:01 1512149281.381998: $GPRMC,172802,A,3946.9596,N,08404.9817,W,0.0000,0.000,011217,,*31
2017-12-01 12:28:01 1512149281.382060: $GPGSA,A,3,10,13,15,18,20,21,24,27,29,5,32,138,2.0,0.8,1.5*35
2017-12-01 12:28:02 1512149282.717359: $GPGSV,3,1,12,10,27,286,41,13,25,045,43,15,56,049,46,18,57,306,45*71
2017-12-01 12:28:02 1512149282.717538: $GPGSV,3,2,12,20,48,076,46,21,79,243,42,24,37,135,47,27,18,309,35*7E
2017-12-01 12:28:02 1512149282.717604: $GPGSV,3,3,12,29,06,187,32,05,01,090,25,32,05,228,27,138,38,213,46*48
2017-12-01 12:28:02 1512149282.830816: $GPZDA,172803.00,01,12,2017,00,00*6F
2017-12-01 12:28:02 1512149282.830989: $GPGGA,172803,3946.9596,N,08404.9817,W,2,12,0.80,300.31,M,-33.324,M,,*7A
2017-12-01 12:28:02 1512149282.831058: $GPRMC,172803,A,3946.9596,N,08404.9817,W,0.0000,0.000,011217,,*30
2017-12-01 12:28:02 1512149282.831119: $GPGSA,A,3,10,13,15,18,20,21,24,27,29,5,32,138,2.0,0.8,1.5*35
2017-12-01 12:28:03 1512149283.385371: $GPZDA,172804.00,01,12,2017,00,00*68
2017-12-01 12:28:03 1512149283.385545: $GPGGA,172804,3946.9596,N,08404.9817,W,2,12,0.80,300.31,M,-33.324,M,,*7D
2017-12-01 12:28:03 1512149283.385613: $GPRMC,172804,A,3946.9596,N,08404.9817,W,0.0000,0.000,011217,,*37
2017-12-01 12:28:03 1512149283.385699: $GPGSA,A,3,10,13,15,18,20,21,24,27,29,5,32,138,2.0,0.8,1.5*35
2017-12-01 12:28:04 1512149284.386292: $GPZDA,172805.00,01,12,2017,00,00*69
2017-12-01 12:28:04 1512149284.386480: $GPGGA,172805,3946.9596,N,08404.9817,W,2,12,0.80,300.31,M,-33.324,M,,*7C
2017-12-01 12:28:04 1512149284.386549: $GPRMC,172805,A,3946.9596,N,08404.9817,W,0.0000,0.000,011217,,*36
2017-12-01 12:28:04 1512149284.386610: $GPGSA,A,3,10,13,15,18,20,21,24,27,29,5,32,138,2.0,0.8,1.5*35
2017-12-01 12:28:05 1512149285.722741: $GPGSV,3,1,12,10,27,286,41,13,25,045,43,15,56,049,46,18,57,306,46*72
2017-12-01 12:28:05 1512149285.723011: $GPGSV,3,2,12,20,48,076,46,21,79,243,42,24,37,135,47,27,18,309,36*7D
2017-12-01 12:28:05 1512149285.723082: $GPGSV,3,3,12,29,06,187,32,05,01,090,22,32,05,228,27,138,38,213,47*4E
2017-12-01 12:28:05 1512149285.836169: $GPZDA,172806.00,01,12,2017,00,00*6A
2017-12-01 12:28:05 1512149285.836315: $GPGGA,172806,3946.9596,N,08404.9817,W,2,12,0.80,300.31,M,-33.324,M,,*7F
2017-12-01 12:28:05 1512149285.836381: $GPRMC,172806,A,3946.9596,N,08404.9817,W,0.0000,0.000,011217,,*35
2017-12-01 12:28:05 1512149285.836442: $GPGSA,A,3,10,13,15,18,20,21,24,27,29,5,32,138,2.0,0.8,1.5*35
2017-12-01 12:28:06 1512149286.387019: $GPZDA,172807.00,01,12,2017,00,00*6B
2017-12-01 12:28:06 1512149286.387186: $GPGGA,172807,3946.9596,N,08404.9817,W,2,12,0.80,300.31,M,-33.324,M,,*7E
2017-12-01 12:28:06 1512149286.387252: $GPRMC,172807,A,3946.9596,N,08404.9817,W,0.0000,0.000,011217,,*34
2017-12-01 12:28:06 1512149286.387313: $GPGSA,A,3,10,13,15,18,20,21,24,27,29,5,32,138,2.0,0.8,1.5*35
2017-12-01 12:28:07 1512149287.380371: $GPZDA,172808.00,01,12,2017,00,00*64
2017-12-01 12:28:07 1512149287.380588: $GPGGA,172808,3946.9596,N,08404.9817,W,2,12,0.80,300.31,M,-33.324,M,,*71
2017-12-01 12:28:07 1512149287.380681: $GPRMC,172808,A,3946.9596,N,08404.9817,W,0.0000,0.000,011217,,*3B
2017-12-01 12:28:07 1512149287.380747: $GPGSA,A,3,10,13,15,18,20,21,24,27,29,5,32,138,2.0,0.8,1.5*35
