2017-12-31 17:01:42 1514757702.289728: {"class":"VERSION","release":"3.16","rev":"3.16-4","proto_major":3,"proto_minor":11}
2017-12-31 17:01:42 1514757702.290071: {"class":"DEVICES","devices":[{"class":"DEVICE","path":"/dev/ttyUSB0","driver":"SiRF","activated":"2017-12-31T22:01:42.247Z","flags":1,"native":1,"bps":4800,"parity":"N","stopbits":1,"cycle":1.00}]}
2017-12-31 17:01:42 1514757702.290187: {"class":"WATCH","enable":true,"json":false,"nmea":true,"raw":0,"scaled":false,"timing":false,"split24":false,"pps":false}
2017-12-31 17:01:42 1514757702.696630: $GPGSV,3,1,11,22,45,243,41,23,26,307,40,25,03,037,21,03,46,274,40*78
2017-12-31 17:01:42 1514757702.696801: $GPGSV,3,2,11,16,44,190,44,29,14,057,24,31,51,049,50,14,42,112,38*79
2017-12-31 17:01:42 1514757702.696868: $GPGSV,3,3,11,32,20,121,44,26,73,148,46,135,22,240,42*70
2017-12-31 17:01:42 1514757702.810034: $GPZDA,220143.00,31,12,2017,00,00*65
2017-12-31 17:01:42 1514757702.810166: $GPGGA,220143,3946.9584,N,08404.9855,W,2,11,1.00,302.98,M,-33.324,M,,*7D
2017-12-31 17:01:42 1514757702.810251: $GPRMC,220143,A,3946.9584,N,08404.9855,W,0.0000,0.000,311217,,*3F
2017-12-31 17:01:42 1514757702.810314: $GPGSA,A,3,22,23,25,3,16,29,31,14,32,26,135,,1.7,1.0,1.3*3B
2017-12-31 17:01:43 1514757703.344824: $GPZDA,220144.00,31,12,2017,00,00*62
2017-12-31 17:01:43 1514757703.344996: $GPGGA,220144,3946.9584,N,08404.9855,W,2,11,1.00,302.98,M,-33.324,M,,*7A
2017-12-31 17:01:43 1514757703.345062: $GPRMC,220144,A,3946.9584,N,08404.9855,W,0.0000,0.000,311217,,*38
2017-12-31 17:01:43 1514757703.345123: $GPGSA,A,3,22,23,25,3,16,29,31,14,32,26,135,,1.7,1.0,1.3*3B
2017-12-31 17:01:44 1514757704.342384: $GPZDA,220145.00,31,12,2017,00,00*63
2017-12-31 17:01:44 1514757704.342499: $GPGGA,220145,3946.9584,N,08404.9855,W,2,11,1.00,302.98,M,-33.324,M,,*7B
2017-12-31 17:01:44 1514757704.342533: $GPRMC,220145,A,3946.9584,N,08404.9855,W,0.0000,0.000,311217,,*39
2017-12-31 17:01:44 1514757704.342563: $GPGSA,A,3,22,23,25,3,16,29,31,14,32,26,135,,1.7,1.0,1.3*3B
2017-12-31 17:01:45 1514757705.696996: $GPGSV,3,1,11,22,45,243,41,23,26,307,40,25,03,037,21,03,46,274,41*79
2017-12-31 17:01:45 1514757705.697252: $GPGSV,3,2,11,16,44,190,44,29,14,057,24,31,51,049,50,14,42,112,38*79
2017-12-31 17:01:45 1514757705.697339: $GPGSV,3,3,11,32,20,121,44,26,73,148,46,135,22,240,42*70
2017-12-31 17:01:45 1514757705.810458: $GPZDA,220146.00,31,12,2017,00,00*60
2017-12-31 17:01:45 1514757705.810606: $GPGGA,220146,3946.9584,N,08404.9855,W,2,11,1.00,302.98,M,-33.324,M,,*78
2017-12-31 17:01:45 1514757705.810674: $GPRMC,220146,A,3946.9584,N,08404.9855,W,0.0000,0.000,311217,,*3A
2017-12-31 17:01:45 1514757705.810735: $GPGSA,A,3,22,23,25,3,16,29,31,14,32,26,135,,1.7,1.0,1.3*3B
2017-12-31 17:01:46 1514757706.343825: $GPZDA,220147.00,31,12,2017,00,00*61
2017-12-31 17:01:46 1514757706.343985: $GPGGA,220147,3946.9584,N,08404.9855,W,2,11,1.00,302.98,M,-33.324,M,,*79
2017-12-31 17:01:46 1514757706.344052: $GPRMC,220147,A,3946.9584,N,08404.9855,W,0.0000,0.000,311217,,*3B
2017-12-31 17:01:46 1514757706.344113: $GPGSA,A,3,22,23,25,3,16,29,31,14,32,26,135,,1.7,1.0,1.3*3B
2017-12-31 17:01:47 1514757707.343417: $GPZDA,220148.00,31,12,2017,00,00*6E
2017-12-31 17:01:47 1514757707.343591: $GPGGA,220148,3946.9584,N,08404.9855,W,2,11,1.00,302.98,M,-33.324,M,,*76
2017-12-31 17:01:47 1514757707.343658: $GPRMC,220148,A,3946.9584,N,08404.9855,W,0.0000,0.000,311217,,*34
2017-12-31 17:01:47 1514757707.343719: $GPGSA,A,3,22,23,25,3,16,29,31,14,32,26,135,,1.7,1.0,1.3*3B
2017-12-31 17:01:48 1514757708.695350: $GPGSV,3,1,11,22,45,243,42,23,26,307,40,25,03,037,21,03,46,274,40*7B
2017-12-31 17:01:48 1514757708.695514: $GPGSV,3,2,11,16,44,190,44,29,14,057,25,31,51,049,50,14,42,112,38*78
2017-12-31 17:01:48 1514757708.695580: $GPGSV,3,3,11,32,20,121,44,26,73,148,46,135,22,240,42*70
2017-12-31 17:01:48 1514757708.808757: $GPZDA,220149.00,31,12,2017,00,00*6F
2017-12-31 17:01:48 1514757708.808899: $GPGGA,220149,3946.9584,N,08404.9855,W,2,11,1.00,302.98,M,-33.324,M,,*77
2017-12-31 17:01:48 1514757708.808964: $GPRMC,220149,A,3946.9584,N,08404.9855,W,0.0000,0.000,311217,,*35
2017-12-31 17:01:48 1514757708.809079: $GPGSA,A,3,22,23,25,3,16,29,31,14,32,26,135,,1.7,1.0,1.3*3B
2017-12-31 17:01:49 1514757709.362157: $GPZDA,220150.00,31,12,2017,00,00*67
2017-12-31 17:01:49 1514757709.362353: $GPGGA,220150,3946.9584,N,08404.9855,W,2,11,1.00,302.98,M,-33.324,M,,*7F
2017-12-31 17:01:49 1514757709.362422: $GPRMC,220150,A,3946.9584,N,08404.9855,W,0.0000,0.000,311217,,*3D
2017-12-31 17:01:49 1514757709.362483: $GPGSA,A,3,22,23,25,3,16,29,31,14,32,26,135,,1.7,1.0,1.3*3B
2017-12-31 17:01:50 1514757710.343748: $GPZDA,220151.00,31,12,2017,00,00*66
2017-12-31 17:01:50 1514757710.343920: $GPGGA,220151,3946.9584,N,08404.9855,W,2,11,1.00,302.98,M,-33.324,M,,*7E
2017-12-31 17:01:50 1514757710.343987: $GPRMC,220151,A,3946.9584,N,08404.9855,W,0.0000,0.000,311217,,*3C
2017-12-31 17:01:50 1514757710.344049: $GPGSA,A,3,22,23,25,3,16,29,31,14,32,26,135,,1.7,1.0,1.3*3B
2017-12-31 17:01:51 1514757711.679438: $GPGSV,3,1,11,22,45,243,42,23,26,307,39,25,03,037,21,03,46,274,41*74
2017-12-31 17:01:51 1514757711.679619: $GPGSV,3,2,11,16,44,190,44,29,14,057,26,31,51,049,51,14,42,112,38*7A
2017-12-31 17:01:51 1514757711.679685: $GPGSV,3,3,11,32,20,121,44,26,73,148,46,135,22,240,43*71
2017-12-31 17:01:51 1514757711.791604: $GPZDA,220152.00,31,12,2017,00,00*65
2017-12-31 17:01:51 1514757711.791741: $GPGGA,220152,3946.9584,N,08404.9855,W,2,11,1.00,302.98,M,-33.324,M,,*7D
2017-12-31 17:01:51 1514757711.791806: $GPRMC,220152,A,3946.9584,N,08404.9855,W,0.0000,0.000,311217,,*3F
2017-12-31 17:01:51 1514757711.791866: $GPGSA,A,3,22,23,25,3,16,29,31,14,32,26,135,,1.7,1.0,1.3*3B
