2017-12-14 12:40:41 1513273241.412844: {"class":"VERSION","release":"3.16","rev":"3.16-4","proto_major":3,"proto_minor":11}
2017-12-14 12:40:41 1513273241.413190: {"class":"DEVICES","devices":[{"class":"DEVICE","path":"/dev/ttyUSB0","driver":"SiRF","subtype":"9\u0006GSD4e_4.1.2-P1_RPATCH.05-F-GPS-4R-1510281 11/03/2015 307","activated":"2017-12-14T17:40:41.359Z","flags":1,"native":1,"bps":4800,"parity":"N","stopbits":1,"cycle":1.00}]}
2017-12-14 12:40:41 1513273241.413304: {"class":"WATCH","enable":true,"json":false,"nmea":true,"raw":0,"scaled":false,"timing":false,"split24":false,"pps":false}
2017-12-14 12:40:42 1513273242.557115: $GPGSV,3,1,11,10,50,309,24,18,76,009,20,20,26,103,23,21,52,183,21*78
2017-12-14 12:40:42 1513273242.557276: $GPGSV,3,2,11,24,53,093,17,32,29,246,19,14,11,238,10,27,17,279,15*70
2017-12-14 12:40:42 1513273242.557340: $GPGSV,3,3,11,15,28,055,02,08,08,313,00,138,38,213,00*75
2017-12-14 12:40:42 1513273242.670563: $GPZDA,174043.00,14,12,2017,00,00*61
2017-12-14 12:40:42 1513273242.670738: $GPGGA,174043,3946.9456,N,08404.9384,W,1,07,2.00,348.59,M,-33.324,M,,*73
2017-12-14 12:40:42 1513273242.670805: $GPRMC,174043,A,3946.9456,N,08404.9384,W,0.6723,289.510,141217,,*35
2017-12-14 12:40:42 1513273242.670865: $GPGSA,A,3,10,18,20,21,24,32,27,,,,,,6.6,2.0,6.2*3F
2017-12-14 12:40:43 1513273243.218175: $GPZDA,174044.00,14,12,2017,00,00*66
2017-12-14 12:40:43 1513273243.218363: $GPGGA,174044,3946.9457,N,08404.9391,W,1,07,2.00,348.51,M,-33.324,M,,*79
2017-12-14 12:40:43 1513273243.218430: $GPRMC,174044,A,3946.9457,N,08404.9391,W,0.7357,248.344,141217,,*3B
2017-12-14 12:40:43 1513273243.218491: $GPGSA,A,3,10,18,20,21,24,32,27,,,,,,6.6,2.0,6.2*3F
2017-12-14 12:40:44 1513273244.220782: $GPZDA,174045.00,14,12,2017,00,00*67
2017-12-14 12:40:44 1513273244.220955: $GPGGA,174045,3946.9457,N,08404.9392,W,1,07,1.60,349.91,M,-33.324,M,,*73
2017-12-14 12:40:44 1513273244.221021: $GPRMC,174045,A,3946.9457,N,08404.9392,W,0.6432,226.573,141217,,*36
2017-12-14 12:40:44 1513273244.221081: $GPGSA,A,3,10,18,20,21,24,32,27,,,,,,6.6,1.6,6.2*3A
2017-12-14 12:40:45 1513273245.553274: $GPGSV,3,1,11,10,50,309,24,18,76,009,20,20,26,103,23,21,52,183,21*78
2017-12-14 12:40:45 1513273245.553456: $GPGSV,3,2,11,24,53,093,17,32,29,246,19,14,11,238,12,27,17,279,15*72
2017-12-14 12:40:45 1513273245.553522: $GPGSV,3,3,11,15,28,055,00,08,08,313,00,138,38,213,00*77
2017-12-14 12:40:45 1513273245.667037: $GPZDA,174046.00,14,12,2017,00,00*64
2017-12-14 12:40:45 1513273245.667191: $GPGGA,174046,3946.9461,N,08404.9391,W,1,08,2.00,349.15,M,-33.324,M,,*70
2017-12-14 12:40:45 1513273245.667256: $GPRMC,174046,A,3946.9461,N,08404.9391,W,0.2301,229.663,141217,,*3D
2017-12-14 12:40:45 1513273245.667317: $GPGSA,A,3,10,18,20,21,24,32,14,27,,,,,6.6,2.0,6.2*3A
2017-12-14 12:40:46 1513273246.217555: $GPZDA,174047.00,14,12,2017,00,00*65
2017-12-14 12:40:46 1513273246.217722: $GPGGA,174047,3946.9469,N,08404.9397,W,1,08,2.00,348.94,M,-33.324,M,,*77
2017-12-14 12:40:46 1513273246.217788: $GPRMC,174047,A,3946.9469,N,08404.9397,W,0.2442,322.011,141217,,*3B
2017-12-14 12:40:46 1513273246.217849: $GPGSA,A,3,10,18,20,21,24,32,14,27,,,,,6.6,2.0,6.2*3A
2017-12-14 12:40:47 1513273247.218924: $GPZDA,174048.00,14,12,2017,00,00*6A
2017-12-14 12:40:47 1513273247.219094: $GPGGA,174048,3946.9475,N,08404.9395,W,1,08,2.00,346.01,M,-33.324,M,,*75
2017-12-14 12:40:47 1513273247.219159: $GPRMC,174048,A,3946.9475,N,08404.9395,W,0.2928,345.126,141217,,*3E
2017-12-14 12:40:47 1513273247.219220: $GPGSA,A,3,10,18,20,21,24,32,14,27,,,,,6.6,2.0,6.2*3A
2017-12-14 12:40:48 1513273248.555113: $GPGSV,3,1,11,10,50,309,24,18,76,009,21,20,26,103,23,21,52,183,21*79
2017-12-14 12:40:48 1513273248.555296: $GPGSV,3,2,11,24,53,093,17,32,29,246,20,14,11,238,08,27,17,279,15*73
2017-12-14 12:40:48 1513273248.555363: $GPGSV,3,3,11,15,28,055,00,08,08,313,00,138,38,213,00*77
2017-12-14 12:40:48 1513273248.668575: $GPZDA,174049.00,14,12,2017,00,00*6B
2017-12-14 12:40:48 1513273248.668731: $GPGGA,174049,3946.9484,N,08404.9392,W,1,08,2.00,342.31,M,-33.324,M,,*7A
2017-12-14 12:40:48 1513273248.668796: $GPRMC,174049,A,3946.9484,N,08404.9392,W,0.2967,46.893,141217,,*0A
2017-12-14 12:40:48 1513273248.668927: $GPGSA,A,3,10,18,20,21,24,32,14,27,,,,,6.6,2.0,6.2*3A
2017-12-14 12:40:49 1513273249.219292: $GPZDA,174050.00,14,12,2017,00,00*63
2017-12-14 12:40:49 1513273249.219464: $GPGGA,174050,3946.9491,N,08404.9391,W,1,08,2.00,340.78,M,-33.324,M,,*7A
2017-12-14 12:40:49 1513273249.219530: $GPRMC,174050,A,3946.9491,N,08404.9391,W,0.0407,322.011,141217,,*3F
2017-12-14 12:40:49 1513273249.219590: $GPGSA,A,3,10,18,20,21,24,32,14,27,,,,,6.6,2.0,6.2*3A
2017-12-14 12:40:50 1513273250.219067: $GPZDA,174051.00,14,12,2017,00,00*62
2017-12-14 12:40:50 1513273250.219237: $GPGGA,174051,3946.9495,N,08404.9390,W,1,08,2.00,340.02,M,-33.324,M,,*73
2017-12-14 12:40:50 1513273250.219303: $GPRMC,174051,A,3946.9495,N,08404.9390,W,0.1867,0.000,141217,,*33
2017-12-14 12:40:50 1513273250.219362: $GPGSA,A,3,10,18,20,21,24,32,14,27,,,,,6.6,2.0,6.2*3A
2017-12-14 12:40:51 1513273251.554518: $GPGSV,3,1,11,10,50,309,24,18,76,009,21,20,26,103,23,21,52,183,21*79
2017-12-14 12:40:51 1513273251.554696: $GPGSV,3,2,11,24,53,093,17,32,29,246,19,14,11,238,06,27,17,279,15*77
2017-12-14 12:40:51 1513273251.554762: $GPGSV,3,3,11,15,28,055,00,08,08,313,00,138,38,213,00*77
2017-12-14 12:40:51 1513273251.668216: $GPZDA,174052.00,14,12,2017,00,00*61
2017-12-14 12:40:51 1513273251.668381: $GPGGA,174052,3946.9491,N,08404.9397,W,1,07,2.00,339.30,M,-33.324,M,,*73
2017-12-14 12:40:51 1513273251.668446: $GPRMC,174052,A,3946.9491,N,08404.9397,W,0.7621,287.945,141217,,*3C
2017-12-14 12:40:51 1513273251.668506: $GPGSA,A,3,10,18,20,21,24,32,27,,,,,,6.6,2.0,6.2*3F
2017-12-14 12:40:52 1513273252.218190: $GPZDA,174053.00,14,12,2017,00,00*60
2017-12-14 12:40:52 1513273252.218361: $GPGGA,174053,3946.9499,N,08404.9396,W,1,07,2.00,339.18,M,-33.324,M,,*71
2017-12-14 12:40:52 1513273252.218428: $GPRMC,174053,A,3946.9499,N,08404.9396,W,0.5857,338.291,141217,,*3E
2017-12-14 12:40:52 1513273252.218489: $GPGSA,A,3,10,18,20,21,24,32,27,,,,,,6.6,2.0,6.2*3F
2017-12-14 12:40:53 1513273253.218251: $GPZDA,174054.00,14,12,2017,00,00*67
2017-12-14 12:40:53 1513273253.218403: $GPGGA,174054,3946.9494,N,08404.9396,W,1,07,2.00,338.54,M,-33.324,M,,*72
2017-12-14 12:40:53 1513273253.218469: $GPRMC,174054,A,3946.9494,N,08404.9396,W,0.4179,328.779,141217,,*32
2017-12-14 12:40:53 1513273253.218529: $GPGSA,A,3,10,18,20,21,24,32,27,,,,,,6.6,2.0,6.2*3F
2017-12-14 12:40:54 1513273254.555623: $GPGSV,3,1,11,10,50,309,24,18,76,009,22,20,26,103,24,21,52,183,20*7C
2017-12-14 12:40:54 1513273254.555803: $GPGSV,3,2,11,24,53,093,17,32,29,246,20,14,11,238,05,27,17,279,15*7E
2017-12-14 12:40:54 1513273254.555869: $GPGSV,3,3,11,15,28,055,05,08,08,313,00,138,38,213,00*72
2017-12-14 12:40:54 1513273254.669258: $GPZDA,174055.00,14,12,2017,00,00*66
2017-12-14 12:40:54 1513273254.669388: $GPGGA,174055,3946.9499,N,08404.9396,W,1,07,2.00,339.18,M,-33.324,M,,*77
2017-12-14 12:40:54 1513273254.669451: $GPRMC,174055,A,3946.9499,N,08404.9396,W,0.3423,4.197,141217,,*38
2017-12-14 12:40:54 1513273254.669511: $GPGSA,A,3,10,18,20,21,24,32,27,,,,,,6.6,2.0,6.2*3F
2017-12-14 12:40:55 1513273255.219147: $GPZDA,174056.00,14,12,2017,00,00*65
2017-12-14 12:40:55 1513273255.219317: $GPGGA,174056,3946.9494,N,08404.9396,W,1,07,2.00,338.54,M,-33.324,M,,*70
2017-12-14 12:40:55 1513273255.219382: $GPRMC,174056,A,3946.9494,N,08404.9396,W,0.2422,273.795,141217,,*30
2017-12-14 12:40:55 1513273255.219443: $GPGSA,A,3,10,18,20,21,24,32,27,,,,,,6.6,2.0,6.2*3F
2017-12-14 12:40:56 1513273256.219984: $GPZDA,174057.00,14,12,2017,00,00*64
2017-12-14 12:40:56 1513273256.220160: $GPGGA,174057,3946.9495,N,08404.9403,W,1,07,2.00,338.46,M,-33.324,M,,*78
2017-12-14 12:40:56 1513273256.220225: $GPRMC,174057,A,3946.9495,N,08404.9403,W,0.4844,273.795,141217,,*31
2017-12-14 12:40:56 1513273256.220285: $GPGSA,A,3,10,18,20,21,24,32,27,,,,,,6.6,2.0,6.2*3F
2017-12-14 12:40:57 1513273257.554943: $GPGSV,3,1,11,10,50,309,24,18,76,009,22,20,26,103,23,21,52,183,20*7B
2017-12-14 12:40:57 1513273257.555122: $GPGSV,3,2,11,24,53,093,17,32,29,246,20,14,11,238,12,27,17,279,14*79
2017-12-14 12:40:57 1513273257.555236: $GPGSV,3,3,11,15,28,055,00,08,08,313,00,138,38,213,00*77
2017-12-14 12:40:57 1513273257.668375: $GPZDA,174058.00,14,12,2017,00,00*6B
2017-12-14 12:40:57 1513273257.668541: $GPGGA,174058,3946.9499,N,08404.9403,W,1,08,2.00,339.10,M,-33.324,M,,*76
2017-12-14 12:40:57 1513273257.668607: $GPRMC,174058,A,3946.9499,N,08404.9403,W,0.5912,309.173,141217,,*33
2017-12-14 12:40:57 1513273257.668666: $GPGSA,A,3,10,18,20,21,24,32,14,27,,,,,6.6,2.0,6.2*3A
2017-12-14 12:40:58 1513273258.219716: $GPZDA,174059.00,14,12,2017,00,00*6A
2017-12-14 12:40:58 1513273258.219886: $GPGGA,174059,3946.9502,N,08404.9403,W,1,08,2.00,338.33,M,-33.324,M,,*74
2017-12-14 12:40:58 1513273258.219951: $GPRMC,174059,A,3946.9502,N,08404.9403,W,0.5306,294.353,141217,,*3B
2017-12-14 12:40:58 1513273258.220011: $GPGSA,A,3,10,18,20,21,24,32,14,27,,,,,6.6,2.0,6.2*3A
2017-12-14 12:40:59 1513273259.217345: $GPZDA,174100.00,14,12,2017,00,00*67
2017-12-14 12:40:59 1513273259.217513: $GPGGA,174100,3946.9503,N,08404.9410,W,1,08,2.60,338.25,M,-33.324,M,,*7B
2017-12-14 12:40:59 1513273259.217579: $GPRMC,174100,A,3946.9503,N,08404.9410,W,0.4179,328.779,141217,,*34
2017-12-14 12:40:59 1513273259.217639: $GPGSA,A,3,10,18,20,21,24,32,14,27,,,,,6.6,2.6,6.2*3C
2017-12-14 12:41:00 1513273260.553581: $GPGSV,3,1,11,10,50,309,24,18,76,009,22,20,26,103,23,21,52,183,20*7B
2017-12-14 12:41:00 1513273260.553762: $GPGSV,3,2,11,24,53,093,17,32,29,246,19,14,11,238,04,27,17,279,04*75
2017-12-14 12:41:00 1513273260.553828: $GPGSV,3,3,11,15,28,055,00,08,08,313,00,138,38,213,00*77
2017-12-14 12:41:00 1513273260.666922: $GPZDA,174101.00,14,12,2017,00,00*66
2017-12-14 12:41:00 1513273260.667074: $GPGGA,174101,3946.9503,N,08404.9410,W,1,06,2.60,338.25,M,-33.324,M,,*74
2017-12-14 12:41:00 1513273260.667138: $GPRMC,174101,A,3946.9503,N,08404.9410,W,0.8011,299.090,141217,,*3D
2017-12-14 12:41:00 1513273260.667198: $GPGSA,A,3,10,18,20,21,24,32,,,,,,,6.6,2.6,6.2*3C
2017-12-14 12:41:01 1513273261.220699: $GPZDA,174102.00,14,12,2017,00,00*65
2017-12-14 12:41:01 1513273261.220854: $GPGGA,174102,3946.9503,N,08404.9410,W,1,06,2.60,338.25,M,-33.324,M,,*77
2017-12-14 12:41:01 1513273261.220920: $GPRMC,174102,A,3946.9503,N,08404.9410,W,0.5912,309.173,141217,,*3D
2017-12-14 12:41:01 1513273261.220981: $GPGSA,A,3,10,18,20,21,24,32,,,,,,,6.6,2.6,6.2*3C
