2017-12-01 12:01:35 1512147695.006838: {"class":"VERSION","release":"3.16","rev":"3.16-4","proto_major":3,"proto_minor":11}
2017-12-01 12:01:35 1512147695.007242: {"class":"DEVICES","devices":[{"class":"DEVICE","path":"/dev/ttyUSB0","driver":"SiRF","subtype":"9\u0006GSD4e_4.1.2-P1_RPATCH.05-F-GPS-4R-1510281 11/03/2015 307","activated":"2017-12-01T17:01:34.546Z","flags":1,"native":1,"bps":4800,"parity":"N","stopbits":1,"cycle":1.00}]}
2017-12-01 12:01:35 1512147695.007357: {"class":"WATCH","enable":true,"json":false,"nmea":true,"raw":0,"scaled":false,"timing":false,"split24":false,"pps":false}
2017-12-01 12:01:35 1512147695.402697: $GPZDA,170136.00,01,12,2017,00,00*62
2017-12-01 12:01:35 1512147695.402888: $GPGGA,170136,3946.9579,N,08404.9834,W,2,11,0.80,302.57,M,-33.324,M,,*76
2017-12-01 12:01:35 1512147695.402959: $GPRMC,170136,A,3946.9579,N,08404.9834,W,0.0000,0.000,011217,,*3D
2017-12-01 12:01:35 1512147695.403021: $GPGSA,A,3,13,15,18,20,21,24,27,29,10,5,138,,2.0,0.8,1.5*34
2017-12-01 12:01:36 1512147696.738439: $GPGSV,3,1,12,13,36,046,45,15,68,057,45,18,49,292,46,20,57,063,46*7D
2017-12-01 12:01:36 1512147696.738618: $GPGSV,3,2,12,21,74,294,45,24,27,144,47,27,13,319,39,29,17,192,38*7E
2017-12-01 12:01:36 1512147696.738707: $GPGSV,3,3,12,10,18,277,40,05,08,082,30,04,06,133,00,138,38,213,46*40
2017-12-01 12:01:36 1512147696.852037: $GPZDA,170137.00,01,12,2017,00,00*63
2017-12-01 12:01:36 1512147696.852206: $GPGGA,170137,3946.9579,N,08404.9834,W,2,11,0.80,302.57,M,-33.324,M,,*77
2017-12-01 12:01:36 1512147696.852272: $GPRMC,170137,A,3946.9579,N,08404.9834,W,0.0000,0.000,011217,,*3C
2017-12-01 12:01:36 1512147696.852333: $GPGSA,A,3,13,15,18,20,21,24,27,29,10,5,138,,2.0,0.8,1.5*34
2017-12-01 12:01:37 1512147697.477259: $GPZDA,170138.00,01,12,2017,00,00*6C
2017-12-01 12:01:37 1512147697.477427: $GPGGA,170138,3946.9579,N,08404.9834,W,2,11,0.80,302.57,M,-33.324,M,,*78
2017-12-01 12:01:37 1512147697.477495: $GPRMC,170138,A,3946.9579,N,08404.9834,W,0.0000,0.000,011217,,*33
2017-12-01 12:01:37 1512147697.477556: $GPGSA,A,3,13,15,18,20,21,24,27,29,10,5,138,,2.0,0.8,1.5*34
2017-12-01 12:01:38 1512147698.404507: $GPZDA,170139.00,01,12,2017,00,00*6D
2017-12-01 12:01:38 1512147698.404687: $GPGGA,170139,3946.9579,N,08404.9834,W,2,11,0.80,302.57,M,-33.324,M,,*79
2017-12-01 12:01:38 1512147698.404782: $GPRMC,170139,A,3946.9579,N,08404.9834,W,0.0000,0.000,011217,,*32
2017-12-01 12:01:38 1512147698.404884: $GPGSA,A,3,13,15,18,20,21,24,27,29,10,5,138,,2.0,0.8,1.5*34
2017-12-01 12:01:39 1512147699.738707: $GPGSV,3,1,12,13,36,046,44,15,68,057,45,18,49,292,45,20,57,063,46*7F
2017-12-01 12:01:39 1512147699.738885: $GPGSV,3,2,12,21,74,294,45,24,27,144,47,27,13,319,38,29,17,192,38*7F
2017-12-01 12:01:39 1512147699.738951: $GPGSV,3,3,12,10,18,277,41,05,08,082,29,04,06,133,00,138,38,213,46*49
2017-12-01 12:01:39 1512147699.852124: $GPZDA,170140.00,01,12,2017,00,00*63
2017-12-01 12:01:39 1512147699.852297: $GPGGA,170140,3946.9579,N,08404.9834,W,2,11,0.80,302.57,M,-33.324,M,,*77
2017-12-01 12:01:39 1512147699.852364: $GPRMC,170140,A,3946.9579,N,08404.9834,W,0.0000,0.000,011217,,*3C
2017-12-01 12:01:39 1512147699.852427: $GPGSA,A,3,13,15,18,20,21,24,27,29,10,5,138,,2.0,0.8,1.5*34
2017-12-01 12:01:40 1512147700.402008: $GPZDA,170141.00,01,12,2017,00,00*62
2017-12-01 12:01:40 1512147700.402176: $GPGGA,170141,3946.9579,N,08404.9834,W,2,11,0.80,302.57,M,-33.324,M,,*76
2017-12-01 12:01:40 1512147700.402242: $GPRMC,170141,A,3946.9579,N,08404.9834,W,0.0000,0.000,011217,,*3D
2017-12-01 12:01:40 1512147700.402303: $GPGSA,A,3,13,15,18,20,21,24,27,29,10,5,138,,2.0,0.8,1.5*34
2017-12-01 12:01:41 1512147701.401443: $GPZDA,170142.00,01,12,2017,00,00*61
2017-12-01 12:01:41 1512147701.401857: $GPGGA,170142,3946.9579,N,08404.9834,W,2,11,0.80,302.57,M,-33.324,M,,*75
2017-12-01 12:01:41 1512147701.402012: $GPRMC,170142,A,3946.9579,N,08404.9834,W,0.0000,0.000,011217,,*3E
2017-12-01 12:01:41 1512147701.402110: $GPGSA,A,3,13,15,18,20,21,24,27,29,10,5,138,,2.0,0.8,1.5*34
2017-12-01 12:01:42 1512147702.737845: $GPGSV,3,1,12,13,36,046,44,15,68,057,45,18,49,292,45,20,57,063,46*7F
2017-12-01 12:01:42 1512147702.738078: $GPGSV,3,2,12,21,74,294,45,24,27,144,47,27,13,319,39,29,17,192,38*7E
2017-12-01 12:01:42 1512147702.738147: $GPGSV,3,3,12,10,18,277,41,05,08,082,29,04,06,133,00,138,38,213,47*48
2017-12-01 12:01:42 1512147702.851197: $GPZDA,170143.00,01,12,2017,00,00*60
2017-12-01 12:01:42 1512147702.851403: $GPGGA,170143,3946.9579,N,08404.9834,W,2,11,0.80,302.57,M,-33.324,M,,*74
2017-12-01 12:01:42 1512147702.851481: $GPRMC,170143,A,3946.9579,N,08404.9834,W,0.0000,0.000,011217,,*3F
2017-12-01 12:01:42 1512147702.851543: $GPGSA,A,3,13,15,18,20,21,24,27,29,10,5,138,,2.0,0.8,1.5*34
2017-12-01 12:01:43 1512147703.402128: $GPZDA,170144.00,01,12,2017,00,00*67
2017-12-01 12:01:43 1512147703.402306: $GPGGA,170144,3946.9579,N,08404.9834,W,2,11,0.80,302.57,M,-33.324,M,,*73
2017-12-01 12:01:43 1512147703.402374: $GPRMC,170144,A,3946.9579,N,08404.9834,W,0.0000,0.000,011217,,*38
2017-12-01 12:01:43 1512147703.402435: $GPGSA,A,3,13,15,18,20,21,24,27,29,10,5,138,,2.0,0.8,1.5*34
2017-12-01 12:01:44 1512147704.403193: $GPZDA,170145.00,01,12,2017,00,00*66
2017-12-01 12:01:44 1512147704.403353: $GPGGA,170145,3946.9579,N,08404.9834,W,2,11,0.80,302.57,M,-33.324,M,,*72
2017-12-01 12:01:44 1512147704.403420: $GPRMC,170145,A,3946.9579,N,08404.9834,W,0.0000,0.000,011217,,*39
2017-12-01 12:01:44 1512147704.403481: $GPGSA,A,3,13,15,18,20,21,24,27,29,10,5,138,,2.0,0.8,1.5*34
