2017-12-31 17:55:09 1514760909.771483: {"class":"VERSION","release":"3.16","rev":"3.16-4","proto_major":3,"proto_minor":11}
2017-12-31 17:55:09 1514760909.771823: {"class":"DEVICES","devices":[{"class":"DEVICE","path":"/dev/ttyUSB0","driver":"SiRF","activated":"2017-12-31T22:55:09.707Z","flags":1,"native":1,"bps":4800,"parity":"N","stopbits":1,"cycle":1.00}]}
2017-12-31 17:55:09 1514760909.771921: {"class":"WATCH","enable":true,"json":false,"nmea":true,"raw":0,"scaled":false,"timing":false,"split24":false,"pps":false}
2017-12-31 17:55:09 1514760909.821381: $GPZDA,225510.00,31,12,2017,00,00*62
2017-12-31 17:55:09 1514760909.821507: $GPGGA,225510,3946.9567,N,08404.9864,W,2,11,0.60,305.31,M,-33.324,M,,*76
2017-12-31 17:55:09 1514760909.821571: $GPRMC,225510,A,3946.9567,N,08404.9864,W,0.0000,0.000,311217,,*37
2017-12-31 17:55:09 1514760909.821630: $GPGSA,A,3,22,23,9,3,16,29,14,31,27,26,135,,1.7,0.6,1.3*06
2017-12-31 17:55:10 1514760910.446789: $GPZDA,225511.00,31,12,2017,00,00*63
2017-12-31 17:55:10 1514760910.446938: $GPGGA,225511,3946.9567,N,08404.9864,W,2,11,0.60,305.31,M,-33.324,M,,*77
2017-12-31 17:55:10 1514760910.447003: $GPRMC,225511,A,3946.9567,N,08404.9864,W,0.0000,0.000,311217,,*36
2017-12-31 17:55:10 1514760910.447062: $GPGSA,A,3,22,23,9,3,16,29,14,31,27,26,135,,1.7,0.6,1.3*06
2017-12-31 17:55:11 1514760911.376424: $GPZDA,225512.00,31,12,2017,00,00*60
2017-12-31 17:55:11 1514760911.376575: $GPGGA,225512,3946.9567,N,08404.9864,W,2,11,0.60,305.31,M,-33.324,M,,*74
2017-12-31 17:55:11 1514760911.376642: $GPRMC,225512,A,3946.9567,N,08404.9864,W,0.0000,0.000,311217,,*35
2017-12-31 17:55:11 1514760911.376702: $GPGSA,A,3,22,23,9,3,16,29,14,31,27,26,135,,1.7,0.6,1.3*06
2017-12-31 17:55:12 1514760912.681878: $GPGSV,3,1,11,22,27,219,42,23,48,309,41,09,15,312,45,03,36,240,47*7F
2017-12-31 17:55:12 1514760912.682061: $GPGSV,3,2,11,16,73,192,41,29,08,034,36,14,21,130,32,31,33,070,43*72
2017-12-31 17:55:12 1514760912.682127: $GPGSV,3,3,11,27,16,157,27,26,68,057,47,135,22,240,44*77
2017-12-31 17:55:12 1514760912.795586: $GPZDA,225513.00,31,12,2017,00,00*61
2017-12-31 17:55:12 1514760912.795772: $GPGGA,225513,3946.9571,N,08404.9864,W,2,11,0.60,305.95,M,-33.324,M,,*7C
2017-12-31 17:55:12 1514760912.795837: $GPRMC,225513,A,3946.9571,N,08404.9864,W,0.0000,0.000,311217,,*33
2017-12-31 17:55:12 1514760912.795897: $GPGSA,A,3,22,23,9,3,16,29,14,31,27,26,135,,1.7,0.6,1.3*06
2017-12-31 17:55:13 1514760913.568622: $GPZDA,225514.00,31,12,2017,00,00*66
2017-12-31 17:55:13 1514760913.568785: $GPGGA,225514,3946.9571,N,08404.9864,W,2,11,0.60,305.95,M,-33.324,M,,*7B
2017-12-31 17:55:13 1514760913.568851: $GPRMC,225514,A,3946.9571,N,08404.9864,W,0.0000,0.000,311217,,*34
2017-12-31 17:55:13 1514760913.568911: $GPGSA,A,3,22,23,9,3,16,29,14,31,27,26,135,,1.7,0.6,1.3*06
2017-12-31 17:55:13 1514760913.568969: $GPGBS,225514,2.22,M,3.43,M,7.66,M*3A
2017-12-31 17:55:14 1514760914.347317: $GPZDA,225515.00,31,12,2017,00,00*67
2017-12-31 17:55:14 1514760914.347486: $GPGGA,225515,3946.9571,N,08404.9864,W,2,11,0.60,305.95,M,-33.324,M,,*7A
2017-12-31 17:55:14 1514760914.347551: $GPRMC,225515,A,3946.9571,N,08404.9864,W,0.0000,0.000,311217,,*35
2017-12-31 17:55:14 1514760914.347612: $GPGSA,A,3,22,23,9,3,16,29,14,31,27,26,135,,1.7,0.6,1.3*06
2017-12-31 17:55:14 1514760914.347670: $GPGBS,225515,2.22,M,3.43,M,7.66,M*3B
2017-12-31 17:55:15 1514760915.682218: $GPGSV,3,1,11,22,27,219,42,23,48,309,42,09,15,312,46,03,36,240,46*7E
2017-12-31 17:55:15 1514760915.682374: $GPGSV,3,2,11,16,73,192,41,29,08,034,37,14,20,130,25,31,33,070,44*73
2017-12-31 17:55:15 1514760915.682440: $GPGSV,3,3,11,27,17,157,26,26,68,055,47,135,22,240,44*75
2017-12-31 17:55:15 1514760915.795875: $GPZDA,225516.00,31,12,2017,00,00*64
2017-12-31 17:55:15 1514760915.796044: $GPGGA,225516,3946.9571,N,08404.9864,W,2,11,0.60,305.95,M,-33.324,M,,*79
2017-12-31 17:55:15 1514760915.796109: $GPRMC,225516,A,3946.9571,N,08404.9864,W,0.0000,0.000,311217,,*36
2017-12-31 17:55:15 1514760915.796170: $GPGSA,A,3,22,23,9,3,16,29,14,31,27,26,135,,1.7,0.6,1.3*06
2017-12-31 17:55:16 1514760916.346740: $GPZDA,225517.00,31,12,2017,00,00*65
2017-12-31 17:55:16 1514760916.346957: $GPGGA,225517,3946.9571,N,08404.9864,W,2,11,0.60,305.95,M,-33.324,M,,*78
2017-12-31 17:55:16 1514760916.347024: $GPRMC,225517,A,3946.9571,N,08404.9864,W,0.0000,0.000,311217,,*37
2017-12-31 17:55:16 1514760916.347085: $GPGSA,A,3,22,23,9,3,16,29,14,31,27,26,135,,1.7,0.6,1.3*06
2017-12-31 17:55:17 1514760917.347667: $GPZDA,225518.00,31,12,2017,00,00*6A
2017-12-31 17:55:17 1514760917.347830: $GPGGA,225518,3946.9571,N,08404.9864,W,2,11,0.60,305.95,M,-33.324,M,,*77
2017-12-31 17:55:17 1514760917.347895: $GPRMC,225518,A,3946.9571,N,08404.9864,W,0.0000,0.000,311217,,*38
2017-12-31 17:55:17 1514760917.347955: $GPGSA,A,3,22,23,9,3,16,29,14,31,27,26,135,,1.7,0.6,1.3*06
2017-12-31 17:55:18 1514760918.708105: $GPGSV,3,1,11,22,27,219,43,23,48,309,42,09,15,312,46,03,36,240,46*7F
2017-12-31 17:55:18 1514760918.708272: $GPGSV,3,2,11,16,73,192,42,29,08,034,38,14,20,130,20,31,33,070,44*7A
2017-12-31 17:55:18 1514760918.708337: $GPGSV,3,3,11,27,17,157,30,26,68,055,48,135,22,240,44*7D
2017-12-31 17:55:18 1514760918.821774: $GPZDA,225519.00,31,12,2017,00,00*6B
2017-12-31 17:55:18 1514760918.821945: $GPGGA,225519,3946.9571,N,08404.9864,W,2,11,0.60,305.95,M,-33.324,M,,*76
2017-12-31 17:55:18 1514760918.822011: $GPRMC,225519,A,3946.9571,N,08404.9864,W,0.0000,0.000,311217,,*39
2017-12-31 17:55:18 1514760918.822071: $GPGSA,A,3,22,23,9,3,16,29,14,31,27,26,135,,1.7,0.6,1.3*06
2017-12-31 17:55:19 1514760919.366387: $GPZDA,225520.00,31,12,2017,00,00*61
2017-12-31 17:55:19 1514760919.366561: $GPGGA,225520,3946.9571,N,08404.9864,W,2,11,0.60,305.95,M,-33.324,M,,*7C
2017-12-31 17:55:19 1514760919.366627: $GPRMC,225520,A,3946.9571,N,08404.9864,W,0.0000,0.000,311217,,*33
2017-12-31 17:55:19 1514760919.366686: $GPGSA,A,3,22,23,9,3,16,29,14,31,27,26,135,,1.7,0.6,1.3*06
