2017-11-15 18:31:30 1510788690.395130: {"class":"VERSION","release":"3.17","rev":"3.17","proto_major":3,"proto_minor":12}
2017-11-15 18:31:31 1510788691.035512: {"class":"DEVICES","devices":[{"class":"DEVICE","path":"/dev/ttyUSB0","driver":"SiRF","subtype":"9\u0006GSD4e_4.1.2-P1_RPATCH.05-F-GPS-4R-1510281 11/03/2015 307","activated":"2017-11-15T23:31:30.215Z","flags":1,"native":1,"bps":4800,"parity":"N","stopbits":1,"cycle":1.00}]}
2017-11-15 18:31:31 1510788691.035742: {"class":"WATCH","enable":true,"json":false,"nmea":true,"raw":0,"scaled":false,"timing":false,"split24":false,"pps":false}
2017-11-15 18:31:31 1510788691.035818: $GPGSV,3,1,11,25,36,057,21,14,69,037,08,22,39,303,15,26,25,178,04*79
2017-11-15 18:31:31 1510788691.035875: $GPGSV,3,2,11,31,77,276,20,32,56,078,13,01,19,276,15,10,22,156,10*78
2017-11-15 18:31:31 1510788691.035931: $GPGSV,3,3,11,03,20,315,00,12,07,033,00,138,38,213,00*7A
2017-11-15 18:31:31 1510788691.035984: $GPZDA,233129.00,15,11,2017,00,00*6E
2017-11-15 18:31:31 1510788691.036034: $GPGGA,233129,3946.9624,N,08404.9433,W,1,05,5.00,284.62,M,-33.324,M,,*7E
2017-11-15 18:31:31 1510788691.036090: $GPRMC,233129,A,3946.9624,N,08404.9433,W,1.6283,21.001,151117,,*0D
2017-11-15 18:31:31 1510788691.036144: $GPGSA,A,3,25,14,31,32,1,,,,,,,,3.4,5.0,2.9*0B
2017-11-15 18:31:31 1510788691.403509: $GPZDA,233130.00,15,11,2017,00,00*66
2017-11-15 18:31:31 1510788691.403678: $GPGGA,233130,3946.9632,N,08404.9432,W,1,05,2.80,284.50,M,-33.324,M,,*7E
2017-11-15 18:31:31 1510788691.403739: $GPRMC,233130,A,3946.9632,N,08404.9432,W,1.5738,12.547,151117,,*02
2017-11-15 18:31:31 1510788691.403796: $GPGSA,A,3,25,14,31,32,1,,,,,,,,3.4,2.8,2.9*04
2017-11-15 18:31:32 1510788692.326589: $GPZDA,233131.00,15,11,2017,00,00*67
2017-11-15 18:31:32 1510788692.326818: $GPGGA,233131,3946.9632,N,08404.9432,W,1,05,1.20,284.50,M,-33.324,M,,*76
2017-11-15 18:31:32 1510788692.326905: $GPRMC,233131,A,3946.9632,N,08404.9432,W,1.4555,23.636,151117,,*0C
2017-11-15 18:31:32 1510788692.326963: $GPGSA,A,3,25,14,31,32,1,,,,,,,,3.4,1.2,2.9*0D
2017-11-15 18:31:33 1510788693.697347: $GPGSV,3,1,11,25,36,057,21,14,69,037,09,22,39,303,16,26,25,178,00*7F
2017-11-15 18:31:33 1510788693.697519: $GPGSV,3,2,11,31,77,276,20,32,56,078,14,01,19,276,15,10,22,156,10*7F
2017-11-15 18:31:33 1510788693.697599: $GPGSV,3,3,11,03,20,315,00,12,07,033,00,138,38,213,00*7A
2017-11-15 18:31:33 1510788693.810674: $GPZDA,233132.00,15,11,2017,00,00*64
2017-11-15 18:31:33 1510788693.810863: $GPGGA,233132,3946.9632,N,08404.9432,W,1,07,1.20,284.50,M,-33.324,M,,*77
2017-11-15 18:31:33 1510788693.810926: $GPRMC,233132,A,3946.9632,N,08404.9432,W,0.5951,58.684,151117,,*02
2017-11-15 18:31:33 1510788693.810982: $GPGSA,A,3,25,14,22,31,32,1,10,,,,,,3.4,1.2,2.9*0C
2017-11-15 18:31:34 1510788694.360264: $GPZDA,233133.00,15,11,2017,00,00*65
2017-11-15 18:31:34 1510788694.360419: $GPGGA,233133,3946.9632,N,08404.9432,W,1,07,1.20,284.50,M,-33.324,M,,*76
2017-11-15 18:31:34 1510788694.360496: $GPRMC,233133,A,3946.9632,N,08404.9432,W,1.2608,78.043,151117,,*09
2017-11-15 18:31:34 1510788694.360556: $GPGSA,A,3,25,14,22,31,32,1,10,,,,,,3.4,1.2,2.9*0C
2017-11-15 18:31:35 1510788695.327468: $GPZDA,233134.00,15,11,2017,00,00*62
2017-11-15 18:31:35 1510788695.327661: $GPGGA,233134,3946.9632,N,08404.9432,W,1,07,1.20,284.50,M,-33.324,M,,*71
2017-11-15 18:31:35 1510788695.327723: $GPRMC,233134,A,3946.9632,N,08404.9432,W,0.7576,81.915,151117,,*0C
2017-11-15 18:31:35 1510788695.327781: $GPGSA,A,3,25,14,22,31,32,1,10,,,,,,3.4,1.2,2.9*0C
2017-11-15 18:31:36 1510788696.662833: $GPGSV,3,1,11,25,36,057,22,14,69,037,09,22,39,303,16,26,25,178,00*7C
2017-11-15 18:31:36 1510788696.663004: $GPGSV,3,2,11,31,77,276,20,32,56,078,15,01,19,276,14,10,22,156,11*7E
2017-11-15 18:31:36 1510788696.663064: $GPGSV,3,3,11,03,20,315,00,12,07,033,00,138,38,213,00*7A
2017-11-15 18:31:36 1510788696.776106: $GPZDA,233135.00,15,11,2017,00,00*63
2017-11-15 18:31:36 1510788696.776256: $GPGGA,233135,3946.9632,N,08404.9432,W,1,07,1.20,284.50,M,-33.324,M,,*70
2017-11-15 18:31:36 1510788696.776317: $GPRMC,233135,A,3946.9632,N,08404.9432,W,0.2422,93.795,151117,,*0D
2017-11-15 18:31:36 1510788696.776422: $GPGSA,A,3,25,14,22,31,32,1,10,,,,,,3.4,1.2,2.9*0C
2017-11-15 18:31:37 1510788697.328280: $GPZDA,233136.00,15,11,2017,00,00*60
2017-11-15 18:31:37 1510788697.328458: $GPGGA,233136,3946.9629,N,08404.9433,W,1,07,1.20,285.26,M,-33.324,M,,*78
2017-11-15 18:31:37 1510788697.328521: $GPRMC,233136,A,3946.9629,N,08404.9433,W,0.4207,39.347,151117,,*09
2017-11-15 18:31:37 1510788697.328579: $GPGSA,A,3,25,14,22,31,32,1,10,,,,,,3.4,1.2,2.9*0C
2017-11-15 18:31:38 1510788698.331448: $GPZDA,233137.00,15,11,2017,00,00*61
2017-11-15 18:31:38 1510788698.331652: $GPGGA,233137,3946.9629,N,08404.9433,W,1,07,1.20,285.26,M,-33.324,M,,*79
2017-11-15 18:31:38 1510788698.331716: $GPRMC,233137,A,3946.9629,N,08404.9433,W,0.4207,39.347,151117,,*08
2017-11-15 18:31:38 1510788698.331776: $GPGSA,A,3,25,14,22,31,32,1,10,,,,,,3.4,1.2,2.9*0C
2017-11-15 18:31:39 1510788699.701335: $GPGSV,3,1,11,25,36,057,22,14,69,037,10,22,39,303,15,26,25,178,13*75
2017-11-15 18:31:39 1510788699.701519: $GPGSV,3,2,11,31,77,276,20,32,56,078,15,01,19,276,12,10,22,156,11*78
2017-11-15 18:31:39 1510788699.701582: $GPGSV,3,3,11,03,20,315,01,12,07,033,00,138,38,213,00*7B
2017-11-15 18:31:39 1510788699.813882: $GPZDA,233138.00,15,11,2017,00,00*6E
2017-11-15 18:31:39 1510788699.814041: $GPGGA,233138,3946.9629,N,08404.9439,W,1,07,1.20,285.18,M,-33.324,M,,*71
2017-11-15 18:31:39 1510788699.814102: $GPRMC,233138,A,3946.9629,N,08404.9439,W,0.3423,4.197,151117,,*3B
2017-11-15 18:31:39 1510788699.814158: $GPGSA,A,3,25,14,22,31,32,1,10,,,,,,3.4,1.2,2.9*0C
2017-11-15 18:31:40 1510788700.329326: $GPZDA,233139.00,15,11,2017,00,00*6F
2017-11-15 18:31:40 1510788700.329521: $GPGGA,233139,3946.9629,N,08404.9439,W,1,07,1.20,285.18,M,-33.324,M,,*70
2017-11-15 18:31:40 1510788700.329583: $GPRMC,233139,A,3946.9629,N,08404.9439,W,0.0000,0.000,151117,,*37
2017-11-15 18:31:40 1510788700.329655: $GPGSA,A,3,25,14,22,31,32,1,10,,,,,,3.4,1.2,2.9*0C
