2017-12-01 15:33:53 1512160433.247398: {"class":"VERSION","release":"3.16","rev":"3.16-4","proto_major":3,"proto_minor":11}
2017-12-01 15:33:53 1512160433.247912: {"class":"DEVICES","devices":[{"class":"DEVICE","path":"/dev/ttyUSB0","driver":"SiRF","subtype":"9\u0006GSD4e_4.1.2-P1_RPATCH.05-F-GPS-4R-1510281 11/03/2015 307","activated":"2017-12-01T20:33:53.239Z","flags":1,"native":1,"bps":4800,"parity":"N","stopbits":1,"cycle":1.00}]}
2017-12-01 15:33:53 1512160433.248045: {"class":"WATCH","enable":true,"json":false,"nmea":true,"raw":0,"scaled":false,"timing":false,"split24":false,"pps":false}
2017-12-01 15:33:54 1512160434.261100: $GPZDA,203354.36,01,12,2017,00,00*66
2017-12-01 15:33:54 1512160434.261273: $GPGGA,203354,3946.9588,N,08404.9768,W,1,11,0.80,313.07,M,-33.324,M,,*79
2017-12-01 15:33:54 1512160434.261341: $GPRMC,203354,A,3946.9588,N,08404.9768,W,0.2422,93.794,011217,,*02
2017-12-01 15:33:54 1512160434.261561: $GPGSA,A,3,1,10,11,12,14,18,24,25,31,32,138,,2.0,0.8,1.5*3B
2017-12-01 15:33:54 1512160434.261715: $GPGBS,203354,10.70,M,15.43,M,35.28,M*04
2017-12-01 15:33:55 1512160435.379850: $GPGSV,3,1,11,01,11,321,38,10,75,123,48,11,10,306,39,12,24,076,44*74
2017-12-01 15:33:55 1512160435.380031: $GPGSV,3,2,11,14,51,285,44,18,42,132,45,24,18,045,41,25,26,120,46*71
2017-12-01 15:33:55 1512160435.380099: $GPGSV,3,3,11,31,30,210,47,32,66,316,49,138,38,213,00*71
2017-12-01 15:33:55 1512160435.493128: $GPZDA,203355.00,01,12,2017,00,00*62
2017-12-01 15:33:55 1512160435.493285: $GPGGA,203355,3946.9588,N,08404.9768,W,1,10,0.80,313.07,M,-33.324,M,,*79
2017-12-01 15:33:55 1512160435.493351: $GPRMC,203355,A,3946.9588,N,08404.9768,W,0.1867,0.000,011217,,*3D
2017-12-01 15:33:55 1512160435.493412: $GPGSA,A,3,1,10,11,12,14,18,24,25,31,32,,,2.0,0.8,1.5*01
2017-12-01 15:33:55 1512160435.945298: $GPZDA,203356.00,01,12,2017,00,00*61
2017-12-01 15:33:55 1512160435.945492: $GPGGA,203356,3946.9584,N,08404.9768,W,1,10,0.80,312.43,M,-33.324,M,,*77
2017-12-01 15:33:55 1512160435.945560: $GPRMC,203356,A,3946.9584,N,08404.9768,W,0.0000,0.000,011217,,*3A
2017-12-01 15:33:55 1512160435.945620: $GPGSA,A,3,1,10,11,12,14,18,24,25,31,32,,,2.0,0.8,1.5*01
2017-12-01 15:33:56 1512160436.399901: $GPZDA,203357.00,01,12,2017,00,00*60
2017-12-01 15:33:56 1512160436.400068: $GPGGA,203357,3946.9587,N,08404.9775,W,1,10,0.80,311.59,M,-33.324,M,,*71
2017-12-01 15:33:56 1512160436.400135: $GPRMC,203357,A,3946.9587,N,08404.9775,W,0.0000,0.000,011217,,*34
2017-12-01 15:33:56 1512160436.400195: $GPGSA,A,3,1,10,11,12,14,18,24,25,31,32,,,2.0,0.8,1.5*01
2017-12-01 15:33:57 1512160437.736481: $GPGSV,3,1,11,01,11,321,39,10,75,123,48,11,10,306,40,12,24,076,45*7A
2017-12-01 15:33:57 1512160437.736696: $GPGSV,3,2,11,14,51,285,44,18,42,132,46,24,18,045,42,25,26,120,46*71
2017-12-01 15:33:57 1512160437.736764: $GPGSV,3,3,11,31,30,210,48,32,66,316,50,138,38,213,46*74
2017-12-01 15:33:57 1512160437.849959: $GPZDA,203358.00,01,12,2017,00,00*6F
2017-12-01 15:33:57 1512160437.850111: $GPGGA,203358,3946.9584,N,08404.9782,W,1,11,0.80,310.87,M,-33.324,M,,*76
2017-12-01 15:33:57 1512160437.850179: $GPRMC,203358,A,3946.9584,N,08404.9782,W,0.0000,0.000,011217,,*30
2017-12-01 15:33:57 1512160437.850241: $GPGSA,A,3,1,10,11,12,14,18,24,25,31,32,138,,2.0,0.8,1.5*3B
2017-12-01 15:33:58 1512160438.400633: $GPZDA,203359.00,01,12,2017,00,00*6E
2017-12-01 15:33:58 1512160438.400849: $GPGGA,203359,3946.9583,N,08404.9781,W,1,11,0.80,309.46,M,-33.324,M,,*76
2017-12-01 15:33:58 1512160438.400939: $GPRMC,203359,A,3946.9583,N,08404.9781,W,0.0000,0.000,011217,,*35
2017-12-01 15:33:58 1512160438.401003: $GPGSA,A,3,1,10,11,12,14,18,24,25,31,32,138,,2.0,0.8,1.5*3B
2017-12-01 15:33:59 1512160439.401822: $GPZDA,203400.00,01,12,2017,00,00*65
2017-12-01 15:33:59 1512160439.401991: $GPGGA,203400,3946.9583,N,08404.9788,W,1,11,0.80,309.38,M,-33.324,M,,*7D
2017-12-01 15:33:59 1512160439.402059: $GPRMC,203400,A,3946.9583,N,08404.9788,W,0.0000,0.000,011217,,*37
2017-12-01 15:33:59 1512160439.402121: $GPGSA,A,3,1,10,11,12,14,18,24,25,31,32,138,,2.0,0.8,1.5*3B
2017-12-01 15:33:59 1512160439.402182: $GPGBS,203400,10.70,M,15.43,M,35.28,M*02
2017-12-01 15:34:00 1512160440.737121: $GPGSV,3,1,11,01,11,321,39,10,75,123,48,11,10,306,41,12,24,076,44*7A
2017-12-01 15:34:00 1512160440.737308: $GPGSV,3,2,11,14,51,285,44,18,42,132,46,24,18,045,42,25,26,120,45*72
2017-12-01 15:34:00 1512160440.737375: $GPGSV,3,3,11,31,30,210,48,32,66,316,49,138,38,213,46*7C
2017-12-01 15:34:00 1512160440.850557: $GPZDA,203401.00,01,12,2017,00,00*64
2017-12-01 15:34:00 1512160440.850731: $GPGGA,203401,3946.9579,N,08404.9788,W,1,11,0.80,308.74,M,-33.324,M,,*70
2017-12-01 15:34:00 1512160440.850801: $GPRMC,203401,A,3946.9579,N,08404.9788,W,0.0000,0.000,011217,,*33
2017-12-01 15:34:00 1512160440.850862: $GPGSA,A,3,1,10,11,12,14,18,24,25,31,32,138,,2.0,0.8,1.5*3B
2017-12-01 15:34:01 1512160441.402683: $GPZDA,203402.00,01,12,2017,00,00*67
2017-12-01 15:34:01 1512160441.402864: $GPGGA,203402,3946.9583,N,08404.9787,W,1,11,0.80,307.98,M,-33.324,M,,*74
2017-12-01 15:34:01 1512160441.402951: $GPRMC,203402,A,3946.9583,N,08404.9787,W,0.0000,0.000,011217,,*3A
2017-12-01 15:34:01 1512160441.403014: $GPGSA,A,3,1,10,11,12,14,18,24,25,31,32,138,,2.0,0.8,1.5*3B
2017-12-01 15:34:02 1512160442.402309: $GPZDA,203403.00,01,12,2017,00,00*66
2017-12-01 15:34:02 1512160442.402500: $GPGGA,203403,3946.9583,N,08404.9794,W,1,11,0.80,307.90,M,-33.324,M,,*7F
2017-12-01 15:34:02 1512160442.402571: $GPRMC,203403,A,3946.9583,N,08404.9794,W,0.0000,0.000,011217,,*39
2017-12-01 15:34:02 1512160442.402635: $GPGSA,A,3,1,10,11,12,14,18,24,25,31,32,138,,2.0,0.8,1.5*3B
2017-12-01 15:34:03 1512160443.736232: $GPGSV,3,1,11,01,11,321,11,10,75,123,14,11,10,306,12,12,24,076,13*7D
2017-12-01 15:34:03 1512160443.736415: $GPGSV,3,2,11,14,51,285,13,18,42,132,14,24,18,045,13,25,26,120,14*77
2017-12-01 15:34:03 1512160443.736481: $GPGSV,3,3,11,31,30,210,14,32,66,316,14,138,38,213,16*78
2017-12-01 15:34:03 1512160443.849649: $GPZDA,203404.00,01,12,2017,00,00*61
2017-12-01 15:34:03 1512160443.849831: $GPGGA,203404,3946.9579,N,08404.9794,W,1,11,0.80,307.26,M,-33.324,M,,*70
2017-12-01 15:34:03 1512160443.849901: $GPRMC,203404,A,3946.9579,N,08404.9794,W,0.0000,0.000,011217,,*3B
2017-12-01 15:34:03 1512160443.849962: $GPGSA,A,3,1,10,11,12,14,18,24,25,31,32,138,,2.0,0.8,1.5*3B
2017-12-01 15:34:04 1512160444.400588: $GPZDA,203405.00,01,12,2017,00,00*60
2017-12-01 15:34:04 1512160444.400772: $GPGGA,203405,3946.9579,N,08404.9794,W,1,11,0.80,307.26,M,-33.324,M,,*71
2017-12-01 15:34:04 1512160444.400841: $GPRMC,203405,A,3946.9579,N,08404.9794,W,0.0000,0.000,011217,,*3A
2017-12-01 15:34:04 1512160444.400904: $GPGSA,A,3,1,10,11,12,14,18,24,25,31,32,138,,2.0,0.8,1.5*3B
2017-12-01 15:34:05 1512160445.400110: $GPZDA,203406.00,01,12,2017,00,00*63
2017-12-01 15:34:05 1512160445.400284: $GPGGA,203406,3946.9579,N,08404.9794,W,1,11,0.80,307.26,M,-33.324,M,,*72
2017-12-01 15:34:05 1512160445.400350: $GPRMC,203406,A,3946.9579,N,08404.9794,W,0.0000,0.000,011217,,*39
2017-12-01 15:34:05 1512160445.400412: $GPGSA,A,3,1,10,11,12,14,18,24,25,31,32,138,,2.0,0.8,1.5*3B
2017-12-01 15:34:06 1512160446.735901: $GPGSV,3,1,11,01,11,321,39,10,75,123,47,11,10,306,40,12,24,076,43*73
2017-12-01 15:34:06 1512160446.736085: $GPGSV,3,2,11,14,51,285,43,18,42,132,45,24,18,045,43,25,26,120,45*77
2017-12-01 15:34:06 1512160446.736154: $GPGSV,3,3,11,31,30,210,47,32,66,316,48,138,38,213,46*72
2017-12-01 15:34:06 1512160446.849331: $GPZDA,203407.00,01,12,2017,00,00*62
2017-12-01 15:34:06 1512160446.849466: $GPGGA,203407,3946.9579,N,08404.9801,W,1,11,0.80,307.18,M,-33.324,M,,*7D
2017-12-01 15:34:06 1512160446.849532: $GPRMC,203407,A,3946.9579,N,08404.9801,W,0.0000,0.000,011217,,*3B
2017-12-01 15:34:06 1512160446.849593: $GPGSA,A,3,1,10,11,12,14,18,24,25,31,32,138,,2.0,0.8,1.5*3B
2017-12-01 15:34:07 1512160447.474661: $GPZDA,203408.00,01,12,2017,00,00*6D
2017-12-01 15:34:07 1512160447.474836: $GPGGA,203408,3946.9579,N,08404.9801,W,1,11,0.80,307.18,M,-33.324,M,,*72
2017-12-01 15:34:07 1512160447.474904: $GPRMC,203408,A,3946.9579,N,08404.9801,W,0.0000,0.000,011217,,*34
2017-12-01 15:34:07 1512160447.474966: $GPGSA,A,3,1,10,11,12,14,18,24,25,31,32,138,,2.0,0.8,1.5*3B
2017-12-01 15:34:08 1512160448.401897: $GPZDA,203409.00,01,12,2017,00,00*6C
2017-12-01 15:34:08 1512160448.402059: $GPGGA,203409,3946.9575,N,08404.9801,W,1,11,0.80,306.54,M,-33.324,M,,*76
2017-12-01 15:34:08 1512160448.402127: $GPRMC,203409,A,3946.9575,N,08404.9801,W,0.0000,0.000,011217,,*39
2017-12-01 15:34:08 1512160448.402190: $GPGSA,A,3,1,10,11,12,14,18,24,25,31,32,138,,2.0,0.8,1.5*3B
2017-12-01 15:34:09 1512160449.737458: $GPGSV,3,1,11,01,11,321,40,10,75,123,47,11,10,306,39,12,24,076,43*73
2017-12-01 15:34:09 1512160449.737647: $GPGSV,3,2,11,14,51,285,43,18,42,132,45,24,18,045,43,25,26,120,45*77
2017-12-01 15:34:09 1512160449.737718: $GPGSV,3,3,11,31,30,210,47,32,66,316,49,138,38,213,46*73
2017-12-01 15:34:09 1512160449.850984: $GPZDA,203410.00,01,12,2017,00,00*64
2017-12-01 15:34:09 1512160449.851157: $GPGGA,203410,3946.9575,N,08404.9814,W,2,11,1.20,304.98,M,-33.324,M,,*70
2017-12-01 15:34:09 1512160449.851224: $GPRMC,203410,A,3946.9575,N,08404.9814,W,0.0000,0.000,011217,,*35
2017-12-01 15:34:09 1512160449.851286: $GPGSA,A,3,1,10,11,12,14,18,24,25,31,32,138,,2.0,1.2,1.5*30
2017-12-01 15:34:10 1512160450.401945: $GPZDA,203411.00,01,12,2017,00,00*65
2017-12-01 15:34:10 1512160450.402120: $GPGGA,203411,3946.9575,N,08404.9814,W,2,11,0.80,304.98,M,-33.324,M,,*7A
2017-12-01 15:34:10 1512160450.402187: $GPRMC,203411,A,3946.9575,N,08404.9814,W,0.0000,0.000,011217,,*34
2017-12-01 15:34:10 1512160450.402250: $GPGSA,A,3,1,10,11,12,14,18,24,25,31,32,138,,2.0,0.8,1.5*3B
2017-12-01 15:34:11 1512160451.403777: $GPZDA,203412.00,01,12,2017,00,00*66
2017-12-01 15:34:11 1512160451.403954: $GPGGA,203412,3946.9575,N,08404.9814,W,2,11,0.80,304.98,M,-33.324,M,,*79
2017-12-01 15:34:11 1512160451.404025: $GPRMC,203412,A,3946.9575,N,08404.9814,W,0.0000,0.000,011217,,*37
2017-12-01 15:34:11 1512160451.404086: $GPGSA,A,3,1,10,11,12,14,18,24,25,31,32,138,,2.0,0.8,1.5*3B
2017-12-01 15:34:11 1512160451.404146: $GPGBS,203412,2.67,M,3.86,M,8.82,M*34
2017-12-01 15:34:12 1512160452.737690: $GPGSV,3,1,11,01,11,321,39,10,75,123,47,11,10,306,39,12,24,076,44*7A
2017-12-01 15:34:12 1512160452.737883: $GPGSV,3,2,11,14,51,285,43,18,42,132,45,24,18,045,43,25,26,120,45*77
2017-12-01 15:34:12 1512160452.737951: $GPGSV,3,3,11,31,30,210,46,32,66,316,49,138,38,213,45*71
2017-12-01 15:34:12 1512160452.851063: $GPZDA,203413.00,01,12,2017,00,00*67
2017-12-01 15:34:12 1512160452.851208: $GPGGA,203413,3946.9575,N,08404.9814,W,2,11,0.80,304.98,M,-33.324,M,,*78
2017-12-01 15:34:12 1512160452.851275: $GPRMC,203413,A,3946.9575,N,08404.9814,W,0.0000,0.000,011217,,*36
2017-12-01 15:34:12 1512160452.851336: $GPGSA,A,3,1,10,11,12,14,18,24,25,31,32,138,,2.0,0.8,1.5*3B
