2017-12-14 11:54:10 1513270450.881891: {"class":"VERSION","release":"3.16","rev":"3.16-4","proto_major":3,"proto_minor":11}
2017-12-14 11:54:10 1513270450.882323: {"class":"DEVICES","devices":[{"class":"DEVICE","path":"/dev/ttyUSB0","driver":"SiRF","subtype":"9\u0006GSD4e_4.1.2-P1_RPATCH.05-F-GPS-4R-1510281 11/03/2015 307","activated":"2017-12-14T16:54:10.388Z","flags":1,"native":1,"bps":4800,"parity":"N","stopbits":1,"cycle":1.00}]}
2017-12-14 11:54:10 1513270450.882446: {"class":"WATCH","enable":true,"json":false,"nmea":true,"raw":0,"scaled":false,"timing":false,"split24":false,"pps":false}
2017-12-14 11:54:11 1513270451.678252: $GPRMC,165412,V,18000.0000,N,00000.0000,W,0.0000,0.000,141217,,*14
2017-12-14 11:54:11 1513270451.678441: $GPGSA,A,1,20,24,10,15,21,27,,,,,,,,,,*35
2017-12-14 11:54:12 1513270452.632862: $GPRMC,165413,V,3946.9610,N,08404.9363,W,0.0000,0.000,141217,,*2D
2017-12-14 11:54:12 1513270452.633019: $GPGSA,A,1,20,24,10,15,21,27,,,,,,,,,,*35
2017-12-14 11:54:13 1513270453.331403: $GPGSV,3,1,10,20,42,085,18,24,44,126,18,15,47,049,15,18,64,318,03*7C
2017-12-14 11:54:13 1513270453.331555: $GPGSV,3,2,10,21,73,202,02,10,33,292,00,27,19,300,00,13,17,046,00*7C
2017-12-14 11:54:13 1513270453.331622: $GPGSV,3,3,10,32,12,232,00,08,02,330,00*73
2017-12-14 11:54:13 1513270453.447817: $GPRMC,165413,V,3946.9610,N,08404.9363,W,0.0000,0.000,141217,,*2D
2017-12-14 11:54:13 1513270453.447982: $GPGSA,A,1,20,24,15,18,21,,,,,,,,,,,*38
2017-12-14 11:54:13 1513270453.698857: $GPRMC,165413,V,3946.9610,N,08404.9363,W,0.0000,0.000,141217,,*2D
2017-12-14 11:54:13 1513270453.699012: $GPGSA,A,1,20,24,15,18,21,,,,,,,,,,,*38
2017-12-14 11:54:13 1513270453.952707: $GPRMC,165414,V,3946.9610,N,08404.9363,W,0.0000,0.000,141217,,*2A
2017-12-14 11:54:13 1513270453.952885: $GPGSA,A,1,20,24,15,18,21,,,,,,,,,,,*38
2017-12-14 11:54:14 1513270454.830762: $GPGSV,3,1,10,20,42,085,26,24,44,126,27,15,47,049,22,18,64,318,15*7E
2017-12-14 11:54:14 1513270454.830938: $GPGSV,3,2,10,21,73,202,20,10,33,292,03,27,19,300,00,13,17,046,00*7F
2017-12-14 11:54:14 1513270454.831004: $GPGSV,3,3,10,32,12,232,00,08,02,330,00*73
2017-12-14 11:54:14 1513270454.943087: $GPRMC,165415,V,3946.9610,N,08404.9363,W,0.0000,0.000,141217,,*2B
2017-12-14 11:54:14 1513270454.943257: $GPGSA,A,1,20,24,15,18,21,,,,,,,,,,,*38
2017-12-14 11:54:15 1513270455.499299: $GPZDA,165416.36,14,12,2017,00,00*60
2017-12-14 11:54:15 1513270455.499468: $GPGGA,165416,3946.9560,N,08404.9353,W,1,05,1.80,359.92,M,-33.324,M,,*77
2017-12-14 11:54:15 1513270455.499535: $GPRMC,165416,A,3946.9560,N,08404.9353,W,3.3001,206.237,141217,,*3B
2017-12-14 11:54:15 1513270455.499597: $GPGSA,A,3,20,24,15,18,21,,,,,,,,6.6,1.8,6.2*35
2017-12-14 11:54:15 1513270455.499654: $GPGBS,165416,24.66,M,21.80,M,143.40,M*30
2017-12-14 11:54:16 1513270456.742226: $GPZDA,165417.36,14,12,2017,00,00*61
2017-12-14 11:54:16 1513270456.742408: $GPGGA,165417,3946.9561,N,08404.9368,W,1,05,2.00,361.17,M,-33.324,M,,*72
2017-12-14 11:54:16 1513270456.742497: $GPRMC,165417,A,3946.9561,N,08404.9368,W,2.9282,220.901,141217,,*3B
2017-12-14 11:54:16 1513270456.742562: $GPGSA,A,3,20,24,15,18,21,,,,,,,,6.6,2.0,6.2*3E
2017-12-14 11:54:16 1513270456.742618: $GPGBS,165417,24.66,M,21.80,M,143.40,M*31
2017-12-14 11:54:17 1513270457.353112: $GPGSV,3,1,11,20,42,085,26,24,44,126,26,15,47,049,22,27,19,300,08*7D
2017-12-14 11:54:17 1513270457.353297: $GPGSV,3,2,11,21,73,202,22,10,33,292,12,18,64,318,00,13,17,046,00*73
2017-12-14 11:54:17 1513270457.353363: $GPGSV,3,3,11,32,12,232,00,08,02,330,00,138,38,213,00*73
2017-12-14 11:54:17 1513270457.466742: $GPZDA,165417.57,14,12,2017,00,00*66
2017-12-14 11:54:17 1513270457.466910: $GPGGA,165417,3946.9562,N,08404.9375,W,1,06,2.00,361.09,M,-33.324,M,,*71
2017-12-14 11:54:17 1513270457.466994: $GPRMC,165417,A,3946.9562,N,08404.9375,W,3.4154,231.351,141217,,*3F
2017-12-14 11:54:17 1513270457.467059: $GPGSA,A,3,20,24,15,27,21,10,,,,,,,6.6,2.0,6.2*33
2017-12-14 11:54:17 1513270457.720625: $GPZDA,165418.00,14,12,2017,00,00*6B
2017-12-14 11:54:17 1513270457.720796: $GPGGA,165418,3946.9565,N,08404.9374,W,1,06,2.00,360.33,M,-33.324,M,,*70
2017-12-14 11:54:17 1513270457.720930: $GPRMC,165418,A,3946.9565,N,08404.9374,W,3.1836,241.921,141217,,*34
2017-12-14 11:54:17 1513270457.720995: $GPGSA,A,3,20,24,15,27,21,10,,,,,,,6.6,2.0,6.2*33
2017-12-14 11:54:18 1513270458.201525: $GPZDA,165419.00,14,12,2017,00,00*6A
2017-12-14 11:54:18 1513270458.201695: $GPGGA,165419,3946.9565,N,08404.9381,W,1,06,2.00,360.25,M,-33.324,M,,*7C
2017-12-14 11:54:18 1513270458.201762: $GPRMC,165419,A,3946.9565,N,08404.9381,W,2.8295,257.156,141217,,*3B
2017-12-14 11:54:18 1513270458.201824: $GPGSA,A,3,20,24,15,27,21,10,,,,,,,6.6,2.0,6.2*33
2017-12-14 11:54:19 1513270459.537489: $GPGSV,3,1,11,20,42,085,26,24,44,126,26,15,47,049,22,27,19,300,14*70
2017-12-14 11:54:19 1513270459.537669: $GPGSV,3,2,11,21,73,202,22,10,33,292,11,18,64,318,00,13,17,046,00*70
2017-12-14 11:54:19 1513270459.537735: $GPGSV,3,3,11,32,12,232,00,08,02,330,00,138,38,213,00*73
2017-12-14 11:54:19 1513270459.649713: $GPZDA,165420.00,14,12,2017,00,00*60
2017-12-14 11:54:19 1513270459.649914: $GPGGA,165420,3946.9577,N,08404.9387,W,1,06,2.00,359.28,M,-33.324,M,,*74
2017-12-14 11:54:19 1513270459.649983: $GPRMC,165420,A,3946.9577,N,08404.9387,W,2.7745,260.156,141217,,*37
2017-12-14 11:54:19 1513270459.650047: $GPGSA,A,3,20,24,15,27,21,10,,,,,,,6.6,2.0,6.2*33
2017-12-14 11:54:20 1513270460.201104: $GPZDA,165421.00,14,12,2017,00,00*61
2017-12-14 11:54:20 1513270460.201313: $GPGGA,165421,3946.9585,N,08404.9400,W,1,06,2.00,359.00,M,-33.324,M,,*7A
2017-12-14 11:54:20 1513270460.201383: $GPRMC,165421,A,3946.9585,N,08404.9400,W,2.5217,258.043,141217,,*3D
2017-12-14 11:54:20 1513270460.201463: $GPGSA,A,3,20,24,15,27,21,10,,,,,,,6.6,2.0,6.2*33
2017-12-14 11:54:21 1513270461.201234: $GPZDA,165422.00,14,12,2017,00,00*62
2017-12-14 11:54:21 1513270461.201444: $GPGGA,165422,3946.9593,N,08404.9406,W,1,06,2.00,358.79,M,-33.324,M,,*77
2017-12-14 11:54:21 1513270461.201516: $GPRMC,165422,A,3946.9593,N,08404.9406,W,2.3547,252.880,141217,,*36
2017-12-14 11:54:21 1513270461.201580: $GPGSA,A,3,20,24,15,27,21,10,,,,,,,6.6,2.0,6.2*33
2017-12-14 11:54:22 1513270462.536101: $GPGSV,3,1,11,20,42,085,26,24,44,126,26,15,47,049,22,27,19,300,14*70
2017-12-14 11:54:22 1513270462.536301: $GPGSV,3,2,11,21,73,202,22,10,33,292,11,18,64,318,00,13,17,046,00*70
2017-12-14 11:54:22 1513270462.536405: $GPGSV,3,3,11,32,12,232,00,08,02,330,00,138,38,213,00*73
2017-12-14 11:54:22 1513270462.649540: $GPZDA,165423.00,14,12,2017,00,00*63
2017-12-14 11:54:22 1513270462.649714: $GPGGA,165423,3946.9597,N,08404.9412,W,1,06,2.00,357.95,M,-33.324,M,,*7A
2017-12-14 11:54:22 1513270462.649782: $GPRMC,165423,A,3946.9597,N,08404.9412,W,2.0596,254.382,141217,,*36
2017-12-14 11:54:22 1513270462.649846: $GPGSA,A,3,20,24,15,27,21,10,,,,,,,6.6,2.0,6.2*33
2017-12-14 11:54:23 1513270463.200807: $GPZDA,165424.00,14,12,2017,00,00*64
2017-12-14 11:54:23 1513270463.200975: $GPGGA,165424,3946.9597,N,08404.9419,W,1,06,2.00,357.87,M,-33.324,M,,*75
2017-12-14 11:54:23 1513270463.201065: $GPRMC,165424,A,3946.9597,N,08404.9419,W,1.9377,273.795,141217,,*3E
2017-12-14 11:54:23 1513270463.201130: $GPGSA,A,3,20,24,15,27,21,10,,,,,,,6.6,2.0,6.2*33
2017-12-14 11:54:24 1513270464.199922: $GPZDA,165425.00,14,12,2017,00,00*65
2017-12-14 11:54:24 1513270464.200114: $GPGGA,165425,3946.9599,N,08404.9434,W,1,06,2.00,359.11,M,-33.324,M,,*74
2017-12-14 11:54:24 1513270464.200189: $GPRMC,165425,A,3946.9599,N,08404.9434,W,1.9890,280.048,141217,,*37
2017-12-14 11:54:24 1513270464.200254: $GPGSA,A,3,20,24,15,27,21,10,,,,,,,6.6,2.0,6.2*33
2017-12-14 11:54:25 1513270465.535590: $GPGSV,3,1,11,20,42,085,26,24,44,126,26,15,47,049,22,27,19,300,15*71
2017-12-14 11:54:25 1513270465.535738: $GPGSV,3,2,11,21,73,202,22,10,33,292,00,18,64,318,04,13,17,046,00*74
2017-12-14 11:54:25 1513270465.535807: $GPGSV,3,3,11,32,12,232,00,08,02,330,00,138,38,213,00*73
2017-12-14 11:54:25 1513270465.648954: $GPZDA,165426.00,14,12,2017,00,00*66
2017-12-14 11:54:25 1513270465.649129: $GPGGA,165426,3946.9606,N,08404.9433,W,1,05,2.00,358.99,M,-33.324,M,,*77
2017-12-14 11:54:25 1513270465.649255: $GPRMC,165426,A,3946.9606,N,08404.9433,W,1.2908,290.574,141217,,*36
2017-12-14 11:54:25 1513270465.649318: $GPGSA,A,3,20,24,15,27,21,,,,,,,,6.6,2.0,6.2*32
2017-12-14 11:54:26 1513270466.199342: $GPZDA,165427.00,14,12,2017,00,00*67
2017-12-14 11:54:26 1513270466.199510: $GPGGA,165427,3946.9607,N,08404.9440,W,1,05,2.00,358.91,M,-33.324,M,,*7B
2017-12-14 11:54:26 1513270466.199577: $GPRMC,165427,A,3946.9607,N,08404.9440,W,0.5306,294.352,141217,,*36
2017-12-14 11:54:26 1513270466.199639: $GPGSA,A,3,20,24,15,27,21,,,,,,,,6.6,2.0,6.2*32
2017-12-14 11:54:27 1513270467.199466: $GPZDA,165428.00,14,12,2017,00,00*68
2017-12-14 11:54:27 1513270467.199633: $GPGGA,165428,3946.9607,N,08404.9447,W,1,05,2.00,358.83,M,-33.324,M,,*70
2017-12-14 11:54:27 1513270467.199700: $GPRMC,165428,A,3946.9607,N,08404.9447,W,0.7238,320.710,141217,,*3C
2017-12-14 11:54:27 1513270467.199762: $GPGSA,A,3,20,24,15,27,21,,,,,,,,6.6,2.0,6.2*32
2017-12-14 11:54:28 1513270468.538602: $GPGSV,3,1,11,20,42,085,26,24,44,126,26,15,47,049,22,27,19,300,15*71
2017-12-14 11:54:28 1513270468.538779: $GPGSV,3,2,11,21,73,202,22,10,33,292,00,18,64,318,11,13,17,046,00*70
2017-12-14 11:54:28 1513270468.538846: $GPGSV,3,3,11,32,12,232,00,08,02,330,00,138,38,213,00*73
2017-12-14 11:54:28 1513270468.652200: $GPZDA,165429.00,14,12,2017,00,00*69
2017-12-14 11:54:28 1513270468.652375: $GPGGA,165429,3946.9607,N,08404.9447,W,1,06,1.80,358.83,M,-33.324,M,,*79
2017-12-14 11:54:28 1513270468.652441: $GPRMC,165429,A,3946.9607,N,08404.9447,W,0.5230,256.444,141217,,*35
2017-12-14 11:54:28 1513270468.652504: $GPGSA,A,3,20,24,15,27,21,18,,,,,,,6.6,1.8,6.2*30
2017-12-14 11:54:29 1513270469.202640: $GPZDA,165430.00,14,12,2017,00,00*61
2017-12-14 11:54:29 1513270469.202798: $GPGGA,165430,3946.9607,N,08404.9447,W,1,06,1.80,358.83,M,-33.324,M,,*71
2017-12-14 11:54:29 1513270469.202865: $GPRMC,165430,A,3946.9607,N,08404.9447,W,0.9689,273.794,141217,,*3E
2017-12-14 11:54:29 1513270469.202926: $GPGSA,A,3,20,24,15,27,21,18,,,,,,,6.6,1.8,6.2*30
2017-12-14 11:54:29 1513270469.202984: $GPGBS,165430,24.66,M,21.80,M,143.40,M*34
2017-12-14 11:54:30 1513270470.203622: $GPZDA,165431.00,14,12,2017,00,00*60
2017-12-14 11:54:30 1513270470.203819: $GPGGA,165431,3946.9607,N,08404.9454,W,1,06,1.80,358.75,M,-33.324,M,,*7B
2017-12-14 11:54:30 1513270470.203894: $GPRMC,165431,A,3946.9607,N,08404.9454,W,1.1824,309.173,141217,,*3E
2017-12-14 11:54:30 1513270470.203957: $GPGSA,A,3,20,24,15,27,21,18,,,,,,,6.6,1.8,6.2*30
2017-12-14 11:54:30 1513270470.204020: $GPGBS,165431,24.66,M,21.80,M,143.40,M*35
