2018-01-11 19:41:49 1515717709.074808: {"class":"VERSION","release":"3.16","rev":"3.16-4","proto_major":3,"proto_minor":11}
2018-01-11 19:41:49 1515717709.075202: {"class":"DEVICES","devices":[{"class":"DEVICE","path":"/dev/ttyUSB0","driver":"SiRF","subtype":"9\u0006GSD4e_4.1.2-P1_RPATCH.05-F-GPS-4R-1510281 11/03/2015 307","activated":"2018-01-12T00:41:48.616Z","flags":1,"native":1,"bps":4800,"parity":"N","stopbits":1,"cycle":1.00}]}
2018-01-11 19:41:49 1515717709.075319: {"class":"WATCH","enable":true,"json":false,"nmea":true,"raw":0,"scaled":false,"timing":false,"split24":false,"pps":false}
2018-01-11 19:41:49 1515717709.400969: $GPZDA,004150.00,12,01,2018,00,00*6F
2018-01-11 19:41:49 1515717709.401138: $GPGGA,004150,3946.9561,N,08404.9816,W,2,10,0.80,306.63,M,-33.324,M,,*7F
2018-01-11 19:41:49 1515717709.401204: $GPRMC,004150,A,3946.9561,N,08404.9816,W,0.0000,0.000,120118,,*39
2018-01-11 19:41:49 1515717709.401264: $GPGSA,A,3,7,8,9,16,23,27,30,28,11,138,,,4.0,0.8,3.5*3E
2018-01-11 19:41:50 1515717710.755046: $GPGSV,3,1,12,07,43,309,38,08,62,159,46,09,55,249,43,16,33,052,48*77
2018-01-11 19:41:50 1515717710.755200: $GPGSV,3,2,12,23,43,195,46,27,57,069,50,30,18,301,32,21,01,033,06*72
2018-01-11 19:41:50 1515717710.755265: $GPGSV,3,3,12,26,08,064,04,11,09,172,32,28,05,249,00,138,38,213,44*4D
2018-01-11 19:41:50 1515717710.867145: $GPZDA,004151.00,12,01,2018,00,00*6E
2018-01-11 19:41:50 1515717710.867277: $GPGGA,004151,3946.9561,N,08404.9816,W,2,09,0.80,306.63,M,-33.324,M,,*76
2018-01-11 19:41:50 1515717710.867341: $GPRMC,004151,A,3946.9561,N,08404.9816,W,0.0000,0.000,120118,,*38
2018-01-11 19:41:50 1515717710.867400: $GPGSA,A,3,7,8,9,16,23,27,30,11,138,,,,4.0,0.8,3.5*34
2018-01-11 19:41:51 1515717711.414300: $GPZDA,004152.00,12,01,2018,00,00*6D
2018-01-11 19:41:51 1515717711.414464: $GPGGA,004152,3946.9561,N,08404.9816,W,2,09,0.80,306.63,M,-33.324,M,,*75
2018-01-11 19:41:51 1515717711.414530: $GPRMC,004152,A,3946.9561,N,08404.9816,W,0.0000,0.000,120118,,*3B
2018-01-11 19:41:51 1515717711.414590: $GPGSA,A,3,7,8,9,16,23,27,30,11,138,,,,4.0,0.8,3.5*34
2018-01-11 19:41:52 1515717712.408052: $GPZDA,004153.00,12,01,2018,00,00*6C
2018-01-11 19:41:52 1515717712.408211: $GPGGA,004153,3946.9561,N,08404.9816,W,2,09,0.80,306.63,M,-33.324,M,,*74
2018-01-11 19:41:52 1515717712.408277: $GPRMC,004153,A,3946.9561,N,08404.9816,W,0.0000,0.000,120118,,*3A
2018-01-11 19:41:52 1515717712.408338: $GPGSA,A,3,7,8,9,16,23,27,30,11,138,,,,4.0,0.8,3.5*34
2018-01-11 19:41:53 1515717713.750398: $GPGSV,3,1,12,07,43,309,38,08,62,159,46,09,55,249,43,16,33,052,48*77
2018-01-11 19:41:53 1515717713.750588: $GPGSV,3,2,12,23,43,195,46,27,57,069,50,30,18,301,29,26,08,064,00*72
2018-01-11 19:41:53 1515717713.750656: $GPGSV,3,3,12,28,05,249,00,11,09,172,32,21,01,033,00,138,38,213,44*45
2018-01-11 19:41:53 1515717713.864124: $GPZDA,004154.00,12,01,2018,00,00*6B
2018-01-11 19:41:53 1515717713.864256: $GPGGA,004154,3946.9561,N,08404.9816,W,2,09,0.80,306.63,M,-33.324,M,,*73
2018-01-11 19:41:53 1515717713.864320: $GPRMC,004154,A,3946.9561,N,08404.9816,W,0.0000,0.000,120118,,*3D
2018-01-11 19:41:53 1515717713.864380: $GPGSA,A,3,7,8,9,16,23,27,30,11,138,,,,4.0,0.8,3.5*34
2018-01-11 19:41:54 1515717714.399698: $GPZDA,004155.00,12,01,2018,00,00*6A
2018-01-11 19:41:54 1515717714.399855: $GPGGA,004155,3946.9561,N,08404.9816,W,2,09,0.80,306.63,M,-33.324,M,,*72
2018-01-11 19:41:54 1515717714.399920: $GPRMC,004155,A,3946.9561,N,08404.9816,W,0.0000,0.000,120118,,*3C
2018-01-11 19:41:54 1515717714.399980: $GPGSA,A,3,7,8,9,16,23,27,30,11,138,,,,4.0,0.8,3.5*34
2018-01-11 19:41:55 1515717715.414254: $GPZDA,004156.00,12,01,2018,00,00*69
2018-01-11 19:41:55 1515717715.414413: $GPGGA,004156,3946.9561,N,08404.9816,W,2,09,0.80,306.63,M,-33.324,M,,*71
2018-01-11 19:41:55 1515717715.414478: $GPRMC,004156,A,3946.9561,N,08404.9816,W,0.0000,0.000,120118,,*3F
2018-01-11 19:41:55 1515717715.414539: $GPGSA,A,3,7,8,9,16,23,27,30,11,138,,,,4.0,0.8,3.5*34
2018-01-11 19:41:56 1515717716.746232: $GPGSV,3,1,12,07,43,309,38,08,62,159,46,09,55,249,42,16,33,052,48*76
2018-01-11 19:41:56 1515717716.746458: $GPGSV,3,2,12,23,43,195,47,27,57,069,50,30,18,301,29,26,08,064,00*73
2018-01-11 19:41:56 1515717716.746526: $GPGSV,3,3,12,28,05,249,00,11,09,172,32,21,01,033,00,138,38,213,44*45
2018-01-11 19:41:56 1515717716.859697: $GPZDA,004157.00,12,01,2018,00,00*68
2018-01-11 19:41:56 1515717716.859839: $GPGGA,004157,3946.9561,N,08404.9816,W,2,09,0.80,306.63,M,-33.324,M,,*70
2018-01-11 19:41:56 1515717716.859904: $GPRMC,004157,A,3946.9561,N,08404.9816,W,0.0000,0.000,120118,,*3E
2018-01-11 19:41:56 1515717716.859964: $GPGSA,A,3,7,8,9,16,23,27,30,11,138,,,,4.0,0.8,3.5*34
