2017-12-14 11:53:45 1513270425.362220: {"class":"VERSION","release":"3.16","rev":"3.16-4","proto_major":3,"proto_minor":11}
2017-12-14 11:53:45 1513270425.362589: {"class":"DEVICES","devices":[{"class":"DEVICE","path":"/dev/ttyUSB0","driver":"SiRF","subtype":"9\u0006GSD4e_4.1.2-P1_RPATCH.05-F-GPS-4R-1510281 11/03/2015 307","activated":"2017-12-14T16:53:45.335Z","flags":1,"native":1,"bps":4800,"parity":"N","stopbits":1,"cycle":1.00}]}
2017-12-14 11:53:45 1513270425.362707: {"class":"WATCH","enable":true,"json":false,"nmea":true,"raw":0,"scaled":false,"timing":false,"split24":false,"pps":false}
2017-12-14 11:53:46 1513270426.688770: $GPGSV,3,1,11,20,43,085,25,24,44,126,26,10,33,292,17,15,48,049,25*7F
2017-12-14 11:53:46 1513270426.688947: $GPGSV,3,2,11,18,64,316,04,21,74,204,22,27,19,301,14,13,17,046,00*79
2017-12-14 11:53:46 1513270426.689014: $GPGSV,3,3,11,32,12,231,00,08,01,331,00,120,07,103,00*75
2017-12-14 11:53:46 1513270426.802463: $GPZDA,165347.00,14,12,2017,00,00*66
2017-12-14 11:53:46 1513270426.802626: $GPGGA,165347,3946.9573,N,08404.9374,W,1,06,1.80,360.20,M,-33.324,M,,*73
2017-12-14 11:53:46 1513270426.802693: $GPRMC,165347,A,3946.9573,N,08404.9374,W,0.4179,328.779,141217,,*37
2017-12-14 11:53:46 1513270426.802754: $GPGSA,A,3,20,24,10,15,21,27,,,,,,,6.6,1.8,6.2*38
2017-12-14 11:53:47 1513270427.428231: $GPZDA,165348.00,14,12,2017,00,00*69
2017-12-14 11:53:47 1513270427.428417: $GPGGA,165348,3946.9577,N,08404.9374,W,1,06,1.80,360.84,M,-33.324,M,,*76
2017-12-14 11:53:47 1513270427.428487: $GPRMC,165348,A,3946.9577,N,08404.9374,W,0.5857,338.291,141217,,*3A
2017-12-14 11:53:47 1513270427.428548: $GPGSA,A,3,20,24,10,15,21,27,,,,,,,6.6,1.8,6.2*38
2017-12-14 11:53:48 1513270428.335918: $GPZDA,165349.00,14,12,2017,00,00*68
2017-12-14 11:53:48 1513270428.336095: $GPGGA,165349,3946.9580,N,08404.9373,W,1,06,1.80,360.08,M,-33.324,M,,*7C
2017-12-14 11:53:48 1513270428.336162: $GPRMC,165349,A,3946.9580,N,08404.9373,W,0.7238,320.710,141217,,*30
2017-12-14 11:53:48 1513270428.336228: $GPGSA,A,3,20,24,10,15,21,27,,,,,,,6.6,1.8,6.2*38
2017-12-14 11:53:49 1513270429.686628: $GPGSV,3,1,11,20,43,085,26,24,44,126,26,10,33,292,16,15,48,049,25*7D
2017-12-14 11:53:49 1513270429.686806: $GPGSV,3,2,11,18,64,316,13,21,74,204,22,27,19,301,13,13,17,046,00*78
2017-12-14 11:53:49 1513270429.686871: $GPGSV,3,3,11,32,12,231,00,08,01,331,00,120,07,103,00*75
2017-12-14 11:53:49 1513270429.800726: $GPZDA,165350.00,14,12,2017,00,00*60
2017-12-14 11:53:49 1513270429.800913: $GPGGA,165350,3946.9580,N,08404.9373,W,1,07,1.80,360.08,M,-33.324,M,,*75
2017-12-14 11:53:49 1513270429.800984: $GPRMC,165350,A,3946.9580,N,08404.9373,W,0.8011,299.090,141217,,*32
2017-12-14 11:53:49 1513270429.801045: $GPGSA,A,3,20,24,10,15,18,21,27,,,,,,6.6,1.8,6.2*31
2017-12-14 11:53:50 1513270430.351306: $GPZDA,165351.00,14,12,2017,00,00*61
2017-12-14 11:53:50 1513270430.351484: $GPGGA,165351,3946.9588,N,08404.9372,W,1,07,1.80,359.95,M,-33.324,M,,*73
2017-12-14 11:53:50 1513270430.351570: $GPRMC,165351,A,3946.9588,N,08404.9372,W,1.1124,302.165,141217,,*3D
2017-12-14 11:53:50 1513270430.351633: $GPGSA,A,3,20,24,10,15,18,21,27,,,,,,6.6,1.8,6.2*31
2017-12-14 11:53:51 1513270431.352181: $GPZDA,165352.00,14,12,2017,00,00*62
2017-12-14 11:53:51 1513270431.352380: $GPGGA,165352,3946.9588,N,08404.9379,W,1,07,1.80,359.87,M,-33.324,M,,*78
2017-12-14 11:53:51 1513270431.352450: $GPRMC,165352,A,3946.9588,N,08404.9379,W,0.7621,287.945,141217,,*36
2017-12-14 11:53:51 1513270431.352512: $GPGSA,A,3,20,24,10,15,18,21,27,,,,,,6.6,1.8,6.2*31
2017-12-14 11:53:52 1513270432.688268: $GPGSV,3,1,11,20,43,085,26,24,44,126,26,10,33,292,16,15,48,049,24*7C
2017-12-14 11:53:52 1513270432.688429: $GPGSV,3,2,11,18,64,316,12,21,74,204,22,27,19,301,12,13,17,046,00*78
2017-12-14 11:53:52 1513270432.688493: $GPGSV,3,3,11,32,12,231,00,08,01,331,00,120,07,103,00*75
2017-12-14 11:53:52 1513270432.801958: $GPZDA,165353.00,14,12,2017,00,00*63
2017-12-14 11:53:52 1513270432.802154: $GPGGA,165353,3946.9588,N,08404.9379,W,1,07,1.80,359.87,M,-33.324,M,,*79
2017-12-14 11:53:52 1513270432.802225: $GPRMC,165353,A,3946.9588,N,08404.9379,W,0.5951,238.684,141217,,*3B
2017-12-14 11:53:52 1513270432.802345: $GPGSA,A,3,20,24,10,15,18,21,27,,,,,,6.6,1.8,6.2*31
2017-12-14 11:53:53 1513270433.336594: $GPZDA,165354.00,14,12,2017,00,00*64
2017-12-14 11:53:53 1513270433.336764: $GPGGA,165354,3946.9588,N,08404.9379,W,1,07,1.80,359.87,M,-33.324,M,,*7E
2017-12-14 11:53:53 1513270433.336832: $GPRMC,165354,A,3946.9588,N,08404.9379,W,0.5951,238.684,141217,,*3C
2017-12-14 11:53:53 1513270433.336892: $GPGSA,A,3,20,24,10,15,18,21,27,,,,,,6.6,1.8,6.2*31
2017-12-14 11:53:54 1513270434.352272: $GPZDA,165355.00,14,12,2017,00,00*65
2017-12-14 11:53:54 1513270434.352445: $GPGGA,165355,3946.9596,N,08404.9378,W,1,07,1.80,359.75,M,-33.324,M,,*7C
2017-12-14 11:53:54 1513270434.352510: $GPRMC,165355,A,3946.9596,N,08404.9378,W,0.5306,294.353,141217,,*32
2017-12-14 11:53:54 1513270434.352572: $GPGSA,A,3,20,24,10,15,18,21,27,,,,,,6.6,1.8,6.2*31
2017-12-14 11:53:55 1513270435.689093: $GPGSV,3,1,11,20,43,085,26,24,44,126,26,10,33,292,15,15,48,049,24*7F
2017-12-14 11:53:55 1513270435.689275: $GPGSV,3,2,11,18,64,316,04,21,74,204,22,27,19,301,11,13,17,046,00*7C
2017-12-14 11:53:55 1513270435.689343: $GPGSV,3,3,11,32,12,231,00,08,01,331,00,120,07,103,00*75
2017-12-14 11:53:55 1513270435.802967: $GPZDA,165356.00,14,12,2017,00,00*66
2017-12-14 11:53:55 1513270435.803137: $GPGGA,165356,3946.9596,N,08404.9385,W,1,06,1.80,359.67,M,-33.324,M,,*7F
2017-12-14 11:53:55 1513270435.803207: $GPRMC,165356,A,3946.9596,N,08404.9385,W,0.7246,344.668,141217,,*35
2017-12-14 11:53:55 1513270435.803269: $GPGSA,A,3,20,24,10,15,21,27,,,,,,,6.6,1.8,6.2*38
2017-12-14 11:53:56 1513270436.353465: $GPZDA,165357.00,14,12,2017,00,00*67
2017-12-14 11:53:56 1513270436.353632: $GPGGA,165357,3946.9596,N,08404.9385,W,1,06,1.80,359.67,M,-33.324,M,,*7E
2017-12-14 11:53:56 1513270436.353701: $GPRMC,165357,A,3946.9596,N,08404.9385,W,0.4844,273.795,141217,,*39
2017-12-14 11:53:56 1513270436.353762: $GPGSA,A,3,20,24,10,15,21,27,,,,,,,6.6,1.8,6.2*38
2017-12-14 11:53:57 1513270437.335232: $GPZDA,165358.00,14,12,2017,00,00*68
2017-12-14 11:53:57 1513270437.335405: $GPGGA,165358,3946.9596,N,08404.9385,W,1,06,1.80,359.67,M,-33.324,M,,*71
2017-12-14 11:53:57 1513270437.335471: $GPRMC,165358,A,3946.9596,N,08404.9385,W,0.2422,273.795,141217,,*3C
2017-12-14 11:53:57 1513270437.335533: $GPGSA,A,3,20,24,10,15,21,27,,,,,,,6.6,1.8,6.2*38
2017-12-14 11:53:58 1513270438.670698: $GPGSV,3,1,11,20,43,085,26,24,44,126,26,10,33,292,14,15,48,049,24*7E
2017-12-14 11:53:58 1513270438.670880: $GPGSV,3,2,11,18,64,316,00,21,74,204,22,27,19,301,11,13,17,046,00*78
2017-12-14 11:53:58 1513270438.670962: $GPGSV,3,3,11,32,12,231,00,08,01,331,00,120,07,103,00*75
2017-12-14 11:53:58 1513270438.784365: $GPZDA,165359.00,14,12,2017,00,00*69
2017-12-14 11:53:58 1513270438.784534: $GPGGA,165359,3946.9596,N,08404.9385,W,1,06,1.80,359.67,M,-33.324,M,,*70
2017-12-14 11:53:58 1513270438.784599: $GPRMC,165359,A,3946.9596,N,08404.9385,W,0.3155,129.994,141217,,*3A
2017-12-14 11:53:58 1513270438.784661: $GPGSA,A,3,20,24,10,15,21,27,,,,,,,6.6,1.8,6.2*38
2017-12-14 11:53:59 1513270439.335311: $GPZDA,165400.00,14,12,2017,00,00*62
2017-12-14 11:53:59 1513270439.335481: $GPGGA,165400,3946.9604,N,08404.9385,W,1,06,1.80,359.54,M,-33.324,M,,*73
2017-12-14 11:53:59 1513270439.335548: $GPRMC,165400,A,3946.9604,N,08404.9385,W,0.5230,76.444,141217,,*04
2017-12-14 11:53:59 1513270439.335608: $GPGSA,A,3,20,24,10,15,21,27,,,,,,,6.6,1.8,6.2*38
2017-12-14 11:54:00 1513270440.333411: $GPZDA,165401.00,14,12,2017,00,00*63
2017-12-14 11:54:00 1513270440.333582: $GPGGA,165401,3946.9603,N,08404.9378,W,1,06,1.80,359.62,M,-33.324,M,,*72
2017-12-14 11:54:00 1513270440.333650: $GPRMC,165401,A,3946.9603,N,08404.9378,W,0.8414,39.347,141217,,*02
2017-12-14 11:54:00 1513270440.333712: $GPGSA,A,3,20,24,10,15,21,27,,,,,,,6.6,1.8,6.2*38
2017-12-14 11:54:01 1513270441.670327: $GPGSV,3,1,11,20,43,085,26,24,44,126,26,10,33,292,14,15,48,049,24*7E
2017-12-14 11:54:01 1513270441.670509: $GPGSV,3,2,11,18,64,316,00,21,74,204,23,27,19,301,09,13,17,046,00*70
2017-12-14 11:54:01 1513270441.670626: $GPGSV,3,3,11,32,12,231,00,08,01,331,00,120,07,103,00*75
2017-12-14 11:54:01 1513270441.783949: $GPZDA,165402.00,14,12,2017,00,00*60
2017-12-14 11:54:01 1513270441.784084: $GPGGA,165402,3946.9603,N,08404.9378,W,1,06,1.80,359.62,M,-33.324,M,,*71
2017-12-14 11:54:01 1513270441.784153: $GPRMC,165402,A,3946.9603,N,08404.9378,W,0.4844,93.795,141217,,*0F
2017-12-14 11:54:01 1513270441.784214: $GPGSA,A,3,20,24,10,15,21,27,,,,,,,6.6,1.8,6.2*38
2017-12-14 11:54:02 1513270442.409153: $GPZDA,165403.00,14,12,2017,00,00*61
2017-12-14 11:54:02 1513270442.409338: $GPGGA,165403,3946.9603,N,08404.9378,W,1,06,1.80,359.62,M,-33.324,M,,*70
2017-12-14 11:54:02 1513270442.409405: $GPRMC,165403,A,3946.9603,N,08404.9378,W,0.4179,328.779,141217,,*38
2017-12-14 11:54:02 1513270442.409465: $GPGSA,A,3,20,24,10,15,21,27,,,,,,,6.6,1.8,6.2*38
2017-12-14 11:54:03 1513270443.333790: $GPZDA,165404.00,14,12,2017,00,00*66
2017-12-14 11:54:03 1513270443.333959: $GPGGA,165404,3946.9604,N,08404.9385,W,1,06,1.80,359.54,M,-33.324,M,,*77
2017-12-14 11:54:03 1513270443.334025: $GPRMC,165404,A,3946.9604,N,08404.9385,W,0.1867,180.000,141217,,*30
2017-12-14 11:54:03 1513270443.334085: $GPGSA,A,3,20,24,10,15,21,27,,,,,,,6.6,1.8,6.2*38
2017-12-14 11:54:04 1513270444.669634: $GPGSV,3,1,11,20,43,085,26,24,44,126,26,10,33,292,14,15,48,049,23*79
2017-12-14 11:54:04 1513270444.669785: $GPGSV,3,2,11,18,64,316,00,21,74,204,22,27,19,301,10,13,17,046,00*79
2017-12-14 11:54:04 1513270444.669851: $GPGSV,3,3,11,32,12,231,00,08,01,331,00,120,07,103,00*75
2017-12-14 11:54:04 1513270444.783137: $GPZDA,165405.00,14,12,2017,00,00*67
2017-12-14 11:54:04 1513270444.783309: $GPGGA,165405,3946.9603,N,08404.9378,W,1,06,1.80,359.62,M,-33.324,M,,*76
2017-12-14 11:54:04 1513270444.783376: $GPRMC,165405,A,3946.9603,N,08404.9378,W,0.2422,93.795,141217,,*02
2017-12-14 11:54:04 1513270444.783437: $GPGSA,A,3,20,24,10,15,21,27,,,,,,,6.6,1.8,6.2*38
2017-12-14 11:54:05 1513270445.336483: $GPZDA,165406.00,14,12,2017,00,00*64
2017-12-14 11:54:05 1513270445.336666: $GPGGA,165406,3946.9603,N,08404.9378,W,1,06,1.80,359.62,M,-33.324,M,,*75
2017-12-14 11:54:05 1513270445.336735: $GPRMC,165406,A,3946.9603,N,08404.9378,W,0.7267,93.795,141217,,*03
2017-12-14 11:54:05 1513270445.336796: $GPGSA,A,3,20,24,10,15,21,27,,,,,,,6.6,1.8,6.2*38
