2017-11-16 17:18:27 1510870707.113171: {"class":"VERSION","release":"3.17","rev":"3.17","proto_major":3,"proto_minor":12}
2017-11-16 17:18:27 1510870707.113599: {"class":"DEVICES","devices":[{"class":"DEVICE","path":"/dev/ttyUSB0","driver":"SiRF","subtype":"9\u0006GSD4e_4.1.2-P1_RPATCH.05-F-GPS-4R-1510281 11/03/2015 307","activated":"2017-11-16T22:18:26.541Z","flags":1,"native":1,"bps":4800,"parity":"N","stopbits":1,"cycle":1.00}]}
2017-11-16 17:18:27 1510870707.113716: {"class":"WATCH","enable":true,"json":false,"nmea":true,"raw":0,"scaled":false,"timing":false,"split24":false,"pps":false}
2017-11-16 17:18:27 1510870707.737052: $GPGSV,3,1,12,01,20,306,39,10,54,145,48,22,14,312,40,12,24,055,49*71
2017-11-16 17:18:27 1510870707.737216: $GPGSV,3,2,12,14,63,316,47,18,24,142,41,24,02,048,00,11,10,288,38*71
2017-11-16 17:18:27 1510870707.737277: $GPGSV,3,3,12,25,38,097,47,31,49,220,50,32,70,010,49,138,38,213,44*4A
2017-11-16 17:18:27 1510870707.850640: $GPZDA,221826.00,16,11,2017,00,00*68
2017-11-16 17:18:27 1510870707.850798: $GPGGA,221826,3946.9571,N,08404.9825,W,2,11,0.80,310.64,M,-33.324,M,,*72
2017-11-16 17:18:27 1510870707.850859: $GPRMC,221826,A,3946.9571,N,08404.9825,W,0.0000,0.000,161117,,*3F
2017-11-16 17:18:27 1510870707.850916: $GPGSA,A,3,1,10,22,12,14,18,11,25,31,32,138,,1.6,0.8,1.3*3E
2017-11-16 17:18:28 1510870708.420212: $GPZDA,221827.00,16,11,2017,00,00*69
2017-11-16 17:18:28 1510870708.420377: $GPGGA,221827,3946.9571,N,08404.9825,W,2,11,0.80,310.64,M,-33.324,M,,*73
2017-11-16 17:18:28 1510870708.420437: $GPRMC,221827,A,3946.9571,N,08404.9825,W,0.0000,0.000,161117,,*3E
2017-11-16 17:18:28 1510870708.420493: $GPGSA,A,3,1,10,22,12,14,18,11,25,31,32,138,,1.6,0.8,1.3*3E
2017-11-16 17:18:29 1510870709.401106: $GPZDA,221828.00,16,11,2017,00,00*66
2017-11-16 17:18:29 1510870709.401268: $GPGGA,221828,3946.9571,N,08404.9825,W,2,11,0.80,310.64,M,-33.324,M,,*7C
2017-11-16 17:18:29 1510870709.401329: $GPRMC,221828,A,3946.9571,N,08404.9825,W,0.0000,0.000,161117,,*31
2017-11-16 17:18:29 1510870709.401384: $GPGSA,A,3,1,10,22,12,14,18,11,25,31,32,138,,1.6,0.8,1.3*3E
2017-11-16 17:18:30 1510870710.756661: $GPGSV,3,1,12,01,20,306,39,10,54,145,48,22,14,312,39,12,24,055,49*7F
2017-11-16 17:18:30 1510870710.756826: $GPGSV,3,2,12,14,63,316,47,18,24,142,41,24,02,048,00,11,10,288,40*7E
2017-11-16 17:18:30 1510870710.756886: $GPGSV,3,3,12,25,38,097,47,31,49,220,50,32,70,010,49,138,38,213,44*4A
2017-11-16 17:18:30 1510870710.870210: $GPZDA,221829.00,16,11,2017,00,00*67
2017-11-16 17:18:30 1510870710.870371: $GPGGA,221829,3946.9571,N,08404.9825,W,2,11,0.80,310.64,M,-33.324,M,,*7D
2017-11-16 17:18:30 1510870710.870432: $GPRMC,221829,A,3946.9571,N,08404.9825,W,0.0000,0.000,161117,,*30
2017-11-16 17:18:30 1510870710.870487: $GPGSA,A,3,1,10,22,12,14,18,11,25,31,32,138,,1.6,0.8,1.3*3E
2017-11-16 17:18:31 1510870711.495380: $GPZDA,221830.00,16,11,2017,00,00*6F
2017-11-16 17:18:31 1510870711.495545: $GPGGA,221830,3946.9571,N,08404.9825,W,2,11,0.80,310.64,M,-33.324,M,,*75
2017-11-16 17:18:31 1510870711.495606: $GPRMC,221830,A,3946.9571,N,08404.9825,W,0.0000,0.000,161117,,*38
2017-11-16 17:18:31 1510870711.495661: $GPGSA,A,3,1,10,22,12,14,18,11,25,31,32,138,,1.6,0.8,1.3*3E
2017-11-16 17:18:32 1510870712.419900: $GPZDA,221831.00,16,11,2017,00,00*6E
2017-11-16 17:18:32 1510870712.420064: $GPGGA,221831,3946.9571,N,08404.9825,W,2,11,0.80,310.64,M,-33.324,M,,*74
2017-11-16 17:18:32 1510870712.420125: $GPRMC,221831,A,3946.9571,N,08404.9825,W,0.0000,0.000,161117,,*39
2017-11-16 17:18:32 1510870712.420181: $GPGSA,A,3,1,10,22,12,14,18,11,25,31,32,138,,1.6,0.8,1.3*3E
2017-11-16 17:18:33 1510870713.756940: $GPGSV,3,1,12,01,20,306,39,10,54,145,49,22,14,312,38,12,24,055,49*7F
2017-11-16 17:18:33 1510870713.757112: $GPGSV,3,2,12,14,63,316,47,18,24,142,41,24,02,048,00,11,10,288,40*7E
2017-11-16 17:18:33 1510870713.757171: $GPGSV,3,3,12,25,38,097,47,31,49,220,50,32,70,010,49,138,38,213,43*4D
2017-11-16 17:18:33 1510870713.870261: $GPZDA,221832.00,16,11,2017,00,00*6D
2017-11-16 17:18:33 1510870713.870430: $GPGGA,221832,3946.9571,N,08404.9825,W,2,11,0.80,310.64,M,-33.324,M,,*77
2017-11-16 17:18:33 1510870713.870543: $GPRMC,221832,A,3946.9571,N,08404.9825,W,0.0000,0.000,161117,,*3A
2017-11-16 17:18:33 1510870713.870601: $GPGSA,A,3,1,10,22,12,14,18,11,25,31,32,138,,1.6,0.8,1.3*3E
2017-11-16 17:18:34 1510870714.401133: $GPZDA,221833.00,16,11,2017,00,00*6C
2017-11-16 17:18:34 1510870714.401308: $GPGGA,221833,3946.9571,N,08404.9825,W,2,11,0.80,310.64,M,-33.324,M,,*76
2017-11-16 17:18:34 1510870714.401372: $GPRMC,221833,A,3946.9571,N,08404.9825,W,0.0000,0.000,161117,,*3B
2017-11-16 17:18:34 1510870714.401429: $GPGSA,A,3,1,10,22,12,14,18,11,25,31,32,138,,1.6,0.8,1.3*3E
2017-11-16 17:18:35 1510870715.420737: $GPZDA,221834.00,16,11,2017,00,00*6B
2017-11-16 17:18:35 1510870715.420918: $GPGGA,221834,3946.9571,N,08404.9825,W,2,11,0.80,310.64,M,-33.324,M,,*71
2017-11-16 17:18:35 1510870715.420982: $GPRMC,221834,A,3946.9571,N,08404.9825,W,0.0000,0.000,161117,,*3C
2017-11-16 17:18:35 1510870715.421038: $GPGSA,A,3,1,10,22,12,14,18,11,25,31,32,138,,1.6,0.8,1.3*3E
2017-11-16 17:18:36 1510870716.757314: $GPGSV,3,1,12,01,20,306,39,10,54,145,48,22,14,312,39,12,24,055,49*7F
2017-11-16 17:18:36 1510870716.757488: $GPGSV,3,2,12,14,63,316,47,18,24,142,41,24,02,048,06,11,10,288,40*78
2017-11-16 17:18:36 1510870716.757549: $GPGSV,3,3,12,25,38,097,46,31,49,220,50,32,70,010,49,138,38,213,44*4B
2017-11-16 17:18:36 1510870716.870639: $GPZDA,221835.00,16,11,2017,00,00*6A
2017-11-16 17:18:36 1510870716.870829: $GPGGA,221835,3946.9571,N,08404.9825,W,2,11,0.80,310.64,M,-33.324,M,,*70
2017-11-16 17:18:36 1510870716.870895: $GPRMC,221835,A,3946.9571,N,08404.9825,W,0.0000,0.000,161117,,*3D
2017-11-16 17:18:36 1510870716.870955: $GPGSA,A,3,1,10,22,12,14,18,11,25,31,32,138,,1.6,0.8,1.3*3E
