2017-12-01 13:48:15 1512154095.496968: {"class":"VERSION","release":"3.16","rev":"3.16-4","proto_major":3,"proto_minor":11}
2017-12-01 13:48:15 1512154095.497354: {"class":"DEVICES","devices":[{"class":"DEVICE","path":"/dev/ttyUSB0","driver":"SiRF","subtype":"9\u0006GSD4e_4.1.2-P1_RPATCH.05-F-GPS-4R-1510281 11/03/2015 307","activated":"2017-12-01T18:48:15.209Z","flags":1,"native":1,"bps":4800,"parity":"N","stopbits":1,"cycle":1.00}]}
2017-12-01 13:48:15 1512154095.497472: {"class":"WATCH","enable":true,"json":false,"nmea":true,"raw":0,"scaled":false,"timing":false,"split24":false,"pps":false}
2017-12-01 13:48:15 1512154095.658601: $GPGSV,3,1,11,10,55,315,48,14,17,241,38,15,23,058,46,18,77,036,43*7F
2017-12-01 13:48:15 1512154095.658809: $GPGSV,3,2,11,20,21,108,45,21,45,181,44,24,53,081,47,27,14,273,38*7C
2017-12-01 13:48:15 1512154095.658876: $GPGSV,3,3,11,32,34,250,43,08,08,307,23,138,38,213,46*79
2017-12-01 13:48:15 1512154095.772491: $GPZDA,184816.00,01,12,2017,00,00*62
2017-12-01 13:48:15 1512154095.772700: $GPGGA,184816,3946.9574,N,08404.9852,W,2,11,0.80,297.48,M,-33.324,M,,*78
2017-12-01 13:48:15 1512154095.772768: $GPRMC,184816,A,3946.9574,N,08404.9852,W,0.0000,0.000,011217,,*30
2017-12-01 13:48:15 1512154095.772829: $GPGSA,A,3,10,14,15,18,20,21,24,27,32,8,138,,2.0,0.8,1.5*34
2017-12-01 13:48:16 1512154096.323269: $GPZDA,184817.00,01,12,2017,00,00*63
2017-12-01 13:48:16 1512154096.323440: $GPGGA,184817,3946.9574,N,08404.9852,W,2,11,0.80,297.48,M,-33.324,M,,*79
2017-12-01 13:48:16 1512154096.323508: $GPRMC,184817,A,3946.9574,N,08404.9852,W,0.0000,0.000,011217,,*31
2017-12-01 13:48:16 1512154096.323591: $GPGSA,A,3,10,14,15,18,20,21,24,27,32,8,138,,2.0,0.8,1.5*34
2017-12-01 13:48:17 1512154097.322193: $GPZDA,184818.00,01,12,2017,00,00*6C
2017-12-01 13:48:17 1512154097.322387: $GPGGA,184818,3946.9574,N,08404.9852,W,2,11,0.80,297.48,M,-33.324,M,,*76
2017-12-01 13:48:17 1512154097.322469: $GPRMC,184818,A,3946.9574,N,08404.9852,W,0.0000,0.000,011217,,*3E
2017-12-01 13:48:17 1512154097.322532: $GPGSA,A,3,10,14,15,18,20,21,24,27,32,8,138,,2.0,0.8,1.5*34
2017-12-01 13:48:18 1512154098.657733: $GPGSV,3,1,11,10,55,315,48,14,17,241,38,15,23,058,46,18,77,036,43*7F
2017-12-01 13:48:18 1512154098.657903: $GPGSV,3,2,11,20,21,108,45,21,45,181,44,24,53,081,47,27,14,273,38*7C
2017-12-01 13:48:18 1512154098.657972: $GPGSV,3,3,11,32,34,250,42,08,08,307,22,138,38,213,46*79
2017-12-01 13:48:18 1512154098.771142: $GPZDA,184819.00,01,12,2017,00,00*6D
2017-12-01 13:48:18 1512154098.771311: $GPGGA,184819,3946.9574,N,08404.9852,W,2,11,0.80,297.48,M,-33.324,M,,*77
2017-12-01 13:48:18 1512154098.771439: $GPRMC,184819,A,3946.9574,N,08404.9852,W,0.0000,0.000,011217,,*3F
2017-12-01 13:48:18 1512154098.771506: $GPGSA,A,3,10,14,15,18,20,21,24,27,32,8,138,,2.0,0.8,1.5*34
2017-12-01 13:48:19 1512154099.324500: $GPZDA,184820.00,01,12,2017,00,00*67
2017-12-01 13:48:19 1512154099.324684: $GPGGA,184820,3946.9572,N,08404.9851,W,2,11,0.80,294.67,M,-33.324,M,,*76
2017-12-01 13:48:19 1512154099.324757: $GPRMC,184820,A,3946.9572,N,08404.9851,W,0.2422,93.794,011217,,*06
2017-12-01 13:48:19 1512154099.324840: $GPGSA,A,3,10,14,15,18,20,21,24,27,32,8,138,,2.0,0.8,1.5*34
2017-12-01 13:48:20 1512154100.320415: $GPZDA,184821.00,01,12,2017,00,00*66
2017-12-01 13:48:20 1512154100.320609: $GPGGA,184821,3946.9572,N,08404.9851,W,2,11,0.80,294.67,M,-33.324,M,,*77
2017-12-01 13:48:20 1512154100.320695: $GPRMC,184821,A,3946.9572,N,08404.9851,W,0.0000,0.000,011217,,*31
2017-12-01 13:48:20 1512154100.320761: $GPGSA,A,3,10,14,15,18,20,21,24,27,32,8,138,,2.0,0.8,1.5*34
2017-12-01 13:48:21 1512154101.657331: $GPGSV,3,1,11,10,55,315,48,14,17,241,38,15,23,058,47,18,77,036,43*7E
2017-12-01 13:48:21 1512154101.657534: $GPGSV,3,2,11,20,21,108,45,21,45,181,44,24,53,081,47,27,14,273,38*7C
2017-12-01 13:48:21 1512154101.657623: $GPGSV,3,3,11,32,34,250,42,08,08,307,22,138,38,213,46*79
2017-12-01 13:48:21 1512154101.771177: $GPZDA,184822.00,01,12,2017,00,00*65
2017-12-01 13:48:21 1512154101.771341: $GPGGA,184822,3946.9572,N,08404.9851,W,2,11,0.80,294.67,M,-33.324,M,,*74
2017-12-01 13:48:21 1512154101.771796: $GPRMC,184822,A,3946.9572,N,08404.9851,W,0.0000,0.000,011217,,*32
2017-12-01 13:48:21 1512154101.772136: $GPGSA,A,3,10,14,15,18,20,21,24,27,32,8,138,,2.0,0.8,1.5*34
2017-12-01 13:48:22 1512154102.396147: $GPZDA,184823.00,01,12,2017,00,00*64
2017-12-01 13:48:22 1512154102.396324: $GPGGA,184823,3946.9572,N,08404.9851,W,2,11,0.80,294.67,M,-33.324,M,,*75
2017-12-01 13:48:22 1512154102.396391: $GPRMC,184823,A,3946.9572,N,08404.9851,W,0.0000,0.000,011217,,*33
2017-12-01 13:48:22 1512154102.396451: $GPGSA,A,3,10,14,15,18,20,21,24,27,32,8,138,,2.0,0.8,1.5*34
2017-12-01 13:48:23 1512154103.323309: $GPZDA,184824.00,01,12,2017,00,00*63
2017-12-01 13:48:23 1512154103.323616: $GPGGA,184824,3946.9572,N,08404.9851,W,2,11,0.80,294.67,M,-33.324,M,,*72
2017-12-01 13:48:23 1512154103.323766: $GPRMC,184824,A,3946.9572,N,08404.9851,W,0.0000,0.000,011217,,*34
2017-12-01 13:48:23 1512154103.323871: $GPGSA,A,3,10,14,15,18,20,21,24,27,32,8,138,,2.0,0.8,1.5*34
2017-12-01 13:48:24 1512154104.658950: $GPGSV,3,1,11,10,55,315,48,14,17,241,38,15,23,058,46,18,77,036,42*7E
2017-12-01 13:48:24 1512154104.659133: $GPGSV,3,2,11,20,21,108,45,21,45,181,44,24,53,081,47,27,14,273,40*73
2017-12-01 13:48:24 1512154104.659205: $GPGSV,3,3,11,32,34,250,42,08,08,307,26,138,38,213,47*7C
2017-12-01 13:48:24 1512154104.772427: $GPZDA,184825.00,01,12,2017,00,00*62
2017-12-01 13:48:24 1512154104.772614: $GPGGA,184825,3946.9572,N,08404.9851,W,2,11,0.80,294.67,M,-33.324,M,,*73
2017-12-01 13:48:24 1512154104.772701: $GPRMC,184825,A,3946.9572,N,08404.9851,W,0.0000,0.000,011217,,*35
2017-12-01 13:48:24 1512154104.772766: $GPGSA,A,3,10,14,15,18,20,21,24,27,32,8,138,,2.0,0.8,1.5*34
2017-12-01 13:48:25 1512154105.323301: $GPZDA,184826.00,01,12,2017,00,00*61
2017-12-01 13:48:25 1512154105.323481: $GPGGA,184826,3946.9572,N,08404.9851,W,2,11,0.80,294.67,M,-33.324,M,,*70
2017-12-01 13:48:25 1512154105.323574: $GPRMC,184826,A,3946.9572,N,08404.9851,W,0.0000,0.000,011217,,*36
2017-12-01 13:48:25 1512154105.323656: $GPGSA,A,3,10,14,15,18,20,21,24,27,32,8,138,,2.0,0.8,1.5*34
