2017-12-01 11:41:38 1512146498.596957: {"class":"VERSION","release":"3.16","rev":"3.16-4","proto_major":3,"proto_minor":11}
2017-12-01 11:41:38 1512146498.597426: {"class":"DEVICES","devices":[{"class":"DEVICE","path":"/dev/ttyUSB0","driver":"SiRF","subtype":"9\u0006GSD4e_4.1.2-P1_RPATCH.05-F-GPS-4R-1510281 11/03/2015 307","activated":"2017-12-01T16:41:38.548Z","flags":1,"native":1,"bps":4800,"parity":"N","stopbits":1,"cycle":1.00}]}
2017-12-01 11:41:38 1512146498.597558: {"class":"WATCH","enable":true,"json":false,"nmea":true,"raw":0,"scaled":false,"timing":false,"split24":false,"pps":false}
2017-12-01 11:41:39 1512146499.389739: $GPZDA,164140.00,01,12,2017,00,00*66
2017-12-01 11:41:39 1512146499.389898: $GPGGA,164140,3946.9597,N,08404.9847,W,2,11,0.80,290.73,M,-33.324,M,,*7A
2017-12-01 11:41:39 1512146499.389963: $GPRMC,164140,A,3946.9597,N,08404.9847,W,0.0000,0.000,011217,,*3D
2017-12-01 11:41:39 1512146499.390024: $GPGSA,A,3,5,10,13,15,18,20,21,24,27,29,138,,2.0,0.8,1.5*34
2017-12-01 11:41:40 1512146500.742955: $GPGSV,3,1,12,05,14,076,22,10,12,271,39,13,44,051,46,15,76,076,47*76
2017-12-01 11:41:40 1512146500.743134: $GPGSV,3,2,12,18,43,285,45,20,63,048,41,21,66,306,46,24,19,150,40*7F
2017-12-01 11:41:40 1512146500.743199: $GPGSV,3,3,12,27,08,325,46,29,25,195,42,04,13,129,00,138,38,213,45*4A
2017-12-01 11:41:40 1512146500.856410: $GPZDA,164141.00,01,12,2017,00,00*67
2017-12-01 11:41:40 1512146500.856583: $GPGGA,164141,3946.9597,N,08404.9847,W,2,11,0.80,290.73,M,-33.324,M,,*7B
2017-12-01 11:41:40 1512146500.856651: $GPRMC,164141,A,3946.9597,N,08404.9847,W,0.0000,0.000,011217,,*3C
2017-12-01 11:41:40 1512146500.856711: $GPGSA,A,3,5,10,13,15,18,20,21,24,27,29,138,,2.0,0.8,1.5*34
2017-12-01 11:41:41 1512146501.482154: $GPZDA,164142.00,01,12,2017,00,00*64
2017-12-01 11:41:41 1512146501.482360: $GPGGA,164142,3946.9597,N,08404.9847,W,2,11,0.80,290.73,M,-33.324,M,,*78
2017-12-01 11:41:41 1512146501.482429: $GPRMC,164142,A,3946.9597,N,08404.9847,W,0.0000,0.000,011217,,*3F
2017-12-01 11:41:41 1512146501.482491: $GPGSA,A,3,5,10,13,15,18,20,21,24,27,29,138,,2.0,0.8,1.5*34
2017-12-01 11:41:42 1512146502.386840: $GPZDA,164143.00,01,12,2017,00,00*65
2017-12-01 11:41:42 1512146502.387007: $GPGGA,164143,3946.9597,N,08404.9847,W,2,11,0.80,290.73,M,-33.324,M,,*79
2017-12-01 11:41:42 1512146502.387072: $GPRMC,164143,A,3946.9597,N,08404.9847,W,0.0000,0.000,011217,,*3E
2017-12-01 11:41:42 1512146502.387133: $GPGSA,A,3,5,10,13,15,18,20,21,24,27,29,138,,2.0,0.8,1.5*34
2017-12-01 11:41:43 1512146503.743740: $GPGSV,3,1,12,05,14,076,22,10,12,271,40,13,44,051,46,15,76,076,47*78
2017-12-01 11:41:43 1512146503.743916: $GPGSV,3,2,12,18,43,285,45,20,63,048,41,21,66,306,46,24,19,150,40*7F
2017-12-01 11:41:43 1512146503.743996: $GPGSV,3,3,12,27,08,325,46,29,25,195,41,04,13,129,00,138,38,213,46*4A
2017-12-01 11:41:43 1512146503.857054: $GPZDA,164144.00,01,12,2017,00,00*62
2017-12-01 11:41:43 1512146503.857234: $GPGGA,164144,3946.9597,N,08404.9847,W,2,11,0.80,290.73,M,-33.324,M,,*7E
2017-12-01 11:41:43 1512146503.857303: $GPRMC,164144,A,3946.9597,N,08404.9847,W,0.0000,0.000,011217,,*39
2017-12-01 11:41:43 1512146503.857381: $GPGSA,A,3,5,10,13,15,18,20,21,24,27,29,138,,2.0,0.8,1.5*34
2017-12-01 11:41:44 1512146504.391403: $GPZDA,164145.00,01,12,2017,00,00*63
2017-12-01 11:41:44 1512146504.391571: $GPGGA,164145,3946.9597,N,08404.9847,W,2,11,0.80,290.73,M,-33.324,M,,*7F
2017-12-01 11:41:44 1512146504.391638: $GPRMC,164145,A,3946.9597,N,08404.9847,W,0.0000,0.000,011217,,*38
2017-12-01 11:41:44 1512146504.391698: $GPGSA,A,3,5,10,13,15,18,20,21,24,27,29,138,,2.0,0.8,1.5*34
2017-12-01 11:41:45 1512146505.391327: $GPZDA,164146.00,01,12,2017,00,00*60
2017-12-01 11:41:45 1512146505.391594: $GPGGA,164146,3946.9597,N,08404.9847,W,2,11,0.80,290.73,M,-33.324,M,,*7C
2017-12-01 11:41:45 1512146505.391670: $GPRMC,164146,A,3946.9597,N,08404.9847,W,0.0000,0.000,011217,,*3B
2017-12-01 11:41:45 1512146505.391736: $GPGSA,A,3,5,10,13,15,18,20,21,24,27,29,138,,2.0,0.8,1.5*34
2017-12-01 11:41:46 1512146506.742401: $GPGSV,3,1,12,05,14,076,28,10,12,271,40,13,44,051,46,15,76,076,47*72
2017-12-01 11:41:46 1512146506.742629: $GPGSV,3,2,12,18,43,285,45,20,63,048,41,21,66,306,45,24,19,150,40*7C
2017-12-01 11:41:46 1512146506.742698: $GPGSV,3,3,12,27,08,325,46,29,25,195,41,04,13,129,00,138,38,213,46*4A
2017-12-01 11:41:46 1512146506.855788: $GPZDA,164147.00,01,12,2017,00,00*61
2017-12-01 11:41:46 1512146506.855955: $GPGGA,164147,3946.9597,N,08404.9847,W,2,11,0.80,290.73,M,-33.324,M,,*7D
2017-12-01 11:41:46 1512146506.856023: $GPRMC,164147,A,3946.9597,N,08404.9847,W,0.0000,0.000,011217,,*3A
2017-12-01 11:41:46 1512146506.856084: $GPGSA,A,3,5,10,13,15,18,20,21,24,27,29,138,,2.0,0.8,1.5*34
2017-12-01 11:41:47 1512146507.392248: $GPZDA,164148.00,01,12,2017,00,00*6E
2017-12-01 11:41:47 1512146507.392455: $GPGGA,164148,3946.9597,N,08404.9847,W,2,11,0.80,290.73,M,-33.324,M,,*72
2017-12-01 11:41:47 1512146507.392525: $GPRMC,164148,A,3946.9597,N,08404.9847,W,0.0000,0.000,011217,,*35
2017-12-01 11:41:47 1512146507.392589: $GPGSA,A,3,5,10,13,15,18,20,21,24,27,29,138,,2.0,0.8,1.5*34
2017-12-01 11:41:48 1512146508.408956: $GPZDA,164149.00,01,12,2017,00,00*6F
2017-12-01 11:41:48 1512146508.409134: $GPGGA,164149,3946.9594,N,08404.9847,W,2,11,0.80,291.49,M,-33.324,M,,*78
2017-12-01 11:41:48 1512146508.409230: $GPRMC,164149,A,3946.9594,N,08404.9847,W,0.0000,0.000,011217,,*37
2017-12-01 11:41:48 1512146508.409312: $GPGSA,A,3,5,10,13,15,18,20,21,24,27,29,138,,2.0,0.8,1.5*34
