2018-01-12 05:05:14 1515751514.573392: {"class":"VERSION","release":"3.16","rev":"3.16-4","proto_major":3,"proto_minor":11}
2018-01-12 05:05:14 1515751514.573922: {"class":"DEVICES","devices":[{"class":"DEVICE","path":"/dev/ttyUSB0","driver":"SiRF","subtype":"9\u0006GSD4e_4.1.2-P1_RPATCH.05-F-GPS-4R-1510281 11/03/2015 307","activated":"2018-01-12T10:05:14.389Z","flags":1,"native":1,"bps":4800,"parity":"N","stopbits":1,"cycle":1.00}]}
2018-01-12 05:05:14 1515751514.574036: {"class":"WATCH","enable":true,"json":false,"nmea":true,"raw":0,"scaled":false,"timing":false,"split24":false,"pps":false}
2018-01-12 05:05:14 1515751514.993160: $GPZDA,100515.68,12,01,2018,00,00*61
2018-01-12 05:05:14 1515751514.993331: $GPGGA,100515,3946.9657,N,08404.9767,W,1,10,2.00,296.22,M,-33.324,M,,*74
2018-01-12 05:05:14 1515751514.993398: $GPRMC,100515,A,3946.9657,N,08404.9767,W,0.5467,339.486,120118,,*35
2018-01-12 05:05:14 1515751514.993459: $GPGSA,A,3,2,5,12,20,25,29,9,13,6,138,,,2.4,2.0,2.1*08
2018-01-12 05:05:16 1515751516.074686: $GPZDA,100516.36,12,01,2018,00,00*69
2018-01-12 05:05:16 1515751516.074857: $GPGGA,100516,3946.9657,N,08404.9767,W,1,10,2.00,296.22,M,-33.324,M,,*77
2018-01-12 05:05:16 1515751516.074925: $GPRMC,100516,A,3946.9657,N,08404.9767,W,0.0000,0.000,120118,,*35
2018-01-12 05:05:16 1515751516.074986: $GPGSA,A,3,2,5,12,20,25,29,9,13,6,138,,,2.4,2.0,2.1*08
2018-01-12 05:05:16 1515751516.075045: $GPGBS,100516,11.98,M,14.47,M,47.88,M*09
2018-01-12 05:05:17 1515751517.217304: $GPGSV,3,1,12,02,65,037,45,05,72,204,49,12,38,226,49,20,17,225,41*70
2018-01-12 05:05:17 1515751517.218813: $GPGSV,3,2,12,25,36,277,41,29,28,312,47,06,32,070,06,09,17,048,08*71
2018-01-12 05:05:17 1515751517.218891: $GPGSV,3,3,12,13,05,163,08,19,16,129,00,04,67,321,00,138,38,213,00*40
2018-01-12 05:05:17 1515751517.330970: $GPZDA,100517.00,12,01,2018,00,00*6D
2018-01-12 05:05:17 1515751517.331120: $GPGGA,100517,3946.9657,N,08404.9767,W,1,06,2.00,296.22,M,-33.324,M,,*71
2018-01-12 05:05:17 1515751517.331186: $GPRMC,100517,A,3946.9657,N,08404.9767,W,0.2422,273.794,120118,,*3E
2018-01-12 05:05:17 1515751517.331247: $GPGSA,A,3,2,5,12,20,25,29,,,,,,,2.4,2.0,2.1*3F
2018-01-12 05:05:17 1515751517.783128: $GPZDA,100518.00,12,01,2018,00,00*62
2018-01-12 05:05:17 1515751517.783289: $GPGGA,100518,3946.9657,N,08404.9767,W,1,06,0.80,296.22,M,-33.324,M,,*74
2018-01-12 05:05:17 1515751517.783355: $GPRMC,100518,A,3946.9657,N,08404.9767,W,0.2710,280.223,120118,,*36
2018-01-12 05:05:17 1515751517.783416: $GPGSA,A,3,2,5,12,20,25,29,,,,,,,2.4,0.8,2.1*35
2018-01-12 05:05:18 1515751518.391422: $GPZDA,100519.00,12,01,2018,00,00*63
2018-01-12 05:05:18 1515751518.391573: $GPGGA,100519,3946.9657,N,08404.9767,W,1,06,0.80,296.22,M,-33.324,M,,*75
2018-01-12 05:05:18 1515751518.391660: $GPRMC,100519,A,3946.9657,N,08404.9767,W,0.0000,0.000,120118,,*3A
2018-01-12 05:05:18 1515751518.391722: $GPGSA,A,3,2,5,12,20,25,29,,,,,,,2.4,0.8,2.1*35
2018-01-12 05:05:19 1515751519.722540: $GPGSV,3,1,12,02,65,037,45,05,72,204,50,12,38,226,50,20,17,225,41*70
2018-01-12 05:05:19 1515751519.722750: $GPGSV,3,2,12,25,36,277,42,29,28,312,47,06,32,070,19,09,17,048,24*72
2018-01-12 05:05:19 1515751519.722818: $GPGSV,3,3,12,13,05,163,28,19,16,129,00,04,67,321,00,138,38,213,48*4E
2018-01-12 05:05:19 1515751519.835995: $GPZDA,100520.00,12,01,2018,00,00*69
2018-01-12 05:05:19 1515751519.836138: $GPGGA,100520,3946.9653,N,08404.9761,W,1,10,0.80,297.06,M,-33.324,M,,*7D
2018-01-12 05:05:19 1515751519.836204: $GPRMC,100520,A,3946.9653,N,08404.9761,W,0.0000,0.000,120118,,*32
2018-01-12 05:05:19 1515751519.836265: $GPGSA,A,3,2,5,12,20,25,29,6,9,13,138,,,2.4,0.8,2.1*02
2018-01-12 05:05:20 1515751520.389318: $GPZDA,100521.00,12,01,2018,00,00*68
2018-01-12 05:05:20 1515751520.389469: $GPGGA,100521,3946.9653,N,08404.9761,W,1,10,0.80,297.06,M,-33.324,M,,*7C
2018-01-12 05:05:20 1515751520.389535: $GPRMC,100521,A,3946.9653,N,08404.9761,W,0.0000,0.000,120118,,*33
2018-01-12 05:05:20 1515751520.389614: $GPGSA,A,3,2,5,12,20,25,29,6,9,13,138,,,2.4,0.8,2.1*02
