2017-12-01 16:41:23 1512164483.507045: {"class":"VERSION","release":"3.16","rev":"3.16-4","proto_major":3,"proto_minor":11}
2017-12-01 16:41:23 1512164483.507582: {"class":"DEVICES","devices":[{"class":"DEVICE","path":"/dev/ttyUSB0","driver":"SiRF","subtype":"9\u0006GSD4e_4.1.2-P1_RPATCH.05-F-GPS-4R-1510281 11/03/2015 307","activated":"2017-12-01T21:41:23.143Z","flags":1,"native":1,"bps":4800,"parity":"N","stopbits":1,"cycle":1.00}]}
2017-12-01 16:41:23 1512164483.507707: {"class":"WATCH","enable":true,"json":false,"nmea":true,"raw":0,"scaled":false,"timing":false,"split24":false,"pps":false}
2017-12-01 16:41:24 1512164484.114908: $GPZDA,214124.77,01,12,2017,00,00*60
2017-12-01 16:41:24 1512164484.115079: $GPGGA,214124,3946.9614,N,08404.9735,W,1,12,1.80,307.27,M,-33.324,M,,*71
2017-12-01 16:41:24 1512164484.115146: $GPRMC,214124,A,3946.9614,N,08404.9735,W,1.3921,194.216,011217,,*38
2017-12-01 16:41:24 1512164484.115207: $GPGSA,A,3,1,10,11,14,22,31,32,12,25,26,18,138,2.0,1.8,1.5*38
2017-12-01 16:41:24 1512164484.115266: $GPGBS,214124,10.70,M,15.43,M,35.28,M*07
2017-12-01 16:41:25 1512164485.220440: $GPZDA,214125.45,01,12,2017,00,00*60
2017-12-01 16:41:25 1512164485.220609: $GPGGA,214125,3946.9617,N,08404.9734,W,1,12,1.80,306.51,M,-33.324,M,,*72
2017-12-01 16:41:25 1512164485.220676: $GPRMC,214125,A,3946.9617,N,08404.9734,W,0.8334,222.077,011217,,*34
2017-12-01 16:41:25 1512164485.220757: $GPGSA,A,3,1,10,11,14,22,31,32,12,25,26,18,138,2.0,1.8,1.5*38
2017-12-01 16:41:26 1512164486.385249: $GPGSV,3,1,12,01,22,295,44,10,42,150,44,14,68,340,45,22,23,312,42*7E
2017-12-01 16:41:26 1512164486.385439: $GPGSV,3,2,12,31,61,231,50,32,66,042,49,11,07,277,16,12,20,045,04*77
2017-12-01 16:41:26 1512164486.385507: $GPGSV,3,3,12,25,40,084,06,26,07,181,06,18,13,145,00,138,38,213,00*44
2017-12-01 16:41:26 1512164486.498600: $GPZDA,214126.00,01,12,2017,00,00*62
2017-12-01 16:41:26 1512164486.498772: $GPGGA,214126,3946.9617,N,08404.9734,W,1,06,1.80,306.51,M,-33.324,M,,*74
2017-12-01 16:41:26 1512164486.498857: $GPRMC,214126,A,3946.9617,N,08404.9734,W,0.4207,219.347,011217,,*32
2017-12-01 16:41:26 1512164486.498920: $GPGSA,A,3,1,10,14,22,31,32,,,,,,,2.0,1.8,1.5*0B
2017-12-01 16:41:26 1512164486.949850: $GPZDA,214127.00,01,12,2017,00,00*63
2017-12-01 16:41:26 1512164486.950019: $GPGGA,214127,3946.9621,N,08404.9733,W,1,06,0.80,305.74,M,-33.324,M,,*72
2017-12-01 16:41:26 1512164486.950085: $GPRMC,214127,A,3946.9621,N,08404.9733,W,0.1867,180.000,011217,,*3B
2017-12-01 16:41:26 1512164486.950147: $GPGSA,A,3,1,10,14,22,31,32,,,,,,,2.0,0.8,1.5*0A
2017-12-01 16:41:27 1512164487.413230: $GPZDA,214128.00,01,12,2017,00,00*6C
2017-12-01 16:41:27 1512164487.413400: $GPGGA,214128,3946.9621,N,08404.9733,W,1,06,0.80,305.74,M,-33.324,M,,*7D
2017-12-01 16:41:27 1512164487.413484: $GPRMC,214128,A,3946.9621,N,08404.9733,W,0.0000,0.000,011217,,*35
2017-12-01 16:41:27 1512164487.413545: $GPGSA,A,3,1,10,14,22,31,32,,,,,,,2.0,0.8,1.5*0A
2017-12-01 16:41:28 1512164488.748228: $GPGSV,3,1,12,01,22,295,44,10,42,150,43,14,68,340,44,22,23,312,41*7B
2017-12-01 16:41:28 1512164488.748443: $GPGSV,3,2,12,31,61,231,50,32,66,042,49,11,07,277,32,12,20,045,20*77
2017-12-01 16:41:28 1512164488.748511: $GPGSV,3,3,12,25,40,084,28,26,07,181,29,18,13,145,00,138,38,213,41*40
2017-12-01 16:41:28 1512164488.861771: $GPZDA,214129.00,01,12,2017,00,00*6D
2017-12-01 16:41:28 1512164488.861944: $GPGGA,214129,3946.9620,N,08404.9733,W,1,11,0.80,304.34,M,-33.324,M,,*7E
2017-12-01 16:41:28 1512164488.862010: $GPRMC,214129,A,3946.9620,N,08404.9733,W,0.0000,0.000,011217,,*35
2017-12-01 16:41:28 1512164488.862071: $GPGSA,A,3,1,10,14,22,31,32,11,12,25,26,138,,2.0,0.8,1.5*30
2017-12-01 16:41:29 1512164489.411457: $GPZDA,214130.00,01,12,2017,00,00*65
2017-12-01 16:41:29 1512164489.411628: $GPGGA,214130,3946.9624,N,08404.9732,W,1,11,1.00,303.58,M,-33.324,M,,*77
2017-12-01 16:41:29 1512164489.411694: $GPRMC,214130,A,3946.9624,N,08404.9732,W,0.0000,0.000,011217,,*38
2017-12-01 16:41:29 1512164489.411754: $GPGSA,A,3,1,10,14,22,31,32,11,12,25,26,138,,2.0,1.0,1.5*39
2017-12-01 16:41:30 1512164490.413300: $GPZDA,214131.00,01,12,2017,00,00*64
2017-12-01 16:41:30 1512164490.413534: $GPGGA,214131,3946.9624,N,08404.9732,W,1,11,1.00,303.58,M,-33.324,M,,*76
2017-12-01 16:41:30 1512164490.413604: $GPRMC,214131,A,3946.9624,N,08404.9732,W,0.0000,0.000,011217,,*39
2017-12-01 16:41:30 1512164490.413667: $GPGSA,A,3,1,10,14,22,31,32,11,12,25,26,138,,2.0,1.0,1.5*39
2017-12-01 16:41:30 1512164490.413725: $GPGBS,214131,10.70,M,15.43,M,35.28,M*03
2017-12-01 16:41:31 1512164491.747682: $GPGSV,3,1,12,01,22,295,44,10,42,150,43,14,68,340,44,22,23,312,40*7A
2017-12-01 16:41:31 1512164491.747867: $GPGSV,3,2,12,31,61,231,49,32,66,042,49,11,07,277,32,12,20,045,20*7F
2017-12-01 16:41:31 1512164491.747935: $GPGSV,3,3,12,25,40,084,27,26,07,181,29,18,13,145,00,138,38,213,40*4E
2017-12-01 16:41:31 1512164491.861452: $GPZDA,214132.00,01,12,2017,00,00*67
2017-12-01 16:41:31 1512164491.861623: $GPGGA,214132,3946.9627,N,08404.9731,W,1,11,1.00,302.81,M,-33.324,M,,*70
2017-12-01 16:41:31 1512164491.861692: $GPRMC,214132,A,3946.9627,N,08404.9731,W,0.0000,0.000,011217,,*3A
2017-12-01 16:41:31 1512164491.861754: $GPGSA,A,3,1,10,14,22,31,32,11,12,25,26,138,,2.0,1.0,1.5*39
2017-12-01 16:41:32 1512164492.410987: $GPZDA,214133.00,01,12,2017,00,00*66
2017-12-01 16:41:32 1512164492.411148: $GPGGA,214133,3946.9627,N,08404.9731,W,1,11,1.00,302.81,M,-33.324,M,,*71
2017-12-01 16:41:32 1512164492.411215: $GPRMC,214133,A,3946.9627,N,08404.9731,W,0.0000,0.000,011217,,*3B
2017-12-01 16:41:32 1512164492.411278: $GPGSA,A,3,1,10,14,22,31,32,11,12,25,26,138,,2.0,1.0,1.5*39
2017-12-01 16:41:33 1512164493.410101: $GPZDA,214134.00,01,12,2017,00,00*61
2017-12-01 16:41:33 1512164493.410277: $GPGGA,214134,3946.9630,N,08404.9730,W,1,11,1.00,302.05,M,-33.324,M,,*7D
2017-12-01 16:41:33 1512164493.410346: $GPRMC,214134,A,3946.9630,N,08404.9730,W,0.0000,0.000,011217,,*3B
2017-12-01 16:41:33 1512164493.410413: $GPGSA,A,3,1,10,14,22,31,32,11,12,25,26,138,,2.0,1.0,1.5*39
2017-12-01 16:41:34 1512164494.745666: $GPGSV,3,1,12,01,22,295,42,10,42,150,42,14,68,340,44,22,23,312,41*7C
2017-12-01 16:41:34 1512164494.914681: $GPGSV,3,2,12,31,61,231,48,32,66,042,48,11,07,277,34,12,20,045,21*78
2017-12-01 16:41:34 1512164494.914832: $GPGSV,3,3,12,25,40,084,25,26,07,181,30,18,13,145,00,138,38,213,38*4B
2017-12-01 16:41:34 1512164494.914931: $GPZDA,214135.00,01,12,2017,00,00*60
2017-12-01 16:41:34 1512164494.914988: $GPGGA,214135,3946.9630,N,08404.9730,W,1,11,1.00,302.05,M,-33.324,M,,*7C
2017-12-01 16:41:34 1512164494.915051: $GPRMC,214135,A,3946.9630,N,08404.9730,W,0.0000,0.000,011217,,*3A
2017-12-01 16:41:34 1512164494.915111: $GPGSA,A,3,1,10,14,22,31,32,11,12,25,26,138,,2.0,1.0,1.5*39
2017-12-01 16:41:35 1512164495.409903: $GPZDA,214136.00,01,12,2017,00,00*63
2017-12-01 16:41:35 1512164495.410073: $GPGGA,214136,3946.9630,N,08404.9730,W,1,11,1.00,302.05,M,-33.324,M,,*7F
2017-12-01 16:41:35 1512164495.410141: $GPRMC,214136,A,3946.9630,N,08404.9730,W,0.0000,0.000,011217,,*39
2017-12-01 16:41:35 1512164495.410203: $GPGSA,A,3,1,10,14,22,31,32,11,12,25,26,138,,2.0,1.0,1.5*39
2017-12-01 16:41:36 1512164496.409850: $GPZDA,214137.00,01,12,2017,00,00*62
2017-12-01 16:41:36 1512164496.410021: $GPGGA,214137,3946.9630,N,08404.9730,W,1,11,1.00,302.05,M,-33.324,M,,*7E
2017-12-01 16:41:36 1512164496.410089: $GPRMC,214137,A,3946.9630,N,08404.9730,W,0.0000,0.000,011217,,*38
2017-12-01 16:41:36 1512164496.410151: $GPGSA,A,3,1,10,14,22,31,32,11,12,25,26,138,,2.0,1.0,1.5*39
2017-12-01 16:41:37 1512164497.746554: $GPGSV,3,1,12,01,22,295,42,10,42,150,42,14,68,340,43,22,23,312,42*78
2017-12-01 16:41:37 1512164497.746733: $GPGSV,3,2,12,31,61,231,48,32,66,042,48,11,07,277,36,12,20,045,24*7F
2017-12-01 16:41:37 1512164497.746801: $GPGSV,3,3,12,25,40,084,24,26,07,181,31,18,13,145,00,138,38,213,38*4B
2017-12-01 16:41:37 1512164497.860220: $GPZDA,214138.00,01,12,2017,00,00*6D
2017-12-01 16:41:37 1512164497.860397: $GPGGA,214138,3946.9630,N,08404.9737,W,1,11,1.00,300.56,M,-33.324,M,,*72
2017-12-01 16:41:37 1512164497.860464: $GPRMC,214138,A,3946.9630,N,08404.9737,W,0.0000,0.000,011217,,*30
2017-12-01 16:41:37 1512164497.860596: $GPGSA,A,3,1,10,14,22,31,32,11,12,25,26,138,,2.0,1.0,1.5*39
2017-12-01 16:41:38 1512164498.485567: $GPZDA,214139.00,01,12,2017,00,00*6C
2017-12-01 16:41:38 1512164498.485751: $GPGGA,214139,3946.9630,N,08404.9737,W,1,11,1.00,300.56,M,-33.324,M,,*73
2017-12-01 16:41:38 1512164498.485819: $GPRMC,214139,A,3946.9630,N,08404.9737,W,0.0000,0.000,011217,,*31
2017-12-01 16:41:38 1512164498.485882: $GPGSA,A,3,1,10,14,22,31,32,11,12,25,26,138,,2.0,1.0,1.5*39
2017-12-01 16:41:39 1512164499.411497: $GPZDA,214140.00,01,12,2017,00,00*62
2017-12-01 16:41:39 1512164499.411685: $GPGGA,214140,3946.9630,N,08404.9737,W,1,11,1.00,300.56,M,-33.324,M,,*7D
2017-12-01 16:41:39 1512164499.411754: $GPRMC,214140,A,3946.9630,N,08404.9737,W,0.0000,0.000,011217,,*3F
2017-12-01 16:41:39 1512164499.411815: $GPGSA,A,3,1,10,14,22,31,32,11,12,25,26,138,,2.0,1.0,1.5*39
2017-12-01 16:41:40 1512164500.746833: $GPGSV,3,1,12,01,22,295,41,10,42,150,42,14,68,340,43,22,23,312,42*7B
2017-12-01 16:41:40 1512164500.746987: $GPGSV,3,2,12,31,61,231,49,32,66,042,49,11,07,277,37,12,20,045,25*7F
2017-12-01 16:41:40 1512164500.747053: $GPGSV,3,3,12,25,40,084,24,26,07,181,31,18,13,145,04,138,38,213,40*40
2017-12-01 16:41:40 1512164500.860179: $GPZDA,214141.00,01,12,2017,00,00*63
2017-12-01 16:41:40 1512164500.860346: $GPGGA,214141,3946.9633,N,08404.9735,W,2,11,1.20,298.39,M,-33.324,M,,*75
2017-12-01 16:41:40 1512164500.860413: $GPRMC,214141,A,3946.9633,N,08404.9735,W,0.0000,0.000,011217,,*3F
2017-12-01 16:41:40 1512164500.860474: $GPGSA,A,3,1,10,14,22,31,32,11,12,25,26,138,,2.0,1.2,1.5*3B
2017-12-01 16:41:41 1512164501.412451: $GPZDA,214142.00,01,12,2017,00,00*60
2017-12-01 16:41:41 1512164501.412623: $GPGGA,214142,3946.9633,N,08404.9735,W,2,11,1.00,298.39,M,-33.324,M,,*74
2017-12-01 16:41:41 1512164501.412691: $GPRMC,214142,A,3946.9633,N,08404.9735,W,0.0000,0.000,011217,,*3C
2017-12-01 16:41:41 1512164501.412754: $GPGSA,A,3,1,10,14,22,31,32,11,12,25,26,138,,2.0,1.0,1.5*39
2017-12-01 16:41:42 1512164502.412158: $GPZDA,214143.00,01,12,2017,00,00*61
2017-12-01 16:41:42 1512164502.412343: $GPGGA,214143,3946.9633,N,08404.9735,W,2,11,1.00,298.39,M,-33.324,M,,*75
2017-12-01 16:41:42 1512164502.412415: $GPRMC,214143,A,3946.9633,N,08404.9735,W,0.0000,0.000,011217,,*3D
2017-12-01 16:41:42 1512164502.412477: $GPGSA,A,3,1,10,14,22,31,32,11,12,25,26,138,,2.0,1.0,1.5*39
2017-12-01 16:41:42 1512164502.412536: $GPGBS,214143,2.67,M,3.86,M,8.82,M*33
