2017-12-14 12:06:55 1513271215.403588: {"class":"VERSION","release":"3.16","rev":"3.16-4","proto_major":3,"proto_minor":11}
2017-12-14 12:06:55 1513271215.404023: {"class":"DEVICES","devices":[{"class":"DEVICE","path":"/dev/ttyUSB0","driver":"SiRF","subtype":"9\u0006GSD4e_4.1.2-P1_RPATCH.05-F-GPS-4R-1510281 11/03/2015 307","activated":"2017-12-14T17:06:55.318Z","flags":1,"native":1,"bps":4800,"parity":"N","stopbits":1,"cycle":1.00}]}
2017-12-14 12:06:55 1513271215.404139: {"class":"WATCH","enable":true,"json":false,"nmea":true,"raw":0,"scaled":false,"timing":false,"split24":false,"pps":false}
2017-12-14 12:06:55 1513271215.768056: $GPGSV,3,1,11,24,48,118,25,15,42,051,26,10,37,297,02,20,38,091,00*76
2017-12-14 12:06:55 1513271215.768208: $GPGSV,3,2,11,21,68,193,28,18,68,327,18,32,17,235,11,27,19,295,00*7C
2017-12-14 12:06:55 1513271215.768273: $GPGSV,3,3,11,13,12,046,00,08,04,327,00,120,07,103,00*76
2017-12-14 12:06:55 1513271215.881547: $GPZDA,170656.00,14,12,2017,00,00*67
2017-12-14 12:06:55 1513271215.881715: $GPGGA,170656,3946.9422,N,08404.9462,W,1,05,1.80,331.28,M,-33.324,M,,*78
2017-12-14 12:06:55 1513271215.881803: $GPRMC,170656,A,3946.9422,N,08404.9462,W,0.3146,211.960,141217,,*35
2017-12-14 12:06:55 1513271215.881880: $GPGSA,A,3,24,15,21,18,32,,,,,,,,6.6,1.8,6.2*36
2017-12-14 12:06:56 1513271216.416390: $GPZDA,170657.00,14,12,2017,00,00*66
2017-12-14 12:06:56 1513271216.416556: $GPGGA,170657,3946.9416,N,08404.9454,W,1,05,1.80,329.32,M,-33.324,M,,*79
2017-12-14 12:06:56 1513271216.416623: $GPRMC,170657,A,3946.9416,N,08404.9454,W,0.6052,105.366,141217,,*3D
2017-12-14 12:06:56 1513271216.416684: $GPGSA,A,3,24,15,21,18,32,,,,,,,,6.6,1.8,6.2*36
2017-12-14 12:06:57 1513271217.433557: $GPZDA,170658.00,14,12,2017,00,00*69
2017-12-14 12:06:57 1513271217.433786: $GPGGA,170658,3946.9420,N,08404.9447,W,1,05,1.80,330.04,M,-33.324,M,,*7C
2017-12-14 12:06:57 1513271217.433901: $GPRMC,170658,A,3946.9420,N,08404.9447,W,0.6350,73.438,141217,,*08
2017-12-14 12:06:57 1513271217.433991: $GPGSA,A,3,24,15,21,18,32,,,,,,,,6.6,1.8,6.2*36
2017-12-14 12:06:58 1513271218.768293: $GPGSV,3,1,11,24,48,118,26,15,42,051,26,10,37,297,02,20,38,091,00*75
2017-12-14 12:06:58 1513271218.768466: $GPGSV,3,2,11,21,68,193,28,18,68,327,18,32,17,235,12,27,19,295,00*7F
2017-12-14 12:06:58 1513271218.768532: $GPGSV,3,3,11,13,12,046,00,08,04,327,00,120,07,103,00*76
2017-12-14 12:06:58 1513271218.880695: $GPZDA,170659.00,14,12,2017,00,00*68
2017-12-14 12:06:58 1513271218.880895: $GPGGA,170659,3946.9429,N,08404.9441,W,1,05,1.80,332.80,M,-33.324,M,,*7C
2017-12-14 12:06:58 1513271218.880962: $GPRMC,170659,A,3946.9429,N,08404.9441,W,0.4116,56.173,141217,,*09
2017-12-14 12:06:58 1513271218.881023: $GPGSA,A,3,24,15,21,18,32,,,,,,,,6.6,1.8,6.2*36
2017-12-14 12:06:59 1513271219.415065: $GPZDA,170700.00,14,12,2017,00,00*65
2017-12-14 12:06:59 1513271219.415254: $GPGGA,170700,3946.9432,N,08404.9433,W,1,05,1.80,332.11,M,-33.324,M,,*76
2017-12-14 12:06:59 1513271219.415321: $GPRMC,170700,A,3946.9432,N,08404.9433,W,0.8414,25.855,141217,,*09
2017-12-14 12:06:59 1513271219.415383: $GPGSA,A,3,24,15,21,18,32,,,,,,,,6.6,1.8,6.2*36
2017-12-14 12:07:00 1513271220.433836: $GPZDA,170701.00,14,12,2017,00,00*64
2017-12-14 12:07:00 1513271220.436810: $GPGGA,170701,3946.9431,N,08404.9413,W,1,05,1.80,333.76,M,-33.324,M,,*76
2017-12-14 12:07:00 1513271220.436917: $GPRMC,170701,A,3946.9431,N,08404.9413,W,1.1175,49.542,141217,,*02
2017-12-14 12:07:00 1513271220.436995: $GPGSA,A,3,24,15,21,18,32,,,,,,,,6.6,1.8,6.2*36
2017-12-14 12:07:01 1513271221.769150: $GPGSV,3,1,11,24,48,118,26,15,42,051,25,10,37,297,02,20,38,091,00*76
2017-12-14 12:07:01 1513271221.769328: $GPGSV,3,2,11,21,68,193,28,18,68,327,18,32,17,235,12,27,19,295,00*7F
2017-12-14 12:07:01 1513271221.769394: $GPGSV,3,3,11,13,12,046,00,08,04,327,00,120,07,103,00*76
2017-12-14 12:07:01 1513271221.881263: $GPZDA,170702.00,14,12,2017,00,00*67
2017-12-14 12:07:01 1513271221.881405: $GPGGA,170702,3946.9431,N,08404.9399,W,1,05,1.80,333.92,M,-33.324,M,,*7A
2017-12-14 12:07:01 1513271221.881471: $GPRMC,170702,A,3946.9431,N,08404.9399,W,1.7147,66.743,141217,,*0D
2017-12-14 12:07:01 1513271221.881602: $GPGSA,A,3,24,15,21,18,32,,,,,,,,6.6,1.8,6.2*36
2017-12-14 12:07:02 1513271222.432271: $GPZDA,170703.00,14,12,2017,00,00*66
2017-12-14 12:07:02 1513271222.432450: $GPGGA,170703,3946.9434,N,08404.9385,W,1,05,1.80,334.71,M,-33.324,M,,*79
2017-12-14 12:07:02 1513271222.432519: $GPRMC,170703,A,3946.9434,N,08404.9385,W,2.3055,64.669,141217,,*0A
2017-12-14 12:07:02 1513271222.432580: $GPGSA,A,3,24,15,21,18,32,,,,,,,,6.6,1.8,6.2*36
2017-12-14 12:07:03 1513271223.431685: $GPZDA,170704.00,14,12,2017,00,00*61
2017-12-14 12:07:03 1513271223.431892: $GPGGA,170704,3946.9441,N,08404.9364,W,1,05,1.80,334.83,M,-33.324,M,,*7E
2017-12-14 12:07:03 1513271223.431960: $GPRMC,170704,A,3946.9441,N,08404.9364,W,2.0051,64.988,141217,,*07
2017-12-14 12:07:03 1513271223.432020: $GPGSA,A,3,24,15,21,18,32,,,,,,,,6.6,1.8,6.2*36
2017-12-14 12:07:04 1513271224.752026: $GPGSV,3,1,11,24,48,118,26,15,42,051,25,10,37,297,02,20,38,091,00*76
2017-12-14 12:07:04 1513271224.752245: $GPGSV,3,2,11,21,68,193,28,18,68,327,18,32,17,235,11,27,19,295,00*7C
2017-12-14 12:07:04 1513271224.752311: $GPGSV,3,3,11,13,12,046,00,08,04,327,00,120,07,103,00*76
2017-12-14 12:07:04 1513271224.865443: $GPZDA,170705.00,14,12,2017,00,00*60
2017-12-14 12:07:04 1513271224.865617: $GPGGA,170705,3946.9440,N,08404.9350,W,1,05,1.80,334.99,M,-33.324,M,,*72
2017-12-14 12:07:04 1513271224.865702: $GPRMC,170705,A,3946.9440,N,08404.9350,W,2.2935,82.796,141217,,*00
2017-12-14 12:07:04 1513271224.865765: $GPGSA,A,3,24,15,21,18,32,,,,,,,,6.6,1.8,6.2*36
2017-12-14 12:07:05 1513271225.432952: $GPZDA,170706.00,14,12,2017,00,00*63
2017-12-14 12:07:05 1513271225.433136: $GPGGA,170706,3946.9447,N,08404.9335,W,1,05,1.80,335.02,M,-33.324,M,,*76
2017-12-14 12:07:05 1513271225.433242: $GPRMC,170706,A,3946.9447,N,08404.9335,W,2.0920,76.444,141217,,*06
2017-12-14 12:07:05 1513271225.433306: $GPGSA,A,3,24,15,21,18,32,,,,,,,,6.6,1.8,6.2*36
2017-12-14 12:07:06 1513271226.432702: $GPZDA,170707.00,14,12,2017,00,00*62
2017-12-14 12:07:06 1513271226.432886: $GPGGA,170707,3946.9451,N,08404.9328,W,1,05,1.80,335.74,M,-33.324,M,,*7D
2017-12-14 12:07:06 1513271226.432954: $GPRMC,170707,A,3946.9451,N,08404.9328,W,2.2254,90.559,141217,,*03
2017-12-14 12:07:06 1513271226.433016: $GPGSA,A,3,24,15,21,18,32,,,,,,,,6.6,1.8,6.2*36
2017-12-14 12:07:07 1513271227.767942: $GPGSV,3,1,11,24,48,118,26,15,42,051,25,10,37,297,02,27,19,295,07*73
2017-12-14 12:07:07 1513271227.768123: $GPGSV,3,2,11,21,68,193,28,18,68,327,18,32,17,235,09,20,38,091,00*77
2017-12-14 12:07:07 1513271227.768187: $GPGSV,3,3,11,13,12,046,00,08,04,327,00,120,07,103,00*76
2017-12-14 12:07:07 1513271227.881303: $GPZDA,170708.00,14,12,2017,00,00*6D
2017-12-14 12:07:07 1513271227.881446: $GPGGA,170708,3946.9448,N,08404.9323,W,1,05,1.80,337.99,M,-33.324,M,,*70
2017-12-14 12:07:07 1513271227.881512: $GPRMC,170708,A,3946.9448,N,08404.9323,W,2.2729,81.915,141217,,*04
2017-12-14 12:07:07 1513271227.881572: $GPGSA,A,3,24,15,21,18,32,,,,,,,,6.6,1.8,6.2*36
2017-12-14 12:07:08 1513271228.506765: $GPZDA,170709.00,14,12,2017,00,00*6C
2017-12-14 12:07:08 1513271228.506953: $GPGGA,170709,3946.9453,N,08404.9317,W,1,05,1.80,341.51,M,-33.324,M,,*79
2017-12-14 12:07:08 1513271228.507021: $GPRMC,170709,A,3946.9453,N,08404.9317,W,2.0174,79.496,141217,,*05
2017-12-14 12:07:08 1513271228.507081: $GPGSA,A,3,24,15,21,18,32,,,,,,,,6.6,1.8,6.2*36
2017-12-14 12:07:09 1513271229.416732: $GPZDA,170710.00,14,12,2017,00,00*64
2017-12-14 12:07:09 1513271229.416917: $GPGGA,170710,3946.9454,N,08404.9318,W,1,05,1.80,342.92,M,-33.324,M,,*75
2017-12-14 12:07:09 1513271229.416984: $GPRMC,170710,A,3946.9454,N,08404.9318,W,1.9100,67.686,141217,,*00
2017-12-14 12:07:09 1513271229.417045: $GPGSA,A,3,24,15,21,18,32,,,,,,,,6.6,1.8,6.2*36
2017-12-14 12:07:10 1513271230.751991: $GPGSV,3,1,11,24,48,118,26,15,42,051,25,10,37,297,02,27,19,295,13*76
2017-12-14 12:07:10 1513271230.752208: $GPGSV,3,2,11,21,68,193,28,18,68,327,18,32,17,235,07,20,38,091,00*79
2017-12-14 12:07:10 1513271230.752274: $GPGSV,3,3,11,13,12,046,00,08,04,327,00,120,07,103,00*76
2017-12-14 12:07:10 1513271230.865547: $GPZDA,170711.00,14,12,2017,00,00*65
2017-12-14 12:07:10 1513271230.865734: $GPGGA,170711,3946.9453,N,08404.9330,W,1,06,2.00,339.95,M,-33.324,M,,*7A
2017-12-14 12:07:10 1513271230.865817: $GPRMC,170711,A,3946.9453,N,08404.9330,W,1.5153,81.915,141217,,*0B
2017-12-14 12:07:10 1513271230.865879: $GPGSA,A,3,24,15,27,21,18,32,,,,,,,6.6,2.0,6.2*38
2017-12-14 12:07:11 1513271231.415187: $GPZDA,170712.00,14,12,2017,00,00*66
2017-12-14 12:07:11 1513271231.415370: $GPGGA,170712,3946.9452,N,08404.9336,W,1,06,2.00,337.06,M,-33.324,M,,*7A
2017-12-14 12:07:11 1513271231.415436: $GPRMC,170712,A,3946.9452,N,08404.9336,W,1.1957,60.622,141217,,*03
2017-12-14 12:07:11 1513271231.415496: $GPGSA,A,3,24,15,27,21,18,32,,,,,,,6.6,2.0,6.2*38
2017-12-14 12:07:12 1513271232.417449: $GPZDA,170713.00,14,12,2017,00,00*67
2017-12-14 12:07:12 1513271232.417626: $GPGGA,170713,3946.9451,N,08404.9341,W,1,06,2.00,334.18,M,-33.324,M,,*74
2017-12-14 12:07:12 1513271232.417691: $GPRMC,170713,A,3946.9451,N,08404.9341,W,1.2024,62.540,141217,,*0A
2017-12-14 12:07:12 1513271232.417751: $GPGSA,A,3,24,15,27,21,18,32,,,,,,,6.6,2.0,6.2*38
2017-12-14 12:07:13 1513271233.752427: $GPGSV,3,1,11,24,48,118,26,15,42,051,25,10,37,297,02,27,19,295,12*77
2017-12-14 12:07:13 1513271233.752602: $GPGSV,3,2,11,21,68,193,28,18,68,327,18,32,17,235,16,20,38,091,00*79
2017-12-14 12:07:13 1513271233.752666: $GPGSV,3,3,11,13,12,046,00,08,04,327,00,120,07,103,00*76
2017-12-14 12:07:13 1513271233.866030: $GPZDA,170714.00,14,12,2017,00,00*60
2017-12-14 12:07:13 1513271233.866196: $GPGGA,170714,3946.9450,N,08404.9341,W,1,06,1.40,332.77,M,-33.324,M,,*7A
2017-12-14 12:07:13 1513271233.866261: $GPRMC,170714,A,3946.9450,N,08404.9341,W,1.3551,74.956,141217,,*06
2017-12-14 12:07:13 1513271233.866321: $GPGSA,A,3,24,15,27,21,18,32,,,,,,,6.6,1.4,6.2*3F
2017-12-14 12:07:14 1513271234.416905: $GPZDA,170715.00,14,12,2017,00,00*61
2017-12-14 12:07:14 1513271234.417073: $GPGGA,170715,3946.9453,N,08404.9346,W,1,06,1.40,330.52,M,-33.324,M,,*7A
2017-12-14 12:07:14 1513271234.417140: $GPRMC,170715,A,3946.9453,N,08404.9346,W,1.3190,82.814,141217,,*04
2017-12-14 12:07:14 1513271234.417200: $GPGSA,A,3,24,15,27,21,18,32,,,,,,,6.6,1.4,6.2*3F
2017-12-14 12:07:15 1513271235.416253: $GPZDA,170716.00,14,12,2017,00,00*62
2017-12-14 12:07:15 1513271235.416429: $GPGGA,170716,3946.9451,N,08404.9344,W,1,06,1.40,326.31,M,-33.324,M,,*7B
2017-12-14 12:07:15 1513271235.416497: $GPRMC,170716,A,3946.9451,N,08404.9344,W,1.3251,99.051,141217,,*0A
2017-12-14 12:07:15 1513271235.416558: $GPGSA,A,3,24,15,27,21,18,32,,,,,,,6.6,1.4,6.2*3F
