2017-11-16 17:41:35 1510872095.553819: {"class":"VERSION","release":"3.17","rev":"3.17","proto_major":3,"proto_minor":12}
2017-11-16 17:41:35 1510872095.554405: {"class":"DEVICES","devices":[{"class":"DEVICE","path":"/dev/ttyUSB0","driver":"SiRF","subtype":"9\u0006GSD4e_4.1.2-P1_RPATCH.05-F-GPS-4R-1510281 11/03/2015 307","activated":"2017-11-16T22:41:35.510Z","flags":1,"native":1,"bps":4800,"parity":"N","stopbits":1,"cycle":1.00}]}
2017-11-16 17:41:35 1510872095.554599: {"class":"WATCH","enable":true,"json":false,"nmea":true,"raw":0,"scaled":false,"timing":false,"split24":false,"pps":false}
2017-11-16 17:41:36 1510872096.731086: $GPGSV,3,1,12,01,22,295,34,10,43,150,45,22,23,312,42,12,20,045,50*71
2017-11-16 17:41:36 1510872096.731255: $GPGSV,3,2,12,14,68,339,46,18,14,145,38,26,06,183,26,11,07,277,39*7F
2017-11-16 17:41:36 1510872096.731315: $GPGSV,3,3,12,25,40,084,49,31,60,229,48,32,67,039,49,138,38,213,44*4F
2017-11-16 17:41:36 1510872096.844327: $GPZDA,224135.00,16,11,2017,00,00*66
2017-11-16 17:41:36 1510872096.844495: $GPGGA,224135,3946.9575,N,08404.9841,W,2,12,0.80,301.85,M,-33.324,M,,*76
2017-11-16 17:41:36 1510872096.844556: $GPRMC,224135,A,3946.9575,N,08404.9841,W,0.0000,0.000,161117,,*37
2017-11-16 17:41:36 1510872096.844612: $GPGSA,A,3,1,10,22,12,14,18,26,11,25,31,32,138,1.6,0.8,1.3*3A
2017-11-16 17:41:37 1510872097.394005: $GPZDA,224136.00,16,11,2017,00,00*65
2017-11-16 17:41:37 1510872097.394169: $GPGGA,224136,3946.9575,N,08404.9841,W,2,12,0.80,301.85,M,-33.324,M,,*75
2017-11-16 17:41:37 1510872097.394228: $GPRMC,224136,A,3946.9575,N,08404.9841,W,0.0000,0.000,161117,,*34
2017-11-16 17:41:37 1510872097.394284: $GPGSA,A,3,1,10,22,12,14,18,26,11,25,31,32,138,1.6,0.8,1.3*3A
2017-11-16 17:41:38 1510872098.387401: $GPZDA,224137.00,16,11,2017,00,00*64
2017-11-16 17:41:38 1510872098.387581: $GPGGA,224137,3946.9575,N,08404.9841,W,2,12,0.80,301.85,M,-33.324,M,,*74
2017-11-16 17:41:38 1510872098.387642: $GPRMC,224137,A,3946.9575,N,08404.9841,W,0.0000,0.000,161117,,*35
2017-11-16 17:41:38 1510872098.387698: $GPGSA,A,3,1,10,22,12,14,18,26,11,25,31,32,138,1.6,0.8,1.3*3A
2017-11-16 17:41:39 1510872099.729415: $GPGSV,3,1,12,01,22,295,34,10,43,150,45,22,23,312,42,12,20,045,50*71
2017-11-16 17:41:39 1510872099.729584: $GPGSV,3,2,12,14,68,339,46,18,14,145,37,26,06,183,26,11,07,277,39*70
2017-11-16 17:41:39 1510872099.729645: $GPGSV,3,3,12,25,40,084,49,31,60,229,48,32,67,039,49,138,38,213,44*4F
2017-11-16 17:41:39 1510872099.842737: $GPZDA,224138.00,16,11,2017,00,00*6B
2017-11-16 17:41:39 1510872099.842910: $GPGGA,224138,3946.9575,N,08404.9841,W,2,12,0.80,301.85,M,-33.324,M,,*7B
2017-11-16 17:41:39 1510872099.842971: $GPRMC,224138,A,3946.9575,N,08404.9841,W,0.0000,0.000,161117,,*3A
2017-11-16 17:41:39 1510872099.843027: $GPGSA,A,3,1,10,22,12,14,18,26,11,25,31,32,138,1.6,0.8,1.3*3A
2017-11-16 17:41:40 1510872100.387338: $GPZDA,224139.00,16,11,2017,00,00*6A
2017-11-16 17:41:40 1510872100.387497: $GPGGA,224139,3946.9575,N,08404.9841,W,2,12,0.80,301.85,M,-33.324,M,,*7A
2017-11-16 17:41:40 1510872100.387557: $GPRMC,224139,A,3946.9575,N,08404.9841,W,0.0000,0.000,161117,,*3B
2017-11-16 17:41:40 1510872100.387614: $GPGSA,A,3,1,10,22,12,14,18,26,11,25,31,32,138,1.6,0.8,1.3*3A
2017-11-16 17:41:41 1510872101.393969: $GPZDA,224140.00,16,11,2017,00,00*64
2017-11-16 17:41:41 1510872101.394133: $GPGGA,224140,3946.9575,N,08404.9841,W,2,12,0.80,301.85,M,-33.324,M,,*74
2017-11-16 17:41:41 1510872101.394193: $GPRMC,224140,A,3946.9575,N,08404.9841,W,0.0000,0.000,161117,,*35
2017-11-16 17:41:41 1510872101.394249: $GPGSA,A,3,1,10,22,12,14,18,26,11,25,31,32,138,1.6,0.8,1.3*3A
2017-11-16 17:41:42 1510872102.730989: $GPGSV,3,1,12,01,22,295,28,10,43,150,45,22,23,312,42,12,20,045,49*74
2017-11-16 17:41:42 1510872102.731151: $GPGSV,3,2,12,14,68,339,46,18,14,145,37,26,06,183,26,11,07,277,38*71
2017-11-16 17:41:42 1510872102.731211: $GPGSV,3,3,12,25,40,084,49,31,60,229,48,32,67,039,49,138,38,213,44*4F
2017-11-16 17:41:42 1510872102.843069: $GPZDA,224141.00,16,11,2017,00,00*65
2017-11-16 17:41:42 1510872102.843230: $GPGGA,224141,3946.9575,N,08404.9841,W,2,12,0.80,301.85,M,-33.324,M,,*75
2017-11-16 17:41:42 1510872102.843344: $GPRMC,224141,A,3946.9575,N,08404.9841,W,0.0000,0.000,161117,,*34
2017-11-16 17:41:42 1510872102.843401: $GPGSA,A,3,1,10,22,12,14,18,26,11,25,31,32,138,1.6,0.8,1.3*3A
2017-11-16 17:41:43 1510872103.395262: $GPZDA,224142.00,16,11,2017,00,00*66
2017-11-16 17:41:43 1510872103.395424: $GPGGA,224142,3946.9575,N,08404.9841,W,2,12,0.80,301.85,M,-33.324,M,,*76
2017-11-16 17:41:43 1510872103.395485: $GPRMC,224142,A,3946.9575,N,08404.9841,W,0.0000,0.000,161117,,*37
2017-11-16 17:41:43 1510872103.395541: $GPGSA,A,3,1,10,22,12,14,18,26,11,25,31,32,138,1.6,0.8,1.3*3A
2017-11-16 17:41:44 1510872104.394821: $GPZDA,224143.00,16,11,2017,00,00*67
2017-11-16 17:41:44 1510872104.397726: $GPGGA,224143,3946.9575,N,08404.9841,W,2,12,0.80,301.85,M,-33.324,M,,*77
2017-11-16 17:41:44 1510872104.397854: $GPRMC,224143,A,3946.9575,N,08404.9841,W,0.0000,0.000,161117,,*36
2017-11-16 17:41:44 1510872104.397913: $GPGSA,A,3,1,10,22,12,14,18,26,11,25,31,32,138,1.6,0.8,1.3*3A
