2017-11-16 14:07:54 1510859274.608095: {"class":"VERSION","release":"3.17","rev":"3.17","proto_major":3,"proto_minor":12}
2017-11-16 14:07:54 1510859274.608575: {"class":"DEVICES","devices":[{"class":"DEVICE","path":"/dev/ttyUSB0","driver":"SiRF","subtype":"9\u0006GSD4e_4.1.2-P1_RPATCH.05-F-GPS-4R-1510281 11/03/2015 307","activated":"2017-11-16T19:07:54.420Z","flags":1,"native":1,"bps":4800,"parity":"N","stopbits":1,"cycle":1.00}]}
2017-11-16 14:07:54 1510859274.608699: {"class":"WATCH","enable":true,"json":false,"nmea":true,"raw":0,"scaled":false,"timing":false,"split24":false,"pps":false}
2017-11-16 14:07:54 1510859274.869713: $GPGSV,3,1,12,10,39,298,43,13,10,048,33,15,40,051,51,18,69,330,49*73
2017-11-16 14:07:54 1510859274.869884: $GPGSV,3,2,12,20,35,093,46,21,67,193,47,24,49,115,48,32,18,235,45*72
2017-11-16 14:07:54 1510859274.869945: $GPGSV,3,3,12,08,05,324,35,27,19,292,40,14,02,231,00,138,38,213,45*43
2017-11-16 14:07:54 1510859274.983352: $GPZDA,190753.00,16,11,2017,00,00*6C
2017-11-16 14:07:54 1510859274.983499: $GPGGA,190753,3946.9570,N,08404.9844,W,2,11,0.80,306.19,M,-33.324,M,,*7D
2017-11-16 14:07:54 1510859274.983558: $GPRMC,190753,A,3946.9570,N,08404.9844,W,0.0000,0.000,161117,,*3D
2017-11-16 14:07:54 1510859274.983613: $GPGSA,A,3,10,13,15,18,20,21,24,32,8,27,138,,1.6,0.8,1.3*30
2017-11-16 14:07:55 1510859275.532608: $GPZDA,190754.00,16,11,2017,00,00*6B
2017-11-16 14:07:55 1510859275.532780: $GPGGA,190754,3946.9570,N,08404.9844,W,2,11,0.80,306.19,M,-33.324,M,,*7A
2017-11-16 14:07:55 1510859275.532841: $GPRMC,190754,A,3946.9570,N,08404.9844,W,0.0000,0.000,161117,,*3A
2017-11-16 14:07:55 1510859275.532897: $GPGSA,A,3,10,13,15,18,20,21,24,32,8,27,138,,1.6,0.8,1.3*30
2017-11-16 14:07:56 1510859276.527225: $GPZDA,190755.00,16,11,2017,00,00*6A
2017-11-16 14:07:56 1510859276.527387: $GPGGA,190755,3946.9570,N,08404.9844,W,2,11,0.80,306.19,M,-33.324,M,,*7B
2017-11-16 14:07:56 1510859276.527449: $GPRMC,190755,A,3946.9570,N,08404.9844,W,0.0000,0.000,161117,,*3B
2017-11-16 14:07:56 1510859276.527505: $GPGSA,A,3,10,13,15,18,20,21,24,32,8,27,138,,1.6,0.8,1.3*30
2017-11-16 14:07:57 1510859277.869299: $GPGSV,3,1,12,10,39,298,43,13,10,048,33,15,40,051,51,18,69,330,48*72
2017-11-16 14:07:57 1510859277.869470: $GPGSV,3,2,12,20,35,093,46,21,67,193,47,24,49,115,48,32,18,235,44*73
2017-11-16 14:07:57 1510859277.869530: $GPGSV,3,3,12,08,05,324,35,27,19,292,40,14,02,231,00,138,38,213,45*43
2017-11-16 14:07:57 1510859277.984375: $GPZDA,190756.00,16,11,2017,00,00*69
2017-11-16 14:07:57 1510859277.984610: $GPGGA,190756,3946.9570,N,08404.9844,W,2,11,0.80,306.19,M,-33.324,M,,*78
2017-11-16 14:07:57 1510859277.984687: $GPRMC,190756,A,3946.9570,N,08404.9844,W,0.0000,0.000,161117,,*38
2017-11-16 14:07:57 1510859277.984756: $GPGSA,A,3,10,13,15,18,20,21,24,32,8,27,138,,1.6,0.8,1.3*30
2017-11-16 14:07:58 1510859278.532328: $GPZDA,190757.00,16,11,2017,00,00*68
2017-11-16 14:07:58 1510859278.532496: $GPGGA,190757,3946.9570,N,08404.9844,W,2,11,0.80,306.19,M,-33.324,M,,*79
2017-11-16 14:07:58 1510859278.532557: $GPRMC,190757,A,3946.9570,N,08404.9844,W,0.0000,0.000,161117,,*39
2017-11-16 14:07:58 1510859278.532613: $GPGSA,A,3,10,13,15,18,20,21,24,32,8,27,138,,1.6,0.8,1.3*30
2017-11-16 14:07:59 1510859279.532698: $GPZDA,190758.00,16,11,2017,00,00*67
2017-11-16 14:07:59 1510859279.532861: $GPGGA,190758,3946.9570,N,08404.9844,W,2,11,0.80,306.19,M,-33.324,M,,*76
2017-11-16 14:07:59 1510859279.532923: $GPRMC,190758,A,3946.9570,N,08404.9844,W,0.0000,0.000,161117,,*36
2017-11-16 14:07:59 1510859279.532979: $GPGSA,A,3,10,13,15,18,20,21,24,32,8,27,138,,1.6,0.8,1.3*30
2017-11-16 14:08:00 1510859280.892264: $GPGSV,3,1,12,10,39,298,42,13,10,048,33,15,40,051,51,18,69,330,48*73
2017-11-16 14:08:00 1510859280.892405: $GPGSV,3,2,12,20,35,093,46,21,67,193,47,24,49,115,48,32,18,235,45*72
2017-11-16 14:08:00 1510859280.892465: $GPGSV,3,3,12,08,05,324,35,27,19,292,39,14,02,231,00,138,38,213,44*4C
2017-11-16 14:08:01 1510859281.005527: $GPZDA,190759.00,16,11,2017,00,00*66
2017-11-16 14:08:01 1510859281.005666: $GPGGA,190759,3946.9570,N,08404.9844,W,2,11,0.80,306.19,M,-33.324,M,,*77
2017-11-16 14:08:01 1510859281.005781: $GPRMC,190759,A,3946.9570,N,08404.9844,W,0.0000,0.000,161117,,*37
2017-11-16 14:08:01 1510859281.005840: $GPGSA,A,3,10,13,15,18,20,21,24,32,8,27,138,,1.6,0.8,1.3*30
2017-11-16 14:08:01 1510859281.560174: $GPZDA,190800.00,16,11,2017,00,00*65
2017-11-16 14:08:01 1510859281.560396: $GPGGA,190800,3946.9570,N,08404.9844,W,2,11,0.80,306.19,M,-33.324,M,,*74
2017-11-16 14:08:01 1510859281.560488: $GPRMC,190800,A,3946.9570,N,08404.9844,W,0.0000,0.000,161117,,*34
2017-11-16 14:08:01 1510859281.560546: $GPGSA,A,3,10,13,15,18,20,21,24,32,8,27,138,,1.6,0.8,1.3*30
2017-11-16 14:08:02 1510859282.553546: $GPZDA,190801.00,16,11,2017,00,00*64
2017-11-16 14:08:02 1510859282.553714: $GPGGA,190801,3946.9570,N,08404.9844,W,2,11,0.80,306.19,M,-33.324,M,,*75
2017-11-16 14:08:02 1510859282.553775: $GPRMC,190801,A,3946.9570,N,08404.9844,W,0.0000,0.000,161117,,*35
2017-11-16 14:08:02 1510859282.553831: $GPGSA,A,3,10,13,15,18,20,21,24,32,8,27,138,,1.6,0.8,1.3*30
2017-11-16 14:08:03 1510859283.869315: $GPGSV,3,1,12,10,39,298,41,13,10,048,33,15,40,051,51,18,69,330,48*70
2017-11-16 14:08:03 1510859283.869484: $GPGSV,3,2,12,20,35,093,46,21,67,193,47,24,49,115,48,32,18,235,45*72
2017-11-16 14:08:03 1510859283.869545: $GPGSV,3,3,12,08,05,324,33,27,19,292,38,14,02,231,00,138,38,213,44*4B
2017-11-16 14:08:03 1510859283.982633: $GPZDA,190802.00,16,11,2017,00,00*67
2017-11-16 14:08:03 1510859283.982797: $GPGGA,190802,3946.9570,N,08404.9844,W,2,11,0.80,306.19,M,-33.324,M,,*76
2017-11-16 14:08:03 1510859283.982859: $GPRMC,190802,A,3946.9570,N,08404.9844,W,0.0000,0.000,161117,,*36
2017-11-16 14:08:03 1510859283.982915: $GPGSA,A,3,10,13,15,18,20,21,24,32,8,27,138,,1.6,0.8,1.3*30
2017-11-16 14:08:04 1510859284.607985: $GPZDA,190803.00,16,11,2017,00,00*66
2017-11-16 14:08:04 1510859284.608150: $GPGGA,190803,3946.9570,N,08404.9844,W,2,11,0.80,306.19,M,-33.324,M,,*77
2017-11-16 14:08:04 1510859284.608213: $GPRMC,190803,A,3946.9570,N,08404.9844,W,0.0000,0.000,161117,,*37
2017-11-16 14:08:04 1510859284.608270: $GPGSA,A,3,10,13,15,18,20,21,24,32,8,27,138,,1.6,0.8,1.3*30
