2017-11-16 17:19:37 1510870777.420981: {"class":"VERSION","release":"3.17","rev":"3.17","proto_major":3,"proto_minor":12}
2017-11-16 17:19:37 1510870777.421406: {"class":"DEVICES","devices":[{"class":"DEVICE","path":"/dev/ttyUSB0","driver":"SiRF","subtype":"9\u0006GSD4e_4.1.2-P1_RPATCH.05-F-GPS-4R-1510281 11/03/2015 307","activated":"2017-11-16T22:19:37.401Z","flags":1,"native":1,"bps":4800,"parity":"N","stopbits":1,"cycle":1.00}]}
2017-11-16 17:19:37 1510870777.421514: {"class":"WATCH","enable":true,"json":false,"nmea":true,"raw":0,"scaled":false,"timing":false,"split24":false,"pps":false}
2017-11-16 17:19:38 1510870778.400876: $GPZDA,221937.00,16,11,2017,00,00*69
2017-11-16 17:19:38 1510870778.401053: $GPGGA,221937,3946.9570,N,08404.9831,W,2,12,0.80,309.16,M,-33.324,M,,*79
2017-11-16 17:19:38 1510870778.401115: $GPRMC,221937,A,3946.9570,N,08404.9831,W,0.0000,0.000,161117,,*3A
2017-11-16 17:19:38 1510870778.401171: $GPGSA,A,3,1,10,22,12,14,18,24,11,25,31,32,138,1.6,0.8,1.3*38
2017-11-16 17:19:39 1510870779.736440: $GPGSV,3,1,12,01,20,306,38,10,54,145,50,22,14,312,37,12,24,055,49*79
2017-11-16 17:19:39 1510870779.736613: $GPGSV,3,2,12,14,63,316,47,18,24,142,42,24,02,048,11,11,10,288,41*7C
2017-11-16 17:19:39 1510870779.736672: $GPGSV,3,3,12,25,38,097,48,31,49,220,50,32,70,010,49,138,38,213,45*44
2017-11-16 17:19:39 1510870779.849723: $GPZDA,221938.00,16,11,2017,00,00*66
2017-11-16 17:19:39 1510870779.849886: $GPGGA,221938,3946.9570,N,08404.9831,W,2,12,0.80,309.16,M,-33.324,M,,*76
2017-11-16 17:19:39 1510870779.849946: $GPRMC,221938,A,3946.9570,N,08404.9831,W,0.0000,0.000,161117,,*35
2017-11-16 17:19:39 1510870779.850002: $GPGSA,A,3,1,10,22,12,14,18,24,11,25,31,32,138,1.6,0.8,1.3*38
2017-11-16 17:19:40 1510870780.401897: $GPZDA,221939.00,16,11,2017,00,00*67
2017-11-16 17:19:40 1510870780.402070: $GPGGA,221939,3946.9570,N,08404.9831,W,2,12,0.80,309.16,M,-33.324,M,,*77
2017-11-16 17:19:40 1510870780.402134: $GPRMC,221939,A,3946.9570,N,08404.9831,W,0.0000,0.000,161117,,*34
2017-11-16 17:19:40 1510870780.402191: $GPGSA,A,3,1,10,22,12,14,18,24,11,25,31,32,138,1.6,0.8,1.3*38
2017-11-16 17:19:41 1510870781.400980: $GPZDA,221940.00,16,11,2017,00,00*69
2017-11-16 17:19:41 1510870781.401159: $GPGGA,221940,3946.9570,N,08404.9831,W,2,12,0.80,309.16,M,-33.324,M,,*79
2017-11-16 17:19:41 1510870781.401241: $GPRMC,221940,A,3946.9570,N,08404.9831,W,0.0000,0.000,161117,,*3A
2017-11-16 17:19:41 1510870781.401300: $GPGSA,A,3,1,10,22,12,14,18,24,11,25,31,32,138,1.6,0.8,1.3*38
2017-11-16 17:19:42 1510870782.738116: $GPGSV,3,1,12,01,20,306,38,10,54,145,50,22,14,312,38,12,24,055,50*7E
2017-11-16 17:19:42 1510870782.738286: $GPGSV,3,2,12,14,63,316,47,18,24,142,42,24,02,048,11,11,10,288,42*7F
2017-11-16 17:19:42 1510870782.738348: $GPGSV,3,3,12,25,38,097,48,31,49,220,50,32,70,010,49,138,38,213,44*45
2017-11-16 17:19:42 1510870782.851463: $GPZDA,221941.00,16,11,2017,00,00*68
2017-11-16 17:19:42 1510870782.851628: $GPGGA,221941,3946.9570,N,08404.9831,W,2,12,0.80,309.16,M,-33.324,M,,*78
2017-11-16 17:19:42 1510870782.851691: $GPRMC,221941,A,3946.9570,N,08404.9831,W,0.0000,0.000,161117,,*3B
2017-11-16 17:19:42 1510870782.851746: $GPGSA,A,3,1,10,22,12,14,18,24,11,25,31,32,138,1.6,0.8,1.3*38
2017-11-16 17:19:43 1510870783.402305: $GPZDA,221942.00,16,11,2017,00,00*6B
2017-11-16 17:19:43 1510870783.402482: $GPGGA,221942,3946.9570,N,08404.9831,W,2,12,0.80,309.16,M,-33.324,M,,*7B
2017-11-16 17:19:43 1510870783.402544: $GPRMC,221942,A,3946.9570,N,08404.9831,W,0.0000,0.000,161117,,*38
2017-11-16 17:19:43 1510870783.402601: $GPGSA,A,3,1,10,22,12,14,18,24,11,25,31,32,138,1.6,0.8,1.3*38
2017-11-16 17:19:44 1510870784.401850: $GPZDA,221943.00,16,11,2017,00,00*6A
2017-11-16 17:19:44 1510870784.402014: $GPGGA,221943,3946.9570,N,08404.9831,W,2,12,0.80,309.16,M,-33.324,M,,*7A
2017-11-16 17:19:44 1510870784.402078: $GPRMC,221943,A,3946.9570,N,08404.9831,W,0.0000,0.000,161117,,*39
2017-11-16 17:19:44 1510870784.402135: $GPGSA,A,3,1,10,22,12,14,18,24,11,25,31,32,138,1.6,0.8,1.3*38
2017-11-16 17:19:45 1510870785.737672: $GPGSV,3,1,12,01,20,306,39,10,54,145,50,22,14,312,38,12,24,055,50*7F
2017-11-16 17:19:45 1510870785.737914: $GPGSV,3,2,12,14,63,316,47,18,24,142,42,24,02,048,05,11,10,288,42*7A
2017-11-16 17:19:45 1510870785.737980: $GPGSV,3,3,12,25,38,097,48,31,49,220,50,32,70,010,49,138,38,213,44*45
2017-11-16 17:19:45 1510870785.851043: $GPZDA,221944.00,16,11,2017,00,00*6D
2017-11-16 17:19:45 1510870785.851216: $GPGGA,221944,3946.9570,N,08404.9831,W,2,12,0.80,309.16,M,-33.324,M,,*7D
2017-11-16 17:19:45 1510870785.851278: $GPRMC,221944,A,3946.9570,N,08404.9831,W,0.0000,0.000,161117,,*3E
2017-11-16 17:19:45 1510870785.851335: $GPGSA,A,3,1,10,22,12,14,18,24,11,25,31,32,138,1.6,0.8,1.3*38
2017-11-16 17:19:46 1510870786.476743: $GPZDA,221945.00,16,11,2017,00,00*6C
2017-11-16 17:19:46 1510870786.476930: $GPGGA,221945,3946.9570,N,08404.9831,W,2,12,0.80,309.16,M,-33.324,M,,*7C
2017-11-16 17:19:46 1510870786.477015: $GPRMC,221945,A,3946.9570,N,08404.9831,W,0.0000,0.000,161117,,*3F
2017-11-16 17:19:46 1510870786.477078: $GPGSA,A,3,1,10,22,12,14,18,24,11,25,31,32,138,1.6,0.8,1.3*38
