2017-12-01 13:54:01 1512154441.873781: {"class":"VERSION","release":"3.16","rev":"3.16-4","proto_major":3,"proto_minor":11}
2017-12-01 13:54:01 1512154441.875969: {"class":"DEVICES","devices":[{"class":"DEVICE","path":"/dev/ttyUSB0","driver":"SiRF","subtype":"9\u0006GSD4e_4.1.2-P1_RPATCH.05-F-GPS-4R-1510281 11/03/2015 307","activated":"2017-12-01T18:54:01.714Z","flags":1,"native":1,"bps":4800,"parity":"N","stopbits":1,"cycle":1.00}]}
2017-12-01 13:54:01 1512154441.876138: {"class":"WATCH","enable":true,"json":false,"nmea":true,"raw":0,"scaled":false,"timing":false,"split24":false,"pps":false}
2017-12-01 13:54:02 1512154442.399601: $GPZDA,185403.00,01,12,2017,00,00*6B
2017-12-01 13:54:02 1512154442.399803: $GPGGA,185403,3946.9569,N,08404.9839,W,2,12,0.80,298.41,M,-33.324,M,,*75
2017-12-01 13:54:02 1512154442.399873: $GPRMC,185403,A,3946.9569,N,08404.9839,W,0.0000,0.000,011217,,*38
2017-12-01 13:54:02 1512154442.399935: $GPGSA,A,3,10,14,15,18,20,21,24,27,32,8,12,138,2.0,0.8,1.5*37
2017-12-01 13:54:03 1512154443.734183: $GPGSV,3,1,12,10,57,316,49,14,19,243,40,15,21,060,44,18,77,048,43*7D
2017-12-01 13:54:03 1512154443.734378: $GPGSV,3,2,12,20,19,109,45,21,43,181,45,24,52,076,48,27,13,271,36*7F
2017-12-01 13:54:03 1512154443.734444: $GPGSV,3,3,12,32,36,252,44,08,08,306,32,12,01,117,16,138,38,213,47*4F
2017-12-01 13:54:03 1512154443.847525: $GPZDA,185404.00,01,12,2017,00,00*6C
2017-12-01 13:54:03 1512154443.847677: $GPGGA,185404,3946.9569,N,08404.9839,W,2,12,0.80,298.41,M,-33.324,M,,*72
2017-12-01 13:54:03 1512154443.847741: $GPRMC,185404,A,3946.9569,N,08404.9839,W,0.0000,0.000,011217,,*3F
2017-12-01 13:54:03 1512154443.847800: $GPGSA,A,3,10,14,15,18,20,21,24,27,32,8,12,138,2.0,0.8,1.5*37
2017-12-01 13:54:04 1512154444.398147: $GPZDA,185405.00,01,12,2017,00,00*6D
2017-12-01 13:54:04 1512154444.398329: $GPGGA,185405,3946.9569,N,08404.9839,W,2,12,0.80,298.41,M,-33.324,M,,*73
2017-12-01 13:54:04 1512154444.398396: $GPRMC,185405,A,3946.9569,N,08404.9839,W,0.0000,0.000,011217,,*3E
2017-12-01 13:54:04 1512154444.398458: $GPGSA,A,3,10,14,15,18,20,21,24,27,32,8,12,138,2.0,0.8,1.5*37
2017-12-01 13:54:05 1512154445.399294: $GPZDA,185406.00,01,12,2017,00,00*6E
2017-12-01 13:54:05 1512154445.399466: $GPGGA,185406,3946.9569,N,08404.9839,W,2,12,0.80,298.41,M,-33.324,M,,*70
2017-12-01 13:54:05 1512154445.399533: $GPRMC,185406,A,3946.9569,N,08404.9839,W,0.0000,0.000,011217,,*3D
2017-12-01 13:54:05 1512154445.399594: $GPGSA,A,3,10,14,15,18,20,21,24,27,32,8,12,138,2.0,0.8,1.5*37
2017-12-01 13:54:06 1512154446.731027: $GPGSV,3,1,12,10,57,316,50,14,19,243,40,15,21,060,44,18,77,048,43*75
2017-12-01 13:54:06 1512154446.731209: $GPGSV,3,2,12,20,19,109,45,21,43,181,45,24,52,076,47,27,13,271,35*73
2017-12-01 13:54:06 1512154446.731275: $GPGSV,3,3,12,32,36,252,43,08,08,306,32,12,01,117,16,138,38,213,47*48
2017-12-01 13:54:06 1512154446.844644: $GPZDA,185407.00,01,12,2017,00,00*6F
2017-12-01 13:54:06 1512154446.844775: $GPGGA,185407,3946.9569,N,08404.9839,W,2,12,0.80,298.41,M,-33.324,M,,*71
2017-12-01 13:54:06 1512154446.844839: $GPRMC,185407,A,3946.9569,N,08404.9839,W,0.0000,0.000,011217,,*3C
2017-12-01 13:54:06 1512154446.844899: $GPGSA,A,3,10,14,15,18,20,21,24,27,32,8,12,138,2.0,0.8,1.5*37
2017-12-01 13:54:07 1512154447.470036: $GPZDA,185408.00,01,12,2017,00,00*60
2017-12-01 13:54:07 1512154447.470214: $GPGGA,185408,3946.9569,N,08404.9839,W,2,12,0.80,298.41,M,-33.324,M,,*7E
2017-12-01 13:54:07 1512154447.470280: $GPRMC,185408,A,3946.9569,N,08404.9839,W,0.0000,0.000,011217,,*33
2017-12-01 13:54:07 1512154447.470341: $GPGSA,A,3,10,14,15,18,20,21,24,27,32,8,12,138,2.0,0.8,1.5*37
2017-12-01 13:54:08 1512154448.398393: $GPZDA,185409.00,01,12,2017,00,00*61
2017-12-01 13:54:08 1512154448.398566: $GPGGA,185409,3946.9569,N,08404.9839,W,2,12,0.80,298.41,M,-33.324,M,,*7F
2017-12-01 13:54:08 1512154448.398634: $GPRMC,185409,A,3946.9569,N,08404.9839,W,0.0000,0.000,011217,,*32
2017-12-01 13:54:08 1512154448.398695: $GPGSA,A,3,10,14,15,18,20,21,24,27,32,8,12,138,2.0,0.8,1.5*37
2017-12-01 13:54:09 1512154449.735137: $GPGSV,3,1,12,10,57,316,50,14,19,243,39,15,21,060,45,18,77,048,43*7A
2017-12-01 13:54:09 1512154449.735372: $GPGSV,3,2,12,20,19,109,45,21,43,181,45,24,52,076,48,27,13,271,34*7D
2017-12-01 13:54:09 1512154449.735444: $GPGSV,3,3,12,32,36,252,43,08,08,306,33,12,01,117,16,138,38,213,46*48
2017-12-01 13:54:09 1512154449.848523: $GPZDA,185410.00,01,12,2017,00,00*69
2017-12-01 13:54:09 1512154449.848695: $GPGGA,185410,3946.9569,N,08404.9839,W,2,12,0.80,298.41,M,-33.324,M,,*77
2017-12-01 13:54:09 1512154449.848764: $GPRMC,185410,A,3946.9569,N,08404.9839,W,0.0000,0.000,011217,,*3A
2017-12-01 13:54:09 1512154449.848826: $GPGSA,A,3,10,14,15,18,20,21,24,27,32,8,12,138,2.0,0.8,1.5*37
2017-12-01 13:54:10 1512154450.399447: $GPZDA,185411.00,01,12,2017,00,00*68
2017-12-01 13:54:10 1512154450.399626: $GPGGA,185411,3946.9569,N,08404.9839,W,2,12,0.80,298.41,M,-33.324,M,,*76
2017-12-01 13:54:10 1512154450.399693: $GPRMC,185411,A,3946.9569,N,08404.9839,W,0.0000,0.000,011217,,*3B
2017-12-01 13:54:10 1512154450.399755: $GPGSA,A,3,10,14,15,18,20,21,24,27,32,8,12,138,2.0,0.8,1.5*37
2017-12-01 13:54:11 1512154451.399060: $GPZDA,185412.00,01,12,2017,00,00*6B
2017-12-01 13:54:11 1512154451.399250: $GPGGA,185412,3946.9569,N,08404.9839,W,2,12,0.80,298.41,M,-33.324,M,,*75
2017-12-01 13:54:11 1512154451.399320: $GPRMC,185412,A,3946.9569,N,08404.9839,W,0.0000,0.000,011217,,*38
2017-12-01 13:54:11 1512154451.399384: $GPGSA,A,3,10,14,15,18,20,21,24,27,32,8,12,138,2.0,0.8,1.5*37
2017-12-01 13:54:12 1512154452.736756: $GPGSV,3,1,12,10,57,316,50,14,19,243,39,15,21,060,45,18,77,048,42*7B
2017-12-01 13:54:12 1512154452.736946: $GPGSV,3,2,12,20,19,109,45,21,43,181,45,24,52,076,48,27,13,271,34*7D
2017-12-01 13:54:12 1512154452.737037: $GPGSV,3,3,12,32,36,252,42,08,08,306,34,12,01,117,17,138,38,213,47*4E
2017-12-01 13:54:12 1512154452.850391: $GPZDA,185413.00,01,12,2017,00,00*6A
2017-12-01 13:54:12 1512154452.850556: $GPGGA,185413,3946.9569,N,08404.9839,W,2,12,0.80,298.41,M,-33.324,M,,*74
2017-12-01 13:54:12 1512154452.850624: $GPRMC,185413,A,3946.9569,N,08404.9839,W,0.0000,0.000,011217,,*39
2017-12-01 13:54:12 1512154452.850688: $GPGSA,A,3,10,14,15,18,20,21,24,27,32,8,12,138,2.0,0.8,1.5*37
2017-12-01 13:54:13 1512154453.399775: $GPZDA,185414.00,01,12,2017,00,00*6D
2017-12-01 13:54:13 1512154453.399934: $GPGGA,185414,3946.9569,N,08404.9839,W,2,12,0.80,298.41,M,-33.324,M,,*73
2017-12-01 13:54:13 1512154453.400004: $GPRMC,185414,A,3946.9569,N,08404.9839,W,0.0000,0.000,011217,,*3E
2017-12-01 13:54:13 1512154453.400087: $GPGSA,A,3,10,14,15,18,20,21,24,27,32,8,12,138,2.0,0.8,1.5*37
2017-12-01 13:54:14 1512154454.399414: $GPZDA,185415.00,01,12,2017,00,00*6C
2017-12-01 13:54:14 1512154454.399602: $GPGGA,185415,3946.9569,N,08404.9839,W,2,12,0.80,298.41,M,-33.324,M,,*72
2017-12-01 13:54:14 1512154454.399675: $GPRMC,185415,A,3946.9569,N,08404.9839,W,0.0000,0.000,011217,,*3F
2017-12-01 13:54:14 1512154454.399740: $GPGSA,A,3,10,14,15,18,20,21,24,27,32,8,12,138,2.0,0.8,1.5*37
2017-12-01 13:54:15 1512154455.758865: $GPGSV,3,1,12,10,57,316,50,14,19,243,39,15,21,060,45,18,77,048,43*7A
2017-12-01 13:54:15 1512154455.759032: $GPGSV,3,2,12,20,19,109,45,21,43,181,45,24,52,076,48,27,13,271,35*7C
2017-12-01 13:54:15 1512154455.759101: $GPGSV,3,3,12,32,36,252,42,08,08,306,37,12,01,117,17,138,38,213,47*4D
2017-12-01 13:54:15 1512154455.872312: $GPZDA,185416.00,01,12,2017,00,00*6F
2017-12-01 13:54:15 1512154455.872484: $GPGGA,185416,3946.9569,N,08404.9839,W,2,12,0.80,298.41,M,-33.324,M,,*71
2017-12-01 13:54:15 1512154455.872553: $GPRMC,185416,A,3946.9569,N,08404.9839,W,0.0000,0.000,011217,,*3C
2017-12-01 13:54:15 1512154455.872616: $GPGSA,A,3,10,14,15,18,20,21,24,27,32,8,12,138,2.0,0.8,1.5*37
2017-12-01 13:54:16 1512154456.423139: $GPZDA,185417.00,01,12,2017,00,00*6E
2017-12-01 13:54:16 1512154456.423317: $GPGGA,185417,3946.9569,N,08404.9839,W,2,12,0.80,298.41,M,-33.324,M,,*70
2017-12-01 13:54:16 1512154456.423387: $GPRMC,185417,A,3946.9569,N,08404.9839,W,0.0000,0.000,011217,,*3D
2017-12-01 13:54:16 1512154456.423452: $GPGSA,A,3,10,14,15,18,20,21,24,27,32,8,12,138,2.0,0.8,1.5*37
