2017-12-01 15:30:37 1512160237.425453: {"class":"VERSION","release":"3.16","rev":"3.16-4","proto_major":3,"proto_minor":11}
2017-12-01 15:30:37 1512160237.426132: {"class":"DEVICES","devices":[{"class":"DEVICE","path":"/dev/ttyUSB0","driver":"SiRF","subtype":"9\u0006GSD4e_4.1.2-P1_RPATCH.05-F-GPS-4R-1510281 11/03/2015 307","activated":"2017-12-01T20:30:37.032Z","flags":1,"native":1,"bps":4800,"parity":"N","stopbits":1,"cycle":1.00}]}
2017-12-01 15:30:37 1512160237.426260: {"class":"WATCH","enable":true,"json":false,"nmea":true,"raw":0,"scaled":false,"timing":false,"split24":false,"pps":false}
2017-12-01 15:30:37 1512160237.635328: $GPZDA,203038.30,01,12,2017,00,00*69
2017-12-01 15:30:37 1512160237.635499: $GPGGA,203038,3946.9557,N,08404.9834,W,1,11,0.80,312.22,M,-33.324,M,,*72
2017-12-01 15:30:37 1512160237.635565: $GPRMC,203038,A,3946.9557,N,08404.9834,W,0.5954,203.949,011217,,*31
2017-12-01 15:30:37 1512160237.635626: $GPGSA,A,3,1,10,11,12,14,18,24,25,31,32,138,,2.0,0.8,1.5*3B
2017-12-01 15:30:37 1512160237.635685: $GPGBS,203038,10.70,M,15.43,M,35.28,M*0D
2017-12-01 15:30:39 1512160239.052579: $GPGSV,3,1,11,01,10,322,20,10,76,120,29,11,10,307,20,12,24,078,27*7A
2017-12-01 15:30:39 1512160239.052732: $GPGSV,3,2,11,14,50,283,25,18,43,130,28,24,19,045,25,25,25,120,28*71
2017-12-01 15:30:39 1512160239.052798: $GPGSV,3,3,11,31,28,210,28,32,65,313,29,138,38,213,10*70
2017-12-01 15:30:39 1512160239.166249: $GPZDA,203038.99,01,12,2017,00,00*6A
2017-12-01 15:30:39 1512160239.166417: $GPGGA,203038,3946.9569,N,08404.9856,W,1,11,0.80,303.22,M,-33.324,M,,*7B
2017-12-01 15:30:39 1512160239.166484: $GPRMC,203038,A,3946.9569,N,08404.9856,W,0.0407,142.014,011217,,*31
2017-12-01 15:30:39 1512160239.166545: $GPGSA,A,3,1,10,11,12,14,18,24,25,31,32,138,,2.0,0.8,1.5*3B
2017-12-01 15:30:39 1512160239.972900: $GPZDA,203040.00,01,12,2017,00,00*65
2017-12-01 15:30:39 1512160239.973071: $GPGGA,203040,3946.9574,N,08404.9866,W,1,11,0.80,297.32,M,-33.324,M,,*76
2017-12-01 15:30:39 1512160239.973138: $GPRMC,203040,A,3946.9574,N,08404.9866,W,0.2172,265.763,011217,,*35
2017-12-01 15:30:39 1512160239.973200: $GPGSA,A,3,1,10,11,12,14,18,24,25,31,32,138,,2.0,0.8,1.5*3B
2017-12-01 15:30:39 1512160239.973259: $GPGBS,203040,10.70,M,15.43,M,35.28,M*02
2017-12-01 15:30:40 1512160240.429646: $GPZDA,203041.00,01,12,2017,00,00*64
2017-12-01 15:30:40 1512160240.429821: $GPGGA,203041,3946.9580,N,08404.9863,W,1,11,0.80,292.99,M,-33.324,M,,*7D
2017-12-01 15:30:40 1512160240.429889: $GPRMC,203041,A,3946.9580,N,08404.9863,W,0.0407,142.014,011217,,*3E
2017-12-01 15:30:40 1512160240.429951: $GPGSA,A,3,1,10,11,12,14,18,24,25,31,32,138,,2.0,0.8,1.5*3B
2017-12-01 15:30:40 1512160240.430011: $GPGBS,203041,10.70,M,15.43,M,35.28,M*03
2017-12-01 15:30:41 1512160241.764075: $GPGSV,3,1,11,01,10,322,33,10,76,120,47,11,10,307,35,12,24,078,45*70
2017-12-01 15:30:41 1512160241.764268: $GPGSV,3,2,11,14,50,283,42,18,43,130,47,24,19,045,43,25,25,120,46*71
2017-12-01 15:30:41 1512160241.764338: $GPGSV,3,3,11,31,28,210,47,32,65,313,49,138,38,213,46*7C
2017-12-01 15:30:41 1512160241.877498: $GPZDA,203042.00,01,12,2017,00,00*67
2017-12-01 15:30:41 1512160241.877628: $GPGGA,203042,3946.9584,N,08404.9863,W,1,11,0.80,293.63,M,-33.324,M,,*7E
2017-12-01 15:30:41 1512160241.877695: $GPRMC,203042,A,3946.9584,N,08404.9863,W,0.0000,0.000,011217,,*38
2017-12-01 15:30:41 1512160241.877758: $GPGSA,A,3,1,10,11,12,14,18,24,25,31,32,138,,2.0,0.8,1.5*3B
2017-12-01 15:30:42 1512160242.503380: $GPZDA,203043.00,01,12,2017,00,00*66
2017-12-01 15:30:42 1512160242.503559: $GPGGA,203043,3946.9584,N,08404.9857,W,1,11,0.80,293.71,M,-33.324,M,,*7B
2017-12-01 15:30:42 1512160242.503630: $GPRMC,203043,A,3946.9584,N,08404.9857,W,0.0000,0.000,011217,,*3E
2017-12-01 15:30:42 1512160242.503695: $GPGSA,A,3,1,10,11,12,14,18,24,25,31,32,138,,2.0,0.8,1.5*3B
2017-12-01 15:30:43 1512160243.427742: $GPZDA,203044.00,01,12,2017,00,00*61
2017-12-01 15:30:43 1512160243.427917: $GPGGA,203044,3946.9580,N,08404.9857,W,1,11,0.80,294.47,M,-33.324,M,,*7A
2017-12-01 15:30:43 1512160243.427989: $GPRMC,203044,A,3946.9580,N,08404.9857,W,0.0000,0.000,011217,,*3D
2017-12-01 15:30:43 1512160243.428104: $GPGSA,A,3,1,10,11,12,14,18,24,25,31,32,138,,2.0,0.8,1.5*3B
2017-12-01 15:30:43 1512160243.428165: $GPGBS,203044,10.70,M,15.43,M,35.28,M*06
2017-12-01 15:30:44 1512160244.764536: $GPGSV,3,1,11,01,10,322,32,10,76,120,47,11,10,307,34,12,24,078,44*71
2017-12-01 15:30:44 1512160244.764750: $GPGSV,3,2,11,14,50,283,43,18,43,130,48,24,19,045,44,25,25,120,46*78
2017-12-01 15:30:44 1512160244.764817: $GPGSV,3,3,11,31,28,210,47,32,65,313,49,138,38,213,46*7C
2017-12-01 15:30:44 1512160244.877858: $GPZDA,203045.00,01,12,2017,00,00*60
2017-12-01 15:30:44 1512160244.878053: $GPGGA,203045,3946.9580,N,08404.9857,W,1,11,0.80,294.47,M,-33.324,M,,*7B
2017-12-01 15:30:44 1512160244.878143: $GPRMC,203045,A,3946.9580,N,08404.9857,W,0.0000,0.000,011217,,*3C
2017-12-01 15:30:44 1512160244.878208: $GPGSA,A,3,1,10,11,12,14,18,24,25,31,32,138,,2.0,0.8,1.5*3B
2017-12-01 15:30:45 1512160245.428736: $GPZDA,203046.00,01,12,2017,00,00*63
2017-12-01 15:30:45 1512160245.428909: $GPGGA,203046,3946.9580,N,08404.9857,W,1,11,0.80,294.47,M,-33.324,M,,*78
2017-12-01 15:30:45 1512160245.428977: $GPRMC,203046,A,3946.9580,N,08404.9857,W,0.0000,0.000,011217,,*3F
2017-12-01 15:30:45 1512160245.429038: $GPGSA,A,3,1,10,11,12,14,18,24,25,31,32,138,,2.0,0.8,1.5*3B
2017-12-01 15:30:46 1512160246.428684: $GPZDA,203047.00,01,12,2017,00,00*62
2017-12-01 15:30:46 1512160246.428855: $GPGGA,203047,3946.9580,N,08404.9857,W,2,11,1.00,294.47,M,-33.324,M,,*73
2017-12-01 15:30:46 1512160246.428923: $GPRMC,203047,A,3946.9580,N,08404.9857,W,0.0000,0.000,011217,,*3E
2017-12-01 15:30:46 1512160246.428986: $GPGSA,A,3,1,10,11,12,14,18,24,25,31,32,138,,2.0,1.0,1.5*32
2017-12-01 15:30:47 1512160247.764775: $GPGSV,3,1,11,01,10,322,32,10,76,120,47,11,10,307,34,12,24,078,44*71
2017-12-01 15:30:47 1512160247.764960: $GPGSV,3,2,11,14,50,283,43,18,43,130,47,24,19,045,44,25,25,120,46*77
2017-12-01 15:30:47 1512160247.765027: $GPGSV,3,3,11,31,28,210,47,32,65,313,49,138,38,213,45*7F
2017-12-01 15:30:47 1512160247.878143: $GPZDA,203048.00,01,12,2017,00,00*6D
2017-12-01 15:30:47 1512160247.878287: $GPGGA,203048,3946.9580,N,08404.9857,W,2,11,0.80,294.47,M,-33.324,M,,*75
2017-12-01 15:30:47 1512160247.878356: $GPRMC,203048,A,3946.9580,N,08404.9857,W,0.0000,0.000,011217,,*31
2017-12-01 15:30:47 1512160247.878416: $GPGSA,A,3,1,10,11,12,14,18,24,25,31,32,138,,2.0,0.8,1.5*3B
2017-12-01 15:30:48 1512160248.431979: $GPZDA,203049.00,01,12,2017,00,00*6C
2017-12-01 15:30:48 1512160248.432114: $GPGGA,203049,3946.9580,N,08404.9863,W,2,11,0.80,292.99,M,-33.324,M,,*76
2017-12-01 15:30:48 1512160248.432180: $GPRMC,203049,A,3946.9580,N,08404.9863,W,0.2422,93.794,011217,,*01
2017-12-01 15:30:48 1512160248.432243: $GPGSA,A,3,1,10,11,12,14,18,24,25,31,32,138,,2.0,0.8,1.5*3B
2017-12-01 15:30:49 1512160249.431151: $GPZDA,203050.00,01,12,2017,00,00*64
2017-12-01 15:30:49 1512160249.431333: $GPGGA,203050,3946.9579,N,08404.9857,W,2,11,0.80,293.07,M,-33.324,M,,*79
2017-12-01 15:30:49 1512160249.431465: $GPRMC,203050,A,3946.9579,N,08404.9857,W,0.0000,0.000,011217,,*3E
2017-12-01 15:30:49 1512160249.431530: $GPGSA,A,3,1,10,11,12,14,18,24,25,31,32,138,,2.0,0.8,1.5*3B
2017-12-01 15:30:50 1512160250.763202: $GPGSV,3,1,11,01,10,322,33,10,76,120,47,11,10,307,34,12,24,078,44*70
2017-12-01 15:30:50 1512160250.763384: $GPGSV,3,2,11,14,50,283,43,18,43,130,47,24,19,045,44,25,25,120,46*77
2017-12-01 15:30:50 1512160250.763453: $GPGSV,3,3,11,31,28,210,47,32,65,313,49,138,38,213,46*7C
2017-12-01 15:30:50 1512160250.876762: $GPZDA,203051.00,01,12,2017,00,00*65
2017-12-01 15:30:50 1512160250.876945: $GPGGA,203051,3946.9584,N,08404.9857,W,2,11,0.80,293.71,M,-33.324,M,,*7B
2017-12-01 15:30:50 1512160250.877012: $GPRMC,203051,A,3946.9584,N,08404.9857,W,0.0000,0.000,011217,,*3D
2017-12-01 15:30:50 1512160250.877075: $GPGSA,A,3,1,10,11,12,14,18,24,25,31,32,138,,2.0,0.8,1.5*3B
2017-12-01 15:30:51 1512160251.432871: $GPZDA,203052.00,01,12,2017,00,00*66
2017-12-01 15:30:51 1512160251.433042: $GPGGA,203052,3946.9584,N,08404.9857,W,2,11,0.80,293.71,M,-33.324,M,,*78
2017-12-01 15:30:51 1512160251.433159: $GPRMC,203052,A,3946.9584,N,08404.9857,W,0.0000,0.000,011217,,*3E
2017-12-01 15:30:51 1512160251.433223: $GPGSA,A,3,1,10,11,12,14,18,24,25,31,32,138,,2.0,0.8,1.5*3B
2017-12-01 15:30:52 1512160252.442799: $GPZDA,203053.00,01,12,2017,00,00*67
2017-12-01 15:30:52 1512160252.442970: $GPGGA,203053,3946.9584,N,08404.9857,W,2,11,0.80,293.71,M,-33.324,M,,*79
2017-12-01 15:30:52 1512160252.443037: $GPRMC,203053,A,3946.9584,N,08404.9857,W,0.0000,0.000,011217,,*3F
2017-12-01 15:30:52 1512160252.443100: $GPGSA,A,3,1,10,11,12,14,18,24,25,31,32,138,,2.0,0.8,1.5*3B
2017-12-01 15:30:53 1512160253.769836: $GPGSV,3,1,11,01,10,322,38,10,76,120,48,11,10,307,33,12,24,078,44*73
2017-12-01 15:30:53 1512160253.770019: $GPGSV,3,2,11,14,50,283,43,18,43,130,48,24,19,045,45,25,25,120,46*79
2017-12-01 15:30:53 1512160253.770108: $GPGSV,3,3,11,31,28,210,47,32,65,313,48,138,38,213,46*7D
2017-12-01 15:30:53 1512160253.883210: $GPZDA,203054.00,01,12,2017,00,00*60
2017-12-01 15:30:53 1512160253.883362: $GPGGA,203054,3946.9584,N,08404.9857,W,2,11,0.80,293.71,M,-33.324,M,,*7E
2017-12-01 15:30:53 1512160253.883449: $GPRMC,203054,A,3946.9584,N,08404.9857,W,0.0000,0.000,011217,,*38
2017-12-01 15:30:53 1512160253.883512: $GPGSA,A,3,1,10,11,12,14,18,24,25,31,32,138,,2.0,0.8,1.5*3B
2017-12-01 15:30:54 1512160254.432889: $GPZDA,203055.00,01,12,2017,00,00*61
2017-12-01 15:30:54 1512160254.433054: $GPGGA,203055,3946.9584,N,08404.9857,W,2,11,0.80,293.71,M,-33.324,M,,*7F
2017-12-01 15:30:54 1512160254.433123: $GPRMC,203055,A,3946.9584,N,08404.9857,W,0.0000,0.000,011217,,*39
2017-12-01 15:30:54 1512160254.433184: $GPGSA,A,3,1,10,11,12,14,18,24,25,31,32,138,,2.0,0.8,1.5*3B
2017-12-01 15:30:55 1512160255.434860: $GPZDA,203056.00,01,12,2017,00,00*62
2017-12-01 15:30:55 1512160255.435035: $GPGGA,203056,3946.9584,N,08404.9857,W,2,11,0.80,293.71,M,-33.324,M,,*7C
2017-12-01 15:30:55 1512160255.435103: $GPRMC,203056,A,3946.9584,N,08404.9857,W,0.0000,0.000,011217,,*3A
2017-12-01 15:30:55 1512160255.435164: $GPGSA,A,3,1,10,11,12,14,18,24,25,31,32,138,,2.0,0.8,1.5*3B
2017-12-01 15:30:55 1512160255.435222: $GPGBS,203056,2.67,M,3.86,M,8.82,M*30
2017-12-01 15:30:56 1512160256.778003: $GPGSV,3,1,11,01,10,322,36,10,76,120,48,11,10,307,00,12,24,078,45*7C
2017-12-01 15:30:56 1512160256.778160: $GPGSV,3,2,11,14,50,283,43,18,43,130,47,24,19,045,45,25,25,120,46*76
2017-12-01 15:30:56 1512160256.778227: $GPGSV,3,3,11,31,28,210,47,32,65,313,49,138,38,213,45*7F
2017-12-01 15:30:56 1512160256.891496: $GPZDA,203057.00,01,12,2017,00,00*63
2017-12-01 15:30:56 1512160256.891692: $GPGGA,203057,3946.9584,N,08404.9857,W,2,10,0.80,293.71,M,-33.324,M,,*7C
2017-12-01 15:30:56 1512160256.891758: $GPRMC,203057,A,3946.9584,N,08404.9857,W,0.0000,0.000,011217,,*3B
2017-12-01 15:30:56 1512160256.891820: $GPGSA,A,3,1,10,12,14,18,24,25,31,32,138,,,2.0,0.8,1.5*3B
