2017-11-16 13:18:36 1510856316.066191: {"class":"VERSION","release":"3.17","rev":"3.17","proto_major":3,"proto_minor":12}
2017-11-16 13:18:36 1510856316.066636: {"class":"DEVICES","devices":[{"class":"DEVICE","path":"/dev/ttyUSB0","driver":"SiRF","subtype":"9\u0006GSD4e_4.1.2-P1_RPATCH.05-F-GPS-4R-1510281 11/03/2015 307","activated":"2017-11-16T18:18:35.436Z","flags":1,"native":1,"bps":4800,"parity":"N","stopbits":1,"cycle":1.00}]}
2017-11-16 13:18:36 1510856316.066745: {"class":"WATCH","enable":true,"json":false,"nmea":true,"raw":0,"scaled":false,"timing":false,"split24":false,"pps":false}
2017-11-16 13:18:36 1510856316.643682: $GPGSV,3,1,11,10,22,282,42,13,30,045,46,15,62,052,50,18,53,298,45*79
2017-11-16 13:18:36 1510856316.643850: $GPGSV,3,2,11,20,52,070,47,21,77,276,47,24,32,139,40,27,16,313,43*76
2017-11-16 13:18:36 1510856316.643910: $GPGSV,3,3,11,05,05,087,13,29,10,189,00,138,38,213,45*7E
2017-11-16 13:18:36 1510856316.757299: $GPZDA,181835.00,16,11,2017,00,00*63
2017-11-16 13:18:36 1510856316.757452: $GPGGA,181835,3946.9590,N,08404.9845,W,2,10,1.00,300.12,M,-33.324,M,,*78
2017-11-16 13:18:36 1510856316.757513: $GPRMC,181835,A,3946.9590,N,08404.9845,W,0.0000,0.000,161117,,*3D
2017-11-16 13:18:36 1510856316.757569: $GPGSA,A,3,10,13,15,18,20,21,24,27,5,138,,,1.6,1.0,1.3*35
2017-11-16 13:18:37 1510856317.314355: $GPZDA,181836.00,16,11,2017,00,00*60
2017-11-16 13:18:37 1510856317.314514: $GPGGA,181836,3946.9590,N,08404.9845,W,2,10,0.80,300.12,M,-33.324,M,,*72
2017-11-16 13:18:37 1510856317.314575: $GPRMC,181836,A,3946.9590,N,08404.9845,W,0.0000,0.000,161117,,*3E
2017-11-16 13:18:37 1510856317.314631: $GPGSA,A,3,10,13,15,18,20,21,24,27,5,138,,,1.6,0.8,1.3*3C
2017-11-16 13:18:38 1510856318.296172: $GPZDA,181837.00,16,11,2017,00,00*61
2017-11-16 13:18:38 1510856318.296339: $GPGGA,181837,3946.9590,N,08404.9845,W,2,10,0.80,300.12,M,-33.324,M,,*73
2017-11-16 13:18:38 1510856318.296400: $GPRMC,181837,A,3946.9590,N,08404.9845,W,0.0000,0.000,161117,,*3F
2017-11-16 13:18:38 1510856318.296455: $GPGSA,A,3,10,13,15,18,20,21,24,27,5,138,,,1.6,0.8,1.3*3C
2017-11-16 13:18:39 1510856319.628117: $GPGSV,3,1,11,10,22,282,43,13,30,045,46,15,62,052,50,18,53,298,45*78
2017-11-16 13:18:39 1510856319.628283: $GPGSV,3,2,11,20,52,070,47,21,77,276,47,24,32,139,40,27,16,313,43*76
2017-11-16 13:18:39 1510856319.628343: $GPGSV,3,3,11,05,05,087,13,29,10,189,25,138,38,213,45*79
2017-11-16 13:18:39 1510856319.741827: $GPZDA,181838.00,16,11,2017,00,00*6E
2017-11-16 13:18:39 1510856319.741959: $GPGGA,181838,3946.9590,N,08404.9845,W,2,11,0.80,300.12,M,-33.324,M,,*7D
2017-11-16 13:18:39 1510856319.742016: $GPRMC,181838,A,3946.9590,N,08404.9845,W,0.0000,0.000,161117,,*30
2017-11-16 13:18:39 1510856319.742071: $GPGSA,A,3,10,13,15,18,20,21,24,27,5,29,138,,1.6,0.8,1.3*37
2017-11-16 13:18:40 1510856320.367111: $GPZDA,181839.00,16,11,2017,00,00*6F
2017-11-16 13:18:40 1510856320.367271: $GPGGA,181839,3946.9590,N,08404.9845,W,2,11,1.00,300.12,M,-33.324,M,,*75
2017-11-16 13:18:40 1510856320.367332: $GPRMC,181839,A,3946.9590,N,08404.9845,W,0.0000,0.000,161117,,*31
2017-11-16 13:18:40 1510856320.367387: $GPGSA,A,3,10,13,15,18,20,21,24,27,5,29,138,,1.6,1.0,1.3*3E
2017-11-16 13:18:41 1510856321.294217: $GPZDA,181840.00,16,11,2017,00,00*61
2017-11-16 13:18:41 1510856321.294363: $GPGGA,181840,3946.9590,N,08404.9845,W,2,11,0.80,300.12,M,-33.324,M,,*72
2017-11-16 13:18:41 1510856321.294424: $GPRMC,181840,A,3946.9590,N,08404.9845,W,0.0000,0.000,161117,,*3F
2017-11-16 13:18:41 1510856321.294479: $GPGSA,A,3,10,13,15,18,20,21,24,27,5,29,138,,1.6,0.8,1.3*37
2017-11-16 13:18:42 1510856322.628418: $GPGSV,3,1,11,10,22,282,42,13,30,045,46,15,62,052,50,18,53,298,45*79
2017-11-16 13:18:42 1510856322.628590: $GPGSV,3,2,11,20,52,070,47,21,77,276,47,24,32,139,40,27,16,313,43*76
2017-11-16 13:18:42 1510856322.628649: $GPGSV,3,3,11,05,05,087,13,29,10,189,25,138,38,213,44*78
2017-11-16 13:18:42 1510856322.741683: $GPZDA,181841.00,16,11,2017,00,00*60
2017-11-16 13:18:42 1510856322.741842: $GPGGA,181841,3946.9590,N,08404.9845,W,2,11,0.80,300.12,M,-33.324,M,,*73
2017-11-16 13:18:42 1510856322.741954: $GPRMC,181841,A,3946.9590,N,08404.9845,W,0.0000,0.000,161117,,*3E
2017-11-16 13:18:42 1510856322.742011: $GPGSA,A,3,10,13,15,18,20,21,24,27,5,29,138,,1.6,0.8,1.3*37
2017-11-16 13:18:43 1510856323.293778: $GPZDA,181842.00,16,11,2017,00,00*63
2017-11-16 13:18:43 1510856323.293948: $GPGGA,181842,3946.9590,N,08404.9845,W,2,11,0.80,300.12,M,-33.324,M,,*70
2017-11-16 13:18:43 1510856323.294032: $GPRMC,181842,A,3946.9590,N,08404.9845,W,0.0000,0.000,161117,,*3D
2017-11-16 13:18:43 1510856323.294091: $GPGSA,A,3,10,13,15,18,20,21,24,27,5,29,138,,1.6,0.8,1.3*37
2017-11-16 13:18:44 1510856324.292100: $GPZDA,181843.00,16,11,2017,00,00*62
2017-11-16 13:18:44 1510856324.292263: $GPGGA,181843,3946.9590,N,08404.9845,W,2,11,0.80,300.12,M,-33.324,M,,*71
2017-11-16 13:18:44 1510856324.292324: $GPRMC,181843,A,3946.9590,N,08404.9845,W,0.0000,0.000,161117,,*3C
2017-11-16 13:18:44 1510856324.292381: $GPGSA,A,3,10,13,15,18,20,21,24,27,5,29,138,,1.6,0.8,1.3*37
2017-11-16 13:18:45 1510856325.628565: $GPGSV,3,1,11,10,22,282,42,13,30,045,46,15,62,052,50,18,53,298,46*7A
2017-11-16 13:18:45 1510856325.628730: $GPGSV,3,2,11,20,52,070,47,21,77,276,47,24,32,139,40,27,16,313,43*76
2017-11-16 13:18:45 1510856325.628790: $GPGSV,3,3,11,05,05,087,15,29,10,189,26,138,38,213,45*7C
2017-11-16 13:18:45 1510856325.741977: $GPZDA,181844.00,16,11,2017,00,00*65
2017-11-16 13:18:45 1510856325.742137: $GPGGA,181844,3946.9590,N,08404.9845,W,2,11,0.80,300.12,M,-33.324,M,,*76
2017-11-16 13:18:45 1510856325.742198: $GPRMC,181844,A,3946.9590,N,08404.9845,W,0.0000,0.000,161117,,*3B
2017-11-16 13:18:45 1510856325.742255: $GPGSA,A,3,10,13,15,18,20,21,24,27,5,29,138,,1.6,0.8,1.3*37
