2017-11-16 15:12:53 1510863173.757170: {"class":"VERSION","release":"3.17","rev":"3.17","proto_major":3,"proto_minor":12}
2017-11-16 15:12:53 1510863173.757638: {"class":"DEVICES","devices":[{"class":"DEVICE","path":"/dev/ttyUSB0","driver":"SiRF","subtype":"9\u0006GSD4e_4.1.2-P1_RPATCH.05-F-GPS-4R-1510281 11/03/2015 307","activated":"2017-11-16T20:12:53.542Z","flags":1,"native":1,"bps":4800,"parity":"N","stopbits":1,"cycle":1.00}]}
2017-11-16 15:12:53 1510863173.757761: {"class":"WATCH","enable":true,"json":false,"nmea":true,"raw":0,"scaled":false,"timing":false,"split24":false,"pps":false}
2017-11-16 15:12:54 1510863174.384255: $GPZDA,201253.00,16,11,2017,00,00*62
2017-11-16 15:12:54 1510863174.384411: $GPGGA,201253,3946.9579,N,08404.9847,W,2,12,0.80,301.01,M,-33.324,M,,*74
2017-11-16 15:12:54 1510863174.384471: $GPRMC,201253,A,3946.9579,N,08404.9847,W,0.0000,0.000,161117,,*39
2017-11-16 15:12:54 1510863174.384526: $GPGSA,A,3,8,10,14,15,18,20,21,24,27,32,12,138,1.6,0.8,1.3*34
2017-11-16 15:12:56 1510863176.236676: $GPGSV,3,1,12,08,07,298,38,10,64,324,50,14,25,249,45,15,15,064,36*77
2017-11-16 15:12:56 1510863176.236839: $GPGSV,3,2,12,18,74,079,46,20,12,115,32,21,35,180,44,24,48,064,48*70
2017-11-16 15:12:56 1510863176.236899: $GPGSV,3,3,12,27,09,264,40,32,42,259,47,12,06,111,30,138,38,213,44*4E
2017-11-16 15:12:56 1510863176.349986: $GPZDA,201254.00,16,11,2017,00,00*65
2017-11-16 15:12:56 1510863176.350151: $GPGGA,201254,3946.9579,N,08404.9847,W,2,12,0.80,301.01,M,-33.324,M,,*73
2017-11-16 15:12:56 1510863176.350211: $GPRMC,201254,A,3946.9579,N,08404.9847,W,0.0000,0.000,161117,,*3E
2017-11-16 15:12:56 1510863176.350268: $GPGSA,A,3,8,10,14,15,18,20,21,24,27,32,12,138,1.6,0.8,1.3*34
2017-11-16 15:12:56 1510863176.975409: $GPZDA,201255.00,16,11,2017,00,00*64
2017-11-16 15:12:56 1510863176.975568: $GPGGA,201255,3946.9579,N,08404.9847,W,2,12,0.80,301.01,M,-33.324,M,,*72
2017-11-16 15:12:56 1510863176.975628: $GPRMC,201255,A,3946.9579,N,08404.9847,W,0.0000,0.000,161117,,*3F
2017-11-16 15:12:56 1510863176.975684: $GPGSA,A,3,8,10,14,15,18,20,21,24,27,32,12,138,1.6,0.8,1.3*34
2017-11-16 15:12:57 1510863177.426181: $GPZDA,201256.00,16,11,2017,00,00*67
2017-11-16 15:12:57 1510863177.426347: $GPGGA,201256,3946.9579,N,08404.9847,W,2,12,0.80,301.01,M,-33.324,M,,*71
2017-11-16 15:12:57 1510863177.426409: $GPRMC,201256,A,3946.9579,N,08404.9847,W,0.0000,0.000,161117,,*3C
2017-11-16 15:12:57 1510863177.426466: $GPGSA,A,3,8,10,14,15,18,20,21,24,27,32,12,138,1.6,0.8,1.3*34
2017-11-16 15:12:58 1510863178.719516: $GPGSV,3,1,12,08,07,298,36,10,64,324,50,14,25,249,45,15,15,064,36*79
2017-11-16 15:12:58 1510863178.719675: $GPGSV,3,2,12,18,74,079,46,20,12,115,31,21,35,180,45,24,48,064,48*72
2017-11-16 15:12:58 1510863178.719735: $GPGSV,3,3,12,27,09,264,40,32,42,259,46,12,06,111,30,138,38,213,43*48
2017-11-16 15:12:58 1510863178.832821: $GPZDA,201257.00,16,11,2017,00,00*66
2017-11-16 15:12:58 1510863178.833002: $GPGGA,201257,3946.9575,N,08404.9848,W,2,12,0.80,301.77,M,-33.324,M,,*72
2017-11-16 15:12:58 1510863178.833064: $GPRMC,201257,A,3946.9575,N,08404.9848,W,0.0000,0.000,161117,,*3E
2017-11-16 15:12:58 1510863178.833119: $GPGSA,A,3,8,10,14,15,18,20,21,24,27,32,12,138,1.6,0.8,1.3*34
2017-11-16 15:12:59 1510863179.383608: $GPZDA,201258.00,16,11,2017,00,00*69
2017-11-16 15:12:59 1510863179.383777: $GPGGA,201258,3946.9579,N,08404.9847,W,2,12,0.80,301.01,M,-33.324,M,,*7F
2017-11-16 15:12:59 1510863179.383837: $GPRMC,201258,A,3946.9579,N,08404.9847,W,0.0000,0.000,161117,,*32
2017-11-16 15:12:59 1510863179.383893: $GPGSA,A,3,8,10,14,15,18,20,21,24,27,32,12,138,1.6,0.8,1.3*34
2017-11-16 15:13:00 1510863180.402033: $GPZDA,201259.00,16,11,2017,00,00*68
2017-11-16 15:13:01 1510863181.069902: $GPGGA,201259,3946.9579,N,08404.9847,W,2,12,0.80,301.01,M,-33.324,M,,*7E
2017-11-16 15:13:01 1510863181.070054: $GPRMC,201259,A,3946.9579,N,08404.9847,W,0.0000,0.000,161117,,*33
2017-11-16 15:13:01 1510863181.070116: $GPGSA,A,3,8,10,14,15,18,20,21,24,27,32,12,138,1.6,0.8,1.3*34
2017-11-16 15:13:01 1510863181.739696: $GPGSV,3,1,12,08,07,298,32,10,64,324,50,14,25,249,45,15,15,064,36*7D
2017-11-16 15:13:01 1510863181.739905: $GPGSV,3,2,12,18,74,079,46,20,12,115,31,21,35,180,44,24,48,064,48*73
2017-11-16 15:13:01 1510863181.739967: $GPGSV,3,3,12,27,09,264,41,32,42,259,46,12,06,111,20,138,38,213,44*4F
2017-11-16 15:13:01 1510863181.853435: $GPZDA,201300.00,16,11,2017,00,00*65
2017-11-16 15:13:01 1510863181.853603: $GPGGA,201300,3946.9579,N,08404.9847,W,2,12,0.80,301.01,M,-33.324,M,,*73
2017-11-16 15:13:01 1510863181.853663: $GPRMC,201300,A,3946.9579,N,08404.9847,W,0.0000,0.000,161117,,*3E
2017-11-16 15:13:01 1510863181.853719: $GPGSA,A,3,8,10,14,15,18,20,21,24,27,32,12,138,1.6,0.8,1.3*34
2017-11-16 15:13:02 1510863182.384191: $GPZDA,201301.00,16,11,2017,00,00*64
2017-11-16 15:13:02 1510863182.384351: $GPGGA,201301,3946.9579,N,08404.9847,W,2,12,0.80,301.01,M,-33.324,M,,*72
2017-11-16 15:13:02 1510863182.384413: $GPRMC,201301,A,3946.9579,N,08404.9847,W,0.0000,0.000,161117,,*3F
2017-11-16 15:13:02 1510863182.384469: $GPGSA,A,3,8,10,14,15,18,20,21,24,27,32,12,138,1.6,0.8,1.3*34
2017-11-16 15:13:03 1510863183.401341: $GPZDA,201302.00,16,11,2017,00,00*67
2017-11-16 15:13:03 1510863183.401504: $GPGGA,201302,3946.9579,N,08404.9847,W,2,12,0.80,301.01,M,-33.324,M,,*71
2017-11-16 15:13:03 1510863183.401565: $GPRMC,201302,A,3946.9579,N,08404.9847,W,0.0000,0.000,161117,,*3C
2017-11-16 15:13:03 1510863183.401621: $GPGSA,A,3,8,10,14,15,18,20,21,24,27,32,12,138,1.6,0.8,1.3*34
