2017-12-14 12:16:47 1513271807.652607: {"class":"VERSION","release":"3.16","rev":"3.16-4","proto_major":3,"proto_minor":11}
2017-12-14 12:16:47 1513271807.652981: {"class":"DEVICES","devices":[{"class":"DEVICE","path":"/dev/ttyUSB0","driver":"SiRF","subtype":"9\u0006GSD4e_4.1.2-P1_RPATCH.05-F-GPS-4R-1510281 11/03/2015 307","activated":"2017-12-14T17:16:47.373Z","flags":1,"native":1,"bps":4800,"parity":"N","stopbits":1,"cycle":1.00}]}
2017-12-14 12:16:47 1513271807.653098: {"class":"WATCH","enable":true,"json":false,"nmea":true,"raw":0,"scaled":false,"timing":false,"split24":false,"pps":false}
2017-12-14 12:16:48 1513271808.217753: $GPZDA,171649.00,14,12,2017,00,00*68
2017-12-14 12:16:48 1513271808.217930: $GPGGA,171649,3946.9695,N,08404.9320,W,1,08,1.40,372.17,M,-33.324,M,,*72
2017-12-14 12:16:48 1513271808.217996: $GPRMC,171649,A,3946.9695,N,08404.9320,W,0.2422,93.795,141217,,*0F
2017-12-14 12:16:48 1513271808.218058: $GPGSA,A,3,10,15,24,21,27,32,8,18,,,,,6.6,1.4,6.2*06
2017-12-14 12:16:49 1513271809.571514: $GPGSV,3,1,12,10,41,300,17,15,38,052,18,20,35,094,13,24,50,112,28*78
2017-12-14 12:16:49 1513271809.571675: $GPGSV,3,2,12,21,64,189,29,27,19,291,11,32,20,237,13,08,05,322,08*77
2017-12-14 12:16:49 1513271809.571739: $GPGSV,3,3,12,13,08,048,00,18,71,336,16,14,03,232,00,120,07,103,00*41
2017-12-14 12:16:49 1513271809.684950: $GPZDA,171650.00,14,12,2017,00,00*60
2017-12-14 12:16:49 1513271809.685148: $GPGGA,171650,3946.9690,N,08404.9313,W,1,09,1.20,371.61,M,-33.324,M,,*7A
2017-12-14 12:16:49 1513271809.685219: $GPRMC,171650,A,3946.9690,N,08404.9313,W,0.5912,129.173,141217,,*35
2017-12-14 12:16:49 1513271809.685284: $GPGSA,A,3,10,15,20,24,21,27,32,8,18,,,,6.6,1.2,6.2*02
2017-12-14 12:16:50 1513271810.233336: $GPZDA,171651.00,14,12,2017,00,00*61
2017-12-14 12:16:50 1513271810.233534: $GPGGA,171651,3946.9689,N,08404.9313,W,1,09,1.40,370.20,M,-33.324,M,,*71
2017-12-14 12:16:50 1513271810.233607: $GPRMC,171651,A,3946.9689,N,08404.9313,W,0.5857,158.291,141217,,*35
2017-12-14 12:16:50 1513271810.233670: $GPGSA,A,3,10,15,20,24,21,27,32,8,18,,,,6.6,1.4,6.2*04
2017-12-14 12:16:51 1513271811.217221: $GPZDA,171652.00,14,12,2017,00,00*62
2017-12-14 12:16:51 1513271811.217427: $GPGGA,171652,3946.9685,N,08404.9313,W,1,09,1.40,369.56,M,-33.324,M,,*77
2017-12-14 12:16:51 1513271811.217498: $GPRMC,171652,A,3946.9685,N,08404.9313,W,0.5287,182.716,141217,,*30
2017-12-14 12:16:51 1513271811.217562: $GPGSA,A,3,10,15,20,24,21,27,32,8,18,,,,6.6,1.4,6.2*04
2017-12-14 12:16:52 1513271812.569657: $GPGSV,3,1,12,10,41,300,17,15,38,052,18,20,35,094,04,24,50,112,27*71
2017-12-14 12:16:52 1513271812.569829: $GPGSV,3,2,12,21,64,189,29,27,19,291,09,32,20,237,13,08,05,322,07*71
2017-12-14 12:16:52 1513271812.569895: $GPGSV,3,3,12,14,03,232,07,18,71,336,16,13,08,048,00,120,07,103,00*46
2017-12-14 12:16:52 1513271812.683163: $GPZDA,171653.00,14,12,2017,00,00*63
2017-12-14 12:16:52 1513271812.683326: $GPGGA,171653,3946.9681,N,08404.9313,W,1,08,1.40,368.92,M,-33.324,M,,*7A
2017-12-14 12:16:52 1513271812.683393: $GPRMC,171653,A,3946.9681,N,08404.9313,W,0.5857,158.291,141217,,*3F
2017-12-14 12:16:52 1513271812.683458: $GPGSA,A,3,10,15,24,21,27,32,8,18,,,,,6.6,1.4,6.2*06
2017-12-14 12:16:53 1513271813.233165: $GPZDA,171654.00,14,12,2017,00,00*64
2017-12-14 12:16:53 1513271813.233337: $GPGGA,171654,3946.9677,N,08404.9313,W,1,08,1.40,368.28,M,-33.324,M,,*75
2017-12-14 12:16:53 1513271813.233408: $GPRMC,171654,A,3946.9677,N,08404.9313,W,0.5774,207.515,141217,,*3D
2017-12-14 12:16:53 1513271813.233469: $GPGSA,A,3,10,15,24,21,27,32,8,18,,,,,6.6,1.4,6.2*06
2017-12-14 12:16:54 1513271814.716639: $GPZDA,171655.00,14,12,2017,00,00*65
2017-12-14 12:16:54 1513271814.716828: $GPGGA,171655,3946.9676,N,08404.9312,W,1,08,1.40,366.88,M,-33.324,M,,*70
2017-12-14 12:16:54 1513271814.716895: $GPRMC,171655,A,3946.9676,N,08404.9312,W,0.3423,184.197,141217,,*3D
2017-12-14 12:16:54 1513271814.716956: $GPGSA,A,3,10,15,24,21,27,32,8,18,,,,,6.6,1.4,6.2*06
2017-12-14 12:16:55 1513271815.568520: $GPGSV,3,1,12,10,41,301,16,15,38,052,19,20,34,094,04,24,50,111,27*72
2017-12-14 12:16:55 1513271815.568724: $GPGSV,3,2,12,21,63,189,29,27,19,289,08,32,21,238,15,08,05,322,04*75
2017-12-14 12:16:55 1513271815.568791: $GPGSV,3,3,12,14,03,232,11,18,71,336,17,13,08,048,00,120,07,103,00*40
2017-12-14 12:16:55 1513271815.682348: $GPZDA,171656.00,14,12,2017,00,00*66
2017-12-14 12:16:55 1513271815.682556: $GPGGA,171656,3946.9672,N,08404.9312,W,1,07,1.40,366.24,M,-33.324,M,,*7E
2017-12-14 12:16:55 1513271815.682625: $GPRMC,171656,A,3946.9672,N,08404.9312,W,0.2422,273.795,141217,,*35
2017-12-14 12:16:55 1513271815.682690: $GPGSA,A,3,10,15,24,21,27,32,18,,,,,,6.6,1.4,6.2*3E
2017-12-14 12:16:56 1513271816.217824: $GPZDA,171657.00,14,12,2017,00,00*67
2017-12-14 12:16:56 1513271816.218055: $GPGGA,171657,3946.9668,N,08404.9312,W,1,07,1.40,365.60,M,-33.324,M,,*77
2017-12-14 12:16:56 1513271816.218124: $GPRMC,171657,A,3946.9668,N,08404.9312,W,0.5951,238.685,141217,,*3E
2017-12-14 12:16:56 1513271816.218298: $GPGSA,A,3,10,15,24,21,27,32,18,,,,,,6.6,1.4,6.2*3E
2017-12-14 12:16:57 1513271817.233428: $GPZDA,171658.00,14,12,2017,00,00*68
2017-12-14 12:16:57 1513271817.237584: $GPGGA,171658,3946.9664,N,08404.9312,W,1,07,1.40,364.96,M,-33.324,M,,*7C
2017-12-14 12:16:57 1513271817.237686: $GPRMC,171658,A,3946.9664,N,08404.9312,W,0.5287,182.716,141217,,*34
2017-12-14 12:16:57 1513271817.237750: $GPGSA,A,3,10,15,24,21,27,32,18,,,,,,6.6,1.4,6.2*3E
2017-12-14 12:16:58 1513271818.569577: $GPGSV,3,1,12,10,41,301,16,15,38,052,19,20,34,094,04,24,50,111,26*73
2017-12-14 12:16:58 1513271818.569752: $GPGSV,3,2,12,21,63,189,29,27,19,289,08,32,21,238,15,08,05,322,04*75
2017-12-14 12:16:58 1513271818.569817: $GPGSV,3,3,12,13,08,048,00,18,71,336,17,14,03,232,00,120,07,103,00*40
2017-12-14 12:16:58 1513271818.681757: $GPZDA,171659.00,14,12,2017,00,00*69
2017-12-14 12:16:58 1513271818.681922: $GPGGA,171659,3946.9660,N,08404.9312,W,1,07,1.40,364.32,M,-33.324,M,,*77
2017-12-14 12:16:58 1513271818.681987: $GPRMC,171659,A,3946.9660,N,08404.9312,W,1.0002,154.332,141217,,*33
2017-12-14 12:16:58 1513271818.682047: $GPGSA,A,3,10,15,24,21,27,32,18,,,,,,6.6,1.4,6.2*3E
2017-12-14 12:16:59 1513271819.231952: $GPZDA,171700.00,14,12,2017,00,00*64
2017-12-14 12:16:59 1513271819.232230: $GPGGA,171700,3946.9655,N,08404.9312,W,1,07,1.40,363.68,M,-33.324,M,,*74
2017-12-14 12:16:59 1513271819.232322: $GPRMC,171700,A,3946.9655,N,08404.9312,W,0.7238,140.710,141217,,*34
2017-12-14 12:16:59 1513271819.232500: $GPGSA,A,3,10,15,24,21,27,32,18,,,,,,6.6,1.4,6.2*3E
2017-12-14 12:17:00 1513271820.215319: $GPZDA,171701.00,14,12,2017,00,00*65
2017-12-14 12:17:00 1513271820.215500: $GPGGA,171701,3946.9651,N,08404.9305,W,1,07,1.40,363.12,M,-33.324,M,,*7A
2017-12-14 12:17:00 1513271820.215566: $GPRMC,171701,A,3946.9651,N,08404.9305,W,0.5306,114.353,141217,,*3B
2017-12-14 12:17:00 1513271820.215627: $GPGSA,A,3,10,15,24,21,27,32,18,,,,,,6.6,1.4,6.2*3E
2017-12-14 12:17:01 1513271821.550586: $GPGSV,3,1,12,10,41,301,15,15,38,052,20,20,34,094,04,24,50,111,26*7A
2017-12-14 12:17:01 1513271821.550799: $GPGSV,3,2,12,21,63,189,29,27,19,289,05,32,21,238,14,08,05,322,04*79
2017-12-14 12:17:01 1513271821.550868: $GPGSV,3,3,12,13,08,048,00,18,71,336,18,14,03,232,00,120,07,103,00*4F
2017-12-14 12:17:01 1513271821.664358: $GPZDA,171702.00,14,12,2017,00,00*66
2017-12-14 12:17:01 1513271821.664523: $GPGGA,171702,3946.9647,N,08404.9305,W,1,06,1.40,362.48,M,-33.324,M,,*71
2017-12-14 12:17:01 1513271821.664625: $GPRMC,171702,A,3946.9647,N,08404.9305,W,0.4844,93.795,141217,,*03
2017-12-14 12:17:01 1513271821.664689: $GPGSA,A,3,10,15,24,21,32,18,,,,,,,6.6,1.4,6.2*3B
2017-12-14 12:17:02 1513271822.214002: $GPZDA,171703.00,14,12,2017,00,00*67
2017-12-14 12:17:02 1513271822.214176: $GPGGA,171703,3946.9643,N,08404.9305,W,1,06,1.40,361.84,M,-33.324,M,,*77
2017-12-14 12:17:02 1513271822.214261: $GPRMC,171703,A,3946.9643,N,08404.9305,W,0.3155,129.994,141217,,*37
2017-12-14 12:17:02 1513271822.214324: $GPGSA,A,3,10,15,24,21,32,18,,,,,,,6.6,1.4,6.2*3B
2017-12-14 12:17:03 1513271823.214553: $GPZDA,171704.00,14,12,2017,00,00*60
2017-12-14 12:17:03 1513271823.214721: $GPGGA,171704,3946.9635,N,08404.9299,W,1,06,1.40,362.04,M,-33.324,M,,*7E
2017-12-14 12:17:03 1513271823.214839: $GPRMC,171704,A,3946.9635,N,08404.9299,W,0.5912,129.173,141217,,*39
2017-12-14 12:17:03 1513271823.214901: $GPGSA,A,3,10,15,24,21,32,18,,,,,,,6.6,1.4,6.2*3B
2017-12-14 12:17:04 1513271824.550301: $GPGSV,3,1,12,10,41,301,15,15,38,052,20,20,34,094,05,24,50,111,26*7B
2017-12-14 12:17:04 1513271824.550511: $GPGSV,3,2,12,21,63,189,29,27,19,289,04,32,21,238,13,08,05,322,04*7F
2017-12-14 12:17:04 1513271824.550579: $GPGSV,3,3,12,13,08,048,00,18,71,336,18,14,03,232,00,120,07,103,00*4F
2017-12-14 12:17:04 1513271824.664093: $GPZDA,171705.00,14,12,2017,00,00*61
2017-12-14 12:17:04 1513271824.664247: $GPGGA,171705,3946.9634,N,08404.9298,W,1,06,1.40,360.64,M,-33.324,M,,*7B
2017-12-14 12:17:04 1513271824.664314: $GPRMC,171705,A,3946.9634,N,08404.9298,W,0.4844,93.795,141217,,*05
2017-12-14 12:17:04 1513271824.664374: $GPGSA,A,3,10,15,24,21,32,18,,,,,,,6.6,1.4,6.2*3B
2017-12-14 12:17:05 1513271825.214578: $GPZDA,171706.00,14,12,2017,00,00*62
2017-12-14 12:17:05 1513271825.214739: $GPGGA,171706,3946.9634,N,08404.9298,W,1,06,1.40,360.64,M,-33.324,M,,*78
2017-12-14 12:17:05 1513271825.214804: $GPRMC,171706,A,3946.9634,N,08404.9298,W,0.0000,0.000,141217,,*3B
2017-12-14 12:17:05 1513271825.214864: $GPGSA,A,3,10,15,24,21,32,18,,,,,,,6.6,1.4,6.2*3B
2017-12-14 12:17:06 1513271826.213655: $GPZDA,171707.00,14,12,2017,00,00*63
2017-12-14 12:17:06 1513271826.213824: $GPGGA,171707,3946.9630,N,08404.9298,W,1,06,2.20,360.00,M,-33.324,M,,*7A
2017-12-14 12:17:06 1513271826.213890: $GPRMC,171707,A,3946.9630,N,08404.9298,W,0.7238,140.710,141217,,*33
2017-12-14 12:17:06 1513271826.213951: $GPGSA,A,3,10,15,24,21,32,18,,,,,,,6.6,2.2,6.2*3E
2017-12-14 12:17:07 1513271827.550913: $GPGSV,3,1,12,10,41,301,14,15,38,052,20,20,34,094,06,24,50,111,25*7A
2017-12-14 12:17:07 1513271827.551081: $GPGSV,3,2,12,21,63,189,29,27,19,289,04,32,21,238,10,08,05,322,04*7C
2017-12-14 12:17:07 1513271827.551146: $GPGSV,3,3,12,13,08,048,00,18,71,336,19,14,03,232,00,120,07,103,00*4E
2017-12-14 12:17:07 1513271827.664306: $GPZDA,171708.00,14,12,2017,00,00*6C
2017-12-14 12:17:07 1513271827.664477: $GPGGA,171708,3946.9625,N,08404.9291,W,1,07,1.40,359.44,M,-33.324,M,,*76
2017-12-14 12:17:07 1513271827.664544: $GPRMC,171708,A,3946.9625,N,08404.9291,W,1.1391,143.662,141217,,*33
2017-12-14 12:17:07 1513271827.664604: $GPGSA,A,3,10,15,20,24,21,32,18,,,,,,6.6,1.4,6.2*39
