2017-12-01 15:59:35 1512161975.157456: {"class":"VERSION","release":"3.16","rev":"3.16-4","proto_major":3,"proto_minor":11}
2017-12-01 15:59:35 1512161975.157831: {"class":"DEVICES","devices":[{"class":"DEVICE","path":"/dev/ttyUSB0","driver":"SiRF","subtype":"9\u0006GSD4e_4.1.2-P1_RPATCH.05-F-GPS-4R-1510281 11/03/2015 307","activated":"2017-12-01T20:59:34.554Z","flags":1,"native":1,"bps":4800,"parity":"N","stopbits":1,"cycle":1.00}]}
2017-12-01 15:59:35 1512161975.157946: {"class":"WATCH","enable":true,"json":false,"nmea":true,"raw":0,"scaled":false,"timing":false,"split24":false,"pps":false}
2017-12-01 15:59:35 1512161975.414154: $GPZDA,205936.00,01,12,2017,00,00*6B
2017-12-01 15:59:35 1512161975.414358: $GPGGA,205936,3946.9576,N,08404.9829,W,2,11,0.80,306.23,M,-33.324,M,,*7B
2017-12-01 15:59:35 1512161975.414432: $GPRMC,205936,A,3946.9576,N,08404.9829,W,0.0000,0.000,011217,,*37
2017-12-01 15:59:35 1512161975.414495: $GPGSA,A,3,1,10,12,14,18,22,25,31,32,11,138,,2.0,0.8,1.5*3D
2017-12-01 15:59:36 1512161976.751230: $GPGSV,3,1,12,01,17,313,38,10,63,139,48,12,25,064,41,14,59,301,43*79
2017-12-01 15:59:36 1512161976.751457: $GPGSV,3,2,12,18,31,138,45,22,08,312,40,25,34,108,45,31,42,216,49*73
2017-12-01 15:59:36 1512161976.751530: $GPGSV,3,3,12,32,69,348,48,11,11,295,28,24,08,046,24,138,38,213,46*4A
2017-12-01 15:59:36 1512161976.864556: $GPZDA,205937.00,01,12,2017,00,00*6A
2017-12-01 15:59:36 1512161976.864702: $GPGGA,205937,3946.9576,N,08404.9829,W,2,12,0.80,306.23,M,-33.324,M,,*79
2017-12-01 15:59:36 1512161976.864770: $GPRMC,205937,A,3946.9576,N,08404.9829,W,0.0000,0.000,011217,,*36
2017-12-01 15:59:36 1512161976.864831: $GPGSA,A,3,1,10,12,14,18,22,25,31,32,11,24,138,2.0,0.8,1.5*3B
2017-12-01 15:59:37 1512161977.414332: $GPZDA,205938.00,01,12,2017,00,00*65
2017-12-01 15:59:37 1512161977.414505: $GPGGA,205938,3946.9576,N,08404.9829,W,2,12,1.00,306.23,M,-33.324,M,,*7F
2017-12-01 15:59:37 1512161977.414573: $GPRMC,205938,A,3946.9576,N,08404.9829,W,0.0000,0.000,011217,,*39
2017-12-01 15:59:37 1512161977.414636: $GPGSA,A,3,1,10,12,14,18,22,25,31,32,11,24,138,2.0,1.0,1.5*32
2017-12-01 15:59:38 1512161978.413830: $GPZDA,205939.00,01,12,2017,00,00*64
2017-12-01 15:59:38 1512161978.414004: $GPGGA,205939,3946.9576,N,08404.9829,W,2,12,0.80,306.23,M,-33.324,M,,*77
2017-12-01 15:59:38 1512161978.414071: $GPRMC,205939,A,3946.9576,N,08404.9829,W,0.0000,0.000,011217,,*38
2017-12-01 15:59:38 1512161978.414133: $GPGSA,A,3,1,10,12,14,18,22,25,31,32,11,24,138,2.0,0.8,1.5*3B
2017-12-01 15:59:39 1512161979.777062: $GPGSV,3,1,12,01,17,313,38,10,63,139,48,12,25,064,41,14,59,301,43*79
2017-12-01 15:59:39 1512161979.777248: $GPGSV,3,2,12,18,31,138,45,22,08,312,40,25,34,108,45,31,42,216,49*73
2017-12-01 15:59:39 1512161979.777315: $GPGSV,3,3,12,32,69,348,48,11,11,295,30,24,08,046,00,138,38,213,46*45
2017-12-01 15:59:39 1512161979.890435: $GPZDA,205940.00,01,12,2017,00,00*6A
2017-12-01 15:59:39 1512161979.890608: $GPGGA,205940,3946.9576,N,08404.9829,W,2,11,1.00,306.23,M,-33.324,M,,*73
2017-12-01 15:59:39 1512161979.890677: $GPRMC,205940,A,3946.9576,N,08404.9829,W,0.0000,0.000,011217,,*36
2017-12-01 15:59:39 1512161979.890741: $GPGSA,A,3,1,10,12,14,18,22,25,31,32,11,138,,2.0,1.0,1.5*34
2017-12-01 15:59:40 1512161980.431626: $GPZDA,205941.00,01,12,2017,00,00*6B
2017-12-01 15:59:40 1512161980.431807: $GPGGA,205941,3946.9576,N,08404.9829,W,2,11,1.00,306.23,M,-33.324,M,,*72
2017-12-01 15:59:40 1512161980.431878: $GPRMC,205941,A,3946.9576,N,08404.9829,W,0.0000,0.000,011217,,*37
2017-12-01 15:59:40 1512161980.431939: $GPGSA,A,3,1,10,12,14,18,22,25,31,32,11,138,,2.0,1.0,1.5*34
2017-12-01 15:59:41 1512161981.432027: $GPZDA,205942.00,01,12,2017,00,00*68
2017-12-01 15:59:41 1512161981.432201: $GPGGA,205942,3946.9576,N,08404.9829,W,2,11,0.80,306.23,M,-33.324,M,,*78
2017-12-01 15:59:41 1512161981.432269: $GPRMC,205942,A,3946.9576,N,08404.9829,W,0.0000,0.000,011217,,*34
2017-12-01 15:59:41 1512161981.432352: $GPGSA,A,3,1,10,12,14,18,22,25,31,32,11,138,,2.0,0.8,1.5*3D
2017-12-01 15:59:42 1512161982.761186: $GPGSV,3,1,12,01,17,313,39,10,63,139,48,12,25,064,41,14,59,301,43*78
2017-12-01 15:59:42 1512161982.761482: $GPGSV,3,2,12,18,31,138,45,22,08,312,40,25,34,108,44,31,42,216,49*72
2017-12-01 15:59:42 1512161982.761563: $GPGSV,3,3,12,32,69,348,47,11,11,295,31,24,08,046,00,138,38,213,46*4B
2017-12-01 15:59:42 1512161982.874782: $GPZDA,205943.00,01,12,2017,00,00*69
2017-12-01 15:59:42 1512161982.874920: $GPGGA,205943,3946.9576,N,08404.9829,W,2,11,1.00,306.23,M,-33.324,M,,*70
2017-12-01 15:59:42 1512161982.874986: $GPRMC,205943,A,3946.9576,N,08404.9829,W,0.0000,0.000,011217,,*35
2017-12-01 15:59:42 1512161982.875046: $GPGSA,A,3,1,10,12,14,18,22,25,31,32,11,138,,2.0,1.0,1.5*34
2017-12-01 15:59:43 1512161983.431966: $GPZDA,205944.00,01,12,2017,00,00*6E
2017-12-01 15:59:43 1512161983.432149: $GPGGA,205944,3946.9576,N,08404.9829,W,2,11,0.80,306.23,M,-33.324,M,,*7E
2017-12-01 15:59:43 1512161983.432221: $GPRMC,205944,A,3946.9576,N,08404.9829,W,0.0000,0.000,011217,,*32
2017-12-01 15:59:43 1512161983.432283: $GPGSA,A,3,1,10,12,14,18,22,25,31,32,11,138,,2.0,0.8,1.5*3D
2017-12-01 15:59:44 1512161984.413922: $GPZDA,205945.00,01,12,2017,00,00*6F
2017-12-01 15:59:44 1512161984.414098: $GPGGA,205945,3946.9581,N,08404.9829,W,2,11,1.00,306.87,M,-33.324,M,,*70
2017-12-01 15:59:44 1512161984.414164: $GPRMC,205945,A,3946.9581,N,08404.9829,W,0.0000,0.000,011217,,*3B
2017-12-01 15:59:44 1512161984.414227: $GPGSA,A,3,1,10,12,14,18,22,25,31,32,11,138,,2.0,1.0,1.5*34
2017-12-01 15:59:45 1512161985.749664: $GPGSV,3,1,12,01,17,313,38,10,63,139,48,12,25,064,41,14,59,301,43*79
2017-12-01 15:59:45 1512161985.749852: $GPGSV,3,2,12,18,31,138,45,22,08,312,39,25,34,108,45,31,42,216,48*7C
2017-12-01 15:59:45 1512161985.749921: $GPGSV,3,3,12,32,69,348,47,11,11,295,31,24,08,046,17,138,38,213,44*4F
2017-12-01 15:59:45 1512161985.863383: $GPZDA,205946.00,01,12,2017,00,00*6C
2017-12-01 15:59:45 1512161985.863592: $GPGGA,205946,3946.9581,N,08404.9829,W,2,12,0.80,306.87,M,-33.324,M,,*79
2017-12-01 15:59:45 1512161985.863665: $GPRMC,205946,A,3946.9581,N,08404.9829,W,0.0000,0.000,011217,,*38
2017-12-01 15:59:45 1512161985.863733: $GPGSA,A,3,1,10,12,14,18,22,25,31,32,11,24,138,2.0,0.8,1.5*3B
2017-12-01 15:59:46 1512161986.488441: $GPZDA,205947.00,01,12,2017,00,00*6D
2017-12-01 15:59:46 1512161986.488628: $GPGGA,205947,3946.9581,N,08404.9829,W,2,12,1.00,306.87,M,-33.324,M,,*71
2017-12-01 15:59:46 1512161986.488698: $GPRMC,205947,A,3946.9581,N,08404.9829,W,0.0000,0.000,011217,,*39
2017-12-01 15:59:46 1512161986.488762: $GPGSA,A,3,1,10,12,14,18,22,25,31,32,11,24,138,2.0,1.0,1.5*32
2017-12-01 15:59:47 1512161987.414427: $GPZDA,205948.00,01,12,2017,00,00*62
2017-12-01 15:59:47 1512161987.414599: $GPGGA,205948,3946.9581,N,08404.9829,W,2,12,0.80,306.87,M,-33.324,M,,*77
2017-12-01 15:59:47 1512161987.414669: $GPRMC,205948,A,3946.9581,N,08404.9829,W,0.0000,0.000,011217,,*36
2017-12-01 15:59:47 1512161987.414734: $GPGSA,A,3,1,10,12,14,18,22,25,31,32,11,24,138,2.0,0.8,1.5*3B
2017-12-01 15:59:48 1512161988.767545: $GPGSV,3,1,12,01,17,313,38,10,63,139,47,12,25,064,41,14,59,301,43*76
2017-12-01 15:59:48 1512161988.767737: $GPGSV,3,2,12,18,31,138,45,22,08,312,39,25,34,108,46,31,42,216,49*7E
2017-12-01 15:59:48 1512161988.767804: $GPGSV,3,3,12,32,69,348,47,11,11,295,31,24,08,046,25,138,38,213,45*4F
2017-12-01 15:59:48 1512161988.881131: $GPZDA,205949.00,01,12,2017,00,00*63
2017-12-01 15:59:48 1512161988.881277: $GPGGA,205949,3946.9581,N,08404.9829,W,2,12,0.80,306.87,M,-33.324,M,,*76
2017-12-01 15:59:48 1512161988.881397: $GPRMC,205949,A,3946.9581,N,08404.9829,W,0.0000,0.000,011217,,*37
2017-12-01 15:59:48 1512161988.881470: $GPGSA,A,3,1,10,12,14,18,22,25,31,32,11,24,138,2.0,0.8,1.5*3B
2017-12-01 15:59:49 1512161989.430517: $GPZDA,205950.00,01,12,2017,00,00*6B
2017-12-01 15:59:49 1512161989.430715: $GPGGA,205950,3946.9581,N,08404.9829,W,2,12,0.80,306.87,M,-33.324,M,,*7E
2017-12-01 15:59:49 1512161989.430785: $GPRMC,205950,A,3946.9581,N,08404.9829,W,0.0000,0.000,011217,,*3F
2017-12-01 15:59:49 1512161989.430848: $GPGSA,A,3,1,10,12,14,18,22,25,31,32,11,24,138,2.0,0.8,1.5*3B
2017-12-01 15:59:50 1512161990.430497: $GPZDA,205951.00,01,12,2017,00,00*6A
2017-12-01 15:59:50 1512161990.430668: $GPGGA,205951,3946.9581,N,08404.9829,W,2,12,0.80,306.87,M,-33.324,M,,*7F
2017-12-01 15:59:50 1512161990.430734: $GPRMC,205951,A,3946.9581,N,08404.9829,W,0.0000,0.000,011217,,*3E
2017-12-01 15:59:50 1512161990.430795: $GPGSA,A,3,1,10,12,14,18,22,25,31,32,11,24,138,2.0,0.8,1.5*3B
2017-12-01 15:59:51 1512161991.750454: $GPGSV,3,1,12,01,17,313,39,10,63,139,47,12,25,064,41,14,59,301,43*77
2017-12-01 15:59:51 1512161991.750637: $GPGSV,3,2,12,18,31,138,45,22,08,312,39,25,34,108,46,31,42,216,49*7E
2017-12-01 15:59:51 1512161991.750705: $GPGSV,3,3,12,32,69,348,47,11,11,295,24,24,08,046,24,138,38,213,46*49
2017-12-01 15:59:51 1512161991.864209: $GPZDA,205952.00,01,12,2017,00,00*69
2017-12-01 15:59:51 1512161991.864397: $GPGGA,205952,3946.9581,N,08404.9829,W,2,12,0.80,306.87,M,-33.324,M,,*7C
2017-12-01 15:59:51 1512161991.864465: $GPRMC,205952,A,3946.9581,N,08404.9829,W,0.0000,0.000,011217,,*3D
2017-12-01 15:59:51 1512161991.864526: $GPGSA,A,3,1,10,12,14,18,22,25,31,32,11,24,138,2.0,0.8,1.5*3B
2017-12-01 15:59:52 1512161992.431251: $GPZDA,205953.00,01,12,2017,00,00*68
2017-12-01 15:59:52 1512161992.431470: $GPGGA,205953,3946.9581,N,08404.9829,W,2,12,0.80,306.87,M,-33.324,M,,*7D
2017-12-01 15:59:52 1512161992.431539: $GPRMC,205953,A,3946.9581,N,08404.9829,W,0.0000,0.000,011217,,*3C
2017-12-01 15:59:52 1512161992.431601: $GPGSA,A,3,1,10,12,14,18,22,25,31,32,11,24,138,2.0,0.8,1.5*3B
2017-12-01 15:59:53 1512161993.430884: $GPZDA,205954.00,01,12,2017,00,00*6F
2017-12-01 15:59:53 1512161993.431051: $GPGGA,205954,3946.9581,N,08404.9829,W,2,12,0.80,306.87,M,-33.324,M,,*7A
2017-12-01 15:59:53 1512161993.431119: $GPRMC,205954,A,3946.9581,N,08404.9829,W,0.0000,0.000,011217,,*3B
2017-12-01 15:59:53 1512161993.431180: $GPGSA,A,3,1,10,12,14,18,22,25,31,32,11,24,138,2.0,0.8,1.5*3B
2017-12-01 15:59:54 1512161994.745127: $GPGSV,3,1,12,01,17,313,38,10,63,139,48,12,25,064,40,14,59,301,44*7F
2017-12-01 15:59:54 1512161994.745307: $GPGSV,3,2,12,18,31,138,45,22,08,312,39,25,34,108,48,31,42,216,49*70
2017-12-01 15:59:54 1512161994.745375: $GPGSV,3,3,12,32,69,348,47,11,11,295,26,24,08,046,24,138,38,213,45*48
2017-12-01 15:59:54 1512161994.858402: $GPZDA,205955.00,01,12,2017,00,00*6E
2017-12-01 15:59:54 1512161994.858615: $GPGGA,205955,3946.9581,N,08404.9829,W,2,12,0.80,306.87,M,-33.324,M,,*7B
2017-12-01 15:59:54 1512161994.858704: $GPRMC,205955,A,3946.9581,N,08404.9829,W,0.0000,0.000,011217,,*3A
2017-12-01 15:59:54 1512161994.858767: $GPGSA,A,3,1,10,12,14,18,22,25,31,32,11,24,138,2.0,0.8,1.5*3B
