2017-12-31 18:02:32 1514761352.519048: {"class":"VERSION","release":"3.16","rev":"3.16-4","proto_major":3,"proto_minor":11}
2017-12-31 18:02:32 1514761352.519393: {"class":"DEVICES","devices":[{"class":"DEVICE","path":"/dev/ttyUSB0","driver":"SiRF","activated":"2017-12-31T23:02:32.486Z","flags":1,"native":1,"bps":4800,"parity":"N","stopbits":1,"cycle":1.00}]}
2017-12-31 18:02:32 1514761352.519491: {"class":"WATCH","enable":true,"json":false,"nmea":true,"raw":0,"scaled":false,"timing":false,"split24":false,"pps":false}
2017-12-31 18:02:33 1514761353.680823: $GPGSV,3,1,11,22,25,216,41,23,51,307,43,09,18,312,36,03,34,237,44*7D
2017-12-31 18:02:33 1514761353.681009: $GPGSV,3,2,11,16,77,192,44,29,07,033,27,14,18,132,33,31,30,072,37*70
2017-12-31 18:02:33 1514761353.681077: $GPGSV,3,3,11,27,19,156,35,26,65,052,50,135,22,240,44*74
2017-12-31 18:02:33 1514761353.794122: $GPZDA,230234.00,31,12,2017,00,00*67
2017-12-31 18:02:33 1514761353.794264: $GPGGA,230234,3946.9561,N,08404.9874,W,2,11,0.60,308.17,M,-33.324,M,,*7D
2017-12-31 18:02:33 1514761353.794330: $GPRMC,230234,A,3946.9561,N,08404.9874,W,0.0000,0.000,311217,,*35
2017-12-31 18:02:33 1514761353.794390: $GPGSA,A,3,22,23,9,3,16,29,14,31,27,26,135,,1.7,0.6,1.3*06
2017-12-31 18:02:34 1514761354.345021: $GPZDA,230235.00,31,12,2017,00,00*66
2017-12-31 18:02:34 1514761354.345202: $GPGGA,230235,3946.9561,N,08404.9874,W,2,11,0.60,308.17,M,-33.324,M,,*7C
2017-12-31 18:02:34 1514761354.345269: $GPRMC,230235,A,3946.9561,N,08404.9874,W,0.0000,0.000,311217,,*34
2017-12-31 18:02:34 1514761354.345330: $GPGSA,A,3,22,23,9,3,16,29,14,31,27,26,135,,1.7,0.6,1.3*06
2017-12-31 18:02:35 1514761355.345685: $GPZDA,230236.00,31,12,2017,00,00*65
2017-12-31 18:02:35 1514761355.345845: $GPGGA,230236,3946.9561,N,08404.9874,W,2,11,0.60,308.17,M,-33.324,M,,*7F
2017-12-31 18:02:35 1514761355.345911: $GPRMC,230236,A,3946.9561,N,08404.9874,W,0.0000,0.000,311217,,*37
2017-12-31 18:02:35 1514761355.345973: $GPGSA,A,3,22,23,9,3,16,29,14,31,27,26,135,,1.7,0.6,1.3*06
2017-12-31 18:02:36 1514761356.682359: $GPGSV,3,1,11,22,25,216,41,23,51,307,43,09,18,312,32,03,34,237,45*78
2017-12-31 18:02:36 1514761356.682504: $GPGSV,3,2,11,16,77,192,44,29,07,033,31,14,18,132,28,31,30,072,37*7D
2017-12-31 18:02:36 1514761356.682569: $GPGSV,3,3,11,27,19,156,35,26,65,052,50,135,22,240,44*74
2017-12-31 18:02:36 1514761356.795970: $GPZDA,230237.00,31,12,2017,00,00*64
2017-12-31 18:02:36 1514761356.796111: $GPGGA,230237,3946.9561,N,08404.9874,W,2,11,0.60,308.17,M,-33.324,M,,*7E
2017-12-31 18:02:36 1514761356.796176: $GPRMC,230237,A,3946.9561,N,08404.9874,W,0.0000,0.000,311217,,*36
2017-12-31 18:02:36 1514761356.796237: $GPGSA,A,3,22,23,9,3,16,29,14,31,27,26,135,,1.7,0.6,1.3*06
2017-12-31 18:02:37 1514761357.348199: $GPZDA,230238.00,31,12,2017,00,00*6B
2017-12-31 18:02:37 1514761357.348363: $GPGGA,230238,3946.9561,N,08404.9874,W,2,11,0.60,308.17,M,-33.324,M,,*71
2017-12-31 18:02:37 1514761357.348430: $GPRMC,230238,A,3946.9561,N,08404.9874,W,0.0000,0.000,311217,,*39
2017-12-31 18:02:37 1514761357.348491: $GPGSA,A,3,22,23,9,3,16,29,14,31,27,26,135,,1.7,0.6,1.3*06
2017-12-31 18:02:38 1514761358.340002: $GPZDA,230239.00,31,12,2017,00,00*6A
2017-12-31 18:02:38 1514761358.340162: $GPGGA,230239,3946.9561,N,08404.9874,W,2,11,0.60,308.17,M,-33.324,M,,*70
2017-12-31 18:02:38 1514761358.340230: $GPRMC,230239,A,3946.9561,N,08404.9874,W,0.0000,0.000,311217,,*38
2017-12-31 18:02:38 1514761358.340293: $GPGSA,A,3,22,23,9,3,16,29,14,31,27,26,135,,1.7,0.6,1.3*06
2017-12-31 18:02:39 1514761359.710798: $GPGSV,3,1,11,22,25,216,41,23,51,307,44,09,18,312,34,03,34,237,45*79
2017-12-31 18:02:39 1514761359.711030: $GPGSV,3,2,11,16,77,192,44,29,07,033,34,14,18,132,33,31,30,072,38*7D
2017-12-31 18:02:39 1514761359.711191: $GPGSV,3,3,11,27,19,156,35,26,65,052,50,135,22,240,44*74
2017-12-31 18:02:39 1514761359.824138: $GPZDA,230240.00,31,12,2017,00,00*64
2017-12-31 18:02:39 1514761359.824280: $GPGGA,230240,3946.9561,N,08404.9874,W,2,11,0.60,308.17,M,-33.324,M,,*7E
2017-12-31 18:02:39 1514761359.824345: $GPRMC,230240,A,3946.9561,N,08404.9874,W,0.0000,0.000,311217,,*36
2017-12-31 18:02:39 1514761359.824457: $GPGSA,A,3,22,23,9,3,16,29,14,31,27,26,135,,1.7,0.6,1.3*06
2017-12-31 18:02:40 1514761360.449810: $GPZDA,230241.00,31,12,2017,00,00*65
2017-12-31 18:02:40 1514761360.449977: $GPGGA,230241,3946.9561,N,08404.9874,W,2,11,0.60,308.17,M,-33.324,M,,*7F
2017-12-31 18:02:40 1514761360.450043: $GPRMC,230241,A,3946.9561,N,08404.9874,W,0.0000,0.000,311217,,*37
2017-12-31 18:02:40 1514761360.450104: $GPGSA,A,3,22,23,9,3,16,29,14,31,27,26,135,,1.7,0.6,1.3*06
2017-12-31 18:02:41 1514761361.346925: $GPZDA,230242.00,31,12,2017,00,00*66
2017-12-31 18:02:41 1514761361.347142: $GPGGA,230242,3946.9561,N,08404.9874,W,2,11,0.60,308.17,M,-33.324,M,,*7C
2017-12-31 18:02:41 1514761361.347218: $GPRMC,230242,A,3946.9561,N,08404.9874,W,0.0000,0.000,311217,,*34
2017-12-31 18:02:41 1514761361.347280: $GPGSA,A,3,22,23,9,3,16,29,14,31,27,26,135,,1.7,0.6,1.3*06
