2018-01-11 19:52:45 1515718365.855102: {"class":"VERSION","release":"3.16","rev":"3.16-4","proto_major":3,"proto_minor":11}
2018-01-11 19:52:45 1515718365.855453: {"class":"DEVICES","devices":[{"class":"DEVICE","path":"/dev/ttyUSB0","driver":"SiRF","subtype":"9\u0006GSD4e_4.1.2-P1_RPATCH.05-F-GPS-4R-1510281 11/03/2015 307","activated":"2018-01-12T00:52:45.531Z","flags":1,"native":1,"bps":4800,"parity":"N","stopbits":1,"cycle":1.00}]}
2018-01-11 19:52:45 1515718365.855566: {"class":"WATCH","enable":true,"json":false,"nmea":true,"raw":0,"scaled":false,"timing":false,"split24":false,"pps":false}
2018-01-11 19:52:46 1515718366.386421: $GPZDA,005247.00,12,01,2018,00,00*6B
2018-01-11 19:52:46 1515718366.386605: $GPGGA,005247,3946.9605,N,08404.9870,W,2,10,0.80,296.75,M,-33.324,M,,*75
2018-01-11 19:52:46 1515718366.386671: $GPRMC,005247,A,3946.9605,N,08404.9870,W,0.0000,0.000,120118,,*3C
2018-01-11 19:52:46 1515718366.386732: $GPGSA,A,3,7,8,9,16,23,27,30,11,28,138,,,4.0,0.8,3.5*3E
2018-01-11 19:52:47 1515718367.722893: $GPGSV,3,1,11,07,48,312,42,08,67,153,45,09,53,241,43,16,29,055,46*78
2018-01-11 19:52:47 1515718367.723057: $GPGSV,3,2,11,23,38,193,47,27,54,063,50,30,22,303,36,11,13,171,34*7A
2018-01-11 19:52:47 1515718367.723122: $GPGSV,3,3,11,26,04,067,00,28,08,252,31,138,38,213,46*7E
2018-01-11 19:52:47 1515718367.836237: $GPZDA,005248.00,12,01,2018,00,00*64
2018-01-11 19:52:47 1515718367.836366: $GPGGA,005248,3946.9605,N,08404.9870,W,2,10,0.80,296.75,M,-33.324,M,,*7A
2018-01-11 19:52:47 1515718367.836430: $GPRMC,005248,A,3946.9605,N,08404.9870,W,0.0000,0.000,120118,,*33
2018-01-11 19:52:47 1515718367.836488: $GPGSA,A,3,7,8,9,16,23,27,30,11,28,138,,,4.0,0.8,3.5*3E
2018-01-11 19:52:48 1515718368.397304: $GPZDA,005249.00,12,01,2018,00,00*65
2018-01-11 19:52:48 1515718368.397471: $GPGGA,005249,3946.9609,N,08404.9870,W,2,10,0.80,297.39,M,-33.324,M,,*7E
2018-01-11 19:52:48 1515718368.397537: $GPRMC,005249,A,3946.9609,N,08404.9870,W,0.0000,0.000,120118,,*3E
2018-01-11 19:52:48 1515718368.397598: $GPGSA,A,3,7,8,9,16,23,27,30,11,28,138,,,4.0,0.8,3.5*3E
2018-01-11 19:52:49 1515718369.386840: $GPZDA,005250.00,12,01,2018,00,00*6D
2018-01-11 19:52:49 1515718369.387012: $GPGGA,005250,3946.9609,N,08404.9870,W,2,10,0.80,297.39,M,-33.324,M,,*76
2018-01-11 19:52:49 1515718369.387079: $GPRMC,005250,A,3946.9609,N,08404.9870,W,0.0000,0.000,120118,,*36
2018-01-11 19:52:49 1515718369.387140: $GPGSA,A,3,7,8,9,16,23,27,30,11,28,138,,,4.0,0.8,3.5*3E
2018-01-11 19:52:50 1515718370.735001: $GPGSV,3,1,11,07,48,312,42,08,67,153,45,09,53,241,43,16,29,055,46*78
2018-01-11 19:52:50 1515718370.735171: $GPGSV,3,2,11,23,38,193,47,27,54,063,50,30,22,303,35,11,13,171,34*79
2018-01-11 19:52:50 1515718370.735238: $GPGSV,3,3,11,26,04,067,12,28,08,252,32,138,38,213,44*7C
2018-01-11 19:52:50 1515718370.848433: $GPZDA,005251.00,12,01,2018,00,00*6C
2018-01-11 19:52:50 1515718370.848549: $GPGGA,005251,3946.9609,N,08404.9870,W,2,10,0.80,297.39,M,-33.324,M,,*77
2018-01-11 19:52:50 1515718370.848614: $GPRMC,005251,A,3946.9609,N,08404.9870,W,0.0000,0.000,120118,,*37
2018-01-11 19:52:50 1515718370.848674: $GPGSA,A,3,7,8,9,16,23,27,30,11,28,138,,,4.0,0.8,3.5*3E
2018-01-11 19:52:51 1515718371.407140: $GPZDA,005252.00,12,01,2018,00,00*6F
2018-01-11 19:52:51 1515718371.407309: $GPGGA,005252,3946.9609,N,08404.9870,W,2,10,0.80,297.39,M,-33.324,M,,*74
2018-01-11 19:52:51 1515718371.407392: $GPRMC,005252,A,3946.9609,N,08404.9870,W,0.0000,0.000,120118,,*34
2018-01-11 19:52:51 1515718371.407455: $GPGSA,A,3,7,8,9,16,23,27,30,11,28,138,,,4.0,0.8,3.5*3E
2018-01-11 19:52:52 1515718372.403701: $GPZDA,005253.00,12,01,2018,00,00*6E
2018-01-11 19:52:52 1515718372.403862: $GPGGA,005253,3946.9609,N,08404.9870,W,2,10,0.80,297.39,M,-33.324,M,,*75
2018-01-11 19:52:52 1515718372.403928: $GPRMC,005253,A,3946.9609,N,08404.9870,W,0.0000,0.000,120118,,*35
2018-01-11 19:52:52 1515718372.403989: $GPGSA,A,3,7,8,9,16,23,27,30,11,28,138,,,4.0,0.8,3.5*3E
2018-01-11 19:52:53 1515718373.737839: $GPGSV,3,1,11,07,48,312,42,08,67,153,45,09,53,241,43,16,29,055,46*78
2018-01-11 19:52:53 1515718373.737988: $GPGSV,3,2,11,23,38,193,47,27,54,063,50,30,22,303,35,11,13,171,34*79
2018-01-11 19:52:53 1515718373.738121: $GPGSV,3,3,11,26,04,067,19,28,08,252,33,138,38,213,45*77
2018-01-11 19:52:53 1515718373.851521: $GPZDA,005254.00,12,01,2018,00,00*69
2018-01-11 19:52:53 1515718373.851644: $GPGGA,005254,3946.9609,N,08404.9870,W,2,11,0.80,297.39,M,-33.324,M,,*73
2018-01-11 19:52:53 1515718373.851707: $GPRMC,005254,A,3946.9609,N,08404.9870,W,0.0000,0.000,120118,,*32
2018-01-11 19:52:53 1515718373.851766: $GPGSA,A,3,7,8,9,16,23,27,30,11,26,28,138,,4.0,0.8,3.5*3A
2018-01-11 19:52:54 1515718374.403682: $GPZDA,005255.00,12,01,2018,00,00*68
2018-01-11 19:52:54 1515718374.403840: $GPGGA,005255,3946.9609,N,08404.9870,W,2,11,0.80,297.39,M,-33.324,M,,*72
2018-01-11 19:52:54 1515718374.403905: $GPRMC,005255,A,3946.9609,N,08404.9870,W,0.0000,0.000,120118,,*33
2018-01-11 19:52:54 1515718374.403966: $GPGSA,A,3,7,8,9,16,23,27,30,11,26,28,138,,4.0,0.8,3.5*3A
