2017-12-29 14:47:05 1514576825.351409: {"class":"VERSION","release":"3.16","rev":"3.16-4","proto_major":3,"proto_minor":11}
2017-12-29 14:47:05 1514576825.351819: {"class":"DEVICES","devices":[{"class":"DEVICE","path":"/dev/ttyUSB0","driver":"SiRF","subtype":"9\u0006GSD4e_4.1.2-P1_RPATCH.05-F-GPS-4R-1510281 11/03/2015 307","activated":"2017-12-29T19:47:05.189Z","flags":1,"native":1,"bps":4800,"parity":"N","stopbits":1,"cycle":1.00}]}
2017-12-29 14:47:05 1514576825.351935: {"class":"WATCH","enable":true,"json":false,"nmea":true,"raw":0,"scaled":false,"timing":false,"split24":false,"pps":false}
2017-12-29 14:47:05 1514576825.794536: $GPZDA,194706.49,29,12,2017,00,00*6A
2017-12-29 14:47:05 1514576825.794720: $GPGGA,194706,3946.9577,N,08404.9896,W,1,12,0.80,299.82,M,-33.324,M,,*74
2017-12-29 14:47:05 1514576825.794787: $GPRMC,194706,A,3946.9577,N,08404.9896,W,0.8414,219.346,291217,,*3C
2017-12-29 14:47:05 1514576825.794849: $GPGSA,A,3,1,26,10,11,12,14,18,22,25,31,32,138,1.7,0.8,1.3*3B
2017-12-29 14:47:05 1514576825.794908: $GPGBS,194706,10.91,M,10.38,M,30.89,M*02
2017-12-29 14:47:06 1514576826.738238: $GPZDA,194707.17,29,12,2017,00,00*60
2017-12-29 14:47:06 1514576826.738408: $GPGGA,194707,3946.9577,N,08404.9896,W,1,12,0.80,299.82,M,-33.324,M,,*75
2017-12-29 14:47:06 1514576826.738476: $GPRMC,194707,A,3946.9577,N,08404.9896,W,0.1867,180.000,291217,,*3E
2017-12-29 14:47:06 1514576826.738564: $GPGSA,A,3,1,26,10,11,12,14,18,22,25,31,32,138,1.7,0.8,1.3*3B
2017-12-29 14:47:06 1514576826.738625: $GPGBS,194707,10.91,M,10.38,M,30.89,M*03
2017-12-29 14:47:08 1514576828.339598: $GPGSV,3,1,12,01,22,295,37,10,42,150,49,12,20,045,45,14,68,339,44*7E
2017-12-29 14:47:08 1514576828.339783: $GPGSV,3,2,12,18,12,145,40,22,24,312,39,25,41,084,51,03,05,316,08*79
2017-12-29 14:47:08 1514576828.339849: $GPGSV,3,3,12,31,63,231,46,32,66,043,50,11,07,279,17,138,38,213,31*42
2017-12-29 14:47:08 1514576828.452972: $GPZDA,194708.00,29,12,2017,00,00*69
2017-12-29 14:47:08 1514576828.453146: $GPGGA,194708,3946.9573,N,08404.9896,W,1,11,0.80,299.18,M,-33.324,M,,*7E
2017-12-29 14:47:08 1514576828.453213: $GPRMC,194708,A,3946.9573,N,08404.9896,W,0.1867,180.000,291217,,*35
2017-12-29 14:47:08 1514576828.453275: $GPGSA,A,3,1,10,12,14,18,22,25,31,32,11,138,,1.7,0.8,1.3*3F
2017-12-29 14:47:08 1514576828.878725: $GPZDA,194709.00,29,12,2017,00,00*68
2017-12-29 14:47:08 1514576828.878877: $GPGGA,194709,3946.9573,N,08404.9902,W,1,11,0.80,297.69,M,-33.324,M,,*7B
2017-12-29 14:47:08 1514576828.878943: $GPRMC,194709,A,3946.9573,N,08404.9902,W,0.0000,0.000,291217,,*39
2017-12-29 14:47:08 1514576828.879004: $GPGSA,A,3,1,10,12,14,18,22,25,31,32,11,138,,1.7,0.8,1.3*3F
2017-12-29 14:47:08 1514576828.879064: $GPGBS,194709,10.91,M,10.38,M,30.89,M*0D
2017-12-29 14:47:09 1514576829.387080: $GPZDA,194710.00,29,12,2017,00,00*60
2017-12-29 14:47:09 1514576829.387246: $GPGGA,194710,3946.9572,N,08404.9901,W,1,11,0.80,296.29,M,-33.324,M,,*74
2017-12-29 14:47:09 1514576829.387313: $GPRMC,194710,A,3946.9572,N,08404.9901,W,0.0000,0.000,291217,,*33
2017-12-29 14:47:09 1514576829.387374: $GPGSA,A,3,1,10,12,14,18,22,25,31,32,11,138,,1.7,0.8,1.3*3F
2017-12-29 14:47:09 1514576829.387433: $GPGBS,194710,10.91,M,10.38,M,30.89,M*05
2017-12-29 14:47:10 1514576830.722317: $GPGSV,3,1,12,01,22,295,36,10,42,150,49,12,20,045,45,14,68,339,43*78
2017-12-29 14:47:10 1514576830.722496: $GPGSV,3,2,12,18,12,145,40,22,24,312,38,25,41,084,51,26,08,181,22*76
2017-12-29 14:47:10 1514576830.722563: $GPGSV,3,3,12,31,63,231,46,32,66,043,50,11,07,279,29,138,38,213,42*4B
2017-12-29 14:47:10 1514576830.835660: $GPZDA,194711.00,29,12,2017,00,00*61
2017-12-29 14:47:10 1514576830.835790: $GPGGA,194711,3946.9572,N,08404.9907,W,1,12,0.80,294.80,M,-33.324,M,,*71
2017-12-29 14:47:10 1514576830.835856: $GPRMC,194711,A,3946.9572,N,08404.9907,W,0.0000,0.000,291217,,*34
2017-12-29 14:47:10 1514576830.835916: $GPGSA,A,3,1,10,12,14,18,22,25,26,31,32,11,138,1.7,0.8,1.3*3B
2017-12-29 14:47:11 1514576831.386557: $GPZDA,194712.00,29,12,2017,00,00*62
2017-12-29 14:47:11 1514576831.389378: $GPGGA,194712,3946.9575,N,08404.9907,W,1,12,0.80,294.04,M,-33.324,M,,*79
2017-12-29 14:47:11 1514576831.389543: $GPRMC,194712,A,3946.9575,N,08404.9907,W,0.0000,0.000,291217,,*30
2017-12-29 14:47:11 1514576831.389643: $GPGSA,A,3,1,10,12,14,18,22,25,26,31,32,11,138,1.7,0.8,1.3*3B
2017-12-29 14:47:12 1514576832.386067: $GPZDA,194713.00,29,12,2017,00,00*63
2017-12-29 14:47:12 1514576832.386240: $GPGGA,194713,3946.9574,N,08404.9906,W,1,12,0.80,292.64,M,-33.324,M,,*78
2017-12-29 14:47:12 1514576832.386307: $GPRMC,194713,A,3946.9574,N,08404.9906,W,0.0000,0.000,291217,,*31
2017-12-29 14:47:12 1514576832.386368: $GPGSA,A,3,1,10,12,14,18,22,25,26,31,32,11,138,1.7,0.8,1.3*3B
2017-12-29 14:47:12 1514576832.386427: $GPGBS,194713,10.91,M,10.38,M,30.89,M*06
2017-12-29 14:47:13 1514576833.723046: $GPGSV,3,1,12,01,22,295,36,10,42,150,49,12,20,045,45,14,68,339,43*78
2017-12-29 14:47:13 1514576833.723195: $GPGSV,3,2,12,18,12,145,40,22,24,312,37,25,41,084,51,26,08,181,23*78
2017-12-29 14:47:13 1514576833.723260: $GPGSV,3,3,12,31,63,231,46,32,66,043,50,11,07,279,28,138,38,213,42*4A
2017-12-29 14:47:13 1514576833.836377: $GPZDA,194714.00,29,12,2017,00,00*64
2017-12-29 14:47:13 1514576833.836525: $GPGGA,194714,3946.9570,N,08404.9906,W,1,12,0.80,292.00,M,-33.324,M,,*79
2017-12-29 14:47:13 1514576833.836611: $GPRMC,194714,A,3946.9570,N,08404.9906,W,0.0000,0.000,291217,,*32
2017-12-29 14:47:13 1514576833.836673: $GPGSA,A,3,1,10,12,14,18,22,25,26,31,32,11,138,1.7,0.8,1.3*3B
2017-12-29 14:47:14 1514576834.386011: $GPZDA,194715.00,29,12,2017,00,00*65
2017-12-29 14:47:14 1514576834.386172: $GPGGA,194715,3946.9570,N,08404.9912,W,1,12,0.80,290.51,M,-33.324,M,,*7B
2017-12-29 14:47:14 1514576834.386239: $GPRMC,194715,A,3946.9570,N,08404.9912,W,0.0000,0.000,291217,,*36
2017-12-29 14:47:14 1514576834.386300: $GPGSA,A,3,1,10,12,14,18,22,25,26,31,32,11,138,1.7,0.8,1.3*3B
