2017-11-16 15:31:45 1510864305.912549: {"class":"VERSION","release":"3.17","rev":"3.17","proto_major":3,"proto_minor":12}
2017-11-16 15:31:45 1510864305.913051: {"class":"DEVICES","devices":[{"class":"DEVICE","path":"/dev/ttyUSB0","driver":"SiRF","subtype":"9\u0006GSD4e_4.1.2-P1_RPATCH.05-F-GPS-4R-1510281 11/03/2015 307","activated":"2017-11-16T20:31:45.683Z","flags":1,"native":1,"bps":4800,"parity":"N","stopbits":1,"cycle":1.00}]}
2017-11-16 15:31:45 1510864305.913183: {"class":"WATCH","enable":true,"json":false,"nmea":true,"raw":0,"scaled":false,"timing":false,"split24":false,"pps":false}
2017-11-16 15:31:46 1510864306.723810: $GPGSV,3,1,12,08,05,291,34,10,72,336,50,14,31,256,47,15,09,067,20*74
2017-11-16 15:31:46 1510864306.723984: $GPGSV,3,2,12,18,68,099,47,20,06,120,16,21,26,178,42,24,43,057,50*76
2017-11-16 15:31:46 1510864306.724045: $GPGSV,3,3,12,25,05,139,18,32,48,268,46,12,11,105,30,138,38,213,44*4C
2017-11-16 15:31:46 1510864306.837092: $GPZDA,203145.00,16,11,2017,00,00*64
2017-11-16 15:31:46 1510864306.837252: $GPGGA,203145,3946.9568,N,08404.9860,W,2,11,1.00,309.61,M,-33.324,M,,*73
2017-11-16 15:31:46 1510864306.837315: $GPRMC,203145,A,3946.9568,N,08404.9860,W,0.0000,0.000,161117,,*3A
2017-11-16 15:31:46 1510864306.837373: $GPGSA,A,3,8,10,14,18,20,21,24,25,32,12,138,,1.6,1.0,1.3*3B
2017-11-16 15:31:47 1510864307.365595: $GPZDA,203146.00,16,11,2017,00,00*67
2017-11-16 15:31:47 1510864307.365778: $GPGGA,203146,3946.9568,N,08404.9860,W,2,11,1.00,309.61,M,-33.324,M,,*70
2017-11-16 15:31:47 1510864307.365844: $GPRMC,203146,A,3946.9568,N,08404.9860,W,0.0000,0.000,161117,,*39
2017-11-16 15:31:47 1510864307.365899: $GPGSA,A,3,8,10,14,18,20,21,24,25,32,12,138,,1.6,1.0,1.3*3B
2017-11-16 15:31:48 1510864308.367809: $GPZDA,203147.00,16,11,2017,00,00*66
2017-11-16 15:31:48 1510864308.367993: $GPGGA,203147,3946.9568,N,08404.9860,W,2,11,1.00,309.61,M,-33.324,M,,*71
2017-11-16 15:31:48 1510864308.368058: $GPRMC,203147,A,3946.9568,N,08404.9860,W,0.0000,0.000,161117,,*38
2017-11-16 15:31:48 1510864308.368115: $GPGSA,A,3,8,10,14,18,20,21,24,25,32,12,138,,1.6,1.0,1.3*3B
2017-11-16 15:31:49 1510864309.721374: $GPGSV,3,1,12,08,05,291,34,10,72,336,50,14,31,256,47,27,05,258,28*7F
2017-11-16 15:31:49 1510864309.721545: $GPGSV,3,2,12,18,68,099,47,20,06,120,17,21,26,178,43,24,43,057,50*76
2017-11-16 15:31:49 1510864309.721608: $GPGSV,3,3,12,25,05,139,18,32,48,268,47,12,11,105,29,138,38,213,44*45
2017-11-16 15:31:49 1510864309.835282: $GPZDA,203148.00,16,11,2017,00,00*69
2017-11-16 15:31:49 1510864309.835395: $GPGGA,203148,3946.9568,N,08404.9860,W,2,12,1.00,309.61,M,-33.324,M,,*7D
2017-11-16 15:31:49 1510864309.835427: $GPRMC,203148,A,3946.9568,N,08404.9860,W,0.0000,0.000,161117,,*37
2017-11-16 15:31:49 1510864309.835457: $GPGSA,A,3,8,10,14,27,18,20,21,24,25,32,12,138,1.6,1.0,1.3*3E
2017-11-16 15:31:50 1510864310.365910: $GPZDA,203149.00,16,11,2017,00,00*68
2017-11-16 15:31:50 1510864310.366016: $GPGGA,203149,3946.9568,N,08404.9860,W,2,12,1.00,309.61,M,-33.324,M,,*7C
2017-11-16 15:31:50 1510864310.366046: $GPRMC,203149,A,3946.9568,N,08404.9860,W,0.0000,0.000,161117,,*36
2017-11-16 15:31:50 1510864310.366074: $GPGSA,A,3,8,10,14,27,18,20,21,24,25,32,12,138,1.6,1.0,1.3*3E
2017-11-16 15:31:51 1510864311.387756: $GPZDA,203150.00,16,11,2017,00,00*60
2017-11-16 15:31:51 1510864311.387861: $GPGGA,203150,3946.9568,N,08404.9860,W,2,12,1.00,309.61,M,-33.324,M,,*74
2017-11-16 15:31:51 1510864311.387892: $GPRMC,203150,A,3946.9568,N,08404.9860,W,0.0000,0.000,161117,,*3E
2017-11-16 15:31:51 1510864311.387920: $GPGSA,A,3,8,10,14,27,18,20,21,24,25,32,12,138,1.6,1.0,1.3*3E
2017-11-16 15:31:52 1510864312.696548: $GPGSV,3,1,12,08,05,291,34,10,72,336,50,14,31,256,46,27,05,258,29*7F
2017-11-16 15:31:52 1510864312.696991: $GPGSV,3,2,12,18,68,099,47,20,06,120,17,21,26,178,42,24,43,057,50*77
2017-11-16 15:31:52 1510864312.703112: $GPGSV,3,3,12,25,05,139,18,32,48,268,46,12,11,105,29,138,38,213,44*44
2017-11-16 15:31:52 1510864312.809855: $GPZDA,203151.00,16,11,2017,00,00*61
2017-11-16 15:31:52 1510864312.810020: $GPGGA,203151,3946.9568,N,08404.9860,W,2,12,1.00,309.61,M,-33.324,M,,*75
2017-11-16 15:31:52 1510864312.810131: $GPRMC,203151,A,3946.9568,N,08404.9860,W,0.0000,0.000,161117,,*3F
2017-11-16 15:31:52 1510864312.810189: $GPGSA,A,3,8,10,14,27,18,20,21,24,25,32,12,138,1.6,1.0,1.3*3E
2017-11-16 15:31:53 1510864313.376895: $GPZDA,203152.00,16,11,2017,00,00*62
2017-11-16 15:31:53 1510864313.377059: $GPGGA,203152,3946.9568,N,08404.9860,W,2,12,1.00,309.61,M,-33.324,M,,*76
2017-11-16 15:31:53 1510864313.377120: $GPRMC,203152,A,3946.9568,N,08404.9860,W,0.0000,0.000,161117,,*3C
2017-11-16 15:31:53 1510864313.377176: $GPGSA,A,3,8,10,14,27,18,20,21,24,25,32,12,138,1.6,1.0,1.3*3E
2017-11-16 15:31:54 1510864314.366759: $GPZDA,203153.00,16,11,2017,00,00*63
2017-11-16 15:31:54 1510864314.366934: $GPGGA,203153,3946.9568,N,08404.9860,W,2,12,1.00,309.61,M,-33.324,M,,*77
2017-11-16 15:31:54 1510864314.366996: $GPRMC,203153,A,3946.9568,N,08404.9860,W,0.0000,0.000,161117,,*3D
2017-11-16 15:31:54 1510864314.367053: $GPGSA,A,3,8,10,14,27,18,20,21,24,25,32,12,138,1.6,1.0,1.3*3E
2017-11-16 15:31:55 1510864315.721187: $GPGSV,3,1,12,08,05,291,33,10,72,336,50,14,31,256,47,15,09,067,22*71
2017-11-16 15:31:55 1510864315.721357: $GPGSV,3,2,12,18,68,099,47,20,06,120,19,21,26,178,42,24,43,057,50*79
2017-11-16 15:31:55 1510864315.721417: $GPGSV,3,3,12,25,05,139,19,32,48,268,46,12,11,105,24,138,38,213,44*48
2017-11-16 15:31:55 1510864315.833107: $GPZDA,203154.00,16,11,2017,00,00*64
2017-11-16 15:31:55 1510864315.833271: $GPGGA,203154,3946.9568,N,08404.9860,W,2,11,1.00,309.61,M,-33.324,M,,*73
2017-11-16 15:31:55 1510864315.833331: $GPRMC,203154,A,3946.9568,N,08404.9860,W,0.0000,0.000,161117,,*3A
2017-11-16 15:31:55 1510864315.833387: $GPGSA,A,3,8,10,14,18,20,21,24,25,32,12,138,,1.6,1.0,1.3*3B
