2017-12-29 10:49:26 1514562566.665837: {"class":"VERSION","release":"3.16","rev":"3.16-4","proto_major":3,"proto_minor":11}
2017-12-29 10:49:26 1514562566.666223: {"class":"DEVICES","devices":[{"class":"DEVICE","path":"/dev/ttyUSB0","driver":"SiRF","subtype":"9\u0006GSD4e_4.1.2-P1_RPATCH.05-F-GPS-4R-1510281 11/03/2015 307","activated":"2017-12-29T15:49:26.103Z","flags":1,"native":1,"bps":4800,"parity":"N","stopbits":1,"cycle":1.00}]}
2017-12-29 10:49:26 1514562566.666334: {"class":"WATCH","enable":true,"json":false,"nmea":true,"raw":0,"scaled":false,"timing":false,"split24":false,"pps":false}
2017-12-29 10:49:27 1514562567.767787: $GPZDA,154928.08,29,12,2017,00,00*61
2017-12-29 10:49:27 1514562567.767955: $GPGGA,154928,3946.9604,N,08404.9818,W,1,10,1.40,315.84,M,-33.324,M,,*77
2017-12-29 10:49:27 1514562567.768022: $GPRMC,154928,A,3946.9604,N,08404.9818,W,0.3734,0.000,291217,,*32
2017-12-29 10:49:27 1514562567.768082: $GPGSA,A,3,10,13,15,18,20,21,24,27,32,138,,,1.7,1.4,1.3*04
2017-12-29 10:49:27 1514562567.768139: $GPGBS,154928,10.91,M,10.38,M,30.89,M*0C
2017-12-29 10:49:29 1514562569.563838: $GPGSV,3,1,12,10,32,292,43,13,18,046,46,15,48,049,51,18,63,316,40*70
2017-12-29 10:49:29 1514562569.564020: $GPGSV,3,2,12,20,44,084,43,21,75,210,41,24,43,127,50,27,19,301,29*71
2017-12-29 10:49:29 1514562569.564090: $GPGSV,3,3,12,32,12,231,00,29,01,186,00,08,01,331,00,138,38,213,00*44
2017-12-29 10:49:29 1514562569.677212: $GPZDA,154929.07,29,12,2017,00,00*6F
2017-12-29 10:49:29 1514562569.677374: $GPGGA,154929,3946.9599,N,08404.9818,W,1,08,1.40,315.20,M,-33.324,M,,*76
2017-12-29 10:49:29 1514562569.677440: $GPRMC,154929,A,3946.9599,N,08404.9818,W,0.0000,0.000,291217,,*37
2017-12-29 10:49:29 1514562569.677503: $GPGSA,A,3,10,13,15,18,20,21,24,27,,,,,1.7,1.4,1.3*3F
2017-12-29 10:49:30 1514562570.092674: $GPZDA,154929.58,29,12,2017,00,00*65
2017-12-29 10:49:30 1514562570.092827: $GPGGA,154929,3946.9599,N,08404.9824,W,1,08,1.40,313.72,M,-33.324,M,,*78
2017-12-29 10:49:30 1514562570.092894: $GPRMC,154929,A,3946.9599,N,08404.9824,W,0.0000,0.000,291217,,*38
2017-12-29 10:49:30 1514562570.092956: $GPGSA,A,3,10,13,15,18,20,21,24,27,,,,,1.7,1.4,1.3*3F
2017-12-29 10:49:30 1514562570.093015: $GPGBS,154929,10.91,M,10.38,M,30.89,M*0D
2017-12-29 10:49:30 1514562570.346475: $GPZDA,154930.00,29,12,2017,00,00*60
2017-12-29 10:49:30 1514562570.346635: $GPGGA,154930,3946.9598,N,08404.9823,W,1,08,0.80,312.31,M,-33.324,M,,*7D
2017-12-29 10:49:30 1514562570.346702: $GPRMC,154930,A,3946.9598,N,08404.9823,W,0.1867,0.000,291217,,*3E
2017-12-29 10:49:30 1514562570.346764: $GPGSA,A,3,10,13,15,18,20,21,24,27,,,,,1.7,0.8,1.3*32
2017-12-29 10:49:30 1514562570.346823: $GPGBS,154930,10.91,M,10.38,M,30.89,M*05
2017-12-29 10:49:31 1514562571.134461: $GPGSV,3,1,12,10,32,292,44,13,18,046,45,15,48,049,51,18,63,316,46*72
2017-12-29 10:49:31 1514562571.134619: $GPGSV,3,2,12,20,44,084,50,21,75,210,47,24,43,127,51,27,19,301,33*7F
2017-12-29 10:49:31 1514562571.134687: $GPGSV,3,3,12,32,12,231,32,29,01,186,13,08,01,331,00,138,38,213,00*47
2017-12-29 10:49:31 1514562571.246837: $GPZDA,154931.00,29,12,2017,00,00*61
2017-12-29 10:49:31 1514562571.246969: $GPGGA,154931,3946.9598,N,08404.9830,W,1,10,0.80,310.83,M,-33.324,M,,*7C
2017-12-29 10:49:31 1514562571.247035: $GPRMC,154931,A,3946.9598,N,08404.9830,W,0.0000,0.000,291217,,*35
2017-12-29 10:49:31 1514562571.247097: $GPGSA,A,3,10,13,15,18,20,21,24,27,32,29,,,1.7,0.8,1.3*38
2017-12-29 10:49:31 1514562571.873486: $GPZDA,154932.00,29,12,2017,00,00*62
2017-12-29 10:49:31 1514562571.873678: $GPGGA,154932,3946.9597,N,08404.9829,W,1,10,0.80,309.42,M,-33.324,M,,*7D
2017-12-29 10:49:31 1514562571.873747: $GPRMC,154932,A,3946.9597,N,08404.9829,W,0.0000,0.000,291217,,*31
2017-12-29 10:49:31 1514562571.873810: $GPGSA,A,3,10,13,15,18,20,21,24,27,32,29,,,1.7,0.8,1.3*38
2017-12-29 10:49:32 1514562572.411889: $GPZDA,154933.00,29,12,2017,00,00*63
2017-12-29 10:49:33 1514562573.379637: $GPGGA,154933,3946.9593,N,08404.9829,W,1,10,0.80,308.78,M,-33.324,M,,*70
2017-12-29 10:49:33 1514562573.379789: $GPRMC,154933,A,3946.9593,N,08404.9829,W,0.0000,0.000,291217,,*34
2017-12-29 10:49:33 1514562573.379898: $GPGSA,A,3,10,13,15,18,20,21,24,27,32,29,,,1.7,0.8,1.3*38
2017-12-29 10:49:33 1514562573.737152: $GPGSV,3,1,12,10,32,292,13,13,18,046,13,15,48,049,15,18,63,316,13*73
2017-12-29 10:49:33 1514562573.737323: $GPGSV,3,2,12,20,44,084,15,21,75,210,14,24,43,127,15,27,19,301,10*79
2017-12-29 10:49:33 1514562573.737387: $GPGSV,3,3,12,32,12,231,09,29,01,186,00,08,01,331,00,138,38,213,16*4A
2017-12-29 10:49:33 1514562573.850828: $GPZDA,154934.00,29,12,2017,00,00*64
2017-12-29 10:49:33 1514562573.850992: $GPGGA,154934,3946.9593,N,08404.9829,W,1,10,0.80,308.78,M,-33.324,M,,*77
2017-12-29 10:49:33 1514562573.851139: $GPRMC,154934,A,3946.9593,N,08404.9829,W,0.0000,0.000,291217,,*33
2017-12-29 10:49:33 1514562573.851203: $GPGSA,A,3,10,13,15,18,20,21,24,27,32,138,,,1.7,0.8,1.3*09
2017-12-29 10:49:34 1514562574.404203: $GPZDA,154935.00,29,12,2017,00,00*65
2017-12-29 10:49:34 1514562574.404374: $GPGGA,154935,3946.9597,N,08404.9828,W,1,10,0.80,308.02,M,-33.324,M,,*7E
2017-12-29 10:49:34 1514562574.404441: $GPRMC,154935,A,3946.9597,N,08404.9828,W,0.4207,39.346,291217,,*0D
2017-12-29 10:49:34 1514562574.404501: $GPGSA,A,3,10,13,15,18,20,21,24,27,32,138,,,1.7,0.8,1.3*09
2017-12-29 10:49:35 1514562575.402626: $GPZDA,154936.00,29,12,2017,00,00*66
2017-12-29 10:49:35 1514562575.402802: $GPGGA,154936,3946.9592,N,08404.9828,W,1,10,0.80,307.38,M,-33.324,M,,*7E
2017-12-29 10:49:35 1514562575.402869: $GPRMC,154936,A,3946.9592,N,08404.9828,W,0.1867,180.000,291217,,*30
2017-12-29 10:49:35 1514562575.402929: $GPGSA,A,3,10,13,15,18,20,21,24,27,32,138,,,1.7,0.8,1.3*09
2017-12-29 10:49:36 1514562576.736284: $GPGSV,3,1,12,10,32,292,44,13,18,046,44,15,48,049,50,18,63,316,44*70
2017-12-29 10:49:36 1514562576.736454: $GPGSV,3,2,12,20,44,084,49,21,75,210,47,24,43,127,50,27,19,301,36*73
2017-12-29 10:49:36 1514562576.736521: $GPGSV,3,3,12,32,12,231,25,29,01,186,00,08,01,331,00,138,38,213,45*42
2017-12-29 10:49:36 1514562576.849957: $GPZDA,154937.00,29,12,2017,00,00*67
2017-12-29 10:49:36 1514562576.850119: $GPGGA,154937,3946.9592,N,08404.9828,W,1,10,0.80,307.38,M,-33.324,M,,*7F
2017-12-29 10:49:36 1514562576.850184: $GPRMC,154937,A,3946.9592,N,08404.9828,W,0.0000,0.000,291217,,*30
2017-12-29 10:49:36 1514562576.850244: $GPGSA,A,3,10,13,15,18,20,21,24,27,32,138,,,1.7,0.8,1.3*09
2017-12-29 10:49:37 1514562577.403323: $GPZDA,154938.00,29,12,2017,00,00*68
2017-12-29 10:49:37 1514562577.403470: $GPGGA,154938,3946.9592,N,08404.9828,W,1,10,0.80,307.38,M,-33.324,M,,*70
2017-12-29 10:49:37 1514562577.403536: $GPRMC,154938,A,3946.9592,N,08404.9828,W,0.0000,0.000,291217,,*3F
2017-12-29 10:49:37 1514562577.403595: $GPGSA,A,3,10,13,15,18,20,21,24,27,32,138,,,1.7,0.8,1.3*09
2017-12-29 10:49:38 1514562578.404207: $GPZDA,154939.00,29,12,2017,00,00*69
2017-12-29 10:49:38 1514562578.404385: $GPGGA,154939,3946.9592,N,08404.9828,W,1,10,0.80,307.38,M,-33.324,M,,*71
2017-12-29 10:49:38 1514562578.404455: $GPRMC,154939,A,3946.9592,N,08404.9828,W,0.0000,0.000,291217,,*3E
2017-12-29 10:49:38 1514562578.404518: $GPGSA,A,3,10,13,15,18,20,21,24,27,32,138,,,1.7,0.8,1.3*09
2017-12-29 10:49:39 1514562579.738441: $GPGSV,3,1,12,10,32,292,44,13,18,046,44,15,48,049,50,18,63,316,44*70
2017-12-29 10:49:39 1514562579.738598: $GPGSV,3,2,12,20,44,084,49,21,75,210,47,24,43,127,50,27,19,301,36*73
2017-12-29 10:49:39 1514562579.738665: $GPGSV,3,3,12,32,12,231,20,29,01,186,00,08,01,331,00,138,38,213,45*47
2017-12-29 10:49:39 1514562579.850998: $GPZDA,154940.00,29,12,2017,00,00*67
2017-12-29 10:49:39 1514562579.851196: $GPGGA,154940,3946.9592,N,08404.9828,W,1,10,0.80,307.38,M,-33.324,M,,*7F
2017-12-29 10:49:39 1514562579.851263: $GPRMC,154940,A,3946.9592,N,08404.9828,W,0.0000,0.000,291217,,*30
2017-12-29 10:49:39 1514562579.851326: $GPGSA,A,3,10,13,15,18,20,21,24,27,32,138,,,1.7,0.8,1.3*09
2017-12-29 10:49:40 1514562580.401606: $GPZDA,154941.00,29,12,2017,00,00*66
2017-12-29 10:49:40 1514562580.401760: $GPGGA,154941,3946.9588,N,08404.9828,W,1,10,1.40,306.74,M,-33.324,M,,*71
2017-12-29 10:49:40 1514562580.401827: $GPRMC,154941,A,3946.9588,N,08404.9828,W,0.0000,0.000,291217,,*3A
2017-12-29 10:49:40 1514562580.401956: $GPGSA,A,3,10,13,15,18,20,21,24,27,32,138,,,1.7,1.4,1.3*04
2017-12-29 10:49:41 1514562581.405646: $GPZDA,154942.00,29,12,2017,00,00*65
2017-12-29 10:49:41 1514562581.405798: $GPGGA,154942,3946.9588,N,08404.9828,W,1,10,0.80,306.74,M,-33.324,M,,*7F
2017-12-29 10:49:41 1514562581.405862: $GPRMC,154942,A,3946.9588,N,08404.9828,W,0.0000,0.000,291217,,*39
2017-12-29 10:49:41 1514562581.405922: $GPGSA,A,3,10,13,15,18,20,21,24,27,32,138,,,1.7,0.8,1.3*09
