2017-11-16 15:32:14 1510864334.966738: {"class":"VERSION","release":"3.17","rev":"3.17","proto_major":3,"proto_minor":12}
2017-11-16 15:32:14 1510864334.967222: {"class":"DEVICES","devices":[{"class":"DEVICE","path":"/dev/ttyUSB0","driver":"SiRF","subtype":"9\u0006GSD4e_4.1.2-P1_RPATCH.05-F-GPS-4R-1510281 11/03/2015 307","activated":"2017-11-16T20:32:14.509Z","flags":1,"native":1,"bps":4800,"parity":"N","stopbits":1,"cycle":1.00}]}
2017-11-16 15:32:14 1510864334.967339: {"class":"WATCH","enable":true,"json":false,"nmea":true,"raw":0,"scaled":false,"timing":false,"split24":false,"pps":false}
2017-11-16 15:32:15 1510864335.382987: $GPZDA,203214.00,16,11,2017,00,00*63
2017-11-16 15:32:15 1510864335.383158: $GPGGA,203214,3946.9568,N,08404.9860,W,2,12,1.00,309.61,M,-33.324,M,,*77
2017-11-16 15:32:15 1510864335.383221: $GPRMC,203214,A,3946.9568,N,08404.9860,W,0.0000,0.000,161117,,*3D
2017-11-16 15:32:15 1510864335.383278: $GPGSA,A,3,8,10,14,27,18,20,21,24,25,32,12,138,1.6,1.0,1.3*3E
2017-11-16 15:32:16 1510864336.703283: $GPGSV,3,1,12,08,05,291,30,10,72,336,50,14,31,256,46,27,05,258,30*73
2017-11-16 15:32:16 1510864336.703449: $GPGSV,3,2,12,18,68,099,47,20,06,120,22,21,26,178,44,24,43,057,50*77
2017-11-16 15:32:16 1510864336.703509: $GPGSV,3,3,12,25,05,139,20,32,48,268,46,12,11,105,28,138,38,213,44*4E
2017-11-16 15:32:16 1510864336.815300: $GPZDA,203215.00,16,11,2017,00,00*62
2017-11-16 15:32:16 1510864336.815457: $GPGGA,203215,3946.9568,N,08404.9860,W,2,12,1.00,309.61,M,-33.324,M,,*76
2017-11-16 15:32:16 1510864336.815517: $GPRMC,203215,A,3946.9568,N,08404.9860,W,0.0000,0.000,161117,,*3C
2017-11-16 15:32:16 1510864336.815572: $GPGSA,A,3,8,10,14,27,18,20,21,24,25,32,12,138,1.6,1.0,1.3*3E
2017-11-16 15:32:17 1510864337.367641: $GPZDA,203216.00,16,11,2017,00,00*61
2017-11-16 15:32:17 1510864337.367815: $GPGGA,203216,3946.9568,N,08404.9860,W,2,12,1.00,309.61,M,-33.324,M,,*75
2017-11-16 15:32:17 1510864337.367875: $GPRMC,203216,A,3946.9568,N,08404.9860,W,0.0000,0.000,161117,,*3F
2017-11-16 15:32:17 1510864337.367931: $GPGSA,A,3,8,10,14,27,18,20,21,24,25,32,12,138,1.6,1.0,1.3*3E
2017-11-16 15:32:18 1510864338.383314: $GPZDA,203217.00,16,11,2017,00,00*60
2017-11-16 15:32:18 1510864338.383480: $GPGGA,203217,3946.9568,N,08404.9860,W,2,12,0.80,309.61,M,-33.324,M,,*7D
2017-11-16 15:32:18 1510864338.383542: $GPRMC,203217,A,3946.9568,N,08404.9860,W,0.0000,0.000,161117,,*3E
2017-11-16 15:32:18 1510864338.383615: $GPGSA,A,3,8,10,14,27,18,20,21,24,25,32,12,138,1.6,0.8,1.3*37
2017-11-16 15:32:19 1510864339.702847: $GPGSV,3,1,12,08,05,291,31,10,72,336,50,14,31,256,46,15,09,067,19*7A
2017-11-16 15:32:19 1510864339.703019: $GPGSV,3,2,12,18,68,099,46,20,06,120,22,21,26,178,44,24,43,057,50*76
2017-11-16 15:32:19 1510864339.703080: $GPGSV,3,3,12,25,05,139,20,32,48,268,46,12,11,105,29,138,38,213,44*4F
2017-11-16 15:32:19 1510864339.816171: $GPZDA,203218.00,16,11,2017,00,00*6F
2017-11-16 15:32:19 1510864339.820249: $GPGGA,203218,3946.9568,N,08404.9860,W,2,12,0.80,309.61,M,-33.324,M,,*72
2017-11-16 15:32:19 1510864339.820401: $GPRMC,203218,A,3946.9568,N,08404.9860,W,0.0000,0.000,161117,,*31
2017-11-16 15:32:19 1510864339.820461: $GPGSA,A,3,8,10,14,15,18,20,21,24,25,32,12,138,1.6,0.8,1.3*36
2017-11-16 15:32:20 1510864340.383283: $GPZDA,203219.00,16,11,2017,00,00*6E
2017-11-16 15:32:20 1510864340.383452: $GPGGA,203219,3946.9568,N,08404.9860,W,2,12,0.80,309.61,M,-33.324,M,,*73
2017-11-16 15:32:20 1510864340.383514: $GPRMC,203219,A,3946.9568,N,08404.9860,W,0.0000,0.000,161117,,*30
2017-11-16 15:32:20 1510864340.383570: $GPGSA,A,3,8,10,14,15,18,20,21,24,25,32,12,138,1.6,0.8,1.3*36
2017-11-16 15:32:21 1510864341.367505: $GPZDA,203220.00,16,11,2017,00,00*64
2017-11-16 15:32:21 1510864341.367680: $GPGGA,203220,3946.9568,N,08404.9860,W,2,12,0.80,309.61,M,-33.324,M,,*79
2017-11-16 15:32:21 1510864341.367745: $GPRMC,203220,A,3946.9568,N,08404.9860,W,0.0000,0.000,161117,,*3A
2017-11-16 15:32:21 1510864341.367804: $GPGSA,A,3,8,10,14,15,18,20,21,24,25,32,12,138,1.6,0.8,1.3*36
2017-11-16 15:32:22 1510864342.701983: $GPGSV,3,1,12,08,05,291,30,10,72,336,51,14,31,256,46,15,09,067,20*70
2017-11-16 15:32:22 1510864342.702204: $GPGSV,3,2,12,18,68,099,46,20,06,120,22,21,26,178,44,24,43,057,50*76
2017-11-16 15:32:22 1510864342.702267: $GPGSV,3,3,12,25,05,139,20,32,48,268,46,12,11,105,29,138,38,213,44*4F
2017-11-16 15:32:22 1510864342.815288: $GPZDA,203221.00,16,11,2017,00,00*65
2017-11-16 15:32:22 1510864342.815449: $GPGGA,203221,3946.9568,N,08404.9860,W,2,12,0.80,309.61,M,-33.324,M,,*78
2017-11-16 15:32:22 1510864342.815508: $GPRMC,203221,A,3946.9568,N,08404.9860,W,0.0000,0.000,161117,,*3B
2017-11-16 15:32:22 1510864342.815565: $GPGSA,A,3,8,10,14,15,18,20,21,24,25,32,12,138,1.6,0.8,1.3*36
2017-11-16 15:32:23 1510864343.366379: $GPZDA,203222.00,16,11,2017,00,00*66
2017-11-16 15:32:23 1510864343.366571: $GPGGA,203222,3946.9568,N,08404.9860,W,2,12,0.80,309.61,M,-33.324,M,,*7B
2017-11-16 15:32:23 1510864343.366632: $GPRMC,203222,A,3946.9568,N,08404.9860,W,0.0000,0.000,161117,,*38
2017-11-16 15:32:23 1510864343.366690: $GPGSA,A,3,8,10,14,15,18,20,21,24,25,32,12,138,1.6,0.8,1.3*36
2017-11-16 15:32:24 1510864344.368331: $GPZDA,203223.00,16,11,2017,00,00*67
2017-11-16 15:32:24 1510864344.368497: $GPGGA,203223,3946.9568,N,08404.9860,W,2,12,0.80,309.61,M,-33.324,M,,*7A
2017-11-16 15:32:24 1510864344.368559: $GPRMC,203223,A,3946.9568,N,08404.9860,W,0.0000,0.000,161117,,*39
2017-11-16 15:32:24 1510864344.368615: $GPGSA,A,3,8,10,14,15,18,20,21,24,25,32,12,138,1.6,0.8,1.3*36
