2017-12-01 14:28:55 1512156535.626812: {"class":"VERSION","release":"3.16","rev":"3.16-4","proto_major":3,"proto_minor":11}
2017-12-01 14:28:55 1512156535.627231: {"class":"DEVICES","devices":[{"class":"DEVICE","path":"/dev/ttyUSB0","driver":"SiRF","subtype":"9\u0006GSD4e_4.1.2-P1_RPATCH.05-F-GPS-4R-1510281 11/03/2015 307","activated":"2017-12-01T19:28:55.510Z","flags":1,"native":1,"bps":4800,"parity":"N","stopbits":1,"cycle":1.00}]}
2017-12-01 14:28:55 1512156535.627350: {"class":"WATCH","enable":true,"json":false,"nmea":true,"raw":0,"scaled":false,"timing":false,"split24":false,"pps":false}
2017-12-01 14:28:56 1512156536.736461: $GPGSV,3,1,12,10,71,334,48,14,30,255,40,18,69,099,45,21,26,178,45*78
2017-12-01 14:28:56 1512156536.736625: $GPGSV,3,2,12,24,43,057,50,32,48,268,45,08,05,292,26,12,10,105,31*79
2017-12-01 14:28:56 1512156536.736691: $GPGSV,3,3,12,15,10,067,30,27,05,258,29,20,07,120,25,138,38,213,47*4A
2017-12-01 14:28:56 1512156536.850082: $GPZDA,192857.00,01,12,2017,00,00*60
2017-12-01 14:28:56 1512156536.850206: $GPGGA,192857,3946.9566,N,08404.9814,W,2,12,0.80,302.30,M,-33.324,M,,*7A
2017-12-01 14:28:56 1512156536.850270: $GPRMC,192857,A,3946.9566,N,08404.9814,W,0.0000,0.000,011217,,*33
2017-12-01 14:28:56 1512156536.850330: $GPGSA,A,3,10,14,18,21,24,32,8,12,15,27,20,138,2.0,0.8,1.5*37
2017-12-01 14:28:57 1512156537.476642: $GPZDA,192858.00,01,12,2017,00,00*6F
2017-12-01 14:28:57 1512156537.476812: $GPGGA,192858,3946.9566,N,08404.9814,W,2,12,0.80,302.30,M,-33.324,M,,*75
2017-12-01 14:28:57 1512156537.476879: $GPRMC,192858,A,3946.9566,N,08404.9814,W,0.0000,0.000,011217,,*3C
2017-12-01 14:28:57 1512156537.476940: $GPGSA,A,3,10,14,18,21,24,32,8,12,15,27,20,138,2.0,0.8,1.5*37
2017-12-01 14:28:58 1512156538.366391: $GPZDA,192859.00,01,12,2017,00,00*6E
2017-12-01 14:28:58 1512156538.366560: $GPGGA,192859,3946.9566,N,08404.9814,W,2,12,0.80,302.30,M,-33.324,M,,*74
2017-12-01 14:28:58 1512156538.366626: $GPRMC,192859,A,3946.9566,N,08404.9814,W,0.0000,0.000,011217,,*3D
2017-12-01 14:28:58 1512156538.366687: $GPGSA,A,3,10,14,18,21,24,32,8,12,15,27,20,138,2.0,0.8,1.5*37
2017-12-01 14:28:59 1512156539.704327: $GPGSV,3,1,12,10,71,334,48,14,30,255,40,18,69,099,45,21,26,178,45*78
2017-12-01 14:28:59 1512156539.704516: $GPGSV,3,2,12,24,43,057,50,32,48,268,45,08,05,292,26,12,10,105,31*79
2017-12-01 14:28:59 1512156539.704583: $GPGSV,3,3,12,15,10,067,30,27,05,258,26,20,07,120,26,138,38,213,46*47
2017-12-01 14:28:59 1512156539.816666: $GPZDA,192900.00,01,12,2017,00,00*63
2017-12-01 14:28:59 1512156539.816839: $GPGGA,192900,3946.9566,N,08404.9814,W,2,12,0.80,302.30,M,-33.324,M,,*79
2017-12-01 14:28:59 1512156539.816906: $GPRMC,192900,A,3946.9566,N,08404.9814,W,0.0000,0.000,011217,,*30
2017-12-01 14:28:59 1512156539.816966: $GPGSA,A,3,10,14,18,21,24,32,8,12,15,27,20,138,2.0,0.8,1.5*37
2017-12-01 14:29:00 1512156540.364833: $GPZDA,192901.00,01,12,2017,00,00*62
2017-12-01 14:29:00 1512156540.365004: $GPGGA,192901,3946.9566,N,08404.9814,W,2,12,0.80,302.30,M,-33.324,M,,*78
2017-12-01 14:29:00 1512156540.365071: $GPRMC,192901,A,3946.9566,N,08404.9814,W,0.0000,0.000,011217,,*31
2017-12-01 14:29:00 1512156540.365132: $GPGSA,A,3,10,14,18,21,24,32,8,12,15,27,20,138,2.0,0.8,1.5*37
2017-12-01 14:29:01 1512156541.393211: $GPZDA,192902.00,01,12,2017,00,00*61
2017-12-01 14:29:01 1512156541.393393: $GPGGA,192902,3946.9566,N,08404.9814,W,2,12,0.80,302.30,M,-33.324,M,,*7B
2017-12-01 14:29:01 1512156541.393463: $GPRMC,192902,A,3946.9566,N,08404.9814,W,0.0000,0.000,011217,,*32
2017-12-01 14:29:01 1512156541.393525: $GPGSA,A,3,10,14,18,21,24,32,8,12,15,27,20,138,2.0,0.8,1.5*37
2017-12-01 14:29:02 1512156542.728524: $GPGSV,3,1,12,10,71,334,48,14,30,255,40,18,69,099,45,21,26,178,45*78
2017-12-01 14:29:02 1512156542.728706: $GPGSV,3,2,12,24,43,057,49,32,48,268,45,08,05,292,26,12,10,105,30*70
2017-12-01 14:29:02 1512156542.728771: $GPGSV,3,3,12,15,10,067,30,27,05,258,27,20,07,120,26,138,38,213,47*47
2017-12-01 14:29:02 1512156542.841956: $GPZDA,192903.00,01,12,2017,00,00*60
2017-12-01 14:29:02 1512156542.842085: $GPGGA,192903,3946.9566,N,08404.9814,W,2,12,0.80,302.30,M,-33.324,M,,*7A
2017-12-01 14:29:02 1512156542.842200: $GPRMC,192903,A,3946.9566,N,08404.9814,W,0.0000,0.000,011217,,*33
2017-12-01 14:29:02 1512156542.842263: $GPGSA,A,3,10,14,18,21,24,32,8,12,15,27,20,138,2.0,0.8,1.5*37
2017-12-01 14:29:03 1512156543.369061: $GPZDA,192904.00,01,12,2017,00,00*67
2017-12-01 14:29:03 1512156543.369236: $GPGGA,192904,3946.9566,N,08404.9814,W,2,12,0.80,302.30,M,-33.324,M,,*7D
2017-12-01 14:29:03 1512156543.369304: $GPRMC,192904,A,3946.9566,N,08404.9814,W,0.0000,0.000,011217,,*34
2017-12-01 14:29:03 1512156543.369366: $GPGSA,A,3,10,14,18,21,24,32,8,12,15,27,20,138,2.0,0.8,1.5*37
2017-12-01 14:29:04 1512156544.402509: $GPZDA,192905.00,01,12,2017,00,00*66
2017-12-01 14:29:04 1512156544.402681: $GPGGA,192905,3946.9566,N,08404.9814,W,2,12,0.80,302.30,M,-33.324,M,,*7C
2017-12-01 14:29:04 1512156544.402747: $GPRMC,192905,A,3946.9566,N,08404.9814,W,0.0000,0.000,011217,,*35
2017-12-01 14:29:04 1512156544.402809: $GPGSA,A,3,10,14,18,21,24,32,8,12,15,27,20,138,2.0,0.8,1.5*37
2017-12-01 14:29:05 1512156545.703143: $GPGSV,3,1,12,10,71,334,48,14,30,255,40,18,69,099,45,21,26,178,44*79
2017-12-01 14:29:05 1512156545.703327: $GPGSV,3,2,12,24,43,057,49,32,48,268,45,08,05,292,26,12,10,105,30*70
2017-12-01 14:29:05 1512156545.703395: $GPGSV,3,3,12,15,10,067,30,27,05,258,22,20,07,120,25,138,38,213,47*41
2017-12-01 14:29:05 1512156545.816627: $GPZDA,192906.00,01,12,2017,00,00*65
2017-12-01 14:29:05 1512156545.816805: $GPGGA,192906,3946.9563,N,08404.9814,W,2,12,0.80,303.06,M,-33.324,M,,*7E
2017-12-01 14:29:05 1512156545.816875: $GPRMC,192906,A,3946.9563,N,08404.9814,W,0.0000,0.000,011217,,*33
2017-12-01 14:29:05 1512156545.816937: $GPGSA,A,3,10,14,18,21,24,32,8,12,15,27,20,138,2.0,0.8,1.5*37
2017-12-01 14:29:06 1512156546.368666: $GPZDA,192907.00,01,12,2017,00,00*64
2017-12-01 14:29:06 1512156546.368834: $GPGGA,192907,3946.9563,N,08404.9814,W,2,12,0.80,303.06,M,-33.324,M,,*7F
2017-12-01 14:29:06 1512156546.368902: $GPRMC,192907,A,3946.9563,N,08404.9814,W,0.0000,0.000,011217,,*32
2017-12-01 14:29:06 1512156546.368963: $GPGSA,A,3,10,14,18,21,24,32,8,12,15,27,20,138,2.0,0.8,1.5*37
2017-12-01 14:29:07 1512156547.405217: $GPZDA,192908.00,01,12,2017,00,00*6B
2017-12-01 14:29:07 1512156547.405405: $GPGGA,192908,3946.9563,N,08404.9814,W,2,12,0.80,303.06,M,-33.324,M,,*70
2017-12-01 14:29:07 1512156547.405475: $GPRMC,192908,A,3946.9563,N,08404.9814,W,0.0000,0.000,011217,,*3D
2017-12-01 14:29:07 1512156547.405536: $GPGSA,A,3,10,14,18,21,24,32,8,12,15,27,20,138,2.0,0.8,1.5*37
2017-12-01 14:29:08 1512156548.706018: $GPGSV,3,1,12,10,71,334,48,14,30,255,40,18,69,099,45,21,26,178,44*79
2017-12-01 14:29:08 1512156548.706191: $GPGSV,3,2,12,24,43,057,49,32,48,268,45,08,05,292,26,12,10,105,26*77
2017-12-01 14:29:08 1512156548.706266: $GPGSV,3,3,12,15,10,067,30,27,05,258,21,20,07,120,25,138,38,213,47*42
2017-12-01 14:29:08 1512156548.819460: $GPZDA,192909.00,01,12,2017,00,00*6A
2017-12-01 14:29:08 1512156548.819644: $GPGGA,192909,3946.9563,N,08404.9814,W,2,12,0.80,303.06,M,-33.324,M,,*71
2017-12-01 14:29:08 1512156548.819716: $GPRMC,192909,A,3946.9563,N,08404.9814,W,0.0000,0.000,011217,,*3C
2017-12-01 14:29:08 1512156548.819782: $GPGSA,A,3,10,14,18,21,24,32,8,12,15,27,20,138,2.0,0.8,1.5*37
2017-12-01 14:29:09 1512156549.402797: $GPZDA,192910.00,01,12,2017,00,00*62
2017-12-01 14:29:09 1512156549.402972: $GPGGA,192910,3946.9563,N,08404.9814,W,2,12,0.80,303.06,M,-33.324,M,,*79
2017-12-01 14:29:09 1512156549.403041: $GPRMC,192910,A,3946.9563,N,08404.9814,W,0.0000,0.000,011217,,*34
2017-12-01 14:29:09 1512156549.403105: $GPGSA,A,3,10,14,18,21,24,32,8,12,15,27,20,138,2.0,0.8,1.5*37
2017-12-01 14:29:10 1512156550.402516: $GPZDA,192911.00,01,12,2017,00,00*63
2017-12-01 14:29:10 1512156550.402707: $GPGGA,192911,3946.9563,N,08404.9814,W,2,12,0.80,303.06,M,-33.324,M,,*78
2017-12-01 14:29:10 1512156550.402802: $GPRMC,192911,A,3946.9563,N,08404.9814,W,0.0000,0.000,011217,,*35
2017-12-01 14:29:10 1512156550.402871: $GPGSA,A,3,10,14,18,21,24,32,8,12,15,27,20,138,2.0,0.8,1.5*37
2017-12-01 14:29:11 1512156551.704410: $GPGSV,3,1,12,10,71,334,48,14,30,255,40,18,69,099,45,21,26,178,44*79
2017-12-01 14:29:11 1512156551.704593: $GPGSV,3,2,12,24,43,057,49,32,48,268,45,08,05,292,27,12,10,105,27*77
2017-12-01 14:29:11 1512156551.704661: $GPGSV,3,3,12,15,10,067,30,27,05,258,09,20,07,120,25,138,38,213,47*48
2017-12-01 14:29:11 1512156551.817751: $GPZDA,192912.00,01,12,2017,00,00*60
2017-12-01 14:29:11 1512156551.817915: $GPGGA,192912,3946.9563,N,08404.9814,W,2,11,0.80,303.06,M,-33.324,M,,*78
2017-12-01 14:29:11 1512156551.817982: $GPRMC,192912,A,3946.9563,N,08404.9814,W,0.0000,0.000,011217,,*36
2017-12-01 14:29:11 1512156551.818044: $GPGSA,A,3,10,14,18,21,24,32,8,12,15,20,138,,2.0,0.8,1.5*32
2017-12-01 14:29:12 1512156552.443234: $GPZDA,192913.00,01,12,2017,00,00*61
2017-12-01 14:29:12 1512156552.443426: $GPGGA,192913,3946.9563,N,08404.9814,W,2,11,0.80,303.06,M,-33.324,M,,*79
2017-12-01 14:29:12 1512156552.443496: $GPRMC,192913,A,3946.9563,N,08404.9814,W,0.0000,0.000,011217,,*37
2017-12-01 14:29:12 1512156552.443558: $GPGSA,A,3,10,14,18,21,24,32,8,12,15,20,138,,2.0,0.8,1.5*32
2017-12-01 14:29:13 1512156553.402780: $GPZDA,192914.00,01,12,2017,00,00*66
2017-12-01 14:29:13 1512156553.402968: $GPGGA,192914,3946.9563,N,08404.9814,W,2,11,0.80,303.06,M,-33.324,M,,*7E
2017-12-01 14:29:13 1512156553.403040: $GPRMC,192914,A,3946.9563,N,08404.9814,W,0.0000,0.000,011217,,*30
2017-12-01 14:29:13 1512156553.403103: $GPGSA,A,3,10,14,18,21,24,32,8,12,15,20,138,,2.0,0.8,1.5*32
2017-12-01 14:29:14 1512156554.738426: $GPGSV,3,1,12,10,71,334,48,14,30,255,41,18,69,099,45,21,26,178,45*79
2017-12-01 14:29:14 1512156554.738611: $GPGSV,3,2,12,24,43,057,50,32,48,268,44,08,05,292,18,12,10,105,28*7D
2017-12-01 14:29:14 1512156554.738680: $GPGSV,3,3,12,15,10,067,31,27,05,258,16,20,07,120,20,138,38,213,47*42
2017-12-01 14:29:14 1512156554.851901: $GPZDA,192915.00,01,12,2017,00,00*67
2017-12-01 14:29:14 1512156554.852077: $GPGGA,192915,3946.9563,N,08404.9814,W,2,12,0.80,303.06,M,-33.324,M,,*7C
2017-12-01 14:29:14 1512156554.852147: $GPRMC,192915,A,3946.9563,N,08404.9814,W,0.0000,0.000,011217,,*31
2017-12-01 14:29:14 1512156554.852234: $GPGSA,A,3,10,14,18,21,24,32,8,12,15,27,20,138,2.0,0.8,1.5*37
2017-12-01 14:29:15 1512156555.403972: $GPZDA,192916.00,01,12,2017,00,00*64
2017-12-01 14:29:15 1512156555.408231: $GPGGA,192916,3946.9563,N,08404.9814,W,2,12,0.80,303.06,M,-33.324,M,,*7F
2017-12-01 14:29:15 1512156555.408371: $GPRMC,192916,A,3946.9563,N,08404.9814,W,0.0000,0.000,011217,,*32
2017-12-01 14:29:15 1512156555.408457: $GPGSA,A,3,10,14,18,21,24,32,8,12,15,27,20,138,2.0,0.8,1.5*37
2017-12-01 14:29:16 1512156556.368903: $GPZDA,192917.00,01,12,2017,00,00*65
2017-12-01 14:29:16 1512156556.369098: $GPGGA,192917,3946.9563,N,08404.9814,W,2,12,0.80,303.06,M,-33.324,M,,*7E
2017-12-01 14:29:16 1512156556.369169: $GPRMC,192917,A,3946.9563,N,08404.9814,W,0.0000,0.000,011217,,*33
2017-12-01 14:29:16 1512156556.369268: $GPGSA,A,3,10,14,18,21,24,32,8,12,15,27,20,138,2.0,0.8,1.5*37
2017-12-01 14:29:17 1512156557.702701: $GPGSV,3,1,12,10,71,334,48,14,30,255,41,18,69,099,45,21,26,178,45*79
2017-12-01 14:29:17 1512156557.702883: $GPGSV,3,2,12,24,43,057,49,32,48,268,44,08,05,292,17,12,10,105,27*75
2017-12-01 14:29:17 1512156557.702952: $GPGSV,3,3,12,15,10,067,31,27,05,258,18,20,07,120,18,138,38,213,46*46
2017-12-01 14:29:17 1512156557.816027: $GPZDA,192918.00,01,12,2017,00,00*6A
2017-12-01 14:29:17 1512156557.816200: $GPGGA,192918,3946.9563,N,08404.9814,W,2,12,0.80,303.06,M,-33.324,M,,*71
2017-12-01 14:29:17 1512156557.816296: $GPRMC,192918,A,3946.9563,N,08404.9814,W,0.0000,0.000,011217,,*3C
2017-12-01 14:29:17 1512156557.816388: $GPGSA,A,3,10,14,18,21,24,32,8,12,15,27,20,138,2.0,0.8,1.5*37
2017-12-01 14:29:18 1512156558.360688: $GPZDA,192919.00,01,12,2017,00,00*6B
2017-12-01 14:29:18 1512156558.360861: $GPGGA,192919,3946.9563,N,08404.9814,W,2,12,0.80,303.06,M,-33.324,M,,*70
2017-12-01 14:29:18 1512156558.360931: $GPRMC,192919,A,3946.9563,N,08404.9814,W,0.0000,0.000,011217,,*3D
2017-12-01 14:29:18 1512156558.360995: $GPGSA,A,3,10,14,18,21,24,32,8,12,15,27,20,138,2.0,0.8,1.5*37
2017-12-01 14:29:19 1512156559.369039: $GPZDA,192920.00,01,12,2017,00,00*61
2017-12-01 14:29:19 1512156559.369233: $GPGGA,192920,3946.9563,N,08404.9814,W,2,12,0.80,303.06,M,-33.324,M,,*7A
2017-12-01 14:29:19 1512156559.369301: $GPRMC,192920,A,3946.9563,N,08404.9814,W,0.0000,0.000,011217,,*37
2017-12-01 14:29:19 1512156559.369379: $GPGSA,A,3,10,14,18,21,24,32,8,12,15,27,20,138,2.0,0.8,1.5*37
