2017-12-01 13:21:57 1512152517.167147: {"class":"VERSION","release":"3.16","rev":"3.16-4","proto_major":3,"proto_minor":11}
2017-12-01 13:21:57 1512152517.167662: {"class":"DEVICES","devices":[{"class":"DEVICE","path":"/dev/ttyUSB0","driver":"SiRF","subtype":"9\u0006GSD4e_4.1.2-P1_RPATCH.05-F-GPS-4R-1510281 11/03/2015 307","activated":"2017-12-01T18:21:56.990Z","flags":1,"native":1,"bps":4800,"parity":"N","stopbits":1,"cycle":1.00}]}
2017-12-01 13:21:57 1512152517.167782: {"class":"WATCH","enable":true,"json":false,"nmea":true,"raw":0,"scaled":false,"timing":false,"split24":false,"pps":false}
2017-12-01 13:21:57 1512152517.425406: $GPZDA,182158.00,01,12,2017,00,00*67
2017-12-01 13:21:57 1512152517.425599: $GPGGA,182158,3946.9569,N,08404.9852,W,2,12,0.80,296.84,M,-33.324,M,,*73
2017-12-01 13:21:57 1512152517.425667: $GPRMC,182158,A,3946.9569,N,08404.9852,W,0.0000,0.000,011217,,*39
2017-12-01 13:21:57 1512152517.425728: $GPGSA,A,3,10,15,18,20,21,24,32,8,13,27,14,138,2.0,0.8,1.5*36
2017-12-01 13:21:58 1512152518.424012: $GPZDA,182159.00,01,12,2017,00,00*66
2017-12-01 13:21:58 1512152518.424203: $GPGGA,182159,3946.9569,N,08404.9852,W,2,12,0.80,296.84,M,-33.324,M,,*72
2017-12-01 13:21:58 1512152518.424270: $GPRMC,182159,A,3946.9569,N,08404.9852,W,0.0000,0.000,011217,,*38
2017-12-01 13:21:58 1512152518.424331: $GPGSA,A,3,10,15,18,20,21,24,32,8,13,27,14,138,2.0,0.8,1.5*36
2017-12-01 13:21:59 1512152519.742066: $GPGSV,3,1,12,10,45,304,46,15,33,054,47,18,73,348,43,20,30,099,44*7F
2017-12-01 13:21:59 1512152519.742244: $GPGSV,3,2,12,21,59,186,45,24,52,103,45,32,24,241,43,08,07,318,36*7F
2017-12-01 13:21:59 1512152519.742311: $GPGSV,3,3,12,13,04,049,11,27,18,285,38,14,07,234,30,138,38,213,46*4E
2017-12-01 13:21:59 1512152519.855657: $GPZDA,182200.00,01,12,2017,00,00*69
2017-12-01 13:21:59 1512152519.855814: $GPGGA,182200,3946.9569,N,08404.9852,W,2,11,0.80,296.84,M,-33.324,M,,*7E
2017-12-01 13:21:59 1512152519.855881: $GPRMC,182200,A,3946.9569,N,08404.9852,W,0.0000,0.000,011217,,*37
2017-12-01 13:21:59 1512152519.855967: $GPGSA,A,3,10,15,18,20,21,24,32,8,27,14,138,,2.0,0.8,1.5*34
2017-12-01 13:22:00 1512152520.481008: $GPZDA,182201.00,01,12,2017,00,00*68
2017-12-01 13:22:00 1512152520.481207: $GPGGA,182201,3946.9569,N,08404.9852,W,2,11,0.80,296.84,M,-33.324,M,,*7F
2017-12-01 13:22:00 1512152520.481298: $GPRMC,182201,A,3946.9569,N,08404.9852,W,0.0000,0.000,011217,,*36
2017-12-01 13:22:00 1512152520.481416: $GPGSA,A,3,10,15,18,20,21,24,32,8,27,14,138,,2.0,0.8,1.5*34
2017-12-01 13:22:01 1512152521.420811: $GPZDA,182202.00,01,12,2017,00,00*6B
2017-12-01 13:22:01 1512152521.421001: $GPGGA,182202,3946.9569,N,08404.9845,W,2,11,0.80,296.92,M,-33.324,M,,*7D
2017-12-01 13:22:01 1512152521.421085: $GPRMC,182202,A,3946.9569,N,08404.9845,W,0.0000,0.000,011217,,*33
2017-12-01 13:22:01 1512152521.421148: $GPGSA,A,3,10,15,18,20,21,24,32,8,27,14,138,,2.0,0.8,1.5*34
2017-12-01 13:22:02 1512152522.741123: $GPGSV,3,1,12,10,45,304,46,15,33,054,47,18,73,348,43,20,30,099,44*7F
2017-12-01 13:22:02 1512152522.741319: $GPGSV,3,2,12,21,59,186,45,24,52,103,45,32,24,241,42,08,07,318,30*78
2017-12-01 13:22:02 1512152522.741443: $GPGSV,3,3,12,13,04,049,00,27,18,285,38,14,07,234,30,138,38,213,46*4E
2017-12-01 13:22:02 1512152522.854500: $GPZDA,182203.00,01,12,2017,00,00*6A
2017-12-01 13:22:02 1512152522.854671: $GPGGA,182203,3946.9566,N,08404.9846,W,2,11,0.80,297.69,M,-33.324,M,,*75
2017-12-01 13:22:02 1512152522.854741: $GPRMC,182203,A,3946.9566,N,08404.9846,W,0.0000,0.000,011217,,*3E
2017-12-01 13:22:02 1512152522.854805: $GPGSA,A,3,10,15,18,20,21,24,32,8,27,14,138,,2.0,0.8,1.5*34
2017-12-01 13:22:03 1512152523.425640: $GPZDA,182204.00,01,12,2017,00,00*6D
2017-12-01 13:22:03 1512152523.425816: $GPGGA,182204,3946.9566,N,08404.9846,W,2,11,0.80,297.69,M,-33.324,M,,*72
2017-12-01 13:22:03 1512152523.425910: $GPRMC,182204,A,3946.9566,N,08404.9846,W,0.0000,0.000,011217,,*39
2017-12-01 13:22:03 1512152523.425976: $GPGSA,A,3,10,15,18,20,21,24,32,8,27,14,138,,2.0,0.8,1.5*34
2017-12-01 13:22:04 1512152524.406220: $GPZDA,182205.00,01,12,2017,00,00*6C
2017-12-01 13:22:04 1512152524.406454: $GPGGA,182205,3946.9566,N,08404.9846,W,2,11,0.80,297.69,M,-33.324,M,,*73
2017-12-01 13:22:04 1512152524.406526: $GPRMC,182205,A,3946.9566,N,08404.9846,W,0.0000,0.000,011217,,*38
2017-12-01 13:22:04 1512152524.406587: $GPGSA,A,3,10,15,18,20,21,24,32,8,27,14,138,,2.0,0.8,1.5*34
2017-12-01 13:22:05 1512152525.742722: $GPGSV,3,1,12,10,45,304,46,15,33,054,47,18,73,348,43,20,30,099,44*7F
2017-12-01 13:22:05 1512152525.742926: $GPGSV,3,2,12,21,59,186,45,24,52,103,45,32,24,241,43,08,07,318,25*7D
2017-12-01 13:22:05 1512152525.742994: $GPGSV,3,3,12,13,04,049,00,27,18,285,37,14,07,234,30,138,38,213,47*40
2017-12-01 13:22:05 1512152525.856065: $GPZDA,182206.00,01,12,2017,00,00*6F
2017-12-01 13:22:05 1512152525.856210: $GPGGA,182206,3946.9566,N,08404.9846,W,2,11,0.80,297.69,M,-33.324,M,,*70
2017-12-01 13:22:05 1512152525.856275: $GPRMC,182206,A,3946.9566,N,08404.9846,W,0.0000,0.000,011217,,*3B
2017-12-01 13:22:05 1512152525.856336: $GPGSA,A,3,10,15,18,20,21,24,32,8,27,14,138,,2.0,0.8,1.5*34
2017-12-01 13:22:06 1512152526.402255: $GPZDA,182207.00,01,12,2017,00,00*6E
2017-12-01 13:22:06 1512152526.402425: $GPGGA,182207,3946.9566,N,08404.9846,W,2,11,0.80,297.69,M,-33.324,M,,*71
2017-12-01 13:22:06 1512152526.402492: $GPRMC,182207,A,3946.9566,N,08404.9846,W,0.0000,0.000,011217,,*3A
2017-12-01 13:22:06 1512152526.402553: $GPGSA,A,3,10,15,18,20,21,24,32,8,27,14,138,,2.0,0.8,1.5*34
