2017-11-16 15:11:15 1510863075.236027: {"class":"VERSION","release":"3.17","rev":"3.17","proto_major":3,"proto_minor":12}
2017-11-16 15:11:15 1510863075.236498: {"class":"DEVICES","devices":[{"class":"DEVICE","path":"/dev/ttyUSB0","driver":"SiRF","subtype":"9\u0006GSD4e_4.1.2-P1_RPATCH.05-F-GPS-4R-1510281 11/03/2015 307","activated":"2017-11-16T20:11:15.203Z","flags":1,"native":1,"bps":4800,"parity":"N","stopbits":1,"cycle":1.00}]}
2017-11-16 15:11:15 1510863075.236613: {"class":"WATCH","enable":true,"json":false,"nmea":true,"raw":0,"scaled":false,"timing":false,"split24":false,"pps":false}
2017-11-16 15:11:15 1510863075.381854: $GPZDA,201114.00,16,11,2017,00,00*62
2017-11-16 15:11:15 1510863075.382015: $GPGGA,201114,3946.9579,N,08404.9847,W,2,12,0.80,301.01,M,-33.324,M,,*74
2017-11-16 15:11:15 1510863075.382076: $GPRMC,201114,A,3946.9579,N,08404.9847,W,0.0000,0.000,161117,,*39
2017-11-16 15:11:15 1510863075.382132: $GPGSA,A,3,8,10,14,15,18,20,21,24,27,32,12,138,1.6,0.8,1.3*34
2017-11-16 15:11:16 1510863076.724580: $GPGSV,3,1,12,08,07,300,35,10,63,322,51,14,24,249,45,15,16,063,41*7F
2017-11-16 15:11:16 1510863076.724748: $GPGSV,3,2,12,18,75,073,47,20,13,114,34,21,36,181,45,24,49,067,49*7C
2017-11-16 15:11:16 1510863076.724808: $GPGSV,3,3,12,27,10,265,40,32,41,258,48,12,05,112,21,138,38,213,44*4A
2017-11-16 15:11:16 1510863076.837872: $GPZDA,201115.00,16,11,2017,00,00*63
2017-11-16 15:11:16 1510863076.838033: $GPGGA,201115,3946.9579,N,08404.9847,W,2,12,0.80,301.01,M,-33.324,M,,*75
2017-11-16 15:11:16 1510863076.838092: $GPRMC,201115,A,3946.9579,N,08404.9847,W,0.0000,0.000,161117,,*38
2017-11-16 15:11:16 1510863076.838148: $GPGSA,A,3,8,10,14,15,18,20,21,24,27,32,12,138,1.6,0.8,1.3*34
2017-11-16 15:11:17 1510863077.405068: $GPZDA,201116.00,16,11,2017,00,00*60
2017-11-16 15:11:17 1510863077.405256: $GPGGA,201116,3946.9579,N,08404.9847,W,2,12,0.80,301.01,M,-33.324,M,,*76
2017-11-16 15:11:17 1510863077.405317: $GPRMC,201116,A,3946.9579,N,08404.9847,W,0.0000,0.000,161117,,*3B
2017-11-16 15:11:17 1510863077.405374: $GPGSA,A,3,8,10,14,15,18,20,21,24,27,32,12,138,1.6,0.8,1.3*34
2017-11-16 15:11:18 1510863078.403239: $GPZDA,201117.00,16,11,2017,00,00*61
2017-11-16 15:11:18 1510863078.403413: $GPGGA,201117,3946.9579,N,08404.9847,W,2,12,0.80,301.01,M,-33.324,M,,*77
2017-11-16 15:11:18 1510863078.403475: $GPRMC,201117,A,3946.9579,N,08404.9847,W,0.0000,0.000,161117,,*3A
2017-11-16 15:11:18 1510863078.403548: $GPGSA,A,3,8,10,14,15,18,20,21,24,27,32,12,138,1.6,0.8,1.3*34
2017-11-16 15:11:19 1510863079.724062: $GPGSV,3,1,12,08,07,300,35,10,63,322,50,14,24,249,45,15,16,063,41*7E
2017-11-16 15:11:19 1510863079.724232: $GPGSV,3,2,12,18,75,073,47,20,13,114,34,21,36,181,45,24,49,067,49*7C
2017-11-16 15:11:19 1510863079.724291: $GPGSV,3,3,12,27,10,265,40,32,41,258,47,12,05,112,21,138,38,213,43*42
2017-11-16 15:11:19 1510863079.837975: $GPZDA,201118.00,16,11,2017,00,00*6E
2017-11-16 15:11:19 1510863079.838135: $GPGGA,201118,3946.9579,N,08404.9847,W,2,12,0.80,301.01,M,-33.324,M,,*78
2017-11-16 15:11:19 1510863079.838227: $GPRMC,201118,A,3946.9579,N,08404.9847,W,0.0000,0.000,161117,,*35
2017-11-16 15:11:19 1510863079.838296: $GPGSA,A,3,8,10,14,15,18,20,21,24,27,32,12,138,1.6,0.8,1.3*34
2017-11-16 15:11:20 1510863080.406031: $GPZDA,201119.00,16,11,2017,00,00*6F
2017-11-16 15:11:20 1510863080.406244: $GPGGA,201119,3946.9579,N,08404.9847,W,2,12,0.80,301.01,M,-33.324,M,,*79
2017-11-16 15:11:20 1510863080.406329: $GPRMC,201119,A,3946.9579,N,08404.9847,W,0.0000,0.000,161117,,*34
2017-11-16 15:11:20 1510863080.406387: $GPGSA,A,3,8,10,14,15,18,20,21,24,27,32,12,138,1.6,0.8,1.3*34
2017-11-16 15:11:21 1510863081.405053: $GPZDA,201120.00,16,11,2017,00,00*65
2017-11-16 15:11:21 1510863081.405217: $GPGGA,201120,3946.9579,N,08404.9847,W,2,12,0.80,301.01,M,-33.324,M,,*73
2017-11-16 15:11:21 1510863081.405277: $GPRMC,201120,A,3946.9579,N,08404.9847,W,0.0000,0.000,161117,,*3E
2017-11-16 15:11:21 1510863081.405332: $GPGSA,A,3,8,10,14,15,18,20,21,24,27,32,12,138,1.6,0.8,1.3*34
2017-11-16 15:11:22 1510863082.739265: $GPGSV,3,1,12,08,07,300,34,10,63,322,50,14,24,249,45,15,16,063,40*7E
2017-11-16 15:11:22 1510863082.739502: $GPGSV,3,2,12,18,75,073,47,20,13,114,34,21,36,181,45,24,49,067,49*7C
2017-11-16 15:11:22 1510863082.739565: $GPGSV,3,3,12,27,10,265,41,32,41,258,47,12,05,112,00,138,38,213,44*47
2017-11-16 15:11:22 1510863082.854574: $GPZDA,201121.00,16,11,2017,00,00*64
2017-11-16 15:11:22 1510863082.854738: $GPGGA,201121,3946.9579,N,08404.9847,W,2,11,0.80,301.01,M,-33.324,M,,*71
2017-11-16 15:11:22 1510863082.854800: $GPRMC,201121,A,3946.9579,N,08404.9847,W,0.0000,0.000,161117,,*3F
2017-11-16 15:11:22 1510863082.854855: $GPGSA,A,3,8,10,14,15,18,20,21,24,27,32,138,,1.6,0.8,1.3*37
2017-11-16 15:11:23 1510863083.387860: $GPZDA,201122.00,16,11,2017,00,00*67
2017-11-16 15:11:23 1510863083.388013: $GPGGA,201122,3946.9579,N,08404.9847,W,2,11,0.80,301.01,M,-33.324,M,,*72
2017-11-16 15:11:23 1510863083.388073: $GPRMC,201122,A,3946.9579,N,08404.9847,W,0.0000,0.000,161117,,*3C
2017-11-16 15:11:23 1510863083.388129: $GPGSA,A,3,8,10,14,15,18,20,21,24,27,32,138,,1.6,0.8,1.3*37
2017-11-16 15:11:24 1510863084.404469: $GPZDA,201123.00,16,11,2017,00,00*66
2017-11-16 15:11:24 1510863084.404639: $GPGGA,201123,3946.9579,N,08404.9847,W,2,11,0.80,301.01,M,-33.324,M,,*73
2017-11-16 15:11:24 1510863084.404700: $GPRMC,201123,A,3946.9579,N,08404.9847,W,0.0000,0.000,161117,,*3D
2017-11-16 15:11:24 1510863084.404755: $GPGSA,A,3,8,10,14,15,18,20,21,24,27,32,138,,1.6,0.8,1.3*37
