2017-12-29 14:43:08 1514576588.985737: {"class":"VERSION","release":"3.16","rev":"3.16-4","proto_major":3,"proto_minor":11}
2017-12-29 14:43:08 1514576588.986092: {"class":"DEVICES","devices":[{"class":"DEVICE","path":"/dev/ttyUSB0","driver":"SiRF","subtype":"9\u0006GSD4e_4.1.2-P1_RPATCH.05-F-GPS-4R-1510281 11/03/2015 307","activated":"2017-12-29T19:43:08.525Z","flags":1,"native":1,"bps":4800,"parity":"N","stopbits":1,"cycle":1.00}]}
2017-12-29 14:43:08 1514576588.986210: {"class":"WATCH","enable":true,"json":false,"nmea":true,"raw":0,"scaled":false,"timing":false,"split24":false,"pps":false}
2017-12-29 14:43:09 1514576589.384147: $GPZDA,194310.00,29,12,2017,00,00*64
2017-12-29 14:43:09 1514576589.384316: $GPGGA,194310,3946.9596,N,08404.9830,W,2,12,0.80,298.75,M,-33.324,M,,*7E
2017-12-29 14:43:09 1514576589.384384: $GPRMC,194310,A,3946.9596,N,08404.9830,W,0.0000,0.000,291217,,*3E
2017-12-29 14:43:09 1514576589.384445: $GPGSA,A,3,1,10,11,12,14,18,22,25,31,32,26,138,1.7,0.8,1.3*3B
2017-12-29 14:43:10 1514576590.719862: $GPGSV,3,1,12,01,22,297,35,10,44,150,51,11,07,280,38,12,21,046,45*77
2017-12-29 14:43:10 1514576590.720026: $GPGSV,3,2,12,14,67,333,44,18,14,145,44,22,22,312,38,25,40,087,51*73
2017-12-29 14:43:10 1514576590.720093: $GPGSV,3,3,12,31,61,228,48,32,67,039,49,26,06,181,29,138,38,213,43*4B
2017-12-29 14:43:10 1514576590.833461: $GPZDA,194311.00,29,12,2017,00,00*65
2017-12-29 14:43:10 1514576590.833598: $GPGGA,194311,3946.9596,N,08404.9830,W,2,12,0.80,298.75,M,-33.324,M,,*7F
2017-12-29 14:43:10 1514576590.833665: $GPRMC,194311,A,3946.9596,N,08404.9830,W,0.0000,0.000,291217,,*3F
2017-12-29 14:43:10 1514576590.833727: $GPGSA,A,3,1,10,11,12,14,18,22,25,31,32,26,138,1.7,0.8,1.3*3B
2017-12-29 14:43:11 1514576591.458635: $GPZDA,194312.00,29,12,2017,00,00*66
2017-12-29 14:43:11 1514576591.458812: $GPGGA,194312,3946.9596,N,08404.9830,W,2,12,0.80,298.75,M,-33.324,M,,*7C
2017-12-29 14:43:11 1514576591.458880: $GPRMC,194312,A,3946.9596,N,08404.9830,W,0.0000,0.000,291217,,*3C
2017-12-29 14:43:11 1514576591.458940: $GPGSA,A,3,1,10,11,12,14,18,22,25,31,32,26,138,1.7,0.8,1.3*3B
2017-12-29 14:43:12 1514576592.387009: $GPZDA,194313.00,29,12,2017,00,00*67
2017-12-29 14:43:12 1514576592.387172: $GPGGA,194313,3946.9596,N,08404.9830,W,2,12,0.80,298.75,M,-33.324,M,,*7D
2017-12-29 14:43:12 1514576592.387239: $GPRMC,194313,A,3946.9596,N,08404.9830,W,0.0000,0.000,291217,,*3D
2017-12-29 14:43:12 1514576592.387299: $GPGSA,A,3,1,10,11,12,14,18,22,25,31,32,26,138,1.7,0.8,1.3*3B
2017-12-29 14:43:13 1514576593.717680: $GPGSV,3,1,12,01,22,297,35,10,44,150,51,11,07,280,38,12,21,046,45*77
2017-12-29 14:43:13 1514576593.717839: $GPGSV,3,2,12,14,67,333,44,18,14,145,44,22,22,312,38,25,40,087,51*73
2017-12-29 14:43:13 1514576593.717903: $GPGSV,3,3,12,31,61,228,48,32,67,039,49,26,06,181,29,138,38,213,43*4B
2017-12-29 14:43:13 1514576593.831126: $GPZDA,194314.00,29,12,2017,00,00*60
2017-12-29 14:43:13 1514576593.831283: $GPGGA,194314,3946.9600,N,08404.9830,W,2,12,0.80,299.39,M,-33.324,M,,*7F
2017-12-29 14:43:13 1514576593.831350: $GPRMC,194314,A,3946.9600,N,08404.9830,W,0.0000,0.000,291217,,*36
2017-12-29 14:43:13 1514576593.831410: $GPGSA,A,3,1,10,11,12,14,18,22,25,31,32,26,138,1.7,0.8,1.3*3B
2017-12-29 14:43:14 1514576594.382353: $GPZDA,194315.00,29,12,2017,00,00*61
2017-12-29 14:43:14 1514576594.382535: $GPGGA,194315,3946.9600,N,08404.9830,W,2,12,0.80,299.39,M,-33.324,M,,*7E
2017-12-29 14:43:14 1514576594.382605: $GPRMC,194315,A,3946.9600,N,08404.9830,W,0.0000,0.000,291217,,*37
2017-12-29 14:43:14 1514576594.382666: $GPGSA,A,3,1,10,11,12,14,18,22,25,31,32,26,138,1.7,0.8,1.3*3B
2017-12-29 14:43:15 1514576595.389078: $GPZDA,194316.00,29,12,2017,00,00*62
2017-12-29 14:43:15 1514576595.389239: $GPGGA,194316,3946.9600,N,08404.9830,W,2,12,0.80,299.39,M,-33.324,M,,*7D
2017-12-29 14:43:15 1514576595.389306: $GPRMC,194316,A,3946.9600,N,08404.9830,W,0.0000,0.000,291217,,*34
2017-12-29 14:43:15 1514576595.389366: $GPGSA,A,3,1,10,11,12,14,18,22,25,31,32,26,138,1.7,0.8,1.3*3B
2017-12-29 14:43:16 1514576596.724274: $GPGSV,3,1,12,01,22,297,35,10,44,150,51,11,07,280,38,12,21,046,45*77
2017-12-29 14:43:16 1514576596.724503: $GPGSV,3,2,12,14,67,333,44,18,14,145,45,22,22,312,39,25,40,087,51*73
2017-12-29 14:43:16 1514576596.724574: $GPGSV,3,3,12,31,61,228,47,32,67,039,49,26,06,181,29,138,38,213,44*43
2017-12-29 14:43:16 1514576596.837714: $GPZDA,194317.00,29,12,2017,00,00*63
2017-12-29 14:43:16 1514576596.837854: $GPGGA,194317,3946.9600,N,08404.9830,W,2,12,0.80,299.39,M,-33.324,M,,*7C
2017-12-29 14:43:16 1514576596.837921: $GPRMC,194317,A,3946.9600,N,08404.9830,W,0.0000,0.000,291217,,*35
2017-12-29 14:43:16 1514576596.837980: $GPGSA,A,3,1,10,11,12,14,18,22,25,31,32,26,138,1.7,0.8,1.3*3B
2017-12-29 14:43:17 1514576597.387344: $GPZDA,194318.00,29,12,2017,00,00*6C
2017-12-29 14:43:17 1514576597.387509: $GPGGA,194318,3946.9600,N,08404.9830,W,2,12,0.80,299.39,M,-33.324,M,,*73
2017-12-29 14:43:17 1514576597.387580: $GPRMC,194318,A,3946.9600,N,08404.9830,W,0.0000,0.000,291217,,*3A
2017-12-29 14:43:17 1514576597.387641: $GPGSA,A,3,1,10,11,12,14,18,22,25,31,32,26,138,1.7,0.8,1.3*3B
2017-12-29 14:43:18 1514576598.383213: $GPZDA,194319.00,29,12,2017,00,00*6D
2017-12-29 14:43:18 1514576598.383377: $GPGGA,194319,3946.9600,N,08404.9830,W,2,12,0.80,299.39,M,-33.324,M,,*72
2017-12-29 14:43:18 1514576598.383445: $GPRMC,194319,A,3946.9600,N,08404.9830,W,0.0000,0.000,291217,,*3B
2017-12-29 14:43:18 1514576598.383505: $GPGSA,A,3,1,10,11,12,14,18,22,25,31,32,26,138,1.7,0.8,1.3*3B
