2017-11-16 17:21:15 1510870875.972254: {"class":"VERSION","release":"3.17","rev":"3.17","proto_major":3,"proto_minor":12}
2017-11-16 17:21:15 1510870875.972758: {"class":"DEVICES","devices":[{"class":"DEVICE","path":"/dev/ttyUSB0","driver":"SiRF","subtype":"9\u0006GSD4e_4.1.2-P1_RPATCH.05-F-GPS-4R-1510281 11/03/2015 307","activated":"2017-11-16T22:21:15.961Z","flags":1,"native":1,"bps":4800,"parity":"N","stopbits":1,"cycle":1.00}]}
2017-11-16 17:21:15 1510870875.972879: {"class":"WATCH","enable":true,"json":false,"nmea":true,"raw":0,"scaled":false,"timing":false,"split24":false,"pps":false}
2017-11-16 17:21:16 1510870876.469994: $GPZDA,222115.00,16,11,2017,00,00*62
2017-11-16 17:21:16 1510870876.470155: $GPGGA,222115,3946.9570,N,08404.9831,W,2,12,0.80,309.16,M,-33.324,M,,*72
2017-11-16 17:21:16 1510870876.470216: $GPRMC,222115,A,3946.9570,N,08404.9831,W,0.0000,0.000,161117,,*31
2017-11-16 17:21:16 1510870876.470273: $GPGSA,A,3,1,10,22,12,14,18,24,11,25,31,32,138,1.6,0.8,1.3*38
2017-11-16 17:21:17 1510870877.402162: $GPZDA,222116.00,16,11,2017,00,00*61
2017-11-16 17:21:17 1510870877.402331: $GPGGA,222116,3946.9570,N,08404.9831,W,2,12,0.80,309.16,M,-33.324,M,,*71
2017-11-16 17:21:17 1510870877.402390: $GPRMC,222116,A,3946.9570,N,08404.9831,W,0.0000,0.000,161117,,*32
2017-11-16 17:21:17 1510870877.402446: $GPGSA,A,3,1,10,22,12,14,18,24,11,25,31,32,138,1.6,0.8,1.3*38
2017-11-16 17:21:17 1510870877.402500: $GPGBS,222116,2.07,M,2.72,M,7.42,M*39
2017-11-16 17:21:18 1510870878.737929: $GPGSV,3,1,12,01,20,304,40,10,53,145,49,22,15,312,43,12,23,054,49*7F
2017-11-16 17:21:18 1510870878.738109: $GPGSV,3,2,12,14,64,318,47,18,22,142,41,24,01,048,10,11,09,286,42*77
2017-11-16 17:21:18 1510870878.738170: $GPGSV,3,3,12,25,38,096,48,31,51,222,48,32,69,013,48,138,38,213,44*4C
2017-11-16 17:21:18 1510870878.851481: $GPZDA,222117.00,16,11,2017,00,00*60
2017-11-16 17:21:18 1510870878.851659: $GPGGA,222117,3946.9570,N,08404.9831,W,2,12,0.80,309.16,M,-33.324,M,,*70
2017-11-16 17:21:18 1510870878.851720: $GPRMC,222117,A,3946.9570,N,08404.9831,W,0.0000,0.000,161117,,*33
2017-11-16 17:21:18 1510870878.851775: $GPGSA,A,3,1,10,22,12,14,18,24,11,25,31,32,138,1.6,0.8,1.3*38
2017-11-16 17:21:19 1510870879.402079: $GPZDA,222118.00,16,11,2017,00,00*6F
2017-11-16 17:21:19 1510870879.402237: $GPGGA,222118,3946.9570,N,08404.9831,W,2,12,0.80,309.16,M,-33.324,M,,*7F
2017-11-16 17:21:19 1510870879.402297: $GPRMC,222118,A,3946.9570,N,08404.9831,W,0.0000,0.000,161117,,*3C
2017-11-16 17:21:19 1510870879.402352: $GPGSA,A,3,1,10,22,12,14,18,24,11,25,31,32,138,1.6,0.8,1.3*38
2017-11-16 17:21:20 1510870880.402965: $GPZDA,222119.00,16,11,2017,00,00*6E
2017-11-16 17:21:20 1510870880.403124: $GPGGA,222119,3946.9570,N,08404.9831,W,2,12,0.80,309.16,M,-33.324,M,,*7E
2017-11-16 17:21:20 1510870880.403184: $GPRMC,222119,A,3946.9570,N,08404.9831,W,0.0000,0.000,161117,,*3D
2017-11-16 17:21:20 1510870880.403240: $GPGSA,A,3,1,10,22,12,14,18,24,11,25,31,32,138,1.6,0.8,1.3*38
2017-11-16 17:21:21 1510870881.732297: $GPGSV,3,1,12,01,20,304,40,10,53,145,49,22,15,312,42,12,23,054,50*76
2017-11-16 17:21:21 1510870881.732465: $GPGSV,3,2,12,14,64,318,47,18,22,142,41,24,01,048,04,11,09,286,41*71
2017-11-16 17:21:21 1510870881.732526: $GPGSV,3,3,12,25,38,096,48,31,51,222,48,32,69,013,48,138,38,213,44*4C
2017-11-16 17:21:21 1510870881.845643: $GPZDA,222120.00,16,11,2017,00,00*64
2017-11-16 17:21:21 1510870881.845808: $GPGGA,222120,3946.9570,N,08404.9831,W,2,11,0.80,309.16,M,-33.324,M,,*77
2017-11-16 17:21:21 1510870881.845868: $GPRMC,222120,A,3946.9570,N,08404.9831,W,0.0000,0.000,161117,,*37
2017-11-16 17:21:21 1510870881.845924: $GPGSA,A,3,1,10,22,12,14,18,11,25,31,32,138,,1.6,0.8,1.3*3E
2017-11-16 17:21:22 1510870882.396499: $GPZDA,222121.00,16,11,2017,00,00*65
2017-11-16 17:21:22 1510870882.970061: $GPGGA,222121,3946.9570,N,08404.9831,W,2,11,0.80,309.16,M,-33.324,M,,*76
2017-11-16 17:21:22 1510870882.970206: $GPRMC,222121,A,3946.9570,N,08404.9831,W,0.0000,0.000,161117,,*36
2017-11-16 17:21:22 1510870882.970264: $GPGSA,A,3,1,10,22,12,14,18,11,25,31,32,138,,1.6,0.8,1.3*3E
2017-11-16 17:21:23 1510870883.402339: $GPZDA,222122.00,16,11,2017,00,00*66
2017-11-16 17:21:23 1510870883.402506: $GPGGA,222122,3946.9570,N,08404.9831,W,2,11,0.80,309.16,M,-33.324,M,,*75
2017-11-16 17:21:23 1510870883.402568: $GPRMC,222122,A,3946.9570,N,08404.9831,W,0.0000,0.000,161117,,*35
2017-11-16 17:21:23 1510870883.402624: $GPGSA,A,3,1,10,22,12,14,18,11,25,31,32,138,,1.6,0.8,1.3*3E
2017-11-16 17:21:24 1510870884.739534: $GPGSV,3,1,12,01,20,304,40,10,53,145,49,22,15,312,42,12,23,054,50*76
2017-11-16 17:21:24 1510870884.739707: $GPGSV,3,2,12,14,64,318,46,18,22,142,40,24,01,048,04,11,09,286,41*71
2017-11-16 17:21:24 1510870884.739767: $GPGSV,3,3,12,25,38,096,48,31,51,222,48,32,69,013,48,138,38,213,44*4C
2017-11-16 17:21:24 1510870884.852849: $GPZDA,222123.00,16,11,2017,00,00*67
2017-11-16 17:21:24 1510870884.853012: $GPGGA,222123,3946.9570,N,08404.9831,W,2,11,0.80,309.16,M,-33.324,M,,*74
2017-11-16 17:21:24 1510870884.853073: $GPRMC,222123,A,3946.9570,N,08404.9831,W,0.0000,0.000,161117,,*34
2017-11-16 17:21:24 1510870884.853129: $GPGSA,A,3,1,10,22,12,14,18,11,25,31,32,138,,1.6,0.8,1.3*3E
2017-11-16 17:21:25 1510870885.403724: $GPZDA,222124.00,16,11,2017,00,00*60
2017-11-16 17:21:25 1510870885.403888: $GPGGA,222124,3946.9570,N,08404.9831,W,2,11,0.80,309.16,M,-33.324,M,,*73
2017-11-16 17:21:25 1510870885.403950: $GPRMC,222124,A,3946.9570,N,08404.9831,W,0.0000,0.000,161117,,*33
2017-11-16 17:21:25 1510870885.404007: $GPGSA,A,3,1,10,22,12,14,18,11,25,31,32,138,,1.6,0.8,1.3*3E
