2017-11-16 14:50:33 1510861833.815714: {"class":"VERSION","release":"3.17","rev":"3.17","proto_major":3,"proto_minor":12}
2017-11-16 14:50:33 1510861833.816159: {"class":"DEVICES","devices":[{"class":"DEVICE","path":"/dev/ttyUSB0","driver":"SiRF","subtype":"9\u0006GSD4e_4.1.2-P1_RPATCH.05-F-GPS-4R-1510281 11/03/2015 307","activated":"2017-11-16T19:50:33.376Z","flags":1,"native":1,"bps":4800,"parity":"N","stopbits":1,"cycle":1.00}]}
2017-11-16 14:50:33 1510861833.816273: {"class":"WATCH","enable":true,"json":false,"nmea":true,"raw":0,"scaled":false,"timing":false,"split24":false,"pps":false}
2017-11-16 14:50:33 1510861833.824604: $GPGSV,3,1,11,08,08,307,34,10,55,313,50,15,24,058,50,18,77,033,44*7E
2017-11-16 14:50:33 1510861833.824700: $GPGSV,3,2,11,21,46,183,46,20,21,108,41,24,53,081,48,27,14,273,44*7F
2017-11-16 14:50:33 1510861833.824757: $GPGSV,3,3,11,32,33,250,46,14,17,241,44,138,38,213,44*78
2017-11-16 14:50:33 1510861833.938038: $GPZDA,195032.00,16,11,2017,00,00*69
2017-11-16 14:50:33 1510861833.938205: $GPGGA,195032,3946.9572,N,08404.9841,W,2,11,0.80,302.62,M,-33.324,M,,*77
2017-11-16 14:50:33 1510861833.938267: $GPRMC,195032,A,3946.9572,N,08404.9841,W,0.0000,0.000,161117,,*3F
2017-11-16 14:50:33 1510861833.938324: $GPGSA,A,3,8,10,15,18,21,20,24,27,32,14,138,,1.6,0.8,1.3*37
2017-11-16 14:50:34 1510861834.564741: $GPZDA,195033.00,16,11,2017,00,00*68
2017-11-16 14:50:34 1510861834.564913: $GPGGA,195033,3946.9572,N,08404.9841,W,2,11,0.80,302.62,M,-33.324,M,,*76
2017-11-16 14:50:34 1510861834.564976: $GPRMC,195033,A,3946.9572,N,08404.9841,W,0.0000,0.000,161117,,*3E
2017-11-16 14:50:34 1510861834.565033: $GPGSA,A,3,8,10,15,18,21,20,24,27,32,14,138,,1.6,0.8,1.3*37
2017-11-16 14:50:35 1510861835.528127: $GPZDA,195034.00,16,11,2017,00,00*6F
2017-11-16 14:50:35 1510861835.528288: $GPGGA,195034,3946.9572,N,08404.9841,W,2,11,0.80,302.62,M,-33.324,M,,*71
2017-11-16 14:50:35 1510861835.528349: $GPRMC,195034,A,3946.9572,N,08404.9841,W,0.0000,0.000,161117,,*39
2017-11-16 14:50:35 1510861835.528406: $GPGSA,A,3,8,10,15,18,21,20,24,27,32,14,138,,1.6,0.8,1.3*37
2017-11-16 14:50:36 1510861836.864993: $GPGSV,3,1,11,08,08,307,33,10,55,313,50,15,24,058,51,18,77,033,45*79
2017-11-16 14:50:36 1510861836.865163: $GPGSV,3,2,11,21,46,183,46,20,21,108,41,24,53,081,49,27,14,273,44*7E
2017-11-16 14:50:36 1510861836.865223: $GPGSV,3,3,11,32,33,250,46,14,17,241,44,138,38,213,44*78
2017-11-16 14:50:36 1510861836.978281: $GPZDA,195035.00,16,11,2017,00,00*6E
2017-11-16 14:50:36 1510861836.978455: $GPGGA,195035,3946.9572,N,08404.9841,W,2,11,0.80,302.62,M,-33.324,M,,*70
2017-11-16 14:50:36 1510861836.978515: $GPRMC,195035,A,3946.9572,N,08404.9841,W,0.0000,0.000,161117,,*38
2017-11-16 14:50:36 1510861836.978572: $GPGSA,A,3,8,10,15,18,21,20,24,27,32,14,138,,1.6,0.8,1.3*37
2017-11-16 14:50:37 1510861837.489171: $GPZDA,195036.00,16,11,2017,00,00*6D
2017-11-16 14:50:37 1510861837.489318: $GPGGA,195036,3946.9572,N,08404.9841,W,2,11,0.80,302.62,M,-33.324,M,,*73
2017-11-16 14:50:37 1510861837.489379: $GPRMC,195036,A,3946.9572,N,08404.9841,W,0.0000,0.000,161117,,*3B
2017-11-16 14:50:37 1510861837.489435: $GPGSA,A,3,8,10,15,18,21,20,24,27,32,14,138,,1.6,0.8,1.3*37
2017-11-16 14:50:38 1510861838.492643: $GPZDA,195037.00,16,11,2017,00,00*6C
2017-11-16 14:50:38 1510861838.492826: $GPGGA,195037,3946.9572,N,08404.9841,W,2,11,1.00,302.62,M,-33.324,M,,*7B
2017-11-16 14:50:38 1510861838.492889: $GPRMC,195037,A,3946.9572,N,08404.9841,W,0.0000,0.000,161117,,*3A
2017-11-16 14:50:38 1510861838.492945: $GPGSA,A,3,8,10,15,18,21,20,24,27,32,14,138,,1.6,1.0,1.3*3E
2017-11-16 14:50:39 1510861839.874086: $GPGSV,3,1,11,08,08,307,00,10,55,313,50,15,24,058,50,18,77,033,45*78
2017-11-16 14:50:39 1510861839.874254: $GPGSV,3,2,11,21,46,183,46,20,21,108,41,24,53,081,48,27,14,273,44*7F
2017-11-16 14:50:39 1510861839.874313: $GPGSV,3,3,11,32,33,250,46,14,17,241,44,138,38,213,43*7F
2017-11-16 14:50:39 1510861839.987375: $GPZDA,195038.00,16,11,2017,00,00*63
2017-11-16 14:50:39 1510861839.987549: $GPGGA,195038,3946.9572,N,08404.9841,W,2,10,1.00,302.62,M,-33.324,M,,*75
2017-11-16 14:50:39 1510861839.987665: $GPRMC,195038,A,3946.9572,N,08404.9841,W,0.0000,0.000,161117,,*35
2017-11-16 14:50:39 1510861839.987723: $GPGSA,A,3,10,15,18,21,20,24,27,32,14,138,,,1.6,1.0,1.3*06
2017-11-16 14:50:40 1510861840.529589: $GPZDA,195039.00,16,11,2017,00,00*62
2017-11-16 14:50:40 1510861840.529779: $GPGGA,195039,3946.9572,N,08404.9841,W,2,10,0.80,302.62,M,-33.324,M,,*7D
2017-11-16 14:50:40 1510861840.529848: $GPRMC,195039,A,3946.9572,N,08404.9841,W,0.0000,0.000,161117,,*34
2017-11-16 14:50:40 1510861840.529904: $GPGSA,A,3,10,15,18,21,20,24,27,32,14,138,,,1.6,0.8,1.3*0F
2017-11-16 14:50:41 1510861841.490531: $GPZDA,195040.00,16,11,2017,00,00*6C
2017-11-16 14:50:41 1510861841.490714: $GPGGA,195040,3946.9572,N,08404.9841,W,2,10,0.80,302.62,M,-33.324,M,,*73
2017-11-16 14:50:41 1510861841.490777: $GPRMC,195040,A,3946.9572,N,08404.9841,W,0.0000,0.000,161117,,*3A
2017-11-16 14:50:41 1510861841.490833: $GPGSA,A,3,10,15,18,21,20,24,27,32,14,138,,,1.6,0.8,1.3*0F
2017-11-16 14:50:42 1510861842.826254: $GPGSV,3,1,11,08,08,307,28,10,55,313,50,15,24,058,50,18,77,033,44*73
2017-11-16 14:50:42 1510861842.826444: $GPGSV,3,2,11,21,46,183,46,20,21,108,41,24,53,081,48,27,14,273,44*7F
2017-11-16 14:50:42 1510861842.826507: $GPGSV,3,3,11,32,33,250,46,14,17,241,44,138,38,213,43*7F
2017-11-16 14:50:42 1510861842.939916: $GPZDA,195041.00,16,11,2017,00,00*6D
2017-11-16 14:50:42 1510861842.940078: $GPGGA,195041,3946.9572,N,08404.9841,W,2,11,0.80,302.62,M,-33.324,M,,*73
2017-11-16 14:50:42 1510861842.940139: $GPRMC,195041,A,3946.9572,N,08404.9841,W,0.0000,0.000,161117,,*3B
2017-11-16 14:50:42 1510861842.940195: $GPGSA,A,3,8,10,15,18,21,20,24,27,32,14,138,,1.6,0.8,1.3*37
2017-11-16 14:50:43 1510861843.527895: $GPZDA,195042.00,16,11,2017,00,00*6E
2017-11-16 14:50:44 1510861844.307276: $GPGGA,195042,3946.9572,N,08404.9841,W,2,11,0.80,302.62,M,-33.324,M,,*70
2017-11-16 14:50:44 1510861844.307445: $GPRMC,195042,A,3946.9572,N,08404.9841,W,0.0000,0.000,161117,,*38
2017-11-16 14:50:44 1510861844.307506: $GPGSA,A,3,8,10,15,18,21,20,24,27,32,14,138,,1.6,0.8,1.3*37
