2017-12-01 16:49:56 1512164996.958532: {"class":"VERSION","release":"3.16","rev":"3.16-4","proto_major":3,"proto_minor":11}
2017-12-01 16:49:56 1512164996.958966: {"class":"DEVICES","devices":[{"class":"DEVICE","path":"/dev/ttyUSB0","driver":"SiRF","subtype":"9\u0006GSD4e_4.1.2-P1_RPATCH.05-F-GPS-4R-1510281 11/03/2015 307","activated":"2017-12-01T21:49:56.681Z","flags":1,"native":1,"bps":4800,"parity":"N","stopbits":1,"cycle":1.00}]}
2017-12-01 16:49:56 1512164996.959084: {"class":"WATCH","enable":true,"json":false,"nmea":true,"raw":0,"scaled":false,"timing":false,"split24":false,"pps":false}
2017-12-01 16:49:57 1512164997.367110: $GPZDA,214958.00,01,12,2017,00,00*63
2017-12-01 16:49:57 1512164997.367282: $GPGGA,214958,3946.9670,N,08404.9748,W,1,12,0.80,302.59,M,-33.324,M,,*77
2017-12-01 16:49:57 1512164997.367349: $GPRMC,214958,A,3946.9670,N,08404.9748,W,0.0000,0.000,011217,,*32
2017-12-01 16:49:57 1512164997.367410: $GPGSA,A,3,1,3,10,14,22,31,32,11,18,25,26,138,2.0,0.8,1.5*09
2017-12-01 16:49:58 1512164998.704052: $GPGSV,3,1,12,01,22,291,41,03,07,316,34,10,38,151,40,14,69,349,46*7C
2017-12-01 16:49:58 1512164998.704239: $GPGSV,3,2,12,22,26,310,48,31,65,235,48,32,65,051,49,11,05,274,32*76
2017-12-01 16:49:58 1512164998.704306: $GPGSV,3,3,12,18,10,147,24,25,41,078,27,26,10,181,27,138,38,213,35*41
2017-12-01 16:49:58 1512164998.817568: $GPZDA,214959.00,01,12,2017,00,00*62
2017-12-01 16:49:58 1512164998.817747: $GPGGA,214959,3946.9670,N,08404.9748,W,1,12,0.80,302.59,M,-33.324,M,,*76
2017-12-01 16:49:58 1512164998.817814: $GPRMC,214959,A,3946.9670,N,08404.9748,W,0.0000,0.000,011217,,*33
2017-12-01 16:49:58 1512164998.817876: $GPGSA,A,3,1,3,10,14,22,31,32,11,18,25,26,138,2.0,0.8,1.5*09
2017-12-01 16:49:59 1512164999.367163: $GPZDA,215000.00,01,12,2017,00,00*66
2017-12-01 16:49:59 1512164999.367331: $GPGGA,215000,3946.9667,N,08404.9749,W,1,12,0.80,303.35,M,-33.324,M,,*7E
2017-12-01 16:49:59 1512164999.367397: $GPRMC,215000,A,3946.9667,N,08404.9749,W,0.0000,0.000,011217,,*30
2017-12-01 16:49:59 1512164999.367457: $GPGSA,A,3,1,3,10,14,22,31,32,11,18,25,26,138,2.0,0.8,1.5*09
2017-12-01 16:50:00 1512165000.366838: $GPZDA,215001.00,01,12,2017,00,00*67
2017-12-01 16:50:00 1512165000.367009: $GPGGA,215001,3946.9667,N,08404.9756,W,1,12,0.80,303.28,M,-33.324,M,,*7D
2017-12-01 16:50:00 1512165000.367076: $GPRMC,215001,A,3946.9667,N,08404.9756,W,0.0000,0.000,011217,,*3F
2017-12-01 16:50:00 1512165000.367137: $GPGSA,A,3,1,3,10,14,22,31,32,11,18,25,26,138,2.0,0.8,1.5*09
2017-12-01 16:50:04 1512165004.734000: $GPGSV,3,1,12,01,22,291,41,03,07,316,34,10,38,151,40,14,69,349,46*7C
2017-12-01 16:50:04 1512165004.734160: $GPGSV,3,2,12,22,26,310,48,31,65,235,48,32,65,051,49,11,05,274,32*76
2017-12-01 16:50:04 1512165004.734225: $GPGSV,3,3,12,18,09,147,24,25,41,078,28,26,10,181,28,138,38,213,39*45
2017-12-01 16:50:04 1512165004.847407: $GPZDA,215002.00,01,12,2017,00,00*64
2017-12-01 16:50:04 1512165004.847605: $GPGGA,215002,3946.9667,N,08404.9756,W,1,12,0.80,303.28,M,-33.324,M,,*7E
2017-12-01 16:50:04 1512165004.847699: $GPRMC,215002,A,3946.9667,N,08404.9756,W,0.0000,0.000,011217,,*3C
2017-12-01 16:50:04 1512165004.847762: $GPGSA,A,3,1,3,10,14,22,31,32,11,18,25,26,138,2.0,0.8,1.5*09
2017-12-01 16:50:05 1512165005.472823: $GPZDA,215003.00,01,12,2017,00,00*65
2017-12-01 16:50:05 1512165005.472999: $GPGGA,215003,3946.9667,N,08404.9756,W,1,12,0.80,303.28,M,-33.324,M,,*7F
2017-12-01 16:50:05 1512165005.473067: $GPRMC,215003,A,3946.9667,N,08404.9756,W,0.0000,0.000,011217,,*3D
2017-12-01 16:50:05 1512165005.473128: $GPGSA,A,3,1,3,10,14,22,31,32,11,18,25,26,138,2.0,0.8,1.5*09
2017-12-01 16:50:05 1512165005.923784: $GPZDA,215004.00,01,12,2017,00,00*62
2017-12-01 16:50:05 1512165005.926206: $GPGGA,215004,3946.9667,N,08404.9756,W,1,12,0.80,303.28,M,-33.324,M,,*78
2017-12-01 16:50:05 1512165005.926309: $GPRMC,215004,A,3946.9667,N,08404.9756,W,0.0000,0.000,011217,,*3A
2017-12-01 16:50:05 1512165005.926373: $GPGSA,A,3,1,3,10,14,22,31,32,11,18,25,26,138,2.0,0.8,1.5*09
2017-12-01 16:50:06 1512165006.711971: $GPGSV,3,1,12,01,22,291,42,03,07,316,34,10,38,151,40,14,69,349,46*7F
2017-12-01 16:50:06 1512165006.712202: $GPGSV,3,2,12,22,26,310,47,31,65,235,48,32,65,051,49,12,18,042,12*73
2017-12-01 16:50:06 1512165006.712273: $GPGSV,3,3,12,18,09,147,24,25,41,078,28,26,10,181,28,138,38,213,39*45
2017-12-01 16:50:06 1512165006.825776: $GPZDA,215005.00,01,12,2017,00,00*63
2017-12-01 16:50:06 1512165006.825929: $GPGGA,215005,3946.9664,N,08404.9757,W,1,12,0.80,304.04,M,-33.324,M,,*72
2017-12-01 16:50:06 1512165006.825995: $GPRMC,215005,A,3946.9664,N,08404.9757,W,0.0000,0.000,011217,,*39
2017-12-01 16:50:06 1512165006.826057: $GPGSA,A,3,1,3,10,14,22,31,32,12,18,25,26,138,2.0,0.8,1.5*0A
2017-12-01 16:50:07 1512165007.276474: $GPZDA,215006.00,01,12,2017,00,00*60
2017-12-01 16:50:07 1512165007.276650: $GPGGA,215006,3946.9664,N,08404.9757,W,1,12,0.80,304.04,M,-33.324,M,,*71
2017-12-01 16:50:07 1512165007.276717: $GPRMC,215006,A,3946.9664,N,08404.9757,W,0.0000,0.000,011217,,*3A
2017-12-01 16:50:07 1512165007.276778: $GPGSA,A,3,1,3,10,14,22,31,32,12,18,25,26,138,2.0,0.8,1.5*0A
2017-12-01 16:50:07 1512165007.728389: $GPZDA,215007.00,01,12,2017,00,00*61
2017-12-01 16:50:07 1512165007.728565: $GPGGA,215007,3946.9664,N,08404.9757,W,1,12,0.80,304.04,M,-33.324,M,,*70
2017-12-01 16:50:07 1512165007.728633: $GPRMC,215007,A,3946.9664,N,08404.9757,W,0.0000,0.000,011217,,*3B
2017-12-01 16:50:07 1512165007.728695: $GPGSA,A,3,1,3,10,14,22,31,32,12,18,25,26,138,2.0,0.8,1.5*0A
2017-12-01 16:50:08 1512165008.688492: $GPGSV,3,1,12,01,22,291,41,03,07,316,33,10,38,151,40,14,69,349,45*78
2017-12-01 16:50:08 1512165008.688682: $GPGSV,3,2,12,22,26,310,47,31,65,235,48,32,65,051,49,12,18,042,21*73
2017-12-01 16:50:08 1512165008.688750: $GPGSV,3,3,12,18,09,147,24,25,41,078,28,26,10,181,29,138,38,213,39*44
2017-12-01 16:50:08 1512165008.802056: $GPZDA,215008.00,01,12,2017,00,00*6E
2017-12-01 16:50:08 1512165008.802241: $GPGGA,215008,3946.9664,N,08404.9764,W,1,11,1.00,303.96,M,-33.324,M,,*79
2017-12-01 16:50:08 1512165008.802309: $GPRMC,215008,A,3946.9664,N,08404.9764,W,0.0000,0.000,011217,,*34
2017-12-01 16:50:08 1512165008.802371: $GPGSA,A,3,1,3,10,14,22,31,32,18,25,26,138,,2.0,1.0,1.5*00
2017-12-01 16:50:09 1512165009.254260: $GPZDA,215009.00,01,12,2017,00,00*6F
2017-12-01 16:50:09 1512165009.254434: $GPGGA,215009,3946.9664,N,08404.9764,W,1,11,0.80,303.96,M,-33.324,M,,*71
2017-12-01 16:50:09 1512165009.254502: $GPRMC,215009,A,3946.9664,N,08404.9764,W,0.0000,0.000,011217,,*35
2017-12-01 16:50:09 1512165009.254581: $GPGSA,A,3,1,3,10,14,22,31,32,18,25,26,138,,2.0,0.8,1.5*09
2017-12-01 16:50:09 1512165009.705144: $GPZDA,215010.00,01,12,2017,00,00*67
2017-12-01 16:50:09 1512165009.705302: $GPGGA,215010,3946.9664,N,08404.9764,W,1,11,0.80,303.96,M,-33.324,M,,*79
2017-12-01 16:50:09 1512165009.705386: $GPRMC,215010,A,3946.9664,N,08404.9764,W,0.0000,0.000,011217,,*3D
2017-12-01 16:50:09 1512165009.705448: $GPGSA,A,3,1,3,10,14,22,31,32,18,25,26,138,,2.0,0.8,1.5*09
2017-12-01 16:50:10 1512165010.703111: $GPGSV,3,1,12,01,22,291,41,03,07,316,34,10,38,151,39,14,69,349,45*71
2017-12-01 16:50:10 1512165010.703265: $GPGSV,3,2,12,22,26,310,48,31,65,235,48,32,65,051,48,11,05,274,33*76
2017-12-01 16:50:10 1512165010.703331: $GPGSV,3,3,12,18,09,147,24,25,41,078,28,26,10,181,34,138,38,213,38*49
2017-12-01 16:50:10 1512165010.816849: $GPZDA,215011.00,01,12,2017,00,00*66
2017-12-01 16:50:10 1512165010.816994: $GPGGA,215011,3946.9661,N,08404.9765,W,1,12,0.80,304.73,M,-33.324,M,,*73
2017-12-01 16:50:10 1512165010.817081: $GPRMC,215011,A,3946.9661,N,08404.9765,W,0.0000,0.000,011217,,*38
2017-12-01 16:50:10 1512165010.817144: $GPGSA,A,3,1,3,10,14,22,31,32,11,18,25,26,138,2.0,0.8,1.5*09
2017-12-01 16:50:11 1512165011.369995: $GPZDA,215012.00,01,12,2017,00,00*65
2017-12-01 16:50:11 1512165011.370175: $GPGGA,215012,3946.9665,N,08404.9765,W,1,12,0.80,305.36,M,-33.324,M,,*74
2017-12-01 16:50:11 1512165011.370243: $GPRMC,215012,A,3946.9665,N,08404.9765,W,0.0000,0.000,011217,,*3F
2017-12-01 16:50:11 1512165011.370304: $GPGSA,A,3,1,3,10,14,22,31,32,11,18,25,26,138,2.0,0.8,1.5*09
2017-12-01 16:50:12 1512165012.366547: $GPZDA,215013.00,01,12,2017,00,00*64
2017-12-01 16:50:12 1512165012.366785: $GPGGA,215013,3946.9665,N,08404.9765,W,1,12,0.80,305.36,M,-33.324,M,,*75
2017-12-01 16:50:12 1512165012.366856: $GPRMC,215013,A,3946.9665,N,08404.9765,W,0.0000,0.000,011217,,*3E
2017-12-01 16:50:12 1512165012.366918: $GPGSA,A,3,1,3,10,14,22,31,32,11,18,25,26,138,2.0,0.8,1.5*09
2017-12-01 16:50:13 1512165013.704747: $GPGSV,3,1,12,01,22,291,41,03,07,316,33,10,38,151,39,14,69,349,45*76
2017-12-01 16:50:13 1512165013.704922: $GPGSV,3,2,12,22,26,310,48,31,65,235,48,32,65,051,49,11,05,274,34*70
2017-12-01 16:50:13 1512165013.704989: $GPGSV,3,3,12,18,09,147,24,25,41,078,28,26,10,181,34,138,38,213,40*46
2017-12-01 16:50:13 1512165013.818108: $GPZDA,215014.00,01,12,2017,00,00*63
2017-12-01 16:50:13 1512165013.818278: $GPGGA,215014,3946.9665,N,08404.9765,W,1,12,0.80,305.36,M,-33.324,M,,*72
2017-12-01 16:50:13 1512165013.818345: $GPRMC,215014,A,3946.9665,N,08404.9765,W,0.0000,0.000,011217,,*39
2017-12-01 16:50:13 1512165013.818406: $GPGSA,A,3,1,3,10,14,22,31,32,11,18,25,26,138,2.0,0.8,1.5*09
2017-12-01 16:50:14 1512165014.367755: $GPZDA,215015.00,01,12,2017,00,00*62
2017-12-01 16:50:14 1512165014.367948: $GPGGA,215015,3946.9665,N,08404.9765,W,1,12,0.80,305.36,M,-33.324,M,,*73
2017-12-01 16:50:14 1512165014.368017: $GPRMC,215015,A,3946.9665,N,08404.9765,W,0.0000,0.000,011217,,*38
2017-12-01 16:50:14 1512165014.368078: $GPGSA,A,3,1,3,10,14,22,31,32,11,18,25,26,138,2.0,0.8,1.5*09
2017-12-01 16:50:15 1512165015.366121: $GPZDA,215016.00,01,12,2017,00,00*61
2017-12-01 16:50:15 1512165015.366291: $GPGGA,215016,3946.9665,N,08404.9765,W,1,12,1.20,305.36,M,-33.324,M,,*7B
2017-12-01 16:50:15 1512165015.366358: $GPRMC,215016,A,3946.9665,N,08404.9765,W,0.0000,0.000,011217,,*3B
2017-12-01 16:50:15 1512165015.366419: $GPGSA,A,3,1,3,10,14,22,31,32,11,18,25,26,138,2.0,1.2,1.5*02
2017-12-01 16:50:16 1512165016.703070: $GPGSV,3,1,12,01,22,291,40,03,07,316,34,10,38,151,38,14,69,349,45*71
2017-12-01 16:50:16 1512165016.703225: $GPGSV,3,2,12,22,26,310,48,31,65,235,47,32,65,051,48,11,05,274,34*7E
2017-12-01 16:50:16 1512165016.703290: $GPGSV,3,3,12,18,09,147,19,25,41,078,15,26,10,181,34,138,38,213,40*46
2017-12-01 16:50:16 1512165016.816434: $GPZDA,215017.00,01,12,2017,00,00*60
2017-12-01 16:50:16 1512165016.816584: $GPGGA,215017,3946.9665,N,08404.9765,W,1,12,0.80,305.36,M,-33.324,M,,*71
2017-12-01 16:50:16 1512165016.816652: $GPRMC,215017,A,3946.9665,N,08404.9765,W,0.0000,0.000,011217,,*3A
2017-12-01 16:50:16 1512165016.816712: $GPGSA,A,3,1,3,10,14,22,31,32,11,18,25,26,138,2.0,0.8,1.5*09
