2017-12-31 19:00:26 1514764826.458600: {"class":"VERSION","release":"3.16","rev":"3.16-4","proto_major":3,"proto_minor":11}
2017-12-31 19:00:26 1514764826.458960: {"class":"DEVICES","devices":[{"class":"DEVICE","path":"/dev/ttyUSB0","driver":"SiRF","activated":"2018-01-01T00:00:26.391Z","flags":1,"native":1,"bps":4800,"parity":"N","stopbits":1,"cycle":1.00}]}
2017-12-31 19:00:26 1514764826.459060: {"class":"WATCH","enable":true,"json":false,"nmea":true,"raw":0,"scaled":false,"timing":false,"split24":false,"pps":false}
2017-12-31 19:00:27 1514764827.688247: $GPGSV,3,1,11,22,04,201,30,23,70,267,37,09,40,307,33,03,14,217,24*73
2017-12-31 19:00:27 1514764827.688420: $GPGSV,3,2,11,16,72,036,44,08,21,174,44,31,13,091,31,27,44,139,38*79
2017-12-31 19:00:27 1514764827.688485: $GPGSV,3,3,11,07,13,288,46,26,40,048,47,135,22,240,42*74
2017-12-31 19:00:27 1514764827.801782: $GPZDA,000028.00,01,01,2018,00,00*67
2017-12-31 19:00:27 1514764827.801915: $GPGGA,000028,3946.9578,N,08404.9824,W,2,11,0.80,310.52,M,-33.324,M,,*78
2017-12-31 19:00:27 1514764827.801982: $GPRMC,000028,A,3946.9578,N,08404.9824,W,0.0000,0.000,010118,,*38
2017-12-31 19:00:27 1514764827.802042: $GPGSA,A,3,22,23,9,3,16,8,31,27,7,26,135,,1.7,0.8,1.3*09
2017-12-31 19:00:28 1514764828.352688: $GPZDA,000029.00,01,01,2018,00,00*66
2017-12-31 19:00:28 1514764828.352860: $GPGGA,000029,3946.9578,N,08404.9824,W,2,11,0.80,310.52,M,-33.324,M,,*79
2017-12-31 19:00:28 1514764828.352926: $GPRMC,000029,A,3946.9578,N,08404.9824,W,0.0000,0.000,010118,,*39
2017-12-31 19:00:28 1514764828.352987: $GPGSA,A,3,22,23,9,3,16,8,31,27,7,26,135,,1.7,0.8,1.3*09
2017-12-31 19:00:29 1514764829.353593: $GPZDA,000030.00,01,01,2018,00,00*6E
2017-12-31 19:00:29 1514764829.353751: $GPGGA,000030,3946.9578,N,08404.9824,W,2,11,0.80,310.52,M,-33.324,M,,*71
2017-12-31 19:00:29 1514764829.353818: $GPRMC,000030,A,3946.9578,N,08404.9824,W,0.0000,0.000,010118,,*31
2017-12-31 19:00:29 1514764829.353879: $GPGSA,A,3,22,23,9,3,16,8,31,27,7,26,135,,1.7,0.8,1.3*09
2017-12-31 19:00:30 1514764830.682265: $GPGSV,3,1,11,22,04,201,30,23,70,267,36,09,40,307,30,03,14,217,25*70
2017-12-31 19:00:30 1514764830.682419: $GPGSV,3,2,11,16,72,036,44,08,21,174,44,31,13,091,31,27,44,139,37*76
2017-12-31 19:00:30 1514764830.682486: $GPGSV,3,3,11,07,13,288,46,26,40,048,46,135,22,240,44*73
2017-12-31 19:00:30 1514764830.795830: $GPZDA,000031.00,01,01,2018,00,00*6F
2017-12-31 19:00:30 1514764830.795965: $GPGGA,000031,3946.9578,N,08404.9824,W,2,11,0.80,310.52,M,-33.324,M,,*70
2017-12-31 19:00:30 1514764830.796031: $GPRMC,000031,A,3946.9578,N,08404.9824,W,0.0000,0.000,010118,,*30
2017-12-31 19:00:30 1514764830.796093: $GPGSA,A,3,22,23,9,3,16,8,31,27,7,26,135,,1.7,0.8,1.3*09
2017-12-31 19:00:31 1514764831.354257: $GPZDA,000032.00,01,01,2018,00,00*6C
2017-12-31 19:00:31 1514764831.354421: $GPGGA,000032,3946.9578,N,08404.9824,W,2,11,0.80,310.52,M,-33.324,M,,*73
2017-12-31 19:00:31 1514764831.354488: $GPRMC,000032,A,3946.9578,N,08404.9824,W,0.0000,0.000,010118,,*33
2017-12-31 19:00:31 1514764831.354550: $GPGSA,A,3,22,23,9,3,16,8,31,27,7,26,135,,1.7,0.8,1.3*09
2017-12-31 19:00:32 1514764832.353876: $GPZDA,000033.00,01,01,2018,00,00*6D
2017-12-31 19:00:32 1514764832.354055: $GPGGA,000033,3946.9578,N,08404.9824,W,2,11,0.80,310.52,M,-33.324,M,,*72
2017-12-31 19:00:32 1514764832.354121: $GPRMC,000033,A,3946.9578,N,08404.9824,W,0.0000,0.000,010118,,*32
2017-12-31 19:00:32 1514764832.354182: $GPGSA,A,3,22,23,9,3,16,8,31,27,7,26,135,,1.7,0.8,1.3*09
2017-12-31 19:00:33 1514764833.689327: $GPGSV,3,1,11,22,04,201,30,23,70,267,30,09,40,307,32,03,14,217,26*77
2017-12-31 19:00:33 1514764833.689507: $GPGSV,3,2,11,16,72,036,44,08,21,174,44,31,13,091,31,27,44,139,37*76
2017-12-31 19:00:33 1514764833.689577: $GPGSV,3,3,11,07,13,288,46,26,40,048,47,135,22,240,44*72
2017-12-31 19:00:33 1514764833.802943: $GPZDA,000034.00,01,01,2018,00,00*6A
2017-12-31 19:00:33 1514764833.803090: $GPGGA,000034,3946.9578,N,08404.9824,W,2,11,0.80,310.52,M,-33.324,M,,*75
2017-12-31 19:00:33 1514764833.803159: $GPRMC,000034,A,3946.9578,N,08404.9824,W,0.0000,0.000,010118,,*35
2017-12-31 19:00:33 1514764833.803276: $GPGSA,A,3,22,23,9,3,16,8,31,27,7,26,135,,1.7,0.8,1.3*09
2017-12-31 19:00:34 1514764834.353847: $GPZDA,000035.00,01,01,2018,00,00*6B
2017-12-31 19:00:34 1514764834.354009: $GPGGA,000035,3946.9578,N,08404.9824,W,2,11,0.80,310.52,M,-33.324,M,,*74
2017-12-31 19:00:34 1514764834.354075: $GPRMC,000035,A,3946.9578,N,08404.9824,W,0.0000,0.000,010118,,*34
2017-12-31 19:00:34 1514764834.354137: $GPGSA,A,3,22,23,9,3,16,8,31,27,7,26,135,,1.7,0.8,1.3*09
2017-12-31 19:00:35 1514764835.353078: $GPZDA,000036.00,01,01,2018,00,00*68
2017-12-31 19:00:35 1514764835.353243: $GPGGA,000036,3946.9578,N,08404.9824,W,2,11,0.80,310.52,M,-33.324,M,,*77
2017-12-31 19:00:35 1514764835.353312: $GPRMC,000036,A,3946.9578,N,08404.9824,W,0.0000,0.000,010118,,*37
2017-12-31 19:00:35 1514764835.353374: $GPGSA,A,3,22,23,9,3,16,8,31,27,7,26,135,,1.7,0.8,1.3*09
