2018-01-12 19:54:38 1515804878.260771: {"class":"VERSION","release":"3.16","rev":"3.16-4","proto_major":3,"proto_minor":11}
2018-01-12 19:54:38 1515804878.261113: {"class":"DEVICES","devices":[{"class":"DEVICE","path":"/dev/ttyUSB0","driver":"SiRF","subtype":"9\u0006GSD4e_4.1.2-P1_RPATCH.05-F-GPS-4R-1510281 11/03/2015 307","activated":"2018-01-13T00:54:38.202Z","flags":1,"native":1,"bps":4800,"parity":"N","stopbits":1,"cycle":1.00}]}
2018-01-12 19:54:38 1515804878.261228: {"class":"WATCH","enable":true,"json":false,"nmea":true,"raw":0,"scaled":false,"timing":false,"split24":false,"pps":false}
2018-01-12 19:54:39 1515804879.502257: $GPGSV,3,1,11,08,69,147,29,07,50,312,24,09,51,237,21,16,27,057,20*7B
2018-01-12 19:54:39 1515804879.502442: $GPGSV,3,2,11,23,34,192,21,27,52,058,26,11,15,169,10,26,02,069,12*7D
2018-01-12 19:54:39 1515804879.502510: $GPGSV,3,3,11,30,24,304,00,28,10,255,00,138,38,213,00*73
2018-01-12 19:54:39 1515804879.615678: $GPZDA,005440.00,13,01,2018,00,00*6B
2018-01-12 19:54:39 1515804879.615850: $GPGGA,005440,3946.9621,N,08404.9518,W,1,08,1.20,322.96,M,-33.324,M,,*73
2018-01-12 19:54:39 1515804879.615919: $GPRMC,005440,A,3946.9621,N,08404.9518,W,0.3734,0.000,130118,,*3A
2018-01-12 19:54:39 1515804879.615980: $GPGSA,A,3,8,7,9,16,23,27,11,26,,,,,4.8,1.2,4.6*0E
2018-01-12 19:54:40 1515804880.164121: $GPZDA,005441.00,13,01,2018,00,00*6A
2018-01-12 19:54:40 1515804880.164302: $GPGGA,005441,3946.9621,N,08404.9518,W,1,08,1.20,322.96,M,-33.324,M,,*72
2018-01-12 19:54:40 1515804880.164370: $GPRMC,005441,A,3946.9621,N,08404.9518,W,0.6248,337.245,130118,,*34
2018-01-12 19:54:40 1515804880.164431: $GPGSA,A,3,8,7,9,16,23,27,11,26,,,,,4.8,1.2,4.6*0E
2018-01-12 19:54:41 1515804881.166745: $GPZDA,005442.00,13,01,2018,00,00*69
2018-01-12 19:54:41 1515804881.166915: $GPGGA,005442,3946.9621,N,08404.9518,W,1,08,1.20,322.96,M,-33.324,M,,*71
2018-01-12 19:54:41 1515804881.166981: $GPRMC,005442,A,3946.9621,N,08404.9518,W,0.0407,322.011,130118,,*3B
2018-01-12 19:54:41 1515804881.167042: $GPGSA,A,3,8,7,9,16,23,27,11,26,,,,,4.8,1.2,4.6*0E
2018-01-12 19:54:42 1515804882.502898: $GPGSV,3,1,11,08,69,147,29,07,50,312,24,09,51,237,21,16,27,057,20*7B
2018-01-12 19:54:42 1515804882.731671: $GPGSV,3,2,11,23,34,192,21,27,52,058,26,11,15,169,10,26,02,069,12*7D
2018-01-12 19:54:42 1515804882.731816: $GPGSV,3,3,11,30,24,304,00,28,10,255,00,138,38,213,00*73
2018-01-12 19:54:42 1515804882.731916: $GPZDA,005443.00,13,01,2018,00,00*68
2018-01-12 19:54:42 1515804882.731974: $GPGGA,005443,3946.9621,N,08404.9518,W,1,08,1.20,322.96,M,-33.324,M,,*70
2018-01-12 19:54:42 1515804882.732036: $GPRMC,005443,A,3946.9621,N,08404.9518,W,0.6012,242.540,130118,,*3A
2018-01-12 19:54:42 1515804882.732097: $GPGSA,A,3,8,7,9,16,23,27,11,26,,,,,4.8,1.2,4.6*0E
2018-01-12 19:54:43 1515804883.167995: $GPZDA,005444.00,13,01,2018,00,00*6F
2018-01-12 19:54:43 1515804883.168163: $GPGGA,005444,3946.9621,N,08404.9518,W,1,08,1.20,322.96,M,-33.324,M,,*77
2018-01-12 19:54:43 1515804883.168228: $GPRMC,005444,A,3946.9621,N,08404.9518,W,0.5125,277.189,130118,,*3C
2018-01-12 19:54:43 1515804883.168290: $GPGSA,A,3,8,7,9,16,23,27,11,26,,,,,4.8,1.2,4.6*0E
2018-01-12 19:54:44 1515804884.166550: $GPZDA,005445.00,13,01,2018,00,00*6E
2018-01-12 19:54:44 1515804884.166735: $GPGGA,005445,3946.9617,N,08404.9525,W,1,08,1.20,322.24,M,-33.324,M,,*74
2018-01-12 19:54:44 1515804884.166802: $GPRMC,005445,A,3946.9617,N,08404.9525,W,0.8180,251.377,130118,,*33
2018-01-12 19:54:44 1515804884.166864: $GPGSA,A,3,8,7,9,16,23,27,11,26,,,,,4.8,1.2,4.6*0E
2018-01-12 19:54:45 1515804885.503412: $GPGSV,3,1,11,08,69,147,29,07,50,312,24,09,51,237,21,16,27,057,20*7B
2018-01-12 19:54:45 1515804885.503594: $GPGSV,3,2,11,23,34,192,22,27,52,058,26,11,15,169,10,26,02,069,12*7E
2018-01-12 19:54:45 1515804885.503661: $GPGSV,3,3,11,30,24,304,00,28,10,255,00,138,38,213,00*73
2018-01-12 19:54:45 1515804885.617023: $GPZDA,005446.00,13,01,2018,00,00*6D
2018-01-12 19:54:45 1515804885.617179: $GPGGA,005446,3946.9617,N,08404.9525,W,1,08,1.20,322.24,M,-33.324,M,,*77
2018-01-12 19:54:45 1515804885.617244: $GPRMC,005446,A,3946.9617,N,08404.9525,W,0.4207,219.347,130118,,*3F
2018-01-12 19:54:45 1515804885.617358: $GPGSA,A,3,8,7,9,16,23,27,11,26,,,,,4.8,1.2,4.6*0E
2018-01-12 19:54:46 1515804886.168468: $GPZDA,005447.00,13,01,2018,00,00*6C
2018-01-12 19:54:46 1515804886.168633: $GPGGA,005447,3946.9617,N,08404.9525,W,1,08,1.20,322.24,M,-33.324,M,,*76
2018-01-12 19:54:46 1515804886.168701: $GPRMC,005447,A,3946.9617,N,08404.9525,W,0.1567,189.201,130118,,*33
2018-01-12 19:54:46 1515804886.168762: $GPGSA,A,3,8,7,9,16,23,27,11,26,,,,,4.8,1.2,4.6*0E
2018-01-12 19:54:47 1515804887.167291: $GPZDA,005448.00,13,01,2018,00,00*63
2018-01-12 19:54:47 1515804887.167464: $GPGGA,005448,3946.9612,N,08404.9518,W,1,08,1.20,321.68,M,-33.324,M,,*79
2018-01-12 19:54:47 1515804887.167530: $GPRMC,005448,A,3946.9612,N,08404.9518,W,0.4844,93.794,130118,,*0D
2018-01-12 19:54:47 1515804887.167591: $GPGSA,A,3,8,7,9,16,23,27,11,26,,,,,4.8,1.2,4.6*0E
2018-01-12 19:54:48 1515804888.503265: $GPGSV,3,1,11,08,69,147,30,07,50,312,25,09,51,237,21,16,27,057,20*72
2018-01-12 19:54:48 1515804888.503448: $GPGSV,3,2,11,23,34,192,22,27,52,058,27,11,15,169,11,26,02,069,08*75
2018-01-12 19:54:48 1515804888.503513: $GPGSV,3,3,11,30,24,304,00,28,10,255,00,138,38,213,00*73
2018-01-12 19:54:48 1515804888.616869: $GPZDA,005449.00,13,01,2018,00,00*62
2018-01-12 19:54:48 1515804888.617001: $GPGGA,005449,3946.9616,N,08404.9517,W,1,08,1.20,320.92,M,-33.324,M,,*77
2018-01-12 19:54:48 1515804888.617066: $GPRMC,005449,A,3946.9616,N,08404.9517,W,0.2422,93.794,130118,,*0D
2018-01-12 19:54:48 1515804888.617126: $GPGSA,A,3,8,7,9,16,23,27,11,26,,,,,4.8,1.2,4.6*0E
2018-01-12 19:54:49 1515804889.168017: $GPZDA,005450.00,13,01,2018,00,00*6A
2018-01-12 19:54:49 1515804889.168195: $GPGGA,005450,3946.9616,N,08404.9517,W,1,08,1.20,320.92,M,-33.324,M,,*7F
2018-01-12 19:54:49 1515804889.168261: $GPRMC,005450,A,3946.9616,N,08404.9517,W,0.5857,158.291,130118,,*3A
2018-01-12 19:54:49 1515804889.168322: $GPGSA,A,3,8,7,9,16,23,27,11,26,,,,,4.8,1.2,4.6*0E
2018-01-12 19:54:50 1515804890.166671: $GPZDA,005451.00,13,01,2018,00,00*6B
2018-01-12 19:54:50 1515804890.166843: $GPGGA,005451,3946.9612,N,08404.9517,W,1,08,1.20,320.28,M,-33.324,M,,*7B
2018-01-12 19:54:50 1515804890.166911: $GPRMC,005451,A,3946.9612,N,08404.9517,W,0.5774,207.515,130118,,*33
2018-01-12 19:54:50 1515804890.166972: $GPGSA,A,3,8,7,9,16,23,27,11,26,,,,,4.8,1.2,4.6*0E
2018-01-12 19:54:51 1515804891.502594: $GPGSV,3,1,11,08,69,147,30,07,50,312,25,09,51,237,22,16,27,057,20*71
2018-01-12 19:54:51 1515804891.502788: $GPGSV,3,2,11,23,34,192,22,27,52,058,26,11,15,169,11,26,02,069,06*7A
2018-01-12 19:54:51 1515804891.502857: $GPGSV,3,3,11,30,24,304,00,28,10,255,00,138,38,213,00*73
2018-01-12 19:54:51 1515804891.616342: $GPZDA,005452.00,13,01,2018,00,00*68
2018-01-12 19:54:51 1515804891.616493: $GPGGA,005452,3946.9608,N,08404.9517,W,1,08,1.20,319.64,M,-33.324,M,,*71
2018-01-12 19:54:51 1515804891.616563: $GPRMC,005452,A,3946.9608,N,08404.9517,W,0.8804,201.094,130118,,*34
2018-01-12 19:54:51 1515804891.616627: $GPGSA,A,3,8,7,9,16,23,27,11,26,,,,,4.8,1.2,4.6*0E
2018-01-12 19:54:52 1515804892.166476: $GPZDA,005453.00,13,01,2018,00,00*69
2018-01-12 19:54:52 1515804892.166666: $GPGGA,005453,3946.9608,N,08404.9517,W,1,08,1.20,319.64,M,-33.324,M,,*70
2018-01-12 19:54:52 1515804892.166737: $GPRMC,005453,A,3946.9608,N,08404.9517,W,0.8695,168.958,130118,,*36
2018-01-12 19:54:52 1515804892.166801: $GPGSA,A,3,8,7,9,16,23,27,11,26,,,,,4.8,1.2,4.6*0E
2018-01-12 19:54:53 1515804893.167815: $GPZDA,005454.00,13,01,2018,00,00*6E
2018-01-12 19:54:53 1515804893.824455: $GPGGA,005454,3946.9608,N,08404.9517,W,1,08,1.20,319.64,M,-33.324,M,,*77
2018-01-12 19:54:53 1515804893.824615: $GPRMC,005454,A,3946.9608,N,08404.9517,W,0.4179,148.778,130118,,*36
2018-01-12 19:54:53 1515804893.824683: $GPGSA,A,3,8,7,9,16,23,27,11,26,,,,,4.8,1.2,4.6*0E
2018-01-12 19:54:54 1515804894.502454: $GPGSV,3,1,11,08,69,147,30,07,50,312,25,09,51,237,22,16,27,057,20*71
2018-01-12 19:54:54 1515804894.502621: $GPGSV,3,2,11,23,34,192,22,27,52,058,26,11,15,169,10,26,02,069,04*79
2018-01-12 19:54:54 1515804894.502755: $GPGSV,3,3,11,28,10,255,15,30,24,304,00,138,38,213,00*77
2018-01-12 19:54:54 1515804894.616094: $GPZDA,005455.00,13,01,2018,00,00*6F
2018-01-12 19:54:54 1515804894.616241: $GPGGA,005455,3946.9608,N,08404.9517,W,1,07,1.20,319.64,M,-33.324,M,,*79
2018-01-12 19:54:54 1515804894.616307: $GPRMC,005455,A,3946.9608,N,08404.9517,W,0.4207,39.347,130118,,*02
2018-01-12 19:54:54 1515804894.616368: $GPGSA,A,3,8,7,9,16,23,27,11,,,,,,4.8,1.2,4.6*0A
2018-01-12 19:54:55 1515804895.168233: $GPZDA,005456.00,13,01,2018,00,00*6C
2018-01-12 19:54:55 1515804895.168401: $GPGGA,005456,3946.9603,N,08404.9517,W,1,07,1.20,319.00,M,-33.324,M,,*73
2018-01-12 19:54:55 1515804895.168468: $GPRMC,005456,A,3946.9603,N,08404.9517,W,0.1567,9.201,130118,,*3E
2018-01-12 19:54:55 1515804895.168529: $GPGSA,A,3,8,7,9,16,23,27,11,,,,,,4.8,1.2,4.6*0A
2018-01-12 19:54:56 1515804896.167127: $GPZDA,005457.00,13,01,2018,00,00*6D
2018-01-12 19:54:56 1515804896.167290: $GPGGA,005457,3946.9607,N,08404.9516,W,1,07,1.20,318.23,M,-33.324,M,,*77
2018-01-12 19:54:56 1515804896.167356: $GPRMC,005457,A,3946.9607,N,08404.9516,W,0.4844,273.794,130118,,*35
2018-01-12 19:54:56 1515804896.167418: $GPGSA,A,3,8,7,9,16,23,27,11,,,,,,4.8,1.2,4.6*0A
2018-01-12 19:54:57 1515804897.503070: $GPGSV,3,1,11,08,69,147,30,07,50,312,25,09,51,237,22,16,27,057,21*70
2018-01-12 19:54:57 1515804897.503339: $GPGSV,3,2,11,23,34,192,22,27,52,058,26,11,15,169,11,26,02,069,04*78
2018-01-12 19:54:57 1515804897.503411: $GPGSV,3,3,11,30,24,304,00,28,10,255,00,138,38,213,00*73
2018-01-12 19:54:57 1515804897.616443: $GPZDA,005458.00,13,01,2018,00,00*62
2018-01-12 19:54:57 1515804897.616599: $GPGGA,005458,3946.9607,N,08404.9516,W,1,07,1.20,318.23,M,-33.324,M,,*78
2018-01-12 19:54:57 1515804897.616668: $GPRMC,005458,A,3946.9607,N,08404.9516,W,0.0000,0.000,130118,,*3A
2018-01-12 19:54:57 1515804897.616732: $GPGSA,A,3,8,7,9,16,23,27,11,,,,,,4.8,1.2,4.6*0A
2018-01-12 19:54:58 1515804898.166559: $GPZDA,005459.00,13,01,2018,00,00*63
2018-01-12 19:54:58 1515804898.166754: $GPGGA,005459,3946.9603,N,08404.9516,W,1,07,1.20,317.59,M,-33.324,M,,*7F
2018-01-12 19:54:58 1515804898.166827: $GPRMC,005459,A,3946.9603,N,08404.9516,W,0.0000,0.000,130118,,*3F
2018-01-12 19:54:58 1515804898.166891: $GPGSA,A,3,8,7,9,16,23,27,11,,,,,,4.8,1.2,4.6*0A
