2017-11-16 14:06:58 1510859218.225602: {"class":"VERSION","release":"3.17","rev":"3.17","proto_major":3,"proto_minor":12}
2017-11-16 14:06:58 1510859218.226137: {"class":"DEVICES","devices":[{"class":"DEVICE","path":"/dev/ttyUSB0","driver":"SiRF","subtype":"9\u0006GSD4e_4.1.2-P1_RPATCH.05-F-GPS-4R-1510281 11/03/2015 307","activated":"2017-11-16T19:06:58.123Z","flags":1,"native":1,"bps":4800,"parity":"N","stopbits":1,"cycle":1.00}]}
2017-11-16 14:06:58 1510859218.226258: {"class":"WATCH","enable":true,"json":false,"nmea":true,"raw":0,"scaled":false,"timing":false,"split24":false,"pps":false}
2017-11-16 14:06:58 1510859218.531094: $GPZDA,190657.00,16,11,2017,00,00*69
2017-11-16 14:06:58 1510859218.531272: $GPGGA,190657,3946.9573,N,08404.9843,W,2,11,0.80,305.43,M,-33.324,M,,*70
2017-11-16 14:06:58 1510859218.531353: $GPRMC,190657,A,3946.9573,N,08404.9843,W,0.0000,0.000,161117,,*3C
2017-11-16 14:06:58 1510859218.531413: $GPGSA,A,3,10,13,15,18,20,21,24,32,8,27,138,,1.6,0.8,1.3*30
2017-11-16 14:06:59 1510859219.531551: $GPZDA,190658.00,16,11,2017,00,00*66
2017-11-16 14:06:59 1510859219.531718: $GPGGA,190658,3946.9573,N,08404.9843,W,2,11,0.80,305.43,M,-33.324,M,,*7F
2017-11-16 14:06:59 1510859219.531779: $GPRMC,190658,A,3946.9573,N,08404.9843,W,0.0000,0.000,161117,,*33
2017-11-16 14:06:59 1510859219.531836: $GPGSA,A,3,10,13,15,18,20,21,24,32,8,27,138,,1.6,0.8,1.3*30
2017-11-16 14:07:00 1510859220.863679: $GPGSV,3,1,12,10,39,298,42,13,10,048,28,15,40,051,51,18,69,330,48*79
2017-11-16 14:07:00 1510859220.863823: $GPGSV,3,2,12,20,35,093,46,21,67,193,46,24,49,115,47,32,18,235,44*7D
2017-11-16 14:07:00 1510859220.863884: $GPGSV,3,3,12,08,05,324,35,27,19,292,36,14,02,231,00,138,38,213,45*42
2017-11-16 14:07:00 1510859220.976998: $GPZDA,190659.00,16,11,2017,00,00*67
2017-11-16 14:07:00 1510859220.977164: $GPGGA,190659,3946.9573,N,08404.9843,W,2,11,0.80,305.43,M,-33.324,M,,*7E
2017-11-16 14:07:00 1510859220.977226: $GPRMC,190659,A,3946.9573,N,08404.9843,W,0.0000,0.000,161117,,*32
2017-11-16 14:07:00 1510859220.977282: $GPGSA,A,3,10,13,15,18,20,21,24,32,8,27,138,,1.6,0.8,1.3*30
2017-11-16 14:07:01 1510859221.532906: $GPZDA,190700.00,16,11,2017,00,00*6A
2017-11-16 14:07:01 1510859221.533081: $GPGGA,190700,3946.9573,N,08404.9843,W,2,11,0.80,305.43,M,-33.324,M,,*73
2017-11-16 14:07:01 1510859221.533147: $GPRMC,190700,A,3946.9573,N,08404.9843,W,0.0000,0.000,161117,,*3F
2017-11-16 14:07:01 1510859221.533203: $GPGSA,A,3,10,13,15,18,20,21,24,32,8,27,138,,1.6,0.8,1.3*30
2017-11-16 14:07:02 1510859222.536360: $GPZDA,190701.00,16,11,2017,00,00*6B
2017-11-16 14:07:02 1510859222.536538: $GPGGA,190701,3946.9573,N,08404.9843,W,2,11,0.80,305.43,M,-33.324,M,,*72
2017-11-16 14:07:02 1510859222.536603: $GPRMC,190701,A,3946.9573,N,08404.9843,W,0.0000,0.000,161117,,*3E
2017-11-16 14:07:02 1510859222.536659: $GPGSA,A,3,10,13,15,18,20,21,24,32,8,27,138,,1.6,0.8,1.3*30
2017-11-16 14:07:03 1510859223.868559: $GPGSV,3,1,12,10,39,298,41,13,10,048,29,15,40,051,51,18,69,330,48*7B
2017-11-16 14:07:03 1510859223.868731: $GPGSV,3,2,12,20,35,093,46,21,67,193,46,24,49,115,47,32,18,235,44*7D
2017-11-16 14:07:03 1510859223.868791: $GPGSV,3,3,12,08,05,324,35,27,19,292,38,14,02,231,00,138,38,213,44*4D
2017-11-16 14:07:03 1510859223.980593: $GPZDA,190702.00,16,11,2017,00,00*68
2017-11-16 14:07:03 1510859223.980731: $GPGGA,190702,3946.9573,N,08404.9843,W,2,11,0.80,305.43,M,-33.324,M,,*71
2017-11-16 14:07:03 1510859223.980791: $GPRMC,190702,A,3946.9573,N,08404.9843,W,0.0000,0.000,161117,,*3D
2017-11-16 14:07:03 1510859223.980849: $GPGSA,A,3,10,13,15,18,20,21,24,32,8,27,138,,1.6,0.8,1.3*30
2017-11-16 14:07:04 1510859224.607243: $GPZDA,190703.00,16,11,2017,00,00*69
2017-11-16 14:07:04 1510859224.607441: $GPGGA,190703,3946.9573,N,08404.9843,W,2,11,0.80,305.43,M,-33.324,M,,*70
2017-11-16 14:07:04 1510859224.607506: $GPRMC,190703,A,3946.9573,N,08404.9843,W,0.0000,0.000,161117,,*3C
2017-11-16 14:07:04 1510859224.607563: $GPGSA,A,3,10,13,15,18,20,21,24,32,8,27,138,,1.6,0.8,1.3*30
2017-11-16 14:07:05 1510859225.533222: $GPZDA,190704.00,16,11,2017,00,00*6E
2017-11-16 14:07:05 1510859225.533465: $GPGGA,190704,3946.9573,N,08404.9843,W,2,11,0.80,305.43,M,-33.324,M,,*77
2017-11-16 14:07:05 1510859225.533553: $GPRMC,190704,A,3946.9573,N,08404.9843,W,0.0000,0.000,161117,,*3B
2017-11-16 14:07:05 1510859225.533615: $GPGSA,A,3,10,13,15,18,20,21,24,32,8,27,138,,1.6,0.8,1.3*30
2017-11-16 14:07:06 1510859226.869143: $GPGSV,3,1,12,10,39,298,40,13,10,048,30,15,40,051,51,18,69,330,48*72
2017-11-16 14:07:06 1510859226.869315: $GPGSV,3,2,12,20,35,093,46,21,67,193,46,24,49,115,47,32,18,235,45*7C
2017-11-16 14:07:06 1510859226.869376: $GPGSV,3,3,12,08,05,324,34,27,19,292,39,14,02,231,00,138,38,213,44*4D
2017-11-16 14:07:06 1510859226.982473: $GPZDA,190705.00,16,11,2017,00,00*6F
2017-11-16 14:07:06 1510859226.982642: $GPGGA,190705,3946.9573,N,08404.9843,W,2,11,0.80,305.43,M,-33.324,M,,*76
2017-11-16 14:07:06 1510859226.982704: $GPRMC,190705,A,3946.9573,N,08404.9843,W,0.0000,0.000,161117,,*3A
2017-11-16 14:07:06 1510859226.982760: $GPGSA,A,3,10,13,15,18,20,21,24,32,8,27,138,,1.6,0.8,1.3*30
2017-11-16 14:07:07 1510859227.532128: $GPZDA,190706.00,16,11,2017,00,00*6C
2017-11-16 14:07:07 1510859227.532309: $GPGGA,190706,3946.9573,N,08404.9843,W,2,11,0.80,305.43,M,-33.324,M,,*75
2017-11-16 14:07:07 1510859227.532372: $GPRMC,190706,A,3946.9573,N,08404.9843,W,0.0000,0.000,161117,,*39
2017-11-16 14:07:07 1510859227.532429: $GPGSA,A,3,10,13,15,18,20,21,24,32,8,27,138,,1.6,0.8,1.3*30
