2017-12-31 16:44:31 1514756671.477356: {"class":"VERSION","release":"3.16","rev":"3.16-4","proto_major":3,"proto_minor":11}
2017-12-31 16:44:31 1514756671.477786: {"class":"DEVICES","devices":[{"class":"DEVICE","path":"/dev/ttyUSB0","driver":"SiRF","activated":"2017-12-31T21:44:31.401Z","flags":1,"native":1,"bps":4800,"parity":"N","stopbits":1,"cycle":1.00}]}
2017-12-31 16:44:31 1514756671.477884: {"class":"WATCH","enable":true,"json":false,"nmea":true,"raw":0,"scaled":false,"timing":false,"split24":false,"pps":false}
2017-12-31 16:44:32 1514756672.345014: $GPZDA,214433.00,31,12,2017,00,00*60
2017-12-31 16:44:32 1514756672.345175: $GPGGA,214433,3946.9576,N,08404.9848,W,2,11,0.80,303.18,M,-33.324,M,,*79
2017-12-31 16:44:32 1514756672.345241: $GPRMC,214433,A,3946.9576,N,08404.9848,W,0.0000,0.000,311217,,*3B
2017-12-31 16:44:32 1514756672.345302: $GPGSA,A,3,22,23,25,3,16,29,31,14,32,26,135,,1.7,0.8,1.3*32
2017-12-31 16:44:33 1514756673.681734: $GPGSV,3,1,11,22,49,253,42,23,20,304,38,25,09,039,31,03,45,285,33*70
2017-12-31 16:44:33 1514756673.681897: $GPGSV,3,2,11,16,35,189,44,29,13,064,27,31,57,042,50,14,48,105,44*79
2017-12-31 16:44:33 1514756673.681962: $GPGSV,3,3,11,32,26,115,38,26,66,162,40,135,22,240,43*71
2017-12-31 16:44:33 1514756673.795067: $GPZDA,214434.00,31,12,2017,00,00*67
2017-12-31 16:44:33 1514756673.795184: $GPGGA,214434,3946.9576,N,08404.9848,W,2,11,0.80,303.18,M,-33.324,M,,*7E
2017-12-31 16:44:33 1514756673.795248: $GPRMC,214434,A,3946.9576,N,08404.9848,W,0.0000,0.000,311217,,*3C
2017-12-31 16:44:33 1514756673.795308: $GPGSA,A,3,22,23,25,3,16,29,31,14,32,26,135,,1.7,0.8,1.3*32
2017-12-31 16:44:34 1514756674.362154: $GPZDA,214435.00,31,12,2017,00,00*66
2017-12-31 16:44:34 1514756674.362323: $GPGGA,214435,3946.9576,N,08404.9848,W,2,11,0.80,303.18,M,-33.324,M,,*7F
2017-12-31 16:44:34 1514756674.362389: $GPRMC,214435,A,3946.9576,N,08404.9848,W,0.0000,0.000,311217,,*3D
2017-12-31 16:44:34 1514756674.362450: $GPGSA,A,3,22,23,25,3,16,29,31,14,32,26,135,,1.7,0.8,1.3*32
2017-12-31 16:44:35 1514756675.362615: $GPZDA,214436.00,31,12,2017,00,00*65
2017-12-31 16:44:35 1514756675.362797: $GPGGA,214436,3946.9576,N,08404.9848,W,2,11,0.80,303.18,M,-33.324,M,,*7C
2017-12-31 16:44:35 1514756675.362863: $GPRMC,214436,A,3946.9576,N,08404.9848,W,0.0000,0.000,311217,,*3E
2017-12-31 16:44:35 1514756675.362924: $GPGSA,A,3,22,23,25,3,16,29,31,14,32,26,135,,1.7,0.8,1.3*32
2017-12-31 16:44:36 1514756676.673332: $GPGSV,3,1,11,22,49,253,44,23,20,304,39,25,09,039,32,03,45,285,33*74
2017-12-31 16:44:36 1514756676.673535: $GPGSV,3,2,11,16,35,189,46,29,13,064,29,31,57,042,50,14,48,105,45*74
2017-12-31 16:44:36 1514756676.673602: $GPGSV,3,3,11,32,26,115,40,26,66,162,42,135,22,240,43*7C
2017-12-31 16:44:36 1514756676.786699: $GPZDA,214437.00,31,12,2017,00,00*64
2017-12-31 16:44:36 1514756676.786839: $GPGGA,214437,3946.9576,N,08404.9848,W,2,11,0.80,303.18,M,-33.324,M,,*7D
2017-12-31 16:44:36 1514756676.786904: $GPRMC,214437,A,3946.9576,N,08404.9848,W,0.0000,0.000,311217,,*3F
2017-12-31 16:44:36 1514756676.786964: $GPGSA,A,3,22,23,25,3,16,29,31,14,32,26,135,,1.7,0.8,1.3*32
2017-12-31 16:44:37 1514756677.355061: $GPZDA,214438.00,31,12,2017,00,00*6B
2017-12-31 16:44:37 1514756677.355203: $GPGGA,214438,3946.9576,N,08404.9848,W,2,11,0.80,303.18,M,-33.324,M,,*72
2017-12-31 16:44:37 1514756677.355269: $GPRMC,214438,A,3946.9576,N,08404.9848,W,0.0000,0.000,311217,,*30
2017-12-31 16:44:37 1514756677.355330: $GPGSA,A,3,22,23,25,3,16,29,31,14,32,26,135,,1.7,0.8,1.3*32
2017-12-31 16:44:38 1514756678.345941: $GPZDA,214439.00,31,12,2017,00,00*6A
2017-12-31 16:44:38 1514756678.346105: $GPGGA,214439,3946.9576,N,08404.9848,W,2,11,0.80,303.18,M,-33.324,M,,*73
2017-12-31 16:44:38 1514756678.346172: $GPRMC,214439,A,3946.9576,N,08404.9848,W,0.0000,0.000,311217,,*31
2017-12-31 16:44:38 1514756678.346233: $GPGSA,A,3,22,23,25,3,16,29,31,14,32,26,135,,1.7,0.8,1.3*32
2017-12-31 16:44:39 1514756679.681683: $GPGSV,3,1,11,22,49,253,44,23,20,304,40,25,09,039,32,03,45,285,27*7F
2017-12-31 16:44:39 1514756679.684274: $GPGSV,3,2,11,16,35,189,46,29,13,064,29,31,57,042,51,14,48,105,45*75
2017-12-31 16:44:39 1514756679.684411: $GPGSV,3,3,11,32,26,115,40,26,66,162,42,135,22,240,43*7C
2017-12-31 16:44:39 1514756679.795064: $GPZDA,214440.00,31,12,2017,00,00*64
2017-12-31 16:44:39 1514756679.795210: $GPGGA,214440,3946.9576,N,08404.9848,W,2,11,0.80,303.18,M,-33.324,M,,*7D
2017-12-31 16:44:39 1514756679.795276: $GPRMC,214440,A,3946.9576,N,08404.9848,W,0.0000,0.000,311217,,*3F
2017-12-31 16:44:39 1514756679.795337: $GPGSA,A,3,22,23,25,3,16,29,31,14,32,26,135,,1.7,0.8,1.3*32
2017-12-31 16:44:40 1514756680.420420: $GPZDA,214441.00,31,12,2017,00,00*65
2017-12-31 16:44:40 1514756680.420606: $GPGGA,214441,3946.9576,N,08404.9848,W,2,11,0.80,303.18,M,-33.324,M,,*7C
2017-12-31 16:44:40 1514756680.420673: $GPRMC,214441,A,3946.9576,N,08404.9848,W,0.0000,0.000,311217,,*3E
2017-12-31 16:44:40 1514756680.420734: $GPGSA,A,3,22,23,25,3,16,29,31,14,32,26,135,,1.7,0.8,1.3*32
2017-12-31 16:44:41 1514756681.362555: $GPZDA,214442.00,31,12,2017,00,00*66
2017-12-31 16:44:41 1514756681.362749: $GPGGA,214442,3946.9576,N,08404.9848,W,2,11,0.80,303.18,M,-33.324,M,,*7F
2017-12-31 16:44:41 1514756681.362815: $GPRMC,214442,A,3946.9576,N,08404.9848,W,0.0000,0.000,311217,,*3D
2017-12-31 16:44:41 1514756681.362875: $GPGSA,A,3,22,23,25,3,16,29,31,14,32,26,135,,1.7,0.8,1.3*32
