2017-12-01 18:07:55 1512169675.947349: {"class":"VERSION","release":"3.16","rev":"3.16-4","proto_major":3,"proto_minor":11}
2017-12-01 18:07:55 1512169675.947756: {"class":"DEVICES","devices":[{"class":"DEVICE","path":"/dev/ttyUSB0","driver":"SiRF","subtype":"9\u0006GSD4e_4.1.2-P1_RPATCH.05-F-GPS-4R-1510281 11/03/2015 307","activated":"2017-12-01T23:07:55.877Z","flags":1,"native":1,"bps":4800,"parity":"N","stopbits":1,"cycle":1.00}]}
2017-12-01 18:07:55 1512169675.947874: {"class":"WATCH","enable":true,"json":false,"nmea":true,"raw":0,"scaled":false,"timing":false,"split24":false,"pps":false}
2017-12-01 18:07:55 1512169675.989762: $GPZDA,230756.65,01,12,2017,00,00*66
2017-12-01 18:07:55 1512169675.989904: $GPGGA,230756,3946.9754,N,08404.9868,W,1,12,0.80,302.73,M,-33.325,M,,*72
2017-12-01 18:07:55 1512169675.989970: $GPRMC,230756,A,3946.9754,N,08404.9868,W,0.0407,142.012,011217,,*39
2017-12-01 18:07:55 1512169675.990032: $GPGSA,A,3,3,14,16,22,23,25,26,31,32,1,29,138,2.0,0.8,1.5*0C
2017-12-01 18:07:57 1512169677.095028: $GPZDA,230757.34,01,12,2017,00,00*63
2017-12-01 18:07:57 1512169677.095203: $GPGGA,230757,3946.9750,N,08404.9868,W,1,12,0.80,302.09,M,-33.325,M,,*7A
2017-12-01 18:07:57 1512169677.095291: $GPRMC,230757,A,3946.9750,N,08404.9868,W,0.4137,44.854,011217,,*03
2017-12-01 18:07:57 1512169677.095357: $GPGSA,A,3,3,14,16,22,23,25,26,31,32,1,29,138,2.0,0.8,1.5*0C
2017-12-01 18:07:57 1512169677.095417: $GPGBS,230757,10.70,M,15.43,M,35.28,M*03
2017-12-01 18:07:58 1512169678.260000: $GPGSV,3,1,12,03,36,306,46,14,60,081,43,16,16,189,42,22,49,282,46*75
2017-12-01 18:07:58 1512169678.260202: $GPGSV,3,2,12,23,06,297,41,25,23,043,43,26,46,174,45,31,72,012,46*70
2017-12-01 18:07:58 1512169678.260271: $GPGSV,3,3,12,32,41,102,44,01,10,258,09,29,08,078,08,138,38,213,20*4C
2017-12-01 18:07:58 1512169678.373348: $GPZDA,230758.00,01,12,2017,00,00*6B
2017-12-01 18:07:58 1512169678.373520: $GPGGA,230758,3946.9749,N,08404.9861,W,1,10,0.80,302.17,M,-33.325,M,,*79
2017-12-01 18:07:58 1512169678.373586: $GPRMC,230758,A,3946.9749,N,08404.9861,W,0.0000,0.000,011217,,*35
2017-12-01 18:07:58 1512169678.373648: $GPGSA,A,3,3,14,16,22,23,25,26,31,32,138,,,2.0,0.8,1.5*36
2017-12-01 18:07:58 1512169678.825493: $GPZDA,230759.00,01,12,2017,00,00*6A
2017-12-01 18:07:58 1512169678.825663: $GPGGA,230759,3946.9745,N,08404.9861,W,1,10,0.60,301.53,M,-33.325,M,,*79
2017-12-01 18:07:58 1512169678.825729: $GPRMC,230759,A,3946.9745,N,08404.9861,W,0.0000,0.000,011217,,*38
2017-12-01 18:07:58 1512169678.825791: $GPGSA,A,3,3,14,16,22,23,25,26,31,32,138,,,2.0,0.6,1.5*38
2017-12-01 18:07:59 1512169679.382597: $GPZDA,230800.00,01,12,2017,00,00*69
2017-12-01 18:07:59 1512169679.382784: $GPGGA,230800,3946.9745,N,08404.9861,W,1,10,0.60,301.53,M,-33.325,M,,*7A
2017-12-01 18:07:59 1512169679.382851: $GPRMC,230800,A,3946.9745,N,08404.9861,W,0.0000,0.000,011217,,*3B
2017-12-01 18:07:59 1512169679.382912: $GPGSA,A,3,3,14,16,22,23,25,26,31,32,138,,,2.0,0.6,1.5*38
2017-12-01 18:08:00 1512169680.718988: $GPGSV,3,1,12,03,36,306,46,14,60,081,43,16,16,189,42,22,49,282,47*74
2017-12-01 18:08:00 1512169680.719180: $GPGSV,3,2,12,23,06,297,42,25,23,043,44,26,46,174,45,31,72,012,47*75
2017-12-01 18:08:00 1512169680.719268: $GPGSV,3,3,12,32,41,102,44,01,10,258,30,29,08,078,27,138,38,213,46*4B
2017-12-01 18:08:00 1512169680.832409: $GPZDA,230801.00,01,12,2017,00,00*68
2017-12-01 18:08:00 1512169680.832564: $GPGGA,230801,3946.9741,N,08404.9861,W,1,12,0.60,300.89,M,-33.325,M,,*7B
2017-12-01 18:08:00 1512169680.832629: $GPRMC,230801,A,3946.9741,N,08404.9861,W,0.0000,0.000,011217,,*3E
2017-12-01 18:08:00 1512169680.832691: $GPGSA,A,3,3,14,16,22,23,25,26,31,32,1,29,138,2.0,0.6,1.5*02
2017-12-01 18:08:01 1512169681.386936: $GPZDA,230802.00,01,12,2017,00,00*6B
2017-12-01 18:08:01 1512169681.387129: $GPGGA,230802,3946.9741,N,08404.9861,W,1,12,0.60,300.89,M,-33.325,M,,*78
2017-12-01 18:08:01 1512169681.387199: $GPRMC,230802,A,3946.9741,N,08404.9861,W,0.0000,0.000,011217,,*3D
2017-12-01 18:08:01 1512169681.387261: $GPGSA,A,3,3,14,16,22,23,25,26,31,32,1,29,138,2.0,0.6,1.5*02
2017-12-01 18:08:02 1512169682.381561: $GPZDA,230803.00,01,12,2017,00,00*6A
2017-12-01 18:08:02 1512169682.381732: $GPGGA,230803,3946.9737,N,08404.9861,W,1,12,0.60,300.25,M,-33.325,M,,*7E
2017-12-01 18:08:02 1512169682.381800: $GPRMC,230803,A,3946.9737,N,08404.9861,W,0.0000,0.000,011217,,*3D
2017-12-01 18:08:02 1512169682.381860: $GPGSA,A,3,3,14,16,22,23,25,26,31,32,1,29,138,2.0,0.6,1.5*02
2017-12-01 18:08:02 1512169682.381919: $GPGBS,230803,10.70,M,15.43,M,35.28,M*0D
2017-12-01 18:08:03 1512169683.718452: $GPGSV,3,1,12,03,36,306,14,14,60,081,13,16,16,189,13,22,49,282,14*74
2017-12-01 18:08:03 1512169683.718637: $GPGSV,3,2,12,23,06,297,12,25,23,043,13,26,46,174,14,31,72,012,14*70
2017-12-01 18:08:03 1512169683.718705: $GPGSV,3,3,12,32,41,102,12,01,10,258,07,29,08,078,08,138,38,213,16*44
2017-12-01 18:08:03 1512169683.832041: $GPZDA,230804.00,01,12,2017,00,00*6D
2017-12-01 18:08:03 1512169683.832216: $GPGGA,230804,3946.9737,N,08404.9861,W,1,12,0.60,300.25,M,-33.325,M,,*79
2017-12-01 18:08:03 1512169683.832284: $GPRMC,230804,A,3946.9737,N,08404.9861,W,0.3006,242.539,011217,,*34
2017-12-01 18:08:03 1512169683.832345: $GPGSA,A,3,3,14,16,22,23,25,26,31,32,1,29,138,2.0,0.6,1.5*02
2017-12-01 18:08:04 1512169684.384317: $GPZDA,230805.00,01,12,2017,00,00*6C
2017-12-01 18:08:04 1512169684.384487: $GPGGA,230805,3946.9733,N,08404.9861,W,1,12,0.60,299.61,M,-33.325,M,,*7D
2017-12-01 18:08:04 1512169684.384554: $GPRMC,230805,A,3946.9733,N,08404.9861,W,0.0000,0.000,011217,,*3F
2017-12-01 18:08:04 1512169684.384615: $GPGSA,A,3,3,14,16,22,23,25,26,31,32,1,29,138,2.0,0.6,1.5*02
2017-12-01 18:08:05 1512169685.380647: $GPZDA,230806.00,01,12,2017,00,00*6F
2017-12-01 18:08:05 1512169685.380820: $GPGGA,230806,3946.9732,N,08404.9854,W,1,12,0.60,299.69,M,-33.325,M,,*71
2017-12-01 18:08:05 1512169685.380887: $GPRMC,230806,A,3946.9732,N,08404.9854,W,0.1867,0.000,011217,,*33
2017-12-01 18:08:05 1512169685.380949: $GPGSA,A,3,3,14,16,22,23,25,26,31,32,1,29,138,2.0,0.6,1.5*02
2017-12-01 18:08:06 1512169686.716354: $GPGSV,3,1,12,03,36,306,46,14,60,081,44,16,16,189,43,22,49,282,47*72
2017-12-01 18:08:06 1512169686.716536: $GPGSV,3,2,12,23,06,297,42,25,23,043,44,26,46,174,47,31,72,012,47*77
2017-12-01 18:08:06 1512169686.716604: $GPGSV,3,3,12,32,41,102,42,01,10,258,21,29,08,078,29,138,38,213,47*42
2017-12-01 18:08:06 1512169686.829674: $GPZDA,230807.00,01,12,2017,00,00*6E
2017-12-01 18:08:06 1512169686.829829: $GPGGA,230807,3946.9732,N,08404.9854,W,1,12,0.60,299.69,M,-33.325,M,,*70
2017-12-01 18:08:06 1512169686.829895: $GPRMC,230807,A,3946.9732,N,08404.9854,W,0.0000,0.000,011217,,*3A
2017-12-01 18:08:06 1512169686.829958: $GPGSA,A,3,3,14,16,22,23,25,26,31,32,1,29,138,2.0,0.6,1.5*02
2017-12-01 18:08:07 1512169687.383027: $GPZDA,230808.00,01,12,2017,00,00*61
2017-12-01 18:08:07 1512169687.383207: $GPGGA,230808,3946.9732,N,08404.9854,W,1,12,0.60,299.69,M,-33.325,M,,*7F
2017-12-01 18:08:07 1512169687.383275: $GPRMC,230808,A,3946.9732,N,08404.9854,W,0.0000,0.000,011217,,*35
2017-12-01 18:08:07 1512169687.383337: $GPGSA,A,3,3,14,16,22,23,25,26,31,32,1,29,138,2.0,0.6,1.5*02
2017-12-01 18:08:08 1512169688.382695: $GPZDA,230809.00,01,12,2017,00,00*60
2017-12-01 18:08:08 1512169688.382873: $GPGGA,230809,3946.9732,N,08404.9854,W,1,12,0.60,299.69,M,-33.325,M,,*7E
2017-12-01 18:08:08 1512169688.382941: $GPRMC,230809,A,3946.9732,N,08404.9854,W,0.0000,0.000,011217,,*34
2017-12-01 18:08:08 1512169688.383004: $GPGSA,A,3,3,14,16,22,23,25,26,31,32,1,29,138,2.0,0.6,1.5*02
2017-12-01 18:08:09 1512169689.717187: $GPGSV,3,1,12,03,36,306,46,14,60,081,44,16,16,189,43,22,49,282,47*72
2017-12-01 18:08:09 1512169689.717371: $GPGSV,3,2,12,23,06,297,42,25,23,043,44,26,46,174,47,31,72,012,48*78
2017-12-01 18:08:09 1512169689.717440: $GPGSV,3,3,12,32,41,102,42,01,10,258,22,29,08,078,29,138,38,213,46*40
2017-12-01 18:08:09 1512169689.830488: $GPZDA,230810.00,01,12,2017,00,00*68
2017-12-01 18:08:09 1512169689.830661: $GPGGA,230810,3946.9732,N,08404.9854,W,1,12,0.60,299.69,M,-33.325,M,,*76
2017-12-01 18:08:09 1512169689.830728: $GPRMC,230810,A,3946.9732,N,08404.9854,W,0.0000,0.000,011217,,*3C
2017-12-01 18:08:09 1512169689.830840: $GPGSA,A,3,3,14,16,22,23,25,26,31,32,1,29,138,2.0,0.6,1.5*02
2017-12-01 18:08:10 1512169690.455864: $GPZDA,230811.00,01,12,2017,00,00*69
2017-12-01 18:08:10 1512169690.456046: $GPGGA,230811,3946.9721,N,08404.9856,W,2,12,1.80,300.58,M,-33.325,M,,*78
2017-12-01 18:08:10 1512169690.456113: $GPRMC,230811,A,3946.9721,N,08404.9856,W,0.0000,0.000,011217,,*3D
2017-12-01 18:08:10 1512169690.456176: $GPGSA,A,3,3,14,16,22,23,25,26,31,32,1,29,138,2.0,1.8,1.5*0D
2017-12-01 18:08:11 1512169691.384288: $GPZDA,230812.00,01,12,2017,00,00*6A
2017-12-01 18:08:11 1512169691.384476: $GPGGA,230812,3946.9721,N,08404.9856,W,2,12,0.60,300.58,M,-33.325,M,,*74
2017-12-01 18:08:11 1512169691.395755: $GPRMC,230812,A,3946.9721,N,08404.9856,W,0.0000,0.000,011217,,*3E
2017-12-01 18:08:11 1512169691.395863: $GPGSA,A,3,3,14,16,22,23,25,26,31,32,1,29,138,2.0,0.6,1.5*02
2017-12-01 18:08:12 1512169692.718725: $GPGSV,3,1,12,03,36,306,46,14,60,081,43,16,16,189,43,22,49,282,47*75
2017-12-01 18:08:12 1512169692.718910: $GPGSV,3,2,12,23,06,297,43,25,23,043,44,26,46,174,46,31,72,012,47*77
2017-12-01 18:08:12 1512169692.718977: $GPGSV,3,3,12,32,41,102,43,01,10,258,27,29,08,078,28,138,38,213,46*45
2017-12-01 18:08:12 1512169692.832159: $GPZDA,230813.00,01,12,2017,00,00*6B
2017-12-01 18:08:12 1512169692.832333: $GPGGA,230813,3946.9721,N,08404.9856,W,2,12,0.60,300.58,M,-33.325,M,,*75
2017-12-01 18:08:12 1512169692.832400: $GPRMC,230813,A,3946.9721,N,08404.9856,W,0.0000,0.000,011217,,*3F
2017-12-01 18:08:12 1512169692.832461: $GPGSA,A,3,3,14,16,22,23,25,26,31,32,1,29,138,2.0,0.6,1.5*02
2017-12-01 18:08:13 1512169693.382978: $GPZDA,230814.00,01,12,2017,00,00*6C
2017-12-01 18:08:13 1512169693.383160: $GPGGA,230814,3946.9721,N,08404.9856,W,2,12,0.80,300.58,M,-33.325,M,,*7C
2017-12-01 18:08:13 1512169693.383227: $GPRMC,230814,A,3946.9721,N,08404.9856,W,0.0000,0.000,011217,,*38
2017-12-01 18:08:13 1512169693.383290: $GPGSA,A,3,3,14,16,22,23,25,26,31,32,1,29,138,2.0,0.8,1.5*0C
2017-12-01 18:08:14 1512169694.383823: $GPZDA,230815.00,01,12,2017,00,00*6D
2017-12-01 18:08:14 1512169694.384009: $GPGGA,230815,3946.9721,N,08404.9856,W,2,12,0.60,300.58,M,-33.325,M,,*73
2017-12-01 18:08:14 1512169694.384078: $GPRMC,230815,A,3946.9721,N,08404.9856,W,0.0000,0.000,011217,,*39
2017-12-01 18:08:14 1512169694.384141: $GPGSA,A,3,3,14,16,22,23,25,26,31,32,1,29,138,2.0,0.6,1.5*02
2017-12-01 18:08:14 1512169694.384201: $GPGBS,230815,2.67,M,3.86,M,8.82,M*3F
2017-12-01 18:08:15 1512169695.720262: $GPGSV,3,1,12,03,36,306,46,14,60,081,44,16,16,189,42,22,49,282,47*73
2017-12-01 18:08:15 1512169695.720452: $GPGSV,3,2,12,23,06,297,43,25,23,043,43,26,46,174,46,31,72,012,48*7F
2017-12-01 18:08:15 1512169695.720521: $GPGSV,3,3,12,32,41,102,43,01,10,258,26,29,08,078,26,138,38,213,46*4A
2017-12-01 18:08:15 1512169695.833622: $GPZDA,230816.00,01,12,2017,00,00*6E
2017-12-01 18:08:15 1512169695.833790: $GPGGA,230816,3946.9721,N,08404.9856,W,2,12,0.60,300.58,M,-33.325,M,,*70
2017-12-01 18:08:15 1512169695.833876: $GPRMC,230816,A,3946.9721,N,08404.9856,W,0.0000,0.000,011217,,*3A
2017-12-01 18:08:15 1512169695.833940: $GPGSA,A,3,3,14,16,22,23,25,26,31,32,1,29,138,2.0,0.6,1.5*02
