2017-11-16 14:43:58 1510861438.861040: {"class":"VERSION","release":"3.17","rev":"3.17","proto_major":3,"proto_minor":12}
2017-11-16 14:43:58 1510861438.862255: {"class":"DEVICES","devices":[{"class":"DEVICE","path":"/dev/ttyUSB0","driver":"SiRF","subtype":"9\u0006GSD4e_4.1.2-P1_RPATCH.05-F-GPS-4R-1510281 11/03/2015 307","activated":"2017-11-16T19:43:58.849Z","flags":1,"native":1,"bps":4800,"parity":"N","stopbits":1,"cycle":1.00}]}
2017-11-16 14:43:58 1510861438.862596: {"class":"WATCH","enable":true,"json":false,"nmea":true,"raw":0,"scaled":false,"timing":false,"split24":false,"pps":false}
2017-11-16 14:43:59 1510861439.498075: $GPZDA,194358.00,16,11,2017,00,00*67
2017-11-16 14:43:59 1510861439.498268: $GPGGA,194358,3946.9564,N,08404.9842,W,2,11,0.80,302.74,M,-33.324,M,,*7A
2017-11-16 14:43:59 1510861439.498355: $GPRMC,194358,A,3946.9564,N,08404.9842,W,0.0000,0.000,161117,,*35
2017-11-16 14:43:59 1510861439.498413: $GPGSA,A,3,8,10,15,18,21,20,24,27,32,14,138,,1.6,0.8,1.3*37
2017-11-16 14:44:00 1510861440.871416: $GPGSV,3,1,11,08,08,310,37,10,52,312,50,15,26,057,51,18,77,021,44*72
2017-11-16 14:44:00 1510861440.871584: $GPGSV,3,2,11,21,49,183,47,20,23,106,46,24,53,087,48,27,15,276,45*79
2017-11-16 14:44:00 1510861440.871646: $GPGSV,3,3,11,32,31,247,48,14,15,240,40,138,38,213,44*75
2017-11-16 14:44:00 1510861440.985512: $GPZDA,194359.00,16,11,2017,00,00*66
2017-11-16 14:44:00 1510861440.985671: $GPGGA,194359,3946.9564,N,08404.9842,W,2,11,0.80,302.74,M,-33.324,M,,*7B
2017-11-16 14:44:00 1510861440.985745: $GPRMC,194359,A,3946.9564,N,08404.9842,W,0.0000,0.000,161117,,*34
2017-11-16 14:44:00 1510861440.985818: $GPGSA,A,3,8,10,15,18,21,20,24,27,32,14,138,,1.6,0.8,1.3*37
2017-11-16 14:44:01 1510861441.499399: $GPZDA,194400.00,16,11,2017,00,00*6D
2017-11-16 14:44:01 1510861441.499558: $GPGGA,194400,3946.9564,N,08404.9842,W,2,11,0.80,302.74,M,-33.324,M,,*70
2017-11-16 14:44:01 1510861441.499620: $GPRMC,194400,A,3946.9564,N,08404.9842,W,0.0000,0.000,161117,,*3F
2017-11-16 14:44:01 1510861441.499677: $GPGSA,A,3,8,10,15,18,21,20,24,27,32,14,138,,1.6,0.8,1.3*37
2017-11-16 14:44:02 1510861442.527813: $GPZDA,194401.00,16,11,2017,00,00*6C
2017-11-16 14:44:02 1510861442.527995: $GPGGA,194401,3946.9564,N,08404.9842,W,2,11,0.80,302.74,M,-33.324,M,,*71
2017-11-16 14:44:02 1510861442.528075: $GPRMC,194401,A,3946.9564,N,08404.9842,W,0.0000,0.000,161117,,*3E
2017-11-16 14:44:02 1510861442.528150: $GPGSA,A,3,8,10,15,18,21,20,24,27,32,14,138,,1.6,0.8,1.3*37
2017-11-16 14:44:03 1510861443.834496: $GPGSV,3,1,11,08,08,310,38,10,52,312,50,15,26,057,51,18,77,021,44*7D
2017-11-16 14:44:03 1510861443.834686: $GPGSV,3,2,11,21,49,183,47,20,23,106,46,24,53,087,48,27,15,276,45*79
2017-11-16 14:44:03 1510861443.834748: $GPGSV,3,3,11,32,31,247,48,14,15,240,40,138,38,213,42*73
2017-11-16 14:44:03 1510861443.947964: $GPZDA,194402.00,16,11,2017,00,00*6F
2017-11-16 14:44:03 1510861443.948167: $GPGGA,194402,3946.9564,N,08404.9842,W,2,11,0.80,302.74,M,-33.324,M,,*72
2017-11-16 14:44:03 1510861443.948231: $GPRMC,194402,A,3946.9564,N,08404.9842,W,0.0000,0.000,161117,,*3D
2017-11-16 14:44:03 1510861443.948294: $GPGSA,A,3,8,10,15,18,21,20,24,27,32,14,138,,1.6,0.8,1.3*37
2017-11-16 14:44:04 1510861444.573342: $GPZDA,194403.00,16,11,2017,00,00*6E
2017-11-16 14:44:04 1510861444.573500: $GPGGA,194403,3946.9564,N,08404.9842,W,2,11,0.80,302.74,M,-33.324,M,,*73
2017-11-16 14:44:04 1510861444.573562: $GPRMC,194403,A,3946.9564,N,08404.9842,W,0.0000,0.000,161117,,*3C
2017-11-16 14:44:04 1510861444.573618: $GPGSA,A,3,8,10,15,18,21,20,24,27,32,14,138,,1.6,0.8,1.3*37
2017-11-16 14:44:05 1510861445.499014: $GPZDA,194404.00,16,11,2017,00,00*69
2017-11-16 14:44:05 1510861445.499194: $GPGGA,194404,3946.9564,N,08404.9842,W,2,11,0.80,302.74,M,-33.324,M,,*74
2017-11-16 14:44:05 1510861445.499256: $GPRMC,194404,A,3946.9564,N,08404.9842,W,0.0000,0.000,161117,,*3B
2017-11-16 14:44:05 1510861445.499313: $GPGSA,A,3,8,10,15,18,21,20,24,27,32,14,138,,1.6,0.8,1.3*37
2017-11-16 14:44:06 1510861446.835957: $GPGSV,3,1,11,08,08,310,39,10,52,312,50,15,26,057,51,18,77,021,44*7C
2017-11-16 14:44:06 1510861446.836176: $GPGSV,3,2,11,21,49,183,47,20,23,106,46,24,53,087,48,27,15,276,45*79
2017-11-16 14:44:06 1510861446.836237: $GPGSV,3,3,11,32,31,247,47,14,15,240,40,138,38,213,44*7A
2017-11-16 14:44:06 1510861446.949292: $GPZDA,194405.00,16,11,2017,00,00*68
2017-11-16 14:44:06 1510861446.949469: $GPGGA,194405,3946.9564,N,08404.9842,W,2,11,0.80,302.74,M,-33.324,M,,*75
2017-11-16 14:44:06 1510861446.949530: $GPRMC,194405,A,3946.9564,N,08404.9842,W,0.0000,0.000,161117,,*3A
2017-11-16 14:44:06 1510861446.949586: $GPGSA,A,3,8,10,15,18,21,20,24,27,32,14,138,,1.6,0.8,1.3*37
2017-11-16 14:44:07 1510861447.492669: $GPZDA,194406.00,16,11,2017,00,00*6B
2017-11-16 14:44:07 1510861447.492854: $GPGGA,194406,3946.9564,N,08404.9842,W,2,11,0.80,302.74,M,-33.324,M,,*76
2017-11-16 14:44:07 1510861447.492915: $GPRMC,194406,A,3946.9564,N,08404.9842,W,0.0000,0.000,161117,,*39
2017-11-16 14:44:07 1510861447.492972: $GPGSA,A,3,8,10,15,18,21,20,24,27,32,14,138,,1.6,0.8,1.3*37
2017-11-16 14:44:08 1510861448.498395: $GPZDA,194407.00,16,11,2017,00,00*6A
2017-11-16 14:44:08 1510861448.498578: $GPGGA,194407,3946.9564,N,08404.9842,W,2,11,0.80,302.74,M,-33.324,M,,*77
2017-11-16 14:44:08 1510861448.498640: $GPRMC,194407,A,3946.9564,N,08404.9842,W,0.0000,0.000,161117,,*38
2017-11-16 14:44:08 1510861448.498697: $GPGSA,A,3,8,10,15,18,21,20,24,27,32,14,138,,1.6,0.8,1.3*37
