2017-11-16 17:30:15 1510871415.711040: {"class":"VERSION","release":"3.17","rev":"3.17","proto_major":3,"proto_minor":12}
2017-11-16 17:30:15 1510871415.711493: {"class":"DEVICES","devices":[{"class":"DEVICE","path":"/dev/ttyUSB0","driver":"SiRF","subtype":"9\u0006GSD4e_4.1.2-P1_RPATCH.05-F-GPS-4R-1510281 11/03/2015 307","activated":"2017-11-16T22:30:15.295Z","flags":1,"native":1,"bps":4800,"parity":"N","stopbits":1,"cycle":1.00}]}
2017-11-16 17:30:15 1510871415.711600: {"class":"WATCH","enable":true,"json":false,"nmea":true,"raw":0,"scaled":false,"timing":false,"split24":false,"pps":false}
2017-11-16 17:30:15 1510871415.755257: $GPGSV,3,1,11,01,21,303,32,10,50,147,50,22,17,312,44,12,23,051,50*7E
2017-11-16 17:30:15 1510871415.755386: $GPGSV,3,2,11,14,65,324,48,18,20,144,40,11,09,283,41,25,39,093,48*77
2017-11-16 17:30:15 1510871415.755461: $GPGSV,3,3,11,31,53,223,48,32,69,022,49,138,38,213,44*70
2017-11-16 17:30:15 1510871415.858899: $GPZDA,223014.00,16,11,2017,00,00*63
2017-11-16 17:30:15 1510871415.859077: $GPGGA,223014,3946.9573,N,08404.9836,W,2,11,0.80,305.51,M,-33.324,M,,*7B
2017-11-16 17:30:15 1510871415.859139: $GPRMC,223014,A,3946.9573,N,08404.9836,W,0.2422,93.794,161117,,*02
2017-11-16 17:30:15 1510871415.859213: $GPGSA,A,3,1,10,22,12,14,18,11,25,31,32,138,,1.6,0.8,1.3*3E
2017-11-16 17:30:16 1510871416.484101: $GPZDA,223015.00,16,11,2017,00,00*62
2017-11-16 17:30:16 1510871416.484280: $GPGGA,223015,3946.9573,N,08404.9836,W,2,11,0.80,305.51,M,-33.324,M,,*7A
2017-11-16 17:30:16 1510871416.484341: $GPRMC,223015,A,3946.9573,N,08404.9836,W,0.0000,0.000,161117,,*35
2017-11-16 17:30:16 1510871416.484398: $GPGSA,A,3,1,10,22,12,14,18,11,25,31,32,138,,1.6,0.8,1.3*3E
2017-11-16 17:30:17 1510871417.402480: $GPZDA,223016.00,16,11,2017,00,00*61
2017-11-16 17:30:17 1510871417.402640: $GPGGA,223016,3946.9573,N,08404.9836,W,2,11,0.80,305.51,M,-33.324,M,,*79
2017-11-16 17:30:17 1510871417.402701: $GPRMC,223016,A,3946.9573,N,08404.9836,W,0.0000,0.000,161117,,*36
2017-11-16 17:30:17 1510871417.402758: $GPGSA,A,3,1,10,22,12,14,18,11,25,31,32,138,,1.6,0.8,1.3*3E
2017-11-16 17:30:18 1510871418.738313: $GPGSV,3,1,11,01,21,303,33,10,50,147,50,22,17,312,44,12,23,051,50*7F
2017-11-16 17:30:18 1510871418.738483: $GPGSV,3,2,11,14,65,324,48,18,20,144,40,11,09,283,41,25,39,093,49*76
2017-11-16 17:30:18 1510871418.738544: $GPGSV,3,3,11,31,53,223,48,32,69,022,49,138,38,213,44*70
2017-11-16 17:30:18 1510871418.851572: $GPZDA,223017.00,16,11,2017,00,00*60
2017-11-16 17:30:18 1510871418.851738: $GPGGA,223017,3946.9573,N,08404.9836,W,2,11,0.80,305.51,M,-33.324,M,,*78
2017-11-16 17:30:18 1510871418.851816: $GPRMC,223017,A,3946.9573,N,08404.9836,W,0.0000,0.000,161117,,*37
2017-11-16 17:30:18 1510871418.851873: $GPGSA,A,3,1,10,22,12,14,18,11,25,31,32,138,,1.6,0.8,1.3*3E
2017-11-16 17:30:19 1510871419.463876: $GPZDA,223018.00,16,11,2017,00,00*6F
2017-11-16 17:30:19 1510871419.464071: $GPGGA,223018,3946.9573,N,08404.9836,W,2,11,0.80,305.51,M,-33.324,M,,*77
2017-11-16 17:30:19 1510871419.464134: $GPRMC,223018,A,3946.9573,N,08404.9836,W,0.0000,0.000,161117,,*38
2017-11-16 17:30:19 1510871419.464209: $GPGSA,A,3,1,10,22,12,14,18,11,25,31,32,138,,1.6,0.8,1.3*3E
2017-11-16 17:30:19 1510871419.464265: $GPGBS,223018,2.07,M,2.72,M,7.42,M*37
2017-11-16 17:30:20 1510871420.418619: $GPZDA,223019.00,16,11,2017,00,00*6E
2017-11-16 17:30:20 1510871420.418790: $GPGGA,223019,3946.9573,N,08404.9836,W,2,11,0.80,305.51,M,-33.324,M,,*76
2017-11-16 17:30:20 1510871420.418850: $GPRMC,223019,A,3946.9573,N,08404.9836,W,0.0000,0.000,161117,,*39
2017-11-16 17:30:20 1510871420.418906: $GPGSA,A,3,1,10,22,12,14,18,11,25,31,32,138,,1.6,0.8,1.3*3E
2017-11-16 17:30:20 1510871420.418959: $GPGBS,223019,2.07,M,2.72,M,7.42,M*36
2017-11-16 17:30:21 1510871421.760131: $GPGSV,3,1,12,01,21,301,33,10,48,148,50,22,18,312,44,12,22,051,51*77
2017-11-16 17:30:21 1510871421.760313: $GPGSV,3,2,12,14,66,327,48,18,19,144,39,26,01,183,00,11,08,282,41*74
2017-11-16 17:30:21 1510871421.760374: $GPGSV,3,3,12,25,39,091,49,31,55,225,48,32,69,025,49,138,38,213,44*4C
2017-11-16 17:30:21 1510871421.873424: $GPZDA,223020.00,16,11,2017,00,00*64
2017-11-16 17:30:21 1510871421.873636: $GPGGA,223020,3946.9573,N,08404.9836,W,2,11,0.80,305.51,M,-33.324,M,,*7C
2017-11-16 17:30:21 1510871421.873699: $GPRMC,223020,A,3946.9573,N,08404.9836,W,0.0000,0.000,161117,,*33
2017-11-16 17:30:21 1510871421.873755: $GPGSA,A,3,1,10,22,12,14,18,11,25,31,32,138,,1.6,0.8,1.3*3E
2017-11-16 17:30:22 1510871422.424325: $GPZDA,223021.00,16,11,2017,00,00*65
2017-11-16 17:30:22 1510871422.424487: $GPGGA,223021,3946.9573,N,08404.9836,W,2,11,0.80,305.51,M,-33.324,M,,*7D
2017-11-16 17:30:22 1510871422.424548: $GPRMC,223021,A,3946.9573,N,08404.9836,W,0.0000,0.000,161117,,*32
2017-11-16 17:30:22 1510871422.424605: $GPGSA,A,3,1,10,22,12,14,18,11,25,31,32,138,,1.6,0.8,1.3*3E
2017-11-16 17:30:23 1510871423.425393: $GPZDA,223022.00,16,11,2017,00,00*66
2017-11-16 17:30:23 1510871423.425665: $GPGGA,223022,3946.9573,N,08404.9836,W,2,11,0.80,305.51,M,-33.324,M,,*7E
2017-11-16 17:30:23 1510871423.425783: $GPRMC,223022,A,3946.9573,N,08404.9836,W,0.0000,0.000,161117,,*31
2017-11-16 17:30:23 1510871423.425874: $GPGSA,A,3,1,10,22,12,14,18,11,25,31,32,138,,1.6,0.8,1.3*3E
2017-11-16 17:30:24 1510871424.767217: $GPGSV,3,1,12,01,21,301,25,10,48,148,50,22,18,312,44,12,22,051,51*70
2017-11-16 17:30:24 1510871424.767388: $GPGSV,3,2,12,14,66,327,47,18,19,144,39,26,01,183,00,11,08,282,40*7A
2017-11-16 17:30:24 1510871424.767543: $GPGSV,3,3,12,25,39,091,48,31,55,225,48,32,69,025,49,138,38,213,44*4D
2017-11-16 17:30:24 1510871424.880578: $GPZDA,223023.00,16,11,2017,00,00*67
2017-11-16 17:30:24 1510871424.880797: $GPGGA,223023,3946.9573,N,08404.9836,W,2,11,0.80,305.51,M,-33.324,M,,*7F
2017-11-16 17:30:24 1510871424.880885: $GPRMC,223023,A,3946.9573,N,08404.9836,W,0.0000,0.000,161117,,*30
2017-11-16 17:30:24 1510871424.880944: $GPGSA,A,3,1,10,22,12,14,18,11,25,31,32,138,,1.6,0.8,1.3*3E
2017-11-16 17:30:25 1510871425.402870: $GPZDA,223024.00,16,11,2017,00,00*60
2017-11-16 17:30:25 1510871425.403083: $GPGGA,223024,3946.9573,N,08404.9836,W,2,11,0.80,305.51,M,-33.324,M,,*78
2017-11-16 17:30:25 1510871425.403167: $GPRMC,223024,A,3946.9573,N,08404.9836,W,0.0000,0.000,161117,,*37
2017-11-16 17:30:25 1510871425.403223: $GPGSA,A,3,1,10,22,12,14,18,11,25,31,32,138,,1.6,0.8,1.3*3E
