2017-12-31 18:13:11 1514761991.178349: {"class":"VERSION","release":"3.16","rev":"3.16-4","proto_major":3,"proto_minor":11}
2017-12-31 18:13:11 1514761991.178695: {"class":"DEVICES","devices":[{"class":"DEVICE","path":"/dev/ttyUSB0","driver":"SiRF","activated":"2017-12-31T23:13:11.172Z","flags":1,"native":1,"bps":4800,"parity":"N","stopbits":1,"cycle":1.00}]}
2017-12-31 18:13:11 1514761991.178794: {"class":"WATCH","enable":true,"json":false,"nmea":true,"raw":0,"scaled":false,"timing":false,"split24":false,"pps":false}
2017-12-31 18:13:11 1514761991.349694: $GPZDA,231312.00,31,12,2017,00,00*63
2017-12-31 18:13:11 1514761991.349888: $GPGGA,231312,3946.9561,N,08404.9874,W,2,11,0.80,308.17,M,-33.324,M,,*77
2017-12-31 18:13:11 1514761991.349959: $GPRMC,231312,A,3946.9561,N,08404.9874,W,0.0000,0.000,311217,,*31
2017-12-31 18:13:11 1514761991.350019: $GPGSA,A,3,22,23,9,3,16,14,31,27,8,26,135,,1.7,0.8,1.3*3B
2017-12-31 18:13:12 1514761992.715465: $GPGSV,3,1,12,22,21,213,35,23,55,306,45,09,21,312,44,03,31,234,44*76
2017-12-31 18:13:12 1514761992.715633: $GPGSV,3,2,12,16,82,187,43,29,05,030,04,14,14,133,32,31,28,076,46*7D
2017-12-31 18:13:12 1514761992.715699: $GPGSV,3,3,12,27,23,153,32,08,01,180,21,26,61,049,48,135,22,240,43*4F
2017-12-31 18:13:12 1514761992.828607: $GPZDA,231313.00,31,12,2017,00,00*62
2017-12-31 18:13:12 1514761992.828765: $GPGGA,231313,3946.9561,N,08404.9874,W,2,11,0.80,308.17,M,-33.324,M,,*76
2017-12-31 18:13:12 1514761992.828831: $GPRMC,231313,A,3946.9561,N,08404.9874,W,0.0000,0.000,311217,,*30
2017-12-31 18:13:12 1514761992.828891: $GPGSA,A,3,22,23,9,3,16,14,31,27,8,26,135,,1.7,0.8,1.3*3B
2017-12-31 18:13:13 1514761993.344411: $GPZDA,231314.00,31,12,2017,00,00*65
2017-12-31 18:13:13 1514761993.344573: $GPGGA,231314,3946.9561,N,08404.9874,W,2,11,0.80,308.17,M,-33.324,M,,*71
2017-12-31 18:13:13 1514761993.344637: $GPRMC,231314,A,3946.9561,N,08404.9874,W,0.0000,0.000,311217,,*37
2017-12-31 18:13:13 1514761993.344697: $GPGSA,A,3,22,23,9,3,16,14,31,27,8,26,135,,1.7,0.8,1.3*3B
2017-12-31 18:13:14 1514761994.377906: $GPZDA,231315.00,31,12,2017,00,00*64
2017-12-31 18:13:14 1514761994.378066: $GPGGA,231315,3946.9561,N,08404.9874,W,2,11,0.80,308.17,M,-33.324,M,,*70
2017-12-31 18:13:14 1514761994.378131: $GPRMC,231315,A,3946.9561,N,08404.9874,W,0.0000,0.000,311217,,*36
2017-12-31 18:13:14 1514761994.378192: $GPGSA,A,3,22,23,9,3,16,14,31,27,8,26,135,,1.7,0.8,1.3*3B
2017-12-31 18:13:15 1514761995.685551: $GPGSV,3,1,12,22,21,213,34,23,55,306,44,09,21,312,44,03,31,234,44*76
2017-12-31 18:13:15 1514761995.685714: $GPGSV,3,2,12,16,82,187,42,29,05,030,26,14,14,133,25,31,28,076,46*7A
2017-12-31 18:13:15 1514761995.685779: $GPGSV,3,3,12,27,23,153,33,08,01,180,21,26,61,049,48,135,22,240,43*4E
2017-12-31 18:13:15 1514761995.798977: $GPZDA,231316.00,31,12,2017,00,00*67
2017-12-31 18:13:15 1514761995.799153: $GPGGA,231316,3946.9561,N,08404.9874,W,2,12,0.80,308.17,M,-33.324,M,,*70
2017-12-31 18:13:15 1514761995.799220: $GPRMC,231316,A,3946.9561,N,08404.9874,W,0.0000,0.000,311217,,*35
2017-12-31 18:13:15 1514761995.799280: $GPGSA,A,3,22,23,9,3,16,29,14,31,27,8,26,135,1.7,0.8,1.3*30
2017-12-31 18:13:16 1514761996.348559: $GPZDA,231317.00,31,12,2017,00,00*66
2017-12-31 18:13:16 1514761996.348734: $GPGGA,231317,3946.9561,N,08404.9874,W,2,12,0.80,308.17,M,-33.324,M,,*71
2017-12-31 18:13:16 1514761996.348800: $GPRMC,231317,A,3946.9561,N,08404.9874,W,0.0000,0.000,311217,,*34
2017-12-31 18:13:16 1514761996.348861: $GPGSA,A,3,22,23,9,3,16,29,14,31,27,8,26,135,1.7,0.8,1.3*30
2017-12-31 18:13:17 1514761997.378703: $GPZDA,231318.00,31,12,2017,00,00*69
2017-12-31 18:13:17 1514761997.378880: $GPGGA,231318,3946.9561,N,08404.9874,W,2,12,0.80,308.17,M,-33.324,M,,*7E
2017-12-31 18:13:17 1514761997.378946: $GPRMC,231318,A,3946.9561,N,08404.9874,W,0.0000,0.000,311217,,*3B
2017-12-31 18:13:17 1514761997.379007: $GPGSA,A,3,22,23,9,3,16,29,14,31,27,8,26,135,1.7,0.8,1.3*30
2017-12-31 18:13:18 1514761998.678890: $GPGSV,3,1,12,22,21,213,35,23,55,306,44,09,21,312,44,03,31,234,43*70
2017-12-31 18:13:18 1514761998.679068: $GPGSV,3,2,12,16,82,187,42,29,05,030,29,14,14,133,30,31,28,076,47*70
2017-12-31 18:13:18 1514761998.679185: $GPGSV,3,3,12,27,23,153,34,08,01,180,22,26,61,049,48,135,22,240,43*4A
2017-12-31 18:13:18 1514761998.792325: $GPZDA,231319.00,31,12,2017,00,00*68
2017-12-31 18:13:18 1514761998.792480: $GPGGA,231319,3946.9561,N,08404.9874,W,2,12,0.80,308.17,M,-33.324,M,,*7F
2017-12-31 18:13:18 1514761998.792544: $GPRMC,231319,A,3946.9561,N,08404.9874,W,0.0000,0.000,311217,,*3A
2017-12-31 18:13:18 1514761998.792605: $GPGSA,A,3,22,23,9,3,16,29,14,31,27,8,26,135,1.7,0.8,1.3*30
2017-12-31 18:13:19 1514761999.378244: $GPZDA,231320.00,31,12,2017,00,00*62
2017-12-31 18:13:19 1514761999.378414: $GPGGA,231320,3946.9561,N,08404.9874,W,2,12,0.80,308.17,M,-33.324,M,,*75
2017-12-31 18:13:19 1514761999.378479: $GPRMC,231320,A,3946.9561,N,08404.9874,W,0.0000,0.000,311217,,*30
2017-12-31 18:13:19 1514761999.378540: $GPGSA,A,3,22,23,9,3,16,29,14,31,27,8,26,135,1.7,0.8,1.3*30
2017-12-31 18:13:20 1514762000.349876: $GPZDA,231321.00,31,12,2017,00,00*63
2017-12-31 18:13:20 1514762000.350049: $GPGGA,231321,3946.9561,N,08404.9874,W,2,12,0.80,308.17,M,-33.324,M,,*74
2017-12-31 18:13:20 1514762000.350114: $GPRMC,231321,A,3946.9561,N,08404.9874,W,0.0000,0.000,311217,,*31
2017-12-31 18:13:20 1514762000.350174: $GPGSA,A,3,22,23,9,3,16,29,14,31,27,8,26,135,1.7,0.8,1.3*30
2017-12-31 18:13:21 1514762001.713126: $GPGSV,3,1,12,22,21,213,36,23,55,306,46,09,21,312,44,03,31,234,42*70
2017-12-31 18:13:21 1514762001.713310: $GPGSV,3,2,12,16,82,187,43,29,05,030,30,14,14,133,30,31,28,076,47*79
2017-12-31 18:13:21 1514762001.713375: $GPGSV,3,3,12,27,23,153,34,08,01,180,23,26,61,049,48,135,22,240,42*4A
2017-12-31 18:13:21 1514762001.826323: $GPZDA,231322.00,31,12,2017,00,00*60
2017-12-31 18:13:21 1514762001.826498: $GPGGA,231322,3946.9561,N,08404.9874,W,2,12,0.80,308.17,M,-33.324,M,,*77
2017-12-31 18:13:21 1514762001.826565: $GPRMC,231322,A,3946.9561,N,08404.9874,W,0.0000,0.000,311217,,*32
2017-12-31 18:13:21 1514762001.826626: $GPGSA,A,3,22,23,9,3,16,29,14,31,27,8,26,135,1.7,0.8,1.3*30
2017-12-31 18:13:22 1514762002.350951: $GPZDA,231323.00,31,12,2017,00,00*61
2017-12-31 18:13:22 1514762002.351130: $GPGGA,231323,3946.9561,N,08404.9874,W,2,12,0.80,308.17,M,-33.324,M,,*76
2017-12-31 18:13:22 1514762002.351196: $GPRMC,231323,A,3946.9561,N,08404.9874,W,0.0000,0.000,311217,,*33
2017-12-31 18:13:22 1514762002.351256: $GPGSA,A,3,22,23,9,3,16,29,14,31,27,8,26,135,1.7,0.8,1.3*30
2017-12-31 18:13:23 1514762003.376836: $GPZDA,231324.00,31,12,2017,00,00*66
2017-12-31 18:13:23 1514762003.377013: $GPGGA,231324,3946.9561,N,08404.9874,W,2,12,0.80,308.17,M,-33.324,M,,*71
2017-12-31 18:13:23 1514762003.377079: $GPRMC,231324,A,3946.9561,N,08404.9874,W,0.0000,0.000,311217,,*34
2017-12-31 18:13:23 1514762003.377199: $GPGSA,A,3,22,23,9,3,16,29,14,31,27,8,26,135,1.7,0.8,1.3*30
2017-12-31 18:13:24 1514762004.678911: $GPGSV,3,1,12,22,21,213,36,23,55,306,46,09,21,312,44,03,31,234,43*71
2017-12-31 18:13:24 1514762004.679092: $GPGSV,3,2,12,16,82,187,43,29,05,030,30,14,14,133,31,31,28,076,47*78
2017-12-31 18:13:24 1514762004.679159: $GPGSV,3,3,12,27,23,153,32,08,01,180,24,26,61,049,49,135,22,240,43*4B
2017-12-31 18:13:24 1514762004.792224: $GPZDA,231325.00,31,12,2017,00,00*67
2017-12-31 18:13:24 1514762004.792398: $GPGGA,231325,3946.9561,N,08404.9874,W,2,12,0.80,308.17,M,-33.324,M,,*70
2017-12-31 18:13:24 1514762004.792463: $GPRMC,231325,A,3946.9561,N,08404.9874,W,0.0000,0.000,311217,,*35
2017-12-31 18:13:24 1514762004.792523: $GPGSA,A,3,22,23,9,3,16,29,14,31,27,8,26,135,1.7,0.8,1.3*30
2017-12-31 18:13:25 1514762005.417713: $GPZDA,231326.00,31,12,2017,00,00*64
2017-12-31 18:13:25 1514762005.417895: $GPGGA,231326,3946.9561,N,08404.9874,W,2,12,0.80,308.17,M,-33.324,M,,*73
2017-12-31 18:13:25 1514762005.417962: $GPRMC,231326,A,3946.9561,N,08404.9874,W,0.0000,0.000,311217,,*36
2017-12-31 18:13:25 1514762005.418024: $GPGSA,A,3,22,23,9,3,16,29,14,31,27,8,26,135,1.7,0.8,1.3*30
2017-12-31 18:13:26 1514762006.385095: $GPZDA,231327.00,31,12,2017,00,00*65
2017-12-31 18:13:26 1514762006.385267: $GPGGA,231327,3946.9561,N,08404.9874,W,2,12,0.80,308.17,M,-33.324,M,,*72
2017-12-31 18:13:26 1514762006.385384: $GPRMC,231327,A,3946.9561,N,08404.9874,W,0.0000,0.000,311217,,*37
2017-12-31 18:13:26 1514762006.385446: $GPGSA,A,3,22,23,9,3,16,29,14,31,27,8,26,135,1.7,0.8,1.3*30
2017-12-31 18:13:27 1514762007.685631: $GPGSV,3,1,12,22,21,213,36,23,55,306,46,09,21,312,44,03,31,234,43*71
2017-12-31 18:13:27 1514762007.685821: $GPGSV,3,2,12,16,82,187,43,29,05,030,22,14,14,133,31,31,28,076,47*7B
2017-12-31 18:13:27 1514762007.685888: $GPGSV,3,3,12,27,23,153,32,08,01,180,24,26,61,049,49,135,22,240,44*4C
2017-12-31 18:13:27 1514762007.799104: $GPZDA,231328.00,31,12,2017,00,00*6A
2017-12-31 18:13:27 1514762007.799273: $GPGGA,231328,3946.9561,N,08404.9874,W,2,12,0.80,308.17,M,-33.324,M,,*7D
2017-12-31 18:13:27 1514762007.799339: $GPRMC,231328,A,3946.9561,N,08404.9874,W,0.0000,0.000,311217,,*38
2017-12-31 18:13:27 1514762007.799399: $GPGSA,A,3,22,23,9,3,16,29,14,31,27,8,26,135,1.7,0.8,1.3*30
2017-12-31 18:13:28 1514762008.348783: $GPZDA,231329.00,31,12,2017,00,00*6B
2017-12-31 18:13:28 1514762008.348955: $GPGGA,231329,3946.9561,N,08404.9874,W,2,12,0.80,308.17,M,-33.324,M,,*7C
2017-12-31 18:13:28 1514762008.349021: $GPRMC,231329,A,3946.9561,N,08404.9874,W,0.0000,0.000,311217,,*39
2017-12-31 18:13:28 1514762008.349081: $GPGSA,A,3,22,23,9,3,16,29,14,31,27,8,26,135,1.7,0.8,1.3*30
2017-12-31 18:13:29 1514762009.349816: $GPZDA,231330.00,31,12,2017,00,00*63
2017-12-31 18:13:29 1514762009.349978: $GPGGA,231330,3946.9561,N,08404.9874,W,2,12,0.80,308.17,M,-33.324,M,,*74
2017-12-31 18:13:29 1514762009.350044: $GPRMC,231330,A,3946.9561,N,08404.9874,W,0.0000,0.000,311217,,*31
2017-12-31 18:13:29 1514762009.350104: $GPGSA,A,3,22,23,9,3,16,29,14,31,27,8,26,135,1.7,0.8,1.3*30
2017-12-31 18:13:30 1514762010.685797: $GPGSV,3,1,12,22,21,213,36,23,55,306,45,09,21,312,44,03,31,234,43*72
2017-12-31 18:13:30 1514762010.685975: $GPGSV,3,2,12,16,82,187,44,29,05,030,20,14,14,133,32,31,28,076,47*7D
2017-12-31 18:13:30 1514762010.686040: $GPGSV,3,3,12,27,23,153,32,08,01,180,25,26,61,049,49,135,22,240,45*4C
2017-12-31 18:13:30 1514762010.799142: $GPZDA,231331.00,31,12,2017,00,00*62
2017-12-31 18:13:30 1514762010.799301: $GPGGA,231331,3946.9561,N,08404.9874,W,2,12,0.80,308.17,M,-33.324,M,,*75
2017-12-31 18:13:30 1514762010.799365: $GPRMC,231331,A,3946.9561,N,08404.9874,W,0.0000,0.000,311217,,*30
2017-12-31 18:13:30 1514762010.799426: $GPGSA,A,3,22,23,9,3,16,29,14,31,27,8,26,135,1.7,0.8,1.3*30
