2017-12-01 17:49:07 1512168547.376682: {"class":"VERSION","release":"3.16","rev":"3.16-4","proto_major":3,"proto_minor":11}
2017-12-01 17:49:07 1512168547.377099: {"class":"DEVICES","devices":[{"class":"DEVICE","path":"/dev/ttyUSB0","driver":"SiRF","subtype":"9\u0006GSD4e_4.1.2-P1_RPATCH.05-F-GPS-4R-1510281 11/03/2015 307","activated":"2017-12-01T22:49:07.280Z","flags":1,"native":1,"bps":4800,"parity":"N","stopbits":1,"cycle":1.00}]}
2017-12-01 17:49:07 1512168547.377224: {"class":"WATCH","enable":true,"json":false,"nmea":true,"raw":0,"scaled":false,"timing":false,"split24":false,"pps":false}
2017-12-01 17:49:07 1512168547.393886: $GPZDA,224908.00,01,12,2017,00,00*65
2017-12-01 17:49:07 1512168547.394023: $GPGGA,224908,3946.9723,N,08404.9840,W,2,11,0.80,298.57,M,-33.325,M,,*7C
2017-12-01 17:49:07 1512168547.394087: $GPRMC,224908,A,3946.9723,N,08404.9840,W,0.0000,0.000,011217,,*34
2017-12-01 17:49:07 1512168547.394148: $GPGSA,A,3,1,3,10,14,29,22,16,25,26,31,138,,2.0,0.8,1.5*0D
2017-12-01 17:49:08 1512168548.726662: $GPGSV,3,1,12,01,14,265,40,03,29,312,47,10,12,157,40,14,65,064,41*76
2017-12-01 17:49:08 1512168548.726844: $GPGSV,3,2,12,29,04,085,32,22,46,292,46,16,08,189,32,25,29,048,42*79
2017-12-01 17:49:08 1512168548.726909: $GPGSV,3,3,12,26,37,175,44,32,47,093,00,31,78,342,46,138,38,213,45*4B
2017-12-01 17:49:08 1512168548.839992: $GPZDA,224909.00,01,12,2017,00,00*64
2017-12-01 17:49:08 1512168548.840129: $GPGGA,224909,3946.9723,N,08404.9840,W,2,11,0.80,298.57,M,-33.325,M,,*7D
2017-12-01 17:49:08 1512168548.840194: $GPRMC,224909,A,3946.9723,N,08404.9840,W,0.0000,0.000,011217,,*35
2017-12-01 17:49:08 1512168548.840253: $GPGSA,A,3,1,3,10,14,29,22,16,25,26,31,138,,2.0,0.8,1.5*0D
2017-12-01 17:49:09 1512168549.398705: $GPZDA,224910.00,01,12,2017,00,00*6C
2017-12-01 17:49:09 1512168549.398878: $GPGGA,224910,3946.9723,N,08404.9840,W,2,11,0.80,298.57,M,-33.325,M,,*75
2017-12-01 17:49:09 1512168549.398945: $GPRMC,224910,A,3946.9723,N,08404.9840,W,0.0000,0.000,011217,,*3D
2017-12-01 17:49:09 1512168549.399005: $GPGSA,A,3,1,3,10,14,29,22,16,25,26,31,138,,2.0,0.8,1.5*0D
2017-12-01 17:49:10 1512168550.398474: $GPZDA,224911.00,01,12,2017,00,00*6D
2017-12-01 17:49:10 1512168550.398644: $GPGGA,224911,3946.9723,N,08404.9840,W,2,11,0.80,298.57,M,-33.325,M,,*74
2017-12-01 17:49:10 1512168550.398711: $GPRMC,224911,A,3946.9723,N,08404.9840,W,0.0000,0.000,011217,,*3C
2017-12-01 17:49:10 1512168550.398772: $GPGSA,A,3,1,3,10,14,29,22,16,25,26,31,138,,2.0,0.8,1.5*0D
2017-12-01 17:49:11 1512168551.760084: $GPGSV,3,1,12,01,14,265,40,03,29,312,47,10,12,157,41,14,65,064,41*77
2017-12-01 17:49:11 1512168551.760260: $GPGSV,3,2,12,29,04,085,34,22,46,292,46,16,08,189,32,25,29,048,42*7F
2017-12-01 17:49:11 1512168551.760326: $GPGSV,3,3,12,26,37,175,44,32,47,093,00,31,78,342,46,138,38,213,45*4B
2017-12-01 17:49:11 1512168551.873731: $GPZDA,224912.00,01,12,2017,00,00*6E
2017-12-01 17:49:11 1512168551.873901: $GPGGA,224912,3946.9723,N,08404.9840,W,2,11,0.80,298.57,M,-33.325,M,,*77
2017-12-01 17:49:11 1512168551.873967: $GPRMC,224912,A,3946.9723,N,08404.9840,W,0.0000,0.000,011217,,*3F
2017-12-01 17:49:11 1512168551.874028: $GPGSA,A,3,1,3,10,14,29,22,16,25,26,31,138,,2.0,0.8,1.5*0D
2017-12-01 17:49:12 1512168552.397146: $GPZDA,224913.00,01,12,2017,00,00*6F
2017-12-01 17:49:12 1512168552.397411: $GPGGA,224913,3946.9723,N,08404.9840,W,2,11,0.80,298.57,M,-33.325,M,,*76
2017-12-01 17:49:12 1512168552.397501: $GPRMC,224913,A,3946.9723,N,08404.9840,W,0.0000,0.000,011217,,*3E
2017-12-01 17:49:12 1512168552.397565: $GPGSA,A,3,1,3,10,14,29,22,16,25,26,31,138,,2.0,0.8,1.5*0D
2017-12-01 17:49:13 1512168553.425878: $GPZDA,224914.00,01,12,2017,00,00*68
2017-12-01 17:49:13 1512168553.426049: $GPGGA,224914,3946.9723,N,08404.9840,W,2,11,0.80,298.57,M,-33.325,M,,*71
2017-12-01 17:49:13 1512168553.426117: $GPRMC,224914,A,3946.9723,N,08404.9840,W,0.0000,0.000,011217,,*39
2017-12-01 17:49:13 1512168553.426178: $GPGSA,A,3,1,3,10,14,29,22,16,25,26,31,138,,2.0,0.8,1.5*0D
2017-12-01 17:49:14 1512168554.759054: $GPGSV,3,1,12,01,14,265,41,03,29,312,47,10,12,157,41,14,65,064,41*76
2017-12-01 17:49:14 1512168554.759285: $GPGSV,3,2,12,29,04,085,35,22,46,292,47,16,08,189,31,25,29,048,42*7C
2017-12-01 17:49:14 1512168554.759356: $GPGSV,3,3,12,26,37,175,45,32,47,093,00,31,78,342,46,138,38,213,46*49
2017-12-01 17:49:14 1512168554.872429: $GPZDA,224915.00,01,12,2017,00,00*69
2017-12-01 17:49:14 1512168554.872566: $GPGGA,224915,3946.9723,N,08404.9840,W,2,11,0.80,298.57,M,-33.325,M,,*70
2017-12-01 17:49:14 1512168554.872631: $GPRMC,224915,A,3946.9723,N,08404.9840,W,0.0000,0.000,011217,,*38
2017-12-01 17:49:14 1512168554.872691: $GPGSA,A,3,1,3,10,14,29,22,16,25,26,31,138,,2.0,0.8,1.5*0D
2017-12-01 17:49:15 1512168555.423396: $GPZDA,224916.00,01,12,2017,00,00*6A
2017-12-01 17:49:15 1512168555.423590: $GPGGA,224916,3946.9723,N,08404.9840,W,2,11,0.80,298.57,M,-33.325,M,,*73
2017-12-01 17:49:15 1512168555.423657: $GPRMC,224916,A,3946.9723,N,08404.9840,W,0.0000,0.000,011217,,*3B
2017-12-01 17:49:15 1512168555.423719: $GPGSA,A,3,1,3,10,14,29,22,16,25,26,31,138,,2.0,0.8,1.5*0D
2017-12-01 17:49:16 1512168556.422926: $GPZDA,224917.00,01,12,2017,00,00*6B
2017-12-01 17:49:16 1512168556.423101: $GPGGA,224917,3946.9723,N,08404.9840,W,2,11,0.80,298.57,M,-33.325,M,,*72
2017-12-01 17:49:16 1512168556.423169: $GPRMC,224917,A,3946.9723,N,08404.9840,W,0.0000,0.000,011217,,*3A
2017-12-01 17:49:16 1512168556.423229: $GPGSA,A,3,1,3,10,14,29,22,16,25,26,31,138,,2.0,0.8,1.5*0D
2017-12-01 17:49:17 1512168557.758673: $GPGSV,3,1,12,01,14,265,41,03,29,312,47,10,12,157,41,14,65,064,40*77
2017-12-01 17:49:17 1512168557.758859: $GPGSV,3,2,12,29,04,085,36,22,46,292,47,16,08,189,32,25,29,048,42*7C
2017-12-01 17:49:17 1512168557.758925: $GPGSV,3,3,12,26,37,175,45,32,47,093,00,31,78,342,46,138,38,213,45*4A
2017-12-01 17:49:17 1512168557.872475: $GPZDA,224918.00,01,12,2017,00,00*64
2017-12-01 17:49:17 1512168557.872664: $GPGGA,224918,3946.9723,N,08404.9840,W,2,11,0.80,298.57,M,-33.325,M,,*7D
2017-12-01 17:49:17 1512168557.872732: $GPRMC,224918,A,3946.9723,N,08404.9840,W,0.0000,0.000,011217,,*35
2017-12-01 17:49:17 1512168557.872793: $GPGSA,A,3,1,3,10,14,29,22,16,25,26,31,138,,2.0,0.8,1.5*0D
2017-12-01 17:49:18 1512168558.498657: $GPZDA,224919.00,01,12,2017,00,00*65
2017-12-01 17:49:18 1512168558.498845: $GPGGA,224919,3946.9723,N,08404.9840,W,2,11,0.80,298.57,M,-33.325,M,,*7C
2017-12-01 17:49:18 1512168558.498913: $GPRMC,224919,A,3946.9723,N,08404.9840,W,0.0000,0.000,011217,,*34
2017-12-01 17:49:18 1512168558.498975: $GPGSA,A,3,1,3,10,14,29,22,16,25,26,31,138,,2.0,0.8,1.5*0D
2017-12-01 17:49:19 1512168559.425793: $GPZDA,224920.00,01,12,2017,00,00*6F
2017-12-01 17:49:19 1512168559.425973: $GPGGA,224920,3946.9723,N,08404.9840,W,2,11,0.80,298.57,M,-33.325,M,,*76
2017-12-01 17:49:19 1512168559.426040: $GPRMC,224920,A,3946.9723,N,08404.9840,W,0.0000,0.000,011217,,*3E
2017-12-01 17:49:19 1512168559.426101: $GPGSA,A,3,1,3,10,14,29,22,16,25,26,31,138,,2.0,0.8,1.5*0D
2017-12-01 17:49:20 1512168560.732757: $GPGSV,3,1,12,01,14,265,41,03,29,312,46,10,12,157,41,14,65,064,40*76
2017-12-01 17:49:20 1512168560.732934: $GPGSV,3,2,12,29,04,085,36,22,46,292,47,16,08,189,30,25,29,048,42*7E
2017-12-01 17:49:20 1512168560.733000: $GPGSV,3,3,12,26,37,175,45,32,47,093,00,31,78,342,46,138,38,213,46*49
2017-12-01 17:49:20 1512168560.846090: $GPZDA,224921.00,01,12,2017,00,00*6E
2017-12-01 17:49:20 1512168560.846258: $GPGGA,224921,3946.9724,N,08404.9847,W,2,11,0.80,298.49,M,-33.325,M,,*78
2017-12-01 17:49:20 1512168560.846324: $GPRMC,224921,A,3946.9724,N,08404.9847,W,0.0000,0.000,011217,,*3F
2017-12-01 17:49:20 1512168560.846385: $GPGSA,A,3,1,3,10,14,29,22,16,25,26,31,138,,2.0,0.8,1.5*0D
2017-12-01 17:49:21 1512168561.423251: $GPZDA,224922.00,01,12,2017,00,00*6D
2017-12-01 17:49:21 1512168561.423402: $GPGGA,224922,3946.9724,N,08404.9847,W,2,11,0.80,298.49,M,-33.325,M,,*7B
2017-12-01 17:49:21 1512168561.423469: $GPRMC,224922,A,3946.9724,N,08404.9847,W,0.0000,0.000,011217,,*3C
2017-12-01 17:49:21 1512168561.423530: $GPGSA,A,3,1,3,10,14,29,22,16,25,26,31,138,,2.0,0.8,1.5*0D
2017-12-01 17:49:22 1512168562.397982: $GPZDA,224923.00,01,12,2017,00,00*6C
2017-12-01 17:49:22 1512168562.402530: $GPGGA,224923,3946.9724,N,08404.9847,W,2,11,0.80,298.49,M,-33.325,M,,*7A
2017-12-01 17:49:22 1512168562.402655: $GPRMC,224923,A,3946.9724,N,08404.9847,W,0.0000,0.000,011217,,*3D
2017-12-01 17:49:22 1512168562.402719: $GPGSA,A,3,1,3,10,14,29,22,16,25,26,31,138,,2.0,0.8,1.5*0D
2017-12-01 17:49:23 1512168563.759317: $GPGSV,3,1,12,01,14,265,41,03,29,312,46,10,12,157,41,14,65,064,40*76
2017-12-01 17:49:23 1512168563.759504: $GPGSV,3,2,12,29,04,085,36,22,46,292,47,16,08,189,30,25,29,048,42*7E
2017-12-01 17:49:23 1512168563.759571: $GPGSV,3,3,12,26,37,175,45,32,47,093,00,31,78,342,46,138,38,213,46*49
2017-12-01 17:49:23 1512168563.872784: $GPZDA,224924.00,01,12,2017,00,00*6B
2017-12-01 17:49:23 1512168563.872952: $GPGGA,224924,3946.9724,N,08404.9847,W,2,11,0.80,298.49,M,-33.325,M,,*7D
2017-12-01 17:49:23 1512168563.873018: $GPRMC,224924,A,3946.9724,N,08404.9847,W,0.0000,0.000,011217,,*3A
2017-12-01 17:49:23 1512168563.873079: $GPGSA,A,3,1,3,10,14,29,22,16,25,26,31,138,,2.0,0.8,1.5*0D
2017-12-01 17:49:24 1512168564.416191: $GPZDA,224925.00,01,12,2017,00,00*6A
2017-12-01 17:49:24 1512168564.416367: $GPGGA,224925,3946.9724,N,08404.9847,W,2,11,0.80,298.49,M,-33.325,M,,*7C
2017-12-01 17:49:24 1512168564.416435: $GPRMC,224925,A,3946.9724,N,08404.9847,W,0.0000,0.000,011217,,*3B
2017-12-01 17:49:24 1512168564.416496: $GPGSA,A,3,1,3,10,14,29,22,16,25,26,31,138,,2.0,0.8,1.5*0D
2017-12-01 17:49:25 1512168565.425643: $GPZDA,224926.00,01,12,2017,00,00*69
2017-12-01 17:49:25 1512168565.425823: $GPGGA,224926,3946.9724,N,08404.9847,W,2,11,0.80,298.49,M,-33.325,M,,*7F
2017-12-01 17:49:25 1512168565.425891: $GPRMC,224926,A,3946.9724,N,08404.9847,W,0.0000,0.000,011217,,*38
2017-12-01 17:49:25 1512168565.425952: $GPGSA,A,3,1,3,10,14,29,22,16,25,26,31,138,,2.0,0.8,1.5*0D
2017-12-01 17:49:26 1512168566.760144: $GPGSV,3,1,12,01,14,265,41,03,29,312,46,10,12,157,40,14,65,064,40*77
2017-12-01 17:49:26 1512168566.760323: $GPGSV,3,2,12,29,04,085,37,22,46,292,47,16,08,189,30,25,29,048,42*7F
2017-12-01 17:49:26 1512168566.760390: $GPGSV,3,3,12,26,37,175,45,32,47,093,00,31,78,342,46,138,38,213,46*49
2017-12-01 17:49:26 1512168566.873536: $GPZDA,224927.00,01,12,2017,00,00*68
2017-12-01 17:49:26 1512168566.873704: $GPGGA,224927,3946.9724,N,08404.9847,W,2,11,0.80,298.49,M,-33.325,M,,*7E
2017-12-01 17:49:26 1512168566.873771: $GPRMC,224927,A,3946.9724,N,08404.9847,W,0.0000,0.000,011217,,*39
2017-12-01 17:49:26 1512168566.873831: $GPGSA,A,3,1,3,10,14,29,22,16,25,26,31,138,,2.0,0.8,1.5*0D
