2017-12-01 11:53:23 1512147203.953765: {"class":"VERSION","release":"3.16","rev":"3.16-4","proto_major":3,"proto_minor":11}
2017-12-01 11:53:23 1512147203.954411: {"class":"DEVICES","devices":[{"class":"DEVICE","path":"/dev/ttyUSB0","driver":"SiRF","subtype":"9\u0006GSD4e_4.1.2-P1_RPATCH.05-F-GPS-4R-1510281 11/03/2015 307","activated":"2017-12-01T16:53:23.532Z","flags":1,"native":1,"bps":4800,"parity":"N","stopbits":1,"cycle":1.00}]}
2017-12-01 11:53:23 1512147203.954542: {"class":"WATCH","enable":true,"json":false,"nmea":true,"raw":0,"scaled":false,"timing":false,"split24":false,"pps":false}
2017-12-01 11:53:24 1512147204.725132: $GPGSV,3,1,12,10,16,276,25,13,39,048,45,15,71,061,45,18,47,289,44*72
2017-12-01 11:53:24 1512147204.725330: $GPGSV,3,2,12,20,59,057,44,21,71,300,45,24,24,145,46,27,11,321,39*7D
2017-12-01 11:53:24 1512147204.725402: $GPGSV,3,3,12,29,20,193,45,05,11,081,17,04,09,132,00,138,38,213,46*4D
2017-12-01 11:53:24 1512147204.838536: $GPZDA,165325.00,01,12,2017,00,00*66
2017-12-01 11:53:24 1512147204.838700: $GPGGA,165325,3946.9565,N,08404.9844,W,2,11,0.80,305.55,M,-33.324,M,,*7D
2017-12-01 11:53:24 1512147204.838769: $GPRMC,165325,A,3946.9565,N,08404.9844,W,0.0000,0.000,011217,,*33
2017-12-01 11:53:24 1512147204.838833: $GPGSA,A,3,10,13,15,18,20,21,24,27,29,5,138,,2.0,0.8,1.5*34
2017-12-01 11:53:25 1512147205.388118: $GPZDA,165326.00,01,12,2017,00,00*65
2017-12-01 11:53:25 1512147205.388300: $GPGGA,165326,3946.9565,N,08404.9844,W,2,11,0.80,305.55,M,-33.324,M,,*7E
2017-12-01 11:53:25 1512147205.388370: $GPRMC,165326,A,3946.9565,N,08404.9844,W,0.0000,0.000,011217,,*30
2017-12-01 11:53:25 1512147205.388434: $GPGSA,A,3,10,13,15,18,20,21,24,27,29,5,138,,2.0,0.8,1.5*34
2017-12-01 11:53:26 1512147206.396559: $GPZDA,165327.00,01,12,2017,00,00*64
2017-12-01 11:53:26 1512147206.396737: $GPGGA,165327,3946.9565,N,08404.9844,W,2,11,0.80,305.55,M,-33.324,M,,*7F
2017-12-01 11:53:26 1512147206.396828: $GPRMC,165327,A,3946.9565,N,08404.9844,W,0.0000,0.000,011217,,*31
2017-12-01 11:53:26 1512147206.396894: $GPGSA,A,3,10,13,15,18,20,21,24,27,29,5,138,,2.0,0.8,1.5*34
2017-12-01 11:53:27 1512147207.747259: $GPGSV,3,1,12,10,16,276,35,13,39,048,45,15,71,061,45,18,47,289,44*73
2017-12-01 11:53:27 1512147207.747427: $GPGSV,3,2,12,20,59,057,44,21,71,300,46,24,24,145,46,27,11,321,36*71
2017-12-01 11:53:27 1512147207.747496: $GPGSV,3,3,12,29,20,193,45,05,11,081,22,04,09,132,00,138,38,213,46*4B
2017-12-01 11:53:27 1512147207.860673: $GPZDA,165328.00,01,12,2017,00,00*6B
2017-12-01 11:53:27 1512147207.860869: $GPGGA,165328,3946.9565,N,08404.9844,W,2,11,0.80,305.55,M,-33.324,M,,*70
2017-12-01 11:53:27 1512147207.860942: $GPRMC,165328,A,3946.9565,N,08404.9844,W,0.0000,0.000,011217,,*3E
2017-12-01 11:53:27 1512147207.861007: $GPGSA,A,3,10,13,15,18,20,21,24,27,29,5,138,,2.0,0.8,1.5*34
2017-12-01 11:53:28 1512147208.486479: $GPZDA,165329.00,01,12,2017,00,00*6A
2017-12-01 11:53:28 1512147208.486660: $GPGGA,165329,3946.9565,N,08404.9844,W,2,11,0.80,305.55,M,-33.324,M,,*71
2017-12-01 11:53:28 1512147208.486730: $GPRMC,165329,A,3946.9565,N,08404.9844,W,0.0000,0.000,011217,,*3F
2017-12-01 11:53:28 1512147208.486794: $GPGSA,A,3,10,13,15,18,20,21,24,27,29,5,138,,2.0,0.8,1.5*34
2017-12-01 11:53:29 1512147209.393611: $GPZDA,165330.00,01,12,2017,00,00*62
2017-12-01 11:53:29 1512147209.393818: $GPGGA,165330,3946.9565,N,08404.9844,W,2,11,0.80,305.55,M,-33.324,M,,*79
2017-12-01 11:53:29 1512147209.393909: $GPRMC,165330,A,3946.9565,N,08404.9844,W,0.0000,0.000,011217,,*37
2017-12-01 11:53:29 1512147209.393976: $GPGSA,A,3,10,13,15,18,20,21,24,27,29,5,138,,2.0,0.8,1.5*34
2017-12-01 11:53:30 1512147210.746547: $GPGSV,3,1,12,10,16,276,34,13,39,048,45,15,71,061,45,18,47,289,44*72
2017-12-01 11:53:30 1512147210.746727: $GPGSV,3,2,12,20,59,057,44,21,71,300,46,24,24,145,46,27,11,321,36*71
2017-12-01 11:53:30 1512147210.746795: $GPGSV,3,3,12,29,20,193,44,05,11,081,24,04,09,132,00,138,38,213,46*4C
2017-12-01 11:53:30 1512147210.859942: $GPZDA,165331.00,01,12,2017,00,00*63
2017-12-01 11:53:30 1512147210.860118: $GPGGA,165331,3946.9565,N,08404.9844,W,2,11,0.80,305.55,M,-33.324,M,,*78
2017-12-01 11:53:30 1512147210.860260: $GPRMC,165331,A,3946.9565,N,08404.9844,W,0.0000,0.000,011217,,*36
2017-12-01 11:53:30 1512147210.860324: $GPGSA,A,3,10,13,15,18,20,21,24,27,29,5,138,,2.0,0.8,1.5*34
2017-12-01 11:53:31 1512147211.412137: $GPZDA,165332.00,01,12,2017,00,00*60
2017-12-01 11:53:31 1512147211.412316: $GPGGA,165332,3946.9565,N,08404.9844,W,2,11,0.80,305.55,M,-33.324,M,,*7B
2017-12-01 11:53:31 1512147211.412384: $GPRMC,165332,A,3946.9565,N,08404.9844,W,0.0000,0.000,011217,,*35
2017-12-01 11:53:31 1512147211.412446: $GPGSA,A,3,10,13,15,18,20,21,24,27,29,5,138,,2.0,0.8,1.5*34
2017-12-01 11:53:32 1512147212.386887: $GPZDA,165333.00,01,12,2017,00,00*61
2017-12-01 11:53:32 1512147212.387063: $GPGGA,165333,3946.9565,N,08404.9844,W,2,11,0.80,305.55,M,-33.324,M,,*7A
2017-12-01 11:53:32 1512147212.387134: $GPRMC,165333,A,3946.9565,N,08404.9844,W,0.0000,0.000,011217,,*34
2017-12-01 11:53:32 1512147212.387195: $GPGSA,A,3,10,13,15,18,20,21,24,27,29,5,138,,2.0,0.8,1.5*34
2017-12-01 11:53:33 1512147213.728070: $GPGSV,3,1,12,10,16,276,34,13,39,048,46,15,71,061,45,18,47,289,44*71
2017-12-01 11:53:33 1512147213.728258: $GPGSV,3,2,12,20,59,057,44,21,71,300,46,24,24,145,46,27,11,321,37*70
2017-12-01 11:53:33 1512147213.728325: $GPGSV,3,3,12,29,20,193,44,05,11,081,25,04,09,132,00,138,38,213,46*4D
2017-12-01 11:53:33 1512147213.841713: $GPZDA,165334.00,01,12,2017,00,00*66
2017-12-01 11:53:33 1512147213.841898: $GPGGA,165334,3946.9565,N,08404.9844,W,2,11,0.80,305.55,M,-33.324,M,,*7D
2017-12-01 11:53:33 1512147213.841965: $GPRMC,165334,A,3946.9565,N,08404.9844,W,0.0000,0.000,011217,,*33
2017-12-01 11:53:33 1512147213.842028: $GPGSA,A,3,10,13,15,18,20,21,24,27,29,5,138,,2.0,0.8,1.5*34
