2017-12-14 12:35:24 1513272924.323795: {"class":"VERSION","release":"3.16","rev":"3.16-4","proto_major":3,"proto_minor":11}
2017-12-14 12:35:24 1513272924.324145: {"class":"DEVICES","devices":[{"class":"DEVICE","path":"/dev/ttyUSB0","driver":"SiRF","subtype":"9\u0006GSD4e_4.1.2-P1_RPATCH.05-F-GPS-4R-1510281 11/03/2015 307","activated":"2017-12-14T17:35:23.904Z","flags":1,"native":1,"bps":4800,"parity":"N","stopbits":1,"cycle":1.00}]}
2017-12-14 12:35:24 1513272924.324277: {"class":"WATCH","enable":true,"json":false,"nmea":true,"raw":0,"scaled":false,"timing":false,"split24":false,"pps":false}
2017-12-14 12:35:25 1513272925.627517: $GPRMC,173526,V,18000.0000,N,00000.0000,W,0.0000,0.000,141217,,*15
2017-12-14 12:35:25 1513272925.627689: $GPGSA,A,1,24,10,18,20,21,27,8,15,,,,,,,,*04
2017-12-14 12:35:26 1513272926.593882: $GPRMC,173527,V,3946.9425,N,08404.9453,W,0.0000,0.000,141217,,*2C
2017-12-14 12:35:26 1513272926.594041: $GPGSA,A,1,24,10,18,20,21,27,8,15,,,,,,,,*04
2017-12-14 12:35:27 1513272927.184898: $GPGSV,3,1,10,10,48,307,07,20,28,102,05,21,54,184,07,24,53,097,08*74
2017-12-14 12:35:27 1513272927.185073: $GPGSV,3,2,10,15,30,055,00,32,27,243,00,27,17,282,00,14,10,237,00*76
2017-12-14 12:35:27 1513272927.185138: $GPGSV,3,3,10,08,07,316,00,13,01,051,00*74
2017-12-14 12:35:27 1513272927.297261: $GPRMC,173527,V,3946.9445,N,08404.9503,W,0.6642,336.322,141217,,*2D
2017-12-14 12:35:27 1513272927.297440: $GPGSA,A,1,10,20,21,24,,,,,,,,,,,,*34
2017-12-14 12:35:27 1513272927.850023: $GPRMC,173528,V,3946.9445,N,08404.9490,W,1.0230,28.198,141217,,*10
2017-12-14 12:35:27 1513272927.850190: $GPGSA,A,1,10,20,21,24,,,,,,,,,,,,*34
2017-12-14 12:35:28 1513272928.103874: $GPRMC,173528,V,3946.9449,N,08404.9496,W,1.0574,2.716,141217,,*25
2017-12-14 12:35:28 1513272928.104018: $GPGSA,A,1,10,20,21,24,,,,,,,,,,,,*34
2017-12-14 12:35:28 1513272928.869393: $GPGSV,3,1,11,10,48,307,24,20,28,102,19,21,54,184,23,24,53,096,26*72
2017-12-14 12:35:28 1513272928.869587: $GPGSV,3,2,11,15,30,055,03,32,27,243,00,27,17,282,00,14,10,237,00*74
2017-12-14 12:35:28 1513272928.869652: $GPGSV,3,3,11,08,07,316,00,13,01,051,00,138,38,213,00*74
2017-12-14 12:35:28 1513272928.981748: $GPRMC,173529,V,3946.9449,N,08404.9496,W,0.5230,76.444,141217,,*10
2017-12-14 12:35:28 1513272928.981918: $GPGSA,A,1,10,20,21,24,,,,,,,,,,,,*34
2017-12-14 12:35:29 1513272929.236963: $GPZDA,173530.00,14,12,2017,00,00*67
2017-12-14 12:35:29 1513272929.245125: $GPGGA,173530,3946.9464,N,08404.9481,W,1,04,1.80,321.79,M,-33.324,M,,*73
2017-12-14 12:35:29 1513272929.245238: $GPRMC,173530,A,3946.9464,N,08404.9481,W,2.1134,17.448,141217,,*0C
2017-12-14 12:35:29 1513272929.245302: $GPGSA,A,3,10,20,21,24,,,,,,,,,6.6,1.8,6.2*39
2017-12-14 12:35:29 1513272929.245394: $GPGBS,173530,24.66,M,21.80,M,143.40,M*32
2017-12-14 12:35:30 1513272930.158342: $GPZDA,173531.00,14,12,2017,00,00*66
2017-12-14 12:35:30 1513272930.158522: $GPGGA,173531,3946.9472,N,08404.9480,W,1,04,1.80,321.67,M,-33.324,M,,*7B
2017-12-14 12:35:30 1513272930.158590: $GPRMC,173531,A,3946.9472,N,08404.9480,W,2.2400,3.847,141217,,*3C
2017-12-14 12:35:30 1513272930.158650: $GPGSA,A,3,10,20,21,24,,,,,,,,,6.6,1.8,6.2*39
2017-12-14 12:35:30 1513272930.158706: $GPGBS,173531,24.66,M,21.80,M,143.40,M*33
2017-12-14 12:35:31 1513272931.489125: $GPGSV,3,1,11,10,48,307,24,20,28,102,20,21,54,184,23,24,53,096,26*78
2017-12-14 12:35:31 1513272931.489332: $GPGSV,3,2,11,15,30,055,15,32,27,243,00,27,17,282,12,14,10,237,00*70
2017-12-14 12:35:31 1513272931.489402: $GPGSV,3,3,11,08,07,316,00,13,01,051,00,138,38,213,00*74
2017-12-14 12:35:31 1513272931.602871: $GPZDA,173532.00,14,12,2017,00,00*65
2017-12-14 12:35:31 1513272931.603041: $GPGGA,173532,3946.9472,N,08404.9480,W,1,06,1.80,321.67,M,-33.324,M,,*7A
2017-12-14 12:35:31 1513272931.603110: $GPRMC,173532,A,3946.9472,N,08404.9480,W,1.5738,12.547,141217,,*0E
2017-12-14 12:35:31 1513272931.603173: $GPGSA,A,3,10,20,21,24,15,27,,,,,,,6.6,1.8,6.2*38
2017-12-14 12:35:32 1513272932.154293: $GPZDA,173533.00,14,12,2017,00,00*64
2017-12-14 12:35:32 1513272932.154645: $GPGGA,173533,3946.9476,N,08404.9480,W,1,06,1.80,322.31,M,-33.324,M,,*7F
2017-12-14 12:35:32 1513272932.154889: $GPRMC,173533,A,3946.9476,N,08404.9480,W,0.9019,18.875,141217,,*04
2017-12-14 12:35:32 1513272932.155020: $GPGSA,A,3,10,20,21,24,15,27,,,,,,,6.6,1.8,6.2*38
2017-12-14 12:35:33 1513272933.153797: $GPZDA,173534.00,14,12,2017,00,00*63
2017-12-14 12:35:33 1513272933.153984: $GPGGA,173534,3946.9476,N,08404.9480,W,1,06,1.80,322.31,M,-33.324,M,,*78
2017-12-14 12:35:33 1513272933.154051: $GPRMC,173534,A,3946.9476,N,08404.9480,W,0.3423,4.197,141217,,*3C
2017-12-14 12:35:33 1513272933.154112: $GPGSA,A,3,10,20,21,24,15,27,,,,,,,6.6,1.8,6.2*38
2017-12-14 12:35:34 1513272934.491184: $GPGSV,3,1,11,10,48,307,24,20,28,102,21,21,54,184,23,24,53,096,26*79
2017-12-14 12:35:35 1513272935.223161: $GPGSV,3,2,11,15,30,055,15,08,07,316,11,27,17,282,13,32,27,243,00*78
2017-12-14 12:35:35 1513272935.223313: $GPGSV,3,3,11,14,10,237,00,13,01,051,00,138,38,213,00*7D
2017-12-14 12:35:35 1513272935.223407: $GPZDA,173535.00,14,12,2017,00,00*62
2017-12-14 12:35:35 1513272935.223464: $GPGGA,173535,3946.9476,N,08404.9480,W,1,07,1.80,322.31,M,-33.324,M,,*78
2017-12-14 12:35:35 1513272935.223525: $GPRMC,173535,A,3946.9476,N,08404.9480,W,0.4179,328.778,141217,,*3A
2017-12-14 12:35:35 1513272935.223585: $GPGSA,A,3,10,20,21,24,15,8,27,,,,,,6.6,1.8,6.2*00
2017-12-14 12:35:35 1513272935.223641: $GPZDA,173536.00,14,12,2017,00,00*61
2017-12-14 12:35:35 1513272935.223694: $GPGGA,173536,3946.9476,N,08404.9473,W,1,07,1.80,322.39,M,-33.324,M,,*7F
2017-12-14 12:35:35 1513272935.223753: $GPRMC,173536,A,3946.9476,N,08404.9473,W,0.2959,54.767,141217,,*0F
2017-12-14 12:35:35 1513272935.223811: $GPGSA,A,3,10,20,21,24,15,8,27,,,,,,6.6,1.8,6.2*00
2017-12-14 12:35:36 1513272936.154661: $GPZDA,173537.00,14,12,2017,00,00*60
2017-12-14 12:35:36 1513272936.154833: $GPGGA,173537,3946.9476,N,08404.9473,W,1,07,1.80,322.39,M,-33.324,M,,*7E
2017-12-14 12:35:36 1513272936.154900: $GPRMC,173537,A,3946.9476,N,08404.9473,W,0.1867,0.000,141217,,*36
2017-12-14 12:35:36 1513272936.154960: $GPGSA,A,3,10,20,21,24,15,8,27,,,,,,6.6,1.8,6.2*00
2017-12-14 12:35:37 1513272937.490858: $GPGSV,3,1,11,10,48,307,24,20,28,102,21,21,54,184,23,24,53,096,27*78
2017-12-14 12:35:37 1513272937.491034: $GPGSV,3,2,11,15,30,055,15,08,07,316,09,27,17,282,13,32,27,243,00*71
2017-12-14 12:35:37 1513272937.491099: $GPGSV,3,3,11,14,10,237,00,13,01,051,00,138,38,213,00*7D
2017-12-14 12:35:37 1513272937.604197: $GPZDA,173538.00,14,12,2017,00,00*6F
2017-12-14 12:35:37 1513272937.604328: $GPGGA,173538,3946.9476,N,08404.9473,W,1,07,1.80,322.39,M,-33.324,M,,*71
2017-12-14 12:35:37 1513272937.604392: $GPRMC,173538,A,3946.9476,N,08404.9473,W,0.6846,4.197,141217,,*36
2017-12-14 12:35:37 1513272937.604452: $GPGSA,A,3,10,20,21,24,15,8,27,,,,,,6.6,1.8,6.2*00
2017-12-14 12:35:38 1513272938.153062: $GPZDA,173539.00,14,12,2017,00,00*6E
2017-12-14 12:35:38 1513272938.153224: $GPGGA,173539,3946.9479,N,08404.9480,W,1,07,1.80,321.54,M,-33.324,M,,*7B
2017-12-14 12:35:38 1513272938.153291: $GPRMC,173539,A,3946.9479,N,08404.9480,W,0.8695,348.958,141217,,*3A
2017-12-14 12:35:38 1513272938.153352: $GPGSA,A,3,10,20,21,24,15,8,27,,,,,,6.6,1.8,6.2*00
2017-12-14 12:35:39 1513272939.153869: $GPZDA,173540.00,14,12,2017,00,00*60
2017-12-14 12:35:39 1513272939.154060: $GPGGA,173540,3946.9479,N,08404.9480,W,1,07,1.80,321.54,M,-33.324,M,,*75
2017-12-14 12:35:39 1513272939.154128: $GPRMC,173540,A,3946.9479,N,08404.9480,W,0.6550,6.588,141217,,*38
2017-12-14 12:35:39 1513272939.154188: $GPGSA,A,3,10,20,21,24,15,8,27,,,,,,6.6,1.8,6.2*00
2017-12-14 12:35:40 1513272940.493978: $GPGSV,3,1,11,10,48,307,24,20,28,102,21,21,54,184,24,24,53,096,27*7F
2017-12-14 12:35:40 1513272940.494156: $GPGSV,3,2,11,15,30,055,14,08,07,316,02,27,17,282,13,32,27,243,00*7B
2017-12-14 12:35:40 1513272940.494222: $GPGSV,3,3,11,14,10,237,00,13,01,051,00,138,38,213,00*7D
2017-12-14 12:35:40 1513272940.607434: $GPZDA,173541.00,14,12,2017,00,00*61
2017-12-14 12:35:40 1513272940.607609: $GPGGA,173541,3946.9483,N,08404.9479,W,1,06,1.80,320.78,M,-33.324,M,,*79
2017-12-14 12:35:40 1513272940.607726: $GPRMC,173541,A,3946.9483,N,08404.9479,W,0.8804,21.094,141217,,*05
2017-12-14 12:35:40 1513272940.607788: $GPGSA,A,3,10,20,21,24,15,27,,,,,,,6.6,1.8,6.2*38
2017-12-14 12:35:41 1513272941.155028: $GPZDA,173542.00,14,12,2017,00,00*62
2017-12-14 12:35:41 1513272941.155191: $GPGGA,173542,3946.9482,N,08404.9472,W,1,06,1.80,320.86,M,-33.324,M,,*71
2017-12-14 12:35:41 1513272941.155257: $GPRMC,173542,A,3946.9482,N,08404.9472,W,1.2120,16.385,141217,,*0F
2017-12-14 12:35:41 1513272941.155317: $GPGSA,A,3,10,20,21,24,15,27,,,,,,,6.6,1.8,6.2*38
2017-12-14 12:35:42 1513272942.153875: $GPZDA,173543.00,14,12,2017,00,00*63
2017-12-14 12:35:42 1513272942.154064: $GPGGA,173543,3946.9482,N,08404.9472,W,1,06,1.80,320.86,M,-33.324,M,,*70
2017-12-14 12:35:42 1513272942.154131: $GPRMC,173543,A,3946.9482,N,08404.9472,W,0.7576,81.915,141217,,*00
2017-12-14 12:35:42 1513272942.154191: $GPGSA,A,3,10,20,21,24,15,27,,,,,,,6.6,1.8,6.2*38
2017-12-14 12:35:43 1513272943.490711: $GPGSV,3,1,11,10,48,307,24,20,28,102,22,21,54,184,24,24,53,096,27*7C
2017-12-14 12:35:43 1513272943.490886: $GPGSV,3,2,11,15,30,055,14,08,07,316,13,27,17,282,13,32,27,243,00*7B
2017-12-14 12:35:43 1513272943.490951: $GPGSV,3,3,11,14,10,237,00,13,01,051,00,138,38,213,00*7D
2017-12-14 12:35:43 1513272943.604362: $GPZDA,173544.00,14,12,2017,00,00*64
2017-12-14 12:35:43 1513272943.604529: $GPGGA,173544,3946.9486,N,08404.9471,W,1,07,1.80,320.09,M,-33.324,M,,*76
2017-12-14 12:35:43 1513272943.604594: $GPRMC,173544,A,3946.9486,N,08404.9471,W,0.5617,31.295,141217,,*0E
2017-12-14 12:35:43 1513272943.604654: $GPGSA,A,3,10,20,21,24,15,8,27,,,,,,6.6,1.8,6.2*00
2017-12-14 12:35:44 1513272944.153304: $GPZDA,173545.00,14,12,2017,00,00*65
2017-12-14 12:35:44 1513272944.153462: $GPGGA,173545,3946.9486,N,08404.9471,W,1,07,2.40,320.09,M,-33.324,M,,*78
2017-12-14 12:35:44 1513272944.153526: $GPRMC,173545,A,3946.9486,N,08404.9471,W,0.5230,76.444,141217,,*07
2017-12-14 12:35:44 1513272944.153586: $GPGSA,A,3,10,20,21,24,15,8,27,,,,,,6.6,2.4,6.2*0F
