2017-11-16 17:36:11 1510871771.090185: {"class":"VERSION","release":"3.17","rev":"3.17","proto_major":3,"proto_minor":12}
2017-11-16 17:36:11 1510871771.090656: {"class":"DEVICES","devices":[{"class":"DEVICE","path":"/dev/ttyUSB0","driver":"SiRF","subtype":"9\u0006GSD4e_4.1.2-P1_RPATCH.05-F-GPS-4R-1510281 11/03/2015 307","activated":"2017-11-16T22:36:10.734Z","flags":1,"native":1,"bps":4800,"parity":"N","stopbits":1,"cycle":1.00}]}
2017-11-16 17:36:11 1510871771.090776: {"class":"WATCH","enable":true,"json":false,"nmea":true,"raw":0,"scaled":false,"timing":false,"split24":false,"pps":false}
2017-11-16 17:36:11 1510871771.397547: $GPZDA,223610.00,16,11,2017,00,00*61
2017-11-16 17:36:11 1510871771.397710: $GPGGA,223610,3946.9576,N,08404.9841,W,2,12,0.80,303.26,M,-33.324,M,,*79
2017-11-16 17:36:11 1510871771.397772: $GPRMC,223610,A,3946.9576,N,08404.9841,W,0.0000,0.000,161117,,*33
2017-11-16 17:36:11 1510871771.397831: $GPGSA,A,3,1,10,22,12,14,18,26,11,25,31,32,138,1.6,0.8,1.3*3A
2017-11-16 17:36:12 1510871772.733078: $GPGSV,3,1,12,01,21,300,37,10,47,148,46,22,19,312,40,12,22,049,50*77
2017-11-16 17:36:12 1510871772.733248: $GPGSV,3,2,12,14,66,330,48,18,17,144,41,26,03,183,28,11,08,280,38*77
2017-11-16 17:36:12 1510871772.733312: $GPGSV,3,3,12,25,40,088,49,31,56,226,48,32,68,030,50,138,38,213,44*47
2017-11-16 17:36:12 1510871772.846392: $GPZDA,223611.00,16,11,2017,00,00*60
2017-11-16 17:36:12 1510871772.846561: $GPGGA,223611,3946.9576,N,08404.9841,W,2,12,0.80,303.26,M,-33.324,M,,*78
2017-11-16 17:36:12 1510871772.846624: $GPRMC,223611,A,3946.9576,N,08404.9841,W,0.0000,0.000,161117,,*32
2017-11-16 17:36:12 1510871772.846683: $GPGSA,A,3,1,10,22,12,14,18,26,11,25,31,32,138,1.6,0.8,1.3*3A
2017-11-16 17:36:13 1510871773.397252: $GPZDA,223612.00,16,11,2017,00,00*63
2017-11-16 17:36:13 1510871773.397428: $GPGGA,223612,3946.9576,N,08404.9841,W,2,12,0.80,303.26,M,-33.324,M,,*7B
2017-11-16 17:36:13 1510871773.397493: $GPRMC,223612,A,3946.9576,N,08404.9841,W,0.0000,0.000,161117,,*31
2017-11-16 17:36:13 1510871773.397552: $GPGSA,A,3,1,10,22,12,14,18,26,11,25,31,32,138,1.6,0.8,1.3*3A
2017-11-16 17:36:14 1510871774.389353: $GPZDA,223613.00,16,11,2017,00,00*62
2017-11-16 17:36:14 1510871774.389530: $GPGGA,223613,3946.9576,N,08404.9841,W,2,12,0.80,303.26,M,-33.324,M,,*7A
2017-11-16 17:36:14 1510871774.389594: $GPRMC,223613,A,3946.9576,N,08404.9841,W,0.0000,0.000,161117,,*30
2017-11-16 17:36:14 1510871774.389653: $GPGSA,A,3,1,10,22,12,14,18,26,11,25,31,32,138,1.6,0.8,1.3*3A
2017-11-16 17:36:15 1510871775.726421: $GPGSV,3,1,12,01,21,300,37,10,47,148,46,22,19,312,40,12,22,049,50*77
2017-11-16 17:36:15 1510871775.726593: $GPGSV,3,2,12,14,66,330,48,18,17,144,40,26,03,183,28,11,08,280,39*77
2017-11-16 17:36:15 1510871775.726656: $GPGSV,3,3,12,25,40,088,49,31,56,226,48,32,68,030,50,138,38,213,44*47
2017-11-16 17:36:15 1510871775.839963: $GPZDA,223614.00,16,11,2017,00,00*65
2017-11-16 17:36:15 1510871775.840112: $GPGGA,223614,3946.9576,N,08404.9841,W,2,12,0.80,303.26,M,-33.324,M,,*7D
2017-11-16 17:36:15 1510871775.840173: $GPRMC,223614,A,3946.9576,N,08404.9841,W,0.0000,0.000,161117,,*37
2017-11-16 17:36:15 1510871775.840231: $GPGSA,A,3,1,10,22,12,14,18,26,11,25,31,32,138,1.6,0.8,1.3*3A
2017-11-16 17:36:16 1510871776.465415: $GPZDA,223615.00,16,11,2017,00,00*64
2017-11-16 17:36:16 1510871776.980569: $GPGGA,223615,3946.9576,N,08404.9841,W,2,12,0.80,303.26,M,-33.324,M,,*7C
2017-11-16 17:36:16 1510871776.980707: $GPRMC,223615,A,3946.9576,N,08404.9841,W,0.0000,0.000,161117,,*36
2017-11-16 17:36:16 1510871776.980767: $GPGSA,A,3,1,10,22,12,14,18,26,11,25,31,32,138,1.6,0.8,1.3*3A
2017-11-16 17:36:17 1510871777.398712: $GPZDA,223616.00,16,11,2017,00,00*67
2017-11-16 17:36:17 1510871777.398869: $GPGGA,223616,3946.9576,N,08404.9841,W,2,12,0.80,303.26,M,-33.324,M,,*7F
2017-11-16 17:36:17 1510871777.398932: $GPRMC,223616,A,3946.9576,N,08404.9841,W,0.0000,0.000,161117,,*35
2017-11-16 17:36:17 1510871777.398990: $GPGSA,A,3,1,10,22,12,14,18,26,11,25,31,32,138,1.6,0.8,1.3*3A
2017-11-16 17:36:18 1510871778.756722: $GPGSV,3,1,12,01,21,300,37,10,47,148,46,22,19,312,40,12,22,049,50*77
2017-11-16 17:36:18 1510871778.756943: $GPGSV,3,2,12,14,66,330,48,18,17,144,41,26,03,183,27,11,08,280,39*79
2017-11-16 17:36:18 1510871778.757006: $GPGSV,3,3,12,25,40,088,49,31,56,226,48,32,68,030,50,138,38,213,44*47
2017-11-16 17:36:18 1510871778.870000: $GPZDA,223617.00,16,11,2017,00,00*66
2017-11-16 17:36:18 1510871778.870167: $GPGGA,223617,3946.9576,N,08404.9841,W,2,12,0.80,303.26,M,-33.324,M,,*7E
2017-11-16 17:36:18 1510871778.870228: $GPRMC,223617,A,3946.9576,N,08404.9841,W,0.0000,0.000,161117,,*34
2017-11-16 17:36:18 1510871778.870283: $GPGSA,A,3,1,10,22,12,14,18,26,11,25,31,32,138,1.6,0.8,1.3*3A
2017-11-16 17:36:19 1510871779.422128: $GPZDA,223618.00,16,11,2017,00,00*69
2017-11-16 17:36:19 1510871779.422301: $GPGGA,223618,3946.9576,N,08404.9841,W,2,12,0.80,303.26,M,-33.324,M,,*71
2017-11-16 17:36:19 1510871779.422363: $GPRMC,223618,A,3946.9576,N,08404.9841,W,0.0000,0.000,161117,,*3B
2017-11-16 17:36:19 1510871779.422419: $GPGSA,A,3,1,10,22,12,14,18,26,11,25,31,32,138,1.6,0.8,1.3*3A
2017-11-16 17:36:20 1510871780.422418: $GPZDA,223619.00,16,11,2017,00,00*68
2017-11-16 17:36:20 1510871780.422586: $GPGGA,223619,3946.9576,N,08404.9841,W,2,12,0.80,303.26,M,-33.324,M,,*70
2017-11-16 17:36:20 1510871780.422648: $GPRMC,223619,A,3946.9576,N,08404.9841,W,0.0000,0.000,161117,,*3A
2017-11-16 17:36:20 1510871780.422703: $GPGSA,A,3,1,10,22,12,14,18,26,11,25,31,32,138,1.6,0.8,1.3*3A
2017-11-16 17:36:20 1510871780.422757: $GPGBS,223619,2.07,M,2.72,M,7.42,M*30
