2017-12-01 11:39:28 1512146368.466903: {"class":"VERSION","release":"3.16","rev":"3.16-4","proto_major":3,"proto_minor":11}
2017-12-01 11:39:28 1512146368.467358: {"class":"DEVICES","devices":[{"class":"DEVICE","path":"/dev/ttyUSB0","driver":"SiRF","subtype":"9\u0006GSD4e_4.1.2-P1_RPATCH.05-F-GPS-4R-1510281 11/03/2015 307","activated":"2017-12-01T16:39:28.367Z","flags":1,"native":1,"bps":4800,"parity":"N","stopbits":1,"cycle":1.00}]}
2017-12-01 11:39:28 1512146368.467478: {"class":"WATCH","enable":true,"json":false,"nmea":true,"raw":0,"scaled":false,"timing":false,"split24":false,"pps":false}
2017-12-01 11:39:28 1512146368.481481: $GPZDA,163929.00,01,12,2017,00,00*66
2017-12-01 11:39:28 1512146368.481622: $GPGGA,163929,3946.9570,N,08404.9846,W,2,11,0.80,298.33,M,-33.324,M,,*7E
2017-12-01 11:39:28 1512146368.481686: $GPRMC,163929,A,3946.9570,N,08404.9846,W,0.0000,0.000,011217,,*35
2017-12-01 11:39:28 1512146368.481747: $GPGSA,A,3,5,10,13,15,18,20,21,24,27,29,138,,2.0,0.8,1.5*34
2017-12-01 11:39:29 1512146369.400939: $GPZDA,163930.00,01,12,2017,00,00*6E
2017-12-01 11:39:29 1512146369.405626: $GPGGA,163930,3946.9570,N,08404.9846,W,2,11,0.80,298.33,M,-33.324,M,,*76
2017-12-01 11:39:29 1512146369.405788: $GPRMC,163930,A,3946.9570,N,08404.9846,W,0.0000,0.000,011217,,*3D
2017-12-01 11:39:29 1512146369.405855: $GPGSA,A,3,5,10,13,15,18,20,21,24,27,29,138,,2.0,0.8,1.5*34
2017-12-01 11:39:30 1512146370.735501: $GPGSV,3,1,12,05,15,076,32,10,12,271,45,13,45,051,47,15,77,079,47*73
2017-12-01 11:39:30 1512146370.735680: $GPGSV,3,2,12,18,42,283,44,20,64,048,41,21,65,307,46,24,19,150,42*7E
2017-12-01 11:39:30 1512146370.735746: $GPGSV,3,3,12,27,07,325,32,29,26,195,44,04,14,129,00,138,38,213,46*47
2017-12-01 11:39:30 1512146370.847609: $GPZDA,163931.00,01,12,2017,00,00*6F
2017-12-01 11:39:30 1512146370.847777: $GPGGA,163931,3946.9574,N,08404.9846,W,2,11,0.80,298.97,M,-33.324,M,,*7D
2017-12-01 11:39:30 1512146370.847844: $GPRMC,163931,A,3946.9574,N,08404.9846,W,0.0000,0.000,011217,,*38
2017-12-01 11:39:30 1512146370.847905: $GPGSA,A,3,5,10,13,15,18,20,21,24,27,29,138,,2.0,0.8,1.5*34
2017-12-01 11:39:31 1512146371.400927: $GPZDA,163932.00,01,12,2017,00,00*6C
2017-12-01 11:39:31 1512146371.401080: $GPGGA,163932,3946.9570,N,08404.9840,W,2,11,1.00,299.81,M,-33.324,M,,*73
2017-12-01 11:39:31 1512146371.401146: $GPRMC,163932,A,3946.9570,N,08404.9840,W,0.0000,0.000,011217,,*39
2017-12-01 11:39:31 1512146371.401206: $GPGSA,A,3,5,10,13,15,18,20,21,24,27,29,138,,2.0,1.0,1.5*3D
2017-12-01 11:39:32 1512146372.401769: $GPZDA,163933.00,01,12,2017,00,00*6D
2017-12-01 11:39:32 1512146372.401928: $GPGGA,163933,3946.9570,N,08404.9840,W,2,11,1.00,299.81,M,-33.324,M,,*72
2017-12-01 11:39:32 1512146372.402007: $GPRMC,163933,A,3946.9570,N,08404.9840,W,0.0000,0.000,011217,,*38
2017-12-01 11:39:32 1512146372.402068: $GPGSA,A,3,5,10,13,15,18,20,21,24,27,29,138,,2.0,1.0,1.5*3D
2017-12-01 11:39:32 1512146372.402126: $GPGBS,163933,2.67,M,3.86,M,8.82,M*3F
2017-12-01 11:39:33 1512146373.744446: $GPGSV,3,1,12,05,15,076,31,10,12,271,45,13,45,051,47,15,77,079,47*70
2017-12-01 11:39:33 1512146373.744628: $GPGSV,3,2,12,18,42,283,44,20,64,048,42,21,65,307,46,24,19,150,42*7D
2017-12-01 11:39:33 1512146373.744696: $GPGSV,3,3,12,04,14,129,00,29,26,195,44,27,07,325,28,138,38,213,46*4C
2017-12-01 11:39:33 1512146373.857870: $GPZDA,163934.00,01,12,2017,00,00*6A
2017-12-01 11:39:33 1512146373.858043: $GPGGA,163934,3946.9570,N,08404.9840,W,2,11,0.80,299.81,M,-33.324,M,,*7C
2017-12-01 11:39:33 1512146373.858110: $GPRMC,163934,A,3946.9570,N,08404.9840,W,0.0000,0.000,011217,,*3F
2017-12-01 11:39:33 1512146373.858172: $GPGSA,A,3,5,10,13,15,18,20,21,24,29,27,138,,2.0,0.8,1.5*34
2017-12-01 11:39:34 1512146374.398782: $GPZDA,163935.00,01,12,2017,00,00*6B
2017-12-01 11:39:34 1512146374.398965: $GPGGA,163935,3946.9570,N,08404.9840,W,2,11,0.80,299.81,M,-33.324,M,,*7D
2017-12-01 11:39:34 1512146374.399032: $GPRMC,163935,A,3946.9570,N,08404.9840,W,0.2422,93.794,011217,,*08
2017-12-01 11:39:34 1512146374.399094: $GPGSA,A,3,5,10,13,15,18,20,21,24,29,27,138,,2.0,0.8,1.5*34
2017-12-01 11:39:35 1512146375.398255: $GPZDA,163936.00,01,12,2017,00,00*68
2017-12-01 11:39:35 1512146375.398436: $GPGGA,163936,3946.9574,N,08404.9839,W,2,11,0.80,299.05,M,-33.324,M,,*78
2017-12-01 11:39:35 1512146375.398502: $GPRMC,163936,A,3946.9574,N,08404.9839,W,0.0000,0.000,011217,,*37
2017-12-01 11:39:35 1512146375.398564: $GPGSA,A,3,5,10,13,15,18,20,21,24,29,27,138,,2.0,0.8,1.5*34
2017-12-01 11:39:36 1512146376.736510: $GPGSV,3,1,12,05,15,076,31,10,12,271,45,13,45,051,47,15,77,079,47*70
2017-12-01 11:39:36 1512146376.736688: $GPGSV,3,2,12,18,42,283,44,20,64,048,42,21,65,307,45,24,19,150,41*7D
2017-12-01 11:39:36 1512146376.736755: $GPGSV,3,3,12,04,14,129,00,29,26,195,43,27,07,325,29,138,38,213,47*4B
2017-12-01 11:39:36 1512146376.849852: $GPZDA,163937.00,01,12,2017,00,00*69
2017-12-01 11:39:36 1512146376.850007: $GPGGA,163937,3946.9573,N,08404.9832,W,2,11,0.80,299.12,M,-33.324,M,,*73
2017-12-01 11:39:36 1512146376.850072: $GPRMC,163937,A,3946.9573,N,08404.9832,W,0.0000,0.000,011217,,*3A
2017-12-01 11:39:36 1512146376.850133: $GPGSA,A,3,5,10,13,15,18,20,21,24,29,27,138,,2.0,0.8,1.5*34
2017-12-01 11:39:37 1512146377.400722: $GPZDA,163938.00,01,12,2017,00,00*66
2017-12-01 11:39:37 1512146377.400906: $GPGGA,163938,3946.9573,N,08404.9832,W,2,11,0.80,299.12,M,-33.324,M,,*7C
2017-12-01 11:39:37 1512146377.400975: $GPRMC,163938,A,3946.9573,N,08404.9832,W,0.0000,0.000,011217,,*35
2017-12-01 11:39:37 1512146377.401035: $GPGSA,A,3,5,10,13,15,18,20,21,24,29,27,138,,2.0,0.8,1.5*34
2017-12-01 11:39:38 1512146378.399830: $GPZDA,163939.00,01,12,2017,00,00*67
2017-12-01 11:39:38 1512146378.400021: $GPGGA,163939,3946.9570,N,08404.9833,W,2,11,0.80,299.89,M,-33.324,M,,*7D
2017-12-01 11:39:38 1512146378.400091: $GPRMC,163939,A,3946.9570,N,08404.9833,W,0.0000,0.000,011217,,*36
2017-12-01 11:39:38 1512146378.400155: $GPGSA,A,3,5,10,13,15,18,20,21,24,29,27,138,,2.0,0.8,1.5*34
