2017-12-29 11:35:04 1514565304.278074: {"class":"VERSION","release":"3.16","rev":"3.16-4","proto_major":3,"proto_minor":11}
2017-12-29 11:35:04 1514565304.278527: {"class":"DEVICES","devices":[{"class":"DEVICE","path":"/dev/ttyUSB0","driver":"SiRF","subtype":"9\u0006GSD4e_4.1.2-P1_RPATCH.05-F-GPS-4R-1510281 11/03/2015 307","activated":"2017-12-29T16:35:04.228Z","flags":1,"native":1,"bps":4800,"parity":"N","stopbits":1,"cycle":1.00}]}
2017-12-29 11:35:04 1514565304.278663: {"class":"WATCH","enable":true,"json":false,"nmea":true,"raw":0,"scaled":false,"timing":false,"split24":false,"pps":false}
2017-12-29 11:35:04 1514565304.342039: $GPZDA,163505.00,29,12,2017,00,00*6E
2017-12-29 11:35:04 1514565304.342198: $GPGGA,163505,3946.9602,N,08404.9880,W,2,11,0.80,313.08,M,-33.324,M,,*7A
2017-12-29 11:35:04 1514565304.342263: $GPRMC,163505,A,3946.9602,N,08404.9880,W,0.0000,0.000,291217,,*31
2017-12-29 11:35:04 1514565304.342347: $GPGSA,A,3,8,10,15,18,20,21,24,27,32,14,138,,1.7,0.8,1.3*36
2017-12-29 11:35:05 1514565305.341488: $GPZDA,163506.00,29,12,2017,00,00*6D
2017-12-29 11:35:05 1514565305.341782: $GPGGA,163506,3946.9602,N,08404.9880,W,2,11,0.80,313.08,M,-33.324,M,,*79
2017-12-29 11:35:05 1514565305.341891: $GPRMC,163506,A,3946.9602,N,08404.9880,W,0.0000,0.000,291217,,*32
2017-12-29 11:35:05 1514565305.342035: $GPGSA,A,3,8,10,15,18,20,21,24,27,32,14,138,,1.7,0.8,1.3*36
2017-12-29 11:35:06 1514565306.676830: $GPGSV,3,1,12,08,07,316,36,10,48,307,45,15,30,055,48,18,75,003,44*7D
2017-12-29 11:35:06 1514565306.677010: $GPGSV,3,2,12,20,28,102,47,21,55,184,46,24,53,096,51,27,17,282,39*75
2017-12-29 11:35:06 1514565306.677076: $GPGSV,3,3,12,32,28,244,39,14,10,237,32,13,01,051,00,138,38,213,45*4D
2017-12-29 11:35:06 1514565306.790445: $GPZDA,163507.00,29,12,2017,00,00*6C
2017-12-29 11:35:06 1514565306.790611: $GPGGA,163507,3946.9602,N,08404.9880,W,2,11,0.80,313.08,M,-33.324,M,,*78
2017-12-29 11:35:06 1514565306.790677: $GPRMC,163507,A,3946.9602,N,08404.9880,W,0.0000,0.000,291217,,*33
2017-12-29 11:35:06 1514565306.790738: $GPGSA,A,3,8,10,15,18,20,21,24,27,32,14,138,,1.7,0.8,1.3*36
2017-12-29 11:35:07 1514565307.343759: $GPZDA,163508.00,29,12,2017,00,00*63
2017-12-29 11:35:07 1514565307.343925: $GPGGA,163508,3946.9602,N,08404.9880,W,2,11,0.80,313.08,M,-33.324,M,,*77
2017-12-29 11:35:07 1514565307.343991: $GPRMC,163508,A,3946.9602,N,08404.9880,W,0.0000,0.000,291217,,*3C
2017-12-29 11:35:07 1514565307.344052: $GPGSA,A,3,8,10,15,18,20,21,24,27,32,14,138,,1.7,0.8,1.3*36
2017-12-29 11:35:08 1514565308.342160: $GPZDA,163509.00,29,12,2017,00,00*62
2017-12-29 11:35:08 1514565308.342364: $GPGGA,163509,3946.9602,N,08404.9873,W,2,11,0.80,313.16,M,-33.324,M,,*75
2017-12-29 11:35:08 1514565308.342431: $GPRMC,163509,A,3946.9602,N,08404.9873,W,0.0000,0.000,291217,,*31
2017-12-29 11:35:08 1514565308.342492: $GPGSA,A,3,8,10,15,18,20,21,24,27,32,14,138,,1.7,0.8,1.3*36
2017-12-29 11:35:09 1514565309.677826: $GPGSV,3,1,12,08,07,316,38,10,48,307,45,15,30,055,48,18,75,003,44*73
2017-12-29 11:35:09 1514565309.678014: $GPGSV,3,2,12,20,28,102,48,21,55,184,46,24,53,096,51,27,17,282,39*7A
2017-12-29 11:35:09 1514565309.678080: $GPGSV,3,3,12,32,28,244,39,14,10,237,32,13,01,051,00,138,38,213,46*4E
2017-12-29 11:35:09 1514565309.791172: $GPZDA,163510.00,29,12,2017,00,00*6A
2017-12-29 11:35:09 1514565309.791332: $GPGGA,163510,3946.9602,N,08404.9873,W,2,11,0.80,313.16,M,-33.324,M,,*7D
2017-12-29 11:35:09 1514565309.791399: $GPRMC,163510,A,3946.9602,N,08404.9873,W,0.0000,0.000,291217,,*39
2017-12-29 11:35:09 1514565309.791459: $GPGSA,A,3,8,10,15,18,20,21,24,27,32,14,138,,1.7,0.8,1.3*36
2017-12-29 11:35:10 1514565310.416772: $GPZDA,163511.00,29,12,2017,00,00*6B
2017-12-29 11:35:10 1514565310.416945: $GPGGA,163511,3946.9602,N,08404.9873,W,2,11,0.80,313.16,M,-33.324,M,,*7C
2017-12-29 11:35:10 1514565310.417012: $GPRMC,163511,A,3946.9602,N,08404.9873,W,0.0000,0.000,291217,,*38
2017-12-29 11:35:10 1514565310.417073: $GPGSA,A,3,8,10,15,18,20,21,24,27,32,14,138,,1.7,0.8,1.3*36
2017-12-29 11:35:11 1514565311.341143: $GPZDA,163512.00,29,12,2017,00,00*68
2017-12-29 11:35:11 1514565311.341417: $GPGGA,163512,3946.9602,N,08404.9873,W,2,11,0.80,313.16,M,-33.324,M,,*7F
2017-12-29 11:35:11 1514565311.341488: $GPRMC,163512,A,3946.9602,N,08404.9873,W,0.0000,0.000,291217,,*3B
2017-12-29 11:35:11 1514565311.341550: $GPGSA,A,3,8,10,15,18,20,21,24,27,32,14,138,,1.7,0.8,1.3*36
2017-12-29 11:35:12 1514565312.678118: $GPGSV,3,1,12,08,07,316,39,10,48,307,45,15,30,055,49,18,75,003,44*73
2017-12-29 11:35:12 1514565312.678274: $GPGSV,3,2,12,20,28,102,48,21,55,184,46,24,53,096,51,27,17,282,39*7A
2017-12-29 11:35:12 1514565312.678338: $GPGSV,3,3,12,32,28,244,39,14,10,237,32,13,01,051,00,138,38,213,45*4D
2017-12-29 11:35:12 1514565312.791554: $GPZDA,163513.00,29,12,2017,00,00*69
2017-12-29 11:35:12 1514565312.791717: $GPGGA,163513,3946.9602,N,08404.9873,W,2,11,0.80,313.16,M,-33.324,M,,*7E
2017-12-29 11:35:12 1514565312.791783: $GPRMC,163513,A,3946.9602,N,08404.9873,W,0.0000,0.000,291217,,*3A
2017-12-29 11:35:12 1514565312.791844: $GPGSA,A,3,8,10,15,18,20,21,24,27,32,14,138,,1.7,0.8,1.3*36
2017-12-29 11:35:13 1514565313.343683: $GPZDA,163514.00,29,12,2017,00,00*6E
2017-12-29 11:35:13 1514565313.343852: $GPGGA,163514,3946.9602,N,08404.9873,W,2,11,0.80,313.16,M,-33.324,M,,*79
2017-12-29 11:35:13 1514565313.343918: $GPRMC,163514,A,3946.9602,N,08404.9873,W,0.0000,0.000,291217,,*3D
2017-12-29 11:35:13 1514565313.343978: $GPGSA,A,3,8,10,15,18,20,21,24,27,32,14,138,,1.7,0.8,1.3*36
2017-12-29 11:35:14 1514565314.340823: $GPZDA,163515.00,29,12,2017,00,00*6F
2017-12-29 11:35:14 1514565314.340993: $GPGGA,163515,3946.9602,N,08404.9873,W,2,11,0.80,313.16,M,-33.324,M,,*78
2017-12-29 11:35:14 1514565314.341139: $GPRMC,163515,A,3946.9602,N,08404.9873,W,0.0000,0.000,291217,,*3C
2017-12-29 11:35:14 1514565314.341204: $GPGSA,A,3,8,10,15,18,20,21,24,27,32,14,138,,1.7,0.8,1.3*36
2017-12-29 11:35:15 1514565315.672297: $GPGSV,3,1,12,08,07,316,40,10,48,307,45,15,30,055,49,18,75,003,45*7C
2017-12-29 11:35:15 1514565315.672489: $GPGSV,3,2,12,20,28,102,48,21,55,184,46,24,53,096,51,27,17,282,39*7A
2017-12-29 11:35:15 1514565315.672575: $GPGSV,3,3,12,32,28,244,39,14,10,237,32,13,01,051,00,138,38,213,45*4D
2017-12-29 11:35:15 1514565315.785668: $GPZDA,163516.00,29,12,2017,00,00*6C
2017-12-29 11:35:15 1514565315.785804: $GPGGA,163516,3946.9602,N,08404.9873,W,2,11,0.80,313.16,M,-33.324,M,,*7B
2017-12-29 11:35:15 1514565315.785872: $GPRMC,163516,A,3946.9602,N,08404.9873,W,0.0000,0.000,291217,,*3F
2017-12-29 11:35:15 1514565315.785932: $GPGSA,A,3,8,10,15,18,20,21,24,27,32,14,138,,1.7,0.8,1.3*36
2017-12-29 11:35:16 1514565316.336858: $GPZDA,163517.00,29,12,2017,00,00*6D
2017-12-29 11:35:16 1514565316.337024: $GPGGA,163517,3946.9602,N,08404.9873,W,2,11,0.80,313.16,M,-33.324,M,,*7A
2017-12-29 11:35:16 1514565316.337090: $GPRMC,163517,A,3946.9602,N,08404.9873,W,0.0000,0.000,291217,,*3E
2017-12-29 11:35:16 1514565316.337151: $GPGSA,A,3,8,10,15,18,20,21,24,27,32,14,138,,1.7,0.8,1.3*36
2017-12-29 11:35:17 1514565317.336169: $GPZDA,163518.00,29,12,2017,00,00*62
2017-12-29 11:35:17 1514565317.336362: $GPGGA,163518,3946.9602,N,08404.9873,W,2,11,0.80,313.16,M,-33.324,M,,*75
2017-12-29 11:35:17 1514565317.336433: $GPRMC,163518,A,3946.9602,N,08404.9873,W,0.0000,0.000,291217,,*31
2017-12-29 11:35:17 1514565317.336498: $GPGSA,A,3,8,10,15,18,20,21,24,27,32,14,138,,1.7,0.8,1.3*36
2017-12-29 11:35:18 1514565318.691987: $GPGSV,3,1,12,08,07,316,40,10,48,307,45,15,30,055,50,18,75,003,45*74
2017-12-29 11:35:18 1514565318.692170: $GPGSV,3,2,12,20,28,102,48,21,55,184,46,24,53,096,51,27,17,282,39*7A
2017-12-29 11:35:18 1514565318.692237: $GPGSV,3,3,12,32,28,244,39,14,10,237,32,13,01,051,00,138,38,213,44*4C
2017-12-29 11:35:18 1514565318.805591: $GPZDA,163519.00,29,12,2017,00,00*63
2017-12-29 11:35:18 1514565318.805771: $GPGGA,163519,3946.9602,N,08404.9873,W,2,11,0.80,313.16,M,-33.324,M,,*74
2017-12-29 11:35:18 1514565318.805839: $GPRMC,163519,A,3946.9602,N,08404.9873,W,0.0000,0.000,291217,,*30
2017-12-29 11:35:18 1514565318.805902: $GPGSA,A,3,8,10,15,18,20,21,24,27,32,14,138,,1.7,0.8,1.3*36
