2017-12-29 11:39:36 1514565576.956901: {"class":"VERSION","release":"3.16","rev":"3.16-4","proto_major":3,"proto_minor":11}
2017-12-29 11:39:36 1514565576.957243: {"class":"DEVICES","devices":[{"class":"DEVICE","path":"/dev/ttyUSB0","driver":"SiRF","subtype":"9\u0006GSD4e_4.1.2-P1_RPATCH.05-F-GPS-4R-1510281 11/03/2015 307","activated":"2017-12-29T16:39:36.735Z","flags":1,"native":1,"bps":4800,"parity":"N","stopbits":1,"cycle":1.00}]}
2017-12-29 11:39:36 1514565576.957356: {"class":"WATCH","enable":true,"json":false,"nmea":true,"raw":0,"scaled":false,"timing":false,"split24":false,"pps":false}
2017-12-29 11:39:37 1514565577.759579: $GPGSV,3,1,11,08,07,315,42,10,50,309,46,15,28,055,49,18,76,010,45*72
2017-12-29 11:39:37 1514565577.759756: $GPGSV,3,2,11,20,27,103,48,21,52,184,46,24,53,093,51,27,17,279,41*7E
2017-12-29 11:39:37 1514565577.759821: $GPGSV,3,3,11,32,30,246,38,14,11,238,14,138,38,213,45*79
2017-12-29 11:39:37 1514565577.872901: $GPZDA,163938.00,29,12,2017,00,00*6C
2017-12-29 11:39:37 1514565577.873034: $GPGGA,163938,3946.9596,N,08404.9832,W,2,11,0.80,339.32,M,-33.324,M,,*7E
2017-12-29 11:39:37 1514565577.873098: $GPRMC,163938,A,3946.9596,N,08404.9832,W,0.0000,0.000,291217,,*34
2017-12-29 11:39:37 1514565577.873158: $GPGSA,A,3,8,10,15,18,20,21,24,27,32,14,138,,1.7,0.8,1.3*36
2017-12-29 11:39:38 1514565578.423813: $GPZDA,163939.00,29,12,2017,00,00*6D
2017-12-29 11:39:38 1514565578.423976: $GPGGA,163939,3946.9596,N,08404.9832,W,2,11,0.80,339.32,M,-33.324,M,,*7F
2017-12-29 11:39:38 1514565578.424044: $GPRMC,163939,A,3946.9596,N,08404.9832,W,0.0000,0.000,291217,,*35
2017-12-29 11:39:38 1514565578.424104: $GPGSA,A,3,8,10,15,18,20,21,24,27,32,14,138,,1.7,0.8,1.3*36
2017-12-29 11:39:39 1514565579.423374: $GPZDA,163940.00,29,12,2017,00,00*63
2017-12-29 11:39:39 1514565579.423565: $GPGGA,163940,3946.9596,N,08404.9825,W,2,11,0.80,339.40,M,-33.324,M,,*72
2017-12-29 11:39:39 1514565579.423634: $GPRMC,163940,A,3946.9596,N,08404.9825,W,0.0000,0.000,291217,,*3D
2017-12-29 11:39:39 1514565579.423695: $GPGSA,A,3,8,10,15,18,20,21,24,27,32,14,138,,1.7,0.8,1.3*36
2017-12-29 11:39:40 1514565580.756625: $GPGSV,3,1,11,08,07,315,42,10,50,309,46,15,28,055,49,18,76,010,44*73
2017-12-29 11:39:40 1514565580.756802: $GPGSV,3,2,11,20,27,103,48,21,52,184,46,24,53,093,51,27,17,279,41*7E
2017-12-29 11:39:40 1514565580.756867: $GPGSV,3,3,11,32,30,246,38,14,11,238,28,138,38,213,46*75
2017-12-29 11:39:40 1514565580.869949: $GPZDA,163941.00,29,12,2017,00,00*62
2017-12-29 11:39:40 1514565580.872951: $GPGGA,163941,3946.9596,N,08404.9825,W,2,11,0.80,339.40,M,-33.324,M,,*73
2017-12-29 11:39:40 1514565580.873058: $GPRMC,163941,A,3946.9596,N,08404.9825,W,0.0000,0.000,291217,,*3C
2017-12-29 11:39:40 1514565580.873121: $GPGSA,A,3,8,10,15,18,20,21,24,27,32,14,138,,1.7,0.8,1.3*36
2017-12-29 11:39:41 1514565581.423371: $GPZDA,163942.00,29,12,2017,00,00*61
2017-12-29 11:39:41 1514565581.423547: $GPGGA,163942,3946.9596,N,08404.9825,W,2,11,0.80,339.40,M,-33.324,M,,*70
2017-12-29 11:39:41 1514565581.423614: $GPRMC,163942,A,3946.9596,N,08404.9825,W,0.0000,0.000,291217,,*3F
2017-12-29 11:39:41 1514565581.423674: $GPGSA,A,3,8,10,15,18,20,21,24,27,32,14,138,,1.7,0.8,1.3*36
2017-12-29 11:39:42 1514565582.423762: $GPZDA,163943.00,29,12,2017,00,00*60
2017-12-29 11:39:42 1514565582.423931: $GPGGA,163943,3946.9596,N,08404.9825,W,2,11,0.80,339.40,M,-33.324,M,,*71
2017-12-29 11:39:42 1514565582.423997: $GPRMC,163943,A,3946.9596,N,08404.9825,W,0.0000,0.000,291217,,*3E
2017-12-29 11:39:42 1514565582.424058: $GPGSA,A,3,8,10,15,18,20,21,24,27,32,14,138,,1.7,0.8,1.3*36
2017-12-29 11:39:43 1514565583.759521: $GPGSV,3,1,11,08,07,315,40,10,50,309,46,15,28,055,49,18,76,010,44*71
2017-12-29 11:39:43 1514565583.759701: $GPGSV,3,2,11,20,27,103,49,21,52,184,46,24,53,093,51,27,17,279,42*7C
2017-12-29 11:39:43 1514565583.759767: $GPGSV,3,3,11,32,30,246,38,14,11,238,27,138,38,213,46*7A
2017-12-29 11:39:43 1514565583.872855: $GPZDA,163944.00,29,12,2017,00,00*67
2017-12-29 11:39:43 1514565583.872975: $GPGGA,163944,3946.9596,N,08404.9825,W,2,11,0.80,339.40,M,-33.324,M,,*76
2017-12-29 11:39:43 1514565583.873092: $GPRMC,163944,A,3946.9596,N,08404.9825,W,0.0000,0.000,291217,,*39
2017-12-29 11:39:43 1514565583.873154: $GPGSA,A,3,8,10,15,18,20,21,24,27,32,14,138,,1.7,0.8,1.3*36
2017-12-29 11:39:44 1514565584.422616: $GPZDA,163945.00,29,12,2017,00,00*66
2017-12-29 11:39:44 1514565584.422798: $GPGGA,163945,3946.9596,N,08404.9825,W,2,11,1.00,339.40,M,-33.324,M,,*7E
2017-12-29 11:39:44 1514565584.422865: $GPRMC,163945,A,3946.9596,N,08404.9825,W,0.0000,0.000,291217,,*38
2017-12-29 11:39:44 1514565584.422926: $GPGSA,A,3,8,10,15,18,20,21,24,27,32,14,138,,1.7,1.0,1.3*3F
2017-12-29 11:39:45 1514565585.428421: $GPZDA,163946.00,29,12,2017,00,00*65
2017-12-29 11:39:45 1514565585.428598: $GPGGA,163946,3946.9596,N,08404.9825,W,2,11,1.00,339.40,M,-33.324,M,,*7D
2017-12-29 11:39:45 1514565585.428667: $GPRMC,163946,A,3946.9596,N,08404.9825,W,0.0000,0.000,291217,,*3B
2017-12-29 11:39:45 1514565585.428727: $GPGSA,A,3,8,10,15,18,20,21,24,27,32,14,138,,1.7,1.0,1.3*3F
2017-12-29 11:39:46 1514565586.760405: $GPGSV,3,1,11,08,07,315,40,10,50,309,46,15,28,055,49,18,76,010,45*70
2017-12-29 11:39:46 1514565586.760588: $GPGSV,3,2,11,20,27,103,49,21,52,184,46,24,53,093,51,27,17,279,42*7C
2017-12-29 11:39:46 1514565586.760654: $GPGSV,3,3,11,32,30,246,39,14,11,238,25,138,38,213,46*79
2017-12-29 11:39:46 1514565586.873908: $GPZDA,163947.00,29,12,2017,00,00*64
2017-12-29 11:39:46 1514565586.874092: $GPGGA,163947,3946.9596,N,08404.9825,W,2,11,0.80,339.40,M,-33.324,M,,*75
2017-12-29 11:39:46 1514565586.874159: $GPRMC,163947,A,3946.9596,N,08404.9825,W,0.0000,0.000,291217,,*3A
2017-12-29 11:39:46 1514565586.874221: $GPGSA,A,3,8,10,15,18,20,21,24,27,32,14,138,,1.7,0.8,1.3*36
2017-12-29 11:39:47 1514565587.499201: $GPZDA,163948.00,29,12,2017,00,00*6B
2017-12-29 11:39:47 1514565587.499376: $GPGGA,163948,3946.9593,N,08404.9825,W,2,11,0.80,340.17,M,-33.324,M,,*73
2017-12-29 11:39:47 1514565587.499442: $GPRMC,163948,A,3946.9593,N,08404.9825,W,0.0000,0.000,291217,,*30
2017-12-29 11:39:47 1514565587.499502: $GPGSA,A,3,8,10,15,18,20,21,24,27,32,14,138,,1.7,0.8,1.3*36
2017-12-29 11:39:48 1514565588.422514: $GPZDA,163949.00,29,12,2017,00,00*6A
2017-12-29 11:39:48 1514565588.422686: $GPGGA,163949,3946.9593,N,08404.9825,W,2,11,0.80,340.17,M,-33.324,M,,*72
2017-12-29 11:39:48 1514565588.422752: $GPRMC,163949,A,3946.9593,N,08404.9825,W,0.0000,0.000,291217,,*31
2017-12-29 11:39:48 1514565588.422812: $GPGSA,A,3,8,10,15,18,20,21,24,27,32,14,138,,1.7,0.8,1.3*36
2017-12-29 11:39:49 1514565589.759552: $GPGSV,3,1,11,08,07,315,40,10,50,309,45,15,28,055,49,18,76,010,45*73
2017-12-29 11:39:49 1514565589.759734: $GPGSV,3,2,11,20,27,103,48,21,52,184,46,24,53,093,51,27,17,279,41*7E
2017-12-29 11:39:49 1514565589.759800: $GPGSV,3,3,11,32,30,246,38,14,11,238,29,138,38,213,45*77
2017-12-29 11:39:49 1514565589.872957: $GPZDA,163950.00,29,12,2017,00,00*62
2017-12-29 11:39:49 1514565589.873127: $GPGGA,163950,3946.9597,N,08404.9825,W,2,11,0.80,340.80,M,-33.324,M,,*70
2017-12-29 11:39:49 1514565589.873194: $GPRMC,163950,A,3946.9597,N,08404.9825,W,0.1867,0.000,291217,,*35
2017-12-29 11:39:49 1514565589.873254: $GPGSA,A,3,8,10,15,18,20,21,24,27,32,14,138,,1.7,0.8,1.3*36
2017-12-29 11:39:50 1514565590.423791: $GPZDA,163951.02,29,12,2017,00,00*61
2017-12-29 11:39:50 1514565590.423971: $GPGGA,163951,3946.9597,N,08404.9825,W,2,11,1.00,340.80,M,-33.324,M,,*78
2017-12-29 11:39:50 1514565590.424039: $GPRMC,163951,A,3946.9597,N,08404.9825,W,0.0000,0.000,291217,,*3C
2017-12-29 11:39:50 1514565590.424100: $GPGSA,A,3,8,10,15,18,20,21,24,27,32,14,138,,1.7,1.0,1.3*3F
2017-12-29 11:39:51 1514565591.424715: $GPZDA,163952.02,29,12,2017,00,00*62
2017-12-29 11:39:51 1514565591.424885: $GPGGA,163952,3946.9599,N,08404.9810,W,2,11,1.00,338.79,M,-33.324,M,,*7A
2017-12-29 11:39:51 1514565591.424952: $GPRMC,163952,A,3946.9599,N,08404.9810,W,0.1567,9.200,291217,,*39
2017-12-29 11:39:51 1514565591.425011: $GPGSA,A,3,8,10,15,18,20,21,24,27,32,14,138,,1.7,1.0,1.3*3F
