2017-12-31 18:46:15 1514763975.042463: {"class":"VERSION","release":"3.16","rev":"3.16-4","proto_major":3,"proto_minor":11}
2017-12-31 18:46:15 1514763975.042786: {"class":"DEVICES","devices":[{"class":"DEVICE","path":"/dev/ttyUSB0","driver":"SiRF","activated":"2017-12-31T23:46:14.669Z","flags":1,"native":1,"bps":4800,"parity":"N","stopbits":1,"cycle":1.00}]}
2017-12-31 18:46:15 1514763975.042883: {"class":"WATCH","enable":true,"json":false,"nmea":true,"raw":0,"scaled":false,"timing":false,"split24":false,"pps":false}
2017-12-31 18:46:15 1514763975.689996: $GPGSV,3,1,12,22,09,205,26,23,67,285,40,09,35,310,41,03,19,222,39*72
2017-12-31 18:46:15 1514763975.690156: $GPGSV,3,2,12,16,79,036,43,08,14,175,34,14,01,139,05,31,17,087,33*78
2017-12-31 18:46:15 1514763975.690221: $GPGSV,3,3,12,27,38,144,42,07,09,283,43,26,46,048,46,135,22,240,43*4D
2017-12-31 18:46:15 1514763975.803571: $GPZDA,234616.00,31,12,2017,00,00*67
2017-12-31 18:46:15 1514763975.803701: $GPGGA,234616,3946.9581,N,08404.9855,W,2,11,0.80,303.74,M,-33.324,M,,*70
2017-12-31 18:46:15 1514763975.803767: $GPRMC,234616,A,3946.9581,N,08404.9855,W,0.0000,0.000,311217,,*38
2017-12-31 18:46:15 1514763975.803828: $GPGSA,A,3,22,23,9,3,16,8,31,27,7,26,135,,1.7,0.8,1.3*09
2017-12-31 18:46:16 1514763976.393229: $GPZDA,234617.00,31,12,2017,00,00*66
2017-12-31 18:46:16 1514763976.393389: $GPGGA,234617,3946.9581,N,08404.9855,W,2,11,0.80,303.74,M,-33.324,M,,*71
2017-12-31 18:46:16 1514763976.393456: $GPRMC,234617,A,3946.9581,N,08404.9855,W,0.0000,0.000,311217,,*39
2017-12-31 18:46:16 1514763976.393517: $GPGSA,A,3,22,23,9,3,16,8,31,27,7,26,135,,1.7,0.8,1.3*09
2017-12-31 18:46:17 1514763977.392844: $GPZDA,234618.00,31,12,2017,00,00*69
2017-12-31 18:46:17 1514763977.393011: $GPGGA,234618,3946.9581,N,08404.9855,W,2,11,0.80,303.74,M,-33.324,M,,*7E
2017-12-31 18:46:17 1514763977.393079: $GPRMC,234618,A,3946.9581,N,08404.9855,W,0.0000,0.000,311217,,*36
2017-12-31 18:46:17 1514763977.393140: $GPGSA,A,3,22,23,9,3,16,8,31,27,7,26,135,,1.7,0.8,1.3*09
2017-12-31 18:46:18 1514763978.729583: $GPGSV,3,1,12,22,09,205,26,23,67,285,40,09,35,310,41,03,19,222,39*72
2017-12-31 18:46:18 1514763978.729742: $GPGSV,3,2,12,16,79,036,43,08,14,175,34,14,01,139,04,31,17,087,33*79
2017-12-31 18:46:18 1514763978.729807: $GPGSV,3,3,12,27,38,144,42,07,09,283,43,26,46,048,46,135,22,240,43*4D
2017-12-31 18:46:18 1514763978.843156: $GPZDA,234619.00,31,12,2017,00,00*68
2017-12-31 18:46:18 1514763978.843289: $GPGGA,234619,3946.9581,N,08404.9855,W,2,11,0.80,303.74,M,-33.324,M,,*7F
2017-12-31 18:46:18 1514763978.843355: $GPRMC,234619,A,3946.9581,N,08404.9855,W,0.0000,0.000,311217,,*37
2017-12-31 18:46:18 1514763978.843416: $GPGSA,A,3,22,23,9,3,16,8,31,27,7,26,135,,1.7,0.8,1.3*09
2017-12-31 18:46:19 1514763979.355319: $GPZDA,234620.00,31,12,2017,00,00*62
2017-12-31 18:46:19 1514763979.355476: $GPGGA,234620,3946.9581,N,08404.9855,W,2,11,0.80,303.74,M,-33.324,M,,*75
2017-12-31 18:46:19 1514763979.355542: $GPRMC,234620,A,3946.9581,N,08404.9855,W,0.0000,0.000,311217,,*3D
2017-12-31 18:46:19 1514763979.355602: $GPGSA,A,3,22,23,9,3,16,8,31,27,7,26,135,,1.7,0.8,1.3*09
2017-12-31 18:46:20 1514763980.346944: $GPZDA,234621.00,31,12,2017,00,00*63
2017-12-31 18:46:20 1514763980.347168: $GPGGA,234621,3946.9581,N,08404.9855,W,2,11,0.80,303.74,M,-33.324,M,,*74
2017-12-31 18:46:20 1514763980.347245: $GPRMC,234621,A,3946.9581,N,08404.9855,W,0.0000,0.000,311217,,*3C
2017-12-31 18:46:20 1514763980.347307: $GPGSA,A,3,22,23,9,3,16,8,31,27,7,26,135,,1.7,0.8,1.3*09
2017-12-31 18:46:21 1514763981.689932: $GPGSV,3,1,12,22,09,205,24,23,67,285,39,09,35,310,41,03,19,222,39*7E
2017-12-31 18:46:21 1514763981.690097: $GPGSV,3,2,12,16,79,036,43,08,14,175,34,14,01,139,04,31,17,087,33*79
2017-12-31 18:46:21 1514763981.690163: $GPGSV,3,3,12,27,38,144,42,07,09,283,43,26,46,048,46,135,22,240,44*4A
2017-12-31 18:46:21 1514763981.803515: $GPZDA,234622.00,31,12,2017,00,00*60
2017-12-31 18:46:21 1514763981.803652: $GPGGA,234622,3946.9585,N,08404.9855,W,2,11,0.80,304.38,M,-33.324,M,,*7C
2017-12-31 18:46:21 1514763981.803719: $GPRMC,234622,A,3946.9585,N,08404.9855,W,0.0000,0.000,311217,,*3B
2017-12-31 18:46:21 1514763981.803835: $GPGSA,A,3,22,23,9,3,16,8,31,27,7,26,135,,1.7,0.8,1.3*09
2017-12-31 18:46:22 1514763982.355669: $GPZDA,234623.00,31,12,2017,00,00*61
2017-12-31 18:46:22 1514763982.355838: $GPGGA,234623,3946.9585,N,08404.9855,W,2,11,0.80,304.38,M,-33.324,M,,*7D
2017-12-31 18:46:22 1514763982.355905: $GPRMC,234623,A,3946.9585,N,08404.9855,W,0.0000,0.000,311217,,*3A
2017-12-31 18:46:22 1514763982.355965: $GPGSA,A,3,22,23,9,3,16,8,31,27,7,26,135,,1.7,0.8,1.3*09
2017-12-31 18:46:23 1514763983.354134: $GPZDA,234624.00,31,12,2017,00,00*66
2017-12-31 18:46:23 1514763983.354303: $GPGGA,234624,3946.9585,N,08404.9855,W,2,11,0.80,304.38,M,-33.324,M,,*7A
2017-12-31 18:46:23 1514763983.354369: $GPRMC,234624,A,3946.9585,N,08404.9855,W,0.0000,0.000,311217,,*3D
2017-12-31 18:46:23 1514763983.354430: $GPGSA,A,3,22,23,9,3,16,8,31,27,7,26,135,,1.7,0.8,1.3*09
