2017-12-01 17:19:21 1512166761.516696: {"class":"VERSION","release":"3.16","rev":"3.16-4","proto_major":3,"proto_minor":11}
2017-12-01 17:19:21 1512166761.517164: {"class":"DEVICES","devices":[{"class":"DEVICE","path":"/dev/ttyUSB0","driver":"SiRF","subtype":"9\u0006GSD4e_4.1.2-P1_RPATCH.05-F-GPS-4R-1510281 11/03/2015 307","activated":"2017-12-01T22:19:21.508Z","flags":1,"native":1,"bps":4800,"parity":"N","stopbits":1,"cycle":1.00}]}
2017-12-01 17:19:21 1512166761.517292: {"class":"WATCH","enable":true,"json":false,"nmea":true,"raw":0,"scaled":false,"timing":false,"split24":false,"pps":false}
2017-12-01 17:19:22 1512166762.727827: $GPGSV,3,1,11,01,20,277,42,03,18,316,43,10,25,156,37,14,70,028,45*7C
2017-12-01 17:19:22 1512166762.728016: $GPGSV,3,2,11,22,37,304,45,25,37,061,36,26,23,178,37,31,77,267,46*77
2017-12-01 17:19:22 1512166762.728085: $GPGSV,3,3,11,32,57,075,46,12,09,034,26,138,38,213,35*74
2017-12-01 17:19:22 1512166762.841604: $GPZDA,221923.00,01,12,2017,00,00*69
2017-12-01 17:19:22 1512166762.841772: $GPGGA,221923,3946.9649,N,08404.9734,W,2,11,0.80,299.55,M,-33.324,M,,*73
2017-12-01 17:19:22 1512166762.841840: $GPRMC,221923,A,3946.9649,N,08404.9734,W,0.0000,0.000,011217,,*39
2017-12-01 17:19:22 1512166762.841902: $GPGSA,A,3,1,3,10,14,22,25,26,31,32,12,138,,2.0,0.8,1.5*03
2017-12-01 17:19:23 1512166763.393616: $GPZDA,221924.00,01,12,2017,00,00*6E
2017-12-01 17:19:23 1512166763.393796: $GPGGA,221924,3946.9649,N,08404.9734,W,2,11,0.80,299.55,M,-33.324,M,,*74
2017-12-01 17:19:23 1512166763.393863: $GPRMC,221924,A,3946.9649,N,08404.9734,W,0.0000,0.000,011217,,*3E
2017-12-01 17:19:23 1512166763.393926: $GPGSA,A,3,1,3,10,14,22,25,26,31,32,12,138,,2.0,0.8,1.5*03
2017-12-01 17:19:24 1512166764.393306: $GPZDA,221925.00,01,12,2017,00,00*6F
2017-12-01 17:19:24 1512166764.393502: $GPGGA,221925,3946.9649,N,08404.9734,W,2,11,0.80,299.55,M,-33.324,M,,*75
2017-12-01 17:19:24 1512166764.393572: $GPRMC,221925,A,3946.9649,N,08404.9734,W,0.0000,0.000,011217,,*3F
2017-12-01 17:19:24 1512166764.393636: $GPGSA,A,3,1,3,10,14,22,25,26,31,32,12,138,,2.0,0.8,1.5*03
2017-12-01 17:19:25 1512166765.726215: $GPGSV,3,1,11,01,20,277,42,03,18,316,43,10,25,156,37,14,70,028,45*7C
2017-12-01 17:19:25 1512166765.726398: $GPGSV,3,2,11,22,37,304,46,25,37,061,36,26,23,178,36,31,77,267,46*75
2017-12-01 17:19:25 1512166765.726464: $GPGSV,3,3,11,32,57,075,47,12,09,034,27,138,38,213,39*78
2017-12-01 17:19:25 1512166765.839547: $GPZDA,221926.00,01,12,2017,00,00*6C
2017-12-01 17:19:25 1512166765.839688: $GPGGA,221926,3946.9649,N,08404.9734,W,2,11,0.80,299.55,M,-33.324,M,,*76
2017-12-01 17:19:25 1512166765.839755: $GPRMC,221926,A,3946.9649,N,08404.9734,W,0.0000,0.000,011217,,*3C
2017-12-01 17:19:25 1512166765.839815: $GPGSA,A,3,1,3,10,14,22,25,26,31,32,12,138,,2.0,0.8,1.5*03
2017-12-01 17:19:26 1512166766.389537: $GPZDA,221927.00,01,12,2017,00,00*6D
2017-12-01 17:19:26 1512166766.389737: $GPGGA,221927,3946.9649,N,08404.9734,W,2,11,0.80,299.55,M,-33.324,M,,*77
2017-12-01 17:19:26 1512166766.389827: $GPRMC,221927,A,3946.9649,N,08404.9734,W,0.0000,0.000,011217,,*3D
2017-12-01 17:19:26 1512166766.389892: $GPGSA,A,3,1,3,10,14,22,25,26,31,32,12,138,,2.0,0.8,1.5*03
2017-12-01 17:19:27 1512166767.393334: $GPZDA,221928.00,01,12,2017,00,00*62
2017-12-01 17:19:27 1512166767.393525: $GPGGA,221928,3946.9649,N,08404.9734,W,2,11,0.80,299.55,M,-33.324,M,,*78
2017-12-01 17:19:27 1512166767.393593: $GPRMC,221928,A,3946.9649,N,08404.9734,W,0.0000,0.000,011217,,*32
2017-12-01 17:19:27 1512166767.393659: $GPGSA,A,3,1,3,10,14,22,25,26,31,32,12,138,,2.0,0.8,1.5*03
2017-12-01 17:19:28 1512166768.729042: $GPGSV,3,1,11,01,20,277,42,03,18,316,42,10,25,156,37,14,70,028,45*7D
2017-12-01 17:19:28 1512166768.729226: $GPGSV,3,2,11,22,37,304,45,25,37,061,36,26,23,178,36,31,77,267,46*76
2017-12-01 17:19:28 1512166768.729293: $GPGSV,3,3,11,32,57,075,47,12,09,034,27,138,38,213,40*76
2017-12-01 17:19:28 1512166768.842491: $GPZDA,221929.00,01,12,2017,00,00*63
2017-12-01 17:19:28 1512166768.842675: $GPGGA,221929,3946.9649,N,08404.9734,W,2,11,0.80,299.55,M,-33.324,M,,*79
2017-12-01 17:19:28 1512166768.842799: $GPRMC,221929,A,3946.9649,N,08404.9734,W,0.0000,0.000,011217,,*33
2017-12-01 17:19:28 1512166768.842862: $GPGSA,A,3,1,3,10,14,22,25,26,31,32,12,138,,2.0,0.8,1.5*03
2017-12-01 17:19:29 1512166769.392127: $GPZDA,221930.00,01,12,2017,00,00*6B
2017-12-01 17:19:29 1512166769.392304: $GPGGA,221930,3946.9649,N,08404.9734,W,2,11,0.80,299.55,M,-33.324,M,,*71
2017-12-01 17:19:29 1512166769.392373: $GPRMC,221930,A,3946.9649,N,08404.9734,W,0.0000,0.000,011217,,*3B
2017-12-01 17:19:29 1512166769.392433: $GPGSA,A,3,1,3,10,14,22,25,26,31,32,12,138,,2.0,0.8,1.5*03
2017-12-01 17:19:30 1512166770.391790: $GPZDA,221931.00,01,12,2017,00,00*6A
2017-12-01 17:19:30 1512166770.391984: $GPGGA,221931,3946.9649,N,08404.9734,W,2,11,0.80,299.55,M,-33.324,M,,*70
2017-12-01 17:19:30 1512166770.392052: $GPRMC,221931,A,3946.9649,N,08404.9734,W,0.0000,0.000,011217,,*3A
2017-12-01 17:19:30 1512166770.392115: $GPGSA,A,3,1,3,10,14,22,25,26,31,32,12,138,,2.0,0.8,1.5*03
2017-12-01 17:19:32 1512166772.244426: $GPGSV,3,1,11,01,19,277,42,03,18,316,42,10,25,156,31,14,70,030,45*78
2017-12-01 17:19:32 1512166772.367632: $GPGSV,3,2,11,22,37,304,45,25,37,060,36,26,23,178,36,31,77,268,46*78
2017-12-01 17:19:32 1512166772.367756: $GPGSV,3,3,11,32,57,075,47,12,09,034,28,138,38,213,40*79
2017-12-01 17:19:32 1512166772.367848: $GPZDA,221932.00,01,12,2017,00,00*69
2017-12-01 17:19:32 1512166772.367907: $GPGGA,221932,3946.9646,N,08404.9742,W,2,11,0.80,300.23,M,-33.324,M,,*7D
2017-12-01 17:19:32 1512166772.367970: $GPRMC,221932,A,3946.9646,N,08404.9742,W,0.0000,0.000,011217,,*37
2017-12-01 17:19:32 1512166772.368030: $GPGSA,A,3,1,3,10,14,22,25,26,31,32,12,138,,2.0,0.8,1.5*03
2017-12-01 17:19:32 1512166772.983500: $GPZDA,221933.00,01,12,2017,00,00*68
2017-12-01 17:19:32 1512166772.983670: $GPGGA,221933,3946.9646,N,08404.9742,W,2,11,0.80,300.23,M,-33.324,M,,*7C
2017-12-01 17:19:32 1512166772.983739: $GPRMC,221933,A,3946.9646,N,08404.9742,W,0.0000,0.000,011217,,*36
2017-12-01 17:19:32 1512166772.983801: $GPGSA,A,3,1,3,10,14,22,25,26,31,32,12,138,,2.0,0.8,1.5*03
2017-12-01 17:19:33 1512166773.434438: $GPZDA,221934.00,01,12,2017,00,00*6F
2017-12-01 17:19:33 1512166773.434620: $GPGGA,221934,3946.9646,N,08404.9742,W,2,11,0.80,300.23,M,-33.324,M,,*7B
2017-12-01 17:19:33 1512166773.434688: $GPRMC,221934,A,3946.9646,N,08404.9742,W,0.0000,0.000,011217,,*31
2017-12-01 17:19:33 1512166773.434751: $GPGSA,A,3,1,3,10,14,22,25,26,31,32,12,138,,2.0,0.8,1.5*03
2017-12-01 17:19:34 1512166774.728524: $GPGSV,3,1,11,01,19,277,43,03,18,316,42,10,25,156,32,14,70,030,45*7A
2017-12-01 17:19:34 1512166774.728717: $GPGSV,3,2,11,22,37,304,44,25,37,060,36,26,23,178,37,31,77,268,46*78
2017-12-01 17:19:34 1512166774.728785: $GPGSV,3,3,11,32,57,075,46,12,09,034,28,138,38,213,38*77
2017-12-01 17:19:34 1512166774.842001: $GPZDA,221935.00,01,12,2017,00,00*6E
2017-12-01 17:19:34 1512166774.842177: $GPGGA,221935,3946.9646,N,08404.9742,W,2,11,0.80,300.23,M,-33.324,M,,*7A
2017-12-01 17:19:34 1512166774.842245: $GPRMC,221935,A,3946.9646,N,08404.9742,W,0.0000,0.000,011217,,*30
2017-12-01 17:19:34 1512166774.842306: $GPGSA,A,3,1,3,10,14,22,25,26,31,32,12,138,,2.0,0.8,1.5*03
2017-12-01 17:19:35 1512166775.394118: $GPZDA,221936.00,01,12,2017,00,00*6D
2017-12-01 17:19:35 1512166775.394322: $GPGGA,221936,3946.9650,N,08404.9742,W,2,11,0.80,300.87,M,-33.324,M,,*70
2017-12-01 17:19:35 1512166775.394399: $GPRMC,221936,A,3946.9650,N,08404.9742,W,0.0000,0.000,011217,,*34
2017-12-01 17:19:35 1512166775.394467: $GPGSA,A,3,1,3,10,14,22,25,26,31,32,12,138,,2.0,0.8,1.5*03
2017-12-01 17:19:36 1512166776.393694: $GPZDA,221937.00,01,12,2017,00,00*6C
2017-12-01 17:19:36 1512166776.393867: $GPGGA,221937,3946.9650,N,08404.9742,W,2,11,0.80,300.87,M,-33.324,M,,*71
2017-12-01 17:19:36 1512166776.393934: $GPRMC,221937,A,3946.9650,N,08404.9742,W,0.0000,0.000,011217,,*35
2017-12-01 17:19:36 1512166776.393997: $GPGSA,A,3,1,3,10,14,22,25,26,31,32,12,138,,2.0,0.8,1.5*03
2017-12-01 17:19:37 1512166777.728899: $GPGSV,3,1,11,01,19,277,44,03,18,316,43,10,25,156,34,14,70,030,45*7A
2017-12-01 17:19:37 1512166777.729128: $GPGSV,3,2,11,22,37,304,44,25,37,060,35,26,23,178,37,31,77,268,47*7A
2017-12-01 17:19:37 1512166777.729198: $GPGSV,3,3,11,32,57,075,46,12,09,034,28,138,38,213,40*78
2017-12-01 17:19:37 1512166777.842310: $GPZDA,221938.00,01,12,2017,00,00*63
2017-12-01 17:19:37 1512166777.842483: $GPGGA,221938,3946.9650,N,08404.9742,W,2,11,0.80,300.87,M,-33.324,M,,*7E
2017-12-01 17:19:37 1512166777.842551: $GPRMC,221938,A,3946.9650,N,08404.9742,W,0.0000,0.000,011217,,*3A
2017-12-01 17:19:37 1512166777.842616: $GPGSA,A,3,1,3,10,14,22,25,26,31,32,12,138,,2.0,0.8,1.5*03
2017-12-01 17:19:38 1512166778.391953: $GPZDA,221939.00,01,12,2017,00,00*62
2017-12-01 17:19:38 1512166778.392118: $GPGGA,221939,3946.9650,N,08404.9742,W,2,11,0.80,300.87,M,-33.324,M,,*7F
2017-12-01 17:19:38 1512166778.392186: $GPRMC,221939,A,3946.9650,N,08404.9742,W,0.0000,0.000,011217,,*3B
2017-12-01 17:19:38 1512166778.392246: $GPGSA,A,3,1,3,10,14,22,25,26,31,32,12,138,,2.0,0.8,1.5*03
2017-12-01 17:19:39 1512166779.394161: $GPZDA,221940.00,01,12,2017,00,00*6C
2017-12-01 17:19:39 1512166779.394337: $GPGGA,221940,3946.9650,N,08404.9742,W,2,11,0.80,300.87,M,-33.324,M,,*71
2017-12-01 17:19:39 1512166779.394406: $GPRMC,221940,A,3946.9650,N,08404.9742,W,0.0000,0.000,011217,,*35
2017-12-01 17:19:39 1512166779.394471: $GPGSA,A,3,1,3,10,14,22,25,26,31,32,12,138,,2.0,0.8,1.5*03
2017-12-01 17:19:40 1512166780.728478: $GPGSV,3,1,11,01,19,277,44,03,18,316,43,10,25,156,35,14,70,030,45*7B
2017-12-01 17:19:40 1512166780.728699: $GPGSV,3,2,11,22,37,304,45,25,37,060,34,26,23,178,37,31,77,268,46*7B
2017-12-01 17:19:40 1512166780.728772: $GPGSV,3,3,11,32,57,075,46,12,09,034,29,138,38,213,41*78
2017-12-01 17:19:40 1512166780.842099: $GPZDA,221941.00,01,12,2017,00,00*6D
2017-12-01 17:19:40 1512166780.842271: $GPGGA,221941,3946.9650,N,08404.9742,W,2,11,0.80,300.87,M,-33.324,M,,*70
2017-12-01 17:19:40 1512166780.842342: $GPRMC,221941,A,3946.9650,N,08404.9742,W,0.0000,0.000,011217,,*34
2017-12-01 17:19:40 1512166780.842406: $GPGSA,A,3,1,3,10,14,22,25,26,31,32,12,138,,2.0,0.8,1.5*03
2017-12-01 17:19:41 1512166781.392819: $GPZDA,221942.00,01,12,2017,00,00*6E
2017-12-01 17:19:41 1512166781.392995: $GPGGA,221942,3946.9650,N,08404.9742,W,2,11,0.80,300.87,M,-33.324,M,,*73
2017-12-01 17:19:41 1512166781.393066: $GPRMC,221942,A,3946.9650,N,08404.9742,W,0.0000,0.000,011217,,*37
2017-12-01 17:19:41 1512166781.393130: $GPGSA,A,3,1,3,10,14,22,25,26,31,32,12,138,,2.0,0.8,1.5*03
