2017-12-01 15:58:47 1512161927.043895: {"class":"VERSION","release":"3.16","rev":"3.16-4","proto_major":3,"proto_minor":11}
2017-12-01 15:58:47 1512161927.045846: {"class":"DEVICES","devices":[{"class":"DEVICE","path":"/dev/ttyUSB0","driver":"SiRF","subtype":"9\u0006GSD4e_4.1.2-P1_RPATCH.05-F-GPS-4R-1510281 11/03/2015 307","activated":"2017-12-01T20:58:47.016Z","flags":1,"native":1,"bps":4800,"parity":"N","stopbits":1,"cycle":1.00}]}
2017-12-01 15:58:47 1512161927.045998: {"class":"WATCH","enable":true,"json":false,"nmea":true,"raw":0,"scaled":false,"timing":false,"split24":false,"pps":false}
2017-12-01 15:58:48 1512161928.098858: $GPZDA,205848.36,01,12,2017,00,00*66
2017-12-01 15:58:48 1512161928.099059: $GPGGA,205848,3946.9575,N,08404.9794,W,1,12,1.00,306.62,M,-33.324,M,,*75
2017-12-01 15:58:48 1512161928.099127: $GPRMC,205848,A,3946.9575,N,08404.9794,W,0.2959,54.767,011217,,*05
2017-12-01 15:58:48 1512161928.099190: $GPGSA,A,3,1,10,12,14,18,22,25,31,32,11,24,138,2.0,1.0,1.5*32
2017-12-01 15:58:48 1512161928.099249: $GPGBS,205848,10.70,M,15.43,M,35.28,M*04
2017-12-01 15:58:49 1512161929.241182: $GPGSV,3,1,12,01,17,313,40,10,63,138,48,12,25,064,42,14,58,301,44*72
2017-12-01 15:58:49 1512161929.241435: $GPGSV,3,2,12,18,31,138,46,22,07,312,37,25,33,108,45,31,41,214,49*79
2017-12-01 15:58:49 1512161929.241514: $GPGSV,3,3,12,32,69,346,48,11,11,295,07,24,09,046,12,138,38,213,00*4F
2017-12-01 15:58:49 1512161929.354584: $GPZDA,205849.00,01,12,2017,00,00*62
2017-12-01 15:58:49 1512161929.354746: $GPGGA,205849,3946.9579,N,08404.9794,W,1,09,1.00,307.26,M,-33.324,M,,*73
2017-12-01 15:58:49 1512161929.354813: $GPRMC,205849,A,3946.9579,N,08404.9794,W,0.1567,189.200,011217,,*3F
2017-12-01 15:58:49 1512161929.354873: $GPGSA,A,3,1,10,12,14,18,22,25,31,32,,,,2.0,1.0,1.5*0E
2017-12-01 15:58:49 1512161929.806988: $GPZDA,205850.00,01,12,2017,00,00*6A
2017-12-01 15:58:49 1512161929.807157: $GPGGA,205850,3946.9576,N,08404.9802,W,1,09,0.80,307.95,M,-33.324,M,,*75
2017-12-01 15:58:49 1512161929.807225: $GPRMC,205850,A,3946.9576,N,08404.9802,W,0.1567,189.200,011217,,*38
2017-12-01 15:58:49 1512161929.807287: $GPGSA,A,3,1,10,12,14,18,22,25,31,32,,,,2.0,0.8,1.5*07
2017-12-01 15:58:50 1512161930.409112: $GPZDA,205851.00,01,12,2017,00,00*6B
2017-12-01 15:58:50 1512161930.409280: $GPGGA,205851,3946.9572,N,08404.9802,W,1,09,0.80,307.31,M,-33.324,M,,*7E
2017-12-01 15:58:50 1512161930.409347: $GPRMC,205851,A,3946.9572,N,08404.9802,W,0.0000,0.000,011217,,*3A
2017-12-01 15:58:50 1512161930.409408: $GPGSA,A,3,1,10,12,14,18,22,25,31,32,,,,2.0,0.8,1.5*07
2017-12-01 15:58:51 1512161931.745258: $GPGSV,3,1,12,01,17,313,40,10,63,138,48,12,25,064,42,14,58,301,44*72
2017-12-01 15:58:51 1512161931.745443: $GPGSV,3,2,12,18,31,138,45,22,07,312,37,25,33,108,45,31,41,214,49*7A
2017-12-01 15:58:51 1512161931.745511: $GPGSV,3,3,12,32,69,346,48,11,11,295,25,24,09,046,30,138,38,213,46*4D
2017-12-01 15:58:51 1512161931.857475: $GPZDA,205852.00,01,12,2017,00,00*68
2017-12-01 15:58:51 1512161931.857658: $GPGGA,205852,3946.9572,N,08404.9802,W,1,12,0.80,307.31,M,-33.324,M,,*77
2017-12-01 15:58:51 1512161931.857745: $GPRMC,205852,A,3946.9572,N,08404.9802,W,0.0000,0.000,011217,,*39
2017-12-01 15:58:51 1512161931.857833: $GPGSA,A,3,1,10,12,14,18,22,25,31,32,11,24,138,2.0,0.8,1.5*3B
2017-12-01 15:58:52 1512161932.408267: $GPZDA,205853.00,01,12,2017,00,00*69
2017-12-01 15:58:52 1512161932.408442: $GPGGA,205853,3946.9572,N,08404.9809,W,1,12,0.80,307.23,M,-33.324,M,,*7E
2017-12-01 15:58:52 1512161932.408509: $GPRMC,205853,A,3946.9572,N,08404.9809,W,0.0000,0.000,011217,,*33
2017-12-01 15:58:52 1512161932.408569: $GPGSA,A,3,1,10,12,14,18,22,25,31,32,11,24,138,2.0,0.8,1.5*3B
2017-12-01 15:58:53 1512161933.407876: $GPZDA,205854.00,01,12,2017,00,00*6E
2017-12-01 15:58:53 1512161933.408053: $GPGGA,205854,3946.9572,N,08404.9809,W,1,12,0.80,307.23,M,-33.324,M,,*79
2017-12-01 15:58:53 1512161933.408121: $GPRMC,205854,A,3946.9572,N,08404.9809,W,0.0000,0.000,011217,,*34
2017-12-01 15:58:53 1512161933.408182: $GPGSA,A,3,1,10,12,14,18,22,25,31,32,11,24,138,2.0,0.8,1.5*3B
2017-12-01 15:58:53 1512161933.408292: $GPGBS,205854,10.70,M,15.43,M,35.28,M*09
2017-12-01 15:58:54 1512161934.746073: $GPGSV,3,1,12,01,17,313,39,10,63,138,48,12,25,064,42,14,58,301,44*7C
2017-12-01 15:58:54 1512161934.746254: $GPGSV,3,2,12,18,31,138,45,22,07,312,37,25,33,108,44,31,41,214,49*7B
2017-12-01 15:58:54 1512161934.746320: $GPGSV,3,3,12,32,69,346,48,11,11,295,15,24,09,046,29,138,38,213,46*46
2017-12-01 15:58:54 1512161934.859353: $GPZDA,205855.00,01,12,2017,00,00*6F
2017-12-01 15:58:54 1512161934.859491: $GPGGA,205855,3946.9572,N,08404.9809,W,1,12,0.80,307.23,M,-33.324,M,,*78
2017-12-01 15:58:54 1512161934.859556: $GPRMC,205855,A,3946.9572,N,08404.9809,W,0.0000,0.000,011217,,*35
2017-12-01 15:58:54 1512161934.859617: $GPGSA,A,3,1,10,12,14,18,22,25,31,32,11,24,138,2.0,0.8,1.5*3B
2017-12-01 15:58:55 1512161935.410281: $GPZDA,205856.00,01,12,2017,00,00*6C
2017-12-01 15:58:55 1512161935.410454: $GPGGA,205856,3946.9572,N,08404.9809,W,1,12,0.80,307.23,M,-33.324,M,,*7B
2017-12-01 15:58:55 1512161935.410521: $GPRMC,205856,A,3946.9572,N,08404.9809,W,0.0000,0.000,011217,,*36
2017-12-01 15:58:55 1512161935.410582: $GPGSA,A,3,1,10,12,14,18,22,25,31,32,11,24,138,2.0,0.8,1.5*3B
2017-12-01 15:58:56 1512161936.409707: $GPZDA,205857.00,01,12,2017,00,00*6D
2017-12-01 15:58:56 1512161936.409879: $GPGGA,205857,3946.9572,N,08404.9816,W,1,12,0.80,307.15,M,-33.324,M,,*71
2017-12-01 15:58:56 1512161936.409947: $GPRMC,205857,A,3946.9572,N,08404.9816,W,0.0000,0.000,011217,,*39
2017-12-01 15:58:56 1512161936.410009: $GPGSA,A,3,1,10,12,14,18,22,25,31,32,11,24,138,2.0,0.8,1.5*3B
2017-12-01 15:58:57 1512161937.745161: $GPGSV,3,1,12,01,17,313,39,10,63,138,48,12,25,064,43,14,58,301,44*7D
2017-12-01 15:58:57 1512161937.745345: $GPGSV,3,2,12,18,31,138,45,22,07,312,38,25,33,108,44,31,41,214,48*75
2017-12-01 15:58:57 1512161937.745413: $GPGSV,3,3,12,32,69,346,48,11,11,295,24,24,09,046,27,138,38,213,45*49
2017-12-01 15:58:57 1512161937.858489: $GPZDA,205858.00,01,12,2017,00,00*62
2017-12-01 15:58:57 1512161937.858679: $GPGGA,205858,3946.9572,N,08404.9816,W,1,12,0.80,307.15,M,-33.324,M,,*7E
2017-12-01 15:58:57 1512161937.858746: $GPRMC,205858,A,3946.9572,N,08404.9816,W,0.0000,0.000,011217,,*36
2017-12-01 15:58:57 1512161937.858806: $GPGSA,A,3,1,10,12,14,18,22,25,31,32,11,24,138,2.0,0.8,1.5*3B
2017-12-01 15:58:58 1512161938.410610: $GPZDA,205859.00,01,12,2017,00,00*63
2017-12-01 15:58:58 1512161938.410788: $GPGGA,205859,3946.9565,N,08404.9830,W,2,12,1.20,307.11,M,-33.324,M,,*71
2017-12-01 15:58:58 1512161938.410854: $GPRMC,205859,A,3946.9565,N,08404.9830,W,0.0000,0.000,011217,,*35
2017-12-01 15:58:58 1512161938.410915: $GPGSA,A,3,1,10,12,14,18,22,25,31,32,11,24,138,2.0,1.2,1.5*30
2017-12-01 15:58:59 1512161939.411725: $GPZDA,205900.00,01,12,2017,00,00*6E
2017-12-01 15:58:59 1512161939.411902: $GPGGA,205900,3946.9565,N,08404.9830,W,2,12,0.80,307.11,M,-33.324,M,,*77
2017-12-01 15:58:59 1512161939.411969: $GPRMC,205900,A,3946.9565,N,08404.9830,W,0.0000,0.000,011217,,*38
2017-12-01 15:58:59 1512161939.412030: $GPGSA,A,3,1,10,12,14,18,22,25,31,32,11,24,138,2.0,0.8,1.5*3B
2017-12-01 15:59:00 1512161940.744802: $GPGSV,3,1,12,01,17,313,34,10,63,138,48,12,25,064,42,14,58,301,44*71
2017-12-01 15:59:00 1512161940.744982: $GPGSV,3,2,12,18,31,138,46,22,07,312,38,25,33,108,44,31,41,214,49*77
2017-12-01 15:59:00 1512161940.745049: $GPGSV,3,3,12,32,69,346,48,11,11,295,28,24,09,046,28,138,38,213,46*49
2017-12-01 15:59:00 1512161940.858424: $GPZDA,205901.00,01,12,2017,00,00*6F
2017-12-01 15:59:00 1512161940.858592: $GPGGA,205901,3946.9565,N,08404.9830,W,2,12,0.80,307.11,M,-33.324,M,,*76
2017-12-01 15:59:00 1512161940.858658: $GPRMC,205901,A,3946.9565,N,08404.9830,W,0.0000,0.000,011217,,*39
2017-12-01 15:59:00 1512161940.858719: $GPGSA,A,3,1,10,12,14,18,22,25,31,32,11,24,138,2.0,0.8,1.5*3B
2017-12-01 15:59:01 1512161941.484712: $GPZDA,205902.00,01,12,2017,00,00*6C
2017-12-01 15:59:01 1512161941.484883: $GPGGA,205902,3946.9565,N,08404.9830,W,2,12,0.80,307.11,M,-33.324,M,,*75
2017-12-01 15:59:01 1512161941.484950: $GPRMC,205902,A,3946.9565,N,08404.9830,W,0.0000,0.000,011217,,*3A
2017-12-01 15:59:01 1512161941.485058: $GPGSA,A,3,1,10,12,14,18,22,25,31,32,11,24,138,2.0,0.8,1.5*3B
2017-12-01 15:59:02 1512161942.410763: $GPZDA,205903.00,01,12,2017,00,00*6D
2017-12-01 15:59:02 1512161942.410944: $GPGGA,205903,3946.9565,N,08404.9830,W,2,12,0.80,307.11,M,-33.324,M,,*74
2017-12-01 15:59:02 1512161942.411013: $GPRMC,205903,A,3946.9565,N,08404.9830,W,0.0000,0.000,011217,,*3B
2017-12-01 15:59:02 1512161942.411074: $GPGSA,A,3,1,10,12,14,18,22,25,31,32,11,24,138,2.0,0.8,1.5*3B
2017-12-01 15:59:03 1512161943.743898: $GPGSV,3,1,12,01,17,313,10,10,63,138,14,12,25,064,13,14,58,301,13*78
2017-12-01 15:59:03 1512161943.744065: $GPGSV,3,2,12,18,31,138,14,22,07,312,11,25,33,108,13,31,41,214,14*71
2017-12-01 15:59:03 1512161943.744132: $GPGSV,3,3,12,32,69,346,14,11,11,295,08,24,09,046,08,138,38,213,16*45
2017-12-01 15:59:03 1512161943.857352: $GPZDA,205904.00,01,12,2017,00,00*6A
2017-12-01 15:59:03 1512161943.857535: $GPGGA,205904,3946.9565,N,08404.9830,W,2,12,0.80,307.11,M,-33.324,M,,*73
2017-12-01 15:59:03 1512161943.857602: $GPRMC,205904,A,3946.9565,N,08404.9830,W,0.3423,184.197,011217,,*38
2017-12-01 15:59:03 1512161943.857663: $GPGSA,A,3,1,10,12,14,18,22,25,31,32,11,24,138,2.0,0.8,1.5*3B
2017-12-01 15:59:04 1512161944.408189: $GPZDA,205905.00,01,12,2017,00,00*6B
2017-12-01 15:59:04 1512161944.408361: $GPGGA,205905,3946.9565,N,08404.9830,W,2,12,0.80,307.11,M,-33.324,M,,*72
2017-12-01 15:59:04 1512161944.408428: $GPRMC,205905,A,3946.9565,N,08404.9830,W,0.3423,4.197,011217,,*30
2017-12-01 15:59:04 1512161944.408489: $GPGSA,A,3,1,10,12,14,18,22,25,31,32,11,24,138,2.0,0.8,1.5*3B
2017-12-01 15:59:05 1512161945.406585: $GPZDA,205906.00,01,12,2017,00,00*68
2017-12-01 15:59:05 1512161945.406755: $GPGGA,205906,3946.9572,N,08404.9829,W,2,12,0.80,305.59,M,-33.324,M,,*71
2017-12-01 15:59:05 1512161945.406821: $GPRMC,205906,A,3946.9572,N,08404.9829,W,0.2422,93.794,011217,,*06
2017-12-01 15:59:05 1512161945.406883: $GPGSA,A,3,1,10,12,14,18,22,25,31,32,11,24,138,2.0,0.8,1.5*3B
2017-12-01 15:59:05 1512161945.406943: $GPGBS,205906,2.67,M,3.86,M,8.82,M*3A
2017-12-01 15:59:06 1512161946.744192: $GPGSV,3,1,12,01,17,313,30,10,63,138,48,12,25,064,42,14,58,301,45*74
2017-12-01 15:59:06 1512161946.744383: $GPGSV,3,2,12,18,31,138,45,22,07,312,39,25,33,108,44,31,41,214,49*75
2017-12-01 15:59:06 1512161946.744450: $GPGSV,3,3,12,32,69,346,47,11,11,295,29,24,09,046,29,138,38,213,45*45
2017-12-01 15:59:06 1512161946.857420: $GPZDA,205907.00,01,12,2017,00,00*69
2017-12-01 15:59:06 1512161946.857599: $GPGGA,205907,3946.9572,N,08404.9829,W,2,12,0.80,305.59,M,-33.324,M,,*70
2017-12-01 15:59:06 1512161946.857667: $GPRMC,205907,A,3946.9572,N,08404.9829,W,0.0000,0.000,011217,,*31
2017-12-01 15:59:06 1512161946.857728: $GPGSA,A,3,1,10,12,14,18,22,25,31,32,11,24,138,2.0,0.8,1.5*3B
