2017-11-16 13:15:59 1510856159.835703: {"class":"VERSION","release":"3.17","rev":"3.17","proto_major":3,"proto_minor":12}
2017-11-16 13:15:59 1510856159.836149: {"class":"DEVICES","devices":[{"class":"DEVICE","path":"/dev/ttyUSB0","driver":"SiRF","subtype":"9\u0006GSD4e_4.1.2-P1_RPATCH.05-F-GPS-4R-1510281 11/03/2015 307","activated":"2017-11-16T18:15:59.804Z","flags":1,"native":1,"bps":4800,"parity":"N","stopbits":1,"cycle":1.00}]}
2017-11-16 13:15:59 1510856159.836267: {"class":"WATCH","enable":true,"json":false,"nmea":true,"raw":0,"scaled":false,"timing":false,"split24":false,"pps":false}
2017-11-16 13:16:00 1510856160.654760: $GPGSV,3,1,11,10,22,282,44,13,30,045,47,15,62,052,51,18,53,298,44*7E
2017-11-16 13:16:00 1510856160.654900: $GPGSV,3,2,11,20,52,070,45,21,77,276,46,24,32,139,44,27,16,313,42*70
2017-11-16 13:16:00 1510856160.654961: $GPGSV,3,3,11,05,05,087,23,29,10,189,26,138,38,213,46*7A
2017-11-16 13:16:00 1510856160.767102: $GPZDA,181559.00,16,11,2017,00,00*64
2017-11-16 13:16:00 1510856160.767243: $GPGGA,181559,3946.9585,N,08404.9845,W,2,11,0.80,298.08,M,-33.324,M,,*78
2017-11-16 13:16:00 1510856160.767301: $GPRMC,181559,A,3946.9585,N,08404.9845,W,0.0000,0.000,161117,,*3E
2017-11-16 13:16:00 1510856160.767356: $GPGSA,A,3,10,13,15,18,20,21,24,27,5,29,138,,1.6,0.8,1.3*37
2017-11-16 13:16:01 1510856161.316396: $GPZDA,181600.00,16,11,2017,00,00*6B
2017-11-16 13:16:01 1510856161.316584: $GPGGA,181600,3946.9585,N,08404.9845,W,2,11,0.80,298.08,M,-33.324,M,,*77
2017-11-16 13:16:01 1510856161.316669: $GPRMC,181600,A,3946.9585,N,08404.9845,W,0.0000,0.000,161117,,*31
2017-11-16 13:16:01 1510856161.316728: $GPGSA,A,3,10,13,15,18,20,21,24,27,5,29,138,,1.6,0.8,1.3*37
2017-11-16 13:16:02 1510856162.297612: $GPZDA,181601.00,16,11,2017,00,00*6A
2017-11-16 13:16:02 1510856162.297783: $GPGGA,181601,3946.9585,N,08404.9845,W,2,11,0.80,298.08,M,-33.324,M,,*76
2017-11-16 13:16:02 1510856162.297845: $GPRMC,181601,A,3946.9585,N,08404.9845,W,0.0000,0.000,161117,,*30
2017-11-16 13:16:02 1510856162.297902: $GPGSA,A,3,10,13,15,18,20,21,24,27,5,29,138,,1.6,0.8,1.3*37
2017-11-16 13:16:03 1510856163.655462: $GPGSV,3,1,11,10,22,282,44,13,30,045,47,15,62,052,51,18,53,298,44*7E
2017-11-16 13:16:03 1510856163.655630: $GPGSV,3,2,11,20,52,070,45,21,77,276,46,24,32,139,44,27,16,313,42*70
2017-11-16 13:16:03 1510856163.655691: $GPGSV,3,3,11,05,05,087,24,29,10,189,27,138,38,213,45*7F
2017-11-16 13:16:03 1510856163.768703: $GPZDA,181602.00,16,11,2017,00,00*69
2017-11-16 13:16:03 1510856163.768832: $GPGGA,181602,3946.9585,N,08404.9845,W,2,11,0.80,298.08,M,-33.324,M,,*75
2017-11-16 13:16:03 1510856163.768891: $GPRMC,181602,A,3946.9585,N,08404.9845,W,0.0000,0.000,161117,,*33
2017-11-16 13:16:03 1510856163.768947: $GPGSA,A,3,10,13,15,18,20,21,24,27,5,29,138,,1.6,0.8,1.3*37
2017-11-16 13:16:04 1510856164.324602: $GPZDA,181603.00,16,11,2017,00,00*68
2017-11-16 13:16:04 1510856164.324745: $GPGGA,181603,3946.9585,N,08404.9845,W,2,11,0.80,298.08,M,-33.324,M,,*74
2017-11-16 13:16:04 1510856164.324807: $GPRMC,181603,A,3946.9585,N,08404.9845,W,0.0000,0.000,161117,,*32
2017-11-16 13:16:04 1510856164.324863: $GPGSA,A,3,10,13,15,18,20,21,24,27,5,29,138,,1.6,0.8,1.3*37
2017-11-16 13:16:05 1510856165.301575: $GPZDA,181604.00,16,11,2017,00,00*6F
2017-11-16 13:16:05 1510856165.301736: $GPGGA,181604,3946.9585,N,08404.9845,W,2,11,0.80,298.08,M,-33.324,M,,*73
2017-11-16 13:16:05 1510856165.301797: $GPRMC,181604,A,3946.9585,N,08404.9845,W,0.0000,0.000,161117,,*35
2017-11-16 13:16:05 1510856165.301853: $GPGSA,A,3,10,13,15,18,20,21,24,27,5,29,138,,1.6,0.8,1.3*37
2017-11-16 13:16:06 1510856166.636901: $GPGSV,3,1,11,10,22,282,44,13,30,045,47,15,62,052,51,18,53,298,44*7E
2017-11-16 13:16:06 1510856166.637055: $GPGSV,3,2,11,20,52,070,45,21,77,276,46,24,32,139,43,27,16,313,41*74
2017-11-16 13:16:06 1510856166.637115: $GPGSV,3,3,11,05,05,087,24,29,10,189,27,138,38,213,44*7E
2017-11-16 13:16:06 1510856166.750588: $GPZDA,181605.00,16,11,2017,00,00*6E
2017-11-16 13:16:06 1510856166.750758: $GPGGA,181605,3946.9585,N,08404.9845,W,2,11,0.80,298.08,M,-33.324,M,,*72
2017-11-16 13:16:06 1510856166.750891: $GPRMC,181605,A,3946.9585,N,08404.9845,W,0.0000,0.000,161117,,*34
2017-11-16 13:16:06 1510856166.750951: $GPGSA,A,3,10,13,15,18,20,21,24,27,5,29,138,,1.6,0.8,1.3*37
2017-11-16 13:16:07 1510856167.294786: $GPZDA,181606.00,16,11,2017,00,00*6D
2017-11-16 13:16:07 1510856167.294957: $GPGGA,181606,3946.9585,N,08404.9845,W,2,11,0.80,298.08,M,-33.324,M,,*71
2017-11-16 13:16:07 1510856167.295038: $GPRMC,181606,A,3946.9585,N,08404.9845,W,0.0000,0.000,161117,,*37
2017-11-16 13:16:07 1510856167.295096: $GPGSA,A,3,10,13,15,18,20,21,24,27,5,29,138,,1.6,0.8,1.3*37
2017-11-16 13:16:08 1510856168.295618: $GPZDA,181607.00,16,11,2017,00,00*6C
2017-11-16 13:16:08 1510856168.295834: $GPGGA,181607,3946.9585,N,08404.9845,W,2,11,0.80,298.08,M,-33.324,M,,*70
2017-11-16 13:16:08 1510856168.295898: $GPRMC,181607,A,3946.9585,N,08404.9845,W,0.0000,0.000,161117,,*36
2017-11-16 13:16:08 1510856168.295955: $GPGSA,A,3,10,13,15,18,20,21,24,27,5,29,138,,1.6,0.8,1.3*37
2017-11-16 13:16:09 1510856169.638969: $GPGSV,3,1,11,10,22,282,44,13,30,045,47,15,62,052,51,18,53,298,44*7E
2017-11-16 13:16:09 1510856169.639138: $GPGSV,3,2,11,20,52,070,45,21,77,276,46,24,32,139,43,27,16,313,41*74
2017-11-16 13:16:09 1510856169.639199: $GPGSV,3,3,11,05,05,087,24,29,10,189,27,138,38,213,45*7F
2017-11-16 13:16:09 1510856169.751113: $GPZDA,181608.00,16,11,2017,00,00*63
2017-11-16 13:16:09 1510856169.751292: $GPGGA,181608,3946.9585,N,08404.9845,W,2,11,0.80,298.08,M,-33.324,M,,*7F
2017-11-16 13:16:09 1510856169.751354: $GPRMC,181608,A,3946.9585,N,08404.9845,W,0.0000,0.000,161117,,*39
2017-11-16 13:16:09 1510856169.751413: $GPGSA,A,3,10,13,15,18,20,21,24,27,5,29,138,,1.6,0.8,1.3*37
