2017-12-29 10:51:22 1514562682.506332: {"class":"VERSION","release":"3.16","rev":"3.16-4","proto_major":3,"proto_minor":11}
2017-12-29 10:51:22 1514562682.506723: {"class":"DEVICES","devices":[{"class":"DEVICE","path":"/dev/ttyUSB0","driver":"SiRF","subtype":"9\u0006GSD4e_4.1.2-P1_RPATCH.05-F-GPS-4R-1510281 11/03/2015 307","activated":"2017-12-29T15:51:22.402Z","flags":1,"native":1,"bps":4800,"parity":"N","stopbits":1,"cycle":1.00}]}
2017-12-29 10:51:22 1514562682.506834: {"class":"WATCH","enable":true,"json":false,"nmea":true,"raw":0,"scaled":false,"timing":false,"split24":false,"pps":false}
2017-12-29 10:51:22 1514562682.516428: $GPZDA,155123.00,29,12,2017,00,00*6B
2017-12-29 10:51:22 1514562682.516543: $GPGGA,155123,3946.9603,N,08404.9822,W,2,10,0.80,298.71,M,-33.324,M,,*7B
2017-12-29 10:51:22 1514562682.516605: $GPRMC,155123,A,3946.9603,N,08404.9822,W,0.0000,0.000,291217,,*3D
2017-12-29 10:51:22 1514562682.516664: $GPGSA,A,3,10,13,15,18,20,21,24,27,32,138,,,1.7,0.8,1.3*09
2017-12-29 10:51:22 1514562682.516722: $GPGBS,155123,2.73,M,2.59,M,7.72,M*35
2017-12-29 10:51:23 1514562683.422602: $GPZDA,155124.00,29,12,2017,00,00*6C
2017-12-29 10:51:23 1514562683.422770: $GPGGA,155124,3946.9603,N,08404.9822,W,2,10,0.80,298.71,M,-33.324,M,,*7C
2017-12-29 10:51:23 1514562683.422836: $GPRMC,155124,A,3946.9603,N,08404.9822,W,0.0000,0.000,291217,,*3A
2017-12-29 10:51:23 1514562683.422896: $GPGSA,A,3,10,13,15,18,20,21,24,27,32,138,,,1.7,0.8,1.3*09
2017-12-29 10:51:23 1514562683.422953: $GPGBS,155124,2.73,M,2.59,M,7.72,M*32
2017-12-29 10:51:24 1514562684.759122: $GPGSV,3,1,11,10,33,292,40,13,17,046,44,15,48,049,48,18,64,316,44*77
2017-12-29 10:51:24 1514562684.759288: $GPGSV,3,2,11,20,43,085,50,21,74,208,48,24,44,126,51,27,19,301,39*71
2017-12-29 10:51:24 1514562684.759354: $GPGSV,3,3,11,32,12,231,29,08,01,331,00,138,38,213,45*78
2017-12-29 10:51:24 1514562684.872469: $GPZDA,155125.00,29,12,2017,00,00*6D
2017-12-29 10:51:24 1514562684.872614: $GPGGA,155125,3946.9603,N,08404.9822,W,2,10,0.80,298.71,M,-33.324,M,,*7D
2017-12-29 10:51:24 1514562684.872681: $GPRMC,155125,A,3946.9603,N,08404.9822,W,0.0000,0.000,291217,,*3B
2017-12-29 10:51:24 1514562684.872741: $GPGSA,A,3,10,13,15,18,20,21,24,27,32,138,,,1.7,0.8,1.3*09
2017-12-29 10:51:25 1514562685.422127: $GPZDA,155126.00,29,12,2017,00,00*6E
2017-12-29 10:51:25 1514562685.422281: $GPGGA,155126,3946.9603,N,08404.9822,W,2,10,0.80,298.71,M,-33.324,M,,*7E
2017-12-29 10:51:25 1514562685.422345: $GPRMC,155126,A,3946.9603,N,08404.9822,W,0.0000,0.000,291217,,*38
2017-12-29 10:51:25 1514562685.422406: $GPGSA,A,3,10,13,15,18,20,21,24,27,32,138,,,1.7,0.8,1.3*09
2017-12-29 10:51:26 1514562686.421782: $GPZDA,155127.00,29,12,2017,00,00*6F
2017-12-29 10:51:26 1514562686.421937: $GPGGA,155127,3946.9603,N,08404.9822,W,2,10,0.80,298.71,M,-33.324,M,,*7F
2017-12-29 10:51:26 1514562686.422002: $GPRMC,155127,A,3946.9603,N,08404.9822,W,0.0000,0.000,291217,,*39
2017-12-29 10:51:26 1514562686.422062: $GPGSA,A,3,10,13,15,18,20,21,24,27,32,138,,,1.7,0.8,1.3*09
2017-12-29 10:51:27 1514562687.759446: $GPGSV,3,1,11,10,33,292,40,13,17,046,44,15,48,049,48,18,64,316,45*76
2017-12-29 10:51:27 1514562687.759657: $GPGSV,3,2,11,20,43,085,50,21,74,208,48,24,44,126,51,27,19,301,40*7F
2017-12-29 10:51:27 1514562687.759744: $GPGSV,3,3,11,32,12,231,30,08,01,331,02,138,38,213,45*72
2017-12-29 10:51:27 1514562687.873096: $GPZDA,155128.00,29,12,2017,00,00*60
2017-12-29 10:51:27 1514562687.873241: $GPGGA,155128,3946.9603,N,08404.9822,W,2,10,0.80,298.71,M,-33.324,M,,*70
2017-12-29 10:51:27 1514562687.873306: $GPRMC,155128,A,3946.9603,N,08404.9822,W,0.0000,0.000,291217,,*36
2017-12-29 10:51:27 1514562687.873366: $GPGSA,A,3,10,13,15,18,20,21,24,27,32,138,,,1.7,0.8,1.3*09
2017-12-29 10:51:28 1514562688.422709: $GPZDA,155129.00,29,12,2017,00,00*61
2017-12-29 10:51:28 1514562688.422844: $GPGGA,155129,3946.9603,N,08404.9822,W,2,10,0.80,298.71,M,-33.324,M,,*71
2017-12-29 10:51:28 1514562688.422910: $GPRMC,155129,A,3946.9603,N,08404.9822,W,0.0000,0.000,291217,,*37
2017-12-29 10:51:28 1514562688.422970: $GPGSA,A,3,10,13,15,18,20,21,24,27,32,138,,,1.7,0.8,1.3*09
2017-12-29 10:51:29 1514562689.419860: $GPZDA,155130.00,29,12,2017,00,00*69
2017-12-29 10:51:29 1514562689.420026: $GPGGA,155130,3946.9603,N,08404.9822,W,2,10,0.80,298.71,M,-33.324,M,,*79
2017-12-29 10:51:29 1514562689.420093: $GPRMC,155130,A,3946.9603,N,08404.9822,W,0.0000,0.000,291217,,*3F
2017-12-29 10:51:29 1514562689.420154: $GPGSA,A,3,10,13,15,18,20,21,24,27,32,138,,,1.7,0.8,1.3*09
2017-12-29 10:51:30 1514562690.759029: $GPGSV,3,1,11,10,33,292,40,13,17,046,44,15,48,049,48,18,64,316,44*77
2017-12-29 10:51:30 1514562690.759229: $GPGSV,3,2,11,20,43,085,50,21,74,208,47,24,44,126,50,27,19,301,40*71
2017-12-29 10:51:30 1514562690.759297: $GPGSV,3,3,11,32,12,231,30,08,01,331,00,138,38,213,46*73
2017-12-29 10:51:30 1514562690.872685: $GPZDA,155131.00,29,12,2017,00,00*68
2017-12-29 10:51:30 1514562690.872821: $GPGGA,155131,3946.9603,N,08404.9822,W,2,10,0.80,298.71,M,-33.324,M,,*78
2017-12-29 10:51:30 1514562690.872900: $GPRMC,155131,A,3946.9603,N,08404.9822,W,0.0000,0.000,291217,,*3E
2017-12-29 10:51:30 1514562690.872961: $GPGSA,A,3,10,13,15,18,20,21,24,27,32,138,,,1.7,0.8,1.3*09
2017-12-29 10:51:31 1514562691.422339: $GPZDA,155132.00,29,12,2017,00,00*6B
2017-12-29 10:51:31 1514562691.422493: $GPGGA,155132,3946.9600,N,08404.9823,W,2,10,0.80,299.47,M,-33.324,M,,*7D
2017-12-29 10:51:31 1514562691.422559: $GPRMC,155132,A,3946.9600,N,08404.9823,W,0.0000,0.000,291217,,*3F
2017-12-29 10:51:31 1514562691.422620: $GPGSA,A,3,10,13,15,18,20,21,24,27,32,138,,,1.7,0.8,1.3*09
2017-12-29 10:51:32 1514562692.421473: $GPZDA,155133.00,29,12,2017,00,00*6A
2017-12-29 10:51:32 1514562692.421639: $GPGGA,155133,3946.9600,N,08404.9823,W,2,10,0.80,299.47,M,-33.324,M,,*7C
2017-12-29 10:51:32 1514562692.421705: $GPRMC,155133,A,3946.9600,N,08404.9823,W,0.0000,0.000,291217,,*3E
2017-12-29 10:51:32 1514562692.421766: $GPGSA,A,3,10,13,15,18,20,21,24,27,32,138,,,1.7,0.8,1.3*09
2017-12-29 10:51:33 1514562693.758141: $GPGSV,3,1,11,10,33,292,41,13,17,046,44,15,48,049,49,18,64,316,44*77
2017-12-29 10:51:33 1514562693.758317: $GPGSV,3,2,11,20,43,085,50,21,74,208,48,24,44,126,51,27,19,301,41*7E
2017-12-29 10:51:33 1514562693.758383: $GPGSV,3,3,11,32,12,231,30,08,01,331,00,138,38,213,45*70
2017-12-29 10:51:33 1514562693.871792: $GPZDA,155134.00,29,12,2017,00,00*6D
2017-12-29 10:51:33 1514562693.871922: $GPGGA,155134,3946.9600,N,08404.9823,W,2,10,0.80,299.47,M,-33.324,M,,*7B
2017-12-29 10:51:33 1514562693.871985: $GPRMC,155134,A,3946.9600,N,08404.9823,W,0.0000,0.000,291217,,*39
2017-12-29 10:51:33 1514562693.872045: $GPGSA,A,3,10,13,15,18,20,21,24,27,32,138,,,1.7,0.8,1.3*09
2017-12-29 10:51:34 1514562694.422650: $GPZDA,155135.00,29,12,2017,00,00*6C
2017-12-29 10:51:34 1514562694.422791: $GPGGA,155135,3946.9600,N,08404.9823,W,2,10,0.80,299.47,M,-33.324,M,,*7A
2017-12-29 10:51:34 1514562694.422854: $GPRMC,155135,A,3946.9600,N,08404.9823,W,0.0000,0.000,291217,,*38
2017-12-29 10:51:34 1514562694.422913: $GPGSA,A,3,10,13,15,18,20,21,24,27,32,138,,,1.7,0.8,1.3*09
2017-12-29 10:51:35 1514562695.431030: $GPZDA,155136.00,29,12,2017,00,00*6F
2017-12-29 10:51:35 1514562695.431246: $GPGGA,155136,3946.9600,N,08404.9823,W,2,10,0.80,299.47,M,-33.324,M,,*79
2017-12-29 10:51:35 1514562695.431312: $GPRMC,155136,A,3946.9600,N,08404.9823,W,0.0000,0.000,291217,,*3B
2017-12-29 10:51:35 1514562695.431373: $GPGSA,A,3,10,13,15,18,20,21,24,27,32,138,,,1.7,0.8,1.3*09
2017-12-29 10:51:36 1514562696.760251: $GPGSV,3,1,11,10,33,292,41,13,17,046,44,15,48,049,49,18,64,316,44*77
2017-12-29 10:51:36 1514562696.760441: $GPGSV,3,2,11,20,43,085,50,21,74,208,48,24,44,126,51,27,19,301,41*7E
2017-12-29 10:51:36 1514562696.760508: $GPGSV,3,3,11,32,12,231,30,08,01,331,00,138,38,213,45*70
2017-12-29 10:51:36 1514562696.873878: $GPZDA,155137.00,29,12,2017,00,00*6E
2017-12-29 10:51:36 1514562696.874018: $GPGGA,155137,3946.9600,N,08404.9823,W,2,10,0.80,299.47,M,-33.324,M,,*78
2017-12-29 10:51:36 1514562696.874104: $GPRMC,155137,A,3946.9600,N,08404.9823,W,0.0000,0.000,291217,,*3A
2017-12-29 10:51:36 1514562696.874164: $GPGSA,A,3,10,13,15,18,20,21,24,27,32,138,,,1.7,0.8,1.3*09
2017-12-29 10:51:37 1514562697.499270: $GPZDA,155138.00,29,12,2017,00,00*61
2017-12-29 10:51:37 1514562697.499454: $GPGGA,155138,3946.9600,N,08404.9823,W,2,10,0.80,299.47,M,-33.324,M,,*77
2017-12-29 10:51:37 1514562697.499519: $GPRMC,155138,A,3946.9600,N,08404.9823,W,0.0000,0.000,291217,,*35
2017-12-29 10:51:37 1514562697.499579: $GPGSA,A,3,10,13,15,18,20,21,24,27,32,138,,,1.7,0.8,1.3*09
