2017-12-01 11:42:35 1512146555.566534: {"class":"VERSION","release":"3.16","rev":"3.16-4","proto_major":3,"proto_minor":11}
2017-12-01 11:42:35 1512146555.566997: {"class":"DEVICES","devices":[{"class":"DEVICE","path":"/dev/ttyUSB0","driver":"SiRF","subtype":"9\u0006GSD4e_4.1.2-P1_RPATCH.05-F-GPS-4R-1510281 11/03/2015 307","activated":"2017-12-01T16:42:35.501Z","flags":1,"native":1,"bps":4800,"parity":"N","stopbits":1,"cycle":1.00}]}
2017-12-01 11:42:35 1512146555.567126: {"class":"WATCH","enable":true,"json":false,"nmea":true,"raw":0,"scaled":false,"timing":false,"split24":false,"pps":false}
2017-12-01 11:42:36 1512146556.696549: $GPGSV,3,1,12,05,14,076,37,10,13,271,40,13,43,051,47,15,76,073,48*71
2017-12-01 11:42:36 1512146556.696726: $GPGSV,3,2,12,18,43,285,46,20,63,049,42,21,66,306,45,24,20,148,41*7F
2017-12-01 11:42:36 1512146556.696792: $GPGSV,3,3,12,27,08,324,44,29,25,195,41,04,13,130,00,138,38,213,46*41
2017-12-01 11:42:36 1512146556.810010: $GPZDA,164237.00,01,12,2017,00,00*65
2017-12-01 11:42:36 1512146556.810176: $GPGGA,164237,3946.9553,N,08404.9823,W,2,11,0.80,305.27,M,-33.324,M,,*7F
2017-12-01 11:42:36 1512146556.810241: $GPRMC,164237,A,3946.9553,N,08404.9823,W,0.0000,0.000,011217,,*34
2017-12-01 11:42:36 1512146556.810301: $GPGSA,A,3,5,10,13,15,18,20,21,24,27,29,138,,2.0,0.8,1.5*34
2017-12-01 11:42:37 1512146557.435375: $GPZDA,164238.00,01,12,2017,00,00*6A
2017-12-01 11:42:37 1512146557.435534: $GPGGA,164238,3946.9553,N,08404.9823,W,2,11,0.80,305.27,M,-33.324,M,,*70
2017-12-01 11:42:37 1512146557.435600: $GPRMC,164238,A,3946.9553,N,08404.9823,W,0.0000,0.000,011217,,*3B
2017-12-01 11:42:37 1512146557.435661: $GPGSA,A,3,5,10,13,15,18,20,21,24,27,29,138,,2.0,0.8,1.5*34
2017-12-01 11:42:38 1512146558.360109: $GPZDA,164239.00,01,12,2017,00,00*6B
2017-12-01 11:42:38 1512146558.360279: $GPGGA,164239,3946.9556,N,08404.9823,W,2,11,0.80,304.51,M,-33.324,M,,*74
2017-12-01 11:42:38 1512146558.360345: $GPRMC,164239,A,3946.9556,N,08404.9823,W,0.0000,0.000,011217,,*3F
2017-12-01 11:42:38 1512146558.360406: $GPGSA,A,3,5,10,13,15,18,20,21,24,27,29,138,,2.0,0.8,1.5*34
2017-12-01 11:42:39 1512146559.695412: $GPGSV,3,1,12,05,14,076,37,10,13,271,39,13,43,051,46,15,76,073,47*71
2017-12-01 11:42:39 1512146559.695594: $GPGSV,3,2,12,18,43,285,46,20,63,049,42,21,66,306,45,24,20,148,41*7F
2017-12-01 11:42:39 1512146559.695662: $GPGSV,3,3,12,27,08,324,44,29,25,195,42,04,13,130,00,138,38,213,46*42
2017-12-01 11:42:39 1512146559.809066: $GPZDA,164240.00,01,12,2017,00,00*65
2017-12-01 11:42:39 1512146559.809239: $GPGGA,164240,3946.9556,N,08404.9823,W,2,11,0.80,304.51,M,-33.324,M,,*7A
2017-12-01 11:42:39 1512146559.809304: $GPRMC,164240,A,3946.9556,N,08404.9823,W,0.0000,0.000,011217,,*31
2017-12-01 11:42:39 1512146559.809365: $GPGSA,A,3,5,10,13,15,18,20,21,24,27,29,138,,2.0,0.8,1.5*34
2017-12-01 11:42:40 1512146560.360925: $GPZDA,164241.00,01,12,2017,00,00*64
2017-12-01 11:42:40 1512146560.361129: $GPGGA,164241,3946.9556,N,08404.9823,W,2,11,0.80,304.51,M,-33.324,M,,*7B
2017-12-01 11:42:40 1512146560.361222: $GPRMC,164241,A,3946.9556,N,08404.9823,W,0.0000,0.000,011217,,*30
2017-12-01 11:42:40 1512146560.361286: $GPGSA,A,3,5,10,13,15,18,20,21,24,27,29,138,,2.0,0.8,1.5*34
2017-12-01 11:42:41 1512146561.360627: $GPZDA,164242.00,01,12,2017,00,00*67
2017-12-01 11:42:41 1512146561.360810: $GPGGA,164242,3946.9556,N,08404.9823,W,2,11,0.80,304.51,M,-33.324,M,,*78
2017-12-01 11:42:41 1512146561.360894: $GPRMC,164242,A,3946.9556,N,08404.9823,W,0.0000,0.000,011217,,*33
2017-12-01 11:42:41 1512146561.360956: $GPGSA,A,3,5,10,13,15,18,20,21,24,27,29,138,,2.0,0.8,1.5*34
2017-12-01 11:42:42 1512146562.698253: $GPGSV,3,1,12,05,14,076,37,10,13,271,39,13,43,051,47,15,76,073,47*70
2017-12-01 11:42:42 1512146562.698437: $GPGSV,3,2,12,18,43,285,46,20,63,049,41,21,66,306,45,24,20,148,40*7D
2017-12-01 11:42:42 1512146562.698505: $GPGSV,3,3,12,27,08,324,45,29,25,195,43,04,13,130,00,138,38,213,46*42
2017-12-01 11:42:42 1512146562.811717: $GPZDA,164243.00,01,12,2017,00,00*66
2017-12-01 11:42:42 1512146562.811912: $GPGGA,164243,3946.9556,N,08404.9823,W,2,11,0.80,304.51,M,-33.324,M,,*79
2017-12-01 11:42:42 1512146562.812033: $GPRMC,164243,A,3946.9556,N,08404.9823,W,0.0000,0.000,011217,,*32
2017-12-01 11:42:42 1512146562.812097: $GPGSA,A,3,5,10,13,15,18,20,21,24,27,29,138,,2.0,0.8,1.5*34
2017-12-01 11:42:43 1512146563.361338: $GPZDA,164244.00,01,12,2017,00,00*61
2017-12-01 11:42:43 1512146563.361606: $GPGGA,164244,3946.9556,N,08404.9823,W,2,11,0.80,304.51,M,-33.324,M,,*7E
2017-12-01 11:42:43 1512146563.361710: $GPRMC,164244,A,3946.9556,N,08404.9823,W,0.0000,0.000,011217,,*35
2017-12-01 11:42:43 1512146563.361777: $GPGSA,A,3,5,10,13,15,18,20,21,24,27,29,138,,2.0,0.8,1.5*34
2017-12-01 11:42:44 1512146564.367711: $GPZDA,164245.00,01,12,2017,00,00*60
2017-12-01 11:42:44 1512146564.367918: $GPGGA,164245,3946.9556,N,08404.9823,W,2,11,0.80,304.51,M,-33.324,M,,*7F
2017-12-01 11:42:44 1512146564.367989: $GPRMC,164245,A,3946.9556,N,08404.9823,W,0.0000,0.000,011217,,*34
2017-12-01 11:42:44 1512146564.368053: $GPGSA,A,3,5,10,13,15,18,20,21,24,27,29,138,,2.0,0.8,1.5*34
