2017-11-16 13:49:13 1510858153.485608: {"class":"VERSION","release":"3.17","rev":"3.17","proto_major":3,"proto_minor":12}
2017-11-16 13:49:13 1510858153.486074: {"class":"DEVICES","devices":[{"class":"DEVICE","path":"/dev/ttyUSB0","driver":"SiRF","subtype":"9\u0006GSD4e_4.1.2-P1_RPATCH.05-F-GPS-4R-1510281 11/03/2015 307","activated":"2017-11-16T18:49:13.216Z","flags":1,"native":1,"bps":4800,"parity":"N","stopbits":1,"cycle":1.00}]}
2017-11-16 13:49:13 1510858153.486198: {"class":"WATCH","enable":true,"json":false,"nmea":true,"raw":0,"scaled":false,"timing":false,"split24":false,"pps":false}
2017-11-16 13:49:13 1510858153.665622: $GPGSV,3,1,11,10,33,292,39,13,17,046,44,15,48,049,51,18,63,316,48*7A
2017-11-16 13:49:13 1510858153.665802: $GPGSV,3,2,11,20,41,085,48,21,74,208,47,24,44,126,44,27,19,300,35*7C
2017-11-16 13:49:13 1510858153.665862: $GPGSV,3,3,11,32,11,231,22,08,02,330,24,138,38,213,44*75
2017-11-16 13:49:13 1510858153.778929: $GPZDA,184912.00,16,11,2017,00,00*62
2017-11-16 13:49:13 1510858153.779089: $GPGGA,184912,3946.9603,N,08404.9827,W,2,11,0.80,306.49,M,-33.324,M,,*74
2017-11-16 13:49:13 1510858153.779151: $GPRMC,184912,A,3946.9603,N,08404.9827,W,0.0000,0.000,161117,,*31
2017-11-16 13:49:13 1510858153.779206: $GPGSA,A,3,10,13,15,18,20,21,24,27,32,8,138,,1.6,0.8,1.3*30
2017-11-16 13:49:14 1510858154.353746: $GPZDA,184913.00,16,11,2017,00,00*63
2017-11-16 13:49:14 1510858154.353934: $GPGGA,184913,3946.9603,N,08404.9827,W,2,11,0.80,306.49,M,-33.324,M,,*75
2017-11-16 13:49:14 1510858154.353996: $GPRMC,184913,A,3946.9603,N,08404.9827,W,0.0000,0.000,161117,,*30
2017-11-16 13:49:14 1510858154.354052: $GPGSA,A,3,10,13,15,18,20,21,24,27,32,8,138,,1.6,0.8,1.3*30
2017-11-16 13:49:15 1510858155.354755: $GPZDA,184914.00,16,11,2017,00,00*64
2017-11-16 13:49:15 1510858155.354940: $GPGGA,184914,3946.9603,N,08404.9827,W,2,11,0.80,306.49,M,-33.324,M,,*72
2017-11-16 13:49:15 1510858155.355001: $GPRMC,184914,A,3946.9603,N,08404.9827,W,0.0000,0.000,161117,,*37
2017-11-16 13:49:15 1510858155.355058: $GPGSA,A,3,10,13,15,18,20,21,24,27,32,8,138,,1.6,0.8,1.3*30
2017-11-16 13:49:16 1510858156.665669: $GPGSV,3,1,11,10,33,292,40,13,17,046,45,15,48,049,51,18,63,316,48*75
2017-11-16 13:49:16 1510858156.665839: $GPGSV,3,2,11,20,41,085,49,21,74,208,47,24,44,126,44,27,19,300,35*7D
2017-11-16 13:49:16 1510858156.665899: $GPGSV,3,3,11,32,11,231,20,08,02,330,24,138,38,213,45*76
2017-11-16 13:49:16 1510858156.778961: $GPZDA,184915.00,16,11,2017,00,00*65
2017-11-16 13:49:16 1510858156.779126: $GPGGA,184915,3946.9603,N,08404.9827,W,2,11,0.80,306.49,M,-33.324,M,,*73
2017-11-16 13:49:16 1510858156.779187: $GPRMC,184915,A,3946.9603,N,08404.9827,W,0.0000,0.000,161117,,*36
2017-11-16 13:49:16 1510858156.779243: $GPGSA,A,3,10,13,15,18,20,21,24,27,32,8,138,,1.6,0.8,1.3*30
2017-11-16 13:49:17 1510858157.404446: $GPZDA,184916.00,16,11,2017,00,00*66
2017-11-16 13:49:17 1510858157.404657: $GPGGA,184916,3946.9603,N,08404.9827,W,2,11,0.80,306.49,M,-33.324,M,,*70
2017-11-16 13:49:17 1510858157.404743: $GPRMC,184916,A,3946.9603,N,08404.9827,W,0.0000,0.000,161117,,*35
2017-11-16 13:49:17 1510858157.404802: $GPGSA,A,3,10,13,15,18,20,21,24,27,32,8,138,,1.6,0.8,1.3*30
2017-11-16 13:49:18 1510858158.329562: $GPZDA,184917.00,16,11,2017,00,00*67
2017-11-16 13:49:18 1510858158.329719: $GPGGA,184917,3946.9603,N,08404.9827,W,2,11,0.80,306.49,M,-33.324,M,,*71
2017-11-16 13:49:18 1510858158.329779: $GPRMC,184917,A,3946.9603,N,08404.9827,W,0.0000,0.000,161117,,*34
2017-11-16 13:49:18 1510858158.329836: $GPGSA,A,3,10,13,15,18,20,21,24,27,32,8,138,,1.6,0.8,1.3*30
2017-11-16 13:49:19 1510858159.692782: $GPGSV,3,1,11,10,33,292,41,13,17,046,45,15,48,049,51,18,63,316,48*74
2017-11-16 13:49:19 1510858159.692952: $GPGSV,3,2,11,20,41,085,49,21,74,208,47,24,44,126,44,27,19,300,35*7D
2017-11-16 13:49:19 1510858159.693011: $GPGSV,3,3,11,32,11,231,20,08,02,330,25,138,38,213,42*70
2017-11-16 13:49:19 1510858159.806524: $GPZDA,184918.00,16,11,2017,00,00*68
2017-11-16 13:49:19 1510858159.806689: $GPGGA,184918,3946.9603,N,08404.9827,W,2,11,0.80,306.49,M,-33.324,M,,*7E
2017-11-16 13:49:19 1510858159.806804: $GPRMC,184918,A,3946.9603,N,08404.9827,W,0.0000,0.000,161117,,*3B
2017-11-16 13:49:19 1510858159.806861: $GPGSA,A,3,10,13,15,18,20,21,24,27,32,8,138,,1.6,0.8,1.3*30
2017-11-16 13:49:20 1510858160.355796: $GPZDA,184919.00,16,11,2017,00,00*69
2017-11-16 13:49:20 1510858160.355956: $GPGGA,184919,3946.9603,N,08404.9827,W,2,11,0.80,306.49,M,-33.324,M,,*7F
2017-11-16 13:49:20 1510858160.356017: $GPRMC,184919,A,3946.9603,N,08404.9827,W,0.0000,0.000,161117,,*3A
2017-11-16 13:49:20 1510858160.356072: $GPGSA,A,3,10,13,15,18,20,21,24,27,32,8,138,,1.6,0.8,1.3*30
2017-11-16 13:49:21 1510858161.330594: $GPZDA,184920.00,16,11,2017,00,00*63
2017-11-16 13:49:21 1510858161.330755: $GPGGA,184920,3946.9603,N,08404.9827,W,2,11,0.80,306.49,M,-33.324,M,,*75
2017-11-16 13:49:21 1510858161.330816: $GPRMC,184920,A,3946.9603,N,08404.9827,W,0.0000,0.000,161117,,*30
2017-11-16 13:49:21 1510858161.330871: $GPGSA,A,3,10,13,15,18,20,21,24,27,32,8,138,,1.6,0.8,1.3*30
2017-11-16 13:49:22 1510858162.665972: $GPGSV,3,1,11,10,33,292,41,13,17,046,45,15,48,049,51,18,63,316,48*74
2017-11-16 13:49:22 1510858162.666144: $GPGSV,3,2,11,20,41,085,49,21,74,208,47,24,44,126,44,27,19,300,34*7C
2017-11-16 13:49:22 1510858162.666205: $GPGSV,3,3,11,32,11,231,20,08,02,330,27,138,38,213,43*73
2017-11-16 13:49:22 1510858162.778140: $GPZDA,184921.00,16,11,2017,00,00*62
2017-11-16 13:49:22 1510858162.778312: $GPGGA,184921,3946.9603,N,08404.9827,W,2,11,0.80,306.49,M,-33.324,M,,*74
2017-11-16 13:49:22 1510858162.778392: $GPRMC,184921,A,3946.9603,N,08404.9827,W,0.0000,0.000,161117,,*31
2017-11-16 13:49:22 1510858162.778450: $GPGSA,A,3,10,13,15,18,20,21,24,27,32,8,138,,1.6,0.8,1.3*30
2017-11-16 13:49:23 1510858163.330237: $GPZDA,184922.00,16,11,2017,00,00*61
2017-11-16 13:49:23 1510858163.330475: $GPGGA,184922,3946.9603,N,08404.9827,W,2,11,0.80,306.49,M,-33.324,M,,*77
2017-11-16 13:49:23 1510858163.330538: $GPRMC,184922,A,3946.9603,N,08404.9827,W,0.0000,0.000,161117,,*32
2017-11-16 13:49:23 1510858163.330594: $GPGSA,A,3,10,13,15,18,20,21,24,27,32,8,138,,1.6,0.8,1.3*30
