2017-12-01 17:05:02 1512165902.616771: {"class":"VERSION","release":"3.16","rev":"3.16-4","proto_major":3,"proto_minor":11}
2017-12-01 17:05:02 1512165902.617194: {"class":"DEVICES","devices":[{"class":"DEVICE","path":"/dev/ttyUSB0","driver":"SiRF","subtype":"9\u0006GSD4e_4.1.2-P1_RPATCH.05-F-GPS-4R-1510281 11/03/2015 307","activated":"2017-12-01T22:05:02.570Z","flags":1,"native":1,"bps":4800,"parity":"N","stopbits":1,"cycle":1.00}]}
2017-12-01 17:05:02 1512165902.617319: {"class":"WATCH","enable":true,"json":false,"nmea":true,"raw":0,"scaled":false,"timing":false,"split24":false,"pps":false}
2017-12-01 17:05:03 1512165903.769133: $GPGSV,3,1,12,01,21,285,42,03,13,316,42,10,31,154,37,12,14,037,19*7D
2017-12-01 17:05:03 1512165903.769318: $GPGSV,3,2,12,14,70,010,46,22,32,309,47,25,40,069,31,26,16,180,38*7D
2017-12-01 17:05:03 1512165903.769386: $GPGSV,3,3,12,31,72,247,49,32,61,064,46,18,03,148,00,138,38,213,35*47
2017-12-01 17:05:03 1512165903.882844: $GPZDA,220504.00,01,12,2017,00,00*61
2017-12-01 17:05:03 1512165903.883018: $GPGGA,220504,3946.9635,N,08404.9733,W,2,11,0.80,294.82,M,-33.324,M,,*70
2017-12-01 17:05:03 1512165903.883087: $GPRMC,220504,A,3946.9635,N,08404.9733,W,0.0000,0.000,011217,,*3D
2017-12-01 17:05:03 1512165903.883149: $GPGSA,A,3,1,3,10,12,14,22,25,26,31,32,138,,2.0,0.8,1.5*03
2017-12-01 17:05:04 1512165904.508021: $GPZDA,220505.00,01,12,2017,00,00*60
2017-12-01 17:05:04 1512165904.508198: $GPGGA,220505,3946.9635,N,08404.9733,W,2,11,0.80,294.82,M,-33.324,M,,*71
2017-12-01 17:05:04 1512165904.508266: $GPRMC,220505,A,3946.9635,N,08404.9733,W,0.0000,0.000,011217,,*3C
2017-12-01 17:05:04 1512165904.508328: $GPGSA,A,3,1,3,10,12,14,22,25,26,31,32,138,,2.0,0.8,1.5*03
2017-12-01 17:05:05 1512165905.435411: $GPZDA,220506.00,01,12,2017,00,00*63
2017-12-01 17:05:05 1512165905.435585: $GPGGA,220506,3946.9635,N,08404.9733,W,2,11,1.00,294.82,M,-33.324,M,,*7B
2017-12-01 17:05:05 1512165905.435651: $GPRMC,220506,A,3946.9635,N,08404.9733,W,0.0000,0.000,011217,,*3F
2017-12-01 17:05:05 1512165905.435714: $GPGSA,A,3,1,3,10,12,14,22,25,26,31,32,138,,2.0,1.0,1.5*0A
2017-12-01 17:05:06 1512165906.770837: $GPGSV,3,1,12,01,21,285,42,03,13,316,42,10,31,154,37,12,14,037,08*7D
2017-12-01 17:05:06 1512165906.771074: $GPGSV,3,2,12,14,70,010,46,22,32,309,46,25,40,069,31,26,16,180,37*73
2017-12-01 17:05:06 1512165906.771142: $GPGSV,3,3,12,31,72,247,49,32,61,064,46,18,03,148,00,138,38,213,38*4A
2017-12-01 17:05:06 1512165906.884119: $GPZDA,220507.00,01,12,2017,00,00*62
2017-12-01 17:05:06 1512165906.884307: $GPGGA,220507,3946.9635,N,08404.9733,W,2,11,1.00,294.82,M,-33.324,M,,*7A
2017-12-01 17:05:06 1512165906.884376: $GPRMC,220507,A,3946.9635,N,08404.9733,W,0.0000,0.000,011217,,*3E
2017-12-01 17:05:06 1512165906.884438: $GPGSA,A,3,1,3,10,12,14,22,25,26,31,32,138,,2.0,1.0,1.5*0A
2017-12-01 17:05:07 1512165907.443736: $GPZDA,220508.00,01,12,2017,00,00*6D
2017-12-01 17:05:07 1512165907.443925: $GPGGA,220508,3946.9635,N,08404.9733,W,2,11,0.80,294.82,M,-33.324,M,,*7C
2017-12-01 17:05:07 1512165907.444013: $GPRMC,220508,A,3946.9635,N,08404.9733,W,0.0000,0.000,011217,,*31
2017-12-01 17:05:07 1512165907.444080: $GPGSA,A,3,1,3,10,12,14,22,25,26,31,32,138,,2.0,0.8,1.5*03
2017-12-01 17:05:08 1512165908.428374: $GPZDA,220509.00,01,12,2017,00,00*6C
2017-12-01 17:05:08 1512165908.428549: $GPGGA,220509,3946.9635,N,08404.9733,W,2,11,0.80,294.82,M,-33.324,M,,*7D
2017-12-01 17:05:08 1512165908.428617: $GPRMC,220509,A,3946.9635,N,08404.9733,W,0.0000,0.000,011217,,*30
2017-12-01 17:05:08 1512165908.428680: $GPGSA,A,3,1,3,10,12,14,22,25,26,31,32,138,,2.0,0.8,1.5*03
2017-12-01 17:05:09 1512165909.787389: $GPGSV,3,1,12,01,21,285,42,03,13,316,41,10,31,154,37,12,14,037,09*7F
2017-12-01 17:05:09 1512165909.787570: $GPGSV,3,2,12,14,70,010,46,22,32,309,46,25,40,069,31,26,16,180,36*72
2017-12-01 17:05:09 1512165909.787638: $GPGSV,3,3,12,31,72,247,48,32,61,064,47,18,03,148,00,138,38,213,40*45
2017-12-01 17:05:09 1512165909.900681: $GPZDA,220510.00,01,12,2017,00,00*64
2017-12-01 17:05:09 1512165909.900831: $GPGGA,220510,3946.9635,N,08404.9733,W,2,11,0.80,294.82,M,-33.324,M,,*75
2017-12-01 17:05:09 1512165909.900955: $GPRMC,220510,A,3946.9635,N,08404.9733,W,0.0000,0.000,011217,,*38
2017-12-01 17:05:09 1512165909.901020: $GPGSA,A,3,1,3,10,12,14,22,25,26,31,32,138,,2.0,0.8,1.5*03
2017-12-01 17:05:10 1512165910.451812: $GPZDA,220511.00,01,12,2017,00,00*65
2017-12-01 17:05:10 1512165910.452002: $GPGGA,220511,3946.9635,N,08404.9733,W,2,11,0.80,294.82,M,-33.324,M,,*74
2017-12-01 17:05:10 1512165910.452076: $GPRMC,220511,A,3946.9635,N,08404.9733,W,0.0000,0.000,011217,,*39
2017-12-01 17:05:10 1512165910.452139: $GPGSA,A,3,1,3,10,12,14,22,25,26,31,32,138,,2.0,0.8,1.5*03
2017-12-01 17:05:11 1512165911.450229: $GPZDA,220512.00,01,12,2017,00,00*66
2017-12-01 17:05:11 1512165911.450406: $GPGGA,220512,3946.9635,N,08404.9733,W,2,11,0.80,294.82,M,-33.324,M,,*77
2017-12-01 17:05:11 1512165911.450474: $GPRMC,220512,A,3946.9635,N,08404.9733,W,0.0000,0.000,011217,,*3A
2017-12-01 17:05:11 1512165911.450537: $GPGSA,A,3,1,3,10,12,14,22,25,26,31,32,138,,2.0,0.8,1.5*03
2017-12-01 17:05:12 1512165912.787242: $GPGSV,3,1,12,01,21,285,42,03,13,316,41,10,31,154,36,12,14,037,23*76
2017-12-01 17:05:12 1512165912.787443: $GPGSV,3,2,12,14,70,010,46,22,32,309,46,25,40,069,31,26,16,180,32*76
2017-12-01 17:05:12 1512165912.787514: $GPGSV,3,3,12,31,72,247,48,32,61,064,47,18,03,148,00,138,38,213,40*45
2017-12-01 17:05:12 1512165912.900697: $GPZDA,220513.00,01,12,2017,00,00*67
2017-12-01 17:05:12 1512165912.900886: $GPGGA,220513,3946.9635,N,08404.9733,W,2,11,0.80,294.82,M,-33.324,M,,*76
2017-12-01 17:05:12 1512165912.900953: $GPRMC,220513,A,3946.9635,N,08404.9733,W,0.0000,0.000,011217,,*3B
2017-12-01 17:05:12 1512165912.901017: $GPGSA,A,3,1,3,10,12,14,22,25,26,31,32,138,,2.0,0.8,1.5*03
2017-12-01 17:05:13 1512165913.437030: $GPZDA,220514.00,01,12,2017,00,00*60
2017-12-01 17:05:13 1512165913.437205: $GPGGA,220514,3946.9635,N,08404.9733,W,2,11,0.80,294.82,M,-33.324,M,,*71
2017-12-01 17:05:13 1512165913.437273: $GPRMC,220514,A,3946.9635,N,08404.9733,W,0.0000,0.000,011217,,*3C
2017-12-01 17:05:13 1512165913.437334: $GPGSA,A,3,1,3,10,12,14,22,25,26,31,32,138,,2.0,0.8,1.5*03
2017-12-01 17:05:14 1512165914.434376: $GPZDA,220515.00,01,12,2017,00,00*61
2017-12-01 17:05:14 1512165914.434555: $GPGGA,220515,3946.9635,N,08404.9733,W,2,11,0.80,294.82,M,-33.324,M,,*70
2017-12-01 17:05:14 1512165914.434624: $GPRMC,220515,A,3946.9635,N,08404.9733,W,0.0000,0.000,011217,,*3D
2017-12-01 17:05:14 1512165914.434685: $GPGSA,A,3,1,3,10,12,14,22,25,26,31,32,138,,2.0,0.8,1.5*03
2017-12-01 17:05:15 1512165915.770185: $GPGSV,3,1,12,01,21,285,42,03,13,316,42,10,31,154,36,12,14,037,25*73
2017-12-01 17:05:15 1512165915.770370: $GPGSV,3,2,12,14,70,010,46,22,32,309,46,25,40,069,31,26,16,180,34*70
2017-12-01 17:05:15 1512165915.770435: $GPGSV,3,3,12,31,72,247,48,32,61,064,46,18,03,148,00,138,38,213,38*4B
2017-12-01 17:05:15 1512165915.883855: $GPZDA,220516.00,01,12,2017,00,00*62
2017-12-01 17:05:15 1512165915.884027: $GPGGA,220516,3946.9635,N,08404.9733,W,2,11,0.80,294.82,M,-33.324,M,,*73
2017-12-01 17:05:15 1512165915.884095: $GPRMC,220516,A,3946.9635,N,08404.9733,W,0.0000,0.000,011217,,*3E
2017-12-01 17:05:15 1512165915.884158: $GPGSA,A,3,1,3,10,12,14,22,25,26,31,32,138,,2.0,0.8,1.5*03
2017-12-01 17:05:16 1512165916.450890: $GPZDA,220517.00,01,12,2017,00,00*63
2017-12-01 17:05:16 1512165916.451054: $GPGGA,220517,3946.9635,N,08404.9733,W,2,11,0.80,294.82,M,-33.324,M,,*72
2017-12-01 17:05:16 1512165916.451123: $GPRMC,220517,A,3946.9635,N,08404.9733,W,0.0000,0.000,011217,,*3F
2017-12-01 17:05:16 1512165916.451184: $GPGSA,A,3,1,3,10,12,14,22,25,26,31,32,138,,2.0,0.8,1.5*03
2017-12-01 17:05:17 1512165917.435599: $GPZDA,220518.00,01,12,2017,00,00*6C
2017-12-01 17:05:17 1512165917.435779: $GPGGA,220518,3946.9635,N,08404.9733,W,2,11,0.80,294.82,M,-33.324,M,,*7D
2017-12-01 17:05:17 1512165917.435849: $GPRMC,220518,A,3946.9635,N,08404.9733,W,0.0000,0.000,011217,,*30
2017-12-01 17:05:17 1512165917.435914: $GPGSA,A,3,1,3,10,12,14,22,25,26,31,32,138,,2.0,0.8,1.5*03
2017-12-01 17:05:18 1512165918.782206: $GPGSV,3,1,12,01,21,285,42,03,13,316,42,10,31,154,37,12,14,037,26*71
2017-12-01 17:05:18 1512165918.782403: $GPGSV,3,2,12,14,70,010,46,22,32,309,45,25,40,069,32,26,16,180,35*71
2017-12-01 17:05:18 1512165918.782473: $GPGSV,3,3,12,31,72,247,48,32,61,064,47,18,03,148,00,138,38,213,40*45
2017-12-01 17:05:18 1512165918.895579: $GPZDA,220519.00,01,12,2017,00,00*6D
2017-12-01 17:05:18 1512165918.895745: $GPGGA,220519,3946.9635,N,08404.9733,W,2,11,0.80,294.82,M,-33.324,M,,*7C
2017-12-01 17:05:18 1512165918.895814: $GPRMC,220519,A,3946.9635,N,08404.9733,W,0.0000,0.000,011217,,*31
2017-12-01 17:05:18 1512165918.895880: $GPGSA,A,3,1,3,10,12,14,22,25,26,31,32,138,,2.0,0.8,1.5*03
2017-12-01 17:05:19 1512165919.521052: $GPZDA,220520.00,01,12,2017,00,00*67
2017-12-01 17:05:19 1512165919.521230: $GPGGA,220520,3946.9635,N,08404.9733,W,2,11,0.80,294.82,M,-33.324,M,,*76
2017-12-01 17:05:19 1512165919.521297: $GPRMC,220520,A,3946.9635,N,08404.9733,W,0.0000,0.000,011217,,*3B
2017-12-01 17:05:19 1512165919.521415: $GPGSA,A,3,1,3,10,12,14,22,25,26,31,32,138,,2.0,0.8,1.5*03
2017-12-01 17:05:20 1512165920.449297: $GPZDA,220521.00,01,12,2017,00,00*66
2017-12-01 17:05:20 1512165920.449470: $GPGGA,220521,3946.9635,N,08404.9733,W,2,11,0.80,294.82,M,-33.324,M,,*77
2017-12-01 17:05:20 1512165920.449538: $GPRMC,220521,A,3946.9635,N,08404.9733,W,0.0000,0.000,011217,,*3A
2017-12-01 17:05:20 1512165920.449602: $GPGSA,A,3,1,3,10,12,14,22,25,26,31,32,138,,2.0,0.8,1.5*03
2017-12-01 17:05:21 1512165921.771269: $GPGSV,3,1,12,01,21,285,42,03,13,316,42,10,31,154,37,12,14,037,27*70
2017-12-01 17:05:21 1512165921.771492: $GPGSV,3,2,12,14,70,010,46,22,32,309,45,25,40,069,32,26,16,180,36*72
2017-12-01 17:05:21 1512165921.771562: $GPGSV,3,3,12,31,72,247,48,32,61,064,47,18,03,148,00,138,38,213,41*44
2017-12-01 17:05:21 1512165921.883410: $GPZDA,220522.00,01,12,2017,00,00*65
2017-12-01 17:05:21 1512165921.883604: $GPGGA,220522,3946.9635,N,08404.9733,W,2,11,0.80,294.82,M,-33.324,M,,*74
2017-12-01 17:05:21 1512165921.883673: $GPRMC,220522,A,3946.9635,N,08404.9733,W,0.0000,0.000,011217,,*39
2017-12-01 17:05:21 1512165921.883739: $GPGSA,A,3,1,3,10,12,14,22,25,26,31,32,138,,2.0,0.8,1.5*03
2017-12-01 17:05:22 1512165922.452127: $GPZDA,220523.00,01,12,2017,00,00*64
2017-12-01 17:05:22 1512165922.452300: $GPGGA,220523,3946.9635,N,08404.9733,W,2,11,0.80,294.82,M,-33.324,M,,*75
2017-12-01 17:05:22 1512165922.452369: $GPRMC,220523,A,3946.9635,N,08404.9733,W,0.0000,0.000,011217,,*38
2017-12-01 17:05:22 1512165922.452431: $GPGSA,A,3,1,3,10,12,14,22,25,26,31,32,138,,2.0,0.8,1.5*03
