2017-12-01 11:47:08 1512146828.567389: {"class":"VERSION","release":"3.16","rev":"3.16-4","proto_major":3,"proto_minor":11}
2017-12-01 11:47:08 1512146828.567767: {"class":"DEVICES","devices":[{"class":"DEVICE","path":"/dev/ttyUSB0","driver":"SiRF","subtype":"9\u0006GSD4e_4.1.2-P1_RPATCH.05-F-GPS-4R-1510281 11/03/2015 307","activated":"2017-12-01T16:47:08.558Z","flags":1,"native":1,"bps":4800,"parity":"N","stopbits":1,"cycle":1.00}]}
2017-12-01 11:47:08 1512146828.567891: {"class":"WATCH","enable":true,"json":false,"nmea":true,"raw":0,"scaled":false,"timing":false,"split24":false,"pps":false}
2017-12-01 11:47:09 1512146829.755062: $GPGSV,3,1,12,05,13,078,18,13,42,049,46,15,74,069,47,18,44,286,44*7C
2017-12-01 11:47:09 1512146829.755254: $GPGSV,3,2,12,20,61,052,43,21,68,304,46,24,21,148,42,27,09,324,37*75
2017-12-01 11:47:09 1512146829.755321: $GPGSV,3,3,12,29,23,195,45,10,14,273,37,04,11,130,00,138,38,213,46*4F
2017-12-01 11:47:09 1512146829.868590: $GPZDA,164710.00,01,12,2017,00,00*65
2017-12-01 11:47:09 1512146829.868766: $GPGGA,164710,3946.9582,N,08404.9852,W,2,11,0.80,298.76,M,-33.324,M,,*74
2017-12-01 11:47:09 1512146829.868834: $GPRMC,164710,A,3946.9582,N,08404.9852,W,0.0000,0.000,011217,,*3E
2017-12-01 11:47:09 1512146829.868895: $GPGSA,A,3,5,13,15,18,20,21,24,27,29,10,138,,2.0,0.8,1.5*34
2017-12-01 11:47:10 1512146830.494158: $GPZDA,164711.00,01,12,2017,00,00*64
2017-12-01 11:47:10 1512146830.494368: $GPGGA,164711,3946.9582,N,08404.9852,W,2,11,0.80,298.76,M,-33.324,M,,*75
2017-12-01 11:47:10 1512146830.494439: $GPRMC,164711,A,3946.9582,N,08404.9852,W,0.0000,0.000,011217,,*3F
2017-12-01 11:47:10 1512146830.494520: $GPGSA,A,3,5,13,15,18,20,21,24,27,29,10,138,,2.0,0.8,1.5*34
2017-12-01 11:47:11 1512146831.413630: $GPZDA,164712.00,01,12,2017,00,00*67
2017-12-01 11:47:11 1512146831.413816: $GPGGA,164712,3946.9582,N,08404.9852,W,2,11,0.80,298.76,M,-33.324,M,,*76
2017-12-01 11:47:11 1512146831.413885: $GPRMC,164712,A,3946.9582,N,08404.9852,W,0.0000,0.000,011217,,*3C
2017-12-01 11:47:11 1512146831.413947: $GPGSA,A,3,5,13,15,18,20,21,24,27,29,10,138,,2.0,0.8,1.5*34
2017-12-01 11:47:12 1512146832.755480: $GPGSV,3,1,12,05,13,078,18,13,42,049,46,15,74,069,46,18,44,286,44*7D
2017-12-01 11:47:12 1512146832.755804: $GPGSV,3,2,12,20,61,052,43,21,68,304,46,24,21,148,42,27,09,324,37*75
2017-12-01 11:47:12 1512146832.755929: $GPGSV,3,3,12,29,23,195,45,10,14,273,38,04,11,130,05,138,38,213,46*45
2017-12-01 11:47:12 1512146832.869068: $GPZDA,164713.00,01,12,2017,00,00*66
2017-12-01 11:47:12 1512146832.869255: $GPGGA,164713,3946.9582,N,08404.9852,W,2,11,0.80,298.76,M,-33.324,M,,*77
2017-12-01 11:47:12 1512146832.869342: $GPRMC,164713,A,3946.9582,N,08404.9852,W,0.0000,0.000,011217,,*3D
2017-12-01 11:47:12 1512146832.869443: $GPGSA,A,3,5,13,15,18,20,21,24,27,29,10,138,,2.0,0.8,1.5*34
2017-12-01 11:47:13 1512146833.413740: $GPZDA,164714.00,01,12,2017,00,00*61
2017-12-01 11:47:13 1512146833.413913: $GPGGA,164714,3946.9582,N,08404.9852,W,2,11,0.80,298.76,M,-33.324,M,,*70
2017-12-01 11:47:13 1512146833.413980: $GPRMC,164714,A,3946.9582,N,08404.9852,W,0.0000,0.000,011217,,*3A
2017-12-01 11:47:13 1512146833.414041: $GPGSA,A,3,5,13,15,18,20,21,24,27,29,10,138,,2.0,0.8,1.5*34
2017-12-01 11:47:14 1512146834.414720: $GPZDA,164715.00,01,12,2017,00,00*60
2017-12-01 11:47:14 1512146834.414921: $GPGGA,164715,3946.9582,N,08404.9852,W,2,11,0.80,298.76,M,-33.324,M,,*71
2017-12-01 11:47:14 1512146834.414992: $GPRMC,164715,A,3946.9582,N,08404.9852,W,0.0000,0.000,011217,,*3B
2017-12-01 11:47:14 1512146834.415054: $GPGSA,A,3,5,13,15,18,20,21,24,27,29,10,138,,2.0,0.8,1.5*34
2017-12-01 11:47:15 1512146835.749763: $GPGSV,3,1,12,05,13,078,17,13,42,049,46,15,74,069,46,18,44,286,45*73
2017-12-01 11:47:15 1512146835.749967: $GPGSV,3,2,12,20,61,052,43,21,68,304,46,24,21,148,42,27,09,324,37*75
2017-12-01 11:47:15 1512146835.750034: $GPGSV,3,3,12,29,23,195,45,10,14,273,38,04,11,130,00,138,38,213,46*40
2017-12-01 11:47:15 1512146835.863254: $GPZDA,164716.00,01,12,2017,00,00*63
2017-12-01 11:47:15 1512146835.863418: $GPGGA,164716,3946.9582,N,08404.9852,W,2,11,0.80,298.76,M,-33.324,M,,*72
2017-12-01 11:47:15 1512146835.863535: $GPRMC,164716,A,3946.9582,N,08404.9852,W,0.0000,0.000,011217,,*38
2017-12-01 11:47:15 1512146835.863597: $GPGSA,A,3,5,13,15,18,20,21,24,27,29,10,138,,2.0,0.8,1.5*34
2017-12-01 11:47:16 1512146836.412905: $GPZDA,164717.00,01,12,2017,00,00*62
2017-12-01 11:47:16 1512146836.413057: $GPGGA,164717,3946.9582,N,08404.9852,W,2,11,0.80,298.76,M,-33.324,M,,*73
2017-12-01 11:47:16 1512146836.413122: $GPRMC,164717,A,3946.9582,N,08404.9852,W,0.0000,0.000,011217,,*39
2017-12-01 11:47:16 1512146836.413183: $GPGSA,A,3,5,13,15,18,20,21,24,27,29,10,138,,2.0,0.8,1.5*34
2017-12-01 11:47:17 1512146837.412547: $GPZDA,164718.00,01,12,2017,00,00*6D
2017-12-01 11:47:17 1512146837.412706: $GPGGA,164718,3946.9582,N,08404.9852,W,2,11,0.80,298.76,M,-33.324,M,,*7C
2017-12-01 11:47:17 1512146837.412773: $GPRMC,164718,A,3946.9582,N,08404.9852,W,0.0000,0.000,011217,,*36
2017-12-01 11:47:17 1512146837.412835: $GPGSA,A,3,5,13,15,18,20,21,24,27,29,10,138,,2.0,0.8,1.5*34
