2017-11-15 19:43:11 1510792991.257046: {"class":"VERSION","release":"3.17","rev":"3.17","proto_major":3,"proto_minor":12}
2017-11-15 19:43:11 1510792991.257999: {"class":"DEVICES","devices":[{"class":"DEVICE","path":"/dev/ttyUSB0","driver":"SiRF","subtype":"9\u0006GSD4e_4.1.2-P1_RPATCH.05-F-GPS-4R-1510281 11/03/2015 307","activated":"2017-11-16T00:43:11.217Z","flags":1,"native":1,"bps":4800,"parity":"N","stopbits":1,"cycle":1.00}]}
2017-11-15 19:43:11 1510792991.258196: {"class":"WATCH","enable":true,"json":false,"nmea":true,"raw":0,"scaled":false,"timing":false,"split24":false,"pps":false}
2017-11-15 19:43:11 1510792991.330294: $GPZDA,004310.00,16,11,2017,00,00*63
2017-11-15 19:43:11 1510792991.330494: $GPGGA,004310,3946.9607,N,08404.9507,W,1,09,0.80,327.58,M,-33.324,M,,*77
2017-11-15 19:43:11 1510792991.330555: $GPRMC,004310,A,3946.9607,N,08404.9507,W,0.4844,273.794,161117,,*3B
2017-11-15 19:43:11 1510792991.330612: $GPGSA,A,3,32,16,22,26,14,31,29,23,3,,,,3.4,0.8,2.9*0A
2017-11-15 19:43:12 1510792992.681050: $GPGSV,3,1,12,32,31,112,18,16,28,190,23,22,50,261,16,26,59,169,21*76
2017-11-15 19:43:12 1510792992.681230: $GPGSV,3,2,12,14,51,100,20,31,63,033,19,29,12,066,13,23,15,303,16*7E
2017-11-15 19:43:12 1510792992.681291: $GPGSV,3,3,12,03,42,292,20,25,12,039,00,01,02,249,00,133,44,201,00*44
2017-11-15 19:43:12 1510792992.794471: $GPZDA,004311.00,16,11,2017,00,00*62
2017-11-15 19:43:12 1510792992.794631: $GPGGA,004311,3946.9611,N,08404.9507,W,1,09,0.80,328.22,M,-33.324,M,,*73
2017-11-15 19:43:12 1510792992.794693: $GPRMC,004311,A,3946.9611,N,08404.9507,W,0.5912,309.173,161117,,*3D
2017-11-15 19:43:12 1510792992.794748: $GPGSA,A,3,32,16,22,26,14,31,29,23,3,,,,3.4,0.8,2.9*0A
2017-11-15 19:43:13 1510792993.330227: $GPZDA,004312.00,16,11,2017,00,00*61
2017-11-15 19:43:13 1510792993.330435: $GPGGA,004312,3946.9611,N,08404.9507,W,1,09,0.80,328.22,M,-33.324,M,,*70
2017-11-15 19:43:13 1510792993.330499: $GPRMC,004312,A,3946.9611,N,08404.9507,W,0.3423,4.197,161117,,*33
2017-11-15 19:43:13 1510792993.330554: $GPGSA,A,3,32,16,22,26,14,31,29,23,3,,,,3.4,0.8,2.9*0A
2017-11-15 19:43:14 1510792994.346088: $GPZDA,004313.00,16,11,2017,00,00*60
2017-11-15 19:43:14 1510792994.346257: $GPGGA,004313,3946.9611,N,08404.9507,W,1,09,0.80,328.22,M,-33.324,M,,*71
2017-11-15 19:43:14 1510792994.346320: $GPRMC,004313,A,3946.9611,N,08404.9507,W,0.4844,93.794,161117,,*03
2017-11-15 19:43:14 1510792994.346378: $GPGSA,A,3,32,16,22,26,14,31,29,23,3,,,,3.4,0.8,2.9*0A
2017-11-15 19:43:15 1510792995.681986: $GPGSV,3,1,12,32,31,112,18,16,28,190,23,22,50,261,17,26,59,169,21*77
2017-11-15 19:43:15 1510792995.682160: $GPGSV,3,2,12,14,51,100,20,31,63,033,19,29,12,066,12,23,15,303,16*7F
2017-11-15 19:43:15 1510792995.682222: $GPGSV,3,3,12,03,42,292,20,25,12,039,00,01,02,249,00,133,44,201,00*44
2017-11-15 19:43:15 1510792995.795284: $GPZDA,004314.00,16,11,2017,00,00*67
2017-11-15 19:43:15 1510792995.795464: $GPGGA,004314,3946.9611,N,08404.9507,W,1,09,0.80,328.22,M,-33.324,M,,*76
2017-11-15 19:43:15 1510792995.795525: $GPRMC,004314,A,3946.9611,N,08404.9507,W,0.4844,93.794,161117,,*04
2017-11-15 19:43:15 1510792995.795581: $GPGSA,A,3,32,16,22,26,14,31,29,23,3,,,,3.4,0.8,2.9*0A
2017-11-15 19:43:16 1510792996.420709: $GPZDA,004315.00,16,11,2017,00,00*66
2017-11-15 19:43:16 1510792996.420875: $GPGGA,004315,3946.9615,N,08404.9507,W,1,09,0.80,328.86,M,-33.324,M,,*7D
2017-11-15 19:43:16 1510792996.420936: $GPRMC,004315,A,3946.9615,N,08404.9507,W,0.7576,81.915,161117,,*0A
2017-11-15 19:43:16 1510792996.420992: $GPGSA,A,3,32,16,22,26,14,31,29,23,3,,,,3.4,0.8,2.9*0A
2017-11-15 19:43:17 1510792997.330253: $GPZDA,004316.00,16,11,2017,00,00*65
2017-11-15 19:43:17 1510792997.352415: $GPGGA,004316,3946.9615,N,08404.9500,W,1,09,0.80,328.94,M,-33.324,M,,*7A
2017-11-15 19:43:17 1510792997.352761: $GPRMC,004316,A,3946.9615,N,08404.9500,W,0.4207,39.347,161117,,*02
2017-11-15 19:43:17 1510792997.352855: $GPGSA,A,3,32,16,22,26,14,31,29,23,3,,,,3.4,0.8,2.9*0A
2017-11-15 19:43:18 1510792998.666024: $GPGSV,3,1,12,32,31,112,18,16,28,190,23,22,50,261,17,26,59,169,21*77
2017-11-15 19:43:18 1510792998.666277: $GPGSV,3,2,12,14,51,100,20,31,63,033,19,29,12,066,11,23,15,303,16*7C
2017-11-15 19:43:18 1510792998.666360: $GPGSV,3,3,12,03,42,292,20,25,12,039,00,01,02,249,00,133,44,201,00*44
2017-11-15 19:43:18 1510792998.779395: $GPZDA,004317.00,16,11,2017,00,00*64
2017-11-15 19:43:18 1510792998.779578: $GPGGA,004317,3946.9615,N,08404.9500,W,1,09,0.80,328.94,M,-33.324,M,,*7B
2017-11-15 19:43:18 1510792998.779640: $GPRMC,004317,A,3946.9615,N,08404.9500,W,0.7278,23.636,161117,,*00
2017-11-15 19:43:18 1510792998.779695: $GPGSA,A,3,32,16,22,26,14,31,29,23,3,,,,3.4,0.8,2.9*0A
2017-11-15 19:43:19 1510792999.330470: $GPZDA,004318.00,16,11,2017,00,00*6B
2017-11-15 19:43:19 1510792999.330634: $GPGGA,004318,3946.9623,N,08404.9507,W,1,09,0.80,328.74,M,-33.324,M,,*78
2017-11-15 19:43:19 1510792999.330696: $GPRMC,004318,A,3946.9623,N,08404.9507,W,1.2132,3.551,161117,,*34
2017-11-15 19:43:19 1510792999.330751: $GPGSA,A,3,32,16,22,26,14,31,29,23,3,,,,3.4,0.8,2.9*0A
2017-11-15 19:43:20 1510793000.346336: $GPZDA,004319.00,16,11,2017,00,00*6A
2017-11-15 19:43:20 1510793000.346516: $GPGGA,004319,3946.9627,N,08404.9500,W,1,09,0.80,329.46,M,-33.324,M,,*7A
2017-11-15 19:43:20 1510793000.346578: $GPRMC,004319,A,3946.9627,N,08404.9500,W,1.3044,25.352,161117,,*06
2017-11-15 19:43:20 1510793000.346634: $GPGSA,A,3,32,16,22,26,14,31,29,23,3,,,,3.4,0.8,2.9*0A
