2017-12-01 11:57:14 1512147434.496889: {"class":"VERSION","release":"3.16","rev":"3.16-4","proto_major":3,"proto_minor":11}
2017-12-01 11:57:14 1512147434.497282: {"class":"DEVICES","devices":[{"class":"DEVICE","path":"/dev/ttyUSB0","driver":"SiRF","subtype":"9\u0006GSD4e_4.1.2-P1_RPATCH.05-F-GPS-4R-1510281 11/03/2015 307","activated":"2017-12-01T16:57:14.468Z","flags":1,"native":1,"bps":4800,"parity":"N","stopbits":1,"cycle":1.00}]}
2017-12-01 11:57:14 1512147434.497404: {"class":"WATCH","enable":true,"json":false,"nmea":true,"raw":0,"scaled":false,"timing":false,"split24":false,"pps":false}
2017-12-01 11:57:15 1512147435.664006: $GPGSV,3,1,12,10,17,276,34,13,37,046,45,15,70,058,45,18,48,291,44*7E
2017-12-01 11:57:15 1512147435.664187: $GPGSV,3,2,12,20,58,060,44,21,72,298,45,24,25,145,45,27,12,319,42*7D
2017-12-01 11:57:15 1512147435.664253: $GPGSV,3,3,12,29,18,193,44,05,09,081,28,04,07,133,00,138,38,213,46*4D
2017-12-01 11:57:15 1512147435.777755: $GPZDA,165716.00,01,12,2017,00,00*62
2017-12-01 11:57:15 1512147435.777940: $GPGGA,165716,3946.9558,N,08404.9834,W,2,11,0.80,299.37,M,-33.324,M,,*70
2017-12-01 11:57:15 1512147435.778006: $GPRMC,165716,A,3946.9558,N,08404.9834,W,0.0000,0.000,011217,,*3E
2017-12-01 11:57:15 1512147435.778067: $GPGSA,A,3,10,13,15,18,20,21,24,27,29,5,138,,2.0,0.8,1.5*34
2017-12-01 11:57:16 1512147436.403040: $GPZDA,165717.00,01,12,2017,00,00*63
2017-12-01 11:57:16 1512147436.403213: $GPGGA,165717,3946.9558,N,08404.9834,W,2,11,0.80,299.37,M,-33.324,M,,*71
2017-12-01 11:57:16 1512147436.403279: $GPRMC,165717,A,3946.9558,N,08404.9834,W,0.0000,0.000,011217,,*3F
2017-12-01 11:57:16 1512147436.403340: $GPGSA,A,3,10,13,15,18,20,21,24,27,29,5,138,,2.0,0.8,1.5*34
2017-12-01 11:57:17 1512147437.327251: $GPZDA,165718.00,01,12,2017,00,00*6C
2017-12-01 11:57:17 1512147437.327467: $GPGGA,165718,3946.9558,N,08404.9834,W,2,11,0.80,299.37,M,-33.324,M,,*7E
2017-12-01 11:57:17 1512147437.327556: $GPRMC,165718,A,3946.9558,N,08404.9834,W,0.0000,0.000,011217,,*30
2017-12-01 11:57:17 1512147437.327618: $GPGSA,A,3,10,13,15,18,20,21,24,27,29,5,138,,2.0,0.8,1.5*34
2017-12-01 11:57:18 1512147438.661916: $GPGSV,3,1,12,10,17,276,34,13,37,046,44,15,70,058,45,18,48,291,44*7F
2017-12-01 11:57:18 1512147438.662068: $GPGSV,3,2,12,20,58,060,44,21,72,298,45,24,25,145,45,27,12,319,42*7D
2017-12-01 11:57:18 1512147438.662133: $GPGSV,3,3,12,29,18,193,44,05,09,081,28,04,07,133,00,138,38,213,46*4D
2017-12-01 11:57:18 1512147438.773984: $GPZDA,165719.00,01,12,2017,00,00*6D
2017-12-01 11:57:18 1512147438.774167: $GPGGA,165719,3946.9558,N,08404.9834,W,2,11,0.80,299.37,M,-33.324,M,,*7F
2017-12-01 11:57:18 1512147438.774235: $GPRMC,165719,A,3946.9558,N,08404.9834,W,0.0000,0.000,011217,,*31
2017-12-01 11:57:18 1512147438.774295: $GPGSA,A,3,10,13,15,18,20,21,24,27,29,5,138,,2.0,0.8,1.5*34
2017-12-01 11:57:19 1512147439.329959: $GPZDA,165720.00,01,12,2017,00,00*67
2017-12-01 11:57:19 1512147439.330171: $GPGGA,165720,3946.9558,N,08404.9834,W,2,11,0.80,299.37,M,-33.324,M,,*75
2017-12-01 11:57:19 1512147439.330242: $GPRMC,165720,A,3946.9558,N,08404.9834,W,0.0000,0.000,011217,,*3B
2017-12-01 11:57:19 1512147439.330304: $GPGSA,A,3,10,13,15,18,20,21,24,27,29,5,138,,2.0,0.8,1.5*34
2017-12-01 11:57:20 1512147440.334429: $GPZDA,165721.00,01,12,2017,00,00*66
2017-12-01 11:57:20 1512147440.334608: $GPGGA,165721,3946.9558,N,08404.9834,W,2,11,0.80,299.37,M,-33.324,M,,*74
2017-12-01 11:57:20 1512147440.334674: $GPRMC,165721,A,3946.9558,N,08404.9834,W,0.0000,0.000,011217,,*3A
2017-12-01 11:57:20 1512147440.334736: $GPGSA,A,3,10,13,15,18,20,21,24,27,29,5,138,,2.0,0.8,1.5*34
2017-12-01 11:57:21 1512147441.663418: $GPGSV,3,1,12,10,17,276,34,13,37,046,44,15,70,058,44,18,48,291,43*79
2017-12-01 11:57:21 1512147441.663608: $GPGSV,3,2,12,20,58,060,43,21,72,298,45,24,25,145,45,27,12,319,42*7A
2017-12-01 11:57:21 1512147441.663677: $GPGSV,3,3,12,29,18,193,44,05,09,081,28,04,07,133,00,138,38,213,46*4D
2017-12-01 11:57:21 1512147441.776865: $GPZDA,165722.00,01,12,2017,00,00*65
2017-12-01 11:57:21 1512147441.777039: $GPGGA,165722,3946.9558,N,08404.9834,W,2,11,0.80,299.37,M,-33.324,M,,*77
2017-12-01 11:57:21 1512147441.777161: $GPRMC,165722,A,3946.9558,N,08404.9834,W,0.0000,0.000,011217,,*39
2017-12-01 11:57:21 1512147441.777224: $GPGSA,A,3,10,13,15,18,20,21,24,27,29,5,138,,2.0,0.8,1.5*34
2017-12-01 11:57:22 1512147442.327912: $GPZDA,165723.00,01,12,2017,00,00*64
2017-12-01 11:57:22 1512147442.328088: $GPGGA,165723,3946.9558,N,08404.9834,W,2,11,0.80,299.37,M,-33.324,M,,*76
2017-12-01 11:57:22 1512147442.328155: $GPRMC,165723,A,3946.9558,N,08404.9834,W,0.0000,0.000,011217,,*38
2017-12-01 11:57:22 1512147442.328218: $GPGSA,A,3,10,13,15,18,20,21,24,27,29,5,138,,2.0,0.8,1.5*34
2017-12-01 11:57:23 1512147443.327378: $GPZDA,165724.00,01,12,2017,00,00*63
2017-12-01 11:57:23 1512147443.327557: $GPGGA,165724,3946.9558,N,08404.9834,W,2,11,0.80,299.37,M,-33.324,M,,*71
2017-12-01 11:57:23 1512147443.327626: $GPRMC,165724,A,3946.9558,N,08404.9834,W,0.0000,0.000,011217,,*3F
2017-12-01 11:57:23 1512147443.327689: $GPGSA,A,3,10,13,15,18,20,21,24,27,29,5,138,,2.0,0.8,1.5*34
