2017-11-15 19:30:00 1510792200.612180: {"class":"VERSION","release":"3.17","rev":"3.17","proto_major":3,"proto_minor":12}
2017-11-15 19:30:00 1510792200.612693: {"class":"DEVICES","devices":[{"class":"DEVICE","path":"/dev/ttyUSB0","driver":"SiRF","subtype":"9\u0006GSD4e_4.1.2-P1_RPATCH.05-F-GPS-4R-1510281 11/03/2015 307","activated":"2017-11-16T00:30:00.234Z","flags":1,"native":1,"bps":4800,"parity":"N","stopbits":1,"cycle":1.00}]}
2017-11-15 19:30:00 1510792200.612810: {"class":"WATCH","enable":true,"json":false,"nmea":true,"raw":0,"scaled":false,"timing":false,"split24":false,"pps":false}
2017-11-15 19:30:00 1510792200.683007: $GPGSV,3,1,11,32,36,108,21,31,67,025,20,16,23,190,18,26,53,172,20*70
2017-11-15 19:30:00 1510792200.683162: $GPGSV,3,2,11,29,11,070,09,14,55,093,04,03,40,298,18,25,17,040,00*7E
2017-11-15 19:30:00 1510792200.683221: $GPGSV,3,3,11,23,11,301,16,01,05,252,00,22,50,270,21*4F
2017-11-15 19:30:00 1510792200.796303: $GPZDA,002959.00,16,11,2017,00,00*62
2017-11-15 19:30:00 1510792200.796462: $GPGGA,002959,3946.9406,N,08404.9503,W,1,08,1.40,277.00,M,-33.324,M,,*74
2017-11-15 19:30:00 1510792200.796522: $GPRMC,002959,A,3946.9406,N,08404.9503,W,1.2361,194.852,161117,,*39
2017-11-15 19:30:00 1510792200.796577: $GPGSA,A,3,32,31,16,26,29,3,23,22,,,,,3.4,1.4,2.9*02
2017-11-15 19:30:01 1510792201.423599: $GPZDA,003000.00,16,11,2017,00,00*66
2017-11-15 19:30:01 1510792201.423747: $GPGGA,003000,3946.9406,N,08404.9503,W,1,08,1.40,277.00,M,-33.324,M,,*70
2017-11-15 19:30:01 1510792201.423808: $GPRMC,003000,A,3946.9406,N,08404.9503,W,1.4555,203.636,161117,,*3B
2017-11-15 19:30:01 1510792201.423863: $GPGSA,A,3,32,31,16,26,29,3,23,22,,,,,3.4,1.4,2.9*02
2017-11-15 19:30:02 1510792202.328817: $GPZDA,003001.00,16,11,2017,00,00*67
2017-11-15 19:30:02 1510792202.328982: $GPGGA,003001,3946.9406,N,08404.9510,W,1,08,2.20,276.92,M,-33.324,M,,*7C
2017-11-15 19:30:02 1510792202.329044: $GPRMC,003001,A,3946.9406,N,08404.9510,W,1.5545,212.064,161117,,*39
2017-11-15 19:30:02 1510792202.329100: $GPGSA,A,3,32,31,16,26,29,3,23,22,,,,,3.4,2.2,2.9*07
2017-11-15 19:30:03 1510792203.665738: $GPGSV,3,1,11,32,36,108,21,31,67,025,00,16,23,190,17,26,53,172,19*77
2017-11-15 19:30:03 1510792203.665922: $GPGSV,3,2,11,29,11,070,11,14,55,093,04,03,40,298,18,25,17,040,00*77
2017-11-15 19:30:03 1510792203.665983: $GPGSV,3,3,11,23,11,301,16,01,05,252,00,22,50,270,21*4F
2017-11-15 19:30:03 1510792203.779039: $GPZDA,003002.00,16,11,2017,00,00*64
2017-11-15 19:30:03 1510792203.779205: $GPGGA,003002,3946.9406,N,08404.9510,W,1,07,2.60,276.92,M,-33.324,M,,*74
2017-11-15 19:30:03 1510792203.779265: $GPRMC,003002,A,3946.9406,N,08404.9510,W,1.4167,227.342,161117,,*3E
2017-11-15 19:30:03 1510792203.779320: $GPGSA,A,3,32,16,26,29,3,23,22,,,,,,3.4,2.6,2.9*01
2017-11-15 19:30:04 1510792204.329931: $GPZDA,003003.00,16,11,2017,00,00*65
2017-11-15 19:30:04 1510792204.330110: $GPGGA,003003,3946.9406,N,08404.9517,W,1,07,2.60,276.85,M,-33.324,M,,*74
2017-11-15 19:30:04 1510792204.330170: $GPRMC,003003,A,3946.9406,N,08404.9517,W,1.6828,219.347,161117,,*30
2017-11-15 19:30:04 1510792204.330226: $GPGSA,A,3,32,16,26,29,3,23,22,,,,,,3.4,2.6,2.9*01
2017-11-15 19:30:05 1510792205.330797: $GPZDA,003004.00,16,11,2017,00,00*62
2017-11-15 19:30:05 1510792205.330949: $GPGGA,003004,3946.9406,N,08404.9517,W,1,07,1.60,276.85,M,-33.324,M,,*70
2017-11-15 19:30:05 1510792205.331010: $GPRMC,003004,A,3946.9406,N,08404.9517,W,1.1294,223.341,161117,,*32
2017-11-15 19:30:05 1510792205.331066: $GPGSA,A,3,32,16,26,29,3,23,22,,,,,,3.4,1.6,2.9*02
2017-11-15 19:30:06 1510792206.666102: $GPGSV,3,1,11,32,36,108,21,31,67,025,19,16,23,190,16,26,53,172,18*7F
2017-11-15 19:30:06 1510792206.666283: $GPGSV,3,2,11,29,11,070,12,14,55,093,00,03,40,298,19,25,17,040,00*71
2017-11-15 19:30:06 1510792206.666345: $GPGSV,3,3,11,23,11,301,15,01,05,252,00,22,50,270,21*4C
2017-11-15 19:30:06 1510792206.779465: $GPZDA,003005.00,16,11,2017,00,00*63
2017-11-15 19:30:06 1510792206.779650: $GPGGA,003005,3946.9410,N,08404.9517,W,1,08,1.60,277.49,M,-33.324,M,,*78
2017-11-15 19:30:06 1510792206.779712: $GPRMC,003005,A,3946.9410,N,08404.9517,W,1.1902,238.684,161117,,*36
2017-11-15 19:30:06 1510792206.779821: $GPGSA,A,3,32,31,16,26,29,3,23,22,,,,,3.4,1.6,2.9*00
2017-11-15 19:30:07 1510792207.330315: $GPZDA,003006.00,16,11,2017,00,00*60
2017-11-15 19:30:07 1510792207.330495: $GPGGA,003006,3946.9411,N,08404.9524,W,1,08,1.60,277.41,M,-33.324,M,,*72
2017-11-15 19:30:07 1510792207.330556: $GPRMC,003006,A,3946.9411,N,08404.9524,W,0.4844,273.794,161117,,*3C
2017-11-15 19:30:07 1510792207.330611: $GPGSA,A,3,32,31,16,26,29,3,23,22,,,,,3.4,1.6,2.9*00
2017-11-15 19:30:08 1510792208.330397: $GPZDA,003007.00,16,11,2017,00,00*61
2017-11-15 19:30:08 1510792208.330557: $GPGGA,003007,3946.9418,N,08404.9524,W,1,08,1.60,277.28,M,-33.324,M,,*75
2017-11-15 19:30:08 1510792208.330617: $GPRMC,003007,A,3946.9418,N,08404.9524,W,1.1391,323.662,161117,,*3F
2017-11-15 19:30:08 1510792208.330672: $GPGSA,A,3,32,31,16,26,29,3,23,22,,,,,3.4,1.6,2.9*00
2017-11-15 19:30:09 1510792209.665799: $GPGSV,3,1,11,32,36,108,22,31,67,025,20,16,23,190,16,26,53,172,18*76
2017-11-15 19:30:09 1510792209.665969: $GPGSV,3,2,11,29,11,070,11,14,55,093,00,03,40,298,19,25,17,040,00*72
2017-11-15 19:30:09 1510792209.666030: $GPGSV,3,3,11,23,11,301,15,01,05,252,00,22,50,270,21*4C
2017-11-15 19:30:09 1510792209.779139: $GPZDA,003008.00,16,11,2017,00,00*6E
2017-11-15 19:30:09 1510792209.779309: $GPGGA,003008,3946.9426,N,08404.9523,W,1,08,1.60,277.16,M,-33.324,M,,*7D
2017-11-15 19:30:09 1510792209.779369: $GPRMC,003008,A,3946.9426,N,08404.9523,W,1.0269,4.197,161117,,*36
2017-11-15 19:30:09 1510792209.779424: $GPGSA,A,3,32,31,16,26,29,3,23,22,,,,,3.4,1.6,2.9*00
2017-11-15 19:30:10 1510792210.329979: $GPZDA,003009.00,16,11,2017,00,00*6F
2017-11-15 19:30:10 1510792210.330197: $GPGGA,003009,3946.9430,N,08404.9523,W,1,08,1.60,277.80,M,-33.324,M,,*74
2017-11-15 19:30:10 1510792210.330259: $GPRMC,003009,A,3946.9430,N,08404.9523,W,1.2381,352.270,161117,,*3F
2017-11-15 19:30:10 1510792210.330314: $GPGSA,A,3,32,31,16,26,29,3,23,22,,,,,3.4,1.6,2.9*00
