2018-01-11 21:04:41 1515722681.675452: {"class":"VERSION","release":"3.16","rev":"3.16-4","proto_major":3,"proto_minor":11}
2018-01-11 21:04:41 1515722681.675785: {"class":"DEVICES","devices":[{"class":"DEVICE","path":"/dev/ttyUSB0","driver":"SiRF","subtype":"9\u0006GSD4e_4.1.2-P1_RPATCH.05-F-GPS-4R-1510281 11/03/2015 307","activated":"2018-01-12T02:04:41.564Z","flags":1,"native":1,"bps":4800,"parity":"N","stopbits":1,"cycle":1.00}]}
2018-01-11 21:04:41 1515722681.675898: {"class":"WATCH","enable":true,"json":false,"nmea":true,"raw":0,"scaled":false,"timing":false,"split24":false,"pps":false}
2018-01-11 21:04:42 1515722682.423622: $GPZDA,020443.00,12,01,2018,00,00*6E
2018-01-11 21:04:42 1515722682.423783: $GPGGA,020443,3946.9581,N,08404.9849,W,2,11,1.00,305.22,M,-33.324,M,,*74
2018-01-11 21:04:42 1515722682.423849: $GPRMC,020443,A,3946.9581,N,08404.9849,W,0.0000,0.000,120118,,*3C
2018-01-11 21:04:42 1515722682.423911: $GPGSA,A,3,1,7,8,9,11,23,27,28,30,16,138,,4.0,1.0,3.5*06
2018-01-11 21:04:43 1515722683.758102: $GPGSV,3,1,12,01,18,151,44,07,80,307,43,08,64,054,47,09,27,210,43*79
2018-01-11 21:04:43 1515722683.758284: $GPGSV,3,2,12,11,42,156,45,23,06,181,31,27,25,045,50,28,30,277,36*7B
2018-01-11 21:04:43 1515722683.758349: $GPGSV,3,3,12,30,51,309,42,13,02,328,04,16,06,076,16,138,38,213,45*4B
2018-01-11 21:04:43 1515722683.871465: $GPZDA,020444.00,12,01,2018,00,00*69
2018-01-11 21:04:43 1515722683.871608: $GPGGA,020444,3946.9581,N,08404.9849,W,2,11,1.00,305.22,M,-33.324,M,,*73
2018-01-11 21:04:43 1515722683.871673: $GPRMC,020444,A,3946.9581,N,08404.9849,W,0.0000,0.000,120118,,*3B
2018-01-11 21:04:43 1515722683.871732: $GPGSA,A,3,1,7,8,9,11,23,27,28,30,16,138,,4.0,1.0,3.5*06
2018-01-11 21:04:44 1515722684.497077: $GPZDA,020445.00,12,01,2018,00,00*68
2018-01-11 21:04:44 1515722684.497213: $GPGGA,020445,3946.9581,N,08404.9849,W,2,11,1.00,305.22,M,-33.324,M,,*72
2018-01-11 21:04:44 1515722684.497277: $GPRMC,020445,A,3946.9581,N,08404.9849,W,0.0000,0.000,120118,,*3A
2018-01-11 21:04:44 1515722684.497337: $GPGSA,A,3,1,7,8,9,11,23,27,28,30,16,138,,4.0,1.0,3.5*06
2018-01-11 21:04:45 1515722685.424086: $GPZDA,020446.00,12,01,2018,00,00*6B
2018-01-11 21:04:45 1515722685.424243: $GPGGA,020446,3946.9581,N,08404.9849,W,2,11,1.00,305.22,M,-33.324,M,,*71
2018-01-11 21:04:45 1515722685.424309: $GPRMC,020446,A,3946.9581,N,08404.9849,W,0.0000,0.000,120118,,*39
2018-01-11 21:04:45 1515722685.424370: $GPGSA,A,3,1,7,8,9,11,23,27,28,30,16,138,,4.0,1.0,3.5*06
2018-01-11 21:04:46 1515722686.758523: $GPGSV,3,1,12,01,18,151,44,07,80,307,43,08,64,054,47,09,27,210,43*79
2018-01-11 21:04:46 1515722686.758699: $GPGSV,3,2,12,11,42,156,45,23,06,181,31,27,25,045,50,28,30,277,36*7B
2018-01-11 21:04:46 1515722686.758765: $GPGSV,3,3,12,30,51,309,42,13,02,328,04,16,06,076,16,138,38,213,45*4B
2018-01-11 21:04:46 1515722686.872290: $GPZDA,020447.00,12,01,2018,00,00*6A
2018-01-11 21:04:46 1515722686.872430: $GPGGA,020447,3946.9581,N,08404.9849,W,2,11,1.00,305.22,M,-33.324,M,,*70
2018-01-11 21:04:46 1515722686.872494: $GPRMC,020447,A,3946.9581,N,08404.9849,W,0.0000,0.000,120118,,*38
2018-01-11 21:04:46 1515722686.872554: $GPGSA,A,3,1,7,8,9,11,23,27,28,30,16,138,,4.0,1.0,3.5*06
2018-01-11 21:04:47 1515722687.421724: $GPZDA,020448.00,12,01,2018,00,00*65
2018-01-11 21:04:47 1515722687.421867: $GPGGA,020448,3946.9581,N,08404.9849,W,2,11,1.00,305.22,M,-33.324,M,,*7F
2018-01-11 21:04:47 1515722687.421933: $GPRMC,020448,A,3946.9581,N,08404.9849,W,0.0000,0.000,120118,,*37
2018-01-11 21:04:47 1515722687.421994: $GPGSA,A,3,1,7,8,9,11,23,27,28,30,16,138,,4.0,1.0,3.5*06
2018-01-11 21:04:48 1515722688.423885: $GPZDA,020449.00,12,01,2018,00,00*64
2018-01-11 21:04:48 1515722688.424049: $GPGGA,020449,3946.9585,N,08404.9849,W,2,11,1.00,305.86,M,-33.324,M,,*74
2018-01-11 21:04:48 1515722688.424115: $GPRMC,020449,A,3946.9585,N,08404.9849,W,0.0000,0.000,120118,,*32
2018-01-11 21:04:48 1515722688.424177: $GPGSA,A,3,1,7,8,9,11,23,27,28,30,16,138,,4.0,1.0,3.5*06
