2017-12-01 18:12:00 1512169920.497948: {"class":"VERSION","release":"3.16","rev":"3.16-4","proto_major":3,"proto_minor":11}
2017-12-01 18:12:00 1512169920.498349: {"class":"DEVICES","devices":[{"class":"DEVICE","path":"/dev/ttyUSB0","driver":"SiRF","subtype":"9\u0006GSD4e_4.1.2-P1_RPATCH.05-F-GPS-4R-1510281 11/03/2015 307","activated":"2017-12-01T23:12:00.423Z","flags":1,"native":1,"bps":4800,"parity":"N","stopbits":1,"cycle":1.00}]}
2017-12-01 18:12:00 1512169920.498462: {"class":"WATCH","enable":true,"json":false,"nmea":true,"raw":0,"scaled":false,"timing":false,"split24":false,"pps":false}
2017-12-01 18:12:01 1512169921.724412: $GPGSV,3,1,12,03,37,304,46,14,59,084,42,16,18,189,41,22,50,279,46*79
2017-12-01 18:12:01 1512169921.724597: $GPGSV,3,2,12,23,07,298,43,25,22,042,40,26,47,174,46,31,71,016,47*7B
2017-12-01 18:12:01 1512169921.724664: $GPGSV,3,3,12,32,40,103,42,01,09,256,33,10,02,159,24,138,38,213,46*49
2017-12-01 18:12:01 1512169921.836563: $GPZDA,231202.00,01,12,2017,00,00*60
2017-12-01 18:12:01 1512169921.836738: $GPGGA,231202,3946.9731,N,08404.9833,W,2,12,0.80,299.92,M,-33.325,M,,*75
2017-12-01 18:12:01 1512169921.836805: $GPRMC,231202,A,3946.9731,N,08404.9833,W,0.0000,0.000,011217,,*36
2017-12-01 18:12:01 1512169921.836866: $GPGSA,A,3,3,14,16,22,23,25,26,31,32,1,10,138,2.0,0.8,1.5*06
2017-12-01 18:12:02 1512169922.387409: $GPZDA,231203.00,01,12,2017,00,00*61
2017-12-01 18:12:02 1512169922.387580: $GPGGA,231203,3946.9731,N,08404.9833,W,2,12,0.80,299.92,M,-33.325,M,,*74
2017-12-01 18:12:02 1512169922.387647: $GPRMC,231203,A,3946.9731,N,08404.9833,W,0.0000,0.000,011217,,*37
2017-12-01 18:12:02 1512169922.387708: $GPGSA,A,3,3,14,16,22,23,25,26,31,32,1,10,138,2.0,0.8,1.5*06
2017-12-01 18:12:03 1512169923.385799: $GPZDA,231204.00,01,12,2017,00,00*66
2017-12-01 18:12:03 1512169923.386005: $GPGGA,231204,3946.9731,N,08404.9833,W,2,12,0.60,299.92,M,-33.325,M,,*7D
2017-12-01 18:12:03 1512169923.386089: $GPRMC,231204,A,3946.9731,N,08404.9833,W,0.0000,0.000,011217,,*30
2017-12-01 18:12:03 1512169923.386151: $GPGSA,A,3,3,14,16,22,23,25,26,31,32,1,10,138,2.0,0.6,1.5*08
2017-12-01 18:12:04 1512169924.749006: $GPGSV,3,1,12,03,37,304,46,14,59,084,42,16,18,189,40,22,50,279,46*78
2017-12-01 18:12:04 1512169924.749203: $GPGSV,3,2,12,23,07,298,43,25,22,042,39,26,47,174,46,31,71,016,47*75
2017-12-01 18:12:04 1512169924.749270: $GPGSV,3,3,12,32,40,103,43,01,09,256,33,29,09,076,30,138,38,213,46*40
2017-12-01 18:12:04 1512169924.862353: $GPZDA,231205.00,01,12,2017,00,00*67
2017-12-01 18:12:04 1512169924.862489: $GPGGA,231205,3946.9728,N,08404.9834,W,2,12,0.60,300.69,M,-33.325,M,,*76
2017-12-01 18:12:04 1512169924.862554: $GPRMC,231205,A,3946.9728,N,08404.9834,W,0.0000,0.000,011217,,*3E
2017-12-01 18:12:04 1512169924.862614: $GPGSA,A,3,3,14,16,22,23,25,26,31,32,1,29,138,2.0,0.6,1.5*02
2017-12-01 18:12:05 1512169925.385734: $GPZDA,231206.00,01,12,2017,00,00*64
2017-12-01 18:12:05 1512169925.388861: $GPGGA,231206,3946.9728,N,08404.9834,W,2,12,0.60,300.69,M,-33.325,M,,*75
2017-12-01 18:12:05 1512169925.388985: $GPRMC,231206,A,3946.9728,N,08404.9834,W,0.0000,0.000,011217,,*3D
2017-12-01 18:12:05 1512169925.389082: $GPGSA,A,3,3,14,16,22,23,25,26,31,32,1,29,138,2.0,0.6,1.5*02
2017-12-01 18:12:06 1512169926.415255: $GPZDA,231207.00,01,12,2017,00,00*65
2017-12-01 18:12:06 1512169926.415424: $GPGGA,231207,3946.9728,N,08404.9834,W,2,12,0.60,300.69,M,-33.325,M,,*74
2017-12-01 18:12:06 1512169926.415493: $GPRMC,231207,A,3946.9728,N,08404.9834,W,0.0000,0.000,011217,,*3C
2017-12-01 18:12:06 1512169926.415554: $GPGSA,A,3,3,14,16,22,23,25,26,31,32,1,29,138,2.0,0.6,1.5*02
2017-12-01 18:12:07 1512169927.751886: $GPGSV,3,1,12,03,37,304,47,14,59,084,42,16,18,189,41,22,50,279,46*78
2017-12-01 18:12:07 1512169927.752093: $GPGSV,3,2,12,23,07,298,43,25,22,042,40,26,47,174,46,31,71,016,46*7A
2017-12-01 18:12:07 1512169927.752165: $GPGSV,3,3,12,32,40,103,43,01,09,256,27,29,09,076,30,138,38,213,46*45
2017-12-01 18:12:07 1512169927.865211: $GPZDA,231208.00,01,12,2017,00,00*6A
2017-12-01 18:12:07 1512169927.865387: $GPGGA,231208,3946.9728,N,08404.9834,W,2,12,0.60,300.69,M,-33.325,M,,*7B
2017-12-01 18:12:07 1512169927.865506: $GPRMC,231208,A,3946.9728,N,08404.9834,W,0.0000,0.000,011217,,*33
2017-12-01 18:12:07 1512169927.865569: $GPGSA,A,3,3,14,16,22,23,25,26,31,32,1,29,138,2.0,0.6,1.5*02
2017-12-01 18:12:08 1512169928.413574: $GPZDA,231209.00,01,12,2017,00,00*6B
2017-12-01 18:12:08 1512169928.413751: $GPGGA,231209,3946.9728,N,08404.9834,W,2,12,0.60,300.69,M,-33.325,M,,*7A
2017-12-01 18:12:08 1512169928.413818: $GPRMC,231209,A,3946.9728,N,08404.9834,W,0.0000,0.000,011217,,*32
2017-12-01 18:12:08 1512169928.413907: $GPGSA,A,3,3,14,16,22,23,25,26,31,32,1,29,138,2.0,0.6,1.5*02
2017-12-01 18:12:09 1512169929.415867: $GPZDA,231210.00,01,12,2017,00,00*63
2017-12-01 18:12:09 1512169929.416056: $GPGGA,231210,3946.9728,N,08404.9834,W,2,12,0.60,300.69,M,-33.325,M,,*72
2017-12-01 18:12:09 1512169929.416123: $GPRMC,231210,A,3946.9728,N,08404.9834,W,0.0000,0.000,011217,,*3A
2017-12-01 18:12:09 1512169929.416185: $GPGSA,A,3,3,14,16,22,23,25,26,31,32,1,29,138,2.0,0.6,1.5*02
2017-12-01 18:12:10 1512169930.722688: $GPGSV,3,1,12,03,37,304,47,14,59,084,42,16,18,189,41,22,50,279,47*79
2017-12-01 18:12:10 1512169930.722891: $GPGSV,3,2,12,23,07,298,43,25,22,042,40,26,47,174,46,31,71,016,46*7A
2017-12-01 18:12:10 1512169930.722986: $GPGSV,3,3,12,32,40,103,42,01,09,256,29,29,09,076,30,138,38,213,46*4A
2017-12-01 18:12:10 1512169930.836014: $GPZDA,231211.00,01,12,2017,00,00*62
2017-12-01 18:12:10 1512169930.836155: $GPGGA,231211,3946.9728,N,08404.9834,W,2,12,0.60,300.69,M,-33.325,M,,*73
2017-12-01 18:12:10 1512169930.836221: $GPRMC,231211,A,3946.9728,N,08404.9834,W,0.0000,0.000,011217,,*3B
2017-12-01 18:12:10 1512169930.836282: $GPGSA,A,3,3,14,16,22,23,25,26,31,32,1,29,138,2.0,0.6,1.5*02
2017-12-01 18:12:11 1512169931.461442: $GPZDA,231212.00,01,12,2017,00,00*61
2017-12-01 18:12:11 1512169931.461774: $GPGGA,231212,3946.9728,N,08404.9834,W,2,12,0.60,300.69,M,-33.325,M,,*70
2017-12-01 18:12:11 1512169931.461937: $GPRMC,231212,A,3946.9728,N,08404.9834,W,0.0000,0.000,011217,,*38
2017-12-01 18:12:11 1512169931.462062: $GPGSA,A,3,3,14,16,22,23,25,26,31,32,1,29,138,2.0,0.6,1.5*02
2017-12-01 18:12:12 1512169932.413539: $GPZDA,231213.00,01,12,2017,00,00*60
2017-12-01 18:12:12 1512169932.413718: $GPGGA,231213,3946.9728,N,08404.9834,W,2,12,0.60,300.69,M,-33.325,M,,*71
2017-12-01 18:12:12 1512169932.413785: $GPRMC,231213,A,3946.9728,N,08404.9834,W,0.0000,0.000,011217,,*39
2017-12-01 18:12:12 1512169932.413871: $GPGSA,A,3,3,14,16,22,23,25,26,31,32,1,29,138,2.0,0.6,1.5*02
2017-12-01 18:12:13 1512169933.761777: $GPGSV,3,1,12,03,37,304,46,14,59,084,42,16,18,189,41,22,50,279,46*79
2017-12-01 18:12:13 1512169933.761990: $GPGSV,3,2,12,23,07,298,42,25,22,042,40,26,47,174,47,31,71,016,47*7B
2017-12-01 18:12:13 1512169933.762057: $GPGSV,3,3,12,32,40,103,42,10,02,159,24,29,09,076,05,138,38,213,46*46
2017-12-01 18:12:13 1512169933.875154: $GPZDA,231214.00,01,12,2017,00,00*67
2017-12-01 18:12:13 1512169933.875351: $GPGGA,231214,3946.9728,N,08404.9834,W,2,11,0.80,300.69,M,-33.325,M,,*7B
2017-12-01 18:12:13 1512169933.875418: $GPRMC,231214,A,3946.9728,N,08404.9834,W,0.0000,0.000,011217,,*3E
2017-12-01 18:12:13 1512169933.875480: $GPGSA,A,3,3,14,16,22,23,25,26,31,32,10,138,,2.0,0.8,1.5*37
2017-12-01 18:12:14 1512169934.386318: $GPZDA,231215.00,01,12,2017,00,00*66
2017-12-01 18:12:14 1512169934.386491: $GPGGA,231215,3946.9728,N,08404.9834,W,2,11,0.60,300.69,M,-33.325,M,,*74
2017-12-01 18:12:14 1512169934.386558: $GPRMC,231215,A,3946.9728,N,08404.9834,W,0.0000,0.000,011217,,*3F
2017-12-01 18:12:14 1512169934.386620: $GPGSA,A,3,3,14,16,22,23,25,26,31,32,10,138,,2.0,0.6,1.5*39
2017-12-01 18:12:15 1512169935.424476: $GPZDA,231216.00,01,12,2017,00,00*65
2017-12-01 18:12:15 1512169935.427614: $GPGGA,231216,3946.9728,N,08404.9834,W,2,11,0.80,300.69,M,-33.325,M,,*79
2017-12-01 18:12:15 1512169935.427787: $GPRMC,231216,A,3946.9728,N,08404.9834,W,0.0000,0.000,011217,,*3C
2017-12-01 18:12:15 1512169935.427873: $GPGSA,A,3,3,14,16,22,23,25,26,31,32,10,138,,2.0,0.8,1.5*37
2017-12-01 18:12:16 1512169936.722131: $GPGSV,3,1,12,03,37,304,46,14,59,084,42,16,18,189,41,22,50,279,46*79
2017-12-01 18:12:16 1512169936.722312: $GPGSV,3,2,12,23,07,298,43,25,22,042,40,26,47,174,47,31,71,016,46*7B
2017-12-01 18:12:16 1512169936.722378: $GPGSV,3,3,12,32,40,103,42,01,09,256,32,29,09,076,19,138,38,213,46*4B
2017-12-01 18:12:16 1512169936.835485: $GPZDA,231217.00,01,12,2017,00,00*64
2017-12-01 18:12:16 1512169936.835658: $GPGGA,231217,3946.9728,N,08404.9834,W,2,12,0.60,300.69,M,-33.325,M,,*75
2017-12-01 18:12:16 1512169936.835727: $GPRMC,231217,A,3946.9728,N,08404.9834,W,0.0000,0.000,011217,,*3D
2017-12-01 18:12:16 1512169936.835814: $GPGSA,A,3,3,14,16,22,23,25,26,31,32,1,29,138,2.0,0.6,1.5*02
2017-12-01 18:12:17 1512169937.415368: $GPZDA,231218.00,01,12,2017,00,00*6B
2017-12-01 18:12:17 1512169937.415544: $GPGGA,231218,3946.9728,N,08404.9834,W,2,12,0.60,300.69,M,-33.325,M,,*7A
2017-12-01 18:12:17 1512169937.415611: $GPRMC,231218,A,3946.9728,N,08404.9834,W,0.0000,0.000,011217,,*32
2017-12-01 18:12:17 1512169937.415672: $GPGSA,A,3,3,14,16,22,23,25,26,31,32,1,29,138,2.0,0.6,1.5*02
2017-12-01 18:12:18 1512169938.415005: $GPZDA,231219.00,01,12,2017,00,00*6A
2017-12-01 18:12:18 1512169938.415176: $GPGGA,231219,3946.9731,N,08404.9833,W,2,12,0.60,299.92,M,-33.325,M,,*71
2017-12-01 18:12:18 1512169938.415243: $GPRMC,231219,A,3946.9731,N,08404.9833,W,0.0000,0.000,011217,,*3C
2017-12-01 18:12:18 1512169938.415305: $GPGSA,A,3,3,14,16,22,23,25,26,31,32,1,29,138,2.0,0.6,1.5*02
2017-12-01 18:12:19 1512169939.749284: $GPGSV,3,1,12,03,37,304,46,14,59,084,43,16,18,189,42,22,50,279,47*7A
2017-12-01 18:12:19 1512169939.749465: $GPGSV,3,2,12,23,07,298,43,25,22,042,39,26,47,174,47,31,71,016,47*74
2017-12-01 18:12:19 1512169939.749532: $GPGSV,3,3,12,32,40,103,42,01,09,256,30,29,09,076,27,138,38,213,46*44
2017-12-01 18:12:19 1512169939.863876: $GPZDA,231220.00,01,12,2017,00,00*60
2017-12-01 18:12:19 1512169939.864058: $GPGGA,231220,3946.9731,N,08404.9833,W,2,12,0.60,299.92,M,-33.325,M,,*7B
2017-12-01 18:12:19 1512169939.864126: $GPRMC,231220,A,3946.9731,N,08404.9833,W,0.0000,0.000,011217,,*36
2017-12-01 18:12:19 1512169939.864187: $GPGSA,A,3,3,14,16,22,23,25,26,31,32,1,29,138,2.0,0.6,1.5*02
2017-12-01 18:12:20 1512169940.412721: $GPZDA,231221.00,01,12,2017,00,00*61
2017-12-01 18:12:20 1512169940.412906: $GPGGA,231221,3946.9731,N,08404.9833,W,2,12,0.60,299.92,M,-33.325,M,,*7A
2017-12-01 18:12:20 1512169940.412972: $GPRMC,231221,A,3946.9731,N,08404.9833,W,0.0000,0.000,011217,,*37
2017-12-01 18:12:20 1512169940.413033: $GPGSA,A,3,3,14,16,22,23,25,26,31,32,1,29,138,2.0,0.6,1.5*02
