2018-01-11 20:30:05 1515720605.458626: {"class":"VERSION","release":"3.16","rev":"3.16-4","proto_major":3,"proto_minor":11}
2018-01-11 20:30:05 1515720605.459062: {"class":"DEVICES","devices":[{"class":"DEVICE","path":"/dev/ttyUSB0","driver":"SiRF","subtype":"9\u0006GSD4e_4.1.2-P1_RPATCH.05-F-GPS-4R-1510281 11/03/2015 307","activated":"2018-01-12T01:30:05.245Z","flags":1,"native":1,"bps":4800,"parity":"N","stopbits":1,"cycle":1.00}]}
2018-01-11 20:30:05 1515720605.459197: {"class":"WATCH","enable":true,"json":false,"nmea":true,"raw":0,"scaled":false,"timing":false,"split24":false,"pps":false}
2018-01-11 20:30:05 1515720605.694465: $GPGSV,3,1,11,07,64,316,44,08,75,094,46,09,41,220,43,11,28,165,46*7E
2018-01-11 20:30:05 1515720605.694623: $GPGSV,3,2,11,16,17,066,36,23,20,187,49,27,40,048,50,28,20,265,37*79
2018-01-11 20:30:05 1515720605.694688: $GPGSV,3,3,11,30,37,309,34,01,05,159,00,138,38,213,45*7A
2018-01-11 20:30:05 1515720605.808157: $GPZDA,013006.00,12,01,2018,00,00*6B
2018-01-11 20:30:05 1515720605.808270: $GPGGA,013006,3946.9584,N,08404.9841,W,2,10,0.80,304.54,M,-33.324,M,,*74
2018-01-11 20:30:05 1515720605.808333: $GPRMC,013006,A,3946.9584,N,08404.9841,W,0.0000,0.000,120118,,*34
2018-01-11 20:30:05 1515720605.808392: $GPGSA,A,3,7,8,9,11,16,23,27,28,30,138,,,4.0,0.8,3.5*3E
2018-01-11 20:30:06 1515720606.352872: $GPZDA,013007.00,12,01,2018,00,00*6A
2018-01-11 20:30:06 1515720606.353026: $GPGGA,013007,3946.9584,N,08404.9841,W,2,10,0.80,304.54,M,-33.324,M,,*75
2018-01-11 20:30:06 1515720606.353091: $GPRMC,013007,A,3946.9584,N,08404.9841,W,0.0000,0.000,120118,,*35
2018-01-11 20:30:06 1515720606.353151: $GPGSA,A,3,7,8,9,11,16,23,27,28,30,138,,,4.0,0.8,3.5*3E
2018-01-11 20:30:07 1515720607.360004: $GPZDA,013008.00,12,01,2018,00,00*65
2018-01-11 20:30:07 1515720607.360164: $GPGGA,013008,3946.9584,N,08404.9841,W,2,10,0.80,304.54,M,-33.324,M,,*7A
2018-01-11 20:30:07 1515720607.360230: $GPRMC,013008,A,3946.9584,N,08404.9841,W,0.0000,0.000,120118,,*3A
2018-01-11 20:30:07 1515720607.360290: $GPGSA,A,3,7,8,9,11,16,23,27,28,30,138,,,4.0,0.8,3.5*3E
2018-01-11 20:30:08 1515720608.692855: $GPGSV,3,1,11,07,64,316,44,08,75,094,46,09,41,220,43,11,28,165,46*7E
2018-01-11 20:30:08 1515720608.693009: $GPGSV,3,2,11,16,17,066,37,23,20,187,49,27,40,048,50,28,20,265,37*78
2018-01-11 20:30:08 1515720608.693074: $GPGSV,3,3,11,30,37,309,34,01,05,159,00,138,38,213,45*7A
2018-01-11 20:30:08 1515720608.806542: $GPZDA,013009.00,12,01,2018,00,00*64
2018-01-11 20:30:08 1515720608.806670: $GPGGA,013009,3946.9584,N,08404.9841,W,2,10,0.80,304.54,M,-33.324,M,,*7B
2018-01-11 20:30:08 1515720608.806734: $GPRMC,013009,A,3946.9584,N,08404.9841,W,0.0000,0.000,120118,,*3B
2018-01-11 20:30:08 1515720608.806794: $GPGSA,A,3,7,8,9,11,16,23,27,28,30,138,,,4.0,0.8,3.5*3E
2018-01-11 20:30:09 1515720609.431937: $GPZDA,013010.00,12,01,2018,00,00*6C
2018-01-11 20:30:09 1515720609.432104: $GPGGA,013010,3946.9584,N,08404.9841,W,2,10,0.80,304.54,M,-33.324,M,,*73
2018-01-11 20:30:09 1515720609.432170: $GPRMC,013010,A,3946.9584,N,08404.9841,W,0.0000,0.000,120118,,*33
2018-01-11 20:30:09 1515720609.432230: $GPGSA,A,3,7,8,9,11,16,23,27,28,30,138,,,4.0,0.8,3.5*3E
2018-01-11 20:30:10 1515720610.357933: $GPZDA,013011.00,12,01,2018,00,00*6D
2018-01-11 20:30:10 1515720610.358089: $GPGGA,013011,3946.9584,N,08404.9841,W,2,10,0.80,304.54,M,-33.324,M,,*72
2018-01-11 20:30:10 1515720610.358155: $GPRMC,013011,A,3946.9584,N,08404.9841,W,0.0000,0.000,120118,,*32
2018-01-11 20:30:10 1515720610.358215: $GPGSA,A,3,7,8,9,11,16,23,27,28,30,138,,,4.0,0.8,3.5*3E
2018-01-11 20:30:11 1515720611.693184: $GPGSV,3,1,11,07,64,316,43,08,75,094,45,09,41,220,43,11,28,165,46*7A
2018-01-11 20:30:11 1515720611.693358: $GPGSV,3,2,11,16,17,066,37,23,20,187,49,27,40,048,50,28,20,265,38*77
2018-01-11 20:30:11 1515720611.693423: $GPGSV,3,3,11,30,37,309,34,01,05,159,00,138,38,213,44*7B
2018-01-11 20:30:11 1515720611.806807: $GPZDA,013012.00,12,01,2018,00,00*6E
2018-01-11 20:30:11 1515720611.806924: $GPGGA,013012,3946.9584,N,08404.9841,W,2,10,0.80,304.54,M,-33.324,M,,*71
2018-01-11 20:30:11 1515720611.806987: $GPRMC,013012,A,3946.9584,N,08404.9841,W,0.0000,0.000,120118,,*31
2018-01-11 20:30:11 1515720611.807101: $GPGSA,A,3,7,8,9,11,16,23,27,28,30,138,,,4.0,0.8,3.5*3E
2018-01-11 20:30:12 1515720612.356421: $GPZDA,013013.00,12,01,2018,00,00*6F
2018-01-11 20:30:12 1515720612.356561: $GPGGA,013013,3946.9584,N,08404.9841,W,2,10,0.80,304.54,M,-33.324,M,,*70
2018-01-11 20:30:12 1515720612.356627: $GPRMC,013013,A,3946.9584,N,08404.9841,W,0.0000,0.000,120118,,*30
2018-01-11 20:30:12 1515720612.356687: $GPGSA,A,3,7,8,9,11,16,23,27,28,30,138,,,4.0,0.8,3.5*3E
2018-01-11 20:30:13 1515720613.359889: $GPZDA,013014.00,12,01,2018,00,00*68
2018-01-11 20:30:13 1515720613.360042: $GPGGA,013014,3946.9584,N,08404.9841,W,2,10,0.80,304.54,M,-33.324,M,,*77
2018-01-11 20:30:13 1515720613.360107: $GPRMC,013014,A,3946.9584,N,08404.9841,W,0.0000,0.000,120118,,*37
2018-01-11 20:30:13 1515720613.360167: $GPGSA,A,3,7,8,9,11,16,23,27,28,30,138,,,4.0,0.8,3.5*3E
2018-01-11 20:30:14 1515720614.693530: $GPGSV,3,1,11,07,64,316,43,08,75,094,45,09,41,220,42,11,28,165,46*7B
2018-01-11 20:30:14 1515720614.695863: $GPGSV,3,2,11,16,17,066,37,23,20,187,48,27,40,048,50,28,20,265,38*76
2018-01-11 20:30:14 1515720614.695980: $GPGSV,3,3,11,30,37,309,34,01,05,159,00,138,38,213,45*7A
2018-01-11 20:30:14 1515720614.807178: $GPZDA,013015.00,12,01,2018,00,00*69
2018-01-11 20:30:14 1515720614.807314: $GPGGA,013015,3946.9584,N,08404.9841,W,2,10,0.80,304.54,M,-33.324,M,,*76
2018-01-11 20:30:14 1515720614.807380: $GPRMC,013015,A,3946.9584,N,08404.9841,W,0.0000,0.000,120118,,*36
2018-01-11 20:30:14 1515720614.807459: $GPGSA,A,3,7,8,9,11,16,23,27,28,30,138,,,4.0,0.8,3.5*3E
2018-01-11 20:30:15 1515720615.356783: $GPZDA,013016.00,12,01,2018,00,00*6A
2018-01-11 20:30:15 1515720615.356939: $GPGGA,013016,3946.9584,N,08404.9841,W,2,10,0.80,304.54,M,-33.324,M,,*75
2018-01-11 20:30:15 1515720615.357008: $GPRMC,013016,A,3946.9584,N,08404.9841,W,0.0000,0.000,120118,,*35
2018-01-11 20:30:15 1515720615.357085: $GPGSA,A,3,7,8,9,11,16,23,27,28,30,138,,,4.0,0.8,3.5*3E
2018-01-11 20:30:16 1515720616.372689: $GPZDA,013017.00,12,01,2018,00,00*6B
2018-01-11 20:30:16 1515720616.372855: $GPGGA,013017,3946.9584,N,08404.9841,W,2,10,0.80,304.54,M,-33.324,M,,*74
2018-01-11 20:30:16 1515720616.372921: $GPRMC,013017,A,3946.9584,N,08404.9841,W,0.0000,0.000,120118,,*34
2018-01-11 20:30:16 1515720616.373000: $GPGSA,A,3,7,8,9,11,16,23,27,28,30,138,,,4.0,0.8,3.5*3E
2018-01-11 20:30:17 1515720617.709436: $GPGSV,3,1,11,07,64,316,43,08,75,094,45,09,41,220,42,11,28,165,46*7B
2018-01-11 20:30:17 1515720617.709622: $GPGSV,3,2,11,16,17,066,37,23,20,187,48,27,40,048,50,28,20,265,38*76
2018-01-11 20:30:17 1515720617.709690: $GPGSV,3,3,11,30,37,309,34,01,05,159,00,138,38,213,45*7A
2018-01-11 20:30:17 1515720617.823014: $GPZDA,013018.00,12,01,2018,00,00*64
2018-01-11 20:30:17 1515720617.823130: $GPGGA,013018,3946.9584,N,08404.9841,W,2,10,0.80,304.54,M,-33.324,M,,*7B
2018-01-11 20:30:17 1515720617.823194: $GPRMC,013018,A,3946.9584,N,08404.9841,W,0.0000,0.000,120118,,*3B
2018-01-11 20:30:17 1515720617.823255: $GPGSA,A,3,7,8,9,11,16,23,27,28,30,138,,,4.0,0.8,3.5*3E
2018-01-11 20:30:18 1515720618.373873: $GPZDA,013019.00,12,01,2018,00,00*65
2018-01-11 20:30:18 1515720618.374017: $GPGGA,013019,3946.9584,N,08404.9841,W,2,10,0.80,304.54,M,-33.324,M,,*7A
2018-01-11 20:30:18 1515720618.374082: $GPRMC,013019,A,3946.9584,N,08404.9841,W,0.0000,0.000,120118,,*3A
2018-01-11 20:30:18 1515720618.374143: $GPGSA,A,3,7,8,9,11,16,23,27,28,30,138,,,4.0,0.8,3.5*3E
