2017-11-16 17:42:03 1510872123.683997: {"class":"VERSION","release":"3.17","rev":"3.17","proto_major":3,"proto_minor":12}
2017-11-16 17:42:03 1510872123.684578: {"class":"DEVICES","devices":[{"class":"DEVICE","path":"/dev/ttyUSB0","driver":"SiRF","subtype":"9\u0006GSD4e_4.1.2-P1_RPATCH.05-F-GPS-4R-1510281 11/03/2015 307","activated":"2017-11-16T22:42:03.302Z","flags":1,"native":1,"bps":4800,"parity":"N","stopbits":1,"cycle":1.00}]}
2017-11-16 17:42:03 1510872123.684699: {"class":"WATCH","enable":true,"json":false,"nmea":true,"raw":0,"scaled":false,"timing":false,"split24":false,"pps":false}
2017-11-16 17:42:03 1510872123.752375: $GPGSV,3,1,12,01,22,295,32,10,43,150,44,22,23,312,42,12,20,045,49*7E
2017-11-16 17:42:03 1510872123.752557: $GPGSV,3,2,12,14,68,339,46,18,14,145,36,26,06,183,27,11,07,277,40*7E
2017-11-16 17:42:03 1510872123.752618: $GPGSV,3,3,12,25,40,084,49,31,60,229,48,32,67,039,49,138,38,213,44*4F
2017-11-16 17:42:03 1510872123.865659: $GPZDA,224202.00,16,11,2017,00,00*61
2017-11-16 17:42:03 1510872123.865818: $GPGGA,224202,3946.9575,N,08404.9841,W,2,12,0.80,301.85,M,-33.324,M,,*71
2017-11-16 17:42:03 1510872123.865878: $GPRMC,224202,A,3946.9575,N,08404.9841,W,0.0000,0.000,161117,,*30
2017-11-16 17:42:03 1510872123.865934: $GPGSA,A,3,1,10,22,12,14,18,26,11,25,31,32,138,1.6,0.8,1.3*3A
2017-11-16 17:42:04 1510872124.388174: $GPZDA,224203.00,16,11,2017,00,00*60
2017-11-16 17:42:04 1510872124.388346: $GPGGA,224203,3946.9575,N,08404.9841,W,2,12,0.80,301.85,M,-33.324,M,,*70
2017-11-16 17:42:04 1510872124.388432: $GPRMC,224203,A,3946.9575,N,08404.9841,W,0.0000,0.000,161117,,*31
2017-11-16 17:42:04 1510872124.388489: $GPGSA,A,3,1,10,22,12,14,18,26,11,25,31,32,138,1.6,0.8,1.3*3A
2017-11-16 17:42:05 1510872125.393990: $GPZDA,224204.00,16,11,2017,00,00*67
2017-11-16 17:42:05 1510872125.394161: $GPGGA,224204,3946.9575,N,08404.9841,W,2,12,0.80,301.85,M,-33.324,M,,*77
2017-11-16 17:42:05 1510872125.394222: $GPRMC,224204,A,3946.9575,N,08404.9841,W,0.0000,0.000,161117,,*36
2017-11-16 17:42:05 1510872125.394277: $GPGSA,A,3,1,10,22,12,14,18,26,11,25,31,32,138,1.6,0.8,1.3*3A
2017-11-16 17:42:06 1510872126.730177: $GPGSV,3,1,12,01,22,295,31,10,43,150,44,22,23,312,42,12,20,045,49*7D
2017-11-16 17:42:06 1510872126.730349: $GPGSV,3,2,12,14,68,339,46,18,14,145,35,26,06,183,27,11,07,277,41*7C
2017-11-16 17:42:06 1510872126.730409: $GPGSV,3,3,12,25,40,084,49,31,60,229,48,32,67,039,49,138,38,213,45*4E
2017-11-16 17:42:06 1510872126.843714: $GPZDA,224205.00,16,11,2017,00,00*66
2017-11-16 17:42:06 1510872126.843863: $GPGGA,224205,3946.9575,N,08404.9841,W,2,12,0.80,301.85,M,-33.324,M,,*76
2017-11-16 17:42:06 1510872126.843924: $GPRMC,224205,A,3946.9575,N,08404.9841,W,0.0000,0.000,161117,,*37
2017-11-16 17:42:06 1510872126.843980: $GPGSA,A,3,1,10,22,12,14,18,26,11,25,31,32,138,1.6,0.8,1.3*3A
2017-11-16 17:42:07 1510872127.394292: $GPZDA,224206.00,16,11,2017,00,00*65
2017-11-16 17:42:07 1510872127.394458: $GPGGA,224206,3946.9575,N,08404.9841,W,2,12,0.80,301.85,M,-33.324,M,,*75
2017-11-16 17:42:07 1510872127.394519: $GPRMC,224206,A,3946.9575,N,08404.9841,W,0.0000,0.000,161117,,*34
2017-11-16 17:42:07 1510872127.394578: $GPGSA,A,3,1,10,22,12,14,18,26,11,25,31,32,138,1.6,0.8,1.3*3A
2017-11-16 17:42:08 1510872128.395225: $GPZDA,224207.00,16,11,2017,00,00*64
2017-11-16 17:42:08 1510872128.395407: $GPGGA,224207,3946.9575,N,08404.9841,W,2,12,0.80,301.85,M,-33.324,M,,*74
2017-11-16 17:42:08 1510872128.395472: $GPRMC,224207,A,3946.9575,N,08404.9841,W,0.0000,0.000,161117,,*35
2017-11-16 17:42:08 1510872128.395531: $GPGSA,A,3,1,10,22,12,14,18,26,11,25,31,32,138,1.6,0.8,1.3*3A
2017-11-16 17:42:09 1510872129.729764: $GPGSV,3,1,12,01,22,295,31,10,43,150,44,22,23,312,41,12,20,045,49*7E
2017-11-16 17:42:09 1510872129.729944: $GPGSV,3,2,12,14,68,339,46,18,14,145,35,26,06,183,27,11,07,277,41*7C
2017-11-16 17:42:09 1510872129.730005: $GPGSV,3,3,12,25,40,084,48,31,60,229,48,32,67,039,49,138,38,213,43*49
2017-11-16 17:42:09 1510872129.843118: $GPZDA,224208.00,16,11,2017,00,00*6B
2017-11-16 17:42:09 1510872129.843282: $GPGGA,224208,3946.9575,N,08404.9841,W,2,12,0.80,301.85,M,-33.324,M,,*7B
2017-11-16 17:42:09 1510872129.843400: $GPRMC,224208,A,3946.9575,N,08404.9841,W,0.0000,0.000,161117,,*3A
2017-11-16 17:42:09 1510872129.843457: $GPGSA,A,3,1,10,22,12,14,18,26,11,25,31,32,138,1.6,0.8,1.3*3A
2017-11-16 17:42:10 1510872130.416534: $GPZDA,224209.00,16,11,2017,00,00*6A
2017-11-16 17:42:10 1510872130.416712: $GPGGA,224209,3946.9575,N,08404.9841,W,2,12,0.80,301.85,M,-33.324,M,,*7A
2017-11-16 17:42:10 1510872130.416794: $GPRMC,224209,A,3946.9575,N,08404.9841,W,0.0000,0.000,161117,,*3B
2017-11-16 17:42:10 1510872130.416853: $GPGSA,A,3,1,10,22,12,14,18,26,11,25,31,32,138,1.6,0.8,1.3*3A
2017-11-16 17:42:11 1510872131.394403: $GPZDA,224210.00,16,11,2017,00,00*62
2017-11-16 17:42:11 1510872131.394566: $GPGGA,224210,3946.9575,N,08404.9841,W,2,12,0.80,301.85,M,-33.324,M,,*72
2017-11-16 17:42:11 1510872131.394628: $GPRMC,224210,A,3946.9575,N,08404.9841,W,0.0000,0.000,161117,,*33
2017-11-16 17:42:11 1510872131.394683: $GPGSA,A,3,1,10,22,12,14,18,26,11,25,31,32,138,1.6,0.8,1.3*3A
2017-11-16 17:42:12 1510872132.731344: $GPGSV,3,1,12,01,22,295,25,10,43,150,44,22,23,312,42,12,20,045,49*78
2017-11-16 17:42:12 1510872132.731524: $GPGSV,3,2,12,14,68,339,46,18,14,145,35,26,06,183,27,11,07,277,41*7C
2017-11-16 17:42:12 1510872132.731584: $GPGSV,3,3,12,25,40,084,48,31,60,229,48,32,67,039,50,138,38,213,43*41
2017-11-16 17:42:12 1510872132.843733: $GPZDA,224211.00,16,11,2017,00,00*63
2017-11-16 17:42:12 1510872132.843905: $GPGGA,224211,3946.9575,N,08404.9841,W,2,12,0.80,301.85,M,-33.324,M,,*73
2017-11-16 17:42:12 1510872132.843966: $GPRMC,224211,A,3946.9575,N,08404.9841,W,0.0000,0.000,161117,,*32
2017-11-16 17:42:12 1510872132.844022: $GPGSA,A,3,1,10,22,12,14,18,26,11,25,31,32,138,1.6,0.8,1.3*3A
2017-11-16 17:42:13 1510872133.416854: $GPZDA,224212.00,16,11,2017,00,00*60
2017-11-16 17:42:13 1510872133.417015: $GPGGA,224212,3946.9575,N,08404.9841,W,2,12,0.80,301.85,M,-33.324,M,,*70
2017-11-16 17:42:13 1510872133.417076: $GPRMC,224212,A,3946.9575,N,08404.9841,W,0.0000,0.000,161117,,*31
2017-11-16 17:42:13 1510872133.417132: $GPGSA,A,3,1,10,22,12,14,18,26,11,25,31,32,138,1.6,0.8,1.3*3A
