2017-12-01 17:06:40 1512166000.406791: {"class":"VERSION","release":"3.16","rev":"3.16-4","proto_major":3,"proto_minor":11}
2017-12-01 17:06:40 1512166000.407188: {"class":"DEVICES","devices":[{"class":"DEVICE","path":"/dev/ttyUSB0","driver":"SiRF","subtype":"9\u0006GSD4e_4.1.2-P1_RPATCH.05-F-GPS-4R-1510281 11/03/2015 307","activated":"2017-12-01T22:06:40.327Z","flags":1,"native":1,"bps":4800,"parity":"N","stopbits":1,"cycle":1.00}]}
2017-12-01 17:06:40 1512166000.407341: {"class":"WATCH","enable":true,"json":false,"nmea":true,"raw":0,"scaled":false,"timing":false,"split24":false,"pps":false}
2017-12-01 17:06:40 1512166000.440874: $GPZDA,220641.00,01,12,2017,00,00*63
2017-12-01 17:06:40 1512166000.441035: $GPGGA,220641,3946.9622,N,08404.9750,W,2,12,0.80,297.72,M,-33.324,M,,*7E
2017-12-01 17:06:40 1512166000.441100: $GPRMC,220641,A,3946.9622,N,08404.9750,W,0.0000,0.000,011217,,*3C
2017-12-01 17:06:40 1512166000.441161: $GPGSA,A,3,1,3,10,14,22,26,31,32,12,11,25,138,2.0,0.8,1.5*03
2017-12-01 17:06:41 1512166001.774984: $GPGSV,3,1,12,01,21,283,39,03,13,316,43,10,31,154,35,14,70,012,45*7E
2017-12-01 17:06:41 1512166001.775162: $GPGSV,3,2,12,22,32,307,46,26,17,180,39,31,72,249,48,32,61,066,47*7C
2017-12-01 17:06:41 1512166001.775229: $GPGSV,3,3,12,12,13,037,08,11,02,268,33,25,39,067,28,138,38,213,35*48
2017-12-01 17:06:41 1512166001.887129: $GPZDA,220642.00,01,12,2017,00,00*60
2017-12-01 17:06:41 1512166001.887270: $GPGGA,220642,3946.9622,N,08404.9750,W,2,12,0.80,297.72,M,-33.324,M,,*7D
2017-12-01 17:06:41 1512166001.887359: $GPRMC,220642,A,3946.9622,N,08404.9750,W,0.0000,0.000,011217,,*3F
2017-12-01 17:06:41 1512166001.887421: $GPGSA,A,3,1,3,10,14,22,26,31,32,12,11,25,138,2.0,0.8,1.5*03
2017-12-01 17:06:42 1512166002.440266: $GPZDA,220643.00,01,12,2017,00,00*61
2017-12-01 17:06:42 1512166002.440521: $GPGGA,220643,3946.9622,N,08404.9750,W,2,12,1.00,297.72,M,-33.324,M,,*75
2017-12-01 17:06:42 1512166002.440592: $GPRMC,220643,A,3946.9622,N,08404.9750,W,0.0000,0.000,011217,,*3E
2017-12-01 17:06:42 1512166002.440653: $GPGSA,A,3,1,3,10,14,22,26,31,32,12,11,25,138,2.0,1.0,1.5*0A
2017-12-01 17:06:43 1512166003.439999: $GPZDA,220644.00,01,12,2017,00,00*66
2017-12-01 17:06:43 1512166003.440176: $GPGGA,220644,3946.9622,N,08404.9750,W,2,12,1.00,297.72,M,-33.324,M,,*72
2017-12-01 17:06:43 1512166003.440245: $GPRMC,220644,A,3946.9622,N,08404.9750,W,0.0000,0.000,011217,,*39
2017-12-01 17:06:43 1512166003.440330: $GPGSA,A,3,1,3,10,14,22,26,31,32,12,11,25,138,2.0,1.0,1.5*0A
2017-12-01 17:06:44 1512166004.790769: $GPGSV,3,1,12,01,21,283,39,03,13,316,43,10,31,154,35,14,70,012,45*7E
2017-12-01 17:06:44 1512166004.790954: $GPGSV,3,2,12,22,32,307,46,26,17,180,39,31,72,249,48,32,61,066,47*7C
2017-12-01 17:06:44 1512166004.791021: $GPGSV,3,3,12,12,13,037,05,18,03,148,14,25,39,067,28,138,38,213,38*44
2017-12-01 17:06:44 1512166004.904113: $GPZDA,220645.00,01,12,2017,00,00*67
2017-12-01 17:06:44 1512166004.904312: $GPGGA,220645,3946.9622,N,08404.9750,W,2,10,1.00,297.72,M,-33.324,M,,*71
2017-12-01 17:06:44 1512166004.904383: $GPRMC,220645,A,3946.9622,N,08404.9750,W,0.0000,0.000,011217,,*38
2017-12-01 17:06:44 1512166004.904464: $GPGSA,A,3,1,3,10,14,22,26,31,32,25,138,,,2.0,1.0,1.5*09
2017-12-01 17:06:45 1512166005.438764: $GPZDA,220646.00,01,12,2017,00,00*64
2017-12-01 17:06:45 1512166005.438956: $GPGGA,220646,3946.9622,N,08404.9750,W,2,10,1.00,297.72,M,-33.324,M,,*72
2017-12-01 17:06:45 1512166005.439024: $GPRMC,220646,A,3946.9622,N,08404.9750,W,0.0000,0.000,011217,,*3B
2017-12-01 17:06:45 1512166005.439085: $GPGSA,A,3,1,3,10,14,22,26,31,32,25,138,,,2.0,1.0,1.5*09
2017-12-01 17:06:46 1512166006.457982: $GPZDA,220647.00,01,12,2017,00,00*65
2017-12-01 17:06:46 1512166006.458180: $GPGGA,220647,3946.9622,N,08404.9750,W,2,10,1.00,297.72,M,-33.324,M,,*73
2017-12-01 17:06:46 1512166006.458248: $GPRMC,220647,A,3946.9622,N,08404.9750,W,0.0000,0.000,011217,,*3A
2017-12-01 17:06:46 1512166006.458336: $GPGSA,A,3,1,3,10,14,22,26,31,32,25,138,,,2.0,1.0,1.5*09
2017-12-01 17:06:47 1512166007.793648: $GPGSV,3,1,12,01,21,283,38,03,13,316,43,10,31,154,34,14,70,012,45*7E
2017-12-01 17:06:47 1512166007.793883: $GPGSV,3,2,12,22,32,307,46,26,17,180,38,31,72,249,48,32,61,066,47*7D
2017-12-01 17:06:47 1512166007.793953: $GPGSV,3,3,12,12,13,037,04,18,03,148,14,25,39,067,28,138,38,213,40*4A
2017-12-01 17:06:47 1512166007.906953: $GPZDA,220648.00,01,12,2017,00,00*6A
2017-12-01 17:06:47 1512166007.907106: $GPGGA,220648,3946.9622,N,08404.9750,W,2,11,1.00,297.72,M,-33.324,M,,*7D
2017-12-01 17:06:47 1512166007.907172: $GPRMC,220648,A,3946.9622,N,08404.9750,W,0.0000,0.000,011217,,*35
2017-12-01 17:06:47 1512166007.907232: $GPGSA,A,3,1,3,10,14,22,26,31,32,18,25,138,,2.0,1.0,1.5*00
2017-12-01 17:06:48 1512166008.460799: $GPZDA,220649.00,01,12,2017,00,00*6B
2017-12-01 17:06:48 1512166008.460974: $GPGGA,220649,3946.9622,N,08404.9750,W,2,11,1.00,297.72,M,-33.324,M,,*7C
2017-12-01 17:06:48 1512166008.461041: $GPRMC,220649,A,3946.9622,N,08404.9750,W,0.0000,0.000,011217,,*34
2017-12-01 17:06:48 1512166008.461101: $GPGSA,A,3,1,3,10,14,22,26,31,32,18,25,138,,2.0,1.0,1.5*00
2017-12-01 17:06:49 1512166009.457463: $GPZDA,220650.00,01,12,2017,00,00*63
2017-12-01 17:06:49 1512166009.457650: $GPGGA,220650,3946.9622,N,08404.9750,W,2,11,1.00,297.72,M,-33.324,M,,*74
2017-12-01 17:06:49 1512166009.457718: $GPRMC,220650,A,3946.9622,N,08404.9750,W,0.0000,0.000,011217,,*3C
2017-12-01 17:06:49 1512166009.457779: $GPGSA,A,3,1,3,10,14,22,26,31,32,18,25,138,,2.0,1.0,1.5*00
2017-12-01 17:06:50 1512166010.775714: $GPGSV,3,1,12,01,21,283,38,03,13,316,43,10,31,154,34,14,70,012,45*7E
2017-12-01 17:06:50 1512166010.775895: $GPGSV,3,2,12,22,32,307,46,26,17,180,38,31,72,249,48,32,61,066,47*7D
2017-12-01 17:06:50 1512166010.775961: $GPGSV,3,3,12,12,13,037,07,18,03,148,15,25,39,067,28,138,38,213,40*48
2017-12-01 17:06:50 1512166010.889073: $GPZDA,220651.00,01,12,2017,00,00*62
2017-12-01 17:06:50 1512166010.889228: $GPGGA,220651,3946.9622,N,08404.9750,W,2,12,1.00,297.72,M,-33.324,M,,*76
2017-12-01 17:06:50 1512166010.889312: $GPRMC,220651,A,3946.9622,N,08404.9750,W,0.0000,0.000,011217,,*3D
2017-12-01 17:06:50 1512166010.889374: $GPGSA,A,3,1,3,10,14,22,26,31,32,12,18,25,138,2.0,1.0,1.5*03
2017-12-01 17:06:51 1512166011.514465: $GPZDA,220652.00,01,12,2017,00,00*61
2017-12-01 17:06:51 1512166011.514649: $GPGGA,220652,3946.9622,N,08404.9750,W,2,12,1.00,297.72,M,-33.324,M,,*75
2017-12-01 17:06:51 1512166011.514720: $GPRMC,220652,A,3946.9622,N,08404.9750,W,0.0000,0.000,011217,,*3E
2017-12-01 17:06:51 1512166011.514781: $GPGSA,A,3,1,3,10,14,22,26,31,32,12,18,25,138,2.0,1.0,1.5*03
2017-12-01 17:06:52 1512166012.457846: $GPZDA,220653.00,01,12,2017,00,00*60
2017-12-01 17:06:52 1512166012.458056: $GPGGA,220653,3946.9622,N,08404.9750,W,2,12,0.80,297.72,M,-33.324,M,,*7D
2017-12-01 17:06:52 1512166012.458125: $GPRMC,220653,A,3946.9622,N,08404.9750,W,0.0000,0.000,011217,,*3F
2017-12-01 17:06:52 1512166012.458186: $GPGSA,A,3,1,3,10,14,22,26,31,32,12,18,25,138,2.0,0.8,1.5*0A
2017-12-01 17:06:53 1512166013.776088: $GPGSV,3,1,12,01,21,283,38,03,13,316,43,10,31,154,34,14,70,012,45*7E
2017-12-01 17:06:53 1512166013.776288: $GPGSV,3,2,12,22,32,307,45,26,17,180,39,31,72,249,48,32,61,066,46*7E
2017-12-01 17:06:53 1512166013.776357: $GPGSV,3,3,12,12,13,037,08,18,03,148,16,25,39,067,25,138,38,213,38*46
2017-12-01 17:06:53 1512166013.889815: $GPZDA,220654.00,01,12,2017,00,00*67
2017-12-01 17:06:53 1512166013.889988: $GPGGA,220654,3946.9622,N,08404.9750,W,2,12,0.80,297.72,M,-33.324,M,,*7A
2017-12-01 17:06:53 1512166013.890055: $GPRMC,220654,A,3946.9622,N,08404.9750,W,0.0000,0.000,011217,,*38
2017-12-01 17:06:53 1512166013.890116: $GPGSA,A,3,1,3,10,14,22,26,31,32,12,18,25,138,2.0,0.8,1.5*0A
2017-12-01 17:06:54 1512166014.455632: $GPZDA,220655.00,01,12,2017,00,00*66
2017-12-01 17:06:54 1512166014.455791: $GPGGA,220655,3946.9622,N,08404.9750,W,2,12,0.80,297.72,M,-33.324,M,,*7B
2017-12-01 17:06:54 1512166014.455858: $GPRMC,220655,A,3946.9622,N,08404.9750,W,0.0000,0.000,011217,,*39
2017-12-01 17:06:54 1512166014.455919: $GPGSA,A,3,1,3,10,14,22,26,31,32,12,18,25,138,2.0,0.8,1.5*0A
2017-12-01 17:06:55 1512166015.457424: $GPZDA,220656.00,01,12,2017,00,00*65
2017-12-01 17:06:55 1512166015.457646: $GPGGA,220656,3946.9622,N,08404.9750,W,2,12,1.00,297.72,M,-33.324,M,,*71
2017-12-01 17:06:55 1512166015.457717: $GPRMC,220656,A,3946.9622,N,08404.9750,W,0.0000,0.000,011217,,*3A
2017-12-01 17:06:55 1512166015.457778: $GPGSA,A,3,1,3,10,14,22,26,31,32,12,18,25,138,2.0,1.0,1.5*03
2017-12-01 17:06:56 1512166016.793984: $GPGSV,3,1,12,01,21,283,38,03,13,316,43,10,31,154,34,14,70,012,45*7E
2017-12-01 17:06:56 1512166016.794171: $GPGSV,3,2,12,22,32,307,45,26,17,180,38,31,72,249,48,32,61,066,47*7E
2017-12-01 17:06:56 1512166016.794261: $GPGSV,3,3,12,12,13,037,08,18,03,148,15,25,39,067,20,138,38,213,40*4F
2017-12-01 17:06:56 1512166016.907420: $GPZDA,220657.00,01,12,2017,00,00*64
2017-12-01 17:06:56 1512166016.907559: $GPGGA,220657,3946.9622,N,08404.9750,W,2,12,1.00,297.72,M,-33.324,M,,*70
2017-12-01 17:06:56 1512166016.907625: $GPRMC,220657,A,3946.9622,N,08404.9750,W,0.0000,0.000,011217,,*3B
2017-12-01 17:06:56 1512166016.907686: $GPGSA,A,3,1,3,10,14,22,26,31,32,12,18,25,138,2.0,1.0,1.5*03
2017-12-01 17:06:57 1512166017.439432: $GPZDA,220658.00,01,12,2017,00,00*6B
2017-12-01 17:06:57 1512166017.439611: $GPGGA,220658,3946.9622,N,08404.9750,W,2,12,1.00,297.72,M,-33.324,M,,*7F
2017-12-01 17:06:57 1512166017.439679: $GPRMC,220658,A,3946.9622,N,08404.9750,W,0.0000,0.000,011217,,*34
2017-12-01 17:06:57 1512166017.439740: $GPGSA,A,3,1,3,10,14,22,26,31,32,12,18,25,138,2.0,1.0,1.5*03
2017-12-01 17:06:58 1512166018.456715: $GPZDA,220659.00,01,12,2017,00,00*6A
2017-12-01 17:06:58 1512166018.456891: $GPGGA,220659,3946.9622,N,08404.9750,W,2,12,1.00,297.72,M,-33.324,M,,*7E
2017-12-01 17:06:58 1512166018.456960: $GPRMC,220659,A,3946.9622,N,08404.9750,W,0.0000,0.000,011217,,*35
2017-12-01 17:06:58 1512166018.457021: $GPGSA,A,3,1,3,10,14,22,26,31,32,12,18,25,138,2.0,1.0,1.5*03
2017-12-01 17:06:59 1512166019.793565: $GPGSV,3,1,12,01,21,283,39,03,13,316,43,10,31,154,34,14,70,012,45*7F
2017-12-01 17:06:59 1512166019.793750: $GPGSV,3,2,12,22,32,307,45,26,17,180,39,31,72,249,47,32,61,066,48*7F
2017-12-01 17:06:59 1512166019.793818: $GPGSV,3,3,12,12,13,037,05,18,03,148,16,25,39,067,18,138,38,213,41*4B
2017-12-01 17:06:59 1512166019.906951: $GPZDA,220700.00,01,12,2017,00,00*67
2017-12-01 17:06:59 1512166019.907126: $GPGGA,220700,3946.9622,N,08404.9750,W,2,11,1.00,297.72,M,-33.324,M,,*70
2017-12-01 17:06:59 1512166019.907196: $GPRMC,220700,A,3946.9622,N,08404.9750,W,0.0000,0.000,011217,,*38
2017-12-01 17:06:59 1512166019.907283: $GPGSA,A,3,1,3,10,14,22,26,31,32,18,25,138,,2.0,1.0,1.5*00
