2017-11-15 19:15:53 1510791353.012147: {"class":"VERSION","release":"3.17","rev":"3.17","proto_major":3,"proto_minor":12}
2017-11-15 19:15:53 1510791353.012627: {"class":"DEVICES","devices":[{"class":"DEVICE","path":"/dev/ttyUSB0","driver":"SiRF","subtype":"9\u0006GSD4e_4.1.2-P1_RPATCH.05-F-GPS-4R-1510281 11/03/2015 307","activated":"2017-11-16T00:15:52.486Z","flags":1,"native":1,"bps":4800,"parity":"N","stopbits":1,"cycle":1.00}]}
2017-11-15 19:15:53 1510791353.012743: {"class":"WATCH","enable":true,"json":false,"nmea":true,"raw":0,"scaled":false,"timing":false,"split24":false,"pps":false}
2017-11-15 19:15:53 1510791353.345930: $GPZDA,001552.00,16,11,2017,00,00*66
2017-11-15 19:15:53 1510791353.346096: $GPGGA,001552,3946.9709,N,08404.9511,W,1,09,1.20,300.12,M,-33.324,M,,*7A
2017-11-15 19:15:53 1510791353.346158: $GPRMC,001552,A,3946.9709,N,08404.9511,W,0.2422,93.794,161117,,*00
2017-11-15 19:15:53 1510791353.346213: $GPGSA,A,3,32,14,22,26,31,16,3,1,29,,,,3.4,1.2,2.9*31
2017-11-15 19:15:54 1510791354.665545: $GPGSV,3,1,11,32,41,102,10,14,59,084,25,22,49,280,23,26,46,175,18*75
2017-11-15 19:15:54 1510791354.665716: $GPGSV,3,2,11,31,72,013,21,16,16,190,06,03,36,304,10,01,09,256,08*71
2017-11-15 19:15:54 1510791354.665776: $GPGSV,3,3,11,29,09,076,12,25,22,042,00,23,07,298,00*4D
2017-11-15 19:15:54 1510791354.778838: $GPZDA,001553.00,16,11,2017,00,00*67
2017-11-15 19:15:54 1510791354.779001: $GPGGA,001553,3946.9712,N,08404.9504,W,1,08,1.20,299.44,M,-33.324,M,,*76
2017-11-15 19:15:54 1510791354.779063: $GPRMC,001553,A,3946.9712,N,08404.9504,W,0.4207,39.347,161117,,*02
2017-11-15 19:15:54 1510791354.779118: $GPGSA,A,3,32,14,22,26,31,3,1,29,,,,,3.4,1.2,2.9*36
2017-11-15 19:15:55 1510791355.331247: $GPZDA,001554.00,16,11,2017,00,00*60
2017-11-15 19:15:55 1510791355.331411: $GPGGA,001554,3946.9712,N,08404.9497,W,1,08,1.20,299.51,M,-33.324,M,,*7E
2017-11-15 19:15:55 1510791355.331472: $GPRMC,001554,A,3946.9712,N,08404.9497,W,0.8054,68.645,161117,,*05
2017-11-15 19:15:55 1510791355.331528: $GPGSA,A,3,32,14,22,26,31,3,1,29,,,,,3.4,1.2,2.9*36
2017-11-15 19:15:56 1510791356.346314: $GPZDA,001555.00,16,11,2017,00,00*61
2017-11-15 19:15:56 1510791356.346482: $GPGGA,001555,3946.9716,N,08404.9496,W,1,08,1.00,298.75,M,-33.324,M,,*7F
2017-11-15 19:15:56 1510791356.346545: $GPRMC,001555,A,3946.9716,N,08404.9496,W,0.8414,39.347,161117,,*02
2017-11-15 19:15:56 1510791356.346601: $GPGSA,A,3,32,14,22,26,31,3,1,29,,,,,3.4,1.0,2.9*34
2017-11-15 19:15:57 1510791357.667223: $GPGSV,3,1,11,32,41,102,10,14,59,084,25,22,49,280,23,26,46,175,17*7A
2017-11-15 19:15:57 1510791357.667394: $GPGSV,3,2,11,31,72,013,21,16,16,190,06,03,36,304,11,01,09,256,08*70
2017-11-15 19:15:57 1510791357.667454: $GPGSV,3,3,11,29,09,076,12,25,22,042,00,23,07,298,00*4D
2017-11-15 19:15:57 1510791357.780565: $GPZDA,001556.00,16,11,2017,00,00*62
2017-11-15 19:15:57 1510791357.780754: $GPGGA,001556,3946.9719,N,08404.9489,W,1,08,1.20,299.47,M,-33.324,M,,*7F
2017-11-15 19:15:57 1510791357.780820: $GPRMC,001556,A,3946.9719,N,08404.9489,W,1.0567,17.448,161117,,*08
2017-11-15 19:15:57 1510791357.780879: $GPGSA,A,3,32,14,22,26,31,3,1,29,,,,,3.4,1.2,2.9*36
2017-11-15 19:15:58 1510791358.346315: $GPZDA,001557.00,16,11,2017,00,00*63
2017-11-15 19:15:58 1510791358.346481: $GPGGA,001557,3946.9723,N,08404.9488,W,1,08,1.40,298.70,M,-33.324,M,,*75
2017-11-15 19:15:58 1510791358.346542: $GPRMC,001557,A,3946.9723,N,08404.9488,W,0.7278,23.636,161117,,*02
2017-11-15 19:15:58 1510791358.346598: $GPGSA,A,3,32,14,22,26,31,3,1,29,,,,,3.4,1.4,2.9*30
2017-11-15 19:15:59 1510791359.345938: $GPZDA,001558.00,16,11,2017,00,00*6C
2017-11-15 19:15:59 1510791359.346104: $GPGGA,001558,3946.9723,N,08404.9488,W,1,08,1.40,298.70,M,-33.324,M,,*7A
2017-11-15 19:15:59 1510791359.346169: $GPRMC,001558,A,3946.9723,N,08404.9488,W,0.7246,344.668,161117,,*39
2017-11-15 19:15:59 1510791359.346225: $GPGSA,A,3,32,14,22,26,31,3,1,29,,,,,3.4,1.4,2.9*30
2017-11-15 19:16:00 1510791360.666777: $GPGSV,3,1,11,32,41,102,10,14,59,084,25,22,49,280,23,26,46,175,17*7A
2017-11-15 19:16:00 1510791360.666966: $GPGSV,3,2,11,31,72,013,20,16,16,190,06,03,36,304,12,01,09,256,07*7D
2017-11-15 19:16:00 1510791360.667105: $GPGSV,3,3,11,25,22,042,00,29,09,076,00,23,07,298,00*4E
2017-11-15 19:16:00 1510791360.780150: $GPZDA,001559.00,16,11,2017,00,00*6D
2017-11-15 19:16:00 1510791360.780318: $GPGGA,001559,3946.9726,N,08404.9481,W,1,08,1.40,298.02,M,-33.324,M,,*72
2017-11-15 19:16:00 1510791360.780380: $GPRMC,001559,A,3946.9726,N,08404.9481,W,0.4207,39.347,161117,,*03
2017-11-15 19:16:00 1510791360.780435: $GPGSA,A,3,32,14,22,26,31,16,3,1,,,,,3.4,1.4,2.9*3C
2017-11-15 19:16:01 1510791361.405451: $GPZDA,001600.00,16,11,2017,00,00*62
2017-11-15 19:16:01 1510791361.405615: $GPGGA,001600,3946.9726,N,08404.9481,W,1,08,1.40,298.02,M,-33.324,M,,*7D
2017-11-15 19:16:01 1510791361.405678: $GPRMC,001600,A,3946.9726,N,08404.9481,W,0.4179,148.778,161117,,*39
2017-11-15 19:16:01 1510791361.405733: $GPGSA,A,3,32,14,22,26,31,16,3,1,,,,,3.4,1.4,2.9*3C
2017-11-15 19:16:02 1510791362.346657: $GPZDA,001601.00,16,11,2017,00,00*63
2017-11-15 19:16:02 1510791362.346860: $GPGGA,001601,3946.9726,N,08404.9481,W,1,08,1.40,298.02,M,-33.324,M,,*7C
2017-11-15 19:16:02 1510791362.346923: $GPRMC,001601,A,3946.9726,N,08404.9481,W,0.5306,114.352,161117,,*36
2017-11-15 19:16:02 1510791362.346979: $GPGSA,A,3,32,14,22,26,31,16,3,1,,,,,3.4,1.4,2.9*3C
