2017-12-01 11:37:18 1512146238.436898: {"class":"VERSION","release":"3.16","rev":"3.16-4","proto_major":3,"proto_minor":11}
2017-12-01 11:37:18 1512146238.437317: {"class":"DEVICES","devices":[{"class":"DEVICE","path":"/dev/ttyUSB0","driver":"SiRF","subtype":"9\u0006GSD4e_4.1.2-P1_RPATCH.05-F-GPS-4R-1510281 11/03/2015 307","activated":"2017-12-01T16:37:18.408Z","flags":1,"native":1,"bps":4800,"parity":"N","stopbits":1,"cycle":1.00}]}
2017-12-01 11:37:18 1512146238.437462: {"class":"WATCH","enable":true,"json":false,"nmea":true,"raw":0,"scaled":false,"timing":false,"split24":false,"pps":false}
2017-12-01 11:37:20 1512146240.239467: $GPZDA,163720.00,01,12,2017,00,00*61
2017-12-01 11:37:20 1512146240.239662: $GPGGA,163720,3946.9561,N,08404.9823,W,2,11,0.80,306.55,M,-33.324,M,,*7C
2017-12-01 11:37:20 1512146240.239730: $GPRMC,163720,A,3946.9561,N,08404.9823,W,0.0000,0.000,011217,,*31
2017-12-01 11:37:20 1512146240.239792: $GPGSA,A,3,5,10,13,15,18,20,21,24,27,29,138,,2.0,0.8,1.5*34
2017-12-01 11:37:20 1512146240.239851: $GPGBS,163720,2.67,M,3.86,M,8.82,M*33
2017-12-01 11:37:21 1512146241.026460: $GPGSV,3,1,12,05,16,075,25,10,11,270,35,13,45,051,46,15,77,082,47*75
2017-12-01 11:37:21 1512146241.026630: $GPGSV,3,2,12,18,42,283,44,20,64,045,41,21,64,307,46,24,18,150,41*70
2017-12-01 11:37:21 1512146241.026697: $GPGSV,3,3,12,27,07,325,39,29,27,196,44,04,14,129,00,138,38,213,45*4D
2017-12-01 11:37:21 1512146241.139830: $GPZDA,163721.00,01,12,2017,00,00*60
2017-12-01 11:37:21 1512146241.140006: $GPGGA,163721,3946.9561,N,08404.9823,W,2,11,0.80,306.55,M,-33.324,M,,*7D
2017-12-01 11:37:21 1512146241.140073: $GPRMC,163721,A,3946.9561,N,08404.9823,W,0.0000,0.000,011217,,*30
2017-12-01 11:37:21 1512146241.140134: $GPGSA,A,3,5,10,13,15,18,20,21,24,27,29,138,,2.0,0.8,1.5*34
2017-12-01 11:37:21 1512146241.765185: $GPZDA,163722.00,01,12,2017,00,00*63
2017-12-01 11:37:21 1512146241.765380: $GPGGA,163722,3946.9561,N,08404.9823,W,2,11,0.80,306.55,M,-33.324,M,,*7E
2017-12-01 11:37:21 1512146241.765449: $GPRMC,163722,A,3946.9561,N,08404.9823,W,0.0000,0.000,011217,,*33
2017-12-01 11:37:21 1512146241.765527: $GPGSA,A,3,5,10,13,15,18,20,21,24,27,29,138,,2.0,0.8,1.5*34
2017-12-01 11:37:22 1512146242.371033: $GPZDA,163723.00,01,12,2017,00,00*62
2017-12-01 11:37:22 1512146242.371205: $GPGGA,163723,3946.9561,N,08404.9823,W,2,11,0.80,306.55,M,-33.324,M,,*7F
2017-12-01 11:37:22 1512146242.371273: $GPRMC,163723,A,3946.9561,N,08404.9823,W,0.0000,0.000,011217,,*32
2017-12-01 11:37:22 1512146242.371334: $GPGSA,A,3,5,10,13,15,18,20,21,24,27,29,138,,2.0,0.8,1.5*34
2017-12-01 11:37:23 1512146243.690579: $GPGSV,3,1,12,05,16,075,26,10,11,270,36,13,45,051,46,15,77,082,47*75
2017-12-01 11:37:23 1512146243.690742: $GPGSV,3,2,12,18,42,283,44,20,64,045,41,21,64,307,46,24,18,150,42*73
2017-12-01 11:37:23 1512146243.690810: $GPGSV,3,3,12,27,07,325,39,29,27,196,44,04,14,129,00,138,38,213,45*4D
2017-12-01 11:37:23 1512146243.803927: $GPZDA,163724.00,01,12,2017,00,00*65
2017-12-01 11:37:23 1512146243.804098: $GPGGA,163724,3946.9557,N,08404.9824,W,2,11,0.80,307.32,M,-33.324,M,,*7A
2017-12-01 11:37:23 1512146243.804164: $GPRMC,163724,A,3946.9557,N,08404.9824,W,0.0000,0.000,011217,,*37
2017-12-01 11:37:23 1512146243.804224: $GPGSA,A,3,5,10,13,15,18,20,21,24,27,29,138,,2.0,0.8,1.5*34
2017-12-01 11:37:24 1512146244.354804: $GPZDA,163725.00,01,12,2017,00,00*64
2017-12-01 11:37:24 1512146244.354981: $GPGGA,163725,3946.9557,N,08404.9824,W,2,11,0.80,307.32,M,-33.324,M,,*7B
2017-12-01 11:37:24 1512146244.355051: $GPRMC,163725,A,3946.9557,N,08404.9824,W,0.0000,0.000,011217,,*36
2017-12-01 11:37:24 1512146244.355113: $GPGSA,A,3,5,10,13,15,18,20,21,24,27,29,138,,2.0,0.8,1.5*34
2017-12-01 11:37:25 1512146245.373166: $GPZDA,163726.00,01,12,2017,00,00*67
2017-12-01 11:37:25 1512146245.373404: $GPGGA,163726,3946.9557,N,08404.9824,W,2,11,0.80,307.32,M,-33.324,M,,*78
2017-12-01 11:37:25 1512146245.373492: $GPRMC,163726,A,3946.9557,N,08404.9824,W,0.0000,0.000,011217,,*35
2017-12-01 11:37:25 1512146245.373554: $GPGSA,A,3,5,10,13,15,18,20,21,24,27,29,138,,2.0,0.8,1.5*34
2017-12-01 11:37:26 1512146246.690906: $GPGSV,3,1,12,05,16,075,31,10,11,270,27,13,45,051,46,15,77,082,47*73
2017-12-01 11:37:26 1512146246.691088: $GPGSV,3,2,12,18,42,283,44,20,64,045,41,21,64,307,46,24,18,150,41*70
2017-12-01 11:37:26 1512146246.691153: $GPGSV,3,3,12,27,07,325,39,29,27,196,44,04,14,129,00,138,38,213,46*4E
2017-12-01 11:37:26 1512146246.804553: $GPZDA,163727.00,01,12,2017,00,00*66
2017-12-01 11:37:26 1512146246.804722: $GPGGA,163727,3946.9557,N,08404.9824,W,2,11,0.80,307.32,M,-33.324,M,,*79
2017-12-01 11:37:26 1512146246.804789: $GPRMC,163727,A,3946.9557,N,08404.9824,W,0.0000,0.000,011217,,*34
2017-12-01 11:37:26 1512146246.804851: $GPGSA,A,3,5,10,13,15,18,20,21,24,27,29,138,,2.0,0.8,1.5*34
2017-12-01 11:37:27 1512146247.371498: $GPZDA,163728.00,01,12,2017,00,00*69
2017-12-01 11:37:27 1512146247.371692: $GPGGA,163728,3946.9562,N,08404.9824,W,2,11,0.80,307.96,M,-33.324,M,,*7E
2017-12-01 11:37:27 1512146247.371763: $GPRMC,163728,A,3946.9562,N,08404.9824,W,0.0000,0.000,011217,,*3D
2017-12-01 11:37:27 1512146247.371826: $GPGSA,A,3,5,10,13,15,18,20,21,24,27,29,138,,2.0,0.8,1.5*34
2017-12-01 11:37:28 1512146248.356287: $GPZDA,163729.00,01,12,2017,00,00*68
2017-12-01 11:37:28 1512146248.356495: $GPGGA,163729,3946.9562,N,08404.9824,W,2,11,0.80,307.96,M,-33.324,M,,*7F
2017-12-01 11:37:28 1512146248.356564: $GPRMC,163729,A,3946.9562,N,08404.9824,W,0.0000,0.000,011217,,*3C
2017-12-01 11:37:28 1512146248.356624: $GPGSA,A,3,5,10,13,15,18,20,21,24,27,29,138,,2.0,0.8,1.5*34
