2017-11-16 17:27:54 1510871274.532789: {"class":"VERSION","release":"3.17","rev":"3.17","proto_major":3,"proto_minor":12}
2017-11-16 17:27:54 1510871274.533213: {"class":"DEVICES","devices":[{"class":"DEVICE","path":"/dev/ttyUSB0","driver":"SiRF","subtype":"9\u0006GSD4e_4.1.2-P1_RPATCH.05-F-GPS-4R-1510281 11/03/2015 307","activated":"2017-11-16T22:27:54.308Z","flags":1,"native":1,"bps":4800,"parity":"N","stopbits":1,"cycle":1.00}]}
2017-11-16 17:27:54 1510871274.533343: {"class":"WATCH","enable":true,"json":false,"nmea":true,"raw":0,"scaled":false,"timing":false,"split24":false,"pps":false}
2017-11-16 17:27:54 1510871274.757696: $GPGSV,3,1,11,01,21,303,38,10,50,147,49,22,17,312,44,12,23,051,51*7D
2017-11-16 17:27:54 1510871274.757850: $GPGSV,3,2,11,14,65,324,47,18,20,144,34,11,09,283,42,25,39,093,48*78
2017-11-16 17:27:54 1510871274.757911: $GPGSV,3,3,11,31,53,223,49,32,69,022,49,138,38,213,44*71
2017-11-16 17:27:54 1510871274.871288: $GPZDA,222753.00,16,11,2017,00,00*66
2017-11-16 17:27:54 1510871274.871447: $GPGGA,222753,3946.9573,N,08404.9830,W,2,11,0.80,306.99,M,-33.324,M,,*7F
2017-11-16 17:27:54 1510871274.871509: $GPRMC,222753,A,3946.9573,N,08404.9830,W,0.0000,0.000,161117,,*37
2017-11-16 17:27:54 1510871274.871565: $GPGSA,A,3,1,10,22,12,14,18,11,25,31,32,138,,1.6,0.8,1.3*3E
2017-11-16 17:27:55 1510871275.422149: $GPZDA,222754.00,16,11,2017,00,00*61
2017-11-16 17:27:55 1510871275.422314: $GPGGA,222754,3946.9573,N,08404.9830,W,2,11,0.80,306.99,M,-33.324,M,,*78
2017-11-16 17:27:55 1510871275.422377: $GPRMC,222754,A,3946.9573,N,08404.9830,W,0.0000,0.000,161117,,*30
2017-11-16 17:27:55 1510871275.422432: $GPGSA,A,3,1,10,22,12,14,18,11,25,31,32,138,,1.6,0.8,1.3*3E
2017-11-16 17:27:56 1510871276.396319: $GPZDA,222755.00,16,11,2017,00,00*60
2017-11-16 17:27:56 1510871276.396482: $GPGGA,222755,3946.9573,N,08404.9830,W,2,11,0.80,306.99,M,-33.324,M,,*79
2017-11-16 17:27:56 1510871276.396544: $GPRMC,222755,A,3946.9573,N,08404.9830,W,0.0000,0.000,161117,,*31
2017-11-16 17:27:56 1510871276.396600: $GPGSA,A,3,1,10,22,12,14,18,11,25,31,32,138,,1.6,0.8,1.3*3E
2017-11-16 17:27:57 1510871277.757938: $GPGSV,3,1,11,01,21,303,38,10,50,147,49,22,17,312,44,12,23,051,51*7D
2017-11-16 17:27:57 1510871277.758085: $GPGSV,3,2,11,14,65,324,48,18,20,144,34,11,09,283,42,25,39,093,48*77
2017-11-16 17:27:57 1510871277.758148: $GPGSV,3,3,11,31,53,223,49,32,69,022,49,138,38,213,45*70
2017-11-16 17:27:57 1510871277.871280: $GPZDA,222756.00,16,11,2017,00,00*63
2017-11-16 17:27:57 1510871277.871454: $GPGGA,222756,3946.9573,N,08404.9830,W,2,11,0.80,306.99,M,-33.324,M,,*7A
2017-11-16 17:27:57 1510871277.871517: $GPRMC,222756,A,3946.9573,N,08404.9830,W,0.0000,0.000,161117,,*32
2017-11-16 17:27:57 1510871277.871573: $GPGSA,A,3,1,10,22,12,14,18,11,25,31,32,138,,1.6,0.8,1.3*3E
2017-11-16 17:27:58 1510871278.422128: $GPZDA,222757.00,16,11,2017,00,00*62
2017-11-16 17:27:58 1510871278.422314: $GPGGA,222757,3946.9573,N,08404.9830,W,2,11,0.80,306.99,M,-33.324,M,,*7B
2017-11-16 17:27:58 1510871278.422378: $GPRMC,222757,A,3946.9573,N,08404.9830,W,0.0000,0.000,161117,,*33
2017-11-16 17:27:58 1510871278.422435: $GPGSA,A,3,1,10,22,12,14,18,11,25,31,32,138,,1.6,0.8,1.3*3E
2017-11-16 17:27:59 1510871279.423373: $GPZDA,222758.00,16,11,2017,00,00*6D
2017-11-16 17:27:59 1510871279.423534: $GPGGA,222758,3946.9573,N,08404.9830,W,2,11,0.80,306.99,M,-33.324,M,,*74
2017-11-16 17:27:59 1510871279.423596: $GPRMC,222758,A,3946.9573,N,08404.9830,W,0.0000,0.000,161117,,*3C
2017-11-16 17:27:59 1510871279.423652: $GPGSA,A,3,1,10,22,12,14,18,11,25,31,32,138,,1.6,0.8,1.3*3E
2017-11-16 17:28:00 1510871280.738818: $GPGSV,3,1,11,01,21,303,39,10,50,147,49,22,17,312,43,12,23,051,51*7B
2017-11-16 17:28:00 1510871280.738990: $GPGSV,3,2,11,14,65,324,47,18,20,144,34,11,09,283,42,25,39,093,47*77
2017-11-16 17:28:00 1510871280.739051: $GPGSV,3,3,11,31,53,223,49,32,69,022,49,138,38,213,44*71
2017-11-16 17:28:00 1510871280.852219: $GPZDA,222759.00,16,11,2017,00,00*6C
2017-11-16 17:28:00 1510871280.852370: $GPGGA,222759,3946.9573,N,08404.9830,W,2,11,0.80,306.99,M,-33.324,M,,*75
2017-11-16 17:28:00 1510871280.852483: $GPRMC,222759,A,3946.9573,N,08404.9830,W,0.0000,0.000,161117,,*3D
2017-11-16 17:28:00 1510871280.852540: $GPGSA,A,3,1,10,22,12,14,18,11,25,31,32,138,,1.6,0.8,1.3*3E
2017-11-16 17:28:01 1510871281.477845: $GPZDA,222800.00,16,11,2017,00,00*6F
2017-11-16 17:28:01 1510871281.478004: $GPGGA,222800,3946.9573,N,08404.9830,W,2,11,0.80,306.99,M,-33.324,M,,*76
2017-11-16 17:28:01 1510871281.478065: $GPRMC,222800,A,3946.9573,N,08404.9830,W,0.0000,0.000,161117,,*3E
2017-11-16 17:28:01 1510871281.478125: $GPGSA,A,3,1,10,22,12,14,18,11,25,31,32,138,,1.6,0.8,1.3*3E
2017-11-16 17:28:02 1510871282.403776: $GPZDA,222801.00,16,11,2017,00,00*6E
2017-11-16 17:28:02 1510871282.403920: $GPGGA,222801,3946.9573,N,08404.9830,W,2,11,0.80,306.99,M,-33.324,M,,*77
2017-11-16 17:28:02 1510871282.403982: $GPRMC,222801,A,3946.9573,N,08404.9830,W,0.0000,0.000,161117,,*3F
2017-11-16 17:28:02 1510871282.404037: $GPGSA,A,3,1,10,22,12,14,18,11,25,31,32,138,,1.6,0.8,1.3*3E
2017-11-16 17:28:03 1510871283.737899: $GPGSV,3,1,11,01,21,303,40,10,50,147,49,22,17,312,43,12,23,051,51*75
2017-11-16 17:28:03 1510871283.738067: $GPGSV,3,2,11,14,65,324,47,18,20,144,35,11,09,283,41,25,39,093,47*75
2017-11-16 17:28:03 1510871283.738147: $GPGSV,3,3,11,31,53,223,49,32,69,022,49,138,38,213,44*71
2017-11-16 17:28:03 1510871283.851332: $GPZDA,222802.00,16,11,2017,00,00*6D
2017-11-16 17:28:03 1510871283.851499: $GPGGA,222802,3946.9573,N,08404.9830,W,2,11,0.80,306.99,M,-33.324,M,,*74
2017-11-16 17:28:03 1510871283.851563: $GPRMC,222802,A,3946.9573,N,08404.9830,W,0.0000,0.000,161117,,*3C
2017-11-16 17:28:03 1510871283.851620: $GPGSA,A,3,1,10,22,12,14,18,11,25,31,32,138,,1.6,0.8,1.3*3E
2017-11-16 17:28:04 1510871284.402175: $GPZDA,222803.00,16,11,2017,00,00*6C
2017-11-16 17:28:04 1510871284.402348: $GPGGA,222803,3946.9573,N,08404.9830,W,2,11,0.80,306.99,M,-33.324,M,,*75
2017-11-16 17:28:04 1510871284.402411: $GPRMC,222803,A,3946.9573,N,08404.9830,W,0.0000,0.000,161117,,*3D
2017-11-16 17:28:04 1510871284.402470: $GPGSA,A,3,1,10,22,12,14,18,11,25,31,32,138,,1.6,0.8,1.3*3E
