2017-12-29 14:47:20 1514576840.176055: {"class":"VERSION","release":"3.16","rev":"3.16-4","proto_major":3,"proto_minor":11}
2017-12-29 14:47:20 1514576840.176558: {"class":"DEVICES","devices":[{"class":"DEVICE","path":"/dev/ttyUSB0","driver":"SiRF","subtype":"9\u0006GSD4e_4.1.2-P1_RPATCH.05-F-GPS-4R-1510281 11/03/2015 307","activated":"2017-12-29T19:47:20.150Z","flags":1,"native":1,"bps":4800,"parity":"N","stopbits":1,"cycle":1.00}]}
2017-12-29 14:47:20 1514576840.176677: {"class":"WATCH","enable":true,"json":false,"nmea":true,"raw":0,"scaled":false,"timing":false,"split24":false,"pps":false}
2017-12-29 14:47:20 1514576840.460835: $GPZDA,194721.00,29,12,2017,00,00*62
2017-12-29 14:47:20 1514576840.460994: $GPGGA,194721,3946.9576,N,08404.9916,W,2,12,0.80,286.10,M,-33.324,M,,*7F
2017-12-29 14:47:20 1514576840.461113: $GPRMC,194721,A,3946.9576,N,08404.9916,W,0.0000,0.000,291217,,*33
2017-12-29 14:47:20 1514576840.461178: $GPGSA,A,3,1,10,12,14,18,22,25,26,31,32,11,138,1.7,0.8,1.3*3B
2017-12-29 14:47:21 1514576841.392964: $GPZDA,194722.00,29,12,2017,00,00*61
2017-12-29 14:47:21 1514576841.393131: $GPGGA,194722,3946.9576,N,08404.9916,W,2,12,0.80,286.10,M,-33.324,M,,*7C
2017-12-29 14:47:21 1514576841.393198: $GPRMC,194722,A,3946.9576,N,08404.9916,W,0.0000,0.000,291217,,*30
2017-12-29 14:47:21 1514576841.393257: $GPGSA,A,3,1,10,12,14,18,22,25,26,31,32,11,138,1.7,0.8,1.3*3B
2017-12-29 14:47:22 1514576842.728409: $GPGSV,3,1,12,01,22,295,36,10,42,150,49,12,20,045,45,14,68,339,43*78
2017-12-29 14:47:22 1514576842.728578: $GPGSV,3,2,12,18,12,145,40,22,24,312,39,25,41,084,51,26,08,181,24*71
2017-12-29 14:47:22 1514576842.728643: $GPGSV,3,3,12,31,63,231,46,32,66,043,50,11,07,279,30,138,38,213,43*42
2017-12-29 14:47:22 1514576842.841862: $GPZDA,194723.00,29,12,2017,00,00*60
2017-12-29 14:47:22 1514576842.842024: $GPGGA,194723,3946.9576,N,08404.9916,W,2,12,0.80,286.10,M,-33.324,M,,*7D
2017-12-29 14:47:22 1514576842.842090: $GPRMC,194723,A,3946.9576,N,08404.9916,W,0.0000,0.000,291217,,*31
2017-12-29 14:47:22 1514576842.842151: $GPGSA,A,3,1,10,12,14,18,22,25,26,31,32,11,138,1.7,0.8,1.3*3B
2017-12-29 14:47:23 1514576843.391735: $GPZDA,194724.00,29,12,2017,00,00*67
2017-12-29 14:47:23 1514576843.391896: $GPGGA,194724,3946.9576,N,08404.9916,W,2,12,0.80,286.10,M,-33.324,M,,*7A
2017-12-29 14:47:23 1514576843.391962: $GPRMC,194724,A,3946.9576,N,08404.9916,W,0.0000,0.000,291217,,*36
2017-12-29 14:47:23 1514576843.392022: $GPGSA,A,3,1,10,12,14,18,22,25,26,31,32,11,138,1.7,0.8,1.3*3B
2017-12-29 14:47:24 1514576844.387426: $GPZDA,194725.00,29,12,2017,00,00*66
2017-12-29 14:47:24 1514576844.387597: $GPGGA,194725,3946.9575,N,08404.9909,W,2,12,0.80,286.18,M,-33.324,M,,*7E
2017-12-29 14:47:24 1514576844.387662: $GPRMC,194725,A,3946.9575,N,08404.9909,W,0.0000,0.000,291217,,*3A
2017-12-29 14:47:24 1514576844.387724: $GPGSA,A,3,1,10,12,14,18,22,25,26,31,32,11,138,1.7,0.8,1.3*3B
2017-12-29 14:47:24 1514576844.387782: $GPGBS,194725,2.73,M,2.59,M,7.72,M*38
2017-12-29 14:47:25 1514576845.722309: $GPGSV,3,1,12,01,22,295,36,10,42,150,49,12,20,045,46,14,68,339,42*7A
2017-12-29 14:47:25 1514576845.722484: $GPGSV,3,2,12,18,12,145,40,22,24,312,39,25,41,084,51,26,08,181,24*71
2017-12-29 14:47:25 1514576845.722550: $GPGSV,3,3,12,31,63,231,46,32,66,043,50,11,07,279,31,138,38,213,43*43
2017-12-29 14:47:25 1514576845.836032: $GPZDA,194726.00,29,12,2017,00,00*65
2017-12-29 14:47:25 1514576845.836203: $GPGGA,194726,3946.9579,N,08404.9909,W,2,12,0.80,286.82,M,-33.324,M,,*72
2017-12-29 14:47:25 1514576845.836269: $GPRMC,194726,A,3946.9579,N,08404.9909,W,0.0000,0.000,291217,,*35
2017-12-29 14:47:25 1514576845.836330: $GPGSA,A,3,1,10,12,14,18,22,25,26,31,32,11,138,1.7,0.8,1.3*3B
2017-12-29 14:47:26 1514576846.393194: $GPZDA,194727.00,29,12,2017,00,00*64
2017-12-29 14:47:26 1514576846.393368: $GPGGA,194727,3946.9576,N,08404.9910,W,2,12,0.80,287.58,M,-33.324,M,,*72
2017-12-29 14:47:26 1514576846.393435: $GPRMC,194727,A,3946.9576,N,08404.9910,W,0.0000,0.000,291217,,*33
2017-12-29 14:47:26 1514576846.393495: $GPGSA,A,3,1,10,12,14,18,22,25,26,31,32,11,138,1.7,0.8,1.3*3B
2017-12-29 14:47:27 1514576847.392874: $GPZDA,194728.00,29,12,2017,00,00*6B
2017-12-29 14:47:27 1514576847.393058: $GPGGA,194728,3946.9576,N,08404.9910,W,2,12,0.80,287.58,M,-33.324,M,,*7D
2017-12-29 14:47:27 1514576847.393124: $GPRMC,194728,A,3946.9576,N,08404.9910,W,0.0000,0.000,291217,,*3C
2017-12-29 14:47:27 1514576847.393185: $GPGSA,A,3,1,10,12,14,18,22,25,26,31,32,11,138,1.7,0.8,1.3*3B
2017-12-29 14:47:28 1514576848.728148: $GPGSV,3,1,12,01,22,295,36,10,42,150,49,12,20,045,46,14,68,339,42*7A
2017-12-29 14:47:28 1514576848.728314: $GPGSV,3,2,12,18,12,145,40,22,24,312,39,25,41,084,51,26,08,181,24*71
2017-12-29 14:47:28 1514576848.728381: $GPGSV,3,3,12,31,63,231,46,32,66,043,50,11,07,279,32,138,38,213,43*40
2017-12-29 14:47:28 1514576848.840675: $GPZDA,194729.00,29,12,2017,00,00*6A
2017-12-29 14:47:28 1514576848.840844: $GPGGA,194729,3946.9576,N,08404.9910,W,2,12,0.80,287.58,M,-33.324,M,,*7C
2017-12-29 14:47:28 1514576848.840910: $GPRMC,194729,A,3946.9576,N,08404.9910,W,0.0000,0.000,291217,,*3D
2017-12-29 14:47:28 1514576848.840970: $GPGSA,A,3,1,10,12,14,18,22,25,26,31,32,11,138,1.7,0.8,1.3*3B
2017-12-29 14:47:29 1514576849.392786: $GPZDA,194730.00,29,12,2017,00,00*62
2017-12-29 14:47:29 1514576849.392957: $GPGGA,194730,3946.9576,N,08404.9910,W,2,12,0.80,287.58,M,-33.324,M,,*74
2017-12-29 14:47:29 1514576849.393023: $GPRMC,194730,A,3946.9576,N,08404.9910,W,0.0000,0.000,291217,,*35
2017-12-29 14:47:29 1514576849.393083: $GPGSA,A,3,1,10,12,14,18,22,25,26,31,32,11,138,1.7,0.8,1.3*3B
