2017-12-01 11:58:54 1512147534.836803: {"class":"VERSION","release":"3.16","rev":"3.16-4","proto_major":3,"proto_minor":11}
2017-12-01 11:58:54 1512147534.837200: {"class":"DEVICES","devices":[{"class":"DEVICE","path":"/dev/ttyUSB0","driver":"SiRF","subtype":"9\u0006GSD4e_4.1.2-P1_RPATCH.05-F-GPS-4R-1510281 11/03/2015 307","activated":"2017-12-01T16:58:54.477Z","flags":1,"native":1,"bps":4800,"parity":"N","stopbits":1,"cycle":1.00}]}
2017-12-01 11:58:54 1512147534.837321: {"class":"WATCH","enable":true,"json":false,"nmea":true,"raw":0,"scaled":false,"timing":false,"split24":false,"pps":false}
2017-12-01 11:58:55 1512147535.339936: $GPZDA,165856.00,01,12,2017,00,00*69
2017-12-01 11:58:55 1512147535.340103: $GPGGA,165856,3946.9587,N,08404.9836,W,2,11,0.80,295.99,M,-33.324,M,,*73
2017-12-01 11:58:55 1512147535.340169: $GPRMC,165856,A,3946.9587,N,08404.9836,W,0.0000,0.000,011217,,*35
2017-12-01 11:58:55 1512147535.340230: $GPGSA,A,3,10,13,15,18,20,21,24,27,29,5,138,,2.0,0.8,1.5*34
2017-12-01 11:58:56 1512147536.658165: $GPGSV,3,1,12,10,17,277,37,13,37,046,45,15,69,058,45,18,48,291,45*75
2017-12-01 11:58:56 1512147536.658348: $GPGSV,3,2,12,20,58,061,44,21,73,297,45,24,26,144,45,27,12,319,44*76
2017-12-01 11:58:56 1512147536.658414: $GPGSV,3,3,12,29,18,192,44,04,07,133,00,05,09,081,29,138,38,213,46*4D
2017-12-01 11:58:56 1512147536.771724: $GPZDA,165857.00,01,12,2017,00,00*68
2017-12-01 11:58:56 1512147536.771886: $GPGGA,165857,3946.9584,N,08404.9837,W,2,11,0.80,296.75,M,-33.324,M,,*71
2017-12-01 11:58:56 1512147536.771952: $GPRMC,165857,A,3946.9584,N,08404.9837,W,0.0000,0.000,011217,,*36
2017-12-01 11:58:56 1512147536.772013: $GPGSA,A,3,10,13,15,18,20,21,24,27,29,5,138,,2.0,0.8,1.5*34
2017-12-01 11:58:57 1512147537.338942: $GPZDA,165858.00,01,12,2017,00,00*67
2017-12-01 11:58:57 1512147537.339106: $GPGGA,165858,3946.9584,N,08404.9837,W,2,11,0.80,296.75,M,-33.324,M,,*7E
2017-12-01 11:58:57 1512147537.339173: $GPRMC,165858,A,3946.9584,N,08404.9837,W,0.0000,0.000,011217,,*39
2017-12-01 11:58:57 1512147537.339234: $GPGSA,A,3,10,13,15,18,20,21,24,27,29,5,138,,2.0,0.8,1.5*34
2017-12-01 11:58:58 1512147538.339387: $GPZDA,165859.00,01,12,2017,00,00*66
2017-12-01 11:58:58 1512147538.339585: $GPGGA,165859,3946.9584,N,08404.9837,W,2,11,0.80,296.75,M,-33.324,M,,*7F
2017-12-01 11:58:58 1512147538.339653: $GPRMC,165859,A,3946.9584,N,08404.9837,W,0.0000,0.000,011217,,*38
2017-12-01 11:58:58 1512147538.339715: $GPGSA,A,3,10,13,15,18,20,21,24,27,29,5,138,,2.0,0.8,1.5*34
2017-12-01 11:58:59 1512147539.658538: $GPGSV,3,1,12,10,17,277,37,13,37,046,45,15,69,058,45,18,48,291,45*75
2017-12-01 11:58:59 1512147539.658708: $GPGSV,3,2,12,20,58,061,44,21,73,297,45,24,26,144,45,27,12,319,43*71
2017-12-01 11:58:59 1512147539.658775: $GPGSV,3,3,12,29,18,192,44,04,07,133,00,05,09,081,23,138,38,213,46*47
2017-12-01 11:58:59 1512147539.771973: $GPZDA,165900.00,01,12,2017,00,00*6B
2017-12-01 11:58:59 1512147539.772152: $GPGGA,165900,3946.9584,N,08404.9837,W,2,11,0.80,296.75,M,-33.324,M,,*72
2017-12-01 11:58:59 1512147539.772219: $GPRMC,165900,A,3946.9584,N,08404.9837,W,0.0000,0.000,011217,,*35
2017-12-01 11:58:59 1512147539.772281: $GPGSA,A,3,10,13,15,18,20,21,24,27,29,5,138,,2.0,0.8,1.5*34
2017-12-01 11:59:00 1512147540.341599: $GPZDA,165901.00,01,12,2017,00,00*6A
2017-12-01 11:59:00 1512147540.341773: $GPGGA,165901,3946.9584,N,08404.9837,W,2,11,0.80,296.75,M,-33.324,M,,*73
2017-12-01 11:59:00 1512147540.341840: $GPRMC,165901,A,3946.9584,N,08404.9837,W,0.0000,0.000,011217,,*34
2017-12-01 11:59:00 1512147540.341902: $GPGSA,A,3,10,13,15,18,20,21,24,27,29,5,138,,2.0,0.8,1.5*34
2017-12-01 11:59:01 1512147541.324965: $GPZDA,165902.00,01,12,2017,00,00*69
2017-12-01 11:59:01 1512147541.325169: $GPGGA,165902,3946.9584,N,08404.9837,W,2,11,0.80,296.75,M,-33.324,M,,*70
2017-12-01 11:59:01 1512147541.325241: $GPRMC,165902,A,3946.9584,N,08404.9837,W,0.0000,0.000,011217,,*37
2017-12-01 11:59:01 1512147541.325303: $GPGSA,A,3,10,13,15,18,20,21,24,27,29,5,138,,2.0,0.8,1.5*34
2017-12-01 11:59:02 1512147542.663242: $GPGSV,3,1,12,10,17,277,37,13,37,046,45,15,69,058,45,18,48,291,46*76
2017-12-01 11:59:02 1512147542.663472: $GPGSV,3,2,12,20,58,061,44,21,73,297,45,24,26,144,45,27,12,319,43*71
2017-12-01 11:59:02 1512147542.663541: $GPGSV,3,3,12,29,18,192,44,04,07,133,00,05,09,081,24,138,38,213,47*41
2017-12-01 11:59:02 1512147542.776495: $GPZDA,165903.00,01,12,2017,00,00*68
2017-12-01 11:59:02 1512147542.776653: $GPGGA,165903,3946.9584,N,08404.9837,W,2,11,0.80,296.75,M,-33.324,M,,*71
2017-12-01 11:59:02 1512147542.776720: $GPRMC,165903,A,3946.9584,N,08404.9837,W,0.0000,0.000,011217,,*36
2017-12-01 11:59:02 1512147542.776781: $GPGSA,A,3,10,13,15,18,20,21,24,27,29,5,138,,2.0,0.8,1.5*34
2017-12-01 11:59:03 1512147543.401916: $GPZDA,165904.00,01,12,2017,00,00*6F
2017-12-01 11:59:03 1512147543.402091: $GPGGA,165904,3946.9584,N,08404.9837,W,2,11,0.80,296.75,M,-33.324,M,,*76
2017-12-01 11:59:03 1512147543.402158: $GPRMC,165904,A,3946.9584,N,08404.9837,W,0.0000,0.000,011217,,*31
2017-12-01 11:59:03 1512147543.402219: $GPGSA,A,3,10,13,15,18,20,21,24,27,29,5,138,,2.0,0.8,1.5*34
2017-12-01 11:59:04 1512147544.322764: $GPZDA,165905.00,01,12,2017,00,00*6E
2017-12-01 11:59:04 1512147544.322934: $GPGGA,165905,3946.9584,N,08404.9837,W,2,11,0.80,296.75,M,-33.324,M,,*77
2017-12-01 11:59:04 1512147544.323002: $GPRMC,165905,A,3946.9584,N,08404.9837,W,0.0000,0.000,011217,,*30
2017-12-01 11:59:04 1512147544.323063: $GPGSA,A,3,10,13,15,18,20,21,24,27,29,5,138,,2.0,0.8,1.5*34
