2017-12-01 16:55:39 1512165339.406904: {"class":"VERSION","release":"3.16","rev":"3.16-4","proto_major":3,"proto_minor":11}
2017-12-01 16:55:39 1512165339.407316: {"class":"DEVICES","devices":[{"class":"DEVICE","path":"/dev/ttyUSB0","driver":"SiRF","subtype":"9\u0006GSD4e_4.1.2-P1_RPATCH.05-F-GPS-4R-1510281 11/03/2015 307","activated":"2017-12-01T21:55:39.401Z","flags":1,"native":1,"bps":4800,"parity":"N","stopbits":1,"cycle":1.00}]}
2017-12-01 16:55:39 1512165339.407439: {"class":"WATCH","enable":true,"json":false,"nmea":true,"raw":0,"scaled":false,"timing":false,"split24":false,"pps":false}
2017-12-01 16:55:40 1512165340.722230: $GPGSV,3,1,12,01,22,289,42,03,09,318,41,10,36,153,38,12,17,040,19*78
2017-12-01 16:55:40 1512165340.722414: $GPGSV,3,2,12,14,70,355,45,22,28,310,44,26,12,180,34,31,67,238,47*73
2017-12-01 16:55:40 1512165340.722483: $GPGSV,3,3,12,32,64,055,48,18,08,147,16,25,40,075,32,138,38,213,34*47
2017-12-01 16:55:40 1512165340.835889: $GPZDA,215541.00,01,12,2017,00,00*66
2017-12-01 16:55:40 1512165340.836030: $GPGGA,215541,3946.9640,N,08404.9761,W,2,12,0.80,295.14,M,-33.324,M,,*7F
2017-12-01 16:55:40 1512165340.836094: $GPRMC,215541,A,3946.9640,N,08404.9761,W,0.0000,0.000,011217,,*3F
2017-12-01 16:55:40 1512165340.836156: $GPGSA,A,3,1,3,10,12,14,22,26,31,32,18,25,138,2.0,0.8,1.5*0A
2017-12-01 16:55:41 1512165341.460958: $GPZDA,215542.00,01,12,2017,00,00*65
2017-12-01 16:55:41 1512165341.461132: $GPGGA,215542,3946.9640,N,08404.9761,W,2,12,0.80,295.14,M,-33.324,M,,*7C
2017-12-01 16:55:41 1512165341.461199: $GPRMC,215542,A,3946.9640,N,08404.9761,W,0.0000,0.000,011217,,*3C
2017-12-01 16:55:41 1512165341.461262: $GPGSA,A,3,1,3,10,12,14,22,26,31,32,18,25,138,2.0,0.8,1.5*0A
2017-12-01 16:55:42 1512165342.401848: $GPZDA,215543.00,01,12,2017,00,00*64
2017-12-01 16:55:42 1512165342.402029: $GPGGA,215543,3946.9640,N,08404.9761,W,2,12,0.80,295.14,M,-33.324,M,,*7D
2017-12-01 16:55:42 1512165342.402097: $GPRMC,215543,A,3946.9640,N,08404.9761,W,0.0000,0.000,011217,,*3D
2017-12-01 16:55:42 1512165342.402158: $GPGSA,A,3,1,3,10,12,14,22,26,31,32,18,25,138,2.0,0.8,1.5*0A
2017-12-01 16:55:43 1512165343.740108: $GPGSV,3,1,12,01,22,289,42,03,09,318,40,10,36,153,38,12,17,040,20*73
2017-12-01 16:55:43 1512165343.740291: $GPGSV,3,2,12,14,70,355,46,22,28,310,43,26,12,180,33,31,67,238,47*70
2017-12-01 16:55:43 1512165343.740358: $GPGSV,3,3,12,32,64,055,48,18,08,147,17,25,40,075,32,138,38,213,38*4A
2017-12-01 16:55:43 1512165343.853695: $GPZDA,215544.00,01,12,2017,00,00*63
2017-12-01 16:55:43 1512165343.853915: $GPGGA,215544,3946.9640,N,08404.9761,W,2,12,0.80,295.14,M,-33.324,M,,*7A
2017-12-01 16:55:43 1512165343.853983: $GPRMC,215544,A,3946.9640,N,08404.9761,W,0.0000,0.000,011217,,*3A
2017-12-01 16:55:43 1512165343.854043: $GPGSA,A,3,1,3,10,12,14,22,26,31,32,18,25,138,2.0,0.8,1.5*0A
2017-12-01 16:55:44 1512165344.403222: $GPZDA,215545.00,01,12,2017,00,00*62
2017-12-01 16:55:44 1512165344.403411: $GPGGA,215545,3946.9640,N,08404.9761,W,2,12,0.80,295.14,M,-33.324,M,,*7B
2017-12-01 16:55:44 1512165344.403479: $GPRMC,215545,A,3946.9640,N,08404.9761,W,0.0000,0.000,011217,,*3B
2017-12-01 16:55:44 1512165344.403540: $GPGSA,A,3,1,3,10,12,14,22,26,31,32,18,25,138,2.0,0.8,1.5*0A
2017-12-01 16:55:45 1512165345.404101: $GPZDA,215546.00,01,12,2017,00,00*61
2017-12-01 16:55:45 1512165345.404270: $GPGGA,215546,3946.9640,N,08404.9761,W,2,12,0.80,295.14,M,-33.324,M,,*78
2017-12-01 16:55:45 1512165345.404336: $GPRMC,215546,A,3946.9640,N,08404.9761,W,0.0000,0.000,011217,,*38
2017-12-01 16:55:45 1512165345.404398: $GPGSA,A,3,1,3,10,12,14,22,26,31,32,18,25,138,2.0,0.8,1.5*0A
2017-12-01 16:55:46 1512165346.724312: $GPGSV,3,1,12,01,22,289,43,03,09,318,40,10,36,153,38,12,17,040,21*73
2017-12-01 16:55:46 1512165346.724490: $GPGSV,3,2,12,14,70,355,46,22,28,310,43,26,12,180,33,31,67,238,47*70
2017-12-01 16:55:46 1512165346.724557: $GPGSV,3,3,12,32,64,055,48,18,08,147,18,25,40,075,32,138,38,213,40*4A
2017-12-01 16:55:46 1512165346.836455: $GPZDA,215547.00,01,12,2017,00,00*60
2017-12-01 16:55:46 1512165346.836628: $GPGGA,215547,3946.9640,N,08404.9761,W,2,12,0.80,295.14,M,-33.324,M,,*79
2017-12-01 16:55:46 1512165346.836764: $GPRMC,215547,A,3946.9640,N,08404.9761,W,0.0000,0.000,011217,,*39
2017-12-01 16:55:46 1512165346.836845: $GPGSA,A,3,1,3,10,12,14,22,26,31,32,18,25,138,2.0,0.8,1.5*0A
2017-12-01 16:55:47 1512165347.387392: $GPZDA,215548.00,01,12,2017,00,00*6F
2017-12-01 16:55:47 1512165347.387559: $GPGGA,215548,3946.9640,N,08404.9761,W,2,12,0.80,295.14,M,-33.324,M,,*76
2017-12-01 16:55:47 1512165347.387626: $GPRMC,215548,A,3946.9640,N,08404.9761,W,0.0000,0.000,011217,,*36
2017-12-01 16:55:47 1512165347.387704: $GPGSA,A,3,1,3,10,12,14,22,26,31,32,18,25,138,2.0,0.8,1.5*0A
2017-12-01 16:55:48 1512165348.385715: $GPZDA,215549.00,01,12,2017,00,00*6E
2017-12-01 16:55:48 1512165348.385906: $GPGGA,215549,3946.9640,N,08404.9761,W,2,12,0.80,295.14,M,-33.324,M,,*77
2017-12-01 16:55:48 1512165348.385974: $GPRMC,215549,A,3946.9640,N,08404.9761,W,0.0000,0.000,011217,,*37
2017-12-01 16:55:48 1512165348.386036: $GPGSA,A,3,1,3,10,12,14,22,26,31,32,18,25,138,2.0,0.8,1.5*0A
2017-12-01 16:55:49 1512165349.723913: $GPGSV,3,1,12,01,22,289,43,03,09,318,40,10,36,153,38,12,17,040,22*70
2017-12-01 16:55:49 1512165349.726301: $GPGSV,3,2,12,14,70,355,45,22,28,310,44,26,12,180,33,31,67,238,47*74
2017-12-01 16:55:49 1512165349.726406: $GPGSV,3,3,12,32,64,055,48,18,08,147,19,25,40,075,32,138,38,213,40*4B
2017-12-01 16:55:49 1512165349.837313: $GPZDA,215550.00,01,12,2017,00,00*66
2017-12-01 16:55:49 1512165349.837483: $GPGGA,215550,3946.9640,N,08404.9761,W,2,12,0.80,295.14,M,-33.324,M,,*7F
2017-12-01 16:55:49 1512165349.837550: $GPRMC,215550,A,3946.9640,N,08404.9761,W,0.0000,0.000,011217,,*3F
2017-12-01 16:55:49 1512165349.837611: $GPGSA,A,3,1,3,10,12,14,22,26,31,32,18,25,138,2.0,0.8,1.5*0A
2017-12-01 16:55:50 1512165350.387425: $GPZDA,215551.00,01,12,2017,00,00*67
2017-12-01 16:55:50 1512165350.387596: $GPGGA,215551,3946.9640,N,08404.9761,W,2,12,0.80,295.14,M,-33.324,M,,*7E
2017-12-01 16:55:50 1512165350.387663: $GPRMC,215551,A,3946.9640,N,08404.9761,W,0.0000,0.000,011217,,*3E
2017-12-01 16:55:50 1512165350.387756: $GPGSA,A,3,1,3,10,12,14,22,26,31,32,18,25,138,2.0,0.8,1.5*0A
2017-12-01 16:55:51 1512165351.386066: $GPZDA,215552.00,01,12,2017,00,00*64
2017-12-01 16:55:51 1512165351.386241: $GPGGA,215552,3946.9640,N,08404.9761,W,2,12,0.80,295.14,M,-33.324,M,,*7D
2017-12-01 16:55:51 1512165351.386308: $GPRMC,215552,A,3946.9640,N,08404.9761,W,0.0000,0.000,011217,,*3D
2017-12-01 16:55:51 1512165351.386368: $GPGSA,A,3,1,3,10,12,14,22,26,31,32,18,25,138,2.0,0.8,1.5*0A
2017-12-01 16:55:52 1512165352.721864: $GPGSV,3,1,12,01,22,289,42,03,09,318,40,10,36,153,38,12,17,040,23*70
2017-12-01 16:55:52 1512165352.722047: $GPGSV,3,2,12,14,70,355,45,22,28,310,43,26,12,180,33,31,67,238,46*72
2017-12-01 16:55:52 1512165352.722115: $GPGSV,3,3,12,32,64,055,47,18,08,147,20,25,40,075,31,138,38,213,38*42
2017-12-01 16:55:52 1512165352.835175: $GPZDA,215553.00,01,12,2017,00,00*65
2017-12-01 16:55:52 1512165352.835347: $GPGGA,215553,3946.9640,N,08404.9761,W,2,12,0.80,295.14,M,-33.324,M,,*7C
2017-12-01 16:55:52 1512165352.835414: $GPRMC,215553,A,3946.9640,N,08404.9761,W,0.0000,0.000,011217,,*3C
2017-12-01 16:55:52 1512165352.835477: $GPGSA,A,3,1,3,10,12,14,22,26,31,32,18,25,138,2.0,0.8,1.5*0A
2017-12-01 16:55:53 1512165353.387318: $GPZDA,215554.00,01,12,2017,00,00*62
2017-12-01 16:55:53 1512165353.387489: $GPGGA,215554,3946.9640,N,08404.9761,W,2,12,0.80,295.14,M,-33.324,M,,*7B
2017-12-01 16:55:53 1512165353.387555: $GPRMC,215554,A,3946.9640,N,08404.9761,W,0.0000,0.000,011217,,*3B
2017-12-01 16:55:53 1512165353.387617: $GPGSA,A,3,1,3,10,12,14,22,26,31,32,18,25,138,2.0,0.8,1.5*0A
2017-12-01 16:55:54 1512165354.386968: $GPZDA,215555.00,01,12,2017,00,00*63
2017-12-01 16:55:54 1512165354.387161: $GPGGA,215555,3946.9640,N,08404.9761,W,2,12,0.80,295.14,M,-33.324,M,,*7A
2017-12-01 16:55:54 1512165354.387234: $GPRMC,215555,A,3946.9640,N,08404.9761,W,0.0000,0.000,011217,,*3A
2017-12-01 16:55:54 1512165354.387296: $GPGSA,A,3,1,3,10,12,14,22,26,31,32,18,25,138,2.0,0.8,1.5*0A
2017-12-01 16:55:55 1512165355.722737: $GPGSV,3,1,12,01,22,289,43,03,09,318,40,10,36,153,38,12,17,040,24*76
2017-12-01 16:55:55 1512165355.722937: $GPGSV,3,2,12,14,70,355,45,22,28,310,43,26,12,180,33,31,67,238,47*73
2017-12-01 16:55:55 1512165355.723005: $GPGSV,3,3,12,32,64,055,47,18,08,147,20,25,40,075,30,138,38,213,40*4C
2017-12-01 16:55:55 1512165355.838333: $GPZDA,215556.00,01,12,2017,00,00*60
2017-12-01 16:55:55 1512165355.838696: $GPGGA,215556,3946.9640,N,08404.9761,W,2,12,0.80,295.14,M,-33.324,M,,*79
2017-12-01 16:55:55 1512165355.838825: $GPRMC,215556,A,3946.9640,N,08404.9761,W,0.0000,0.000,011217,,*39
2017-12-01 16:55:55 1512165355.838945: $GPGSA,A,3,1,3,10,12,14,22,26,31,32,18,25,138,2.0,0.8,1.5*0A
2017-12-01 16:55:56 1512165356.461881: $GPZDA,215557.00,01,12,2017,00,00*61
2017-12-01 16:55:56 1512165356.462051: $GPGGA,215557,3946.9640,N,08404.9761,W,2,12,0.80,295.14,M,-33.324,M,,*78
2017-12-01 16:55:56 1512165356.462117: $GPRMC,215557,A,3946.9640,N,08404.9761,W,0.0000,0.000,011217,,*38
2017-12-01 16:55:56 1512165356.462178: $GPGSA,A,3,1,3,10,12,14,22,26,31,32,18,25,138,2.0,0.8,1.5*0A
2017-12-01 16:55:57 1512165357.387697: $GPZDA,215558.00,01,12,2017,00,00*6E
2017-12-01 16:55:57 1512165357.387883: $GPGGA,215558,3946.9640,N,08404.9761,W,2,12,0.80,295.14,M,-33.324,M,,*77
2017-12-01 16:55:57 1512165357.387951: $GPRMC,215558,A,3946.9640,N,08404.9761,W,0.0000,0.000,011217,,*37
2017-12-01 16:55:57 1512165357.388012: $GPGSA,A,3,1,3,10,12,14,22,26,31,32,18,25,138,2.0,0.8,1.5*0A
2017-12-01 16:55:58 1512165358.723052: $GPGSV,3,1,12,01,22,289,43,03,09,318,40,10,36,153,37,12,17,040,24*79
2017-12-01 16:55:58 1512165358.723242: $GPGSV,3,2,12,14,70,355,45,22,28,310,43,26,12,180,34,31,67,238,47*74
2017-12-01 16:55:58 1512165358.723308: $GPGSV,3,3,12,32,64,055,48,18,08,147,21,25,40,075,30,138,38,213,41*43
2017-12-01 16:55:58 1512165358.836374: $GPZDA,215559.00,01,12,2017,00,00*6F
2017-12-01 16:55:58 1512165358.836547: $GPGGA,215559,3946.9640,N,08404.9761,W,2,12,0.80,295.14,M,-33.324,M,,*76
2017-12-01 16:55:58 1512165358.836614: $GPRMC,215559,A,3946.9640,N,08404.9761,W,0.0000,0.000,011217,,*36
2017-12-01 16:55:58 1512165358.836696: $GPGSA,A,3,1,3,10,12,14,22,26,31,32,18,25,138,2.0,0.8,1.5*0A
2017-12-01 16:55:59 1512165359.386022: $GPZDA,215600.00,01,12,2017,00,00*60
2017-12-01 16:55:59 1512165359.386192: $GPGGA,215600,3946.9640,N,08404.9761,W,2,12,0.80,295.14,M,-33.324,M,,*79
2017-12-01 16:55:59 1512165359.386259: $GPRMC,215600,A,3946.9640,N,08404.9761,W,0.0000,0.000,011217,,*39
2017-12-01 16:55:59 1512165359.386319: $GPGSA,A,3,1,3,10,12,14,22,26,31,32,18,25,138,2.0,0.8,1.5*0A
