2017-12-01 16:16:46 1512163006.087047: {"class":"VERSION","release":"3.16","rev":"3.16-4","proto_major":3,"proto_minor":11}
2017-12-01 16:16:46 1512163006.087475: {"class":"DEVICES","devices":[{"class":"DEVICE","path":"/dev/ttyUSB0","driver":"SiRF","subtype":"9\u0006GSD4e_4.1.2-P1_RPATCH.05-F-GPS-4R-1510281 11/03/2015 307","activated":"2017-12-01T21:16:46.080Z","flags":1,"native":1,"bps":4800,"parity":"N","stopbits":1,"cycle":1.00}]}
2017-12-01 16:16:46 1512163006.087606: {"class":"WATCH","enable":true,"json":false,"nmea":true,"raw":0,"scaled":false,"timing":false,"split24":false,"pps":false}
2017-12-01 16:16:47 1512163007.046429: $GPZDA,211647.31,01,12,2017,00,00*65
2017-12-01 16:16:47 1512163007.046605: $GPGGA,211647,3946.9593,N,08404.9811,W,1,11,0.80,302.56,M,-33.324,M,,*72
2017-12-01 16:16:47 1512163007.046692: $GPRMC,211647,A,3946.9593,N,08404.9811,W,0.0000,0.000,011217,,*3B
2017-12-01 16:16:47 1512163007.046755: $GPGSA,A,3,10,12,14,18,25,31,32,1,11,22,138,,2.0,0.8,1.5*3D
2017-12-01 16:16:47 1512163007.046814: $GPGBS,211647,10.70,M,15.43,M,35.28,M*00
2017-12-01 16:16:48 1512163008.188716: $GPGSV,3,1,12,10,54,145,47,11,10,288,38,12,24,055,44,14,63,315,44*71
2017-12-01 16:16:48 1512163008.188907: $GPGSV,3,2,12,18,23,142,45,22,14,312,37,25,38,099,47,31,50,220,49*71
2017-12-01 16:16:48 1512163008.188975: $GPGSV,3,3,12,32,70,012,47,01,20,306,31,24,02,048,00,138,38,213,00*41
2017-12-01 16:16:48 1512163008.302553: $GPZDA,211648.00,01,12,2017,00,00*68
2017-12-01 16:16:48 1512163008.302710: $GPGGA,211648,3946.9597,N,08404.9811,W,1,10,0.80,303.20,M,-33.324,M,,*78
2017-12-01 16:16:48 1512163008.302777: $GPRMC,211648,A,3946.9597,N,08404.9811,W,0.1567,189.200,011217,,*37
2017-12-01 16:16:48 1512163008.302838: $GPGSA,A,3,10,11,12,14,18,22,25,31,32,1,,,2.0,0.8,1.5*07
2017-12-01 16:16:48 1512163008.753276: $GPZDA,211649.00,01,12,2017,00,00*69
2017-12-01 16:16:48 1512163008.753443: $GPGGA,211649,3946.9597,N,08404.9811,W,1,10,0.80,303.20,M,-33.324,M,,*79
2017-12-01 16:16:48 1512163008.753509: $GPRMC,211649,A,3946.9597,N,08404.9811,W,0.0000,0.000,011217,,*31
2017-12-01 16:16:48 1512163008.753571: $GPGSA,A,3,10,11,12,14,18,22,25,31,32,1,,,2.0,0.8,1.5*07
2017-12-01 16:16:49 1512163009.356327: $GPZDA,211650.00,01,12,2017,00,00*61
2017-12-01 16:16:49 1512163009.356505: $GPGGA,211650,3946.9593,N,08404.9811,W,1,10,0.80,302.56,M,-33.324,M,,*75
2017-12-01 16:16:49 1512163009.356573: $GPRMC,211650,A,3946.9593,N,08404.9811,W,0.0000,0.000,011217,,*3D
2017-12-01 16:16:49 1512163009.356634: $GPGSA,A,3,10,11,12,14,18,22,25,31,32,1,,,2.0,0.8,1.5*07
2017-12-01 16:16:50 1512163010.691594: $GPGSV,3,1,12,10,54,145,48,11,10,288,39,12,24,055,44,14,63,315,45*7E
2017-12-01 16:16:50 1512163010.691756: $GPGSV,3,2,12,18,23,142,45,22,14,312,31,25,38,099,47,31,50,220,49*77
2017-12-01 16:16:50 1512163010.691821: $GPGSV,3,3,12,32,70,012,46,01,20,306,31,24,02,048,00,138,38,213,46*42
2017-12-01 16:16:50 1512163010.804946: $GPZDA,211651.00,01,12,2017,00,00*60
2017-12-01 16:16:50 1512163010.812921: $GPGGA,211651,3946.9593,N,08404.9811,W,1,11,0.80,302.56,M,-33.324,M,,*75
2017-12-01 16:16:50 1512163010.813042: $GPRMC,211651,A,3946.9593,N,08404.9811,W,0.0000,0.000,011217,,*3C
2017-12-01 16:16:50 1512163010.813108: $GPGSA,A,3,10,11,12,14,18,22,25,31,32,1,138,,2.0,0.8,1.5*3D
2017-12-01 16:16:51 1512163011.356145: $GPZDA,211652.00,01,12,2017,00,00*63
2017-12-01 16:16:51 1512163011.356314: $GPGGA,211652,3946.9593,N,08404.9811,W,1,11,0.80,302.56,M,-33.324,M,,*76
2017-12-01 16:16:51 1512163011.356381: $GPRMC,211652,A,3946.9593,N,08404.9811,W,0.0000,0.000,011217,,*3F
2017-12-01 16:16:51 1512163011.356442: $GPGSA,A,3,10,11,12,14,18,22,25,31,32,1,138,,2.0,0.8,1.5*3D
2017-12-01 16:16:52 1512163012.356779: $GPZDA,211653.00,01,12,2017,00,00*62
2017-12-01 16:16:52 1512163012.356975: $GPGGA,211653,3946.9590,N,08404.9812,W,1,11,0.80,303.33,M,-33.324,M,,*75
2017-12-01 16:16:52 1512163012.357044: $GPRMC,211653,A,3946.9590,N,08404.9812,W,0.0000,0.000,011217,,*3E
2017-12-01 16:16:52 1512163012.357105: $GPGSA,A,3,10,11,12,14,18,22,25,31,32,1,138,,2.0,0.8,1.5*3D
2017-12-01 16:16:52 1512163012.357237: $GPGBS,211653,10.70,M,15.43,M,35.28,M*05
2017-12-01 16:16:53 1512163013.693599: $GPGSV,3,1,12,10,54,145,48,11,10,288,39,12,24,055,45,14,63,315,45*7F
2017-12-01 16:16:53 1512163013.693780: $GPGSV,3,2,12,18,23,142,45,22,14,312,31,25,38,099,47,31,50,220,49*77
2017-12-01 16:16:53 1512163013.693848: $GPGSV,3,3,12,32,70,012,47,01,20,306,31,24,02,048,00,138,38,213,46*43
2017-12-01 16:16:53 1512163013.807190: $GPZDA,211654.00,01,12,2017,00,00*65
2017-12-01 16:16:53 1512163013.807324: $GPGGA,211654,3946.9590,N,08404.9819,W,2,11,1.20,303.25,M,-33.324,M,,*76
2017-12-01 16:16:53 1512163013.807390: $GPRMC,211654,A,3946.9590,N,08404.9819,W,0.0000,0.000,011217,,*32
2017-12-01 16:16:53 1512163013.807451: $GPGSA,A,3,10,11,12,14,18,22,25,31,32,1,138,,2.0,1.2,1.5*36
2017-12-01 16:16:54 1512163014.358073: $GPZDA,211655.00,01,12,2017,00,00*64
2017-12-01 16:16:54 1512163014.358243: $GPGGA,211655,3946.9590,N,08404.9819,W,2,11,1.20,303.25,M,-33.324,M,,*77
2017-12-01 16:16:54 1512163014.358309: $GPRMC,211655,A,3946.9590,N,08404.9819,W,0.0000,0.000,011217,,*33
2017-12-01 16:16:54 1512163014.358370: $GPGSA,A,3,10,11,12,14,18,22,25,31,32,1,138,,2.0,1.2,1.5*36
2017-12-01 16:16:55 1512163015.358512: $GPZDA,211656.00,01,12,2017,00,00*67
2017-12-01 16:16:55 1512163015.358702: $GPGGA,211656,3946.9590,N,08404.9819,W,2,11,1.20,303.25,M,-33.324,M,,*74
2017-12-01 16:16:55 1512163015.358771: $GPRMC,211656,A,3946.9590,N,08404.9819,W,0.0000,0.000,011217,,*30
2017-12-01 16:16:55 1512163015.358849: $GPGSA,A,3,10,11,12,14,18,22,25,31,32,1,138,,2.0,1.2,1.5*36
2017-12-01 16:16:56 1512163016.692658: $GPGSV,3,1,12,10,54,145,48,11,10,288,39,12,24,055,45,14,63,315,45*7F
2017-12-01 16:16:56 1512163016.692874: $GPGSV,3,2,12,18,23,142,45,22,14,312,33,25,38,099,47,31,50,220,49*75
2017-12-01 16:16:56 1512163016.692944: $GPGSV,3,3,12,32,70,012,47,01,20,306,31,24,02,048,00,138,38,213,46*43
2017-12-01 16:16:56 1512163016.806080: $GPZDA,211657.00,01,12,2017,00,00*66
2017-12-01 16:16:56 1512163016.806251: $GPGGA,211657,3946.9590,N,08404.9819,W,2,11,1.20,303.25,M,-33.324,M,,*75
2017-12-01 16:16:56 1512163016.806318: $GPRMC,211657,A,3946.9590,N,08404.9819,W,0.0000,0.000,011217,,*31
2017-12-01 16:16:56 1512163016.806379: $GPGSA,A,3,10,11,12,14,18,22,25,31,32,1,138,,2.0,1.2,1.5*36
2017-12-01 16:16:57 1512163017.358499: $GPZDA,211658.00,01,12,2017,00,00*69
2017-12-01 16:16:57 1512163017.358672: $GPGGA,211658,3946.9590,N,08404.9819,W,2,11,0.80,303.25,M,-33.324,M,,*71
2017-12-01 16:16:57 1512163017.358741: $GPRMC,211658,A,3946.9590,N,08404.9819,W,0.0000,0.000,011217,,*3E
2017-12-01 16:16:57 1512163017.358801: $GPGSA,A,3,10,11,12,14,18,22,25,31,32,1,138,,2.0,0.8,1.5*3D
2017-12-01 16:16:58 1512163018.357875: $GPZDA,211659.00,01,12,2017,00,00*68
2017-12-01 16:16:58 1512163018.358063: $GPGGA,211659,3946.9590,N,08404.9819,W,2,11,0.80,303.25,M,-33.324,M,,*70
2017-12-01 16:16:58 1512163018.358133: $GPRMC,211659,A,3946.9590,N,08404.9819,W,0.0000,0.000,011217,,*3F
2017-12-01 16:16:58 1512163018.358195: $GPGSA,A,3,10,11,12,14,18,22,25,31,32,1,138,,2.0,0.8,1.5*3D
2017-12-01 16:16:59 1512163019.693512: $GPGSV,3,1,12,10,54,145,48,11,10,288,39,12,24,055,45,14,63,315,45*7F
2017-12-01 16:16:59 1512163019.693714: $GPGSV,3,2,12,18,23,142,45,22,14,312,32,25,38,099,47,31,50,220,49*74
2017-12-01 16:16:59 1512163019.693780: $GPGSV,3,3,12,32,70,012,47,01,20,306,31,24,02,048,00,138,38,213,46*43
2017-12-01 16:16:59 1512163019.806915: $GPZDA,211700.00,01,12,2017,00,00*65
2017-12-01 16:16:59 1512163019.807062: $GPGGA,211700,3946.9590,N,08404.9819,W,2,11,0.80,303.25,M,-33.324,M,,*7D
2017-12-01 16:16:59 1512163019.807129: $GPRMC,211700,A,3946.9590,N,08404.9819,W,0.0000,0.000,011217,,*32
2017-12-01 16:16:59 1512163019.807189: $GPGSA,A,3,10,11,12,14,18,22,25,31,32,1,138,,2.0,0.8,1.5*3D
2017-12-01 16:17:00 1512163020.432384: $GPZDA,211701.00,01,12,2017,00,00*64
2017-12-01 16:17:00 1512163020.432625: $GPGGA,211701,3946.9590,N,08404.9819,W,2,11,0.80,303.25,M,-33.324,M,,*7C
2017-12-01 16:17:00 1512163020.432697: $GPRMC,211701,A,3946.9590,N,08404.9819,W,0.0000,0.000,011217,,*33
2017-12-01 16:17:00 1512163020.432810: $GPGSA,A,3,10,11,12,14,18,22,25,31,32,1,138,,2.0,0.8,1.5*3D
2017-12-01 16:17:01 1512163021.359713: $GPZDA,211702.00,01,12,2017,00,00*67
2017-12-01 16:17:01 1512163021.359893: $GPGGA,211702,3946.9590,N,08404.9819,W,2,11,0.80,303.25,M,-33.324,M,,*7F
2017-12-01 16:17:01 1512163021.359960: $GPRMC,211702,A,3946.9590,N,08404.9819,W,0.0000,0.000,011217,,*30
2017-12-01 16:17:01 1512163021.360022: $GPGSA,A,3,10,11,12,14,18,22,25,31,32,1,138,,2.0,0.8,1.5*3D
2017-12-01 16:17:02 1512163022.690136: $GPGSV,3,1,12,10,54,145,48,11,10,288,39,12,24,055,46,14,63,315,45*7C
2017-12-01 16:17:02 1512163022.690320: $GPGSV,3,2,12,18,23,142,45,22,14,312,39,25,38,099,47,31,50,220,50*77
2017-12-01 16:17:02 1512163022.690387: $GPGSV,3,3,12,32,70,012,46,01,20,306,31,24,02,048,00,138,38,213,47*43
2017-12-01 16:17:02 1512163022.803746: $GPZDA,211703.00,01,12,2017,00,00*66
2017-12-01 16:17:02 1512163022.803937: $GPGGA,211703,3946.9590,N,08404.9819,W,2,11,0.80,303.25,M,-33.324,M,,*7E
2017-12-01 16:17:02 1512163022.804007: $GPRMC,211703,A,3946.9590,N,08404.9819,W,0.0000,0.000,011217,,*31
2017-12-01 16:17:02 1512163022.804068: $GPGSA,A,3,10,11,12,14,18,22,25,31,32,1,138,,2.0,0.8,1.5*3D
2017-12-01 16:17:03 1512163023.354496: $GPZDA,211704.00,01,12,2017,00,00*61
2017-12-01 16:17:03 1512163023.354693: $GPGGA,211704,3946.9586,N,08404.9820,W,2,11,0.80,304.01,M,-33.324,M,,*75
2017-12-01 16:17:03 1512163023.354763: $GPRMC,211704,A,3946.9586,N,08404.9820,W,0.2959,54.767,011217,,*0B
2017-12-01 16:17:03 1512163023.354825: $GPGSA,A,3,10,11,12,14,18,22,25,31,32,1,138,,2.0,0.8,1.5*3D
2017-12-01 16:17:04 1512163024.355344: $GPZDA,211705.00,01,12,2017,00,00*60
2017-12-01 16:17:04 1512163024.355528: $GPGGA,211705,3946.9586,N,08404.9820,W,2,11,0.80,304.01,M,-33.324,M,,*74
2017-12-01 16:17:04 1512163024.355595: $GPRMC,211705,A,3946.9586,N,08404.9820,W,0.0000,0.000,011217,,*3A
2017-12-01 16:17:04 1512163024.355656: $GPGSA,A,3,10,11,12,14,18,22,25,31,32,1,138,,2.0,0.8,1.5*3D
2017-12-01 16:17:04 1512163024.355715: $GPGBS,211705,2.67,M,3.86,M,8.82,M*32
2017-12-01 16:17:05 1512163025.689127: $GPGSV,3,1,12,10,54,145,48,11,10,288,38,12,24,055,45,14,63,315,45*7E
2017-12-01 16:17:05 1512163025.689306: $GPGSV,3,2,12,18,23,142,45,22,14,312,34,25,38,099,46,31,50,220,49*73
2017-12-01 16:17:05 1512163025.689372: $GPGSV,3,3,12,32,70,012,46,01,20,306,28,24,02,048,00,138,38,213,46*4A
2017-12-01 16:17:05 1512163025.802573: $GPZDA,211706.00,01,12,2017,00,00*63
2017-12-01 16:17:05 1512163025.802745: $GPGGA,211706,3946.9591,N,08404.9820,W,2,11,0.80,304.65,M,-33.324,M,,*73
2017-12-01 16:17:05 1512163025.802812: $GPRMC,211706,A,3946.9591,N,08404.9820,W,0.0000,0.000,011217,,*3F
2017-12-01 16:17:05 1512163025.802874: $GPGSA,A,3,10,11,12,14,18,22,25,31,32,1,138,,2.0,0.8,1.5*3D
