2017-12-01 15:35:05 1512160505.507015: {"class":"VERSION","release":"3.16","rev":"3.16-4","proto_major":3,"proto_minor":11}
2017-12-01 15:35:05 1512160505.507490: {"class":"DEVICES","devices":[{"class":"DEVICE","path":"/dev/ttyUSB0","driver":"SiRF","subtype":"9\u0006GSD4e_4.1.2-P1_RPATCH.05-F-GPS-4R-1510281 11/03/2015 307","activated":"2017-12-01T20:35:05.460Z","flags":1,"native":1,"bps":4800,"parity":"N","stopbits":1,"cycle":1.00}]}
2017-12-01 15:35:05 1512160505.507626: {"class":"WATCH","enable":true,"json":false,"nmea":true,"raw":0,"scaled":false,"timing":false,"split24":false,"pps":false}
2017-12-01 15:35:06 1512160506.758371: $GPGSV,3,1,11,01,11,321,30,10,74,123,47,11,10,306,39,12,24,076,43*75
2017-12-01 15:35:06 1512160506.758587: $GPGSV,3,2,11,14,52,285,41,18,42,132,45,24,18,045,41,25,26,118,46*7C
2017-12-01 15:35:06 1512160506.758654: $GPGSV,3,3,11,31,30,210,46,32,66,318,49,138,38,213,46*7C
2017-12-01 15:35:06 1512160506.871794: $GPZDA,203507.00,01,12,2017,00,00*63
2017-12-01 15:35:06 1512160506.871969: $GPGGA,203507,3946.9565,N,08404.9830,W,2,11,0.80,307.11,M,-33.324,M,,*79
2017-12-01 15:35:06 1512160506.872036: $GPRMC,203507,A,3946.9565,N,08404.9830,W,0.0000,0.000,011217,,*35
2017-12-01 15:35:06 1512160506.872096: $GPGSA,A,3,1,10,11,12,14,18,24,25,31,32,138,,2.0,0.8,1.5*3B
2017-12-01 15:35:07 1512160507.498365: $GPZDA,203508.00,01,12,2017,00,00*6C
2017-12-01 15:35:07 1512160507.498604: $GPGGA,203508,3946.9565,N,08404.9830,W,2,11,0.80,307.11,M,-33.324,M,,*76
2017-12-01 15:35:07 1512160507.498674: $GPRMC,203508,A,3946.9565,N,08404.9830,W,0.0000,0.000,011217,,*3A
2017-12-01 15:35:07 1512160507.498735: $GPGSA,A,3,1,10,11,12,14,18,24,25,31,32,138,,2.0,0.8,1.5*3B
2017-12-01 15:35:08 1512160508.419257: $GPZDA,203509.00,01,12,2017,00,00*6D
2017-12-01 15:35:08 1512160508.419468: $GPGGA,203509,3946.9565,N,08404.9830,W,2,11,0.80,307.11,M,-33.324,M,,*77
2017-12-01 15:35:08 1512160508.419555: $GPRMC,203509,A,3946.9565,N,08404.9830,W,0.0000,0.000,011217,,*3B
2017-12-01 15:35:08 1512160508.419618: $GPGSA,A,3,1,10,11,12,14,18,24,25,31,32,138,,2.0,0.8,1.5*3B
2017-12-01 15:35:09 1512160509.758716: $GPGSV,3,1,11,01,11,321,30,10,74,123,47,11,10,306,38,12,24,076,43*74
2017-12-01 15:35:09 1512160509.758911: $GPGSV,3,2,11,14,52,285,41,18,42,132,45,24,18,045,41,25,26,118,46*7C
2017-12-01 15:35:09 1512160509.758978: $GPGSV,3,3,11,31,30,210,46,32,66,318,49,138,38,213,45*7F
2017-12-01 15:35:09 1512160509.872183: $GPZDA,203510.00,01,12,2017,00,00*65
2017-12-01 15:35:09 1512160509.872352: $GPGGA,203510,3946.9565,N,08404.9830,W,2,11,0.80,307.11,M,-33.324,M,,*7F
2017-12-01 15:35:09 1512160509.872441: $GPRMC,203510,A,3946.9565,N,08404.9830,W,0.0000,0.000,011217,,*33
2017-12-01 15:35:09 1512160509.872503: $GPGSA,A,3,1,10,11,12,14,18,24,25,31,32,138,,2.0,0.8,1.5*3B
2017-12-01 15:35:10 1512160510.406923: $GPZDA,203511.00,01,12,2017,00,00*64
2017-12-01 15:35:10 1512160510.407101: $GPGGA,203511,3946.9565,N,08404.9830,W,2,11,0.80,307.11,M,-33.324,M,,*7E
2017-12-01 15:35:10 1512160510.407171: $GPRMC,203511,A,3946.9565,N,08404.9830,W,0.0000,0.000,011217,,*32
2017-12-01 15:35:10 1512160510.407251: $GPGSA,A,3,1,10,11,12,14,18,24,25,31,32,138,,2.0,0.8,1.5*3B
2017-12-01 15:35:11 1512160511.406441: $GPZDA,203512.00,01,12,2017,00,00*67
2017-12-01 15:35:11 1512160511.406619: $GPGGA,203512,3946.9565,N,08404.9830,W,2,11,0.80,307.11,M,-33.324,M,,*7D
2017-12-01 15:35:11 1512160511.406686: $GPRMC,203512,A,3946.9565,N,08404.9830,W,0.0000,0.000,011217,,*31
2017-12-01 15:35:11 1512160511.406748: $GPGSA,A,3,1,10,11,12,14,18,24,25,31,32,138,,2.0,0.8,1.5*3B
2017-12-01 15:35:12 1512160512.744246: $GPGSV,3,1,11,01,11,321,31,10,74,123,46,11,10,306,39,12,24,076,42*74
2017-12-01 15:35:12 1512160512.744484: $GPGSV,3,2,11,14,52,285,41,18,42,132,46,24,18,045,41,25,26,118,45*7C
2017-12-01 15:35:12 1512160512.744579: $GPGSV,3,3,11,31,30,210,47,32,66,318,49,138,38,213,46*7D
2017-12-01 15:35:12 1512160512.857638: $GPZDA,203513.00,01,12,2017,00,00*66
2017-12-01 15:35:12 1512160512.857807: $GPGGA,203513,3946.9565,N,08404.9830,W,2,11,0.80,307.11,M,-33.324,M,,*7C
2017-12-01 15:35:12 1512160512.857928: $GPRMC,203513,A,3946.9565,N,08404.9830,W,0.0000,0.000,011217,,*30
2017-12-01 15:35:12 1512160512.857992: $GPGSA,A,3,1,10,11,12,14,18,24,25,31,32,138,,2.0,0.8,1.5*3B
2017-12-01 15:35:13 1512160513.402256: $GPZDA,203514.00,01,12,2017,00,00*61
2017-12-01 15:35:13 1512160513.402432: $GPGGA,203514,3946.9565,N,08404.9830,W,2,11,0.80,307.11,M,-33.324,M,,*7B
2017-12-01 15:35:13 1512160513.402503: $GPRMC,203514,A,3946.9565,N,08404.9830,W,0.0000,0.000,011217,,*37
2017-12-01 15:35:13 1512160513.402564: $GPGSA,A,3,1,10,11,12,14,18,24,25,31,32,138,,2.0,0.8,1.5*3B
2017-12-01 15:35:14 1512160514.401818: $GPZDA,203515.00,01,12,2017,00,00*60
2017-12-01 15:35:14 1512160514.401990: $GPGGA,203515,3946.9565,N,08404.9830,W,2,11,0.80,307.11,M,-33.324,M,,*7A
2017-12-01 15:35:14 1512160514.402057: $GPRMC,203515,A,3946.9565,N,08404.9830,W,0.0000,0.000,011217,,*36
2017-12-01 15:35:14 1512160514.402120: $GPGSA,A,3,1,10,11,12,14,18,24,25,31,32,138,,2.0,0.8,1.5*3B
2017-12-01 15:35:15 1512160515.742480: $GPGSV,3,1,11,01,11,321,32,10,74,123,46,11,10,306,38,12,24,076,42*76
2017-12-01 15:35:15 1512160515.742668: $GPGSV,3,2,11,14,52,285,42,18,42,132,45,24,18,045,41,25,26,118,46*7F
2017-12-01 15:35:15 1512160515.742736: $GPGSV,3,3,11,31,30,210,47,32,66,318,49,138,38,213,45*7E
2017-12-01 15:35:15 1512160515.855866: $GPZDA,203516.00,01,12,2017,00,00*63
2017-12-01 15:35:15 1512160515.856006: $GPGGA,203516,3946.9565,N,08404.9830,W,2,11,0.80,307.11,M,-33.324,M,,*79
2017-12-01 15:35:15 1512160515.856071: $GPRMC,203516,A,3946.9565,N,08404.9830,W,0.0000,0.000,011217,,*35
2017-12-01 15:35:15 1512160515.856133: $GPGSA,A,3,1,10,11,12,14,18,24,25,31,32,138,,2.0,0.8,1.5*3B
2017-12-01 15:35:16 1512160516.407078: $GPZDA,203517.00,01,12,2017,00,00*62
2017-12-01 15:35:16 1512160516.407253: $GPGGA,203517,3946.9569,N,08404.9830,W,2,11,0.80,306.35,M,-33.324,M,,*73
2017-12-01 15:35:16 1512160516.407320: $GPRMC,203517,A,3946.9569,N,08404.9830,W,0.0000,0.000,011217,,*38
2017-12-01 15:35:16 1512160516.407385: $GPGSA,A,3,1,10,11,12,14,18,24,25,31,32,138,,2.0,0.8,1.5*3B
2017-12-01 15:35:17 1512160517.405871: $GPZDA,203518.00,01,12,2017,00,00*6D
2017-12-01 15:35:17 1512160517.406043: $GPGGA,203518,3946.9569,N,08404.9830,W,2,11,0.80,306.35,M,-33.324,M,,*7C
2017-12-01 15:35:17 1512160517.406110: $GPRMC,203518,A,3946.9569,N,08404.9830,W,0.0000,0.000,011217,,*37
2017-12-01 15:35:17 1512160517.406172: $GPGSA,A,3,1,10,11,12,14,18,24,25,31,32,138,,2.0,0.8,1.5*3B
2017-12-01 15:35:18 1512160518.741598: $GPGSV,3,1,11,01,11,321,32,10,74,123,47,11,10,306,37,12,24,076,42*78
2017-12-01 15:35:18 1512160518.741783: $GPGSV,3,2,11,14,52,285,42,18,42,132,45,24,18,045,41,25,26,118,46*7F
2017-12-01 15:35:18 1512160518.741851: $GPGSV,3,3,11,31,30,210,47,32,66,318,49,138,38,213,46*7D
2017-12-01 15:35:18 1512160518.855000: $GPZDA,203519.00,01,12,2017,00,00*6C
2017-12-01 15:35:18 1512160518.855188: $GPGGA,203519,3946.9569,N,08404.9830,W,2,11,0.80,306.35,M,-33.324,M,,*7D
2017-12-01 15:35:18 1512160518.855259: $GPRMC,203519,A,3946.9569,N,08404.9830,W,0.0000,0.000,011217,,*36
2017-12-01 15:35:18 1512160518.855322: $GPGSA,A,3,1,10,11,12,14,18,24,25,31,32,138,,2.0,0.8,1.5*3B
2017-12-01 15:35:19 1512160519.402485: $GPZDA,203520.00,01,12,2017,00,00*66
2017-12-01 15:35:19 1512160519.402656: $GPGGA,203520,3946.9569,N,08404.9830,W,2,11,0.80,306.35,M,-33.324,M,,*77
2017-12-01 15:35:19 1512160519.402725: $GPRMC,203520,A,3946.9569,N,08404.9830,W,0.0000,0.000,011217,,*3C
2017-12-01 15:35:19 1512160519.402787: $GPGSA,A,3,1,10,11,12,14,18,24,25,31,32,138,,2.0,0.8,1.5*3B
2017-12-01 15:35:20 1512160520.406696: $GPZDA,203521.00,01,12,2017,00,00*67
2017-12-01 15:35:20 1512160520.406876: $GPGGA,203521,3946.9569,N,08404.9830,W,2,11,0.80,306.35,M,-33.324,M,,*76
2017-12-01 15:35:20 1512160520.406943: $GPRMC,203521,A,3946.9569,N,08404.9830,W,0.0000,0.000,011217,,*3D
2017-12-01 15:35:20 1512160520.407006: $GPGSA,A,3,1,10,11,12,14,18,24,25,31,32,138,,2.0,0.8,1.5*3B
2017-12-01 15:35:21 1512160521.741182: $GPGSV,3,1,11,01,11,321,39,10,74,123,47,11,10,306,36,12,24,076,43*73
2017-12-01 15:35:21 1512160521.741466: $GPGSV,3,2,11,14,52,285,42,18,42,132,46,24,18,045,41,25,26,118,46*7C
2017-12-01 15:35:21 1512160521.741552: $GPGSV,3,3,11,31,30,210,47,32,66,318,49,138,38,213,46*7D
2017-12-01 15:35:21 1512160521.854600: $GPZDA,203522.00,01,12,2017,00,00*64
2017-12-01 15:35:21 1512160521.854765: $GPGGA,203522,3946.9569,N,08404.9830,W,2,11,0.80,306.35,M,-33.324,M,,*75
2017-12-01 15:35:21 1512160521.854832: $GPRMC,203522,A,3946.9569,N,08404.9830,W,0.0000,0.000,011217,,*3E
2017-12-01 15:35:21 1512160521.854893: $GPGSA,A,3,1,10,11,12,14,18,24,25,31,32,138,,2.0,0.8,1.5*3B
2017-12-01 15:35:22 1512160522.480153: $GPZDA,203523.00,01,12,2017,00,00*65
2017-12-01 15:35:22 1512160522.480327: $GPGGA,203523,3946.9569,N,08404.9830,W,2,11,0.80,306.35,M,-33.324,M,,*74
2017-12-01 15:35:22 1512160522.480397: $GPRMC,203523,A,3946.9569,N,08404.9830,W,0.0000,0.000,011217,,*3F
2017-12-01 15:35:22 1512160522.480462: $GPGSA,A,3,1,10,11,12,14,18,24,25,31,32,138,,2.0,0.8,1.5*3B
2017-12-01 15:35:23 1512160523.405870: $GPZDA,203524.00,01,12,2017,00,00*62
2017-12-01 15:35:23 1512160523.406043: $GPGGA,203524,3946.9569,N,08404.9830,W,2,11,0.80,306.35,M,-33.324,M,,*73
2017-12-01 15:35:23 1512160523.406112: $GPRMC,203524,A,3946.9569,N,08404.9830,W,0.0000,0.000,011217,,*38
2017-12-01 15:35:23 1512160523.406173: $GPGSA,A,3,1,10,11,12,14,18,24,25,31,32,138,,2.0,0.8,1.5*3B
2017-12-01 15:35:24 1512160524.737791: $GPGSV,3,1,11,01,11,321,39,10,74,123,47,11,10,306,36,12,24,076,44*74
2017-12-01 15:35:24 1512160524.737981: $GPGSV,3,2,11,14,52,285,42,18,42,132,45,24,18,045,41,25,26,118,46*7F
2017-12-01 15:35:24 1512160524.738048: $GPGSV,3,3,11,31,30,210,46,32,66,318,49,138,38,213,45*7F
2017-12-01 15:35:24 1512160524.851170: $GPZDA,203525.00,01,12,2017,00,00*63
2017-12-01 15:35:24 1512160524.851399: $GPGGA,203525,3946.9569,N,08404.9830,W,2,11,0.80,306.35,M,-33.324,M,,*72
2017-12-01 15:35:24 1512160524.851483: $GPRMC,203525,A,3946.9569,N,08404.9830,W,0.0000,0.000,011217,,*39
2017-12-01 15:35:24 1512160524.851546: $GPGSA,A,3,1,10,11,12,14,18,24,25,31,32,138,,2.0,0.8,1.5*3B
2017-12-01 15:35:25 1512160525.406154: $GPZDA,203526.00,01,12,2017,00,00*60
2017-12-01 15:35:25 1512160525.406331: $GPGGA,203526,3946.9569,N,08404.9830,W,2,11,0.80,306.35,M,-33.324,M,,*71
2017-12-01 15:35:25 1512160525.406401: $GPRMC,203526,A,3946.9569,N,08404.9830,W,0.0000,0.000,011217,,*3A
2017-12-01 15:35:25 1512160525.406467: $GPGSA,A,3,1,10,11,12,14,18,24,25,31,32,138,,2.0,0.8,1.5*3B
